timestamp,noutputs,output[0],output[1],output[2],output[3],output[4],output[5],output[6],output[7],output[8],output[9],output[10],output[11],output[12],output[13],output[14],output[15]
310010672,8,1075.0,1075.0,1075.0,1075.0,1075.0,1075.0,0.0,0.0,0.0,0.0,0.0,0.0,0.0,0.0,0.0,0.0
310116522,8,1075.0,1075.0,1075.0,1075.0,1075.0,1075.0,0.0,0.0,0.0,0.0,0.0,0.0,0.0,0.0,0.0,0.0
310200283,8,1075.0,1075.0,1075.0,1075.0,1075.0,1075.0,0.0,0.0,0.0,0.0,0.0,0.0,0.0,0.0,0.0,0.0
310309240,8,1162.0,1126.0,1131.0,1157.0,1146.0,1142.0,0.0,0.0,0.0,0.0,0.0,0.0,0.0,0.0,0.0,0.0
310417126,8,1163.0,1125.0,1133.0,1155.0,1145.0,1143.0,0.0,0.0,0.0,0.0,0.0,0.0,0.0,0.0,0.0,0.0
310509300,8,1159.0,1129.0,1130.0,1158.0,1148.0,1140.0,0.0,0.0,0.0,0.0,0.0,0.0,0.0,0.0,0.0,0.0
310621125,8,1162.0,1126.0,1131.0,1157.0,1147.0,1141.0,0.0,0.0,0.0,0.0,0.0,0.0,0.0,0.0,0.0,0.0
310730717,8,1163.0,1125.0,1131.0,1157.0,1145.0,1143.0,0.0,0.0,0.0,0.0,0.0,0.0,0.0,0.0,0.0,0.0
310818727,8,1161.0,1127.0,1130.0,1158.0,1147.0,1141.0,0.0,0.0,0.0,0.0,0.0,0.0,0.0,0.0,0.0,0.0
310926683,8,1162.0,1126.0,1132.0,1156.0,1145.0,1143.0,0.0,0.0,0.0,0.0,0.0,0.0,0.0,0.0,0.0,0.0
311014875,8,1161.0,1127.0,1129.0,1159.0,1147.0,1141.0,0.0,0.0,0.0,0.0,0.0,0.0,0.0,0.0,0.0,0.0
311130692,8,1163.0,1125.0,1131.0,1157.0,1146.0,1142.0,0.0,0.0,0.0,0.0,0.0,0.0,0.0,0.0,0.0,0.0
311239010,8,1162.0,1126.0,1132.0,1156.0,1146.0,1142.0,0.0,0.0,0.0,0.0,0.0,0.0,0.0,0.0,0.0,0.0
311326637,8,1162.0,1126.0,1130.0,1158.0,1146.0,1142.0,0.0,0.0,0.0,0.0,0.0,0.0,0.0,0.0,0.0,0.0
311443484,8,1162.0,1127.0,1132.0,1156.0,1146.0,1142.0,0.0,0.0,0.0,0.0,0.0,0.0,0.0,0.0,0.0,0.0
311536337,8,1162.0,1126.0,1129.0,1159.0,1146.0,1142.0,0.0,0.0,0.0,0.0,0.0,0.0,0.0,0.0,0.0,0.0
311648286,8,1162.0,1126.0,1130.0,1158.0,1144.0,1144.0,0.0,0.0,0.0,0.0,0.0,0.0,0.0,0.0,0.0,0.0
311732325,8,1163.0,1129.0,1132.0,1159.0,1146.0,1145.0,0.0,0.0,0.0,0.0,0.0,0.0,0.0,0.0,0.0,0.0
311840329,8,1178.0,1144.0,1146.0,1175.0,1163.0,1158.0,0.0,0.0,0.0,0.0,0.0,0.0,0.0,0.0,0.0,0.0
311956282,8,1184.0,1145.0,1148.0,1180.0,1165.0,1164.0,0.0,0.0,0.0,0.0,0.0,0.0,0.0,0.0,0.0,0.0
312048961,8,1214.0,1183.0,1182.0,1214.0,1201.0,1196.0,0.0,0.0,0.0,0.0,0.0,0.0,0.0,0.0,0.0,0.0
312136277,8,1233.0,1191.0,1198.0,1225.0,1213.0,1211.0,0.0,0.0,0.0,0.0,0.0,0.0,0.0,0.0,0.0,0.0
312245954,8,1241.0,1203.0,1209.0,1235.0,1224.0,1219.0,0.0,0.0,0.0,0.0,0.0,0.0,0.0,0.0,0.0,0.0
312353885,8,1253.0,1214.0,1219.0,1248.0,1235.0,1232.0,0.0,0.0,0.0,0.0,0.0,0.0,0.0,0.0,0.0,0.0
312461989,8,1263.0,1221.0,1225.0,1259.0,1243.0,1242.0,0.0,0.0,0.0,0.0,0.0,0.0,0.0,0.0,0.0,0.0
312545927,8,1278.0,1238.0,1244.0,1272.0,1259.0,1257.0,0.0,0.0,0.0,0.0,0.0,0.0,0.0,0.0,0.0,0.0
312658128,8,1283.0,1235.0,1240.0,1278.0,1261.0,1257.0,0.0,0.0,0.0,0.0,0.0,0.0,0.0,0.0,0.0,0.0
312749868,8,1277.0,1237.0,1243.0,1271.0,1258.0,1256.0,0.0,0.0,0.0,0.0,0.0,0.0,0.0,0.0,0.0,0.0
312861935,8,1279.0,1239.0,1244.0,1273.0,1262.0,1256.0,0.0,0.0,0.0,0.0,0.0,0.0,0.0,0.0,0.0,0.0
312951527,8,1284.0,1239.0,1247.0,1277.0,1267.0,1257.0,0.0,0.0,0.0,0.0,0.0,0.0,0.0,0.0,0.0,0.0
313060260,8,1289.0,1246.0,1251.0,1285.0,1270.0,1266.0,0.0,0.0,0.0,0.0,0.0,0.0,0.0,0.0,0.0,0.0
313171762,8,1308.0,1260.0,1262.0,1306.0,1285.0,1283.0,0.0,0.0,0.0,0.0,0.0,0.0,0.0,0.0,0.0,0.0
313263507,8,1318.0,1265.0,1272.0,1311.0,1297.0,1286.0,0.0,0.0,0.0,0.0,0.0,0.0,0.0,0.0,0.0,0.0
313375487,8,1317.0,1270.0,1271.0,1316.0,1300.0,1288.0,0.0,0.0,0.0,0.0,0.0,0.0,0.0,0.0,0.0,0.0
313463451,8,1318.0,1273.0,1281.0,1310.0,1298.0,1293.0,0.0,0.0,0.0,0.0,0.0,0.0,0.0,0.0,0.0,0.0
313571475,8,1318.0,1294.0,1284.0,1327.0,1292.0,1320.0,0.0,0.0,0.0,0.0,0.0,0.0,0.0,0.0,0.0,0.0
313667509,8,1320.0,1320.0,1293.0,1347.0,1293.0,1347.0,0.0,0.0,0.0,0.0,0.0,0.0,0.0,0.0,0.0,0.0
313778145,8,1337.0,1335.0,1308.0,1364.0,1308.0,1364.0,0.0,0.0,0.0,0.0,0.0,0.0,0.0,0.0,0.0,0.0
313885895,8,1351.0,1363.0,1330.0,1383.0,1328.0,1386.0,0.0,0.0,0.0,0.0,0.0,0.0,0.0,0.0,0.0,0.0
313981095,8,1338.0,1373.0,1329.0,1382.0,1315.0,1397.0,0.0,0.0,0.0,0.0,0.0,0.0,0.0,0.0,0.0,0.0
314089306,8,1324.0,1390.0,1330.0,1384.0,1296.0,1418.0,0.0,0.0,0.0,0.0,0.0,0.0,0.0,0.0,0.0,0.0
314185117,8,1344.0,1370.0,1308.0,1406.0,1297.0,1416.0,0.0,0.0,0.0,0.0,0.0,0.0,0.0,0.0,0.0,0.0
314273069,8,1353.0,1400.0,1336.0,1417.0,1317.0,1436.0,0.0,0.0,0.0,0.0,0.0,0.0,0.0,0.0,0.0,0.0
314390125,8,1335.0,1424.0,1342.0,1417.0,1303.0,1455.0,0.0,0.0,0.0,0.0,0.0,0.0,0.0,0.0,0.0,0.0
314495293,8,1363.0,1445.0,1361.0,1447.0,1331.0,1477.0,0.0,0.0,0.0,0.0,0.0,0.0,0.0,0.0,0.0,0.0
314582684,8,1367.0,1458.0,1367.0,1458.0,1327.0,1498.0,0.0,0.0,0.0,0.0,0.0,0.0,0.0,0.0,0.0,0.0
314686710,8,1406.0,1490.0,1388.0,1507.0,1353.0,1543.0,0.0,0.0,0.0,0.0,0.0,0.0,0.0,0.0,0.0,0.0
314778773,8,1416.0,1482.0,1393.0,1505.0,1371.0,1528.0,0.0,0.0,0.0,0.0,0.0,0.0,0.0,0.0,0.0,0.0
314886718,8,1430.0,1501.0,1403.0,1518.0,1358.0,1563.0,0.0,0.0,0.0,0.0,0.0,0.0,0.0,0.0,0.0,0.0
314994708,8,1440.0,1510.0,1437.0,1513.0,1413.0,1537.0,0.0,0.0,0.0,0.0,0.0,0.0,0.0,0.0,0.0,0.0
315400308,8,1518.0,1495.0,1486.0,1527.0,1489.0,1523.0,0.0,0.0,0.0,0.0,0.0,0.0,0.0,0.0,0.0,0.0
315492310,8,1520.0,1493.0,1510.0,1504.0,1519.0,1494.0,0.0,0.0,0.0,0.0,0.0,0.0,0.0,0.0,0.0,0.0
315604290,8,1499.0,1503.0,1494.0,1507.0,1497.0,1505.0,0.0,0.0,0.0,0.0,0.0,0.0,0.0,0.0,0.0,0.0
315700328,8,1519.0,1496.0,1508.0,1507.0,1507.0,1508.0,0.0,0.0,0.0,0.0,0.0,0.0,0.0,0.0,0.0,0.0
315796517,8,1520.0,1496.0,1495.0,1520.0,1490.0,1525.0,0.0,0.0,0.0,0.0,0.0,0.0,0.0,0.0,0.0,0.0
315916317,8,1498.0,1517.0,1500.0,1515.0,1459.0,1557.0,0.0,0.0,0.0,0.0,0.0,0.0,0.0,0.0,0.0,0.0
316006722,8,1496.0,1524.0,1518.0,1502.0,1477.0,1542.0,0.0,0.0,0.0,0.0,0.0,0.0,0.0,0.0,0.0,0.0
316114589,8,1533.0,1504.0,1505.0,1532.0,1503.0,1534.0,0.0,0.0,0.0,0.0,0.0,0.0,0.0,0.0,0.0,0.0
316222648,8,1505.0,1532.0,1529.0,1508.0,1492.0,1544.0,0.0,0.0,0.0,0.0,0.0,0.0,0.0,0.0,0.0,0.0
316309880,8,1519.0,1520.0,1523.0,1515.0,1506.0,1533.0,0.0,0.0,0.0,0.0,0.0,0.0,0.0,0.0,0.0,0.0
316413916,8,1540.0,1540.0,1565.0,1515.0,1560.0,1520.0,0.0,0.0,0.0,0.0,0.0,0.0,0.0,0.0,0.0,0.0
316510578,8,1545.0,1548.0,1556.0,1537.0,1556.0,1537.0,0.0,0.0,0.0,0.0,0.0,0.0,0.0,0.0,0.0,0.0
316618987,8,1546.0,1551.0,1535.0,1563.0,1528.0,1569.0,0.0,0.0,0.0,0.0,0.0,0.0,0.0,0.0,0.0,0.0
316724323,8,1551.0,1549.0,1538.0,1563.0,1523.0,1577.0,0.0,0.0,0.0,0.0,0.0,0.0,0.0,0.0,0.0,0.0
316815503,8,1539.0,1556.0,1559.0,1537.0,1530.0,1565.0,0.0,0.0,0.0,0.0,0.0,0.0,0.0,0.0,0.0,0.0
316923496,8,1558.0,1537.0,1552.0,1543.0,1535.0,1561.0,0.0,0.0,0.0,0.0,0.0,0.0,0.0,0.0,0.0,0.0
317023482,8,1556.0,1539.0,1526.0,1569.0,1512.0,1583.0,0.0,0.0,0.0,0.0,0.0,0.0,0.0,0.0,0.0,0.0
317131481,8,1547.0,1548.0,1569.0,1526.0,1532.0,1563.0,0.0,0.0,0.0,0.0,0.0,0.0,0.0,0.0,0.0,0.0
317239472,8,1560.0,1534.0,1554.0,1540.0,1525.0,1568.0,0.0,0.0,0.0,0.0,0.0,0.0,0.0,0.0,0.0,0.0
317339725,8,1533.0,1560.0,1565.0,1527.0,1512.0,1580.0,0.0,0.0,0.0,0.0,0.0,0.0,0.0,0.0,0.0,0.0
317429146,8,1549.0,1546.0,1538.0,1556.0,1518.0,1576.0,0.0,0.0,0.0,0.0,0.0,0.0,0.0,0.0,0.0,0.0
317545137,8,1555.0,1538.0,1538.0,1555.0,1523.0,1569.0,0.0,0.0,0.0,0.0,0.0,0.0,0.0,0.0,0.0,0.0
317633321,8,1546.0,1548.0,1552.0,1542.0,1525.0,1569.0,0.0,0.0,0.0,0.0,0.0,0.0,0.0,0.0,0.0,0.0
317741324,8,1533.0,1561.0,1552.0,1541.0,1523.0,1570.0,0.0,0.0,0.0,0.0,0.0,0.0,0.0,0.0,0.0,0.0
317829279,8,1534.0,1559.0,1567.0,1527.0,1531.0,1562.0,0.0,0.0,0.0,0.0,0.0,0.0,0.0,0.0,0.0,0.0
317945806,8,1541.0,1557.0,1553.0,1544.0,1523.0,1574.0,0.0,0.0,0.0,0.0,0.0,0.0,0.0,0.0,0.0,0.0
318053741,8,1536.0,1561.0,1550.0,1547.0,1520.0,1577.0,0.0,0.0,0.0,0.0,0.0,0.0,0.0,0.0,0.0,0.0
318145192,8,1546.0,1556.0,1540.0,1563.0,1518.0,1585.0,0.0,0.0,0.0,0.0,0.0,0.0,0.0,0.0,0.0,0.0
318254685,8,1553.0,1554.0,1557.0,1550.0,1540.0,1567.0,0.0,0.0,0.0,0.0,0.0,0.0,0.0,0.0,0.0,0.0
318355067,8,1567.0,1569.0,1578.0,1558.0,1555.0,1582.0,0.0,0.0,0.0,0.0,0.0,0.0,0.0,0.0,0.0,0.0
319272325,8,1546.0,1564.0,1549.0,1561.0,1522.0,1588.0,0.0,0.0,0.0,0.0,0.0,0.0,0.0,0.0,0.0,0.0
319380310,8,1509.0,1509.0,1521.0,1498.0,1502.0,1517.0,0.0,0.0,0.0,0.0,0.0,0.0,0.0,0.0,0.0,0.0
319476526,8,1510.0,1508.0,1487.0,1531.0,1479.0,1540.0,0.0,0.0,0.0,0.0,0.0,0.0,0.0,0.0,0.0,0.0
319564971,8,1512.0,1507.0,1518.0,1500.0,1495.0,1523.0,0.0,0.0,0.0,0.0,0.0,0.0,0.0,0.0,0.0,0.0
319673921,8,1504.0,1512.0,1521.0,1495.0,1501.0,1516.0,0.0,0.0,0.0,0.0,0.0,0.0,0.0,0.0,0.0,0.0
319781897,8,1506.0,1510.0,1505.0,1511.0,1475.0,1541.0,0.0,0.0,0.0,0.0,0.0,0.0,0.0,0.0,0.0,0.0
319869927,8,1506.0,1509.0,1494.0,1521.0,1468.0,1547.0,0.0,0.0,0.0,0.0,0.0,0.0,0.0,0.0,0.0,0.0
319978109,8,1512.0,1503.0,1521.0,1494.0,1494.0,1521.0,0.0,0.0,0.0,0.0,0.0,0.0,0.0,0.0,0.0,0.0
320086119,8,1513.0,1503.0,1475.0,1541.0,1459.0,1557.0,0.0,0.0,0.0,0.0,0.0,0.0,0.0,0.0,0.0,0.0
320178240,8,1504.0,1511.0,1496.0,1519.0,1486.0,1529.0,0.0,0.0,0.0,0.0,0.0,0.0,0.0,0.0,0.0,0.0
320293899,8,1512.0,1504.0,1489.0,1527.0,1474.0,1541.0,0.0,0.0,0.0,0.0,0.0,0.0,0.0,0.0,0.0,0.0
320386949,8,1502.0,1513.0,1516.0,1499.0,1503.0,1512.0,0.0,0.0,0.0,0.0,0.0,0.0,0.0,0.0,0.0,0.0
320500358,8,1496.0,1519.0,1487.0,1528.0,1485.0,1529.0,0.0,0.0,0.0,0.0,0.0,0.0,0.0,0.0,0.0,0.0
320587779,8,1513.0,1502.0,1522.0,1494.0,1509.0,1506.0,0.0,0.0,0.0,0.0,0.0,0.0,0.0,0.0,0.0,0.0
320691504,8,1495.0,1520.0,1516.0,1499.0,1496.0,1519.0,0.0,0.0,0.0,0.0,0.0,0.0,0.0,0.0,0.0,0.0
320799500,8,1512.0,1506.0,1484.0,1534.0,1469.0,1549.0,0.0,0.0,0.0,0.0,0.0,0.0,0.0,0.0,0.0,0.0
320907476,8,1503.0,1514.0,1490.0,1527.0,1461.0,1556.0,0.0,0.0,0.0,0.0,0.0,0.0,0.0,0.0,0.0,0.0
320995479,8,1512.0,1516.0,1489.0,1540.0,1467.0,1562.0,0.0,0.0,0.0,0.0,0.0,0.0,0.0,0.0,0.0,0.0
321087508,8,1547.0,1549.0,1563.0,1533.0,1537.0,1558.0,0.0,0.0,0.0,0.0,0.0,0.0,0.0,0.0,0.0,0.0
321197073,8,1588.0,1587.0,1598.0,1577.0,1570.0,1605.0,0.0,0.0,0.0,0.0,0.0,0.0,0.0,0.0,0.0,0.0
321305094,8,1627.0,1615.0,1631.0,1610.0,1605.0,1636.0,0.0,0.0,0.0,0.0,0.0,0.0,0.0,0.0,0.0,0.0
321409276,8,1655.0,1651.0,1663.0,1642.0,1627.0,1678.0,0.0,0.0,0.0,0.0,0.0,0.0,0.0,0.0,0.0,0.0
321513154,8,1667.0,1642.0,1648.0,1661.0,1627.0,1682.0,0.0,0.0,0.0,0.0,0.0,0.0,0.0,0.0,0.0,0.0
321597274,8,1668.0,1632.0,1622.0,1678.0,1613.0,1688.0,0.0,0.0,0.0,0.0,0.0,0.0,0.0,0.0,0.0,0.0
321709350,8,1637.0,1661.0,1666.0,1632.0,1631.0,1667.0,0.0,0.0,0.0,0.0,0.0,0.0,0.0,0.0,0.0,0.0
321817072,8,1641.0,1619.0,1603.0,1657.0,1601.0,1659.0,0.0,0.0,0.0,0.0,0.0,0.0,0.0,0.0,0.0,0.0
321903334,8,1596.0,1608.0,1611.0,1593.0,1590.0,1615.0,0.0,0.0,0.0,0.0,0.0,0.0,0.0,0.0,0.0,0.0
322014736,8,1568.0,1589.0,1595.0,1563.0,1567.0,1590.0,0.0,0.0,0.0,0.0,0.0,0.0,0.0,0.0,0.0,0.0
322122717,8,1540.0,1520.0,1517.0,1543.0,1501.0,1559.0,0.0,0.0,0.0,0.0,0.0,0.0,0.0,0.0,0.0,0.0
322214703,8,1513.0,1509.0,1502.0,1520.0,1486.0,1536.0,0.0,0.0,0.0,0.0,0.0,0.0,0.0,0.0,0.0,0.0
322326896,8,1507.0,1510.0,1517.0,1500.0,1496.0,1521.0,0.0,0.0,0.0,0.0,0.0,0.0,0.0,0.0,0.0,0.0
322422705,8,1488.0,1530.0,1513.0,1505.0,1484.0,1533.0,0.0,0.0,0.0,0.0,0.0,0.0,0.0,0.0,0.0,0.0
322518721,8,1512.0,1515.0,1492.0,1525.0,1468.0,1549.0,0.0,0.0,0.0,0.0,0.0,0.0,0.0,0.0,0.0,0.0
322632536,8,1496.0,1521.0,1525.0,1493.0,1510.0,1508.0,0.0,0.0,0.0,0.0,0.0,0.0,0.0,0.0,0.0,0.0
322716315,8,1498.0,1521.0,1512.0,1507.0,1483.0,1536.0,0.0,0.0,0.0,0.0,0.0,0.0,0.0,0.0,0.0,0.0
322820564,8,1500.0,1518.0,1503.0,1515.0,1479.0,1539.0,0.0,0.0,0.0,0.0,0.0,0.0,0.0,0.0,0.0,0.0
322936503,8,1517.0,1516.0,1510.0,1510.0,1489.0,1531.0,0.0,0.0,0.0,0.0,0.0,0.0,0.0,0.0,0.0,0.0
323024435,8,1508.0,1511.0,1538.0,1480.0,1507.0,1512.0,0.0,0.0,0.0,0.0,0.0,0.0,0.0,0.0,0.0,0.0
323136284,8,1504.0,1516.0,1517.0,1503.0,1482.0,1537.0,0.0,0.0,0.0,0.0,0.0,0.0,0.0,0.0,0.0,0.0
323228344,8,1513.0,1505.0,1499.0,1519.0,1486.0,1532.0,0.0,0.0,0.0,0.0,0.0,0.0,0.0,0.0,0.0,0.0
323341877,8,1523.0,1495.0,1495.0,1523.0,1495.0,1524.0,0.0,0.0,0.0,0.0,0.0,0.0,0.0,0.0,0.0,0.0
323429929,8,1514.0,1512.0,1528.0,1499.0,1502.0,1524.0,0.0,0.0,0.0,0.0,0.0,0.0,0.0,0.0,0.0,0.0
323541956,8,1517.0,1522.0,1520.0,1513.0,1498.0,1535.0,0.0,0.0,0.0,0.0,0.0,0.0,0.0,0.0,0.0,0.0
323630582,8,1516.0,1531.0,1519.0,1528.0,1491.0,1556.0,0.0,0.0,0.0,0.0,0.0,0.0,0.0,0.0,0.0,0.0
323733913,8,1539.0,1549.0,1544.0,1543.0,1515.0,1573.0,0.0,0.0,0.0,0.0,0.0,0.0,0.0,0.0,0.0,0.0
323846542,8,1550.0,1553.0,1539.0,1564.0,1516.0,1587.0,0.0,0.0,0.0,0.0,0.0,0.0,0.0,0.0,0.0,0.0
323933903,8,1539.0,1566.0,1569.0,1536.0,1529.0,1577.0,0.0,0.0,0.0,0.0,0.0,0.0,0.0,0.0,0.0,0.0
324045908,8,1576.0,1574.0,1560.0,1589.0,1538.0,1612.0,0.0,0.0,0.0,0.0,0.0,0.0,0.0,0.0,0.0,0.0
324155519,8,1584.0,1556.0,1557.0,1582.0,1551.0,1588.0,0.0,0.0,0.0,0.0,0.0,0.0,0.0,0.0,0.0,0.0
324247733,8,1574.0,1564.0,1546.0,1592.0,1529.0,1609.0,0.0,0.0,0.0,0.0,0.0,0.0,0.0,0.0,0.0,0.0
324359465,8,1572.0,1580.0,1569.0,1583.0,1547.0,1605.0,0.0,0.0,0.0,0.0,0.0,0.0,0.0,0.0,0.0,0.0
324443740,8,1572.0,1584.0,1571.0,1584.0,1547.0,1609.0,0.0,0.0,0.0,0.0,0.0,0.0,0.0,0.0,0.0,0.0
324559524,8,1577.0,1576.0,1566.0,1586.0,1546.0,1606.0,0.0,0.0,0.0,0.0,0.0,0.0,0.0,0.0,0.0,0.0
324651522,8,1577.0,1573.0,1560.0,1590.0,1543.0,1607.0,0.0,0.0,0.0,0.0,0.0,0.0,0.0,0.0,0.0,0.0
324763543,8,1580.0,1570.0,1558.0,1593.0,1551.0,1600.0,0.0,0.0,0.0,0.0,0.0,0.0,0.0,0.0,0.0,0.0
324869346,8,1571.0,1581.0,1561.0,1591.0,1543.0,1609.0,0.0,0.0,0.0,0.0,0.0,0.0,0.0,0.0,0.0,0.0
324957797,8,1566.0,1586.0,1583.0,1569.0,1556.0,1596.0,0.0,0.0,0.0,0.0,0.0,0.0,0.0,0.0,0.0,0.0
325065787,8,1572.0,1582.0,1558.0,1595.0,1537.0,1616.0,0.0,0.0,0.0,0.0,0.0,0.0,0.0,0.0,0.0,0.0
325153391,8,1571.0,1582.0,1579.0,1573.0,1549.0,1604.0,0.0,0.0,0.0,0.0,0.0,0.0,0.0,0.0,0.0,0.0
325261273,8,1575.0,1580.0,1566.0,1590.0,1547.0,1609.0,0.0,0.0,0.0,0.0,0.0,0.0,0.0,0.0,0.0,0.0
325369278,8,1581.0,1576.0,1568.0,1589.0,1560.0,1598.0,0.0,0.0,0.0,0.0,0.0,0.0,0.0,0.0,0.0,0.0
325461779,8,1578.0,1579.0,1567.0,1590.0,1543.0,1614.0,0.0,0.0,0.0,0.0,0.0,0.0,0.0,0.0,0.0,0.0
325570555,8,1571.0,1586.0,1584.0,1573.0,1553.0,1604.0,0.0,0.0,0.0,0.0,0.0,0.0,0.0,0.0,0.0,0.0
325682733,8,1574.0,1583.0,1555.0,1603.0,1530.0,1627.0,0.0,0.0,0.0,0.0,0.0,0.0,0.0,0.0,0.0,0.0
325770691,8,1573.0,1579.0,1568.0,1584.0,1544.0,1609.0,0.0,0.0,0.0,0.0,0.0,0.0,0.0,0.0,0.0,0.0
325878937,8,1590.0,1560.0,1559.0,1591.0,1550.0,1600.0,0.0,0.0,0.0,0.0,0.0,0.0,0.0,0.0,0.0,0.0
325970919,8,1578.0,1573.0,1577.0,1575.0,1558.0,1594.0,0.0,0.0,0.0,0.0,0.0,0.0,0.0,0.0,0.0,0.0
326075382,8,1575.0,1570.0,1564.0,1581.0,1543.0,1584.0,0.0,0.0,0.0,0.0,0.0,0.0,0.0,0.0,0.0,0.0
326187135,8,1529.0,1528.0,1532.0,1525.0,1515.0,1541.0,0.0,0.0,0.0,0.0,0.0,0.0,0.0,0.0,0.0,0.0
326278711,8,1503.0,1515.0,1501.0,1517.0,1482.0,1536.0,0.0,0.0,0.0,0.0,0.0,0.0,0.0,0.0,0.0,0.0
326392325,8,1509.0,1508.0,1497.0,1520.0,1483.0,1534.0,0.0,0.0,0.0,0.0,0.0,0.0,0.0,0.0,0.0,0.0
326496340,8,1507.0,1510.0,1511.0,1506.0,1504.0,1512.0,0.0,0.0,0.0,0.0,0.0,0.0,0.0,0.0,0.0,0.0
326584300,8,1487.0,1530.0,1514.0,1503.0,1489.0,1528.0,0.0,0.0,0.0,0.0,0.0,0.0,0.0,0.0,0.0,0.0
326692466,8,1497.0,1521.0,1479.0,1539.0,1459.0,1559.0,0.0,0.0,0.0,0.0,0.0,0.0,0.0,0.0,0.0,0.0
326780302,8,1513.0,1504.0,1489.0,1527.0,1482.0,1534.0,0.0,0.0,0.0,0.0,0.0,0.0,0.0,0.0,0.0,0.0
326896268,8,1513.0,1506.0,1461.0,1557.0,1454.0,1564.0,0.0,0.0,0.0,0.0,0.0,0.0,0.0,0.0,0.0,0.0
326988305,8,1498.0,1519.0,1500.0,1517.0,1493.0,1524.0,0.0,0.0,0.0,0.0,0.0,0.0,0.0,0.0,0.0,0.0
327101947,8,1505.0,1512.0,1474.0,1543.0,1483.0,1534.0,0.0,0.0,0.0,0.0,0.0,0.0,0.0,0.0,0.0,0.0
327185935,8,1507.0,1510.0,1484.0,1533.0,1495.0,1522.0,0.0,0.0,0.0,0.0,0.0,0.0,0.0,0.0,0.0,0.0
327301899,8,1489.0,1527.0,1529.0,1488.0,1509.0,1507.0,0.0,0.0,0.0,0.0,0.0,0.0,0.0,0.0,0.0,0.0
327390113,8,1503.0,1515.0,1473.0,1545.0,1473.0,1545.0,0.0,0.0,0.0,0.0,0.0,0.0,0.0,0.0,0.0,0.0
327506110,8,1498.0,1523.0,1517.0,1504.0,1514.0,1507.0,0.0,0.0,0.0,0.0,0.0,0.0,0.0,0.0,0.0,0.0
327593920,8,1506.0,1533.0,1522.0,1517.0,1496.0,1544.0,0.0,0.0,0.0,0.0,0.0,0.0,0.0,0.0,0.0,0.0
327697887,8,1555.0,1550.0,1554.0,1551.0,1542.0,1562.0,0.0,0.0,0.0,0.0,0.0,0.0,0.0,0.0,0.0,0.0
327811584,8,1571.0,1592.0,1564.0,1600.0,1560.0,1604.0,0.0,0.0,0.0,0.0,0.0,0.0,0.0,0.0,0.0,0.0
327903597,8,1577.0,1580.0,1547.0,1610.0,1537.0,1620.0,0.0,0.0,0.0,0.0,0.0,0.0,0.0,0.0,0.0,0.0
327995494,8,1570.0,1586.0,1573.0,1583.0,1561.0,1596.0,0.0,0.0,0.0,0.0,0.0,0.0,0.0,0.0,0.0,0.0
328107482,8,1575.0,1613.0,1597.0,1591.0,1570.0,1619.0,0.0,0.0,0.0,0.0,0.0,0.0,0.0,0.0,0.0,0.0
328215472,8,1584.0,1601.0,1613.0,1572.0,1590.0,1596.0,0.0,0.0,0.0,0.0,0.0,0.0,0.0,0.0,0.0,0.0
328299748,8,1586.0,1600.0,1593.0,1593.0,1566.0,1620.0,0.0,0.0,0.0,0.0,0.0,0.0,0.0,0.0,0.0,0.0
328412213,8,1589.0,1594.0,1571.0,1585.0,1576.0,1607.0,0.0,0.0,0.0,0.0,0.0,0.0,0.0,0.0,0.0,0.0
328525059,8,1597.0,1588.0,1576.0,1608.0,1566.0,1599.0,0.0,0.0,0.0,0.0,0.0,0.0,0.0,0.0,0.0,0.0
328609340,8,1586.0,1595.0,1588.0,1593.0,1566.0,1615.0,0.0,0.0,0.0,0.0,0.0,0.0,0.0,0.0,0.0,0.0
328725361,8,1584.0,1598.0,1603.0,1579.0,1580.0,1602.0,0.0,0.0,0.0,0.0,0.0,0.0,0.0,0.0,0.0,0.0
328817291,8,1570.0,1613.0,1607.0,1576.0,1565.0,1619.0,0.0,0.0,0.0,0.0,0.0,0.0,0.0,0.0,0.0,0.0
328929144,8,1602.0,1580.0,1583.0,1599.0,1572.0,1610.0,0.0,0.0,0.0,0.0,0.0,0.0,0.0,0.0,0.0,0.0
329013303,8,1581.0,1601.0,1601.0,1581.0,1576.0,1606.0,0.0,0.0,0.0,0.0,0.0,0.0,0.0,0.0,0.0,0.0
329129913,8,1598.0,1585.0,1575.0,1608.0,1555.0,1628.0,0.0,0.0,0.0,0.0,0.0,0.0,0.0,0.0,0.0,0.0
329221920,8,1585.0,1597.0,1606.0,1577.0,1584.0,1598.0,0.0,0.0,0.0,0.0,0.0,0.0,0.0,0.0,0.0,0.0
329330690,8,1589.0,1592.0,1606.0,1576.0,1576.0,1605.0,0.0,0.0,0.0,0.0,0.0,0.0,0.0,0.0,0.0,0.0
329422709,8,1587.0,1593.0,1584.0,1596.0,1557.0,1623.0,0.0,0.0,0.0,0.0,0.0,0.0,0.0,0.0,0.0,0.0
329527346,8,1579.0,1602.0,1611.0,1571.0,1578.0,1604.0,0.0,0.0,0.0,0.0,0.0,0.0,0.0,0.0,0.0,0.0
329638786,8,1581.0,1598.0,1602.0,1577.0,1570.0,1609.0,0.0,0.0,0.0,0.0,0.0,0.0,0.0,0.0,0.0,0.0
329726897,8,1575.0,1605.0,1610.0,1570.0,1577.0,1603.0,0.0,0.0,0.0,0.0,0.0,0.0,0.0,0.0,0.0,0.0
329838695,8,1558.0,1567.0,1569.0,1556.0,1534.0,1591.0,0.0,0.0,0.0,0.0,0.0,0.0,0.0,0.0,0.0,0.0
329946947,8,1499.0,1515.0,1530.0,1484.0,1503.0,1511.0,0.0,0.0,0.0,0.0,0.0,0.0,0.0,0.0,0.0,0.0
330035511,8,1486.0,1529.0,1520.0,1495.0,1477.0,1538.0,0.0,0.0,0.0,0.0,0.0,0.0,0.0,0.0,0.0,0.0
330140157,8,1502.0,1512.0,1524.0,1491.0,1496.0,1518.0,0.0,0.0,0.0,0.0,0.0,0.0,0.0,0.0,0.0,0.0
330248290,8,1503.0,1512.0,1525.0,1490.0,1499.0,1516.0,0.0,0.0,0.0,0.0,0.0,0.0,0.0,0.0,0.0,0.0
330335513,8,1511.0,1507.0,1501.0,1516.0,1478.0,1540.0,0.0,0.0,0.0,0.0,0.0,0.0,0.0,0.0,0.0,0.0
330431481,8,1496.0,1520.0,1521.0,1495.0,1500.0,1516.0,0.0,0.0,0.0,0.0,0.0,0.0,0.0,0.0,0.0,0.0
330547687,8,1502.0,1515.0,1521.0,1495.0,1499.0,1518.0,0.0,0.0,0.0,0.0,0.0,0.0,0.0,0.0,0.0,0.0
330655523,8,1511.0,1504.0,1479.0,1536.0,1457.0,1558.0,0.0,0.0,0.0,0.0,0.0,0.0,0.0,0.0,0.0,0.0
330747488,8,1501.0,1513.0,1538.0,1477.0,1509.0,1505.0,0.0,0.0,0.0,0.0,0.0,0.0,0.0,0.0,0.0,0.0
330855737,8,1510.0,1506.0,1531.0,1485.0,1496.0,1520.0,0.0,0.0,0.0,0.0,0.0,0.0,0.0,0.0,0.0,0.0
330945101,8,1512.0,1503.0,1519.0,1495.0,1503.0,1512.0,0.0,0.0,0.0,0.0,0.0,0.0,0.0,0.0,0.0,0.0
331041738,8,1501.0,1514.0,1543.0,1472.0,1509.0,1506.0,0.0,0.0,0.0,0.0,0.0,0.0,0.0,0.0,0.0,0.0
331161119,8,1505.0,1512.0,1521.0,1495.0,1490.0,1526.0,0.0,0.0,0.0,0.0,0.0,0.0,0.0,0.0,0.0,0.0
331253124,8,1512.0,1505.0,1523.0,1494.0,1495.0,1552.0,0.0,0.0,0.0,0.0,0.0,0.0,0.0,0.0,0.0,0.0
331365770,8,1516.0,1502.0,1523.0,1495.0,1502.0,1517.0,0.0,0.0,0.0,0.0,0.0,0.0,0.0,0.0,0.0,0.0
331449168,8,1499.0,1521.0,1533.0,1488.0,1515.0,1506.0,0.0,0.0,0.0,0.0,0.0,0.0,0.0,0.0,0.0,0.0
331557117,8,1531.0,1526.0,1526.0,1532.0,1495.0,1563.0,0.0,0.0,0.0,0.0,0.0,0.0,0.0,0.0,0.0,0.0
331665904,8,1577.0,1599.0,1604.0,1572.0,1561.0,1615.0,0.0,0.0,0.0,0.0,0.0,0.0,0.0,0.0,0.0,0.0
331759712,8,1578.0,1593.0,1585.0,1586.0,1554.0,1616.0,0.0,0.0,0.0,0.0,0.0,0.0,0.0,0.0,0.0,0.0
331870721,8,1583.0,1588.0,1585.0,1585.0,1554.0,1616.0,0.0,0.0,0.0,0.0,0.0,0.0,0.0,0.0,0.0,0.0
331962689,8,1578.0,1583.0,1600.0,1561.0,1571.0,1590.0,0.0,0.0,0.0,0.0,0.0,0.0,0.0,0.0,0.0,0.0
332066922,8,1590.0,1567.0,1566.0,1591.0,1564.0,1592.0,0.0,0.0,0.0,0.0,0.0,0.0,0.0,0.0,0.0,0.0
332178895,8,1572.0,1581.0,1594.0,1559.0,1569.0,1584.0,0.0,0.0,0.0,0.0,0.0,0.0,0.0,0.0,0.0,0.0
332263720,8,1585.0,1567.0,1564.0,1589.0,1554.0,1598.0,0.0,0.0,0.0,0.0,0.0,0.0,0.0,0.0,0.0,0.0
332366674,8,1577.0,1574.0,1561.0,1591.0,1542.0,1610.0,0.0,0.0,0.0,0.0,0.0,0.0,0.0,0.0,0.0,0.0
332480931,8,1571.0,1574.0,1559.0,1586.0,1544.0,1602.0,0.0,0.0,0.0,0.0,0.0,0.0,0.0,0.0,0.0,0.0
332568344,8,1575.0,1572.0,1561.0,1586.0,1540.0,1606.0,0.0,0.0,0.0,0.0,0.0,0.0,0.0,0.0,0.0,0.0
332684344,8,1565.0,1576.0,1565.0,1576.0,1542.0,1599.0,0.0,0.0,0.0,0.0,0.0,0.0,0.0,0.0,0.0,0.0
332772309,8,1560.0,1560.0,1555.0,1565.0,1540.0,1581.0,0.0,0.0,0.0,0.0,0.0,0.0,0.0,0.0,0.0,0.0
332884283,8,1563.0,1541.0,1546.0,1558.0,1536.0,1568.0,0.0,0.0,0.0,0.0,0.0,0.0,0.0,0.0,0.0,0.0
332972282,8,1549.0,1551.0,1538.0,1562.0,1531.0,1570.0,0.0,0.0,0.0,0.0,0.0,0.0,0.0,0.0,0.0,0.0
333088264,8,1541.0,1554.0,1556.0,1539.0,1544.0,1551.0,0.0,0.0,0.0,0.0,0.0,0.0,0.0,0.0,0.0,0.0
333193121,8,1543.0,1552.0,1547.0,1547.0,1535.0,1560.0,0.0,0.0,0.0,0.0,0.0,0.0,0.0,0.0,0.0,0.0
333289333,8,1565.0,1530.0,1557.0,1538.0,1559.0,1536.0,0.0,0.0,0.0,0.0,0.0,0.0,0.0,0.0,0.0,0.0
333377129,8,1532.0,1564.0,1536.0,1560.0,1492.0,1604.0,0.0,0.0,0.0,0.0,0.0,0.0,0.0,0.0,0.0,0.0
333489733,8,1541.0,1554.0,1545.0,1550.0,1519.0,1576.0,0.0,0.0,0.0,0.0,0.0,0.0,0.0,0.0,0.0,0.0
333581365,8,1541.0,1556.0,1562.0,1535.0,1531.0,1566.0,0.0,0.0,0.0,0.0,0.0,0.0,0.0,0.0,0.0,0.0
333697154,8,1563.0,1544.0,1548.0,1560.0,1537.0,1570.0,0.0,0.0,0.0,0.0,0.0,0.0,0.0,0.0,0.0,0.0
333789269,8,1565.0,1556.0,1542.0,1579.0,1524.0,1596.0,0.0,0.0,0.0,0.0,0.0,0.0,0.0,0.0,0.0,0.0
333901089,8,1571.0,1557.0,1551.0,1577.0,1527.0,1601.0,0.0,0.0,0.0,0.0,0.0,0.0,0.0,0.0,0.0,0.0
333993925,8,1577.0,1548.0,1563.0,1562.0,1537.0,1588.0,0.0,0.0,0.0,0.0,0.0,0.0,0.0,0.0,0.0,0.0
334102668,8,1573.0,1553.0,1551.0,1575.0,1526.0,1600.0,0.0,0.0,0.0,0.0,0.0,0.0,0.0,0.0,0.0,0.0
334190692,8,1576.0,1550.0,1549.0,1577.0,1520.0,1606.0,0.0,0.0,0.0,0.0,0.0,0.0,0.0,0.0,0.0,0.0
334310691,8,1554.0,1569.0,1581.0,1543.0,1548.0,1606.0,0.0,0.0,0.0,0.0,0.0,0.0,0.0,0.0,0.0,0.0
334406724,8,1569.0,1552.0,1568.0,1553.0,1544.0,1576.0,0.0,0.0,0.0,0.0,0.0,0.0,0.0,0.0,0.0,0.0
334494712,8,1562.0,1558.0,1562.0,1557.0,1532.0,1588.0,0.0,0.0,0.0,0.0,0.0,0.0,0.0,0.0,0.0,0.0
334607356,8,1581.0,1541.0,1575.0,1547.0,1567.0,1555.0,0.0,0.0,0.0,0.0,0.0,0.0,0.0,0.0,0.0,0.0
334718764,8,1554.0,1565.0,1556.0,1563.0,1526.0,1593.0,0.0,0.0,0.0,0.0,0.0,0.0,0.0,0.0,0.0,0.0
334806694,8,1552.0,1567.0,1556.0,1564.0,1529.0,1590.0,0.0,0.0,0.0,0.0,0.0,0.0,0.0,0.0,0.0,0.0
334916333,8,1564.0,1568.0,1570.0,1562.0,1542.0,1590.0,0.0,0.0,0.0,0.0,0.0,0.0,0.0,0.0,0.0,0.0
335004958,8,1566.0,1571.0,1541.0,1596.0,1543.0,1594.0,0.0,0.0,0.0,0.0,0.0,0.0,0.0,0.0,0.0,0.0
335108315,8,1572.0,1577.0,1568.0,1582.0,1558.0,1592.0,0.0,0.0,0.0,0.0,0.0,0.0,0.0,0.0,0.0,0.0
335221216,8,1562.0,1583.0,1561.0,1585.0,1546.0,1599.0,0.0,0.0,0.0,0.0,0.0,0.0,0.0,0.0,0.0,0.0
335308345,8,1561.0,1585.0,1566.0,1580.0,1550.0,1596.0,0.0,0.0,0.0,0.0,0.0,0.0,0.0,0.0,0.0,0.0
335428272,8,1556.0,1593.0,1566.0,1583.0,1549.0,1600.0,0.0,0.0,0.0,0.0,0.0,0.0,0.0,0.0,0.0,0.0
335512287,8,1579.0,1587.0,1564.0,1601.0,1551.0,1615.0,0.0,0.0,0.0,0.0,0.0,0.0,0.0,0.0,0.0,0.0
335621916,8,1586.0,1592.0,1577.0,1601.0,1570.0,1607.0,0.0,0.0,0.0,0.0,0.0,0.0,0.0,0.0,0.0,0.0
335725927,8,1597.0,1582.0,1575.0,1604.0,1567.0,1612.0,0.0,0.0,0.0,0.0,0.0,0.0,0.0,0.0,0.0,0.0
335813924,8,1587.0,1606.0,1605.0,1588.0,1587.0,1606.0,0.0,0.0,0.0,0.0,0.0,0.0,0.0,0.0,0.0,0.0
335925934,8,1587.0,1605.0,1602.0,1590.0,1569.0,1623.0,0.0,0.0,0.0,0.0,0.0,0.0,0.0,0.0,0.0,0.0
336038172,8,1580.0,1612.0,1593.0,1599.0,1576.0,1616.0,0.0,0.0,0.0,0.0,0.0,0.0,0.0,0.0,0.0,0.0
336126099,8,1593.0,1601.0,1587.0,1607.0,1565.0,1629.0,0.0,0.0,0.0,0.0,0.0,0.0,0.0,0.0,0.0,0.0
336233939,8,1585.0,1607.0,1598.0,1594.0,1574.0,1619.0,0.0,0.0,0.0,0.0,0.0,0.0,0.0,0.0,0.0,0.0
336323505,8,1596.0,1596.0,1578.0,1614.0,1563.0,1629.0,0.0,0.0,0.0,0.0,0.0,0.0,0.0,0.0,0.0,0.0
336440121,8,1583.0,1606.0,1607.0,1582.0,1583.0,1606.0,0.0,0.0,0.0,0.0,0.0,0.0,0.0,0.0,0.0,0.0
336527636,8,1592.0,1595.0,1579.0,1607.0,1562.0,1624.0,0.0,0.0,0.0,0.0,0.0,0.0,0.0,0.0,0.0,0.0
336643517,8,1559.0,1544.0,1526.0,1577.0,1516.0,1587.0,0.0,0.0,0.0,0.0,0.0,0.0,0.0,0.0,0.0,0.0
336728236,8,1515.0,1502.0,1501.0,1516.0,1499.0,1518.0,0.0,0.0,0.0,0.0,0.0,0.0,0.0,0.0,0.0,0.0
336839657,8,1516.0,1501.0,1475.0,1542.0,1467.0,1550.0,0.0,0.0,0.0,0.0,0.0,0.0,0.0,0.0,0.0,0.0
336935485,8,1511.0,1503.0,1473.0,1541.0,1461.0,1553.0,0.0,0.0,0.0,0.0,0.0,0.0,0.0,0.0,0.0,0.0
337049407,8,1505.0,1510.0,1490.0,1525.0,1465.0,1550.0,0.0,0.0,0.0,0.0,0.0,0.0,0.0,0.0,0.0,0.0
337141119,8,1508.0,1509.0,1524.0,1493.0,1495.0,1522.0,0.0,0.0,0.0,0.0,0.0,0.0,0.0,0.0,0.0,0.0
337253173,8,1523.0,1494.0,1472.0,1544.0,1468.0,1548.0,0.0,0.0,0.0,0.0,0.0,0.0,0.0,0.0,0.0,0.0
337345105,8,1506.0,1511.0,1512.0,1505.0,1488.0,1529.0,0.0,0.0,0.0,0.0,0.0,0.0,0.0,0.0,0.0,0.0
337453112,8,1496.0,1515.0,1523.0,1488.0,1489.0,1521.0,0.0,0.0,0.0,0.0,0.0,0.0,0.0,0.0,0.0,0.0
337545112,8,1502.0,1510.0,1504.0,1508.0,1506.0,1506.0,0.0,0.0,0.0,0.0,0.0,0.0,0.0,0.0,0.0,0.0
337641122,8,1511.0,1506.0,1544.0,1473.0,1528.0,1489.0,0.0,0.0,0.0,0.0,0.0,0.0,0.0,0.0,0.0,0.0
337754729,8,1510.0,1505.0,1519.0,1496.0,1506.0,1508.0,0.0,0.0,0.0,0.0,0.0,0.0,0.0,0.0,0.0,0.0
337866704,8,1492.0,1525.0,1539.0,1478.0,1507.0,1510.0,0.0,0.0,0.0,0.0,0.0,0.0,0.0,0.0,0.0,0.0
337958921,8,1572.0,1567.0,1568.0,1571.0,1544.0,1595.0,0.0,0.0,0.0,0.0,0.0,0.0,0.0,0.0,0.0,0.0
338054699,8,1610.0,1607.0,1618.0,1599.0,1595.0,1622.0,0.0,0.0,0.0,0.0,0.0,0.0,0.0,0.0,0.0,0.0
338162687,8,1631.0,1676.0,1688.0,1620.0,1640.0,1667.0,0.0,0.0,0.0,0.0,0.0,0.0,0.0,0.0,0.0,0.0
338270648,8,1634.0,1673.0,1664.0,1643.0,1623.0,1684.0,0.0,0.0,0.0,0.0,0.0,0.0,0.0,0.0,0.0,0.0
338358756,8,1628.0,1674.0,1666.0,1636.0,1615.0,1687.0,0.0,0.0,0.0,0.0,0.0,0.0,0.0,0.0,0.0,0.0
338468366,8,1617.0,1658.0,1649.0,1626.0,1618.0,1647.0,0.0,0.0,0.0,0.0,0.0,0.0,0.0,0.0,0.0,0.0
338556300,8,1614.0,1633.0,1634.0,1613.0,1611.0,1636.0,0.0,0.0,0.0,0.0,0.0,0.0,0.0,0.0,0.0,0.0
338672289,8,1593.0,1603.0,1597.0,1599.0,1586.0,1610.0,0.0,0.0,0.0,0.0,0.0,0.0,0.0,0.0,0.0,0.0
338776347,8,1586.0,1607.0,1584.0,1610.0,1559.0,1634.0,0.0,0.0,0.0,0.0,0.0,0.0,0.0,0.0,0.0,0.0
338872436,8,1597.0,1605.0,1600.0,1602.0,1583.0,1619.0,0.0,0.0,0.0,0.0,0.0,0.0,0.0,0.0,0.0,0.0
338964992,8,1607.0,1590.0,1580.0,1617.0,1571.0,1626.0,0.0,0.0,0.0,0.0,0.0,0.0,0.0,0.0,0.0,0.0
339072944,8,1596.0,1591.0,1594.0,1593.0,1588.0,1598.0,0.0,0.0,0.0,0.0,0.0,0.0,0.0,0.0,0.0,0.0
339168347,8,1593.0,1591.0,1612.0,1571.0,1586.0,1597.0,0.0,0.0,0.0,0.0,0.0,0.0,0.0,0.0,0.0,0.0
339273902,8,1554.0,1555.0,1551.0,1559.0,1548.0,1562.0,0.0,0.0,0.0,0.0,0.0,0.0,0.0,0.0,0.0,0.0
339382133,8,1511.0,1510.0,1512.0,1509.0,1500.0,1521.0,0.0,0.0,0.0,0.0,0.0,0.0,0.0,0.0,0.0,0.0
339470735,8,1508.0,1513.0,1484.0,1536.0,1491.0,1529.0,0.0,0.0,0.0,0.0,0.0,0.0,0.0,0.0,0.0,0.0
339581922,8,1514.0,1507.0,1484.0,1538.0,1478.0,1543.0,0.0,0.0,0.0,0.0,0.0,0.0,0.0,0.0,0.0,0.0
339678181,8,1507.0,1512.0,1487.0,1532.0,1481.0,1538.0,0.0,0.0,0.0,0.0,0.0,0.0,0.0,0.0,0.0,0.0
339794564,8,1490.0,1528.0,1541.0,1478.0,1527.0,1492.0,0.0,0.0,0.0,0.0,0.0,0.0,0.0,0.0,0.0,0.0
339885861,8,1534.0,1486.0,1487.0,1533.0,1501.0,1519.0,0.0,0.0,0.0,0.0,0.0,0.0,0.0,0.0,0.0,0.0
339975529,8,1524.0,1494.0,1507.0,1512.0,1514.0,1505.0,0.0,0.0,0.0,0.0,0.0,0.0,0.0,0.0,0.0,0.0
340090686,8,1508.0,1512.0,1531.0,1490.0,1515.0,1506.0,0.0,0.0,0.0,0.0,0.0,0.0,0.0,0.0,0.0,0.0
340178965,8,1502.0,1512.0,1543.0,1472.0,1526.0,1489.0,0.0,0.0,0.0,0.0,0.0,0.0,0.0,0.0,0.0,0.0
340286659,8,1492.0,1522.0,1508.0,1507.0,1488.0,1527.0,0.0,0.0,0.0,0.0,0.0,0.0,0.0,0.0,0.0,0.0
340398914,8,1504.0,1514.0,1527.0,1490.0,1513.0,1504.0,0.0,0.0,0.0,0.0,0.0,0.0,0.0,0.0,0.0,0.0
340494681,8,1535.0,1551.0,1516.0,1570.0,1509.0,1577.0,0.0,0.0,0.0,0.0,0.0,0.0,0.0,0.0,0.0,0.0
340598871,8,1565.0,1563.0,1561.0,1567.0,1559.0,1569.0,0.0,0.0,0.0,0.0,0.0,0.0,0.0,0.0,0.0,0.0
340695358,8,1572.0,1571.0,1561.0,1583.0,1555.0,1589.0,0.0,0.0,0.0,0.0,0.0,0.0,0.0,0.0,0.0,0.0
340806703,8,1563.0,1589.0,1575.0,1576.0,1554.0,1597.0,0.0,0.0,0.0,0.0,0.0,0.0,0.0,0.0,0.0,0.0
340896311,8,1578.0,1578.0,1568.0,1588.0,1560.0,1596.0,0.0,0.0,0.0,0.0,0.0,0.0,0.0,0.0,0.0,0.0
341008320,8,1602.0,1629.0,1571.0,1661.0,1623.0,1609.0,0.0,0.0,0.0,0.0,0.0,0.0,0.0,0.0,0.0,0.0
341112523,8,1619.0,1608.0,1599.0,1629.0,1599.0,1629.0,0.0,0.0,0.0,0.0,0.0,0.0,0.0,0.0,0.0,0.0
341196375,8,1619.0,1610.0,1633.0,1622.0,1580.0,1648.0,0.0,0.0,0.0,0.0,0.0,0.0,0.0,0.0,0.0,0.0
341309064,8,1588.0,1610.0,1613.0,1586.0,1591.0,1608.0,0.0,0.0,0.0,0.0,0.0,0.0,0.0,0.0,0.0,0.0
341416944,8,1586.0,1547.0,1551.0,1581.0,1557.0,1576.0,0.0,0.0,0.0,0.0,0.0,0.0,0.0,0.0,0.0,0.0
341504276,8,1510.0,1508.0,1506.0,1512.0,1501.0,1517.0,0.0,0.0,0.0,0.0,0.0,0.0,0.0,0.0,0.0,0.0
341614145,8,1466.0,1556.0,1486.0,1536.0,1459.0,1563.0,0.0,0.0,0.0,0.0,0.0,0.0,0.0,0.0,0.0,0.0
341706561,8,1506.0,1531.0,1490.0,1546.0,1497.0,1540.0,0.0,0.0,0.0,0.0,0.0,0.0,0.0,0.0,0.0,0.0
341814535,8,1521.0,1516.0,1519.0,1518.0,1537.0,1500.0,0.0,0.0,0.0,0.0,0.0,0.0,0.0,0.0,0.0,0.0
341922592,8,1509.0,1525.0,1500.0,1535.0,1524.0,1511.0,0.0,0.0,0.0,0.0,0.0,0.0,0.0,0.0,0.0,0.0
342013899,8,1530.0,1504.0,1471.0,1562.0,1478.0,1555.0,0.0,0.0,0.0,0.0,0.0,0.0,0.0,0.0,0.0,0.0
342125882,8,1516.0,1505.0,1531.0,1490.0,1501.0,1520.0,0.0,0.0,0.0,0.0,0.0,0.0,0.0,0.0,0.0,0.0
342213858,8,1548.0,1472.0,1507.0,1513.0,1531.0,1489.0,0.0,0.0,0.0,0.0,0.0,0.0,0.0,0.0,0.0,0.0
342327517,8,1482.0,1537.0,1486.0,1532.0,1570.0,1448.0,0.0,0.0,0.0,0.0,0.0,0.0,0.0,0.0,0.0,0.0
342415490,8,1407.0,1610.0,1460.0,1557.0,1537.0,1480.0,0.0,0.0,0.0,0.0,0.0,0.0,0.0,0.0,0.0,0.0
342527489,8,1383.0,1635.0,1368.0,1649.0,1307.0,1710.0,0.0,0.0,0.0,0.0,0.0,0.0,0.0,0.0,0.0,0.0
342623510,8,1648.0,1412.0,1577.0,1483.0,1639.0,1421.0,0.0,0.0,0.0,0.0,0.0,0.0,0.0,0.0,0.0,0.0
342735557,8,1508.0,1558.0,1559.0,1508.0,1514.0,1553.0,0.0,0.0,0.0,0.0,0.0,0.0,0.0,0.0,0.0,0.0
342823469,8,1546.0,1500.0,1528.0,1518.0,1501.0,1544.0,0.0,0.0,0.0,0.0,0.0,0.0,0.0,0.0,0.0,0.0
342935495,8,1518.0,1529.0,1510.0,1537.0,1538.0,1509.0,0.0,0.0,0.0,0.0,0.0,0.0,0.0,0.0,0.0,0.0
343023549,8,1343.0,1721.0,1605.0,1459.0,1509.0,1555.0,0.0,0.0,0.0,0.0,0.0,0.0,0.0,0.0,0.0,0.0
343133138,8,1528.0,1539.0,1521.0,1545.0,1552.0,1514.0,0.0,0.0,0.0,0.0,0.0,0.0,0.0,0.0,0.0,0.0
343229121,8,1494.0,1539.0,1458.0,1575.0,1526.0,1507.0,0.0,0.0,0.0,0.0,0.0,0.0,0.0,0.0,0.0,0.0
343333273,8,1530.0,1489.0,1589.0,1430.0,1497.0,1522.0,0.0,0.0,0.0,0.0,0.0,0.0,0.0,0.0,0.0,0.0
343429317,8,1525.0,1461.0,1517.0,1469.0,1412.0,1573.0,0.0,0.0,0.0,0.0,0.0,0.0,0.0,0.0,0.0,0.0
343545077,8,1477.0,1406.0,1464.0,1385.0,1410.0,1472.0,0.0,0.0,0.0,0.0,0.0,0.0,0.0,0.0,0.0,0.0
343637090,8,1444.0,1393.0,1393.0,1443.0,1326.0,1510.0,0.0,0.0,0.0,0.0,0.0,0.0,0.0,0.0,0.0,0.0
343749945,8,1443.0,1393.0,1438.0,1398.0,1376.0,1460.0,0.0,0.0,0.0,0.0,0.0,0.0,0.0,0.0,0.0,0.0
343838914,8,1445.0,1421.0,1462.0,1404.0,1406.0,1460.0,0.0,0.0,0.0,0.0,0.0,0.0,0.0,0.0,0.0,0.0
343946889,8,1356.0,1374.0,1390.0,1340.0,1324.0,1406.0,0.0,0.0,0.0,0.0,0.0,0.0,0.0,0.0,0.0,0.0
344038692,8,1315.0,1296.0,1342.0,1269.0,1297.0,1314.0,0.0,0.0,0.0,0.0,0.0,0.0,0.0,0.0,0.0,0.0
344142899,8,1241.0,1118.0,1157.0,1202.0,1172.0,1187.0,0.0,0.0,0.0,0.0,0.0,0.0,0.0,0.0,0.0,0.0
344250676,8,1157.0,1132.0,1215.0,1075.0,1209.0,1080.0,0.0,0.0,0.0,0.0,0.0,0.0,0.0,0.0,0.0,0.0
344362759,8,1141.0,1147.0,1214.0,1075.0,1211.0,1077.0,0.0,0.0,0.0,0.0,0.0,0.0,0.0,0.0,0.0,0.0
344458699,8,1129.0,1159.0,1214.0,1075.0,1199.0,1089.0,0.0,0.0,0.0,0.0,0.0,0.0,0.0,0.0,0.0,0.0
344551894,8,1130.0,1158.0,1214.0,1075.0,1200.0,1088.0,0.0,0.0,0.0,0.0,0.0,0.0,0.0,0.0,0.0,0.0
344655724,8,1176.0,1112.0,1214.0,1075.0,1198.0,1090.0,0.0,0.0,0.0,0.0,0.0,0.0,0.0,0.0,0.0,0.0
344767854,8,1130.0,1158.0,1146.0,1142.0,1142.0,1146.0,0.0,0.0,0.0,0.0,0.0,0.0,0.0,0.0,0.0,0.0
344859785,8,1103.0,1185.0,1093.0,1195.0,1085.0,1203.0,0.0,0.0,0.0,0.0,0.0,0.0,0.0,0.0,0.0,0.0
344975930,8,1128.0,1160.0,1077.0,1211.0,1081.0,1207.0,0.0,0.0,0.0,0.0,0.0,0.0,0.0,0.0,0.0,0.0
345063512,8,1105.0,1183.0,1113.0,1175.0,1075.0,1214.0,0.0,0.0,0.0,0.0,0.0,0.0,0.0,0.0,0.0,0.0
345171546,8,1199.0,1089.0,1214.0,1075.0,1187.0,1101.0,0.0,0.0,0.0,0.0,0.0,0.0,0.0,0.0,0.0,0.0
345279490,8,1083.0,1205.0,1135.0,1153.0,1075.0,1214.0,0.0,0.0,0.0,0.0,0.0,0.0,0.0,0.0,0.0,0.0
345387533,8,1192.0,1096.0,1079.0,1209.0,1113.0,1175.0,0.0,0.0,0.0,0.0,0.0,0.0,0.0,0.0,0.0,0.0
345469314,8,1160.0,1128.0,1196.0,1092.0,1105.0,1183.0,0.0,0.0,0.0,0.0,0.0,0.0,0.0,0.0,0.0,0.0
345581160,8,1149.0,1139.0,1166.0,1122.0,1139.0,1149.0,0.0,0.0,0.0,0.0,0.0,0.0,0.0,0.0,0.0,0.0
345893289,8,1164.0,1124.0,1146.0,1142.0,1118.0,1170.0,0.0,0.0,0.0,0.0,0.0,0.0,0.0,0.0,0.0,0.0
346081109,8,1131.0,1157.0,1089.0,1199.0,1196.0,1092.0,0.0,0.0,0.0,0.0,0.0,0.0,0.0,0.0,0.0,0.0
346190905,8,1104.0,1184.0,1075.0,1214.0,1211.0,1077.0,0.0,0.0,0.0,0.0,0.0,0.0,0.0,0.0,0.0,0.0
346278729,8,1100.0,1188.0,1075.0,1214.0,1208.0,1080.0,0.0,0.0,0.0,0.0,0.0,0.0,0.0,0.0,0.0,0.0
346390700,8,1105.0,1183.0,1075.0,1214.0,1207.0,1081.0,0.0,0.0,0.0,0.0,0.0,0.0,0.0,0.0,0.0,0.0
346498735,8,1107.0,1181.0,1077.0,1211.0,1201.0,1087.0,0.0,0.0,0.0,0.0,0.0,0.0,0.0,0.0,0.0,0.0
346586737,8,1123.0,1165.0,1096.0,1192.0,1177.0,1111.0,0.0,0.0,0.0,0.0,0.0,0.0,0.0,0.0,0.0,0.0
346690958,8,1148.0,1140.0,1116.0,1172.0,1160.0,1128.0,0.0,0.0,0.0,0.0,0.0,0.0,0.0,0.0,0.0,0.0
346798929,8,1124.0,1164.0,1094.0,1194.0,1185.0,1103.0,0.0,0.0,0.0,0.0,0.0,0.0,0.0,0.0,0.0,0.0
346908533,8,1096.0,1192.0,1075.0,1214.0,1204.0,1084.0,0.0,0.0,0.0,0.0,0.0,0.0,0.0,0.0,0.0,0.0
346996307,8,1095.0,1193.0,1075.0,1214.0,1208.0,1080.0,0.0,0.0,0.0,0.0,0.0,0.0,0.0,0.0,0.0,0.0
347108405,8,1095.0,1193.0,1075.0,1214.0,1210.0,1078.0,0.0,0.0,0.0,0.0,0.0,0.0,0.0,0.0,0.0,0.0
347200591,8,1109.0,1179.0,1084.0,1204.0,1194.0,1094.0,0.0,0.0,0.0,0.0,0.0,0.0,0.0,0.0,0.0,0.0
347308592,8,1111.0,1177.0,1093.0,1195.0,1185.0,1103.0,0.0,0.0,0.0,0.0,0.0,0.0,0.0,0.0,0.0,0.0
347416596,8,1146.0,1142.0,1128.0,1160.0,1147.0,1141.0,0.0,0.0,0.0,0.0,0.0,0.0,0.0,0.0,0.0,0.0
347504288,8,1163.0,1125.0,1141.0,1147.0,1131.0,1157.0,0.0,0.0,0.0,0.0,0.0,0.0,0.0,0.0,0.0,0.0
347617870,8,1153.0,1135.0,1132.0,1156.0,1141.0,1147.0,0.0,0.0,0.0,0.0,0.0,0.0,0.0,0.0,0.0,0.0
347706124,8,1164.0,1124.0,1149.0,1139.0,1125.0,1163.0,0.0,0.0,0.0,0.0,0.0,0.0,0.0,0.0,0.0,0.0
347821942,8,1214.0,1075.0,1192.0,1096.0,1076.0,1212.0,0.0,0.0,0.0,0.0,0.0,0.0,0.0,0.0,0.0,0.0
347909931,8,1214.0,1075.0,1190.0,1098.0,1078.0,1210.0,0.0,0.0,0.0,0.0,0.0,0.0,0.0,0.0,0.0,0.0
348018198,8,1213.0,1075.0,1193.0,1095.0,1075.0,1214.0,0.0,0.0,0.0,0.0,0.0,0.0,0.0,0.0,0.0,0.0
348125924,8,1211.0,1077.0,1194.0,1094.0,1075.0,1214.0,0.0,0.0,0.0,0.0,0.0,0.0,0.0,0.0,0.0,0.0
348209869,8,1212.0,1076.0,1190.0,1098.0,1075.0,1214.0,0.0,0.0,0.0,0.0,0.0,0.0,0.0,0.0,0.0,0.0
348323009,8,1212.0,1076.0,1191.0,1097.0,1075.0,1214.0,0.0,0.0,0.0,0.0,0.0,0.0,0.0,0.0,0.0,0.0
348414729,8,1206.0,1082.0,1191.0,1097.0,1075.0,1214.0,0.0,0.0,0.0,0.0,0.0,0.0,0.0,0.0,0.0,0.0
348531072,8,1208.0,1080.0,1191.0,1097.0,1075.0,1214.0,0.0,0.0,0.0,0.0,0.0,0.0,0.0,0.0,0.0,0.0
348618721,8,1209.0,1079.0,1191.0,1097.0,1075.0,1214.0,0.0,0.0,0.0,0.0,0.0,0.0,0.0,0.0,0.0,0.0
348726946,8,1210.0,1078.0,1193.0,1095.0,1075.0,1214.0,0.0,0.0,0.0,0.0,0.0,0.0,0.0,0.0,0.0,0.0
348819103,8,1208.0,1080.0,1193.0,1095.0,1075.0,1214.0,0.0,0.0,0.0,0.0,0.0,0.0,0.0,0.0,0.0,0.0
348930697,8,1206.0,1082.0,1190.0,1098.0,1075.0,1214.0,0.0,0.0,0.0,0.0,0.0,0.0,0.0,0.0,0.0,0.0
350143892,8,1091.0,1197.0,1075.0,1214.0,1194.0,1094.0,0.0,0.0,0.0,0.0,0.0,0.0,0.0,0.0,0.0,0.0
350249059,8,1106.0,1182.0,1090.0,1198.0,1180.0,1108.0,0.0,0.0,0.0,0.0,0.0,0.0,0.0,0.0,0.0,0.0
350361074,8,1155.0,1133.0,1135.0,1153.0,1132.0,1156.0,0.0,0.0,0.0,0.0,0.0,0.0,0.0,0.0,0.0,0.0
350449267,8,1159.0,1129.0,1143.0,1145.0,1125.0,1163.0,0.0,0.0,0.0,0.0,0.0,0.0,0.0,0.0,0.0,0.0
350557253,8,1211.0,1077.0,1194.0,1094.0,1075.0,1214.0,0.0,0.0,0.0,0.0,0.0,0.0,0.0,0.0,0.0,0.0
350649289,8,1210.0,1078.0,1192.0,1096.0,1075.0,1214.0,0.0,0.0,0.0,0.0,0.0,0.0,0.0,0.0,0.0,0.0
350765079,8,1207.0,1081.0,1189.0,1099.0,1075.0,1214.0,0.0,0.0,0.0,0.0,0.0,0.0,0.0,0.0,0.0,0.0
350853076,8,1203.0,1085.0,1186.0,1102.0,1075.0,1214.0,0.0,0.0,0.0,0.0,0.0,0.0,0.0,0.0,0.0,0.0
350958916,8,1204.0,1084.0,1186.0,1102.0,1075.0,1214.0,0.0,0.0,0.0,0.0,0.0,0.0,0.0,0.0,0.0,0.0
351051036,8,1205.0,1083.0,1186.0,1102.0,1075.0,1214.0,0.0,0.0,0.0,0.0,0.0,0.0,0.0,0.0,0.0,0.0
351166726,8,1207.0,1081.0,1187.0,1101.0,1075.0,1214.0,0.0,0.0,0.0,0.0,0.0,0.0,0.0,0.0,0.0,0.0
351258857,8,1206.0,1082.0,1184.0,1104.0,1075.0,1214.0,0.0,0.0,0.0,0.0,0.0,0.0,0.0,0.0,0.0,0.0
351354751,8,1205.0,1083.0,1186.0,1102.0,1075.0,1214.0,0.0,0.0,0.0,0.0,0.0,0.0,0.0,0.0,0.0,0.0
351466708,8,1204.0,1084.0,1186.0,1102.0,1075.0,1214.0,0.0,0.0,0.0,0.0,0.0,0.0,0.0,0.0,0.0,0.0
351578672,8,1207.0,1081.0,1186.0,1102.0,1075.0,1214.0,0.0,0.0,0.0,0.0,0.0,0.0,0.0,0.0,0.0,0.0
351660651,8,1209.0,1079.0,1189.0,1099.0,1075.0,1214.0,0.0,0.0,0.0,0.0,0.0,0.0,0.0,0.0,0.0,0.0
351772653,8,1210.0,1078.0,1191.0,1097.0,1075.0,1214.0,0.0,0.0,0.0,0.0,0.0,0.0,0.0,0.0,0.0,0.0
351864549,8,1181.0,1107.0,1160.0,1128.0,1106.0,1182.0,0.0,0.0,0.0,0.0,0.0,0.0,0.0,0.0,0.0,0.0
351976320,8,1158.0,1130.0,1136.0,1152.0,1129.0,1159.0,0.0,0.0,0.0,0.0,0.0,0.0,0.0,0.0,0.0,0.0
352072264,8,1161.0,1127.0,1140.0,1148.0,1124.0,1164.0,0.0,0.0,0.0,0.0,0.0,0.0,0.0,0.0,0.0,0.0
352184265,8,1158.0,1130.0,1135.0,1153.0,1127.0,1161.0,0.0,0.0,0.0,0.0,0.0,0.0,0.0,0.0,0.0,0.0
352272692,8,1161.0,1127.0,1138.0,1150.0,1127.0,1161.0,0.0,0.0,0.0,0.0,0.0,0.0,0.0,0.0,0.0,0.0
352382164,8,1160.0,1128.0,1138.0,1150.0,1126.0,1162.0,0.0,0.0,0.0,0.0,0.0,0.0,0.0,0.0,0.0,0.0
352469889,8,1159.0,1129.0,1139.0,1149.0,1128.0,1160.0,0.0,0.0,0.0,0.0,0.0,0.0,0.0,0.0,0.0,0.0
352581901,8,1162.0,1126.0,1141.0,1147.0,1125.0,1163.0,0.0,0.0,0.0,0.0,0.0,0.0,0.0,0.0,0.0,0.0
352674265,8,1160.0,1128.0,1137.0,1151.0,1127.0,1161.0,0.0,0.0,0.0,0.0,0.0,0.0,0.0,0.0,0.0,0.0
352789948,8,1163.0,1125.0,1140.0,1148.0,1124.0,1164.0,0.0,0.0,0.0,0.0,0.0,0.0,0.0,0.0,0.0,0.0
352898142,8,1145.0,1143.0,1122.0,1166.0,1144.0,1144.0,0.0,0.0,0.0,0.0,0.0,0.0,0.0,0.0,0.0,0.0
352989946,8,1141.0,1147.0,1117.0,1171.0,1148.0,1140.0,0.0,0.0,0.0,0.0,0.0,0.0,0.0,0.0,0.0,0.0
353095555,8,1159.0,1129.0,1136.0,1152.0,1129.0,1159.0,0.0,0.0,0.0,0.0,0.0,0.0,0.0,0.0,0.0,0.0
353183500,8,1158.0,1130.0,1131.0,1157.0,1132.0,1156.0,0.0,0.0,0.0,0.0,0.0,0.0,0.0,0.0,0.0,0.0
353295525,8,1159.0,1129.0,1137.0,1151.0,1127.0,1161.0,0.0,0.0,0.0,0.0,0.0,0.0,0.0,0.0,0.0,0.0
353383654,8,1157.0,1131.0,1135.0,1153.0,1129.0,1159.0,0.0,0.0,0.0,0.0,0.0,0.0,0.0,0.0,0.0,0.0
353503488,8,1160.0,1128.0,1137.0,1151.0,1127.0,1161.0,0.0,0.0,0.0,0.0,0.0,0.0,0.0,0.0,0.0,0.0
353608311,8,1160.0,1128.0,1136.0,1152.0,1129.0,1159.0,0.0,0.0,0.0,0.0,0.0,0.0,0.0,0.0,0.0,0.0
353691468,8,1162.0,1127.0,1138.0,1150.0,1127.0,1161.0,0.0,0.0,0.0,0.0,0.0,0.0,0.0,0.0,0.0,0.0
353797432,8,1161.0,1127.0,1137.0,1151.0,1126.0,1162.0,0.0,0.0,0.0,0.0,0.0,0.0,0.0,0.0,0.0,0.0
353894100,8,1161.0,1127.0,1137.0,1151.0,1127.0,1161.0,0.0,0.0,0.0,0.0,0.0,0.0,0.0,0.0,0.0,0.0
354005076,8,1164.0,1124.0,1137.0,1151.0,1125.0,1163.0,0.0,0.0,0.0,0.0,0.0,0.0,0.0,0.0,0.0,0.0
354117185,8,1163.0,1125.0,1136.0,1152.0,1126.0,1162.0,0.0,0.0,0.0,0.0,0.0,0.0,0.0,0.0,0.0,0.0
354209348,8,1164.0,1124.0,1137.0,1151.0,1126.0,1162.0,0.0,0.0,0.0,0.0,0.0,0.0,0.0,0.0,0.0,0.0
354301334,8,1163.0,1125.0,1137.0,1151.0,1126.0,1162.0,0.0,0.0,0.0,0.0,0.0,0.0,0.0,0.0,0.0,0.0
354413072,8,1165.0,1123.0,1138.0,1150.0,1127.0,1161.0,0.0,0.0,0.0,0.0,0.0,0.0,0.0,0.0,0.0,0.0
354521900,8,1166.0,1122.0,1138.0,1150.0,1126.0,1162.0,0.0,0.0,0.0,0.0,0.0,0.0,0.0,0.0,0.0,0.0
354605924,8,1165.0,1123.0,1138.0,1150.0,1125.0,1163.0,0.0,0.0,0.0,0.0,0.0,0.0,0.0,0.0,0.0,0.0
354713904,8,1167.0,1121.0,1139.0,1149.0,1125.0,1163.0,0.0,0.0,0.0,0.0,0.0,0.0,0.0,0.0,0.0,0.0
354821902,8,1166.0,1122.0,1139.0,1149.0,1125.0,1163.0,0.0,0.0,0.0,0.0,0.0,0.0,0.0,0.0,0.0,0.0
354913907,8,1167.0,1121.0,1139.0,1149.0,1123.0,1165.0,0.0,0.0,0.0,0.0,0.0,0.0,0.0,0.0,0.0,0.0
355030129,8,1166.0,1122.0,1138.0,1150.0,1123.0,1165.0,0.0,0.0,0.0,0.0,0.0,0.0,0.0,0.0,0.0,0.0
355118672,8,1168.0,1120.0,1139.0,1149.0,1123.0,1165.0,0.0,0.0,0.0,0.0,0.0,0.0,0.0,0.0,0.0,0.0
355229922,8,1168.0,1120.0,1141.0,1147.0,1122.0,1166.0,0.0,0.0,0.0,0.0,0.0,0.0,0.0,0.0,0.0,0.0
355318162,8,1167.0,1121.0,1140.0,1148.0,1123.0,1165.0,0.0,0.0,0.0,0.0,0.0,0.0,0.0,0.0,0.0,0.0
355425881,8,1168.0,1120.0,1141.0,1147.0,1122.0,1166.0,0.0,0.0,0.0,0.0,0.0,0.0,0.0,0.0,0.0,0.0
355515470,8,1168.0,1120.0,1140.0,1148.0,1123.0,1165.0,0.0,0.0,0.0,0.0,0.0,0.0,0.0,0.0,0.0,0.0
355627490,8,1169.0,1119.0,1141.0,1147.0,1123.0,1165.0,0.0,0.0,0.0,0.0,0.0,0.0,0.0,0.0,0.0,0.0
355731500,8,1168.0,1120.0,1142.0,1146.0,1121.0,1167.0,0.0,0.0,0.0,0.0,0.0,0.0,0.0,0.0,0.0,0.0
355839563,8,1168.0,1120.0,1142.0,1146.0,1121.0,1167.0,0.0,0.0,0.0,0.0,0.0,0.0,0.0,0.0,0.0,0.0
355931668,8,1168.0,1120.0,1141.0,1147.0,1120.0,1168.0,0.0,0.0,0.0,0.0,0.0,0.0,0.0,0.0,0.0,0.0
356039490,8,1170.0,1118.0,1142.0,1146.0,1121.0,1167.0,0.0,0.0,0.0,0.0,0.0,0.0,0.0,0.0,0.0,0.0
356148321,8,1170.0,1118.0,1144.0,1144.0,1120.0,1168.0,0.0,0.0,0.0,0.0,0.0,0.0,0.0,0.0,0.0,0.0
356241121,8,1169.0,1119.0,1143.0,1145.0,1120.0,1168.0,0.0,0.0,0.0,0.0,0.0,0.0,0.0,0.0,0.0,0.0
356333332,8,1171.0,1117.0,1143.0,1145.0,1120.0,1168.0,0.0,0.0,0.0,0.0,0.0,0.0,0.0,0.0,0.0,0.0
356441319,8,1170.0,1118.0,1144.0,1144.0,1119.0,1169.0,0.0,0.0,0.0,0.0,0.0,0.0,0.0,0.0,0.0,0.0
356533136,8,1171.0,1117.0,1144.0,1144.0,1121.0,1167.0,0.0,0.0,0.0,0.0,0.0,0.0,0.0,0.0,0.0,0.0
356649071,8,1173.0,1115.0,1144.0,1144.0,1119.0,1169.0,0.0,0.0,0.0,0.0,0.0,0.0,0.0,0.0,0.0,0.0
356741121,8,1173.0,1115.0,1144.0,1144.0,1119.0,1169.0,0.0,0.0,0.0,0.0,0.0,0.0,0.0,0.0,0.0,0.0
356858188,8,1171.0,1117.0,1144.0,1144.0,1118.0,1170.0,0.0,0.0,0.0,0.0,0.0,0.0,0.0,0.0,0.0,0.0
356946757,8,1173.0,1115.0,1145.0,1143.0,1117.0,1171.0,0.0,0.0,0.0,0.0,0.0,0.0,0.0,0.0,0.0,0.0
357059472,8,1160.0,1128.0,1130.0,1158.0,1130.0,1158.0,0.0,0.0,0.0,0.0,0.0,0.0,0.0,0.0,0.0,0.0
357146684,8,1162.0,1126.0,1133.0,1155.0,1129.0,1159.0,0.0,0.0,0.0,0.0,0.0,0.0,0.0,0.0,0.0,0.0
357254674,8,1160.0,1128.0,1131.0,1157.0,1132.0,1156.0,0.0,0.0,0.0,0.0,0.0,0.0,0.0,0.0,0.0,0.0
357362969,8,1157.0,1131.0,1131.0,1157.0,1131.0,1157.0,0.0,0.0,0.0,0.0,0.0,0.0,0.0,0.0,0.0,0.0
357458720,8,1129.0,1159.0,1103.0,1185.0,1163.0,1125.0,0.0,0.0,0.0,0.0,0.0,0.0,0.0,0.0,0.0,0.0
357567473,8,1140.0,1148.0,1113.0,1175.0,1151.0,1137.0,0.0,0.0,0.0,0.0,0.0,0.0,0.0,0.0,0.0,0.0
357652580,8,1146.0,1142.0,1120.0,1168.0,1142.0,1146.0,0.0,0.0,0.0,0.0,0.0,0.0,0.0,0.0,0.0,0.0
357768513,8,900.0,900.0,900.0,900.0,900.0,900.0,900.0,900.0,0.0,0.0,0.0,0.0,0.0,0.0,0.0,0.0
357864327,8,900.0,900.0,900.0,900.0,900.0,900.0,900.0,900.0,0.0,0.0,0.0,0.0,0.0,0.0,0.0,0.0
357972304,8,900.0,900.0,900.0,900.0,900.0,900.0,900.0,900.0,0.0,0.0,0.0,0.0,0.0,0.0,0.0,0.0
358056325,8,900.0,900.0,900.0,900.0,900.0,900.0,900.0,900.0,0.0,0.0,0.0,0.0,0.0,0.0,0.0,0.0
358160327,8,1161.0,1127.0,1132.0,1156.0,1130.0,1158.0,0.0,0.0,0.0,0.0,0.0,0.0,0.0,0.0,0.0,0.0
358277091,8,1163.0,1125.0,1134.0,1154.0,1128.0,1160.0,0.0,0.0,0.0,0.0,0.0,0.0,0.0,0.0,0.0,0.0
358369109,8,1161.0,1127.0,1133.0,1155.0,1129.0,1159.0,0.0,0.0,0.0,0.0,0.0,0.0,0.0,0.0,0.0,0.0
358461145,8,1162.0,1126.0,1134.0,1154.0,1127.0,1161.0,0.0,0.0,0.0,0.0,0.0,0.0,0.0,0.0,0.0,0.0
358573851,8,1162.0,1126.0,1134.0,1154.0,1129.0,1159.0,0.0,0.0,0.0,0.0,0.0,0.0,0.0,0.0,0.0,0.0
358665124,8,1164.0,1127.0,1135.0,1153.0,1128.0,1160.0,0.0,0.0,0.0,0.0,0.0,0.0,0.0,0.0,0.0,0.0
358777304,8,900.0,900.0,900.0,900.0,900.0,900.0,900.0,900.0,0.0,0.0,0.0,0.0,0.0,0.0,0.0,0.0
358889295,8,900.0,900.0,900.0,900.0,900.0,900.0,900.0,900.0,0.0,0.0,0.0,0.0,0.0,0.0,0.0,0.0
358977319,8,900.0,900.0,900.0,900.0,900.0,900.0,900.0,900.0,0.0,0.0,0.0,0.0,0.0,0.0,0.0,0.0
359089305,8,900.0,900.0,900.0,900.0,900.0,900.0,900.0,900.0,0.0,0.0,0.0,0.0,0.0,0.0,0.0,0.0
359173345,8,900.0,900.0,900.0,900.0,900.0,900.0,900.0,900.0,0.0,0.0,0.0,0.0,0.0,0.0,0.0,0.0
359286682,8,900.0,900.0,900.0,900.0,900.0,900.0,900.0,900.0,0.0,0.0,0.0,0.0,0.0,0.0,0.0,0.0
359374956,8,900.0,900.0,900.0,900.0,900.0,900.0,900.0,900.0,0.0,0.0,0.0,0.0,0.0,0.0,0.0,0.0
359482935,8,900.0,900.0,900.0,900.0,900.0,900.0,900.0,900.0,0.0,0.0,0.0,0.0,0.0,0.0,0.0,0.0
359598879,8,900.0,900.0,900.0,900.0,900.0,900.0,900.0,900.0,0.0,0.0,0.0,0.0,0.0,0.0,0.0,0.0
359686746,8,900.0,900.0,900.0,900.0,900.0,900.0,900.0,900.0,0.0,0.0,0.0,0.0,0.0,0.0,0.0,0.0
359790690,8,900.0,900.0,900.0,900.0,900.0,900.0,900.0,900.0,0.0,0.0,0.0,0.0,0.0,0.0,0.0,0.0
359898741,8,900.0,900.0,900.0,900.0,900.0,900.0,900.0,900.0,0.0,0.0,0.0,0.0,0.0,0.0,0.0,0.0
359988512,8,900.0,900.0,900.0,900.0,900.0,900.0,900.0,900.0,0.0,0.0,0.0,0.0,0.0,0.0,0.0,0.0
360108294,8,900.0,900.0,900.0,900.0,900.0,900.0,900.0,900.0,0.0,0.0,0.0,0.0,0.0,0.0,0.0,0.0
360200281,8,1117.0,1171.0,1089.0,1199.0,1174.0,1114.0,0.0,0.0,0.0,0.0,0.0,0.0,0.0,0.0,0.0,0.0
360304970,8,1135.0,1153.0,1108.0,1180.0,1156.0,1132.0,0.0,0.0,0.0,0.0,0.0,0.0,0.0,0.0,0.0,0.0
360408281,8,1157.0,1131.0,1131.0,1157.0,1133.0,1155.0,0.0,0.0,0.0,0.0,0.0,0.0,0.0,0.0,0.0,0.0
360516293,8,1162.0,1126.0,1134.0,1154.0,1128.0,1160.0,0.0,0.0,0.0,0.0,0.0,0.0,0.0,0.0,0.0,0.0
360600519,8,1159.0,1129.0,1133.0,1155.0,1129.0,1159.0,0.0,0.0,0.0,0.0,0.0,0.0,0.0,0.0,0.0,0.0
360713888,8,1158.0,1130.0,1131.0,1157.0,1131.0,1157.0,0.0,0.0,0.0,0.0,0.0,0.0,0.0,0.0,0.0,0.0
360805904,8,1165.0,1123.0,1138.0,1150.0,1124.0,1164.0,0.0,0.0,0.0,0.0,0.0,0.0,0.0,0.0,0.0,0.0
360909922,8,1160.0,1128.0,1132.0,1156.0,1133.0,1155.0,0.0,0.0,0.0,0.0,0.0,0.0,0.0,0.0,0.0,0.0
361018198,8,1152.0,1136.0,1120.0,1168.0,1096.0,1192.0,0.0,0.0,0.0,0.0,0.0,0.0,0.0,0.0,0.0,0.0
361105941,8,1107.0,1181.0,1111.0,1177.0,1075.0,1214.0,0.0,0.0,0.0,0.0,0.0,0.0,0.0,0.0,0.0,0.0
361218299,8,1105.0,1183.0,1113.0,1175.0,1075.0,1214.0,0.0,0.0,0.0,0.0,0.0,0.0,0.0,0.0,0.0,0.0
361330169,8,1105.0,1183.0,1113.0,1175.0,1075.0,1214.0,0.0,0.0,0.0,0.0,0.0,0.0,0.0,0.0,0.0,0.0
361415698,8,1110.0,1178.0,1110.0,1178.0,1075.0,1214.0,0.0,0.0,0.0,0.0,0.0,0.0,0.0,0.0,0.0,0.0
361532256,8,1144.0,1189.0,1140.0,1192.0,1096.0,1237.0,0.0,0.0,0.0,0.0,0.0,0.0,0.0,0.0,0.0,0.0
361615491,8,1166.0,1208.0,1165.0,1209.0,1106.0,1268.0,0.0,0.0,0.0,0.0,0.0,0.0,0.0,0.0,0.0,0.0
361727678,8,1188.0,1250.0,1191.0,1247.0,1135.0,1303.0,0.0,0.0,0.0,0.0,0.0,0.0,0.0,0.0,0.0,0.0
361823466,8,1249.0,1284.0,1239.0,1294.0,1206.0,1326.0,0.0,0.0,0.0,0.0,0.0,0.0,0.0,0.0,0.0,0.0
361928181,8,1254.0,1277.0,1245.0,1285.0,1193.0,1338.0,0.0,0.0,0.0,0.0,0.0,0.0,0.0,0.0,0.0,0.0
362036144,8,1247.0,1273.0,1243.0,1276.0,1199.0,1321.0,0.0,0.0,0.0,0.0,0.0,0.0,0.0,0.0,0.0,0.0
362125131,8,1229.0,1243.0,1218.0,1253.0,1178.0,1293.0,0.0,0.0,0.0,0.0,0.0,0.0,0.0,0.0,0.0,0.0
362221384,8,1263.0,1292.0,1259.0,1297.0,1210.0,1345.0,0.0,0.0,0.0,0.0,0.0,0.0,0.0,0.0,0.0,0.0
362337157,8,1263.0,1304.0,1255.0,1312.0,1199.0,1368.0,0.0,0.0,0.0,0.0,0.0,0.0,0.0,0.0,0.0,0.0
362433315,8,1288.0,1334.0,1283.0,1333.0,1224.0,1393.0,0.0,0.0,0.0,0.0,0.0,0.0,0.0,0.0,0.0,0.0
362545338,8,1234.0,1277.0,1231.0,1280.0,1169.0,1342.0,0.0,0.0,0.0,0.0,0.0,0.0,0.0,0.0,0.0,0.0
362637081,8,1269.0,1307.0,1259.0,1317.0,1204.0,1372.0,0.0,0.0,0.0,0.0,0.0,0.0,0.0,0.0,0.0,0.0
362745890,8,1285.0,1321.0,1278.0,1329.0,1219.0,1388.0,0.0,0.0,0.0,0.0,0.0,0.0,0.0,0.0,0.0,0.0
362838720,8,1294.0,1337.0,1290.0,1339.0,1231.0,1400.0,0.0,0.0,0.0,0.0,0.0,0.0,0.0,0.0,0.0,0.0
362950724,8,1314.0,1349.0,1313.0,1350.0,1250.0,1413.0,0.0,0.0,0.0,0.0,0.0,0.0,0.0,0.0,0.0,0.0
363039354,8,1312.0,1348.0,1310.0,1350.0,1248.0,1412.0,0.0,0.0,0.0,0.0,0.0,0.0,0.0,0.0,0.0,0.0
363147397,8,1315.0,1349.0,1312.0,1352.0,1247.0,1417.0,0.0,0.0,0.0,0.0,0.0,0.0,0.0,0.0,0.0,0.0
363250995,8,1312.0,1351.0,1313.0,1351.0,1245.0,1419.0,0.0,0.0,0.0,0.0,0.0,0.0,0.0,0.0,0.0,0.0
363346751,8,1333.0,1340.0,1308.0,1365.0,1255.0,1418.0,0.0,0.0,0.0,0.0,0.0,0.0,0.0,0.0,0.0,0.0
363451510,8,1345.0,1380.0,1342.0,1382.0,1272.0,1452.0,0.0,0.0,0.0,0.0,0.0,0.0,0.0,0.0,0.0,0.0
363560276,8,1379.0,1394.0,1348.0,1426.0,1288.0,1486.0,0.0,0.0,0.0,0.0,0.0,0.0,0.0,0.0,0.0,0.0
363644527,8,1389.0,1410.0,1381.0,1419.0,1321.0,1478.0,0.0,0.0,0.0,0.0,0.0,0.0,0.0,0.0,0.0,0.0
363764302,8,1392.0,1435.0,1393.0,1434.0,1327.0,1501.0,0.0,0.0,0.0,0.0,0.0,0.0,0.0,0.0,0.0,0.0
363852464,8,1413.0,1415.0,1411.0,1416.0,1370.0,1458.0,0.0,0.0,0.0,0.0,0.0,0.0,0.0,0.0,0.0,0.0
363964272,8,1426.0,1401.0,1383.0,1444.0,1352.0,1475.0,0.0,0.0,0.0,0.0,0.0,0.0,0.0,0.0,0.0,0.0
364060313,8,1408.0,1438.0,1391.0,1455.0,1322.0,1524.0,0.0,0.0,0.0,0.0,0.0,0.0,0.0,0.0,0.0,0.0
364169097,8,1390.0,1457.0,1402.0,1445.0,1314.0,1533.0,0.0,0.0,0.0,0.0,0.0,0.0,0.0,0.0,0.0,0.0
364273907,8,1462.0,1471.0,1434.0,1500.0,1373.0,1561.0,0.0,0.0,0.0,0.0,0.0,0.0,0.0,0.0,0.0,0.0
364370516,8,1465.0,1499.0,1482.0,1481.0,1405.0,1562.0,0.0,0.0,0.0,0.0,0.0,0.0,0.0,0.0,0.0,0.0
364458127,8,1499.0,1512.0,1483.0,1528.0,1459.0,1552.0,0.0,0.0,0.0,0.0,0.0,0.0,0.0,0.0,0.0,0.0
364573907,8,1530.0,1479.0,1491.0,1519.0,1489.0,1521.0,0.0,0.0,0.0,0.0,0.0,0.0,0.0,0.0,0.0,0.0
364665924,8,1518.0,1494.0,1472.0,1541.0,1460.0,1552.0,0.0,0.0,0.0,0.0,0.0,0.0,0.0,0.0,0.0,0.0
364777860,8,1512.0,1499.0,1504.0,1507.0,1471.0,1540.0,0.0,0.0,0.0,0.0,0.0,0.0,0.0,0.0,0.0,0.0
364867701,8,1508.0,1505.0,1509.0,1503.0,1477.0,1535.0,0.0,0.0,0.0,0.0,0.0,0.0,0.0,0.0,0.0,0.0
364975519,8,1535.0,1476.0,1520.0,1490.0,1509.0,1502.0,0.0,0.0,0.0,0.0,0.0,0.0,0.0,0.0,0.0,0.0
365083816,8,1504.0,1507.0,1534.0,1477.0,1495.0,1516.0,0.0,0.0,0.0,0.0,0.0,0.0,0.0,0.0,0.0,0.0
365179692,8,1489.0,1522.0,1547.0,1464.0,1488.0,1523.0,0.0,0.0,0.0,0.0,0.0,0.0,0.0,0.0,0.0,0.0
365291534,8,1501.0,1510.0,1547.0,1464.0,1493.0,1518.0,0.0,0.0,0.0,0.0,0.0,0.0,0.0,0.0,0.0,0.0
365379515,8,1524.0,1489.0,1510.0,1503.0,1500.0,1514.0,0.0,0.0,0.0,0.0,0.0,0.0,0.0,0.0,0.0,0.0
365495478,8,1540.0,1470.0,1528.0,1483.0,1537.0,1473.0,0.0,0.0,0.0,0.0,0.0,0.0,0.0,0.0,0.0,0.0
365581111,8,1458.0,1552.0,1512.0,1498.0,1504.0,1505.0,0.0,0.0,0.0,0.0,0.0,0.0,0.0,0.0,0.0,0.0
365697813,8,1482.0,1529.0,1494.0,1517.0,1470.0,1540.0,0.0,0.0,0.0,0.0,0.0,0.0,0.0,0.0,0.0,0.0
365781308,8,1520.0,1491.0,1496.0,1515.0,1484.0,1527.0,0.0,0.0,0.0,0.0,0.0,0.0,0.0,0.0,0.0,0.0
365897158,8,1495.0,1517.0,1509.0,1504.0,1488.0,1524.0,0.0,0.0,0.0,0.0,0.0,0.0,0.0,0.0,0.0,0.0
365981305,8,1501.0,1509.0,1498.0,1513.0,1463.0,1548.0,0.0,0.0,0.0,0.0,0.0,0.0,0.0,0.0,0.0,0.0
366093863,8,1450.0,1411.0,1397.0,1464.0,1398.0,1462.0,0.0,0.0,0.0,0.0,0.0,0.0,0.0,0.0,0.0,0.0
366189068,8,1426.0,1399.0,1386.0,1439.0,1309.0,1516.0,0.0,0.0,0.0,0.0,0.0,0.0,0.0,0.0,0.0,0.0
366298869,8,1413.0,1347.0,1354.0,1401.0,1335.0,1424.0,0.0,0.0,0.0,0.0,0.0,0.0,0.0,0.0,0.0,0.0
366406717,8,1416.0,1390.0,1403.0,1403.0,1366.0,1440.0,0.0,0.0,0.0,0.0,0.0,0.0,0.0,0.0,0.0,0.0
366502732,8,1399.0,1402.0,1399.0,1403.0,1342.0,1459.0,0.0,0.0,0.0,0.0,0.0,0.0,0.0,0.0,0.0,0.0
366610712,8,1437.0,1358.0,1376.0,1419.0,1363.0,1433.0,0.0,0.0,0.0,0.0,0.0,0.0,0.0,0.0,0.0,0.0
366702684,8,1403.0,1395.0,1390.0,1408.0,1336.0,1461.0,0.0,0.0,0.0,0.0,0.0,0.0,0.0,0.0,0.0,0.0
366810681,8,1447.0,1392.0,1399.0,1440.0,1368.0,1471.0,0.0,0.0,0.0,0.0,0.0,0.0,0.0,0.0,0.0,0.0
366914638,8,1433.0,1416.0,1416.0,1433.0,1366.0,1483.0,0.0,0.0,0.0,0.0,0.0,0.0,0.0,0.0,0.0,0.0
366999765,8,1452.0,1395.0,1415.0,1432.0,1378.0,1470.0,0.0,0.0,0.0,0.0,0.0,0.0,0.0,0.0,0.0,0.0
367111481,8,1436.0,1414.0,1421.0,1429.0,1367.0,1483.0,0.0,0.0,0.0,0.0,0.0,0.0,0.0,0.0,0.0,0.0
367219518,8,1465.0,1430.0,1442.0,1454.0,1387.0,1508.0,0.0,0.0,0.0,0.0,0.0,0.0,0.0,0.0,0.0,0.0
367311518,8,1484.0,1424.0,1437.0,1471.0,1403.0,1505.0,0.0,0.0,0.0,0.0,0.0,0.0,0.0,0.0,0.0,0.0
367415525,8,1494.0,1440.0,1459.0,1475.0,1430.0,1504.0,0.0,0.0,0.0,0.0,0.0,0.0,0.0,0.0,0.0,0.0
367503660,8,1488.0,1449.0,1463.0,1474.0,1412.0,1524.0,0.0,0.0,0.0,0.0,0.0,0.0,0.0,0.0,0.0,0.0
367615537,8,1492.0,1446.0,1461.0,1478.0,1400.0,1538.0,0.0,0.0,0.0,0.0,0.0,0.0,0.0,0.0,0.0,0.0
367711549,8,1449.0,1488.0,1470.0,1466.0,1373.0,1563.0,0.0,0.0,0.0,0.0,0.0,0.0,0.0,0.0,0.0,0.0
367827506,8,1482.0,1455.0,1437.0,1500.0,1363.0,1573.0,0.0,0.0,0.0,0.0,0.0,0.0,0.0,0.0,0.0,0.0
367916330,8,1459.0,1479.0,1443.0,1496.0,1362.0,1576.0,0.0,0.0,0.0,0.0,0.0,0.0,0.0,0.0,0.0,0.0
368025089,8,1443.0,1494.0,1450.0,1487.0,1352.0,1584.0,0.0,0.0,0.0,0.0,0.0,0.0,0.0,0.0,0.0,0.0
368121134,8,1488.0,1510.0,1491.0,1507.0,1393.0,1605.0,0.0,0.0,0.0,0.0,0.0,0.0,0.0,0.0,0.0,0.0
368233109,8,1506.0,1505.0,1510.0,1500.0,1444.0,1567.0,0.0,0.0,0.0,0.0,0.0,0.0,0.0,0.0,0.0,0.0
368321110,8,1501.0,1511.0,1525.0,1486.0,1483.0,1529.0,0.0,0.0,0.0,0.0,0.0,0.0,0.0,0.0,0.0,0.0
368417306,8,1504.0,1508.0,1529.0,1484.0,1501.0,1512.0,0.0,0.0,0.0,0.0,0.0,0.0,0.0,0.0,0.0,0.0
368529324,8,1495.0,1516.0,1513.0,1498.0,1484.0,1527.0,0.0,0.0,0.0,0.0,0.0,0.0,0.0,0.0,0.0,0.0
368622723,8,1491.0,1522.0,1540.0,1473.0,1507.0,1506.0,0.0,0.0,0.0,0.0,0.0,0.0,0.0,0.0,0.0,0.0
368738894,8,1518.0,1493.0,1490.0,1521.0,1506.0,1505.0,0.0,0.0,0.0,0.0,0.0,0.0,0.0,0.0,0.0,0.0
368834707,8,1480.0,1532.0,1486.0,1525.0,1492.0,1520.0,0.0,0.0,0.0,0.0,0.0,0.0,0.0,0.0,0.0,0.0
368942678,8,1484.0,1526.0,1523.0,1487.0,1519.0,1492.0,0.0,0.0,0.0,0.0,0.0,0.0,0.0,0.0,0.0,0.0
369034667,8,1498.0,1513.0,1483.0,1528.0,1464.0,1547.0,0.0,0.0,0.0,0.0,0.0,0.0,0.0,0.0,0.0,0.0
369146890,8,1499.0,1513.0,1483.0,1530.0,1482.0,1531.0,0.0,0.0,0.0,0.0,0.0,0.0,0.0,0.0,0.0,0.0
369242665,8,1463.0,1548.0,1532.0,1478.0,1509.0,1502.0,0.0,0.0,0.0,0.0,0.0,0.0,0.0,0.0,0.0,0.0
369348533,8,1504.0,1508.0,1473.0,1539.0,1489.0,1523.0,0.0,0.0,0.0,0.0,0.0,0.0,0.0,0.0,0.0,0.0
369436490,8,1471.0,1539.0,1459.0,1551.0,1453.0,1558.0,0.0,0.0,0.0,0.0,0.0,0.0,0.0,0.0,0.0,0.0
369556350,8,1526.0,1486.0,1443.0,1568.0,1446.0,1565.0,0.0,0.0,0.0,0.0,0.0,0.0,0.0,0.0,0.0,0.0
369648291,8,1563.0,1449.0,1537.0,1475.0,1527.0,1485.0,0.0,0.0,0.0,0.0,0.0,0.0,0.0,0.0,0.0,0.0
369744319,8,1543.0,1468.0,1509.0,1502.0,1489.0,1522.0,0.0,0.0,0.0,0.0,0.0,0.0,0.0,0.0,0.0,0.0
369856510,8,1498.0,1514.0,1525.0,1487.0,1469.0,1543.0,0.0,0.0,0.0,0.0,0.0,0.0,0.0,0.0,0.0,0.0
369948321,8,1498.0,1513.0,1521.0,1489.0,1497.0,1514.0,0.0,0.0,0.0,0.0,0.0,0.0,0.0,0.0,0.0,0.0
370058156,8,1460.0,1551.0,1527.0,1485.0,1457.0,1554.0,0.0,0.0,0.0,0.0,0.0,0.0,0.0,0.0,0.0,0.0
370153923,8,1475.0,1536.0,1495.0,1516.0,1427.0,1583.0,0.0,0.0,0.0,0.0,0.0,0.0,0.0,0.0,0.0,0.0
370261948,8,1533.0,1478.0,1515.0,1506.0,1491.0,1520.0,0.0,0.0,0.0,0.0,0.0,0.0,0.0,0.0,0.0,0.0
370349908,8,1513.0,1500.0,1513.0,1500.0,1487.0,1526.0,0.0,0.0,0.0,0.0,0.0,0.0,0.0,0.0,0.0,0.0
370466236,8,1483.0,1528.0,1536.0,1475.0,1468.0,1543.0,0.0,0.0,0.0,0.0,0.0,0.0,0.0,0.0,0.0,0.0
370553939,8,1464.0,1546.0,1533.0,1525.0,1432.0,1579.0,0.0,0.0,0.0,0.0,0.0,0.0,0.0,0.0,0.0,0.0
370669844,8,1489.0,1521.0,1501.0,1509.0,1446.0,1564.0,0.0,0.0,0.0,0.0,0.0,0.0,0.0,0.0,0.0,0.0
370759725,8,1515.0,1495.0,1501.0,1510.0,1465.0,1546.0,0.0,0.0,0.0,0.0,0.0,0.0,0.0,0.0,0.0,0.0
370875524,8,1529.0,1484.0,1505.0,1508.0,1495.0,1518.0,0.0,0.0,0.0,0.0,0.0,0.0,0.0,0.0,0.0,0.0
370959523,8,1515.0,1496.0,1504.0,1508.0,1471.0,1540.0,0.0,0.0,0.0,0.0,0.0,0.0,0.0,0.0,0.0,0.0
371071555,8,1532.0,1480.0,1542.0,1470.0,1530.0,1482.0,0.0,0.0,0.0,0.0,0.0,0.0,0.0,0.0,0.0,0.0
371183478,8,1507.0,1504.0,1516.0,1496.0,1482.0,1529.0,0.0,0.0,0.0,0.0,0.0,0.0,0.0,0.0,0.0,0.0
371276150,8,1481.0,1530.0,1552.0,1459.0,1498.0,1513.0,0.0,0.0,0.0,0.0,0.0,0.0,0.0,0.0,0.0,0.0
371384120,8,1485.0,1527.0,1531.0,1481.0,1473.0,1540.0,0.0,0.0,0.0,0.0,0.0,0.0,0.0,0.0,0.0,0.0
371473315,8,1502.0,1511.0,1540.0,1473.0,1520.0,1493.0,0.0,0.0,0.0,0.0,0.0,0.0,0.0,0.0,0.0,0.0
371585095,8,1523.0,1495.0,1498.0,1521.0,1514.0,1505.0,0.0,0.0,0.0,0.0,0.0,0.0,0.0,0.0,0.0,0.0
371673803,8,1499.0,1518.0,1524.0,1492.0,1516.0,1500.0,0.0,0.0,0.0,0.0,0.0,0.0,0.0,0.0,0.0,0.0
371785162,8,1466.0,1551.0,1522.0,1495.0,1493.0,1524.0,0.0,0.0,0.0,0.0,0.0,0.0,0.0,0.0,0.0,0.0
371893158,8,1499.0,1518.0,1505.0,1511.0,1496.0,1521.0,0.0,0.0,0.0,0.0,0.0,0.0,0.0,0.0,0.0,0.0
371981123,8,1490.0,1526.0,1534.0,1482.0,1493.0,1523.0,0.0,0.0,0.0,0.0,0.0,0.0,0.0,0.0,0.0,0.0
372097063,8,1522.0,1496.0,1528.0,1490.0,1524.0,1494.0,0.0,0.0,0.0,0.0,0.0,0.0,0.0,0.0,0.0,0.0
372182709,8,1476.0,1527.0,1492.0,1524.0,1460.0,1556.0,0.0,0.0,0.0,0.0,0.0,0.0,0.0,0.0,0.0,0.0
372290708,8,1524.0,1493.0,1518.0,1498.0,1526.0,1490.0,0.0,0.0,0.0,0.0,0.0,0.0,0.0,0.0,0.0,0.0
372398954,8,1517.0,1497.0,1495.0,1520.0,1503.0,1512.0,0.0,0.0,0.0,0.0,0.0,0.0,0.0,0.0,0.0,0.0
372490898,8,1509.0,1506.0,1507.0,1507.0,1513.0,1501.0,0.0,0.0,0.0,0.0,0.0,0.0,0.0,0.0,0.0,0.0
372602666,8,1480.0,1532.0,1584.0,1428.0,1553.0,1459.0,0.0,0.0,0.0,0.0,0.0,0.0,0.0,0.0,0.0,0.0
372690654,8,1472.0,1541.0,1533.0,1479.0,1511.0,1502.0,0.0,0.0,0.0,0.0,0.0,0.0,0.0,0.0,0.0,0.0
372807621,8,1479.0,1535.0,1557.0,1458.0,1548.0,1467.0,0.0,0.0,0.0,0.0,0.0,0.0,0.0,0.0,0.0,0.0
372892320,8,1497.0,1515.0,1537.0,1476.0,1527.0,1486.0,0.0,0.0,0.0,0.0,0.0,0.0,0.0,0.0,0.0,0.0
373004953,8,1480.0,1535.0,1531.0,1483.0,1506.0,1509.0,0.0,0.0,0.0,0.0,0.0,0.0,0.0,0.0,0.0,0.0
373092304,8,1488.0,1528.0,1497.0,1519.0,1468.0,1549.0,0.0,0.0,0.0,0.0,0.0,0.0,0.0,0.0,0.0,0.0
373204303,8,1512.0,1502.0,1525.0,1489.0,1518.0,1497.0,0.0,0.0,0.0,0.0,0.0,0.0,0.0,0.0,0.0,0.0
373300305,8,1499.0,1518.0,1488.0,1528.0,1459.0,1557.0,0.0,0.0,0.0,0.0,0.0,0.0,0.0,0.0,0.0,0.0
373416274,8,1488.0,1527.0,1534.0,1480.0,1417.0,1597.0,0.0,0.0,0.0,0.0,0.0,0.0,0.0,0.0,0.0,0.0
373505078,8,1555.0,1460.0,1522.0,1493.0,1446.0,1569.0,0.0,0.0,0.0,0.0,0.0,0.0,0.0,0.0,0.0,0.0
373618519,8,1551.0,1464.0,1531.0,1483.0,1486.0,1529.0,0.0,0.0,0.0,0.0,0.0,0.0,0.0,0.0,0.0,0.0
373721882,8,1508.0,1507.0,1555.0,1459.0,1476.0,1538.0,0.0,0.0,0.0,0.0,0.0,0.0,0.0,0.0,0.0,0.0
373810079,8,1536.0,1479.0,1501.0,1515.0,1461.0,1554.0,0.0,0.0,0.0,0.0,0.0,0.0,0.0,0.0,0.0,0.0
373921910,8,1499.0,1515.0,1512.0,1502.0,1433.0,1582.0,0.0,0.0,0.0,0.0,0.0,0.0,0.0,0.0,0.0,0.0
374025886,8,1476.0,1540.0,1530.0,1486.0,1451.0,1565.0,0.0,0.0,0.0,0.0,0.0,0.0,0.0,0.0,0.0,0.0
374113920,8,1538.0,1477.0,1519.0,1496.0,1511.0,1503.0,0.0,0.0,0.0,0.0,0.0,0.0,0.0,0.0,0.0,0.0
374231378,8,1481.0,1534.0,1520.0,1495.0,1492.0,1523.0,0.0,0.0,0.0,0.0,0.0,0.0,0.0,0.0,0.0,0.0
374318745,8,1493.0,1523.0,1502.0,1513.0,1495.0,1521.0,0.0,0.0,0.0,0.0,0.0,0.0,0.0,0.0,0.0,0.0
374422723,8,1527.0,1487.0,1501.0,1512.0,1528.0,1485.0,0.0,0.0,0.0,0.0,0.0,0.0,0.0,0.0,0.0,0.0
374534750,8,1502.0,1514.0,1549.0,1468.0,1537.0,1480.0,0.0,0.0,0.0,0.0,0.0,0.0,0.0,0.0,0.0,0.0
374627496,8,1485.0,1528.0,1517.0,1495.0,1502.0,1511.0,0.0,0.0,0.0,0.0,0.0,0.0,0.0,0.0,0.0,0.0
374738725,8,1503.0,1513.0,1530.0,1486.0,1529.0,1487.0,0.0,0.0,0.0,0.0,0.0,0.0,0.0,0.0,0.0,0.0
374834863,8,1494.0,1521.0,1524.0,1491.0,1518.0,1496.0,0.0,0.0,0.0,0.0,0.0,0.0,0.0,0.0,0.0,0.0
374930656,8,1484.0,1530.0,1506.0,1509.0,1482.0,1532.0,0.0,0.0,0.0,0.0,0.0,0.0,0.0,0.0,0.0,0.0
375034701,8,1492.0,1523.0,1541.0,1475.0,1522.0,1494.0,0.0,0.0,0.0,0.0,0.0,0.0,0.0,0.0,0.0,0.0
375143760,8,1526.0,1488.0,1514.0,1500.0,1508.0,1506.0,0.0,0.0,0.0,0.0,0.0,0.0,0.0,0.0,0.0,0.0
375248300,8,1480.0,1467.0,1437.0,1509.0,1458.0,1489.0,0.0,0.0,0.0,0.0,0.0,0.0,0.0,0.0,0.0,0.0
375340284,8,1386.0,1353.0,1278.0,1461.0,1323.0,1415.0,0.0,0.0,0.0,0.0,0.0,0.0,0.0,0.0,0.0,0.0
375444309,8,1325.0,1339.0,1320.0,1343.0,1311.0,1353.0,0.0,0.0,0.0,0.0,0.0,0.0,0.0,0.0,0.0,0.0
375536289,8,1297.0,1313.0,1300.0,1309.0,1305.0,1305.0,0.0,0.0,0.0,0.0,0.0,0.0,0.0,0.0,0.0,0.0
375652282,8,1317.0,1293.0,1272.0,1338.0,1293.0,1320.0,0.0,0.0,0.0,0.0,0.0,0.0,0.0,0.0,0.0,0.0
375748556,8,1287.0,1288.0,1269.0,1306.0,1287.0,1288.0,0.0,0.0,0.0,0.0,0.0,0.0,0.0,0.0,0.0,0.0
375858196,8,1239.0,1280.0,1242.0,1277.0,1246.0,1272.0,0.0,0.0,0.0,0.0,0.0,0.0,0.0,0.0,0.0,0.0
375954001,8,1212.0,1223.0,1202.0,1234.0,1213.0,1223.0,0.0,0.0,0.0,0.0,0.0,0.0,0.0,0.0,0.0,0.0
376045891,8,1134.0,1154.0,1128.0,1160.0,1147.0,1141.0,0.0,0.0,0.0,0.0,0.0,0.0,0.0,0.0,0.0,0.0
376154207,8,1137.0,1151.0,1134.0,1154.0,1150.0,1138.0,0.0,0.0,0.0,0.0,0.0,0.0,0.0,0.0,0.0,0.0
376246730,8,1105.0,1183.0,1090.0,1198.0,1188.0,1100.0,0.0,0.0,0.0,0.0,0.0,0.0,0.0,0.0,0.0,0.0
376357867,8,1095.0,1193.0,1075.0,1214.0,1190.0,1098.0,0.0,0.0,0.0,0.0,0.0,0.0,0.0,0.0,0.0,0.0
376449833,8,1099.0,1189.0,1075.0,1214.0,1173.0,1115.0,0.0,0.0,0.0,0.0,0.0,0.0,0.0,0.0,0.0,0.0
376555738,8,1105.0,1183.0,1075.0,1214.0,1177.0,1111.0,0.0,0.0,0.0,0.0,0.0,0.0,0.0,0.0,0.0,0.0
376663787,8,1103.0,1185.0,1075.0,1214.0,1180.0,1108.0,0.0,0.0,0.0,0.0,0.0,0.0,0.0,0.0,0.0,0.0
376767495,8,1094.0,1194.0,1075.0,1214.0,1191.0,1097.0,0.0,0.0,0.0,0.0,0.0,0.0,0.0,0.0,0.0,0.0
376855480,8,1089.0,1199.0,1075.0,1214.0,1200.0,1088.0,0.0,0.0,0.0,0.0,0.0,0.0,0.0,0.0,0.0,0.0
376968148,8,1090.0,1198.0,1075.0,1214.0,1199.0,1089.0,0.0,0.0,0.0,0.0,0.0,0.0,0.0,0.0,0.0,0.0
377063486,8,1091.0,1195.0,1075.0,1214.0,1191.0,1097.0,0.0,0.0,0.0,0.0,0.0,0.0,0.0,0.0,0.0,0.0
