timestamp,ref_timestamp,ref_lat,ref_lon,x,y,z,delta_xy[0],delta_xy[1],delta_z,vx,vy,vz,z_deriv,delta_vxy[0],delta_vxy[1],delta_vz,ax,ay,az,yaw,ref_alt,dist_bottom,dist_bottom_rate,eph,epv,evh,evv,vxy_max,vz_max,hagl_min,hagl_max,xy_valid,z_valid,v_xy_valid,v_z_valid,xy_reset_counter,z_reset_counter,vxy_reset_counter,vz_reset_counter,xy_global,z_global,dist_bottom_valid
310017402,0,0.0,0.0,0.0,0.0,-1.9911127,-2.3742505e-06,-2.236855e-06,0.0,-0.005173309,-0.0040897545,-0.022384077,-0.050015837,-0.0005935626,-0.0005592137,0.0,-0.009448251,0.004104232,0.0003341631,0.49121532,0.0,0.10574806,0.022384077,0.121438,0.24772269,0.101514,0.107820146,inf,inf,inf,inf,0,1,0,1,1,0,1,1,0,0,1
310122892,0,0.0,0.0,0.0,0.0,-1.9988743,-2.3742505e-06,-2.236855e-06,0.0,-0.0046024206,-0.0044117896,-0.024519537,-0.054120455,-0.0005935626,-0.0005592137,0.0,0.021825563,-0.019537179,0.0055882074,0.49129975,0.0,0.10464358,0.024519537,0.122476324,0.24888375,0.101986334,0.10813503,inf,inf,inf,inf,0,1,0,1,1,0,1,1,0,0,1
310226896,0,0.0,0.0,0.0,0.0,-2.0067632,-2.3742505e-06,-2.236855e-06,0.0,-0.0043508485,-0.0041743764,-0.027096711,-0.058328018,-0.0005935626,-0.0005592137,0.0,-0.0013549525,0.016670555,-0.022991959,0.49142018,0.0,0.10266888,0.027096711,0.1217494,0.24822177,0.1015353,0.10792683,inf,inf,inf,inf,0,1,0,1,1,0,1,1,0,0,1
310323681,0,0.0,0.0,0.0,0.0,-2.0121808,-2.3742505e-06,-2.236855e-06,0.0,-0.0041673463,-0.0040562768,-0.028799893,-0.059228834,-0.0005935626,-0.0005592137,0.0,0.0022894759,-0.006247784,-0.007120024,0.49149185,0.0,0.106077075,0.028799893,0.12207414,0.24866027,0.10163161,0.10803821,inf,inf,inf,inf,0,1,0,1,1,0,1,1,0,0,1
310427916,0,0.0,0.0,0.0,0.0,-2.0149086,-2.3742505e-06,-2.236855e-06,0.0,-0.0038730996,-0.0043762014,-0.029768124,-0.0562749,-0.0005935626,-0.0005592137,0.0,0.037501965,-0.004999246,-0.008722239,0.4919018,0.0,0.114252806,0.029768124,0.12299952,0.24975587,0.10203755,0.10832298,inf,inf,inf,inf,0,1,0,1,1,0,1,1,0,0,1
310531779,0,0.0,0.0,0.0,0.0,-2.0164323,-2.3742505e-06,-2.236855e-06,0.0,-0.003946358,-0.004092194,-0.030185407,-0.052056927,-0.0005935626,-0.0005592137,0.0,-0.0039428896,0.023915043,-0.0077062896,0.49146783,0.0,0.114480615,0.030185407,0.122142784,0.24897526,0.10153179,0.108086996,inf,inf,inf,inf,0,1,0,1,1,0,1,1,0,0,1
310635833,0,0.0,0.0,0.0,0.0,-2.01764,-2.3742505e-06,-2.236855e-06,0.0,-0.0032176597,-0.0043560634,-0.028707832,-0.04620637,-0.0005935626,-0.0005592137,0.0,0.076329775,0.004916048,0.012041938,0.49191082,0.0,0.12473929,0.028707832,0.121330865,0.24818042,0.10108437,0.10786611,inf,inf,inf,inf,0,1,0,1,1,0,1,1,0,0,1
310737244,0,0.0,0.0,0.0,0.0,-2.013149,-2.3742505e-06,-2.236855e-06,0.0,-0.0030442541,-0.003763117,-0.026339563,-0.034838136,-0.0005935626,-0.0005592137,0.0,-0.0002814896,0.17119819,-0.1810715,0.49165326,0.0,0.1244272,0.026339563,0.122374095,0.24933255,0.101613164,0.10817629,inf,inf,inf,inf,0,1,0,1,1,0,1,1,0,0,1
310833309,0,0.0,0.0,0.0,0.0,-2.0118644,-2.3742505e-06,-2.236855e-06,0.0,-0.002771615,-0.0041762367,-0.024463102,-0.028575625,-0.0005935626,-0.0005592137,0.0,0.14197208,-0.0718764,0.13286434,0.4918487,0.0,0.11804521,0.024463102,0.12269392,0.24975489,0.10174037,0.10828001,inf,inf,inf,inf,0,1,0,1,1,0,1,1,0,0,1
310937371,0,0.0,0.0,0.0,0.0,-2.0098815,-2.3742505e-06,-2.236855e-06,0.0,-0.00279821,-0.0041074646,-0.023435099,-0.022861036,-0.0005935626,-0.0005592137,0.0,-0.020713778,0.029983409,0.13671786,0.49200046,0.0,0.11891198,0.023435099,0.12344191,0.25064272,0.1020794,0.10854632,inf,inf,inf,inf,0,1,0,1,1,0,1,1,0,0,1
311041459,0,0.0,0.0,0.0,0.0,-2.0062902,-2.3742505e-06,-2.236855e-06,0.0,-0.0023689708,-0.004165049,-0.022044357,-0.015943263,-0.0005935626,-0.0005592137,0.0,0.013169977,-0.08643971,-0.083942,0.49177715,0.0,0.12136614,0.022044357,0.122475214,0.24974777,0.10153261,0.10828347,inf,inf,inf,inf,0,1,0,1,1,0,1,1,0,0,1
311137321,0,0.0,0.0,0.0,0.0,-2.002451,-2.3742505e-06,-2.236855e-06,0.0,-0.002310848,-0.0046898313,-0.020326743,-0.009347186,-0.0005935626,-0.0005592137,0.0,-0.04430028,-0.06807269,-0.071039096,0.492017,0.0,0.1191231,0.020326743,0.122675605,0.2500914,0.10159005,0.10835399,inf,inf,inf,inf,0,1,0,1,1,0,1,1,0,0,1
311241240,0,0.0,0.0,0.0,0.0,-1.9968414,-2.3742505e-06,-2.236855e-06,0.0,-0.0022154076,-0.0041821515,-0.018777907,-0.0018598875,-0.0005935626,-0.0005592137,0.0,0.024198012,0.02130495,-0.00011647852,0.49184084,0.0,0.12254441,0.018777907,0.123548076,0.2511315,0.10201157,0.108614534,inf,inf,inf,inf,0,1,0,1,1,0,1,1,0,0,1
311345298,0,0.0,0.0,0.0,0.0,-1.9942524,-2.3742505e-06,-2.236855e-06,0.0,-0.0017723442,-0.0035088607,-0.017897883,0.0012541234,-0.0005935626,-0.0005592137,0.0,0.054744802,0.06875337,-0.03997615,0.4918329,0.0,0.114943385,0.017897883,0.12254876,0.25019172,0.10146827,0.10833688,inf,inf,inf,inf,0,1,0,1,1,0,1,1,0,0,1
311442213,0,0.0,0.0,0.0,0.0,-1.9905963,-2.3742505e-06,-2.236855e-06,0.0,-0.0014345176,-0.003863471,-0.015875539,0.0062019485,-0.0005935626,-0.0005592137,0.0,-0.10508644,0.015306389,-0.040321663,0.49180573,0.0,0.11594522,0.015875539,0.122744806,0.2505128,0.101546735,0.10840112,inf,inf,inf,inf,0,1,0,1,1,0,1,1,0,0,1
311547001,0,0.0,0.0,0.0,0.0,-1.9884466,-2.3742505e-06,-2.236855e-06,0.0,-0.0012087913,-0.0040139593,-0.016050605,0.0069484226,-0.0005935626,-0.0005592137,0.0,0.010078585,-0.04330446,-0.02884994,0.49170652,0.0,0.11076903,0.016050605,0.1235963,0.25152144,0.10196993,0.10865163,inf,inf,inf,inf,0,1,0,1,1,0,1,1,0,0,1
311650955,0,0.0,0.0,0.0,0.0,-1.9849266,-2.3742505e-06,-2.236855e-06,0.0,-0.001183478,-0.004142513,-0.014266382,0.010908751,-0.0005935626,-0.0005592137,0.0,0.11108882,-0.06562153,-0.004337908,0.491817,0.0,0.114230275,0.014266382,0.12277422,0.25071904,0.101572245,0.10839456,inf,inf,inf,inf,0,1,0,1,1,0,1,1,0,0,1
311746931,0,0.0,0.0,0.0,0.0,-1.9822812,-2.3742505e-06,-2.236855e-06,0.0,-0.0017324183,-0.0035907403,-0.013553468,0.0126540335,-0.0005935626,-0.0005592137,0.0,0.009294362,-0.059246507,-0.111538045,0.49165788,0.0,0.110676646,0.013553468,0.12305041,0.25106555,0.10172728,0.108473405,inf,inf,inf,inf,0,1,0,1,1,0,1,1,0,0,1
311850938,0,0.0,0.0,0.0,0.0,-1.9824017,-2.3742505e-06,-2.236855e-06,0.0,-0.0015845643,-0.0035830748,-0.014138562,0.010092137,-0.0005935626,-0.0005592137,0.0,0.0075773895,-0.04229518,-0.030863639,0.49165568,0.0,0.110471845,0.014138562,0.12772714,0.25205207,0.10410469,0.10871922,inf,inf,inf,inf,0,1,0,1,1,0,1,1,0,0,1
311954909,0,0.0,0.0,0.0,0.0,-1.9835727,-2.3742505e-06,-2.236855e-06,0.0,-0.001908069,-0.0041433033,-0.015247452,0.006347276,-0.0005935626,-0.0005592137,0.0,-0.06315515,-0.00032189777,0.052673418,0.49166638,0.0,0.11164284,0.015247452,0.1366448,0.2510276,0.10847062,0.10841557,inf,inf,inf,inf,0,1,0,1,1,0,1,1,0,0,1
312051075,0,0.0,0.0,0.0,0.0,-1.9856263,-2.3742505e-06,-2.236855e-06,0.0,-0.0026919344,-0.003982926,-0.016477762,0.0022301509,-0.0005935626,-0.0005592137,0.0,0.076600164,-0.08359244,0.07954932,0.4915022,0.0,0.113696456,0.016477762,0.14536613,0.25326443,0.11254313,0.10899564,inf,inf,inf,inf,0,1,0,1,1,0,1,1,0,0,1
312154872,0,0.0,0.0,0.0,0.0,-1.988495,-2.3742505e-06,-2.236855e-06,0.0,-0.0040811133,-0.003425985,-0.018042114,-0.0026170728,-0.0005935626,-0.0005592137,0.0,-0.21751267,0.45615718,-0.28310442,0.4920433,0.0,0.11656511,0.018042114,0.15532756,0.2521534,0.11700344,0.108662754,inf,inf,inf,inf,0,1,0,1,1,0,1,1,0,0,1
312260559,0,0.0,0.0,0.0,0.0,-1.9905621,-2.3742505e-06,-2.236855e-06,0.0,-0.0033422944,-0.003997434,-0.017593378,-0.0040885205,-0.0005935626,-0.0005592137,0.0,-0.059861835,0.055953085,0.017560396,0.49149984,0.0,0.1186322,0.017593378,0.16582167,0.25108537,0.121509075,0.10834984,inf,inf,inf,inf,0,1,0,1,1,0,1,1,0,0,1
312356597,0,0.0,0.0,0.0,0.0,-1.9911215,-2.3742505e-06,-2.236855e-06,0.0,-0.0035454852,-0.003429202,-0.01795904,-0.0047442126,-0.0005935626,-0.0005592137,0.0,-0.053935062,0.094602324,0.057990596,0.49181944,0.0,0.11919165,0.01795904,0.17607543,0.25140983,0.1257592,0.10840865,inf,inf,inf,inf,0,1,0,1,1,0,1,1,0,0,1
312460680,0,0.0,0.0,0.0,0.0,-1.9901912,-2.3742505e-06,-2.236855e-06,0.0,-0.0033561464,-0.0040158005,-0.017621715,-0.0031673352,-0.0005935626,-0.0005592137,0.0,0.15499693,0.051993243,0.12224068,0.4916288,0.0,0.11826134,0.017621715,0.18767343,0.25047746,0.13039787,0.10813654,inf,inf,inf,inf,0,1,0,1,1,0,1,1,0,0,1
312564517,0,0.0,0.0,0.0,0.0,-1.9909649,-2.3742505e-06,-2.236855e-06,0.0,-0.004000043,-0.004801152,-0.017885229,-0.004049785,-0.0005935626,-0.0005592137,0.0,0.009982526,-0.5437471,-0.09401537,0.49181008,0.0,0.119035006,0.017885229,0.19972458,0.2514592,0.13505468,0.108394176,inf,inf,inf,inf,0,1,0,1,1,0,1,1,0,0,1
312660496,0,0.0,0.0,0.0,0.0,-1.9908818,-2.3742505e-06,-2.236855e-06,0.0,-0.004596493,-0.005979266,-0.018533736,-0.0043750214,-0.0005935626,-0.0005592137,0.0,0.45280388,-0.89898247,0.19676064,0.4918081,0.0,0.11895192,0.018533736,0.2113033,0.25171685,0.13939497,0.108450755,inf,inf,inf,inf,0,1,0,1,1,0,1,1,0,0,1
312764554,0,0.0,0.0,0.0,0.0,-1.9901713,-2.3742505e-06,-2.236855e-06,0.0,-0.0065568476,-0.0043108664,-0.017209742,-0.0022056338,-0.0005935626,-0.0005592137,0.0,-0.34189206,-0.23524456,-0.07372882,0.49182513,0.0,0.11824143,0.017209742,0.22434604,0.25264317,0.1441482,0.10868596,inf,inf,inf,inf,0,1,0,1,1,0,1,1,0,0,1
312868513,0,0.0,0.0,0.0,0.0,-1.9868572,-2.3742505e-06,-2.236855e-06,0.0,-0.0058726394,-0.0038258724,-0.016220897,0.002070678,-0.0005935626,-0.0005592137,0.0,-0.24447481,-0.023981178,-0.0061020884,0.49190345,0.0,0.11609924,0.016220897,0.23786803,0.25156376,0.14892511,0.10838029,inf,inf,inf,inf,0,1,0,1,1,0,1,1,0,0,1
312966199,0,0.0,0.0,0.0,0.0,-1.9824632,-2.3742505e-06,-2.236855e-06,0.0,-0.005623349,-0.0043450603,-0.013315358,0.008842219,-0.0005935626,-0.0005592137,0.0,0.09550868,-0.07568458,0.25001004,0.49203238,0.0,0.118811846,0.013315358,0.25081798,0.25181875,0.15338232,0.10844094,inf,inf,inf,inf,0,1,0,1,1,0,1,1,0,0,1
313070088,0,0.0,0.0,0.0,0.0,-1.9734757,-2.3742505e-06,-2.236855e-06,0.0,-0.007337485,-0.0049515855,-0.011552937,0.018103126,-0.0005935626,-0.0005592137,0.0,-0.21527676,0.06973312,-0.013007845,0.49194106,0.0,0.12275505,0.011552937,0.26530027,0.25080302,0.15824263,0.10816393,inf,inf,inf,inf,0,1,0,1,1,0,1,1,0,0,1
313174089,0,0.0,0.0,0.0,0.0,-1.9638007,-2.3742505e-06,-2.236855e-06,0.0,-0.009735558,-0.0050124223,-0.007938512,0.028626408,-0.0005935626,-0.0005592137,0.0,-0.72457165,0.21967073,-0.06193715,0.49206102,0.0,0.12008476,0.007938512,0.2805608,0.25184384,0.1632526,0.10841164,inf,inf,inf,inf,0,1,0,1,1,0,1,1,0,0,1
313278120,0,0.0,0.0,0.0,0.0,-1.9543875,-2.3742505e-06,-2.236855e-06,0.0,-0.003487408,-0.009035259,-0.006871534,0.035146233,-0.0005935626,-0.0005592137,0.0,0.46533328,-1.0923665,-0.32703403,0.4918119,0.0,0.118014574,0.006871534,0.29608893,0.25271007,0.16821413,0.1086288,inf,inf,inf,inf,0,1,0,1,1,0,1,1,0,0,1
313374234,0,0.0,0.0,0.0,0.0,-1.9499463,-2.3742505e-06,-2.236855e-06,0.0,-0.005437138,-0.0099427095,-0.0061600683,0.03613169,-0.0005935626,-0.0005592137,0.0,0.19869292,0.36830923,-0.21204267,0.4911212,0.0,0.11357331,0.0061600683,0.3108424,0.25290924,0.17281938,0.108671166,inf,inf,inf,inf,0,1,0,1,1,0,1,1,0,0,1
313478177,0,0.0,0.0,0.0,0.0,-1.9472431,-2.3742505e-06,-2.236855e-06,0.0,-0.008929832,-0.0062552514,-0.0012290948,0.03905634,-0.0005935626,-0.0005592137,0.0,0.2314097,-0.5574276,0.39444175,0.49083486,0.0,0.11087012,0.0012290948,0.32722703,0.25176325,0.17783578,0.108348235,inf,inf,inf,inf,0,1,0,1,1,0,1,1,0,0,1
313582148,0,0.0,0.0,0.0,0.0,-1.9451181,-2.3742505e-06,-2.236855e-06,0.0,-0.0104337465,-0.003977971,-0.0027577686,0.035118278,-0.0005935626,-0.0005592137,0.0,0.27478355,0.051766273,0.00081164535,0.49089718,0.0,0.1087451,0.0027577686,0.34417766,0.2526289,0.18288536,0.10857048,inf,inf,inf,inf,0,1,0,1,1,0,1,1,0,0,1
313682942,0,0.0,0.0,0.0,0.0,-1.9420974,-2.3742505e-06,-2.236855e-06,0.0,-0.013060643,0.0023450346,-0.0026028135,0.034062434,-0.0005935626,-0.0005592137,0.0,-0.095580995,0.737608,-0.39680332,0.49090192,0.0,0.105724454,0.0026028135,0.36148933,0.2514832,0.18793598,0.10825101,inf,inf,inf,inf,0,1,0,1,1,0,1,1,0,0,1
313779733,0,0.0,0.0,0.0,0.0,-1.9390779,-2.3742505e-06,-2.236855e-06,0.0,-0.010585666,-0.0005763293,-0.0011349078,0.034756478,-0.0005935626,-0.0005592137,0.0,0.5395835,-0.2668048,0.37120834,0.49089408,0.0,0.10438526,0.0011349078,0.37793893,0.25170386,0.1926451,0.10831072,inf,inf,inf,inf,0,1,0,1,1,0,1,1,0,0,1
313883831,0,0.0,0.0,0.0,0.0,-1.9309244,-2.3742505e-06,-2.236855e-06,0.0,-0.013090306,-0.003568555,0.0023790172,0.042307433,-0.0005935626,-0.0005592137,0.0,-0.90831864,0.42352307,0.691119,0.49032518,0.0,0.11567438,-0.0023790172,0.3958131,0.2524291,0.19766426,0.10854965,inf,inf,inf,inf,0,1,0,1,1,0,1,1,0,0,1
313987913,0,0.0,0.0,0.0,0.0,-1.922944,-2.3742505e-06,-2.236855e-06,0.0,-0.010263968,-0.0014865444,0.004116609,0.04728482,-0.0005935626,-0.0005592137,0.0,0.11480203,-0.71334314,0.71511143,0.49007046,0.0,0.1131978,-0.004116609,0.41439655,0.25133032,0.20278396,0.10825173,inf,inf,inf,inf,0,1,0,1,1,0,1,1,0,0,1
314091701,0,0.0,0.0,0.0,0.0,-1.9149493,-2.3742505e-06,-2.236855e-06,0.0,-0.011055301,-0.0008951059,0.008704532,0.054013588,-0.0005935626,-0.0005592137,0.0,0.39735642,-0.31267542,0.6160985,0.49033052,0.0,0.10694826,-0.008704532,0.43358472,0.25223926,0.20797439,0.108497754,inf,inf,inf,inf,0,1,0,1,1,0,1,1,0,0,1
314187855,0,0.0,0.0,0.0,0.0,-1.9112612,-2.3742505e-06,-2.236855e-06,0.0,-0.005221795,-0.0036431996,0.011057896,0.054208398,-0.0005935626,-0.0005592137,0.0,0.8592341,-1.4096981,0.72493595,0.4902276,0.0,0.10326016,-0.011057896,0.45162064,0.25247148,0.21272504,0.108562775,inf,inf,inf,inf,0,1,0,1,1,0,1,1,0,0,1
314291767,0,0.0,0.0,0.0,0.0,-1.9121021,-2.3742505e-06,-2.236855e-06,0.0,-0.002265362,0.00804558,0.006592171,0.043217003,-0.0005935626,-0.0005592137,0.0,2.2190652,-0.977706,-0.052814372,0.4902651,0.0,0.10410106,-0.006592171,0.47161928,0.25335154,0.21791528,0.10879716,inf,inf,inf,inf,0,1,0,1,1,0,1,1,0,0,1
314395724,0,0.0,0.0,0.0,0.0,-1.9131851,-2.3742505e-06,-2.236855e-06,0.0,-0.008973906,0.01883485,0.0046158447,0.035899475,-0.0005935626,-0.0005592137,0.0,-1.1974028,0.94397473,0.97330487,0.49036944,0.0,0.10518408,-0.0046158447,0.49174058,0.25218585,0.22303529,0.108475834,inf,inf,inf,inf,0,1,0,1,1,0,1,1,0,0,1
314493402,0,0.0,0.0,0.0,0.0,-1.912341,-2.3742505e-06,-2.236855e-06,0.0,-0.0060378006,0.00581803,0.001960875,0.03053513,-0.0005935626,-0.0005592137,0.0,0.14005351,-1.629649,-0.6766145,0.49111986,0.0,0.10433996,-0.001960875,0.51114106,0.2543557,0.22796498,0.10905105,inf,inf,inf,inf,0,1,0,1,1,0,1,1,0,0,1
314597806,0,0.0,0.0,0.0,0.0,-1.911652,-2.3742505e-06,-2.236855e-06,0.0,-0.010981046,0.01682919,-0.0012643995,0.02463576,-0.0005935626,-0.0005592137,0.0,-0.7901986,0.16157964,0.022464769,0.49037972,0.0,0.10365093,0.0012643995,0.5319136,0.25312263,0.23304208,0.108707234,inf,inf,inf,inf,0,1,0,1,1,0,1,1,0,0,1
314693246,0,0.0,0.0,0.0,0.0,-1.915706,-2.3742505e-06,-2.236855e-06,0.0,-0.0022170655,0.025517136,-0.0051818625,0.013968777,-0.0005935626,-0.0005592137,0.0,0.8622442,2.8213243,-0.8150551,0.49038982,0.0,0.107705,0.0051818625,0.55196077,0.25339964,0.2378934,0.108754024,inf,inf,inf,inf,0,1,0,1,1,0,1,1,0,0,1
314797266,0,0.0,0.0,0.0,0.0,-1.9238559,-2.3742505e-06,-2.236855e-06,0.0,0.00040488664,0.029272884,-0.0032789237,0.006976038,-0.0005935626,-0.0005592137,0.0,0.29670912,-0.7557269,2.4737206,0.49027228,0.0,0.11585486,0.0032789237,0.5737457,0.25418374,0.24304898,0.10895302,inf,inf,inf,inf,0,1,0,1,1,0,1,1,0,0,1
314901344,0,0.0,0.0,0.0,0.0,-1.9357824,-2.3742505e-06,-2.236855e-06,0.0,-0.0016905648,0.022374516,-0.004194797,-0.0057505243,-0.0005935626,-0.0005592137,0.0,1.3878534,-1.3349903,0.7603085,0.4915778,0.0,0.12778139,0.004194797,0.59585935,0.25494358,0.24831799,0.109141745,inf,inf,inf,inf,0,1,0,1,1,0,1,1,0,0,1
315005303,0,0.0,0.0,0.0,0.0,-1.9492223,-2.3742505e-06,-2.236855e-06,0.0,0.017902814,0.04627295,-0.033081356,-0.04549294,-0.0005935626,-0.0005592137,0.0,-0.003367459,1.3770869,0.6919369,0.48989934,0.0,0.14122128,0.033081356,0.61766905,0.2536179,0.25317755,0.10876741,inf,inf,inf,inf,0,1,0,1,1,0,1,1,0,0,1
315410875,0,0.0,0.0,0.0,0.0,-2.0312316,-2.3742505e-06,-2.236855e-06,0.0,0.14806195,0.33842534,-0.06101811,-0.1108657,-0.0005935626,-0.0005592137,0.0,-0.732536,2.2552974,0.93357253,0.4927473,0.0,0.1,0.06101811,0.7061944,0.25385717,0.27276525,0.10885469,inf,inf,inf,inf,0,1,0,1,1,0,1,1,0,0,1
315515065,0,0.0,0.0,0.0,0.0,-2.0354602,-2.3742505e-06,-2.236855e-06,0.0,0.1852066,0.41425955,-0.031733137,-0.074602485,-0.0005935626,-0.0005592137,0.0,-2.2203724,-0.9595362,-1.4337851,0.4934602,0.0,0.1254183,0.031733137,0.7295884,0.25462627,0.27755427,0.10904749,inf,inf,inf,inf,0,1,0,1,1,0,1,1,0,0,1
315611032,0,0.0,0.0,0.0,0.0,-2.029663,-2.3742505e-06,-2.236855e-06,0.0,0.2323741,0.47422212,8.926538e-05,-0.03072473,-0.0005935626,-0.0005592137,0.0,0.7468717,0.7405057,1.2405224,0.4937958,0.0,0.12904608,-8.926538e-05,0.75094795,0.25464362,0.28183383,0.109034345,inf,inf,inf,inf,0,1,0,1,1,0,1,1,0,0,1
315714945,0,0.0,0.0,0.0,0.0,-2.0174394,-2.3742505e-06,-2.236855e-06,0.0,0.2811034,0.535408,0.036119144,0.018950336,-0.0005935626,-0.0005592137,0.0,-0.8377778,0.6293987,0.13348536,0.49409926,0.0,0.11814201,-0.036119144,0.7745034,0.25534883,0.28642297,0.10920611,inf,inf,inf,inf,0,1,0,1,1,0,1,1,0,0,1
315819004,0,0.0,0.0,0.0,0.0,-2.014952,-2.3742505e-06,-2.236855e-06,0.0,0.32094625,0.58197194,0.059668384,0.04172032,-0.0005935626,-0.0005592137,0.0,1.1362619,-0.41066504,-1.4753841,0.4957159,0.0,0.1,-0.059668384,0.7968667,0.25400218,0.2904947,0.10883595,inf,inf,inf,inf,0,1,0,1,1,0,1,1,0,0,1
315919773,0,0.0,0.0,0.0,0.0,-2.0140357,-2.3742505e-06,-2.236855e-06,0.0,0.33949962,0.6210094,0.04748536,0.026776982,-0.0005935626,-0.0005592137,0.0,-2.2111697,0.89610773,0.10442437,0.49762395,0.0,0.1,-0.04748536,0.82042825,0.25474113,0.2950094,0.10903436,inf,inf,inf,inf,0,1,0,1,1,0,1,1,0,0,1
316016496,0,0.0,0.0,0.0,0.0,-2.0148737,-2.3742505e-06,-2.236855e-06,0.0,0.38253507,0.65632516,0.01850791,-0.003800699,-0.0005935626,-0.0005592137,0.0,1.1917337,0.56764495,2.2483983,0.49839473,0.0,0.1,-0.01850791,0.84171724,0.25478658,0.2988648,0.10904632,inf,inf,inf,inf,0,1,0,1,1,0,1,1,0,0,1
316120438,0,0.0,0.0,0.0,0.0,-2.0199163,-2.3742505e-06,-2.236855e-06,0.0,0.4153412,0.70984983,-0.0131337615,-0.038141824,-0.0005935626,-0.0005592137,0.0,1.6818894,0.23590979,-3.74713,0.49819016,0.0,0.1,0.0131337615,0.86292183,0.2532627,0.30278164,0.10868032,inf,inf,inf,inf,0,1,0,1,1,0,1,1,0,0,1
316224536,0,0.0,0.0,0.0,0.0,-2.0242436,-2.3742505e-06,-2.236855e-06,0.0,0.4610746,0.7753824,-0.035065588,-0.05943461,-0.0005935626,-0.0005592137,0.0,-0.24038741,1.0757799,0.5905027,0.49922124,0.0,0.102600455,0.035065588,0.884548,0.25201124,0.30668268,0.10835494,inf,inf,inf,inf,0,1,0,1,1,0,1,1,0,0,1
316320573,0,0.0,0.0,0.0,0.0,-2.0289962,-2.3742505e-06,-2.236855e-06,0.0,0.49418682,0.84056515,-0.07512881,-0.09573422,-0.0005935626,-0.0005592137,0.0,-0.23735246,-1.1297085,2.83561,0.49891633,0.0,0.11721027,0.07512881,0.90541136,0.25216416,0.3104363,0.10841123,inf,inf,inf,inf,0,1,0,1,1,0,1,1,0,0,1
316424461,0,0.0,0.0,0.0,0.0,-2.0367277,-2.3742505e-06,-2.236855e-06,0.0,0.54570097,0.9028162,-0.14532492,-0.16002163,-0.0005935626,-0.0005592137,0.0,0.24484378,0.29070276,0.59096134,0.4962745,0.0,0.13008392,0.14532492,0.92654544,0.2510561,0.31427544,0.10814613,inf,inf,inf,inf,0,1,0,1,1,0,1,1,0,0,1
316528567,0,0.0,0.0,0.0,0.0,-2.0543945,-2.3742505e-06,-2.236855e-06,0.0,0.593197,0.9546367,-0.24325186,-0.25378263,-0.0005935626,-0.0005592137,0.0,0.96999514,0.17065495,0.10824309,0.4940362,0.0,0.12838018,0.24325186,0.9473258,0.25000888,0.31788674,0.107905485,inf,inf,inf,inf,0,1,0,1,1,0,1,1,0,0,1
316632639,0,0.0,0.0,0.0,0.0,-2.0863883,-2.3742505e-06,-2.236855e-06,0.0,0.6274563,0.9999761,-0.3735191,-0.38309073,-0.0005935626,-0.0005592137,0.0,0.4182503,-0.7641283,-1.9047982,0.4932573,0.0,0.1578995,0.3735191,0.9699684,0.25094983,0.32228628,0.10819414,inf,inf,inf,inf,0,1,0,1,1,0,1,1,0,0,1
316734193,0,0.0,0.0,0.0,0.0,-2.1275105,-2.3742505e-06,-2.236855e-06,0.0,0.65297264,1.0128393,-0.4740356,-0.48116347,-0.0005935626,-0.0005592137,0.0,2.3352225,1.6250093,-2.675345,0.49336714,0.0,0.16791427,0.4740356,0.9924136,0.25186053,0.32665107,0.10846815,inf,inf,inf,inf,0,1,0,1,1,0,1,1,0,0,1
316838178,0,0.0,0.0,0.0,0.0,-2.1920907,-2.3742505e-06,-2.236855e-06,0.0,0.66539466,0.9950738,-0.56540734,-0.58179855,-0.0005935626,-0.0005592137,0.0,-0.98680264,-1.7041818,-0.0046701254,0.4941645,0.0,0.1847601,0.56540734,1.0123743,0.25088918,0.33027032,0.10823219,inf,inf,inf,inf,0,1,0,1,1,0,1,1,0,0,1
316934051,0,0.0,0.0,0.0,0.0,-2.26198,-2.3742505e-06,-2.236855e-06,0.0,0.68139833,0.980882,-0.621831,-0.6486465,-0.0005935626,-0.0005592137,0.0,0.27913868,-0.8567008,-0.65341437,0.49559385,0.0,0.23701572,0.621831,1.0308157,0.25090235,0.33366472,0.10831272,inf,inf,inf,inf,0,1,0,1,1,0,1,1,0,0,1
317038148,0,0.0,0.0,0.0,0.0,-2.3409793,-2.3742505e-06,-2.236855e-06,0.0,0.6897707,0.9651959,-0.6643635,-0.699821,-0.0005935626,-0.0005592137,0.0,-1.489937,1.3999629,-1.4693693,0.49677762,0.0,0.29567933,0.6643635,1.0524402,0.2518363,0.33739686,0.10858042,inf,inf,inf,inf,0,1,0,1,1,0,1,1,0,0,1
317142218,0,0.0,0.0,0.0,0.0,-2.424341,-2.3742505e-06,-2.236855e-06,0.0,0.69900787,0.9364263,-0.6888025,-0.732665,-0.0005935626,-0.0005592137,0.0,3.9262686,1.4940475,-0.117061816,0.49858096,0.0,0.37613726,0.6888025,1.0707816,0.25084302,0.33997706,0.10833739,inf,inf,inf,inf,0,1,0,1,1,0,1,1,0,0,1
317238222,0,0.0,0.0,0.0,0.0,-2.503695,-2.3742505e-06,-2.236855e-06,0.0,0.6923615,0.90476894,-0.7063946,-0.75682944,-0.0005935626,-0.0005592137,0.0,0.25961456,0.39487612,2.6123488,0.50028837,0.0,0.43987203,0.7063946,1.0859481,0.24922965,0.3418316,0.10793088,inf,inf,inf,inf,0,1,0,1,1,0,1,1,0,0,1
317342167,0,0.0,0.0,0.0,0.0,-2.5862055,-2.3742505e-06,-2.236855e-06,0.0,0.68337333,0.87118614,-0.73132765,-0.78246224,-0.0005935626,-0.0005592137,0.0,-1.3152406,-2.3245707,1.0200181,0.5018078,0.0,0.5288687,0.73132765,1.1064106,0.25027242,0.34479892,0.108238675,inf,inf,inf,inf,0,1,0,1,1,0,1,1,0,0,1
317447800,0,0.0,0.0,0.0,0.0,-2.6738358,-2.3742505e-06,-2.236855e-06,0.0,0.6680307,0.8357724,-0.7442964,-0.79831505,-0.0005935626,-0.0005592137,0.0,-2.9553776,-1.2080288,3.1135714,0.50171286,0.0,0.6075494,0.7442964,1.1228735,0.24931285,0.3467437,0.10799615,inf,inf,inf,inf,0,1,0,1,1,0,1,1,0,0,1
317551685,0,0.0,0.0,0.0,0.0,-2.760355,-2.3742505e-06,-2.236855e-06,0.0,0.6715105,0.80902356,-0.7563914,-0.8122199,-0.0005935626,-0.0005592137,0.0,1.2980579,0.3003917,-1.4856277,0.501115,0.0,0.69153523,0.7563914,1.1423346,0.25032356,0.34937823,0.10828632,inf,inf,inf,inf,0,1,0,1,1,0,1,1,0,0,1
317647863,0,0.0,0.0,0.0,0.0,-2.8464797,-2.3742505e-06,-2.236855e-06,0.0,0.6550643,0.7729774,-0.7550486,-0.81796163,-0.0005935626,-0.0005592137,0.0,-1.0111253,-0.00046952735,-0.70327747,0.50002396,0.0,0.74903893,0.7550486,1.1592388,0.2507715,0.35150623,0.10839579,inf,inf,inf,inf,0,1,0,1,1,0,1,1,0,0,1
317751798,0,0.0,0.0,0.0,0.0,-2.938655,-2.3742505e-06,-2.236855e-06,0.0,0.64198995,0.7361455,-0.75138456,-0.81998503,-0.0005935626,-0.0005592137,0.0,-1.0350696,-1.6695561,1.4063199,0.49885577,0.0,0.8154919,0.75138456,1.1777118,0.2517218,0.35383502,0.1086577,inf,inf,inf,inf,0,1,0,1,1,0,1,1,0,0,1
317855766,0,0.0,0.0,0.0,0.0,-3.0304728,-2.3742505e-06,-2.236855e-06,0.0,0.641009,0.7110787,-0.76046246,-0.8335951,-0.0005935626,-0.0005592137,0.0,2.1124063,2.3645918,1.2000093,0.49793166,0.0,0.9014373,0.76046246,1.1914942,0.2506919,0.35484213,0.108383,inf,inf,inf,inf,0,1,0,1,1,0,1,1,0,0,1
317951783,0,0.0,0.0,0.0,0.0,-3.118797,-2.3742505e-06,-2.236855e-06,0.0,0.6248356,0.672386,-0.7565839,-0.83703184,-0.0005935626,-0.0005592137,0.0,0.5554399,0.41525853,-0.52599573,0.4970108,0.0,0.96118593,0.7565839,1.2062151,0.2509655,0.35639867,0.10846036,inf,inf,inf,inf,0,1,0,1,1,0,1,1,0,0,1
318055707,0,0.0,0.0,0.0,0.0,-3.2144012,-2.3742505e-06,-2.236855e-06,0.0,0.608033,0.6333324,-0.7710807,-0.85774046,-0.0005935626,-0.0005592137,0.0,-0.777789,-2.260134,1.0616806,0.49629682,0.0,1.0390968,0.7710807,1.2230549,0.25188905,0.35831746,0.108708225,inf,inf,inf,inf,0,1,0,1,1,0,1,1,0,0,1
318160631,0,0.0,0.0,0.0,0.0,-3.3150942,-2.3742505e-06,-2.236855e-06,0.0,0.59877104,0.5994677,-0.7752923,-0.8708786,-0.0005935626,-0.0005592137,0.0,-1.9741968,-0.050221816,1.6958944,0.49554285,0.0,1.1063268,0.7752923,1.2347071,0.25083718,0.35892582,0.108424135,inf,inf,inf,inf,0,1,0,1,1,0,1,1,0,0,1
318257323,0,0.0,0.0,0.0,0.0,-3.4118826,-2.3742505e-06,-2.236855e-06,0.0,0.59331363,0.56854624,-0.7950725,-0.9007504,-0.0005935626,-0.0005592137,0.0,1.1343008,0.39491755,0.6667282,0.49509472,0.0,1.17753,0.7950725,1.2526248,0.25308564,0.36138555,0.10903007,inf,inf,inf,inf,0,1,0,1,1,0,1,1,0,0,1
318361252,0,0.0,0.0,0.0,0.0,-3.5160873,-2.3742505e-06,-2.236855e-06,0.0,0.575677,0.5357165,-0.8278532,-0.94091386,-0.0005935626,-0.0005592137,0.0,-0.76428974,1.4709777,-0.859729,0.49481586,0.0,1.2620146,0.8278532,1.2633921,0.25209227,0.3617216,0.10873,inf,inf,inf,inf,0,1,0,1,1,0,1,1,0,0,1
319275055,0,0.0,0.0,0.0,0.0,-4.723885,-2.3742505e-06,-2.236855e-06,0.0,0.42774376,0.22129071,-1.5260915,-1.6311166,-0.0005935626,-0.0005592137,0.0,1.3507351,0.052854527,2.8101287,0.4932175,0.0,2.303899,1.5260915,1.3581634,0.25376812,0.3713218,0.109057344,inf,inf,inf,inf,0,1,0,1,1,0,1,1,0,0,1
319379070,0,0.0,0.0,0.0,0.0,-4.897278,-2.3742505e-06,-2.236855e-06,0.0,0.40404686,0.18867615,-1.5192008,-1.6256242,-0.0005935626,-0.0005592137,0.0,-0.4691329,-2.5597262,-1.1255559,0.4928828,0.0,2.451481,1.5192008,1.3620919,0.25253803,0.3709738,0.10871179,inf,inf,inf,inf,0,1,0,1,1,0,1,1,0,0,1
319482989,0,0.0,0.0,0.0,0.0,-5.055642,-2.3742505e-06,-2.236855e-06,0.0,0.38655344,0.15553737,-1.358616,-1.4609975,-0.0005935626,-0.0005592137,0.0,-2.036038,-1.3489457,1.2516229,0.49250963,0.0,2.6093013,1.358616,1.3719027,0.25335255,0.37190408,0.108920544,inf,inf,inf,inf,0,1,0,1,1,0,1,1,0,0,1
319578899,0,0.0,0.0,0.0,0.0,-5.185755,-2.3742505e-06,-2.236855e-06,0.0,0.37681898,0.1213908,-1.208341,-1.3066083,-0.0005935626,-0.0005592137,0.0,0.75179136,0.5229484,2.4315882,0.49253353,0.0,2.7158368,1.208341,1.372122,0.25148934,0.37008986,0.10841263,inf,inf,inf,inf,0,1,0,1,1,0,1,1,0,0,1
319684617,0,0.0,0.0,0.0,0.0,-5.304058,-2.3742505e-06,-2.236855e-06,0.0,0.36199468,0.09995036,-1.0199988,-1.1078606,-0.0005935626,-0.0005592137,0.0,-2.8458998,-0.3235118,6.5223613,0.49241132,0.0,2.8236117,1.0199988,1.3811029,0.25235647,0.36963797,0.10864408,inf,inf,inf,inf,0,1,0,1,1,0,1,1,0,0,1
319788479,0,0.0,0.0,0.0,0.0,-5.398349,-2.3742505e-06,-2.236855e-06,0.0,0.36268428,0.05897513,-0.8651608,-0.9396399,-0.0005935626,-0.0005592137,0.0,-0.2482689,0.50904715,-3.7886527,0.49213213,0.0,2.9138877,0.8651608,1.3895665,0.25320184,0.36916348,0.108866386,inf,inf,inf,inf,0,1,0,1,1,0,1,1,0,0,1
319884477,0,0.0,0.0,0.0,0.0,-5.464941,-2.3742505e-06,-2.236855e-06,0.0,0.34034663,0.035300188,-0.7043013,-0.76316816,-0.0005935626,-0.0005592137,0.0,-3.8313978,-1.5741473,2.58103,0.49261266,0.0,2.9829783,0.7043013,1.388758,0.25151098,0.3669163,0.1083893,inf,inf,inf,inf,0,1,0,1,1,0,1,1,0,0,1
319988616,0,0.0,0.0,0.0,0.0,-5.5165596,-2.3742505e-06,-2.236855e-06,0.0,0.3262529,0.010455184,-0.53159386,-0.57196194,-0.0005935626,-0.0005592137,0.0,0.16845573,-0.2944205,3.9383888,0.49254626,0.0,3.0403743,0.53159386,1.3964086,0.25240248,0.36635858,0.10863497,inf,inf,inf,inf,0,1,0,1,1,0,1,1,0,0,1
320092507,0,0.0,0.0,0.0,0.0,-5.5491896,-2.3742505e-06,-2.236855e-06,0.0,0.3114508,-0.0011778963,-0.3696855,-0.39237183,-0.0005935626,-0.0005592137,0.0,2.216496,1.0960507,-0.2812794,0.4928468,0.0,3.083123,0.3696855,1.4036292,0.2532826,0.36587107,0.10887514,inf,inf,inf,inf,0,1,0,1,1,0,1,1,0,0,1
320188620,0,0.0,0.0,0.0,0.0,-5.5631666,-2.3742505e-06,-2.236855e-06,0.0,0.28926325,-0.03416021,-0.20772947,-0.21494207,-0.0005935626,-0.0005592137,0.0,-0.4040278,-1.8820674,4.612949,0.4922843,0.0,3.1035757,0.20772947,1.407834,0.25347733,0.36508742,0.10892921,inf,inf,inf,inf,0,1,0,1,1,0,1,1,0,0,1
320292640,0,0.0,0.0,0.0,0.0,-5.5646043,-2.3742505e-06,-2.236855e-06,0.0,0.26640952,-0.041156307,-0.057904895,-0.05287797,-0.0005935626,-0.0005592137,0.0,0.029023828,0.7316682,2.3188572,0.4921751,0.0,3.1294315,0.057904895,1.4072179,0.25228712,0.3630503,0.108603716,inf,inf,inf,inf,0,1,0,1,1,0,1,1,0,0,1
320398222,0,0.0,0.0,0.0,0.0,-5.5484486,-2.3742505e-06,-2.236855e-06,0.0,0.24946779,-0.064691775,0.08689005,0.10449096,-0.0005935626,-0.0005592137,0.0,-1.9410874,-0.3993766,1.8095211,0.4915376,0.0,3.122827,-0.08689005,1.4131149,0.25307962,0.36262345,0.10880605,inf,inf,inf,inf,0,1,0,1,1,0,1,1,0,0,1
320502033,0,0.0,0.0,0.0,0.0,-5.5147486,-2.3742505e-06,-2.236855e-06,0.0,0.23250447,-0.093443714,0.2349847,0.2657537,-0.0005935626,-0.0005592137,0.0,0.15903814,0.5178986,2.0306056,0.49116504,0.0,3.1007266,-0.2349847,1.4117041,0.25189066,0.36071822,0.108481094,inf,inf,inf,inf,0,1,0,1,1,0,1,1,0,0,1
320598151,0,0.0,0.0,0.0,0.0,-5.4710627,-2.3742505e-06,-2.236855e-06,0.0,0.2234335,-0.10380055,0.3785484,0.41870177,-0.0005935626,-0.0005592137,0.0,-1.9522859,-1.4869636,-0.43000296,0.49137357,0.0,3.0650299,-0.3785484,1.4149816,0.25218025,0.36007103,0.10853774,inf,inf,inf,inf,0,1,0,1,1,0,1,1,0,0,1
320702101,0,0.0,0.0,0.0,0.0,-5.40842,-2.3742505e-06,-2.236855e-06,0.0,0.21222916,-0.11860144,0.5456507,0.5947225,-0.0005935626,-0.0005592137,0.0,1.9089177,-1.1321716,3.9484358,0.49159145,0.0,3.0157993,-0.5456507,1.4199898,0.25298572,0.35980994,0.10874972,inf,inf,inf,inf,0,1,0,1,1,0,1,1,0,0,1
320806225,0,0.0,0.0,0.0,0.0,-5.3300786,-2.3742505e-06,-2.236855e-06,0.0,0.1945835,-0.1453911,0.69462824,0.75090796,-0.0005935626,-0.0005592137,0.0,1.6564436,-0.5093904,1.7446343,0.49163073,0.0,2.9413314,-0.69462824,1.4246492,0.253755,0.35934103,0.10894409,inf,inf,inf,inf,0,1,0,1,1,0,1,1,0,0,1
320902206,0,0.0,0.0,0.0,0.0,-5.239964,-2.3742505e-06,-2.236855e-06,0.0,0.17520711,-0.16345382,0.8227891,0.88943094,-0.0005935626,-0.0005592137,0.0,0.37340918,-1.4319627,0.64967114,0.49229124,0.0,2.8636563,-0.8227891,1.4264311,0.25381348,0.3586179,0.10894747,inf,inf,inf,inf,0,1,0,1,1,0,1,1,0,0,1
321006049,0,0.0,0.0,0.0,0.0,-5.126608,-2.3742505e-06,-2.236855e-06,0.0,0.15998726,-0.18413435,0.9679031,1.0454526,-0.0005935626,-0.0005592137,0.0,1.9947608,-0.14545241,0.8273653,0.49279517,0.0,2.77173,-0.9679031,1.4233984,0.25256774,0.35682297,0.10860619,inf,inf,inf,inf,0,1,0,1,1,0,1,1,0,0,1
321110138,0,0.0,0.0,0.0,0.0,-5.003711,-2.3742505e-06,-2.236855e-06,0.0,0.13821153,-0.20750235,1.0888388,1.1718841,-0.0005935626,-0.0005592137,0.0,-2.3312213,0.75604045,2.798598,0.4934049,0.0,2.6566215,-1.0888388,1.4273753,0.25335386,0.35659587,0.108813785,inf,inf,inf,inf,0,1,0,1,1,0,1,1,0,0,1
321207825,0,0.0,0.0,0.0,0.0,-4.882096,-2.3742505e-06,-2.236855e-06,0.0,0.14247167,-0.22934738,1.0355407,1.1245301,-0.0005935626,-0.0005592137,0.0,3.4225695,0.4019211,-0.71020144,0.49453622,0.0,2.5470335,-1.0355407,1.4311644,0.25414643,0.35654077,0.10902343,inf,inf,inf,inf,0,1,0,1,1,0,1,1,0,0,1
321311814,0,0.0,0.0,0.0,0.0,-4.765083,-2.3742505e-06,-2.236855e-06,0.0,0.115899384,-0.2554482,0.8630172,0.957855,-0.0005935626,-0.0005592137,0.0,1.1547952,-0.57474333,-1.8962839,0.49544463,0.0,2.4401972,-0.8630172,1.4255242,0.2523822,0.35498992,0.10865241,inf,inf,inf,inf,0,1,0,1,1,0,1,1,0,0,1
321415737,0,0.0,0.0,0.0,0.0,-4.6758113,-2.3742505e-06,-2.236855e-06,0.0,0.099632114,-0.27940452,0.56963235,0.66649777,-0.0005935626,-0.0005592137,0.0,3.913978,-0.84090924,-4.1177897,0.4963392,0.0,2.3598216,-0.56963235,1.4290713,0.25319973,0.35640848,0.10886693,inf,inf,inf,inf,0,1,0,1,1,0,1,1,0,0,1
321511761,0,0.0,0.0,0.0,0.0,-4.628411,-2.3742505e-06,-2.236855e-06,0.0,0.07182406,-0.3042021,0.19862257,0.29469922,-0.0005935626,-0.0005592137,0.0,-0.87477154,0.47153285,-3.2165189,0.49696207,0.0,2.3115172,-0.19862257,1.4300386,0.253319,0.35790646,0.108891614,inf,inf,inf,inf,0,1,0,1,1,0,1,1,0,0,1
321615713,0,0.0,0.0,0.0,0.0,-4.6222496,-2.3742505e-06,-2.236855e-06,0.0,0.040689122,-0.3301999,-0.22522655,-0.13276856,-0.0005935626,-0.0005592137,0.0,-1.1208414,-0.030366728,-2.3735235,0.49726015,0.0,2.2890909,0.22522655,1.426263,0.2521126,0.35930568,0.1085614,inf,inf,inf,inf,0,1,0,1,1,0,1,1,0,0,1
321719838,0,0.0,0.0,0.0,0.0,-4.6634183,-2.3742505e-06,-2.236855e-06,0.0,0.01837158,-0.3527252,-0.62621343,-0.5415457,-0.0005935626,-0.0005592137,0.0,0.68034214,-0.3103469,-4.971882,0.49739105,0.0,2.3152957,0.62621343,1.4299611,0.2529746,0.36274832,0.10879701,inf,inf,inf,inf,0,1,0,1,1,0,1,1,0,0,1
321815777,0,0.0,0.0,0.0,0.0,-4.742386,-2.3742505e-06,-2.236855e-06,0.0,-0.0057595056,-0.37491927,-0.9767038,-0.903227,-0.0005935626,-0.0005592137,0.0,0.12795538,-0.5107743,-3.6988738,0.49688616,0.0,2.354846,0.9767038,1.4311881,0.25314045,0.36553535,0.10884231,inf,inf,inf,inf,0,1,0,1,1,0,1,1,0,0,1
321921297,0,0.0,0.0,0.0,0.0,-4.8644443,-2.3742505e-06,-2.236855e-06,0.0,-0.02601509,-0.39499682,-1.2592599,-1.1971895,-0.0005935626,-0.0005592137,0.0,-3.315633,-0.96343094,-0.46111912,0.49664354,0.0,2.4420462,1.2592599,1.4348216,0.25390783,0.36881363,0.10903881,inf,inf,inf,inf,0,1,0,1,1,0,1,1,0,0,1
322025348,0,0.0,0.0,0.0,0.0,-5.0099587,-2.3742505e-06,-2.236855e-06,0.0,-0.03346823,-0.40978527,-1.4361161,-1.3858929,-0.0005935626,-0.0005592137,0.0,2.718552,0.61971915,-1.4172534,0.49589533,0.0,2.548963,1.4361161,1.43116,0.25264284,0.37042317,0.108692005,inf,inf,inf,inf,0,1,0,1,1,0,1,1,0,0,1
322121343,0,0.0,0.0,0.0,0.0,-5.1600094,-2.3742505e-06,-2.236855e-06,0.0,-0.048532,-0.41449192,-1.504091,-1.4677256,-0.0005935626,-0.0005592137,0.0,0.9089015,2.2507098,-0.29083624,0.495365,0.0,2.6716468,1.504091,1.4329584,0.25291035,0.37233958,0.10874417,inf,inf,inf,inf,0,1,0,1,1,0,1,1,0,0,1
322225357,0,0.0,0.0,0.0,0.0,-5.3198338,-2.3742505e-06,-2.236855e-06,0.0,-0.07546177,-0.43045115,-1.419127,-1.3929827,-0.0005935626,-0.0005592137,0.0,-2.4814918,-2.7534423,1.6996758,0.4944738,0.0,2.8147457,1.419127,1.4295259,0.25174582,0.3727594,0.10843799,inf,inf,inf,inf,0,1,0,1,1,0,1,1,0,0,1
322329317,0,0.0,0.0,0.0,0.0,-5.461855,-2.3742505e-06,-2.236855e-06,0.0,-0.073712766,-0.43696123,-1.2516246,-1.2315034,-0.0005935626,-0.0005592137,0.0,-1.1269201,0.28995135,-2.1905112,0.4929103,0.0,2.9446878,1.2516246,1.4334085,0.2526044,0.3738681,0.10867771,inf,inf,inf,inf,0,1,0,1,1,0,1,1,0,0,1
322425298,0,0.0,0.0,0.0,0.0,-5.5761113,-2.3742505e-06,-2.236855e-06,0.0,-0.07355306,-0.4463905,-1.0692873,-1.0539439,-0.0005935626,-0.0005592137,0.0,0.6122642,-0.14149264,2.7884507,0.49202627,0.0,3.0477507,1.0692873,1.4345406,0.25273728,0.37358975,0.10871285,inf,inf,inf,inf,0,1,0,1,1,0,1,1,0,0,1
322529471,0,0.0,0.0,0.0,0.0,-5.6784105,-2.3742505e-06,-2.236855e-06,0.0,-0.07509439,-0.45380703,-0.8964318,-0.8826652,-0.0005935626,-0.0005592137,0.0,1.8792516,-0.6960441,0.54225165,0.49121964,0.0,3.147494,0.8964318,1.430846,0.2515979,0.37203756,0.10841467,inf,inf,inf,inf,0,1,0,1,1,0,1,1,0,0,1
322630970,0,0.0,0.0,0.0,0.0,-5.7549744,-2.3742505e-06,-2.236855e-06,0.0,-0.09892591,-0.46147126,-0.7163818,-0.69876695,-0.0005935626,-0.0005592137,0.0,-3.6701922,-1.5422298,4.4950786,0.49020508,0.0,3.2318792,0.7163818,1.427186,0.25053325,0.37062347,0.10814564,inf,inf,inf,inf,0,1,0,1,1,0,1,1,0,0,1
322734912,0,0.0,0.0,0.0,0.0,-5.811432,-2.3742505e-06,-2.236855e-06,0.0,-0.106362894,-0.4699342,-0.5484497,-0.52310055,-0.0005935626,-0.0005592137,0.0,-0.32291296,2.1772714,3.1418228,0.48995453,0.0,3.2970445,0.5484497,1.4307787,0.25148055,0.37056422,0.10842136,inf,inf,inf,inf,0,1,0,1,1,0,1,1,0,0,1
322830920,0,0.0,0.0,0.0,0.0,-5.8465104,-2.3742505e-06,-2.236855e-06,0.0,-0.10145525,-0.4706498,-0.4292727,-0.3953451,-0.0005935626,-0.0005592137,0.0,2.1553757,1.7546219,-1.6563888,0.49020866,0.0,3.3439615,0.4292727,1.4309124,0.25151163,0.37012511,0.10848217,inf,inf,inf,inf,0,1,0,1,1,0,1,1,0,0,1
322935000,0,0.0,0.0,0.0,0.0,-5.8670206,-2.3742505e-06,-2.236855e-06,0.0,-0.11902008,-0.49184972,-0.26280352,-0.21770743,-0.0005935626,-0.0005592137,0.0,-1.9449358,-1.339483,4.446568,0.49035335,0.0,3.3832188,0.26280352,1.4268997,0.25044072,0.3689332,0.10820788,inf,inf,inf,inf,0,1,0,1,1,0,1,1,0,0,1
323038832,0,0.0,0.0,0.0,0.0,-5.8694787,-2.3742505e-06,-2.236855e-06,0.0,-0.12464274,-0.49941134,-0.10605896,-0.049870413,-0.0005935626,-0.0005592137,0.0,0.20949757,0.9657643,0.9587965,0.49088752,0.0,3.403052,0.10605896,1.4301786,0.25137842,0.36925924,0.108475775,inf,inf,inf,inf,0,1,0,1,1,0,1,1,0,0,1
323135013,0,0.0,0.0,0.0,0.0,-5.85913,-2.3742505e-06,-2.236855e-06,0.0,-0.12366568,-0.50162894,0.03364249,0.09737226,-0.0005935626,-0.0005592137,0.0,-0.8395649,-0.7353946,3.4361079,0.49143192,0.0,3.4037194,-0.03364249,1.4309337,0.2516512,0.36911672,0.10856463,inf,inf,inf,inf,0,1,0,1,1,0,1,1,0,0,1
323238959,0,0.0,0.0,0.0,0.0,-5.832336,-2.3742505e-06,-2.236855e-06,0.0,-0.13718303,-0.49981943,0.18023603,0.2524135,-0.0005935626,-0.0005592137,0.0,-2.7268944,-1.0764104,4.1182475,0.4926343,0.0,3.4020166,-0.18023603,1.4340725,0.25258702,0.36946154,0.108827844,inf,inf,inf,inf,0,1,0,1,1,0,1,1,0,0,1
323343826,0,0.0,0.0,0.0,0.0,-5.7853546,-2.3742505e-06,-2.236855e-06,0.0,-0.13843249,-0.5137742,0.34222102,0.42496645,-0.0005935626,-0.0005592137,0.0,0.7142274,1.1575884,0.26002705,0.49276948,0.0,3.3731647,-0.34222102,1.4297552,0.2514979,0.36848316,0.108542584,inf,inf,inf,inf,0,1,0,1,1,0,1,1,0,0,1
323440983,0,0.0,0.0,0.0,0.0,-5.7281685,-2.3742505e-06,-2.236855e-06,0.0,-0.14849369,-0.52566063,0.5039713,0.5932673,-0.0005935626,-0.0005592137,0.0,-1.145695,-0.44219363,1.903437,0.49302992,0.0,3.3178515,-0.5039713,1.4303255,0.2517575,0.36846635,0.10862328,inf,inf,inf,inf,0,1,0,1,1,0,1,1,0,0,1
323544515,0,0.0,0.0,0.0,0.0,-5.652795,-2.3742505e-06,-2.236855e-06,0.0,-0.15022442,-0.5324852,0.64102256,0.73572916,-0.0005935626,-0.0005592137,0.0,-0.008715275,0.005774996,3.923241,0.49343973,0.0,3.244994,-0.64102256,1.4266573,0.25090352,0.36747962,0.108393736,inf,inf,inf,inf,0,1,0,1,1,0,1,1,0,0,1
323648717,0,0.0,0.0,0.0,0.0,-5.566659,-2.3742505e-06,-2.236855e-06,0.0,-0.14979021,-0.55224496,0.7690864,0.8655418,-0.0005935626,-0.0005592137,0.0,-3.6855683,-0.81267035,3.4027932,0.49335223,0.0,3.1722076,-0.7690864,1.429691,0.25187594,0.36803958,0.10867091,inf,inf,inf,inf,0,1,0,1,1,0,1,1,0,0,1
323744480,0,0.0,0.0,0.0,0.0,-5.4768696,-2.3742505e-06,-2.236855e-06,0.0,-0.15254793,-0.5644872,0.8484378,0.94662875,-0.0005935626,-0.0005592137,0.0,-0.600944,-0.038489893,4.4168024,0.49369207,0.0,3.0979733,-0.8484378,1.4229118,0.25015745,0.36689612,0.10821788,inf,inf,inf,inf,0,1,0,1,1,0,1,1,0,0,1
323848536,0,0.0,0.0,0.0,0.0,-5.3739657,-2.3742505e-06,-2.236855e-06,0.0,-0.15926777,-0.56905544,0.85919905,0.95963997,-0.0005935626,-0.0005592137,0.0,-2.1161153,-1.0650328,-0.71550536,0.49416196,0.0,3.01583,-0.85919905,1.4258428,0.25110245,0.36762166,0.108482026,inf,inf,inf,inf,0,1,0,1,1,0,1,1,0,0,1
323952465,0,0.0,0.0,0.0,0.0,-5.2660294,-2.3742505e-06,-2.236855e-06,0.0,-0.15404676,-0.5687183,0.8523792,0.9599658,-0.0005935626,-0.0005592137,0.0,0.7777105,0.048889,2.831919,0.494102,0.0,2.9276156,-0.8523792,1.4286295,0.25198492,0.36870027,0.1087181,inf,inf,inf,inf,0,1,0,1,1,0,1,1,0,0,1
324048617,0,0.0,0.0,0.0,0.0,-5.1734138,-2.3742505e-06,-2.236855e-06,0.0,-0.15488932,-0.5696933,0.7991258,0.9081612,-0.0005935626,-0.0005592137,0.0,2.3941295,1.5578439,-0.9479793,0.4938709,0.0,2.8375907,-0.7991258,1.4288611,0.2521331,0.36967465,0.10874624,inf,inf,inf,inf,0,1,0,1,1,0,1,1,0,0,1
324154150,0,0.0,0.0,0.0,0.0,-5.0840664,-2.3742505e-06,-2.236855e-06,0.0,-0.17855652,-0.57720923,0.6810941,0.78834057,-0.0005935626,-0.0005592137,0.0,-1.9534655,1.3038082,-4.39385,0.49347693,0.0,2.7547414,-0.6810941,1.4315938,0.25296158,0.37125474,0.10895713,inf,inf,inf,inf,0,1,0,1,1,0,1,1,0,0,1
324258210,0,0.0,0.0,0.0,0.0,-5.0025525,-2.3742505e-06,-2.236855e-06,0.0,-0.18262984,-0.5819436,0.5852792,0.69542414,-0.0005935626,-0.0005592137,0.0,-2.2965522,1.0546185,-0.8123352,0.4933678,0.0,2.68295,-0.5852792,1.4348681,0.25392056,0.3733611,0.109179914,inf,inf,inf,inf,0,1,0,1,1,0,1,1,0,0,1
324354193,0,0.0,0.0,0.0,0.0,-4.9435606,-2.3742505e-06,-2.236855e-06,0.0,-0.18946135,-0.5917543,0.49452975,0.59979177,-0.0005935626,-0.0005592137,0.0,-1.2842072,-2.2769518,-1.524671,0.49345016,0.0,2.6255147,-0.49452975,1.4279673,0.2520492,0.3737859,0.10866726,inf,inf,inf,inf,0,1,0,1,1,0,1,1,0,0,1
324458156,0,0.0,0.0,0.0,0.0,-4.895405,-2.3742505e-06,-2.236855e-06,0.0,-0.20803352,-0.596092,0.38697174,0.48282275,-0.0005935626,-0.0005592137,0.0,-5.226013,-1.7716401,-0.19925211,0.49342215,0.0,2.569338,-0.38697174,1.4310621,0.25293103,0.37599665,0.10890354,inf,inf,inf,inf,0,1,0,1,1,0,1,1,0,0,1
324562125,0,0.0,0.0,0.0,0.0,-4.8581634,-2.3742505e-06,-2.236855e-06,0.0,-0.21130031,-0.60341614,0.26492324,0.35418192,-0.0005935626,-0.0005592137,0.0,-3.0024161,-2.0433903,0.97813785,0.49314088,0.0,2.5301518,-0.26492324,1.4270262,0.25183758,0.37693903,0.10861413,inf,inf,inf,inf,0,1,0,1,1,0,1,1,0,0,1
324658145,0,0.0,0.0,0.0,0.0,-4.832087,-2.3742505e-06,-2.236855e-06,0.0,-0.21679744,-0.6094725,0.14451183,0.23121643,-0.0005935626,-0.0005592137,0.0,1.5644772,-1.7917861,-1.3919837,0.49280447,0.0,2.5033162,-0.14451183,1.4207778,0.2501404,0.3774281,0.10817106,inf,inf,inf,inf,0,1,0,1,1,0,1,1,0,0,1
324762279,0,0.0,0.0,0.0,0.0,-4.806428,-2.3742505e-06,-2.236855e-06,0.0,-0.2261212,-0.6059855,0.039425325,0.13204104,-0.0005935626,-0.0005592137,0.0,1.1152452,0.039808277,-1.9220793,0.4925824,0.0,2.4959283,-0.039425325,1.4243848,0.251127,0.3798976,0.10845371,inf,inf,inf,inf,0,1,0,1,1,0,1,1,0,0,1
324867820,0,0.0,0.0,0.0,0.0,-4.792586,-2.3742505e-06,-2.236855e-06,0.0,-0.23139778,-0.6142712,-0.05860529,0.038108516,-0.0005935626,-0.0005592137,0.0,1.0929322,1.3739145,-1.3971254,0.49251828,0.0,2.4831371,0.05860529,1.4208853,0.25014353,0.3810436,0.10820496,inf,inf,inf,inf,0,1,0,1,1,0,1,1,0,0,1
324971724,0,0.0,0.0,0.0,0.0,-4.8003807,-2.3742505e-06,-2.236855e-06,0.0,-0.23991731,-0.61657107,-0.16099715,-0.07138183,-0.0005935626,-0.0005592137,0.0,-1.2776538,0.48075938,-0.17871433,0.49271628,0.0,2.4703124,0.16099715,1.4245205,0.25106698,0.3834037,0.10846007,inf,inf,inf,inf,0,1,0,1,1,0,1,1,0,0,1
325067859,0,0.0,0.0,0.0,0.0,-4.823362,-2.3742505e-06,-2.236855e-06,0.0,-0.23829958,-0.61997616,-0.26349464,-0.18548287,-0.0005935626,-0.0005592137,0.0,1.6429185,-0.73617435,-0.355037,0.49310634,0.0,2.477215,0.26349464,1.4261667,0.25141618,0.38528636,0.10853147,inf,inf,inf,inf,0,1,0,1,1,0,1,1,0,0,1
325171690,0,0.0,0.0,0.0,0.0,-4.8573966,-2.3742505e-06,-2.236855e-06,0.0,-0.24805044,-0.62323165,-0.35729983,-0.28943068,-0.0005935626,-0.0005592137,0.0,1.9402931,-0.9815475,-0.51890314,0.493344,0.0,2.4923322,0.35729983,1.4297894,0.25226414,0.38755032,0.1087535,inf,inf,inf,inf,0,1,0,1,1,0,1,1,0,0,1
325275819,0,0.0,0.0,0.0,0.0,-4.8989697,-2.3742505e-06,-2.236855e-06,0.0,-0.2529955,-0.6235389,-0.4547696,-0.39318672,-0.0005935626,-0.0005592137,0.0,1.4072996,0.3527585,0.99232143,0.49358585,0.0,2.5235229,0.4547696,1.4408243,0.25512433,0.39121088,0.10951206,inf,inf,inf,inf,0,1,0,1,1,0,1,1,0,0,1
325371758,0,0.0,0.0,0.0,0.0,-4.945095,-2.3742505e-06,-2.236855e-06,0.0,-0.26348728,-0.6179798,-0.5483443,-0.49053755,-0.0005935626,-0.0005592137,0.0,-0.8542331,1.521557,-1.1772699,0.49390438,0.0,2.569291,0.5483443,1.4344819,0.25317416,0.39145544,0.108969845,inf,inf,inf,inf,0,1,0,1,1,0,1,1,0,0,1
325475750,0,0.0,0.0,0.0,0.0,-5.0068064,-2.3742505e-06,-2.236855e-06,0.0,-0.2699365,-0.6168565,-0.64935225,-0.5971358,-0.0005935626,-0.0005592137,0.0,-1.2493349,1.1274173,-1.5862929,0.4940443,0.0,2.623124,0.64935225,1.4382268,0.2539798,0.3937179,0.10917413,inf,inf,inf,inf,0,1,0,1,1,0,1,1,0,0,1
325581417,0,0.0,0.0,0.0,0.0,-5.0805407,-2.3742505e-06,-2.236855e-06,0.0,-0.27508825,-0.6207468,-0.7364513,-0.68978286,-0.0005935626,-0.0005592137,0.0,-1.986763,-0.53364104,0.6473876,0.4943734,0.0,2.6842642,0.7364513,1.4345235,0.25270742,0.39457953,0.10881216,inf,inf,inf,inf,0,1,0,1,1,0,1,1,0,0,1
325677439,0,0.0,0.0,0.0,0.0,-5.154054,-2.3742505e-06,-2.236855e-06,0.0,-0.2819473,-0.6213112,-0.8249626,-0.7810913,-0.0005935626,-0.0005592137,0.0,0.021537328,-0.29012963,-3.8019156,0.49444664,0.0,2.7579114,0.8249626,1.4358207,0.2528322,0.39622068,0.10884078,inf,inf,inf,inf,0,1,0,1,1,0,1,1,0,0,1
325781351,0,0.0,0.0,0.0,0.0,-5.2402,-2.3742505e-06,-2.236855e-06,0.0,-0.285025,-0.6192297,-0.9008107,-0.85755557,-0.0005935626,-0.0005592137,0.0,-1.1918514,-0.14259851,-0.74856234,0.4947245,0.0,2.8428836,0.9008107,1.4329996,0.25181147,0.397152,0.10854487,inf,inf,inf,inf,0,1,0,1,1,0,1,1,0,0,1
325885269,0,0.0,0.0,0.0,0.0,-5.334032,-2.3742505e-06,-2.236855e-06,0.0,-0.2836907,-0.6191947,-0.9865918,-0.9435536,-0.0005935626,-0.0005592137,0.0,1.1335387,-0.87991995,-3.637989,0.4947937,0.0,2.9370296,0.9865918,1.4372234,0.2527122,0.39939556,0.10879768,inf,inf,inf,inf,0,1,0,1,1,0,1,1,0,0,1
325981273,0,0.0,0.0,0.0,0.0,-5.4264536,-2.3742505e-06,-2.236855e-06,0.0,-0.28153467,-0.6195064,-1.0325218,-0.9891921,-0.0005935626,-0.0005592137,0.0,0.5051539,-0.2773371,0.9111975,0.49477902,0.0,3.026621,1.0325218,1.4388368,0.25290182,0.40092936,0.10885343,inf,inf,inf,inf,0,1,0,1,1,0,1,1,0,0,1
326085395,0,0.0,0.0,0.0,0.0,-5.5312047,-2.3742505e-06,-2.236855e-06,0.0,-0.28261006,-0.61539936,-1.0914533,-1.0466027,-0.0005935626,-0.0005592137,0.0,0.80949736,-0.14276874,-0.3809212,0.49442708,0.0,3.128997,1.0914533,1.435731,0.2517878,0.4016665,0.108561665,inf,inf,inf,inf,0,1,0,1,1,0,1,1,0,0,1
326189396,0,0.0,0.0,0.0,0.0,-5.6395516,-2.3742505e-06,-2.236855e-06,0.0,-0.28108823,-0.610905,-1.131446,-1.0836654,-0.0005935626,-0.0005592137,0.0,1.0138429,-1.5997112,-0.13280572,0.493454,0.0,3.2480226,1.131446,1.4401561,0.25271067,0.403668,0.10882387,inf,inf,inf,inf,0,1,0,1,1,0,1,1,0,0,1
326286164,0,0.0,0.0,0.0,0.0,-5.7400975,-2.3742505e-06,-2.236855e-06,0.0,-0.28322262,-0.60608846,-1.0230634,-0.97480255,-0.0005935626,-0.0005592137,0.0,-0.95556813,0.49697077,4.5437613,0.49217394,0.0,3.3590431,1.0230634,1.4419365,0.25291988,0.4050079,0.108885445,inf,inf,inf,inf,0,1,0,1,1,0,1,1,0,0,1
326390955,0,0.0,0.0,0.0,0.0,-5.8295903,-2.3742505e-06,-2.236855e-06,0.0,-0.27369052,-0.60545,-0.82524616,-0.7739726,-0.0005935626,-0.0005592137,0.0,3.080512,0.515398,2.3599703,0.49090672,0.0,3.4636803,0.82524616,1.4389669,0.2518351,0.40525192,0.10860538,inf,inf,inf,inf,0,1,0,1,1,0,1,1,0,0,1
326495007,0,0.0,0.0,0.0,0.0,-5.898994,-2.3742505e-06,-2.236855e-06,0.0,-0.27497745,-0.6030321,-0.6169994,-0.56553996,-0.0005935626,-0.0005592137,0.0,-2.300002,-0.39947712,4.942599,0.48964885,0.0,3.5368283,0.6169994,1.4366072,0.25093785,0.4045161,0.10835837,inf,inf,inf,inf,0,1,0,1,1,0,1,1,0,0,1
326590937,0,0.0,0.0,0.0,0.0,-5.946884,-2.3742505e-06,-2.236855e-06,0.0,-0.2694709,-0.5918017,-0.44298017,-0.3938394,-0.0005935626,-0.0005592137,0.0,-0.8435611,-0.4960926,0.9356726,0.48839253,0.0,3.584221,0.44298017,1.438524,0.25123233,0.40413448,0.10845388,inf,inf,inf,inf,0,1,0,1,1,0,1,1,0,0,1
326695005,0,0.0,0.0,0.0,0.0,-5.979643,-2.3742505e-06,-2.236855e-06,0.0,-0.27090245,-0.57650715,-0.2556155,-0.2081752,-0.0005935626,-0.0005592137,0.0,0.7693358,0.42464143,3.0377617,0.48779926,0.0,3.6317017,0.2556155,1.4428816,0.2521625,0.40438345,0.10871276,inf,inf,inf,inf,0,1,0,1,1,0,1,1,0,0,1
326798910,0,0.0,0.0,0.0,0.0,-5.9885063,-2.3742505e-06,-2.236855e-06,0.0,-0.27978408,-0.57792497,-0.043965578,0.005346047,-0.0005935626,-0.0005592137,0.0,-3.0188425,-1.2527611,5.7444077,0.4870956,0.0,3.6520357,0.043965578,1.4397302,0.25111634,0.40329155,0.10844133,inf,inf,inf,inf,0,1,0,1,1,0,1,1,0,0,1
326894873,0,0.0,0.0,0.0,0.0,-5.9768076,-2.3742505e-06,-2.236855e-06,0.0,-0.27464822,-0.5680933,0.13493875,0.18656977,-0.0005935626,-0.0005592137,0.0,-0.33812398,-0.58081084,-0.9721055,0.48651403,0.0,3.661069,-0.13493875,1.4413918,0.2513891,0.40305695,0.10852826,inf,inf,inf,inf,0,1,0,1,1,0,1,1,0,0,1
326998932,0,0.0,0.0,0.0,0.0,-5.944541,-2.3742505e-06,-2.236855e-06,0.0,-0.28295317,-0.5614592,0.32672492,0.38042343,-0.0005935626,-0.0005592137,0.0,-1.0192275,-0.5924121,3.3819392,0.4865514,0.0,3.640643,-0.32672492,1.4381922,0.25038305,0.40190035,0.1082718,inf,inf,inf,inf,0,1,0,1,1,0,1,1,0,0,1
327100494,0,0.0,0.0,0.0,0.0,-5.896988,-2.3742505e-06,-2.236855e-06,0.0,-0.28237426,-0.55397755,0.4941596,0.5479317,-0.0005935626,-0.0005592137,0.0,-2.0436003,0.30300018,3.5453734,0.48595655,0.0,3.608741,-0.4941596,1.4423298,0.25132743,0.40198657,0.10853683,inf,inf,inf,inf,0,1,0,1,1,0,1,1,0,0,1
327204480,0,0.0,0.0,0.0,0.0,-5.8284087,-2.3742505e-06,-2.236855e-06,0.0,-0.27270722,-0.5504131,0.6819424,0.73754716,-0.0005935626,-0.0005592137,0.0,2.3621032,-2.0709126,3.3989604,0.48554316,0.0,3.554759,-0.6819424,1.4455554,0.2520376,0.40211535,0.10877184,inf,inf,inf,inf,0,1,0,1,1,0,1,1,0,0,1
327300556,0,0.0,0.0,0.0,0.0,-5.7467012,-2.3742505e-06,-2.236855e-06,0.0,-0.27447632,-0.5370916,0.8239901,0.88319886,-0.0005935626,-0.0005592137,0.0,0.86830884,-1.5180808,-1.4993294,0.48459083,0.0,3.4972131,-0.8239901,1.4469663,0.25229654,0.40210816,0.10884883,inf,inf,inf,inf,0,1,0,1,1,0,1,1,0,0,1
327404524,0,0.0,0.0,0.0,0.0,-5.6431956,-2.3742505e-06,-2.236855e-06,0.0,-0.28181404,-0.5256123,0.989076,1.050613,-0.0005935626,-0.0005592137,0.0,-4.508873,-1.322699,1.0845249,0.48338473,0.0,3.4341214,-0.989076,1.4434845,0.25127134,0.40097144,0.108582295,inf,inf,inf,inf,0,1,0,1,1,0,1,1,0,0,1
327508609,0,0.0,0.0,0.0,0.0,-5.5222588,-2.3742505e-06,-2.236855e-06,0.0,-0.25271854,-0.51243466,1.152807,1.2169955,-0.0005935626,-0.0005592137,0.0,1.1024991,1.4752418,1.6732773,0.48328638,0.0,3.336286,-1.152807,1.4400799,0.25030008,0.4001201,0.10833892,inf,inf,inf,inf,0,1,0,1,1,0,1,1,0,0,1
327604487,0,0.0,0.0,0.0,0.0,-5.39788,-2.3742505e-06,-2.236855e-06,0.0,-0.24911024,-0.51312184,1.2690334,1.334019,-0.0005935626,-0.0005592137,0.0,0.4498262,0.19776653,-3.1785274,0.4835785,0.0,3.2242668,-1.2690334,1.4416296,0.25065756,0.40008387,0.10845625,inf,inf,inf,inf,0,1,0,1,1,0,1,1,0,0,1
327708466,0,0.0,0.0,0.0,0.0,-5.2573028,-2.3742505e-06,-2.236855e-06,0.0,-0.23312804,-0.50674045,1.3618374,1.4221256,-0.0005935626,-0.0005592137,0.0,2.2804356,0.8884857,3.3943498,0.48374695,0.0,3.070961,-1.3618374,1.4382863,0.2497331,0.3992234,0.108227745,inf,inf,inf,inf,0,1,0,1,1,0,1,1,0,0,1
327814172,0,0.0,0.0,0.0,0.0,-5.1135674,-2.3742505e-06,-2.236855e-06,0.0,-0.22660884,-0.5042888,1.3351115,1.3889725,-0.0005935626,-0.0005592137,0.0,2.514126,1.1132646,0.52670115,0.48428997,0.0,2.94419,-1.3351115,1.4449422,0.25142553,0.4004776,0.10869941,inf,inf,inf,inf,0,1,0,1,1,0,1,1,0,0,1
327910052,0,0.0,0.0,0.0,0.0,-4.9876137,-2.3742505e-06,-2.236855e-06,0.0,-0.22275336,-0.49953413,1.234644,1.2861755,-0.0005935626,-0.0005592137,0.0,4.3499584,-0.24801086,0.19989116,0.48507026,0.0,2.8440173,-1.234644,1.4463222,0.2517322,0.40122074,0.10879061,inf,inf,inf,inf,0,1,0,1,1,0,1,1,0,0,1
328014043,0,0.0,0.0,0.0,0.0,-4.8670106,-2.3742505e-06,-2.236855e-06,0.0,-0.22907493,-0.49384502,1.0981662,1.1441736,-0.0005935626,-0.0005592137,0.0,2.0894694,-0.67949766,-2.9667807,0.48604462,0.0,2.7295928,-1.0981662,1.4481546,0.2521371,0.40267715,0.10900073,inf,inf,inf,inf,0,1,0,1,1,0,1,1,0,0,1
328118241,0,0.0,0.0,0.0,0.0,-4.75889,-2.3742505e-06,-2.236855e-06,0.0,-0.23428953,-0.48972422,0.9669557,1.0089859,-0.0005935626,-0.0005592137,0.0,-1.4735496,-0.76461715,0.39782092,0.48777884,0.0,2.6367743,-0.9669557,1.4446601,0.25111964,0.40367243,0.10872665,inf,inf,inf,inf,0,1,0,1,1,0,1,1,0,0,1
328214130,0,0.0,0.0,0.0,0.0,-4.6654415,-2.3742505e-06,-2.236855e-06,0.0,-0.24016404,-0.48527026,0.80285984,0.85040164,-0.0005935626,-0.0005592137,0.0,-3.694309,0.20065008,1.6445701,0.48968226,0.0,2.5585938,-0.80285984,1.4461738,0.2514086,0.40530422,0.10880702,inf,inf,inf,inf,0,1,0,1,1,0,1,1,0,0,1
328318152,0,0.0,0.0,0.0,0.0,-4.5829415,-2.3742505e-06,-2.236855e-06,0.0,-0.24725994,-0.48607296,0.609357,0.6611696,-0.0005935626,-0.0005592137,0.0,-0.82035744,-1.2036171,-2.250739,0.49136505,0.0,2.4532712,-0.609357,1.4503368,0.25234455,0.40775755,0.109053046,inf,inf,inf,inf,0,1,0,1,1,0,1,1,0,0,1
328422108,0,0.0,0.0,0.0,0.0,-4.521774,-2.3742505e-06,-2.236855e-06,0.0,-0.2452375,-0.48224813,0.43184844,0.48482332,-0.0005935626,-0.0005592137,0.0,3.2064056,0.060878478,-1.3161519,0.49254677,0.0,2.4215813,-0.43184844,1.44702,0.25129458,0.40912443,0.10876793,inf,inf,inf,inf,0,1,0,1,1,0,1,1,0,0,1
328519718,0,0.0,0.0,0.0,0.0,-4.4860253,-2.3742505e-06,-2.236855e-06,0.0,-0.2602852,-0.48097628,0.2891138,0.33753914,-0.0005935626,-0.0005592137,0.0,-3.737355,-0.90501547,-1.7152951,0.49340856,0.0,2.3914971,-0.2891138,1.4487605,0.2515646,0.41114724,0.10884056,inf,inf,inf,inf,0,1,0,1,1,0,1,1,0,0,1
328623676,0,0.0,0.0,0.0,0.0,-4.4678392,-2.3742505e-06,-2.236855e-06,0.0,-0.2569832,-0.48226717,0.12945959,0.16925417,-0.0005935626,-0.0005592137,0.0,1.41756,-2.0552332,0.055232294,0.49454924,0.0,2.3594148,-0.12945959,1.4532158,0.2524966,0.41375434,0.10908781,inf,inf,inf,inf,0,1,0,1,1,0,1,1,0,0,1
328727832,0,0.0,0.0,0.0,0.0,-4.46547,-2.3742505e-06,-2.236855e-06,0.0,-0.2750403,-0.47533983,-0.029069524,0.003809949,-0.0005935626,-0.0005592137,0.0,0.0044054487,0.43949685,-5.0135183,0.49532437,0.0,2.3551533,0.029069524,1.4505445,0.25152478,0.414853,0.10879282,inf,inf,inf,inf,0,1,0,1,1,0,1,1,0,0,1
328823817,0,0.0,0.0,0.0,0.0,-4.48195,-2.3742505e-06,-2.236855e-06,0.0,-0.26981443,-0.47542736,-0.15520445,-0.13310061,-0.0005935626,-0.0005592137,0.0,2.9369817,-1.0743648,-1.6002309,0.49618182,0.0,2.362314,0.15520445,1.4599915,0.25371993,0.41812015,0.10937446,inf,inf,inf,inf,0,1,0,1,1,0,1,1,0,0,1
328927860,0,0.0,0.0,0.0,0.0,-4.5224814,-2.3742505e-06,-2.236855e-06,0.0,-0.28728262,-0.46697533,-0.3050515,-0.30104747,-0.0005935626,-0.0005592137,0.0,-3.4585962,1.8937346,-2.9258204,0.49688303,0.0,2.3818886,0.3050515,1.4644072,0.25454053,0.42031676,0.10957479,inf,inf,inf,inf,0,1,0,1,1,0,1,1,0,0,1
329031850,0,0.0,0.0,0.0,0.0,-4.578685,-2.3742505e-06,-2.236855e-06,0.0,-0.28522155,-0.46953183,-0.437874,-0.4506056,-0.0005935626,-0.0005592137,0.0,-2.992281,0.019617662,-0.10200794,0.4978889,0.0,2.41363,0.437874,1.4609244,0.25326496,0.4209518,0.10920163,inf,inf,inf,inf,0,1,0,1,1,0,1,1,0,0,1
329127954,0,0.0,0.0,0.0,0.0,-4.6446333,-2.3742505e-06,-2.236855e-06,0.0,-0.28192586,-0.4687603,-0.5631127,-0.59145224,-0.0005935626,-0.0005592137,0.0,1.6125383,-0.49915594,-0.77885747,0.49869007,0.0,2.4614913,0.5631127,1.4626918,0.25339547,0.4225204,0.10922097,inf,inf,inf,inf,0,1,0,1,1,0,1,1,0,0,1
329232529,0,0.0,0.0,0.0,0.0,-4.7316184,-2.3742505e-06,-2.236855e-06,0.0,-0.2838478,-0.46237457,-0.6975453,-0.74228156,-0.0005935626,-0.0005592137,0.0,1.8997546,-0.15495464,-0.70643747,0.49951857,0.0,2.5234354,0.6975453,1.46716,0.25418085,0.42454723,0.10941323,inf,inf,inf,inf,0,1,0,1,1,0,1,1,0,0,1
329337437,0,0.0,0.0,0.0,0.0,-4.8303456,-2.3742505e-06,-2.236855e-06,0.0,-0.28992286,-0.45593202,-0.81450766,-0.87177396,-0.0005935626,-0.0005592137,0.0,-3.519768,-0.2110055,0.7111848,0.5000031,0.0,2.6165545,0.81450766,1.4716111,0.25494084,0.4266018,0.10959522,inf,inf,inf,inf,0,1,0,1,1,0,1,1,0,0,1
329433292,0,0.0,0.0,0.0,0.0,-4.9343743,-2.3742505e-06,-2.236855e-06,0.0,-0.29265997,-0.45105347,-0.9306351,-1.0002881,-0.0005935626,-0.0005592137,0.0,-0.8506199,-0.17715935,-1.7425716,0.5003525,0.0,2.7079775,0.9306351,1.4737709,0.2551112,0.428033,0.10959389,inf,inf,inf,inf,0,1,0,1,1,0,1,1,0,0,1
329537330,0,0.0,0.0,0.0,0.0,-5.0619664,-2.3742505e-06,-2.236855e-06,0.0,-0.28061825,-0.44181108,-1.0542082,-1.1383935,-0.0005935626,-0.0005592137,0.0,3.9180036,-0.05384159,-0.8179946,0.5005355,0.0,2.8116436,1.0542082,1.4702284,0.25378165,0.42825317,0.109210975,inf,inf,inf,inf,0,1,0,1,1,0,1,1,0,0,1
329641271,0,0.0,0.0,0.0,0.0,-5.2004337,-2.3742505e-06,-2.236855e-06,0.0,-0.28480217,-0.4335683,-1.1580437,-1.2540295,-0.0005935626,-0.0005592137,0.0,2.446155,0.84619415,1.680007,0.50084573,0.0,2.916452,1.1580437,1.4826615,0.25656214,0.4317348,0.10993731,inf,inf,inf,inf,0,1,0,1,1,0,1,1,0,0,1
329737409,0,0.0,0.0,0.0,0.0,-5.3355937,-2.3742505e-06,-2.236855e-06,0.0,-0.29769748,-0.42891133,-1.2580317,-1.3613538,-0.0005935626,-0.0005592137,0.0,-4.1187763,0.4259049,-2.2460175,0.5007411,0.0,3.0392852,1.2580317,1.4841359,0.25652793,0.4327372,0.10989896,inf,inf,inf,inf,0,1,0,1,1,0,1,1,0,0,1
329841326,0,0.0,0.0,0.0,0.0,-5.4866323,-2.3742505e-06,-2.236855e-06,0.0,-0.2915392,-0.4259035,-1.3462007,-1.4515314,-0.0005935626,-0.0005592137,0.0,-2.3733542,-0.24659926,0.30825362,0.500833,0.0,3.1801455,1.3462007,1.4803396,0.2551132,0.43273717,0.10949086,inf,inf,inf,inf,0,1,0,1,1,0,1,1,0,0,1
329945366,0,0.0,0.0,0.0,0.0,-5.6341376,-2.3742505e-06,-2.236855e-06,0.0,-0.28044105,-0.41692206,-1.3152034,-1.4148788,-0.0005935626,-0.0005592137,0.0,0.96361613,0.3021035,-0.37527055,0.5001275,0.0,3.3272986,1.3152034,1.4766912,0.2537698,0.4327695,0.10911355,inf,inf,inf,inf,0,1,0,1,1,0,1,1,0,0,1
330042133,0,0.0,0.0,0.0,0.0,-5.7615013,-2.3742505e-06,-2.236855e-06,0.0,-0.2879912,-0.41886163,-1.1169596,-1.2150638,-0.0005935626,-0.0005592137,0.0,-1.4017149,0.5897083,3.0026598,0.49893498,0.0,3.4501357,1.1169596,1.4784228,0.25384918,0.43351483,0.109129824,inf,inf,inf,inf,0,1,0,1,1,0,1,1,0,0,1
330146147,0,0.0,0.0,0.0,0.0,-5.881431,-2.3742505e-06,-2.236855e-06,0.0,-0.28749835,-0.40341932,-0.9198703,-1.0200162,-0.0005935626,-0.0005592137,0.0,1.4886681,0.31106275,1.8061132,0.49796736,0.0,3.5460434,0.9198703,1.4753529,0.2527203,0.43215224,0.108815365,inf,inf,inf,inf,0,1,0,1,1,0,1,1,0,0,1
330250136,0,0.0,0.0,0.0,0.0,-5.9761796,-2.3742505e-06,-2.236855e-06,0.0,-0.2980306,-0.3853174,-0.72154933,-0.81855094,-0.0005935626,-0.0005592137,0.0,-1.8816738,0.55471545,2.9057071,0.49721387,0.0,3.6406252,0.72154933,1.471964,0.25156876,0.43004978,0.108510144,inf,inf,inf,inf,0,1,0,1,1,0,1,1,0,0,1
330346071,0,0.0,0.0,0.0,0.0,-6.0389185,-2.3742505e-06,-2.236855e-06,0.0,-0.28347963,-0.37367716,-0.54106593,-0.62939554,-0.0005935626,-0.0005592137,0.0,0.3715251,-0.37374336,3.7335985,0.4962857,0.0,3.711717,0.54106593,1.473834,0.25180826,0.4292155,0.1085884,inf,inf,inf,inf,0,1,0,1,1,0,1,1,0,0,1
330450233,0,0.0,0.0,0.0,0.0,-6.0833335,-2.3742505e-06,-2.236855e-06,0.0,-0.25426364,-0.35990658,-0.3777085,-0.4524854,-0.0005935626,-0.0005592137,0.0,3.3307865,2.4315667,-0.8707797,0.49529156,0.0,3.79216,0.3777085,1.4704266,0.25075227,0.42718098,0.10832155,inf,inf,inf,inf,0,1,0,1,1,0,1,1,0,0,1
330554109,0,0.0,0.0,0.0,0.0,-6.1073484,-2.3742505e-06,-2.236855e-06,0.0,-0.26228195,-0.36010158,-0.17953333,-0.24135594,-0.0005935626,-0.0005592137,0.0,-1.5146142,1.1026282,2.9861128,0.4947315,0.0,3.8319323,0.17953333,1.4747502,0.25163245,0.42684132,0.10856554,inf,inf,inf,inf,0,1,0,1,1,0,1,1,0,0,1
330650128,0,0.0,0.0,0.0,0.0,-6.113418,-2.3742505e-06,-2.236855e-06,0.0,-0.25347865,-0.35598546,-0.019708615,-0.07146196,-0.0005935626,-0.0005592137,0.0,2.2819562,0.7627811,2.3144367,0.4948986,0.0,3.8545403,0.019708615,1.476186,0.2518351,0.42604005,0.10862847,inf,inf,inf,inf,0,1,0,1,1,0,1,1,0,0,1
330754041,0,0.0,0.0,0.0,0.0,-6.103549,-2.3742505e-06,-2.236855e-06,0.0,-0.24336761,-0.35135645,0.16600953,0.122128256,-0.0005935626,-0.0005592137,0.0,0.28057933,1.1954178,-1.9270153,0.49471757,0.0,3.8542316,-0.16600953,1.480327,0.25271922,0.425697,0.10887177,inf,inf,inf,inf,0,1,0,1,1,0,1,1,0,0,1
330858131,0,0.0,0.0,0.0,0.0,-6.0718,-2.3742505e-06,-2.236855e-06,0.0,-0.24012688,-0.35184366,0.3529461,0.31763846,-0.0005935626,-0.0005592137,0.0,1.4019239,-0.68239486,1.5539812,0.49545768,0.0,3.8297656,-0.3529461,1.4763304,0.2516159,0.4237725,0.10858574,inf,inf,inf,inf,0,1,0,1,1,0,1,1,0,0,1
330955723,0,0.0,0.0,0.0,0.0,-6.026393,-2.3742505e-06,-2.236855e-06,0.0,-0.23272233,-0.34548196,0.51536906,0.48623535,-0.0005935626,-0.0005592137,0.0,1.6653765,0.92626387,-0.57968646,0.4960428,0.0,3.7947576,-0.51536906,1.4776555,0.2518774,0.42285037,0.10867265,inf,inf,inf,inf,0,1,0,1,1,0,1,1,0,0,1
331059839,0,0.0,0.0,0.0,0.0,-5.9616156,-2.3742505e-06,-2.236855e-06,0.0,-0.20702331,-0.34474418,0.69688267,0.6725874,-0.0005935626,-0.0005592137,0.0,2.6944695,-1.4415402,1.5511963,0.49620402,0.0,3.737108,-0.69688267,1.4737066,0.25085902,0.421116,0.108419284,inf,inf,inf,inf,0,1,0,1,1,0,1,1,0,0,1
331163654,0,0.0,0.0,0.0,0.0,-5.8798275,-2.3742505e-06,-2.236855e-06,0.0,-0.19644515,-0.32436788,0.85854113,0.8377008,-0.0005935626,-0.0005592137,0.0,1.2838799,1.396422,0.36048463,0.4964495,0.0,3.6644454,-0.85854113,1.4703288,0.250012,0.41946137,0.10819349,inf,inf,inf,inf,0,1,0,1,1,0,1,1,0,0,1
