timestamp,baro_alt_meter,baro_temp_celcius,baro_pressure_pa,rho
310005720,-156.99606,28.449999,103225.0,1.2264837
310072153,-157.16516,28.449999,103227.0,1.2265075
310083772,-157.24443,28.449999,103228.0,1.2265193
310094037,-157.82047,28.449999,103235.0,1.2266026
310113471,-157.48753,28.46,103230.99,1.226555
310125048,-157.3237,28.46,103228.99,1.2265311
310135136,-157.16516,28.46,103227.0,1.2265075
310156627,-157.08061,28.46,103226.0,1.2264956
310167129,-157.08061,28.46,103226.0,1.2264956
310177467,-157.7359,28.46,103234.0,1.2265908
310199474,-157.24443,28.449999,103228.0,1.2265193
310209471,-157.65135,28.449999,103232.99,1.2265787
310220258,-157.08061,28.449999,103226.0,1.2264956
310240493,-157.24443,28.46,103228.0,1.2265193
310253401,-157.24443,28.46,103228.0,1.2265193
310263477,-157.48753,28.46,103230.99,1.226555
310285050,-156.99606,28.46,103225.0,1.2264837
310295921,-157.16516,28.46,103227.0,1.2265075
310306560,-157.16516,28.46,103227.0,1.2265075
310326665,-157.24443,28.46,103228.0,1.2265193
310337471,-157.16516,28.46,103227.0,1.2265075
310350655,-156.9168,28.46,103224.0,1.2264719
310373148,-157.16516,28.46,103227.0,1.2265075
310382917,-156.99606,28.46,103225.0,1.2264837
310393710,-157.16516,28.46,103227.0,1.2265075
310415955,-157.57208,28.46,103231.99,1.2265668
310426663,-157.7359,28.46,103234.0,1.2265908
310437500,-157.08061,28.46,103226.0,1.2264956
310458596,-157.3237,28.47,103228.99,1.2265311
310469793,-157.7359,28.47,103234.0,1.2265908
310480466,-157.08061,28.47,103226.0,1.2264956
310504369,-157.57208,28.46,103231.99,1.2265668
310514883,-157.48753,28.46,103230.99,1.226555
310525254,-157.24443,28.46,103228.0,1.2265193
310546623,-157.08061,28.47,103226.0,1.2264956
310557141,-157.16516,28.47,103227.0,1.2265075
310566578,-156.58914,28.47,103219.99,1.2264242
310589259,-156.83223,28.47,103223.0,1.22646
310599959,-157.48753,28.47,103230.99,1.226555
310609477,-157.24443,28.47,103228.0,1.2265193
310632484,-156.9168,28.47,103224.0,1.2264719
310642646,-157.3237,28.47,103228.99,1.2265311
310653482,-157.3237,28.47,103228.99,1.2265311
310677952,-157.48753,28.47,103230.99,1.226555
310687709,-157.40826,28.47,103229.99,1.2265431
310697513,-157.08061,28.47,103226.0,1.2264956
310720524,-157.24443,28.47,103228.0,1.2265193
310731474,-157.3237,28.47,103228.99,1.2265311
310742157,-157.48753,28.47,103230.99,1.226555
310763471,-157.40826,28.47,103229.99,1.2265431
310774113,-157.40826,28.47,103229.99,1.2265431
310784466,-157.3237,28.47,103228.99,1.2265311
310805804,-157.3237,28.48,103228.99,1.2265311
310816483,-157.08061,28.48,103226.0,1.2264956
310827051,-157.08061,28.48,103226.0,1.2264956
310850937,-157.40826,28.48,103229.99,1.2265431
310861272,-157.48753,28.48,103230.99,1.226555
310871478,-157.3237,28.48,103228.99,1.2265311
310893317,-157.48753,28.48,103230.99,1.226555
310903470,-157.40826,28.48,103229.99,1.2265431
310914563,-157.08061,28.48,103226.0,1.2264956
310935471,-157.16516,28.48,103227.0,1.2265075
310947513,-157.08061,28.48,103226.0,1.2264956
310958662,-157.24443,28.48,103228.0,1.2265193
310982640,-157.65135,28.48,103232.99,1.2265787
310995969,-157.65135,28.48,103232.99,1.2265787
311006592,-157.08061,28.48,103226.0,1.2264956
311026991,-157.82047,28.48,103235.0,1.2266026
311037886,-157.08061,28.48,103226.0,1.2264956
311049160,-156.9168,28.48,103224.0,1.2264719
311070592,-157.08061,28.48,103226.0,1.2264956
311080573,-156.9168,28.48,103224.0,1.2264719
311092497,-157.48753,28.48,103230.99,1.226555
311115443,-157.08061,28.49,103226.0,1.2264956
311126541,-157.40826,28.49,103229.99,1.2265431
311136470,-157.16516,28.49,103227.0,1.2265075
311157278,-157.65135,28.49,103232.99,1.2265787
311166626,-157.3237,28.49,103228.99,1.2265311
311176522,-157.24443,28.49,103228.0,1.2265193
311198620,-157.3237,28.49,103228.99,1.2265311
311210759,-157.48753,28.49,103230.99,1.226555
311220480,-157.40826,28.49,103229.99,1.2265431
311242741,-157.57208,28.49,103231.99,1.2265668
311253529,-157.08061,28.49,103226.0,1.2264956
311264480,-157.48753,28.49,103230.99,1.226555
311285991,-157.08061,28.49,103226.0,1.2264956
311296601,-157.3237,28.49,103228.99,1.2265311
311308168,-156.83223,28.49,103223.0,1.22646
311330370,-157.08061,28.49,103226.0,1.2264956
311341581,-157.08061,28.49,103226.0,1.2264956
311352437,-157.24443,28.49,103228.0,1.2265193
311373530,-157.3237,28.5,103228.99,1.2265311
311384459,-157.16516,28.5,103227.0,1.2265075
311395480,-157.40826,28.5,103229.99,1.2265431
311416490,-157.89973,28.5,103236.0,1.2266145
311427449,-157.57208,28.5,103231.99,1.2265668
311438548,-157.65135,28.5,103232.99,1.2265787
311460449,-156.75296,28.5,103222.0,1.226448
311471461,-157.16516,28.5,103227.0,1.2265075
311484279,-157.16516,28.5,103227.0,1.2265075
311504437,-157.08061,28.49,103226.0,1.2264956
311517010,-157.24443,28.49,103228.0,1.2265193
311527167,-157.40826,28.49,103229.99,1.2265431
311548679,-157.65135,28.5,103232.99,1.2265787
311559490,-157.16516,28.5,103227.0,1.2265075
311569437,-157.24443,28.5,103228.0,1.2265193
311591474,-157.16516,28.51,103227.0,1.2265075
311601524,-157.16516,28.51,103227.0,1.2265075
311613007,-157.24443,28.51,103228.0,1.2265193
311633871,-156.83223,28.5,103223.0,1.22646
311645198,-156.58914,28.5,103219.99,1.2264242
311655470,-157.16516,28.5,103227.0,1.2265075
311680498,-157.65135,28.51,103232.99,1.2265787
311692688,-157.40826,28.51,103229.99,1.2265431
311703466,-157.3237,28.51,103228.99,1.2265311
311724310,-157.40826,28.5,103229.99,1.2265431
311735383,-156.99606,28.5,103225.0,1.2264837
311744466,-156.99606,28.5,103225.0,1.2264837
311767377,-156.66841,28.51,103221.0,1.2264363
311777480,-157.40826,28.51,103229.99,1.2265431
311789197,-157.24443,28.51,103228.0,1.2265193
311812524,-157.24443,28.5,103228.0,1.2265193
311823483,-157.48753,28.5,103230.99,1.226555
311837129,-157.3237,28.5,103228.99,1.2265311
311857471,-156.83223,28.5,103223.0,1.22646
311869037,-157.24443,28.5,103228.0,1.2265193
311879469,-157.40826,28.5,103229.99,1.2265431
311903401,-157.16516,28.51,103227.0,1.2265075
311913534,-156.9168,28.51,103224.0,1.2264719
311925160,-157.24443,28.51,103228.0,1.2265193
311945472,-157.40826,28.51,103229.99,1.2265431
311958308,-157.08061,28.51,103226.0,1.2264956
311968498,-157.16516,28.51,103227.0,1.2265075
311992481,-157.40826,28.51,103229.99,1.2265431
312004503,-157.08061,28.51,103226.0,1.2264956
312015500,-157.65135,28.51,103232.99,1.2265787
312036394,-156.99606,28.51,103225.0,1.2264837
312046159,-157.57208,28.51,103231.99,1.2265668
312056466,-157.08061,28.51,103226.0,1.2264956
312079497,-157.08061,28.51,103226.0,1.2264956
312092629,-157.3237,28.51,103228.99,1.2265311
312103514,-157.24443,28.51,103228.0,1.2265193
312125962,-157.57208,28.519999,103231.99,1.2265668
312136519,-156.9168,28.519999,103224.0,1.2264719
312149160,-157.24443,28.519999,103228.0,1.2265193
312169741,-157.7359,28.519999,103234.0,1.2265908
312180387,-157.08061,28.519999,103226.0,1.2264956
312189817,-157.3237,28.519999,103228.99,1.2265311
312213906,-157.40826,28.519999,103229.99,1.2265431
312223494,-157.48753,28.519999,103230.99,1.226555
312234546,-157.24443,28.519999,103228.0,1.2265193
312256975,-156.83223,28.519999,103223.0,1.22646
312267634,-157.57208,28.519999,103231.99,1.2265668
312279021,-156.83223,28.519999,103223.0,1.22646
312298567,-157.3237,28.519999,103228.99,1.2265311
312311075,-156.99606,28.519999,103225.0,1.2264837
312320770,-157.16516,28.519999,103227.0,1.2265075
312342033,-157.24443,28.519999,103228.0,1.2265193
312353154,-157.40826,28.519999,103229.99,1.2265431
312363466,-156.9168,28.519999,103224.0,1.2264719
312384717,-157.3237,28.519999,103228.99,1.2265311
312395835,-157.3237,28.519999,103228.99,1.2265311
312407014,-156.99606,28.519999,103225.0,1.2264837
312426517,-157.48753,28.529999,103230.99,1.226555
312439393,-157.65135,28.529999,103232.99,1.2265787
312449520,-156.99606,28.529999,103225.0,1.2264837
312471017,-157.24443,28.529999,103228.0,1.2265193
312481035,-157.08061,28.529999,103226.0,1.2264956
312491467,-157.08061,28.529999,103226.0,1.2264956
312511500,-157.40826,28.529999,103229.99,1.2265431
312522653,-156.99606,28.529999,103225.0,1.2264837
312534731,-157.65135,28.529999,103232.99,1.2265787
312555472,-157.08061,28.529999,103226.0,1.2264956
312566107,-157.98428,28.529999,103237.0,1.2266264
312576730,-156.75296,28.529999,103222.0,1.226448
312598373,-157.16516,28.529999,103227.0,1.2265075
312608944,-157.40826,28.529999,103229.99,1.2265431
312618611,-157.08061,28.529999,103226.0,1.2264956
312640993,-157.48753,28.539999,103230.99,1.226555
312651493,-157.40826,28.539999,103229.99,1.2265431
312662355,-157.48753,28.539999,103230.99,1.226555
312682576,-157.40826,28.539999,103229.99,1.2265431
312694099,-157.40826,28.539999,103229.99,1.2265431
312704732,-156.75296,28.539999,103222.0,1.226448
312726797,-157.24443,28.539999,103228.0,1.2265193
312737483,-157.40826,28.539999,103229.99,1.2265431
312751149,-157.40826,28.539999,103229.99,1.2265431
312771922,-157.48753,28.539999,103230.99,1.226555
312782360,-157.57208,28.539999,103231.99,1.2265668
312793020,-157.7359,28.539999,103234.0,1.2265908
312813993,-157.16516,28.539999,103227.0,1.2265075
312824688,-157.57208,28.539999,103231.99,1.2265668
312834649,-157.16516,28.539999,103227.0,1.2265075
312855585,-157.24443,28.539999,103228.0,1.2265193
312865472,-157.82047,28.539999,103235.0,1.2266026
312875528,-157.16516,28.539999,103227.0,1.2265075
312896988,-157.48753,28.55,103230.99,1.226555
312907612,-157.48753,28.55,103230.99,1.226555
312918984,-157.08061,28.55,103226.0,1.2264956
312940471,-157.7359,28.55,103234.0,1.2265908
312952152,-157.48753,28.55,103230.99,1.226555
312962697,-156.9168,28.55,103224.0,1.2264719
312983841,-157.3237,28.55,103228.99,1.2265311
312994564,-157.65135,28.55,103232.99,1.2265787
313006990,-157.24443,28.55,103228.0,1.2265193
313028903,-157.7359,28.55,103234.0,1.2265908
313039928,-156.99606,28.55,103225.0,1.2264837
313050898,-156.83223,28.55,103223.0,1.22646
313071956,-157.48753,28.55,103230.99,1.226555
313082662,-157.16516,28.55,103227.0,1.2265075
313093466,-157.40826,28.55,103229.99,1.2265431
313113492,-157.57208,28.55,103231.99,1.2265668
313124552,-157.08061,28.55,103226.0,1.2264956
313135719,-156.99606,28.55,103225.0,1.2264837
313155527,-156.99606,28.55,103225.0,1.2264837
313168144,-157.08061,28.55,103226.0,1.2264956
313178579,-157.16516,28.55,103227.0,1.2265075
313200226,-157.48753,28.56,103230.99,1.226555
313209526,-157.40826,28.56,103229.99,1.2265431
313219468,-156.99606,28.56,103225.0,1.2264837
313239814,-157.24443,28.56,103228.0,1.2265193
313249907,-157.08061,28.56,103226.0,1.2264956
313260467,-157.08061,28.56,103226.0,1.2264956
313282551,-157.40826,28.56,103229.99,1.2265431
313292524,-157.3237,28.56,103228.99,1.2265311
313303886,-157.48753,28.56,103230.99,1.226555
313324478,-157.82047,28.56,103235.0,1.2266026
313336160,-156.9168,28.56,103224.0,1.2264719
313346693,-156.9168,28.56,103224.0,1.2264719
313370598,-157.48753,28.56,103230.99,1.226555
313383633,-157.16516,28.56,103227.0,1.2265075
313395151,-157.65135,28.56,103232.99,1.2265787
313417990,-157.24443,28.56,103228.0,1.2265193
313428959,-157.40826,28.56,103229.99,1.2265431
313440453,-157.16516,28.56,103227.0,1.2265075
313464528,-157.08061,28.56,103226.0,1.2264956
313475478,-157.57208,28.56,103231.99,1.2265668
313487841,-157.16516,28.56,103227.0,1.2265075
313509502,-157.57208,28.56,103231.99,1.2265668
313519935,-157.24443,28.56,103228.0,1.2265193
313530573,-157.08061,28.56,103226.0,1.2264956
313552151,-157.08061,28.56,103226.0,1.2264956
313562664,-157.24443,28.56,103228.0,1.2265193
313573557,-157.3237,28.56,103228.99,1.2265311
313594681,-157.98428,28.57,103237.0,1.2266264
313604514,-157.3237,28.57,103228.99,1.2265311
313615858,-157.82047,28.57,103235.0,1.2266026
313636530,-157.57208,28.57,103231.99,1.2265668
313648361,-157.57208,28.57,103231.99,1.2265668
313658635,-157.48753,28.57,103230.99,1.226555
313679899,-157.16516,28.57,103227.0,1.2265075
313689471,-157.48753,28.57,103230.99,1.226555
313700929,-157.65135,28.57,103232.99,1.2265787
313722642,-156.9168,28.57,103224.0,1.2264719
313733471,-157.16516,28.57,103227.0,1.2265075
313745059,-157.08061,28.57,103226.0,1.2264956
313765121,-157.65135,28.57,103232.99,1.2265787
313774568,-157.82047,28.57,103235.0,1.2266026
313785056,-157.24443,28.57,103228.0,1.2265193
313808633,-157.48753,28.58,103230.99,1.226555
313820569,-157.3237,28.58,103228.99,1.2265311
313832113,-157.24443,28.58,103228.0,1.2265193
313852982,-157.16516,28.57,103227.0,1.2265075
313864211,-157.40826,28.57,103229.99,1.2265431
313874931,-157.08061,28.57,103226.0,1.2264956
313896137,-157.3237,28.58,103228.99,1.2265311
313906578,-157.40826,28.58,103229.99,1.2265431
313917469,-157.16516,28.58,103227.0,1.2265075
313941747,-157.24443,28.58,103228.0,1.2265193
313953006,-156.99606,28.58,103225.0,1.2264837
313962621,-157.16516,28.58,103227.0,1.2265075
313984576,-157.48753,28.58,103230.99,1.226555
313994945,-156.9168,28.58,103224.0,1.2264719
314005837,-156.99606,28.58,103225.0,1.2264837
314026673,-156.83223,28.58,103223.0,1.22646
314038215,-157.3237,28.58,103228.99,1.2265311
314048667,-157.3237,28.58,103228.99,1.2265311
314072505,-157.65135,28.58,103232.99,1.2265787
314084584,-157.24443,28.58,103228.0,1.2265193
314096527,-156.99606,28.58,103225.0,1.2264837
314120164,-157.57208,28.58,103231.99,1.2265668
314130580,-157.16516,28.58,103227.0,1.2265075
314141508,-156.83223,28.58,103223.0,1.22646
314165437,-157.89973,28.58,103236.0,1.2266145
314177012,-157.16516,28.58,103227.0,1.2265075
314189158,-157.48753,28.58,103230.99,1.226555
314209076,-157.48753,28.58,103230.99,1.226555
314218645,-157.40826,28.58,103229.99,1.2265431
314230097,-157.24443,28.58,103228.0,1.2265193
314250545,-157.3237,28.59,103228.99,1.2265311
314261483,-157.40826,28.59,103229.99,1.2265431
314272476,-157.40826,28.59,103229.99,1.2265431
314296449,-157.24443,28.59,103228.0,1.2265193
314309117,-157.48753,28.59,103230.99,1.226555
314320611,-157.7359,28.59,103234.0,1.2265908
314341297,-157.48753,28.59,103230.99,1.226555
314352718,-156.99606,28.59,103225.0,1.2264837
314362609,-157.16516,28.59,103227.0,1.2265075
314385062,-157.08061,28.59,103226.0,1.2264956
314397139,-156.99606,28.59,103225.0,1.2264837
314408135,-157.3237,28.59,103228.99,1.2265311
314429110,-157.24443,28.59,103228.0,1.2265193
314439495,-156.83223,28.59,103223.0,1.22646
314449852,-156.9168,28.59,103224.0,1.2264719
314470212,-157.24443,28.59,103228.0,1.2265193
314481255,-157.65135,28.59,103232.99,1.2265787
314490637,-157.24443,28.59,103228.0,1.2265193
314513276,-156.9168,28.599998,103224.0,1.2264719
314523471,-157.16516,28.599998,103227.0,1.2265075
314534559,-157.08061,28.599998,103226.0,1.2264956
314555517,-156.83223,28.59,103223.0,1.22646
314567342,-157.16516,28.59,103227.0,1.2265075
314577834,-157.48753,28.59,103230.99,1.226555
314598622,-156.83223,28.59,103223.0,1.22646
314609544,-157.16516,28.59,103227.0,1.2265075
314620466,-157.16516,28.59,103227.0,1.2265075
314641727,-156.66841,28.599998,103221.0,1.2264363
314652486,-156.9168,28.599998,103224.0,1.2264719
314663478,-157.08061,28.599998,103226.0,1.2264956
314684471,-156.99606,28.599998,103225.0,1.2264837
314695523,-157.08061,28.599998,103226.0,1.2264956
314705545,-157.08061,28.599998,103226.0,1.2264956
314727843,-157.16516,28.599998,103227.0,1.2265075
314738031,-157.08061,28.599998,103226.0,1.2264956
314748467,-157.3237,28.599998,103228.99,1.2265311
314769765,-157.16516,28.599998,103227.0,1.2265075
314779535,-157.3237,28.599998,103228.99,1.2265311
314790897,-157.08061,28.599998,103226.0,1.2264956
314812543,-156.83223,28.609999,103223.0,1.22646
314823483,-157.16516,28.609999,103227.0,1.2265075
314834582,-156.5046,28.609999,103218.99,1.2264124
314856599,-157.08061,28.609999,103226.0,1.2264956
314867628,-157.24443,28.609999,103228.0,1.2265193
314879090,-157.08061,28.609999,103226.0,1.2264956
314899481,-156.75296,28.609999,103222.0,1.226448
314911480,-156.99606,28.609999,103225.0,1.2264837
314921777,-157.24443,28.609999,103228.0,1.2265193
314943900,-156.66841,28.609999,103221.0,1.2264363
314953910,-156.83223,28.609999,103223.0,1.22646
314964492,-157.16516,28.609999,103227.0,1.2265075
314985712,-156.83223,28.609999,103223.0,1.22646
314995485,-156.75296,28.609999,103222.0,1.226448
315007127,-157.3237,28.609999,103228.99,1.2265311
315351886,-157.3237,28.619999,103228.99,1.2265311
315371748,-157.57208,28.619999,103231.99,1.2265668
315383693,-157.40826,28.619999,103229.99,1.2265431
315393493,-157.48753,28.619999,103230.99,1.226555
315413528,-157.40826,28.63,103229.99,1.2265431
315424529,-157.40826,28.63,103229.99,1.2265431
315435914,-157.40826,28.63,103229.99,1.2265431
315457490,-157.65135,28.63,103232.99,1.2265787
315468595,-156.99606,28.63,103225.0,1.2264837
315479723,-157.24443,28.63,103228.0,1.2265193
315500475,-156.9168,28.63,103224.0,1.2264719
315511719,-157.48753,28.63,103230.99,1.226555
315521870,-156.75296,28.63,103222.0,1.226448
315543933,-156.99606,28.63,103225.0,1.2264837
315556489,-156.17694,28.63,103215.0,1.226365
315567971,-156.58914,28.63,103219.99,1.2264242
315587836,-156.99606,28.63,103225.0,1.2264837
315599669,-156.99606,28.63,103225.0,1.2264837
315611906,-156.99606,28.63,103225.0,1.2264837
315633575,-156.5046,28.63,103218.99,1.2264124
315644117,-156.99606,28.63,103225.0,1.2264837
315654048,-157.3237,28.63,103228.99,1.2265311
315677817,-157.24443,28.63,103228.0,1.2265193
315688486,-157.16516,28.63,103227.0,1.2265075
315701863,-157.48753,28.63,103230.99,1.226555
315725150,-156.9168,28.63,103224.0,1.2264719
315736165,-156.75296,28.63,103222.0,1.226448
315745518,-156.83223,28.63,103223.0,1.22646
315766041,-157.16516,28.64,103227.0,1.2265075
315775988,-156.99606,28.64,103225.0,1.2264837
315785534,-158.1481,28.64,103239.0,1.2266501
315807486,-156.26149,28.64,103216.0,1.2263768
315817769,-156.99606,28.64,103225.0,1.2264837
315828679,-158.22737,28.64,103240.0,1.226662
315849527,-156.9168,28.64,103224.0,1.2264719
315861137,-157.08061,28.64,103226.0,1.2264956
315871477,-157.24443,28.64,103228.0,1.2265193
315895900,-156.75296,28.64,103222.0,1.226448
315908738,-156.99606,28.64,103225.0,1.2264837
315919008,-157.65135,28.64,103232.99,1.2265787
315940960,-156.5046,28.64,103218.99,1.2264124
315951049,-157.16516,28.64,103227.0,1.2265075
315963062,-157.65135,28.64,103232.99,1.2265787
315985999,-157.16516,28.64,103227.0,1.2265075
315995639,-157.57208,28.64,103231.99,1.2265668
316005499,-156.9168,28.64,103224.0,1.2264719
316027650,-157.08061,28.64,103226.0,1.2264956
316037840,-157.24443,28.64,103228.0,1.2265193
316047506,-156.42532,28.64,103217.99,1.2264005
316069482,-157.89973,28.65,103236.0,1.2266145
316079529,-157.48753,28.65,103230.99,1.226555
316091544,-157.08061,28.65,103226.0,1.2264956
316114055,-157.3237,28.65,103228.99,1.2265311
316124696,-157.40826,28.65,103229.99,1.2265431
316135515,-157.40826,28.65,103229.99,1.2265431
316156750,-157.3237,28.65,103228.99,1.2265311
316167481,-157.24443,28.65,103228.0,1.2265193
316178328,-156.99606,28.65,103225.0,1.2264837
316199472,-157.40826,28.65,103229.99,1.2265431
316210301,-156.99606,28.65,103225.0,1.2264837
316221062,-156.99606,28.65,103225.0,1.2264837
316242649,-158.47575,28.65,103242.99,1.2266976
316252724,-157.24443,28.65,103228.0,1.2265193
316263477,-156.9168,28.65,103224.0,1.2264719
316285471,-157.24443,28.65,103228.0,1.2265193
316297372,-157.16516,28.65,103227.0,1.2265075
316307476,-156.9168,28.65,103224.0,1.2264719
316329489,-157.24443,28.65,103228.0,1.2265193
316340756,-156.75296,28.65,103222.0,1.226448
316350562,-156.9168,28.65,103224.0,1.2264719
316373018,-157.3237,28.65,103228.99,1.2265311
316383525,-156.99606,28.65,103225.0,1.2264837
316393960,-156.99606,28.65,103225.0,1.2264837
316413471,-156.99606,28.65,103225.0,1.2264837
316425306,-156.83223,28.65,103223.0,1.22646
316435477,-157.65135,28.65,103232.99,1.2265787
316458109,-157.7359,28.66,103234.0,1.2265908
316468741,-157.40826,28.66,103229.99,1.2265431
316479466,-157.57208,28.66,103231.99,1.2265668
316501480,-156.58914,28.66,103219.99,1.2264242
316513780,-156.83223,28.66,103223.0,1.22646
316524758,-156.5046,28.66,103218.99,1.2264124
316546641,-156.9168,28.66,103224.0,1.2264719
316556759,-157.24443,28.66,103228.0,1.2265193
316567673,-156.34076,28.66,103216.99,1.2263886
316589485,-156.42532,28.66,103217.99,1.2264005
316599525,-156.26149,28.66,103216.0,1.2263768
316610615,-156.26149,28.66,103216.0,1.2263768
316631894,-157.3237,28.66,103228.99,1.2265311
316642072,-157.08061,28.66,103226.0,1.2264956
316653217,-156.26149,28.66,103216.0,1.2263768
316674914,-156.83223,28.66,103223.0,1.22646
316685493,-156.83223,28.66,103223.0,1.22646
316695503,-156.58914,28.66,103219.99,1.2264242
316716484,-157.16516,28.67,103227.0,1.2265075
316727080,-157.16516,28.67,103227.0,1.2265075
316738024,-156.9168,28.67,103224.0,1.2264719
316757482,-157.08061,28.67,103226.0,1.2264956
316768132,-156.5046,28.67,103218.99,1.2264124
316778851,-156.42532,28.67,103217.99,1.2264005
316800470,-157.16516,28.67,103227.0,1.2265075
316810701,-157.16516,28.67,103227.0,1.2265075
316821466,-156.9168,28.67,103224.0,1.2264719
316843512,-156.34076,28.67,103216.99,1.2263886
316853514,-157.16516,28.67,103227.0,1.2265075
316864962,-156.17694,28.67,103215.0,1.226365
316887012,-156.09767,28.68,103214.0,1.226353
316896474,-157.16516,28.68,103227.0,1.2265075
316907025,-157.24443,28.68,103228.0,1.2265193
316927906,-156.5046,28.67,103218.99,1.2264124
316938957,-156.9168,28.67,103224.0,1.2264719
316949478,-156.34076,28.67,103216.99,1.2263886
316970725,-156.09767,28.68,103214.0,1.226353
316981510,-156.83223,28.68,103223.0,1.22646
316992465,-156.42532,28.68,103217.99,1.2264005
317013493,-156.99606,28.68,103225.0,1.2264837
317023892,-156.58914,28.68,103219.99,1.2264242
317034679,-157.24443,28.68,103228.0,1.2265193
317055471,-156.9168,28.68,103224.0,1.2264719
317067047,-157.3237,28.68,103228.99,1.2265311
317077466,-156.99606,28.68,103225.0,1.2264837
317099048,-157.08061,28.68,103226.0,1.2264956
317108530,-156.9168,28.68,103224.0,1.2264719
317119056,-156.26149,28.68,103216.0,1.2263768
317138961,-156.58914,28.68,103219.99,1.2264242
317149960,-156.0131,28.68,103213.0,1.2263411
317160467,-155.77002,28.68,103210.0,1.2263055
317181472,-156.17694,28.68,103215.0,1.226365
317191688,-156.42532,28.68,103217.99,1.2264005
317203014,-156.75296,28.68,103222.0,1.226448
317227112,-156.26149,28.68,103216.0,1.2263768
317239843,-157.3237,28.68,103228.99,1.2265311
317249466,-156.42532,28.68,103217.99,1.2264005
317271473,-156.99606,28.68,103225.0,1.2264837
317282891,-156.42532,28.68,103217.99,1.2264005
317293478,-156.58914,28.68,103219.99,1.2264242
317314686,-156.42532,28.689999,103217.99,1.2264005
317326902,-156.5046,28.689999,103218.99,1.2264124
317339514,-156.5046,28.689999,103218.99,1.2264124
317362744,-156.17694,28.68,103215.0,1.226365
317374968,-155.68547,28.68,103209.0,1.2262937
317384472,-155.68547,28.68,103209.0,1.2262937
317405493,-156.09767,28.68,103214.0,1.226353
317415938,-156.0131,28.68,103213.0,1.2263411
317427070,-156.34076,28.68,103216.99,1.2263886
317449171,-156.66841,28.68,103221.0,1.2264363
317459935,-156.09767,28.68,103214.0,1.226353
317470621,-156.42532,28.68,103217.99,1.2264005
317492474,-156.34076,28.689999,103216.99,1.2263886
317504684,-156.17694,28.689999,103215.0,1.226365
317516122,-156.83223,28.689999,103223.0,1.22646
317536952,-156.0131,28.689999,103213.0,1.2263411
317547133,-156.0131,28.689999,103213.0,1.2263411
317557484,-156.5046,28.689999,103218.99,1.2264124
317580527,-156.5046,28.689999,103218.99,1.2264124
317593833,-156.5046,28.689999,103218.99,1.2264124
317604485,-155.93384,28.689999,103212.0,1.2263293
317625886,-156.09767,28.689999,103214.0,1.226353
317636471,-155.93384,28.689999,103212.0,1.2263293
317649492,-155.84929,28.689999,103211.0,1.2263174
317673785,-156.26149,28.689999,103216.0,1.2263768
317684483,-155.93384,28.689999,103212.0,1.2263293
317697056,-155.68547,28.689999,103209.0,1.2262937
317717496,-156.5046,28.689999,103218.99,1.2264124
317729227,-155.68547,28.689999,103209.0,1.2262937
317738898,-156.17694,28.689999,103215.0,1.226365
317761864,-155.68547,28.689999,103209.0,1.2262937
317772585,-156.0131,28.689999,103213.0,1.2263411
317782566,-156.0131,28.689999,103213.0,1.2263411
317804471,-156.58914,28.699999,103219.99,1.2264242
317814703,-155.6062,28.699999,103207.99,1.2262816
317825884,-155.68547,28.699999,103209.0,1.2262937
317846571,-155.68547,28.699999,103209.0,1.2262937
317857833,-155.52164,28.699999,103206.99,1.2262698
317868538,-155.77002,28.699999,103210.0,1.2263055
317891914,-156.34076,28.699999,103216.99,1.2263886
317901471,-155.68547,28.699999,103209.0,1.2262937
317913188,-155.93384,28.699999,103212.0,1.2263293
317934622,-155.6062,28.699999,103207.99,1.2262816
317945880,-155.68547,28.699999,103209.0,1.2262937
317956466,-155.6062,28.699999,103207.99,1.2262816
317977945,-155.6062,28.699999,103207.99,1.2262816
317988484,-155.6062,28.699999,103207.99,1.2262816
317998536,-156.26149,28.699999,103216.0,1.2263768
318019900,-155.84929,28.699999,103211.0,1.2263174
318030565,-155.194,28.699999,103203.0,1.2262224
318041469,-155.43709,28.699999,103205.99,1.2262579
318065479,-155.35782,28.71,103204.99,1.226246
318077203,-156.09767,28.71,103214.0,1.226353
318090223,-155.52164,28.71,103206.99,1.2262698
318113375,-155.77002,28.699999,103210.0,1.2263055
318123938,-155.68547,28.699999,103209.0,1.2262937
318134915,-155.93384,28.699999,103212.0,1.2263293
318155567,-156.0131,28.699999,103213.0,1.2263411
318165528,-155.6062,28.699999,103207.99,1.2262816
318176466,-155.84929,28.699999,103211.0,1.2263174
318198589,-156.17694,28.71,103215.0,1.226365
318208524,-156.17694,28.71,103215.0,1.226365
318219485,-155.6062,28.71,103207.99,1.2262816
318242322,-155.52164,28.71,103206.99,1.2262698
318253177,-155.93384,28.71,103212.0,1.2263293
318263498,-155.52164,28.71,103206.99,1.2262698
318285557,-155.10944,28.71,103202.0,1.2262105
318297184,-155.52164,28.71,103206.99,1.2262698
318306715,-155.6062,28.71,103207.99,1.2262816
318328516,-155.35782,28.71,103204.99,1.226246
318339474,-155.27327,28.71,103203.99,1.2262342
318350571,-155.03017,28.71,103201.0,1.2261986
318372471,-155.6062,28.71,103207.99,1.2262816
318382605,-155.03017,28.71,103201.0,1.2261986
318392477,-155.35782,28.71,103204.99,1.226246
318414550,-155.84929,28.72,103211.0,1.2263174
319268761,-154.29033,28.73,103191.99,1.2260916
319294094,-155.10944,28.73,103202.0,1.2262105
319303526,-154.21106,28.73,103191.0,1.2260798
319317422,-153.96268,28.73,103188.0,1.2260442
319339757,-154.61797,28.73,103196.0,1.2261392
319349824,-153.79884,28.73,103186.0,1.2260203
319359897,-153.96268,28.73,103188.0,1.2260442
319381264,-154.7818,28.74,103198.0,1.2261629
319391766,-154.7818,28.74,103198.0,1.2261629
319404989,-154.7818,28.74,103198.0,1.2261629
319425525,-155.03017,28.74,103201.0,1.2261986
319436310,-153.8834,28.74,103187.0,1.2260323
319445562,-154.37488,28.74,103192.99,1.2261034
319465527,-154.29033,28.75,103191.99,1.2260916
319477265,-154.37488,28.75,103192.99,1.2261034
319487844,-154.21106,28.75,103191.0,1.2260798
319508717,-154.37488,28.75,103192.99,1.2261034
319519849,-154.37488,28.75,103192.99,1.2261034
319532178,-153.96268,28.75,103188.0,1.2260442
319551936,-154.37488,28.75,103192.99,1.2261034
319561472,-154.04723,28.75,103189.0,1.226056
319573031,-154.04723,28.75,103189.0,1.226056
319593496,-155.03017,28.75,103201.0,1.2261986
319605400,-154.21106,28.75,103191.0,1.2260798
319615627,-153.8834,28.75,103187.0,1.2260323
319639488,-154.1265,28.76,103190.0,1.2260679
319650959,-154.29033,28.76,103191.99,1.2260916
319662169,-154.1265,28.76,103190.0,1.2260679
319682619,-154.37488,28.75,103192.99,1.2261034
319693523,-154.21106,28.75,103191.0,1.2260798
319704763,-153.63503,28.75,103184.0,1.2259966
319726572,-154.45415,28.76,103193.99,1.2261153
319737470,-154.5387,28.76,103194.99,1.2261273
319749748,-153.8834,28.76,103187.0,1.2260323
319770947,-154.61797,28.75,103196.0,1.2261392
319782214,-153.30737,28.75,103179.99,1.225949
319792976,-153.8834,28.75,103187.0,1.2260323
319813511,-153.8834,28.76,103187.0,1.2260323
319824753,-153.8834,28.76,103187.0,1.2260323
319834960,-154.21106,28.76,103191.0,1.2260798
319856950,-154.04723,28.76,103189.0,1.226056
319866989,-153.79884,28.76,103186.0,1.2260203
319877797,-154.70253,28.76,103197.0,1.2261511
319898942,-153.8834,28.76,103187.0,1.2260323
319909914,-154.29033,28.76,103191.99,1.2260916
319920762,-153.71957,28.76,103185.0,1.2260085
319941470,-153.55576,28.76,103182.99,1.2259847
319952756,-154.04723,28.76,103189.0,1.226056
319963496,-153.63503,28.76,103184.0,1.2259966
319985222,-154.29033,28.769999,103191.99,1.2260916
319994610,-153.71957,28.769999,103185.0,1.2260085
320006066,-153.8834,28.769999,103187.0,1.2260323
320027035,-153.38664,28.769999,103180.99,1.2259609
320037338,-153.4712,28.769999,103181.99,1.2259728
320047610,-153.96268,28.769999,103188.0,1.2260442
320069936,-153.63503,28.769999,103184.0,1.2259966
320080955,-154.61797,28.769999,103196.0,1.2261392
320091061,-153.38664,28.769999,103180.99,1.2259609
320111563,-153.38664,28.769999,103180.99,1.2259609
320121899,-153.38664,28.769999,103180.99,1.2259609
320131522,-154.29033,28.769999,103191.99,1.2260916
320153234,-154.1265,28.769999,103190.0,1.2260679
320163486,-153.96268,28.769999,103188.0,1.2260442
320173531,-154.5387,28.769999,103194.99,1.2261273
320194699,-153.71957,28.779999,103185.0,1.2260085
320205879,-153.63503,28.779999,103184.0,1.2259966
320216372,-153.79884,28.779999,103186.0,1.2260203
320237888,-154.45415,28.779999,103193.99,1.2261153
320248737,-154.1265,28.779999,103190.0,1.2260679
320259481,-153.55576,28.779999,103182.99,1.2259847
320280738,-153.4712,28.769999,103181.99,1.2259728
320290598,-154.29033,28.769999,103191.99,1.2260916
320301532,-153.4712,28.769999,103181.99,1.2259728
320323470,-153.4712,28.779999,103181.99,1.2259728
320333871,-153.71957,28.779999,103185.0,1.2260085
320345054,-153.22282,28.779999,103178.99,1.2259371
320366108,-154.37488,28.779999,103192.99,1.2261034
320375573,-153.4712,28.779999,103181.99,1.2259728
320386625,-154.29033,28.779999,103191.99,1.2260916
320408306,-154.1265,28.789999,103190.0,1.2260679
320417479,-154.21106,28.789999,103191.0,1.2260798
320428583,-153.96268,28.789999,103188.0,1.2260442
320450698,-153.30737,28.779999,103179.99,1.225949
320461909,-153.96268,28.779999,103188.0,1.2260442
320471909,-153.8834,28.779999,103187.0,1.2260323
320493482,-153.71957,28.779999,103185.0,1.2260085
320505063,-153.79884,28.779999,103186.0,1.2260203
320514621,-153.55576,28.779999,103182.99,1.2259847
320537965,-153.14355,28.779999,103178.0,1.2259253
320548470,-154.21106,28.779999,103191.0,1.2260798
320559470,-154.04723,28.779999,103189.0,1.226056
320580522,-154.1265,28.789999,103190.0,1.2260679
320591524,-153.63503,28.789999,103184.0,1.2259966
320602584,-153.30737,28.789999,103179.99,1.225949
320624942,-154.5387,28.789999,103194.99,1.2261273
320635470,-154.7818,28.789999,103198.0,1.2261629
320647862,-154.21106,28.789999,103191.0,1.2260798
320672954,-154.1265,28.779999,103190.0,1.2260679
320683504,-153.8834,28.779999,103187.0,1.2260323
320695958,-154.21106,28.779999,103191.0,1.2260798
320717481,-154.04723,28.789999,103189.0,1.226056
320728810,-153.79884,28.789999,103186.0,1.2260203
320739523,-154.04723,28.789999,103189.0,1.226056
320762586,-154.37488,28.789999,103192.99,1.2261034
320773471,-154.37488,28.789999,103192.99,1.2261034
320784475,-153.63503,28.789999,103184.0,1.2259966
320805474,-154.5387,28.789999,103194.99,1.2261273
320815810,-154.45415,28.789999,103193.99,1.2261153
320826632,-153.4712,28.789999,103181.99,1.2259728
320847384,-154.45415,28.789999,103193.99,1.2261153
320856551,-153.55576,28.789999,103182.99,1.2259847
320867730,-153.79884,28.789999,103186.0,1.2260203
320887969,-153.96268,28.789999,103188.0,1.2260442
320898696,-154.04723,28.789999,103189.0,1.226056
320909490,-153.79884,28.789999,103186.0,1.2260203
320930633,-154.37488,28.8,103192.99,1.2261034
320941536,-154.04723,28.8,103189.0,1.226056
320951963,-153.8834,28.8,103187.0,1.2260323
320973472,-154.9509,28.8,103200.0,1.2261868
320984993,-154.45415,28.8,103193.99,1.2261153
320994606,-154.37488,28.8,103192.99,1.2261034
321018616,-154.70253,28.8,103197.0,1.2261511
321031477,-154.86635,28.8,103199.0,1.2261748
321042599,-154.45415,28.8,103193.99,1.2261153
321063474,-154.1265,28.8,103190.0,1.2260679
321074952,-153.96268,28.8,103188.0,1.2260442
321085477,-154.5387,28.8,103194.99,1.2261273
321107471,-154.21106,28.8,103191.0,1.2260798
321120162,-154.5387,28.8,103194.99,1.2261273
321130618,-154.37488,28.8,103192.99,1.2261034
321153534,-154.21106,28.8,103191.0,1.2260798
321165046,-154.37488,28.8,103192.99,1.2261034
321178266,-153.96268,28.8,103188.0,1.2260442
321200996,-154.29033,28.8,103191.99,1.2260916
321212376,-154.86635,28.8,103199.0,1.2261748
321221827,-154.61797,28.8,103196.0,1.2261392
321243610,-154.37488,28.8,103192.99,1.2261034
321254627,-154.04723,28.8,103189.0,1.226056
321264961,-154.61797,28.8,103196.0,1.2261392
321285471,-154.29033,28.8,103191.99,1.2260916
321296581,-154.86635,28.8,103199.0,1.2261748
321308303,-154.5387,28.8,103194.99,1.2261273
321329179,-154.04723,28.8,103189.0,1.226056
321339156,-154.29033,28.8,103191.99,1.2260916
321349466,-153.96268,28.8,103188.0,1.2260442
321372134,-154.86635,28.81,103199.0,1.2261748
321382622,-155.10944,28.81,103202.0,1.2262105
321393470,-154.9509,28.81,103200.0,1.2261868
321414622,-154.1265,28.81,103190.0,1.2260679
321425905,-154.1265,28.81,103190.0,1.2260679
321436280,-154.5387,28.81,103194.99,1.2261273
321457772,-155.10944,28.81,103202.0,1.2262105
321469059,-154.1265,28.81,103190.0,1.2260679
321481308,-154.21106,28.81,103191.0,1.2260798
321502644,-154.5387,28.81,103194.99,1.2261273
321512657,-154.70253,28.81,103197.0,1.2261511
321524159,-154.04723,28.81,103189.0,1.226056
321544952,-154.7818,28.81,103198.0,1.2261629
321554633,-154.37488,28.81,103192.99,1.2261034
321565537,-154.70253,28.81,103197.0,1.2261511
321586652,-154.1265,28.82,103190.0,1.2260679
321596547,-154.04723,28.82,103189.0,1.226056
321608757,-153.96268,28.82,103188.0,1.2260442
321630587,-154.70253,28.82,103197.0,1.2261511
321642007,-154.5387,28.82,103194.99,1.2261273
321651947,-154.7818,28.82,103198.0,1.2261629
321672955,-154.37488,28.82,103192.99,1.2261034
321684366,-154.61797,28.82,103196.0,1.2261392
321694552,-154.45415,28.82,103193.99,1.2261153
321716483,-154.61797,28.82,103196.0,1.2261392
321726544,-154.9509,28.82,103200.0,1.2261868
321737466,-154.1265,28.82,103190.0,1.2260679
321761072,-154.70253,28.82,103197.0,1.2261511
321771990,-154.45415,28.82,103193.99,1.2261153
321782596,-153.71957,28.82,103185.0,1.2260085
321804485,-154.70253,28.82,103197.0,1.2261511
321814583,-154.29033,28.82,103191.99,1.2260916
321825458,-153.55576,28.82,103182.99,1.2259847
321846938,-153.79884,28.82,103186.0,1.2260203
321857163,-154.37488,28.82,103192.99,1.2261034
321867838,-154.04723,28.82,103189.0,1.226056
321891063,-154.37488,28.83,103192.99,1.2261034
321901785,-153.79884,28.83,103186.0,1.2260203
321913170,-154.70253,28.83,103197.0,1.2261511
321934918,-153.96268,28.83,103188.0,1.2260442
321948158,-154.7818,28.83,103198.0,1.2261629
321958615,-153.71957,28.83,103185.0,1.2260085
321980590,-153.96268,28.83,103188.0,1.2260442
321990676,-154.21106,28.83,103191.0,1.2260798
322000471,-154.45415,28.83,103193.99,1.2261153
322022564,-154.21106,28.83,103191.0,1.2260798
322032471,-154.37488,28.83,103192.99,1.2261034
322043925,-153.96268,28.83,103188.0,1.2260442
322064485,-154.70253,28.84,103197.0,1.2261511
322076381,-153.96268,28.84,103188.0,1.2260442
322085563,-154.29033,28.84,103191.99,1.2260916
322108496,-153.63503,28.83,103184.0,1.2259966
322118591,-154.21106,28.83,103191.0,1.2260798
322130336,-154.04723,28.83,103189.0,1.226056
322149789,-153.63503,28.83,103184.0,1.2259966
322159516,-154.1265,28.83,103190.0,1.2260679
322172178,-153.96268,28.83,103188.0,1.2260442
322194688,-153.8834,28.84,103187.0,1.2260323
322206713,-153.63503,28.84,103184.0,1.2259966
322219035,-153.63503,28.84,103184.0,1.2259966
322239571,-154.21106,28.84,103191.0,1.2260798
322250520,-154.21106,28.84,103191.0,1.2260798
322260519,-153.55576,28.84,103182.99,1.2259847
322282284,-153.79884,28.83,103186.0,1.2260203
322292587,-153.79884,28.83,103186.0,1.2260203
322302907,-153.4712,28.83,103181.99,1.2259728
322324482,-154.21106,28.849998,103191.0,1.2260798
322335470,-154.21106,28.849998,103191.0,1.2260798
322346546,-153.30737,28.849998,103179.99,1.225949
322368481,-154.37488,28.84,103192.99,1.2261034
322378978,-153.8834,28.84,103187.0,1.2260323
322388466,-153.8834,28.84,103187.0,1.2260323
322410053,-153.8834,28.849998,103187.0,1.2260323
322420191,-153.79884,28.849998,103186.0,1.2260203
322430622,-153.96268,28.849998,103188.0,1.2260442
322452494,-153.63503,28.849998,103184.0,1.2259966
322463473,-153.4712,28.849998,103181.99,1.2259728
322474164,-153.63503,28.849998,103184.0,1.2259966
322496470,-154.04723,28.849998,103189.0,1.226056
322507861,-154.1265,28.849998,103190.0,1.2260679
322517833,-154.04723,28.849998,103189.0,1.226056
322538834,-153.22282,28.849998,103178.99,1.2259371
322548504,-154.61797,28.849998,103196.0,1.2261392
322559468,-154.04723,28.849998,103189.0,1.226056
322581725,-153.38664,28.849998,103180.99,1.2259609
322592529,-153.059,28.849998,103177.0,1.2259134
322603551,-153.30737,28.849998,103179.99,1.225949
322627354,-153.8834,28.849998,103187.0,1.2260323
322637472,-154.04723,28.849998,103189.0,1.226056
322648713,-153.8834,28.849998,103187.0,1.2260323
322669923,-153.8834,28.849998,103187.0,1.2260323
322680370,-153.55576,28.849998,103182.99,1.2259847
322691170,-153.63503,28.849998,103184.0,1.2259966
322712471,-153.96268,28.849998,103188.0,1.2260442
322723470,-153.63503,28.849998,103184.0,1.2259966
322735838,-153.38664,28.849998,103180.99,1.2259609
322759786,-153.38664,28.849998,103180.99,1.2259609
322769524,-154.04723,28.849998,103189.0,1.226056
322781758,-153.22282,28.849998,103178.99,1.2259371
322803475,-153.8834,28.859999,103187.0,1.2260323
322813821,-153.55576,28.859999,103182.99,1.2259847
322824725,-153.22282,28.859999,103178.99,1.2259371
322848796,-153.8834,28.859999,103187.0,1.2260323
322859575,-153.55576,28.859999,103182.99,1.2259847
322869496,-153.71957,28.859999,103185.0,1.2260085
322891390,-153.22282,28.859999,103178.99,1.2259371
322902033,-153.22282,28.859999,103178.99,1.2259371
322911921,-153.63503,28.859999,103184.0,1.2259966
322933472,-154.04723,28.859999,103189.0,1.226056
322944242,-153.8834,28.859999,103187.0,1.2260323
322955100,-153.63503,28.859999,103184.0,1.2259966
322976526,-153.4712,28.859999,103181.99,1.2259728
322987505,-153.14355,28.859999,103178.0,1.2259253
323000234,-153.55576,28.859999,103182.99,1.2259847
323020472,-153.71957,28.859999,103185.0,1.2260085
323032552,-153.96268,28.859999,103188.0,1.2260442
323043509,-153.71957,28.859999,103185.0,1.2260085
323069378,-153.96268,28.859999,103188.0,1.2260442
323079971,-153.63503,28.859999,103184.0,1.2259966
323089814,-154.37488,28.859999,103192.99,1.2261034
323111856,-153.22282,28.859999,103178.99,1.2259371
323123119,-153.55576,28.859999,103182.99,1.2259847
323133344,-153.4712,28.859999,103181.99,1.2259728
323155512,-153.79884,28.859999,103186.0,1.2260203
323168651,-153.4712,28.859999,103181.99,1.2259728
323179478,-153.63503,28.859999,103184.0,1.2259966
323201549,-153.63503,28.859999,103184.0,1.2259966
323212512,-153.4712,28.859999,103181.99,1.2259728
323224522,-153.63503,28.859999,103184.0,1.2259966
323245471,-153.059,28.869999,103177.0,1.2259134
323255780,-153.55576,28.869999,103182.99,1.2259847
323267150,-153.71957,28.869999,103185.0,1.2260085
323288220,-153.4712,28.869999,103181.99,1.2259728
323299441,-153.71957,28.869999,103185.0,1.2260085
323309467,-153.55576,28.869999,103182.99,1.2259847
323331528,-153.63503,28.869999,103184.0,1.2259966
323342602,-153.55576,28.869999,103182.99,1.2259847
323353477,-153.71957,28.869999,103185.0,1.2260085
323375485,-153.8834,28.869999,103187.0,1.2260323
323387023,-153.30737,28.869999,103179.99,1.225949
323397481,-153.30737,28.869999,103179.99,1.225949
323418607,-153.96268,28.869999,103188.0,1.2260442
323429481,-154.04723,28.869999,103189.0,1.226056
323439480,-153.55576,28.869999,103182.99,1.2259847
323461041,-153.14355,28.88,103178.0,1.2259253
323471531,-153.55576,28.88,103182.99,1.2259847
323482997,-153.71957,28.88,103185.0,1.2260085
323505357,-153.8834,28.88,103187.0,1.2260323
323514678,-154.45415,28.88,103193.99,1.2261153
323525198,-153.8834,28.88,103187.0,1.2260323
323547910,-153.8834,28.88,103187.0,1.2260323
323558518,-152.97974,28.88,103176.0,1.2259016
323569975,-153.96268,28.88,103188.0,1.2260442
323590732,-154.04723,28.88,103189.0,1.226056
323601475,-153.71957,28.88,103185.0,1.2260085
323611745,-153.79884,28.88,103186.0,1.2260203
323631527,-153.8834,28.88,103187.0,1.2260323
323643463,-153.96268,28.88,103188.0,1.2260442
323654643,-154.5387,28.88,103194.99,1.2261273
323678187,-153.79884,28.88,103186.0,1.2260203
323689383,-154.21106,28.88,103191.0,1.2260798
323699466,-153.55576,28.88,103182.99,1.2259847
323721772,-154.45415,28.88,103193.99,1.2261153
323733208,-154.61797,28.88,103196.0,1.2261392
323742886,-154.70253,28.88,103197.0,1.2261511
323762623,-154.04723,28.89,103189.0,1.226056
323773860,-153.8834,28.89,103187.0,1.2260323
323785337,-153.71957,28.89,103185.0,1.2260085
323805790,-153.38664,28.89,103180.99,1.2259609
323817860,-153.63503,28.89,103184.0,1.2259966
323829186,-153.4712,28.89,103181.99,1.2259728
323850937,-153.79884,28.89,103186.0,1.2260203
323861485,-153.71957,28.89,103185.0,1.2260085
323874230,-154.04723,28.89,103189.0,1.226056
323895887,-154.04723,28.89,103189.0,1.226056
323906101,-153.63503,28.89,103184.0,1.2259966
323915467,-154.5387,28.89,103194.99,1.2261273
323937482,-154.61797,28.89,103196.0,1.2261392
323947659,-154.04723,28.89,103189.0,1.226056
323958650,-154.29033,28.89,103191.99,1.2260916
323979472,-154.7818,28.89,103198.0,1.2261629
323990602,-153.8834,28.89,103187.0,1.2260323
324001470,-154.61797,28.89,103196.0,1.2261392
324022578,-154.1265,28.9,103190.0,1.2260679
324034257,-154.1265,28.9,103190.0,1.2260679
324044767,-154.37488,28.9,103192.99,1.2261034
324066272,-154.29033,28.9,103191.99,1.2260916
324076493,-154.29033,28.9,103191.99,1.2260916
324087508,-153.55576,28.9,103182.99,1.2259847
324109494,-153.55576,28.9,103182.99,1.2259847
324120493,-153.8834,28.9,103187.0,1.2260323
324131703,-154.29033,28.9,103191.99,1.2260916
324153545,-153.79884,28.9,103186.0,1.2260203
324164501,-153.8834,28.9,103187.0,1.2260323
324174671,-153.55576,28.9,103182.99,1.2259847
324196470,-154.21106,28.9,103191.0,1.2260798
324206619,-153.8834,28.9,103187.0,1.2260323
324221110,-154.5387,28.9,103194.99,1.2261273
324243572,-153.8834,28.91,103187.0,1.2260323
324254743,-154.45415,28.91,103193.99,1.2261153
324265489,-154.86635,28.91,103199.0,1.2261748
324286575,-154.61797,28.9,103196.0,1.2261392
324297909,-153.79884,28.9,103186.0,1.2260203
324308467,-154.86635,28.9,103199.0,1.2261748
324329535,-154.45415,28.9,103193.99,1.2261153
324339468,-154.1265,28.9,103190.0,1.2260679
324350864,-154.37488,28.9,103192.99,1.2261034
324372471,-154.29033,28.9,103191.99,1.2260916
324383470,-154.70253,28.9,103197.0,1.2261511
324393518,-154.37488,28.9,103192.99,1.2261034
324415470,-154.29033,28.9,103191.99,1.2260916
324425526,-154.04723,28.9,103189.0,1.226056
324435786,-153.63503,28.9,103184.0,1.2259966
324458986,-155.194,28.91,103203.0,1.2262224
324469482,-155.35782,28.91,103204.99,1.226246
324480480,-155.27327,28.91,103203.99,1.2262342
324502630,-154.9509,28.91,103200.0,1.2261868
324513527,-154.45415,28.91,103193.99,1.2261153
324524467,-155.03017,28.91,103201.0,1.2261986
324546974,-154.9509,28.91,103200.0,1.2261868
324557471,-154.37488,28.91,103192.99,1.2261034
324567487,-154.45415,28.91,103193.99,1.2261153
324589068,-155.10944,28.91,103202.0,1.2262105
324599472,-154.7818,28.91,103198.0,1.2261629
324609465,-154.5387,28.91,103194.99,1.2261273
324630608,-154.61797,28.92,103196.0,1.2261392
324641563,-154.37488,28.92,103192.99,1.2261034
324652971,-154.37488,28.92,103192.99,1.2261034
324674968,-153.71957,28.91,103185.0,1.2260085
324684771,-154.21106,28.91,103191.0,1.2260798
324695520,-153.63503,28.91,103184.0,1.2259966
324716472,-154.37488,28.92,103192.99,1.2261034
324727471,-154.21106,28.92,103191.0,1.2260798
324737465,-154.61797,28.92,103196.0,1.2261392
324758597,-154.5387,28.92,103194.99,1.2261273
324768975,-154.45415,28.92,103193.99,1.2261153
324779488,-153.63503,28.92,103184.0,1.2259966
324800486,-154.04723,28.92,103189.0,1.226056
324811471,-154.29033,28.92,103191.99,1.2260916
324823380,-154.04723,28.92,103189.0,1.226056
324845526,-154.1265,28.92,103190.0,1.2260679
324856525,-154.70253,28.92,103197.0,1.2261511
324866695,-154.37488,28.92,103192.99,1.2261034
324888224,-154.21106,28.93,103191.0,1.2260798
324897475,-154.1265,28.93,103190.0,1.2260679
324909066,-154.61797,28.93,103196.0,1.2261392
324930899,-154.45415,28.93,103193.99,1.2261153
324940648,-154.37488,28.93,103192.99,1.2261034
324952162,-154.1265,28.93,103190.0,1.2260679
324973400,-154.70253,28.92,103197.0,1.2261511
324983958,-154.29033,28.92,103191.99,1.2260916
324994598,-154.61797,28.92,103196.0,1.2261392
325016153,-154.9509,28.93,103200.0,1.2261868
325025478,-154.70253,28.93,103197.0,1.2261511
325036909,-154.1265,28.93,103190.0,1.2260679
325057552,-154.5387,28.93,103194.99,1.2261273
325069307,-154.21106,28.93,103191.0,1.2260798
325078562,-154.45415,28.93,103193.99,1.2261153
325101256,-154.21106,28.93,103191.0,1.2260798
325112375,-154.61797,28.93,103196.0,1.2261392
325125052,-154.61797,28.93,103196.0,1.2261392
325145438,-154.1265,28.93,103190.0,1.2260679
325157297,-154.37488,28.93,103192.99,1.2261034
325168216,-154.37488,28.93,103192.99,1.2261034
325188677,-154.21106,28.93,103191.0,1.2260798
325199921,-154.5387,28.93,103194.99,1.2261273
325210569,-153.8834,28.93,103187.0,1.2260323
325232171,-154.45415,28.93,103193.99,1.2261153
325241476,-153.71957,28.93,103185.0,1.2260085
325253479,-154.5387,28.93,103194.99,1.2261273
325274938,-154.21106,28.93,103191.0,1.2260798
325285512,-153.96268,28.93,103188.0,1.2260442
325296955,-154.7818,28.93,103198.0,1.2261629
325320568,-153.79884,28.939999,103186.0,1.2260203
325330589,-154.37488,28.939999,103192.99,1.2261034
325341990,-153.96268,28.939999,103188.0,1.2260442
325362636,-153.96268,28.93,103188.0,1.2260442
325373902,-154.7818,28.93,103198.0,1.2261629
325384485,-154.1265,28.93,103190.0,1.2260679
325405946,-154.29033,28.939999,103191.99,1.2260916
325415949,-154.21106,28.939999,103191.0,1.2260798
325426547,-153.96268,28.939999,103188.0,1.2260442
325448512,-154.70253,28.939999,103197.0,1.2261511
325461165,-154.37488,28.939999,103192.99,1.2261034
325472954,-154.04723,28.939999,103189.0,1.226056
325492709,-154.21106,28.939999,103191.0,1.2260798
325503488,-154.21106,28.939999,103191.0,1.2260798
325513482,-154.04723,28.939999,103189.0,1.226056
325535527,-153.96268,28.939999,103188.0,1.2260442
325545477,-154.61797,28.939999,103196.0,1.2261392
325557933,-154.04723,28.939999,103189.0,1.226056
325580472,-154.1265,28.949999,103190.0,1.2260679
325590849,-154.7818,28.949999,103198.0,1.2261629
325600557,-154.5387,28.949999,103194.99,1.2261273
325622568,-153.79884,28.949999,103186.0,1.2260203
325633268,-153.79884,28.949999,103186.0,1.2260203
325643479,-154.37488,28.949999,103192.99,1.2261034
325665918,-154.29033,28.949999,103191.99,1.2260916
325676484,-153.8834,28.949999,103187.0,1.2260323
325686632,-153.71957,28.949999,103185.0,1.2260085
325706565,-153.14355,28.949999,103178.0,1.2259253
325716651,-154.1265,28.949999,103190.0,1.2260679
325728655,-154.37488,28.949999,103192.99,1.2261034
325750990,-153.96268,28.949999,103188.0,1.2260442
325762390,-154.29033,28.949999,103191.99,1.2260916
325772518,-154.1265,28.949999,103190.0,1.2260679
325794619,-154.7818,28.949999,103198.0,1.2261629
325804607,-154.29033,28.949999,103191.99,1.2260916
325815488,-154.29033,28.949999,103191.99,1.2260916
325836472,-153.71957,28.949999,103185.0,1.2260085
325846744,-154.04723,28.949999,103189.0,1.226056
325856528,-153.4712,28.949999,103181.99,1.2259728
325878775,-153.96268,28.96,103188.0,1.2260442
325888465,-153.63503,28.96,103184.0,1.2259966
325899467,-154.45415,28.96,103193.99,1.2261153
325920721,-154.21106,28.96,103191.0,1.2260798
325931482,-154.21106,28.96,103191.0,1.2260798
325942732,-153.55576,28.96,103182.99,1.2259847
325963520,-154.29033,28.96,103191.99,1.2260916
325975072,-153.79884,28.96,103186.0,1.2260203
325985789,-154.1265,28.96,103190.0,1.2260679
326006604,-153.55576,28.96,103182.99,1.2259847
326018545,-153.71957,28.96,103185.0,1.2260085
326030209,-153.4712,28.96,103181.99,1.2259728
326050629,-153.8834,28.96,103187.0,1.2260323
326060481,-153.8834,28.96,103187.0,1.2260323
326071466,-153.63503,28.96,103184.0,1.2259966
326092471,-153.79884,28.97,103186.0,1.2260203
326103797,-154.04723,28.97,103189.0,1.226056
326114542,-153.8834,28.97,103187.0,1.2260323
326135492,-154.1265,28.97,103190.0,1.2260679
326145908,-153.71957,28.97,103185.0,1.2260085
326156478,-153.55576,28.97,103182.99,1.2259847
326177947,-153.63503,28.97,103184.0,1.2259966
326187621,-153.71957,28.97,103185.0,1.2260085
326199120,-153.63503,28.97,103184.0,1.2259966
326220483,-153.30737,28.97,103179.99,1.225949
326231486,-153.30737,28.97,103179.99,1.225949
326242007,-153.22282,28.97,103178.99,1.2259371
326263471,-153.63503,28.97,103184.0,1.2259966
326274076,-153.79884,28.97,103186.0,1.2260203
326284466,-153.96268,28.97,103188.0,1.2260442
326307477,-153.4712,28.97,103181.99,1.2259728
326319790,-153.38664,28.97,103180.99,1.2259609
326329466,-152.97974,28.97,103176.0,1.2259016
326352157,-153.30737,28.97,103179.99,1.225949
326363140,-153.4712,28.97,103181.99,1.2259728
326373465,-153.059,28.97,103177.0,1.2259134
326395391,-153.22282,28.97,103178.99,1.2259371
326404950,-152.89517,28.97,103175.0,1.2258897
326415766,-153.71957,28.97,103185.0,1.2260085
326437479,-153.63503,28.97,103184.0,1.2259966
326448752,-153.30737,28.97,103179.99,1.225949
326459513,-153.96268,28.97,103188.0,1.2260442
326479790,-153.4712,28.98,103181.99,1.2259728
326491400,-153.38664,28.98,103180.99,1.2259609
326501465,-152.97974,28.98,103176.0,1.2259016
326523170,-153.14355,28.98,103178.0,1.2259253
326533977,-153.55576,28.98,103182.99,1.2259847
326544487,-153.14355,28.98,103178.0,1.2259253
326567813,-154.04723,28.98,103189.0,1.226056
326579362,-153.71957,28.98,103185.0,1.2260085
326589467,-153.30737,28.98,103179.99,1.225949
326611475,-153.4712,28.98,103181.99,1.2259728
326621486,-153.38664,28.98,103180.99,1.2259609
326632985,-152.89517,28.98,103175.0,1.2258897
326657933,-153.55576,28.98,103182.99,1.2259847
326668471,-153.22282,28.98,103178.99,1.2259371
326680583,-153.30737,28.98,103179.99,1.225949
326704337,-153.38664,28.98,103180.99,1.2259609
326713472,-153.63503,28.98,103184.0,1.2259966
326723911,-153.55576,28.98,103182.99,1.2259847
326747182,-153.22282,28.98,103178.99,1.2259371
326757481,-153.059,28.98,103177.0,1.2259134
326768430,-152.8159,28.98,103174.0,1.2258778
326792328,-153.63503,28.98,103184.0,1.2259966
326803154,-153.38664,28.98,103180.99,1.2259609
326812437,-153.30737,28.98,103179.99,1.225949
326835114,-153.71957,28.98,103185.0,1.2260085
326845931,-153.14355,28.98,103178.0,1.2259253
326856323,-153.059,28.98,103177.0,1.2259134
326877489,-153.30737,28.98,103179.99,1.225949
326887849,-153.22282,28.98,103178.99,1.2259371
326899383,-153.22282,28.98,103178.99,1.2259371
326920568,-153.30737,28.98,103179.99,1.225949
326931471,-153.4712,28.98,103181.99,1.2259728
326945548,-153.059,28.98,103177.0,1.2259134
326968166,-153.4712,28.98,103181.99,1.2259728
326979599,-153.79884,28.98,103186.0,1.2260203
326991797,-153.63503,28.98,103184.0,1.2259966
327013532,-153.059,28.99,103177.0,1.2259134
327024437,-153.55576,28.99,103182.99,1.2259847
327035437,-153.4712,28.99,103181.99,1.2259728
327057452,-153.059,28.99,103177.0,1.2259134
327070647,-153.63503,28.99,103184.0,1.2259966
327081454,-153.38664,28.99,103180.99,1.2259609
327105889,-153.79884,28.99,103186.0,1.2260203
327117455,-153.38664,28.99,103180.99,1.2259609
327128679,-153.63503,28.99,103184.0,1.2259966
327149884,-153.059,28.98,103177.0,1.2259134
327160724,-153.30737,28.98,103179.99,1.225949
327171448,-153.30737,28.98,103179.99,1.225949
327193437,-153.4712,28.99,103181.99,1.2259728
327203467,-153.79884,28.99,103186.0,1.2260203
327214505,-152.97974,28.99,103176.0,1.2259016
327238226,-153.63503,28.99,103184.0,1.2259966
327247459,-153.38664,28.99,103180.99,1.2259609
327257953,-153.71957,28.99,103185.0,1.2260085
327279761,-153.63503,28.99,103184.0,1.2259966
327290499,-154.04723,28.99,103189.0,1.226056
327301942,-153.71957,28.99,103185.0,1.2260085
327323774,-153.38664,29.0,103180.99,1.2259609
327333792,-153.30737,29.0,103179.99,1.225949
327343462,-154.1265,29.0,103190.0,1.2260679
327365722,-152.97974,29.0,103176.0,1.2259016
327376684,-153.8834,29.0,103187.0,1.2260323
327387452,-153.63503,29.0,103184.0,1.2259966
327408756,-153.14355,29.0,103178.0,1.2259253
327419443,-153.30737,29.0,103179.99,1.225949
327430607,-153.79884,29.0,103186.0,1.2260203
327454224,-153.22282,29.0,103178.99,1.2259371
327464694,-153.55576,29.0,103182.99,1.2259847
327474620,-153.71957,29.0,103185.0,1.2260085
327495518,-153.96268,29.0,103188.0,1.2260442
327506868,-152.97974,29.0,103176.0,1.2259016
327518106,-153.38664,29.0,103180.99,1.2259609
327539450,-153.79884,29.01,103186.0,1.2260203
327550371,-153.55576,29.01,103182.99,1.2259847
327561003,-153.79884,29.01,103186.0,1.2260203
327582292,-153.71957,29.01,103185.0,1.2260085
327592703,-153.4712,29.01,103181.99,1.2259728
327603437,-153.96268,29.01,103188.0,1.2260442
327625539,-153.96268,29.01,103188.0,1.2260442
327638250,-154.61797,29.01,103196.0,1.2261392
327649571,-153.55576,29.01,103182.99,1.2259847
327669505,-153.63503,29.01,103184.0,1.2259966
327682045,-153.96268,29.01,103188.0,1.2260442
327691507,-153.96268,29.01,103188.0,1.2260442
327714392,-154.70253,29.01,103197.0,1.2261511
327725853,-154.37488,29.01,103192.99,1.2261034
327736722,-154.04723,29.01,103189.0,1.226056
327756451,-153.55576,29.01,103182.99,1.2259847
327767628,-153.8834,29.01,103187.0,1.2260323
327779351,-154.04723,29.01,103189.0,1.226056
327799742,-153.96268,29.01,103188.0,1.2260442
327811615,-153.38664,29.01,103180.99,1.2259609
327823526,-153.55576,29.01,103182.99,1.2259847
327843491,-154.37488,29.01,103192.99,1.2261034
327855464,-154.21106,29.01,103191.0,1.2260798
327866536,-153.8834,29.01,103187.0,1.2260323
327889437,-154.5387,29.019999,103194.99,1.2261273
327899437,-154.9509,29.019999,103200.0,1.2261868
327909466,-154.37488,29.019999,103192.99,1.2261034
327931459,-154.29033,29.01,103191.99,1.2260916
327943135,-154.7818,29.01,103198.0,1.2261629
327953460,-154.5387,29.01,103194.99,1.2261273
327975050,-154.61797,29.019999,103196.0,1.2261392
327984761,-155.10944,29.019999,103202.0,1.2262105
327994674,-154.7818,29.019999,103198.0,1.2261629
328016471,-154.7818,29.019999,103198.0,1.2261629
328027521,-154.7818,29.019999,103198.0,1.2261629
328037494,-154.5387,29.019999,103194.99,1.2261273
328058561,-154.7818,29.019999,103198.0,1.2261629
328071550,-154.70253,29.019999,103197.0,1.2261511
328082633,-154.45415,29.019999,103193.99,1.2261153
328105563,-154.29033,29.019999,103191.99,1.2260916
328116974,-153.55576,29.019999,103182.99,1.2259847
328128773,-153.63503,29.019999,103184.0,1.2259966
328149619,-154.7818,29.029999,103198.0,1.2261629
328160677,-155.27327,29.029999,103203.99,1.2262342
328171469,-155.03017,29.029999,103201.0,1.2261986
328195568,-154.61797,29.029999,103196.0,1.2261392
328207700,-154.29033,29.029999,103191.99,1.2260916
328217487,-154.45415,29.029999,103193.99,1.2261153
328240190,-153.55576,29.019999,103182.99,1.2259847
328250775,-155.194,29.019999,103203.0,1.2262224
328263687,-154.86635,29.019999,103199.0,1.2261748
328288709,-153.79884,29.019999,103186.0,1.2260203
328298614,-154.04723,29.019999,103189.0,1.226056
328310884,-154.45415,29.019999,103193.99,1.2261153
328331488,-154.1265,29.019999,103190.0,1.2260679
328343130,-154.70253,29.019999,103197.0,1.2261511
328352639,-153.96268,29.019999,103188.0,1.2260442
328372483,-154.61797,29.029999,103196.0,1.2261392
328383901,-154.70253,29.029999,103197.0,1.2261511
328394572,-154.37488,29.029999,103192.99,1.2261034
328419594,-154.61797,29.029999,103196.0,1.2261392
328430992,-154.9509,29.029999,103200.0,1.2261868
328440503,-155.194,29.029999,103203.0,1.2262224
328463713,-154.70253,29.029999,103197.0,1.2261511
328474583,-154.61797,29.029999,103196.0,1.2261392
328485474,-154.5387,29.029999,103194.99,1.2261273
328506646,-154.9509,29.029999,103200.0,1.2261868
328517475,-154.86635,29.029999,103199.0,1.2261748
328529166,-154.1265,29.029999,103190.0,1.2260679
328548786,-154.29033,29.029999,103191.99,1.2260916
328558650,-154.37488,29.029999,103192.99,1.2261034
328569526,-154.86635,29.029999,103199.0,1.2261748
328590644,-154.21106,29.039999,103191.0,1.2260798
328600996,-154.9509,29.039999,103200.0,1.2261868
328612662,-154.29033,29.039999,103191.99,1.2260916
328636158,-154.04723,29.039999,103189.0,1.226056
328647019,-153.55576,29.039999,103182.99,1.2259847
328657238,-154.37488,29.039999,103192.99,1.2261034
328677103,-153.71957,29.039999,103185.0,1.2260085
328689183,-154.21106,29.039999,103191.0,1.2260798
328699926,-154.9509,29.039999,103200.0,1.2261868
328720496,-154.45415,29.039999,103193.99,1.2261153
328732192,-154.29033,29.039999,103191.99,1.2260916
328742597,-153.55576,29.039999,103182.99,1.2259847
328765016,-154.61797,29.039999,103196.0,1.2261392
328777103,-154.21106,29.039999,103191.0,1.2260798
328788196,-154.5387,29.039999,103194.99,1.2261273
328809470,-154.7818,29.05,103198.0,1.2261629
328820471,-154.61797,29.05,103196.0,1.2261392
328833377,-154.70253,29.05,103197.0,1.2261511
328853529,-154.61797,29.039999,103196.0,1.2261392
328866976,-154.37488,29.039999,103192.99,1.2261034
328877496,-154.1265,29.039999,103190.0,1.2260679
328901055,-154.45415,29.039999,103193.99,1.2261153
328910625,-154.1265,29.039999,103190.0,1.2260679
328921493,-154.1265,29.039999,103190.0,1.2260679
328942625,-153.96268,29.039999,103188.0,1.2260442
328953098,-154.5387,29.039999,103194.99,1.2261273
328962805,-153.71957,29.039999,103185.0,1.2260085
328985053,-154.5387,29.05,103194.99,1.2261273
328996527,-154.5387,29.05,103194.99,1.2261273
329006607,-154.61797,29.05,103196.0,1.2261392
329028691,-153.8834,29.05,103187.0,1.2260323
329038678,-154.29033,29.05,103191.99,1.2260916
329049065,-154.45415,29.05,103193.99,1.2261153
329073025,-153.8834,29.05,103187.0,1.2260323
329084475,-154.70253,29.05,103197.0,1.2261511
329097506,-154.86635,29.05,103199.0,1.2261748
329118871,-154.29033,29.05,103191.99,1.2260916
329129384,-154.04723,29.05,103189.0,1.226056
329138550,-154.21106,29.05,103191.0,1.2260798
329160493,-154.5387,29.05,103194.99,1.2261273
329171959,-154.5387,29.05,103194.99,1.2261273
329182550,-154.04723,29.05,103189.0,1.226056
329202996,-153.63503,29.06,103184.0,1.2259966
329213137,-154.1265,29.06,103190.0,1.2260679
329222535,-154.1265,29.06,103190.0,1.2260679
329245257,-153.71957,29.06,103185.0,1.2260085
329255470,-153.8834,29.06,103187.0,1.2260323
329266647,-153.79884,29.06,103186.0,1.2260203
329288481,-154.5387,29.06,103194.99,1.2261273
329299106,-154.1265,29.06,103190.0,1.2260679
329308466,-153.79884,29.06,103186.0,1.2260203
329331519,-153.71957,29.06,103185.0,1.2260085
329341814,-154.29033,29.06,103191.99,1.2260916
329351470,-154.04723,29.06,103189.0,1.226056
329373529,-153.79884,29.06,103186.0,1.2260203
329384470,-154.61797,29.06,103196.0,1.2261392
329394614,-154.29033,29.06,103191.99,1.2260916
329416482,-154.04723,29.07,103189.0,1.226056
329427873,-153.8834,29.07,103187.0,1.2260323
329437947,-153.96268,29.07,103188.0,1.2260442
329458982,-153.8834,29.06,103187.0,1.2260323
329469538,-153.71957,29.06,103185.0,1.2260085
329480476,-153.96268,29.06,103188.0,1.2260442
329502588,-153.96268,29.07,103188.0,1.2260442
329514217,-153.79884,29.07,103186.0,1.2260203
329524479,-154.1265,29.07,103190.0,1.2260679
329546551,-154.1265,29.07,103190.0,1.2260679
329557897,-154.1265,29.07,103190.0,1.2260679
329569225,-154.1265,29.07,103190.0,1.2260679
329590003,-154.04723,29.07,103189.0,1.226056
329600527,-153.79884,29.07,103186.0,1.2260203
329611796,-153.8834,29.07,103187.0,1.2260323
329635073,-153.79884,29.07,103186.0,1.2260203
