timestamp,x,y,z,yaw,yawspeed,vx,vy,vz,acc_x,acc_y,acc_z,thrust[0],thrust[1],thrust[2]
310018949,0.0,0.0,-1.9911127,0.49091527,0.0,0.0,0.0,-0.022384077,0.0,0.0,0.0,0.0,0.0,-0.08
310123721,0.0,0.0,-1.9988743,0.49091527,0.0,0.0,0.0,-0.024519537,0.0,0.0,0.0,0.0,0.0,-0.08
310228326,0.0,0.0,-2.0067632,0.49091527,0.0,0.0,0.0,-0.027096711,0.0,0.0,0.0,0.0,0.0,-0.08
310325098,0.0,0.0,-2.0121808,0.49091527,0.0,0.0,0.0,-0.028799893,0.0,0.0,0.0,0.0,0.0,-0.08
310428912,0.0,0.0,-2.0149086,0.49091527,0.0,0.0,0.0,-0.029768124,0.0,0.0,0.0,0.0,0.0,-0.08
310533058,0.0,0.0,-2.0164323,0.49091527,0.0,0.0,0.0,-0.030185407,0.0,0.0,0.0,0.0,0.0,-0.08
310637019,0.0,0.0,-2.01764,0.49091527,0.0,0.0,0.0,-0.028707832,0.0,0.0,0.0,0.0,0.0,-0.08
310738155,0.0,0.0,-2.013149,0.49091527,0.0,0.0,0.0,-0.026339563,0.0,0.0,0.0,0.0,0.0,-0.08
310834098,0.0,0.0,-2.0118644,0.49091527,0.0,0.0,0.0,-0.024463102,0.0,0.0,0.0,0.0,0.0,-0.08
310938218,0.0,0.0,-2.0098815,0.49091527,0.0,0.0,0.0,-0.023435099,0.0,0.0,0.0,0.0,0.0,-0.08
311043052,0.0,0.0,-2.0062902,0.49091527,0.0,0.0,0.0,-0.022044357,0.0,0.0,0.0,0.0,0.0,-0.08
311138691,0.0,0.0,-2.002451,0.49091527,0.0,0.0,0.0,-0.020326743,0.0,0.0,0.0,0.0,0.0,-0.08
311241982,0.0,0.0,-1.9968414,0.49091527,0.0,0.0,0.0,-0.018777907,0.0,0.0,0.0,0.0,0.0,-0.08
311346611,0.0,0.0,-1.9942524,0.49091527,0.0,0.0,0.0,-0.017897883,0.0,0.0,0.0,0.0,0.0,-0.08
311443632,0.0,0.0,-1.9905963,0.49091527,0.0,0.0,0.0,-0.015875539,0.0,0.0,0.0,0.0,0.0,-0.08
311547946,0.0,0.0,-1.9884466,0.49091527,0.0,0.0,0.0,-0.016050605,0.0,0.0,0.0,0.0,0.0,-0.08
311651798,0.0,0.0,-1.9849266,0.49091527,0.0,0.0,0.0,-0.014266382,0.0,0.0,0.0,0.0,0.0,-0.08
311747751,0.0,0.0,-1.9822812,0.49091527,0.0,0.0,0.0,-0.013553468,0.0,0.0,0.0,0.0,0.0,-0.0876683
311851702,0.0,0.0,-1.9824017,0.49091527,0.0,0.0,0.0,-0.014138562,0.0,0.0,0.0,0.0,0.0,-0.099499546
311956738,0.0,0.0,-1.9835727,0.49091527,0.0,0.0,0.0,-0.015247452,0.0,0.0,0.0,0.0,0.0,-0.10307902
312051909,0.0,0.0,-1.9856263,0.49091527,0.0,0.0,0.0,-0.016477762,0.0,0.0,0.0,0.0,0.0,-0.14199404
312155764,0.0,0.0,-1.988495,0.49091527,0.0,0.0,0.0,-0.018042114,0.0,0.0,0.0,0.0,0.0,-0.15837622
312261847,0.0,0.0,-1.9905621,0.49091527,0.0,0.0,0.0,-0.017593378,0.0,0.0,0.0,0.0,0.0,-0.17289451
312357235,0.0,0.0,-1.9911215,0.49091527,0.0,0.0,0.0,-0.01795904,0.0,0.0,0.0,0.0,0.0,-0.1823735
312461800,0.0,0.0,-1.9901912,0.49091527,0.0,0.0,0.0,-0.017621715,0.0,0.0,0.0,0.0,0.0,-0.1920637
312565245,0.0,0.0,-1.9909649,0.49091527,0.0,0.0,0.0,-0.017885229,0.0,0.0,0.0,0.0,0.0,-0.20961471
312661738,0.0,0.0,-1.9908818,0.49091527,0.0,0.0,0.0,-0.018533736,0.0,0.0,0.0,0.0,0.0,-0.21160078
312765249,0.0,0.0,-1.9901713,0.49091527,0.0,0.0,0.0,-0.017209742,0.0,0.0,0.0,0.0,0.0,-0.20954505
312869225,0.0,0.0,-1.9868572,0.49091527,0.0,0.0,0.0,-0.016220897,0.0,0.0,0.0,0.0,0.0,-0.21384062
312966921,0.0,0.0,-1.9824632,0.49091527,0.0,0.0,0.0,-0.013315358,0.0,0.0,0.0,0.0,0.0,-0.2156927
313070994,0.0,0.0,-1.9734757,0.49091527,0.0,0.0,0.0,-0.011552937,0.0,0.0,0.0,0.0,0.0,-0.22697048
313175400,0.0,0.0,-1.9638007,0.49091527,0.0,0.0,0.0,-0.007938512,0.0,0.0,0.0,0.0,0.0,-0.23995814
313278847,0.0,0.0,-1.9543875,0.49091527,0.0,0.0,0.0,-0.006871534,0.0,0.0,0.0,0.0,0.0,-0.24893862
313374918,0.0,0.0,-1.9499463,0.49091527,0.0,0.0,0.0,-0.0061600683,0.0,0.0,0.0,0.0,0.0,-0.25103414
313479423,0.0,0.0,-1.9472431,0.49091527,0.0,0.0,0.0,-0.0012290948,0.0,0.0,0.0,0.00021925912,0.000117208125,-0.25613186
313583110,0.0,0.0,-1.9451181,0.49091527,0.0,0.0,0.0,-0.0027577686,0.0,0.0,0.0,0.0021996195,0.006663677,-0.2667244
313684216,0.0,0.0,-1.9420974,0.49091527,0.0,0.0,0.0,-0.0026028135,0.0,0.0,0.0,0.0028183167,0.009236179,-0.29009113
313780481,0.0,0.0,-1.9390779,0.49091527,0.0,0.0,0.0,-0.0011349078,0.0,0.0,0.0,0.0029173216,0.009813529,-0.2993925
313885116,0.0,0.0,-1.9309244,0.49091527,0.0,0.0,0.0,0.0023790172,0.0,0.0,0.0,0.0037051695,0.011761661,-0.32305035
313989188,0.0,0.0,-1.922944,0.49091527,0.0,0.0,0.0,0.004116609,0.0,0.0,0.0,0.0055065686,0.015514472,-0.32124496
314092431,0.0,0.0,-1.9149493,0.49091527,0.0,0.0,0.0,0.008704532,0.0,0.0,0.0,0.0067490297,0.021980954,-0.32243818
314188546,0.0,0.0,-1.9112612,0.49091527,0.0,0.0,0.0,0.011057896,0.0,0.0,0.0,0.0072049433,0.023338033,-0.32232535
314292592,0.0,0.0,-1.9121021,0.49091527,0.0,0.0,0.0,0.006592171,0.0,0.0,0.0,0.008374215,0.026927037,-0.3455377
314397026,0.0,0.0,-1.9131851,0.49091527,0.0,0.0,0.0,0.0046158447,0.0,0.0,0.0,0.00949366,0.03102586,-0.3506957
314494179,0.0,0.0,-1.912341,0.49091527,0.0,0.0,0.0,0.001960875,0.0,0.0,0.0,0.010543323,0.03473961,-0.375241
314598319,0.0,0.0,-1.911652,0.49091527,0.0,0.0,0.0,-0.0012643995,0.0,0.0,0.0,0.011459442,0.037807718,-0.3949894
314694238,0.0,0.0,-1.915706,0.49091527,0.0,0.0,0.0,-0.0051818625,0.0,0.0,0.0,0.012924936,0.0424847,-0.42442963
314798116,0.0,0.0,-1.9238559,0.49091527,0.0,0.0,0.0,-0.0032789237,0.0,0.0,0.0,0.012858279,0.042400848,-0.4286071
314902332,0.0,0.0,-1.9357824,0.49091527,0.0,0.0,0.0,-0.004194797,0.0,0.0,0.0,0.015740074,0.05107581,-0.44245595
315006555,0.0,0.0,-1.9492223,0.49091527,0.0,0.0,0.0,-0.033081356,0.0,0.0,0.0,0.017026298,0.055655368,-0.45751363
315411800,0.0,0.0,-2.0312316,0.49091527,0.0,0.0,0.0,-0.06101811,0.0,0.0,0.0,0.013957467,0.047289442,-0.49167362
315515759,0.0,0.0,-2.0354602,0.49091527,0.0,0.0,0.0,-0.031733137,0.0,0.0,0.0,0.008725396,0.030120334,-0.49390295
315611812,0.0,0.0,-2.029663,0.49091527,0.0,0.0,0.0,8.926538e-05,0.0,0.0,0.0,0.007807343,0.025754292,-0.48536646
315715673,0.0,0.0,-2.0174394,0.49091527,0.0,0.0,0.0,0.036119144,0.0,0.0,0.0,0.003560196,0.019090733,-0.49458838
315820141,0.0,0.0,-2.014952,0.49091527,0.0,0.0,0.0,0.059668384,0.0,0.0,0.0,-2.2429458e-05,8.538043e-05,-0.4958073
315920470,0.0,0.0,-2.0140357,0.49091527,0.0,0.0,0.0,0.04748536,0.0,0.0,0.0,0.011848111,0.035508055,-0.49528864
316017269,0.0,0.0,-2.0148737,0.49091527,0.0,0.0,0.0,0.01850791,0.0,0.0,0.0,0.013388443,0.046600383,-0.4960723
316121863,0.0,0.0,-2.0199163,0.49091527,0.0,0.0,0.0,-0.0131337615,0.0,0.0,0.0,0.011245884,0.037958868,-0.50642043
316226065,0.0,0.0,-2.0242436,0.49091527,0.0,0.0,0.0,-0.035065588,0.0,0.0,0.0,0.011532783,0.036777202,-0.5063022
316321366,0.0,0.0,-2.0289962,0.49091527,0.0,0.0,0.0,-0.07512881,0.0,0.0,0.0,0.0124203665,0.04088917,-0.5134744
316425120,0.0,0.0,-2.0367277,0.49091527,0.0,0.0,0.0,-0.14532492,0.0,0.0,0.0,0.006557073,0.027705176,-0.53419155
316530090,0.0,0.0,-2.0543945,0.49091527,0.0,0.0,0.0,-0.24325186,0.0,0.0,0.0,0.0013486509,0.0067735445,-0.53967416
316633261,0.0,0.0,-2.0863883,0.49091527,0.0,0.0,0.0,-0.3735191,0.0,0.0,0.0,1.8001558e-05,-1.91617e-05,-0.54247767
316735068,0.0,0.0,-2.1275105,0.49091527,0.0,0.0,0.0,-0.4740356,0.0,0.0,0.0,2.0054454e-09,-1.0821252e-08,-0.5434929
316838982,0.0,0.0,-2.1920907,0.49091527,0.0,0.0,0.0,-0.56540734,0.0,0.0,0.0,0.0,0.0,-0.5410141
316934814,0.0,0.0,-2.26198,0.49091527,0.0,0.0,0.0,-0.621831,0.0,0.0,0.0,0.0,0.0,-0.5419677
317039050,0.0,0.0,-2.3409793,0.49091527,0.0,0.0,0.0,-0.6643635,0.0,0.0,0.0,0.0,0.0,-0.54098356
317142916,0.0,0.0,-2.424341,0.49091527,0.0,0.0,0.0,-0.6888025,0.0,0.0,0.0,0.0,0.0,-0.5410859
317239597,0.0,0.0,-2.503695,0.49091527,0.0,0.0,0.0,-0.7063946,0.0,0.0,0.0,0.0,0.0,-0.5402073
317343130,0.0,0.0,-2.5862055,0.49091527,0.0,0.0,0.0,-0.73132765,0.0,0.0,0.0,0.0,0.0,-0.5395702
317449066,0.0,0.0,-2.6738358,0.49091527,0.0,0.0,0.0,-0.7442964,0.0,0.0,0.0,0.0,0.0,-0.5411759
317552691,0.0,0.0,-2.760355,0.49091527,0.0,0.0,0.0,-0.7563914,0.0,0.0,0.0,0.0,0.0,-0.53979784
317648926,0.0,0.0,-2.8464797,0.49091527,0.0,0.0,0.0,-0.7550486,0.0,0.0,0.0,0.0,0.0,-0.5405215
317752560,0.0,0.0,-2.938655,0.49091527,0.0,0.0,0.0,-0.75138456,0.0,0.0,0.0,0.0,0.0,-0.5397661
317857271,0.0,0.0,-3.0304728,0.49091527,0.0,0.0,0.0,-0.76046246,0.0,0.0,0.0,0.0,0.0,-0.5407118
317953324,0.0,0.0,-3.118797,0.49091527,0.0,0.0,0.0,-0.7565839,0.0,0.0,0.0,0.0,0.0,-0.54178995
318056416,0.0,0.0,-3.2144012,0.49091527,0.0,0.0,0.0,-0.7710807,0.0,0.0,0.0,0.0,0.0,-0.5422983
318162112,0.0,0.0,-3.3150942,0.49091527,0.0,0.0,0.0,-0.7752923,0.0,0.0,0.0,0.0,0.0,-0.54650295
318258190,0.0,0.0,-3.4118826,0.49091527,0.0,0.0,0.0,-0.7950725,0.0,0.0,0.0,0.0,0.0,-0.54789853
318361993,0.0,0.0,-3.5160873,0.49091527,0.0,0.0,0.0,-0.8278532,0.0,0.0,0.0,0.0,0.0,-0.5680478
319276186,0.0,0.0,-4.723885,0.49091527,0.0,0.0,0.0,-1.5260915,0.0,0.0,0.0,0.0,0.0,-0.5492891
319380531,0.0,0.0,-4.897278,0.49091527,0.0,0.0,0.0,-1.5192008,0.0,0.0,0.0,0.0,0.0,-0.4978192
319483634,0.0,0.0,-5.055642,0.49091527,0.0,0.0,0.0,-1.358616,0.0,0.0,0.0,0.0,0.0,-0.4973802
319580192,0.0,0.0,-5.185755,0.49091527,0.0,0.0,0.0,-1.208341,0.0,0.0,0.0,0.0,0.0,-0.4973464
319685558,0.0,0.0,-5.304058,0.49091527,0.0,0.0,0.0,-1.0199988,0.0,0.0,0.0,0.0,0.0,-0.49626258
319789252,0.0,0.0,-5.398349,0.49091527,0.0,0.0,0.0,-0.8651608,0.0,0.0,0.0,0.0,0.0,-0.49628264
319885941,0.0,0.0,-5.464941,0.49091527,0.0,0.0,0.0,-0.7043013,0.0,0.0,0.0,0.0,0.0,-0.49517554
319989318,0.0,0.0,-5.5165596,0.49091527,0.0,0.0,0.0,-0.53159386,0.0,0.0,0.0,0.0,0.0,-0.49522227
320093259,0.0,0.0,-5.5491896,0.49091527,0.0,0.0,0.0,-0.3696855,0.0,0.0,0.0,0.0,0.0,-0.49556476
320189235,0.0,0.0,-5.5631666,0.49091527,0.0,0.0,0.0,-0.20772947,0.0,0.0,0.0,0.0,0.0,-0.49523032
320294120,0.0,0.0,-5.5646043,0.49091527,0.0,0.0,0.0,-0.057904895,0.0,0.0,0.0,0.0,0.0,-0.49574047
320399466,0.0,0.0,-5.5484486,0.49091527,0.0,0.0,0.0,0.08689005,0.0,0.0,0.0,0.0,0.0,-0.49568263
320503360,0.0,0.0,-5.5147486,0.49091527,0.0,0.0,0.0,0.2349847,0.0,0.0,0.0,0.0,0.0,-0.49522838
320599484,0.0,0.0,-5.4710627,0.49091527,0.0,0.0,0.0,0.3785484,0.0,0.0,0.0,0.0,0.0,-0.4951977
320703611,0.0,0.0,-5.40842,0.49091527,0.0,0.0,0.0,0.5456507,0.0,0.0,0.0,0.0,0.0,-0.4954422
320807615,0.0,0.0,-5.3300786,0.49091527,0.0,0.0,0.0,0.69462824,0.0,0.0,0.0,0.0,0.0,-0.49716347
320902865,0.0,0.0,-5.239964,0.49091527,0.0,0.0,0.0,0.8227891,0.0,0.0,0.0,0.0,0.0,-0.4966246
321007356,0.0,0.0,-5.126608,0.49091527,0.0,0.0,0.0,0.9679031,0.0,0.0,0.0,0.0,0.0,-0.50652754
321111903,0.0,0.0,-5.003711,0.49091527,0.0,0.0,0.0,1.0888388,0.0,0.0,0.0,0.0,0.0,-0.5594615
321208471,0.0,0.0,-4.882096,0.49091527,0.0,0.0,0.0,1.0355407,0.0,0.0,0.0,0.0,0.0,-0.5890284
321313050,0.0,0.0,-4.765083,0.49091527,0.0,0.0,0.0,0.8630172,0.0,0.0,0.0,0.0,0.0,-0.62842226
321416493,0.0,0.0,-4.6758113,0.49091527,0.0,0.0,0.0,0.56963235,0.0,0.0,0.0,0.0,0.0,-0.66423506
321512560,0.0,0.0,-4.628411,0.49091527,0.0,0.0,0.0,0.19862257,0.0,0.0,0.0,0.0,0.0,-0.663491
321616975,0.0,0.0,-4.6222496,0.49091527,0.0,0.0,0.0,-0.22522655,0.0,0.0,0.0,0.0,0.0,-0.658454
321720983,0.0,0.0,-4.6634183,0.49091527,0.0,0.0,0.0,-0.62621343,0.0,0.0,0.0,0.0,0.0,-0.65755844
321816770,0.0,0.0,-4.742386,0.49091527,0.0,0.0,0.0,-0.9767038,0.0,0.0,0.0,0.0,0.0,-0.6354574
321922207,0.0,0.0,-4.8644443,0.49091527,0.0,0.0,0.0,-1.2592599,0.0,0.0,0.0,0.0,0.0,-0.59825814
322026894,0.0,0.0,-5.0099587,0.49091527,0.0,0.0,0.0,-1.4361161,0.0,0.0,0.0,0.0,0.0,-0.57014126
322122153,0.0,0.0,-5.1600094,0.49091527,0.0,0.0,0.0,-1.504091,0.0,0.0,0.0,0.0,0.0,-0.52120227
322226540,0.0,0.0,-5.3198338,0.49091527,0.0,0.0,0.0,-1.419127,0.0,0.0,0.0,0.0,0.0,-0.49839953
322330033,0.0,0.0,-5.461855,0.49091527,0.0,0.0,0.0,-1.2516246,0.0,0.0,0.0,0.0,0.0,-0.49668974
322425967,0.0,0.0,-5.5761113,0.49091527,0.0,0.0,0.0,-1.0692873,0.0,0.0,0.0,0.0,0.0,-0.497059
322530136,0.0,0.0,-5.6784105,0.49091527,0.0,0.0,0.0,-0.8964318,0.0,0.0,0.0,0.0,0.0,-0.49650702
322632641,0.0,0.0,-5.7549744,0.49091527,0.0,0.0,0.0,-0.7163818,0.0,0.0,0.0,0.0,0.0,-0.49712896
322735679,0.0,0.0,-5.811432,0.49091527,0.0,0.0,0.0,-0.5484497,0.0,0.0,0.0,0.0,0.0,-0.49729127
322831647,0.0,0.0,-5.8465104,0.49091527,0.0,0.0,0.0,-0.4292727,0.0,0.0,0.0,0.0,0.0,-0.4971269
322936378,0.0,0.0,-5.8670206,0.49091527,0.0,0.0,0.0,-0.26280352,0.0,0.0,0.0,0.0,0.0,-0.49832743
323039734,0.0,0.0,-5.8694787,0.49091527,0.0,0.0,0.0,-0.10605896,0.0,0.0,0.0,0.0,0.0,-0.49735463
323135712,0.0,0.0,-5.85913,0.49091527,0.0,0.0,0.0,0.03364249,0.0,0.0,0.0,0.0,0.0,-0.49808365
323239646,0.0,0.0,-5.832336,0.49091527,0.0,0.0,0.0,0.18023603,0.0,0.0,0.0,0.0,0.0,-0.497258
323344665,0.0,0.0,-5.7853546,0.49091527,0.0,0.0,0.0,0.34222102,0.0,0.0,0.0,0.0,0.0,-0.49734616
323441819,0.0,0.0,-5.7281685,0.49091527,0.0,0.0,0.0,0.5039713,0.0,0.0,0.0,0.0,0.0,-0.5038851
323545228,0.0,0.0,-5.652795,0.49091527,0.0,0.0,0.0,0.64102256,0.0,0.0,0.0,0.0,0.0,-0.50570756
323649715,0.0,0.0,-5.566659,0.49091527,0.0,0.0,0.0,0.7690864,0.0,0.0,0.0,0.0,0.0,-0.5154625
323745989,0.0,0.0,-5.4768696,0.49091527,0.0,0.0,0.0,0.8484378,0.0,0.0,0.0,0.0,0.0,-0.5411436
323849739,0.0,0.0,-5.3739657,0.49091527,0.0,0.0,0.0,0.85919905,0.0,0.0,0.0,0.0,0.0,-0.5458249
323954224,0.0,0.0,-5.2660294,0.49091527,0.0,0.0,0.0,0.8523792,0.0,0.0,0.0,0.0,0.0,-0.5520527
324050068,0.0,0.0,-5.1734138,0.49091527,0.0,0.0,0.0,0.7991258,0.0,0.0,0.0,0.0,0.0,-0.57248265
324154931,0.0,0.0,-5.0840664,0.49091527,0.0,0.0,0.0,0.6810941,0.0,0.0,0.0,0.0,0.0,-0.566493
324259123,0.0,0.0,-5.0025525,0.49091527,0.0,0.0,0.0,0.5852792,0.0,0.0,0.0,0.0,0.0,-0.5659028
324355428,0.0,0.0,-4.9435606,0.49091527,0.0,0.0,0.0,0.49452975,0.0,0.0,0.0,0.0,0.0,-0.57370037
324458848,0.0,0.0,-4.895405,0.49091527,0.0,0.0,0.0,0.38697174,0.0,0.0,0.0,0.0,0.0,-0.5752993
324563350,0.0,0.0,-4.8581634,0.49091527,0.0,0.0,0.0,0.26492324,0.0,0.0,0.0,0.0,0.0,-0.57389545
324659664,0.0,0.0,-4.832087,0.49091527,0.0,0.0,0.0,0.14451183,0.0,0.0,0.0,0.0,0.0,-0.5728555
324762962,0.0,0.0,-4.806428,0.49091527,0.0,0.0,0.0,0.039425325,0.0,0.0,0.0,0.0,0.0,-0.5731455
324869252,0.0,0.0,-4.792586,0.49091527,0.0,0.0,0.0,-0.05860529,0.0,0.0,0.0,0.0,0.0,-0.57384205
324973263,0.0,0.0,-4.8003807,0.49091527,0.0,0.0,0.0,-0.16099715,0.0,0.0,0.0,0.0,0.0,-0.57395583
325069115,0.0,0.0,-4.823362,0.49091527,0.0,0.0,0.0,-0.26349464,0.0,0.0,0.0,0.0,0.0,-0.5744367
325173445,0.0,0.0,-4.8573966,0.49091527,0.0,0.0,0.0,-0.35729983,0.0,0.0,0.0,0.0,0.0,-0.57396656
325276474,0.0,0.0,-4.8989697,0.49091527,0.0,0.0,0.0,-0.4547696,0.0,0.0,0.0,0.0,0.0,-0.5753577
325372481,0.0,0.0,-4.945095,0.49091527,0.0,0.0,0.0,-0.5483443,0.0,0.0,0.0,0.0,0.0,-0.5765867
325476683,0.0,0.0,-5.0068064,0.49091527,0.0,0.0,0.0,-0.64935225,0.0,0.0,0.0,0.0,0.0,-0.57736665
325582698,0.0,0.0,-5.0805407,0.49091527,0.0,0.0,0.0,-0.7364513,0.0,0.0,0.0,0.0,0.0,-0.57638174
325678312,0.0,0.0,-5.154054,0.49091527,0.0,0.0,0.0,-0.8249626,0.0,0.0,0.0,0.0,0.0,-0.57674783
325782921,0.0,0.0,-5.2402,0.49091527,0.0,0.0,0.0,-0.9008107,0.0,0.0,0.0,0.0,0.0,-0.5728932
325886022,0.0,0.0,-5.334032,0.49091527,0.0,0.0,0.0,-0.9865918,0.0,0.0,0.0,0.0,0.0,-0.5727005
325982012,0.0,0.0,-5.4264536,0.49091527,0.0,0.0,0.0,-1.0325218,0.0,0.0,0.0,0.0,0.0,-0.5722926
326086006,0.0,0.0,-5.5312047,0.49091527,0.0,0.0,0.0,-1.0914533,0.0,0.0,0.0,0.0,0.0,-0.569113
326190026,0.0,0.0,-5.6395516,0.49091527,0.0,0.0,0.0,-1.131446,0.0,0.0,0.0,0.0,0.0,-0.5191344
326286830,0.0,0.0,-5.7400975,0.49091527,0.0,0.0,0.0,-1.0230634,0.0,0.0,0.0,0.0,0.0,-0.49739853
326391672,0.0,0.0,-5.8295903,0.49091527,0.0,0.0,0.0,-0.82524616,0.0,0.0,0.0,0.0,0.0,-0.49641874
326496257,0.0,0.0,-5.898994,0.49091527,0.0,0.0,0.0,-0.6169994,0.0,0.0,0.0,0.0,0.0,-0.49622834
326599858,0.0,0.0,-5.950222,0.49091527,0.0,0.0,0.0,-0.42110944,0.0,0.0,0.0,0.0,0.0,-0.49628422
326695700,0.0,0.0,-5.979643,0.49091527,0.0,0.0,0.0,-0.2556155,0.0,0.0,0.0,0.0,0.0,-0.49724033
326799656,0.0,0.0,-5.9885063,0.49091527,0.0,0.0,0.0,-0.043965578,0.0,0.0,0.0,0.0,0.0,-0.49629426
326904699,0.0,0.0,-5.9748406,0.49091527,0.0,0.0,0.0,0.16111434,0.0,0.0,0.0,0.0,0.0,-0.49736586
327000429,0.0,0.0,-5.944541,0.49091527,0.0,0.0,0.0,0.32672492,0.0,0.0,0.0,0.0,0.0,-0.49620408
327101996,0.0,0.0,-5.896988,0.49091527,0.0,0.0,0.0,0.4941596,0.0,0.0,0.0,0.0,0.0,-0.49646914
327205534,0.0,0.0,-5.8284087,0.49091527,0.0,0.0,0.0,0.6819424,0.0,0.0,0.0,0.0,0.0,-0.4961931
327309911,0.0,0.0,-5.7392635,0.49091527,0.0,0.0,0.0,0.8555402,0.0,0.0,0.0,0.0,0.0,-0.49672088
327414296,0.0,0.0,-5.6346545,0.49091527,0.0,0.0,0.0,1.0047268,0.0,0.0,0.0,0.0,0.0,-0.49656722
327517238,0.0,0.0,-5.512358,0.49091527,-0.0,0.0,0.0,1.1639745,0.0,0.0,0.0,0.0,0.0,-0.5039421
327614331,0.0,0.0,-5.387178,0.49091527,-0.0,0.0,0.0,1.2972413,0.0,0.0,0.0,0.0,0.0,-0.5135602
327717210,0.0,0.0,-5.246363,0.49091527,-0.0,0.0,0.0,1.352885,0.0,0.0,0.0,0.0,0.0,-0.5496142
327823462,0.0,0.0,-5.10278,0.49091527,-0.0,0.0,0.0,1.3265741,0.0,0.0,0.0,0.0,0.0,-0.5793828
327927510,0.0,0.0,-4.96769,0.49091527,-0.0,0.0,0.0,1.2176875,0.0,0.0,0.0,0.0,0.0,-0.5763106
328023413,0.0,0.0,-4.8584895,0.49091527,-0.0,0.0,0.0,1.0934623,0.0,0.0,0.0,0.0,0.0,-0.5777929
328127311,0.0,0.0,-4.750936,0.49091527,-0.0,0.0,0.0,0.9327391,0.0,0.0,0.0,0.0,0.0,-0.5935078
328230972,0.0,0.0,-4.6509967,0.49091527,-0.0,0.0,0.0,0.76812154,0.0,0.0,0.0,0.0,0.0,-0.592933
328327423,0.0,0.0,-4.5775256,0.49091527,0.0,0.0,0.0,0.60127217,0.0,0.0,0.0,0.0,0.0,-0.59322244
328430850,0.0,0.0,-4.517863,0.49091527,0.0,0.0,0.0,0.42090383,0.0,0.0,0.0,0.0,0.0,-0.5915998
328537283,0.0,0.0,-4.481936,0.49091527,0.0,0.0,0.0,0.26884195,0.0,0.0,0.0,0.0,0.0,-0.59271234
328641051,0.0,0.0,-4.466385,0.49091527,0.0,0.0,0.0,0.102298014,0.0,0.0,0.0,0.0,0.0,-0.5903757
328736452,0.0,0.0,-4.466099,0.49091527,-0.0,0.0,0.0,-0.033176925,0.0,0.0,0.0,0.0,0.0,-0.5912699
328841264,0.0,0.0,-4.4872456,0.49091527,0.0,0.0,0.0,-0.17979555,0.0,0.0,0.0,0.0,0.0,-0.5913855
328945046,0.0,0.0,-4.5303497,0.49091527,0.0,0.0,0.0,-0.32363132,0.0,0.0,0.0,0.0,0.0,-0.5904425
329040503,0.0,0.0,-4.583504,0.49091527,0.0,0.0,0.0,-0.4517702,0.0,0.0,0.0,0.0,0.0,-0.5912784
329144385,0.0,0.0,-4.656906,0.49091527,0.0,0.0,0.0,-0.5814067,0.0,0.0,0.0,0.0,0.0,-0.5903701
329250296,0.0,0.0,-4.7467895,0.49091527,-0.0,0.0,0.0,-0.7224823,0.0,0.0,0.0,0.0,0.0,-0.5912198
329346562,0.0,0.0,-4.8383527,0.49091527,-0.0,0.0,0.0,-0.8412821,0.0,0.0,0.0,0.0,0.0,-0.589609
329450132,0.0,0.0,-4.953233,0.49091527,-0.0,0.0,0.0,-0.94609857,0.0,0.0,0.0,0.0,0.0,-0.589912
329554587,0.0,0.0,-5.0828624,0.49091527,0.0,0.0,0.0,-1.0689054,0.0,0.0,0.0,0.0,0.0,-0.5912644
329650829,0.0,0.0,-5.211507,0.49091527,0.0,0.0,0.0,-1.1734282,0.0,0.0,0.0,0.0,0.0,-0.58987945
329754054,0.0,0.0,-5.3584695,0.49091527,-0.0,0.0,0.0,-1.267445,0.0,0.0,0.0,0.0,0.0,-0.58981913
329858780,0.0,0.0,-5.5096526,0.49091527,-0.0,0.0,0.0,-1.3526901,0.0,0.0,0.0,0.0,0.0,-0.53855807
329954824,0.0,0.0,-5.6462574,0.49091527,-0.0,0.0,0.0,-1.2912993,0.0,0.0,0.0,0.0,0.0,-0.49528098
330059080,0.0,0.0,-5.780946,0.49091527,0.0,0.0,0.0,-1.0864395,0.0,0.0,0.0,0.0,0.0,-0.49595326
330163665,0.0,0.0,-5.8975925,0.49091527,0.0,0.0,0.0,-0.8844958,0.0,0.0,0.0,0.0,0.0,-0.49513403
330258951,0.0,0.0,-5.982412,0.49091527,0.0,0.0,0.0,-0.7087209,0.0,0.0,0.0,0.0,0.0,-0.49543953
330362834,0.0,0.0,-6.0470943,0.49091527,-0.0,0.0,0.0,-0.5242224,0.0,0.0,0.0,0.0,0.0,-0.49645302
330467154,0.0,0.0,-6.088206,0.49091527,-0.0,0.0,0.0,-0.33418232,0.0,0.0,0.0,0.0,0.0,-0.49511698
330563028,0.0,0.0,-6.1084514,0.49091527,-0.0,0.0,0.0,-0.16735223,0.0,0.0,0.0,0.0,0.0,-0.49685204
330667431,0.0,0.0,-6.1131964,0.49091527,0.0,0.0,0.0,0.007983472,0.0,0.0,0.0,0.0,0.0,-0.49566105
330770746,0.0,0.0,-6.099958,0.49091527,0.0,0.0,0.0,0.201665,0.0,0.0,0.0,0.0,0.0,-0.49519295
330875659,0.0,0.0,-6.0655866,0.49091527,0.0,0.0,0.0,0.38722432,0.0,0.0,0.0,0.0,0.0,-0.49556416
330972689,0.0,0.0,-6.018126,0.49091527,0.0,0.0,0.0,0.5463692,0.0,0.0,0.0,0.0,0.0,-0.49523032
331077174,0.0,0.0,-5.950021,0.49091527,0.0,0.0,0.0,0.71145874,0.0,0.0,0.0,0.0,0.0,-0.49706808
331172482,0.0,0.0,-5.872879,0.49091527,0.0,0.0,0.0,0.87426513,0.0,0.0,0.0,0.0,0.0,-0.496188
331276711,0.0,0.0,-5.774708,0.49091527,0.0,0.0,0.0,1.0424668,0.0,0.0,0.0,0.0,0.0,-0.49628478
331381015,0.0,0.0,-5.657403,0.49091527,0.0,0.0,0.0,1.2131944,0.0,0.0,0.0,0.0,0.0,-0.49736583
331476936,0.0,0.0,-5.528717,0.49091527,0.0,0.0,0.0,1.3693261,0.0,0.0,0.0,0.0,0.0,-0.5007027
331581256,0.0,0.0,-5.3720527,0.49091527,-0.0,0.0,0.0,1.5146649,0.0,0.0,0.0,0.0,0.0,-0.5428603
331681994,0.0,0.0,-5.2100735,0.49091527,-0.0,0.0,0.0,1.4962039,0.0,0.0,0.0,0.0,0.0,-0.5859836
331786871,0.0,0.0,-5.0543313,0.49091527,-0.0,0.0,0.0,1.3815612,0.0,0.0,0.0,0.0,0.0,-0.58421624
331890029,0.0,0.0,-4.911521,0.49091527,0.0,0.0,0.0,1.2306577,0.0,0.0,0.0,0.0,0.0,-0.58263963
331986599,0.0,0.0,-4.795025,0.49091527,-0.0,0.0,0.0,1.1141292,0.0,0.0,0.0,0.0,0.0,-0.5786275
332090537,0.0,0.0,-4.687328,0.49091527,-0.0,0.0,0.0,0.985828,0.0,0.0,0.0,0.0,0.0,-0.5752006
332194062,0.0,0.0,-4.5959783,0.49091527,-0.0,0.0,0.0,0.8706746,0.0,0.0,0.0,0.0,0.0,-0.5738059
332290057,0.0,0.0,-4.5195856,0.49091527,-0.0,0.0,0.0,0.77416545,0.0,0.0,0.0,0.0,0.0,-0.5742185
332394894,0.0,0.0,-4.446097,0.49091527,0.0,0.0,0.0,0.67847544,0.0,0.0,0.0,0.0,0.0,-0.57212657
332491672,0.0,0.0,-4.385083,0.49091527,0.0,0.0,0.0,0.5861097,0.0,0.0,0.0,0.0,0.0,-0.5701559
332595660,0.0,0.0,-4.32654,0.49091527,0.0,0.0,0.0,0.50976497,0.0,0.0,0.0,0.0,0.0,-0.5710432
332699673,0.0,0.0,-4.2790155,0.49091527,-0.0,0.0,0.0,0.43690827,0.0,0.0,0.0,0.0,0.0,-0.56543213
332795673,0.0,0.0,-4.246644,0.49091527,-0.0,0.0,0.0,0.37598222,0.0,0.0,0.0,0.0,0.0,-0.55357206
332900210,0.0,0.0,-4.2166815,0.49091527,-0.0,0.0,0.0,0.34685075,0.0,0.0,0.0,0.0013244203,0.0037825764,-0.5454853
333004396,0.0,0.0,-4.183945,0.49091527,-0.0,0.0,0.0,0.35235628,0.0,0.0,0.0,0.0064208917,0.019478252,-0.54210913
333107804,0.0,0.0,-4.1522884,0.49091527,0.0,0.0,0.0,0.36139113,0.0,0.0,0.0,0.008600816,0.028703332,-0.54112875
333204454,0.0,0.0,-4.124771,0.49091527,0.0,0.0,0.0,0.39195472,0.0,0.0,0.0,0.01161041,0.03635247,-0.5397062
333309223,0.0,0.0,-4.091187,0.49091527,-0.0,0.0,0.0,0.4146297,0.0,0.0,0.0,0.0010735503,0.007606679,-0.5412927
333412641,0.0,0.0,-4.0493784,0.49091527,-0.0,0.0,0.0,0.44279796,0.0,0.0,0.0,0.00034549076,0.0011370673,-0.54141957
333509184,0.0,0.0,-4.0026355,0.49091527,-0.0,0.0,0.0,0.46778682,0.0,0.0,0.0,1.38585765e-05,-9.378764e-05,-0.54082924
333612442,0.0,0.0,-3.953769,0.49091527,-0.0,0.0,0.0,0.49586135,0.0,0.0,0.0,-1.0003173e-08,-5.2601137e-09,-0.5437996
333716441,0.0,0.0,-3.898679,0.49091527,-0.0,0.0,0.0,0.51926005,0.0,0.0,0.0,0.0,0.0,-0.5512043
333812616,0.0,0.0,-3.844551,0.49091527,-0.0,0.0,0.0,0.52393985,0.0,0.0,0.0,0.0,0.0,-0.5560536
333916727,0.0,0.0,-3.7864103,0.49091527,-0.0,0.0,0.0,0.5109439,0.0,0.0,0.0,0.0014079093,0.0017245815,-0.5590151
334020401,0.0,0.0,-3.7323024,0.49091527,-0.0,0.0,0.0,0.48016292,0.0,0.0,0.0,0.0023950806,0.007669597,-0.5581503
334122315,0.0,0.0,-3.6851552,0.49091527,-0.0,0.0,0.0,0.45637557,0.0,0.0,0.0,-0.00018109816,0.0013889062,-0.55878145
334218302,0.0,0.0,-3.6478698,0.49091527,-0.0,0.0,0.0,0.43923128,0.0,0.0,0.0,0.0022426767,0.0036259647,-0.5587706
334322038,0.0,0.0,-3.6155896,0.49091527,-0.0,0.0,0.0,0.3905386,0.0,0.0,0.0,0.0076569673,0.027684184,-0.55602646
334426888,0.0,0.0,-3.5856953,0.49091527,-0.0,0.0,0.0,0.37054697,0.0,0.0,0.0,0.0054517905,0.020252185,-0.55496424
334530796,0.0,0.0,-3.5470812,0.49091527,-0.0,0.0,0.0,0.34862196,0.0,0.0,0.0,0.006410859,0.021712292,-0.5545398
334626240,0.0,0.0,-3.513859,0.49091527,-0.0,0.0,0.0,0.33256298,0.0,0.0,0.0,-0.00018217234,-0.0002508743,-0.5563532
334730088,0.0,0.0,-3.4823265,0.49091527,-0.0,0.0,0.0,0.30183473,0.0,0.0,0.0,-8.470496e-08,1.2634437e-07,-0.55497026
334834963,0.0,0.0,-3.4538333,0.49091527,-0.0,0.0,0.0,0.27617085,0.0,0.0,0.0,0.0,0.0,-0.5558729
334932380,0.0,0.0,-3.430737,0.49091527,-0.0,0.0,0.0,0.26599208,0.0,0.0,0.0,0.0,0.0,-0.5638443
335036247,0.0,0.0,-3.4116545,0.49091527,-0.0,0.0,0.0,0.21731517,0.0,0.0,0.0,0.0,0.0,-0.57130927
335139722,0.0,0.0,-3.395803,0.49091527,-0.0,0.0,0.0,0.15820225,0.0,0.0,0.0,0.0,0.0,-0.571123
335236377,0.0,0.0,-3.3799164,0.49091527,-0.0,0.0,0.0,0.10376919,0.0,0.0,0.0,0.0,0.0,-0.57014865
335339838,0.0,0.0,-3.3686345,0.49091527,-0.0,0.0,0.0,0.04651723,0.0,0.0,0.0,0.0,0.0,-0.570425
335443619,0.0,0.0,-3.3696814,0.49091527,-0.0,0.0,0.0,-0.011809809,0.0,0.0,0.0,0.0,0.0,-0.5728554
335539714,0.0,0.0,-3.3824048,0.49091527,-0.0,0.0,0.0,-0.079339586,0.0,0.0,0.0,0.0,0.0,-0.58457696
335641345,0.0,0.0,-3.4063656,0.49091527,-0.0,0.0,0.0,-0.1713578,0.0,0.0,0.0,0.0,0.0,-0.5885773
335745286,0.0,0.0,-3.4405644,0.49091527,-0.0,0.0,0.0,-0.29268414,0.0,0.0,0.0,0.0,0.0,-0.5917281
335849258,0.0,0.0,-3.4858744,0.49091527,-0.0,0.0,0.0,-0.41768202,0.0,0.0,0.0,0.0,0.0,-0.5975708
335954207,0.0,0.0,-3.5418282,0.49091527,-0.0,0.0,0.0,-0.54406714,0.0,0.0,0.0,0.0,0.0,-0.5966805
336057244,0.0,0.0,-3.6103742,0.49091527,-0.0,0.0,0.0,-0.67722887,0.0,0.0,0.0,0.0,0.0,-0.5967119
336153351,0.0,0.0,-3.6844804,0.49091527,-0.0,0.0,0.0,-0.7807147,0.0,0.0,0.0,0.0,0.0,-0.5971218
336257259,0.0,0.0,-3.7830174,0.49091527,-0.0,0.0,0.0,-0.9043728,0.0,0.0,0.0,0.0,0.0,-0.59672374
336363132,0.0,0.0,-3.895104,0.49091527,-0.0,0.0,0.0,-1.0133756,0.0,0.0,0.0,0.0,0.0,-0.5960131
336459073,0.0,0.0,-4.0042725,0.49091527,-0.0,0.0,0.0,-1.1088101,0.0,0.0,0.0,0.0,0.0,-0.5945021
336562812,0.0,0.0,-4.135142,0.49091527,-0.0,0.0,0.0,-1.2072649,0.0,0.0,0.0,0.0,0.0,-0.5831262
336667446,0.0,0.0,-4.2769513,0.49091527,0.0,0.0,0.0,-1.2516462,0.0,0.0,0.0,0.0,0.0,-0.5305679
336772228,0.0,0.0,-4.4120426,0.49091527,0.0,0.0,0.0,-1.1256236,0.0,0.0,0.0,0.0,0.0,-0.49765417
336867132,0.0,0.0,-4.518488,0.49091527,-0.0,0.0,0.0,-0.9284734,0.0,0.0,0.0,0.0,0.0,-0.4967483
336970852,0.0,0.0,-4.6105123,0.49091527,-0.0,0.0,0.0,-0.70034814,0.0,0.0,0.0,0.0,0.0,-0.49468264
337076621,0.0,0.0,-4.675808,0.49091527,-0.0,0.0,0.0,-0.47292194,0.0,0.0,0.0,0.0,0.0,-0.49595872
337172974,0.0,0.0,-4.7069726,0.49091527,0.0,0.0,0.0,-0.26150566,0.0,0.0,0.0,0.0,0.0,-0.49627572
337276468,0.0,0.0,-4.7150936,0.49091527,0.0,0.0,0.0,-0.03986179,0.0,0.0,0.0,0.0,0.0,-0.49628374
337380406,0.0,0.0,-4.6974835,0.49091527,-0.0,0.0,0.0,0.16234462,0.0,0.0,0.0,0.0,0.0,-0.49621296
337477092,0.0,0.0,-4.6607704,0.49091527,-0.0,0.0,0.0,0.33391386,0.0,0.0,0.0,0.0,0.0,-0.49297702
337580971,0.0,0.0,-4.601174,0.49091527,-0.0,0.0,0.0,0.5189998,0.0,0.0,0.0,0.0,0.0,-0.49562162
337684393,0.0,0.0,-4.51939,0.49091527,0.0,0.0,0.0,0.72968507,0.0,0.0,0.0,0.0,0.0,-0.49552295
337782043,0.0,0.0,-4.423531,0.49091527,0.0,0.0,0.0,0.9011256,0.0,0.0,0.0,0.0,0.0,-0.4952306
337886656,0.0,0.0,-4.3029675,0.49091527,-0.0,0.0,0.0,1.0706016,0.0,0.0,0.0,0.0,0.0,-0.4984187
337990820,0.0,0.0,-4.1673794,0.49091527,0.0,0.0,0.0,1.2227138,0.0,0.0,0.0,0.0,0.0,-0.60095006
338094078,0.0,0.0,-4.035808,0.49091527,0.0,0.0,0.0,1.1251137,0.0,0.0,0.0,0.0,0.0,-0.6500275
338190043,0.0,0.0,-3.9300401,0.49091527,0.0,0.0,0.0,0.84839386,0.0,0.0,0.0,0.0,0.0,-0.660852
338294034,0.0,0.0,-3.851095,0.49091527,-0.0,0.0,0.0,0.47015575,0.0,0.0,0.0,0.0,0.0,-0.6625512
338398091,0.0,0.0,-3.8206584,0.49091527,-0.0,0.0,0.0,0.10965775,0.0,0.0,0.0,0.0,0.0,-0.65024054
338499913,0.0,0.0,-3.83451,0.49091527,-0.0,0.0,0.0,-0.213044,0.0,0.0,0.0,0.0,0.0,-0.640222
338596492,0.0,0.0,-3.8770115,0.49091527,0.0,0.0,0.0,-0.4694982,0.0,0.0,0.0,0.0,0.0,-0.61715835
338699714,0.0,0.0,-3.9460294,0.49091527,0.0,0.0,0.0,-0.6630137,0.0,0.0,0.0,0.0,0.0,-0.5998723
338803946,0.0,0.0,-4.0342913,0.49091527,0.0,0.0,0.0,-0.7994326,0.0,0.0,0.0,0.0,0.0,-0.59476805
338900079,0.0,0.0,-4.1308517,0.49091527,-0.0,0.0,0.0,-0.90701777,0.0,0.0,0.0,0.0,0.0,-0.6044754
339003689,0.0,0.0,-4.2414846,0.49091527,-0.0,0.0,0.0,-1.0262641,0.0,0.0,0.0,0.0,0.0,-0.6004938
339108476,0.0,0.0,-4.359081,0.49091527,-0.0,0.0,0.0,-1.1396378,0.0,0.0,0.0,0.0,0.0,-0.5927781
339210188,0.0,0.0,-4.4790635,0.49091527,0.0,0.0,0.0,-1.222661,0.0,0.0,0.0,0.0,0.0,-0.57562405
339313296,0.0,0.0,-4.606509,0.49091527,0.0,0.0,0.0,-1.2385757,0.0,0.0,0.0,0.0,0.0,-0.5219495
339409221,0.0,0.0,-4.720418,0.49091527,-0.0,0.0,0.0,-1.121367,0.0,0.0,0.0,0.0,0.0,-0.49823797
339514061,0.0,0.0,-4.825859,0.49091527,-0.0,0.0,0.0,-0.9054185,0.0,0.0,0.0,0.0,0.0,-0.49840698
339617929,0.0,0.0,-4.908009,0.49091527,-0.0,0.0,0.0,-0.6918778,0.0,0.0,0.0,0.0,0.0,-0.4993298
339721350,0.0,0.0,-4.962763,0.49091527,0.0,0.0,0.0,-0.46450615,0.0,0.0,0.0,0.0,0.0,-0.49724334
339818131,0.0,0.0,-4.988017,0.49091527,0.0,0.0,0.0,-0.26940435,0.0,0.0,0.0,0.0,0.0,-0.49756444
339922351,0.0,0.0,-4.991895,0.49091527,0.0,0.0,0.0,-0.032303628,0.0,0.0,0.0,0.0,0.0,-0.49729142
340026670,0.0,0.0,-4.972908,0.49091527,-0.0,0.0,0.0,0.17819731,0.0,0.0,0.0,0.0,0.0,-0.49735275
340122008,0.0,0.0,-4.9401674,0.49091527,-0.0,0.0,0.0,0.35788184,0.0,0.0,0.0,0.0,0.0,-0.49798915
340226732,0.0,0.0,-4.8819923,0.49091527,0.0,0.0,0.0,0.580402,0.0,0.0,0.0,0.0,0.0,-0.49510086
340330073,0.0,0.0,-4.803977,0.49091527,0.0,0.0,0.0,0.8023021,0.0,0.0,0.0,0.0,0.0,-0.49617764
340426035,0.0,0.0,-4.7122283,0.49091527,-0.0,0.0,0.0,0.9713908,0.0,0.0,0.0,0.0,0.0,-0.49646944
340530059,0.0,0.0,-4.5911183,0.49091527,-0.0,0.0,0.0,1.1534675,0.0,0.0,0.0,0.0,0.0,-0.5576776
340634669,0.0,0.0,-4.458755,0.4870014,0.0032705504,0.0,0.0,1.1962869,0.0,0.0,0.0,0.0,0.0,-0.5679038
340738900,0.0,0.0,-4.3328032,0.4867219,0.013322596,0.0,0.0,1.140447,0.0,0.0,0.0,0.0,0.0,-0.57404023
340842039,0.0,0.0,-4.2167063,0.48656017,-0.0,0.0,0.0,1.0587994,0.0,0.0,0.0,0.0,0.0,-0.57349604
340939569,0.0,0.0,-4.1188965,0.48513487,0.11897982,0.0,0.0,0.9820925,0.0,0.0,0.0,0.0,0.0,-0.60274345
341043918,0.0,0.0,-4.021384,0.49334282,0.10006576,0.0,0.0,0.81620824,0.0,0.0,0.0,0.0,0.0,-0.6198328
341139644,0.0,0.0,-3.9489932,0.5009393,0.070894636,0.0,0.0,0.608239,0.0,0.0,0.0,0.0,0.0,-0.6146616
341243763,0.0,0.0,-3.8978593,0.5036859,-0.0,0.0,0.0,0.3893814,0.0,0.0,0.0,0.0,0.0,-0.61644536
341347881,0.0,0.0,-3.8727844,0.50699866,0.00450729,0.0,0.0,0.20184492,0.0,0.0,0.0,0.0,0.0,-0.5825115
341452403,0.0,0.0,-3.8649058,0.5074561,-0.0,0.0,0.0,0.09512446,0.0,0.0,0.0,0.0,0.0,-0.5293003
341556500,0.0,0.0,-3.861689,0.5074561,-0.0,0.0,0.0,0.16600776,0.0,0.0,0.0,0.0030417363,0.0038870971,-0.498058
341657226,0.0,0.0,-3.844296,0.5074561,-0.0,0.0,0.0,0.31360295,0.0,0.0,0.0,0.019472951,0.06497175,-0.5004867
341753208,0.0,0.0,-3.8124812,0.50524557,0.008484087,0.0,0.0,0.4848582,0.0,0.0,0.0,0.027207976,0.09540843,-0.49617195
341858366,0.0,0.0,-3.7612312,0.5033383,0.0506491,0.0,0.0,0.6574202,0.0,0.0,0.0,0.026865108,0.09300456,-0.4999598
341961163,0.0,0.0,-3.694213,0.50607336,0.1649063,0.0,0.0,0.8252256,0.0,0.0,0.0,-0.001787332,0.038677648,-0.50548524
342057329,0.0,0.0,-3.616455,0.516565,-0.0,0.0,0.0,0.9959749,0.0,0.0,0.0,-2.8020902e-05,8.846923e-06,-0.50053555
342161292,0.0,0.0,-3.5119371,0.52619696,0.088148266,0.0,0.0,1.1376578,0.0,0.0,0.0,-6.5817876e-09,1.715406e-08,-0.49834612
342265752,0.0,0.0,-3.3917012,0.52983654,0.12089604,0.0,0.0,1.3292319,0.0,0.0,0.0,-0.030019408,-0.098415434,-0.48631543
342362826,0.0,0.0,-3.2626367,0.5386784,0.48682907,0.0,0.0,1.5280157,0.0,0.0,0.0,-0.03582339,-0.15023221,-0.47262913
342467389,0.0,0.0,-3.106786,0.56676686,0.9426983,0.0,0.0,1.6775181,0.0,0.0,0.0,-0.029891357,-0.13903564,-0.47549108
342571078,0.0,0.0,-2.9377658,0.63300765,0.5915785,0.0,0.0,1.8149259,0.0,0.0,0.0,-0.0028795348,0.0019365759,-0.5074326
342667732,0.0,0.0,-2.77446,0.6988312,0.2957732,0.0,0.0,1.899467,0.0,0.0,0.0,4.9008922e-06,-4.6902865e-06,-0.5241593
342770881,0.0,0.0,-2.582082,0.7416814,0.2321815,0.0,0.0,1.9884732,0.0,0.0,0.0,7.5171513e-10,-2.114789e-09,-0.5237942
342875129,0.0,0.0,-2.3808508,0.7774388,0.23338768,0.0,0.0,2.0139935,0.0,0.0,0.0,0.0,0.0,-0.52221924
342971021,0.0,0.0,-2.202378,0.8107134,0.48379436,0.0,0.0,1.1751244,0.0,0.0,0.0,0.0,0.0,-0.509994
343076482,0.0,0.0,-2.272686,0.84640664,0.40026912,0.0,0.0,-1.3295071,0.0,0.0,0.0,0.0,0.0,-0.5265587
343181465,0.0,0.0,-2.394044,0.8918344,0.5581942,0.0,0.0,-1.2148952,0.0,0.0,0.0,0.0,0.0,-0.515297
343285404,0.0,0.0,-2.4862237,0.9472034,0.55937153,0.0,0.0,-1.0371271,0.0,0.0,0.0,0.0,0.0,-0.49877548
343381266,0.0,0.0,-2.558871,0.99639416,0.04056628,0.0,0.0,-0.8373631,0.0,0.0,0.0,0.0,0.0,-0.49484625
343484669,0.0,0.0,-2.6184874,0.99919593,0.0,0.0,0.0,-0.5902764,0.0,0.0,0.0,0.0,0.0,-0.42733943
343588524,0.0,0.0,-2.6523182,0.99919593,-0.0,0.0,0.0,-0.20897296,0.0,0.0,0.0,0.0,0.0,-0.3986922
343684569,0.0,0.0,-2.6474912,0.99919593,-0.0,0.0,0.0,0.24883212,0.0,0.0,0.0,0.0,0.0,-0.39804935
343790058,0.0,0.0,-2.5895834,0.99919593,-0.0,0.0,0.0,0.75643575,0.0,0.0,0.0,0.0,0.0,-0.3955042
343894589,0.0,0.0,-2.4826112,0.99919593,-0.0,0.0,0.0,1.2419107,0.0,0.0,0.0,0.0,0.0,-0.3954532
343990672,0.0,0.0,-2.3437307,0.99919593,-0.0,0.0,0.0,1.7010672,0.0,0.0,0.0,0.0,0.0,-0.2900894
344094109,0.0,0.0,-2.1379035,0.99919593,-0.0,0.0,0.0,2.3449464,0.0,0.0,0.0,0.0,0.0,-0.18729573
344198355,0.0,0.0,-1.9529151,0.99919593,-0.0,0.0,0.0,-0.9091345,0.0,0.0,0.0,0.0,0.0,-0.08
344294135,0.0,0.0,-2.0701134,0.99919593,-0.0,0.0,0.0,-0.95130086,0.0,0.0,0.0,0.0,0.0,-0.08
344398767,0.0,0.0,-2.1175761,0.99919593,-0.0,0.0,0.0,0.018888429,0.0,0.0,0.0,0.0,0.0,-0.0800051
344498864,0.0,0.0,-2.0663533,0.99919593,-0.0,0.0,0.0,0.941795,0.0,0.0,0.0,0.0,0.0,-0.0800051
344603938,0.0,0.0,-1.9197602,0.99919593,-0.0,0.0,0.0,1.5996046,0.0,0.0,0.0,0.0,0.0,-0.0800051
344707752,0.0,0.0,-1.8897036,0.99919593,-0.0,0.0,0.0,-0.6070961,0.0,0.0,0.0,0.0,0.0,-0.0800051
344810856,0.0,0.0,-1.9170705,0.99919593,-0.0,0.0,0.0,0.25229776,0.0,0.0,0.0,0.0,0.0,-0.0800051
344867498,0.0,0.0,-1.894142,0.99919593,-0.0,0.0,0.0,0.7,0.0,0.0,0.0,0.0,0.0,-0.5163298
345011170,0.0,0.0,-1.8463632,1.0135357,-0.0,0.0,0.0,-0.2351933,0.0,0.0,0.0,0.0,0.0,-0.08
345115494,0.0,0.0,-1.852238,1.0135357,-0.0,0.0,0.0,0.36497378,0.0,0.0,0.0,0.0,0.0,-0.08
345211649,0.0,0.0,-1.8201829,1.0135357,-0.0,0.0,0.0,0.39353773,0.0,0.0,0.0,0.0,0.0,-0.08
345315364,0.0,0.0,-1.8197771,1.0135357,-0.0,0.0,0.0,0.110109635,0.0,0.0,0.0,0.0,0.0,-0.08
345419540,0.0,0.0,-1.8177308,1.0135357,-0.0,0.0,0.0,0.19640839,0.0,0.0,0.0,0.0,0.0,-0.08
345517792,0.0,0.0,-1.8145005,1.0135357,-0.0,0.0,0.0,0.1978312,0.0,0.0,0.0,0.0,0.0,-0.08
345924441,0.0,0.0,-1.7965937,1.0668006,0.06109004,0.0,0.0,0.18106344,0.0,0.0,0.0,0.0,0.0,-0.08
346124621,0.0,0.0,-1.7822597,1.0690938,0.41427323,0.0,0.0,0.17527308,0.0,0.0,0.0,0.0,0.0,-0.08
346226958,0.0,0.0,-1.7756563,1.0657959,0.519825,0.0,0.0,0.17186119,0.0,0.0,0.0,0.0,0.0,-0.08
346330110,0.0,0.0,-1.7712425,1.0707802,0.4642661,0.0,0.0,0.16755462,0.0,0.0,0.0,0.0,0.0,-0.08
346434819,0.0,0.0,-1.7677848,1.0692935,0.37088713,0.0,0.0,0.16331579,0.0,0.0,0.0,0.0,0.0,-0.08
346530096,0.0,0.0,-1.7675077,1.0724709,0.30625248,0.0,0.0,0.1580992,0.0,0.0,0.0,0.0,0.0,-0.08
346635104,0.0,0.0,-1.7706443,1.0718986,0.075392164,0.0,0.0,0.15310474,0.0,0.0,0.0,0.0,0.0,-0.08
346738129,0.0,0.0,-1.7738079,1.0737095,0.15636337,0.0,0.0,0.14796467,0.0,0.0,0.0,0.0,0.0,-0.08
346842100,0.0,0.0,-1.7763213,1.0754591,0.37132165,0.0,0.0,0.1431759,0.0,0.0,0.0,0.0,0.0,-0.08
346939614,0.0,0.0,-1.7799338,1.0765396,0.46678096,0.0,0.0,0.1377153,0.0,0.0,0.0,0.0,0.0,-0.08
347043656,0.0,0.0,-1.7841048,1.0778053,0.4895505,0.0,0.0,0.13185692,0.0,0.0,0.0,0.0,0.0,-0.08
347139662,0.0,0.0,-1.7865926,1.0787096,0.5338311,0.0,0.0,0.12711221,0.0,0.0,0.0,0.0,0.0,-0.08
347244133,0.0,0.0,-1.790695,1.0798625,0.25008258,0.0,0.0,0.121409245,0.0,0.0,0.0,0.0,0.0,-0.08
347347768,0.0,0.0,-1.7973325,1.0809423,0.3773239,0.0,0.0,0.11484195,0.0,0.0,0.0,0.0,0.0,-0.08
347444177,0.0,0.0,-1.8039212,1.0816252,-0.0,0.0,0.0,0.110269554,0.0,0.0,0.0,0.0,0.0,-0.08
347547729,0.0,0.0,-1.8101504,1.0816252,-0.0,0.0,0.0,0.104109704,0.0,0.0,0.0,0.0,0.0,-0.08
347653476,0.0,0.0,-1.8179473,1.0816252,0.0,0.0,0.0,0.097822264,0.0,0.0,0.0,0.0,0.0,-0.08
347749203,0.0,0.0,-1.8272306,1.0861148,-0.615006,0.0,0.0,0.09237232,0.0,0.0,0.0,0.0,0.0,-0.08
347853365,0.0,0.0,-1.8402134,1.0846708,-3.289814,0.0,0.0,0.08553555,0.0,0.0,0.0,0.0,0.0,-0.08
347957939,0.0,0.0,-1.850565,1.0881424,-3.45364,0.0,0.0,0.07902052,0.0,0.0,0.0,0.0,0.0,-0.08
348053769,0.0,0.0,-1.8590074,1.08739,-3.4627693,0.0,0.0,0.07413653,0.0,0.0,0.0,0.0,0.0,-0.08
348157940,0.0,0.0,-1.8686415,1.089679,-3.4564612,0.0,0.0,0.06870542,0.0,0.0,0.0,0.0,0.0,-0.08
348261418,0.0,0.0,-1.8748744,1.0903537,-3.4607525,0.0,0.0,0.064095944,0.0,0.0,0.0,0.0,0.0,-0.08
348362180,0.0,0.0,-1.8825036,1.0911458,-3.468531,0.0,0.0,0.060218755,0.0,0.0,0.0,0.0,0.0,-0.08
348458838,0.0,0.0,-1.8904335,1.0928061,-3.4605062,0.0,0.0,0.055096027,0.0,0.0,0.0,0.0,0.0,-0.08
348562532,0.0,0.0,-1.9001646,1.092873,-3.4676807,0.0,0.0,0.050289012,0.0,0.0,0.0,0.0,0.0,-0.08
348665999,0.0,0.0,-1.909935,1.095126,-3.4604874,0.0,0.0,0.04572205,0.0,0.0,0.0,0.0,0.0,-0.08
348770033,0.0,0.0,-1.9170574,1.0949934,-3.460738,0.0,0.0,0.04160712,0.0,0.0,0.0,0.0,0.0,-0.08
348866321,0.0,0.0,-1.9238744,1.0969892,-3.4645302,0.0,0.0,0.038192324,0.0,0.0,0.0,0.0,0.0,-0.08
348970134,0.0,0.0,-1.929713,1.0973366,-3.4602644,0.0,0.0,0.03454713,0.0,0.0,0.0,0.0,0.0,-0.08
349170966,0.0,0.0,-1.934454,1.0997784,-3.4604976,0.0,0.0,0.029576961,0.0,0.0,0.0,0.0,0.0,-0.08
350186982,0.0,0.0,-1.995883,1.1090432,0.55913144,0.0,0.0,-0.006246104,0.0,0.0,0.0,0.0,0.0,-0.08
350292632,0.0,0.0,-2.0074265,1.1103925,-0.0,0.0,0.0,-0.011481345,0.0,0.0,0.0,0.0,0.0,-0.08
350388620,0.0,0.0,-2.016293,1.1103925,0.0,0.0,0.0,-0.014696572,0.0,0.0,0.0,0.0,0.0,-0.08
350492574,0.0,0.0,-2.0222964,1.1103925,0.0,0.0,0.0,-0.016617727,0.0,0.0,0.0,0.0,0.0,-0.08
350596410,0.0,0.0,-2.0315845,1.112476,-0.7278669,0.0,0.0,-0.02024587,0.0,0.0,0.0,0.0,0.0,-0.08
350692397,0.0,0.0,-2.0416417,1.1127206,-1.7981358,0.0,0.0,-0.025395187,0.0,0.0,0.0,0.0,0.0,-0.08
350797130,0.0,0.0,-2.050928,1.1144313,-3.392491,0.0,0.0,-0.030356672,0.0,0.0,0.0,0.0,0.0,-0.08
350900445,0.0,0.0,-2.0592146,1.114187,-3.4465747,0.0,0.0,-0.033726152,0.0,0.0,0.0,0.0,0.0,-0.08
350998139,0.0,0.0,-2.0644317,1.11583,-3.4694676,0.0,0.0,-0.035497524,0.0,0.0,0.0,0.0,0.0,-0.08
351102252,0.0,0.0,-2.0645657,1.1160483,-3.460101,0.0,0.0,-0.034474578,0.0,0.0,0.0,0.0,0.0,-0.08
351206059,0.0,0.0,-2.0662768,1.1170833,-3.460721,0.0,0.0,-0.035386577,0.0,0.0,0.0,0.0,0.0,-0.08
351302180,0.0,0.0,-2.0683863,1.1179675,-3.450024,0.0,0.0,-0.036145918,0.0,0.0,0.0,0.0,0.0,-0.08
351406824,0.0,0.0,-2.06657,1.1185273,-3.4507673,0.0,0.0,-0.034460198,0.0,0.0,0.0,0.0,0.0,-0.08
351510035,0.0,0.0,-2.0657477,1.1199362,-3.4422016,0.0,0.0,-0.033716764,0.0,0.0,0.0,0.0,0.0,-0.08
351606051,0.0,0.0,-2.0656085,1.1200486,-2.4282327,0.0,0.0,-0.033648405,0.0,0.0,0.0,0.0,0.0,-0.08
351707823,0.0,0.0,-2.0684159,1.1213455,-1.3153684,0.0,0.0,-0.035379358,0.0,0.0,0.0,0.0,0.0,-0.08
351812271,0.0,0.0,-2.0716093,1.1217426,-0.46901837,0.0,0.0,-0.03566562,0.0,0.0,0.0,0.0,0.0,-0.08
351915734,0.0,0.0,-2.0756552,1.1225363,0.0,0.0,0.0,-0.03666302,0.0,0.0,0.0,0.0,0.0,-0.08
352012255,0.0,0.0,-2.081308,1.1225363,0.0,0.0,0.0,-0.03870272,0.0,0.0,0.0,0.0,0.0,-0.08
352116548,0.0,0.0,-2.0821526,1.1225363,-0.0,0.0,0.0,-0.038728237,0.0,0.0,0.0,0.0,0.0,-0.08
352219850,0.0,0.0,-2.079945,1.1225363,-0.0,0.0,0.0,-0.03843788,0.0,0.0,0.0,0.0,0.0,-0.08
352315667,0.0,0.0,-2.0794828,1.1225363,-0.0,0.0,0.0,-0.037595898,0.0,0.0,0.0,0.0,0.0,-0.08
352417379,0.0,0.0,-2.0806377,1.1225363,-0.0,0.0,0.0,-0.037027955,0.0,0.0,0.0,0.0,0.0,-0.08
352522021,0.0,0.0,-2.0828075,1.1225363,-0.0,0.0,0.0,-0.037786677,0.0,0.0,0.0,0.0,0.0,-0.08
352625272,0.0,0.0,-2.0821958,1.1225363,-0.0,0.0,0.0,-0.038259387,0.0,0.0,0.0,0.0,0.0,-0.08
352721315,0.0,0.0,-2.0770173,1.1225363,-0.0,0.0,0.0,-0.036789354,0.0,0.0,0.0,0.0,0.0,-0.08
352825231,0.0,0.0,-2.0691948,1.1225363,-0.0,0.0,0.0,-0.034200285,0.0,0.0,0.0,0.0,0.0,-0.08
352929240,0.0,0.0,-2.0595057,1.1303812,0.17034553,0.0,0.0,-0.03047451,0.0,0.0,0.0,0.0,0.0,-0.08
353034017,0.0,0.0,-2.054065,1.1313168,-0.0,0.0,0.0,-0.028886396,0.0,0.0,0.0,0.0,0.0,-0.08
353130823,0.0,0.0,-2.0527897,1.1313168,-0.0,0.0,0.0,-0.02862714,0.0,0.0,0.0,0.0,0.0,-0.08
353235045,0.0,0.0,-2.0564744,1.1325347,-0.0,0.0,0.0,-0.029979032,0.0,0.0,0.0,0.0,0.0,-0.08
353331741,0.0,0.0,-2.0608196,1.1325347,-0.0,0.0,0.0,-0.030786918,0.0,0.0,0.0,0.0,0.0,-0.08
353434856,0.0,0.0,-2.0662744,1.1325347,-0.0,0.0,0.0,-0.0328312,0.0,0.0,0.0,0.0,0.0,-0.08
353539122,0.0,0.0,-2.0716012,1.1325347,-0.0,0.0,0.0,-0.035089605,0.0,0.0,0.0,0.0,0.0,-0.08
353634808,0.0,0.0,-2.0769215,1.1325347,-0.0,0.0,0.0,-0.03728812,0.0,0.0,0.0,0.0,0.0,-0.08
353738837,0.0,0.0,-2.0798767,1.1325347,-0.0,0.0,0.0,-0.038327232,0.0,0.0,0.0,0.0,0.0,-0.08
353844750,0.0,0.0,-2.0837247,1.1325347,-0.0,0.0,0.0,-0.039986543,0.0,0.0,0.0,0.0,0.0,-0.08
353940655,0.0,0.0,-2.0907934,1.1325347,-0.0,0.0,0.0,-0.042652804,0.0,0.0,0.0,0.0,0.0,-0.08
354045044,0.0,0.0,-2.095003,1.1325347,-0.0,0.0,0.0,-0.043598928,0.0,0.0,0.0,0.0,0.0,-0.08
354148470,0.0,0.0,-2.101497,1.1325347,-0.0,0.0,0.0,-0.044512667,0.0,0.0,0.0,0.0,0.0,-0.08
354244461,0.0,0.0,-2.108381,1.1325347,-0.0,0.0,0.0,-0.04760055,0.0,0.0,0.0,0.0,0.0,-0.08
354348732,0.0,0.0,-2.1189737,1.1325347,-0.0,0.0,0.0,-0.051149797,0.0,0.0,0.0,0.0,0.0,-0.08
354452957,0.0,0.0,-2.1294556,1.1325347,-0.0,0.0,0.0,-0.054032348,0.0,0.0,0.0,0.0,0.0,-0.08
354549865,0.0,0.0,-2.1379883,1.1325347,-0.0,0.0,0.0,-0.056367684,0.0,0.0,0.0,0.0,0.0,-0.08
354654093,0.0,0.0,-2.1457226,1.1325347,-0.0,0.0,0.0,-0.05897289,0.0,0.0,0.0,0.0,0.0,-0.08
354757399,0.0,0.0,-2.1535337,1.1325347,0.0,0.0,0.0,-0.061141822,0.0,0.0,0.0,0.0,0.0,-0.08
354853834,0.0,0.0,-2.1597164,1.1325347,-0.0,0.0,0.0,-0.06258835,0.0,0.0,0.0,0.0,0.0,-0.08
354957384,0.0,0.0,-2.163806,1.1325347,-0.0,0.0,0.0,-0.06414243,0.0,0.0,0.0,0.0,0.0,-0.08
355061278,0.0,0.0,-2.1648366,1.1325347,-0.0,0.0,0.0,-0.063113965,0.0,0.0,0.0,0.0,0.0,-0.08
355157238,0.0,0.0,-2.165375,1.1325347,0.0,0.0,0.0,-0.06341049,0.0,0.0,0.0,0.0,0.0,-0.08
355261315,0.0,0.0,-2.164241,1.1325347,0.0,0.0,0.0,-0.061221402,0.0,0.0,0.0,0.0,0.0,-0.08
355365411,0.0,0.0,-2.1650412,1.1325347,-0.0,0.0,0.0,-0.060691293,0.0,0.0,0.0,0.0,0.0,-0.08
355466837,0.0,0.0,-2.164613,1.1325347,-0.0,0.0,0.0,-0.059929222,0.0,0.0,0.0,0.0,0.0,-0.08
355571064,0.0,0.0,-2.1639524,1.1325347,-0.0,0.0,0.0,-0.0604254,0.0,0.0,0.0,0.0,0.0,-0.08
355675376,0.0,0.0,-2.1643987,1.1325347,-0.0,0.0,0.0,-0.059248473,0.0,0.0,0.0,0.0,0.0,-0.08
355771022,0.0,0.0,-2.1672077,1.1325347,0.0,0.0,0.0,-0.058302082,0.0,0.0,0.0,0.0,0.0,-0.08
355875635,0.0,0.0,-2.1725464,1.1325347,0.0,0.0,0.0,-0.059129313,0.0,0.0,0.0,0.0,0.0,-0.08
355979050,0.0,0.0,-2.176775,1.1325347,0.0,0.0,0.0,-0.058798052,0.0,0.0,0.0,0.0,0.0,-0.08
356074824,0.0,0.0,-2.1832788,1.1325347,-0.0,0.0,0.0,-0.06089381,0.0,0.0,0.0,0.0,0.0,-0.08
356176635,0.0,0.0,-2.1913264,1.1325347,-0.0,0.0,0.0,-0.063785926,0.0,0.0,0.0,0.0,0.0,-0.08
356280958,0.0,0.0,-2.195488,1.1325347,0.0,0.0,0.0,-0.06455937,0.0,0.0,0.0,0.0,0.0,-0.08
356384568,0.0,0.0,-2.197738,1.1325347,-0.0,0.0,0.0,-0.06363047,0.0,0.0,0.0,0.0,0.0,-0.08
356480491,0.0,0.0,-2.2014496,1.1325347,-0.0,0.0,0.0,-0.06322884,0.0,0.0,0.0,0.0,0.0,-0.08
356584997,0.0,0.0,-2.2046366,1.1325347,-0.0,0.0,0.0,-0.063528806,0.0,0.0,0.0,0.0,0.0,-0.08
356689326,0.0,0.0,-2.2036533,1.1325347,-0.0,0.0,0.0,-0.062762015,0.0,0.0,0.0,0.0,0.0,-0.08
356792532,0.0,0.0,-2.2059639,1.1325347,-0.0,0.0,0.0,-0.062197167,0.0,0.0,0.0,0.0,0.0,-0.08
356894298,0.0,0.0,-2.2089875,1.1325347,-0.0,0.0,0.0,-0.062220342,0.0,0.0,0.0,0.0,0.0,-0.08
356998760,0.0,0.0,-2.2102554,1.1562932,-0.0,0.0,0.0,-0.062068146,0.0,0.0,0.0,0.0,0.0,-0.08
357094789,0.0,0.0,-2.2104862,1.1562932,-0.0,0.0,0.0,-0.061581828,0.0,0.0,0.0,0.0,0.0,-0.08
357198604,0.0,0.0,-2.2122443,1.1562932,-0.0,0.0,0.0,-0.06115076,0.0,0.0,0.0,0.0,0.0,-0.08
357302029,0.0,0.0,-2.2151856,1.1562932,-0.0,0.0,0.0,-0.060796153,0.0,0.0,0.0,0.0,0.0,-0.08
357398673,0.0,0.0,-2.2164826,1.1587608,0.1281676,0.0,0.0,-0.059022546,0.0,0.0,0.0,0.0,0.0,-0.08
357502158,0.0,0.0,-2.2148528,1.1587727,0.14998011,0.0,0.0,-0.057531208,0.0,0.0,0.0,0.0,0.0,-0.08
357607807,0.0,0.0,-2.2128391,1.1596034,0.11163827,0.0,0.0,-0.054932162,0.0,0.0,0.0,0.0,0.0,-0.08
357704290,0.0,0.0,-2.208145,1.1597735,0.027726263,0.0,0.0,-0.05300682,0.0,0.0,0.0,0.0,0.0,-0.08
357808206,0.0,0.0,-2.2025487,1.1604004,-0.0,0.0,0.0,-0.04951817,0.0,0.0,0.0,0.0,0.0,-0.08
357911657,0.0,0.0,-2.1988113,1.1610191,0.005319416,0.0,0.0,-0.047587354,0.0,0.0,0.0,0.0,0.0,-0.08
358007749,0.0,0.0,-2.189896,1.1615067,0.010696511,0.0,0.0,-0.043728147,0.0,0.0,0.0,0.0,0.0,-0.08
358111925,0.0,0.0,-2.1821196,1.1622399,-0.0,0.0,0.0,-0.03949431,0.0,0.0,0.0,0.0,0.0,-0.08
358215597,0.0,0.0,-2.1758173,1.1622399,-0.0,0.0,0.0,-0.03772345,0.0,0.0,0.0,0.0,0.0,-0.08
358312419,0.0,0.0,-2.1722424,1.1622399,-0.0,0.0,0.0,-0.035166398,0.0,0.0,0.0,0.0,0.0,-0.08
358416512,0.0,0.0,-2.1667469,1.1622399,-0.0,0.0,0.0,-0.03133836,0.0,0.0,0.0,0.0,0.0,-0.08
358521244,0.0,0.0,-2.1622512,1.1622399,-0.0,0.0,0.0,-0.030136408,0.0,0.0,0.0,0.0,0.0,-0.08
358617039,0.0,0.0,-2.1597357,1.1622399,-0.0,0.0,0.0,-0.028708622,0.0,0.0,0.0,0.0,0.0,-0.08
358720475,0.0,0.0,-2.1587336,1.1622399,-0.0,0.0,0.0,-0.029475175,0.0,0.0,0.0,0.0,0.0,-0.08
358825282,0.0,0.0,-2.1586692,1.1622399,-0.0,0.0,0.0,-0.02947624,0.0,0.0,0.0,0.0,0.0,-0.08
358920420,0.0,0.0,-2.1558797,1.1622399,-0.0,0.0,0.0,-0.026979694,0.0,0.0,0.0,0.0,0.0,-0.08
359025554,0.0,0.0,-2.1528473,1.1622399,-0.0,0.0,0.0,-0.025105178,0.0,0.0,0.0,0.0,0.0,-0.08
359129115,0.0,0.0,-2.1462557,1.1622399,-0.0,0.0,0.0,-0.022446936,0.0,0.0,0.0,0.0,0.0,-0.08
359226005,0.0,0.0,-2.1418345,1.1622399,-0.0,0.0,0.0,-0.020635558,0.0,0.0,0.0,0.0,0.0,-0.08
359330731,0.0,0.0,-2.1384628,1.1622399,-0.0,0.0,0.0,-0.020395203,0.0,0.0,0.0,0.0,0.0,-0.08
359434852,0.0,0.0,-2.135325,1.1685086,0.03091073,0.0,0.0,-0.019011902,0.0,0.0,0.0,0.0,0.0,-0.08
359530329,0.0,0.0,-2.1322944,1.1689109,0.080109365,0.0,0.0,-0.017982733,0.0,0.0,0.0,0.0,0.0,-0.08
359633993,0.0,0.0,-2.1276171,1.169274,0.1646851,0.0,0.0,-0.016774973,0.0,0.0,0.0,0.0,0.0,-0.08
359738777,0.0,0.0,-2.1265073,1.1695606,0.21530198,0.0,0.0,-0.015513535,0.0,0.0,0.0,0.0,0.0,-0.08
359834194,0.0,0.0,-2.1285052,1.170048,0.2632053,0.0,0.0,-0.016012112,0.0,0.0,0.0,0.0,0.0,-0.08
359939139,0.0,0.0,-2.1270823,1.1702285,0.26878494,0.0,0.0,-0.015956357,0.0,0.0,0.0,0.0,0.0,-0.08
360043876,0.0,0.0,-2.1242025,1.1704606,0.26860574,0.0,0.0,-0.014962875,0.0,0.0,0.0,0.0,0.0,-0.08
360139598,0.0,0.0,-2.1198852,1.1710334,0.2686435,0.0,0.0,-0.012524068,0.0,0.0,0.0,0.0,0.0,-0.08
360244717,0.0,0.0,-2.114993,1.1713086,0.1980486,0.0,0.0,-0.011129146,0.0,0.0,0.0,0.0,0.0,-0.08
360347757,0.0,0.0,-2.1121979,1.1727362,0.0950932,0.0,0.0,-0.009811697,0.0,0.0,0.0,0.0,0.0,-0.08
360443964,0.0,0.0,-2.1107173,1.1718074,-0.0,0.0,0.0,-0.008974416,0.0,0.0,0.0,0.0,0.0,-0.08
360547691,0.0,0.0,-2.1107118,1.1718074,-0.0,0.0,0.0,-0.009126294,0.0,0.0,0.0,0.0,0.0,-0.08
360645338,0.0,0.0,-2.1106067,1.1718074,0.0,0.0,0.0,-0.008626731,0.0,0.0,0.0,0.0,0.0,-0.08
360749274,0.0,0.0,-2.1093607,1.1718074,0.0,0.0,0.0,-0.008521418,0.0,0.0,0.0,0.0,0.0,-0.08
360853437,0.0,0.0,-2.1103446,1.1718074,0.0,0.0,0.0,-0.0074974657,0.0,0.0,0.0,0.0,0.0,-0.08
360957953,0.0,0.0,-2.1099737,1.1718074,-0.0,0.0,0.0,-0.007203805,0.0,0.0,0.0,0.0,0.0,-0.08
361062099,0.0,0.0,-2.1104503,1.1718074,-0.0,0.0,0.0,-0.006570712,0.0,0.0,0.0,-0.0021098494,0.0058821533,-0.07975556
361157237,0.0,0.0,-2.1110568,1.1718074,0.0,0.0,0.0,-0.0062939418,0.0,0.0,0.0,-0.0027508459,0.0066893087,-0.07967237
361261257,0.0,0.0,-2.1115735,1.1718074,0.0,0.0,0.0,-0.0061770226,0.0,0.0,0.0,-0.004233154,0.010014438,-0.07925776
361366048,0.0,0.0,-2.1135943,1.1718074,0.0,0.0,0.0,-0.007095413,0.0,0.0,0.0,-0.002244666,0.0055312463,-0.07977698
361467781,0.0,0.0,-2.1129463,1.1718074,-0.0,0.0,0.0,-0.0065437583,0.0,0.0,0.0,-0.002189049,0.0049242135,-0.08157716
361563096,0.0,0.0,-2.1124132,1.1718074,-0.0,0.0,0.0,-0.0061629536,0.0,0.0,0.0,-0.0032315177,0.0080178445,-0.1211426
361667403,0.0,0.0,-2.1140704,1.1718074,-0.0,0.0,0.0,-0.0073055173,0.0,0.0,0.0,-0.0034714802,0.008745069,-0.1287056
361771697,0.0,0.0,-2.111534,1.1718074,-0.0,0.0,0.0,-0.0075835665,0.0,0.0,0.0,-0.006538548,0.013870054,-0.22205174
361867375,0.0,0.0,-2.1052487,1.1718074,0.0,0.0,0.0,-0.0062111905,0.0,0.0,0.0,-0.004474164,0.010976724,-0.20681491
361970792,0.0,0.0,-2.1010234,1.1718074,0.0,0.0,0.0,-0.005658242,0.0,0.0,0.0,-0.00525117,0.012321845,-0.24428815
362077739,0.0,0.0,-2.1031597,1.1718074,0.0,0.0,0.0,-0.0050658747,0.0,0.0,0.0,-0.0025958046,0.0065661455,-0.18042123
362180453,0.0,0.0,-2.1073415,1.1718074,-0.0,0.0,0.0,-0.0064848075,0.0,0.0,0.0,-0.0033979067,0.009371928,-0.21874543
362276448,0.0,0.0,-2.1136162,1.1718074,-0.0,0.0,0.0,-0.0090956325,0.0,0.0,0.0,-0.004559015,0.01233757,-0.23740722
362381291,0.0,0.0,-2.1197338,1.1718074,0.0,0.0,0.0,-0.009687096,0.0,0.0,0.0,-0.006727528,0.016543558,-0.25355586
362485008,0.0,0.0,-2.1240633,1.1718074,0.0,0.0,0.0,-0.0072648623,0.0,0.0,0.0,-0.005076356,0.012305688,-0.21467745
362588688,0.0,0.0,-2.1285222,1.1718074,0.0,0.0,0.0,-0.011804946,0.0,0.0,0.0,-0.004906987,0.011724274,-0.21575575
362692646,0.0,0.0,-2.1344106,1.1718074,-0.0,0.0,0.0,-0.013863685,0.0,0.0,0.0,-0.006006355,0.014954815,-0.26261863
362794099,0.0,0.0,-2.1410685,1.1718074,-0.0,0.0,0.0,-0.01706416,0.0,0.0,0.0,-0.0059225042,0.01477892,-0.26444468
362890054,0.0,0.0,-2.1463943,1.1718074,-0.0,0.0,0.0,-0.01835966,0.0,0.0,0.0,-0.006295399,0.014050826,-0.29960808
362994315,0.0,0.0,-2.1499078,1.1718074,0.0,0.0,0.0,-0.01954542,0.0,0.0,0.0,-0.0052152174,0.013303903,-0.29257786
363098069,0.0,0.0,-2.1493933,1.1718074,0.0,0.0,0.0,-0.019111088,0.0,0.0,0.0,-0.0050898576,0.012782158,-0.29343143
363193949,0.0,0.0,-2.1530774,1.1718074,0.0,0.0,0.0,-0.01693719,0.0,0.0,0.0,-0.004826633,0.011915692,-0.29333627
363298670,0.0,0.0,-2.1573968,1.1718074,-0.0,0.0,0.0,-0.021252133,0.0,0.0,0.0,-0.0049372544,0.011889006,-0.2978079
363402561,0.0,0.0,-2.160435,1.1718074,0.0,0.0,0.0,-0.021618117,0.0,0.0,0.0,-0.0054497453,0.01383894,-0.3035982
363499627,0.0,0.0,-2.1668212,1.1718074,0.0,0.0,0.0,-0.034450997,0.0,0.0,0.0,-0.007338622,0.018825587,-0.35783496
363603821,0.0,0.0,-2.1748354,1.1718074,0.0,0.0,0.0,-0.039378334,0.0,0.0,0.0,-0.008427075,0.021007251,-0.35650417
363708344,0.0,0.0,-2.183314,1.1718074,0.0,0.0,0.0,-0.033342734,0.0,0.0,0.0,-0.008045707,0.018525876,-0.38922903
363803642,0.0,0.0,-2.1896071,1.1718074,0.0,0.0,0.0,-0.03328744,0.0,0.0,0.0,-0.0039793085,0.007527266,-0.38745892
363907967,0.0,0.0,-2.2008572,1.1718074,0.0,0.0,0.0,-0.03449916,0.0,0.0,0.0,-0.0015076488,0.004589644,-0.38971424
364011739,0.0,0.0,-2.2125397,1.1718074,0.0,0.0,0.0,-0.0353735,0.0,0.0,0.0,-0.0060301726,0.01677812,-0.39119223
364107648,0.0,0.0,-2.2194297,1.1718074,0.0,0.0,0.0,-0.03909527,0.0,0.0,0.0,-0.010637423,0.026413267,-0.399135
364214052,0.0,0.0,-2.2242208,1.1718074,0.0,0.0,0.0,-0.037204757,0.0,0.0,0.0,-0.010111788,0.024841586,-0.40615073
364317910,0.0,0.0,-2.2274911,1.1718074,0.0,0.0,0.0,-0.04855186,0.0,0.0,0.0,-0.0059687123,0.012759726,-0.4523868
364421308,0.0,0.0,-2.2315743,1.1718074,0.0,0.0,0.0,-0.041842353,0.0,0.0,0.0,-0.0025274989,0.0011258664,-0.49200687
364517913,0.0,0.0,-2.2394753,1.1718074,0.0,0.0,0.0,-0.07099807,0.0,0.0,0.0,-4.275853e-07,5.6701515e-07,-0.4925008
364622064,0.0,0.0,-2.2477834,1.1718074,0.0,0.0,0.0,-0.04967278,0.0,0.0,0.0,3.323759e-10,-7.490081e-10,-0.49385077
364725454,0.0,0.0,-2.2486482,1.1718074,0.0,0.0,0.0,-0.036815967,0.0,0.0,0.0,-0.0011783666,0.004702046,-0.4929848
364821982,0.0,0.0,-2.2461371,1.1718074,0.0,0.0,0.0,-0.030684363,0.0,0.0,0.0,-0.0018082208,0.004487313,-0.4930746
364926888,0.0,0.0,-2.2395327,1.1718074,0.0,0.0,0.0,-0.03315305,0.0,0.0,0.0,-0.010579715,0.021575136,-0.49337584
365031677,0.0,0.0,-2.2218544,1.1718074,0.0,0.0,0.0,-0.011771586,0.0,0.0,0.0,-0.0020999308,0.0059923045,-0.49306512
365135453,0.0,0.0,-2.1939495,1.1718074,0.0,0.0,0.0,0.02356732,0.0,0.0,0.0,-6.5905037e-06,3.557841e-05,-0.493836
365230934,0.0,0.0,-2.1671193,1.1718074,0.0,0.0,0.0,0.05222767,0.0,0.0,0.0,1.4885741e-08,-3.7657677e-09,-0.49276066
365334848,0.0,0.0,-2.1303089,1.1718074,0.0,0.0,0.0,0.085586004,0.0,0.0,0.0,0.010922846,-0.03672735,-0.49204233
365439063,0.0,0.0,-2.0915966,1.1718074,0.0,0.0,0.0,0.12080149,0.0,0.0,0.0,0.031280085,-0.073070966,-0.48634315
365535078,0.0,0.0,-2.051934,1.1718074,0.0,0.0,0.0,0.069684155,0.0,0.0,0.0,0.025152912,-0.0603708,-0.4888081
365641057,0.0,0.0,-2.0096545,1.1718074,0.0,0.0,0.0,0.035995513,0.0,0.0,0.0,0.013398247,-0.0097943265,-0.4939519
365744361,0.0,0.0,-1.9684818,1.1718074,0.0,0.0,0.0,0.066277295,0.0,0.0,0.0,-5.3780377e-06,9.066619e-06,-0.49296778
365841107,0.0,0.0,-1.9311085,1.1718074,0.0,0.0,0.0,0.108578525,0.0,0.0,0.0,2.3691158e-09,1.3227697e-10,-0.49331346
365945544,0.0,0.0,-1.8948535,1.1718074,0.0,0.0,0.0,0.15060486,0.0,0.0,0.0,0.0,0.0,-0.49304354
366048671,0.0,0.0,-1.864964,1.1718074,0.0,0.0,0.0,0.18429688,0.0,0.0,0.0,0.0,0.0,-0.46510318
366144521,0.0,0.0,-1.8420638,1.1718074,-0.0,0.0,0.0,0.2259436,0.0,0.0,0.0,0.0,0.0,-0.38616335
366249065,0.0,0.0,-1.8158805,1.1718074,-0.0,0.0,0.0,0.0819709,0.0,0.0,0.0,0.0,0.0,-0.35918885
366354994,0.0,0.0,-1.79465,1.1718074,-0.0,0.0,0.0,0.18653823,0.0,0.0,0.0,0.0,0.0,-0.37351885
366458196,0.0,0.0,-1.7724913,1.1718074,-0.0,0.0,0.0,0.14759077,0.0,0.0,0.0,0.0,0.0,-0.37431678
366554074,0.0,0.0,-1.7579203,1.1718074,-0.0,0.0,0.0,0.14698048,0.0,0.0,0.0,0.0,0.0,-0.37012774
366659048,0.0,0.0,-1.7492181,1.1718074,0.0,0.0,0.0,0.14888935,0.0,0.0,0.0,0.0,0.0,-0.370821
366762611,0.0,0.0,-1.7469409,1.1718074,0.0,0.0,0.0,0.14498542,0.0,0.0,0.0,0.0,0.0,-0.37858492
366858710,0.0,0.0,-1.7454083,1.1718074,0.0,0.0,0.0,0.13685146,0.0,0.0,0.0,0.0,0.0,-0.4014562
366961994,0.0,0.0,-1.7468723,1.1718074,-0.0,0.0,0.0,0.14091793,0.0,0.0,0.0,0.0,0.0,-0.39960524
367067711,0.0,0.0,-1.7503507,1.1718074,-0.0,0.0,0.0,0.13796571,0.0,0.0,0.0,0.0,0.0,-0.39964685
367163467,0.0,0.0,-1.7549512,1.1718074,-0.0,0.0,0.0,0.13530447,0.0,0.0,0.0,0.0,0.0,-0.42019847
367266870,0.0,0.0,-1.7564712,1.1718074,0.0,0.0,0.0,0.11967299,0.0,0.0,0.0,0.0,0.0,-0.4270735
367371097,0.0,0.0,-1.7623724,1.1718074,0.0,0.0,0.0,0.11082177,0.0,0.0,0.0,0.0,0.0,-0.44334057
367467722,0.0,0.0,-1.7694913,1.1718074,0.0,0.0,0.0,0.105397105,0.0,0.0,0.0,6.339545e-05,0.0019293522,-0.45071453
367571666,0.0,0.0,-1.7741252,1.1718074,-0.0,0.0,0.0,0.098267026,0.0,0.0,0.0,-0.007330338,0.018006079,-0.4504253
367675713,0.0,0.0,-1.7754632,1.1718074,-0.0,0.0,0.0,0.10169266,0.0,0.0,0.0,-0.0063110054,0.016621169,-0.4505836
367778910,0.0,0.0,-1.7735758,1.1718074,-0.0,0.0,0.0,0.09461706,0.0,0.0,0.0,-0.010992012,0.02756245,-0.44965008
367874834,0.0,0.0,-1.7693564,1.1718074,0.0,0.0,0.0,0.09171516,0.0,0.0,0.0,-0.007571602,0.015640087,-0.4510235
367980504,0.0,0.0,-1.7663988,1.1718074,0.0,0.0,0.0,0.09183679,0.0,0.0,0.0,-0.0075465376,0.021055767,-0.4499768
368076539,0.0,0.0,-1.7712947,1.1718074,-0.0,0.0,0.0,0.095905155,0.0,0.0,0.0,-0.011849509,0.028709594,-0.45336825
368180766,0.0,0.0,-1.787823,1.1718074,-0.0,0.0,0.0,0.041769672,0.0,0.0,0.0,-0.011138554,0.02525474,-0.49309027
368284400,0.0,0.0,-1.8133924,1.1718074,0.0,0.0,0.0,0.022262447,0.0,0.0,0.0,-0.0044993395,0.00973328,-0.49301472
368380448,0.0,0.0,-1.8395137,1.1718074,0.0,0.0,0.0,0.04396467,0.0,0.0,0.0,2.6935166e-05,-4.4288558e-05,-0.49423957
368484947,0.0,0.0,-1.8617091,1.1718074,0.0,0.0,0.0,0.06575024,0.0,0.0,0.0,-1.3839338e-08,5.502531e-08,-0.49301624
368588568,0.0,0.0,-1.8752099,1.1718074,0.0,0.0,0.0,0.09384957,0.0,0.0,0.0,0.0,0.0,-0.4938355
368686624,0.0,0.0,-1.881761,1.1718074,-0.0,0.0,0.0,0.09145261,0.0,0.0,0.0,0.0,0.0,-0.49304363
368790193,0.0,0.0,-1.8842175,1.1718074,0.0,0.0,0.0,0.066115715,0.0,0.0,0.0,6.198238e-05,0.00014701637,-0.49310493
368894242,0.0,0.0,-1.8836186,1.1718074,0.0,0.0,0.0,0.044587668,0.0,0.0,0.0,4.49848e-05,-1.0572166e-05,-0.49402016
368990010,0.0,0.0,-1.8773835,1.1718074,-0.0,0.0,0.0,0.05287266,0.0,0.0,0.0,-7.485634e-08,3.208886e-08,-0.4930757
369094027,0.0,0.0,-1.870791,1.1718074,0.0,0.0,0.0,0.07321004,0.0,0.0,0.0,0.0,0.0,-0.49383593
369198536,0.0,0.0,-1.8627476,1.1718074,0.0,0.0,0.0,0.055814322,0.0,0.0,0.0,0.0,0.0,-0.49304357
369294793,0.0,0.0,-1.8512337,1.1718074,0.0,0.0,0.0,0.07346794,0.0,0.0,0.0,0.0,0.0,-0.49309838
369396316,0.0,0.0,-1.8379582,1.1718074,0.0,0.0,0.0,0.058815468,0.0,0.0,0.0,-0.004940886,0.017177718,-0.49369672
369499721,0.0,0.0,-1.8269116,1.1718074,0.0,0.0,0.0,0.0073236506,0.0,0.0,0.0,-0.02109908,0.056735497,-0.489377
369604170,0.0,0.0,-1.8242266,1.1718074,0.0,0.0,0.0,-0.03270767,0.0,0.0,0.0,-0.023865914,0.054874364,-0.48982364
369699633,0.0,0.0,-1.8213378,1.1718074,0.0,0.0,0.0,0.0022686147,0.0,0.0,0.0,-0.017026575,0.037543967,-0.49140665
369803843,0.0,0.0,-1.8193315,1.1718074,0.0,0.0,0.0,0.063914515,0.0,0.0,0.0,-0.013704582,0.034041207,-0.49173188
369908548,0.0,0.0,-1.8166946,1.1718074,0.0,0.0,0.0,0.096501075,0.0,0.0,0.0,-0.009190203,0.022392267,-0.49247783
370009098,0.0,0.0,-1.809516,1.1718074,0.0,0.0,0.0,0.107981354,0.0,0.0,0.0,-0.008983526,0.022084478,-0.4925287
370113269,0.0,0.0,-1.8012648,1.1718074,0.0,0.0,0.0,0.07769669,0.0,0.0,0.0,-0.01369826,0.035774924,-0.49231264
370209330,0.0,0.0,-1.8017639,1.1718074,0.0,0.0,0.0,-0.015154617,0.0,0.0,0.0,-0.014659728,0.036083117,-0.49159473
370313217,0.0,0.0,-1.8122363,1.1718074,0.0,0.0,0.0,-0.0054586614,0.0,0.0,0.0,-0.013413615,0.032661915,-0.49204835
370418125,0.0,0.0,-1.8229893,1.1718074,0.0,0.0,0.0,0.016240772,0.0,0.0,0.0,-0.012598738,0.031057216,-0.49227244
370521936,0.0,0.0,-1.8316028,1.1718074,0.0,0.0,0.0,0.025654325,0.0,0.0,0.0,-0.012477111,0.029809438,-0.49182454
370617791,0.0,0.0,-1.8357216,1.1718074,0.0,0.0,0.0,0.02411602,0.0,0.0,0.0,-0.012467052,0.030641768,-0.4927509
370722050,0.0,0.0,-1.8361586,1.1718074,0.0,0.0,0.0,0.026221134,0.0,0.0,0.0,-0.011573203,0.027730765,-0.49221915
370826866,0.0,0.0,-1.8421915,1.1718074,0.0,0.0,0.0,0.04011387,0.0,0.0,0.0,-0.008466618,0.020194024,-0.49335063
370922842,0.0,0.0,-1.8510523,1.1718074,0.0,0.0,0.0,0.045868106,0.0,0.0,0.0,-0.007328699,0.018471565,-0.49323127
371027309,0.0,0.0,-1.8531059,1.1718074,0.0,0.0,0.0,0.029152198,0.0,0.0,0.0,-0.0071072755,0.016701967,-0.4922214
371131601,0.0,0.0,-1.8546982,1.1718074,0.0,0.0,0.0,0.024314145,0.0,0.0,0.0,-0.006602301,0.015727265,-0.49314442
371226827,0.0,0.0,-1.8551147,1.1718074,0.0,0.0,0.0,0.04238326,0.0,0.0,0.0,-0.0029438543,0.0066255047,-0.4930881
371331115,0.0,0.0,-1.8564785,1.1718074,0.0,0.0,0.0,0.060894508,0.0,0.0,0.0,-0.000109580935,1.7283359e-05,-0.49420705
371436398,0.0,0.0,-1.8561292,1.1718074,0.0,0.0,0.0,0.05147332,0.0,0.0,0.0,-3.3999196e-08,2.9625724e-08,-0.49412394
371540515,0.0,0.0,-1.8534226,1.1718074,0.0,0.0,0.0,0.033218637,0.0,0.0,0.0,3.9120394e-11,-4.4910423e-11,-0.49569955
371636949,0.0,0.0,-1.8479505,1.1718074,0.0,0.0,0.0,0.017408175,0.0,0.0,0.0,1.4989641e-07,-0.0004172132,-0.49622014
371740570,0.0,0.0,-1.835231,1.1718074,0.0,0.0,0.0,0.020654723,0.0,0.0,0.0,0.008096146,-0.02002041,-0.49582118
371844654,0.0,0.0,-1.8176967,1.1718074,0.0,0.0,0.0,0.032105025,0.0,0.0,0.0,0.00796664,-0.018742677,-0.49678868
371941434,0.0,0.0,-1.804204,1.1718074,0.0,0.0,0.0,0.03437119,0.0,0.0,0.0,0.007978279,-0.019976167,-0.49557555
372044448,0.0,0.0,-1.7881299,1.1718074,0.0,0.0,0.0,0.0474962,0.0,0.0,0.0,0.012412859,-0.030824859,-0.4959384
372150104,0.0,0.0,-1.7669046,1.1718074,0.0,0.0,0.0,0.049024757,0.0,0.0,0.0,0.0108842235,-0.026322737,-0.49537835
372246775,0.0,0.0,-1.7492132,1.1718074,0.0,0.0,0.0,0.042725984,0.0,0.0,0.0,-0.0003385137,0.00050454243,-0.4955103
372350689,0.0,0.0,-1.7345303,1.1718074,0.0,0.0,0.0,0.035294335,0.0,0.0,0.0,1.167615e-07,1.8997916e-08,-0.49649242
372454091,0.0,0.0,-1.7292691,1.1718074,0.0,0.0,0.0,0.02410884,0.0,0.0,0.0,5.4470532e-11,-3.7495878e-11,-0.49523798
372550070,0.0,0.0,-1.7306926,1.1718074,0.0,0.0,0.0,0.009333806,0.0,0.0,0.0,0.0,0.0,-0.49486297
372654612,0.0,0.0,-1.7320518,1.1718074,0.0,0.0,0.0,0.029385725,0.0,0.0,0.0,0.013816376,-0.03621179,-0.4926729
372758248,0.0,0.0,-1.7356323,1.1718074,0.0,0.0,0.0,0.010081968,0.0,0.0,0.0,0.015146961,-0.04001572,-0.49341747
372855646,0.0,0.0,-1.7480148,1.1718074,0.0,0.0,0.0,-0.030552553,0.0,0.0,0.0,0.02307202,-0.052714113,-0.49075058
372959614,0.0,0.0,-1.7616831,1.1718074,0.0,0.0,0.0,-0.04671513,0.0,0.0,0.0,0.018527796,-0.045806933,-0.49276832
373064196,0.0,0.0,-1.7685841,1.1718074,0.0,0.0,0.0,-0.019015461,0.0,0.0,0.0,0.018492136,-0.042103384,-0.49419105
373168517,0.0,0.0,-1.7678467,1.1718074,0.0,0.0,0.0,-0.00035719783,0.0,0.0,0.0,0.00022584254,-0.00018432291,-0.4947654
373263905,0.0,0.0,-1.7648076,1.1718074,0.0,0.0,0.0,0.06437379,0.0,0.0,0.0,-0.0132358605,0.040973503,-0.4940806
373368558,0.0,0.0,-1.7722818,1.1718074,0.0,0.0,0.0,-0.008901244,0.0,0.0,0.0,-0.0276897,0.068897285,-0.48956868
373472118,0.0,0.0,-1.7998344,1.1718074,0.0,0.0,0.0,-0.1461147,0.0,0.0,0.0,-0.028566828,0.07044041,-0.48935384
373574244,0.0,0.0,-1.8336184,1.1718074,0.0,0.0,0.0,-0.12825952,0.0,0.0,0.0,-0.028478073,0.06786425,-0.4901294
373669852,0.0,0.0,-1.8578743,1.1718074,0.0,0.0,0.0,-0.05652899,0.0,0.0,0.0,-0.024557516,0.05926851,-0.49105623
373773572,0.0,0.0,-1.8794831,1.1718074,0.0,0.0,0.0,0.025841849,0.0,0.0,0.0,-0.019746613,0.043905705,-0.49339798
373877292,0.0,0.0,-1.8997763,1.1718074,0.0,0.0,0.0,0.05700898,0.0,0.0,0.0,-0.007898875,0.007963013,-0.4950655
373973211,0.0,0.0,-1.9159194,1.1718074,0.0,0.0,0.0,0.057477538,0.0,0.0,0.0,8.483382e-07,1.0558517e-06,-0.49540567
