timestamp,roll_body,pitch_body,yaw_body,yaw_sp_move_rate,q_d[0],q_d[1],q_d[2],q_d[3],thrust,landing_gear,q_d_valid,roll_reset_integral,pitch_reset_integral,yaw_reset_integral,fw_control_yaw,disable_mc_yaw_control,apply_flaps
310018952,0.0,-0.0,0.49091527,0.0,0.9700262,0.0,-0.0,0.24300027,0.08,0.0,1,0,0,0,0,0,0
310117005,0.0,-0.0,0.49091527,0.0,0.9700262,0.0,-0.0,0.24300027,0.08,0.0,1,0,0,0,0,0,0
310219588,0.0,-0.0,0.49091527,0.0,0.9700262,0.0,-0.0,0.24300027,0.08,0.0,1,0,0,0,0,0,0
310325101,0.0,-0.0,0.49091527,0.0,0.9700262,0.0,-0.0,0.24300027,0.08,0.0,1,0,0,0,0,0,0
310421044,0.0,-0.0,0.49091527,0.0,0.9700262,0.0,-0.0,0.24300027,0.08,0.0,1,0,0,0,0,0,0
310524688,0.0,-0.0,0.49091527,0.0,0.9700262,0.0,-0.0,0.24300027,0.08,0.0,1,0,0,0,0,0,0
310628496,0.0,-0.0,0.49091527,0.0,0.9700262,0.0,-0.0,0.24300027,0.08,0.0,1,0,0,0,0,0,0
310730573,0.0,-0.0,0.49091527,0.0,0.9700262,0.0,-0.0,0.24300027,0.08,0.0,1,0,0,0,0,0,0
310826957,0.0,-0.0,0.49091527,0.0,0.9700262,0.0,-0.0,0.24300027,0.08,0.0,1,0,0,0,0,0,0
310930059,0.0,-0.0,0.49091527,0.0,0.9700262,0.0,-0.0,0.24300027,0.08,0.0,1,0,0,0,0,0,0
311033983,0.0,-0.0,0.49091527,0.0,0.9700262,0.0,-0.0,0.24300027,0.08,0.0,1,0,0,0,0,0,0
311138694,0.0,-0.0,0.49091527,0.0,0.9700262,0.0,-0.0,0.24300027,0.08,0.0,1,0,0,0,0,0,0
311234018,0.0,-0.0,0.49091527,0.0,0.9700262,0.0,-0.0,0.24300027,0.08,0.0,1,0,0,0,0,0,0
311338313,0.0,-0.0,0.49091527,0.0,0.9700262,0.0,-0.0,0.24300027,0.08,0.0,1,0,0,0,0,0,0
311443635,0.0,-0.0,0.49091527,0.0,0.9700262,0.0,-0.0,0.24300027,0.08,0.0,1,0,0,0,0,0,0
311547949,0.0,-0.0,0.49091527,0.0,0.9700262,0.0,-0.0,0.24300027,0.08,0.0,1,0,0,0,0,0,0
311651802,0.0,-0.0,0.49091527,0.0,0.9700262,0.0,-0.0,0.24300027,0.08,0.0,1,0,0,0,0,0,0
311747754,0.0,-0.0,0.49091527,0.0,0.9700262,0.0,-0.0,0.24300027,0.0876683,0.0,1,0,0,0,0,0,0
311851705,0.0,-0.0,0.49091527,0.0,0.9700262,0.0,-0.0,0.24300028,0.099499546,0.0,1,0,0,0,0,0,0
311956742,0.0,-0.0,0.49091527,0.0,0.9700262,0.0,-0.0,0.24300027,0.10307902,0.0,1,0,0,0,0,0,0
312051912,0.0,-0.0,0.49091527,0.0,0.9700262,0.0,-0.0,0.24300027,0.14199404,0.0,1,0,0,0,0,0,0
312155768,0.0,-0.0,0.49091527,0.0,0.9700262,0.0,-0.0,0.24300027,0.15837622,0.0,1,0,0,0,0,0,0
312261851,0.0,-0.0,0.49091527,0.0,0.9700262,0.0,-0.0,0.24300027,0.17289451,0.0,1,0,0,0,0,0,0
312357238,0.0,-0.0,0.49091527,0.0,0.9700262,0.0,-0.0,0.24300027,0.1823735,0.0,1,0,0,0,0,0,0
312461804,0.0,-0.0,0.49091527,0.0,0.9700262,0.0,-0.0,0.24300027,0.1920637,0.0,1,0,0,0,0,0,0
312565248,0.0,-0.0,0.49091527,0.0,0.9700262,0.0,-0.0,0.24300027,0.20961471,0.0,1,0,0,0,0,0,0
312661741,0.0,-0.0,0.49091527,0.0,0.9700262,0.0,-0.0,0.24300027,0.21160078,0.0,1,0,0,0,0,0,0
312765252,0.0,-0.0,0.49091527,0.0,0.9700262,0.0,-0.0,0.24300027,0.20954505,0.0,1,0,0,0,0,0,0
312869229,0.0,-0.0,0.49091527,0.0,0.9700262,0.0,-0.0,0.24300027,0.21384062,0.0,1,0,0,0,0,0,0
312966925,0.0,-0.0,0.49091527,0.0,0.9700262,0.0,-0.0,0.24300027,0.2156927,0.0,1,0,0,0,0,0,0
313070998,0.0,-0.0,0.49091527,0.0,0.9700262,0.0,-0.0,0.24300027,0.22697048,0.0,1,0,0,0,0,0,0
313175403,0.0,-0.0,0.49091527,0.0,0.9700262,0.0,-0.0,0.24300027,0.23995814,0.0,1,0,0,0,0,0,0
313278850,0.0,-0.0,0.49091527,0.0,0.9700262,0.0,-0.0,0.24300027,0.24893862,0.0,1,0,0,0,0,0,0
313374921,0.0,-0.0,0.49091527,0.0,0.9700262,0.0,-0.0,0.24300027,0.25103414,0.0,1,0,0,0,0,0,0
313479431,3.730131e-11,-0.0009706748,0.49091527,0.0,0.9700261,0.000117937125,-0.00047079,0.24300022,0.25613198,0.0,1,0,0,0,0,0,0
313583120,0.018139794,-0.019048547,0.49091527,0.0,0.96992135,0.011111789,-0.007034419,0.24306306,0.2668167,0.0,1,0,0,0,0,0,0
313684224,0.023487817,-0.023573466,0.49091527,0.0,0.9698583,0.014254761,-0.008578878,0.24310088,0.29025182,0.0,1,0,0,0,0,0,0
313780485,0.024301575,-0.024041444,0.49091527,0.0,0.96984905,0.014706193,-0.008706914,0.24310644,0.2995675,0.0,1,0,0,0,0,0,0
313885120,0.026685113,-0.027272062,0.49091527,0.0,0.96980554,0.016254205,-0.009983873,0.24313255,0.3232856,0.0,1,0,0,0,0,0,0
313989191,0.034471903,-0.037866656,0.49091527,0.0,0.969629,0.021315346,-0.014174616,0.24323711,0.3216665,0.0,1,0,0,0,0,0,0
314092434,0.05014622,-0.05055429,0.49091527,0.0,0.96925753,0.030451028,-0.01841899,0.24346092,0.323257,0.0,1,0,0,0,0,0,0
314188550,0.053188976,-0.053795427,0.49091527,0.0,0.96915865,0.032318033,-0.019619748,0.24352017,0.32324946,0.0,1,0,0,0,0,0,0
314292595,0.05714067,-0.058045704,0.49091527,0.0,0.96902055,0.034747228,-0.021198759,0.24360293,0.34668645,0.0,1,0,0,0,0,0,0
314397030,0.06502754,-0.06548757,0.49091527,0.0,0.9687353,0.039467875,-0.023844643,0.243774,0.35219342,0.0,1,0,0,0,0,0,0
314494182,0.06813471,-0.068317756,0.49091527,0.0,0.9686152,0.041314755,-0.024837397,0.243846,0.37699312,0.0,1,0,0,0,0,0,0
314598322,0.070443965,-0.070593044,0.49091527,0.0,0.9685188,0.042707875,-0.02565836,0.24390373,0.39696017,0.0,1,0,0,0,0,0,0
314694241,0.07358567,-0.073910914,0.49091527,0.0,0.9683776,0.044629663,-0.026882796,0.24398835,0.42674643,0.0,1,0,0,0,0,0,0
314798120,0.07277764,-0.07296494,0.49091527,0.0,0.9684166,0.04412425,-0.026523024,0.24396499,0.4308912,0.0,1,0,0,0,0,0,0
314902335,0.08452014,-0.08558436,0.49091527,0.0,0.96783376,0.051329717,-0.031203065,0.24431421,0.44567224,0.0,1,0,0,0,0,0,0
315006558,0.08913737,-0.089925304,0.49091527,0.0,0.96759695,0.054086212,-0.03274129,0.24445617,0.46120077,0.0,1,0,0,0,0,0,0
315411804,0.07114238,-0.070262,0.49091527,0.0,0.9685109,0.04300611,-0.025412776,0.24390842,0.49413973,0.0,1,0,0,0,0,0,0
315515763,0.045377966,-0.04430089,0.49091527,0.0,0.96941656,0.027382359,-0.015967624,0.24336554,0.49489745,0.0,1,0,0,0,0,0,0
315611815,0.039161716,-0.039180707,0.49091527,0.0,0.969561,0.02374833,-0.014241361,0.2432791,0.48611197,0.0,1,0,0,0,0,0,0
315715676,0.030628402,-0.024540227,0.49091527,0.0,0.96979386,0.017834695,-0.008179708,0.24313577,0.4949695,0.0,1,0,0,0,0,0,0
315820145,0.0001731946,-4.1287407e-05,0.49091527,0.0,0.9700262,8.901808e-05,1.0182334e-06,0.24300027,0.4958073,0.0,1,0,0,0,0,0,0
315920473,0.051822998,-0.054839306,0.49091527,0.0,0.9691635,0.031782486,-0.020292092,0.24351642,0.49670115,0.0,1,0,0,0,0,0,0
316017273,0.06984547,-0.06798246,0.49091527,0.0,0.96858644,0.04210277,-0.024466323,0.24386282,0.4984361,0.0,1,0,0,0,0,0,0
316121866,0.055493478,-0.054865327,0.49091527,0.0,0.9691031,0.033564225,-0.01985776,0.24355347,0.50796556,0.0,1,0,0,0,0,0,0
316226069,0.05319304,-0.054279357,0.49091527,0.0,0.9691507,0.032378584,-0.019853838,0.24352488,0.50776714,0.0,1,0,0,0,0,0,0
316321369,0.05865542,-0.058805656,0.49091527,0.0,0.9689805,0.03557307,-0.021382604,0.24362701,0.51524955,0.0,1,0,0,0,0,0,0
316425123,0.03990597,-0.035260804,0.49091527,0.0,0.9695969,0.023633746,-0.012250159,0.24325532,0.5349497,0.0,1,0,0,0,0,0,0
316530093,0.009890139,-0.008120744,0.49091527,0.0,0.9700015,0.005783444,-0.0027369696,0.2430148,0.5397184,0.0,1,0,0,0,0,0,0
316633264,-4.6795052e-05,-1.2612764e-05,0.49091527,0.0,0.9700262,-2.116376e-05,-1.180296e-05,0.24300028,0.54247767,0.0,1,0,0,0,0,0,0
316735071,-1.9298716e-08,6.1323564e-09,0.49091527,0.0,0.9700262,-1.0105213e-08,6.2947686e-10,0.24300027,0.5434929,0.0,1,0,0,0,0,0,0
316838985,0.0,-0.0,0.49091527,0.0,0.9700262,0.0,-0.0,0.24300027,0.5410141,0.0,1,0,0,0,0,0,0
316934818,0.0,-0.0,0.49091527,0.0,0.9700262,0.0,-0.0,0.24300027,0.5419677,0.0,1,0,0,0,0,0,0
317039054,0.0,-0.0,0.49091527,0.0,0.9700262,0.0,-0.0,0.24300027,0.54098356,0.0,1,0,0,0,0,0,0
317142919,0.0,-0.0,0.49091527,0.0,0.9700262,0.0,-0.0,0.24300027,0.5410859,0.0,1,0,0,0,0,0,0
317239600,0.0,-0.0,0.49091527,0.0,0.9700262,0.0,-0.0,0.24300027,0.5402073,0.0,1,0,0,0,0,0,0
317343133,0.0,-0.0,0.49091527,0.0,0.9700262,0.0,-0.0,0.24300027,0.5395702,0.0,1,0,0,0,0,0,0
317449070,0.0,-0.0,0.49091527,0.0,0.9700262,0.0,-0.0,0.24300027,0.5411759,0.0,1,0,0,0,0,0,0
317552695,0.0,-0.0,0.49091527,0.0,0.9700262,0.0,-0.0,0.24300027,0.53979784,0.0,1,0,0,0,0,0,0
317648930,0.0,-0.0,0.49091527,0.0,0.9700262,0.0,-0.0,0.24300027,0.5405215,0.0,1,0,0,0,0,0,0
317752567,0.0,-0.0,0.49091527,0.0,0.9700262,0.0,-0.0,0.24300027,0.5397661,0.0,1,0,0,0,0,0,0
317857274,0.0,-0.0,0.49091527,0.0,0.9700262,0.0,-0.0,0.24300027,0.5407118,0.0,1,0,0,0,0,0,0
317953327,0.0,-0.0,0.49091527,0.0,0.9700262,0.0,-0.0,0.24300027,0.54178995,0.0,1,0,0,0,0,0,0
318056419,0.0,-0.0,0.49091527,0.0,0.9700262,0.0,-0.0,0.24300027,0.5422983,0.0,1,0,0,0,0,0,0
318162115,0.0,-0.0,0.49091527,0.0,0.9700262,0.0,-0.0,0.24300027,0.54650295,0.0,1,0,0,0,0,0,0
318258193,0.0,-0.0,0.49091527,0.0,0.9700262,0.0,-0.0,0.24300027,0.54789853,0.0,1,0,0,0,0,0,0
318361996,0.0,-0.0,0.49091527,0.0,0.9700262,0.0,-0.0,0.24300027,0.5680478,0.0,1,0,0,0,0,0,0
319276190,0.0,-0.0,0.49091527,0.0,0.9700262,0.0,-0.0,0.24300027,0.5492891,0.0,1,0,0,0,0,0,0
319380534,0.0,-0.0,0.49091527,0.0,0.9700262,0.0,-0.0,0.24300028,0.4978192,0.0,1,0,0,0,0,0,0
319476448,0.0,-0.0,0.49091527,0.0,0.9700262,0.0,-0.0,0.24300027,0.49745724,0.0,1,0,0,0,0,0,0
319580196,0.0,-0.0,0.49091527,0.0,0.9700262,0.0,-0.0,0.24300027,0.4973464,0.0,1,0,0,0,0,0,0
319685561,0.0,-0.0,0.49091527,0.0,0.9700262,0.0,-0.0,0.24300027,0.49626258,0.0,1,0,0,0,0,0,0
319789256,0.0,-0.0,0.49091527,0.0,0.9700262,0.0,-0.0,0.24300027,0.49628264,0.0,1,0,0,0,0,0,0
319885944,0.0,-0.0,0.49091527,0.0,0.9700262,0.0,-0.0,0.24300027,0.49517554,0.0,1,0,0,0,0,0,0
319989321,0.0,-0.0,0.49091527,0.0,0.9700262,0.0,-0.0,0.24300028,0.49522227,0.0,1,0,0,0,0,0,0
320093262,0.0,-0.0,0.49091527,0.0,0.9700262,0.0,-0.0,0.24300027,0.49556476,0.0,1,0,0,0,0,0,0
320189238,0.0,-0.0,0.49091527,0.0,0.9700262,0.0,-0.0,0.24300027,0.49523032,0.0,1,0,0,0,0,0,0
320294123,0.0,-0.0,0.49091527,0.0,0.9700262,0.0,-0.0,0.24300027,0.49574047,0.0,1,0,0,0,0,0,0
320399470,0.0,-0.0,0.49091527,0.0,0.9700262,0.0,-0.0,0.24300028,0.49568263,0.0,1,0,0,0,0,0,0
320503364,0.0,-0.0,0.49091527,0.0,0.9700262,0.0,-0.0,0.24300027,0.49522838,0.0,1,0,0,0,0,0,0
320599487,0.0,-0.0,0.49091527,0.0,0.9700262,0.0,-0.0,0.24300028,0.4951977,0.0,1,0,0,0,0,0,0
320703614,0.0,-0.0,0.49091527,0.0,0.9700262,0.0,-0.0,0.24300028,0.4954422,0.0,1,0,0,0,0,0,0
320807618,0.0,-0.0,0.49091527,0.0,0.9700262,0.0,-0.0,0.24300027,0.49716347,0.0,1,0,0,0,0,0,0
320902868,0.0,-0.0,0.49091527,0.0,0.9700262,0.0,-0.0,0.24300027,0.4966246,0.0,1,0,0,0,0,0,0
321007360,0.0,-0.0,0.49091527,0.0,0.9700262,0.0,-0.0,0.24300027,0.50652754,0.0,1,0,0,0,0,0,0
321111907,0.0,-0.0,0.49091527,0.0,0.9700262,0.0,-0.0,0.24300027,0.5594615,0.0,1,0,0,0,0,0,0
321208475,0.0,-0.0,0.49091527,0.0,0.9700262,0.0,-0.0,0.24300027,0.5890284,0.0,1,0,0,0,0,0,0
321313053,0.0,-0.0,0.49091527,0.0,0.9700262,0.0,-0.0,0.24300027,0.62842226,0.0,1,0,0,0,0,0,0
321416496,0.0,-0.0,0.49091527,0.0,0.9700262,0.0,-0.0,0.24300027,0.66423506,0.0,1,0,0,0,0,0,0
321512563,0.0,-0.0,0.49091527,0.0,0.9700262,0.0,-0.0,0.24300028,0.663491,0.0,1,0,0,0,0,0,0
321616979,0.0,-0.0,0.49091527,0.0,0.9700262,0.0,-0.0,0.24300027,0.658454,0.0,1,0,0,0,0,0,0
321720987,0.0,-0.0,0.49091527,0.0,0.9700262,0.0,-0.0,0.24300027,0.65755844,0.0,1,0,0,0,0,0,0
321816773,0.0,-0.0,0.49091527,0.0,0.9700262,0.0,-0.0,0.24300027,0.6354574,0.0,1,0,0,0,0,0,0
321922210,0.0,-0.0,0.49091527,0.0,0.9700262,0.0,-0.0,0.24300027,0.59825814,0.0,1,0,0,0,0,0,0
322026898,0.0,-0.0,0.49091527,0.0,0.9700262,0.0,-0.0,0.24300027,0.57014126,0.0,1,0,0,0,0,0,0
322122157,0.0,-0.0,0.49091527,0.0,0.9700262,0.0,-0.0,0.24300027,0.52120227,0.0,1,0,0,0,0,0,0
322226544,0.0,-0.0,0.49091527,0.0,0.9700262,0.0,-0.0,0.24300027,0.49839953,0.0,1,0,0,0,0,0,0
322330037,0.0,-0.0,0.49091527,0.0,0.9700262,0.0,-0.0,0.24300027,0.49668974,0.0,1,0,0,0,0,0,0
322425970,0.0,-0.0,0.49091527,0.0,0.9700262,0.0,-0.0,0.24300027,0.497059,0.0,1,0,0,0,0,0,0
322530139,0.0,-0.0,0.49091527,0.0,0.9700262,0.0,-0.0,0.24300027,0.49650702,0.0,1,0,0,0,0,0,0
322632644,0.0,-0.0,0.49091527,0.0,0.9700262,0.0,-0.0,0.24300027,0.49712896,0.0,1,0,0,0,0,0,0
322735682,0.0,-0.0,0.49091527,0.0,0.9700262,0.0,-0.0,0.24300027,0.49729127,0.0,1,0,0,0,0,0,0
322831650,0.0,-0.0,0.49091527,0.0,0.9700262,0.0,-0.0,0.24300027,0.4971269,0.0,1,0,0,0,0,0,0
322936381,0.0,-0.0,0.49091527,0.0,0.9700262,0.0,-0.0,0.24300027,0.49832743,0.0,1,0,0,0,0,0,0
323039737,0.0,-0.0,0.49091527,0.0,0.9700262,0.0,-0.0,0.24300027,0.49735463,0.0,1,0,0,0,0,0,0
323135716,0.0,-0.0,0.49091527,0.0,0.9700262,0.0,-0.0,0.24300027,0.49808365,0.0,1,0,0,0,0,0,0
323239650,0.0,-0.0,0.49091527,0.0,0.9700262,0.0,-0.0,0.24300027,0.497258,0.0,1,0,0,0,0,0,0
323344669,0.0,-0.0,0.49091527,0.0,0.9700262,0.0,-0.0,0.24300027,0.49734616,0.0,1,0,0,0,0,0,0
323441823,0.0,-0.0,0.49091527,0.0,0.9700262,0.0,-0.0,0.24300027,0.5038851,0.0,1,0,0,0,0,0,0
323545231,0.0,-0.0,0.49091527,0.0,0.9700262,0.0,-0.0,0.24300027,0.50570756,0.0,1,0,0,0,0,0,0
323649718,0.0,-0.0,0.49091527,0.0,0.9700262,0.0,-0.0,0.24300027,0.5154625,0.0,1,0,0,0,0,0,0
323745992,0.0,-0.0,0.49091527,0.0,0.9700262,0.0,-0.0,0.24300027,0.5411436,0.0,1,0,0,0,0,0,0
323849742,0.0,-0.0,0.49091527,0.0,0.9700262,0.0,-0.0,0.24300027,0.5458249,0.0,1,0,0,0,0,0,0
323954233,0.0,-0.0,0.49091527,0.0,0.9700262,0.0,-0.0,0.24300027,0.5520527,0.0,1,0,0,0,0,0,0
324050071,0.0,-0.0,0.49091527,0.0,0.9700262,0.0,-0.0,0.24300027,0.57248265,0.0,1,0,0,0,0,0,0
324154934,0.0,-0.0,0.49091527,0.0,0.9700262,0.0,-0.0,0.24300027,0.566493,0.0,1,0,0,0,0,0,0
324259126,0.0,-0.0,0.49091527,0.0,0.9700262,0.0,-0.0,0.24300027,0.5659028,0.0,1,0,0,0,0,0,0
324355431,0.0,-0.0,0.49091527,0.0,0.9700262,0.0,-0.0,0.24300027,0.57370037,0.0,1,0,0,0,0,0,0
324458851,0.0,-0.0,0.49091527,0.0,0.9700262,0.0,-0.0,0.24300027,0.5752993,0.0,1,0,0,0,0,0,0
324563353,0.0,-0.0,0.49091527,0.0,0.9700262,0.0,-0.0,0.24300027,0.57389545,0.0,1,0,0,0,0,0,0
324659667,0.0,-0.0,0.49091527,0.0,0.9700262,0.0,-0.0,0.24300027,0.5728555,0.0,1,0,0,0,0,0,0
324762966,0.0,-0.0,0.49091527,0.0,0.9700262,0.0,-0.0,0.24300027,0.5731455,0.0,1,0,0,0,0,0,0
324869256,0.0,-0.0,0.49091527,0.0,0.9700262,0.0,-0.0,0.24300027,0.57384205,0.0,1,0,0,0,0,0,0
324973266,0.0,-0.0,0.49091527,0.0,0.9700262,0.0,-0.0,0.24300027,0.57395583,0.0,1,0,0,0,0,0,0
325069118,0.0,-0.0,0.49091527,0.0,0.9700262,0.0,-0.0,0.24300027,0.5744367,0.0,1,0,0,0,0,0,0
325173448,0.0,-0.0,0.49091527,0.0,0.9700262,0.0,-0.0,0.24300027,0.57396656,0.0,1,0,0,0,0,0,0
325276477,0.0,-0.0,0.49091527,0.0,0.9700262,0.0,-0.0,0.24300027,0.5753577,0.0,1,0,0,0,0,0,0
325372485,0.0,-0.0,0.49091527,0.0,0.9700262,0.0,-0.0,0.24300027,0.5765867,0.0,1,0,0,0,0,0,0
325476687,0.0,-0.0,0.49091527,0.0,0.9700262,0.0,-0.0,0.24300027,0.57736665,0.0,1,0,0,0,0,0,0
325582701,0.0,-0.0,0.49091527,0.0,0.9700262,0.0,-0.0,0.24300027,0.57638174,0.0,1,0,0,0,0,0,0
325678316,0.0,-0.0,0.49091527,0.0,0.9700262,0.0,-0.0,0.24300027,0.57674783,0.0,1,0,0,0,0,0,0
325782925,0.0,-0.0,0.49091527,0.0,0.9700262,0.0,-0.0,0.24300027,0.5728932,0.0,1,0,0,0,0,0,0
325886055,0.0,-0.0,0.49091527,0.0,0.9700262,0.0,-0.0,0.24300027,0.5727005,0.0,1,0,0,0,0,0,0
325982015,0.0,-0.0,0.49091527,0.0,0.9700262,0.0,-0.0,0.24300027,0.5722926,0.0,1,0,0,0,0,0,0
326086010,0.0,-0.0,0.49091527,0.0,0.9700262,0.0,-0.0,0.24300027,0.569113,0.0,1,0,0,0,0,0,0
326190030,0.0,-0.0,0.49091527,0.0,0.9700262,0.0,-0.0,0.24300027,0.5191344,0.0,1,0,0,0,0,0,0
326286833,0.0,-0.0,0.49091527,0.0,0.9700262,0.0,-0.0,0.24300027,0.49739853,0.0,1,0,0,0,0,0,0
326391675,0.0,-0.0,0.49091527,0.0,0.9700262,0.0,-0.0,0.24300027,0.49641874,0.0,1,0,0,0,0,0,0
326496261,0.0,-0.0,0.49091527,0.0,0.9700262,0.0,-0.0,0.24300027,0.49622834,0.0,1,0,0,0,0,0,0
326599861,0.0,-0.0,0.49091527,0.0,0.9700262,0.0,-0.0,0.24300028,0.49628422,0.0,1,0,0,0,0,0,0
326695703,0.0,-0.0,0.49091527,0.0,0.9700262,0.0,-0.0,0.24300028,0.49724033,0.0,1,0,0,0,0,0,0
326799659,0.0,-0.0,0.49091527,0.0,0.9700262,0.0,-0.0,0.24300027,0.49629426,0.0,1,0,0,0,0,0,0
326904703,0.0,-0.0,0.49091527,0.0,0.9700262,0.0,-0.0,0.24300027,0.49736586,0.0,1,0,0,0,0,0,0
327000433,0.0,-0.0,0.49091527,0.0,0.9700262,0.0,-0.0,0.24300027,0.49620408,0.0,1,0,0,0,0,0,0
327102000,0.0,-0.0,0.49091527,0.0,0.9700262,0.0,-0.0,0.24300028,0.49646914,0.0,1,0,0,0,0,0,0
327205538,0.0,-0.0,0.49091527,0.0,0.9700262,0.0,-0.0,0.24300027,0.4961931,0.0,1,0,0,0,0,0,0
327309914,0.0,-0.0,0.49091527,0.0,0.9700262,0.0,-0.0,0.24300027,0.49672088,0.0,1,0,0,0,0,0,0
327414299,0.0,-0.0,0.49091527,0.0,0.9700262,0.0,-0.0,0.24300027,0.49656722,0.0,1,0,0,0,0,0,0
327517241,0.0,-0.0,0.49091527,-0.0,0.9700262,0.0,-0.0,0.24300027,0.5039421,0.0,1,0,0,0,0,0,0
327614335,0.0,-0.0,0.49091527,-0.0,0.9700262,0.0,-0.0,0.24300027,0.5135602,0.0,1,0,0,0,0,0,0
327717214,0.0,-0.0,0.49091527,-0.0,0.9700262,0.0,-0.0,0.24300027,0.5496142,0.0,1,0,0,0,0,0,0
327823466,0.0,-0.0,0.49091527,-0.0,0.9700262,0.0,-0.0,0.24300027,0.5793828,0.0,1,0,0,0,0,0,0
327927518,0.0,-0.0,0.49091527,-0.0,0.9700262,0.0,-0.0,0.24300027,0.5763106,0.0,1,0,0,0,0,0,0
328023417,0.0,-0.0,0.49091527,-0.0,0.9700262,0.0,-0.0,0.24300027,0.5777929,0.0,1,0,0,0,0,0,0
328127314,0.0,-0.0,0.49091527,-0.0,0.9700262,0.0,-0.0,0.24300027,0.5935078,0.0,1,0,0,0,0,0,0
328230976,0.0,-0.0,0.49091527,-0.0,0.9700262,0.0,-0.0,0.24300027,0.592933,0.0,1,0,0,0,0,0,0
328327430,0.0,-0.0,0.49091527,0.0,0.9700262,0.0,-0.0,0.24300027,0.59322244,0.0,1,0,0,0,0,0,0
328430853,0.0,-0.0,0.49091527,0.0,0.9700262,0.0,-0.0,0.24300027,0.5915998,0.0,1,0,0,0,0,0,0
328537287,0.0,-0.0,0.49091527,0.0,0.9700262,0.0,-0.0,0.24300027,0.59271234,0.0,1,0,0,0,0,0,0
328641055,0.0,-0.0,0.49091527,0.0,0.9700262,0.0,-0.0,0.24300027,0.5903757,0.0,1,0,0,0,0,0,0
328736455,0.0,-0.0,0.49091527,-0.0,0.9700262,0.0,-0.0,0.24300027,0.5912699,0.0,1,0,0,0,0,0,0
328841268,0.0,-0.0,0.49091527,0.0,0.9700262,0.0,-0.0,0.24300027,0.5913855,0.0,1,0,0,0,0,0,0
328945049,0.0,-0.0,0.49091527,0.0,0.9700262,0.0,-0.0,0.24300027,0.5904425,0.0,1,0,0,0,0,0,0
329040506,0.0,-0.0,0.49091527,0.0,0.9700262,0.0,-0.0,0.24300027,0.5912784,0.0,1,0,0,0,0,0,0
329144388,0.0,-0.0,0.49091527,0.0,0.9700262,0.0,-0.0,0.24300027,0.5903701,0.0,1,0,0,0,0,0,0
329250299,0.0,-0.0,0.49091527,-0.0,0.9700262,0.0,-0.0,0.24300027,0.5912198,0.0,1,0,0,0,0,0,0
329346566,0.0,-0.0,0.49091527,-0.0,0.9700262,0.0,-0.0,0.24300027,0.589609,0.0,1,0,0,0,0,0,0
329450136,0.0,-0.0,0.49091527,-0.0,0.9700262,0.0,-0.0,0.24300027,0.589912,0.0,1,0,0,0,0,0,0
329554590,0.0,-0.0,0.49091527,0.0,0.9700262,0.0,-0.0,0.24300027,0.5912644,0.0,1,0,0,0,0,0,0
329650833,0.0,-0.0,0.49091527,0.0,0.9700262,0.0,-0.0,0.24300027,0.58987945,0.0,1,0,0,0,0,0,0
329754057,0.0,-0.0,0.49091527,-0.0,0.9700262,0.0,-0.0,0.24300027,0.58981913,0.0,1,0,0,0,0,0,0
329858783,0.0,-0.0,0.49091527,-0.0,0.9700262,0.0,-0.0,0.24300027,0.53855807,0.0,1,0,0,0,0,0,0
329954828,0.0,-0.0,0.49091527,-0.0,0.9700262,0.0,-0.0,0.24300028,0.49528098,0.0,1,0,0,0,0,0,0
330059090,0.0,-0.0,0.49091527,0.0,0.9700262,0.0,-0.0,0.24300027,0.49595326,0.0,1,0,0,0,0,0,0
330163668,0.0,-0.0,0.49091527,0.0,0.9700262,0.0,-0.0,0.24300027,0.49513403,0.0,1,0,0,0,0,0,0
330258955,0.0,-0.0,0.49091527,0.0,0.9700262,0.0,-0.0,0.24300028,0.49543953,0.0,1,0,0,0,0,0,0
330362838,0.0,-0.0,0.49091527,-0.0,0.9700262,0.0,-0.0,0.24300027,0.49645302,0.0,1,0,0,0,0,0,0
330467157,0.0,-0.0,0.49091527,-0.0,0.9700262,0.0,-0.0,0.24300028,0.49511698,0.0,1,0,0,0,0,0,0
330563031,0.0,-0.0,0.49091527,-0.0,0.9700262,0.0,-0.0,0.24300027,0.49685204,0.0,1,0,0,0,0,0,0
330667434,0.0,-0.0,0.49091527,0.0,0.9700262,0.0,-0.0,0.24300027,0.49566105,0.0,1,0,0,0,0,0,0
330770749,0.0,-0.0,0.49091527,0.0,0.9700262,0.0,-0.0,0.24300027,0.49519295,0.0,1,0,0,0,0,0,0
330875663,0.0,-0.0,0.49091527,0.0,0.9700262,0.0,-0.0,0.24300027,0.49556416,0.0,1,0,0,0,0,0,0
330972692,0.0,-0.0,0.49091527,0.0,0.9700262,0.0,-0.0,0.24300027,0.49523032,0.0,1,0,0,0,0,0,0
331077177,0.0,-0.0,0.49091527,0.0,0.9700262,0.0,-0.0,0.24300027,0.49706808,0.0,1,0,0,0,0,0,0
331172525,0.0,-0.0,0.49091527,0.0,0.9700262,0.0,-0.0,0.24300027,0.496188,0.0,1,0,0,0,0,0,0
331276714,0.0,-0.0,0.49091527,0.0,0.9700262,0.0,-0.0,0.24300027,0.49628478,0.0,1,0,0,0,0,0,0
331381018,0.0,-0.0,0.49091527,0.0,0.9700262,0.0,-0.0,0.24300027,0.49736583,0.0,1,0,0,0,0,0,0
331476939,0.0,-0.0,0.49091527,0.0,0.9700262,0.0,-0.0,0.24300027,0.5007027,0.0,1,0,0,0,0,0,0
331581260,0.0,-0.0,0.49091527,-0.0,0.9700262,0.0,-0.0,0.24300027,0.5428603,0.0,1,0,0,0,0,0,0
331681997,0.0,-0.0,0.49091527,-0.0,0.9700262,0.0,-0.0,0.24300027,0.5859836,0.0,1,0,0,0,0,0,0
331786874,0.0,-0.0,0.49091527,-0.0,0.9700262,0.0,-0.0,0.24300027,0.58421624,0.0,1,0,0,0,0,0,0
331882897,0.0,-0.0,0.49091527,0.0,0.9700262,0.0,-0.0,0.24300028,0.58263963,0.0,1,0,0,0,0,0,0
331986603,0.0,-0.0,0.49091527,-0.0,0.9700262,0.0,-0.0,0.24300027,0.5786275,0.0,1,0,0,0,0,0,0
332090541,0.0,-0.0,0.49091527,-0.0,0.9700262,0.0,-0.0,0.24300027,0.5752006,0.0,1,0,0,0,0,0,0
332194066,0.0,-0.0,0.49091527,-0.0,0.9700262,0.0,-0.0,0.24300028,0.5738059,0.0,1,0,0,0,0,0,0
332290060,0.0,-0.0,0.49091527,-0.0,0.9700262,0.0,-0.0,0.24300027,0.5742185,0.0,1,0,0,0,0,0,0
332394897,0.0,-0.0,0.49091527,0.0,0.9700262,0.0,-0.0,0.24300027,0.57212657,0.0,1,0,0,0,0,0,0
332491675,0.0,-0.0,0.49091527,0.0,0.9700262,0.0,-0.0,0.24300027,0.5701559,0.0,1,0,0,0,0,0,0
332595675,0.0,-0.0,0.49091527,0.0,0.9700262,0.0,-0.0,0.24300027,0.5710432,0.0,1,0,0,0,0,0,0
332699677,0.0,-0.0,0.49091527,-0.0,0.9700262,0.0,-0.0,0.24300027,0.56543213,0.0,1,0,0,0,0,0,0
332795676,0.0,-0.0,0.49091527,-0.0,0.9700262,0.0,-0.0,0.24300027,0.55357206,0.0,1,0,0,0,0,0,0
332900213,0.0049706614,-0.0054102507,0.49091527,-0.0,0.970018,0.003068168,-0.0020200978,0.24300516,0.54550004,0.0,1,0,0,0,0,0,0
333004399,0.026087685,-0.027377483,0.49091527,-0.0,0.9698095,0.015977303,-0.0101076225,0.24312998,0.542497,0.0,1,0,0,0,0,0,0
333107807,0.03923602,-0.039003782,0.49091527,0.0,0.9695622,0.023762897,-0.014146539,0.24327837,0.54195774,0.0,1,0,0,0,0,0,0
333204458,0.04915684,-0.05068232,0.49091527,0.0,0.9692706,0.029987043,-0.01860149,0.2434529,0.54105365,0.0,1,0,0,0,0,0,0
333309227,0.01145729,-0.008373845,0.49091527,-0.0,0.969996,0.0065742596,-0.002669304,0.2430174,0.54134727,0.0,1,0,0,0,0,0,0
333412644,0.0015512999,-0.001552843,0.49091527,-0.0,0.97002554,0.00094107096,-0.0005646658,0.2430007,0.5414209,0.0,1,0,0,0,0,0,0
333509187,-0.00016501489,5.915492e-05,0.49091527,-0.0,0.9700262,-8.722172e-05,8.641581e-06,0.24300027,0.54082924,0.0,1,0,0,0,0,0,0
333612446,1.4145865e-10,2.0782673e-08,0.49091527,-0.0,0.9700262,-2.4564883e-09,1.00970565e-08,0.24300027,0.5437996,0.0,1,0,0,0,0,0,0
333716444,0.0,-0.0,0.49091527,-0.0,0.9700262,0.0,-0.0,0.24300028,0.5512043,0.0,1,0,0,0,0,0,0
333812619,0.0,-0.0,0.49091527,-0.0,0.9700262,0.0,-0.0,0.24300027,0.5560536,0.0,1,0,0,0,0,0,0
333916730,0.0015333568,-0.0036754888,0.49091527,-0.0,0.97002393,0.0011902688,-0.0015963558,0.24300116,0.55901957,0.0,1,0,0,0,0,0,0
334020404,0.010094455,-0.010261982,0.49091527,-0.0,0.96999484,0.006142668,-0.003750654,0.24301907,0.5582081,0.0,1,0,0,0,0,0,0
334122318,0.0023448374,-0.0008859737,0.49091527,-0.0,0.97002536,0.0012449222,-0.00014481058,0.24300057,0.5587832,0.0,1,0,0,0,0,0,0
334218305,0.0038305798,-0.0065987143,0.49091527,-0.0,0.9700176,0.0026596116,-0.0027350378,0.24300462,0.55878687,0.0,1,0,0,0,0,0,0
334322042,0.03737612,-0.035601847,0.49091527,-0.0,0.9696223,0.02244863,-0.012723216,0.243242,0.5567679,0.0,1,0,0,0,0,0,0
334426892,0.02753566,-0.02586166,0.49091527,-0.0,0.96980995,0.016495427,-0.009196505,0.2431296,0.5553604,0.0,1,0,0,0,0,0,0
334530799,0.029059522,-0.02864591,0.49091527,-0.0,0.96977377,0.017572302,-0.010361452,0.24315155,0.55500174,0.0,1,0,0,0,0,0,0
334626244,-0.00024330648,0.00050135155,0.49091527,-0.0,0.97002614,-0.00017892111,0.00021360032,0.24300028,0.5563533,0.0,1,0,0,0,0,0,0
334730091,2.7272824e-07,2.7278055e-08,0.49091527,-0.0,0.9700262,1.2896248e-07,4.636673e-08,0.24300027,0.55497026,0.0,1,0,0,0,0,0,0
334834966,0.0,-0.0,0.49091527,-0.0,0.9700262,0.0,-0.0,0.24300027,0.5558729,0.0,1,0,0,0,0,0,0
334932383,0.0,-0.0,0.49091527,-0.0,0.9700262,0.0,-0.0,0.24300027,0.5638443,0.0,1,0,0,0,0,0,0
335036250,0.0,-0.0,0.49091527,-0.0,0.9700262,0.0,-0.0,0.24300027,0.57130927,0.0,1,0,0,0,0,0,0
335139725,0.0,-0.0,0.49091527,-0.0,0.9700262,0.0,-0.0,0.24300027,0.571123,0.0,1,0,0,0,0,0,0
335236381,0.0,-0.0,0.49091527,-0.0,0.9700262,0.0,-0.0,0.24300027,0.57014865,0.0,1,0,0,0,0,0,0
335339842,0.0,-0.0,0.49091527,-0.0,0.9700262,0.0,-0.0,0.24300027,0.570425,0.0,1,0,0,0,0,0,0
335443622,0.0,-0.0,0.49091527,-0.0,0.9700262,0.0,-0.0,0.24300027,0.5728554,0.0,1,0,0,0,0,0,0
335539717,0.0,-0.0,0.49091527,-0.0,0.9700262,0.0,-0.0,0.24300027,0.58457696,0.0,1,0,0,0,0,0,0
335641349,0.0,-0.0,0.49091527,-0.0,0.9700262,0.0,-0.0,0.24300027,0.5885773,0.0,1,0,0,0,0,0,0
335745289,0.0,-0.0,0.49091527,-0.0,0.9700262,0.0,-0.0,0.24300027,0.5917281,0.0,1,0,0,0,0,0,0
335849262,0.0,-0.0,0.49091527,-0.0,0.9700262,0.0,-0.0,0.24300028,0.5975708,0.0,1,0,0,0,0,0,0
335954210,0.0,-0.0,0.49091527,-0.0,0.9700262,0.0,-0.0,0.24300027,0.5966805,0.0,1,0,0,0,0,0,0
336057247,0.0,-0.0,0.49091527,-0.0,0.9700262,0.0,-0.0,0.24300028,0.5967119,0.0,1,0,0,0,0,0,0
336153354,0.0,-0.0,0.49091527,-0.0,0.9700262,0.0,-0.0,0.24300027,0.5971218,0.0,1,0,0,0,0,0,0
336257262,0.0,-0.0,0.49091527,-0.0,0.9700262,0.0,-0.0,0.24300027,0.59672374,0.0,1,0,0,0,0,0,0
336363135,0.0,-0.0,0.49091527,-0.0,0.9700262,0.0,-0.0,0.24300027,0.5960131,0.0,1,0,0,0,0,0,0
336459076,0.0,-0.0,0.49091527,-0.0,0.9700262,0.0,-0.0,0.24300027,0.5945021,0.0,1,0,0,0,0,0,0
336562815,0.0,-0.0,0.49091527,-0.0,0.9700262,0.0,-0.0,0.24300027,0.5831262,0.0,1,0,0,0,0,0,0
336667449,0.0,-0.0,0.49091527,0.0,0.9700262,0.0,-0.0,0.24300028,0.5305679,0.0,1,0,0,0,0,0,0
336772231,0.0,-0.0,0.49091527,0.0,0.9700262,0.0,-0.0,0.24300027,0.49765417,0.0,1,0,0,0,0,0,0
336867135,0.0,-0.0,0.49091527,-0.0,0.9700262,0.0,-0.0,0.24300027,0.4967483,0.0,1,0,0,0,0,0,0
336970855,0.0,-0.0,0.49091527,-0.0,0.9700262,0.0,-0.0,0.24300028,0.49468264,0.0,1,0,0,0,0,0,0
337076624,0.0,-0.0,0.49091527,-0.0,0.9700262,0.0,-0.0,0.24300027,0.49595872,0.0,1,0,0,0,0,0,0
337172977,0.0,-0.0,0.49091527,0.0,0.9700262,0.0,-0.0,0.24300027,0.49627572,0.0,1,0,0,0,0,0,0
337276472,0.0,-0.0,0.49091527,0.0,0.9700262,0.0,-0.0,0.24300028,0.49628374,0.0,1,0,0,0,0,0,0
337380410,0.0,-0.0,0.49091527,-0.0,0.9700262,0.0,-0.0,0.24300027,0.49621296,0.0,1,0,0,0,0,0,0
337477096,0.0,-0.0,0.49091527,-0.0,0.9700262,0.0,-0.0,0.24300027,0.49297702,0.0,1,0,0,0,0,0,0
337580974,0.0,-0.0,0.49091527,-0.0,0.9700262,0.0,-0.0,0.24300027,0.49562162,0.0,1,0,0,0,0,0,0
337684396,0.0,-0.0,0.49091527,0.0,0.9700262,0.0,-0.0,0.24300027,0.49552295,0.0,1,0,0,0,0,0,0
337782046,0.0,-0.0,0.49091527,0.0,0.9700262,0.0,-0.0,0.24300027,0.4952306,0.0,1,0,0,0,0,0,0
337886659,0.0,-0.0,0.49091527,-0.0,0.9700262,0.0,-0.0,0.24300027,0.4984187,0.0,1,0,0,0,0,0,0
337990823,0.0,-0.0,0.49091527,0.0,0.9700262,0.0,-0.0,0.24300027,0.60095006,0.0,1,0,0,0,0,0,0
338094125,0.0,-0.0,0.49091527,0.0,0.9700262,0.0,-0.0,0.24300027,0.6500275,0.0,1,0,0,0,0,0,0
338190046,0.0,-0.0,0.49091527,0.0,0.9700262,0.0,-0.0,0.24300027,0.660852,0.0,1,0,0,0,0,0,0
338294038,0.0,-0.0,0.49091527,-0.0,0.9700262,0.0,-0.0,0.24300027,0.6625512,0.0,1,0,0,0,0,0,0
338398095,0.0,-0.0,0.49091527,-0.0,0.9700262,0.0,-0.0,0.24300027,0.65024054,0.0,1,0,0,0,0,0,0
338499917,0.0,-0.0,0.49091527,-0.0,0.9700262,0.0,-0.0,0.24300027,0.640222,0.0,1,0,0,0,0,0,0
338596496,0.0,-0.0,0.49091527,0.0,0.9700262,0.0,-0.0,0.24300027,0.61715835,0.0,1,0,0,0,0,0,0
338699717,0.0,-0.0,0.49091527,0.0,0.9700262,0.0,-0.0,0.24300027,0.5998723,0.0,1,0,0,0,0,0,0
338803949,0.0,-0.0,0.49091527,0.0,0.9700262,0.0,-0.0,0.24300027,0.59476805,0.0,1,0,0,0,0,0,0
338900082,0.0,-0.0,0.49091527,-0.0,0.9700262,0.0,-0.0,0.24300027,0.6044754,0.0,1,0,0,0,0,0,0
339003692,0.0,-0.0,0.49091527,-0.0,0.9700262,0.0,-0.0,0.24300027,0.6004938,0.0,1,0,0,0,0,0,0
339108480,0.0,-0.0,0.49091527,-0.0,0.9700262,0.0,-0.0,0.24300027,0.5927781,0.0,1,0,0,0,0,0,0
339210191,0.0,-0.0,0.49091527,0.0,0.9700262,0.0,-0.0,0.24300027,0.57562405,0.0,1,0,0,0,0,0,0
339313299,0.0,-0.0,0.49091527,0.0,0.9700262,0.0,-0.0,0.24300027,0.5219495,0.0,1,0,0,0,0,0,0
339409225,0.0,-0.0,0.49091527,-0.0,0.9700262,0.0,-0.0,0.24300027,0.49823797,0.0,1,0,0,0,0,0,0
339514065,0.0,-0.0,0.49091527,-0.0,0.9700262,0.0,-0.0,0.24300027,0.49840698,0.0,1,0,0,0,0,0,0
339617933,0.0,-0.0,0.49091527,-0.0,0.9700262,0.0,-0.0,0.24300027,0.4993298,0.0,1,0,0,0,0,0,0
339713277,0.0,-0.0,0.49091527,0.0,0.9700262,0.0,-0.0,0.24300028,0.49724334,0.0,1,0,0,0,0,0,0
339818135,0.0,-0.0,0.49091527,0.0,0.9700262,0.0,-0.0,0.24300027,0.49756444,0.0,1,0,0,0,0,0,0
339922355,0.0,-0.0,0.49091527,0.0,0.9700262,0.0,-0.0,0.24300027,0.49729142,0.0,1,0,0,0,0,0,0
340018326,0.0,-0.0,0.49091527,-0.0,0.9700262,0.0,-0.0,0.24300027,0.49735275,0.0,1,0,0,0,0,0,0
340122011,0.0,-0.0,0.49091527,-0.0,0.9700262,0.0,-0.0,0.24300027,0.49798915,0.0,1,0,0,0,0,0,0
340226735,0.0,-0.0,0.49091527,0.0,0.9700262,0.0,-0.0,0.24300028,0.49510086,0.0,1,0,0,0,0,0,0
340322894,0.0,-0.0,0.49091527,0.0,0.9700262,0.0,-0.0,0.24300027,0.49617764,0.0,1,0,0,0,0,0,0
340426038,0.0,-0.0,0.49091527,-0.0,0.9700262,0.0,-0.0,0.24300027,0.49646944,0.0,1,0,0,0,0,0,0
340530062,0.0,-0.0,0.49091527,-0.0,0.9700262,0.0,-0.0,0.24300027,0.5576776,0.0,1,0,0,0,0,0,0
340626043,0.0,-0.0,0.49091527,-0.0,0.9700262,0.0,-0.0,0.24300027,0.5649976,0.0,1,0,0,0,0,0,0
340730184,0.0,-0.0,0.48677367,0.013322596,0.97052735,0.0,-0.0,0.24099101,0.57404023,0.0,1,0,0,0,0,0,0
340834558,0.0,-0.0,0.48656017,-0.0,0.9705531,0.0,-0.0,0.24088742,0.57308346,0.0,1,0,0,0,0,0,0
340932212,0.0,-0.0,0.48520705,0.11897982,0.9707158,0.0,-0.0,0.24023072,0.60274345,0.0,1,0,0,0,0,0,0
341036356,0.0,-0.0,0.49224344,0.10006576,0.9698646,0.0,-0.0,0.2436444,0.6198328,0.0,1,0,0,0,0,0,0
341139647,0.0,-0.0,0.5009393,0.070894636,0.96879613,0.0,-0.0,0.24785902,0.6146616,0.0,1,0,0,0,0,0,0
341236310,0.0,-0.0,0.5036859,-0.0,0.96845484,0.0,-0.0,0.24918918,0.61644536,0.0,1,0,0,0,0,0,0
341340221,0.0,-0.0,0.50705117,0.00450729,0.96803415,0.0,-0.0,0.2508184,0.5825115,0.0,1,0,0,0,0,0,0
341443669,0.0,-0.0,0.5074561,-0.0,0.96798337,0.0,-0.0,0.25101438,0.5293003,0.0,1,0,0,0,0,0,0
341539590,0.0038530072,-0.009129977,0.5074561,-0.0,0.9679693,0.0030106741,-0.0039352337,0.2510198,0.49808246,0.0,1,0,0,0,0,0,0
341641508,0.08081414,-0.08972546,0.5074561,-0.0,0.9657653,0.050311614,-0.033246584,0.25231084,0.50057125,0.0,1,0,0,0,0,0,0
341745200,0.1394222,-0.14013204,0.505305,0.008484087,0.96231216,0.0847356,-0.05025241,0.25347573,0.5059937,0.0,1,0,0,0,0,0,0
341849507,0.13494426,-0.13595551,0.5030581,0.0506491,0.9629576,0.08201575,-0.048896994,0.25218084,0.5092459,0.0,1,0,0,0,0,0,0
341946038,0.12124633,-0.10078541,0.5053053,0.13579658,0.9644843,0.071156494,-0.033556964,0.25215223,0.50685954,0.0,1,0,0,0,0,0,0
342049180,4.301793e-05,3.9947805e-05,0.516565,-0.0,0.96683013,1.5693771e-05,2.4805197e-05,0.2554204,0.50053555,0.0,1,0,0,0,0,0,0
342153432,-1.12807896e-07,-3.8723137e-08,0.52597845,0.031246716,0.9656172,-4.9431232e-08,-3.3359093e-08,0.25996816,0.49837688,0.0,1,0,0,0,0,0,0
342249432,-0.14078398,0.15430428,0.52937984,0.12089604,0.9585012,-0.08779628,0.055861823,0.26541805,0.49708092,0.0,1,0,0,0,0,0,0
342355577,-0.23795332,0.23682325,0.53770155,0.3813526,0.94683355,-0.14478858,0.081778444,0.27541748,0.4977121,0.0,1,0,0,0,0,0,0
342459482,-0.21064407,0.21286532,0.5629911,0.8998468,0.94680977,-0.12976515,0.07244681,0.28541842,0.49660188,0.0,1,0,0,0,0,0,0
342555405,0.043541074,-0.023991922,0.62065583,0.73944956,0.9518596,0.024389766,-0.00477289,0.30552527,0.49973777,0.0,1,0,0,0,0,0,0
342658859,-1.2865777e-05,-1.4017226e-06,0.69464403,0.2957732,0.94028765,-5.810205e-06,-2.8486436e-06,0.34038094,0.5241593,0.0,1,0,0,0,0,0,0
342763116,-3.946418e-09,1.6692354e-09,0.7385495,0.2321815,0.9325894,-2.14144e-09,6.614727e-11,0.36093915,0.5237942,0.0,1,0,0,0,0,0,0
342859513,0.0,-0.0,0.7722942,0.20264208,0.92636704,0.0,-0.0,0.37662205,0.5153992,0.0,1,0,0,0,0,0,0
342962976,0.0,-0.0,0.8072614,0.47342783,0.9196411,0.0,-0.0,0.39275986,0.5080887,0.0,1,0,0,0,0,0,0
343069184,0.0,-0.0,0.84327483,0.37254834,0.91242003,0.0,-0.0,0.40925503,0.52772224,0.0,1,0,0,0,0,0,0
343172446,0.0,-0.0,0.8879396,0.5581942,0.90305364,0.0,-0.0,0.42952776,0.515297,0.0,1,0,0,0,0,0,0
343268709,0.0,-0.0,0.93806636,0.61685956,0.89200574,0.0,-0.0,0.4520241,0.49898964,0.0,1,0,0,0,0,0,0
343372696,0.0,-0.0,0.99329656,0.04056628,0.87918454,0.0,-0.0,0.4764815,0.49484625,0.0,1,0,0,0,0,0,0
343476580,0.0,-0.0,0.99919593,0.0,0.87777525,0.0,-0.0,0.47907275,0.4377207,0.0,1,0,0,0,0,0,0
343573072,0.0,-0.0,0.99919593,-0.0,0.87777525,0.0,-0.0,0.47907275,0.41006812,0.0,1,0,0,0,0,0,0
343676766,0.0,-0.0,0.99919593,-0.0,0.87777525,0.0,-0.0,0.47907275,0.39804935,0.0,1,0,0,0,0,0,0
343782617,0.0,-0.0,0.99919593,-0.0,0.87777525,0.0,-0.0,0.47907275,0.3955042,0.0,1,0,0,0,0,0,0
343878096,0.0,-0.0,0.99919593,-0.0,0.87777525,0.0,-0.0,0.47907275,0.40913785,0.0,1,0,0,0,0,0,0
343982008,0.0,-0.0,0.99919593,-0.0,0.87777525,0.0,-0.0,0.47907275,0.2900894,0.0,1,0,0,0,0,0,0
344086924,0.0,-0.0,0.99919593,-0.0,0.87777525,0.0,-0.0,0.47907275,0.18729573,0.0,1,0,0,0,0,0,0
344182624,0.0,-0.0,0.99919593,-0.0,0.87777525,0.0,-0.0,0.47907275,0.08,0.0,1,0,0,0,0,0,0
344286301,0.0,-0.0,0.99919593,-0.0,0.87777525,0.0,-0.0,0.47907275,0.08,0.0,1,0,0,0,0,0,0
344390106,0.0,-0.0,0.99919593,-0.0,0.87777525,0.0,-0.0,0.47907275,0.0800051,0.0,1,0,0,0,0,0,0
344491327,0.0,-0.0,0.99919593,-0.0,0.87777525,0.0,-0.0,0.47907275,0.0800051,0.0,1,0,0,0,0,0,0
344594999,0.0,-0.0,0.99919593,-0.0,0.87777525,0.0,-0.0,0.47907275,0.0800051,0.0,1,0,0,0,0,0,0
344690909,0.0,-0.0,0.99919593,-0.0,0.87777525,0.0,-0.0,0.47907275,0.0800051,0.0,1,0,0,0,0,0,0
344795402,0.0,-0.0,0.99919593,-0.0,0.87777525,0.0,-0.0,0.47907275,0.0800051,0.0,1,0,0,0,0,0,0
344867501,0.0,-0.0,0.99919593,-0.0,0.8777752,0.0,-0.0,0.47907272,0.5163298,0.0,1,0,0,0,0,0,0
344995497,0.0,-0.0,1.0135357,-0.0,0.87431777,0.0,-0.0,0.4853539,0.08,0.0,1,0,0,0,0,0,0
345098915,0.0,-0.0,1.0135357,-0.0,0.87431777,0.0,-0.0,0.4853539,0.08,0.0,1,0,0,0,0,0,0
345202923,0.0,-0.0,1.0135357,-0.0,0.87431777,0.0,-0.0,0.4853539,0.08,0.0,1,0,0,0,0,0,0
345298922,0.0,-0.0,1.0135357,-0.0,0.87431777,0.0,-0.0,0.4853539,0.08,0.0,1,0,0,0,0,0,0
345402823,0.0,-0.0,1.0135357,-0.0,0.87431777,0.0,-0.0,0.4853539,0.08,0.0,1,0,0,0,0,0,0
345508546,0.0,-0.0,1.0135357,-0.0,0.87431777,0.0,-0.0,0.4853539,0.08,0.0,1,0,0,0,0,0,0
345613185,0.0,-0.0,1.0135357,-0.0,0.87431777,0.0,-0.0,0.4853539,0.08,0.0,1,0,0,0,0,0,0
345917160,0.0,-0.0,1.0662801,0.063152485,0.8612154,0.0,-0.0,0.5082401,0.08,0.0,1,0,0,0,0,0,0
346116455,0.0,-0.0,1.0689093,0.41427323,0.8605466,0.0,-0.0,0.5093718,0.08,0.0,1,0,0,0,0,0,0
346218197,0.0,-0.0,1.065626,0.51057583,0.8613816,0.0,-0.0,0.5079585,0.08,0.0,1,0,0,0,0,0,0
346323184,0.0,-0.0,1.0709096,0.4914385,0.8600367,0.0,-0.0,0.51023227,0.08,0.0,1,0,0,0,0,0,0
346419014,0.0,-0.0,1.0685428,0.37088713,0.86063987,0.0,-0.0,0.5092141,0.08,0.0,1,0,0,0,0,0,0
346522660,0.0,-0.0,1.0726982,0.3329848,0.85958004,0.0,-0.0,0.5110012,0.08,0.0,1,0,0,0,0,0,0
346626174,0.0,-0.0,1.0716064,0.090967126,0.8598589,0.0,-0.0,0.5105319,0.08,0.0,1,0,0,0,0,0,0
346722066,0.0,-0.0,1.073542,0.14493783,0.8593644,0.0,-0.0,0.5113638,0.08,0.0,1,0,0,0,0,0,0
346826222,0.0,-0.0,1.0751947,0.32473543,0.8589415,0.0,-0.0,0.51207376,0.08,0.0,1,0,0,0,0,0,0
346931723,0.0,-0.0,1.0764742,0.45113194,0.8586137,0.0,-0.0,0.5126232,0.08,0.0,1,0,0,0,0,0,0
347027830,0.0,-0.0,1.0775579,0.4895505,0.8583358,0.0,-0.0,0.51308835,0.08,0.0,1,0,0,0,0,0,0
347131731,0.0,-0.0,1.078633,0.6119852,0.8580599,0.0,-0.0,0.5135496,0.08,0.0,1,0,0,0,0,0,0
347235696,0.0,-0.0,1.0797932,0.25008258,0.85776186,0.0,-0.0,0.5140473,0.08,0.0,1,0,0,0,0,0,0
347331698,0.0,-0.0,1.0805262,0.3401213,0.8575734,0.0,-0.0,0.5143616,0.08,0.0,1,0,0,0,0,0,0
347435794,0.0,-0.0,1.0816252,-0.0,0.8572906,0.0,-0.0,0.5148328,0.08,0.0,1,0,0,0,0,0,0
347540261,0.0,-0.0,1.0816252,-0.0,0.8572906,0.0,-0.0,0.5148328,0.08,0.0,1,0,0,0,0,0,0
347637281,0.0,-0.0,1.0816252,-0.0,0.8572906,0.0,-0.0,0.5148328,0.08,0.0,1,0,0,0,0,0,0
347742286,0.0,-0.0,1.08589,-0.615006,0.85619086,0.0,-0.0,0.51665974,0.08,0.0,1,0,0,0,0,0,0
347845973,0.0,-0.0,1.0845729,-2.9179049,0.8565309,0.0,-0.0,0.51609576,0.08,0.0,1,0,0,0,0,0,0
347941914,0.0,-0.0,1.0881796,-3.45364,0.8555988,0.0,-0.0,0.5176396,0.08,0.0,1,0,0,0,0,0,0
348045735,0.0,-0.0,1.0871367,-3.4610465,0.8558686,0.0,-0.0,0.5171933,0.08,0.0,1,0,0,0,0,0,0
348149442,0.0,-0.0,1.089808,-3.455638,0.85517704,0.0,-0.0,0.518336,0.08,0.0,1,0,0,0,0,0,0
348246044,0.0,-0.0,1.0897219,-3.4607525,0.85519934,0.0,-0.0,0.5182992,0.08,0.0,1,0,0,0,0,0,0
348354845,0.0,-0.0,1.0912812,-3.468531,0.854795,0.0,-0.0,0.51896584,0.08,0.0,1,0,0,0,0,0,0
348458841,0.0,-0.0,1.0928061,-3.4605062,0.8543991,0.0,-0.0,0.5196174,0.08,0.0,1,0,0,0,0,0,0
348554111,0.0,-0.0,1.0928955,-3.462798,0.85437584,0.0,-0.0,0.5196556,0.08,0.0,1,0,0,0,0,0,0
348658620,0.0,-0.0,1.0950093,-3.4599195,0.85382617,0.0,-0.0,0.5205583,0.08,0.0,1,0,0,0,0,0,0
348762769,0.0,-0.0,1.0948731,-3.460738,0.85386163,0.0,-0.0,0.5205001,0.08,0.0,1,0,0,0,0,0,0
348858684,0.0,-0.0,1.0969557,-3.4645302,0.85331917,0.0,-0.0,0.52138895,0.08,0.0,1,0,0,0,0,0,0
348962899,0.0,-0.0,1.0971447,-3.4602644,0.8532699,0.0,-0.0,0.52146965,0.08,0.0,1,0,0,0,0,0,0
350179445,0.0,-0.0,1.1090019,0.55913144,0.85016334,0.0,-0.0,0.52651906,0.08,0.0,1,0,0,0,0,0,0
350284700,0.0,-0.0,1.1103925,-0.0,0.849797,0.0,-0.0,0.5271101,0.08,0.0,1,0,0,0,0,0,0
350380667,0.0,-0.0,1.1103925,0.0,0.849797,0.0,-0.0,0.5271101,0.08,0.0,1,0,0,0,0,0,0
350484467,0.0,-0.0,1.1103925,0.0,0.849797,0.0,-0.0,0.5271101,0.08,0.0,1,0,0,0,0,0,0
350589211,0.0,-0.0,1.1122093,-0.7278669,0.84931785,0.0,-0.0,0.5278818,0.08,0.0,1,0,0,0,0,0,0
350685142,0.0,-0.0,1.1128149,-1.7981358,0.8491579,0.0,-0.0,0.528139,0.08,0.0,1,0,0,0,0,0,0
350788940,0.0,-0.0,1.1142954,-3.2569556,0.8487668,0.0,-0.0,0.52876735,0.08,0.0,1,0,0,0,0,0,0
350892997,0.0,-0.0,1.114121,-3.4465747,0.8488129,0.0,-0.0,0.5286934,0.08,0.0,1,0,0,0,0,0,0
350990733,0.0,-0.0,1.1158096,-3.4694676,0.8483662,0.0,-0.0,0.5294098,0.08,0.0,1,0,0,0,0,0,0
351094031,0.0,-0.0,1.1158987,-3.460101,0.8483426,0.0,-0.0,0.52944773,0.08,0.0,1,0,0,0,0,0,0
351198240,0.0,-0.0,1.1171238,-3.460721,0.8480181,0.0,-0.0,0.52996725,0.08,0.0,1,0,0,0,0,0,0
351294745,0.0,-0.0,1.1178098,-3.450024,0.8478363,0.0,-0.0,0.53025806,0.08,0.0,1,0,0,0,0,0,0
351398190,0.0,-0.0,1.1185133,-3.4507864,0.8476497,0.0,-0.0,0.5305563,0.08,0.0,1,0,0,0,0,0,0
351502224,0.0,-0.0,1.1198283,-3.4422016,0.8473007,0.0,-0.0,0.53111356,0.08,0.0,1,0,0,0,0,0,0
351599372,0.0,-0.0,1.1200044,-2.6763873,0.8472539,0.0,-0.0,0.5311881,0.08,0.0,1,0,0,0,0,0,0
351699646,0.0,-0.0,1.1213107,-1.3153684,0.84690684,0.0,-0.0,0.5317413,0.08,0.0,1,0,0,0,0,0,0
351803711,0.0,-0.0,1.1216255,-0.46901837,0.8468231,0.0,-0.0,0.5318747,0.08,0.0,1,0,0,0,0,0,0
351908193,0.0,-0.0,1.1225363,0.0,0.8465808,0.0,-0.0,0.53226024,0.08,0.0,1,0,0,0,0,0,0
352003831,0.0,-0.0,1.1225363,0.0,0.8465808,0.0,-0.0,0.53226024,0.08,0.0,1,0,0,0,0,0,0
352107851,0.0,-0.0,1.1225363,-0.0,0.8465808,0.0,-0.0,0.53226024,0.08,0.0,1,0,0,0,0,0,0
352212132,0.0,-0.0,1.1225363,-0.0,0.8465808,0.0,-0.0,0.53226024,0.08,0.0,1,0,0,0,0,0,0
352315670,0.0,-0.0,1.1225363,-0.0,0.8465808,0.0,-0.0,0.53226024,0.08,0.0,1,0,0,0,0,0,0
352417383,0.0,-0.0,1.1225363,-0.0,0.8465808,0.0,-0.0,0.53226024,0.08,0.0,1,0,0,0,0,0,0
352513219,0.0,-0.0,1.1225363,-0.0,0.8465808,0.0,-0.0,0.53226024,0.08,0.0,1,0,0,0,0,0,0
352618135,0.0,-0.0,1.1225363,-0.0,0.8465808,0.0,-0.0,0.53226024,0.08,0.0,1,0,0,0,0,0,0
352721319,0.0,-0.0,1.1225363,-0.0,0.8465808,0.0,-0.0,0.53226024,0.08,0.0,1,0,0,0,0,0,0
352817386,0.0,-0.0,1.1225363,-0.0,0.8465808,0.0,-0.0,0.53226024,0.08,0.0,1,0,0,0,0,0,0
352922625,0.0,-0.0,1.1302552,0.1380243,0.8445203,0.0,-0.0,0.5355236,0.08,0.0,1,0,0,0,0,0,0
353025253,0.0,-0.0,1.1313168,-0.0,0.8442359,0.0,-0.0,0.53597176,0.08,0.0,1,0,0,0,0,0,0
353122924,0.0,-0.0,1.1313168,-0.0,0.8442359,0.0,-0.0,0.53597176,0.08,0.0,1,0,0,0,0,0,0
353227890,0.0,-0.0,1.1325347,-0.0,0.8439094,0.0,-0.0,0.53648573,0.08,0.0,1,0,0,0,0,0,0
353331745,0.0,-0.0,1.1325347,-0.0,0.8439094,0.0,-0.0,0.53648573,0.08,0.0,1,0,0,0,0,0,0
353434860,0.0,-0.0,1.1325347,-0.0,0.8439094,0.0,-0.0,0.53648573,0.08,0.0,1,0,0,0,0,0,0
353531653,0.0,-0.0,1.1325347,-0.0,0.8439094,0.0,-0.0,0.53648573,0.08,0.0,1,0,0,0,0,0,0
353634811,0.0,-0.0,1.1325347,-0.0,0.8439094,0.0,-0.0,0.53648573,0.08,0.0,1,0,0,0,0,0,0
353738840,0.0,-0.0,1.1325347,-0.0,0.8439094,0.0,-0.0,0.53648573,0.08,0.0,1,0,0,0,0,0,0
353837056,0.0,-0.0,1.1325347,-0.0,0.8439094,0.0,-0.0,0.53648573,0.08,0.0,1,0,0,0,0,0,0
353940659,0.0,-0.0,1.1325347,-0.0,0.8439094,0.0,-0.0,0.53648573,0.08,0.0,1,0,0,0,0,0,0
354045048,0.0,-0.0,1.1325347,-0.0,0.8439094,0.0,-0.0,0.53648573,0.08,0.0,1,0,0,0,0,0,0
354140392,0.0,-0.0,1.1325347,-0.0,0.8439094,0.0,-0.0,0.53648573,0.08,0.0,1,0,0,0,0,0,0
354244465,0.0,-0.0,1.1325347,-0.0,0.8439094,0.0,-0.0,0.53648573,0.08,0.0,1,0,0,0,0,0,0
354348736,0.0,-0.0,1.1325347,-0.0,0.8439094,0.0,-0.0,0.53648573,0.08,0.0,1,0,0,0,0,0,0
354444984,0.0,-0.0,1.1325347,-0.0,0.8439094,0.0,-0.0,0.53648573,0.08,0.0,1,0,0,0,0,0,0
354549868,0.0,-0.0,1.1325347,-0.0,0.8439094,0.0,-0.0,0.53648573,0.08,0.0,1,0,0,0,0,0,0
354654097,0.0,-0.0,1.1325347,-0.0,0.8439094,0.0,-0.0,0.53648573,0.08,0.0,1,0,0,0,0,0,0
354757403,0.0,-0.0,1.1325347,0.0,0.8439094,0.0,-0.0,0.53648573,0.08,0.0,1,0,0,0,0,0,0
354853837,0.0,-0.0,1.1325347,-0.0,0.8439094,0.0,-0.0,0.53648573,0.08,0.0,1,0,0,0,0,0,0
354957388,0.0,-0.0,1.1325347,-0.0,0.8439094,0.0,-0.0,0.53648573,0.08,0.0,1,0,0,0,0,0,0
355061281,0.0,-0.0,1.1325347,-0.0,0.8439094,0.0,-0.0,0.53648573,0.08,0.0,1,0,0,0,0,0,0
355157242,0.0,-0.0,1.1325347,0.0,0.8439094,0.0,-0.0,0.53648573,0.08,0.0,1,0,0,0,0,0,0
355261318,0.0,-0.0,1.1325347,0.0,0.8439094,0.0,-0.0,0.53648573,0.08,0.0,1,0,0,0,0,0,0
355365415,0.0,-0.0,1.1325347,-0.0,0.8439094,0.0,-0.0,0.53648573,0.08,0.0,1,0,0,0,0,0,0
355466841,0.0,-0.0,1.1325347,-0.0,0.8439094,0.0,-0.0,0.53648573,0.08,0.0,1,0,0,0,0,0,0
355571067,0.0,-0.0,1.1325347,-0.0,0.8439094,0.0,-0.0,0.53648573,0.08,0.0,1,0,0,0,0,0,0
355675380,0.0,-0.0,1.1325347,-0.0,0.8439094,0.0,-0.0,0.53648573,0.08,0.0,1,0,0,0,0,0,0
355771025,0.0,-0.0,1.1325347,0.0,0.8439094,0.0,-0.0,0.53648573,0.08,0.0,1,0,0,0,0,0,0
355875638,0.0,-0.0,1.1325347,0.0,0.8439094,0.0,-0.0,0.53648573,0.08,0.0,1,0,0,0,0,0,0
355979053,0.0,-0.0,1.1325347,0.0,0.8439094,0.0,-0.0,0.53648573,0.08,0.0,1,0,0,0,0,0,0
356074827,0.0,-0.0,1.1325347,-0.0,0.8439094,0.0,-0.0,0.53648573,0.08,0.0,1,0,0,0,0,0,0
356176638,0.0,-0.0,1.1325347,-0.0,0.8439094,0.0,-0.0,0.53648573,0.08,0.0,1,0,0,0,0,0,0
356280962,0.0,-0.0,1.1325347,0.0,0.8439094,0.0,-0.0,0.53648573,0.08,0.0,1,0,0,0,0,0,0
356384571,0.0,-0.0,1.1325347,-0.0,0.8439094,0.0,-0.0,0.53648573,0.08,0.0,1,0,0,0,0,0,0
356480495,0.0,-0.0,1.1325347,-0.0,0.8439094,0.0,-0.0,0.53648573,0.08,0.0,1,0,0,0,0,0,0
356585000,0.0,-0.0,1.1325347,-0.0,0.8439094,0.0,-0.0,0.53648573,0.08,0.0,1,0,0,0,0,0,0
356689329,0.0,-0.0,1.1325347,-0.0,0.8439094,0.0,-0.0,0.53648573,0.08,0.0,1,0,0,0,0,0,0
356792535,0.0,-0.0,1.1325347,-0.0,0.8439094,0.0,-0.0,0.53648573,0.08,0.0,1,0,0,0,0,0,0
356886066,0.0,-0.0,1.1325347,-0.0,0.8439094,0.0,-0.0,0.53648573,0.08,0.0,1,0,0,0,0,0,0
356990163,0.0,-0.0,1.1561251,0.007826503,0.83752286,0.0,-0.0,0.5464023,0.08,0.0,1,0,0,0,0,0,0
357094792,0.0,-0.0,1.1562932,-0.0,0.8374769,0.0,-0.0,0.5464727,0.08,0.0,1,0,0,0,0,0,0
357198607,0.0,-0.0,1.1562932,-0.0,0.8374769,0.0,-0.0,0.5464727,0.08,0.0,1,0,0,0,0,0,0
357294708,0.0,-0.0,1.1562932,-0.0,0.8374769,0.0,-0.0,0.5464727,0.08,0.0,1,0,0,0,0,0,0
357398676,0.0,-0.0,1.1587608,0.1281676,0.836802,0.0,-0.0,0.5475056,0.08,0.0,1,0,0,0,0,0,0
357502162,0.0,-0.0,1.1587727,0.14998011,0.8367988,0.0,-0.0,0.54751056,0.08,0.0,1,0,0,0,0,0,0
357600387,0.0,-0.0,1.1596342,0.11163827,0.8365629,0.0,-0.0,0.54787093,0.08,0.0,1,0,0,0,0,0,0
357704293,0.0,-0.0,1.1597735,0.027726263,0.8365247,0.0,-0.0,0.5479292,0.08,0.0,1,0,0,0,0,0,0
357799681,0.0,-0.0,1.1604004,-0.0,0.8363529,0.0,-0.0,0.5481914,0.08,0.0,1,0,0,0,0,0,0
357903688,0.0,-0.0,1.1609489,0.005319416,0.83620256,0.0,-0.0,0.54842067,0.08,0.0,1,0,0,0,0,0,0
358007752,0.0,-0.0,1.1615067,0.010696511,0.83604956,0.0,-0.0,0.5486539,0.08,0.0,1,0,0,0,0,0,0
358111928,0.0,-0.0,1.1622399,-0.0,0.8358484,0.0,-0.0,0.5489604,0.08,0.0,1,0,0,0,0,0,0
358215600,0.0,-0.0,1.1622399,-0.0,0.8358484,0.0,-0.0,0.5489604,0.08,0.0,1,0,0,0,0,0,0
358312422,0.0,-0.0,1.1622399,-0.0,0.8358484,0.0,-0.0,0.5489604,0.08,0.0,1,0,0,0,0,0,0
358416515,0.0,-0.0,1.1622399,-0.0,0.8358484,0.0,-0.0,0.5489604,0.08,0.0,1,0,0,0,0,0,0
358521247,0.0,-0.0,1.1622399,-0.0,0.8358484,0.0,-0.0,0.5489604,0.08,0.0,1,0,0,0,0,0,0
358617042,0.0,-0.0,1.1622399,-0.0,0.8358484,0.0,-0.0,0.5489604,0.08,0.0,1,0,0,0,0,0,0
358720478,0.0,-0.0,1.1622399,-0.0,0.8358484,0.0,-0.0,0.5489604,0.08,0.0,1,0,0,0,0,0,0
358825326,0.0,-0.0,1.1622399,-0.0,0.8358484,0.0,-0.0,0.5489604,0.08,0.0,1,0,0,0,0,0,0
358920423,0.0,-0.0,1.1622399,-0.0,0.8358484,0.0,-0.0,0.5489604,0.08,0.0,1,0,0,0,0,0,0
359025557,0.0,-0.0,1.1622399,-0.0,0.8358484,0.0,-0.0,0.5489604,0.08,0.0,1,0,0,0,0,0,0
359129119,0.0,-0.0,1.1622399,-0.0,0.8358484,0.0,-0.0,0.5489604,0.08,0.0,1,0,0,0,0,0,0
359226008,0.0,-0.0,1.1622399,-0.0,0.8358484,0.0,-0.0,0.5489604,0.08,0.0,1,0,0,0,0,0,0
359330735,0.0,-0.0,1.1622399,-0.0,0.8358484,0.0,-0.0,0.5489604,0.08,0.0,1,0,0,0,0,0,0
359434855,0.0,-0.0,1.1685086,0.03091073,0.8341236,0.0,-0.0,0.55157757,0.08,0.0,1,0,0,0,0,0,0
359530333,0.0,-0.0,1.1689109,0.080109365,0.8340127,0.0,-0.0,0.55174536,0.08,0.0,1,0,0,0,0,0,0
359633997,0.0,-0.0,1.169274,0.1646851,0.8339125,0.0,-0.0,0.55189663,0.08,0.0,1,0,0,0,0,0,0
359738781,0.0,-0.0,1.1695606,0.21530198,0.8338334,0.0,-0.0,0.5520162,0.08,0.0,1,0,0,0,0,0,0
359834198,0.0,-0.0,1.170048,0.2632053,0.83369887,0.0,-0.0,0.5522194,0.08,0.0,1,0,0,0,0,0,0
359939142,0.0,-0.0,1.1702285,0.26878494,0.833649,0.0,-0.0,0.5522946,0.08,0.0,1,0,0,0,0,0,0
360043880,0.0,-0.0,1.1704606,0.26860574,0.8335849,0.0,-0.0,0.5523914,0.08,0.0,1,0,0,0,0,0,0
360139601,0.0,-0.0,1.1710334,0.2686435,0.83342665,0.0,-0.0,0.55263007,0.08,0.0,1,0,0,0,0,0,0
360244720,0.0,-0.0,1.1713086,0.1980486,0.8333506,0.0,-0.0,0.55274475,0.08,0.0,1,0,0,0,0,0,0
360347760,0.0,-0.0,1.1727362,0.0950932,0.83295584,0.0,-0.0,0.5533395,0.08,0.0,1,0,0,0,0,0,0
360443968,0.0,-0.0,1.1718074,-0.0,0.83321273,0.0,-0.0,0.5529526,0.08,0.0,1,0,0,0,0,0,0
360547695,0.0,-0.0,1.1718074,-0.0,0.83321273,0.0,-0.0,0.5529526,0.08,0.0,1,0,0,0,0,0,0
360645341,0.0,-0.0,1.1718074,0.0,0.83321273,0.0,-0.0,0.5529526,0.08,0.0,1,0,0,0,0,0,0
360749277,0.0,-0.0,1.1718074,0.0,0.83321273,0.0,-0.0,0.5529526,0.08,0.0,1,0,0,0,0,0,0
360853440,0.0,-0.0,1.1718074,0.0,0.83321273,0.0,-0.0,0.5529526,0.08,0.0,1,0,0,0,0,0,0
360957956,0.0,-0.0,1.1718074,-0.0,0.83321273,0.0,-0.0,0.5529526,0.08,0.0,1,0,0,0,0,0,0
361062102,0.052890517,-0.05761849,1.1718074,-0.0,0.8321546,0.03794519,-0.009377314,0.55316454,0.08,0.0,1,0,0,0,0,0,0
361157240,0.06421271,-0.063865244,1.1718074,0.0,0.831792,0.04437832,-0.008847243,0.5532398,0.08,0.0,1,0,0,0,0,0,0
361261260,0.0975438,-0.09538887,1.1718074,0.0,0.8299903,0.066906475,-0.012750103,0.55360365,0.080000006,0.0,1,0,0,0,0,0,0
361366052,0.052739114,-0.0529078,1.1718074,0.0,0.832246,0.036582176,-0.0074571683,0.553148,0.08,0.0,1,0,0,0,0,0,0
361467784,0.048090253,-0.045165993,1.1718074,-0.0,0.8324593,0.03251032,-0.005518259,0.55310416,0.08175496,0.0,1,0,0,0,0,0,0
361563099,0.05018566,-0.050580423,1.1718074,-0.0,0.8323332,0.03487718,-0.007193993,0.5531304,0.12145065,0.0,1,0,0,0,0,0,0
361667406,0.05113582,-0.052083883,1.1718074,-0.0,0.8322899,0.035687592,-0.0075574243,0.55313903,0.12904906,0.0,1,0,0,0,0,0,0
361771700,0.05129969,-0.046084885,1.1718074,-0.0,0.8323908,0.03409982,-0.0050134137,0.5531163,0.22258055,0.0,1,0,0,0,0,0,0
361867379,0.040498037,-0.040479764,1.1718074,0.0,0.8326447,0.028055768,-0.005665831,0.5530674,0.20715433,0.0,1,0,0,0,0,0,0
361970795,0.03935367,-0.038108673,1.1718074,0.0,0.8326929,0.026924418,-0.0049946033,0.55305755,0.24465507,0.0,1,0,0,0,0,0,0
362077743,0.027378222,-0.027938254,1.1718074,0.0,0.8329476,0.019127762,-0.0040693306,0.5530062,0.18055934,0.0,1,0,0,0,0,0,0
362180456,0.030930676,-0.033431716,1.1718074,-0.0,0.83285373,0.022125142,-0.0053754877,0.55302453,0.21897247,0.0,1,0,0,0,0,0,0
362276452,0.0378349,-0.040403854,1.1718074,-0.0,0.8326824,0.026926052,-0.0063706497,0.5530592,0.23777129,0.0,1,0,0,0,0,0,0
362381294,0.049693372,-0.04977263,1.1718074,0.0,0.8323558,0.03444932,-0.0069936826,0.55312586,0.25418404,0.0,1,0,0,0,0,0,0
362485012,0.043987583,-0.043605387,1.1718074,0.0,0.8325481,0.030371659,-0.0060027963,0.55308694,0.21508977,0.0,1,0,0,0,0,0,0
362588750,0.042006984,-0.041213475,1.1718074,0.0,0.83261275,0.028886603,-0.005554178,0.5530738,0.21612978,0.0,1,0,0,0,0,0,0
362692649,0.04312924,-0.043559544,1.1718074,-0.0,0.8325618,0.03000169,-0.006221069,0.5530842,0.26311263,0.0,1,0,0,0,0,0,0
362794102,0.042284165,-0.042770315,1.1718074,-0.0,0.83258605,0.029431948,-0.0061260196,0.5530793,0.26492354,0.0,1,0,0,0,0,0,0
362890058,0.03754,-0.035036497,1.1718074,-0.0,0.83275634,0.025320642,-0.0042163916,0.55304426,0.30000344,0.0,1,0,0,0,0,0,0
362994318,0.034055986,-0.034960695,1.1718074,0.0,0.8328001,0.023848994,-0.0051482148,0.5530359,0.2929266,0.0,1,0,0,0,0,0,0
363098072,0.032876212,-0.033388346,1.1718074,0.0,0.83283234,0.022923322,-0.004819455,0.5530295,0.2937538,0.0,1,0,0,0,0,0,0
363193952,0.030917931,-0.031028412,1.1718074,0.0,0.8328803,0.021455796,-0.0043778648,0.55301976,0.29361787,0.0,1,0,0,0,0,0,0
363298673,0.030761668,-0.030336149,1.1718074,-0.0,0.8328893,0.021199439,-0.004132695,0.553018,0.29808602,0.0,1,0,0,0,0,0,0
363402564,0.034214657,-0.03501486,1.1718074,0.0,0.8327975,0.023930034,-0.0051269024,0.55303645,0.3039623,0.0,1,0,0,0,0,0,0
363499631,0.039283264,-0.04048804,1.1718074,0.0,0.83266145,0.027552312,-0.0060052,0.55306387,0.35840496,0.0,1,0,0,0,0,0,0
363603824,0.04459828,-0.045083668,1.1718074,0.0,0.8325161,0.031034078,-0.0064496687,0.55309343,0.35722196,0.0,1,0,0,0,0,0,0
363708347,0.037496172,-0.035812166,1.1718074,0.0,0.83274716,0.025516666,-0.004551623,0.55304646,0.38975272,0.0,1,0,0,0,0,0,0
363803645,0.017007537,-0.013910572,1.1718074,0.0,0.8331297,0.010930965,-0.0010929661,0.5529685,0.38755247,0.0,1,0,0,0,0,0,0
363907971,0.008139393,-0.009348745,1.1718074,0.0,0.83318615,0.005975552,-0.0016443824,0.55295783,0.3897442,0.0,1,0,0,0,0,0,0
364011746,0.030839054,-0.033519875,1.1718074,0.0,0.83285373,0.022111347,-0.0054375473,0.5530245,0.3915983,0.0,1,0,0,0,0,0,0
364107651,0.050160065,-0.050581586,1.1718074,0.0,0.8323336,0.03486685,-0.007201557,0.55313027,0.40014943,0.0,1,0,0,0,0,0,0
364214055,0.046617705,-0.046653442,1.1718074,0.0,0.83245915,0.032308083,-0.006545063,0.55310494,0.40703535,0.0,1,0,0,0,0,0,0
364317913,0.02310577,-0.020861281,1.1718074,0.0,0.8330452,0.015392433,-0.0023024967,0.552986,0.45260608,0.0,1,0,0,0,0,0,0
364421312,0.005622543,-0.000112872985,1.1718074,0.0,0.83320934,0.0023735908,0.0015074743,0.5529505,0.49201465,0.0,1,0,0,0,0,0,0
364517916,1.2472635e-06,-7.235872e-07,1.1718074,0.0,0.83321273,7.196726e-07,4.338773e-08,0.55295265,0.4925008,0.0,1,0,0,0,0,0,0
364622068,-1.2093715e-09,1.136078e-09,1.1718074,0.0,0.83321273,-8.179305e-10,1.389348e-10,0.5529526,0.49385077,0.0,1,0,0,0,0,0,0
364725457,0.005907627,-0.007860001,1.1718074,0.0,0.8331962,0.004634221,-0.0016411998,0.5529556,0.49300864,0.0,1,0,0,0,0,0,0
364821985,0.006914406,-0.0069610733,1.1718074,0.0,0.83319604,0.0048051183,-0.00098835,0.5529559,0.49309832,0.0,1,0,0,0,0,0,0
364926891,0.036712345,-0.03195344,1.1718074,0.0,0.83280385,0.02412429,-0.0031609691,0.55303323,0.49396068,0.0,1,0,0,0,0,0,0
365031680,0.00864515,-0.009543763,1.1718074,0.0,0.833184,0.006240161,-0.0015857958,0.55295837,0.493106,0.0,1,0,0,0,0,0,0
365135456,4.028583e-05,-6.120161e-05,1.1718074,0.0,0.83321273,3.3704127e-05,-1.4358901e-05,0.5529526,0.493836,0.0,1,0,0,0,0,0,0
365230937,-3.080498e-08,-4.6938244e-09,1.1718074,0.0,0.83321273,-1.15358185e-08,-1.0472322e-08,0.55295265,0.49276066,0.0,1,0,0,0,0,0,0
365334851,-0.04932378,0.06008337,1.1718074,0.0,0.83217394,-0.037141327,0.011390418,0.5531522,0.49353203,0.0,1,0,0,0,0,0,0
365439067,-0.1163557,0.11297515,1.1718074,0.0,0.82866114,-0.07953544,0.014861384,0.55387187,0.49279556,0.0,1,0,0,0,0,0,0
365535088,-0.09469526,0.09354086,1.1718074,0.0,0.83014524,-0.06521621,0.0127692595,0.55357265,0.4931639,0.0,1,0,0,0,0,0,0
365641061,-0.03268457,0.007733355,1.1718074,0.0,0.8330603,-0.01575369,-0.005814712,0.55292726,0.49423063,0.0,1,0,0,0,0,0,0
365744364,1.7197632e-05,-1.2709101e-05,1.1718074,0.0,0.83321273,1.0678407e-05,-5.3995484e-07,0.5529526,0.49296778,0.0,1,0,0,0,0,0,0
365841110,-4.321074e-09,-2.1127693e-09,1.1718074,0.0,0.83321273,-1.2160564e-09,-2.0748678e-09,0.5529526,0.49331346,0.0,1,0,0,0,0,0,0
365945547,0.0,-0.0,1.1718074,0.0,0.83321273,0.0,-0.0,0.5529526,0.49304354,0.0,1,0,0,0,0,0,0
366048675,0.0,-0.0,1.1718074,0.0,0.83321273,0.0,-0.0,0.5529526,0.46510318,0.0,1,0,0,0,0,0,0
366144524,0.0,-0.0,1.1718074,-0.0,0.83321273,0.0,-0.0,0.5529526,0.38616335,0.0,1,0,0,0,0,0,0
366249068,0.0,-0.0,1.1718074,-0.0,0.83321273,0.0,-0.0,0.5529526,0.35918885,0.0,1,0,0,0,0,0,0
366354997,0.0,-0.0,1.1718074,-0.0,0.83321273,0.0,-0.0,0.5529526,0.37351885,0.0,1,0,0,0,0,0,0
366458199,0.0,-0.0,1.1718074,-0.0,0.83321273,0.0,-0.0,0.5529526,0.37431678,0.0,1,0,0,0,0,0,0
366554078,0.0,-0.0,1.1718074,-0.0,0.83321273,0.0,-0.0,0.5529526,0.37012774,0.0,1,0,0,0,0,0,0
366659051,0.0,-0.0,1.1718074,0.0,0.83321273,0.0,-0.0,0.5529526,0.370821,0.0,1,0,0,0,0,0,0
366762615,0.0,-0.0,1.1718074,0.0,0.83321273,0.0,-0.0,0.5529526,0.37858492,0.0,1,0,0,0,0,0,0
366858713,0.0,-0.0,1.1718074,0.0,0.83321273,0.0,-0.0,0.5529526,0.4014562,0.0,1,0,0,0,0,0,0
366961998,0.0,-0.0,1.1718074,-0.0,0.83321273,0.0,-0.0,0.5529526,0.39960524,0.0,1,0,0,0,0,0,0
367067715,0.0,-0.0,1.1718074,-0.0,0.83321273,0.0,-0.0,0.5529526,0.39964685,0.0,1,0,0,0,0,0,0
367163471,0.0,-0.0,1.1718074,-0.0,0.83321273,0.0,-0.0,0.5529526,0.42019847,0.0,1,0,0,0,0,0,0
367266874,0.0,-0.0,1.1718074,0.0,0.83321273,0.0,-0.0,0.55295265,0.4270735,0.0,1,0,0,0,0,0,0
367371100,0.0,-0.0,1.1718074,0.0,0.83321273,0.0,-0.0,0.5529526,0.44334057,0.0,1,0,0,0,0,0,0
367467725,0.0015333564,-0.003999047,1.1718074,0.0,0.83321,0.0017444453,-0.001242091,0.5529526,0.45071867,0.0,1,0,0,0,0,0,0
367571670,0.030502362,-0.030504003,1.1718074,-0.0,0.83289033,0.021137835,-0.004274317,0.5530178,0.45084465,0.0,1,0,0,0,0,0,0
367675717,0.02721888,-0.028541677,1.1718074,-0.0,0.8329433,0.019228151,-0.0043647634,0.5530069,0.45093423,0.0,1,0,0,0,0,0,0
367778913,0.04625481,-0.04695153,1.1718074,-0.0,0.8324602,0.032239337,-0.0067695836,0.5531047,0.45062813,0.0,1,0,0,0,0,0,0
367874838,0.028923094,-0.025425917,1.1718074,0.0,0.83295655,0.019076891,-0.0025955804,0.5530033,0.4513581,0.0,1,0,0,0,0,0,0
367980507,0.033596974,-0.036585987,1.1718074,0.0,0.8327859,0.024106883,-0.0059521776,0.55303806,0.45053238,0.0,1,0,0,0,0,0,0
368076542,0.04858994,-0.04816019,1.1718074,-0.0,0.8324019,0.033544958,-0.0066272332,0.55311656,0.45443088,0.0,1,0,0,0,0,0,0
368180769,0.040659793,-0.038399853,1.1718074,-0.0,0.83267117,0.027548647,-0.004754712,0.5530617,0.4938622,0.0,1,0,0,0,0,0,0
368284403,0.016075896,-0.014645248,1.1718074,0.0,0.8331309,0.010745967,-0.0016566144,0.552969,0.49313134,0.0,1,0,0,0,0,0,0
368380451,-8.5029715e-05,6.1399216e-05,1.1718074,0.0,0.83321273,-5.2399344e-05,2.070606e-06,0.55295265,0.49423957,0.0,1,0,0,0,0,0,0
368484951,6.9224754e-08,-9.1937956e-08,1.1718074,0.0,0.83321273,5.425814e-08,-1.9162936e-08,0.5529526,0.49301624,0.0,1,0,0,0,0,0,0
368588571,0.0,-0.0,1.1718074,0.0,0.83321273,0.0,-0.0,0.5529526,0.4938355,0.0,1,0,0,0,0,0,0
368686627,0.0,-0.0,1.1718074,-0.0,0.83321273,0.0,-0.0,0.5529526,0.49304363,0.0,1,0,0,0,0,0,0
368790196,1.7330016e-11,-0.00032355834,1.1718074,0.0,0.83321273,8.945622e-05,-0.00013479647,0.55295265,0.49310493,0.0,1,0,0,0,0,0,0
368894246,-9.22201e-05,-1.5655713e-05,1.1718074,0.0,0.83321273,-3.4091045e-05,-3.201894e-05,0.55295265,0.49402016,0.0,1,0,0,0,0,0,0
368990013,1.6517299e-07,-9.891216e-10,1.1718074,-0.0,0.83321273,6.9085594e-08,4.5254346e-08,0.5529526,0.4930757,0.0,1,0,0,0,0,0,0
369094031,0.0,-0.0,1.1718074,0.0,0.83321273,0.0,-0.0,0.5529526,0.49383593,0.0,1,0,0,0,0,0,0
369198539,0.0,-0.0,1.1718074,0.0,0.83321273,0.0,-0.0,0.5529526,0.49304357,0.0,1,0,0,0,0,0,0
369294797,0.0,-0.0,1.1718074,0.0,0.83321273,0.0,-0.0,0.5529526,0.49309838,0.0,1,0,0,0,0,0,0
369396319,0.022725964,-0.028165739,1.1718074,0.0,0.8329878,0.017253038,-0.005450449,0.55299544,0.49402016,0.0,1,0,0,0,0,0,0
369499724,0.08422506,-0.089836255,1.1718074,0.0,0.830589,0.059850175,-0.014124731,0.55348027,0.4931064,0.0,1,0,0,0,0,0,0
369604173,0.08787874,-0.08410215,1.1718074,0.0,0.8306516,0.059789672,-0.010726255,0.5534691,0.49346527,0.0,1,0,0,0,0,0,0
369699637,0.061430912,-0.056878082,1.1718074,0.0,0.8320001,0.041294042,-0.0067067468,0.5531959,0.4931328,0.0,1,0,0,0,0,0,0
369803846,0.052453063,-0.0529131,1.1718074,0.0,0.83225113,0.03646461,-0.0075384895,0.55314696,0.49309924,0.0,1,0,0,0,0,0,0
369908551,0.034824353,-0.03463375,1.1718074,0.0,0.8327948,0.02407862,-0.004799554,0.55303717,0.4930723,0.0,1,0,0,0,0,0,0
370009101,0.03419294,-0.03421785,1.1718074,0.0,0.8328073,0.023700798,-0.004800902,0.55303454,0.4931054,0.0,1,0,0,0,0,0,0
370113272,0.053732544,-0.056091115,1.1718074,0.0,0.8321679,0.03787406,-0.008508273,0.5531633,0.4938008,0.0,1,0,0,0,0,0,0
370209333,0.055847567,-0.055991307,1.1718074,0.0,0.83212936,0.038726524,-0.007881722,0.5531716,0.49313515,0.0,1,0,0,0,0,0,0
370313220,0.050798383,-0.050532144,1.1718074,0.0,0.8323233,0.035118848,-0.007004428,0.5531324,0.4933136,0.0,1,0,0,0,0,0,0
370418128,0.047999594,-0.048154276,1.1718074,0.0,0.83241194,0.033297613,-0.0067880326,0.55311453,0.49341202,0.0,1,0,0,0,0,0,0
370521940,0.04683872,-0.045961328,1.1718074,0.0,0.8324668,0.032208987,-0.006195653,0.5531033,0.49288502,0.0,1,0,0,0,0,0,0
370617794,0.04738285,-0.047436047,1.1718074,0.0,0.832434,0.03284263,-0.0066594356,0.55311006,0.49386013,0.0,1,0,0,0,0,0,0
370722053,0.043484952,-0.042752836,1.1718074,0.0,0.8325685,0.029926997,-0.0057866722,0.5530829,0.49313548,0.0,1,0,0,0,0,0,0
370826869,0.03168931,-0.031040357,1.1718074,0.0,0.8328718,0.021780329,-0.004169546,0.5530215,0.49383634,0.0,1,0,0,0,0,0,0
370922845,0.028221196,-0.028728304,1.1718074,0.0,0.83293176,0.01969716,-0.004165364,0.55300933,0.49363142,0.0,1,0,0,0,0,0,0
371027313,0.026472216,-0.025651557,1.1718074,0.0,0.83297735,0.018118497,-0.0033672487,0.55300015,0.49255595,0.0,1,0,0,0,0,0,0
371131605,0.02471387,-0.024180995,1.1718074,0.0,0.8330056,0.01697974,-0.003240816,0.5529945,0.49343932,0.0,1,0,0,0,0,0,0
371226831,0.010720353,-0.010061657,1.1718074,0.0,0.83317524,0.0072478475,-0.001227801,0.55296016,0.4931414,0.0,1,0,0,0,0,0,0
371331119,0.00021790093,5.3914504e-05,1.1718074,0.0,0.83321273,7.587283e-05,8.270557e-05,0.5529526,0.49420705,0.0,1,0,0,0,0,0,0
371436401,8.6694676e-08,-2.8516144e-08,1.1718074,0.0,0.83321273,4.4001588e-08,1.20890125e-08,0.55295265,0.49412394,0.0,1,0,0,0,0,0,0
371532415,-1.0791772e-10,5.2824623e-11,1.1718074,0.0,0.83321273,-5.9563965e-11,-7.829616e-12,0.55295265,0.49569955,0.0,1,0,0,0,0,0,0
371636953,-0.00032691122,0.00077462516,1.1718074,0.0,0.8332127,-0.0003503587,0.00023233054,0.5529526,0.49622032,0.0,1,0,0,0,0,0,0
371740574,-0.030708356,0.030853441,1.1718074,0.0,0.8328844,-0.021320174,0.004362926,0.5530189,0.49629125,0.0,1,0,0,0,0,0,0
371837096,-0.029412942,0.028526697,1.1718074,0.0,0.8329219,-0.020137765,0.0037518556,0.55301136,0.49720594,0.0,1,0,0,0,0,0,0
371941437,-0.030470064,0.03087885,1.1718074,0.0,0.83288664,-0.021227958,0.004439401,0.55301845,0.49604216,0.0,1,0,0,0,0,0,0
372044451,-0.04712118,0.047513396,1.1718074,0.0,0.832437,-0.032755073,0.0067640212,0.5531094,0.49705043,0.0,1,0,0,0,0,0,0
372143014,-0.040990237,0.041158367,1.1718074,0.0,0.83262813,-0.028448103,0.0058123893,0.5530707,0.49622986,0.0,1,0,0,0,0,0,0
372246779,0.00102507,-0.00067285105,1.1718074,0.0,0.8332125,0.00061307783,3.0935105e-06,0.5529526,0.4955107,0.0,1,0,0,0,0,0,0
372342163,-2.0183577e-07,-1.266203e-07,1.1718074,0.0,0.83321273,-4.9078558e-08,-1.08553635e-07,0.5529526,0.49649242,0.0,1,0,0,0,0,0,0
372446593,4.6267046e-10,1.0869229e-10,1.1718074,0.0,0.83321273,1.627006e-10,1.7319932e-10,0.5529526,0.49520856,0.0,1,0,0,0,0,0,0
372550073,0.0,-0.0,1.1718074,0.0,0.83321273,0.0,-0.0,0.5529526,0.49486297,0.0,1,0,0,0,0,0,0
372654615,-0.054254115,0.056771826,1.1718074,0.0,0.8321449,-0.03827891,0.008647533,0.55316794,0.49419507,0.0,1,0,0,0,0,0,0
372758252,-0.059604544,0.06272095,1.1718074,0.0,0.8319166,-0.042146064,0.009645361,0.55321383,0.49526912,0.0,1,0,0,0,0,0,0
372855649,-0.08457253,0.080539465,1.1718074,0.0,0.8308519,-0.057435736,0.010157817,0.5534285,0.49411255,0.0,1,0,0,0,0,0,0
372959617,-0.070464455,0.070930816,1.1718074,0.0,0.83148134,-0.048925817,0.010060228,0.55330265,0.49523953,0.0,1,0,0,0,0,0,0
