timestamp,min_distance,max_distance,current_distance,covariance,signal_quality,type,id,orientation
309994913,0.01,25.0,0.0,0.0,64,0,1,25
310027339,0.01,25.0,0.0,0.0,64,0,1,25
310092786,0.01,25.0,0.0,0.0,64,0,1,25
310124742,0.01,25.0,0.0,0.0,64,0,1,25
310156169,0.01,25.0,0.0,0.0,64,0,1,25
310188905,0.01,25.0,0.0,0.0,64,0,1,25
310219958,0.01,25.0,0.0,0.0,64,0,1,25
310252886,0.01,25.0,0.0,0.0,64,0,1,25
310284771,0.01,25.0,0.0,0.0,64,0,1,25
310316893,0.01,25.0,0.0,0.0,64,0,1,25
310349986,0.01,25.0,0.0,0.0,64,0,1,25
310381741,0.01,25.0,0.0,0.0,0,0,1,25
310413757,0.01,25.0,0.0,0.0,64,0,1,25
310445574,0.01,25.0,0.0,0.0,64,0,1,25
310477918,0.01,25.0,0.0,0.0,64,0,1,25
310510003,0.01,25.0,0.0,0.0,64,0,1,25
310541774,0.01,25.0,0.0,0.0,0,0,1,25
310573828,0.01,25.0,0.0,0.0,64,0,1,25
310604960,0.01,25.0,0.0,0.0,64,0,1,25
310637404,0.01,25.0,0.0,0.0,0,0,1,25
310669912,0.01,25.0,0.0,0.0,64,0,1,25
310702280,0.01,25.0,0.0,0.0,64,0,1,25
310734892,0.01,25.0,0.0,0.0,64,0,1,25
310766908,0.01,25.0,0.0,0.0,64,0,1,25
310798855,0.01,25.0,0.0,0.0,64,0,1,25
310830162,0.01,25.0,0.0,0.0,0,0,1,25
310860750,0.01,25.0,0.0,0.0,64,0,1,25
310892754,0.01,25.0,0.0,0.0,64,0,1,25
310924756,0.01,25.0,0.0,0.0,64,0,1,25
310956741,0.01,25.0,0.0,0.0,64,0,1,25
310987826,0.01,25.0,0.0,0.0,4,0,1,25
311019791,0.01,25.0,0.0,0.0,64,0,1,25
311051742,0.01,25.0,0.0,0.0,64,0,1,25
311083514,0.01,25.0,0.0,0.0,4,0,1,25
311115124,0.01,25.0,0.0,0.0,64,0,1,25
311146384,0.01,25.0,0.0,0.0,64,0,1,25
311178984,0.01,25.0,0.0,0.0,64,0,1,25
311210559,0.01,25.0,0.0,0.0,64,0,1,25
311242594,0.01,25.0,0.0,0.0,0,0,1,25
311275338,0.01,25.0,0.0,0.0,64,0,1,25
311307852,0.01,25.0,0.0,0.0,64,0,1,25
311339742,0.01,25.0,0.0,0.0,64,0,1,25
311371335,0.01,25.0,0.0,0.0,64,0,1,25
311403761,0.01,25.0,0.0,0.0,64,0,1,25
311435758,0.01,25.0,0.02,0.0,64,0,1,25
311468927,0.01,25.0,0.0,0.0,64,0,1,25
311500904,0.01,25.0,0.0,0.0,64,0,1,25
311532759,0.01,25.0,0.0,0.0,64,0,1,25
311564762,0.01,25.0,0.0,0.0,64,0,1,25
311596935,0.01,25.0,0.0,0.0,4,0,1,25
311628991,0.01,25.0,0.0,0.0,64,0,1,25
311660580,0.01,25.0,0.0,0.0,64,0,1,25
311692509,0.01,25.0,0.0,0.0,64,0,1,25
311724166,0.01,25.0,0.0,0.0,64,0,1,25
311756129,0.01,25.0,0.0,0.0,64,0,1,25
311788968,0.01,25.0,0.0,0.0,64,0,1,25
311820139,0.01,25.0,0.0,0.0,64,0,1,25
311852123,0.01,25.0,0.0,0.0,64,0,1,25
311884984,0.01,25.0,0.0,0.0,64,0,1,25
311916772,0.01,25.0,0.0,0.0,64,0,1,25
311948758,0.01,25.0,0.0,0.0,64,0,1,25
311981394,0.01,25.0,0.0,0.0,64,0,1,25
312013784,0.01,25.0,0.0,0.0,64,0,1,25
312045956,0.01,25.0,0.0,0.0,64,0,1,25
312077331,0.01,25.0,0.0,0.0,4,0,1,25
312108793,0.01,25.0,0.0,0.0,64,0,1,25
312140139,0.01,25.0,0.0,0.0,64,0,1,25
312172986,0.01,25.0,0.0,0.0,64,0,1,25
312205752,0.01,25.0,0.0,0.0,64,0,1,25
312238273,0.01,25.0,0.0,0.0,64,0,1,25
312270303,0.01,25.0,0.0,0.0,64,0,1,25
312302863,0.01,25.0,0.0,0.0,64,0,1,25
312334866,0.01,25.0,0.0,0.0,64,0,1,25
312366842,0.01,25.0,0.0,0.0,64,0,1,25
312397992,0.01,25.0,0.0,0.0,0,0,1,25
312429771,0.01,25.0,0.0,0.0,64,0,1,25
312462365,0.01,25.0,0.0,0.0,64,0,1,25
312494847,0.01,25.0,0.0,0.0,64,0,1,25
312526827,0.01,25.0,0.0,0.0,64,0,1,25
312558866,0.01,25.0,0.0,0.0,64,0,1,25
312590835,0.01,25.0,0.0,0.0,64,0,1,25
312622847,0.01,25.0,0.0,0.0,0,0,1,25
312654846,0.01,25.0,0.0,0.0,0,0,1,25
312686151,0.01,25.0,0.0,0.0,64,0,1,25
312717981,0.01,25.0,0.0,0.0,0,0,1,25
312750583,0.01,25.0,0.0,0.0,64,0,1,25
312782174,0.01,25.0,0.0,0.0,4,0,1,25
312813783,0.01,25.0,0.0,0.0,64,0,1,25
312845761,0.01,25.0,0.0,0.0,64,0,1,25
312878407,0.01,25.0,0.0,0.0,4,0,1,25
312910842,0.01,25.0,0.0,0.0,64,0,1,25
312942910,0.01,25.0,0.0,0.0,0,0,1,25
312976400,0.01,25.0,0.0,0.0,64,0,1,25
313008769,0.01,25.0,0.0,0.0,64,0,1,25
313039779,0.01,25.0,0.0,0.0,64,0,1,25
313071778,0.01,25.0,0.0,0.0,0,0,1,25
313103545,0.01,25.0,0.02,0.0,0,0,1,25
313135525,0.01,25.0,0.0,0.0,64,0,1,25
313167361,0.01,25.0,0.0,0.0,64,0,1,25
313199931,0.01,25.0,0.0,0.0,64,0,1,25
313231742,0.01,25.0,0.0,0.0,64,0,1,25
313263873,0.01,25.0,0.0,0.0,0,0,1,25
313296144,0.01,25.0,0.0,0.0,64,0,1,25
313327801,0.01,25.0,0.0,0.0,64,0,1,25
313359885,0.01,25.0,0.0,0.0,4,0,1,25
313391538,0.01,25.0,0.0,0.0,-72,0,1,25
313423742,0.01,25.0,0.0,0.0,64,0,1,25
313455527,0.01,25.0,0.0,0.0,4,0,1,25
313487703,0.01,25.0,0.0,0.0,0,0,1,25
313519741,0.01,25.0,0.0,0.0,64,0,1,25
313551848,0.01,25.0,0.0,0.0,64,0,1,25
313583617,0.01,25.0,0.0,0.0,0,0,1,25
313615176,0.01,25.0,0.0,0.0,64,0,1,25
313648214,0.01,25.0,0.0,0.0,64,0,1,25
313679751,0.01,25.0,0.0,0.0,64,0,1,25
313712334,0.01,25.0,0.0,0.0,64,0,1,25
313744757,0.01,25.0,0.0,0.0,64,0,1,25
313777042,0.01,25.0,0.0,0.0,64,0,1,25
313808489,0.01,25.0,0.0,0.0,64,0,1,25
313840294,0.01,25.0,0.0,0.0,64,0,1,25
313872319,0.01,25.0,0.0,0.0,64,0,1,25
313904342,0.01,25.0,0.0,0.0,64,0,1,25
313936908,0.01,25.0,0.0,0.0,64,0,1,25
313968879,0.01,25.0,0.0,0.0,0,0,1,25
314000966,0.01,25.0,0.0,0.0,64,0,1,25
314032879,0.01,25.0,0.0,0.0,64,0,1,25
314064998,0.01,25.0,0.0,0.0,64,0,1,25
314096317,0.01,25.0,0.0,0.0,-116,0,1,25
314128744,0.01,25.0,0.0,0.0,64,0,1,25
314160960,0.01,25.0,0.0,0.0,64,0,1,25
314192745,0.01,25.0,0.0,0.0,64,0,1,25
314224936,0.01,25.0,0.0,0.0,0,0,1,25
314256753,0.01,25.0,0.0,0.0,64,0,1,25
314288770,0.01,25.0,0.0,0.0,64,0,1,25
314320471,0.01,25.0,0.0,0.0,64,0,1,25
314352527,0.01,25.0,0.0,0.0,64,0,1,25
314384772,0.01,25.0,0.0,0.0,64,0,1,25
314416342,0.01,25.0,0.0,0.0,64,0,1,25
314449489,0.01,25.0,0.0,0.0,64,0,1,25
314480743,0.01,25.0,0.0,0.0,64,0,1,25
314512753,0.01,25.0,0.0,0.0,64,0,1,25
314544769,0.01,25.0,0.0,0.0,64,0,1,25
314575736,0.01,25.0,0.0,0.0,4,0,1,25
314607341,0.01,25.0,0.0,0.0,64,0,1,25
314639742,0.01,25.0,0.0,0.0,64,0,1,25
314670929,0.01,25.0,0.0,0.0,0,0,1,25
314702995,0.01,25.0,0.0,0.0,64,0,1,25
314735540,0.01,25.0,0.0,0.0,0,0,1,25
314767832,0.01,25.0,0.0,0.0,64,0,1,25
314799752,0.01,25.0,0.0,0.0,-116,0,1,25
314831663,0.01,25.0,0.0,0.0,4,0,1,25
314862934,0.01,25.0,0.0,0.0,64,0,1,25
314894869,0.01,25.0,0.0,0.0,0,0,1,25
314927002,0.01,25.0,0.0,0.0,64,0,1,25
314959097,0.01,25.0,0.0,0.0,64,0,1,25
314990543,0.01,25.0,0.0,0.0,0,0,1,25
315375774,0.01,25.0,0.02,0.0,64,0,1,25
315407513,0.01,25.0,0.02,0.0,0,0,1,25
315439687,0.01,25.0,0.02,0.0,0,0,1,25
315471756,0.01,25.0,0.04,0.0,64,0,1,25
315503776,0.01,25.0,0.089999996,0.0,-72,0,1,25
315535760,0.01,25.0,0.04,0.0,64,0,1,25
315567802,0.01,25.0,0.04,0.0,0,0,1,25
315599514,0.01,25.0,0.04,0.0,64,0,1,25
315631790,0.01,25.0,0.01,0.0,0,0,1,25
315663798,0.01,25.0,0.02,0.0,64,0,1,25
315695747,0.01,25.0,0.08,0.0,0,0,1,25
315727803,0.01,25.0,0.03,0.0,64,0,1,25
315759846,0.01,25.0,0.04,0.0,0,0,1,25
315791742,0.01,25.0,0.03,0.0,64,0,1,25
315823772,0.01,25.0,0.02,0.0,64,0,1,25
315855755,0.01,25.0,0.03,0.0,64,0,1,25
315887529,0.01,25.0,0.02,0.0,64,0,1,25
315918824,0.01,25.0,0.0,0.0,64,0,1,25
315950904,0.01,25.0,0.0,0.0,64,0,1,25
315982824,0.01,25.0,0.0,0.0,64,0,1,25
316014824,0.01,25.0,0.049999997,0.0,0,0,1,25
316046822,0.01,25.0,0.01,0.0,0,0,1,25
316078006,0.01,25.0,0.02,0.0,64,0,1,25
316109769,0.01,25.0,0.02,0.0,64,0,1,25
316141741,0.01,25.0,0.0,0.0,64,0,1,25
316173293,0.01,25.0,0.02,0.0,64,0,1,25
316205010,0.01,25.0,0.02,0.0,64,0,1,25
316237258,0.01,25.0,0.03,0.0,64,0,1,25
316269319,0.01,25.0,0.01,0.0,64,0,1,25
316301183,0.01,25.0,0.02,0.0,0,0,1,25
316331750,0.01,25.0,0.03,0.0,64,0,1,25
316363764,0.01,25.0,0.03,0.0,64,0,1,25
316395756,0.01,25.0,0.02,0.0,64,0,1,25
316426835,0.01,25.0,0.03,0.0,64,0,1,25
316457923,0.01,25.0,0.03,0.0,64,0,1,25
316490268,0.01,25.0,0.07,0.0,64,0,1,25
316521960,0.01,25.0,0.049999997,0.0,64,0,1,25
316554575,0.01,25.0,0.06,0.0,64,0,1,25
316585948,0.01,25.0,0.06,0.0,4,0,1,25
316618596,0.01,25.0,0.07,0.0,4,0,1,25
316650201,0.01,25.0,0.07,0.0,64,0,1,25
316683113,0.01,25.0,0.08,0.0,64,0,1,25
316714335,0.01,25.0,0.13,0.0,64,0,1,25
316746956,0.01,25.0,0.11,0.0,0,0,1,25
316778708,0.01,25.0,0.12,0.0,64,0,1,25
316810309,0.01,25.0,0.14999999,0.0,64,0,1,25
316842870,0.01,25.0,0.19999999,0.0,64,0,1,25
316874872,0.01,25.0,0.21,0.0,64,0,1,25
316906882,0.01,25.0,0.21,0.0,0,0,1,25
316938770,0.01,25.0,0.26999998,0.0,64,0,1,25
316970552,0.01,25.0,0.26999998,0.0,64,0,1,25
317002925,0.01,25.0,0.29,0.0,64,0,1,25
317034295,0.01,25.0,0.29999998,0.0,64,0,1,25
317066846,0.01,25.0,0.32999998,0.0,64,0,1,25
317098900,0.01,25.0,0.35999998,0.0,64,0,1,25
317130940,0.01,25.0,0.38,0.0,0,0,1,25
317162956,0.01,25.0,0.41,0.0,64,0,1,25
317194942,0.01,25.0,0.42,0.0,0,0,1,25
317226957,0.01,25.0,0.44,0.0,64,0,1,25
317258896,0.01,25.0,0.45999998,0.0,0,0,1,25
317290959,0.01,25.0,0.48999998,0.0,64,0,1,25
317322881,0.01,25.0,0.51,0.0,0,0,1,25
317354627,0.01,25.0,0.53,0.0,0,0,1,25
317386867,0.01,25.0,0.53999996,0.0,0,0,1,25
317418907,0.01,25.0,0.57,0.0,0,0,1,25
317450883,0.01,25.0,0.61,0.0,64,0,1,25
317481746,0.01,25.0,0.62,0.0,64,0,1,25
317513094,0.01,25.0,0.65,0.0,64,0,1,25
317545947,0.01,25.0,0.66999996,0.0,64,0,1,25
317577137,0.01,25.0,0.66999996,0.0,64,0,1,25
317608942,0.01,25.0,0.7,0.0,0,0,1,25
317641407,0.01,25.0,0.74,0.0,64,0,1,25
317673410,0.01,25.0,0.77,0.0,0,0,1,25
317705787,0.01,25.0,0.78,0.0,64,0,1,25
317737812,0.01,25.0,0.79999995,0.0,64,0,1,25
317768931,0.01,25.0,0.83,0.0,64,0,1,25
317800940,0.01,25.0,0.84,0.0,64,0,1,25
317833892,0.01,25.0,0.87,0.0,64,0,1,25
317864951,0.01,25.0,0.90999997,0.0,64,0,1,25
317898189,0.01,25.0,0.91999996,0.0,64,0,1,25
317929753,0.01,25.0,0.94,0.0,64,0,1,25
317960937,0.01,25.0,0.95,0.0,64,0,1,25
317992974,0.01,25.0,0.98999995,0.0,64,0,1,25
318025750,0.01,25.0,1.01,0.0,64,0,1,25
318057981,0.01,25.0,1.04,0.0,64,0,1,25
318089767,0.01,25.0,1.05,0.0,64,0,1,25
318120966,0.01,25.0,1.0799999,0.0,-72,0,1,25
318152751,0.01,25.0,1.1,0.0,64,0,1,25
318183742,0.01,25.0,1.13,0.0,64,0,1,25
318215011,0.01,25.0,1.15,0.0,4,0,1,25
318246835,0.01,25.0,1.18,0.0,64,0,1,25
318278926,0.01,25.0,1.1999999,0.0,0,0,1,25
318310838,0.01,25.0,1.2099999,0.0,0,0,1,25
318342852,0.01,25.0,1.27,0.0,64,0,1,25
318374859,0.01,25.0,1.25,0.0,0,0,1,25
318406856,0.01,25.0,1.3,0.0,64,0,1,25
319295772,0.01,25.0,2.33,0.0,64,0,1,25
319327830,0.01,25.0,2.34,0.0,4,0,1,25
319359754,0.01,25.0,2.3899999,0.0,64,0,1,25
319391575,0.01,25.0,2.4199998,0.0,64,0,1,25
319423741,0.01,25.0,2.46,0.0,64,0,1,25
319455773,0.01,25.0,2.52,0.0,64,0,1,25
319487561,0.01,25.0,2.55,0.0,0,0,1,25
319519652,0.01,25.0,2.59,0.0,4,0,1,25
319551753,0.01,25.0,2.6299999,0.0,64,0,1,25
319583749,0.01,25.0,2.6699998,0.0,64,0,1,25
319615455,0.01,25.0,2.71,0.0,0,0,1,25
319648523,0.01,25.0,2.74,0.0,64,0,1,25
319681117,0.01,25.0,2.77,0.0,64,0,1,25
319713180,0.01,25.0,2.81,0.0,0,0,1,25
319745163,0.01,25.0,2.77,0.0,64,0,1,25
319777150,0.01,25.0,2.87,0.0,64,0,1,25
319807958,0.01,25.0,2.8899999,0.0,4,0,1,25
319841178,0.01,25.0,2.9199998,0.0,64,0,1,25
319873305,0.01,25.0,2.95,0.0,0,0,1,25
319905116,0.01,25.0,2.95,0.0,64,0,1,25
319935757,0.01,25.0,2.98,0.0,108,0,1,25
319967823,0.01,25.0,3.01,0.0,0,0,1,25
319999834,0.01,25.0,2.99,0.0,0,0,1,25
320031743,0.01,25.0,3.04,0.0,64,0,1,25
320063128,0.01,25.0,3.06,0.0,4,0,1,25
320094207,0.01,25.0,3.05,0.0,4,0,1,25
320126350,0.01,25.0,3.07,0.0,4,0,1,25
320158262,0.01,25.0,3.08,0.0,4,0,1,25
320190205,0.01,25.0,3.07,0.0,4,0,1,25
320222753,0.01,25.0,3.09,0.0,4,0,1,25
320254559,0.01,25.0,3.08,0.0,4,0,1,25
320286368,0.01,25.0,3.1,0.0,4,0,1,25
320318625,0.01,25.0,3.09,0.0,4,0,1,25
320350208,0.01,25.0,3.1,0.0,0,0,1,25
320382195,0.01,25.0,3.09,0.0,4,0,1,25
320416372,0.01,25.0,3.08,0.0,4,0,1,25
320448328,0.01,25.0,3.08,0.0,4,0,1,25
320480509,0.01,25.0,3.08,0.0,4,0,1,25
320512318,0.01,25.0,3.07,0.0,4,0,1,25
320544320,0.01,25.0,3.05,0.0,4,0,1,25
320576378,0.01,25.0,3.02,0.0,4,0,1,25
320608667,0.01,25.0,3.03,0.0,4,0,1,25
320640207,0.01,25.0,3.0,0.0,4,0,1,25
320672610,0.01,25.0,2.97,0.0,4,0,1,25
320704604,0.01,25.0,2.99,0.0,4,0,1,25
320736176,0.01,25.0,2.95,0.0,4,0,1,25
320767805,0.01,25.0,2.95,0.0,4,0,1,25
320800475,0.01,25.0,2.9199998,0.0,4,0,1,25
320832378,0.01,25.0,2.8999999,0.0,4,0,1,25
320864154,0.01,25.0,2.87,0.0,4,0,1,25
320896664,0.01,25.0,2.84,0.0,4,0,1,25
320928346,0.01,25.0,2.82,0.0,4,0,1,25
320960535,0.01,25.0,2.79,0.0,4,0,1,25
320992336,0.01,25.0,2.76,0.0,4,0,1,25
321024167,0.01,25.0,2.73,0.0,4,0,1,25
321056295,0.01,25.0,2.69,0.0,4,0,1,25
321088584,0.01,25.0,2.6599998,0.0,4,0,1,25
321119846,0.01,25.0,2.61,0.0,4,0,1,25
321153194,0.01,25.0,2.57,0.0,4,0,1,25
321184994,0.01,25.0,2.55,0.0,64,0,1,25
321217761,0.01,25.0,2.52,0.0,64,0,1,25
321249746,0.01,25.0,2.49,0.0,0,0,1,25
321281385,0.01,25.0,2.45,0.0,64,0,1,25
321313749,0.01,25.0,2.4199998,0.0,64,0,1,25
321345903,0.01,25.0,2.37,0.0,108,0,1,25
321376902,0.01,25.0,2.35,0.0,64,0,1,25
321410311,0.01,25.0,2.3,0.0,64,0,1,25
321442842,0.01,25.0,2.29,0.0,64,0,1,25
321474923,0.01,25.0,2.28,0.0,64,0,1,25
321505898,0.01,25.0,2.24,0.0,64,0,1,25
321538181,0.01,25.0,2.23,0.0,0,0,1,25
321569777,0.01,25.0,2.22,0.0,0,0,1,25
321601289,0.01,25.0,2.21,0.0,64,0,1,25
321632939,0.01,25.0,2.21,0.0,64,0,1,25
321664976,0.01,25.0,2.21,0.0,64,0,1,25
321697347,0.01,25.0,2.23,0.0,64,0,1,25
321729738,0.01,25.0,2.23,0.0,64,0,1,25
321760772,0.01,25.0,2.23,0.0,0,0,1,25
321793342,0.01,25.0,2.27,0.0,64,0,1,25
321824958,0.01,25.0,2.3,0.0,64,0,1,25
321856964,0.01,25.0,2.31,0.0,64,0,1,25
321887804,0.01,25.0,2.36,0.0,64,0,1,25
321918881,0.01,25.0,2.3899999,0.0,64,0,1,25
321950907,0.01,25.0,2.4299998,0.0,-72,0,1,25
321982900,0.01,25.0,2.47,0.0,0,0,1,25
322013940,0.01,25.0,2.47,0.0,64,0,1,25
322046131,0.01,25.0,2.53,0.0,0,0,1,25
322078174,0.01,25.0,2.59,0.0,64,0,1,25
322110812,0.01,25.0,2.6299999,0.0,64,0,1,25
322142067,0.01,25.0,2.6699998,0.0,0,0,1,25
322174060,0.01,25.0,2.73,0.0,64,0,1,25
322205448,0.01,25.0,2.76,0.0,4,0,1,25
322237954,0.01,25.0,2.81,0.0,64,0,1,25
322269950,0.01,25.0,2.85,0.0,64,0,1,25
322301539,0.01,25.0,2.8899999,0.0,4,0,1,25
322333954,0.01,25.0,2.9099998,0.0,64,0,1,25
322365870,0.01,25.0,3.0,0.0,64,0,1,25
322397162,0.01,25.0,3.01,0.0,4,0,1,25
322428372,0.01,25.0,3.05,0.0,4,0,1,25
322460586,0.01,25.0,3.08,0.0,4,0,1,25
322492391,0.01,25.0,3.11,0.0,4,0,1,25
322525150,0.01,25.0,3.1399999,0.0,4,0,1,25
322557951,0.01,25.0,3.1599998,0.0,4,0,1,25
322589769,0.01,25.0,3.1899998,0.0,4,0,1,25
322621348,0.01,25.0,3.21,0.0,4,0,1,25
322653322,0.01,25.0,3.24,0.0,108,0,1,25
322685393,0.01,25.0,3.27,0.0,4,0,1,25
322717378,0.01,25.0,3.29,0.0,4,0,1,25
322748912,0.01,25.0,3.3,0.0,4,0,1,25
322781418,0.01,25.0,3.32,0.0,4,0,1,25
322813375,0.01,25.0,3.34,0.0,4,0,1,25
322845123,0.01,25.0,3.34,0.0,4,0,1,25
322877132,0.01,25.0,3.34,0.0,4,0,1,25
322909391,0.01,25.0,3.37,0.0,4,0,1,25
322941118,0.01,25.0,3.3799999,0.0,4,0,1,25
322973333,0.01,25.0,3.3799999,0.0,4,0,1,25
323005121,0.01,25.0,3.3799999,0.0,4,0,1,25
323037142,0.01,25.0,3.3999999,0.0,4,0,1,25
323069180,0.01,25.0,3.4199998,0.0,4,0,1,25
323101101,0.01,25.0,3.3799999,0.0,4,0,1,25
323133108,0.01,25.0,3.3999999,0.0,4,0,1,25
323165243,0.01,25.0,3.4099998,0.0,4,0,1,25
323197175,0.01,25.0,3.3999999,0.0,4,0,1,25
323229324,0.01,25.0,3.3899999,0.0,4,0,1,25
323261174,0.01,25.0,3.33,0.0,4,0,1,25
323293273,0.01,25.0,3.35,0.0,4,0,1,25
323325374,0.01,25.0,3.32,0.0,4,0,1,25
323358070,0.01,25.0,3.33,0.0,4,0,1,25
323390137,0.01,25.0,3.3,0.0,4,0,1,25
323422306,0.01,25.0,3.34,0.0,4,0,1,25
323454351,0.01,25.0,3.29,0.0,4,0,1,25
323486205,0.01,25.0,3.27,0.0,4,0,1,25
323518286,0.01,25.0,3.27,0.0,4,0,1,25
323550200,0.01,25.0,3.25,0.0,4,0,1,25
323582385,0.01,25.0,3.22,0.0,4,0,1,25
323614270,0.01,25.0,3.22,0.0,4,0,1,25
323646182,0.01,25.0,3.1899998,0.0,4,0,1,25
323677986,0.01,25.0,3.1499999,0.0,4,0,1,25
323709739,0.01,25.0,3.1299999,0.0,4,0,1,25
323741791,0.01,25.0,3.1,0.0,4,0,1,25
323773712,0.01,25.0,3.07,0.0,4,0,1,25
323805172,0.01,25.0,3.04,0.0,4,0,1,25
323837011,0.01,25.0,3.03,0.0,4,0,1,25
323869058,0.01,25.0,2.97,0.0,4,0,1,25
323900990,0.01,25.0,2.95,0.0,4,0,1,25
323932730,0.01,25.0,2.9399998,0.0,4,0,1,25
323964984,0.01,25.0,2.9199998,0.0,4,0,1,25
323996926,0.01,25.0,2.86,0.0,4,0,1,25
324028997,0.01,25.0,2.82,0.0,4,0,1,25
324061126,0.01,25.0,2.82,0.0,4,0,1,25
324093115,0.01,25.0,2.8,0.0,4,0,1,25
324125351,0.01,25.0,2.77,0.0,4,0,1,25
324157336,0.01,25.0,2.73,0.0,4,0,1,25
324189381,0.01,25.0,2.75,0.0,4,0,1,25
324220961,0.01,25.0,2.69,0.0,4,0,1,25
324253247,0.01,25.0,2.6799998,0.0,4,0,1,25
324285265,0.01,25.0,2.6599998,0.0,4,0,1,25
324316645,0.01,25.0,2.6399999,0.0,4,0,1,25
324349356,0.01,25.0,2.6299999,0.0,4,0,1,25
324380945,0.01,25.0,2.6,0.0,4,0,1,25
324412634,0.01,25.0,2.58,0.0,4,0,1,25
324446517,0.01,25.0,2.57,0.0,4,0,1,25
324479004,0.01,25.0,2.55,0.0,4,0,1,25
324511373,0.01,25.0,2.54,0.0,4,0,1,25
324543023,0.01,25.0,2.55,0.0,4,0,1,25
324575348,0.01,25.0,2.51,0.0,4,0,1,25
324606994,0.01,25.0,2.51,0.0,4,0,1,25
324639504,0.01,25.0,2.48,0.0,4,0,1,25
324671515,0.01,25.0,2.48,0.0,4,0,1,25
324703343,0.01,25.0,2.47,0.0,4,0,1,25
324735492,0.01,25.0,2.46,0.0,4,0,1,25
324767001,0.01,25.0,2.46,0.0,4,0,1,25
324799366,0.01,25.0,2.46,0.0,4,0,1,25
324832126,0.01,25.0,2.46,0.0,4,0,1,25
324864756,0.01,25.0,2.45,0.0,4,0,1,25
324897321,0.01,25.0,2.46,0.0,4,0,1,25
324929102,0.01,25.0,2.45,0.0,4,0,1,25
324961337,0.01,25.0,2.45,0.0,4,0,1,25
324993284,0.01,25.0,2.44,0.0,4,0,1,25
325025322,0.01,25.0,2.4099998,0.0,4,0,1,25
325057348,0.01,25.0,2.47,0.0,4,0,1,25
325088992,0.01,25.0,2.47,0.0,4,0,1,25
325121782,0.01,25.0,2.48,0.0,4,0,1,25
325153428,0.01,25.0,2.49,0.0,4,0,1,25
325184914,0.01,25.0,2.49,0.0,4,0,1,25
325217460,0.01,25.0,2.49,0.0,4,0,1,25
325248912,0.01,25.0,2.51,0.0,4,0,1,25
325281407,0.01,25.0,2.53,0.0,4,0,1,25
325312981,0.01,25.0,2.54,0.0,4,0,1,25
325344985,0.01,25.0,2.56,0.0,4,0,1,25
325377382,0.01,25.0,2.57,0.0,4,0,1,25
325409168,0.01,25.0,2.56,0.0,4,0,1,25
325440763,0.01,25.0,2.6,0.0,4,0,1,25
325472642,0.01,25.0,2.62,0.0,4,0,1,25
325504207,0.01,25.0,2.6299999,0.0,1,0,1,25
325535012,0.01,25.0,2.6599998,0.0,4,0,1,25
325568752,0.01,25.0,2.6699998,0.0,4,0,1,25
325600413,0.01,25.0,2.69,0.0,4,0,1,25
325632614,0.01,25.0,2.7,0.0,4,0,1,25
325664602,0.01,25.0,2.75,0.0,4,0,1,25
325696610,0.01,25.0,2.77,0.0,4,0,1,25
325728153,0.01,25.0,2.77,0.0,4,0,1,25
325760734,0.01,25.0,2.82,0.0,4,0,1,25
325792340,0.01,25.0,2.85,0.0,4,0,1,25
325824769,0.01,25.0,2.87,0.0,4,0,1,25
325856383,0.01,25.0,2.8899999,0.0,4,0,1,25
325888316,0.01,25.0,2.9099998,0.0,4,0,1,25
325920574,0.01,25.0,2.96,0.0,4,0,1,25
325952326,0.01,25.0,2.98,0.0,4,0,1,25
325983862,0.01,25.0,3.02,0.0,4,0,1,25
326016751,0.01,25.0,3.08,0.0,4,0,1,25
326048564,0.01,25.0,3.11,0.0,4,0,1,25
326081524,0.01,25.0,3.1399999,0.0,0,0,1,25
326114248,0.01,25.0,3.1799998,0.0,4,0,1,25
326145751,0.01,25.0,3.22,0.0,4,0,1,25
326177797,0.01,25.0,3.25,0.0,4,0,1,25
326210037,0.01,25.0,3.29,0.0,4,0,1,25
326241865,0.01,25.0,3.31,0.0,64,0,1,25
326273925,0.01,25.0,3.36,0.0,64,0,1,25
326305920,0.01,25.0,3.3899999,0.0,4,0,1,25
326338210,0.01,25.0,3.4199998,0.0,4,0,1,25
326369922,0.01,25.0,3.4299998,0.0,4,0,1,25
326403116,0.01,25.0,3.48,0.0,4,0,1,25
326435589,0.01,25.0,3.5,0.0,4,0,1,25
326467810,0.01,25.0,3.54,0.0,0,0,1,25
326499780,0.01,25.0,3.57,0.0,4,0,1,25
326531757,0.01,25.0,3.59,0.0,64,0,1,25
326563757,0.01,25.0,3.59,0.0,64,0,1,25
326595769,0.01,25.0,3.6,0.0,64,0,1,25
326627630,0.01,25.0,3.6299999,0.0,64,0,1,25
326659759,0.01,25.0,3.6499999,0.0,64,0,1,25
326691890,0.01,25.0,3.6599998,0.0,4,0,1,25
326723769,0.01,25.0,3.6799998,0.0,64,0,1,25
326755745,0.01,25.0,3.6599998,0.0,64,0,1,25
326787802,0.01,25.0,3.6799998,0.0,4,0,1,25
326819758,0.01,25.0,3.6899998,0.0,64,0,1,25
326851795,0.01,25.0,3.6999998,0.0,64,0,1,25
326883801,0.01,25.0,3.6799998,0.0,64,0,1,25
326915767,0.01,25.0,3.6999998,0.0,64,0,1,25
326947846,0.01,25.0,3.7099998,0.0,4,0,1,25
326979485,0.01,25.0,3.6899998,0.0,1,0,1,25
327011806,0.01,25.0,3.6899998,0.0,0,0,1,25
327043741,0.01,25.0,3.6699998,0.0,64,0,1,25
327075743,0.01,25.0,3.6599998,0.0,64,0,1,25
327107118,0.01,25.0,3.6399999,0.0,4,0,1,25
327138164,0.01,25.0,3.6499999,0.0,4,0,1,25
327170125,0.01,25.0,3.6399999,0.0,4,0,1,25
327202186,0.01,25.0,3.6299999,0.0,4,0,1,25
327234345,0.01,25.0,3.6,0.0,4,0,1,25
327266133,0.01,25.0,3.57,0.0,4,0,1,25
327298223,0.01,25.0,3.56,0.0,4,0,1,25
327330159,0.01,25.0,3.54,0.0,4,0,1,25
327362209,0.01,25.0,3.52,0.0,4,0,1,25
327393527,0.01,25.0,3.48,0.0,4,0,1,25
327426019,0.01,25.0,3.4299998,0.0,4,0,1,25
327457451,0.01,25.0,3.3799999,0.0,4,0,1,25
327489393,0.01,25.0,3.34,0.0,4,0,1,25
327521401,0.01,25.0,3.33,0.0,4,0,1,25
327553748,0.01,25.0,3.32,0.0,64,0,1,25
327585994,0.01,25.0,3.26,0.0,0,0,1,25
327617996,0.01,25.0,3.22,0.0,64,0,1,25
327649454,0.01,25.0,3.1999998,0.0,4,0,1,25
327681930,0.01,25.0,3.1699998,0.0,4,0,1,25
327714244,0.01,25.0,3.1299999,0.0,4,0,1,25
327746207,0.01,25.0,3.08,0.0,4,0,1,25
327779091,0.01,25.0,3.04,0.0,4,0,1,25
327811373,0.01,25.0,3.0,0.0,4,0,1,25
327843349,0.01,25.0,2.96,0.0,4,0,1,25
327875547,0.01,25.0,2.8999999,0.0,4,0,1,25
327907647,0.01,25.0,2.8899999,0.0,4,0,1,25
327939337,0.01,25.0,2.86,0.0,4,0,1,25
327971571,0.01,25.0,2.8,0.0,0,0,1,25
328003376,0.01,25.0,2.79,0.0,4,0,1,25
328035390,0.01,25.0,2.71,0.0,4,0,1,25
328067319,0.01,25.0,2.71,0.0,4,0,1,25
328099338,0.01,25.0,2.54,0.0,4,0,1,25
328131365,0.01,25.0,2.58,0.0,4,0,1,25
328163397,0.01,25.0,2.62,0.0,4,0,1,25
328195364,0.01,25.0,2.59,0.0,4,0,1,25
328227345,0.01,25.0,2.56,0.0,4,0,1,25
328259431,0.01,25.0,2.53,0.0,4,0,1,25
328291433,0.01,25.0,2.52,0.0,4,0,1,25
328323321,0.01,25.0,2.49,0.0,4,0,1,25
328355314,0.01,25.0,2.46,0.0,4,0,1,25
328387351,0.01,25.0,2.46,0.0,4,0,1,25
328419353,0.01,25.0,2.4099998,0.0,4,0,1,25
328451315,0.01,25.0,2.4199998,0.0,4,0,1,25
328483380,0.01,25.0,2.3999999,0.0,4,0,1,25
328515138,0.01,25.0,2.3999999,0.0,4,0,1,25
328548598,0.01,25.0,2.3999999,0.0,64,0,1,25
328580764,0.01,25.0,2.3799999,0.0,64,0,1,25
328612480,0.01,25.0,2.3799999,0.0,4,0,1,25
328644757,0.01,25.0,2.3899999,0.0,64,0,1,25
328676948,0.01,25.0,2.3799999,0.0,64,0,1,25
328708461,0.01,25.0,2.3799999,0.0,64,0,1,25
328740888,0.01,25.0,2.37,0.0,64,0,1,25
328772902,0.01,25.0,2.3799999,0.0,64,0,1,25
328804891,0.01,25.0,2.36,0.0,64,0,1,25
328836774,0.01,25.0,2.37,0.0,64,0,1,25
328868724,0.01,25.0,2.3899999,0.0,4,0,1,25
328900912,0.01,25.0,2.3899999,0.0,64,0,1,25
328932518,0.01,25.0,2.3999999,0.0,64,0,1,25
328964742,0.01,25.0,2.4199998,0.0,64,0,1,25
328996319,0.01,25.0,2.4099998,0.0,64,0,1,25
329028540,0.01,25.0,2.4299998,0.0,64,0,1,25
329060594,0.01,25.0,2.46,0.0,4,0,1,25
329092989,0.01,25.0,2.47,0.0,64,0,1,25
329124421,0.01,25.0,2.49,0.0,0,0,1,25
329156929,0.01,25.0,2.52,0.0,0,0,1,25
329188687,0.01,25.0,2.53,0.0,4,0,1,25
329219818,0.01,25.0,2.56,0.0,4,0,1,25
329251715,0.01,25.0,2.6,0.0,4,0,1,25
329283770,0.01,25.0,2.61,0.0,4,0,1,25
329315734,0.01,25.0,2.61,0.0,4,0,1,25
329348176,0.01,25.0,2.6599998,0.0,4,0,1,25
329380165,0.01,25.0,2.69,0.0,4,0,1,25
329413549,0.01,25.0,2.71,0.0,4,0,1,25
329445930,0.01,25.0,2.7,0.0,64,0,1,25
329478246,0.01,25.0,2.76,0.0,64,0,1,25
329509797,0.01,25.0,2.79,0.0,4,0,1,25
329540752,0.01,25.0,2.83,0.0,4,0,1,25
329573563,0.01,25.0,2.87,0.0,4,0,1,25
329605769,0.01,25.0,2.9099998,0.0,4,0,1,25
329638108,0.01,25.0,2.9199998,0.0,4,0,1,25
329670113,0.01,25.0,2.97,0.0,4,0,1,25
329700771,0.01,25.0,3.0,0.0,4,0,1,25
329732613,0.01,25.0,3.05,0.0,4,0,1,25
329763833,0.01,25.0,3.09,0.0,4,0,1,25
329796178,0.01,25.0,3.1399999,0.0,4,0,1,25
329827977,0.01,25.0,3.1699998,0.0,4,0,1,25
329860399,0.01,25.0,3.22,0.0,4,0,1,25
329892623,0.01,25.0,3.25,0.0,4,0,1,25
329924595,0.01,25.0,3.29,0.0,4,0,1,25
329956320,0.01,25.0,3.32,0.0,4,0,1,25
329988919,0.01,25.0,3.3799999,0.0,4,0,1,25
330020743,0.01,25.0,3.4199998,0.0,4,0,1,25
330052767,0.01,25.0,3.46,0.0,4,0,1,25
330084743,0.01,25.0,3.51,0.0,4,0,1,25
330116913,0.01,25.0,3.54,0.0,4,0,1,25
330148554,0.01,25.0,3.55,0.0,4,0,1,25
330180915,0.01,25.0,3.6,0.0,4,0,1,25
330212731,0.01,25.0,3.6599998,0.0,4,0,1,25
330244350,0.01,25.0,3.6999998,0.0,4,0,1,25
330276739,0.01,25.0,3.72,0.0,4,0,1,25
330308382,0.01,25.0,3.74,0.0,4,0,1,25
330340469,0.01,25.0,3.75,0.0,4,0,1,25
330372536,0.01,25.0,3.76,0.0,4,0,1,25
330404708,0.01,25.0,3.78,0.0,4,0,1,25
330436268,0.01,25.0,3.81,0.0,4,0,1,25
330468568,0.01,25.0,3.83,0.0,4,0,1,25
330500708,0.01,25.0,3.83,0.0,4,0,1,25
330532950,0.01,25.0,3.84,0.0,4,0,1,25
330564769,0.01,25.0,3.86,0.0,4,0,1,25
330597148,0.01,25.0,3.83,0.0,4,0,1,25
330628950,0.01,25.0,3.86,0.0,4,0,1,25
330660954,0.01,25.0,3.87,0.0,4,0,1,25
330692743,0.01,25.0,3.85,0.0,4,0,1,25
330725338,0.01,25.0,3.86,0.0,4,0,1,25
330757459,0.01,25.0,3.86,0.0,4,0,1,25
330790329,0.01,25.0,3.86,0.0,4,0,1,25
330822724,0.01,25.0,3.85,0.0,4,0,1,25
330854517,0.01,25.0,3.84,0.0,4,0,1,25
330886333,0.01,25.0,3.83,0.0,4,0,1,25
330918578,0.01,25.0,3.81,0.0,4,0,1,25
330950548,0.01,25.0,3.8,0.0,4,0,1,25
330981889,0.01,25.0,3.82,0.0,4,0,1,25
331014134,0.01,25.0,3.78,0.0,4,0,1,25
331045893,0.01,25.0,3.76,0.0,4,0,1,25
331078710,0.01,25.0,3.75,0.0,4,0,1,25
331110222,0.01,25.0,3.72,0.0,4,0,1,25
331142536,0.01,25.0,3.6999998,0.0,4,0,1,25
331174716,0.01,25.0,3.6599998,0.0,4,0,1,25
331208250,0.01,25.0,3.6399999,0.0,4,0,1,25
331240565,0.01,25.0,3.6399999,0.0,4,0,1,25
331272674,0.01,25.0,3.61,0.0,4,0,1,25
331304572,0.01,25.0,3.57,0.0,4,0,1,25
331336763,0.01,25.0,3.53,0.0,4,0,1,25
331369333,0.01,25.0,3.48,0.0,4,0,1,25
331401309,0.01,25.0,3.4499998,0.0,4,0,1,25
331433459,0.01,25.0,3.3799999,0.0,4,0,1,25
331465338,0.01,25.0,3.35,0.0,4,0,1,25
331497374,0.01,25.0,3.32,0.0,4,0,1,25
331529352,0.01,25.0,3.26,0.0,4,0,1,25
331560752,0.01,25.0,3.1899998,0.0,4,0,1,25
331592958,0.01,25.0,3.1599998,0.0,4,0,1,25
331624913,0.01,25.0,3.12,0.0,4,0,1,25
331657354,0.01,25.0,3.06,0.0,4,0,1,25
331690939,0.01,25.0,3.02,0.0,4,0,1,25
331723135,0.01,25.0,2.99,0.0,64,0,1,25
331754856,0.01,25.0,2.9399998,0.0,64,0,1,25
331787329,0.01,25.0,2.8799999,0.0,64,0,1,25
331818992,0.01,25.0,2.83,0.0,4,0,1,25
331850870,0.01,25.0,2.78,0.0,64,0,1,25
331883320,0.01,25.0,2.76,0.0,64,0,1,25
331914806,0.01,25.0,2.71,0.0,4,0,1,25
331946879,0.01,25.0,2.6799998,0.0,64,0,1,25
331978670,0.01,25.0,2.6499999,0.0,64,0,1,25
332010553,0.01,25.0,2.6,0.0,64,0,1,25
332042871,0.01,25.0,2.56,0.0,64,0,1,25
332074859,0.01,25.0,2.52,0.0,0,0,1,25
332106820,0.01,25.0,2.49,0.0,64,0,1,25
332139104,0.01,25.0,2.48,0.0,4,0,1,25
332170860,0.01,25.0,2.44,0.0,64,0,1,25
332202610,0.01,25.0,2.4099998,0.0,64,0,1,25
332234879,0.01,25.0,2.3899999,0.0,64,0,1,25
332266548,0.01,25.0,2.35,0.0,64,0,1,25
332298738,0.01,25.0,2.33,0.0,64,0,1,25
332331096,0.01,25.0,2.31,0.0,4,0,1,25
332362901,0.01,25.0,2.28,0.0,64,0,1,25
332395358,0.01,25.0,2.25,0.0,64,0,1,25
332428967,0.01,25.0,2.23,0.0,64,0,1,25
332460200,0.01,25.0,2.22,0.0,0,0,1,25
332492165,0.01,25.0,2.21,0.0,64,0,1,25
332524959,0.01,25.0,2.1699998,0.0,112,0,1,25
332556746,0.01,25.0,2.1499999,0.0,64,0,1,25
332589209,0.01,25.0,2.1399999,0.0,0,0,1,25
332620903,0.01,25.0,2.1299999,0.0,52,0,1,25
332652691,0.01,25.0,1.9699999,0.0,64,0,1,25
332684723,0.01,25.0,2.01,0.0,64,0,1,25
332716940,0.01,25.0,2.1299999,0.0,64,0,1,25
332748153,0.01,25.0,2.08,0.0,64,0,1,25
332780361,0.01,25.0,2.02,0.0,64,0,1,25
332812762,0.01,25.0,2.01,0.0,64,0,1,25
332844749,0.01,25.0,1.99,0.0,64,0,1,25
332876749,0.01,25.0,2.0,0.0,64,0,1,25
332908961,0.01,25.0,1.9799999,0.0,64,0,1,25
332940761,0.01,25.0,1.99,0.0,64,0,1,25
332972185,0.01,25.0,1.9699999,0.0,0,0,1,25
333004946,0.01,25.0,1.9399999,0.0,64,0,1,25
333036659,0.01,25.0,1.9499999,0.0,64,0,1,25
333068326,0.01,25.0,1.9399999,0.0,64,0,1,25
333100745,0.01,25.0,1.92,0.0,64,0,1,25
333133160,0.01,25.0,1.9399999,0.0,64,0,1,25
333165548,0.01,25.0,1.89,0.0,64,0,1,25
333197352,0.01,25.0,1.93,0.0,64,0,1,25
333229912,0.01,25.0,1.89,0.0,-72,0,1,25
333261741,0.01,25.0,1.86,0.0,64,0,1,25
333293602,0.01,25.0,1.87,0.0,4,0,1,25
333325774,0.01,25.0,1.86,0.0,0,0,1,25
333356954,0.01,25.0,1.8299999,0.0,64,0,1,25
333390538,0.01,25.0,1.8,0.0,4,0,1,25
333422897,0.01,25.0,1.8199999,0.0,64,0,1,25
333454848,0.01,25.0,1.8,0.0,64,0,1,25
333486172,0.01,25.0,1.78,0.0,4,0,1,25
333517927,0.01,25.0,1.76,0.0,64,0,1,25
333548971,0.01,25.0,1.73,0.0,64,0,1,25
333582138,0.01,25.0,1.73,0.0,64,0,1,25
333613742,0.01,25.0,1.7099999,0.0,64,0,1,25
333645348,0.01,25.0,1.68,0.0,64,0,1,25
333677437,0.01,25.0,1.6999999,0.0,64,0,1,25
333709750,0.01,25.0,1.6899999,0.0,64,0,1,25
333741747,0.01,25.0,1.66,0.0,0,0,1,25
333773468,0.01,25.0,1.64,0.0,4,0,1,25
333804956,0.01,25.0,1.63,0.0,0,0,1,25
333836951,0.01,25.0,1.5999999,0.0,64,0,1,25
333869377,0.01,25.0,1.5899999,0.0,4,0,1,25
333901938,0.01,25.0,1.5899999,0.0,64,0,1,25
333932745,0.01,25.0,1.5799999,0.0,64,0,1,25
333965158,0.01,25.0,1.56,0.0,64,0,1,25
333997468,0.01,25.0,1.52,0.0,64,0,1,25
334029114,0.01,25.0,1.51,0.0,64,0,1,25
334062173,0.01,25.0,1.52,0.0,64,0,1,25
334093833,0.01,25.0,1.4699999,0.0,64,0,1,25
334125983,0.01,25.0,1.48,0.0,64,0,1,25
334158145,0.01,25.0,1.42,0.0,64,0,1,25
334189925,0.01,25.0,1.41,0.0,64,0,1,25
334221980,0.01,25.0,1.43,0.0,0,0,1,25
334254110,0.01,25.0,1.41,0.0,64,0,1,25
334284777,0.01,25.0,1.4,0.0,64,0,1,25
334316758,0.01,25.0,1.38,0.0,64,0,1,25
334347801,0.01,25.0,1.39,0.0,64,0,1,25
334379036,0.01,25.0,1.36,0.0,64,0,1,25
334410827,0.01,25.0,1.35,0.0,64,0,1,25
334442866,0.01,25.0,1.3199999,0.0,64,0,1,25
334475110,0.01,25.0,1.3299999,0.0,64,0,1,25
334506853,0.01,25.0,1.3199999,0.0,64,0,1,25
334538843,0.01,25.0,1.31,0.0,64,0,1,25
334571387,0.01,25.0,1.3,0.0,64,0,1,25
334603577,0.01,25.0,1.29,0.0,4,0,1,25
334635743,0.01,25.0,1.29,0.0,64,0,1,25
334667804,0.01,25.0,1.23,0.0,64,0,1,25
334699882,0.01,25.0,1.26,0.0,4,0,1,25
334731763,0.01,25.0,1.25,0.0,64,0,1,25
334763346,0.01,25.0,1.22,0.0,4,0,1,25
334795345,0.01,25.0,1.22,0.0,64,0,1,25
334827915,0.01,25.0,1.1999999,0.0,0,0,1,25
334860229,0.01,25.0,1.2099999,0.0,64,0,1,25
334892325,0.01,25.0,1.18,0.0,64,0,1,25
334924157,0.01,25.0,1.1899999,0.0,64,0,1,25
334956615,0.01,25.0,1.18,0.0,64,0,1,25
334989015,0.01,25.0,1.17,0.0,64,0,1,25
335019960,0.01,25.0,1.17,0.0,64,0,1,25
335052946,0.01,25.0,1.15,0.0,0,0,1,25
335084757,0.01,25.0,1.14,0.0,64,0,1,25
335116111,0.01,25.0,1.16,0.0,64,0,1,25
335149204,0.01,25.0,1.14,0.0,64,0,1,25
335180764,0.01,25.0,1.12,0.0,64,0,1,25
335212590,0.01,25.0,1.12,0.0,64,0,1,25
335244767,0.01,25.0,1.1,0.0,0,0,1,25
335276744,0.01,25.0,1.1,0.0,64,0,1,25
335309108,0.01,25.0,1.0799999,0.0,64,0,1,25
335340213,0.01,25.0,1.1,0.0,64,0,1,25
335372178,0.01,25.0,1.12,0.0,64,0,1,25
335404229,0.01,25.0,1.11,0.0,64,0,1,25
335437114,0.01,25.0,1.09,0.0,0,0,1,25
335468180,0.01,25.0,1.1,0.0,64,0,1,25
335500582,0.01,25.0,1.11,0.0,64,0,1,25
335532745,0.01,25.0,1.1,0.0,64,0,1,25
335565113,0.01,25.0,1.11,0.0,64,0,1,25
335597113,0.01,25.0,1.1,0.0,64,0,1,25
335629144,0.01,25.0,1.0799999,0.0,0,0,1,25
335661151,0.01,25.0,1.0699999,0.0,64,0,1,25
335693027,0.01,25.0,1.12,0.0,64,0,1,25
335725326,0.01,25.0,1.13,0.0,0,0,1,25
335757154,0.01,25.0,1.14,0.0,64,0,1,25
335787820,0.01,25.0,1.14,0.0,4,0,1,25
335819753,0.01,25.0,1.16,0.0,64,0,1,25
335851742,0.01,25.0,1.17,0.0,64,0,1,25
335882904,0.01,25.0,1.14,0.0,4,0,1,25
335914881,0.01,25.0,1.14,0.0,64,0,1,25
335946840,0.01,25.0,1.1999999,0.0,64,0,1,25
335978924,0.01,25.0,1.22,0.0,4,0,1,25
336010873,0.01,25.0,1.24,0.0,64,0,1,25
336042135,0.01,25.0,1.25,0.0,4,0,1,25
336074329,0.01,25.0,1.29,0.0,64,0,1,25
336106885,0.01,25.0,1.29,0.0,0,0,1,25
336138293,0.01,25.0,1.31,0.0,0,0,1,25
336170878,0.01,25.0,1.3399999,0.0,64,0,1,25
336202849,0.01,25.0,1.36,0.0,64,0,1,25
336234213,0.01,25.0,1.38,0.0,4,0,1,25
336265979,0.01,25.0,1.4,0.0,64,0,1,25
336299133,0.01,25.0,1.4399999,0.0,64,0,1,25
336332112,0.01,25.0,1.4699999,0.0,64,0,1,25
336363770,0.01,25.0,1.48,0.0,64,0,1,25
336395742,0.01,25.0,1.53,0.0,64,0,1,25
336427377,0.01,25.0,1.55,0.0,4,0,1,25
336459550,0.01,25.0,1.5799999,0.0,64,0,1,25
336491819,0.01,25.0,1.62,0.0,64,0,1,25
336523366,0.01,25.0,1.67,0.0,4,0,1,25
336555750,0.01,25.0,1.6999999,0.0,64,0,1,25
336587819,0.01,25.0,1.74,0.0,64,0,1,25
336620411,0.01,25.0,1.76,0.0,4,0,1,25
336651742,0.01,25.0,1.8,0.0,64,0,1,25
336683774,0.01,25.0,1.8399999,0.0,64,0,1,25
336715715,0.01,25.0,1.88,0.0,64,0,1,25
336747857,0.01,25.0,1.91,0.0,-72,0,1,25
336779742,0.01,25.0,1.9599999,0.0,64,0,1,25
336811357,0.01,25.0,1.99,0.0,64,0,1,25
336844188,0.01,25.0,2.03,0.0,64,0,1,25
336875756,0.01,25.0,2.03,0.0,64,0,1,25
336907856,0.01,25.0,2.04,0.0,64,0,1,25
336939809,0.01,25.0,2.06,0.0,64,0,1,25
336971335,0.01,25.0,2.1599998,0.0,4,0,1,25
337004118,0.01,25.0,2.18,0.0,64,0,1,25
337037162,0.01,25.0,2.21,0.0,64,0,1,25
337070022,0.01,25.0,2.22,0.0,0,0,1,25
337101191,0.01,25.0,2.25,0.0,64,0,1,25
337132913,0.01,25.0,2.26,0.0,64,0,1,25
337165542,0.01,25.0,2.25,0.0,64,0,1,25
337197962,0.01,25.0,2.28,0.0,64,0,1,25
337229761,0.01,25.0,2.29,0.0,64,0,1,25
337260889,0.01,25.0,2.31,0.0,64,0,1,25
337293729,0.01,25.0,2.3,0.0,64,0,1,25
337325754,0.01,25.0,2.28,0.0,64,0,1,25
337356938,0.01,25.0,2.31,0.0,64,0,1,25
337390103,0.01,25.0,2.3,0.0,0,0,1,25
337421751,0.01,25.0,2.29,0.0,64,0,1,25
337453971,0.01,25.0,2.29,0.0,-72,0,1,25
337485768,0.01,25.0,2.29,0.0,64,0,1,25
337518021,0.01,25.0,2.24,0.0,0,0,1,25
337549749,0.01,25.0,2.22,0.0,64,0,1,25
337581990,0.01,25.0,2.19,0.0,4,0,1,25
337612949,0.01,25.0,2.22,0.0,64,0,1,25
337645466,0.01,25.0,2.18,0.0,64,0,1,25
337677133,0.01,25.0,2.1699998,0.0,4,0,1,25
337708987,0.01,25.0,2.2,0.0,64,0,1,25
337739764,0.01,25.0,2.1599998,0.0,64,0,1,25
337771797,0.01,25.0,2.11,0.0,64,0,1,25
337802846,0.01,25.0,2.1,0.0,0,0,1,25
337834888,0.01,25.0,2.07,0.0,0,0,1,25
337866839,0.01,25.0,2.03,0.0,0,0,1,25
337898880,0.01,25.0,2.0,0.0,64,0,1,25
337930852,0.01,25.0,1.9699999,0.0,64,0,1,25
337962195,0.01,25.0,1.9499999,0.0,64,0,1,25
337993939,0.01,25.0,1.91,0.0,64,0,1,25
338026140,0.01,25.0,1.87,0.0,0,0,1,25
338056745,0.01,25.0,1.8299999,0.0,0,0,1,25
338087845,0.01,25.0,1.77,0.0,64,0,1,25
338118848,0.01,25.0,1.73,0.0,0,0,1,25
338150964,0.01,25.0,1.6999999,0.0,64,0,1,25
338183137,0.01,25.0,1.67,0.0,64,0,1,25
338215777,0.01,25.0,1.65,0.0,64,0,1,25
338247802,0.01,25.0,1.63,0.0,64,0,1,25
338279751,0.01,25.0,1.5799999,0.0,64,0,1,25
338311781,0.01,25.0,1.56,0.0,0,0,1,25
338343760,0.01,25.0,1.55,0.0,64,0,1,25
338375002,0.01,25.0,1.54,0.0,4,0,1,25
338407053,0.01,25.0,1.53,0.0,64,0,1,25
338438939,0.01,25.0,1.53,0.0,0,0,1,25
338471522,0.01,25.0,1.54,0.0,64,0,1,25
338503881,0.01,25.0,1.52,0.0,64,0,1,25
338535760,0.01,25.0,1.48,0.0,64,0,1,25
338567766,0.01,25.0,1.53,0.0,0,0,1,25
338599797,0.01,25.0,1.53,0.0,0,0,1,25
338631762,0.01,25.0,1.55,0.0,64,0,1,25
338663540,0.01,25.0,1.5699999,0.0,64,0,1,25
338695797,0.01,25.0,1.5999999,0.0,64,0,1,25
338727805,0.01,25.0,1.62,0.0,64,0,1,25
338759672,0.01,25.0,1.5999999,0.0,64,0,1,25
338791649,0.01,25.0,1.65,0.0,64,0,1,25
338823555,0.01,25.0,1.68,0.0,0,0,1,25
338855762,0.01,25.0,1.7099999,0.0,64,0,1,25
338887840,0.01,25.0,1.76,0.0,64,0,1,25
338919816,0.01,25.0,1.74,0.0,64,0,1,25
338951745,0.01,25.0,1.8,0.0,64,0,1,25
338983535,0.01,25.0,1.81,0.0,64,0,1,25
339015506,0.01,25.0,1.8499999,0.0,4,0,1,25
339047919,0.01,25.0,1.88,0.0,0,0,1,25
339079554,0.01,25.0,1.92,0.0,0,0,1,25
339111772,0.01,25.0,1.9399999,0.0,64,0,1,25
339143741,0.01,25.0,1.99,0.0,64,0,1,25
339177254,0.01,25.0,2.03,0.0,64,0,1,25
339210854,0.01,25.0,2.05,0.0,0,0,1,25
339242843,0.01,25.0,2.09,0.0,64,0,1,25
339274284,0.01,25.0,2.1299999,0.0,64,0,1,25
339306815,0.01,25.0,2.1699998,0.0,0,0,1,25
339338819,0.01,25.0,2.19,0.0,64,0,1,25
339369932,0.01,25.0,2.25,0.0,64,0,1,25
339401781,0.01,25.0,2.3,0.0,64,0,1,25
339434512,0.01,25.0,2.32,0.0,64,0,1,25
339466560,0.01,25.0,2.36,0.0,-72,0,1,25
339497981,0.01,25.0,2.3899999,0.0,64,0,1,25
339529968,0.01,25.0,2.4099998,0.0,0,0,1,25
339562325,0.01,25.0,2.46,0.0,64,0,1,25
339594834,0.01,25.0,2.48,0.0,64,0,1,25
339626838,0.01,25.0,2.53,0.0,0,0,1,25
339659060,0.01,25.0,2.54,0.0,4,0,1,25
339690857,0.01,25.0,2.56,0.0,0,0,1,25
339722223,0.01,25.0,2.57,0.0,4,0,1,25
339754557,0.01,25.0,2.59,0.0,64,0,1,25
339786877,0.01,25.0,2.61,0.0,64,0,1,25
339818756,0.01,25.0,2.61,0.0,64,0,1,25
339850884,0.01,25.0,2.6399999,0.0,0,0,1,25
339882848,0.01,25.0,2.6399999,0.0,64,0,1,25
339914568,0.01,25.0,2.6399999,0.0,64,0,1,25
339946892,0.01,25.0,2.6499999,0.0,64,0,1,25
339979341,0.01,25.0,2.6399999,0.0,64,0,1,25
340011091,0.01,25.0,2.6599998,0.0,4,0,1,25
340043081,0.01,25.0,2.6399999,0.0,4,0,1,25
340074954,0.01,25.0,2.6299999,0.0,64,0,1,25
340106543,0.01,25.0,2.6499999,0.0,64,0,1,25
340138941,0.01,25.0,2.6299999,0.0,64,0,1,25
340170910,0.01,25.0,2.62,0.0,-116,0,1,25
340202969,0.01,25.0,2.59,0.0,0,0,1,25
340234867,0.01,25.0,2.6,0.0,0,0,1,25
340267319,0.01,25.0,2.59,0.0,64,0,1,25
340299767,0.01,25.0,2.57,0.0,64,0,1,25
340330874,0.01,25.0,2.56,0.0,0,0,1,25
340363116,0.01,25.0,2.53,0.0,64,0,1,25
340394931,0.01,25.0,2.5,0.0,64,0,1,25
340426818,0.01,25.0,2.46,0.0,64,0,1,25
340459384,0.01,25.0,2.4299998,0.0,64,0,1,25
340491745,0.01,25.0,2.4299998,0.0,64,0,1,25
340523372,0.01,25.0,2.3799999,0.0,4,0,1,25
340555752,0.01,25.0,2.33,0.0,64,0,1,25
340587802,0.01,25.0,2.34,0.0,64,0,1,25
340618881,0.01,25.0,2.29,0.0,64,0,1,25
340650844,0.01,25.0,2.25,0.0,0,0,1,25
340683823,0.01,25.0,2.21,0.0,4,0,1,25
340715773,0.01,25.0,2.18,0.0,0,0,1,25
340747819,0.01,25.0,2.1399999,0.0,0,0,1,25
340779544,0.01,25.0,2.12,0.0,0,0,1,25
340811184,0.01,25.0,2.08,0.0,64,0,1,25
340843742,0.01,25.0,2.07,0.0,64,0,1,25
340876714,0.01,25.0,2.03,0.0,0,0,1,25
340908768,0.01,25.0,1.9799999,0.0,64,0,1,25
340940145,0.01,25.0,1.9499999,0.0,64,0,1,25
340972945,0.01,25.0,1.92,0.0,64,0,1,25
341004770,0.01,25.0,1.87,0.0,64,0,1,25
341036747,0.01,25.0,1.8399999,0.0,4,0,1,25
341068884,0.01,25.0,1.8399999,0.0,64,0,1,25
341100115,0.01,25.0,1.79,0.0,64,0,1,25
341133462,0.01,25.0,1.77,0.0,64,0,1,25
341164746,0.01,25.0,1.73,0.0,64,0,1,25
341196752,0.01,25.0,1.75,0.0,64,0,1,25
341228477,0.01,25.0,1.75,0.0,0,0,1,25
341260553,0.01,25.0,1.73,0.0,64,0,1,25
341292119,0.01,25.0,1.73,0.0,64,0,1,25
341324302,0.01,25.0,1.7099999,0.0,64,0,1,25
341356145,0.01,25.0,1.7199999,0.0,64,0,1,25
341388510,0.01,25.0,1.6999999,0.0,4,0,1,25
341420753,0.01,25.0,1.6899999,0.0,0,0,1,25
341452954,0.01,25.0,1.6999999,0.0,64,0,1,25
341484524,0.01,25.0,1.68,0.0,64,0,1,25
341515981,0.01,25.0,1.68,0.0,64,0,1,25
341548191,0.01,25.0,1.7099999,0.0,64,0,1,25
341580212,0.01,25.0,1.6899999,0.0,64,0,1,25
341611789,0.01,25.0,1.68,0.0,64,0,1,25
341643132,0.01,25.0,1.68,0.0,4,0,1,25
341674828,0.01,25.0,1.67,0.0,64,0,1,25
341706893,0.01,25.0,1.64,0.0,64,0,1,25
341738046,0.01,25.0,1.67,0.0,64,0,1,25
341770574,0.01,25.0,1.68,0.0,64,0,1,25
341802815,0.01,25.0,1.68,0.0,0,0,1,25
341834877,0.01,25.0,1.65,0.0,64,0,1,25
341866850,0.01,25.0,1.5999999,0.0,64,0,1,25
341897925,0.01,25.0,1.61,0.0,64,0,1,25
341929897,0.01,25.0,1.54,0.0,0,0,1,25
341961756,0.01,25.0,1.5999999,0.0,64,0,1,25
341995080,0.01,25.0,1.5899999,0.0,0,0,1,25
342026102,0.01,25.0,1.56,0.0,4,0,1,25
342057899,0.01,25.0,1.4699999,0.0,64,0,1,25
342090208,0.01,25.0,1.4599999,0.0,64,0,1,25
342121574,0.01,25.0,1.42,0.0,64,0,1,25
342154130,0.01,25.0,1.39,0.0,0,0,1,25
342185759,0.01,25.0,1.37,0.0,64,0,1,25
342217955,0.01,25.0,1.3199999,0.0,0,0,1,25
342249806,0.01,25.0,1.3,0.0,64,0,1,25
342281786,0.01,25.0,1.28,0.0,-72,0,1,25
342315730,0.01,25.0,1.23,0.0,64,0,1,25
342347826,0.01,25.0,1.17,0.0,0,0,1,25
342379841,0.01,25.0,1.13,0.0,64,0,1,25
342411743,0.01,25.0,1.04,0.0,64,0,1,25
342444148,0.01,25.0,1.04,0.0,4,0,1,25
342475792,0.01,25.0,1.0,0.0,64,0,1,25
342508385,0.01,25.0,0.96,0.0,64,0,1,25
342540764,0.01,25.0,0.90999997,0.0,64,0,1,25
342571760,0.01,25.0,0.84,0.0,64,0,1,25
342604147,0.01,25.0,0.76,0.0,64,0,1,25
342635742,0.01,25.0,0.72999996,0.0,64,0,1,25
342668154,0.01,25.0,0.66999996,0.0,0,0,1,25
342699742,0.01,25.0,0.57,0.0,64,0,1,25
342731827,0.01,25.0,0.58,0.0,64,0,1,25
342763796,0.01,25.0,0.48,0.0,0,0,1,25
342795843,0.01,25.0,0.44,0.0,64,0,1,25
342827838,0.01,25.0,0.38,0.0,64,0,1,25
342859905,0.01,25.0,0.29,0.0,64,0,1,25
342891521,0.01,25.0,0.26999998,0.0,4,0,1,25
342923515,0.01,25.0,0.19,0.0,64,0,1,25
342955855,0.01,25.0,0.01,0.0,64,0,1,25
342987148,0.01,25.0,0.0,0.0,4,0,1,25
343019521,0.01,25.0,0.0,0.0,64,0,1,25
343052935,0.01,25.0,0.0,0.0,64,0,1,25
343085419,0.01,25.0,0.0,0.0,64,0,1,25
343117447,0.01,25.0,0.03,0.0,4,0,1,25
343148980,0.01,25.0,0.06,0.0,64,0,1,25
343182115,0.01,25.0,0.099999994,0.0,64,0,1,25
343213934,0.01,25.0,0.16,0.0,64,0,1,25
343245769,0.01,25.0,0.17999999,0.0,64,0,1,25
343276956,0.01,25.0,0.24,0.0,64,0,1,25
343309920,0.01,25.0,0.26,0.0,64,0,1,25
343340921,0.01,25.0,0.32,0.0,64,0,1,25
343373140,0.01,25.0,0.35999998,0.0,64,0,1,25
343406273,0.01,25.0,0.38,0.0,64,0,1,25
343438242,0.01,25.0,0.42999998,0.0,4,0,1,25
343469755,0.01,25.0,0.48,0.0,64,0,1,25
343500975,0.01,25.0,0.52,0.0,64,0,1,25
343533780,0.01,25.0,0.48999998,0.0,64,0,1,25
343565772,0.01,25.0,0.53,0.0,64,0,1,25
343597944,0.01,25.0,0.55,0.0,0,0,1,25
343629446,0.01,25.0,0.57,0.0,4,0,1,25
343661960,0.01,25.0,0.58,0.0,64,0,1,25
343693370,0.01,25.0,0.57,0.0,64,0,1,25
343725763,0.01,25.0,0.62,0.0,64,0,1,25
343758547,0.01,25.0,0.59999996,0.0,64,0,1,25
343790877,0.01,25.0,0.56,0.0,112,0,1,25
343823339,0.01,25.0,0.56,0.0,0,0,1,25
343855812,0.01,25.0,0.53999996,0.0,64,0,1,25
343887843,0.01,25.0,0.52,0.0,64,0,1,25
343918913,0.01,25.0,0.51,0.0,64,0,1,25
343951528,0.01,25.0,0.45999998,0.0,64,0,1,25
343983773,0.01,25.0,0.41,0.0,64,0,1,25
344015533,0.01,25.0,0.39,0.0,64,0,1,25
344047857,0.01,25.0,0.29999998,0.0,64,0,1,25
344078844,0.01,25.0,0.26,0.0,64,0,1,25
344111339,0.01,25.0,0.19999999,0.0,64,0,1,25
344143742,0.01,25.0,0.099999994,0.0,64,0,1,25
344174803,0.01,25.0,0.01,0.0,64,0,1,25
344207415,0.01,25.0,0.0,0.0,64,0,1,25
344239348,0.01,25.0,0.0,0.0,0,0,1,25
344271775,0.01,25.0,0.0,0.0,0,0,1,25
344303771,0.01,25.0,0.01,0.0,64,0,1,25
344335751,0.01,25.0,0.12,0.0,64,0,1,25
344367801,0.01,25.0,0.07,0.0,64,0,1,25
344399320,0.01,25.0,0.07,0.0,4,0,1,25
344431803,0.01,25.0,0.14,0.0,64,0,1,25
344463781,0.01,25.0,0.14999999,0.0,52,0,1,25
344494854,0.01,25.0,0.12,0.0,-116,0,1,25
344526946,0.01,25.0,0.12,0.0,0,0,1,25
344558866,0.01,25.0,0.07,0.0,64,0,1,25
344590992,0.01,25.0,0.02,0.0,0,0,1,25
344622885,0.01,25.0,0.0,0.0,0,0,1,25
344654943,0.01,25.0,0.0,0.0,0,0,1,25
344686880,0.01,25.0,0.0,0.0,64,0,1,25
344718651,0.01,25.0,0.0,0.0,0,0,1,25
344750923,0.01,25.0,0.01,0.0,0,0,1,25
344782839,0.01,25.0,0.0,0.0,64,0,1,25
344814347,0.01,25.0,0.0,0.0,64,0,1,25
344846342,0.01,25.0,0.01,0.0,64,0,1,25
344880190,0.01,25.0,0.0,0.0,64,0,1,25
344911793,0.01,25.0,0.0,0.0,64,0,1,25
344942913,0.01,25.0,0.0,0.0,0,0,1,25
344975007,0.01,25.0,0.0,0.0,0,0,1,25
345006860,0.01,25.0,0.0,0.0,64,0,1,25
345038568,0.01,25.0,0.0,0.0,64,0,1,25
345070846,0.01,25.0,0.0,0.0,0,0,1,25
345102311,0.01,25.0,0.0,0.0,64,0,1,25
345134899,0.01,25.0,0.0,0.0,64,0,1,25
345166930,0.01,25.0,0.0,0.0,64,0,1,25
345198662,0.01,25.0,0.0,0.0,64,0,1,25
345230800,0.01,25.0,0.0,0.0,64,0,1,25
345262942,0.01,25.0,0.0,0.0,0,0,1,25
345294875,0.01,25.0,0.0,0.0,64,0,1,25
345326853,0.01,25.0,0.0,0.0,64,0,1,25
345358678,0.01,25.0,0.0,0.0,0,0,1,25
345390816,0.01,25.0,0.0,0.0,64,0,1,25
345422829,0.01,25.0,0.0,0.0,0,0,1,25
345453891,0.01,25.0,0.0,0.0,64,0,1,25
345485153,0.01,25.0,0.0,0.0,64,0,1,25
345518337,0.01,25.0,0.04,0.0,64,0,1,25
345550837,0.01,25.0,0.0,0.0,0,0,1,25
345582894,0.01,25.0,0.0,0.0,0,0,1,25
345901742,0.01,25.0,0.0,0.0,64,0,1,25
346062268,0.01,25.0,0.0,0.0,4,0,1,25
346094845,0.01,25.0,0.0,0.0,64,0,1,25
346126822,0.01,25.0,0.0,0.0,0,0,1,25
346158207,0.01,25.0,0.0,0.0,64,0,1,25
346189965,0.01,25.0,0.0,0.0,64,0,1,25
346221916,0.01,25.0,0.0,0.0,64,0,1,25
346253992,0.01,25.0,0.0,0.0,64,0,1,25
346285953,0.01,25.0,0.01,0.0,64,0,1,25
346317129,0.01,25.0,0.0,0.0,0,0,1,25
346348186,0.01,25.0,0.0,0.0,4,0,1,25
346379763,0.01,25.0,0.0,0.0,64,0,1,25
346411051,0.01,25.0,0.0,0.0,4,0,1,25
346442831,0.01,25.0,0.0,0.0,64,0,1,25
346474890,0.01,25.0,0.0,0.0,64,0,1,25
346507059,0.01,25.0,0.0,0.0,64,0,1,25
346538905,0.01,25.0,0.0,0.0,64,0,1,25
346571020,0.01,25.0,0.0,0.0,64,0,1,25
346602870,0.01,25.0,0.0,0.0,56,0,1,25
346635642,0.01,25.0,0.0,0.0,4,0,1,25
346667805,0.01,25.0,0.0,0.0,64,0,1,25
346698897,0.01,25.0,0.0,0.0,64,0,1,25
346731911,0.01,25.0,0.0,0.0,64,0,1,25
346763745,0.01,25.0,0.0,0.0,64,0,1,25
346795789,0.01,25.0,0.0,0.0,0,0,1,25
346827802,0.01,25.0,0.0,0.0,64,0,1,25
346859742,0.01,25.0,0.0,0.0,64,0,1,25
346891815,0.01,25.0,0.0,0.0,4,0,1,25
346924914,0.01,25.0,0.0,0.0,64,0,1,25
346956746,0.01,25.0,0.0,0.0,64,0,1,25
346988769,0.01,25.0,0.0,0.0,64,0,1,25
347020420,0.01,25.0,0.0,0.0,64,0,1,25
347052748,0.01,25.0,0.0,0.0,64,0,1,25
347084924,0.01,25.0,0.0,0.0,64,0,1,25
347116948,0.01,25.0,0.0,0.0,64,0,1,25
347148940,0.01,25.0,0.0,0.0,64,0,1,25
347180145,0.01,25.0,0.0,0.0,64,0,1,25
347212113,0.01,25.0,0.0,0.0,64,0,1,25
347244615,0.01,25.0,0.0,0.0,0,0,1,25
347276153,0.01,25.0,0.0,0.0,64,0,1,25
347308497,0.01,25.0,0.0,0.0,112,0,1,25
347340947,0.01,25.0,0.0,0.0,64,0,1,25
347372752,0.01,25.0,0.0,0.0,64,0,1,25
347404601,0.01,25.0,0.0,0.0,64,0,1,25
347436194,0.01,25.0,0.0,0.0,64,0,1,25
347468950,0.01,25.0,0.0,0.0,64,0,1,25
347500804,0.01,25.0,0.0,0.0,64,0,1,25
347532728,0.01,25.0,0.0,0.0,64,0,1,25
347564742,0.01,25.0,0.0,0.0,64,0,1,25
347597915,0.01,25.0,0.0,0.0,64,0,1,25
347630128,0.01,25.0,0.0,0.0,64,0,1,25
347661833,0.01,25.0,0.0,0.0,64,0,1,25
347694048,0.01,25.0,0.0,0.0,4,0,1,25
347725972,0.01,25.0,0.0,0.0,64,0,1,25
347757944,0.01,25.0,0.0,0.0,64,0,1,25
347790827,0.01,25.0,0.0,0.0,-78,0,1,25
347822868,0.01,25.0,0.0,0.0,64,0,1,25
347854949,0.01,25.0,0.0,0.0,64,0,1,25
347887098,0.01,25.0,0.0,0.0,4,0,1,25
347918814,0.01,25.0,0.0,0.0,64,0,1,25
347950863,0.01,25.0,0.0,0.0,64,0,1,25
347982237,0.01,25.0,0.0,0.0,4,0,1,25
348014209,0.01,25.0,0.0,0.0,-116,0,1,25
348046271,0.01,25.0,0.0,0.0,64,0,1,25
348078265,0.01,25.0,0.0,0.0,4,0,1,25
348109762,0.01,25.0,0.0,0.0,64,0,1,25
348141783,0.01,25.0,0.01,0.0,0,0,1,25
348174067,0.01,25.0,0.0,0.0,0,0,1,25
348206254,0.01,25.0,0.0,0.0,64,0,1,25
348238196,0.01,25.0,0.0,0.0,4,0,1,25
348270538,0.01,25.0,0.0,0.0,64,0,1,25
348302847,0.01,25.0,0.0,0.0,0,0,1,25
348334835,0.01,25.0,0.0,0.0,64,0,1,25
348365941,0.01,25.0,0.0,0.0,64,0,1,25
348396742,0.01,25.0,0.0,0.0,64,0,1,25
348429559,0.01,25.0,0.0,0.0,64,0,1,25
348460789,0.01,25.0,0.0,0.0,64,0,1,25
348492745,0.01,25.0,0.0,0.0,64,0,1,25
348524742,0.01,25.0,0.0,0.0,64,0,1,25
348556751,0.01,25.0,0.0,0.0,64,0,1,25
348588763,0.01,25.0,0.0,0.0,64,0,1,25
348620742,0.01,25.0,0.0,0.0,64,0,1,25
348652742,0.01,25.0,0.0,0.0,64,0,1,25
348684743,0.01,25.0,0.0,0.0,64,0,1,25
348715742,0.01,25.0,0.0,0.0,64,0,1,25
348747742,0.01,25.0,0.0,0.0,64,0,1,25
348778968,0.01,25.0,0.0,0.0,64,0,1,25
348811010,0.01,25.0,0.0,0.0,64,0,1,25
348843113,0.01,25.0,0.0,0.0,64,0,1,25
348874537,0.01,25.0,0.0,0.0,64,0,1,25
348907370,0.01,25.0,0.0,0.0,64,0,1,25
348939352,0.01,25.0,0.0,0.0,64,0,1,25
348971742,0.01,25.0,0.0,0.0,64,0,1,25
349003771,0.01,25.0,0.0,0.0,64,0,1,25
350123870,0.01,25.0,0.0,0.0,64,0,1,25
350155844,0.01,25.0,0.0,0.0,64,0,1,25
350187845,0.01,25.0,0.0,0.0,64,0,1,25
350221287,0.01,25.0,0.0,0.0,64,0,1,25
350253776,0.01,25.0,0.0,0.0,64,0,1,25
350285759,0.01,25.0,0.0,0.0,0,0,1,25
350317970,0.01,25.0,0.0,0.0,64,0,1,25
350349526,0.01,25.0,0.0,0.0,64,0,1,25
350381116,0.01,25.0,0.0,0.0,64,0,1,25
350412938,0.01,25.0,0.0,0.0,64,0,1,25
350445802,0.01,25.0,0.0,0.0,64,0,1,25
350476888,0.01,25.0,0.0,0.0,64,0,1,25
350509069,0.01,25.0,0.0,0.0,64,0,1,25
350541488,0.01,25.0,0.0,0.0,64,0,1,25
350573952,0.01,25.0,0.0,0.0,64,0,1,25
350605749,0.01,25.0,0.0,0.0,64,0,1,25
350637955,0.01,25.0,0.0,0.0,64,0,1,25
350669758,0.01,25.0,0.0,0.0,64,0,1,25
350701916,0.01,25.0,0.0,0.0,52,0,1,25
350733786,0.01,25.0,0.0,0.0,56,0,1,25
350764959,0.01,25.0,0.0,0.0,64,0,1,25
350797514,0.01,25.0,0.0,0.0,64,0,1,25
350829161,0.01,25.0,0.0,0.0,64,0,1,25
350861129,0.01,25.0,0.0,0.0,64,0,1,25
350893375,0.01,25.0,0.0,0.0,64,0,1,25
350925754,0.01,25.0,0.0,0.0,64,0,1,25
350957148,0.01,25.0,0.0,0.0,4,0,1,25
350988742,0.01,25.0,0.0,0.0,64,0,1,25
351019785,0.01,25.0,0.0,0.0,64,0,1,25
351050991,0.01,25.0,0.0,0.0,64,0,1,25
351082887,0.01,25.0,0.0,0.0,64,0,1,25
351114867,0.01,25.0,0.0,0.0,64,0,1,25
351146876,0.01,25.0,0.0,0.0,0,0,1,25
351178913,0.01,25.0,0.0,0.0,64,0,1,25
351209952,0.01,25.0,0.03,0.0,64,0,1,25
351241804,0.01,25.0,0.0,0.0,4,0,1,25
351274126,0.01,25.0,0.0,0.0,0,0,1,25
351305948,0.01,25.0,0.0,0.0,64,0,1,25
351337975,0.01,25.0,0.0,0.0,-116,0,1,25
351369957,0.01,25.0,0.0,0.0,64,0,1,25
351401138,0.01,25.0,0.0,0.0,64,0,1,25
351432140,0.01,25.0,0.049999997,0.0,4,0,1,25
351463803,0.01,25.0,0.0,0.0,64,0,1,25
351495057,0.01,25.0,0.0,0.0,4,0,1,25
351526876,0.01,25.0,0.0,0.0,64,0,1,25
351558567,0.01,25.0,0.0,0.0,64,0,1,25
351590578,0.01,25.0,0.0,0.0,64,0,1,25
351622953,0.01,25.0,0.0,0.0,64,0,1,25
351655568,0.01,25.0,0.0,0.0,64,0,1,25
351687834,0.01,25.0,0.0,0.0,64,0,1,25
351719756,0.01,25.0,0.0,0.0,64,0,1,25
351751797,0.01,25.0,0.0,0.0,0,0,1,25
351783748,0.01,25.0,0.0,0.0,64,0,1,25
351815618,0.01,25.0,0.0,0.0,64,0,1,25
351847806,0.01,25.0,0.0,0.0,64,0,1,25
351879770,0.01,25.0,0.0,0.0,64,0,1,25
351911756,0.01,25.0,0.0,0.0,64,0,1,25
351943631,0.01,25.0,0.0,0.0,-72,0,1,25
351975407,0.01,25.0,0.0,0.0,64,0,1,25
352007803,0.01,25.0,0.0,0.0,64,0,1,25
352039528,0.01,25.0,0.0,0.0,64,0,1,25
352071741,0.01,25.0,0.0,0.0,64,0,1,25
352103742,0.01,25.0,0.0,0.0,64,0,1,25
352135794,0.01,25.0,0.0,0.0,64,0,1,25
352167805,0.01,25.0,0.0,0.0,64,0,1,25
352199554,0.01,25.0,0.0,0.0,52,0,1,25
352231747,0.01,25.0,0.0,0.0,64,0,1,25
352263756,0.01,25.0,0.0,0.0,64,0,1,25
352295781,0.01,25.0,0.0,0.0,64,0,1,25
352327492,0.01,25.0,0.0,0.0,64,0,1,25
352358872,0.01,25.0,0.0,0.0,64,0,1,25
352390862,0.01,25.0,0.0,0.0,0,0,1,25
352422849,0.01,25.0,0.0,0.0,64,0,1,25
352453757,0.01,25.0,0.0,0.0,64,0,1,25
352485760,0.01,25.0,0.0,0.0,64,0,1,25
352518001,0.01,25.0,0.0,0.0,64,0,1,25
352549895,0.01,25.0,0.0,0.0,0,0,1,25
352581116,0.01,25.0,0.0,0.0,0,0,1,25
352613154,0.01,25.0,0.0,0.0,0,0,1,25
352645155,0.01,25.0,0.0,0.0,64,0,1,25
352677300,0.01,25.0,0.0,0.0,64,0,1,25
352709113,0.01,25.0,0.0,0.0,64,0,1,25
352741159,0.01,25.0,0.0,0.0,64,0,1,25
352773172,0.01,25.0,0.0,0.0,64,0,1,25
352805287,0.01,25.0,0.0,0.0,64,0,1,25
352837226,0.01,25.0,0.0,0.0,64,0,1,25
352868998,0.01,25.0,0.0,0.0,64,0,1,25
352901116,0.01,25.0,0.0,0.0,64,0,1,25
352933102,0.01,25.0,0.0,0.0,64,0,1,25
352965107,0.01,25.0,0.0,0.0,0,0,1,25
352997136,0.01,25.0,0.0,0.0,64,0,1,25
353029125,0.01,25.0,0.0,0.0,64,0,1,25
353060759,0.01,25.0,0.0,0.0,64,0,1,25
353092545,0.01,25.0,0.0,0.0,4,0,1,25
353124756,0.01,25.0,0.0,0.0,64,0,1,25
353156756,0.01,25.0,0.0,0.0,64,0,1,25
353188477,0.01,25.0,0.0,0.0,64,0,1,25
353220764,0.01,25.0,0.0,0.0,64,0,1,25
353251773,0.01,25.0,0.0,0.0,4,0,1,25
353283796,0.01,25.0,0.0,0.0,64,0,1,25
353315770,0.01,25.0,0.0,0.0,64,0,1,25
353347336,0.01,25.0,0.0,0.0,64,0,1,25
353380209,0.01,25.0,0.0,0.0,64,0,1,25
353411748,0.01,25.0,0.0,0.0,64,0,1,25
353443743,0.01,25.0,0.0,0.0,64,0,1,25
353475774,0.01,25.0,0.0,0.0,64,0,1,25
353508214,0.01,25.0,0.0,0.0,64,0,1,25
353539744,0.01,25.0,0.0,0.0,64,0,1,25
353571364,0.01,25.0,0.0,0.0,0,0,1,25
353603772,0.01,25.0,0.0,0.0,64,0,1,25
353635742,0.01,25.0,0.06,0.0,64,0,1,25
353667802,0.01,25.0,0.0,0.0,64,0,1,25
353699758,0.01,25.0,0.0,0.0,64,0,1,25
353731756,0.01,25.0,0.0,0.0,64,0,1,25
353763745,0.01,25.0,0.0,0.0,64,0,1,25
353794854,0.01,25.0,0.0,0.0,64,0,1,25
353825742,0.01,25.0,0.0,0.0,64,0,1,25
353857995,0.01,25.0,0.0,0.0,0,0,1,25
353889785,0.01,25.0,0.0,0.0,64,0,1,25
353920943,0.01,25.0,0.0,0.0,64,0,1,25
353952747,0.01,25.0,0.0,0.0,64,0,1,25
353985031,0.01,25.0,0.0,0.0,64,0,1,25
354016923,0.01,25.0,0.0,0.0,0,0,1,25
354049021,0.01,25.0,0.0,0.0,0,0,1,25
354080309,0.01,25.0,0.0,0.0,0,0,1,25
354112741,0.01,25.0,0.0,0.0,64,0,1,25
354144773,0.01,25.0,0.0,0.0,64,0,1,25
354176917,0.01,25.0,0.0,0.0,0,0,1,25
354208552,0.01,25.0,0.0,0.0,64,0,1,25
354240742,0.01,25.0,0.0,0.0,64,0,1,25
354272756,0.01,25.0,0.0,0.0,64,0,1,25
354304333,0.01,25.0,0.0,0.0,64,0,1,25
354336771,0.01,25.0,0.0,0.0,64,0,1,25
354368378,0.01,25.0,0.0,0.0,64,0,1,25
354400745,0.01,25.0,0.0,0.0,64,0,1,25
354432937,0.01,25.0,0.0,0.0,64,0,1,25
354464762,0.01,25.0,0.0,0.0,64,0,1,25
354497125,0.01,25.0,0.0,0.0,64,0,1,25
354529151,0.01,25.0,0.0,0.0,64,0,1,25
354559772,0.01,25.0,0.0,0.0,4,0,1,25
354591750,0.01,25.0,0.0,0.0,64,0,1,25
354623742,0.01,25.0,0.0,0.0,64,0,1,25
354655782,0.01,25.0,0.0,0.0,64,0,1,25
354687803,0.01,25.0,0.0,0.0,64,0,1,25
354718869,0.01,25.0,0.0,0.0,4,0,1,25
354750812,0.01,25.0,0.0,0.0,64,0,1,25
354782802,0.01,25.0,0.0,0.0,64,0,1,25
354814837,0.01,25.0,0.0,0.0,0,0,1,25
354846294,0.01,25.0,0.0,0.0,64,0,1,25
354878862,0.01,25.0,0.0,0.0,64,0,1,25
354910827,0.01,25.0,0.0,0.0,0,0,1,25
354942856,0.01,25.0,0.0,0.0,0,0,1,25
354973950,0.01,25.0,0.0,0.0,64,0,1,25
355005778,0.01,25.0,0.0,0.0,64,0,1,25
355038091,0.01,25.0,0.0,0.0,0,0,1,25
355069922,0.01,25.0,0.0,0.0,0,0,1,25
355101925,0.01,25.0,0.0,0.0,64,0,1,25
355133751,0.01,25.0,0.0,0.0,64,0,1,25
355166312,0.01,25.0,0.0,0.0,64,0,1,25
355198008,0.01,25.0,0.0,0.0,64,0,1,25
355229797,0.01,25.0,0.01,0.0,64,0,1,25
355261800,0.01,25.0,0.03,0.0,64,0,1,25
355293949,0.01,25.0,0.0,0.0,64,0,1,25
355325959,0.01,25.0,0.0,0.0,0,0,1,25
355358098,0.01,25.0,0.0,0.0,4,0,1,25
355389734,0.01,25.0,0.0,0.0,64,0,1,25
355421757,0.01,25.0,0.0,0.0,64,0,1,25
355452785,0.01,25.0,0.0,0.0,4,0,1,25
355484759,0.01,25.0,0.0,0.0,64,0,1,25
355516924,0.01,25.0,0.0,0.0,64,0,1,25
355548123,0.01,25.0,0.0,0.0,4,0,1,25
355579845,0.01,25.0,0.0,0.0,64,0,1,25
355611938,0.01,25.0,0.0,0.0,64,0,1,25
355643752,0.01,25.0,0.0,0.0,64,0,1,25
355675782,0.01,25.0,0.0,0.0,0,0,1,25
355707359,0.01,25.0,0.0,0.0,64,0,1,25
355740152,0.01,25.0,0.0,0.0,64,0,1,25
355771481,0.01,25.0,0.0,0.0,4,0,1,25
355804332,0.01,25.0,0.0,0.0,4,0,1,25
355835875,0.01,25.0,0.0,0.0,64,0,1,25
355867325,0.01,25.0,0.0,0.0,-116,0,1,25
355900188,0.01,25.0,0.0,0.0,4,0,1,25
355932447,0.01,25.0,0.0,0.0,0,0,1,25
355963745,0.01,25.0,0.0,0.0,64,0,1,25
355996122,0.01,25.0,0.0,0.0,64,0,1,25
356027149,0.01,25.0,0.0,0.0,64,0,1,25
356059827,0.01,25.0,0.0,0.0,64,0,1,25
356091578,0.01,25.0,0.0,0.0,64,0,1,25
356123909,0.01,25.0,0.0,0.0,64,0,1,25
356155827,0.01,25.0,0.0,0.0,4,0,1,25
356188487,0.01,25.0,0.0,0.0,64,0,1,25
356220493,0.01,25.0,0.0,0.0,64,0,1,25
356252757,0.01,25.0,0.0,0.0,64,0,1,25
356284318,0.01,25.0,0.02,0.0,64,0,1,25
356316322,0.01,25.0,0.049999997,0.0,64,0,1,25
356348645,0.01,25.0,0.0,0.0,64,0,1,25
356380763,0.01,25.0,0.0,0.0,64,0,1,25
356412547,0.01,25.0,0.0,0.0,64,0,1,25
356444176,0.01,25.0,0.0,0.0,64,0,1,25
356475153,0.01,25.0,0.0,0.0,4,0,1,25
356508612,0.01,25.0,0.0,0.0,64,0,1,25
356540742,0.01,25.0,0.0,0.0,64,0,1,25
356572468,0.01,25.0,0.0,0.0,108,0,1,25
356604319,0.01,25.0,0.0,0.0,64,0,1,25
356636359,0.01,25.0,0.0,0.0,64,0,1,25
356668464,0.01,25.0,0.0,0.0,64,0,1,25
356700543,0.01,25.0,0.0,0.0,0,0,1,25
356732469,0.01,25.0,0.0,0.0,0,0,1,25
356764339,0.01,25.0,0.0,0.0,64,0,1,25
356796750,0.01,25.0,0.0,0.0,0,0,1,25
356828742,0.01,25.0,0.0,0.0,64,0,1,25
356860794,0.01,25.0,0.0,0.0,64,0,1,25
356891773,0.01,25.0,0.0,0.0,4,0,1,25
356923787,0.01,25.0,0.0,0.0,64,0,1,25
356955744,0.01,25.0,0.0,0.0,64,0,1,25
356987208,0.01,25.0,0.0,0.0,4,0,1,25
357019755,0.01,25.0,0.0,0.0,64,0,1,25
357051742,0.01,25.0,0.0,0.0,64,0,1,25
357083745,0.01,25.0,0.0,0.0,64,0,1,25
357115742,0.01,25.0,0.0,0.0,64,0,1,25
357146825,0.01,25.0,0.0,0.0,0,0,1,25
357177970,0.01,25.0,0.0,0.0,64,0,1,25
357209889,0.01,25.0,0.0,0.0,64,0,1,25
357241942,0.01,25.0,0.0,0.0,64,0,1,25
357273906,0.01,25.0,0.0,0.0,0,0,1,25
357306023,0.01,25.0,0.0,0.0,0,0,1,25
357338139,0.01,25.0,0.0,0.0,64,0,1,25
357369892,0.01,25.0,0.0,0.0,64,0,1,25
357401868,0.01,25.0,0.0,0.0,64,0,1,25
357433175,0.01,25.0,0.0,0.0,64,0,1,25
357463883,0.01,25.0,0.0,0.0,4,0,1,25
357496360,0.01,25.0,0.0,0.0,4,0,1,25
357528171,0.01,25.0,0.0,0.0,4,0,1,25
357559581,0.01,25.0,0.0,0.0,4,0,1,25
357592938,0.01,25.0,0.0,0.0,4,0,1,25
357624742,0.01,25.0,0.0,0.0,64,0,1,25
357656896,0.01,25.0,0.0,0.0,64,0,1,25
357688750,0.01,25.0,0.0,0.0,64,0,1,25
357721129,0.01,25.0,0.0,0.0,64,0,1,25
357752742,0.01,25.0,0.0,0.0,64,0,1,25
357784492,0.01,25.0,0.0,0.0,64,0,1,25
357816751,0.01,25.0,0.0,0.0,64,0,1,25
357848776,0.01,25.0,0.0,0.0,64,0,1,25
357880742,0.01,25.0,0.02,0.0,64,0,1,25
357912163,0.01,25.0,0.0,0.0,64,0,1,25
357944382,0.01,25.0,0.0,0.0,64,0,1,25
357976136,0.01,25.0,0.0,0.0,64,0,1,25
358008169,0.01,25.0,0.0,0.0,64,0,1,25
358041100,0.01,25.0,0.0,0.0,64,0,1,25
358072771,0.01,25.0,0.0,0.0,52,0,1,25
358104760,0.01,25.0,0.0,0.0,64,0,1,25
358136400,0.01,25.0,0.0,0.0,4,0,1,25
358168762,0.01,25.0,0.0,0.0,64,0,1,25
358200690,0.01,25.0,0.0,0.0,64,0,1,25
358232747,0.01,25.0,0.02,0.0,64,0,1,25
358264180,0.01,25.0,0.0,0.0,64,0,1,25
358294864,0.01,25.0,0.0,0.0,64,0,1,25
358326822,0.01,25.0,0.0,0.0,64,0,1,25
358358899,0.01,25.0,0.0,0.0,64,0,1,25
358390858,0.01,25.0,0.0,0.0,0,0,1,25
358422847,0.01,25.0,0.0,0.0,64,0,1,25
358454789,0.01,25.0,0.0,0.0,64,0,1,25
358486892,0.01,25.0,0.0,0.0,56,0,1,25
358518789,0.01,25.0,0.0,0.0,64,0,1,25
358550845,0.01,25.0,0.0,0.0,64,0,1,25
358582854,0.01,25.0,0.04,0.0,0,0,1,25
358614868,0.01,25.0,0.0,0.0,0,0,1,25
358646845,0.01,25.0,0.0,0.0,64,0,1,25
358678840,0.01,25.0,0.0,0.0,64,0,1,25
358710893,0.01,25.0,0.0,0.0,64,0,1,25
358742929,0.01,25.0,0.0,0.0,64,0,1,25
358774852,0.01,25.0,0.0,0.0,0,0,1,25
358806893,0.01,25.0,0.0,0.0,64,0,1,25
358838852,0.01,25.0,0.0,0.0,0,0,1,25
358870969,0.01,25.0,0.0,0.0,64,0,1,25
358902840,0.01,25.0,0.0,0.0,64,0,1,25
358934912,0.01,25.0,0.0,0.0,0,0,1,25
358966835,0.01,25.0,0.0,0.0,64,0,1,25
358998910,0.01,25.0,0.0,0.0,64,0,1,25
359030839,0.01,25.0,0.0,0.0,64,0,1,25
359062854,0.01,25.0,0.0,0.0,64,0,1,25
359094857,0.01,25.0,0.0,0.0,64,0,1,25
359126924,0.01,25.0,0.0,0.0,64,0,1,25
359158842,0.01,25.0,0.0,0.0,0,0,1,25
359190878,0.01,25.0,0.0,0.0,56,0,1,25
359222842,0.01,25.0,0.0,0.0,64,0,1,25
359254948,0.01,25.0,0.0,0.0,64,0,1,25
359286905,0.01,25.0,0.0,0.0,0,0,1,25
359318862,0.01,25.0,0.04,0.0,64,0,1,25
359350847,0.01,25.0,0.0,0.0,0,0,1,25
359381918,0.01,25.0,0.01,0.0,64,0,1,25
359412740,0.01,25.0,0.0,0.0,4,0,1,25
359443894,0.01,25.0,0.0,0.0,4,0,1,25
359476371,0.01,25.0,0.0,0.0,4,0,1,25
359508329,0.01,25.0,0.0,0.0,4,0,1,25
359540607,0.01,25.0,0.0,0.0,4,0,1,25
359571743,0.01,25.0,0.0,0.0,4,0,1,25
359603811,0.01,25.0,0.0,0.0,4,0,1,25
359635512,0.01,25.0,0.0,0.0,4,0,1,25
359667809,0.01,25.0,0.0,0.0,4,0,1,25
359700386,0.01,25.0,0.0,0.0,4,0,1,25
359732773,0.01,25.0,0.0,0.0,4,0,1,25
359764336,0.01,25.0,0.0,0.0,4,0,1,25
359795881,0.01,25.0,0.0,0.0,4,0,1,25
359828156,0.01,25.0,0.0,0.0,4,0,1,25
359859898,0.01,25.0,0.0,0.0,4,0,1,25
359892393,0.01,25.0,0.0,0.0,4,0,1,25
359924918,0.01,25.0,0.0,0.0,4,0,1,25
359956937,0.01,25.0,0.0,0.0,4,0,1,25
359990331,0.01,25.0,0.0,0.0,4,0,1,25
360023347,0.01,25.0,0.0,0.0,4,0,1,25
360055744,0.01,25.0,0.0,0.0,64,0,1,25
360087819,0.01,25.0,0.0,0.0,64,0,1,25
360119611,0.01,25.0,0.0,0.0,0,0,1,25
360151910,0.01,25.0,0.0,0.0,4,0,1,25
360183753,0.01,25.0,0.0,0.0,64,0,1,25
360215758,0.01,25.0,0.0,0.0,64,0,1,25
360247821,0.01,25.0,0.0,0.0,4,0,1,25
360279659,0.01,25.0,0.0,0.0,4,0,1,25
360311751,0.01,25.0,0.0,0.0,64,0,1,25
360344179,0.01,25.0,0.0,0.0,4,0,1,25
360375753,0.01,25.0,0.0,0.0,64,0,1,25
360407494,0.01,25.0,0.0,0.0,64,0,1,25
360439742,0.01,25.0,0.0,0.0,64,0,1,25
360471762,0.01,25.0,0.0,0.0,64,0,1,25
360503348,0.01,25.0,0.0,0.0,64,0,1,25
360535465,0.01,25.0,0.0,0.0,64,0,1,25
360567924,0.01,25.0,0.0,0.0,0,0,1,25
360600189,0.01,25.0,0.0,0.0,-116,0,1,25
360631914,0.01,25.0,0.02,0.0,4,0,1,25
360663732,0.01,25.0,0.0,0.0,4,0,1,25
360695783,0.01,25.0,0.0,0.0,4,0,1,25
360727351,0.01,25.0,0.0,0.0,4,0,1,25
360758976,0.01,25.0,0.0,0.0,4,0,1,25
360791515,0.01,25.0,0.0,0.0,4,0,1,25
360822858,0.01,25.0,0.0,0.0,4,0,1,25
360855542,0.01,25.0,0.0,0.0,4,0,1,25
360887818,0.01,25.0,0.0,0.0,64,0,1,25
360919536,0.01,25.0,0.0,0.0,4,0,1,25
360951349,0.01,25.0,0.0,0.0,4,0,1,25
360983742,0.01,25.0,0.0,0.0,64,0,1,25
361015655,0.01,25.0,0.0,0.0,4,0,1,25
361047695,0.01,25.0,0.0,0.0,4,0,1,25
361079800,0.01,25.0,0.0,0.0,4,0,1,25
361111547,0.01,25.0,0.0,0.0,4,0,1,25
361143798,0.01,25.0,0.0,0.0,4,0,1,25
361175801,0.01,25.0,0.0,0.0,4,0,1,25
361207821,0.01,25.0,0.0,0.0,4,0,1,25
361239823,0.01,25.0,0.0,0.0,4,0,1,25
361271876,0.01,25.0,0.0,0.0,4,0,1,25
361303798,0.01,25.0,0.0,0.0,108,0,1,25
361336498,0.01,25.0,0.0,0.0,4,0,1,25
361368922,0.01,25.0,0.0,0.0,4,0,1,25
361401378,0.01,25.0,0.0,0.0,4,0,1,25
361433396,0.01,25.0,0.0,0.0,4,0,1,25
361465402,0.01,25.0,0.0,0.0,4,0,1,25
361497375,0.01,25.0,0.0,0.0,4,0,1,25
361531727,0.01,25.0,0.0,0.0,64,0,1,25
361563749,0.01,25.0,0.0,0.0,64,0,1,25
361595356,0.01,25.0,0.0,0.0,64,0,1,25
361627731,0.01,25.0,0.0,0.0,64,0,1,25
361659961,0.01,25.0,0.08,0.0,64,0,1,25
361691883,0.01,25.0,0.0,0.0,4,0,1,25
361723753,0.01,25.0,0.0,0.0,64,0,1,25
361755949,0.01,25.0,0.0,0.0,64,0,1,25
361787827,0.01,25.0,0.0,0.0,64,0,1,25
361820303,0.01,25.0,0.0,0.0,64,0,1,25
361851343,0.01,25.0,0.0,0.0,4,0,1,25
