timestamp,magnetometer_ga[0],magnetometer_ga[1],magnetometer_ga[2]
310019068,0.28530103,-0.13930532,0.254762
310069546,0.28386757,-0.14210972,0.2573484
310093089,0.28960142,-0.14070752,0.25648624
310117174,0.29246834,-0.14351192,0.25648624
310141207,0.29246834,-0.14351192,0.25648624
310165492,0.29676875,-0.14912075,0.25648624
310189130,0.29676875,-0.14491414,0.254762
310212569,0.2824341,-0.14210972,0.25821054
310236463,0.28530103,-0.14210972,0.2599348
310260986,0.28386757,-0.14210972,0.25648624
310285091,0.28530103,-0.14210972,0.25648624
310309941,0.29246834,-0.14491414,0.254762
310333445,0.29246834,-0.14210972,0.25389984
310358681,0.28960142,-0.14491414,0.254762
310381854,0.29390183,-0.14210972,0.25303772
310404999,0.27956715,-0.1308921,0.2573484
310429930,0.28386757,-0.14491414,0.25907266
310454681,0.28960142,-0.14631633,0.25907266
310478028,0.2781337,-0.13509871,0.25648624
310500748,0.29103488,-0.13790311,0.2573484
310521445,0.2953353,-0.14771853,0.25303772
310544111,0.29103488,-0.13790311,0.25389984
310566613,0.2867345,-0.13229431,0.25217557
310589293,0.27956715,-0.14631633,0.25389984
310614376,0.2867345,-0.14210972,0.25907266
310637787,0.28960142,-0.13930532,0.25648624
310661437,0.28816795,-0.1294899,0.25648624
310686208,0.2781337,-0.13930532,0.2573484
310710256,0.28530103,-0.13790311,0.25562412
310731508,0.2867345,-0.13229431,0.254762
310752552,0.29390183,-0.12808768,0.2573484
310779648,0.2867345,-0.13650091,0.25648624
310803636,0.28386757,-0.12668549,0.25648624
310827092,0.28100064,-0.14210972,0.25648624
310850971,0.2781337,-0.13930532,0.254762
310874836,0.28100064,-0.14491414,0.25389984
310895501,0.27956715,-0.1308921,0.2573484
310916542,0.2824341,-0.13369651,0.25821054
310938936,0.2867345,-0.13930532,0.25303772
310962937,0.27956715,-0.13509871,0.25389984
310986507,0.28960142,-0.14070752,0.25648624
311010608,0.28960142,-0.13790311,0.2573484
311035003,0.27670023,-0.13509871,0.25389984
311056437,0.28530103,-0.13930532,0.254762
311080607,0.2781337,-0.13229431,0.254762
311103566,0.28960142,-0.13930532,0.254762
311126574,0.28386757,-0.13369651,0.254762
311148437,0.28386757,-0.14210972,0.254762
311170525,0.29390183,-0.14070752,0.25648624
311192449,0.28816795,-0.14351192,0.25303772
311214525,0.2824341,-0.13650091,0.25303772
311237473,0.2781337,-0.13509871,0.25389984
311259862,0.28386757,-0.14210972,0.25389984
311284497,0.28386757,-0.13790311,0.254762
311308202,0.2867345,-0.13509871,0.25562412
311330557,0.2867345,-0.13790311,0.25389984
311355949,0.2824341,-0.13930532,0.25389984
311379491,0.27956715,-0.13369651,0.25562412
311403908,0.2824341,-0.13509871,0.25562412
311427484,0.28386757,-0.1308921,0.254762
311452542,0.28386757,-0.14070752,0.25389984
311477114,0.2781337,-0.13509871,0.2573484
311501100,0.28530103,-0.13369651,0.25389984
311524138,0.2824341,-0.1294899,0.25303772
311545470,0.2824341,-0.13509871,0.25303772
311569472,0.28530103,-0.13930532,0.254762
311593489,0.2824341,-0.14210972,0.25303772
311617519,0.28816795,-0.14210972,0.25389984
311641534,0.2867345,-0.14351192,0.254762
311669764,0.28960142,-0.13930532,0.25303772
311692723,0.29103488,-0.13930532,0.25389984
311716665,0.2824341,-0.13790311,0.25648624
311741046,0.28816795,-0.13790311,0.25303772
311765730,0.27670023,-0.13509871,0.254762
311789231,0.2781337,-0.14210972,0.25389984
311812562,0.27956715,-0.13509871,0.254762
311837174,0.2824341,-0.13229431,0.25217557
311861516,0.2824341,-0.1308921,0.254762
311885140,0.28100064,-0.13650091,0.25303772
311909120,0.28530103,-0.13930532,0.25562412
311933586,0.28960142,-0.14070752,0.25303772
311958342,0.2824341,-0.13229431,0.25389984
311981838,0.2781337,-0.13650091,0.254762
312004585,0.2824341,-0.13509871,0.25303772
312029061,0.2824341,-0.13650091,0.25562412
312052300,0.28100064,-0.13930532,0.254762
312076130,0.28386757,-0.13369651,0.25648624
312100439,0.2824341,-0.14210972,0.2573484
312125021,0.28960142,-0.15052295,0.25562412
312149194,0.28386757,-0.13930532,0.254762
312173155,0.27670023,-0.1294899,0.25562412
312197439,0.2824341,-0.13369651,0.254762
312222224,0.2824341,-0.14351192,0.2573484
312246169,0.28960142,-0.14070752,0.25562412
312270610,0.28530103,-0.14912075,0.25648624
312293815,0.27956715,-0.14491414,0.254762
312318268,0.2824341,-0.13369651,0.2573484
312338900,0.2781337,-0.1294899,0.25217557
312360734,0.2781337,-0.13650091,0.25389984
312381913,0.29246834,-0.14070752,0.25562412
312402900,0.28386757,-0.14912075,0.25389984
312426551,0.2781337,-0.12668549,0.25648624
312449555,0.27956715,-0.13229431,0.25648624
312472974,0.28386757,-0.15052295,0.25648624
312494957,0.28386757,-0.13369651,0.25821054
312519459,0.27956715,-0.15192515,0.25648624
312543045,0.27670023,-0.13650091,0.25562412
312567449,0.2953353,-0.14771853,0.25562412
312590945,0.2824341,-0.14210972,0.25562412
312614551,0.2867345,-0.1308921,0.2573484
312639043,0.2781337,-0.13369651,0.25389984
312662570,0.28530103,-0.14351192,0.25562412
312686301,0.2781337,-0.14070752,0.2573484
312710638,0.29246834,-0.14210972,0.254762
312734576,0.2953353,-0.13790311,0.254762
312758124,0.28960142,-0.14210972,0.254762
312779438,0.28386757,-0.14491414,0.254762
312803508,0.28386757,-0.1308921,0.25907266
312827460,0.28530103,-0.14631633,0.25562412
312851449,0.28386757,-0.13369651,0.25562412
312875562,0.28530103,-0.14210972,0.254762
312898584,0.2824341,-0.13930532,0.254762
312921452,0.28386757,-0.14912075,0.25389984
312943023,0.28816795,-0.13369651,0.25562412
312967473,0.27956715,-0.13650091,0.25562412
312992404,0.28530103,-0.13369651,0.254762
313013491,0.28960142,-0.13790311,0.25389984
313036459,0.28960142,-0.14491414,0.25389984
313058622,0.28100064,-0.13369651,0.25562412
313082696,0.28386757,-0.14351192,0.25389984
313106733,0.27956715,-0.14631633,0.25562412
313129437,0.28100064,-0.14210972,0.25303772
313152257,0.2867345,-0.13229431,0.254762
313176221,0.28100064,-0.13790311,0.254762
313200260,0.2867345,-0.13509871,0.254762
313223859,0.29246834,-0.14210972,0.2573484
313248515,0.2867345,-0.14912075,0.25648624
313272421,0.28530103,-0.13930532,0.254762
313296298,0.28530103,-0.14210972,0.25821054
313319440,0.28100064,-0.14491414,0.25562412
313343861,0.27956715,-0.14491414,0.25303772
313367959,0.2824341,-0.14351192,0.25389984
313391648,0.27670023,-0.15052295,0.25303772
313415437,0.28100064,-0.13790311,0.25303772
313436491,0.28100064,-0.13790311,0.2573484
313464561,0.27956715,-0.13930532,0.25562412
313487881,0.28816795,-0.14771853,0.25562412
313511441,0.28530103,-0.14491414,0.254762
313532465,0.2953353,-0.14210972,0.25648624
313554644,0.2867345,-0.14351192,0.25648624
313577438,0.2867345,-0.13509871,0.25562412
313600299,0.2824341,-0.14210972,0.25389984
313624143,0.28530103,-0.14351192,0.25389984
313648396,0.28100064,-0.14631633,0.25389984
313671442,0.2867345,-0.13790311,0.25217557
313692665,0.2867345,-0.14351192,0.25562412
313714636,0.29103488,-0.14491414,0.25562412
313738536,0.28530103,-0.13650091,0.25217557
313762626,0.2867345,-0.13930532,0.25303772
313786533,0.2824341,-0.13229431,0.254762
313810610,0.29246834,-0.13930532,0.25648624
313836754,0.2824341,-0.14771853,0.25562412
313860698,0.28386757,-0.13369651,0.25389984
313882541,0.28100064,-0.13509871,0.254762
313906612,0.28100064,-0.14912075,0.25217557
313930676,0.28386757,-0.13790311,0.254762
313954633,0.28100064,-0.14070752,0.254762
313981126,0.28100064,-0.15472955,0.25562412
314002600,0.2867345,-0.13650091,0.25217557
314026707,0.28816795,-0.14771853,0.25303772
314050548,0.29103488,-0.15052295,0.25131345
314074573,0.28816795,-0.13790311,0.25217557
314098612,0.28386757,-0.15192515,0.254762
314122549,0.2867345,-0.14070752,0.25303772
314146570,0.2867345,-0.14912075,0.25217557
314173432,0.29103488,-0.13790311,0.25389984
314197963,0.2824341,-0.13509871,0.25217557
314221341,0.2867345,-0.14491414,0.25217557
314244968,0.29103488,-0.14210972,0.25303772
314269026,0.28386757,-0.13930532,0.25389984
314293106,0.2824341,-0.13509871,0.254762
314317198,0.2867345,-0.15192515,0.25303772
314338516,0.28386757,-0.14351192,0.25217557
314362642,0.28960142,-0.14351192,0.25303772
314389881,0.2824341,-0.13229431,0.25217557
314413196,0.2824341,-0.13509871,0.25303772
314435450,0.28386757,-0.13229431,0.25217557
314459511,0.27956715,-0.14491414,0.25303772
314482557,0.28960142,-0.14351192,0.25131345
314505556,0.29103488,-0.13509871,0.254762
314529534,0.28960142,-0.13930532,0.25303772
314553263,0.2824341,-0.1294899,0.25389984
314574532,0.29246834,-0.14070752,0.25389984
314596450,0.28960142,-0.14631633,0.25562412
314620546,0.27956715,-0.13650091,0.254762
314643467,0.29390183,-0.1294899,0.25217557
314665825,0.28100064,-0.13790311,0.25562412
314687050,0.27956715,-0.13650091,0.254762
314712438,0.29390183,-0.14351192,0.25562412
314735680,0.2781337,-0.14491414,0.25389984
314758678,0.2953353,-0.14351192,0.25045133
314782957,0.28960142,-0.13930532,0.254762
314804449,0.28100064,-0.13790311,0.25303772
314830361,0.28530103,-0.13790311,0.254762
314850509,0.29390183,-0.13790311,0.25217557
314872462,0.2953353,-0.13229431,0.25217557
314894979,0.2824341,-0.13509871,0.25131345
314918548,0.29246834,-0.14210972,0.25303772
314939455,0.29820222,-0.13650091,0.25131345
314961844,0.30106914,-0.13650091,0.25131345
314983450,0.29390183,-0.13509871,0.24958917
315008437,0.30106914,-0.13229431,0.25045133
315364581,0.31827068,-0.12247889,0.23665717
315389075,0.3211376,-0.12388109,0.23493288
315412502,0.3311719,-0.11827227,0.23924358
315435952,0.3311719,-0.11687007,0.23665717
315457805,0.33977267,-0.111261256,0.23407075
315481526,0.32973844,-0.12388109,0.23665717
315505529,0.325438,-0.11546787,0.23579505
315529438,0.31970415,-0.11406566,0.23751931
315556524,0.3268715,-0.12528329,0.23665717
315581566,0.31827068,-0.12808768,0.23665717
315605540,0.3096699,-0.13229431,0.23665717
315629149,0.31827068,-0.12388109,0.23924358
315653034,0.31110337,-0.12388109,0.23751931
315677851,0.31110337,-0.13369651,0.23665717
315701897,0.31540376,-0.12808768,0.24355425
315725227,0.31827068,-0.119674474,0.23924358
315749211,0.31253684,-0.13229431,0.23924358
315773747,0.3025026,-0.14351192,0.23924358
315797070,0.31253684,-0.1308921,0.24269211
315820498,0.30393606,-0.11687007,0.24527851
315844439,0.3025026,-0.12808768,0.24355425
315869058,0.2953353,-0.13650091,0.24355425
315893078,0.2953353,-0.14491414,0.24700278
315916373,0.29390183,-0.1294899,0.24872705
315938186,0.28960142,-0.13650091,0.24872705
315963106,0.29103488,-0.13790311,0.24527851
315986033,0.2953353,-0.12808768,0.24700278
316007500,0.306803,-0.11687007,0.24355425
316030564,0.29676875,-0.12528329,0.24786492
316055448,0.31253684,-0.11827227,0.24786492
316079562,0.31683722,-0.12388109,0.24872705
316102546,0.31253684,-0.11266346,0.24700278
316124730,0.30823645,-0.11687007,0.24872705
316146521,0.31110337,-0.11266346,0.24614064
316169453,0.30823645,-0.12247889,0.24441639
316191445,0.3096699,-0.11546787,0.24527851
316215437,0.31253684,-0.104250245,0.24700278
316239473,0.3025026,-0.10985905,0.24958917
316263511,0.3139703,-0.10144583,0.25131345
316285505,0.29390183,-0.11266346,0.25131345
316309437,0.29963568,-0.11406566,0.25303772
316331908,0.30536953,-0.104250245,0.24958917
316355510,0.29676875,-0.111261256,0.25217557
316379003,0.30393606,-0.10004363,0.25389984
316402619,0.2953353,-0.111261256,0.25303772
316426949,0.29676875,-0.11546787,0.25131345
316451459,0.30393606,-0.10284804,0.24872705
316475489,0.30106914,-0.111261256,0.24958917
316498986,0.29676875,-0.11546787,0.24872705
316522075,0.2867345,-0.111261256,0.25562412
316543448,0.29390183,-0.10985905,0.25562412
316570049,0.27670023,-0.11546787,0.25389984
316594061,0.28100064,-0.11687007,0.25821054
316615437,0.28386757,-0.12808768,0.25648624
316638593,0.28530103,-0.12528329,0.2573484
316660729,0.27670023,-0.12528329,0.2573484
316683398,0.2781337,-0.111261256,0.25907266
316706606,0.266666,-0.13790311,0.25907266
316731579,0.27239984,-0.1308921,0.25907266
316755001,0.2738333,-0.13229431,0.25907266
316778885,0.26953292,-0.12528329,0.26338333
316803467,0.2623656,-0.1294899,0.26683187
316827494,0.26093212,-0.12808768,0.26338333
316850995,0.24946442,-0.13650091,0.26424548
316872437,0.25233135,-0.12808768,0.2625212
316893448,0.25233135,-0.14210972,0.2625212
316916500,0.24373057,-0.13930532,0.26338333
316938992,0.2465975,-0.13509871,0.26596975
316963589,0.25233135,-0.12668549,0.26338333
316987445,0.24373057,-0.13790311,0.26683187
317011020,0.24086364,-0.13930532,0.26683187
317034713,0.23943017,-0.1294899,0.2625212
317058673,0.24803096,-0.13930532,0.2651076
317080499,0.25089788,-0.13369651,0.26683187
317103763,0.2465975,-0.1308921,0.26596975
317127471,0.23799671,-0.13930532,0.26338333
317149994,0.2422971,-0.13229431,0.26424548
317175442,0.24086364,-0.13790311,0.26855615
317199440,0.23799671,-0.13229431,0.26855615
317223437,0.24803096,-0.12107668,0.26683187
317247103,0.24373057,-0.1294899,0.26424548
317268467,0.24516404,-0.13229431,0.26596975
317291110,0.23943017,-0.13369651,0.26424548
317311469,0.23512979,-0.1294899,0.26683187
317333437,0.23656325,-0.13650091,0.2625212
317357461,0.23799671,-0.13790311,0.2651076
317383513,0.23369633,-0.1308921,0.26855615
317405527,0.23656325,-0.12528329,0.26683187
317429504,0.24373057,-0.13229431,0.26683187
317452454,0.24086364,-0.13790311,0.26596975
317476450,0.23226285,-0.13790311,0.26424548
317498054,0.23656325,-0.13369651,0.26683187
317522078,0.23369633,-0.13930532,0.26338333
317546124,0.23226285,-0.14070752,0.2625212
317569702,0.23369633,-0.13650091,0.26596975
317593866,0.23082939,-0.13509871,0.2651076
317617888,0.23369633,-0.1308921,0.26683187
317641528,0.23226285,-0.12247889,0.26683187
317664740,0.22509554,-0.12668549,0.26855615
317686569,0.226529,-0.13369651,0.267694
317710635,0.226529,-0.13369651,0.2651076
317737955,0.23226285,-0.12668549,0.2651076
317761946,0.2422971,-0.1294899,0.26683187
317786212,0.22939593,-0.12808768,0.26941827
317810186,0.23082939,-0.13930532,0.26683187
317834006,0.23082939,-0.13650091,0.2651076
317857867,0.24086364,-0.1294899,0.26855615
317882538,0.23226285,-0.12528329,0.27028042
317905896,0.23082939,-0.13229431,0.26596975
317929868,0.23512979,-0.12808768,0.26855615
317953387,0.23226285,-0.1308921,0.26855615
317977978,0.2222286,-0.12247889,0.27114254
318001925,0.23656325,-0.1308921,0.267694
318025864,0.22366206,-0.14070752,0.267694
318049365,0.23226285,-0.12388109,0.26683187
318073885,0.23512979,-0.12528329,0.26941827
318097141,0.23512979,-0.13930532,0.26683187
318121132,0.23656325,-0.1308921,0.26855615
318142542,0.23656325,-0.13229431,0.26683187
318165766,0.23369633,-0.1294899,0.27028042
318189540,0.22939593,-0.13650091,0.26941827
318213566,0.22079514,-0.12808768,0.26941827
318237236,0.22796246,-0.1294899,0.26941827
318260448,0.23512979,-0.12528329,0.26683187
318282534,0.21936168,-0.12668549,0.2745911
318304448,0.23226285,-0.13229431,0.27200466
318328550,0.23082939,-0.1294899,0.27114254
318352447,0.21649475,-0.13509871,0.2745911
318379837,0.22796246,-0.13369651,0.27286682
318403644,0.22509554,-0.12668549,0.27286682
319276441,0.2064605,-0.13369651,0.26941827
319300492,0.2222286,-0.13650091,0.26596975
319325507,0.21936168,-0.12107668,0.267694
319348675,0.22509554,-0.1308921,0.2651076
319371929,0.21649475,-0.12107668,0.2651076
319396219,0.22366206,-0.13790311,0.26338333
319421125,0.2222286,-0.13229431,0.26596975
319444467,0.2222286,-0.13790311,0.26338333
319468164,0.22509554,-0.12388109,0.26683187
319492172,0.21792822,-0.119674474,0.2625212
319517480,0.226529,-0.12528329,0.267694
319541024,0.21936168,-0.13650091,0.26596975
319565237,0.22079514,-0.12528329,0.26596975
319589489,0.22939593,-0.119674474,0.2651076
319613460,0.21792822,-0.11687007,0.2651076
319637057,0.21362783,-0.13369651,0.2625212
319658579,0.21506129,-0.1294899,0.2651076
319685782,0.2222286,-0.12107668,0.26855615
319707946,0.2222286,-0.12247889,0.2651076
319731450,0.21506129,-0.13650091,0.26079693
319758861,0.21792822,-0.13369651,0.26596975
319782248,0.21936168,-0.14491414,0.26424548
319806596,0.22366206,-0.12107668,0.267694
319829972,0.21506129,-0.12107668,0.26338333
319853810,0.21792822,-0.1294899,0.26596975
319877831,0.20932743,-0.13369651,0.26424548
319902098,0.21506129,-0.12247889,0.26424548
319922570,0.2222286,-0.12388109,0.26683187
319947491,0.21792822,-0.13650091,0.26424548
319970542,0.22366206,-0.14070752,0.2599348
319993062,0.22079514,-0.12668549,0.26338333
320015515,0.2107609,-0.13229431,0.26424548
320037403,0.2107609,-0.14210972,0.2625212
320061859,0.21936168,-0.12247889,0.26338333
320083499,0.2107609,-0.13229431,0.26338333
320107500,0.21362783,-0.1308921,0.2616591
320130536,0.2222286,-0.12528329,0.26338333
320153268,0.21506129,-0.13229431,0.2625212
320175446,0.21506129,-0.13369651,0.26596975
320199460,0.21506129,-0.13229431,0.2599348
320222880,0.21936168,-0.12247889,0.2651076
320246978,0.21936168,-0.13229431,0.2625212
320270234,0.21506129,-0.12808768,0.26079693
320294579,0.22079514,-0.12247889,0.25907266
320318880,0.21649475,-0.11406566,0.2616591
320343488,0.21936168,-0.12247889,0.26079693
320366189,0.2064605,-0.12668549,0.2651076
320391564,0.21506129,-0.13930532,0.26424548
320416488,0.21649475,-0.12668549,0.2616591
320440615,0.20072664,-0.13930532,0.25907266
320464437,0.21506129,-0.12247889,0.2616591
320488437,0.22079514,-0.12528329,0.26338333
320512434,0.21362783,-0.13369651,0.2599348
320536516,0.21506129,-0.11687007,0.2625212
320559504,0.21506129,-0.13509871,0.2616591
320584466,0.21219437,-0.13509871,0.25821054
320609031,0.21219437,-0.119674474,0.25907266
320632748,0.2064605,-0.13229431,0.2599348
320655440,0.21792822,-0.11827227,0.2599348
320679440,0.20359357,-0.13229431,0.25821054
320704726,0.20932743,-0.11827227,0.26079693
320728988,0.21506129,-0.12388109,0.26338333
320751858,0.20932743,-0.11827227,0.2599348
320775752,0.19929318,-0.1308921,0.25907266
320800633,0.21362783,-0.11827227,0.2625212
320824495,0.21219437,-0.13650091,0.2573484
320847466,0.20789397,-0.12388109,0.2599348
320871888,0.20932743,-0.14070752,0.25907266
320896948,0.21936168,-0.13229431,0.26079693
320920954,0.20932743,-0.12247889,0.26079693
320944502,0.21506129,-0.11687007,0.2599348
320968437,0.20359357,-0.13229431,0.26079693
320992478,0.20789397,-0.14070752,0.2616591
321016223,0.20789397,-0.13369651,0.2599348
321039456,0.20359357,-0.12388109,0.26079693
321060437,0.20932743,-0.12668549,0.2616591
321082523,0.2064605,-0.14210972,0.2616591
321104449,0.20502703,-0.12247889,0.2651076
321126520,0.20502703,-0.1308921,0.26683187
321149437,0.20502703,-0.13509871,0.2651076
321172452,0.20359357,-0.13790311,0.26683187
321196477,0.2064605,-0.13509871,0.26596975
321219931,0.20072664,-0.13790311,0.2651076
321242224,0.2021601,-0.13930532,0.26683187
321265037,0.19355933,-0.13650091,0.267694
321289462,0.19642626,-0.13930532,0.2651076
321313867,0.20072664,-0.14631633,0.26941827
321338136,0.19642626,-0.13650091,0.26596975
321361258,0.19355933,-0.1308921,0.26855615
321385312,0.19212587,-0.13509871,0.27114254
321410593,0.19785972,-0.13369651,0.27200466
321434682,0.19069241,-0.14351192,0.27372894
321457806,0.19929318,-0.14351192,0.27114254
321481343,0.19069241,-0.12808768,0.27631533
321506040,0.19785972,-0.15472955,0.27372894
321531089,0.1949928,-0.1294899,0.27372894
321553359,0.19929318,-0.14912075,0.27286682
321577228,0.1949928,-0.14210972,0.26683187
321601403,0.1949928,-0.13509871,0.27286682
321626051,0.19355933,-0.12808768,0.27717748
321649264,0.19069241,-0.13509871,0.2745911
321669495,0.1949928,-0.13369651,0.27114254
321692433,0.1949928,-0.14070752,0.27631533
321713442,0.20072664,-0.14070752,0.26941827
321737506,0.2021601,-0.14070752,0.26941827
321764174,0.19212587,-0.14912075,0.27114254
321787093,0.19212587,-0.14631633,0.2754532
321809437,0.19929318,-0.13650091,0.26683187
321832437,0.19785972,-0.14491414,0.267694
321853482,0.1949928,-0.13369651,0.26683187
321875441,0.19069241,-0.14491414,0.27028042
321898557,0.20502703,-0.12107668,0.267694
321920437,0.19069241,-0.13790311,0.26683187
321942540,0.20072664,-0.13229431,0.26424548
321964438,0.19929318,-0.13509871,0.26079693
321988493,0.19785972,-0.13369651,0.2651076
322014052,0.20502703,-0.13650091,0.2616591
322037871,0.19355933,-0.12808768,0.267694
322060437,0.20072664,-0.1308921,0.2625212
322082543,0.2021601,-0.1294899,0.25821054
322104450,0.19355933,-0.13369651,0.254762
322130370,0.1949928,-0.12247889,0.25389984
322154665,0.20359357,-0.12808768,0.254762
322179437,0.19929318,-0.12808768,0.25648624
322205757,0.2064605,-0.1294899,0.2573484
322228501,0.20932743,-0.12528329,0.254762
322250554,0.20359357,-0.13369651,0.25648624
322275450,0.1949928,-0.12528329,0.25562412
322301959,0.1949928,-0.12668549,0.25562412
322324517,0.2021601,-0.11827227,0.25821054
322346580,0.1949928,-0.12668549,0.25648624
322371461,0.19929318,-0.13930532,0.2573484
322397282,0.2021601,-0.13650091,0.254762
322419035,0.20932743,-0.11827227,0.25389984
322443063,0.19355933,-0.13650091,0.25562412
322469714,0.20789397,-0.12528329,0.25648624
322492559,0.20502703,-0.13509871,0.25131345
322514664,0.20502703,-0.119674474,0.25648624
322536448,0.2021601,-0.11687007,0.25562412
322559501,0.19929318,-0.11406566,0.25648624
322581759,0.19929318,-0.11827227,0.25303772
322603599,0.20789397,-0.12107668,0.25648624
322629438,0.20789397,-0.1294899,0.25389984
322656440,0.20359357,-0.11546787,0.2573484
322677492,0.20359357,-0.12668549,0.25648624
322701522,0.19785972,-0.12808768,0.254762
322725437,0.19642626,-0.13369651,0.254762
322749199,0.19785972,-0.12107668,0.254762
322771525,0.19642626,-0.1308921,0.25648624
322795437,0.19212587,-0.12808768,0.254762
322817437,0.20072664,-0.1294899,0.25389984
322841459,0.18925895,-0.13650091,0.254762
322863681,0.186392,-0.13229431,0.254762
322887857,0.1949928,-0.13369651,0.25389984
322909554,0.20072664,-0.12247889,0.25389984
322933506,0.19069241,-0.12247889,0.25389984
322956501,0.19929318,-0.11827227,0.25648624
322981544,0.1949928,-0.12107668,0.25389984
323008593,0.19929318,-0.1308921,0.25389984
323032587,0.19642626,-0.12808768,0.25562412
323055939,0.20502703,-0.12247889,0.254762
323080103,0.19069241,-0.1308921,0.25648624
323103922,0.19642626,-0.119674474,0.25562412
323125521,0.19642626,-0.119674474,0.25562412
323152502,0.19069241,-0.11546787,0.25303772
323176437,0.186392,-0.1308921,0.2573484
323200541,0.19642626,-0.12107668,0.2573484
323224556,0.19642626,-0.1308921,0.254762
323249114,0.19642626,-0.119674474,0.2573484
323273117,0.18782547,-0.13369651,0.25303772
323297285,0.186392,-0.1308921,0.25648624
323320578,0.19069241,-0.12528329,0.25821054
323345034,0.1949928,-0.13369651,0.2573484
323367459,0.18782547,-0.12247889,0.25648624
323391448,0.186392,-0.13509871,0.25303772
323415462,0.19642626,-0.11406566,0.2573484
323439520,0.19929318,-0.12388109,0.254762
323462518,0.2021601,-0.12107668,0.25821054
323486480,0.18925895,-0.1294899,0.25907266
323509437,0.18209161,-0.13509871,0.2573484
323532772,0.20072664,-0.12668549,0.25648624
323554525,0.18782547,-0.13509871,0.25821054
323578101,0.18925895,-0.13650091,0.2573484
323601509,0.19355933,-0.12107668,0.25821054
323625463,0.18782547,-0.12388109,0.25907266
323647458,0.18209161,-0.12528329,0.2573484
323670534,0.1949928,-0.11406566,0.25907266
323693451,0.1949928,-0.11687007,0.2616591
323717732,0.19929318,-0.12388109,0.26079693
323741905,0.19785972,-0.12528329,0.26079693
323764921,0.19785972,-0.12808768,0.26079693
323787437,0.19069241,-0.13229431,0.25907266
323813437,0.18495853,-0.13650091,0.2599348
323837132,0.20072664,-0.12528329,0.2616591
323858534,0.1949928,-0.12668549,0.25907266
323881472,0.186392,-0.12668549,0.25907266
323903460,0.19212587,-0.12528329,0.2616591
323926622,0.19929318,-0.12808768,0.2616591
323949437,0.186392,-0.12668549,0.26079693
323973452,0.19785972,-0.13930532,0.25907266
323997086,0.186392,-0.12668549,0.26596975
324019437,0.18925895,-0.12808768,0.2651076
324041438,0.186392,-0.12668549,0.26596975
324063447,0.19069241,-0.13790311,0.26338333
324087632,0.19212587,-0.13229431,0.2625212
324109529,0.19355933,-0.13930532,0.2625212
324133501,0.19785972,-0.13229431,0.26079693
324157491,0.19355933,-0.12808768,0.26596975
324179440,0.186392,-0.12808768,0.26683187
324203952,0.1949928,-0.1294899,0.2625212
324227927,0.18925895,-0.12808768,0.2651076
324253361,0.186392,-0.13650091,0.26338333
324276514,0.1949928,-0.13509871,0.26424548
324299469,0.19069241,-0.12247889,0.2625212
324323147,0.19212587,-0.12668549,0.2651076
324349580,0.17922468,-0.1308921,0.267694
324372506,0.19355933,-0.1308921,0.26683187
324395466,0.186392,-0.12528329,0.2651076
324420491,0.18925895,-0.12528329,0.267694
324446682,0.2021601,-0.1308921,0.2625212
324469516,0.19642626,-0.13930532,0.26596975
324491620,0.186392,-0.12528329,0.26424548
324516458,0.18782547,-0.13369651,0.26596975
324540488,0.19069241,-0.13369651,0.26683187
324563509,0.19212587,-0.13369651,0.26338333
324587071,0.1949928,-0.1294899,0.26683187
324611729,0.18925895,-0.13509871,0.26683187
324636991,0.18352507,-0.13229431,0.26855615
324660437,0.19069241,-0.12668549,0.267694
324683699,0.19355933,-0.12528329,0.2651076
324708460,0.186392,-0.12808768,0.26683187
324732435,0.1949928,-0.14070752,0.267694
324755437,0.18925895,-0.13229431,0.26424548
324776500,0.18782547,-0.12388109,0.267694
324799482,0.18352507,-0.1294899,0.2651076
324823420,0.19069241,-0.12808768,0.27028042
324845560,0.19212587,-0.12668549,0.26596975
324869732,0.186392,-0.12107668,0.27028042
324893837,0.18782547,-0.1308921,0.26855615
324916554,0.1949928,-0.13229431,0.27028042
324938534,0.19069241,-0.12388109,0.26855615
324961517,0.18782547,-0.12668549,0.267694
324984139,0.19069241,-0.13790311,0.26424548
325006536,0.19069241,-0.13229431,0.26941827
325029328,0.19929318,-0.13369651,0.27114254
325050540,0.19069241,-0.12668549,0.26596975
325073498,0.19069241,-0.12247889,0.27028042
325096448,0.19785972,-0.12388109,0.27028042
325118647,0.18925895,-0.12107668,0.27114254
325142659,0.20072664,-0.13369651,0.26855615
325164559,0.19785972,-0.13650091,0.26941827
325188711,0.19212587,-0.12808768,0.27114254
325213459,0.18495853,-0.12668549,0.26941827
325237509,0.19355933,-0.13650091,0.26855615
325260570,0.19212587,-0.13509871,0.26683187
325281714,0.18782547,-0.12528329,0.2745911
325304448,0.18782547,-0.1294899,0.27114254
325325439,0.18782547,-0.13930532,0.27114254
325349262,0.19212587,-0.13229431,0.27372894
325373936,0.19212587,-0.14070752,0.26941827
325397439,0.186392,-0.1294899,0.27286682
325421440,0.18065815,-0.12247889,0.27372894
325445440,0.18782547,-0.13509871,0.27114254
325470109,0.19355933,-0.12528329,0.27200466
325492743,0.19355933,-0.1294899,0.27286682
325517283,0.18925895,-0.12808768,0.26683187
325541468,0.19069241,-0.1308921,0.27114254
325569145,0.186392,-0.13369651,0.27200466
325590884,0.19069241,-0.12808768,0.26941827
325614777,0.19212587,-0.1294899,0.27114254
325636517,0.19212587,-0.12528329,0.27200466
325664716,0.18495853,-0.1308921,0.27372894
325686677,0.18352507,-0.12528329,0.27028042
325710578,0.1949928,-0.12388109,0.27372894
325736489,0.186392,-0.12808768,0.27114254
325761271,0.19212587,-0.13229431,0.27200466
325783512,0.18495853,-0.1308921,0.26941827
325806510,0.18782547,-0.13369651,0.26855615
325833542,0.19069241,-0.12668549,0.27028042
325856561,0.19212587,-0.12668549,0.2745911
325878810,0.18782547,-0.13369651,0.26941827
325902807,0.19069241,-0.1294899,0.27200466
325923489,0.186392,-0.12107668,0.27286682
325944504,0.19785972,-0.1308921,0.27114254
325967437,0.17922468,-0.13229431,0.27200466
325990962,0.1949928,-0.12247889,0.27372894
326017278,0.18782547,-0.1308921,0.27200466
326038888,0.18782547,-0.1308921,0.26941827
326063453,0.18065815,-0.11827227,0.27028042
326089715,0.18782547,-0.12668549,0.27372894
326112305,0.1949928,-0.12668549,0.267694
326135526,0.18495853,-0.13369651,0.267694
326159442,0.19355933,-0.12668549,0.267694
326184437,0.19069241,-0.13229431,0.26941827
326207931,0.1949928,-0.119674474,0.2651076
326231520,0.1949928,-0.11827227,0.26424548
326254781,0.19212587,-0.12388109,0.26424548
326279542,0.186392,-0.11827227,0.26338333
326306034,0.19212587,-0.11406566,0.26596975
326329504,0.18352507,-0.1308921,0.26424548
326352191,0.18352507,-0.12388109,0.26338333
326377459,0.19355933,-0.11687007,0.26683187
326403350,0.18065815,-0.12107668,0.2651076
326427358,0.18352507,-0.12808768,0.26424548
326448934,0.18352507,-0.1308921,0.26079693
326473437,0.19642626,-0.11546787,0.26079693
326498059,0.19642626,-0.12247889,0.26424548
326520440,0.18065815,-0.12528329,0.26424548
326541503,0.1949928,-0.104250245,0.26338333
326567847,0.18495853,-0.12528329,0.26079693
326593118,0.1949928,-0.13650091,0.26424548
326616439,0.19069241,-0.1308921,0.26338333
326640439,0.186392,-0.13229431,0.2625212
326665437,0.18209161,-0.13229431,0.26338333
326689829,0.18495853,-0.12247889,0.2616591
326713506,0.17922468,-0.12808768,0.25907266
326735970,0.18782547,-0.12247889,0.2616591
326761480,0.186392,-0.11827227,0.2616591
326786099,0.19212587,-0.11266346,0.2625212
326808470,0.18495853,-0.13650091,0.2651076
326832340,0.19212587,-0.13369651,0.2625212
326853510,0.19785972,-0.12528329,0.2625212
326877799,0.18782547,-0.13229431,0.2625212
326901448,0.18209161,-0.11546787,0.26338333
326923437,0.20072664,-0.119674474,0.26079693
326945758,0.2021601,-0.11546787,0.26683187
326969456,0.19212587,-0.119674474,0.26079693
326991831,0.19355933,-0.119674474,0.2625212
327016504,0.2021601,-0.11546787,0.26338333
327038972,0.18782547,-0.12528329,0.2616591
327061437,0.19785972,-0.11546787,0.26079693
327085362,0.19785972,-0.11406566,0.2616591
327105923,0.20072664,-0.10284804,0.26424548
327128756,0.19642626,-0.10845685,0.2625212
327149918,0.19355933,-0.12668549,0.2616591
327171481,0.18782547,-0.12808768,0.2625212
327195480,0.19929318,-0.10985905,0.26079693
327219543,0.1949928,-0.119674474,0.2625212
327242547,0.18782547,-0.11687007,0.2625212
327266252,0.18925895,-0.11406566,0.2625212
327287468,0.18352507,-0.12808768,0.26424548
327309977,0.18495853,-0.1294899,0.26338333
327331451,0.18925895,-0.12528329,0.2625212
327355448,0.19642626,-0.11546787,0.26338333
327378530,0.20359357,-0.11546787,0.26079693
327401460,0.19785972,-0.119674474,0.2625212
327423890,0.19929318,-0.12247889,0.2616591
327446534,0.19355933,-0.12247889,0.2625212
327469441,0.19069241,-0.12668549,0.26338333
327491447,0.1949928,-0.12528329,0.26424548
327514565,0.18925895,-0.12388109,0.2616591
327536926,0.186392,-0.12388109,0.26424548
327559481,0.20359357,-0.12107668,0.26596975
327582326,0.186392,-0.12668549,0.2625212
327605442,0.1949928,-0.12247889,0.26424548
327629871,0.18352507,-0.1294899,0.26596975
327653473,0.19929318,-0.119674474,0.26424548
327678061,0.20072664,-0.13369651,0.26855615
327701793,0.1949928,-0.12808768,0.2651076
327725887,0.19069241,-0.12668549,0.26683187
327746630,0.20072664,-0.11546787,0.26596975
327770595,0.18925895,-0.12247889,0.27200466
327793459,0.19212587,-0.12388109,0.26855615
327815450,0.18925895,-0.12668549,0.27200466
327840403,0.18925895,-0.119674474,0.27114254
327863440,0.18782547,-0.12668549,0.26941827
327887383,0.18925895,-0.1294899,0.26941827
327909533,0.1949928,-0.1308921,0.26424548
327936533,0.186392,-0.11546787,0.27114254
327959717,0.18065815,-0.12528329,0.26855615
327983750,0.18782547,-0.12247889,0.27028042
328008458,0.19212587,-0.12107668,0.267694
328032339,0.19212587,-0.13229431,0.27028042
328055439,0.18495853,-0.12808768,0.27372894
328079437,0.186392,-0.13790311,0.27286682
328101437,0.186392,-0.13650091,0.27286682
328124450,0.186392,-0.12808768,0.27372894
328150002,0.18352507,-0.13509871,0.267694
328175347,0.186392,-0.1294899,0.27286682
328197440,0.18352507,-0.12808768,0.2745911
328224257,0.186392,-0.1294899,0.27286682
328247446,0.18495853,-0.13369651,0.27114254
328271493,0.17922468,-0.12808768,0.27372894
328295092,0.18782547,-0.13369651,0.27028042
328320209,0.18352507,-0.13509871,0.2745911
328343176,0.18209161,-0.13650091,0.26855615
328367339,0.18782547,-0.13650091,0.27286682
328389437,0.18495853,-0.12668549,0.27372894
328416764,0.18209161,-0.13650091,0.27114254
328439503,0.18495853,-0.1308921,0.2745911
328463747,0.17922468,-0.12528329,0.27200466
328488449,0.18782547,-0.1308921,0.27028042
328513855,0.17922468,-0.1294899,0.27286682
328537347,0.18782547,-0.12668549,0.27286682
328561289,0.19212587,-0.1294899,0.27028042
328584740,0.18209161,-0.1308921,0.27286682
328610304,0.186392,-0.1294899,0.27717748
328632762,0.186392,-0.13509871,0.27372894
328654669,0.18495853,-0.13229431,0.27028042
328677137,0.18495853,-0.12668549,0.27114254
328699961,0.18782547,-0.1308921,0.27114254
328722589,0.18065815,-0.13229431,0.27372894
328746530,0.17635776,-0.1308921,0.27200466
328769328,0.19069241,-0.13509871,0.27114254
328790602,0.18352507,-0.1308921,0.27372894
328814530,0.186392,-0.1308921,0.27114254
328841327,0.17205738,-0.12808768,0.27372894
328867010,0.186392,-0.13509871,0.27200466
328889729,0.19069241,-0.1294899,0.26855615
328913510,0.18782547,-0.13369651,0.27028042
328937008,0.18495853,-0.1308921,0.26855615
328961797,0.18352507,-0.13369651,0.27028042
328985094,0.18925895,-0.13790311,0.27286682
329009454,0.18782547,-0.12668549,0.267694
329033410,0.18495853,-0.12668549,0.27028042
329058717,0.18065815,-0.13650091,0.26683187
329081284,0.18495853,-0.13509871,0.27028042
329104673,0.18495853,-0.1294899,0.27286682
329126548,0.18065815,-0.1294899,0.27372894
329150513,0.18782547,-0.1308921,0.26941827
329178156,0.18209161,-0.1294899,0.26941827
329202039,0.18782547,-0.13650091,0.27028042
329226305,0.18209161,-0.12668549,0.27114254
329246613,0.18352507,-0.1294899,0.26941827
329269788,0.17922468,-0.12668549,0.27028042
329291437,0.18352507,-0.1308921,0.27114254
329315844,0.18065815,-0.1308921,0.26855615
329338962,0.18065815,-0.13369651,0.267694
329362627,0.18209161,-0.12808768,0.27114254
329388499,0.17922468,-0.12668549,0.26855615
329413848,0.18495853,-0.12388109,0.27114254
329434943,0.18209161,-0.13369651,0.26941827
329456461,0.17922468,-0.13790311,0.27114254
329480510,0.18065815,-0.1308921,0.27028042
329504450,0.186392,-0.12668549,0.26855615
329531006,0.18065815,-0.12668549,0.26683187
329552491,0.18065815,-0.1308921,0.26941827
329575581,0.18209161,-0.13509871,0.27200466
329597960,0.17205738,-0.12808768,0.27028042
329619449,0.17062391,-0.1294899,0.27200466
329642197,0.17779122,-0.13369651,0.26855615
329663441,0.17922468,-0.13790311,0.267694
329685466,0.186392,-0.13229431,0.26683187
329708467,0.17922468,-0.12668549,0.267694
329732767,0.186392,-0.12808768,0.267694
329755924,0.18209161,-0.13650091,0.2651076
329779451,0.18065815,-0.1308921,0.27028042
329804521,0.17922468,-0.12808768,0.26855615
329828238,0.18925895,-0.13229431,0.267694
329850983,0.19642626,-0.13229431,0.2616591
329871496,0.186392,-0.12808768,0.2616591
329892737,0.186392,-0.1294899,0.25907266
329915951,0.17205738,-0.12247889,0.2573484
329939494,0.17779122,-0.119674474,0.2599348
329964437,0.186392,-0.1308921,0.2573484
329989033,0.18352507,-0.1294899,0.2599348
330011951,0.18495853,-0.1308921,0.2599348
330035823,0.18065815,-0.10705465,0.26079693
330061437,0.18065815,-0.12388109,0.2616591
330084978,0.18495853,-0.11687007,0.26338333
330108183,0.18495853,-0.13369651,0.26338333
330129467,0.18209161,-0.12247889,0.26079693
330155445,0.18925895,-0.12107668,0.2625212
330177966,0.17635776,-0.11827227,0.25821054
330204692,0.18782547,-0.11546787,0.26079693
330228281,0.19355933,-0.11546787,0.2625212
330251892,0.18925895,-0.12107668,0.25907266
330277092,0.17922468,-0.12668549,0.2616591
330299879,0.18352507,-0.12107668,0.2625212
330323491,0.1949928,-0.11266346,0.26424548
330347142,0.18065815,-0.119674474,0.26338333
330372679,0.18065815,-0.13229431,0.26079693
330395919,0.1749243,-0.12668549,0.25907266
330419441,0.18495853,-0.111261256,0.26079693
330443166,0.18352507,-0.12388109,0.2625212
330468942,0.186392,-0.11546787,0.26424548
330491934,0.18925895,-0.11687007,0.25648624
330515440,0.18065815,-0.12388109,0.2616591
330539440,0.1749243,-0.12388109,0.2599348
330565034,0.186392,-0.12528329,0.26338333
330587913,0.17349084,-0.12668549,0.25907266
330611179,0.17922468,-0.12668549,0.26424548
330635579,0.17779122,-0.12388109,0.2616591
330661068,0.1749243,-0.105652444,0.26079693
330683900,0.17205738,-0.12808768,0.25907266
330707440,0.18065815,-0.1294899,0.2625212
330733437,0.17779122,-0.1308921,0.2599348
330756273,0.186392,-0.11546787,0.2599348
330779194,0.17635776,-0.11687007,0.2616591
330801523,0.186392,-0.10985905,0.2616591
330824437,0.186392,-0.12808768,0.2599348
330846511,0.19212587,-0.12247889,0.2616591
330868437,0.18065815,-0.12528329,0.25907266
330891498,0.1749243,-0.11827227,0.25907266
330915901,0.18352507,-0.1294899,0.26079693
330941848,0.17779122,-0.119674474,0.25907266
330965164,0.17922468,-0.13229431,0.2616591
330989441,0.18782547,-0.11406566,0.25821054
331014303,0.18782547,-0.12247889,0.2616591
331038162,0.18925895,-0.12528329,0.2625212
331061450,0.18782547,-0.11546787,0.26079693
331088239,0.186392,-0.13509871,0.2599348
331110341,0.186392,-0.12247889,0.26424548
331133299,0.17922468,-0.12808768,0.25907266
331156717,0.19069241,-0.12668549,0.26338333
331178572,0.18925895,-0.12107668,0.2616591
331202588,0.18495853,-0.13229431,0.2616591
331229979,0.19212587,-0.11827227,0.2625212
331252582,0.18925895,-0.119674474,0.26424548
331276995,0.18782547,-0.12247889,0.26424548
331302071,0.18065815,-0.12528329,0.2625212
331325319,0.19069241,-0.11827227,0.26424548
331348995,0.17635776,-0.1294899,0.2616591
331369551,0.186392,-0.11406566,0.2625212
331392099,0.186392,-0.11546787,0.26424548
331412629,0.186392,-0.12107668,0.26338333
331438533,0.1949928,-0.111261256,0.26424548
331461887,0.19069241,-0.11546787,0.2625212
331486074,0.19212587,-0.11266346,0.2651076
331509305,0.18495853,-0.11546787,0.26855615
331529470,0.18065815,-0.12668549,0.26338333
331552440,0.18782547,-0.11266346,0.26683187
331573437,0.17635776,-0.12528329,0.26596975
331597186,0.186392,-0.11266346,0.26683187
331618595,0.18352507,-0.12668549,0.27372894
331642681,0.17635776,-0.13229431,0.27372894
331665031,0.18352507,-0.12808768,0.27028042
331687960,0.18495853,-0.12668549,0.267694
331712437,0.18495853,-0.13369651,0.26941827
331735533,0.18782547,-0.12528329,0.27028042
331757514,0.19355933,-0.13229431,0.26596975
331779894,0.17779122,-0.12528329,0.27114254
331803072,0.17635776,-0.12668549,0.26596975
331826856,0.1949928,-0.13229431,0.267694
331850984,0.18495853,-0.1294899,0.26338333
331874910,0.17779122,-0.1308921,0.26855615
331899057,0.18782547,-0.1308921,0.27028042
331922558,0.19069241,-0.11827227,0.267694
331946993,0.18065815,-0.12528329,0.27028042
331970917,0.186392,-0.12388109,0.267694
331994940,0.19069241,-0.12808768,0.26683187
332018529,0.18495853,-0.11827227,0.26941827
332043058,0.18782547,-0.12668549,0.27114254
332067458,0.18209161,-0.119674474,0.27028042
332091451,0.17922468,-0.12808768,0.26855615
332114751,0.18782547,-0.12388109,0.26941827
332136520,0.18925895,-0.12808768,0.26941827
332160437,0.18495853,-0.12107668,0.26941827
332187628,0.186392,-0.12107668,0.27114254
332211093,0.18065815,-0.119674474,0.27114254
332235027,0.18352507,-0.119674474,0.27114254
332256526,0.19069241,-0.12668549,0.27028042
332280438,0.18925895,-0.12107668,0.267694
332307432,0.17779122,-0.12247889,0.27114254
332328488,0.18352507,-0.12668549,0.26855615
332351490,0.186392,-0.1294899,0.2745911
332375533,0.186392,-0.12808768,0.26855615
332398023,0.18065815,-0.12668549,0.267694
332420325,0.19069241,-0.13509871,0.267694
332445004,0.186392,-0.12808768,0.27114254
332467811,0.19212587,-0.11827227,0.26683187
332492279,0.18352507,-0.12668549,0.26596975
332513437,0.18782547,-0.12528329,0.26941827
332536549,0.186392,-0.12107668,0.26683187
332559644,0.18065815,-0.12668549,0.27028042
332583985,0.17779122,-0.12528329,0.26683187
332607407,0.17922468,-0.12528329,0.27200466
332631440,0.18209161,-0.1308921,0.27286682
332653109,0.18925895,-0.11827227,0.26683187
332676715,0.19355933,-0.12388109,0.26855615
332700325,0.19212587,-0.12247889,0.27200466
332721480,0.19212587,-0.1294899,0.26683187
332743929,0.19069241,-0.12107668,0.26941827
332767647,0.18782547,-0.11266346,0.26855615
332791449,0.17635776,-0.10985905,0.267694
332813050,0.18209161,-0.119674474,0.27028042
332837059,0.19069241,-0.12388109,0.26855615
332861303,0.18065815,-0.12528329,0.26855615
332883855,0.19785972,-0.12107668,0.267694
332909076,0.18065815,-0.12247889,0.26683187
332933140,0.186392,-0.11687007,0.26941827
332956991,0.18352507,-0.12107668,0.27114254
332980515,0.18925895,-0.10985905,0.26855615
333005129,0.19642626,-0.12107668,0.26683187
333028638,0.19212587,-0.12388109,0.26683187
333053094,0.18925895,-0.11546787,0.2651076
333076561,0.19785972,-0.12107668,0.26683187
333101010,0.19355933,-0.11827227,0.26596975
333125432,0.19642626,-0.10004363,0.26424548
333149415,0.19929318,-0.105652444,0.26596975
333173441,0.20072664,-0.097239226,0.2651076
333197473,0.20789397,-0.09303261,0.26596975
333221904,0.21649475,-0.09583703,0.26424548
333245390,0.21362783,-0.09443483,0.267694
333266580,0.21649475,-0.09583703,0.2651076
333290722,0.2107609,-0.097239226,0.2651076
333314599,0.20932743,-0.09864143,0.26424548
333338546,0.2107609,-0.09583703,0.2625212
333365274,0.20502703,-0.097239226,0.26338333
333386570,0.2021601,-0.097239226,0.2616591
333413334,0.2021601,-0.10144583,0.26683187
333438039,0.19785972,-0.11266346,0.26338333
333460910,0.19212587,-0.12247889,0.26855615
333484733,0.20072664,-0.12247889,0.26683187
333506585,0.19069241,-0.11687007,0.27114254
333530691,0.19069241,-0.11687007,0.26855615
333558078,0.20072664,-0.11266346,0.267694
333582289,0.18925895,-0.1294899,0.26596975
333606303,0.19355933,-0.12528329,0.26596975
333629887,0.19212587,-0.12388109,0.26683187
333653446,0.18782547,-0.10705465,0.27114254
333677785,0.18495853,-0.12107668,0.26941827
333701873,0.18495853,-0.111261256,0.27114254
333725351,0.18352507,-0.11827227,0.26941827
333746562,0.1949928,-0.13369651,0.26855615
333770604,0.17922468,-0.11827227,0.27114254
333794577,0.18782547,-0.12528329,0.27286682
333818556,0.18782547,-0.11546787,0.27028042
333842591,0.18209161,-0.12247889,0.26941827
333866571,0.19069241,-0.11687007,0.27114254
333890701,0.19069241,-0.12388109,0.26855615
333914544,0.19212587,-0.12528329,0.26941827
333938559,0.18495853,-0.1308921,0.27028042
333961023,0.19069241,-0.119674474,0.267694
333982536,0.18925895,-0.12388109,0.26855615
334005441,0.18352507,-0.11546787,0.27028042
334029270,0.19355933,-0.12388109,0.27114254
334050530,0.19069241,-0.119674474,0.27028042
334074599,0.19785972,-0.11827227,0.27028042
334098574,0.19069241,-0.11546787,0.26855615
334122733,0.18925895,-0.11406566,0.27114254
334146853,0.19929318,-0.12107668,0.27200466
334171007,0.19069241,-0.11546787,0.27114254
334195547,0.18782547,-0.12247889,0.26941827
334218744,0.17922468,-0.11546787,0.27028042
334243081,0.18925895,-0.12107668,0.27286682
334267142,0.18782547,-0.11827227,0.27200466
334290614,0.18495853,-0.12388109,0.27028042
334312490,0.18782547,-0.119674474,0.267694
334339112,0.18495853,-0.11687007,0.27028042
334362997,0.19642626,-0.11687007,0.26941827
334387448,0.19929318,-0.11827227,0.26596975
334411090,0.2021601,-0.111261256,0.26683187
334434964,0.18925895,-0.10985905,0.26941827
334459851,0.19212587,-0.10845685,0.26424548
334483438,0.20359357,-0.10705465,0.26683187
334506967,0.19785972,-0.11827227,0.2651076
334531482,0.19642626,-0.10705465,0.26596975
334555012,0.19355933,-0.10845685,0.26683187
334579437,0.19212587,-0.10985905,0.26941827
334600527,0.19929318,-0.111261256,0.267694
334627034,0.19355933,-0.111261256,0.26941827
334648449,0.19929318,-0.11406566,0.26683187
334672554,0.19355933,-0.10845685,0.26941827
334696488,0.20072664,-0.10985905,0.26855615
334722937,0.18925895,-0.11827227,0.2651076
334744449,0.19212587,-0.12107668,0.26855615
334770514,0.18209161,-0.11687007,0.27114254
334795458,0.18782547,-0.12668549,0.26941827
334816437,0.19212587,-0.11827227,0.26855615
334838517,0.186392,-0.12107668,0.26855615
334860347,0.186392,-0.11546787,0.27114254
334885128,0.18782547,-0.12247889,0.26683187
334908962,0.17779122,-0.12668549,0.27028042
334932514,0.19069241,-0.12388109,0.27114254
334956775,0.18065815,-0.12528329,0.267694
334980735,0.18352507,-0.12388109,0.27028042
335004739,0.18782547,-0.1294899,0.26424548
335028526,0.19212587,-0.1294899,0.26855615
335053090,0.18209161,-0.1308921,0.27114254
335077905,0.18782547,-0.13369651,0.26855615
335101076,0.17635776,-0.1308921,0.27028042
335124636,0.18065815,-0.12808768,0.2745911
335149318,0.19069241,-0.12107668,0.27286682
335173729,0.18065815,-0.119674474,0.27200466
335196532,0.18209161,-0.119674474,0.267694
335220314,0.18925895,-0.1294899,0.27286682
335245052,0.186392,-0.1308921,0.26941827
335269460,0.18925895,-0.12808768,0.26683187
335292766,0.18065815,-0.12247889,0.27028042
335317437,0.18352507,-0.1294899,0.27028042
335341502,0.19355933,-0.1308921,0.26941827
335365531,0.19355933,-0.13229431,0.27028042
335389023,0.18925895,-0.12668549,0.267694
335412533,0.18782547,-0.13229431,0.26855615
335437295,0.18209161,-0.12388109,0.26855615
335461051,0.19355933,-0.12808768,0.27114254
335485126,0.18782547,-0.12247889,0.26855615
335508534,0.186392,-0.12247889,0.26855615
335533030,0.18495853,-0.12388109,0.26855615
335553451,0.186392,-0.13369651,0.27286682
335578007,0.18925895,-0.13509871,0.26855615
335601902,0.18782547,-0.13229431,0.27028042
335623534,0.19212587,-0.12388109,0.26855615
335647509,0.19212587,-0.12668549,0.26941827
335671448,0.18352507,-0.12668549,0.27114254
335694574,0.18065815,-0.1308921,0.27114254
335718142,0.186392,-0.1294899,0.27200466
335741272,0.19355933,-0.1308921,0.26855615
335764979,0.19069241,-0.1294899,0.27200466
335786554,0.19069241,-0.12247889,0.27114254
335809409,0.19212587,-0.1294899,0.27028042
335833942,0.18495853,-0.1308921,0.27028042
335857947,0.18065815,-0.1308921,0.27114254
335879437,0.18925895,-0.13790311,0.27372894
335906867,0.19355933,-0.1294899,0.27028042
335930238,0.18925895,-0.13229431,0.26855615
335951437,0.17779122,-0.12668549,0.26941827
335975469,0.19212587,-0.13229431,0.27114254
335999437,0.19069241,-0.1294899,0.27200466
336023559,0.18925895,-0.13369651,0.27372894
336050100,0.19069241,-0.12247889,0.2745911
336074589,0.1949928,-0.12668549,0.26683187
336098710,0.19069241,-0.12247889,0.27286682
336121549,0.186392,-0.12668549,0.27114254
336146564,0.19355933,-0.12808768,0.26941827
336171044,0.18925895,-0.12528329,0.26941827
336195922,0.186392,-0.1308921,0.26941827
336218288,0.18782547,-0.13369651,0.27200466
336241522,0.1949928,-0.13790311,0.27114254
336266142,0.18782547,-0.1308921,0.27286682
336289011,0.18925895,-0.12528329,0.26855615
336315822,0.19069241,-0.14210972,0.27114254
336340448,0.20359357,-0.13930532,0.27028042
336363893,0.19355933,-0.12528329,0.27631533
336388121,0.186392,-0.1308921,0.27372894
336411441,0.18925895,-0.12668549,0.27286682
336435044,0.19355933,-0.1308921,0.26941827
336459679,0.19212587,-0.12528329,0.2745911
336484145,0.19642626,-0.12107668,0.27286682
336505895,0.18925895,-0.1294899,0.27286682
336531372,0.18782547,-0.13509871,0.27286682
336555910,0.19785972,-0.12247889,0.2745911
336579865,0.19355933,-0.12247889,0.27286682
336603440,0.19355933,-0.12808768,0.27114254
336627522,0.19212587,-0.12388109,0.26941827
336651902,0.1949928,-0.12107668,0.267694
336675902,0.19642626,-0.12808768,0.27028042
336699507,0.20072664,-0.11266346,0.26683187
336723441,0.19069241,-0.11827227,0.26683187
336747971,0.19212587,-0.1308921,0.26596975
336769461,0.19069241,-0.12528329,0.26596975
336795135,0.1949928,-0.11687007,0.26855615
336819446,0.19785972,-0.12247889,0.27028042
336840590,0.20502703,-0.11406566,0.27028042
336863295,0.19785972,-0.13229431,0.26941827
336886762,0.20072664,-0.11266346,0.267694
336909452,0.19785972,-0.11266346,0.267694
336931887,0.186392,-0.1308921,0.26941827
336954830,0.1949928,-0.11687007,0.267694
336979706,0.19212587,-0.12668549,0.26855615
337004355,0.19355933,-0.12808768,0.267694
337026973,0.20359357,-0.11546787,0.26683187
337050695,0.20789397,-0.11827227,0.26596975
337078073,0.1949928,-0.11687007,0.27028042
337101305,0.19642626,-0.11546787,0.267694
337123030,0.19929318,-0.11266346,0.26596975
337146691,0.18925895,-0.1294899,0.26683187
337170547,0.20359357,-0.13509871,0.26941827
337198106,0.19785972,-0.12247889,0.27200466
337221353,0.2021601,-0.11687007,0.26855615
337245907,0.19355933,-0.12808768,0.26683187
337270004,0.20072664,-0.10845685,0.267694
337293842,0.19069241,-0.11406566,0.267694
337317378,0.19069241,-0.11546787,0.267694
337341868,0.19785972,-0.11546787,0.26855615
337366288,0.19212587,-0.11687007,0.26941827
337390216,0.2021601,-0.11266346,0.26855615
337413776,0.19785972,-0.12107668,0.26941827
337438099,0.20072664,-0.11406566,0.26596975
337461862,0.18925895,-0.1308921,0.26683187
337485883,0.19785972,-0.1308921,0.26855615
337509033,0.19212587,-0.12247889,0.26855615
337530517,0.19355933,-0.12388109,0.26683187
337554632,0.20072664,-0.11546787,0.267694
337578586,0.19069241,-0.12247889,0.26596975
337602570,0.19785972,-0.11266346,0.26941827
337626533,0.18782547,-0.12808768,0.26683187
337653261,0.19642626,-0.12107668,0.26683187
337674554,0.20359357,-0.12247889,0.26424548
337698646,0.19069241,-0.11546787,0.26596975
337722568,0.19929318,-0.11266346,0.267694
337749269,0.19069241,-0.13650091,0.26683187
337775278,0.18782547,-0.11687007,0.26683187
337798768,0.1949928,-0.1308921,0.26424548
337823427,0.18495853,-0.12528329,0.26424548
337847167,0.20502703,-0.11827227,0.26596975
337871099,0.19069241,-0.12528329,0.26338333
337895490,0.19355933,-0.12388109,0.2625212
337919430,0.20072664,-0.12808768,0.26855615
337943449,0.19785972,-0.10284804,0.267694
337966510,0.19069241,-0.12247889,0.27200466
337988449,0.19355933,-0.1294899,0.27200466
338014937,0.19212587,-0.12247889,0.27717748
338038674,0.19212587,-0.12808768,0.27200466
338062738,0.18782547,-0.12808768,0.27631533
338083511,0.18925895,-0.14210972,0.2745911
338106519,0.186392,-0.13369651,0.28148815
338130069,0.186392,-0.14070752,0.2745911
338153555,0.19212587,-0.13790311,0.2797639
338177923,0.18925895,-0.13369651,0.2780396
338199441,0.1949928,-0.13369651,0.2754532
338222125,0.186392,-0.13930532,0.28062603
338244448,0.18782547,-0.1308921,0.27890176
338267438,0.186392,-0.14491414,0.28062603
338289542,0.19642626,-0.14351192,0.27372894
338311947,0.18209161,-0.1294899,0.2745911
338335062,0.18925895,-0.13790311,0.2745911
338358601,0.1949928,-0.13790311,0.2780396
338383054,0.1949928,-0.1308921,0.2797639
338407205,0.18925895,-0.15472955,0.27372894
338428437,0.19069241,-0.13509871,0.27717748
338451483,0.18495853,-0.1308921,0.2754532
338473501,0.18495853,-0.13650091,0.27200466
338496545,0.19355933,-0.12528329,0.27717748
338519375,0.18925895,-0.12668549,0.27631533
338539954,0.18925895,-0.12808768,0.27286682
338563760,0.19069241,-0.13790311,0.27631533
338587852,0.19069241,-0.12808768,0.2745911
338611702,0.19642626,-0.12668549,0.27286682
338635741,0.18925895,-0.1308921,0.26941827
338659713,0.19355933,-0.12808768,0.27114254
338684301,0.19785972,-0.12668549,0.27200466
338708432,0.1949928,-0.12668549,0.2745911
338732927,0.19069241,-0.12668549,0.27372894
338756337,0.18352507,-0.12247889,0.27372894
338777860,0.18782547,-0.12528329,0.27200466
338801509,0.186392,-0.12247889,0.27372894
338825489,0.19069241,-0.12668549,0.27286682
338849450,0.19212587,-0.12247889,0.27200466
338873490,0.18925895,-0.12388109,0.2745911
338900242,0.19212587,-0.1308921,0.27372894
338921530,0.19069241,-0.12528329,0.2745911
338944650,0.18925895,-0.12247889,0.27028042
338967404,0.19069241,-0.1294899,0.27028042
338991897,0.18782547,-0.12247889,0.27028042
339013464,0.186392,-0.12668549,0.27114254
339036519,0.18209161,-0.119674474,0.2754532
339060354,0.18925895,-0.12668549,0.26855615
339084365,0.186392,-0.11266346,0.27028042
339108568,0.1949928,-0.12247889,0.27114254
339131743,0.18495853,-0.12528329,0.27200466
339155710,0.18782547,-0.119674474,0.27286682
339180290,0.19785972,-0.119674474,0.26941827
339201941,0.18782547,-0.12107668,0.27114254
339225514,0.18925895,-0.12107668,0.26683187
339247500,0.18065815,-0.11827227,0.27028042
339274587,0.18495853,-0.11827227,0.26596975
339298230,0.19642626,-0.11266346,0.26855615
339319552,0.19355933,-0.11827227,0.26596975
339343499,0.20072664,-0.10705465,0.26079693
339370047,0.20072664,-0.111261256,0.2651076
339394177,0.19355933,-0.11546787,0.26338333
339418242,0.2021601,-0.10985905,0.2651076
339439437,0.19785972,-0.097239226,0.26855615
339466673,0.19069241,-0.11687007,0.2625212
339490719,0.186392,-0.12808768,0.2625212
339514134,0.19069241,-0.119674474,0.26338333
339535460,0.19929318,-0.11266346,0.26683187
339562690,0.19785972,-0.10985905,0.26424548
339586293,0.19069241,-0.10705465,0.26683187
339607489,0.1949928,-0.11406566,0.26596975
339631488,0.19212587,-0.11406566,0.267694
339655565,0.19785972,-0.11687007,0.26855615
339682836,0.19642626,-0.11687007,0.2651076
339706305,0.19929318,-0.10705465,0.26683187
339730197,0.19069241,-0.10845685,0.26683187
339755105,0.19642626,-0.10144583,0.26596975
339778281,0.2021601,-0.10705465,0.26683187
339802640,0.18495853,-0.12247889,0.26683187
339827437,0.19785972,-0.10845685,0.26596975
339851592,0.18352507,-0.12247889,0.2651076
339875437,0.1949928,-0.10705465,0.267694
339899391,0.18782547,-0.10845685,0.2651076
339923448,0.19642626,-0.10705465,0.26424548
339947510,0.19642626,-0.09864143,0.26424548
339970659,0.20072664,-0.11266346,0.26424548
339995059,0.19212587,-0.11827227,0.26941827
340018603,0.19355933,-0.10284804,0.26855615
340040437,0.19069241,-0.12668549,0.267694
340063460,0.18782547,-0.11827227,0.267694
340085496,0.19642626,-0.104250245,0.26855615
340108437,0.2021601,-0.10845685,0.26596975
340131351,0.18209161,-0.119674474,0.26596975
340155432,0.1949928,-0.10284804,0.26683187
340176448,0.19355933,-0.11406566,0.26855615
340199437,0.19212587,-0.11546787,0.26596975
340221532,0.18925895,-0.11687007,0.26424548
340243470,0.186392,-0.11546787,0.26596975
340268190,0.19355933,-0.119674474,0.2625212
340291112,0.18925895,-0.12528329,0.2651076
340311516,0.20359357,-0.104250245,0.267694
340333829,0.19355933,-0.11827227,0.26596975
340355968,0.19355933,-0.10144583,0.2651076
340379883,0.19355933,-0.10985905,0.2651076
340403461,0.19642626,-0.105652444,0.26596975
340427507,0.19929318,-0.11406566,0.26683187
340450728,0.19212587,-0.10985905,0.26855615
340475026,0.19069241,-0.11827227,0.26855615
340496447,0.18782547,-0.105652444,0.26941827
340520490,0.1949928,-0.12107668,0.27372894
340544437,0.19212587,-0.13509871,0.26941827
340568599,0.19355933,-0.12107668,0.26683187
340590518,0.1949928,-0.11827227,0.27028042
340613789,0.18782547,-0.11827227,0.27372894
340636522,0.19929318,-0.11687007,0.27114254
340658963,0.18352507,-0.12247889,0.27200466
340680460,0.18782547,-0.10845685,0.26941827
340707167,0.19212587,-0.104250245,0.27028042
340731026,0.19212587,-0.11546787,0.267694
340754724,0.18782547,-0.10705465,0.27200466
340780270,0.18495853,-0.10845685,0.27286682
340803389,0.18495853,-0.11406566,0.26941827
340827006,0.18352507,-0.105652444,0.27114254
340848451,0.18352507,-0.10985905,0.26683187
340871437,0.17779122,-0.10985905,0.2745911
340893492,0.17922468,-0.10985905,0.27200466
340917437,0.18209161,-0.12528329,0.26855615
340940259,0.18209161,-0.119674474,0.27286682
340964328,0.18065815,-0.11546787,0.27200466
340987865,0.18352507,-0.12107668,0.2754532
341009488,0.17922468,-0.111261256,0.27372894
341033472,0.18352507,-0.12107668,0.27286682
341061051,0.17779122,-0.12247889,0.27286682
341084538,0.17635776,-0.11827227,0.27286682
341108576,0.17635776,-0.11687007,0.267694
341134125,0.17922468,-0.11546787,0.27372894
341156681,0.1749243,-0.12247889,0.2745911
341180437,0.17349084,-0.11827227,0.27200466
341200437,0.17062391,-0.12388109,0.27200466
341223444,0.17635776,-0.12388109,0.2745911
341244535,0.17922468,-0.11546787,0.26683187
341269438,0.17635776,-0.12107668,0.27631533
341292692,0.17779122,-0.119674474,0.2754532
341316285,0.17349084,-0.12388109,0.27028042
341340348,0.17349084,-0.11406566,0.26683187
341364443,0.18209161,-0.12388109,0.267694
341385459,0.17779122,-0.11546787,0.26596975
341407459,0.18065815,-0.119674474,0.2651076
341429486,0.186392,-0.11266346,0.26855615
341453562,0.17922468,-0.11546787,0.2651076
341476741,0.18352507,-0.11266346,0.26424548
341499705,0.17635776,-0.111261256,0.2625212
341524559,0.18065815,-0.09583703,0.2616591
341548764,0.17635776,-0.097239226,0.26424548
341573295,0.18495853,-0.10004363,0.26683187
341596225,0.18352507,-0.105652444,0.26424548
341617990,0.18782547,-0.10705465,0.2651076
341641853,0.19069241,-0.10144583,0.2616591
341665802,0.18782547,-0.10284804,0.2625212
341689799,0.19929318,-0.08742381,0.26079693
341710573,0.2064605,-0.09022821,0.25821054
341734671,0.21219437,-0.08742381,0.25562412
341757450,0.21936168,-0.06078195,0.2573484
341781344,0.2222286,-0.06218415,0.254762
341803509,0.23082939,-0.057977542,0.25217557
341825932,0.23512979,-0.050966524,0.25131345
341847459,0.22796246,-0.055173133,0.25045133
341870635,0.23226285,-0.053770933,0.24958917
341893044,0.24086364,-0.041151103,0.24872705
341916917,0.22939593,-0.046759915,0.25045133
341939868,0.23082939,-0.04816212,0.24872705
341961871,0.23369633,-0.055173133,0.24700278
341985906,0.23369633,-0.057977542,0.24872705
342009514,0.23082939,-0.04956432,0.24700278
342033439,0.22509554,-0.046759915,0.25303772
342058043,0.21936168,-0.057977542,0.25821054
342082581,0.2107609,-0.06779296,0.25648624
342106569,0.18782547,-0.097239226,0.2599348
342130546,0.19069241,-0.0860216,0.2625212
342154691,0.17779122,-0.09864143,0.2599348
342178199,0.1749243,-0.111261256,0.26079693
342199578,0.17635776,-0.11687007,0.25907266
342223449,0.17922468,-0.10845685,0.26079693
342246507,0.15915619,-0.12388109,0.26424548
342269437,0.16345657,-0.111261256,0.2625212
342291865,0.16202311,-0.1294899,0.26424548
342316361,0.14052115,-0.13369651,0.26683187
342339482,0.12761997,-0.14070752,0.26683187
342360437,0.11041841,-0.16734938,0.26596975
342382612,0.10181763,-0.1771648,0.26941827
342404437,0.08604952,-0.18698022,0.2651076
342427453,0.08031566,-0.21221986,0.2651076
342451852,0.07171488,-0.2248397,0.2651076
342476418,0.07171488,-0.2262419,0.26338333
342499552,0.061680626,-0.23044851,0.26079693
342523437,0.06454755,-0.2276441,0.2599348
342547844,0.05738024,-0.2248397,0.26338333
342571880,0.05451331,-0.2276441,0.2599348
342595322,0.060247164,-0.24867715,0.25907266
342616481,0.07314834,-0.24727495,0.26424548
342639322,0.08604952,-0.2276441,0.2616591
342662596,0.09895069,-0.19960006,0.2599348
342686783,0.11328534,-0.1757626,0.2573484
342710590,0.12188612,-0.16174057,0.2599348
342731981,0.11328534,-0.1743604,0.25821054
342755882,0.12475305,-0.18277362,0.2599348
342779877,0.12188612,-0.1757626,0.25821054
342803588,0.12045266,-0.17015378,0.25562412
342827963,0.12188612,-0.17155598,0.25562412
342851444,0.116152264,-0.15472955,0.25648624
342875379,0.119019195,-0.16875158,0.25648624
342899803,0.119019195,-0.15613174,0.25821054
342923634,0.11185188,-0.17155598,0.254762
342947458,0.12188612,-0.15472955,0.25821054
342971439,0.12761997,-0.15613174,0.25907266
342995658,0.11041841,-0.15472955,0.26424548
343019727,0.104684554,-0.18838243,0.27717748
343042654,0.10898494,-0.19399123,0.2573484
343070016,0.10898494,-0.20520887,0.26079693
343093382,0.11041841,-0.16033836,0.25217557
343114585,0.106118016,-0.17155598,0.2616591
343138591,0.11185188,-0.15893616,0.25907266
343160532,0.1147188,-0.15753396,0.2599348
343182795,0.10755148,-0.16454498,0.25907266
343205032,0.10038415,-0.16033836,0.25821054
343225711,0.10325109,-0.17856699,0.25648624
343248274,0.09608377,-0.1729582,0.26079693
343272206,0.090349905,-0.18277362,0.25648624
343294078,0.09178338,-0.18978463,0.2599348
343318533,0.094650306,-0.18698022,0.25907266
343341064,0.08891644,-0.20240445,0.25907266
343366573,0.08748298,-0.21221986,0.25562412
343389861,0.093216844,-0.19118683,0.25907266
343414627,0.08461606,-0.20100226,0.26079693
343436694,0.08604952,-0.19399123,0.2573484
343461481,0.07458181,-0.20240445,0.25562412
343485245,0.08174913,-0.19399123,0.25389984
343510194,0.083182596,-0.19118683,0.25131345
343534552,0.083182596,-0.19539343,0.25217557
343557450,0.07744873,-0.19399123,0.25389984
343581324,0.08461606,-0.19539343,0.25217557
343602594,0.08174913,-0.20661107,0.25131345
343626530,0.08461606,-0.20240445,0.25217557
343648466,0.08031566,-0.19819786,0.25217557
343669616,0.07601527,-0.19960006,0.25303772
343694038,0.08604952,-0.20520887,0.25217557
343717204,0.07171488,-0.19539343,0.25131345
343737544,0.08031566,-0.19960006,0.25303772
343760990,0.08174913,-0.20380665,0.24872705
343782745,0.08604952,-0.20520887,0.25303772
