timestamp,min_distance,max_distance,current_distance,covariance,signal_quality,type,id,orientation
310010937,0.01,50.0,10.099999,0.0,4,0,4,6
310076757,0.01,50.0,10.219999,0.0,64,0,4,6
310108426,0.01,50.0,10.2,0.0,0,0,4,6
310141093,0.01,50.0,9.929999,0.0,64,0,4,6
310172132,0.01,50.0,9.84,0.0,64,0,4,6
310204191,0.01,50.0,9.91,0.0,64,0,4,6
310236353,0.01,50.0,10.0199995,0.0,64,0,4,6
310268391,0.01,50.0,10.23,0.0,64,0,4,6
310300891,0.01,50.0,10.21,0.0,64,0,4,6
310333303,0.01,50.0,10.12,0.0,64,0,4,6
310365803,0.01,50.0,9.95,0.0,64,0,4,6
310397791,0.01,50.0,9.92,0.0,64,0,4,6
310429789,0.01,50.0,9.929999,0.0,0,0,4,6
310461763,0.01,50.0,10.23,0.0,64,0,4,6
310492972,0.01,50.0,10.17,0.0,64,0,4,6
310525118,0.01,50.0,10.12,0.0,64,0,4,6
310556988,0.01,50.0,10.179999,0.0,64,0,4,6
310589115,0.01,50.0,9.75,0.0,0,0,4,6
310621552,0.01,50.0,9.929999,0.0,64,0,4,6
310652940,0.01,50.0,9.969999,0.0,64,0,4,6
310686034,0.01,50.0,10.21,0.0,64,0,4,6
310718205,0.01,50.0,10.24,0.0,64,0,4,6
310749915,0.01,50.0,10.23,0.0,64,0,4,6
310781548,0.01,50.0,10.2,0.0,4,0,4,6
310814139,0.01,50.0,10.15,0.0,64,0,4,6
310844770,0.01,50.0,10.12,0.0,64,0,4,6
310876224,0.01,50.0,10.0199995,0.0,4,0,4,6
310907848,0.01,50.0,10.16,0.0,64,0,4,6
310938825,0.01,50.0,10.17,0.0,0,0,4,6
310971917,0.01,50.0,10.139999,0.0,64,0,4,6
311002827,0.01,50.0,10.0,0.0,4,0,4,6
311034895,0.01,50.0,10.05,0.0,64,0,4,6
311066874,0.01,50.0,10.05,0.0,0,0,4,6
311098867,0.01,50.0,10.16,0.0,0,0,4,6
311131127,0.01,50.0,10.16,0.0,64,0,4,6
311162928,0.01,50.0,10.15,0.0,64,0,4,6
311195125,0.01,50.0,10.09,0.0,4,0,4,6
311227186,0.01,50.0,10.0199995,0.0,64,0,4,6
311259747,0.01,50.0,10.13,0.0,0,0,4,6
311291750,0.01,50.0,10.07,0.0,64,0,4,6
311323744,0.01,50.0,10.04,0.0,64,0,4,6
311355758,0.01,50.0,10.059999,0.0,64,0,4,6
311387801,0.01,50.0,10.15,0.0,64,0,4,6
311419797,0.01,50.0,10.17,0.0,0,0,4,6
311452388,0.01,50.0,10.12,0.0,64,0,4,6
311484016,0.01,50.0,10.04,0.0,64,0,4,6
311516460,0.01,50.0,10.11,0.0,0,0,4,6
311548566,0.01,50.0,10.09,0.0,4,0,4,6
311580364,0.01,50.0,10.19,0.0,64,0,4,6
311612742,0.01,50.0,10.13,0.0,64,0,4,6
311644952,0.01,50.0,10.139999,0.0,4,0,4,6
311676234,0.01,50.0,10.059999,0.0,64,0,4,6
311708125,0.01,50.0,10.03,0.0,64,0,4,6
311740937,0.01,50.0,10.07,0.0,64,0,4,6
311772788,0.01,50.0,10.099999,0.0,64,0,4,6
311804160,0.01,50.0,10.17,0.0,64,0,4,6
311836944,0.01,50.0,10.12,0.0,64,0,4,6
311868745,0.01,50.0,10.08,0.0,64,0,4,6
311899972,0.01,50.0,10.05,0.0,64,0,4,6
311933382,0.01,50.0,9.98,0.0,64,0,4,6
311965768,0.01,50.0,10.15,0.0,64,0,4,6
311996953,0.01,50.0,10.13,0.0,0,0,4,6
312028953,0.01,50.0,10.03,0.0,0,0,4,6
312060742,0.01,50.0,10.08,0.0,64,0,4,6
312092142,0.01,50.0,10.07,0.0,64,0,4,6
312124913,0.01,50.0,10.11,0.0,0,0,4,6
312156769,0.01,50.0,10.09,0.0,64,0,4,6
312189141,0.01,50.0,9.969999,0.0,64,0,4,6
312222051,0.01,50.0,10.11,0.0,0,0,4,6
312253767,0.01,50.0,10.13,0.0,64,0,4,6
312286210,0.01,50.0,10.179999,0.0,64,0,4,6
312318114,0.01,50.0,10.08,0.0,0,0,4,6
312350223,0.01,50.0,10.139999,0.0,64,0,4,6
312381760,0.01,50.0,10.05,0.0,0,0,4,6
312414492,0.01,50.0,9.969999,0.0,0,0,4,6
312446863,0.01,50.0,10.139999,0.0,64,0,4,6
312478316,0.01,50.0,10.139999,0.0,64,0,4,6
312510825,0.01,50.0,10.059999,0.0,0,0,4,6
312542884,0.01,50.0,10.03,0.0,64,0,4,6
312574080,0.01,50.0,10.07,0.0,64,0,4,6
312606291,0.01,50.0,10.139999,0.0,64,0,4,6
312638887,0.01,50.0,10.01,0.0,0,0,4,6
312669746,0.01,50.0,10.03,0.0,0,0,4,6
312702201,0.01,50.0,10.03,0.0,64,0,4,6
312734247,0.01,50.0,10.08,0.0,64,0,4,6
312766884,0.01,50.0,10.059999,0.0,64,0,4,6
312798853,0.01,50.0,10.11,0.0,64,0,4,6
312830187,0.01,50.0,10.15,0.0,4,0,4,6
312862549,0.01,50.0,10.139999,0.0,64,0,4,6
312894887,0.01,50.0,10.16,0.0,64,0,4,6
312925797,0.01,50.0,10.01,0.0,64,0,4,6
312959111,0.01,50.0,10.03,0.0,0,0,4,6
312992296,0.01,50.0,10.12,0.0,0,0,4,6
313024143,0.01,50.0,10.11,0.0,64,0,4,6
313055757,0.01,50.0,10.08,0.0,64,0,4,6
313087844,0.01,50.0,10.11,0.0,112,0,4,6
313119885,0.01,50.0,10.03,0.0,64,0,4,6
313152148,0.01,50.0,10.059999,0.0,64,0,4,6
313183742,0.01,50.0,10.01,0.0,64,0,4,6
313215320,0.01,50.0,10.01,0.0,64,0,4,6
313248371,0.01,50.0,10.11,0.0,64,0,4,6
313280743,0.01,50.0,10.13,0.0,64,0,4,6
313312219,0.01,50.0,10.12,0.0,4,0,4,6
313343748,0.01,50.0,9.98,0.0,64,0,4,6
313375774,0.01,50.0,10.03,0.0,64,0,4,6
313407841,0.01,50.0,9.92,0.0,4,0,4,6
313440260,0.01,50.0,9.58,0.0,4,0,4,6
313471744,0.01,50.0,9.71,0.0,64,0,4,6
313503768,0.01,50.0,9.49,0.0,64,0,4,6
313535757,0.01,50.0,9.5,0.0,64,0,4,6
313567384,0.01,50.0,9.54,0.0,64,0,4,6
313600148,0.01,50.0,9.65,0.0,64,0,4,6
313631532,0.01,50.0,9.53,0.0,64,0,4,6
313663817,0.01,50.0,9.7,0.0,64,0,4,6
313696345,0.01,50.0,9.73,0.0,64,0,4,6
313728755,0.01,50.0,9.69,0.0,64,0,4,6
313760759,0.01,50.0,9.639999,0.0,64,0,4,6
313792761,0.01,50.0,9.639999,0.0,-116,0,4,6
313824757,0.01,50.0,9.719999,0.0,64,0,4,6
313856745,0.01,50.0,9.71,0.0,64,0,4,6
313888901,0.01,50.0,9.58,0.0,0,0,4,6
313920564,0.01,50.0,9.28,0.0,0,0,4,6
313952758,0.01,50.0,9.309999,0.0,64,0,4,6
313984380,0.01,50.0,9.45,0.0,64,0,4,6
314016757,0.01,50.0,9.429999,0.0,64,0,4,6
314048409,0.01,50.0,9.17,0.0,0,0,4,6
314080762,0.01,50.0,8.98,0.0,64,0,4,6
314112414,0.01,50.0,9.42,0.0,64,0,4,6
314144742,0.01,50.0,9.44,0.0,64,0,4,6
314176748,0.01,50.0,9.65,0.0,64,0,4,6
314208806,0.01,50.0,9.78,0.0,75,0,4,6
314240298,0.01,50.0,9.74,0.0,64,0,4,6
314272335,0.01,50.0,9.79,0.0,64,0,4,6
314304745,0.01,50.0,9.95,0.0,64,0,4,6
314336764,0.01,50.0,10.03,0.0,0,0,4,6
314368753,0.01,50.0,9.9,0.0,64,0,4,6
314400763,0.01,50.0,10.23,0.0,64,0,4,6
314433291,0.01,50.0,10.24,0.0,0,0,4,6
314463742,0.01,50.0,10.24,0.0,64,0,4,6
314495758,0.01,50.0,10.179999,0.0,64,0,4,6
314527828,0.01,50.0,10.16,0.0,64,0,4,6
314559768,0.01,50.0,10.16,0.0,64,0,4,6
314591765,0.01,50.0,10.099999,0.0,64,0,4,6
314623747,0.01,50.0,10.16,0.0,64,0,4,6
314654866,0.01,50.0,10.179999,0.0,0,0,4,6
314686859,0.01,50.0,10.139999,0.0,0,0,4,6
314718917,0.01,50.0,10.16,0.0,64,0,4,6
314750852,0.01,50.0,10.15,0.0,64,0,4,6
314782849,0.01,50.0,10.15,0.0,64,0,4,6
314814899,0.01,50.0,10.23,0.0,64,0,4,6
314846540,0.01,50.0,10.38,0.0,64,0,4,6
314878888,0.01,50.0,10.41,0.0,64,0,4,6
314911334,0.01,50.0,10.36,0.0,4,0,4,6
314943758,0.01,50.0,10.309999,0.0,64,0,4,6
314975079,0.01,50.0,10.33,0.0,0,0,4,6
315006975,0.01,50.0,10.41,0.0,64,0,4,6
315356187,0.01,50.0,9.01,0.0,64,0,4,6
315388967,0.01,50.0,8.87,0.0,0,0,4,6
315420746,0.01,50.0,8.76,0.0,64,0,4,6
315452748,0.01,50.0,8.69,0.0,0,0,4,6
315484502,0.01,50.0,8.67,0.0,4,0,4,6
315516306,0.01,50.0,8.679999,0.0,0,0,4,6
315548270,0.01,50.0,8.679999,0.0,0,0,4,6
315581414,0.01,50.0,8.69,0.0,64,0,4,6
315613816,0.01,50.0,8.67,0.0,64,0,4,6
315645758,0.01,50.0,8.7,0.0,64,0,4,6
315677355,0.01,50.0,8.69,0.0,64,0,4,6
315709925,0.01,50.0,8.69,0.0,0,0,4,6
315741805,0.01,50.0,8.71,0.0,64,0,4,6
315773479,0.01,50.0,8.72,0.0,64,0,4,6
315805752,0.01,50.0,8.73,0.0,-68,0,4,6
315836989,0.01,50.0,8.72,0.0,4,0,4,6
315868950,0.01,50.0,8.74,0.0,64,0,4,6
315900770,0.01,50.0,8.73,0.0,0,0,4,6
315931780,0.01,50.0,8.74,0.0,64,0,4,6
315962926,0.01,50.0,8.74,0.0,4,0,4,6
315995370,0.01,50.0,8.7699995,0.0,4,0,4,6
316027387,0.01,50.0,8.7699995,0.0,4,0,4,6
316058850,0.01,50.0,8.78,0.0,4,0,4,6
316091402,0.01,50.0,8.9,0.0,4,0,4,6
316122813,0.01,50.0,9.05,0.0,4,0,4,6
316154552,0.01,50.0,9.28,0.0,4,0,4,6
316186951,0.01,50.0,9.51,0.0,4,0,4,6
316218617,0.01,50.0,9.13,0.0,4,0,4,6
316250999,0.01,50.0,8.98,0.0,4,0,4,6
316283329,0.01,50.0,9.059999,0.0,4,0,4,6
316315142,0.01,50.0,9.0199995,0.0,4,0,4,6
316347357,0.01,50.0,9.059999,0.0,4,0,4,6
316378894,0.01,50.0,9.0199995,0.0,4,0,4,6
316410536,0.01,50.0,9.04,0.0,4,0,4,6
316442949,0.01,50.0,9.07,0.0,4,0,4,6
316475379,0.01,50.0,9.139999,0.0,4,0,4,6
316507802,0.01,50.0,9.08,0.0,64,0,4,6
316539767,0.01,50.0,9.09,0.0,64,0,4,6
316571601,0.01,50.0,9.11,0.0,4,0,4,6
316603043,0.01,50.0,9.12,0.0,4,0,4,6
316635404,0.01,50.0,9.11,0.0,4,0,4,6
316667364,0.01,50.0,9.139999,0.0,4,0,4,6
316699071,0.01,50.0,9.139999,0.0,4,0,4,6
316731362,0.01,50.0,9.15,0.0,4,0,4,6
316763335,0.01,50.0,9.16,0.0,4,0,4,6
316795074,0.01,50.0,9.46,0.0,4,0,4,6
316827343,0.01,50.0,9.92,0.0,4,0,4,6
316859125,0.01,50.0,10.349999,0.0,4,0,4,6
316890914,0.01,50.0,10.75,0.0,4,0,4,6
316923013,0.01,50.0,10.8,0.0,4,0,4,6
316954954,0.01,50.0,10.87,0.0,4,0,4,6
316987332,0.01,50.0,11.01,0.0,4,0,4,6
317019324,0.01,50.0,11.05,0.0,4,0,4,6
317050889,0.01,50.0,11.07,0.0,4,0,4,6
317083307,0.01,50.0,11.13,0.0,4,0,4,6
317115506,0.01,50.0,11.16,0.0,4,0,4,6
317147344,0.01,50.0,11.28,0.0,4,0,4,6
317179325,0.01,50.0,11.349999,0.0,4,0,4,6
317211361,0.01,50.0,11.29,0.0,4,0,4,6
317243390,0.01,50.0,11.2699995,0.0,4,0,4,6
317275338,0.01,50.0,11.3,0.0,4,0,4,6
317307350,0.01,50.0,11.36,0.0,4,0,4,6
317339101,0.01,50.0,11.28,0.0,4,0,4,6
317371548,0.01,50.0,11.49,0.0,4,0,4,6
317403421,0.01,50.0,11.54,0.0,4,0,4,6
317436292,0.01,50.0,11.58,0.0,64,0,4,6
317468506,0.01,50.0,11.61,0.0,64,0,4,6
317500975,0.01,50.0,11.62,0.0,64,0,4,6
317532918,0.01,50.0,11.49,0.0,64,0,4,6
317564745,0.01,50.0,11.44,0.0,64,0,4,6
317596742,0.01,50.0,11.4,0.0,64,0,4,6
317628763,0.01,50.0,11.389999,0.0,64,0,4,6
317660760,0.01,50.0,11.429999,0.0,64,0,4,6
317692770,0.01,50.0,11.46,0.0,64,0,4,6
317724769,0.01,50.0,11.45,0.0,64,0,4,6
317756456,0.01,50.0,11.59,0.0,0,0,4,6
317788534,0.01,50.0,11.639999,0.0,4,0,4,6
317820938,0.01,50.0,11.67,0.0,64,0,4,6
317852981,0.01,50.0,11.599999,0.0,64,0,4,6
317884560,0.01,50.0,11.49,0.0,4,0,4,6
317916745,0.01,50.0,11.49,0.0,64,0,4,6
317948606,0.01,50.0,11.49,0.0,64,0,4,6
317980748,0.01,50.0,11.49,0.0,64,0,4,6
318012974,0.01,50.0,11.5,0.0,0,0,4,6
318044455,0.01,50.0,11.53,0.0,64,0,4,6
318077001,0.01,50.0,11.63,0.0,64,0,4,6
318108756,0.01,50.0,11.75,0.0,64,0,4,6
318140938,0.01,50.0,11.73,0.0,0,0,4,6
318173171,0.01,50.0,11.69,0.0,52,0,4,6
318204763,0.01,50.0,11.58,0.0,64,0,4,6
318236742,0.01,50.0,11.5199995,0.0,64,0,4,6
318268180,0.01,50.0,11.559999,0.0,4,0,4,6
318300155,0.01,50.0,11.53,0.0,4,0,4,6
318331336,0.01,50.0,11.53,0.0,0,0,4,6
318362973,0.01,50.0,11.54,0.0,4,0,4,6
318395312,0.01,50.0,11.54,0.0,4,0,4,6
318427680,0.01,50.0,11.67,0.0,4,0,4,6
319261912,0.01,50.0,10.15,0.0,64,0,4,6
319293471,0.01,50.0,10.16,0.0,4,0,4,6
319325393,0.01,50.0,10.16,0.0,4,0,4,6
319357774,0.01,50.0,10.179999,0.0,4,0,4,6
319388975,0.01,50.0,10.2,0.0,4,0,4,6
319420962,0.01,50.0,10.21,0.0,4,0,4,6
319453555,0.01,50.0,10.19,0.0,4,0,4,6
319484915,0.01,50.0,10.21,0.0,4,0,4,6
319517369,0.01,50.0,10.219999,0.0,4,0,4,6
319549779,0.01,50.0,10.2,0.0,64,0,4,6
319581121,0.01,50.0,10.2,0.0,4,0,4,6
319613309,0.01,50.0,10.17,0.0,4,0,4,6
319645422,0.01,50.0,10.179999,0.0,4,0,4,6
319678551,0.01,50.0,10.179999,0.0,4,0,4,6
319710212,0.01,50.0,10.17,0.0,4,0,4,6
319741892,0.01,50.0,10.07,0.0,64,0,4,6
319774262,0.01,50.0,10.0,0.0,64,0,4,6
319806363,0.01,50.0,9.96,0.0,64,0,4,6
319838830,0.01,50.0,9.96,0.0,64,0,4,6
319869961,0.01,50.0,9.95,0.0,64,0,4,6
319901931,0.01,50.0,9.96,0.0,64,0,4,6
319933756,0.01,50.0,9.95,0.0,64,0,4,6
319965761,0.01,50.0,9.95,0.0,64,0,4,6
319998122,0.01,50.0,9.95,0.0,64,0,4,6
320029758,0.01,50.0,9.94,0.0,64,0,4,6
320061751,0.01,50.0,9.95,0.0,64,0,4,6
320093758,0.01,50.0,9.9,0.0,64,0,4,6
320125892,0.01,50.0,9.929999,0.0,0,0,4,6
320157800,0.01,50.0,9.9,0.0,64,0,4,6
320189778,0.01,50.0,9.92,0.0,64,0,4,6
320222155,0.01,50.0,9.929999,0.0,0,0,4,6
320254077,0.01,50.0,9.9,0.0,0,0,4,6
320285946,0.01,50.0,9.91,0.0,0,0,4,6
320318125,0.01,50.0,9.92,0.0,64,0,4,6
320349759,0.01,50.0,9.9,0.0,64,0,4,6
320381778,0.01,50.0,9.889999,0.0,0,0,4,6
320415807,0.01,50.0,9.889999,0.0,64,0,4,6
320447809,0.01,50.0,9.91,0.0,64,0,4,6
320479960,0.01,50.0,9.9,0.0,64,0,4,6
320511749,0.01,50.0,9.889999,0.0,64,0,4,6
320543801,0.01,50.0,9.889999,0.0,64,0,4,6
320575851,0.01,50.0,9.9,0.0,64,0,4,6
320608166,0.01,50.0,9.87,0.0,64,0,4,6
320639783,0.01,50.0,9.88,0.0,64,0,4,6
320672147,0.01,50.0,9.86,0.0,4,0,4,6
320704183,0.01,50.0,9.86,0.0,64,0,4,6
320735750,0.01,50.0,9.87,0.0,64,0,4,6
320767337,0.01,50.0,9.87,0.0,64,0,4,6
320799908,0.01,50.0,9.86,0.0,0,0,4,6
320831798,0.01,50.0,9.86,0.0,64,0,4,6
320863304,0.01,50.0,9.84,0.0,64,0,4,6
320896222,0.01,50.0,9.9,0.0,64,0,4,6
320927821,0.01,50.0,9.929999,0.0,64,0,4,6
320959919,0.01,50.0,9.969999,0.0,64,0,4,6
320991756,0.01,50.0,10.03,0.0,64,0,4,6
321023747,0.01,50.0,10.03,0.0,64,0,4,6
321055780,0.01,50.0,10.03,0.0,64,0,4,6
321088167,0.01,50.0,10.01,0.0,64,0,4,6
321119372,0.01,50.0,10.0199995,0.0,4,0,4,6
321150858,0.01,50.0,10.01,0.0,4,0,4,6
321181742,0.01,50.0,10.01,0.0,64,0,4,6
321213760,0.01,50.0,9.96,0.0,64,0,4,6
321245945,0.01,50.0,9.469999,0.0,-72,0,4,6
321277927,0.01,50.0,9.16,0.0,64,0,4,6
321309743,0.01,50.0,9.16,0.0,64,0,4,6
321341750,0.01,50.0,9.16,0.0,64,0,4,6
321373783,0.01,50.0,9.16,0.0,64,0,4,6
321405749,0.01,50.0,9.15,0.0,0,0,4,6
321437995,0.01,50.0,9.13,0.0,64,0,4,6
321468918,0.01,50.0,9.15,0.0,64,0,4,6
321500155,0.01,50.0,9.13,0.0,64,0,4,6
321530944,0.01,50.0,9.13,0.0,4,0,4,6
321563927,0.01,50.0,9.13,0.0,4,0,4,6
321596358,0.01,50.0,9.13,0.0,64,0,4,6
321628756,0.01,50.0,9.22,0.0,64,0,4,6
321660772,0.01,50.0,9.49,0.0,64,0,4,6
321692317,0.01,50.0,9.71,0.0,0,0,4,6
321722966,0.01,50.0,9.86,0.0,4,0,4,6
321754918,0.01,50.0,9.849999,0.0,4,0,4,6
321786974,0.01,50.0,9.87,0.0,4,0,4,6
321819017,0.01,50.0,9.849999,0.0,4,0,4,6
321850728,0.01,50.0,9.87,0.0,4,0,4,6
321884184,0.01,50.0,9.889999,0.0,4,0,4,6
321916150,0.01,50.0,9.9,0.0,4,0,4,6
321947832,0.01,50.0,9.889999,0.0,4,0,4,6
321979909,0.01,50.0,9.889999,0.0,4,0,4,6
322011810,0.01,50.0,9.86,0.0,4,0,4,6
322043748,0.01,50.0,9.849999,0.0,4,0,4,6
322075845,0.01,50.0,9.88,0.0,4,0,4,6
322108352,0.01,50.0,9.87,0.0,4,0,4,6
322140143,0.01,50.0,9.87,0.0,4,0,4,6
322171566,0.01,50.0,9.87,0.0,4,0,4,6
322204319,0.01,50.0,9.87,0.0,4,0,4,6
322235807,0.01,50.0,9.78,0.0,4,0,4,6
322267373,0.01,50.0,9.69,0.0,4,0,4,6
322300595,0.01,50.0,9.63,0.0,4,0,4,6
322331752,0.01,50.0,9.62,0.0,4,0,4,6
322363577,0.01,50.0,9.62,0.0,4,0,4,6
322396354,0.01,50.0,9.599999,0.0,4,0,4,6
322427829,0.01,50.0,9.599999,0.0,4,0,4,6
322460141,0.01,50.0,9.58,0.0,4,0,4,6
322491798,0.01,50.0,9.59,0.0,4,0,4,6
322524363,0.01,50.0,9.58,0.0,4,0,4,6
322556659,0.01,50.0,9.54,0.0,4,0,4,6
322588553,0.01,50.0,9.139999,0.0,4,0,4,6
322620770,0.01,50.0,9.09,0.0,4,0,4,6
322652662,0.01,50.0,8.98,0.0,4,0,4,6
322684765,0.01,50.0,8.96,0.0,4,0,4,6
322716954,0.01,50.0,8.95,0.0,4,0,4,6
322748379,0.01,50.0,8.95,0.0,4,0,4,6
322780979,0.01,50.0,8.94,0.0,4,0,4,6
322812907,0.01,50.0,8.94,0.0,4,0,4,6
322844605,0.01,50.0,8.929999,0.0,4,0,4,6
322876633,0.01,50.0,8.92,0.0,4,0,4,6
322908748,0.01,50.0,8.91,0.0,4,0,4,6
322940554,0.01,50.0,8.91,0.0,4,0,4,6
322972758,0.01,50.0,8.9,0.0,4,0,4,6
323004640,0.01,50.0,8.889999,0.0,4,0,4,6
323036583,0.01,50.0,8.88,0.0,4,0,4,6
323068625,0.01,50.0,8.88,0.0,4,0,4,6
323100576,0.01,50.0,8.889999,0.0,4,0,4,6
323132536,0.01,50.0,8.87,0.0,4,0,4,6
323164646,0.01,50.0,8.86,0.0,4,0,4,6
323196617,0.01,50.0,8.86,0.0,4,0,4,6
323228911,0.01,50.0,8.849999,0.0,4,0,4,6
323260583,0.01,50.0,8.84,0.0,4,0,4,6
323292652,0.01,50.0,8.83,0.0,4,0,4,6
323324740,0.01,50.0,8.83,0.0,0,0,4,6
323357433,0.01,50.0,8.83,0.0,4,0,4,6
323389717,0.01,50.0,8.82,0.0,4,0,4,6
323421889,0.01,50.0,8.82,0.0,4,0,4,6
323453860,0.01,50.0,8.78,0.0,4,0,4,6
323485743,0.01,50.0,8.79,0.0,4,0,4,6
323517817,0.01,50.0,8.79,0.0,4,0,4,6
323549773,0.01,50.0,8.78,0.0,64,0,4,6
323581930,0.01,50.0,8.79,0.0,64,0,4,6
323613848,0.01,50.0,8.84,0.0,64,0,4,6
323645756,0.01,50.0,8.83,0.0,64,0,4,6
323677304,0.01,50.0,8.92,0.0,64,0,4,6
323709157,0.01,50.0,8.91,0.0,64,0,4,6
323741263,0.01,50.0,9.33,0.0,64,0,4,6
323773121,0.01,50.0,9.34,0.0,0,0,4,6
323803998,0.01,50.0,9.33,0.0,4,0,4,6
323835786,0.01,50.0,9.33,0.0,4,0,4,6
323867884,0.01,50.0,9.3,0.0,4,0,4,6
323899816,0.01,50.0,9.32,0.0,4,0,4,6
323931726,0.01,50.0,9.33,0.0,4,0,4,6
323963843,0.01,50.0,9.309999,0.0,-68,0,4,6
323995792,0.01,50.0,9.309999,0.0,4,0,4,6
324027804,0.01,50.0,9.349999,0.0,4,0,4,6
324059845,0.01,50.0,9.37,0.0,4,0,4,6
324092594,0.01,50.0,9.46,0.0,4,0,4,6
324124735,0.01,50.0,9.5,0.0,4,0,4,6
324156916,0.01,50.0,9.5199995,0.0,4,0,4,6
324188759,0.01,50.0,9.49,0.0,4,0,4,6
324220495,0.01,50.0,9.48,0.0,4,0,4,6
324252666,0.01,50.0,9.48,0.0,4,0,4,6
324284707,0.01,50.0,9.469999,0.0,4,0,4,6
324316203,0.01,50.0,9.46,0.0,4,0,4,6
324348943,0.01,50.0,9.44,0.0,4,0,4,6
324380517,0.01,50.0,9.44,0.0,4,0,4,6
324412171,0.01,50.0,9.45,0.0,4,0,4,6
324445351,0.01,50.0,9.45,0.0,4,0,4,6
324478587,0.01,50.0,9.45,0.0,64,0,4,6
324510888,0.01,50.0,9.4,0.0,0,0,4,6
324542592,0.01,50.0,9.429999,0.0,4,0,4,6
324574850,0.01,50.0,9.389999,0.0,64,0,4,6
324606576,0.01,50.0,9.389999,0.0,64,0,4,6
324639013,0.01,50.0,9.389999,0.0,4,0,4,6
324670996,0.01,50.0,9.389999,0.0,64,0,4,6
324702850,0.01,50.0,9.38,0.0,64,0,4,6
324734917,0.01,50.0,9.389999,0.0,64,0,4,6
324766580,0.01,50.0,9.37,0.0,64,0,4,6
324798825,0.01,50.0,9.37,0.0,0,0,4,6
324831518,0.01,50.0,9.37,0.0,64,0,4,6
324864337,0.01,50.0,9.37,0.0,64,0,4,6
324896753,0.01,50.0,9.349999,0.0,64,0,4,6
324928547,0.01,50.0,9.33,0.0,64,0,4,6
324960756,0.01,50.0,9.33,0.0,64,0,4,6
324992750,0.01,50.0,9.33,0.0,64,0,4,6
325024902,0.01,50.0,9.34,0.0,64,0,4,6
325056763,0.01,50.0,9.32,0.0,64,0,4,6
325088524,0.01,50.0,9.33,0.0,64,0,4,6
325121202,0.01,50.0,9.32,0.0,4,0,4,6
325152965,0.01,50.0,9.309999,0.0,0,0,4,6
325184328,0.01,50.0,9.309999,0.0,0,0,4,6
325216985,0.01,50.0,9.3,0.0,64,0,4,6
325248458,0.01,50.0,9.28,0.0,0,0,4,6
325280939,0.01,50.0,9.2699995,0.0,0,0,4,6
325312304,0.01,50.0,9.29,0.0,64,0,4,6
325344344,0.01,50.0,9.2699995,0.0,64,0,4,6
325376925,0.01,50.0,9.29,0.0,0,0,4,6
325408570,0.01,50.0,9.2699995,0.0,64,0,4,6
325440295,0.01,50.0,9.2699995,0.0,64,0,4,6
325472182,0.01,50.0,9.25,0.0,4,0,4,6
325503023,0.01,50.0,9.24,0.0,4,0,4,6
325534564,0.01,50.0,9.24,0.0,4,0,4,6
325567650,0.01,50.0,9.22,0.0,4,0,4,6
325599765,0.01,50.0,9.21,0.0,4,0,4,6
325632149,0.01,50.0,9.22,0.0,4,0,4,6
325664144,0.01,50.0,9.21,0.0,4,0,4,6
325696166,0.01,50.0,9.2,0.0,4,0,4,6
325727686,0.01,50.0,9.139999,0.0,4,0,4,6
325760299,0.01,50.0,9.09,0.0,4,0,4,6
325791774,0.01,50.0,9.04,0.0,4,0,4,6
325824307,0.01,50.0,8.98,0.0,4,0,4,6
325855814,0.01,50.0,8.96,0.0,4,0,4,6
325887759,0.01,50.0,8.95,0.0,4,0,4,6
325920140,0.01,50.0,8.95,0.0,4,0,4,6
325951776,0.01,50.0,8.95,0.0,4,0,4,6
325983448,0.01,50.0,8.929999,0.0,4,0,4,6
326016325,0.01,50.0,8.92,0.0,4,0,4,6
326048131,0.01,50.0,8.9,0.0,4,0,4,6
326080361,0.01,50.0,8.91,0.0,4,0,4,6
326111959,0.01,50.0,8.57,0.0,4,0,4,6
326144493,0.01,50.0,8.36,0.0,4,0,4,6
326176147,0.01,50.0,8.3,0.0,4,0,4,6
326207823,0.01,50.0,8.2699995,0.0,4,0,4,6
326239737,0.01,50.0,8.26,0.0,4,0,4,6
326271836,0.01,50.0,8.28,0.0,4,0,4,6
326305413,0.01,50.0,8.29,0.0,4,0,4,6
326337787,0.01,50.0,8.2699995,0.0,4,0,4,6
326369403,0.01,50.0,8.26,0.0,4,0,4,6
326402134,0.01,50.0,8.26,0.0,4,0,4,6
326434275,0.01,50.0,8.25,0.0,4,0,4,6
326465735,0.01,50.0,8.25,0.0,4,0,4,6
326497951,0.01,50.0,8.25,0.0,4,0,4,6
326529793,0.01,50.0,8.23,0.0,4,0,4,6
326561424,0.01,50.0,8.21,0.0,4,0,4,6
326592950,0.01,50.0,8.21,0.0,4,0,4,6
326625122,0.01,50.0,8.22,0.0,4,0,4,6
326657148,0.01,50.0,8.2,0.0,4,0,4,6
326689538,0.01,50.0,8.2,0.0,4,0,4,6
326721919,0.01,50.0,8.2,0.0,4,0,4,6
326753743,0.01,50.0,8.2,0.0,4,0,4,6
326785981,0.01,50.0,8.19,0.0,-68,0,4,6
326817983,0.01,50.0,8.179999,0.0,4,0,4,6
326849780,0.01,50.0,8.17,0.0,4,0,4,6
326882160,0.01,50.0,8.15,0.0,4,0,4,6
326913785,0.01,50.0,8.139999,0.0,4,0,4,6
326945375,0.01,50.0,8.139999,0.0,4,0,4,6
326978252,0.01,50.0,8.13,0.0,4,0,4,6
327009374,0.01,50.0,8.15,0.0,4,0,4,6
327041519,0.01,50.0,8.12,0.0,4,0,4,6
327073743,0.01,50.0,8.12,0.0,4,0,4,6
327105714,0.01,50.0,8.099999,0.0,4,0,4,6
327137751,0.01,50.0,8.12,0.0,4,0,4,6
327169711,0.01,50.0,8.099999,0.0,4,0,4,6
327201764,0.01,50.0,8.12,0.0,4,0,4,6
327233784,0.01,50.0,8.09,0.0,4,0,4,6
327265715,0.01,50.0,8.08,0.0,4,0,4,6
327297778,0.01,50.0,8.08,0.0,4,0,4,6
327329743,0.01,50.0,8.07,0.0,4,0,4,6
327361753,0.01,50.0,8.05,0.0,64,0,4,6
327393113,0.01,50.0,8.059999,0.0,64,0,4,6
327423781,0.01,50.0,8.04,0.0,4,0,4,6
327457028,0.01,50.0,8.05,0.0,4,0,4,6
327488939,0.01,50.0,8.0199995,0.0,4,0,4,6
327520967,0.01,50.0,8.04,0.0,4,0,4,6
327551892,0.01,50.0,8.0199995,0.0,4,0,4,6
327583683,0.01,50.0,8.0,0.0,4,0,4,6
327615835,0.01,50.0,8.0,0.0,4,0,4,6
327648990,0.01,50.0,8.05,0.0,4,0,4,6
327681352,0.01,50.0,8.15,0.0,4,0,4,6
327713785,0.01,50.0,8.559999,0.0,4,0,4,6
327745743,0.01,50.0,8.58,0.0,4,0,4,6
327778621,0.01,50.0,8.58,0.0,64,0,4,6
327810950,0.01,50.0,8.54,0.0,64,0,4,6
327842848,0.01,50.0,8.559999,0.0,64,0,4,6
327874933,0.01,50.0,8.559999,0.0,0,0,4,6
327907075,0.01,50.0,8.59,0.0,64,0,4,6
327938820,0.01,50.0,8.679999,0.0,4,0,4,6
327970903,0.01,50.0,8.73,0.0,0,0,4,6
328002917,0.01,50.0,8.75,0.0,64,0,4,6
328034942,0.01,50.0,8.71,0.0,0,0,4,6
328066839,0.01,50.0,8.71,0.0,64,0,4,6
328098876,0.01,50.0,8.71,0.0,64,0,4,6
328130873,0.01,50.0,8.69,0.0,64,0,4,6
328162931,0.01,50.0,8.679999,0.0,0,0,4,6
328194942,0.01,50.0,8.67,0.0,-68,0,4,6
328226832,0.01,50.0,8.66,0.0,64,0,4,6
328258831,0.01,50.0,8.65,0.0,64,0,4,6
328290795,0.01,50.0,8.63,0.0,64,0,4,6
328322878,0.01,50.0,8.61,0.0,0,0,4,6
328354826,0.01,50.0,8.62,0.0,0,0,4,6
328386905,0.01,50.0,8.59,0.0,64,0,4,6
328418900,0.01,50.0,8.57,0.0,4,0,4,6
328450811,0.01,50.0,8.58,0.0,64,0,4,6
328482963,0.01,50.0,8.58,0.0,64,0,4,6
328513747,0.01,50.0,8.58,0.0,4,0,4,6
328546200,0.01,50.0,8.559999,0.0,4,0,4,6
328577411,0.01,50.0,8.559999,0.0,4,0,4,6
328610146,0.01,50.0,8.559999,0.0,4,0,4,6
328642163,0.01,50.0,8.5199995,0.0,4,0,4,6
328674206,0.01,50.0,8.5199995,0.0,4,0,4,6
328706147,0.01,50.0,8.51,0.0,4,0,4,6
328738538,0.01,50.0,8.51,0.0,4,0,4,6
328770753,0.01,50.0,8.49,0.0,4,0,4,6
328802893,0.01,50.0,8.49,0.0,64,0,4,6
328834836,0.01,50.0,8.45,0.0,64,0,4,6
328866805,0.01,50.0,8.46,0.0,4,0,4,6
328898876,0.01,50.0,8.44,0.0,112,0,4,6
328930069,0.01,50.0,8.429999,0.0,4,0,4,6
328961569,0.01,50.0,8.429999,0.0,4,0,4,6
328994119,0.01,50.0,8.41,0.0,4,0,4,6
329025383,0.01,50.0,8.4,0.0,4,0,4,6
329058557,0.01,50.0,8.4,0.0,4,0,4,6
329090885,0.01,50.0,8.389999,0.0,0,0,4,6
329121924,0.01,50.0,8.389999,0.0,4,0,4,6
329154915,0.01,50.0,8.38,0.0,4,0,4,6
329188266,0.01,50.0,8.37,0.0,4,0,4,6
329219311,0.01,50.0,8.349999,0.0,4,0,4,6
329251296,0.01,50.0,8.33,0.0,4,0,4,6
329283337,0.01,50.0,8.32,0.0,4,0,4,6
329315318,0.01,50.0,8.3,0.0,4,0,4,6
329347484,0.01,50.0,8.3,0.0,4,0,4,6
329379747,0.01,50.0,8.29,0.0,4,0,4,6
329412347,0.01,50.0,8.28,0.0,4,0,4,6
329444298,0.01,50.0,8.25,0.0,4,0,4,6
329476165,0.01,50.0,8.26,0.0,4,0,4,6
329508593,0.01,50.0,8.25,0.0,4,0,4,6
329540299,0.01,50.0,8.23,0.0,4,0,4,6
329572343,0.01,50.0,8.179999,0.0,4,0,4,6
329604341,0.01,50.0,8.09,0.0,4,0,4,6
329636756,0.01,50.0,8.0,0.0,64,0,4,6
329668758,0.01,50.0,7.98,0.0,64,0,4,6
329699815,0.01,50.0,8.0,0.0,4,0,4,6
329732194,0.01,50.0,7.5699997,0.0,4,0,4,6
329763338,0.01,50.0,7.5699997,0.0,4,0,4,6
329795709,0.01,50.0,7.3199997,0.0,4,0,4,6
329827381,0.01,50.0,7.31,0.0,4,0,4,6
329859803,0.01,50.0,7.29,0.0,4,0,4,6
329892159,0.01,50.0,7.29,0.0,4,0,4,6
329924178,0.01,50.0,7.2599998,0.0,4,0,4,6
329955757,0.01,50.0,7.24,0.0,4,0,4,6
329988420,0.01,50.0,7.25,0.0,4,0,4,6
330020325,0.01,50.0,7.24,0.0,4,0,4,6
330052316,0.01,50.0,7.23,0.0,4,0,4,6
330084322,0.01,50.0,7.22,0.0,4,0,4,6
330116499,0.01,50.0,7.18,0.0,4,0,4,6
330147935,0.01,50.0,7.19,0.0,4,0,4,6
330180482,0.01,50.0,7.17,0.0,4,0,4,6
330212301,0.01,50.0,7.17,0.0,4,0,4,6
330243791,0.01,50.0,7.1499996,0.0,4,0,4,6
330276309,0.01,50.0,7.1499996,0.0,4,0,4,6
330307830,0.01,50.0,7.14,0.0,4,0,4,6
330339955,0.01,50.0,7.1299996,0.0,4,0,4,6
330372119,0.01,50.0,7.1099997,0.0,4,0,4,6
330404291,0.01,50.0,7.1,0.0,4,0,4,6
330435796,0.01,50.0,7.0899997,0.0,4,0,4,6
330468145,0.01,50.0,7.08,0.0,4,0,4,6
330500293,0.01,50.0,7.0699997,0.0,4,0,4,6
330532403,0.01,50.0,7.06,0.0,4,0,4,6
330564327,0.01,50.0,7.0499997,0.0,4,0,4,6
330596590,0.01,50.0,7.04,0.0,4,0,4,6
330628364,0.01,50.0,7.0499997,0.0,4,0,4,6
330660400,0.01,50.0,7.02,0.0,4,0,4,6
330692322,0.01,50.0,6.99,0.0,4,0,4,6
330724773,0.01,50.0,6.99,0.0,4,0,4,6
330756164,0.01,50.0,6.99,0.0,4,0,4,6
330789166,0.01,50.0,6.97,0.0,4,0,4,6
330821381,0.01,50.0,6.97,0.0,4,0,4,6
330853345,0.01,50.0,6.95,0.0,4,0,4,6
330885371,0.01,50.0,6.94,0.0,4,0,4,6
330917380,0.01,50.0,6.91,0.0,4,0,4,6
330950044,0.01,50.0,6.92,0.0,4,0,4,6
330981376,0.01,50.0,6.89,0.0,4,0,4,6
331013572,0.01,50.0,6.87,0.0,4,0,4,6
331045352,0.01,50.0,6.87,0.0,4,0,4,6
331078207,0.01,50.0,6.85,0.0,4,0,4,6
331109767,0.01,50.0,6.8399997,0.0,4,0,4,6
331142122,0.01,50.0,6.83,0.0,4,0,4,6
331174155,0.01,50.0,6.7999997,0.0,4,0,4,6
331206882,0.01,50.0,6.79,0.0,4,0,4,6
331240004,0.01,50.0,6.7799997,0.0,4,0,4,6
331271946,0.01,50.0,6.7599998,0.0,4,0,4,6
331304141,0.01,50.0,6.75,0.0,4,0,4,6
331336340,0.01,50.0,6.74,0.0,64,0,4,6
331368749,0.01,50.0,6.74,0.0,64,0,4,6
331400742,0.01,50.0,6.73,0.0,64,0,4,6
331432756,0.01,50.0,6.71,0.0,64,0,4,6
331464763,0.01,50.0,6.7,0.0,64,0,4,6
331496758,0.01,50.0,6.69,0.0,64,0,4,6
331528938,0.01,50.0,6.66,0.0,0,0,4,6
331560330,0.01,50.0,6.66,0.0,64,0,4,6
331592542,0.01,50.0,6.66,0.0,0,0,4,6
331624499,0.01,50.0,6.75,0.0,64,0,4,6
331656769,0.01,50.0,6.77,0.0,64,0,4,6
331687848,0.01,50.0,6.75,0.0,64,0,4,6
331719774,0.01,50.0,6.74,0.0,-72,0,4,6
331751742,0.01,50.0,6.72,0.0,64,0,4,6
331783744,0.01,50.0,6.7,0.0,64,0,4,6
331815758,0.01,50.0,6.71,0.0,64,0,4,6
331847813,0.01,50.0,6.68,0.0,64,0,4,6
331879742,0.01,50.0,6.67,0.0,64,0,4,6
331911757,0.01,50.0,6.66,0.0,64,0,4,6
331943742,0.01,50.0,6.6499996,0.0,64,0,4,6
331975742,0.01,50.0,6.67,0.0,64,0,4,6
332007804,0.01,50.0,6.7,0.0,64,0,4,6
332038840,0.01,50.0,6.7,0.0,64,0,4,6
332070835,0.01,50.0,6.75,0.0,0,0,4,6
332102857,0.01,50.0,6.75,0.0,64,0,4,6
332134866,0.01,50.0,6.77,0.0,0,0,4,6
332166907,0.01,50.0,6.77,0.0,0,0,4,6
332198949,0.01,50.0,6.77,0.0,64,0,4,6
332230057,0.01,50.0,6.7999997,0.0,0,0,4,6
332262139,0.01,50.0,6.8199997,0.0,0,0,4,6
332293949,0.01,50.0,6.83,0.0,64,0,4,6
332325890,0.01,50.0,6.8399997,0.0,64,0,4,6
332358163,0.01,50.0,6.91,0.0,64,0,4,6
332390689,0.01,50.0,6.93,0.0,0,0,4,6
332423693,0.01,50.0,6.97,0.0,0,0,4,6
332455513,0.01,50.0,7.1099997,0.0,64,0,4,6
332487610,0.01,50.0,7.1,0.0,64,0,4,6
332519712,0.01,50.0,7.0899997,0.0,64,0,4,6
332551813,0.01,50.0,7.1,0.0,64,0,4,6
332583790,0.01,50.0,7.0899997,0.0,0,0,4,6
332615746,0.01,50.0,7.0699997,0.0,64,0,4,6
332647804,0.01,50.0,7.0899997,0.0,64,0,4,6
332679745,0.01,50.0,7.0499997,0.0,64,0,4,6
332711592,0.01,50.0,7.0299997,0.0,64,0,4,6
332743757,0.01,50.0,7.04,0.0,64,0,4,6
332775692,0.01,50.0,7.0299997,0.0,64,0,4,6
332807421,0.01,50.0,7.02,0.0,64,0,4,6
332839749,0.01,50.0,6.98,0.0,64,0,4,6
332871560,0.01,50.0,6.97,0.0,64,0,4,6
332903520,0.01,50.0,6.98,0.0,64,0,4,6
332935799,0.01,50.0,6.97,0.0,0,0,4,6
332967812,0.01,50.0,6.96,0.0,64,0,4,6
332999652,0.01,50.0,6.93,0.0,0,0,4,6
333031779,0.01,50.0,6.91,0.0,64,0,4,6
333063757,0.01,50.0,6.93,0.0,64,0,4,6
333095742,0.01,50.0,6.91,0.0,64,0,4,6
333128252,0.01,50.0,6.89,0.0,4,0,4,6
333160295,0.01,50.0,6.8799996,0.0,64,0,4,6
333192321,0.01,50.0,6.8599997,0.0,64,0,4,6
333224762,0.01,50.0,6.8399997,0.0,64,0,4,6
333256931,0.01,50.0,6.83,0.0,64,0,4,6
333288506,0.01,50.0,6.8199997,0.0,64,0,4,6
333320759,0.01,50.0,6.81,0.0,64,0,4,6
333352955,0.01,50.0,6.79,0.0,64,0,4,6
333384742,0.01,50.0,6.7999997,0.0,64,0,4,6
333416915,0.01,50.0,6.7999997,0.0,0,0,4,6
333448484,0.01,50.0,6.7599998,0.0,64,0,4,6
333480922,0.01,50.0,6.77,0.0,64,0,4,6
333512745,0.01,50.0,6.7599998,0.0,64,0,4,6
333544940,0.01,50.0,6.74,0.0,0,0,4,6
333576460,0.01,50.0,6.75,0.0,64,0,4,6
333608640,0.01,50.0,6.73,0.0,4,0,4,6
333640910,0.01,50.0,6.71,0.0,64,0,4,6
333672315,0.01,50.0,6.7,0.0,64,0,4,6
333704906,0.01,50.0,6.69,0.0,64,0,4,6
333736923,0.01,50.0,6.69,0.0,64,0,4,6
333768768,0.01,50.0,6.68,0.0,64,0,4,6
333800915,0.01,50.0,6.66,0.0,64,0,4,6
333832771,0.01,50.0,6.6499996,0.0,64,0,4,6
333864787,0.01,50.0,6.6499996,0.0,0,0,4,6
333896754,0.01,50.0,6.6299996,0.0,64,0,4,6
333928930,0.01,50.0,6.62,0.0,64,0,4,6
333960764,0.01,50.0,6.6099997,0.0,64,0,4,6
333993026,0.01,50.0,6.6,0.0,64,0,4,6
334024343,0.01,50.0,6.6099997,0.0,64,0,4,6
334056745,0.01,50.0,6.62,0.0,64,0,4,6
334088761,0.01,50.0,6.72,0.0,0,0,4,6
334120764,0.01,50.0,6.81,0.0,64,0,4,6
334152745,0.01,50.0,6.8999996,0.0,64,0,4,6
334184745,0.01,50.0,6.97,0.0,64,0,4,6
334215742,0.01,50.0,7.0699997,0.0,64,0,4,6
334246853,0.01,50.0,7.14,0.0,64,0,4,6
334278139,0.01,50.0,7.24,0.0,64,0,4,6
334309947,0.01,50.0,7.3199997,0.0,64,0,4,6
334341961,0.01,50.0,7.37,0.0,64,0,4,6
334373802,0.01,50.0,7.45,0.0,64,0,4,6
334405922,0.01,50.0,7.5,0.0,64,0,4,6
334437831,0.01,50.0,7.48,0.0,-116,0,4,6
334469928,0.01,50.0,7.6699996,0.0,0,0,4,6
334501888,0.01,50.0,7.3799996,0.0,64,0,4,6
334533523,0.01,50.0,6.25,0.0,0,0,4,6
334565907,0.01,50.0,5.8799996,0.0,64,0,4,6
334598061,0.01,50.0,5.74,0.0,64,0,4,6
334629891,0.01,50.0,5.7,0.0,64,0,4,6
334661905,0.01,50.0,5.6299996,0.0,64,0,4,6
334693889,0.01,50.0,5.62,0.0,64,0,4,6
334725962,0.01,50.0,5.5899997,0.0,64,0,4,6
334758045,0.01,50.0,5.54,0.0,0,0,4,6
334788757,0.01,50.0,5.49,0.0,64,0,4,6
334820645,0.01,50.0,5.52,0.0,4,0,4,6
334852491,0.01,50.0,5.5,0.0,4,0,4,6
334884915,0.01,50.0,5.47,0.0,4,0,4,6
334917327,0.01,50.0,5.48,0.0,4,0,4,6
334949111,0.01,50.0,5.48,0.0,4,0,4,6
334980621,0.01,50.0,5.47,0.0,4,0,4,6
335012960,0.01,50.0,5.44,0.0,4,0,4,6
335044522,0.01,50.0,5.46,0.0,4,0,4,6
335077793,0.01,50.0,5.5499997,0.0,4,0,4,6
335109396,0.01,50.0,5.8399997,0.0,4,0,4,6
335140942,0.01,50.0,6.54,0.0,-116,0,4,6
335173417,0.01,50.0,8.559999,0.0,4,0,4,6
335205919,0.01,50.0,9.03,0.0,64,0,4,6
335237389,0.01,50.0,9.429999,0.0,0,0,4,6
335269350,0.01,50.0,9.57,0.0,4,0,4,6
335301741,0.01,50.0,9.65,0.0,64,0,4,6
335333516,0.01,50.0,9.67,0.0,4,0,4,6
335365387,0.01,50.0,9.639999,0.0,4,0,4,6
335398050,0.01,50.0,9.65,0.0,64,0,4,6
335429114,0.01,50.0,9.639999,0.0,4,0,4,6
335460942,0.01,50.0,9.65,0.0,4,0,4,6
335493338,0.01,50.0,9.65,0.0,4,0,4,6
335525160,0.01,50.0,9.62,0.0,4,0,4,6
335558244,0.01,50.0,9.639999,0.0,4,0,4,6
335590196,0.01,50.0,9.69,0.0,4,0,4,6
335622252,0.01,50.0,9.75,0.0,4,0,4,6
335653776,0.01,50.0,9.78,0.0,4,0,4,6
335685772,0.01,50.0,9.809999,0.0,4,0,4,6
335717985,0.01,50.0,9.87,0.0,64,0,4,6
335750055,0.01,50.0,10.03,0.0,0,0,4,6
335781951,0.01,50.0,10.219999,0.0,64,0,4,6
335813745,0.01,50.0,10.349999,0.0,0,0,4,6
335845742,0.01,50.0,10.42,0.0,64,0,4,6
335878003,0.01,50.0,10.429999,0.0,64,0,4,6
335909754,0.01,50.0,9.71,0.0,64,0,4,6
335941769,0.01,50.0,8.08,0.0,64,0,4,6
335973749,0.01,50.0,7.89,0.0,64,0,4,6
336005951,0.01,50.0,7.7999997,0.0,0,0,4,6
336037988,0.01,50.0,7.75,0.0,64,0,4,6
336069119,0.01,50.0,7.71,0.0,64,0,4,6
336100751,0.01,50.0,7.71,0.0,4,0,4,6
336133101,0.01,50.0,7.7,0.0,0,0,4,6
336165108,0.01,50.0,7.69,0.0,64,0,4,6
336195747,0.01,50.0,7.6699996,0.0,64,0,4,6
336226968,0.01,50.0,7.69,0.0,4,0,4,6
336258744,0.01,50.0,7.6699996,0.0,4,0,4,6
336292339,0.01,50.0,7.6699996,0.0,4,0,4,6
336324748,0.01,50.0,7.6499996,0.0,64,0,4,6
336355917,0.01,50.0,7.6299996,0.0,64,0,4,6
336387805,0.01,50.0,7.6299996,0.0,64,0,4,6
336419972,0.01,50.0,7.6,0.0,64,0,4,6
336451335,0.01,50.0,7.58,0.0,4,0,4,6
336483909,0.01,50.0,7.58,0.0,64,0,4,6
336515770,0.01,50.0,7.5699997,0.0,64,0,4,6
336547394,0.01,50.0,7.5699997,0.0,112,0,4,6
336579752,0.01,50.0,7.54,0.0,64,0,4,6
336611787,0.01,50.0,7.54,0.0,64,0,4,6
336644201,0.01,50.0,7.5499997,0.0,4,0,4,6
336675785,0.01,50.0,7.52,0.0,64,0,4,6
336707832,0.01,50.0,7.5099998,0.0,0,0,4,6
336739822,0.01,50.0,7.49,0.0,4,0,4,6
336772711,0.01,50.0,7.48,0.0,4,0,4,6
336804774,0.01,50.0,7.48,0.0,64,0,4,6
336836745,0.01,50.0,7.47,0.0,64,0,4,6
336867806,0.01,50.0,7.45,0.0,64,0,4,6
336899847,0.01,50.0,7.3999996,0.0,64,0,4,6
336931773,0.01,50.0,7.31,0.0,64,0,4,6
336963745,0.01,50.0,7.19,0.0,64,0,4,6
336995769,0.01,50.0,6.85,0.0,4,0,4,6
337026865,0.01,50.0,5.52,0.0,64,0,4,6
337058854,0.01,50.0,5.41,0.0,64,0,4,6
337090850,0.01,50.0,5.31,0.0,0,0,4,6
337122892,0.01,50.0,5.27,0.0,64,0,4,6
337154901,0.01,50.0,5.2599998,0.0,0,0,4,6
337186974,0.01,50.0,5.24,0.0,64,0,4,6
337218872,0.01,50.0,5.21,0.0,64,0,4,6
337249761,0.01,50.0,5.2,0.0,64,0,4,6
337281787,0.01,50.0,5.18,0.0,64,0,4,6
337313752,0.01,50.0,5.17,0.0,0,0,4,6
337345901,0.01,50.0,5.15,0.0,0,0,4,6
337377954,0.01,50.0,5.14,0.0,64,0,4,6
337409787,0.01,50.0,5.14,0.0,64,0,4,6
337440912,0.01,50.0,5.12,0.0,64,0,4,6
337472909,0.01,50.0,5.12,0.0,64,0,4,6
337504356,0.01,50.0,5.12,0.0,64,0,4,6
337536773,0.01,50.0,5.12,0.0,64,0,4,6
337568947,0.01,50.0,5.13,0.0,64,0,4,6
337600295,0.01,50.0,5.15,0.0,0,0,4,6
337632379,0.01,50.0,5.2,0.0,64,0,4,6
337664972,0.01,50.0,5.2599998,0.0,64,0,4,6
337696756,0.01,50.0,6.5499997,0.0,64,0,4,6
337728942,0.01,50.0,6.67,0.0,0,0,4,6
337760742,0.01,50.0,6.89,0.0,64,0,4,6
337792803,0.01,50.0,6.99,0.0,64,0,4,6
337824653,0.01,50.0,6.98,0.0,4,0,4,6
337857859,0.01,50.0,6.99,0.0,112,0,4,6
337889927,0.01,50.0,6.99,0.0,64,0,4,6
337921943,0.01,50.0,6.97,0.0,64,0,4,6
337953917,0.01,50.0,6.97,0.0,64,0,4,6
337986053,0.01,50.0,6.94,0.0,0,0,4,6
338018179,0.01,50.0,6.92,0.0,64,0,4,6
338049945,0.01,50.0,6.92,0.0,64,0,4,6
338081768,0.01,50.0,6.91,0.0,64,0,4,6
338112761,0.01,50.0,6.8799996,0.0,64,0,4,6
338144757,0.01,50.0,6.8799996,0.0,64,0,4,6
338177814,0.01,50.0,6.8399997,0.0,64,0,4,6
338209944,0.01,50.0,6.85,0.0,64,0,4,6
338242109,0.01,50.0,6.8399997,0.0,64,0,4,6
338274091,0.01,50.0,6.7999997,0.0,64,0,4,6
338305893,0.01,50.0,6.7599998,0.0,64,0,4,6
338337991,0.01,50.0,6.81,0.0,64,0,4,6
338369985,0.01,50.0,6.7799997,0.0,64,0,4,6
338400753,0.01,50.0,6.7799997,0.0,64,0,4,6
338431791,0.01,50.0,6.77,0.0,4,0,4,6
338464166,0.01,50.0,6.7599998,0.0,4,0,4,6
338496316,0.01,50.0,6.72,0.0,4,0,4,6
338528323,0.01,50.0,6.72,0.0,4,0,4,6
338560358,0.01,50.0,6.7,0.0,4,0,4,6
338592153,0.01,50.0,6.69,0.0,4,0,4,6
338624411,0.01,50.0,6.69,0.0,4,0,4,6
338656363,0.01,50.0,6.66,0.0,4,0,4,6
338688179,0.01,50.0,6.6499996,0.0,4,0,4,6
338720334,0.01,50.0,6.6,0.0,4,0,4,6
338752340,0.01,50.0,6.6099997,0.0,4,0,4,6
338784188,0.01,50.0,6.58,0.0,4,0,4,6
338816265,0.01,50.0,6.58,0.0,4,0,4,6
338848136,0.01,50.0,6.56,0.0,4,0,4,6
338880266,0.01,50.0,6.5499997,0.0,4,0,4,6
338912306,0.01,50.0,6.5099998,0.0,4,0,4,6
338944374,0.01,50.0,6.5299997,0.0,4,0,4,6
338976355,0.01,50.0,6.5099998,0.0,4,0,4,6
339008497,0.01,50.0,6.49,0.0,4,0,4,6
339040167,0.01,50.0,6.39,0.0,4,0,4,6
339072184,0.01,50.0,6.45,0.0,4,0,4,6
339104155,0.01,50.0,6.46,0.0,4,0,4,6
339135962,0.01,50.0,6.44,0.0,4,0,4,6
339168478,0.01,50.0,6.42,0.0,4,0,4,6
339201789,0.01,50.0,6.39,0.0,4,0,4,6
339234272,0.01,50.0,6.35,0.0,64,0,4,6
339266848,0.01,50.0,6.27,0.0,64,0,4,6
339298106,0.01,50.0,4.63,0.0,64,0,4,6
339330217,0.01,50.0,4.37,0.0,64,0,4,6
339362576,0.01,50.0,4.2799997,0.0,4,0,4,6
339393964,0.01,50.0,4.23,0.0,64,0,4,6
339425774,0.01,50.0,4.21,0.0,64,0,4,6
339457782,0.01,50.0,4.16,0.0,4,0,4,6
339490559,0.01,50.0,4.11,0.0,64,0,4,6
339522821,0.01,50.0,4.0099998,0.0,64,0,4,6
339554190,0.01,50.0,2.83,0.0,64,0,4,6
339586119,0.01,50.0,2.7,0.0,64,0,4,6
339618306,0.01,50.0,2.83,0.0,64,0,4,6
339650873,0.01,50.0,3.61,0.0,0,0,4,6
339682538,0.01,50.0,3.6899998,0.0,64,0,4,6
339714882,0.01,50.0,3.6599998,0.0,0,0,4,6
339745812,0.01,50.0,3.6799998,0.0,64,0,4,6
339778164,0.01,50.0,3.6499999,0.0,64,0,4,6
339809738,0.01,50.0,3.6399999,0.0,64,0,4,6
339842608,0.01,50.0,3.62,0.0,64,0,4,6
339873933,0.01,50.0,3.58,0.0,64,0,4,6
339904742,0.01,50.0,3.59,0.0,64,0,4,6
339936756,0.01,50.0,3.57,0.0,64,0,4,6
339968755,0.01,50.0,3.56,0.0,64,0,4,6
340002778,0.01,50.0,3.5,0.0,64,0,4,6
340034927,0.01,50.0,3.5,0.0,64,0,4,6
340067133,0.01,50.0,3.5,0.0,64,0,4,6
340098842,0.01,50.0,3.49,0.0,64,0,4,6
340131042,0.01,50.0,3.46,0.0,64,0,4,6
340162912,0.01,50.0,3.4499998,0.0,64,0,4,6
340194847,0.01,50.0,3.4299998,0.0,0,0,4,6
340227318,0.01,50.0,3.4199998,0.0,64,0,4,6
340258517,0.01,50.0,3.3999999,0.0,64,0,4,6
340290932,0.01,50.0,3.3899999,0.0,64,0,4,6
340323405,0.01,50.0,3.37,0.0,64,0,4,6
340355752,0.01,50.0,3.3999999,0.0,64,0,4,6
340387802,0.01,50.0,3.4299998,0.0,64,0,4,6
340419020,0.01,50.0,3.4199998,0.0,64,0,4,6
340450527,0.01,50.0,3.51,0.0,64,0,4,6
340483002,0.01,50.0,3.49,0.0,64,0,4,6
340514899,0.01,50.0,3.58,0.0,64,0,4,6
340547500,0.01,50.0,3.55,0.0,4,0,4,6
340578853,0.01,50.0,3.61,0.0,0,0,4,6
340610996,0.01,50.0,3.61,0.0,0,0,4,6
340642785,0.01,50.0,3.6699998,0.0,64,0,4,6
340674891,0.01,50.0,3.6999998,0.0,64,0,4,6
340706984,0.01,50.0,3.72,0.0,64,0,4,6
340739350,0.01,50.0,3.76,0.0,64,0,4,6
340771745,0.01,50.0,3.77,0.0,64,0,4,6
340802995,0.01,50.0,3.81,0.0,64,0,4,6
340835109,0.01,50.0,3.84,0.0,64,0,4,6
340867352,0.01,50.0,3.9099998,0.0,64,0,4,6
340900543,0.01,50.0,3.9299998,0.0,64,0,4,6
340932670,0.01,50.0,3.9099998,0.0,64,0,4,6
340964189,0.01,50.0,3.8899999,0.0,64,0,4,6
340996915,0.01,50.0,3.8799999,0.0,64,0,4,6
341028749,0.01,50.0,3.84,0.0,64,0,4,6
341060890,0.01,50.0,3.84,0.0,64,0,4,6
341092381,0.01,50.0,3.8,0.0,64,0,4,6
341124223,0.01,50.0,3.76,0.0,64,0,4,6
341156562,0.01,50.0,3.76,0.0,64,0,4,6
341188711,0.01,50.0,3.73,0.0,64,0,4,6
341220189,0.01,50.0,3.7099998,0.0,64,0,4,6
341252390,0.01,50.0,3.6799998,0.0,64,0,4,6
341284964,0.01,50.0,3.6599998,0.0,64,0,4,6
341316115,0.01,50.0,3.61,0.0,64,0,4,6
341348420,0.01,50.0,3.61,0.0,64,0,4,6
341380748,0.01,50.0,3.58,0.0,64,0,4,6
341412923,0.01,50.0,3.57,0.0,64,0,4,6
341444929,0.01,50.0,3.54,0.0,64,0,4,6
341476587,0.01,50.0,3.52,0.0,64,0,4,6
341509157,0.01,50.0,3.49,0.0,0,0,4,6
341540142,0.01,50.0,3.48,0.0,64,0,4,6
341573138,0.01,50.0,3.4399998,0.0,64,0,4,6
341604747,0.01,50.0,3.4199998,0.0,0,0,4,6
341637060,0.01,50.0,3.3899999,0.0,64,0,4,6
341669163,0.01,50.0,3.37,0.0,64,0,4,6
341701195,0.01,50.0,3.36,0.0,64,0,4,6
341733146,0.01,50.0,3.35,0.0,64,0,4,6
341763742,0.01,50.0,3.34,0.0,64,0,4,6
341794853,0.01,50.0,3.33,0.0,0,0,4,6
341825783,0.01,50.0,3.31,0.0,64,0,4,6
341859019,0.01,50.0,3.28,0.0,64,0,4,6
341890860,0.01,50.0,3.31,0.0,0,0,4,6
341922851,0.01,50.0,3.26,0.0,64,0,4,6
341953946,0.01,50.0,3.28,0.0,64,0,4,6
341985746,0.01,50.0,3.24,0.0,64,0,4,6
342018724,0.01,50.0,3.21,0.0,0,0,4,6
342050001,0.01,50.0,3.1999998,0.0,4,0,4,6
342082320,0.01,50.0,3.1399999,0.0,-72,0,4,6
342114914,0.01,50.0,3.1399999,0.0,0,0,4,6
342146151,0.01,50.0,3.11,0.0,64,0,4,6
342177985,0.01,50.0,3.11,0.0,64,0,4,6
342209745,0.01,50.0,3.09,0.0,64,0,4,6
342242339,0.01,50.0,3.1,0.0,64,0,4,6
342273941,0.01,50.0,3.08,0.0,64,0,4,6
342304748,0.01,50.0,3.07,0.0,64,0,4,6
342335742,0.01,50.0,3.07,0.0,64,0,4,6
342367870,0.01,50.0,3.05,0.0,64,0,4,6
342399750,0.01,50.0,3.03,0.0,64,0,4,6
342430908,0.01,50.0,2.72,0.0,64,0,4,6
342462891,0.01,50.0,3.03,0.0,64,0,4,6
342494932,0.01,50.0,3.58,0.0,64,0,4,6
342526890,0.01,50.0,2.99,0.0,0,0,4,6
342558924,0.01,50.0,2.85,0.0,64,0,4,6
342590930,0.01,50.0,2.82,0.0,64,0,4,6
342622890,0.01,50.0,2.77,0.0,0,0,4,6
342654551,0.01,50.0,2.75,0.0,64,0,4,6
342686624,0.01,50.0,2.69,0.0,64,0,4,6
342718928,0.01,50.0,2.61,0.0,0,0,4,6
342750344,0.01,50.0,2.62,0.0,64,0,4,6
342782954,0.01,50.0,2.58,0.0,64,0,4,6
342814305,0.01,50.0,2.54,0.0,64,0,4,6
342846849,0.01,50.0,2.33,0.0,64,0,4,6
342878572,0.01,50.0,2.31,0.0,64,0,4,6
342910934,0.01,50.0,2.47,0.0,0,0,4,6
342942517,0.01,50.0,2.45,0.0,64,0,4,6
342974882,0.01,50.0,2.35,0.0,64,0,4,6
343006835,0.01,50.0,1.66,0.0,64,0,4,6
343038834,0.01,50.0,1.66,0.0,64,0,4,6
343069908,0.01,50.0,1.64,0.0,64,0,4,6
343101741,0.01,50.0,1.62,0.0,64,0,4,6
343134017,0.01,50.0,2.27,0.0,64,0,4,6
343165401,0.01,50.0,2.27,0.0,0,0,4,6
343197966,0.01,50.0,2.26,0.0,0,0,4,6
343230161,0.01,50.0,2.26,0.0,64,0,4,6
343261742,0.01,50.0,2.22,0.0,64,0,4,6
343293970,0.01,50.0,2.21,0.0,64,0,4,6
343325786,0.01,50.0,2.2,0.0,64,0,4,6
343358180,0.01,50.0,2.19,0.0,64,0,4,6
343389752,0.01,50.0,2.18,0.0,64,0,4,6
343421779,0.01,50.0,2.1699998,0.0,64,0,4,6
343453155,0.01,50.0,2.1699998,0.0,64,0,4,6
343485137,0.01,50.0,2.1599998,0.0,64,0,4,6
343516947,0.01,50.0,2.1399999,0.0,64,0,4,6
343549162,0.01,50.0,2.12,0.0,64,0,4,6
343581163,0.01,50.0,2.1,0.0,64,0,4,6
343612985,0.01,50.0,2.09,0.0,64,0,4,6
343645503,0.01,50.0,2.08,0.0,64,0,4,6
343677947,0.01,50.0,2.06,0.0,64,0,4,6
343709148,0.01,50.0,2.04,0.0,64,0,4,6
343740913,0.01,50.0,2.03,0.0,64,0,4,6
343771840,0.01,50.0,2.0,0.0,64,0,4,6
343803742,0.01,50.0,1.9799999,0.0,64,0,4,6
343835742,0.01,50.0,1.9599999,0.0,64,0,4,6
343867842,0.01,50.0,1.9399999,0.0,64,0,4,6
343899781,0.01,50.0,1.93,0.0,64,0,4,6
343930868,0.01,50.0,1.91,0.0,64,0,4,6
343962892,0.01,50.0,1.9,0.0,64,0,4,6
343993907,0.01,50.0,1.87,0.0,64,0,4,6
344026106,0.01,50.0,1.8499999,0.0,64,0,4,6
344058142,0.01,50.0,1.8299999,0.0,64,0,4,6
344089973,0.01,50.0,1.81,0.0,64,0,4,6
344120742,0.01,50.0,1.78,0.0,64,0,4,6
344152761,0.01,50.0,1.77,0.0,64,0,4,6
344184742,0.01,50.0,1.76,0.0,64,0,4,6
344216742,0.01,50.0,1.74,0.0,64,0,4,6
344248745,0.01,50.0,1.8399999,0.0,0,0,4,6
344279796,0.01,50.0,1.7099999,0.0,4,0,4,6
344312163,0.01,50.0,1.6999999,0.0,4,0,4,6
344343314,0.01,50.0,1.6999999,0.0,4,0,4,6
344375581,0.01,50.0,1.7099999,0.0,4,0,4,6
344407670,0.01,50.0,1.6899999,0.0,4,0,4,6
344439336,0.01,50.0,1.6999999,0.0,4,0,4,6
344470995,0.01,50.0,1.6899999,0.0,4,0,4,6
344503424,0.01,50.0,1.6899999,0.0,4,0,4,6
344535335,0.01,50.0,1.6899999,0.0,4,0,4,6
344567337,0.01,50.0,1.68,0.0,4,0,4,6
344599345,0.01,50.0,1.68,0.0,4,0,4,6
344631404,0.01,50.0,1.68,0.0,4,0,4,6
344663350,0.01,50.0,1.67,0.0,4,0,4,6
344695074,0.01,50.0,1.67,0.0,-68,0,4,6
344727370,0.01,50.0,1.65,0.0,4,0,4,6
344759544,0.01,50.0,1.65,0.0,4,0,4,6
344791398,0.01,50.0,1.66,0.0,4,0,4,6
344823338,0.01,50.0,1.65,0.0,4,0,4,6
344855338,0.01,50.0,1.64,0.0,4,0,4,6
344887717,0.01,50.0,1.64,0.0,4,0,4,6
344919728,0.01,50.0,1.63,0.0,4,0,4,6
344951321,0.01,50.0,1.64,0.0,4,0,4,6
344983027,0.01,50.0,1.63,0.0,4,0,4,6
345015020,0.01,50.0,1.64,0.0,4,0,4,6
345047018,0.01,50.0,1.64,0.0,4,0,4,6
345079320,0.01,50.0,1.6999999,0.0,4,0,4,6
345110941,0.01,50.0,1.68,0.0,4,0,4,6
345142969,0.01,50.0,1.66,0.0,4,0,4,6
345175403,0.01,50.0,1.68,0.0,4,0,4,6
345207342,0.01,50.0,1.67,0.0,4,0,4,6
345239343,0.01,50.0,1.64,0.0,4,0,4,6
345271007,0.01,50.0,1.66,0.0,4,0,4,6
345303397,0.01,50.0,1.6999999,0.0,4,0,4,6
345335359,0.01,50.0,1.67,0.0,4,0,4,6
345367384,0.01,50.0,1.6899999,0.0,4,0,4,6
345399498,0.01,50.0,1.65,0.0,4,0,4,6
345431787,0.01,50.0,1.67,0.0,64,0,4,6
345464361,0.01,50.0,1.66,0.0,0,0,4,6
345496561,0.01,50.0,1.66,0.0,4,0,4,6
345528942,0.01,50.0,1.6899999,0.0,64,0,4,6
345560323,0.01,50.0,1.68,0.0,64,0,4,6
345592762,0.01,50.0,1.68,0.0,64,0,4,6
345880749,0.01,50.0,1.66,0.0,64,0,4,6
345912292,0.01,50.0,1.68,0.0,64,0,4,6
346072382,0.01,50.0,1.68,0.0,64,0,4,6
346104320,0.01,50.0,1.68,0.0,0,0,4,6
346136333,0.01,50.0,1.66,0.0,64,0,4,6
346170223,0.01,50.0,1.67,0.0,0,0,4,6
346203510,0.01,50.0,1.66,0.0,0,0,4,6
346235773,0.01,50.0,1.65,0.0,64,0,4,6
346267811,0.01,50.0,1.66,0.0,64,0,4,6
346298872,0.01,50.0,1.67,0.0,64,0,4,6
346330849,0.01,50.0,1.67,0.0,64,0,4,6
346362984,0.01,50.0,1.67,0.0,64,0,4,6
346394958,0.01,50.0,1.66,0.0,0,0,4,6
346426538,0.01,50.0,1.66,0.0,64,0,4,6
346459197,0.01,50.0,1.67,0.0,4,0,4,6
346491027,0.01,50.0,1.67,0.0,64,0,4,6
346523187,0.01,50.0,1.67,0.0,64,0,4,6
346554932,0.01,50.0,1.68,0.0,4,0,4,6
346587081,0.01,50.0,1.68,0.0,0,0,4,6
346619103,0.01,50.0,1.67,0.0,64,0,4,6
346650615,0.01,50.0,1.67,0.0,4,0,4,6
346683386,0.01,50.0,1.67,0.0,64,0,4,6
346715765,0.01,50.0,1.68,0.0,64,0,4,6
346747828,0.01,50.0,1.66,0.0,64,0,4,6
346779100,0.01,50.0,1.68,0.0,64,0,4,6
346810941,0.01,50.0,1.67,0.0,0,0,4,6
346842855,0.01,50.0,1.67,0.0,64,0,4,6
346876559,0.01,50.0,1.66,0.0,64,0,4,6
346909349,0.01,50.0,1.66,0.0,64,0,4,6
346941894,0.01,50.0,1.67,0.0,64,0,4,6
346973776,0.01,50.0,1.66,0.0,64,0,4,6
347005485,0.01,50.0,1.67,0.0,4,0,4,6
347036907,0.01,50.0,1.66,0.0,0,0,4,6
347068474,0.01,50.0,1.66,0.0,0,0,4,6
347100210,0.01,50.0,1.68,0.0,64,0,4,6
347132180,0.01,50.0,1.67,0.0,64,0,4,6
347164169,0.01,50.0,1.65,0.0,64,0,4,6
347196936,0.01,50.0,1.66,0.0,64,0,4,6
347228742,0.01,50.0,1.67,0.0,64,0,4,6
347260122,0.01,50.0,1.67,0.0,64,0,4,6
347292940,0.01,50.0,1.67,0.0,64,0,4,6
347324760,0.01,50.0,1.68,0.0,64,0,4,6
347356731,0.01,50.0,1.66,0.0,0,0,4,6
347388569,0.01,50.0,1.67,0.0,64,0,4,6
347420769,0.01,50.0,1.67,0.0,64,0,4,6
347452149,0.01,50.0,1.66,0.0,64,0,4,6
347484409,0.01,50.0,1.67,0.0,4,0,4,6
347516742,0.01,50.0,1.67,0.0,64,0,4,6
347548156,0.01,50.0,1.67,0.0,64,0,4,6
347578863,0.01,50.0,1.67,0.0,64,0,4,6
347609760,0.01,50.0,1.66,0.0,56,0,4,6
347641763,0.01,50.0,1.67,0.0,64,0,4,6
347673765,0.01,50.0,1.66,0.0,64,0,4,6
347705838,0.01,50.0,1.67,0.0,0,0,4,6
347737921,0.01,50.0,1.67,0.0,64,0,4,6
347769756,0.01,50.0,1.66,0.0,64,0,4,6
347801752,0.01,50.0,1.67,0.0,64,0,4,6
347833742,0.01,50.0,1.67,0.0,64,0,4,6
347865780,0.01,50.0,1.68,0.0,0,0,4,6
347897984,0.01,50.0,1.67,0.0,64,0,4,6
347929123,0.01,50.0,1.68,0.0,64,0,4,6
347961203,0.01,50.0,1.66,0.0,64,0,4,6
347993115,0.01,50.0,1.66,0.0,64,0,4,6
348025115,0.01,50.0,1.67,0.0,0,0,4,6
348055788,0.01,50.0,1.67,0.0,0,0,4,6
348086836,0.01,50.0,1.66,0.0,64,0,4,6
348118297,0.01,50.0,1.66,0.0,64,0,4,6
348150109,0.01,50.0,1.67,0.0,64,0,4,6
348182265,0.01,50.0,1.66,0.0,64,0,4,6
348213918,0.01,50.0,1.66,0.0,64,0,4,6
348246539,0.01,50.0,1.67,0.0,64,0,4,6
348278899,0.01,50.0,1.66,0.0,64,0,4,6
348309795,0.01,50.0,1.66,0.0,64,0,4,6
348340750,0.01,50.0,1.67,0.0,64,0,4,6
348372770,0.01,50.0,1.67,0.0,64,0,4,6
348403777,0.01,50.0,1.67,0.0,4,0,4,6
348436266,0.01,50.0,1.67,0.0,4,0,4,6
348468272,0.01,50.0,1.66,0.0,4,0,4,6
348500163,0.01,50.0,1.66,0.0,4,0,4,6
348531552,0.01,50.0,1.67,0.0,4,0,4,6
348563514,0.01,50.0,1.67,0.0,4,0,4,6
348595529,0.01,50.0,1.65,0.0,4,0,4,6
348627312,0.01,50.0,1.67,0.0,4,0,4,6
348659773,0.01,50.0,1.68,0.0,4,0,4,6
348692363,0.01,50.0,1.67,0.0,4,0,4,6
348724346,0.01,50.0,1.68,0.0,4,0,4,6
348756355,0.01,50.0,1.68,0.0,4,0,4,6
348787842,0.01,50.0,1.66,0.0,4,0,4,6
348819715,0.01,50.0,1.67,0.0,4,0,4,6
348851412,0.01,50.0,1.67,0.0,4,0,4,6
348883563,0.01,50.0,1.67,0.0,4,0,4,6
348915345,0.01,50.0,1.67,0.0,4,0,4,6
348947363,0.01,50.0,1.66,0.0,4,0,4,6
348979855,0.01,50.0,1.67,0.0,4,0,4,6
349171965,0.01,50.0,1.67,0.0,0,0,4,6
350133379,0.01,50.0,1.67,0.0,4,0,4,6
350166599,0.01,50.0,1.67,0.0,64,0,4,6
350198870,0.01,50.0,1.68,0.0,0,0,4,6
350230547,0.01,50.0,1.66,0.0,4,0,4,6
350262194,0.01,50.0,1.66,0.0,4,0,4,6
350293792,0.01,50.0,1.68,0.0,4,0,4,6
350325396,0.01,50.0,1.68,0.0,0,0,4,6
350357782,0.01,50.0,1.68,0.0,4,0,4,6
350389776,0.01,50.0,1.67,0.0,4,0,4,6
350422188,0.01,50.0,1.67,0.0,4,0,4,6
350453371,0.01,50.0,1.67,0.0,4,0,4,6
350485377,0.01,50.0,1.67,0.0,4,0,4,6
350518307,0.01,50.0,1.67,0.0,4,0,4,6
350550172,0.01,50.0,1.66,0.0,4,0,4,6
350582124,0.01,50.0,1.66,0.0,4,0,4,6
350614184,0.01,50.0,1.66,0.0,4,0,4,6
350646239,0.01,50.0,1.68,0.0,4,0,4,6
350677929,0.01,50.0,1.67,0.0,4,0,4,6
350710109,0.01,50.0,1.67,0.0,4,0,4,6
350741510,0.01,50.0,1.67,0.0,4,0,4,6
350774272,0.01,50.0,1.67,0.0,4,0,4,6
350806880,0.01,50.0,1.67,0.0,0,0,4,6
350838856,0.01,50.0,1.67,0.0,4,0,4,6
350870187,0.01,50.0,1.66,0.0,4,0,4,6
350901450,0.01,50.0,1.67,0.0,4,0,4,6
350934212,0.01,50.0,1.66,0.0,4,0,4,6
350967058,0.01,50.0,1.66,0.0,64,0,4,6
350998542,0.01,50.0,1.66,0.0,64,0,4,6
351030977,0.01,50.0,1.67,0.0,64,0,4,6
351063069,0.01,50.0,1.67,0.0,64,0,4,6
351094911,0.01,50.0,1.68,0.0,64,0,4,6
351127012,0.01,50.0,1.67,0.0,64,0,4,6
351158734,0.01,50.0,1.67,0.0,0,0,4,6
351191403,0.01,50.0,1.67,0.0,64,0,4,6
351223742,0.01,50.0,1.65,0.0,64,0,4,6
351254832,0.01,50.0,1.67,0.0,0,0,4,6
351286956,0.01,50.0,1.67,0.0,64,0,4,6
351318820,0.01,50.0,1.66,0.0,64,0,4,6
351350820,0.01,50.0,1.66,0.0,64,0,4,6
351383522,0.01,50.0,1.67,0.0,0,0,4,6
351415857,0.01,50.0,1.67,0.0,64,0,4,6
351447632,0.01,50.0,1.67,0.0,64,0,4,6
351478892,0.01,50.0,1.66,0.0,64,0,4,6
351510845,0.01,50.0,1.67,0.0,64,0,4,6
351542986,0.01,50.0,1.67,0.0,64,0,4,6
351574855,0.01,50.0,1.66,0.0,64,0,4,6
351606854,0.01,50.0,1.67,0.0,64,0,4,6
351638593,0.01,50.0,1.67,0.0,64,0,4,6
351670221,0.01,50.0,1.66,0.0,4,0,4,6
351701280,0.01,50.0,1.66,0.0,4,0,4,6
351732698,0.01,50.0,1.66,0.0,4,0,4,6
351765374,0.01,50.0,1.67,0.0,4,0,4,6
351797380,0.01,50.0,1.68,0.0,4,0,4,6
351828942,0.01,50.0,1.67,0.0,4,0,4,6
351861327,0.01,50.0,1.67,0.0,4,0,4,6
351893331,0.01,50.0,1.67,0.0,4,0,4,6
351925345,0.01,50.0,1.66,0.0,4,0,4,6
351957311,0.01,50.0,1.66,0.0,4,0,4,6
351989371,0.01,50.0,1.66,0.0,4,0,4,6
352021379,0.01,50.0,1.66,0.0,4,0,4,6
352053464,0.01,50.0,1.67,0.0,4,0,4,6
352085317,0.01,50.0,1.68,0.0,4,0,4,6
352117782,0.01,50.0,1.67,0.0,4,0,4,6
352149556,0.01,50.0,1.67,0.0,4,0,4,6
352181017,0.01,50.0,1.66,0.0,4,0,4,6
352212941,0.01,50.0,1.67,0.0,4,0,4,6
352244733,0.01,50.0,1.64,0.0,4,0,4,6
352277347,0.01,50.0,1.67,0.0,4,0,4,6
352309114,0.01,50.0,1.66,0.0,4,0,4,6
352340599,0.01,50.0,1.67,0.0,4,0,4,6
352372946,0.01,50.0,1.66,0.0,4,0,4,6
352405286,0.01,50.0,1.67,0.0,4,0,4,6
352437146,0.01,50.0,1.67,0.0,64,0,4,6
352467865,0.01,50.0,1.67,0.0,64,0,4,6
352499320,0.01,50.0,1.67,0.0,4,0,4,6
352531384,0.01,50.0,1.67,0.0,4,0,4,6
352562857,0.01,50.0,1.67,0.0,4,0,4,6
352594991,0.01,50.0,1.66,0.0,4,0,4,6
352627360,0.01,50.0,1.68,0.0,4,0,4,6
352659409,0.01,50.0,1.67,0.0,4,0,4,6
352691777,0.01,50.0,1.67,0.0,64,0,4,6
352723797,0.01,50.0,1.66,0.0,0,0,4,6
352754850,0.01,50.0,1.67,0.0,1,0,4,6
352786395,0.01,50.0,1.68,0.0,4,0,4,6
352818369,0.01,50.0,1.65,0.0,4,0,4,6
352850231,0.01,50.0,1.67,0.0,4,0,4,6
352882988,0.01,50.0,1.68,0.0,4,0,4,6
352914563,0.01,50.0,1.67,0.0,4,0,4,6
352947313,0.01,50.0,1.67,0.0,4,0,4,6
352979329,0.01,50.0,1.66,0.0,4,0,4,6
353011041,0.01,50.0,1.67,0.0,4,0,4,6
353043356,0.01,50.0,1.67,0.0,4,0,4,6
353076591,0.01,50.0,1.67,0.0,4,0,4,6
353107826,0.01,50.0,1.68,0.0,4,0,4,6
353141127,0.01,50.0,1.68,0.0,4,0,4,6
353173341,0.01,50.0,1.67,0.0,4,0,4,6
353204953,0.01,50.0,1.67,0.0,4,0,4,6
353236274,0.01,50.0,1.66,0.0,4,0,4,6
353268487,0.01,50.0,1.66,0.0,4,0,4,6
353299954,0.01,50.0,1.66,0.0,4,0,4,6
353332601,0.01,50.0,1.67,0.0,4,0,4,6
353363765,0.01,50.0,1.66,0.0,4,0,4,6
353395927,0.01,50.0,1.66,0.0,4,0,4,6
353428912,0.01,50.0,1.66,0.0,4,0,4,6
353461366,0.01,50.0,1.67,0.0,4,0,4,6
353493332,0.01,50.0,1.67,0.0,4,0,4,6
353525339,0.01,50.0,1.67,0.0,4,0,4,6
353557309,0.01,50.0,1.66,0.0,4,0,4,6
353588484,0.01,50.0,1.66,0.0,4,0,4,6
353620496,0.01,50.0,1.66,0.0,4,0,4,6
353652943,0.01,50.0,1.67,0.0,-68,0,4,6
353684330,0.01,50.0,1.66,0.0,4,0,4,6
353716622,0.01,50.0,1.67,0.0,4,0,4,6
353748653,0.01,50.0,1.66,0.0,4,0,4,6
353781113,0.01,50.0,1.66,0.0,64,0,4,6
353813373,0.01,50.0,1.66,0.0,4,0,4,6
353845748,0.01,50.0,1.67,0.0,64,0,4,6
353878002,0.01,50.0,1.67,0.0,64,0,4,6
353909571,0.01,50.0,1.67,0.0,4,0,4,6
353941778,0.01,50.0,1.66,0.0,64,0,4,6
353973762,0.01,50.0,1.66,0.0,64,0,4,6
354005906,0.01,50.0,1.66,0.0,4,0,4,6
354037971,0.01,50.0,1.66,0.0,64,0,4,6
354069959,0.01,50.0,1.67,0.0,64,0,4,6
354100925,0.01,50.0,1.67,0.0,4,0,4,6
354133780,0.01,50.0,1.67,0.0,64,0,4,6
354165767,0.01,50.0,1.66,0.0,0,0,4,6
354196950,0.01,50.0,1.65,0.0,4,0,4,6
354229308,0.01,50.0,1.67,0.0,64,0,4,6
354261774,0.01,50.0,1.67,0.0,0,0,4,6
354292917,0.01,50.0,1.66,0.0,64,0,4,6
354325332,0.01,50.0,1.67,0.0,0,0,4,6
354357980,0.01,50.0,1.66,0.0,-68,0,4,6
354388974,0.01,50.0,1.68,0.0,64,0,4,6
354421119,0.01,50.0,1.67,0.0,64,0,4,6
354453331,0.01,50.0,1.65,0.0,64,0,4,6
354485749,0.01,50.0,1.66,0.0,64,0,4,6
354517996,0.01,50.0,1.66,0.0,64,0,4,6
354550242,0.01,50.0,1.67,0.0,64,0,4,6
354581712,0.01,50.0,1.66,0.0,64,0,4,6
354614694,0.01,50.0,1.65,0.0,64,0,4,6
354646823,0.01,50.0,1.67,0.0,0,0,4,6
354678911,0.01,50.0,1.67,0.0,4,0,4,6
354710903,0.01,50.0,1.67,0.0,64,0,4,6
354742260,0.01,50.0,1.67,0.0,64,0,4,6
354774054,0.01,50.0,1.66,0.0,64,0,4,6
354806182,0.01,50.0,1.66,0.0,64,0,4,6
354837943,0.01,50.0,1.66,0.0,0,0,4,6
354870517,0.01,50.0,1.66,0.0,0,0,4,6
354902846,0.01,50.0,1.66,0.0,64,0,4,6
354934821,0.01,50.0,1.66,0.0,0,0,4,6
354966626,0.01,50.0,1.68,0.0,64,0,4,6
354997930,0.01,50.0,1.67,0.0,64,0,4,6
355030559,0.01,50.0,1.67,0.0,64,0,4,6
355062925,0.01,50.0,1.67,0.0,-116,0,4,6
355094582,0.01,50.0,1.67,0.0,64,0,4,6
355126844,0.01,50.0,1.66,0.0,0,0,4,6
355158901,0.01,50.0,1.67,0.0,64,0,4,6
355190856,0.01,50.0,1.66,0.0,64,0,4,6
355221998,0.01,50.0,1.66,0.0,64,0,4,6
355253743,0.01,50.0,1.67,0.0,64,0,4,6
355286217,0.01,50.0,1.64,0.0,64,0,4,6
355318579,0.01,50.0,1.66,0.0,64,0,4,6
355350897,0.01,50.0,1.66,0.0,0,0,4,6
355382606,0.01,50.0,1.67,0.0,4,0,4,6
355414870,0.01,50.0,1.66,0.0,64,0,4,6
355446648,0.01,50.0,1.67,0.0,64,0,4,6
355478871,0.01,50.0,1.65,0.0,0,0,4,6
355511020,0.01,50.0,1.67,0.0,64,0,4,6
355542609,0.01,50.0,1.67,0.0,64,0,4,6
355574852,0.01,50.0,1.67,0.0,64,0,4,6
355606907,0.01,50.0,1.67,0.0,0,0,4,6
355638515,0.01,50.0,1.67,0.0,64,0,4,6
355670837,0.01,50.0,1.67,0.0,64,0,4,6
355702532,0.01,50.0,1.66,0.0,64,0,4,6
355734348,0.01,50.0,1.66,0.0,64,0,4,6
355766866,0.01,50.0,1.67,0.0,112,0,4,6
355798892,0.01,50.0,1.67,0.0,64,0,4,6
355830674,0.01,50.0,1.67,0.0,0,0,4,6
355862945,0.01,50.0,1.67,0.0,64,0,4,6
355894356,0.01,50.0,1.67,0.0,64,0,4,6
355926818,0.01,50.0,1.67,0.0,0,0,4,6
355958596,0.01,50.0,1.65,0.0,64,0,4,6
355990910,0.01,50.0,1.67,0.0,0,0,4,6
356022313,0.01,50.0,1.67,0.0,64,0,4,6
356054880,0.01,50.0,1.66,0.0,64,0,4,6
356086364,0.01,50.0,1.67,0.0,64,0,4,6
356118931,0.01,50.0,1.67,0.0,64,0,4,6
356151666,0.01,50.0,1.68,0.0,0,0,4,6
356185403,0.01,50.0,1.67,0.0,64,0,4,6
356218060,0.01,50.0,1.67,0.0,0,0,4,6
356249759,0.01,50.0,1.67,0.0,0,0,4,6
356281336,0.01,50.0,1.66,0.0,64,0,4,6
356313153,0.01,50.0,1.68,0.0,0,0,4,6
356345691,0.01,50.0,1.66,0.0,64,0,4,6
356377895,0.01,50.0,1.66,0.0,64,0,4,6
356409482,0.01,50.0,1.66,0.0,64,0,4,6
356441889,0.01,50.0,1.66,0.0,64,0,4,6
356473799,0.01,50.0,1.67,0.0,64,0,4,6
356505745,0.01,50.0,1.65,0.0,64,0,4,6
356537999,0.01,50.0,1.67,0.0,64,0,4,6
356568984,0.01,50.0,1.67,0.0,64,0,4,6
356601773,0.01,50.0,1.67,0.0,64,0,4,6
356632975,0.01,50.0,1.67,0.0,64,0,4,6
356665393,0.01,50.0,1.67,0.0,64,0,4,6
356697029,0.01,50.0,1.66,0.0,64,0,4,6
356728938,0.01,50.0,1.67,0.0,64,0,4,6
356761511,0.01,50.0,1.66,0.0,0,0,4,6
356793764,0.01,50.0,1.67,0.0,64,0,4,6
356825754,0.01,50.0,1.67,0.0,64,0,4,6
356858759,0.01,50.0,1.66,0.0,64,0,4,6
356890035,0.01,50.0,1.67,0.0,0,0,4,6
356921950,0.01,50.0,1.67,0.0,64,0,4,6
356953145,0.01,50.0,1.67,0.0,64,0,4,6
356983781,0.01,50.0,1.67,0.0,64,0,4,6
357015767,0.01,50.0,1.67,0.0,64,0,4,6
357046880,0.01,50.0,1.67,0.0,64,0,4,6
357079317,0.01,50.0,1.66,0.0,64,0,4,6
357111755,0.01,50.0,1.67,0.0,64,0,4,6
357143029,0.01,50.0,1.67,0.0,64,0,4,6
357174852,0.01,50.0,1.66,0.0,64,0,4,6
357206834,0.01,50.0,1.67,0.0,64,0,4,6
357239369,0.01,50.0,1.68,0.0,4,0,4,6
357270848,0.01,50.0,1.67,0.0,64,0,4,6
357302854,0.01,50.0,1.67,0.0,64,0,4,6
357335039,0.01,50.0,1.66,0.0,64,0,4,6
357366916,0.01,50.0,1.67,0.0,0,0,4,6
357399042,0.01,50.0,1.66,0.0,64,0,4,6
357430579,0.01,50.0,1.66,0.0,0,0,4,6
357463408,0.01,50.0,1.67,0.0,0,0,4,6
357495767,0.01,50.0,1.67,0.0,0,0,4,6
357527754,0.01,50.0,1.66,0.0,64,0,4,6
357559064,0.01,50.0,1.66,0.0,4,0,4,6
357589912,0.01,50.0,1.66,0.0,0,0,4,6
357621912,0.01,50.0,1.67,0.0,64,0,4,6
357653770,0.01,50.0,1.68,0.0,64,0,4,6
357685777,0.01,50.0,1.67,0.0,64,0,4,6
357717983,0.01,50.0,1.67,0.0,64,0,4,6
357748741,0.01,50.0,1.67,0.0,64,0,4,6
357779913,0.01,50.0,1.66,0.0,0,0,4,6
357811755,0.01,50.0,1.65,0.0,64,0,4,6
357843769,0.01,50.0,1.67,0.0,64,0,4,6
357875758,0.01,50.0,1.67,0.0,64,0,4,6
357907857,0.01,50.0,1.66,0.0,64,0,4,6
357939535,0.01,50.0,1.66,0.0,0,0,4,6
357971530,0.01,50.0,1.66,0.0,4,0,4,6
358003806,0.01,50.0,1.66,0.0,0,0,4,6
358035553,0.01,50.0,1.66,0.0,64,0,4,6
358067837,0.01,50.0,1.67,0.0,0,0,4,6
358099491,0.01,50.0,1.66,0.0,64,0,4,6
358131871,0.01,50.0,1.67,0.0,64,0,4,6
358163765,0.01,50.0,1.65,0.0,64,0,4,6
358195840,0.01,50.0,1.67,0.0,64,0,4,6
358227490,0.01,50.0,1.66,0.0,64,0,4,6
358259507,0.01,50.0,1.67,0.0,4,0,4,6
358292348,0.01,50.0,1.66,0.0,64,0,4,6
358324379,0.01,50.0,1.68,0.0,64,0,4,6
358356758,0.01,50.0,1.66,0.0,0,0,4,6
358388767,0.01,50.0,1.67,0.0,0,0,4,6
358420357,0.01,50.0,1.67,0.0,64,0,4,6
358452773,0.01,50.0,1.67,0.0,64,0,4,6
358484944,0.01,50.0,1.66,0.0,64,0,4,6
358516318,0.01,50.0,1.66,0.0,64,0,4,6
358547096,0.01,50.0,1.67,0.0,4,0,4,6
358580358,0.01,50.0,1.66,0.0,64,0,4,6
358612354,0.01,50.0,1.67,0.0,64,0,4,6
358644754,0.01,50.0,1.67,0.0,64,0,4,6
358676761,0.01,50.0,1.66,0.0,64,0,4,6
358708564,0.01,50.0,1.66,0.0,0,0,4,6
358740745,0.01,50.0,1.68,0.0,64,0,4,6
358772751,0.01,50.0,1.66,0.0,0,0,4,6
358804378,0.01,50.0,1.67,0.0,0,0,4,6
358836601,0.01,50.0,1.67,0.0,4,0,4,6
358868492,0.01,50.0,1.66,0.0,64,0,4,6
358900961,0.01,50.0,1.66,0.0,64,0,4,6
358932758,0.01,50.0,1.66,0.0,64,0,4,6
358964993,0.01,50.0,1.67,0.0,64,0,4,6
358996919,0.01,50.0,1.66,0.0,0,0,4,6
359029246,0.01,50.0,1.67,0.0,4,0,4,6
359060912,0.01,50.0,1.68,0.0,0,0,4,6
359092392,0.01,50.0,1.67,0.0,64,0,4,6
359124293,0.01,50.0,1.66,0.0,64,0,4,6
359156469,0.01,50.0,1.67,0.0,0,0,4,6
359188521,0.01,50.0,1.68,0.0,64,0,4,6
359220622,0.01,50.0,1.67,0.0,4,0,4,6
359252741,0.01,50.0,1.67,0.0,64,0,4,6
359284791,0.01,50.0,1.67,0.0,64,0,4,6
359316458,0.01,50.0,1.66,0.0,4,0,4,6
359348771,0.01,50.0,1.66,0.0,64,0,4,6
359379751,0.01,50.0,1.66,0.0,4,0,4,6
359411355,0.01,50.0,1.67,0.0,4,0,4,6
359443389,0.01,50.0,1.67,0.0,4,0,4,6
359475851,0.01,50.0,1.67,0.0,4,0,4,6
359507845,0.01,50.0,1.67,0.0,4,0,4,6
359540169,0.01,50.0,1.67,0.0,4,0,4,6
359571328,0.01,50.0,1.67,0.0,4,0,4,6
359603351,0.01,50.0,1.66,0.0,4,0,4,6
359634977,0.01,50.0,1.67,0.0,18,0,4,6
359667163,0.01,50.0,1.67,0.0,4,0,4,6
359699771,0.01,50.0,1.67,0.0,4,0,4,6
359732351,0.01,50.0,1.66,0.0,4,0,4,6
359763835,0.01,50.0,1.67,0.0,4,0,4,6
359795356,0.01,50.0,1.66,0.0,4,0,4,6
359827629,0.01,50.0,1.66,0.0,4,0,4,6
359859377,0.01,50.0,1.68,0.0,4,0,4,6
359891789,0.01,50.0,1.67,0.0,4,0,4,6
359924403,0.01,50.0,1.67,0.0,4,0,4,6
359956524,0.01,50.0,1.66,0.0,4,0,4,6
359989913,0.01,50.0,1.66,0.0,4,0,4,6
360022200,0.01,50.0,1.66,0.0,4,0,4,6
360053744,0.01,50.0,1.67,0.0,4,0,4,6
360085494,0.01,50.0,1.67,0.0,4,0,4,6
360117105,0.01,50.0,1.66,0.0,4,0,4,6
360149523,0.01,50.0,1.66,0.0,4,0,4,6
360181383,0.01,50.0,1.67,0.0,4,0,4,6
360213323,0.01,50.0,1.67,0.0,4,0,4,6
360245909,0.01,50.0,1.67,0.0,4,0,4,6
360279100,0.01,50.0,1.67,0.0,4,0,4,6
360310234,0.01,50.0,1.67,0.0,4,0,4,6
360341385,0.01,50.0,1.67,0.0,4,0,4,6
360373393,0.01,50.0,1.67,0.0,4,0,4,6
360404963,0.01,50.0,1.67,0.0,4,0,4,6
360436978,0.01,50.0,1.66,0.0,4,0,4,6
360469285,0.01,50.0,1.66,0.0,4,0,4,6
360500651,0.01,50.0,1.66,0.0,4,0,4,6
360533004,0.01,50.0,1.67,0.0,4,0,4,6
360565374,0.01,50.0,1.66,0.0,4,0,4,6
360597372,0.01,50.0,1.67,0.0,4,0,4,6
360630825,0.01,50.0,1.66,0.0,4,0,4,6
360663317,0.01,50.0,1.68,0.0,4,0,4,6
360695317,0.01,50.0,1.68,0.0,4,0,4,6
360726823,0.01,50.0,1.67,0.0,4,0,4,6
360758556,0.01,50.0,1.67,0.0,4,0,4,6
360790973,0.01,50.0,1.66,0.0,4,0,4,6
360822197,0.01,50.0,1.66,0.0,4,0,4,6
360855003,0.01,50.0,1.66,0.0,4,0,4,6
360886220,0.01,50.0,1.66,0.0,4,0,4,6
360918963,0.01,50.0,1.67,0.0,4,0,4,6
360950932,0.01,50.0,1.65,0.0,4,0,4,6
360982219,0.01,50.0,1.67,0.0,4,0,4,6
361014105,0.01,50.0,1.67,0.0,4,0,4,6
361046972,0.01,50.0,1.65,0.0,4,0,4,6
361079347,0.01,50.0,1.68,0.0,4,0,4,6
361110942,0.01,50.0,1.67,0.0,4,0,4,6
361143341,0.01,50.0,1.67,0.0,4,0,4,6
361175363,0.01,50.0,1.66,0.0,4,0,4,6
361207350,0.01,50.0,1.67,0.0,4,0,4,6
361239404,0.01,50.0,1.66,0.0,4,0,4,6
361271381,0.01,50.0,1.66,0.0,4,0,4,6
361303366,0.01,50.0,1.68,0.0,4,0,4,6
361335948,0.01,50.0,1.68,0.0,4,0,4,6
361368365,0.01,50.0,1.6899999,0.0,4,0,4,6
361400745,0.01,50.0,1.67,0.0,64,0,4,6
361432939,0.01,50.0,1.68,0.0,0,0,4,6
361464939,0.01,50.0,1.66,0.0,64,0,4,6
361496936,0.01,50.0,1.66,0.0,0,0,4,6
361527936,0.01,50.0,1.66,0.0,4,0,4,6
361559068,0.01,50.0,1.67,0.0,4,0,4,6
361591090,0.01,50.0,1.66,0.0,4,0,4,6
361623323,0.01,50.0,1.66,0.0,4,0,4,6
361655316,0.01,50.0,1.68,0.0,4,0,4,6
361687314,0.01,50.0,1.65,0.0,4,0,4,6
361719493,0.01,50.0,1.68,0.0,4,0,4,6
361751502,0.01,50.0,1.66,0.0,4,0,4,6
361783044,0.01,50.0,1.67,0.0,4,0,4,6
361815027,0.01,50.0,1.67,0.0,4,0,4,6
361847360,0.01,50.0,1.67,0.0,4,0,4,6
361879340,0.01,50.0,1.66,0.0,4,0,4,6
361911106,0.01,50.0,1.66,0.0,4,0,4,6
361943374,0.01,50.0,1.67,0.0,4,0,4,6
361974921,0.01,50.0,1.66,0.0,4,0,4,6
362007345,0.01,50.0,1.67,0.0,4,0,4,6
362039401,0.01,50.0,1.67,0.0,4,0,4,6
362072155,0.01,50.0,1.66,0.0,4,0,4,6
362102858,0.01,50.0,1.66,0.0,1,0,4,6
362133905,0.01,50.0,1.66,0.0,4,0,4,6
362165690,0.01,50.0,1.67,0.0,4,0,4,6
362198550,0.01,50.0,1.67,0.0,4,0,4,6
362229897,0.01,50.0,1.66,0.0,4,0,4,6
362261744,0.01,50.0,1.66,0.0,4,0,4,6
362294331,0.01,50.0,1.66,0.0,4,0,4,6
362326171,0.01,50.0,1.67,0.0,4,0,4,6
362358371,0.01,50.0,1.67,0.0,4,0,4,6
362390186,0.01,50.0,1.67,0.0,4,0,4,6
362422104,0.01,50.0,1.66,0.0,4,0,4,6
362454173,0.01,50.0,1.67,0.0,4,0,4,6
362486036,0.01,50.0,1.67,0.0,4,0,4,6
362518561,0.01,50.0,1.66,0.0,4,0,4,6
