timestamp,voltage_v,voltage_filtered_v,current_a,current_filtered_a,average_current_a,discharged_mah,remaining,scale,temperature,cell_count,capacity,cycle_count,run_time_to_empty,average_time_to_empty,serial_number,connected,system_source,priority,is_powering_off,warning
310017274,13.2266,13.243139,0.0,3.5e-44,0.0,115.821686,1.0,1.0,0.0,3,0,0,0,0,0,1,1,0,0,0
310523724,13.2102,13.233267,0.0,3.5e-44,0.0,115.821686,1.0,1.0,0.0,3,0,0,0,0,0,1,1,0,0,0
311029545,13.202,13.221141,0.0,3.5e-44,0.0,115.821686,1.0,1.0,0.0,3,0,0,0,0,0,1,1,0,0,0
311522845,13.1938,13.211925,0.0,3.5e-44,0.0,115.821686,1.0,1.0,0.0,3,0,0,0,0,0,1,1,0,0,0
312026904,13.1938,13.20644,0.0,3.5e-44,0.0,115.821686,1.0,1.0,0.0,3,0,0,0,0,0,1,1,0,0,0
312532450,13.0872,13.186024,0.1736,0.0085369535,0.0,115.82313,1.0,1.0,0.0,3,0,0,0,0,0,1,1,0,0,0
313026023,13.128201,13.168778,0.0,0.0074239993,0.0,115.8245,1.0,1.0,0.0,3,0,0,0,0,0,1,1,0,0,0
313530011,13.0626,13.13941,0.496,0.18708381,0.0,115.86727,1.0,1.0,0.0,3,0,0,0,0,0,1,1,0,0,0
314035706,12.9232,13.075021,1.4755999,0.8252685,0.0,116.03892,1.0,1.0,0.0,3,0,0,0,0,0,1,1,0,0,0
314529287,12.6608,12.9854145,3.3107998,1.6458719,0.0,116.3332,1.0,1.0,0.0,3,0,0,0,0,0,1,1,0,0,0
315538856,12.1196,12.593049,6.6215997,5.2346497,0.0,117.91132,1.0,1.0,0.0,3,0,0,0,0,0,1,1,0,0,0
316032455,12.1688,12.45462,6.7455997,5.974833,0.0,118.80596,1.0,1.0,0.0,3,0,0,0,0,0,1,1,0,0,0
316536448,11.849,12.296706,8.7544,7.0143895,0.0,119.87343,1.0,1.0,0.0,3,0,0,0,0,0,1,1,0,0,0
317042105,11.808,12.146157,8.432,7.904707,0.0,121.07997,1.0,1.0,0.0,3,0,0,0,0,0,1,1,0,0,0
317547877,11.7834,12.047746,8.4444,8.212877,0.0,122.26625,1.0,1.0,0.0,3,0,0,0,0,0,1,1,0,0,0
318039682,11.7916,11.972017,8.5188,8.36146,0.0,123.4231,1.0,1.0,0.0,3,0,0,0,0,0,1,1,0,0,0
319554891,12.0212,11.809442,6.448,8.33219,0.0,127.201866,1.0,1.0,0.0,3,0,0,0,0,0,1,1,0,0,0
320048522,12.0458,11.889653,6.1752,7.2091703,0.0,128.07204,1.0,1.0,0.0,3,0,0,0,0,0,1,1,0,0,0
320554052,12.0048,11.944299,6.0635996,6.671827,0.0,128.95297,1.0,1.0,0.0,3,0,0,0,0,0,1,1,0,0,0
321058117,11.9556,11.978752,6.8696,6.430951,0.0,129.82408,1.0,1.0,0.0,3,0,0,0,0,0,1,1,0,0,0
321551668,10.9224,11.692645,14.7436,10.082849,0.0,131.52455,1.0,1.0,0.0,3,0,0,0,0,0,1,1,0,0,0
322057278,11.5784,11.514167,9.052,11.276065,0.0,133.29608,0.9276362,1.0099248,0.0,3,0,0,0,0,0,1,1,0,0,0
322561260,12.0048,11.668753,6.138,8.458041,0.0,134.19275,1.0,1.0,0.0,3,0,0,0,0,0,1,1,0,0,0
323054857,12.0212,11.776021,6.2372003,7.26671,0.0,135.0627,1.0,1.0,0.0,3,0,0,0,0,0,1,1,0,0,0
323560618,11.9228,11.843377,6.6215997,6.740871,0.0,135.9518,1.0,1.0,0.0,3,0,0,0,0,0,1,1,0,0,0
324064653,11.4472,11.795934,9.9696,7.642132,0.0,137.08772,1.0,1.0,0.0,3,0,0,0,0,0,1,1,0,0,0
324558168,11.5128,11.709049,9.486,8.674983,0.0,138.38316,1.0,1.0,0.0,3,0,0,0,0,0,1,1,0,0,0
325063665,11.5374,11.634199,9.734,9.241315,0.0,139.73889,0.9893041,1.0014546,0.0,3,0,0,0,0,0,1,1,0,0,0
325556497,11.4554,11.577409,9.944799,9.57105,0.0,141.08102,0.95900255,1.0055988,0.0,3,0,0,0,0,0,1,1,0,0,0
326061361,11.398,11.540269,9.473599,9.615009,0.0,142.43784,0.93886954,1.0083711,0.0,3,0,0,0,0,0,1,1,0,0,0
326566853,12.0130005,11.658134,6.2992,7.811827,0.0,143.37213,0.999765,1.000032,0.0,3,0,0,0,0,0,1,1,0,0,0
327060505,11.9474,11.747005,6.138,6.8609414,0.0,144.21141,1.0,1.0,0.0,3,0,0,0,0,0,1,1,0,0,0
327564457,11.7998,11.811197,6.7332,6.422723,0.0,145.06262,1.0,1.0,0.0,3,0,0,0,0,0,1,1,0,0,0
328070080,11.2832,11.709049,10.341599,8.052888,0.0,146.33818,1.0,1.0,0.0,3,0,0,0,0,0,1,1,0,0,0
328575661,11.2668,11.582529,10.416,9.398533,0.0,147.80264,0.95856386,1.005659,0.0,3,0,0,0,0,0,1,1,0,0,0
329067769,11.2422,11.491873,10.5772,9.951599,0.0,149.2214,0.9103103,1.0123303,0.0,3,0,0,0,0,0,1,1,0,0,0
329573256,11.3406,11.42794,10.2671995,10.217948,0.0,150.68542,0.8760558,1.0171201,0.0,3,0,0,0,0,0,1,1,0,0,0
330078060,11.8408,11.494462,6.0635996,8.780158,0.0,151.83485,0.91026264,1.0123369,0.0,3,0,0,0,0,0,1,1,0,0,0
330570134,11.8982,11.619581,6.2868,7.281154,0.0,152.6712,0.97355133,1.0036048,0.0,3,0,0,0,0,0,1,1,0,0,0
331075643,11.8408,11.710903,5.8403997,6.5441113,0.0,153.51424,1.0,1.0,0.0,3,0,0,0,0,0,1,1,0,0,0
331579772,11.562,11.761346,7.5516,6.3111086,0.0,154.36578,1.0,1.0,0.0,3,0,0,0,0,0,1,1,0,0,0
332073287,11.4718,11.628085,9.3124,8.287783,0.0,155.72682,0.97772557,1.0030341,0.0,3,0,0,0,0,0,1,1,0,0,0
332578885,11.4144,11.562763,9.2132,8.843584,0.0,157.02905,0.9444433,1.0076021,0.0,3,0,0,0,0,0,1,1,0,0,0
333082925,11.6604,11.557629,7.8492,8.542935,0.0,158.20996,0.9416767,1.0079837,0.0,3,0,0,0,0,0,1,1,0,0,0
333575693,11.562,11.572044,7.8367996,8.20569,0.0,159.2975,0.948577,1.0070325,0.0,3,0,0,0,0,0,1,1,0,0,0
334079676,11.4554,11.552679,8.6924,8.424843,0.0,160.4933,0.9381066,1.0084765,0.0,3,0,0,0,0,0,1,1,0,0,0
334585297,11.5374,11.535878,8.618,8.529366,0.0,161.70424,0.9291635,1.0097132,0.0,3,0,0,0,0,0,1,1,0,0,0
335079060,11.3652,11.507745,9.548,8.731054,0.0,162.91473,0.9135657,1.0118774,0.0,3,0,0,0,0,0,1,1,0,0,0
335584471,11.2422,11.45645,10.2796,9.204167,0.0,164.24973,0.88606983,1.0157151,0.0,3,0,0,0,0,0,1,1,0,0,0
336088468,11.1684,11.373734,10.5772,9.979305,0.0,165.72395,0.84208876,1.0219147,0.0,3,0,0,0,0,0,1,1,0,0,0
336582056,11.357,11.314926,9.982,10.286271,0.0,167.17043,0.81040674,1.0264277,0.0,3,0,0,0,0,0,1,1,0,0,0
337087740,11.7588005,11.47539,6.1503997,7.8631196,0.0,168.03549,0.89338356,1.0146915,0.0,3,0,0,0,0,0,1,1,0,0,0
337591727,11.8572,11.589007,5.9644,6.7767,0.0,168.87134,0.9511667,1.006676,0.0,3,0,0,0,0,0,1,1,0,0,0
338085205,10.7584,11.571185,12.722401,7.5462627,0.0,169.91199,0.9404059,1.008159,0.0,3,0,0,0,0,0,1,1,0,0,0
338590954,11.0782,11.307969,11.408,10.911893,0.0,171.82861,0.8027869,1.0275191,0.0,3,0,0,0,0,0,1,1,0,0,0
339094853,11.1848,11.255385,10.2548,10.760142,0.0,173.31868,0.77573115,1.031413,0.0,3,0,0,0,0,0,1,1,0,0,0
339600495,11.7424,11.394552,6.1008,8.549098,0.0,174.3401,0.849412,1.0208772,0.0,3,0,0,0,0,0,1,1,0,0,0
340093284,11.7998,11.524968,6.0016,7.12999,0.0,175.1655,0.91637903,1.0114863,0.0,3,0,0,0,0,0,1,1,0,0,0
340597241,11.398,11.573528,9.250401,6.9518723,0.0,176.08234,0.9404641,1.008151,0.0,3,0,0,0,0,0,1,1,0,0,0
341102965,11.0126,11.447735,11.718,8.941793,0.0,177.51031,0.87534815,1.0172195,0.0,3,0,0,0,0,0,1,1,0,0,0
341595631,11.7916,11.446957,5.6296,8.60462,0.0,178.73038,0.87694126,1.0169957,0.0,3,0,0,0,0,0,1,1,0,0,0
342100498,11.7178,11.530884,6.2992,7.429579,0.0,179.64352,0.9183722,1.0112095,0.0,3,0,0,0,0,0,1,1,0,0,0
342606135,11.398,11.577135,7.998,7.1259246,0.0,180.58525,0.93904215,1.0083474,0.0,3,0,0,0,0,0,1,1,0,0,0
343099740,12.0212,11.553692,7.1052003,7.506702,0.0,181.6501,0.9240833,1.0104171,0.0,3,0,0,0,0,0,1,1,0,0,0
343603778,12.2426,11.663985,2.3064,6.009169,0.0,182.387,0.9813877,1.002534,0.0,3,0,0,0,0,0,1,1,0,0,0
344109219,12.6526,11.901997,0.0,3.493927,0.0,182.64719,1.0,1.0,0.0,3,0,0,0,0,0,1,1,0,0,0
344602209,12.669,12.154569,0.0,1.526101,0.0,182.64719,1.0,1.0,0.0,3,0,0,0,0,0,1,1,0,0,0
345106182,12.7182,12.193913,0.0,2.2404456,0.0,182.99666,1.0,1.0,0.0,3,0,0,0,0,0,1,1,0,0,0
345611765,12.6854,12.366719,0.0,0.959025,0.0,182.99666,1.0,1.0,0.0,3,0,0,0,0,0,1,1,0,0,0
346115684,12.7018,12.484731,0.0,0.41051167,0.0,182.99666,1.0,1.0,0.0,3,0,0,0,0,0,1,1,0,0,0
346609226,12.7018,12.567268,0.0,0.17930605,0.0,182.99666,1.0,1.0,0.0,3,0,0,0,0,0,1,1,0,0,0
347114910,12.7346,12.628701,0.0,0.07675215,0.0,182.99666,1.0,1.0,0.0,3,0,0,0,0,0,1,1,0,0,0
347608494,12.7674,12.672106,0.0,0.03352432,0.0,182.99666,1.0,1.0,0.0,3,0,0,0,0,0,1,1,0,0,0
348112631,12.7838,12.707387,0.0,0.014350116,0.0,182.99666,1.0,1.0,0.0,3,0,0,0,0,0,1,1,0,0,0
348617259,12.792,12.73458,0.0,0.0061425823,0.0,182.99666,1.0,1.0,0.0,3,0,0,0,0,0,1,1,0,0,0
350623877,12.8002,12.798336,0.0,0.0002104297,0.0,182.99666,1.0,1.0,0.0,3,0,0,0,0,0,1,1,0,0,0
351117227,12.8494005,12.811163,0.0,9.191293e-05,0.0,182.99666,1.0,1.0,0.0,3,0,0,0,0,0,1,1,0,0,0
351621281,12.8494005,12.8209095,0.0,3.934343e-05,0.0,182.99666,1.0,1.0,0.0,3,0,0,0,0,0,1,1,0,0,0
352126853,12.8576,12.831046,0.0,1.6840999e-05,0.0,182.99666,1.0,1.0,0.0,3,0,0,0,0,0,1,1,0,0,0
352620437,12.8576,12.839804,0.0,7.3559254e-06,0.0,182.99666,1.0,1.0,0.0,3,0,0,0,0,0,1,1,0,0,0
353126046,12.8576,12.847153,0.0,3.148711e-06,0.0,182.99666,1.0,1.0,0.0,3,0,0,0,0,0,1,1,0,0,0
353630067,12.8658,12.854836,0.0,1.347809e-06,0.0,182.99666,1.0,1.0,0.0,3,0,0,0,0,0,1,1,0,0,0
354135659,12.8904,12.86398,0.0,5.7693103e-07,0.0,182.99666,1.0,1.0,0.0,3,0,0,0,0,0,1,1,0,0,0
354628662,12.8904,12.870459,0.0,2.519958e-07,0.0,182.99666,1.0,1.0,0.0,3,0,0,0,0,0,1,1,0,0,0
355132570,12.8986,12.874466,0.0,1.07867045e-07,0.0,182.99666,1.0,1.0,0.0,3,0,0,0,0,0,1,1,0,0,0
355638166,12.8494005,12.879564,0.0,4.6172616e-08,0.0,182.99666,1.0,1.0,0.0,3,0,0,0,0,0,1,1,0,0,0
356130102,12.8904,12.884892,0.0,2.0167585e-08,0.0,182.99666,1.0,1.0,0.0,3,0,0,0,0,0,1,1,0,0,0
356635646,12.8904,12.889783,0.0,8.632758e-09,0.0,182.99666,1.0,1.0,0.0,3,0,0,0,0,0,1,1,0,0,0
357141262,12.9068,12.894725,0.0,3.6952614e-09,0.0,182.99666,1.0,1.0,0.0,3,0,0,0,0,0,1,1,0,0,0
357634938,12.9232,12.898361,0.0,1.6140412e-09,0.0,182.99666,1.0,1.0,0.0,3,0,0,0,0,0,1,1,0,0,0
358138884,12.8822,12.904983,0.0,6.90892e-10,0.0,182.99666,1.0,1.0,0.0,3,0,0,0,0,0,1,1,0,0,0
358643591,12.9232,12.907964,0.0,2.9573696e-10,0.0,182.99666,1.0,1.0,0.0,3,0,0,0,0,0,1,1,0,0,0
359135610,12.9232,12.916753,0.0,1.2917398e-10,0.0,182.99666,1.0,1.0,0.0,3,0,0,0,0,0,1,1,0,0,0
359641285,12.9478,12.92393,0.0,5.5293062e-11,0.0,182.99666,1.0,1.0,0.0,3,0,0,0,0,0,1,1,0,0,0
360146858,12.9314,12.928187,0.0,2.3668251e-11,0.0,182.99666,1.0,1.0,0.0,3,0,0,0,0,0,1,1,0,0,0
360640560,12.9232,12.932234,0.0,1.033798e-11,0.0,182.99666,1.0,1.0,0.0,3,0,0,0,0,0,1,1,0,0,0
361144509,12.9232,12.93511,0.0,4.425182e-12,0.0,182.99666,1.0,1.0,0.0,3,0,0,0,0,0,1,1,0,0,0
361650149,12.9232,12.933547,0.0,1.8942031e-12,0.0,182.99666,1.0,1.0,0.0,3,0,0,0,0,0,1,1,0,0,0
362143646,12.9478,12.911475,0.0,0.1536487,0.0,183.03601,1.0,1.0,0.0,3,0,0,0,0,0,1,1,0,0,0
362647803,12.792,12.890368,0.5208,0.25177133,0.0,183.08427,1.0,1.0,0.0,3,0,0,0,0,0,1,1,0,0,0
363153212,12.7838,12.845073,0.9672,0.680836,0.0,183.22386,1.0,1.0,0.0,3,0,0,0,0,0,1,1,0,0,0
363646935,12.587,12.780682,2.5544,1.3722582,0.0,183.46135,1.0,1.0,0.0,3,0,0,0,0,0,1,1,0,0,0
364150859,12.382,12.673231,3.534,2.4078841,0.0,183.90411,1.0,1.0,0.0,3,0,0,0,0,0,1,1,0,0,0
364656711,12.1032,12.479173,6.1875997,4.4129205,0.0,184.7069,1.0,1.0,0.0,3,0,0,0,0,0,1,1,0,0,0
365150094,12.0376005,12.333509,6.2496,5.453624,0.0,185.56471,1.0,1.0,0.0,3,0,0,0,0,0,1,1,0,0,0
365655634,12.0868,12.228233,6.3736,5.9902167,0.0,186.45926,1.0,1.0,0.0,3,0,0,0,0,0,1,1,0,0,0
366159671,12.587,12.203619,1.7235999,5.541836,0.0,187.23036,1.0,1.0,0.0,3,0,0,0,0,0,1,1,0,0,0
366653793,12.4968,12.309966,2.2816,3.6944637,0.0,187.538,1.0,1.0,0.0,3,0,0,0,0,0,1,1,0,0,0
367158211,12.341,12.347694,3.3231997,3.3453436,0.0,187.9633,1.0,1.0,0.0,3,0,0,0,0,0,1,1,0,0,0
367662023,12.2016,12.299439,4.9476,4.1172113,0.0,188.61131,1.0,1.0,0.0,3,0,0,0,0,0,1,1,0,0,0
368167833,11.89,12.243899,7.4648,4.7458444,0.0,189.32927,1.0,1.0,0.0,3,0,0,0,0,0,1,1,0,0,0
368661223,12.0458,12.165255,6.4108,5.6032243,0.0,190.1929,1.0,1.0,0.0,3,0,0,0,0,0,1,1,0,0,0
369165267,12.0212,12.107207,6.262,5.923123,0.0,191.05629,1.0,1.0,0.0,3,0,0,0,0,0,1,1,0,0,0
369670920,11.972,12.055092,6.6215997,6.130943,0.0,191.93779,1.0,1.0,0.0,3,0,0,0,0,0,1,1,0,0,0
370164501,11.8654,12.019288,6.448,6.170431,0.0,192.78651,1.0,1.0,0.0,3,0,0,0,0,0,1,1,0,0,0
370668449,11.9392,11.995593,6.2372003,6.1718326,0.0,193.65025,1.0,1.0,0.0,3,0,0,0,0,0,1,1,0,0,0
371174004,11.9556,11.983857,6.2992,6.1671257,0.0,194.51718,1.0,1.0,0.0,3,0,0,0,0,0,1,1,0,0,0
371667735,11.9638,11.970615,6.2992,6.2267275,0.0,195.37486,1.0,1.0,0.0,3,0,0,0,0,0,1,1,0,0,0
372173334,12.0376005,11.958364,6.1875997,6.255679,0.0,196.25647,1.0,1.0,0.0,3,0,0,0,0,0,1,1,0,0,0
372677274,11.9064,11.947382,6.6092,6.2542763,0.0,197.13025,1.0,1.0,0.0,3,0,0,0,0,0,1,1,0,0,0
373170885,11.8818,11.934212,6.0884,6.266367,0.0,197.9935,1.0,1.0,0.0,3,0,0,0,0,0,1,1,0,0,0
373676419,11.9228,11.915243,6.014,6.3499064,0.0,198.89658,1.0,1.0,0.0,3,0,0,0,0,0,1,1,0,0,0
374180482,11.8654,11.905603,6.1008,6.332237,0.0,199.77951,1.0,1.0,0.0,3,0,0,0,0,0,1,1,0,0,0
374673292,11.9638,11.903767,6.138,6.2822466,0.0,200.63419,1.0,1.0,0.0,3,0,0,0,0,0,1,1,0,0,0
375178948,11.9638,11.904829,5.9396,6.2099996,0.0,201.5001,1.0,1.0,0.0,3,0,0,0,0,0,1,1,0,0,0
375682832,12.628,12.131755,0.124,3.1270318,0.0,201.66255,1.0,1.0,0.0,3,0,0,0,0,0,1,1,0,0,0
376188529,12.7592,12.340825,0.0,1.3417554,0.0,201.66374,1.0,1.0,0.0,3,0,0,0,0,0,1,1,0,0,0
376682079,12.7674,12.48606,0.0,0.586061,0.0,201.66374,1.0,1.0,0.0,3,0,0,0,0,0,1,1,0,0,0
377186100,12.8002,12.58777,0.0,0.250864,0.0,201.66374,1.0,1.0,0.0,3,0,0,0,0,0,1,1,0,0,0
377691646,12.8166,12.657603,0.0,0.10738259,0.0,201.66374,1.0,1.0,0.0,3,0,0,0,0,0,1,1,0,0,0
378185264,12.751,12.679817,0.1736,0.19661611,0.0,201.69495,1.0,1.0,0.0,3,0,0,0,0,0,1,1,0,0,0
378690886,12.628,12.656365,0.9672,0.7695663,0.0,201.8386,1.0,1.0,0.0,3,0,0,0,0,0,1,1,0,0,0
379194822,12.5214,12.63806,2.0336,1.0362138,0.0,202.00731,1.0,1.0,0.0,3,0,0,0,0,0,1,1,0,0,0
379688483,12.218,12.472967,4.1415997,3.1293385,0.0,202.65862,1.0,1.0,0.0,3,0,0,0,0,0,1,1,0,0,0
380193343,11.9474,12.300712,6.3612003,4.8537526,0.0,203.5056,1.0,1.0,0.0,3,0,0,0,0,0,1,1,0,0,0
380685288,11.9392,12.186786,6.1875997,5.6377854,0.0,204.3581,1.0,1.0,0.0,3,0,0,0,0,0,1,1,0,0,0
381190952,11.9474,12.109628,6.2372003,5.9568243,0.0,205.22502,1.0,1.0,0.0,3,0,0,0,0,0,1,1,0,0,0
381696515,11.8654,12.051717,6.2743998,6.0579295,0.0,206.08517,1.0,1.0,0.0,3,0,0,0,0,0,1,1,0,0,0
382200691,12.0376005,12.0077305,5.9396,6.0906286,0.0,206.94315,1.0,1.0,0.0,3,0,0,0,0,0,1,1,0,0,0
382694198,11.5292,11.909924,9.92,7.043183,0.0,207.95508,1.0,1.0,0.0,3,0,0,0,0,0,1,1,0,0,0
383199923,11.9228,11.833288,6.2868,7.354248,0.0,209.09047,1.0,1.0,0.0,3,0,0,0,0,0,1,1,0,0,0
383705343,11.8244,11.850006,6.5472,6.6992555,0.0,209.96056,1.0,1.0,0.0,3,0,0,0,0,0,1,1,0,0,0
384197299,11.7424,11.865223,7.0432,6.432828,0.0,210.8046,1.0,1.0,0.0,3,0,0,0,0,0,1,1,0,0,0
384702879,11.8326,11.781868,5.9892,7.3595414,0.0,211.98924,1.0,1.0,0.0,3,0,0,0,0,0,1,1,0,0,0
385208459,11.8736,11.814614,6.0512,6.592916,0.0,212.834,1.0,1.0,0.0,3,0,0,0,0,0,1,1,0,0,0
386205324,11.8326,11.767818,6.2248,6.896986,0.0,214.82986,1.0,1.0,0.0,3,0,0,0,0,0,1,1,0,0,0
386710835,11.7834,11.722617,7.192,7.556606,0.0,215.93063,1.0,1.0,0.0,3,0,0,0,0,0,1,1,0,0,0
387202897,11.8408,11.761881,6.3984,6.827525,0.0,216.77736,1.0,1.0,0.0,3,0,0,0,0,0,1,1,0,0,0
387708443,11.4636,11.692574,9.3,7.756095,0.0,217.92253,1.0,1.0,0.0,3,0,0,0,0,0,1,1,0,0,0
388214137,11.5702,11.642462,7.8864,8.046526,0.0,219.10323,0.9813486,1.0025393,0.0,3,0,0,0,0,0,1,1,0,0,0
388718049,11.5866,11.624746,7.6756,7.9199896,0.0,220.19978,0.97257334,1.0037385,0.0,3,0,0,0,0,0,1,1,0,0,0
389211736,11.6358,11.613814,7.8987994,7.8296504,0.0,221.26282,0.9671927,1.0044752,0.0,3,0,0,0,0,0,1,1,0,0,0
389717293,11.357,11.59995,9.2752,7.9348464,0.0,222.37975,0.9603186,1.0054181,0.0,3,0,0,0,0,0,1,1,0,0,0
390222902,11.4882,11.520277,8.394799,8.812911,0.0,223.72002,0.9185477,1.0111852,0.0,3,0,0,0,0,0,1,1,0,0,0
390714994,11.504601,11.505739,8.6676,8.676919,0.0,224.88869,0.9106322,1.0122855,0.0,3,0,0,0,0,0,1,1,0,0,0
391220465,11.5702,11.494559,7.9111996,8.527539,0.0,226.07524,0.90394455,1.013217,0.0,3,0,0,0,0,0,1,1,0,0,0
391726207,11.521,11.51198,8.0848,8.185502,0.0,227.18788,0.9123407,1.0120478,0.0,3,0,0,0,0,0,1,1,0,0,0
392219795,11.5538,11.521294,7.812,7.9899364,0.0,228.26323,0.916369,1.0114878,0.0,3,0,0,0,0,0,1,1,0,0,0
392723785,11.521,11.532791,8.184,7.822616,0.0,229.33943,0.9217649,1.0107386,0.0,3,0,0,0,0,0,1,1,0,0,0
393229231,11.5128,11.537277,7.812,7.784367,0.0,230.42842,0.92385536,1.0104487,0.0,3,0,0,0,0,0,1,1,0,0,0
393722839,11.07,11.474297,11.9908,8.696429,0.0,231.67497,0.89024264,1.0151309,0.0,3,0,0,0,0,0,1,1,0,0,0
394227781,11.5128,11.397525,7.2788,9.414895,0.0,233.13432,0.8515397,1.0205761,0.0,3,0,0,0,0,0,1,1,0,0,0
394720659,11.3652,11.491135,8.146799,7.784284,0.0,234.04193,0.8991514,1.0138856,0.0,3,0,0,0,0,0,1,1,0,0,0
395225222,11.398,11.4283285,9.4612,8.755762,0.0,235.3717,0.8656793,1.01858,0.0,3,0,0,0,0,0,1,1,0,0,0
395729239,11.2094,11.378462,9.8208,9.265955,0.0,236.71672,0.83974653,1.022247,0.0,3,0,0,0,0,0,1,1,0,0,0
396222864,11.193,11.327832,9.882799,9.600524,0.0,238.0695,0.81269747,1.0261,0.0,3,0,0,0,0,0,1,1,0,0,0
396727788,11.3078,11.305848,9.5976,9.573869,0.0,239.41304,0.80091435,1.0277876,0.0,3,0,0,0,0,0,1,1,0,0,0
397231661,11.2422,11.287397,9.8208,9.593709,0.0,240.75533,0.7906886,1.0292567,0.0,3,0,0,0,0,0,1,1,0,0,0
397725240,11.2586,11.264688,9.039599,9.656839,0.0,242.09154,0.7781177,1.0310683,0.0,3,0,0,0,0,0,1,1,0,0,0
398230924,11.2504,11.25804,9.486,9.578061,0.0,243.42934,0.77412945,1.0316445,0.0,3,0,0,0,0,0,1,1,0,0,0
398734901,11.6522,11.299025,5.9892,8.940967,0.0,244.6422,0.79540545,1.0285785,0.0,3,0,0,0,0,0,1,1,0,0,0
399240489,11.7588005,11.441367,5.5056,7.1364,0.0,245.45102,0.86789376,1.0182681,0.0,3,0,0,0,0,0,1,1,0,0,0
399733246,11.808,11.53801,5.7784,6.3986125,0.0,246.24895,0.91749245,1.0113317,0.0,3,0,0,0,0,0,1,1,0,0,0
400237337,11.7506,11.607447,5.7163997,6.043205,0.0,247.05865,0.9538298,1.0063095,0.0,3,0,0,0,0,0,1,1,0,0,0
400742883,11.2668,11.57458,9.3868,6.9935417,0.0,248.09244,0.9375039,1.0085597,0.0,3,0,0,0,0,0,1,1,0,0,0
401235673,10.742,11.315527,13.0448,10.331397,0.0,249.83943,0.80277115,1.0275214,0.0,3,0,0,0,0,0,1,1,0,0,0
402245299,11.0044,11.079327,10.7632,11.530517,0.0,253.24562,0.67928225,1.0455377,0.0,3,0,0,0,0,0,1,1,0,0,0
402738898,11.5538,11.176909,6.5224,9.567911,0.0,254.38287,0.7291928,1.0381804,0.0,3,0,0,0,0,0,1,1,0,0,0
403242894,11.685,11.351508,5.952,7.42805,0.0,255.19427,0.8184343,1.0252804,0.0,3,0,0,0,0,0,1,1,0,0,0
403747839,11.7178,11.46753,5.9272003,6.5271807,0.0,256.0133,0.8778997,1.0168611,0.0,3,0,0,0,0,0,1,1,0,0,0
404240528,11.6522,11.543516,6.4232,6.1427684,0.0,256.8089,0.91767794,1.0113059,0.0,3,0,0,0,0,0,1,1,0,0,0
404744438,10.6272,11.398838,13.788799,8.788524,0.0,258.22256,0.8433662,1.0217335,0.0,3,0,0,0,0,0,1,1,0,0,0
405249300,10.8076,11.194599,12.524,10.945718,0.0,259.995,0.73766476,1.0369419,0.0,3,0,0,0,0,0,1,1,0,0,0
405741269,10.9142,11.091715,11.6932,11.498052,0.0,261.6313,0.68406874,1.0448276,0.0,3,0,0,0,0,0,1,1,0,0,0
406246028,11.07,11.044387,10.4036,11.345669,0.0,263.21854,0.65875536,1.0485938,0.0,3,0,0,0,0,0,1,1,0,0,0
406750049,11.6604,11.145172,5.5676,9.483588,0.0,264.40082,0.7109199,1.040862,0.0,3,0,0,0,0,0,1,1,0,0,0
407255680,11.7096,11.318358,5.7784,7.397245,0.0,265.21542,0.7990323,1.0280577,0.0,3,0,0,0,0,0,1,1,0,0,0
407749328,11.6276,11.433703,5.2204,6.4934344,0.0,266.01105,0.8580342,1.0196583,0.0,3,0,0,0,0,0,1,1,0,0,0
408253284,11.7178,11.517231,5.642,6.0535583,0.0,266.81198,0.9013186,1.0135832,0.0,3,0,0,0,0,0,1,1,0,0,0
408758847,10.988,11.36898,11.284,8.652709,0.0,268.23663,0.8249169,1.0243559,0.0,3,0,0,0,0,0,1,1,0,0,0
409252460,10.8732,11.22949,11.420401,10.16535,0.0,269.78937,0.754047,1.0345552,0.0,3,0,0,0,0,0,1,1,0,0,0
409758156,11.0536,11.1279745,11.3584,10.893149,0.0,271.39786,0.701449,1.0422573,0.0,3,0,0,0,0,0,1,1,0,0,0
410250018,11.111,11.077386,10.5152,10.877269,0.0,272.89355,0.6745611,1.046239,0.0,3,0,0,0,0,0,1,1,0,0,0
410755674,11.5374,11.132432,6.5843997,9.659056,0.0,274.1666,0.7030168,1.042026,0.0,3,0,0,0,0,0,1,1,0,0,0
411261282,11.5784,11.30618,5.7908,7.4316354,0.0,274.97244,0.7914706,1.0291442,0.0,3,0,0,0,0,0,1,1,0,0,0
411754105,11.7178,11.425058,5.6172,6.459578,0.0,275.75348,0.8526278,1.0204222,0.0,3,0,0,0,0,0,1,1,0,0,0
412258249,11.5538,11.503193,6.1008,6.0890484,0.0,276.56375,0.89315945,1.0147228,0.0,3,0,0,0,0,0,1,1,0,0,0
412763741,10.9962,11.370744,11.4576,8.474037,0.0,277.94647,0.8252211,1.0243125,0.0,3,0,0,0,0,0,1,1,0,0,0
413257259,10.8896,11.220571,10.986401,10.02107,0.0,279.48788,0.74795634,1.0354413,0.0,3,0,0,0,0,0,1,1,0,0,0
413761252,11.0126,11.147659,10.8004,10.404018,0.0,280.98767,0.71056515,1.0409142,0.0,3,0,0,0,0,0,1,1,0,0,0
414266871,11.1028,11.108004,10.2671995,10.414701,0.0,282.4579,0.6896177,1.0440055,0.0,3,0,0,0,0,0,1,1,0,0,0
414760391,11.07,11.11037,9.684401,10.061429,0.0,283.80518,0.69055945,1.0438662,0.0,3,0,0,0,0,0,1,1,0,0,0
415266167,11.0536,11.111872,9.6596,9.873829,0.0,285.1731,0.69071203,1.0438436,0.0,3,0,0,0,0,0,1,1,0,0,0
415770072,11.1192,11.11509,9.4984,9.747721,0.0,286.5271,0.69194037,1.0436618,0.0,3,0,0,0,0,0,1,1,0,0,0
416263717,11.6112,11.247731,5.8652,7.9050884,0.0,287.4651,0.7606397,1.0335978,0.0,3,0,0,0,0,0,1,1,0,0,0
416768642,11.6112,11.381227,5.8775997,6.6778746,0.0,288.27533,0.82868725,1.0238189,0.0,3,0,0,0,0,0,1,1,0,0,0
417272616,11.644,11.478961,5.5428,6.073212,0.0,289.0655,0.8796111,1.0166209,0.0,3,0,0,0,0,0,1,1,0,0,0
417766115,11.2176,11.489337,9.3868,6.5141263,0.0,289.97128,0.884934,1.0158743,0.0,3,0,0,0,0,0,1,1,0,0,0
418271719,10.5534,11.365844,14.4584,8.500574,0.0,291.32257,0.8218189,1.0247974,0.0,3,0,0,0,0,0,1,1,0,0,0
418775636,10.8158,11.146568,12.4992,11.020418,0.0,293.13922,0.70839936,1.041233,0.0,3,0,0,0,0,0,1,1,0,0,0
419281252,10.7994,11.02461,11.8172,11.623538,0.0,294.83844,0.64425665,1.0507632,0.0,3,0,0,0,0,0,1,1,0,0,0
419774051,11.6686,11.064724,4.588,10.23397,0.0,296.17007,0.6655207,1.0475847,0.0,3,0,0,0,0,0,1,1,0,0,0
420278135,11.644,11.250412,5.8156,7.631963,0.0,296.9614,0.7600437,1.0336844,0.0,3,0,0,0,0,0,1,1,0,0,0
420783660,11.4636,11.368944,6.82,6.6542296,0.0,297.78787,0.8205753,1.0249748,0.0,3,0,0,0,0,0,1,1,0,0,0
421277319,10.291,11.218244,16.244,9.386519,0.0,299.25174,0.74126154,1.0364169,0.0,3,0,0,0,0,0,1,1,0,0,0
421782869,10.455,10.935243,14.111199,12.701805,0.0,301.39795,0.59342057,1.0584413,0.0,3,0,0,0,0,0,1,1,0,0,0
422286883,11.5866,10.970677,5.2576,10.935513,0.0,302.85834,0.6129671,1.0554758,0.0,3,0,0,0,0,0,1,1,0,0,0
422779708,11.5948,11.175575,5.828,8.0156765,0.0,303.6387,0.7178598,1.0398419,0.0,3,0,0,0,0,0,1,1,0,0,0
423285305,11.5292,11.313472,6.5472,6.825538,0.0,304.46414,0.78899056,1.029501,0.0,3,0,0,0,0,0,1,1,0,0,0
423789393,11.0126,11.303251,10.5896,7.751838,0.0,305.5987,0.7846003,1.0301332,0.0,3,0,0,0,0,0,1,1,0,0,0
424282014,10.9142,11.167528,11.3832,9.767536,0.0,307.14758,0.7157174,1.0401566,0.0,3,0,0,0,0,0,1,1,0,0,0
424786061,10.9634,11.09153,11.0484,10.471417,0.0,308.69073,0.6774526,1.0458093,0.0,3,0,0,0,0,0,1,1,0,0,0
425291669,10.9962,11.039538,10.4408,10.698459,0.0,310.21887,0.65031344,1.049856,0.0,3,0,0,0,0,0,1,1,0,0,0
425785514,11.5866,11.191088,5.6668,8.279414,0.0,311.13934,0.7287293,1.0382483,0.0,3,0,0,0,0,0,1,1,0,0,0
426290841,11.603,11.30529,6.014,7.16279,0.0,312.02106,0.7854071,1.030017,0.0,3,0,0,0,0,0,1,1,0,0,0
426795669,11.2996,11.269733,7.8616,8.1561985,0.0,313.24426,0.7556668,1.0343198,0.0,3,0,0,0,0,0,1,1,0,0,0
427287825,9.9138,10.995494,20.100399,12.111494,0.0,315.16776,0.6123553,1.0555685,0.0,3,0,0,0,0,0,1,1,0,0,0
427793216,11.6276,10.956162,5.2948,11.249615,0.0,316.84317,0.59610564,1.058033,0.0,3,0,0,0,0,0,1,1,0,0,0
428297238,11.5784,11.162754,5.3072,8.089984,0.0,317.64487,0.70450455,1.0418067,0.0,3,0,0,0,0,0,1,1,0,0,0
429799697,10.7666,10.92561,11.6932,11.398431,0.0,322.25513,0.585321,1.059675,0.0,3,0,0,0,0,0,1,1,0,0,0
430293241,11.6112,11.022095,5.4312,9.570598,0.0,323.4671,0.63710266,1.051837,0.0,3,0,0,0,0,0,1,1,0,0,0
430798905,11.644,11.206619,5.3692,7.3881598,0.0,324.27655,0.73158413,1.0378305,0.0,3,0,0,0,0,0,1,1,0,0,0
431304473,11.5456,11.335747,5.4312,6.409813,0.0,325.07504,0.7985044,1.0281335,0.0,3,0,0,0,0,0,1,1,0,0,0
431796528,11.5374,11.419081,6.7703996,6.0478673,0.0,325.85684,0.84259135,1.0218434,0.0,3,0,0,0,0,0,1,1,0,0,0
432302043,10.9552,11.289928,10.7012,8.498233,0.0,327.26035,0.7771216,1.0312122,0.0,3,0,0,0,0,0,1,1,0,0,0
432807782,11.1028,11.18825,9.2256,9.641967,0.0,328.7424,0.7270704,1.0384912,0.0,3,0,0,0,0,0,1,1,0,0,0
433301544,11.1602,11.180758,9.424,9.285336,0.0,329.99152,0.7246795,1.0388415,0.0,3,0,0,0,0,0,1,1,0,0,0
433805229,10.9306,11.117664,10.4656,9.936787,0.0,331.44388,0.6916867,1.0436994,0.0,3,0,0,0,0,0,1,1,0,0,0
434310959,11.029,11.073784,10.4656,10.203137,0.0,332.90622,0.6686488,1.0471187,0.0,3,0,0,0,0,0,1,1,0,0,0
434804493,10.906,11.041687,10.378799,10.330387,0.0,334.33752,0.65137297,1.0496974,0.0,3,0,0,0,0,0,1,1,0,0,0
435310068,11.5866,11.159616,5.828,8.404568,0.0,335.369,0.71193224,1.0407131,0.0,3,0,0,0,0,0,1,1,0,0,0
435814078,11.562,11.304096,5.7163997,6.886139,0.0,336.17435,0.7851854,1.030049,0.0,3,0,0,0,0,0,1,1,0,0,0
436319717,10.25,11.275354,15.3015995,8.012993,0.0,337.32062,0.76923424,1.0323524,0.0,3,0,0,0,0,0,1,1,0,0,0
436813214,11.316,11.079302,8.4567995,10.656105,0.0,339.15054,0.6687656,1.0471011,0.0,3,0,0,0,0,0,1,1,0,0,0
437318856,11.5866,11.228093,5.7163997,8.067145,0.0,340.03232,0.74579436,1.0357561,0.0,3,0,0,0,0,0,1,1,0,0,0
437823738,10.824,11.245649,10.961599,8.19465,0.0,341.14365,0.75420433,1.0345323,0.0,3,0,0,0,0,0,1,1,0,0,0
438327818,11.5456,11.213829,5.1707997,8.613078,0.0,342.48773,0.7369309,1.037049,0.0,3,0,0,0,0,0,1,1,0,0,0
438821257,11.3488,11.321709,7.1176,7.1761894,0.0,343.31082,0.7917357,1.029106,0.0,3,0,0,0,0,0,1,1,0,0,0
439325246,7.8638,10.554785,32.798,17.968058,0.0,346.70355,0.38545614,1.0910559,0.0,3,0,0,0,0,0,1,1,0,0,0
439830908,11.4964,10.731819,5.9147997,12.782473,0.0,348.18652,0.478324,1.0762466,0.0,3,0,0,0,0,0,1,1,0,0,0
440324541,12.2508,10.938479,0.0,9.585166,0.0,349.2369,0.5830198,1.060026,0.0,3,0,0,0,0,0,1,1,0,0,0
440830056,8.4378,11.084745,30.5784,8.34299,0.0,350.02036,0.6460276,1.0504978,0.0,3,0,0,0,0,0,1,1,0,0,0
441322944,10.127,10.303928,17.657598,19.195208,0.0,353.9293,0.23307139,1.1162593,0.0,3,0,0,0,0,0,1,1,0,0,0
441827823,12.218,10.925302,0.0,8.642285,0.0,354.08325,0.5521942,1.0647509,0.0,3,0,0,0,0,0,1,1,0,0,0
442333286,8.4132,10.512622,30.752,15.608272,0.0,356.59012,0.3284102,1.1003565,0.0,3,0,0,0,0,0,1,1,0,0,0
442826111,12.218,10.52364,0.0,13.687693,0.0,358.63647,0.33939415,1.0985533,0.0,3,0,0,0,0,0,1,1,0,0,0
443330087,11.0372,10.988945,9.473599,7.6072154,0.0,358.96164,0.5703183,1.0619678,0.0,3,0,0,0,0,0,1,1,0,0,0
443835689,9.1348,10.39495,23.9196,16.789753,0.0,362.22882,0.2687698,1.1102512,0.0,3,0,0,0,0,0,1,1,0,0,0
444329291,12.2262,10.628745,0.0,11.747032,0.0,363.60483,0.39318758,1.0898074,0.0,3,0,0,0,0,0,1,1,0,0,0
444834119,9.594,10.979245,20.0632,7.7361355,0.0,364.10587,0.5613738,1.0633395,0.0,3,0,0,0,0,0,1,1,0,0,0
445338260,9.2086,10.303354,23.3244,17.81452,0.0,367.68112,0.21625191,1.1191127,0.0,3,0,0,0,0,0,1,1,0,0,0
445831773,12.2262,10.852202,0.0,8.91786,0.0,368.07883,0.49346453,1.0738702,0.0,3,0,0,0,0,0,1,1,0,0,0
446335823,8.5116005,10.818825,30.876,11.1128845,0.0,369.49115,0.46861655,1.0777757,0.0,3,0,0,0,0,0,1,1,0,0,0
446841243,9.6924,10.144529,20.088,19.819143,0.0,373.25296,0.12546307,1.1347702,0.0,3,0,0,0,0,0,1,1,0,0,1
447334908,12.1934,10.774723,0.0,9.337302,0.0,373.49625,0.4418221,1.0820192,0.0,3,0,0,0,0,0,1,1,0,0,1
447840536,8.7658,10.2716,26.536,17.263098,0.0,376.50763,0.18545824,1.1243747,0.0,3,0,0,0,0,0,1,1,0,0,1
448334160,12.1524,10.345521,0.0,14.408803,0.0,378.49014,0.23513037,1.115911,0.0,3,0,0,0,0,0,1,1,0,0,1
448838099,12.2098,10.978475,0.0,6.1677027,0.0,378.49014,0.5401707,1.0666052,0.0,3,0,0,0,0,0,1,1,0,0,1
449343642,8.7166,10.331805,28.148,16.955017,0.0,381.76257,0.20725209,1.1206455,0.0,3,0,0,0,0,0,1,1,0,0,1
449837295,12.1196,10.346302,0.0,14.813233,0.0,383.94583,0.22405678,1.1177869,0.0,3,0,0,0,0,0,1,1,0,0,2
450342859,9.4218,10.759067,19.170399,9.180076,0.0,384.4744,0.4291535,1.0840372,0.0,3,0,0,0,0,0,1,1,0,0,2
450846901,9.3726,10.287968,21.439598,16.582136,0.0,387.59888,0.19951636,1.1219664,0.0,3,0,0,0,0,0,1,1,0,0,2
451340448,12.1688,10.705991,0.0,9.778414,0.0,388.44348,0.42152554,1.0852559,0.0,3,0,0,0,0,0,1,1,0,0,2
451846073,10.2664,11.011677,16.938398,7.133575,0.0,388.99152,0.57075125,1.0619015,0.0,3,0,0,0,0,0,1,1,0,0,2
452351660,9.1676,10.37412,24.8372,17.135597,0.0,392.40564,0.24981028,1.1134341,0.0,3,0,0,0,0,0,1,1,0,0,2
452855651,12.1688,10.566882,0.0,12.504174,0.0,394.01398,0.35684878,1.0957001,0.0,3,0,0,0,0,0,1,1,0,0,2
453349282,10.0778,10.833971,18.166,9.361305,0.0,394.75555,0.4881907,1.0746968,0.0,3,0,0,0,0,0,1,1,0,0,2
453854120,8.774,10.360925,27.577599,16.752295,0.0,397.7524,0.25193506,1.1130764,0.0,3,0,0,0,0,0,1,1,0,0,2
454358211,12.1442,10.464188,0.0,13.357162,0.0,399.6611,0.30989128,1.1034099,0.0,3,0,0,0,0,0,1,1,0,0,2
454851655,10.2992,10.902419,13.6152,7.5956063,0.0,399.9937,0.53064924,1.0680783,0.0,3,0,0,0,0,0,1,1,0,0,2
455356529,9.8236,10.52565,19.654,14.202672,0.0,402.6769,0.34336573,1.0979029,0.0,3,0,0,0,0,0,1,1,0,0,2
455860514,12.2016,10.913175,0.0,8.314797,0.0,403.42792,0.5299497,1.0681866,0.0,3,0,0,0,0,0,1,1,0,0,2
456366089,9.2332,10.795513,23.0888,11.449611,0.0,405.09555,0.46671158,1.0780764,0.0,3,0,0,0,0,0,1,1,0,0,2
456859815,10.6354,10.429679,13.0571995,16.238197,0.0,407.924,0.28996903,1.1067138,0.0,3,0,0,0,0,0,1,1,0,0,2
457365316,12.1606,10.862476,0.0,9.238034,0.0,408.53607,0.5230146,1.0692623,0.0,3,0,0,0,0,0,1,1,0,0,2
457870936,10.8158,11.2154255,9.4612,5.366212,0.0,408.8259,0.6971646,1.0428897,0.0,3,0,0,0,0,0,1,1,0,0,2
458374936,8.8232,10.4791,28.1356,17.023523,0.0,412.33008,0.31728798,1.1021883,0.0,3,0,0,0,0,0,1,1,0,0,2
458868505,12.1606,10.670731,0.0,12.126015,0.0,413.81833,0.40800387,1.0874228,0.0,3,0,0,0,0,0,1,1,0,0,2
459373276,11.2996,11.035057,7.2043996,7.434947,0.0,414.2586,0.5876823,1.059315,0.0,3,0,0,0,0,0,1,1,0,0,2
459877249,8.9954,10.510224,24.750399,15.995056,0.0,417.2359,0.32683474,1.1006155,0.0,3,0,0,0,0,0,1,1,0,0,2
460370944,12.177,10.734404,0.0,11.036487,0.0,418.52945,0.44396883,1.081678,0.0,3,0,0,0,0,0,1,1,0,0,2
460876465,10.9962,11.186859,5.3568,5.289954,0.0,418.63138,0.6554485,1.0490879,0.0,3,0,0,0,0,0,1,1,0,0,2
461382069,8.733,10.421191,29.722801,17.844955,0.0,422.24127,0.2627669,1.111257,0.0,3,0,0,0,0,0,1,1,0,0,2
461874084,11.9802,10.16209,0.1736,18.825632,0.0,425.2437,0.14039475,1.1321651,0.0,3,0,0,0,0,0,1,1,0,0,2
462379735,11.2504,10.735167,8.8412,9.55687,0.0,425.51346,0.42906004,1.0840521,0.0,3,0,0,0,0,0,1,1,0,0,2
462885851,8.856,10.365291,27.6644,16.155523,0.0,428.23227,0.24713713,1.1138842,0.0,3,0,0,0,0,0,1,1,0,0,2
463378852,11.767,10.352718,2.5171998,14.977986,0.0,430.45334,0.25398594,1.1127315,0.0,3,0,0,0,0,0,1,1,0,0,2
463882830,11.9064,10.957359,1.6243999,6.529419,0.0,430.48315,0.5521212,1.0647621,0.0,3,0,0,0,0,0,1,1,0,0,2
464388508,9.2988,10.620517,23.87,13.397533,0.0,432.88574,0.38425547,1.09125,0.0,3,0,0,0,0,0,1,1,0,0,2
464894046,12.1688,10.731986,0.0,11.110463,0.0,434.51566,0.45161444,1.0804645,0.0,3,0,0,0,0,0,1,1,0,0,2
465387870,11.2094,11.170297,8.4196,5.514072,0.0,434.63193,0.6602436,1.0483717,0.0,3,0,0,0,0,0,1,1,0,0,2
466397257,12.054,10.33657,0.0,16.280542,0.0,440.81567,0.23769718,1.1154771,0.0,3,0,0,0,0,0,1,1,0,0,2
466891119,11.685,10.902809,4.03,7.5821376,0.0,440.9032,0.52260023,1.0693266,0.0,3,0,0,0,0,0,1,1,0,0,2
467395692,8.856,10.5937805,28.8424,14.237003,0.0,443.33234,0.37251288,1.0931523,0.0,3,0,0,0,0,0,1,1,0,0,2
467887845,11.767,10.261105,2.9387999,18.4461,0.0,446.49963,0.21077162,1.1200457,0.0,3,0,0,0,0,0,1,1,0,0,2
468393256,12.1606,10.89785,0.0,7.9491887,0.0,446.5194,0.52108866,1.0695615,0.0,3,0,0,0,0,0,1,1,0,0,2
468898811,9.3316,10.944246,24.0312,9.381975,0.0,447.68002,0.540217,1.066598,0.0,3,0,0,0,0,0,1,1,0,0,2
469392533,9.2332,10.3263,24.7628,18.894567,0.0,451.3308,0.23031145,1.1167265,0.0,3,0,0,0,0,0,1,1,0,0,2
469896561,12.0622,10.377304,0.0,15.68775,0.0,453.49258,0.26927716,1.1101662,0.0,3,0,0,0,0,0,1,1,0,0,2
470402039,12.0376005,10.967245,0.62,6.819258,0.0,453.51266,0.55861574,1.0637631,0.0,3,0,0,0,0,0,1,1,0,0,2
470907967,9.0528,10.624571,27.8628,14.366198,0.0,455.99567,0.38504273,1.0911226,0.0,3,0,0,0,0,0,1,1,0,0,2
471401268,11.5374,10.54831,4.9972,14.418275,0.0,458.2968,0.35962874,1.0952471,0.0,3,0,0,0,0,0,1,1,0,0,2
471906895,9.7088,10.911571,16.9756,8.841711,0.0,458.84674,0.54389626,1.0660299,0.0,3,0,0,0,0,0,1,1,0,0,2
472410828,9.594,10.181007,22.5928,20.824568,0.0,463.0167,0.1650129,1.1278958,0.0,3,0,0,0,0,0,1,1,0,0,2
472904447,12.136,10.712455,0.0,10.597422,0.0,463.52722,0.4398442,1.0823338,0.0,3,0,0,0,0,0,1,1,0,0,2
473410100,9.4054,10.638728,23.9568,13.340429,0.0,465.3444,0.39546973,1.0894394,0.0,3,0,0,0,0,0,1,1,0,0,2
473915734,10.8568,10.674201,11.1476,12.776175,0.0,467.17792,0.4288388,1.0840874,0.0,3,0,0,0,0,0,1,1,0,0,2
474419891,10.5862,10.792289,15.648801,11.244576,0.0,468.51526,0.48558003,1.0751064,0.0,3,0,0,0,0,0,1,1,0,0,2
474913215,10.4468,10.862118,18.500801,10.611879,0.0,469.85834,0.51499325,1.0705093,0.0,3,0,0,0,0,0,1,1,0,0,2
475418832,11.562,11.009656,5.8775997,9.014089,0.0,471.03403,0.5955358,1.0581195,0.0,3,0,0,0,0,0,1,1,0,0,2
475923711,9.2906,10.773298,27.4288,13.695283,0.0,473.2008,0.48229843,1.0756217,0.0,3,0,0,0,0,0,1,1,0,0,2
476427762,12.1934,10.944973,0.0,9.965651,0.0,474.54553,0.55923516,1.0636679,0.0,3,0,0,0,0,0,1,1,0,0,2
476932488,10.2828,11.139888,16.789598,7.768077,0.0,475.22446,0.6444636,1.0507323,0.0,3,0,0,0,0,0,1,1,0,0,2
477425267,8.4624,10.59958,32.4012,16.998926,0.0,478.3442,0.37774473,1.0923039,0.0,3,0,0,0,0,0,1,1,0,0,2
477930179,12.1196,10.780776,0.0,11.942557,0.0,479.87506,0.47757107,1.0763651,0.0,3,0,0,0,0,0,1,1,0,0,2
478435687,11.5374,11.225803,4.7367997,5.593942,0.0,479.9604,0.6896172,1.0440056,0.0,3,0,0,0,0,0,1,1,0,0,2
478929290,9.0856,10.644015,28.594398,16.797165,0.0,483.13483,0.39718825,1.0891625,0.0,3,0,0,0,0,0,1,1,0,0,2
479434969,11.9228,10.260898,0.3348,20.500372,0.0,486.70758,0.20893723,1.1203581,0.0,3,0,0,0,0,0,1,1,0,0,2
479938908,11.603,10.857347,4.216,9.261445,0.0,486.7948,0.50978047,1.0713211,0.0,3,0,0,0,0,0,1,1,0,0,2
480432546,9.9302,10.7748375,20.7824,12.231695,0.0,488.59726,0.47758347,1.0763631,0.0,3,0,0,0,0,0,1,1,0,0,2
480937329,11.7506,10.676078,3.0876,13.804355,0.0,490.9296,0.44042736,1.0822409,0.0,3,0,0,0,0,0,1,1,0,0,2
481934927,8.6428,11.068155,31.062,9.23076,0.0,492.50198,0.6400147,1.0513997,0.0,3,0,0,0,0,0,1,1,0,0,2
482440450,11.5538,10.615437,6.4232,16.7627,0.0,495.8264,0.412273,1.0867378,0.0,3,0,0,0,0,0,1,1,0,0,2
482946098,10.783,10.9129925,11.184799,10.421083,0.0,496.57886,0.57043797,1.0619495,0.0,3,0,0,0,0,0,1,1,0,0,2
483439735,11.5374,11.065279,5.828,8.666891,0.0,497.64417,0.64995056,1.0499102,0.0,3,0,0,0,0,0,1,1,0,0,2
483943702,11.398,11.086199,6.9688,9.2464905,0.0,499.00638,0.65030676,1.0498569,0.0,3,0,0,0,0,0,1,1,0,0,2
485951606,9.9712,10.896485,19.5796,13.330266,0.0,505.5274,0.5671678,1.0624505,0.0,3,0,0,0,0,0,1,1,0,0,2
486457468,11.4718,10.834404,6.4232,13.1948185,0.0,507.5526,0.5405193,1.0665513,0.0,3,0,0,0,0,0,1,1,0,0,2
486962863,11.6768,11.092436,4.588,8.740868,0.0,508.31274,0.6729236,1.0464824,0.0,3,0,0,0,0,0,1,1,0,0,2
487467840,11.4144,11.242152,7.4152,7.399199,0.0,509.14606,0.74896103,1.035295,0.0,3,0,0,0,0,0,1,1,0,0,2
487971676,11.4308,11.286142,7.4772,7.717038,0.0,510.25247,0.7757407,1.0314116,0.0,3,0,0,0,0,0,1,1,0,0,2
488465320,11.5866,11.394393,5.7535996,6.6066723,0.0,511.0536,0.8331142,1.0231891,0.0,3,0,0,0,0,0,1,1,0,0,2
488970864,10.1844,11.198565,19.604399,10.693289,0.0,512.7714,0.7320247,1.0377661,0.0,3,0,0,0,0,0,1,1,0,0,2
489474952,11.6604,11.089268,5.4435997,11.446902,0.0,514.6847,0.6793285,1.0455308,0.0,3,0,0,0,0,0,1,1,0,0,2
489980477,10.2418,11.180838,18.079199,9.422581,0.0,515.7113,0.7237831,1.0389729,0.0,3,0,0,0,0,0,1,1,0,0,2
490473269,10.9142,11.166853,11.1724,9.650931,0.0,517.1664,0.71756417,1.0398853,0.0,3,0,0,0,0,0,1,1,0,0,2
490977285,11.726,11.143306,5.1583996,10.235918,0.0,518.69135,0.70710474,1.0414236,0.0,3,0,0,0,0,0,1,1,0,0,2
491482830,11.5374,11.303101,5.8775997,7.5911427,0.0,519.46277,0.78765017,1.029694,0.0,3,0,0,0,0,0,1,1,0,0,2
491975715,9.5858,10.970953,24.0188,13.46857,0.0,521.7409,0.6137224,1.0553615,0.0,3,0,0,0,0,0,1,1,0,0,2
492479724,11.6276,10.971172,5.1583996,11.886559,0.0,523.481,0.61617905,1.0549902,0.0,3,0,0,0,0,0,1,1,0,0,2
492985300,11.5374,11.197332,5.9023995,8.160065,0.0,524.2235,0.73059994,1.0379745,0.0,3,0,0,0,0,0,1,1,0,0,2
493478093,11.6276,11.33608,5.7535996,6.7799945,0.0,525.0067,0.80156666,1.0276941,0.0,3,0,0,0,0,0,1,1,0,0,2
493983687,10.3894005,11.173088,17.781599,10.483944,0.0,526.6828,0.7177754,1.0398543,0.0,3,0,0,0,0,0,1,1,0,0,2
494487778,10.4304,10.894391,16.368,14.362817,0.0,529.10626,0.57665735,1.0609978,0.0,3,0,0,0,0,0,1,1,0,0,2
494992487,11.644,10.942255,4.9848,12.134807,0.0,530.7234,0.603694,1.0568806,0.0,3,0,0,0,0,0,1,1,0,0,2
495485314,11.562,11.165331,5.5304,8.472208,0.0,531.4911,0.7167836,1.04,0.0,3,0,0,0,0,0,1,1,0,0,2
495989303,11.6276,11.311885,5.766,6.9642963,0.0,532.3102,0.7907081,1.0292538,0.0,3,0,0,0,0,0,1,1,0,0,2
496494847,11.5948,11.4206,5.7784,6.240441,0.0,533.1139,0.8468881,1.0212345,0.0,3,0,0,0,0,0,1,1,0,0,2
496988466,9.4956,11.016366,25.482,13.978968,0.0,535.5836,0.6367145,1.0518954,0.0,3,0,0,0,0,0,1,1,0,0,2
497492454,11.7342005,10.809296,3.6332,15.273859,0.0,538.1284,0.53267246,1.0677649,0.0,3,0,0,0,0,0,1,1,0,0,2
497998158,11.562,11.077531,5.4188,9.717988,0.0,538.9003,0.66942316,1.0470033,0.0,3,0,0,0,0,0,1,1,0,0,2
498503714,11.6112,11.252505,5.89,7.5071096,0.0,539.7198,0.75862366,1.0338904,0.0,3,0,0,0,0,0,1,1,0,0,2
498997337,11.439,11.364452,6.7208,6.598723,0.0,540.52295,0.8163424,1.0255791,0.0,3,0,0,0,0,0,1,1,0,0,2
499502889,11.5784,11.401625,6.82,6.922885,0.0,541.54266,0.83868366,1.0223978,0.0,3,0,0,0,0,0,1,1,0,0,2
500006875,9.5776005,11.121902,25.1348,12.285205,0.0,543.5973,0.6952577,1.0431714,0.0,3,0,0,0,0,0,1,1,0,0,2
500512483,9.8564005,10.691589,21.514,17.973928,0.0,546.7603,0.47345215,1.0770135,0.0,3,0,0,0,0,0,1,1,0,0,2
501006110,11.6768,10.851964,5.0592003,12.968763,0.0,548.19775,0.55752426,1.0639309,0.0,3,0,0,0,0,0,1,1,0,0,2
501511699,11.5702,11.097582,5.3444,8.767292,0.0,548.98425,0.6811195,1.045265,0.0,3,0,0,0,0,0,1,1,0,0,2
502017483,11.6112,11.260996,6.0884,7.071962,0.0,549.79504,0.7636247,1.033165,0.0,3,0,0,0,0,0,1,1,0,0,2
502509229,11.5866,11.356734,6.6712003,6.7372494,0.0,550.67444,0.8139506,1.0259209,0.0,3,0,0,0,0,0,1,1,0,0,2
503014885,11.6358,11.4396305,5.952,6.344859,0.0,551.53284,0.85857016,1.0195826,0.0,3,0,0,0,0,0,1,1,0,0,2
503519722,11.3898,11.4891815,7.0928,6.157217,0.0,552.373,0.88497406,1.0158687,0.0,3,0,0,0,0,0,1,1,0,0,2
504011601,9.43,10.999449,26.6352,14.697101,0.0,555.03595,0.62792355,1.0532179,0.0,3,0,0,0,0,0,1,1,0,0,2
504517249,10.4140005,10.642265,18.079199,18.207829,0.0,558.05273,0.44470173,1.0815616,0.0,3,0,0,0,0,0,1,1,0,0,2
505022023,11.562,10.829048,5.6172,12.871477,0.0,559.43854,0.5435682,1.0660806,0.0,3,0,0,0,0,0,1,1,0,0,2
505514025,11.603,11.081987,5.9396,8.8737545,0.0,560.22253,0.67204577,1.046613,0.0,3,0,0,0,0,0,1,1,0,0,2
506019653,11.6604,11.257487,5.7908,7.091049,0.0,561.02966,0.7615195,1.0334703,0.0,3,0,0,0,0,0,1,1,0,0,2
506524572,11.5948,11.38266,5.58,6.247556,0.0,561.8209,0.82629544,1.0241594,0.0,3,0,0,0,0,0,1,1,0,0,2
507029314,11.6932,11.475331,5.6047997,5.817551,0.0,562.5906,0.87516886,1.0172447,0.0,3,0,0,0,0,0,1,1,0,0,2
507522137,9.8236,11.25428,23.4856,10.364283,0.0,564.30035,0.76216465,1.0333767,0.0,3,0,0,0,0,0,1,1,0,0,2
508027772,10.3484,10.832719,17.781599,16.13327,0.0,567.2386,0.54575163,1.0657437,0.0,3,0,0,0,0,0,1,1,0,0,2
508533235,11.6358,10.88923,4.526,13.050988,0.0,568.91846,0.5770107,1.0609438,0.0,3,0,0,0,0,0,1,1,0,0,2
509026942,11.5784,11.119251,5.9396,8.908478,0.0,569.694,0.6925145,1.043577,0.0,3,0,0,0,0,0,1,1,0,0,2
509531681,11.6194,11.279989,5.9768,7.1390505,0.0,570.5096,0.7737704,1.0316963,0.0,3,0,0,0,0,0,1,1,0,0,2
510024550,11.6522,11.393624,5.5056,6.317639,0.0,571.2893,0.83230835,1.0233036,0.0,3,0,0,0,0,0,1,1,0,0,2
510529245,10.5944,11.192123,15.760399,10.571146,0.0,573.07697,0.72958475,1.038123,0.0,3,0,0,0,0,0,1,1,0,0,2
511034850,10.7666,11.00878,14.1484,13.003981,0.0,575.18427,0.63913447,1.0515318,0.0,3,0,0,0,0,0,1,1,0,0,2
511526909,11.6112,11.0598,5.0964,11.006597,0.0,576.59753,0.6669288,1.0473747,0.0,3,0,0,0,0,0,1,1,0,0,2
512032515,11.5866,11.244442,5.9396,7.9940715,0.0,577.39624,0.75914246,1.0338151,0.0,3,0,0,0,0,0,1,1,0,0,2
512538130,11.6358,11.366739,5.7908,6.741838,0.0,578.2081,0.82041174,1.0249982,0.0,3,0,0,0,0,0,1,1,0,0,2
513031794,11.5538,11.457461,5.58,6.0828023,0.0,578.97345,0.8670407,1.0183883,0.0,3,0,0,0,0,0,1,1,0,0,2
513537239,10.8322,11.358653,13.788799,8.513642,0.0,580.3336,0.81811434,1.0253261,0.0,3,0,0,0,0,0,1,1,0,0,2
514041274,10.6764,11.154948,13.4911995,11.550334,0.0,582.2732,0.71664816,1.0400199,0.0,3,0,0,0,0,0,1,1,0,0,2
514534110,10.8896,11.039348,12.300799,12.481564,0.0,584.0944,0.65822035,1.0486737,0.0,3,0,0,0,0,0,1,1,0,0,2
515039694,11.1028,11.0269165,11.2344,11.87693,0.0,585.70215,0.65240294,1.0495433,0.0,3,0,0,0,0,0,1,1,0,0,2
515543707,11.0536,11.015989,11.420401,11.6163225,0.0,587.3014,0.6465283,1.0504228,0.0,3,0,0,0,0,0,1,1,0,0,2
516037269,11.6112,11.155647,5.6668,9.031609,0.0,588.337,0.71690947,1.0399815,0.0,3,0,0,0,0,0,1,1,0,0,2
516542890,11.5948,11.303588,5.952,7.2046227,0.0,589.1553,0.7895532,1.02942,0.0,3,0,0,0,0,0,1,1,0,0,2
517048485,11.6604,11.408677,5.7412,6.3916206,0.0,589.9689,0.8420492,1.0219203,0.0,3,0,0,0,0,0,1,1,0,0,2
517541298,11.6276,11.486956,5.3195996,5.8672266,0.0,590.7216,0.88233,1.0162394,0.0,3,0,0,0,0,0,1,1,0,0,2
518045392,11.316,11.446671,8.828799,7.31766,0.0,591.8593,0.8641272,1.0187987,0.0,3,0,0,0,0,0,1,1,0,0,2
518550867,11.0044,11.359326,12.4248,8.870605,0.0,593.23224,0.82258135,1.0246887,0.0,3,0,0,0,0,0,1,1,0,0,2
519044599,10.988,11.26403,11.222,10.069288,0.0,594.7405,0.775755,1.0314096,0.0,3,0,0,0,0,0,1,1,0,0,2
519549311,10.9716,11.171951,11.6684,10.979701,0.0,596.37823,0.7290469,1.0382018,0.0,3,0,0,0,0,0,1,1,0,0,2
520041985,11.0782,11.123401,11.0608,11.150903,0.0,597.92944,0.70404917,1.0418738,0.0,3,0,0,0,0,0,1,1,0,0,2
520547780,11.0946,11.107791,10.416,10.900948,0.0,599.4394,0.695396,1.0431509,0.0,3,0,0,0,0,0,1,1,0,0,2
521049341,11.1356,11.111184,10.130799,10.567492,0.0,600.8832,0.6964136,1.0430006,0.0,3,0,0,0,0,0,1,1,0,0,2
521554853,11.2176,11.137453,9.0892,9.988053,0.0,602.2396,0.70897967,1.0411475,0.0,3,0,0,0,0,0,1,1,0,0,2
522048146,11.3652,11.178113,8.494,9.474484,0.0,603.48596,0.7293702,1.0381545,0.0,3,0,0,0,0,0,1,1,0,0,2
522551675,11.5866,11.281826,5.6296,7.9404635,0.0,604.48,0.7815934,1.0305668,0.0,3,0,0,0,0,0,1,1,0,0,2
523056477,11.6276,11.390515,5.7412,6.733982,0.0,605.29724,0.8345528,1.0229846,0.0,3,0,0,0,0,0,1,1,0,0,2
523548524,11.5702,11.471002,5.766,6.119876,0.0,606.0702,0.87533814,1.0172209,0.0,3,0,0,0,0,0,1,1,0,0,2
524054035,11.4882,11.467933,7.44,6.8175693,0.0,607.09955,0.8758517,1.0171487,0.0,3,0,0,0,0,0,1,1,0,0,2
524559688,11.0372,11.355329,11.7676,8.908306,0.0,608.5111,0.8200012,1.0250568,0.0,3,0,0,0,0,0,1,1,0,0,2
525053317,10.9962,11.235973,11.3088,10.447378,0.0,610.10974,0.7609115,1.0335585,0.0,3,0,0,0,0,0,1,1,0,0,2
525557337,11.152,11.203733,10.2796,10.299573,0.0,611.5381,0.7449685,1.0358765,0.0,3,0,0,0,0,0,1,1,0,0,2
526062059,11.1274,11.180214,10.106,10.2632,0.0,612.9756,0.73255926,1.0376879,0.0,3,0,0,0,0,0,1,1,0,0,2
526554903,11.2176,11.202904,9.0892,9.626952,0.0,614.2309,0.7435618,1.0360814,0.0,3,0,0,0,0,0,1,1,0,0,2
527058920,11.0372,11.20032,10.6144,9.682528,0.0,615.5719,0.7413183,1.0364087,0.0,3,0,0,0,0,0,1,1,0,0,2
528058118,11.152,11.156914,9.6224,10.15933,0.0,618.449,0.7190028,1.039674,0.0,3,0,0,0,0,0,1,1,0,0,2
528563664,11.6112,11.287935,5.7535996,7.9796567,0.0,619.3784,0.7848802,1.030093,0.0,3,0,0,0,0,0,1,1,0,0,2
529067835,11.6358,11.397432,5.9147997,6.7855062,0.0,620.20245,0.83866936,1.0223998,0.0,3,0,0,0,0,0,1,1,0,0,2
529561271,11.6112,11.4716835,5.6047997,6.213431,0.0,620.9968,0.87628037,1.0170885,0.0,3,0,0,0,0,0,1,1,0,0,2
530066890,10.2664,11.399492,18.029598,7.9499464,0.0,622.1824,0.8389421,1.0223612,0.0,3,0,0,0,0,0,1,1,0,0,2
530572498,10.373,11.072564,16.330801,13.059097,0.0,624.56915,0.67287785,1.0464892,0.0,3,0,0,0,0,0,1,1,0,0,2
531066046,11.685,11.057162,3.8935997,11.781457,0.0,626.17316,0.6666184,1.047421,0.0,3,0,0,0,0,0,1,1,0,0,2
531570881,11.6604,11.246901,5.0343995,8.264573,0.0,626.95905,0.7613078,1.0335009,0.0,3,0,0,0,0,0,1,1,0,0,2
532075703,11.3734,11.357644,7.874,7.146105,0.0,627.8203,0.81726366,1.0254476,0.0,3,0,0,0,0,0,1,1,0,0,2
532568526,10.578,11.147753,15.028799,11.192746,0.0,629.73645,0.71066624,1.0408993,0.0,3,0,0,0,0,0,1,1,0,0,2
533073290,10.66,10.973523,14.1236,13.172683,0.0,631.8035,0.6219016,1.0541259,0.0,3,0,0,0,0,0,1,1,0,0,2
533577329,11.5702,11.047184,5.332,10.834582,0.0,633.19745,0.66048104,1.0483361,0.0,3,0,0,0,0,0,1,1,0,0,2
534070854,11.5866,11.226298,6.076,7.934727,0.0,633.9763,0.7493139,1.0352436,0.0,3,0,0,0,0,0,1,1,0,0,2
534576490,11.6522,11.354808,5.6916,6.710351,0.0,634.79004,0.81390816,1.025927,0.0,3,0,0,0,0,0,1,1,0,0,2
535081318,11.504601,11.43763,6.6092,6.2025414,0.0,635.6027,0.85627466,1.0199068,0.0,3,0,0,0,0,0,1,1,0,0,2
535574212,11.1684,11.356819,9.8704,8.291804,0.0,636.9399,0.81836754,1.0252899,0.0,3,0,0,0,0,0,1,1,0,0,2
536079737,10.865,11.213055,12.4372,10.666873,0.0,638.6633,0.7479864,1.0354369,0.0,3,0,0,0,0,0,1,1,0,0,2
537078890,11.5538,11.074725,6.4603996,11.405989,0.0,641.9797,0.6776801,1.0457755,0.0,3,0,0,0,0,0,1,1,0,0,2
537584494,11.5538,11.256708,5.9147997,8.029654,0.0,642.7429,0.7679544,1.0325377,0.0,3,0,0,0,0,0,1,1,0,0,2
538088427,11.152,11.295732,10.1556,8.0668955,0.0,643.82324,0.78602225,1.0299283,0.0,3,0,0,0,0,0,1,1,0,0,2
538581413,11.685,11.337163,5.1707997,7.6866508,0.0,644.8933,0.8084579,1.0267066,0.0,3,0,0,0,0,0,1,1,0,0,2
539086024,10.9962,11.307283,12.3504,8.647772,0.0,646.1227,0.7924548,1.0290025,0.0,3,0,0,0,0,0,1,1,0,0,2
539590029,11.1602,11.175675,10.6888,10.731298,0.0,647.8654,0.72743374,1.038438,0.0,3,0,0,0,0,0,1,1,0,0,2
540083821,11.5538,11.270621,5.828,8.576033,0.0,648.87354,0.7760101,1.0313727,0.0,3,0,0,0,0,0,1,1,0,0,2
540589364,11.4882,11.28483,7.0308,8.399789,0.0,650.07294,0.77316004,1.0317845,0.0,3,0,0,0,0,0,1,1,0,0,2
541094989,11.6768,11.383371,5.89,7.0882525,0.0,650.9349,0.82560164,1.0242583,0.0,3,0,0,0,0,0,1,1,0,0,2
541586861,9.7334,10.891291,23.9568,15.720693,0.0,653.8009,0.56565624,1.0626823,0.0,3,0,0,0,0,0,1,1,0,0,2
542091714,11.6194,10.990332,5.6172,11.801769,0.0,655.2455,0.62113196,1.0542421,0.0,3,0,0,0,0,0,1,1,0,0,2
542597254,11.4472,11.1485,6.7827997,9.150193,0.0,656.22156,0.6991568,1.0425955,0.0,3,0,0,0,0,0,1,1,0,0,2
543089268,11.2422,11.230889,9.114,8.24137,0.0,657.21576,0.74100214,1.0364548,0.0,3,0,0,0,0,0,1,1,0,0,2
543594907,11.6522,11.298284,5.3692,7.574052,0.0,658.2645,0.77947384,1.0308726,0.0,3,0,0,0,0,0,1,1,0,0,2
544100400,11.07,11.390623,8.531199,6.5013137,0.0,659.05804,0.82781035,1.0239437,0.0,3,0,0,0,0,0,1,1,0,0,2
544594022,10.1598,10.977569,19.2448,13.728162,0.0,661.6743,0.6162434,1.0549804,0.0,3,0,0,0,0,0,1,1,0,0,2
545099703,11.6358,10.905301,4.8608,13.2724905,0.0,663.6417,0.582974,1.0600331,0.0,3,0,0,0,0,0,1,1,0,0,2
545593227,12.136,11.230924,0.0,7.130501,0.0,664.0275,0.74159867,1.0363678,0.0,3,0,0,0,0,0,1,1,0,0,2
546097312,10.1106,11.184792,22.1712,9.328476,0.0,665.2739,0.706605,1.0414971,0.0,3,0,0,0,0,0,1,1,0,0,2
546602033,9.758,10.6510315,22.0968,17.794582,0.0,668.6688,0.43635613,1.082889,0.0,3,0,0,0,0,0,1,1,0,0,2
547107852,12.1114,11.038982,0.0,9.1693325,0.0,669.1932,0.630137,1.0528846,0.0,3,0,0,0,0,0,1,1,0,0,2
547611656,10.2008,10.927265,20.038399,12.23916,0.0,670.98303,0.5700894,1.0620029,0.0,3,0,0,0,0,0,1,1,0,0,2
548105280,11.6276,10.751249,6.4975996,14.522525,0.0,673.33984,0.4883018,1.0746794,0.0,3,0,0,0,0,0,1,1,0,0,2
549610100,9.8810005,10.741815,21.514,16.139982,0.0,677.59155,0.47571093,1.0766578,0.0,3,0,0,0,0,0,1,1,0,0,2
550115662,11.9884,10.878664,0.6944,11.691937,0.0,679.0334,0.5518423,1.064805,0.0,3,0,0,0,0,0,1,1,0,0,2
550619670,11.3242,11.150507,9.3744,7.6830797,0.0,679.5839,0.68578154,1.0445737,0.0,3,0,0,0,0,0,1,1,0,0,2
551113283,9.7908,10.858241,21.6628,13.658562,0.0,681.92053,0.5413647,1.0664208,0.0,3,0,0,0,0,0,1,1,0,0,2
551618896,11.7834,10.905403,2.232,11.3580675,0.0,683.5552,0.5695906,1.0620793,0.0,3,0,0,0,0,0,1,1,0,0,2
552112510,11.562,11.147378,5.8156,7.7354846,0.0,684.18445,0.6912313,1.0437669,0.0,3,0,0,0,0,0,1,1,0,0,2
552618073,10.865,11.244488,12.6604,7.2187114,0.0,685.0959,0.7451182,1.0358547,0.0,3,0,0,0,0,0,1,1,0,0,2
553122067,10.0778,10.818194,18.4512,14.754565,0.0,687.95374,0.5283113,1.0684406,0.0,3,0,0,0,0,0,1,1,0,0,2
553615769,11.4636,10.875983,5.2204,12.032955,0.0,689.5052,0.56141526,1.063333,0.0,3,0,0,0,0,0,1,1,0,0,2
554121380,11.316,11.064364,7.4152,8.918669,0.0,690.4198,0.6540304,1.0492998,0.0,3,0,0,0,0,0,1,1,0,0,2
554626877,11.603,10.96937,4.3524,11.293496,0.0,692.25494,0.6071697,1.0563537,0.0,3,0,0,0,0,0,1,1,0,0,2
555120504,11.6194,11.164072,5.642,7.972519,0.0,692.98303,0.7074581,1.0413716,0.0,3,0,0,0,0,0,1,1,0,0,2
555625368,10.1926,11.168053,19.964,8.823262,0.0,694.1827,0.7101169,1.0409801,0.0,3,0,0,0,0,0,1,1,0,0,2
556129364,11.3242,10.994625,7.8492,11.675848,0.0,696.2782,0.6249657,1.0536637,0.0,3,0,0,0,0,0,1,1,0,0,2
556634299,11.521,11.176116,5.6916,8.245524,0.0,697.08057,0.71726376,1.0399294,0.0,3,0,0,0,0,0,1,1,0,0,2
557126057,11.521,11.30265,5.5676,6.743024,0.0,697.84216,0.7814041,1.0305941,0.0,3,0,0,0,0,0,1,1,0,0,2
557631713,11.5784,11.400107,5.6172,6.0340858,0.0,698.61383,0.83202654,1.0233437,0.0,3,0,0,0,0,0,1,1,0,0,2
558137252,9.6022005,11.025189,24.6512,13.082148,0.0,700.92523,0.6368237,1.0518789,0.0,3,0,0,0,0,0,1,1,0,0,2
558630895,9.922,10.651806,19.889599,17.352186,0.0,703.82007,0.4453364,1.0814607,0.0,3,0,0,0,0,0,1,1,0,0,2
559136492,11.521,10.775604,5.3692,12.900495,0.0,705.35364,0.51065594,1.0711846,0.0,3,0,0,0,0,0,1,1,0,0,2
559640503,11.603,11.02188,5.6792,8.817521,0.0,706.1539,0.6350542,1.0521449,0.0,3,0,0,0,0,0,1,1,0,0,2
560145291,11.4636,11.21,5.9396,6.984569,0.0,706.93866,0.73229796,1.0377262,0.0,3,0,0,0,0,0,1,1,0,0,2
560638090,11.4636,11.331302,5.1335998,6.1452956,0.0,707.6949,0.7950755,1.028626,0.0,3,0,0,0,0,0,1,1,0,0,2
561142098,10.6436,11.33914,13.9004,6.9709783,0.0,708.6768,0.80011946,1.0279016,0.0,3,0,0,0,0,0,1,1,0,0,2
561647793,10.3648,11.025243,17.0872,12.4344425,0.0,710.9661,0.64166456,1.0511521,0.0,3,0,0,0,0,0,1,1,0,0,2
562141442,10.3976,10.803236,16.293598,14.769923,0.0,713.24414,0.5283986,1.0684271,0.0,3,0,0,0,0,0,1,1,0,0,2
562646915,11.3734,10.798571,7.2416,13.204717,0.0,715.0261,0.52671057,1.0686888,0.0,3,0,0,0,0,0,1,1,0,0,2
563152480,11.4800005,11.045344,5.6668,8.830225,0.0,715.79913,0.65074974,1.0497906,0.0,3,0,0,0,0,0,1,1,0,0,2
563644459,11.5702,11.205512,5.7288,7.013445,0.0,716.5614,0.73102766,1.037912,0.0,3,0,0,0,0,0,1,1,0,0,2
564150080,11.6194,11.319448,5.4063997,6.1794834,0.0,717.34625,0.7887874,1.0295303,0.0,3,0,0,0,0,0,1,1,0,0,2
564655659,10.906,11.371708,11.246799,6.258571,0.0,718.20123,0.8161059,1.025613,0.0,3,0,0,0,0,0,1,1,0,0,2
565149278,10.5288,11.144684,16.43,10.719655,0.0,720.0814,0.7030383,1.0420228,0.0,3,0,0,0,0,0,1,1,0,0,2
565654800,10.3976,10.85992,17.05,14.43863,0.0,722.49506,0.55808455,1.0638448,0.0,3,0,0,0,0,0,1,1,0,0,2
566146885,10.6026,10.731774,14.9296,14.859047,0.0,724.58856,0.4921146,1.0740817,0.0,3,0,0,0,0,0,1,1,0,0,2
566652474,11.4554,10.909433,5.27,10.603552,0.0,725.7312,0.5822988,1.0601361,0.0,3,0,0,0,0,0,1,1,0,0,2
567158125,11.398,11.109132,5.3195996,7.778666,0.0,726.5214,0.68137556,1.045227,0.0,3,0,0,0,0,0,1,1,0,0,2
568660619,11.3324,11.34014,8.1344,7.0747128,0.0,729.14056,0.8007689,1.0278084,0.0,3,0,0,0,0,0,1,1,0,0,2
569153258,10.7912,11.204027,13.7144,9.681654,0.0,730.6692,0.7340527,1.0374695,0.0,3,0,0,0,0,0,1,1,0,0,2
569658135,10.6108,10.994786,14.384,12.423913,0.0,732.6979,0.6283832,1.0531487,0.0,3,0,0,0,0,0,1,1,0,0,2
570162052,10.5452,10.8635025,13.788799,13.269482,0.0,734.647,0.56052977,1.063469,0.0,3,0,0,0,0,0,1,1,0,0,2
570655691,10.6928005,10.808639,12.5487995,13.116977,0.0,736.44366,0.5319639,1.0678747,0.0,3,0,0,0,0,0,1,1,0,0,2
571161225,11.4636,11.0051565,5.8528,9.243249,0.0,737.39233,0.63047034,1.0528344,0.0,3,0,0,0,0,0,1,1,0,0,2
571666071,11.5128,11.175062,5.4807997,7.2303834,0.0,738.1954,0.7148586,1.0402828,0.0,3,0,0,0,0,0,1,1,0,0,2
572158890,11.6194,11.296612,5.4188,6.3332767,0.0,738.9705,0.7765551,1.031294,0.0,3,0,0,0,0,0,1,1,0,0,2
572664521,11.07,11.323582,9.61,6.8929486,0.0,739.9576,0.79191405,1.0290804,0.0,3,0,0,0,0,0,1,1,0,0,2
573158169,10.9716,11.228114,11.3088,8.886972,0.0,741.3715,0.74642855,1.0356637,0.0,3,0,0,0,0,0,1,1,0,0,2
573663638,11.2504,11.140405,8.630401,9.971211,0.0,742.9011,0.70325524,1.0419909,0.0,3,0,0,0,0,0,1,1,0,0,2
574169305,11.2504,11.162368,8.6552,9.085751,0.0,744.07465,0.7139278,1.0404196,0.0,3,0,0,0,0,0,1,1,0,0,2
574661297,11.3324,11.195935,7.6383996,8.403585,0.0,745.16223,0.7304817,1.0379918,0.0,3,0,0,0,0,0,1,1,0,0,2
575166923,11.152,11.226792,8.8412,8.051269,0.0,746.25195,0.7460399,1.0357203,0.0,3,0,0,0,0,0,1,1,0,0,2
575671755,11.1438,11.187813,8.828799,8.850569,0.0,747.5944,0.7269593,1.0385075,0.0,3,0,0,0,0,0,1,1,0,0,2
576165288,11.0208,11.158485,9.4984,9.219488,0.0,748.89105,0.711876,1.0407213,0.0,3,0,0,0,0,0,1,1,0,0,2
576669257,11.2586,11.133149,7.7624,9.456989,0.0,750.25507,0.69894844,1.0426263,0.0,3,0,0,0,0,0,1,1,0,0,2
577174804,11.1766,11.201126,9.4612,8.380487,0.0,751.2493,0.7312537,1.0378789,0.0,3,0,0,0,0,0,1,1,0,0,2
577668532,11.2996,11.194496,7.4772,8.57447,0.0,752.4721,0.7287927,1.038239,0.0,3,0,0,0,0,0,1,1,0,0,2
578174042,11.1356,11.216601,9.4612,8.437774,0.0,753.6196,0.740233,1.036567,0.0,3,0,0,0,0,0,1,1,0,0,2
578679710,11.5292,11.288592,5.704,7.2066708,0.0,754.5316,0.7756148,1.0314298,0.0,3,0,0,0,0,0,1,1,0,0,2
579173275,10.906,11.22025,11.618799,8.725989,0.0,755.82806,0.7399259,1.0366118,0.0,3,0,0,0,0,0,1,1,0,0,2
579677261,11.398,11.268897,8.246,7.709639,0.0,756.8066,0.7647553,1.0330011,0.0,3,0,0,0,0,0,1,1,0,0,2
580182007,11.3242,11.256596,7.44,8.065812,0.0,757.98987,0.7591515,1.0338138,0.0,3,0,0,0,0,0,1,1,0,0,2
580675779,11.3406,11.290589,7.3532,7.4962044,0.0,758.9548,0.7760845,1.0313619,0.0,3,0,0,0,0,0,1,1,0,0,2
581181290,11.1766,11.280785,9.2876,7.814796,0.0,760.0579,0.7704244,1.0321802,0.0,3,0,0,0,0,0,1,1,0,0,2
581685274,11.521,11.307684,5.7535996,7.285675,0.0,761.07544,0.78445965,1.0301535,0.0,3,0,0,0,0,0,1,1,0,0,2
582178097,11.2832,11.347152,7.5888,6.924615,0.0,761.9588,0.8035417,1.0274109,0.0,3,0,0,0,0,0,1,1,0,0,2
582683682,11.4472,11.3527355,6.3984,7.0424986,0.0,762.96765,0.8064619,1.0269924,0.0,3,0,0,0,0,0,1,1,0,0,2
583189343,11.4800005,11.4070015,6.0263996,6.258421,0.0,763.75934,0.83300644,1.0232043,0.0,3,0,0,0,0,0,1,1,0,0,2
583681259,11.4882,11.437104,6.0512,6.0315027,0.0,764.5595,0.84744793,1.0211552,0.0,3,0,0,0,0,0,1,1,0,0,2
584186037,11.4718,11.461808,5.8032002,5.9343767,0.0,765.38354,0.8596106,1.0194358,0.0,3,0,0,0,0,0,1,1,0,0,2
584691626,11.5456,11.480798,5.8403997,5.876639,0.0,766.2023,0.86904246,1.0181063,0.0,3,0,0,0,0,0,1,1,0,0,2
585183752,12.136,11.641718,0.0,3.4180162,0.0,766.4791,0.9363337,1.0087215,0.0,3,0,0,0,0,0,1,1,0,0,2
585688571,12.1442,11.812015,0.0,1.5153612,0.0,766.4938,1.0,1.0,0.0,3,0,0,0,0,0,1,1,0,0,2
586194042,12.2016,11.945783,0.0,0.64865196,0.0,766.4938,1.0,1.0,0.0,3,0,0,0,0,0,1,1,0,0,2
586687777,12.218,12.036245,0.0,0.28332257,0.0,766.4938,1.0,1.0,0.0,3,0,0,0,0,0,1,1,0,0,2
587191623,12.2426,12.102079,0.0,0.12127652,0.0,766.4938,1.0,1.0,0.0,3,0,0,0,0,0,1,1,0,0,2
587697286,12.259,12.147821,0.0,0.051912542,0.0,766.4938,1.0,1.0,0.0,3,0,0,0,0,0,1,1,0,0,2
588190105,12.259,12.18199,0.0,0.022674715,0.0,766.4938,1.0,1.0,0.0,3,0,0,0,0,0,1,1,0,0,2
588695804,12.2508,12.209177,0.0,0.009705936,0.0,766.4938,1.0,1.0,0.0,3,0,0,0,0,0,1,1,0,0,2
590198827,12.2918005,12.2561035,0.0,0.00077677995,0.0,766.4938,1.0,1.0,0.0,3,0,0,0,0,0,1,1,0,0,2
590704497,12.2918005,12.268816,0.0,0.00033250148,0.0,766.4938,1.0,1.0,0.0,3,0,0,0,0,0,1,1,0,0,2
591197294,12.2918005,12.2773485,0.0,0.00014523228,0.0,766.4938,1.0,1.0,0.0,3,0,0,0,0,0,1,1,0,0,2
591701277,12.3,12.286827,0.0,6.216682e-05,0.0,766.4938,1.0,1.0,0.0,3,0,0,0,0,0,1,1,0,0,2
592206865,12.3,12.294586,0.0,2.6610578e-05,0.0,766.4938,1.0,1.0,0.0,3,0,0,0,0,0,1,1,0,0,2
592700418,12.3246,12.299424,0.0,1.16231495e-05,0.0,766.4938,1.0,1.0,0.0,3,0,0,0,0,0,1,1,0,0,2
593206092,12.3,12.305037,0.0,4.975301e-06,0.0,766.4938,1.0,1.0,0.0,3,0,0,0,0,0,1,1,0,0,2
593699670,12.3328,12.309945,0.0,2.1731455e-06,0.0,766.4938,1.0,1.0,0.0,3,0,0,0,0,0,1,1,0,0,2
594203681,12.3984,12.338286,0.0,9.302172e-07,0.0,766.4938,1.0,1.0,0.0,3,0,0,0,0,0,1,1,0,0,2
594709307,12.3738,12.348029,0.0,3.9818045e-07,0.0,766.4938,1.0,1.0,0.0,3,0,0,0,0,0,1,1,0,0,2
