timestamp,min_distance,max_distance,current_distance,covariance,signal_quality,type,id,orientation
310004295,0.01,25.0,5.65,0.0,4,0,2,2
310069406,0.01,25.0,5.72,0.0,4,0,2,2
310101349,0.01,25.0,5.68,0.0,4,0,2,2
310132941,0.01,25.0,5.68,0.0,4,0,2,2
310165382,0.01,25.0,5.72,0.0,4,0,2,2
310197987,0.01,25.0,5.7,0.0,64,0,2,2
310229348,0.01,25.0,5.69,0.0,4,0,2,2
310260780,0.01,25.0,5.67,0.0,4,0,2,2
310293292,0.01,25.0,5.7,0.0,4,0,2,2
310326102,0.01,25.0,5.64,0.0,4,0,2,2
310358569,0.01,25.0,5.69,0.0,4,0,2,2
310390254,0.01,25.0,5.74,0.0,4,0,2,2
310422074,0.01,25.0,5.69,0.0,4,0,2,2
310454357,0.01,25.0,5.71,0.0,4,0,2,2
310486174,0.01,25.0,5.68,0.0,4,0,2,2
310517394,0.01,25.0,5.68,0.0,6,0,2,2
310550554,0.01,25.0,5.7,0.0,4,0,2,2
310581913,0.01,25.0,5.7,0.0,4,0,2,2
310614238,0.01,25.0,5.72,0.0,4,0,2,2
310646198,0.01,25.0,5.72,0.0,4,0,2,2
310677810,0.01,25.0,5.69,0.0,4,0,2,2
310709991,0.01,25.0,5.72,0.0,4,0,2,2
310742013,0.01,25.0,5.69,0.0,4,0,2,2
310773916,0.01,25.0,5.7,0.0,64,0,2,2
310805477,0.01,25.0,5.69,0.0,4,0,2,2
310838124,0.01,25.0,5.68,0.0,0,0,2,2
310869814,0.01,25.0,5.71,0.0,64,0,2,2
310901919,0.01,25.0,5.67,0.0,64,0,2,2
310933932,0.01,25.0,5.72,0.0,64,0,2,2
310965958,0.01,25.0,5.68,0.0,64,0,2,2
310998166,0.01,25.0,5.72,0.0,64,0,2,2
311028750,0.01,25.0,5.71,0.0,64,0,2,2
311059820,0.01,25.0,5.69,0.0,4,0,2,2
311092358,0.01,25.0,5.69,0.0,4,0,2,2
311124316,0.01,25.0,5.7,0.0,4,0,2,2
311156773,0.01,25.0,5.74,0.0,0,0,2,2
311187815,0.01,25.0,5.72,0.0,1,0,2,2
311219021,0.01,25.0,5.71,0.0,4,0,2,2
311251797,0.01,25.0,5.65,0.0,4,0,2,2
311284343,0.01,25.0,5.71,0.0,4,0,2,2
311316193,0.01,25.0,5.72,0.0,4,0,2,2
311347633,0.01,25.0,5.7,0.0,4,0,2,2
311379336,0.01,25.0,5.67,0.0,4,0,2,2
311411335,0.01,25.0,5.68,0.0,4,0,2,2
311444948,0.01,25.0,5.67,0.0,4,0,2,2
311476946,0.01,25.0,5.69,0.0,4,0,2,2
311509393,0.01,25.0,5.68,0.0,4,0,2,2
311541814,0.01,25.0,5.72,0.0,64,0,2,2
311573735,0.01,25.0,5.7,0.0,4,0,2,2
311605387,0.01,25.0,5.68,0.0,4,0,2,2
311637316,0.01,25.0,5.66,0.0,4,0,2,2
311669403,0.01,25.0,5.67,0.0,4,0,2,2
311701384,0.01,25.0,5.71,0.0,4,0,2,2
311732978,0.01,25.0,5.69,0.0,4,0,2,2
311765449,0.01,25.0,5.67,0.0,4,0,2,2
311798013,0.01,25.0,5.67,0.0,64,0,2,2
311828949,0.01,25.0,5.6099997,0.0,4,0,2,2
311861402,0.01,25.0,5.68,0.0,4,0,2,2
311893913,0.01,25.0,5.74,0.0,0,0,2,2
311924945,0.01,25.0,5.7,0.0,4,0,2,2
311958102,0.01,25.0,5.7,0.0,4,0,2,2
311990178,0.01,25.0,5.68,0.0,4,0,2,2
312022220,0.01,25.0,5.68,0.0,4,0,2,2
312054133,0.01,25.0,5.71,0.0,4,0,2,2
312087169,0.01,25.0,5.68,0.0,4,0,2,2
312119771,0.01,25.0,5.75,0.0,64,0,2,2
312151729,0.01,25.0,5.8199997,0.0,4,0,2,2
312183759,0.01,25.0,5.8799996,0.0,64,0,2,2
312215767,0.01,25.0,5.8599997,0.0,64,0,2,2
312247629,0.01,25.0,5.8199997,0.0,4,0,2,2
312278843,0.01,25.0,5.8399997,0.0,64,0,2,2
312310588,0.01,25.0,5.9,0.0,64,0,2,2
312341892,0.01,25.0,5.9,0.0,64,0,2,2
312374576,0.01,25.0,5.85,0.0,0,0,2,2
312406791,0.01,25.0,5.85,0.0,0,0,2,2
312438995,0.01,25.0,5.9,0.0,64,0,2,2
312470847,0.01,25.0,5.89,0.0,64,0,2,2
312501758,0.01,25.0,5.9,0.0,64,0,2,2
312534184,0.01,25.0,5.93,0.0,64,0,2,2
312565952,0.01,25.0,5.95,0.0,0,0,2,2
312598222,0.01,25.0,5.95,0.0,64,0,2,2
312630269,0.01,25.0,5.94,0.0,64,0,2,2
312662209,0.01,25.0,5.95,0.0,64,0,2,2
312693946,0.01,25.0,5.95,0.0,64,0,2,2
312726213,0.01,25.0,5.95,0.0,64,0,2,2
312758004,0.01,25.0,6.0499997,0.0,64,0,2,2
312789760,0.01,25.0,5.91,0.0,0,0,2,2
312822270,0.01,25.0,5.97,0.0,64,0,2,2
312854149,0.01,25.0,6.1099997,0.0,4,0,2,2
312886542,0.01,25.0,5.97,0.0,64,0,2,2
312918847,0.01,25.0,5.95,0.0,64,0,2,2
312951900,0.01,25.0,6.0299997,0.0,64,0,2,2
312983340,0.01,25.0,6.0499997,0.0,64,0,2,2
313015777,0.01,25.0,6.02,0.0,4,0,2,2
313048141,0.01,25.0,6.0699997,0.0,0,0,2,2
313079159,0.01,25.0,6.08,0.0,64,0,2,2
313111530,0.01,25.0,6.06,0.0,64,0,2,2
313143351,0.01,25.0,6.1,0.0,64,0,2,2
313175954,0.01,25.0,6.1299996,0.0,64,0,2,2
313207805,0.01,25.0,6.0899997,0.0,0,0,2,2
313239352,0.01,25.0,6.06,0.0,64,0,2,2
313272198,0.01,25.0,6.23,0.0,64,0,2,2
313303744,0.01,25.0,6.17,0.0,64,0,2,2
313335871,0.01,25.0,6.17,0.0,4,0,2,2
313367846,0.01,25.0,6.3599997,0.0,64,0,2,2
313399763,0.01,25.0,6.68,0.0,64,0,2,2
313431815,0.01,25.0,6.74,0.0,64,0,2,2
313464381,0.01,25.0,6.85,0.0,64,0,2,2
313496741,0.01,25.0,6.93,0.0,64,0,2,2
313528750,0.01,25.0,6.97,0.0,64,0,2,2
313560745,0.01,25.0,7.06,0.0,0,0,2,2
313591758,0.01,25.0,6.94,0.0,112,0,2,2
313623840,0.01,25.0,7.06,0.0,64,0,2,2
313655751,0.01,25.0,6.93,0.0,64,0,2,2
313687653,0.01,25.0,6.7799997,0.0,64,0,2,2
313720296,0.01,25.0,6.7599998,0.0,64,0,2,2
313752953,0.01,25.0,6.91,0.0,64,0,2,2
313784767,0.01,25.0,6.8599997,0.0,64,0,2,2
313816759,0.01,25.0,6.96,0.0,64,0,2,2
313848927,0.01,25.0,7.0099998,0.0,64,0,2,2
313880755,0.01,25.0,7.24,0.0,64,0,2,2
313912754,0.01,25.0,7.3199997,0.0,64,0,2,2
313944423,0.01,25.0,7.48,0.0,64,0,2,2
313976759,0.01,25.0,7.62,0.0,0,0,2,2
314008889,0.01,25.0,7.6499996,0.0,0,0,2,2
314040931,0.01,25.0,7.54,0.0,64,0,2,2
314072362,0.01,25.0,7.85,0.0,0,0,2,2
314104903,0.01,25.0,7.81,0.0,64,0,2,2
314136929,0.01,25.0,7.41,0.0,64,0,2,2
314168640,0.01,25.0,7.31,0.0,64,0,2,2
314200741,0.01,25.0,7.33,0.0,64,0,2,2
314232999,0.01,25.0,7.14,0.0,64,0,2,2
314264420,0.01,25.0,7.0899997,0.0,64,0,2,2
314296292,0.01,25.0,6.99,0.0,0,0,2,2
314328473,0.01,25.0,6.73,0.0,64,0,2,2
314360759,0.01,25.0,6.8399997,0.0,64,0,2,2
314392942,0.01,25.0,6.8599997,0.0,0,0,2,2
314424759,0.01,25.0,6.45,0.0,64,0,2,2
314456742,0.01,25.0,6.33,0.0,64,0,2,2
314488765,0.01,25.0,6.3199997,0.0,64,0,2,2
314520769,0.01,25.0,6.24,0.0,64,0,2,2
314552742,0.01,25.0,5.8399997,0.0,64,0,2,2
314585120,0.01,25.0,5.8799996,0.0,64,0,2,2
314616741,0.01,25.0,5.74,0.0,64,0,2,2
314648792,0.01,25.0,5.49,0.0,64,0,2,2
314679765,0.01,25.0,5.5699997,0.0,4,0,2,2
314712325,0.01,25.0,5.49,0.0,4,0,2,2
314744156,0.01,25.0,5.44,0.0,4,0,2,2
314775338,0.01,25.0,5.29,0.0,4,0,2,2
314807807,0.01,25.0,5.2999997,0.0,4,0,2,2
314840360,0.01,25.0,4.93,0.0,4,0,2,2
314872345,0.01,25.0,4.7999997,0.0,4,0,2,2
314904326,0.01,25.0,4.8199997,0.0,4,0,2,2
314936319,0.01,25.0,4.7799997,0.0,4,0,2,2
314968348,0.01,25.0,4.7599998,0.0,4,0,2,2
315000315,0.01,25.0,4.68,0.0,4,0,2,2
315351749,0.01,25.0,2.6399999,0.0,64,0,2,2
315383512,0.01,25.0,2.69,0.0,64,0,2,2
315415803,0.01,25.0,2.75,0.0,0,0,2,2
315447494,0.01,25.0,2.78,0.0,0,0,2,2
315479586,0.01,25.0,2.76,0.0,64,0,2,2
315511520,0.01,25.0,2.81,0.0,64,0,2,2
315543790,0.01,25.0,2.85,0.0,64,0,2,2
315575723,0.01,25.0,3.07,0.0,64,0,2,2
315607627,0.01,25.0,3.5,0.0,4,0,2,2
315639800,0.01,25.0,3.6999998,0.0,64,0,2,2
315671756,0.01,25.0,3.9199998,0.0,64,0,2,2
315703784,0.01,25.0,3.99,0.0,4,0,2,2
315735834,0.01,25.0,4.25,0.0,64,0,2,2
315767805,0.01,25.0,4.45,0.0,64,0,2,2
315799802,0.01,25.0,4.52,0.0,64,0,2,2
315831760,0.01,25.0,4.7799997,0.0,64,0,2,2
315863708,0.01,25.0,5.08,0.0,64,0,2,2
315895759,0.01,25.0,6.47,0.0,64,0,2,2
315929517,0.01,25.0,9.99,0.0,64,0,2,2
315962321,0.01,25.0,12.16,0.0,64,0,2,2
315994842,0.01,25.0,12.07,0.0,0,0,2,2
316026818,0.01,25.0,10.26,0.0,0,0,2,2
316058274,0.01,25.0,6.71,0.0,4,0,2,2
316090857,0.01,25.0,5.54,0.0,64,0,2,2
316122243,0.01,25.0,4.62,0.0,64,0,2,2
316154062,0.01,25.0,4.0299997,0.0,64,0,2,2
316186534,0.01,25.0,3.4399998,0.0,64,0,2,2
316218044,0.01,25.0,3.4099998,0.0,4,0,2,2
316250550,0.01,25.0,3.47,0.0,64,0,2,2
316282916,0.01,25.0,3.6399999,0.0,64,0,2,2
316314724,0.01,25.0,3.6799998,0.0,64,0,2,2
316346922,0.01,25.0,3.6499999,0.0,0,0,2,2
316378249,0.01,25.0,3.62,0.0,64,0,2,2
316410031,0.01,25.0,3.6399999,0.0,-72,0,2,2
316442536,0.01,25.0,3.6399999,0.0,0,0,2,2
316474886,0.01,25.0,3.78,0.0,64,0,2,2
316506152,0.01,25.0,3.8899999,0.0,64,0,2,2
316538004,0.01,25.0,4.29,0.0,64,0,2,2
316569941,0.01,25.0,4.77,0.0,64,0,2,2
316602577,0.01,25.0,5.44,0.0,64,0,2,2
316634877,0.01,25.0,6.99,0.0,64,0,2,2
316666876,0.01,25.0,11.66,0.0,64,0,2,2
316698652,0.01,25.0,12.09,0.0,64,0,2,2
316730879,0.01,25.0,12.21,0.0,64,0,2,2
316762860,0.01,25.0,12.21,0.0,64,0,2,2
316794650,0.01,25.0,12.21,0.0,64,0,2,2
316826856,0.01,25.0,12.2,0.0,64,0,2,2
316858709,0.01,25.0,12.16,0.0,64,0,2,2
316890297,0.01,25.0,12.15,0.0,64,0,2,2
316922373,0.01,25.0,12.139999,0.0,64,0,2,2
316954324,0.01,25.0,12.12,0.0,64,0,2,2
316986874,0.01,25.0,12.11,0.0,64,0,2,2
317018865,0.01,25.0,12.099999,0.0,64,0,2,2
317050347,0.01,25.0,12.09,0.0,64,0,2,2
317082697,0.01,25.0,12.07,0.0,4,0,2,2
317114929,0.01,25.0,12.059999,0.0,64,0,2,2
317146875,0.01,25.0,12.04,0.0,64,0,2,2
317178904,0.01,25.0,12.04,0.0,64,0,2,2
317210898,0.01,25.0,12.0199995,0.0,64,0,2,2
317242861,0.01,25.0,12.009999,0.0,64,0,2,2
317274825,0.01,25.0,11.98,0.0,64,0,2,2
317306811,0.01,25.0,11.99,0.0,64,0,2,2
317338564,0.01,25.0,11.98,0.0,64,0,2,2
317370956,0.01,25.0,11.95,0.0,0,0,2,2
317402846,0.01,25.0,11.969999,0.0,64,0,2,2
317433759,0.01,25.0,11.929999,0.0,64,0,2,2
317465756,0.01,25.0,11.92,0.0,64,0,2,2
317497945,0.01,25.0,11.92,0.0,64,0,2,2
317529743,0.01,25.0,11.92,0.0,64,0,2,2
317560919,0.01,25.0,11.9,0.0,64,0,2,2
317593563,0.01,25.0,11.87,0.0,64,0,2,2
317625744,0.01,25.0,11.9,0.0,64,0,2,2
317656966,0.01,25.0,11.889999,0.0,64,0,2,2
317689434,0.01,25.0,11.87,0.0,4,0,2,2
317721889,0.01,25.0,11.87,0.0,64,0,2,2
317752937,0.01,25.0,11.86,0.0,64,0,2,2
317786097,0.01,25.0,11.849999,0.0,64,0,2,2
317817957,0.01,25.0,11.849999,0.0,-72,0,2,2
317849888,0.01,25.0,11.86,0.0,64,0,2,2
317881133,0.01,25.0,11.86,0.0,64,0,2,2
317912973,0.01,25.0,11.849999,0.0,64,0,2,2
317945124,0.01,25.0,11.849999,0.0,64,0,2,2
317977803,0.01,25.0,11.88,0.0,64,0,2,2
318009798,0.01,25.0,11.83,0.0,0,0,2,2
318040942,0.01,25.0,11.75,0.0,64,0,2,2
318073736,0.01,25.0,11.71,0.0,64,0,2,2
318105772,0.01,25.0,11.719999,0.0,64,0,2,2
318137974,0.01,25.0,11.73,0.0,64,0,2,2
318170206,0.01,25.0,11.71,0.0,64,0,2,2
318202538,0.01,25.0,11.719999,0.0,64,0,2,2
318235317,0.01,25.0,11.719999,0.0,64,0,2,2
318267482,0.01,25.0,11.73,0.0,64,0,2,2
318299741,0.01,25.0,11.719999,0.0,64,0,2,2
318330874,0.01,25.0,11.7,0.0,4,0,2,2
318362367,0.01,25.0,11.73,0.0,64,0,2,2
318394841,0.01,25.0,11.719999,0.0,64,0,2,2
318427079,0.01,25.0,11.719999,0.0,0,0,2,2
319292995,0.01,25.0,11.86,0.0,64,0,2,2
319324933,0.01,25.0,11.84,0.0,64,0,2,2
319357135,0.01,25.0,11.86,0.0,64,0,2,2
319388183,0.01,25.0,11.929999,0.0,64,0,2,2
319420518,0.01,25.0,12.15,0.0,64,0,2,2
319453096,0.01,25.0,12.19,0.0,64,0,2,2
319484171,0.01,25.0,12.219999,0.0,64,0,2,2
319516953,0.01,25.0,12.23,0.0,64,0,2,2
319548194,0.01,25.0,12.25,0.0,64,0,2,2
319580588,0.01,25.0,12.219999,0.0,64,0,2,2
319612749,0.01,25.0,12.24,0.0,64,0,2,2
319644985,0.01,25.0,12.25,0.0,64,0,2,2
319675773,0.01,25.0,12.25,0.0,64,0,2,2
319707838,0.01,25.0,12.2699995,0.0,64,0,2,2
319739742,0.01,25.0,12.259999,0.0,64,0,2,2
319770804,0.01,25.0,12.25,0.0,64,0,2,2
319802852,0.01,25.0,12.259999,0.0,64,0,2,2
319834823,0.01,25.0,12.2699995,0.0,12,0,2,2
319866838,0.01,25.0,12.28,0.0,64,0,2,2
319898799,0.01,25.0,12.3,0.0,64,0,2,2
319930847,0.01,25.0,12.29,0.0,64,0,2,2
319962859,0.01,25.0,12.32,0.0,0,0,2,2
319994266,0.01,25.0,12.28,0.0,4,0,2,2
320026841,0.01,25.0,12.2699995,0.0,64,0,2,2
320058848,0.01,25.0,12.28,0.0,64,0,2,2
320090842,0.01,25.0,12.2699995,0.0,64,0,2,2
320121756,0.01,25.0,12.29,0.0,64,0,2,2
320152991,0.01,25.0,12.3,0.0,64,0,2,2
320185106,0.01,25.0,12.32,0.0,64,0,2,2
320215786,0.01,25.0,12.32,0.0,64,0,2,2
320246869,0.01,25.0,12.3,0.0,4,0,2,2
320278562,0.01,25.0,12.32,0.0,4,0,2,2
320310222,0.01,25.0,12.28,0.0,4,0,2,2
320343336,0.01,25.0,12.309999,0.0,4,0,2,2
320375336,0.01,25.0,12.32,0.0,4,0,2,2
320407728,0.01,25.0,12.33,0.0,4,0,2,2
320440320,0.01,25.0,12.33,0.0,12,0,2,2
320471766,0.01,25.0,12.349999,0.0,4,0,2,2
320504461,0.01,25.0,12.34,0.0,4,0,2,2
320536360,0.01,25.0,12.36,0.0,4,0,2,2
320568619,0.01,25.0,12.36,0.0,4,0,2,2
320600471,0.01,25.0,12.44,0.0,4,0,2,2
320632629,0.01,25.0,12.55,0.0,4,0,2,2
320664197,0.01,25.0,12.58,0.0,0,0,2,2
320695777,0.01,25.0,12.59,0.0,4,0,2,2
320728626,0.01,25.0,12.599999,0.0,4,0,2,2
320760173,0.01,25.0,12.59,0.0,4,0,2,2
320791739,0.01,25.0,12.599999,0.0,4,0,2,2
320824384,0.01,25.0,12.599999,0.0,4,0,2,2
320856349,0.01,25.0,12.59,0.0,4,0,2,2
320887822,0.01,25.0,12.62,0.0,4,0,2,2
320920587,0.01,25.0,12.62,0.0,4,0,2,2
320951742,0.01,25.0,12.61,0.0,4,0,2,2
320984400,0.01,25.0,12.62,0.0,4,0,2,2
321015917,0.01,25.0,12.62,0.0,4,0,2,2
321048301,0.01,25.0,12.63,0.0,4,0,2,2
321080470,0.01,25.0,12.63,0.0,4,0,2,2
321112986,0.01,25.0,12.639999,0.0,4,0,2,2
321146208,0.01,25.0,12.639999,0.0,12,0,2,2
321178129,0.01,25.0,12.639999,0.0,4,0,2,2
321210184,0.01,25.0,12.65,0.0,4,0,2,2
321242079,0.01,25.0,12.66,0.0,4,0,2,2
321274199,0.01,25.0,12.66,0.0,4,0,2,2
321305448,0.01,25.0,12.67,0.0,4,0,2,2
321337968,0.01,25.0,12.67,0.0,4,0,2,2
321370149,0.01,25.0,12.679999,0.0,4,0,2,2
321401348,0.01,25.0,12.679999,0.0,4,0,2,2
321434574,0.01,25.0,12.679999,0.0,4,0,2,2
321466189,0.01,25.0,12.71,0.0,4,0,2,2
321497351,0.01,25.0,12.69,0.0,4,0,2,2
321530530,0.01,25.0,12.69,0.0,4,0,2,2
321562864,0.01,25.0,12.71,0.0,0,0,2,2
321593935,0.01,25.0,12.71,0.0,4,0,2,2
321625943,0.01,25.0,12.71,0.0,4,0,2,2
321658562,0.01,25.0,12.719999,0.0,4,0,2,2
321690117,0.01,25.0,12.71,0.0,4,0,2,2
321722337,0.01,25.0,12.71,0.0,4,0,2,2
321754501,0.01,25.0,12.74,0.0,4,0,2,2
321786365,0.01,25.0,12.75,0.0,4,0,2,2
321818584,0.01,25.0,12.75,0.0,4,0,2,2
321850233,0.01,25.0,12.75,0.0,4,0,2,2
321883740,0.01,25.0,12.7699995,0.0,4,0,2,2
321915692,0.01,25.0,12.7699995,0.0,4,0,2,2
321947032,0.01,25.0,12.7699995,0.0,4,0,2,2
321979493,0.01,25.0,12.79,0.0,4,0,2,2
322011349,0.01,25.0,12.78,0.0,4,0,2,2
322043325,0.01,25.0,12.83,0.0,4,0,2,2
322075379,0.01,25.0,12.809999,0.0,4,0,2,2
322107801,0.01,25.0,12.83,0.0,4,0,2,2
322139727,0.01,25.0,12.83,0.0,4,0,2,2
322171016,0.01,25.0,12.82,0.0,4,0,2,2
322203835,0.01,25.0,12.83,0.0,4,0,2,2
322235366,0.01,25.0,12.84,0.0,4,0,2,2
322266946,0.01,25.0,12.849999,0.0,4,0,2,2
322300177,0.01,25.0,12.86,0.0,4,0,2,2
322331336,0.01,25.0,12.86,0.0,4,0,2,2
322363044,0.01,25.0,12.87,0.0,4,0,2,2
322395783,0.01,25.0,12.87,0.0,4,0,2,2
322427345,0.01,25.0,12.88,0.0,4,0,2,2
322459664,0.01,25.0,12.889999,0.0,4,0,2,2
322491193,0.01,25.0,12.92,0.0,4,0,2,2
322523781,0.01,25.0,12.9,0.0,4,0,2,2
322556158,0.01,25.0,12.91,0.0,4,0,2,2
322588139,0.01,25.0,12.92,0.0,4,0,2,2
322620326,0.01,25.0,12.92,0.0,4,0,2,2
322652204,0.01,25.0,12.92,0.0,4,0,2,2
322684346,0.01,25.0,12.94,0.0,4,0,2,2
322716526,0.01,25.0,12.94,0.0,4,0,2,2
322747821,0.01,25.0,12.96,0.0,4,0,2,2
322780412,0.01,25.0,12.96,0.0,4,0,2,2
322812329,0.01,25.0,12.969999,0.0,4,0,2,2
322844158,0.01,25.0,12.98,0.0,4,0,2,2
322876167,0.01,25.0,12.969999,0.0,4,0,2,2
322908330,0.01,25.0,12.98,0.0,4,0,2,2
322940093,0.01,25.0,12.99,0.0,4,0,2,2
322972301,0.01,25.0,13.0,0.0,4,0,2,2
323004143,0.01,25.0,13.009999,0.0,4,0,2,2
323036167,0.01,25.0,13.0199995,0.0,4,0,2,2
323068106,0.01,25.0,13.009999,0.0,4,0,2,2
323099956,0.01,25.0,13.03,0.0,4,0,2,2
323131969,0.01,25.0,13.04,0.0,4,0,2,2
323164231,0.01,25.0,13.04,0.0,4,0,2,2
323196168,0.01,25.0,13.03,0.0,4,0,2,2
323228421,0.01,25.0,13.049999,0.0,4,0,2,2
323260138,0.01,25.0,13.04,0.0,4,0,2,2
323292181,0.01,25.0,13.059999,0.0,4,0,2,2
323324318,0.01,25.0,13.07,0.0,4,0,2,2
323356968,0.01,25.0,13.059999,0.0,4,0,2,2
323389145,0.01,25.0,13.08,0.0,64,0,2,2
323421289,0.01,25.0,13.09,0.0,64,0,2,2
323453212,0.01,25.0,13.11,0.0,64,0,2,2
323485121,0.01,25.0,13.09,0.0,64,0,2,2
323517130,0.01,25.0,13.11,0.0,0,0,2,2
323547801,0.01,25.0,13.12,0.0,1,0,2,2
323579355,0.01,25.0,13.13,0.0,4,0,2,2
323611512,0.01,25.0,13.16,0.0,4,0,2,2
323643319,0.01,25.0,13.15,0.0,4,0,2,2
323674285,0.01,25.0,13.139999,0.0,4,0,2,2
323706556,0.01,25.0,13.15,0.0,4,0,2,2
323738767,0.01,25.0,13.17,0.0,4,0,2,2
323770960,0.01,25.0,13.16,0.0,4,0,2,2
323803531,0.01,25.0,13.139999,0.0,4,0,2,2
323835338,0.01,25.0,13.16,0.0,4,0,2,2
323867341,0.01,25.0,13.15,0.0,4,0,2,2
323899374,0.01,25.0,13.19,0.0,4,0,2,2
323931060,0.01,25.0,13.19,0.0,4,0,2,2
323963385,0.01,25.0,13.21,0.0,4,0,2,2
323995335,0.01,25.0,13.2,0.0,4,0,2,2
324027373,0.01,25.0,13.2,0.0,4,0,2,2
324059403,0.01,25.0,13.21,0.0,4,0,2,2
324092175,0.01,25.0,13.21,0.0,4,0,2,2
324124310,0.01,25.0,13.23,0.0,4,0,2,2
324156318,0.01,25.0,13.23,0.0,4,0,2,2
324188335,0.01,25.0,13.24,0.0,4,0,2,2
324219870,0.01,25.0,13.259999,0.0,4,0,2,2
324252200,0.01,25.0,13.2699995,0.0,4,0,2,2
324284293,0.01,25.0,13.28,0.0,4,0,2,2
324315778,0.01,25.0,13.28,0.0,4,0,2,2
324348355,0.01,25.0,13.28,0.0,4,0,2,2
324379908,0.01,25.0,13.28,0.0,4,0,2,2
324411736,0.01,25.0,13.29,0.0,4,0,2,2
324444747,0.01,25.0,13.29,0.0,4,0,2,2
324475774,0.01,25.0,13.309999,0.0,4,0,2,2
324508318,0.01,25.0,13.309999,0.0,4,0,2,2
324540332,0.01,25.0,13.33,0.0,4,0,2,2
324572457,0.01,25.0,13.309999,0.0,4,0,2,2
324603840,0.01,25.0,13.349999,0.0,4,0,2,2
324636628,0.01,25.0,13.349999,0.0,-122,0,2,2
324668331,0.01,25.0,13.36,0.0,4,0,2,2
324699814,0.01,25.0,13.37,0.0,4,0,2,2
324732322,0.01,25.0,13.37,0.0,4,0,2,2
324763894,0.01,25.0,13.37,0.0,4,0,2,2
324796294,0.01,25.0,13.37,0.0,4,0,2,2
324829128,0.01,25.0,13.4,0.0,4,0,2,2
324861472,0.01,25.0,13.4,0.0,4,0,2,2
324893570,0.01,25.0,13.4,0.0,4,0,2,2
324926170,0.01,25.0,13.44,0.0,4,0,2,2
324958536,0.01,25.0,13.429999,0.0,4,0,2,2
324990876,0.01,25.0,13.42,0.0,64,0,2,2
325022862,0.01,25.0,13.44,0.0,64,0,2,2
325054884,0.01,25.0,13.46,0.0,0,0,2,2
325086104,0.01,25.0,13.45,0.0,4,0,2,2
325118539,0.01,25.0,13.45,0.0,4,0,2,2
325150235,0.01,25.0,13.45,0.0,4,0,2,2
325181334,0.01,25.0,13.46,0.0,4,0,2,2
325213343,0.01,25.0,13.469999,0.0,4,0,2,2
325245908,0.01,25.0,13.469999,0.0,4,0,2,2
325278514,0.01,25.0,13.49,0.0,4,0,2,2
325309922,0.01,25.0,13.49,0.0,4,0,2,2
325341339,0.01,25.0,13.509999,0.0,4,0,2,2
325373757,0.01,25.0,13.509999,0.0,4,0,2,2
325405758,0.01,25.0,13.509999,0.0,4,0,2,2
325437437,0.01,25.0,13.53,0.0,4,0,2,2
325469994,0.01,25.0,13.54,0.0,4,0,2,2
325502333,0.01,25.0,13.549999,0.0,4,0,2,2
325534090,0.01,25.0,13.54,0.0,4,0,2,2
325567027,0.01,25.0,13.559999,0.0,4,0,2,2
325599299,0.01,25.0,13.559999,0.0,4,0,2,2
325631594,0.01,25.0,13.57,0.0,4,0,2,2
325663722,0.01,25.0,13.58,0.0,4,0,2,2
325695683,0.01,25.0,13.58,0.0,4,0,2,2
325727033,0.01,25.0,13.59,0.0,4,0,2,2
325759726,0.01,25.0,13.599999,0.0,4,0,2,2
325791345,0.01,25.0,13.61,0.0,4,0,2,2
325823751,0.01,25.0,13.61,0.0,4,0,2,2
325855393,0.01,25.0,13.599999,0.0,4,0,2,2
325887337,0.01,25.0,13.639999,0.0,4,0,2,2
325919679,0.01,25.0,13.63,0.0,4,0,2,2
325951358,0.01,25.0,13.65,0.0,4,0,2,2
325982974,0.01,25.0,13.639999,0.0,4,0,2,2
326015724,0.01,25.0,13.639999,0.0,4,0,2,2
326047376,0.01,25.0,13.66,0.0,4,0,2,2
326079739,0.01,25.0,13.66,0.0,4,0,2,2
326111546,0.01,25.0,13.679999,0.0,4,0,2,2
326143881,0.01,25.0,13.69,0.0,4,0,2,2
326175517,0.01,25.0,13.7,0.0,4,0,2,2
326207338,0.01,25.0,13.7,0.0,4,0,2,2
326239131,0.01,25.0,13.71,0.0,4,0,2,2
326271367,0.01,25.0,13.73,0.0,4,0,2,2
326304958,0.01,25.0,13.74,0.0,4,0,2,2
326337097,0.01,25.0,13.719999,0.0,4,0,2,2
326368955,0.01,25.0,13.7699995,0.0,4,0,2,2
326401574,0.01,25.0,13.78,0.0,4,0,2,2
326433774,0.01,25.0,13.78,0.0,64,0,2,2
326465236,0.01,25.0,13.79,0.0,4,0,2,2
326497392,0.01,25.0,13.78,0.0,4,0,2,2
326529338,0.01,25.0,13.799999,0.0,4,0,2,2
326560973,0.01,25.0,13.79,0.0,4,0,2,2
326592537,0.01,25.0,13.82,0.0,4,0,2,2
326624578,0.01,25.0,13.83,0.0,4,0,2,2
326656626,0.01,25.0,13.84,0.0,4,0,2,2
326689122,0.01,25.0,13.849999,0.0,4,0,2,2
326721336,0.01,25.0,13.849999,0.0,4,0,2,2
326753292,0.01,25.0,13.87,0.0,4,0,2,2
326785366,0.01,25.0,13.87,0.0,4,0,2,2
326817331,0.01,25.0,13.889999,0.0,4,0,2,2
326849303,0.01,25.0,13.87,0.0,4,0,2,2
326881744,0.01,25.0,13.889999,0.0,4,0,2,2
326913340,0.01,25.0,13.889999,0.0,4,0,2,2
326944912,0.01,25.0,13.929999,0.0,1,0,2,2
326977793,0.01,25.0,13.91,0.0,4,0,2,2
327008941,0.01,25.0,13.92,0.0,4,0,2,2
327041036,0.01,25.0,13.92,0.0,4,0,2,2
327073179,0.01,25.0,13.98,0.0,64,0,2,2
327105185,0.01,25.0,13.94,0.0,0,0,2,2
327137120,0.01,25.0,13.969999,0.0,64,0,2,2
327169185,0.01,25.0,13.96,0.0,64,0,2,2
327201266,0.01,25.0,13.969999,0.0,64,0,2,2
327233152,0.01,25.0,13.99,0.0,64,0,2,2
327265158,0.01,25.0,14.0,0.0,64,0,2,2
327297191,0.01,25.0,14.009999,0.0,0,0,2,2
327329183,0.01,25.0,14.0199995,0.0,64,0,2,2
327359745,0.01,25.0,14.0199995,0.0,64,0,2,2
327391003,0.01,25.0,14.04,0.0,12,0,2,2
327423339,0.01,25.0,14.04,0.0,4,0,2,2
327455751,0.01,25.0,14.059999,0.0,64,0,2,2
327487802,0.01,25.0,14.07,0.0,64,0,2,2
327519843,0.01,25.0,14.099999,0.0,64,0,2,2
327550960,0.01,25.0,14.03,0.0,1,0,2,2
327582178,0.01,25.0,14.08,0.0,4,0,2,2
327615367,0.01,25.0,14.099999,0.0,4,0,2,2
327647844,0.01,25.0,14.12,0.0,64,0,2,2
327680938,0.01,25.0,14.13,0.0,4,0,2,2
327713178,0.01,25.0,14.13,0.0,64,0,2,2
327745250,0.01,25.0,14.139999,0.0,64,0,2,2
327776120,0.01,25.0,14.15,0.0,4,0,2,2
327808346,0.01,25.0,14.16,0.0,4,0,2,2
327840295,0.01,25.0,14.2,0.0,4,0,2,2
327872545,0.01,25.0,14.17,0.0,4,0,2,2
327904121,0.01,25.0,14.19,0.0,4,0,2,2
327936329,0.01,25.0,14.21,0.0,4,0,2,2
327968355,0.01,25.0,14.2,0.0,4,0,2,2
328000483,0.01,25.0,14.219999,0.0,4,0,2,2
328032221,0.01,25.0,14.23,0.0,4,0,2,2
328064349,0.01,25.0,14.24,0.0,4,0,2,2
328095773,0.01,25.0,14.24,0.0,4,0,2,2
328128583,0.01,25.0,14.25,0.0,4,0,2,2
328160535,0.01,25.0,14.259999,0.0,4,0,2,2
328191844,0.01,25.0,14.2699995,0.0,4,0,2,2
328223918,0.01,25.0,14.28,0.0,4,0,2,2
328256325,0.01,25.0,14.29,0.0,4,0,2,2
328288563,0.01,25.0,14.29,0.0,4,0,2,2
328319940,0.01,25.0,14.299999,0.0,4,0,2,2
328352502,0.01,25.0,14.309999,0.0,4,0,2,2
328383754,0.01,25.0,14.32,0.0,4,0,2,2
328416656,0.01,25.0,14.34,0.0,4,0,2,2
328448619,0.01,25.0,14.33,0.0,4,0,2,2
328479861,0.01,25.0,14.36,0.0,4,0,2,2
328513325,0.01,25.0,14.36,0.0,4,0,2,2
328545742,0.01,25.0,14.37,0.0,64,0,2,2
328576987,0.01,25.0,14.38,0.0,4,0,2,2
328609727,0.01,25.0,14.38,0.0,64,0,2,2
328641750,0.01,25.0,14.389999,0.0,64,0,2,2
328673746,0.01,25.0,14.4,0.0,64,0,2,2
328705728,0.01,25.0,14.42,0.0,64,0,2,2
328737987,0.01,25.0,14.429999,0.0,64,0,2,2
328769219,0.01,25.0,14.44,0.0,64,0,2,2
328801113,0.01,25.0,14.45,0.0,64,0,2,2
328832872,0.01,25.0,14.469999,0.0,64,0,2,2
328866191,0.01,25.0,14.46,0.0,64,0,2,2
328896978,0.01,25.0,14.469999,0.0,64,0,2,2
328929174,0.01,25.0,14.509999,0.0,0,0,2,2
328961109,0.01,25.0,14.509999,0.0,64,0,2,2
328993540,0.01,25.0,14.5199995,0.0,64,0,2,2
329024966,0.01,25.0,14.53,0.0,64,0,2,2
329058038,0.01,25.0,14.549999,0.0,64,0,2,2
329089169,0.01,25.0,14.549999,0.0,64,0,2,2
329121447,0.01,25.0,14.58,0.0,64,0,2,2
329154336,0.01,25.0,14.58,0.0,4,0,2,2
329186879,0.01,25.0,14.58,0.0,0,0,2,2
329218866,0.01,25.0,14.58,0.0,0,0,2,2
329250746,0.01,25.0,14.61,0.0,64,0,2,2
329282882,0.01,25.0,14.63,0.0,64,0,2,2
329314888,0.01,25.0,14.63,0.0,64,0,2,2
329347007,0.01,25.0,14.65,0.0,0,0,2,2
329379327,0.01,25.0,14.65,0.0,64,0,2,2
329411782,0.01,25.0,14.67,0.0,64,0,2,2
329443760,0.01,25.0,14.679999,0.0,64,0,2,2
329475746,0.01,25.0,14.7,0.0,64,0,2,2
329508110,0.01,25.0,14.71,0.0,4,0,2,2
329539764,0.01,25.0,14.719999,0.0,64,0,2,2
329571770,0.01,25.0,14.74,0.0,0,0,2,2
329603759,0.01,25.0,14.75,0.0,-72,0,2,2
329634925,0.01,25.0,14.759999,0.0,4,0,2,2
329666836,0.01,25.0,14.7699995,0.0,64,0,2,2
329699349,0.01,25.0,14.78,0.0,64,0,2,2
329731742,0.01,25.0,14.79,0.0,64,0,2,2
329762904,0.01,25.0,14.799999,0.0,0,0,2,2
329795125,0.01,25.0,14.82,0.0,64,0,2,2
329826920,0.01,25.0,14.83,0.0,64,0,2,2
329859173,0.01,25.0,14.839999,0.0,0,0,2,2
329891742,0.01,25.0,14.87,0.0,64,0,2,2
329923541,0.01,25.0,14.86,0.0,64,0,2,2
329955339,0.01,25.0,14.87,0.0,64,0,2,2
329987806,0.01,25.0,14.88,0.0,64,0,2,2
330019777,0.01,25.0,14.91,0.0,64,0,2,2
330051791,0.01,25.0,14.92,0.0,64,0,2,2
330083750,0.01,25.0,14.929999,0.0,64,0,2,2
330115888,0.01,25.0,14.94,0.0,64,0,2,2
330147345,0.01,25.0,14.98,0.0,4,0,2,2
330179896,0.01,25.0,14.98,0.0,4,0,2,2
330211815,0.01,25.0,14.99,0.0,64,0,2,2
330243364,0.01,25.0,14.99,0.0,64,0,2,2
330275776,0.01,25.0,15.0,0.0,64,0,2,2
330307356,0.01,25.0,15.059999,0.0,56,0,2,2
330339534,0.01,25.0,15.07,0.0,4,0,2,2
330371571,0.01,25.0,15.08,0.0,0,0,2,2
330403819,0.01,25.0,15.089999,0.0,64,0,2,2
330435336,0.01,25.0,15.12,0.0,4,0,2,2
330467655,0.01,25.0,15.139999,0.0,64,0,2,2
330499788,0.01,25.0,15.13,0.0,0,0,2,2
330531811,0.01,25.0,15.139999,0.0,4,0,2,2
330563756,0.01,25.0,15.13,0.0,64,0,2,2
330596162,0.01,25.0,15.139999,0.0,64,0,2,2
330627841,0.01,25.0,15.17,0.0,4,0,2,2
330659778,0.01,25.0,15.13,0.0,64,0,2,2
330691795,0.01,25.0,15.21,0.0,64,0,2,2
330724319,0.01,25.0,15.219999,0.0,0,0,2,2
330755746,0.01,25.0,15.2,0.0,64,0,2,2
330788616,0.01,25.0,15.179999,0.0,64,0,2,2
330820934,0.01,25.0,15.23,0.0,64,0,2,2
330852765,0.01,25.0,15.2,0.0,64,0,2,2
330884765,0.01,25.0,15.21,0.0,0,0,2,2
330915754,0.01,25.0,15.259999,0.0,0,0,2,2
330949480,0.01,25.0,15.2,0.0,64,0,2,2
330980937,0.01,25.0,15.219999,0.0,64,0,2,2
331013158,0.01,25.0,15.389999,0.0,56,0,2,2
331044935,0.01,25.0,14.86,0.0,64,0,2,2
331077774,0.01,25.0,14.82,0.0,64,0,2,2
331109277,0.01,25.0,14.7699995,0.0,64,0,2,2
331141534,0.01,25.0,14.7699995,0.0,64,0,2,2
331173741,0.01,25.0,14.7699995,0.0,64,0,2,2
331206278,0.01,25.0,14.79,0.0,4,0,2,2
331238892,0.01,25.0,14.79,0.0,64,0,2,2
331270854,0.01,25.0,14.799999,0.0,0,0,2,2
331301959,0.01,25.0,14.849999,0.0,0,0,2,2
331333761,0.01,25.0,14.78,0.0,64,0,2,2
331365987,0.01,25.0,14.809999,0.0,64,0,2,2
331397953,0.01,25.0,14.849999,0.0,64,0,2,2
331429957,0.01,25.0,14.88,0.0,64,0,2,2
331461779,0.01,25.0,14.889999,0.0,64,0,2,2
331493758,0.01,25.0,14.88,0.0,64,0,2,2
331525741,0.01,25.0,14.91,0.0,64,0,2,2
331557801,0.01,25.0,14.929999,0.0,64,0,2,2
331588956,0.01,25.0,14.94,0.0,64,0,2,2
331621273,0.01,25.0,14.98,0.0,4,0,2,2
331653742,0.01,25.0,15.099999,0.0,64,0,2,2
331685909,0.01,25.0,15.639999,0.0,64,0,2,2
331716742,0.01,25.0,15.65,0.0,64,0,2,2
331748745,0.01,25.0,15.66,0.0,64,0,2,2
331779743,0.01,25.0,15.71,0.0,64,0,2,2
331811359,0.01,25.0,15.719999,0.0,64,0,2,2
331842912,0.01,25.0,15.759999,0.0,0,0,2,2
331874702,0.01,25.0,15.75,0.0,64,0,2,2
331907327,0.01,25.0,15.7699995,0.0,64,0,2,2
331939046,0.01,25.0,15.78,0.0,4,0,2,2
331970809,0.01,25.0,15.78,0.0,64,0,2,2
332003522,0.01,25.0,15.82,0.0,64,0,2,2
332034843,0.01,25.0,15.83,0.0,4,0,2,2
332067064,0.01,25.0,15.83,0.0,64,0,2,2
332099754,0.01,25.0,15.86,0.0,64,0,2,2
332130878,0.01,25.0,15.87,0.0,4,0,2,2
332163081,0.01,25.0,15.88,0.0,4,0,2,2
332194870,0.01,25.0,15.9,0.0,0,0,2,2
332227124,0.01,25.0,15.92,0.0,64,0,2,2
332259675,0.01,25.0,15.92,0.0,4,0,2,2
332291771,0.01,25.0,15.95,0.0,64,0,2,2
332323766,0.01,25.0,15.96,0.0,-72,0,2,2
332354869,0.01,25.0,15.969999,0.0,1,0,2,2
332386867,0.01,25.0,16.0,0.0,64,0,2,2
332420147,0.01,25.0,16.0,0.0,64,0,2,2
332452512,0.01,25.0,16.02,0.0,0,0,2,2
332484229,0.01,25.0,16.039999,0.0,64,0,2,2
332516135,0.01,25.0,16.05,0.0,4,0,2,2
332549323,0.01,25.0,16.07,0.0,64,0,2,2
332580148,0.01,25.0,16.09,0.0,64,0,2,2
332612958,0.01,25.0,16.09,0.0,64,0,2,2
332644744,0.01,25.0,16.109999,0.0,64,0,2,2
332676567,0.01,25.0,16.13,0.0,64,0,2,2
332708614,0.01,25.0,16.15,0.0,64,0,2,2
332740791,0.01,25.0,16.16,0.0,64,0,2,2
332772343,0.01,25.0,16.199999,0.0,64,0,2,2
332804454,0.01,25.0,16.16,0.0,0,0,2,2
332836950,0.01,25.0,16.19,0.0,64,0,2,2
332868495,0.01,25.0,16.21,0.0,64,0,2,2
332900586,0.01,25.0,16.22,0.0,64,0,2,2
332932940,0.01,25.0,16.25,0.0,64,0,2,2
332964756,0.01,25.0,16.27,0.0,64,0,2,2
332996192,0.01,25.0,16.279999,0.0,64,0,2,2
333028476,0.01,25.0,16.3,0.0,64,0,2,2
333060137,0.01,25.0,16.24,0.0,64,0,2,2
333092938,0.01,25.0,16.19,0.0,0,0,2,2
333125292,0.01,25.0,16.33,0.0,64,0,2,2
333156972,0.01,25.0,16.35,0.0,64,0,2,2
333189744,0.01,25.0,16.35,0.0,64,0,2,2
333221743,0.01,25.0,16.4,0.0,64,0,2,2
333253795,0.01,25.0,16.39,0.0,64,0,2,2
333285384,0.01,25.0,16.42,0.0,64,0,2,2
333317833,0.01,25.0,16.38,0.0,4,0,2,2
333348943,0.01,25.0,16.4,0.0,64,0,2,2
333381222,0.01,25.0,16.48,0.0,0,0,2,2
333413118,0.01,25.0,16.46,0.0,64,0,2,2
333445493,0.01,25.0,16.48,0.0,64,0,2,2
333476912,0.01,25.0,16.48,0.0,64,0,2,2
333509738,0.01,25.0,16.49,0.0,4,0,2,2
333541876,0.01,25.0,16.48,0.0,64,0,2,2
333572969,0.01,25.0,16.5,0.0,64,0,2,2
333606119,0.01,25.0,16.51,0.0,64,0,2,2
333637944,0.01,25.0,16.51,0.0,64,0,2,2
333669725,0.01,25.0,16.55,0.0,64,0,2,2
333701764,0.01,25.0,16.539999,0.0,64,0,2,2
333733922,0.01,25.0,16.55,0.0,-72,0,2,2
333765922,0.01,25.0,16.55,0.0,0,0,2,2
333797303,0.01,25.0,16.59,0.0,4,0,2,2
333829106,0.01,25.0,16.58,0.0,64,0,2,2
333860944,0.01,25.0,16.609999,0.0,29,0,2,2
333893478,0.01,25.0,16.63,0.0,4,0,2,2
333925980,0.01,25.0,16.63,0.0,0,0,2,2
333958005,0.01,25.0,16.63,0.0,64,0,2,2
333989782,0.01,25.0,16.65,0.0,64,0,2,2
334020939,0.01,25.0,16.68,0.0,64,0,2,2
334052972,0.01,25.0,16.68,0.0,4,0,2,2
334085955,0.01,25.0,16.67,0.0,64,0,2,2
334116756,0.01,25.0,16.68,0.0,0,0,2,2
334148318,0.01,25.0,16.69,0.0,4,0,2,2
334179769,0.01,25.0,16.69,0.0,64,0,2,2
334211167,0.01,25.0,16.69,0.0,64,0,2,2
334242922,0.01,25.0,16.72,0.0,64,0,2,2
334275176,0.01,25.0,16.73,0.0,64,0,2,2
334307842,0.01,25.0,16.74,0.0,64,0,2,2
334338993,0.01,25.0,16.74,0.0,64,0,2,2
334370845,0.01,25.0,16.77,0.0,64,0,2,2
334403035,0.01,25.0,16.75,0.0,64,0,2,2
334434828,0.01,25.0,16.77,0.0,64,0,2,2
334466889,0.01,25.0,16.83,0.0,64,0,2,2
334499345,0.01,25.0,16.789999,0.0,64,0,2,2
334531181,0.01,25.0,16.81,0.0,64,0,2,2
334563755,0.01,25.0,16.85,0.0,64,0,2,2
334595774,0.01,25.0,16.84,0.0,64,0,2,2
334626851,0.01,25.0,16.859999,0.0,0,0,2,2
334658884,0.01,25.0,16.85,0.0,0,0,2,2
334691021,0.01,25.0,16.88,0.0,0,0,2,2
334722828,0.01,25.0,16.9,0.0,64,0,2,2
334754838,0.01,25.0,16.93,0.0,64,0,2,2
334786755,0.01,25.0,16.89,0.0,64,0,2,2
334820179,0.01,25.0,17.0,0.0,64,0,2,2
334851875,0.01,25.0,16.949999,0.0,64,0,2,2
334884488,0.01,25.0,16.94,0.0,64,0,2,2
334916750,0.01,25.0,16.96,0.0,64,0,2,2
334948205,0.01,25.0,16.99,0.0,64,0,2,2
334980193,0.01,25.0,16.98,0.0,64,0,2,2
335012538,0.01,25.0,17.029999,0.0,64,0,2,2
335043967,0.01,25.0,17.01,0.0,64,0,2,2
335077113,0.01,25.0,17.029999,0.0,0,0,2,2
335108745,0.01,25.0,17.06,0.0,64,0,2,2
335140093,0.01,25.0,17.05,0.0,64,0,2,2
335172947,0.01,25.0,17.08,0.0,64,0,2,2
335204141,0.01,25.0,17.08,0.0,64,0,2,2
335236762,0.01,25.0,17.119999,0.0,64,0,2,2
335268903,0.01,25.0,17.13,0.0,0,0,2,2
335300141,0.01,25.0,17.09,0.0,64,0,2,2
335333099,0.01,25.0,17.16,0.0,0,0,2,2
335364754,0.01,25.0,17.17,0.0,64,0,2,2
335396197,0.01,25.0,17.14,0.0,64,0,2,2
335428163,0.01,25.0,17.18,0.0,64,0,2,2
335460446,0.01,25.0,17.19,0.0,0,0,2,2
335492742,0.01,25.0,17.18,0.0,64,0,2,2
335524609,0.01,25.0,17.19,0.0,64,0,2,2
335557797,0.01,25.0,17.199999,0.0,64,0,2,2
335589742,0.01,25.0,17.21,0.0,64,0,2,2
335621748,0.01,25.0,17.26,0.0,64,0,2,2
335653181,0.01,25.0,17.289999,0.0,64,0,2,2
335685130,0.01,25.0,17.289999,0.0,64,0,2,2
335715755,0.01,25.0,17.289999,0.0,64,0,2,2
335747806,0.01,25.0,17.31,0.0,64,0,2,2
335778822,0.01,25.0,17.32,0.0,64,0,2,2
335810885,0.01,25.0,17.35,0.0,4,0,2,2
335842942,0.01,25.0,17.33,0.0,-72,0,2,2
335874902,0.01,25.0,17.34,0.0,0,0,2,2
335906717,0.01,25.0,17.359999,0.0,64,0,2,2
335937919,0.01,25.0,17.38,0.0,64,0,2,2
335969827,0.01,25.0,17.38,0.0,64,0,2,2
336002787,0.01,25.0,17.4,0.0,4,0,2,2
336034856,0.01,25.0,17.39,0.0,0,0,2,2
336066172,0.01,25.0,17.43,0.0,4,0,2,2
336098568,0.01,25.0,17.43,0.0,64,0,2,2
336130865,0.01,25.0,17.43,0.0,64,0,2,2
336162194,0.01,25.0,17.449999,0.0,64,0,2,2
336194109,0.01,25.0,17.47,0.0,64,0,2,2
336226551,0.01,25.0,17.48,0.0,64,0,2,2
336258243,0.01,25.0,17.5,0.0,4,0,2,2
336288903,0.01,25.0,17.52,0.0,64,0,2,2
336319744,0.01,25.0,17.52,0.0,64,0,2,2
336351762,0.01,25.0,17.539999,0.0,64,0,2,2
336383769,0.01,25.0,17.529999,0.0,64,0,2,2
336414944,0.01,25.0,17.55,0.0,0,0,2,2
336446890,0.01,25.0,17.55,0.0,112,0,2,2
336478646,0.01,25.0,17.57,0.0,64,0,2,2
336510959,0.01,25.0,17.59,0.0,0,0,2,2
336542854,0.01,25.0,17.619999,0.0,64,0,2,2
336574844,0.01,25.0,17.609999,0.0,0,0,2,2
336606871,0.01,25.0,17.6,0.0,64,0,2,2
336638844,0.01,25.0,17.68,0.0,64,0,2,2
336670873,0.01,25.0,17.66,0.0,64,0,2,2
336702833,0.01,25.0,17.699999,0.0,0,0,2,2
336734893,0.01,25.0,17.68,0.0,64,0,2,2
336766593,0.01,25.0,17.69,0.0,64,0,2,2
336798939,0.01,25.0,17.72,0.0,64,0,2,2
336830520,0.01,25.0,17.71,0.0,64,0,2,2
336862942,0.01,25.0,17.75,0.0,0,0,2,2
336894832,0.01,25.0,17.77,0.0,64,0,2,2
336926912,0.01,25.0,17.77,0.0,0,0,2,2
336958631,0.01,25.0,17.77,0.0,64,0,2,2
336990837,0.01,25.0,17.81,0.0,64,0,2,2
337022835,0.01,25.0,17.8,0.0,64,0,2,2
337054373,0.01,25.0,17.83,0.0,4,0,2,2
337086892,0.01,25.0,17.84,0.0,64,0,2,2
337118908,0.01,25.0,17.85,0.0,64,0,2,2
337150885,0.01,25.0,17.88,0.0,-116,0,2,2
337182849,0.01,25.0,17.869999,0.0,64,0,2,2
337214882,0.01,25.0,17.88,0.0,64,0,2,2
337245795,0.01,25.0,17.88,0.0,64,0,2,2
337277969,0.01,25.0,17.91,0.0,64,0,2,2
337308924,0.01,25.0,17.89,0.0,64,0,2,2
337341730,0.01,25.0,17.92,0.0,64,0,2,2
337373754,0.01,25.0,17.91,0.0,0,0,2,2
337405757,0.01,25.0,17.97,0.0,64,0,2,2
337437984,0.01,25.0,17.96,0.0,64,0,2,2
337469787,0.01,25.0,17.92,0.0,64,0,2,2
337501507,0.01,25.0,17.99,0.0,64,0,2,2
337533328,0.01,25.0,17.99,0.0,4,0,2,2
337565987,0.01,25.0,18.02,0.0,64,0,2,2
337597986,0.01,25.0,18.01,0.0,64,0,2,2
337630143,0.01,25.0,18.039999,0.0,4,0,2,2
337661741,0.01,25.0,18.06,0.0,64,0,2,2
337693777,0.01,25.0,18.07,0.0,0,0,2,2
337725946,0.01,25.0,18.1,0.0,4,0,2,2
337758530,0.01,25.0,18.109999,0.0,-72,0,2,2
337790544,0.01,25.0,18.18,0.0,0,0,2,2
337823313,0.01,25.0,18.17,0.0,64,0,2,2
337854572,0.01,25.0,18.19,0.0,64,0,2,2
337887030,0.01,25.0,18.22,0.0,64,0,2,2
337919195,0.01,25.0,18.23,0.0,64,0,2,2
337951166,0.01,25.0,18.24,0.0,64,0,2,2
337983815,0.01,25.0,18.26,0.0,64,0,2,2
338014828,0.01,25.0,18.279999,0.0,64,0,2,2
338047024,0.01,25.0,18.31,0.0,64,0,2,2
338079352,0.01,25.0,18.16,0.0,64,0,2,2
338110859,0.01,25.0,18.21,0.0,1,0,2,2
338142860,0.01,25.0,18.31,0.0,64,0,2,2
338174983,0.01,25.0,18.289999,0.0,0,0,2,2
338207808,0.01,25.0,18.33,0.0,64,0,2,2
338239742,0.01,25.0,18.32,0.0,64,0,2,2
338271006,0.01,25.0,18.32,0.0,0,0,2,2
338303326,0.01,25.0,18.35,0.0,64,0,2,2
338334856,0.01,25.0,18.369999,0.0,64,0,2,2
338367385,0.01,25.0,18.4,0.0,64,0,2,2
338398828,0.01,25.0,18.42,0.0,4,0,2,2
338431330,0.01,25.0,18.44,0.0,4,0,2,2
338463747,0.01,25.0,18.42,0.0,64,0,2,2
338495797,0.01,25.0,18.47,0.0,64,0,2,2
338527801,0.01,25.0,18.48,0.0,64,0,2,2
338559798,0.01,25.0,18.449999,0.0,64,0,2,2
338591558,0.01,25.0,18.49,0.0,0,0,2,2
338623792,0.01,25.0,18.49,0.0,64,0,2,2
338655775,0.01,25.0,18.55,0.0,64,0,2,2
338687495,0.01,25.0,18.55,0.0,64,0,2,2
338719784,0.01,25.0,18.58,0.0,64,0,2,2
338751789,0.01,25.0,18.56,0.0,64,0,2,2
338783768,0.01,25.0,18.609999,0.0,64,0,2,2
338815803,0.01,25.0,18.609999,0.0,64,0,2,2
338847516,0.01,25.0,18.66,0.0,64,0,2,2
338879776,0.01,25.0,18.67,0.0,64,0,2,2
338911761,0.01,25.0,18.75,0.0,64,0,2,2
338943779,0.01,25.0,18.789999,0.0,64,0,2,2
338975752,0.01,25.0,18.83,0.0,64,0,2,2
339007857,0.01,25.0,18.84,0.0,64,0,2,2
339039751,0.01,25.0,18.89,0.0,64,0,2,2
339071752,0.01,25.0,18.82,0.0,64,0,2,2
339103742,0.01,25.0,18.83,0.0,64,0,2,2
339135499,0.01,25.0,18.88,0.0,64,0,2,2
339167802,0.01,25.0,18.88,0.0,64,0,2,2
339199793,0.01,25.0,18.93,0.0,64,0,2,2
339231797,0.01,25.0,18.92,0.0,64,0,2,2
339263747,0.01,25.0,18.949999,0.0,64,0,2,2
339295793,0.01,25.0,18.939999,0.0,64,0,2,2
339327807,0.01,25.0,19.01,0.0,64,0,2,2
339359829,0.01,25.0,19.0,0.0,64,0,2,2
339391747,0.01,25.0,19.02,0.0,64,0,2,2
339423746,0.01,25.0,19.039999,0.0,64,0,2,2
339455762,0.01,25.0,19.08,0.0,64,0,2,2
339487829,0.01,25.0,19.08,0.0,64,0,2,2
339518869,0.01,25.0,19.119999,0.0,64,0,2,2
339549972,0.01,25.0,19.14,0.0,64,0,2,2
339581193,0.01,25.0,19.109999,0.0,64,0,2,2
339613342,0.01,25.0,19.15,0.0,0,0,2,2
339645773,0.01,25.0,19.18,0.0,64,0,2,2
339677107,0.01,25.0,19.199999,0.0,64,0,2,2
339709221,0.01,25.0,19.26,0.0,64,0,2,2
339741263,0.01,25.0,19.24,0.0,64,0,2,2
339773109,0.01,25.0,19.25,0.0,64,0,2,2
339803891,0.01,25.0,19.27,0.0,4,0,2,2
339834863,0.01,25.0,19.31,0.0,64,0,2,2
339866914,0.01,25.0,19.32,0.0,0,0,2,2
339898989,0.01,25.0,19.35,0.0,64,0,2,2
339931339,0.01,25.0,19.369999,0.0,64,0,2,2
339962849,0.01,25.0,19.38,0.0,4,0,2,2
339994882,0.01,25.0,19.39,0.0,64,0,2,2
340027133,0.01,25.0,19.4,0.0,64,0,2,2
340059757,0.01,25.0,19.439999,0.0,64,0,2,2
340091380,0.01,25.0,19.43,0.0,0,0,2,2
340123785,0.01,25.0,19.449999,0.0,64,0,2,2
340155137,0.01,25.0,19.46,0.0,64,0,2,2
340187351,0.01,25.0,19.49,0.0,64,0,2,2
340219755,0.01,25.0,19.539999,0.0,64,0,2,2
340251742,0.01,25.0,19.539999,0.0,64,0,2,2
340283763,0.01,25.0,19.529999,0.0,64,0,2,2
340315787,0.01,25.0,19.57,0.0,64,0,2,2
340347804,0.01,25.0,19.6,0.0,0,0,2,2
340379745,0.01,25.0,19.6,0.0,64,0,2,2
340411798,0.01,25.0,19.63,0.0,0,0,2,2
340443788,0.01,25.0,19.68,0.0,0,0,2,2
340474872,0.01,25.0,19.699999,0.0,64,0,2,2
340506866,0.01,25.0,19.689999,0.0,64,0,2,2
340538905,0.01,25.0,19.689999,0.0,64,0,2,2
340570965,0.01,25.0,19.77,0.0,4,0,2,2
340602833,0.01,25.0,19.779999,0.0,64,0,2,2
340635037,0.01,25.0,19.779999,0.0,64,0,2,2
340666895,0.01,25.0,19.789999,0.0,0,0,2,2
340698727,0.01,25.0,19.8,0.0,64,0,2,2
340730917,0.01,25.0,19.82,0.0,64,0,2,2
340763364,0.01,25.0,19.85,0.0,64,0,2,2
340795786,0.01,25.0,19.88,0.0,64,0,2,2
340826897,0.01,25.0,19.91,0.0,64,0,2,2
340858725,0.01,25.0,19.92,0.0,64,0,2,2
340889775,0.01,25.0,19.92,0.0,64,0,2,2
340921920,0.01,25.0,19.98,0.0,0,0,2,2
340953760,0.01,25.0,20.02,0.0,64,0,2,2
340984958,0.01,25.0,20.07,0.0,64,0,2,2
341016744,0.01,25.0,20.06,0.0,64,0,2,2
341048762,0.01,25.0,20.039999,0.0,64,0,2,2
341080748,0.01,25.0,20.07,0.0,64,0,2,2
341111759,0.01,25.0,20.06,0.0,64,0,2,2
341143613,0.01,25.0,20.039999,0.0,0,0,2,2
341175536,0.01,25.0,20.07,0.0,64,0,2,2
341207804,0.01,25.0,20.039999,0.0,64,0,2,2
341239742,0.01,25.0,20.01,0.0,64,0,2,2
341271798,0.01,25.0,20.02,0.0,64,0,2,2
341303521,0.01,25.0,20.029999,0.0,64,0,2,2
341335790,0.01,25.0,20.14,0.0,0,0,2,2
341367804,0.01,25.0,20.17,0.0,64,0,2,2
341399635,0.01,25.0,20.08,0.0,0,0,2,2
341431724,0.01,25.0,20.13,0.0,4,0,2,2
341463633,0.01,25.0,20.13,0.0,64,0,2,2
341495763,0.01,25.0,20.199999,0.0,64,0,2,2
341527856,0.01,25.0,20.21,0.0,64,0,2,2
341559777,0.01,25.0,20.18,0.0,0,0,2,2
341590832,0.01,25.0,20.22,0.0,64,0,2,2
341621741,0.01,25.0,20.24,0.0,64,0,2,2
341653778,0.01,25.0,20.289999,0.0,64,0,2,2
341685759,0.01,25.0,20.31,0.0,64,0,2,2
341718019,0.01,25.0,20.33,0.0,64,0,2,2
341749754,0.01,25.0,20.38,0.0,64,0,2,2
341781236,0.01,25.0,20.39,0.0,64,0,2,2
341813336,0.01,25.0,20.439999,0.0,64,0,2,2
341845829,0.01,25.0,19.939999,0.0,64,0,2,2
341877106,0.01,25.0,19.939999,0.0,0,0,2,2
341907820,0.01,25.0,14.48,0.0,64,0,2,2
341939746,0.01,25.0,13.5,0.0,64,0,2,2
341971791,0.01,25.0,13.11,0.0,64,0,2,2
342003795,0.01,25.0,12.54,0.0,64,0,2,2
342034975,0.01,25.0,12.03,0.0,4,0,2,2
342066117,0.01,25.0,12.88,0.0,64,0,2,2
342097931,0.01,25.0,12.88,0.0,64,0,2,2
342130193,0.01,25.0,20.289999,0.0,0,0,2,2
342161752,0.01,25.0,20.49,0.0,64,0,2,2
342193805,0.01,25.0,20.49,0.0,64,0,2,2
342227364,0.01,25.0,20.47,0.0,4,0,2,2
342259776,0.01,25.0,20.51,0.0,0,0,2,2
342291757,0.01,25.0,20.48,0.0,64,0,2,2
342323749,0.01,25.0,20.5,0.0,64,0,2,2
342356197,0.01,25.0,20.68,0.0,64,0,2,2
342387842,0.01,25.0,20.56,0.0,64,0,2,2
342419772,0.01,25.0,20.64,0.0,0,0,2,2
342451744,0.01,25.0,21.05,0.0,64,0,2,2
342483766,0.01,25.0,21.05,0.0,-72,0,2,2
342515314,0.01,25.0,27.48,0.0,64,0,2,2
342547733,0.01,25.0,27.42,0.0,0,0,2,2
342580152,0.01,25.0,27.349998,0.0,64,0,2,2
342611742,0.01,25.0,27.23,0.0,64,0,2,2
342644116,0.01,25.0,20.15,0.0,64,0,2,2
342675760,0.01,25.0,20.09,0.0,64,0,2,2
342707845,0.01,25.0,20.0,0.0,64,0,2,2
342739940,0.01,25.0,19.97,0.0,64,0,2,2
342771315,0.01,25.0,19.93,0.0,4,0,2,2
342803413,0.01,25.0,19.93,0.0,64,0,2,2
342835742,0.01,25.0,19.9,0.0,64,0,2,2
342867371,0.01,25.0,19.93,0.0,4,0,2,2
342899629,0.01,25.0,19.97,0.0,0,0,2,2
342931806,0.01,25.0,20.0,0.0,0,0,2,2
342963638,0.01,25.0,19.97,0.0,64,0,2,2
342995545,0.01,25.0,20.029999,0.0,0,0,2,2
343028975,0.01,25.0,19.939999,0.0,64,0,2,2
343061413,0.01,25.0,20.1,0.0,64,0,2,2
343093274,0.01,25.0,20.06,0.0,64,0,2,2
343124985,0.01,25.0,20.08,0.0,64,0,2,2
343158146,0.01,25.0,19.52,0.0,64,0,2,2
343189742,0.01,25.0,9.45,0.0,64,0,2,2
343221763,0.01,25.0,10.889999,0.0,0,0,2,2
343253892,0.01,25.0,20.16,0.0,64,0,2,2
343285937,0.01,25.0,20.109999,0.0,64,0,2,2
343316956,0.01,25.0,20.199999,0.0,64,0,2,2
343349308,0.01,25.0,20.24,0.0,64,0,2,2
343381947,0.01,25.0,20.279999,0.0,64,0,2,2
343412951,0.01,25.0,20.32,0.0,64,0,2,2
343445796,0.01,25.0,20.359999,0.0,64,0,2,2
343476977,0.01,25.0,20.42,0.0,64,0,2,2
343509926,0.01,25.0,20.439999,0.0,64,0,2,2
343540994,0.01,25.0,20.48,0.0,64,0,2,2
343573545,0.01,25.0,20.56,0.0,64,0,2,2
343605303,0.01,25.0,20.55,0.0,4,0,2,2
343636972,0.01,25.0,20.6,0.0,64,0,2,2
343669457,0.01,25.0,20.619999,0.0,64,0,2,2
343701777,0.01,25.0,20.66,0.0,64,0,2,2
343733798,0.01,25.0,20.68,0.0,0,0,2,2
343764759,0.01,25.0,20.689999,0.0,0,0,2,2
343799156,0.01,25.0,20.72,0.0,64,0,2,2
343830887,0.01,25.0,20.71,0.0,64,0,2,2
343862920,0.01,25.0,20.76,0.0,0,0,2,2
343894984,0.01,25.0,20.75,0.0,64,0,2,2
343927500,0.01,25.0,20.81,0.0,64,0,2,2
343959742,0.01,25.0,20.8,0.0,64,0,2,2
343991059,0.01,25.0,20.8,0.0,-116,0,2,2
344022848,0.01,25.0,20.8,0.0,64,0,2,2
344054849,0.01,25.0,20.84,0.0,0,0,2,2
344087368,0.01,25.0,20.83,0.0,64,0,2,2
344119046,0.01,25.0,20.869999,0.0,4,0,2,2
344150809,0.01,25.0,20.88,0.0,64,0,2,2
344182996,0.01,25.0,20.74,0.0,64,0,2,2
344214850,0.01,25.0,10.559999,0.0,64,0,2,2
344246528,0.01,25.0,2.4099998,0.0,64,0,2,2
344279341,0.01,25.0,3.76,0.0,64,0,2,2
344311747,0.01,25.0,6.0099998,0.0,64,0,2,2
344342891,0.01,25.0,9.9,0.0,4,0,2,2
344375044,0.01,25.0,20.91,0.0,4,0,2,2
344407134,0.01,25.0,20.97,0.0,64,0,2,2
344438836,0.01,25.0,20.97,0.0,64,0,2,2
344470392,0.01,25.0,21.01,0.0,64,0,2,2
344502922,0.01,25.0,21.05,0.0,0,0,2,2
344534851,0.01,25.0,21.0,0.0,64,0,2,2
344566876,0.01,25.0,21.01,0.0,64,0,2,2
344598883,0.01,25.0,21.09,0.0,0,0,2,2
344630936,0.01,25.0,21.05,0.0,0,0,2,2
344662936,0.01,25.0,20.92,0.0,64,0,2,2
344694630,0.01,25.0,8.12,0.0,64,0,2,2
344726878,0.01,25.0,5.2,0.0,64,0,2,2
344758952,0.01,25.0,8.0,0.0,64,0,2,2
344790904,0.01,25.0,21.02,0.0,0,0,2,2
344822877,0.01,25.0,20.99,0.0,0,0,2,2
344854865,0.01,25.0,20.97,0.0,0,0,2,2
344886367,0.01,25.0,20.92,0.0,64,0,2,2
344918898,0.01,25.0,20.949999,0.0,0,0,2,2
344950863,0.01,25.0,20.939999,0.0,0,0,2,2
344982369,0.01,25.0,20.98,0.0,64,0,2,2
345014569,0.01,25.0,8.63,0.0,64,0,2,2
345046549,0.01,25.0,7.0899997,0.0,0,0,2,2
345078872,0.01,25.0,21.57,0.0,64,0,2,2
345110527,0.01,25.0,20.939999,0.0,64,0,2,2
345142306,0.01,25.0,20.82,0.0,64,0,2,2
345174821,0.01,25.0,20.88,0.0,64,0,2,2
345206810,0.01,25.0,20.93,0.0,64,0,2,2
345238813,0.01,25.0,20.939999,0.0,64,0,2,2
345270322,0.01,25.0,12.05,0.0,64,0,2,2
345302943,0.01,25.0,3.6699998,0.0,0,0,2,2
345334945,0.01,25.0,3.35,0.0,64,0,2,2
345366908,0.01,25.0,5.31,0.0,0,0,2,2
345398929,0.01,25.0,9.11,0.0,64,0,2,2
345429744,0.01,25.0,9.19,0.0,64,0,2,2
345461159,0.01,25.0,6.3999996,0.0,64,0,2,2
345492966,0.01,25.0,5.66,0.0,64,0,2,2
345525016,0.01,25.0,6.2999997,0.0,64,0,2,2
345556961,0.01,25.0,8.11,0.0,64,0,2,2
345589131,0.01,25.0,6.7799997,0.0,4,0,2,2
345909771,0.01,25.0,6.8399997,0.0,64,0,2,2
346069809,0.01,25.0,7.25,0.0,64,0,2,2
346101746,0.01,25.0,7.6099997,0.0,64,0,2,2
346133793,0.01,25.0,7.49,0.0,4,0,2,2
346166167,0.01,25.0,7.14,0.0,0,0,2,2
346196744,0.01,25.0,7.16,0.0,64,0,2,2
346227831,0.01,25.0,7.44,0.0,64,0,2,2
346258946,0.01,25.0,7.44,0.0,64,0,2,2
346290597,0.01,25.0,7.33,0.0,4,0,2,2
346324523,0.01,25.0,7.18,0.0,4,0,2,2
346357114,0.01,25.0,7.31,0.0,64,0,2,2
346388773,0.01,25.0,7.41,0.0,0,0,2,2
346420534,0.01,25.0,7.3799996,0.0,4,0,2,2
346452742,0.01,25.0,7.2999997,0.0,64,0,2,2
346484742,0.01,25.0,7.21,0.0,64,0,2,2
346515747,0.01,25.0,7.3599997,0.0,64,0,2,2
346547111,0.01,25.0,7.4199996,0.0,64,0,2,2
346578542,0.01,25.0,7.33,0.0,64,0,2,2
346610941,0.01,25.0,7.2,0.0,64,0,2,2
346642891,0.01,25.0,7.3199997,0.0,64,0,2,2
346674542,0.01,25.0,7.41,0.0,64,0,2,2
346707374,0.01,25.0,7.5,0.0,64,0,2,2
346739766,0.01,25.0,7.33,0.0,64,0,2,2
346771412,0.01,25.0,7.2599998,0.0,0,0,2,2
346802875,0.01,25.0,7.35,0.0,64,0,2,2
346834950,0.01,25.0,7.44,0.0,64,0,2,2
346865742,0.01,25.0,7.3799996,0.0,64,0,2,2
346897963,0.01,25.0,7.31,0.0,64,0,2,2
346929742,0.01,25.0,7.29,0.0,64,0,2,2
346961752,0.01,25.0,7.3799996,0.0,64,0,2,2
346993947,0.01,25.0,7.45,0.0,64,0,2,2
347025761,0.01,25.0,7.35,0.0,64,0,2,2
347057965,0.01,25.0,7.29,0.0,64,0,2,2
347089912,0.01,25.0,7.3399997,0.0,0,0,2,2
347121792,0.01,25.0,7.3799996,0.0,64,0,2,2
347153767,0.01,25.0,7.29,0.0,64,0,2,2
347185760,0.01,25.0,7.35,0.0,64,0,2,2
347217988,0.01,25.0,7.3599997,0.0,64,0,2,2
347249768,0.01,25.0,7.39,0.0,64,0,2,2
347281819,0.01,25.0,7.29,0.0,64,0,2,2
347313756,0.01,25.0,7.2799997,0.0,64,0,2,2
347345776,0.01,25.0,7.3799996,0.0,64,0,2,2
347377964,0.01,25.0,7.44,0.0,64,0,2,2
347409802,0.01,25.0,7.37,0.0,64,0,2,2
347441913,0.01,25.0,7.2999997,0.0,64,0,2,2
347473756,0.01,25.0,7.31,0.0,64,0,2,2
347505360,0.01,25.0,7.39,0.0,4,0,2,2
347537981,0.01,25.0,7.35,0.0,0,0,2,2
347569754,0.01,25.0,7.2799997,0.0,64,0,2,2
347601770,0.01,25.0,7.2799997,0.0,64,0,2,2
347633797,0.01,25.0,7.39,0.0,64,0,2,2
347665768,0.01,25.0,7.39,0.0,64,0,2,2
347697920,0.01,25.0,7.2999997,0.0,64,0,2,2
347729745,0.01,25.0,7.2599998,0.0,64,0,2,2
347761900,0.01,25.0,7.3399997,0.0,0,0,2,2
347793768,0.01,25.0,7.35,0.0,64,0,2,2
347825760,0.01,25.0,7.39,0.0,64,0,2,2
347857913,0.01,25.0,7.29,0.0,64,0,2,2
347889774,0.01,25.0,7.3799996,0.0,0,0,2,2
347921810,0.01,25.0,7.33,0.0,64,0,2,2
347953766,0.01,25.0,7.3999996,0.0,64,0,2,2
347985756,0.01,25.0,7.35,0.0,64,0,2,2
348017164,0.01,25.0,7.3599997,0.0,64,0,2,2
348049192,0.01,25.0,7.2599998,0.0,64,0,2,2
348081277,0.01,25.0,7.41,0.0,0,0,2,2
348113241,0.01,25.0,7.3599997,0.0,64,0,2,2
348145102,0.01,25.0,7.29,0.0,64,0,2,2
348177304,0.01,25.0,7.31,0.0,64,0,2,2
348209099,0.01,25.0,7.35,0.0,64,0,2,2
348241279,0.01,25.0,7.35,0.0,64,0,2,2
348273304,0.01,25.0,7.3199997,0.0,64,0,2,2
348307058,0.01,25.0,7.27,0.0,64,0,2,2
348338761,0.01,25.0,7.3599997,0.0,64,0,2,2
348370876,0.01,25.0,7.33,0.0,64,0,2,2
348403355,0.01,25.0,7.35,0.0,64,0,2,2
348435770,0.01,25.0,7.29,0.0,64,0,2,2
348467801,0.01,25.0,7.35,0.0,64,0,2,2
348499744,0.01,25.0,7.35,0.0,64,0,2,2
348530949,0.01,25.0,7.33,0.0,4,0,2,2
348563021,0.01,25.0,7.3199997,0.0,4,0,2,2
348594950,0.01,25.0,7.31,0.0,0,0,2,2
348626863,0.01,25.0,7.31,0.0,64,0,2,2
348659352,0.01,25.0,7.35,0.0,64,0,2,2
348691810,0.01,25.0,7.3599997,0.0,64,0,2,2
348723745,0.01,25.0,7.3399997,0.0,64,0,2,2
348755749,0.01,25.0,7.3399997,0.0,64,0,2,2
348787015,0.01,25.0,7.3399997,0.0,64,0,2,2
348819024,0.01,25.0,7.29,0.0,56,0,2,2
348850855,0.01,25.0,7.31,0.0,64,0,2,2
348883018,0.01,25.0,7.33,0.0,64,0,2,2
348914843,0.01,25.0,7.39,0.0,64,0,2,2
348946802,0.01,25.0,7.2999997,0.0,64,0,2,2
348979389,0.01,25.0,7.2999997,0.0,64,0,2,2
349011780,0.01,25.0,7.2999997,0.0,64,0,2,2
350132941,0.01,25.0,7.35,0.0,0,0,2,2
350163797,0.01,25.0,7.3199997,0.0,0,0,2,2
350195759,0.01,25.0,7.31,0.0,64,0,2,2
350230062,0.01,25.0,7.35,0.0,-116,0,2,2
350261750,0.01,25.0,7.3399997,0.0,64,0,2,2
350293158,0.01,25.0,7.3399997,0.0,64,0,2,2
350324974,0.01,25.0,7.3599997,0.0,64,0,2,2
350357180,0.01,25.0,7.3599997,0.0,64,0,2,2
350389222,0.01,25.0,7.39,0.0,0,0,2,2
350421728,0.01,25.0,7.2999997,0.0,64,0,2,2
350452955,0.01,25.0,7.31,0.0,64,0,2,2
350484894,0.01,25.0,7.35,0.0,64,0,2,2
350517889,0.01,25.0,7.3399997,0.0,64,0,2,2
350549750,0.01,25.0,7.3199997,0.0,64,0,2,2
350581382,0.01,25.0,7.29,0.0,64,0,2,2
350613761,0.01,25.0,7.3999996,0.0,64,0,2,2
350645743,0.01,25.0,7.3399997,0.0,64,0,2,2
350677374,0.01,25.0,7.41,0.0,64,0,2,2
350709568,0.01,25.0,7.3599997,0.0,64,0,2,2
350740993,0.01,25.0,7.3399997,0.0,64,0,2,2
350773739,0.01,25.0,7.3199997,0.0,64,0,2,2
350804958,0.01,25.0,7.3399997,0.0,64,0,2,2
350837198,0.01,25.0,7.3799996,0.0,64,0,2,2
350869769,0.01,25.0,7.3199997,0.0,64,0,2,2
350900945,0.01,25.0,7.33,0.0,64,0,2,2
350931755,0.01,25.0,7.3399997,0.0,0,0,2,2
350963745,0.01,25.0,7.2999997,0.0,64,0,2,2
350995836,0.01,25.0,7.31,0.0,64,0,2,2
351027827,0.01,25.0,7.37,0.0,64,0,2,2
351059801,0.01,25.0,7.3399997,0.0,64,0,2,2
351091742,0.01,25.0,7.3199997,0.0,64,0,2,2
351123769,0.01,25.0,7.2999997,0.0,64,0,2,2
351154904,0.01,25.0,7.3199997,0.0,64,0,2,2
351186877,0.01,25.0,7.31,0.0,0,0,2,2
351218855,0.01,25.0,7.3199997,0.0,0,0,2,2
351250830,0.01,25.0,7.33,0.0,64,0,2,2
351282933,0.01,25.0,7.2799997,0.0,64,0,2,2
351314819,0.01,25.0,7.3199997,0.0,64,0,2,2
351346854,0.01,25.0,7.3199997,0.0,64,0,2,2
351378848,0.01,25.0,7.33,0.0,64,0,2,2
351410868,0.01,25.0,7.3199997,0.0,64,0,2,2
351442856,0.01,25.0,7.3399997,0.0,64,0,2,2
351473888,0.01,25.0,7.3199997,0.0,64,0,2,2
351505813,0.01,25.0,7.35,0.0,4,0,2,2
351538135,0.01,25.0,7.3399997,0.0,64,0,2,2
351570020,0.01,25.0,7.37,0.0,0,0,2,2
351601868,0.01,25.0,7.3199997,0.0,4,0,2,2
351635605,0.01,25.0,7.33,0.0,64,0,2,2
351668549,0.01,25.0,7.33,0.0,64,0,2,2
351700742,0.01,25.0,7.35,0.0,64,0,2,2
351732171,0.01,25.0,7.3199997,0.0,64,0,2,2
351764933,0.01,25.0,7.33,0.0,64,0,2,2
351796922,0.01,25.0,7.35,0.0,64,0,2,2
351828201,0.01,25.0,7.33,0.0,64,0,2,2
351860903,0.01,25.0,7.3399997,0.0,64,0,2,2
351892766,0.01,25.0,7.3599997,0.0,64,0,2,2
351924726,0.01,25.0,7.35,0.0,64,0,2,2
351956754,0.01,25.0,7.31,0.0,64,0,2,2
351988954,0.01,25.0,7.3399997,0.0,64,0,2,2
352020952,0.01,25.0,7.37,0.0,64,0,2,2
352053013,0.01,25.0,7.3799996,0.0,64,0,2,2
352084742,0.01,25.0,7.3199997,0.0,64,0,2,2
352117178,0.01,25.0,7.3199997,0.0,0,0,2,2
352149137,0.01,25.0,7.3399997,0.0,64,0,2,2
352180113,0.01,25.0,7.3399997,0.0,64,0,2,2
352212502,0.01,25.0,7.31,0.0,64,0,2,2
352244303,0.01,25.0,7.2999997,0.0,12,0,2,2
352276931,0.01,25.0,7.31,0.0,0,0,2,2
352308585,0.01,25.0,7.33,0.0,64,0,2,2
352340183,0.01,25.0,7.3599997,0.0,64,0,2,2
352371832,0.01,25.0,7.31,0.0,64,0,2,2
352403020,0.01,25.0,7.31,0.0,64,0,2,2
352434823,0.01,25.0,7.33,0.0,64,0,2,2
352466128,0.01,25.0,7.35,0.0,4,0,2,2
352498751,0.01,25.0,7.31,0.0,64,0,2,2
352530845,0.01,25.0,7.33,0.0,64,0,2,2
352561908,0.01,25.0,7.2999997,0.0,0,0,2,2
352594532,0.01,25.0,7.33,0.0,0,0,2,2
352626884,0.01,25.0,7.35,0.0,64,0,2,2
352658881,0.01,25.0,7.2999997,0.0,64,0,2,2
352689869,0.01,25.0,7.33,0.0,64,0,2,2
352721963,0.01,25.0,7.3199997,0.0,0,0,2,2
352754232,0.01,25.0,7.37,0.0,64,0,2,2
352785928,0.01,25.0,7.33,0.0,64,0,2,2
352817921,0.01,25.0,7.3399997,0.0,64,0,2,2
352849815,0.01,25.0,7.2999997,0.0,12,0,2,2
352882568,0.01,25.0,7.3199997,0.0,64,0,2,2
352914053,0.01,25.0,7.3599997,0.0,4,0,2,2
352946890,0.01,25.0,7.39,0.0,64,0,2,2
352978853,0.01,25.0,7.35,0.0,0,0,2,2
353010593,0.01,25.0,7.41,0.0,64,0,2,2
353042885,0.01,25.0,7.3199997,0.0,0,0,2,2
353076133,0.01,25.0,7.3399997,0.0,64,0,2,2
353107343,0.01,25.0,7.3199997,0.0,4,0,2,2
353140581,0.01,25.0,7.3399997,0.0,64,0,2,2
353172757,0.01,25.0,7.3199997,0.0,64,0,2,2
353203828,0.01,25.0,7.37,0.0,64,0,2,2
353235753,0.01,25.0,7.3399997,0.0,64,0,2,2
353267946,0.01,25.0,7.3199997,0.0,64,0,2,2
353299539,0.01,25.0,7.33,0.0,64,0,2,2
353332177,0.01,25.0,7.29,0.0,64,0,2,2
353363349,0.01,25.0,7.33,0.0,64,0,2,2
353395509,0.01,25.0,7.35,0.0,4,0,2,2
353428449,0.01,25.0,7.3199997,0.0,0,0,2,2
353460771,0.01,25.0,7.35,0.0,64,0,2,2
353492742,0.01,25.0,7.3399997,0.0,64,0,2,2
353524746,0.01,25.0,7.3599997,0.0,64,0,2,2
353555743,0.01,25.0,7.2999997,0.0,0,0,2,2
353587841,0.01,25.0,7.3599997,0.0,64,0,2,2
353619905,0.01,25.0,7.3399997,0.0,64,0,2,2
353652501,0.01,25.0,7.2999997,0.0,64,0,2,2
353683789,0.01,25.0,7.33,0.0,0,0,2,2
353716202,0.01,25.0,7.31,0.0,64,0,2,2
353748191,0.01,25.0,7.2799997,0.0,64,0,2,2
353778825,0.01,25.0,7.2799997,0.0,0,0,2,2
353810909,0.01,25.0,7.3199997,0.0,64,0,2,2
353842840,0.01,25.0,7.3399997,0.0,0,0,2,2
353874835,0.01,25.0,7.2999997,0.0,64,0,2,2
353906922,0.01,25.0,7.3599997,0.0,64,0,2,2
353939042,0.01,25.0,7.35,0.0,64,0,2,2
353970937,0.01,25.0,7.33,0.0,64,0,2,2
354002857,0.01,25.0,7.3399997,0.0,0,0,2,2
354034849,0.01,25.0,7.2599998,0.0,64,0,2,2
354066869,0.01,25.0,7.2799997,0.0,64,0,2,2
354098885,0.01,25.0,7.37,0.0,0,0,2,2
354130908,0.01,25.0,7.35,0.0,64,0,2,2
354162916,0.01,25.0,7.31,0.0,64,0,2,2
354194866,0.01,25.0,7.3399997,0.0,64,0,2,2
354226888,0.01,25.0,7.3199997,0.0,64,0,2,2
354257978,0.01,25.0,7.33,0.0,12,0,2,2
354289766,0.01,25.0,7.3199997,0.0,64,0,2,2
354321779,0.01,25.0,7.33,0.0,0,0,2,2
354353742,0.01,25.0,7.2999997,0.0,64,0,2,2
354385742,0.01,25.0,7.3199997,0.0,64,0,2,2
354417918,0.01,25.0,7.3199997,0.0,64,0,2,2
354449751,0.01,25.0,7.3399997,0.0,64,0,2,2
354481906,0.01,25.0,7.29,0.0,52,0,2,2
354513447,0.01,25.0,7.29,0.0,4,0,2,2
354545354,0.01,25.0,7.33,0.0,64,0,2,2
354577421,0.01,25.0,7.37,0.0,52,0,2,2
354609287,0.01,25.0,7.2999997,0.0,64,0,2,2
354641275,0.01,25.0,7.3599997,0.0,64,0,2,2
354673291,0.01,25.0,7.3199997,0.0,64,0,2,2
354703843,0.01,25.0,7.3199997,0.0,4,0,2,2
354735342,0.01,25.0,7.3599997,0.0,4,0,2,2
354766996,0.01,25.0,7.3399997,0.0,4,0,2,2
354799098,0.01,25.0,7.3999996,0.0,4,0,2,2
354831328,0.01,25.0,7.3799996,0.0,4,0,2,2
354863783,0.01,25.0,7.41,0.0,64,0,2,2
354894920,0.01,25.0,7.43,0.0,4,0,2,2
354927350,0.01,25.0,7.3599997,0.0,4,0,2,2
354959630,0.01,25.0,7.35,0.0,4,0,2,2
354990970,0.01,25.0,7.3599997,0.0,4,0,2,2
355022537,0.01,25.0,7.3599997,0.0,4,0,2,2
355054997,0.01,25.0,7.3399997,0.0,4,0,2,2
355087398,0.01,25.0,7.35,0.0,4,0,2,2
355119048,0.01,25.0,7.37,0.0,4,0,2,2
355151336,0.01,25.0,7.37,0.0,4,0,2,2
355183334,0.01,25.0,7.3199997,0.0,4,0,2,2
355214862,0.01,25.0,7.33,0.0,4,0,2,2
355246341,0.01,25.0,7.31,0.0,4,0,2,2
355278223,0.01,25.0,7.2799997,0.0,4,0,2,2
355311006,0.01,25.0,7.35,0.0,4,0,2,2
355342868,0.01,25.0,7.3599997,0.0,4,0,2,2
355375339,0.01,25.0,7.35,0.0,4,0,2,2
355406990,0.01,25.0,7.3399997,0.0,4,0,2,2
355439096,0.01,25.0,7.3199997,0.0,4,0,2,2
355471021,0.01,25.0,7.35,0.0,4,0,2,2
355503359,0.01,25.0,7.3199997,0.0,4,0,2,2
355535359,0.01,25.0,7.3199997,0.0,4,0,2,2
355567370,0.01,25.0,7.2999997,0.0,4,0,2,2
355599109,0.01,25.0,7.33,0.0,4,0,2,2
355631027,0.01,25.0,7.37,0.0,4,0,2,2
355663351,0.01,25.0,7.31,0.0,4,0,2,2
355695420,0.01,25.0,7.3199997,0.0,4,0,2,2
355727396,0.01,25.0,7.3399997,0.0,4,0,2,2
355759020,0.01,25.0,7.4199996,0.0,4,0,2,2
355791371,0.01,25.0,7.3399997,0.0,4,0,2,2
355822940,0.01,25.0,7.2999997,0.0,4,0,2,2
355855068,0.01,25.0,7.29,0.0,4,0,2,2
355887358,0.01,25.0,7.3399997,0.0,4,0,2,2
355919323,0.01,25.0,7.3199997,0.0,4,0,2,2
355951002,0.01,25.0,7.3199997,0.0,4,0,2,2
355982993,0.01,25.0,7.3599997,0.0,4,0,2,2
356015108,0.01,25.0,7.33,0.0,4,0,2,2
356047343,0.01,25.0,7.4199996,0.0,4,0,2,2
356079106,0.01,25.0,7.39,0.0,4,0,2,2
356111374,0.01,25.0,7.35,0.0,4,0,2,2
356143971,0.01,25.0,7.3399997,0.0,4,0,2,2
356177780,0.01,25.0,7.33,0.0,4,0,2,2
356209941,0.01,25.0,7.35,0.0,4,0,2,2
356242348,0.01,25.0,7.37,0.0,4,0,2,2
356274893,0.01,25.0,7.39,0.0,64,0,2,2
356306940,0.01,25.0,7.3799996,0.0,64,0,2,2
356338946,0.01,25.0,7.3599997,0.0,0,0,2,2
356370629,0.01,25.0,7.3999996,0.0,4,0,2,2
356402344,0.01,25.0,7.3799996,0.0,4,0,2,2
356434104,0.01,25.0,7.3399997,0.0,4,0,2,2
356466029,0.01,25.0,7.3599997,0.0,4,0,2,2
356498551,0.01,25.0,7.3399997,0.0,4,0,2,2
356530179,0.01,25.0,7.39,0.0,4,0,2,2
356562284,0.01,25.0,7.37,0.0,4,0,2,2
356594228,0.01,25.0,7.3799996,0.0,4,0,2,2
356626716,0.01,25.0,7.3999996,0.0,4,0,2,2
356658517,0.01,25.0,7.3599997,0.0,4,0,2,2
356690252,0.01,25.0,7.39,0.0,4,0,2,2
356721733,0.01,25.0,7.4199996,0.0,4,0,2,2
356754167,0.01,25.0,7.3199997,0.0,4,0,2,2
356786169,0.01,25.0,7.37,0.0,4,0,2,2
356818541,0.01,25.0,7.3799996,0.0,4,0,2,2
356850852,0.01,25.0,7.39,0.0,64,0,2,2
356882277,0.01,25.0,7.3999996,0.0,4,0,2,2
356914922,0.01,25.0,7.4199996,0.0,4,0,2,2
356946894,0.01,25.0,7.3799996,0.0,0,0,2,2
356978220,0.01,25.0,7.4199996,0.0,4,0,2,2
357010068,0.01,25.0,7.3999996,0.0,4,0,2,2
357041937,0.01,25.0,7.3799996,0.0,4,0,2,2
357074106,0.01,25.0,7.41,0.0,64,0,2,2
357105923,0.01,25.0,7.3199997,0.0,64,0,2,2
357138034,0.01,25.0,7.31,0.0,64,0,2,2
357169922,0.01,25.0,7.2999997,0.0,64,0,2,2
357201962,0.01,25.0,7.3199997,0.0,64,0,2,2
357234139,0.01,25.0,7.3399997,0.0,0,0,2,2
357264749,0.01,25.0,7.29,0.0,64,0,2,2
357295874,0.01,25.0,7.3399997,0.0,4,0,2,2
357328395,0.01,25.0,7.33,0.0,4,0,2,2
357360164,0.01,25.0,7.31,0.0,4,0,2,2
357391361,0.01,25.0,7.2799997,0.0,4,0,2,2
357423588,0.01,25.0,7.3199997,0.0,4,0,2,2
357455360,0.01,25.0,7.37,0.0,4,0,2,2
357487891,0.01,25.0,7.35,0.0,4,0,2,2
357519372,0.01,25.0,7.2999997,0.0,4,0,2,2
357551375,0.01,25.0,7.2999997,0.0,4,0,2,2
357584668,0.01,25.0,7.3999996,0.0,64,0,2,2
357616341,0.01,25.0,7.37,0.0,64,0,2,2
357648763,0.01,25.0,7.3199997,0.0,0,0,2,2
357680939,0.01,25.0,7.37,0.0,12,0,2,2
357712742,0.01,25.0,7.3799996,0.0,64,0,2,2
357745300,0.01,25.0,7.39,0.0,0,0,2,2
357776742,0.01,25.0,7.3399997,0.0,64,0,2,2
357808758,0.01,25.0,7.3399997,0.0,64,0,2,2
357841478,0.01,25.0,7.3199997,0.0,4,0,2,2
357872934,0.01,25.0,7.31,0.0,64,0,2,2
357904942,0.01,25.0,7.35,0.0,0,0,2,2
357936661,0.01,25.0,7.33,0.0,64,0,2,2
357968758,0.01,25.0,7.31,0.0,64,0,2,2
358000769,0.01,25.0,7.3599997,0.0,64,0,2,2
358032292,0.01,25.0,7.3399997,0.0,64,0,2,2
358064919,0.01,25.0,7.2799997,0.0,0,0,2,2
358096556,0.01,25.0,7.3199997,0.0,64,0,2,2
358128749,0.01,25.0,7.3599997,0.0,64,0,2,2
358161414,0.01,25.0,7.3399997,0.0,4,0,2,2
358193780,0.01,25.0,7.3199997,0.0,64,0,2,2
358224754,0.01,25.0,7.3599997,0.0,64,0,2,2
358256677,0.01,25.0,7.3399997,0.0,64,0,2,2
358288945,0.01,25.0,7.35,0.0,64,0,2,2
358321115,0.01,25.0,7.3199997,0.0,64,0,2,2
358353719,0.01,25.0,7.3199997,0.0,64,0,2,2
358385757,0.01,25.0,7.3799996,0.0,56,0,2,2
358417205,0.01,25.0,7.33,0.0,0,0,2,2
358449315,0.01,25.0,7.33,0.0,64,0,2,2
358481011,0.01,25.0,7.2999997,0.0,64,0,2,2
358512980,0.01,25.0,7.3399997,0.0,64,0,2,2
358545715,0.01,25.0,7.3599997,0.0,64,0,2,2
358578029,0.01,25.0,7.3599997,0.0,64,0,2,2
358609272,0.01,25.0,7.3399997,0.0,0,0,2,2
358641507,0.01,25.0,7.3399997,0.0,64,0,2,2
358673741,0.01,25.0,7.33,0.0,64,0,2,2
358705485,0.01,25.0,7.3199997,0.0,64,0,2,2
358737918,0.01,25.0,7.24,0.0,64,0,2,2
358769807,0.01,25.0,7.37,0.0,64,0,2,2
358801916,0.01,25.0,7.3199997,0.0,64,0,2,2
358833106,0.01,25.0,7.3599997,0.0,64,0,2,2
358865459,0.01,25.0,7.2999997,0.0,64,0,2,2
358896963,0.01,25.0,7.29,0.0,64,0,2,2
358929757,0.01,25.0,7.3599997,0.0,4,0,2,2
358961743,0.01,25.0,7.24,0.0,64,0,2,2
358992892,0.01,25.0,7.3999996,0.0,64,0,2,2
359026243,0.01,25.0,7.33,0.0,64,0,2,2
359057991,0.01,25.0,7.31,0.0,64,0,2,2
359089133,0.01,25.0,7.35,0.0,64,0,2,2
359121098,0.01,25.0,7.3199997,0.0,64,0,2,2
359152993,0.01,25.0,7.33,0.0,64,0,2,2
359185096,0.01,25.0,7.3399997,0.0,64,0,2,2
359219009,0.01,25.0,7.3399997,0.0,64,0,2,2
359250842,0.01,25.0,7.35,0.0,64,0,2,2
359282544,0.01,25.0,7.24,0.0,64,0,2,2
359314894,0.01,25.0,7.27,0.0,64,0,2,2
359346567,0.01,25.0,7.3799996,0.0,0,0,2,2
359379324,0.01,25.0,7.33,0.0,64,0,2,2
359410858,0.01,25.0,7.31,0.0,64,0,2,2
359442965,0.01,25.0,7.33,0.0,64,0,2,2
359475411,0.01,25.0,7.3399997,0.0,64,0,2,2
359507355,0.01,25.0,7.31,0.0,4,0,2,2
359539756,0.01,25.0,7.3399997,0.0,64,0,2,2
359570865,0.01,25.0,7.3199997,0.0,64,0,2,2
359602846,0.01,25.0,7.3199997,0.0,64,0,2,2
359634516,0.01,25.0,7.3199997,0.0,64,0,2,2
359666737,0.01,25.0,7.29,0.0,64,0,2,2
359699352,0.01,25.0,7.31,0.0,64,0,2,2
359731792,0.01,25.0,7.27,0.0,0,0,2,2
359763366,0.01,25.0,7.29,0.0,0,0,2,2
359794895,0.01,25.0,7.3999996,0.0,64,0,2,2
359827062,0.01,25.0,7.3199997,0.0,64,0,2,2
359858936,0.01,25.0,7.31,0.0,0,0,2,2
359891327,0.01,25.0,7.33,0.0,64,0,2,2
359923864,0.01,25.0,7.3799996,0.0,64,0,2,2
359955878,0.01,25.0,7.2999997,0.0,64,0,2,2
359989431,0.01,25.0,7.29,0.0,0,0,2,2
360021779,0.01,25.0,7.35,0.0,64,0,2,2
360053308,0.01,25.0,7.3599997,0.0,4,0,2,2
360085070,0.01,25.0,7.31,0.0,0,0,2,2
360116200,0.01,25.0,7.2999997,0.0,64,0,2,2
360149106,0.01,25.0,7.33,0.0,64,0,2,2
360180742,0.01,25.0,7.33,0.0,64,0,2,2
360212756,0.01,25.0,7.3199997,0.0,64,0,2,2
360245379,0.01,25.0,7.33,0.0,64,0,2,2
360277984,0.01,25.0,7.3199997,0.0,52,0,2,2
360309795,0.01,25.0,7.3399997,0.0,64,0,2,2
360340963,0.01,25.0,7.29,0.0,64,0,2,2
360372758,0.01,25.0,7.3199997,0.0,64,0,2,2
360404171,0.01,25.0,7.35,0.0,64,0,2,2
360436548,0.01,25.0,7.2999997,0.0,4,0,2,2
360468722,0.01,25.0,7.31,0.0,64,0,2,2
360500209,0.01,25.0,7.2999997,0.0,-116,0,2,2
360532364,0.01,25.0,7.3399997,0.0,64,0,2,2
360564749,0.01,25.0,7.3599997,0.0,64,0,2,2
360596772,0.01,25.0,7.35,0.0,64,0,2,2
360630274,0.01,25.0,7.29,0.0,64,0,2,2
360662846,0.01,25.0,7.2799997,0.0,64,0,2,2
360694855,0.01,25.0,7.33,0.0,0,0,2,2
360725939,0.01,25.0,7.33,0.0,64,0,2,2
360757948,0.01,25.0,7.3399997,0.0,64,0,2,2
360790517,0.01,25.0,7.31,0.0,64,0,2,2
360821775,0.01,25.0,7.3399997,0.0,64,0,2,2
360854528,0.01,25.0,7.35,0.0,4,0,2,2
360885771,0.01,25.0,7.33,0.0,1,0,2,2
360918546,0.01,25.0,7.3599997,0.0,0,0,2,2
360950283,0.01,25.0,7.35,0.0,0,0,2,2
360981747,0.01,25.0,7.29,0.0,64,0,2,2
