timestamp,timestamp_last_signal,channel_count,rssi,rc_lost_frame_count,rc_total_frame_count,rc_ppm_frame_length,values[0],values[1],values[2],values[3],values[4],values[5],values[6],values[7],values[8],values[9],values[10],values[11],values[12],values[13],values[14],values[15],values[16],values[17],rc_failsafe,rc_lost,input_source
310010299,310010299,8,45,0,0,20002,1097,1509,1504,1508,1105,1906,1905,1105,0,0,0,0,0,0,0,0,0,0,0,0,2
310199917,310199917,8,45,0,0,20002,1098,1509,1504,1507,1105,1905,1906,1105,0,0,0,0,0,0,0,0,0,0,0,0,2
310416759,310416759,8,45,0,0,20002,1098,1509,1504,1506,1105,1905,1906,1105,0,0,0,0,0,0,0,0,0,0,0,0,2
310620736,310620736,8,45,0,0,20002,1097,1510,1504,1506,1105,1905,1905,1106,0,0,0,0,0,0,0,0,0,0,0,0,2
310818357,310818357,8,45,0,0,20002,1097,1508,1504,1506,1105,1905,1905,1105,0,0,0,0,0,0,0,0,0,0,0,0,2
311014368,311014368,8,45,0,0,20002,1097,1509,1504,1505,1106,1905,1905,1105,0,0,0,0,0,0,0,0,0,0,0,0,2
311214349,311214349,8,45,0,0,20002,1097,1509,1504,1504,1105,1906,1905,1105,0,0,0,0,0,0,0,0,0,0,0,0,2
311418303,311418303,8,45,0,0,20002,1098,1509,1504,1504,1105,1905,1906,1105,0,0,0,0,0,0,0,0,0,0,0,0,2
311627937,311627937,8,45,0,0,20002,1105,1509,1504,1504,1105,1905,1906,1105,0,0,0,0,0,0,0,0,0,0,0,0,2
311839963,311839963,8,45,0,0,20002,1127,1510,1505,1504,1105,1905,1905,1106,0,0,0,0,0,0,0,0,0,0,0,0,2
312027968,312027968,8,45,0,0,20002,1175,1509,1505,1503,1105,1905,1905,1105,0,0,0,0,0,0,0,0,0,0,0,0,2
312245516,312245516,8,45,0,0,20002,1198,1509,1504,1504,1105,1905,1905,1105,0,0,0,0,0,0,0,0,0,0,0,0,2
312437806,312437806,8,45,0,0,20002,1221,1509,1504,1503,1105,1906,1905,1105,0,0,0,0,0,0,0,0,0,0,0,0,2
312637753,312637753,8,45,0,0,20002,1230,1509,1504,1503,1105,1905,1906,1105,0,0,0,0,0,0,0,0,0,0,0,0,2
312842114,312842114,8,45,0,0,20002,1234,1509,1504,1503,1105,1905,1906,1105,0,0,0,0,0,0,0,0,0,0,0,0,2
313039158,313039158,8,45,0,0,20002,1246,1509,1504,1503,1105,1905,1905,1105,0,0,0,0,0,0,0,0,0,0,0,0,2
313243119,313243119,8,45,0,0,20002,1266,1508,1505,1503,1105,1905,1905,1105,0,0,0,0,0,0,0,0,0,0,0,0,2
313463081,313463081,8,45,0,0,20002,1277,1509,1518,1504,1105,1905,1905,1105,0,0,0,0,0,0,0,0,0,0,0,0,2
313667103,313667103,8,45,0,0,20002,1310,1508,1545,1503,1106,1905,1905,1105,0,0,0,0,0,0,0,0,0,0,0,0,2
313864909,313864909,8,45,0,0,20002,1335,1508,1551,1503,1105,1906,1905,1105,0,0,0,0,0,0,0,0,0,0,0,0,2
314065543,314065543,8,45,0,0,20002,1336,1508,1580,1503,1105,1905,1906,1105,0,0,0,0,0,0,0,0,0,0,0,0,2
314272694,314272694,8,45,0,0,20002,1358,1509,1590,1503,1105,1905,1906,1105,0,0,0,0,0,0,0,0,0,0,0,0,2
314474318,314474318,8,45,0,0,20002,1387,1510,1602,1503,1105,1905,1905,1105,0,0,0,0,0,0,0,0,0,0,0,0,2
314666349,314666349,8,45,0,0,20002,1433,1508,1609,1503,1105,1905,1905,1105,0,0,0,0,0,0,0,0,0,0,0,0,2
314886349,314886349,8,45,0,0,20002,1457,1509,1625,1504,1105,1905,1905,1105,0,0,0,0,0,0,0,0,0,0,0,0,2
315491940,315491940,8,45,0,0,20002,1498,1509,1570,1504,1105,1905,1906,1105,0,0,0,0,0,0,0,0,0,0,0,0,2
315675957,315675957,8,45,0,0,20002,1498,1509,1554,1504,1105,1905,1905,1105,0,0,0,0,0,0,0,0,0,0,0,0,2
315892146,315892146,8,45,0,0,20002,1500,1509,1581,1504,1105,1905,1905,1105,0,0,0,0,0,0,0,0,0,0,0,0,2
316089515,316089515,8,45,0,0,20002,1508,1509,1586,1505,1105,1905,1905,1105,0,0,0,0,0,0,0,0,0,0,0,0,2
316289553,316289553,8,45,0,0,20002,1514,1509,1590,1504,1106,1905,1905,1105,0,0,0,0,0,0,0,0,0,0,0,0,2
316485504,316485504,8,45,0,0,20002,1533,1509,1528,1504,1105,1906,1905,1105,0,0,0,0,0,0,0,0,0,0,0,0,2
316703154,316703154,8,45,0,0,20003,1537,1509,1505,1504,1105,1905,1906,1105,0,0,0,0,0,0,0,0,0,0,0,0,2
316903731,316903731,8,45,0,0,20002,1536,1509,1505,1504,1105,1905,1906,1105,0,0,0,0,0,0,0,0,0,0,0,0,2
317111104,317111104,8,45,0,0,20002,1535,1510,1505,1504,1105,1905,1905,1105,0,0,0,0,0,0,0,0,0,0,0,0,2
317319304,317319304,8,45,0,0,20002,1533,1509,1505,1504,1105,1905,1905,1105,0,0,0,0,0,0,0,0,0,0,0,0,2
317520707,317520707,8,45,0,0,20002,1534,1509,1505,1505,1105,1905,1905,1105,0,0,0,0,0,0,0,0,0,0,0,0,2
317720777,317720777,8,45,0,0,20002,1534,1509,1505,1504,1106,1905,1905,1105,0,0,0,0,0,0,0,0,0,0,0,0,2
317920768,317920768,8,45,0,0,20002,1535,1509,1505,1503,1105,1906,1905,1105,0,0,0,0,0,0,0,0,0,0,0,0,2
318125514,318125514,8,45,0,0,20002,1539,1509,1505,1504,1105,1905,1906,1105,0,0,0,0,0,0,0,0,0,0,0,0,2
318314338,318314338,8,45,0,0,20002,1553,1510,1505,1504,1105,1905,1905,1106,0,0,0,0,0,0,0,0,0,0,0,0,2
319331918,319331918,8,45,0,0,20002,1501,1509,1505,1504,1105,1905,1906,1105,0,0,0,0,0,0,0,0,0,0,0,0,2
319543933,319543933,8,45,0,0,20002,1500,1509,1505,1505,1105,1905,1906,1105,0,0,0,0,0,0,0,0,0,0,0,0,2
319733857,319733857,8,45,0,0,20002,1499,1510,1505,1504,1105,1905,1905,1105,0,0,0,0,0,0,0,0,0,0,0,0,2
319933520,319933520,8,45,0,0,20002,1498,1509,1506,1504,1105,1905,1905,1105,0,0,0,0,0,0,0,0,0,0,0,0,2
320133541,320133541,8,45,0,0,20002,1498,1509,1505,1505,1105,1905,1905,1105,0,0,0,0,0,0,0,0,0,0,0,0,2
320341477,320341477,8,45,0,0,20002,1498,1509,1505,1504,1106,1905,1905,1105,0,0,0,0,0,0,0,0,0,0,0,0,2
320543147,320543147,8,45,0,0,20003,1498,1509,1505,1504,1105,1906,1905,1105,0,0,0,0,0,0,0,0,0,0,0,0,2
320755195,320755195,8,45,0,0,20002,1500,1509,1505,1504,1105,1905,1906,1105,0,0,0,0,0,0,0,0,0,0,0,0,2
320955113,320955113,8,45,0,0,20002,1506,1509,1505,1502,1105,1905,1906,1105,0,0,0,0,0,0,0,0,0,0,0,0,2
321152774,321152774,8,45,0,0,20002,1571,1510,1505,1505,1105,1905,1905,1105,0,0,0,0,0,0,0,0,0,0,0,0,2
321368736,321368736,8,45,0,0,20002,1631,1509,1506,1504,1105,1905,1905,1105,0,0,0,0,0,0,0,0,0,0,0,0,2
321556919,321556919,8,45,0,0,20002,1628,1509,1505,1505,1105,1905,1905,1105,0,0,0,0,0,0,0,0,0,0,0,0,2
321772728,321772728,8,45,0,0,20002,1610,1509,1505,1504,1106,1905,1905,1105,0,0,0,0,0,0,0,0,0,0,0,0,2
321966737,321966737,8,45,0,0,20003,1562,1509,1505,1504,1105,1906,1905,1105,0,0,0,0,0,0,0,0,0,0,0,0,2
322170331,322170331,8,45,0,0,20002,1502,1508,1505,1504,1105,1905,1906,1105,0,0,0,0,0,0,0,0,0,0,0,0,2
322374265,322374265,8,45,0,0,20002,1500,1509,1505,1504,1105,1905,1905,1106,0,0,0,0,0,0,0,0,0,0,0,0,2
322566347,322566347,8,45,0,0,20002,1500,1510,1505,1504,1105,1905,1905,1105,0,0,0,0,0,0,0,0,0,0,0,0,2
322779920,322779920,8,45,0,0,20002,1500,1509,1506,1504,1105,1905,1905,1105,0,0,0,0,0,0,0,0,0,0,0,0,2
322975961,322975961,8,45,0,0,20002,1500,1509,1505,1505,1105,1905,1905,1105,0,0,0,0,0,0,0,0,0,0,0,0,2
323179943,323179943,8,45,0,0,20002,1500,1509,1505,1504,1105,1906,1905,1105,0,0,0,0,0,0,0,0,0,0,0,0,2
323385519,323385519,8,45,0,0,20003,1504,1509,1505,1503,1105,1906,1905,1105,0,0,0,0,0,0,0,0,0,0,0,0,2
323589543,323589543,8,45,0,0,20002,1514,1511,1505,1503,1105,1905,1906,1105,0,0,0,0,0,0,0,0,0,0,0,0,2
323801550,323801550,8,45,0,0,20002,1540,1508,1505,1503,1105,1905,1906,1105,0,0,0,0,0,0,0,0,0,0,0,0,2
323981503,323981503,8,45,0,0,20002,1559,1510,1505,1504,1105,1905,1905,1105,0,0,0,0,0,0,0,0,0,0,0,0,2
324203720,324203720,8,45,0,0,20002,1554,1509,1506,1504,1105,1905,1905,1105,0,0,0,0,0,0,0,0,0,0,0,0,2
324399109,324399109,8,45,0,0,20002,1563,1509,1505,1505,1105,1905,1905,1105,0,0,0,0,0,0,0,0,0,0,0,0,2
324603147,324603147,8,45,0,0,20002,1560,1509,1505,1505,1105,1905,1905,1105,0,0,0,0,0,0,0,0,0,0,0,0,2
324803115,324803115,8,45,0,0,20002,1561,1509,1505,1503,1105,1906,1905,1105,0,0,0,0,0,0,0,0,0,0,0,0,2
325000719,325000719,8,45,0,0,20002,1562,1508,1505,1503,1105,1905,1906,1105,0,0,0,0,0,0,0,0,0,0,0,0,2
325196745,325196745,8,45,0,0,20002,1563,1509,1505,1504,1105,1905,1905,1106,0,0,0,0,0,0,0,0,0,0,0,0,2
325416691,325416691,8,45,0,0,20002,1563,1510,1504,1503,1105,1905,1905,1106,0,0,0,0,0,0,0,0,0,0,0,0,2
325614379,325614379,8,45,0,0,20002,1563,1508,1506,1504,1105,1905,1905,1105,0,0,0,0,0,0,0,0,0,0,0,0,2
325810341,325810341,8,45,0,0,20002,1560,1509,1505,1504,1105,1905,1905,1105,0,0,0,0,0,0,0,0,0,0,0,0,2
326010562,326010562,8,45,0,0,20002,1558,1509,1505,1504,1106,1905,1905,1105,0,0,0,0,0,0,0,0,0,0,0,0,2
326210371,326210371,8,45,0,0,20003,1500,1509,1505,1504,1105,1906,1905,1105,0,0,0,0,0,0,0,0,0,0,0,0,2
326431929,326431929,8,45,0,0,20003,1499,1509,1505,1505,1105,1906,1905,1105,0,0,0,0,0,0,0,0,0,0,0,0,2
326627922,326627922,8,45,0,0,20002,1500,1509,1505,1505,1105,1905,1906,1105,0,0,0,0,0,0,0,0,0,0,0,0,2
326827902,326827902,8,45,0,0,20002,1500,1509,1505,1505,1105,1905,1905,1106,0,0,0,0,0,0,0,0,0,0,0,0,2
327032723,327032723,8,45,0,0,20002,1499,1509,1505,1505,1105,1905,1905,1105,0,0,0,0,0,0,0,0,0,0,0,0,2
327233748,327233748,8,45,0,0,20002,1499,1509,1506,1504,1105,1905,1905,1105,0,0,0,0,0,0,0,0,0,0,0,0,2
327437816,327437816,8,45,0,0,20002,1499,1508,1505,1504,1105,1905,1905,1105,0,0,0,0,0,0,0,0,0,0,0,0,2
327637501,327637501,8,45,0,0,20002,1536,1509,1505,1487,1106,1905,1905,1105,0,0,0,0,0,0,0,0,0,0,0,0,2
327835919,327835919,8,45,0,0,20002,1563,1509,1505,1491,1105,1906,1905,1105,0,0,0,0,0,0,0,0,0,0,0,0,2
328039125,328039125,8,45,0,0,20002,1576,1509,1505,1498,1105,1905,1906,1105,0,0,0,0,0,0,0,0,0,0,0,0,2
328235117,328235117,8,45,0,0,20002,1577,1509,1505,1498,1105,1905,1905,1106,0,0,0,0,0,0,0,0,0,0,0,0,2
328435117,328435117,8,45,0,0,20002,1575,1510,1505,1499,1105,1905,1905,1105,0,0,0,0,0,0,0,0,0,0,0,0,2
328652698,328652698,8,45,0,0,20002,1574,1509,1506,1498,1105,1905,1905,1105,0,0,0,0,0,0,0,0,0,0,0,0,2
328841447,328841447,8,45,0,0,20002,1574,1509,1505,1498,1106,1905,1905,1105,0,0,0,0,0,0,0,0,0,0,0,0,2
329060945,329060945,8,45,0,0,20002,1576,1509,1505,1498,1105,1906,1905,1105,0,0,0,0,0,0,0,0,0,0,0,0,2
329242320,329242320,8,45,0,0,20002,1577,1509,1505,1499,1105,1905,1906,1105,0,0,0,0,0,0,0,0,0,0,0,0,2
329462535,329462535,8,45,0,0,20002,1574,1510,1505,1498,1105,1905,1905,1106,0,0,0,0,0,0,0,0,0,0,0,0,2
329658594,329658594,8,45,0,0,20002,1573,1509,1505,1497,1105,1905,1905,1105,0,0,0,0,0,0,0,0,0,0,0,0,2
329862284,329862284,8,45,0,0,20002,1501,1509,1505,1504,1106,1905,1905,1105,0,0,0,0,0,0,0,0,0,0,0,0,2
330075105,330075105,8,45,0,0,20003,1498,1509,1505,1504,1105,1906,1905,1105,0,0,0,0,0,0,0,0,0,0,0,0,2
330271191,330271191,8,45,0,0,20002,1499,1509,1505,1504,1105,1905,1906,1105,0,0,0,0,0,0,0,0,0,0,0,0,2
330479349,330479349,8,45,0,0,20002,1498,1510,1505,1504,1105,1905,1905,1105,0,0,0,0,0,0,0,0,0,0,0,0,2
330679723,330679723,8,45,0,0,20002,1498,1509,1505,1506,1105,1905,1905,1105,0,0,0,0,0,0,0,0,0,0,0,0,2
330879166,330879166,8,45,0,0,20002,1498,1509,1505,1504,1106,1905,1905,1105,0,0,0,0,0,0,0,0,0,0,0,0,2
331088922,331088922,8,45,0,0,20003,1499,1509,1505,1504,1105,1906,1905,1105,0,0,0,0,0,0,0,0,0,0,0,0,2
331272941,331272941,8,45,0,0,20002,1500,1509,1505,1504,1105,1905,1906,1105,0,0,0,0,0,0,0,0,0,0,0,0,2
331492694,331492694,8,45,0,0,20002,1508,1510,1505,1491,1105,1905,1905,1105,0,0,0,0,0,0,0,0,0,0,0,0,2
331686903,331686903,8,45,0,0,20002,1570,1509,1506,1491,1105,1905,1905,1105,0,0,0,0,0,0,0,0,0,0,0,0,2
331894541,331894541,8,45,0,0,20002,1565,1509,1505,1495,1106,1905,1905,1105,0,0,0,0,0,0,0,0,0,0,0,0,2
332090323,332090323,8,45,0,0,20003,1563,1509,1505,1496,1105,1906,1905,1105,0,0,0,0,0,0,0,0,0,0,0,0,2
332306292,332306292,8,45,0,0,20002,1561,1509,1505,1498,1105,1905,1906,1105,0,0,0,0,0,0,0,0,0,0,0,0,2
332503951,332503951,8,45,0,0,20002,1558,1510,1505,1499,1105,1905,1905,1106,0,0,0,0,0,0,0,0,0,0,0,0,2
332703922,332703922,8,45,0,0,20002,1549,1508,1505,1502,1105,1905,1905,1105,0,0,0,0,0,0,0,0,0,0,0,0,2
332907906,332907906,8,45,0,0,20002,1537,1487,1504,1501,1106,1905,1905,1105,0,0,0,0,0,0,0,0,0,0,0,0,2
333107892,333107892,8,45,0,0,20003,1535,1448,1504,1502,1105,1906,1905,1105,0,0,0,0,0,0,0,0,0,0,0,0,2
333312758,333312758,8,45,0,0,20002,1536,1495,1504,1502,1105,1905,1906,1105,0,0,0,0,0,0,0,0,0,0,0,0,2
333509074,333509074,8,45,0,0,20002,1535,1509,1504,1487,1105,1905,1905,1105,0,0,0,0,0,0,0,0,0,0,0,0,2
333720716,333720716,8,45,0,0,20002,1546,1509,1505,1484,1105,1905,1905,1105,0,0,0,0,0,0,0,0,0,0,0,0,2
333924740,333924740,8,45,0,0,20002,1548,1509,1528,1487,1105,1905,1905,1105,0,0,0,0,0,0,0,0,0,0,0,0,2
334122373,334122373,8,45,0,0,20002,1549,1509,1511,1486,1105,1906,1905,1105,0,0,0,0,0,0,0,0,0,0,0,0,2
334310321,334310321,8,45,0,0,20002,1547,1508,1559,1489,1105,1905,1906,1105,0,0,0,0,0,0,0,0,0,0,0,0,2
334518340,334518340,8,45,0,0,20002,1546,1510,1551,1488,1105,1905,1905,1105,0,0,0,0,0,0,0,0,0,0,0,0,2
334738363,334738363,8,45,0,0,20002,1546,1509,1506,1482,1105,1905,1905,1105,0,0,0,0,0,0,0,0,0,0,0,0,2
334939941,334939941,8,45,0,0,20002,1553,1509,1505,1482,1105,1905,1905,1105,0,0,0,0,0,0,0,0,0,0,0,0,2
335131915,335131915,8,45,0,0,20003,1558,1509,1505,1481,1105,1906,1905,1105,0,0,0,0,0,0,0,0,0,0,0,0,2
335331954,335331954,8,45,0,0,20002,1559,1508,1505,1478,1105,1905,1906,1105,0,0,0,0,0,0,0,0,0,0,0,0,2
335535921,335535921,8,45,0,0,20002,1571,1509,1505,1483,1105,1905,1905,1106,0,0,0,0,0,0,0,0,0,0,0,0,2
335749551,335749551,8,45,0,0,20002,1579,1508,1506,1482,1105,1905,1905,1105,0,0,0,0,0,0,0,0,0,0,0,0,2
335945559,335945559,8,45,0,0,20002,1579,1508,1505,1484,1105,1905,1905,1105,0,0,0,0,0,0,0,0,0,0,0,0,2
336145542,336145542,8,45,0,0,20002,1579,1509,1505,1486,1106,1905,1905,1105,0,0,0,0,0,0,0,0,0,0,0,0,2
336347157,336347157,8,45,0,0,20002,1578,1509,1505,1486,1105,1906,1905,1105,0,0,0,0,0,0,0,0,0,0,0,0,2
336551112,336551112,8,45,0,0,20002,1561,1509,1505,1488,1105,1905,1906,1105,0,0,0,0,0,0,0,0,0,0,0,0,2
336751322,336751322,8,45,0,0,20002,1500,1509,1506,1503,1105,1905,1905,1105,0,0,0,0,0,0,0,0,0,0,0,0,2
336959388,336959388,8,45,0,0,20002,1498,1509,1505,1505,1105,1905,1905,1105,0,0,0,0,0,0,0,0,0,0,0,0,2
337161317,337161317,8,45,0,0,20002,1499,1509,1505,1505,1106,1905,1905,1105,0,0,0,0,0,0,0,0,0,0,0,0,2
337364743,337364743,8,45,0,0,20002,1497,1508,1505,1505,1105,1906,1905,1105,0,0,0,0,0,0,0,0,0,0,0,0,2
337568766,337568766,8,45,0,0,20002,1499,1508,1505,1496,1105,1905,1906,1105,0,0,0,0,0,0,0,0,0,0,0,0,2
337754360,337754360,8,45,0,0,20002,1498,1509,1506,1504,1105,1905,1905,1105,0,0,0,0,0,0,0,0,0,0,0,0,2
337958552,337958552,8,45,0,0,20002,1582,1508,1505,1503,1105,1905,1905,1105,0,0,0,0,0,0,0,0,0,0,0,0,2
338162320,338162320,8,45,0,0,20002,1630,1509,1505,1505,1105,1905,1905,1105,0,0,0,0,0,0,0,0,0,0,0,0,2
338382272,338382272,8,45,0,0,20002,1620,1508,1505,1503,1106,1905,1905,1105,0,0,0,0,0,0,0,0,0,0,0,0,2
338579950,338579950,8,45,0,0,20002,1591,1509,1505,1504,1105,1905,1906,1105,0,0,0,0,0,0,0,0,0,0,0,0,2
338775962,338775962,8,45,0,0,20002,1577,1510,1505,1504,1105,1905,1905,1106,0,0,0,0,0,0,0,0,0,0,0,0,2
338987926,338987926,8,45,0,0,20002,1582,1509,1506,1497,1105,1905,1905,1105,0,0,0,0,0,0,0,0,0,0,0,0,2
339188951,339188951,8,45,0,0,20002,1555,1508,1505,1504,1105,1905,1905,1105,0,0,0,0,0,0,0,0,0,0,0,0,2
339381766,339381766,8,45,0,0,20002,1501,1509,1505,1505,1105,1906,1905,1105,0,0,0,0,0,0,0,0,0,0,0,0,2
339581552,339581552,8,45,0,0,20002,1502,1508,1505,1505,1105,1905,1906,1105,0,0,0,0,0,0,0,0,0,0,0,0,2
339794142,339794142,8,45,0,0,20002,1501,1509,1506,1504,1105,1905,1906,1105,0,0,0,0,0,0,0,0,0,0,0,0,2
339998543,339998543,8,45,0,0,20002,1500,1509,1505,1504,1105,1905,1905,1105,0,0,0,0,0,0,0,0,0,0,0,0,2
340202296,340202296,8,45,0,0,20002,1498,1509,1506,1505,1105,1905,1905,1105,0,0,0,0,0,0,0,0,0,0,0,0,2
340398548,340398548,8,45,0,0,20002,1500,1509,1505,1490,1106,1905,1905,1105,0,0,0,0,0,0,0,0,0,0,0,0,2
340598504,340598504,8,45,0,0,20002,1556,1509,1505,1455,1105,1906,1905,1105,0,0,0,0,0,0,0,0,0,0,0,0,2
340806297,340806297,8,45,0,0,20002,1561,1509,1505,1477,1105,1905,1906,1105,0,0,0,0,0,0,0,0,0,0,0,0,2
341007912,341007912,8,45,0,0,20002,1598,1509,1505,1446,1105,1905,1905,1106,0,0,0,0,0,0,0,0,0,0,0,0,2
341195953,341195953,8,45,0,0,20002,1595,1509,1506,1463,1105,1905,1905,1105,0,0,0,0,0,0,0,0,0,0,0,0,2
341416487,341416487,8,45,0,0,20002,1526,1509,1505,1477,1105,1905,1905,1105,0,0,0,0,0,0,0,0,0,0,0,0,2
341613778,341613778,8,45,0,0,20002,1509,1383,1496,1453,1105,1906,1905,1105,0,0,0,0,0,0,0,0,0,0,0,0,2
341814077,341814077,8,45,0,0,20002,1511,1323,1499,1451,1105,1905,1906,1105,0,0,0,0,0,0,0,0,0,0,0,0,2
342013533,342013533,8,45,0,0,20002,1503,1508,1504,1459,1105,1905,1906,1105,0,0,0,0,0,0,0,0,0,0,0,0,2
342213488,342213488,8,45,0,0,20002,1500,1678,1504,1443,1105,1905,1905,1105,0,0,0,0,0,0,0,0,0,0,0,0,2
342415124,342415124,8,45,0,0,20002,1499,1789,1510,1363,1105,1905,1905,1105,0,0,0,0,0,0,0,0,0,0,0,0,2
342623122,342623122,8,45,0,0,20002,1521,1508,1504,1427,1105,1905,1905,1105,0,0,0,0,0,0,0,0,0,0,0,0,2
342823096,342823096,8,45,0,0,20002,1516,1508,1504,1436,1105,1906,1905,1105,0,0,0,0,0,0,0,0,0,0,0,0,2
343023178,343023178,8,45,0,0,20002,1524,1508,1504,1418,1105,1905,1906,1105,0,0,0,0,0,0,0,0,0,0,0,0,2
343228719,343228719,8,45,0,0,20002,1502,1508,1504,1395,1105,1905,1905,1106,0,0,0,0,0,0,0,0,0,0,0,0,2
343428919,343428919,8,45,0,0,20002,1446,1508,1505,1503,1105,1905,1905,1105,0,0,0,0,0,0,0,0,0,0,0,0,2
343636715,343636715,8,45,0,0,20002,1407,1508,1504,1504,1105,1905,1905,1105,0,0,0,0,0,0,0,0,0,0,0,0,2
343838545,343838545,8,45,0,0,20002,1417,1509,1504,1495,1106,1905,1905,1105,0,0,0,0,0,0,0,0,0,0,0,0,2
344038322,344038322,8,45,0,0,20003,1238,1508,1504,1470,1105,1906,1905,1105,0,0,0,0,0,0,0,0,0,0,0,0,2
344250297,344250297,8,45,0,0,20002,1097,1509,1505,1471,1105,1905,1905,1105,0,0,0,0,0,0,0,0,0,0,0,0,2
344434346,344362390,0,0,0,0,20002,0,0,0,0,0,0,0,0,0,0,0,0,0,0,0,0,0,0,0,1,0
344655357,344362390,0,0,0,0,20002,0,0,0,0,0,0,0,0,0,0,0,0,0,0,0,0,0,0,0,1,0
344859397,344362390,0,0,0,0,20002,0,0,0,0,0,0,0,0,0,0,0,0,0,0,0,0,0,0,0,1,0
345039324,345039324,8,45,0,0,20002,1098,1508,1504,1473,1105,1905,1906,1105,0,0,0,0,0,0,0,0,0,0,0,0,2
345255065,345255065,8,45,0,0,20002,1098,1508,1504,1473,1105,1905,1905,1106,0,0,0,0,0,0,0,0,0,0,0,0,2
345468766,345468766,8,45,0,0,20002,1097,1508,1505,1467,1105,1905,1905,1105,0,0,0,0,0,0,0,0,0,0,0,0,2
346056722,346056722,8,45,0,0,20003,1097,1508,1504,1418,1105,1906,1905,1105,0,0,0,0,0,0,0,0,0,0,0,0,2
346254542,346254542,8,45,0,0,20002,1098,1508,1504,1405,1105,1905,1906,1105,0,0,0,0,0,0,0,0,0,0,0,0,2
346474547,346474547,8,45,0,0,20002,1098,1508,1504,1423,1105,1905,1905,1106,0,0,0,0,0,0,0,0,0,0,0,0,2
346670592,346670592,8,45,0,0,20002,1097,1509,1504,1442,1105,1905,1905,1105,0,0,0,0,0,0,0,0,0,0,0,0,2
346884294,346884294,8,45,0,0,20002,1097,1508,1504,1411,1105,1905,1905,1105,0,0,0,0,0,0,0,0,0,0,0,0,2
347083971,347083971,8,45,0,0,20002,1097,1508,1504,1393,1106,1905,1905,1105,0,0,0,0,0,0,0,0,0,0,0,0,2
347283932,347283932,8,45,0,0,20002,1097,1508,1505,1420,1105,1906,1905,1105,0,0,0,0,0,0,0,0,0,0,0,0,2
347484149,347484149,8,45,0,0,20002,1098,1508,1505,1473,1105,1905,1906,1105,0,0,0,0,0,0,0,0,0,0,0,0,2
347681505,347681505,8,45,0,0,20002,1097,1509,1504,1571,1105,1905,1905,1106,0,0,0,0,0,0,0,0,0,0,0,0,2
347885700,347885700,8,45,0,0,20002,1097,1509,1506,1900,1105,1905,1905,1105,0,0,0,0,0,0,0,0,0,0,0,0,2
348101794,348101794,8,45,0,0,20002,1097,1508,1506,1900,1105,1905,1905,1105,0,0,0,0,0,0,0,0,0,0,0,0,2
348298568,348298568,8,45,0,0,20002,1097,1508,1505,1902,1105,1905,1905,1105,0,0,0,0,0,0,0,0,0,0,0,0,2
348506328,348506328,8,45,0,0,20002,1097,1508,1505,1901,1106,1905,1905,1105,0,0,0,0,0,0,0,0,0,0,0,0,2
348702587,348702587,8,45,0,0,20002,1098,1508,1504,1901,1105,1906,1905,1105,0,0,0,0,0,0,0,0,0,0,0,0,2
348906323,348906323,8,45,0,0,20002,1098,1508,1504,1901,1105,1905,1906,1105,0,0,0,0,0,0,0,0,0,0,0,0,2
350119171,350119171,8,45,0,0,20002,1098,1508,1505,1400,1105,1905,1906,1105,0,0,0,0,0,0,0,0,0,0,0,0,2
350316985,350316985,8,45,0,0,20002,1097,1509,1505,1505,1105,1905,1905,1106,0,0,0,0,0,0,0,0,0,0,0,0,2
350536719,350536719,8,45,0,0,20002,1097,1509,1505,1604,1105,1905,1905,1105,0,0,0,0,0,0,0,0,0,0,0,0,2
350716702,350716702,8,45,0,0,20002,1097,1508,1505,1857,1105,1905,1905,1105,0,0,0,0,0,0,0,0,0,0,0,0,2
350937544,350937544,8,45,0,0,20002,1097,1508,1505,1902,1105,1905,1905,1105,0,0,0,0,0,0,0,0,0,0,0,0,2
351142357,351142357,8,45,0,0,20002,1097,1508,1505,1901,1105,1906,1905,1105,0,0,0,0,0,0,0,0,0,0,0,0,2
351330319,351330319,8,45,0,0,20002,1098,1508,1505,1900,1105,1906,1905,1105,0,0,0,0,0,0,0,0,0,0,0,0,2
351534345,351534345,8,45,0,0,20002,1098,1508,1505,1845,1105,1905,1906,1105,0,0,0,0,0,0,0,0,0,0,0,0,2
351732259,351732259,8,45,0,0,20002,1097,1509,1505,1628,1105,1905,1905,1105,0,0,0,0,0,0,0,0,0,0,0,0,2
351927894,351927894,8,45,0,0,20002,1097,1508,1505,1527,1105,1905,1905,1105,0,0,0,0,0,0,0,0,0,0,0,0,2
352136078,352136078,8,45,0,0,20002,1097,1508,1505,1481,1105,1905,1905,1105,0,0,0,0,0,0,0,0,0,0,0,0,2
352335970,352335970,8,45,0,0,20002,1097,1508,1505,1477,1105,1906,1905,1105,0,0,0,0,0,0,0,0,0,0,0,0,2
352537785,352537785,8,45,0,0,20003,1098,1508,1505,1467,1105,1906,1905,1105,0,0,0,0,0,0,0,0,0,0,0,0,2
352745844,352745844,8,45,0,0,20002,1098,1508,1505,1476,1105,1905,1906,1105,0,0,0,0,0,0,0,0,0,0,0,0,2
352941562,352941562,8,45,0,0,20002,1097,1509,1505,1447,1105,1905,1905,1106,0,0,0,0,0,0,0,0,0,0,0,0,2
353163119,353163119,8,45,0,0,20002,1097,1508,1506,1455,1105,1905,1905,1105,0,0,0,0,0,0,0,0,0,0,0,0,2
353359168,353359168,8,45,0,0,20002,1097,1508,1505,1480,1105,1905,1905,1105,0,0,0,0,0,0,0,0,0,0,0,0,2
353563114,353563114,8,45,0,0,20002,1097,1508,1505,1480,1106,1905,1905,1105,0,0,0,0,0,0,0,0,0,0,0,0,2
353755114,353755114,8,45,0,0,20002,1097,1508,1504,1475,1105,1906,1905,1105,0,0,0,0,0,0,0,0,0,0,0,0,2
353960722,353960722,8,45,0,0,20003,1098,1508,1505,1505,1105,1905,1906,1105,0,0,0,0,0,0,0,0,0,0,0,0,2
354160784,354160784,8,45,0,0,20002,1098,1508,1504,1492,1105,1905,1906,1105,0,0,0,0,0,0,0,0,0,0,0,0,2
354368968,354368968,8,45,0,0,20002,1097,1509,1504,1484,1105,1905,1905,1105,0,0,0,0,0,0,0,0,0,0,0,0,2
354561512,354561512,8,45,0,0,20002,1097,1508,1506,1487,1105,1905,1905,1105,0,0,0,0,0,0,0,0,0,0,0,0,2
354777835,354777835,8,45,0,0,20002,1097,1508,1503,1500,1105,1905,1905,1105,0,0,0,0,0,0,0,0,0,0,0,0,2
354981569,354981569,8,45,0,0,20002,1097,1508,1505,1503,1106,1905,1905,1105,0,0,0,0,0,0,0,0,0,0,0,0,2
355185491,355185491,8,45,0,0,20002,1097,1508,1504,1504,1105,1906,1905,1105,0,0,0,0,0,0,0,0,0,0,0,0,2
355381830,355381830,8,45,0,0,20003,1098,1508,1505,1505,1105,1906,1905,1105,0,0,0,0,0,0,0,0,0,0,0,0,2
355583683,355583683,8,45,0,0,20002,1098,1508,1505,1506,1105,1905,1906,1105,0,0,0,0,0,0,0,0,0,0,0,0,2
355795157,355795157,8,45,0,0,20002,1098,1508,1505,1506,1105,1905,1905,1106,0,0,0,0,0,0,0,0,0,0,0,0,2
355991326,355991326,8,45,0,0,20002,1097,1509,1505,1506,1105,1905,1905,1105,0,0,0,0,0,0,0,0,0,0,0,0,2
356192907,356192907,8,45,0,0,20002,1097,1508,1506,1493,1105,1905,1905,1105,0,0,0,0,0,0,0,0,0,0,0,0,2
356396717,356396717,8,45,0,0,20002,1097,1508,1505,1504,1105,1905,1905,1105,0,0,0,0,0,0,0,0,0,0,0,0,2
356604721,356604721,8,45,0,0,20002,1097,1508,1505,1468,1105,1906,1905,1105,0,0,0,0,0,0,0,0,0,0,0,0,2
356809337,356809337,8,45,0,0,20003,1097,1508,1505,1464,1105,1906,1905,1105,0,0,0,0,0,0,0,0,0,0,0,0,2
357010324,357010324,8,45,0,0,20002,1098,1508,1504,1476,1105,1905,1906,1105,0,0,0,0,0,0,0,0,0,0,0,0,2
357210290,357210290,8,45,0,0,20002,1098,1508,1505,1475,1105,1905,1906,1105,0,0,0,0,0,0,0,0,0,0,0,0,2
357410303,357410303,8,45,0,0,20002,1097,1508,1506,1439,1105,1905,1905,1105,0,0,0,0,0,0,0,0,0,0,0,0,2
357607934,357607934,8,45,0,0,20002,1097,1508,1505,1448,1106,1905,1905,1105,0,0,0,0,0,0,0,0,0,0,0,0,2
357816539,357816539,8,45,0,0,20002,1097,1508,1505,1457,1105,1906,1905,1905,0,0,0,0,0,0,0,0,0,0,0,0,2
358015942,358015942,8,45,0,0,20002,1098,1508,1505,1455,1105,1905,1906,1905,0,0,0,0,0,0,0,0,0,0,0,0,2
358207943,358207943,8,45,0,0,20002,1097,1509,1505,1458,1105,1905,1905,1105,0,0,0,0,0,0,0,0,0,0,0,0,2
358412745,358412745,8,45,0,0,20002,1097,1508,1506,1461,1105,1905,1905,1105,0,0,0,0,0,0,0,0,0,0,0,0,2
358616743,358616743,8,45,0,0,20002,1097,1508,1505,1461,1106,1905,1905,1105,0,0,0,0,0,0,0,0,0,0,0,0,2
358820730,358820730,8,45,0,0,20003,1097,1508,1505,1457,1105,1906,1905,1905,0,0,0,0,0,0,0,0,0,0,0,0,2
359024759,359024759,8,45,0,0,20002,1098,1507,1505,1457,1105,1905,1906,1905,0,0,0,0,0,0,0,0,0,0,0,0,2
359238336,359238336,8,45,0,0,20002,1097,1509,1505,1457,1105,1905,1905,1906,0,0,0,0,0,0,0,0,0,0,0,0,2
359442556,359442556,8,45,0,0,20002,1097,1508,1506,1451,1105,1905,1905,1905,0,0,0,0,0,0,0,0,0,0,0,0,2
359646311,359646311,8,45,0,0,20002,1097,1508,1505,1439,1106,1905,1905,1905,0,0,0,0,0,0,0,0,0,0,0,0,2
359834934,359834934,8,45,0,0,20003,1097,1508,1505,1429,1105,1906,1905,1905,0,0,0,0,0,0,0,0,0,0,0,0,2
360036188,360036188,8,45,0,0,20002,1098,1508,1505,1429,1105,1905,1906,1905,0,0,0,0,0,0,0,0,0,0,0,0,2
360243978,360243978,8,45,0,0,20002,1097,1508,1506,1439,1105,1905,1905,1105,0,0,0,0,0,0,0,0,0,0,0,0,2
360455894,360455894,8,45,0,0,20002,1097,1508,1507,1469,1105,1905,1905,1105,0,0,0,0,0,0,0,0,0,0,0,0,2
360645520,360645520,8,45,0,0,20002,1101,1508,1505,1502,1105,1906,1905,1105,0,0,0,0,0,0,0,0,0,0,0,0,2
360846123,360846123,8,45,0,0,20002,1102,1508,1505,1496,1105,1905,1906,1105,0,0,0,0,0,0,0,0,0,0,0,0,2
361061953,361061953,8,45,0,0,20002,1102,1417,1504,1503,1105,1905,1906,1105,0,0,0,0,0,0,0,0,0,0,0,0,2
361265531,361265531,8,45,0,0,20002,1101,1394,1504,1503,1105,1905,1905,1105,0,0,0,0,0,0,0,0,0,0,0,0,2
361463118,361463118,8,45,0,0,20002,1128,1442,1504,1505,1105,1905,1905,1105,0,0,0,0,0,0,0,0,0,0,0,0,2
361659165,361659165,8,45,0,0,20002,1160,1431,1504,1504,1106,1905,1905,1105,0,0,0,0,0,0,0,0,0,0,0,0,2
361867103,361867103,8,45,0,0,20002,1231,1446,1504,1503,1105,1906,1905,1105,0,0,0,0,0,0,0,0,0,0,0,0,2
362076933,362076933,8,45,0,0,20002,1205,1462,1504,1503,1105,1905,1906,1105,0,0,0,0,0,0,0,0,0,0,0,0,2
362268950,362268950,8,45,0,0,20002,1256,1446,1505,1503,1105,1905,1905,1105,0,0,0,0,0,0,0,0,0,0,0,0,2
362476972,362476972,8,45,0,0,20002,1229,1442,1504,1504,1105,1905,1905,1105,0,0,0,0,0,0,0,0,0,0,0,0,2
362681534,362681534,8,45,0,0,20002,1278,1442,1504,1503,1106,1905,1905,1105,0,0,0,0,0,0,0,0,0,0,0,0,2
362882351,362882351,8,45,0,0,20002,1311,1453,1504,1504,1105,1906,1905,1105,0,0,0,0,0,0,0,0,0,0,0,0,2
363082358,363082358,8,45,0,0,20002,1309,1455,1504,1504,1105,1905,1906,1105,0,0,0,0,0,0,0,0,0,0,0,0,2
363298381,363298381,8,45,0,0,20002,1313,1459,1504,1503,1105,1905,1905,1106,0,0,0,0,0,0,0,0,0,0,0,0,2
363495912,363495912,8,45,0,0,20002,1369,1444,1505,1504,1105,1905,1905,1105,0,0,0,0,0,0,0,0,0,0,0,0,2
363692123,363692123,8,45,0,0,20002,1398,1452,1504,1505,1105,1905,1905,1105,0,0,0,0,0,0,0,0,0,0,0,0,2
363895915,363895915,8,45,0,0,20003,1397,1486,1504,1504,1105,1906,1905,1105,0,0,0,0,0,0,0,0,0,0,0,0,2
364103890,364103890,8,45,0,0,20002,1408,1435,1504,1504,1105,1905,1906,1105,0,0,0,0,0,0,0,0,0,0,0,0,2
364298342,364298342,8,45,0,0,20002,1460,1471,1504,1504,1105,1905,1905,1106,0,0,0,0,0,0,0,0,0,0,0,0,2
364505711,364505711,8,45,0,0,20002,1495,1507,1505,1503,1105,1905,1905,1105,0,0,0,0,0,0,0,0,0,0,0,0,2
364709546,364709546,8,45,0,0,20002,1496,1488,1504,1504,1105,1905,1905,1105,0,0,0,0,0,0,0,0,0,0,0,0,2
364911151,364911151,8,45,0,0,20002,1496,1457,1502,1503,1105,1906,1905,1105,0,0,0,0,0,0,0,0,0,0,0,0,2
365107184,365107184,8,45,0,0,20002,1497,1508,1504,1503,1105,1905,1906,1105,0,0,0,0,0,0,0,0,0,0,0,0,2
365311121,365311121,8,45,0,0,20002,1498,1593,1504,1503,1105,1905,1906,1105,0,0,0,0,0,0,0,0,0,0,0,0,2
365515098,365515098,8,45,0,0,20002,1496,1636,1505,1503,1105,1905,1905,1105,0,0,0,0,0,0,0,0,0,0,0,0,2
365716749,365716749,8,45,0,0,20002,1496,1509,1504,1504,1105,1905,1905,1105,0,0,0,0,0,0,0,0,0,0,0,0,2
365916811,365916811,8,45,0,0,20002,1496,1509,1504,1503,1106,1905,1905,1105,0,0,0,0,0,0,0,0,0,0,0,0,2
366116763,366116763,8,45,0,0,20003,1397,1509,1504,1475,1105,1905,1906,1105,0,0,0,0,0,0,0,0,0,0,0,0,2
366338355,366338355,8,45,0,0,20002,1385,1508,1504,1502,1105,1905,1906,1105,0,0,0,0,0,0,0,0,0,0,0,0,2
366522392,366522392,8,45,0,0,20002,1380,1509,1505,1502,1105,1905,1905,1105,0,0,0,0,0,0,0,0,0,0,0,0,2
366746300,366746300,8,45,0,0,20002,1396,1509,1505,1502,1105,1905,1905,1105,0,0,0,0,0,0,0,0,0,0,0,0,2
366934330,366934330,8,45,0,0,20002,1408,1509,1504,1502,1106,1905,1905,1105,0,0,0,0,0,0,0,0,0,0,0,0,2
367135332,367135332,8,45,0,0,20002,1429,1507,1504,1504,1105,1906,1905,1105,0,0,0,0,0,0,0,0,0,0,0,0,2
367351150,367351150,8,45,0,0,20002,1450,1508,1504,1502,1105,1905,1906,1105,0,0,0,0,0,0,0,0,0,0,0,0,2
367551344,367551344,8,45,0,0,20002,1457,1521,1558,1502,1105,1905,1906,1105,0,0,0,0,0,0,0,0,0,0,0,0,2
367759357,367759357,8,45,0,0,20002,1456,1509,1575,1502,1105,1905,1905,1105,0,0,0,0,0,0,0,0,0,0,0,0,2
367936726,367936726,8,45,0,0,20002,1456,1509,1558,1503,1105,1905,1905,1105,0,0,0,0,0,0,0,0,0,0,0,0,2
368145482,368145482,8,45,0,0,20002,1496,1508,1567,1503,1105,1906,1905,1105,0,0,0,0,0,0,0,0,0,0,0,0,2
368344968,368344968,8,45,0,0,20002,1497,1508,1513,1503,1105,1905,1906,1105,0,0,0,0,0,0,0,0,0,0,0,0,2
368552739,368552739,8,45,0,0,20002,1497,1508,1505,1503,1105,1905,1906,1105,0,0,0,0,0,0,0,0,0,0,0,0,2
368762365,368762365,8,45,0,0,20002,1496,1509,1516,1503,1105,1905,1905,1105,0,0,0,0,0,0,0,0,0,0,0,0,2
368962296,368962296,8,45,0,0,20002,1496,1508,1509,1504,1105,1905,1905,1105,0,0,0,0,0,0,0,0,0,0,0,0,2
369170318,369170318,8,45,0,0,20002,1496,1508,1504,1502,1106,1905,1905,1105,0,0,0,0,0,0,0,0,0,0,0,0,2
369368917,369368917,8,45,0,0,20002,1496,1462,1504,1503,1105,1906,1905,1105,0,0,0,0,0,0,0,0,0,0,0,0,2
369579956,369579956,8,45,0,0,20002,1496,1390,1504,1503,1105,1905,1906,1105,0,0,0,0,0,0,0,0,0,0,0,0,2
369767925,369767925,8,45,0,0,20002,1496,1431,1504,1503,1105,1905,1905,1105,0,0,0,0,0,0,0,0,0,0,0,0,2
369971892,369971892,8,45,0,0,20002,1496,1454,1505,1503,1105,1905,1905,1105,0,0,0,0,0,0,0,0,0,0,0,0,2
370173554,370173554,8,45,0,0,20002,1496,1426,1504,1504,1105,1905,1905,1105,0,0,0,0,0,0,0,0,0,0,0,0,2
370373552,370373552,8,45,0,0,20002,1496,1436,1504,1503,1106,1905,1905,1105,0,0,0,0,0,0,0,0,0,0,0,0,2
370577790,370577790,8,45,0,0,20002,1497,1437,1504,1503,1105,1906,1905,1105,0,0,0,0,0,0,0,0,0,0,0,0,2
370783146,370783146,8,45,0,0,20002,1497,1456,1504,1503,1105,1905,1906,1105,0,0,0,0,0,0,0,0,0,0,0,0,2
370983167,370983167,8,45,0,0,20002,1495,1463,1505,1503,1105,1905,1905,1105,0,0,0,0,0,0,0,0,0,0,0,0,2
371183072,371183072,8,45,0,0,20002,1496,1483,1504,1504,1105,1905,1905,1105,0,0,0,0,0,0,0,0,0,0,0,0,2
371403106,371403106,8,45,0,0,20002,1497,1508,1504,1503,1105,1905,1905,1105,0,0,0,0,0,0,0,0,0,0,0,0,2
371604721,371604721,8,45,0,0,20002,1499,1510,1504,1503,1105,1906,1905,1105,0,0,0,0,0,0,0,0,0,0,0,0,2
371804745,371804745,8,45,0,0,20003,1500,1556,1505,1503,1105,1905,1906,1105,0,0,0,0,0,0,0,0,0,0,0,0,2
372004695,372004695,8,45,0,0,20002,1500,1577,1505,1503,1105,1905,1906,1105,0,0,0,0,0,0,0,0,0,0,0,0,2
372202377,372202377,8,45,0,0,20002,1498,1520,1506,1503,1105,1905,1905,1105,0,0,0,0,0,0,0,0,0,0,0,0,2
372422316,372422316,8,45,0,0,20002,1498,1507,1505,1503,1105,1905,1905,1105,0,0,0,0,0,0,0,0,0,0,0,0,2
372622352,372622352,8,45,0,0,20002,1497,1509,1426,1504,1105,1905,1905,1105,0,0,0,0,0,0,0,0,0,0,0,0,2
372827985,372827985,8,45,0,0,20002,1497,1508,1387,1503,1105,1906,1905,1105,0,0,0,0,0,0,0,0,0,0,0,0,2
373027923,373027923,8,45,0,0,20002,1499,1509,1409,1503,1105,1905,1906,1105,0,0,0,0,0,0,0,0,0,0,0,0,2
373227915,373227915,8,45,0,0,20002,1499,1509,1587,1503,1105,1905,1905,1106,0,0,0,0,0,0,0,0,0,0,0,0,2
373415905,373415905,8,45,0,0,20002,1498,1509,1655,1503,1105,1905,1905,1105,0,0,0,0,0,0,0,0,0,0,0,0,2
373637493,373637493,8,45,0,0,20002,1498,1508,1633,1503,1105,1905,1905,1105,0,0,0,0,0,0,0,0,0,0,0,0,2
373834252,373834252,8,45,0,0,20002,1498,1509,1541,1504,1105,1905,1905,1105,0,0,0,0,0,0,0,0,0,0,0,0,2
374025520,374025520,8,45,0,0,20002,1498,1509,1504,1503,1105,1906,1905,1105,0,0,0,0,0,0,0,0,0,0,0,0,2
374231011,374231011,8,45,0,0,20002,1499,1508,1491,1503,1105,1905,1906,1105,0,0,0,0,0,0,0,0,0,0,0,0,2
374446935,374446935,8,45,0,0,20002,1499,1509,1410,1505,1105,1905,1905,1106,0,0,0,0,0,0,0,0,0,0,0,0,2
374627126,374627126,8,45,0,0,20002,1497,1509,1437,1503,1105,1905,1905,1105,0,0,0,0,0,0,0,0,0,0,0,0,2
374834496,374834496,8,45,0,0,20002,1498,1509,1440,1504,1105,1905,1905,1105,0,0,0,0,0,0,0,0,0,0,0,0,2
375034333,375034333,8,45,0,0,20002,1498,1509,1504,1496,1106,1905,1905,1105,0,0,0,0,0,0,0,0,0,0,0,0,2
375247933,375247933,8,45,0,0,20003,1401,1508,1504,1503,1105,1906,1905,1105,0,0,0,0,0,0,0,0,0,0,0,0,2
375443942,375443942,8,45,0,0,20002,1294,1508,1504,1503,1105,1905,1906,1105,0,0,0,0,0,0,0,0,0,0,0,0,2
375651889,375651889,8,45,0,0,20002,1273,1509,1504,1503,1105,1905,1905,1106,0,0,0,0,0,0,0,0,0,0,0,0,2
375857785,375857785,8,45,0,0,20002,1214,1508,1505,1503,1105,1905,1905,1105,0,0,0,0,0,0,0,0,0,0,0,0,2
376066347,376066347,8,45,0,0,20002,1097,1508,1504,1484,1105,1905,1905,1105,0,0,0,0,0,0,0,0,0,0,0,0,2
376269522,376269522,8,45,0,0,20002,1097,1508,1504,1370,1106,1905,1905,1105,0,0,0,0,0,0,0,0,0,0,0,0,2
376469482,376469482,8,45,0,0,20003,1097,1508,1504,1140,1105,1906,1905,1105,0,0,0,0,0,0,0,0,0,0,0,0,2
376663381,376663381,8,45,0,0,20002,1098,1508,1504,1105,1105,1905,1906,1105,0,0,0,0,0,0,0,0,0,0,0,0,2
376855109,376855109,8,45,0,0,20002,1097,1509,1504,1105,1105,1905,1905,1105,0,0,0,0,0,0,0,0,0,0,0,0,2
377063109,377063109,8,45,0,0,20002,1097,1508,1505,1242,1105,1905,1905,1105,0,0,0,0,0,0,0,0,0,0,0,0,2
377276762,377276762,8,45,0,0,20002,1097,1508,1504,1411,1105,1905,1905,1105,0,0,0,0,0,0,0,0,0,0,0,0,2
377476721,377476721,8,45,0,0,20002,1097,1508,1504,1431,1106,1905,1905,1105,0,0,0,0,0,0,0,0,0,0,0,0,2
377677055,377677055,8,45,0,0,20002,1126,1508,1505,1460,1105,1906,1905,1105,0,0,0,0,0,0,0,0,0,0,0,0,2
377865319,377865319,8,45,0,0,20002,1209,1508,1504,1502,1105,1905,1906,1105,0,0,0,0,0,0,0,0,0,0,0,0,2
378082588,378082588,8,45,0,0,20002,1257,1509,1504,1502,1105,1905,1905,1106,0,0,0,0,0,0,0,0,0,0,0,0,2
378266326,378266326,8,45,0,0,20002,1260,1508,1505,1502,1105,1905,1905,1105,0,0,0,0,0,0,0,0,0,0,0,0,2
378474916,378474916,8,45,0,0,20002,1345,1508,1504,1504,1105,1905,1905,1105,0,0,0,0,0,0,0,0,0,0,0,0,2
378671916,378671916,8,45,0,0,20002,1333,1508,1504,1503,1106,1905,1905,1105,0,0,0,0,0,0,0,0,0,0,0,0,2
378875926,378875926,8,45,0,0,20002,1333,1508,1504,1503,1105,1906,1905,1105,0,0,0,0,0,0,0,0,0,0,0,0,2
379084454,379084454,8,45,0,0,20002,1335,1508,1504,1456,1105,1905,1906,1105,0,0,0,0,0,0,0,0,0,0,0,0,2
379303913,379303913,8,45,0,0,20002,1460,1508,1504,1477,1105,1905,1906,1105,0,0,0,0,0,0,0,0,0,0,0,0,2
379489541,379489541,8,45,0,0,20002,1459,1508,1505,1492,1105,1905,1905,1105,0,0,0,0,0,0,0,0,0,0,0,0,2
379694131,379694131,8,45,0,0,20002,1455,1508,1505,1445,1105,1905,1905,1105,0,0,0,0,0,0,0,0,0,0,0,0,2
379910078,379910078,8,45,0,0,20002,1497,1508,1504,1479,1105,1905,1905,1105,0,0,0,0,0,0,0,0,0,0,0,0,2
380114322,380114322,8,45,0,0,20002,1498,1508,1504,1505,1106,1905,1905,1105,0,0,0,0,0,0,0,0,0,0,0,0,2
380294527,380294527,8,45,0,0,20003,1499,1508,1504,1505,1105,1906,1905,1105,0,0,0,0,0,0,0,0,0,0,0,0,2
380510319,380510319,8,45,0,0,20002,1498,1508,1504,1446,1105,1905,1906,1105,0,0,0,0,0,0,0,0,0,0,0,0,2
380706297,380706297,8,45,0,0,20002,1497,1509,1504,1422,1105,1905,1905,1105,0,0,0,0,0,0,0,0,0,0,0,0,2
380910342,380910342,8,45,0,0,20002,1497,1508,1505,1419,1105,1905,1905,1105,0,0,0,0,0,0,0,0,0,0,0,0,2
381115916,381115916,8,45,0,0,20002,1497,1508,1504,1420,1105,1905,1905,1105,0,0,0,0,0,0,0,0,0,0,0,0,2
381323915,381323915,8,45,0,0,20002,1497,1508,1529,1418,1106,1905,1905,1105,0,0,0,0,0,0,0,0,0,0,0,0,2
381531931,381531931,8,45,0,0,20002,1497,1509,1577,1420,1105,1906,1905,1105,0,0,0,0,0,0,0,0,0,0,0,0,2
381733516,381733516,8,45,0,0,20002,1498,1509,1587,1423,1105,1906,1905,1105,0,0,0,0,0,0,0,0,0,0,0,0,2
381929550,381929550,8,45,0,0,20002,1498,1508,1579,1425,1105,1905,1905,1106,0,0,0,0,0,0,0,0,0,0,0,0,2
382133523,382133523,8,45,0,0,20002,1497,1509,1563,1425,1105,1905,1905,1106,0,0,0,0,0,0,0,0,0,0,0,0,2
382335371,382335371,8,45,0,0,20002,1499,1508,1548,1424,1105,1905,1905,1105,0,0,0,0,0,0,0,0,0,0,0,0,2
382547129,382547129,8,45,0,0,20002,1553,1509,1533,1476,1105,1905,1905,1105,0,0,0,0,0,0,0,0,0,0,0,0,2
382739099,382739099,8,45,0,0,20002,1578,1509,1536,1503,1106,1905,1905,1105,0,0,0,0,0,0,0,0,0,0,0,0,2
382943133,382943133,8,45,0,0,20002,1501,1509,1543,1503,1105,1906,1905,1105,0,0,0,0,0,0,0,0,0,0,0,0,2
383145334,383145334,8,45,0,0,20002,1500,1519,1550,1490,1105,1905,1906,1105,0,0,0,0,0,0,0,0,0,0,0,0,2
383344725,383344725,8,45,0,0,20002,1497,1563,1510,1442,1105,1905,1905,1106,0,0,0,0,0,0,0,0,0,0,0,0,2
383544716,383544716,8,45,0,0,20002,1497,1547,1506,1437,1105,1905,1905,1105,0,0,0,0,0,0,0,0,0,0,0,0,2
383762366,383762366,8,45,0,0,20002,1497,1508,1506,1398,1105,1905,1905,1105,0,0,0,0,0,0,0,0,0,0,0,0,2
383962350,383962350,8,45,0,0,20002,1497,1509,1505,1394,1106,1905,1905,1105,0,0,0,0,0,0,0,0,0,0,0,0,2
384142312,384142312,8,45,0,0,20002,1499,1506,1714,1432,1105,1906,1905,1105,0,0,0,0,0,0,0,0,0,0,0,0,2
384366871,384366871,8,45,0,0,20002,1499,1509,1606,1430,1105,1905,1906,1105,0,0,0,0,0,0,0,0,0,0,0,0,2
384568226,384568226,8,45,0,0,20002,1498,1509,1603,1442,1105,1905,1905,1105,0,0,0,0,0,0,0,0,0,0,0,0,2
384767964,384767964,8,45,0,0,20002,1497,1509,1558,1454,1105,1905,1905,1105,0,0,0,0,0,0,0,0,0,0,0,0,2
384976537,384976537,8,45,0,0,20002,1498,1509,1610,1446,1106,1905,1905,1105,0,0,0,0,0,0,0,0,0,0,0,0,2
385173526,385173526,8,45,0,0,20002,1501,1509,1605,1448,1105,1905,1906,1105,0,0,0,0,0,0,0,0,0,0,0,0,2
385369567,385369567,8,45,0,0,20002,1509,1510,1642,1456,1105,1905,1905,1105,0,0,0,0,0,0,0,0,0,0,0,0,2
386186354,386186354,8,45,0,0,20002,1506,1509,1625,1463,1105,1905,1906,1105,0,0,0,0,0,0,0,0,0,0,0,0,2
386370330,386370330,8,45,0,0,20002,1506,1509,1635,1474,1105,1905,1905,1105,0,0,0,0,0,0,0,0,0,0,0,0,2
386590360,386590360,8,45,0,0,20002,1541,1509,1631,1501,1105,1905,1905,1105,0,0,0,0,0,0,0,0,0,0,0,0,2
386791920,386791920,8,45,0,0,20002,1502,1509,1631,1503,1105,1906,1905,1105,0,0,0,0,0,0,0,0,0,0,0,0,2
386987949,386987949,8,45,0,0,20002,1499,1509,1629,1504,1105,1905,1906,1105,0,0,0,0,0,0,0,0,0,0,0,0,2
387195972,387195972,8,45,0,0,20002,1498,1510,1625,1504,1105,1905,1905,1106,0,0,0,0,0,0,0,0,0,0,0,0,2
387401518,387401518,8,45,0,0,20002,1541,1509,1589,1504,1105,1905,1905,1105,0,0,0,0,0,0,0,0,0,0,0,0,2
387597800,387597800,8,45,0,0,20002,1554,1509,1588,1504,1106,1905,1905,1105,0,0,0,0,0,0,0,0,0,0,0,0,2
387797765,387797765,8,45,0,0,20002,1557,1509,1505,1504,1105,1906,1905,1105,0,0,0,0,0,0,0,0,0,0,0,0,2
387993499,387993499,8,45,0,0,20002,1534,1508,1505,1504,1105,1905,1906,1105,0,0,0,0,0,0,0,0,0,0,0,0,2
388215134,388215134,8,45,0,0,20002,1534,1510,1412,1505,1105,1905,1905,1105,0,0,0,0,0,0,0,0,0,0,0,0,2
388415137,388415137,8,45,0,0,20002,1534,1509,1416,1505,1105,1905,1905,1105,0,0,0,0,0,0,0,0,0,0,0,0,2
388607113,388607113,8,45,0,0,20002,1534,1509,1432,1504,1105,1906,1905,1105,0,0,0,0,0,0,0,0,0,0,0,0,2
388804762,388804762,8,45,0,0,20002,1535,1509,1446,1503,1105,1905,1906,1105,0,0,0,0,0,0,0,0,0,0,0,0,2
389004721,389004721,8,45,0,0,20002,1534,1510,1446,1503,1105,1905,1905,1106,0,0,0,0,0,0,0,0,0,0,0,0,2
389208919,389208919,8,45,0,0,20002,1533,1509,1457,1504,1105,1905,1905,1105,0,0,0,0,0,0,0,0,0,0,0,0,2
389412752,389412752,8,45,0,0,20002,1534,1509,1457,1503,1106,1905,1905,1105,0,0,0,0,0,0,0,0,0,0,0,0,2
389626315,389626315,8,45,0,0,20002,1545,1509,1443,1503,1105,1906,1905,1105,0,0,0,0,0,0,0,0,0,0,0,0,2
389822313,389822313,8,45,0,0,20002,1565,1509,1460,1503,1105,1905,1906,1105,0,0,0,0,0,0,0,0,0,0,0,0,2
390030300,390030300,8,45,0,0,20002,1561,1510,1468,1503,1105,1905,1905,1105,0,0,0,0,0,0,0,0,0,0,0,0,2
390224144,390224144,8,45,0,0,20002,1545,1509,1472,1504,1105,1905,1905,1105,0,0,0,0,0,0,0,0,0,0,0,0,2
390423917,390423917,8,45,0,0,20002,1546,1509,1473,1502,1106,1905,1905,1105,0,0,0,0,0,0,0,0,0,0,0,0,2
390628529,390628529,8,45,0,0,20002,1547,1509,1479,1501,1105,1905,1906,1105,0,0,0,0,0,0,0,0,0,0,0,0,2
390829552,390829552,8,45,0,0,20002,1546,1496,1503,1502,1105,1905,1905,1106,0,0,0,0,0,0,0,0,0,0,0,0,2
391045525,391045525,8,45,0,0,20002,1543,1432,1506,1502,1105,1905,1905,1105,0,0,0,0,0,0,0,0,0,0,0,0,2
391233530,391233530,8,45,0,0,20002,1536,1448,1505,1503,1105,1905,1905,1105,0,0,0,0,0,0,0,0,0,0,0,0,2
391433541,391433541,8,45,0,0,20002,1534,1509,1505,1502,1105,1906,1905,1105,0,0,0,0,0,0,0,0,0,0,0,0,2
391655121,391655121,8,45,0,0,20003,1535,1437,1504,1502,1105,1906,1905,1105,0,0,0,0,0,0,0,0,0,0,0,0,2
391843116,391843116,8,45,0,0,20002,1534,1371,1504,1502,1105,1905,1905,1106,0,0,0,0,0,0,0,0,0,0,0,0,2
392043135,392043135,8,45,0,0,20002,1533,1508,1505,1501,1105,1905,1905,1105,0,0,0,0,0,0,0,0,0,0,0,0,2
392240951,392240951,8,45,0,0,20002,1531,1618,1505,1502,1106,1905,1905,1105,0,0,0,0,0,0,0,0,0,0,0,0,2
392452768,392452768,8,45,0,0,20003,1531,1709,1505,1502,1105,1906,1905,1105,0,0,0,0,0,0,0,0,0,0,0,0,2
392649309,392649309,8,45,0,0,20002,1534,1509,1505,1501,1105,1905,1906,1105,0,0,0,0,0,0,0,0,0,0,0,0,2
392861567,392861567,8,45,0,0,20002,1533,1510,1620,1502,1105,1905,1905,1106,0,0,0,0,0,0,0,0,0,0,0,0,2
393050345,393050345,8,45,0,0,20002,1535,1509,1661,1503,1105,1905,1905,1105,0,0,0,0,0,0,0,0,0,0,0,0,2
393258535,393258535,8,45,0,0,20002,1533,1510,1476,1502,1106,1905,1905,1105,0,0,0,0,0,0,0,0,0,0,0,0,2
393458318,393458318,8,45,0,0,20002,1549,1511,1329,1500,1105,1906,1905,1105,0,0,0,0,0,0,0,0,0,0,0,0,2
393651920,393651920,8,45,0,0,20002,1590,1510,1503,1503,1105,1905,1905,1106,0,0,0,0,0,0,0,0,0,0,0,0,2
393851953,393851953,8,45,0,0,20002,1599,1509,1505,1503,1105,1905,1905,1105,0,0,0,0,0,0,0,0,0,0,0,0,2
394059934,394059934,8,45,0,0,20002,1556,1509,1504,1502,1105,1905,1905,1105,0,0,0,0,0,0,0,0,0,0,0,0,2
394257513,394257513,8,45,0,0,20002,1534,1508,1504,1502,1106,1905,1905,1105,0,0,0,0,0,0,0,0,0,0,0,0,2
394461573,394461573,8,45,0,0,20003,1500,1509,1505,1504,1105,1905,1906,1105,0,0,0,0,0,0,0,0,0,0,0,0,2
394665714,394665714,8,45,0,0,20002,1535,1509,1504,1503,1105,1905,1905,1106,0,0,0,0,0,0,0,0,0,0,0,0,2
395086332,395086332,8,45,0,0,20002,1561,1508,1504,1506,1105,1905,1905,1105,0,0,0,0,0,0,0,0,0,0,0,0,2
395278334,395278334,8,45,0,0,20002,1562,1508,1504,1505,1106,1905,1905,1105,0,0,0,0,0,0,0,0,0,0,0,0,2
395478522,395478522,8,45,0,0,20003,1565,1509,1502,1505,1105,1906,1905,1105,0,0,0,0,0,0,0,0,0,0,0,0,2
395698328,395698328,8,45,0,0,20002,1569,1511,1431,1504,1105,1905,1906,1105,0,0,0,0,0,0,0,0,0,0,0,0,2
395891923,395891923,8,45,0,0,20002,1568,1511,1449,1505,1105,1905,1905,1105,0,0,0,0,0,0,0,0,0,0,0,0,2
396091977,396091977,8,45,0,0,20002,1567,1511,1456,1506,1105,1905,1905,1105,0,0,0,0,0,0,0,0,0,0,0,0,2
396292546,396292546,8,45,0,0,20002,1566,1511,1493,1504,1105,1906,1905,1105,0,0,0,0,0,0,0,0,0,0,0,0,2
396495949,396495949,8,45,0,0,20003,1564,1510,1503,1504,1105,1906,1905,1105,0,0,0,0,0,0,0,0,0,0,0,0,2
396692725,396692725,8,45,0,0,20002,1563,1509,1503,1504,1105,1905,1905,1106,0,0,0,0,0,0,0,0,0,0,0,0,2
396896932,396896932,8,45,0,0,20002,1563,1509,1504,1504,1105,1905,1905,1105,0,0,0,0,0,0,0,0,0,0,0,0,2
397112773,397112773,8,45,0,0,20002,1566,1508,1503,1505,1105,1905,1905,1105,0,0,0,0,0,0,0,0,0,0,0,0,2
397296764,397296764,8,45,0,0,20002,1568,1508,1503,1505,1106,1905,1905,1105,0,0,0,0,0,0,0,0,0,0,0,0,2
397515091,397515091,8,45,0,0,20003,1569,1509,1503,1504,1105,1906,1905,1105,0,0,0,0,0,0,0,0,0,0,0,0,2
397698570,397698570,8,45,0,0,20002,1568,1508,1503,1504,1105,1905,1906,1105,0,0,0,0,0,0,0,0,0,0,0,0,2
397918346,397918346,8,45,0,0,20002,1563,1509,1503,1504,1105,1905,1905,1106,0,0,0,0,0,0,0,0,0,0,0,0,2
398111917,398111917,8,45,0,0,20002,1563,1508,1504,1506,1105,1905,1905,1105,0,0,0,0,0,0,0,0,0,0,0,0,2
398319933,398319933,8,45,0,0,20002,1561,1508,1504,1505,1106,1905,1905,1105,0,0,0,0,0,0,0,0,0,0,0,0,2
398523922,398523922,8,45,0,0,20003,1547,1508,1504,1505,1105,1906,1905,1105,0,0,0,0,0,0,0,0,0,0,0,0,2
398711893,398711893,8,45,0,0,20002,1501,1508,1504,1505,1105,1905,1905,1106,0,0,0,0,0,0,0,0,0,0,0,0,2
398929523,398929523,8,45,0,0,20002,1500,1509,1504,1505,1105,1905,1905,1105,0,0,0,0,0,0,0,0,0,0,0,0,2
399125547,399125547,8,45,0,0,20002,1499,1508,1505,1505,1105,1905,1905,1105,0,0,0,0,0,0,0,0,0,0,0,0,2
399321560,399321560,8,45,0,0,20002,1499,1508,1504,1505,1106,1905,1905,1105,0,0,0,0,0,0,0,0,0,0,0,0,2
399538497,399538497,8,45,0,0,20002,1499,1508,1503,1504,1105,1906,1905,1105,0,0,0,0,0,0,0,0,0,0,0,0,2
399726344,399726344,8,45,0,0,20002,1500,1508,1504,1504,1105,1905,1906,1105,0,0,0,0,0,0,0,0,0,0,0,0,2
399942522,399942522,8,45,0,0,20002,1499,1509,1504,1503,1105,1905,1905,1106,0,0,0,0,0,0,0,0,0,0,0,0,2
400134307,400134307,8,45,0,0,20002,1503,1508,1505,1504,1105,1905,1905,1105,0,0,0,0,0,0,0,0,0,0,0,0,2
400354291,400354291,8,45,0,0,20002,1508,1508,1504,1505,1105,1905,1905,1105,0,0,0,0,0,0,0,0,0,0,0,0,2
400543960,400543960,8,45,0,0,20002,1535,1508,1504,1504,1105,1906,1905,1105,0,0,0,0,0,0,0,0,0,0,0,0,2
400752511,400752511,8,45,0,0,20002,1578,1508,1504,1505,1105,1905,1906,1105,0,0,0,0,0,0,0,0,0,0,0,0,2
402166345,402166345,8,45,0,0,20002,1587,1509,1504,1505,1105,1905,1905,1106,0,0,0,0,0,0,0,0,0,0,0,0,2
402362354,402362354,8,45,0,0,20002,1548,1508,1505,1505,1105,1905,1905,1105,0,0,0,0,0,0,0,0,0,0,0,0,2
402582306,402582306,8,45,0,0,20002,1533,1508,1504,1506,1105,1905,1905,1105,0,0,0,0,0,0,0,0,0,0,0,0,2
402783911,402783911,8,45,0,0,20002,1499,1508,1504,1505,1105,1906,1905,1105,0,0,0,0,0,0,0,0,0,0,0,0,2
402975960,402975960,8,45,0,0,20002,1500,1508,1504,1505,1105,1906,1905,1105,0,0,0,0,0,0,0,0,0,0,0,0,2
403187921,403187921,8,45,0,0,20002,1500,1508,1504,1505,1105,1905,1906,1105,0,0,0,0,0,0,0,0,0,0,0,0,2
403384721,403384721,8,45,0,0,20002,1499,1508,1504,1505,1105,1905,1905,1105,0,0,0,0,0,0,0,0,0,0,0,0,2
403597417,403597417,8,45,0,0,20002,1499,1508,1505,1505,1105,1905,1905,1105,0,0,0,0,0,0,0,0,0,0,0,0,2
403800702,403800702,8,45,0,0,20002,1499,1508,1504,1506,1105,1905,1905,1105,0,0,0,0,0,0,0,0,0,0,0,0,2
404004953,404004953,8,45,0,0,20002,1499,1508,1504,1505,1105,1906,1905,1105,0,0,0,0,0,0,0,0,0,0,0,0,2
404204760,404204760,8,45,0,0,20002,1515,1508,1504,1504,1105,1905,1906,1105,0,0,0,0,0,0,0,0,0,0,0,0,2
404397774,404397774,8,45,0,0,20002,1550,1508,1504,1505,1105,1905,1905,1106,0,0,0,0,0,0,0,0,0,0,0,0,2
404601549,404601549,8,45,0,0,20002,1629,1508,1505,1506,1105,1905,1905,1105,0,0,0,0,0,0,0,0,0,0,0,0,2
404801541,404801541,8,45,0,0,20002,1622,1508,1504,1506,1105,1905,1905,1105,0,0,0,0,0,0,0,0,0,0,0,0,2
405013468,405013468,8,45,0,0,20002,1611,1508,1504,1505,1106,1905,1905,1105,0,0,0,0,0,0,0,0,0,0,0,0,2
405206316,405206316,8,45,0,0,20002,1612,1508,1504,1505,1105,1906,1905,1105,0,0,0,0,0,0,0,0,0,0,0,0,2
405422314,405422314,8,45,0,0,20002,1605,1508,1504,1505,1105,1905,1906,1105,0,0,0,0,0,0,0,0,0,0,0,0,2
405606371,405606371,8,45,0,0,20002,1600,1509,1504,1505,1105,1905,1905,1106,0,0,0,0,0,0,0,0,0,0,0,0,2
405818331,405818331,8,45,0,0,20002,1599,1508,1505,1505,1105,1905,1905,1105,0,0,0,0,0,0,0,0,0,0,0,0,2
406027128,406027128,8,45,0,0,20002,1591,1509,1504,1506,1105,1905,1905,1105,0,0,0,0,0,0,0,0,0,0,0,0,2
406223122,406223122,8,45,0,0,20002,1581,1508,1504,1505,1106,1905,1905,1105,0,0,0,0,0,0,0,0,0,0,0,0,2
406423109,406423109,8,45,0,0,20002,1557,1508,1504,1505,1105,1906,1905,1105,0,0,0,0,0,0,0,0,0,0,0,0,2
406631325,406631325,8,45,0,0,20002,1523,1508,1504,1504,1105,1905,1906,1105,0,0,0,0,0,0,0,0,0,0,0,0,2
406839748,406839748,8,45,0,0,20002,1500,1509,1504,1504,1105,1905,1905,1106,0,0,0,0,0,0,0,0,0,0,0,0,2
407048719,407048719,8,45,0,0,20002,1499,1508,1505,1505,1105,1905,1905,1105,0,0,0,0,0,0,0,0,0,0,0,0,2
407228935,407228935,8,45,0,0,20002,1499,1508,1504,1505,1105,1905,1905,1105,0,0,0,0,0,0,0,0,0,0,0,0,2
407444742,407444742,8,45,0,0,20002,1499,1508,1503,1505,1106,1905,1905,1105,0,0,0,0,0,0,0,0,0,0,0,0,2
407646343,407646343,8,45,0,0,20003,1499,1508,1504,1505,1105,1906,1905,1105,0,0,0,0,0,0,0,0,0,0,0,0,2
407842317,407842317,8,45,0,0,20002,1498,1508,1504,1505,1105,1905,1906,1105,0,0,0,0,0,0,0,0,0,0,0,0,2
408054287,408054287,8,45,0,0,20002,1500,1508,1504,1505,1105,1905,1906,1105,0,0,0,0,0,0,0,0,0,0,0,0,2
408254276,408254276,8,45,0,0,20002,1499,1509,1504,1505,1105,1905,1905,1105,0,0,0,0,0,0,0,0,0,0,0,0,2
408455925,408455925,8,45,0,0,20002,1604,1509,1505,1505,1105,1905,1905,1105,0,0,0,0,0,0,0,0,0,0,0,0,2
408663890,408663890,8,45,0,0,20002,1598,1508,1504,1505,1106,1905,1905,1105,0,0,0,0,0,0,0,0,0,0,0,0,2
408859932,408859932,8,45,0,0,20002,1598,1508,1504,1505,1105,1906,1905,1105,0,0,0,0,0,0,0,0,0,0,0,0,2
409077877,409077877,8,45,0,0,20002,1599,1508,1504,1505,1105,1906,1905,1105,0,0,0,0,0,0,0,0,0,0,0,0,2
409269522,409269522,8,45,0,0,20002,1599,1508,1504,1505,1105,1905,1905,1106,0,0,0,0,0,0,0,0,0,0,0,0,2
409473504,409473504,8,45,0,0,20002,1596,1508,1506,1505,1105,1905,1905,1105,0,0,0,0,0,0,0,0,0,0,0,0,2
409671349,409671349,8,45,0,0,20002,1595,1508,1504,1506,1105,1905,1905,1105,0,0,0,0,0,0,0,0,0,0,0,0,2
409871119,409871119,8,45,0,0,20002,1593,1508,1504,1505,1106,1905,1905,1105,0,0,0,0,0,0,0,0,0,0,0,0,2
410087110,410087110,8,45,0,0,20003,1582,1508,1504,1505,1105,1906,1905,1105,0,0,0,0,0,0,0,0,0,0,0,0,2
410283962,410283962,8,45,0,0,20002,1583,1508,1504,1504,1105,1905,1906,1105,0,0,0,0,0,0,0,0,0,0,0,0,2
410481499,410481499,8,45,0,0,20002,1557,1508,1504,1504,1105,1905,1905,1105,0,0,0,0,0,0,0,0,0,0,0,0,2
410680764,410680764,8,45,0,0,20002,1528,1508,1504,1505,1105,1905,1905,1105,0,0,0,0,0,0,0,0,0,0,0,0,2
410896755,410896755,8,45,0,0,20002,1498,1508,1504,1505,1106,1905,1905,1105,0,0,0,0,0,0,0,0,0,0,0,0,2
411086292,411086292,8,45,0,0,20002,1500,1508,1504,1503,1105,1905,1906,1105,0,0,0,0,0,0,0,0,0,0,0,0,2
411282352,411282352,8,45,0,0,20002,1499,1509,1504,1505,1105,1905,1905,1105,0,0,0,0,0,0,0,0,0,0,0,0,2
411482372,411482372,8,45,0,0,20002,1499,1508,1504,1505,1105,1905,1905,1105,0,0,0,0,0,0,0,0,0,0,0,0,2
411703988,411703988,8,45,0,0,20002,1498,1508,1504,1505,1106,1905,1905,1105,0,0,0,0,0,0,0,0,0,0,0,0,2
411883911,411883911,8,45,0,0,20002,1500,1508,1504,1505,1105,1905,1906,1105,0,0,0,0,0,0,0,0,0,0,0,0,2
412091120,412091120,8,45,0,0,20002,1502,1509,1504,1504,1105,1905,1905,1106,0,0,0,0,0,0,0,0,0,0,0,0,2
412295352,412295352,8,45,0,0,20002,1533,1508,1505,1504,1105,1905,1905,1105,0,0,0,0,0,0,0,0,0,0,0,0,2
412495900,412495900,8,45,0,0,20002,1584,1508,1504,1506,1105,1905,1905,1105,0,0,0,0,0,0,0,0,0,0,0,0,2
412696756,412696756,8,45,0,0,20003,1599,1508,1504,1505,1105,1906,1905,1105,0,0,0,0,0,0,0,0,0,0,0,0,2
412912756,412912756,8,45,0,0,20002,1600,1508,1504,1505,1105,1905,1906,1105,0,0,0,0,0,0,0,0,0,0,0,0,2
413116941,413116941,8,45,0,0,20002,1596,1509,1504,1505,1105,1905,1905,1105,0,0,0,0,0,0,0,0,0,0,0,0,2
413318574,413318574,8,45,0,0,20002,1589,1508,1504,1506,1105,1905,1905,1105,0,0,0,0,0,0,0,0,0,0,0,0,2
413522328,413522328,8,45,0,0,20002,1585,1508,1504,1505,1106,1905,1905,1105,0,0,0,0,0,0,0,0,0,0,0,0,2
413718908,413718908,8,45,0,0,20002,1586,1508,1504,1504,1105,1905,1906,1105,0,0,0,0,0,0,0,0,0,0,0,0,2
413916197,413916197,8,45,0,0,20002,1583,1509,1504,1504,1105,1905,1905,1106,0,0,0,0,0,0,0,0,0,0,0,0,2
414123915,414123915,8,45,0,0,20002,1579,1508,1528,1504,1105,1905,1905,1105,0,0,0,0,0,0,0,0,0,0,0,0,2
414315928,414315928,8,45,0,0,20002,1575,1509,1581,1504,1106,1905,1905,1105,0,0,0,0,0,0,0,0,0,0,0,0,2
414515947,414515947,8,45,0,0,20003,1569,1508,1576,1504,1105,1906,1905,1105,0,0,0,0,0,0,0,0,0,0,0,0,2
414733517,414733517,8,45,0,0,20002,1569,1508,1560,1504,1105,1905,1906,1105,0,0,0,0,0,0,0,0,0,0,0,0,2
414933528,414933528,8,45,0,0,20002,1569,1508,1550,1504,1105,1905,1905,1105,0,0,0,0,0,0,0,0,0,0,0,0,2
415133491,415133491,8,45,0,0,20002,1568,1508,1505,1505,1105,1905,1905,1105,0,0,0,0,0,0,0,0,0,0,0,0,2
415331129,415331129,8,45,0,0,20002,1568,1509,1505,1504,1105,1906,1905,1105,0,0,0,0,0,0,0,0,0,0,0,0,2
415535113,415535113,8,45,0,0,20002,1569,1508,1505,1504,1105,1905,1906,1105,0,0,0,0,0,0,0,0,0,0,0,0,2
415751109,415751109,8,45,0,0,20002,1565,1509,1505,1504,1105,1905,1905,1106,0,0,0,0,0,0,0,0,0,0,0,0,2
415953311,415953311,8,45,0,0,20002,1500,1508,1506,1505,1105,1905,1905,1105,0,0,0,0,0,0,0,0,0,0,0,0,2
416148769,416148769,8,45,0,0,20002,1497,1509,1505,1505,1106,1905,1905,1105,0,0,0,0,0,0,0,0,0,0,0,0,2
416352759,416352759,8,45,0,0,20002,1497,1508,1505,1505,1105,1906,1905,1105,0,0,0,0,0,0,0,0,0,0,0,0,2
416548791,416548791,8,45,0,0,20002,1499,1508,1505,1505,1105,1905,1906,1105,0,0,0,0,0,0,0,0,0,0,0,0,2
416765515,416765515,8,45,0,0,20002,1498,1509,1505,1505,1105,1905,1905,1106,0,0,0,0,0,0,0,0,0,0,0,0,2
416965556,416965556,8,45,0,0,20002,1498,1508,1506,1505,1105,1905,1905,1105,0,0,0,0,0,0,0,0,0,0,0,0,2
417169525,417169525,8,45,0,0,20002,1499,1508,1505,1504,1106,1905,1905,1105,0,0,0,0,0,0,0,0,0,0,0,0,2
417373504,417373504,8,45,0,0,20003,1501,1508,1505,1504,1105,1906,1905,1105,0,0,0,0,0,0,0,0,0,0,0,0,2
417571170,417571170,8,45,0,0,20002,1515,1508,1505,1504,1105,1905,1906,1105,0,0,0,0,0,0,0,0,0,0,0,0,2
417771155,417771155,8,45,0,0,20002,1555,1508,1506,1504,1105,1905,1905,1105,0,0,0,0,0,0,0,0,0,0,0,0,2
417975160,417975160,8,45,0,0,20002,1553,1508,1505,1505,1105,1905,1905,1105,0,0,0,0,0,0,0,0,0,0,0,0,2
418172727,418172727,8,45,0,0,20002,1618,1508,1505,1506,1105,1906,1905,1105,0,0,0,0,0,0,0,0,0,0,0,0,2
418376899,418376899,8,45,0,0,20002,1623,1508,1505,1505,1105,1906,1905,1105,0,0,0,0,0,0,0,0,0,0,0,0,2
418576721,418576721,8,45,0,0,20002,1618,1508,1505,1506,1105,1905,1905,1106,0,0,0,0,0,0,0,0,0,0,0,0,2
418784762,418784762,8,45,0,0,20002,1612,1508,1506,1505,1105,1905,1905,1105,0,0,0,0,0,0,0,0,0,0,0,0,2
418986569,418986569,8,45,0,0,20002,1606,1508,1505,1506,1105,1905,1905,1105,0,0,0,0,0,0,0,0,0,0,0,0,2
419195153,419195153,8,45,0,0,20002,1605,1508,1505,1505,1106,1905,1905,1105,0,0,0,0,0,0,0,0,0,0,0,0,2
419390290,419390290,8,45,0,0,20002,1600,1508,1505,1505,1105,1905,1906,1105,0,0,0,0,0,0,0,0,0,0,0,0,2
419592178,419592178,8,45,0,0,20002,1560,1509,1505,1505,1105,1905,1905,1106,0,0,0,0,0,0,0,0,0,0,0,0,2
419787129,419787129,8,45,0,0,20002,1500,1508,1506,1504,1105,1905,1905,1105,0,0,0,0,0,0,0,0,0,0,0,0,2
420007167,420007167,8,45,0,0,20002,1499,1508,1505,1506,1105,1905,1905,1105,0,0,0,0,0,0,0,0,0,0,0,0,2
420207099,420207099,8,45,0,0,20002,1499,1508,1505,1505,1105,1906,1905,1105,0,0,0,0,0,0,0,0,0,0,0,0,2
420408733,420408733,8,45,0,0,20002,1500,1508,1505,1505,1105,1905,1906,1105,0,0,0,0,0,0,0,0,0,0,0,0,2
420608765,420608765,8,45,0,0,20002,1499,1509,1505,1502,1105,1905,1905,1106,0,0,0,0,0,0,0,0,0,0,0,0,2
420817475,420817475,8,45,0,0,20002,1523,1508,1506,1503,1105,1905,1905,1105,0,0,0,0,0,0,0,0,0,0,0,0,2
421009031,421009031,8,45,0,0,20002,1566,1508,1505,1504,1106,1905,1905,1105,0,0,0,0,0,0,0,0,0,0,0,0,2
421214320,421214320,8,45,0,0,20002,1655,1508,1505,1505,1105,1906,1905,1105,0,0,0,0,0,0,0,0,0,0,0,0,2
421418352,421418352,8,45,0,0,20002,1655,1508,1505,1505,1105,1905,1906,1105,0,0,0,0,0,0,0,0,0,0,0,0,2
421614301,421614301,8,45,0,0,20002,1651,1509,1505,1504,1105,1905,1905,1105,0,0,0,0,0,0,0,0,0,0,0,0,2
421827915,421827915,8,45,0,0,20002,1632,1508,1506,1504,1105,1905,1905,1105,0,0,0,0,0,0,0,0,0,0,0,0,2
422031923,422031923,8,45,0,0,20002,1589,1508,1505,1505,1105,1905,1905,1105,0,0,0,0,0,0,0,0,0,0,0,0,2
422219897,422219897,8,45,0,0,20003,1505,1508,1505,1504,1105,1906,1905,1105,0,0,0,0,0,0,0,0,0,0,0,0,2
422440729,422440729,8,45,0,0,20002,1499,1508,1505,1505,1105,1905,1906,1105,0,0,0,0,0,0,0,0,0,0,0,0,2
422632740,422632740,8,45,0,0,20002,1498,1509,1505,1505,1105,1905,1905,1106,0,0,0,0,0,0,0,0,0,0,0,0,2
422832896,422832896,8,45,0,0,20002,1498,1508,1506,1505,1105,1905,1905,1105,0,0,0,0,0,0,0,0,0,0,0,0,2
423048732,423048732,8,45,0,0,20002,1499,1508,1505,1506,1105,1905,1905,1105,0,0,0,0,0,0,0,0,0,0,0,0,2
423245765,423245765,8,45,0,0,20002,1511,1508,1505,1504,1105,1906,1905,1105,0,0,0,0,0,0,0,0,0,0,0,0,2
423438356,423438356,8,45,0,0,20002,1526,1508,1505,1504,1105,1905,1906,1105,0,0,0,0,0,0,0,0,0,0,0,0,2
423638513,423638513,8,45,0,0,20002,1568,1509,1505,1504,1105,1905,1905,1106,0,0,0,0,0,0,0,0,0,0,0,0,2
423839083,423839083,8,45,0,0,20002,1597,1508,1506,1504,1105,1905,1905,1105,0,0,0,0,0,0,0,0,0,0,0,0,2
424059194,424059194,8,45,0,0,20002,1597,1508,1505,1505,1105,1905,1905,1105,0,0,0,0,0,0,0,0,0,0,0,0,2
424263107,424263107,8,45,0,0,20002,1597,1508,1505,1504,1106,1905,1905,1105,0,0,0,0,0,0,0,0,0,0,0,0,2
424451776,424451776,8,45,0,0,20002,1590,1508,1505,1505,1105,1905,1906,1105,0,0,0,0,0,0,0,0,0,0,0,0,2
424647112,424647112,8,45,0,0,20002,1589,1509,1505,1504,1105,1905,1905,1106,0,0,0,0,0,0,0,0,0,0,0,0,2
424868924,424868924,8,45,0,0,20002,1589,1509,1505,1504,1105,1905,1905,1105,0,0,0,0,0,0,0,0,0,0,0,0,2
425068759,425068759,8,45,0,0,20002,1588,1508,1505,1505,1105,1905,1905,1105,0,0,0,0,0,0,0,0,0,0,0,0,2
425272708,425272708,8,45,0,0,20002,1573,1508,1505,1504,1106,1905,1905,1105,0,0,0,0,0,0,0,0,0,0,0,0,2
425477516,425477516,8,45,0,0,20003,1500,1508,1505,1505,1105,1906,1905,1105,0,0,0,0,0,0,0,0,0,0,0,0,2
425666354,425666354,8,45,0,0,20002,1500,1508,1505,1507,1105,1905,1906,1105,0,0,0,0,0,0,0,0,0,0,0,0,2
425870318,425870318,8,45,0,0,20002,1500,1509,1505,1598,1105,1905,1905,1105,0,0,0,0,0,0,0,0,0,0,0,0,2
426066300,426066300,8,45,0,0,20002,1504,1508,1505,1630,1105,1905,1905,1105,0,0,0,0,0,0,0,0,0,0,0,0,2
426284743,426284743,8,45,0,0,20002,1501,1508,1505,1580,1105,1905,1905,1105,0,0,0,0,0,0,0,0,0,0,0,0,2
426464496,426464496,8,45,0,0,20003,1502,1508,1505,1303,1105,1906,1905,1105,0,0,0,0,0,0,0,0,0,0,0,0,2
426667946,426667946,8,45,0,0,20002,1508,1508,1505,1227,1105,1905,1906,1105,0,0,0,0,0,0,0,0,0,0,0,0,2
426884761,426884761,8,45,0,0,20002,1576,1509,1505,1293,1105,1905,1905,1106,0,0,0,0,0,0,0,0,0,0,0,0,2
427088750,427088750,8,45,0,0,20002,1647,1508,1506,1411,1105,1905,1905,1105,0,0,0,0,0,0,0,0,0,0,0,0,2
427280756,427280756,8,45,0,0,20002,1701,1508,1505,1470,1105,1905,1905,1105,0,0,0,0,0,0,0,0,0,0,0,0,2
427496744,427496744,8,45,0,0,20002,1570,1508,1505,1503,1106,1905,1905,1105,0,0,0,0,0,0,0,0,0,0,0,0,2
427694314,427694314,8,45,0,0,20002,1509,1508,1654,1503,1105,1905,1906,1105,0,0,0,0,0,0,0,0,0,0,0,0,2
427898366,427898366,8,45,0,0,20002,1500,1509,1623,1505,1105,1905,1906,1105,0,0,0,0,0,0,0,0,0,0,0,0,2
428110352,428110352,8,45,0,0,20002,1498,1510,1684,1505,1105,1905,1905,1105,0,0,0,0,0,0,0,0,0,0,0,0,2
428310617,428310617,8,45,0,0,20002,1499,1508,1724,1504,1105,1905,1905,1105,0,0,0,0,0,0,0,0,0,0,0,0,2
428495131,428495131,8,45,0,0,20002,1511,1508,1709,1503,1106,1905,1905,1105,0,0,0,0,0,0,0,0,0,0,0,0,2
428711123,428711123,8,45,0,0,20003,1627,1508,1691,1504,1105,1906,1905,1105,0,0,0,0,0,0,0,0,0,0,0,0,2
429914316,429914316,8,45,0,0,20002,1601,1509,1504,1504,1105,1905,1906,1105,0,0,0,0,0,0,0,0,0,0,0,0,2
430118356,430118356,8,45,0,0,20002,1499,1509,1504,1506,1105,1905,1906,1105,0,0,0,0,0,0,0,0,0,0,0,0,2
430310515,430310515,8,45,0,0,20002,1498,1509,1505,1505,1105,1905,1905,1105,0,0,0,0,0,0,0,0,0,0,0,0,2
430514315,430514315,8,45,0,0,20002,1498,1509,1504,1506,1105,1905,1905,1105,0,0,0,0,0,0,0,0,0,0,0,0,2
430740149,430740149,8,45,0,0,20002,1498,1509,1504,1506,1105,1905,1905,1105,0,0,0,0,0,0,0,0,0,0,0,0,2
430923963,430923963,8,45,0,0,20002,1498,1509,1504,1505,1105,1906,1905,1105,0,0,0,0,0,0,0,0,0,0,0,0,2
431127937,431127937,8,45,0,0,20002,1499,1509,1504,1505,1105,1905,1906,1105,0,0,0,0,0,0,0,0,0,0,0,0,2
431333562,431333562,8,45,0,0,20002,1498,1509,1504,1505,1105,1905,1905,1106,0,0,0,0,0,0,0,0,0,0,0,0,2
431537759,431537759,8,45,0,0,20002,1500,1510,1505,1504,1105,1905,1905,1105,0,0,0,0,0,0,0,0,0,0,0,0,2
431749794,431749794,8,45,0,0,20002,1522,1509,1505,1503,1105,1905,1905,1105,0,0,0,0,0,0,0,0,0,0,0,0,2
431951389,431951389,8,45,0,0,20002,1559,1509,1504,1503,1106,1905,1905,1105,0,0,0,0,0,0,0,0,0,0,0,0,2
432139127,432139127,8,45,0,0,20003,1605,1509,1504,1503,1105,1906,1905,1105,0,0,0,0,0,0,0,0,0,0,0,0,2
432359145,432359145,8,45,0,0,20002,1592,1508,1504,1503,1105,1906,1905,1105,0,0,0,0,0,0,0,0,0,0,0,0,2
432548735,432548735,8,45,0,0,20002,1591,1510,1504,1502,1105,1905,1905,1106,0,0,0,0,0,0,0,0,0,0,0,0,2
432756728,432756728,8,45,0,0,20002,1576,1510,1504,1500,1105,1905,1905,1105,0,0,0,0,0,0,0,0,0,0,0,0,2
432956722,432956722,8,45,0,0,20002,1573,1509,1505,1505,1105,1905,1905,1105,0,0,0,0,0,0,0,0,0,0,0,0,2
433144739,433144739,8,45,0,0,20002,1550,1508,1504,1504,1106,1905,1905,1105,0,0,0,0,0,0,0,0,0,0,0,0,2
433358608,433358608,8,45,0,0,20003,1578,1509,1504,1504,1105,1906,1905,1105,0,0,0,0,0,0,0,0,0,0,0,0,2
433562322,433562322,8,45,0,0,20002,1585,1508,1505,1503,1105,1905,1906,1105,0,0,0,0,0,0,0,0,0,0,0,0,2
433762561,433762561,8,45,0,0,20002,1584,1510,1505,1503,1105,1905,1905,1106,0,0,0,0,0,0,0,0,0,0,0,0,2
433964180,433964180,8,45,0,0,20002,1582,1508,1506,1503,1105,1905,1905,1105,0,0,0,0,0,0,0,0,0,0,0,0,2
434167931,434167931,8,45,0,0,20002,1582,1509,1504,1504,1105,1905,1905,1105,0,0,0,0,0,0,0,0,0,0,0,0,2
434363949,434363949,8,45,0,0,20002,1582,1509,1505,1503,1106,1905,1905,1105,0,0,0,0,0,0,0,0,0,0,0,0,2
434569556,434569556,8,45,0,0,20003,1582,1508,1505,1503,1105,1906,1905,1105,0,0,0,0,0,0,0,0,0,0,0,0,2
434785567,434785567,8,45,0,0,20002,1582,1509,1505,1503,1105,1905,1906,1105,0,0,0,0,0,0,0,0,0,0,0,0,2
434985492,434985492,8,45,0,0,20002,1536,1509,1505,1503,1105,1905,1905,1106,0,0,0,0,0,0,0,0,0,0,0,0,2
435182552,435182552,8,45,0,0,20002,1499,1509,1506,1505,1105,1905,1905,1105,0,0,0,0,0,0,0,0,0,0,0,0,2
