timestamp,roll,pitch,yaw,thrust
310021058,-0.12834615,-0.04634718,-0.0006431831,0.08
310082648,-0.12834516,-0.046422593,-0.0007562687,0.08
310114649,-0.12843533,-0.046162773,-0.0008273657,0.08
310146599,-0.12855701,-0.0460761,-0.0009848401,0.08
310174696,-0.1284525,-0.046150144,-0.0010686568,0.08
310206606,-0.12839633,-0.04617564,-0.0011263028,0.08
310238605,-0.12831445,-0.046267632,-0.0012317542,0.08
310270655,-0.12836587,-0.046414267,-0.0013019433,0.08
310303427,-0.12825662,-0.046358187,-0.0013026706,0.08
310335461,-0.12818101,-0.046336967,-0.0014448455,0.08
310367445,-0.1281055,-0.04638718,-0.001587393,0.08
310395433,-0.12817314,-0.046342034,-0.0017444788,0.08
310427394,-0.12819435,-0.046406038,-0.0024379073,0.08
310459438,-0.12822998,-0.04658495,-0.0027273546,0.08
310491449,-0.12826791,-0.046716735,-0.0022253918,0.08
310523432,-0.12825711,-0.046863616,-0.0014839452,0.08
310555410,-0.12813653,-0.046846047,-0.0013948523,0.08
310587494,-0.12825562,-0.047010824,-0.0019641405,0.08
310619464,-0.12838183,-0.047146417,-0.0026884722,0.08
310651465,-0.12858362,-0.04702933,-0.0023579784,0.08
310683407,-0.12868494,-0.047006536,-0.0016769065,0.08
310717045,-0.12852633,-0.047045935,-0.0014274325,0.08
310745011,-0.12857336,-0.046878725,-0.0019608825,0.08
310776998,-0.12886737,-0.047042165,-0.0027388632,0.08
310809073,-0.12868072,-0.046914317,-0.002877568,0.08
310841044,-0.1281312,-0.04660171,-0.002299929,0.08
310873020,-0.12836343,-0.046811398,-0.0018776105,0.08
310905005,-0.1289477,-0.046970915,-0.0021743749,0.08
310937097,-0.12867008,-0.046672978,-0.0027835765,0.08
310969043,-0.12799025,-0.04647918,-0.002926232,0.08
311001050,-0.12841173,-0.046965256,-0.0026170306,0.08
311033003,-0.12912816,-0.047194205,-0.0022496532,0.08
311065062,-0.12889212,-0.047090277,-0.00225455,0.08
311097020,-0.12842882,-0.04733245,-0.0025852355,0.08
311129002,-0.12863004,-0.04795544,-0.002862502,0.08
311160975,-0.1289851,-0.04746418,-0.0026997887,0.08
311193007,-0.12885241,-0.047141816,-0.0022899988,0.08
311225010,-0.12854639,-0.04796845,-0.002224739,0.08
311256997,-0.1284342,-0.04806066,-0.0024730675,0.08
311288997,-0.12859206,-0.04748547,-0.0024665208,0.08
311321007,-0.12897955,-0.047966152,-0.0023994697,0.08
311353032,-0.12904039,-0.04852238,-0.0023409436,0.08
311384998,-0.12857947,-0.04788968,-0.0021352833,0.08
311417059,-0.12846419,-0.0474806,-0.0020410777,0.08
311450604,-0.12908329,-0.048476648,-0.0023169508,0.08
311482600,-0.12873392,-0.048181344,-0.0024211083,0.08
311514663,-0.12843183,-0.04736199,-0.0021914197,0.08
311546598,-0.12854868,-0.048502862,-0.00201928,0.08
311578657,-0.12898575,-0.04865297,-0.002043685,0.08
311610658,-0.12876612,-0.04762247,-0.0021401872,0.08
311642758,-0.12847663,-0.047921613,-0.0022770811,0.08
311674616,-0.12822238,-0.049045075,-0.0022643732,0.08
311706632,-0.12861891,-0.047858734,-0.0019609188,0.08
311738632,-0.12878568,-0.047565863,-0.0017967412,0.08175495
311770706,-0.12878172,-0.04896606,-0.0020716765,0.09499401
311798631,-0.12868077,-0.04885179,-0.0022400229,0.09873681
311830694,-0.1285441,-0.047643203,-0.0020089105,0.0989731
311862705,-0.12930752,-0.048467223,-0.0018384286,0.099499546
311894669,-0.1291623,-0.049146533,-0.0018598805,0.10082051
311926622,-0.12859966,-0.04784289,-0.0018394694,0.10251025
311958697,-0.12871705,-0.047852926,-0.0018985478,0.10307902
311990600,-0.1293878,-0.04916398,-0.0020428146,0.11502485
312022649,-0.12949386,-0.04824865,-0.0019569832,0.12859981
312054619,-0.12883243,-0.04762551,-0.0014402112,0.14199404
312082635,-0.12790611,-0.04845283,-0.0012112336,0.15489385
312114632,-0.12618256,-0.048334558,-0.0025309173,0.15605627
312146672,-0.12509273,-0.04747613,-0.0031000345,0.15727575
312178609,-0.124747016,-0.047920164,-0.0023519206,0.15898281
312212226,-0.12538575,-0.048123505,-0.0016068856,0.16052707
312244262,-0.12532726,-0.047443837,-0.0014348755,0.16885988
312276235,-0.124098964,-0.047548793,-0.0013680526,0.17289451
312308290,-0.12467557,-0.048978604,-0.0018552319,0.18079332
312340198,-0.12564316,-0.04789214,-0.0022527091,0.18248999
312372205,-0.12512192,-0.04747409,-0.0022755747,0.18221755
312404252,-0.12453847,-0.048470758,-0.0019548426,0.18284087
312436227,-0.12440207,-0.04861712,-0.0017450212,0.1867719
312468213,-0.12534294,-0.047255244,-0.0018513978,0.1920637
312500199,-0.12514769,-0.04765129,-0.0020370285,0.20781304
312532231,-0.123203866,-0.04816552,-0.0022176595,0.2107226
312564239,-0.12195752,-0.047374424,-0.002366092,0.20961471
312596223,-0.12308574,-0.047394134,-0.002272346,0.20964684
312628219,-0.12408992,-0.048228938,-0.0023195092,0.2104568
312660249,-0.12130552,-0.047188647,-0.0023365868,0.21160078
312692233,-0.12115965,-0.047693063,-0.0023682246,0.21082771
312724240,-0.12400696,-0.047929093,-0.002280413,0.20941547
312756185,-0.124153055,-0.047587454,-0.0024314912,0.20944852
312788238,-0.122084774,-0.047841083,-0.0026659004,0.20957425
312820204,-0.12216542,-0.04745835,-0.0027866093,0.20956615
312852417,-0.12394988,-0.04731277,-0.0025914635,0.2097768
312884191,-0.122880094,-0.04753925,-0.0025237692,0.21384062
312916280,-0.12147549,-0.04807319,-0.0027916827,0.21543077
312949049,-0.12077665,-0.047675505,-0.003031061,0.2148271
312981859,-0.12135352,-0.04727594,-0.003010341,0.2156927
313009868,-0.12104364,-0.047686137,-0.0028730808,0.217363
313041857,-0.12031084,-0.04785599,-0.002700156,0.2184987
313073857,-0.119959384,-0.047860242,-0.0026821315,0.22697048
313105810,-0.12035895,-0.047886852,-0.0029048647,0.23227182
313137884,-0.121076435,-0.04842144,-0.0030099934,0.23806752
313169845,-0.11929572,-0.048255056,-0.0030576873,0.23995814
313201828,-0.12010525,-0.048169687,-0.0028841146,0.24241036
313233786,-0.12013176,-0.049242426,-0.0027323572,0.24750452
313261838,-0.119130254,-0.047872085,-0.0025749954,0.24837786
313293800,-0.11403273,-0.047050923,-0.0022399446,0.24893862
313325873,-0.109722786,-0.048748225,-0.0018664864,0.25021845
313357862,-0.10560876,-0.04797085,-0.0010200273,0.25073758
313389839,-0.10248038,-0.047583316,-9.5002295e-05,0.25104207
313421797,-0.09764908,-0.048806455,0.00041786168,0.25098693
313453874,-0.09627532,-0.05023605,0.00037643945,0.2534046
313485851,-0.095660016,-0.05544381,0.00037741597,0.25613198
313517872,-0.081345275,-0.07388355,0.00033605646,0.25920403
313549800,-0.03925356,-0.121401906,0.0006917154,0.26366523
313581893,-0.0029064817,-0.15419759,0.0009758819,0.26495463
313613824,0.03283557,-0.17970663,0.0014999544,0.2698848
313645815,0.04193045,-0.19266981,0.0017027614,0.27394444
313677827,0.047991805,-0.19567834,0.0017851838,0.28098613
313707406,0.054744232,-0.19408959,0.0016305238,0.2962455
313739530,0.0488346,-0.19111483,0.0016135826,0.29796216
313771397,0.060709264,-0.1981618,0.0018837292,0.2995675
313803487,0.058997773,-0.1958735,0.0017364116,0.30081832
313835397,0.07260649,-0.2068647,0.00252147,0.31267267
313867483,0.08730189,-0.21310458,0.0029460837,0.3202594
313899394,0.09777179,-0.22766425,0.003750477,0.32269886
313931442,0.11309965,-0.23554286,0.0044163708,0.32167014
313963453,0.12367899,-0.24389721,0.0048945965,0.32162428
313995394,0.14476363,-0.2793576,0.005151373,0.3216665
314027412,0.19920687,-0.32477096,0.005796975,0.3217972
314059440,0.24254534,-0.355831,0.0064724423,0.32291552
314091461,0.24139625,-0.35728225,0.0065220203,0.323257
314119525,0.24442533,-0.35801202,0.0069397525,0.32326508
314151399,0.24648072,-0.36322948,0.0074444357,0.32265618
314183402,0.24940903,-0.37193394,0.007500811,0.32324946
314215406,0.2595659,-0.37563044,0.007721915,0.33261025
314247452,0.25817993,-0.37426934,0.008017152,0.34056342
314279466,0.25758713,-0.3818435,0.007874873,0.34553078
314311413,0.28098777,-0.40236765,0.008140053,0.34679893
314343439,0.28790677,-0.41121435,0.008548089,0.3472723
314371403,0.28706107,-0.42199484,0.00889388,0.34786397
314403438,0.3049288,-0.43568826,0.009357428,0.35219342
314436435,0.30739915,-0.43785608,0.008398611,0.36002642
314469036,0.31142774,-0.44748396,0.007669132,0.37520826
314497047,0.3145286,-0.44470584,0.00785616,0.37699312
314529066,0.3102593,-0.44685695,0.008726146,0.3778783
314561006,0.3137001,-0.45732874,0.01011395,0.3803804
314593056,0.31989023,-0.45711988,0.010359743,0.39696017
314625031,0.31509167,-0.45315066,0.010889623,0.40838507
314657091,0.31234646,-0.46290928,0.010663736,0.42569855
314689060,0.31863105,-0.46542615,0.010946898,0.42742476
314721006,0.32758534,-0.4659912,0.010948451,0.42637706
314753012,0.31172225,-0.44805774,0.010814438,0.42703158
314781024,0.30121928,-0.44280514,0.011864168,0.42866194
314813028,0.2840584,-0.4383926,0.010867476,0.4308912
314844977,0.31107873,-0.45736876,0.009947973,0.43730214
314876977,0.33480754,-0.45409307,0.008753067,0.43955734
314908992,0.3522473,-0.46439305,0.009465722,0.44567224
314941039,0.3684057,-0.46500784,0.010776208,0.453769
314973024,0.35638776,-0.44460127,0.011854788,0.45595816
315005007,0.33297652,-0.4199582,0.013837879,0.4583372
315354666,0.015241961,0.11813597,-0.0061770338,0.49447367
315382666,0.025997214,0.12176433,-0.008523248,0.49410674
315414608,-0.013983247,0.16528447,-0.010270999,0.49413973
315446623,-0.030272033,0.21813448,-0.0125705935,0.4941679
315478657,-0.16455834,0.3216279,-0.014511648,0.49437955
315510607,-0.16906336,0.31008682,-0.014362771,0.49489745
315542627,-0.12777312,0.2832761,-0.014295,0.4952664
315574606,-0.10380843,0.2559005,-0.013829616,0.49304837
315606672,-0.088000156,0.21360165,-0.012102591,0.48782158
315634661,-0.07334719,0.20513995,-0.011729415,0.48611197
315666627,-0.04530885,0.1883199,-0.01155936,0.4948851
315698603,-0.042011585,0.2170983,-0.012095958,0.49554917
315730631,-0.08235688,0.27565894,-0.01373554,0.4949695
315762607,-0.26327705,0.4285789,-0.014092575,0.49483094
315794637,-0.24386641,0.37024388,-0.014978627,0.49541312
315826605,-0.1938049,0.31984586,-0.01576494,0.4958073
315858616,-0.12939787,0.18374945,-0.016894387,0.4952537
315890659,0.110885546,-0.03462063,-0.017406633,0.4951553
315923483,0.26637217,-0.13815027,-0.01692585,0.49670115
315956246,0.28676316,-0.16949564,-0.016697899,0.49744317
315988233,0.29038557,-0.15570913,-0.017335448,0.49772683
316020263,0.26240614,-0.09120218,-0.018996922,0.4984361
316048209,0.19463776,-0.021024272,-0.020183327,0.4995699
316080202,0.12879118,0.04406759,-0.02200286,0.50304806
316112228,0.05282022,0.10446677,-0.02283819,0.50815064
316144256,0.017242962,0.12040472,-0.023245234,0.50796556
316176212,0.0014103255,0.13536324,-0.024187962,0.5072608
316208200,-0.0013237878,0.13646439,-0.02593276,0.5071984
316240476,0.023192761,0.10317869,-0.025989002,0.50798947
316272297,0.049610138,0.08570938,-0.025185976,0.5074379
316304210,0.04409314,0.09161815,-0.02515818,0.50903535
316336259,0.028674705,0.09036997,-0.02420135,0.51524955
316368251,0.033260304,0.10464801,-0.021843795,0.5308758
316400289,0.018249046,0.13601972,-0.020152865,0.5322056
316432177,-0.08755374,0.27039522,-0.02013007,0.5349497
316464233,-0.1376426,0.3032894,-0.017928068,0.53789073
316496212,-0.15426384,0.31520802,-0.015981343,0.53954095
316528264,-0.21321128,0.3575461,-0.013018909,0.5397184
316560178,-0.20868261,0.33514217,-0.010930201,0.5397306
316592177,-0.17737526,0.30760652,-0.0091353655,0.5420501
316624220,-0.13410324,0.2582631,-0.007903033,0.5425333
316656279,-0.10031529,0.22264656,-0.006766861,0.54236245
316685882,-0.058225304,0.18669668,-0.006626875,0.5428531
316717875,-0.026404427,0.14953692,-0.0069145174,0.5441093
316749891,-0.014602869,0.12720773,-0.0070143254,0.5434929
316781851,0.0016384801,0.11832288,-0.007365151,0.54199195
316813819,0.013720782,0.1007484,-0.007992905,0.5413688
316845811,0.021350136,0.079388335,-0.0090261465,0.5410141
316877891,0.028892858,0.074084885,-0.010277015,0.5410712
316909780,0.03448594,0.07959178,-0.011701092,0.5410974
316941779,0.03127537,0.07127557,-0.01307632,0.5419677
316973809,0.032194424,0.060626686,-0.01427743,0.54240465
317005839,0.034861427,0.05106917,-0.015585244,0.54149604
317037825,0.034445718,0.04050958,-0.016252039,0.54098356
317069808,0.03627625,0.037159946,-0.017892735,0.5410614
317097837,0.03741642,0.04034798,-0.019190967,0.5410962
317129843,0.036070194,0.042233538,-0.020823589,0.54108846
317161833,0.02905421,0.04022677,-0.02206386,0.54108644
317193842,0.026212059,0.037265368,-0.0234811,0.54108715
317225808,0.026139216,0.033105984,-0.025130495,0.5402073
317257839,0.025632532,0.024200846,-0.027161676,0.5397685
317289832,0.02087098,0.02102998,-0.029077929,0.53979844
317321869,0.019278275,0.019854922,-0.030012872,0.5398326
317349849,0.023572017,0.016243204,-0.030496404,0.5395702
317381863,0.027434122,0.011762855,-0.030855183,0.5393832
317414600,0.027234318,0.01255484,-0.030791184,0.5400425
317447394,0.023820218,0.013635891,-0.030235857,0.5411759
317479490,0.025056843,0.012494161,-0.029950518,0.5409202
317507434,0.028929213,0.0114968745,-0.029589588,0.5402246
317539449,0.02847672,0.0074316654,-0.02882804,0.53971976
317571453,0.028791636,0.008090346,-0.027987236,0.53979784
317603442,0.028025413,0.008626489,-0.026630398,0.5400931
317635409,0.027228309,0.011969287,-0.026116448,0.540443
317667474,0.028806664,0.011482824,-0.024578148,0.5407432
317699431,0.03078035,0.008386112,-0.02368708,0.5410708
317731514,0.030442879,0.010003284,-0.022424178,0.54023314
317759482,0.024899423,0.014131445,-0.021737006,0.5397661
317791440,0.023801772,0.009375752,-0.021028358,0.53972167
317823400,0.022060893,0.0037518092,-0.02000555,0.54009426
317855479,0.02289416,0.010278257,-0.019350596,0.5407118
317887445,0.023616442,0.015679885,-0.018643156,0.54232246
317919459,0.020919463,0.01085799,-0.017780514,0.54304856
317951418,0.020346764,0.011088802,-0.017271508,0.54261476
317983410,0.02124636,0.010255148,-0.016608175,0.5423535
318011430,0.026126591,0.013995427,-0.015723186,0.5432456
318043497,0.026063845,0.013477491,-0.015372053,0.5422983
318075437,0.024167651,0.01011848,-0.014719422,0.54305065
318107424,0.021583943,0.011387299,-0.014055156,0.5436649
318139382,0.0251445,0.017602073,-0.01322661,0.5454136
318168217,0.025685929,0.01355505,-0.012832124,0.54650295
318201034,0.025155697,0.014597769,-0.012175391,0.54689103
318232998,0.02489655,0.020136774,-0.012118403,0.5470473
318265067,0.026031027,0.024228752,-0.011799341,0.54789853
318297052,0.024956688,0.019426513,-0.011312839,0.553497
318329050,0.024625786,0.011107725,-0.01129861,0.56117684
318361001,0.024080167,0.011010934,-0.011243913,0.5646212
318393062,0.02182345,0.009454861,-0.011093675,0.57020646
319282651,0.010419055,0.002428738,-0.0064939293,0.5492891
319314636,0.010744351,0.009427446,-0.006298234,0.5333596
319346600,0.012060242,0.01622158,-0.006150527,0.506114
319378630,0.010932842,0.018842753,-0.005825967,0.4978192
319410642,0.0041662524,0.011673679,-0.005220282,0.49621418
319442626,0.008831697,0.013447873,-0.004999843,0.49737787
319470646,0.0115593085,0.008814459,-0.0048967795,0.49745724
319502654,0.0068295817,0.0002670775,-0.00415439,0.4973802
319534616,0.006940599,0.007899569,-0.0045274165,0.49733493
319566614,0.0039858194,0.014095921,-0.0044449014,0.49734312
319598622,0.0066257557,0.017069198,-0.0042177453,0.4971266
319630657,0.0042167753,0.006698259,-0.0040404378,0.49660602
319660214,0.0007350488,0.012440935,-0.003838685,0.49623734
319692242,-0.0035252478,-0.0023387675,-0.004104047,0.49626258
319724253,4.603944e-05,0.011439051,-0.0041635116,0.49629128
319756215,0.00313628,0.0043071294,-0.00342418,0.4962842
319788200,-0.0027234382,0.0052295425,-0.0034443634,0.4962822
319820235,-0.0006500891,0.0042898417,-0.0040440527,0.49628317
319852258,-0.0012199404,0.015050922,-0.0039373934,0.49606392
319884217,-0.0014605256,0.013953696,-0.004778993,0.49517554
319916208,-0.000861853,0.016472125,-0.004725021,0.49514112
319948276,-0.0024555384,0.016447192,-0.0048580933,0.4952293
319980263,-0.006737479,0.017647022,-0.0047446745,0.49522826
320012245,-0.0068075815,0.014778413,-0.0038965077,0.49522227
320044208,-0.007702697,0.018399071,-0.004859385,0.49595985
320076257,-0.006539083,0.022116588,-0.0055497275,0.4963289
320108241,-0.0040263254,0.013059172,-0.005118154,0.49556476
320140224,0.002173608,0.028145524,-0.0045528584,0.4951675
320172181,-0.0027145864,0.020509839,-0.003991627,0.4951996
320204255,-0.022361474,0.011561451,-0.004001132,0.49523032
320236203,-0.021675212,0.01296232,-0.004036767,0.49522886
320268331,-0.017926378,0.01697234,-0.003473067,0.49543953
320300217,-0.020613506,0.01567664,-0.0032674742,0.49574047
320332226,-0.017546363,0.00674264,-0.00303906,0.49577555
320364230,-0.008720036,0.0124509465,-0.0020978278,0.49553034
320397871,-0.008093404,0.009240883,-0.0017850883,0.4954463
320429817,-0.012067495,0.0071027083,-0.0011569107,0.49578643
320461810,-0.013004951,0.005092384,-0.0013078139,0.4957785
320493772,-0.01563977,0.005286524,-0.0008119909,0.49522838
320525821,-0.011340868,4.952069e-05,1.5614201e-05,0.49538168
320557808,-0.00575405,0.0026416918,-0.0012015959,0.4961125
320589789,-0.0066319467,0.011287508,-0.0010692484,0.49562976
320621773,-0.0069199633,-0.003907955,-0.0016985072,0.49513254
320653885,-0.0099462345,0.012032758,-0.002424376,0.49519306
320685801,0.0036440128,0.02025144,-0.0022827822,0.49522933
320717877,0.0004596366,0.0058106957,-0.0019859646,0.4954422
320749796,-0.0074315798,0.0026847166,-0.0012975895,0.4963282
320781872,-0.003415079,0.002740814,-0.0016350565,0.49658257
320813794,0.0021502695,0.012727116,-0.0020963713,0.49716347
320845837,0.00011682065,0.009871377,-0.0029151847,0.496679
320877856,-0.0011771411,0.023130177,-0.004085102,0.49647647
320905847,0.0016232268,0.011507612,-0.0038519413,0.4966246
320937853,-0.00025100863,0.0013379072,-0.003768663,0.49654397
320969887,-7.172341e-05,0.003925964,-0.004700605,0.4997195
321001806,-0.008506625,0.013435631,-0.005205231,0.5033532
321033847,-0.010389641,0.0007143893,-0.006346734,0.5101124
321065804,-0.00782368,0.015993072,-0.006776936,0.5210005
321097919,-0.0059145917,0.024409696,-0.006828254,0.5594615
321127498,-0.0061343433,0.0073058256,-0.0072162882,0.56951165
321159414,0.006285485,-0.0090819355,-0.008113749,0.5764585
321191479,0.013340737,-0.012016127,-0.009431964,0.586921
321223399,0.012997583,-0.010547964,-0.01029924,0.5890284
321255457,0.015505987,-0.014380547,-0.010853498,0.6024643
321287451,0.022952303,-0.01782578,-0.012105646,0.6160852
321319478,0.023163158,-0.01250045,-0.012859704,0.62842226
321351402,0.018324682,-0.00939456,-0.013764388,0.6313682
321383455,0.022486119,-0.016018346,-0.013422163,0.6514521
321415445,0.02482812,-0.022084171,-0.014716622,0.661447
321447488,0.021812852,-0.02302868,-0.015885174,0.66356933
321479397,0.02458843,-0.027173366,-0.016413588,0.6632996
321511423,0.019668363,-0.032135364,-0.01712832,0.663491
321543443,0.029427143,-0.032678943,-0.017443249,0.66261333
321575455,0.016586347,-0.0360742,-0.017752297,0.65927386
321607407,0.014350122,-0.033827685,-0.01806047,0.658428
321639414,0.015635172,-0.032799575,-0.017722813,0.65862924
321671457,0.025874108,-0.022892611,-0.018027727,0.6584277
321703456,0.01430679,-0.02557048,-0.01826036,0.6573418
321735428,0.0150436945,-0.024726741,-0.01816051,0.65755844
321763503,0.021019464,-0.019636594,-0.017963758,0.65047514
321795378,0.015434868,-0.0148357,-0.017135695,0.6417103
321827376,0.009672293,-0.015179065,-0.016943973,0.63172925
321859437,0.013323986,-0.014875034,-0.016519891,0.62583065
321893017,0.009153688,-0.0041465056,-0.016286343,0.6035067
321921039,0.0094229365,-0.004463814,-0.01636841,0.59825814
321953037,0.018786225,0.0051543824,-0.0154951755,0.5977818
321985103,0.018095676,0.00049382786,-0.014742754,0.5863643
322017011,0.013122943,-0.0020462659,-0.01424118,0.57656616
322049088,0.011066835,-0.004818034,-0.013610663,0.56602955
322081034,0.0093934,-0.009341654,-0.013250032,0.55715024
322113066,0.0058289627,-0.010694787,-0.012562967,0.54031074
322145003,0.0014031506,-0.0061653554,-0.012149737,0.50803715
322173024,-0.0017848252,0.00322237,-0.011440101,0.5027355
322204986,-0.0041505913,0.011961742,-0.010324643,0.49956128
322236979,-0.011127986,0.015918259,-0.009677417,0.49839953
322269027,-0.016296122,0.019027501,-0.008241608,0.49652147
322300983,-0.017832575,0.028644681,-0.007239082,0.496916
322333003,-0.018955473,0.043607138,-0.005613235,0.49668974
322365009,-0.025063885,0.044048905,-0.0051585883,0.49673307
322397051,-0.012261172,0.039933536,-0.0044211396,0.49684006
322425052,-0.004102451,0.020970793,-0.0030165499,0.497059
322457040,0.0007137633,0.014838934,-0.002238362,0.49755767
322489040,-0.0038433545,0.017690483,-0.0018685907,0.49721494
322521013,-0.008280599,0.02070005,-0.001175163,0.49678898
322553007,-0.0069950037,0.010047174,-0.00033262055,0.49650702
322585038,-0.0021742058,0.016770061,0.00053984567,0.49697247
322618661,-0.0007247038,0.015826253,0.0014093886,0.4971563
322650589,-0.007484316,0.004137312,0.0024776487,0.49774098
322682593,-0.009070695,0.007107863,0.0022349774,0.49841127
322714602,-0.006774315,0.003763451,0.002276119,0.49771586
322746644,-0.004191378,0.0038630853,0.00313321,0.4972526
322774689,-0.0049711233,0.017905487,0.002832627,0.4973215
322806649,-0.0062949867,0.019628976,0.0023198416,0.4973545
322838600,-0.0017542923,0.01887797,0.0016994281,0.4971269
322870607,0.0005163167,0.0069937976,0.0014623518,0.49704358
322902630,-0.00027404792,0.002620924,0.0021799002,0.49841845
322934642,-0.002876884,0.013237729,0.0016105464,0.49832743
322966611,-0.009700397,0.01820497,0.00076460943,0.49771732
322998606,-0.0080961855,0.009622241,0.0007004827,0.497252
323026653,-0.0046393103,0.009187043,8.836244e-05,0.49732143
323058608,-0.003097132,-0.00051803543,-0.0003878766,0.4973533
323090678,-0.005359059,0.002709505,-0.0009284852,0.49734625
323122642,-0.0033621022,0.015058986,-0.0012334778,0.49808365
323154606,-0.0058008917,0.020218788,-0.0020444258,0.49845278
323186655,-0.010683122,0.025873,-0.0034483848,0.49826795
323218622,-0.010595422,0.026562108,-0.004308551,0.49729136
323250667,-0.0062584635,0.013761056,-0.0049571306,0.497258
323278695,0.0020946816,0.0037864903,-0.0055990233,0.49732345
323310653,0.006491355,-0.013038497,-0.005317176,0.49735275
323343398,-0.0016559048,-0.019345315,-0.004994435,0.49734616
323376203,-0.0028902031,-0.004166344,-0.005004515,0.4983031
323408225,-0.0034508673,0.007455811,-0.0050457763,0.49963072
323436251,-0.003475617,0.009748863,-0.005659564,0.50180006
323468211,0.0019208986,0.009247467,-0.0062522204,0.50473934
323500296,-7.4917734e-05,0.015845075,-0.0061170673,0.50490785
323532213,-0.0038786135,0.015731052,-0.0068508843,0.50570756
323564253,0.0015803195,0.01671457,-0.006926309,0.5062894
323596250,0.005506475,0.012447363,-0.0071934056,0.50799644
323628299,0.00024932728,0.023057247,-0.006928,0.5136782
323660220,-0.0032955164,0.0151385125,-0.0066998554,0.5179211
323688282,-0.0013611858,0.01761618,-0.007200173,0.52318096
323720209,-0.00083466235,0.023743268,-0.007162988,0.5303886
323752233,0.0024076323,0.022534156,-0.008294281,0.5411436
323784245,0.0037229545,0.01865793,-0.008991379,0.542695
323816286,0.0055099004,0.015919294,-0.00900826,0.54346305
323848181,0.0018836274,0.014233643,-0.008857441,0.5458249
323880191,0.0056816083,0.0134822875,-0.009095628,0.5473346
323912211,0.008105096,0.017479029,-0.009108219,0.5461932
323944243,0.00850538,0.020683566,-0.008869158,0.5473185
323976185,0.0070597,0.020453008,-0.008521927,0.5593271
324008204,0.0062306514,0.012737678,-0.008095974,0.56631124
324040212,0.010117758,0.0035201143,-0.008051068,0.57248265
324072239,0.013319523,0.0011226534,-0.008019271,0.57271236
324101865,0.010202772,0.0021966991,-0.007668384,0.5710435
324133820,0.010849278,0.0018919762,-0.0076989243,0.5684688
324165905,0.008133283,-0.00080141996,-0.0077290577,0.5660058
324197815,0.009834814,0.0005038291,-0.0077501535,0.5659516
324229814,0.0071297083,0.0024243828,-0.0073238313,0.5655046
324261826,0.0050168387,0.0032701215,-0.0068664663,0.5659028
324293828,0.0068559153,0.0057766372,-0.006876829,0.5666596
324321819,0.009951771,0.0047504017,-0.007195383,0.5681368
324353772,0.0107000815,0.0022159975,-0.0072144736,0.57370037
324385799,0.011216789,-0.00010250165,-0.007168857,0.57550836
324417867,0.008371098,-0.002288811,-0.0067939432,0.5760296
324449833,0.006337017,-0.006742235,-0.006712352,0.57586086
324481827,0.00695474,-0.006363455,-0.0066951113,0.5740802
324513819,0.007827628,-0.0011473756,-0.0066741863,0.5732174
324545846,0.00743352,-0.003328045,-0.0062225754,0.5733984
324573814,0.011065513,-0.003825785,-0.0058883918,0.57404363
324605858,0.010137673,-0.0068757893,-0.0056070536,0.57373995
324638073,0.0040834644,-0.0054563805,-0.0052264496,0.5726295
324669816,-0.0013765736,-0.0055658543,-0.005121212,0.5728555
324701818,-0.0024809558,-0.010462084,-0.0048249727,0.5732876
324733813,-0.0029616626,-0.012971375,-0.0050387187,0.5727423
324765865,-0.0010539565,-0.010738098,-0.004667743,0.5731455
324797874,0.0013914095,-0.0055102147,-0.004477758,0.5750695
324826646,0.0042098775,-0.004178162,-0.0045733945,0.5745391
324859464,0.0037775184,-0.00020315658,-0.0045408313,0.57384205
324891459,9.6621785e-05,-5.3623622e-05,-0.0043154326,0.57391506
324923404,-0.0016595733,-0.0016093596,-0.0042209215,0.57396406
324955405,0.00029349508,0.0031528503,-0.004897811,0.57395965
324987442,0.0022483426,0.008715445,-0.0054033045,0.57395583
325019397,0.0032050349,0.010288792,-0.0055514094,0.57483685
325051489,0.0034062294,0.01094234,-0.0059171105,0.57501465
325083404,0.0020443401,0.01190729,-0.006210808,0.57392716
325115461,0.0017223766,0.010240419,-0.0064475904,0.57385206
325147394,0.00024781225,0.0016416074,-0.006542242,0.57396543
325179424,-1.3140312e-06,-0.0019063641,-0.0066307373,0.57396656
325207431,-8.82554e-06,0.0005176221,-0.0070808716,0.57447815
325239412,0.005827345,0.0036702405,-0.0072046397,0.57545495
325271463,0.0087477565,0.0021123115,-0.0071815574,0.5753577
325303451,0.005185667,0.003124438,-0.007334912,0.5754363
325335406,0.0046047745,0.0022696508,-0.0077464986,0.5765327
325367422,0.002236729,-0.003008564,-0.008063388,0.5765867
325399461,-0.0032304781,-0.00583497,-0.008491284,0.57651365
325431469,-0.0038747946,-0.0033340002,-0.008740754,0.57647645
325459513,0.0004533357,0.0014158009,-0.008628813,0.57674515
325491428,0.0012868897,0.002613151,-0.008877561,0.57736665
325523373,0.0014031656,0.005737179,-0.009293072,0.5775839
325556256,0.0031188568,0.008030361,-0.009603554,0.57689416
325585039,0.006375924,0.010042813,-0.009680613,0.57638174
325617048,0.010400456,0.01013694,-0.00995277,0.5764597
325649003,0.012133883,0.0056244205,-0.0099574905,0.5764945
325681089,0.01023839,-5.756195e-05,-0.009887913,0.57674783
325713090,0.007962856,-0.00033190855,-0.010301907,0.57666224
325745009,0.0081652505,0.0073097153,-0.010673776,0.5753853
325777019,0.0042052404,0.005073885,-0.010695905,0.57395506
325809045,0.0028525349,0.00091486156,-0.010839044,0.57251966
325837018,0.0014671591,-0.0037913113,-0.010981994,0.5725896
325869034,-0.0016081524,-0.0019581846,-0.011002157,0.5726885
325900982,-0.004637908,-0.004793846,-0.010924436,0.5727005
325932977,-0.0011996791,-0.007927384,-0.01083104,0.57295316
325964971,0.0065412396,-0.0017381336,-0.010821792,0.57348865
325997125,0.013436156,0.008395048,-0.010992765,0.5722926
326029098,0.0151800215,0.010280039,-0.010707793,0.5703483
326060993,0.008973172,0.007955162,-0.0102377925,0.5700523
326092997,0.0034087393,0.0058909426,-0.009704028,0.569113
326125035,0.002118494,0.0043681636,-0.008766358,0.56509024
326156994,-8.656318e-05,0.005277318,-0.008105545,0.5418431
326189001,-0.0025332966,0.010099787,-0.0072100977,0.5191344
326221044,-0.003184445,0.016283365,-0.006055994,0.502011
326253092,-0.0042643268,0.021767085,-0.004727097,0.49681982
326281028,-0.005691914,0.017476952,-0.0038025554,0.49721116
326314592,-0.0071497266,0.020878697,-0.002616243,0.49717176
326346636,-0.0087093795,0.014927715,-0.0015911307,0.49661252
326378709,-0.012102681,0.002329932,-0.0005557594,0.49641874
326410578,-0.013161538,0.017540535,0.0007060228,0.49700162
326442655,-0.015906548,0.017713273,0.0018376166,0.49721316
326474655,-0.017485928,0.037842575,0.001958627,0.4966276
326502620,-0.017249785,0.014365751,0.003945897,0.49622834
326534634,-0.020388644,0.0009806536,0.005372639,0.49626154
326566604,-0.018028736,-0.010532111,0.005854091,0.49629235
326598601,-0.012769699,0.005551561,0.0073766974,0.49628422
326630661,-0.012514481,0.007954979,0.008091184,0.49672085
326662627,-0.018627847,0.015107414,0.008170803,0.49754155
326694605,-0.015849208,-0.0005761084,0.008629537,0.49724033
326722695,-0.011776399,-0.0024246483,0.009405314,0.49656722
326754611,-0.014647592,-0.022245666,0.009988388,0.49619707
326786625,-0.013805907,-0.005994186,0.010544464,0.49626753
326818651,-0.013274088,-0.010712552,0.011160673,0.49650973
326850644,-0.011440582,0.019597048,0.012200018,0.49702284
326882635,-0.015983436,-0.00038229354,0.012253416,0.49738967
326914614,-0.022505412,0.007967111,0.011708768,0.49736586
326946732,-0.012232421,0.013213239,0.011860126,0.49711785
326978641,-0.011168839,0.027126525,0.012400932,0.49623644
327006631,-0.00966504,0.029843196,0.012093748,0.49620408
327040254,-0.01129752,0.03527471,0.012480541,0.4960437
327072290,-0.009447649,0.025934383,0.013302091,0.49592164
327104230,-0.013173545,0.037084136,0.013868215,0.49646914
327132242,-0.010340935,0.023949051,0.012832146,0.4970808
327164204,-0.00093738164,0.026324913,0.013311213,0.49668506
327196455,-0.009298864,0.02806489,0.014698437,0.49625227
327228224,-0.005627382,0.0310574,0.015088176,0.49625596
327260244,-0.005326412,0.02590732,0.016174667,0.49629077
327292206,-0.008869272,0.022106113,0.017219355,0.4962847
327324209,-0.005267409,0.03354436,0.01806633,0.49672088
327356437,-0.0062070685,0.026599837,0.01929858,0.49754146
327388237,-0.0067578275,0.005558353,0.0203585,0.49724033
327420204,-0.0037014675,0.014361534,0.021266686,0.49656722
327452208,1.0842523e-05,0.015268161,0.021332467,0.49619707
327484259,-0.00491238,0.025320435,0.021737836,0.4964869
327516204,-0.008442457,0.04217015,0.021725891,0.49878836
327548211,-0.011825414,0.04180378,0.02157424,0.5077457
327580193,-0.010612499,0.033631515,0.0210993,0.5088803
327608193,-0.0011541978,0.0232867,0.02054187,0.5135602
327640232,0.0011731297,0.009363086,0.020957464,0.52428454
327672206,-0.0043343655,0.011955638,0.020805648,0.5441261
327704184,-0.007179823,0.0107958345,0.020608827,0.5466914
327736206,-0.01144851,0.015450394,0.019801917,0.55881
327765842,-0.013178627,0.012729081,0.019256221,0.57208186
327797878,-0.011327833,0.008299174,0.018976582,0.5796251
327829809,-0.0058308025,0.006043135,0.018430041,0.5793828
327861886,-0.0013520882,0.011483962,0.017628811,0.578369
327893837,-0.0012164406,0.013171854,0.017004712,0.5763572
327925796,0.0009722751,0.007865719,0.015960276,0.5763106
327957806,0.0010337431,0.0065768105,0.015536264,0.57644594
327989810,0.0013585225,0.008963268,0.014771861,0.5765004
328017814,0.0024976912,0.01299433,0.013638944,0.5777929
328049861,0.0037043884,0.015424521,0.012421472,0.5901172
328081867,0.006035027,0.007766763,0.011198578,0.5940937
328113804,0.007201383,0.0056353435,0.009427901,0.59442514
328145814,0.005998936,0.0004192246,0.007980765,0.59284276
328177879,0.0043893172,-0.0009917286,0.006179348,0.5927766
328209852,0.0031616576,-0.008540077,0.004156459,0.5929345
328241816,0.005789806,-0.01253537,0.0021705658,0.592933
328269810,0.008803771,-0.011711577,0.0010112642,0.5931834
328301847,0.0091912355,-0.018046798,-0.00060637796,0.59335804
328333802,0.010165833,-0.01785506,-0.00173862,0.59322244
328365829,0.0103197815,-0.013316726,-0.0029459565,0.592445
328397885,0.011770793,-0.015565773,-0.0039028954,0.5916439
328429805,0.012084296,-0.016924247,-0.004783592,0.5915998
328461804,0.010001703,-0.02209563,-0.0055649956,0.5916665
328494607,0.010008739,-0.024814937,-0.0063516106,0.59192073
328527447,0.012459204,-0.021826312,-0.0070783203,0.5925345
328559394,0.014584667,-0.01618373,-0.008167247,0.5918744
328591406,0.011105572,-0.01673036,-0.009161463,0.5907465
328623429,0.008098072,-0.016677003,-0.009877228,0.5902636
328655620,0.0061071133,-0.018055059,-0.010188634,0.5903757
328687432,0.0057494063,-0.017905196,-0.011335746,0.590411
328719394,0.007716049,-0.024063135,-0.012218376,0.5906531
328751461,0.0074175615,-0.026338452,-0.012818653,0.5912699
328783490,0.008239619,-0.016921667,-0.013682652,0.59170985
328815560,0.009515183,-0.011543123,-0.014391916,0.59168094
328847428,0.0126308035,-0.008506653,-0.015075555,0.5913855
328879440,0.01712976,-0.004224433,-0.015691804,0.59059745
328911440,0.013171811,-0.0050204108,-0.016121523,0.5909166
328943462,0.00732361,-0.0037509,-0.01708077,0.5904425
328975402,0.0076158335,-0.0007941142,-0.017971328,0.5903294
329007439,0.008374882,-0.003330974,-0.018997611,0.5906531
329039450,0.006065117,-0.0070048254,-0.01976716,0.5912784
329071511,0.00141279,-0.012542619,-0.020740423,0.59171295
329099496,0.00034459628,-0.01413523,-0.021359047,0.5920378
329131497,-0.00013466451,-0.013363198,-0.021769308,0.5912051
329163406,-0.0006646131,-0.011724172,-0.022823814,0.5902246
329195431,0.000298513,-0.010165794,-0.023694832,0.59059554
329228229,-0.00026218334,-0.0071995924,-0.023608642,0.59102225
329256997,-0.0017779178,-0.002377165,-0.024612332,0.5912198
329289056,-0.003666525,-0.008548972,-0.024847811,0.59243697
329321040,-0.0025987143,-0.0057872846,-0.025395777,0.5922913
329353032,-0.0005361084,0.00089178124,-0.025769778,0.589609
329384997,-0.0033659032,-0.0031738651,-0.025913417,0.5897825
329417020,-0.0053540845,-0.005747852,-0.02620019,0.58960474
329449040,-0.0082298145,-0.006351423,-0.026617331,0.58938277
329477047,-0.00716417,-0.014533743,-0.026732171,0.5904122
329509046,-0.005919724,-0.013099257,-0.026839714,0.5904934
329541060,-0.0041355053,-0.013766825,-0.026934724,0.5912644
329573032,-0.00074527477,-0.019525148,-0.027361134,0.5914401
329605030,0.0037897755,-0.020498961,-0.027391775,0.5894832
329637012,0.007430355,-0.013381669,-0.02740933,0.58923024
329669024,0.011102718,-0.0077271024,-0.027317911,0.5901689
329700977,0.009414959,-0.0078357225,-0.027772512,0.58988756
329733076,0.007584268,-0.0055410964,-0.027968522,0.58998805
329760977,0.009900593,0.0010872678,-0.027564526,0.58981913
329793099,0.007042529,0.0035422435,-0.027866067,0.5827966
329825036,0.0017602409,0.0014630755,-0.027836509,0.57344687
329857023,-0.0021568772,-0.00033773735,-0.027559968,0.53855807
329889013,-0.0073135584,0.0013183142,-0.0272107,0.5182094
329921064,-0.013591519,0.00119727,-0.026462818,0.4954479
329953812,-0.013770528,0.008386267,-0.025982056,0.49490932
329985796,-0.010040267,0.016251797,-0.02425745,0.49530444
330017838,-0.009569775,0.0076933075,-0.023303697,0.49524033
330049805,-0.018116292,0.007253571,-0.022240948,0.49595326
330081847,-0.015063065,0.0035353126,-0.021597669,0.4963281
330113849,-0.0183245,0.005404364,-0.020915069,0.49556524
330145856,-0.019166542,0.0017573591,-0.019945813,0.49516746
330177845,-0.015119165,0.010491375,-0.01892563,0.49519953
330209873,-0.011798808,0.0070786253,-0.018399775,0.4952303
330241794,-0.013679052,0.016597418,-0.017802453,0.49522227
330273839,-0.01072164,0.02779833,-0.01680051,0.49543953
330305832,-0.009496376,0.022787385,-0.01555208,0.49654827
330337911,-0.013488918,0.021974457,-0.015283027,0.4968832
330369835,-0.0060768034,0.02214098,-0.014403604,0.49645302
330401823,-0.0059034647,0.008502765,-0.013689119,0.49614868
330433801,-0.0074349837,0.027680332,-0.012638707,0.49584842
330465883,-0.004684206,0.03132666,-0.012104423,0.4952714
330497854,-0.007397194,0.011559074,-0.0106576,0.49517292
330529808,-0.011071581,0.004220369,-0.010553147,0.4954432
330561804,-0.012281862,-0.0051352885,-0.01081691,0.49685204
330593858,-0.006795523,-0.002903916,-0.010416885,0.496731
330625833,-0.006386477,-0.0033477328,-0.01094351,0.49611792
330657850,-0.002902791,-0.0042614387,-0.011103688,0.4953593
330689816,-0.0044146655,-0.007243087,-0.010948226,0.49566105
330721821,0.00076065975,0.018454267,-0.01106146,0.49526626
330753804,0.003939048,0.006413259,-0.010600168,0.4951684
330785774,0.0023847653,0.008600452,-0.01067902,0.49544054
330817845,-1.9814333e-05,-0.007006887,-0.011910357,0.49596596
330845808,0.0051744985,-0.0076403925,-0.0127229635,0.4961436
330877866,0.007745506,0.011806065,-0.013088046,0.49556416
330909851,0.0063701523,0.01320078,-0.013556022,0.4951342
330943435,0.0019577043,0.026406758,-0.013810949,0.49519962
330975483,0.0010709936,0.029632065,-0.0147717735,0.49523032
331003529,0.0015662579,0.023361947,-0.014139754,0.49522886
331035407,0.00027489947,0.018160278,-0.0145204915,0.49543953
331067407,0.001699251,0.03855195,-0.014265494,0.4961792
331099412,-0.003993848,0.037700444,-0.015246374,0.49706808
331131420,0.0016752082,0.04023181,-0.015598826,0.49670678
331163381,0.0032620514,0.033640448,-0.015761213,0.49625006
331195378,-0.002035371,0.04186433,-0.016879901,0.4962545
331227446,-0.001642905,0.02507397,-0.016740363,0.49629122
331259430,-0.0034146167,0.03709926,-0.017661113,0.4962918
331291397,-0.007660581,0.029871207,-0.017869197,0.49650148
331323404,-0.008255828,0.010967131,-0.018495234,0.49702162
331355437,-0.012221737,0.0044860537,-0.019709108,0.49742535
331387455,-0.01026984,0.01038635,-0.020341387,0.49736583
331419481,-0.013997649,0.0075313635,-0.020356283,0.4973371
331451446,-0.020554842,-9.1980684e-05,-0.019599358,0.49852204
331483450,-0.025295708,0.004831028,-0.019723011,0.5007027
331515438,-0.026512744,-0.0003098996,-0.01985225,0.5059445
331547454,-0.023345627,-0.005638379,-0.01919269,0.5195766
331579402,-0.02309918,-0.0077966875,-0.019937154,0.5428603
331611440,-0.020056961,-0.004244534,-0.018777743,0.58471966
331643429,-0.0140898675,-0.011809476,-0.01829852,0.5888411
331677042,-0.004751828,-0.012416256,-0.018680377,0.5859836
331709090,-0.00020464453,-0.008450173,-0.018611742,0.5856663
331741010,0.003953458,-0.009237178,-0.01814181,0.5853304
331773000,0.0039042952,-0.009202129,-0.017823413,0.5839772
331805051,-0.0010552338,-0.003948857,-0.01715991,0.58421624
331833054,0.00020208646,0.00016849244,-0.01649275,0.58492637
331865030,-0.004069911,0.00048037682,-0.016155459,0.5842991
331897042,-0.0050791237,0.004122402,-0.015539048,0.58263963
331928994,-0.0077450527,0.0024360176,-0.015453535,0.5806246
331961002,-0.0091338195,0.0010784348,-0.015304471,0.5787526
331993026,-0.0088179065,0.0024168866,-0.014641553,0.5786275
332024998,-0.0051980265,8.415837e-05,-0.014436159,0.5777216
332057029,-0.005261355,-0.008640729,-0.014701284,0.57740194
332089015,-0.011696141,-0.011318738,-0.014302939,0.5752006
332121033,-0.0094650565,-0.0074759354,-0.014083543,0.5755206
332153047,-0.00025400723,-0.0014423387,-0.014261107,0.57549447
332185000,0.0028331366,0.002147129,-0.014425803,0.5743629
332217019,0.0032999583,0.0030355977,-0.014294161,0.5738217
332249112,0.0072966134,0.0052659255,-0.013759196,0.57393664
332281098,0.008390275,0.008676026,-0.013318094,0.57396805
332313029,0.003908639,0.0073616602,-0.012880214,0.5742185
332345008,-0.003063615,0.0060258703,-0.012427463,0.5743949
332377103,-0.0036416773,0.004942797,-0.012165908,0.5734757
332409841,-0.0035979466,-0.0003006132,-0.011794115,0.5710245
332438621,-0.0028280446,0.000978554,-0.0113896085,0.5703591
332470640,-0.0020318634,0.002446395,-0.011249006,0.57009053
332502601,-0.00018811267,0.00062827556,-0.01052132,0.5701559
332534612,-0.0009655118,-0.00085409865,-0.009759776,0.57017565
332566623,-0.0013199906,0.0011460306,-0.009233653,0.57042545
332598706,0.000119495875,-0.00057095394,-0.008659341,0.5710432
332630616,0.0013906143,0.0019180065,-0.008394997,0.57038283
332658644,-0.0057460372,0.007383743,-0.0075798854,0.56899345
332690607,-0.004093264,0.0069583138,-0.0072793243,0.5673385
332722623,-0.0001094559,0.003866756,-0.0064964523,0.5629625
332754639,-0.003327751,0.0032154496,-0.00617224,0.55928934
332786680,-0.006556257,0.0056468737,-0.0059150984,0.55357206
332818577,-0.0021371667,0.00073351804,-0.0052571036,0.5527938
332850618,0.02425385,-0.02050653,-0.004819534,0.548227
332882597,0.025681445,-0.02136013,-0.0040896633,0.54621154
332910582,0.016593728,-0.02413094,-0.003651262,0.54550004
332942594,0.038620118,-0.046140827,-0.002904273,0.54422456
332974656,0.055200104,-0.0860193,-0.0024737893,0.5441216
333006603,0.1293271,-0.14352319,-0.0010568686,0.542497
333038664,0.1287177,-0.1431355,-0.00026865315,0.541361
333070663,0.1262495,-0.14059488,0.00044746182,0.5409124
333102677,0.1380864,-0.13046643,0.001861757,0.54195774
333131435,0.10911912,-0.10522422,0.0022693714,0.5421644
333163481,0.08604734,-0.09342402,0.0031396197,0.54157585
333195403,0.09639363,-0.109991394,0.00406236,0.5409803
333227447,0.106131576,-0.108393066,0.0046463786,0.54105365
333259398,0.080167934,-0.047900517,0.0040360335,0.54109687
333291668,-0.044371758,0.14953819,0.0010937524,0.5410891
333323408,-0.19626984,0.2194613,0.0014776632,0.54134727
333355481,-0.23990607,0.23041977,0.0012680329,0.5421447
333383433,-0.19515833,0.17245558,0.001174577,0.54182816
333415449,-0.14207314,0.124092184,0.0006560782,0.5414209
333447405,-0.09619404,0.09117282,0.0008500946,0.5410951
333479474,-0.07473421,0.077841856,0.0003632889,0.5410626
333511408,-0.061604578,0.05979655,4.117706e-05,0.54082924
333543464,-0.045671377,0.047992975,-0.00044818324,0.5409113
333575453,-0.0308072,0.030680569,-0.0007924028,0.5421868
333607667,-0.023918439,0.01657539,-0.0011950816,0.5433561
333635463,-0.022155223,0.014922848,-0.001335583,0.5437996
333667473,-0.01658256,0.010093116,-0.0022567706,0.545287
333699421,-0.013938917,0.0038815136,-0.002164193,0.54807615
333731440,-0.017116237,-0.00050379394,-0.0028037955,0.5512043
333763447,-0.017081438,-0.0027589016,-0.003185393,0.55523634
333795528,-0.013752313,-0.008346273,-0.0033782653,0.5558703
333827413,-0.013723659,-0.013517663,-0.0037678524,0.55704176
333859457,-0.01593737,-0.011421572,-0.00440133,0.5586768
333887431,-0.01155441,-0.014546528,-0.0052774213,0.5599921
333919431,0.0018023158,-0.0329776,-0.006156953,0.55901957
333951424,0.032367446,-0.06778464,-0.0067904876,0.55785304
333983520,0.050816942,-0.06595319,-0.008114631,0.558013
334015378,0.045139086,-0.05312706,-0.009508102,0.5582081
334047382,0.033779804,-0.040062524,-0.01104357,0.558463
334079456,0.022954935,-0.023082115,-0.012569413,0.5588473
334108209,0.0038909274,0.007258403,-0.014089843,0.5588101
334141054,-0.045855388,0.04413775,-0.0152508365,0.5587805
334173122,-0.041810524,0.034668766,-0.016470058,0.5587848
334205046,-0.0076611303,-0.022289656,-0.01776885,0.55878687
334237017,0.039601568,-0.06958493,-0.018640308,0.55878645
334269027,0.086687684,-0.108447544,-0.019623261,0.55878633
334296974,0.13041809,-0.16588639,-0.019888418,0.55826396
334329052,0.19602512,-0.168192,-0.019925375,0.5567679
334361007,0.13998064,-0.1076234,-0.020837488,0.5565058
334393023,0.08711232,-0.06766782,-0.020713493,0.5562497
334425042,0.024936762,-0.00629467,-0.021149753,0.5553604
334457066,-0.0025805328,0.009776278,-0.021165635,0.55494297
334489021,0.0030814097,-0.005152094,-0.020675281,0.5549701
334517097,0.018608872,-0.018572824,-0.020275325,0.5550027
334549049,0.01993249,-0.020256188,-0.020060094,0.55500174
334581041,-0.0662292,0.09827489,-0.020963063,0.55587256
334613006,-0.14672561,0.15151718,-0.020071963,0.55631167
334645094,-0.17020471,0.1465448,-0.019116994,0.55602145
334677080,-0.13534424,0.11197982,-0.018087594,0.5553684
334709040,-0.09979054,0.07672556,-0.016998202,0.55489707
334741006,-0.072889574,0.054172058,-0.016217906,0.55497026
334769048,-0.05967029,0.04376258,-0.015278847,0.55500394
334800997,-0.04298625,0.028988233,-0.013869224,0.55499476
334833891,-0.03377229,0.02122334,-0.012411702,0.55525357
334866693,-0.023660928,0.01682398,-0.010495384,0.55709577
334898630,-0.018493412,0.010491231,-0.008724873,0.5595156
334930647,-0.0141234165,0.005637504,-0.0072533893,0.5638443
334962607,-0.0085039465,0.002968424,-0.0051631997,0.5641538
334994683,-0.0034504982,-0.00090080383,-0.0031760358,0.5639578
335026632,-0.0041162684,-0.0032624805,-0.0013414053,0.56847495
335058642,-0.001781203,-0.0040174206,0.00024022858,0.57130927
335090602,0.0005982007,-0.0048003495,0.0021085914,0.5725294
335122695,-0.00069633697,-0.00681627,0.0035039482,0.5718565
335154648,-0.0036999644,-0.0051676193,0.005077074,0.571123
335186598,-0.002179218,-0.0062144417,0.00653982,0.57044834
335218608,0.001869468,-0.011648006,0.0076962737,0.57007813
335250632,0.00044235116,-0.0126276715,0.009179052,0.57014865
335282630,0.001427195,-0.007227187,0.010213913,0.5701715
335314627,0.007247206,-0.0015021544,0.011136333,0.5701648
335346654,0.00747892,-0.0020674567,0.011984203,0.570425
335374647,0.0052310936,-0.005275103,0.012407704,0.5710444
335406621,0.009017357,0.0009929355,0.013020562,0.5714832
335438702,0.0066067744,0.0047558295,0.013417892,0.5728554
335470660,0.0019337425,0.0042101657,0.013835645,0.57501984
335502619,0.001673413,0.0060789385,0.01395873,0.58149594
335534649,6.6294655e-05,0.0014293313,0.014035966,0.58457696
335564222,-0.0028192669,-0.0057021906,0.013901201,0.58679885
335596228,-0.006937583,-0.0059600384,0.013459945,0.58756053
335628214,-0.0077837305,-0.00938576,0.01316204,0.5882211
335660289,-0.008738718,-0.010717396,0.012608127,0.58831835
335692206,-0.009271777,-0.0059301304,0.012145486,0.58789176
335724228,-0.0073584444,-0.0033168963,0.01146021,0.5892311
335756220,-0.0056787124,-0.0053807623,0.010802465,0.5917281
335788251,-0.007620414,-0.010263646,0.01045509,0.59670967
335816227,-0.011290925,-0.0126194265,0.01015506,0.59709245
335848267,-0.011653494,-0.014605655,0.009974103,0.59711504
335880397,-0.00805646,-0.015501406,0.009627347,0.59773475
335912257,-0.0043311953,-0.009616507,0.009197091,0.59718376
335944264,-0.0033938072,-0.0015885055,0.008698763,0.5966112
335976217,-0.0033557604,0.0036641944,0.008782858,0.5966805
336008187,3.1759006e-05,0.0068957172,0.008925724,0.59672236
336040185,0.002356809,0.007069269,0.008883498,0.5967149
336072189,-0.0011177666,0.008544933,0.008358412,0.5967119
336104210,-0.0047937823,0.004174644,0.008394065,0.5975929
336136174,-0.0029756255,-0.0044248574,0.008446142,0.5980318
336168211,0.004356816,-0.003646456,0.008095957,0.5971218
336200225,0.010305521,-0.0015514982,0.0076340493,0.59664893
336232253,0.014722861,0.002577216,0.007131366,0.5966872
336264247,0.017510952,0.003850406,0.0064525977,0.59672374
336297908,0.02078582,0.00027747772,0.0055318465,0.59671426
336329807,0.021057786,0.0014958087,0.0045766374,0.59645057
336361847,0.018266613,0.00024435628,0.0035740938,0.5960131
336393803,0.0152322855,-0.0053951666,0.003058387,0.5955311
336425810,0.014754463,-0.006554034,0.0020728621,0.59484637
336457814,0.01547689,-0.0036736953,0.0010159919,0.5945021
336489820,0.01674543,-0.0010247461,-3.6252888e-05,0.59420335
336521822,0.018164782,0.002772687,-0.001035486,0.59337705
336553881,0.015938878,0.0041782013,-0.0016938632,0.58997965
336585803,0.014789486,0.0058097336,-0.0026828863,0.5736855
336613834,0.017232459,0.012535218,-0.0037460758,0.5605705
336645816,0.016161352,0.014066603,-0.0042268783,0.5455597
336677899,0.0120908925,0.006794224,-0.0048058885,0.5133428
336709845,0.006788962,0.0046285973,-0.0049812575,0.49999115
336741849,0.004897965,0.009117549,-0.0049776407,0.49724862
336773819,0.0069554425,0.012436185,-0.0055763596,0.49765417
336805857,0.003528946,0.013426759,-0.0050665447,0.49711442
336837896,-0.0017718715,0.0068051196,-0.0050117876,0.49679506
336865859,0.001104451,0.023162331,-0.005075165,0.4967483
336897853,-0.010279668,0.008851671,-0.0054689376,0.49635482
336929841,-0.013174783,0.0033209117,-0.0047090077,0.49512464
336961805,-0.014769228,-0.01780701,-0.0046360265,0.49489978
336993842,-0.01289282,-0.0017836704,-0.0053077093,0.49468264
337023417,-0.016314026,-0.00501803,-0.0049091773,0.49519536
337055414,-0.0047506187,0.019232798,-0.0053277775,0.49528128
337087441,-0.0034027908,0.01928761,-0.0051743775,0.49595872
337119457,-2.9258283e-05,0.014535834,-0.0053473366,0.49632296
337151441,0.0019584072,0.009208256,-0.0057300804,0.49630433
337183405,0.0049915332,-0.0033966175,-0.006488269,0.49627572
337215476,0.003262428,-0.011808108,-0.0066685746,0.49627626
337247489,0.007020437,0.005366407,-0.006938061,0.49628416
337275473,0.0024734596,0.006432989,-0.006338546,0.49628374
337307398,-0.0006768382,-0.0087847635,-0.0067634266,0.49628323
337339396,-0.0065904893,-0.0037831462,-0.0072644153,0.49650252
337371403,-0.0044522574,0.0036024107,-0.0075495224,0.49680302
337403475,-0.0034017707,0.011006252,-0.007554454,0.49461988
337435401,-0.002272967,0.014892282,-0.007615897,0.49326923
337467499,0.0046314723,0.024148485,-0.0070399726,0.49297702
337499464,0.005192682,0.019529149,-0.0061436235,0.49331817
337531585,0.0038149452,0.017320855,-0.0061067175,0.49364126
337563440,0.006330269,0.013196682,-0.005230854,0.49430808
337595451,0.00405075,0.0025406096,-0.00409877,0.49562162
337627506,-0.0015369892,0.0030671826,-0.0042074653,0.49642548
337659461,-0.0037672932,0.0024462321,-0.00459592,0.4961033
337691382,-0.009826615,-0.010581223,-0.0036630973,0.49552295
337723539,-0.011237386,-0.0062119425,-0.0034327786,0.49516004
337757012,-0.00917287,0.0033953711,-0.0033612982,0.4952031
337789014,-0.0064576343,0.016382717,-0.002757804,0.4952306
337821036,-0.0016172556,0.015037468,-0.0025298183,0.4954414
337853053,0.004414659,0.02753467,-0.001937088,0.49595934
337885010,0.0036753197,0.023251673,-0.0013895358,0.4984187
337917005,-0.00081633223,0.03625042,-0.0012379222,0.5100329
337949065,-0.0023600615,0.023079615,-0.0004396584,0.56625366
337981049,-0.0017383813,0.011095769,-0.0008407026,0.5892115
338013010,0.0058734827,0.012261547,-0.0018265697,0.60095006
338045046,0.01578479,0.004028428,-0.0027621426,0.611016
338077026,0.01568853,0.0045835422,-0.003645307,0.628427
338109044,0.017507756,0.0065692775,-0.004536375,0.662957
338140974,0.022419356,0.0041666515,-0.00537378,0.66481084
338173018,0.023125546,9.8016586e-05,-0.0070410282,0.6624418
338205018,0.026439894,0.0014293361,-0.007554447,0.660852
338237062,0.024967523,-0.00531554,-0.008179658,0.66137344
338269010,0.02063531,-0.0060441173,-0.00872488,0.66253585
338297111,0.018156651,-0.0078062555,-0.00898123,0.6625512
338329005,0.016516527,-0.00740832,-0.009139269,0.6619184
338361044,0.0021484264,-0.0070712874,-0.009818654,0.6593785
338393026,0.018456502,-0.005317301,-0.009603835,0.65024054
338425080,0.011337118,-0.010608492,-0.009754759,0.64771956
338457824,0.0065151546,-0.008196987,-0.009634294,0.64404434
338486624,0.0112543,-0.0049624573,-0.009132494,0.64271575
338518592,0.010649988,-0.008068823,-0.008893961,0.640222
338550583,0.0070811342,-0.008312477,-0.008500594,0.6278826
338582587,0.008863151,0.0022478537,-0.007947297,0.6219147
338614658,0.010119392,0.010123809,-0.007604628,0.610824
338646693,0.008679989,0.014689434,-0.006968099,0.603147
338678608,0.0038509557,0.015164701,-0.0060252747,0.5986778
338706596,0.0032466052,0.01113596,-0.005578326,0.5998723
338738610,0.0015942949,0.00580229,-0.0049743415,0.6006586
338770646,0.0012139699,0.0026161687,-0.0041976613,0.5973803
338802725,0.0018976764,0.0003145427,-0.0039462643,0.59476805
338834644,0.0027962297,-0.0028945853,-0.003502722,0.59403557
338866595,0.0012019796,-0.0036624067,-0.0027600764,0.60226387
338898674,0.0010605152,0.002967006,-0.0022194078,0.6044754
338930688,0.00066710997,0.0058462434,-0.002031779,0.60241175
338958625,-0.0016873314,0.0006805254,-0.0017705136,0.5994867
338990661,-0.003038344,-0.0031736956,-0.0016495796,0.59993345
339022614,-0.0045188456,-0.0076249507,-0.0016377982,0.5998299
339054618,-0.006248794,-0.010266474,-0.0017570722,0.5968633
339086634,-0.0056188563,-0.013025301,-0.0017949241,0.59202206
339118642,-0.0040665045,-0.014772966,-0.0016989243,0.5927781
339150661,-0.0005623408,-0.01094822,-0.0016532548,0.593566
339179481,0.0025278514,-0.0067514274,-0.0018870599,0.58500105
339212276,0.0017374125,-0.0037996918,-0.002256325,0.57562405
339244217,0.00066394825,-0.0024394293,-0.0022748453,0.5576854
339276215,-0.0033255597,-0.0018169871,-0.0020152372,0.5493656
339308252,-0.011648115,-0.0029538888,-0.0019574442,0.5219495
339340261,-0.014209395,0.0014078867,-0.00130547,0.50860226
339368233,-0.014208569,0.0043365434,-0.0011567291,0.5012311
339400202,-0.018921107,0.015590479,-0.00030092715,0.49823797
339432199,-0.020456752,0.017421553,-1.8737619e-05,0.4982779
339464196,-0.020102715,0.025393188,0.001103802,0.498427
339496250,-0.01717212,0.017803848,0.002715229,0.49841732
339528197,-0.0077834385,0.023953158,0.0037968596,0.49840698
339560217,-0.01590716,0.036662195,0.0037754932,0.49862573
339592214,-0.02243733,0.018679988,0.0039941813,0.49914637
339624234,-0.01729945,0.013431905,0.004851717,0.4993298
339656439,-0.02108164,0.015798092,0.005158611,0.49853113
339688254,-0.018340698,0.02107096,0.0056596566,0.49761415
339720174,-0.019226192,0.015886297,0.0057747075,0.49724334
339752270,-0.025624875,-0.0060290084,0.0060065086,0.49733353
339784177,-0.027371038,-0.0034822116,0.0063211,0.4973532
339816218,-0.027999852,-0.008040611,0.0065406985,0.49756444
339848177,-0.025797615,0.01402339,0.006673354,0.49808273
339880228,-0.022858689,0.014383995,0.0062847105,0.49826795
339913037,-0.032046374,0.013632594,0.0056824856,0.49768874
339944993,-0.02125764,0.016569013,0.005424957,0.497258
339977026,-0.018804604,0.009948521,0.005936667,0.49732345
340009005,-0.014882017,0.0057446947,0.0056592673,0.4973542
340041038,-0.012864934,-0.0051628835,0.005208955,0.49756554
340072980,-0.0121912835,-0.0075231306,0.0054170913,0.4980832
340105011,-0.01283533,0.0012975463,0.0054762485,0.49848717
340136999,-0.014343864,0.014353671,0.005567879,0.49798915
340169122,-0.015831606,0.0096849855,0.006028782,0.4967014
340201011,-0.01375151,0.037519038,0.0056499927,0.49501434
340229088,-0.0065292534,0.044629,0.0063915476,0.49510086
340261054,-0.003570621,0.020678917,0.0063668485,0.49524337
340293048,-0.007125168,0.025079094,0.007138881,0.4952302
340325062,-0.003974715,0.020134374,0.007968098,0.49617764
340357168,-0.009954987,0.02964176,0.008966617,0.49706748
340389030,-0.0062164413,0.018204078,0.009477693,0.4967069
340421040,-0.007976907,0.025166307,0.009993481,0.49646944
340453037,-0.007615526,0.0074262447,0.010178959,0.49758527
340480999,-0.0031512894,0.015374253,0.010607982,0.50968456
340513030,0.00463832,0.007682179,0.010427793,0.55502003
340545078,0.006041045,0.010036303,0.01136134,0.5576776
340576997,0.0065579303,0.019978702,0.011219608,0.5559455
340609046,0.011111665,0.023274453,0.011076103,0.55995524
340641015,0.007986528,0.01635257,0.003575615,0.5679038
340673094,0.0053525767,0.0097955875,0.014360529,0.5685127
340705007,0.0063812616,0.009088524,0.0043832017,0.568952
340737042,0.0021721912,0.012993226,0.013263758,0.57404023
340769020,-0.0020511535,0.0151971085,-3.0628365e-05,0.57564604
340801080,-0.00031402922,0.01289366,0.00017012813,0.5733286
340833004,-3.260099e-05,0.012353512,0.0006484922,0.57308346
340865816,0.00054887845,0.008390509,0.0016044017,0.57349604
340894703,0.00020979813,0.0033175633,0.0023701882,0.5760402
340926675,0.0037000163,0.001188071,0.0034692883,0.58652973
340958639,0.007031136,-0.004068522,0.23552458,0.6147766
340990656,0.011063501,-0.0034851609,0.28354782,0.6191821
341022705,0.008442869,-0.0051243547,0.17180163,0.6189173
341054612,0.006016335,-0.004890737,0.100064866,0.6198328
341086666,0.0068040923,-0.0112246005,0.057822116,0.61987346
341114613,0.005917158,-0.018033737,0.065350644,0.6167549
341146644,0.0065310053,-0.020650553,0.070317894,0.6146616
341178645,0.006882722,-0.020694593,0.030741025,0.6163722
341210690,0.0027258263,-0.019493163,-0.0026949844,0.61713916
341242606,0.0042259363,-0.02166547,-0.0058716703,0.61644536
341274636,0.0027747944,-0.022513993,-0.0075356164,0.61489064
341306605,-0.005015123,-0.017468657,-0.0090514,0.6005149
341338581,-0.0091768475,-0.02157685,-0.009361829,0.58997834
341370581,-0.010301389,-0.024541378,0.0459704,0.57633126
341402582,-0.015204659,-0.021239087,0.0303532,0.5702866
341434628,-0.022971595,-0.015706515,-0.0009984097,0.54963636
341466652,-0.030316906,-0.013427352,-0.0011626986,0.5293003
341498607,-0.031819697,-0.009169842,-0.0007071088,0.4972743
341530603,-0.030308949,0.0011560458,-3.2909324e-05,0.49633458
341562649,-0.007322165,-0.049118754,0.001224856,0.49808246
341591372,0.26628238,-0.35224634,0.0052172067,0.49969694
341624180,0.3773378,-0.4258402,0.008248397,0.49935699
341656209,0.50590646,-0.50397813,0.013796031,0.5050618
341688177,0.43679708,-0.44126907,0.07059136,0.50828743
341720190,0.56748104,-0.5785896,0.02339752,0.5062276
341748234,0.49970788,-0.47560355,0.029295418,0.5059937
341780182,0.40314204,-0.35945427,0.052979223,0.50768137
341812289,0.29225823,-0.24334721,0.046410475,0.50799626
341844233,0.18859844,-0.16420472,0.046951972,0.508763
341876258,0.1191846,-0.10151991,0.071704105,0.50822943
341908250,0.09062663,-0.07611097,0.088114485,0.506976
341940220,-0.020266866,0.1929239,0.12414721,0.50685954
341972263,-0.37466037,0.64309204,0.1355419,0.50696594
342004216,-0.83605915,0.81423783,0.08164373,0.5059146
342032266,-0.73432255,0.6832631,0.013528094,0.5031699
342064241,-0.5647289,0.4814487,-0.018632919,0.50053555
342096204,-0.37919477,0.31898922,-0.023898082,0.4990415
342128283,-0.2550096,0.20938537,-0.026722856,0.4986615
342160287,-0.18731113,0.13734572,0.030058907,0.49837688
342192196,-0.19979647,0.24366394,0.060483098,0.49839053
342224222,-0.4336663,0.6234817,0.030032653,0.49819356
342256220,-0.9656075,1.0159153,0.1495466,0.49708092
342288239,-1.0162488,1.0623577,0.2581714,0.4967445
342321837,-1.3474623,1.2571197,0.380229,0.49753815
342353821,-1.0438387,0.88909996,0.4422328,0.49771214
342385794,-0.68728924,0.4921003,0.60647386,0.49678963
342417879,-0.49217308,0.2611944,0.675836,0.49672496
342449840,-0.3865363,0.09578714,0.77810997,0.496786
342481798,-0.3142103,-0.04585143,0.91475356,0.49630252
342513811,-0.20100558,-0.19115394,0.8806211,0.49622792
342545829,1.3938938,-1.5370126,0.6589527,0.49973774
342577961,1.1601884,-1.2551543,0.5177189,0.50744444
342609797,0.9517922,-1.004255,0.43112594,0.51560855
342641831,0.6935013,-0.6902426,0.3172829,0.52351546
342673812,0.43510628,-0.4549418,0.28238544,0.5241593
342705865,0.29010355,-0.3052615,0.2971223,0.52528614
342737852,0.23379712,-0.2251026,0.3136913,0.52513975
342769849,0.18682937,-0.15406872,0.22636315,0.5237942
342801816,0.121665105,-0.103236005,0.19978759,0.51962346
342833880,0.08058947,-0.062674455,0.19492814,0.5127771
342865804,0.061512396,-0.03687563,0.1987905,0.5153992
342897881,0.056197476,-0.018673684,0.22967295,0.52221924
342929807,0.06141897,-0.0036068193,0.40182325,0.5135724
342961841,0.024633475,0.016684351,0.46851858,0.5080887
342993773,6.2893145e-05,-0.011624783,0.43378508,0.5164726
343021846,0.17936656,-0.04464536,0.37878466,0.52345544
343055490,0.2502345,-0.023997344,0.37219015,0.52772224
343087401,0.02647358,0.0087778885,0.40027428,0.5265587
343119468,-0.13164242,0.025816537,0.4363559,0.5258003
343151421,-0.22427605,0.03175722,0.51780695,0.52140903
343183703,-0.19232441,0.053402066,0.5576955,0.515297
343211488,-0.13671568,0.04476209,0.5960212,0.5100785
343243457,-0.09303648,0.03536495,0.6407828,0.501174
343275403,-0.07715909,0.030578488,0.6103739,0.49898964
343307443,-0.053888038,0.044656795,0.44522282,0.49864852
343339443,-0.038233396,0.03958424,0.28585008,0.49776608
343371449,-0.025626186,0.06356352,0.035614777,0.49484625
343403376,-0.014134707,0.035187922,-0.01079421,0.49161056
343435416,-0.010634554,0.020026006,-0.036408234,0.4786046
343467397,-0.0039784755,0.0047005527,-0.0573978,0.4377207
343499403,0.005587019,0.0071790414,-0.074580714,0.42733943
343531406,0.009997111,0.018797398,-0.0891823,0.42348322
343563395,0.006727343,0.025571167,-0.100592345,0.41006812
343595441,0.0069801346,0.040096126,-0.11046819,0.3986922
343627666,0.0024063624,0.03676199,-0.11804138,0.39308473
343659403,-0.0022366582,0.03636815,-0.124031276,0.39549255
343687518,-0.003277568,0.021250704,-0.12766066,0.39804935
343719413,-0.0068944036,0.014163962,-0.13041233,0.39746603
343752220,-0.00632653,0.017958488,-0.13187855,0.39317906
343784985,-0.004358658,0.026943062,-0.13246287,0.3955042
343817010,-0.004553399,0.029553145,-0.13176018,0.40365124
343845019,-0.009513209,0.03315335,-0.13057022,0.41049248
343877018,-0.01249398,0.034620237,-0.12821585,0.40913785
343909028,-0.010582846,0.032597788,-0.12619472,0.3954532
343940994,-0.00746707,0.03188779,-0.12327525,0.332578
343973002,-0.0042597163,0.032801054,-0.12031786,0.30805522
