timestamp,min_distance,max_distance,current_distance,covariance,signal_quality,type,id,orientation
310003793,0.01,50.0,1.05,0.0,0,0,3,0
310068979,0.01,50.0,1.04,0.0,64,0,3,0
310100742,0.01,50.0,1.03,0.0,64,0,3,0
310132130,0.01,50.0,1.12,0.0,64,0,3,0
310164945,0.01,50.0,1.0699999,0.0,0,0,3,0
310196184,0.01,50.0,1.0699999,0.0,64,0,3,0
310228890,0.01,50.0,1.06,0.0,64,0,3,0
310260320,0.01,50.0,1.03,0.0,64,0,3,0
310292742,0.01,50.0,1.03,0.0,64,0,3,0
310325489,0.01,50.0,1.06,0.0,64,0,3,0
310357991,0.01,50.0,1.0699999,0.0,64,0,3,0
310389752,0.01,50.0,1.0699999,0.0,0,0,3,0
310421533,0.01,50.0,1.0699999,0.0,64,0,3,0
310453943,0.01,50.0,1.0,0.0,0,0,3,0
310485750,0.01,50.0,1.01,0.0,64,0,3,0
310516974,0.01,50.0,1.03,0.0,64,0,3,0
310549941,0.01,50.0,1.02,0.0,64,0,3,0
310580942,0.01,50.0,1.09,0.0,0,0,3,0
310613822,0.01,50.0,1.0799999,0.0,64,0,3,0
310645752,0.01,50.0,1.06,0.0,64,0,3,0
310677129,0.01,50.0,1.03,0.0,4,0,3,0
310708779,0.01,50.0,1.01,0.0,64,0,3,0
310741139,0.01,50.0,1.02,0.0,64,0,3,0
310771756,0.01,50.0,1.03,0.0,64,0,3,0
310803500,0.01,50.0,1.04,0.0,64,0,3,0
310835742,0.01,50.0,1.04,0.0,64,0,3,0
310866857,0.01,50.0,1.05,0.0,64,0,3,0
310899622,0.01,50.0,1.05,0.0,64,0,3,0
310930866,0.01,50.0,1.04,0.0,0,0,3,0
310962826,0.01,50.0,1.04,0.0,0,0,3,0
310995828,0.01,50.0,1.05,0.0,64,0,3,0
311026819,0.01,50.0,1.05,0.0,4,0,3,0
311059178,0.01,50.0,1.05,0.0,4,0,3,0
311091745,0.01,50.0,1.04,0.0,64,0,3,0
311123772,0.01,50.0,1.04,0.0,64,0,3,0
311154926,0.01,50.0,1.03,0.0,64,0,3,0
311187120,0.01,50.0,1.05,0.0,64,0,3,0
311218594,0.01,50.0,1.05,0.0,64,0,3,0
311251348,0.01,50.0,1.05,0.0,64,0,3,0
311283817,0.01,50.0,1.05,0.0,64,0,3,0
311315745,0.01,50.0,1.04,0.0,64,0,3,0
311346985,0.01,50.0,1.05,0.0,64,0,3,0
311378859,0.01,50.0,1.05,0.0,64,0,3,0
311410914,0.01,50.0,1.02,0.0,64,0,3,0
311444363,0.01,50.0,1.05,0.0,0,0,3,0
311476485,0.01,50.0,1.06,0.0,64,0,3,0
311508970,0.01,50.0,1.04,0.0,0,0,3,0
311540154,0.01,50.0,1.04,0.0,64,0,3,0
311573110,0.01,50.0,1.02,0.0,4,0,3,0
311604915,0.01,50.0,1.05,0.0,64,0,3,0
311636742,0.01,50.0,1.03,0.0,64,0,3,0
311668950,0.01,50.0,1.05,0.0,64,0,3,0
311700773,0.01,50.0,1.02,0.0,64,0,3,0
311732138,0.01,50.0,1.06,0.0,0,0,3,0
311764976,0.01,50.0,1.05,0.0,64,0,3,0
311796308,0.01,50.0,1.03,0.0,64,0,3,0
311828137,0.01,50.0,1.04,0.0,64,0,3,0
311860980,0.01,50.0,1.03,0.0,64,0,3,0
311892119,0.01,50.0,1.04,0.0,64,0,3,0
311923971,0.01,50.0,1.04,0.0,64,0,3,0
311957382,0.01,50.0,1.02,0.0,64,0,3,0
311989754,0.01,50.0,1.03,0.0,64,0,3,0
312021792,0.01,50.0,1.06,0.0,0,0,3,0
312053505,0.01,50.0,1.06,0.0,4,0,3,0
312085978,0.01,50.0,1.04,0.0,0,0,3,0
312117954,0.01,50.0,1.04,0.0,64,0,3,0
312148961,0.01,50.0,1.05,0.0,64,0,3,0
312180197,0.01,50.0,1.05,0.0,64,0,3,0
312211766,0.01,50.0,1.04,0.0,64,0,3,0
312242845,0.01,50.0,1.04,0.0,64,0,3,0
312274832,0.01,50.0,1.03,0.0,64,0,3,0
312306818,0.01,50.0,1.05,0.0,64,0,3,0
312338792,0.01,50.0,1.05,0.0,0,0,3,0
312370871,0.01,50.0,1.03,0.0,0,0,3,0
312402792,0.01,50.0,1.06,0.0,0,0,3,0
312434789,0.01,50.0,1.03,0.0,64,0,3,0
312466811,0.01,50.0,1.05,0.0,64,0,3,0
312498819,0.01,50.0,1.06,0.0,64,0,3,0
312530848,0.01,50.0,1.05,0.0,64,0,3,0
312561755,0.01,50.0,1.05,0.0,64,0,3,0
312593747,0.01,50.0,1.05,0.0,64,0,3,0
312625763,0.01,50.0,1.03,0.0,0,0,3,0
312657922,0.01,50.0,1.06,0.0,64,0,3,0
312689756,0.01,50.0,1.05,0.0,64,0,3,0
312721742,0.01,50.0,1.05,0.0,64,0,3,0
312753142,0.01,50.0,1.04,0.0,64,0,3,0
312785141,0.01,50.0,1.05,0.0,64,0,3,0
312817302,0.01,50.0,1.04,0.0,64,0,3,0
312849130,0.01,50.0,1.04,0.0,64,0,3,0
312881124,0.01,50.0,1.04,0.0,64,0,3,0
312913065,0.01,50.0,1.02,0.0,64,0,3,0
312944414,0.01,50.0,1.06,0.0,4,0,3,0
312976917,0.01,50.0,1.06,0.0,4,0,3,0
313009346,0.01,50.0,1.05,0.0,4,0,3,0
313042647,0.01,50.0,1.03,0.0,64,0,3,0
313074587,0.01,50.0,1.05,0.0,64,0,3,0
313106625,0.01,50.0,1.05,0.0,64,0,3,0
313138649,0.01,50.0,1.03,0.0,64,0,3,0
313170629,0.01,50.0,1.05,0.0,64,0,3,0
313202936,0.01,50.0,1.06,0.0,0,0,3,0
313234942,0.01,50.0,1.02,0.0,64,0,3,0
313266881,0.01,50.0,1.03,0.0,64,0,3,0
313298856,0.01,50.0,1.04,0.0,0,0,3,0
313330882,0.01,50.0,1.05,0.0,0,0,3,0
313362857,0.01,50.0,1.01,0.0,0,0,3,0
313394887,0.01,50.0,1.0699999,0.0,0,0,3,0
313426908,0.01,50.0,1.0699999,0.0,64,0,3,0
313458797,0.01,50.0,1.05,0.0,64,0,3,0
313490944,0.01,50.0,1.06,0.0,-116,0,3,0
313522836,0.01,50.0,1.06,0.0,64,0,3,0
313554351,0.01,50.0,1.04,0.0,64,0,3,0
313586338,0.01,50.0,1.03,0.0,64,0,3,0
313618702,0.01,50.0,1.05,0.0,64,0,3,0
313650851,0.01,50.0,1.04,0.0,64,0,3,0
313684612,0.01,50.0,1.03,0.0,0,0,3,0
313717510,0.01,50.0,1.06,0.0,4,0,3,0
313749754,0.01,50.0,1.05,0.0,64,0,3,0
313781742,0.01,50.0,1.01,0.0,64,0,3,0
313814056,0.01,50.0,1.04,0.0,4,0,3,0
313845797,0.01,50.0,1.03,0.0,64,0,3,0
313877998,0.01,50.0,1.04,0.0,0,0,3,0
313909816,0.01,50.0,1.04,0.0,4,0,3,0
313941379,0.01,50.0,1.06,0.0,64,0,3,0
313972906,0.01,50.0,1.05,0.0,64,0,3,0
314005462,0.01,50.0,1.03,0.0,4,0,3,0
314038067,0.01,50.0,1.03,0.0,64,0,3,0
314069746,0.01,50.0,1.01,0.0,0,0,3,0
314102088,0.01,50.0,1.05,0.0,4,0,3,0
314133746,0.01,50.0,1.05,0.0,64,0,3,0
314164943,0.01,50.0,1.04,0.0,64,0,3,0
314197773,0.01,50.0,1.01,0.0,-84,0,3,0
314229950,0.01,50.0,1.02,0.0,64,0,3,0
314260964,0.01,50.0,1.02,0.0,64,0,3,0
314292960,0.01,50.0,1.02,0.0,64,0,3,0
314325486,0.01,50.0,1.02,0.0,64,0,3,0
314357952,0.01,50.0,1.03,0.0,64,0,3,0
314389771,0.01,50.0,1.01,0.0,0,0,3,0
314421761,0.01,50.0,1.05,0.0,64,0,3,0
314454591,0.01,50.0,1.05,0.0,64,0,3,0
314486830,0.01,50.0,1.0,0.0,64,0,3,0
314519013,0.01,50.0,1.02,0.0,64,0,3,0
314550582,0.01,50.0,1.01,0.0,64,0,3,0
314583126,0.01,50.0,1.01,0.0,64,0,3,0
314614536,0.01,50.0,1.02,0.0,4,0,3,0
314646866,0.01,50.0,1.01,0.0,0,0,3,0
314679189,0.01,50.0,1.01,0.0,64,0,3,0
314711815,0.01,50.0,1.02,0.0,0,0,3,0
314743742,0.01,50.0,1.01,0.0,64,0,3,0
314774831,0.01,50.0,1.01,0.0,4,0,3,0
314807386,0.01,50.0,0.97999996,0.0,4,0,3,0
314839783,0.01,50.0,0.97999996,0.0,64,0,3,0
314871799,0.01,50.0,1.01,0.0,-31,0,3,0
314903751,0.01,50.0,0.96,0.0,64,0,3,0
314935762,0.01,50.0,0.96,0.0,64,0,3,0
314967802,0.01,50.0,0.95,0.0,64,0,3,0
314999806,0.01,50.0,0.93,0.0,-72,0,3,0
315380160,0.01,50.0,0.72999996,0.0,64,0,3,0
315412389,0.01,50.0,0.75,0.0,64,0,3,0
315444126,0.01,50.0,0.72999996,0.0,64,0,3,0
315476580,0.01,50.0,0.76,0.0,64,0,3,0
315509297,0.01,50.0,0.72999996,0.0,4,0,3,0
315540776,0.01,50.0,0.76,0.0,64,0,3,0
315572091,0.01,50.0,0.76,0.0,64,0,3,0
315605427,0.01,50.0,0.79999995,0.0,-72,0,3,0
315638007,0.01,50.0,0.82,0.0,0,0,3,0
315669759,0.01,50.0,0.83,0.0,64,0,3,0
315701412,0.01,50.0,0.85999995,0.0,0,0,3,0
315733741,0.01,50.0,0.87,0.0,64,0,3,0
315765755,0.01,50.0,0.88,0.0,0,0,3,0
315796899,0.01,50.0,0.89,0.0,64,0,3,0
315828474,0.01,50.0,0.9,0.0,64,0,3,0
315860538,0.01,50.0,0.93,0.0,64,0,3,0
315892971,0.01,50.0,0.96999997,0.0,64,0,3,0
315924741,0.01,50.0,0.97999996,0.0,64,0,3,0
315957179,0.01,50.0,1.01,0.0,64,0,3,0
315989260,0.01,50.0,0.97999996,0.0,64,0,3,0
316019775,0.01,50.0,0.94,0.0,64,0,3,0
316050908,0.01,50.0,0.87,0.0,64,0,3,0
316082806,0.01,50.0,0.84,0.0,4,0,3,0
316113913,0.01,50.0,0.78999996,0.0,64,0,3,0
316146214,0.01,50.0,0.76,0.0,64,0,3,0
316178186,0.01,50.0,0.76,0.0,64,0,3,0
316210155,0.01,50.0,0.78,0.0,64,0,3,0
316242262,0.01,50.0,0.77,0.0,4,0,3,0
316274573,0.01,50.0,0.82,0.0,64,0,3,0
316305790,0.01,50.0,0.79999995,0.0,64,0,3,0
316338716,0.01,50.0,0.79999995,0.0,0,0,3,0
316369772,0.01,50.0,0.79999995,0.0,64,0,3,0
316402365,0.01,50.0,0.83,0.0,64,0,3,0
316433990,0.01,50.0,0.81,0.0,64,0,3,0
316466332,0.01,50.0,0.83,0.0,64,0,3,0
316498877,0.01,50.0,0.84,0.0,64,0,3,0
316530850,0.01,50.0,0.9,0.0,64,0,3,0
316562117,0.01,50.0,0.94,0.0,4,0,3,0
316593949,0.01,50.0,1.01,0.0,64,0,3,0
316626196,0.01,50.0,1.09,0.0,64,0,3,0
316657986,0.01,50.0,1.16,0.0,64,0,3,0
316690329,0.01,50.0,1.26,0.0,64,0,3,0
316722298,0.01,50.0,1.36,0.0,64,0,3,0
316754852,0.01,50.0,1.4499999,0.0,64,0,3,0
316786907,0.01,50.0,1.54,0.0,0,0,3,0
316818937,0.01,50.0,1.62,0.0,64,0,3,0
316850886,0.01,50.0,1.73,0.0,0,0,3,0
316882913,0.01,50.0,1.81,0.0,0,0,3,0
316914973,0.01,50.0,1.93,0.0,64,0,3,0
316946896,0.01,50.0,1.9699999,0.0,0,0,3,0
316978829,0.01,50.0,2.1299999,0.0,64,0,3,0
317010912,0.01,50.0,2.21,0.0,0,0,3,0
317042834,0.01,50.0,2.32,0.0,64,0,3,0
317074843,0.01,50.0,2.3999999,0.0,64,0,3,0
317106833,0.01,50.0,2.53,0.0,0,0,3,0
317138815,0.01,50.0,2.6,0.0,0,0,3,0
317170792,0.01,50.0,2.73,0.0,64,0,3,0
317202877,0.01,50.0,2.87,0.0,64,0,3,0
317234833,0.01,50.0,2.98,0.0,64,0,3,0
317266835,0.01,50.0,3.09,0.0,0,0,3,0
317298945,0.01,50.0,3.28,0.0,64,0,3,0
317330599,0.01,50.0,3.4399998,0.0,64,0,3,0
317362372,0.01,50.0,3.49,0.0,64,0,3,0
317394850,0.01,50.0,3.6,0.0,64,0,3,0
317426855,0.01,50.0,3.75,0.0,0,0,3,0
317457838,0.01,50.0,3.82,0.0,64,0,3,0
317489771,0.01,50.0,3.9299998,0.0,64,0,3,0
317521928,0.01,50.0,4.04,0.0,64,0,3,0
317553230,0.01,50.0,4.13,0.0,0,0,3,0
317585120,0.01,50.0,4.2999997,0.0,64,0,3,0
317617751,0.01,50.0,4.38,0.0,-72,0,3,0
317649298,0.01,50.0,0.0,0.0,64,0,3,0
317680946,0.01,50.0,4.58,0.0,64,0,3,0
317714029,0.01,50.0,4.73,0.0,4,0,3,0
317745778,0.01,50.0,4.7999997,0.0,64,0,3,0
317776915,0.01,50.0,4.91,0.0,0,0,3,0
317810041,0.01,50.0,4.99,0.0,64,0,3,0
317841979,0.01,50.0,5.13,0.0,0,0,3,0
317874124,0.01,50.0,5.25,0.0,64,0,3,0
317905743,0.01,50.0,5.3399997,0.0,64,0,3,0
317937975,0.01,50.0,5.44,0.0,64,0,3,0
317969010,0.01,50.0,5.5,0.0,64,0,3,0
318001764,0.01,50.0,0.0,0.0,64,0,3,0
318033741,0.01,50.0,5.75,0.0,64,0,3,0
318064948,0.01,50.0,0.0,0.0,64,0,3,0
318097025,0.01,50.0,6.0099998,0.0,64,0,3,0
318129117,0.01,50.0,0.01,0.0,64,0,3,0
318162543,0.01,50.0,6.2,0.0,64,0,3,0
318194888,0.01,50.0,0.5,0.0,64,0,3,0
318226860,0.01,50.0,6.42,0.0,64,0,3,0
318258909,0.01,50.0,0.59999996,0.0,0,0,3,0
318291366,0.01,50.0,6.5699997,0.0,64,0,3,0
318322852,0.01,50.0,0.099999994,0.0,-116,0,3,0
318356736,0.01,50.0,6.83,0.0,4,0,3,0
318389509,0.01,50.0,0.0,0.0,64,0,3,0
318420757,0.01,50.0,7.06,0.0,64,0,3,0
319284959,0.01,50.0,11.74,0.0,64,0,3,0
319316748,0.01,50.0,11.98,0.0,0,0,3,0
319348560,0.01,50.0,2.9299998,0.0,64,0,3,0
319381122,0.01,50.0,12.29,0.0,64,0,3,0
319412125,0.01,50.0,12.389999,0.0,64,0,3,0
319444357,0.01,50.0,0.0,0.0,64,0,3,0
319477123,0.01,50.0,12.82,0.0,64,0,3,0
319508180,0.01,50.0,13.16,0.0,64,0,3,0
319540915,0.01,50.0,13.24,0.0,64,0,3,0
319572747,0.01,50.0,13.389999,0.0,64,0,3,0
319604942,0.01,50.0,13.48,0.0,64,0,3,0
319636765,0.01,50.0,13.62,0.0,64,0,3,0
319669897,0.01,50.0,13.66,0.0,64,0,3,0
319702189,0.01,50.0,14.08,0.0,64,0,3,0
319735118,0.01,50.0,13.91,0.0,-116,0,3,0
319767826,0.01,50.0,14.29,0.0,64,0,3,0
319799745,0.01,50.0,14.25,0.0,64,0,3,0
319831358,0.01,50.0,14.5,0.0,4,0,3,0
319863757,0.01,50.0,14.589999,0.0,0,0,3,0
319895743,0.01,50.0,14.7699995,0.0,64,0,3,0
319927817,0.01,50.0,14.69,0.0,64,0,3,0
319958993,0.01,50.0,14.86,0.0,64,0,3,0
319990879,0.01,50.0,14.91,0.0,0,0,3,0
320022970,0.01,50.0,15.0,0.0,64,0,3,0
320054023,0.01,50.0,15.19,0.0,4,0,3,0
320086340,0.01,50.0,15.08,0.0,4,0,3,0
320118312,0.01,50.0,15.429999,0.0,64,0,3,0
320150873,0.01,50.0,15.139999,0.0,64,0,3,0
320182065,0.01,50.0,15.36,0.0,64,0,3,0
320213776,0.01,50.0,15.38,0.0,64,0,3,0
320246302,0.01,50.0,15.5199995,0.0,64,0,3,0
320278027,0.01,50.0,15.44,0.0,64,0,3,0
320309766,0.01,50.0,15.48,0.0,64,0,3,0
320342899,0.01,50.0,15.38,0.0,64,0,3,0
320374857,0.01,50.0,15.49,0.0,0,0,3,0
320407024,0.01,50.0,15.389999,0.0,64,0,3,0
320439804,0.01,50.0,15.58,0.0,64,0,3,0
320471151,0.01,50.0,15.45,0.0,64,0,3,0
320503912,0.01,50.0,15.45,0.0,64,0,3,0
320535755,0.01,50.0,15.41,0.0,64,0,3,0
320567849,0.01,50.0,15.429999,0.0,64,0,3,0
320599860,0.01,50.0,15.259999,0.0,64,0,3,0
320632145,0.01,50.0,15.4,0.0,64,0,3,0
320663742,0.01,50.0,15.139999,0.0,64,0,3,0
320695359,0.01,50.0,15.139999,0.0,4,0,3,0
320728210,0.01,50.0,14.809999,0.0,64,0,3,0
320759750,0.01,50.0,14.87,0.0,64,0,3,0
320791186,0.01,50.0,14.79,0.0,64,0,3,0
320823799,0.01,50.0,14.759999,0.0,0,0,3,0
320855830,0.01,50.0,14.389999,0.0,64,0,3,0
320887326,0.01,50.0,14.57,0.0,4,0,3,0
320920147,0.01,50.0,14.179999,0.0,0,0,3,0
320951320,0.01,50.0,14.099999,0.0,64,0,3,0
320983820,0.01,50.0,14.07,0.0,64,0,3,0
321015497,0.01,50.0,14.0199995,0.0,64,0,3,0
321047803,0.01,50.0,13.69,0.0,64,0,3,0
321079864,0.01,50.0,13.7,0.0,64,0,3,0
321112556,0.01,50.0,13.38,0.0,0,0,3,0
321145778,0.01,50.0,13.12,0.0,64,0,3,0
321177422,0.01,50.0,0.0,0.0,0,0,3,0
321209761,0.01,50.0,12.99,0.0,0,0,3,0
321241488,0.01,50.0,0.88,0.0,0,0,3,0
321273742,0.01,50.0,12.799999,0.0,64,0,3,0
321304927,0.01,50.0,12.58,0.0,64,0,3,0
321337306,0.01,50.0,12.509999,0.0,64,0,3,0
321369542,0.01,50.0,0.0,0.0,64,0,3,0
321400933,0.01,50.0,11.95,0.0,64,0,3,0
321434012,0.01,50.0,11.92,0.0,64,0,3,0
321465771,0.01,50.0,11.69,0.0,64,0,3,0
321496922,0.01,50.0,0.0,0.0,64,0,3,0
321529924,0.01,50.0,11.73,0.0,64,0,3,0
321561135,0.01,50.0,1.39,0.0,64,0,3,0
321593384,0.01,50.0,11.719999,0.0,64,0,3,0
321625310,0.01,50.0,11.61,0.0,64,0,3,0
321657993,0.01,50.0,0.0,0.0,64,0,3,0
321689490,0.01,50.0,11.69,0.0,64,0,3,0
321721921,0.01,50.0,0.51,0.0,0,0,3,0
321753922,0.01,50.0,11.86,0.0,0,0,3,0
321785948,0.01,50.0,11.83,0.0,64,0,3,0
321818009,0.01,50.0,0.0,0.0,64,0,3,0
321849790,0.01,50.0,12.03,0.0,-72,0,3,0
321883298,0.01,50.0,1.8199999,0.0,64,0,3,0
321915139,0.01,50.0,0.0,0.0,64,0,3,0
321946582,0.01,50.0,12.5,0.0,64,0,3,0
321978962,0.01,50.0,12.639999,0.0,64,0,3,0
322010841,0.01,50.0,12.759999,0.0,64,0,3,0
322042798,0.01,50.0,13.009999,0.0,64,0,3,0
322074848,0.01,50.0,13.17,0.0,64,0,3,0
322107159,0.01,50.0,13.48,0.0,4,0,3,0
322139123,0.01,50.0,1.23,0.0,64,0,3,0
322170564,0.01,50.0,13.99,0.0,64,0,3,0
322203335,0.01,50.0,0.0,0.0,64,0,3,0
322234816,0.01,50.0,14.24,0.0,0,0,3,0
322266371,0.01,50.0,14.46,0.0,64,0,3,0
322299671,0.01,50.0,14.69,0.0,64,0,3,0
322330907,0.01,50.0,14.679999,0.0,64,0,3,0
322362596,0.01,50.0,1.9699999,0.0,64,0,3,0
322395324,0.01,50.0,15.03,0.0,64,0,3,0
322426851,0.01,50.0,1.8299999,0.0,64,0,3,0
322459096,0.01,50.0,1.39,0.0,64,0,3,0
322490761,0.01,50.0,1.3299999,0.0,64,0,3,0
322523162,0.01,50.0,16.029999,0.0,64,0,3,0
322555742,0.01,50.0,16.18,0.0,64,0,3,0
322587619,0.01,50.0,2.49,0.0,64,0,3,0
322619811,0.01,50.0,16.46,0.0,64,0,3,0
322651552,0.01,50.0,16.63,0.0,64,0,3,0
322683764,0.01,50.0,16.51,0.0,64,0,3,0
322715778,0.01,50.0,16.88,0.0,64,0,3,0
322747398,0.01,50.0,16.99,0.0,64,0,3,0
322779761,0.01,50.0,17.07,0.0,64,0,3,0
322811762,0.01,50.0,17.0,0.0,64,0,3,0
322843630,0.01,50.0,17.279999,0.0,4,0,3,0
322875743,0.01,50.0,17.4,0.0,64,0,3,0
322907820,0.01,50.0,17.6,0.0,64,0,3,0
322939593,0.01,50.0,17.66,0.0,0,0,3,0
322971805,0.01,50.0,17.59,0.0,64,0,3,0
323003722,0.01,50.0,17.51,0.0,64,0,3,0
323035742,0.01,50.0,17.76,0.0,64,0,3,0
323067681,0.01,50.0,17.57,0.0,0,0,3,0
323099541,0.01,50.0,17.88,0.0,0,0,3,0
323131497,0.01,50.0,17.789999,0.0,0,0,3,0
323163753,0.01,50.0,17.69,0.0,64,0,3,0
323195751,0.01,50.0,17.71,0.0,64,0,3,0
323227802,0.01,50.0,17.67,0.0,64,0,3,0
323259588,0.01,50.0,17.5,0.0,-72,0,3,0
323291745,0.01,50.0,17.83,0.0,64,0,3,0
323323783,0.01,50.0,17.57,0.0,64,0,3,0
323355802,0.01,50.0,17.8,0.0,64,0,3,0
323386877,0.01,50.0,17.65,0.0,0,0,3,0
323418292,0.01,50.0,0.0,0.0,4,0,3,0
323450269,0.01,50.0,0.0,0.0,64,0,3,0
323482814,0.01,50.0,17.21,0.0,64,0,3,0
323514533,0.01,50.0,16.97,0.0,64,0,3,0
323546843,0.01,50.0,17.109999,0.0,64,0,3,0
323577943,0.01,50.0,16.93,0.0,64,0,3,0
323611018,0.01,50.0,16.619999,0.0,64,0,3,0
323642862,0.01,50.0,16.609999,0.0,64,0,3,0
323673767,0.01,50.0,16.5,0.0,64,0,3,0
323706126,0.01,50.0,16.109999,0.0,64,0,3,0
323738141,0.01,50.0,2.24,0.0,64,0,3,0
323770541,0.01,50.0,0.0,0.0,64,0,3,0
323802960,0.01,50.0,15.849999,0.0,64,0,3,0
323834857,0.01,50.0,15.66,0.0,64,0,3,0
323866852,0.01,50.0,0.0,0.0,0,0,3,0
323898893,0.01,50.0,15.28,0.0,64,0,3,0
323930573,0.01,50.0,0.0,0.0,64,0,3,0
323962839,0.01,50.0,15.009999,0.0,0,0,3,0
323994835,0.01,50.0,0.0,0.0,64,0,3,0
324026903,0.01,50.0,14.83,0.0,0,0,3,0
324058864,0.01,50.0,14.7,0.0,64,0,3,0
324091684,0.01,50.0,14.639999,0.0,0,0,3,0
324123790,0.01,50.0,14.559999,0.0,64,0,3,0
324155799,0.01,50.0,1.6999999,0.0,64,0,3,0
324187802,0.01,50.0,14.219999,0.0,64,0,3,0
324219337,0.01,50.0,14.16,0.0,4,0,3,0
324251772,0.01,50.0,0.0,0.0,64,0,3,0
324283794,0.01,50.0,13.87,0.0,0,0,3,0
324315358,0.01,50.0,13.83,0.0,4,0,3,0
324347813,0.01,50.0,0.0,0.0,64,0,3,0
324379378,0.01,50.0,13.53,0.0,64,0,3,0
324411156,0.01,50.0,13.61,0.0,64,0,3,0
324444321,0.01,50.0,13.599999,0.0,64,0,3,0
324475322,0.01,50.0,1.3299999,0.0,64,0,3,0
324507836,0.01,50.0,13.36,0.0,64,0,3,0
324539776,0.01,50.0,13.299999,0.0,64,0,3,0
324571833,0.01,50.0,0.0,0.0,64,0,3,0
324603337,0.01,50.0,2.07,0.0,64,0,3,0
324636145,0.01,50.0,13.19,0.0,64,0,3,0
324667803,0.01,50.0,13.2,0.0,-72,0,3,0
324699395,0.01,50.0,0.0,0.0,64,0,3,0
324731752,0.01,50.0,12.98,0.0,64,0,3,0
324763377,0.01,50.0,13.009999,0.0,64,0,3,0
324795804,0.01,50.0,13.099999,0.0,64,0,3,0
324828623,0.01,50.0,1.09,0.0,64,0,3,0
324861017,0.01,50.0,12.98,0.0,64,0,3,0
324893154,0.01,50.0,12.95,0.0,64,0,3,0
324925723,0.01,50.0,0.0,0.0,64,0,3,0
324958069,0.01,50.0,1.73,0.0,64,0,3,0
324988936,0.01,50.0,12.87,0.0,64,0,3,0
325020953,0.01,50.0,12.95,0.0,64,0,3,0
325053138,0.01,50.0,0.0,0.0,4,0,3,0
325085480,0.01,50.0,12.88,0.0,64,0,3,0
325117958,0.01,50.0,13.009999,0.0,64,0,3,0
325149820,0.01,50.0,0.0,0.0,64,0,3,0
325180918,0.01,50.0,1.35,0.0,64,0,3,0
325212916,0.01,50.0,13.19,0.0,64,0,3,0
325245340,0.01,50.0,13.28,0.0,64,0,3,0
325278027,0.01,50.0,0.0,0.0,64,0,3,0
325309418,0.01,50.0,13.309999,0.0,64,0,3,0
325340753,0.01,50.0,13.389999,0.0,64,0,3,0
325373121,0.01,50.0,0.0,0.0,64,0,3,0
325405212,0.01,50.0,1.25,0.0,64,0,3,0
325436935,0.01,50.0,13.75,0.0,64,0,3,0
325469462,0.01,50.0,13.69,0.0,64,0,3,0
325501916,0.01,50.0,0.0,0.0,64,0,3,0
325533192,0.01,50.0,13.79,0.0,64,0,3,0
325566613,0.01,50.0,14.009999,0.0,64,0,3,0
325598841,0.01,50.0,0.84999996,0.0,64,0,3,0
325631056,0.01,50.0,14.19,0.0,64,0,3,0
325663292,0.01,50.0,14.34,0.0,64,0,3,0
325695103,0.01,50.0,0.0,0.0,64,0,3,0
325726542,0.01,50.0,14.61,0.0,64,0,3,0
325759311,0.01,50.0,14.75,0.0,64,0,3,0
325790769,0.01,50.0,14.849999,0.0,0,0,3,0
325823324,0.01,50.0,1.42,0.0,64,0,3,0
325854866,0.01,50.0,15.179999,0.0,64,0,3,0
325886827,0.01,50.0,15.4,0.0,64,0,3,0
325919059,0.01,50.0,1.0799999,0.0,64,0,3,0
325950930,0.01,50.0,15.73,0.0,64,0,3,0
325982395,0.01,50.0,15.92,0.0,4,0,3,0
326015159,0.01,50.0,1.1899999,0.0,64,0,3,0
326046928,0.01,50.0,15.98,0.0,64,0,3,0
326079172,0.01,50.0,16.23,0.0,64,0,3,0
326110960,0.01,50.0,0.52,0.0,64,0,3,0
326143363,0.01,50.0,16.49,0.0,64,0,3,0
326175007,0.01,50.0,16.71,0.0,64,0,3,0
326206891,0.01,50.0,0.58,0.0,0,0,3,0
326238690,0.01,50.0,16.9,0.0,64,0,3,0
326270946,0.01,50.0,0.0,0.0,64,0,3,0
326304538,0.01,50.0,17.25,0.0,64,0,3,0
326336626,0.01,50.0,17.47,0.0,64,0,3,0
326368323,0.01,50.0,17.4,0.0,64,0,3,0
326401129,0.01,50.0,17.69,0.0,0,0,3,0
326432147,0.01,50.0,17.84,0.0,64,0,3,0
326464692,0.01,50.0,17.619999,0.0,64,0,3,0
326496945,0.01,50.0,17.94,0.0,64,0,3,0
326528742,0.01,50.0,17.73,0.0,64,0,3,0
326560128,0.01,50.0,18.17,0.0,64,0,3,0
326592123,0.01,50.0,18.42,0.0,64,0,3,0
326624165,0.01,50.0,18.52,0.0,64,0,3,0
326656207,0.01,50.0,18.27,0.0,0,0,3,0
326688616,0.01,50.0,18.31,0.0,0,0,3,0
326720772,0.01,50.0,18.47,0.0,0,0,3,0
326752668,0.01,50.0,18.47,0.0,64,0,3,0
326784769,0.01,50.0,18.57,0.0,64,0,3,0
326816742,0.01,50.0,18.76,0.0,64,0,3,0
326848763,0.01,50.0,18.43,0.0,64,0,3,0
326881261,0.01,50.0,18.21,0.0,4,0,3,0
326912747,0.01,50.0,18.3,0.0,64,0,3,0
326944154,0.01,50.0,18.32,0.0,64,0,3,0
326977104,0.01,50.0,18.14,0.0,64,0,3,0
327008140,0.01,50.0,18.08,0.0,64,0,3,0
327038863,0.01,50.0,17.9,0.0,64,0,3,0
327070539,0.01,50.0,17.93,0.0,64,0,3,0
327102825,0.01,50.0,17.64,0.0,64,0,3,0
327134878,0.01,50.0,17.789999,0.0,64,0,3,0
327166823,0.01,50.0,17.63,0.0,0,0,3,0
327198682,0.01,50.0,17.68,0.0,4,0,3,0
327229972,0.01,50.0,17.4,0.0,0,0,3,0
327262559,0.01,50.0,1.16,0.0,64,0,3,0
327294812,0.01,50.0,0.0,0.0,64,0,3,0
327326797,0.01,50.0,0.0,0.0,64,0,3,0
327358079,0.01,50.0,17.199999,0.0,4,0,3,0
327390273,0.01,50.0,17.05,0.0,64,0,3,0
327422851,0.01,50.0,17.039999,0.0,64,0,3,0
327454002,0.01,50.0,16.89,0.0,64,0,3,0
327485915,0.01,50.0,16.46,0.0,0,0,3,0
327517991,0.01,50.0,16.56,0.0,0,0,3,0
327550262,0.01,50.0,1.56,0.0,64,0,3,0
327581756,0.01,50.0,0.0,0.0,64,0,3,0
327614952,0.01,50.0,16.02,0.0,64,0,3,0
327646090,0.01,50.0,15.7699995,0.0,4,0,3,0
327677949,0.01,50.0,15.78,0.0,64,0,3,0
327710225,0.01,50.0,0.68,0.0,64,0,3,0
327741761,0.01,50.0,15.49,0.0,64,0,3,0
327775586,0.01,50.0,15.179999,0.0,64,0,3,0
327807805,0.01,50.0,14.99,0.0,64,0,3,0
327839760,0.01,50.0,0.19999999,0.0,0,0,3,0
327872123,0.01,50.0,14.79,0.0,64,0,3,0
327903631,0.01,50.0,14.58,0.0,4,0,3,0
327935747,0.01,50.0,14.38,0.0,64,0,3,0
327967801,0.01,50.0,14.25,0.0,64,0,3,0
327999903,0.01,50.0,14.2,0.0,0,0,3,0
328031797,0.01,50.0,0.22,0.0,64,0,3,0
328063825,0.01,50.0,2.19,0.0,64,0,3,0
328095322,0.01,50.0,13.46,0.0,-116,0,3,0
328128148,0.01,50.0,13.4,0.0,0,0,3,0
328159919,0.01,50.0,13.33,0.0,64,0,3,0
328191388,0.01,50.0,13.15,0.0,4,0,3,0
328223504,0.01,50.0,13.09,0.0,0,0,3,0
328255772,0.01,50.0,13.0199995,0.0,64,0,3,0
328287967,0.01,50.0,0.0,0.0,4,0,3,0
328319524,0.01,50.0,0.0,0.0,64,0,3,0
328351880,0.01,50.0,1.5799999,0.0,64,0,3,0
328383319,0.01,50.0,12.559999,0.0,4,0,3,0
328416146,0.01,50.0,12.62,0.0,64,0,3,0
328448152,0.01,50.0,12.559999,0.0,64,0,3,0
328479383,0.01,50.0,12.53,0.0,64,0,3,0
328510870,0.01,50.0,12.5199995,0.0,64,0,3,0
328542848,0.01,50.0,12.53,0.0,64,0,3,0
328574909,0.01,50.0,0.0,0.0,64,0,3,0
328605745,0.01,50.0,0.45,0.0,64,0,3,0
328637932,0.01,50.0,1.8499999,0.0,64,0,3,0
328669757,0.01,50.0,12.25,0.0,64,0,3,0
328701497,0.01,50.0,12.349999,0.0,4,0,3,0
328733743,0.01,50.0,12.37,0.0,64,0,3,0
328764742,0.01,50.0,12.389999,0.0,64,0,3,0
328796770,0.01,50.0,0.0,0.0,64,0,3,0
328828890,0.01,50.0,1.15,0.0,64,0,3,0
328860877,0.01,50.0,12.33,0.0,64,0,3,0
328892758,0.01,50.0,12.37,0.0,64,0,3,0
328924940,0.01,50.0,12.4,0.0,0,0,3,0
328956932,0.01,50.0,12.5199995,0.0,64,0,3,0
328988762,0.01,50.0,0.0,0.0,64,0,3,0
329020939,0.01,50.0,0.28,0.0,0,0,3,0
329052944,0.01,50.0,2.21,0.0,64,0,3,0
329084329,0.01,50.0,12.849999,0.0,64,0,3,0
329116769,0.01,50.0,12.99,0.0,64,0,3,0
329148761,0.01,50.0,13.07,0.0,64,0,3,0
329180741,0.01,50.0,0.0,0.0,64,0,3,0
329212984,0.01,50.0,1.3199999,0.0,64,0,3,0
329244743,0.01,50.0,13.32,0.0,64,0,3,0
329275749,0.01,50.0,13.38,0.0,64,0,3,0
329306858,0.01,50.0,13.469999,0.0,4,0,3,0
329338854,0.01,50.0,0.0,0.0,0,0,3,0
329370846,0.01,50.0,1.93,0.0,64,0,3,0
329403094,0.01,50.0,13.75,0.0,-72,0,3,0
329434835,0.01,50.0,13.88,0.0,64,0,3,0
329467108,0.01,50.0,14.179999,0.0,64,0,3,0
329499065,0.01,50.0,0.0,0.0,64,0,3,0
329530898,0.01,50.0,1.87,0.0,64,0,3,0
329562830,0.01,50.0,14.66,0.0,64,0,3,0
329595156,0.01,50.0,14.969999,0.0,64,0,3,0
329627854,0.01,50.0,15.259999,0.0,64,0,3,0
329658932,0.01,50.0,0.17999999,0.0,0,0,3,0
329690816,0.01,50.0,3.02,0.0,64,0,3,0
329723325,0.01,50.0,15.549999,0.0,64,0,3,0
329755747,0.01,50.0,15.759999,0.0,64,0,3,0
329787843,0.01,50.0,0.0,0.0,64,0,3,0
329819756,0.01,50.0,1.1,0.0,64,0,3,0
329850841,0.01,50.0,16.24,0.0,64,0,3,0
329883361,0.01,50.0,16.38,0.0,64,0,3,0
329915814,0.01,50.0,16.68,0.0,64,0,3,0
329947804,0.01,50.0,2.0,0.0,64,0,3,0
329979351,0.01,50.0,16.98,0.0,4,0,3,0
330011752,0.01,50.0,17.289999,0.0,0,0,3,0
330043834,0.01,50.0,17.41,0.0,64,0,3,0
330076168,0.01,50.0,17.76,0.0,64,0,3,0
330107849,0.01,50.0,17.93,0.0,64,0,3,0
330140723,0.01,50.0,18.1,0.0,0,0,3,0
330172745,0.01,50.0,18.359999,0.0,0,0,3,0
330204542,0.01,50.0,18.47,0.0,64,0,3,0
330236767,0.01,50.0,18.65,0.0,64,0,3,0
330267844,0.01,50.0,18.699999,0.0,64,0,3,0
330299771,0.01,50.0,0.0,0.0,64,0,3,0
330331872,0.01,50.0,18.75,0.0,64,0,3,0
330363357,0.01,50.0,0.0,0.0,4,0,3,0
330395742,0.01,50.0,0.0,0.0,64,0,3,0
330428130,0.01,50.0,0.94,0.0,0,0,3,0
330459506,0.01,50.0,19.26,0.0,4,0,3,0
330491757,0.01,50.0,2.9299998,0.0,64,0,3,0
330523781,0.01,50.0,19.42,0.0,64,0,3,0
330555816,0.01,50.0,19.88,0.0,4,0,3,0
330587648,0.01,50.0,19.75,0.0,64,0,3,0
330619750,0.01,50.0,19.73,0.0,64,0,3,0
330651736,0.01,50.0,19.88,0.0,64,0,3,0
330683689,0.01,50.0,19.699999,0.0,64,0,3,0
330715788,0.01,50.0,19.939999,0.0,64,0,3,0
330748356,0.01,50.0,0.0,0.0,64,0,3,0
330780580,0.01,50.0,0.44,0.0,4,0,3,0
330812752,0.01,50.0,1.25,0.0,64,0,3,0
330843742,0.01,50.0,19.82,0.0,64,0,3,0
330876168,0.01,50.0,19.59,0.0,64,0,3,0
330907343,0.01,50.0,19.52,0.0,4,0,3,0
330941555,0.01,50.0,19.34,0.0,64,0,3,0
330973349,0.01,50.0,19.279999,0.0,0,0,3,0
331005714,0.01,50.0,19.14,0.0,64,0,3,0
331037961,0.01,50.0,19.029999,0.0,0,0,3,0
331069825,0.01,50.0,0.0,0.0,0,0,3,0
331100945,0.01,50.0,0.56,0.0,64,0,3,0
331133127,0.01,50.0,1.41,0.0,0,0,3,0
331165496,0.01,50.0,1.52,0.0,0,0,3,0
331198011,0.01,50.0,2.02,0.0,64,0,3,0
331229722,0.01,50.0,18.289999,0.0,64,0,3,0
331261749,0.01,50.0,2.6699998,0.0,64,0,3,0
331292954,0.01,50.0,2.7,0.0,0,0,3,0
331325210,0.01,50.0,17.84,0.0,64,0,3,0
331357337,0.01,50.0,17.66,0.0,64,0,3,0
331389747,0.01,50.0,17.58,0.0,64,0,3,0
331421743,0.01,50.0,17.14,0.0,64,0,3,0
331453760,0.01,50.0,17.14,0.0,64,0,3,0
331485965,0.01,50.0,16.9,0.0,0,0,3,0
331517996,0.01,50.0,16.73,0.0,-72,0,3,0
331549787,0.01,50.0,16.57,0.0,52,0,3,0
331581771,0.01,50.0,16.56,0.0,64,0,3,0
331613770,0.01,50.0,16.1,0.0,64,0,3,0
331645226,0.01,50.0,15.969999,0.0,4,0,3,0
331676742,0.01,50.0,1.28,0.0,64,0,3,0
331708742,0.01,50.0,15.549999,0.0,64,0,3,0
331740742,0.01,50.0,0.0,0.0,64,0,3,0
331771742,0.01,50.0,1.66,0.0,64,0,3,0
331802924,0.01,50.0,14.71,0.0,64,0,3,0
331834848,0.01,50.0,14.5199995,0.0,0,0,3,0
331866559,0.01,50.0,14.25,0.0,4,0,3,0
331898916,0.01,50.0,0.0,0.0,64,0,3,0
331931048,0.01,50.0,0.71999997,0.0,64,0,3,0
331962514,0.01,50.0,13.639999,0.0,64,0,3,0
331994802,0.01,50.0,13.54,0.0,64,0,3,0
332027079,0.01,50.0,13.32,0.0,64,0,3,0
332059118,0.01,50.0,13.28,0.0,64,0,3,0
332091147,0.01,50.0,0.34,0.0,0,0,3,0
332123029,0.01,50.0,12.889999,0.0,-116,0,3,0
332155620,0.01,50.0,12.73,0.0,64,0,3,0
332187312,0.01,50.0,12.63,0.0,64,0,3,0
332219741,0.01,50.0,0.79999995,0.0,64,0,3,0
332251742,0.01,50.0,12.259999,0.0,64,0,3,0
332283973,0.01,50.0,12.17,0.0,4,0,3,0
332315745,0.01,50.0,0.0,0.0,64,0,3,0
332347838,0.01,50.0,11.849999,0.0,0,0,3,0
332379026,0.01,50.0,11.759999,0.0,64,0,3,0
332411353,0.01,50.0,11.67,0.0,64,0,3,0
332444787,0.01,50.0,0.56,0.0,64,0,3,0
332476892,0.01,50.0,11.5199995,0.0,64,0,3,0
332508757,0.01,50.0,11.469999,0.0,64,0,3,0
332540147,0.01,50.0,0.0,0.0,64,0,3,0
332572399,0.01,50.0,11.3,0.0,64,0,3,0
332604910,0.01,50.0,11.179999,0.0,64,0,3,0
332636934,0.01,50.0,0.0,0.0,64,0,3,0
332668292,0.01,50.0,11.01,0.0,64,0,3,0
332700172,0.01,50.0,10.96,0.0,0,0,3,0
332732694,0.01,50.0,0.0,0.0,64,0,3,0
332764549,0.01,50.0,10.7699995,0.0,64,0,3,0
332796976,0.01,50.0,10.7699995,0.0,0,0,3,0
332828145,0.01,50.0,0.0,0.0,-72,0,3,0
332861195,0.01,50.0,10.599999,0.0,64,0,3,0
332892765,0.01,50.0,10.54,0.0,64,0,3,0
332923953,0.01,50.0,10.46,0.0,64,0,3,0
332956734,0.01,50.0,10.38,0.0,64,0,3,0
332988742,0.01,50.0,10.15,0.0,64,0,3,0
333020354,0.01,50.0,10.16,0.0,64,0,3,0
333052942,0.01,50.0,0.0,0.0,64,0,3,0
333084770,0.01,50.0,9.76,0.0,64,0,3,0
333116518,0.01,50.0,2.3,0.0,64,0,3,0
333149244,0.01,50.0,9.16,0.0,0,0,3,0
333180949,0.01,50.0,8.929999,0.0,64,0,3,0
333213494,0.01,50.0,8.65,0.0,64,0,3,0
333245282,0.01,50.0,8.54,0.0,0,0,3,0
333276960,0.01,50.0,0.0,0.0,64,0,3,0
333309753,0.01,50.0,8.13,0.0,64,0,3,0
333341765,0.01,50.0,1.4599999,0.0,4,0,3,0
333373897,0.01,50.0,7.93,0.0,64,0,3,0
333405519,0.01,50.0,8.08,0.0,64,0,3,0
333437931,0.01,50.0,8.41,0.0,64,0,3,0
333469749,0.01,50.0,1.4699999,0.0,64,0,3,0
333501746,0.01,50.0,8.66,0.0,64,0,3,0
333534588,0.01,50.0,8.849999,0.0,-116,0,3,0
333566940,0.01,50.0,8.86,0.0,0,0,3,0
333597896,0.01,50.0,8.82,0.0,64,0,3,0
333629779,0.01,50.0,8.96,0.0,64,0,3,0
333661753,0.01,50.0,2.25,0.0,0,0,3,0
333693405,0.01,50.0,8.9,0.0,0,0,3,0
333725214,0.01,50.0,8.94,0.0,0,0,3,0
333756926,0.01,50.0,1.23,0.0,0,0,3,0
333790108,0.01,50.0,8.74,0.0,64,0,3,0
333821782,0.01,50.0,8.72,0.0,4,0,3,0
333853912,0.01,50.0,8.63,0.0,0,0,3,0
333885772,0.01,50.0,8.639999,0.0,64,0,3,0
333917971,0.01,50.0,0.0,0.0,4,0,3,0
333949750,0.01,50.0,8.45,0.0,64,0,3,0
333980937,0.01,50.0,8.389999,0.0,64,0,3,0
334013738,0.01,50.0,8.41,0.0,64,0,3,0
334045782,0.01,50.0,0.0,0.0,64,0,3,0
334077162,0.01,50.0,8.08,0.0,4,0,3,0
334107804,0.01,50.0,0.0,0.0,64,0,3,0
334139746,0.01,50.0,7.7799997,0.0,64,0,3,0
334170899,0.01,50.0,0.0,0.0,64,0,3,0
334202540,0.01,50.0,7.6099997,0.0,0,0,3,0
334234587,0.01,50.0,7.5699997,0.0,64,0,3,0
334266969,0.01,50.0,7.6499996,0.0,64,0,3,0
334299105,0.01,50.0,0.0,0.0,64,0,3,0
334331016,0.01,50.0,7.5099998,0.0,4,0,3,0
334362889,0.01,50.0,0.91999996,0.0,64,0,3,0
334394830,0.01,50.0,6.89,0.0,0,0,3,0
334427691,0.01,50.0,6.52,0.0,64,0,3,0
334459742,0.01,50.0,6.43,0.0,64,0,3,0
334491811,0.01,50.0,6.35,0.0,64,0,3,0
334523742,0.01,50.0,6.2599998,0.0,64,0,3,0
334554851,0.01,50.0,6.18,0.0,64,0,3,0
334586924,0.01,50.0,6.25,0.0,0,0,3,0
334619080,0.01,50.0,6.12,0.0,4,0,3,0
334651435,0.01,50.0,6.18,0.0,4,0,3,0
334683747,0.01,50.0,6.2,0.0,64,0,3,0
334715109,0.01,50.0,0.25,0.0,64,0,3,0
334746941,0.01,50.0,6.5299997,0.0,4,0,3,0
334778838,0.01,50.0,6.6299996,0.0,64,0,3,0
334810817,0.01,50.0,6.56,0.0,64,0,3,0
334843773,0.01,50.0,6.62,0.0,64,0,3,0
334876166,0.01,50.0,6.58,0.0,64,0,3,0
334908665,0.01,50.0,6.5899997,0.0,64,0,3,0
334940770,0.01,50.0,6.58,0.0,0,0,3,0
334972910,0.01,50.0,6.5899997,0.0,0,0,3,0
335004625,0.01,50.0,6.5499997,0.0,64,0,3,0
335036749,0.01,50.0,6.5899997,0.0,64,0,3,0
335068175,0.01,50.0,6.49,0.0,64,0,3,0
335100770,0.01,50.0,0.0,0.0,64,0,3,0
335132137,0.01,50.0,6.42,0.0,0,0,3,0
335164095,0.01,50.0,6.41,0.0,64,0,3,0
335196369,0.01,50.0,0.0,0.0,64,0,3,0
335228748,0.01,50.0,6.3799996,0.0,64,0,3,0
335260635,0.01,50.0,6.37,0.0,64,0,3,0
335292624,0.01,50.0,0.0,0.0,64,0,3,0
335324772,0.01,50.0,6.35,0.0,64,0,3,0
335357109,0.01,50.0,6.33,0.0,64,0,3,0
335388915,0.01,50.0,6.31,0.0,64,0,3,0
335420122,0.01,50.0,6.31,0.0,64,0,3,0
335452740,0.01,50.0,6.25,0.0,0,0,3,0
335484742,0.01,50.0,6.2,0.0,64,0,3,0
335516759,0.01,50.0,0.0,0.0,64,0,3,0
335549736,0.01,50.0,6.22,0.0,64,0,3,0
335581328,0.01,50.0,6.24,0.0,64,0,3,0
335613939,0.01,50.0,6.29,0.0,64,0,3,0
335645743,0.01,50.0,0.0,0.0,64,0,3,0
335677942,0.01,50.0,6.35,0.0,64,0,3,0
335709772,0.01,50.0,6.44,0.0,64,0,3,0
335741163,0.01,50.0,6.43,0.0,64,0,3,0
335773139,0.01,50.0,6.47,0.0,64,0,3,0
335805145,0.01,50.0,0.14,0.0,64,0,3,0
335837310,0.01,50.0,6.62,0.0,64,0,3,0
335869747,0.01,50.0,6.7,0.0,64,0,3,0
335901132,0.01,50.0,6.74,0.0,64,0,3,0
335933138,0.01,50.0,6.81,0.0,64,0,3,0
335964967,0.01,50.0,6.85,0.0,64,0,3,0
335997292,0.01,50.0,6.8599997,0.0,0,0,3,0
336029004,0.01,50.0,0.0,0.0,64,0,3,0
336061106,0.01,50.0,0.0,0.0,64,0,3,0
336091799,0.01,50.0,0.34,0.0,64,0,3,0
336122874,0.01,50.0,1.29,0.0,4,0,3,0
336154842,0.01,50.0,7.39,0.0,0,0,3,0
336186883,0.01,50.0,7.5499997,0.0,64,0,3,0
336218174,0.01,50.0,7.68,0.0,64,0,3,0
336250146,0.01,50.0,7.7599998,0.0,64,0,3,0
336280743,0.01,50.0,7.89,0.0,64,0,3,0
336311783,0.01,50.0,8.0199995,0.0,64,0,3,0
336343786,0.01,50.0,0.0,0.0,64,0,3,0
336374908,0.01,50.0,1.56,0.0,64,0,3,0
336406848,0.01,50.0,8.46,0.0,64,0,3,0
336438696,0.01,50.0,8.74,0.0,64,0,3,0
336470855,0.01,50.0,8.929999,0.0,64,0,3,0
336502270,0.01,50.0,9.059999,0.0,64,0,3,0
336534826,0.01,50.0,0.0,0.0,64,0,3,0
336566819,0.01,50.0,1.29,0.0,0,0,3,0
336598811,0.01,50.0,9.54,0.0,64,0,3,0
336630965,0.01,50.0,9.61,0.0,64,0,3,0
336662824,0.01,50.0,9.82,0.0,64,0,3,0
336694855,0.01,50.0,0.34,0.0,64,0,3,0
336726947,0.01,50.0,10.3,0.0,64,0,3,0
336758933,0.01,50.0,0.96,0.0,64,0,3,0
336790363,0.01,50.0,10.559999,0.0,64,0,3,0
336822342,0.01,50.0,10.76,0.0,64,0,3,0
336854900,0.01,50.0,11.04,0.0,64,0,3,0
336886375,0.01,50.0,11.08,0.0,64,0,3,0
336918665,0.01,50.0,11.32,0.0,0,0,3,0
336950355,0.01,50.0,11.37,0.0,-72,0,3,0
336982893,0.01,50.0,11.58,0.0,0,0,3,0
337013792,0.01,50.0,1.22,0.0,64,0,3,0
337045803,0.01,50.0,12.0,0.0,64,0,3,0
337077964,0.01,50.0,11.91,0.0,64,0,3,0
337109759,0.01,50.0,12.009999,0.0,64,0,3,0
337141742,0.01,50.0,11.96,0.0,64,0,3,0
337173398,0.01,50.0,12.11,0.0,4,0,3,0
337204779,0.01,50.0,0.0,0.0,64,0,3,0
337237119,0.01,50.0,1.1899999,0.0,64,0,3,0
337269803,0.01,50.0,12.38,0.0,64,0,3,0
337301779,0.01,50.0,12.23,0.0,64,0,3,0
337332959,0.01,50.0,12.41,0.0,64,0,3,0
337366180,0.01,50.0,12.28,0.0,64,0,3,0
337397996,0.01,50.0,0.0,0.0,64,0,3,0
337430054,0.01,50.0,0.35999998,0.0,64,0,3,0
337461751,0.01,50.0,1.9399999,0.0,0,0,3,0
337493745,0.01,50.0,12.05,0.0,64,0,3,0
337525924,0.01,50.0,12.08,0.0,64,0,3,0
337557861,0.01,50.0,12.05,0.0,4,0,3,0
337588974,0.01,50.0,12.04,0.0,64,0,3,0
337620945,0.01,50.0,12.03,0.0,64,0,3,0
337653142,0.01,50.0,11.809999,0.0,64,0,3,0
337684957,0.01,50.0,11.639999,0.0,64,0,3,0
337716958,0.01,50.0,0.0,0.0,64,0,3,0
337748770,0.01,50.0,0.0,0.0,64,0,3,0
337779800,0.01,50.0,1.03,0.0,64,0,3,0
337811742,0.01,50.0,1.03,0.0,64,0,3,0
337842885,0.01,50.0,1.38,0.0,0,0,3,0
337874010,0.01,50.0,1.81,0.0,64,0,3,0
337906113,0.01,50.0,2.07,0.0,64,0,3,0
337938122,0.01,50.0,2.04,0.0,0,0,3,0
337969948,0.01,50.0,1.35,0.0,0,0,3,0
338001993,0.01,50.0,0.0,0.0,64,0,3,0
338033920,0.01,50.0,9.87,0.0,64,0,3,0
338065921,0.01,50.0,1.56,0.0,0,0,3,0
338098360,0.01,50.0,9.63,0.0,64,0,3,0
338129961,0.01,50.0,9.45,0.0,64,0,3,0
338161919,0.01,50.0,9.22,0.0,64,0,3,0
338194092,0.01,50.0,9.0199995,0.0,64,0,3,0
338224752,0.01,50.0,1.38,0.0,64,0,3,0
338255751,0.01,50.0,8.75,0.0,64,0,3,0
338287801,0.01,50.0,8.74,0.0,64,0,3,0
338319566,0.01,50.0,0.63,0.0,0,0,3,0
338350985,0.01,50.0,8.5,0.0,4,0,3,0
338382940,0.01,50.0,8.4,0.0,0,0,3,0
338414888,0.01,50.0,0.0,0.0,64,0,3,0
338447626,0.01,50.0,8.44,0.0,64,0,3,0
338479878,0.01,50.0,8.42,0.0,64,0,3,0
338511543,0.01,50.0,0.0,0.0,64,0,3,0
338543545,0.01,50.0,8.49,0.0,64,0,3,0
338575741,0.01,50.0,8.44,0.0,64,0,3,0
338607684,0.01,50.0,0.31,0.0,0,0,3,0
338639818,0.01,50.0,8.44,0.0,0,0,3,0
338671754,0.01,50.0,8.559999,0.0,64,0,3,0
338703754,0.01,50.0,8.69,0.0,64,0,3,0
338735750,0.01,50.0,8.7699995,0.0,64,0,3,0
338767524,0.01,50.0,8.82,0.0,0,0,3,0
338799761,0.01,50.0,8.99,0.0,64,0,3,0
338831763,0.01,50.0,9.17,0.0,64,0,3,0
338863580,0.01,50.0,9.24,0.0,-72,0,3,0
338895551,0.01,50.0,9.349999,0.0,64,0,3,0
338927845,0.01,50.0,0.0,0.0,64,0,3,0
338959644,0.01,50.0,0.56,0.0,64,0,3,0
338991744,0.01,50.0,1.36,0.0,64,0,3,0
339023495,0.01,50.0,2.18,0.0,64,0,3,0
339055762,0.01,50.0,10.19,0.0,64,0,3,0
339087500,0.01,50.0,10.349999,0.0,64,0,3,0
339119765,0.01,50.0,10.57,0.0,64,0,3,0
339151826,0.01,50.0,10.809999,0.0,64,0,3,0
339182925,0.01,50.0,11.03,0.0,64,0,3,0
339213779,0.01,50.0,0.0,0.0,64,0,3,0
339245744,0.01,50.0,0.71,0.0,64,0,3,0
339277937,0.01,50.0,11.34,0.0,0,0,3,0
339309908,0.01,50.0,11.58,0.0,0,0,3,0
339341757,0.01,50.0,1.91,0.0,64,0,3,0
339373245,0.01,50.0,12.139999,0.0,0,0,3,0
339405120,0.01,50.0,12.34,0.0,64,0,3,0
339437270,0.01,50.0,1.9699999,0.0,0,0,3,0
339468771,0.01,50.0,0.099999994,0.0,4,0,3,0
339501145,0.01,50.0,0.0,0.0,0,0,3,0
339533115,0.01,50.0,0.0,0.0,64,0,3,0
339563928,0.01,50.0,0.0,0.0,4,0,3,0
339597287,0.01,50.0,0.0,0.0,64,0,3,0
339629139,0.01,50.0,13.33,0.0,64,0,3,0
339661281,0.01,50.0,13.59,0.0,64,0,3,0
339693228,0.01,50.0,13.559999,0.0,64,0,3,0
339723796,0.01,50.0,13.679999,0.0,64,0,3,0
339754982,0.01,50.0,13.91,0.0,4,0,3,0
339787335,0.01,50.0,13.96,0.0,4,0,3,0
339819173,0.01,50.0,14.36,0.0,4,0,3,0
339851367,0.01,50.0,0.0,0.0,4,0,3,0
339883372,0.01,50.0,1.0,0.0,4,0,3,0
339915022,0.01,50.0,0.7,0.0,4,0,3,0
339947400,0.01,50.0,1.7099999,0.0,4,0,3,0
339979808,0.01,50.0,13.96,0.0,4,0,3,0
340011673,0.01,50.0,14.03,0.0,4,0,3,0
340043666,0.01,50.0,14.009999,0.0,4,0,3,0
340075429,0.01,50.0,14.07,0.0,4,0,3,0
340106983,0.01,50.0,14.17,0.0,4,0,3,0
340139368,0.01,50.0,13.969999,0.0,4,0,3,0
340171490,0.01,50.0,14.08,0.0,4,0,3,0
340203591,0.01,50.0,13.73,0.0,4,0,3,0
340235347,0.01,50.0,13.88,0.0,4,0,3,0
340267882,0.01,50.0,13.429999,0.0,4,0,3,0
340300315,0.01,50.0,13.57,0.0,4,0,3,0
340331363,0.01,50.0,0.0,0.0,4,0,3,0
340363745,0.01,50.0,1.5899999,0.0,4,0,3,0
340395368,0.01,50.0,13.24,0.0,4,0,3,0
340427397,0.01,50.0,12.99,0.0,4,0,3,0
340459835,0.01,50.0,13.09,0.0,4,0,3,0
340492186,0.01,50.0,2.29,0.0,4,0,3,0
340523832,0.01,50.0,1.89,0.0,4,0,3,0
340556329,0.01,50.0,1.5999999,0.0,4,0,3,0
340588445,0.01,50.0,0.0,0.0,4,0,3,0
340620742,0.01,50.0,12.25,0.0,64,0,3,0
340652759,0.01,50.0,2.2,0.0,64,0,3,0
340684325,0.01,50.0,11.75,0.0,4,0,3,0
340716300,0.01,50.0,0.25,0.0,4,0,3,0
340748346,0.01,50.0,11.509999,0.0,4,0,3,0
340779965,0.01,50.0,11.38,0.0,4,0,3,0
340811771,0.01,50.0,0.0,0.0,4,0,3,0
340844332,0.01,50.0,2.3799999,0.0,4,0,3,0
340877298,0.01,50.0,10.83,0.0,4,0,3,0
340909374,0.01,50.0,0.0,0.0,4,0,3,0
340942108,0.01,50.0,2.02,0.0,4,0,3,0
340973364,0.01,50.0,10.4,0.0,4,0,3,0
341005286,0.01,50.0,10.28,0.0,4,0,3,0
341037311,0.01,50.0,10.21,0.0,4,0,3,0
341069302,0.01,50.0,1.7099999,0.0,4,0,3,0
341100555,0.01,50.0,9.87,0.0,4,0,3,0
341134009,0.01,50.0,9.91,0.0,0,0,3,0
341165396,0.01,50.0,9.87,0.0,4,0,3,0
341197409,0.01,50.0,9.84,0.0,4,0,3,0
341228942,0.01,50.0,9.719999,0.0,4,0,3,0
341261011,0.01,50.0,9.599999,0.0,4,0,3,0
341292575,0.01,50.0,9.54,0.0,4,0,3,0
341324768,0.01,50.0,9.5199995,0.0,4,0,3,0
341356705,0.01,50.0,9.429999,0.0,4,0,3,0
341388938,0.01,50.0,9.54,0.0,4,0,3,0
341421371,0.01,50.0,9.54,0.0,4,0,3,0
341453454,0.01,50.0,9.48,0.0,4,0,3,0
341485112,0.01,50.0,9.48,0.0,4,0,3,0
341516591,0.01,50.0,0.0,0.0,4,0,3,0
341548643,0.01,50.0,9.37,0.0,4,0,3,0
341580680,0.01,50.0,0.71,0.0,4,0,3,0
341613100,0.01,50.0,9.19,0.0,4,0,3,0
341643748,0.01,50.0,9.15,0.0,4,0,3,0
341675341,0.01,50.0,8.92,0.0,4,0,3,0
341707341,0.01,50.0,8.349999,0.0,4,0,3,0
341739788,0.01,50.0,7.73,0.0,64,0,3,0
341771003,0.01,50.0,1.4,0.0,4,0,3,0
341803340,0.01,50.0,0.0,0.0,4,0,3,0
341835369,0.01,50.0,6.0499997,0.0,4,0,3,0
341867365,0.01,50.0,5.7,0.0,4,0,3,0
341899742,0.01,50.0,5.41,0.0,64,0,3,0
341931758,0.01,50.0,5.29,0.0,0,0,3,0
341963666,0.01,50.0,5.1,0.0,4,0,3,0
341995656,0.01,50.0,4.98,0.0,4,0,3,0
342027801,0.01,50.0,0.0,0.0,64,0,3,0
342059335,0.01,50.0,4.87,0.0,4,0,3,0
342090878,0.01,50.0,5.18,0.0,4,0,3,0
342122120,0.01,50.0,5.62,0.0,4,0,3,0
342154582,0.01,50.0,6.21,0.0,4,0,3,0
342186213,0.01,50.0,6.6099997,0.0,4,0,3,0
342218562,0.01,50.0,6.66,0.0,4,0,3,0
342250260,0.01,50.0,6.85,0.0,4,0,3,0
342282209,0.01,50.0,6.81,0.0,4,0,3,0
342316197,0.01,50.0,7.56,0.0,4,0,3,0
342348298,0.01,50.0,2.5,0.0,4,0,3,0
342380312,0.01,50.0,13.219999,0.0,4,0,3,0
342412328,0.01,50.0,13.7,0.0,4,0,3,0
342444603,0.01,50.0,13.549999,0.0,4,0,3,0
342476309,0.01,50.0,14.5,0.0,4,0,3,0
342508936,0.01,50.0,1.5899999,0.0,4,0,3,0
342541364,0.01,50.0,14.679999,0.0,4,0,3,0
342573361,0.01,50.0,14.509999,0.0,4,0,3,0
342606579,0.01,50.0,1.15,0.0,64,0,3,0
342639060,0.01,50.0,14.49,0.0,64,0,3,0
342670906,0.01,50.0,14.19,0.0,0,0,3,0
342702302,0.01,50.0,7.49,0.0,64,0,3,0
342734747,0.01,50.0,5.37,0.0,4,0,3,0
342766969,0.01,50.0,4.3199997,0.0,0,0,3,0
342798823,0.01,50.0,3.6899998,0.0,64,0,3,0
342830853,0.01,50.0,3.09,0.0,64,0,3,0
342862812,0.01,50.0,2.58,0.0,64,0,3,0
342894872,0.01,50.0,2.21,0.0,0,0,3,0
342926903,0.01,50.0,1.8199999,0.0,0,0,3,0
342958912,0.01,50.0,1.51,0.0,64,0,3,0
342990892,0.01,50.0,1.15,0.0,64,0,3,0
343022926,0.01,50.0,0.89,0.0,0,0,3,0
343054869,0.01,50.0,0.79999995,0.0,64,0,3,0
343085870,0.01,50.0,1.04,0.0,-84,0,3,0
343118125,0.01,50.0,1.1899999,0.0,4,0,3,0
343149468,0.01,50.0,1.38,0.0,4,0,3,0
343182595,0.01,50.0,1.5699999,0.0,4,0,3,0
343214513,0.01,50.0,1.78,0.0,4,0,3,0
343246191,0.01,50.0,2.02,0.0,4,0,3,0
343277436,0.01,50.0,2.27,0.0,4,0,3,0
343310344,0.01,50.0,2.47,0.0,4,0,3,0
343342256,0.01,50.0,2.6399999,0.0,4,0,3,0
343373750,0.01,50.0,2.77,0.0,4,0,3,0
343406884,0.01,50.0,3.02,0.0,4,0,3,0
343438721,0.01,50.0,3.1399999,0.0,4,0,3,0
343470177,0.01,50.0,3.34,0.0,4,0,3,0
343501496,0.01,50.0,3.51,0.0,4,0,3,0
343534202,0.01,50.0,3.6799998,0.0,4,0,3,0
343566244,0.01,50.0,3.79,0.0,4,0,3,0
343598538,0.01,50.0,3.8799999,0.0,4,0,3,0
343630091,0.01,50.0,3.9399998,0.0,4,0,3,0
343662553,0.01,50.0,3.9499998,0.0,4,0,3,0
343693926,0.01,50.0,3.9599998,0.0,4,0,3,0
343726238,0.01,50.0,4.0299997,0.0,4,0,3,0
343758970,0.01,50.0,4.0699997,0.0,4,0,3,0
343791355,0.01,50.0,3.9399998,0.0,4,0,3,0
343823759,0.01,50.0,3.87,0.0,4,0,3,0
343856454,0.01,50.0,3.73,0.0,4,0,3,0
343888365,0.01,50.0,3.58,0.0,4,0,3,0
343920444,0.01,50.0,3.4499998,0.0,4,0,3,0
343951989,0.01,50.0,3.28,0.0,4,0,3,0
343984342,0.01,50.0,3.07,0.0,4,0,3,0
344016228,0.01,50.0,2.8999999,0.0,4,0,3,0
344048340,0.01,50.0,2.47,0.0,4,0,3,0
344080742,0.01,50.0,2.25,0.0,64,0,3,0
344111810,0.01,50.0,1.92,0.0,4,0,3,0
344144169,0.01,50.0,1.5799999,0.0,4,0,3,0
344175351,0.01,50.0,1.4499999,0.0,4,0,3,0
344207960,0.01,50.0,0.83,0.0,4,0,3,0
344239820,0.01,50.0,0.59999996,0.0,4,0,3,0
344272342,0.01,50.0,0.84999996,0.0,4,0,3,0
344304326,0.01,50.0,1.14,0.0,4,0,3,0
344336172,0.01,50.0,1.1999999,0.0,4,0,3,0
344368367,0.01,50.0,1.37,0.0,4,0,3,0
344399791,0.01,50.0,1.29,0.0,4,0,3,0
344432323,0.01,50.0,1.3,0.0,4,0,3,0
344464296,0.01,50.0,1.26,0.0,4,0,3,0
344495335,0.01,50.0,1.16,0.0,4,0,3,0
344527382,0.01,50.0,1.05,0.0,4,0,3,0
344559355,0.01,50.0,0.90999997,0.0,4,0,3,0
344591546,0.01,50.0,0.81,0.0,4,0,3,0
344623402,0.01,50.0,0.65,0.0,4,0,3,0
344655394,0.01,50.0,0.51,0.0,4,0,3,0
344687335,0.01,50.0,0.91999996,0.0,4,0,3,0
344719072,0.01,50.0,1.79,0.0,4,0,3,0
344751394,0.01,50.0,0.78999996,0.0,4,0,3,0
344783335,0.01,50.0,0.7,0.0,4,0,3,0
344814981,0.01,50.0,0.9,0.0,4,0,3,0
344847044,0.01,50.0,1.17,0.0,4,0,3,0
344880712,0.01,50.0,1.31,0.0,4,0,3,0
344912302,0.01,50.0,1.49,0.0,4,0,3,0
344944742,0.01,50.0,1.65,0.0,64,0,3,0
344976763,0.01,50.0,1.5799999,0.0,64,0,3,0
345008392,0.01,50.0,0.85999995,0.0,4,0,3,0
345040742,0.01,50.0,1.3199999,0.0,64,0,3,0
345072938,0.01,50.0,1.61,0.0,64,0,3,0
345103948,0.01,50.0,1.64,0.0,4,0,3,0
345135355,0.01,50.0,1.8499999,0.0,4,0,3,0
345167345,0.01,50.0,2.03,0.0,4,0,3,0
345199080,0.01,50.0,1.86,0.0,4,0,3,0
345231385,0.01,50.0,1.09,0.0,4,0,3,0
345263365,0.01,50.0,0.79999995,0.0,4,0,3,0
345295322,0.01,50.0,0.93,0.0,4,0,3,0
345327311,0.01,50.0,1.23,0.0,4,0,3,0
345359148,0.01,50.0,1.09,0.0,4,0,3,0
345391339,0.01,50.0,0.96,0.0,4,0,3,0
345423362,0.01,50.0,1.05,0.0,4,0,3,0
345456343,0.01,50.0,1.14,0.0,64,0,3,0
345488749,0.01,50.0,1.1,0.0,64,0,3,0
345520615,0.01,50.0,1.1,0.0,4,0,3,0
345552771,0.01,50.0,1.03,0.0,64,0,3,0
345584748,0.01,50.0,1.0699999,0.0,64,0,3,0
345904334,0.01,50.0,1.06,0.0,64,0,3,0
346064742,0.01,50.0,1.05,0.0,64,0,3,0
346096936,0.01,50.0,1.0699999,0.0,64,0,3,0
346128754,0.01,50.0,1.06,0.0,0,0,3,0
346160755,0.01,50.0,1.0799999,0.0,64,0,3,0
346193149,0.01,50.0,1.0699999,0.0,64,0,3,0
346225139,0.01,50.0,1.0799999,0.0,64,0,3,0
346256742,0.01,50.0,1.12,0.0,64,0,3,0
346288776,0.01,50.0,1.0699999,0.0,64,0,3,0
346320769,0.01,50.0,1.0699999,0.0,64,0,3,0
346352756,0.01,50.0,1.09,0.0,64,0,3,0
346383741,0.01,50.0,1.0699999,0.0,64,0,3,0
346415742,0.01,50.0,1.0699999,0.0,64,0,3,0
346447801,0.01,50.0,1.0799999,0.0,64,0,3,0
346479778,0.01,50.0,1.09,0.0,64,0,3,0
346511769,0.01,50.0,1.06,0.0,0,0,3,0
346542977,0.01,50.0,1.06,0.0,64,0,3,0
346574816,0.01,50.0,1.05,0.0,64,0,3,0
346605919,0.01,50.0,1.0799999,0.0,64,0,3,0
346638013,0.01,50.0,1.06,0.0,64,0,3,0
346670047,0.01,50.0,1.0799999,0.0,64,0,3,0
346701899,0.01,50.0,1.0699999,0.0,64,0,3,0
346734141,0.01,50.0,1.0699999,0.0,4,0,3,0
346766081,0.01,50.0,1.0799999,0.0,64,0,3,0
346797989,0.01,50.0,1.0699999,0.0,64,0,3,0
346829893,0.01,50.0,1.09,0.0,64,0,3,0
346862333,0.01,50.0,1.06,0.0,64,0,3,0
346895617,0.01,50.0,1.1,0.0,0,0,3,0
346927619,0.01,50.0,1.0799999,0.0,64,0,3,0
346959766,0.01,50.0,1.0699999,0.0,64,0,3,0
346991400,0.01,50.0,1.0799999,0.0,0,0,3,0
347023555,0.01,50.0,1.09,0.0,64,0,3,0
347055798,0.01,50.0,1.0699999,0.0,64,0,3,0
347087802,0.01,50.0,1.0699999,0.0,64,0,3,0
347119742,0.01,50.0,1.0699999,0.0,64,0,3,0
347151746,0.01,50.0,1.12,0.0,64,0,3,0
347183515,0.01,50.0,1.12,0.0,64,0,3,0
347215574,0.01,50.0,1.0699999,0.0,64,0,3,0
347247804,0.01,50.0,1.0699999,0.0,64,0,3,0
347279849,0.01,50.0,1.0699999,0.0,0,0,3,0
347311688,0.01,50.0,1.0699999,0.0,64,0,3,0
347343787,0.01,50.0,1.0799999,0.0,64,0,3,0
347375747,0.01,50.0,1.0799999,0.0,64,0,3,0
347407508,0.01,50.0,1.0799999,0.0,64,0,3,0
347439510,0.01,50.0,1.06,0.0,64,0,3,0
347471752,0.01,50.0,1.0699999,0.0,64,0,3,0
347503762,0.01,50.0,1.0699999,0.0,64,0,3,0
347535570,0.01,50.0,1.0699999,0.0,64,0,3,0
347567516,0.01,50.0,1.06,0.0,64,0,3,0
347599522,0.01,50.0,1.12,0.0,4,0,3,0
347631797,0.01,50.0,1.0699999,0.0,64,0,3,0
347663748,0.01,50.0,1.11,0.0,64,0,3,0
347695793,0.01,50.0,1.0699999,0.0,64,0,3,0
347727802,0.01,50.0,1.0799999,0.0,64,0,3,0
347759755,0.01,50.0,1.06,0.0,64,0,3,0
347791414,0.01,50.0,1.0699999,0.0,4,0,3,0
347823410,0.01,50.0,1.04,0.0,4,0,3,0
347855390,0.01,50.0,1.03,0.0,4,0,3,0
347887738,0.01,50.0,1.04,0.0,4,0,3,0
347919388,0.01,50.0,1.06,0.0,4,0,3,0
347951354,0.01,50.0,1.0699999,0.0,4,0,3,0
347983753,0.01,50.0,1.0799999,0.0,64,0,3,0
348014833,0.01,50.0,1.0799999,0.0,4,0,3,0
348046811,0.01,50.0,1.0699999,0.0,4,0,3,0
348078811,0.01,50.0,1.0799999,0.0,4,0,3,0
348110181,0.01,50.0,1.09,0.0,4,0,3,0
348142249,0.01,50.0,1.06,0.0,4,0,3,0
348174551,0.01,50.0,1.09,0.0,4,0,3,0
348206755,0.01,50.0,1.05,0.0,4,0,3,0
348238747,0.01,50.0,1.0699999,0.0,4,0,3,0
348270986,0.01,50.0,1.06,0.0,4,0,3,0
348303377,0.01,50.0,1.06,0.0,4,0,3,0
348335351,0.01,50.0,1.06,0.0,4,0,3,0
348366941,0.01,50.0,1.06,0.0,4,0,3,0
348399379,0.01,50.0,1.0799999,0.0,4,0,3,0
348431786,0.01,50.0,1.06,0.0,0,0,3,0
348463814,0.01,50.0,1.11,0.0,0,0,3,0
348495742,0.01,50.0,1.09,0.0,64,0,3,0
348527817,0.01,50.0,1.06,0.0,64,0,3,0
348559768,0.01,50.0,1.09,0.0,64,0,3,0
348591756,0.01,50.0,1.1,0.0,64,0,3,0
348622899,0.01,50.0,1.0799999,0.0,64,0,3,0
348655074,0.01,50.0,1.05,0.0,4,0,3,0
348686904,0.01,50.0,1.0699999,0.0,64,0,3,0
348718187,0.01,50.0,1.05,0.0,56,0,3,0
348750113,0.01,50.0,1.0699999,0.0,4,0,3,0
348780742,0.01,50.0,1.1,0.0,64,0,3,0
348811916,0.01,50.0,1.0699999,0.0,4,0,3,0
348843735,0.01,50.0,1.06,0.0,4,0,3,0
348874955,0.01,50.0,1.05,0.0,4,0,3,0
348907834,0.01,50.0,1.0799999,0.0,4,0,3,0
348939826,0.01,50.0,1.05,0.0,4,0,3,0
348972246,0.01,50.0,1.09,0.0,4,0,3,0
349004357,0.01,50.0,1.0799999,0.0,4,0,3,0
350126858,0.01,50.0,1.0799999,0.0,64,0,3,0
350158732,0.01,50.0,1.0799999,0.0,64,0,3,0
350190917,0.01,50.0,1.06,0.0,64,0,3,0
350222934,0.01,50.0,1.0699999,0.0,64,0,3,0
350254195,0.01,50.0,1.06,0.0,4,0,3,0
350286198,0.01,50.0,1.04,0.0,4,0,3,0
350318540,0.01,50.0,1.03,0.0,4,0,3,0
350350129,0.01,50.0,1.0699999,0.0,4,0,3,0
350381720,0.01,50.0,1.05,0.0,4,0,3,0
350413354,0.01,50.0,1.0799999,0.0,4,0,3,0
350446220,0.01,50.0,1.0699999,0.0,4,0,3,0
350478896,0.01,50.0,1.06,0.0,64,0,3,0
350510600,0.01,50.0,1.0699999,0.0,4,0,3,0
350542113,0.01,50.0,1.0799999,0.0,4,0,3,0
350574373,0.01,50.0,1.0699999,0.0,4,0,3,0
350606239,0.01,50.0,1.0699999,0.0,4,0,3,0
350638374,0.01,50.0,1.06,0.0,4,0,3,0
350670178,0.01,50.0,1.06,0.0,4,0,3,0
350702354,0.01,50.0,1.06,0.0,4,0,3,0
350734232,0.01,50.0,1.0699999,0.0,4,0,3,0
350765508,0.01,50.0,1.06,0.0,4,0,3,0
350798163,0.01,50.0,1.06,0.0,4,0,3,0
350829793,0.01,50.0,1.06,0.0,4,0,3,0
350861547,0.01,50.0,1.0699999,0.0,4,0,3,0
350893970,0.01,50.0,1.06,0.0,4,0,3,0
350926224,0.01,50.0,1.03,0.0,4,0,3,0
350959143,0.01,50.0,1.06,0.0,4,0,3,0
350991099,0.01,50.0,1.09,0.0,64,0,3,0
351022850,0.01,50.0,1.0699999,0.0,0,0,3,0
351055044,0.01,50.0,1.0799999,0.0,64,0,3,0
351087068,0.01,50.0,1.06,0.0,64,0,3,0
351118868,0.01,50.0,1.0799999,0.0,64,0,3,0
351150975,0.01,50.0,1.0799999,0.0,64,0,3,0
351182855,0.01,50.0,1.06,0.0,64,0,3,0
351215538,0.01,50.0,1.09,0.0,64,0,3,0
351247833,0.01,50.0,1.06,0.0,0,0,3,0
351278917,0.01,50.0,1.0699999,0.0,4,0,3,0
351311690,0.01,50.0,1.0699999,0.0,4,0,3,0
351343745,0.01,50.0,1.06,0.0,64,0,3,0
351375065,0.01,50.0,1.09,0.0,4,0,3,0
351407367,0.01,50.0,1.0699999,0.0,64,0,3,0
351438846,0.01,50.0,1.06,0.0,112,0,3,0
351471144,0.01,50.0,1.11,0.0,64,0,3,0
351502880,0.01,50.0,1.0699999,0.0,64,0,3,0
351535000,0.01,50.0,1.0699999,0.0,0,0,3,0
351567057,0.01,50.0,1.0799999,0.0,64,0,3,0
351599837,0.01,50.0,1.0699999,0.0,64,0,3,0
351631828,0.01,50.0,1.06,0.0,64,0,3,0
351663765,0.01,50.0,1.0699999,0.0,64,0,3,0
351695764,0.01,50.0,1.0699999,0.0,64,0,3,0
351727844,0.01,50.0,1.09,0.0,64,0,3,0
351759784,0.01,50.0,1.0,0.0,64,0,3,0
351791743,0.01,50.0,1.06,0.0,64,0,3,0
351823766,0.01,50.0,1.0699999,0.0,64,0,3,0
351855806,0.01,50.0,1.0699999,0.0,64,0,3,0
351887805,0.01,50.0,1.06,0.0,64,0,3,0
351919801,0.01,50.0,1.05,0.0,0,0,3,0
351951492,0.01,50.0,1.06,0.0,0,0,3,0
351983665,0.01,50.0,1.0699999,0.0,0,0,3,0
352015759,0.01,50.0,1.09,0.0,64,0,3,0
352047839,0.01,50.0,1.0699999,0.0,64,0,3,0
352079742,0.01,50.0,1.0699999,0.0,64,0,3,0
352111764,0.01,50.0,1.05,0.0,64,0,3,0
352143638,0.01,50.0,1.09,0.0,4,0,3,0
352175799,0.01,50.0,1.06,0.0,64,0,3,0
352207804,0.01,50.0,1.03,0.0,64,0,3,0
352239757,0.01,50.0,1.12,0.0,64,0,3,0
352271783,0.01,50.0,1.0699999,0.0,64,0,3,0
352303786,0.01,50.0,1.06,0.0,64,0,3,0
352335557,0.01,50.0,1.0799999,0.0,64,0,3,0
352367829,0.01,50.0,1.06,0.0,64,0,3,0
352399742,0.01,50.0,1.0699999,0.0,64,0,3,0
352430842,0.01,50.0,1.06,0.0,0,0,3,0
352462842,0.01,50.0,1.0799999,0.0,64,0,3,0
352494892,0.01,50.0,1.06,0.0,0,0,3,0
352525763,0.01,50.0,1.06,0.0,64,0,3,0
352557961,0.01,50.0,1.0699999,0.0,64,0,3,0
352589757,0.01,50.0,1.09,0.0,64,0,3,0
352621150,0.01,50.0,1.06,0.0,64,0,3,0
352653289,0.01,50.0,1.0799999,0.0,64,0,3,0
352685745,0.01,50.0,1.0699999,0.0,64,0,3,0
352717939,0.01,50.0,1.09,0.0,0,0,3,0
352749758,0.01,50.0,1.0699999,0.0,64,0,3,0
352781765,0.01,50.0,1.04,0.0,64,0,3,0
352813756,0.01,50.0,1.0799999,0.0,64,0,3,0
352845934,0.01,50.0,1.04,0.0,64,0,3,0
352877943,0.01,50.0,1.0699999,0.0,64,0,3,0
352909970,0.01,50.0,1.06,0.0,64,0,3,0
352941796,0.01,50.0,1.0799999,0.0,0,0,3,0
352973777,0.01,50.0,1.06,0.0,64,0,3,0
353005756,0.01,50.0,1.0799999,0.0,64,0,3,0
353038003,0.01,50.0,1.06,0.0,0,0,3,0
353070559,0.01,50.0,1.05,0.0,4,0,3,0
353102965,0.01,50.0,1.06,0.0,0,0,3,0
353134848,0.01,50.0,1.06,0.0,64,0,3,0
353166645,0.01,50.0,1.0699999,0.0,4,0,3,0
353198963,0.01,50.0,1.0799999,0.0,64,0,3,0
353230861,0.01,50.0,1.0699999,0.0,64,0,3,0
353262890,0.01,50.0,1.0699999,0.0,0,0,3,0
353294925,0.01,50.0,1.0699999,0.0,0,0,3,0
353326903,0.01,50.0,1.06,0.0,64,0,3,0
353358940,0.01,50.0,1.06,0.0,0,0,3,0
353390714,0.01,50.0,1.1,0.0,0,0,3,0
353422881,0.01,50.0,1.05,0.0,64,0,3,0
353454966,0.01,50.0,1.05,0.0,0,0,3,0
353486883,0.01,50.0,1.0699999,0.0,64,0,3,0
353519040,0.01,50.0,1.06,0.0,0,0,3,0
353550370,0.01,50.0,1.0799999,0.0,64,0,3,0
353582876,0.01,50.0,1.0799999,0.0,0,0,3,0
353614828,0.01,50.0,1.0799999,0.0,64,0,3,0
353646788,0.01,50.0,1.0799999,0.0,64,0,3,0
353678947,0.01,50.0,1.09,0.0,64,0,3,0
353710809,0.01,50.0,1.0699999,0.0,0,0,3,0
353742833,0.01,50.0,1.06,0.0,64,0,3,0
353775553,0.01,50.0,1.0799999,0.0,64,0,3,0
353808564,0.01,50.0,1.0699999,0.0,64,0,3,0
353840333,0.01,50.0,1.06,0.0,0,0,3,0
353872938,0.01,50.0,1.06,0.0,0,0,3,0
353904775,0.01,50.0,1.05,0.0,64,0,3,0
353936345,0.01,50.0,1.0799999,0.0,64,0,3,0
353968477,0.01,50.0,1.0799999,0.0,64,0,3,0
354000946,0.01,50.0,1.0699999,0.0,64,0,3,0
354032775,0.01,50.0,1.0699999,0.0,64,0,3,0
354064758,0.01,50.0,1.06,0.0,64,0,3,0
354096756,0.01,50.0,1.0699999,0.0,64,0,3,0
354128471,0.01,50.0,1.0699999,0.0,64,0,3,0
354160325,0.01,50.0,1.0699999,0.0,64,0,3,0
354192759,0.01,50.0,1.12,0.0,64,0,3,0
354224742,0.01,50.0,1.09,0.0,64,0,3,0
354256300,0.01,50.0,1.09,0.0,64,0,3,0
354286835,0.01,50.0,1.09,0.0,64,0,3,0
354318838,0.01,50.0,1.0699999,0.0,64,0,3,0
354350315,0.01,50.0,1.0699999,0.0,4,0,3,0
354382883,0.01,50.0,1.0799999,0.0,64,0,3,0
354414878,0.01,50.0,1.0699999,0.0,0,0,3,0
354446846,0.01,50.0,1.0699999,0.0,64,0,3,0
354478916,0.01,50.0,1.05,0.0,0,0,3,0
354509778,0.01,50.0,1.0799999,0.0,64,0,3,0
354542232,0.01,50.0,1.0699999,0.0,64,0,3,0
354574194,0.01,50.0,1.06,0.0,0,0,3,0
354605958,0.01,50.0,1.1,0.0,0,0,3,0
354638565,0.01,50.0,1.06,0.0,64,0,3,0
354670934,0.01,50.0,1.0699999,0.0,64,0,3,0
354702515,0.01,50.0,1.06,0.0,64,0,3,0
354734788,0.01,50.0,1.06,0.0,64,0,3,0
354766162,0.01,50.0,1.0799999,0.0,64,0,3,0
354798671,0.01,50.0,1.0799999,0.0,4,0,3,0
354830813,0.01,50.0,1.0699999,0.0,64,0,3,0
354861915,0.01,50.0,1.09,0.0,-116,0,3,0
354894356,0.01,50.0,1.0699999,0.0,64,0,3,0
354926869,0.01,50.0,1.06,0.0,64,0,3,0
354957976,0.01,50.0,1.0699999,0.0,64,0,3,0
354990544,0.01,50.0,1.06,0.0,64,0,3,0
355022052,0.01,50.0,1.0799999,0.0,4,0,3,0
355054583,0.01,50.0,1.0699999,0.0,64,0,3,0
355086879,0.01,50.0,1.0699999,0.0,64,0,3,0
355118550,0.01,50.0,1.0799999,0.0,64,0,3,0
355150836,0.01,50.0,1.0799999,0.0,64,0,3,0
355182880,0.01,50.0,1.0699999,0.0,64,0,3,0
355214192,0.01,50.0,1.0699999,0.0,0,0,3,0
355245922,0.01,50.0,1.09,0.0,64,0,3,0
355277809,0.01,50.0,1.03,0.0,0,0,3,0
355310577,0.01,50.0,1.0799999,0.0,4,0,3,0
355342278,0.01,50.0,1.1,0.0,64,0,3,0
355374856,0.01,50.0,1.0699999,0.0,0,0,3,0
355406207,0.01,50.0,1.0799999,0.0,4,0,3,0
355438681,0.01,50.0,1.0699999,0.0,64,0,3,0
355470340,0.01,50.0,1.0799999,0.0,64,0,3,0
355502841,0.01,50.0,1.0799999,0.0,64,0,3,0
355534841,0.01,50.0,1.0799999,0.0,0,0,3,0
355566866,0.01,50.0,1.06,0.0,64,0,3,0
355598649,0.01,50.0,1.05,0.0,64,0,3,0
355630614,0.01,50.0,1.0699999,0.0,64,0,3,0
355662874,0.01,50.0,1.1,0.0,64,0,3,0
355694860,0.01,50.0,1.11,0.0,64,0,3,0
355726973,0.01,50.0,1.0799999,0.0,64,0,3,0
355758588,0.01,50.0,1.09,0.0,64,0,3,0
355790890,0.01,50.0,1.06,0.0,64,0,3,0
355822335,0.01,50.0,1.06,0.0,0,0,3,0
355854612,0.01,50.0,1.0699999,0.0,64,0,3,0
355886944,0.01,50.0,1.0799999,0.0,0,0,3,0
355918840,0.01,50.0,1.05,0.0,0,0,3,0
355950304,0.01,50.0,1.13,0.0,64,0,3,0
355982324,0.01,50.0,1.0699999,0.0,64,0,3,0
356014646,0.01,50.0,1.0699999,0.0,4,0,3,0
356046821,0.01,50.0,1.0699999,0.0,64,0,3,0
356078671,0.01,50.0,1.0699999,0.0,0,0,3,0
356110825,0.01,50.0,1.0699999,0.0,64,0,3,0
356143513,0.01,50.0,1.0799999,0.0,64,0,3,0
356177092,0.01,50.0,1.0699999,0.0,64,0,3,0
356209430,0.01,50.0,1.06,0.0,64,0,3,0
356241916,0.01,50.0,1.0699999,0.0,64,0,3,0
356273007,0.01,50.0,1.0799999,0.0,64,0,3,0
356305102,0.01,50.0,1.02,0.0,64,0,3,0
356337042,0.01,50.0,1.05,0.0,64,0,3,0
356370003,0.01,50.0,1.06,0.0,0,0,3,0
356401931,0.01,50.0,1.05,0.0,0,0,3,0
356433522,0.01,50.0,1.05,0.0,64,0,3,0
356465483,0.01,50.0,1.0699999,0.0,0,0,3,0
356497956,0.01,50.0,1.0699999,0.0,0,0,3,0
356529766,0.01,50.0,1.1,0.0,64,0,3,0
356561870,0.01,50.0,1.0699999,0.0,64,0,3,0
356593752,0.01,50.0,1.05,0.0,0,0,3,0
356626216,0.01,50.0,1.06,0.0,64,0,3,0
356657965,0.01,50.0,1.0699999,0.0,64,0,3,0
356689833,0.01,50.0,1.0699999,0.0,64,0,3,0
356720970,0.01,50.0,1.0699999,0.0,64,0,3,0
356753557,0.01,50.0,1.0799999,0.0,4,0,3,0
356785754,0.01,50.0,1.0699999,0.0,64,0,3,0
356818017,0.01,50.0,1.06,0.0,64,0,3,0
356849115,0.01,50.0,1.0699999,0.0,64,0,3,0
356880743,0.01,50.0,1.06,0.0,64,0,3,0
356913130,0.01,50.0,1.0799999,0.0,64,0,3,0
356944773,0.01,50.0,1.06,0.0,64,0,3,0
356976745,0.01,50.0,1.0699999,0.0,64,0,3,0
357009158,0.01,50.0,1.0799999,0.0,64,0,3,0
357040779,0.01,50.0,1.06,0.0,64,0,3,0
357071756,0.01,50.0,1.09,0.0,64,0,3,0
357103324,0.01,50.0,1.0699999,0.0,64,0,3,0
357135742,0.01,50.0,1.0699999,0.0,64,0,3,0
357167113,0.01,50.0,1.0699999,0.0,64,0,3,0
357199671,0.01,50.0,1.0699999,0.0,4,0,3,0
357231749,0.01,50.0,1.06,0.0,64,0,3,0
357262856,0.01,50.0,1.0699999,0.0,4,0,3,0
357295414,0.01,50.0,1.06,0.0,4,0,3,0
357327801,0.01,50.0,1.06,0.0,64,0,3,0
357359747,0.01,50.0,1.09,0.0,64,0,3,0
357390917,0.01,50.0,1.12,0.0,64,0,3,0
357422992,0.01,50.0,1.12,0.0,64,0,3,0
357454849,0.01,50.0,1.0699999,0.0,0,0,3,0
357487354,0.01,50.0,1.0799999,0.0,64,0,3,0
357518853,0.01,50.0,1.11,0.0,64,0,3,0
357550860,0.01,50.0,1.06,0.0,64,0,3,0
357581764,0.01,50.0,1.0699999,0.0,64,0,3,0
357613974,0.01,50.0,1.06,0.0,0,0,3,0
357645780,0.01,50.0,1.06,0.0,64,0,3,0
357678011,0.01,50.0,1.06,0.0,64,0,3,0
357709914,0.01,50.0,1.06,0.0,64,0,3,0
357741950,0.01,50.0,1.06,0.0,64,0,3,0
357773777,0.01,50.0,1.06,0.0,64,0,3,0
357805744,0.01,50.0,1.1,0.0,64,0,3,0
357838012,0.01,50.0,1.06,0.0,64,0,3,0
357869750,0.01,50.0,1.04,0.0,64,0,3,0
357901951,0.01,50.0,1.0799999,0.0,64,0,3,0
357932979,0.01,50.0,1.0699999,0.0,0,0,3,0
357963828,0.01,50.0,1.0799999,0.0,64,0,3,0
357995831,0.01,50.0,1.0699999,0.0,64,0,3,0
358027828,0.01,50.0,1.06,0.0,64,0,3,0
358059659,0.01,50.0,1.06,0.0,64,0,3,0
358091498,0.01,50.0,1.06,0.0,64,0,3,0
358123755,0.01,50.0,1.04,0.0,64,0,3,0
358155817,0.01,50.0,1.0799999,0.0,64,0,3,0
358187863,0.01,50.0,1.0699999,0.0,64,0,3,0
358219878,0.01,50.0,1.0799999,0.0,64,0,3,0
358251520,0.01,50.0,1.0799999,0.0,64,0,3,0
358282911,0.01,50.0,1.0699999,0.0,4,0,3,0
358314818,0.01,50.0,1.0799999,0.0,64,0,3,0
358346870,0.01,50.0,1.0699999,0.0,0,0,3,0
358378863,0.01,50.0,1.0699999,0.0,4,0,3,0
358409769,0.01,50.0,1.0699999,0.0,64,0,3,0
358441547,0.01,50.0,1.0799999,0.0,64,0,3,0
358473805,0.01,50.0,1.06,0.0,64,0,3,0
358505799,0.01,50.0,1.0699999,0.0,64,0,3,0
358537113,0.01,50.0,1.0799999,0.0,64,0,3,0
358569730,0.01,50.0,1.0699999,0.0,64,0,3,0
358601790,0.01,50.0,1.06,0.0,64,0,3,0
358632946,0.01,50.0,1.0699999,0.0,64,0,3,0
358665499,0.01,50.0,1.06,0.0,64,0,3,0
358697919,0.01,50.0,1.0699999,0.0,64,0,3,0
358729504,0.01,50.0,1.02,0.0,64,0,3,0
358761096,0.01,50.0,1.06,0.0,64,0,3,0
358792932,0.01,50.0,1.09,0.0,0,0,3,0
358825916,0.01,50.0,1.0699999,0.0,0,0,3,0
358857168,0.01,50.0,1.0799999,0.0,64,0,3,0
358889942,0.01,50.0,1.0699999,0.0,-116,0,3,0
358921747,0.01,50.0,1.0699999,0.0,64,0,3,0
358954575,0.01,50.0,1.05,0.0,4,0,3,0
358986838,0.01,50.0,1.0699999,0.0,0,0,3,0
359018914,0.01,50.0,1.0699999,0.0,64,0,3,0
359050159,0.01,50.0,1.0799999,0.0,64,0,3,0
359081745,0.01,50.0,1.0699999,0.0,64,0,3,0
359112975,0.01,50.0,1.0799999,0.0,64,0,3,0
359145782,0.01,50.0,1.06,0.0,64,0,3,0
359176922,0.01,50.0,1.04,0.0,64,0,3,0
359208948,0.01,50.0,1.06,0.0,0,0,3,0
359239758,0.01,50.0,1.05,0.0,64,0,3,0
359270889,0.01,50.0,1.06,0.0,64,0,3,0
359302067,0.01,50.0,1.04,0.0,64,0,3,0
359333890,0.01,50.0,1.0799999,0.0,64,0,3,0
359366150,0.01,50.0,1.0799999,0.0,64,0,3,0
359397968,0.01,50.0,1.0799999,0.0,64,0,3,0
359428742,0.01,50.0,1.06,0.0,64,0,3,0
359459759,0.01,50.0,1.0699999,0.0,4,0,3,0
359490829,0.01,50.0,1.0699999,0.0,56,0,3,0
359522999,0.01,50.0,1.0799999,0.0,4,0,3,0
359554898,0.01,50.0,1.05,0.0,64,0,3,0
359586810,0.01,50.0,1.0799999,0.0,64,0,3,0
359619342,0.01,50.0,1.0799999,0.0,64,0,3,0
359651353,0.01,50.0,1.0699999,0.0,64,0,3,0
359683757,0.01,50.0,1.0699999,0.0,64,0,3,0
359715779,0.01,50.0,1.06,0.0,64,0,3,0
359747395,0.01,50.0,1.0799999,0.0,64,0,3,0
359779783,0.01,50.0,1.0699999,0.0,64,0,3,0
359811745,0.01,50.0,1.06,0.0,64,0,3,0
359842871,0.01,50.0,1.0699999,0.0,64,0,3,0
359874888,0.01,50.0,1.05,0.0,64,0,3,0
359906877,0.01,50.0,1.0699999,0.0,0,0,3,0
359939661,0.01,50.0,1.0699999,0.0,64,0,3,0
359972160,0.01,50.0,1.06,0.0,64,0,3,0
360004140,0.01,50.0,1.1,0.0,64,0,3,0
360036356,0.01,50.0,1.1,0.0,64,0,3,0
360068184,0.01,50.0,1.05,0.0,64,0,3,0
360100360,0.01,50.0,1.0699999,0.0,64,0,3,0
360132356,0.01,50.0,1.06,0.0,64,0,3,0
360164156,0.01,50.0,1.05,0.0,64,0,3,0
360197250,0.01,50.0,1.04,0.0,56,0,3,0
360228742,0.01,50.0,1.06,0.0,64,0,3,0
360260123,0.01,50.0,1.0699999,0.0,64,0,3,0
360292948,0.01,50.0,1.0699999,0.0,64,0,3,0
360324328,0.01,50.0,1.13,0.0,64,0,3,0
360356742,0.01,50.0,1.0699999,0.0,64,0,3,0
360388973,0.01,50.0,1.05,0.0,64,0,3,0
360420751,0.01,50.0,1.0799999,0.0,64,0,3,0
360452765,0.01,50.0,1.0699999,0.0,0,0,3,0
360484749,0.01,50.0,1.0699999,0.0,64,0,3,0
360516987,0.01,50.0,1.0699999,0.0,64,0,3,0
360548742,0.01,50.0,1.06,0.0,64,0,3,0
360581004,0.01,50.0,1.0799999,0.0,0,0,3,0
360612141,0.01,50.0,1.06,0.0,64,0,3,0
360642812,0.01,50.0,1.0699999,0.0,64,0,3,0
360674865,0.01,50.0,1.0799999,0.0,64,0,3,0
360706815,0.01,50.0,1.06,0.0,0,0,3,0
360737942,0.01,50.0,1.0799999,0.0,64,0,3,0
360769762,0.01,50.0,1.0699999,0.0,64,0,3,0
360801158,0.01,50.0,1.0799999,0.0,56,0,3,0
360833158,0.01,50.0,1.06,0.0,64,0,3,0
360865111,0.01,50.0,1.05,0.0,64,0,3,0
360897112,0.01,50.0,1.0799999,0.0,64,0,3,0
360929130,0.01,50.0,1.06,0.0,64,0,3,0
360961224,0.01,50.0,1.1,0.0,0,0,3,0
360993096,0.01,50.0,1.06,0.0,64,0,3,0
361023742,0.01,50.0,1.0799999,0.0,64,0,3,0
361055798,0.01,50.0,1.11,0.0,0,0,3,0
361087854,0.01,50.0,1.06,0.0,64,0,3,0
361119769,0.01,50.0,1.06,0.0,64,0,3,0
361151756,0.01,50.0,1.06,0.0,64,0,3,0
361183822,0.01,50.0,1.0799999,0.0,64,0,3,0
361214856,0.01,50.0,1.0799999,0.0,64,0,3,0
361246559,0.01,50.0,1.06,0.0,64,0,3,0
361278811,0.01,50.0,1.06,0.0,64,0,3,0
361310825,0.01,50.0,1.0,0.0,64,0,3,0
361342812,0.01,50.0,1.06,0.0,64,0,3,0
361374818,0.01,50.0,1.02,0.0,64,0,3,0
