timestamp,x,y,z,r,flaps,aux1,aux2,aux3,aux4,aux5,mode_switch,return_switch,rattitude_switch,posctl_switch,loiter_switch,acro_switch,offboard_switch,kill_switch,arm_switch,transition_switch,gear_switch,mode_slot,data_source,stab_switch,man_switch
310010299,0.0,0.0,0.0,0.0,0.0,0.0,0.0,0.0,0.0,0.0,0,0,0,0,0,0,0,3,0,0,0,1,1,0,0
310199917,0.0,0.0,0.0,0.0,0.0,0.0,0.0,0.0,0.0,0.0,0,0,0,0,0,0,0,3,0,0,0,1,1,0,0
310416759,0.0,0.0,0.0,0.0,0.0,0.0,0.0,0.0,0.0,0.0,0,0,0,0,0,0,0,3,0,0,0,1,1,0,0
310620736,0.0,0.0,0.0,0.0,0.0,0.0,0.0,0.0,0.0,0.0,0,0,0,0,0,0,0,3,0,0,0,1,1,0,0
310818357,0.0,0.0,0.0,0.0,0.0,0.0,0.0,0.0,0.0,0.0,0,0,0,0,0,0,0,3,0,0,0,1,1,0,0
311014368,0.0,0.0,0.0,0.0,0.0,0.0,0.0,0.0,0.0,0.0,0,0,0,0,0,0,0,3,0,0,0,1,1,0,0
311214349,0.0,0.0,0.0,0.0,0.0,0.0,0.0,0.0,0.0,0.0,0,0,0,0,0,0,0,3,0,0,0,1,1,0,0
311418303,0.0,0.0,0.0,0.0,0.0,0.0,0.0,0.0,0.0,0.0,0,0,0,0,0,0,0,3,0,0,0,1,1,0,0
311627937,0.0,0.0,0.0,0.0,0.0,0.0,0.0,0.0,0.0,0.0,0,0,0,0,0,0,0,3,0,0,0,1,1,0,0
311820096,0.0,0.0,0.022587022,0.0,0.0,0.0,0.0,0.0,0.0,0.0,0,0,0,0,0,0,0,3,0,0,0,1,1,0,0
312027968,0.0,0.0,0.07380245,0.0,0.0,0.0,0.0,0.0,0.0,0.0,0,0,0,0,0,0,0,3,0,0,0,1,1,0,0
312245516,0.0,0.0,0.1105887,0.0,0.0,0.0,0.0,0.0,0.0,0.0,0,0,0,0,0,0,0,3,0,0,0,1,1,0,0
312437806,0.0,0.0,0.13340917,0.0,0.0,0.0,0.0,0.0,0.0,0.0,0,0,0,0,0,0,0,3,0,0,0,1,1,0,0
312637753,0.0,0.0,0.1566676,0.0,0.0,0.0,0.0,0.0,0.0,0.0,0,0,0,0,0,0,0,3,0,0,0,1,1,0,0
312842114,0.0,0.0,0.15615767,0.0,0.0,0.0,0.0,0.0,0.0,0.0,0,0,0,0,0,0,0,3,0,0,0,1,1,0,0
313039158,0.0,0.0,0.16862312,0.0,0.0,0.0,0.0,0.0,0.0,0.0,0,0,0,0,0,0,0,3,0,0,0,1,1,0,0
313243119,0.0,0.0,0.20044982,0.0,0.0,0.0,0.0,0.0,0.0,0.0,0,0,0,0,0,0,0,3,0,0,0,1,1,0,0
313463081,0.0015890163,0.0,0.20968091,0.0,0.0,0.0,0.0,0.0,0.0,0.0,0,0,0,0,0,0,0,3,0,0,0,1,1,0,0
313643148,0.03782536,0.037301317,0.23926917,0.0,0.0,0.0,0.0,0.0,0.0,0.0,0,0,0,0,0,0,0,3,0,0,0,1,1,0,0
313864909,0.044634365,0.043689527,0.28962573,0.0,0.0,0.0,0.0,0.0,0.0,0.0,0,0,0,0,0,0,0,3,0,0,0,1,1,0,0
314065543,0.082689084,0.08212543,0.2895917,0.0,0.0,0.0,0.0,0.0,0.0,0.0,0,0,0,0,0,0,0,3,0,0,0,1,1,0,0
314272694,0.09491862,0.09359305,0.31748384,0.0,0.0,0.0,0.0,0.0,0.0,0.0,0,0,0,0,0,0,0,3,0,0,0,1,1,0,0
314474318,0.11166446,0.11162473,0.35356328,0.0,0.0,0.0,0.0,0.0,0.0,0.0,0,0,0,0,0,0,0,3,0,0,0,1,1,0,0
314666349,0.11928279,0.1178947,0.41360092,0.0,0.0,0.0,0.0,0.0,0.0,0.0,0,0,0,0,0,0,0,3,0,0,0,1,1,0,0
314886349,0.13976938,0.13853008,0.4353241,0.0,0.0,0.0,0.0,0.0,0.0,0.0,0,0,0,0,0,0,0,3,0,0,0,1,1,0,0
315491940,0.07247176,0.074309036,0.49392554,0.0,0.0,0.0,0.0,0.0,0.0,0.0,0,0,0,0,0,0,0,3,0,0,0,1,1,0,0
315675957,0.057242885,0.06293066,0.49470136,0.0,0.0,0.0,0.0,0.0,0.0,0.0,0,0,0,0,0,0,0,3,0,0,0,1,1,0,0
315892146,0.08082112,0.076114595,0.49479672,0.0,0.0,0.0,0.0,0.0,0.0,0.0,0,0,0,0,0,0,0,3,0,0,0,1,1,0,0
316089515,0.09200874,0.09357551,0.50815064,0.0,0.0,0.0,0.0,0.0,0.0,0.0,0,0,0,0,0,0,0,3,0,0,0,1,1,0,0
316289553,0.095996596,0.096256934,0.5090353,0.0,0.0,0.0,0.0,0.0,0.0,0.0,0,0,0,0,0,0,0,3,0,0,0,1,1,0,0
316485504,0.019470153,0.02438861,0.5400971,0.0,0.0,0.0,0.0,0.0,0.0,0.0,0,0,0,0,0,0,0,3,0,0,0,1,1,0,0
316703154,-8.352028e-09,1.4557625e-07,0.5441093,0.0,0.0,0.0,0.0,0.0,0.0,0.0,0,0,0,0,0,0,0,3,0,0,0,1,1,0,0
316903731,-3.1116172e-14,-4.3120763e-14,0.54135525,0.0,0.0,0.0,0.0,0.0,0.0,0.0,0,0,0,0,0,0,0,3,0,0,0,1,1,0,0
317111104,1.3755846e-21,5.9205796e-21,0.54108846,0.0,0.0,0.0,0.0,0.0,0.0,0.0,0,0,0,0,0,0,0,3,0,0,0,1,1,0,0
317319304,5.656583e-29,-3.8035766e-28,0.5395702,0.0,0.0,0.0,0.0,0.0,0.0,0.0,0,0,0,0,0,0,0,3,0,0,0,1,1,0,0
317520707,8.654249e-35,1.4905364e-34,0.53971976,0.0,0.0,0.0,0.0,0.0,0.0,0.0,0,0,0,0,0,0,0,3,0,0,0,1,1,0,0
317720777,-1.7509e-41,5.5445e-41,0.54023314,0.0,0.0,0.0,0.0,0.0,0.0,0.0,0,0,0,0,0,0,0,3,0,0,0,1,1,0,0
317920768,0.0,0.0,0.54261476,0.0,0.0,0.0,0.0,0.0,0.0,0.0,0,0,0,0,0,0,0,3,0,0,0,1,1,0,0
318125514,0.0,0.0,0.5454136,0.0,0.0,0.0,0.0,0.0,0.0,0.0,0,0,0,0,0,0,0,3,0,0,0,1,1,0,0
318314338,0.0,0.0,0.56117684,0.0,0.0,0.0,0.0,0.0,0.0,0.0,0,0,0,0,0,0,0,3,0,0,0,1,1,0,0
319331918,0.0,0.0,0.506114,0.0,0.0,0.0,0.0,0.0,0.0,0.0,0,0,0,0,0,0,0,3,0,0,0,1,1,0,0
319543933,0.0,0.0,0.49683705,0.0,0.0,0.0,0.0,0.0,0.0,0.0,0,0,0,0,0,0,0,3,0,0,0,1,1,0,0
319733857,0.0,0.0,0.4955764,0.0,0.0,0.0,0.0,0.0,0.0,0.0,0,0,0,0,0,0,0,3,0,0,0,1,1,0,0
319933520,0.0,0.0,0.49432057,0.0,0.0,0.0,0.0,0.0,0.0,0.0,0,0,0,0,0,0,0,3,0,0,0,1,1,0,0
320133541,0.0,0.0,0.49420726,0.0,0.0,0.0,0.0,0.0,0.0,0.0,0,0,0,0,0,0,0,3,0,0,0,1,1,0,0
320341477,0.0,0.0,0.49467894,0.0,0.0,0.0,0.0,0.0,0.0,0.0,0,0,0,0,0,0,0,3,0,0,0,1,1,0,0
320543147,0.0,0.0,0.495372,0.0,0.0,0.0,0.0,0.0,0.0,0.0,0,0,0,0,0,0,0,3,0,0,0,1,1,0,0
320755195,0.0,0.0,0.49593163,0.0,0.0,0.0,0.0,0.0,0.0,0.0,0,0,0,0,0,0,0,3,0,0,0,1,1,0,0
320955113,0.0,0.0,0.49966606,0.0,0.0,0.0,0.0,0.0,0.0,0.0,0,0,0,0,0,0,0,3,0,0,0,1,1,0,0
321152774,0.0,0.0,0.582803,0.0,0.0,0.0,0.0,0.0,0.0,0.0,0,0,0,0,0,0,0,3,0,0,0,1,1,0,0
321368736,0.0,0.0,0.6514521,0.0,0.0,0.0,0.0,0.0,0.0,0.0,0,0,0,0,0,0,0,3,0,0,0,1,1,0,0
321556919,0.0,0.0,0.65927386,0.0,0.0,0.0,0.0,0.0,0.0,0.0,0,0,0,0,0,0,0,3,0,0,0,1,1,0,0
321772728,0.0,0.0,0.6417103,0.0,0.0,0.0,0.0,0.0,0.0,0.0,0,0,0,0,0,0,0,3,0,0,0,1,1,0,0
321966737,0.0,0.0,0.5863643,0.0,0.0,0.0,0.0,0.0,0.0,0.0,0,0,0,0,0,0,0,3,0,0,0,1,1,0,0
322170331,0.0,0.0,0.5007428,0.0,0.0,0.0,0.0,0.0,0.0,0.0,0,0,0,0,0,0,0,3,0,0,0,1,1,0,0
322374265,0.0,0.0,0.49623814,0.0,0.0,0.0,0.0,0.0,0.0,0.0,0,0,0,0,0,0,0,3,0,0,0,1,1,0,0
322566347,0.0,0.0,0.4963958,0.0,0.0,0.0,0.0,0.0,0.0,0.0,0,0,0,0,0,0,0,3,0,0,0,1,1,0,0
322779920,0.0,0.0,0.49685058,0.0,0.0,0.0,0.0,0.0,0.0,0.0,0,0,0,0,0,0,0,3,0,0,0,1,1,0,0
322975961,0.0,0.0,0.49672854,0.0,0.0,0.0,0.0,0.0,0.0,0.0,0,0,0,0,0,0,0,3,0,0,0,1,1,0,0
323179943,0.0,0.0,0.49724832,0.0,0.0,0.0,0.0,0.0,0.0,0.0,0,0,0,0,0,0,0,3,0,0,0,1,1,0,0
323385519,0.0,0.0,0.49956036,0.0,0.0,0.0,0.0,0.0,0.0,0.0,0,0,0,0,0,0,0,3,0,0,0,1,1,0,0
323589543,0.0,0.0,0.51086366,0.0,0.0,0.0,0.0,0.0,0.0,0.0,0,0,0,0,0,0,0,3,0,0,0,1,1,0,0
323777788,0.0,0.0,0.5427149,0.0,0.0,0.0,0.0,0.0,0.0,0.0,0,0,0,0,0,0,0,3,0,0,0,1,1,0,0
323981503,0.0,0.0,0.56631124,0.0,0.0,0.0,0.0,0.0,0.0,0.0,0,0,0,0,0,0,0,3,0,0,0,1,1,0,0
324203720,0.0,0.0,0.5655046,0.0,0.0,0.0,0.0,0.0,0.0,0.0,0,0,0,0,0,0,0,3,0,0,0,1,1,0,0
324399109,0.0,0.0,0.5760296,0.0,0.0,0.0,0.0,0.0,0.0,0.0,0,0,0,0,0,0,0,3,0,0,0,1,1,0,0
324603147,0.0,0.0,0.5730764,0.0,0.0,0.0,0.0,0.0,0.0,0.0,0,0,0,0,0,0,0,3,0,0,0,1,1,0,0
324803115,0.0,0.0,0.5745391,0.0,0.0,0.0,0.0,0.0,0.0,0.0,0,0,0,0,0,0,0,3,0,0,0,1,1,0,0
325000719,0.0,0.0,0.57483685,0.0,0.0,0.0,0.0,0.0,0.0,0.0,0,0,0,0,0,0,0,3,0,0,0,1,1,0,0
325196745,0.0,0.0,0.57447815,0.0,0.0,0.0,0.0,0.0,0.0,0.0,0,0,0,0,0,0,0,3,0,0,0,1,1,0,0
325392751,0.0,0.0,0.57647604,0.0,0.0,0.0,0.0,0.0,0.0,0.0,0,0,0,0,0,0,0,3,0,0,0,1,1,0,0
325614379,0.0,0.0,0.57649624,0.0,0.0,0.0,0.0,0.0,0.0,0.0,0,0,0,0,0,0,0,3,0,0,0,1,1,0,0
325810341,0.0,0.0,0.5725896,0.0,0.0,0.0,0.0,0.0,0.0,0.0,0,0,0,0,0,0,0,3,0,0,0,1,1,0,0
326010562,0.0,0.0,0.5703483,0.0,0.0,0.0,0.0,0.0,0.0,0.0,0,0,0,0,0,0,0,3,0,0,0,1,1,0,0
326210371,0.0,0.0,0.49647403,0.0,0.0,0.0,0.0,0.0,0.0,0.0,0,0,0,0,0,0,0,3,0,0,0,1,1,0,0
326411946,0.0,0.0,0.49690428,0.0,0.0,0.0,0.0,0.0,0.0,0.0,0,0,0,0,0,0,0,3,0,0,0,1,1,0,0
326627922,0.0,0.0,0.49707326,0.0,0.0,0.0,0.0,0.0,0.0,0.0,0,0,0,0,0,0,0,3,0,0,0,1,1,0,0
326827902,0.0,0.0,0.49645576,0.0,0.0,0.0,0.0,0.0,0.0,0.0,0,0,0,0,0,0,0,3,0,0,0,1,1,0,0
327032723,0.0,0.0,0.49496603,0.0,0.0,0.0,0.0,0.0,0.0,0.0,0,0,0,0,0,0,0,3,0,0,0,1,1,0,0
327233748,0.0,0.0,0.49558425,0.0,0.0,0.0,0.0,0.0,0.0,0.0,0,0,0,0,0,0,0,3,0,0,0,1,1,0,0
327437816,0.0,0.0,0.4954727,0.0,0.0,0.0,0.0,0.0,0.0,0.0,0,0,0,0,0,0,0,3,0,0,0,1,1,0,0
327637501,0.0,0.0,0.5368734,0.01400634,0.0,0.0,0.0,0.0,0.0,0.0,0,0,0,0,0,0,0,3,0,0,0,1,1,0,0
327835919,0.0,0.0,0.578369,0.014904541,0.0,0.0,0.0,0.0,0.0,0.0,0,0,0,0,0,0,0,3,0,0,0,1,1,0,0
328039125,0.0,0.0,0.5901172,-0.0005021289,0.0,0.0,0.0,0.0,0.0,0.0,0,0,0,0,0,0,0,3,0,0,0,1,1,0,0
328235117,0.0,0.0,0.5931834,4.6087644e-07,0.0,0.0,0.0,0.0,0.0,0.0,0,0,0,0,0,0,0,3,0,0,0,1,1,0,0
328435117,0.0,0.0,0.5916665,-1.8959724e-10,0.0,0.0,0.0,0.0,0.0,0.0,0,0,0,0,0,0,0,3,0,0,0,1,1,0,0
328628974,0.0,0.0,0.5903757,-2.964644e-14,0.0,0.0,0.0,0.0,0.0,0.0,0,0,0,0,0,0,0,3,0,0,0,1,1,0,0
328841447,0.0,0.0,0.5907678,1.0612079e-16,0.0,0.0,0.0,0.0,0.0,0.0,0,0,0,0,0,0,0,3,0,0,0,1,1,0,0
329036712,0.0,0.0,0.59171295,-8.0047095e-20,0.0,0.0,0.0,0.0,0.0,0.0,0,0,0,0,0,0,0,3,0,0,0,1,1,0,0
329242320,0.0,0.0,0.5912198,2.4926392e-23,0.0,0.0,0.0,0.0,0.0,0.0,0,0,0,0,0,0,0,3,0,0,0,1,1,0,0
329462535,0.0,0.0,0.5904122,1.5441496e-26,0.0,0.0,0.0,0.0,0.0,0.0,0,0,0,0,0,0,0,3,0,0,0,1,1,0,0
329658594,0.0,0.0,0.5901689,-7.309593e-30,0.0,0.0,0.0,0.0,0.0,0.0,0,0,0,0,0,0,0,3,0,0,0,1,1,0,0
329862284,0.0,0.0,0.5182094,-1.5808116e-34,0.0,0.0,0.0,0.0,0.0,0.0,0,0,0,0,0,0,0,3,0,0,0,1,1,0,0
330075105,0.0,0.0,0.4954107,1.716093e-36,0.0,0.0,0.0,0.0,0.0,0.0,0,0,0,0,0,0,0,3,0,0,0,1,1,0,0
330271191,0.0,0.0,0.49519023,-3.69635e-40,0.0,0.0,0.0,0.0,0.0,0.0,0,0,0,0,0,0,0,3,0,0,0,1,1,0,0
330479349,0.0,0.0,0.49425346,-4.04e-43,0.0,0.0,0.0,0.0,0.0,0.0,0,0,0,0,0,0,0,3,0,0,0,1,1,0,0
330679723,0.0,0.0,0.49473345,0.0,0.0,0.0,0.0,0.0,0.0,0.0,0,0,0,0,0,0,0,3,0,0,0,1,1,0,0
330879166,0.0,0.0,0.49424684,0.0,0.0,0.0,0.0,0.0,0.0,0.0,0,0,0,0,0,0,0,3,0,0,0,1,1,0,0
331064952,0.0,0.0,0.49650958,0.0,0.0,0.0,0.0,0.0,0.0,0.0,0,0,0,0,0,0,0,3,0,0,0,1,1,0,0
331272941,0.0,0.0,0.49583507,0.0,0.0,0.0,0.0,0.0,0.0,0.0,0,0,0,0,0,0,0,3,0,0,0,1,1,0,0
331492694,0.0,0.0,0.5059445,0.0046288334,0.0,0.0,0.0,0.0,0.0,0.0,0,0,0,0,0,0,0,3,0,0,0,1,1,0,0
331686903,0.0,0.0,0.5856663,0.0071219956,0.0,0.0,0.0,0.0,0.0,0.0,0,0,0,0,0,0,0,3,0,0,0,1,1,0,0
331894541,0.0,0.0,0.5806246,-7.492881e-05,0.0,0.0,0.0,0.0,0.0,0.0,0,0,0,0,0,0,0,3,0,0,0,1,1,0,0
332090323,0.0,0.0,0.5755206,-4.8629943e-08,0.0,0.0,0.0,0.0,0.0,0.0,0,0,0,0,0,0,0,3,0,0,0,1,1,0,0
332306292,0.0,0.0,0.5745738,2.350126e-11,0.0,0.0,0.0,0.0,0.0,0.0,0,0,0,0,0,0,0,3,0,0,0,1,1,0,0
332503951,0.0,0.0,0.57017565,1.9629012e-15,0.0,0.0,0.0,0.0,0.0,0.0,0,0,0,0,0,0,0,3,0,0,0,1,1,0,0
332703922,0.0,0.0,0.5629625,-1.1660349e-17,0.0,0.0,0.0,0.0,0.0,0.0,0,0,0,0,0,0,0,3,0,0,0,1,1,0,0
332907906,0.013946362,0.011140707,0.5448483,9.3433984e-21,0.0,0.0,0.0,0.0,0.0,0.0,0,0,0,0,0,0,0,3,0,0,0,1,1,0,0
333107892,0.063555315,0.06356463,0.5421644,-3.2170026e-24,0.0,0.0,0.0,0.0,0.0,0.0,0,0,0,0,0,0,0,3,0,0,0,1,1,0,0
333312758,0.0038977277,0.009277023,0.5419663,-1.1478743e-27,0.0,0.0,0.0,0.0,0.0,0.0,0,0,0,0,0,0,0,3,0,0,0,1,1,0,0
333509074,2.5285754e-05,1.7112045e-05,0.5404744,0.006747522,0.0,0.0,0.0,0.0,0.0,0.0,0,0,0,0,0,0,0,3,0,0,0,1,1,0,0
333696788,4.078751e-11,-3.763948e-11,0.5512043,0.025836177,0.0,0.0,0.0,0.0,0.0,0.0,0,0,0,0,0,0,0,3,0,0,0,1,1,0,0
333924740,0.013716543,0.010206618,0.557853,0.024168309,0.0,0.0,0.0,0.0,0.0,0.0,0,0,0,0,0,0,0,3,0,0,0,1,1,0,0
334122373,-0.00036371045,-0.0002157027,0.5587805,0.023948,0.0,0.0,0.0,0.0,0.0,0.0,0,0,0,0,0,0,0,3,0,0,0,1,1,0,0
334310321,0.058253873,0.061198473,0.5567679,0.01510775,0.0,0.0,0.0,0.0,0.0,0.0,0,0,0,0,0,0,0,3,0,0,0,1,1,0,0
334518340,0.046880797,0.047577597,0.5550017,0.017161177,0.0,0.0,0.0,0.0,0.0,0.0,0,0,0,0,0,0,0,3,0,0,0,1,1,0,0
334738363,-2.9659187e-08,-1.0392547e-07,0.55500394,0.029862355,0.0,0.0,0.0,0.0,0.0,0.0,0,0,0,0,0,0,0,3,0,0,0,1,1,0,0
334939941,1.6838061e-14,-6.5247257e-15,0.5641538,0.037381455,0.0,0.0,0.0,0.0,0.0,0.0,0,0,0,0,0,0,0,3,0,0,0,1,1,0,0
335131915,3.8790784e-21,1.917591e-20,0.571123,0.036781996,0.0,0.0,0.0,0.0,0.0,0.0,0,0,0,0,0,0,0,3,0,0,0,1,1,0,0
335331954,-3.3473602e-27,-4.6504896e-28,0.570425,0.043693934,0.0,0.0,0.0,0.0,0.0,0.0,0,0,0,0,0,0,0,3,0,0,0,1,1,0,0
335535921,-4.09757e-34,-3.396043e-33,0.5860678,0.030391512,0.0,0.0,0.0,0.0,0.0,0.0,0,0,0,0,0,0,0,3,0,0,0,1,1,0,0
335749551,-6.4583e-41,1.61539e-40,0.5947691,0.032489464,0.0,0.0,0.0,0.0,0.0,0.0,0,0,0,0,0,0,0,3,0,0,0,1,1,0,0
335945559,0.0,0.0,0.5966805,0.027896358,0.0,0.0,0.0,0.0,0.0,0.0,0,0,0,0,0,0,0,3,0,0,0,1,1,0,0
336145542,0.0,0.0,0.5971218,0.023101551,0.0,0.0,0.0,0.0,0.0,0.0,0,0,0,0,0,0,0,3,0,0,0,1,1,0,0
336347157,0.0,0.0,0.5960131,0.023042932,0.0,0.0,0.0,0.0,0.0,0.0,0,0,0,0,0,0,0,3,0,0,0,1,1,0,0
336551112,0.0,0.0,0.5831262,0.021995695,0.0,0.0,0.0,0.0,0.0,0.0,0,0,0,0,0,0,0,3,0,0,0,1,1,0,0
336751322,0.0,0.0,0.4972073,-9.776257e-06,0.0,0.0,0.0,0.0,0.0,0.0,0,0,0,0,0,0,0,3,0,0,0,1,1,0,0
336959388,0.0,0.0,0.49366978,1.6135743e-08,0.0,0.0,0.0,0.0,0.0,0.0,0,0,0,0,0,0,0,3,0,0,0,1,1,0,0
337161317,0.0,0.0,0.4955663,-9.941171e-12,0.0,0.0,0.0,0.0,0.0,0.0,0,0,0,0,0,0,0,3,0,0,0,1,1,0,0
337364743,0.0,0.0,0.4954916,1.8442457e-15,0.0,0.0,0.0,0.0,0.0,0.0,0,0,0,0,0,0,0,3,0,0,0,1,1,0,0
337544745,0.0,0.0,0.4932239,-5.6927922e-18,0.0,0.0,0.0,0.0,0.0,0.0,0,0,0,0,0,0,0,3,0,0,0,1,1,0,0
337754360,0.0,0.0,0.4943221,-1.8981933e-21,0.0,0.0,0.0,0.0,0.0,0.0,0,0,0,0,0,0,0,3,0,0,0,1,1,0,0
337958552,0.0,0.0,0.5892115,-0.00062865304,0.0,0.0,0.0,0.0,0.0,0.0,0,0,0,0,0,0,0,3,0,0,0,1,1,0,0
338162320,0.0,0.0,0.6609422,1.970224e-07,0.0,0.0,0.0,0.0,0.0,0.0,0,0,0,0,0,0,0,3,0,0,0,1,1,0,0
338358343,0.0,0.0,0.65463126,9.418409e-11,0.0,0.0,0.0,0.0,0.0,0.0,0,0,0,0,0,0,0,3,0,0,0,1,1,0,0
338579950,0.0,0.0,0.61715835,-5.756059e-14,0.0,0.0,0.0,0.0,0.0,0.0,0,0,0,0,0,0,0,3,0,0,0,1,1,0,0
338775962,0.0,0.0,0.59476805,-1.039607e-18,0.0,0.0,0.0,0.0,0.0,0.0,0,0,0,0,0,0,0,3,0,0,0,1,1,0,0
338987926,0.0,0.0,0.6004938,2.527136e-20,0.0,0.0,0.0,0.0,0.0,0.0,0,0,0,0,0,0,0,3,0,0,0,1,1,0,0
339167953,0.0,0.0,0.58500105,-2.5788598e-23,0.0,0.0,0.0,0.0,0.0,0.0,0,0,0,0,0,0,0,3,0,0,0,1,1,0,0
339381766,0.0,0.0,0.49790233,8.1594295e-27,0.0,0.0,0.0,0.0,0.0,0.0,0,0,0,0,0,0,0,3,0,0,0,1,1,0,0
339581552,0.0,0.0,0.49942252,2.0277795e-30,0.0,0.0,0.0,0.0,0.0,0.0,0,0,0,0,0,0,0,3,0,0,0,1,1,0,0
339794142,0.0,0.0,0.4971005,-5.2230667e-33,0.0,0.0,0.0,0.0,0.0,0.0,0,0,0,0,0,0,0,3,0,0,0,1,1,0,0
339998543,0.0,0.0,0.4968485,3.699076e-36,0.0,0.0,0.0,0.0,0.0,0.0,0,0,0,0,0,0,0,3,0,0,0,1,1,0,0
340202296,0.0,0.0,0.4941677,-1.016814e-39,0.0,0.0,0.0,0.0,0.0,0.0,0,0,0,0,0,0,0,3,0,0,0,1,1,0,0
340398548,0.0,0.0,0.49579695,0.0026483606,0.0,0.0,0.0,0.0,0.0,0.0,0,0,0,0,0,0,0,3,0,0,0,1,1,0,0
340598504,0.0,0.0,0.5649976,0.093989275,0.0,0.0,0.0,0.0,0.0,0.0,0,0,0,0,0,0,0,3,0,0,0,1,1,0,0
340806297,0.0,0.0,0.57308346,0.057986386,0.0,0.0,0.0,0.0,0.0,0.0,0,0,0,0,0,0,0,3,0,0,0,1,1,0,0
341007912,0.0,0.0,0.6189173,0.14429606,0.0,0.0,0.0,0.0,0.0,0.0,0,0,0,0,0,0,0,3,0,0,0,1,1,0,0
341195953,0.0,0.0,0.61713916,0.082602434,0.0,0.0,0.0,0.0,0.0,0.0,0,0,0,0,0,0,0,3,0,0,0,1,1,0,0
341416487,0.0,0.0,0.54963636,0.059294194,0.0,0.0,0.0,0.0,0.0,0.0,0,0,0,0,0,0,0,3,0,0,0,1,1,0,0
341613778,0.14656234,0.1324719,0.50057125,0.059518818,0.0,0.0,0.0,0.0,0.0,0.0,0,0,0,0,0,0,0,3,0,0,0,1,1,0,0
341814077,0.22262976,0.22534862,0.508763,0.109909646,0.0,0.0,0.0,0.0,0.0,0.0,0,0,0,0,0,0,0,3,0,0,0,1,1,0,0
342013533,0.0004668575,0.00052138447,0.50316995,0.108277485,0.0,0.0,0.0,0.0,0.0,0.0,0,0,0,0,0,0,0,3,0,0,0,1,1,0,0
342213488,-0.2101449,-0.17969619,0.49723014,0.110497974,0.0,0.0,0.0,0.0,0.0,0.0,0,0,0,0,0,0,0,3,0,0,0,1,1,0,0
342415124,-0.3510943,-0.35323855,0.4961738,0.30281624,0.0,0.0,0.0,0.0,0.0,0.0,0,0,0,0,0,0,0,3,0,0,0,1,1,0,0
342623122,-5.1464063e-05,1.043934e-05,0.52351546,0.18862502,0.0,0.0,0.0,0.0,0.0,0.0,0,0,0,0,0,0,0,3,0,0,0,1,1,0,0
342823096,-9.90714e-12,-5.636568e-11,0.51028043,0.15097032,0.0,0.0,0.0,0.0,0.0,0.0,0,0,0,0,0,0,0,3,0,0,0,1,1,0,0
343023178,1.0064839e-17,2.9327773e-18,0.5273787,0.1924332,0.0,0.0,0.0,0.0,0.0,0.0,0,0,0,0,0,0,0,3,0,0,0,1,1,0,0
343228719,9.173571e-25,9.8489016e-24,0.501174,0.26681602,0.0,0.0,0.0,0.0,0.0,0.0,0,0,0,0,0,0,0,3,0,0,0,1,1,0,0
343428919,-1.8814489e-30,-1.3647183e-30,0.44840872,0.021785565,0.0,0.0,0.0,0.0,0.0,0.0,0,0,0,0,0,0,0,3,0,0,0,1,1,0,0
343636715,-4.033352e-39,-1.648295e-36,0.37558636,1.3606654e-06,0.0,0.0,0.0,0.0,0.0,0.0,0,0,0,0,0,0,0,3,0,0,0,1,1,0,0
343838545,3.36e-43,3.84e-43,0.39533722,-1.04086455e-08,0.0,0.0,0.0,0.0,0.0,0.0,0,0,0,0,0,0,0,3,0,0,0,1,1,0,0
344038322,0.0,0.0,0.20081088,0.039297078,0.0,0.0,0.0,0.0,0.0,0.0,0,0,0,0,0,0,0,3,0,0,0,1,1,0,0
344226885,0.0,0.0,0.00064267684,0.06013704,0.0,0.0,0.0,0.0,0.0,0.0,0,0,0,0,0,0,0,3,0,0,0,1,1,0,0
344362390,0.0,0.0,6.091235e-06,0.061518416,0.0,0.0,0.0,0.0,0.0,0.0,0,0,0,0,0,0,0,3,0,0,0,1,1,0,0
344931128,0.0,0.0,1.387321e-06,0.061000153,0.0,0.0,0.0,0.0,0.0,0.0,0,0,0,0,0,0,0,3,0,0,0,1,1,0,0
345127475,0.0,0.0,5.187717e-10,0.056769036,0.0,0.0,0.0,0.0,0.0,0.0,0,0,0,0,0,0,0,3,0,0,0,1,1,0,0
345323101,0.0,0.0,0.0,0.05882773,0.0,0.0,0.0,0.0,0.0,0.0,0,0,0,0,0,0,0,3,0,0,0,1,1,0,0
345536725,0.0,0.0,1.0350433e-17,0.08742603,0.0,0.0,0.0,0.0,0.0,0.0,0,0,0,0,0,0,0,3,0,0,0,1,1,0,0
346145556,0.0,0.0,5.616989e-26,0.2211473,0.0,0.0,0.0,0.0,0.0,0.0,0,0,0,0,0,0,0,3,0,0,0,1,1,0,0
346346672,0.0,0.0,1.0032014e-29,0.21211442,0.0,0.0,0.0,0.0,0.0,0.0,0,0,0,0,0,0,0,3,0,0,0,1,1,0,0
346542583,0.0,0.0,0.0,0.17010112,0.0,0.0,0.0,0.0,0.0,0.0,0,0,0,0,0,0,0,3,0,0,0,1,1,0,0
346750341,0.0,0.0,1.7615734e-36,0.14995386,0.0,0.0,0.0,0.0,0.0,0.0,0,0,0,0,0,0,0,3,0,0,0,1,1,0,0
346951947,0.0,0.0,4.514007e-39,0.22445275,0.0,0.0,0.0,0.0,0.0,0.0,0,0,0,0,0,0,0,3,0,0,0,1,1,0,0
347151901,0.0,0.0,0.0,0.20471108,0.0,0.0,0.0,0.0,0.0,0.0,0,0,0,0,0,0,0,3,0,0,0,1,1,0,0
347352251,0.0,0.0,1e-45,0.18498696,0.0,0.0,0.0,0.0,0.0,0.0,0,0,0,0,0,0,0,3,0,0,0,1,1,0,0
347552158,0.0,0.0,0.0,0.0013272101,0.0,0.0,0.0,0.0,0.0,0.0,0,0,0,0,0,0,0,3,0,0,0,1,1,0,0
347753555,0.0,0.0,0.0,-0.42217472,0.0,0.0,0.0,0.0,0.0,0.0,0,0,0,0,0,0,0,3,0,0,0,1,1,0,0
347973528,0.0,0.0,0.0,-0.99226075,0.0,0.0,0.0,0.0,0.0,0.0,0,0,0,0,0,0,0,3,0,0,0,1,1,0,0
348165533,0.0,0.0,0.0,-0.99213755,0.0,0.0,0.0,0.0,0.0,0.0,0,0,0,0,0,0,0,3,0,0,0,1,1,0,0
348366534,0.0,0.0,0.0,-0.99319357,0.0,0.0,0.0,0.0,0.0,0.0,0,0,0,0,0,0,0,3,0,0,0,1,1,0,0
348574687,0.0,0.0,0.0,-0.99443805,0.0,0.0,0.0,0.0,0.0,0.0,0,0,0,0,0,0,0,3,0,0,0,1,1,0,0
348774332,0.0,0.0,0.0,-0.9928174,0.0,0.0,0.0,0.0,0.0,0.0,0,0,0,0,0,0,0,3,0,0,0,1,1,0,0
348974313,0.0,0.0,0.0,-0.9922223,0.0,0.0,0.0,0.0,0.0,0.0,0,0,0,0,0,0,0,3,0,0,0,1,1,0,0
350208103,0.0,0.0,0.0,0.21267745,0.0,0.0,0.0,0.0,0.0,0.0,0,0,0,0,0,0,0,3,0,0,0,1,1,0,0
350404746,0.0,0.0,0.0,-0.027634993,0.0,0.0,0.0,0.0,0.0,0.0,0,0,0,0,0,0,0,3,0,0,0,1,1,0,0
350604742,0.0,0.0,0.0,-0.34867796,0.0,0.0,0.0,0.0,0.0,0.0,0,0,0,0,0,0,0,3,0,0,0,1,1,0,0
350808967,0.0,0.0,0.0,-0.99023235,0.0,0.0,0.0,0.0,0.0,0.0,0,0,0,0,0,0,0,3,0,0,0,1,1,0,0
351002326,0.0,0.0,0.0,-0.9929179,0.0,0.0,0.0,0.0,0.0,0.0,0,0,0,0,0,0,0,3,0,0,0,1,1,0,0
351210348,0.0,0.0,0.0,-0.99175775,0.0,0.0,0.0,0.0,0.0,0.0,0,0,0,0,0,0,0,3,0,0,0,1,1,0,0
351422534,0.0,0.0,0.0,-0.9902469,0.0,0.0,0.0,0.0,0.0,0.0,0,0,0,0,0,0,0,3,0,0,0,1,1,0,0
351618313,0.0,0.0,0.0,-0.6494118,0.0,0.0,0.0,0.0,0.0,0.0,0,0,0,0,0,0,0,3,0,0,0,1,1,0,0
351815966,0.0,0.0,0.0,-0.17705546,0.0,0.0,0.0,0.0,0.0,0.0,0,0,0,0,0,0,0,3,0,0,0,1,1,0,0
352024219,0.0,0.0,0.0,-0.0016984626,0.0,0.0,0.0,0.0,0.0,0.0,0,0,0,0,0,0,0,3,0,0,0,1,1,0,0
352223888,0.0,0.0,0.0,0.0924259,0.0,0.0,0.0,0.0,0.0,0.0,0,0,0,0,0,0,0,3,0,0,0,1,1,0,0
352425498,0.0,0.0,0.0,0.046715174,0.0,0.0,0.0,0.0,0.0,0.0,0,0,0,0,0,0,0,3,0,0,0,1,1,0,0
352629528,0.0,0.0,0.0,0.07124307,0.0,0.0,0.0,0.0,0.0,0.0,0,0,0,0,0,0,0,3,0,0,0,1,1,0,0
352833768,0.0,0.0,0.0,0.075977035,0.0,0.0,0.0,0.0,0.0,0.0,0,0,0,0,0,0,0,3,0,0,0,1,1,0,0
353033836,0.0,0.0,0.0,0.09057044,0.0,0.0,0.0,0.0,0.0,0.0,0,0,0,0,0,0,0,3,0,0,0,1,1,0,0
353227125,0.0,0.0,0.0,0.06521655,0.0,0.0,0.0,0.0,0.0,0.0,0,0,0,0,0,0,0,3,0,0,0,1,1,0,0
353431179,0.0,0.0,0.0,0.04691953,0.0,0.0,0.0,0.0,0.0,0.0,0,0,0,0,0,0,0,3,0,0,0,1,1,0,0
353651098,0.0,0.0,0.0,0.03836734,0.0,0.0,0.0,0.0,0.0,0.0,0,0,0,0,0,0,0,3,0,0,0,1,1,0,0
353844930,0.0,0.0,0.0,0.04845415,0.0,0.0,0.0,0.0,0.0,0.0,0,0,0,0,0,0,0,3,0,0,0,1,1,0,0
354048953,0.0,0.0,0.0,1.2698486e-05,0.0,0.0,0.0,0.0,0.0,0.0,0,0,0,0,0,0,0,3,0,0,0,1,1,0,0
354232720,0.0,0.0,0.0,0.014850357,0.0,0.0,0.0,0.0,0.0,0.0,0,0,0,0,0,0,0,3,0,0,0,1,1,0,0
354456763,0.0,0.0,0.0,0.020935675,0.0,0.0,0.0,0.0,0.0,0.0,0,0,0,0,0,0,0,3,0,0,0,1,1,0,0
354645545,0.0,0.0,0.0,0.016113803,0.0,0.0,0.0,0.0,0.0,0.0,0,0,0,0,0,0,0,3,0,0,0,1,1,0,0
354845778,0.0,0.0,0.0,1.9811894e-05,0.0,0.0,0.0,0.0,0.0,0.0,0,0,0,0,0,0,0,3,0,0,0,1,1,0,0
355049714,0.0,0.0,0.0,1.39161225e-08,0.0,0.0,0.0,0.0,0.0,0.0,0,0,0,0,0,0,0,3,0,0,0,1,1,0,0
355249547,0.0,0.0,0.0,-2.0528513e-11,0.0,0.0,0.0,0.0,0.0,0.0,0,0,0,0,0,0,0,3,0,0,0,1,1,0,0
355447169,0.0,0.0,0.0,1.2021765e-14,0.0,0.0,0.0,0.0,0.0,0.0,0,0,0,0,0,0,0,3,0,0,0,1,1,0,0
355667145,0.0,0.0,0.0,3.2523476e-18,0.0,0.0,0.0,0.0,0.0,0.0,0,0,0,0,0,0,0,3,0,0,0,1,1,0,0
355863333,0.0,0.0,0.0,-2.5633635e-21,0.0,0.0,0.0,0.0,0.0,0.0,0,0,0,0,0,0,0,3,0,0,0,1,1,0,0
356063097,0.0,0.0,0.0,8.600129e-25,0.0,0.0,0.0,0.0,0.0,0.0,0,0,0,0,0,0,0,3,0,0,0,1,1,0,0
356260729,0.0,0.0,0.0,-0.00055169465,0.0,0.0,0.0,0.0,0.0,0.0,0,0,0,0,0,0,0,3,0,0,0,1,1,0,0
356464719,0.0,0.0,0.0,8.788627e-07,0.0,0.0,0.0,0.0,0.0,0.0,0,0,0,0,0,0,0,3,0,0,0,1,1,0,0
356672705,0.0,0.0,0.0,0.06787847,0.0,0.0,0.0,0.0,0.0,0.0,0,0,0,0,0,0,0,3,0,0,0,1,1,0,0
356879291,0.0,0.0,0.0,0.093569584,0.0,0.0,0.0,0.0,0.0,0.0,0,0,0,0,0,0,0,3,0,0,0,1,1,0,0
357082363,0.0,0.0,0.0,0.04744495,0.0,0.0,0.0,0.0,0.0,0.0,0,0,0,0,0,0,0,3,0,0,0,1,1,0,0
357274884,0.0,0.0,0.0,0.07426068,0.0,0.0,0.0,0.0,0.0,0.0,0,0,0,0,0,0,0,3,0,0,0,1,1,0,0
357478363,0.0,0.0,0.0,0.13866952,0.0,0.0,0.0,0.0,0.0,0.0,0,0,0,0,0,0,0,3,0,0,0,1,1,0,0
357675913,0.0,0.0,0.0,0.105328865,0.0,0.0,0.0,0.0,0.0,0.0,0,0,0,0,0,0,0,1,0,0,0,1,1,0,0
357888676,0.0,0.0,0.0,0.10137151,0.0,0.0,0.0,0.0,0.0,0.0,0,0,0,0,0,0,0,1,0,0,0,1,1,0,0
358079916,0.0,0.0,0.0,0.10150073,0.0,0.0,0.0,0.0,0.0,0.0,0,0,0,0,0,0,0,3,0,0,0,1,1,0,0
358276717,0.0,0.0,0.0,0.088076,0.0,0.0,0.0,0.0,0.0,0.0,0,0,0,0,0,0,0,3,0,0,0,1,1,0,0
358484762,0.0,0.0,0.0,0.08553955,0.0,0.0,0.0,0.0,0.0,0.0,0,0,0,0,0,0,0,3,0,0,0,1,1,0,0
358684742,0.0,0.0,0.0,0.08788103,0.0,0.0,0.0,0.0,0.0,0.0,0,0,0,0,0,0,0,1,0,0,0,1,1,0,0
358888926,0.0,0.0,0.0,0.09743784,0.0,0.0,0.0,0.0,0.0,0.0,0,0,0,0,0,0,0,1,0,0,0,1,1,0,0
359088770,0.0,0.0,0.0,0.09741654,0.0,0.0,0.0,0.0,0.0,0.0,0,0,0,0,0,0,0,1,0,0,0,1,1,0,0
359306292,0.0,0.0,0.0,0.09474442,0.0,0.0,0.0,0.0,0.0,0.0,0,0,0,0,0,0,0,1,0,0,0,1,1,0,0
359506369,0.0,0.0,0.0,0.12065468,0.0,0.0,0.0,0.0,0.0,0.0,0,0,0,0,0,0,0,1,0,0,0,1,1,0,0
359706344,0.0,0.0,0.0,0.14687632,0.0,0.0,0.0,0.0,0.0,0.0,0,0,0,0,0,0,0,1,0,0,0,1,1,0,0
359898339,0.0,0.0,0.0,0.16943155,0.0,0.0,0.0,0.0,0.0,0.0,0,0,0,0,0,0,0,1,0,0,0,1,1,0,0
360107926,0.0,0.0,0.0,0.16925015,0.0,0.0,0.0,0.0,0.0,0.0,0,0,0,0,0,0,0,3,0,0,0,1,1,0,0
360304528,0.0,0.0,0.0,0.1355844,0.0,0.0,0.0,0.0,0.0,0.0,0,0,0,0,0,0,0,3,0,0,0,1,1,0,0
360515924,0.0,0.0,0.0,0.038647152,0.0,0.0,0.0,0.0,0.0,0.0,0,0,0,0,0,0,0,3,0,0,0,1,1,0,0
360713521,0.0,0.0,0.0,1.0140089e-05,0.0,0.0,0.0,0.0,0.0,0.0,0,0,0,0,0,0,0,3,0,0,0,1,1,0,0
360909528,0.0,0.0,0.0,3.202304e-08,0.0,0.0,0.0,0.0,0.0,0.0,0,0,0,0,0,0,0,3,0,0,0,1,1,0,0
361105574,0.10554994,0.10491133,0.0,-3.223384e-11,0.0,0.0,0.0,0.0,0.0,0.0,0,0,0,0,0,0,0,3,0,0,0,1,1,0,0
361309510,0.0883877,0.09515565,0.0,1.4570976e-14,0.0,0.0,0.0,0.0,0.0,0.0,0,0,0,0,0,0,0,3,0,0,0,1,1,0,0
361507120,0.078902,0.0762022,0.030204725,9.300166e-19,0.0,0.0,0.0,0.0,0.0,0.0,0,0,0,0,0,0,0,3,0,0,0,1,1,0,0
361727150,0.090349376,0.09044135,0.13959797,-3.4981727e-21,0.0,0.0,0.0,0.0,0.0,0.0,0,0,0,0,0,0,0,3,0,0,0,1,1,0,0
361927726,0.06624003,0.06704054,0.18127435,6.6159516e-25,0.0,0.0,0.0,0.0,0.0,0.0,0,0,0,0,0,0,0,3,0,0,0,1,1,0,0
362124724,0.043147027,0.04297917,0.13347064,9.034309e-28,0.0,0.0,0.0,0.0,0.0,0.0,0,0,0,0,0,0,0,3,0,0,0,1,1,0,0
362336790,0.08141231,0.08161655,0.19606003,-1.0683302e-30,0.0,0.0,0.0,0.0,0.0,0.0,0,0,0,0,0,0,0,3,0,0,0,1,1,0,0
362520754,0.07125921,0.07124743,0.15134974,1.4221998e-33,0.0,0.0,0.0,0.0,0.0,0.0,0,0,0,0,0,0,0,3,0,0,0,1,1,0,0
362724709,0.06874398,0.070186764,0.21665783,-9.649628e-37,0.0,0.0,0.0,0.0,0.0,0.0,0,0,0,0,0,0,0,3,0,0,0,1,1,0,0
362926366,0.054754544,0.055359386,0.2549629,2.3999e-40,0.0,0.0,0.0,0.0,0.0,0.0,0,0,0,0,0,0,0,3,0,0,0,1,1,0,0
363126339,0.05344729,0.054178115,0.25541946,2e-43,0.0,0.0,0.0,0.0,0.0,0.0,0,0,0,0,0,0,0,3,0,0,0,1,1,0,0
363346378,0.052190468,0.051556185,0.26291174,0.0,0.0,0.0,0.0,0.0,0.0,0.0,0,0,0,0,0,0,0,3,0,0,0,1,1,0,0
363540509,0.072581485,0.072025314,0.33022118,0.0,0.0,0.0,0.0,0.0,0.0,0.0,0,0,0,0,0,0,0,3,0,0,0,1,1,0,0
363739953,0.04330001,0.048711218,0.36702666,0.0,0.0,0.0,0.0,0.0,0.0,0.0,0,0,0,0,0,0,0,3,0,0,0,1,1,0,0
363939903,0.035735033,0.029831862,0.36679667,0.0,0.0,0.0,0.0,0.0,0.0,0.0,0,0,0,0,0,0,0,3,0,0,0,1,1,0,0
364147903,0.07611433,0.07505415,0.38028175,0.0,0.0,0.0,0.0,0.0,0.0,0.0,0,0,0,0,0,0,0,3,0,0,0,1,1,0,0
364345519,0.021553267,0.024739968,0.45973212,0.0,0.0,0.0,0.0,0.0,0.0,0.0,0,0,0,0,0,0,0,3,0,0,0,1,1,0,0
364550344,1.0174176e-08,-8.795767e-08,0.49084315,0.0,0.0,0.0,0.0,0.0,0.0,0.0,0,0,0,0,0,0,0,3,0,0,0,1,1,0,0
364753500,0.01266297,0.012673639,0.49179408,0.0,0.0,0.0,0.0,0.0,0.0,0.0,0,0,0,0,0,0,0,3,0,0,0,1,1,0,0
364951137,0.0017552499,0.0105533395,0.49171975,0.0,0.0,0.0,0.0,0.0,0.0,0.0,0,0,0,0,0,0,0,3,0,0,0,1,1,0,0
365155154,-1.1097611e-06,-8.678357e-06,0.49164352,0.0,0.0,0.0,0.0,0.0,0.0,0.0,0,0,0,0,0,0,0,3,0,0,0,1,1,0,0
365359154,-0.17161901,-0.15432702,0.4935381,0.0,0.0,0.0,0.0,0.0,0.0,0.0,0,0,0,0,0,0,0,3,0,0,0,1,1,0,0
365559171,-0.15425006,-0.1543286,0.4908999,0.0,0.0,0.0,0.0,0.0,0.0,0.0,0,0,0,0,0,0,0,3,0,0,0,1,1,0,0
365760730,3.64057e-08,-1.6343575e-06,0.49182865,0.0,0.0,0.0,0.0,0.0,0.0,0.0,0,0,0,0,0,0,0,3,0,0,0,1,1,0,0
365960770,3.4067942e-13,4.2403185e-13,0.4916788,0.0,0.0,0.0,0.0,0.0,0.0,0.0,0,0,0,0,0,0,0,3,0,0,0,1,1,0,0
366165285,-3.5553337e-20,2.5668784e-19,0.36556423,0.053843282,0.0,0.0,0.0,0.0,0.0,0.0,0,0,0,0,0,0,0,3,0,0,0,1,1,0,0
366358349,-5.800853e-26,-9.7845506e-26,0.3532918,-2.9920917e-05,0.0,0.0,0.0,0.0,0.0,0.0,0,0,0,0,0,0,0,3,0,0,0,1,1,0,0
366566337,1.13130884e-32,-3.765194e-32,0.34489673,4.2873104e-08,0.0,0.0,0.0,0.0,0.0,0.0,0,0,0,0,0,0,0,3,0,0,0,1,1,0,0
366786299,-2.059481e-39,-5.76716e-40,0.37483826,1.553272e-12,0.0,0.0,0.0,0.0,0.0,0.0,0,0,0,0,0,0,0,3,0,0,0,1,1,0,0
366979386,0.0,-1e-45,0.38051093,-6.8380517e-15,0.0,0.0,0.0,0.0,0.0,0.0,0,0,0,0,0,0,0,3,0,0,0,1,1,0,0
367175752,0.0,0.0,0.41140485,5.309084e-18,0.0,0.0,0.0,0.0,0.0,0.0,0,0,0,0,0,0,0,3,0,0,0,1,1,0,0
367375168,0.0,0.0,0.43560475,-1.738038e-21,0.0,0.0,0.0,0.0,0.0,0.0,0,0,0,0,0,0,0,3,0,0,0,1,1,0,0
367571726,0.049087286,0.050473377,0.44209716,-7.307022e-25,0.0,0.0,0.0,0.0,0.0,0.0,0,0,0,0,0,0,0,3,0,0,0,1,1,0,0
367783119,0.07542604,0.077109866,0.44122204,1.3732521e-27,0.0,0.0,0.0,0.0,0.0,0.0,0,0,0,0,0,0,0,3,0,0,0,1,1,0,0
367984745,0.07122912,0.06537791,0.4411879,-8.889416e-31,0.0,0.0,0.0,0.0,0.0,0.0,0,0,0,0,0,0,0,3,0,0,0,1,1,0,0
368188921,0.05395852,0.058909144,0.49146554,1.9437701e-34,0.0,0.0,0.0,0.0,0.0,0.0,0,0,0,0,0,0,0,3,0,0,0,1,1,0,0
368393023,1.6028953e-05,-9.885212e-06,0.49281067,2.0666726e-37,0.0,0.0,0.0,0.0,0.0,0.0,0,0,0,0,0,0,0,3,0,0,0,1,1,0,0
368600746,4.446174e-12,1.9121964e-11,0.49310055,-2.62605e-40,0.0,0.0,0.0,0.0,0.0,0.0,0,0,0,0,0,0,0,3,0,0,0,1,1,0,0
368786536,0.003008426,0.0012550725,0.49178377,3.43e-43,0.0,0.0,0.0,0.0,0.0,0.0,0,0,0,0,0,0,0,3,0,0,0,1,1,0,0
369010337,4.9531415e-09,2.9852933e-09,0.49179158,0.0,0.0,0.0,0.0,0.0,0.0,0.0,0,0,0,0,0,0,0,3,0,0,0,1,1,0,0
369194352,7.769045e-15,-8.231738e-15,0.49167883,0.0,0.0,0.0,0.0,0.0,0.0,0.0,0,0,0,0,0,0,0,3,0,0,0,1,1,0,0
369415920,0.0897128,0.0820869,0.49171853,0.0,0.0,0.0,0.0,0.0,0.0,0.0,0,0,0,0,0,0,0,3,0,0,0,1,1,0,0
369603957,0.11824776,0.12819254,0.49208468,0.0,0.0,0.0,0.0,0.0,0.0,0.0,0,0,0,0,0,0,0,3,0,0,0,1,1,0,0
369807933,0.08655636,0.086642645,0.49204326,0.0,0.0,0.0,0.0,0.0,0.0,0.0,0,0,0,0,0,0,0,3,0,0,0,1,1,0,0
370017341,0.057223883,0.05650926,0.49178442,0.0,0.0,0.0,0.0,0.0,0.0,0.0,0,0,0,0,0,0,0,3,0,0,0,1,1,0,0
370217553,0.09036942,0.09108864,0.49182746,0.0,0.0,0.0,0.0,0.0,0.0,0.0,0,0,0,0,0,0,0,3,0,0,0,1,1,0,0
370421551,0.07890681,0.07889284,0.49171975,0.0,0.0,0.0,0.0,0.0,0.0,0.0,0,0,0,0,0,0,0,3,0,0,0,1,1,0,0
370621532,0.07760976,0.07760596,0.4916069,0.0,0.0,0.0,0.0,0.0,0.0,0.0,0,0,0,0,0,0,0,3,0,0,0,1,1,0,0
370807712,0.050796736,0.05188443,0.49266225,0.0,0.0,0.0,0.0,0.0,0.0,0.0,0,0,0,0,0,0,0,3,0,0,0,1,1,0,0
371027112,0.039395798,0.040667146,0.49160734,0.0,0.0,0.0,0.0,0.0,0.0,0.0,0,0,0,0,0,0,0,3,0,0,0,1,1,0,0
371231101,0.0102429595,0.013687996,0.49172094,0.0,0.0,0.0,0.0,0.0,0.0,0.0,0,0,0,0,0,0,0,3,0,0,0,1,1,0,0
371424705,4.6681564e-08,1.4192109e-07,0.49300468,0.0,0.0,0.0,0.0,0.0,0.0,0.0,0,0,0,0,0,0,0,3,0,0,0,1,1,0,0
371628728,-0.0012680783,-0.0005351609,0.49550033,0.0,0.0,0.0,0.0,0.0,0.0,0.0,0,0,0,0,0,0,0,3,0,0,0,1,1,0,0
371824744,-0.046685368,-0.048156165,0.4966738,0.0,0.0,0.0,0.0,0.0,0.0,0.0,0,0,0,0,0,0,0,3,0,0,0,1,1,0,0
372024692,-0.077722885,-0.07716743,0.4964886,0.0,0.0,0.0,0.0,0.0,0.0,0.0,0,0,0,0,0,0,0,3,0,0,0,1,1,0,0
372226315,0.001101472,0.0016780626,0.49465555,0.0,0.0,0.0,0.0,0.0,0.0,0.0,0,0,0,0,0,0,0,3,0,0,0,1,1,0,0
372442356,-4.425985e-11,-2.140618e-10,0.4943309,0.0,0.0,0.0,0.0,0.0,0.0,0.0,0,0,0,0,0,0,0,3,0,0,0,1,1,0,0
372646368,-0.09284551,-0.08886289,0.4930893,0.0,0.0,0.0,0.0,0.0,0.0,0.0,0,0,0,0,0,0,0,3,0,0,0,1,1,0,0
372848193,-0.13153012,-0.13859661,0.49299115,0.0,0.0,0.0,0.0,0.0,0.0,0.0,0,0,0,0,0,0,0,3,0,0,0,1,1,0,0
373047937,-0.104416296,-0.11030848,0.49562615,0.0,0.0,0.0,0.0,0.0,0.0,0.0,0,0,0,0,0,0,0,3,0,0,0,1,1,0,0
373252137,0.107784174,0.09291421,0.49518248,0.0,0.0,0.0,0.0,0.0,0.0,0.0,0,0,0,0,0,0,0,3,0,0,0,1,1,0,0
373440128,0.1789377,0.17972733,0.49432006,0.0,0.0,0.0,0.0,0.0,0.0,0.0,0,0,0,0,0,0,0,3,0,0,0,1,1,0,0
373657487,0.14941236,0.15133737,0.49432054,0.0,0.0,0.0,0.0,0.0,0.0,0.0,0,0,0,0,0,0,0,3,0,0,0,1,1,0,0
373853554,0.014113607,0.03429093,0.49427685,0.0,0.0,0.0,0.0,0.0,0.0,0.0,0,0,0,0,0,0,0,3,0,0,0,1,1,0,0
374069498,-0.0026483606,-3.1207763e-09,0.49431536,0.0,0.0,0.0,0.0,0.0,0.0,0.0,0,0,0,0,0,0,0,3,0,0,0,1,1,0,0
374274548,-0.0017399187,-0.0027038802,0.49540952,0.0,0.0,0.0,0.0,0.0,0.0,0.0,0,0,0,0,0,0,0,3,0,0,0,1,1,0,0
374470365,-0.110069,-0.10937912,0.4951835,0.0,0.0,0.0,0.0,0.0,0.0,0.0,0,0,0,0,0,0,0,3,0,0,0,1,1,0,0
374670564,-0.0759986,-0.07408172,0.49393624,0.0,0.0,0.0,0.0,0.0,0.0,0.0,0,0,0,0,0,0,0,3,0,0,0,1,1,0,0
374882344,-0.036571596,-0.05112607,0.4943218,0.0,0.0,0.0,0.0,0.0,0.0,0.0,0,0,0,0,0,0,0,3,0,0,0,1,1,0,0
375082362,-2.300459e-08,-2.0625553e-08,0.49427807,0.0023144167,0.0,0.0,0.0,0.0,0.0,0.0,0,0,0,0,0,0,0,3,0,0,0,1,1,0,0
375267952,7.58533e-16,-1.9223721e-14,0.37326974,-3.4169934e-06,0.0,0.0,0.0,0.0,0.0,0.0,0,0,0,0,0,0,0,3,0,0,0,1,1,0,0
375467954,4.0570034e-21,5.3335273e-21,0.23722306,4.2917607e-09,0.0,0.0,0.0,0.0,0.0,0.0,0,0,0,0,0,0,0,3,0,0,0,1,1,0,0
375675913,-4.8161677e-28,2.9897466e-27,0.21117358,-2.298437e-12,0.0,0.0,0.0,0.0,0.0,0.0,0,0,0,0,0,0,0,3,0,0,0,1,1,0,0
375881537,-6.858367e-34,-1.2103554e-33,0.1349419,1.8888802e-16,0.0,0.0,0.0,0.0,0.0,0.0,0,0,0,0,0,0,0,3,0,0,0,1,1,0,0
376085868,1.44732e-40,-4.32522e-40,0.00022067585,0.023339896,0.0,0.0,0.0,0.0,0.0,0.0,0,0,0,0,0,0,0,3,0,0,0,1,1,0,0
376289559,0.0,0.0,0.0,0.3246941,0.0,0.0,0.0,0.0,0.0,0.0,0,0,0,0,0,0,0,3,0,0,0,1,1,0,0
376489546,0.0,0.0,2.3023794e-10,0.9108415,0.0,0.0,0.0,0.0,0.0,0.0,0,0,0,0,0,0,0,3,0,0,0,1,1,0,0
376703154,0.0,0.0,5.7127656e-14,1.0,0.0,0.0,0.0,0.0,0.0,0.0,0,0,0,0,0,0,0,3,0,0,0,1,1,0,0
376899166,0.0,0.0,0.0,1.0,0.0,0.0,0.0,0.0,0.0,0.0,0,0,0,0,0,0,0,3,0,0,0,1,1,0,0
377103109,0.0,0.0,1.7622513e-20,0.56419104,0.0,0.0,0.0,0.0,0.0,0.0,0,0,0,0,0,0,0,3,0,0,0,1,1,0,0
377296732,0.0,0.0,4.9025875e-24,0.21039662,0.0,0.0,0.0,0.0,0.0,0.0,0,0,0,0,0,0,0,3,0,0,0,1,1,0,0
377496729,0.0,0.0,0.0,0.16266733,0.0,0.0,0.0,0.0,0.0,0.0,0,0,0,0,0,0,0,3,0,0,0,1,1,0,0
377700926,0.0,0.0,0.026129097,0.08665606,0.0,0.0,0.0,0.0,0.0,0.0,0,0,0,0,0,0,0,3,0,0,0,1,1,0,0
377912701,0.0,0.0,0.13580747,0.0002981308,0.0,0.0,0.0,0.0,0.0,0.0,0,0,0,0,0,0,0,3,0,0,0,1,1,0,0
378106315,0.0,0.0,0.18972144,-2.1133486e-07,0.0,0.0,0.0,0.0,0.0,0.0,0,0,0,0,0,0,0,3,0,0,0,1,1,0,0
378314314,0.0,0.0,0.19509691,5.82077e-11,0.0,0.0,0.0,0.0,0.0,0.0,0,0,0,0,0,0,0,3,0,0,0,1,1,0,0
378522537,0.0,0.0,0.30955496,3.86646e-14,0.0,0.0,0.0,0.0,0.0,0.0,0,0,0,0,0,0,0,3,0,0,0,1,1,0,0
378719922,0.0,0.0,0.28575265,-5.837502e-17,0.0,0.0,0.0,0.0,0.0,0.0,0,0,0,0,0,0,0,3,0,0,0,1,1,0,0
378924150,0.0,0.0,0.28477022,3.456926e-20,0.0,0.0,0.0,0.0,0.0,0.0,0,0,0,0,0,0,0,3,0,0,0,1,1,0,0
379107887,0.0,0.0,0.28790978,0.101168394,0.0,0.0,0.0,0.0,0.0,0.0,0,0,0,0,0,0,0,3,0,0,0,1,1,0,0
379325547,0.0,0.0,0.44548342,0.039678715,0.0,0.0,0.0,0.0,0.0,0.0,0,0,0,0,0,0,0,3,0,0,0,1,1,0,0
379514350,0.0,0.0,0.4446872,0.006133282,0.0,0.0,0.0,0.0,0.0,0.0,0,0,0,0,0,0,0,3,0,0,0,1,1,0,0
379737518,0.0,0.0,0.4442253,0.16419579,0.0,0.0,0.0,0.0,0.0,0.0,0,0,0,0,0,0,0,3,0,0,0,1,1,0,0
379933529,0.0,0.0,0.49291894,0.040424846,0.0,0.0,0.0,0.0,0.0,0.0,0,0,0,0,0,0,0,3,0,0,0,1,1,0,0
380134322,0.0,0.0,0.49424583,-2.6244797e-05,0.0,0.0,0.0,0.0,0.0,0.0,0,0,0,0,0,0,0,3,0,0,0,1,1,0,0
380342927,0.0,0.0,0.49452963,1.2658618e-08,0.0,0.0,0.0,0.0,0.0,0.0,0,0,0,0,0,0,0,3,0,0,0,1,1,0,0
380530292,0.0,0.0,0.49434197,0.1291387,0.0,0.0,0.0,0.0,0.0,0.0,0,0,0,0,0,0,0,3,0,0,0,1,1,0,0
380750268,0.0,0.0,0.49330917,0.18503056,0.0,0.0,0.0,0.0,0.0,0.0,0,0,0,0,0,0,0,3,0,0,0,1,1,0,0
380952557,0.0,0.0,0.49304867,0.1951595,0.0,0.0,0.0,0.0,0.0,0.0,0,0,0,0,0,0,0,3,0,0,0,1,1,0,0
381139950,0.0,0.0,0.49302098,0.19388728,0.0,0.0,0.0,0.0,0.0,0.0,0,0,0,0,0,0,0,3,0,0,0,1,1,0,0
381348529,0.027816817,0.017571015,0.49287227,0.19739963,0.0,0.0,0.0,0.0,0.0,0.0,0,0,0,0,0,0,0,3,0,0,0,1,1,0,0
381551890,0.079487026,0.07948728,0.49344862,0.19249685,0.0,0.0,0.0,0.0,0.0,0.0,0,0,0,0,0,0,0,3,0,0,0,1,1,0,0
381757802,0.09153043,0.09206811,0.4941043,0.18459843,0.0,0.0,0.0,0.0,0.0,0.0,0,0,0,0,0,0,0,3,0,0,0,1,1,0,0
381953528,0.08019273,0.082129195,0.4939259,0.1795734,0.0,0.0,0.0,0.0,0.0,0.0,0,0,0,0,0,0,0,3,0,0,0,1,1,0,0
382177499,0.058186352,0.05892935,0.4939254,0.18148482,0.0,0.0,0.0,0.0,0.0,0.0,0,0,0,0,0,0,0,3,0,0,0,1,1,0,0
382379145,0.037000794,0.03850858,0.4957334,0.1863407,0.0,0.0,0.0,0.0,0.0,0.0,0,0,0,0,0,0,0,3,0,0,0,1,1,0,0
382567119,0.02360473,0.023155205,0.5621419,0.05074617,0.0,0.0,0.0,0.0,0.0,0.0,0,0,0,0,0,0,0,3,0,0,0,1,1,0,0
382783078,0.028863452,0.02814084,0.5946095,0.00032308543,0.0,0.0,0.0,0.0,0.0,0.0,0,0,0,0,0,0,0,3,0,0,0,1,1,0,0
382983130,0.03677112,0.03725144,0.4928332,-2.2746033e-07,0.0,0.0,0.0,0.0,0.0,0.0,0,0,0,0,0,0,0,3,0,0,0,1,1,0,0
383184766,-0.01843511,0.0017362144,0.49615234,0.034927562,0.0,0.0,0.0,0.0,0.0,0.0,0,0,0,0,0,0,0,3,0,0,0,1,1,0,0
383388874,-0.06876973,-0.06697316,0.49382094,0.1448152,0.0,0.0,0.0,0.0,0.0,0.0,0,0,0,0,0,0,0,3,0,0,0,1,1,0,0
383569128,-0.0010237176,-0.01975867,0.49305597,0.14822917,0.0,0.0,0.0,0.0,0.0,0.0,0,0,0,0,0,0,0,3,0,0,0,1,1,0,0
383782550,-4.1109158e-10,6.5596606e-10,0.49305633,0.24548636,0.0,0.0,0.0,0.0,0.0,0.0,0,0,0,0,0,0,0,3,0,0,0,1,1,0,0
383982319,-1.9656587e-16,-5.8544164e-16,0.49345252,0.25517273,0.0,0.0,0.0,0.0,0.0,0.0,0,0,0,0,0,0,0,3,0,0,0,1,1,0,0
384190308,0.23768143,0.24738751,0.49414816,0.17068566,0.0,0.0,0.0,0.0,0.0,0.0,0,0,0,0,0,0,0,3,0,0,0,1,1,0,0
384387155,0.11403202,0.116659924,0.49529642,0.16784014,0.0,0.0,0.0,0.0,0.0,0.0,0,0,0,0,0,0,0,3,0,0,0,1,1,0,0
384592148,0.11121794,0.11285004,0.49431217,0.13716953,0.0,0.0,0.0,0.0,0.0,0.0,0,0,0,0,0,0,0,3,0,0,0,1,1,0,0
384792179,0.057906408,0.055218164,0.49306595,0.10723315,0.0,0.0,0.0,0.0,0.0,0.0,0,0,0,0,0,0,0,3,0,0,0,1,1,0,0
384999902,0.12099671,0.12185319,0.49404147,0.12276942,0.0,0.0,0.0,0.0,0.0,0.0,0,0,0,0,0,0,0,3,0,0,0,1,1,0,0
385197509,0.11605196,0.11536682,0.49739012,0.11994098,0.0,0.0,0.0,0.0,0.0,0.0,0,0,0,0,0,0,0,3,0,0,0,1,1,0,0
385413514,0.15999955,0.16020697,0.5107595,0.09560009,0.0,0.0,0.0,0.0,0.0,0.0,0,0,0,0,0,0,0,3,0,0,0,1,1,0,0
386210323,0.14103271,0.14105256,0.5040379,0.08237239,0.0,0.0,0.0,0.0,0.0,0.0,0,0,0,0,0,0,0,3,0,0,0,1,1,0,0
386418900,0.16180284,0.16157708,0.537533,0.015214493,0.0,0.0,0.0,0.0,0.0,0.0,0,0,0,0,0,0,0,3,0,0,0,1,1,0,0
386614281,0.14870973,0.14869027,0.5479688,5.3653207e-07,0.0,0.0,0.0,0.0,0.0,0.0,0,0,0,0,0,0,0,3,0,0,0,1,1,0,0
386812516,0.14872281,0.14873244,0.5010043,-0.00013610857,0.0,0.0,0.0,0.0,0.0,0.0,0,0,0,0,0,0,0,3,0,0,0,1,1,0,0
387035923,0.14758329,0.14736585,0.49540895,-4.481728e-08,0.0,0.0,0.0,0.0,0.0,0.0,0,0,0,0,0,0,0,3,0,0,0,1,1,0,0
387219902,0.1399825,0.1409266,0.49413216,5.2551328e-11,0.0,0.0,0.0,0.0,0.0,0.0,0,0,0,0,0,0,0,3,0,0,0,1,1,0,0
387426300,0.0941323,0.09464035,0.5494112,-4.8308725e-14,0.0,0.0,0.0,0.0,0.0,0.0,0,0,0,0,0,0,0,3,0,0,0,1,1,0,0
387617811,0.09305757,0.09357772,0.5644998,1.990792e-17,0.0,0.0,0.0,0.0,0.0,0.0,0,0,0,0,0,0,0,3,0,0,0,1,1,0,0
387822221,0.0002027359,-0.00096033677,0.56871873,3.0774356e-21,0.0,0.0,0.0,0.0,0.0,0.0,0,0,0,0,0,0,0,3,0,0,0,1,1,0,0
388038334,-4.5257725e-11,-1.8958023e-12,0.540869,-5.006603e-24,0.0,0.0,0.0,0.0,0.0,0.0,0,0,0,0,0,0,0,3,0,0,0,1,1,0,0
388239157,-0.10911998,-0.10655675,0.5398241,6.8284684e-28,0.0,0.0,0.0,0.0,0.0,0.0,0,0,0,0,0,0,0,3,0,0,0,1,1,0,0
388435941,-0.10208643,-0.10122832,0.5397996,1.5233765e-30,0.0,0.0,0.0,0.0,0.0,0.0,0,0,0,0,0,0,0,3,0,0,0,1,1,0,0
388627110,-0.07945221,-0.08073336,0.539759,-1.6182597e-33,0.0,0.0,0.0,0.0,0.0,0.0,0,0,0,0,0,0,0,3,0,0,0,1,1,0,0
388848923,-0.06284247,-0.062747456,0.5409215,-1.500583e-37,0.0,0.0,0.0,0.0,0.0,0.0,0,0,0,0,0,0,0,3,0,0,0,1,1,0,0
389048926,-0.059974328,-0.060365174,0.5400834,2.79071e-40,0.0,0.0,0.0,0.0,0.0,0.0,0,0,0,0,0,0,0,3,0,0,0,1,1,0,0
389232712,-0.048092913,-0.048504397,0.5392137,-3.38e-43,0.0,0.0,0.0,0.0,0.0,0.0,0,0,0,0,0,0,0,3,0,0,0,1,1,0,0
389454298,-0.048717942,-0.048717935,0.5397973,0.0,0.0,0.0,0.0,0.0,0.0,0.0,0,0,0,0,0,0,0,3,0,0,0,1,1,0,0
389646520,-0.06664629,-0.06673352,0.5537604,0.0,0.0,0.0,0.0,0.0,0.0,0.0,0,0,0,0,0,0,0,3,0,0,0,1,1,0,0
389846344,-0.04368932,-0.04486914,0.5790499,0.0,0.0,0.0,0.0,0.0,0.0,0.0,0,0,0,0,0,0,0,3,0,0,0,1,1,0,0
390050905,-0.034757413,-0.034602992,0.57351464,0.0,0.0,0.0,0.0,0.0,0.0,0.0,0,0,0,0,0,0,0,3,0,0,0,1,1,0,0
390247920,-0.028947948,-0.029539423,0.55368674,0.0,0.0,0.0,0.0,0.0,0.0,0.0,0,0,0,0,0,0,0,3,0,0,0,1,1,0,0
390448662,-0.028069114,-0.028233163,0.55562794,0.0,0.0,0.0,0.0,0.0,0.0,0.0,0,0,0,0,0,0,0,3,0,0,0,1,1,0,0
390671911,-0.020514281,-0.020442042,0.55600655,0.0,0.0,0.0,0.0,0.0,0.0,0.0,0,0,0,0,0,0,0,3,0,0,0,1,1,0,0
390873735,0.026927622,0.020471739,0.555619,0.0,0.0,0.0,0.0,0.0,0.0,0.0,0,0,0,0,0,0,0,3,0,0,0,1,1,0,0
391065714,0.0827601,0.08363362,0.55123365,0.0,0.0,0.0,0.0,0.0,0.0,0.0,0,0,0,0,0,0,0,3,0,0,0,1,1,0,0
391257497,0.06251726,0.0634965,0.54219973,0.0,0.0,0.0,0.0,0.0,0.0,0.0,0,0,0,0,0,0,0,3,0,0,0,1,1,0,0
391477507,-8.480727e-08,-7.021554e-08,0.539759,0.0,0.0,0.0,0.0,0.0,0.0,0.0,0,0,0,0,0,0,0,3,0,0,0,1,1,0,0
391679135,0.10454251,0.09154811,0.54092157,0.0,0.0,0.0,0.0,0.0,0.0,0.0,0,0,0,0,0,0,0,3,0,0,0,1,1,0,0
391863156,0.16284177,0.1621005,0.5400419,0.0,0.0,0.0,0.0,0.0,0.0,0.0,0,0,0,0,0,0,0,3,0,0,0,1,1,0,0
392067172,0.0001475851,-0.00030585984,0.53857857,0.0,0.0,0.0,0.0,0.0,0.0,0.0,0,0,0,0,0,0,0,3,0,0,0,1,1,0,0
392284719,-0.16862732,-0.15969576,0.5360261,0.0,0.0,0.0,0.0,0.0,0.0,0.0,0,0,0,0,0,0,0,3,0,0,0,1,1,0,0
392476956,-0.23976159,-0.24417341,0.5360005,0.0,0.0,0.0,0.0,0.0,0.0,0.0,0,0,0,0,0,0,0,3,0,0,0,1,1,0,0
392672952,-0.0006266996,-0.00043900628,0.5395557,0.0,0.0,0.0,0.0,0.0,0.0,0.0,0,0,0,0,0,0,0,3,0,0,0,1,1,0,0
392881775,0.14708032,0.1347397,0.5388186,0.0,0.0,0.0,0.0,0.0,0.0,0.0,0,0,0,0,0,0,0,3,0,0,0,1,1,0,0
393098399,0.16541906,0.17194764,0.53944325,0.0,0.0,0.0,0.0,0.0,0.0,0.0,0,0,0,0,0,0,0,3,0,0,0,1,1,0,0
393278525,-0.051043183,-0.022756644,0.53845376,0.0,0.0,0.0,0.0,0.0,0.0,0.0,0,0,0,0,0,0,0,3,0,0,0,1,1,0,0
393502337,-0.15291747,-0.17417964,0.5666405,0.0,0.0,0.0,0.0,0.0,0.0,0.0,0,0,0,0,0,0,0,3,0,0,0,1,1,0,0
393696542,-2.98605e-06,1.2506199e-06,0.6146883,0.0,0.0,0.0,0.0,0.0,0.0,0.0,0,0,0,0,0,0,0,3,0,0,0,1,1,0,0
393899939,-7.070949e-13,-3.4227265e-12,0.61992556,0.0,0.0,0.0,0.0,0.0,0.0,0.0,0,0,0,0,0,0,0,3,0,0,0,1,1,0,0
394099952,5.9525313e-19,6.75956e-20,0.55776685,0.0,0.0,0.0,0.0,0.0,0.0,0.0,0,0,0,0,0,0,0,3,0,0,0,1,1,0,0
394305557,7.5963533e-26,6.0747634e-25,0.5398012,0.0,0.0,0.0,0.0,0.0,0.0,0.0,0,0,0,0,0,0,0,3,0,0,0,1,1,0,0
394509748,-1.1312231e-31,-6.3876334e-32,0.4955014,0.0,0.0,0.0,0.0,0.0,0.0,0.0,0,0,0,0,0,0,0,3,0,0,0,1,1,0,0
394709820,-3.970476e-39,-1.0339597e-37,0.5491885,-0.0013463864,0.0,0.0,0.0,0.0,0.0,0.0,0,0,0,0,0,0,0,3,0,0,0,1,1,0,0
395130321,0.0,0.0,0.57478845,2.1602045e-10,0.0,0.0,0.0,0.0,0.0,0.0,0,0,0,0,0,0,0,3,0,0,0,1,1,0,0
395322304,0.0,0.0,0.5733296,-1.6548228e-13,0.0,0.0,0.0,0.0,0.0,0.0,0,0,0,0,0,0,0,3,0,0,0,1,1,0,0
395522319,0.0,0.0,0.57952523,5.295466e-17,0.0,0.0,0.0,0.0,0.0,0.0,0,0,0,0,0,0,0,3,0,0,0,1,1,0,0
395718323,-0.08126607,-0.082040034,0.5841174,2.3839683e-20,0.0,0.0,0.0,0.0,0.0,0.0,0,0,0,0,0,0,0,3,0,0,0,1,1,0,0
395915960,-0.054075774,-0.058943734,0.58306885,-4.321601e-23,0.0,0.0,0.0,0.0,0.0,0.0,0,0,0,0,0,0,0,3,0,0,0,1,1,0,0
396131975,-0.04946147,-0.05004421,0.58234215,-9.898976e-29,0.0,0.0,0.0,0.0,0.0,0.0,0,0,0,0,0,0,0,3,0,0,0,1,1,0,0
396335919,0.0002107155,0.00033352495,0.5798117,6.556399e-30,0.0,0.0,0.0,0.0,0.0,0.0,0,0,0,0,0,0,0,3,0,0,0,1,1,0,0
396540720,-3.660371e-11,1.4194086e-10,0.57689637,-5.6788955e-33,0.0,0.0,0.0,0.0,0.0,0.0,0,0,0,0,0,0,0,3,0,0,0,1,1,0,0
396740726,-3.463392e-17,-7.18517e-17,0.5773654,2.179935e-36,0.0,0.0,0.0,0.0,0.0,0.0,0,0,0,0,0,0,0,3,0,0,0,1,1,0,0
396941527,9.509435e-24,-1.930822e-23,0.57674545,5.01658e-40,0.0,0.0,0.0,0.0,0.0,0.0,0,0,0,0,0,0,0,3,0,0,0,1,1,0,0
397157307,-1.3702927e-30,-8.4943535e-31,0.5804689,-5.69e-43,0.0,0.0,0.0,0.0,0.0,0.0,0,0,0,0,0,0,0,3,0,0,0,1,1,0,0
397340696,-2.1634877e-36,2.2221783e-36,0.5827669,0.0,0.0,0.0,0.0,0.0,0.0,0.0,0,0,0,0,0,0,0,3,0,0,0,1,1,0,0
397538535,-7.82e-43,-2.791e-42,0.5842072,0.0,0.0,0.0,0.0,0.0,0.0,0.0,0,0,0,0,0,0,0,3,0,0,0,1,1,0,0
397746563,0.0,0.0,0.58494717,0.0,0.0,0.0,0.0,0.0,0.0,0.0,0,0,0,0,0,0,0,3,0,0,0,1,1,0,0
397962364,0.0,0.0,0.577337,0.0,0.0,0.0,0.0,0.0,0.0,0.0,0,0,0,0,0,0,0,3,0,0,0,1,1,0,0
398160496,0.0,0.0,0.5761727,0.0,0.0,0.0,0.0,0.0,0.0,0.0,0,0,0,0,0,0,0,3,0,0,0,1,1,0,0
398367962,0.0,0.0,0.5739318,0.0,0.0,0.0,0.0,0.0,0.0,0.0,0,0,0,0,0,0,0,3,0,0,0,1,1,0,0
398567998,0.0,0.0,0.5544805,0.0,0.0,0.0,0.0,0.0,0.0,0.0,0,0,0,0,0,0,0,3,0,0,0,1,1,0,0
398760148,0.0,0.0,0.4969564,0.0,0.0,0.0,0.0,0.0,0.0,0.0,0,0,0,0,0,0,0,3,0,0,0,1,1,0,0
398973488,0.0,0.0,0.49683872,0.0,0.0,0.0,0.0,0.0,0.0,0.0,0,0,0,0,0,0,0,3,0,0,0,1,1,0,0
399165573,0.0,0.0,0.4955764,0.0,0.0,0.0,0.0,0.0,0.0,0.0,0,0,0,0,0,0,0,3,0,0,0,1,1,0,0
399365548,0.0,0.0,0.4955494,0.0,0.0,0.0,0.0,0.0,0.0,0.0,0,0,0,0,0,0,0,3,0,0,0,1,1,0,0
399582334,0.0,0.0,0.4954715,0.0,0.0,0.0,0.0,0.0,0.0,0.0,0,0,0,0,0,0,0,3,0,0,0,1,1,0,0
399774313,0.0,0.0,0.49640548,0.0,0.0,0.0,0.0,0.0,0.0,0.0,0,0,0,0,0,0,0,3,0,0,0,1,1,0,0
399966318,0.0,0.0,0.49583614,0.0,0.0,0.0,0.0,0.0,0.0,0.0,0,0,0,0,0,0,0,3,0,0,0,1,1,0,0
400178934,0.0,0.0,0.4997834,0.0,0.0,0.0,0.0,0.0,0.0,0.0,0,0,0,0,0,0,0,3,0,0,0,1,1,0,0
400375951,0.0,0.0,0.5052533,0.0,0.0,0.0,0.0,0.0,0.0,0.0,0,0,0,0,0,0,0,3,0,0,0,1,1,0,0
400591890,0.0,0.0,0.55649716,0.0,0.0,0.0,0.0,0.0,0.0,0.0,0,0,0,0,0,0,0,3,0,0,0,1,1,0,0
400791918,0.0,0.0,0.6066907,0.0,0.0,0.0,0.0,0.0,0.0,0.0,0,0,0,0,0,0,0,3,0,0,0,1,1,0,0
402210323,0.0,0.0,0.6056261,0.0,0.0,0.0,0.0,0.0,0.0,0.0,0,0,0,0,0,0,0,3,0,0,0,1,1,0,0
402407076,0.0,0.0,0.54840964,0.0,0.0,0.0,0.0,0.0,0.0,0.0,0,0,0,0,0,0,0,3,0,0,0,1,1,0,0
402627150,0.0,0.0,0.53741044,0.0,0.0,0.0,0.0,0.0,0.0,0.0,0,0,0,0,0,0,0,3,0,0,0,1,1,0,0
402823954,0.0,0.0,0.49527583,0.0,0.0,0.0,0.0,0.0,0.0,0.0,0,0,0,0,0,0,0,3,0,0,0,1,1,0,0
403020544,0.0,0.0,0.49598458,0.0,0.0,0.0,0.0,0.0,0.0,0.0,0,0,0,0,0,0,0,3,0,0,0,1,1,0,0
403231966,0.0,0.0,0.4969646,0.0,0.0,0.0,0.0,0.0,0.0,0.0,0,0,0,0,0,0,0,3,0,0,0,1,1,0,0
403428955,0.0,0.0,0.49583498,0.0,0.0,0.0,0.0,0.0,0.0,0.0,0,0,0,0,0,0,0,3,0,0,0,1,1,0,0
403620755,0.0,0.0,0.495586,0.0,0.0,0.0,0.0,0.0,0.0,0.0,0,0,0,0,0,0,0,3,0,0,0,1,1,0,0
403824756,0.0,0.0,0.4954715,0.0,0.0,0.0,0.0,0.0,0.0,0.0,0,0,0,0,0,0,0,3,0,0,0,1,1,0,0
404029346,0.0,0.0,0.4960336,0.0,0.0,0.0,0.0,0.0,0.0,0.0,0,0,0,0,0,0,0,3,0,0,0,1,1,0,0
404225515,0.0,0.0,0.5156312,0.0,0.0,0.0,0.0,0.0,0.0,0.0,0,0,0,0,0,0,0,3,0,0,0,1,1,0,0
404437515,0.0,0.0,0.56808037,0.0,0.0,0.0,0.0,0.0,0.0,0.0,0,0,0,0,0,0,0,3,0,0,0,1,1,0,0
404645548,0.0,0.0,0.66233647,0.0,0.0,0.0,0.0,0.0,0.0,0.0,0,0,0,0,0,0,0,3,0,0,0,1,1,0,0
404845549,0.0,0.0,0.65091443,0.0,0.0,0.0,0.0,0.0,0.0,0.0,0,0,0,0,0,0,0,3,0,0,0,1,1,0,0
405038336,0.0,0.0,0.63713574,0.0,0.0,0.0,0.0,0.0,0.0,0.0,0,0,0,0,0,0,0,3,0,0,0,1,1,0,0
405250379,0.0,0.0,0.6372824,0.0,0.0,0.0,0.0,0.0,0.0,0.0,0,0,0,0,0,0,0,3,0,0,0,1,1,0,0
405446505,0.0,0.0,0.630296,0.0,0.0,0.0,0.0,0.0,0.0,0.0,0,0,0,0,0,0,0,3,0,0,0,1,1,0,0
405651090,0.0,0.0,0.62397385,0.0,0.0,0.0,0.0,0.0,0.0,0.0,0,0,0,0,0,0,0,3,0,0,0,1,1,0,0
405862552,0.0,0.0,0.6219955,0.0,0.0,0.0,0.0,0.0,0.0,0.0,0,0,0,0,0,0,0,3,0,0,0,1,1,0,0
406067124,0.0,0.0,0.61074716,0.0,0.0,0.0,0.0,0.0,0.0,0.0,0,0,0,0,0,0,0,3,0,0,0,1,1,0,0
406271114,0.0,0.0,0.5972759,0.0,0.0,0.0,0.0,0.0,0.0,0.0,0,0,0,0,0,0,0,3,0,0,0,1,1,0,0
406467158,0.0,0.0,0.5671933,0.0,0.0,0.0,0.0,0.0,0.0,0.0,0,0,0,0,0,0,0,3,0,0,0,1,1,0,0
406655124,0.0,0.0,0.52260983,0.0,0.0,0.0,0.0,0.0,0.0,0.0,0,0,0,0,0,0,0,3,0,0,0,1,1,0,0
406863116,0.0,0.0,0.49686635,0.0,0.0,0.0,0.0,0.0,0.0,0.0,0,0,0,0,0,0,0,3,0,0,0,1,1,0,0
407068922,0.0,0.0,0.49558356,0.0,0.0,0.0,0.0,0.0,0.0,0.0,0,0,0,0,0,0,0,3,0,0,0,1,1,0,0
407273328,0.0,0.0,0.49496478,0.0,0.0,0.0,0.0,0.0,0.0,0.0,0,0,0,0,0,0,0,3,0,0,0,1,1,0,0
407468720,0.0,0.0,0.49554294,0.0,0.0,0.0,0.0,0.0,0.0,0.0,0,0,0,0,0,0,0,3,0,0,0,1,1,0,0
407666360,0.0,0.0,0.49594316,0.0,0.0,0.0,0.0,0.0,0.0,0.0,0,0,0,0,0,0,0,3,0,0,0,1,1,0,0
407882332,0.0,0.0,0.49579635,0.0,0.0,0.0,0.0,0.0,0.0,0.0,0,0,0,0,0,0,0,3,0,0,0,1,1,0,0
408074290,0.0,0.0,0.49645472,0.0,0.0,0.0,0.0,0.0,0.0,0.0,0,0,0,0,0,0,0,3,0,0,0,1,1,0,0
408275930,0.0,0.0,0.4955836,0.0,0.0,0.0,0.0,0.0,0.0,0.0,0,0,0,0,0,0,0,3,0,0,0,1,1,0,0
408499953,0.0,0.0,0.6285108,0.0,0.0,0.0,0.0,0.0,0.0,0.0,0,0,0,0,0,0,0,3,0,0,0,1,1,0,0
408687939,0.0,0.0,0.6206343,0.0,0.0,0.0,0.0,0.0,0.0,0.0,0,0,0,0,0,0,0,3,0,0,0,1,1,0,0
408884174,0.0,0.0,0.62118304,0.0,0.0,0.0,0.0,0.0,0.0,0.0,0,0,0,0,0,0,0,3,0,0,0,1,1,0,0
409101516,0.0,0.0,0.6214627,0.0,0.0,0.0,0.0,0.0,0.0,0.0,0,0,0,0,0,0,0,3,0,0,0,1,1,0,0
409309547,0.0,0.0,0.6220513,0.0,0.0,0.0,0.0,0.0,0.0,0.0,0,0,0,0,0,0,0,3,0,0,0,1,1,0,0
409497773,0.0,0.0,0.6183246,0.0,0.0,0.0,0.0,0.0,0.0,0.0,0,0,0,0,0,0,0,3,0,0,0,1,1,0,0
409715127,0.0,0.0,0.61689454,0.0,0.0,0.0,0.0,0.0,0.0,0.0,0,0,0,0,0,0,0,3,0,0,0,1,1,0,0
409911143,0.0,0.0,0.6133591,0.0,0.0,0.0,0.0,0.0,0.0,0.0,0,0,0,0,0,0,0,3,0,0,0,1,1,0,0
410111136,0.0,0.0,0.60034114,0.0,0.0,0.0,0.0,0.0,0.0,0.0,0,0,0,0,0,0,0,3,0,0,0,1,1,0,0
410304796,0.0,0.0,0.60156363,0.0,0.0,0.0,0.0,0.0,0.0,0.0,0,0,0,0,0,0,0,3,0,0,0,1,1,0,0
410504731,0.0,0.0,0.5678909,0.0,0.0,0.0,0.0,0.0,0.0,0.0,0,0,0,0,0,0,0,3,0,0,0,1,1,0,0
410700733,0.0,0.0,0.53082514,0.0,0.0,0.0,0.0,0.0,0.0,0.0,0,0,0,0,0,0,0,3,0,0,0,1,1,0,0
410916738,0.0,0.0,0.4941095,0.0,0.0,0.0,0.0,0.0,0.0,0.0,0,0,0,0,0,0,0,3,0,0,0,1,1,0,0
411106316,0.0,0.0,0.49620762,0.0,0.0,0.0,0.0,0.0,0.0,0.0,0,0,0,0,0,0,0,3,0,0,0,1,1,0,0
411326519,0.0,0.0,0.4951998,0.0,0.0,0.0,0.0,0.0,0.0,0.0,0,0,0,0,0,0,0,3,0,0,0,1,1,0,0
411506292,0.0,0.0,0.49510658,0.0,0.0,0.0,0.0,0.0,0.0,0.0,0,0,0,0,0,0,0,3,0,0,0,1,1,0,0
411723147,0.0,0.0,0.49465308,0.0,0.0,0.0,0.0,0.0,0.0,0.0,0,0,0,0,0,0,0,3,0,0,0,1,1,0,0
411931124,0.0,0.0,0.49656263,0.0,0.0,0.0,0.0,0.0,0.0,0.0,0,0,0,0,0,0,0,3,0,0,0,1,1,0,0
412115142,0.0,0.0,0.49961236,0.0,0.0,0.0,0.0,0.0,0.0,0.0,0,0,0,0,0,0,0,3,0,0,0,1,1,0,0
412315722,0.0,0.0,0.53582144,0.0,0.0,0.0,0.0,0.0,0.0,0.0,0,0,0,0,0,0,0,3,0,0,0,1,1,0,0
412540732,0.0,0.0,0.6103055,0.0,0.0,0.0,0.0,0.0,0.0,0.0,0,0,0,0,0,0,0,3,0,0,0,1,1,0,0
412720801,0.0,0.0,0.6224549,0.0,0.0,0.0,0.0,0.0,0.0,0.0,0,0,0,0,0,0,0,3,0,0,0,1,1,0,0
412932730,0.0,0.0,0.6228774,0.0,0.0,0.0,0.0,0.0,0.0,0.0,0,0,0,0,0,0,0,3,0,0,0,1,1,0,0
413140696,0.0,0.0,0.6180909,0.0,0.0,0.0,0.0,0.0,0.0,0.0,0,0,0,0,0,0,0,3,0,0,0,1,1,0,0
413338545,0.0,0.0,0.6092661,0.0,0.0,0.0,0.0,0.0,0.0,0.0,0,0,0,0,0,0,0,3,0,0,0,1,1,0,0
413546315,0.0,0.0,0.60396475,0.0,0.0,0.0,0.0,0.0,0.0,0.0,0,0,0,0,0,0,0,3,0,0,0,1,1,0,0
413742356,0.0,0.0,0.60560775,0.0,0.0,0.0,0.0,0.0,0.0,0.0,0,0,0,0,0,0,0,3,0,0,0,1,1,0,0
413939963,0.0,0.0,0.60130656,0.0,0.0,0.0,0.0,0.0,0.0,0.0,0,0,0,0,0,0,0,3,0,0,0,1,1,0,0
414143914,0.024484284,0.016606158,0.59666675,0.0,0.0,0.0,0.0,0.0,0.0,0.0,0,0,0,0,0,0,0,3,0,0,0,1,1,0,0
414359964,0.08407404,0.08456627,0.5909257,0.0,0.0,0.0,0.0,0.0,0.0,0.0,0,0,0,0,0,0,0,3,0,0,0,1,1,0,0
414561516,0.07486243,0.07555368,0.5832119,0.0,0.0,0.0,0.0,0.0,0.0,0.0,0,0,0,0,0,0,0,3,0,0,0,1,1,0,0
414757817,0.05758473,0.057600584,0.58369374,0.0,0.0,0.0,0.0,0.0,0.0,0.0,0,0,0,0,0,0,0,3,0,0,0,1,1,0,0
414953527,0.040749654,0.04494074,0.58380127,0.0,0.0,0.0,0.0,0.0,0.0,0.0,0,0,0,0,0,0,0,3,0,0,0,1,1,0,0
415157508,-3.2801493e-06,1.3281203e-05,0.5829813,0.0,0.0,0.0,0.0,0.0,0.0,0.0,0,0,0,0,0,0,0,3,0,0,0,1,1,0,0
415355104,-3.218793e-12,-6.5713966e-12,0.5834114,0.0,0.0,0.0,0.0,0.0,0.0,0.0,0,0,0,0,0,0,0,3,0,0,0,1,1,0,0
415559881,8.6197767e-19,-1.8195653e-18,0.5845,0.0,0.0,0.0,0.0,0.0,0.0,0.0,0,0,0,0,0,0,0,3,0,0,0,1,1,0,0
415775926,-1.2623819e-25,-7.494642e-26,0.57896054,0.0,0.0,0.0,0.0,0.0,0.0,0.0,0,0,0,0,0,0,0,3,0,0,0,1,1,0,0
415976948,-3.6793943e-33,-1.14519e-31,0.50100076,0.0,0.0,0.0,0.0,0.0,0.0,0.0,0,0,0,0,0,0,0,3,0,0,0,1,1,0,0
416169329,2.2931131e-38,2.3186484e-38,0.49302933,0.0,0.0,0.0,0.0,0.0,0.0,0.0,0,0,0,0,0,0,0,3,0,0,0,1,1,0,0
416372713,-1e-45,2e-44,0.49415547,0.0,0.0,0.0,0.0,0.0,0.0,0.0,0,0,0,0,0,0,0,3,0,0,0,1,1,0,0
416569552,0.0,0.0,0.49515057,0.0,0.0,0.0,0.0,0.0,0.0,0.0,0,0,0,0,0,0,0,3,0,0,0,1,1,0,0
416785530,0.0,0.0,0.49430966,0.0,0.0,0.0,0.0,0.0,0.0,0.0,0,0,0,0,0,0,0,3,0,0,0,1,1,0,0
416985738,0.0,0.0,0.49431816,0.0,0.0,0.0,0.0,0.0,0.0,0.0,0,0,0,0,0,0,0,3,0,0,0,1,1,0,0
417169525,0.0,0.0,0.4955016,0.0,0.0,0.0,0.0,0.0,0.0,0.0,0,0,0,0,0,0,0,3,0,0,0,1,1,0,0
417394131,0.0,0.0,0.49789175,0.0,0.0,0.0,0.0,0.0,0.0,0.0,0,0,0,0,0,0,0,3,0,0,0,1,1,0,0
417591164,0.0,0.0,0.51546466,0.0,0.0,0.0,0.0,0.0,0.0,0.0,0,0,0,0,0,0,0,3,0,0,0,1,1,0,0
417795162,0.0,0.0,0.5663715,0.0,0.0,0.0,0.0,0.0,0.0,0.0,0,0,0,0,0,0,0,3,0,0,0,1,1,0,0
417999150,0.0,0.0,0.56372035,0.0,0.0,0.0,0.0,0.0,0.0,0.0,0,0,0,0,0,0,0,3,0,0,0,1,1,0,0
418192918,0.0,0.0,0.6443614,0.0,0.0,0.0,0.0,0.0,0.0,0.0,0,0,0,0,0,0,0,3,0,0,0,1,1,0,0
418401468,0.0,0.0,0.6521833,0.0,0.0,0.0,0.0,0.0,0.0,0.0,0,0,0,0,0,0,0,3,0,0,0,1,1,0,0
418596953,0.0,0.0,0.64534944,0.0,0.0,0.0,0.0,0.0,0.0,0.0,0,0,0,0,0,0,0,3,0,0,0,1,1,0,0
418806325,0.0,0.0,0.63765264,0.0,0.0,0.0,0.0,0.0,0.0,0.0,0,0,0,0,0,0,0,3,0,0,0,1,1,0,0
419010290,0.0,0.0,0.6314629,0.0,0.0,0.0,0.0,0.0,0.0,0.0,0,0,0,0,0,0,0,3,0,0,0,1,1,0,0
419218345,0.0,0.0,0.6294337,0.0,0.0,0.0,0.0,0.0,0.0,0.0,0,0,0,0,0,0,0,3,0,0,0,1,1,0,0
419414292,0.0,0.0,0.6230538,0.0,0.0,0.0,0.0,0.0,0.0,0.0,0,0,0,0,0,0,0,3,0,0,0,1,1,0,0
419611151,0.0,0.0,0.5742567,0.0,0.0,0.0,0.0,0.0,0.0,0.0,0,0,0,0,0,0,0,3,0,0,0,1,1,0,0
419811128,0.0,0.0,0.49691477,0.0,0.0,0.0,0.0,0.0,0.0,0.0,0,0,0,0,0,0,0,3,0,0,0,1,1,0,0
420027154,0.0,0.0,0.4955512,0.0,0.0,0.0,0.0,0.0,0.0,0.0,0,0,0,0,0,0,0,3,0,0,0,1,1,0,0
420231110,0.0,0.0,0.4957229,0.0,0.0,0.0,0.0,0.0,0.0,0.0,0,0,0,0,0,0,0,3,0,0,0,1,1,0,0
420432769,0.0,0.0,0.49689436,0.0,0.0,0.0,0.0,0.0,0.0,0.0,0,0,0,0,0,0,0,3,0,0,0,1,1,0,0
420628772,0.0,0.0,0.49583507,0.0,0.0,0.0,0.0,0.0,0.0,0.0,0,0,0,0,0,0,0,3,0,0,0,1,1,0,0
420840961,0.0,0.0,0.5239886,0.0,0.0,0.0,0.0,0.0,0.0,0.0,0,0,0,0,0,0,0,3,0,0,0,1,1,0,0
421030915,0.0,0.0,0.58326286,0.0,0.0,0.0,0.0,0.0,0.0,0.0,0,0,0,0,0,0,0,3,0,0,0,1,1,0,0
421234331,0.0,0.0,0.69428456,0.0,0.0,0.0,0.0,0.0,0.0,0.0,0,0,0,0,0,0,0,3,0,0,0,1,1,0,0
421438342,0.0,0.0,0.6928224,0.0,0.0,0.0,0.0,0.0,0.0,0.0,0,0,0,0,0,0,0,3,0,0,0,1,1,0,0
421634295,0.0,0.0,0.68684626,0.0,0.0,0.0,0.0,0.0,0.0,0.0,0,0,0,0,0,0,0,3,0,0,0,1,1,0,0
421851958,0.0,0.0,0.66445816,0.0,0.0,0.0,0.0,0.0,0.0,0.0,0,0,0,0,0,0,0,3,0,0,0,1,1,0,0
422055963,0.0,0.0,0.6061772,0.0,0.0,0.0,0.0,0.0,0.0,0.0,0,0,0,0,0,0,0,3,0,0,0,1,1,0,0
422243946,0.0,0.0,0.5023978,0.0,0.0,0.0,0.0,0.0,0.0,0.0,0,0,0,0,0,0,0,3,0,0,0,1,1,0,0
422440729,0.0,0.0,0.49559125,0.0,0.0,0.0,0.0,0.0,0.0,0.0,0,0,0,0,0,0,0,3,0,0,0,1,1,0,0
422656695,0.0,0.0,0.49457103,0.0,0.0,0.0,0.0,0.0,0.0,0.0,0,0,0,0,0,0,0,3,0,0,0,1,1,0,0
422856726,0.0,0.0,0.49432006,0.0,0.0,0.0,0.0,0.0,0.0,0.0,0,0,0,0,0,0,0,3,0,0,0,1,1,0,0
423048732,0.0,0.0,0.495574,0.0,0.0,0.0,0.0,0.0,0.0,0.0,0,0,0,0,0,0,0,3,0,0,0,1,1,0,0
423266313,0.0,0.0,0.510932,0.0,0.0,0.0,0.0,0.0,0.0,0.0,0,0,0,0,0,0,0,3,0,0,0,1,1,0,0
423458351,0.0,0.0,0.5310678,0.0,0.0,0.0,0.0,0.0,0.0,0.0,0,0,0,0,0,0,0,3,0,0,0,1,1,0,0
423662498,0.0,0.0,0.580451,0.0,0.0,0.0,0.0,0.0,0.0,0.0,0,0,0,0,0,0,0,3,0,0,0,1,1,0,0
423862343,0.0,0.0,0.61999387,0.0,0.0,0.0,0.0,0.0,0.0,0.0,0,0,0,0,0,0,0,3,0,0,0,1,1,0,0
424079385,0.0,0.0,0.6194453,0.0,0.0,0.0,0.0,0.0,0.0,0.0,0,0,0,0,0,0,0,3,0,0,0,1,1,0,0
424263107,0.0,0.0,0.61987793,0.0,0.0,0.0,0.0,0.0,0.0,0.0,0,0,0,0,0,0,0,3,0,0,0,1,1,0,0
424471116,0.0,0.0,0.61061823,0.0,0.0,0.0,0.0,0.0,0.0,0.0,0,0,0,0,0,0,0,3,0,0,0,1,1,0,0
424671135,0.0,0.0,0.6096176,0.0,0.0,0.0,0.0,0.0,0.0,0.0,0,0,0,0,0,0,0,3,0,0,0,1,1,0,0
424868924,0.0,0.0,0.60936797,0.0,0.0,0.0,0.0,0.0,0.0,0.0,0,0,0,0,0,0,0,3,0,0,0,1,1,0,0
425092718,0.0,0.0,0.60804737,0.0,0.0,0.0,0.0,0.0,0.0,0.0,0,0,0,0,0,0,0,3,0,0,0,1,1,0,0
425296736,0.0,0.0,0.58778197,0.0,0.0,0.0,0.0,0.0,0.0,0.0,0,0,0,0,0,0,0,3,0,0,0,1,1,0,0
425498369,0.0,0.0,0.49439013,0.0,0.0,0.0,0.0,0.0,0.0,0.0,0,0,0,0,0,0,0,3,0,0,0,1,1,0,0
425686321,0.0,0.0,0.49652615,0.0,0.0,0.0,0.0,0.0,0.0,0.0,0,0,0,0,0,0,0,3,0,0,0,1,1,0,0
425891002,0.0,0.0,0.49693602,-0.21467021,0.0,0.0,0.0,0.0,0.0,0.0,0,0,0,0,0,0,0,3,0,0,0,1,1,0,0
426086289,0.0,0.0,0.5021144,-0.29396638,0.0,0.0,0.0,0.0,0.0,0.0,0,0,0,0,0,0,0,3,0,0,0,1,1,0,0
426307933,0.0,0.0,0.49770764,-0.16446972,0.0,0.0,0.0,0.0,0.0,0.0,0,0,0,0,0,0,0,3,0,0,0,1,1,0,0
426512236,0.0,0.0,0.4979257,0.526189,0.0,0.0,0.0,0.0,0.0,0.0,0,0,0,0,0,0,0,3,0,0,0,1,1,0,0
426711917,0.0,0.0,0.5075105,0.69158226,0.0,0.0,0.0,0.0,0.0,0.0,0,0,0,0,0,0,0,3,0,0,0,1,1,0,0
426904950,0.0,0.0,0.5940098,0.51368874,0.0,0.0,0.0,0.0,0.0,0.0,0,0,0,0,0,0,0,3,0,0,0,1,1,0,0
427109026,0.0,0.0,0.68716395,0.20868391,0.0,0.0,0.0,0.0,0.0,0.0,0,0,0,0,0,0,0,3,0,0,0,1,1,0,0
427304917,0.0,0.0,0.7507748,0.06754477,0.0,0.0,0.0,0.0,0.0,0.0,0,0,0,0,0,0,0,3,0,0,0,1,1,0,0
427516704,0.0,0.0,0.5969215,0.009078994,0.0,0.0,0.0,0.0,0.0,0.0,0,0,0,0,0,0,0,3,0,0,0,1,1,0,0
427718343,0.19140048,0.17909314,0.5067596,4.8741613e-06,0.0,0.0,0.0,0.0,0.0,0.0,0,0,0,0,0,0,0,3,0,0,0,1,1,0,0
427922585,0.1448467,0.13783085,0.49693176,-8.095913e-09,0.0,0.0,0.0,0.0,0.0,0.0,0,0,0,0,0,0,0,3,0,0,0,1,1,0,0
428110352,0.21466057,0.2129127,0.49531513,5.0009667e-12,0.0,0.0,0.0,0.0,0.0,0.0,0,0,0,0,0,0,0,3,0,0,0,1,1,0,0
428334881,0.2671387,0.2680279,0.4955854,1.249968e-15,0.0,0.0,0.0,0.0,0.0,0.0,0,0,0,0,0,0,0,3,0,0,0,1,1,0,0
428519122,0.24712288,0.24877426,0.5208302,-1.2994364e-18,0.0,0.0,0.0,0.0,0.0,0.0,0,0,0,0,0,0,0,3,0,0,0,1,1,0,0
428735143,0.22486289,0.22556283,0.6563749,1.5303379e-21,0.0,0.0,0.0,0.0,0.0,0.0,0,0,0,0,0,0,0,3,0,0,0,1,1,0,0
429938369,7.5553765e-30,3.821043e-30,0.6241171,1.6929e-41,0.0,0.0,0.0,0.0,0.0,0.0,0,0,0,0,0,0,0,3,0,0,0,1,1,0,0
430158347,-5.2843005e-37,-1.2411066e-36,0.49106807,-2.8e-44,0.0,0.0,0.0,0.0,0.0,0.0,0,0,0,0,0,0,0,3,0,0,0,1,1,0,0
430354910,1.75e-43,-2.59e-43,0.49430946,0.0,0.0,0.0,0.0,0.0,0.0,0.0,0,0,0,0,0,0,0,3,0,0,0,1,1,0,0
430559974,0.0,0.0,0.49432054,0.0,0.0,0.0,0.0,0.0,0.0,0.0,0,0,0,0,0,0,0,3,0,0,0,1,1,0,0
430763979,0.0,0.0,0.4939191,0.0,0.0,0.0,0.0,0.0,0.0,0.0,0,0,0,0,0,0,0,3,0,0,0,1,1,0,0
430967914,0.0,0.0,0.49417925,0.0,0.0,0.0,0.0,0.0,0.0,0.0,0,0,0,0,0,0,0,3,0,0,0,1,1,0,0
431151962,0.0,0.0,0.49562973,0.0,0.0,0.0,0.0,0.0,0.0,0.0,0,0,0,0,0,0,0,3,0,0,0,1,1,0,0
431353734,0.0,0.0,0.4945438,0.0,0.0,0.0,0.0,0.0,0.0,0.0,0,0,0,0,0,0,0,3,0,0,0,1,1,0,0
431561761,0.0,0.0,0.49686706,0.0,0.0,0.0,0.0,0.0,0.0,0.0,0,0,0,0,0,0,0,3,0,0,0,1,1,0,0
431773469,0.0,0.0,0.52328384,0.0,0.0,0.0,0.0,0.0,0.0,0.0,0,0,0,0,0,0,0,3,0,0,0,1,1,0,0
431975129,0.0,0.0,0.5710293,0.0,0.0,0.0,0.0,0.0,0.0,0.0,0,0,0,0,0,0,0,3,0,0,0,1,1,0,0
432163114,0.0,0.0,0.6315531,0.0,0.0,0.0,0.0,0.0,0.0,0.0,0,0,0,0,0,0,0,3,0,0,0,1,1,0,0
432379118,0.0,0.0,0.61293656,0.0,0.0,0.0,0.0,0.0,0.0,0.0,0,0,0,0,0,0,0,3,0,0,0,1,1,0,0
432572744,0.0,0.0,0.61184025,0.0,0.0,0.0,0.0,0.0,0.0,0.0,0,0,0,0,0,0,0,3,0,0,0,1,1,0,0
432780756,0.0,0.0,0.5917807,0.0,0.0,0.0,0.0,0.0,0.0,0.0,0,0,0,0,0,0,0,3,0,0,0,1,1,0,0
432980974,0.0,0.0,0.58974856,0.0,0.0,0.0,0.0,0.0,0.0,0.0,0,0,0,0,0,0,0,3,0,0,0,1,1,0,0
433168989,0.0,0.0,0.5602521,0.0,0.0,0.0,0.0,0.0,0.0,0.0,0,0,0,0,0,0,0,3,0,0,0,1,1,0,0
433382534,0.0,0.0,0.5954492,0.0,0.0,0.0,0.0,0.0,0.0,0.0,0,0,0,0,0,0,0,3,0,0,0,1,1,0,0
433582320,0.0,0.0,0.60436994,0.0,0.0,0.0,0.0,0.0,0.0,0.0,0,0,0,0,0,0,0,3,0,0,0,1,1,0,0
433786297,0.0,0.0,0.6032941,0.0,0.0,0.0,0.0,0.0,0.0,0.0,0,0,0,0,0,0,0,3,0,0,0,1,1,0,0
433987936,0.0,0.0,0.59975904,0.0,0.0,0.0,0.0,0.0,0.0,0.0,0,0,0,0,0,0,0,3,0,0,0,1,1,0,0
434187929,0.0,0.0,0.60027015,0.0,0.0,0.0,0.0,0.0,0.0,0.0,0,0,0,0,0,0,0,3,0,0,0,1,1,0,0
434411945,0.0,0.0,0.6004097,0.0,0.0,0.0,0.0,0.0,0.0,0.0,0,0,0,0,0,0,0,3,0,0,0,1,1,0,0
434609558,0.0,0.0,0.59965837,0.0,0.0,0.0,0.0,0.0,0.0,0.0,0,0,0,0,0,0,0,3,0,0,0,1,1,0,0
434805530,0.0,0.0,0.60060114,0.0,0.0,0.0,0.0,0.0,0.0,0.0,0,0,0,0,0,0,0,3,0,0,0,1,1,0,0
435009492,0.0,0.0,0.5417544,0.0,0.0,0.0,0.0,0.0,0.0,0.0,0,0,0,0,0,0,0,3,0,0,0,1,1,0,0
435203119,0.0,0.0,0.49563903,0.0,0.0,0.0,0.0,0.0,0.0,0.0,0,0,0,0,0,0,0,3,0,0,0,1,1,0,0
435411143,0.0,0.0,0.49581057,0.0,0.0,0.0,0.0,0.0,0.0,0.0,0,0,0,0,0,0,0,3,0,0,0,1,1,0,0
435615109,0.0,0.0,0.49660233,0.0,0.0,0.0,0.0,0.0,0.0,0.0,0,0,0,0,0,0,0,3,0,0,0,1,1,0,0
435807130,0.0,0.0,0.4952555,0.0,0.0,0.0,0.0,0.0,0.0,0.0,0,0,0,0,0,0,0,3,0,0,0,1,1,0,0
436024771,0.0,0.0,0.509156,0.009119451,0.0,0.0,0.0,0.0,0.0,0.0,0,0,0,0,0,0,0,3,0,0,0,1,1,0,0
436208919,0.0,0.0,0.6103063,8.3597515e-06,0.0,0.0,0.0,0.0,0.0,0.0,0,0,0,0,0,0,0,3,0,0,0,1,1,0,0
436412713,0.0,0.0,0.6930773,1.1581894e-08,0.0,0.0,0.0,0.0,0.0,0.0,0,0,0,0,0,0,0,3,0,0,0,1,1,0,0
436626314,0.0,0.0,0.6284973,-3.3959847e-12,0.0,0.0,0.0,0.0,0.0,0.0,0,0,0,0,0,0,0,3,0,0,0,1,1,0,0
436814333,0.0,0.0,0.5520226,7.0029834e-15,0.0,0.0,0.0,0.0,0.0,0.0,0,0,0,0,0,0,0,3,0,0,0,1,1,0,0
437026322,0.11517981,0.09034565,0.49789828,2.2858028e-18,0.0,0.0,0.0,0.0,0.0,0.0,0,0,0,0,0,0,0,3,0,0,0,1,1,0,0
437223920,0.31497487,0.31087643,0.49551174,-1.5829407e-21,0.0,0.0,0.0,0.0,0.0,0.0,0,0,0,0,0,0,0,3,0,0,0,1,1,0,0
437439902,0.19972207,0.22239234,0.49913347,-3.314226e-25,0.0,0.0,0.0,0.0,0.0,0.0,0,0,0,0,0,0,0,3,0,0,0,1,1,0,0
437624143,-0.22496907,-0.19024786,0.57980967,-0.0030423482,0.0,0.0,0.0,0.0,0.0,0.0,0,0,0,0,0,0,0,3,0,0,0,1,1,0,0
437832968,-0.49986798,-0.5011171,0.6235902,1.923115e-06,0.0,0.0,0.0,0.0,0.0,0.0,0,0,0,0,0,0,0,3,0,0,0,1,1,0,0
438036765,-0.26726264,-0.38999537,0.59332263,-3.902515e-10,0.0,0.0,0.0,0.0,0.0,0.0,0,0,0,0,0,0,0,3,0,0,0,1,1,0,0
438244788,0.46113053,0.44886476,0.50354934,-4.7350177e-13,0.0,0.0,0.0,0.0,0.0,0.0,0,0,0,0,0,0,0,3,0,0,0,1,1,0,0
438452947,0.48993623,0.49999985,0.4977152,5.783402e-16,0.0,0.0,0.0,0.0,0.0,0.0,0,0,0,0,0,0,0,3,0,0,0,1,1,0,0
438644669,-0.20955047,-0.15055035,0.49622965,-7.6389297e-19,0.0,0.0,0.0,0.0,0.0,0.0,0,0,0,0,0,0,0,3,0,0,0,1,1,0,0
438846321,-0.49981627,-0.4975486,0.5850669,-0.0026551685,0.0,0.0,0.0,0.0,0.0,0.0,0,0,0,0,0,0,0,3,0,0,0,1,1,0,0
439054927,4.1891948e-05,0.00016700341,0.9326261,0.00010009783,0.0,0.0,0.0,0.0,0.0,0.0,0,0,0,0,0,0,0,3,0,0,0,1,1,0,0
439258325,-2.7928552e-11,4.4427795e-12,0.94050115,-8.27057e-05,0.0,0.0,0.0,0.0,0.0,0.0,0,0,0,0,0,0,0,3,0,0,0,1,1,0,0
439463928,-5.1257074e-18,-3.0299924e-17,0.5181762,-5.6803472e-08,0.0,0.0,0.0,0.0,0.0,0.0,0,0,0,0,0,0,0,3,0,0,0,1,1,0,0
439664675,5.4406305e-24,1.7859829e-24,0.49560025,8.4571634e-11,0.0,0.0,0.0,0.0,0.0,0.0,0,0,0,0,0,0,0,3,0,0,0,1,1,0,0
439867900,4.547346e-31,5.2765267e-30,0.49547258,-4.974934e-14,0.0,0.0,0.0,0.0,0.0,0.0,0,0,0,0,0,0,0,3,0,0,0,1,1,0,0
440061583,-1.0135262e-36,-7.696217e-37,0.6696659,7.611366e-18,0.0,0.0,0.0,0.0,0.0,0.0,0,0,0,0,0,0,0,3,0,0,0,1,1,0,0
440269562,4e-45,-8.8e-43,0.26111504,-0.15779169,0.0,0.0,0.0,0.0,0.0,0.0,0,0,0,0,0,0,0,3,0,0,0,1,1,0,0
440461502,0.0,0.0,0.28593498,-0.01780509,0.0,0.0,0.0,0.0,0.0,0.0,0,0,0,0,0,0,0,3,0,0,0,1,1,0,0
440687209,0.0,0.0,0.4957116,-1.1405451e-07,0.0,0.0,0.0,0.0,0.0,0.0,0,0,0,0,0,0,0,3,0,0,0,1,1,0,0
440883134,0.0,0.0,0.89992064,-0.00057418435,0.0,0.0,0.0,0.0,0.0,0.0,0,0,0,0,0,0,0,3,0,0,0,1,1,0,0
441087161,0.0,0.0,0.8944686,4.5589553e-07,0.0,0.0,0.0,0.0,0.0,0.0,0,0,0,0,0,0,0,3,0,0,0,1,1,0,0
441275120,0.0,0.0,0.74601924,-6.797799e-10,0.0,0.0,0.0,0.0,0.0,0.0,0,0,0,0,0,0,0,3,0,0,0,1,1,0,0
441480766,0.0,0.0,0.30134094,3.3156453e-13,0.0,0.0,0.0,0.0,0.0,0.0,0,0,0,0,0,0,0,3,0,0,0,1,1,0,0
