timestamp,rollspeed,pitchspeed,yawspeed,rollspeed_integ,pitchspeed_integ,yawspeed_integ,additional_integ1
310021092,0.00010257131,-0.0018881483,0.0020495264,0.0,0.0,0.0,0.0
310082676,-0.0009221173,0.00046277372,0.0020080965,0.0,0.0,0.0,0.0
310114676,0.0011421929,-0.0015424291,0.0019207962,0.0,0.0,0.0,0.0
310146627,-0.0014750112,-0.0011635774,0.002203798,0.0,0.0,0.0,0.0
310174723,0.00020701719,-0.0019453586,0.0010626956,0.0,0.0,0.0,0.0
310206634,-0.0021608337,0.0012351774,0.002840041,0.0,0.0,0.0,0.0
310238632,-0.00019160158,0.0003916087,0.0008238163,0.0,0.0,0.0,0.0
310270682,0.00031704817,0.00046519248,0.0011346925,0.0,0.0,0.0,0.0
310303454,-0.00092253473,0.000642956,0.0021084882,0.0,0.0,0.0,0.0
310335534,-0.00017357641,0.00071042683,0.0024182731,0.0,0.0,0.0,0.0
310367472,-0.00075115985,0.0010732786,0.0030205853,0.0,0.0,0.0,0.0
310395461,0.0013275885,0.00066827936,0.0031424086,0.0,0.0,0.0,0.0
310427422,0.00065099134,0.0012005322,0.012401537,0.0,0.0,0.0,0.0
310459466,0.0010806143,0.0024355454,-0.00017071236,0.0,0.0,0.0,0.0
310491477,0.00014592113,0.002257541,-0.008769305,0.0,0.0,0.0,0.0
310523472,-0.0019211489,0.0010130637,-0.0045998087,0.0,0.0,0.0,0.0
310555443,-0.0030988466,0.002019836,0.004409832,0.0,0.0,0.0,0.0
310587609,0.004187219,0.00151095,0.0106940465,0.0,0.0,0.0,0.0
310619492,0.0014891325,-0.002768821,0.002440195,0.0,0.0,0.0,0.0
310651492,-0.0016204694,0.0030154185,-0.004646454,0.0,0.0,0.0,0.0
310683439,3.615336e-06,-0.001702544,-0.0060980897,0.0,0.0,0.0,0.0
310717072,-0.0039974907,0.00045764796,0.0057948437,0.0,0.0,0.0,0.0
310745038,-0.0056699608,0.004516494,0.011202792,0.0,0.0,0.0,0.0
310777025,-9.977154e-05,-0.001164011,0.008054996,0.0,0.0,0.0,0.0
310809111,0.0048994366,-0.0007237422,-0.00067259255,0.0,0.0,0.0,0.0
310841072,0.0025728988,0.0042023216,-0.0055795405,0.0,0.0,0.0,0.0
310873047,0.0019423753,0.001179765,0.0020451408,0.0,0.0,0.0,0.0
310905032,-0.0017821742,-0.0025162497,0.0103329625,0.0,0.0,0.0,0.0
310937125,-0.0057461415,0.0002801125,0.006920807,0.0,0.0,0.0,0.0
310969070,0.0032590742,0.0050044023,-0.0008721396,0.0,0.0,0.0,0.0
311001077,0.009457678,0.0024674092,-0.0017456908,0.0,0.0,0.0,0.0
311033031,0.0015536924,-0.0018785242,0.001162565,0.0,0.0,0.0,0.0
311065089,-0.0024534652,-0.00016677234,0.0035237428,0.0,0.0,0.0,0.0
311097048,0.0017004237,0.0021839286,0.004858302,0.0,0.0,0.0,0.0
311129035,0.004982338,0.0026937847,0.0044037728,0.0,0.0,0.0,0.0
311161003,0.005772181,-0.0013628043,-0.0023925744,0.0,0.0,0.0,0.0
311193034,0.0035172056,0.006224041,0.00048647425,0.0,0.0,0.0,0.0
311225037,0.0035136996,0.0035157152,0.004930789,0.0,0.0,0.0,0.0
311257029,0.002163323,-0.004677126,0.003247931,0.0,0.0,0.0,0.0
311289025,0.0043373695,-0.007396591,0.0002975387,0.0,0.0,0.0,0.0
311321035,0.0001553852,0.0042612026,0.0018069209,0.0,0.0,0.0,0.0
311353059,-0.004964132,0.0019546878,0.00020283624,0.0,0.0,0.0,0.0
311385029,-0.005161493,-0.007481674,-0.0007984827,0.0,0.0,0.0,0.0
311417094,0.0031605668,0.004688946,0.0035086693,0.0,0.0,0.0,0.0
311450631,-0.012670361,-0.0029350142,0.004101844,0.0,0.0,0.0,0.0
311482628,-0.003338529,-0.0063775126,0.0012597094,0.0,0.0,0.0,0.0
311514694,-0.0071374294,0.0030980473,-0.0015715545,0.0,0.0,0.0,0.0
311546626,0.0034791045,0.005663996,0.0010936129,0.0,0.0,0.0,0.0
311578690,0.001477109,-0.0029667448,0.0030603805,0.0,0.0,0.0,0.0
311610686,0.0044070063,-0.0015442773,0.004623091,0.0,0.0,0.0,0.0
311642786,-0.0021756317,0.010821343,0.003007025,0.0,0.0,0.0,0.0
311674647,0.011680021,0.00064378453,-0.00089062797,0.0,0.0,0.0,0.0
311706659,0.01047776,-0.0066771097,-0.0026620445,0.0,0.0,0.0,0.0
311738660,0.0014432,0.008413928,0.0030232337,0.0,0.0,0.0,0.0
311770738,0.0024782124,0.0064692744,0.006081152,0.0,0.0,0.0,0.0
311798671,-0.006562402,-0.006554746,0.0013764385,-7.515093e-05,-2.6095262e-05,-5.8377623e-06,0.0
311830723,0.008275846,0.0005135044,-0.00014708447,-0.00028281103,-9.514626e-05,-1.0550562e-05,0.0
311862764,0.004731267,0.011977063,0.0018134578,-0.0004950905,-0.00018014417,-1.7517483e-05,0.0
311894698,0.00802551,0.004514634,0.0016082271,-0.00070167566,-0.0002629589,-3.063831e-05,0.0
311926651,0.0052669886,-0.006492949,0.0018576565,-0.00090288155,-0.0003291338,-4.2559615e-05,0.0
311958732,0.00093316473,0.008146276,0.0031103834,-0.0011087855,-0.00040867378,-5.702605e-05,0.0
311990629,0.0051299557,-0.000506381,0.0023004673,-0.0013211792,-0.00049492734,-7.402698e-05,0.0
312022692,0.0019233502,-0.006127985,-0.0012437154,-0.0015285838,-0.0005656117,-8.2090475e-05,0.0
312050657,0.00021608635,-0.00075340876,-0.0072680367,-0.0017041451,-0.00062841456,-7.524591e-05,0.0
312082664,-0.00031272188,0.0062658135,0.008308005,-0.0019031924,-0.0007124336,-7.886357e-05,0.0
312114662,0.0008122714,-0.001967363,0.015106477,-0.002093039,-0.0007882492,-0.00014044899,0.0
312146701,-0.023668647,-0.0053960066,0.0015179759,-0.0022797422,-0.00085679645,-0.00017210156,0.0
312178641,0.008816553,0.00237963,-0.009087736,-0.0024832317,-0.00093779364,-0.00015690074,0.0
312208268,-0.003179512,-0.0044778544,-0.0023411764,-0.0026725244,-0.0010118912,-0.00014672863,0.0
312240309,-0.0040752236,-0.0033356394,0.0048580775,-0.002872379,-0.0010826259,-0.00015099927,0.0
312272240,-0.0021384866,0.010802727,0.0016813559,-0.0030619274,-0.001158264,-0.00015976516,0.0
312304278,0.0055333003,0.0003134564,0.0057525956,-0.0032627806,-0.001246292,-0.00018795089,0.0
312336273,-0.0029508425,-0.010330708,0.0018805377,-0.0034705447,-0.0013174264,-0.00021494996,0.0
312368339,-0.009790268,0.0071583646,0.00042978,-0.0036701385,-0.001389606,-0.00022963887,0.0
312400234,-0.0059769996,0.0006092235,0.0027582191,-0.0038631905,-0.0014744012,-0.00022992113,0.0
312432287,0.002073192,-0.0015747475,0.0028702212,-0.004061365,-0.0015528406,-0.00023446565,0.0
312460237,0.005587824,0.0072140205,0.004457148,-0.004241842,-0.0016116663,-0.0002463109,0.0
312492250,-0.0016444533,0.0009667092,0.0042445217,-0.0044411696,-0.0016877974,-0.00026428775,0.0
312524287,-0.020533383,-0.002008658,0.00021897932,-0.004626626,-0.0017697092,-0.0002835635,0.0
312556308,-0.009228032,-0.0038859337,-0.0011971863,-0.004815483,-0.0018417739,-0.00029968924,0.0
312588232,0.008411579,0.0015390618,0.0015984388,-0.0050159167,-0.0019161984,-0.00030936266,0.0
312620306,-0.003595585,0.0019719056,0.007565148,-0.005217702,-0.0019980662,-0.0003215046,0.0
312652285,0.02949607,0.0076652775,0.0027978888,-0.0054092417,-0.002073068,-0.00033459673,0.0
312684325,0.008120851,-0.0058799223,0.0008553524,-0.005591975,-0.0021492895,-0.00035004117,0.0
312716258,0.004581872,-0.010166415,-0.0016151376,-0.005801461,-0.002225447,-0.00035951135,0.0
312748257,-0.0036280279,-0.0013107322,0.0052064336,-0.006009439,-0.0023022108,-0.00037339787,0.0
312780430,-0.0143345585,-0.008814348,0.006901187,-0.006189208,-0.0023786088,-0.00039228259,0.0
312812241,0.0039580343,0.00836768,0.00523048,-0.0063816146,-0.0024557747,-0.00041088552,0.0
312844213,0.022013621,0.0049593733,0.00018363423,-0.0065870443,-0.0025313941,-0.0004177484,0.0
312876221,0.018582048,0.0048972107,-0.0006066526,-0.0067857034,-0.0026085551,-0.00042874293,0.0
312908255,-0.011471389,-0.008418234,0.0055613937,-0.0069679865,-0.002685979,-0.0004492346,0.0
312941064,-0.010916014,-0.0082478095,0.00481979,-0.0071600033,-0.002761295,-0.0004745705,0.0
312973882,0.0067386874,0.012889045,0.0040140077,-0.0073650614,-0.002838906,-0.00049004547,0.0
313005839,-0.005475146,-0.0020067529,0.0018107387,-0.00755703,-0.002916571,-0.00049907115,0.0
313037903,-0.015734416,0.001458072,0.00044570887,-0.00774805,-0.0029950172,-0.0005064774,0.0
313065851,-0.007004408,-0.00041956163,-0.0036758506,-0.007912413,-0.0030586014,-0.0005168035,0.0
313097916,0.035362586,0.018406214,0.0022534423,-0.008107562,-0.0031370497,-0.0005377759,0.0
313129847,0.005930931,-0.0068534403,0.002115745,-0.0083017675,-0.0032173588,-0.0005585247,0.0
313161808,-0.0027207625,-0.0033404639,-0.0002101236,-0.00848863,-0.0032920127,-0.0005775004,0.0
313193813,0.012505613,-0.0030150814,-0.0038143585,-0.008678927,-0.003369656,-0.0005875478,0.0
313225859,-0.0057440517,0.011754636,-0.00051316153,-0.008870922,-0.0034532582,-0.0005952911,0.0
313257889,-0.029262034,-0.017999595,0.0038809713,-0.00905465,-0.0035240527,-0.00060341076,0.0
313289838,-0.034573153,0.012611301,-0.0005205197,-0.009205995,-0.003593631,-0.00060810155,0.0
313317908,-0.02123791,0.007874284,-0.0035277896,-0.009331746,-0.003674649,-0.00060949934,0.0
313349852,0.037759192,0.018984664,-0.012847019,-0.009473606,-0.003750235,-0.0005943707,0.0
313381830,-0.016362248,-0.0096320845,-0.020026458,-0.009601894,-0.003812913,-0.00055768667,0.0
313413881,0.050645728,0.025931004,0.0009405052,-0.009755134,-0.0038986919,-0.0005451699,0.0
313445862,-0.009203746,0.00073152594,-0.006193418,-0.009885415,-0.003991401,-0.00054993766,0.0
313477856,0.0025774965,-0.011990889,0.00059866044,-0.010028344,-0.0040664314,-0.0005570366,0.0
313509835,-0.07366254,-0.03855912,0.008695579,-0.01016388,-0.0041586384,-0.00056731026,0.0
313541846,-0.02372741,-0.0033362738,0.0014065093,-0.010263653,-0.004318315,-0.00056911225,0.0
313569843,-0.040171444,0.008948427,0.001536967,-0.010290514,-0.004507702,-0.0005728771,0.0
313601898,0.029620778,-0.0132328365,-0.004298264,-0.010271706,-0.0047488515,-0.0005665776,0.0
313633866,0.049827587,0.010511137,-0.0035866129,-0.010256975,-0.005030162,-0.0005618876,0.0
313665832,-0.019674042,-0.02241493,0.00039219344,-0.010191416,-0.005334205,-0.0005545521,0.0
313699500,0.019986058,0.030373,0.0015636366,-0.010088187,-0.005659324,-0.0005619724,0.0
313731433,0.038687125,-0.005312047,-0.0029580141,-0.010004774,-0.005960627,-0.0005569727,0.0
313763656,-0.018657865,0.012036547,-0.0071611363,-0.009916407,-0.0062730224,-0.00055065425,0.0
313795485,0.0033840977,0.006104798,0.0014831692,-0.0098037645,-0.0065913186,-0.00054887356,0.0
313827443,-0.022063363,0.030320188,-0.015749047,-0.009669195,-0.0069022803,-0.0005285009,0.0
313859436,-0.007574035,-0.038780656,0.00013889302,-0.009516249,-0.0072173406,-0.0005061657,0.0
313891478,-0.07249338,-0.0007248975,0.003666423,-0.009348206,-0.007561592,-0.0004887219,0.0
313923488,-0.005348462,0.025038704,-0.016419075,-0.009162574,-0.007924417,-0.00045815573,0.0
313951539,-0.023504153,-0.0030319185,0.005208861,-0.008992819,-0.008241156,-0.00043348828,0.0
313983486,-0.017917229,-0.048750088,-0.00084812986,-0.008799761,-0.00862268,-0.00042128956,0.0
314015438,-0.062435474,0.014310765,0.01712064,-0.008532259,-0.009072462,-0.00042057154,0.0
314047437,0.05039718,0.025038945,-0.0035319168,-0.008185856,-0.0096194,-0.0004145588,0.0
314079490,0.0026094287,-0.017438622,-0.004496155,-0.007855071,-0.0101654185,-0.00040726873,0.0
314111518,-0.048210625,-0.013102023,-0.0033286375,-0.0074775573,-0.010707532,-0.00038717745,0.0
314143434,-0.037353765,0.0026424434,-0.001839357,-0.0070915376,-0.011263881,-0.0003672692,0.0
314175450,-0.07677967,-0.0095208995,0.005504636,-0.0067393184,-0.011858968,-0.00035414286,0.0
314203501,0.08108472,0.04468089,0.0038113152,-0.006403187,-0.0123904785,-0.0003432748,0.0
314235450,0.07757025,0.021520516,0.0050977003,-0.0059805266,-0.012970692,-0.00030810546,0.0
314267475,0.027110841,-0.024082735,0.003654915,-0.0056128628,-0.013563536,-0.00028158387,0.0
314299443,0.027994579,0.02170709,0.011686319,-0.0052014263,-0.0141790435,-0.0002765745,0.0
314331446,-0.028273094,-0.029207531,0.0019239272,-0.0047552832,-0.014790482,-0.00025460063,0.0
314363622,-0.0033631276,0.0060357437,0.0049576126,-0.0043638763,-0.015435588,-0.00023851187,0.0
314395465,-0.074508406,0.020355176,0.01223696,-0.003920981,-0.016117657,-0.00022009197,0.0
314427424,0.02420959,0.008272368,0.01702259,-0.003437642,-0.016817905,-0.00022059676,0.0
314457067,0.016215714,-0.04410517,0.009154434,-0.0030298263,-0.017439948,-0.00024337314,0.0
314489165,0.06365726,-0.03044873,0.0045500984,-0.002579544,-0.01810419,-0.0002377178,0.0
314521053,-0.046357684,0.020519327,-0.009380416,-0.0020980116,-0.01878897,-0.00019301701,0.0
314553052,-0.002050077,-0.010230831,-0.020307438,-0.0016462331,-0.019533532,-0.0001325824,0.0
314585042,0.12908128,-0.019671597,-0.003021846,-0.0011766056,-0.020230064,-8.355589e-05,0.0
314613092,0.14697929,0.035252023,0.009275202,-0.0007431168,-0.020851891,-5.5455686e-05,0.0
314645063,-0.04264704,-0.04445634,-0.01521633,-0.00023821092,-0.021595754,-2.1483465e-05,0.0
314677119,0.07265307,0.0010061284,0.015403509,0.00020673225,-0.022295715,-6.781198e-06,0.0
314709095,-0.07393473,-0.056173585,0.0062929904,0.00071602175,-0.023026722,2.0694255e-05,0.0
314740999,0.051067863,0.031186987,-0.020783463,0.0011539961,-0.023688963,5.58952e-05,0.0
314773059,0.09122351,-0.053561978,-0.0085953055,0.0015811935,-0.02432632,0.00011529004,0.0
314805054,0.13391678,-0.027176166,0.015765121,0.0019394424,-0.024986323,0.00012918054,0.0
314837003,0.053942017,-0.07253288,0.011754961,0.0023320767,-0.0255639,7.9977384e-05,0.0
314869023,0.058103357,-0.0129395705,-0.0012110115,0.0028660584,-0.026131032,3.342435e-05,0.0
314901017,0.025725959,-0.12988171,-0.008036163,0.00339316,-0.026749244,5.0773193e-05,0.0
314933077,0.041874636,-0.17492308,0.0015268638,0.0039249104,-0.027364347,9.40918e-05,0.0
314965033,0.05094258,-0.14712496,-0.004995535,0.004433586,-0.027920907,0.00016285197,0.0
314997027,0.1145427,-0.08821118,-0.03793156,0.004788905,-0.028427295,0.00026160447,0.0
315374651,-0.12477423,-0.28955713,0.028753486,0.0057512387,-0.027138617,-0.000277846,0.0
315406639,0.08146217,0.14479956,0.019040575,0.005687084,-0.02689917,-0.0003790478,0.0
315438675,0.011573066,-0.07577076,-0.0052217357,0.0056100516,-0.026536645,-0.00043633333,0.0
315466722,-0.11714243,0.124046914,0.022966197,0.005599386,-0.026215443,-0.0005010755,0.0
315498682,-0.07442812,0.0070774537,-0.0024744286,0.005392981,-0.025807932,-0.0005500226,0.0
315530671,-0.17936099,0.36283287,-0.0120029,0.005437033,-0.025645748,-0.00059471244,0.0
315562632,-0.2267751,0.25884566,-0.0131030865,0.0057047405,-0.02553313,-0.0006659885,0.0
315594647,-0.030274952,-0.0071482044,0.012900409,0.005701115,-0.025456782,-0.0006917852,0.0
315626682,-0.11364583,0.1804381,0.003787573,0.0056940955,-0.025287136,-0.00072979875,0.0
315658628,-0.16656065,0.17140384,-0.0073008733,0.0057809763,-0.02505164,-0.000771724,0.0
315690632,-0.04722577,-0.11372179,0.01047875,0.005804589,-0.024743406,-0.00084171904,0.0
315718675,-0.07139971,0.19056559,0.012542071,0.0057474403,-0.024473099,-0.000926013,0.0
315750690,-0.05001208,0.17271766,0.012934451,0.0056644664,-0.02408695,-0.0010232693,0.0
315782687,-0.04151689,-0.014119756,0.008539,0.0054285564,-0.023639856,-0.001113594,0.0
315814676,-0.34119263,0.36686012,0.025997521,0.005328915,-0.02343378,-0.0012109341,0.0
315846649,-0.37534773,0.075172305,0.031259257,0.005505392,-0.023309134,-0.0013225685,0.0
315878641,-0.12070761,0.3256046,0.0012079991,0.005725611,-0.023370916,-0.0014218038,0.0
315910693,0.023599137,0.20118503,0.035339348,0.006141535,-0.023601087,-0.0015512425,0.0
315940283,0.060098354,-0.09531503,0.009990636,0.0064494214,-0.023722371,-0.0016203339,0.0
315972238,0.22713885,-0.16566326,0.023247514,0.006614803,-0.023596706,-0.0017171375,0.0
316004305,0.23064733,-0.24363641,0.02447763,0.0066945828,-0.023373429,-0.0018203569,0.0
316036305,0.11443654,-0.40056765,0.03586422,0.006747615,-0.02311484,-0.0019221491,0.0
316068232,0.23548481,-0.3137322,0.0051454213,0.0066937753,-0.022773182,-0.0020284285,0.0
316100240,0.21132676,-0.08981515,-0.014636222,0.0065056896,-0.0223698,-0.0021232893,0.0
316128275,0.07068746,-0.09416785,0.009449771,0.0063521783,-0.022126272,-0.0021905256,0.0
316160233,0.004830578,-0.2268206,0.014049627,0.006289366,-0.02191197,-0.0022984394,0.0
316192490,-0.068228886,0.08552848,0.009791449,0.006277644,-0.021730592,-0.0024402642,0.0
316224273,-0.0619225,0.07131587,0.025559437,0.0063288095,-0.021550324,-0.0025441023,0.0
316256277,-0.02466434,-0.038608328,-0.022695273,0.0064666774,-0.021470504,-0.002637624,0.0
316288235,0.059845056,0.2195603,-0.00077013066,0.0065593733,-0.021331517,-0.0027367044,0.0
316320317,0.1535463,0.10210493,-0.0036112745,0.0065040784,-0.021151895,-0.002791024,0.0
316352284,-0.020704454,-0.20748316,-0.0602928,0.0065667476,-0.020985048,-0.0028141895,0.0
316384242,-0.024226466,-0.07208446,-0.011374841,0.006625065,-0.020786121,-0.0028316271,0.0
316416230,-0.109988384,0.007697168,-0.0060809273,0.006604299,-0.0204473,-0.0028474594,0.0
316448241,-0.114824176,0.0023167622,-0.008274324,0.0065568453,-0.020008085,-0.002845373,0.0
316480235,-0.15066785,0.07881547,-0.003868775,0.006424924,-0.019772826,-0.0028218247,0.0
316512206,-0.25294527,0.08672053,-0.014763539,0.0064313556,-0.019521786,-0.0028162298,0.0
316544423,-0.1508422,0.117191866,-0.0020306215,0.0062997686,-0.019245991,-0.0027885349,0.0
316576259,-0.3525464,0.10954207,-0.007960338,0.0063312897,-0.019120028,-0.0027719166,0.0
316608266,-0.25084814,0.16539286,0.00087181,0.006557983,-0.019117624,-0.002789322,0.0
316640226,-0.22767816,0.16372988,-0.003442726,0.006625278,-0.01902033,-0.0028063206,0.0
316673002,-0.3514998,0.24491517,0.006631919,0.006818995,-0.018925177,-0.0028254222,0.0
316705894,-0.17398429,0.11928126,0.020076072,0.007033876,-0.018933808,-0.0028892867,0.0
316733842,-0.025929308,0.13791563,0.0062908707,0.0071130986,-0.018944228,-0.0029288346,0.0
316765864,-0.09527705,0.10548292,0.014793746,0.0071943826,-0.018844798,-0.0029923113,0.0
316797865,-0.07198841,0.24004595,0.015058894,0.0073100273,-0.018741414,-0.0030554226,0.0
316829810,0.008810705,0.26264742,0.010479551,0.0073972405,-0.018757647,-0.0031238215,0.0
316861827,0.030990388,0.12918788,0.022706628,0.0074686264,-0.01870092,-0.0032148059,0.0
316893831,0.068794936,-0.0384326,0.02181556,0.007583494,-0.018550389,-0.0033104524,0.0
316925834,0.13353804,0.06813997,0.012259148,0.0076191365,-0.018465245,-0.0034032818,0.0
316957939,0.06467485,0.10722157,0.017816802,0.00766496,-0.018444631,-0.003506016,0.0
316989830,0.053441975,0.18135284,0.019345129,0.007726429,-0.018423934,-0.0036113262,0.0
317021884,0.11133028,0.21926764,0.010273668,0.0077781747,-0.018419925,-0.0036970228,0.0
317053849,0.11390309,0.12778847,0.020376738,0.007850038,-0.018385634,-0.0038096115,0.0
317085919,0.116215475,0.13260517,0.0011751803,0.007912159,-0.018336978,-0.003926958,0.0
317117860,0.096252054,0.15656072,0.023819871,0.0079687275,-0.018264862,-0.0040539047,0.0
317149883,0.08272057,0.22831489,0.014966875,0.007994173,-0.01820267,-0.004178053,0.0
317181869,0.08126793,0.10235292,0.026707426,0.007999342,-0.018170085,-0.00430295,0.0
317213909,0.05981853,-0.0019460809,0.02010165,0.008037992,-0.01812659,-0.0044485475,0.0
317245823,0.112041764,0.087234356,0.02061368,0.008058597,-0.01812611,-0.0045967614,0.0
317277901,0.033663634,0.11327967,0.030674947,0.008078863,-0.018127041,-0.004762408,0.0
317309874,0.058897387,0.14097713,0.0030040445,0.008086796,-0.018116143,-0.00489633,0.0
317341876,0.08583375,0.049564935,0.006627419,0.008142407,-0.018089399,-0.005021239,0.0
317373870,0.11260385,0.08612376,-0.020803915,0.008207209,-0.018096156,-0.0051237894,0.0
317405836,0.01689107,0.09511904,-0.006384087,0.008276137,-0.018104514,-0.0052225976,0.0
317439424,0.05347275,0.17809112,-0.0120039005,0.00829606,-0.018083787,-0.005313844,0.0
317471470,0.045250703,0.07639959,0.0008153666,0.008312665,-0.018037142,-0.0053963633,0.0
317503470,0.02931295,-0.0057716114,-0.016473733,0.008392412,-0.01801216,-0.0054707965,0.0
317535456,0.03815475,0.016867157,-0.010928565,0.008443437,-0.018032033,-0.0055425,0.0
317563554,-0.014230553,-0.029358335,0.00068740605,0.008468931,-0.018013403,-0.005592093,0.0
317595451,0.02961501,-0.036526754,-0.032035712,0.008516819,-0.01798548,-0.0056373673,0.0
317627435,-0.0066385577,0.028800104,-0.008117508,0.00856284,-0.017959088,-0.0056929616,0.0
317659481,-0.07012563,0.061414048,-0.009628476,0.008625497,-0.017942127,-0.0057417806,0.0
317691471,0.017948188,0.06021785,-0.006822263,0.008668767,-0.017933134,-0.005779869,0.0
317723447,0.09233584,-0.057275508,-0.010473113,0.00869007,-0.017889956,-0.0058074812,0.0
317755452,0.09572077,0.023906851,-0.025680294,0.008725725,-0.017850567,-0.00584032,0.0
317787494,0.051254626,0.09417001,-0.012010088,0.008757996,-0.017860103,-0.0058779903,0.0
317815487,-0.044024296,-0.08433752,-0.0132963285,0.008776928,-0.017843308,-0.0059092743,0.0
317847454,-0.068518974,-0.20553222,-0.020441921,0.008834211,-0.017783536,-0.0059365937,0.0
317879443,-0.11446243,-0.09198045,-0.006937172,0.008889855,-0.017731393,-0.0059767445,0.0
317911450,-0.1447866,-0.05640062,-0.011152798,0.008897203,-0.017710118,-0.0059971907,0.0
317943449,-0.070331454,-0.04206404,-0.0059141787,0.008909822,-0.0177383,-0.0060187364,0.0
317975472,-0.090511836,-0.12571517,-0.009288602,0.008960454,-0.017711852,-0.0060545146,0.0
318007440,-0.08922266,-0.050456963,-0.024885936,0.009013837,-0.01767208,-0.006076662,0.0
318039459,-0.1352238,-0.012821965,-0.0018074422,0.009052076,-0.017666047,-0.006106057,0.0
318067452,0.11398983,0.042127103,-0.0019493762,0.009045474,-0.017660659,-0.0061281663,0.0
318099404,0.11443661,0.062558815,-0.020160932,0.009064613,-0.017645461,-0.00614109,0.0
318131408,0.06019488,0.108960226,-0.013662891,0.009131554,-0.017610855,-0.0061558587,0.0
318164324,0.026877709,0.16588473,-0.018801449,0.0091949785,-0.017559469,-0.006177133,0.0
318193024,-0.043627813,-0.20192677,0.005814445,0.009229356,-0.017488189,-0.006185398,0.0
318225118,0.0022313246,-0.19017884,0.00380815,0.0092749335,-0.017424313,-0.006219286,0.0
318257088,-0.025071613,-0.10519888,0.006323115,0.009312096,-0.01737217,-0.0062401486,0.0
318289077,-0.04420046,-0.020720083,-0.0012969044,0.009353549,-0.017375788,-0.00626282,0.0
318321040,0.003521434,0.0421613,-0.00022132508,0.009383933,-0.017397854,-0.0062902807,0.0
318353136,0.023651348,-0.08326624,-0.00011493405,0.009397639,-0.01736789,-0.006319996,0.0
318385059,0.0200184,-0.1233134,-0.006522588,0.009424467,-0.017340971,-0.006349833,0.0
318417033,0.018985435,-0.10814647,-0.0061514555,0.009446359,-0.017318027,-0.006378912,0.0
319274690,0.06913303,0.057150852,0.010499535,0.010163143,-0.017028963,-0.006779656,0.0
319306701,0.020568315,-0.05936845,-0.0023149967,0.010182962,-0.016962612,-0.0067822407,0.0
319338629,0.03409564,-0.05514069,-0.014144238,0.010227134,-0.016881565,-0.0067865774,0.0
319370665,0.028715724,0.030591117,-0.0011613714,0.010235427,-0.016859315,-0.006777912,0.0
319402678,0.020563463,0.08122074,0.0016763665,0.010208448,-0.01681158,-0.006777675,0.0
319434699,0.01221466,-0.11003187,-0.0038153976,0.010192151,-0.016774831,-0.0067782146,0.0
319466628,-0.03747345,-0.036648087,0.010050288,0.010215147,-0.016751112,-0.006777405,0.0
319498663,0.10446676,0.13998286,-0.019363012,0.010213913,-0.01674807,-0.006762833,0.0
319530675,-0.0072052283,-0.024373809,-0.014861854,0.010219348,-0.01671748,-0.0067618275,0.0
319562665,0.0026164076,-0.00762139,0.009428838,0.010171005,-0.016654724,-0.0067614825,0.0
319594637,-0.016404562,-0.16856432,-0.01305975,0.010184502,-0.016620595,-0.006777416,0.0
319626641,0.05821655,0.3523628,-0.010014705,0.010205846,-0.016654652,-0.0067884396,0.0
319655472,-0.006386612,-0.12861827,-0.0043923734,0.010191824,-0.016645528,-0.0067750616,0.0
319688232,0.042749014,0.35560083,-0.008592732,0.010158759,-0.016712334,-0.0067893183,0.0
319720272,0.040234905,-0.24165344,-0.021285303,0.010184976,-0.01659801,-0.006796811,0.0
319752281,-0.08305786,0.13742898,0.0110688675,0.01017303,-0.016645903,-0.006792628,0.0
319784322,0.05479034,-0.068715,-0.011140325,0.010128302,-0.01663677,-0.006798417,0.0
319816247,-0.05681865,0.12297619,0.013166413,0.010149317,-0.016645469,-0.006826855,0.0
319848275,0.034245748,-0.26073712,0.00995945,0.010141838,-0.016560944,-0.0068356283,0.0
319880265,-0.0006609595,0.042790286,0.017699596,0.010139465,-0.016578099,-0.0068611973,0.0
319908290,-0.029535713,-0.19962043,-0.014576952,0.010163401,-0.016501062,-0.0068741636,0.0
319940284,0.08876434,0.071678616,0.0151725635,0.010112866,-0.016476335,-0.0068784854,0.0
319972327,0.05790811,-0.08175745,-0.044983048,0.010081145,-0.016438382,-0.00688147,0.0
320004239,-0.09152483,0.20575482,0.016091382,0.010095588,-0.016429957,-0.0069073946,0.0
320036275,-0.028714295,-0.3812217,0.015285419,0.01008046,-0.016344393,-0.006900878,0.0
320068329,0.0496753,0.2935119,0.0012328037,0.010051006,-0.016448755,-0.0069367206,0.0
320100207,-0.017925471,-0.104481354,0.0004901927,0.0100607835,-0.016332788,-0.0069426675,0.0
320132214,-0.17954244,-0.21279518,0.012522601,0.010069529,-0.016259244,-0.006945299,0.0
320160270,0.03215409,-0.034801118,-0.020816177,0.010062575,-0.016243206,-0.0069303755,0.0
320192208,-0.07797958,0.070096195,-0.005180341,0.009968768,-0.016361007,-0.0069082035,0.0
320224268,0.09511169,-0.04355788,-0.011821641,0.009888282,-0.016349182,-0.006903396,0.0
320256241,0.014383934,0.08047699,-0.007402162,0.009896588,-0.016328393,-0.0068957717,0.0
320288337,-0.10005647,-0.092412554,0.005967207,0.009879061,-0.01628461,-0.006885315,0.0
320320235,-0.008244487,-0.05204369,-0.0061919484,0.009832298,-0.016304463,-0.006875867,0.0
320352309,0.058938313,0.2667808,-0.014614467,0.009834209,-0.016308524,-0.0068690293,0.0
320380261,-0.07491305,0.084982544,-0.001491131,0.00984631,-0.016361669,-0.006854493,0.0
320413935,0.073215835,0.04485323,-0.017987132,0.009811439,-0.016361678,-0.006825925,0.0
320445896,-0.007707231,0.025724472,-0.0024575163,0.009787424,-0.016356155,-0.006813194,0.0
320477883,-0.031651642,-0.014819199,0.010607894,0.009743536,-0.016340125,-0.006793693,0.0
320509844,0.016879838,0.05134649,-0.051444516,0.009739085,-0.016377818,-0.0067684487,0.0
320541825,-0.060800843,0.11276788,0.020397782,0.009758917,-0.016329205,-0.0067787273,0.0
320569862,0.06923468,0.18775125,-0.024073604,0.009763013,-0.016353756,-0.006769625,0.0
320601807,-0.03339563,0.16467473,0.014061331,0.009764581,-0.01635102,-0.006775959,0.0
320633899,-0.05988651,-0.31978464,0.007117334,0.009746796,-0.01633148,-0.0067878477,0.0
320665866,0.064009756,0.272553,-0.006862358,0.009706422,-0.01625714,-0.006796119,0.0
320697905,0.08537422,-0.099790744,-0.035916094,0.009750305,-0.01616409,-0.0067837895,0.0
320729962,-0.085298255,0.18146485,-0.02763577,0.009731582,-0.016298829,-0.0067843096,0.0
320761905,-0.008683879,-0.17052683,0.017808609,0.0096854465,-0.016288914,-0.006775775,0.0
320793866,0.051205885,0.15619646,-0.0021689439,0.009715261,-0.016312353,-0.006776824,0.0
320821901,-0.054240108,-0.23174404,-0.0010125828,0.009757309,-0.016249651,-0.00679079,0.0
320853830,0.031339064,0.21929157,-0.010421374,0.009746416,-0.01623365,-0.006809721,0.0
320885866,-0.0016336363,-0.053127576,0.011689098,0.009726573,-0.016130619,-0.006834236,0.0
320917865,-0.01962769,-0.0039266846,0.0045441543,0.009738314,-0.016195033,-0.0068590315,0.0
320949888,-0.0018827168,-0.067155555,0.026954511,0.009744367,-0.016279038,-0.006882368,0.0
320981833,0.060393177,0.15018365,-0.008899626,0.009742426,-0.016274625,-0.0068894075,0.0
321013870,0.014353933,0.11661344,0.008113931,0.009709698,-0.016209783,-0.006916188,0.0
321045841,-0.052672237,-0.32902664,-0.011382306,0.009711922,-0.016221339,-0.0069680535,0.0
321073879,-0.0136277275,-0.04144855,0.015117947,0.009713594,-0.016171623,-0.0069905845,0.0
321105833,-0.07128846,-0.078472465,-0.007350556,0.0096979905,-0.016133174,-0.007011809,0.0
321139484,-0.15097429,0.14457393,0.00501818,0.0097141545,-0.01625712,-0.007042263,0.0
321171517,-0.112064466,0.012777166,-0.00063086837,0.009813583,-0.016331928,-0.0070928265,0.0
321203466,-0.071785085,0.05513626,0.007879476,0.009862,-0.016342342,-0.0071590682,0.0
321231495,-0.0489188,-0.11468044,-0.00028355303,0.009854259,-0.01635052,-0.007194983,0.0
321263432,-0.14512242,-0.061176747,0.0015204847,0.009907622,-0.016418092,-0.0072535677,0.0
321295435,-0.10578822,0.0005922427,0.0032174531,0.009980366,-0.016444046,-0.007307409,0.0
321327474,0.054226696,-0.05367738,0.0082180165,0.010003838,-0.016410504,-0.0073647145,0.0
321359486,0.004633934,-0.08364028,-0.0046935775,0.01002475,-0.016430601,-0.0074017253,0.0
321391433,-0.1257022,-0.0066273613,-0.0189991,0.010093581,-0.016509287,-0.007463749,0.0
321423474,0.08837282,0.064812675,0.01727313,0.010119473,-0.016577788,-0.0075336746,0.0
321455505,-0.04688271,0.087881535,-0.002647052,0.010157451,-0.016623206,-0.0075879614,0.0
321487497,0.07975447,0.025388883,-0.011993515,0.0101742735,-0.016709018,-0.0076371892,0.0
321519430,-0.107431434,-0.04014613,0.0015054493,0.010241345,-0.016771166,-0.0076905424,0.0
321551473,0.04811598,0.018579526,-0.0012287155,0.010284696,-0.016832449,-0.0077503403,0.0
321583458,0.046888843,0.053739768,-0.008804928,0.010246416,-0.016902076,-0.0077932635,0.0
321615517,0.0021565778,-0.061998956,-0.0089062685,0.010241316,-0.016949432,-0.007830648,0.0
321647451,-0.07564065,-0.05515122,0.0027746093,0.01032092,-0.01697264,-0.007863062,0.0
321679518,0.027881633,-0.036559753,-0.009490667,0.010362929,-0.016986215,-0.00790427,0.0
321711442,0.07147344,0.09338043,0.009219754,0.010306316,-0.017054273,-0.007945775,0.0
321743465,-0.100831576,-0.2075266,-0.027904553,0.010368797,-0.017043397,-0.007962727,0.0
321775444,0.056656886,0.036584515,-0.00070561026,0.01041211,-0.017047292,-0.00799093,0.0
321807407,-0.06337087,0.03323866,-0.015082883,0.010394999,-0.01707257,-0.007998435,0.0
321839450,0.040532626,0.06848121,-0.015709335,0.010375772,-0.017114677,-0.008010041,0.0
321868255,-0.01096919,0.13457167,-0.01392633,0.010416532,-0.017092543,-0.00802472,0.0
321901073,-0.001867126,-0.16175005,-0.027790327,0.010410997,-0.017069938,-0.008032751,0.0
321933072,-0.05897481,-0.0235392,-0.023670634,0.0104559865,-0.017063294,-0.008054641,0.0
321965158,-0.013314038,0.08495406,-0.005297609,0.010495136,-0.01705823,-0.008062235,0.0
321997052,0.052181933,-0.10944101,-0.004622999,0.010503684,-0.017034464,-0.008060874,0.0
322029049,-0.065046966,-0.14997494,-0.005795181,0.0105183935,-0.01704763,-0.008060983,0.0
322057030,0.014229599,-0.023861283,-0.014049983,0.0105151255,-0.01711553,-0.008058433,0.0
322089077,-0.055322852,-0.061778825,-0.010042785,0.010509991,-0.017154155,-0.00805966,0.0
322121091,-0.09936826,-0.07939041,1.4332822e-05,0.010486522,-0.017167984,-0.008053878,0.0
322153063,-0.060752258,-0.0034417333,-0.015461421,0.010465029,-0.017124657,-0.0080521535,0.0
322185012,0.026707808,-0.010373109,-0.031048648,0.010433926,-0.017048493,-0.008021912,0.0
322217034,0.01657009,0.107096896,-0.034824517,0.010414001,-0.017021187,-0.007990701,0.0
322249041,-0.11673378,0.007820176,0.0010519665,0.01039456,-0.016989922,-0.0079718325,0.0
322281033,0.022558251,-0.22175345,-0.016214063,0.010347527,-0.016914275,-0.007923563,0.0
322309035,-0.042516433,0.09041626,-0.007862663,0.010346181,-0.016890958,-0.00788869,0.0
322341122,-0.07368896,-0.24074261,-0.03107354,0.010310609,-0.01680936,-0.007834514,0.0
322373031,0.09393438,0.24954878,-0.019074947,0.010251051,-0.016777167,-0.0077996277,0.0
322405081,-0.035031427,-0.061613828,-0.024287257,0.010299034,-0.016707672,-0.0077778557,0.0
322437057,-0.13559006,0.059119303,0.00838132,0.01035547,-0.016791001,-0.0077513396,0.0
322469065,0.08591501,-0.06981284,-0.01239348,0.010356478,-0.016793523,-0.007707364,0.0
322501061,0.06122824,0.13164617,-0.009501698,0.0103388615,-0.016772242,-0.007678191,0.0
322533034,-0.1216714,-0.07981405,-0.008601219,0.010347379,-0.016698105,-0.0076410146,0.0
322565079,-0.019418318,-0.10461171,-0.00994201,0.010334813,-0.016735015,-0.0076044253,0.0
322593054,-0.031444624,-0.29171327,-0.024736572,0.010346257,-0.01668923,-0.007573229,0.0
322626697,-0.15169388,-0.047744166,0.0077837757,0.010352914,-0.016754352,-0.007534787,0.0
322658636,0.16046572,0.19107528,-0.0026496463,0.010283864,-0.01679031,-0.0074920645,0.0
322690640,-0.038990624,-0.14413458,-0.0072397594,0.010272511,-0.016772203,-0.0074684704,0.0
322718676,0.048516437,-0.0061254976,-0.022666499,0.010271495,-0.016765315,-0.0074343733,0.0
322750669,0.0023937835,0.010464207,-0.0053632203,0.010268953,-0.016725207,-0.0074175494,0.0
322782655,-0.048384473,-0.18478154,0.0059938477,0.0102336295,-0.016663507,-0.007405001,0.0
322814708,0.02899046,0.2564411,-0.0015261758,0.010244132,-0.016685735,-0.0073976875,0.0
322846682,-0.00034693052,-0.12071103,0.013178527,0.010260812,-0.016684536,-0.0073870975,0.0
322878692,-0.0809434,0.054532412,0.02509932,0.010256557,-0.01677305,-0.0073816855,0.0
322910723,0.13647464,-0.0051824246,-0.015807683,0.010240398,-0.016755166,-0.00734626,0.0
322942723,-0.029571483,-0.006142664,0.0077260034,0.010213575,-0.016699014,-0.0073500946,0.0
322974701,-0.031700563,-0.01751641,0.021036435,0.010171267,-0.016650233,-0.0073522194,0.0
323006631,0.053780425,-0.022158092,-0.02047017,0.010180141,-0.016704451,-0.0073483647,0.0
323038630,-0.010720399,0.27679,0.0048180576,0.0102008125,-0.01673806,-0.0073620486,0.0
323070652,-0.006843216,-0.2871815,-0.015925564,0.010209371,-0.016731147,-0.0073592947,0.0
323102659,0.040002417,0.17625082,-0.018693922,0.010174216,-0.016767863,-0.007369596,0.0
323134640,0.04285198,-0.045151956,-0.004668097,0.010158489,-0.0166822,-0.0073773926,0.0
323166647,-0.06506426,-0.0046878923,-0.0070183044,0.010160679,-0.016683245,-0.007377656,0.0
323198649,0.016571006,-0.047789864,0.0045818323,0.010107359,-0.016639363,-0.0073883934,0.0
323230659,0.03402063,0.23178515,0.012360349,0.010089401,-0.016629118,-0.007406746,0.0
323262634,-0.081368044,-0.18458413,0.01998291,0.010128645,-0.016590957,-0.0074401004,0.0
323294696,-0.050010405,-0.03445206,0.012338631,0.010131542,-0.016669936,-0.007457581,0.0
323326658,0.13156249,0.21117029,-0.017634602,0.010117266,-0.016709385,-0.0074693942,0.0
323356338,-0.09450372,-0.050935104,0.005971741,0.010106821,-0.0166932,-0.007489869,0.0
323388266,0.12109778,-0.15386161,-0.01626541,0.0100593185,-0.016572881,-0.007491044,0.0
323420279,-0.008221304,0.096775554,0.00036890432,0.010083319,-0.016537355,-0.0075055454,0.0
323452275,-0.047349222,0.08584825,0.013231194,0.010110444,-0.01650336,-0.007533966,0.0
323484236,-0.043649852,-0.26028204,-0.0010410426,0.010107424,-0.016513295,-0.007540451,0.0
323516250,0.08002868,0.19400053,-0.020416081,0.010073894,-0.016484851,-0.0075536463,0.0
323548272,0.016764816,0.018969163,-0.020093454,0.010091453,-0.016407188,-0.0075648506,0.0
323576249,-0.0042078695,-0.06299246,0.0078101805,0.010108788,-0.01639488,-0.007575166,0.0
323608268,0.13470262,0.049289554,-0.033539996,0.010097005,-0.016388055,-0.007577906,0.0
323640263,0.0063277786,0.19516876,-0.011500448,0.010098644,-0.016343428,-0.007583784,0.0
323672249,-0.06942358,-0.1323232,2.5903108e-05,0.010103629,-0.016329113,-0.0075986353,0.0
323704233,-0.04406097,-0.13581124,0.02265368,0.010090408,-0.016265277,-0.0076229246,0.0
323736295,0.0115192775,0.11976431,0.005256599,0.010086931,-0.016207878,-0.0076426687,0.0
323768274,0.024493888,-0.032327775,-2.8496375e-05,0.010096172,-0.016191568,-0.0076736338,0.0
323800234,0.07431695,0.0316929,-0.043438844,0.010129814,-0.01618248,-0.0076869074,0.0
323832215,0.05497989,0.02781597,-0.020026904,0.010127179,-0.016159337,-0.0077000125,0.0
323864250,0.0041603134,0.07455222,-0.02800336,0.010125519,-0.016148489,-0.0077148033,0.0
323896260,0.028522316,-0.01127018,0.0045737457,0.01016119,-0.016109537,-0.0077274553,0.0
323928214,0.063021824,-0.06077215,-0.0032094892,0.0101849,-0.016057005,-0.007734044,0.0
323960263,0.097943604,-0.0036850972,-0.018573206,0.010197225,-0.01602628,-0.0077278786,0.0
323992265,0.069503516,0.057946634,-0.016080052,0.010199006,-0.016027007,-0.0077251694,0.0
324024307,0.0068606962,0.112788275,-0.012214306,0.010224918,-0.01607327,-0.0077334275,0.0
324056231,0.0143011995,0.1568183,-0.014461643,0.010256758,-0.016121365,-0.0077317464,0.0
324089838,-0.09095931,0.026593007,-0.00785825,0.010302603,-0.016069587,-0.007738989,0.0
324121868,-0.102989726,0.0039354027,-0.0017683161,0.010343071,-0.016054757,-0.0077475114,0.0
324153883,-0.074982606,0.011082798,-0.00765002,0.010322704,-0.01610188,-0.007740874,0.0
324181876,0.003494168,-0.05791004,-0.006868818,0.010316414,-0.016111352,-0.0077402773,0.0
324213859,-0.026351415,-0.078242704,-0.0059144115,0.010333817,-0.016113793,-0.007753681,0.0
324245878,-0.04258556,-0.11578166,-0.0026876314,0.010324684,-0.016115785,-0.007744077,0.0
324277835,-0.09015015,-0.13338782,0.0059453915,0.010343779,-0.016092395,-0.007744724,0.0
324309856,-0.08857685,-0.12628768,-0.00017520646,0.010390535,-0.01603472,-0.007742172,0.0
324341835,-0.058316592,-0.036593102,-0.014526021,0.01041552,-0.016044173,-0.0077375514,0.0
324373897,-0.017531542,0.0640943,-0.026990106,0.010424084,-0.016099762,-0.007739257,0.0
324405842,0.02277635,0.08057616,-0.020660011,0.01042424,-0.016126078,-0.0077390103,0.0
324433904,-0.016473169,-0.17261614,-0.0009529826,0.010425887,-0.016135193,-0.0077392003,0.0
324465826,-0.05233576,-0.19544272,-0.016178515,0.010430828,-0.016166233,-0.00773241,0.0
324497897,-0.10922626,-0.21113415,-0.009349849,0.0104604075,-0.01613936,-0.007731576,0.0
324529864,-0.16016701,-0.15671685,-0.004743008,0.010490901,-0.016108653,-0.0077187726,0.0
324561906,-0.1150016,-0.043865826,0.0053197555,0.0105094835,-0.016135057,-0.0077036475,0.0
324593836,-0.025082387,0.0889658,-0.0025002158,0.010524704,-0.016177436,-0.007690286,0.0
324625899,0.081581384,0.12758484,-0.0017659469,0.010496835,-0.016189802,-0.0076718885,0.0
324657921,0.07680355,0.14482135,-0.0010181584,0.010461537,-0.016188791,-0.007661638,0.0
324689856,0.078456365,0.15775745,-0.0018262682,0.010444608,-0.016239045,-0.0076383282,0.0
324721840,0.05857897,0.05990691,-0.00885966,0.010441001,-0.016273614,-0.0076302877,0.0
324753826,0.04104488,-0.07315474,-0.0102644395,0.01045723,-0.016263355,-0.007618461,0.0
324785874,-0.013227593,-0.11203433,-0.007983431,0.010480986,-0.016236275,-0.007606689,0.0
324817894,-0.026960602,-0.12742083,0.0037677274,0.010508047,-0.016219212,-0.0076002213,0.0
324847623,-0.0033167868,0.033243544,-0.011539661,0.010520253,-0.01622676,-0.0075882524,0.0
324879477,-0.013826188,0.030121142,-0.018162059,0.010512671,-0.016207816,-0.0075921994,0.0
324911473,-0.04673237,-0.0061399965,-0.0021341525,0.010509461,-0.016206387,-0.00757832,0.0
324943439,-0.027557228,-0.041220978,0.0062356116,0.010520563,-0.016196249,-0.0075798156,0.0
324975485,0.009574264,0.0053043123,-0.0059534786,0.010536292,-0.016175387,-0.0075790896,0.0
325007681,0.009321576,0.04728761,-0.012870637,0.0105408365,-0.01615725,-0.0075763613,0.0
325039530,-0.04495748,-0.0026146416,-0.005852485,0.010547916,-0.016136786,-0.0075908946,0.0
325067614,0.06345264,-0.12889494,0.0044283224,0.010532023,-0.016126832,-0.007599696,0.0
325099474,-0.0054529565,-0.12524931,0.0045460565,0.010529255,-0.016110571,-0.0076089376,0.0
325131431,-0.105832465,-0.06676897,0.003965948,0.010532496,-0.016140953,-0.0076152342,0.0
325163475,-0.14896166,-0.035429332,0.00086228154,0.010535863,-0.016188249,-0.007615936,0.0
325195474,-0.09436715,0.016818134,-0.003251896,0.010537943,-0.016188342,-0.0076167793,0.0
325227457,-0.060456134,0.06946704,-0.014819115,0.010562776,-0.016164245,-0.007620983,0.0
325259438,0.028853478,0.12139902,-0.01447594,0.010591857,-0.016169911,-0.007628414,0.0
325291490,0.047210358,0.050197147,-0.0102471365,0.01059924,-0.01616818,-0.007638747,0.0
325319470,-0.079491064,-0.10627058,-0.006005015,0.010606923,-0.016141716,-0.007649941,0.0
325351516,-0.048469357,-0.082539216,-0.015811699,0.010615709,-0.016157676,-0.0076610167,0.0
325383496,-0.014988664,-0.09249797,-0.013350562,0.010581143,-0.016200462,-0.0076778135,0.0
325415480,-0.035604406,-0.06289729,-0.009760147,0.010549632,-0.016206149,-0.007694617,0.0
325447444,-0.04127281,-0.00057487615,0.0028482205,0.010569936,-0.016188566,-0.007704518,0.0
325479492,0.005293698,0.09681394,0.0048634224,0.01058336,-0.01618468,-0.007711631,0.0
325511443,0.023081316,0.1297116,0.0053652073,0.010582407,-0.016172338,-0.0077240104,0.0
325543480,0.04219013,0.1253906,-0.0008884885,0.010595546,-0.016131403,-0.0077412715,0.0
325573117,0.007917276,0.04899236,0.00044899597,0.010623837,-0.016108744,-0.0077600256,0.0
325605058,0.033470936,0.086213164,-0.007079483,0.010653135,-0.016105147,-0.0077717314,0.0
325637090,0.083699405,0.11160974,-0.015523681,0.010681797,-0.01610102,-0.0077860137,0.0
325669026,0.07136516,0.046206784,-0.0009551188,0.010703315,-0.016106421,-0.007796537,0.0
325701125,0.048132855,-0.015207922,0.017490175,0.0107138995,-0.016114334,-0.007818267,0.0
325733070,-0.02265182,-0.034311377,0.001955025,0.010742966,-0.016070006,-0.007832767,0.0
325765060,-0.03177818,0.02581305,-0.0093869455,0.01074076,-0.0160584,-0.007846595,0.0
325797039,-0.07630186,0.039937004,-0.008904353,0.010727877,-0.01608749,-0.007864908,0.0
325829102,-0.108806245,-0.02726193,-0.00954882,0.010721607,-0.016094793,-0.007876847,0.0
325861059,-0.08659421,-0.08192315,-0.0123031335,0.010700794,-0.016094767,-0.007891849,0.0
325893006,-0.05295775,-0.02980552,-0.0010373222,0.010683327,-0.016108481,-0.007908626,0.0
325925013,0.014607372,0.028016852,-0.020755867,0.010703791,-0.016139789,-0.007917917,0.0
325957052,0.059835754,-0.006835241,-0.02066437,0.010756102,-0.016120275,-0.007929864,0.0
325989041,0.057355564,0.02113139,-0.015067851,0.010823738,-0.016054746,-0.007941705,0.0
326021009,0.098182306,0.11343193,-0.011160704,0.010844975,-0.016044665,-0.0079398975,0.0
326053037,0.10954552,0.16202527,-0.013463893,0.010822927,-0.016063794,-0.007934867,0.0
326085049,0.070689104,0.18644913,-0.016162023,0.010782222,-0.01606006,-0.007936283,0.0
326117138,0.049474582,0.14733008,-0.01834628,0.010770863,-0.016061543,-0.007912427,0.0
326149029,0.042411987,0.06811596,-0.014591385,0.010760675,-0.01604907,-0.007894174,0.0
326181068,0.03009258,-0.03054904,-0.015335704,0.010740467,-0.015995353,-0.007861714,0.0
326213061,0.02158264,-0.059398662,-0.025454357,0.010749105,-0.015919527,-0.007815444,0.0
326245112,0.05450453,0.007658366,-0.014730021,0.010735928,-0.015855635,-0.0077727423,0.0
326277028,-0.004788685,0.12833534,-0.017547093,0.01069784,-0.015811622,-0.0077198767,0.0
326306646,0.023086015,-0.05336074,-0.039474722,0.010654915,-0.015767999,-0.0076626535,0.0
326338667,-0.0004606664,0.26528975,-0.01107594,0.010650829,-0.01574027,-0.007625433,0.0
326370610,-0.0110067045,-0.3044659,-0.018629018,0.010615979,-0.015665524,-0.0075589255,0.0
326402661,0.023037018,0.11158679,-0.02185241,0.010576019,-0.015710196,-0.0075007323,0.0
326434808,0.018806057,-0.04755676,-0.0029734536,0.010555541,-0.015522515,-0.007443475,0.0
326466711,-0.11845818,-0.2369017,-0.0042942325,0.010542489,-0.01543946,-0.0073852446,0.0
326498668,0.061198432,0.35026497,-0.025120687,0.010496146,-0.015510054,-0.0073080068,0.0
326526625,-0.1317577,0.2774138,-0.0009854978,0.010466754,-0.0156691,-0.007248493,0.0
326558636,0.066083975,-0.12631732,-0.023776878,0.010439854,-0.015675938,-0.007173234,0.0
326590681,-0.13920547,-0.059626948,-0.021430101,0.0104841385,-0.015631929,-0.0071107196,0.0
326622669,0.06759978,-0.10185524,-0.0022751254,0.010452353,-0.015545646,-0.0070313173,0.0
326654644,0.04805794,0.06392264,-0.020227497,0.010421649,-0.015527909,-0.0069594714,0.0
326686631,-0.123643056,-0.012625108,-0.0058131386,0.010424453,-0.015456131,-0.006892458,0.0
326718668,0.035575178,-0.16932036,-0.02821111,0.010424841,-0.015495901,-0.006817374,0.0
326750678,0.07700003,0.47694486,-0.0024750903,0.010421149,-0.015595855,-0.006752311,0.0
326782717,-0.12984711,-0.514185,-0.020265194,0.010398022,-0.0155495955,-0.0066777724,0.0
326814628,-0.013528013,0.41160417,-0.009882132,0.0103812115,-0.0155925555,-0.006618065,0.0
326846672,0.089637294,-0.52365625,-0.037736714,0.010413035,-0.01531761,-0.006530635,0.0
326878847,-0.09483643,0.3223753,0.0017394185,0.010394721,-0.015431823,-0.0064492077,0.0
326910706,0.07945699,-0.19926642,0.00075171166,0.0103298165,-0.015357722,-0.006380035,0.0
326942633,-0.154402,0.012799363,0.015622476,0.010341992,-0.015294556,-0.00632437,0.0
326974696,0.09628237,-0.0981289,-0.022684619,0.010373507,-0.015216034,-0.0062226695,0.0
327006660,-0.0014013797,0.10558875,0.0021317434,0.010342709,-0.015176807,-0.006172059,0.0
327040283,-0.048980184,-0.04283356,-0.002985714,0.010317508,-0.0151045015,-0.0060952166,0.0
327072319,0.06252657,-0.053538546,-0.067575134,0.010295408,-0.015084703,-0.005988523,0.0
327104258,-0.031001233,0.21997815,0.013922242,0.0102816755,-0.0150225125,-0.0059380573,0.0
327132316,0.0051602856,0.21739358,-0.028903292,0.01028311,-0.01505759,-0.0058793584,0.0
327164233,-0.078353584,-0.0319223,-0.022801522,0.010329046,-0.014944438,-0.0058054077,0.0
327196484,-0.058460563,-0.19641317,-0.015558598,0.010281742,-0.014825307,-0.0057046073,0.0
327228253,0.14800866,0.19328703,-0.029544797,0.010261785,-0.014821378,-0.0056107994,0.0
327260273,-0.11213548,-0.000807737,-0.005939371,0.010293216,-0.014799891,-0.0055188695,0.0
327292240,-0.023610437,-0.19383731,-0.008361192,0.010251812,-0.014746802,-0.0054109422,0.0
327324282,0.05448813,0.24570946,-0.03216091,0.010249936,-0.014700089,-0.0052915607,0.0
327356466,0.058122035,-0.08074187,-0.01495655,0.01024296,-0.014654614,-0.005188718,0.0
327388312,-0.062150214,-0.052094564,-0.0018854588,0.010230326,-0.014722711,-0.0050852634,0.0
327420233,0.04714166,0.27061418,-0.0034269122,0.010231306,-0.014708298,-0.0049746847,0.0
327452237,-0.02912907,-0.33096963,-0.018968968,0.010265492,-0.014579007,-0.004877171,0.0
327484289,-0.050880566,0.1775708,0.007940086,0.010252372,-0.01457156,-0.0047980323,0.0
327516233,0.15683281,-0.12271584,-0.011189553,0.010175309,-0.014394498,-0.004698661,0.0
327548240,-0.0013553024,0.119439065,-0.001106672,0.010137761,-0.014363159,-0.004637063,0.0
327580222,-0.07744637,-0.020218028,0.015612807,0.010121474,-0.0143486,-0.004555747,0.0
327608222,0.013873593,-0.002899163,-0.000102485996,0.010120931,-0.014358768,-0.004506768,0.0
327640261,-0.08336058,-0.015282477,-0.0024219912,0.010131769,-0.014421449,-0.0044233194,0.0
327672234,0.086309455,0.15458615,0.0053373137,0.010085648,-0.014473386,-0.0043504955,0.0
327704213,0.1384557,0.03518774,-0.008005045,0.0100495005,-0.014483133,-0.004262564,0.0
327736240,-0.06591446,0.08140791,0.013031981,0.010048941,-0.0144591,-0.0042114966,0.0
327765871,-0.09261783,-0.09548867,0.011557139,0.010019023,-0.014435088,-0.004156827,0.0
327797907,-0.1096804,-0.22376834,0.034792516,0.010016406,-0.014443955,-0.004099629,0.0
327829838,-0.18134476,-0.2085422,0.015472604,0.010069354,-0.014447135,-0.004037989,0.0
327861915,-0.08250718,-0.12804416,-0.005527501,0.010074583,-0.014411162,-0.003980155,0.0
327893866,0.0064346916,-0.08036543,-0.017860608,0.010055476,-0.014400739,-0.0039151707,0.0
327925832,0.046191838,-0.08981626,-0.037417874,0.010066007,-0.014432494,-0.0038703387,0.0
327957835,0.0421454,-0.00963278,-0.0061951177,0.010071303,-0.014454486,-0.0038281383,0.0
327989838,-0.0349889,-0.0453848,0.0051760282,0.010090805,-0.014418509,-0.0037924373,0.0
328017843,-0.0551122,-0.1295336,0.00936259,0.010110248,-0.014358911,-0.0037701253,0.0
328049890,-0.11481295,-0.046822824,0.011548532,0.010137967,-0.014330551,-0.0037550223,0.0
328081896,-0.1244112,-0.008867878,0.012195089,0.010169992,-0.014366034,-0.0037454227,0.0
328113833,-0.023041872,0.03634668,0.0071932795,0.010169497,-0.0143818585,-0.003752009,0.0
328145843,0.049303003,0.02298585,0.011393921,0.010155919,-0.014403869,-0.0037631665,0.0
328177952,0.047055446,0.11243073,0.016789373,0.010161383,-0.014434764,-0.003789296,0.0
328209881,0.009835897,0.006193017,0.027863923,0.010172415,-0.014470001,-0.0038248166,0.0
328241845,-0.021200147,-0.06419097,0.025364516,0.010198777,-0.014504341,-0.0038610238,0.0
328269872,0.043109834,0.22017246,0.011046692,0.010221875,-0.014577329,-0.0038820887,0.0
328301876,0.020159416,0.018735554,0.0045627146,0.01024754,-0.014615011,-0.0039084572,0.0
328333831,-0.05010687,-0.041641355,0.0017661732,0.010282916,-0.0146324625,-0.0039295563,0.0
328365902,-0.08266658,0.0025861026,-0.01620928,0.010311748,-0.014645987,-0.0039495504,0.0
328397914,-0.030490287,0.11062764,-0.0042876424,0.010329272,-0.014709774,-0.0039702808,0.0
328429834,0.05055074,0.22641988,-0.0026235753,0.010332238,-0.014773931,-0.0039925748,0.0
328461833,0.06267868,0.13097125,0.009187027,0.010336593,-0.014828216,-0.0040189414,0.0
328494636,0.04108776,0.123863034,-0.01138746,0.010372965,-0.014863432,-0.004032865,0.0
328527475,-0.10865681,-0.085629,0.031489104,0.010433808,-0.014840194,-0.004057006,0.0
328559459,-0.06231398,-0.098350674,0.0010183346,0.010461663,-0.014824215,-0.004079139,0.0
328591439,0.0175433,-0.033659182,-0.008920592,0.010441446,-0.014875651,-0.004108641,0.0
328623458,0.002285453,0.013838421,0.0017716116,0.0104389535,-0.014914865,-0.0041455477,0.0
328651495,0.024771806,-0.03983492,-0.018031806,0.010439677,-0.014931521,-0.004161969,0.0
328683434,0.034439243,0.0892594,-0.018929362,0.0104445275,-0.014966404,-0.004201367,0.0
328715466,-0.043729324,0.10518645,0.0075349445,0.01046703,-0.015035644,-0.004244897,0.0
328747659,-0.008295771,0.178446,-0.0058778403,0.010486806,-0.01510148,-0.004283102,0.0
328779446,0.07897504,0.11535689,-0.008671554,0.010512078,-0.01507299,-0.004327792,0.0
328811468,0.12991779,0.03539541,-0.0015325886,0.010536961,-0.015059298,-0.004369526,0.0
328843471,0.08867278,0.012308137,-0.00046044937,0.0105803395,-0.015049109,-0.004414438,0.0
328875489,-0.030699233,-0.040522844,0.0064637773,0.010629528,-0.015033083,-0.004456888,0.0
328903542,0.0947834,-0.028842425,0.0021417919,0.010614206,-0.015054971,-0.004497626,0.0
328935439,0.0025278616,-0.08133295,0.009878024,0.010607487,-0.015056903,-0.0045570857,0.0
328967435,-0.13942939,-0.15768316,0.0121924225,0.01063384,-0.015031898,-0.004613325,0.0
328999437,-0.14721219,-0.17834844,-0.0021082433,0.010667602,-0.015029579,-0.0046733143,0.0
329031472,-0.06667801,-0.13264267,-0.012548881,0.010659666,-0.015070781,-0.0047400296,0.0
329063443,0.009808663,-0.030073708,-0.0009686779,0.010625339,-0.015140078,-0.0048111565,0.0
329095462,0.016522294,0.022825627,0.0038401634,0.010607763,-0.015195275,-0.004874031,0.0
329127697,0.015732286,0.067770325,0.0043749805,0.010604005,-0.015215747,-0.004934788,0.0
329159468,-0.013016171,0.039643902,0.014082069,0.010604173,-0.015228112,-0.0050187507,0.0
329191459,-0.05287144,-0.10100588,0.02208162,0.01061116,-0.015243404,-0.0050943517,0.0
329224236,-0.10684768,-0.12626235,-0.0025890854,0.010607336,-0.015232203,-0.0051519405,0.0
329253067,0.023699874,-0.074032836,0.023627935,0.010589269,-0.015213504,-0.005223514,0.0
329285031,-0.033660345,-0.08458316,0.0026673437,0.010579007,-0.015253518,-0.005285816,0.0
329317040,-0.062264927,-0.13734762,-0.006870022,0.010586341,-0.015257296,-0.0053537996,0.0
329349063,-0.052307136,-0.13760003,-0.0065720063,0.010603533,-0.015210032,-0.005419726,0.0
329381062,0.029852502,0.06335515,-0.0010745467,0.010587991,-0.01522746,-0.0054843365,0.0
329413037,0.07307154,0.09958045,0.0030414849,0.010567764,-0.015275252,-0.0055509177,0.0
329445044,0.09700802,-0.0486785,0.003232911,0.010536511,-0.01530754,-0.0056232717,0.0
329477076,0.06833887,-0.14253634,0.0033688769,0.010524695,-0.01532646,-0.005690277,0.0
329509165,-0.020084463,-0.1636106,0.003967637,0.010543023,-0.015331571,-0.005756149,0.0
329537072,0.06156158,0.0978944,0.00027268124,0.010545666,-0.015401607,-0.005808707,0.0
329569107,0.044877745,0.06431464,0.0041531916,0.010562493,-0.015468344,-0.005883309,0.0
329601006,-0.044311706,0.009766869,0.0058516064,0.010590608,-0.015506639,-0.005947642,0.0
329633007,-0.10949854,-0.037052628,-0.0033308868,0.010629481,-0.015476382,-0.0060158493,0.0
329665051,-0.08756743,0.0035487814,-0.020230085,0.01068286,-0.015440609,-0.0060773613,0.0
329697045,0.0018715434,0.07093666,-0.010673372,0.010699207,-0.0154479565,-0.0061488054,0.0
329729081,0.050868355,0.11127214,-0.00022576004,0.010700281,-0.015445408,-0.0062171794,0.0
329757196,-0.08762954,-0.10790559,-0.04827439,0.010727158,-0.015403178,-0.0062661814,0.0
329789031,0.0068882033,-0.041505516,-0.02102265,0.010730867,-0.015383605,-0.0063334526,0.0
329821032,0.08451888,0.041558083,-0.015386017,0.010696002,-0.015401769,-0.0063901036,0.0
329853057,0.11692867,0.08846956,-0.019937046,0.010667054,-0.015413127,-0.0064449687,0.0
329885085,0.11005432,0.1417055,-0.019650247,0.010625462,-0.015404221,-0.006493758,0.0
329917090,0.06473413,0.23546723,-0.021193536,0.010563805,-0.015393463,-0.006524312,0.0
329949058,0.012716937,-0.024364024,-0.000462682,0.010526338,-0.015312154,-0.0065594,0.0
329977910,0.009756136,0.14980678,-0.025775325,0.010502864,-0.015276453,-0.0065748603,0.0
330009825,0.1309099,0.009110369,-0.018670645,0.010477712,-0.015195092,-0.006591917,0.0
330041897,-0.16558938,-0.0954534,-0.01773288,0.010491911,-0.0152042415,-0.006608304,0.0
330073875,-0.009583538,0.035299987,-0.0058317273,0.010458245,-0.015237994,-0.006611564,0.0
330105863,0.06493727,0.054492906,-0.0144256605,0.0104276175,-0.015231881,-0.0066170897,0.0
330137918,-0.061313182,-0.07143145,-0.010579941,0.0104184635,-0.015180932,-0.0066162054,0.0
330173848,-0.041006956,-0.23128006,-0.011178244,0.010386931,-0.015155013,-0.0066267,0.0
330201874,0.016114894,0.19444047,-0.01117073,0.0103767635,-0.015187267,-0.006628523,0.0
330233864,-0.05064847,-0.28817132,-0.008114234,0.010380177,-0.015111424,-0.0066325758,0.0
330265829,0.015794523,0.1095383,-0.029459324,0.010349495,-0.015021749,-0.0066360817,0.0
330297925,0.059478655,-0.014157693,-0.013632712,0.010353087,-0.014975945,-0.006623673,0.0
330329865,-0.024260625,-0.008179543,-0.0031619454,0.010335379,-0.014939774,-0.0066248653,0.0
330361832,-0.0018445409,0.099451594,-0.030980231,0.010333606,-0.014974563,-0.0066062543,0.0
330393825,0.0350758,0.10651721,-0.008492606,0.010345133,-0.01495673,-0.006613179,0.0
330425854,-0.06991383,-0.24404885,-0.028410979,0.010321942,-0.014858162,-0.006605317,0.0
330457936,0.08911734,0.3580934,-0.017881423,0.010278498,-0.0147961425,-0.0066042314,0.0
330489825,0.008658159,-0.21588275,-0.046151403,0.010298107,-0.014785179,-0.00659542,0.0
330521849,-0.02270421,0.17867349,0.01132318,0.010238088,-0.014901397,-0.006599706,0.0
330553848,0.016497403,-0.11497507,-0.022669459,0.010194992,-0.014891458,-0.006610898,0.0
330585926,-0.083059125,0.10935402,-0.008666938,0.010228868,-0.014930588,-0.0066308524,0.0
330617930,0.034330074,-0.24818867,-0.0010125092,0.010210402,-0.014866906,-0.006640858,0.0
330649877,0.044052526,0.30361632,0.003133713,0.010191502,-0.014923906,-0.00666638,0.0
330681888,-0.052558705,-0.37046582,-0.017183324,0.010207782,-0.014835514,-0.006681882,0.0
330713899,0.02937933,0.19798627,-0.0063771005,0.010175589,-0.014838221,-0.0067021917,0.0
330745800,0.047377124,-0.14690931,-0.0012562266,0.010195598,-0.014685028,-0.0067411084,0.0
330777870,-0.15481627,0.15703487,-0.009910306,0.01024718,-0.014793792,-0.006746753,0.0
330809813,0.060141608,-0.08987746,-0.0050489055,0.010203571,-0.014806847,-0.006772826,0.0
330841858,-0.06580933,0.15648106,0.00727173,0.010224961,-0.014870396,-0.006831358,0.0
330873816,-0.0068193376,-0.27475095,0.0053050197,0.01025752,-0.0147975,-0.0068720635,0.0
330905878,-0.0045663156,0.20225102,-0.007863942,0.010271888,-0.01482195,-0.006907704,0.0
330939495,0.09692839,-0.06388871,-0.008886032,0.010239323,-0.014668605,-0.0069513223,0.0
330971457,-0.05375283,0.058496024,-0.0004748567,0.010252554,-0.014632706,-0.006996604,0.0
331003558,-0.06748486,-0.16271353,0.012447629,0.01026909,-0.014623102,-0.0070179575,0.0
331035441,0.045824666,0.1697932,-0.015451704,0.0102381725,-0.014646002,-0.0070525305,0.0
331067440,0.026184797,-0.10186502,0.007512409,0.010238137,-0.014472248,-0.0070986273,0.0
331099449,-0.120739594,-0.08183846,0.016906297,0.010234571,-0.014409723,-0.007148736,0.0
331131453,0.085476,0.07577815,-0.0046348907,0.01023105,-0.014377518,-0.0071784225,0.0
331163410,0.046086356,0.036268048,-0.008071727,0.010232866,-0.01433376,-0.007227972,0.0
331195407,-0.038628083,0.0022525794,-0.006806986,0.010213046,-0.014218968,-0.007289155,0.0
331227475,-0.040747374,-0.23110348,0.00097131776,0.010204037,-0.014201341,-0.0073351464,0.0
331259470,0.051141523,0.3862329,-0.019325443,0.010189997,-0.014184029,-0.0073899054,0.0
331291464,0.027077897,-0.15428588,0.0044143847,0.010162609,-0.014094724,-0.0074350494,0.0
331323436,-0.05729597,0.20126517,0.0048720404,0.010159404,-0.014219671,-0.0074848887,0.0
331355466,0.04010314,-0.20517407,-0.020288974,0.010133424,-0.014200935,-0.0075466484,0.0
331387484,0.095560335,0.30363125,-0.036554318,0.010096789,-0.014207124,-0.0075976625,0.0
331419510,0.03215565,-0.23654903,-0.009833923,0.010062743,-0.0141159585,-0.007641901,0.0
331451475,-0.10856321,0.002605224,0.002937919,0.01002775,-0.014198371,-0.0076784226,0.0
331483478,0.116099596,0.055199813,-0.02005404,0.009937571,-0.014209271,-0.0076970933,0.0
331515467,-0.02718211,0.03345771,0.012163781,0.009896397,-0.014240843,-0.007744345,0.0
331547483,-0.058136493,-0.16625968,0.007060257,0.009887598,-0.014250277,-0.00775593,0.0
331579439,0.02288046,0.045906346,-0.020399671,0.009857612,-0.014295185,-0.0077910065,0.0
331611469,0.029581603,0.19952115,-0.016526151,0.009821565,-0.014305074,-0.007802507,0.0
331643651,-0.027776105,-0.0046964986,0.020681532,0.00982263,-0.014333054,-0.0078431945,0.0
331673031,-0.096818924,-0.12406803,-0.003232434,0.009873823,-0.014336616,-0.007881722,0.0
331705072,-0.09038803,-0.10042798,-0.0038870214,0.0099096345,-0.014351751,-0.007914945,0.0
331737072,-0.088441156,-0.015786134,0.0010885461,0.009939099,-0.014364551,-0.007936734,0.0
331769111,0.025058249,0.18351743,0.012447264,0.009955275,-0.014374324,-0.007972592,0.0
331801032,0.13633636,0.23072961,0.010835859,0.009927056,-0.014352849,-0.007990104,0.0
331829041,-0.026667453,-0.021770515,-0.019043626,0.009940559,-0.014295754,-0.0079988185,0.0
331861038,0.09245446,0.14602485,-0.0075275307,0.009912345,-0.014301748,-0.008024682,0.0
331893133,0.14813913,0.07961637,-0.02449455,0.0098981755,-0.014292885,-0.008035279,0.0
331925074,0.10763958,-0.01181531,2.6714057e-05,0.00986029,-0.014310029,-0.008060201,0.0
331957057,-0.022485515,-0.106037185,-0.005056481,0.009825808,-0.014325398,-0.008087407,0.0
331989069,-0.109294295,-0.15213828,-0.023946974,0.009815582,-0.014319794,-0.008098903,0.0
332021099,-0.100114875,-0.067436844,-0.045144603,0.009840512,-0.014327583,-0.008120453,0.0
332053080,-0.021852596,0.08933078,-0.027556108,0.009842966,-0.014387605,-0.008150333,0.0
332081068,-0.09807458,-0.06036054,0.0004905085,0.009796504,-0.014402963,-0.0081684515,0.0
332113055,-0.10803804,-0.02210864,-0.008830948,0.009792075,-0.014408007,-0.008180015,0.0
332145063,-0.067926176,0.078980744,-0.0064762407,0.009855504,-0.01439195,-0.008203225,0.0
332177030,0.020402832,0.14491281,-0.0043581203,0.009875521,-0.014385576,-0.008219934,0.0
332209114,0.06616398,0.12164926,-0.0017847172,0.0098599205,-0.014371116,-0.008232458,0.0
332241072,0.09108849,-0.004293449,-0.017861567,0.009872853,-0.01434965,-0.008235809,0.0
332273067,0.11144808,-0.04880715,-0.017169185,0.009904039,-0.014312936,-0.008244259,0.0
332305033,0.05613037,-0.071609624,-0.0100951195,0.0099029895,-0.014303963,-0.008256642,0.0
332337091,0.012571543,-0.11685015,-0.006571595,0.009865873,-0.014297636,-0.008257683,0.0
332369093,-0.07704231,-0.10717311,-0.0045836777,0.009860588,-0.014289336,-0.008261203,0.0
332401844,-0.11759724,-0.06805398,-0.016770609,0.009871805,-0.014322793,-0.008266115,0.0
332434691,-0.012205027,0.019904021,-0.027003685,0.009857844,-0.014339101,-0.008266339,0.0
332466646,-0.017568637,0.05917427,-0.025936361,0.009858556,-0.0143339075,-0.008276263,0.0
332498679,0.0049988036,0.093727686,-0.024471894,0.009865405,-0.014343513,-0.0082654115,0.0
332530667,0.0577475,0.12482871,-0.015982915,0.009853529,-0.014341907,-0.008253702,0.0
332562636,0.045049906,0.08996199,-0.008663647,0.009849561,-0.014303442,-0.008244398,0.0
332594643,0.07321523,0.13874632,-0.009740042,0.009861673,-0.014306951,-0.00822939,0.0
332626682,0.0261035,0.058911026,0.0005279663,0.009875897,-0.014310967,-0.008223422,0.0
332658673,0.029479118,0.019246753,-0.0075111585,0.009828844,-0.014291819,-0.008202118,0.0
332690636,-0.0093198875,-0.002330263,-0.02422871,0.009832397,-0.014273913,-0.008188634,0.0
332722652,0.02789678,-0.018584188,-0.025300458,0.009849186,-0.014268863,-0.008162977,0.0
332754668,0.010537667,-0.006402851,-0.017497212,0.009829988,-0.014255998,-0.008148307,0.0
332786709,-0.021680012,0.110939115,-0.03325052,0.009802676,-0.014259466,-0.008124117,0.0
332818606,-0.025242114,0.17618203,-0.028807893,0.009811769,-0.014283413,-0.008097866,0.0
