timestamp,vel_pos_innov[0],vel_pos_innov[1],vel_pos_innov[2],vel_pos_innov[3],vel_pos_innov[4],vel_pos_innov[5],mag_innov[0],mag_innov[1],mag_innov[2],heading_innov,airspeed_innov,beta_innov,flow_innov[0],flow_innov[1],hagl_innov,vel_pos_innov_var[0],vel_pos_innov_var[1],vel_pos_innov_var[2],vel_pos_innov_var[3],vel_pos_innov_var[4],vel_pos_innov_var[5],mag_innov_var[0],mag_innov_var[1],mag_innov_var[2],heading_innov_var,airspeed_innov_var,beta_innov_var,flow_innov_var[0],flow_innov_var[1],hagl_innov_var,output_tracking_error[0],output_tracking_error[1],output_tracking_error[2],drag_innov[0],drag_innov[1],drag_innov_var[0],drag_innov_var[1],aux_vel_innov[0],aux_vel_innov[1]
310017402,0.0,0.0,0.0,-0.0032675383,-0.00082484604,-0.118927,0.0,0.0,0.0,0.024747789,0.0,0.0,0.0,0.0,0.007276304,0.0,0.0,0.0,0.2575977,0.25759766,4.0623226,0.0,0.0,0.0,0.090146944,0.0,0.0,0.0,0.0,0.09655199,0.00039642112,0.0011281836,0.0024655717,0.0,0.0,0.0,0.0,0.0,0.0
310218879,0.0,0.0,0.0,-0.003406246,-0.0011777634,-0.1343689,0.0,0.0,0.0,0.0070232153,0.0,0.0,0.0,0.0,0.010306314,0.0,0.0,0.0,0.25770968,0.25770965,4.06287,0.0,0.0,0.0,0.09014698,0.0,0.0,0.0,0.0,0.097396985,0.00043195827,0.0023427422,0.006765843,0.0,0.0,0.0,0.0,0.0,0.0
310419772,0.0,0.0,0.0,-0.003359311,-0.0014384715,-0.04701233,0.0,0.0,0.0,0.017214268,0.0,0.0,0.0,0.0,0.00078995526,0.0,0.0,0.0,0.25771636,0.2577163,4.063014,0.0,0.0,0.0,0.09014701,0.0,0.0,0.0,0.0,0.09703133,0.00044315952,0.003346985,0.009061814,0.0,0.0,0.0,0.0,0.0,0.0
310627820,0.0,0.0,0.0,-0.0031971773,-0.0015884787,-0.00340271,0.0,0.0,0.0,0.012377828,0.0,0.0,0.0,0.0,0.00036887825,0.0,0.0,0.0,0.25757122,0.25757116,4.062497,0.0,0.0,0.0,0.09014704,0.0,0.0,0.0,0.0,0.09650305,0.00046978655,0.0041739913,0.012343107,0.0,0.0,0.0,0.0,0.0,0.0
310825254,0.0,0.0,0.0,-0.003078822,-0.0017982266,-0.17883301,0.0,0.0,0.0,0.056815177,0.0,0.0,0.0,0.0,0.009078398,0.0,0.0,0.0,0.25767702,0.25767696,4.063013,0.0,0.0,0.0,0.090146996,0.0,0.0,0.0,0.0,0.09695775,0.000632967,0.0033811438,0.010897184,0.0,0.0,0.0,0.0,0.0,0.0
311025305,0.0,0.0,0.0,-0.0028027084,-0.0019420048,-0.19996643,0.0,0.0,0.0,0.015008271,0.0,0.0,0.0,0.0,0.00016203523,0.0,0.0,0.0,0.25772431,0.2577243,4.0633144,0.0,0.0,0.0,0.09014702,0.0,0.0,0.0,0.0,0.09684281,0.0007538627,0.004702185,0.015377962,0.0,0.0,0.0,0.0,0.0,0.0
311225254,0.0,0.0,0.0,-0.0024448086,-0.002070086,0.22428894,0.0,0.0,0.0,0.025267422,0.0,0.0,0.0,0.0,0.002676174,0.0,0.0,0.0,0.25770438,0.25770435,4.0633674,0.0,0.0,0.0,0.09014697,0.0,0.0,0.0,0.0,0.09804875,0.0007409797,0.004483735,0.014715627,0.0,0.0,0.0,0.0,0.0,0.0
311433273,0.0,0.0,0.0,-0.0021927627,-0.0021694575,0.14434814,0.0,0.0,0.0,0.015716314,0.0,0.0,0.0,0.0,0.00021369755,0.0,0.0,0.0,0.25776115,0.25776112,4.0637164,0.0,0.0,0.0,0.09014684,0.0,0.0,0.0,0.0,0.09842737,0.0006804839,0.0034671947,0.011501529,0.0,0.0,0.0,0.0,0.0,0.0
311634931,0.0,0.0,0.0,-0.0019552242,-0.002135193,0.026550293,0.0,0.0,0.0,0.019568503,0.0,0.0,0.0,0.0,0.00077266246,0.0,0.0,0.0,0.2576794,0.25767937,4.0634656,0.0,0.0,0.0,0.09014688,0.0,0.0,0.0,0.0,0.09886105,0.00067040685,0.0038701058,0.01210386,0.0,0.0,0.0,0.0,0.0,0.0
311834930,0.0,0.0,0.0,-0.0018724394,-0.002206015,-0.19491577,0.0,0.0,0.0,0.03150496,0.0,0.0,0.0,0.0,0.0012674108,0.0,0.0,0.0,100.00799,100.00799,4.063842,0.0,0.0,0.0,0.09014691,0.0,0.0,0.0,0.0,0.09787745,0.000692795,0.0016084524,0.0034060325,0.0,0.0,0.0,0.0,0.0,0.0
312042875,0.0,0.0,0.0,-0.0023407661,-0.0027893912,-0.031234741,0.0,0.0,0.0,0.045039058,0.0,0.0,0.0,0.0,0.0012674108,0.0,0.0,0.0,100.01035,100.01035,4.0644684,0.0,0.0,0.0,0.09014694,0.0,0.0,0.0,0.0,0.09787745,0.0006469182,0.0012417594,0.0031203597,0.0,0.0,0.0,0.0,0.0,0.0
312244648,0.0,0.0,0.0,-0.0029245233,-0.0034880484,0.13265991,0.0,0.0,0.0,0.038776547,0.0,0.0,0.0,0.0,0.0012674108,0.0,0.0,0.0,100.01334,100.01334,4.0640206,0.0,0.0,0.0,0.09014697,0.0,0.0,0.0,0.0,0.09787745,0.0006922271,0.00061825453,0.0013572813,0.0,0.0,0.0,0.0,0.0,0.0
312444462,0.0,0.0,0.0,-0.0036654815,-0.0042985682,-0.35784912,0.0,0.0,0.0,-0.0013612211,0.0,0.0,0.0,0.0,0.0012674108,0.0,0.0,0.0,100.01711,100.01711,4.063696,0.0,0.0,0.0,0.090146996,0.0,0.0,0.0,0.0,0.09787745,0.0005481325,0.0029515303,0.008123877,0.0,0.0,0.0,0.0,0.0,0.0
312652642,0.0,0.0,0.0,-0.004538415,-0.0050776983,0.13449097,0.0,0.0,0.0,-0.0071308017,0.0,0.0,0.0,0.0,0.0012674108,0.0,0.0,0.0,100.02212,100.02212,4.064024,0.0,0.0,0.0,0.09014711,0.0,0.0,0.0,0.0,0.09787745,0.00048488716,0.0007671786,0.0018213036,0.0,0.0,0.0,0.0,0.0,0.0
312852658,0.0,0.0,0.0,-0.005410473,-0.005670523,-0.22541809,0.0,0.0,0.0,0.012179166,0.0,0.0,0.0,0.0,0.0012674108,0.0,0.0,0.0,100.0273,100.0273,4.0639133,0.0,0.0,0.0,0.09014714,0.0,0.0,0.0,0.0,0.09787745,0.00048251488,0.0039343303,0.011705081,0.0,0.0,0.0,0.0,0.0,0.0
313054167,0.0,0.0,0.0,-0.0064766784,-0.0065870183,0.08105469,0.0,0.0,0.0,0.018387675,0.0,0.0,0.0,0.0,0.0012674108,0.0,0.0,0.0,100.03431,100.03431,4.063868,0.0,0.0,0.0,0.09014716,0.0,0.0,0.0,0.0,0.09787745,0.0005553379,0.0061118435,0.01877416,0.0,0.0,0.0,0.0,0.0,0.0
313262137,0.0,0.0,0.0,-0.0077578537,-0.007382023,0.0953064,0.0,0.0,0.0,0.012921363,0.0,0.0,0.0,0.0,0.0012674108,0.0,0.0,0.0,100.042435,100.042435,4.0645204,0.0,0.0,0.0,0.09014703,0.0,0.0,0.0,0.0,0.09787745,0.000612573,0.0045429925,0.014690837,0.0,0.0,0.0,0.0,0.0,0.0
313462036,0.0,0.0,0.0,-0.009297751,-0.0085600605,-0.07223511,0.0,0.0,0.0,0.019131929,0.0,0.0,0.0,0.0,0.0012674108,0.0,0.0,0.0,100.05274,100.05274,4.0647383,0.0,0.0,0.0,0.090147056,0.0,0.0,0.0,0.0,0.09787745,0.00058771606,0.00044215578,0.00077872444,0.0,0.0,0.0,0.0,0.0,0.0
313662156,0.0,0.0,0.0,-0.010379008,-0.010231635,-0.109436035,0.0,0.0,0.0,0.00930208,0.0,0.0,0.0,0.0,0.0012674108,0.0,0.0,0.0,100.06392,100.06392,4.0642323,0.0,0.0,0.0,0.09014708,0.0,0.0,0.0,0.0,0.09787745,0.00037414557,0.0014361441,0.004533135,0.0,0.0,0.0,0.0,0.0,0.0
313868163,0.0,0.0,0.0,-0.012660226,-0.010653659,-0.37322998,0.0,0.0,0.0,0.018113256,0.0,0.0,0.0,0.0,0.0012674108,0.0,0.0,0.0,100.07724,100.07723,4.0640407,0.0,0.0,0.0,0.09014702,0.0,0.0,0.0,0.0,0.09787745,0.0004179851,0.005802396,0.017629463,0.0,0.0,0.0,0.0,0.0,0.0
314067844,0.0,0.0,0.0,-0.014626975,-0.01081941,0.08847046,0.0,0.0,0.0,0.03403595,0.0,0.0,0.0,0.0,0.0012674108,0.0,0.0,0.0,100.09084,100.090836,4.06391,0.0,0.0,0.0,0.09014705,0.0,0.0,0.0,0.0,0.09787745,0.00056997035,0.0023937677,0.007782708,0.0,0.0,0.0,0.0,0.0,0.0
314275688,0.0,0.0,0.0,-0.016650267,-0.0111500565,-0.008728027,0.0,0.0,0.0,-0.009174317,0.0,0.0,0.0,0.0,0.0012674108,0.0,0.0,0.0,100.1098,100.1098,4.064518,0.0,0.0,0.0,0.09014708,0.0,0.0,0.0,0.0,0.09787745,0.0004248004,0.003652611,0.010523276,0.0,0.0,0.0,0.0,0.0,0.0
314477283,0.0,0.0,0.0,-0.017693749,-0.010985247,-0.20709229,0.0,0.0,0.0,0.033049554,0.0,0.0,0.0,0.0,0.0012674108,0.0,0.0,0.0,100.12905,100.12905,4.065035,0.0,0.0,0.0,0.09014709,0.0,0.0,0.0,0.0,0.09787745,0.00045032077,0.0006017176,0.0024567875,0.0,0.0,0.0,0.0,0.0,0.0
314677360,0.0,0.0,0.0,-0.019212127,-0.007943096,0.35302734,0.0,0.0,0.0,0.041622728,0.0,0.0,0.0,0.0,0.0012674108,0.0,0.0,0.0,100.15059,100.15058,4.064541,0.0,0.0,0.0,0.09014705,0.0,0.0,0.0,0.0,0.09787745,0.0005204608,0.0065934095,0.020539923,0.0,0.0,0.0,0.0,0.0,0.0
314885320,0.0,0.0,0.0,-0.020378364,-0.003912887,0.11488342,0.0,0.0,0.0,0.019324154,0.0,0.0,0.0,0.0,0.0012674108,0.0,0.0,0.0,100.175606,100.175606,4.065342,0.0,0.0,0.0,0.09014699,0.0,0.0,0.0,0.0,0.09787745,0.0006291133,0.0101736,0.03201222,0.0,0.0,0.0,0.0,0.0,0.0
315491033,0.0,0.0,0.0,-0.0046818517,0.04317164,-0.6455231,0.0,0.0,0.0,0.10403404,0.0,0.0,0.0,0.0,0.021828271,0.0,0.0,0.0,100.259926,100.259926,4.065171,0.0,0.0,0.0,0.090147324,0.0,0.0,0.0,0.0,0.15465932,0.0012078361,0.0048505235,0.011501982,0.0,0.0,0.0,0.0,0.0,0.0
315691000,0.0,0.0,0.0,0.023568,0.1060328,-0.28634644,0.0,0.0,0.0,0.081214875,0.0,0.0,0.0,0.0,0.014026523,0.0,0.0,0.0,100.29335,100.29334,4.065556,0.0,0.0,0.0,0.09014731,0.0,0.0,0.0,0.0,0.11149208,0.0015578889,0.0092606265,0.027322883,0.0,0.0,0.0,0.0,0.0,0.0
315898896,0.0,0.0,0.0,0.07096279,0.19951044,-0.034240723,0.0,0.0,0.0,0.08599639,0.0,0.0,0.0,0.0,0.06985986,0.0,0.0,0.0,100.32966,100.32965,4.0652337,0.0,0.0,0.0,0.090147234,0.0,0.0,0.0,0.0,0.11196018,0.0015723977,0.0031097345,0.008954509,0.0,0.0,0.0,0.0,0.0,0.0
316096484,0.0,0.0,0.0,0.13576047,0.31479755,0.08885193,0.0,0.0,0.0,0.0633015,0.0,0.0,0.0,0.0,0.08253478,0.0,0.0,0.0,100.36895,100.36894,4.0651445,0.0,0.0,0.0,0.090147205,0.0,0.0,0.0,0.0,0.10132585,0.0012657515,0.0050382586,0.0155003555,0.0,0.0,0.0,0.0,0.0,0.0
316304580,0.0,0.0,0.0,0.20376487,0.42855552,-0.22694397,0.0,0.0,0.0,0.077245235,0.0,0.0,0.0,0.0,0.08006618,0.0,0.0,0.0,100.40472,100.4047,4.064236,0.0,0.0,0.0,0.09014722,0.0,0.0,0.0,0.0,0.11319265,0.0014263422,0.005721609,0.016232705,0.0,0.0,0.0,0.0,0.0,0.0
316504479,0.0,0.0,0.0,0.29247624,0.57283336,0.43019104,0.0,0.0,0.0,0.10806966,0.0,0.0,0.0,0.0,0.07824906,0.0,0.0,0.0,100.4459,100.44588,4.0634623,0.0,0.0,0.0,0.090147175,0.0,0.0,0.0,0.0,0.10568904,0.0020014606,0.007956451,0.024571922,0.0,0.0,0.0,0.0,0.0,0.0
316710187,0.0,0.0,0.0,0.38965103,0.72768754,0.43855286,0.0,0.0,0.0,0.08511028,0.0,0.0,0.0,0.0,0.062252417,0.0,0.0,0.0,100.48748,100.487434,4.0640707,0.0,0.0,0.0,0.09014715,0.0,0.0,0.0,0.0,0.098767795,0.0020929887,0.009047779,0.03025085,0.0,0.0,0.0,0.0,0.0,0.0
316910163,0.0,0.0,0.0,0.49227402,0.88372153,0.11029053,0.0,0.0,0.0,0.03452626,0.0,0.0,0.0,0.0,0.008053765,0.0,0.0,0.0,100.52653,100.52647,4.0635695,0.0,0.0,0.0,0.090147115,0.0,0.0,0.0,0.0,0.09691865,0.0015262349,0.01507924,0.050169297,0.0,0.0,0.0,0.0,0.0,0.0
317118106,0.0,0.0,0.0,0.5974894,1.0322524,-0.021438599,0.0,0.0,0.0,-0.0067466497,0.0,0.0,0.0,0.0,-0.011575699,0.0,0.0,0.0,100.56612,100.56603,4.063184,0.0,0.0,0.0,0.09014698,0.0,0.0,0.0,0.0,0.10465835,0.00074867083,0.01669729,0.05794153,0.0,0.0,0.0,0.0,0.0,0.0
317318311,0.0,0.0,0.0,0.6983164,1.1621085,0.16925049,0.0,0.0,0.0,0.00090655684,0.0,0.0,0.0,0.0,-0.013401151,0.0,0.0,0.0,100.60519,100.60509,4.062891,0.0,0.0,0.0,0.090147,0.0,0.0,0.0,0.0,0.09799376,0.0005258882,0.018710889,0.066442825,0.0,0.0,0.0,0.0,0.0,0.0
317519745,0.0,0.0,0.0,0.8011051,1.2820979,0.24406433,0.0,0.0,0.0,-0.01021111,0.0,0.0,0.0,0.0,0.0075789094,0.0,0.0,0.0,100.64897,100.64886,4.063266,0.0,0.0,0.0,0.09014702,0.0,0.0,0.0,0.0,0.10979609,0.00061519473,0.023088697,0.08284538,0.0,0.0,0.0,0.0,0.0,0.0
317719716,0.0,0.0,0.0,0.8819837,1.3672299,0.39123535,0.0,0.0,0.0,-0.040049374,0.0,0.0,0.0,0.0,0.026827037,0.0,0.0,0.0,100.68743,100.68731,4.0636377,0.0,0.0,0.0,0.09014712,0.0,0.0,0.0,0.0,0.10252563,0.00070361636,0.025390793,0.09205892,0.0,0.0,0.0,0.0,0.0,0.0
317919794,0.0,0.0,0.0,0.94651824,1.4249855,0.5519104,0.0,0.0,0.0,0.0033486784,0.0,0.0,0.0,0.0,0.0366264,0.0,0.0,0.0,100.72076,100.720634,4.0635743,0.0,0.0,0.0,0.09014714,0.0,0.0,0.0,0.0,0.10504419,0.0007761917,0.026066672,0.096112266,0.0,0.0,0.0,0.0,0.0,0.0
318119609,0.0,0.0,0.0,1.0118036,1.4727237,0.34735107,0.0,0.0,0.0,-0.013428628,0.0,0.0,0.0,0.0,0.032946527,0.0,0.0,0.0,100.75977,100.75965,4.0638585,0.0,0.0,0.0,0.09014716,0.0,0.0,0.0,0.0,0.101057604,0.0008431596,0.029914103,0.11198485,0.0,0.0,0.0,0.0,0.0,0.0
318321292,0.0,0.0,0.0,1.0632423,1.4998873,-0.14025879,0.0,0.0,0.0,-0.010967582,0.0,0.0,0.0,0.0,0.027841449,0.0,0.0,0.0,100.79598,100.79587,4.064453,0.0,0.0,0.0,0.09014717,0.0,0.0,0.0,0.0,0.10244638,0.0008563988,0.028574765,0.11004359,0.0,0.0,0.0,0.0,0.0,0.0
319331044,0.0,0.0,0.0,1.1460651,1.3563337,0.008804321,0.0,0.0,0.0,-0.029198319,0.0,0.0,0.0,0.0,0.04756546,0.0,0.0,0.0,100.93122,100.9312,4.064774,0.0,0.0,0.0,0.09014703,0.0,0.0,0.0,0.0,0.11217262,0.001539075,0.025593692,0.10905432,0.0,0.0,0.0,0.0,0.0,0.0
319538895,0.0,0.0,0.0,1.1310279,1.2846688,-0.07104492,0.0,0.0,0.0,-0.015064865,0.0,0.0,0.0,0.0,0.030671597,0.0,0.0,0.0,100.94949,100.949486,4.064574,0.0,0.0,0.0,0.090147056,0.0,0.0,0.0,0.0,0.11553826,0.0014767008,0.023066392,0.10106842,0.0,0.0,0.0,0.0,0.0,0.0
319740528,0.0,0.0,0.0,1.1148642,1.2141224,0.012313843,0.0,0.0,0.0,-0.022678673,0.0,0.0,0.0,0.0,0.009507656,0.0,0.0,0.0,100.96703,100.96703,4.064754,0.0,0.0,0.0,0.09014707,0.0,0.0,0.0,0.0,0.1223214,0.0012014534,0.019042589,0.08329753,0.0,0.0,0.0,0.0,0.0,0.0
319940523,0.0,0.0,0.0,1.0851593,1.1263423,-0.3582611,0.0,0.0,0.0,-0.057338417,0.0,0.0,0.0,0.0,-0.048256874,0.0,0.0,0.0,100.97351,100.973526,4.063972,0.0,0.0,0.0,0.0901471,0.0,0.0,0.0,0.0,0.12700243,0.0010564878,0.023073308,0.09021743,0.0,0.0,0.0,0.0,0.0,0.0
320140503,0.0,0.0,0.0,1.0596775,1.0344577,-0.20214844,0.0,0.0,0.0,-0.0700807,0.0,0.0,0.0,0.0,-0.025690317,0.0,0.0,0.0,100.988075,100.988106,4.0641994,0.0,0.0,0.0,0.09014736,0.0,0.0,0.0,0.0,0.12792502,0.0011717286,0.02087808,0.08352861,0.0,0.0,0.0,0.0,0.0,0.0
320348617,0.0,0.0,0.0,1.0336654,0.95137656,-0.37301636,0.0,0.0,0.0,-0.06481311,0.0,0.0,0.0,0.0,-0.020084381,0.0,0.0,0.0,101.00245,101.00248,4.0647087,0.0,0.0,0.0,0.09014722,0.0,0.0,0.0,0.0,0.12762554,0.0013716533,0.016764682,0.06521593,0.0,0.0,0.0,0.0,0.0,0.0
320550103,0.0,0.0,0.0,0.99436814,0.85736626,-0.17042542,0.0,0.0,0.0,-0.05903852,0.0,0.0,0.0,0.0,-0.017690897,0.0,0.0,0.0,101.008514,101.00855,4.0645137,0.0,0.0,0.0,0.090147234,0.0,0.0,0.0,0.0,0.13229455,0.001194394,0.014600688,0.059061866,0.0,0.0,0.0,0.0,0.0,0.0
320750039,0.0,0.0,0.0,0.95906025,0.7716734,-0.3509674,0.0,0.0,0.0,-0.0752683,0.0,0.0,0.0,0.0,0.014261484,0.0,0.0,0.0,101.020004,101.02004,4.0650663,0.0,0.0,0.0,0.09014726,0.0,0.0,0.0,0.0,0.12625054,0.0013205225,0.013118887,0.049304448,0.0,0.0,0.0,0.0,0.0,0.0
320958129,0.0,0.0,0.0,0.9131545,0.6787035,-0.15653992,0.0,0.0,0.0,-0.08946118,0.0,0.0,0.0,0.0,-0.033582687,0.0,0.0,0.0,101.022194,101.02223,4.064793,0.0,0.0,0.0,0.09014727,0.0,0.0,0.0,0.0,0.1248202,0.0012269696,0.01616358,0.05637826,0.0,0.0,0.0,0.0,0.0,0.0
321159674,0.0,0.0,0.0,0.87136656,0.595367,-0.35513306,0.0,0.0,0.0,-0.10220471,0.0,0.0,0.0,0.0,-0.016797066,0.0,0.0,0.0,101.02642,101.02646,4.064903,0.0,0.0,0.0,0.090147294,0.0,0.0,0.0,0.0,0.12120827,0.0013507117,0.012279088,0.043046314,0.0,0.0,0.0,0.0,0.0,0.0
321359717,0.0,0.0,0.0,0.821444,0.50152534,0.22322083,0.0,0.0,0.0,-0.096646786,0.0,0.0,0.0,0.0,-0.016431332,0.0,0.0,0.0,101.02723,101.02726,4.064761,0.0,0.0,0.0,0.090147294,0.0,0.0,0.0,0.0,0.117986016,0.0016368274,0.010286817,0.039603647,0.0,0.0,0.0,0.0,0.0,0.0
321559841,0.0,0.0,0.0,0.77651906,0.4166489,-0.5857086,0.0,0.0,0.0,-0.1095466,0.0,0.0,0.0,0.0,0.01429224,0.0,0.0,0.0,101.03007,101.03009,4.0648856,0.0,0.0,0.0,0.090147234,0.0,0.0,0.0,0.0,0.11674829,0.0022659318,0.011231909,0.043088682,0.0,0.0,0.0,0.0,0.0,0.0
321759669,0.0,0.0,0.0,0.7207798,0.32399356,0.45355225,0.0,0.0,0.0,-0.123687506,0.0,0.0,0.0,0.0,0.046105146,0.0,0.0,0.0,101.026474,101.02648,4.0643687,0.0,0.0,0.0,0.09014725,0.0,0.0,0.0,0.0,0.11368477,0.0025695276,0.012382901,0.048203602,0.0,0.0,0.0,0.0,0.0,0.0
321969393,0.0,0.0,0.0,0.6677231,0.23096156,0.2528839,0.0,0.0,0.0,-0.14707261,0.0,0.0,0.0,0.0,0.047089577,0.0,0.0,0.0,101.03715,101.03715,4.0651846,0.0,0.0,0.0,0.09014743,0.0,0.0,0.0,0.0,0.12111913,0.0025167202,0.014459293,0.058667995,0.0,0.0,0.0,0.0,0.0,0.0
322169267,0.0,0.0,0.0,0.6044484,0.13790368,-0.012634277,0.0,0.0,0.0,-0.093527675,0.0,0.0,0.0,0.0,0.028374195,0.0,0.0,0.0,101.03454,101.03452,4.06468,0.0,0.0,0.0,0.09014729,0.0,0.0,0.0,0.0,0.11649925,0.0024931626,0.016569147,0.06721313,0.0,0.0,0.0,0.0,0.0,0.0
322369452,0.0,0.0,0.0,0.5468346,0.051428244,-0.0011291504,0.0,0.0,0.0,-0.06510809,0.0,0.0,0.0,0.0,0.02188921,0.0,0.0,0.0,101.038414,101.03839,4.064858,0.0,0.0,0.0,0.09014731,0.0,0.0,0.0,0.0,0.12589136,0.002105856,0.016967677,0.07228706,0.0,0.0,0.0,0.0,0.0,0.0
322577317,0.0,0.0,0.0,0.47790113,-0.04035971,-0.22732544,0.0,0.0,0.0,-0.10489488,0.0,0.0,0.0,0.0,-0.006542921,0.0,0.0,0.0,101.03137,101.03134,4.0640216,0.0,0.0,0.0,0.09014733,0.0,0.0,0.0,0.0,0.12460241,0.0018047149,0.018054968,0.076774724,0.0,0.0,0.0,0.0,0.0,0.0
322774938,0.0,0.0,0.0,0.41961765,-0.123522006,0.08190918,0.0,0.0,0.0,-0.037377298,0.0,0.0,0.0,0.0,-0.019460201,0.0,0.0,0.0,101.029724,101.02968,4.063829,0.0,0.0,0.0,0.09014734,0.0,0.0,0.0,0.0,0.12681663,0.0015262172,0.020099033,0.084668174,0.0,0.0,0.0,0.0,0.0,0.0
322983030,0.0,0.0,0.0,0.36252582,-0.20392153,-0.1426239,0.0,0.0,0.0,-0.08371121,0.0,0.0,0.0,0.0,-0.033186674,0.0,0.0,0.0,101.029106,101.029045,4.0637865,0.0,0.0,0.0,0.09014728,0.0,0.0,0.0,0.0,0.12949729,0.0016242302,0.022788318,0.09384658,0.0,0.0,0.0,0.0,0.0,0.0
323182911,0.0,0.0,0.0,0.31497204,-0.27093202,-0.094833374,0.0,0.0,0.0,-0.090123594,0.0,0.0,0.0,0.0,-0.01046896,0.0,0.0,0.0,101.02766,101.027596,4.0637093,0.0,0.0,0.0,0.090147294,0.0,0.0,0.0,0.0,0.130499,0.0019327146,0.022232514,0.094917424,0.0,0.0,0.0,0.0,0.0,0.0
323384491,0.0,0.0,0.0,0.26305696,-0.34698007,-0.05255127,0.0,0.0,0.0,-0.06254393,0.0,0.0,0.0,0.0,-0.029045105,0.0,0.0,0.0,101.029465,101.02939,4.063975,0.0,0.0,0.0,0.09014731,0.0,0.0,0.0,0.0,0.13118464,0.001784383,0.023615448,0.10071687,0.0,0.0,0.0,0.0,0.0,0.0
323592653,0.0,0.0,0.0,0.21531568,-0.41147298,-0.27503967,0.0,0.0,0.0,-0.032843977,0.0,0.0,0.0,0.0,-0.055191755,0.0,0.0,0.0,101.025024,101.02495,4.0636835,0.0,0.0,0.0,0.09014733,0.0,0.0,0.0,0.0,0.12992455,0.0019845478,0.022858996,0.10011261,0.0,0.0,0.0,0.0,0.0,0.0
323792557,0.0,0.0,0.0,0.16937038,-0.47726825,-0.23756409,0.0,0.0,0.0,-0.090008944,0.0,0.0,0.0,0.0,-0.03470111,0.0,0.0,0.0,101.023125,101.02304,4.0636477,0.0,0.0,0.0,0.09014727,0.0,0.0,0.0,0.0,0.12792803,0.0022156069,0.023087872,0.10245332,0.0,0.0,0.0,0.0,0.0,0.0
323992527,0.0,0.0,0.0,0.13317862,-0.54035074,0.3287964,0.0,0.0,0.0,-0.14106083,0.0,0.0,0.0,0.0,-0.011650562,0.0,0.0,0.0,101.03115,101.03106,4.064543,0.0,0.0,0.0,0.09014729,0.0,0.0,0.0,0.0,0.12418617,0.0020641177,0.022601759,0.09953984,0.0,0.0,0.0,0.0,0.0,0.0
324194079,0.0,0.0,0.0,0.09648308,-0.5983447,-0.19238281,0.0,0.0,0.0,-0.09936261,0.0,0.0,0.0,0.0,0.010097027,0.0,0.0,0.0,101.0319,101.0318,4.064691,0.0,0.0,0.0,0.09014714,0.0,0.0,0.0,0.0,0.12272796,0.002195159,0.022409376,0.09912911,0.0,0.0,0.0,0.0,0.0,0.0
324402205,0.0,0.0,0.0,0.053203527,-0.6630042,-0.03816223,0.0,0.0,0.0,-0.09860146,0.0,0.0,0.0,0.0,0.028198242,0.0,0.0,0.0,101.03051,101.03041,4.0646024,0.0,0.0,0.0,0.09014709,0.0,0.0,0.0,0.0,0.11995071,0.002430304,0.024047794,0.10584931,0.0,0.0,0.0,0.0,0.0,0.0
324602193,0.0,0.0,0.0,0.017288337,-0.7089127,0.2449646,0.0,0.0,0.0,-0.08703077,0.0,0.0,0.0,0.0,0.0059444904,0.0,0.0,0.0,101.02215,101.02204,4.0638022,0.0,0.0,0.0,0.0901471,0.0,0.0,0.0,0.0,0.11733152,0.0023506135,0.023421578,0.1048936,0.0,0.0,0.0,0.0,0.0,0.0
324802269,0.0,0.0,0.0,-0.020400014,-0.75776607,-0.10650635,0.0,0.0,0.0,-0.12869921,0.0,0.0,0.0,0.0,-0.020077229,0.0,0.0,0.0,101.0185,101.018394,4.0634503,0.0,0.0,0.0,0.09014712,0.0,0.0,0.0,0.0,0.11454783,0.0025036035,0.023928648,0.10473971,0.0,0.0,0.0,0.0,0.0,0.0
325003669,0.0,0.0,0.0,-0.057486232,-0.81053174,0.23252869,0.0,0.0,0.0,-0.09622753,0.0,0.0,0.0,0.0,0.026072979,0.0,0.0,0.0,101.02587,101.02576,4.0641093,0.0,0.0,0.0,0.09014714,0.0,0.0,0.0,0.0,0.11694041,0.0024452782,0.024044108,0.10244899,0.0,0.0,0.0,0.0,0.0,0.0
325203779,0.0,0.0,0.0,-0.09476575,-0.86124855,-0.046707153,0.0,0.0,0.0,-0.09630841,0.0,0.0,0.0,0.0,0.055769682,0.0,0.0,0.0,101.03317,101.03306,4.0646863,0.0,0.0,0.0,0.090146996,0.0,0.0,0.0,0.0,0.115545616,0.0024833088,0.02196531,0.09680771,0.0,0.0,0.0,0.0,0.0,0.0
325411736,0.0,0.0,0.0,-0.13385268,-0.90777266,0.17553711,0.0,0.0,0.0,-0.11848974,0.0,0.0,0.0,0.0,0.018799305,0.0,0.0,0.0,101.03675,101.036644,4.0648174,0.0,0.0,0.0,0.090146944,0.0,0.0,0.0,0.0,0.11670568,0.0023391435,0.022966415,0.10085471,0.0,0.0,0.0,0.0,0.0,0.0
325613316,0.0,0.0,0.0,-0.1675028,-0.94548357,-0.12861633,0.0,0.0,0.0,-0.12765533,0.0,0.0,0.0,0.0,-0.0029399395,0.0,0.0,0.0,101.04012,101.040016,4.064911,0.0,0.0,0.0,0.09014688,0.0,0.0,0.0,0.0,0.11670102,0.0026494768,0.0221358,0.097362176,0.0,0.0,0.0,0.0,0.0,0.0
325813430,0.0,0.0,0.0,-0.19896299,-0.9717144,0.2907257,0.0,0.0,0.0,-0.081053436,0.0,0.0,0.0,0.0,0.017087698,0.0,0.0,0.0,101.03424,101.03414,4.0641026,0.0,0.0,0.0,0.09014689,0.0,0.0,0.0,0.0,0.11922836,0.0024397327,0.022073237,0.09716197,0.0,0.0,0.0,0.0,0.0,0.0
326013448,0.0,0.0,0.0,-0.23421656,-1.0079505,-0.13537598,0.0,0.0,0.0,-0.089185715,0.0,0.0,0.0,0.0,-0.0049397945,0.0,0.0,0.0,101.03955,101.03945,4.0643334,0.0,0.0,0.0,0.09014691,0.0,0.0,0.0,0.0,0.1218113,0.0023305907,0.02224752,0.09716555,0.0,0.0,0.0,0.0,0.0,0.0
326221335,0.0,0.0,0.0,-0.26501042,-1.0364316,-0.17549133,0.0,0.0,0.0,-0.11100814,0.0,0.0,0.0,0.0,-0.01864171,0.0,0.0,0.0,101.04151,101.04142,4.0642385,0.0,0.0,0.0,0.090146855,0.0,0.0,0.0,0.0,0.12633306,0.0023369524,0.021448368,0.09341109,0.0,0.0,0.0,0.0,0.0,0.0
326422895,0.0,0.0,0.0,-0.2910171,-1.0560926,0.07144165,0.0,0.0,0.0,-0.08122179,0.0,0.0,0.0,0.0,0.005643368,0.0,0.0,0.0,101.03986,101.03977,4.0638013,0.0,0.0,0.0,0.09014686,0.0,0.0,0.0,0.0,0.12992872,0.0022243033,0.021696312,0.094081044,0.0,0.0,0.0,0.0,0.0,0.0
326623008,0.0,0.0,0.0,-0.31410497,-1.0752589,-0.3047943,0.0,0.0,0.0,-0.13347358,0.0,0.0,0.0,0.0,0.00060868263,0.0,0.0,0.0,101.04232,101.04224,4.063809,0.0,0.0,0.0,0.09014689,0.0,0.0,0.0,0.0,0.13329485,0.0021260488,0.018733613,0.081199765,0.0,0.0,0.0,0.0,0.0,0.0
326831033,0.0,0.0,0.0,-0.33561003,-1.0926485,0.021469116,0.0,0.0,0.0,-0.14215645,0.0,0.0,0.0,0.0,-0.031006336,0.0,0.0,0.0,101.04404,101.04396,4.063749,0.0,0.0,0.0,0.0901469,0.0,0.0,0.0,0.0,0.13632178,0.0022805992,0.017911093,0.07782258,0.0,0.0,0.0,0.0,0.0,0.0
327027848,0.0,0.0,0.0,-0.35560527,-1.1055226,0.17070007,0.0,0.0,0.0,-0.07804078,0.0,0.0,0.0,0.0,-0.03377652,0.0,0.0,0.0,101.045616,101.04555,4.0637255,0.0,0.0,0.0,0.090146914,0.0,0.0,0.0,0.0,0.1372193,0.002365691,0.017689591,0.07700696,0.0,0.0,0.0,0.0,0.0,0.0
327236568,0.0,0.0,0.0,-0.37633958,-1.1162337,-0.3330536,0.0,0.0,0.0,-0.045241535,0.0,0.0,0.0,0.0,-0.036026716,0.0,0.0,0.0,101.049194,101.04914,4.0639057,0.0,0.0,0.0,0.09014685,0.0,0.0,0.0,0.0,0.14357364,0.0019849665,0.01770844,0.07656779,0.0,0.0,0.0,0.0,0.0,0.0
327436533,0.0,0.0,0.0,-0.391865,-1.1156259,-0.23780823,0.0,0.0,0.0,-0.059951782,0.0,0.0,0.0,0.0,-0.022876978,0.0,0.0,0.0,101.04616,101.046104,4.06352,0.0,0.0,0.0,0.09014702,0.0,0.0,0.0,0.0,0.13408078,0.0015297034,0.017641813,0.076623075,0.0,0.0,0.0,0.0,0.0,0.0
327636652,0.0,0.0,0.0,-0.40285847,-1.1083426,0.07055664,0.0,0.0,0.0,-0.104800254,0.0,0.0,0.0,0.0,0.028071165,0.0,0.0,0.0,101.03972,101.03968,4.062874,0.0,0.0,0.0,0.09014687,0.0,0.0,0.0,0.0,0.12898907,0.0018459398,0.016715052,0.072206266,0.0,0.0,0.0,0.0,0.0,0.0
327838164,0.0,0.0,0.0,-0.41477677,-1.1144084,0.2770691,0.0,0.0,0.0,-0.10407111,0.0,0.0,0.0,0.0,-0.028042078,0.0,0.0,0.0,101.04775,101.047714,4.063561,0.0,0.0,0.0,0.0901468,0.0,0.0,0.0,0.0,0.12970051,0.00218089,0.013215161,0.05610651,0.0,0.0,0.0,0.0,0.0,0.0
328046217,0.0,0.0,0.0,-0.4218875,-1.1149448,-0.061187744,0.0,0.0,0.0,-0.108844995,0.0,0.0,0.0,0.0,0.011127949,0.0,0.0,0.0,101.05293,101.0529,4.0639577,0.0,0.0,0.0,0.090146795,0.0,0.0,0.0,0.0,0.12249716,0.0021653252,0.0147991385,0.05933292,0.0,0.0,0.0,0.0,0.0,0.0
328246088,0.0,0.0,0.0,-0.42704913,-1.1136588,-0.2826233,0.0,0.0,0.0,-0.14854163,0.0,0.0,0.0,0.0,-0.041833162,0.0,0.0,0.0,101.057304,101.05728,4.064252,0.0,0.0,0.0,0.09014681,0.0,0.0,0.0,0.0,0.12145116,0.0023779161,0.012976897,0.050179083,0.0,0.0,0.0,0.0,0.0,0.0
328446133,0.0,0.0,0.0,-0.43061224,-1.1066617,0.26535034,0.0,0.0,0.0,-0.12483427,0.0,0.0,0.0,0.0,-0.017733097,0.0,0.0,0.0,101.05864,101.058624,4.0641947,0.0,0.0,0.0,0.09014682,0.0,0.0,0.0,0.0,0.11704078,0.0027174656,0.012294033,0.049606908,0.0,0.0,0.0,0.0,0.0,0.0
328647919,0.0,0.0,0.0,-0.43769595,-1.1029546,0.05709839,0.0,0.0,0.0,-0.11087939,0.0,0.0,0.0,0.0,0.0020933151,0.0,0.0,0.0,101.06382,101.06381,4.064456,0.0,0.0,0.0,0.090146825,0.0,0.0,0.0,0.0,0.11562292,0.002871528,0.012071933,0.044633474,0.0,0.0,0.0,0.0,0.0,0.0
328855739,0.0,0.0,0.0,-0.4483363,-1.1024587,0.57611084,0.0,0.0,0.0,-0.10134968,0.0,0.0,0.0,0.0,0.030875683,0.0,0.0,0.0,101.07381,101.07381,4.065081,0.0,0.0,0.0,0.09014684,0.0,0.0,0.0,0.0,0.116436645,0.0027856298,0.01931595,0.061280236,0.0,0.0,0.0,0.0,0.0,0.0
329055803,0.0,0.0,0.0,-0.4589451,-1.0955322,0.3331604,0.0,0.0,0.0,-0.09495646,0.0,0.0,0.0,0.0,0.016583443,0.0,0.0,0.0,101.079285,101.07929,4.065202,0.0,0.0,0.0,0.09014677,0.0,0.0,0.0,0.0,0.11635445,0.0029250486,0.018935777,0.06326625,0.0,0.0,0.0,0.0,0.0,0.0
329257452,0.0,0.0,0.0,-0.47124544,-1.092079,-0.20352173,0.0,0.0,0.0,-0.12878513,0.0,0.0,0.0,0.0,0.020225286,0.0,0.0,0.0,101.08858,101.08859,4.0656743,0.0,0.0,0.0,0.09014678,0.0,0.0,0.0,0.0,0.1163193,0.0028440433,0.017876863,0.05976765,0.0,0.0,0.0,0.0,0.0,0.0
329465306,0.0,0.0,0.0,-0.4807404,-1.0796796,0.19555664,0.0,0.0,0.0,-0.117117405,0.0,0.0,0.0,0.0,0.028131962,0.0,0.0,0.0,101.09077,101.09079,4.0654464,0.0,0.0,0.0,0.090146944,0.0,0.0,0.0,0.0,0.12184377,0.0026522407,0.020417223,0.067917995,0.0,0.0,0.0,0.0,0.0,0.0
329665294,0.0,0.0,0.0,-0.49272236,-1.0779479,0.16311646,0.0,0.0,0.0,-0.124289155,0.0,0.0,0.0,0.0,0.02766323,0.0,0.0,0.0,101.10334,101.10336,4.0661836,0.0,0.0,0.0,0.09014696,0.0,0.0,0.0,0.0,0.122845694,0.002682778,0.015409875,0.050988607,0.0,0.0,0.0,0.0,0.0,0.0
329865429,0.0,0.0,0.0,-0.49970698,-1.0605007,-0.894928,0.0,0.0,0.0,-0.11230564,0.0,0.0,0.0,0.0,0.0013513565,0.0,0.0,0.0,101.104126,101.10416,4.065795,0.0,0.0,0.0,0.090146795,0.0,0.0,0.0,0.0,0.12586822,0.002961379,0.0081788525,0.030386357,0.0,0.0,0.0,0.0,0.0,0.0
330074096,0.0,0.0,0.0,-0.502724,-1.0345964,0.9375763,0.0,0.0,0.0,-0.105914116,0.0,0.0,0.0,0.0,0.026530743,0.0,0.0,0.0,101.09775,101.097786,4.0648074,0.0,0.0,0.0,0.09014671,0.0,0.0,0.0,0.0,0.12920213,0.0028889591,0.0144751165,0.049522877,0.0,0.0,0.0,0.0,0.0,0.0
330274204,0.0,0.0,0.0,-0.5045554,-1.0113696,0.00390625,0.0,0.0,0.0,-0.1292234,0.0,0.0,0.0,0.0,-0.017386436,0.0,0.0,0.0,101.09167,101.09171,4.0639806,0.0,0.0,0.0,0.09014672,0.0,0.0,0.0,0.0,0.13321505,0.002595645,0.008860451,0.034144964,0.0,0.0,0.0,0.0,0.0,0.0
330482200,0.0,0.0,0.0,-0.51442236,-0.9946764,-0.102645874,0.0,0.0,0.0,-0.08934352,0.0,0.0,0.0,0.0,-0.04126954,0.0,0.0,0.0,101.09768,101.097725,4.064261,0.0,0.0,0.0,0.09014673,0.0,0.0,0.0,0.0,0.138477,0.0019943586,0.010026517,0.0346078,0.0,0.0,0.0,0.0,0.0,0.0
330682094,0.0,0.0,0.0,-0.5165047,-0.9741645,0.0637207,0.0,0.0,0.0,-0.10762936,0.0,0.0,0.0,0.0,-0.011211872,0.0,0.0,0.0,101.09787,101.097916,4.0641165,0.0,0.0,0.0,0.09014673,0.0,0.0,0.0,0.0,0.13968468,0.0020010446,0.0057491413,0.022422021,0.0,0.0,0.0,0.0,0.0,0.0
330882136,0.0,0.0,0.0,-0.51524246,-0.9512476,0.37747192,0.0,0.0,0.0,-0.12738106,0.0,0.0,0.0,0.0,-0.0005199909,0.0,0.0,0.0,101.09803,101.09808,4.064004,0.0,0.0,0.0,0.090146735,0.0,0.0,0.0,0.0,0.1403649,0.002335701,0.00511885,0.021400668,0.0,0.0,0.0,0.0,0.0,0.0
331083755,0.0,0.0,0.0,-0.5111579,-0.9266614,-0.061065674,0.0,0.0,0.0,-0.11860025,0.0,0.0,0.0,0.0,-0.0012712479,0.0,0.0,0.0,101.0941,101.094154,4.06362,0.0,0.0,0.0,0.09014665,0.0,0.0,0.0,0.0,0.13918371,0.002396431,0.005083064,0.02115534,0.0,0.0,0.0,0.0,0.0,0.0
331291695,0.0,0.0,0.0,-0.5047582,-0.9064184,0.14019775,0.0,0.0,0.0,-0.087714046,0.0,0.0,0.0,0.0,-0.007959127,0.0,0.0,0.0,101.09497,101.09503,4.063691,0.0,0.0,0.0,0.09014666,0.0,0.0,0.0,0.0,0.1377589,0.0022022908,0.0031969263,0.015494758,0.0,0.0,0.0,0.0,0.0,0.0
331491821,0.0,0.0,0.0,-0.4969666,-0.88873065,-0.102249146,0.0,0.0,0.0,-0.058062583,0.0,0.0,0.0,0.0,-0.029715061,0.0,0.0,0.0,101.098015,101.09807,4.063967,0.0,0.0,0.0,0.09014667,0.0,0.0,0.0,0.0,0.13498718,0.002141713,0.0067153373,0.024912858,0.0,0.0,0.0,0.0,0.0,0.0
331697318,0.0,0.0,0.0,-0.49176332,-0.8661845,0.104766846,0.0,0.0,0.0,-0.06350362,0.0,0.0,0.0,0.0,-0.0032317638,0.0,0.0,0.0,101.10438,101.10443,4.064535,0.0,0.0,0.0,0.09014683,0.0,0.0,0.0,0.0,0.12916975,0.0015510867,0.00607829,0.022344338,0.0,0.0,0.0,0.0,0.0,0.0
331897340,0.0,0.0,0.0,-0.48517752,-0.8382592,0.07600403,0.0,0.0,0.0,-0.12606975,0.0,0.0,0.0,0.0,-0.023790598,0.0,0.0,0.0,101.10096,101.10101,4.0642867,0.0,0.0,0.0,0.09014699,0.0,0.0,0.0,0.0,0.12383143,0.0018676562,0.00592878,0.023527246,0.0,0.0,0.0,0.0,0.0,0.0
332105389,0.0,0.0,0.0,-0.4804076,-0.80886793,0.37117004,0.0,0.0,0.0,-0.057975233,0.0,0.0,0.0,0.0,0.015851974,0.0,0.0,0.0,101.10334,101.10339,4.0645013,0.0,0.0,0.0,0.0901469,0.0,0.0,0.0,0.0,0.12009621,0.0023883886,0.0054955413,0.020005122,0.0,0.0,0.0,0.0,0.0,0.0
332305261,0.0,0.0,0.0,-0.48101053,-0.78509957,0.046188354,0.0,0.0,0.0,-0.09711146,0.0,0.0,0.0,0.0,-0.0010693073,0.0,0.0,0.0,101.11367,101.11372,4.0653367,0.0,0.0,0.0,0.09014691,0.0,0.0,0.0,0.0,0.120799065,0.0024270206,0.0048250603,0.02069477,0.0,0.0,0.0,0.0,0.0,0.0
332506893,0.0,0.0,0.0,-0.48036626,-0.75725305,-0.65127563,0.0,0.0,0.0,-0.10795894,0.0,0.0,0.0,0.0,-0.010159016,0.0,0.0,0.0,101.115746,101.11581,4.065436,0.0,0.0,0.0,0.09014691,0.0,0.0,0.0,0.0,0.115112215,0.002132649,0.0055077635,0.02408236,0.0,0.0,0.0,0.0,0.0,0.0
332706924,0.0,0.0,0.0,-0.47606185,-0.72130483,0.25349426,0.0,0.0,0.0,-0.0808008,0.0,0.0,0.0,0.0,0.016650915,0.0,0.0,0.0,101.10652,101.106575,4.0645504,0.0,0.0,0.0,0.090146825,0.0,0.0,0.0,0.0,0.11599242,0.0023237136,0.0042416793,0.020679032,0.0,0.0,0.0,0.0,0.0,0.0
332906885,0.0,0.0,0.0,-0.47675642,-0.6882844,-0.11781311,0.0,0.0,0.0,-0.09910911,0.0,0.0,0.0,0.0,-0.09513569,0.0,0.0,0.0,101.10571,101.10577,4.064389,0.0,0.0,0.0,0.09014674,0.0,0.0,0.0,0.0,0.11301097,0.002304472,0.004550508,0.02154501,0.0,0.0,0.0,0.0,0.0,0.0
333107017,0.0,0.0,0.0,-0.48027524,-0.6591816,0.23200989,0.0,0.0,0.0,-0.071137875,0.0,0.0,0.0,0.0,-0.011346817,0.0,0.0,0.0,101.10859,101.10864,4.0645328,0.0,0.0,0.0,0.09014666,0.0,0.0,0.0,0.0,0.11075225,0.0020713725,0.006213579,0.02747772,0.0,0.0,0.0,0.0,0.0,0.0
333315946,0.0,0.0,0.0,-0.48474663,-0.6233128,0.14205933,0.0,0.0,0.0,-0.036477,0.0,0.0,0.0,0.0,-0.026494741,0.0,0.0,0.0,101.11246,101.11251,4.064764,0.0,0.0,0.0,0.09014665,0.0,0.0,0.0,0.0,0.1113249,0.0017473175,0.0067652706,0.029268006,0.0,0.0,0.0,0.0,0.0,0.0
333515653,0.0,0.0,0.0,-0.4837466,-0.575206,0.5269165,0.0,0.0,0.0,0.0017675459,0.0,0.0,0.0,0.0,-0.020577908,0.0,0.0,0.0,101.11121,101.11127,4.0645666,0.0,0.0,0.0,0.090146706,0.0,0.0,0.0,0.0,0.10945543,0.00060220354,0.0072485292,0.02895289,0.0,0.0,0.0,0.0,0.0,0.0
333715737,0.0,0.0,0.0,-0.47696495,-0.5172962,-0.17120361,0.0,0.0,0.0,-0.070504546,0.0,0.0,0.0,0.0,0.005196929,0.0,0.0,0.0,101.10218,101.102234,4.0637608,0.0,0.0,0.0,0.090146676,0.0,0.0,0.0,0.0,0.10705441,0.00069253467,0.008132771,0.033785004,0.0,0.0,0.0,0.0,0.0,0.0
333923845,0.0,0.0,0.0,-0.48004618,-0.46322227,0.03968811,0.0,0.0,0.0,-0.110355556,0.0,0.0,0.0,0.0,-0.03168583,0.0,0.0,0.0,101.11769,101.11774,4.0650086,0.0,0.0,0.0,0.09014668,0.0,0.0,0.0,0.0,0.10728866,0.0014591231,0.00871928,0.03926146,0.0,0.0,0.0,0.0,0.0,0.0
334121560,0.0,0.0,0.0,-0.47697863,-0.41420728,-0.14692688,0.0,0.0,0.0,-0.12066147,0.0,0.0,0.0,0.0,-0.017514944,0.0,0.0,0.0,101.11577,101.11581,4.064787,0.0,0.0,0.0,0.09014669,0.0,0.0,0.0,0.0,0.108350925,0.0018949348,0.00949029,0.043237004,0.0,0.0,0.0,0.0,0.0,0.0
334321284,0.0,0.0,0.0,-0.47542182,-0.3683021,0.5356598,0.0,0.0,0.0,-0.058048606,0.0,0.0,0.0,0.0,0.062154293,0.0,0.0,0.0,101.116745,101.11678,4.064805,0.0,0.0,0.0,0.09014659,0.0,0.0,0.0,0.0,0.10544626,0.0019036097,0.013971574,0.05405764,0.0,0.0,0.0,0.0,0.0,0.0
334529285,0.0,0.0,0.0,-0.4778217,-0.31621778,0.24757385,0.0,0.0,0.0,-0.060604393,0.0,0.0,0.0,0.0,-0.036055207,0.0,0.0,0.0,101.12752,101.127556,4.0656223,0.0,0.0,0.0,0.09014659,0.0,0.0,0.0,0.0,0.10674205,0.0017474205,0.011528124,0.0487411,0.0,0.0,0.0,0.0,0.0,0.0
334729432,0.0,0.0,0.0,-0.47174424,-0.26900232,0.026870728,0.0,0.0,0.0,-0.053727448,0.0,0.0,0.0,0.0,-0.0024718046,0.0,0.0,0.0,101.12501,101.12504,4.0653305,0.0,0.0,0.0,0.0901466,0.0,0.0,0.0,0.0,0.10521817,0.0014337398,0.011440859,0.05051692,0.0,0.0,0.0,0.0,0.0,0.0
334930941,0.0,0.0,0.0,-0.46440473,-0.20842026,0.19493103,0.0,0.0,0.0,-0.080066234,0.0,0.0,0.0,0.0,0.02467668,0.0,0.0,0.0,101.12677,101.12679,4.0653796,0.0,0.0,0.0,0.09014661,0.0,0.0,0.0,0.0,0.103955284,0.0013248157,0.011447057,0.051875506,0.0,0.0,0.0,0.0,0.0,0.0
335139014,0.0,0.0,0.0,-0.45960557,-0.15376593,-0.25091553,0.0,0.0,0.0,-0.113773406,0.0,0.0,0.0,0.0,-0.006204486,0.0,0.0,0.0,101.12909,101.1291,4.0654826,0.0,0.0,0.0,0.090146534,0.0,0.0,0.0,0.0,0.104921624,0.0018036022,0.012116502,0.05526069,0.0,0.0,0.0,0.0,0.0,0.0
335338877,0.0,0.0,0.0,-0.45471862,-0.100000866,0.05142212,0.0,0.0,0.0,-0.09439379,0.0,0.0,0.0,0.0,-0.0009531975,0.0,0.0,0.0,101.12675,101.12675,4.0652003,0.0,0.0,0.0,0.090146534,0.0,0.0,0.0,0.0,0.105403855,0.0024382437,0.012979851,0.057417635,0.0,0.0,0.0,0.0,0.0,0.0
335538978,0.0,0.0,0.0,-0.4530729,-0.057705153,0.44799805,0.0,0.0,0.0,-0.10896155,0.0,0.0,0.0,0.0,0.0007380247,0.0,0.0,0.0,101.12843,101.12843,4.0652533,0.0,0.0,0.0,0.090146534,0.0,0.0,0.0,0.0,0.10484023,0.0025999648,0.015578641,0.06360851,0.0,0.0,0.0,0.0,0.0,0.0
335744619,0.0,0.0,0.0,-0.452613,-0.02139708,0.26168823,0.0,0.0,0.0,-0.13266021,0.0,0.0,0.0,0.0,0.011798978,0.0,0.0,0.0,101.13079,101.13078,4.0653634,0.0,0.0,0.0,0.09014668,0.0,0.0,0.0,0.0,0.10405538,0.0024714835,0.015163913,0.06310315,0.0,0.0,0.0,0.0,0.0,0.0
335952701,0.0,0.0,0.0,-0.45337012,0.015559399,0.29180908,0.0,0.0,0.0,-0.08161089,0.0,0.0,0.0,0.0,0.011149406,0.0,0.0,0.0,101.1312,101.13119,4.065273,0.0,0.0,0.0,0.09014668,0.0,0.0,0.0,0.0,0.1075775,0.0024751055,0.014065151,0.06065318,0.0,0.0,0.0,0.0,0.0,0.0
336152534,0.0,0.0,0.0,-0.45457554,0.038667854,0.11428833,0.0,0.0,0.0,-0.11272895,0.0,0.0,0.0,0.0,-0.0004899502,0.0,0.0,0.0,101.128914,101.12889,4.0649776,0.0,0.0,0.0,0.090146676,0.0,0.0,0.0,0.0,0.10387014,0.0026435044,0.013770004,0.059559766,0.0,0.0,0.0,0.0,0.0,0.0
336354125,0.0,0.0,0.0,-0.45356512,0.05998627,-0.47651672,0.0,0.0,0.0,-0.09299797,0.0,0.0,0.0,0.0,0.029040575,0.0,0.0,0.0,101.11957,101.119545,4.0641007,0.0,0.0,0.0,0.09014667,0.0,0.0,0.0,0.0,0.11652736,0.002417444,0.013430785,0.05847351,0.0,0.0,0.0,0.0,0.0,0.0
336554128,0.0,0.0,0.0,-0.45565712,0.07367751,0.5402832,0.0,0.0,0.0,-0.11736575,0.0,0.0,0.0,0.0,0.039599895,0.0,0.0,0.0,101.11985,101.11983,4.0640454,0.0,0.0,0.0,0.09014667,0.0,0.0,0.0,0.0,0.10554802,0.0025894525,0.014281124,0.059142146,0.0,0.0,0.0,0.0,0.0,0.0
336754178,0.0,0.0,0.0,-0.46025792,0.08354092,0.49005127,0.0,0.0,0.0,-0.06829047,0.0,0.0,0.0,0.0,0.015158653,0.0,0.0,0.0,101.12762,101.127594,4.0645723,0.0,0.0,0.0,0.09014667,0.0,0.0,0.0,0.0,0.107965074,0.0022431577,0.012882116,0.0543977,0.0,0.0,0.0,0.0,0.0,0.0
336962077,0.0,0.0,0.0,-0.465602,0.089538544,-0.10523987,0.0,0.0,0.0,-0.045707434,0.0,0.0,0.0,0.0,0.0022827387,0.0,0.0,0.0,101.138954,101.13892,4.0653644,0.0,0.0,0.0,0.090146676,0.0,0.0,0.0,0.0,0.11046113,0.0018034775,0.0113790445,0.04893541,0.0,0.0,0.0,0.0,0.0,0.0
337163697,0.0,0.0,0.0,-0.46565378,0.09103671,-0.13208008,0.0,0.0,0.0,-0.0905619,0.0,0.0,0.0,0.0,-0.070026875,0.0,0.0,0.0,101.14088,101.14085,4.065428,0.0,0.0,0.0,0.090146594,0.0,0.0,0.0,0.0,0.11275624,0.0013917644,0.014442103,0.053980958,0.0,0.0,0.0,0.0,0.0,0.0
337363771,0.0,0.0,0.0,-0.46658957,0.091732636,0.33242798,0.0,0.0,0.0,-0.05885911,0.0,0.0,0.0,0.0,-0.036869287,0.0,0.0,0.0,101.14657,101.146545,4.065849,0.0,0.0,0.0,0.0901466,0.0,0.0,0.0,0.0,0.116084866,0.001289084,0.014599165,0.054040205,0.0,0.0,0.0,0.0,0.0,0.0
337563682,0.0,0.0,0.0,-0.4641005,0.090689324,-0.21957397,0.0,0.0,0.0,-0.014915526,0.0,0.0,0.0,0.0,-0.04550743,0.0,0.0,0.0,101.14226,101.142235,4.0655036,0.0,0.0,0.0,0.09014661,0.0,0.0,0.0,0.0,0.11501835,0.0010215214,0.015372521,0.055298295,0.0,0.0,0.0,0.0,0.0,0.0
337765319,0.0,0.0,0.0,-0.46356386,0.08817348,-0.6122894,0.0,0.0,0.0,-0.07715875,0.0,0.0,0.0,0.0,0.0047621727,0.0,0.0,0.0,101.14611,101.14608,4.0658674,0.0,0.0,0.0,0.09014661,0.0,0.0,0.0,0.0,0.11810265,0.0011863394,0.016039073,0.056451943,0.0,0.0,0.0,0.0,0.0,0.0
337973405,0.0,0.0,0.0,-0.45787874,0.08434416,0.4009552,0.0,0.0,0.0,-0.10019097,0.0,0.0,0.0,0.0,-0.014810324,0.0,0.0,0.0,101.136986,101.13696,4.0652075,0.0,0.0,0.0,0.090146616,0.0,0.0,0.0,0.0,0.11363019,0.0014651663,0.009621903,0.038851537,0.0,0.0,0.0,0.0,0.0,0.0
338173258,0.0,0.0,0.0,-0.4541802,0.08113769,-0.4333954,0.0,0.0,0.0,-0.09791759,0.0,0.0,0.0,0.0,-0.028485775,0.0,0.0,0.0,101.14005,101.14003,4.065579,0.0,0.0,0.0,0.09014662,0.0,0.0,0.0,0.0,0.11264522,0.0015426195,0.011313657,0.041004524,0.0,0.0,0.0,0.0,0.0,0.0
338381305,0.0,0.0,0.0,-0.44794676,0.07650637,0.9141846,0.0,0.0,0.0,-0.10163456,0.0,0.0,0.0,0.0,0.01555562,0.0,0.0,0.0,101.13868,101.13866,4.0655546,0.0,0.0,0.0,0.09014654,0.0,0.0,0.0,0.0,0.112069875,0.0023077764,0.007968436,0.0284857,0.0,0.0,0.0,0.0,0.0,0.0
338579037,0.0,0.0,0.0,-0.4364135,0.06830397,0.2328186,0.0,0.0,0.0,-0.18494213,0.0,0.0,0.0,0.0,0.03723383,0.0,0.0,0.0,101.12216,101.12214,4.064245,0.0,0.0,0.0,0.09014646,0.0,0.0,0.0,0.0,0.10719739,0.0030563143,0.010452483,0.03474675,0.0,0.0,0.0,0.0,0.0,0.0
338786878,0.0,0.0,0.0,-0.43048614,0.058792375,0.038619995,0.0,0.0,0.0,-0.07603264,0.0,0.0,0.0,0.0,0.08469927,0.0,0.0,0.0,101.115005,101.11498,4.0636744,0.0,0.0,0.0,0.090146616,0.0,0.0,0.0,0.0,0.10703449,0.0026597448,0.0103286635,0.03454934,0.0,0.0,0.0,0.0,0.0,0.0
338986896,0.0,0.0,0.0,-0.4339107,0.048504114,-0.03265381,0.0,0.0,0.0,-0.08619571,0.0,0.0,0.0,0.0,0.02008903,0.0,0.0,0.0,101.13056,101.13054,4.0649066,0.0,0.0,0.0,0.090146616,0.0,0.0,0.0,0.0,0.107041046,0.0021408112,0.0082285665,0.02905593,0.0,0.0,0.0,0.0,0.0,0.0
339183790,0.0,0.0,0.0,-0.43494287,0.039314367,-0.09196472,0.0,0.0,0.0,-0.1035718,0.0,0.0,0.0,0.0,-0.0035191774,0.0,0.0,0.0,101.13674,101.13672,4.065337,0.0,0.0,0.0,0.09014655,0.0,0.0,0.0,0.0,0.11029069,0.002039551,0.0043698517,0.016034849,0.0,0.0,0.0,0.0,0.0,0.0
339392562,0.0,0.0,0.0,-0.436161,0.02776036,0.07182312,0.0,0.0,0.0,-0.07521084,0.0,0.0,0.0,0.0,0.0032737255,0.0,0.0,0.0,101.14185,101.14183,4.06563,0.0,0.0,0.0,0.09014654,0.0,0.0,0.0,0.0,0.1160236,0.0019140729,0.0037273697,0.012913455,0.0,0.0,0.0,0.0,0.0,0.0
339592472,0.0,0.0,0.0,-0.43601656,0.01804309,-0.30033875,0.0,0.0,0.0,-0.00999251,0.0,0.0,0.0,0.0,-0.012853146,0.0,0.0,0.0,101.14314,101.14312,4.065613,0.0,0.0,0.0,0.09014655,0.0,0.0,0.0,0.0,0.11827504,0.0012813265,0.0033579778,0.011083593,0.0,0.0,0.0,0.0,0.0,0.0
339792603,0.0,0.0,0.0,-0.42853537,0.007012354,-0.1301117,0.0,0.0,0.0,-0.043314874,0.0,0.0,0.0,0.0,-0.024364233,0.0,0.0,0.0,101.131935,101.13191,4.0646396,0.0,0.0,0.0,0.09014655,0.0,0.0,0.0,0.0,0.12060652,0.0008755047,0.009516763,0.028495984,0.0,0.0,0.0,0.0,0.0,0.0
340001312,0.0,0.0,0.0,-0.4227426,-0.0011199709,0.12670898,0.0,0.0,0.0,-0.01656434,0.0,0.0,0.0,0.0,-0.021344662,0.0,0.0,0.0,101.12935,101.12933,4.0644574,0.0,0.0,0.0,0.090146564,0.0,0.0,0.0,0.0,0.12016405,0.0007251514,0.007559998,0.023755986,0.0,0.0,0.0,0.0,0.0,0.0
340201337,0.0,0.0,0.0,-0.42275992,-0.007169134,-0.70077515,0.0,0.0,0.0,-0.0011228919,0.0,0.0,0.0,0.0,-0.03642559,0.0,0.0,0.0,101.13895,101.13892,4.0652943,0.0,0.0,0.0,0.09014658,0.0,0.0,0.0,0.0,0.12114253,0.0006501789,0.007863911,0.02470729,0.0,0.0,0.0,0.0,0.0,0.0
340401487,0.0,0.0,0.0,-0.4176085,-0.013213409,-0.531662,0.0,0.0,0.0,-0.06807995,0.0,0.0,0.0,0.0,-0.02216959,0.0,0.0,0.0,101.134766,101.13475,4.0650477,0.0,0.0,0.0,0.09014642,0.0,0.0,0.0,0.0,0.118511766,0.0009263079,0.0051309923,0.016337141,0.0,0.0,0.0,0.0,0.0,0.0
340609340,0.0,0.0,0.0,-0.40861854,-0.01851697,0.16363525,0.0,0.0,0.0,-0.034114063,0.0,0.0,0.0,0.0,-0.022622585,0.0,0.0,0.0,101.12217,101.122154,4.064171,0.0,0.0,0.0,0.090146594,0.0,0.0,0.0,0.0,0.119056284,0.0009179606,0.005420362,0.016805733,0.0,0.0,0.0,0.0,0.0,0.0
340809333,0.0,0.0,0.0,-0.4055387,-0.02367948,0.10479736,0.0,0.0,0.0,-0.042442232,0.0,0.0,0.0,0.0,-0.01832652,0.0,0.0,0.0,101.12651,101.126495,4.0647,0.0,0.0,0.0,0.09014652,0.0,0.0,0.0,0.0,0.11396317,0.001255294,0.0023171739,0.0066617546,0.0,0.0,0.0,0.0,0.0,0.0
341011101,0.0,0.0,0.0,-0.39940703,-0.028464947,-0.31051636,0.0,0.0,0.0,-0.03565651,0.0,0.0,0.0,0.0,-0.045395613,0.0,0.0,0.0,101.12236,101.122345,4.0644927,0.0,0.0,0.0,0.090146534,0.0,0.0,0.0,0.0,0.12257371,0.0012054096,0.0017490836,0.0065623154,0.0,0.0,0.0,0.0,0.0,0.0
341210998,0.0,0.0,0.0,-0.3908757,-0.033607658,-0.26393127,0.0,0.0,0.0,-0.08785793,0.0,0.0,0.0,0.0,0.020022035,0.0,0.0,0.0,101.11173,101.11172,4.0637536,0.0,0.0,0.0,0.090146475,0.0,0.0,0.0,0.0,0.10941049,0.0016103054,0.0012066754,0.0046850126,0.0,0.0,0.0,0.0,0.0,0.0
341418963,0.0,0.0,0.0,-0.39044523,-0.039972503,0.08291626,0.0,0.0,0.0,-0.062341332,0.0,0.0,0.0,0.0,-0.00010406971,0.0,0.0,0.0,101.11769,101.117676,4.0643244,0.0,0.0,0.0,0.09014664,0.0,0.0,0.0,0.0,0.107240096,0.0018913681,0.005319273,0.017782466,0.0,0.0,0.0,0.0,0.0,0.0
341616494,0.0,0.0,0.0,-0.39161688,-0.04645453,0.1071167,0.0,0.0,0.0,-0.065208375,0.0,0.0,0.0,0.0,0.0028818846,0.0,0.0,0.0,101.11978,101.11977,4.064519,0.0,0.0,0.0,0.09014657,0.0,0.0,0.0,0.0,0.11434896,0.0019331876,0.0065262984,0.022390185,0.0,0.0,0.0,0.0,0.0,0.0
341824534,0.0,0.0,0.0,-0.3966289,-0.052780826,0.37173462,0.0,0.0,0.0,-0.0010370612,0.0,0.0,0.0,0.0,0.0023322105,0.0,0.0,0.0,101.12862,101.1286,4.065239,0.0,0.0,0.0,0.09014658,0.0,0.0,0.0,0.0,0.107364,0.0009939699,0.006906563,0.023967165,0.0,0.0,0.0,0.0,0.0,0.0
342024553,0.0,0.0,0.0,-0.39408362,-0.0435718,-0.5441437,0.0,0.0,0.0,0.10863769,0.0,0.0,0.0,0.0,-0.008277178,0.0,0.0,0.0,101.12537,101.12535,4.0649757,0.0,0.0,0.0,0.090147,0.0,0.0,0.0,0.0,0.11374025,0.0009014143,0.005514875,0.01905231,0.0,0.0,0.0,0.0,0.0,0.0
342224717,0.0,0.0,0.0,-0.38468495,0.0054290784,-0.006591797,0.0,0.0,0.0,0.1289278,0.0,0.0,0.0,0.0,0.018828154,0.0,0.0,0.0,101.13424,101.134224,4.0657477,0.0,0.0,0.0,0.09014666,0.0,0.0,0.0,0.0,0.11175831,0.0026943898,0.0043610306,0.01743335,0.0,0.0,0.0,0.0,0.0,0.0
342426044,0.0,0.0,0.0,-0.35999665,0.07843009,0.07400513,0.0,0.0,0.0,-0.1458568,0.0,0.0,0.0,0.0,-0.015113473,0.0,0.0,0.0,101.12574,101.12572,4.065087,0.0,0.0,0.0,0.09014652,0.0,0.0,0.0,0.0,0.11522679,0.0009739133,0.006568629,0.0227284,0.0,0.0,0.0,0.0,0.0,0.0
342626134,0.0,0.0,0.0,-0.35085484,0.122103594,-0.07009888,0.0,0.0,0.0,-0.38708878,0.0,0.0,0.0,0.0,0.0113886595,0.0,0.0,0.0,101.11853,101.118515,4.06459,0.0,0.0,0.0,0.09014775,0.0,0.0,0.0,0.0,0.10458398,0.0034466702,0.010618111,0.03504469,0.0,0.0,0.0,0.0,0.0,0.0
342826132,0.0,0.0,0.0,-0.35697722,0.10571347,0.1104126,0.0,0.0,0.0,-0.27277213,0.0,0.0,0.0,0.0,-0.035083354,0.0,0.0,0.0,101.10685,101.106834,4.0637465,0.0,0.0,0.0,0.090146765,0.0,0.0,0.0,0.0,0.09986519,0.007933351,0.007897849,0.025349341,0.0,0.0,0.0,0.0,0.0,0.0
343026904,0.0,0.0,0.0,-0.35705382,0.045614388,-0.16217041,0.0,0.0,0.0,-0.134924,0.0,0.0,0.0,0.0,-0.007708192,0.0,0.0,0.0,101.10417,101.10417,4.0636826,0.0,0.0,0.0,0.09014645,0.0,0.0,0.0,0.0,0.10031924,0.00634315,0.0068767075,0.020622134,0.0,0.0,0.0,0.0,0.0,0.0
343235689,0.0,0.0,0.0,-0.37700668,-0.0006947014,-0.69729614,0.0,0.0,0.0,-0.2250402,0.0,0.0,0.0,0.0,0.08955127,0.0,0.0,0.0,101.11153,101.111534,4.064257,0.0,0.0,0.0,0.0901465,0.0,0.0,0.0,0.0,0.09927115,0.004098099,0.026302882,0.0783401,0.0,0.0,0.0,0.0,0.0,0.0
343435837,0.0,0.0,0.0,-0.43248847,-0.012321407,-0.52682495,0.0,0.0,0.0,-0.1453957,0.0,0.0,0.0,0.0,0.039024726,0.0,0.0,0.0,101.12038,101.1204,4.0645175,0.0,0.0,0.0,0.09014652,0.0,0.0,0.0,0.0,0.10075801,0.002759446,0.01251381,0.042138677,0.0,0.0,0.0,0.0,0.0,0.0
343635821,0.0,0.0,0.0,-0.4721915,-0.018459678,0.030578613,0.0,0.0,0.0,-0.19762528,0.0,0.0,0.0,0.0,-0.047785074,0.0,0.0,0.0,101.11225,101.11229,4.0632906,0.0,0.0,0.0,0.090146616,0.0,0.0,0.0,0.0,0.098628834,0.0033312535,0.00086499745,0.0071297046,0.0,0.0,0.0,0.0,0.0,0.0
343837296,0.0,0.0,0.0,-0.50870425,-0.021224381,0.46977234,0.0,0.0,0.0,-0.16529095,0.0,0.0,0.0,0.0,-0.047357857,0.0,0.0,0.0,101.10815,101.1082,4.0623255,0.0,0.0,0.0,0.09014654,0.0,0.0,0.0,0.0,0.10084227,0.0035703024,0.0027324231,0.012192443,0.0,0.0,0.0,0.0,0.0,0.0
344045319,0.0,0.0,0.0,-0.54379344,-0.020884357,0.41804504,0.0,0.0,0.0,-0.17421126,0.0,0.0,0.0,0.0,-0.04788786,0.0,0.0,0.0,101.11217,101.112236,4.061931,0.0,0.0,0.0,0.090146706,0.0,0.0,0.0,0.0,0.10392653,0.003575559,0.0060330266,0.020445304,0.0,0.0,0.0,0.0,0.0,0.0
344245362,0.0,0.0,0.0,-0.5702074,-0.017970666,0.022964478,0.0,0.0,0.0,-0.12740397,0.0,0.0,0.0,0.0,-0.037562847,0.0,0.0,0.0,101.117836,101.11792,4.0617113,0.0,0.0,0.0,0.09014647,0.0,0.0,0.0,0.0,0.0961273,0.0035552094,0.0045844903,0.017698696,0.0,0.0,0.0,0.0,0.0,0.0
344453383,0.0,0.0,0.0,-0.6283871,0.022547765,-0.5975189,0.0,0.0,0.0,-0.07264078,0.0,0.0,0.0,0.0,0.077325076,0.0,0.0,0.0,101.12062,101.12072,4.0610285,0.0,0.0,0.0,0.09014647,0.0,0.0,0.0,0.0,0.09551997,0.0026366594,0.013734977,0.02511545,0.0,0.0,0.0,0.0,0.0,0.0
344650115,0.0,0.0,0.0,-0.70772636,0.093195535,0.2731781,0.0,0.0,0.0,0.009419322,0.0,0.0,0.0,0.0,-0.04855725,0.0,0.0,0.0,101.12627,101.12639,4.060518,0.0,0.0,0.0,0.0901464,0.0,0.0,0.0,0.0,0.095303655,0.0014204603,0.010298944,0.029737432,0.0,0.0,0.0,0.0,0.0,0.0
344858130,0.0,0.0,0.0,-0.79604095,0.15958111,0.45500183,0.0,0.0,0.0,-0.13150275,0.0,0.0,0.0,0.0,0.019501314,0.0,0.0,0.0,101.136246,101.13639,4.0603285,0.0,0.0,0.0,0.090146765,0.0,0.0,0.0,0.0,0.10103969,0.0010124852,0.017339112,0.0477114,0.0,0.0,0.0,0.0,0.0,0.0
345058230,0.0,0.0,0.0,-0.8745786,0.231869,0.12704468,0.0,0.0,0.0,-0.21362579,0.0,0.0,0.0,0.0,0.13521847,0.0,0.0,0.0,101.134445,101.134605,4.059316,0.0,0.0,0.0,0.090146825,0.0,0.0,0.0,0.0,0.14864284,0.0018757121,0.010915351,0.043508068,0.0,0.0,0.0,0.0,0.0,0.0
345266125,0.0,0.0,0.0,-0.9651555,0.3219458,0.123550415,0.0,0.0,0.0,-0.18520153,0.0,0.0,0.0,0.0,0.13521847,0.0,0.0,0.0,101.13696,101.13715,4.0584893,0.0,0.0,0.0,0.090146795,0.0,0.0,0.0,0.0,0.14864284,0.0036367131,0.017710207,0.06845666,0.0,0.0,0.0,0.0,0.0,0.0
345467961,0.0,0.0,0.0,-1.0579834,0.41005167,0.29309082,0.0,0.0,0.0,-0.10010755,0.0,0.0,0.0,0.0,0.13521847,0.0,0.0,0.0,101.147285,101.1475,4.0582223,0.0,0.0,0.0,0.090146884,0.0,0.0,0.0,0.0,0.14864284,0.0036716159,0.020119645,0.07841455,0.0,0.0,0.0,0.0,0.0,0.0
346075669,0.0,0.0,0.0,-1.2224591,0.6076587,-0.03918457,0.0,0.0,0.0,-0.109621406,0.0,0.0,0.0,0.0,0.06413177,0.0,0.0,0.0,101.15191,101.15217,4.056001,0.0,0.0,0.0,0.09014676,0.0,0.0,0.0,0.0,0.24087417,0.002114834,0.021404665,0.09454134,0.0,0.0,0.0,0.0,0.0,0.0
346273880,0.0,0.0,0.0,-0.10788435,0.06671429,0.5218506,0.0,0.0,0.0,-0.075493336,0.0,0.0,0.0,0.0,0.0048300996,0.0,0.0,0.0,0.32965857,0.32966024,4.055207,0.0,0.0,0.0,0.09014668,0.0,0.0,0.0,0.0,0.099941686,0.0052941395,0.2361839,0.9865532,0.0,0.0,0.0,0.0,0.0,0.0
346473383,0.0,0.0,0.0,-0.091920875,0.08259471,0.3895874,0.0,0.0,0.0,-0.062194943,0.0,0.0,0.0,0.0,0.092578724,0.0,0.0,0.0,0.27471715,0.2747176,4.0551066,0.0,0.0,0.0,0.09014663,0.0,0.0,0.0,0.0,0.08947263,0.0040909196,0.116660304,0.4686699,0.0,0.0,0.0,0.0,0.0,0.0
346681337,0.0,0.0,0.0,-0.11626527,0.11966079,0.29910278,0.0,0.0,0.0,-0.09580529,0.0,0.0,0.0,0.0,-0.0011453554,0.0,0.0,0.0,0.26539865,0.26539877,4.054189,0.0,0.0,0.0,0.090146564,0.0,0.0,0.0,0.0,0.087740704,0.0029093511,0.070276685,0.1845609,0.0,0.0,0.0,0.0,0.0,0.0
346882972,0.0,0.0,0.0,-0.13210043,0.14651671,-0.07342529,0.0,0.0,0.0,-0.0922358,0.0,0.0,0.0,0.0,0.0059779063,0.0,0.0,0.0,0.2634182,0.2634179,4.053517,0.0,0.0,0.0,0.090146475,0.0,0.0,0.0,0.0,0.0866965,0.0029891564,0.06596373,0.06867832,0.0,0.0,0.0,0.0,0.0,0.0
347082853,0.0,0.0,0.0,-0.13851039,0.16413453,0.21269226,0.0,0.0,0.0,-0.040127993,0.0,0.0,0.0,0.0,0.0012119785,0.0,0.0,0.0,0.26344812,0.26344737,4.05353,0.0,0.0,0.0,0.09014656,0.0,0.0,0.0,0.0,0.08740509,0.0034477124,0.06937251,0.06828514,0.0,0.0,0.0,0.0,0.0,0.0
347283052,0.0,0.0,0.0,-0.13026921,0.16600157,0.37167358,0.0,0.0,0.0,-0.08914602,0.0,0.0,0.0,0.0,0.0051306486,0.0,0.0,0.0,0.26362947,0.26362833,4.0536137,0.0,0.0,0.0,0.09014664,0.0,0.0,0.0,0.0,0.087002605,0.0037542626,0.071913816,0.088689394,0.0,0.0,0.0,0.0,0.0,0.0
347490979,0.0,0.0,0.0,-0.10673241,0.15133442,0.075027466,0.0,0.0,0.0,-0.055197597,0.0,0.0,0.0,0.0,0.0032633692,0.0,0.0,0.0,0.26323378,0.2632325,4.053415,0.0,0.0,0.0,0.090146534,0.0,0.0,0.0,0.0,0.08646842,0.003948286,0.07612795,0.09530317,0.0,0.0,0.0,0.0,0.0,0.0
347692767,0.0,0.0,0.0,-0.09004234,0.14271663,0.1871643,0.0,0.0,0.0,-0.048207402,0.0,0.0,0.0,0.0,0.0069568604,0.0,0.0,0.0,0.26336786,0.26336655,4.054018,0.0,0.0,0.0,0.090146445,0.0,0.0,0.0,0.0,0.08694563,0.003152946,0.04714891,0.10838507,0.0,0.0,0.0,0.0,0.0,0.0
347892482,0.0,0.0,0.0,-0.065617375,0.12661238,-0.08444214,0.0,0.0,0.0,-0.076774836,0.0,0.0,0.0,0.0,0.0049830973,0.0,0.0,0.0,0.26310873,0.26310757,4.054878,0.0,0.0,0.0,0.09014628,0.0,0.0,0.0,0.0,0.08795461,0.0028056253,0.038141392,0.114882596,0.0,0.0,0.0,0.0,0.0,0.0
348100927,0.0,0.0,0.0,-0.044245526,0.111958325,0.23478699,0.0,0.0,0.0,-0.062523365,0.0,0.0,0.0,0.0,0.006151609,0.0,0.0,0.0,0.2626694,0.26266852,4.055737,0.0,0.0,0.0,0.090146184,0.0,0.0,0.0,0.0,0.08932324,0.0022293418,0.029172905,0.12611362,0.0,0.0,0.0,0.0,0.0,0.0
348297372,0.0,0.0,0.0,-0.023591412,0.09410573,0.3145752,0.0,0.0,0.0,-0.035895824,0.0,0.0,0.0,0.0,0.0057352856,0.0,0.0,0.0,0.26153958,0.26153904,4.0556664,0.0,0.0,0.0,0.09014607,0.0,0.0,0.0,0.0,0.0892952,0.0018392951,0.03384047,0.13457455,0.0,0.0,0.0,0.0,0.0,0.0
348505297,0.0,0.0,0.0,-0.0042235684,0.08350754,0.46058655,0.0,0.0,0.0,-0.06262493,0.0,0.0,0.0,0.0,0.013825789,0.0,0.0,0.0,0.26114446,0.26114428,4.0567923,0.0,0.0,0.0,0.0901459,0.0,0.0,0.0,0.0,0.09033166,0.0015967384,0.042850666,0.14348252,0.0,0.0,0.0,0.0,0.0,0.0
348705352,0.0,0.0,0.0,0.011301948,0.07499203,-0.21157837,0.0,0.0,0.0,-0.045241475,0.0,0.0,0.0,0.0,0.0061787665,0.0,0.0,0.0,0.26072824,0.26072842,4.0577197,0.0,0.0,0.0,0.09014572,0.0,0.0,0.0,0.0,0.091484904,0.0013836398,0.050864805,0.1487179,0.0,0.0,0.0,0.0,0.0,0.0
348905330,0.0,0.0,0.0,0.02621439,0.066376746,0.25003052,0.0,0.0,0.0,-0.06478989,0.0,0.0,0.0,0.0,0.004475035,0.0,0.0,0.0,0.26018676,0.26018727,4.0585113,0.0,0.0,0.0,0.09014556,0.0,0.0,0.0,0.0,0.09181412,0.0013850121,0.056054067,0.15073936,0.0,0.0,0.0,0.0,0.0,0.0
350130187,0.0,0.0,0.0,0.08620738,0.03660298,-0.07574463,0.0,0.0,0.0,-0.062428117,0.0,0.0,0.0,0.0,0.009274155,0.0,0.0,0.0,0.2585211,0.2585235,4.0635023,0.0,0.0,0.0,0.09014516,0.0,0.0,0.0,0.0,0.09753517,0.0010224045,0.0542876,0.121312186,0.0,0.0,0.0,0.0,0.0,0.0
350331670,0.0,0.0,0.0,0.092805035,0.034198094,-0.21504211,0.0,0.0,0.0,0.016492248,0.0,0.0,0.0,0.0,0.010906391,0.0,0.0,0.0,0.25858298,0.25858557,4.064856,0.0,0.0,0.0,0.09014526,0.0,0.0,0.0,0.0,0.099635504,0.0010217816,0.0513293,0.11308579,0.0,0.0,0.0,0.0,0.0,0.0
350531752,0.0,0.0,0.0,0.095601484,0.031405438,0.31950378,0.0,0.0,0.0,0.00930953,0.0,0.0,0.0,0.0,0.009559087,0.0,0.0,0.0,0.2584707,0.25847337,4.0654116,0.0,0.0,0.0,0.09014528,0.0,0.0,0.0,0.0,0.09973253,0.00083129364,0.04841706,0.105144575,0.0,0.0,0.0,0.0,0.0,0.0
350739751,0.0,0.0,0.0,0.0985827,0.02854115,0.04701233,0.0,0.0,0.0,-0.008543611,0.0,0.0,0.0,0.0,0.009033538,0.0,0.0,0.0,0.25844052,0.2584432,4.066277,0.0,0.0,0.0,0.090145245,0.0,0.0,0.0,0.0,0.100993134,0.00075260515,0.04574862,0.0976715,0.0,0.0,0.0,0.0,0.0,0.0
350941376,0.0,0.0,0.0,0.09943647,0.025687346,-0.0010070801,0.0,0.0,0.0,-0.009305596,0.0,0.0,0.0,0.0,0.0019512624,0.0,0.0,0.0,0.25834382,0.2583464,4.0666685,0.0,0.0,0.0,0.090145126,0.0,0.0,0.0,0.0,0.10173577,0.0008355665,0.043759935,0.09243778,0.0,0.0,0.0,0.0,0.0,0.0
351141831,0.0,0.0,0.0,0.10140705,0.02348881,0.08786011,0.0,0.0,0.0,-0.03908062,0.0,0.0,0.0,0.0,0.004776463,0.0,0.0,0.0,0.25845245,0.258455,4.067741,0.0,0.0,0.0,0.090145096,0.0,0.0,0.0,0.0,0.10302394,0.0008031017,0.04104095,0.086778946,0.0,0.0,0.0,0.0,0.0,0.0
351341257,0.0,0.0,0.0,0.10040784,0.021089919,-0.3643036,0.0,0.0,0.0,-0.024731994,0.0,0.0,0.0,0.0,0.00020311773,0.0,0.0,0.0,0.25841784,0.25842023,4.068166,0.0,0.0,0.0,0.090145,0.0,0.0,0.0,0.0,0.1031462,0.00083635066,0.038728815,0.08282206,0.0,0.0,0.0,0.0,0.0,0.0
351541324,0.0,0.0,0.0,0.09768235,0.018622683,-0.0013427734,0.0,0.0,0.0,-0.017987967,0.0,0.0,0.0,0.0,0.0038112998,0.0,0.0,0.0,0.25831082,0.25831294,4.06818,0.0,0.0,0.0,0.09014498,0.0,0.0,0.0,0.0,0.10338942,0.0008348368,0.035707716,0.07401588,0.0,0.0,0.0,0.0,0.0,0.0
351746848,0.0,0.0,0.0,0.0964665,0.016827958,0.23802185,0.0,0.0,0.0,-0.025093198,0.0,0.0,0.0,0.0,0.0040646866,0.0,0.0,0.0,0.25839093,0.2583929,4.068865,0.0,0.0,0.0,0.09014498,0.0,0.0,0.0,0.0,0.103800714,0.0007120139,0.031122956,0.06300103,0.0,0.0,0.0,0.0,0.0,0.0
351947029,0.0,0.0,0.0,0.092110254,0.014738944,0.2633667,0.0,0.0,0.0,-0.045211434,0.0,0.0,0.0,0.0,0.014173299,0.0,0.0,0.0,0.25825676,0.25825843,4.0685673,0.0,0.0,0.0,0.09014497,0.0,0.0,0.0,0.0,0.10316319,0.00081292016,0.028806753,0.05651004,0.0,0.0,0.0,0.0,0.0,0.0
352154907,0.0,0.0,0.0,0.08743282,0.013084308,-0.33740234,0.0,0.0,0.0,-0.0027883053,0.0,0.0,0.0,0.0,0.00077242404,0.0,0.0,0.0,0.25811625,0.25811762,4.0680437,0.0,0.0,0.0,0.09014498,0.0,0.0,0.0,0.0,0.10332927,0.00092231215,0.02774109,0.058433745,0.0,0.0,0.0,0.0,0.0,0.0
352360568,0.0,0.0,0.0,0.083350584,0.011813245,-0.025146484,0.0,0.0,0.0,0.0014498234,0.0,0.0,0.0,0.0,0.0074102357,0.0,0.0,0.0,0.2580965,0.25809762,4.0679364,0.0,0.0,0.0,0.09014491,0.0,0.0,0.0,0.0,0.102809556,0.0006726418,0.022968763,0.045213092,0.0,0.0,0.0,0.0,0.0,0.0
352560651,0.0,0.0,0.0,0.0794965,0.0108066555,-0.105163574,0.0,0.0,0.0,-0.02375865,0.0,0.0,0.0,0.0,0.0015947968,0.0,0.0,0.0,0.25811246,0.2581134,4.0679913,0.0,0.0,0.0,0.09014493,0.0,0.0,0.0,0.0,0.103855796,0.00057019375,0.020019379,0.03997478,0.0,0.0,0.0,0.0,0.0,0.0
352760481,0.0,0.0,0.0,0.074384876,0.009884974,0.08680725,0.0,0.0,0.0,-0.057664037,0.0,0.0,0.0,0.0,0.0003985241,0.0,0.0,0.0,0.2580659,0.25806665,4.0677476,0.0,0.0,0.0,0.090144955,0.0,0.0,0.0,0.0,0.10145312,0.0005932931,0.02121736,0.047366463,0.0,0.0,0.0,0.0,0.0,0.0
352968605,0.0,0.0,0.0,0.067852855,0.00908888,0.42492676,0.0,0.0,0.0,-0.058897614,0.0,0.0,0.0,0.0,0.011586703,0.0,0.0,0.0,0.257898,0.2578985,4.066838,0.0,0.0,0.0,0.09014491,0.0,0.0,0.0,0.0,0.101276524,0.00068285706,0.017651007,0.036723956,0.0,0.0,0.0,0.0,0.0,0.0
353170109,0.0,0.0,0.0,0.062175073,0.008626945,0.2409668,0.0,0.0,0.0,-0.009380102,0.0,0.0,0.0,0.0,0.017370544,0.0,0.0,0.0,0.2577598,0.25776017,4.065995,0.0,0.0,0.0,0.09014495,0.0,0.0,0.0,0.0,0.10037544,0.00062484713,0.013877116,0.023999467,0.0,0.0,0.0,0.0,0.0,0.0
353370100,0.0,0.0,0.0,0.056772612,0.008320361,-0.10572815,0.0,0.0,0.0,0.019137025,0.0,0.0,0.0,0.0,0.009913743,0.0,0.0,0.0,0.25766838,0.2576686,4.0653086,0.0,0.0,0.0,0.090144984,0.0,0.0,0.0,0.0,0.09969828,0.0005346903,0.012064203,0.020112012,0.0,0.0,0.0,0.0,0.0,0.0
353578227,0.0,0.0,0.0,0.05253865,0.008469697,-0.037643433,0.0,0.0,0.0,-0.009374142,0.0,0.0,0.0,0.0,0.008052006,0.0,0.0,0.0,0.25787413,0.25787425,4.065981,0.0,0.0,0.0,0.090144955,0.0,0.0,0.0,0.0,0.100317135,0.0004254072,0.010508018,0.017197276,0.0,0.0,0.0,0.0,0.0,0.0
353779710,0.0,0.0,0.0,0.04807617,0.008604293,0.26115417,0.0,0.0,0.0,0.02457726,0.0,0.0,0.0,0.0,0.005024649,0.0,0.0,0.0,0.25795725,0.2579573,4.066194,0.0,0.0,0.0,0.09014493,0.0,0.0,0.0,0.0,0.10057249,0.00036380166,0.009624596,0.015721906,0.0,0.0,0.0,0.0,0.0,0.0
353979751,0.0,0.0,0.0,0.042419475,0.008565289,0.09776306,0.0,0.0,0.0,-0.05110979,0.0,0.0,0.0,0.0,0.0006564483,0.0,0.0,0.0,0.25788528,0.25788525,4.065745,0.0,0.0,0.0,0.09014499,0.0,0.0,0.0,0.0,0.10148062,0.00035697664,0.008808073,0.014097082,0.0,0.0,0.0,0.0,0.0,0.0
354179703,0.0,0.0,0.0,0.037879694,0.00880671,0.08029175,0.0,0.0,0.0,-0.009377837,0.0,0.0,0.0,0.0,0.0076837167,0.0,0.0,0.0,0.25794727,0.25794718,4.06591,0.0,0.0,0.0,0.090145044,0.0,0.0,0.0,0.0,0.10162374,0.0003480445,0.008053723,0.012114317,0.0,0.0,0.0,0.0,0.0,0.0
354379787,0.0,0.0,0.0,0.032770414,0.009108588,0.08023071,0.0,0.0,0.0,0.018200755,0.0,0.0,0.0,0.0,0.010933891,0.0,0.0,0.0,0.25799662,0.2579965,4.0660496,0.0,0.0,0.0,0.090145096,0.0,0.0,0.0,0.0,0.09987216,0.00034002442,0.007865254,0.013951402,0.0,0.0,0.0,0.0,0.0,0.0
354588520,0.0,0.0,0.0,0.027590118,0.009532664,-0.13716125,0.0,0.0,0.0,-0.017742157,0.0,0.0,0.0,0.0,0.005533226,0.0,0.0,0.0,0.2579422,0.25794202,4.065779,0.0,0.0,0.0,0.09014516,0.0,0.0,0.0,0.0,0.10069068,0.00025639115,0.0071884473,0.010871074,0.0,0.0,0.0,0.0,0.0,0.0
354788622,0.0,0.0,0.0,0.022817047,0.010096223,0.057724,0.0,0.0,0.0,-0.0064315796,0.0,0.0,0.0,0.0,0.009244636,0.0,0.0,0.0,0.2578396,0.2578394,4.0652437,0.0,0.0,0.0,0.09014514,0.0,0.0,0.0,0.0,0.09953023,0.00023175831,0.007098246,0.011003969,0.0,0.0,0.0,0.0,0.0,0.0
354988460,0.0,0.0,0.0,0.018484872,0.010762211,-0.2686615,0.0,0.0,0.0,0.015050888,0.0,0.0,0.0,0.0,0.0009085387,0.0,0.0,0.0,0.25775352,0.25775334,4.064736,0.0,0.0,0.0,0.09014521,0.0,0.0,0.0,0.0,0.09964104,0.00022097104,0.009382907,0.020413635,0.0,0.0,0.0,0.0,0.0,0.0
355196606,0.0,0.0,0.0,0.014524977,0.011499116,-0.10255432,0.0,0.0,0.0,0.0074409246,0.0,0.0,0.0,0.0,0.0004422441,0.0,0.0,0.0,0.25769216,0.25769198,4.064296,0.0,0.0,0.0,0.090145186,0.0,0.0,0.0,0.0,0.09875506,0.00024606107,0.01002194,0.022955911,0.0,0.0,0.0,0.0,0.0,0.0
355396536,0.0,0.0,0.0,0.010774393,0.012322463,-0.18862915,0.0,0.0,0.0,-0.018703103,0.0,0.0,0.0,0.0,0.09209551,0.0,0.0,0.0,0.257705,0.25770482,4.064206,0.0,0.0,0.0,0.09014516,0.0,0.0,0.0,0.0,0.09835065,0.0002443802,0.009067872,0.019533485,0.0,0.0,0.0,0.0,0.0,0.0
355602096,0.0,0.0,0.0,0.007700603,0.012970824,-0.10064697,0.0,0.0,0.0,0.016111612,0.0,0.0,0.0,0.0,0.0017880499,0.0,0.0,0.0,0.25771874,0.25771856,4.0641255,0.0,0.0,0.0,0.09014523,0.0,0.0,0.0,0.0,0.0986005,0.00032969547,0.009937716,0.02093524,0.0,0.0,0.0,0.0,0.0,0.0
355802098,0.0,0.0,0.0,0.0044252607,0.013415399,0.25257874,0.0,0.0,0.0,-0.0009627342,0.0,0.0,0.0,0.0,0.00814952,0.0,0.0,0.0,0.25763693,0.25763676,4.063645,0.0,0.0,0.0,0.09014521,0.0,0.0,0.0,0.0,0.097672634,0.00022161016,0.007981688,0.013206159,0.0,0.0,0.0,0.0,0.0,0.0
356010107,0.0,0.0,0.0,0.0020266194,0.013995143,0.108291626,0.0,0.0,0.0,0.03469169,0.0,0.0,0.0,0.0,0.015080035,0.0,0.0,0.0,0.25772047,0.25772032,4.063914,0.0,0.0,0.0,0.09014527,0.0,0.0,0.0,0.0,0.098339975,0.00016759275,0.008388728,0.015450502,0.0,0.0,0.0,0.0,0.0,0.0
356207843,0.0,0.0,0.0,-0.00034956558,0.014278637,-0.1878357,0.0,0.0,0.0,-0.009687662,0.0,0.0,0.0,0.0,0.0061935484,0.0,0.0,0.0,0.25759733,0.25759718,4.063256,0.0,0.0,0.0,0.090145245,0.0,0.0,0.0,0.0,0.09763783,0.00029128804,0.0077966964,0.013234559,0.0,0.0,0.0,0.0,0.0,0.0
356415849,0.0,0.0,0.0,-0.0021073457,0.014509763,-0.1522522,0.0,0.0,0.0,0.044312954,0.0,0.0,0.0,0.0,0.0089292005,0.0,0.0,0.0,0.25753787,0.25753772,4.0628653,0.0,0.0,0.0,0.09014531,0.0,0.0,0.0,0.0,0.096989326,0.0003911185,0.008009856,0.013566725,0.0,0.0,0.0,0.0,0.0,0.0
356615671,0.0,0.0,0.0,-0.0037011,0.014915679,-0.09840393,0.0,0.0,0.0,0.012009144,0.0,0.0,0.0,0.0,0.0004550591,0.0,0.0,0.0,0.25763908,0.25763893,4.0632153,0.0,0.0,0.0,0.09014552,0.0,0.0,0.0,0.0,0.09723382,0.0003476761,0.009567922,0.021345463,0.0,0.0,0.0,0.0,0.0,0.0
356815775,0.0,0.0,0.0,-0.005202564,0.015089891,0.09069824,0.0,0.0,0.0,0.012685776,0.0,0.0,0.0,0.0,0.007929593,0.0,0.0,0.0,0.25767207,0.2576719,4.063274,0.0,0.0,0.0,0.090145506,0.0,0.0,0.0,0.0,0.09791848,0.0003516293,0.0072516175,0.012491987,0.0,0.0,0.0,0.0,0.0,0.0
357021292,0.0,0.0,0.0,-0.006570129,0.015194871,-0.1956482,0.0,0.0,0.0,-0.009852767,0.0,0.0,0.0,0.0,0.0020676851,0.0,0.0,0.0,0.2577551,0.25775495,4.063602,0.0,0.0,0.0,0.0901454,0.0,0.0,0.0,0.0,0.09831623,0.0003584501,0.0075655174,0.014881471,0.0,0.0,0.0,0.0,0.0,0.0
357221346,0.0,0.0,0.0,-0.007934118,0.0150419045,0.27867126,0.0,0.0,0.0,0.029075027,0.0,0.0,0.0,0.0,0.00825616,0.0,0.0,0.0,0.2578018,0.25780165,4.0638247,0.0,0.0,0.0,0.09014546,0.0,0.0,0.0,0.0,0.09825982,0.00030602218,0.006836765,0.011341817,0.0,0.0,0.0,0.0,0.0,0.0
357421293,0.0,0.0,0.0,-0.009058988,0.014781917,0.005569458,0.0,0.0,0.0,0.023967981,0.0,0.0,0.0,0.0,0.00044696033,0.0,0.0,0.0,0.25778207,0.2577819,4.0637846,0.0,0.0,0.0,0.09014552,0.0,0.0,0.0,0.0,0.09766213,0.0003071697,0.0075963116,0.015801135,0.0,0.0,0.0,0.0,0.0,0.0
357622857,0.0,0.0,0.0,-0.00978988,0.014359165,-0.40390015,0.0,0.0,0.0,-0.02202797,0.0,0.0,0.0,0.0,-0.0010670573,0.0,0.0,0.0,0.25768718,0.257687,4.0633903,0.0,0.0,0.0,0.090145424,0.0,0.0,0.0,0.0,0.09745193,0.0004083541,0.0075527243,0.016841786,0.0,0.0,0.0,0.0,0.0,0.0
357830904,0.0,0.0,0.0,-0.011065666,0.014406927,0.43103027,0.0,0.0,0.0,0.011900306,0.0,0.0,0.0,0.0,0.010457456,0.0,0.0,0.0,0.257855,0.25785482,4.0641284,0.0,0.0,0.0,0.09014549,0.0,0.0,0.0,0.0,0.09839836,0.0004898297,0.006093966,0.012067291,0.0,0.0,0.0,0.0,0.0,0.0
358030912,0.0,0.0,0.0,-0.011853106,0.014188101,0.04550171,0.0,0.0,0.0,0.0051902533,0.0,0.0,0.0,0.0,0.0015615523,0.0,0.0,0.0,0.2578955,0.25789535,4.064362,0.0,0.0,0.0,0.0901457,0.0,0.0,0.0,0.0,0.09852884,0.0004647404,0.008983068,0.02371958,0.0,0.0,0.0,0.0,0.0,0.0
