timestamp,states[0],states[1],states[2],states[3],states[4],states[5],states[6],states[7],states[8],states[9],states[10],states[11],states[12],states[13],states[14],states[15],states[16],states[17],states[18],states[19],states[20],states[21],states[22],states[23],vibe[0],vibe[1],vibe[2],covariances[0],covariances[1],covariances[2],covariances[3],covariances[4],covariances[5],covariances[6],covariances[7],covariances[8],covariances[9],covariances[10],covariances[11],covariances[12],covariances[13],covariances[14],covariances[15],covariances[16],covariances[17],covariances[18],covariances[19],covariances[20],covariances[21],covariances[22],covariances[23],control_mode_flags,pos_horiz_accuracy,pos_vert_accuracy,mag_test_ratio,vel_test_ratio,pos_test_ratio,hgt_test_ratio,tas_test_ratio,hagl_test_ratio,beta_test_ratio,time_slip,gps_check_fail_flags,filter_fault_flags,innovation_check_flags,solution_status_flags,n_states,pre_flt_fail,health_flags,timeout_flags
310017402,0.97001994,0.008732505,0.0058337753,0.24279849,-0.0046598804,-0.003107686,-0.020077597,-0.0031708549,-0.0008007623,-1.9892501,-2.3408447e-06,8.081792e-06,-2.0652362e-05,-0.0004773999,0.0012131092,0.00036863348,0.3720349,-4.9758904e-09,0.47024006,0.0,0.0,0.0,0.0,0.0,5.09719e-11,8.697724e-06,0.0004179937,2.1210399e-06,4.778714e-06,4.78114e-06,3.4790963e-05,0.005152571,0.0051525203,0.011625184,0.0073736133,0.0073735737,0.06136653,1.0060518e-11,1.0063282e-11,1.8295768e-11,5e-08,5e-08,5e-08,0.0,0.0,0.0,0.0,0.0,0.0,0.0,0.0,531,0.121438,0.24772269,0.031702064,0.0,6.437981e-05,0.011801121,0.0,0.004683389,0.0,0.001811,0,0,0,229,24,0,0,0
310218879,0.96999425,0.008712473,0.0058458154,0.24290155,-0.0044548097,-0.0028171714,-0.0276157,-0.0033393756,-0.0011651382,-2.0081863,-2.339669e-06,8.0890595e-06,-2.059385e-05,-0.00047737802,0.0012130834,0.000374197,0.3720349,-4.9758904e-09,0.47024006,0.0,0.0,0.0,0.0,0.0,5.125625e-11,8.675501e-06,0.00044094806,2.1307098e-06,4.788017e-06,4.7904377e-06,3.4810088e-05,0.0052191336,0.005219078,0.011721558,0.007557863,0.007557822,0.062235743,1.0067259e-11,1.0070037e-11,1.8303203e-11,5.0000036e-08,5.0000036e-08,5.0000036e-08,0.0,0.0,0.0,0.0,0.0,0.0,0.0,0.0,531,0.12294586,0.24947092,0.008996779,0.0,6.709816e-05,0.013332521,0.0,0.006604814,0.0,0.001688,0,0,0,229,24,0,0,0
310419772,0.96997297,0.008713644,0.00584056,0.24298634,-0.0037797813,-0.002843463,-0.024850855,-0.003258605,-0.0013955039,-2.0012205,-2.3396108e-06,8.097133e-06,-2.0535466e-05,-0.00047734962,0.0012130629,0.00036989534,0.3720349,-4.9758904e-09,0.47024006,0.0,0.0,0.0,0.0,0.0,5.5927003e-11,8.867384e-06,0.00044926498,2.1399364e-06,4.7766625e-06,4.779095e-06,3.482796e-05,0.0051719104,0.0051718643,0.011693794,0.007485309,0.00748527,0.062036697,1.00573655e-11,1.00601645e-11,1.8306776e-11,5e-08,5e-08,5e-08,0.0,0.0,0.0,0.0,0.0,0.0,0.0,0.0,531,0.12235432,0.24907167,0.022051573,0.0,6.617275e-05,0.0046646344,0.0,0.0005071968,0.0,0.0017349999,0,0,0,229,24,0,0,0
310619732,0.969912,0.008692419,0.005856462,0.24323018,-0.0037456192,-0.002648957,-0.025229122,-0.0031325156,-0.0015637124,-2.0007765,-2.339872e-06,8.105425e-06,-2.0466545e-05,-0.00047731935,0.0012130425,0.0003681669,0.3720349,-4.9758904e-09,0.47024006,0.0,0.0,0.0,0.0,0.0,3.6099168e-10,1.835117e-05,0.0005059676,2.1490623e-06,4.768415e-06,4.7708327e-06,3.4786644e-05,0.0051379385,0.0051379055,0.011668397,0.007426561,0.007426524,0.06187562,1.0051204e-11,1.0054021e-11,1.8299947e-11,5.000004e-08,5.000004e-08,5e-08,0.0,0.0,0.0,0.0,0.0,0.0,0.0,0.0,531,0.12187323,0.24874811,0.015856065,0.0,6.299674e-05,0.0003376435,0.0,0.00023748848,0.0,0.001712,0,0,0,229,24,0,0,0
310825254,0.9699578,0.008718514,0.005905056,0.24304518,-0.0029046007,-0.0029367777,-0.02165148,-0.0029866267,-0.0017450411,-1.9971144,-2.340806e-06,8.114116e-06,-2.0366813e-05,-0.00047728504,0.0012130265,0.0003656326,0.3720349,-4.9758904e-09,0.47024006,0.0,0.0,0.0,0.0,0.0,8.0181994e-10,3.4253135e-05,0.0008765823,2.153225e-06,4.76779e-06,4.7702133e-06,3.4769742e-05,0.0051417393,0.005141717,0.011684507,0.0074482863,0.007448249,0.06203604,1.00487734e-11,1.0051606e-11,1.8295223e-11,5e-08,5e-08,5e-08,0.0,0.0,0.0,0.0,0.0,0.0,0.0,0.0,531,0.122051366,0.24907036,0.07278056,0.0,6.0652223e-05,0.017744083,0.0,0.005831066,0.0,0.001663,0,0,0,229,24,0,0,0
311025305,0.9699783,0.008711292,0.0058713127,0.2429648,-0.0018207844,-0.0032047287,-0.017510118,-0.0027334446,-0.0019099239,-1.988102,-2.3423424e-06,8.121911e-06,-2.0263906e-05,-0.000477252,0.0012130163,0.0003613571,0.3720349,-4.9758904e-09,0.47024006,0.0,0.0,0.0,0.0,0.0,9.2875063e-10,4.1714593e-05,0.00094135257,2.1610217e-06,4.774848e-06,4.777289e-06,3.478739e-05,0.0051861736,0.0051861573,0.0117611,0.007571971,0.007571935,0.0626718,1.005107e-11,1.0053918e-11,1.8297214e-11,5.0000036e-08,5.0000036e-08,5.0000036e-08,0.0,0.0,0.0,0.0,0.0,0.0,0.0,0.0,531,0.123060584,0.25034338,0.019225677,0.0,5.5207773e-05,0.019840239,0.0,0.00010413716,0.0,0.001692,0,0,0,229,24,0,0,0
311225254,0.9699652,0.0087516215,0.005907037,0.24301445,-0.0017022688,-0.0029801268,-0.014015003,-0.002372313,-0.0020076982,-1.9798704,-2.3444122e-06,8.129908e-06,-2.0171548e-05,-0.0004772169,0.0012130062,0.0003576307,0.3720349,-4.9758904e-09,0.47024006,0.0,0.0,0.0,0.0,0.0,8.9464974e-10,4.509373e-05,0.000949771,2.167505e-06,4.763815e-06,4.7662757e-06,3.474807e-05,0.0051354947,0.0051354826,0.011716829,0.007474043,0.0074740127,0.06237932,1.0041691e-11,1.0044556e-11,1.8288501e-11,5e-08,5e-08,5e-08,0.0,0.0,0.0,0.0,0.0,0.0,0.0,0.0,531,0.12226224,0.24975853,0.032367717,0.0,4.8159724e-05,0.022253321,0.0,0.0017093198,0.0,0.001663,0,0,0,229,24,0,0,0
311433273,0.9699489,0.008704475,0.0059566377,0.24308021,-0.0023488866,-0.0030302824,-0.013506501,-0.0021638153,-0.0021532816,-1.9768846,-2.3465589e-06,8.136798e-06,-2.0081332e-05,-0.00047718565,0.001212999,0.00035591083,0.3720349,-4.9758904e-09,0.47024006,0.0,0.0,0.0,0.0,0.0,7.4949674e-10,4.6447443e-05,0.0009168206,2.1753615e-06,4.778291e-06,4.7807025e-06,3.472794e-05,0.005221917,0.0052219066,0.011827895,0.007686447,0.0076864175,0.06340854,1.0049521e-11,1.0052399e-11,1.8284043e-11,5.000007e-08,5.000007e-08,5.0000036e-08,0.0,0.0,0.0,0.0,0.0,0.0,0.0,0.0,531,0.123987354,0.25181052,0.020132706,0.0,4.3189968e-05,0.014321203,0.0,0.00013622965,0.0,0.001682,0,0,0,229,24,0,0,0
311634931,0.9699484,0.008703644,0.0060039675,0.24308115,-0.0017838082,-0.0025823878,-0.010119126,-0.0019243017,-0.002109812,-1.971246,-2.3492107e-06,8.143993e-06,-1.9988564e-05,-0.00047715215,0.0012129925,0.00035332845,0.3720349,-4.9758904e-09,0.47024006,0.0,0.0,0.0,0.0,0.0,7.9644075e-10,5.3087533e-05,0.0011727888,2.1842193e-06,4.7711765e-06,4.7735807e-06,3.4748035e-05,0.0051886193,0.005188607,0.01178542,0.0076077892,0.0076077646,0.06316199,1.0045696e-11,1.0048593e-11,1.8291701e-11,5.000007e-08,5.000007e-08,5.000007e-08,0.0,0.0,0.0,0.0,0.0,0.0,0.0,0.0,531,0.12335134,0.25132048,0.02506738,0.0,4.2062715e-05,0.0026342138,0.0,0.0004914815,0.0,0.00174,0,0,0,229,24,0,0,0
311834930,0.96995556,0.008694339,0.0060530654,0.2430516,-0.0015770791,-0.0031531453,-0.0136367865,-0.0018717278,-0.00220632,-1.9829552,-2.3510254e-06,8.149918e-06,-1.9892776e-05,-0.00047712578,0.0012129846,0.00035734693,0.3720349,-4.9758904e-09,0.47024006,0.0,0.0,0.0,0.0,0.0,1.0116971e-09,5.9852304e-05,0.0012011646,2.1893145e-06,4.7995036e-06,4.8018883e-06,3.4710425e-05,0.0053492906,0.005349268,0.011739533,0.0079886215,0.007988599,0.0628387,1.0062991e-11,1.0065895e-11,1.8283224e-11,5.0000217e-08,5.0000217e-08,5e-08,0.0,0.0,0.0,0.0,0.0,0.0,0.0,0.0,659,0.12640104,0.25067648,0.04035805,0.0,2.2059269e-06,0.019337866,0.0,0.00081022584,0.0,0.001739,0,0,0,229,24,0,0,0
312042875,0.9699696,0.0087326635,0.006078179,0.24299383,-0.0024076141,-0.0025757235,-0.015530761,-0.0023586405,-0.0028102326,-1.9857972,-2.3515754e-06,8.1515755e-06,-1.9804262e-05,-0.00047711743,0.0012129869,0.00035771506,0.3720349,-4.9758904e-09,0.47024006,0.0,0.0,0.0,0.0,0.0,9.692286e-10,6.0881728e-05,0.0011180807,2.1980732e-06,4.9618193e-06,4.96422e-06,3.474909e-05,0.006294528,0.0062945,0.011839729,0.010457471,0.010457434,0.06379334,1.01691286e-11,1.0172012e-11,1.829118e-11,5.0001148e-08,5.0001148e-08,5.0000036e-08,0.0,0.0,0.0,0.0,0.0,0.0,0.0,0.0,659,0.14461987,0.25257343,0.057695307,0.0,2.789247e-06,0.0030986036,0.0,0.00081022584,0.0,0.001684,0,0,0,229,24,0,0,0
312244648,0.9700069,0.0086708935,0.005998281,0.24284865,-0.0025436208,-0.0036926637,-0.017658688,-0.0029472522,-0.0035159907,-1.9883394,-2.3522002e-06,8.153405e-06,-1.9706675e-05,-0.00047710811,0.0012129891,0.00035785127,0.3720349,-4.9758904e-09,0.47024006,0.0,0.0,0.0,0.0,0.0,1.7138044e-09,7.00875e-05,0.0016639923,2.2011254e-06,5.1206653e-06,5.1230586e-06,3.471328e-05,0.00729836,0.0072983266,0.0117771495,0.013477387,0.013477331,0.063358806,1.0270943e-11,1.0273803e-11,1.828274e-11,5.000205e-08,5.000205e-08,5e-08,0.0,0.0,0.0,0.0,0.0,0.0,0.0,0.0,659,0.16417892,0.25171176,0.049672984,0.0,3.4878158e-06,0.0131610865,0.0,0.00081022584,0.0,0.001818,0,0,0,229,24,0,0,0
312444462,0.9699812,0.0083671985,0.0058775973,0.24296486,-0.0038427692,-0.004008386,-0.013699485,-0.003693386,-0.0043312893,-1.9796306,-2.3528983e-06,8.154371e-06,-1.9650057e-05,-0.00047710154,0.0012129934,0.00035362528,0.3720349,-4.9758904e-09,0.47024006,0.0,0.0,0.0,0.0,0.0,2.119702e-09,8.39093e-05,0.0018729463,2.2103557e-06,5.283697e-06,5.2859355e-06,3.4732588e-05,0.008409602,0.008409546,0.011728809,0.017274225,0.017274149,0.06304095,1.03761305e-11,1.0378971e-11,1.8290288e-11,5.000296e-08,5.000296e-08,5.0000036e-08,0.0,0.0,0.0,0.0,0.0,0.0,0.0,0.0,659,0.18587193,0.25107956,0.0017437318,0.0,4.2982006e-06,0.03550335,0.0,0.00081022584,0.0,0.001671,0,0,0,229,24,0,0,0
312652642,0.9699483,0.008475148,0.005859947,0.24309298,-0.003888531,-0.0031417175,-0.016765648,-0.0045384117,-0.0050756983,-1.9863806,-2.3532343e-06,8.155746e-06,-1.9581616e-05,-0.00047709513,0.0012129936,0.00035522107,0.3720349,-4.9758904e-09,0.47024006,0.0,0.0,0.0,0.0,0.0,2.3993663e-09,9.980475e-05,0.0020086274,2.2213726e-06,5.4544817e-06,5.456798e-06,3.476811e-05,0.009664365,0.009664298,0.011721462,0.022115491,0.022115393,0.06301557,1.048123e-11,1.0484048e-11,1.8298021e-11,5.0003855e-08,5.0003855e-08,5e-08,0.0,0.0,0.0,0.0,0.0,0.0,0.0,0.0,659,0.2103114,0.251029,0.009134592,0.0,5.077137e-06,0.013342738,0.0,0.00081022584,0.0,0.001846,0,0,0,229,24,0,0,0
312852658,0.9699331,0.008148467,0.005824317,0.2431655,-0.0036420857,-0.004813614,-0.013302524,-0.0054780347,-0.0057679135,-1.9735308,-2.3540993e-06,8.1569315e-06,-1.9513283e-05,-0.000477087,0.0012129988,0.00034959713,0.3720349,-4.9758904e-09,0.47024006,0.0,0.0,0.0,0.0,0.0,2.7291391e-09,0.00012232449,0.0025701951,2.2268196e-06,5.6213744e-06,5.6234853e-06,3.4729044e-05,0.010980762,0.010980646,0.011783164,0.027792035,0.027791884,0.063598305,1.0581879e-11,1.0584666e-11,1.8289328e-11,5.0004726e-08,5.0004726e-08,5e-08,0.0,0.0,0.0,0.0,0.0,0.0,0.0,0.0,659,0.23576242,0.25218704,0.015601568,0.0,5.669749e-06,0.022363849,0.0,0.00081022584,0.0,0.001867,0,0,0,229,24,0,0,0
313054167,0.9699322,0.008268963,0.0058653266,0.24316417,-0.005369577,-0.0038495723,-0.005576136,-0.00651756,-0.006614802,-1.9544691,-2.3551663e-06,8.158332e-06,-1.9433375e-05,-0.00047707694,0.001213005,0.00034215074,0.3720349,-4.9758904e-09,0.47024006,0.0,0.0,0.0,0.0,0.0,2.822522e-09,0.00013190643,0.0029767181,2.2347003e-06,5.790038e-06,5.792204e-06,3.4747205e-05,0.012403049,0.012402869,0.011735044,0.034598283,0.03459806,0.063208714,1.0681625e-11,1.0684385e-11,1.8292968e-11,5.0005568e-08,5.0005568e-08,5.0000036e-08,0.0,0.0,0.0,0.0,0.0,0.0,0.0,0.0,659,0.263052,0.25141343,0.023554694,0.0,6.5858885e-06,0.008041523,0.0,0.00081022584,0.0,0.001776,0,0,0,229,24,0,0,0
313262137,0.96993,0.008003091,0.0057692747,0.2431844,-0.008507885,-0.0042239022,-0.0013366461,-0.007881723,-0.0074364445,-1.9404368,-2.3561004e-06,8.159963e-06,-1.9346217e-05,-0.0004770666,0.0012130089,0.0003371105,0.3720349,-4.9758904e-09,0.47024006,0.0,0.0,0.0,0.0,0.0,4.81779e-09,0.00018685183,0.0035642162,2.2411716e-06,5.9696386e-06,5.971673e-06,3.4728895e-05,0.014022145,0.014021894,0.011838787,0.04312763,0.043127324,0.06418929,1.0788702e-11,1.0791432e-11,1.8292244e-11,5.0006484e-08,5.0006484e-08,5.000007e-08,0.0,0.0,0.0,0.0,0.0,0.0,0.0,0.0,659,0.29369193,0.25335607,0.016552335,0.0,7.756208e-06,0.009454693,0.0,0.00081022584,0.0,0.001746,0,0,0,229,24,0,0,0
313462036,0.96995664,0.007622071,0.0056264596,0.24309358,-0.0015668552,-0.010858865,-0.005756446,-0.009291744,-0.008556539,-1.9467615,-2.3564442e-06,8.16165e-06,-1.9271627e-05,-0.00047705916,0.001213007,0.00033960244,0.3720349,-4.9758904e-09,0.47024006,0.0,0.0,0.0,0.0,0.0,1.0850301e-08,0.00023752662,0.0048205582,2.2438733e-06,6.141432e-06,6.1432906e-06,3.469289e-05,0.01567697,0.01567661,0.011777286,0.052713808,0.052713387,0.06370742,1.0886312e-11,1.0889013e-11,1.8283727e-11,5.000731e-08,5.000731e-08,5e-08,0.0,0.0,0.0,0.0,0.0,0.0,0.0,0.0,659,0.32469553,0.2524033,0.0245081,0.0,9.2953e-06,0.007165756,0.0,0.00081022584,0.0,0.001645,0,0,0,229,24,0,0,0
313662156,0.97005075,0.0062069525,0.005420437,0.2427625,-0.007564342,-0.0054459046,0.00036372902,-0.010370445,-0.010226842,-1.9384546,-2.3569398e-06,8.162472e-06,-1.9239757e-05,-0.0004770541,0.0012130084,0.00033638754,0.3720349,-4.9758904e-09,0.47024006,0.0,0.0,0.0,0.0,0.0,1.2201236e-08,0.0002600812,0.0051759407,2.2440042e-06,6.314015e-06,6.3151933e-06,3.471958e-05,0.017439067,0.01743876,0.011715546,0.06387917,0.06387862,0.06321742,1.0982387e-11,1.0985064e-11,1.8287502e-11,5.00081e-08,5.00081e-08,5e-08,0.0,0.0,0.0,0.0,0.0,0.0,0.0,0.0,659,0.35743222,0.25143075,0.011916011,0.0,1.0375693e-05,0.010856781,0.0,0.00081022584,0.0,0.001765,0,0,0,229,24,0,0,0
313868163,0.9700453,0.006539571,0.005090281,0.24278294,-0.014307025,0.002045266,0.0050174603,-0.012642949,-0.010652213,-1.9153649,-2.357999e-06,8.163979e-06,-1.9168854e-05,-0.00047704365,0.0012130142,0.00032815902,0.3720349,-4.9758904e-09,0.47024006,0.0,0.0,0.0,0.0,0.0,1.5171914e-08,0.00028142775,0.0056416723,2.2495924e-06,6.4925784e-06,6.4940587e-06,3.469925e-05,0.019374127,0.019373821,0.011702905,0.07717706,0.07717633,0.06303132,1.1079254e-11,1.1081903e-11,1.8281546e-11,5.0008882e-08,5.0008882e-08,5e-08,0.0,0.0,0.0,0.0,0.0,0.0,0.0,0.0,659,0.39287835,0.2510604,0.02320318,0.0,1.265534e-05,0.037027765,0.0,0.00081022584,0.0,0.002144,0,0,0,229,24,0,0,0
314067844,0.9701528,0.005478529,0.004377102,0.24239326,-0.010860436,-0.0031935994,0.006637724,-0.014802641,-0.010865212,-1.9100264,-2.3587058e-06,8.166079e-06,-1.907874e-05,-0.00047703303,0.0012130159,0.00032703608,0.3720349,-4.9758904e-09,0.47024006,0.0,0.0,0.0,0.0,0.0,2.0455825e-08,0.00037163813,0.0066654976,2.2507757e-06,6.6667276e-06,6.6679563e-06,3.4724937e-05,0.021377143,0.021376777,0.01176806,0.09207677,0.09207581,0.06359393,1.11725455e-11,1.1175173e-11,1.828531e-11,5.000959e-08,5.000959e-08,5.000007e-08,0.0,0.0,0.0,0.0,0.0,0.0,0.0,0.0,659,0.42913002,0.25217837,0.043600235,0.0,1.4620336e-05,0.008777205,0.0,0.00081022584,0.0,0.001853,0,0,0,229,24,0,0,0
314275688,0.97013813,0.005989212,0.0035477267,0.24245338,-0.0117702205,-0.0030297043,0.007776973,-0.016631778,-0.011138028,-1.9238875,-2.358682e-06,8.167592e-06,-1.9039413e-05,-0.00047702825,0.0012130097,0.00033281793,0.3720349,-4.9758904e-09,0.47024006,0.0,0.0,0.0,0.0,0.0,3.2775155e-08,0.0005175107,0.00973194,2.2558663e-06,6.845487e-06,6.847195e-06,3.4706532e-05,0.0235563,0.02355588,0.011756467,0.1096832,0.10968196,0.063493684,1.1266461e-11,1.1269072e-11,1.8280958e-11,5.001028e-08,5.001028e-08,5e-08,0.0,0.0,0.0,0.0,0.0,0.0,0.0,0.0,659,0.46836433,0.25197953,0.0117523465,0.0,1.6641134e-05,0.00086584786,0.0,0.00081022584,0.0,0.001696,0,0,0,229,24,0,0,0
314477283,0.9701267,0.007249193,0.003048783,0.24247149,-0.0048591187,0.007117766,0.0066265417,-0.017664943,-0.010976382,-1.9156188,-2.3593793e-06,8.169531e-06,-1.8968158e-05,-0.0004770185,0.0012130172,0.00033036666,0.3720349,-4.9758904e-09,0.47024006,0.0,0.0,0.0,0.0,0.0,4.1180368e-08,0.0005583063,0.0108101135,2.2635365e-06,7.0171614e-06,7.0196515e-06,3.472476e-05,0.025776997,0.025776558,0.011811333,0.12888499,0.1288834,0.063994475,1.1354811e-11,1.1357403e-11,1.8284652e-11,5.0010904e-08,5.00109e-08,5e-08,0.0,0.0,0.0,0.0,0.0,0.0,0.0,0.0,659,0.50770897,0.2529713,0.042336643,0.0,1.7682343e-05,0.020542901,0.0,0.00081022584,0.0,0.00166,0,0,0,229,24,0,0,0
314677360,0.9700134,0.009598728,0.0025105814,0.24284922,-0.005317891,0.012991146,0.0014708667,-0.019194387,-0.007921612,-1.9351497,-2.359434e-06,8.171895e-06,-1.8895786e-05,-0.00047701027,0.0012130111,0.0003379196,0.3720349,-4.9758904e-09,0.47024006,0.0,0.0,0.0,0.0,0.0,7.936884e-08,0.0006487156,0.012030916,2.2743604e-06,7.184036e-06,7.1881673e-06,3.468074e-05,0.028072974,0.028072523,0.011747002,0.15036017,0.15035827,0.06351592,1.1441849e-11,1.144442e-11,1.8279886e-11,5.0011483e-08,5.001148e-08,5e-08,0.0,0.0,0.0,0.0,0.0,0.0,0.0,0.0,659,0.548378,0.25202364,0.053318936,0.0,1.9197678e-05,0.035021327,0.0,0.00081022584,0.0,0.001769,0,0,0,229,24,0,0,0
314885320,0.97008705,0.011470484,0.0020674835,0.24247777,-0.001099717,0.029713709,-0.026023312,-0.020346671,-0.0039026812,-1.963447,-2.3593461e-06,8.174586e-06,-1.880622e-05,-0.00047700072,0.0012130028,0.0003479712,0.3720349,-4.9758904e-09,0.47024006,0.0,0.0,0.0,0.0,0.0,1.7187823e-07,0.00077941886,0.012799593,2.274002e-06,7.357547e-06,7.3632586e-06,3.4666904e-05,0.030598257,0.030597743,0.011831111,0.17529671,0.17529446,0.06429171,1.1527733e-11,1.1530285e-11,1.8275551e-11,5.001204e-08,5.0012037e-08,5e-08,0.0,0.0,0.0,0.0,0.0,0.0,0.0,0.0,659,0.5921074,0.2535581,0.024754351,0.0,2.0360494e-05,0.011395643,0.0,0.00081022584,0.0,0.001729,0,0,0,229,24,0,0,0
315491033,0.96802306,0.047177553,-0.035487615,0.24381612,0.104553774,0.24586116,-0.0628871,-0.003049718,0.04680535,-2.0151,-2.3599835e-06,8.179449e-06,-1.8439428e-05,-0.00047722185,0.001213124,0.0003553789,0.3720349,-4.9758904e-09,0.47024006,0.0,0.0,0.0,0.0,0.0,5.173356e-07,0.0011127754,0.017776933,2.3490538e-06,7.845151e-06,7.881649e-06,3.4561646e-05,0.03821458,0.038209744,0.0118911825,0.26227084,0.26226872,0.06482621,1.1748147e-11,1.1750707e-11,1.8277026e-11,5.0012964e-08,5.0013004e-08,5.0000036e-08,0.0,0.0,0.0,0.0,0.0,0.0,0.0,0.0,659,0.72425103,0.2546099,0.13326794,0.0,4.3115644e-05,0.06403278,0.0,0.0111009795,0.0,0.0018419999,0,0,0,229,24,0,0,0
315691000,0.9679932,0.043707673,-0.035233833,0.24461694,0.20393291,0.42148638,-0.009752878,0.026560236,0.11230684,-1.993844,-2.3581658e-06,8.176618e-06,-1.8232893e-05,-0.00047752078,0.0012131755,0.0003448802,0.3720349,-4.9758904e-09,0.47024006,0.0,0.0,0.0,0.0,0.0,5.8655854e-07,0.0011122333,0.018293269,2.3726072e-06,7.987983e-06,8.014355e-06,3.4570534e-05,0.04072695,0.040711537,0.011926704,0.29579574,0.29579395,0.065201476,1.1812379e-11,1.1814954e-11,1.8280709e-11,5.0013004e-08,5.0013213e-08,5.000007e-08,0.0,0.0,0.0,0.0,0.0,0.0,0.0,0.0,659,0.7691487,0.2553458,0.10403654,0.0,0.000105877625,0.028402843,0.0,0.008401522,0.0,0.001808,0,0,0,229,24,0,0,0
315898896,0.96887577,0.028858887,-0.02682188,0.24439204,0.29328507,0.5387044,0.028223848,0.07531488,0.20738359,-2.030413,-2.3501973e-06,8.169733e-06,-1.802783e-05,-0.00047773693,0.0012131677,0.00035969785,0.3720349,-4.9758904e-09,0.47024006,0.0,0.0,0.0,0.0,0.0,6.7205764e-07,0.001154623,0.017639762,2.3655205e-06,8.1141025e-06,8.120704e-06,3.4596018e-05,0.04323305,0.043208968,0.011887695,0.33219567,0.33219263,0.064887986,1.1870079e-11,1.187266e-11,1.8276212e-11,5.0012954e-08,5.0013256e-08,5.0000036e-08,0.0,0.0,0.0,0.0,0.0,0.0,0.0,0.0,659,0.8151002,0.2547312,0.110161714,0.0,0.00019918241,0.0033964885,0.0,0.041756675,0.0,0.001705,0,0,0,229,24,0,0,0
316096484,0.96917003,0.00931094,-0.014472902,0.2457912,0.3571182,0.6213535,0.035288416,0.13525212,0.31363487,-2.0339773,-2.3373352e-06,8.155934e-06,-1.788465e-05,-0.00047786895,0.0012131779,0.00036502868,0.3720349,-4.9758904e-09,0.47024006,0.0,0.0,0.0,0.0,0.0,7.5826404e-07,0.001186335,0.018585194,2.389179e-06,8.217651e-06,8.215255e-06,3.4619974e-05,0.045534316,0.045502912,0.011808771,0.36759168,0.36758488,0.06410042,1.1913526e-11,1.1916098e-11,1.8276318e-11,5.00128e-08,5.001312e-08,5e-08,0.0,0.0,0.0,0.0,0.0,0.0,0.0,0.0,659,0.8574244,0.25318062,0.08108949,0.0,0.00031421843,0.008813712,0.0,0.05185694,0.0,0.001684,0,0,0,229,24,0,0,0
316304580,0.9680831,0.034407333,-0.029558942,0.24649024,0.4243724,0.7100385,-0.006097796,0.20961265,0.4381607,-2.014541,-2.3199977e-06,8.134132e-06,-1.7655719e-05,-0.00047813478,0.0012132346,0.00035933635,0.3720349,-4.9758904e-09,0.47024006,0.0,0.0,0.0,0.0,0.0,6.0708953e-07,0.001191412,0.019456843,2.4270303e-06,8.336202e-06,8.35133e-06,3.453756e-05,0.04809081,0.048051246,0.011789821,0.4073078,0.40729398,0.06391075,1.1960416e-11,1.196297e-11,1.8273667e-11,5.001262e-08,5.001298e-08,5.000007e-08,0.0,0.0,0.0,0.0,0.0,0.0,0.0,0.0,659,0.9025529,0.25280577,0.09895146,0.0,0.00042769097,0.022514338,0.0,0.047595948,0.0,0.001789,0,0,0,229,24,0,0,0
316504479,0.9680874,0.034804404,-0.02880882,0.24650675,0.50790817,0.8432423,-0.08494866,0.29110792,0.57022464,-2.0229468,-2.2921593e-06,8.095722e-06,-1.7350067e-05,-0.00047860228,0.0012133,0.00036018077,0.3720349,-4.9758904e-09,0.47024006,0.0,0.0,0.0,0.0,0.0,4.9672684e-07,0.0010913601,0.018380662,2.4391481e-06,8.40982e-06,8.428094e-06,3.4491215e-05,0.05026493,0.05020757,0.011637582,0.44392172,0.44389674,0.062471133,1.1987869e-11,1.1990401e-11,1.8265075e-11,5.0012115e-08,5.0012574e-08,5e-08,0.0,0.0,0.0,0.0,0.0,0.0,0.0,0.0,659,0.9422412,0.24994226,0.1384377,0.0,0.0005715605,0.04268185,0.0,0.048138678,0.0,0.001688,0,0,0,229,24,0,0,0
316710187,0.96915954,0.02661283,-0.023800425,0.24383445,0.5912557,0.9520224,-0.25925803,0.39240518,0.731568,-2.0591333,-2.2623299e-06,8.052869e-06,-1.7080796e-05,-0.00047904105,0.0012133666,0.00036166166,0.3720349,-4.9758904e-09,0.47024006,0.0,0.0,0.0,0.0,0.0,5.961576e-07,0.0009909547,0.017133612,2.3969258e-06,8.50969e-06,8.5191705e-06,3.4533463e-05,0.05306615,0.052994646,0.011760273,0.48754197,0.48749864,0.063404426,1.2028942e-11,1.203144e-11,1.8260728e-11,5.001183e-08,5.001238e-08,5e-08,0.0,0.0,0.0,0.0,0.0,0.0,0.0,0.0,659,0.9874414,0.25180236,0.109026656,0.0,0.0007259205,0.043508217,0.0,0.039616723,0.0,0.0017959999,0,0,0,229,24,0,0,0
316910163,0.96984565,0.0031665936,-0.00894544,0.24353513,0.64436716,0.9877126,-0.4932927,0.494826,0.8869915,-2.17796,-2.21703e-06,7.986981e-06,-1.6938951e-05,-0.00047934163,0.0012133918,0.00037782924,0.3720349,-4.9758904e-09,0.47024006,0.0,0.0,0.0,0.0,0.0,4.5692425e-07,0.0010043231,0.01672452,2.3903747e-06,8.570371e-06,8.570405e-06,3.4583507e-05,0.05538702,0.055315163,0.011725946,0.5263478,0.5262845,0.06291653,1.205014e-11,1.2052547e-11,1.8262777e-11,5.001131e-08,5.0011877e-08,5.0000036e-08,0.0,0.0,0.0,0.0,0.0,0.0,0.0,0.0,659,1.0259787,0.2508317,0.0442283,0.0,0.0008814044,0.010942444,0.0,0.005173986,0.0,0.001766,0,0,0,229,24,0,0,0
317118106,0.9694861,-0.0012340053,-0.005768831,0.24507543,0.67162544,0.9580426,-0.6288019,0.6048177,1.0417514,-2.3139212,-2.1635765e-06,7.903877e-06,-1.6895774e-05,-0.00047972164,0.0012134603,0.00038324375,0.3720349,-4.9758904e-09,0.47024006,0.0,0.0,0.0,0.0,0.0,3.5345155e-07,0.0010595206,0.01870369,2.4201663e-06,8.632696e-06,8.633733e-06,3.4539178e-05,0.05755876,0.057500865,0.011731054,0.5683578,0.5682739,0.062881015,1.2071258e-11,1.2073519e-11,1.8258457e-11,5.0010758e-08,5.0011348e-08,5.000007e-08,0.0,0.0,0.0,0.0,0.0,0.0,0.0,0.0,659,1.0661293,0.25076088,0.008642497,0.0,0.0010293433,0.0021271256,0.0,0.0071563283,0.0,0.001686,0,0,0,229,24,0,0,0
317318311,0.9690714,-0.0018258893,-0.0029500548,0.24675612,0.67087454,0.9021471,-0.6996321,0.7049028,1.169576,-2.4548113,-2.10293e-06,7.804916e-06,-1.6904509e-05,-0.00048019548,0.0012135555,0.000385137,0.3720349,-4.9758904e-09,0.47024006,0.0,0.0,0.0,0.0,0.0,2.759166e-07,0.0010051975,0.018975401,2.4495396e-06,8.676274e-06,8.677757e-06,3.4474713e-05,0.059264548,0.059221473,0.011709765,0.6072469,0.60714644,0.062596045,1.2083837e-11,1.2085931e-11,1.8250113e-11,5.0010065e-08,5.0010648e-08,5e-08,0.0,0.0,0.0,0.0,0.0,0.0,0.0,0.0,659,1.1019952,0.25019202,0.0011613044,0.0,0.0011586085,0.016793543,0.0,0.008561954,0.0,0.001866,0,0,0,229,24,0,0,0
317519745,0.96867543,-0.0016802998,-0.0014208554,0.24832088,0.66290617,0.8406589,-0.74545664,0.7958563,1.2737368,-2.6183803,-2.0336918e-06,7.688083e-06,-1.6890654e-05,-0.00048072313,0.0012136527,0.00039173322,0.3720349,-4.9758904e-09,0.47024006,0.0,0.0,0.0,0.0,0.0,2.212153e-07,0.0009674709,0.018745491,2.485375e-06,8.707888e-06,8.7092685e-06,3.452352e-05,0.060698256,0.060668353,0.0116806,0.6447847,0.64467186,0.06228082,1.2091107e-11,1.2093022e-11,1.8266295e-11,5.000921e-08,5.000983e-08,5e-08,0.0,0.0,0.0,0.0,0.0,0.0,0.0,0.0,659,1.1355424,0.24956125,0.013080489,0.0,0.0012779586,0.024215681,0.0,0.0045744963,0.0,0.001715,0,0,0,229,24,0,0,0
317719716,0.9687451,-0.0020682742,-0.0008638223,0.24804814,0.6472546,0.77267313,-0.7714521,0.8809611,1.3639214,-2.8073695,-1.9652607e-06,7.568047e-06,-1.693292e-05,-0.00048122692,0.001213717,0.00040470477,0.3720349,-4.9758904e-09,0.47024006,0.0,0.0,0.0,0.0,0.0,1.716937e-07,0.00084789575,0.017312888,2.4786455e-06,8.752895e-06,8.754232e-06,3.4495846e-05,0.062274925,0.062256757,0.011761884,0.6858399,0.6857186,0.062983654,1.2108782e-11,1.2110513e-11,1.8261514e-11,5.000851e-08,5.0009167e-08,5.0000036e-08,0.0,0.0,0.0,0.0,0.0,0.0,0.0,0.0,659,1.1711355,0.25096545,0.05130344,0.0,0.0013625554,0.038815983,0.0,0.016756622,0.0,0.001726,0,0,0,229,24,0,0,0
317919794,0.9690137,-0.0020872785,-0.0013400852,0.24699484,0.615502,0.69742644,-0.76748407,0.95440966,1.4314058,-2.989282,-1.8940891e-06,7.438943e-06,-1.6965729e-05,-0.00048177846,0.0012138062,0.00041466262,0.3720349,-4.9758904e-09,0.47024006,0.0,0.0,0.0,0.0,0.0,1.7434377e-07,0.0009613612,0.017526787,2.4618287e-06,8.78849e-06,8.7898625e-06,3.4537145e-05,0.06359798,0.06358868,0.011836926,0.72521865,0.7250941,0.06361189,1.211963e-11,1.2121175e-11,1.8265276e-11,5.000769e-08,5.0008378e-08,5.000007e-08,0.0,0.0,0.0,0.0,0.0,0.0,0.0,0.0,659,1.2042893,0.25221398,0.0042896722,0.0,0.0014198787,0.05475761,0.0,0.022601549,0.0,0.001804,0,0,0,229,24,0,0,0
318127897,0.9692557,-0.001591239,-0.00061433535,0.24605021,0.59409356,0.62282217,-0.77928865,1.0135242,1.471552,-3.1844964,-1.8111707e-06,7.2832618e-06,-1.6992211e-05,-0.00048242806,0.0012139162,0.00042684775,0.3720349,-4.9758904e-09,0.47024006,0.0,0.0,0.0,0.0,0.0,1.5211954e-07,0.0009179536,0.016966645,2.44475e-06,8.800915e-06,8.802002e-06,3.4538305e-05,0.0645428,0.06454194,0.011828622,0.76065814,0.76053756,0.063544236,1.2119836e-11,1.2121165e-11,1.8260725e-11,5.0006616e-08,5.0007355e-08,5.0000036e-08,0.0,0.0,0.0,0.0,0.0,0.0,0.0,0.0,659,1.2333676,0.2520798,0.017202133,0.0,0.0014671617,0.034461115,0.0,0.02821811,0.0,0.001907,0,0,0,229,24,0,0,0
318329788,0.9694287,-0.0018839511,-0.0016666737,0.24536026,0.5680077,0.55696326,-0.7947627,1.0644257,1.4974434,-3.3773732,-1.7362935e-06,7.137619e-06,-1.702529e-05,-0.00048301832,0.0012140147,0.00043899385,0.3720349,-4.9758904e-09,0.47024006,0.0,0.0,0.0,0.0,0.0,1.502615e-07,0.00093553914,0.017533207,2.4346043e-06,8.823233e-06,8.824492e-06,3.4573553e-05,0.06559533,0.065599434,0.011896284,0.79684544,0.79673266,0.06416145,1.2127592e-11,1.2128736e-11,1.826631e-11,5.000569e-08,5.0006495e-08,5.0000093e-08,0.0,0.0,0.0,0.0,0.0,0.0,0.0,0.0,659,1.26237,0.2533011,0.014049522,0.0,0.0014939542,0.013914225,0.0,0.017396966,0.0,0.002198,0,0,0,229,24,0,0,0
319338953,0.96960646,-0.0011964635,-0.0005489696,0.24466617,0.41151375,0.2137674,-1.4718448,1.1387821,1.3455559,-4.584545,-1.3644865e-06,6.3191715e-06,-1.761863e-05,-0.00048645795,0.0012147367,0.0004718499,0.3720349,-4.9758904e-09,0.47024006,0.0,0.0,0.0,0.0,0.0,1.5614287e-07,0.0010324914,0.018315429,2.406679e-06,8.804935e-06,8.80522e-06,3.4565426e-05,0.06887356,0.06888323,0.011855638,0.92634165,0.9263149,0.06408993,1.2115557e-11,1.2115827e-11,1.8258514e-11,5.0000036e-08,5.0001123e-08,5.0000036e-08,0.0,0.0,0.0,0.0,0.0,0.0,0.0,0.0,659,1.3611233,0.25315988,0.037403204,0.0,0.0013500624,0.0008733889,0.0,0.028403921,0.0,0.001762,0,0,0,229,24,0,0,0
319546898,0.96964586,-0.0006886065,-0.000782428,0.24451154,0.36828876,0.15017463,-1.5228149,1.1233964,1.2738155,-4.909299,-1.3000349e-06,6.1549963e-06,-1.7766912e-05,-0.0004871813,0.0012149138,0.0004739226,0.3720349,-4.9758904e-09,0.47024006,0.0,0.0,0.0,0.0,0.0,1.4492657e-07,0.0009602964,0.01635862,2.3993946e-06,8.7925355e-06,8.792689e-06,3.4557866e-05,0.06893126,0.06893805,0.011828803,0.94431067,0.94430155,0.06389561,1.21111255e-11,1.2111256e-11,1.8254322e-11,5.000004e-08,5.000004e-08,5.000004e-08,0.0,0.0,0.0,0.0,0.0,0.0,0.0,0.0,659,1.3742679,0.25277582,0.019298172,0.0,0.001278613,0.007047832,0.0,0.018046936,0.0,0.001707,0,0,0,229,24,0,0,0
319748583,0.96972454,-0.00041239872,-0.0005454246,0.24420056,0.34464696,0.088512935,-1.1994636,1.1096781,1.2039386,-5.1594768,-1.2486613e-06,6.01658e-06,-1.7866863e-05,-0.00048792636,0.0012151366,0.00046498384,0.3720349,-4.9758904e-09,0.47024006,0.0,0.0,0.0,0.0,0.0,1.9827456e-07,0.001188934,0.01748195,2.3934424e-06,8.800493e-06,8.800412e-06,3.458858e-05,0.06846624,0.068471126,0.01188827,0.9652614,0.96526736,0.06441978,1.2116364e-11,1.2116387e-11,1.825823e-11,5.000007e-08,5.000007e-08,5.000007e-08,0.0,0.0,0.0,0.0,0.0,0.0,0.0,0.0,659,1.3894347,0.25381052,0.029051496,0.0,0.0012082942,0.0012215365,0.0,0.003796957,0.0,0.001792,0,0,0,229,24,0,0,0
319948733,0.96977794,7.0991655e-06,0.00018024375,0.24398921,0.33637705,0.030209705,-0.8567945,1.0721086,1.1056911,-5.3310547,-1.1916721e-06,5.8515634e-06,-1.7992477e-05,-0.0004888458,0.0012154321,0.00045169162,0.3720349,-4.9758904e-09,0.47024006,0.0,0.0,0.0,0.0,0.0,1.6428409e-07,0.0010723218,0.019704338,2.3847545e-06,8.758546e-06,8.758014e-06,3.4563276e-05,0.06689863,0.0669017,0.011718607,0.9658731,0.9658918,0.062994406,1.2103274e-11,1.2103182e-11,1.8253718e-11,5e-08,5e-08,5e-08,0.0,0.0,0.0,0.0,0.0,0.0,0.0,0.0,659,1.3898795,0.25098687,0.116477214,0.0,0.001111057,0.05654254,0.0,0.027082153,0.0,0.001927,0,0,0,229,24,0,0,0
320156566,0.9697218,0.00069472526,-0.000980246,0.24420966,0.29781154,-0.014121409,-0.50882244,1.0540993,1.0241275,-5.443971,-1.15208e-06,5.726117e-06,-1.8095563e-05,-0.00048954925,0.0012156757,0.0004405611,0.3720349,-4.9758904e-09,0.47024006,0.0,0.0,0.0,0.0,0.0,2.430038e-07,0.0013817324,0.021317292,2.3930997e-06,8.779619e-06,8.779338e-06,3.4660683e-05,0.06653979,0.0665392,0.011822252,0.98582137,0.9858515,0.063876845,1.2115964e-11,1.2115792e-11,1.8273947e-11,5.000007e-08,5.000007e-08,5.000007e-08,0.0,0.0,0.0,0.0,0.0,0.0,0.0,0.0,659,1.4041626,0.25273868,0.08977359,0.0,0.0010544808,0.020054549,0.0,0.014365532,0.0,0.001775,0,0,0,229,24,0,0,0
320356600,0.9697147,0.0014271314,-0.00033517936,0.24423602,0.26451507,-0.053147882,-0.1872287,1.0277075,0.94111913,-5.4960637,-1.1169634e-06,5.6051176e-06,-1.827608e-05,-0.0004901706,0.0012158911,0.0004330807,0.3720349,-4.9758904e-09,0.47024006,0.0,0.0,0.0,0.0,0.0,2.094973e-07,0.0012452052,0.019345667,2.3865045e-06,8.794173e-06,8.793536e-06,3.463141e-05,0.066034995,0.06603132,0.011877952,0.99991196,0.9999492,0.06437533,1.2125689e-11,1.2125445e-11,1.8265358e-11,5.000007e-08,5.000007e-08,5.000007e-08,0.0,0.0,0.0,0.0,0.0,0.0,0.0,0.0,659,1.4141645,0.25372294,0.08302585,0.0,0.0010285231,0.03700353,0.0,0.002461691,0.0,0.001809,0,0,0,229,24,0,0,0
320558137,0.96982855,0.00066255743,1.285866e-05,0.24378727,0.22567353,-0.08600537,0.09735569,0.9865976,0.8480823,-5.4854293,-1.0845603e-06,5.4779707e-06,-1.8405646e-05,-0.00049079565,0.0012161386,0.00042538263,0.3720349,-4.9758904e-09,0.47024006,0.0,0.0,0.0,0.0,0.0,2.1938017e-07,0.0011662715,0.020346573,2.3736125e-06,8.7874605e-06,8.786543e-06,3.4610013e-05,0.06512684,0.06512044,0.011816679,1.0028466,1.0028867,0.06390459,1.2130204e-11,1.2129893e-11,1.8261243e-11,5.0000075e-08,5.0000075e-08,5.0000065e-08,0.0,0.0,0.0,0.0,0.0,0.0,0.0,0.0,659,1.4162391,0.25279358,0.10718556,0.0,0.0009893916,0.016906748,0.0,0.009727671,0.0,0.001715,0,0,0,229,24,0,0,0
320766232,0.96983314,0.000602472,-0.00028199606,0.24376915,0.2033078,-0.11443222,0.39637694,0.95266837,0.76197976,-5.4120035,-1.0605415e-06,5.371731e-06,-1.8563776e-05,-0.0004913305,0.0012163683,0.0004168634,0.3720349,-4.9758904e-09,0.47024006,0.0,0.0,0.0,0.0,0.0,4.0409438e-07,0.0014374403,0.02116397,2.3720734e-06,8.817269e-06,8.816351e-06,3.4656594e-05,0.064883485,0.06487506,0.011908769,1.0170708,1.017111,0.0647261,1.21475755e-11,1.2147211e-11,1.8269235e-11,5.0000075e-08,5.0000075e-08,5.0000075e-08,0.0,0.0,0.0,0.0,0.0,0.0,0.0,0.0,659,1.4262474,0.25441325,0.09641898,0.0,0.00095420616,0.034814727,0.0,0.0080274595,0.0,0.001841,0,0,0,229,24,0,0,0
320966055,0.9698077,1.11895515e-05,-0.00064427307,0.24387039,0.17531885,-0.15022646,0.703883,0.90530336,0.6706085,-5.260937,-1.0395621e-06,5.2608684e-06,-1.8700095e-05,-0.0004919569,0.0012166755,0.0004014992,0.3720349,-4.9758904e-09,0.47024006,0.0,0.0,0.0,0.0,0.0,3.1920152e-07,0.001335257,0.018482696,2.3687273e-06,8.815685e-06,8.814793e-06,3.4624685e-05,0.06394571,0.0639348,0.011832381,1.0155104,1.015547,0.06411011,1.2151291e-11,1.2150883e-11,1.8260811e-11,5.000004e-08,5.000004e-08,5.0000033e-08,0.0,0.0,0.0,0.0,0.0,0.0,0.0,0.0,659,1.4251517,0.25319973,0.017066518,0.0,0.00090852287,0.015528727,0.0,0.015783269,0.0,0.001664,0,0,0,229,24,0,0,0
321167893,0.9696469,0.00056731177,0.00017794411,0.24450906,0.14268667,-0.18913361,0.9866789,0.85713494,0.57885355,-5.064846,-1.0240734e-06,5.1586253e-06,-1.8884379e-05,-0.0004924138,0.0012169203,0.00039357302,0.3720349,-4.9758904e-09,0.47024006,0.0,0.0,0.0,0.0,0.0,2.6957682e-07,0.0013067051,0.017947853,2.377705e-06,8.829353e-06,8.827986e-06,3.46601e-05,0.063290685,0.06327698,0.011804244,1.0164394,1.0164717,0.06387943,1.2161587e-11,1.21611506e-11,1.8268585e-11,5e-08,5e-08,5e-08,0.0,0.0,0.0,0.0,0.0,0.0,0.0,0.0,659,1.425802,0.2527438,0.1309246,0.0,0.00086151506,0.04074432,0.0,0.009649333,0.0,0.001896,0,0,0,229,24,0,0,0
321367861,0.96940106,-0.001376219,0.0005977088,0.2454778,0.12443784,-0.22985362,1.0619205,0.814064,0.49469456,-4.8446565,-1.014012e-06,5.074382e-06,-1.9133697e-05,-0.0004927487,0.0012171078,0.00038855162,0.3720349,-4.9758904e-09,0.47024006,0.0,0.0,0.0,0.0,0.0,2.3812004e-07,0.0012373315,0.017304176,2.3852326e-06,8.858684e-06,8.857162e-06,3.4611963e-05,0.063325614,0.06330869,0.011848841,1.0203805,1.020408,0.0640771,1.2173514e-11,1.2173062e-11,1.8253028e-11,5.0000036e-08,5.0000036e-08,5.0000033e-08,0.0,0.0,0.0,0.0,0.0,0.0,0.0,0.0,659,1.4285617,0.25313455,0.1028828,0.0,0.0008172571,0.022143546,0.0,0.009567259,0.0,0.00187,0,0,0,229,24,0,0,0
321567949,0.9691342,-0.002312298,0.0012615586,0.24651992,0.081501245,-0.27746662,0.6281773,0.7620413,0.40374866,-4.6558256,-1.0075573e-06,4.9873656e-06,-1.945388e-05,-0.0004930723,0.0012173081,0.00038369605,0.3720349,-4.9758904e-09,0.47024006,0.0,0.0,0.0,0.0,0.0,2.1194246e-07,0.0012022966,0.017440042,2.3952418e-06,8.872666e-06,8.870844e-06,3.4626177e-05,0.06413686,0.06411634,0.011781648,1.0163536,1.0163742,0.06352355,1.21838616e-11,1.2183399e-11,1.8256945e-11,5e-08,5e-08,5e-08,0.0,0.0,0.0,0.0,0.0,0.0,0.0,0.0,659,1.4257376,0.2520388,0.14032963,0.0,0.00076594343,0.00048892974,0.0,0.008365753,0.0,0.001942,0,0,0,229,24,0,0,0
321775735,0.9689213,-0.0014283722,0.002467811,0.24735321,0.031028463,-0.324531,-0.19553131,0.7071319,0.31005758,-4.635453,-1.0064364e-06,4.909205e-06,-1.9832758e-05,-0.000493139,0.0012173717,0.0003934227,0.3720349,-4.9758904e-09,0.47024006,0.0,0.0,0.0,0.0,0.0,1.9457596e-07,0.0011788494,0.019828098,2.3970197e-06,8.901133e-06,8.898351e-06,3.4608736e-05,0.06604281,0.06601908,0.011764758,1.0164781,1.0164889,0.06337058,1.2200408e-11,1.2199947e-11,1.8252596e-11,5e-08,5e-08,5e-08,0.0,0.0,0.0,0.0,0.0,0.0,0.0,0.0,659,1.4258215,0.25173512,0.12931857,0.0,0.00071073783,0.03290576,0.0,0.039787117,0.0,0.001744,0,0,0,229,24,0,0,0
321977380,0.96897125,-0.0013790647,0.0012896886,0.24716648,-0.00857896,-0.3647928,-0.9489415,0.6607916,0.22293068,-4.754173,-1.0084847e-06,4.8537054e-06,-2.016723e-05,-0.0004932783,0.0012174654,0.00039403798,0.3720349,-4.9758904e-09,0.47024006,0.0,0.0,0.0,0.0,0.0,2.2239757e-07,0.0013009795,0.020281399,2.3848993e-06,8.965787e-06,8.963589e-06,3.4646044e-05,0.06872162,0.06869554,0.011931329,1.0338458,1.0338464,0.0648396,1.2232679e-11,1.2232217e-11,1.8256306e-11,5.000007e-08,5.000009e-08,5.000007e-08,0.0,0.0,0.0,0.0,0.0,0.0,0.0,0.0,659,1.4379473,0.25463623,0.12471201,0.0,0.0006642872,0.025084823,0.0,0.027061285,0.0,0.001789,0,0,0,229,24,0,0,0
322177372,0.96910495,-0.00107627,-0.00035217762,0.24664609,-0.048551753,-0.3992492,-1.4191022,0.5914242,0.12874094,-5.020851,-1.0192199e-06,4.787286e-06,-2.0461406e-05,-0.0004933086,0.0012175508,0.00040121036,0.3720349,-4.9758904e-09,0.47024006,0.0,0.0,0.0,0.0,0.0,2.1189726e-07,0.0012175541,0.019334357,2.368668e-06,8.965132e-06,8.963561e-06,3.4689223e-05,0.069273934,0.069246806,0.011752168,1.0207747,1.0207628,0.063327685,1.2240021e-11,1.2239576e-11,1.8263837e-11,5e-08,5e-08,5e-08,0.0,0.0,0.0,0.0,0.0,0.0,0.0,0.0,659,1.4288238,0.25164992,0.119809285,0.0,0.00059448084,0.015532608,0.0,0.035939418,0.0,0.0017809999,0,0,0,229,24,0,0,0
322385299,0.9693643,0.00082997646,-0.00052092347,0.24562562,-0.070737846,-0.41579846,-1.4365566,0.533473,0.037350964,-5.3280783,-1.0312427e-06,4.7417193e-06,-2.071495e-05,-0.00049340294,0.0012176579,0.00040104013,0.3720349,-4.9758904e-09,0.47024006,0.0,0.0,0.0,0.0,0.0,2.3713015e-07,0.0012361353,0.01814011,2.3427801e-06,9.021089e-06,9.019469e-06,3.4700184e-05,0.07004061,0.07001399,0.011854056,1.0318255,1.0318013,0.06418622,1.22682125e-11,1.2267792e-11,1.8259484e-11,5.000004e-08,5.0000065e-08,5.000004e-08,0.0,0.0,0.0,0.0,0.0,0.0,0.0,0.0,659,1.4365329,0.25335,0.083403684,0.0,0.0005367742,0.024982858,0.0,0.012338493,0.0,0.001703,0,0,0,229,24,0,0,0
322585411,0.9696666,0.00071389583,-0.00190069,0.24442276,-0.08211676,-0.42517114,-1.0837672,0.4669262,-0.046437416,-5.5548086,-1.0510832e-06,4.694691e-06,-2.0965032e-05,-0.0004936172,0.0012178792,0.00039121238,0.3720349,-4.9758904e-09,0.47024006,0.0,0.0,0.0,0.0,0.0,2.5765607e-07,0.0012239636,0.017253706,2.312997e-06,9.023913e-06,9.02268e-06,3.4695193e-05,0.06876991,0.06874407,0.011686269,1.0176456,1.0176111,0.06270345,1.2273354e-11,1.2272971e-11,1.8250904e-11,5e-08,5e-08,5e-08,0.0,0.0,0.0,0.0,0.0,0.0,0.0,0.0,659,1.4266243,0.25040656,0.029475484,0.0,0.00046934115,0.015550492,0.0,0.0037071356,0.0,0.00182,0,0,0,229,24,0,0,0
322782882,0.9699088,0.000383233,-0.0010682149,0.24346624,-0.081068926,-0.43997526,-0.7442286,0.41457826,-0.12612173,-5.708678,-1.0706315e-06,4.664489e-06,-2.1129516e-05,-0.00049378973,0.0012180695,0.00038180233,0.3720349,-4.9758904e-09,0.47024006,0.0,0.0,0.0,0.0,0.0,3.061458e-07,0.0012458654,0.018574297,2.2939855e-06,9.074437e-06,9.072848e-06,3.473687e-05,0.06858971,0.06856259,0.011760938,1.0231845,1.02314,0.063203275,1.2297311e-11,1.2296964e-11,1.8252991e-11,5.0000054e-08,5.0000054e-08,5.0000054e-08,0.0,0.0,0.0,0.0,0.0,0.0,0.0,0.0,659,1.430498,0.25140262,0.04788044,0.0,0.00041747373,0.008126338,0.0,0.010929221,0.0,0.001673,0,0,0,229,24,0,0,0
322990878,0.96991485,0.00063934067,-0.0015027615,0.2434391,-0.11111899,-0.45935258,-0.40864268,0.35794568,-0.20556934,-5.7873225,-1.0954088e-06,4.636671e-06,-2.1385338e-05,-0.0004940198,0.0012183093,0.00036725067,0.3720349,-4.9758904e-09,0.47024006,0.0,0.0,0.0,0.0,0.0,2.4710576e-07,0.0011208878,0.019087385,2.285866e-06,9.113384e-06,9.111883e-06,3.4729837e-05,0.068203084,0.06817679,0.011758186,1.0221951,1.0221409,0.06312783,1.2317408e-11,1.2317109e-11,1.824854e-11,5.0000036e-08,5.0000036e-08,5.0000036e-08,0.0,0.0,0.0,0.0,0.0,0.0,0.0,0.0,659,1.4298028,0.25125253,0.10723436,0.0,0.0003606747,0.014150013,0.0,0.018444352,0.0,0.001687,0,0,0,229,24,0,0,0
323190923,0.96980035,0.00057188654,-0.00053674006,0.24389909,-0.12060181,-0.48221526,-0.1105261,0.3090583,-0.279641,-5.822918,-1.120528e-06,4.618395e-06,-2.1647309e-05,-0.0004941097,0.001218449,0.00036062775,0.3720349,-4.9758904e-09,0.47024006,0.0,0.0,0.0,0.0,0.0,2.2169753e-07,0.0011374734,0.018918663,2.2880567e-06,9.168193e-06,9.166293e-06,3.4751825e-05,0.06826052,0.068232745,0.011836431,1.0279045,1.0278413,0.0637432,1.234361e-11,1.2343356e-11,1.8252393e-11,5.0000107e-08,5.0000107e-08,5.0000107e-08,0.0,0.0,0.0,0.0,0.0,0.0,0.0,0.0,659,1.4337872,0.25247416,0.115448646,0.0,0.00031336598,0.009408706,0.0,0.005796021,0.0,0.001733,0,0,0,229,24,0,0,0
323392727,0.9695972,0.0014563348,-0.0013899537,0.24469806,-0.120099895,-0.47279474,0.1645107,0.25947785,-0.34728515,-5.7785945,-1.1525512e-06,4.6045284e-06,-2.1900929e-05,-0.00049427216,0.0012186727,0.0003463488,0.3720349,-4.9758904e-09,0.47024006,0.0,0.0,0.0,0.0,0.0,2.6470724e-07,0.0011967571,0.019788742,2.2932695e-06,9.200153e-06,9.198621e-06,3.4711495e-05,0.06790966,0.06788464,0.011789377,1.0225208,1.0224496,0.063311964,1.2359998e-11,1.2359804e-11,1.8243894e-11,5.0000036e-08,5.0000036e-08,5.0000036e-08,0.0,0.0,0.0,0.0,0.0,0.0,0.0,0.0,659,1.4300246,0.25161868,0.124915354,0.0,0.00034520787,0.0052136,0.0,0.016038416,0.0,0.001936,0,0,0,229,24,0,0,0
323600488,0.96954334,0.0005222084,-0.0006262582,0.24491833,-0.13382803,-0.5028672,0.49864,0.21089773,-0.41540626,-5.68981,-1.1877212e-06,4.597545e-06,-2.217084e-05,-0.0004943126,0.0012188056,0.00033959,0.3720349,-4.9758904e-09,0.47024006,0.0,0.0,0.0,0.0,0.0,2.440414e-07,0.0012158838,0.018454565,2.2924894e-06,9.247215e-06,9.245285e-06,3.475806e-05,0.06772501,0.06769779,0.01180014,1.0216761,1.0215977,0.063372724,1.2385434e-11,1.2385304e-11,1.8255583e-11,5.0000104e-08,5.0000136e-08,5.000007e-08,0.0,0.0,0.0,0.0,0.0,0.0,0.0,0.0,659,1.4294313,0.25173938,0.042073242,0.0,0.00040938033,0.027287604,0.0,0.030623766,0.0,0.001697,0,0,0,229,24,0,0,0
323800608,0.9694737,0.0005526435,-0.001169312,0.24519208,-0.12994237,-0.5227838,0.75278145,0.16654205,-0.47668904,-5.545577,-1.225931e-06,4.596555e-06,-2.2481263e-05,-0.0004943331,0.0012189224,0.00033279805,0.3720349,-4.9758904e-09,0.47024006,0.0,0.0,0.0,0.0,0.0,2.401282e-07,0.0011932367,0.01946561,2.2865747e-06,9.283437e-06,9.281682e-06,3.4728553e-05,0.06753089,0.06750135,0.011761067,1.0162641,1.0161798,0.06299302,1.2402815e-11,1.24027524e-11,1.8247095e-11,5.0000043e-08,5.0000136e-08,5.0000036e-08,0.0,0.0,0.0,0.0,0.0,0.0,0.0,0.0,659,1.4256381,0.2509841,0.11530179,0.0,0.0004748455,0.02356963,0.0,0.019403966,0.0,0.001817,0,0,0,229,24,0,0,0
324000472,0.9693869,0.00015005637,-0.0011814635,0.24553558,-0.14256053,-0.53822005,0.88000435,0.12862214,-0.547683,-5.3439317,-1.2579684e-06,4.5995307e-06,-2.2723285e-05,-0.0004944269,0.001219082,0.0003200697,0.3720349,-4.9758904e-09,0.47024006,0.0,0.0,0.0,0.0,0.0,2.0865868e-07,0.0010589019,0.018084075,2.2878216e-06,9.363524e-06,9.361723e-06,3.4751924e-05,0.06862882,0.06859943,0.011943023,1.0312626,1.0311694,0.06456553,1.2438457e-11,1.243845e-11,1.8251008e-11,5.0000235e-08,5.000037e-08,5.0000107e-08,0.0,0.0,0.0,0.0,0.0,0.0,0.0,0.0,659,1.436117,0.2540975,0.18069944,0.0,0.00053758646,0.03261754,0.0,0.012416811,0.0,0.001675,0,0,0,229,24,0,0,0
324202054,0.9694022,-0.00048614474,-0.00034013714,0.24547726,-0.15306975,-0.5494012,0.8238019,0.08977994,-0.60356927,-5.1515117,-1.3035486e-06,4.6100067e-06,-2.3025865e-05,-0.0004944251,0.0012191836,0.00031206114,0.3720349,-4.9758904e-09,0.47024006,0.0,0.0,0.0,0.0,0.0,1.9219438e-07,0.0010430319,0.019041624,2.2764784e-06,9.398644e-06,9.396498e-06,3.4727236e-05,0.06917481,0.069146186,0.011874213,1.0249815,1.0248832,0.0640231,1.24541e-11,1.245417e-11,1.8242597e-11,5.000028e-08,5.0000452e-08,5e-08,0.0,0.0,0.0,0.0,0.0,0.0,0.0,0.0,659,1.4317349,0.25302786,0.12728396,0.0,0.0006066587,0.007926818,0.0,0.0057643685,0.0,0.00162,0,0,0,229,24,0,0,0
324402205,0.9694071,-0.00033944607,0.00013038759,0.24545848,-0.1548606,-0.5550308,0.597396,0.052653663,-0.6562548,-5.025882,-1.3528356e-06,4.627061e-06,-2.3370421e-05,-0.0004942433,0.0012191103,0.00031897312,0.3720349,-4.9758904e-09,0.47024006,0.0,0.0,0.0,0.0,0.0,1.8014308e-07,0.0010305855,0.020022264,2.2645343e-06,9.4363495e-06,9.434046e-06,3.4705383e-05,0.07018202,0.07015425,0.0118136015,1.0200009,1.019899,0.0635756,1.2474295e-11,1.24744425e-11,1.8238785e-11,5.000045e-08,5.0000644e-08,5e-08,0.0,0.0,0.0,0.0,0.0,0.0,0.0,0.0,659,1.4282507,0.25214204,0.12630896,0.0,0.00065961457,0.0037857743,0.0,0.016283607,0.0,0.001809,0,0,0,229,24,0,0,0
324602193,0.9694357,-0.0004738006,9.610062e-05,0.24534534,-0.18119556,-0.55678004,0.40380114,0.015668409,-0.70614165,-4.9077525,-1.4038067e-06,4.648143e-06,-2.367087e-05,-0.00049418886,0.0012191613,0.0003129605,0.3720349,-4.9758904e-09,0.47024006,0.0,0.0,0.0,0.0,0.0,1.8425116e-07,0.00110484,0.02109573,2.25596e-06,9.474431e-06,9.472156e-06,3.473877e-05,0.071169764,0.07114639,0.011765555,1.015349,1.0152448,0.06314389,1.2490714e-11,1.2490941e-11,1.8242841e-11,5.000061e-08,5.000081e-08,5.0000036e-08,0.0,0.0,0.0,0.0,0.0,0.0,0.0,0.0,659,1.4249891,0.25128448,0.111486845,0.0,0.00070531754,0.0243034,0.0,0.0034708616,0.0,0.001755,0,0,0,229,24,0,0,0
324810160,0.9694973,-0.00016174636,0.000104535146,0.24510185,-0.20133679,-0.5709765,0.17815597,-0.023268908,-0.7594405,-4.7907515,-1.4552533e-06,4.671554e-06,-2.4028643e-05,-0.00049427885,0.0012193556,0.00029203136,0.3720349,-4.9758904e-09,0.47024006,0.0,0.0,0.0,0.0,0.0,1.532847e-07,0.001008978,0.018870633,2.240997e-06,9.523855e-06,9.5216465e-06,3.473858e-05,0.07254292,0.07252131,0.011773,1.0153357,1.0152298,0.063142695,1.2511685e-11,1.2511992e-11,1.8238706e-11,5.0000853e-08,5.0001052e-08,5.000007e-08,0.0,0.0,0.0,0.0,0.0,0.0,0.0,0.0,659,1.4249791,0.2512821,0.1648643,0.0,0.00075393677,0.010567154,0.0,0.0028524494,0.0,0.001766,0,0,0,229,24,0,0,0
325011790,0.969523,-0.00012991561,5.0852384e-05,0.24500027,-0.2209176,-0.58984077,-0.046177644,-0.060320795,-0.81213915,-4.816487,-1.5060816e-06,4.7003396e-06,-2.4366955e-05,-0.00049402565,0.0012191741,0.00030661692,0.3720349,-4.9758904e-09,0.47024006,0.0,0.0,0.0,0.0,0.0,1.4641232e-07,0.0009784438,0.016993025,2.2282304e-06,9.585538e-06,9.5833975e-06,3.4717443e-05,0.0741874,0.074166805,0.011851139,1.0230399,1.0229313,0.06382571,1.2540675e-11,1.2541052e-11,1.8234296e-11,5.000119e-08,5.000137e-08,5.0000093e-08,0.0,0.0,0.0,0.0,0.0,0.0,0.0,0.0,659,1.4303746,0.2526375,0.112380624,0.0,0.0008064064,0.02306874,0.0,0.015248895,0.0,0.001787,0,0,0,229,24,0,0,0
325211701,0.9694857,0.00012342562,-0.00047676155,0.2451472,-0.2238187,-0.5877775,-0.24990739,-0.09744203,-0.8618588,-4.834601,-1.5588092e-06,4.732672e-06,-2.4666937e-05,-0.00049393,0.0012191794,0.00030248353,0.3720349,-4.9758904e-09,0.47024006,0.0,0.0,0.0,0.0,0.0,1.5045232e-07,0.0010205855,0.016968342,2.224404e-06,9.642184e-06,9.640307e-06,3.474611e-05,0.07576248,0.075744316,0.011910053,1.0299102,1.0297996,0.06435475,1.25638866e-11,1.2564339e-11,1.8238343e-11,5.000147e-08,5.000161e-08,5.0000075e-08,0.0,0.0,0.0,0.0,0.0,0.0,0.0,0.0,659,1.4351689,0.25368237,0.123371616,0.0,0.0008568341,0.004633401,0.0,0.032813415,0.0,0.00171,0,0,0,229,24,0,0,0
325411736,0.96944326,-8.116256e-06,-0.0004050904,0.24531552,-0.24276748,-0.5918654,-0.42676094,-0.1324495,-0.89840835,-4.897515,-1.6217921e-06,4.775567e-06,-2.4969739e-05,-0.0004937773,0.0012191491,0.00030068896,0.3720349,-4.9758904e-09,0.47024006,0.0,0.0,0.0,0.0,0.0,1.376939e-07,0.00096682244,0.01774129,2.2176403e-06,9.672448e-06,9.670595e-06,3.47177e-05,0.076717824,0.076702945,0.011837206,1.0261132,1.0260043,0.06378381,1.257525e-11,1.2575793e-11,1.8230294e-11,5.0001663e-08,5.000175e-08,5e-08,0.0,0.0,0.0,0.0,0.0,0.0,0.0,0.0,659,1.4325213,0.25255457,0.15178607,0.0,0.00090310373,0.017413193,0.0,0.011005905,0.0,0.001696,0,0,0,229,24,0,0,0
325613316,0.9693223,0.00021813335,-0.000114874056,0.24579316,-0.24761434,-0.58318293,-0.6223763,-0.16758476,-0.9406154,-4.9983172,-1.679136e-06,4.8165457e-06,-2.5351022e-05,-0.00049364375,0.0012191164,0.00029888353,0.3720349,-4.9758904e-09,0.47024006,0.0,0.0,0.0,0.0,0.0,1.2045433e-07,0.00090464903,0.01740034,2.2133597e-06,9.723865e-06,9.722042e-06,3.468692e-05,0.07824765,0.07823653,0.011881771,1.0331284,1.03302,0.064223014,1.2595424e-11,1.2596044e-11,1.8222333e-11,5.0001926e-08,5.0001958e-08,5.0000036e-08,0.0,0.0,0.0,0.0,0.0,0.0,0.0,0.0,659,1.4374102,0.2534226,0.16352731,0.0,0.000940605,0.012758529,0.0,0.0017211989,0.0,0.00171,0,0,0,229,24,0,0,0
325821294,0.9693066,-0.0005408489,-0.0008208625,0.24585354,-0.26499888,-0.5860565,-0.7972716,-0.20094109,-0.96590894,-5.129244,-1.7531028e-06,4.874437e-06,-2.5633171e-05,-0.00049347477,0.0012191273,0.00029178985,0.3720349,-4.9758904e-09,0.47024006,0.0,0.0,0.0,0.0,0.0,1.6701566e-07,0.0010569469,0.018445073,2.210315e-06,9.738885e-06,9.737224e-06,3.4736604e-05,0.07895865,0.078950725,0.011749198,1.0242404,1.0241376,0.06311918,1.2602935e-11,1.26036594e-11,1.8234443e-11,5.00021e-08,5.000204e-08,5e-08,0.0,0.0,0.0,0.0,0.0,0.0,0.0,0.0,659,1.4312155,0.2512353,0.103829965,0.0,0.0009708224,0.026456544,0.0,0.00989746,0.0,0.001703,0,0,0,229,24,0,0,0
326021400,0.9692565,0.000101384714,0.0003301071,0.2460523,-0.2651994,-0.5862253,-0.9602646,-0.23376603,-1.0024033,-5.293039,-1.8130145e-06,4.923028e-06,-2.5967918e-05,-0.0004933328,0.0012191216,0.00028702707,0.3720349,-4.9758904e-09,0.47024006,0.0,0.0,0.0,0.0,0.0,1.7934201e-07,0.0011805538,0.02014804,2.2030847e-06,9.789436e-06,9.787633e-06,3.4708144e-05,0.08046404,0.0804575,0.011815008,1.032602,1.0325028,0.06366069,1.26222305e-11,1.2623033e-11,1.8226424e-11,5.0002335e-08,5.0002207e-08,5.0000036e-08,0.0,0.0,0.0,0.0,0.0,0.0,0.0,0.0,659,1.4370472,0.2523107,0.109970495,0.0,0.0010027525,0.013430028,0.0,0.0024796326,0.0,0.001809,0,0,0,229,24,0,0,0
326229423,0.96929586,-0.00010819555,-0.00055331714,0.245897,-0.26837558,-0.5840772,-1.0763948,-0.26430747,-1.0305349,-5.497316,-1.8822268e-06,4.9825344e-06,-2.6295042e-05,-0.0004931343,0.0012190903,0.00028400257,0.3720349,-4.9758904e-09,0.47024006,0.0,0.0,0.0,0.0,0.0,1.6957651e-07,0.0010800397,0.018397698,2.1915505e-06,9.823281e-06,9.8218e-06,3.4704928e-05,0.08151167,0.08150715,0.011809035,1.0345488,1.0344547,0.063567854,1.2634383e-11,1.263527e-11,1.8222533e-11,5.0002527e-08,5.0002292e-08,5.0000036e-08,0.0,0.0,0.0,0.0,0.0,0.0,0.0,0.0,659,1.4384031,0.25212666,0.106445424,0.0,0.0010310765,0.01740989,0.0,0.01048956,0.0,0.001832,0,0,0,229,24,0,0,0
326431063,0.96957356,0.0010301468,-0.0017413271,0.24479213,-0.26136392,-0.5681835,-1.0606301,-0.2901083,-1.0497516,-5.708647,-1.953306e-06,5.04715e-06,-2.6549555e-05,-0.0004929098,0.0012190696,0.00028017422,0.3720349,-4.9758904e-09,0.47024006,0.0,0.0,0.0,0.0,0.0,1.901338e-07,0.001292758,0.018133113,2.1686496e-06,9.844703e-06,9.843842e-06,3.4752342e-05,0.08195711,0.081955,0.011763835,1.0329223,1.032835,0.06314064,1.2641167e-11,1.2642142e-11,1.8226773e-11,5.000264e-08,5.0002292e-08,5.0000036e-08,0.0,0.0,0.0,0.0,0.0,0.0,0.0,0.0,659,1.4372742,0.251278,0.10404565,0.0,0.0010506446,0.0070878617,0.0,0.0031312357,0.0,0.00183,0,0,0,229,24,0,0,0
326630953,0.96987295,0.0020692495,-0.0016435847,0.24359712,-0.25705898,-0.567745,-0.68851006,-0.31360188,-1.0669408,-5.877307,-2.0249743e-06,5.1145266e-06,-2.6828067e-05,-0.0004926654,0.0012190453,0.00027650964,0.3720349,-4.9758904e-09,0.47024006,0.0,0.0,0.0,0.0,0.0,3.2387254e-07,0.0014481801,0.01870674,2.1436147e-06,9.867006e-06,9.866618e-06,3.480294e-05,0.08147872,0.081476584,0.011730795,1.0322131,1.0321325,0.06284014,1.2651251e-11,1.2652313e-11,1.8234778e-11,5.0002768e-08,5.0002306e-08,5e-08,0.0,0.0,0.0,0.0,0.0,0.0,0.0,0.0,659,1.4367831,0.25067937,0.1709805,0.0,0.0010724311,0.026041172,0.0,0.00033343735,0.0,0.001721,0,0,0,229,24,0,0,0
326831033,0.9701183,0.0015883764,-0.00036302113,0.24262716,-0.26279703,-0.5537686,-0.31137905,-0.3359984,-1.090352,-5.9580827,-2.0894063e-06,5.1760085e-06,-2.714041e-05,-0.00049246574,0.0012190511,0.00026963418,0.3720349,-4.9758904e-09,0.47024006,0.0,0.0,0.0,0.0,0.0,4.2626368e-07,0.0018047559,0.020925773,2.1181309e-06,9.910037e-06,9.909342e-06,3.479255e-05,0.08147805,0.08147932,0.011804388,1.0408338,1.0407583,0.063436486,1.2666741e-11,1.2667866e-11,1.822669e-11,5.0002928e-08,5.0002352e-08,5.000007e-08,0.0,0.0,0.0,0.0,0.0,0.0,0.0,0.0,659,1.4427724,0.251866,0.18210332,0.0,0.0010869894,0.0021300055,0.0,0.01679569,0.0,0.0018419999,0,0,0,229,24,0,0,0
327036638,0.9702972,0.0015574041,-0.0009181325,0.24190952,-0.2595483,-0.5391286,0.09815912,-0.356041,-1.1026996,-5.970926,-2.1628402e-06,5.248634e-06,-2.742896e-05,-0.0004922132,0.0012190184,0.00026576628,0.3720349,-4.9758904e-09,0.47024006,0.0,0.0,0.0,0.0,0.0,4.8737786e-07,0.0016868528,0.020618865,2.1021986e-06,9.936611e-06,9.936141e-06,3.485313e-05,0.08105018,0.08105319,0.011808083,1.0423768,1.0423095,0.063414164,1.26751856e-11,1.2676383e-11,1.8234898e-11,5.0003017e-08,5.000232e-08,5.000007e-08,0.0,0.0,0.0,0.0,0.0,0.0,0.0,0.0,659,1.4438443,0.2518217,0.09997072,0.0,0.0010997881,0.016935635,0.0,0.018236324,0.0,0.001848,0,0,0,229,24,0,0,0
327236568,0.97036767,0.0014187007,-0.0018989008,0.24162169,-0.25975606,-0.5288318,0.44909742,-0.37248152,-1.1047076,-5.8921714,-2.2370987e-06,5.324934e-06,-2.7652804e-05,-0.0004919586,0.0012190243,0.0002565685,0.3720349,-4.9758904e-09,0.47024006,0.0,0.0,0.0,0.0,0.0,4.3783007e-07,0.0016026176,0.021778956,2.0914345e-06,9.948677e-06,9.948396e-06,3.4826564e-05,0.080477215,0.08048169,0.011759301,1.0383035,1.0382447,0.06290059,1.2676483e-11,1.2677749e-11,1.8225194e-11,5.000308e-08,5.0002257e-08,5e-08,0.0,0.0,0.0,0.0,0.0,0.0,0.0,0.0,659,1.4410232,0.2507999,0.05795471,0.0,0.0011104239,0.033042453,0.0,0.01901592,0.0,0.001725,0,0,0,229,24,0,0,0
327436533,0.9705653,0.0011215173,-0.0019611344,0.2408277,-0.24433789,-0.49980724,0.78967524,-0.38784215,-1.1041181,-5.756161,-2.3113582e-06,5.4040293e-06,-2.7826653e-05,-0.0004916897,0.0012189745,0.00025174508,0.3720349,-4.9758904e-09,0.47024006,0.0,0.0,0.0,0.0,0.0,3.905654e-07,0.0015852005,0.024122322,2.0772256e-06,9.962397e-06,9.962124e-06,3.4864013e-05,0.08000107,0.08000723,0.011720084,1.0353265,1.0352764,0.06252723,1.2679302e-11,1.268063e-11,1.8229097e-11,5.0003177e-08,5.000223e-08,5e-08,0.0,0.0,0.0,0.0,0.0,0.0,0.0,0.0,659,1.438959,0.25005445,0.076798566,0.0,0.0011098359,0.023594223,0.0,0.012495263,0.0,0.001742,0,0,0,229,24,0,0,0
327636652,0.9707492,0.00088117545,-0.0015863472,0.24008913,-0.24879946,-0.4894827,1.0980508,-0.40049145,-1.1009374,-5.5655236,-2.3844589e-06,5.482247e-06,-2.8104574e-05,-0.0004914364,0.0012188816,0.00025046346,0.3720349,-4.9758904e-09,0.47024006,0.0,0.0,0.0,0.0,0.0,3.813437e-07,0.0013533843,0.021631768,2.0573566e-06,9.977984e-06,9.977711e-06,3.4847435e-05,0.07964974,0.07965776,0.01169574,1.032768,1.0327268,0.062239714,1.2682993e-11,1.2684367e-11,1.8220921e-11,5.0003308e-08,5.000225e-08,5.0000036e-08,0.0,0.0,0.0,0.0,0.0,0.0,0.0,0.0,659,1.4371829,0.24947889,0.1342498,0.0,0.0011026256,0.0070008575,0.0,0.01563198,0.0,0.001862,0,0,0,229,24,0,0,0
327838164,0.9706744,0.0006001164,-0.00080226746,0.24039632,-0.22752075,-0.48242798,1.3360642,-0.41389915,-1.110681,-5.3098936,-2.4494025e-06,5.5520836e-06,-2.8414408e-05,-0.00049122336,0.0012187792,0.000250185,0.3720349,-4.9758904e-09,0.47024006,0.0,0.0,0.0,0.0,0.0,3.4568865e-07,0.0013126729,0.020272173,2.0547768e-06,1.0027733e-05,1.0027392e-05,3.4834113e-05,0.080244735,0.080251254,0.011820697,1.044448,1.0444139,0.06325419,1.2701079e-11,1.27024875e-11,1.8217025e-11,5.0003578e-08,5.000241e-08,5.000007e-08,0.0,0.0,0.0,0.0,0.0,0.0,0.0,0.0,659,1.4452896,0.25150385,0.13331582,0.0,0.001108616,0.027489362,0.0,0.015572894,0.0,0.001743,0,0,0,229,24,0,0,0
328046217,0.9705212,0.0005477053,-0.0009424198,0.24101335,-0.20820613,-0.473725,1.2637128,-0.41750008,-1.1033372,-5.0485387,-2.522982e-06,5.633521e-06,-2.867837e-05,-0.0004909856,0.0012186195,0.0002526307,0.3720349,-4.9758904e-09,0.47024006,0.0,0.0,0.0,0.0,0.0,2.8154878e-07,0.0013119929,0.02157489,2.0616255e-06,1.0044543e-05,1.0044318e-05,3.4866298e-05,0.080893524,0.080898926,0.011808199,1.0419594,1.0419315,0.06295101,1.2699806e-11,1.2701253e-11,1.8218153e-11,5.0003717e-08,5.000244e-08,5e-08,0.0,0.0,0.0,0.0,0.0,0.0,0.0,0.0,659,1.4435688,0.25090042,0.13943121,0.0,0.0011091211,0.0060704355,0.0,0.006358901,0.0,0.001826,0,0,0,229,24,0,0,0
328246088,0.9702296,-9.110986e-05,-0.00083844893,0.24218574,-0.21635894,-0.46570373,1.0303515,-0.42411253,-1.1059824,-4.766754,-2.5870152e-06,5.7027178e-06,-2.9019511e-05,-0.0004908184,0.001218657,0.00023236118,0.3720349,-4.9758904e-09,0.47024006,0.0,0.0,0.0,0.0,0.0,2.3169804e-07,0.0011863236,0.020325892,2.071121e-06,1.0081818e-05,1.0081476e-05,3.482088e-05,0.08256226,0.08256985,0.011882696,1.0501106,1.0500885,0.063584894,1.27125255e-11,1.27139965e-11,1.8210154e-11,5.000397e-08,5.0002605e-08,5.000004e-08,0.0,0.0,0.0,0.0,0.0,0.0,0.0,0.0,659,1.4492064,0.25216046,0.19028287,0.0,0.0011078179,0.028038038,0.0,0.024007661,0.0,0.00167,0,0,0,229,24,0,0,0
328446133,0.9697125,-0.00076361885,0.0008962244,0.2442467,-0.23152837,-0.46022955,0.68325436,-0.4260765,-1.0950365,-4.605618,-2.66043e-06,5.7831994e-06,-2.9389425e-05,-0.0004906227,0.0012184758,0.00023581863,0.3720349,-4.9758904e-09,0.47024006,0.0,0.0,0.0,0.0,0.0,1.9872348e-07,0.001124221,0.018843912,2.097379e-06,1.0091012e-05,1.0090329e-05,3.481752e-05,0.0838815,0.08389164,0.011833865,1.0475494,1.0475332,0.06318083,1.2712987e-11,1.271449e-11,1.82142e-11,5.0004157e-08,5.00027e-08,5e-08,0.0,0.0,0.0,0.0,0.0,0.0,0.0,0.0,659,1.44744,0.25135797,0.15991357,0.0,0.0011008501,0.026324637,0.0,0.01036683,0.0,0.001742,0,0,0,229,24,0,0,0
328647919,0.9694158,-0.001029867,0.001168502,0.24541926,-0.24645388,-0.45434847,0.33890674,-0.4350582,-1.0949912,-4.5224757,-2.7255564e-06,5.854391e-06,-2.9765022e-05,-0.0004904657,0.00121829,0.00024186523,0.3720349,-4.9758904e-09,0.47024006,0.0,0.0,0.0,0.0,0.0,1.715454e-07,0.0010652294,0.019861627,2.1088863e-06,1.0125057e-05,1.0124353e-05,3.4829307e-05,0.08576837,0.08578112,0.011902849,1.0565661,1.0565568,0.06378255,1.2724202e-11,1.2725727e-11,1.8218312e-11,5.00044e-08,5.0002875e-08,5.000004e-08,0.0,0.0,0.0,0.0,0.0,0.0,0.0,0.0,659,1.4536585,0.25255206,0.14203726,0.0,0.0010971343,0.005664383,0.0,0.0012312398,0.0,0.001929,0,0,0,229,24,0,0,0
328855739,0.9691991,-0.00057113456,0.0011143737,0.24627557,-0.24734275,-0.45199123,0.0047324304,-0.44740593,-1.0980151,-4.5303845,-2.7914923e-06,5.9275876e-06,-3.014348e-05,-0.00049031345,0.0012180286,0.00025829097,0.3720349,-4.9758904e-09,0.47024006,0.0,0.0,0.0,0.0,0.0,1.7607364e-07,0.0011352807,0.02003075,2.1132607e-06,1.016679e-05,1.016635e-05,3.4809673e-05,0.08783698,0.08785023,0.0120044025,1.0704011,1.0703986,0.06474314,1.27416055e-11,1.2743147e-11,1.8218e-11,5.0004676e-08,5.0003074e-08,5.000007e-08,0.0,0.0,0.0,0.0,0.0,0.0,0.0,0.0,659,1.4631472,0.25444674,0.12982963,0.0,0.0010965868,0.05714805,0.0,0.018096797,0.0,0.001747,0,0,0,229,24,0,0,0
329055803,0.96899045,-0.0010475849,3.1246895e-05,0.24709596,-0.26847795,-0.4455056,-0.27898058,-0.45401388,-1.0837971,-4.5812416,-2.8654094e-06,6.011742e-06,-3.0545576e-05,-0.00049012597,0.0012178035,0.0002668078,0.3720349,-4.9758904e-09,0.47024006,0.0,0.0,0.0,0.0,0.0,1.7700381e-07,0.0011767424,0.021024685,2.1149767e-06,1.0164486e-05,1.01641845e-05,3.4771198e-05,0.08879329,0.08880967,0.011925612,1.0677624,1.0677667,0.06415666,1.273729e-11,1.2738844e-11,1.8209864e-11,5.0004772e-08,5.0003088e-08,5e-08,0.0,0.0,0.0,0.0,0.0,0.0,0.0,0.0,659,1.461345,0.25329164,0.121639915,0.0,0.0010896676,0.03304778,0.0,0.009723288,0.0,0.001812,0,0,0,229,24,0,0,0
329257452,0.96876246,-3.2273856e-05,0.000962193,0.24798857,-0.2703806,-0.4426937,-0.536184,-0.4661924,-1.0803424,-4.697077,-2.9306382e-06,6.087625e-06,-3.0903688e-05,-0.00048995693,0.0012175717,0.00027894156,0.3720349,-4.9758904e-09,0.47024006,0.0,0.0,0.0,0.0,0.0,1.4731725e-07,0.0010848641,0.01999653,2.122683e-06,1.0188346e-05,1.0188366e-05,3.4785837e-05,0.09026995,0.090286694,0.011970478,1.0768555,1.0768667,0.06461339,1.2744092e-11,1.2745647e-11,1.8213977e-11,5.0004925e-08,5.0003177e-08,5e-08,0.0,0.0,0.0,0.0,0.0,0.0,0.0,0.0,659,1.4675566,0.25419164,0.16497469,0.0,0.001086183,0.020187125,0.0,0.011860386,0.0,0.001861,0,0,0,229,24,0,0,0
