timestamp,rollspeed,pitchspeed,yawspeed,q[0],q[1],q[2],q[3],delta_q_reset[0],delta_q_reset[1],delta_q_reset[2],delta_q_reset[3],quat_reset_counter
310021353,-8.558063e-05,-0.0019841169,0.0021196315,0.96994454,0.008710953,0.0058538658,0.24310009,0.44477785,-0.0015886388,-0.005888361,-0.89562017,1
310082933,-9.20195e-05,-6.715767e-05,0.0023349258,0.9699394,0.008708459,0.0058632856,0.24312016,0.44477785,-0.0015886388,-0.005888361,-0.89562017,1
310115047,0.00097441743,-0.0007065075,0.0023481492,0.9699364,0.008722391,0.005844924,0.24313252,0.44477785,-0.0015886388,-0.005888361,-0.89562017,1
310146969,-0.0014763635,-0.0006205718,0.0026329728,0.96992934,0.008728203,0.0058398386,0.2431601,0.44477785,-0.0015886388,-0.005888361,-0.89562017,1
310174952,0.00035434496,-0.0013297042,0.0010696481,0.9699265,0.008722846,0.005843035,0.24317162,0.44477785,-0.0015886388,-0.005888361,-0.89562017,1
310206897,-0.0022296973,0.0014194624,0.0031573323,0.9699231,0.008711818,0.005847983,0.24318562,0.44477785,-0.0015886388,-0.005888361,-0.89562017,1
310238900,-0.00069040793,0.0009990648,0.00029002875,0.9699199,0.008707086,0.0058533843,0.24319834,0.44477785,-0.0015886388,-0.005888361,-0.89562017,1
310270917,0.00014233563,0.00057384244,0.00083988113,0.96991646,0.00870997,0.00586492,0.24321145,0.44477785,-0.0015886388,-0.005888361,-0.89562017,1
310303662,-0.0005079645,-0.00017297809,0.0017860846,0.96991616,0.00870201,0.0058568716,0.24321349,0.44477785,-0.0015886388,-0.005888361,-0.89562017,1
310335768,-0.0004170052,0.00067561003,0.0029573957,0.9699094,0.008696449,0.0058556893,0.24324027,0.44477785,-0.0015886388,-0.005888361,-0.89562017,1
310367911,-0.001273941,0.00046038814,0.0032670167,0.9699032,0.00868821,0.0058573303,0.24326561,0.44477785,-0.0015886388,-0.005888361,-0.89562017,1
310395808,0.0013828755,0.0013068181,0.0035060553,0.9698961,0.008698778,0.0058583072,0.2432933,0.44477785,-0.0015886388,-0.005888361,-0.89562017,1
310427916,0.0014793195,0.0013927127,0.012675863,0.9698615,0.008699002,0.0058640805,0.24343118,0.44477785,-0.0015886388,-0.005888361,-0.89562017,1
310459795,0.0003608878,0.0023039957,-0.0002146177,0.969855,0.008695381,0.0058798487,0.2434563,0.44477785,-0.0015886388,-0.005888361,-0.89562017,1
310491731,-0.00026639417,0.004644575,-0.008636068,0.96988094,0.00869359,0.005894327,0.24335311,0.44477785,-0.0015886388,-0.005888361,-0.89562017,1
310523822,-0.0048235725,-0.0006926425,-0.0046723923,0.96991134,0.008684294,0.005891785,0.24323238,0.44477785,-0.0015886388,-0.005888361,-0.89562017,1
310555658,-0.0042136135,0.0022673253,0.004181368,0.96991104,0.008675517,0.0058940286,0.24323387,0.44477785,-0.0015886388,-0.005888361,-0.89562017,1
310587843,0.004466436,0.002455893,0.010795187,0.9698827,0.008697858,0.0059135696,0.24334526,0.44477785,-0.0015886388,-0.005888361,-0.89562017,1
310619732,0.0012948631,-0.0032516469,0.0020032178,0.9698555,0.008700805,0.0059141503,0.24345359,0.44477785,-0.0015886388,-0.005888361,-0.89562017,1
310651728,-0.0026937416,0.0054701064,-0.004091991,0.9698727,0.00870621,0.005923976,0.24338457,0.44477785,-0.0015886388,-0.005888361,-0.89562017,1
310683635,0.0011913038,-0.00089764467,-0.0061927047,0.96990335,0.008725186,0.0059131887,0.24326223,0.44477785,-0.0015886388,-0.005888361,-0.89562017,1
310717347,-0.008036345,-0.0013658998,0.006779435,0.96990824,0.008695113,0.0059071886,0.24324429,0.44477785,-0.0015886388,-0.005888361,-0.89562017,1
310745408,-0.0040970594,0.0109232,0.011227392,0.96988267,0.008703266,0.00592188,0.2433451,0.44477785,-0.0015886388,-0.005888361,-0.89562017,1
310777284,-0.006450049,-0.0049941884,0.006364084,0.9698511,0.008724822,0.005908309,0.24347034,0.44477785,-0.0015886388,-0.005888361,-0.89562017,1
310809375,0.0032577072,-0.0017620649,-0.0015974031,0.96984905,0.008730378,0.005906513,0.2434787,0.44477785,-0.0015886388,-0.005888361,-0.89562017,1
310841321,0.0024674207,0.00399943,-0.0053168815,0.96987647,0.008691183,0.0058832136,0.24337147,0.44477785,-0.0015886388,-0.005888361,-0.89562017,1
310873405,0.007855079,0.0011988087,0.0031472568,0.9698903,0.00871676,0.0058999206,0.24331458,0.44477785,-0.0015886388,-0.005888361,-0.89562017,1
310905289,-0.009698805,-0.0018078894,0.011227515,0.9698734,0.008724709,0.005908486,0.2433813,0.44477785,-0.0015886388,-0.005888361,-0.89562017,1
310937371,-0.00867052,0.003866981,0.0070979595,0.9698492,0.008708527,0.005893143,0.24347864,0.44477785,-0.0015886388,-0.005888361,-0.89562017,1
310969330,0.0027633272,0.009381321,-0.00019226549,0.96984696,0.00868062,0.0058824997,0.24348937,0.44477785,-0.0015886388,-0.005888361,-0.89562017,1
311001328,0.00859886,0.0025776578,-0.000999175,0.96986043,0.0087178005,0.00591606,0.24343362,0.44477785,-0.0015886388,-0.005888361,-0.89562017,1
311033249,0.004817005,-0.0012471917,0.0019268584,0.9698744,0.008761729,0.005936918,0.2433756,0.44477785,-0.0015886388,-0.005888361,-0.89562017,1
311065306,-0.0041108564,-0.00040980213,0.0038293975,0.96987355,0.008728357,0.0059220036,0.24338053,0.44477785,-0.0015886388,-0.005888361,-0.89562017,1
311097269,-0.0010717115,0.0042614066,0.0037670117,0.9698594,0.008692689,0.005942229,0.24343754,0.44477785,-0.0015886388,-0.005888361,-0.89562017,1
311129440,0.006834635,0.005677922,0.0041923705,0.96984667,0.0087106,0.005999412,0.24348648,0.44477785,-0.0015886388,-0.005888361,-0.89562017,1
311161251,0.0040925695,-0.0015114766,-0.002331779,0.9698569,0.008744404,0.0059540146,0.24344529,0.44477785,-0.0015886388,-0.005888361,-0.89562017,1
311193535,0.0048568808,0.011003004,0.00077867415,0.9698733,0.008736262,0.005951831,0.2433808,0.44477785,-0.0015886388,-0.005888361,-0.89562017,1
311225254,0.0051934565,0.0045993673,0.0052369013,0.96987396,0.0087017855,0.005995265,0.24337807,0.44477785,-0.0015886388,-0.005888361,-0.89562017,1
311257456,0.0054366775,-0.004333595,0.0031899575,0.96986437,0.008696347,0.005983065,0.24341692,0.44477785,-0.0015886388,-0.005888361,-0.89562017,1
311289287,0.0063099437,-0.011117182,-0.00021763914,0.9698664,0.008723831,0.005930451,0.2434091,0.44477785,-0.0015886388,-0.005888361,-0.89562017,1
311321374,-0.00015188268,0.006060835,0.002504868,0.9698674,0.008722921,0.0060036634,0.24340296,0.44477785,-0.0015886388,-0.005888361,-0.89562017,1
311353332,-0.005595413,0.002491497,0.00018799212,0.96987104,0.008708245,0.0060366867,0.24338838,0.44477785,-0.0015886388,-0.005888361,-0.89562017,1
311385436,-0.0066575087,-0.0077427486,-0.00081344764,0.96988106,0.00868874,0.0059603243,0.24335098,0.44477785,-0.0015886388,-0.005888361,-0.89562017,1
311417439,0.00084215176,0.00520899,0.0036947788,0.9698829,0.008696117,0.0059564407,0.24334358,0.44477785,-0.0015886388,-0.005888361,-0.89562017,1
311450984,-0.0114984345,-0.00078449387,0.0041708276,0.96987003,0.008698026,0.006023577,0.24339317,0.44477785,-0.0015886388,-0.005888361,-0.89562017,1
311482846,-0.006329546,-0.010514924,0.00045329565,0.96986794,0.008696608,0.0059799077,0.24340273,0.44477785,-0.0015886388,-0.005888361,-0.89562017,1
311515093,-0.01588911,0.006000762,-0.001968439,0.96987945,0.0086629605,0.0059404136,0.24335901,0.44477785,-0.0015886388,-0.005888361,-0.89562017,1
311547001,-0.0012856819,0.0007152166,0.00096645555,0.9698848,0.008681347,0.0060244054,0.24333467,0.44477785,-0.0015886388,-0.005888361,-0.89562017,1
311578949,0.0020782396,-0.00010226393,0.0030388194,0.9698824,0.008718133,0.006043837,0.24334253,0.44477785,-0.0015886388,-0.005888361,-0.89562017,1
311610898,-0.0015926303,0.0041637104,0.005123274,0.9698777,0.008711689,0.005969472,0.24336351,0.44477785,-0.0015886388,-0.005888361,-0.89562017,1
311643011,-0.0011392706,0.014509455,0.0028056148,0.96987283,0.008680342,0.006006598,0.24338305,0.44477785,-0.0015886388,-0.005888361,-0.89562017,1
311674902,0.019357191,-0.00049076555,0.00046651065,0.9698744,0.008687342,0.006066705,0.24337544,0.44477785,-0.0015886388,-0.005888361,-0.89562017,1
311706988,0.010283848,0.00040988077,-0.001959938,0.9698889,0.008721017,0.0059826095,0.2433184,0.44477785,-0.0015886388,-0.005888361,-0.89562017,1
311738922,0.004673116,0.008101562,0.003820674,0.9698932,0.008724741,0.005976089,0.24330132,0.44477785,-0.0015886388,-0.005888361,-0.89562017,1
311771130,0.00657897,0.0099970475,0.0060907216,0.9698796,0.008700865,0.0060851104,0.24335326,0.44477785,-0.0015886388,-0.005888361,-0.89562017,1
311798918,-0.0096927425,-0.008547217,0.0005214922,0.96987563,0.008672744,0.006031076,0.2433716,0.44477785,-0.0015886388,-0.005888361,-0.89562017,1
311830941,0.003138809,0.0013154637,-0.0003733132,0.9698861,0.008705366,0.0059635374,0.24333018,0.44477785,-0.0015886388,-0.005888361,-0.89562017,1
311862972,0.0067253946,0.013015731,0.0018316708,0.96989155,0.008748311,0.006063569,0.24330471,0.44477785,-0.0015886388,-0.005888361,-0.89562017,1
311895044,0.009969541,0.0056915614,0.0019548284,0.9698904,0.008734617,0.006098933,0.24330868,0.44477785,-0.0015886388,-0.005888361,-0.89562017,1
311926890,0.007512099,-0.002931865,0.0027515804,0.9698918,0.008716502,0.005973193,0.24330673,0.44477785,-0.0015886388,-0.005888361,-0.89562017,1
311958988,-0.00095120503,0.009745526,0.0031260024,0.9698889,0.008702402,0.0059966506,0.24331822,0.44477785,-0.0015886388,-0.005888361,-0.89562017,1
311990888,0.0087451665,-0.0006054622,0.0024528028,0.96988213,0.008751635,0.0060918247,0.24334145,0.44477785,-0.0015886388,-0.005888361,-0.89562017,1
312022948,0.0032381306,-0.0044532544,-0.001671829,0.9698882,0.008767885,0.0060153715,0.24331857,0.44477785,-0.0015886388,-0.005888361,-0.89562017,1
312054882,-0.0051670996,0.0028246983,-0.008259657,0.9699147,0.008710573,0.005966201,0.24321629,0.44477785,-0.0015886388,-0.005888361,-0.89562017,1
312082905,0.004915706,0.005988154,0.008872703,0.9699164,0.008644348,0.0060211495,0.24321003,0.44477785,-0.0015886388,-0.005888361,-0.89562017,1
312114883,0.0021825037,0.0010577326,0.0157766,0.96985716,0.008514323,0.005970235,0.24345237,0.44477785,-0.0015886388,-0.005888361,-0.89562017,1
312146929,-0.03141981,-0.008029001,0.0019021977,0.9698408,0.0083881775,0.0058527035,0.2435245,0.44477785,-0.0015886388,-0.005888361,-0.89562017,1
312178983,0.014062971,0.00041638443,-0.008781919,0.9698779,0.0084381355,0.0059172506,0.24337362,0.44477785,-0.0015886388,-0.005888361,-0.89562017,1
312212507,0.015728155,0.0054321745,-0.0007545841,0.9699058,0.008483414,0.0059541124,0.24326015,0.44477785,-0.0015886388,-0.005888361,-0.89562017,1
312244648,-0.010190526,-0.0038446109,0.004122843,0.9699115,0.008446131,0.0058715134,0.24324028,0.44477785,-0.0015886388,-0.005888361,-0.89562017,1
312276480,-0.0009994745,0.0053327936,0.0050951587,0.9699146,0.008365875,0.005878572,0.24323072,0.44477785,-0.0015886388,-0.005888361,-0.89562017,1
312308544,-0.017973293,-0.0050643506,0.010372155,0.96989036,0.008354106,0.0059679686,0.24332546,0.44477785,-0.0015886388,-0.005888361,-0.89562017,1
312340555,0.0024792594,0.00515245,0.00331849,0.96987563,0.008480953,0.005935209,0.24338064,0.44477785,-0.0015886388,-0.005888361,-0.89562017,1
312372484,0.023204416,0.009527069,-0.004701906,0.96987873,0.008487843,0.0059130015,0.2433686,0.44477785,-0.0015886388,-0.005888361,-0.89562017,1
312404639,-0.00089556625,0.01355302,-0.00095891836,0.96989137,0.008377202,0.0059721884,0.24332099,0.44477785,-0.0015886388,-0.005888361,-0.89562017,1
312432500,-0.0005362987,0.0013100125,0.0029502038,0.96989936,0.008372736,0.0059545333,0.24328972,0.44477785,-0.0015886388,-0.005888361,-0.89562017,1
312464509,0.0037681716,-0.011368229,0.006255834,0.9698944,0.008468349,0.0058706095,0.24330811,0.44477785,-0.0015886388,-0.005888361,-0.89562017,1
312496729,0.0056773433,0.005995441,0.0042851525,0.96988636,0.00844626,0.005896667,0.24334028,0.44477785,-0.0015886388,-0.005888361,-0.89562017,1
312528467,0.002583873,0.0010984961,0.0018217587,0.9698797,0.008291497,0.005898821,0.24337178,0.44477785,-0.0015886388,-0.005888361,-0.89562017,1
312560674,-0.011887392,-0.0019583649,0.0040174373,0.9698743,0.0082132155,0.005816601,0.24339777,0.44477785,-0.0015886388,-0.005888361,-0.89562017,1
312592562,0.007995071,0.003580213,-0.00025840756,0.96987766,0.008297083,0.0058391024,0.24338138,0.44477785,-0.0015886388,-0.005888361,-0.89562017,1
312624546,0.032706805,0.009040926,0.004025527,0.9698746,0.008356359,0.0059202174,0.24338931,0.44477785,-0.0015886388,-0.005888361,-0.89562017,1
312656547,-0.07308151,-0.02870434,0.003384482,0.96987617,0.008168061,0.0057905153,0.24339283,0.44477785,-0.0015886388,-0.005888361,-0.89562017,1
312684651,0.003610308,-0.01591061,-0.00022670208,0.9698745,0.008146436,0.005826114,0.24339952,0.44477785,-0.0015886388,-0.005888361,-0.89562017,1
312716626,-0.006646936,-0.0056150714,-0.0025913494,0.96987575,0.008286094,0.0058562076,0.24338883,0.44477785,-0.0015886388,-0.005888361,-0.89562017,1
312748495,-0.0065399166,-0.0016808556,0.00610103,0.9698693,0.008389451,0.0058943597,0.24340977,0.44477785,-0.0015886388,-0.005888361,-0.89562017,1
312780641,-0.01924123,-0.016023876,0.006843368,0.9698634,0.008217129,0.0058129085,0.24344145,0.44477785,-0.0015886388,-0.005888361,-0.89562017,1
312812487,0.0102050835,0.010496046,0.004899701,0.96985644,0.008215181,0.005830086,0.24346904,0.44477785,-0.0015886388,-0.005888361,-0.89562017,1
312844539,0.024747454,0.00095118966,0.00017113076,0.96986455,0.008325492,0.0058283634,0.24343275,0.44477785,-0.0015886388,-0.005888361,-0.89562017,1
312876906,0.024617657,0.0116705075,0.00053371524,0.9698664,0.008328736,0.0058684237,0.2434243,0.44477785,-0.0015886388,-0.005888361,-0.89562017,1
312908512,-0.024306584,-0.008924233,0.006107335,0.9698582,0.008169735,0.0058429833,0.24346267,0.44477785,-0.0015886388,-0.005888361,-0.89562017,1
312941423,-0.0068432568,-0.0120288925,0.0025554649,0.96984726,0.008138048,0.005806488,0.2435087,0.44477785,-0.0015886388,-0.005888361,-0.89562017,1
312974170,0.00675074,0.012828918,0.0029414506,0.96984595,0.008174222,0.005833112,0.24351169,0.44477785,-0.0015886388,-0.005888361,-0.89562017,1
313006092,-0.021149736,-0.009118812,0.0020976965,0.9698529,0.008138898,0.005823181,0.24348578,0.44477785,-0.0015886388,-0.005888361,-0.89562017,1
313038288,-0.043978017,-0.013994889,0.0007185623,0.96986085,0.008081146,0.0058219973,0.24345592,0.44477785,-0.0015886388,-0.005888361,-0.89562017,1
313070088,-0.004088658,0.009029009,0.005981017,0.96986187,0.008054852,0.0058157216,0.24345282,0.44477785,-0.0015886388,-0.005888361,-0.89562017,1
313102175,-0.03002594,-0.0062167724,0.0019621123,0.969852,0.008084035,0.005825368,0.24349135,0.44477785,-0.0015886388,-0.005888361,-0.89562017,1
313134153,0.0102878045,-0.008874166,9.389571e-05,0.9698467,0.008127501,0.0058787703,0.24350943,0.44477785,-0.0015886388,-0.005888361,-0.89562017,1
313166025,-0.039282225,-0.01515751,-0.0035914413,0.9698459,0.007997724,0.005833067,0.243518,0.44477785,-0.0015886388,-0.005888361,-0.89562017,1
313198151,0.009534729,-0.01178142,-0.0046401992,0.9698529,0.008059825,0.005841707,0.24348783,0.44477785,-0.0015886388,-0.005888361,-0.89562017,1
313230199,-0.0011996048,-0.0010428156,-0.0009784319,0.96985924,0.0080418205,0.0059221187,0.24346142,0.44477785,-0.0015886388,-0.005888361,-0.89562017,1
313262137,0.02262389,0.0117538115,-0.0039386796,0.96986943,0.0080307005,0.0058345925,0.24342325,0.44477785,-0.0015886388,-0.005888361,-0.89562017,1
313290206,-0.054673605,0.0023057621,-0.0013805986,0.9698853,0.007628048,0.0056440905,0.24337733,0.44477785,-0.0015886388,-0.005888361,-0.89562017,1
313322107,-0.011522277,-0.015495572,-0.006999202,0.9699039,0.0072749327,0.0056898203,0.24331322,0.44477785,-0.0015886388,-0.005888361,-0.89562017,1
313354108,-0.026275188,-0.02953313,-0.0184505,0.9699433,0.006982988,0.0055542584,0.2431673,0.44477785,-0.0015886388,-0.005888361,-0.89562017,1
313386126,0.049109418,0.035186116,0.009064974,0.9699855,0.0067573236,0.0054662046,0.24300754,0.44477785,-0.0015886388,-0.005888361,-0.89562017,1
313418320,-0.12078449,0.008860251,0.0024534229,0.97001016,0.006374247,0.005466828,0.24291931,0.44477785,-0.0015886388,-0.005888361,-0.89562017,1
313450126,-0.033978935,0.00420015,0.0083789695,0.9700088,0.0062449975,0.005547854,0.24292661,0.44477785,-0.0015886388,-0.005888361,-0.89562017,1
313482193,-0.008459539,-0.004605174,0.0038217027,0.97000855,0.0062197186,0.0054541803,0.24293004,0.44477785,-0.0015886388,-0.005888361,-0.89562017,1
313514139,0.06255414,0.0489242,0.00031760405,0.97000235,0.0062778117,0.005423631,0.24295403,0.44477785,-0.0015886388,-0.005888361,-0.89562017,1
313542210,-0.017634701,-0.0012067724,0.0015169878,0.97000295,0.006206119,0.0054120626,0.24295384,0.44477785,-0.0015886388,-0.005888361,-0.89562017,1
313574194,0.02180163,-0.019663315,0.0018459203,0.9699978,0.006156002,0.0054030907,0.24297583,0.44477785,-0.0015886388,-0.005888361,-0.89562017,1
313606217,0.023185704,0.01913124,-0.0013110763,0.9700075,0.00622906,0.005296121,0.24293783,0.44477785,-0.0015886388,-0.005888361,-0.89562017,1
313638260,-0.023745202,-0.030735945,-0.0049057826,0.97001123,0.0065527093,0.0052587637,0.24291515,0.44477785,-0.0015886388,-0.005888361,-0.89562017,1
313670231,0.01720188,-0.0049672914,0.013507772,0.97000325,0.0066833696,0.005205767,0.24294467,0.44477785,-0.0015886388,-0.005888361,-0.89562017,1
313699762,0.008019643,0.0014644098,0.002053198,0.9699946,0.006536414,0.0050932933,0.24298564,0.44477785,-0.0015886388,-0.005888361,-0.89562017,1
313731689,0.06435669,-0.003335127,-0.0037652957,0.97000057,0.0065518087,0.0050290003,0.24296258,0.44477785,-0.0015886388,-0.005888361,-0.89562017,1
313763868,-0.034841266,0.022358855,-0.007508729,0.97000617,0.0064863614,0.004959927,0.2429433,0.44477785,-0.0015886388,-0.005888361,-0.89562017,1
313795737,0.047397476,-0.004242543,-0.006281247,0.9700087,0.0063744443,0.0049378336,0.24293672,0.44477785,-0.0015886388,-0.005888361,-0.89562017,1
313827880,-0.027070686,0.06449214,-0.0060609067,0.9700289,0.0060080523,0.0047819805,0.24286836,0.44477785,-0.0015886388,-0.005888361,-0.89562017,1
313859649,0.027538773,-0.046927687,0.0019573178,0.9700566,0.0058286665,0.004452529,0.24276815,0.44477785,-0.0015886388,-0.005888361,-0.89562017,1
313891814,-0.035681948,0.010039989,-0.0042465944,0.97007525,0.005516411,0.004441247,0.24270129,0.44477785,-0.0015886388,-0.005888361,-0.89562017,1
313923706,-0.0158577,0.044961564,-0.01907193,0.970104,0.0052841986,0.004408499,0.24259259,0.44477785,-0.0015886388,-0.005888361,-0.89562017,1
313951774,-0.051697426,-0.0017888333,0.012033965,0.9701211,0.0053123077,0.0041947775,0.24252675,0.44477785,-0.0015886388,-0.005888361,-0.89562017,1
313983706,-0.010476747,-0.062343918,-0.0063291104,0.9701155,0.0054902257,0.003985185,0.24254891,0.44477785,-0.0015886388,-0.005888361,-0.89562017,1
314015838,-0.13327347,-0.01713522,0.027629705,0.9700961,0.0050767767,0.0038365126,0.24263802,0.44477785,-0.0015886388,-0.005888361,-0.89562017,1
314047832,0.068764836,0.017108554,-0.004623998,0.9700918,0.005171646,0.0039366535,0.24265154,0.44477785,-0.0015886388,-0.005888361,-0.89562017,1
314079805,-0.022241991,-0.020056976,-0.0031263456,0.97008073,0.0056897174,0.0038274243,0.24268575,0.44477785,-0.0015886388,-0.005888361,-0.89562017,1
314111757,-0.046976145,0.008083229,-0.010819975,0.97009313,0.0058938307,0.0035433515,0.2426357,0.44477785,-0.0015886388,-0.005888361,-0.89562017,1
314143801,-0.07932129,-0.00073929445,-0.0047287554,0.9701032,0.0060616,0.0033212444,0.24259433,0.44477785,-0.0015886388,-0.005888361,-0.89562017,1
314175716,-0.12746297,-0.027914785,0.0035177744,0.9700964,0.006509876,0.0033900014,0.24260922,0.44477785,-0.0015886388,-0.005888361,-0.89562017,1
314203771,0.12000282,0.033383615,0.008726157,0.9700831,0.006813285,0.0034184433,0.2426533,0.44477785,-0.0015886388,-0.005888361,-0.89562017,1
314235678,0.094432876,0.019955102,0.004076762,0.9700976,0.0068857493,0.0030864833,0.24259819,0.44477785,-0.0015886388,-0.005888361,-0.89562017,1
314267800,-0.0009428485,-0.0542425,0.0089865625,0.9700906,0.0073903105,0.0030537937,0.24261141,0.44477785,-0.0015886388,-0.005888361,-0.89562017,1
314299734,-0.029833958,0.030284049,0.016280992,0.9700757,0.0074150665,0.0031319421,0.2426695,0.44477785,-0.0015886388,-0.005888361,-0.89562017,1
314331823,-0.08563071,-0.018771699,-0.0034618839,0.97007734,0.007346529,0.0029808045,0.2426669,0.44477785,-0.0015886388,-0.005888361,-0.89562017,1
314363892,-0.017734373,-0.006274964,0.00024187472,0.97006434,0.008191389,0.0029492986,0.24269217,0.44477785,-0.0015886388,-0.005888361,-0.89562017,1
314395724,-0.08157294,0.016603488,0.012820262,0.97005504,0.008497535,0.0030425747,0.24271792,0.44477785,-0.0015886388,-0.005888361,-0.89562017,1
314427807,0.051657986,-0.010922942,0.013317751,0.9700162,0.008649784,0.0030469927,0.24286732,0.44477785,-0.0015886388,-0.005888361,-0.89562017,1
314461324,0.08033691,0.025431968,0.021843858,0.9699531,0.0092380885,0.002964108,0.24309848,0.44477785,-0.0015886388,-0.005888361,-0.89562017,1
314493402,-0.037696976,-0.034071285,-0.013540724,0.96995425,0.009558367,0.0025025818,0.24308662,0.44477785,-0.0015886388,-0.005888361,-0.89562017,1
314525325,0.068236835,0.0048525976,-0.02833378,0.96998465,0.009882821,0.002468101,0.24295263,0.44477785,-0.0015886388,-0.005888361,-0.89562017,1
314557446,0.03766902,0.00793498,-0.009369187,0.97002023,0.010355671,0.00269868,0.24278852,0.44477785,-0.0015886388,-0.005888361,-0.89562017,1
314589503,-0.19318031,0.09295444,0.016603535,0.97002816,0.01033682,0.0025328386,0.24275924,0.44477785,-0.0015886388,-0.005888361,-0.89562017,1
314621535,0.09666963,-0.046937652,-0.0028973413,0.97004694,0.010762368,0.0023253756,0.24266823,0.44477785,-0.0015886388,-0.005888361,-0.89562017,1
314653318,-0.0337761,0.16968594,0.03095571,0.9700258,0.010863632,0.002787965,0.24274316,0.44477785,-0.0015886388,-0.005888361,-0.89562017,1
314685353,0.0018189746,-0.101904415,0.012085494,0.97002155,0.011300972,0.0022027907,0.24274611,0.44477785,-0.0015886388,-0.005888361,-0.89562017,1
314717353,-0.11950423,0.04722191,-0.0054369885,0.97001064,0.011471343,0.0020739906,0.24278283,0.44477785,-0.0015886388,-0.005888361,-0.89562017,1
314749407,0.02517325,-0.04533708,0.013424292,0.9700034,0.0125231035,0.0011903762,0.24276555,0.44477785,-0.0015886388,-0.005888361,-0.89562017,1
314781313,0.003226446,-0.0186734,0.019574385,0.9700259,0.013422944,0.00092221773,0.24262895,0.44477785,-0.0015886388,-0.005888361,-0.89562017,1
314813315,0.0884513,-0.07883829,4.5079272e-05,0.96996194,0.014992407,0.00083317916,0.24279296,0.44477785,-0.0015886388,-0.005888361,-0.89562017,1
314845293,0.2653653,0.009281485,0.03131811,0.9698463,0.015915575,-0.00061773835,0.24319643,0.44477785,-0.0015886388,-0.005888361,-0.89562017,1
314877358,0.16689539,-0.15200377,0.01048472,0.9697858,0.016032387,-0.0025484113,0.24341726,0.44477785,-0.0015886388,-0.005888361,-0.89562017,1
314909317,0.15227525,-0.08034183,-0.0010190485,0.9697724,0.016740272,-0.0031793846,0.24341573,0.44477785,-0.0015886388,-0.005888361,-0.89562017,1
314941298,0.06924999,-0.06815055,0.029543806,0.96977943,0.017210728,-0.004434897,0.24333498,0.44477785,-0.0015886388,-0.005888361,-0.89562017,1
314973335,-0.05463433,-0.03223267,-0.043325283,0.96982807,0.018675273,-0.0057931184,0.24300498,0.44477785,-0.0015886388,-0.005888361,-0.89562017,1
315005303,-0.014343044,-0.18329366,-0.027621947,0.9698501,0.021073915,-0.0075623305,0.2426715,0.44477785,-0.0015886388,-0.005888361,-0.89562017,1
315355028,-0.09827815,0.23666804,0.059571445,0.96779585,0.04628822,-0.036276408,0.24477081,0.44477785,-0.0015886388,-0.005888361,-0.89562017,1
315382991,0.048796084,-0.008695407,0.025852608,0.9677357,0.04589854,-0.036507666,0.24504751,0.44477785,-0.0015886388,-0.005888361,-0.89562017,1
315415017,0.045572933,0.11061262,0.034705244,0.9676015,0.047142565,-0.037303854,0.24522139,0.44477785,-0.0015886388,-0.005888361,-0.89562017,1
315446898,0.03270406,-0.11251765,0.014408542,0.9675516,0.047378056,-0.03780569,0.24529605,0.44477785,-0.0015886388,-0.005888361,-0.89562017,1
315478926,-0.08615357,0.122789,0.013728048,0.9675911,0.04655625,-0.037477035,0.24534771,0.44477785,-0.0015886388,-0.005888361,-0.89562017,1
315510962,-0.22726701,0.032161918,0.028944561,0.9677043,0.045318,-0.036015287,0.24535182,0.44477785,-0.0015886388,-0.005888361,-0.89562017,1
315542893,-0.16687533,0.34806085,-0.0033872928,0.968034,0.040277716,-0.033262275,0.24531896,0.44477785,-0.0015886388,-0.005888361,-0.89562017,1
315574950,-0.17766273,0.3616313,-0.015441913,0.968317,0.03569388,-0.030740824,0.24524143,0.44477785,-0.0015886388,-0.005888361,-0.89562017,1
315606908,0.024605855,-0.10547606,0.014962345,0.96847236,0.03436168,-0.028767077,0.24505721,0.44477785,-0.0015886388,-0.005888361,-0.89562017,1
315634950,-0.11783563,0.31172353,-0.02081371,0.96859187,0.03265898,-0.027655713,0.24494573,0.44477785,-0.0015886388,-0.005888361,-0.89562017,1
315666889,-0.13663496,-0.15730363,-0.03092575,0.96866363,0.030839909,-0.027863164,0.24487406,0.44477785,-0.0015886388,-0.005888361,-0.89562017,1
315698962,-0.023013763,-0.061696224,0.045888282,0.9686472,0.030053984,-0.027874533,0.24503571,0.44477785,-0.0015886388,-0.005888361,-0.89562017,1
315730920,-0.06696058,0.22322021,0.013041423,0.9686823,0.028894478,-0.026828807,0.24515319,0.44477785,-0.0015886388,-0.005888361,-0.89562017,1
315762904,-0.063264966,0.3026451,0.034844633,0.9687239,0.027155684,-0.025578529,0.24532083,0.44477785,-0.0015886388,-0.005888361,-0.89562017,1
315794925,-0.046335455,0.10269804,0.012150884,0.9688138,0.024703663,-0.022992365,0.24548115,0.44477785,-0.0015886388,-0.005888361,-0.89562017,1
315826997,-0.32987726,0.39304173,0.030362176,0.968952,0.01972739,-0.019611783,0.24567929,0.44477785,-0.0015886388,-0.005888361,-0.89562017,1
315858899,-0.28980917,-0.0635291,0.04506373,0.9690054,0.014128067,-0.017819373,0.24599092,0.44477785,-0.0015886388,-0.005888361,-0.89562017,1
315891144,-0.1841063,0.21548,0.004118355,0.9690601,0.010352477,-0.015164282,0.24614085,0.44477785,-0.0015886388,-0.005888361,-0.89562017,1
315923739,0.0015265592,0.35993057,0.036858924,0.9690264,0.009081444,-0.014414722,0.246369,0.44477785,-0.0015886388,-0.005888361,-0.89562017,1
315956487,0.21251151,-0.40031254,0.027857337,0.9689435,0.011565834,-0.016516672,0.24645895,0.44477785,-0.0015886388,-0.005888361,-0.89562017,1
315988670,0.28626084,-0.35089314,0.00050350546,0.96876186,0.016326666,-0.019972028,0.2466478,0.44477785,-0.0015886388,-0.005888361,-0.89562017,1
316020763,0.3576169,-0.33385792,-0.028198961,0.9685389,0.021613792,-0.023246147,0.24682972,0.44477785,-0.0015886388,-0.005888361,-0.89562017,1
316048627,0.08483739,-0.21497072,0.0030038925,0.96836895,0.024924159,-0.02574756,0.24693657,0.44477785,-0.0015886388,-0.005888361,-0.89562017,1
316081004,0.10991315,-0.37409225,0.00821064,0.9681114,0.029318538,-0.028729292,0.24713443,0.44477785,-0.0015886388,-0.005888361,-0.89562017,1
316112516,0.24171034,-0.15369114,0.014146674,0.9679568,0.03302959,-0.029437963,0.24718876,0.44477785,-0.0015886388,-0.005888361,-0.89562017,1
316144515,-0.0051485966,0.10034117,-0.006290518,0.9679124,0.03441288,-0.02909975,0.24721405,0.44477785,-0.0015886388,-0.005888361,-0.89562017,1
316176626,0.047476273,0.15703437,0.05647418,0.96781236,0.03506727,-0.02944453,0.24747255,0.44477785,-0.0015886388,-0.005888361,-0.89562017,1
316208441,-0.028652182,-0.0066526714,-0.001018035,0.96777225,0.03482112,-0.029650904,0.24763957,0.44477785,-0.0015886388,-0.005888361,-0.89562017,1
316240982,0.05103158,0.18369341,-0.031707097,0.9678145,0.033964865,-0.028728185,0.24770185,0.44477785,-0.0015886388,-0.005888361,-0.89562017,1
316272556,-0.01338306,-0.17862503,0.02038982,0.96783125,0.033145074,-0.029353723,0.24767432,0.44477785,-0.0015886388,-0.005888361,-0.89562017,1
316304580,0.04114805,-0.13682903,0.0015682871,0.9678067,0.034114327,-0.029384732,0.24763495,0.44477785,-0.0015886388,-0.005888361,-0.89562017,1
316336554,-0.07278111,0.0021574246,-0.01540051,0.967837,0.034911428,-0.028840479,0.2474692,0.44477785,-0.0015886388,-0.005888361,-0.89562017,1
316368514,0.027883286,0.121784076,-0.013295795,0.96793395,0.034928195,-0.029370397,0.24702509,0.44477785,-0.0015886388,-0.005888361,-0.89562017,1
316400534,0.116287895,-0.031159198,-0.011572511,0.96798617,0.03570931,-0.030066455,0.24662475,0.44477785,-0.0015886388,-0.005888361,-0.89562017,1
316432462,0.016749376,0.13927121,-0.024778103,0.96809185,0.03517592,-0.030557683,0.24622586,0.44477785,-0.0015886388,-0.005888361,-0.89562017,1
316464522,-0.010680188,0.23071718,-0.04720682,0.9682771,0.034271874,-0.029382104,0.24576741,0.44477785,-0.0015886388,-0.005888361,-0.89562017,1
316496456,-0.047693055,0.2111416,-0.029476361,0.9685136,0.031761978,-0.027046932,0.24544063,0.44477785,-0.0015886388,-0.005888361,-0.89562017,1
316528567,-0.12746568,0.19351658,-0.023636203,0.9687974,0.02805903,-0.025101678,0.24497816,0.44477785,-0.0015886388,-0.005888361,-0.89562017,1
316560559,-0.13883126,0.39470178,-0.023624247,0.96903217,0.025016913,-0.022019025,0.2446753,0.44477785,-0.0015886388,-0.005888361,-0.89562017,1
316592600,-0.2816549,0.50250673,-0.0075438507,0.9692884,0.019044356,-0.018929271,0.24445646,0.44477785,-0.0015886388,-0.005888361,-0.89562017,1
316624487,-0.104212075,0.28244838,0.015748678,0.9694489,0.01446157,-0.016185684,0.24433137,0.44477785,-0.0015886388,-0.005888361,-0.89562017,1
316656567,-0.18364917,0.15716955,0.024306271,0.96956074,0.011229032,-0.014514909,0.2441626,0.44477785,-0.0015886388,-0.005888361,-0.89562017,1
316686281,-0.18156274,0.17442374,-0.00083790347,0.96964055,0.0073128166,-0.012534954,0.24410382,0.44477785,-0.0015886388,-0.005888361,-0.89562017,1
316718271,-0.23683801,0.14388935,0.011473412,0.96966195,0.0042375685,-0.010496141,0.24418761,0.44477785,-0.0015886388,-0.005888361,-0.89562017,1
316750172,-0.2371782,0.11825475,0.0262412,0.96966785,0.0029570472,-0.009103038,0.2442389,0.44477785,-0.0015886388,-0.005888361,-0.89562017,1
316782138,-0.16009769,-0.04966745,0.04575017,0.9696457,0.0018064212,-0.009032464,0.24434085,0.44477785,-0.0015886388,-0.005888361,-0.89562017,1
316814120,-0.16054903,0.021598095,0.027793327,0.9696385,0.0005458208,-0.007808372,0.2444173,0.44477785,-0.0015886388,-0.005888361,-0.89562017,1
316846096,-0.112391435,-0.11164786,0.022625778,0.9696039,-0.0002688383,-0.006593651,0.24459118,0.44477785,-0.0015886388,-0.005888361,-0.89562017,1
316878172,-0.17118372,-0.10690528,0.04800082,0.9695376,-0.0010490114,-0.006361238,0.24485792,0.44477785,-0.0015886388,-0.005888361,-0.89562017,1
316910163,-0.117339544,0.103332795,0.014374252,0.96949106,-0.0013578796,-0.00644007,0.24503852,0.44477785,-0.0015886388,-0.005888361,-0.89562017,1
316942240,-0.082113005,0.1251076,-0.005067797,0.9694446,-0.0012137934,-0.0057018637,0.24524142,0.44477785,-0.0015886388,-0.005888361,-0.89562017,1
316974102,-0.11674155,0.008847904,0.0117350845,0.9693859,-0.001494464,-0.005165888,0.2454833,0.44477785,-0.0015886388,-0.005888361,-0.89562017,1
317006185,-0.01926435,-0.0432639,-0.022377312,0.9693476,-0.0016569507,-0.0045562373,0.24564588,0.44477785,-0.0015886388,-0.005888361,-0.89562017,1
317038148,-0.09621917,-0.10710264,0.0128055895,0.9693029,-0.0019434255,-0.003924427,0.24583103,0.44477785,-0.0015886388,-0.005888361,-0.89562017,1
317070203,-0.14353663,-0.08220707,0.020529946,0.9692272,-0.0022454923,-0.0036823635,0.24613039,0.44477785,-0.0015886388,-0.005888361,-0.89562017,1
317098129,0.10412825,0.11530577,-0.009950021,0.96918637,-0.0018861544,-0.0034356138,0.2462977,0.44477785,-0.0015886388,-0.005888361,-0.89562017,1
317130128,0.11643869,0.17550856,0.005577037,0.96910685,-0.0017566148,-0.0034297837,0.24661115,0.44477785,-0.0015886388,-0.005888361,-0.89562017,1
317162235,-0.021459427,0.2039899,0.0041119885,0.9690543,-0.0015506446,-0.0031649915,0.24682303,0.44477785,-0.0015886388,-0.005888361,-0.89562017,1
317194159,0.019222846,0.19703892,0.023653092,0.9689829,-0.0013136715,-0.0028799872,0.24710763,0.44477785,-0.0015886388,-0.005888361,-0.89562017,1
317226103,0.051089328,0.10656923,0.027827194,0.96890813,-0.0012798695,-0.002728143,0.24740244,0.44477785,-0.0015886388,-0.005888361,-0.89562017,1
317258123,0.13564579,0.0678917,0.019208098,0.96882385,-0.0012246934,-0.0020858056,0.2477387,0.44477785,-0.0015886388,-0.005888361,-0.89562017,1
317290078,0.07459928,0.1003387,0.042949922,0.96872824,-0.0010659444,-0.0017288832,0.248116,0.44477785,-0.0015886388,-0.005888361,-0.89562017,1
317322162,0.006565073,0.19438611,-0.005270236,0.96871096,-0.0011464531,-0.0014680752,0.24818476,0.44477785,-0.0015886388,-0.005888361,-0.89562017,1
317350106,-0.007824846,0.0077263317,0.0036188967,0.96868426,-0.0014713106,-0.0016436748,0.24828604,0.44477785,-0.0015886388,-0.005888361,-0.89562017,1
317382113,-0.08355832,0.03319448,0.0049193217,0.96866727,-0.0020008706,-0.0013714306,0.24835046,0.44477785,-0.0015886388,-0.005888361,-0.89562017,1
317414881,-0.011936338,0.0022250132,-0.013819166,0.96867955,-0.0018194077,-0.0014507407,0.24830326,0.44477785,-0.0015886388,-0.005888361,-0.89562017,1
317447800,0.03466046,-0.06808162,-0.0016402861,0.96869856,-0.0014193059,-0.0015796947,0.24823111,0.44477785,-0.0015886388,-0.005888361,-0.89562017,1
317479740,0.012287741,-0.18677154,-0.02912896,0.9687244,-0.0015165627,-0.0017622755,0.24812818,0.44477785,-0.0015886388,-0.005888361,-0.89562017,1
317507915,-0.040052623,0.10349561,-0.03570102,0.9687437,-0.002071414,-0.0012204773,0.24805206,0.44477785,-0.0015886388,-0.005888361,-0.89562017,1
317539723,0.066676036,0.0041747806,-0.012102646,0.96876615,-0.0018584481,-0.0010491695,0.2479674,0.44477785,-0.0015886388,-0.005888361,-0.89562017,1
317571745,0.06418734,0.06686336,-0.06368961,0.9688289,-0.00190508,-0.0009836816,0.24772152,0.44477785,-0.0015886388,-0.005888361,-0.89562017,1
317603759,0.023715891,0.03187719,-0.02882811,0.9688715,-0.0018992685,-0.0010971137,0.24755445,0.44477785,-0.0015886388,-0.005888361,-0.89562017,1
317635699,-0.062444266,0.049582582,-0.034882512,0.968897,-0.0019522588,-0.001339113,0.24745315,0.44477785,-0.0015886388,-0.005888361,-0.89562017,1
317667912,-0.02875669,0.06642332,0.012453612,0.96894133,-0.0020230196,-0.0012821656,0.24727924,0.44477785,-0.0015886388,-0.005888361,-0.89562017,1
317699718,0.04317554,-0.09904663,-0.004908733,0.9689889,-0.002007124,-0.0013740296,0.24709234,0.44477785,-0.0015886388,-0.005888361,-0.89562017,1
317731815,0.103060134,-0.018680193,-0.004066574,0.96904457,-0.0018744321,-0.0013026287,0.24687557,0.44477785,-0.0015886388,-0.005888361,-0.89562017,1
317759729,-0.123130165,0.0061238804,-0.0056288317,0.9690754,-0.0018366871,-0.0015698029,0.2467531,0.44477785,-0.0015886388,-0.005888361,-0.89562017,1
317791743,-0.091102175,-0.1646307,-0.0025506634,0.9691051,-0.0016964813,-0.0015086904,0.24663769,0.44477785,-0.0015886388,-0.005888361,-0.89562017,1
317823662,-0.073333725,-0.22235523,-0.004971157,0.96915203,-0.0016099347,-0.0011597336,0.24645612,0.44477785,-0.0015886388,-0.005888361,-0.89562017,1
317855766,-0.18172218,-0.20663661,0.023859454,0.9691655,-0.0017697393,-0.001689949,0.24639858,0.44477785,-0.0015886388,-0.005888361,-0.89562017,1
317887785,-0.1062168,-0.10441545,-0.008957571,0.96921283,-0.0016234096,-0.0018656509,0.24621226,0.44477785,-0.0015886388,-0.005888361,-0.89562017,1
317919794,-0.0029042894,-0.1521133,0.012219798,0.9692413,-0.001289536,-0.0014966852,0.24610446,0.44477785,-0.0015886388,-0.005888361,-0.89562017,1
317951783,0.0109821,-0.025278535,-0.019708516,0.96927994,-0.0012778116,-0.0012506725,0.2459538,0.44477785,-0.0015886388,-0.005888361,-0.89562017,1
317983701,0.0005620606,-0.033100024,-0.015025793,0.9693066,-0.0013773186,-0.0012252841,0.24584845,0.44477785,-0.0015886388,-0.005888361,-0.89562017,1
318011670,0.1054484,-0.005525669,0.013432372,0.96933085,-0.0014813053,-0.0014908279,0.24575062,0.44477785,-0.0015886388,-0.005888361,-0.89562017,1
318043815,0.14176778,-0.049306754,-0.011456951,0.9693585,-0.0013952288,-0.0015180924,0.24564163,0.44477785,-0.0015886388,-0.005888361,-0.89562017,1
318075704,0.14755,0.0037954315,-0.02086874,0.96939254,-0.0013313146,-0.0011259393,0.24551019,0.44477785,-0.0015886388,-0.005888361,-0.89562017,1
318107853,0.03712083,0.0050007994,-0.007029148,0.9694147,-0.0013299449,-0.0012240218,0.2454218,0.44477785,-0.0015886388,-0.005888361,-0.89562017,1
318139683,-0.0071372585,0.0901942,-0.008455376,0.96945095,-0.0016061075,-0.001610457,0.24527472,0.44477785,-0.0015886388,-0.005888361,-0.89562017,1
318168593,-0.023403963,-0.17800047,-0.019580713,0.969473,-0.001622654,-0.0018466235,0.24518579,0.44477785,-0.0015886388,-0.005888361,-0.89562017,1
318201409,-0.052948795,-0.15038927,-0.014218477,0.969499,-0.0016343789,-0.0018753789,0.24508272,0.44477785,-0.0015886388,-0.005888361,-0.89562017,1
318233462,-0.08655206,-0.12661056,0.0016427496,0.9694932,-0.0015877681,-0.0022541033,0.24510287,0.44477785,-0.0015886388,-0.005888361,-0.89562017,1
318265354,-0.036107235,0.021014068,-0.023932066,0.9695199,-0.0015698598,-0.0022697903,0.24499737,0.44477785,-0.0015886388,-0.005888361,-0.89562017,1
318297792,0.0019629602,0.121516734,-0.010388429,0.96953565,-0.0015554574,-0.0016788277,0.2449399,0.44477785,-0.0015886388,-0.005888361,-0.89562017,1
318329788,-0.007374778,-0.11616341,-0.0036708377,0.96953297,-0.0015888833,-0.0015162919,0.24495114,0.44477785,-0.0015886388,-0.005888361,-0.89562017,1
318361252,0.06906012,-0.14440909,-0.030985981,0.9695489,-0.0013881942,-0.0015158274,0.24488923,0.44477785,-0.0015886388,-0.005888361,-0.89562017,1
318393321,0.04537355,-0.16547659,-0.009153694,0.96954507,-0.0012846201,-0.0014098672,0.24490573,0.44477785,-0.0015886388,-0.005888361,-0.89562017,1
319282923,0.20997162,0.09532334,-0.006424709,0.96974516,-0.0003705419,-8.210155e-05,0.24411967,0.44477785,-0.0015886388,-0.005888361,-0.89562017,1
319315090,0.10946152,0.07133087,0.008872133,0.9697458,-0.0004501836,-0.0007086861,0.24411571,0.44477785,-0.0015886388,-0.005888361,-0.89562017,1
319346884,-0.008183178,0.08942108,0.012965049,0.9697498,-0.0006577454,-0.0012645068,0.2440971,0.44477785,-0.0015886388,-0.005888361,-0.89562017,1
319379070,0.06968186,0.22321516,-0.032142367,0.9697862,-0.00043912567,-0.0011365932,0.24395359,0.44477785,-0.0015886388,-0.005888361,-0.89562017,1
319410906,-0.026633883,-0.18843946,-0.0037804735,0.9697984,-5.505749e-05,-0.0013226436,0.24390447,0.44477785,-0.0015886388,-0.005888361,-0.89562017,1
319442873,-0.0062570744,0.0043016663,0.006025918,0.96980345,-0.00042432544,-0.0011592429,0.24388508,0.44477785,-0.0015886388,-0.005888361,-0.89562017,1
319470905,0.03359762,-0.07195501,-0.023434367,0.96982217,-0.0005991933,-0.0009942085,0.24381045,0.44477785,-0.0015886388,-0.005888361,-0.89562017,1
319502934,-0.10894999,-0.12417123,0.03017864,0.9698289,-0.00065838255,-0.00043747312,0.24378571,0.44477785,-0.0015886388,-0.005888361,-0.89562017,1
319534956,0.13980664,-0.06023604,-0.008720459,0.96983165,-7.224781e-05,-0.0007639066,0.24377449,0.44477785,-0.0015886388,-0.005888361,-0.89562017,1
319566997,-0.028766226,0.12195714,0.007422992,0.9698273,-0.0001517028,-0.00089949096,0.24379125,0.44477785,-0.0015886388,-0.005888361,-0.89562017,1
319598907,0.00497743,-0.007633232,-0.010503227,0.9698454,-0.00016423302,-0.0014057923,0.24371675,0.44477785,-0.0015886388,-0.005888361,-0.89562017,1
319631017,-0.028740883,-0.29301962,-0.012727523,0.96985465,-0.00010510359,-0.0011566437,0.24368188,0.44477785,-0.0015886388,-0.005888361,-0.89562017,1
319660503,0.058931127,0.16232482,0.014785788,0.9698493,0.00021724866,-0.0005265138,0.24370503,0.44477785,-0.0015886388,-0.005888361,-0.89562017,1
319692509,-0.08272842,-0.3604772,-0.0059196274,0.9698492,0.0002316014,-0.0004948468,0.24370492,0.44477785,-0.0015886388,-0.005888361,-0.89562017,1
319724564,-0.021905504,0.2876086,-0.018455792,0.9698529,2.5104966e-05,-0.00030228673,0.24369083,0.44477785,-0.0015886388,-0.005888361,-0.89562017,1
319756618,0.1153843,-0.004825043,-0.032546278,0.969892,6.987134e-05,-0.0003294195,0.24353532,0.44477785,-0.0015886388,-0.005888361,-0.89562017,1
319788479,-0.01859784,0.044515137,-0.0054640966,0.9698782,0.00024065352,-0.00025787886,0.24359047,0.44477785,-0.0015886388,-0.005888361,-0.89562017,1
319820498,-0.0047447933,-0.14610623,-0.02929572,0.96986365,0.00018877968,-0.00059199316,0.24364753,0.44477785,-0.0015886388,-0.005888361,-0.89562017,1
319852542,-0.0167766,0.242242,0.004776965,0.9698516,0.00021958572,-0.0006344924,0.24369563,0.44477785,-0.0015886388,-0.005888361,-0.89562017,1
319884477,-0.03255143,-0.20533194,-0.0041544205,0.96981853,0.00040492867,-0.0014257056,0.24382323,0.44477785,-0.0015886388,-0.005888361,-0.89562017,1
319916464,-0.09731955,0.06495135,0.029992918,0.96980464,0.00014967986,-0.0011302704,0.24388044,0.44477785,-0.0015886388,-0.005888361,-0.89562017,1
319948733,0.11760796,-0.17995673,-0.013662148,0.9698193,0.00080583274,-0.001469965,0.2438191,0.44477785,-0.0015886388,-0.005888361,-0.89562017,1
319980518,-0.094165586,0.22845809,0.020402456,0.96980846,0.00053613045,-0.0007887645,0.24386613,0.44477785,-0.0015886388,-0.005888361,-0.89562017,1
320012547,0.01189301,-0.3386621,0.037628707,0.9698358,0.00097017275,-0.0016224174,0.24375178,0.44477785,-0.0015886388,-0.005888361,-0.89562017,1
320044444,0.07679274,0.111671425,-0.01080459,0.9698182,0.0010114284,-0.00097058434,0.24382542,0.44477785,-0.0015886388,-0.005888361,-0.89562017,1
320076505,-0.017698353,0.34794724,-0.0009433876,0.96978354,0.0006962316,-0.00085896545,0.24396478,0.44477785,-0.0015886388,-0.005888361,-0.89562017,1
320108726,-0.19073988,-0.42085454,-0.0022313988,0.9698021,0.00037802107,-0.0018044475,0.24388644,0.44477785,-0.0015886388,-0.005888361,-0.89562017,1
320140503,0.11900632,0.33199984,-0.042063728,0.9698462,0.00043094848,-0.0014436861,0.24371307,0.44477785,-0.0015886388,-0.005888361,-0.89562017,1
320172412,0.13460876,0.052544665,-0.023259714,0.96986145,0.0008176376,-0.0013096131,0.24365222,0.44477785,-0.0015886388,-0.005888361,-0.89562017,1
320204529,-0.13127328,-0.013148448,-0.013946991,0.96985656,0.0016323418,-0.0005304428,0.24367072,0.44477785,-0.0015886388,-0.005888361,-0.89562017,1
320236448,0.043081045,-0.081115276,-0.028278869,0.96986103,0.001980906,-0.0006939556,0.24364996,0.44477785,-0.0015886388,-0.005888361,-0.89562017,1
320268577,0.07915024,0.08546702,0.010153218,0.9698669,0.0017663041,-0.00072069664,0.24362795,0.44477785,-0.0015886388,-0.005888361,-0.89562017,1
320300575,-0.08376634,-0.055755526,0.013266048,0.9698745,0.0016940121,-0.0009292582,0.24359751,0.44477785,-0.0015886388,-0.005888361,-0.89562017,1
320332509,-0.10859808,-0.16463196,-0.010877289,0.9698971,0.001301972,-0.00054614904,0.24351129,0.44477785,-0.0015886388,-0.005888361,-0.89562017,1
320364607,0.051742584,0.33895558,-0.015017011,0.96994025,0.00081707636,-7.97712e-05,0.24334177,0.44477785,-0.0015886388,-0.005888361,-0.89562017,1
320398222,0.09614072,-0.038607396,-0.0074199345,0.9699499,0.0009815979,-0.00056298904,0.24330258,0.44477785,-0.0015886388,-0.005888361,-0.89562017,1
320430223,-0.09670537,-0.06805945,0.026808573,0.96996087,0.00087809446,-0.00047860434,0.24325901,0.44477785,-0.0015886388,-0.005888361,-0.89562017,1
320458136,-0.030734943,0.13389187,0.014592797,0.969969,0.0010656025,-0.00013674598,0.24322669,0.44477785,-0.0015886388,-0.005888361,-0.89562017,1
320490116,-0.055863753,-0.033811077,0.01643959,0.96999025,0.0012658249,-0.0001020185,0.24314074,0.44477785,-0.0015886388,-0.005888361,-0.89562017,1
320522017,0.043650445,-0.028822847,-0.09360301,0.97002655,0.00084715214,0.00020829086,0.24299751,0.44477785,-0.0015886388,-0.005888361,-0.89562017,1
320554115,-0.07813244,0.22862774,0.021665275,0.969974,0.0004787426,-8.950112e-05,0.24320841,0.44477785,-0.0015886388,-0.005888361,-0.89562017,1
320586063,0.015198542,-0.35180193,0.010974763,0.9699794,0.00070592645,-0.0007182013,0.24318542,0.44477785,-0.0015886388,-0.005888361,-0.89562017,1
320618216,-0.07122822,-0.02182898,0.015481974,0.9699523,0.00044322814,0.00042102818,0.24329448,0.44477785,-0.0015886388,-0.005888361,-0.89562017,1
320650059,0.1824772,0.031070724,0.023874346,0.96992034,0.0009672579,-0.0007116966,0.24342002,0.44477785,-0.0015886388,-0.005888361,-0.89562017,1
320682142,-0.28655627,-0.33538416,-0.003774748,0.9699259,0.000107006235,-0.0015791999,0.24339537,0.44477785,-0.0015886388,-0.005888361,-0.89562017,1
320710107,0.22278915,-0.071506806,-0.030782623,0.9699632,0.00024112251,-0.0009003679,0.2432498,0.44477785,-0.0015886388,-0.005888361,-0.89562017,1
320742143,-0.035407547,0.21617563,-0.07050519,0.96995866,0.00024182249,0.0001422097,0.24326997,0.44477785,-0.0015886388,-0.005888361,-0.89562017,1
320774122,-0.14397575,-0.27130124,0.053911217,0.9699383,0.000429265,-0.0006603277,0.2433501,0.44477785,-0.0015886388,-0.005888361,-0.89562017,1
320806225,0.06839188,0.13636577,0.0033021057,0.9699393,0.00015719094,-0.00021423242,0.24334729,0.44477785,-0.0015886388,-0.005888361,-0.89562017,1
320838114,0.028118731,0.027828401,0.03760424,0.9698981,0.0002140778,-0.0010800053,0.24350883,0.44477785,-0.0015886388,-0.005888361,-0.89562017,1
320870179,0.024361916,-0.27450612,-0.0017563037,0.96986616,0.0005902488,-0.0016711227,0.24363211,0.44477785,-0.0015886388,-0.005888361,-0.89562017,1
320902206,-0.0588324,0.19668569,-0.005700889,0.96985847,9.433118e-05,-0.0008889731,0.24366738,0.44477785,-0.0015886388,-0.005888361,-0.89562017,1
320934226,0.13017948,0.10945856,-0.020226555,0.9698625,4.377466e-05,-9.512247e-05,0.24365304,0.44477785,-0.0015886388,-0.005888361,-0.89562017,1
320962118,0.032754153,-0.18562087,0.05916424,0.96981204,0.00028328644,-0.00031233937,0.24385339,0.44477785,-0.0015886388,-0.005888361,-0.89562017,1
320994219,0.063853875,0.15190887,-0.0023531704,0.969807,0.0005760507,-0.00016815076,0.24387304,0.44477785,-0.0015886388,-0.005888361,-0.89562017,1
321026048,0.03256957,0.27281818,0.008217214,0.9697568,0.00083258515,-0.00015564286,0.24407203,0.44477785,-0.0015886388,-0.005888361,-0.89562017,1
321058167,-0.074713826,-0.47690123,-0.020396069,0.9697401,0.00092493265,-0.0012386594,0.24413508,0.44477785,-0.0015886388,-0.005888361,-0.89562017,1
321090121,0.048358105,0.15032692,0.006375527,0.9697175,0.0009254346,-0.0013051041,0.24422424,0.44477785,-0.0015886388,-0.005888361,-0.89562017,1
321123033,0.11194987,0.14376885,0.008810179,0.9697121,0.0005946072,-0.00043004053,0.24425,0.44477785,-0.0015886388,-0.005888361,-0.89562017,1
321155839,0.044406693,-0.053214982,-0.0026258465,0.96967274,-0.0006392309,0.0005596531,0.2444054,0.44477785,-0.0015886388,-0.005888361,-0.89562017,1
321187845,0.1338802,-0.10584371,0.014218301,0.9696147,-0.0012206804,0.00064607273,0.24463348,0.44477785,-0.0015886388,-0.005888361,-0.89562017,1
321219729,-0.0013250604,-0.19082418,0.03340152,0.96957684,-0.0011675807,0.0005428845,0.24478367,0.44477785,-0.0015886388,-0.005888361,-0.89562017,1
321251747,-0.19555916,-0.12566876,-0.011394437,0.9695522,-0.0014266856,0.0007816227,0.24487957,0.44477785,-0.0015886388,-0.005888361,-0.89562017,1
321283708,-0.23113436,-0.08431667,0.00017097383,0.96949625,-0.0020469541,0.0008985632,0.24509603,0.44477785,-0.0015886388,-0.005888361,-0.89562017,1
321315692,-0.026699916,-0.016541483,0.010501289,0.96946365,-0.001962689,0.00049721263,0.24522665,0.44477785,-0.0015886388,-0.005888361,-0.89562017,1
321343717,-0.013115777,0.23942474,0.011776353,0.96944284,-0.0018603896,0.0006634289,0.24530971,0.44477785,-0.0015886388,-0.005888361,-0.89562017,1
321375687,0.17426616,0.16954598,-0.0002017743,0.9694251,-0.0017682378,0.0010536346,0.24537903,0.44477785,-0.0015886388,-0.005888361,-0.89562017,1
321407906,-0.12372686,-0.18626952,0.021561284,0.96938187,-0.0021907878,0.0010806721,0.24554609,0.44477785,-0.0015886388,-0.005888361,-0.89562017,1
321439720,-0.008481766,-0.012692111,-0.0040814807,0.96934706,-0.0022041735,0.0012385402,0.24568248,0.44477785,-0.0015886388,-0.005888361,-0.89562017,1
321471798,0.056815732,-0.072080426,0.03582198,0.96930695,-0.0019955647,0.001412577,0.24584174,0.44477785,-0.0015886388,-0.005888361,-0.89562017,1
321503786,-0.120377414,0.092879534,0.0013866952,0.96928406,-0.0023660373,0.0020285035,0.24592406,0.44477785,-0.0015886388,-0.005888361,-0.89562017,1
321535823,0.11786601,-0.018761434,0.0014504754,0.96925557,-0.0024129103,0.0020909577,0.24603578,0.44477785,-0.0015886388,-0.005888361,-0.89562017,1
321567949,-0.09813218,-0.109911,-0.0019080101,0.9692473,-0.0023360506,0.0020878895,0.24606892,0.44477785,-0.0015886388,-0.005888361,-0.89562017,1
321599836,0.18413018,0.008309779,0.0056292657,0.9692349,-0.0013280219,0.0025219754,0.246121,0.44477785,-0.0015886388,-0.005888361,-0.89562017,1
321631720,-0.18583609,-0.05905766,-0.040949393,0.9692558,-0.0019822603,0.0020569821,0.24603859,0.44477785,-0.0015886388,-0.005888361,-0.89562017,1
321663885,0.12800248,0.007502317,0.0042416784,0.9692341,-0.0021087686,0.0016520655,0.24612597,0.44477785,-0.0015886388,-0.005888361,-0.89562017,1
321695790,-0.08256095,-0.18285662,-0.017547214,0.96923304,-0.001720223,0.0014145945,0.24613482,0.44477785,-0.0015886388,-0.005888361,-0.89562017,1
321727932,0.055160016,0.058354165,-0.0044484073,0.9692391,-0.0013285296,0.0018410861,0.24611072,0.44477785,-0.0015886388,-0.005888361,-0.89562017,1
321759669,-0.15387522,-0.1142308,0.005908192,0.9692394,-0.0019374262,0.001068793,0.24611008,0.44477785,-0.0015886388,-0.005888361,-0.89562017,1
321791714,0.08473565,-0.09126801,-0.002212286,0.9692769,-0.001430447,0.00081599754,0.24596708,0.44477785,-0.0015886388,-0.005888361,-0.89562017,1
321823692,-0.005830562,-0.13222364,0.0038383882,0.96928567,-0.0010070915,0.0009500917,0.24593395,0.44477785,-0.0015886388,-0.005888361,-0.89562017,1
321855654,-0.17566925,0.08357389,-0.0005712076,0.969304,-0.0012736941,0.0008587423,0.24586052,0.44477785,-0.0015886388,-0.005888361,-0.89562017,1
321889355,0.1961099,-0.19399257,0.016058039,0.9693151,-0.0007607601,0.00013703847,0.2458203,0.44477785,-0.0015886388,-0.005888361,-0.89562017,1
321921297,-0.32457098,-0.26746,-0.037588947,0.9693254,-0.0012789258,-0.0005122734,0.2457771,0.44477785,-0.0015886388,-0.005888361,-0.89562017,1
321953294,0.15357924,0.29805994,-0.0113288015,0.96935177,-0.0011537924,-8.431836e-05,0.24567467,0.44477785,-0.0015886388,-0.005888361,-0.89562017,1
321985372,0.10051384,-0.09057446,-0.003287489,0.96938026,-0.0011023519,-0.00050113315,0.24556175,0.44477785,-0.0015886388,-0.005888361,-0.89562017,1
322017309,-0.03424034,-0.20076491,-0.0057220845,0.9694036,-0.0009854687,-0.00049892475,0.24547006,0.44477785,-0.0015886388,-0.005888361,-0.89562017,1
322049366,-0.13173574,-0.16649698,-0.00480373,0.9694305,-0.001091738,-0.00023799282,0.24536358,0.44477785,-0.0015886388,-0.005888361,-0.89562017,1
322081298,0.025545735,-0.07787537,-0.025591908,0.9694571,-0.0007887993,0.00038360895,0.24525963,0.44477785,-0.0015886388,-0.005888361,-0.89562017,1
322113360,0.12557004,-0.07771987,-0.038177412,0.9694935,-0.0003535145,0.0006005663,0.24511589,0.44477785,-0.0015886388,-0.005888361,-0.89562017,1
322145302,0.07331351,-0.09006148,-0.033334922,0.96950936,-3.4385197e-05,0.00029664362,0.24505442,0.44477785,-0.0015886388,-0.005888361,-0.89562017,1
322177372,-0.039025936,-0.067945585,-0.007638015,0.9695375,0.00016937323,-0.00034525583,0.24494264,0.44477785,-0.0015886388,-0.005888361,-0.89562017,1
322209287,0.014700829,-0.10434269,0.0061233416,0.9695769,0.00066555064,-0.00074504834,0.24478522,0.44477785,-0.0015886388,-0.005888361,-0.89562017,1
322241420,0.16196871,0.046741918,-0.086692765,0.9696407,0.0011578454,-0.0007874187,0.2445304,0.44477785,-0.0015886388,-0.005888361,-0.89562017,1
322273356,-0.10388655,0.13274375,-0.003787234,0.9696603,0.0015532586,-0.0014688823,0.2444473,0.44477785,-0.0015886388,-0.005888361,-0.89562017,1
322305396,-0.06325496,-0.36439028,-0.03823886,0.9697308,0.0020646502,-0.0024446615,0.24415587,0.44477785,-0.0015886388,-0.005888361,-0.89562017,1
322337325,0.02113416,0.02760383,-0.0036355602,0.9697715,0.0023754009,-0.0024506338,0.24399112,0.44477785,-0.0015886388,-0.005888361,-0.89562017,1
322365283,-0.17566356,-0.25939178,-0.017021745,0.96979934,0.0024806692,-0.0034047884,0.24386822,0.44477785,-0.0015886388,-0.005888361,-0.89562017,1
322397516,0.015360207,0.30387905,-0.029095208,0.96984184,0.0015443646,-0.0021509111,0.24372089,0.44477785,-0.0015886388,-0.005888361,-0.89562017,1
322429391,0.0023348415,0.034348674,-0.045867015,0.96990937,0.00032765616,-0.0015525451,0.24346106,0.44477785,-0.0015886388,-0.005888361,-0.89562017,1
322461305,-0.12169609,-0.015544378,-0.0096115125,0.9699265,0.00027009708,-0.0011976456,0.24339503,0.44477785,-0.0015886388,-0.005888361,-0.89562017,1
322493287,0.036560833,-0.15387535,-0.013936495,0.9699454,0.0009225113,-0.0013391876,0.24331757,0.44477785,-0.0015886388,-0.005888361,-0.89562017,1
322525494,0.099480055,0.19361365,-0.0076287473,0.96997964,0.0008300111,-0.0009652756,0.24318281,0.44477785,-0.0015886388,-0.005888361,-0.89562017,1
322557819,-0.07271586,-0.06334079,-0.007606032,0.97001714,0.00062155776,-0.0012125317,0.2430328,0.44477785,-0.0015886388,-0.005888361,-0.89562017,1
322589443,-0.135244,-0.24826206,-0.009655011,0.9700574,0.0003074351,-0.00082373637,0.2428741,0.44477785,-0.0015886388,-0.005888361,-0.89562017,1
322619061,0.12164058,-0.114624485,-0.032602046,0.9700994,0.0006453684,-0.0013312805,0.24270342,0.44477785,-0.0015886388,-0.005888361,-0.89562017,1
322650933,-0.17995685,-0.114834115,0.0349309,0.97011405,0.00034337956,-0.0004769235,0.24264857,0.44477785,-0.0015886388,-0.005888361,-0.89562017,1
322682991,0.08445962,0.09735721,-0.004125546,0.9701221,0.00092674285,-0.00012945835,0.24261555,0.44477785,-0.0015886388,-0.005888361,-0.89562017,1
322714972,-0.06367407,-0.044296008,0.0023812412,0.9701212,0.00047407925,-0.0002699007,0.24262014,0.44477785,-0.0015886388,-0.005888361,-0.89562017,1
322746885,-0.05043515,-0.20720875,0.024513697,0.9701476,0.00038789437,-0.0006352556,0.24251412,0.44477785,-0.0015886388,-0.005888361,-0.89562017,1
322774938,0.04743352,0.099938035,-0.013187969,0.9701526,0.00074978214,-0.0010223988,0.2424922,0.44477785,-0.0015886388,-0.005888361,-0.89562017,1
322806930,-0.107755505,-0.23321861,0.0036950838,0.9701211,0.000740738,-0.0018509969,0.2426131,0.44477785,-0.0015886388,-0.005888361,-0.89562017,1
322839008,0.055743255,0.20632242,-0.024422752,0.9701093,0.00049201277,-0.0009474097,0.24266641,0.44477785,-0.0015886388,-0.005888361,-0.89562017,1
322871029,-0.007581741,-0.11819486,-0.014856852,0.9700947,0.00013517316,-0.00076310924,0.24272564,0.44477785,-0.0015886388,-0.005888361,-0.89562017,1
322902942,-0.13089001,-0.05629848,0.03389884,0.970102,-0.00015866602,-0.00036356674,0.24269725,0.44477785,-0.0015886388,-0.005888361,-0.89562017,1
322935000,0.16613477,-0.1600249,-0.0006209619,0.9700933,0.0008625521,-0.001162959,0.24272819,0.44477785,-0.0015886388,-0.005888361,-0.89562017,1
322967012,-0.041420415,0.13158461,0.0155798765,0.9700489,0.0009202419,-0.0009410171,0.24290624,0.44477785,-0.0015886388,-0.005888361,-0.89562017,1
322998901,-0.070658594,-0.09400732,0.017629946,0.97004527,0.0006929253,-0.0007827608,0.24292193,0.44477785,-0.0015886388,-0.005888361,-0.89562017,1
323026942,0.0034816635,0.34230056,-0.015100433,0.97003496,0.00035889578,6.772069e-05,0.2429656,0.44477785,-0.0015886388,-0.005888361,-0.89562017,1
323058886,-0.012800333,-0.3168561,-0.036953073,0.9700244,0.0003511832,-0.0005234617,0.24300665,0.44477785,-0.0015886388,-0.005888361,-0.89562017,1
323090964,-0.05104827,-0.034533992,-0.0025362195,0.96998435,0.00036838185,-0.0001935075,0.24316697,0.44477785,-0.0015886388,-0.005888361,-0.89562017,1
323122887,0.029422022,-0.005890201,0.0018064934,0.9699684,0.00059310236,-0.0010570463,0.24322815,0.44477785,-0.0015886388,-0.005888361,-0.89562017,1
323154952,-0.06918577,-0.12378847,0.015539374,0.9699256,0.0007377214,-0.0016730899,0.24339509,0.44477785,-0.0015886388,-0.005888361,-0.89562017,1
323186942,-0.0049613784,-0.08663833,0.015052243,0.96986365,0.001314903,-0.0019021045,0.24363731,0.44477785,-0.0015886388,-0.005888361,-0.89562017,1
323218957,0.087532036,0.26035392,0.0228324,0.9698233,0.0013314108,-0.0012338153,0.24380232,0.44477785,-0.0015886388,-0.005888361,-0.89562017,1
323250919,-0.13486205,-0.07648944,0.015605198,0.9697997,0.00050100836,-0.0011229572,0.24389999,0.44477785,-0.0015886388,-0.005888361,-0.89562017,1
323278972,0.074671246,0.36868626,-0.028980196,0.9697941,-0.00011964673,0.00043030796,0.24392493,0.44477785,-0.0015886388,-0.005888361,-0.89562017,1
323310925,0.03620702,-0.10298345,-0.02532588,0.9698043,-0.00060790085,0.0006705501,0.24388288,0.44477785,-0.0015886388,-0.005888361,-0.89562017,1
323343826,-0.16268255,-0.18688458,0.012217133,0.9697998,-0.00046228297,0.0010331426,0.2438995,0.44477785,-0.0015886388,-0.005888361,-0.89562017,1
323376648,0.08116995,-0.09133053,0.03925194,0.9697867,0.00034047972,0.0002280607,0.24395426,0.44477785,-0.0015886388,-0.005888361,-0.89562017,1
323408494,0.0659124,-0.0116463415,0.0008090626,0.9698035,0.0005314872,-0.0004814404,0.24388635,0.44477785,-0.0015886388,-0.005888361,-0.89562017,1
323436533,-0.13179992,-0.38944113,0.01920188,0.9697673,0.00037720075,-0.0014813228,0.2440271,0.44477785,-0.0015886388,-0.005888361,-0.89562017,1
323468444,0.03644611,0.12891257,-0.009872062,0.96975625,3.866795e-05,-0.0004573331,0.24407522,0.44477785,-0.0015886388,-0.005888361,-0.89562017,1
323500660,0.04029685,0.06634566,0.039247997,0.96973765,0.00034904803,-0.0010319476,0.24414673,0.44477785,-0.0015886388,-0.005888361,-0.89562017,1
323532607,-0.036544397,-0.25501713,0.00029327278,0.9697238,0.0006387193,-0.0016114338,0.24419788,0.44477785,-0.0015886388,-0.005888361,-0.89562017,1
323564546,-0.017915312,0.073728286,0.0044424995,0.96971905,0.00012561641,-0.0011418797,0.24422044,0.44477785,-0.0015886388,-0.005888361,-0.89562017,1
323596505,0.11485278,-0.034933075,-0.04677607,0.96973294,6.560038e-05,-0.0010431493,0.24416609,0.44477785,-0.0015886388,-0.005888361,-0.89562017,1
323628559,-0.0012064902,0.32602513,-0.011721717,0.9697272,0.00025327518,-0.0010936597,0.24418835,0.44477785,-0.0015886388,-0.005888361,-0.89562017,1
323660497,-0.08471268,-0.21374762,0.007961443,0.9697269,0.0004713258,-0.0015185216,0.24418674,0.44477785,-0.0015886388,-0.005888361,-0.89562017,1
323688532,0.08661141,0.07412481,-0.03479783,0.96972615,0.00056422426,-0.0011029354,0.24419214,0.44477785,-0.0015886388,-0.005888361,-0.89562017,1
323720509,0.015179913,-0.057033118,0.03705279,0.9696919,0.0005655297,-0.0018584445,0.24432378,0.44477785,-0.0015886388,-0.005888361,-0.89562017,1
323752526,0.057825062,0.17427087,-0.016697787,0.9696691,0.00027080232,-0.001364181,0.24441753,0.44477785,-0.0015886388,-0.005888361,-0.89562017,1
323784492,-0.07226089,0.09865303,0.007455357,0.9696273,-0.00011623017,-0.0013044454,0.24458393,0.44477785,-0.0015886388,-0.005888361,-0.89562017,1
323816550,0.018582817,-0.040939506,-0.01613109,0.969638,-5.5178865e-05,-0.0013610034,0.24454106,0.44477785,-0.0015886388,-0.005888361,-0.89562017,1
323848536,-0.041125096,-0.097159654,0.014232048,0.96962976,9.5317206e-05,-0.0013054571,0.24457414,0.44477785,-0.0015886388,-0.005888361,-0.89562017,1
323880510,-0.037168954,-0.1268736,-0.0045783827,0.9696286,-0.00017974288,-0.0013763566,0.2445782,0.44477785,-0.0015886388,-0.005888361,-0.89562017,1
323912456,-0.07855368,-0.03530414,-0.00029943977,0.96962583,-0.00041105508,-0.0015630063,0.24458794,0.44477785,-0.0015886388,-0.005888361,-0.89562017,1
323944578,-0.15643929,0.04600726,-0.0014916437,0.9696366,-0.0005712309,-0.0016896575,0.24454398,0.44477785,-0.0015886388,-0.005888361,-0.89562017,1
323976496,-0.10992431,0.0075600743,0.0014626929,0.9696503,-0.00035688083,-0.0016968263,0.24448973,0.44477785,-0.0015886388,-0.005888361,-0.89562017,1
324008566,-0.07941708,-0.08081394,0.0067217206,0.9696669,-0.0003393596,-0.0012625158,0.24442664,0.44477785,-0.0015886388,-0.005888361,-0.89562017,1
324040482,-0.040852927,-0.07435958,-0.010276502,0.96967757,-0.0007306244,-0.0006170476,0.24438626,0.44477785,-0.0015886388,-0.005888361,-0.89562017,1
324072510,0.04551005,-0.07627147,-0.031140901,0.969689,-0.00084584265,-0.00045918426,0.24434038,0.44477785,-0.0015886388,-0.005888361,-0.89562017,1
324102238,-0.18927331,-0.15951172,-0.00712061,0.9696921,-0.001005672,-0.0007540184,0.24432708,0.44477785,-0.0015886388,-0.005888361,-0.89562017,1
324134100,-0.045506693,-0.022011325,-0.0488026,0.9697118,-0.0008502816,-0.00040971418,0.2442504,0.44477785,-0.0015886388,-0.005888361,-0.89562017,1
