timestamp,x,y,z,yaw,yawspeed,vx,vy,vz,acc_x,acc_y,acc_z,jerk_x,jerk_y,jerk_z,thrust[0],thrust[1],thrust[2]
52241013,nan,nan,0.21383375,0.46773934,0.0,nan,nan,-0.0,nan,nan,nan,nan,nan,nan,0.0,0.0,nan
52261182,nan,nan,0.213677,0.46764535,0.0,nan,nan,-0.0,nan,nan,nan,nan,nan,nan,0.0,0.0,nan
52461379,nan,nan,0.21561591,0.46686962,0.0,nan,nan,-0.0,nan,nan,nan,nan,nan,nan,0.0,0.0,nan
52661526,nan,nan,0.21614781,0.4658762,0.0,nan,nan,-0.0,nan,nan,nan,nan,nan,nan,0.0,0.0,nan
52861632,nan,nan,0.20577984,0.46479532,0.0,nan,nan,-0.0,nan,nan,nan,nan,nan,nan,0.0,0.0,nan
53061850,nan,nan,0.19762146,0.46359906,0.0,nan,nan,-0.0,nan,nan,nan,nan,nan,nan,0.0,0.0,nan
53262882,nan,nan,0.19190593,0.46258426,0.0,nan,nan,-0.0,nan,nan,nan,nan,nan,nan,0.0,0.0,nan
53462347,nan,nan,0.188604,0.46170378,0.0,nan,nan,-0.0,nan,nan,nan,nan,nan,nan,0.0,0.0,nan
53662427,nan,nan,0.18689139,0.46089262,0.0,nan,nan,-0.0,nan,nan,nan,nan,nan,nan,0.0,0.0,nan
53862652,nan,nan,0.18939878,0.4600956,0.0,nan,nan,-0.0,nan,nan,nan,nan,nan,nan,0.0,0.0,nan
54083202,nan,nan,0.19560096,0.45919403,0.0,nan,nan,-0.0,nan,nan,nan,nan,nan,nan,0.0,0.0,nan
54283139,nan,nan,0.20544337,0.45815557,0.0,nan,nan,-0.0,nan,nan,nan,nan,nan,nan,0.0,0.0,nan
54483294,nan,nan,0.21428095,0.45687327,0.0,nan,nan,-0.0,nan,nan,nan,nan,nan,nan,0.0,0.0,nan
54683478,nan,nan,0.22698383,0.45595542,0.0,nan,nan,-0.0,nan,nan,nan,nan,nan,nan,0.0,0.0,nan
54883913,nan,nan,0.23494856,0.45512256,0.0,nan,nan,-0.0,nan,nan,nan,nan,nan,nan,0.0,0.0,nan
55084033,nan,nan,0.24280183,0.4542582,0.0,nan,nan,-0.0,nan,nan,nan,nan,nan,nan,0.0,0.0,nan
55284159,nan,nan,0.24494778,0.45350254,0.0,nan,nan,-0.0,nan,nan,nan,nan,nan,nan,0.0,0.0,nan
55484970,nan,nan,0.24828102,0.45275837,0.0,nan,nan,-0.0,nan,nan,nan,nan,nan,nan,0.0,0.0,nan
55684605,nan,nan,0.25396106,0.45192352,0.0,nan,nan,-0.0,nan,nan,nan,nan,nan,nan,0.0,0.0,nan
55905538,nan,nan,0.25670686,0.45126528,0.0,nan,nan,-0.0,nan,nan,nan,nan,nan,nan,0.0,0.0,nan
56105207,nan,nan,0.2563073,0.45038196,-0.0,nan,nan,-0.0,nan,nan,nan,nan,nan,nan,0.0,0.0,nan
56305164,nan,nan,nan,0.44938055,-0.0,nan,nan,-0.19260018,nan,nan,nan,nan,nan,nan,0.0,0.0,nan
56505412,nan,nan,nan,0.44857967,-0.0,nan,nan,-0.3805006,nan,nan,nan,nan,nan,nan,0.0,0.0,nan
56705526,nan,nan,0.23330298,0.44774017,0.0,nan,nan,-0.0,nan,nan,nan,nan,nan,nan,0.0,0.0,nan
56905660,nan,nan,0.21901824,0.4469511,-0.0,nan,nan,-0.0,nan,nan,nan,nan,nan,nan,0.0,0.0,nan
57105970,nan,nan,nan,nan,2.0916104,nan,nan,0.7,nan,nan,nan,nan,nan,nan,0.0,0.0,nan
57306208,nan,nan,nan,nan,3.4906585,nan,nan,0.7,nan,nan,nan,nan,nan,nan,0.0,0.0,nan
57506335,nan,nan,nan,nan,3.4888384,nan,nan,0.7,nan,nan,nan,nan,nan,nan,0.0,0.0,nan
57706515,nan,nan,nan,nan,3.4906585,nan,nan,0.7,nan,nan,nan,nan,nan,nan,0.0,0.0,nan
57906730,nan,nan,nan,nan,3.4906583,nan,nan,0.7,nan,nan,nan,nan,nan,nan,0.0,0.0,nan
58106981,nan,nan,nan,nan,3.4906585,nan,nan,0.7,nan,nan,nan,nan,nan,nan,0.0,0.0,nan
58327180,nan,nan,nan,nan,3.4906585,nan,nan,0.7,nan,nan,nan,nan,nan,nan,0.0,0.0,nan
58527293,nan,nan,nan,nan,3.4906585,nan,nan,0.7,nan,nan,nan,nan,nan,nan,0.0,0.0,nan
58727561,nan,nan,nan,nan,3.4871228,nan,nan,0.7,nan,nan,nan,nan,nan,nan,0.0,0.0,nan
58928029,nan,nan,nan,nan,3.49065,nan,nan,0.7,nan,nan,nan,nan,nan,nan,0.0,0.0,nan
59128139,nan,nan,nan,nan,3.4906585,nan,nan,0.7,nan,nan,nan,nan,nan,nan,0.0,0.0,nan
59328135,nan,nan,nan,nan,3.4906585,nan,nan,0.7,nan,nan,nan,nan,nan,nan,0.0,0.0,nan
59529391,nan,nan,nan,nan,3.4871988,nan,nan,0.7,nan,nan,nan,nan,nan,nan,0.0,0.0,nan
59729570,nan,nan,nan,nan,3.4888694,nan,nan,0.7,nan,nan,nan,nan,nan,nan,0.0,0.0,nan
59929387,nan,nan,nan,nan,3.4903398,nan,nan,0.7,nan,nan,nan,nan,nan,nan,0.0,0.0,nan
60148893,nan,nan,nan,nan,3.4906585,nan,nan,0.7,nan,nan,nan,nan,nan,nan,0.0,0.0,nan
60349144,nan,nan,nan,nan,3.4906585,nan,nan,0.7,nan,nan,nan,nan,nan,nan,0.0,0.0,nan
60549413,nan,nan,nan,nan,3.4837089,nan,nan,0.7,nan,nan,nan,nan,nan,nan,0.0,0.0,nan
60749551,nan,nan,nan,nan,3.4906585,nan,nan,0.7,nan,nan,nan,nan,nan,nan,0.0,0.0,nan
60949708,nan,nan,nan,nan,3.490583,nan,nan,0.7,nan,nan,nan,nan,nan,nan,0.0,0.0,nan
61149992,nan,nan,nan,nan,3.4906585,nan,nan,0.7,nan,nan,nan,nan,nan,nan,0.0,0.0,nan
61350248,nan,nan,nan,nan,3.4885895,nan,nan,0.7,nan,nan,nan,nan,nan,nan,0.0,0.0,nan
61570398,nan,nan,nan,nan,3.4906585,nan,nan,0.7,nan,nan,nan,nan,nan,nan,0.0,0.0,nan
61770524,nan,nan,nan,nan,3.4906018,nan,nan,0.7,nan,nan,nan,nan,nan,nan,0.0,0.0,nan
61970879,nan,nan,nan,nan,3.4906585,nan,nan,0.7,nan,nan,nan,nan,nan,nan,0.0,0.0,nan
62171037,nan,nan,nan,0.43375483,-0.0,nan,nan,0.1243186,nan,nan,nan,nan,nan,nan,0.0,0.0,nan
62371148,nan,nan,0.21266192,0.4331219,-0.0,nan,nan,-0.0,nan,nan,nan,nan,nan,nan,0.0,0.0,nan
62571368,nan,nan,0.21683873,0.43260723,0.0,nan,nan,-0.0,nan,nan,nan,nan,nan,nan,0.0,0.0,nan
62771958,nan,nan,0.22854553,0.43210727,-0.0,nan,nan,-0.0,nan,nan,nan,nan,nan,nan,0.0,0.0,nan
62972031,nan,nan,0.23830377,0.43154988,0.0,nan,nan,-0.0,nan,nan,nan,nan,nan,nan,0.0,0.0,nan
63172175,nan,nan,0.24324574,0.43115497,0.0,nan,nan,-0.0,nan,nan,nan,nan,nan,nan,0.0,0.0,nan
63372228,nan,nan,0.23833007,0.43064022,-0.0,nan,nan,-0.0,nan,nan,nan,nan,nan,nan,0.0,0.0,nan
63593472,nan,nan,0.23226975,0.4301067,-0.0,nan,nan,-0.0,nan,nan,nan,nan,nan,nan,0.0,0.0,nan
63793014,nan,nan,0.23047511,0.42988884,0.0,nan,nan,-0.0,nan,nan,nan,nan,nan,nan,0.0,0.0,nan
63993416,nan,nan,0.22839701,0.42955375,-0.0,nan,nan,-0.0,nan,nan,nan,nan,nan,nan,0.0,0.0,nan
64193134,nan,nan,0.22911854,0.4293601,-0.0,nan,nan,-0.0,nan,nan,nan,nan,nan,nan,0.0,0.0,nan
64393205,nan,nan,0.22664113,0.42927873,0.0,nan,nan,-0.0,nan,nan,nan,nan,nan,nan,0.0,0.0,nan
64593496,nan,nan,0.22735775,0.42905214,0.0,nan,nan,-0.0,nan,nan,nan,nan,nan,nan,0.0,0.0,nan
64793560,nan,nan,0.22950274,0.42893088,-0.0,nan,nan,-0.0,nan,nan,nan,nan,nan,nan,0.013921325,-0.10153457,nan
65013768,nan,nan,0.22605154,0.42881143,0.0,nan,nan,-0.0,nan,nan,nan,nan,nan,nan,-0.0010680441,0.0020347417,nan
65214124,nan,nan,0.22153099,0.4288626,0.0,nan,nan,-0.0,nan,nan,nan,nan,nan,nan,6.3702623e-07,-1.2247938e-06,nan
65414327,nan,nan,0.22166233,0.42878413,0.0,nan,nan,-0.0,nan,nan,nan,nan,nan,nan,-1.03696045e-10,2.0746135e-10,nan
65614406,nan,nan,0.21557754,0.4285003,0.0,nan,nan,-0.0,nan,nan,nan,nan,nan,nan,-1.7902388e-13,3.3748205e-13,nan
65814626,nan,nan,0.21150042,0.42829663,0.0,nan,nan,-0.0,nan,nan,nan,nan,nan,nan,-0.012636192,-0.34190953,nan
66014807,nan,nan,0.21056542,0.42806715,0.0,nan,nan,-0.0,nan,nan,nan,nan,nan,nan,-0.0050849766,-0.29068056,nan
66215094,nan,nan,0.21021359,0.42780706,0.0,nan,nan,-0.0,nan,nan,nan,nan,nan,nan,-4.9045215e-05,-0.00013949024,nan
66415204,nan,nan,nan,0.42756337,-0.0,nan,nan,0.04905412,nan,nan,nan,nan,nan,nan,3.196022e-08,-1.3485976e-07,nan
66615369,nan,nan,nan,nan,1.7033714,nan,nan,0.7,nan,nan,nan,nan,nan,nan,-0.15286458,-0.52692306,nan
66835923,nan,nan,nan,nan,3.330137,nan,nan,0.7,nan,nan,nan,nan,nan,nan,-0.3509736,-0.93638533,nan
67036047,nan,nan,nan,nan,3.4906585,nan,nan,0.7,nan,nan,nan,nan,nan,nan,-0.3506752,-0.93649715,nan
67236029,nan,nan,nan,nan,3.4857216,nan,nan,0.7,nan,nan,nan,nan,nan,nan,-0.351053,-0.93635553,nan
67436208,nan,nan,nan,nan,3.4906585,nan,nan,0.7,nan,nan,nan,nan,nan,nan,-0.35078213,-0.9364571,nan
67637497,nan,nan,nan,nan,3.4906585,nan,nan,0.7,nan,nan,nan,nan,nan,nan,-0.3511689,-0.9363121,nan
67837342,nan,nan,nan,nan,3.4906585,nan,nan,0.7,nan,nan,nan,nan,nan,nan,-0.3514546,-0.9362049,nan
68037172,nan,nan,nan,nan,3.4906585,nan,nan,0.7,nan,nan,nan,nan,nan,nan,-0.35192817,-0.936027,nan
68857664,nan,nan,nan,nan,3.4906433,nan,nan,0.7,nan,nan,nan,nan,nan,nan,-4.1741637e-06,-1.9091984e-05,nan
69057803,nan,nan,nan,nan,3.4903357,nan,nan,0.7,nan,nan,nan,nan,nan,nan,-1.0318254e-08,1.164775e-08,nan
69258143,nan,nan,nan,nan,3.4906483,nan,nan,0.7,nan,nan,nan,nan,nan,nan,1.0770719e-11,-2.0857912e-12,nan
69458380,nan,nan,nan,nan,0.9187533,nan,nan,0.49973997,nan,nan,nan,nan,nan,nan,-5.033327e-15,-3.1097207e-15,nan
69658470,nan,nan,0.14475146,0.423132,0.0,nan,nan,-0.0,nan,nan,nan,nan,nan,nan,-1.6571977e-19,3.5981252e-18,nan
69858614,nan,nan,0.1439799,0.42291632,-0.0,nan,nan,-0.0,nan,nan,nan,nan,nan,nan,2.2751235e-21,-1.824423e-21,nan
70078897,nan,nan,nan,0.42267132,-0.0,nan,nan,-0.87861776,nan,nan,nan,nan,nan,nan,-2.4790018e-25,-6.0554053e-25,nan
70279113,nan,nan,0.1484579,0.42267132,-0.0,nan,nan,-0.0,nan,nan,nan,nan,nan,nan,-2.8705302e-28,4.14776e-28,nan
70479281,nan,nan,0.1484579,0.42267132,0.0,nan,nan,-0.0,nan,nan,nan,nan,nan,nan,3.5539976e-31,-1.0560015e-31,nan
70679535,nan,nan,nan,0.42267132,-0.0,nan,nan,0.7,nan,nan,nan,nan,nan,nan,-1.8860078e-34,-8.342485e-35,nan
70880027,nan,nan,nan,0.42267132,0.0,nan,nan,0.7,nan,nan,nan,nan,nan,nan,1.4130247e-38,1.174909e-37,nan
71080090,nan,nan,nan,0.42267132,0.0,nan,nan,0.7,nan,nan,nan,nan,nan,nan,6.7502e-41,-6.7205e-41,nan
71280140,nan,nan,nan,0.42267132,-0.0,nan,nan,0.56334895,nan,nan,nan,nan,nan,nan,-6.4e-44,8e-45,nan
71480597,nan,nan,0.12617573,0.42267132,0.0,nan,nan,-0.0,nan,nan,nan,nan,nan,nan,0.0,0.0,nan
71680572,nan,nan,0.12617573,0.42267132,-0.0,nan,nan,-0.0,nan,nan,nan,nan,nan,nan,0.0,0.0,nan
71901481,nan,nan,-0.0014025293,0.42267132,-0.0,nan,nan,-0.0,nan,nan,nan,nan,nan,nan,0.0,0.0,nan
72101530,nan,nan,-0.0014025293,0.42267132,0.0,nan,nan,0.0,nan,nan,nan,nan,nan,nan,0.0,0.0,nan
72301348,nan,nan,-0.0014025293,0.42267132,0.0,nan,nan,-0.0,nan,nan,nan,nan,nan,nan,0.0,0.0,nan
72501458,nan,nan,nan,0.42267132,0.0,nan,nan,0.0634999,nan,nan,nan,nan,nan,nan,0.0,0.0,nan
72701549,nan,nan,nan,0.42267132,0.0,nan,nan,0.4416531,nan,nan,nan,nan,nan,nan,0.0,0.0,nan
72901651,nan,nan,nan,0.42267132,0.0,nan,nan,0.5039323,nan,nan,nan,nan,nan,nan,0.0,0.0,nan
73101938,nan,nan,nan,0.42267132,0.0,nan,nan,0.32810923,nan,nan,nan,nan,nan,nan,0.0,0.0,nan
73322448,nan,nan,nan,0.42267132,0.0,nan,nan,0.0073676226,nan,nan,nan,nan,nan,nan,0.0,0.0,nan
73522326,nan,nan,-0.3637333,0.42267132,0.0,nan,nan,-0.0,nan,nan,nan,nan,nan,nan,0.0,0.0,nan
73722459,nan,nan,-0.3637333,0.42267132,0.0,nan,nan,-0.0,nan,nan,nan,nan,nan,nan,0.0,0.0,nan
73922776,nan,nan,-0.3637333,0.42267132,0.0,nan,nan,-0.0,nan,nan,nan,nan,nan,nan,0.0,0.0,nan
74123620,nan,nan,-0.3637333,0.42267132,0.0,nan,nan,-0.0,nan,nan,nan,nan,nan,nan,0.0,0.0,nan
74323152,nan,nan,-0.3637333,0.42267132,0.0,nan,nan,-0.0,nan,nan,nan,nan,nan,nan,-0.00064519414,0.0014344646,nan
74523362,nan,nan,-0.3637333,0.42267132,0.0,nan,nan,-0.0,nan,nan,nan,nan,nan,nan,0.00011743648,-0.00026109736,nan
74743846,nan,nan,-0.3637333,0.42267132,0.0,nan,nan,-0.0,nan,nan,nan,nan,nan,nan,-5.6354335e-08,1.2529298e-07,nan
74944018,nan,nan,-0.3637333,0.42267132,0.0,nan,nan,-0.0,nan,nan,nan,nan,nan,nan,-4.8316923e-12,1.0742335e-11,nan
75143947,nan,nan,-0.3637333,0.42267132,0.0,nan,nan,0.0,nan,nan,nan,nan,nan,nan,2.8069566e-14,-6.240726e-14,nan
75344090,nan,nan,-0.3637333,0.42267132,0.0,nan,nan,0.0,nan,nan,nan,nan,nan,nan,-2.2446989e-17,4.9906546e-17,nan
75544369,nan,nan,-0.3637333,0.42267132,0.0,nan,nan,0.0,nan,nan,nan,nan,nan,nan,7.704864e-21,-1.7130279e-20,nan
75744690,nan,nan,nan,0.42267132,0.0,nan,nan,-0.014375126,nan,nan,nan,nan,nan,nan,2.7784722e-24,-6.1773966e-24,nan
75944761,nan,nan,nan,0.42267132,0.0,nan,nan,-0.10890691,nan,nan,nan,nan,nan,nan,-5.6856753e-27,1.2641002e-26,nan
76144882,nan,nan,nan,0.42267132,0.0,nan,nan,-0.07637866,nan,nan,nan,nan,nan,nan,3.7849722e-30,-8.415155e-30,nan
76345204,nan,nan,-0.43365672,0.42267132,0.0,nan,nan,0.0,nan,nan,nan,nan,nan,nan,-8.959503e-34,1.9919725e-33,nan
76545408,nan,nan,-0.43365672,0.42267132,0.0,nan,nan,0.0,nan,nan,nan,nan,nan,nan,-8.203407e-37,1.8238691e-36,nan
76745565,nan,nan,-0.43365672,0.42267132,0.0,nan,nan,0.0,nan,nan,nan,nan,nan,nan,1.095028e-39,-2.434582e-39,nan
76965737,nan,nan,-0.43365672,0.42267132,0.0,nan,nan,0.0,nan,nan,nan,nan,nan,nan,0.006494071,0.002920906,nan
77165991,nan,nan,-0.43365672,0.42267132,0.0,nan,nan,0.0,nan,nan,nan,nan,nan,nan,0.09514789,0.042795658,nan
77366193,nan,nan,-0.43365672,0.42267132,0.0,nan,nan,0.0,nan,nan,nan,nan,nan,nan,0.121281296,0.054549955,nan
77566377,nan,nan,-0.43365672,0.42267132,0.0,nan,nan,0.0,nan,nan,nan,nan,nan,nan,0.0058173086,0.0026165117,nan
77766496,nan,nan,-0.43365672,0.42267132,0.0,nan,nan,0.0,nan,nan,nan,nan,nan,nan,4.284238e-06,1.9269664e-06,nan
77966786,nan,nan,-0.43365672,0.42267132,0.0,nan,nan,0.0,nan,nan,nan,nan,nan,nan,0.058651082,-0.13039938,nan
78167277,nan,nan,-0.43365672,0.42267132,0.0,nan,nan,0.0,nan,nan,nan,nan,nan,nan,0.09803048,-0.21795185,nan
78367201,nan,nan,-0.43365672,0.42267132,0.0,nan,nan,0.0,nan,nan,nan,nan,nan,nan,-0.004842155,0.010765598,nan
78567400,nan,nan,-0.43365672,0.42267132,0.0,nan,nan,0.0,nan,nan,nan,nan,nan,nan,4.6760706e-06,-1.0396341e-05,nan
78767552,nan,nan,-0.43365672,0.42267132,0.0,nan,nan,0.0,nan,nan,nan,nan,nan,nan,0.06111331,0.02748757,nan
78967890,nan,nan,-0.43365672,0.42267132,0.0,nan,nan,0.0,nan,nan,nan,nan,nan,nan,0.09837842,0.04424869,nan
79167931,nan,nan,-0.43365672,0.42267132,0.0,nan,nan,0.0,nan,nan,nan,nan,nan,nan,0.122236684,0.05497967,nan
79368162,nan,nan,-0.43365672,0.42267132,0.0,nan,nan,0.0,nan,nan,nan,nan,nan,nan,-0.0018789066,-0.00084509543,nan
79568552,nan,nan,-0.43365672,0.42267132,0.0,nan,nan,0.0,nan,nan,nan,nan,nan,nan,0.09621835,-0.29517263,nan
79768710,nan,nan,-0.43365672,0.42267132,0.0,nan,nan,0.0,nan,nan,nan,nan,nan,nan,0.09050851,-0.35092983,nan
79988786,nan,nan,-0.43365672,0.42267132,0.0,nan,nan,0.0,nan,nan,nan,nan,nan,nan,0.12770844,-0.292012,nan
80188942,nan,nan,-0.43365672,0.42267132,0.0,nan,nan,0.0,nan,nan,nan,nan,nan,nan,0.13383642,-0.29755443,nan
80389183,nan,nan,-0.43365672,0.42267132,0.0,nan,nan,0.0,nan,nan,nan,nan,nan,nan,0.118363746,-0.26315895,nan
80589420,nan,nan,-0.43365672,0.42267132,0.0,nan,nan,0.0,nan,nan,nan,nan,nan,nan,0.05355468,-0.119068496,nan
81190007,nan,nan,-0.43365672,0.42267132,0.0,nan,nan,0.0,nan,nan,nan,nan,nan,nan,-7.546977e-12,1.6779246e-11,nan
81390267,nan,nan,-0.43365672,0.42267132,0.0,nan,nan,0.0,nan,nan,nan,nan,nan,nan,1.763255e-14,-3.920257e-14,nan
81590340,nan,nan,-0.43365672,0.42267132,0.0,nan,nan,-0.0,nan,nan,nan,nan,nan,nan,1.5335637e-18,-3.409583e-18,nan
81790501,nan,nan,-0.43365672,0.42267132,0.0,nan,nan,-0.0,nan,nan,nan,nan,nan,nan,-8.8016185e-21,1.95687e-20,nan
81990815,nan,nan,-0.43365672,0.42267132,-0.0,nan,nan,-0.0,nan,nan,nan,nan,nan,nan,7.0307386e-24,-1.5631492e-23,nan
82211332,nan,nan,-0.43365672,0.42267132,0.0,nan,nan,-0.0,nan,nan,nan,nan,nan,nan,8.998606e-28,-2.0006664e-27,nan
82411309,nan,nan,-0.43365672,nan,-1.2261076,nan,nan,-0.0,nan,nan,nan,nan,nan,nan,-3.0582312e-31,7.1726154e-31,nan
82611405,nan,nan,-0.43365672,nan,-1.1007916,nan,nan,-0.0,nan,nan,nan,nan,nan,nan,-5.5136844e-35,2.419952e-34,nan
82812561,nan,nan,-0.43365672,nan,-0.1830961,nan,nan,-0.0,nan,nan,nan,nan,nan,nan,3.261112e-38,-5.456387e-37,nan
83012799,nan,nan,-0.43365672,0.033089574,0.0,nan,nan,-0.0,nan,nan,nan,nan,nan,nan,-1.2303e-41,3.71686e-40,nan
83212224,nan,nan,-0.43365672,nan,-0.9643702,nan,nan,0.0,nan,nan,nan,nan,nan,nan,-4e-45,-9.4e-44,nan
84433351,nan,nan,-0.43365672,nan,-0.0821011,nan,nan,-0.0,nan,nan,nan,nan,nan,nan,0.0,0.0,nan
84633427,nan,nan,-0.43365672,nan,-0.5245453,nan,nan,-0.0,nan,nan,nan,nan,nan,nan,0.0,0.0,nan
84833579,nan,nan,-0.43365672,nan,-0.78525466,nan,nan,-0.0,nan,nan,nan,nan,nan,nan,0.0,0.0,nan
85053777,nan,nan,-0.43365672,nan,-0.29269993,nan,nan,-0.0,nan,nan,nan,nan,nan,nan,0.0,0.0,nan
85254104,nan,nan,-0.43365672,-0.92441565,-0.0,nan,nan,-0.0,nan,nan,nan,nan,nan,nan,0.0,0.0,nan
85454300,nan,nan,-0.43365672,-0.92441565,0.0,nan,nan,-0.0,nan,nan,nan,nan,nan,nan,0.0,0.0,nan
85654415,nan,nan,-0.43365672,-0.92441565,-0.0,nan,nan,-0.0,nan,nan,nan,nan,nan,nan,0.0,0.0,nan
85854582,nan,nan,-0.43365672,-0.92441565,-0.0,nan,nan,-0.0,nan,nan,nan,nan,nan,nan,0.34006357,0.22852992,nan
86055157,nan,nan,-0.43365672,-0.92441565,0.0,nan,nan,-0.0,nan,nan,nan,nan,nan,nan,0.36609128,0.27619448,nan
86255242,nan,nan,-0.43365672,-0.92441565,-0.0,nan,nan,-0.0,nan,nan,nan,nan,nan,nan,0.2799732,0.21124235,nan
86475345,nan,nan,-0.43365672,-0.92441565,-0.0,nan,nan,-0.0,nan,nan,nan,nan,nan,nan,7.54135e-05,5.6900182e-05,nan
86675415,nan,nan,-0.43365672,-0.92441565,0.0,nan,nan,-0.0,nan,nan,nan,nan,nan,nan,1.902307e-07,1.435308e-07,nan
86876125,nan,nan,-0.43365672,-0.92441565,0.0,nan,nan,-0.0,nan,nan,nan,nan,nan,nan,-1.979071e-10,-1.4932271e-10,nan
87076690,nan,nan,-0.43365672,-0.92441565,-0.0,nan,nan,-0.0,nan,nan,nan,nan,nan,nan,9.216327e-14,6.9538024e-14,nan
87276595,nan,nan,-0.43365672,-0.92441565,0.0,nan,nan,0.0,nan,nan,nan,nan,nan,nan,3.3529224e-18,2.5298097e-18,nan
87476808,nan,nan,nan,-0.92441565,-0.0,nan,nan,-0.06984758,nan,nan,nan,nan,nan,nan,-4.1936474e-20,-3.1641452e-20,nan
87676699,nan,nan,nan,-0.92441565,-0.0,nan,nan,-0.21338113,nan,nan,nan,nan,nan,nan,3.517251e-23,2.6537978e-23,nan
87896730,nan,nan,nan,-0.92441565,0.0,nan,nan,-0.43822223,nan,nan,nan,nan,nan,nan,4.4957087e-27,3.392053e-27,nan
88096856,nan,nan,nan,-0.92441565,0.0,nan,nan,-0.4586487,nan,nan,nan,nan,nan,nan,-1.7104182e-30,-1.2905262e-30,nan
88297041,nan,nan,nan,-0.92441565,0.0,nan,nan,-0.06375797,nan,nan,nan,nan,nan,nan,-4.105158e-34,-3.097379e-34,nan
88497374,nan,nan,-0.55860466,-0.92441565,0.0,nan,nan,-0.0,nan,nan,nan,nan,nan,nan,-2.4831074e-37,-1.8735275e-37,nan
88697507,nan,nan,-0.55860466,-0.92441565,0.0,nan,nan,-0.0,nan,nan,nan,nan,nan,nan,-1.245711e-39,-9.399e-40,nan
88897621,nan,nan,-0.55860466,-0.92441565,0.0,nan,nan,0.0,nan,nan,nan,nan,nan,nan,1.193e-42,9e-43,nan
89097835,nan,nan,nan,-0.92441565,0.0,nan,nan,-0.06934214,nan,nan,nan,nan,nan,nan,0.0,0.0,nan
89318186,nan,nan,nan,-0.92441565,0.0,nan,nan,-0.31895208,nan,nan,nan,nan,nan,nan,0.0,0.0,nan
89518408,nan,nan,nan,-0.92441565,0.0,nan,nan,-0.37775564,nan,nan,nan,nan,nan,nan,0.0014102419,0.0010640405,nan
89718484,nan,nan,nan,-0.92441565,0.0,nan,nan,-0.39276847,nan,nan,nan,nan,nan,nan,0.29191884,0.22025545,nan
89918643,nan,nan,nan,-0.92441565,0.0,nan,nan,-0.3576768,nan,nan,nan,nan,nan,nan,0.3824971,0.28859755,nan
90119299,nan,nan,nan,-0.92441565,0.0,nan,nan,-0.35864955,nan,nan,nan,nan,nan,nan,0.42220834,0.31856006,nan
90319330,nan,nan,nan,-0.92441565,0.0,nan,nan,-0.3814889,nan,nan,nan,nan,nan,nan,0.02941985,0.022197546,nan
90519355,nan,nan,nan,-0.92441565,0.0,nan,nan,-0.40673026,nan,nan,nan,nan,nan,nan,2.4767163e-05,1.8687051e-05,nan
90740191,nan,nan,nan,-0.92441565,0.0,nan,nan,-0.41793913,nan,nan,nan,nan,nan,nan,-0.19854717,-0.14980565,nan
90940850,nan,nan,nan,-0.92441565,0.0,nan,nan,-0.39852864,nan,nan,nan,nan,nan,nan,-0.119328104,-0.090028055,nan
91140450,nan,nan,nan,-0.92441565,0.0,nan,nan,-0.35632977,nan,nan,nan,nan,nan,nan,7.623474e-05,5.7522095e-05,nan
91340532,nan,nan,nan,-0.92441565,0.0,nan,nan,-0.16157198,nan,nan,nan,nan,nan,nan,-4.4113378e-08,-3.3285392e-08,nan
91540375,nan,nan,-1.172458,-0.92441565,0.0,nan,nan,0.0,nan,nan,nan,nan,nan,nan,6.2225416e-12,4.6952576e-12,nan
91740603,nan,nan,-1.172458,-0.92441565,0.0,nan,nan,0.0,nan,nan,nan,nan,nan,nan,9.454379e-15,7.133715e-15,nan
91940738,nan,nan,-1.172458,-0.92441565,0.0,nan,nan,0.0,nan,nan,nan,nan,nan,nan,-3.1088473e-18,-2.3457666e-18,nan
92140913,nan,nan,-1.172458,-0.92441565,0.0,nan,nan,-0.0,nan,nan,nan,nan,nan,nan,0.0636663,-0.08438108,nan
92361169,nan,nan,-1.172458,-0.92441565,0.0,nan,nan,-0.0,nan,nan,nan,nan,nan,nan,0.15474144,-0.20508888,nan
92561498,nan,nan,-1.172458,-0.92441565,0.0,nan,nan,-0.0,nan,nan,nan,nan,nan,nan,0.13356334,-0.17702018,nan
92761546,nan,nan,-1.172458,-0.92441565,0.0,nan,nan,0.0,nan,nan,nan,nan,nan,nan,8.012091e-05,-0.00010618945,nan
92961701,nan,nan,-1.172458,-0.92441565,0.0,nan,nan,0.0,nan,nan,nan,nan,nan,nan,-2.5368024e-07,3.3621893e-07,nan
93162077,nan,nan,-1.172458,-0.92441565,0.0,nan,nan,0.0,nan,nan,nan,nan,nan,nan,-0.05620491,0.06859386,nan
93362313,nan,nan,-1.172458,-0.92441565,0.0,nan,nan,0.0,nan,nan,nan,nan,nan,nan,-0.053583957,0.07121815,nan
93562359,nan,nan,-1.172458,-0.92441565,0.0,nan,nan,-0.0,nan,nan,nan,nan,nan,nan,4.642679e-05,-6.1499755e-05,nan
93782529,nan,nan,-1.172458,-0.92441565,0.0,nan,nan,-0.0,nan,nan,nan,nan,nan,nan,-3.6100456e-09,4.7341437e-09,nan
93982795,nan,nan,-1.172458,-0.92441565,0.0,nan,nan,-0.0,nan,nan,nan,nan,nan,nan,1.2151318e-11,-1.602007e-11,nan
94183276,nan,nan,-1.172458,-0.92441565,0.0,nan,nan,-0.0,nan,nan,nan,nan,nan,nan,4.82511e-15,-6.4211984e-15,nan
94383342,nan,nan,-1.172458,-0.92441565,0.0,nan,nan,-0.0,nan,nan,nan,nan,nan,nan,-9.3535665e-18,1.2383801e-17,nan
94583379,nan,nan,-1.172458,-0.92441565,0.0,nan,nan,-0.0,nan,nan,nan,nan,nan,nan,6.119097e-21,-8.08754e-21,nan
94783745,nan,nan,-1.172458,-0.92441565,0.0,nan,nan,-0.0,nan,nan,nan,nan,nan,nan,1.4012406e-24,-1.8569462e-24,nan
94983833,nan,nan,-1.172458,-0.92441565,0.0,nan,nan,-0.0,nan,nan,nan,nan,nan,nan,-1.2464607e-27,1.6485664e-27,nan
95183960,nan,nan,-1.172458,-0.92441565,0.0,nan,nan,-0.0,nan,nan,nan,nan,nan,nan,4.94484e-31,-6.524508e-31,nan
95384120,nan,nan,-1.172458,-0.92441565,0.0,nan,nan,-0.0,nan,nan,nan,nan,nan,nan,9.613927e-35,-1.2850842e-34,nan
95604401,nan,nan,nan,-0.92441565,0.0,nan,nan,-0.16155052,nan,nan,nan,nan,nan,nan,-1.2683351e-37,1.6755974e-37,nan
95804833,nan,nan,nan,-0.92441565,0.0,nan,nan,-0.36864924,nan,nan,nan,nan,nan,nan,1.4551e-41,-1.8995e-41,nan
96004803,nan,nan,nan,-0.92441565,0.0,nan,nan,-0.70075804,nan,nan,nan,nan,nan,nan,4.2e-44,-5.5e-44,nan
96204965,nan,nan,nan,-0.92441565,0.0,nan,nan,-0.7561426,nan,nan,nan,nan,nan,nan,0.0,0.0,nan
96405288,nan,nan,nan,-0.92441565,0.0,nan,nan,-0.9689305,nan,nan,nan,nan,nan,nan,0.0,0.0,nan
96605448,nan,nan,nan,-1.0139266,0.0,nan,nan,-1.077215,nan,nan,nan,nan,nan,nan,0.0,0.0,nan
96805590,nan,nan,nan,-1.0139266,0.0,nan,nan,-1.252763,nan,nan,nan,nan,nan,nan,0.0,0.0,nan
97005714,nan,nan,nan,-1.0139266,0.0,nan,nan,-1.5,nan,nan,nan,nan,nan,nan,0.0,0.0,nan
97206016,nan,nan,nan,-1.0139266,0.0,nan,nan,-1.5,nan,nan,nan,nan,nan,nan,0.0,0.0,nan
97426420,nan,nan,nan,-1.0139266,0.0,nan,nan,-1.5,nan,nan,nan,nan,nan,nan,0.0,0.0,nan
97626544,nan,nan,nan,nan,-0.009398566,nan,nan,-1.5,nan,nan,nan,nan,nan,nan,0.0,0.0,nan
97826586,nan,nan,nan,-1.0063431,0.0,nan,nan,-1.5,nan,nan,nan,nan,nan,nan,0.0,0.0,nan
98026801,nan,nan,nan,-1.0063431,0.0,nan,nan,-1.5,nan,nan,nan,nan,nan,nan,0.0,0.0,nan
98227622,nan,nan,nan,-1.0063431,-0.0,nan,nan,-1.5,nan,nan,nan,nan,nan,nan,0.0,0.0,nan
98427594,nan,nan,nan,-1.0063431,0.0,nan,nan,-1.5,nan,nan,nan,nan,nan,nan,0.0,0.0,nan
98627410,nan,nan,nan,-1.0063431,-0.0,nan,nan,-1.5,nan,nan,nan,nan,nan,nan,0.0,0.0,nan
98827730,nan,nan,nan,-1.0063431,-0.0,nan,nan,-1.5,nan,nan,nan,nan,nan,nan,0.0,0.0,nan
99047862,nan,nan,nan,-1.0063431,0.0,nan,nan,-1.5311888,nan,nan,nan,nan,nan,nan,0.0,0.0,nan
99247971,nan,nan,nan,-1.0063431,0.0,nan,nan,-1.6182319,nan,nan,nan,nan,nan,nan,0.0,0.0,nan
99448215,nan,nan,nan,-1.0063431,-0.0,nan,nan,-1.7123384,nan,nan,nan,nan,nan,nan,0.0,0.0,nan
99648589,nan,nan,nan,-1.0063431,0.0,nan,nan,-1.8117734,nan,nan,nan,nan,nan,nan,0.0,0.0,nan
99848721,nan,nan,nan,-1.0063431,-0.0,nan,nan,-1.9177479,nan,nan,nan,nan,nan,nan,0.0,0.0,nan
100048806,nan,nan,nan,-1.0063431,-0.0,nan,nan,-2.029792,nan,nan,nan,nan,nan,nan,0.0,0.0,nan
100248964,nan,nan,nan,-1.0063431,-0.0,nan,nan,-2.1470544,nan,nan,nan,nan,nan,nan,0.0,0.0,nan
100449280,nan,nan,nan,-1.0063431,-0.0,nan,nan,-2.27064,nan,nan,nan,nan,nan,nan,0.0,0.0,nan
100649468,nan,nan,nan,-1.0063431,-0.0,nan,nan,-2.4017708,nan,nan,nan,nan,nan,nan,0.012342776,-0.019493606,nan
100849573,nan,nan,nan,-1.0063431,0.0,nan,nan,-2.5387998,nan,nan,nan,nan,nan,nan,0.033180322,-0.052403457,nan
101049754,nan,nan,nan,-1.0063431,-0.0,nan,nan,-2.6800027,nan,nan,nan,nan,nan,nan,-0.001111035,0.0017547169,nan
101270348,nan,nan,nan,-1.0063431,-0.0,nan,nan,-2.849028,nan,nan,nan,nan,nan,nan,1.1089489e-06,-1.7514222e-06,nan
101470521,nan,nan,nan,-1.0063431,0.0,nan,nan,-3.0,nan,nan,nan,nan,nan,nan,-8.633019e-11,1.3634588e-10,nan
101670488,nan,nan,nan,-1.0063431,0.0,nan,nan,-2.6582837,nan,nan,nan,nan,nan,nan,-3.9406843e-13,6.223733e-13,nan
101870632,nan,nan,nan,-1.0063431,-0.0,nan,nan,-1.9621646,nan,nan,nan,nan,nan,nan,3.8038683e-16,-6.007652e-16,nan
102071107,nan,nan,nan,-1.0063431,0.0,nan,nan,-1.4445795,nan,nan,nan,nan,nan,nan,-1.6510582e-19,2.6076044e-19,nan
102271186,nan,nan,nan,-1.0063431,-0.0,nan,nan,-1.082775,nan,nan,nan,nan,nan,nan,-1.6946843e-23,2.6765053e-23,nan
102471216,nan,nan,nan,-1.0063431,-0.0,nan,nan,-0.4809277,nan,nan,nan,nan,nan,nan,8.467301e-26,-1.337286e-25,nan
102691471,nan,nan,-11.86053,-1.0063431,0.0,nan,nan,-0.0,nan,nan,nan,nan,nan,nan,-6.712479e-30,1.0601377e-29,nan
102891717,nan,nan,-11.86053,-1.0063431,0.0,nan,nan,-0.0,nan,nan,nan,nan,nan,nan,-1.12621535e-32,1.7786921e-32,nan
103091941,nan,nan,-11.86053,-1.0063431,-0.0,nan,nan,-0.0,nan,nan,nan,nan,nan,nan,2.9735304e-36,-4.6962553e-36,nan
103292042,nan,nan,-11.86053,-1.0063431,0.0,nan,nan,-0.0,nan,nan,nan,nan,nan,nan,1.020801e-39,-1.612206e-39,nan
103492223,nan,nan,-11.86053,-1.0063431,0.0,nan,nan,-0.0,nan,nan,nan,nan,nan,nan,-2.15e-42,3.394e-42,nan
103692556,nan,nan,-11.86053,-1.0063431,-0.0,nan,nan,-0.0,nan,nan,nan,nan,nan,nan,1e-45,-3e-45,nan
103892685,nan,nan,-11.86053,-1.0063431,0.0,nan,nan,-0.0,nan,nan,nan,nan,nan,nan,0.0,0.0,nan
104092794,nan,nan,-11.86053,-1.0063431,0.0,nan,nan,-0.0,nan,nan,nan,nan,nan,nan,0.0,0.0,nan
104293002,nan,nan,-11.86053,-1.0063431,0.0,nan,nan,-0.0,nan,nan,nan,nan,nan,nan,0.0,0.0,nan
104513390,nan,nan,-11.86053,-1.0063431,0.0,nan,nan,-0.0,nan,nan,nan,nan,nan,nan,0.0,0.0,nan
104713483,nan,nan,nan,-1.0063431,0.0,nan,nan,0.04414316,nan,nan,nan,nan,nan,nan,0.0,0.0,nan
104913620,nan,nan,nan,-1.0063431,0.0,nan,nan,0.13989882,nan,nan,nan,nan,nan,nan,0.0,0.0,nan
105113850,nan,nan,nan,-1.0063431,0.0,nan,nan,0.16462965,nan,nan,nan,nan,nan,nan,0.0,0.0,nan
105314371,nan,nan,nan,-1.0063431,0.0,nan,nan,0.20550162,nan,nan,nan,nan,nan,nan,0.0,0.0,nan
105514457,nan,nan,nan,-1.0063431,0.0,nan,nan,0.2994666,nan,nan,nan,nan,nan,nan,0.0,0.0,nan
105714537,nan,nan,nan,-1.0063431,0.0,nan,nan,0.37137955,nan,nan,nan,nan,nan,nan,0.0,0.0,nan
105934642,nan,nan,nan,-1.0063431,0.0,nan,nan,0.4512947,nan,nan,nan,nan,nan,nan,0.0,0.0,nan
106134982,nan,nan,nan,-1.0063431,0.0,nan,nan,0.42824867,nan,nan,nan,nan,nan,nan,0.0,0.0,nan
106335151,nan,nan,nan,-1.0063431,0.0,nan,nan,0.4377769,nan,nan,nan,nan,nan,nan,0.0,0.0,nan
106535255,nan,nan,nan,-1.0063431,0.0,nan,nan,0.46426076,nan,nan,nan,nan,nan,nan,0.0,0.0,nan
106735532,nan,nan,nan,-1.0063431,0.0,nan,nan,0.5587319,nan,nan,nan,nan,nan,nan,0.0,0.0,nan
106935825,nan,nan,nan,-1.0063431,0.0,nan,nan,0.58088475,nan,nan,nan,nan,nan,nan,0.0,0.0,nan
107135922,nan,nan,nan,-1.0063431,0.0,nan,nan,0.5883311,nan,nan,nan,nan,nan,nan,0.0,0.0,nan
107336053,nan,nan,nan,-1.0063431,0.0,nan,nan,0.5961473,nan,nan,nan,nan,nan,nan,0.0,0.0,nan
107556361,nan,nan,nan,-1.0063431,0.0,nan,nan,0.6613044,nan,nan,nan,nan,nan,nan,0.0,0.0,nan
107756620,nan,nan,nan,-1.0063431,0.0,nan,nan,0.67714685,nan,nan,nan,nan,nan,nan,0.0,0.0,nan
107956744,nan,nan,nan,-1.0063431,0.0,nan,nan,0.7220915,nan,nan,nan,nan,nan,nan,0.0,0.0,nan
108156905,nan,nan,nan,-1.0063431,0.0,nan,nan,0.71920794,nan,nan,nan,nan,nan,nan,0.0,0.0,nan
108357151,nan,nan,nan,-1.0063431,0.0,nan,nan,0.752724,nan,nan,nan,nan,nan,nan,0.0,0.0,nan
108557392,nan,nan,nan,-1.0063431,0.0,nan,nan,0.8106977,nan,nan,nan,nan,nan,nan,0.0,0.0,nan
108757736,nan,nan,nan,-1.0063431,0.0,nan,nan,0.79669166,nan,nan,nan,nan,nan,nan,0.0,0.0,nan
108957722,nan,nan,nan,-1.0063431,0.0,nan,nan,0.7508739,nan,nan,nan,nan,nan,nan,0.0,0.0,nan
109178738,nan,nan,nan,-1.0063431,0.0,nan,nan,0.7436736,nan,nan,nan,nan,nan,nan,0.0,0.0,nan
109379139,nan,nan,nan,-1.0063431,0.0,nan,nan,0.7265491,nan,nan,nan,nan,nan,nan,0.0,0.0,nan
109578584,nan,nan,nan,-1.0063431,0.0,nan,nan,0.4091834,nan,nan,nan,nan,nan,nan,0.0,0.0,nan
111199935,nan,nan,nan,-1.0063431,0.0,nan,nan,0.47024375,nan,nan,nan,nan,nan,nan,9.562458e-16,6.0546667e-16,nan
111400117,nan,nan,nan,-1.0063431,0.0,nan,nan,0.5058753,nan,nan,nan,nan,nan,nan,-8.930718e-19,-5.6546666e-19,nan
111600401,nan,nan,nan,-1.0063431,0.0,nan,nan,0.5618962,nan,nan,nan,nan,nan,nan,3.744913e-22,2.3711687e-22,nan
111800620,nan,nan,nan,-1.0063431,0.0,nan,nan,0.5874973,nan,nan,nan,nan,nan,nan,5.1256505e-26,3.2454107e-26,nan
112000747,nan,nan,nan,-1.0063431,0.0,nan,nan,0.6584193,nan,nan,nan,nan,nan,nan,-2.0323867e-28,-1.2868473e-28,nan
112200909,nan,nan,nan,-1.0063431,0.0,nan,nan,0.6565714,nan,nan,nan,nan,nan,nan,1.3656818e-32,8.647095e-33,nan
112401218,nan,nan,nan,-1.0063431,0.0,nan,nan,0.68929017,nan,nan,nan,nan,nan,nan,2.7595267e-35,1.747251e-35,nan
112621675,nan,nan,nan,-1.0063431,0.0,nan,nan,0.7266528,nan,nan,nan,nan,nan,nan,-6.638381e-39,-4.203227e-39,nan
112821702,nan,nan,nan,-1.0063431,0.0,nan,nan,0.72737426,nan,nan,nan,nan,nan,nan,-2.651e-42,-1.679e-42,nan
113021806,nan,nan,nan,-1.0063431,0.0,nan,nan,0.7726203,nan,nan,nan,nan,nan,nan,4e-45,3e-45,nan
113222206,nan,nan,nan,-1.0063431,0.0,nan,nan,0.8115368,nan,nan,nan,nan,nan,nan,0.0,0.0,nan
113422285,nan,nan,nan,-1.0063431,0.0,nan,nan,0.8121141,nan,nan,nan,nan,nan,nan,0.0,0.0,nan
113622403,nan,nan,nan,-1.0063431,0.0,nan,nan,0.8171577,nan,nan,nan,nan,nan,nan,0.0,0.0,nan
113822628,nan,nan,nan,-1.0063431,0.0,nan,nan,0.8171589,nan,nan,nan,nan,nan,nan,0.0,0.0,nan
114022904,nan,nan,nan,-1.0063431,0.0,nan,nan,0.8310281,nan,nan,nan,nan,nan,nan,0.0,0.0,nan
114243285,nan,nan,nan,-1.0063431,0.0,nan,nan,0.82004184,nan,nan,nan,nan,nan,nan,0.0,0.0,nan
114443211,nan,nan,nan,-1.0063431,0.0,nan,nan,0.8108296,nan,nan,nan,nan,nan,nan,0.0,0.0,nan
114643358,nan,nan,nan,-1.0063431,0.0,nan,nan,0.8016556,nan,nan,nan,nan,nan,nan,0.0,0.0,nan
114843726,nan,nan,nan,-1.0063431,0.0,nan,nan,0.791632,nan,nan,nan,nan,nan,nan,0.0,0.0,nan
115043898,nan,nan,nan,-1.0063431,0.0,nan,nan,0.78150356,nan,nan,nan,nan,nan,nan,0.0,0.0,nan
115243955,nan,nan,nan,-1.0063431,0.0,nan,nan,0.7716493,nan,nan,nan,nan,nan,nan,0.0,0.0,nan
115444168,nan,nan,nan,-1.0063431,0.0,nan,nan,0.7614086,nan,nan,nan,nan,nan,nan,0.0,0.0,nan
115644522,nan,nan,nan,-1.0063431,0.0,nan,nan,0.75186944,nan,nan,nan,nan,nan,nan,0.0,0.0,nan
115864704,nan,nan,nan,-1.0063431,0.0,nan,nan,0.7416831,nan,nan,nan,nan,nan,nan,0.0,0.0,nan
116064769,nan,nan,nan,-1.0063431,0.0,nan,nan,0.7325835,nan,nan,nan,nan,nan,nan,0.0,0.0,nan
116264995,nan,nan,nan,-1.0063431,0.0,nan,nan,0.7238724,nan,nan,nan,nan,nan,nan,0.0,0.0,nan
116465561,nan,nan,nan,-1.0063431,0.0,nan,nan,0.71511096,nan,nan,nan,nan,nan,nan,0.0,0.0,nan
116665640,nan,nan,nan,-1.0063431,0.0,nan,nan,0.7063303,nan,nan,nan,nan,nan,nan,0.0,0.0,nan
116865775,nan,nan,nan,-1.0063431,0.0,nan,nan,0.7,nan,nan,nan,nan,nan,nan,0.0,0.0,nan
117065779,nan,nan,nan,-1.0063431,0.0,nan,nan,0.63988304,nan,nan,nan,nan,nan,nan,0.0,0.0,nan
117286134,nan,nan,nan,-1.0063431,0.0,nan,nan,0.4324471,nan,nan,nan,nan,nan,nan,0.11915117,0.07544301,nan
117486561,nan,nan,nan,-1.0063431,0.0,nan,nan,0.4203869,nan,nan,nan,nan,nan,nan,0.29106718,0.18429516,nan
117686457,nan,nan,nan,-1.0063431,0.0,nan,nan,0.36227468,nan,nan,nan,nan,nan,nan,0.35199893,0.22287534,nan
117886738,nan,nan,nan,-1.0063431,0.0,nan,nan,0.28786466,nan,nan,nan,nan,nan,nan,0.32615098,0.20650919,nan
118086913,nan,nan,nan,-1.0063431,0.0,nan,nan,0.24493499,nan,nan,nan,nan,nan,nan,0.3114262,0.19718587,nan
118287394,nan,nan,nan,-1.0063431,0.0,nan,nan,0.22113857,nan,nan,nan,nan,nan,nan,0.3104491,0.19656721,nan
118487994,nan,nan,nan,-1.0063431,0.0,nan,nan,0.22198509,nan,nan,nan,nan,nan,nan,0.3172975,0.22124858,nan
118687404,nan,nan,nan,-1.0063431,0.0,nan,nan,0.06033443,nan,nan,nan,nan,nan,nan,0.2923248,0.18840598,nan
118887723,nan,nan,-4.1291847,-1.0063431,0.0,nan,nan,-0.0,nan,nan,nan,nan,nan,nan,0.14747338,0.093374684,nan
119107899,nan,nan,-4.1291847,-1.0063431,0.0,nan,nan,-0.0,nan,nan,nan,nan,nan,nan,0.00040519543,0.00025655766,nan
119307984,nan,nan,-4.1291847,-1.0063431,0.0,nan,nan,-0.0,nan,nan,nan,nan,nan,nan,0.032255974,-0.04100589,nan
119508284,nan,nan,-4.1291847,-1.0063431,0.0,nan,nan,-0.0,nan,nan,nan,nan,nan,nan,0.08004543,-0.014766881,nan
119708802,nan,nan,-4.1291847,-1.0063431,0.0,nan,nan,-0.0,nan,nan,nan,nan,nan,nan,3.5191577e-05,-5.4843563e-06,nan
119908868,nan,nan,-4.1291847,-1.0063431,0.0,nan,nan,-0.0,nan,nan,nan,nan,nan,nan,0.023545014,0.010693932,nan
120108884,nan,nan,-4.1291847,-1.0063431,0.0,nan,nan,-0.0,nan,nan,nan,nan,nan,nan,0.29952627,-0.0020811437,nan
120309034,nan,nan,-4.1291847,-1.0063431,0.0,nan,nan,-0.0,nan,nan,nan,nan,nan,nan,0.18552113,-0.054339357,nan
120510174,nan,nan,-4.1291847,-1.0063431,0.0,nan,nan,-0.0,nan,nan,nan,nan,nan,nan,0.00028132705,-0.00034490935,nan
120729553,nan,nan,-4.1291847,-1.0063431,0.0,nan,nan,-0.0,nan,nan,nan,nan,nan,nan,1.4423595e-08,1.1045881e-07,nan
120929619,nan,nan,-4.1291847,-1.0063431,0.0,nan,nan,-0.0,nan,nan,nan,nan,nan,nan,0.04851351,0.0073769535,nan
121129836,nan,nan,-4.1291847,-1.0063431,0.0,nan,nan,-0.0,nan,nan,nan,nan,nan,nan,0.1165484,-0.043470606,nan
121330251,nan,nan,-4.1291847,-1.0063431,0.0,nan,nan,-0.0,nan,nan,nan,nan,nan,nan,0.12764557,-0.07331252,nan
121530326,nan,nan,-4.1291847,-1.0063431,0.0,nan,nan,-0.0,nan,nan,nan,nan,nan,nan,0.045315854,-0.049470562,nan
121730462,nan,nan,-4.1291847,-1.0063431,0.0,nan,nan,-0.0,nan,nan,nan,nan,nan,nan,0.0024420884,-0.0050260844,nan
121930634,nan,nan,-4.1291847,-1.0063431,0.0,nan,nan,-0.0,nan,nan,nan,nan,nan,nan,3.2938435e-06,-1.6678771e-06,nan
122130995,nan,nan,-4.1291847,-1.0063431,0.0,nan,nan,-0.0,nan,nan,nan,nan,nan,nan,0.19769555,0.11954716,nan
122351132,nan,nan,-4.1291847,-1.0063431,0.0,nan,nan,-0.0,nan,nan,nan,nan,nan,nan,0.29156578,0.16635652,nan
122551289,nan,nan,-4.1291847,-1.0063431,0.0,nan,nan,-0.0,nan,nan,nan,nan,nan,nan,-0.0025540167,-0.0016858514,nan
122751453,nan,nan,-4.1291847,-1.0063431,0.0,nan,nan,-0.0,nan,nan,nan,nan,nan,nan,9.077505e-07,5.585871e-07,nan
122951810,nan,nan,-4.1291847,-1.0063431,0.0,nan,nan,-0.0,nan,nan,nan,nan,nan,nan,0.0066662,-0.010528285,nan
123151960,nan,nan,-4.1291847,-1.0063431,0.0,nan,nan,-0.0,nan,nan,nan,nan,nan,nan,0.22143473,-0.06938049,nan
123352051,nan,nan,-4.1291847,-1.0063431,0.0,nan,nan,-0.0,nan,nan,nan,nan,nan,nan,0.28588322,-0.09174995,nan
123552306,nan,nan,-4.1291847,-1.0063431,0.0,nan,nan,-0.0,nan,nan,nan,nan,nan,nan,0.08204125,-0.12247619,nan
123752825,nan,nan,-4.1291847,-1.0063431,0.0,nan,nan,-0.0,nan,nan,nan,nan,nan,nan,9.7263146e-05,-0.00013721049,nan
123952904,nan,nan,-4.1291847,-1.0063431,0.0,nan,nan,-0.0,nan,nan,nan,nan,nan,nan,-0.30165398,0.036439337,nan
124172923,nan,nan,-4.1291847,-1.0063431,0.0,nan,nan,-0.0,nan,nan,nan,nan,nan,nan,-0.5576819,0.07962241,nan
124373218,nan,nan,-4.1291847,-1.0063431,0.0,nan,nan,-0.0,nan,nan,nan,nan,nan,nan,-0.0026470707,0.00016013655,nan
124574250,nan,nan,-4.1291847,-1.0063431,0.0,nan,nan,-0.0,nan,nan,nan,nan,nan,nan,-4.6583716e-07,5.0843877e-08,nan
124773741,nan,nan,-4.1291847,-1.0063431,0.0,nan,nan,-0.0,nan,nan,nan,nan,nan,nan,5.0702853e-10,-3.5870078e-11,nan
124974106,nan,nan,-4.1291847,-1.0063431,0.0,nan,nan,-0.0,nan,nan,nan,nan,nan,nan,0.13663691,0.030019587,nan
125174912,nan,nan,-4.1291847,-1.0063431,0.0,nan,nan,-0.0,nan,nan,nan,nan,nan,nan,0.29632175,0.0071149217,nan
125374210,nan,nan,-4.1291847,-1.0063431,0.0,nan,nan,-0.0,nan,nan,nan,nan,nan,nan,0.1295874,-0.01009296,nan
125574338,nan,nan,-4.1291847,-1.0063431,0.0,nan,nan,-0.0,nan,nan,nan,nan,nan,nan,-3.7715865e-05,-5.2976684e-05,nan
125774527,nan,nan,-4.1291847,-1.0063431,0.0,nan,nan,-0.0,nan,nan,nan,nan,nan,nan,1.9583911e-08,1.6690095e-08,nan
125994736,nan,nan,-4.1291847,-1.0063431,0.0,nan,nan,-0.0,nan,nan,nan,nan,nan,nan,6.2900275e-12,1.019517e-11,nan
126195067,nan,nan,nan,-1.0063431,0.0,nan,nan,0.17657542,nan,nan,nan,nan,nan,nan,-4.4032635e-15,-4.8612843e-15,nan
126395148,nan,nan,nan,-1.0063431,0.0,nan,nan,0.38532498,nan,nan,nan,nan,nan,nan,1.1796306e-18,-7.3692274e-20,nan
126595369,nan,nan,nan,-1.0063431,0.0,nan,nan,0.47755954,nan,nan,nan,nan,nan,nan,8.345253e-22,2.121985e-21,nan
126795554,nan,nan,nan,-1.0063431,0.0,nan,nan,0.56257963,nan,nan,nan,nan,nan,nan,-1.2274804e-24,-1.8203486e-24,nan
126995787,nan,nan,nan,-1.0063431,0.0,nan,nan,0.6136668,nan,nan,nan,nan,nan,nan,1.5554614e-27,2.648367e-27,nan
127196111,nan,nan,nan,-1.0063431,0.0,nan,nan,0.66958547,nan,nan,nan,nan,nan,nan,-1.1952421e-30,-1.3964825e-30,nan
127596541,nan,nan,nan,-1.0063431,0.0,nan,nan,0.7,nan,nan,nan,nan,nan,nan,1.704136e-37,5.060279e-37,nan
127796626,nan,nan,nan,-1.0063431,0.0,nan,nan,0.7,nan,nan,nan,nan,nan,nan,-3.11453e-40,-4.82806e-40,nan
128017432,nan,nan,nan,-1.0063431,0.0,nan,nan,0.7,nan,nan,nan,nan,nan,nan,0.0,-5.6e-44,nan
128217372,nan,nan,nan,-1.0063431,0.0,nan,nan,0.7,nan,nan,nan,nan,nan,nan,0.0,0.0,nan
128417343,nan,nan,nan,-1.0063431,0.0,nan,nan,0.7,nan,nan,nan,nan,nan,nan,0.0,0.0,nan
128617644,nan,nan,nan,-1.0063431,0.0,nan,nan,0.7,nan,nan,nan,nan,nan,nan,0.0,0.0,nan
128817549,nan,nan,nan,-1.0063431,0.0,nan,nan,0.7,nan,nan,nan,nan,nan,nan,0.0,0.0,nan
129017715,nan,nan,nan,-1.0063431,0.0,nan,nan,0.7,nan,nan,nan,nan,nan,nan,0.0,0.0,nan
129218106,nan,nan,nan,-1.0063431,0.0,nan,nan,0.25045922,nan,nan,nan,nan,nan,nan,0.0,0.0,nan
129438330,nan,nan,-2.1316397,-1.0063431,0.0,nan,nan,-0.0,nan,nan,nan,nan,nan,nan,0.13554691,-0.0014969836,nan
129638459,nan,nan,-2.1316397,-1.0063431,0.0,nan,nan,-0.0,nan,nan,nan,nan,nan,nan,0.3082798,-0.0170985,nan
129838558,nan,nan,-2.1316397,-1.0063431,0.0,nan,nan,-0.0,nan,nan,nan,nan,nan,nan,0.16314618,-0.043781586,nan
130038896,nan,nan,-2.1316397,-1.0063431,0.0,nan,nan,-0.0,nan,nan,nan,nan,nan,nan,0.07794364,-0.050246406,nan
130238969,nan,nan,-2.1316397,-1.0063431,0.0,nan,nan,-0.0,nan,nan,nan,nan,nan,nan,0.22263819,-0.082811065,nan
130439166,nan,nan,-2.1316397,-1.0063431,0.0,nan,nan,-0.0,nan,nan,nan,nan,nan,nan,0.2527026,-0.07571494,nan
130639351,nan,nan,-2.1316397,-1.0063431,0.0,nan,nan,-0.0,nan,nan,nan,nan,nan,nan,0.31823784,-0.08420685,nan
130839594,nan,nan,-2.1316397,-1.0063431,0.0,nan,nan,-0.0,nan,nan,nan,nan,nan,nan,0.2986643,-0.09372073,nan
131040006,nan,nan,-2.1316397,-1.0063431,0.0,nan,nan,-0.0,nan,nan,nan,nan,nan,nan,0.24298887,-0.10265349,nan
131260220,nan,nan,-2.1316397,-1.0063431,0.0,nan,nan,-0.0,nan,nan,nan,nan,nan,nan,0.18463849,-0.11621585,nan
131460194,nan,nan,-2.1316397,-1.0063431,0.0,nan,nan,-0.0,nan,nan,nan,nan,nan,nan,0.20443605,-0.124481395,nan
131660591,nan,nan,-2.1316397,-1.0063431,0.0,nan,nan,-0.0,nan,nan,nan,nan,nan,nan,0.2139102,-0.14065087,nan
131860693,nan,nan,-2.1316397,-1.0063431,0.0,nan,nan,-0.0,nan,nan,nan,nan,nan,nan,0.22311419,-0.143349,nan
132060759,nan,nan,-2.1316397,-1.0063431,0.0,nan,nan,-0.0,nan,nan,nan,nan,nan,nan,0.16308829,-0.13652125,nan
132882485,nan,nan,-2.1316397,-1.0063431,0.0,nan,nan,-0.0,nan,nan,nan,nan,nan,nan,0.0031007652,0.001963318,nan
133081835,nan,nan,-2.1316397,-1.0063431,0.0,nan,nan,-0.0,nan,nan,nan,nan,nan,nan,0.39208612,0.24825737,nan
133282166,nan,nan,-2.1316397,-1.0063431,0.0,nan,nan,-0.0,nan,nan,nan,nan,nan,nan,0.5079939,0.32164675,nan
133482432,nan,nan,-2.1316397,-1.0063431,0.0,nan,nan,-0.0,nan,nan,nan,nan,nan,nan,0.5698741,0.36082748,nan
133682421,nan,nan,-2.1316397,-1.0063431,0.0,nan,nan,-0.0,nan,nan,nan,nan,nan,nan,0.5543069,0.3509708,nan
133882577,nan,nan,-2.1316397,-1.0063431,0.0,nan,nan,-0.0,nan,nan,nan,nan,nan,nan,0.4861645,0.30782503,nan
134082906,nan,nan,-2.1316397,-1.0063431,0.0,nan,nan,-0.0,nan,nan,nan,nan,nan,nan,0.42310816,0.26789963,nan
134303231,nan,nan,-2.1316397,-1.0063431,0.0,nan,nan,-0.0,nan,nan,nan,nan,nan,nan,0.23154998,0.14661062,nan
134503278,nan,nan,-2.1316397,-1.0063431,0.0,nan,nan,-0.0,nan,nan,nan,nan,nan,nan,-3.185434e-05,-2.016923e-05,nan
134703423,nan,nan,-2.1316397,-1.0063431,0.0,nan,nan,-0.0,nan,nan,nan,nan,nan,nan,1.5611668e-07,9.884848e-08,nan
134903837,nan,nan,-2.1316397,-1.0063431,0.0,nan,nan,-0.0,nan,nan,nan,nan,nan,nan,-0.2688711,-0.10229309,nan
135103916,nan,nan,-2.1316397,-1.0063431,0.0,nan,nan,-0.0,nan,nan,nan,nan,nan,nan,-0.1586902,-0.102018915,nan
135303995,nan,nan,-2.1316397,-1.0063431,0.0,nan,nan,-0.0,nan,nan,nan,nan,nan,nan,-0.00083104306,-0.00052444334,nan
135504196,nan,nan,-2.1316397,-1.0063431,0.0,nan,nan,-0.0,nan,nan,nan,nan,nan,nan,0.0008481299,-0.0013389369,nan
135724643,nan,nan,-2.1316397,-1.0063431,0.0,nan,nan,-0.0,nan,nan,nan,nan,nan,nan,0.12215691,-0.19292893,nan
135924737,nan,nan,-2.1316397,-1.0063431,0.0,nan,nan,-0.0,nan,nan,nan,nan,nan,nan,0.16261847,-0.25683203,nan
136124876,nan,nan,-2.1316397,-1.0063431,0.0,nan,nan,-0.0,nan,nan,nan,nan,nan,nan,0.116739824,-0.18437344,nan
136325003,nan,nan,-2.1316397,-1.0063431,0.0,nan,nan,-0.0,nan,nan,nan,nan,nan,nan,-0.00013092322,0.00020677404,nan
136525399,nan,nan,-2.1316397,-1.0063431,0.0,nan,nan,-0.0,nan,nan,nan,nan,nan,nan,-0.1608593,0.18212034,nan
136725565,nan,nan,-2.1316397,-1.0063431,0.0,nan,nan,-0.0,nan,nan,nan,nan,nan,nan,-0.21950315,0.27666876,nan
136925621,nan,nan,-2.1316397,-1.0063431,0.0,nan,nan,-0.0,nan,nan,nan,nan,nan,nan,-0.15568943,0.24862736,nan
137125798,nan,nan,-2.1316397,-1.0063431,0.0,nan,nan,-0.0,nan,nan,nan,nan,nan,nan,-0.20424949,0.24526587,nan
137326137,nan,nan,-2.1316397,-1.0063431,0.0,nan,nan,-0.0,nan,nan,nan,nan,nan,nan,-0.13845193,0.019671217,nan
137546349,nan,nan,-2.1316397,-1.0063431,0.0,nan,nan,-0.0,nan,nan,nan,nan,nan,nan,-0.2084136,-0.014168537,nan
137746417,nan,nan,-2.1316397,-1.0063431,0.0,nan,nan,-0.0,nan,nan,nan,nan,nan,nan,-0.28777274,-0.068411835,nan
137946631,nan,nan,-2.1316397,-1.0063431,0.0,nan,nan,-0.0,nan,nan,nan,nan,nan,nan,0.00094082556,0.0004768117,nan
138147223,nan,nan,-2.1316397,-1.0063431,0.0,nan,nan,-0.0,nan,nan,nan,nan,nan,nan,7.105748e-07,2.0735177e-07,nan
138347251,nan,nan,-2.1316397,-1.0063431,0.0,nan,nan,-0.0,nan,nan,nan,nan,nan,nan,0.048146725,-0.07604069,nan
138547364,nan,nan,-2.1316397,-1.0063431,0.0,nan,nan,-0.0,nan,nan,nan,nan,nan,nan,0.1506702,-0.23796149,nan
138767733,nan,nan,-2.1316397,-1.0063431,0.0,nan,nan,-0.0,nan,nan,nan,nan,nan,nan,0.20179331,-0.31870297,nan
138967794,nan,nan,-2.1316397,-1.0063431,0.0,nan,nan,-0.0,nan,nan,nan,nan,nan,nan,0.20658213,-0.32626617,nan
139167918,nan,nan,-2.1316397,-1.0063431,0.0,nan,nan,-0.0,nan,nan,nan,nan,nan,nan,0.20783196,-0.32824013,nan
139368098,nan,nan,-2.1316397,-1.0063431,0.0,nan,nan,-0.0,nan,nan,nan,nan,nan,nan,0.20900804,-0.33009756,nan
139568386,nan,nan,-2.1316397,-1.0063431,0.0,nan,nan,-0.0,nan,nan,nan,nan,nan,nan,0.21070428,-0.33277652,nan
139768619,nan,nan,-2.1316397,-1.0063431,0.0,nan,nan,-0.0,nan,nan,nan,nan,nan,nan,0.21396638,-0.33792853,nan
139968756,nan,nan,-2.1316397,-1.0063431,0.0,nan,nan,-0.0,nan,nan,nan,nan,nan,nan,0.15961006,-0.30340588,nan
140168839,nan,nan,-2.1316397,-1.0063431,0.0,nan,nan,-0.0,nan,nan,nan,nan,nan,nan,0.085457005,-0.20909634,nan
140389188,nan,nan,-2.1316397,-1.0063431,0.0,nan,nan,-0.0,nan,nan,nan,nan,nan,nan,-0.0005320454,0.0006447242,nan
140589371,nan,nan,-2.1316397,-1.0063431,0.0,nan,nan,-0.0,nan,nan,nan,nan,nan,nan,1.2216187e-06,-1.5107473e-06,nan
140789542,nan,nan,-2.1316397,-1.0063431,0.0,nan,nan,-0.0,nan,nan,nan,nan,nan,nan,-0.06450385,0.10187437,nan
140989731,nan,nan,-2.1316397,-1.0063431,0.0,nan,nan,-0.0,nan,nan,nan,nan,nan,nan,-0.035038225,0.05533774,nan
141189989,nan,nan,-2.1316397,-1.0063431,0.0,nan,nan,-0.0,nan,nan,nan,nan,nan,nan,1.6593685e-06,-2.6207292e-06,nan
141390188,nan,nan,-2.1316397,-1.0063431,0.0,nan,nan,-0.0,nan,nan,nan,nan,nan,nan,-2.3900295e-08,3.774701e-08,nan
141590384,nan,nan,-2.1316397,-1.0063431,0.0,nan,nan,-0.0,nan,nan,nan,nan,nan,nan,-0.08023636,0.12672156,nan
141790537,nan,nan,-2.1316397,-1.0063431,0.0,nan,nan,-0.0,nan,nan,nan,nan,nan,nan,-0.2040281,0.32223246,nan
142011559,nan,nan,-2.1316397,-1.0063431,0.0,nan,nan,-0.0,nan,nan,nan,nan,nan,nan,-0.14975548,0.23651682,nan
142212867,nan,nan,-2.1316397,-1.0063431,0.0,nan,nan,-0.0,nan,nan,nan,nan,nan,nan,-0.00025244142,0.00039869422,nan
142411365,nan,nan,-2.1316397,-1.0063431,0.0,nan,nan,-0.0,nan,nan,nan,nan,nan,nan,5.7116125e-08,-9.020654e-08,nan
142612828,nan,nan,-2.1316397,-1.0063431,0.0,nan,nan,-0.0,nan,nan,nan,nan,nan,nan,2.5067982e-11,-3.9591205e-11,nan
142811899,nan,nan,-2.1316397,-1.0063431,0.0,nan,nan,-0.0,nan,nan,nan,nan,nan,nan,0.038104452,0.024126615,nan
143012884,nan,nan,-2.1316397,-1.0063431,0.0,nan,nan,-0.0,nan,nan,nan,nan,nan,nan,0.25286755,0.16010828,nan
143211967,nan,nan,-2.1316397,-1.0063431,0.0,nan,nan,-0.0,nan,nan,nan,nan,nan,nan,0.35700604,0.2260457,nan
143412096,nan,nan,-2.1316397,-1.0063431,0.0,nan,nan,-0.0,nan,nan,nan,nan,nan,nan,0.035472117,0.022459898,nan
143632365,nan,nan,-2.1316397,-1.0063431,0.0,nan,nan,-0.0,nan,nan,nan,nan,nan,nan,9.529507e-06,6.033803e-06,nan
143832707,nan,nan,-2.1316397,-1.0063431,0.0,nan,nan,-0.0,nan,nan,nan,nan,nan,nan,-6.5222023e-09,-4.1296664e-09,nan
144032755,nan,nan,-2.1316397,-1.0063431,0.0,nan,nan,-0.0,nan,nan,nan,nan,nan,nan,1.0233141e-11,6.4793227e-12,nan
144232951,nan,nan,-2.1316397,-1.0063431,0.0,nan,nan,-0.0,nan,nan,nan,nan,nan,nan,1.3146326e-15,8.3238664e-16,nan
144433179,nan,nan,nan,-1.0063431,0.0,nan,nan,-0.46153438,nan,nan,nan,nan,nan,nan,-1.8485899e-18,-1.1704727e-18,nan
145654542,nan,nan,nan,-1.0063431,0.0,nan,nan,-1.5,nan,nan,nan,nan,nan,nan,-2.1080463e-38,-1.3347528e-38,nan
145854599,nan,nan,nan,-1.0063431,-0.0,nan,nan,-1.5,nan,nan,nan,nan,nan,nan,3.8023e-41,2.4076e-41,nan
146054948,nan,nan,nan,-1.0063431,-0.0,nan,nan,-1.5,nan,nan,nan,nan,nan,nan,-8e-45,-6e-45,nan
146255055,nan,nan,nan,-1.0063431,0.0,nan,nan,-1.5,nan,nan,nan,nan,nan,nan,0.0,0.0,nan
146455162,nan,nan,nan,-1.0063431,-0.0,nan,nan,-1.5,nan,nan,nan,nan,nan,nan,0.0,0.0,nan
146655308,nan,nan,nan,-1.0063431,0.0,nan,nan,-1.5558935,nan,nan,nan,nan,nan,nan,0.0,0.0,nan
146875802,nan,nan,nan,-1.0063431,0.0,nan,nan,-1.6535823,nan,nan,nan,nan,nan,nan,0.0,0.0,nan
147075904,nan,nan,nan,-1.0063431,-0.0,nan,nan,-1.7501376,nan,nan,nan,nan,nan,nan,0.0,0.0,nan
147275978,nan,nan,nan,-1.0063431,0.0,nan,nan,-1.851373,nan,nan,nan,nan,nan,nan,0.0,0.0,nan
147476205,nan,nan,nan,-1.0063431,-0.0,nan,nan,-1.9560235,nan,nan,nan,nan,nan,nan,0.0,0.0,nan
147676518,nan,nan,nan,-1.0063431,-0.0,nan,nan,-2.0713396,nan,nan,nan,nan,nan,nan,0.0,0.0,nan
147876864,nan,nan,nan,-1.0063431,0.0,nan,nan,-2.190633,nan,nan,nan,nan,nan,nan,0.0,0.0,nan
148076795,nan,nan,nan,-1.0063431,-0.0,nan,nan,-2.3187683,nan,nan,nan,nan,nan,nan,0.0,0.0,nan
148276958,nan,nan,nan,-1.0063431,0.0,nan,nan,-2.4538682,nan,nan,nan,nan,nan,nan,0.0,0.0,nan
148477501,nan,nan,nan,-1.0063431,-0.0,nan,nan,-2.6017497,nan,nan,nan,nan,nan,nan,0.0,0.0,nan
148697685,nan,nan,nan,-1.0063431,-0.0,nan,nan,-2.7788372,nan,nan,nan,nan,nan,nan,0.0,0.0,nan
148897701,nan,nan,nan,-1.0063431,-0.0,nan,nan,-2.9439735,nan,nan,nan,nan,nan,nan,0.0,0.0,nan
149097832,nan,nan,nan,-1.0063431,-0.0,nan,nan,-3.0,nan,nan,nan,nan,nan,nan,0.0,0.0,nan
149298326,nan,nan,nan,-1.0063431,-0.0,nan,nan,-3.0,nan,nan,nan,nan,nan,nan,0.0,0.0,nan
149498320,nan,nan,nan,-1.0063431,-0.0,nan,nan,-3.0,nan,nan,nan,nan,nan,nan,0.0,0.0,nan
149698465,nan,nan,nan,-1.0063431,0.0,nan,nan,-2.8060834,nan,nan,nan,nan,nan,nan,0.0,0.0,nan
149898713,nan,nan,nan,-1.0063431,-0.0,nan,nan,-1.9929895,nan,nan,nan,nan,nan,nan,0.0,0.0,nan
150099067,nan,nan,nan,-1.0063431,0.0,nan,nan,-0.48668796,nan,nan,nan,nan,nan,nan,0.0,0.0,nan
150319118,nan,nan,nan,-1.0063431,0.0,nan,nan,-0.10912744,nan,nan,nan,nan,nan,nan,0.0,0.0,nan
150519209,nan,nan,-13.043652,-1.0063431,-0.0,nan,nan,0.0,nan,nan,nan,nan,nan,nan,0.0,0.0,nan
150719387,nan,nan,-13.043652,-1.0063431,-0.0,nan,nan,-0.0,nan,nan,nan,nan,nan,nan,0.0,0.0,nan
150919733,nan,nan,-13.043652,-1.0063431,0.0,nan,nan,-0.0,nan,nan,nan,nan,nan,nan,0.0,0.0,nan
151119890,nan,nan,-13.043652,-1.0063431,-0.0,nan,nan,-0.0,nan,nan,nan,nan,nan,nan,0.0,0.0,nan
151320002,nan,nan,-13.043652,-1.0063431,0.0,nan,nan,-0.0,nan,nan,nan,nan,nan,nan,0.0,0.0,nan
151520202,nan,nan,-13.043652,-1.0063431,0.0,nan,nan,-0.0,nan,nan,nan,nan,nan,nan,0.0,0.0,nan
151740544,nan,nan,-13.043652,-1.0063431,-0.0,nan,nan,-0.0,nan,nan,nan,nan,nan,nan,0.0,0.0,nan
151940704,nan,nan,-13.043652,-1.0063431,0.0,nan,nan,-0.0,nan,nan,nan,nan,nan,nan,0.0,0.0,nan
152140808,nan,nan,nan,-1.0063431,0.0,nan,nan,0.058382377,nan,nan,nan,nan,nan,nan,0.0,0.0,nan
152341042,nan,nan,nan,-1.0063431,0.0,nan,nan,0.23540534,nan,nan,nan,nan,nan,nan,0.0,0.0,nan
152541628,nan,nan,nan,-1.0063431,0.0,nan,nan,0.3345059,nan,nan,nan,nan,nan,nan,0.0,0.0,nan
152741675,nan,nan,nan,-1.0063431,0.0,nan,nan,0.46474448,nan,nan,nan,nan,nan,nan,0.0,0.0,nan
152941767,nan,nan,nan,-1.0063431,0.0,nan,nan,0.519011,nan,nan,nan,nan,nan,nan,0.0,0.0,nan
153141832,nan,nan,nan,-1.0063431,0.0,nan,nan,0.5887908,nan,nan,nan,nan,nan,nan,0.0,0.0,nan
153362224,nan,nan,nan,-1.0063431,0.0,nan,nan,0.6360065,nan,nan,nan,nan,nan,nan,0.0,0.0,nan
153562363,nan,nan,nan,-1.0063431,0.0,nan,nan,0.7338224,nan,nan,nan,nan,nan,nan,0.0,0.0,nan
153762418,nan,nan,nan,-1.0063431,0.0,nan,nan,0.73277014,nan,nan,nan,nan,nan,nan,0.0,0.0,nan
153962639,nan,nan,nan,-1.0063431,0.0,nan,nan,0.87921137,nan,nan,nan,nan,nan,nan,0.0,0.0,nan
154162986,nan,nan,nan,-1.0063431,0.0,nan,nan,0.8943013,nan,nan,nan,nan,nan,nan,0.0,0.0,nan
154363161,nan,nan,nan,-1.0063431,0.0,nan,nan,0.9097574,nan,nan,nan,nan,nan,nan,0.0,0.0,nan
154563296,nan,nan,nan,-1.0063431,0.0,nan,nan,0.95576656,nan,nan,nan,nan,nan,nan,0.0,0.0,nan
154763509,nan,nan,nan,-1.0063431,0.0,nan,nan,0.96489954,nan,nan,nan,nan,nan,nan,0.0,0.0,nan
154983806,nan,nan,nan,-1.0063431,0.0,nan,nan,0.9556191,nan,nan,nan,nan,nan,nan,0.0,0.0,nan
155183885,nan,nan,nan,-1.0063431,0.0,nan,nan,0.9521242,nan,nan,nan,nan,nan,nan,0.0,0.0,nan
155384057,nan,nan,nan,-1.0063431,0.0,nan,nan,0.9637639,nan,nan,nan,nan,nan,nan,0.0,0.0,nan
155584280,nan,nan,nan,-1.0063431,0.0,nan,nan,1.0,nan,nan,nan,nan,nan,nan,0.0,0.0,nan
155784834,nan,nan,nan,-1.0063431,0.0,nan,nan,1.0,nan,nan,nan,nan,nan,nan,0.0,0.0,nan
155984840,nan,nan,nan,-1.0063431,0.0,nan,nan,1.0,nan,nan,nan,nan,nan,nan,0.0,0.0,nan
156184958,nan,nan,nan,-1.0063431,0.0,nan,nan,1.0,nan,nan,nan,nan,nan,nan,0.029181208,0.01847668,nan
156385197,nan,nan,nan,-1.0063431,0.0,nan,nan,1.0,nan,nan,nan,nan,nan,nan,0.17198883,0.10889826,nan
156606150,nan,nan,nan,-1.0063431,0.0,nan,nan,0.99848515,nan,nan,nan,nan,nan,nan,0.21605285,0.13679829,nan
156805963,nan,nan,nan,-1.0063431,0.0,nan,nan,0.9868084,nan,nan,nan,nan,nan,nan,0.238606,0.15107828,nan
157006447,nan,nan,nan,-1.0063431,0.0,nan,nan,0.97499824,nan,nan,nan,nan,nan,nan,0.045153864,0.028590094,nan
157206121,nan,nan,nan,-1.0063431,0.0,nan,nan,0.9631559,nan,nan,nan,nan,nan,nan,-2.7022756e-05,-1.7110013e-05,nan
157406257,nan,nan,nan,-1.0063431,0.0,nan,nan,0.95182735,nan,nan,nan,nan,nan,nan,4.4660187e-09,2.8277514e-09,nan
157606355,nan,nan,nan,-1.0063431,0.0,nan,nan,0.9404701,nan,nan,nan,nan,nan,nan,5.7092677e-12,3.61494e-12,nan
157806463,nan,nan,nan,-1.0063431,0.0,nan,nan,0.9291414,nan,nan,nan,nan,nan,nan,-8.470605e-15,-5.3633372e-15,nan
158026745,nan,nan,nan,-1.0063431,0.0,nan,nan,0.9168211,nan,nan,nan,nan,nan,nan,-6.850813e-19,-4.337733e-19,nan
158226973,nan,nan,nan,-1.0063431,0.0,nan,nan,0.9057535,nan,nan,nan,nan,nan,nan,5.466281e-22,3.4610882e-22,nan
158427134,nan,nan,nan,-1.0063431,-0.0,nan,nan,0.8946702,nan,nan,nan,nan,nan,nan,-2.1777402e-26,-1.378881e-26,nan
158627321,nan,nan,nan,-1.0063431,-0.0,nan,nan,0.8828835,nan,nan,nan,nan,nan,nan,-2.1237485e-28,-1.3446949e-28,nan
158827544,nan,nan,nan,-1.0063431,-0.0,nan,nan,0.8715976,nan,nan,nan,nan,nan,nan,1.9452592e-31,1.2316807e-31,nan
159027788,nan,nan,nan,-1.0063431,-0.0,nan,nan,0.86043215,nan,nan,nan,nan,nan,nan,-7.9839863e-35,-5.0552244e-35,nan
159227912,nan,nan,nan,-1.0063431,-0.0,nan,nan,0.84909725,nan,nan,nan,nan,nan,nan,-1.267456e-38,-8.025158e-39,nan
159428094,nan,nan,nan,-1.0063431,-0.0,nan,nan,0.8384191,nan,nan,nan,nan,nan,nan,2.0121e-41,1.274e-41,nan
159628699,nan,nan,nan,-1.0063431,-0.0,nan,nan,0.82843524,nan,nan,nan,nan,nan,nan,-3e-45,-1e-45,nan
159848752,nan,nan,nan,-1.0063431,-0.0,nan,nan,0.8169033,nan,nan,nan,nan,nan,nan,0.0,0.0,nan
160048776,nan,nan,nan,-1.0063431,-0.0,nan,nan,0.80684704,nan,nan,nan,nan,nan,nan,0.0,0.0,nan
160248909,nan,nan,nan,-1.0063431,-0.0,nan,nan,0.7971011,nan,nan,nan,nan,nan,nan,0.0,0.0,nan
160449300,nan,nan,nan,-0.9652614,-0.0,nan,nan,0.7872924,nan,nan,nan,nan,nan,nan,0.0,0.0,nan
160649402,nan,nan,nan,-0.9652614,0.0,nan,nan,0.47707456,nan,nan,nan,nan,nan,nan,0.028403036,0.01966323,nan
160849624,nan,nan,-5.9689536,-0.9652614,-0.0,nan,nan,-0.0,nan,nan,nan,nan,nan,nan,0.2280403,0.15787075,nan
161049740,nan,nan,-5.9689536,-0.9652614,-0.0,nan,nan,-0.0,nan,nan,nan,nan,nan,nan,0.3628718,0.2512137,nan
161249995,nan,nan,-5.9689536,-0.9652614,0.0,nan,nan,-0.0,nan,nan,nan,nan,nan,nan,0.43512666,0.30123526,nan
161470210,nan,nan,-5.9689536,-0.9652614,0.0,nan,nan,-0.0,nan,nan,nan,nan,nan,nan,0.42243043,0.29244572,nan
161670414,nan,nan,-5.9689536,-0.9652614,-0.0,nan,nan,-0.0,nan,nan,nan,nan,nan,nan,0.42848212,0.29663527,nan
161870539,nan,nan,-5.9689536,-0.9652614,0.0,nan,nan,-0.0,nan,nan,nan,nan,nan,nan,0.42265746,0.29260293,nan
162070794,nan,nan,-5.9689536,-0.9652614,0.0,nan,nan,-0.0,nan,nan,nan,nan,nan,nan,0.43589684,0.30176845,nan
162271046,nan,nan,-5.9689536,-0.9652614,-0.0,nan,nan,-0.0,nan,nan,nan,nan,nan,nan,0.4402597,0.3047888,nan
162471148,nan,nan,-5.9689536,-0.9652614,0.0,nan,nan,-0.0,nan,nan,nan,nan,nan,nan,0.41399968,0.28660917,nan
162671352,nan,nan,-5.9689536,-0.9652614,-0.0,nan,nan,-0.0,nan,nan,nan,nan,nan,nan,0.39371774,0.27256814,nan
162871602,nan,nan,-5.9689536,-0.9652614,-0.0,nan,nan,-0.0,nan,nan,nan,nan,nan,nan,0.39858252,0.275936,nan
163072161,nan,nan,-5.9689536,-0.9652614,0.0,nan,nan,-0.0,nan,nan,nan,nan,nan,nan,0.36425033,0.25216803,nan
163272138,nan,nan,-5.9689536,-0.9652614,0.0,nan,nan,-0.0,nan,nan,nan,nan,nan,nan,0.22854857,0.15822263,nan
163472213,nan,nan,-5.9689536,-0.9652614,0.0,nan,nan,-0.0,nan,nan,nan,nan,nan,nan,0.1704376,0.1179928,nan
163672566,nan,nan,-5.9689536,-0.9652614,0.0,nan,nan,-0.0,nan,nan,nan,nan,nan,nan,-0.0001944161,-0.00013459296,nan
163872624,nan,nan,-5.9689536,-0.9652614,0.0,nan,nan,-0.0,nan,nan,nan,nan,nan,nan,3.3105828e-06,2.2918941e-06,nan
164694558,nan,nan,-5.9689536,-0.9652614,0.0,nan,nan,-0.0,nan,nan,nan,nan,nan,nan,0.02739169,0.018963084,nan
164894923,nan,nan,-5.9689536,-0.9652614,0.0,nan,nan,-0.0,nan,nan,nan,nan,nan,nan,0.20033523,0.13869072,nan
165094600,nan,nan,-5.9689536,-0.9652614,0.0,nan,nan,-0.0,nan,nan,nan,nan,nan,nan,0.29120815,0.20160145,nan
165294102,nan,nan,-5.9689536,-0.9652614,0.0,nan,nan,-0.0,nan,nan,nan,nan,nan,nan,0.31239623,0.2162698,nan
165494465,nan,nan,-5.9689536,-0.9652614,0.0,nan,nan,-0.0,nan,nan,nan,nan,nan,nan,0.3126056,0.21641473,nan
165714410,nan,nan,-5.9689536,-0.9652614,0.0,nan,nan,-0.0,nan,nan,nan,nan,nan,nan,0.30867547,0.21369395,nan
165914577,nan,nan,-5.9689536,-0.9652614,0.0,nan,nan,-0.0,nan,nan,nan,nan,nan,nan,0.20837143,0.14039873,nan
166115149,nan,nan,-5.9689536,-0.9652614,0.0,nan,nan,-0.0,nan,nan,nan,nan,nan,nan,0.20312397,-0.030216504,nan
166315353,nan,nan,-5.9689536,-0.9652614,0.0,nan,nan,-0.0,nan,nan,nan,nan,nan,nan,0.21190801,-0.08072603,nan
166515302,nan,nan,-5.9689536,-0.9652614,0.0,nan,nan,-0.0,nan,nan,nan,nan,nan,nan,0.15669484,-0.085515596,nan
166715442,nan,nan,-5.9689536,-0.9652614,0.0,nan,nan,-0.0,nan,nan,nan,nan,nan,nan,0.11542323,-0.1246925,nan
166916210,nan,nan,-5.9689536,-0.9652614,0.0,nan,nan,-0.0,nan,nan,nan,nan,nan,nan,0.09819451,-0.14186068,nan
167135911,nan,nan,-5.9689536,-0.9652614,0.0,nan,nan,-0.0,nan,nan,nan,nan,nan,nan,0.092276886,-0.13329162,nan
167336026,nan,nan,-5.9689536,-0.9652614,0.0,nan,nan,-0.0,nan,nan,nan,nan,nan,nan,0.04828024,-0.16678295,nan
167536212,nan,nan,-5.9689536,-0.9652614,0.0,nan,nan,-0.0,nan,nan,nan,nan,nan,nan,0.06705285,-0.092920445,nan
167736521,nan,nan,-5.9689536,-0.9652614,0.0,nan,nan,-0.0,nan,nan,nan,nan,nan,nan,-0.0002047076,0.0002864082,nan
167936723,nan,nan,-5.9689536,-0.9652614,0.0,nan,nan,-0.0,nan,nan,nan,nan,nan,nan,-0.09344599,-0.064691715,nan
168136779,nan,nan,-5.9689536,-0.9652614,0.0,nan,nan,-0.0,nan,nan,nan,nan,nan,nan,-0.2756988,-0.19086441,nan
168336997,nan,nan,-5.9689536,-0.9652614,0.0,nan,nan,-0.0,nan,nan,nan,nan,nan,nan,-0.2295475,-0.1589142,nan
168557402,nan,nan,-5.9689536,-0.9652614,0.0,nan,nan,-0.0,nan,nan,nan,nan,nan,nan,-0.024232801,-0.016776206,nan
168757552,nan,nan,-5.9689536,-0.9652614,0.0,nan,nan,-0.0,nan,nan,nan,nan,nan,nan,-8.851065e-07,-6.1275324e-07,nan
168957625,nan,nan,-5.9689536,-0.9652614,0.0,nan,nan,-0.0,nan,nan,nan,nan,nan,nan,1.1029561e-08,7.635691e-09,nan
169157855,nan,nan,-5.9689536,-0.9652614,0.0,nan,nan,-0.0,nan,nan,nan,nan,nan,nan,-9.249211e-12,-6.4031666e-12,nan
169358174,nan,nan,-5.9689536,-0.9652614,0.0,nan,nan,-0.0,nan,nan,nan,nan,nan,nan,-1.3966441e-15,-9.668874e-16,nan
169558351,nan,nan,-5.9689536,-0.9652614,-0.0,nan,nan,-0.0,nan,nan,nan,nan,nan,nan,1.7186395e-18,1.1898025e-18,nan
169758467,nan,nan,-5.9689536,-0.9652614,-0.0,nan,nan,-0.0,nan,nan,nan,nan,nan,nan,-9.084298e-22,-6.288998e-22,nan
169978619,nan,nan,nan,-0.9652614,0.0,nan,nan,0.22249067,nan,nan,nan,nan,nan,nan,-2.8460935e-25,-1.9703314e-25,nan
170179195,nan,nan,nan,-0.9652614,-0.0,nan,nan,0.48703992,nan,nan,nan,nan,nan,nan,2.0260947e-28,1.4026516e-28,nan
170379291,nan,nan,nan,-0.9652614,-0.0,nan,nan,0.54042304,nan,nan,nan,nan,nan,nan,-5.631773e-32,-3.8988382e-32,nan
170579363,nan,nan,nan,-0.9652614,0.0,nan,nan,0.66047883,nan,nan,nan,nan,nan,nan,-3.6620446e-35,-2.5352087e-35,nan
170779433,nan,nan,nan,-0.9652614,-0.0,nan,nan,0.72266346,nan,nan,nan,nan,nan,nan,5.57914e-38,3.862401e-38,nan
170981445,nan,nan,nan,-0.9652614,0.0,nan,nan,0.7142201,nan,nan,nan,nan,nan,nan,-3.318e-41,-2.297e-41,nan
171182461,nan,nan,nan,-0.9652614,0.0,nan,nan,0.70722073,nan,nan,nan,nan,nan,nan,6e-45,4e-45,nan
171381054,nan,nan,nan,-0.9652614,-0.0,nan,nan,0.7,nan,nan,nan,nan,nan,nan,0.0,0.0,nan
171580929,nan,nan,nan,-0.9652614,0.0,nan,nan,0.7,nan,nan,nan,nan,nan,nan,0.0,0.0,nan
171780984,nan,nan,nan,-0.9652614,0.0,nan,nan,0.7,nan,nan,nan,nan,nan,nan,0.0,0.0,nan
172000717,nan,nan,nan,-0.9652614,-0.0,nan,nan,0.7,nan,nan,nan,nan,nan,nan,0.0,0.0,nan
172200865,nan,nan,nan,-0.9652614,0.0,nan,nan,0.7,nan,nan,nan,nan,nan,nan,0.0,0.0,nan
172401090,nan,nan,nan,-0.9652614,0.0,nan,nan,0.7,nan,nan,nan,nan,nan,nan,0.0,0.0,nan
172601379,nan,nan,nan,-0.9652614,0.0,nan,nan,0.7,nan,nan,nan,nan,nan,nan,0.0,0.0,nan
172801489,nan,nan,nan,-0.9652614,0.0,nan,nan,0.7,nan,nan,nan,nan,nan,nan,0.0,0.0,nan
173001674,nan,nan,nan,-0.9652614,0.0,nan,nan,0.7,nan,nan,nan,nan,nan,nan,0.0,0.0,nan
173201940,nan,nan,nan,-0.9652614,0.0,nan,nan,0.7,nan,nan,nan,nan,nan,nan,0.0,0.0,nan
173402400,nan,nan,nan,-0.9652614,0.0,nan,nan,0.7,nan,nan,nan,nan,nan,nan,0.0,0.0,nan
173622532,nan,nan,nan,-0.9652614,0.0,nan,nan,0.7,nan,nan,nan,nan,nan,nan,0.0,0.0,nan
174022738,nan,nan,nan,-0.9652614,0.0,nan,nan,0.7,nan,nan,nan,nan,nan,nan,0.0,0.0,nan
174223072,nan,nan,nan,-0.9652614,0.0,nan,nan,0.7,nan,nan,nan,nan,nan,nan,0.0,0.0,nan
174423130,nan,nan,nan,-0.9652614,0.0,nan,nan,0.7,nan,nan,nan,nan,nan,nan,0.0,0.0,nan
174623271,nan,nan,nan,-0.9652614,0.0,nan,nan,0.7,nan,nan,nan,nan,nan,nan,0.0,0.0,nan
174823569,nan,nan,nan,-0.9652614,0.0,nan,nan,0.7,nan,nan,nan,nan,nan,nan,0.0,0.0,nan
175023823,nan,nan,nan,-0.9652614,0.0,nan,nan,0.7,nan,nan,nan,nan,nan,nan,0.0,0.0,nan
175244329,nan,nan,nan,-0.9652614,0.0,nan,nan,0.7,nan,nan,nan,nan,nan,nan,0.0,0.0,nan
175444134,nan,nan,nan,-0.9652614,0.0,nan,nan,0.2891653,nan,nan,nan,nan,nan,nan,-0.08276618,0.11955364,nan
175644537,nan,nan,-2.0820436,-0.9652614,0.0,nan,nan,-0.0,nan,nan,nan,nan,nan,nan,-0.20407918,0.2947872,nan
175844668,nan,nan,-2.0820436,-0.9652614,0.0,nan,nan,-0.0,nan,nan,nan,nan,nan,nan,-0.22375645,0.3232105,nan
176044800,nan,nan,-2.0820436,-0.9652614,0.0,nan,nan,-0.0,nan,nan,nan,nan,nan,nan,-0.13788688,0.1991741,nan
176645430,nan,nan,-2.0820436,-0.9652614,0.0,nan,nan,-0.0,nan,nan,nan,nan,nan,nan,0.1376456,0.09529112,nan
177266551,nan,nan,-2.0820436,-0.9652614,0.0,nan,nan,-0.0,nan,nan,nan,nan,nan,nan,0.35180348,0.24355118,nan
177466255,nan,nan,-2.0820436,-0.9652614,0.0,nan,nan,-0.0,nan,nan,nan,nan,nan,nan,0.36874166,0.25527737,nan
177666358,nan,nan,-2.0820436,-0.9652614,0.0,nan,nan,-0.0,nan,nan,nan,nan,nan,nan,0.2503824,0.15432659,nan
177866557,nan,nan,-2.0820436,-0.9652614,0.0,nan,nan,-0.0,nan,nan,nan,nan,nan,nan,0.1061159,-0.010337497,nan
178066784,nan,nan,-2.0820436,-0.9652614,0.0,nan,nan,-0.0,nan,nan,nan,nan,nan,nan,0.1113368,-0.040182274,nan
178267075,nan,nan,-2.0820436,-0.9652614,0.0,nan,nan,-0.0,nan,nan,nan,nan,nan,nan,0.042251255,-0.06189039,nan
