timestamp,states[0],states[1],states[2],states[3],states[4],states[5],states[6],states[7],states[8],states[9],states[10],states[11],states[12],states[13],states[14],states[15],states[16],states[17],states[18],states[19],states[20],states[21],states[22],states[23],vibe[0],vibe[1],vibe[2],covariances[0],covariances[1],covariances[2],covariances[3],covariances[4],covariances[5],covariances[6],covariances[7],covariances[8],covariances[9],covariances[10],covariances[11],covariances[12],covariances[13],covariances[14],covariances[15],covariances[16],covariances[17],covariances[18],covariances[19],covariances[20],covariances[21],covariances[22],covariances[23],control_mode_flags,pos_horiz_accuracy,pos_vert_accuracy,mag_test_ratio,vel_test_ratio,pos_test_ratio,hgt_test_ratio,tas_test_ratio,hagl_test_ratio,beta_test_ratio,time_slip,gps_check_fail_flags,filter_fault_flags,innovation_check_flags,solution_status_flags,n_states,pre_flt_fail,health_flags,timeout_flags
50798118,0.9717892,-0.02927999,0.005688149,0.23395774,0.009168778,-0.015817177,-0.0001602366,0.12113683,0.20832959,0.21969041,4.7177278e-07,1.3596782e-06,-1.7308814e-06,-5.2229207e-05,-7.5503754e-05,0.00164161,0.19075724,0.002108045,0.34480003,0.0,0.0,0.0,0.0,0.0,4.0175543e-11,7.8525345e-06,0.004392366,3.8298276e-06,4.6407356e-05,4.644233e-05,6.367763e-05,0.012200919,0.012205247,0.010151737,0.052733902,0.05273743,0.05501905,1.1067121e-11,1.1159849e-11,5.2635216e-11,1.0478643e-06,1.045956e-06,5.0000125e-08,0.0,0.0,0.0,0.0,0.0,0.0,0.0,0.0,535,0.3247635,0.2345614,0.019905962,0.0060738446,0.009848903,0.008405584,0.0,0.0,0.0,0.012005,0,0,0,831,24,0,0,0
51006915,0.9718615,-0.029269474,0.0057018525,0.23365796,0.007534565,-0.013571537,0.0012067655,0.119318835,0.210603,0.22513491,4.4073295e-07,1.3505057e-06,-1.5077542e-06,-5.220969e-05,-7.508213e-05,0.001640553,0.19075724,0.002108045,0.34480003,0.0,0.0,0.0,0.0,0.0,3.800047e-11,7.754264e-06,0.0044332882,3.8150893e-06,4.639873e-05,4.6433437e-05,6.341904e-05,0.012252469,0.012256795,0.010101468,0.05297473,0.052978303,0.054444253,1.1058349e-11,1.11494945e-11,5.1941784e-11,1.0478342e-06,1.0459291e-06,5.0000025e-08,0.0,0.0,0.0,0.0,0.0,0.0,0.0,0.0,535,0.32550427,0.23333292,0.008298302,0.0138012245,0.0092189675,0.000653184,0.0,0.0,0.0,0.012005,0,0,0,831,24,0,0,0
51207670,0.97194844,-0.029241692,0.005739293,0.23329878,0.0058270786,-0.012822451,0.0011929394,0.1177722,0.21103428,0.22345254,4.2078506e-07,1.3328294e-06,-1.2663088e-06,-5.2218293e-05,-7.484568e-05,0.0016414913,0.19075724,0.002108045,0.34480003,0.0,0.0,0.0,0.0,0.0,4.000228e-11,8.157903e-06,0.005038597,3.796605e-06,4.6381832e-05,4.6416026e-05,6.3116444e-05,0.012244658,0.012248952,0.01009846,0.052889958,0.05289351,0.05435223,1.1046904e-11,1.113651e-11,5.1261734e-11,1.0478036e-06,1.0459013e-06,5e-08,0.0,0.0,0.0,0.0,0.0,0.0,0.0,0.0,535,0.3252437,0.23313566,0.0186978,0.0036051988,0.006764236,0.0004849525,0.0,0.0,0.0,0.012005,0,0,0,831,24,0,0,0
51407670,0.9719985,-0.029259717,0.005706786,0.23308876,0.0052441526,-0.012519129,-0.0045974725,0.117481835,0.2111197,0.21217781,4.0920315e-07,1.3285495e-06,-1.1345746e-06,-5.1934494e-05,-7.468542e-05,0.0016486085,0.19075724,0.002108045,0.34480003,0.0,0.0,0.0,0.0,0.0,4.2046967e-11,8.465508e-06,0.0049244557,3.7783398e-06,4.6363228e-05,4.6397327e-05,6.281676e-05,0.012231231,0.0122354785,0.010168505,0.052771673,0.052775208,0.05495357,1.1033972e-11,1.1122081e-11,5.0595556e-11,1.0477728e-06,1.045873e-06,5.000007e-08,0.0,0.0,0.0,0.0,0.0,0.0,0.0,0.0,535,0.3248798,0.23442177,0.03621717,0.057229128,0.006614126,0.016117796,0.0,0.0,0.0,0.012005,0,0,0,831,24,0,0,0
51610876,0.97203183,-0.029230183,0.0057452717,0.23295219,0.0038922497,-0.011349467,-0.004939685,0.1178272,0.2113771,0.21112591,3.9608037e-07,1.3277007e-06,-1.0390789e-06,-5.1840198e-05,-7.4491916e-05,0.0016502386,0.19075724,0.002108045,0.34480003,0.0,0.0,0.0,0.0,0.0,3.6241142e-11,8.109135e-06,0.0048037847,3.7530913e-06,4.6351895e-05,4.6385376e-05,6.238393e-05,0.012276108,0.0122803785,0.010120169,0.052966096,0.05296966,0.054390617,1.1026953e-11,1.11134045e-11,4.985703e-11,1.0477413e-06,1.0458443e-06,5.0000036e-08,0.0,0.0,0.0,0.0,0.0,0.0,0.0,0.0,535,0.32547772,0.23321795,0.05002538,0.027955018,0.004568858,0.007495808,0.0,0.0,0.0,0.012005,0,0,0,831,24,0,0,0
51818105,0.9721592,-0.029187538,0.005812424,0.23242389,0.0012899274,-0.010452596,-0.004421588,0.11627891,0.2124984,0.21505336,3.6594807e-07,1.2998914e-06,-6.5700027e-07,-5.197637e-05,-7.4186086e-05,0.0016488213,0.19075724,0.002108045,0.34480003,0.0,0.0,0.0,0.0,0.0,3.8470175e-11,8.17773e-06,0.0053368965,3.7385319e-06,4.6343535e-05,4.637654e-05,6.2135274e-05,0.01229545,0.012299747,0.010069205,0.05303181,0.053035386,0.053733297,1.1010245e-11,1.10953e-11,4.9218202e-11,1.047721e-06,1.0458267e-06,5e-08,0.0,0.0,0.0,0.0,0.0,0.0,0.0,0.0,535,0.3256796,0.23180443,0.04661603,0.012536269,0.004430617,0.034411594,0.0,0.0,0.0,0.012005,0,0,0,831,24,0,0,0
52018870,0.97225106,-0.029185798,0.0058390284,0.23203905,0.002290476,-0.00895254,-0.0073896293,0.11999715,0.21389109,0.20900434,3.507031e-07,1.3130347e-06,-3.947044e-07,-5.1603747e-05,-7.402665e-05,0.0016529629,0.19075724,0.002108045,0.34480003,0.0,0.0,0.0,0.0,0.0,3.8100127e-11,8.2721e-06,0.0051784883,3.7210357e-06,4.6334073e-05,4.6366724e-05,6.1847895e-05,0.012293843,0.012298135,0.010143993,0.05295075,0.0529543,0.05437731,1.0999339e-11,1.1083033e-11,4.8599482e-11,1.0477056e-06,1.0458126e-06,5e-08,0.0,0.0,0.0,0.0,0.0,0.0,0.0,0.0,535,0.32543057,0.23318943,0.04943674,0.04277678,0.0020591363,0.0052261045,0.0,0.0,0.0,0.012005,0,0,0,831,24,0,0,0
52224487,0.9723338,-0.029161045,0.0058702673,0.23169416,0.0017117488,-0.008949961,-0.0077214027,0.12171546,0.21233298,0.21212013,3.5018925e-07,1.3014279e-06,-1.6545495e-07,-5.163903e-05,-7.4035815e-05,0.0016526324,0.19075724,0.002108045,0.34480003,0.0,0.0,0.0,0.0,0.0,3.724033e-11,8.249482e-06,0.004129738,3.6958272e-06,4.6326077e-05,4.635815e-05,6.143173e-05,0.0123178465,0.012322143,0.010172704,0.053070135,0.053073693,0.054576334,1.09889155e-11,1.10711015e-11,4.7910596e-11,1.0476895e-06,1.0457978e-06,5.000006e-08,0.0,0.0,0.0,0.0,0.0,0.0,0.0,0.0,535,0.32579723,0.23361579,0.04063955,0.020946532,0.0036709786,0.016116288,0.0,0.0,0.0,0.012005,0,0,0,831,24,0,0,0
52423670,0.97243,-0.029156128,0.0058825864,0.23129022,0.002868165,-0.0069682,-0.0071467054,0.12580371,0.2145037,0.21798623,3.3427e-07,1.308839e-06,9.65744e-08,-5.1512714e-05,-7.394925e-05,0.0016503532,0.19075724,0.002108045,0.34480003,0.0,0.0,0.0,0.0,0.0,3.687589e-11,8.257235e-06,0.0031875647,3.6779415e-06,4.631696e-05,4.634894e-05,6.114958e-05,0.01229766,0.0123019405,0.010165557,0.05289591,0.05289943,0.05440888,1.0970902e-11,1.1051813e-11,4.731278e-11,1.0476774e-06,1.0457873e-06,5.0000043e-08,0.0,0.0,0.0,0.0,0.0,0.0,0.0,0.0,535,0.32526195,0.23325711,0.061903015,0.010899153,0.0062488196,0.004068548,0.0,0.0,0.0,0.012005,0,0,0,831,24,0,0,0
52630876,0.9725497,-0.029174032,0.0059632584,0.23078252,0.002041543,-0.0070032906,-0.007132312,0.12660353,0.21555485,0.21407102,3.1524243e-07,1.288123e-06,4.495596e-07,-5.1437775e-05,-7.3817304e-05,0.0016513936,0.19075724,0.002108045,0.34480003,0.0,0.0,0.0,0.0,0.0,3.858302e-11,8.464541e-06,0.003101792,3.6637427e-06,4.631929e-05,4.6351182e-05,6.0917257e-05,0.012360753,0.012365069,0.010201564,0.053160112,0.053163666,0.054656655,1.0963402e-11,1.1043069e-11,4.6738453e-11,1.047667e-06,1.0457782e-06,5.000006e-08,0.0,0.0,0.0,0.0,0.0,0.0,0.0,0.0,535,0.32607326,0.23378763,0.012417126,0.008460733,0.0053912234,0.016311577,0.0,0.0,0.0,0.012005,0,0,0,831,24,0,0,0
52831670,0.9727096,-0.029160278,0.005947514,0.23010975,0.003983099,-0.006289929,-0.011243071,0.13325262,0.21762899,0.19938956,3.0351478e-07,1.2970951e-06,8.869622e-07,-5.1019277e-05,-7.379269e-05,0.0016548181,0.19075724,0.002108045,0.34480003,0.0,0.0,0.0,0.0,0.0,4.0669725e-11,8.4707635e-06,0.004113106,3.6456902e-06,4.631317e-05,4.6344983e-05,6.064457e-05,0.0123566855,0.01236102,0.010191775,0.05309098,0.053094503,0.054569997,1.0951598e-11,1.1030058e-11,4.6173548e-11,1.0476575e-06,1.0457699e-06,5.0000054e-08,0.0,0.0,0.0,0.0,0.0,0.0,0.0,0.0,535,0.32586113,0.23360223,0.033896916,0.024061643,0.00795984,0.010440247,0.0,0.0,0.0,0.012005,0,0,0,831,24,0,0,0
53031680,0.97280025,-0.02920584,0.005976048,0.22971952,0.00600101,-0.009658724,-0.011401712,0.14002906,0.21436359,0.19525224,3.2517383e-07,1.2965513e-06,1.1444916e-06,-5.0918527e-05,-7.393324e-05,0.0016546161,0.19075724,0.002108045,0.34480003,0.0,0.0,0.0,0.0,0.0,4.2128488e-11,8.520843e-06,0.0040633567,3.628554e-06,4.630968e-05,4.6341414e-05,6.0374583e-05,0.012354707,0.01235906,0.0101871705,0.053026903,0.05303041,0.054512642,1.0942412e-11,1.1019695e-11,4.562346e-11,1.0476499e-06,1.0457633e-06,5.0000075e-08,0.0,0.0,0.0,0.0,0.0,0.0,0.0,0.0,535,0.32566443,0.23347943,0.067116156,0.018734144,0.009130131,0.019361231,0.0,0.0,0.0,0.012005,0,0,0,831,24,0,0,0
53238070,0.9728907,-0.029169252,0.00598721,0.2293407,0.005939877,-0.009562231,-0.011629915,0.14508255,0.21362075,0.19345559,3.2175342e-07,1.2951684e-06,1.353042e-06,-5.082031e-05,-7.3917254e-05,0.0016554735,0.19075724,0.002108045,0.34480003,0.0,0.0,0.0,0.0,0.0,4.1017148e-11,8.313486e-06,0.0036525002,3.6024865e-06,4.6313708e-05,4.6345132e-05,5.998408e-05,0.0124078095,0.012412231,0.010141163,0.05325701,0.05326056,0.05402198,1.0938725e-11,1.1014681e-11,4.5011467e-11,1.0476425e-06,1.045757e-06,5e-08,0.0,0.0,0.0,0.0,0.0,0.0,0.0,0.0,535,0.3263703,0.23242629,0.021629414,0.019058676,0.010287345,0.02807462,0.0,0.0,0.0,0.012005,0,0,0,831,24,0,0,0
53439714,0.97301114,-0.029184612,0.005953189,0.22882777,0.009638508,-0.010390137,-0.010800009,0.15530841,0.21158561,0.19597332,3.390284e-07,1.3113417e-06,1.6519224e-06,-5.0690658e-05,-7.415e-05,0.0016524919,0.19075724,0.002108045,0.34480003,0.0,0.0,0.0,0.0,0.0,3.6691785e-11,7.918164e-06,0.0034737312,3.5836397e-06,4.6306635e-05,4.6338035e-05,5.9720307e-05,0.012378154,0.012382608,0.010137437,0.053073652,0.053077176,0.053902235,1.0921265e-11,1.0996109e-11,4.4478525e-11,1.0476351e-06,1.0457503e-06,5.0000008e-08,0.0,0.0,0.0,0.0,0.0,0.0,0.0,0.0,535,0.32580796,0.23216856,0.06477903,0.026018618,0.011966186,0.0059737866,0.0,0.0,0.0,0.012005,0,0,0,831,24,0,0,0
53646106,0.97312593,-0.029186832,0.0059674727,0.22833872,0.010125494,-0.008027907,-0.012677345,0.15972684,0.21461362,0.1918066,3.0930977e-07,1.3092375e-06,1.9353947e-06,-5.047681e-05,-7.4003896e-05,0.0016530573,0.19075724,0.002108045,0.34480003,0.0,0.0,0.0,0.0,0.0,3.847604e-11,8.1110475e-06,0.00406213,3.5678283e-06,4.631078e-05,4.6342306e-05,5.9506783e-05,0.012443558,0.012448059,0.010102121,0.053365793,0.053369377,0.053525887,1.092315e-11,1.0996912e-11,4.3976447e-11,1.0476282e-06,1.0457434e-06,5e-08,0.0,0.0,0.0,0.0,0.0,0.0,0.0,0.0,535,0.3267035,0.23135662,0.025875524,0.016174398,0.00899318,0.0055457097,0.0,0.0,0.0,0.012005,0,0,0,831,24,0,0,0
53847678,0.97319686,-0.02915235,0.0060160533,0.22803915,0.009279936,-0.00863123,-0.008775661,0.16450904,0.2132466,0.1977522,3.0946103e-07,1.29908e-06,2.1077487e-06,-5.0498507e-05,-7.4053714e-05,0.0016486878,0.19075724,0.002108045,0.34480003,0.0,0.0,0.0,0.0,0.0,3.8986137e-11,8.067088e-06,0.004934961,3.5503033e-06,4.6308778e-05,4.6339952e-05,5.9251975e-05,0.01245003,0.012454573,0.010111602,0.053351294,0.053354897,0.05360496,1.09179185e-11,1.099062e-11,4.347821e-11,1.0476216e-06,1.0457369e-06,5e-08,0.0,0.0,0.0,0.0,0.0,0.0,0.0,0.0,535,0.32665914,0.23152745,0.049805116,0.02991407,0.010878892,0.035805766,0.0,0.0,0.0,0.012005,0,0,0,831,24,0,0,0
54047695,0.97329783,-0.029217418,0.006027614,0.22759931,0.009779417,-0.010475629,-0.0058811703,0.16991639,0.20942056,0.20765099,3.1902496e-07,1.2861949e-06,2.3687548e-06,-5.060326e-05,-7.417572e-05,0.0016443091,0.19075724,0.002108045,0.34480003,0.0,0.0,0.0,0.0,0.0,3.90246e-11,8.416973e-06,0.0045399573,3.5328612e-06,4.6305915e-05,4.6337234e-05,5.8998918e-05,0.012455127,0.012459705,0.010119326,0.053324405,0.053328007,0.05364078,1.0909877e-11,1.0981544e-11,4.2987003e-11,1.0476144e-06,1.0457297e-06,5e-08,0.0,0.0,0.0,0.0,0.0,0.0,0.0,0.0,535,0.3265768,0.23160478,0.02402531,0.008963752,0.009612893,0.026643723,0.0,0.0,0.0,0.012005,0,0,0,831,24,0,0,0
54250898,0.97343063,-0.029234536,0.0060671573,0.22702728,0.010391899,-0.011838061,-0.0018209934,0.17603444,0.2060443,0.21942988,3.210476e-07,1.2728517e-06,2.7107724e-06,-5.0645955e-05,-7.4318465e-05,0.00163816,0.19075724,0.002108045,0.34480003,0.0,0.0,0.0,0.0,0.0,3.650724e-11,8.274833e-06,0.004510975,3.5173261e-06,4.6305024e-05,4.6336307e-05,5.8789723e-05,0.012481659,0.0124862585,0.010162191,0.0534768,0.053480443,0.053967725,1.0902592e-11,1.0973255e-11,4.2509763e-11,1.0476064e-06,1.0457217e-06,5.0000054e-08,0.0,0.0,0.0,0.0,0.0,0.0,0.0,0.0,535,0.32704318,0.23230955,0.10735032,0.03269214,0.011123256,8.184298e-05,0.0,0.0,0.0,0.012005,0,0,0,831,24,0,0,0
54451707,0.97355837,-0.029251713,0.006111416,0.22647548,0.010024127,-0.012538394,-0.0001357395,0.1814412,0.20425022,0.22887819,3.113213e-07,1.2661376e-06,3.022345e-06,-5.058928e-05,-7.440982e-05,0.0016346227,0.19075724,0.002108045,0.34480003,0.0,0.0,0.0,0.0,0.0,3.808466e-11,8.179935e-06,0.0041482025,3.4987333e-06,4.6301557e-05,4.6332745e-05,5.853821e-05,0.012449885,0.012454508,0.010231805,0.053283628,0.053287268,0.054548614,1.0885727e-11,1.0955401e-11,4.2029845e-11,1.0475999e-06,1.0457152e-06,5.000004e-08,0.0,0.0,0.0,0.0,0.0,0.0,0.0,0.0,535,0.326452,0.23355645,0.0513312,0.007228254,0.009500335,0.007481239,0.0,0.0,0.0,0.012005,0,0,0,831,24,0,0,0
54651670,0.9736517,-0.02921197,0.00611059,0.22607933,0.0107857585,-0.011635337,0.0021433905,0.18892981,0.20416708,0.23558652,2.992292e-07,1.2798998e-06,3.2161347e-06,-5.04338e-05,-7.459421e-05,0.0016319178,0.19075724,0.002108045,0.34480003,0.0,0.0,0.0,0.0,0.0,3.977806e-11,8.374168e-06,0.003208657,3.4796926e-06,4.6304176e-05,4.6335135e-05,5.8292855e-05,0.012459291,0.012463923,0.010300554,0.05327356,0.053277224,0.05522996,1.087787e-11,1.0946572e-11,4.1567454e-11,1.0475932e-06,1.0457085e-06,5.000007e-08,0.0,0.0,0.0,0.0,0.0,0.0,0.0,0.0,535,0.32642117,0.23501055,0.03795291,0.014845823,0.011115959,0.0068095396,0.0,0.0,0.0,0.012005,0,0,0,831,24,0,0,0
54859670,0.9737463,-0.02923325,0.0061634635,0.22566687,0.010685723,-0.012898701,0.0023397687,0.19497187,0.20120576,0.24049662,2.9391154e-07,1.2742638e-06,3.4513657e-06,-5.03769e-05,-7.461276e-05,0.0016322735,0.19075724,0.002108045,0.34480003,0.0,0.0,0.0,0.0,0.0,4.0486944e-11,8.33019e-06,0.002002435,3.4557136e-06,4.6311918e-05,4.6342728e-05,5.793155e-05,0.012513822,0.012518485,0.010230122,0.053539068,0.053542808,0.05464225,1.0872109e-11,1.0939716e-11,4.104949e-11,1.0475856e-06,1.045701e-06,5e-08,0.0,0.0,0.0,0.0,0.0,0.0,0.0,0.0,535,0.32723367,0.23375681,0.06419923,0.03626204,0.012089275,0.014826121,0.0,0.0,0.0,0.012005,0,0,0,831,24,0,0,0
55059670,0.97382456,-0.02923218,0.0061886786,0.2253283,0.010197555,-0.012738268,0.0030001728,0.19936332,0.19926418,0.24301033,2.8170717e-07,1.2681196e-06,3.614277e-06,-5.0236817e-05,-7.461669e-05,0.0016310135,0.19075724,0.002108045,0.34480003,0.0,0.0,0.0,0.0,0.0,4.5267096e-11,8.8050165e-06,0.0013102496,3.4462582e-06,4.631049e-05,4.634138e-05,5.7848265e-05,0.012498259,0.0125028975,0.010213107,0.0534504,0.053454142,0.054554183,1.0860455e-11,1.0927304e-11,4.0673673e-11,1.0475768e-06,1.0456922e-06,5.0000036e-08,0.0,0.0,0.0,0.0,0.0,0.0,0.0,0.0,535,0.3269626,0.23356837,0.024868384,0.011389652,0.010406924,0.018830763,0.0,0.0,0.0,0.012005,0,0,0,831,24,0,0,0
55259670,0.9739147,-0.0292151,0.006244426,0.22493953,0.010373864,-0.015133026,0.006467897,0.20456485,0.19497925,0.2466075,2.8333108e-07,1.2621264e-06,3.8006517e-06,-5.022511e-05,-7.470371e-05,0.0016288622,0.19075724,0.002108045,0.34480003,0.0,0.0,0.0,0.0,0.0,4.622897e-11,8.626926e-06,0.0008860834,3.427599e-06,4.6311317e-05,4.634195e-05,5.760958e-05,0.012494413,0.012499046,0.01020142,0.053412452,0.053416222,0.054487955,1.0850285e-11,1.0916232e-11,4.0238153e-11,1.0475671e-06,1.0456826e-06,5.0000036e-08,0.0,0.0,0.0,0.0,0.0,0.0,0.0,0.0,535,0.32684657,0.23342656,0.02631939,0.021985438,0.009230126,0.031241395,0.0,0.0,0.0,0.012005,0,0,0,831,24,0,0,0
55467670,0.97403556,-0.02922823,0.006234082,0.22441404,0.010529142,-0.0146909105,0.004422888,0.21200189,0.1940302,0.24258679,2.6693579e-07,1.2715591e-06,4.079725e-06,-4.9987484e-05,-7.48487e-05,0.0016314135,0.19075724,0.002108045,0.34480003,0.0,0.0,0.0,0.0,0.0,4.063671e-11,8.443201e-06,0.00064515654,3.4029945e-06,4.631881e-05,4.6349425e-05,5.7259444e-05,0.012547393,0.012552055,0.010231559,0.053673685,0.053677514,0.054738242,1.0844322e-11,1.090923e-11,3.9750835e-11,1.0475561e-06,1.0456715e-06,5.0000065e-08,0.0,0.0,0.0,0.0,0.0,0.0,0.0,0.0,535,0.3276449,0.23396206,0.007377344,0.016717477,0.010891265,0.02209164,0.0,0.0,0.0,0.012005,0,0,0,831,24,0,0,0
55671669,0.97408897,-0.029241137,0.0062585496,0.22417979,0.010985248,-0.014443752,0.0070527447,0.21763356,0.19121751,0.2541103,2.632905e-07,1.2750572e-06,4.1926683e-06,-4.9924874e-05,-7.4985386e-05,0.0016281637,0.19075724,0.002108045,0.34480003,0.0,0.0,0.0,0.0,0.0,4.1280326e-11,8.3635705e-06,0.0009768285,3.388145e-06,4.632446e-05,4.6355053e-05,5.706544e-05,0.012587969,0.012592653,0.010330451,0.053886633,0.053890526,0.05566995,1.0837337e-11,1.090138e-11,3.9338807e-11,1.0475435e-06,1.0456588e-06,5.000007e-08,0.0,0.0,0.0,0.0,0.0,0.0,0.0,0.0,535,0.32829434,0.2359448,0.04009047,0.008563112,0.008809995,0.009148085,0.0,0.0,0.0,0.012005,0,0,0,831,24,0,0,0
55871712,0.97413486,-0.02920739,0.006273978,0.22398414,0.012113408,-0.015799819,0.005157476,0.22599733,0.18662849,0.25096765,2.7650185e-07,1.2921371e-06,4.238348e-06,-4.998021e-05,-7.522068e-05,0.0016288979,0.19075724,0.002108045,0.34480003,0.0,0.0,0.0,0.0,0.0,4.0011657e-11,8.006044e-06,0.00096399855,3.3690753e-06,4.6320558e-05,4.635081e-05,5.683199e-05,0.01253138,0.012536054,0.010292243,0.05359548,0.05359932,0.055301715,1.0817108e-11,1.0880308e-11,3.8921883e-11,1.0475297e-06,1.0456449e-06,5.000007e-08,0.0,0.0,0.0,0.0,0.0,0.0,0.0,0.0,535,0.32740617,0.23516317,0.056014266,0.016038112,0.010371966,0.0052660364,0.0,0.0,0.0,0.012005,0,0,0,831,24,0,0,0
56071670,0.9743036,-0.029158663,0.0063320496,0.2232536,0.009080779,-0.016641794,0.0006616141,0.2279109,0.18350275,0.24300823,2.5165792e-07,1.2614837e-06,4.657488e-06,-4.9729642e-05,-7.500313e-05,0.0016343133,0.19075724,0.002108045,0.34480003,0.0,0.0,0.0,0.0,0.0,3.9160432e-11,8.351287e-06,0.00069289404,3.3435465e-06,4.63261e-05,4.6356028e-05,5.645622e-05,0.012536477,0.012541164,0.010195035,0.053587943,0.053591795,0.0544902,1.0813487e-11,1.0875725e-11,3.846772e-11,1.0475152e-06,1.0456303e-06,5e-08,0.0,0.0,0.0,0.0,0.0,0.0,0.0,0.0,535,0.32738316,0.23343137,0.013843719,0.040649757,0.00801127,0.03624275,0.0,0.0,0.0,0.012005,0,0,0,831,24,0,0,0
56279670,0.97436374,-0.029137244,0.006360087,0.22299294,0.008270395,-0.017435318,-0.0025065623,0.23300025,0.17890519,0.23615122,2.502638e-07,1.2664278e-06,4.7559006e-06,-4.968495e-05,-7.503584e-05,0.0016394486,0.19075724,0.002108045,0.34480003,0.0,0.0,0.0,0.0,0.0,3.743503e-11,8.18936e-06,0.0006943285,3.3276995e-06,4.6335423e-05,4.6365203e-05,5.627156e-05,0.012575488,0.012580232,0.010293984,0.05380067,0.05380458,0.05540484,1.08075e-11,1.0868935e-11,3.8083158e-11,1.0474986e-06,1.0456137e-06,5.0000082e-08,0.0,0.0,0.0,0.0,0.0,0.0,0.0,0.0,535,0.3280324,0.23538232,0.0070936196,0.051234696,0.007541554,0.02691109,0.0,0.0,0.0,0.012005,0,0,0,831,24,0,0,0
56479670,0.9744706,-0.029149616,0.006375652,0.22252339,0.0061598117,-0.019280387,-0.0022800965,0.23613465,0.17403296,0.23764035,2.4353548e-07,1.256841e-06,4.9788528e-06,-4.961011e-05,-7.509604e-05,0.0016386353,0.19075724,0.002108045,0.34480003,0.0,0.0,0.0,0.0,0.0,3.8603055e-11,8.2803745e-06,0.0005392137,3.3097033e-06,4.633891e-05,4.6368783e-05,5.6050743e-05,0.012568911,0.012573672,0.010191806,0.053737603,0.053741522,0.054516822,1.07983344e-11,1.0858991e-11,3.770215e-11,1.0474805e-06,1.0455957e-06,5e-08,0.0,0.0,0.0,0.0,0.0,0.0,0.0,0.0,535,0.3278401,0.23348838,0.04903653,0.0071246843,0.006848609,0.006037533,0.0,0.0,0.0,0.012005,0,0,0,831,24,0,0,0
56687672,0.9745423,-0.029149838,0.00640793,0.22220826,0.0031072123,-0.020427475,-0.009609818,0.23748237,0.16892485,0.2176578,2.3171683e-07,1.2484452e-06,5.102466e-06,-4.9415503e-05,-7.489457e-05,0.0016468709,0.19075724,0.002108045,0.34480003,0.0,0.0,0.0,0.0,0.0,3.647213e-11,7.914478e-06,0.00042223852,3.2858186e-06,4.6349203e-05,4.6379064e-05,5.572501e-05,0.012620973,0.0126258135,0.010216234,0.053996105,0.054000106,0.054708578,1.079347e-11,1.0853226e-11,3.7274805e-11,1.0474606e-06,1.0455758e-06,5.0000033e-08,0.0,0.0,0.0,0.0,0.0,0.0,0.0,0.0,535,0.32862777,0.23389865,0.016348436,0.02935615,0.007476163,0.025631035,0.0,0.0,0.0,0.012005,0,0,0,831,24,0,0,0
56887715,0.974633,-0.029129952,0.0064293,0.22181259,0.0034927477,-0.021365432,-0.014062847,0.24078484,0.16369304,0.2057259,2.2886056e-07,1.2487752e-06,5.2778973e-06,-4.937042e-05,-7.50022e-05,0.0016492007,0.19075724,0.002108045,0.34480003,0.0,0.0,0.0,0.0,0.0,3.733566e-11,7.898961e-06,0.00035544566,3.2681105e-06,4.635208e-05,4.6381796e-05,5.5510714e-05,0.0126155345,0.01262039,0.010211518,0.0539367,0.053940717,0.054651037,1.078473e-11,1.084374e-11,3.6910933e-11,1.0474388e-06,1.045554e-06,5.000007e-08,0.0,0.0,0.0,0.0,0.0,0.0,0.0,0.0,535,0.32844698,0.23377562,0.033820078,0.021840611,0.006069042,0.0028454075,0.0,0.0,0.0,0.012005,0,0,0,831,24,0,0,0
57087670,0.97468835,-0.029087303,0.0064697433,0.22157346,0.0010593806,-0.021992655,-0.011343075,0.2409299,0.15869327,0.21624441,2.1910628e-07,1.2387948e-06,5.3620593e-06,-4.9218324e-05,-7.4995005e-05,0.001644519,0.19075724,0.002108045,0.34480003,0.0,0.0,0.0,0.0,0.0,3.9154364e-11,7.832359e-06,0.0003069682,3.2587495e-06,4.635427e-05,4.6383906e-05,5.5441535e-05,0.012610222,0.012615116,0.010133246,0.053883914,0.053887937,0.053896185,1.0776036e-11,1.0834453e-11,3.6611027e-11,1.0474148e-06,1.04553e-06,5e-08,0.0,0.0,0.0,0.0,0.0,0.0,0.0,0.0,535,0.32828623,0.23215552,0.009685307,0.009303609,0.0066351993,0.008006725,0.0,0.0,0.0,0.012005,0,0,0,831,24,0,0,0
57295669,0.97480404,-0.02907795,0.0064382507,0.22106613,-0.000653973,-0.021136373,-0.019608423,0.24272445,0.15532342,0.19550931,1.9761696e-07,1.2398157e-06,5.598425e-06,-4.886754e-05,-7.498673e-05,0.0016533644,0.19075724,0.002108045,0.34480003,0.0,0.0,0.0,0.0,0.0,3.7395448e-11,7.822069e-06,0.00029324222,3.2351477e-06,4.6364225e-05,4.6393918e-05,5.512444e-05,0.012674184,0.012679182,0.010100293,0.05419314,0.054197256,0.053483535,1.0772679e-11,1.0830244e-11,3.620855e-11,1.0473891e-06,1.0455043e-06,5e-08,0.0,0.0,0.0,0.0,0.0,0.0,0.0,0.0,535,0.32922697,0.23126507,0.03044602,0.049404033,0.007309579,0.018687125,0.0,0.0,0.0,0.012005,0,0,0,831,24,0,0,0
57495669,0.9749024,-0.029123735,0.0064732563,0.22062515,-0.0018156918,-0.024396777,-0.013209426,0.24438284,0.14560002,0.21128109,2.1582728e-07,1.2243908e-06,5.804158e-06,-4.9239876e-05,-7.515574e-05,0.0016452819,0.19075724,0.002108045,0.34480003,0.0,0.0,0.0,0.0,0.0,3.6704344e-11,7.812161e-06,0.00030577797,3.2181158e-06,4.636445e-05,4.6394314e-05,5.4915854e-05,0.012665969,0.012671036,0.010115317,0.054136544,0.054140672,0.05354378,1.0764097e-11,1.08209604e-11,3.5866244e-11,1.0473609e-06,1.0454761e-06,5.0000036e-08,0.0,0.0,0.0,0.0,0.0,0.0,0.0,0.0,535,0.32905504,0.23139529,0.1534767,0.023806345,0.00844028,0.0007298029,0.0,0.0,0.0,0.012005,0,0,0,831,24,0,0,0
57694940,0.97493434,-0.029116923,0.006492177,0.22048369,-0.0026244204,-0.025109058,-0.012013226,0.24646233,0.13964805,0.20940393,2.1354653e-07,1.2310395e-06,5.8352316e-06,-4.9133218e-05,-7.531499e-05,0.0016435897,0.19075724,0.002108045,0.34480003,0.0,0.0,0.0,0.0,0.0,3.8766965e-11,7.888748e-06,0.00061931915,3.2016994e-06,4.636281e-05,4.6392815e-05,5.470959e-05,0.0126477545,0.012652894,0.010132231,0.054050155,0.054054298,0.053625304,1.075477e-11,1.0810949e-11,3.5531265e-11,1.0473304e-06,1.0454455e-06,5.0000036e-08,0.0,0.0,0.0,0.0,0.0,0.0,0.0,0.0,535,0.32879242,0.23157138,0.037627056,0.027716637,0.007620708,0.017944029,0.0,0.0,0.0,0.012005,0,0,0,831,24,0,0,0
57903681,0.9749745,-0.02906922,0.006478446,0.22031298,-0.0030796723,-0.025682054,-0.0057197646,0.2504655,0.13456273,0.2221868,2.1046792e-07,1.2527214e-06,5.8753267e-06,-4.8952093e-05,-7.583754e-05,0.0016382312,0.19075724,0.002108045,0.34480003,0.0,0.0,0.0,0.0,0.0,3.6661667e-11,7.629667e-06,0.00061367836,3.1868e-06,4.6369732e-05,4.63998e-05,5.4542383e-05,0.0126981875,0.012703462,0.010110089,0.054310914,0.05431514,0.053298537,1.0751786e-11,1.0807293e-11,3.5208055e-11,1.0472983e-06,1.0454132e-06,5e-08,0.0,0.0,0.0,0.0,0.0,0.0,0.0,0.0,535,0.32958466,0.23086476,0.029868945,0.01625843,0.008050499,0.012543,0.0,0.0,0.0,0.012005,0,0,0,831,24,0,0,0
58103670,0.9749904,-0.029047746,0.0065008746,0.22024442,-0.004826107,-0.02456039,-0.008299125,0.25051254,0.13025005,0.2169085,1.959624e-07,1.2587058e-06,5.8626642e-06,-4.861133e-05,-7.5829026e-05,0.0016396497,0.19075724,0.002108045,0.34480003,0.0,0.0,0.0,0.0,0.0,3.4538313e-11,7.688615e-06,0.00048197672,3.170756e-06,4.6368943e-05,4.639912e-05,5.4339263e-05,0.012692826,0.012698193,0.010201295,0.054263987,0.05426825,0.054083705,1.0743921e-11,1.0798762e-11,3.488602e-11,1.0472643e-06,1.0453792e-06,5.0000036e-08,0.0,0.0,0.0,0.0,0.0,0.0,0.0,0.0,535,0.32944232,0.23255904,0.011611738,0.016441971,0.0066675576,0.00016747195,0.0,0.0,0.0,0.012005,0,0,0,831,24,0,0,0
58303670,0.97499996,-0.029042698,0.006509016,0.22020307,-0.006042964,-0.023975711,-0.008068362,0.2520848,0.12486155,0.214339,1.9696675e-07,1.2711034e-06,5.8347327e-06,-4.853858e-05,-7.603507e-05,0.0016387337,0.19075724,0.002108045,0.34480003,0.0,0.0,0.0,0.0,0.0,3.8754982e-11,7.887514e-06,0.00040132442,3.1549473e-06,4.636429e-05,4.63946e-05,5.41381e-05,0.012665883,0.012671329,0.010275058,0.054147076,0.054151367,0.05479353,1.073426e-11,1.0788455e-11,3.457051e-11,1.0472279e-06,1.0453429e-06,5.000007e-08,0.0,0.0,0.0,0.0,0.0,0.0,0.0,0.0,535,0.3290873,0.23408018,0.06487147,0.023832181,0.0053655696,0.0046760845,0.0,0.0,0.0,0.012005,0,0,0,831,24,0,0,0
58511682,0.9751056,-0.028953496,0.0065480955,0.21974556,-0.0076637124,-0.02288635,-0.009164457,0.25302324,0.12164971,0.2119502,1.7854383e-07,1.2769555e-06,6.026296e-06,-4.8161008e-05,-7.6250704e-05,0.0016391991,0.19075724,0.002108045,0.34480003,0.0,0.0,0.0,0.0,0.0,4.2389054e-11,8.136399e-06,0.00037241617,3.1321129e-06,4.6369965e-05,4.6400102e-05,5.3840708e-05,0.0127207935,0.012726356,0.010301942,0.054420616,0.05442503,0.055036712,1.0731209e-11,1.07846475e-11,3.4214916e-11,1.047191e-06,1.0453058e-06,5.000007e-08,0.0,0.0,0.0,0.0,0.0,0.0,0.0,0.0,535,0.32991764,0.23459904,0.08345709,0.019397754,0.0060323533,0.01209486,0.0,0.0,0.0,0.012005,0,0,0,831,24,0,0,0
58711718,0.9751921,-0.028943928,0.0065840036,0.21936096,-0.006421141,-0.022308541,-0.010068726,0.2564415,0.11837404,0.21249709,1.7134045e-07,1.298017e-06,6.181692e-06,-4.7905327e-05,-7.6759374e-05,0.001641044,0.19075724,0.002108045,0.34480003,0.0,0.0,0.0,0.0,0.0,4.1595085e-11,8.030554e-06,0.00033556484,3.1155703e-06,4.636787e-05,4.6398112e-05,5.3646094e-05,0.012718155,0.012723766,0.010363198,0.05438681,0.054391287,0.05567615,1.0724229e-11,1.0777041e-11,3.3913004e-11,1.0471526e-06,1.0452675e-06,5.000007e-08,0.0,0.0,0.0,0.0,0.0,0.0,0.0,0.0,535,0.32981524,0.23595795,0.07771169,0.055382445,0.0051924894,0.016163325,0.0,0.0,0.0,0.012005,0,0,0,831,24,0,0,0
58919703,0.9752778,-0.028913297,0.0065579982,0.2189846,-0.006206686,-0.02169478,-0.0025577643,0.26146695,0.11444591,0.23313238,1.7077869e-07,1.3224115e-06,6.3432512e-06,-4.77613e-05,-7.756358e-05,0.0016330022,0.19075724,0.002108045,0.34480003,0.0,0.0,0.0,0.0,0.0,4.197619e-11,8.1602675e-06,0.0003796094,3.1012614e-06,4.6372137e-05,4.6402532e-05,5.348777e-05,0.012773917,0.012779612,0.010290001,0.054678086,0.054682698,0.055059493,1.0721548e-11,1.0773751e-11,3.3621092e-11,1.047113e-06,1.0452278e-06,5.000004e-08,0.0,0.0,0.0,0.0,0.0,0.0,0.0,0.0,535,0.33069742,0.23464759,0.057228632,0.018808438,0.006336039,0.03259316,0.0,0.0,0.0,0.012005,0,0,0,831,24,0,0,0
59119677,0.9753261,-0.028805189,0.0065543232,0.21878365,-0.0076141893,-0.017460654,-0.0028473008,0.26135403,0.11747812,0.2300163,1.2610604e-07,1.3430417e-06,6.3788875e-06,-4.674614e-05,-7.770437e-05,0.001634513,0.19075724,0.002108045,0.34480003,0.0,0.0,0.0,0.0,0.0,3.8847824e-11,7.914561e-06,0.00034339156,3.084445e-06,4.63671e-05,4.639743e-05,5.3297128e-05,0.012757655,0.012763359,0.010345262,0.054596126,0.05460079,0.05565329,1.0713596e-11,1.0765202e-11,3.3330897e-11,1.0470718e-06,1.0451867e-06,5.0000036e-08,0.0,0.0,0.0,0.0,0.0,0.0,0.0,0.0,535,0.33044958,0.23590949,0.02613511,0.039269444,0.0047658645,0.009530375,0.0,0.0,0.0,0.012005,0,0,0,831,24,0,0,0
59319670,0.9753754,-0.028789775,0.0065625655,0.21856584,-0.0072929147,-0.016077897,-0.004816294,0.2650263,0.115348086,0.23362769,1.2302189e-07,1.3682469e-06,6.45007e-06,-4.651915e-05,-7.82431e-05,0.0016352789,0.19075724,0.002108045,0.34480003,0.0,0.0,0.0,0.0,0.0,4.2052535e-11,7.9268575e-06,0.0002792352,3.0690123e-06,4.6363526e-05,4.6394005e-05,5.3107447e-05,0.01275697,0.012762694,0.010321628,0.054566696,0.054571416,0.05550039,1.0707094e-11,1.0758114e-11,3.3046642e-11,1.04703e-06,1.0451449e-06,5.000007e-08,0.0,0.0,0.0,0.0,0.0,0.0,0.0,0.0,535,0.3303606,0.2355852,0.04559636,0.04531829,0.004804191,0.026793228,0.0,0.0,0.0,0.012005,0,0,0,831,24,0,0,0
59527670,0.9753774,-0.028775342,0.0065610525,0.218559,-0.007753347,-0.015986577,-0.00432973,0.26833004,0.10927674,0.2378444,1.4355805e-07,1.3905294e-06,6.3867783e-06,-4.675404e-05,-7.874478e-05,0.0016344615,0.19075724,0.002108045,0.34480003,0.0,0.0,0.0,0.0,0.0,4.169867e-11,8.148693e-06,0.00025792106,3.0480423e-06,4.6366295e-05,4.6396737e-05,5.2823398e-05,0.012813687,0.012819454,0.010259836,0.054861676,0.054866523,0.05492208,1.0704763e-11,1.07551025e-11,3.2725028e-11,1.0469871e-06,1.0451022e-06,5.0000036e-08,0.0,0.0,0.0,0.0,0.0,0.0,0.0,0.0,535,0.3312525,0.2343546,0.029662855,0.022098847,0.0056225453,0.0065769358,0.0,0.0,0.0,0.012005,0,0,0,831,24,0,0,0
59727717,0.97545147,-0.028745165,0.0065796627,0.21823159,-0.009063226,-0.01418281,-0.0063785017,0.26899546,0.10678573,0.2332574,1.3653987e-07,1.3975415e-06,6.5154613e-06,-4.6562513e-05,-7.894319e-05,0.0016368045,0.19075724,0.002108045,0.34480003,0.0,0.0,0.0,0.0,0.0,3.9500844e-11,8.209546e-06,0.00051802816,3.0326696e-06,4.636125e-05,4.6391724e-05,5.2638716e-05,0.012810087,0.012815855,0.010243473,0.05482621,0.0548311,0.05480219,1.0698423e-11,1.0748207e-11,3.2452784e-11,1.0469435e-06,1.0450585e-06,5e-08,0.0,0.0,0.0,0.0,0.0,0.0,0.0,0.0,535,0.33114547,0.23409867,0.005926897,0.021144336,0.0039512245,0.02674815,0.0,0.0,0.0,0.012005,0,0,0,831,24,0,0,0
59927670,0.9754827,-0.028751174,0.0065729087,0.21809092,-0.010488856,-0.016866926,-0.0022983896,0.26934934,0.09755589,0.24132708,1.6929285e-07,1.3915857e-06,6.5384675e-06,-4.7272988e-05,-7.9166784e-05,0.0016308238,0.19075724,0.002108045,0.34480003,0.0,0.0,0.0,0.0,0.0,3.8909896e-11,8.108334e-06,0.00041127947,3.0176348e-06,4.6357418e-05,4.6387966e-05,5.2456508e-05,0.012817649,0.012823403,0.010308969,0.054835,0.054839965,0.055422757,1.0693546e-11,1.0742781e-11,3.2186517e-11,1.0468999e-06,1.045015e-06,5.0000036e-08,0.0,0.0,0.0,0.0,0.0,0.0,0.0,0.0,535,0.3311721,0.23542038,0.020254273,0.05345035,0.005360281,0.00072811474,0.0,0.0,0.0,0.012005,0,0,0,831,24,0,0,0
60127670,0.97556007,-0.028685268,0.0065866318,0.21775292,-0.013385851,-0.012575398,-0.0019987405,0.267632,0.09811925,0.24178213,1.4052172e-07,1.399072e-06,6.6470316e-06,-4.664038e-05,-7.922265e-05,0.0016319997,0.19075724,0.002108045,0.34480003,0.0,0.0,0.0,0.0,0.0,3.886017e-11,8.077591e-06,0.00058248435,3.001498e-06,4.6351073e-05,4.638167e-05,5.227742e-05,0.01281001,0.012815746,0.010284575,0.05478822,0.05479322,0.055248708,1.0687104e-11,1.0735808e-11,3.192519e-11,1.0468556e-06,1.0449706e-06,5e-08,0.0,0.0,0.0,0.0,0.0,0.0,0.0,0.0,535,0.33103088,0.23505044,0.022080593,0.031040661,0.004757308,0.021931758,0.0,0.0,0.0,0.012005,0,0,0,831,24,0,0,0
60335701,0.97559613,-0.028668903,0.006565051,0.21759447,-0.014154166,-0.011438878,-0.0039877477,0.26832488,0.09580038,0.23958635,1.3998897e-07,1.4187735e-06,6.656286e-06,-4.6458845e-05,-7.9572266e-05,0.0016347861,0.19075724,0.002108045,0.34480003,0.0,0.0,0.0,0.0,0.0,4.0776077e-11,8.522768e-06,0.0008999347,2.9875173e-06,4.6351488e-05,4.638227e-05,5.213303e-05,0.01286279,0.012868527,0.01029142,0.055070914,0.05507603,0.055331532,1.0685062e-11,1.0733247e-11,3.1672952e-11,1.0468112e-06,1.0449263e-06,5e-08,0.0,0.0,0.0,0.0,0.0,0.0,0.0,0.0,535,0.33188394,0.23522656,0.0023706674,0.04306134,0.0049647545,0.0021100393,0.0,0.0,0.0,0.012005,0,0,0,831,24,0,0,0
60535678,0.9756072,-0.028652582,0.006650882,0.21754381,-0.021089712,-0.012437885,-0.0063750986,0.2579355,0.0883818,0.22900818,1.4188988e-07,1.3745066e-06,6.593445e-06,-4.6773413e-05,-7.857343e-05,0.0016390806,0.19075724,0.002108045,0.34480003,0.0,0.0,0.0,0.0,0.0,4.3920426e-11,8.459739e-06,0.0006509089,2.9717376e-06,4.6347464e-05,4.6378304e-05,5.1957028e-05,0.0128801195,0.012885818,0.010271755,0.05518266,0.055187833,0.055165697,1.06805025e-11,1.0728171e-11,3.142149e-11,1.0467676e-06,1.0448827e-06,5e-08,0.0,0.0,0.0,0.0,0.0,0.0,0.0,0.0,535,0.33222055,0.23487379,0.025613654,0.03218319,0.0063850177,0.026321873,0.0,0.0,0.0,0.012005,0,0,0,831,24,0,0,0
60743674,0.97564924,-0.028608026,0.0066533624,0.21736106,-0.023205267,-0.010959662,-0.0045347917,0.25586382,0.086037256,0.23583016,1.4318766e-07,1.3899031e-06,6.62749e-06,-4.6709076e-05,-7.8975085e-05,0.0016351705,0.19075724,0.002108045,0.34480003,0.0,0.0,0.0,0.0,0.0,4.1132774e-11,8.307025e-06,0.00077661016,2.9517812e-06,4.635094e-05,4.6381672e-05,5.1690058e-05,0.012974389,0.0129800895,0.010282678,0.055826478,0.0558318,0.0552591,1.06803785e-11,1.0727435e-11,3.1136003e-11,1.0467244e-06,1.0448396e-06,5e-08,0.0,0.0,0.0,0.0,0.0,0.0,0.0,0.0,535,0.3341531,0.23507254,0.04557434,0.018187031,0.004176897,0.010113128,0.0,0.0,0.0,0.012005,0,0,0,831,24,0,0,0
60943678,0.97570693,-0.028609162,0.006625635,0.21710281,-0.023188563,-0.011017774,-0.0073342607,0.25686508,0.082191475,0.2269545,1.6026893e-07,1.4150518e-06,6.714908e-06,-4.6824083e-05,-7.962185e-05,0.0016392259,0.19075724,0.002108045,0.34480003,0.0,0.0,0.0,0.0,0.0,3.955312e-11,8.207038e-06,0.0005797701,2.9374316e-06,4.6347242e-05,4.63781e-05,5.1517647e-05,0.013015797,0.013021463,0.010267658,0.056238115,0.056243513,0.05511408,1.0676445e-11,1.0723014e-11,3.089506e-11,1.0466814e-06,1.0447967e-06,5.0000025e-08,0.0,0.0,0.0,0.0,0.0,0.0,0.0,0.0,535,0.3353828,0.23476388,0.010175558,0.026463486,0.0035326611,0.009092317,0.0,0.0,0.0,0.012005,0,0,0,831,24,0,0,0
61143669,0.97577626,-0.028586952,0.0066137747,0.21679398,-0.024096431,-0.009877533,-0.006948825,0.25542876,0.07934219,0.2277017,1.7044306e-07,1.4304567e-06,6.8309423e-06,-4.6943893e-05,-8.014871e-05,0.0016362282,0.19075724,0.002108045,0.34480003,0.0,0.0,0.0,0.0,0.0,4.3348502e-11,8.610101e-06,0.0007436858,2.92314e-06,4.6342087e-05,4.637296e-05,5.1347335e-05,0.0130454125,0.0130510265,0.010263037,0.056578416,0.05658387,0.055026073,1.0671899e-11,1.071799e-11,3.0658916e-11,1.0466388e-06,1.0447543e-06,5.000006e-08,0.0,0.0,0.0,0.0,0.0,0.0,0.0,0.0,535,0.33639604,0.23457637,0.012763109,0.041993402,0.0031856387,0.017686158,0.0,0.0,0.0,0.012005,0,0,0,831,24,0,0,0
61351670,0.975834,-0.028530302,0.006642549,0.21654123,-0.028004633,-0.0075176074,-0.008973642,0.24937055,0.08007314,0.21700701,1.5450868e-07,1.4327471e-06,6.916228e-06,-4.6630532e-05,-8.013049e-05,0.0016385189,0.19075724,0.002108045,0.34480003,0.0,0.0,0.0,0.0,0.0,3.9455654e-11,8.036799e-06,0.0005996186,2.910744e-06,4.634254e-05,4.6373432e-05,5.121132e-05,0.01312017,0.013125786,0.010217334,0.05716871,0.057174273,0.054505963,1.067139e-11,1.071702e-11,3.0431976e-11,1.0465965e-06,1.0447123e-06,5.0000036e-08,0.0,0.0,0.0,0.0,0.0,0.0,0.0,0.0,535,0.3381464,0.23346512,0.04459405,0.016535696,0.0027935957,0.012926478,0.0,0.0,0.0,0.012005,0,0,0,831,24,0,0,0
61551703,0.9759034,-0.028489897,0.006655193,0.21623296,-0.02799673,-0.006133018,-0.0077293417,0.24721196,0.079100125,0.22008578,1.6173944e-07,1.4513995e-06,7.036288e-06,-4.662245e-05,-8.067783e-05,0.0016377867,0.19075724,0.002108045,0.34480003,0.0,0.0,0.0,0.0,0.0,3.938624e-11,7.824108e-06,0.00043396823,2.8968789e-06,4.633522e-05,4.6366054e-05,5.1044437e-05,0.013128074,0.013133629,0.010222574,0.05737192,0.0573775,0.05448076,1.0666159e-11,1.0711327e-11,3.0205068e-11,1.0465549e-06,1.044671e-06,5.0000036e-08,0.0,0.0,0.0,0.0,0.0,0.0,0.0,0.0,535,0.33874685,0.23341115,0.00981013,0.023390116,0.0042183865,0.008399699,0.0,0.0,0.0,0.012005,0,0,0,831,24,0,0,0
61751677,0.9759453,-0.028492566,0.0066364235,0.21604405,-0.028932653,-0.004544243,-0.007031562,0.24416852,0.07856287,0.22008753,1.679917e-07,1.4705375e-06,7.0617416e-06,-4.6607893e-05,-8.110388e-05,0.0016366411,0.19075724,0.002108045,0.34480003,0.0,0.0,0.0,0.0,0.0,4.166477e-11,8.022865e-06,0.0006063331,2.8822435e-06,4.6327255e-05,4.635827e-05,5.08805e-05,0.013130015,0.013135532,0.010222846,0.05752451,0.057530083,0.05443451,1.0660833e-11,1.0705549e-11,2.998256e-11,1.0465141e-06,1.0446304e-06,5e-08,0.0,0.0,0.0,0.0,0.0,0.0,0.0,0.0,535,0.33919698,0.23331206,0.03896331,0.018850336,0.0036310242,0.01690724,0.0,0.0,0.0,0.012005,0,0,0,831,24,0,0,0
61951675,0.9760028,-0.02848846,0.006620158,0.21578509,-0.030324142,-0.0010317556,-0.008583204,0.24000461,0.08176381,0.21474394,1.5249081e-07,1.4901311e-06,7.127698e-06,-4.6159683e-05,-8.138104e-05,0.0016391648,0.19075724,0.002108045,0.34480003,0.0,0.0,0.0,0.0,0.0,4.0926516e-11,8.050917e-06,0.0007320557,2.867821e-06,4.6320314e-05,4.635154e-05,5.0717652e-05,0.01313596,0.013141441,0.0102960905,0.057656955,0.057662528,0.055086054,1.0656421e-11,1.07006895e-11,2.9764042e-11,1.0464744e-06,1.0445909e-06,5e-08,0.0,0.0,0.0,0.0,0.0,0.0,0.0,0.0,535,0.3395872,0.23470418,0.019871743,0.0259027,0.0028649783,0.025934212,0.0,0.0,0.0,0.012005,0,0,0,831,24,0,0,0
62151669,0.976102,-0.028512808,0.0066396897,0.21533184,-0.032116245,-0.002271549,-0.010433034,0.23394437,0.07687756,0.20944351,1.7390263e-07,1.477213e-06,7.3005103e-06,-4.663484e-05,-8.147989e-05,0.0016396086,0.19075724,0.002108045,0.34480003,0.0,0.0,0.0,0.0,0.0,4.024448e-11,8.171206e-06,0.00052609266,2.8532613e-06,4.630988e-05,4.634125e-05,5.0556897e-05,0.013116504,0.013121935,0.010281352,0.057666183,0.05767168,0.054962717,1.0650452e-11,1.06942875e-11,2.9550282e-11,1.046435e-06,1.0445518e-06,5.0000036e-08,0.0,0.0,0.0,0.0,0.0,0.0,0.0,0.0,535,0.33961427,0.23444128,0.0070508304,0.01651077,0.0046418095,0.007330821,0.0,0.0,0.0,0.012005,0,0,0,831,24,0,0,0
62359670,0.976157,-0.028541109,0.0066853594,0.21507719,-0.033890434,-0.0031526517,-0.0073381476,0.22777031,0.07213059,0.21702504,1.9454016e-07,1.4764458e-06,7.3790256e-06,-4.7042777e-05,-8.17379e-05,0.001635343,0.19075724,0.002108045,0.34480003,0.0,0.0,0.0,0.0,0.0,3.784052e-11,7.943551e-06,0.0004423121,2.8350435e-06,4.6306617e-05,4.633798e-05,5.0310115e-05,0.013155636,0.013161068,0.010227871,0.057984132,0.057989642,0.05442051,1.0648466e-11,1.0691779e-11,2.930571e-11,1.0463966e-06,1.0445137e-06,5e-08,0.0,0.0,0.0,0.0,0.0,0.0,0.0,0.0,535,0.34054923,0.23328203,0.020819245,0.016163293,0.006028627,0.008085756,0.0,0.0,0.0,0.012005,0,0,0,831,24,0,0,0
62559669,0.9761799,-0.028516218,0.006609962,0.21497883,-0.032361984,-2.113606e-05,-0.002029211,0.22672933,0.07435519,0.2318699,1.9470146e-07,1.5215282e-06,7.371524e-06,-4.677835e-05,-8.2541876e-05,0.001629659,0.19075724,0.002108045,0.34480003,0.0,0.0,0.0,0.0,0.0,3.649662e-11,7.719371e-06,0.00035256363,2.8277382e-06,4.6298122e-05,4.6329715e-05,5.0270737e-05,0.013144898,0.013150315,0.010228361,0.057968296,0.05797376,0.054381102,1.06437055e-11,1.0686692e-11,2.913842e-11,1.0463596e-06,1.044477e-06,5.0000036e-08,0.0,0.0,0.0,0.0,0.0,0.0,0.0,0.0,535,0.34050265,0.23319755,0.015926085,0.03392055,0.0044802376,0.0410988,0.0,0.0,0.0,0.012005,0,0,0,831,24,0,0,0
62759676,0.9762463,-0.02851173,0.006687393,0.21467544,-0.035437893,-0.0017702645,0.0018896468,0.21891145,0.06974164,0.24190609,2.0927493e-07,1.508046e-06,7.4698364e-06,-4.7188794e-05,-8.256529e-05,0.0016246749,0.19075724,0.002108045,0.34480003,0.0,0.0,0.0,0.0,0.0,3.475671e-11,7.645294e-06,0.0002947525,2.814013e-06,4.6288333e-05,4.631982e-05,5.0114417e-05,0.0131230755,0.0131284725,0.010232695,0.057890505,0.057895906,0.05437036,1.0638139e-11,1.0680706e-11,2.8936301e-11,1.0463232e-06,1.044441e-06,5.0000036e-08,0.0,0.0,0.0,0.0,0.0,0.0,0.0,0.0,535,0.34027404,0.23317452,0.0028831682,0.025394259,0.0064611486,0.010588996,0.0,0.0,0.0,0.012005,0,0,0,831,24,0,0,0
62967676,0.9763187,-0.028548332,0.0066667884,0.21434137,-0.03408035,-0.0040022256,0.0020299584,0.21740614,0.060917858,0.24179654,2.5170235e-07,1.5271363e-06,7.5643056e-06,-4.777068e-05,-8.324364e-05,0.0016241093,0.19075724,0.002108045,0.34480003,0.0,0.0,0.0,0.0,0.0,3.240259e-11,7.642572e-06,0.00027174427,2.794791e-06,4.610705e-05,4.6138615e-05,4.9874823e-05,0.011741544,0.011746108,0.01009122,0.050332166,0.05033587,0.05408464,1.0531524e-11,1.0573899e-11,2.8704416e-11,1.0462544e-06,1.0443728e-06,5e-08,0.0,0.0,0.0,0.0,0.0,0.0,0.0,0.0,535,0.31728226,0.23256105,0.015212949,0.011868493,0.008238245,0.011910535,0.0,0.0,0.0,0.012005,0,0,0,831,24,0,0,0
63167670,0.9763403,-0.028528025,0.006667387,0.21424608,-0.037304156,-0.004997161,-0.00043844126,0.20961425,0.054488678,0.23789304,2.701092e-07,1.5200765e-06,7.5366033e-06,-4.806843e-05,-8.319394e-05,0.0016271841,0.19075724,0.002108045,0.34480003,0.0,0.0,0.0,0.0,0.0,3.3663267e-11,7.758941e-06,0.00030046253,2.7809683e-06,4.6099332e-05,4.6130823e-05,4.972244e-05,0.011730673,0.011735247,0.0100877285,0.050242033,0.050245687,0.054040052,1.0527439e-11,1.0569403e-11,2.8510225e-11,1.0462215e-06,1.0443403e-06,5e-08,0.0,0.0,0.0,0.0,0.0,0.0,0.0,0.0,535,0.31699798,0.23246516,0.037093565,0.026990974,0.010690519,0.0062412815,0.0,0.0,0.0,0.012005,0,0,0,831,24,0,0,0
63367670,0.97641844,-0.028542234,0.006696187,0.21388698,-0.040415652,-0.003492569,-0.0062984107,0.2018911,0.05364694,0.22363558,2.6663764e-07,1.5138218e-06,7.659839e-06,-4.800744e-05,-8.314089e-05,0.0016320025,0.19075724,0.002108045,0.34480003,0.0,0.0,0.0,0.0,0.0,3.3409844e-11,7.673246e-06,0.0003003409,2.7678036e-06,4.627144e-05,4.6302946e-05,4.957199e-05,0.013150216,0.013155686,0.010341707,0.057976197,0.057981547,0.055272013,1.0629748e-11,1.0670982e-11,2.8320226e-11,1.0462215e-06,1.0443403e-06,5.0000047e-08,0.0,0.0,0.0,0.0,0.0,0.0,0.0,0.0,535,0.3405257,0.2351,0.00020597008,0.026990974,0.010690519,0.0005137248,0.0,0.0,0.0,0.012005,0,0,0,831,24,0,0,0
63567670,0.9764402,-0.028569838,0.0065687583,0.21378791,-0.03457602,-0.0043399897,-0.00541832,0.2076908,0.04630231,0.2281683,3.1713503e-07,1.5878153e-06,7.6253236e-06,-4.8333608e-05,-8.456027e-05,0.0016293392,0.19075724,0.002108045,0.34480003,0.0,0.0,0.0,0.0,0.0,3.817158e-11,8.010312e-06,0.0004859397,2.7535564e-06,4.608419e-05,4.6115947e-05,4.9423063e-05,0.011715319,0.011719949,0.010065895,0.05005161,0.05005522,0.05387033,1.0520407e-11,1.0561563e-11,2.8133385e-11,1.046159e-06,1.0442783e-06,5e-08,0.0,0.0,0.0,0.0,0.0,0.0,0.0,0.0,535,0.31639665,0.23209983,0.005769668,0.031747025,0.009846744,0.016065791,0.0,0.0,0.0,0.012005,0,0,0,831,24,0,0,0
63767670,0.9764644,-0.028549535,0.0065482245,0.21368071,-0.035177235,-0.0030194575,-0.0040541203,0.20341736,0.04422558,0.22831772,3.2142088e-07,1.6083272e-06,7.5977514e-06,-4.8294733e-05,-8.485941e-05,0.0016282952,0.19075724,0.002108045,0.34480003,0.0,0.0,0.0,0.0,0.0,3.9903306e-11,8.283301e-06,0.00068613904,2.7399171e-06,4.6076555e-05,4.6108307e-05,4.927598e-05,0.011704849,0.011709507,0.010063976,0.049933966,0.049937546,0.053835448,1.0516626e-11,1.0557387e-11,2.7950153e-11,1.0461295e-06,1.044249e-06,5e-08,0.0,0.0,0.0,0.0,0.0,0.0,0.0,0.0,535,0.31602454,0.23202467,0.047704995,0.01442911,0.008669423,0.0049481774,0.0,0.0,0.0,0.012005,0,0,0,831,24,0,0,0
63975676,0.9765168,-0.028523756,0.0065303543,0.21344526,-0.036830194,-0.002354364,-0.0021187377,0.19686288,0.040854417,0.23169033,3.2815183e-07,1.6070637e-06,7.649457e-06,-4.843139e-05,-8.49382e-05,0.0016273772,0.19075724,0.002108045,0.34480003,0.0,0.0,0.0,0.0,0.0,4.012401e-11,8.158166e-06,0.0005280385,2.7281633e-06,4.6075947e-05,4.6107732e-05,4.9160466e-05,0.011749859,0.011754576,0.010024635,0.050099403,0.050103016,0.053394265,1.0517072e-11,1.0557444e-11,2.777452e-11,1.046101e-06,1.0442208e-06,5e-08,0.0,0.0,0.0,0.0,0.0,0.0,0.0,0.0,535,0.31654766,0.231072,0.01433495,0.013365562,0.008198187,0.024223285,0.0,0.0,0.0,0.012005,0,0,0,831,24,0,0,0
64175694,0.9765256,-0.02853316,0.0065660267,0.21340233,-0.03877485,-0.0012245718,-0.0018701,0.18931252,0.04045812,0.22940378,3.2920067e-07,1.6102159e-06,7.593188e-06,-4.8410086e-05,-8.493547e-05,0.0016280832,0.19075724,0.002108045,0.34480003,0.0,0.0,0.0,0.0,0.0,3.992257e-11,8.390084e-06,0.00043619747,2.7097576e-06,4.6247653e-05,4.627926e-05,4.89052e-05,0.013170595,0.013176235,0.010288213,0.05782338,0.057828695,0.05468164,1.0619363e-11,1.06589486e-11,2.7564463e-11,1.046101e-06,1.0442208e-06,5.0000004e-08,0.0,0.0,0.0,0.0,0.0,0.0,0.0,0.0,535,0.34007657,0.23384106,0.04018451,0.013365562,0.008198187,0.009335291,0.0,0.0,0.0,0.012005,0,0,0,831,24,0,0,0
64383670,0.9765268,-0.028541464,0.00645328,0.21339901,-0.035399433,-0.000541747,-0.002987703,0.19065146,0.037762422,0.2262037,3.520721e-07,1.6672551e-06,7.527962e-06,-4.8346174e-05,-8.577896e-05,0.0016310046,0.19075724,0.002108045,0.34480003,0.0,0.0,0.0,0.0,0.0,3.881512e-11,8.048228e-06,0.00034436406,2.698613e-06,4.606761e-05,4.6099405e-05,4.879227e-05,0.011778314,0.011783111,0.010057055,0.05009165,0.05009529,0.05362884,1.0513482e-11,1.0552993e-11,2.7395633e-11,1.0460479e-06,1.0441681e-06,5e-08,0.0,0.0,0.0,0.0,0.0,0.0,0.0,0.0,535,0.31652322,0.23157902,0.05705071,0.023945639,0.0048275404,0.041801434,0.0,0.0,0.0,0.012005,0,0,0,831,24,0,0,0
64583670,0.9765473,-0.028540172,0.006449407,0.2133054,-0.032684244,-0.0011135197,-0.0008276482,0.18961354,0.03341863,0.23428121,3.850354e-07,1.6934792e-06,7.5176945e-06,-4.8714213e-05,-8.632532e-05,0.0016265636,0.19075724,0.002108045,0.34480003,0.0,0.0,0.0,0.0,0.0,4.1061984e-11,8.005168e-06,0.0003109679,2.686519e-06,4.606117e-05,4.6092766e-05,4.8650752e-05,0.011772795,0.011777602,0.010058444,0.04996657,0.049970202,0.05362323,1.0510155e-11,1.0549285e-11,2.7226298e-11,1.0460234e-06,1.0441438e-06,5e-08,0.0,0.0,0.0,0.0,0.0,0.0,0.0,0.0,535,0.31612778,0.2315669,0.03176235,0.027451698,0.0065423297,0.014211937,0.0,0.0,0.0,0.012005,0,0,0,831,24,0,0,0
64783670,0.976574,-0.028550321,0.006434646,0.21318227,-0.031272005,-0.0005784462,-0.003100982,0.18813002,0.029457051,0.22642282,4.1069475e-07,1.7178107e-06,7.489237e-06,-4.8857706e-05,-8.673598e-05,0.0016300064,0.19075724,0.002108045,0.34480003,0.0,0.0,0.0,0.0,0.0,3.982273e-11,7.939344e-06,0.0003039305,2.6732735e-06,4.6054756e-05,4.6086225e-05,4.851201e-05,0.011766728,0.011771551,0.010064955,0.049845263,0.049848884,0.05364944,1.0506927e-11,1.054568e-11,2.7060238e-11,1.0460001e-06,1.0441206e-06,5e-08,0.0,0.0,0.0,0.0,0.0,0.0,0.0,0.0,535,0.3157438,0.23162349,0.019636434,0.02274617,0.0073647066,0.01754459,0.0,0.0,0.0,0.012005,0,0,0,831,24,0,0,0
64991670,0.97658014,-0.028538693,0.0064192316,0.2131566,-0.031108437,0.0018768255,-0.0036604619,0.18413825,0.029172316,0.22429994,4.127607e-07,1.7412575e-06,7.436488e-06,-4.872828e-05,-8.6989545e-05,0.0016321773,0.19075724,0.002108045,0.34480003,0.0,0.0,0.0,0.0,0.0,3.7099195e-11,7.785171e-06,0.0002628728,2.662769e-06,4.605524e-05,4.6086658e-05,4.840245e-05,0.011813641,0.011818504,0.010030739,0.04999454,0.0499982,0.05325572,1.0507744e-11,1.0546123e-11,2.690116e-11,1.045978e-06,1.0440989e-06,5e-08,0.0,0.0,0.0,0.0,0.0,0.0,0.0,0.0,535,0.3162163,0.230772,0.00048095404,0.03088512,0.0062891687,0.0164543,0.0,0.0,0.0,0.012005,0,0,0,831,24,0,0,0
65191670,0.97655,-0.028521866,0.006397818,0.21329702,-0.032507453,0.003139836,-0.005825159,0.17865922,0.027577585,0.22022027,4.2192133e-07,1.7518697e-06,7.3065253e-06,-4.8774065e-05,-8.706442e-05,0.0016326953,0.19075724,0.002108045,0.34480003,0.0,0.0,0.0,0.0,0.0,3.9676217e-11,7.914717e-06,0.00024401273,2.651528e-06,4.604745e-05,4.607875e-05,4.826446e-05,0.011797945,0.011802813,0.010111366,0.049830936,0.04983459,0.053988874,1.0503613e-11,1.0541621e-11,2.6741165e-11,1.0459571e-06,1.0440783e-06,5.000004e-08,0.0,0.0,0.0,0.0,0.0,0.0,0.0,0.0,535,0.31569847,0.23235506,0.0008932148,0.013799004,0.0063689197,0.012737114,0.0,0.0,0.0,0.012005,0,0,0,831,24,0,0,0
65391676,0.9766001,-0.028526092,0.00638608,0.2130676,-0.032383103,0.0025853382,-0.0051077227,0.17532939,0.025243659,0.22291698,4.403758e-07,1.7663426e-06,7.3586293e-06,-4.8922375e-05,-8.7355016e-05,0.0016327103,0.19075724,0.002108045,0.34480003,0.0,0.0,0.0,0.0,0.0,3.657001e-11,7.762987e-06,0.00023715092,2.6395824e-06,4.6040048e-05,4.6071305e-05,4.812861e-05,0.011782498,0.011787367,0.010184738,0.04967272,0.049676374,0.054689866,1.049958e-11,1.0537221e-11,2.6584008e-11,1.0459376e-06,1.0440591e-06,5.0000036e-08,0.0,0.0,0.0,0.0,0.0,0.0,0.0,0.0,535,0.31519693,0.23385864,0.023613097,0.026555,0.0059491033,0.0077460217,0.0,0.0,0.0,0.012005,0,0,0,831,24,0,0,0
65595715,0.97661644,-0.028527524,0.0064167576,0.21299113,-0.033590727,0.0034336748,-0.007442593,0.1694822,0.023784956,0.21225692,4.4893193e-07,1.7727003e-06,7.3358915e-06,-4.8986032e-05,-8.741797e-05,0.0016338334,0.19075724,0.002108045,0.34480003,0.0,0.0,0.0,0.0,0.0,3.2397824e-11,7.398948e-06,0.00061890273,2.6295013e-06,4.6040263e-05,4.607155e-05,4.8021586e-05,0.011823959,0.011828868,0.010126492,0.04980138,0.049805094,0.05412165,1.0498186e-11,1.0535467e-11,2.6431194e-11,1.0459194e-06,1.0440414e-06,5.0000025e-08,0.0,0.0,0.0,0.0,0.0,0.0,0.0,0.0,535,0.31560493,0.23264061,0.058044914,0.042219166,0.005249467,0.0006365395,0.0,0.0,0.0,0.012005,0,0,0,831,24,0,0,0
65803670,0.9766541,-0.02848946,0.0064016525,0.2128241,-0.03396338,0.0058449847,-0.009136323,0.1644313,0.025877176,0.21003422,4.4413346e-07,1.791394e-06,7.3670753e-06,-4.891768e-05,-8.761707e-05,0.0016351211,0.19075724,0.002108045,0.34480003,0.0,0.0,0.0,0.0,0.0,3.6804452e-11,7.908364e-06,0.0004864531,2.6142466e-06,4.6044846e-05,4.6076097e-05,4.780812e-05,0.011864663,0.011869608,0.010154218,0.04992196,0.049925733,0.05430011,1.0495824e-11,1.0532664e-11,2.6248387e-11,1.0459041e-06,1.0440265e-06,5.000003e-08,0.0,0.0,0.0,0.0,0.0,0.0,0.0,0.0,535,0.31598684,0.23302384,0.053254493,0.02189834,0.0028146757,0.030511232,0.0,0.0,0.0,0.012005,0,0,0,831,24,0,0,0
66003676,0.976657,-0.028467316,0.006383453,0.21281467,-0.03220271,0.0073523414,-0.0059086103,0.1626989,0.026728021,0.21992277,4.6170706e-07,1.8252445e-06,7.302211e-06,-4.913392e-05,-8.79412e-05,0.0016296656,0.19075724,0.002108045,0.34480003,0.0,0.0,0.0,0.0,0.0,3.9383014e-11,8.178336e-06,0.00064903847,2.6027426e-06,4.6043177e-05,4.6074285e-05,4.7677422e-05,0.011859145,0.011864077,0.010153129,0.049821727,0.049825504,0.054296583,1.049247e-11,1.0528953e-11,2.610042e-11,1.04589e-06,1.0440128e-06,5.0000036e-08,0.0,0.0,0.0,0.0,0.0,0.0,0.0,0.0,535,0.3156695,0.23301627,0.016166752,0.026978394,0.0014567189,0.00013943494,0.0,0.0,0.0,0.012005,0,0,0,831,24,0,0,0
66203670,0.97671753,-0.028456524,0.0064093373,0.21253738,-0.03187453,0.007142879,-0.009546638,0.1586525,0.025721429,0.21126716,4.7878393e-07,1.8304195e-06,7.381203e-06,-4.9214734e-05,-8.804664e-05,0.0016346698,0.19075724,0.002108045,0.34480003,0.0,0.0,0.0,0.0,0.0,3.9987375e-11,8.084654e-06,0.0004680391,2.591416e-06,4.6040397e-05,4.6071404e-05,4.754824e-05,0.011844131,0.011849038,0.010143784,0.049703564,0.049707334,0.05425167,1.04882995e-11,1.0524432e-11,2.5955318e-11,1.0458772e-06,1.0440002e-06,5.0000036e-08,0.0,0.0,0.0,0.0,0.0,0.0,0.0,0.0,535,0.31529495,0.23291989,0.008439354,0.047831118,0.001790221,0.0007342844,0.0,0.0,0.0,0.012005,0,0,0,831,24,0,0,0
66411669,0.97671604,-0.028404992,0.0064150263,0.212551,-0.033367757,0.007811304,-0.015348322,0.15280682,0.026241422,0.20010895,4.8614913e-07,1.8383722e-06,7.2921825e-06,-4.914633e-05,-8.809523e-05,0.0016396355,0.19075724,0.002108045,0.34480003,0.0,0.0,0.0,0.0,0.0,3.8096165e-11,7.903156e-06,0.00037736635,2.5810505e-06,4.604464e-05,4.6075467e-05,4.7449408e-05,0.0118859485,0.011890856,0.0100938715,0.049872097,0.049875937,0.053777963,1.0488432e-11,1.0524219e-11,2.5817041e-11,1.0458654e-06,1.0439886e-06,5e-08,0.0,0.0,0.0,0.0,0.0,0.0,0.0,0.0,535,0.31582913,0.23190077,0.00033818738,0.03294235,0.001492179,0.01489443,0.0,0.0,0.0,0.012005,0,0,0,831,24,0,0,0
66611690,0.9767787,-0.028370248,0.006384791,0.21226831,-0.030737767,0.010468901,-0.015766196,0.15318452,0.027949901,0.19714615,4.976229e-07,1.8747957e-06,7.3666592e-06,-4.920042e-05,-8.844866e-05,0.0016399572,0.19075724,0.002108045,0.34480003,0.0,0.0,0.0,0.0,0.0,4.0300627e-11,8.115647e-06,0.0003009693,2.5695915e-06,4.604402e-05,4.6074667e-05,4.7323534e-05,0.011884901,0.011889769,0.010166154,0.04980904,0.04981288,0.05446734,1.04858075e-11,1.0521248e-11,2.5677465e-11,1.0458547e-06,1.0439782e-06,5.000004e-08,0.0,0.0,0.0,0.0,0.0,0.0,0.0,0.0,535,0.3156294,0.23338239,0.02304349,0.03071787,0.0037192625,0.014920953,0.0,0.0,0.0,0.012005,0,0,0,831,24,0,0,0
66819670,0.9768093,-0.028358469,0.006337435,0.21213046,-0.029270533,0.0130146835,-0.019258609,0.15121959,0.03093319,0.18840401,5.013619e-07,1.9021373e-06,7.349204e-06,-4.9100207e-05,-8.867508e-05,0.0016438729,0.19075724,0.002108045,0.34480003,0.0,0.0,0.0,0.0,0.0,4.1956525e-11,8.141337e-06,0.00024395075,2.553963e-06,4.6048408e-05,4.6078985e-05,4.7123987e-05,0.011928826,0.01193367,0.010183937,0.0500076,0.050011493,0.05465368,1.0486196e-11,1.0521222e-11,2.5514767e-11,1.0458449e-06,1.0439686e-06,5e-08,0.0,0.0,0.0,0.0,0.0,0.0,0.0,0.0,535,0.31625795,0.23378126,0.050317917,0.039243493,0.0022784409,0.020070963,0.0,0.0,0.0,0.012005,0,0,0,831,24,0,0,0
67019670,0.97679716,-0.028335564,0.006258993,0.21219136,-0.026384236,0.014497861,-0.016783146,0.15298945,0.032516647,0.19121754,5.269337e-07,1.9417153e-06,7.244739e-06,-4.9237868e-05,-8.899907e-05,0.0016413052,0.19075724,0.002108045,0.34480003,0.0,0.0,0.0,0.0,0.0,3.8564273e-11,7.950583e-06,0.00026730567,2.5429542e-06,4.6049332e-05,4.6079855e-05,4.7001286e-05,0.011937879,0.0119426595,0.010163838,0.049988143,0.049992036,0.05453153,1.0484656e-11,1.0519343e-11,2.538065e-11,1.045836e-06,1.04396e-06,5e-08,0.0,0.0,0.0,0.0,0.0,0.0,0.0,0.0,535,0.3161964,0.23351987,0.0009108373,0.027103825,0.0056713624,0.02830164,0.0,0.0,0.0,0.012005,0,0,0,831,24,0,0,0
67219670,0.9767993,-0.0282782,0.0061866855,0.2121912,-0.02415889,0.016937368,-0.015758043,0.15394771,0.035788585,0.19590339,5.389993e-07,1.975299e-06,7.1915338e-06,-4.928228e-05,-8.926049e-05,0.0016392046,0.19075724,0.002108045,0.34480003,0.0,0.0,0.0,0.0,0.0,3.6800993e-11,7.926831e-06,0.00028519312,2.532788e-06,4.6048262e-05,4.607872e-05,4.687938e-05,0.011935957,0.0119406395,0.010152458,0.049940407,0.049944308,0.054454774,1.0481952e-11,1.0516307e-11,2.5249136e-11,1.0458278e-06,1.0439522e-06,5.0000036e-08,0.0,0.0,0.0,0.0,0.0,0.0,0.0,0.0,535,0.31604543,0.23335546,0.01247803,0.021141456,0.005100763,0.010922295,0.0,0.0,0.0,0.012005,0,0,0,831,24,0,0,0
67427670,0.9768325,-0.028255345,0.006156479,0.21204242,-0.024959369,0.019621918,-0.020130277,0.150793,0.038637664,0.18152529,5.42658e-07,1.9801823e-06,7.184875e-06,-4.91999e-05,-8.932328e-05,0.0016443434,0.19075724,0.002108045,0.34480003,0.0,0.0,0.0,0.0,0.0,3.904116e-11,8.141565e-06,0.00031200057,2.522947e-06,4.6055386e-05,4.6085912e-05,4.6787856e-05,0.011999277,0.012003894,0.01010632,0.050226573,0.05023051,0.053975973,1.0484383e-11,1.05184125e-11,2.5124198e-11,1.0458206e-06,1.0439452e-06,5.0000036e-08,0.0,0.0,0.0,0.0,0.0,0.0,0.0,0.0,535,0.31694967,0.2323273,0.008686229,0.021680538,0.0046741012,0.03418898,0.0,0.0,0.0,0.012005,0,0,0,831,24,0,0,0
67627676,0.9768323,-0.028297152,0.006093141,0.21203966,-0.021073353,0.019714016,-0.022143373,0.15446496,0.037935343,0.173896,5.8659816e-07,2.0145949e-06,7.136468e-06,-4.9374605e-05,-8.962886e-05,0.0016445236,0.19075724,0.002108045,0.34480003,0.0,0.0,0.0,0.0,0.0,3.824128e-11,8.122336e-06,0.00030778814,2.5132936e-06,4.605368e-05,4.6084242e-05,4.666783e-05,0.011996442,0.012000922,0.010184419,0.05019351,0.050197445,0.054684564,1.0481649e-11,1.0515357e-11,2.4997364e-11,1.0458137e-06,1.0439387e-06,5.000007e-08,0.0,0.0,0.0,0.0,0.0,0.0,0.0,0.0,535,0.31684533,0.2338473,0.006901389,0.03184065,0.0056119035,0.012981217,0.0,0.0,0.0,0.012005,0,0,0,831,24,0,0,0
67827670,0.97689587,-0.028345311,0.006035729,0.21174164,-0.01869567,0.019734476,-0.0271235,0.15714301,0.03815789,0.15792847,6.1552186e-07,2.0314374e-06,7.225169e-06,-4.943189e-05,-8.9831985e-05,0.0016487126,0.19075724,0.002108045,0.34480003,0.0,0.0,0.0,0.0,0.0,3.9125665e-11,8.443351e-06,0.00032259795,2.5030522e-06,4.605148e-05,4.6082172e-05,4.654989e-05,0.011990831,0.011995145,0.010097756,0.050147895,0.05015178,0.053898633,1.0478745e-11,1.05121415e-11,2.4872777e-11,1.0458076e-06,1.043933e-06,5e-08,0.0,0.0,0.0,0.0,0.0,0.0,0.0,0.0,535,0.31670123,0.23216079,0.016891265,0.019421311,0.007583272,0.027674193,0.0,0.0,0.0,0.012005,0,0,0,831,24,0,0,0
68035670,0.97694016,-0.028339932,0.006002084,0.21153909,-0.017867986,0.020134952,-0.026605709,0.15532409,0.03898191,0.15823346,6.306688e-07,2.0312114e-06,7.2576786e-06,-4.954335e-05,-8.988791e-05,0.0016480376,0.19075724,0.002108045,0.34480003,0.0,0.0,0.0,0.0,0.0,3.7622155e-11,8.233607e-06,0.0003260267,2.4889428e-06,4.60561e-05,4.6086716e-05,4.636067e-05,0.0120411385,0.01204531,0.01012524,0.05040206,0.050405964,0.054120064,1.0480111e-11,1.0513127e-11,2.4726828e-11,1.045802e-06,1.0439278e-06,5e-08,0.0,0.0,0.0,0.0,0.0,0.0,0.0,0.0,535,0.3175028,0.2326372,0.031218078,0.029091405,0.005499467,0.0060817865,0.0,0.0,0.0,0.012005,0,0,0,831,24,0,0,0
68843685,0.977062,-0.028353335,0.0060077733,0.21097386,-0.013492841,0.024399217,-0.024174245,0.15027887,0.03871357,0.15511203,7.011111e-07,2.042419e-06,7.2632006e-06,-5.0045994e-05,-9.009794e-05,0.0016423314,0.19075724,0.002108045,0.34480003,0.0,0.0,0.0,0.0,0.0,4.087058e-11,8.303749e-06,0.00051407877,2.4450012e-06,4.6054884e-05,4.6084835e-05,4.5840687e-05,0.012087651,0.012091134,0.010150071,0.05061168,0.05061537,0.0542706,1.0475715e-11,1.0507471e-11,2.424016e-11,1.0457837e-06,1.0439109e-06,5.0000036e-08,0.0,0.0,0.0,0.0,0.0,0.0,0.0,0.0,535,0.31816196,0.2329605,0.023790851,0.020116607,0.011690375,0.03155256,0.0,0.0,0.0,0.012005,0,0,0,831,24,0,0,0
69051699,0.9771077,-0.028383434,0.005980872,0.21075849,-0.011454153,0.023785323,-0.0237921,0.15038122,0.037249625,0.15487,7.2836895e-07,2.043312e-06,7.3073443e-06,-5.0184346e-05,-9.0184374e-05,0.0016418953,0.19075724,0.002108045,0.34480003,0.0,0.0,0.0,0.0,0.0,4.098515e-11,8.6070195e-06,0.0003980542,2.4366393e-06,4.6060006e-05,4.6089892e-05,4.575863e-05,0.012144737,0.012148079,0.010112155,0.05089692,0.05090056,0.053840168,1.0478182e-11,1.0509655e-11,2.4133747e-11,1.04578e-06,1.0439074e-06,5.0000036e-08,0.0,0.0,0.0,0.0,0.0,0.0,0.0,0.0,535,0.31905717,0.23203485,0.019833872,0.023639506,0.011960141,0.010789768,0.0,0.0,0.0,0.012005,0,0,0,831,24,0,0,0
69251670,0.9771335,-0.028405972,0.005983738,0.210636,-0.011445376,0.024751998,-0.022709703,0.14760554,0.036777712,0.15671563,7.388052e-07,2.0313869e-06,7.3092956e-06,-5.0344723e-05,-9.0159076e-05,0.0016398396,0.19075724,0.002108045,0.34480003,0.0,0.0,0.0,0.0,0.0,4.722703e-11,8.9694495e-06,0.00033919784,2.4227338e-06,4.60564e-05,4.6086105e-05,4.5554025e-05,0.012135075,0.012138263,0.010122087,0.050853062,0.050856587,0.0538829,1.047548e-11,1.0506602e-11,2.3999174e-11,1.0457766e-06,1.0439043e-06,5.000003e-08,0.0,0.0,0.0,0.0,0.0,0.0,0.0,0.0,535,0.3189195,0.2321269,0.069992594,0.006299335,0.013614506,0.010560471,0.0,0.0,0.0,0.012005,0,0,0,831,24,0,0,0
69451704,0.9771592,-0.028488198,0.006035788,0.2105043,-0.011675052,0.023514828,-0.023816498,0.14485334,0.033071563,0.15142076,7.671621e-07,2.0161808e-06,7.3042493e-06,-5.0508785e-05,-9.019447e-05,0.0016402157,0.19075724,0.002108045,0.34480003,0.0,0.0,0.0,0.0,0.0,4.2604836e-11,8.550971e-06,0.00030209238,2.4133305e-06,4.605266e-05,4.6082307e-05,4.5448647e-05,0.01212449,0.012127532,0.010200471,0.05079877,0.05080216,0.05459855,1.0472896e-11,1.05037454e-11,2.389314e-11,1.0457734e-06,1.0439012e-06,5.0000036e-08,0.0,0.0,0.0,0.0,0.0,0.0,0.0,0.0,535,0.318749,0.23366334,0.012326622,0.013111465,0.015619424,0.01001205,0.0,0.0,0.0,0.012005,0,0,0,831,24,0,0,0
