timestamp,error_count,device_id,pressure,temperature
50788019,0,3998474,1002.51996,45.23
50898992,0,3998474,1002.51996,45.239998
51006101,0,3998474,1002.50995,45.23
51091604,0,3998474,1002.44,45.23
51210459,0,3998474,1002.55,45.239998
51306353,0,3998474,1002.50995,45.23
51393030,0,3998474,1002.49,45.239998
51504077,0,3998474,1002.56,45.239998
51610116,0,3998474,1002.49,45.23
51717019,0,3998474,1002.54,45.23
51815022,0,3998474,1002.52997,45.23
51914018,0,3998474,1002.50995,45.239998
52023023,0,3998474,1002.57,45.239998
52119708,0,3998474,1002.54,45.23
52219018,0,3998474,1002.52997,45.239998
52306078,0,3998474,1002.51996,45.23
52427074,0,3998474,1002.55,45.239998
52523546,0,3998474,1002.51996,45.239998
52632132,0,3998474,1002.50995,45.239998
52731557,0,3998474,1002.48,45.239998
52827072,0,3998474,1002.50995,45.25
52936125,0,3998474,1002.54,45.25
53036394,0,3998474,1002.5,45.25
53134018,0,3998474,1002.52997,45.26
53241023,0,3998474,1002.43,45.25
53339910,0,3998474,1002.51996,45.25
53438018,0,3998474,1002.47,45.25
53547719,0,3998474,1002.54,45.26
53647543,0,3998474,1002.55,45.27
53744164,0,3998474,1002.49,45.26
53852018,0,3998474,1002.47,45.27
53950019,0,3998474,1002.54,45.28
54046018,0,3998474,1002.52997,45.27
54155019,0,3998474,1002.5,45.27
54250022,0,3998474,1002.56,45.289997
54347460,0,3998474,1002.55,45.28
54453049,0,3998474,1002.5,45.289997
54562121,0,3998474,1002.50995,45.289997
54648533,0,3998474,1002.51996,45.289997
54766437,0,3998474,1002.57,45.3
54864561,0,3998474,1002.57,45.3
54953018,0,3998474,1002.57996,45.3
55061021,0,3998474,1002.49,45.3
55169144,0,3998474,1002.48,45.3
55257018,0,3998474,1002.52997,45.3
55366489,0,3998474,1002.5,45.309998
55475340,0,3998474,1002.54,45.309998
55560374,0,3998474,1002.56,45.309998
55677023,0,3998474,1002.52997,45.32
55775330,0,3998474,1002.54,45.32
55881332,0,3998474,1002.49,45.32
55977465,0,3998474,1002.52997,45.329998
56073418,0,3998474,1002.5,45.329998
56185146,0,3998474,1002.49,45.329998
56283018,0,3998474,1002.45996,45.34
56381018,0,3998474,1002.47,45.329998
56489021,0,3998474,1002.49,45.34
56586018,0,3998474,1002.44995,45.34
56681027,0,3998474,1002.51996,45.35
56788399,0,3998474,1002.54,45.36
56895019,0,3998474,1002.52997,45.35
56980782,0,3998474,1002.49,45.35
57098018,0,3998474,1002.5,45.36
57193419,0,3998474,1002.52997,45.36
57300539,0,3998474,1002.54,45.36
57398140,0,3998474,1002.56,45.36
57494018,0,3998474,1002.50995,45.37
57601029,0,3998474,1002.5,45.37
57700497,0,3998474,1002.51996,45.37
57796407,0,3998474,1002.48,45.37
57905155,0,3998474,1002.49,45.379997
58004347,0,3998474,1002.50995,45.379997
58100550,0,3998474,1002.50995,45.379997
58210123,0,3998474,1002.57,45.379997
58317026,0,3998474,1002.50995,45.39
58402018,0,3998474,1002.45996,45.39
58519338,0,3998474,1002.52997,45.39
58617022,0,3998474,1002.5,45.399998
58724750,0,3998474,1002.47,45.399998
58820309,0,3998474,1002.5,45.41
58919018,0,3998474,1002.5,45.399998
59025141,0,3998474,1002.56,45.41
59124373,0,3998474,1002.5,45.41
59220416,0,3998474,1002.56,45.42
59327024,0,3998474,1002.5,45.42
59435029,0,3998474,1002.51996,45.42
59521342,0,3998474,1002.49,45.42
59629018,0,3998474,1002.51996,45.43
59735023,0,3998474,1002.50995,45.43
59841061,0,3998474,1002.47,45.43
59937020,0,3998474,1002.56,45.45
60036355,0,3998474,1002.52997,45.44
60142147,0,3998474,1002.5,45.45
60239324,0,3998474,1002.48,45.44
60335023,0,3998474,1002.47,45.46
60444697,0,3998474,1002.48,45.46
60551027,0,3998474,1002.6,45.46
60636351,0,3998474,1002.52997,45.46
60754018,0,3998474,1002.49,45.469997
60849744,0,3998474,1002.50995,45.469997
60959018,0,3998474,1002.51996,45.469997
61057324,0,3998474,1002.52997,45.469997
61153018,0,3998474,1002.5,45.48
61261023,0,3998474,1002.51996,45.469997
61360913,0,3998474,1002.58997,45.489998
61457026,0,3998474,1002.50995,45.48
61566145,0,3998474,1002.50995,45.48
61673021,0,3998474,1002.52997,45.489998
61759353,0,3998474,1002.48,45.5
61869306,0,3998474,1002.55,45.51
61978098,0,3998474,1002.5,45.5
62063068,0,3998474,1002.51996,45.5
62180255,0,3998474,1002.49,45.51
62279032,0,3998474,1002.5,45.51
62385408,0,3998474,1002.49,45.51
62484394,0,3998474,1002.55,45.52
62581018,0,3998474,1002.49,45.52
62671019,0,3998474,1002.54,45.52
62787018,0,3998474,1002.54,45.539997
62883064,0,3998474,1002.55,45.53
62991070,0,3998474,1002.51996,45.539997
63099324,0,3998474,1002.56,45.539997
63186018,0,3998474,1002.50995,45.539997
63292683,0,3998474,1002.51996,45.539997
63401021,0,3998474,1002.55,45.559998
63487325,0,3998474,1002.49,45.559998
63604633,0,3998474,1002.50995,45.559998
63703062,0,3998474,1002.51996,45.559998
63809490,0,3998474,1002.51996,45.57
63905022,0,3998474,1002.56,45.57
64001028,0,3998474,1002.52997,45.57
64110018,0,3998474,1002.48,45.57
64218019,0,3998474,1002.44,45.579998
64305032,0,3998474,1002.52997,45.59
64412574,0,3998474,1002.51996,45.59
64521569,0,3998474,1002.52997,45.6
64609832,0,3998474,1002.51996,45.59
64727029,0,3998474,1002.5,45.59
64823019,0,3998474,1002.56,45.6
64929546,0,3998474,1002.55,45.6
65028510,0,3998474,1002.48,45.61
65124444,0,3998474,1002.57996,45.61
65231034,0,3998474,1002.52997,45.62
65329389,0,3998474,1002.51996,45.62
65426021,0,3998474,1002.54,45.62
65536707,0,3998474,1002.51996,45.62
65633018,0,3998474,1002.51996,45.629997
65728614,0,3998474,1002.51996,45.629997
65845022,0,3998474,1002.50995,45.629997
65941386,0,3998474,1002.44995,45.629997
66028922,0,3998474,1002.51996,45.64
66147350,0,3998474,1002.52997,45.649998
66243034,0,3998474,1002.48,45.649998
66349468,0,3998474,1002.57,45.649998
66447018,0,3998474,1002.54,45.66
66544646,0,3998474,1002.50995,45.649998
66654101,0,3998474,1002.55,45.66
66752523,0,3998474,1002.5,45.66
66848542,0,3998474,1002.51996,45.67
66955334,0,3998474,1002.51996,45.67
67051360,0,3998474,1002.50995,45.68
67147329,0,3998474,1002.51996,45.69
67264365,0,3998474,1002.5,45.69
67359080,0,3998474,1002.52997,45.69
67467018,0,3998474,1002.54,45.7
67573732,0,3998474,1002.54,45.7
67659370,0,3998474,1002.51996,45.7
67776409,0,3998474,1002.6,45.71
67871018,0,3998474,1002.54,45.7
67957824,0,3998474,1002.47,45.71
68074019,0,3998474,1002.48,45.71
68171073,0,3998474,1002.49,45.71
68982019,0,3998474,1002.5,45.739998
69091018,0,3998474,1002.48,45.75
69198182,0,3998474,1002.47,45.75
69283026,0,3998474,1002.50995,45.76
69400557,0,3998474,1002.5,45.76
69502147,0,3998474,1002.54,45.76
69586145,0,3998474,1002.51996,45.76
69707022,0,3998474,1002.49,45.77
69802148,0,3998474,1002.52997,45.78
69889341,0,3998474,1002.51996,45.78
70009026,0,3998474,1002.51996,45.78
70107036,0,3998474,1002.51996,45.789997
70193177,0,3998474,1002.47,45.78
70312411,0,3998474,1002.51996,45.789997
70408536,0,3998474,1002.51996,45.8
70515023,0,3998474,1002.54,45.8
70613636,0,3998474,1002.54,45.8
70711018,0,3998474,1002.55,45.809998
70819338,0,3998474,1002.51996,45.809998
70925163,0,3998474,1002.52997,45.82
71011048,0,3998474,1002.48,45.82
71128406,0,3998474,1002.50995,45.82
71227018,0,3998474,1002.49,45.829998
71333028,0,3998474,1002.45996,45.829998
71429021,0,3998474,1002.38995,45.829998
71526124,0,3998474,1002.45996,45.829998
71632497,0,3998474,1002.41,45.84
71739068,0,3998474,1002.47,45.84
71825029,0,3998474,1002.43,45.85
71934018,0,3998474,1002.45996,45.85
72040374,0,3998474,1002.33997,45.85
72146028,0,3998474,1002.44,45.86
72243327,0,3998474,1002.44,45.86
72339328,0,3998474,1002.38,45.86
72445425,0,3998474,1002.45996,45.87
72553029,0,3998474,1002.45996,45.86
72640204,0,3998474,1002.48,45.86
72751063,0,3998474,1002.45996,45.879997
72860382,0,3998474,1002.56,45.879997
72947035,0,3998474,1002.51996,45.879997
73058156,0,3998474,1002.5,45.879997
73155072,0,3998474,1002.38,45.89
73254346,0,3998474,1002.44,45.89
73363378,0,3998474,1002.54,45.89
73464520,0,3998474,1002.48,45.899998
73565017,0,3998474,1002.49,45.899998
73651019,0,3998474,1002.49,45.899998
73771347,0,3998474,1002.44,45.899998
73869470,0,3998474,1002.42,45.91
73956824,0,3998474,1002.41,45.91
74074117,0,3998474,1002.44,45.92
74171030,0,3998474,1002.57996,45.92
74278018,0,3998474,1002.39996,45.93
74376096,0,3998474,1002.50995,45.93
74476578,0,3998474,1002.43,45.93
74566015,0,3998474,1002.47,45.93
74686018,0,3998474,1002.5,45.94
74786122,0,3998474,1002.47,45.94
74892330,0,3998474,1002.47,45.95
74988062,0,3998474,1002.37,45.95
75084770,0,3998474,1002.44995,45.96
75192515,0,3998474,1002.44995,45.96
75290086,0,3998474,1002.42,45.969997
75386156,0,3998474,1002.44,45.969997
75497327,0,3998474,1002.51996,45.96
75595077,0,3998474,1002.52997,45.969997
75693018,0,3998474,1002.38995,45.98
75800545,0,3998474,1002.39996,45.98
75901351,0,3998474,1002.36,45.98
75999616,0,3998474,1002.6,45.98
76109494,0,3998474,1002.45996,46.0
76207562,0,3998474,1002.50995,45.989998
76304506,0,3998474,1002.43,46.0
76413160,0,3998474,1002.44,46.0
76512696,0,3998474,1002.5,46.0
76609026,0,3998474,1002.45996,46.01
76717328,0,3998474,1002.38,46.01
76813021,0,3998474,1002.45996,46.03
76912415,0,3998474,1002.49,46.02
77018088,0,3998474,1002.38995,46.03
77114077,0,3998474,1002.50995,46.03
77213020,0,3998474,1002.45996,46.03
77319714,0,3998474,1002.50995,46.039997
77427858,0,3998474,1002.51996,46.05
77511695,0,3998474,1002.44995,46.03
77631581,0,3998474,1002.52997,46.05
77729340,0,3998474,1002.52997,46.039997
77815604,0,3998474,1002.49,46.039997
77932114,0,3998474,1002.47,46.05
78028498,0,3998474,1002.39996,46.059998
78134076,0,3998474,1002.42,46.059998
78234024,0,3998474,1002.5,46.07
78330120,0,3998474,1002.48,46.07
78439543,0,3998474,1002.44,46.059998
78537024,0,3998474,1002.41,46.07
78635023,0,3998474,1002.51996,46.07
78744566,0,3998474,1002.51996,46.079998
78839731,0,3998474,1002.49,46.079998
78938018,0,3998474,1002.5,46.09
79046404,0,3998474,1002.48,46.09
79154077,0,3998474,1002.42,46.09
79242110,0,3998474,1002.42,46.1
79351824,0,3998474,1002.52997,46.09
79458034,0,3998474,1002.57996,46.1
79544024,0,3998474,1002.48,46.1
79653151,0,3998474,1002.49,46.1
79759455,0,3998474,1002.42,46.11
79845025,0,3998474,1002.48,46.12
79962018,0,3998474,1002.45996,46.11
80058018,0,3998474,1002.47,46.12
80165018,0,3998474,1002.49,46.12
80271819,0,3998474,1002.44,46.129997
80355559,0,3998474,1002.44995,46.129997
80463602,0,3998474,1002.44995,46.14
80570074,0,3998474,1002.47,46.14
80676215,0,3998474,1002.52997,46.14
80775559,0,3998474,1002.44,46.14
81076393,0,3998474,1002.49,46.16
81173357,0,3998474,1002.43,46.149998
81282019,0,3998474,1002.44,46.16
81377018,0,3998474,1002.49,46.16
81476919,0,3998474,1002.49,46.17
81582115,0,3998474,1002.45996,46.17
81690018,0,3998474,1002.41,46.17
81775573,0,3998474,1002.44995,46.17
81892608,0,3998474,1002.48,46.19
81988881,0,3998474,1002.45996,46.19
82096021,0,3998474,1002.42,46.19
82190123,0,3998474,1002.42,46.19
82287767,0,3998474,1002.43,46.19
82394341,0,3998474,1002.43,46.2
82500133,0,3998474,1002.43,46.21
82588844,0,3998474,1002.36,46.21
82706391,0,3998474,1002.32996,46.21
82802457,0,3998474,1002.44,46.21
82909201,0,3998474,1002.39996,46.21
83004144,0,3998474,1002.42,46.219997
83100396,0,3998474,1002.42,46.219997
83217018,0,3998474,1002.41,46.219997
83314089,0,3998474,1002.41,46.219997
83399561,0,3998474,1002.38,46.23
84423582,0,3998474,1002.36,46.26
84636335,0,3998474,1002.33997,46.25
84743728,0,3998474,1002.44,46.26
84839709,0,3998474,1002.38995,46.26
84934116,0,3998474,1002.44,46.26
85042118,0,3998474,1002.43,46.27
85148203,0,3998474,1002.37,46.27
85233018,0,3998474,1002.44995,46.27
85350118,0,3998474,1002.39996,46.27
85447574,0,3998474,1002.45996,46.27
85554075,0,3998474,1002.44,46.27
85660347,0,3998474,1002.38995,46.28
85746074,0,3998474,1002.44995,46.28
85863605,0,3998474,1002.37,46.28
85959592,0,3998474,1002.50995,46.289997
86047555,0,3998474,1002.44,46.28
86167508,0,3998474,1002.47,46.28
86263594,0,3998474,1002.47,46.289997
86370382,0,3998474,1002.43,46.289997
86476631,0,3998474,1002.49,46.289997
86562394,0,3998474,1002.41,46.3
86679767,0,3998474,1002.49,46.3
86775818,0,3998474,1002.41,46.3
86882078,0,3998474,1002.45996,46.3
86978018,0,3998474,1002.41,46.289997
87074019,0,3998474,1002.45996,46.3
87181018,0,3998474,1002.43,46.3
87288018,0,3998474,1002.49,46.309998
87375598,0,3998474,1002.48,46.309998
87484214,0,3998474,1002.44995,46.309998
87591603,0,3998474,1002.48,46.309998
87677026,0,3998474,1002.41,46.309998
87794078,0,3998474,1002.51996,46.309998
87890025,0,3998474,1002.47,46.309998
87996339,0,3998474,1002.49,46.309998
88092689,0,3998474,1002.47,46.32
88189322,0,3998474,1002.36,46.32
88295580,0,3998474,1002.48,46.32
88402159,0,3998474,1002.44,46.32
88486166,0,3998474,1002.45996,46.32
88604403,0,3998474,1002.43,46.32
88700236,0,3998474,1002.39996,46.32
88807704,0,3998474,1002.47,46.329998
88902115,0,3998474,1002.41,46.329998
88997018,0,3998474,1002.50995,46.329998
89114134,0,3998474,1002.41,46.34
89210081,0,3998474,1002.43,46.34
89317018,0,3998474,1002.38,46.34
89422115,0,3998474,1002.43,46.34
89508292,0,3998474,1002.54,46.34
89626125,0,3998474,1002.45996,46.34
89721024,0,3998474,1002.43,46.34
89828866,0,3998474,1002.45996,46.34
89925161,0,3998474,1002.41,46.34
90020720,0,3998474,1002.42,46.35
90127912,0,3998474,1002.43,46.35
90233018,0,3998474,1002.43,46.35
90320021,0,3998474,1002.43,46.35
90440018,0,3998474,1002.36,46.36
90535432,0,3998474,1002.39996,46.36
90642019,0,3998474,1002.38,46.36
90738018,0,3998474,1002.29,46.36
90834416,0,3998474,1002.39996,46.36
90941298,0,3998474,1002.36,46.36
91047614,0,3998474,1002.3,46.36
91132600,0,3998474,1002.38,46.36
91250077,0,3998474,1002.38,46.37
91346406,0,3998474,1002.36,46.36
91452602,0,3998474,1002.41,46.37
91548185,0,3998474,1002.38995,46.37
91644368,0,3998474,1002.39996,46.37
91762018,0,3998474,1002.38995,46.379997
91858018,0,3998474,1002.42,46.37
91964062,0,3998474,1002.44,46.37
92060498,0,3998474,1002.39996,46.37
92156646,0,3998474,1002.33997,46.37
92274018,0,3998474,1002.33997,46.379997
92370157,0,3998474,1002.38995,46.379997
92476364,0,3998474,1002.37,46.379997
92572783,0,3998474,1002.33997,46.379997
92669030,0,3998474,1002.42,46.39
92774471,0,3998474,1002.39996,46.39
92882388,0,3998474,1002.38995,46.39
92967594,0,3998474,1002.38995,46.399998
93084118,0,3998474,1002.35,46.399998
93181194,0,3998474,1002.37,46.399998
93287709,0,3998474,1002.42,46.399998
93383701,0,3998474,1002.38,46.399998
93480022,0,3998474,1002.33997,46.399998
93596557,0,3998474,1002.36,46.399998
93693145,0,3998474,1002.38,46.41
93780413,0,3998474,1002.35,46.41
93898081,0,3998474,1002.37,46.41
93993018,0,3998474,1002.42,46.41
94100610,0,3998474,1002.39996,46.41
94207452,0,3998474,1002.37,46.41
94292608,0,3998474,1002.38995,46.42
94410104,0,3998474,1002.41,46.42
94506081,0,3998474,1002.33997,46.42
94612046,0,3998474,1002.38995,46.43
94708848,0,3998474,1002.33997,46.42
94805018,0,3998474,1002.41,46.43
94911845,0,3998474,1002.36,46.43
95018384,0,3998474,1002.32996,46.43
95103719,0,3998474,1002.36,46.43
95214018,0,3998474,1002.32,46.43
95322105,0,3998474,1002.44,46.43
95410415,0,3998474,1002.32996,46.44
95528582,0,3998474,1002.3,46.44
95627151,0,3998474,1002.38,46.44
95713022,0,3998474,1002.3,46.44
95833197,0,3998474,1002.38,46.45
95930018,0,3998474,1002.41,46.45
96037033,0,3998474,1002.33997,46.44
96132535,0,3998474,1002.38995,46.45
96231553,0,3998474,1002.32,46.45
96340134,0,3998474,1002.42,46.46
96436130,0,3998474,1002.3,46.45
96533018,0,3998474,1002.37,46.46
96640077,0,3998474,1002.3,46.46
96739912,0,3998474,1002.29,46.46
96839599,0,3998474,1002.25,46.46
96945330,0,3998474,1002.33997,46.48
97046354,0,3998474,1002.26996,46.469997
97145024,0,3998474,1002.25,46.46
97253336,0,3998474,1002.32,46.469997
97347839,0,3998474,1002.23,46.48
97451339,0,3998474,1002.20996,46.469997
97559019,0,3998474,1002.18,46.48
97658018,0,3998474,1002.07996,46.48
97756023,0,3998474,1002.16,46.48
97865022,0,3998474,1002.07996,46.48
97962018,0,3998474,1002.14996,46.489998
98059699,0,3998474,1002.08997,46.489998
98169023,0,3998474,1002.04,46.489998
98267967,0,3998474,1002.05,46.489998
98363811,0,3998474,1002.05,46.5
98471022,0,3998474,1002.01996,46.5
98573050,0,3998474,1002.06,46.5
98672029,0,3998474,1001.98,46.489998
98762319,0,3998474,1001.98,46.5
98871019,0,3998474,1001.94,46.5
98972930,0,3998474,1001.88995,46.489998
99071024,0,3998474,1001.94,46.51
99183018,0,3998474,1001.93,46.51
99280024,0,3998474,1001.87,46.51
99378369,0,3998474,1001.82996,46.52
99486019,0,3998474,1001.77997,46.52
99585018,0,3998474,1001.79,46.52
99682333,0,3998474,1001.73,46.52
99792018,0,3998474,1001.69,46.52
99891810,0,3998474,1001.73,46.53
99990018,0,3998474,1001.83997,46.53
100078018,0,3998474,1001.72,46.53
100199327,0,3998474,1001.68,46.539997
100297030,0,3998474,1001.67,46.53
100383018,0,3998474,1001.63,46.539997
100503022,0,3998474,1001.67,46.539997
100601341,0,3998474,1001.54,46.55
100688042,0,3998474,1001.55,46.539997
100808018,0,3998474,1001.52997,46.539997
100907635,0,3998474,1001.5,46.55
100994290,0,3998474,1001.42,46.539997
101105024,0,3998474,1001.43,46.559998
101205021,0,3998474,1001.44,46.55
101303023,0,3998474,1001.38,46.55
101411702,0,3998474,1001.38,46.559998
101510018,0,3998474,1001.31,46.559998
101606300,0,3998474,1001.24,46.55
101716020,0,3998474,1001.23,46.559998
101826364,0,3998474,1001.23,46.559998
101913023,0,3998474,1001.13995,46.559998
102024018,0,3998474,1001.23,46.559998
102126018,0,3998474,1001.1,46.559998
102227818,0,3998474,1001.14996,46.57
102314018,0,3998474,1001.12,46.559998
102435444,0,3998474,1001.13,46.57
102533018,0,3998474,1001.05,46.57
102620018,0,3998474,1001.04,46.57
102740023,0,3998474,1001.05,46.579998
102836063,0,3998474,1001.07996,46.579998
102945021,0,3998474,1001.07996,46.57
103042482,0,3998474,1001.07996,46.59
103140020,0,3998474,1001.0,46.579998
103250379,0,3998474,1001.13995,46.59
103348540,0,3998474,1001.13995,46.6
103448048,0,3998474,1001.05,46.59
103537144,0,3998474,1001.01996,46.59
103656053,0,3998474,1001.1,46.59
103755455,0,3998474,1001.01996,46.6
103842369,0,3998474,1001.06,46.6
103963317,0,3998474,1001.08997,46.6
104059323,0,3998474,1001.1,46.61
104145048,0,3998474,1001.1,46.6
104267750,0,3998474,1001.14996,46.61
104366366,0,3998474,1001.12,46.61
104454336,0,3998474,1001.07,46.61
104572789,0,3998474,1001.02997,46.61
104669498,0,3998474,1001.07996,46.62
104777048,0,3998474,1001.11,46.62
104876099,0,3998474,1001.07,46.62
104975048,0,3998474,1001.11,46.62
105081052,0,3998474,1001.01996,46.629997
105180087,0,3998474,1001.08997,46.629997
105279052,0,3998474,1001.0,46.629997
105389170,0,3998474,1001.08997,46.629997
105488055,0,3998474,1001.04,46.629997
105587569,0,3998474,1001.07996,46.64
105676066,0,3998474,1001.17,46.649998
105787810,0,3998474,1001.11,46.64
105897376,0,3998474,1001.1,46.64
105985511,0,3998474,1001.02997,46.64
106095392,0,3998474,1001.16,46.649998
106193048,0,3998474,1001.12,46.649998
106292060,0,3998474,1001.08997,46.649998
106403968,0,3998474,1001.1,46.649998
106500073,0,3998474,1001.06,46.649998
106597048,0,3998474,1001.13995,46.649998
106706335,0,3998474,1001.18,46.649998
106804054,0,3998474,1001.13,46.66
106899729,0,3998474,1001.16,46.67
107009048,0,3998474,1001.20996,46.66
107107309,0,3998474,1001.13995,46.67
107206329,0,3998474,1001.19995,46.67
107318440,0,3998474,1001.17,46.67
107417393,0,3998474,1001.1,46.66
107514915,0,3998474,1001.16,46.67
107602329,0,3998474,1001.13995,46.67
107721097,0,3998474,1001.20996,46.67
107819058,0,3998474,1001.29,46.68
107928500,0,3998474,1001.18,46.67
108027337,0,3998474,1001.24,46.68
108126123,0,3998474,1001.20996,46.68
108214332,0,3998474,1001.19995,46.68
108323541,0,3998474,1001.22,46.69
108432057,0,3998474,1001.25,46.69
108520053,0,3998474,1001.24,46.69
108630121,0,3998474,1001.3,46.7
108739748,0,3998474,1001.31,46.7
108834542,0,3998474,1001.23,46.69
108941225,0,3998474,1001.36,46.69
109040043,0,3998474,1001.35,46.7
109141150,0,3998474,1001.35,46.71
109226485,0,3998474,1001.31,46.71
109347043,0,3998474,1001.38,46.7
109448509,0,3998474,1001.36,46.7
109536376,0,3998474,1001.32,46.7
109645997,0,3998474,1001.37,46.719997
111177142,0,3998474,1001.39996,46.739998
111275043,0,3998474,1001.39996,46.739998
111371826,0,3998474,1001.39996,46.75
111490988,0,3998474,1001.48,46.75
111588051,0,3998474,1001.42,46.75
111674457,0,3998474,1001.45996,46.75
111794544,0,3998474,1001.43,46.75
111893059,0,3998474,1001.45996,46.75
111979174,0,3998474,1001.43,46.75
112098929,0,3998474,1001.45996,46.75
112196048,0,3998474,1001.49,46.76
112305048,0,3998474,1001.56,46.76
112406180,0,3998474,1001.44,46.76
112500019,0,3998474,1001.50995,46.75
112596346,0,3998474,1001.50995,46.76
112711029,0,3998474,1001.58997,46.75
112806019,0,3998474,1001.6,46.75
112902307,0,3998474,1001.56,46.76
113012030,0,3998474,1001.63,46.77
113109023,0,3998474,1001.63995,46.77
113208394,0,3998474,1001.63995,46.78
113318161,0,3998474,1001.74,46.77
113419070,0,3998474,1001.63995,46.77
113518575,0,3998474,1001.63995,46.77
113628431,0,3998474,1001.57,46.78
113726035,0,3998474,1001.70996,46.78
113826434,0,3998474,1001.69,46.78
113913019,0,3998474,1001.64996,46.789997
114033022,0,3998474,1001.73,46.78
114129019,0,3998474,1001.70996,46.78
114219123,0,3998474,1001.63995,46.789997
114332394,0,3998474,1001.69995,46.789997
114441070,0,3998474,1001.73,46.789997
114527018,0,3998474,1001.75,46.789997
114637029,0,3998474,1001.75,46.789997
114739045,0,3998474,1001.77997,46.8
114843019,0,3998474,1001.77997,46.789997
114931029,0,3998474,1001.76996,46.8
115052415,0,3998474,1001.79,46.8
115150018,0,3998474,1001.8,46.789997
115237023,0,3998474,1001.79,46.8
115354682,0,3998474,1001.82996,46.809998
115453018,0,3998474,1001.83997,46.809998
115563325,0,3998474,1001.83997,46.809998
115659225,0,3998474,1001.87,46.82
115758110,0,3998474,1001.82,46.809998
115867019,0,3998474,1001.85,46.809998
115964986,0,3998474,1001.79,46.82
116062097,0,3998474,1001.88995,46.829998
116174117,0,3998474,1001.85,46.82
116270018,0,3998474,1001.91,46.82
116368019,0,3998474,1001.92,46.82
116467018,0,3998474,1001.97,46.829998
116576030,0,3998474,1001.91,46.829998
116672018,0,3998474,1001.93,46.829998
116769018,0,3998474,1001.92,46.829998
116878144,0,3998474,1001.91,46.829998
116987074,0,3998474,1001.92,46.84
117075026,0,3998474,1002.02997,46.85
117184244,0,3998474,1002.01996,46.829998
117292018,0,3998474,1002.0,46.84
117375019,0,3998474,1001.94995,46.85
117494491,0,3998474,1002.04,46.86
117593198,0,3998474,1001.99,46.85
117680023,0,3998474,1001.88995,46.85
117798102,0,3998474,1001.97,46.86
117898123,0,3998474,1001.94995,46.86
117984435,0,3998474,1001.95996,46.85
118104018,0,3998474,1001.99,46.85
118203024,0,3998474,1002.01996,46.86
118311267,0,3998474,1002.0,46.86
118409199,0,3998474,1002.04,46.86
118507043,0,3998474,1001.98,46.86
118617182,0,3998474,1001.95996,46.86
118716023,0,3998474,1001.94,46.86
118810018,0,3998474,1001.94,46.86
118906019,0,3998474,1001.94995,46.86
119016186,0,3998474,1001.94995,46.86
119126112,0,3998474,1001.97,46.85
119215414,0,3998474,1001.95996,46.86
119330023,0,3998474,1002.00995,46.85
119429821,0,3998474,1002.05,46.85
119526207,0,3998474,1001.98,46.85
119636036,0,3998474,1001.98,46.86
119735818,0,3998474,1002.0,46.85
119834137,0,3998474,1002.02997,46.85
119922168,0,3998474,1002.01996,46.85
120046146,0,3998474,1002.01996,46.84
120146112,0,3998474,1001.94,46.85
120231303,0,3998474,1001.97,46.85
120351583,0,3998474,1001.99,46.84
120446364,0,3998474,1001.94,46.84
120534155,0,3998474,1002.04,46.85
120647155,0,3998474,1002.04,46.85
120757638,0,3998474,1001.98,46.84
120847581,0,3998474,1002.02997,46.84
120938126,0,3998474,1001.99,46.84
121057184,0,3998474,1001.99,46.829998
121153331,0,3998474,1002.0,46.829998
121263251,0,3998474,1002.04,46.85
121369129,0,3998474,1001.98,46.829998
121463231,0,3998474,1002.04,46.84
121561183,0,3998474,1002.00995,46.84
121674018,0,3998474,1001.97,46.829998
121774097,0,3998474,1001.94,46.829998
121871328,0,3998474,1002.01996,46.84
121978019,0,3998474,1001.98,46.84
122077912,0,3998474,1002.07996,46.84
122175223,0,3998474,1001.99,46.829998
122284031,0,3998474,1002.00995,46.84
122380019,0,3998474,1002.02997,46.85
122477812,0,3998474,1002.13,46.85
122585200,0,3998474,1002.0,46.84
122683018,0,3998474,1002.04,46.84
122782028,0,3998474,1001.97,46.85
122890118,0,3998474,1002.04,46.85
122988122,0,3998474,1002.06,46.85
123084023,0,3998474,1002.01996,46.85
123190393,0,3998474,1002.00995,46.85
123297217,0,3998474,1001.97,46.85
123383018,0,3998474,1002.00995,46.85
123500022,0,3998474,1002.01996,46.84
123596019,0,3998474,1002.07,46.84
123702144,0,3998474,1002.04,46.85
123809053,0,3998474,1002.02997,46.85
123898136,0,3998474,1002.07,46.85
124007326,0,3998474,1002.08997,46.85
124114143,0,3998474,1001.88,46.84
124201335,0,3998474,1002.08997,46.84
124309628,0,3998474,1002.06,46.84
124415018,0,3998474,1001.94,46.85
124521328,0,3998474,1002.06,46.85
124618018,0,3998474,1001.93,46.84
124716097,0,3998474,1002.00995,46.84
124823018,0,3998474,1002.08997,46.85
124919019,0,3998474,1002.00995,46.85
125015018,0,3998474,1002.01996,46.85
125122106,0,3998474,1002.02997,46.86
125228057,0,3998474,1002.04,46.86
125314209,0,3998474,1002.05,46.86
125434110,0,3998474,1002.05,46.87
125529316,0,3998474,1002.06,46.86
125636018,0,3998474,1002.02997,46.86
125734143,0,3998474,1002.05,46.87
125832022,0,3998474,1002.06,46.87
125940596,0,3998474,1002.02997,46.86
126040030,0,3998474,1002.05,46.87
126140019,0,3998474,1001.98,46.86
126229569,0,3998474,1002.07996,46.86
126346325,0,3998474,1002.07,46.87
126441023,0,3998474,1002.00995,46.87
126548522,0,3998474,1002.0,46.87
126644402,0,3998474,1002.07996,46.879997
126742019,0,3998474,1002.04,46.879997
126850304,0,3998474,1002.08997,46.879997
126957074,0,3998474,1002.05,46.879997
127044397,0,3998474,1002.07,46.89
127152988,0,3998474,1002.07,46.879997
127556674,0,3998474,1002.1,46.879997
127652384,0,3998474,1002.11,46.89
127759018,0,3998474,1002.16,46.879997
127868418,0,3998474,1002.11,46.89
127954631,0,3998474,1002.13995,46.89
128063030,0,3998474,1002.17,46.89
128170097,0,3998474,1002.16,46.89
128276389,0,3998474,1002.13,46.899998
128372387,0,3998474,1002.20996,46.899998
128468551,0,3998474,1002.22,46.899998
128577018,0,3998474,1002.19,46.91
128673206,0,3998474,1002.17,46.899998
128769521,0,3998474,1002.22,46.899998
128876382,0,3998474,1002.19995,46.91
128983023,0,3998474,1002.20996,46.91
129069066,0,3998474,1002.25995,46.92
129180525,0,3998474,1002.32,46.92
129287018,0,3998474,1002.17,46.92
129393431,0,3998474,1002.31,46.92
129489319,0,3998474,1002.27997,46.93
129588447,0,3998474,1002.31,46.93
129697023,0,3998474,1002.26996,46.92
129796351,0,3998474,1002.26996,46.92
129892593,0,3998474,1002.19995,46.93
129999021,0,3998474,1002.24,46.93
130105093,0,3998474,1002.20996,46.93
130191070,0,3998474,1002.20996,46.94
130307063,0,3998474,1002.23,46.94
130407362,0,3998474,1002.23,46.95
130513027,0,3998474,1002.16,46.93
130610121,0,3998474,1002.19995,46.94
130705122,0,3998474,1002.13995,46.94
130812380,0,3998474,1002.26996,46.95
130919030,0,3998474,1002.18,46.95
131004830,0,3998474,1002.19,46.94
131122101,0,3998474,1002.17,46.94
131220658,0,3998474,1002.17,46.95
131327079,0,3998474,1002.19995,46.95
131426289,0,3998474,1002.19995,46.94
131523016,0,3998474,1002.22,46.95
131636519,0,3998474,1002.19,46.95
131734107,0,3998474,1002.20996,46.94
131830138,0,3998474,1002.17,46.95
131940375,0,3998474,1002.11,46.95
132036502,0,3998474,1002.16,46.95
132134102,0,3998474,1002.26996,46.96
132853018,0,3998474,1002.22,46.95
132951331,0,3998474,1002.25,46.95
133047059,0,3998474,1002.17,46.95
133154553,0,3998474,1002.19,46.95
133261191,0,3998474,1002.14996,46.95
133349028,0,3998474,1002.22,46.96
133458018,0,3998474,1002.16,46.95
133567324,0,3998474,1002.24,46.96
133674498,0,3998474,1002.26996,46.95
133773046,0,3998474,1002.23,46.95
133870078,0,3998474,1002.23,46.95
133980289,0,3998474,1002.14996,46.95
134079037,0,3998474,1002.18,46.95
134177718,0,3998474,1002.24,46.94
134269031,0,3998474,1002.19995,46.94
134380052,0,3998474,1002.17,46.94
134480709,0,3998474,1002.19,46.94
134577018,0,3998474,1002.07996,46.95
134685018,0,3998474,1002.20996,46.95
134793130,0,3998474,1002.19,46.95
134882018,0,3998474,1002.16,46.94
134988589,0,3998474,1002.19995,46.95
135092252,0,3998474,1002.11,46.94
135199467,0,3998474,1002.18,46.94
135295578,0,3998474,1002.22,46.94
135391842,0,3998474,1002.24,46.94
135498019,0,3998474,1002.17,46.93
135605139,0,3998474,1002.22,46.93
135690021,0,3998474,1002.26996,46.93
135800031,0,3998474,1002.31,46.93
135903609,0,3998474,1002.26996,46.92
135999576,0,3998474,1002.24,46.92
136109018,0,3998474,1002.27997,46.92
136214540,0,3998474,1002.33997,46.93
136300551,0,3998474,1002.29,46.93
136420084,0,3998474,1002.32996,46.93
136517142,0,3998474,1002.31,46.93
136620379,0,3998474,1002.31,46.93
136717029,0,3998474,1002.31,46.93
136813547,0,3998474,1002.33997,46.93
136929118,0,3998474,1002.38995,46.93
137026100,0,3998474,1002.36,46.93
137132621,0,3998474,1002.26996,46.94
137237656,0,3998474,1002.26996,46.93
137322104,0,3998474,1002.32,46.93
137439715,0,3998474,1002.27997,46.94
137535620,0,3998474,1002.35,46.93
137642099,0,3998474,1002.25,46.94
137748104,0,3998474,1002.25995,46.93
137836132,0,3998474,1002.3,46.93
137944048,0,3998474,1002.32,46.93
138049048,0,3998474,1002.26996,46.93
138135746,0,3998474,1002.27997,46.93
138252178,0,3998474,1002.36,46.94
138348406,0,3998474,1002.35,46.94
138452563,0,3998474,1002.38,46.95
138553142,0,3998474,1002.32,46.95
138650120,0,3998474,1002.25,46.93
138756140,0,3998474,1002.33997,46.95
138866058,0,3998474,1002.32996,46.95
138954107,0,3998474,1002.33997,46.95
139061546,0,3998474,1002.3,46.95
139168059,0,3998474,1002.25,46.95
139254171,0,3998474,1002.25995,46.96
139375696,0,3998474,1002.29,46.96
139471616,0,3998474,1002.22,46.95
139578183,0,3998474,1002.29,46.969997
139674098,0,3998474,1002.25,46.96
139770099,0,3998474,1002.19995,46.969997
139876079,0,3998474,1002.25,46.969997
139986106,0,3998474,1002.19995,46.969997
140074110,0,3998474,1002.24,46.969997
140181594,0,3998474,1002.23,46.969997
140289174,0,3998474,1002.20996,46.969997
140375584,0,3998474,1002.19,46.969997
140489449,0,3998474,1002.22,46.969997
140587831,0,3998474,1002.13,46.969997
140695820,0,3998474,1002.19995,46.969997
140794094,0,3998474,1002.20996,46.969997
140893048,0,3998474,1002.19,46.969997
141002374,0,3998474,1002.25995,46.98
141103533,0,3998474,1002.23,46.969997
141199607,0,3998474,1002.20996,46.98
141308067,0,3998474,1002.16,46.98
141407084,0,3998474,1002.17,46.98
141496067,0,3998474,1002.19,46.969997
141595047,0,3998474,1002.23,46.98
141707727,0,3998474,1002.24,46.98
141807043,0,3998474,1002.23,46.98
141906358,0,3998474,1002.19995,46.969997
141997345,0,3998474,1002.22,46.98
142117085,0,3998474,1002.23,46.98
142213371,0,3998474,1002.26996,46.969997
142322371,0,3998474,1002.19995,46.969997
142416048,0,3998474,1002.29,46.98
142529048,0,3998474,1002.26996,46.98
142626386,0,3998474,1002.27997,46.98
142733538,0,3998474,1002.24,46.989998
142821391,0,3998474,1002.23,46.98
142917198,0,3998474,1002.26996,46.98
143037525,0,3998474,1002.20996,46.969997
143142315,0,3998474,1002.20996,46.98
143239059,0,3998474,1002.24,46.98
143346397,0,3998474,1002.20996,46.989998
143447420,0,3998474,1002.3,46.989998
143541177,0,3998474,1002.22,46.989998
143640052,0,3998474,1002.20996,46.98
143736165,0,3998474,1002.20996,46.98
143847048,0,3998474,1002.25,46.98
143948550,0,3998474,1002.20996,46.989998
144045117,0,3998474,1002.25,46.989998
144136154,0,3998474,1002.27997,46.989998
144256061,0,3998474,1002.26996,46.989998
144358384,0,3998474,1002.23,46.98
144455047,0,3998474,1002.24,46.98
145168019,0,3998474,1002.13995,46.98
145687175,0,3998474,1002.04,46.98
145786333,0,3998474,1002.08997,46.98
145893173,0,3998474,1002.08997,46.989998
145986019,0,3998474,1002.04,46.98
146088071,0,3998474,1002.02997,46.989998
146188364,0,3998474,1001.99,46.98
146299709,0,3998474,1001.94995,46.989998
146395651,0,3998474,1001.99,47.0
146494344,0,3998474,1001.93,47.0
146583026,0,3998474,1001.95996,47.0
146695031,0,3998474,1001.94995,47.0
146797327,0,3998474,1001.89996,47.0
146895019,0,3998474,1001.82996,47.0
147004018,0,3998474,1001.94,47.0
147101139,0,3998474,1001.85,47.0
147199023,0,3998474,1001.79,47.01
147309018,0,3998474,1001.8,47.01
147407348,0,3998474,1001.77997,47.01
147505021,0,3998474,1001.68,47.02
147615068,0,3998474,1001.74,47.02
147714148,0,3998474,1001.69995,47.02
147812371,0,3998474,1001.67,47.02
147919041,0,3998474,1001.72,47.03
148016024,0,3998474,1001.62,47.03
148113056,0,3998474,1001.63995,47.03
148222766,0,3998474,1001.56,47.03
148331025,0,3998474,1001.48,47.03
148418039,0,3998474,1001.5,47.02
148527067,0,3998474,1001.48,47.02
148634107,0,3998474,1001.37,47.02
148722154,0,3998474,1001.38,47.03
148832382,0,3998474,1001.38995,47.039997
148930112,0,3998474,1001.35,47.03
149028070,0,3998474,1001.35,47.039997
149138409,0,3998474,1001.32996,47.03
149237031,0,3998474,1001.19,47.03
149334481,0,3998474,1001.19995,47.03
149442129,0,3998474,1001.17,47.02
149552042,0,3998474,1001.1,47.03
149639021,0,3998474,1001.13995,47.03
149753139,0,3998474,1001.07996,47.02
149852380,0,3998474,1001.06,47.03
149954018,0,3998474,1000.95996,47.02
150047020,0,3998474,1000.99,47.01
150156023,0,3998474,1000.95996,47.02
150263127,0,3998474,1000.97,47.02
150350552,0,3998474,1000.92,47.02
150458018,0,3998474,1000.91,47.01
150566506,0,3998474,1000.94995,47.02
150654752,0,3998474,1000.89996,47.03
150775575,0,3998474,1000.89996,47.03
150874119,0,3998474,1000.86,47.02
150961021,0,3998474,1000.94,47.03
151071365,0,3998474,1000.93,47.03
151175018,0,3998474,1000.93,47.03
151274023,0,3998474,1000.91,47.03
151383088,0,3998474,1000.98,47.03
151482148,0,3998474,1000.95996,47.039997
151580018,0,3998474,1000.92,47.039997
151674143,0,3998474,1000.83997,47.05
151786019,0,3998474,1000.98,47.039997
151887325,0,3998474,1000.97,47.039997
151986108,0,3998474,1000.99,47.039997
152073070,0,3998474,1000.92,47.05
152194100,0,3998474,1000.95996,47.05
152290158,0,3998474,1000.98,47.05
152378446,0,3998474,1000.93,47.05
152498102,0,3998474,1000.91,47.05
152596018,0,3998474,1000.99,47.05
152682256,0,3998474,1000.94,47.059998
152794122,0,3998474,1000.98,47.059998
152901023,0,3998474,1000.98,47.059998
152986018,0,3998474,1001.0,47.05
153107019,0,3998474,1000.94,47.059998
153205030,0,3998474,1001.0,47.059998
153314019,0,3998474,1000.94,47.059998
153415001,0,3998474,1001.04,47.059998
153514111,0,3998474,1001.01996,47.059998
153602018,0,3998474,1001.00995,47.07
153711061,0,3998474,1000.99,47.059998
153819018,0,3998474,1001.00995,47.07
153906038,0,3998474,1000.97,47.059998
154022539,0,3998474,1001.1,47.07
154122018,0,3998474,1001.00995,47.07
154228019,0,3998474,1001.08997,47.079998
154326128,0,3998474,1001.1,47.07
154425306,0,3998474,1001.06,47.07
154533333,0,3998474,1001.12,47.07
154630018,0,3998474,1001.1,47.079998
154726151,0,3998474,1001.07996,47.079998
154834130,0,3998474,1001.05,47.07
154931064,0,3998474,1001.07996,47.07
155027029,0,3998474,1001.13995,47.07
155137256,0,3998474,1001.19995,47.079998
155235064,0,3998474,1001.14996,47.07
155334019,0,3998474,1001.13995,47.07
155441025,0,3998474,1001.26996,47.079998
155540018,0,3998474,1001.16,47.079998
155638153,0,3998474,1001.18,47.079998
155745394,0,3998474,1001.23,47.079998
155852063,0,3998474,1001.27997,47.079998
155938028,0,3998474,1001.26996,47.079998
156049174,0,3998474,1001.25,47.079998
156158149,0,3998474,1001.24,47.079998
156246260,0,3998474,1001.3,47.09
156364365,0,3998474,1001.3,47.079998
156460023,0,3998474,1001.29,47.079998
156567115,0,3998474,1001.33997,47.09
156667024,0,3998474,1001.33997,47.079998
156764023,0,3998474,1001.32,47.079998
156874108,0,3998474,1001.38,47.079998
156972389,0,3998474,1001.38995,47.09
157070024,0,3998474,1001.38,47.09
157177051,0,3998474,1001.39996,47.09
157274102,0,3998474,1001.45996,47.079998
157374574,0,3998474,1001.39996,47.079998
157484029,0,3998474,1001.36,47.09
157590314,0,3998474,1001.47,47.09
157675024,0,3998474,1001.38995,47.09
157782790,0,3998474,1001.5,47.09
157892023,0,3998474,1001.44995,47.09
157977146,0,3998474,1001.5,47.09
158094148,0,3998474,1001.5,47.09
158193612,0,3998474,1001.48,47.079998
158279035,0,3998474,1001.44995,47.079998
158401132,0,3998474,1001.54,47.09
158498127,0,3998474,1001.54,47.079998
158584118,0,3998474,1001.61,47.09
158703025,0,3998474,1001.62,47.09
158801162,0,3998474,1001.55,47.09
158910019,0,3998474,1001.61,47.079998
159006019,0,3998474,1001.66,47.079998
159102211,0,3998474,1001.67,47.09
159212050,0,3998474,1001.68,47.09
159307018,0,3998474,1001.69,47.09
159404019,0,3998474,1001.64996,47.09
159512070,0,3998474,1001.67,47.09
159618167,0,3998474,1001.68,47.09
159705018,0,3998474,1001.63,47.1
159812018,0,3998474,1001.72,47.09
159920508,0,3998474,1001.72,47.1
160006143,0,3998474,1001.75,47.1
160117021,0,3998474,1001.76996,47.09
160224509,0,3998474,1001.77997,47.1
160310752,0,3998474,1001.76996,47.1
160422018,0,3998474,1001.76996,47.09
160527030,0,3998474,1001.72,47.1
160614018,0,3998474,1001.77997,47.1
160733191,0,3998474,1001.81,47.1
160829666,0,3998474,1001.83997,47.11
160917166,0,3998474,1001.87,47.1
161035019,0,3998474,1001.83997,47.1
161131067,0,3998474,1001.74,47.1
161241030,0,3998474,1001.83997,47.1
161337018,0,3998474,1001.76996,47.1
161430256,0,3998474,1001.75995,47.11
161549170,0,3998474,1001.75,47.1
161646636,0,3998474,1001.72,47.11
161754160,0,3998474,1001.82996,47.1
161851060,0,3998474,1001.75995,47.11
161949454,0,3998474,1001.70996,47.1
162056540,0,3998474,1001.73,47.09
162153018,0,3998474,1001.74,47.1
162253215,0,3998474,1001.72,47.1
162344555,0,3998474,1001.69995,47.09
162462935,0,3998474,1001.75,47.079998
162562019,0,3998474,1001.67,47.079998
162667019,0,3998474,1001.74,47.07
162769041,0,3998474,1001.69995,47.059998
162861157,0,3998474,1001.66,47.05
162958105,0,3998474,1001.73,47.05
163078768,0,3998474,1001.68,47.039997
163176360,0,3998474,1001.74,47.03
163264377,0,3998474,1001.68,47.01
163383091,0,3998474,1001.74,47.0
163480397,0,3998474,1001.66,46.989998
163586141,0,3998474,1001.69,46.98
163686813,0,3998474,1001.75,46.969997
163785018,0,3998474,1001.63995,46.96
163891019,0,3998474,1001.8,46.95
164696396,0,3998474,1001.8,46.899998
164786127,0,3998474,1001.82,46.899998
164909023,0,3998474,1001.83997,46.89
165000354,0,3998474,1001.82996,46.89
165097018,0,3998474,1001.88995,46.89
165208409,0,3998474,1001.83997,46.89
165304369,0,3998474,1001.82,46.89
165403019,0,3998474,1001.8,46.89
165512023,0,3998474,1001.82996,46.899998
165618178,0,3998474,1001.85,46.91
165703021,0,3998474,1001.82996,46.91
165820167,0,3998474,1001.86,46.899998
165917682,0,3998474,1001.74,46.899998
166024042,0,3998474,1001.82,46.89
166123260,0,3998474,1001.83997,46.89
166218116,0,3998474,1001.81,46.879997
166324550,0,3998474,1001.85,46.87
166430077,0,3998474,1001.86,46.87
166517018,0,3998474,1001.8,46.86
166623587,0,3998474,1001.85,46.86
166730044,0,3998474,1001.82,46.85
166817363,0,3998474,1001.81,46.84
166936018,0,3998474,1001.76996,46.829998
167032042,0,3998474,1001.82,46.829998
167137018,0,3998474,1001.82996,46.829998
167236547,0,3998474,1001.88,46.82
167330019,0,3998474,1001.87,46.82
167436504,0,3998474,1001.83997,46.82
167543743,0,3998474,1001.81,46.829998
167628138,0,3998474,1001.85,46.82
167748386,0,3998474,1001.86,46.829998
167844610,0,3998474,1001.88995,46.84
167951620,0,3998474,1001.88,46.84
168047589,0,3998474,1001.82996,46.85
168143591,0,3998474,1001.82,46.85
168247600,0,3998474,1001.86,46.86
168354362,0,3998474,1001.82996,46.86
168442120,0,3998474,1001.88,46.87
168556366,0,3998474,1001.87,46.879997
168653018,0,3998474,1001.94,46.879997
168759543,0,3998474,1001.88995,46.879997
168857124,0,3998474,1001.88995,46.899998
168953028,0,3998474,1001.85,46.899998
169063552,0,3998474,1001.87,46.899998
169173051,0,3998474,1001.88995,46.899998
169261764,0,3998474,1001.92,46.91
169367555,0,3998474,1001.87,46.91
169474393,0,3998474,1001.88,46.91
169580335,0,3998474,1001.91,46.92
169677018,0,3998474,1001.91,46.93
169773192,0,3998474,1001.87,46.92
169876513,0,3998474,1001.87,46.93
169983615,0,3998474,1001.83997,46.94
170090450,0,3998474,1001.82996,46.94
170186400,0,3998474,1001.89996,46.94
170282420,0,3998474,1001.86,46.95
170388539,0,3998474,1001.88995,46.95
170489049,0,3998474,1001.87,46.95
170588526,0,3998474,1001.89996,46.95
170695613,0,3998474,1001.97,46.95
170797557,0,3998474,1001.92,46.96
170894074,0,3998474,1001.88995,46.96
170999922,0,3998474,1001.88995,46.95
171109052,0,3998474,1001.88995,46.96
171196049,0,3998474,1001.88995,46.96
171306369,0,3998474,1001.86,46.96
171405719,0,3998474,1001.88995,46.96
171503603,0,3998474,1001.94995,46.969997
171616062,0,3998474,1001.93,46.969997
171713167,0,3998474,1001.88995,46.969997
171807050,0,3998474,1001.98,46.98
171920051,0,3998474,1001.95996,46.96
172028777,0,3998474,1001.95996,46.969997
172116067,0,3998474,1001.93,46.969997
172232052,0,3998474,1001.94,46.969997
172331308,0,3998474,1002.00995,46.969997
172430403,0,3998474,1002.02997,46.98
172516021,0,3998474,1002.0,46.98
172632100,0,3998474,1002.0,46.98
172742015,0,3998474,1002.08997,46.969997
172843824,0,3998474,1002.0,46.98
172931808,0,3998474,1001.99,46.98
173040048,0,3998474,1002.1,46.989998
173150431,0,3998474,1002.01996,46.989998
173235851,0,3998474,1002.05,46.98
173344048,0,3998474,1002.12,47.0
173454396,0,3998474,1001.97,46.989998
173542050,0,3998474,1002.08997,47.0
173651455,0,3998474,1002.13,47.0
173750400,0,3998474,1002.12,46.989998
174058393,0,3998474,1002.02997,47.01
174157363,0,3998474,1002.1,47.0
174249524,0,3998474,1002.19,47.01
174370057,0,3998474,1002.12,47.0
174473390,0,3998474,1002.08997,47.0
174558973,0,3998474,1002.11,47.01
174668048,0,3998474,1002.14996,47.01
174767054,0,3998474,1002.22,47.01
174865067,0,3998474,1002.17,47.01
174975136,0,3998474,1002.23,47.01
175075782,0,3998474,1002.22,47.01
175175092,0,3998474,1002.25,47.01
175284268,0,3998474,1002.3,47.01
175382056,0,3998474,1002.23,47.01
175481406,0,3998474,1002.22,47.01
175569402,0,3998474,1002.25,47.01
175689193,0,3998474,1002.26996,47.01
175786361,0,3998474,1002.20996,47.02
175894484,0,3998474,1002.26996,47.02
175991044,0,3998474,1002.22,47.02
176090380,0,3998474,1002.19,47.02
176199400,0,3998474,1002.27997,47.02
177091058,0,3998474,1002.25,47.03
177214122,0,3998474,1002.20996,47.03
177310173,0,3998474,1002.17,47.03
177398968,0,3998474,1002.20996,47.039997
177518766,0,3998474,1002.22,47.03
177616059,0,3998474,1002.20996,47.03
177704088,0,3998474,1002.20996,47.03
177816047,0,3998474,1002.19995,47.02
177914167,0,3998474,1002.23,47.03
178013052,0,3998474,1002.16,47.03
178120053,0,3998474,1002.24,47.02
178226190,0,3998474,1002.16,47.02
178320048,0,3998474,1002.18,47.02
178430985,0,3998474,1002.19,47.02
178528048,0,3998474,1002.17,47.02
178627047,0,3998474,1002.22,47.02
178743093,0,3998474,1002.19,47.01
178840043,0,3998474,1002.16,47.01
178938174,0,3998474,1002.19995,47.01
179032598,0,3998474,1002.19,47.0
179147048,0,3998474,1002.25,47.0
179246512,0,3998474,1002.26996,47.0
179349180,0,3998474,1002.24,47.0
179438521,0,3998474,1002.18,46.989998
179552056,0,3998474,1002.24,46.989998
179650178,0,3998474,1002.23,47.0
179747053,0,3998474,1002.25995,46.989998
179858135,0,3998474,1002.23,47.0
179955047,0,3998474,1002.19,46.989998
180054645,0,3998474,1002.19,47.0
180167028,0,3998474,1002.25,46.989998
180267061,0,3998474,1002.27997,46.989998
180363048,0,3998474,1002.26996,46.989998
180475059,0,3998474,1002.22,47.0
180571104,0,3998474,1002.23,47.0
180680161,0,3998474,1002.29,46.98
180778127,0,3998474,1002.26996,46.989998
180867059,0,3998474,1002.31,46.989998
180981036,0,3998474,1002.24,46.989998
181091053,0,3998474,1002.27997,47.0
181186176,0,3998474,1002.26996,47.0
181275059,0,3998474,1002.35,46.989998
181395055,0,3998474,1002.27997,47.0
181494601,0,3998474,1002.29,47.0
181586101,0,3998474,1002.26996,47.0
181698114,0,3998474,1002.27997,46.989998
181808107,0,3998474,1002.32996,47.0
181899018,0,3998474,1002.35,47.0
182006198,0,3998474,1002.32,47.01
182104107,0,3998474,1002.32996,47.01
182203975,0,3998474,1002.25,47.01
182311213,0,3998474,1002.32,47.01
182414144,0,3998474,1002.32,47.01
182515019,0,3998474,1002.26996,47.0
182606033,0,3998474,1002.32,47.01
182728019,0,3998474,1002.29,47.01
182824034,0,3998474,1002.26996,47.01
182931030,0,3998474,1002.31,47.01
183029054,0,3998474,1002.26996,47.01
183125180,0,3998474,1002.25,47.02
183235022,0,3998474,1002.24,47.01
183330451,0,3998474,1002.33997,47.02
183429215,0,3998474,1002.25,47.02
183538104,0,3998474,1002.27997,47.03
183634376,0,3998474,1002.27997,47.02
183731023,0,3998474,1002.26996,47.02
183837189,0,3998474,1002.31,47.02
183946307,0,3998474,1002.26996,47.02
184032351,0,3998474,1002.25995,47.02
184141235,0,3998474,1002.20996,47.02
184247018,0,3998474,1002.26996,47.02
184354141,0,3998474,1002.25995,47.03
184453422,0,3998474,1002.24,47.02
184548029,0,3998474,1002.19995,47.03
184658291,0,3998474,1002.25995,47.02
184758107,0,3998474,1002.23,47.02
184854182,0,3998474,1002.26996,47.03
184947055,0,3998474,1002.32,47.03
185056018,0,3998474,1002.27997,47.02
185163370,0,3998474,1002.23,47.01
185259029,0,3998474,1002.22,47.01
185350162,0,3998474,1002.26996,47.02
185471023,0,3998474,1002.26996,47.01
185572384,0,3998474,1002.3,47.01
185679019,0,3998474,1002.24,47.01
185779915,0,3998474,1002.22,47.01
185875540,0,3998474,1002.20996,47.01
185983352,0,3998474,1002.25995,47.01
186083041,0,3998474,1002.31,47.01
186179346,0,3998474,1002.23,47.01
186285139,0,3998474,1002.31,47.01
186389051,0,3998474,1002.3,47.02
186488018,0,3998474,1002.25,47.0
186579989,0,3998474,1002.26996,47.01
186694109,0,3998474,1002.29,47.01
186794097,0,3998474,1002.29,47.01
186891111,0,3998474,1002.25995,47.01
186998019,0,3998474,1002.32,47.01
187096362,0,3998474,1002.25,47.01
187196046,0,3998474,1002.29,47.01
187302334,0,3998474,1002.31,47.02
187399057,0,3998474,1002.25,47.01
187497018,0,3998474,1002.23,47.0
187605417,0,3998474,1002.20996,47.01
187702019,0,3998474,1002.25,47.0
187798018,0,3998474,1002.24,47.01
187918603,0,3998474,1002.19,47.01
188014476,0,3998474,1002.25995,47.0
188122099,0,3998474,1002.19995,46.98
188219325,0,3998474,1002.26996,46.98
188315355,0,3998474,1002.17,46.969997
188424527,0,3998474,1002.23,46.95
188521031,0,3998474,1002.18,46.94
188616426,0,3998474,1002.19995,46.91
188734528,0,3998474,1002.18,46.879997
188830806,0,3998474,1002.16,46.86
188937018,0,3998474,1002.19,46.829998
189033071,0,3998474,1002.11,46.809998
189137023,0,3998474,1002.14996,46.789997
189227026,0,3998474,1002.12,46.76
189336254,0,3998474,1002.17,46.75
189443377,0,3998474,1002.1,46.739998
189550436,0,3998474,1002.07,46.73
189647322,0,3998474,1002.01996,46.73
189744520,0,3998474,1002.19,46.719997
189851019,0,3998474,1002.05,46.719997
189957374,0,3998474,1002.13995,46.719997
190043019,0,3998474,1002.00995,46.719997
190150440,0,3998474,1002.07,46.719997
190255439,0,3998474,1002.13,46.71
190344388,0,3998474,1002.11,46.71
190462018,0,3998474,1002.12,46.68
190557608,0,3998474,1002.14996,46.66
190665019,0,3998474,1002.14996,46.649998
190766504,0,3998474,1002.19,46.62
190864513,0,3998474,1002.17,46.59
190975415,0,3998474,1002.18,46.579998
191075019,0,3998474,1002.17,46.559998
191171018,0,3998474,1002.25,46.539997
191259073,0,3998474,1002.18,46.539997
191376278,0,3998474,1002.19995,46.539997
191471437,0,3998474,1002.18,46.52
191579380,0,3998474,1002.26996,46.53
191686419,0,3998474,1002.18,46.52
191771019,0,3998474,1002.24,46.51
191888593,0,3998474,1002.26996,46.52
191985048,0,3998474,1002.20996,46.53
192074152,0,3998474,1002.25995,46.53
192183451,0,3998474,1002.25,46.53
192295097,0,3998474,1002.29,46.53
192385048,0,3998474,1002.25995,46.52
192492207,0,3998474,1002.25995,46.53
192602059,0,3998474,1002.20996,46.539997
192688047,0,3998474,1002.14996,46.53
192805049,0,3998474,1002.18,46.539997
192902334,0,3998474,1002.13995,46.539997
192991049,0,3998474,1002.23,46.55
193110110,0,3998474,1002.12,46.55
193207608,0,3998474,1002.07996,46.559998
193293598,0,3998474,1002.17,46.57
193410154,0,3998474,1002.1,46.57
193506154,0,3998474,1002.1,46.579998
193613552,0,3998474,1002.05,46.6
193719703,0,3998474,1002.05,46.6
193804545,0,3998474,1002.07,46.61
193922095,0,3998474,1002.08997,46.62
194017058,0,3998474,1002.16,46.629997
194124197,0,3998474,1002.19,46.64
194221043,0,3998474,1002.22,46.649998
194319834,0,3998474,1002.1,46.649998
194436544,0,3998474,1002.14996,46.66
194535696,0,3998474,1002.20996,46.67
194620154,0,3998474,1002.06,46.67
194738102,0,3998474,1002.14996,46.67
194834130,0,3998474,1002.12,46.69
194940129,0,3998474,1002.19,46.69
195047705,0,3998474,1002.13,46.69
195132094,0,3998474,1002.08997,46.7
195250175,0,3998474,1002.06,46.69
195348111,0,3998474,1002.07996,46.69
195455713,0,3998474,1002.14996,46.7
195551719,0,3998474,1002.14996,46.7
195650099,0,3998474,1002.12,46.7
196367609,0,3998474,1002.14996,46.73
196463618,0,3998474,1002.13995,46.73
196567721,0,3998474,1002.19995,46.73
196674099,0,3998474,1002.17,46.739998
196759694,0,3998474,1002.14996,46.73
196871583,0,3998474,1002.11,46.739998
196978107,0,3998474,1002.13995,46.76
197084131,0,3998474,1002.19,46.76
197180343,0,3998474,1002.1,46.77
197276240,0,3998474,1002.17,46.77
197383771,0,3998474,1002.07,46.78
197494908,0,3998474,1002.12,46.78
197589855,0,3998474,1002.13995,46.789997
197695030,0,3998474,1002.16,46.78
197794440,0,3998474,1002.11,46.8
197892646,0,3998474,1002.14996,46.8
198001018,0,3998474,1002.20996,46.8
198110371,0,3998474,1002.16,46.809998
198197026,0,3998474,1002.17,46.82
198292691,0,3998474,1002.22,46.8
198413192,0,3998474,1002.13995,46.809998
198509522,0,3998474,1002.17,46.82
198610376,0,3998474,1002.19995,46.82
198717311,0,3998474,1002.25,46.82
198813480,0,3998474,1002.20996,46.829998
198920079,0,3998474,1002.26996,46.82
199020748,0,3998474,1002.19,46.82
199106388,0,3998474,1002.14996,46.829998
199216018,0,3998474,1002.24,46.829998
199320031,0,3998474,1002.19,46.829998
199416022,0,3998474,1002.25995,46.829998
199528397,0,3998474,1002.19995,46.829998
199628018,0,3998474,1002.13995,46.82
199720023,0,3998474,1002.22,46.829998
199829584,0,3998474,1002.14996,46.82
199925293,0,3998474,1002.19,46.82
200021202,0,3998474,1002.17,46.82
200133685,0,3998474,1002.14996,46.82
200240041,0,3998474,1002.16,46.809998
200335022,0,3998474,1002.13,46.809998
200441361,0,3998474,1002.13,46.8
200527029,0,3998474,1002.11,46.8
200640023,0,3998474,1002.13,46.809998
200749229,0,3998474,1002.08997,46.8
200845480,0,3998474,1002.12,46.8
200941371,0,3998474,1002.14996,46.789997
201050018,0,3998474,1002.13995,46.789997
201160036,0,3998474,1002.18,46.789997
201256031,0,3998474,1002.1,46.789997
201352022,0,3998474,1002.1,46.78
201448018,0,3998474,1002.16,46.78
201559023,0,3998474,1002.16,46.78
201664018,0,3998474,1002.00995,46.78
201764758,0,3998474,1002.08997,46.78
201855023,0,3998474,1002.05,46.77
201972875,0,3998474,1002.07996,46.77
202068734,0,3998474,1002.04,46.78
202175057,0,3998474,1001.98,46.77
202271117,0,3998474,1001.91,46.77
202367059,0,3998474,1001.94,46.76
202481048,0,3998474,1001.88995,46.76
202580380,0,3998474,1001.88,46.76
202680428,0,3998474,1001.76996,46.75
202789619,0,3998474,1001.75995,46.75
202887311,0,3998474,1001.81,46.75
202990040,0,3998474,1001.75995,46.739998
203079406,0,3998474,1001.70996,46.739998
203175378,0,3998474,1001.8,46.73
203288060,0,3998474,1001.75995,46.739998
203388042,0,3998474,1001.76996,46.739998
203489284,0,3998474,1001.76996,46.75
203580048,0,3998474,1001.73,46.739998
203698147,0,3998474,1001.75,46.75
203795052,0,3998474,1001.74,46.76
203903374,0,3998474,1001.70996,46.76
204001146,0,3998474,1001.76996,46.77
204101052,0,3998474,1001.64996,46.77
204210136,0,3998474,1001.86,46.78
204307088,0,3998474,1001.76996,46.77
204407872,0,3998474,1001.68,46.77
204499048,0,3998474,1001.72,46.77
204608140,0,3998474,1001.83997,46.78
204706194,0,3998474,1001.81,46.78
204803048,0,3998474,1001.67,46.789997
204914332,0,3998474,1001.85,46.789997
205013044,0,3998474,1001.77997,46.8
205112058,0,3998474,1001.75995,46.789997
205221141,0,3998474,1001.75995,46.8
205322215,0,3998474,1001.8,46.8
205420059,0,3998474,1001.85,46.8
205531059,0,3998474,1001.81,46.809998
205632043,0,3998474,1001.79,46.809998
205731034,0,3998474,1001.85,46.809998
205835061,0,3998474,1001.79,46.82
205930166,0,3998474,1001.92,46.82
206040732,0,3998474,1001.88,46.829998
206131031,0,3998474,1001.83997,46.829998
206242137,0,3998474,1001.82,46.829998
206339076,0,3998474,1001.86,46.829998
206438816,0,3998474,1001.88,46.84
206539031,0,3998474,1001.88995,46.84
206635031,0,3998474,1001.88,46.84
206751955,0,3998474,1001.93,46.84
206848124,0,3998474,1001.88,46.85
206945137,0,3998474,1001.95996,46.85
207053023,0,3998474,1001.94,46.85
207152025,0,3998474,1001.83997,46.85
207249148,0,3998474,1001.91,46.85
207367801,0,3998474,1001.95996,46.86
207464029,0,3998474,1002.0,46.85
207571042,0,3998474,1001.98,46.86
207672043,0,3998474,1001.97,46.86
207768803,0,3998474,1002.00995,46.87
207857181,0,3998474,1001.97,46.86
207975778,0,3998474,1002.01996,46.86
208999094,0,3998474,1002.05,46.84
209086508,0,3998474,1002.01996,46.829998
209195048,0,3998474,1002.00995,46.829998
209304401,0,3998474,1002.05,46.829998
209394436,0,3998474,1002.07,46.82
209508499,0,3998474,1002.11,46.809998
209607043,0,3998474,1002.05,46.82
209706059,0,3998474,1002.02997,46.809998
209798136,0,3998474,1001.94995,46.8
209911056,0,3998474,1002.00995,46.8
210015555,0,3998474,1002.08997,46.789997
210115049,0,3998474,1002.04,46.78
210221052,0,3998474,1002.13,46.78
210319736,0,3998474,1002.06,46.77
210418415,0,3998474,1002.16,46.76
210508047,0,3998474,1002.08997,46.76
210620405,0,3998474,1002.16,46.739998
210722151,0,3998474,1002.08997,46.73
210826362,0,3998474,1002.07,46.73
210922149,0,3998474,1002.1,46.719997
211031792,0,3998474,1002.07,46.71
211130118,0,3998474,1002.12,46.71
211228051,0,3998474,1002.04,46.71
211339078,0,3998474,1002.06,46.7
211442180,0,3998474,1002.11,46.7
211542782,0,3998474,1002.07996,46.69
211628053,0,3998474,1002.07,46.69
211746178,0,3998474,1002.02997,46.69
211847118,0,3998474,1002.08997,46.69
211938123,0,3998474,1002.1,46.68
212047252,0,3998474,1002.12,46.68
212146119,0,3998474,1002.17,46.68
212244051,0,3998474,1002.06,46.67
212354148,0,3998474,1002.05,46.67
212450215,0,3998474,1002.07,46.67
212549668,0,3998474,1002.13,46.67
212658522,0,3998474,1002.14996,46.67
212753207,0,3998474,1002.13,46.67
212852059,0,3998474,1002.12,46.67
212959058,0,3998474,1002.11,46.66
213065297,0,3998474,1002.13995,46.66
213150124,0,3998474,1002.05,46.66
213269809,0,3998474,1002.06,46.649998
213367052,0,3998474,1002.14996,46.66
213454163,0,3998474,1002.01996,46.649998
213565928,0,3998474,1002.02997,46.649998
213673213,0,3998474,1001.95996,46.64
213761372,0,3998474,1002.07996,46.64
213882130,0,3998474,1002.01996,46.64
213983094,0,3998474,1002.04,46.62
214070124,0,3998474,1001.99,46.629997
214179107,0,3998474,1002.07,46.62
214286128,0,3998474,1002.05,46.62
214374127,0,3998474,1002.02997,46.62
214484354,0,3998474,1002.02997,46.61
214583295,0,3998474,1002.01996,46.61
214682483,0,3998474,1002.07996,46.61
214798121,0,3998474,1002.01996,46.6
214897326,0,3998474,1002.04,46.6
215003058,0,3998474,1002.12,46.6
215102210,0,3998474,1002.08997,46.6
215199090,0,3998474,1002.06,46.59
215307048,0,3998474,1002.0,46.59
215405681,0,3998474,1002.08997,46.579998
215505395,0,3998474,1002.06,46.579998
215594161,0,3998474,1002.07,46.579998
215713492,0,3998474,1002.07996,46.579998
215811406,0,3998474,1002.1,46.57
215896586,0,3998474,1002.1,46.57
216016406,0,3998474,1002.08997,46.57
216113055,0,3998474,1002.1,46.559998
216219048,0,3998474,1002.04,46.559998
216318130,0,3998474,1002.13995,46.559998
216414154,0,3998474,1002.08997,46.559998
216520680,0,3998474,1002.08997,46.559998
216627101,0,3998474,1002.13995,46.559998
216713048,0,3998474,1002.17,46.55
216829164,0,3998474,1002.08997,46.55
216926161,0,3998474,1002.12,46.55
217032542,0,3998474,1002.17,46.55
217131099,0,3998474,1002.22,46.55
217227047,0,3998474,1002.08997,46.539997
217334134,0,3998474,1002.20996,46.539997
217440522,0,3998474,1002.14996,46.53
217525419,0,3998474,1002.13995,46.53
217643366,0,3998474,1002.13,46.53
217739366,0,3998474,1002.17,46.53
217845178,0,3998474,1002.25995,46.52
217941384,0,3998474,1002.19,46.53
218040508,0,3998474,1002.22,46.53
218157053,0,3998474,1002.29,46.52
218256529,0,3998474,1002.19995,46.52
218343047,0,3998474,1002.23,46.52
218454190,0,3998474,1002.29,46.52
218560604,0,3998474,1002.26996,46.51
218645539,0,3998474,1002.3,46.5
218763349,0,3998474,1002.3,46.51
218861487,0,3998474,1002.25,46.51
218968705,0,3998474,1002.29,46.51
219064537,0,3998474,1002.32996,46.51
219160394,0,3998474,1002.32,46.51
219267104,0,3998474,1002.3,46.5
219373779,0,3998474,1002.23,46.51
219459055,0,3998474,1002.31,46.5
219576368,0,3998474,1002.33997,46.5
219672531,0,3998474,1002.25995,46.5
219781419,0,3998474,1002.36,46.489998
219877049,0,3998474,1002.36,46.489998
219976398,0,3998474,1002.25,46.489998
220083047,0,3998474,1002.31,46.489998
220189374,0,3998474,1002.29,46.489998
220275059,0,3998474,1002.37,46.489998
220385052,0,3998474,1002.36,46.489998
220493048,0,3998474,1002.32,46.48
220578111,0,3998474,1002.37,46.48
220687950,0,3998474,1002.32996,46.48
220796404,0,3998474,1002.25,46.469997
220881048,0,3998474,1002.32,46.48
221001043,0,3998474,1002.29,46.469997
221098141,0,3998474,1002.33997,46.469997
221204416,0,3998474,1002.3,46.469997
221300617,0,3998474,1002.27997,46.469997
221396107,0,3998474,1002.29,46.469997
221504119,0,3998474,1002.32996,46.469997
221604589,0,3998474,1002.27997,46.46
221700383,0,3998474,1002.3,46.46
221807766,0,3998474,1002.31,46.46
221913144,0,3998474,1002.26996,46.46
221999594,0,3998474,1002.29,46.46
222116279,0,3998474,1002.29,46.45
222212356,0,3998474,1002.32996,46.45
222319750,0,3998474,1002.22,46.45
222415583,0,3998474,1002.32996,46.44
222511945,0,3998474,1002.32,46.44
222621140,0,3998474,1002.29,46.43
222727760,0,3998474,1002.26996,46.43
222815728,0,3998474,1002.25,46.43
222927966,0,3998474,1002.3,46.42
223037670,0,3998474,1002.33997,46.42
223122108,0,3998474,1002.36,46.41
223231599,0,3998474,1002.33997,46.41
223338515,0,3998474,1002.26996,46.399998
223426198,0,3998474,1002.32996,46.399998
223544047,0,3998474,1002.31,46.39
223642181,0,3998474,1002.25,46.39
223749110,0,3998474,1002.25995,46.39
223850112,0,3998474,1002.32,46.37
223943606,0,3998474,1002.33997,46.37
224052172,0,3998474,1002.33997,46.37
224159620,0,3998474,1002.43,46.379997
224247578,0,3998474,1002.43,46.379997
224353164,0,3998474,1002.31,46.36
224460543,0,3998474,1002.32996,46.36
224546099,0,3998474,1002.32,46.36
224661800,0,3998474,1002.32,46.36
224756593,0,3998474,1002.29,46.35
224874110,0,3998474,1002.3,46.35
224970099,0,3998474,1002.37,46.34
225076104,0,3998474,1002.38,46.34
225173366,0,3998474,1002.33997,46.34
225268128,0,3998474,1002.32,46.34
225380230,0,3998474,1002.43,46.34
225476945,0,3998474,1002.44,46.34
225575562,0,3998474,1002.41,46.34
225685679,0,3998474,1002.41,46.329998
225785043,0,3998474,1002.44,46.329998
225885361,0,3998474,1002.44995,46.32
225993018,0,3998474,1002.45996,46.329998
226085341,0,3998474,1002.37,46.32
226195564,0,3998474,1002.44995,46.32
226282314,0,3998474,1002.38995,46.32
226391048,0,3998474,1002.43,46.32
226490315,0,3998474,1002.43,46.32
226587048,0,3998474,1002.39996,46.329998
226704054,0,3998474,1002.42,46.32
226805059,0,3998474,1002.44995,46.32
226892737,0,3998474,1002.43,46.32
227003575,0,3998474,1002.48,46.32
227109048,0,3998474,1002.43,46.32
227200059,0,3998474,1002.42,46.32
227296106,0,3998474,1002.49,46.309998
227414326,0,3998474,1002.45996,46.3
227511043,0,3998474,1002.37,46.309998
227608048,0,3998474,1002.38995,46.309998
227716920,0,3998474,1002.42,46.32
227824151,0,3998474,1002.43,46.309998
227917080,0,3998474,1002.37,46.309998
228008048,0,3998474,1002.48,46.309998
228128112,0,3998474,1002.32,46.289997
228222396,0,3998474,1002.41,46.3
228330394,0,3998474,1002.38995,46.3
228416059,0,3998474,1002.38995,46.3
228527064,0,3998474,1002.33997,46.309998
228636050,0,3998474,1002.33997,46.309998
229449048,0,3998474,1002.37,46.3
229547380,0,3998474,1002.36,46.309998
229646768,0,3998474,1002.43,46.309998
229734377,0,3998474,1002.41,46.3
229855066,0,3998474,1002.36,46.3
229954346,0,3998474,1002.38,46.309998
230043846,0,3998474,1002.42,46.3
230153048,0,3998474,1002.33997,46.3
230261393,0,3998474,1002.38,46.3
230345054,0,3998474,1002.43,46.3
230466151,0,3998474,1002.37,46.3
230563047,0,3998474,1002.39996,46.3
