timestamp,error_count,device_id,pressure,temperature
50799893,0,3998498,1002.35,37.51
50886119,0,3998498,1002.29,37.51
51006130,0,3998498,1002.35,37.52
51102048,0,3998498,1002.35,37.52
51210518,0,3998498,1002.3,37.52
51306382,0,3998498,1002.32,37.52
51403042,0,3998498,1002.31,37.52
51493043,0,3998498,1002.36,37.52
51610145,0,3998498,1002.32,37.52
51706365,0,3998498,1002.32,37.53
51815051,0,3998498,1002.36,37.53
51914145,0,3998498,1002.37,37.53
52012412,0,3998498,1002.35,37.53
52119737,0,3998498,1002.32,37.53
52219047,0,3998498,1002.29,37.53
52317047,0,3998498,1002.33997,37.54
52427123,0,3998498,1002.32,37.53
52523739,0,3998498,1002.27997,37.54
52621046,0,3998498,1002.33997,37.54
52731586,0,3998498,1002.31,37.54
52827101,0,3998498,1002.31,37.55
52926131,0,3998498,1002.3,37.54
53036496,0,3998498,1002.35,37.55
53134123,0,3998498,1002.26996,37.54
53230541,0,3998498,1002.32996,37.55
53339939,0,3998498,1002.36,37.55
53438123,0,3998498,1002.32,37.55
53537305,0,3998498,1002.29,37.55
53647572,0,3998498,1002.32,37.55
53744195,0,3998498,1002.35,37.559998
53841049,0,3998498,1002.32996,37.559998
53950124,0,3998498,1002.38995,37.559998
54056037,0,3998498,1002.32,37.559998
54144047,0,3998498,1002.32,37.559998
54250105,0,3998498,1002.32,37.57
54358408,0,3998498,1002.35,37.57
54442119,0,3998498,1002.3,37.57
54562149,0,3998498,1002.32996,37.57
54659042,0,3998498,1002.3,37.57
54766466,0,3998498,1002.35,37.579998
54864590,0,3998498,1002.32,37.579998
54965657,0,3998498,1002.31,37.57
55050145,0,3998498,1002.33997,37.579998
55169173,0,3998498,1002.31,37.579998
55267042,0,3998498,1002.32996,37.579998
55354172,0,3998498,1002.32996,37.579998
55475369,0,3998498,1002.33997,37.579998
55571362,0,3998498,1002.32,37.59
55677052,0,3998498,1002.29,37.59
55775359,0,3998498,1002.3,37.59
55871374,0,3998498,1002.3,37.59
55977493,0,3998498,1002.36,37.59
56084566,0,3998498,1002.27997,37.59
56173055,0,3998498,1002.31,37.59
56283055,0,3998498,1002.36,37.59
56381047,0,3998498,1002.32,37.59
56478146,0,3998498,1002.31,37.59
56586170,0,3998498,1002.3,37.6
56692590,0,3998498,1002.32996,37.6
56778306,0,3998498,1002.38,37.61
56895048,0,3998498,1002.37,37.61
56991043,0,3998498,1002.27997,37.6
57098134,0,3998498,1002.3,37.61
57193448,0,3998498,1002.33997,37.61
57290118,0,3998498,1002.31,37.61
57398169,0,3998498,1002.33997,37.62
57505045,0,3998498,1002.35,37.61
57590118,0,3998498,1002.32,37.62
57700526,0,3998498,1002.32,37.62
57807357,0,3998498,1002.32,37.62
57894094,0,3998498,1002.3,37.62
58004376,0,3998498,1002.33997,37.62
58111043,0,3998498,1002.33997,37.62
58199046,0,3998498,1002.32,37.62
58317055,0,3998498,1002.32,37.629997
58412513,0,3998498,1002.32996,37.629997
58519367,0,3998498,1002.38995,37.629997
58617051,0,3998498,1002.32996,37.629997
58713527,0,3998498,1002.31,37.629997
58820338,0,3998498,1002.36,37.64
58919047,0,3998498,1002.31,37.64
59015058,0,3998498,1002.31,37.64
59124402,0,3998498,1002.36,37.64
59231435,0,3998498,1002.3,37.64
59316535,0,3998498,1002.32,37.64
59435058,0,3998498,1002.37,37.64
59532794,0,3998498,1002.32,37.64
59618130,0,3998498,1002.33997,37.649998
59735052,0,3998498,1002.37,37.649998
59831097,0,3998498,1002.35,37.649998
59937049,0,3998498,1002.38,37.649998
60036384,0,3998498,1002.36,37.649998
60132419,0,3998498,1002.32,37.66
60239353,0,3998498,1002.32,37.66
60346215,0,3998498,1002.32996,37.66
60433046,0,3998498,1002.31,37.649998
60551056,0,3998498,1002.37,37.66
60647042,0,3998498,1002.31,37.66
60754124,0,3998498,1002.31,37.67
60860376,0,3998498,1002.32996,37.67
60948528,0,3998498,1002.3,37.67
61057353,0,3998498,1002.33997,37.67
61164387,0,3998498,1002.32996,37.67
61250305,0,3998498,1002.32,37.67
61360988,0,3998498,1002.35,37.67
61468412,0,3998498,1002.33997,37.67
61556517,0,3998498,1002.33997,37.67
61673050,0,3998498,1002.31,37.68
61769497,0,3998498,1002.36,37.68
61858161,0,3998498,1002.31,37.68
61978127,0,3998498,1002.32,37.68
62074450,0,3998498,1002.32996,37.69
62180356,0,3998498,1002.35,37.69
62279061,0,3998498,1002.38,37.69
62375056,0,3998498,1002.37,37.69
62484496,0,3998498,1002.32996,37.69
62581049,0,3998498,1002.32,37.69
62682052,0,3998498,1002.32,37.69
62787047,0,3998498,1002.35,37.69
62894474,0,3998498,1002.32,37.69
62980374,0,3998498,1002.32996,37.7
63099353,0,3998498,1002.29,37.7
63196521,0,3998498,1002.37,37.7
63281386,0,3998498,1002.3,37.7
63401050,0,3998498,1002.35,37.7
63498128,0,3998498,1002.35,37.7
63604662,0,3998498,1002.32,37.7
63703091,0,3998498,1002.35,37.71
63799055,0,3998498,1002.36,37.71
63905051,0,3998498,1002.32996,37.71
64012382,0,3998498,1002.32,37.719997
64099043,0,3998498,1002.32,37.719997
64218125,0,3998498,1002.38,37.719997
64316592,0,3998498,1002.36,37.719997
64402119,0,3998498,1002.29,37.719997
64521598,0,3998498,1002.27997,37.719997
64620556,0,3998498,1002.32,37.719997
64727058,0,3998498,1002.32,37.719997
64823048,0,3998498,1002.35,37.73
64919051,0,3998498,1002.33997,37.73
65028539,0,3998498,1002.32,37.73
65124546,0,3998498,1002.32996,37.73
65220387,0,3998498,1002.27997,37.73
65329418,0,3998498,1002.3,37.73
65437042,0,3998498,1002.37,37.73
65525298,0,3998498,1002.29,37.739998
65633047,0,3998498,1002.33997,37.739998
65739051,0,3998498,1002.31,37.739998
65845051,0,3998498,1002.3,37.739998
65941415,0,3998498,1002.32996,37.739998
66039043,0,3998498,1002.35,37.75
66147379,0,3998498,1002.35,37.75
66243064,0,3998498,1002.31,37.739998
66339047,0,3998498,1002.35,37.75
66447047,0,3998498,1002.38995,37.75
66544675,0,3998498,1002.26996,37.75
66643043,0,3998498,1002.33997,37.75
66752551,0,3998498,1002.3,37.75
66848571,0,3998498,1002.36,37.75
66944414,0,3998498,1002.33997,37.76
67051427,0,3998498,1002.36,37.76
67157513,0,3998498,1002.31,37.76
67264424,0,3998498,1002.32,37.77
67359115,0,3998498,1002.35,37.77
67457054,0,3998498,1002.32,37.77
67573761,0,3998498,1002.36,37.77
67669046,0,3998498,1002.32996,37.77
67776683,0,3998498,1002.33997,37.77
67871047,0,3998498,1002.32996,37.77
67968527,0,3998498,1002.32996,37.77
68074160,0,3998498,1002.32996,37.78
68181859,0,3998498,1002.32,37.78
68993042,0,3998498,1002.33997,37.79
69080405,0,3998498,1002.32,37.79
69198272,0,3998498,1002.32,37.79
69294119,0,3998498,1002.36,37.79
69400586,0,3998498,1002.3,37.79
69502176,0,3998498,1002.3,37.79
69597150,0,3998498,1002.32,37.79
69707051,0,3998498,1002.32996,37.8
69802176,0,3998498,1002.27997,37.79
69901355,0,3998498,1002.31,37.8
70009055,0,3998498,1002.32996,37.8
70107069,0,3998498,1002.37,37.8
70205312,0,3998498,1002.32996,37.8
70312605,0,3998498,1002.35,37.8
70418126,0,3998498,1002.3,37.809998
70504548,0,3998498,1002.33997,37.809998
70613665,0,3998498,1002.3,37.809998
70722119,0,3998498,1002.29,37.809998
70808553,0,3998498,1002.26996,37.809998
70925192,0,3998498,1002.26996,37.809998
71021171,0,3998498,1002.27997,37.82
71128508,0,3998498,1002.33997,37.82
71227047,0,3998498,1002.31,37.82
71323043,0,3998498,1002.32,37.82
71429050,0,3998498,1002.23,37.82
71536405,0,3998498,1002.25995,37.82
71622481,0,3998498,1002.25,37.829998
71739109,0,3998498,1002.26996,37.829998
71836986,0,3998498,1002.3,37.829998
71923058,0,3998498,1002.19,37.829998
72040403,0,3998498,1002.14996,37.829998
72135042,0,3998498,1002.25995,37.84
72243356,0,3998498,1002.25995,37.84
72349955,0,3998498,1002.25995,37.84
72434133,0,3998498,1002.19,37.84
72553058,0,3998498,1002.32996,37.84
72651405,0,3998498,1002.26996,37.84
72740714,0,3998498,1002.23,37.84
72860410,0,3998498,1002.29,37.84
72957154,0,3998498,1002.26996,37.85
73047042,0,3998498,1002.25,37.84
73155101,0,3998498,1002.26996,37.85
73265493,0,3998498,1002.26996,37.85
73353135,0,3998498,1002.29,37.85
73464549,0,3998498,1002.23,37.85
73565046,0,3998498,1002.25,37.85
73663144,0,3998498,1002.25995,37.86
73771423,0,3998498,1002.16,37.86
73869499,0,3998498,1002.22,37.86
73967606,0,3998498,1002.35,37.86
74074146,0,3998498,1002.24,37.86
74181370,0,3998498,1002.26996,37.87
74268098,0,3998498,1002.19995,37.87
74376125,0,3998498,1002.24,37.87
74476639,0,3998498,1002.26996,37.87
74577042,0,3998498,1002.19995,37.87
74686099,0,3998498,1002.32996,37.879997
74786162,0,3998498,1002.25995,37.879997
74882420,0,3998498,1002.3,37.879997
74988098,0,3998498,1002.22,37.89
75084799,0,3998498,1002.33997,37.879997
75181335,0,3998498,1002.25995,37.879997
75290115,0,3998498,1002.19995,37.89
75397043,0,3998498,1002.23,37.89
75486891,0,3998498,1002.22,37.899998
75595112,0,3998498,1002.32,37.899998
75693050,0,3998498,1002.23,37.899998
75789823,0,3998498,1002.19995,37.899998
75901384,0,3998498,1002.19995,37.899998
75999645,0,3998498,1002.39996,37.899998
76097055,0,3998498,1002.27997,37.899998
76207591,0,3998498,1002.32,37.91
76304534,0,3998498,1002.25,37.91
76402090,0,3998498,1002.22,37.899998
76512725,0,3998498,1002.25995,37.91
76609055,0,3998498,1002.27997,37.91
76706060,0,3998498,1002.33997,37.91
76813050,0,3998498,1002.25,37.91
76912518,0,3998498,1002.35,37.91
77007069,0,3998498,1002.23,37.92
77114106,0,3998498,1002.32996,37.92
77223568,0,3998498,1002.37,37.93
77309370,0,3998498,1002.25,37.92
77427887,0,3998498,1002.32996,37.93
77522427,0,3998498,1002.32,37.93
77631609,0,3998498,1002.29,37.93
77729369,0,3998498,1002.27997,37.92
77826094,0,3998498,1002.23,37.92
77932147,0,3998498,1002.3,37.93
78028527,0,3998498,1002.24,37.93
78124586,0,3998498,1002.26996,37.93
78234107,0,3998498,1002.23,37.93
78341042,0,3998498,1002.27997,37.93
78428525,0,3998498,1002.27997,37.93
78537053,0,3998498,1002.3,37.93
78646107,0,3998498,1002.24,37.93
78733344,0,3998498,1002.3,37.93
78839800,0,3998498,1002.26996,37.94
78949048,0,3998498,1002.35,37.93
79035153,0,3998498,1002.29,37.93
79154106,0,3998498,1002.29,37.93
79253045,0,3998498,1002.25995,37.94
79340094,0,3998498,1002.27997,37.94
79458063,0,3998498,1002.25995,37.94
79556179,0,3998498,1002.22,37.94
79642116,0,3998498,1002.26996,37.94
79759578,0,3998498,1002.31,37.94
79855737,0,3998498,1002.27997,37.95
79962140,0,3998498,1002.29,37.95
80068550,0,3998498,1002.22,37.95
80154093,0,3998498,1002.29,37.95
80271848,0,3998498,1002.3,37.95
80366129,0,3998498,1002.25,37.95
80452350,0,3998498,1002.29,37.95
80570103,0,3998498,1002.27997,37.96
80666461,0,3998498,1002.26996,37.96
80775588,0,3998498,1002.3,37.96
81076495,0,3998498,1002.29,37.96
81184084,0,3998498,1002.32996,37.969997
81271700,0,3998498,1002.29,37.969997
81377047,0,3998498,1002.27997,37.969997
81487703,0,3998498,1002.25995,37.969997
81572898,0,3998498,1002.26996,37.969997
81690099,0,3998498,1002.25,37.98
81786188,0,3998498,1002.27997,37.98
81892637,0,3998498,1002.24,37.98
81988914,0,3998498,1002.31,37.98
82085042,0,3998498,1002.29,37.989998
82190152,0,3998498,1002.20996,37.989998
82298352,0,3998498,1002.23,37.989998
82383594,0,3998498,1002.20996,37.989998
82500162,0,3998498,1002.22,38.0
82599702,0,3998498,1002.23,38.0
82706419,0,3998498,1002.19995,37.989998
82812689,0,3998498,1002.20996,38.0
82898470,0,3998498,1002.20996,38.0
83004172,0,3998498,1002.25,38.0
83111765,0,3998498,1002.18,38.0
83217048,0,3998498,1002.25,38.01
83314118,0,3998498,1002.18,38.01
83410106,0,3998498,1002.14996,38.0
84434452,0,3998498,1002.25,38.01
84636364,0,3998498,1002.22,38.01
84733053,0,3998498,1002.25,38.02
84839738,0,3998498,1002.27997,38.02
84945356,0,3998498,1002.16,38.02
85031638,0,3998498,1002.17,38.02
85148369,0,3998498,1002.26996,38.02
85244232,0,3998498,1002.18,38.02
85350153,0,3998498,1002.26996,38.02
85447718,0,3998498,1002.23,38.02
85543587,0,3998498,1002.24,38.02
85660376,0,3998498,1002.24,38.03
85756395,0,3998498,1002.24,38.03
85863739,0,3998498,1002.22,38.03
85959620,0,3998498,1002.25,38.03
86058094,0,3998498,1002.26996,38.03
86167536,0,3998498,1002.25995,38.03
86263696,0,3998498,1002.25,38.03
86359731,0,3998498,1002.20996,38.03
86476660,0,3998498,1002.25,38.04
86573523,0,3998498,1002.25,38.04
86679800,0,3998498,1002.24,38.04
86775847,0,3998498,1002.32996,38.04
86871589,0,3998498,1002.26996,38.04
86978099,0,3998498,1002.23,38.04
87085042,0,3998498,1002.18,38.04
87170044,0,3998498,1002.27997,38.04
87288047,0,3998498,1002.25995,38.04
87386101,0,3998498,1002.27997,38.05
87472042,0,3998498,1002.22,38.04
87591705,0,3998498,1002.26996,38.05
87688042,0,3998498,1002.24,38.05
87794107,0,3998498,1002.3,38.05
87890054,0,3998498,1002.25,38.05
87986146,0,3998498,1002.26996,38.05
88092718,0,3998498,1002.32996,38.05
88200046,0,3998498,1002.25995,38.05
88284231,0,3998498,1002.29,38.059998
88402187,0,3998498,1002.29,38.059998
88497470,0,3998498,1002.26996,38.059998
88604509,0,3998498,1002.19,38.05
88700270,0,3998498,1002.3,38.059998
88796343,0,3998498,1002.18,38.059998
88902167,0,3998498,1002.25995,38.07
89007786,0,3998498,1002.3,38.059998
89114163,0,3998498,1002.3,38.07
89210111,0,3998498,1002.23,38.07
89306097,0,3998498,1002.29,38.07
89422150,0,3998498,1002.27997,38.07
89519873,0,3998498,1002.25995,38.07
89626154,0,3998498,1002.24,38.07
89721053,0,3998498,1002.25,38.07
89817141,0,3998498,1002.23,38.079998
89925190,0,3998498,1002.3,38.07
90031581,0,3998498,1002.25995,38.079998
90116146,0,3998498,1002.25,38.079998
90233164,0,3998498,1002.18,38.079998
90332350,0,3998498,1002.20996,38.079998
90440047,0,3998498,1002.20996,38.079998
90535567,0,3998498,1002.23,38.079998
90631728,0,3998498,1002.19995,38.09
90738098,0,3998498,1002.16,38.09
90844553,0,3998498,1002.13,38.079998
90930429,0,3998498,1002.13,38.09
91047716,0,3998498,1002.19995,38.09
91143567,0,3998498,1002.20996,38.09
91250106,0,3998498,1002.17,38.09
91356115,0,3998498,1002.13,38.09
91442347,0,3998498,1002.16,38.09
91548275,0,3998498,1002.19995,38.1
91655786,0,3998498,1002.13995,38.09
91762142,0,3998498,1002.20996,38.1
91858102,0,3998498,1002.18,38.1
91954193,0,3998498,1002.20996,38.1
92060527,0,3998498,1002.18,38.11
92167609,0,3998498,1002.17,38.1
92252694,0,3998498,1002.14996,38.1
92370216,0,3998498,1002.20996,38.11
92465043,0,3998498,1002.14996,38.11
92572812,0,3998498,1002.22,38.12
92679564,0,3998498,1002.14996,38.11
92764550,0,3998498,1002.19995,38.11
92882460,0,3998498,1002.16,38.11
92978374,0,3998498,1002.14996,38.11
93084147,0,3998498,1002.16,38.11
93181296,0,3998498,1002.17,38.12
93276108,0,3998498,1002.17,38.11
93383730,0,3998498,1002.19995,38.12
93490116,0,3998498,1002.17,38.12
93596585,0,3998498,1002.22,38.12
93693174,0,3998498,1002.13995,38.12
93791712,0,3998498,1002.19995,38.12
93898110,0,3998498,1002.24,38.12
94004223,0,3998498,1002.17,38.129997
94090094,0,3998498,1002.19,38.129997
94207602,0,3998498,1002.16,38.129997
94303926,0,3998498,1002.17,38.129997
94410133,0,3998498,1002.19995,38.129997
94506110,0,3998498,1002.16,38.129997
94602124,0,3998498,1002.17,38.129997
94708886,0,3998498,1002.18,38.129997
94815619,0,3998498,1002.14996,38.14
94901047,0,3998498,1002.23,38.14
95018413,0,3998498,1002.16,38.14
95114397,0,3998498,1002.18,38.129997
95203326,0,3998498,1002.17,38.14
95322134,0,3998498,1002.18,38.14
95420076,0,3998498,1002.18,38.14
95528611,0,3998498,1002.24,38.149998
95627184,0,3998498,1002.22,38.14
95723904,0,3998498,1002.17,38.149998
95833278,0,3998498,1002.18,38.149998
95930127,0,3998498,1002.20996,38.14
96026801,0,3998498,1002.19995,38.149998
96132613,0,3998498,1002.18,38.149998
96241054,0,3998498,1002.17,38.149998
96328663,0,3998498,1002.17,38.16
96436159,0,3998498,1002.16,38.149998
96544053,0,3998498,1002.13,38.149998
96630348,0,3998498,1002.13995,38.16
96739941,0,3998498,1002.12,38.149998
96850129,0,3998498,1002.13,38.149998
96934343,0,3998498,1002.08997,38.16
97046383,0,3998498,1002.1,38.16
97145053,0,3998498,1002.00995,38.16
97243935,0,3998498,1001.97,38.16
97347871,0,3998498,1002.02997,38.16
97451368,0,3998498,1002.00995,38.16
97548042,0,3998498,1001.97,38.17
97658413,0,3998498,1001.94,38.16
97756052,0,3998498,1001.94,38.16
97854528,0,3998498,1001.94,38.17
97962392,0,3998498,1001.89996,38.17
98059728,0,3998498,1001.88,38.17
98158418,0,3998498,1001.87,38.17
98267996,0,3998498,1001.82996,38.17
98363840,0,3998498,1001.83997,38.17
98460412,0,3998498,1001.85,38.17
98573161,0,3998498,1001.81,38.18
98672058,0,3998498,1001.82,38.17
98772871,0,3998498,1001.8,38.17
98860153,0,3998498,1001.74,38.18
98972963,0,3998498,1001.76996,38.18
99083866,0,3998498,1001.72,38.18
99172757,0,3998498,1001.77997,38.18
99280053,0,3998498,1001.69995,38.18
99378399,0,3998498,1001.64996,38.18
99475534,0,3998498,1001.69995,38.19
99585047,0,3998498,1001.63995,38.19
99682362,0,3998498,1001.61,38.19
99781042,0,3998498,1001.62,38.2
99891839,0,3998498,1001.51996,38.19
99990329,0,3998498,1001.57,38.19
100089392,0,3998498,1001.54,38.2
100199356,0,3998498,1001.44995,38.2
100297134,0,3998498,1001.48,38.2
100393042,0,3998498,1001.39996,38.2
100503054,0,3998498,1001.41,38.2
100601370,0,3998498,1001.43,38.2
100699608,0,3998498,1001.37,38.2
100808047,0,3998498,1001.36,38.2
100907746,0,3998498,1001.29,38.2
101005368,0,3998498,1001.3,38.21
101094307,0,3998498,1001.26996,38.2
101205050,0,3998498,1001.20996,38.21
101314352,0,3998498,1001.19,38.21
101400093,0,3998498,1001.11,38.21
101510635,0,3998498,1001.1,38.21
101617053,0,3998498,1001.14996,38.21
101705047,0,3998498,1001.1,38.21
101826393,0,3998498,1001.04,38.219997
101924377,0,3998498,1001.02997,38.219997
102013354,0,3998498,1000.99,38.219997
102126313,0,3998498,1000.97,38.219997
102227847,0,3998498,1000.92,38.21
102325427,0,3998498,1000.87,38.219997
102416346,0,3998498,1000.89996,38.21
102536023,0,3998498,1000.92,38.219997
102633021,0,3998498,1000.92,38.219997
102721023,0,3998498,1000.82,38.219997
102841346,0,3998498,1000.86,38.23
102940067,0,3998498,1000.91,38.23
103028020,0,3998498,1000.88995,38.23
103148538,0,3998498,1000.88,38.23
103250018,0,3998498,1000.87,38.23
103337018,0,3998498,1000.83997,38.23
103448018,0,3998498,1000.95996,38.23
103548019,0,3998498,1000.88995,38.23
103645113,0,3998498,1000.85,38.239998
103755423,0,3998498,1000.87,38.239998
103853018,0,3998498,1000.86,38.239998
103951018,0,3998498,1000.88,38.239998
104059294,0,3998498,1000.85,38.25
104156525,0,3998498,1000.82,38.25
104256072,0,3998498,1000.88995,38.25
104366018,0,3998498,1000.89996,38.25
104465364,0,3998498,1000.89996,38.25
104562303,0,3998498,1000.82,38.25
104669469,0,3998498,1000.88995,38.25
104777018,0,3998498,1000.91,38.25
104865159,0,3998498,1000.88,38.26
104975018,0,3998498,1000.89996,38.26
105081022,0,3998498,1000.92,38.26
105169018,0,3998498,1000.89996,38.26
105279022,0,3998498,1000.87,38.26
105389140,0,3998498,1000.89996,38.26
105477345,0,3998498,1000.88,38.26
105587467,0,3998498,1000.88995,38.27
105687022,0,3998498,1000.92,38.26
105787781,0,3998498,1000.83997,38.26
105897346,0,3998498,1000.91,38.26
105996021,0,3998498,1000.91,38.27
106095363,0,3998498,1000.98,38.27
106182019,0,3998498,1000.89996,38.27
106303036,0,3998498,1000.92,38.27
106403932,0,3998498,1000.91,38.27
106489034,0,3998498,1000.93,38.27
106607022,0,3998498,1000.98,38.28
106706018,0,3998498,1000.95996,38.27
106793021,0,3998498,1000.95996,38.28
106910018,0,3998498,1000.91,38.28
107009019,0,3998498,1000.98,38.28
107096018,0,3998498,1000.99,38.28
107217412,0,3998498,1000.98,38.28
107318408,0,3998498,1000.93,38.28
107406329,0,3998498,1000.98,38.28
107514812,0,3998498,1000.94995,38.29
107613018,0,3998498,1001.00995,38.29
107710018,0,3998498,1001.06,38.29
107819029,0,3998498,1001.05,38.29
107928419,0,3998498,1001.00995,38.29
108015159,0,3998498,1001.0,38.29
108126018,0,3998498,1001.07,38.3
108226451,0,3998498,1000.99,38.29
108323432,0,3998498,1001.08997,38.29
108432027,0,3998498,1001.07,38.29
108531021,0,3998498,1001.07,38.3
108629968,0,3998498,1001.1,38.3
108739643,0,3998498,1001.16,38.309998
108834513,0,3998498,1001.14996,38.3
108941195,0,3998498,1001.12,38.3
109029018,0,3998498,1001.13,38.3
109141031,0,3998498,1001.16,38.3
109237023,0,3998498,1001.13,38.3
109336353,0,3998498,1001.20996,38.309998
109448428,0,3998498,1001.23,38.309998
109546389,0,3998498,1001.20996,38.309998
109645967,0,3998498,1001.24,38.309998
111177030,0,3998498,1001.23,38.329998
111264360,0,3998498,1001.25,38.329998
111382145,0,3998498,1001.23,38.34
111479018,0,3998498,1001.24,38.34
111588021,0,3998498,1001.25,38.34
111685018,0,3998498,1001.20996,38.34
111783030,0,3998498,1001.23,38.34
111893029,0,3998498,1001.24,38.34
111990098,0,3998498,1001.26996,38.34
112086098,0,3998498,1001.29,38.34
112196018,0,3998498,1001.25995,38.34
112305018,0,3998498,1001.3,38.34
112395032,0,3998498,1001.3,38.34
112508380,0,3998498,1001.32,38.34
112604035,0,3998498,1001.35,38.34
112700050,0,3998498,1001.36,38.35
112806124,0,3998498,1001.38,38.35
112914576,0,3998498,1001.36,38.35
113001054,0,3998498,1001.42,38.35
113109054,0,3998498,1001.38995,38.35
113219054,0,3998498,1001.42,38.36
113306605,0,3998498,1001.38,38.35
113419148,0,3998498,1001.42,38.35
113518603,0,3998498,1001.44995,38.35
113617053,0,3998498,1001.43,38.35
113726140,0,3998498,1001.5,38.36
113826463,0,3998498,1001.44995,38.35
113924042,0,3998498,1001.5,38.36
114033051,0,3998498,1001.5,38.36
114129048,0,3998498,1001.49,38.36
114230165,0,3998498,1001.44,38.36
114321042,0,3998498,1001.56,38.36
114441099,0,3998498,1001.52997,38.37
114538961,0,3998498,1001.50995,38.37
114626787,0,3998498,1001.54,38.37
114739074,0,3998498,1001.55,38.36
114843048,0,3998498,1001.6,38.37
114942459,0,3998498,1001.57996,38.37
115052444,0,3998498,1001.57,38.37
115150161,0,3998498,1001.61,38.37
115248089,0,3998498,1001.57996,38.379997
115354784,0,3998498,1001.6,38.379997
115453047,0,3998498,1001.63,38.379997
115552047,0,3998498,1001.57,38.379997
115659254,0,3998498,1001.67,38.379997
115758139,0,3998498,1001.6,38.379997
115856098,0,3998498,1001.64996,38.379997
115965020,0,3998498,1001.69,38.39
116062126,0,3998498,1001.63995,38.39
116163332,0,3998498,1001.73,38.39
116259080,0,3998498,1001.63995,38.379997
116368048,0,3998498,1001.76996,38.379997
116478261,0,3998498,1001.73,38.379997
116565042,0,3998498,1001.70996,38.39
116672047,0,3998498,1001.70996,38.39
116780042,0,3998498,1001.79,38.39
116867139,0,3998498,1001.73,38.399998
116987110,0,3998498,1001.74,38.39
117086616,0,3998498,1001.73,38.399998
117174003,0,3998498,1001.73,38.399998
117292047,0,3998498,1001.72,38.399998
117385174,0,3998498,1001.75995,38.399998
117494520,0,3998498,1001.76996,38.41
117593338,0,3998498,1001.85,38.399998
117691042,0,3998498,1001.76996,38.41
117798133,0,3998498,1001.82996,38.41
117898152,0,3998498,1001.75995,38.399998
117995043,0,3998498,1001.76996,38.41
118104047,0,3998498,1001.77997,38.41
118203053,0,3998498,1001.77997,38.41
118300046,0,3998498,1001.76996,38.41
118409301,0,3998498,1001.81,38.41
118507072,0,3998498,1001.8,38.42
118606131,0,3998498,1001.82,38.41
118716052,0,3998498,1001.79,38.41
118823220,0,3998498,1001.8,38.42
118919331,0,3998498,1001.81,38.42
119006150,0,3998498,1001.77997,38.41
119126141,0,3998498,1001.77997,38.42
119226135,0,3998498,1001.8,38.42
119319380,0,3998498,1001.73,38.42
119429850,0,3998498,1001.76996,38.42
119526236,0,3998498,1001.85,38.42
119628075,0,3998498,1001.79,38.43
119735847,0,3998498,1001.82996,38.42
119834170,0,3998498,1001.83997,38.43
119935432,0,3998498,1001.77997,38.43
120046175,0,3998498,1001.77997,38.43
120146141,0,3998498,1001.76996,38.43
120241139,0,3998498,1001.75995,38.43
120351612,0,3998498,1001.81,38.44
120446393,0,3998498,1001.81,38.44
120545296,0,3998498,1001.79,38.44
120634217,0,3998498,1001.82,38.44
120757667,0,3998498,1001.85,38.44
120858135,0,3998498,1001.82996,38.44
120951410,0,3998498,1001.83997,38.44
121057213,0,3998498,1001.79,38.44
121164043,0,3998498,1001.83997,38.44
121250190,0,3998498,1001.83997,38.45
121369199,0,3998498,1001.82,38.44
121463260,0,3998498,1001.82996,38.44
121572042,0,3998498,1001.81,38.44
121663211,0,3998498,1001.8,38.44
121774126,0,3998498,1001.87,38.44
121871357,0,3998498,1001.82,38.45
121967043,0,3998498,1001.82996,38.45
122077941,0,3998498,1001.77997,38.45
122175252,0,3998498,1001.77997,38.46
122274477,0,3998498,1001.79,38.46
122380048,0,3998498,1001.83997,38.46
122477841,0,3998498,1001.88,38.46
122574899,0,3998498,1001.8,38.46
122683047,0,3998498,1001.82,38.469997
122782057,0,3998498,1001.8,38.46
122879349,0,3998498,1001.79,38.469997
122988151,0,3998498,1001.83997,38.469997
123095046,0,3998498,1001.87,38.469997
123179042,0,3998498,1001.87,38.469997
123297324,0,3998498,1001.81,38.48
123393178,0,3998498,1001.82,38.469997
123500051,0,3998498,1001.81,38.48
123596048,0,3998498,1001.81,38.48
123691042,0,3998498,1001.8,38.48
123809193,0,3998498,1001.83997,38.48
123909769,0,3998498,1001.82,38.489998
123996172,0,3998498,1001.77997,38.48
124114172,0,3998498,1001.8,38.48
124212049,0,3998498,1001.82996,38.489998
124298144,0,3998498,1001.82996,38.489998
124417188,0,3998498,1001.77997,38.489998
124514106,0,3998498,1001.82,38.489998
124601164,0,3998498,1001.82996,38.489998
124719018,0,3998498,1001.86,38.489998
124818019,0,3998498,1001.82,38.489998
124927069,0,3998498,1001.88995,38.489998
125022185,0,3998498,1001.81,38.489998
125119018,0,3998498,1001.8,38.489998
125226100,0,3998498,1001.82,38.5
125332350,0,3998498,1001.77997,38.5
125417315,0,3998498,1001.88995,38.5
125535038,0,3998498,1001.88,38.5
125634228,0,3998498,1001.77997,38.5
125720700,0,3998498,1001.83997,38.5
125840018,0,3998498,1001.76996,38.5
125938108,0,3998498,1001.82,38.5
126024374,0,3998498,1001.88995,38.51
126140048,0,3998498,1001.81,38.5
126239619,0,3998498,1001.86,38.51
126346354,0,3998498,1001.8,38.51
126441052,0,3998498,1001.85,38.51
126538159,0,3998498,1001.77997,38.51
126644530,0,3998498,1001.86,38.51
126753047,0,3998498,1001.85,38.51
126839046,0,3998498,1001.83997,38.51
126957178,0,3998498,1001.88,38.51
127055054,0,3998498,1001.88995,38.51
127141043,0,3998498,1001.87,38.51
127556703,0,3998498,1001.89996,38.51
127663048,0,3998498,1001.93,38.52
127748545,0,3998498,1001.92,38.52
127868601,0,3998498,1001.88995,38.52
127965210,0,3998498,1001.97,38.52
128052534,0,3998498,1002.02997,38.52
128170126,0,3998498,1001.95996,38.52
128266180,0,3998498,1001.94995,38.52
128372531,0,3998498,1001.97,38.52
128479349,0,3998498,1001.99,38.53
128566164,0,3998498,1002.04,38.53
128673308,0,3998498,1002.05,38.53
128780350,0,3998498,1001.98,38.53
128865331,0,3998498,1001.99,38.53
128983052,0,3998498,1002.04,38.53
129079055,0,3998498,1002.01996,38.53
129169812,0,3998498,1002.02997,38.53
129287047,0,3998498,1002.0,38.53
129383347,0,3998498,1002.07996,38.53
129489348,0,3998498,1002.07996,38.53
129588555,0,3998498,1002.08997,38.54
129686204,0,3998498,1002.04,38.53
129796380,0,3998498,1002.07,38.54
129892622,0,3998498,1002.02997,38.54
129988594,0,3998498,1002.02997,38.54
130105199,0,3998498,1002.05,38.54
130201180,0,3998498,1002.0,38.54
130307100,0,3998498,1002.0,38.55
130407391,0,3998498,1002.02997,38.54
130503046,0,3998498,1002.02997,38.54
130610150,0,3998498,1002.01996,38.54
130716687,0,3998498,1001.94,38.55
130801046,0,3998498,1002.01996,38.54
130919059,0,3998498,1002.01996,38.55
131015099,0,3998498,1001.99,38.55
131122130,0,3998498,1002.01996,38.55
131220687,0,3998498,1001.99,38.55
131317047,0,3998498,1002.01996,38.55
131426318,0,3998498,1001.98,38.55
131534136,0,3998498,1001.95996,38.55
131626297,0,3998498,1002.00995,38.559998
131734136,0,3998498,1001.97,38.55
131841165,0,3998498,1001.97,38.55
131929037,0,3998498,1001.98,38.559998
132036531,0,3998498,1002.01996,38.559998
132146745,0,3998498,1001.99,38.559998
132842149,0,3998498,1002.00995,38.57
132951360,0,3998498,1002.00995,38.57
133058054,0,3998498,1002.02997,38.57
133145040,0,3998498,1002.01996,38.57
133263018,0,3998498,1002.01996,38.57
133359059,0,3998498,1001.97,38.57
133447135,0,3998498,1002.04,38.579998
133567359,0,3998498,1002.00995,38.579998
133663413,0,3998498,1002.00995,38.579998
133773129,0,3998498,1001.98,38.579998
133870107,0,3998498,1001.99,38.579998
133969845,0,3998498,1002.00995,38.579998
134079066,0,3998498,1002.00995,38.579998
134177747,0,3998498,1001.95996,38.59
134283145,0,3998498,1002.02997,38.579998
134369136,0,3998498,1001.97,38.579998
134480740,0,3998498,1001.99,38.579998
134583864,0,3998498,1001.91,38.579998
134679551,0,3998498,1001.97,38.59
134788104,0,3998498,1001.95996,38.59
134892497,0,3998498,1001.98,38.59
134981019,0,3998498,1001.94,38.59
135098082,0,3998498,1001.99,38.6
135194018,0,3998498,1001.91,38.59
135301978,0,3998498,1002.01996,38.6
135398522,0,3998498,1002.01996,38.6
135493488,0,3998498,1002.04,38.6
135599437,0,3998498,1001.97,38.6
135705180,0,3998498,1002.04,38.6
135791492,0,3998498,1002.00995,38.6
135903803,0,3998498,1002.12,38.61
136010401,0,3998498,1002.02997,38.6
136098094,0,3998498,1002.1,38.6
136214569,0,3998498,1002.17,38.61
136310567,0,3998498,1002.07996,38.61
136420120,0,3998498,1002.13,38.61
136517171,0,3998498,1002.08997,38.61
136614140,0,3998498,1002.08997,38.61
136722125,0,3998498,1002.08997,38.61
136820176,0,3998498,1002.11,38.61
136918090,0,3998498,1002.08997,38.61
137026019,0,3998498,1002.17,38.61
137132549,0,3998498,1002.12,38.61
137237626,0,3998498,1002.08997,38.62
137333641,0,3998498,1002.17,38.62
137428181,0,3998498,1002.13,38.62
137535590,0,3998498,1002.13995,38.62
137642018,0,3998498,1002.12,38.62
137748067,0,3998498,1002.11,38.629997
137847909,0,3998498,1002.13,38.629997
137944018,0,3998498,1002.13995,38.62
138049018,0,3998498,1002.12,38.629997
138146324,0,3998498,1002.17,38.62
138242491,0,3998498,1002.16,38.629997
138348377,0,3998498,1002.16,38.62
138452534,0,3998498,1002.13995,38.629997
138542151,0,3998498,1002.16,38.629997
138661524,0,3998498,1002.04,38.629997
138756110,0,3998498,1002.17,38.629997
138866028,0,3998498,1002.1,38.629997
138964039,0,3998498,1002.11,38.629997
139061517,0,3998498,1002.13,38.629997
139168030,0,3998498,1002.12,38.629997
139265029,0,3998498,1002.14996,38.629997
139364563,0,3998498,1002.11,38.629997
139471586,0,3998498,1002.13995,38.629997
139578153,0,3998498,1002.04,38.629997
139664021,0,3998498,1002.04,38.629997
139781537,0,3998498,1002.06,38.64
139876049,0,3998498,1002.02997,38.64
139986019,0,3998498,1002.01996,38.629997
140085592,0,3998498,1002.02997,38.64
140181564,0,3998498,1002.0,38.64
140289144,0,3998498,1002.00995,38.64
140386102,0,3998498,1002.00995,38.64
140478390,0,3998498,1002.0,38.64
140587802,0,3998498,1002.00995,38.64
140695791,0,3998498,1002.05,38.64
140783479,0,3998498,1001.99,38.64
140893019,0,3998498,1002.01996,38.64
141002298,0,3998498,1002.01996,38.64
141092881,0,3998498,1002.00995,38.64
141199577,0,3998498,1002.06,38.64
141308037,0,3998498,1002.01996,38.649998
141396018,0,3998498,1002.00995,38.649998
141485042,0,3998498,1002.00995,38.64
141605615,0,3998498,1002.02997,38.649998
141707607,0,3998498,1002.00995,38.649998
141796903,0,3998498,1002.07,38.649998
141906018,0,3998498,1002.06,38.649998
142008031,0,3998498,1002.06,38.649998
142117014,0,3998498,1002.07,38.649998
142213342,0,3998498,1002.06,38.649998
142322341,0,3998498,1002.07996,38.64
142416019,0,3998498,1002.02997,38.64
142529018,0,3998498,1002.07,38.64
142615018,0,3998498,1002.02997,38.649998
142733509,0,3998498,1002.07,38.649998
142832018,0,3998498,1002.07,38.649998
142928018,0,3998498,1002.07,38.649998
143037495,0,3998498,1002.07996,38.649998
143131581,0,3998498,1002.00995,38.64
143239029,0,3998498,1002.06,38.649998
143346367,0,3998498,1002.04,38.649998
143436018,0,3998498,1002.04,38.66
143528031,0,3998498,1002.04,38.66
143653287,0,3998498,1002.01996,38.66
143749161,0,3998498,1002.07,38.649998
143847018,0,3998498,1002.02997,38.66
143938019,0,3998498,1001.97,38.66
144056018,0,3998498,1001.99,38.66
144149218,0,3998498,1002.06,38.66
144256031,0,3998498,1002.07,38.66
144347285,0,3998498,1002.05,38.66
144455018,0,3998498,1002.0,38.66
145157317,0,3998498,1001.93,38.66
145687204,0,3998498,1001.88,38.67
145786362,0,3998498,1001.92,38.67
145883402,0,3998498,1001.83997,38.67
145975042,0,3998498,1001.85,38.68
146088100,0,3998498,1001.77997,38.68
146188393,0,3998498,1001.77997,38.68
146288053,0,3998498,1001.8,38.68
146395794,0,3998498,1001.81,38.68
146494460,0,3998498,1001.76996,38.69
146596014,0,3998498,1001.76996,38.68
146684370,0,3998498,1001.75995,38.69
146797356,0,3998498,1001.70996,38.68
146906042,0,3998498,1001.67,38.69
146994383,0,3998498,1001.66,38.68
147101168,0,3998498,1001.68,38.69
147211618,0,3998498,1001.6,38.69
147298382,0,3998498,1001.58997,38.69
147407377,0,3998498,1001.55,38.69
147505054,0,3998498,1001.58997,38.69
147604042,0,3998498,1001.51996,38.69
147714177,0,3998498,1001.47,38.69
147812401,0,3998498,1001.51996,38.7
147909042,0,3998498,1001.48,38.7
148016053,0,3998498,1001.42,38.7
148124383,0,3998498,1001.43,38.7
148211106,0,3998498,1001.33997,38.7
148331054,0,3998498,1001.32996,38.7
148429156,0,3998498,1001.27997,38.7
148517077,0,3998498,1001.22,38.7
148634139,0,3998498,1001.19995,38.7
148734161,0,3998498,1001.22,38.71
148822760,0,3998498,1001.13995,38.71
148930141,0,3998498,1001.12,38.71
149039045,0,3998498,1001.11,38.7
149127044,0,3998498,1001.04,38.7
149237064,0,3998498,1001.12,38.71
149345042,0,3998498,1000.99,38.71
149432055,0,3998498,1000.98,38.71
149552071,0,3998498,1000.94995,38.71
149650442,0,3998498,1000.88995,38.71
149743299,0,3998498,1000.88995,38.719997
149852410,0,3998498,1000.89996,38.71
149954132,0,3998498,1000.81,38.719997
150058470,0,3998498,1000.76996,38.71
150145178,0,3998498,1000.81,38.71
150263156,0,3998498,1000.72,38.719997
150360054,0,3998498,1000.73,38.719997
150447045,0,3998498,1000.73,38.719997
150566535,0,3998498,1000.76996,38.719997
150665055,0,3998498,1000.77997,38.719997
150775604,0,3998498,1000.74,38.719997
150874148,0,3998498,1000.75995,38.73
150972042,0,3998498,1000.75995,38.73
151060042,0,3998498,1000.68,38.73
151175047,0,3998498,1000.70996,38.719997
151274052,0,3998498,1000.74,38.73
151373062,0,3998498,1000.73,38.73
151482177,0,3998498,1000.75995,38.73
151580092,0,3998498,1000.74,38.73
151687196,0,3998498,1000.75995,38.73
151776377,0,3998498,1000.69,38.73
151887359,0,3998498,1000.73,38.73
151986136,0,3998498,1000.79,38.73
152084094,0,3998498,1000.8,38.73
152194129,0,3998498,1000.74,38.73
152290187,0,3998498,1000.75995,38.739998
152389042,0,3998498,1000.73,38.73
152498131,0,3998498,1000.73,38.739998
152596047,0,3998498,1000.75,38.739998
152694972,0,3998498,1000.69995,38.739998
152784165,0,3998498,1000.75,38.739998
152901052,0,3998498,1000.75995,38.739998
152997094,0,3998498,1000.79,38.739998
153107048,0,3998498,1000.81,38.739998
153205134,0,3998498,1000.79,38.739998
153304042,0,3998498,1000.74,38.739998
153415032,0,3998498,1000.79,38.739998
153514144,0,3998498,1000.82,38.739998
153613053,0,3998498,1000.82996,38.739998
153700088,0,3998498,1000.85,38.75
153819047,0,3998498,1000.8,38.75
153917043,0,3998498,1000.81,38.75
154022568,0,3998498,1000.88,38.75
154122127,0,3998498,1000.89996,38.75
154218471,0,3998498,1000.83997,38.75
154326157,0,3998498,1000.86,38.75
154425335,0,3998498,1000.91,38.75
154521053,0,3998498,1000.83997,38.75
154630124,0,3998498,1000.89996,38.76
154726184,0,3998498,1000.87,38.76
154823046,0,3998498,1000.87,38.76
154931099,0,3998498,1000.93,38.76
155038123,0,3998498,1000.93,38.76
155126242,0,3998498,1000.94995,38.76
155235099,0,3998498,1000.95996,38.76
155345211,0,3998498,1000.94,38.76
155430141,0,3998498,1000.91,38.76
155540051,0,3998498,1001.0,38.76
155649376,0,3998498,1001.01996,38.77
155734136,0,3998498,1001.05,38.76
155852098,0,3998498,1001.04,38.77
155950424,0,3998498,1001.04,38.77
156038157,0,3998498,1001.07996,38.77
156158178,0,3998498,1001.08997,38.77
156257340,0,3998498,1001.11,38.77
156364433,0,3998498,1001.13,38.77
156460052,0,3998498,1001.11,38.77
156556042,0,3998498,1001.1,38.77
156667053,0,3998498,1001.23,38.77
156764052,0,3998498,1001.22,38.78
156863050,0,3998498,1001.19995,38.77
156972418,0,3998498,1001.18,38.78
157070129,0,3998498,1001.20996,38.77
157166124,0,3998498,1001.17,38.77
157274130,0,3998498,1001.22,38.78
157374603,0,3998498,1001.25,38.78
157473158,0,3998498,1001.19995,38.77
157590373,0,3998498,1001.25,38.78
157686123,0,3998498,1001.24,38.78
157772042,0,3998498,1001.25995,38.78
157892052,0,3998498,1001.26996,38.78
157988829,0,3998498,1001.32,38.78
158094177,0,3998498,1001.3,38.78
158193641,0,3998498,1001.35,38.79
158290166,0,3998498,1001.32996,38.79
158401161,0,3998498,1001.35,38.79
158498156,0,3998498,1001.38,38.79
158595353,0,3998498,1001.38,38.79
158703054,0,3998498,1001.39996,38.79
158801191,0,3998498,1001.37,38.79
158900055,0,3998498,1001.42,38.79
159006162,0,3998498,1001.44995,38.79
159102240,0,3998498,1001.41,38.79
159201181,0,3998498,1001.38,38.79
159307078,0,3998498,1001.44,38.8
159415094,0,3998498,1001.44,38.8
159502131,0,3998498,1001.49,38.8
159618196,0,3998498,1001.47,38.809998
159716880,0,3998498,1001.50995,38.8
159801351,0,3998498,1001.52997,38.8
159920537,0,3998498,1001.54,38.8
160017150,0,3998498,1001.55,38.8
160106119,0,3998498,1001.54,38.8
160224538,0,3998498,1001.54,38.8
160321371,0,3998498,1001.49,38.809998
160411376,0,3998498,1001.50995,38.8
160527059,0,3998498,1001.57,38.8
160625142,0,3998498,1001.51996,38.8
160733220,0,3998498,1001.61,38.809998
160829695,0,3998498,1001.61,38.809998
160928622,0,3998498,1001.61,38.809998
161035048,0,3998498,1001.62,38.809998
161141208,0,3998498,1001.6,38.82
161230171,0,3998498,1001.58997,38.809998
161337052,0,3998498,1001.62,38.809998
161441042,0,3998498,1001.6,38.82
161549199,0,3998498,1001.6,38.82
161646738,0,3998498,1001.51996,38.82
161743934,0,3998498,1001.63,38.82
161851088,0,3998498,1001.57,38.82
161949483,0,3998498,1001.57,38.82
162045215,0,3998498,1001.54,38.82
162153167,0,3998498,1001.57,38.82
162253318,0,3998498,1001.48,38.82
162355054,0,3998498,1001.48,38.82
162462964,0,3998498,1001.49,38.82
162566342,0,3998498,1001.47,38.82
162665018,0,3998498,1001.48,38.82
162751601,0,3998498,1001.48,38.829998
162861311,0,3998498,1001.49,38.829998
162969042,0,3998498,1001.45996,38.829998
163078797,0,3998498,1001.50995,38.829998
163176388,0,3998498,1001.43,38.829998
163275042,0,3998498,1001.44,38.829998
163383120,0,3998498,1001.5,38.84
163480500,0,3998498,1001.5,38.829998
163576412,0,3998498,1001.49,38.829998
163686894,0,3998498,1001.54,38.84
163785047,0,3998498,1001.47,38.84
163880560,0,3998498,1001.49,38.84
164696498,0,3998498,1001.55,38.84
164798500,0,3998498,1001.56,38.84
164909052,0,3998498,1001.63,38.829998
165000383,0,3998498,1001.67,38.84
165109204,0,3998498,1001.69,38.84
165197043,0,3998498,1001.64996,38.84
165304398,0,3998498,1001.63,38.84
165414629,0,3998498,1001.58997,38.84
165501671,0,3998498,1001.6,38.85
165618267,0,3998498,1001.57996,38.85
165714507,0,3998498,1001.55,38.85
165820196,0,3998498,1001.58997,38.85
165917711,0,3998498,1001.61,38.85
166013677,0,3998498,1001.6,38.85
166123289,0,3998498,1001.63,38.85
166220075,0,3998498,1001.67,38.85
166316674,0,3998498,1001.64996,38.85
166424025,0,3998498,1001.64996,38.85
166532680,0,3998498,1001.63,38.85
166618081,0,3998498,1001.63,38.85
166725018,0,3998498,1001.61,38.85
166831594,0,3998498,1001.6,38.85
166919605,0,3998498,1001.6,38.85
167036375,0,3998498,1001.66,38.85
167132699,0,3998498,1001.56,38.85
167239584,0,3998498,1001.62,38.85
167335564,0,3998498,1001.69,38.86
167432018,0,3998498,1001.66,38.85
167538019,0,3998498,1001.64996,38.85
167644371,0,3998498,1001.68,38.86
167730019,0,3998498,1001.70996,38.85
167847706,0,3998498,1001.70996,38.85
167943697,0,3998498,1001.67,38.85
168049490,0,3998498,1001.67,38.86
168153197,0,3998498,1001.69,38.86
168236137,0,3998498,1001.67,38.86
168354390,0,3998498,1001.69,38.86
168453042,0,3998498,1001.69995,38.86
168556395,0,3998498,1001.70996,38.86
168663617,0,3998498,1001.69,38.86
168748683,0,3998498,1001.72,38.86
168857153,0,3998498,1001.68,38.86
168966318,0,3998498,1001.66,38.86
169052650,0,3998498,1001.69995,38.86
169173159,0,3998498,1001.67,38.86
169272127,0,3998498,1001.68,38.86
169357876,0,3998498,1001.76996,38.86
169477018,0,3998498,1001.72,38.86
169573414,0,3998498,1001.67,38.87
169679772,0,3998498,1001.69,38.87
169776074,0,3998498,1001.72,38.87
169873031,0,3998498,1001.72,38.87
169983585,0,3998498,1001.66,38.87
170090421,0,3998498,1001.73,38.87
170175588,0,3998498,1001.69,38.87
170292230,0,3998498,1001.64996,38.87
170388510,0,3998498,1001.69995,38.87
170478415,0,3998498,1001.69,38.87
170588424,0,3998498,1001.69995,38.87
170695553,0,3998498,1001.74,38.87
170785019,0,3998498,1001.69995,38.87
170904018,0,3998498,1001.68,38.87
170999893,0,3998498,1001.66,38.879997
171109023,0,3998498,1001.69995,38.87
171206218,0,3998498,1001.75995,38.879997
171306018,0,3998498,1001.70996,38.879997
171394413,0,3998498,1001.69995,38.879997
171515286,0,3998498,1001.74,38.87
171616032,0,3998498,1001.75995,38.87
171702118,0,3998498,1001.72,38.879997
171819754,0,3998498,1001.76996,38.879997
171920021,0,3998498,1001.77997,38.879997
172028747,0,3998498,1001.82,38.879997
172126020,0,3998498,1001.75,38.879997
172232022,0,3998498,1001.83997,38.879997
172319029,0,3998498,1001.82,38.87
172430374,0,3998498,1001.8,38.879997
172535023,0,3998498,1001.79,38.879997
172632070,0,3998498,1001.86,38.879997
172728031,0,3998498,1001.83997,38.879997
172843745,0,3998498,1001.8,38.879997
172942339,0,3998498,1001.86,38.879997
173040018,0,3998498,1001.87,38.879997
173150397,0,3998498,1001.86,38.879997
173246029,0,3998498,1001.88995,38.879997
173344018,0,3998498,1001.88,38.879997
173454020,0,3998498,1001.88995,38.89
173553327,0,3998498,1001.87,38.89
173651425,0,3998498,1001.88995,38.89
173739564,0,3998498,1001.86,38.89
173961378,0,3998498,1001.89996,38.89
174047329,0,3998498,1001.89996,38.89
174168018,0,3998498,1001.89996,38.89
174260037,0,3998498,1001.85,38.89
174359025,0,3998498,1001.88995,38.89
174473361,0,3998498,1001.91,38.89
174569018,0,3998498,1001.91,38.89
174668018,0,3998498,1001.95996,38.89
174757018,0,3998498,1001.98,38.89
174876408,0,3998498,1002.00995,38.89
174975107,0,3998498,1001.99,38.899998
175063030,0,3998498,1001.95996,38.899998
175175019,0,3998498,1002.06,38.899998
175284239,0,3998498,1002.00995,38.899998
175371300,0,3998498,1002.0,38.899998
175481377,0,3998498,1002.01996,38.899998
175580018,0,3998498,1002.04,38.899998
175679338,0,3998498,1002.01996,38.899998
175786331,0,3998498,1002.07,38.899998
175894409,0,3998498,1002.04,38.91
175980208,0,3998498,1002.02997,38.91
176090350,0,3998498,1002.01996,38.91
176199368,0,3998498,1002.06,38.91
177102426,0,3998498,1002.06,38.92
177204124,0,3998498,1002.06,38.91
177310143,0,3998498,1002.04,38.92
177409023,0,3998498,1002.02997,38.92
177507024,0,3998498,1001.97,38.92
177616030,0,3998498,1001.98,38.92
177715018,0,3998498,1002.04,38.92
177816018,0,3998498,1002.00995,38.92
177904029,0,3998498,1002.00995,38.92
178024018,0,3998498,1002.01996,38.92
178120024,0,3998498,1002.00995,38.92
178226161,0,3998498,1002.01996,38.92
178320018,0,3998498,1001.94995,38.92
178430952,0,3998498,1001.95996,38.93
178517149,0,3998498,1001.98,38.92
178640004,0,3998498,1002.01996,38.92
178743063,0,3998498,1002.00995,38.92
178829164,0,3998498,1001.99,38.93
178938145,0,3998498,1002.05,38.93
179043030,0,3998498,1002.0,38.93
179147018,0,3998498,1002.04,38.92
179235019,0,3998498,1002.04,38.93
179349151,0,3998498,1002.02997,38.92
179449979,0,3998498,1002.02997,38.93
179552026,0,3998498,1002.02997,38.93
179639027,0,3998498,1001.98,38.93
179758778,0,3998498,1001.99,38.93
179858106,0,3998498,1002.08997,38.93
179944559,0,3998498,1002.04,38.93
180064503,0,3998498,1002.06,38.94
180166997,0,3998498,1002.00995,38.94
180256331,0,3998498,1002.04,38.94
180373022,0,3998498,1002.06,38.94
180475030,0,3998498,1002.06,38.94
180571031,0,3998498,1002.04,38.94
180666106,0,3998498,1002.02997,38.93
180778021,0,3998498,1002.07,38.93
180880387,0,3998498,1002.07996,38.94
180978123,0,3998498,1002.07,38.94
181091023,0,3998498,1002.05,38.94
181186142,0,3998498,1002.04,38.93
181286771,0,3998498,1002.08997,38.94
181384736,0,3998498,1002.07996,38.94
181494571,0,3998498,1002.11,38.94
181606575,0,3998498,1002.05,38.94
181693141,0,3998498,1002.12,38.94
181808136,0,3998498,1002.13995,38.95
181910653,0,3998498,1002.08997,38.95
181995045,0,3998498,1002.1,38.95
182104136,0,3998498,1002.14996,38.95
182214124,0,3998498,1002.07996,38.95
182301337,0,3998498,1002.11,38.95
182414177,0,3998498,1002.13,38.95
182515048,0,3998498,1002.06,38.95
182618172,0,3998498,1002.07,38.94
182728048,0,3998498,1002.07996,38.95
182824063,0,3998498,1002.13,38.95
182920056,0,3998498,1002.13,38.96
183029305,0,3998498,1002.08997,38.96
183125209,0,3998498,1002.07996,38.96
183224042,0,3998498,1002.08997,38.96
183330521,0,3998498,1002.08997,38.96
183439099,0,3998498,1002.07996,38.96
183527052,0,3998498,1002.07996,38.969997
183634407,0,3998498,1002.14996,38.96
183741212,0,3998498,1002.08997,38.969997
183827046,0,3998498,1002.05,38.96
183946336,0,3998498,1002.13,38.969997
184043048,0,3998498,1002.06,38.96
184130229,0,3998498,1002.08997,38.969997
184247047,0,3998498,1002.07996,38.969997
184344047,0,3998498,1002.08997,38.969997
184453451,0,3998498,1002.11,38.969997
184548058,0,3998498,1002.05,38.969997
184648406,0,3998498,1002.01996,38.969997
184758135,0,3998498,1002.02997,38.969997
184854211,0,3998498,1002.02997,38.969997
184958133,0,3998498,1002.01996,38.969997
185046207,0,3998498,1002.02997,38.969997
185163399,0,3998498,1002.01996,38.96
185259057,0,3998498,1002.08997,38.969997
185363442,0,3998498,1002.05,38.96
185471100,0,3998498,1002.08997,38.969997
185572413,0,3998498,1002.01996,38.969997
185668723,0,3998498,1002.1,38.969997
185779975,0,3998498,1002.1,38.969997
185875569,0,3998498,1001.99,38.969997
185973333,0,3998498,1002.08997,38.969997
186083069,0,3998498,1002.08997,38.98
186179374,0,3998498,1002.11,38.969997
186275611,0,3998498,1002.08997,38.98
186389201,0,3998498,1002.1,38.98
186488047,0,3998498,1002.07996,38.98
186590222,0,3998498,1002.07,38.98
186683381,0,3998498,1002.02997,38.98
186794126,0,3998498,1002.07996,38.98
186891140,0,3998498,1002.06,38.98
186987312,0,3998498,1002.05,38.98
187096391,0,3998498,1002.08997,38.98
187196075,0,3998498,1002.07,38.98
187291137,0,3998498,1002.07996,38.989998
187399093,0,3998498,1002.07996,38.989998
187497047,0,3998498,1002.06,38.989998
187595042,0,3998498,1002.08997,38.98
187702124,0,3998498,1002.04,38.989998
187809042,0,3998498,1002.00995,38.989998
187918632,0,3998498,1001.97,38.989998
188014552,0,3998498,1002.01996,39.0
188112530,0,3998498,1002.05,39.0
188219354,0,3998498,1001.94995,39.0
188326156,0,3998498,1002.02997,39.0
188414318,0,3998498,1001.93,39.0
188521145,0,3998498,1001.92,39.01
188627054,0,3998498,1001.98,39.01
188734557,0,3998498,1001.99,39.01
188830924,0,3998498,1001.99,39.01
188926042,0,3998498,1001.94,39.01
189033100,0,3998498,1001.94995,39.0
189137052,0,3998498,1001.92,38.989998
189238119,0,3998498,1001.95996,38.989998
189326382,0,3998498,1002.02997,38.98
189443409,0,3998498,1001.88995,38.98
189539043,0,3998498,1001.89996,38.969997
189647351,0,3998498,1001.92,38.969997
189744549,0,3998498,1001.94995,38.96
189840380,0,3998498,1001.91,38.95
189957403,0,3998498,1001.89996,38.95
190054454,0,3998498,1001.8,38.93
190139053,0,3998498,1001.88,38.93
190255556,0,3998498,1001.88,38.92
190355094,0,3998498,1001.99,38.91
190462163,0,3998498,1002.0,38.91
190557666,0,3998498,1001.89996,38.899998
190655005,0,3998498,1001.98,38.899998
190766533,0,3998498,1001.93,38.89
190864546,0,3998498,1001.91,38.879997
190963042,0,3998498,1002.08997,38.879997
191075048,0,3998498,1001.98,38.879997
191171078,0,3998498,1002.07996,38.87
191270536,0,3998498,1002.02997,38.879997
191376418,0,3998498,1002.02997,38.879997
191481055,0,3998498,1002.11,38.879997
191569047,0,3998498,1002.11,38.879997
191680604,0,3998498,1002.06,38.879997
191782999,0,3998498,1002.02997,38.879997
191878362,0,3998498,1001.94,38.879997
191985018,0,3998498,1002.11,38.879997
192086598,0,3998498,1001.99,38.879997
192183421,0,3998498,1002.1,38.879997
192295068,0,3998498,1002.04,38.879997
192396116,0,3998498,1002.12,38.879997
192492173,0,3998498,1002.07996,38.879997
192602029,0,3998498,1002.0,38.89
192698019,0,3998498,1002.06,38.89
192794018,0,3998498,1001.95996,38.89
192902304,0,3998498,1001.94,38.89
193002432,0,3998498,1001.94995,38.89
193099426,0,3998498,1001.99,38.899998
193207579,0,3998498,1001.98,38.91
193303588,0,3998498,1001.95996,38.91
193399591,0,3998498,1002.0,38.91
193517623,0,3998498,1001.97,38.91
193613523,0,3998498,1001.88,38.91
193719601,0,3998498,1001.88995,38.92
193814520,0,3998498,1001.82,38.92
193911745,0,3998498,1001.94,38.93
194028145,0,3998498,1001.93,38.93
194124167,0,3998498,1002.00995,38.93
194210018,0,3998498,1001.94995,38.93
194330122,0,3998498,1001.95996,38.94
194426018,0,3998498,1001.92,38.93
194535594,0,3998498,1001.91,38.94
194630154,0,3998498,1002.00995,38.94
194727591,0,3998498,1002.00995,38.94
194844548,0,3998498,1001.95996,38.94
194940099,0,3998498,1001.93,38.95
195047603,0,3998498,1002.01996,38.96
195143615,0,3998498,1001.99,38.95
195239558,0,3998498,1001.97,38.96
195348037,0,3998498,1002.0,38.96
195455610,0,3998498,1001.97,38.96
195541554,0,3998498,1001.98,38.96
195650018,0,3998498,1001.95996,38.96
196357019,0,3998498,1001.94995,38.98
196463588,0,3998498,1001.94,38.98
196567565,0,3998498,1001.97,38.98
196674018,0,3998498,1002.04,38.98
196770116,0,3998498,1001.92,38.98
196871553,0,3998498,1001.94,38.98
196978077,0,3998498,1001.97,38.989998
197084057,0,3998498,1001.98,38.989998
197170075,0,3998498,1001.97,38.989998
197276210,0,3998498,1001.97,39.0
197383541,0,3998498,1001.89996,38.989998
197491332,0,3998498,1001.92,38.989998
197589957,0,3998498,1001.88995,39.0
197685083,0,3998498,1001.99,39.0
197794469,0,3998498,1002.02997,39.0
197903098,0,3998498,1001.88,39.01
197990941,0,3998498,1001.94,39.0
198110400,0,3998498,1001.92,39.01
198208043,0,3998498,1001.98,39.01
198303617,0,3998498,1001.94995,39.01
198413313,0,3998498,1001.99,39.01
198509551,0,3998498,1001.94995,39.01
198610405,0,3998498,1001.97,39.01
198706327,0,3998498,1002.00995,39.02
198800054,0,3998498,1002.0,39.02
198920114,0,3998498,1002.0,39.02
199020777,0,3998498,1002.02997,39.02
199117162,0,3998498,1001.94995,39.02
199205046,0,3998498,1001.99,39.02
199320060,0,3998498,1001.99,39.02
199429319,0,3998498,1001.95996,39.03
199517052,0,3998498,1002.07,39.03
199628078,0,3998498,1001.97,39.02
199720052,0,3998498,1002.02997,39.02
199829613,0,3998498,1002.0,39.01
199925321,0,3998498,1002.01996,39.01
200032087,0,3998498,1002.0,39.0
200120075,0,3998498,1001.99,39.0
200240073,0,3998498,1002.04,39.0
200335051,0,3998498,1002.0,39.0
200441390,0,3998498,1001.93,38.989998
200538396,0,3998498,1001.95996,38.989998
200629495,0,3998498,1001.95996,39.0
200749313,0,3998498,1001.94,38.989998
200845557,0,3998498,1002.0,38.98
200952054,0,3998498,1001.94995,38.98
201039051,0,3998498,1001.98,38.98
201160064,0,3998498,1002.01996,38.98
201256144,0,3998498,1001.99,38.969997
201352051,0,3998498,1001.94995,38.969997
201461534,0,3998498,1001.92,38.969997
201548866,0,3998498,1001.99,38.96
201664047,0,3998498,1001.88995,38.95
201764787,0,3998498,1001.93,38.96
201871090,0,3998498,1001.88995,38.95
201959022,0,3998498,1001.92,38.95
202068705,0,3998498,1001.91,38.94
202175027,0,3998498,1001.79,38.94
202260841,0,3998498,1001.76996,38.93
202382916,0,3998498,1001.88,38.93
202481018,0,3998498,1001.74,38.92
202570018,0,3998498,1001.67,38.92
202680356,0,3998498,1001.68,38.91
202778103,0,3998498,1001.63,38.91
202876021,0,3998498,1001.63,38.91
202989963,0,3998498,1001.63,38.899998
203090182,0,3998498,1001.57,38.89
203186064,0,3998498,1001.58997,38.89
203288030,0,3998498,1001.54,38.879997
203377770,0,3998498,1001.57996,38.89
203489150,0,3998498,1001.52997,38.89
203591916,0,3998498,1001.51996,38.879997
203688813,0,3998498,1001.55,38.89
203795022,0,3998498,1001.5,38.89
203903344,0,3998498,1001.50995,38.89
203991361,0,3998498,1001.55,38.89
204101018,0,3998498,1001.5,38.89
204210107,0,3998498,1001.57,38.89
204296236,0,3998498,1001.55,38.899998
204407801,0,3998498,1001.54,38.89
204511921,0,3998498,1001.54,38.89
204608104,0,3998498,1001.50995,38.89
204695324,0,3998498,1001.61,38.89
204815227,0,3998498,1001.56,38.89
204914302,0,3998498,1001.62,38.89
205002023,0,3998498,1001.57996,38.89
205112029,0,3998498,1001.6,38.899998
205221029,0,3998498,1001.56,38.899998
205312037,0,3998498,1001.64996,38.89
205430569,0,3998498,1001.56,38.89
205531030,0,3998498,1001.62,38.899998
205621143,0,3998498,1001.61,38.899998
205728073,0,3998498,1001.62,38.91
205835031,0,3998498,1001.6,38.899998
205930019,0,3998498,1001.70996,38.899998
206040703,0,3998498,1001.68,38.899998
206139064,0,3998498,1001.61,38.91
206234101,0,3998498,1001.63995,38.92
206328077,0,3998498,1001.66,38.92
206438955,0,3998498,1001.72,38.92
206539060,0,3998498,1001.69,38.92
206648612,0,3998498,1001.72,38.92
206739054,0,3998498,1001.73,38.92
206848194,0,3998498,1001.66,38.92
206956042,0,3998498,1001.70996,38.93
207043043,0,3998498,1001.67,38.94
207152054,0,3998498,1001.72,38.93
207259054,0,3998498,1001.73,38.94
207346133,0,3998498,1001.73,38.94
207471924,0,3998498,1001.70996,38.94
207568787,0,3998498,1001.74,38.95
207661019,0,3998498,1001.70996,38.94
207768774,0,3998498,1001.79,38.94
207867040,0,3998498,1001.70996,38.95
207965018,0,3998498,1001.79,38.95
208999057,0,3998498,1001.85,38.95
209097019,0,3998498,1001.82996,38.95
209195019,0,3998498,1001.87,38.96
209304371,0,3998498,1001.82996,38.95
209406314,0,3998498,1001.82,38.96
209508397,0,3998498,1001.83997,38.95
209596383,0,3998498,1001.82,38.95
209706030,0,3998498,1001.8,38.95
209811391,0,3998498,1001.83997,38.96
209911018,0,3998498,1001.79,38.96
210002031,0,3998498,1001.81,38.96
210115019,0,3998498,1001.88995,38.96
210221022,0,3998498,1001.88,38.96
210306139,0,3998498,1001.87,38.969997
210418293,0,3998498,1001.87,38.96
210519019,0,3998498,1001.82996,38.96
210620375,0,3998498,1001.87,38.96
210711607,0,3998498,1001.81,38.969997
210826333,0,3998498,1001.89996,38.96
210935141,0,3998498,1001.88995,38.96
211031762,0,3998498,1001.87,38.96
211119331,0,3998498,1001.85,38.969997
211239027,0,3998498,1001.89996,38.969997
211339018,0,3998498,1001.89996,38.969997
211431066,0,3998498,1001.92,38.969997
211542753,0,3998498,1001.87,38.969997
211638267,0,3998498,1001.83997,38.969997
211735018,0,3998498,1001.87,38.969997
211847088,0,3998498,1001.88995,38.969997
211948018,0,3998498,1001.89996,38.969997
212047222,0,3998498,1001.88,38.969997
212135018,0,3998498,1001.87,38.98
212255018,0,3998498,1001.89996,38.969997
212354119,0,3998498,1001.89996,38.98
212439291,0,3998498,1001.88995,38.98
212560029,0,3998498,1001.89996,38.98
212658492,0,3998498,1001.92,38.98
212742336,0,3998498,1001.82996,38.98
212862450,0,3998498,1001.93,38.98
212959029,0,3998498,1001.88,38.98
213065195,0,3998498,1001.91,38.989998
213160064,0,3998498,1001.89996,38.989998
213258585,0,3998498,1001.93,38.989998
213367023,0,3998498,1001.89996,38.989998
213465178,0,3998498,1001.87,38.989998
213565826,0,3998498,1001.8,38.989998
213673183,0,3998498,1001.86,38.989998
213772019,0,3998498,1001.82996,38.989998
213871024,0,3998498,1001.8,38.989998
213983057,0,3998498,1001.79,38.989998
214081184,0,3998498,1001.86,38.989998
214179071,0,3998498,1001.79,38.989998
214286020,0,3998498,1001.76996,38.989998
214385148,0,3998498,1001.77997,38.989998
214484324,0,3998498,1001.87,38.989998
214572354,0,3998498,1001.81,39.0
214692023,0,3998498,1001.77997,38.989998
214788019,0,3998498,1001.75,38.989998
214897297,0,3998498,1001.86,39.0
215003029,0,3998498,1001.81,39.0
215090019,0,3998498,1001.83997,39.0
215199061,0,3998498,1001.85,39.0
215307018,0,3998498,1001.82996,39.0
215394121,0,3998498,1001.87,39.0
215505335,0,3998498,1001.82996,38.989998
215605409,0,3998498,1001.87,39.0
215703076,0,3998498,1001.82996,39.0
215811331,0,3998498,1001.87,39.0
215907035,0,3998498,1001.83997,39.0
216005460,0,3998498,1001.82996,39.0
216113025,0,3998498,1001.88,39.01
216219019,0,3998498,1001.87,39.0
216307023,0,3998498,1001.93,39.0
216424366,0,3998498,1001.95996,39.0
216520603,0,3998498,1001.87,39.0
216627072,0,3998498,1001.89996,39.0
216723038,0,3998498,1001.92,39.01
216819019,0,3998498,1001.91,39.0
216926131,0,3998498,1001.93,39.0
217032513,0,3998498,1001.93,39.01
217120349,0,3998498,1001.98,39.01
217238018,0,3998498,1001.99,39.0
217334105,0,3998498,1001.93,39.01
217440365,0,3998498,1001.97,39.01
217536374,0,3998498,1001.94,39.01
217632376,0,3998498,1001.94995,39.01
217739337,0,3998498,1001.99,39.01
217845149,0,3998498,1002.02997,39.01
217931018,0,3998498,1001.98,39.01
218050179,0,3998498,1002.04,39.01
218147332,0,3998498,1001.95996,39.01
218256497,0,3998498,1002.07,39.01
218354019,0,3998498,1002.04,39.02
218454160,0,3998498,1002.06,39.01
218560529,0,3998498,1002.04,39.02
218656390,0,3998498,1002.05,39.01
218752409,0,3998498,1002.06,39.01
218861458,0,3998498,1002.08997,39.01
218968671,0,3998498,1002.02997,39.01
219053021,0,3998498,1002.11,39.02
219171024,0,3998498,1002.04,39.01
219267068,0,3998498,1002.07996,39.02
219373750,0,3998498,1002.08997,39.02
219470132,0,3998498,1002.18,39.02
219565184,0,3998498,1002.16,39.02
219672429,0,3998498,1002.13,39.02
219781390,0,3998498,1002.13,39.02
219867064,0,3998498,1002.08997,39.02
219986045,0,3998498,1002.07996,39.02
220083018,0,3998498,1002.08997,39.02
220189243,0,3998498,1002.1,39.02
220286105,0,3998498,1002.13,39.03
220385018,0,3998498,1002.08997,39.02
220493018,0,3998498,1002.17,39.02
220588255,0,3998498,1002.06,39.02
220687920,0,3998498,1002.16,39.03
220796344,0,3998498,1002.16,39.03
220891596,0,3998498,1002.08997,39.02
220990075,0,3998498,1002.13,39.03
221098111,0,3998498,1002.1,39.02
221204386,0,3998498,1002.06,39.03
221290442,0,3998498,1002.07996,39.03
221407450,0,3998498,1002.12,39.03
221504089,0,3998498,1002.1,39.02
221593018,0,3998498,1002.06,39.03
221711794,0,3998498,1002.00995,39.03
221807616,0,3998498,1002.07,39.03
221913023,0,3998498,1002.07,39.03
222010415,0,3998498,1002.08997,39.04
222106383,0,3998498,1002.07996,39.03
222212254,0,3998498,1002.1,39.04
222319721,0,3998498,1002.07,39.03
222405018,0,3998498,1002.05,39.03
222522388,0,3998498,1002.01996,39.04
222621018,0,3998498,1002.06,39.03
222727730,0,3998498,1002.07,39.04
222826074,0,3998498,1002.07996,39.03
222927936,0,3998498,1002.04,39.03
223037640,0,3998498,1002.07,39.04
223134103,0,3998498,1002.05,39.04
223231569,0,3998498,1002.05,39.04
223338485,0,3998498,1002.07,39.04
223436048,0,3998498,1002.1,39.04
223533722,0,3998498,1002.13,39.04
223642151,0,3998498,1002.07996,39.04
223749023,0,3998498,1002.1,39.04
223840033,0,3998498,1002.08997,39.04
223954018,0,3998498,1002.1,39.04
224052143,0,3998498,1002.07,39.04
224159537,0,3998498,1002.14996,39.04
224258075,0,3998498,1002.13995,39.04
224353134,0,3998498,1002.11,39.05
224460513,0,3998498,1002.17,39.05
224556524,0,3998498,1002.12,39.05
224650018,0,3998498,1002.13995,39.05
224767571,0,3998498,1002.14996,39.05
224863740,0,3998498,1002.13,39.05
224970018,0,3998498,1002.13,39.059998
225076068,0,3998498,1002.1,39.05
225162018,0,3998498,1002.12,39.05
225279531,0,3998498,1002.11,39.05
225380170,0,3998498,1002.16,39.05
225465030,0,3998498,1002.16,39.05
225586018,0,3998498,1002.13995,39.05
225685650,0,3998498,1002.13,39.05
225774793,0,3998498,1002.16,39.05
225885332,0,3998498,1002.23,39.05
225991064,0,3998498,1002.18,39.059998
226085312,0,3998498,1002.22,39.05
226195535,0,3998498,1002.24,39.05
226292969,0,3998498,1002.27997,39.05
226391018,0,3998498,1002.19,39.05
226480018,0,3998498,1002.19,39.05
226598018,0,3998498,1002.27997,39.059998
226693050,0,3998498,1002.24,39.059998
226805029,0,3998498,1002.17,39.059998
226903029,0,3998498,1002.20996,39.05
227003426,0,3998498,1002.23,39.059998
227109018,0,3998498,1002.22,39.05
227213016,0,3998498,1002.23,39.05
227309218,0,3998498,1002.20996,39.05
227414294,0,3998498,1002.19995,39.04
227500929,0,3998498,1002.19995,39.05
227620759,0,3998498,1002.19,39.05
227716890,0,3998498,1002.19995,39.05
227824022,0,3998498,1002.20996,39.05
227927018,0,3998498,1002.18,39.05
228021481,0,3998498,1002.17,39.05
228128075,0,3998498,1002.13995,39.04
228222018,0,3998498,1002.19995,39.04
228330019,0,3998498,1002.18,39.05
228428723,0,3998498,1002.14996,39.05
228527023,0,3998498,1002.18,39.05
228636020,0,3998498,1002.13995,39.059998
229449018,0,3998498,1002.1,39.05
229537018,0,3998498,1002.18,39.059998
229646687,0,3998498,1002.14996,39.059998
229745029,0,3998498,1002.17,39.059998
229844020,0,3998498,1002.20996,39.059998
229954018,0,3998498,1002.14996,39.059998
230053029,0,3998498,1002.13,39.059998
230153018,0,3998498,1002.18,39.059998
230261350,0,3998498,1002.20996,39.059998
230356023,0,3998498,1002.25,39.059998
230454018,0,3998498,1002.19,39.059998
230563018,0,3998498,1002.20996,39.07
230660018,0,3998498,1002.16,39.059998
230760495,0,3998498,1002.13995,39.059998
230870956,0,3998498,1002.19,39.059998
230969018,0,3998498,1002.13,39.059998
