timestamp,error_count,device_id,x,y,z,integral_dt,x_integral,y_integral,z_integral,temperature,scaling,x_raw,y_raw,z_raw
50803504,0,1442826,0.4315094,0.5038934,-9.8195305,3954,0.0017057573,0.0020128752,-0.03880377,49.307426,0.0047884034,-67,-67,2105
50906715,0,1442826,0.42686102,0.4944519,-9.825975,4011,0.0016881357,0.0019685198,-0.039348334,49.307426,0.0047884034,-60,-65,2098
51006704,0,1442826,0.4272058,0.49222738,-9.8317375,4000,0.0017354065,0.0019440257,-0.03932727,49.313416,0.0047884034,-62,-69,2107
51105904,0,1442826,0.41705534,0.4900365,-9.820473,3930,0.0016974143,0.0019384421,-0.038610257,49.280468,0.0047884034,-65,-68,2103
51209912,0,1442826,0.42805842,0.4910728,-9.795697,3995,0.0017444543,0.0019435222,-0.039157428,49.283466,0.0047884034,-62,-70,2098
51309113,0,1442826,0.4053348,0.49751768,-9.815788,4009,0.001671616,0.001998166,-0.03930009,49.28646,0.0047884034,-64,-67,2102
51413160,0,1442826,0.40781495,0.49219364,-9.816769,4056,0.0016451932,0.0020120272,-0.039800957,49.28646,0.0047884034,-63,-64,2102
51513117,0,1442826,0.40922087,0.48440167,-9.831967,4013,0.0016696719,0.0019524428,-0.039438576,49.262497,0.0047884034,-64,-62,2107
51616304,0,1442826,0.40799513,0.4796904,-9.826411,4000,0.0016567516,0.0019498364,-0.03919065,49.271484,0.0047884034,-63,-64,2101
51716336,0,1442826,0.4190908,0.4962252,-9.80229,4032,0.0016566259,0.0020040886,-0.03946766,49.247524,0.0047884034,-67,-66,2095
51819504,0,1442826,0.4041231,0.4954497,-9.811191,3946,0.0015883739,0.0019442061,-0.03872035,49.259502,0.0047884034,-65,-64,2100
51919504,0,1442826,0.40939072,0.48399305,-9.809567,3993,0.0016423004,0.0020017524,-0.03907089,49.27448,0.0047884034,-65,-65,2099
52022704,0,1442826,0.4124526,0.48536748,-9.812234,4000,0.0016855728,0.001947929,-0.039167464,49.26849,0.0047884034,-62,-65,2099
52122704,0,1442826,0.4217312,0.48637673,-9.812516,4000,0.001693137,0.0019250263,-0.039280206,49.25052,0.0047884034,-58,-65,2102
52225915,0,1442826,0.41709924,0.48185638,-9.821679,4011,0.0016477644,0.0018881453,-0.03944943,49.271484,0.0047884034,-60,-62,2108
52325904,0,1442826,0.42098874,0.50067854,-9.802034,3996,0.0016914215,0.0019689067,-0.039212443,49.262497,0.0047884034,-62,-67,2103
52425104,0,1442826,0.41005883,0.49772352,-9.828128,3957,0.001684756,0.0019493778,-0.03884121,49.301437,0.0047884034,-61,-67,2098
52529110,0,1442826,0.419346,0.49523014,-9.816361,4006,0.0016822419,0.0019565816,-0.039316304,49.27448,0.0047884034,-60,-66,2105
52632304,0,1442826,0.40449384,0.49253595,-9.800055,3958,0.0016031225,0.0019765766,-0.038765818,49.301437,0.0047884034,-66,-64,2101
52736304,0,1442826,0.39538708,0.48105642,-9.8005295,4000,0.0015950755,0.0019116723,-0.039194107,49.28646,0.0047884034,-59,-63,2106
52836304,0,1442826,0.41560838,0.4871345,-9.803118,3965,0.0016287424,0.0019516217,-0.038840577,49.280468,0.0047884034,-66,-65,2097
52935504,0,1442826,0.42855632,0.49056524,-9.828036,3993,0.0017267556,0.0019044363,-0.039174117,49.301437,0.0047884034,-60,-68,2095
53038704,0,1442826,0.40513104,0.4975011,-9.816183,4748,0.001925309,0.0024039506,-0.046556868,49.31641,0.0047884034,-67,-64,2102
53138704,0,1442826,0.40891042,0.49020427,-9.804855,3966,0.0015874682,0.0019844708,-0.038933408,49.283466,0.0047884034,-62,-60,2105
53242722,0,1442826,0.3976622,0.49005526,-9.792168,3981,0.0015842565,0.0019364883,-0.03897784,49.331387,0.0047884034,-61,-62,2100
53341904,0,1442826,0.41273898,0.49151158,-9.826463,4000,0.0016682034,0.001900472,-0.03939186,49.27448,0.0047884034,-58,-65,2109
53445904,0,1442826,0.41206884,0.48622558,-9.793568,3960,0.0016303773,0.0018942867,-0.038855784,49.265495,0.0047884034,-61,-63,2099
53545110,0,1442826,0.42768005,0.4985731,-9.784501,3969,0.0016869693,0.0019805294,-0.03885901,49.27448,0.0047884034,-66,-65,2099
53649104,0,1442826,0.42698,0.48851573,-9.82104,3951,0.0016837727,0.0019825844,-0.03881397,49.289455,0.0047884034,-65,-67,2104
53748348,0,1442826,0.42881966,0.49932575,-9.818647,4044,0.0017252275,0.0020544094,-0.03958735,49.313416,0.0047884034,-64,-65,2097
53852304,0,1442826,0.41767883,0.48415232,-9.811642,3973,0.0016474077,0.0019383866,-0.03890922,49.322403,0.0047884034,-61,-63,2098
53952304,0,1442826,0.43119767,0.4825481,-9.802413,3955,0.0016912381,0.0018823438,-0.038784336,49.28646,0.0047884034,-61,-69,2105
54055504,0,1442826,0.41601256,0.48537418,-9.802198,3998,0.0017037897,0.0019068163,-0.039167307,49.31042,0.0047884034,-60,-66,2098
54158710,0,1442826,0.41445512,0.48597887,-9.8183565,4006,0.0017281593,0.0019203944,-0.039302833,49.322403,0.0047884034,-58,-70,2104
54258719,0,1442826,0.42267346,0.4868011,-9.821526,4015,0.0017053249,0.0019572536,-0.039389312,49.262497,0.0047884034,-64,-68,2101
54358720,0,1442826,0.41492,0.47488257,-9.815334,4016,0.0017153653,0.0018923227,-0.039404713,49.283466,0.0047884034,-60,-67,2103
54457904,0,1442826,0.42054808,0.4896514,-9.791037,3986,0.0016680119,0.0019735808,-0.039087843,49.31941,0.0047884034,-63,-64,2105
54561139,0,1442826,0.42905682,0.47852278,-9.8212595,3235,0.0014513389,0.0015625783,-0.031769425,49.358345,0.0047884034,-60,-70,2105
54661126,0,1442826,0.43241635,0.49204597,-9.802978,4017,0.001744549,0.0019658073,-0.039328784,49.364334,0.0047884034,-61,-68,2100
54765104,0,1442826,0.41057482,0.4736076,-9.822894,4000,0.001713929,0.0019020829,-0.039331574,49.289455,0.0047884034,-59,-70,2106
54868334,0,1442826,0.42675203,0.4841903,-9.813656,4030,0.0016615216,0.0019528393,-0.03950558,49.313416,0.0047884034,-59,-62,2100
54968346,0,1442826,0.42471045,0.48238474,-9.810884,4019,0.0016973191,0.0019514988,-0.03940616,49.34337,0.0047884034,-62,-66,2105
55068346,0,1442826,0.41784343,0.48751238,-9.800242,4042,0.0016468881,0.0020204242,-0.039724965,49.325397,0.0047884034,-65,-62,2105
55171504,0,1442826,0.41623947,0.49601912,-9.808878,3962,0.001622114,0.0019410666,-0.039016545,49.346363,0.0047884034,-63,-64,2111
55270704,0,1442826,0.41945726,0.4825298,-9.810387,4000,0.0016774575,0.0019635034,-0.039359275,49.325397,0.0047884034,-61,-64,2109
55374732,0,1442826,0.4226507,0.49579012,-9.817373,4028,0.0017128475,0.0020310155,-0.039443668,49.340374,0.0047884034,-66,-68,2097
55473153,0,1442826,0.4255456,0.5001694,-9.813334,3995,0.0016889714,0.0019488331,-0.039191667,49.325397,0.0047884034,-61,-67,2104
55577913,0,1442826,0.42731524,0.4763512,-9.812784,3982,0.0016565942,0.0019527304,-0.039173394,49.307426,0.0047884034,-64,-63,2107
55678704,0,1442826,0.41918632,0.49102056,-9.800307,3964,0.0016856341,0.0019114825,-0.038802225,49.352352,0.0047884034,-60,-67,2101
55781141,0,1442826,0.4146171,0.49229002,-9.813122,4037,0.0017243444,0.0020257167,-0.039635938,49.352352,0.0047884034,-64,-68,2105
55881104,0,1442826,0.4209098,0.47737503,-9.8165455,4764,0.001975922,0.0023082395,-0.046814263,49.391293,0.0047884034,-61,-64,2103
55984304,0,1442826,0.42449886,0.48767963,-9.824097,3958,0.001631795,0.00199184,-0.038881194,49.35535,0.0047884034,-63,-63,2106
56084304,0,1442826,0.4193954,0.49801862,-9.827398,3994,0.0016714409,0.0020174496,-0.039187163,49.370323,0.0047884034,-68,-65,2099
56183504,0,1442826,0.41492262,0.48919636,-9.810249,4000,0.0016662691,0.0019327921,-0.03924583,49.340374,0.0047884034,-59,-65,2104
56287504,0,1442826,0.4226521,0.47153136,-9.821178,3968,0.0016128126,0.0019001133,-0.038992666,49.36733,0.0047884034,-60,-61,2105
56386704,0,1442826,0.40927237,0.480955,-9.813413,3994,0.0016826936,0.0019067221,-0.039295647,49.31641,0.0047884034,-60,-66,2108
56490704,0,1442826,0.41526937,0.49548152,-9.810404,4000,0.0016851294,0.0020147942,-0.039171506,49.31941,0.0047884034,-64,-68,2098
56589913,0,1442826,0.4218673,0.48689073,-9.781344,3972,0.0016809765,0.0019075884,-0.038913008,49.358345,0.0047884034,-60,-66,2099
56693943,0,1442826,0.4070429,0.48360568,-9.792433,4039,0.0016709716,0.001965266,-0.03957662,49.36733,0.0047884034,-63,-65,2098
56793104,0,1442826,0.41929498,0.4780538,-9.805507,3979,0.0016956648,0.0018769999,-0.03900381,49.35535,0.0047884034,-61,-66,2098
56897110,0,1442826,0.41370115,0.4814017,-9.848812,4006,0.001616949,0.001965908,-0.039440654,49.382305,0.0047884034,-64,-62,2106
56997143,0,1442826,0.41532204,0.49574345,-9.812505,4039,0.0016959484,0.0020250946,-0.039713528,49.36733,0.0047884034,-67,-64,2109
57100304,0,1442826,0.42691234,0.48535335,-9.800461,3994,0.0016886976,0.0019241656,-0.039086327,49.35535,0.0047884034,-60,-64,2097
57200339,0,1442826,0.41882995,0.4904469,-9.804287,4028,0.0016876718,0.0019171403,-0.039507374,49.352352,0.0047884034,-58,-66,2104
57303504,0,1442826,0.41419107,0.49079445,-9.812892,3953,0.0016696951,0.0019400385,-0.03878632,49.391293,0.0047884034,-65,-69,2105
57404304,0,1442826,0.42016944,0.50021476,-9.811738,3979,0.0017224585,0.0019511217,-0.038950954,49.349358,0.0047884034,-63,-68,2093
57506704,0,1442826,0.41881862,0.48528546,-9.803322,3966,0.0016632684,0.0019122969,-0.03894078,49.388294,0.0047884034,-60,-64,2104
57606749,0,1442826,0.41407233,0.48085144,-9.817216,4027,0.0016770369,0.0018861151,-0.03944217,49.35535,0.0047884034,-58,-62,2099
57705904,0,1442826,0.41874042,0.49102262,-9.824978,4000,0.001706976,0.0019690318,-0.039263207,49.3853,0.0047884034,-62,-65,2103
57809909,0,1442826,0.4142019,0.47934657,-9.7960415,4005,0.0016606416,0.0019139447,-0.039298467,49.382305,0.0047884034,-60,-65,2107
57913112,0,1442826,0.417704,0.47914222,-9.812403,3970,0.0016480053,0.0018953513,-0.03899526,49.3853,0.0047884034,-61,-65,2104
58013148,0,1442826,0.4185902,0.47476998,-9.806197,4803,0.0020517702,0.0023289036,-0.04707755,49.427235,0.0047884034,-63,-68,2103
58116304,0,1442826,0.40928316,0.48569152,-9.823278,3993,0.0017322754,0.0018796286,-0.039285555,49.406265,0.0047884034,-59,-67,2112
58216304,0,1442826,0.42587394,0.49856988,-9.804992,3994,0.0017039916,0.0019832319,-0.039139576,49.3853,0.0047884034,-64,-67,2099
58316304,0,1442826,0.42489538,0.49872243,-9.808237,3954,0.0016851549,0.001951811,-0.03882492,49.391293,0.0047884034,-60,-66,2106
58419504,0,1442826,0.40536514,0.48098195,-9.827746,4000,0.0016755591,0.0019400821,-0.03934677,49.382305,0.0047884034,-64,-67,2108
58518704,0,1442826,0.40572685,0.5030434,-9.807878,3992,0.0016705962,0.0019726797,-0.039173216,49.388294,0.0047884034,-64,-65,2104
58622704,0,1442826,0.42763495,0.49505898,-9.812006,3967,0.0016294194,0.0019342109,-0.038985025,49.41226,0.0047884034,-65,-63,2107
58721927,0,1442826,0.41496512,0.49303108,-9.817445,4021,0.0016845813,0.0019389186,-0.039435014,49.370323,0.0047884034,-58,-67,2101
58825910,0,1442826,0.41711253,0.48697358,-9.810848,4006,0.001672602,0.0019527478,-0.039283857,49.406265,0.0047884034,-63,-67,2099
58925911,0,1442826,0.4281161,0.4821653,-9.80209,3986,0.0017082585,0.0018759588,-0.039070837,49.409264,0.0047884034,-57,-67,2104
59025907,0,1442826,0.4220884,0.49186414,-9.817006,4003,0.001661779,0.0019761715,-0.039242975,49.40327,0.0047884034,-61,-65,2100
59129104,0,1442826,0.41365722,0.4964871,-9.80923,4000,0.0016203183,0.0020091485,-0.0393069,49.442207,0.0047884034,-63,-62,2104
59232304,0,1442826,0.4246384,0.49052402,-9.810619,3952,0.0016802116,0.0019925043,-0.038817145,49.39728,0.0047884034,-66,-66,2105
59332304,0,1442826,0.41461575,0.4846391,-9.818423,3949,0.0016847688,0.0019005757,-0.0387601,49.457184,0.0047884034,-60,-65,2101
59431504,0,1442826,0.41785702,0.4870484,-9.796652,4000,0.0016605144,0.0019042748,-0.03920427,49.445206,0.0047884034,-58,-65,2100
59535541,0,1442826,0.42048055,0.49287602,-9.813861,4037,0.0016645931,0.002000658,-0.039647467,49.445206,0.0047884034,-64,-61,2103
59634704,0,1442826,0.4127576,0.48019844,-9.81319,3993,0.001648091,0.0019406762,-0.039238222,49.45419,0.0047884034,-62,-64,2103
59738713,0,1442826,0.40619817,0.48936018,-9.813826,4009,0.0016354537,0.0019582761,-0.03940472,49.457184,0.0047884034,-60,-63,2107
59837950,0,1442826,0.41263106,0.4905323,-9.817948,4026,0.0017236632,0.0019989903,-0.039520375,49.43622,0.0047884034,-62,-68,2102
59941956,0,1442826,0.41413322,0.48370692,-9.820047,4052,0.0016586899,0.0019480148,-0.039809592,49.463177,0.0047884034,-61,-61,2104
60041104,0,1442826,0.41134495,0.4846534,-9.812999,3973,0.0016358888,0.0019119584,-0.038963944,49.45419,0.0047884034,-61,-66,2101
60145105,0,1442826,0.41934213,0.47517997,-9.830434,4001,0.0017145504,0.0018542875,-0.03934306,49.463177,0.0047884034,-60,-68,2109
60245104,0,1442826,0.42461306,0.48531958,-9.829847,3965,0.0017218094,0.0019369053,-0.0389929,49.47815,0.0047884034,-61,-70,2109
60348326,0,1442826,0.42421684,0.4822968,-9.82426,4015,0.0017186748,0.0019572128,-0.039400958,49.469166,0.0047884034,-63,-67,2104
60448346,0,1442826,0.42070556,0.48781767,-9.810874,4026,0.001653845,0.0019643423,-0.03960511,49.484142,0.0047884034,-60,-63,2111
60551504,0,1442826,0.421113,0.48616847,-9.811294,4000,0.0016914112,0.0019210991,-0.039276954,49.493126,0.0047884034,-61,-64,2098
60655510,0,1442826,0.41439825,0.4992941,-9.838926,4006,0.0016323889,0.0019682313,-0.039377436,49.481148,0.0047884034,-60,-60,2104
60755504,0,1442826,0.4275128,0.479306,-9.810612,3984,0.0016919979,0.0018658371,-0.039030205,49.49612,0.0047884034,-56,-66,2099
60858704,0,1442826,0.436164,0.4858763,-9.810884,4000,0.0017180898,0.0019230687,-0.03925561,49.493126,0.0047884034,-60,-67,2100
60957910,0,1442826,0.42167142,0.48961738,-9.8118515,3990,0.0016448491,0.0019717077,-0.039155632,49.493126,0.0047884034,-64,-64,2105
61061936,0,1442826,0.41612667,0.48022747,-9.821696,4026,0.0016424701,0.0019104627,-0.03948569,49.49912,0.0047884034,-59,-64,2100
61161104,0,1442826,0.4236672,0.48417488,-9.801225,3979,0.001684261,0.00192836,-0.03900435,49.49912,0.0047884034,-61,-67,2102
61265104,0,1442826,0.40539792,0.47589144,-9.824176,3993,0.0016423627,0.001877879,-0.039232235,49.49912,0.0047884034,-56,-63,2107
61364329,0,1442826,0.40191838,0.49801794,-9.7973795,4018,0.0015661386,0.0020143143,-0.03938432,49.505108,0.0047884034,-64,-61,2100
61468356,0,1442826,0.41939285,0.4854699,-9.826352,4052,0.0017234555,0.0019834132,-0.039733168,49.56501,0.0047884034,-65,-70,2101
61567504,0,1442826,0.42130443,0.48681113,-9.811407,4000,0.0017046342,0.0019441167,-0.039223105,49.54105,0.0047884034,-62,-67,2102
61671510,0,1442826,0.41759762,0.49026856,-9.826789,4006,0.0017051407,0.001983354,-0.03944607,49.493126,0.0047884034,-64,-69,2108
61774747,0,1442826,0.42668483,0.48629346,-9.802066,3243,0.0013676545,0.0015664857,-0.031753376,49.505108,0.0047884034,-61,-65,2101
61874704,0,1442826,0.41093045,0.49906555,-9.807376,3936,0.0016208333,0.0019449244,-0.038633097,49.538055,0.0047884034,-63,-65,2102
61978704,0,1442826,0.41463238,0.48448163,-9.776947,3964,0.0016436115,0.0019685768,-0.038749404,49.526073,0.0047884034,-63,-65,2099
62077918,0,1442826,0.41366634,0.49282846,-9.817531,4008,0.0016810828,0.0019345696,-0.03933017,49.502113,0.0047884034,-62,-67,2099
62181904,0,1442826,0.40959352,0.47595736,-9.787514,3989,0.0016559984,0.0019179112,-0.039103948,49.54105,0.0047884034,-60,-64,2099
62281104,0,1442826,0.4331939,0.47182924,-9.812153,3952,0.0017164268,0.0018342077,-0.03873859,49.49612,0.0047884034,-57,-67,2103
62385104,0,1442826,0.41261047,0.48030803,-9.821584,4000,0.0017027168,0.0018867546,-0.039219297,49.532063,0.0047884034,-59,-66,2100
62484304,0,1442826,0.4227627,0.493281,-9.802316,4000,0.0016374146,0.0019482205,-0.039082494,49.576992,0.0047884034,-60,-63,2093
62588352,0,1442826,0.40422457,0.49327368,-9.81333,4048,0.0016956246,0.001953779,-0.039689776,49.51409,0.0047884034,-60,-63,2099
62688346,0,1442826,0.39787292,0.49792564,-9.825948,4030,0.001659379,0.0020665973,-0.039641358,49.520084,0.0047884034,-66,-64,2103
62791532,0,1442826,0.4217356,0.49379608,-9.813136,4028,0.0016358895,0.002017107,-0.0395879,49.56501,0.0047884034,-64,-65,2106
62894704,0,1442826,0.417839,0.48811746,-9.833453,4000,0.0017027409,0.001946158,-0.039303087,49.538055,0.0047884034,-60,-66,2106
62994704,0,1442826,0.42364043,0.4965303,-9.816751,4786,0.0019637381,0.00242535,-0.0470256,49.56501,0.0047884034,-67,-62,2106
63098704,0,1442826,0.41524318,0.48696223,-9.806652,4000,0.001725726,0.0019517676,-0.039173603,49.54704,0.0047884034,-61,-65,2100
63197949,0,1442826,0.41874927,0.48441917,-9.818594,4005,0.0016471597,0.0019678003,-0.039290775,49.544044,0.0047884034,-63,-63,2101
63301118,0,1442826,0.410236,0.49284568,-9.805708,3214,0.0013590597,0.0016005097,-0.03155543,49.556026,0.0047884034,-64,-67,2105
63401109,0,1442826,0.42087016,0.4789333,-9.80258,3974,0.0016859315,0.0018591792,-0.03896057,49.550034,0.0047884034,-56,-65,2104
63503540,0,1442826,0.41872394,0.4963975,-9.800737,3213,0.0013512148,0.0015962999,-0.0314695,49.556026,0.0047884034,-65,-66,2100
63604350,0,1442826,0.420599,0.48166862,-9.824712,4046,0.0016858232,0.0019544826,-0.039761394,49.550034,0.0047884034,-62,-67,2107
63708347,0,1442826,0.40994132,0.47581154,-9.819429,4037,0.0017008993,0.0019253173,-0.03963187,49.553032,0.0047884034,-59,-65,2102
63807504,0,1442826,0.42035756,0.47841904,-9.819875,4000,0.0016853428,0.0019900128,-0.039264984,49.576992,0.0047884034,-63,-67,2104
63911504,0,1442826,0.41439694,0.48382992,-9.796636,3974,0.0016706594,0.0018821083,-0.038850598,49.556026,0.0047884034,-57,-66,2093
64014704,0,1442826,0.42256704,0.4770828,-9.836154,4000,0.0017141064,0.0018847422,-0.039327756,49.594963,0.0047884034,-60,-68,2107
64114704,0,1442826,0.41462514,0.48682043,-9.817285,4000,0.0016509464,0.001972801,-0.039245956,49.576992,0.0047884034,-61,-63,2103
64217915,0,1442826,0.40898,0.47373766,-9.812494,4011,0.0016151085,0.0018957581,-0.039497115,49.58598,0.0047884034,-58,-63,2111
64317910,0,1442826,0.39727217,0.48133597,-9.818202,4006,0.0015977437,0.0019183101,-0.039346732,49.60395,0.0047884034,-60,-62,2101
64421109,0,1442826,0.40282246,0.4912676,-9.827819,4005,0.001681865,0.0019561194,-0.039356075,49.612934,0.0047884034,-62,-64,2104
64521104,0,1442826,0.4083993,0.48761743,-9.830637,3972,0.0016281444,0.0019418398,-0.03908654,49.630905,0.0047884034,-63,-62,2108
64624304,0,1442826,0.41389552,0.49110246,-9.811378,3983,0.0016478298,0.0019472886,-0.039105766,49.618923,0.0047884034,-61,-65,2101
64724308,0,1442826,0.4214031,0.48108426,-9.801663,3997,0.001663056,0.0019655828,-0.039159615,49.6339,0.0047884034,-61,-65,2098
64827542,0,1442826,0.4056863,0.48375517,-9.798379,3238,0.0013035338,0.0015968918,-0.03171231,49.60994,0.0047884034,-62,-63,2101
64927504,0,1442826,0.4118015,0.47660762,-9.799145,4000,0.0016661687,0.0019058929,-0.039161947,49.61593,0.0047884034,-59,-66,2102
65030704,0,1442826,0.412813,0.47917485,-9.802874,3986,0.0016010439,0.0019467319,-0.039032564,49.60395,0.0047884034,-63,-62,2100
65130704,0,1442826,0.40535572,0.49063134,-9.793234,4000,0.0016526629,0.0020184917,-0.039194748,49.594963,0.0047884034,-67,-65,2100
65234704,0,1442826,0.41513696,0.48747602,-9.805427,3965,0.0016877416,0.0019461075,-0.03889859,49.65187,0.0047884034,-64,-65,2102
65333924,0,1442826,0.42421162,0.49493745,-9.795575,4020,0.0016554384,0.002028712,-0.039354093,49.61593,0.0047884034,-65,-63,2099
65433911,0,1442826,0.42191377,0.4891493,-9.80605,4007,0.0016980754,0.0019512523,-0.039203946,49.630905,0.0047884034,-63,-66,2096
65537104,0,1442826,0.41445434,0.49129727,-9.802073,3963,0.0016622797,0.0019999493,-0.03896435,49.636894,0.0047884034,-64,-66,2108
65637138,0,1442826,0.41533083,0.4845114,-9.797981,4032,0.0017086288,0.002009756,-0.0396443,49.65187,0.0047884034,-64,-66,2106
65740304,0,1442826,0.40798995,0.48246166,-9.795548,4000,0.0016469583,0.0018835424,-0.039247252,49.65187,0.0047884034,-58,-64,2102
65844304,0,1442826,0.4222371,0.48726478,-9.817712,4000,0.0016815295,0.0019554961,-0.03925186,49.62791,0.0047884034,-62,-68,2098
65943504,0,1442826,0.41098547,0.49841475,-9.806215,3964,0.0016874892,0.0019776786,-0.03883052,49.657864,0.0047884034,-63,-66,2101
66043504,0,1442826,0.4273164,0.49287128,-9.804684,4000,0.001639531,0.0019669766,-0.03919083,49.666847,0.0047884034,-62,-63,2101
66146704,0,1442826,0.41473833,0.4819211,-9.822292,4000,0.0016145109,0.0019307245,-0.039306883,49.648876,0.0047884034,-64,-63,2106
66246704,0,1442826,0.41239515,0.49622166,-9.80602,3973,0.0016932315,0.001970635,-0.038945332,49.636894,0.0047884034,-61,-68,2102
66349910,0,1442826,0.41359398,0.46748757,-9.830286,4006,0.0016593959,0.0018589476,-0.03931582,49.66984,0.0047884034,-57,-63,2105
66449910,0,1442826,0.4233447,0.49234316,-9.801104,4006,0.0017073505,0.0020043182,-0.039312452,49.65187,0.0047884034,-66,-65,2102
66553911,0,1442826,0.39749652,0.50110596,-9.819441,4001,0.0015880293,0.0019694844,-0.03929384,49.67883,0.0047884034,-63,-61,2104
66653130,0,1442826,0.40921065,0.49851686,-9.815208,4026,0.0016848738,0.002022266,-0.03957187,49.687813,0.0047884034,-66,-66,2105
66757125,0,1442826,0.42223102,0.4902851,-9.803896,4021,0.0017213647,0.0020198189,-0.03933712,49.65187,0.0047884034,-62,-66,2097
66856304,0,1442826,0.4105886,0.47298777,-9.811243,3993,0.0016653622,0.0018318777,-0.039085988,49.68482,0.0047884034,-55,-66,2096
66960304,0,1442826,0.412077,0.48997107,-9.792749,3963,0.0015786849,0.0018783323,-0.038790885,49.66086,0.0047884034,-59,-61,2099
67059504,0,1442826,0.40991414,0.48188397,-9.787369,4000,0.0016701207,0.0019975826,-0.03914695,49.6968,0.0047884034,-65,-66,2098
67159504,0,1442826,0.41176322,0.48255193,-9.826891,4000,0.0016757436,0.0019497264,-0.039124034,49.657864,0.0047884034,-63,-67,2096
67262704,0,1442826,0.42317253,0.49267074,-9.834144,4000,0.0017180779,0.00195003,-0.039293677,49.681824,0.0047884034,-60,-67,2103
67362704,0,1442826,0.41582218,0.4870994,-9.811538,4000,0.0016835236,0.001991956,-0.039188907,49.687813,0.0047884034,-63,-64,2098
67465910,0,1442826,0.40508917,0.49067262,-9.808396,4006,0.0016514985,0.001956632,-0.039230444,49.6968,0.0047884034,-60,-66,2101
67573904,0,1442826,0.41765094,0.5048292,-9.801884,4000,0.0016969647,0.002053111,-0.039284036,49.732742,0.0047884034,-66,-69,2104
67673104,0,1442826,0.4218194,0.49343485,-9.798853,3999,0.0017080542,0.00193026,-0.039247535,49.732742,0.0047884034,-61,-64,2105
67773133,0,1442826,0.4084654,0.49413943,-9.801546,4029,0.001703443,0.0019523914,-0.03956096,49.72076,0.0047884034,-60,-65,2099
67876304,0,1442826,0.41475385,0.4829985,-9.794828,4000,0.00163369,0.0020053075,-0.039185025,49.711777,0.0047884034,-65,-62,2100
67976304,0,1442826,0.41604212,0.47121587,-9.820052,3986,0.0016700085,0.0019354502,-0.039059103,49.71477,0.0047884034,-63,-66,2098
68080332,0,1442826,0.4302551,0.47919294,-9.823369,4028,0.0016951906,0.001911509,-0.039536256,49.732742,0.0047884034,-59,-63,2107
68179510,0,1442826,0.4214704,0.4921181,-9.830109,4006,0.0017014376,0.0019355624,-0.039390698,49.735737,0.0047884034,-60,-66,2103
68996329,0,1442826,0.408776,0.4845647,-9.839223,4025,0.0016552876,0.0018928607,-0.03959682,49.774673,0.0047884034,-59,-64,2107
69096351,0,1442826,0.4237404,0.48267102,-9.828038,4047,0.0016568683,0.0019495308,-0.039726276,49.750713,0.0047884034,-62,-64,2101
69199504,0,1442826,0.42926583,0.48057,-9.79631,3959,0.0016700192,0.0019376223,-0.038873933,49.76569,0.0047884034,-64,-65,2106
69299528,0,1442826,0.4195204,0.4952438,-9.804032,4018,0.0016908929,0.002008511,-0.039298266,49.80762,0.0047884034,-65,-69,2095
69402704,0,1442826,0.41038036,0.49722442,-9.817697,3964,0.001651255,0.0019548738,-0.038877614,49.768684,0.0047884034,-61,-65,2099
69502704,0,1442826,0.4250157,0.47829577,-9.822242,4000,0.0017226294,0.0019174662,-0.039368533,49.780663,0.0047884034,-60,-64,2106
69605904,0,1442826,0.41681144,0.48825562,-9.8160515,3953,0.0016085389,0.0019815655,-0.038780805,49.837574,0.0047884034,-63,-62,2099
69705904,0,1442826,0.4092326,0.49609423,-9.830218,3983,0.0016781967,0.0020158677,-0.03911514,49.819603,0.0047884034,-67,-67,2103
69809132,0,1442826,0.42182237,0.48200864,-9.815568,3228,0.0013516368,0.0015651037,-0.031658523,49.819603,0.0047884034,-63,-65,2104
69909111,0,1442826,0.41786093,0.48491448,-9.82009,4007,0.0016538524,0.0019494334,-0.03928791,49.819603,0.0047884034,-62,-63,2102
70009111,0,1442826,0.4238876,0.49405366,-9.8039465,3960,0.0016858552,0.0019416958,-0.038754985,49.801632,0.0047884034,-62,-68,2100
70112351,0,1442826,0.42073485,0.48626247,-9.801363,4043,0.0016743147,0.0019959281,-0.039616004,49.825592,0.0047884034,-63,-63,2101
70212304,0,1442826,0.415796,0.48657408,-9.7936535,3959,0.0015093946,0.0019434853,-0.038581483,49.819603,0.0047884034,-73,-49,2109
70315504,0,1442826,0.43028155,0.45720688,-9.810311,3994,0.0017934367,0.0021014928,-0.038775925,49.801632,0.0047884034,-67,-90,2102
70415522,0,1442826,0.39646092,0.49955288,-9.829806,4011,0.0015577199,0.0019237734,-0.039781418,49.873516,0.0047884034,-49,-63,2136
70518704,0,1442826,0.38082862,0.5162938,-9.764231,4000,0.0013650116,0.0015542882,-0.038310252,49.81361,0.0047884034,-17,-43,2080
70618704,0,1442826,0.43986538,0.44091946,-9.876386,4000,0.0010941761,0.0012679141,-0.041360453,49.843563,0.0047884034,-54,-37,2209
70721904,0,1442826,0.46545598,0.59267426,-9.902678,3988,0.0015083328,0.0026870812,-0.039097596,49.822598,0.0047884034,-13,-45,1938
70821906,0,1442826,0.4239694,0.5007082,-9.732461,4002,0.0013568299,0.0038198167,-0.039252423,49.849552,0.0047884034,-170,-30,2075
70925111,0,1442826,0.59447384,0.3565322,-9.846721,3996,0.0030641714,0.0019544342,-0.035565306,49.79564,0.0047884034,-59,-122,1825
71025111,0,1442826,0.535408,0.33168077,-9.888045,3979,-0.0011416862,0.0010768188,-0.042303033,49.86453,0.0047884034,21,21,2198
71125127,0,1442826,0.33367446,0.63823676,-9.837953,4023,-0.0013708033,-0.0019698462,-0.03487353,49.85854,0.0047884034,165,14,1994
71228383,0,1442826,0.2259885,0.17150229,-9.530873,4079,0.00018613724,-0.0034809131,-0.049535044,49.84057,0.0047884034,20,-10,2544
71331504,0,1442826,0.4062682,0.34319174,-10.082136,3993,-0.00093796314,0.0061072754,-0.041504048,49.810616,0.0047884034,-193,136,2192
71435504,0,1442826,0.6748543,0.6110671,-10.505156,3967,0.0021757302,0.004628079,-0.036912516,49.822598,0.0047884034,-516,207,2314
71536304,0,1442826,0.25618,0.017296333,-9.533364,3952,0.0027497576,0.001907175,-0.037138067,49.85854,0.0047884034,-151,-368,1863
71638723,0,1442826,0.20899265,-0.014508841,-9.571972,3983,-0.0032430172,-0.0028657482,-0.038128622,49.834576,0.0047884034,-195,257,2103
71737904,0,1442826,0.25933504,-0.10677525,-9.334256,3956,-0.0027767266,-0.0012558002,-0.037412122,49.867523,0.0047884034,317,409,2490
71841931,0,1442826,0.106633365,-0.051071662,-6.5367923,4027,0.0062316908,-0.0043833763,-0.023424074,49.885494,0.0047884034,56,-481,1371
71941904,0,1442826,-0.9587666,-2.7800415,-16.538889,4000,0.006557982,-0.0032956891,-0.05911917,49.87651,0.0047884034,463,5,2840
72045104,0,1442826,0.10500615,0.16470808,-10.887561,3994,0.0038421631,0.0006701785,-0.049461164,49.873516,0.0047884034,71,-26,2549
72144340,0,1442826,0.23746952,-0.18584263,-8.421582,3223,0.0020778258,0.0015390347,-0.014943105,49.873516,0.0047884034,-145,163,1168
72248346,0,1442826,0.25247455,-0.21907696,-8.032723,4042,0.00217704,8.797087e-05,-0.039914895,49.912453,0.0047884034,4,-11,1763
72346746,0,1442826,0.044439435,0.055563293,-9.219949,3242,0.0028589698,0.00055304734,-0.029670253,49.88849,0.0047884034,65,-235,1949
72451504,0,1442826,0.03200339,-0.03678657,-10.398261,3952,0.0016551821,-0.000519985,-0.034663245,49.915447,0.0047884034,64,-240,1754
72551504,0,1442826,0.98648906,0.3129743,-11.2137985,3987,0.0068296813,0.004969594,-0.047045052,49.87651,0.0047884034,-189,-1,2584
72654711,0,1442826,0.9058662,0.27354908,-8.238749,4007,0.011338355,0.0027016245,-0.030579913,49.8825,0.0047884034,155,-221,1963
72758704,0,1442826,-0.07205329,-0.013114309,-9.70009,3994,0.0074780425,-0.0020861402,-0.033260576,49.92443,0.0047884034,186,-374,2102
72857938,0,1442826,-0.6280064,1.2686957,-9.792052,4034,-0.0043127183,0.0097215865,-0.039688706,49.91844,0.0047884034,-465,224,1210
72961927,0,1442826,1.565845,0.051489644,-9.972957,4023,0.006134227,0.0009829308,-0.04620056,49.90047,0.0047884034,-154,-124,2252
73061104,0,1442826,-0.06605202,0.59985423,-10.260656,3972,-0.0011848917,0.007103594,-0.03957899,49.92443,0.0047884034,-479,-100,1904
73165104,0,1442826,0.9706417,0.5622713,-9.469824,3995,0.0039838413,0.0016904501,-0.049008735,49.90047,0.0047884034,-108,26,2693
73264329,0,1442826,0.403465,0.8114192,-9.197555,4025,0.0046458263,0.0031875432,-0.03421978,49.91844,0.0047884034,-25,-88,2438
73368355,0,1442826,0.07761526,0.1773687,-10.390384,4051,-0.00066452497,9.411626e-05,-0.03697275,49.939407,0.0047884034,-125,-206,1618
73467510,0,1442826,0.37208617,0.0100197885,-9.801359,4005,-0.0012770433,0.0005599406,-0.045560967,49.936413,0.0047884034,102,275,2342
73571521,0,1442826,-0.3296057,-0.51707476,-10.3333025,4017,-0.0017026782,-0.002987261,-0.045359798,49.915447,0.0047884034,306,1,1741
73670704,0,1442826,0.27943948,-0.3955989,-9.0885315,4000,-0.0016812016,-0.0019477252,-0.04233013,49.92743,0.0047884034,-255,-190,2708
73774704,0,1442826,0.9711536,-0.079232916,-9.578083,3994,0.0077156518,0.001462828,-0.032114197,49.912453,0.0047884034,-197,-197,2439
73873947,0,1442826,0.31597692,-0.13418049,-9.493216,4800,-0.0023909989,0.0004738751,-0.050947506,49.9424,0.0047884034,-201,104,2339
73973904,0,1442826,0.2585542,0.27143416,-9.457003,3961,-0.0015625136,0.0011462482,-0.035896473,49.91844,0.0047884034,19,-233,2015
74077116,0,1442826,0.4835244,-0.097975954,-10.233759,4001,-0.0017915149,-7.4427808e-06,-0.047405384,49.915447,0.0047884034,-114,289,2204
74181104,0,1442826,0.28684613,0.24428202,-9.563833,3954,-0.008290759,0.0013822485,-0.046013847,49.930424,0.0047884034,18,388,2592
74280304,0,1442826,0.070013106,-0.21179794,-10.035334,4000,0.005475637,-0.0032362477,-0.038132936,49.984337,0.0047884034,-148,-540,1617
74384304,0,1442826,0.6765235,-0.110342935,-9.605301,4000,0.00030875334,0.0049786875,-0.047477007,49.96936,0.0047884034,-317,-326,2594
74483520,0,1442826,0.5275056,-0.05672335,-9.419457,3216,0.00263895,0.00096942345,-0.034421496,49.948395,0.0047884034,-99,-49,2537
74583511,0,1442826,0.036026306,0.16002472,-9.5676985,4007,0.0037381037,-0.0003388814,-0.034515403,49.99332,0.0047884034,78,-455,2121
74687504,0,1442826,0.81850785,0.7347405,-9.921424,4000,-0.001170231,-0.0011530699,-0.0502587,49.9454,0.0047884034,140,418,2370
74786704,0,1442826,0.5729946,0.090564996,-10.137348,3973,0.0025098412,0.0015507787,-0.042397507,49.972355,0.0047884034,122,-218,2289
74890745,0,1442826,0.36122927,0.31858528,-9.976199,4035,-0.0015446737,-0.0017044146,-0.043133795,49.96337,0.0047884034,309,-68,2106
74989904,0,1442826,0.6337561,0.34068492,-9.27117,3994,0.005623936,0.0051208697,-0.029947797,49.96337,0.0047884034,-144,-60,2445
75093904,0,1442826,0.25035137,0.03374064,-10.002631,4000,0.01128694,0.005785549,-0.024855083,49.981342,0.0047884034,-288,-524,1365
75193150,0,1442826,-0.020601254,0.090757445,-9.192256,4046,0.003708844,-0.0022132164,-0.043081738,49.990326,0.0047884034,295,-250,2814
75297131,0,1442826,0.0873161,0.2606787,-9.846928,4022,0.000580647,-0.0033317842,-0.03634815,50.008297,0.0047884034,15,-399,1515
75396304,0,1442826,0.4115518,0.6005009,-9.283043,4000,0.0042884834,0.003893404,-0.035736535,49.97535,0.0047884034,95,-254,2161
75500311,0,1442826,-0.08038951,0.31249657,-9.851119,3995,0.003902119,0.00070089544,-0.027161658,49.96936,0.0047884034,-35,-261,1408
75600304,0,1442826,0.19031326,0.04498583,-9.932349,3962,0.0021185935,-0.0023112327,-0.04331262,49.95139,0.0047884034,317,-227,2608
75703504,0,1442826,-0.11188654,0.15753205,-9.95326,4000,0.0033773812,-0.0027131597,-0.03064532,49.98733,0.0047884034,259,-301,1618
75802704,0,1442826,0.22717655,0.053242356,-9.813159,4762,0.005005834,0.0021911142,-0.034179464,50.01429,0.0047884034,-111,-156,1473
75902710,0,1442826,0.6070142,0.48685724,-10.230862,3968,0.004000402,0.00435956,-0.042413343,50.002308,0.0047884034,-53,36,2095
76006710,0,1442826,0.18742132,0.09838217,-9.847867,3970,0.0045463783,0.0010281499,-0.030694034,49.97535,0.0047884034,-101,-595,1971
76105904,0,1442826,0.06114316,-0.22465812,-9.362348,3971,0.00055188214,-0.001962305,-0.035960317,50.029263,0.0047884034,112,35,2116
76209904,0,1442826,0.33008373,-0.20933732,-9.580215,4000,0.0030864226,0.0014529664,-0.034777172,50.01429,0.0047884034,-94,-139,2707
76309104,0,1442826,0.3694531,-0.23985364,-9.633915,3957,0.0011930075,-0.0014207334,-0.037618704,50.041245,0.0047884034,-59,-34,2184
76413104,0,1442826,-0.34730065,-0.38465983,-9.691792,4000,0.0034822165,-0.0007297624,-0.02985498,50.04424,0.0047884034,-47,-626,1893
76512316,0,1442826,0.06570685,-0.2583459,-10.466929,3966,0.0031309952,-0.00230039,-0.032571964,50.03226,0.0047884034,57,-199,1423
76616310,0,1442826,0.02230227,-0.06906658,-9.834425,4006,0.005097074,0.0024307878,-0.041939855,50.035255,0.0047884034,398,93,2357
76715510,0,1442826,-0.1444518,-0.3171706,-9.665465,4006,0.0037923423,0.0020789537,-0.032189682,50.035255,0.0047884034,-289,-247,2145
76819504,0,1442826,0.13563342,-0.5108339,-10.139673,3982,-0.004152589,-0.006867479,-0.037990183,50.029263,0.0047884034,255,538,2164
76918704,0,1442826,0.049729176,-0.26898512,-9.771743,4000,0.0053439722,0.00083798554,-0.030609341,50.035255,0.0047884034,-91,-206,1946
77022704,0,1442826,-0.036783334,0.108238846,-9.813234,4000,0.004707116,-0.00024314632,-0.030595118,50.029263,0.0047884034,163,-139,1519
77121904,0,1442826,0.016800774,-0.38690403,-10.307755,3977,6.771297e-05,-0.00089930464,-0.034814596,50.053226,0.0047884034,-215,-348,1201
77221904,0,1442826,0.10686957,-0.23390754,-10.385198,4000,-0.0009132946,-0.002465129,-0.038791213,50.053226,0.0047884034,-314,-130,1850
77325109,0,1442826,0.22871566,-0.3337978,-10.284718,4005,-0.0012979218,-0.0046816026,-0.03974951,50.06221,0.0047884034,113,443,1564
77425125,0,1442826,0.41376084,-0.27743265,-9.451152,4021,-7.579388e-05,-0.0027779308,-0.043065663,50.03226,0.0047884034,77,153,2419
77528358,0,1442826,-0.16005002,-0.23523872,-9.734686,4054,-0.0012464051,-0.002043182,-0.03513191,50.03825,0.0047884034,-169,-264,1782
77628346,0,1442826,-0.27591425,-0.21900082,-10.131603,4042,-0.0035679885,0.0007326255,-0.0397128,50.071198,0.0047884034,-17,-234,2164
77731510,0,1442826,0.16505538,-0.05893301,-10.044416,4006,0.0018499632,-0.002180272,-0.047186248,50.03825,0.0047884034,504,102,2837
77835512,0,1442826,-0.13662823,-0.0370535,-10.364102,4002,0.002320666,-0.0021050852,-0.03524538,50.068203,0.0047884034,108,94,2044
77935504,0,1442826,0.16746733,0.08985761,-10.062859,3961,-0.00021622167,0.002119299,-0.038094476,50.08018,0.0047884034,573,115,1822
78034704,0,1442826,0.15419407,-0.12533174,-10.183284,4000,-0.0019325921,0.0011483287,-0.039754752,50.05622,0.0047884034,587,5,1751
78137941,0,1442826,0.19514532,-0.28960267,-9.651152,3231,0.0026333586,-0.001746637,-0.037118457,50.101147,0.0047884034,-384,212,2754
78237904,0,1442826,0.16253619,0.29428354,-9.123001,3970,0.003383205,0.0025867769,-0.037714455,50.074192,0.0047884034,-229,179,2370
78341904,0,1442826,0.26797923,-0.20740406,-9.422282,3964,0.0025052736,-0.0036756853,-0.042440996,50.050232,0.0047884034,-304,305,2451
78441104,0,1442826,-0.04324909,0.14858772,-9.6899605,3992,0.004160842,0.0022677758,-0.042055216,50.08917,0.0047884034,52,-71,2170
78544353,0,1442826,-0.24411133,0.33408678,-9.971128,3249,0.001522132,0.00044890834,-0.024329385,50.08018,0.0047884034,107,-216,1578
78644304,0,1442826,-0.27768356,0.09266767,-9.274311,3964,0.0011410106,0.0004572654,-0.032191403,50.086174,0.0047884034,15,63,1631
78748346,0,1442826,-0.117503025,-0.047404006,-9.83299,4042,0.00042671445,-0.004500423,-0.025040146,50.08917,0.0047884034,99,-65,1352
78847541,0,1442826,0.0002734009,0.24544178,-10.197251,4037,0.0026166586,-0.0018408153,-0.04353185,50.08018,0.0047884034,275,202,2010
78951504,0,1442826,-0.14721452,0.073148355,-10.237551,3994,-0.007301893,0.00095920835,-0.046295345,50.098152,0.0047884034,-15,508,2003
79050704,0,1442826,0.114626855,0.103596196,-9.758494,4000,-0.004373337,0.002832232,-0.046347238,50.098152,0.0047884034,274,146,2284
79150704,0,1442826,-0.105612785,-0.15298125,-9.540544,4000,0.0038343356,-0.001524403,-0.037522428,50.134094,0.0047884034,-236,-75,2223
79253904,0,1442826,0.1303087,-0.054359134,-10.237862,3994,-0.0056580296,0.00024817325,-0.04083611,50.119118,0.0047884034,-129,563,2680
79353904,0,1442826,-0.42245913,0.05170523,-10.174712,3994,0.001906761,0.004595392,-0.034882113,50.101147,0.0047884034,-15,-198,2335
79457104,0,1442826,0.33070073,-0.23586819,-10.702175,3966,0.0037194178,0.003163894,-0.042259693,50.1311,0.0047884034,138,-98,1695
79557104,0,1442826,-0.34628817,0.28484794,-10.204404,3980,-0.0057196943,-0.0011405067,-0.045920562,50.086174,0.0047884034,200,140,1696
79661135,0,1442826,-0.34017625,0.38073334,-10.038076,4031,-0.0014225026,0.0038451045,-0.030638918,50.128105,0.0047884034,-26,-160,1810
79764304,0,1442826,-0.18879192,-0.070079334,-9.95751,3998,-0.00067655405,0.0005956536,-0.04088726,50.146076,0.0047884034,17,185,1981
79863583,0,1442826,0.0050149094,0.1961997,-10.402522,3279,0.0005470721,-0.0013057484,-0.033242106,50.1311,0.0047884034,-53,-223,2009
79963512,0,1442826,-0.07101123,0.15813622,-9.267631,4008,-0.00425633,-0.0015252258,-0.041225716,50.101147,0.0047884034,199,-119,2827
80066704,0,1442826,-0.38110316,0.016727136,-9.779367,4000,0.00024595507,-0.0005973418,-0.038858615,50.134094,0.0047884034,-120,-519,2187
80166704,0,1442826,-0.13472918,-0.07057244,-10.4086275,4000,-0.006043709,0.002807822,-0.04932622,50.12511,0.0047884034,-227,505,2073
80269940,0,1442826,-0.039325204,0.33227006,-10.028273,4029,-0.002267546,0.0018490186,-0.043733023,50.134094,0.0047884034,42,111,2513
80369904,0,1442826,-0.2836678,0.35979676,-9.6808405,3994,0.0005688985,-0.0011964662,-0.0365242,50.110134,0.0047884034,-142,7,2183
80469904,0,1442826,-0.12111616,0.38089013,-10.349979,3994,-0.0016862666,-2.222712e-05,-0.03232948,50.13709,0.0047884034,-40,239,1272
80573109,0,1442826,-0.10626227,0.50575197,-9.742894,3982,-0.0013583964,0.0037544603,-0.03797614,50.11313,0.0047884034,-55,90,2004
80673119,0,1442826,-0.09969611,0.8880938,-9.325368,4015,-0.0010003212,0.0069583217,-0.03614832,50.14308,0.0047884034,-206,9,1506
80776311,0,1442826,0.035108324,-0.16813162,-10.079952,4007,-0.0025451633,0.00031431788,-0.042469054,50.15506,0.0047884034,-38,290,2099
81079511,0,1442826,0.24556349,0.46349388,-10.010129,4007,0.002389154,0.0025634293,-0.04292702,50.146076,0.0047884034,191,50,2487
81182704,0,1442826,-0.14222345,0.26853386,-10.155573,4000,-0.00089590356,-0.00027570757,-0.04028389,50.15806,0.0047884034,159,-165,1968
81282704,0,1442826,0.036119077,0.23785578,-9.951704,3998,-0.002941776,0.0033978373,-0.049531654,50.15806,0.0047884034,-112,480,2334
81386704,0,1442826,-0.29528785,0.34514463,-10.1559925,4000,0.00021475187,0.0029595522,-0.030227413,50.14308,0.0047884034,-137,-337,1763
81485904,0,1442826,-0.024671948,0.28580222,-9.996873,3993,-0.00026631053,0.0023777632,-0.04279782,50.170036,0.0047884034,123,314,1638
81589109,0,1442826,-0.16767576,0.51042026,-10.174863,4005,-0.0011480153,-0.00071602664,-0.033727095,50.146076,0.0047884034,-57,-59,1474
81689104,0,1442826,-0.025647413,0.36466318,-10.0041485,4000,0.0024449262,0.0007544992,-0.03573877,50.15506,0.0047884034,288,-44,1774
81792304,0,1442826,-0.09501782,0.40929908,-9.701499,3948,-0.0028995073,0.00048741652,-0.038750917,50.188007,0.0047884034,59,274,1416
81892304,0,1442826,0.036754567,0.21469672,-9.992203,3959,0.0009166965,0.00039567132,-0.0393907,50.196995,0.0047884034,81,235,2587
81996315,0,1442826,-0.2305158,0.28544086,-10.222676,4011,-0.007362399,-0.001900383,-0.04307685,50.188007,0.0047884034,-250,132,1920
82095511,0,1442826,0.0796963,0.32849795,-9.3529005,4006,-0.00017264066,-0.0019293134,-0.033068143,50.18202,0.0047884034,295,138,2173
82198736,0,1442826,0.00074089493,0.37023693,-9.415027,3225,-2.4817418e-05,0.00080104044,-0.03159397,50.17303,0.0047884034,374,198,2101
82298704,0,1442826,-0.19923013,0.3577307,-9.612926,4000,-0.0045487136,0.0025800997,-0.0398996,50.179024,0.0047884034,-123,291,1372
82398704,0,1442826,0.087099284,0.5613208,-9.83039,4000,-0.0028730093,0.006129862,-0.038657367,50.191,0.0047884034,-53,159,2028
82501923,0,1442826,0.12411793,0.39166752,-10.659675,4013,0.0036307555,0.003093726,-0.04427046,50.17603,0.0047884034,25,-299,2398
82601945,0,1442826,-0.070691906,0.2209903,-9.52885,4034,-0.0053189774,0.0011575995,-0.038481034,50.185013,0.0047884034,42,76,2187
82705104,0,1442826,-0.20744975,-0.16169499,-8.489579,4000,0.0032002572,0.00082395074,-0.027693093,50.208973,0.0047884034,-248,-82,1807
82808355,0,1442826,0.01817963,0.15287234,-9.544642,3246,0.0011197553,-0.0031291917,-0.029923312,50.220955,0.0047884034,188,71,1991
82912304,0,1442826,0.027376154,-0.021798447,-9.741486,3958,0.0014612548,-0.0012752233,-0.036239866,50.214966,0.0047884034,23,460,2081
83012344,0,1442826,-0.2063969,0.014995086,-9.665423,4010,0.00094877597,-0.000790173,-0.03774648,50.20598,0.0047884034,-16,-224,1346
83115504,0,1442826,-0.028312067,0.056503292,-9.365842,3993,0.0013834129,-0.0022414094,-0.035749525,50.21197,0.0047884034,17,153,1920
83215504,0,1442826,-0.13691182,0.13110656,-9.535337,3994,-0.0043240166,0.0008596955,-0.039218903,50.21796,0.0047884034,55,-94,2205
83318704,0,1442826,-0.004985063,0.26025793,-10.164917,3992,-0.0010174958,0.0022977246,-0.042968273,50.229942,0.0047884034,-9,218,2231
83418704,0,1442826,-0.01097086,-0.054230034,-9.56341,4000,-0.0021558225,0.0010678251,-0.04325583,50.21796,0.0047884034,-171,-339,2417
84438711,0,1442826,0.0049027954,-0.13383849,-9.75963,4007,0.0030306433,0.0030552563,-0.040283903,50.256897,0.0047884034,-8,-210,2263
84641912,0,1442826,0.21947934,-0.10755942,-9.825985,3972,0.0010676589,0.0018445977,-0.038492747,50.277863,0.0047884034,-223,24,2374
84740358,0,1442826,-0.130357,-0.08163182,-9.639745,3230,-0.0024758063,0.0013255738,-0.034943327,50.253902,0.0047884034,-258,-142,1756
84845129,0,1442826,-0.14365107,-0.06147291,-9.698023,4019,0.0022693425,8.574096e-05,-0.031657897,50.232937,0.0047884034,176,35,1854
84944311,0,1442826,0.19674665,-0.07640749,-9.443294,3971,-0.0047858004,0.00095193717,-0.0497988,50.262886,0.0047884034,184,306,2492
85052310,0,1442826,-0.21907084,0.028002677,-9.466605,3964,0.0039166566,-0.0014720233,-0.025245104,50.262886,0.0047884034,100,-378,1710
85152331,0,1442826,0.0716016,0.20024507,-9.952245,3997,-0.0048436145,0.002108054,-0.044361405,50.24192,0.0047884034,80,324,2364
85251504,0,1442826,0.0106609855,-0.13671735,-10.027362,4000,0.0052678175,-0.0009740527,-0.030214109,50.280857,0.0047884034,-113,-324,1955
85354730,0,1442826,0.026306411,-0.17898974,-10.27437,3226,0.002477067,8.519765e-05,-0.032856435,50.265884,0.0047884034,31,-129,1894
85454711,0,1442826,0.15431796,0.04519579,-9.982017,4007,0.0020585502,-0.0025599797,-0.042648137,50.280857,0.0047884034,195,64,2146
85558738,0,1442826,0.29536605,-0.117242984,-9.632415,4027,-0.0008333369,-0.0018787961,-0.043047838,50.23593,0.0047884034,149,163,2586
85657904,0,1442826,0.05387548,0.009316537,-9.680492,4000,-0.0030817995,0.0008727916,-0.045486823,50.277863,0.0047884034,205,-26,2197
85761904,0,1442826,-0.11292968,0.04137175,-9.777982,3974,-0.00465715,0.0015189089,-0.039650638,50.289845,0.0047884034,139,-92,1810
85861138,0,1442826,-0.080107674,0.17603868,-10.830429,4028,-0.0044868467,0.00035871376,-0.042587202,50.26888,0.0047884034,32,43,1090
85965117,0,1442826,-0.002639164,-0.30096915,-11.199603,4012,-0.0041505005,-0.0028769323,-0.051082417,50.31081,0.0047884034,112,124,2206
86068314,0,1442826,0.1666311,-0.11813055,-10.400691,4010,0.001734611,0.0021029161,-0.044627026,50.277863,0.0047884034,41,266,2714
86172304,0,1442826,-0.022501476,-0.23873562,-9.837562,3951,-0.0034615183,-0.0004816402,-0.04209894,50.283855,0.0047884034,24,-79,2074
86271504,0,1442826,0.17029858,-0.21330753,-9.854671,3961,0.0014336312,-0.0022485012,-0.03294574,50.307816,0.0047884034,313,37,1553
86371540,0,1442826,-0.07855621,-0.40059295,-9.394473,4036,0.00156794,7.867033e-05,-0.0363002,50.28685,0.0047884034,-48,-49,1569
86474704,0,1442826,-0.115490034,0.28802803,-9.707783,3994,0.003880873,0.0025969339,-0.02972452,50.29284,0.0047884034,314,-395,2095
86574704,0,1442826,0.33920434,-0.42326692,-10.504414,3994,0.0009782794,-0.0019034182,-0.04944212,50.32878,0.0047884034,431,328,2318
86677904,0,1442826,0.117782764,-0.05306411,-9.967856,3973,-0.0015833139,0.0009939391,-0.04063611,50.30482,0.0047884034,-125,135,2139
86777904,0,1442826,0.027580217,-0.2093747,-9.797272,4000,-0.004523353,-0.00241064,-0.04567498,50.29284,0.0047884034,54,215,2485
86881110,0,1442826,0.03992794,-0.38853362,-10.021855,4001,-0.00069375196,-0.0023007938,-0.03758149,50.319798,0.0047884034,-31,123,1746
86981104,0,1442826,0.2889391,-0.20203482,-9.292829,3993,-0.0024639242,-0.0022863469,-0.039957296,50.25989,0.0047884034,31,415,2470
87084317,0,1442826,-0.068190314,-0.22535217,-9.629986,3987,0.0065988237,-0.0021838848,-0.030840138,50.29883,0.0047884034,178,-101,1644
87184310,0,1442826,-0.07487024,-0.24366227,-10.186553,3993,0.0042007654,0.00041099865,-0.03603137,50.322792,0.0047884034,-43,-368,2112
87288346,0,1442826,-0.09344524,-0.2702782,-9.813155,4032,0.005511767,-0.0020056532,-0.024632048,50.313805,0.0047884034,86,-500,1536
87387504,0,1442826,0.16126394,-0.17666367,-9.78364,4000,-0.00015601708,0.0012807398,-0.042906255,50.301826,0.0047884034,110,210,2285
87491504,0,1442826,0.14815065,-0.12598044,-10.139973,3964,-0.0013107955,-0.0034004706,-0.040625814,50.29883,0.0047884034,-40,195,2335
87590704,0,1442826,0.39526555,-0.20593338,-10.05884,4000,0.002427329,7.195084e-05,-0.043006323,50.319798,0.0047884034,213,251,2583
87693904,0,1442826,0.3376789,-0.39941457,-10.417721,3978,-0.0012940546,-2.2481778e-05,-0.04439023,50.340763,0.0047884034,79,47,2575
87793914,0,1442826,0.1993792,-0.610357,-11.244055,4010,0.0035459893,-0.0023049954,-0.037183773,50.33777,0.0047884034,-108,-43,2330
87893939,0,1442826,0.102033876,0.0047952044,-10.585231,4035,0.0033747526,-0.0026181191,-0.039800003,50.32878,0.0047884034,304,-91,2051
87997116,0,1442826,0.13754264,-0.015531926,-10.152781,3992,-0.0073975837,-0.0010903464,-0.0432574,50.29883,0.0047884034,-53,372,1894
88097112,0,1442826,0.2187404,-0.28752938,-9.985907,3941,0.0021600977,-0.000647063,-0.033841174,50.331776,0.0047884034,-130,270,1929
88200304,0,1442826,-0.002026431,-0.009161627,-9.928311,3972,0.000110210094,-0.0012730536,-0.036458082,50.33477,0.0047884034,25,146,2055
88300351,0,1442826,-0.12772389,-0.052685976,-9.219324,4047,-0.0017661921,-0.00072327495,-0.031038713,50.322792,0.0047884034,129,-278,1197
88403504,0,1442826,0.095643915,-0.21575342,-7.006714,3993,0.009371572,0.003420487,-0.024104638,50.32878,0.0047884034,69,-299,1742
88503530,0,1442826,0.0939431,-0.15919673,-7.925022,4026,0.0054078475,0.0011781413,-0.032983962,50.346752,0.0047884034,-46,-110,2323
88606742,0,1442826,-0.028275995,-0.114963725,-9.988294,4003,0.0056820437,0.0015289237,-0.031278286,50.32878,0.0047884034,30,-325,1784
88706704,0,1442826,0.1926117,-0.18281832,-10.161027,3994,-0.00255932,-0.001397406,-0.03921879,50.30482,0.0047884034,310,226,1963
88809904,0,1442826,0.3804916,-0.15866868,-9.969874,4000,0.0048447847,-0.0012382653,-0.041774403,50.340763,0.0047884034,131,235,2381
88909904,0,1442826,0.4182067,-0.14439003,-10.357053,4000,-0.0009508807,-0.0014313558,-0.04718083,50.319798,0.0047884034,283,186,2649
89013110,0,1442826,0.033292707,-0.3228807,-10.288831,3979,0.003394424,-0.0007029452,-0.029707566,50.340763,0.0047884034,-104,-339,1691
89117126,0,1442826,0.15394136,-0.21507479,-9.31201,4022,0.0022553497,-0.0013744324,-0.042615335,50.331776,0.0047884034,110,34,2597
89220304,0,1442826,0.06389837,-0.12531899,-9.872522,4000,0.0044162027,0.001815322,-0.04290205,50.358734,0.0047884034,-131,-159,2590
89320304,0,1442826,0.22927043,-0.086835474,-11.467186,4000,0.00089704874,-0.00304397,-0.04741493,50.349747,0.0047884034,183,140,2842
89420325,0,1442826,0.013267931,-0.19287637,-11.075935,4021,-0.0011630064,-0.0004781168,-0.04312063,50.331776,0.0047884034,-51,-329,2090
89523538,0,1442826,0.25506794,-0.13769557,-10.195873,4034,-0.0027664707,-0.0024369373,-0.04631369,50.331776,0.0047884034,232,180,2540
89622704,0,1442826,0.19736175,0.3395144,-9.761956,4000,-0.0020978425,-0.0010794812,-0.046338275,50.35574,0.0047884034,-62,253,2545
89726717,0,1442826,-0.07994664,-0.3778709,-10.285473,4013,-0.00050446065,-0.002007306,-0.033382826,50.349747,0.0047884034,170,-506,1121
89826704,0,1442826,-0.04185856,-0.35088292,-10.406125,3984,0.0038687983,-0.0010486802,-0.030123664,50.37371,0.0047884034,70,-255,1876
89929944,0,1442826,0.13816257,-0.40651911,-10.540587,4040,0.004485398,-0.0033384091,-0.039271522,50.349747,0.0047884034,406,-368,1847
90028346,0,1442826,0.21229874,-0.02344043,-9.784759,3219,0.0043539316,0.0017940106,-0.031952392,50.33777,0.0047884034,265,-89,2435
90133109,0,1442826,0.23898274,-0.7508919,-10.546946,3991,-0.0027323423,-0.00179984,-0.044101663,50.37371,0.0047884034,129,302,2619
90236304,0,1442826,0.12863205,-0.9605884,-10.009898,3964,0.0053925132,-0.0029719311,-0.033442147,50.35274,0.0047884034,-38,-290,2314
90340310,0,1442826,0.034776486,-0.51022613,-9.72026,4006,0.0030386865,-0.0028776135,-0.04008094,50.394676,0.0047884034,153,-199,1965
90439504,0,1442826,-0.20052588,0.3011457,-10.321818,3979,0.0022082245,0.0017851263,-0.034460407,50.37371,0.0047884034,240,-293,1932
90543504,0,1442826,0.19629566,-0.68441874,-9.60022,4000,-0.0017477984,-0.0048941295,-0.03902611,50.37371,0.0047884034,-75,195,2271
90643537,0,1442826,0.26061794,-0.48798776,-9.538097,4033,0.0025064987,-0.005626142,-0.032868758,50.358734,0.0047884034,205,25,1779
90742711,0,1442826,0.15962705,-0.6070451,-10.230512,4007,-0.00057846186,-0.0020033577,-0.042118073,50.35574,0.0047884034,252,104,2167
90845932,0,1442826,0.07056194,-0.5831414,-10.32368,3228,0.00568555,-0.00077486277,-0.026945738,50.370716,0.0047884034,25,-62,2052
90945904,0,1442826,0.19398455,-0.033949323,-9.533661,4000,0.006945964,0.0035751136,-0.037559565,50.35274,0.0047884034,434,40,1853
91049904,0,1442826,0.110541336,0.1753597,-9.667828,3994,-0.0036203335,-0.001490874,-0.046120953,50.37371,0.0047884034,-89,167,1882
91149104,0,1442826,0.1525466,-0.7626145,-9.255803,3973,0.003696666,-0.0022942894,-0.041972265,50.412647,0.0047884034,277,69,2021
91253104,0,1442826,0.07457904,-0.20209904,-8.68615,3960,0.0063115004,-0.0012900147,-0.025776085,50.37371,0.0047884034,-118,-587,2071
91353904,0,1442826,0.15020593,-0.60888964,-9.417603,4000,0.001038729,-6.52645e-05,-0.034734286,50.37371,0.0047884034,15,222,1733
91456304,0,1442826,0.21528153,-0.36247495,-8.706847,4000,-0.0039841635,-0.00081642787,-0.038548395,50.370716,0.0047884034,-99,107,2181
91555504,0,1442826,-0.10243418,-0.31707254,-9.014512,3997,0.0028598178,-0.0038890387,-0.025801081,50.400665,0.0047884034,-151,-356,1546
91659510,0,1442826,0.25293702,-0.28772387,-9.756365,4006,0.0007045857,0.002250805,-0.031353824,50.364723,0.0047884034,180,128,1770
91762704,0,1442826,-0.051573448,-0.12858357,-9.826403,3994,0.005014056,-7.065214e-05,-0.02870049,50.400665,0.0047884034,156,-141,2149
91862704,0,1442826,0.074084856,-0.33818975,-10.103743,3977,0.0042392565,-0.0014099947,-0.037784263,50.42463,0.0047884034,-52,-140,2283
91966704,0,1442826,-0.003732654,-0.11276819,-9.991623,3985,0.0040944377,0.002827492,-0.037319954,50.35274,0.0047884034,454,-217,1864
92065904,0,1442826,0.2159002,-0.3765597,-9.889793,3994,0.0056722267,-0.0019079382,-0.03476317,50.427624,0.0047884034,-38,-208,2121
92169104,0,1442826,0.39826527,-0.25108168,-9.924341,4719,0.005329832,-0.0007434322,-0.049653552,50.41564,0.0047884034,245,-74,2477
92269104,0,1442826,0.0874233,-0.19325541,-9.855558,4001,0.0015337233,-0.0013846917,-0.03491639,50.436607,0.0047884034,-248,-149,1819
92372335,0,1442826,0.03446784,-0.22526315,-10.088484,3989,0.004897223,0.00063604023,-0.043955676,50.412647,0.0047884034,202,19,2304
92476304,0,1442826,-0.12436224,-0.22246003,-10.250703,4000,-0.0016468943,0.0005538103,-0.03899284,50.39168,0.0047884034,45,139,1693
92580312,0,1442826,-0.2431632,-0.25485787,-9.680788,4008,0.0014468988,-0.0011352254,-0.027846403,50.39168,0.0047884034,222,-255,2101
92679508,0,1442826,-0.60010266,-0.29179072,-9.511255,3997,0.0009400166,0.003339822,-0.031986322,50.42463,0.0047884034,-6,-314,2205
92782739,0,1442826,0.12344547,-0.21116765,-10.042771,3235,0.0065341173,-0.0011320116,-0.017734524,50.41564,0.0047884034,13,-446,1301
92882704,0,1442826,-0.17379962,-0.14370166,-10.0389595,4000,-0.0013816672,-0.0009107919,-0.031616505,50.436607,0.0047884034,208,-119,1171
92985933,0,1442826,-0.18906474,-0.33131626,-9.855847,3229,-0.0013511734,0.0006661614,-0.027876385,50.427624,0.0047884034,-109,152,1962
93085904,0,1442826,-0.078696884,-0.37764537,-10.186835,4000,-0.0013693625,0.0028147574,-0.040104553,50.41564,0.0047884034,-291,-256,2176
93185942,0,1442826,-0.11775432,-0.13735709,-10.243938,4014,0.0042438935,0.0008801959,-0.045012172,50.445595,0.0047884034,64,-5,1871
93289104,0,1442826,0.027093412,-0.1492752,-9.7213955,4000,-0.00034670427,-0.0043227887,-0.030026497,50.427624,0.0047884034,359,466,1661
93389147,0,1442826,0.3674768,-0.09311075,-9.381939,4018,0.005275745,-0.0014843171,-0.037287656,50.409653,0.0047884034,291,5,2041
93492345,0,1442826,-0.27136263,-0.4180519,-9.4007435,3968,0.0016484072,-0.0016536352,-0.029675579,50.44859,0.0047884034,-252,-465,1752
93596309,0,1442826,0.0005379795,-0.21937577,-9.738329,3959,-0.0026910715,-0.004141401,-0.04479479,50.436607,0.0047884034,82,120,2559
93699522,0,1442826,-0.18963021,-0.27023983,-10.0636425,4018,0.00037922736,0.0037730257,-0.04081862,50.433613,0.0047884034,-447,-99,2271
93799504,0,1442826,0.12299563,-0.24067332,-9.868549,4000,0.002316291,0.0014794685,-0.045262635,50.41564,0.0047884034,377,11,2258
93902704,0,1442826,0.21334016,-0.3179393,-10.343772,4000,-0.0043950323,-0.0041737966,-0.046248987,50.40666,0.0047884034,61,285,1876
94002718,0,1442826,0.102952175,-0.031649992,-9.838984,4014,-0.00048136513,-0.003180263,-0.036941674,50.4426,0.0047884034,121,60,2270
94105904,0,1442826,0.11118953,-0.30507192,-9.20788,3935,-0.0017790557,-0.0016746959,-0.042338703,50.46057,0.0047884034,-273,72,2645
94205904,0,1442826,-0.13130799,-0.24128324,-9.326333,3994,0.0006486153,-0.0031995538,-0.031694442,50.46656,0.0047884034,-121,-188,2429
94309136,0,1442826,-0.1082723,-0.046434138,-9.965922,4032,0.00017639052,-0.0006993521,-0.046170413,50.436607,0.0047884034,45,-6,2517
94409104,0,1442826,-0.12037861,-0.13699421,-10.1836,3994,-0.00065969955,-0.00065876474,-0.038324676,50.4426,0.0047884034,49,-165,2134
94508350,0,1442826,-0.1325888,-0.2943489,-9.910607,4040,-0.0016233285,-0.00022155387,-0.041309685,50.481537,0.0047884034,179,-167,2259
94612339,0,1442826,-0.12936494,-0.07596112,-9.423919,4021,-0.0018357785,-0.0010535016,-0.040791318,50.445595,0.0047884034,52,-5,2036
94716305,0,1442826,-0.14991558,-0.20011294,-10.104179,4001,0.0029550893,-0.0023256014,-0.030647924,50.4426,0.0047884034,358,-585,1694
94815539,0,1442826,0.029612573,-0.22688597,-10.156703,4035,-0.00039220427,0.0023388332,-0.041603692,50.46057,0.0047884034,-100,176,1604
94915504,0,1442826,0.034976505,-0.26092327,-10.157514,4000,-0.004371633,-0.0006279935,-0.044146217,50.475544,0.0047884034,-44,285,1819
95018710,0,1442826,0.025860297,-0.19034092,-10.350024,3997,-0.0044146734,-0.00067252014,-0.05192917,50.4396,0.0047884034,56,10,2365
95117934,0,1442826,0.015149546,-0.24817821,-10.558399,4030,-0.00031003577,-0.0030712746,-0.04350248,50.45458,0.0047884034,243,-69,2059
95221943,0,1442826,-0.010261599,-0.18210307,-9.829191,4039,-0.0029510388,0.0008380729,-0.038842656,50.451584,0.0047884034,89,-3,2260
95321108,0,1442826,-0.018571613,-0.14548421,-10.103855,3984,-0.0032238786,-0.00076863985,-0.04551933,50.48453,0.0047884034,-35,147,1501
95425109,0,1442826,-0.10278794,-0.30332747,-9.98092,3999,0.002288131,0.0013284634,-0.032274365,50.475544,0.0047884034,-208,-296,1709
95528345,0,1442826,0.040945563,-0.024522077,-9.875907,3241,0.0037606116,-0.0004015066,-0.034304813,50.505497,0.0047884034,201,-186,2398
95632311,0,1442826,0.083755836,-0.09354874,-9.86004,3962,0.0059734397,-0.0011315609,-0.03479439,50.496513,0.0047884034,5,-275,2042
95732326,0,1442826,0.1456696,-0.09931767,-10.67462,3980,0.0038108567,0.0008814251,-0.049330346,50.44859,0.0047884034,32,5,2352
95831504,0,1442826,0.21061115,-0.25009966,-11.447893,3997,0.0030490311,-0.0009234194,-0.043250717,50.475544,0.0047884034,135,49,2258
95935529,0,1442826,0.07238308,-0.119547546,-10.953836,4025,0.0030469983,0.0035349077,-0.05208329,50.499508,0.0047884034,218,-169,2772
96038704,0,1442826,-0.08106411,-0.33278584,-11.596987,3994,-0.0015658669,0.0011419468,-0.05054157,50.463566,0.0047884034,-120,-165,2764
96138704,0,1442826,0.2343042,-0.24473406,-11.275635,3979,-0.00034776458,-0.002943564,-0.048193198,50.478542,0.0047884034,175,542,2398
96237904,0,1442826,0.15550274,-0.24122542,-10.12847,4000,-0.0016524476,-0.0011852751,-0.03758312,50.502502,0.0047884034,-106,229,2030
96341904,0,1442826,-0.041220624,0.030345092,-9.462237,4000,0.002068944,-0.00046326712,-0.028368324,50.487526,0.0047884034,-26,-339,2269
96441108,0,1442826,0.06628749,-0.06286227,-11.052685,3977,-0.0032158433,0.0017100706,-0.043126024,50.487526,0.0047884034,-156,-37,2333
96545104,0,1442826,-0.01598362,-0.21207947,-11.230425,4000,-0.00012841818,-0.001042646,-0.03441357,50.496513,0.0047884034,39,-14,1710
96644304,0,1442826,0.14514655,-0.16591005,-10.675647,4000,-0.0039325776,-0.0019356159,-0.037404776,50.478542,0.0047884034,184,68,1629
96747589,0,1442826,0.0904519,-0.106135525,-10.352932,3285,0.0013135968,0.0010363503,-0.03880778,50.475544,0.0047884034,-111,-225,2187
96847504,0,1442826,0.15213537,-0.048046436,-10.370997,4000,0.0054148403,-0.00062388706,-0.041907765,50.478542,0.0047884034,145,-170,1938
96951504,0,1442826,-0.032681942,-0.19872731,-10.93824,4000,0.0041696397,0.001184253,-0.0473736,50.511486,0.0047884034,-55,-28,2789
97051504,0,1442826,0.044707283,-0.3724325,-11.449904,4000,0.0021351934,-0.0011702194,-0.039091293,50.511486,0.0047884034,-194,-323,2414
97150734,0,1442826,0.04882417,-0.21054769,-10.536624,4030,0.00010976391,-0.0034410637,-0.044371746,50.526463,0.0047884034,294,-80,2228
97253904,0,1442826,0.024101224,-0.10489874,-9.966351,4000,-2.9040792e-05,-0.0012988062,-0.037515916,50.478542,0.0047884034,101,11,1686
97353904,0,1442826,-0.11325458,-0.07188635,-9.793197,4000,0.0029257764,-0.00067877036,-0.026712205,50.51748,0.0047884034,118,-320,1339
97457104,0,1442826,0.07048815,-0.13846286,-9.749579,3941,0.0019193108,0.0012781242,-0.035834078,50.54743,0.0047884034,93,-80,1949
97557153,0,1442826,-0.13567398,-0.29704577,-9.877026,4042,0.0014911767,-0.00036136335,-0.031888887,50.51748,0.0047884034,-15,-486,1552
97660304,0,1442826,0.11939071,-0.10995952,-10.123978,3995,0.005430484,0.0009912255,-0.03734511,50.538445,0.0047884034,248,-346,2069
97760304,0,1442826,-0.12619574,-0.13679762,-9.625227,4000,0.0019770397,-0.0024495688,-0.027193176,50.520473,0.0047884034,201,-305,1313
97863510,0,1442826,0.03279228,-0.14874017,-10.383612,3965,-0.004804855,-0.0016149239,-0.040827848,50.505497,0.0047884034,17,333,1728
97963504,0,1442826,-0.16942628,-0.3242375,-10.178517,4000,-0.00289255,0.0002772669,-0.03801105,50.502502,0.0047884034,-131,-100,2084
98067535,0,1442826,0.040663786,-0.04038073,-9.981564,4031,0.0030332294,-0.0019905004,-0.03241241,50.50849,0.0047884034,332,-75,1762
98166711,0,1442826,0.014433394,0.05752401,-9.489715,4007,0.0041852365,-0.0026565597,-0.02678407,50.514484,0.0047884034,378,45,1906
98269942,0,1442826,0.12089785,0.05171504,-9.051776,4032,0.0039193076,-0.0007094482,-0.03346599,50.514484,0.0047884034,124,-43,2341
98369904,0,1442826,0.26953128,0.15688074,-9.351626,4000,0.002022681,-0.001406376,-0.03923811,50.48453,0.0047884034,146,405,2711
98473104,0,1442826,-0.055694193,0.0682236,-10.287842,4000,-0.0019091014,-0.0018127612,-0.044763546,50.511486,0.0047884034,81,180,1820
98573108,0,1442826,0.054783106,-0.004613071,-10.172954,3993,-0.002271739,-0.0007671267,-0.038703986,50.54743,0.0047884034,-9,-47,2180
98676304,0,1442826,-0.12610751,0.027160846,-9.775722,3986,0.00014512351,-0.0005393389,-0.040087,50.550426,0.0047884034,-48,-25,1771
98776304,0,1442826,-0.08408159,0.089567244,-9.417293,4000,-0.00080503954,-6.782443e-05,-0.033427708,50.54144,0.0047884034,142,-250,1947
98879510,0,1442826,0.14983307,0.1065736,-9.752418,3963,0.00050531374,-0.0005957779,-0.042234704,50.54743,0.0047884034,287,254,2548
98979504,0,1442826,0.04612476,-0.06310723,-10.227643,4000,0.0070312247,-0.0015092086,-0.032519076,50.550426,0.0047884034,175,-203,1781
