timestamp,timestamp_last_signal,channel_count,rssi,rc_lost_frame_count,rc_total_frame_count,rc_ppm_frame_length,values[0],values[1],values[2],values[3],values[4],values[5],values[6],values[7],values[8],values[9],values[10],values[11],values[12],values[13],values[14],values[15],values[16],values[17],rc_failsafe,rc_lost,input_source
50796133,50796133,12,45,0,0,30004,1499,1508,1508,1504,1505,1257,1905,1105,1505,1106,1505,1257,0,0,0,0,0,0,0,0,2
50996154,50996154,12,45,0,0,30003,1499,1508,1507,1504,1505,1258,1905,1105,1505,1105,1505,1258,0,0,0,0,0,0,0,0,2
51197112,51197112,12,45,0,0,30003,1499,1508,1507,1504,1505,1257,1906,1105,1505,1105,1505,1257,0,0,0,0,0,0,0,0,2
51405024,51405024,12,45,0,0,30003,1499,1508,1507,1504,1505,1257,1906,1105,1505,1105,1505,1257,0,0,0,0,0,0,0,0,2
51607376,51607376,12,45,0,0,30003,1498,1509,1507,1504,1505,1257,1905,1105,1506,1105,1505,1257,0,0,0,0,0,0,0,0,2
51804153,51804153,12,45,0,0,30003,1498,1508,1507,1504,1506,1257,1905,1105,1505,1105,1506,1257,0,0,0,0,0,0,0,0,2
52016216,52016216,12,45,0,0,30003,1498,1508,1507,1504,1505,1258,1905,1105,1505,1105,1505,1258,0,0,0,0,0,0,0,0,2
52217757,52217757,12,45,0,0,30003,1498,1508,1507,1504,1505,1257,1906,1105,1505,1105,1505,1257,0,0,0,0,0,0,0,0,2
52416927,52416927,12,45,0,0,30004,1499,1508,1507,1504,1505,1257,1906,1105,1505,1105,1505,1257,0,0,0,0,0,0,0,0,2
52632155,52632155,12,45,0,0,30003,1498,1509,1507,1504,1505,1257,1905,1106,1505,1105,1505,1257,0,0,0,0,0,0,0,0,2
52812968,52812968,12,45,0,0,30003,1498,1508,1507,1505,1505,1257,1905,1105,1505,1105,1506,1257,0,0,0,0,0,0,0,0,2
53033156,53033156,12,45,0,0,30003,1498,1508,1507,1504,1506,1257,1905,1105,1505,1105,1505,1258,0,0,0,0,0,0,0,0,2
53230654,53230654,12,45,0,0,30003,1499,1508,1506,1504,1505,1258,1905,1105,1505,1105,1505,1257,0,0,0,0,0,0,0,0,2
53436985,53436985,12,45,0,0,30003,1499,1508,1507,1504,1505,1257,1906,1105,1505,1105,1505,1257,0,0,0,0,0,0,0,0,2
53632177,53632177,12,45,0,0,30003,1499,1508,1508,1504,1505,1257,1905,1105,1506,1105,1505,1257,0,0,0,0,0,0,0,0,2
53833016,53833016,12,45,0,0,30003,1499,1508,1507,1505,1505,1257,1905,1105,1505,1106,1505,1257,0,0,0,0,0,0,0,0,2
54049172,54049172,12,45,0,0,30003,1498,1509,1507,1504,1506,1257,1905,1105,1505,1105,1506,1257,0,0,0,0,0,0,0,0,2
54229180,54229180,12,45,0,0,30003,1499,1508,1507,1504,1505,1257,1906,1105,1505,1105,1505,1257,0,0,0,0,0,0,0,0,2
54448972,54448972,12,45,0,0,30003,1497,1509,1507,1505,1505,1257,1905,1106,1505,1105,1505,1257,0,0,0,0,0,0,0,0,2
54649311,54649311,12,45,0,0,30004,1498,1510,1506,1503,1505,1257,1905,1105,1506,1105,1505,1257,0,0,0,0,0,0,0,0,2
54852965,54852965,12,45,0,0,30004,1499,1509,1507,1504,1505,1257,1905,1105,1506,1105,1505,1257,0,0,0,0,0,0,0,0,2
55052964,55052964,12,45,0,0,30003,1499,1508,1507,1505,1505,1257,1905,1105,1505,1106,1505,1257,0,0,0,0,0,0,0,0,2
55256974,55256974,12,45,0,0,30003,1498,1508,1507,1504,1505,1258,1905,1105,1505,1105,1505,1257,0,0,0,0,0,0,0,0,2
55449180,55449180,12,45,0,0,30003,1498,1508,1506,1504,1505,1257,1906,1105,1505,1105,1505,1257,0,0,0,0,0,0,0,0,2
55665003,55665003,12,45,0,0,30004,1497,1509,1506,1503,1505,1257,1905,1106,1505,1105,1505,1257,0,0,0,0,0,0,0,0,2
55868979,55868979,12,45,0,0,30004,1498,1510,1508,1504,1505,1257,1905,1105,1506,1105,1505,1257,0,0,0,0,0,0,0,0,2
56060965,56060965,12,45,0,0,30003,1499,1509,1507,1497,1506,1257,1905,1105,1505,1105,1505,1258,0,0,0,0,0,0,0,0,2
56277153,56277153,12,45,0,0,30003,1563,1509,1507,1502,1505,1258,1905,1105,1505,1105,1505,1257,0,0,0,0,0,0,0,0,2
56477322,56477322,12,45,0,0,30003,1589,1509,1507,1504,1505,1257,1906,1105,1505,1105,1505,1257,0,0,0,0,0,0,0,0,2
56676958,56676958,12,45,0,0,30004,1498,1509,1508,1504,1505,1257,1905,1105,1506,1105,1505,1257,0,0,0,0,0,0,0,0,2
56884968,56884968,12,45,0,0,30003,1450,1509,1507,1487,1505,1257,1905,1105,1505,1105,1506,1257,0,0,0,0,0,0,0,0,2
57077191,57077191,12,45,0,0,30003,1098,1509,1508,1244,1505,1105,1906,1105,1505,1105,1505,1257,0,0,0,0,0,0,0,0,2
57280938,57280938,12,45,0,0,30003,1098,1510,1507,1105,1505,1105,1905,1105,1506,1105,1505,1257,0,0,0,0,0,0,0,0,2
57497003,57497003,12,45,0,0,30003,1098,1509,1507,1106,1505,1105,1905,1105,1505,1105,1506,1257,0,0,0,0,0,0,0,0,2
57701342,57701342,12,45,0,0,30003,1098,1509,1507,1105,1506,1105,1905,1105,1505,1105,1505,1258,0,0,0,0,0,0,0,0,2
57900974,57900974,12,45,0,0,30003,1097,1510,1507,1105,1505,1105,1905,1106,1505,1105,1505,1257,0,0,0,0,0,0,0,0,2
58097316,58097316,12,45,0,0,30003,1098,1509,1508,1105,1505,1105,1905,1105,1505,1106,1505,1257,0,0,0,0,0,0,0,0,2
58313380,58313380,12,45,0,0,30003,1098,1509,1507,1105,1506,1105,1905,1105,1505,1105,1506,1257,0,0,0,0,0,0,0,0,2
58513160,58513160,12,45,0,0,30003,1098,1509,1507,1105,1505,1106,1905,1105,1505,1105,1505,1257,0,0,0,0,0,0,0,0,2
58713038,58713038,12,45,0,0,30003,1098,1509,1507,1105,1505,1105,1906,1105,1505,1105,1505,1257,0,0,0,0,0,0,0,0,2
58913133,58913133,12,45,0,0,30003,1098,1509,1508,1105,1505,1105,1905,1105,1505,1106,1505,1257,0,0,0,0,0,0,0,0,2
59112962,59112962,12,45,0,0,30003,1098,1509,1507,1105,1506,1105,1905,1105,1505,1105,1505,1258,0,0,0,0,0,0,0,0,2
59313043,59313043,12,45,0,0,30003,1098,1509,1507,1105,1505,1106,1905,1105,1505,1105,1505,1257,0,0,0,0,0,0,0,0,2
59513198,59513198,12,45,0,0,30004,1098,1509,1508,1105,1505,1105,1905,1105,1506,1105,1505,1257,0,0,0,0,0,0,0,0,2
59712967,59712967,12,45,0,0,30004,1098,1509,1507,1106,1505,1105,1905,1105,1505,1105,1506,1257,0,0,0,0,0,0,0,0,2
59928967,59928967,12,45,0,0,30003,1098,1509,1507,1105,1506,1105,1905,1105,1505,1105,1505,1258,0,0,0,0,0,0,0,0,2
60125168,60125168,12,45,0,0,30003,1098,1509,1507,1105,1505,1105,1906,1105,1505,1105,1505,1257,0,0,0,0,0,0,0,0,2
60324974,60324974,12,45,0,0,30003,1098,1509,1508,1105,1505,1105,1905,1105,1506,1105,1505,1257,0,0,0,0,0,0,0,0,2
60532953,60532953,12,45,0,0,30003,1098,1509,1507,1106,1505,1105,1905,1105,1505,1105,1506,1257,0,0,0,0,0,0,0,0,2
60732968,60732968,12,45,0,0,30003,1098,1509,1507,1105,1506,1105,1905,1105,1505,1105,1505,1258,0,0,0,0,0,0,0,0,2
60933064,60933064,12,45,0,0,30003,1098,1509,1507,1105,1505,1105,1906,1105,1505,1105,1505,1257,0,0,0,0,0,0,0,0,2
61144941,61144941,12,45,0,0,30003,1098,1509,1507,1105,1505,1105,1905,1106,1505,1105,1505,1257,0,0,0,0,0,0,0,0,2
61340935,61340935,12,45,0,0,30003,1098,1509,1507,1106,1505,1105,1905,1105,1505,1105,1506,1257,0,0,0,0,0,0,0,0,2
61540932,61540932,12,45,0,0,30003,1098,1509,1507,1105,1506,1105,1905,1105,1505,1105,1505,1258,0,0,0,0,0,0,0,0,2
61744949,61744949,12,45,0,0,30003,1098,1509,1507,1105,1505,1105,1906,1105,1505,1105,1505,1257,0,0,0,0,0,0,0,0,2
61944927,61944927,12,45,0,0,30003,1098,1509,1508,1105,1505,1105,1905,1105,1505,1106,1505,1257,0,0,0,0,0,0,0,0,2
62145137,62145137,12,45,0,0,30003,1498,1509,1507,1504,1505,1257,1905,1105,1505,1106,1505,1257,0,0,0,0,0,0,0,0,2
62345368,62345368,12,45,0,0,30003,1498,1509,1507,1504,1506,1257,1905,1105,1505,1105,1506,1257,0,0,0,0,0,0,0,0,2
62561337,62561337,12,45,0,0,30003,1498,1509,1507,1504,1505,1258,1905,1105,1505,1105,1505,1257,0,0,0,0,0,0,0,0,2
62764970,62764970,12,45,0,0,30004,1498,1509,1507,1504,1505,1257,1906,1105,1505,1105,1505,1257,0,0,0,0,0,0,0,0,2
62960938,62960938,12,45,0,0,30003,1497,1509,1507,1505,1505,1257,1905,1105,1505,1106,1505,1257,0,0,0,0,0,0,0,0,2
63156954,63156954,12,45,0,0,30003,1497,1509,1507,1503,1506,1257,1905,1105,1505,1105,1506,1257,0,0,0,0,0,0,0,0,2
63368987,63368987,12,45,0,0,30003,1498,1509,1507,1503,1505,1258,1905,1105,1505,1105,1505,1258,0,0,0,0,0,0,0,0,2
63557019,63557019,12,45,0,0,30004,1498,1510,1507,1503,1505,1257,1905,1105,1506,1105,1505,1257,0,0,0,0,0,0,0,0,2
63753087,63753087,12,45,0,0,30003,1498,1509,1508,1504,1505,1257,1905,1105,1505,1106,1505,1257,0,0,0,0,0,0,0,0,2
63973153,63973153,12,45,0,0,30003,1498,1509,1507,1505,1505,1257,1905,1105,1505,1105,1506,1257,0,0,0,0,0,0,0,0,2
64160973,64160973,12,45,0,0,30004,1497,1509,1506,1504,1505,1257,1906,1105,1505,1105,1505,1257,0,0,0,0,0,0,0,0,2
64385182,64385182,12,45,0,0,30003,1498,1509,1506,1504,1505,1257,1906,1105,1505,1105,1505,1257,0,0,0,0,0,0,0,0,2
64584971,64584971,12,45,0,0,30004,1498,1510,1507,1504,1505,1257,1905,1105,1506,1105,1505,1257,0,0,0,0,0,0,0,0,2
64781153,64781153,12,45,0,0,30003,1498,1559,1481,1505,1505,1257,1905,1105,1505,1106,1505,1257,0,0,0,0,0,0,0,0,2
64977020,64977020,12,45,0,0,30003,1498,1512,1506,1504,1505,1257,1906,1105,1505,1105,1505,1257,0,0,0,0,0,0,0,0,2
65176929,65176929,12,45,0,0,30003,1498,1508,1506,1504,1505,1257,1906,1105,1505,1105,1505,1257,0,0,0,0,0,0,0,0,2
65377130,65377130,12,45,0,0,30003,1498,1510,1506,1504,1505,1257,1905,1105,1506,1105,1505,1257,0,0,0,0,0,0,0,0,2
65597089,65597089,12,45,0,0,30003,1498,1510,1506,1504,1505,1257,1905,1105,1505,1106,1505,1257,0,0,0,0,0,0,0,0,2
65792962,65792962,12,45,0,0,30003,1498,1635,1436,1505,1505,1257,1905,1105,1505,1105,1506,1257,0,0,0,0,0,0,0,0,2
65988969,65988969,12,45,0,0,30003,1485,1620,1445,1503,1505,1257,1906,1105,1505,1105,1505,1257,0,0,0,0,0,0,0,0,2
66193315,66193315,12,45,0,0,30003,1493,1511,1506,1504,1505,1257,1905,1106,1505,1105,1505,1257,0,0,0,0,0,0,0,0,2
66412990,66412990,12,45,0,0,30004,1445,1508,1507,1457,1505,1257,1905,1105,1506,1105,1505,1257,0,0,0,0,0,0,0,0,2
66613207,66613207,12,45,0,0,30004,1098,1761,1279,1278,1505,1105,1905,1105,1505,1105,1506,1257,0,0,0,0,0,0,0,0,2
66816931,66816931,12,45,0,0,30003,1098,1905,1105,1105,1506,1105,1905,1105,1505,1105,1505,1258,0,0,0,0,0,0,0,0,2
67017179,67017179,12,45,0,0,30003,1098,1905,1105,1105,1505,1105,1905,1106,1505,1105,1505,1257,0,0,0,0,0,0,0,0,2
67213053,67213053,12,45,0,0,30004,1097,1906,1105,1105,1505,1105,1905,1105,1506,1105,1505,1257,0,0,0,0,0,0,0,0,2
67413162,67413162,12,45,0,0,30004,1098,1905,1106,1105,1505,1105,1905,1105,1505,1106,1505,1257,0,0,0,0,0,0,0,0,2
67608992,67608992,12,45,0,0,30003,1098,1905,1105,1105,1505,1106,1905,1105,1505,1105,1505,1257,0,0,0,0,0,0,0,0,2
67824991,67824991,12,45,0,0,30003,1098,1905,1105,1105,1505,1105,1906,1105,1505,1105,1505,1257,0,0,0,0,0,0,0,0,2
68020933,68020933,12,45,0,0,30003,1098,1905,1105,1105,1505,1105,1906,1105,1505,1105,1505,1257,0,0,0,0,0,0,0,0,2
68845163,68845163,12,45,0,0,30003,1098,1508,1506,1105,1505,1105,1906,1105,1505,1105,1505,1257,0,0,0,0,0,0,0,0,2
69049001,69049001,12,45,0,0,30003,1098,1508,1506,1105,1505,1105,1906,1105,1505,1105,1505,1257,0,0,0,0,0,0,0,0,2
69248963,69248963,12,45,0,0,30003,1097,1509,1506,1105,1505,1105,1905,1106,1505,1105,1505,1257,0,0,0,0,0,0,0,0,2
69448964,69448964,12,45,0,0,30003,1384,1508,1506,1413,1506,1257,1905,1105,1505,1105,1506,1257,0,0,0,0,0,0,0,0,2
69644932,69644932,12,45,0,0,30003,1498,1508,1506,1504,1505,1258,1905,1105,1505,1105,1505,1257,0,0,0,0,0,0,0,0,2
69844977,69844977,12,45,0,0,30003,1498,1508,1506,1506,1505,1257,1906,1105,1505,1105,1505,1257,0,0,0,0,0,0,0,0,2
70045320,70045320,12,45,0,0,30003,1673,1508,1506,1506,1505,1257,1905,1105,1505,1105,1506,1257,0,0,0,0,0,0,0,0,2
70268970,70268970,12,45,0,0,30003,1497,1508,1506,1505,1505,1257,1905,1105,1505,1105,1506,1257,0,0,0,0,0,0,0,0,2
70469005,70469005,12,45,0,0,30004,1486,1508,1506,1503,1505,1257,1906,1105,1505,1105,1505,1257,0,0,0,0,0,0,0,0,2
70673131,70673131,12,45,0,0,30004,1101,1508,1507,1502,1505,1109,1905,1105,1506,1105,1505,1257,0,0,0,0,0,0,0,0,2
70873316,70873316,12,45,0,0,30003,1127,1508,1506,1505,1505,1134,1905,1105,1505,1105,1506,1257,0,0,0,0,0,0,0,0,2
71073163,71073163,12,45,0,0,30003,1098,1508,1506,1504,1505,1106,1905,1105,1505,1105,1505,1258,0,0,0,0,0,0,0,0,2
71264929,71264929,12,45,0,0,30004,1357,1509,1506,1505,1505,1257,1905,1105,1506,1105,1505,1257,0,0,0,0,0,0,0,0,2
71481052,71481052,12,45,0,0,30004,1498,1508,1506,1505,1505,1257,1905,1105,1505,1106,1505,1257,0,0,0,0,0,0,0,0,2
71684935,71684935,12,45,0,0,30003,1337,1508,1506,1511,1506,1257,1905,1105,1505,1105,1505,1258,0,0,0,0,0,0,0,0,2
71884959,71884959,12,45,0,0,30003,1508,1508,1506,1504,1505,1257,1906,1105,1505,1105,1505,1257,0,0,0,0,0,0,0,0,2
72089162,72089162,12,45,0,0,30004,1520,1508,1507,1505,1505,1257,1905,1105,1506,1105,1505,1257,0,0,0,0,0,0,0,0,2
72293070,72293070,12,45,0,0,30003,1499,1508,1506,1504,1506,1257,1905,1105,1505,1105,1506,1257,0,0,0,0,0,0,0,0,2
72477131,72477131,12,45,0,0,30003,1429,1508,1506,1504,1505,1257,1906,1105,1505,1105,1505,1257,0,0,0,0,0,0,0,0,2
72676978,72676978,12,45,0,0,30003,1309,1508,1507,1503,1505,1257,1905,1105,1506,1105,1505,1257,0,0,0,0,0,0,0,0,2
72889006,72889006,12,45,0,0,30003,1288,1508,1506,1505,1505,1257,1905,1105,1505,1105,1506,1257,0,0,0,0,0,0,0,0,2
73088173,73088173,12,45,0,0,30003,1365,1508,1506,1504,1506,1257,1905,1105,1505,1105,1505,1258,0,0,0,0,0,0,0,0,2
73289154,73289154,12,45,0,0,30004,1459,1510,1506,1504,1505,1257,1905,1106,1505,1105,1505,1257,0,0,0,0,0,0,0,0,2
73488985,73488985,12,45,0,0,30004,1496,1508,1507,1504,1505,1257,1905,1105,1505,1106,1505,1257,0,0,0,0,0,0,0,0,2
73713769,73713769,12,45,0,0,30004,1497,1508,1507,1504,1505,1257,1905,1105,1506,1105,1505,1257,0,0,0,0,0,0,0,0,2
73913341,73913341,12,45,0,0,30003,1497,1508,1506,1503,1505,1258,1905,1105,1505,1105,1505,1257,0,0,0,0,0,0,0,0,2
74120156,74120156,12,45,0,0,30004,1497,1509,1506,1504,1505,1257,1906,1105,1505,1105,1505,1257,0,0,0,0,0,0,0,0,2
74320979,74320979,12,45,0,0,30003,1497,1496,1507,1504,1505,1257,1905,1105,1506,1105,1505,1257,0,0,0,0,0,0,0,0,2
74520295,74520295,12,45,0,0,30003,1497,1507,1506,1503,1506,1257,1905,1105,1505,1105,1505,1258,0,0,0,0,0,0,0,0,2
74724135,74724135,12,45,0,0,30003,1498,1508,1507,1503,1505,1257,1906,1105,1505,1105,1505,1257,0,0,0,0,0,0,0,0,2
74908606,74908606,12,45,0,0,30003,1498,1508,1508,1504,1505,1257,1905,1105,1506,1105,1505,1257,0,0,0,0,0,0,0,0,2
75127370,75127370,12,45,0,0,30004,1513,1508,1508,1505,1505,1257,1905,1105,1506,1105,1505,1257,0,0,0,0,0,0,0,0,2
75332127,75332127,12,45,0,0,30003,1529,1508,1507,1505,1505,1258,1905,1105,1505,1105,1505,1258,0,0,0,0,0,0,0,0,2
75524177,75524177,12,45,0,0,30003,1537,1508,1507,1504,1505,1257,1906,1105,1505,1105,1505,1257,0,0,0,0,0,0,0,0,2
75724197,75724197,12,45,0,0,30004,1545,1509,1507,1504,1505,1257,1905,1106,1505,1105,1505,1257,0,0,0,0,0,0,0,0,2
75924153,75924153,12,45,0,0,30003,1556,1508,1507,1505,1506,1257,1905,1105,1505,1105,1506,1257,0,0,0,0,0,0,0,0,2
76128997,76128997,12,45,0,0,30003,1551,1508,1507,1505,1505,1258,1905,1105,1505,1105,1505,1257,0,0,0,0,0,0,0,0,2
76327454,76327454,12,45,0,0,30003,1541,1508,1507,1504,1505,1257,1906,1105,1505,1105,1505,1257,0,0,0,0,0,0,0,0,2
76528295,76528295,12,45,0,0,30003,1537,1507,1507,1505,1505,1257,1905,1105,1505,1106,1505,1257,0,0,0,0,0,0,0,0,2
76744261,76744261,12,45,0,0,30004,1538,1508,1508,1504,1505,1257,1905,1105,1505,1106,1505,1257,0,0,0,0,0,0,0,0,2
76948177,76948177,12,45,0,0,30003,1537,1508,1519,1504,1505,1258,1905,1105,1505,1105,1505,1257,0,0,0,0,0,0,0,0,2
77144371,77144371,12,45,0,0,30004,1537,1508,1557,1504,1505,1257,1906,1105,1505,1105,1505,1257,0,0,0,0,0,0,0,0,2
77340139,77340139,12,45,0,0,30003,1537,1507,1567,1505,1505,1257,1905,1105,1505,1106,1505,1257,0,0,0,0,0,0,0,0,2
77552537,77552537,12,45,0,0,30003,1537,1508,1510,1503,1506,1257,1905,1105,1505,1105,1506,1257,0,0,0,0,0,0,0,0,2
77753007,77753007,12,45,0,0,30003,1536,1508,1507,1503,1505,1258,1905,1105,1505,1105,1505,1257,0,0,0,0,0,0,0,0,2
77948273,77948273,12,45,0,0,30004,1537,1578,1506,1503,1505,1257,1906,1105,1505,1105,1505,1257,0,0,0,0,0,0,0,0,2
78144139,78144139,12,45,0,0,30003,1537,1609,1506,1504,1505,1257,1905,1105,1505,1106,1505,1257,0,0,0,0,0,0,0,0,2
78352158,78352158,12,45,0,0,30003,1537,1508,1507,1503,1506,1257,1905,1105,1505,1105,1506,1257,0,0,0,0,0,0,0,0,2
78568164,78568164,12,45,0,0,30003,1536,1510,1507,1503,1505,1258,1905,1105,1505,1105,1505,1257,0,0,0,0,0,0,0,0,2
78760937,78760937,12,45,0,0,30003,1536,1509,1546,1504,1505,1257,1906,1105,1505,1105,1505,1257,0,0,0,0,0,0,0,0,2
78964352,78964352,12,45,0,0,30003,1535,1509,1558,1504,1505,1257,1905,1106,1505,1105,1505,1257,0,0,0,0,0,0,0,0,2
79176204,79176204,12,45,0,0,30004,1535,1510,1570,1504,1505,1257,1905,1105,1506,1105,1505,1257,0,0,0,0,0,0,0,0,2
79372358,79372358,12,45,0,0,30003,1535,1540,1505,1503,1505,1258,1905,1105,1505,1105,1505,1258,0,0,0,0,0,0,0,0,2
79580215,79580215,12,45,0,0,30003,1536,1646,1472,1503,1505,1257,1906,1105,1505,1105,1505,1257,0,0,0,0,0,0,0,0,2
79776516,79776516,12,45,0,0,30003,1535,1646,1482,1503,1505,1257,1906,1105,1505,1105,1505,1257,0,0,0,0,0,0,0,0,2
79972146,79972146,12,45,0,0,30003,1536,1638,1496,1504,1505,1257,1905,1105,1505,1105,1506,1257,0,0,0,0,0,0,0,0,2
80176132,80176132,12,45,0,0,30003,1536,1640,1504,1503,1506,1257,1905,1105,1505,1105,1505,1258,0,0,0,0,0,0,0,0,2
80384258,80384258,12,45,0,0,30003,1538,1628,1506,1503,1505,1258,1905,1105,1505,1105,1505,1257,0,0,0,0,0,0,0,0,2
80580125,80580125,12,45,0,0,30004,1539,1555,1508,1504,1505,1257,1905,1105,1506,1105,1505,1257,0,0,0,0,0,0,0,0,2
81184154,81184154,12,45,0,0,30003,1537,1508,1506,1504,1506,1257,1905,1105,1505,1105,1505,1258,0,0,0,0,0,0,0,0,2
81392166,81392166,12,45,0,0,30003,1497,1509,1506,1504,1505,1257,1905,1106,1505,1105,1505,1257,0,0,0,0,0,0,0,0,2
81596164,81596164,12,45,0,0,30003,1499,1508,1507,1504,1505,1257,1905,1105,1506,1105,1505,1257,0,0,0,0,0,0,0,0,2
81788197,81788197,12,45,0,0,30003,1498,1509,1506,1521,1505,1257,1905,1105,1505,1106,1505,1257,0,0,0,0,0,0,0,0,2
81988513,81988513,12,45,0,0,30003,1498,1508,1506,1505,1505,1257,1906,1105,1505,1105,1505,1257,0,0,0,0,0,0,0,0,2
82196181,82196181,12,45,0,0,30003,1497,1509,1506,1536,1505,1257,1905,1106,1505,1105,1505,1257,0,0,0,0,0,0,0,0,2
82400163,82400163,12,45,0,0,30003,1501,1508,1507,1680,1505,1257,1905,1105,1506,1105,1505,1257,0,0,0,0,0,0,0,0,2
82620554,82620554,12,45,0,0,30003,1498,1508,1506,1642,1506,1257,1905,1105,1505,1105,1506,1257,0,0,0,0,0,0,0,0,2
82820399,82820399,12,45,0,0,30003,1498,1508,1506,1554,1505,1257,1906,1105,1505,1105,1505,1257,0,0,0,0,0,0,0,0,2
83020187,83020187,12,45,0,0,30003,1503,1510,1507,1572,1505,1257,1905,1106,1505,1105,1505,1257,0,0,0,0,0,0,0,0,2
83216161,83216161,12,45,0,0,30003,1516,1508,1506,1678,1506,1257,1905,1105,1505,1105,1506,1257,0,0,0,0,0,0,0,0,2
84440182,84440182,12,45,0,0,30004,1500,1508,1507,1576,1505,1257,1905,1105,1506,1105,1505,1257,0,0,0,0,0,0,0,0,2
84644125,84644125,12,45,0,0,30003,1498,1509,1506,1615,1505,1257,1905,1105,1505,1105,1506,1257,0,0,0,0,0,0,0,0,2
84836180,84836180,12,45,0,0,30004,1499,1509,1506,1621,1505,1257,1906,1105,1505,1105,1505,1257,0,0,0,0,0,0,0,0,2
85040160,85040160,12,45,0,0,30004,1499,1509,1507,1579,1505,1257,1905,1105,1506,1105,1505,1257,0,0,0,0,0,0,0,0,2
85256253,85256253,12,45,0,0,30003,1498,1508,1506,1504,1505,1257,1905,1105,1505,1105,1506,1257,0,0,0,0,0,0,0,0,2
85456186,85456186,12,45,0,0,30003,1498,1509,1506,1504,1505,1258,1905,1105,1505,1105,1505,1258,0,0,0,0,0,0,0,0,2
85656425,85656425,12,45,0,0,30003,1498,1495,1505,1504,1505,1257,1906,1105,1505,1105,1505,1257,0,0,0,0,0,0,0,0,2
85868136,85868136,12,45,0,0,30003,1498,1312,1517,1504,1505,1257,1905,1105,1506,1105,1505,1257,0,0,0,0,0,0,0,0,2
86068369,86068369,12,45,0,0,30003,1498,1323,1507,1504,1506,1257,1905,1105,1505,1105,1505,1258,0,0,0,0,0,0,0,0,2
86272155,86272155,12,45,0,0,30003,1498,1398,1505,1505,1505,1257,1906,1105,1505,1105,1505,1257,0,0,0,0,0,0,0,0,2
86468271,86468271,12,45,0,0,30003,1497,1509,1505,1504,1505,1257,1905,1106,1505,1105,1505,1257,0,0,0,0,0,0,0,0,2
86660360,86660360,12,45,0,0,30003,1498,1508,1505,1504,1506,1257,1905,1105,1505,1105,1506,1257,0,0,0,0,0,0,0,0,2
86880213,86880213,12,45,0,0,30003,1498,1508,1505,1504,1505,1258,1905,1105,1505,1105,1505,1257,0,0,0,0,0,0,0,0,2
87076385,87076385,12,45,0,0,30004,1508,1509,1505,1504,1505,1257,1906,1105,1505,1105,1505,1257,0,0,0,0,0,0,0,0,2
87280134,87280134,12,45,0,0,30003,1535,1509,1506,1505,1505,1257,1905,1105,1506,1105,1505,1257,0,0,0,0,0,0,0,0,2
87476174,87476174,12,45,0,0,30003,1554,1510,1505,1505,1505,1258,1905,1105,1505,1105,1505,1258,0,0,0,0,0,0,0,0,2
87692277,87692277,12,45,0,0,30003,1579,1511,1505,1505,1505,1257,1906,1105,1505,1105,1505,1257,0,0,0,0,0,0,0,0,2
87892202,87892202,12,45,0,0,30004,1595,1513,1505,1505,1505,1257,1905,1106,1505,1105,1505,1257,0,0,0,0,0,0,0,0,2
88092524,88092524,12,45,0,0,30004,1596,1510,1506,1505,1505,1257,1905,1105,1505,1106,1505,1257,0,0,0,0,0,0,0,0,2
88292255,88292255,12,45,0,0,30003,1548,1509,1506,1505,1505,1258,1905,1105,1505,1105,1505,1257,0,0,0,0,0,0,0,0,2
88496189,88496189,12,45,0,0,30003,1498,1509,1506,1504,1505,1257,1906,1105,1505,1105,1505,1257,0,0,0,0,0,0,0,0,2
88696158,88696158,12,45,0,0,30003,1498,1509,1507,1504,1505,1257,1905,1105,1506,1105,1505,1257,0,0,0,0,0,0,0,0,2
88900383,88900383,12,45,0,0,30003,1529,1509,1505,1505,1505,1257,1905,1105,1505,1106,1505,1257,0,0,0,0,0,0,0,0,2
89096199,89096199,12,45,0,0,30004,1562,1509,1505,1504,1505,1257,1906,1105,1505,1105,1505,1257,0,0,0,0,0,0,0,0,2
89296157,89296157,12,45,0,0,30003,1583,1510,1505,1504,1505,1257,1905,1106,1505,1105,1505,1257,0,0,0,0,0,0,0,0,2
89516176,89516176,12,45,0,0,30004,1588,1476,1506,1504,1505,1257,1905,1105,1506,1105,1505,1257,0,0,0,0,0,0,0,0,2
89724345,89724345,12,45,0,0,30003,1588,1344,1505,1505,1505,1257,1905,1105,1505,1105,1506,1257,0,0,0,0,0,0,0,0,2
89916382,89916382,12,45,0,0,30003,1585,1289,1506,1503,1505,1258,1905,1105,1505,1105,1505,1258,0,0,0,0,0,0,0,0,2
90128282,90128282,12,45,0,0,30004,1585,1340,1505,1504,1505,1257,1906,1105,1505,1105,1505,1257,0,0,0,0,0,0,0,0,2
90320198,90320198,12,45,0,0,30004,1591,1518,1507,1504,1505,1257,1905,1105,1505,1106,1505,1257,0,0,0,0,0,0,0,0,2
90516337,90516337,12,45,0,0,30003,1591,1509,1506,1505,1505,1257,1905,1105,1505,1105,1506,1257,0,0,0,0,0,0,0,0,2
90724382,90724382,12,45,0,0,30003,1592,1618,1496,1504,1505,1257,1906,1105,1505,1105,1505,1258,0,0,0,0,0,0,0,0,2
90940352,90940352,12,45,0,0,30003,1588,1540,1507,1504,1505,1257,1906,1105,1505,1105,1505,1257,0,0,0,0,0,0,0,0,2
91132141,91132141,12,45,0,0,30003,1584,1509,1507,1504,1505,1257,1905,1105,1505,1106,1505,1257,0,0,0,0,0,0,0,0,2
91348144,91348144,12,45,0,0,30003,1554,1509,1506,1504,1506,1257,1905,1105,1505,1105,1506,1257,0,0,0,0,0,0,0,0,2
91536131,91536131,12,45,0,0,30003,1534,1509,1506,1504,1505,1258,1905,1105,1505,1105,1505,1258,0,0,0,0,0,0,0,0,2
91748179,91748179,12,45,0,0,30003,1523,1509,1506,1504,1505,1257,1906,1105,1505,1105,1505,1257,0,0,0,0,0,0,0,0,2
91944518,91944518,12,45,0,0,30004,1508,1508,1508,1504,1505,1257,1905,1105,1505,1106,1505,1257,0,0,0,0,0,0,0,0,2
92140177,92140177,12,45,0,0,30003,1502,1508,1574,1505,1505,1257,1905,1105,1505,1105,1506,1257,0,0,0,0,0,0,0,0,2
92352396,92352396,12,45,0,0,30003,1502,1508,1611,1504,1506,1257,1905,1105,1505,1105,1505,1258,0,0,0,0,0,0,0,0,2
92552126,92552126,12,45,0,0,30004,1503,1509,1601,1504,1505,1257,1905,1106,1505,1105,1505,1257,0,0,0,0,0,0,0,0,2
92752137,92752137,12,45,0,0,30004,1504,1508,1508,1504,1505,1257,1905,1105,1506,1105,1505,1257,0,0,0,0,0,0,0,0,2
92964409,92964409,12,45,0,0,30003,1506,1509,1505,1505,1505,1257,1905,1105,1505,1105,1506,1257,0,0,0,0,0,0,0,0,2
93156162,93156162,12,45,0,0,30003,1508,1520,1456,1504,1506,1257,1905,1105,1505,1105,1505,1258,0,0,0,0,0,0,0,0,2
93356333,93356333,12,45,0,0,30004,1508,1513,1468,1503,1505,1257,1905,1106,1505,1105,1505,1257,0,0,0,0,0,0,0,0,2
93572205,93572205,12,45,0,0,30004,1500,1509,1507,1504,1505,1257,1905,1105,1506,1105,1505,1257,0,0,0,0,0,0,0,0,2
93776167,93776167,12,45,0,0,30003,1499,1509,1506,1505,1505,1257,1905,1105,1505,1106,1505,1257,0,0,0,0,0,0,0,0,2
93984168,93984168,12,45,0,0,30003,1499,1509,1506,1504,1506,1257,1905,1105,1505,1105,1506,1257,0,0,0,0,0,0,0,0,2
94168372,94168372,12,45,0,0,30003,1498,1509,1506,1504,1505,1257,1906,1105,1505,1105,1505,1257,0,0,0,0,0,0,0,0,2
94388192,94388192,12,45,0,0,30003,1499,1509,1506,1504,1505,1257,1906,1105,1505,1105,1505,1257,0,0,0,0,0,0,0,0,2
94584152,94584152,12,45,0,0,30003,1498,1509,1506,1505,1505,1257,1905,1105,1505,1105,1506,1257,0,0,0,0,0,0,0,0,2
94796235,94796235,12,45,0,0,30003,1498,1508,1506,1504,1505,1258,1905,1105,1505,1105,1505,1257,0,0,0,0,0,0,0,0,2
94976353,94976353,12,45,0,0,30003,1498,1509,1507,1503,1505,1257,1905,1105,1506,1105,1505,1257,0,0,0,0,0,0,0,0,2
95196132,95196132,12,45,0,0,30004,1498,1509,1507,1504,1505,1257,1905,1105,1506,1105,1505,1257,0,0,0,0,0,0,0,0,2
95392165,95392165,12,45,0,0,30003,1508,1509,1506,1504,1505,1258,1905,1105,1505,1105,1505,1257,0,0,0,0,0,0,0,0,2
95599415,95599415,12,45,0,0,30003,1561,1510,1506,1505,1505,1257,1905,1106,1505,1105,1505,1257,0,0,0,0,0,0,0,0,2
95798569,95798569,12,45,0,0,30004,1587,1509,1507,1505,1505,1257,1905,1105,1506,1105,1505,1257,0,0,0,0,0,0,0,0,2
96000361,96000361,12,45,0,0,30003,1625,1509,1506,1506,1505,1258,1905,1105,1505,1105,1505,1257,0,0,0,0,0,0,0,0,2
96202578,96202578,12,45,0,0,30003,1632,1510,1505,1505,1505,1257,1905,1106,1505,1105,1505,1257,0,0,0,0,0,0,0,0,2
96403413,96403413,12,45,0,0,30003,1658,1509,1507,1505,1505,1257,1905,1105,1505,1106,1505,1257,0,0,0,0,0,0,0,0,2
96603338,96603338,12,45,0,0,30003,1675,1509,1506,1505,1505,1258,1905,1105,1505,1105,1505,1257,0,0,0,0,0,0,0,0,2
96803557,96803557,12,45,0,0,30004,1694,1510,1506,1505,1505,1257,1905,1106,1505,1105,1505,1257,0,0,0,0,0,0,0,0,2
97003428,97003428,12,45,0,0,30003,1729,1508,1507,1506,1505,1257,1905,1105,1505,1106,1505,1257,0,0,0,0,0,0,0,0,2
97207420,97207420,12,45,0,0,30003,1751,1509,1506,1517,1506,1257,1905,1105,1505,1105,1506,1257,0,0,0,0,0,0,0,0,2
97427351,97427351,12,45,0,0,30003,1783,1509,1506,1520,1505,1258,1905,1105,1505,1105,1505,1257,0,0,0,0,0,0,0,0,2
97619717,97619717,12,45,0,0,30004,1830,1509,1507,1554,1505,1257,1905,1105,1506,1105,1505,1257,0,0,0,0,0,0,0,0,2
97831539,97831539,12,45,0,0,30003,1859,1508,1506,1539,1506,1257,1905,1105,1505,1105,1506,1257,0,0,0,0,0,0,0,0,2
98031557,98031557,12,45,0,0,30003,1898,1509,1506,1509,1505,1258,1905,1105,1505,1105,1505,1257,0,0,0,0,0,0,0,0,2
98239591,98239591,12,45,0,0,30004,1898,1509,1506,1505,1505,1257,1906,1105,1505,1105,1505,1257,0,0,0,0,0,0,0,0,2
98439551,98439551,12,45,0,0,30003,1898,1509,1507,1502,1505,1257,1905,1105,1506,1105,1505,1257,0,0,0,0,0,0,0,0,2
98639559,98639559,12,45,0,0,30003,1898,1509,1506,1500,1505,1258,1905,1105,1505,1105,1505,1257,0,0,0,0,0,0,0,0,2
98839633,98839633,12,45,0,0,30003,1898,1509,1506,1501,1505,1257,1906,1105,1505,1105,1505,1257,0,0,0,0,0,0,0,0,2
99043377,99043377,12,45,0,0,30004,1898,1509,1507,1500,1505,1257,1905,1105,1506,1105,1505,1257,0,0,0,0,0,0,0,0,2
99243581,99243581,12,45,0,0,30003,1898,1509,1506,1500,1505,1258,1905,1105,1505,1105,1505,1258,0,0,0,0,0,0,0,0,2
99435372,99435372,12,45,0,0,30003,1898,1509,1506,1500,1505,1257,1906,1105,1505,1105,1505,1257,0,0,0,0,0,0,0,0,2
99651360,99651360,12,45,0,0,30004,1898,1510,1506,1494,1505,1257,1905,1105,1506,1105,1505,1257,0,0,0,0,0,0,0,0,2
99859530,99859530,12,45,0,0,30003,1898,1508,1506,1490,1505,1257,1905,1105,1505,1106,1505,1257,0,0,0,0,0,0,0,0,2
100039564,100039564,12,45,0,0,30003,1898,1509,1506,1479,1505,1257,1906,1105,1505,1105,1505,1257,0,0,0,0,0,0,0,0,2
100263334,100263334,12,45,0,0,30004,1898,1510,1506,1480,1505,1257,1905,1106,1505,1105,1505,1257,0,0,0,0,0,0,0,0,2
100459554,100459554,12,45,0,0,30003,1898,1509,1507,1487,1505,1257,1905,1105,1505,1106,1505,1257,0,0,0,0,0,0,0,0,2
100659552,100659552,12,45,0,0,30003,1898,1509,1533,1502,1506,1257,1905,1105,1505,1105,1506,1257,0,0,0,0,0,0,0,0,2
100867363,100867363,12,45,0,0,30003,1898,1508,1534,1502,1505,1258,1905,1105,1505,1105,1505,1257,0,0,0,0,0,0,0,0,2
101071330,101071330,12,45,0,0,30003,1898,1508,1508,1501,1505,1257,1905,1105,1506,1105,1505,1257,0,0,0,0,0,0,0,0,2
101271338,101271338,12,45,0,0,30003,1898,1508,1507,1488,1505,1257,1905,1105,1505,1105,1506,1257,0,0,0,0,0,0,0,0,2
101475342,101475342,12,45,0,0,30003,1898,1508,1507,1502,1506,1257,1905,1105,1505,1105,1505,1258,0,0,0,0,0,0,0,0,2
101675558,101675558,12,45,0,0,30003,1835,1508,1507,1503,1505,1257,1906,1105,1505,1105,1505,1257,0,0,0,0,0,0,0,0,2
101871557,101871557,12,45,0,0,30003,1760,1508,1507,1503,1505,1257,1905,1105,1505,1106,1505,1257,0,0,0,0,0,0,0,0,2
102071381,102071381,12,45,0,0,30003,1697,1508,1507,1502,1506,1257,1905,1105,1505,1105,1505,1258,0,0,0,0,0,0,0,0,2
102271644,102271644,12,45,0,0,30003,1663,1509,1507,1503,1505,1257,1905,1106,1505,1105,1505,1257,0,0,0,0,0,0,0,0,2
102495372,102495372,12,45,0,0,30003,1496,1509,1507,1504,1505,1257,1905,1106,1505,1105,1505,1257,0,0,0,0,0,0,0,0,2
102691340,102691340,12,45,0,0,30003,1497,1508,1507,1504,1505,1257,1905,1105,1505,1105,1506,1257,0,0,0,0,0,0,0,0,2
102887355,102887355,12,45,0,0,30003,1497,1508,1507,1504,1505,1258,1905,1105,1505,1105,1505,1258,0,0,0,0,0,0,0,0,2
103099596,103099596,12,45,0,0,30003,1497,1508,1507,1504,1505,1257,1906,1105,1505,1105,1505,1257,0,0,0,0,0,0,0,0,2
103303343,103303343,12,45,0,0,30003,1496,1509,1507,1504,1505,1257,1905,1106,1505,1105,1505,1257,0,0,0,0,0,0,0,0,2
103507349,103507349,12,45,0,0,30004,1497,1508,1508,1504,1505,1257,1905,1105,1506,1105,1505,1257,0,0,0,0,0,0,0,0,2
103707365,103707365,12,45,0,0,30003,1497,1508,1507,1504,1505,1258,1905,1105,1505,1105,1505,1257,0,0,0,0,0,0,0,0,2
103911353,103911353,12,45,0,0,30003,1497,1508,1507,1504,1505,1257,1906,1105,1505,1105,1505,1257,0,0,0,0,0,0,0,0,2
104115403,104115403,12,45,0,0,30004,1497,1509,1507,1504,1505,1257,1905,1106,1505,1105,1505,1257,0,0,0,0,0,0,0,0,2
104307400,104307400,12,45,0,0,30003,1497,1508,1507,1504,1506,1257,1905,1105,1505,1105,1506,1257,0,0,0,0,0,0,0,0,2
104523395,104523395,12,45,0,0,30003,1490,1508,1507,1503,1505,1258,1905,1105,1505,1105,1505,1257,0,0,0,0,0,0,0,0,2
104707635,104707635,12,45,0,0,30004,1442,1508,1507,1503,1505,1257,1906,1105,1505,1105,1505,1257,0,0,0,0,0,0,0,0,2
104923567,104923567,12,45,0,0,30004,1410,1509,1507,1503,1505,1257,1905,1105,1506,1105,1505,1257,0,0,0,0,0,0,0,0,2
105123370,105123370,12,45,0,0,30003,1403,1508,1507,1503,1506,1257,1905,1105,1505,1105,1505,1258,0,0,0,0,0,0,0,0,2
105331544,105331544,12,45,0,0,30003,1366,1508,1507,1503,1505,1258,1905,1105,1505,1105,1505,1257,0,0,0,0,0,0,0,0,2
105535471,105535471,12,45,0,0,30004,1357,1508,1507,1503,1505,1257,1906,1105,1505,1105,1505,1257,0,0,0,0,0,0,0,0,2
105731372,105731372,12,45,0,0,30004,1326,1509,1507,1503,1505,1257,1905,1105,1506,1105,1505,1257,0,0,0,0,0,0,0,0,2
105923377,105923377,12,45,0,0,30003,1304,1508,1507,1503,1506,1257,1905,1105,1505,1105,1505,1258,0,0,0,0,0,0,0,0,2
106147489,106147489,12,45,0,0,30003,1311,1508,1507,1504,1505,1257,1905,1105,1505,1105,1506,1257,0,0,0,0,0,0,0,0,2
106331696,106331696,12,45,0,0,30003,1308,1508,1507,1503,1505,1257,1906,1105,1505,1105,1505,1257,0,0,0,0,0,0,0,0,2
106535358,106535358,12,45,0,0,30003,1297,1508,1507,1504,1505,1257,1905,1105,1505,1105,1506,1257,0,0,0,0,0,0,0,0,2
106751359,106751359,12,45,0,0,30003,1258,1508,1507,1504,1505,1257,1905,1105,1505,1105,1506,1257,0,0,0,0,0,0,0,0,2
106951412,106951412,12,45,0,0,30003,1257,1508,1507,1503,1505,1257,1906,1105,1505,1105,1505,1257,0,0,0,0,0,0,0,0,2
107143412,107143412,12,45,0,0,30003,1255,1508,1508,1503,1505,1257,1905,1105,1506,1105,1505,1257,0,0,0,0,0,0,0,0,2
107343379,107343379,12,45,0,0,30003,1246,1508,1507,1503,1505,1253,1905,1105,1505,1105,1505,1257,0,0,0,0,0,0,0,0,2
107546836,107546836,12,45,0,0,30004,1228,1509,1507,1503,1505,1236,1905,1106,1505,1105,1505,1257,0,0,0,0,0,0,0,0,2
107743558,107743558,12,45,0,0,30004,1215,1508,1508,1503,1505,1220,1905,1105,1505,1106,1505,1257,0,0,0,0,0,0,0,0,2
107960152,107960152,12,45,0,0,30003,1208,1508,1507,1503,1506,1215,1905,1105,1505,1105,1505,1258,0,0,0,0,0,0,0,0,2
108159856,108159856,12,45,0,0,30003,1205,1508,1507,1503,1505,1211,1906,1105,1505,1105,1505,1257,0,0,0,0,0,0,0,0,2
108367391,108367391,12,45,0,0,30004,1188,1509,1507,1503,1505,1196,1905,1106,1505,1105,1505,1257,0,0,0,0,0,0,0,0,2
108554917,108554917,12,45,0,0,30003,1177,1508,1507,1503,1506,1184,1905,1105,1505,1105,1505,1258,0,0,0,0,0,0,0,0,2
108774554,108774554,12,45,0,0,30003,1181,1508,1507,1503,1505,1189,1906,1105,1505,1105,1505,1257,0,0,0,0,0,0,0,0,2
108970578,108970578,12,45,0,0,30004,1195,1509,1507,1503,1505,1202,1905,1105,1506,1105,1505,1257,0,0,0,0,0,0,0,0,2
109174750,109174750,12,45,0,0,30003,1200,1508,1507,1503,1506,1207,1905,1105,1505,1105,1505,1258,0,0,0,0,0,0,0,0,2
109378636,109378636,12,45,0,0,30003,1216,1508,1507,1503,1505,1232,1906,1105,1505,1105,1505,1257,0,0,0,0,0,0,0,0,2
109583354,109583354,12,45,0,0,30004,1320,1509,1507,1502,1505,1257,1905,1105,1506,1105,1505,1257,0,0,0,0,0,0,0,0,2
111210553,111210553,12,45,0,0,30003,1294,1508,1507,1504,1506,1257,1905,1105,1505,1105,1505,1258,0,0,0,0,0,0,0,0,2
111410800,111410800,12,45,0,0,30003,1285,1508,1507,1503,1505,1257,1906,1105,1505,1105,1505,1257,0,0,0,0,0,0,0,0,2
111602561,111602561,12,45,0,0,30003,1256,1508,1507,1504,1505,1257,1905,1105,1505,1106,1505,1257,0,0,0,0,0,0,0,0,2
111802751,111802751,12,45,0,0,30003,1251,1508,1507,1503,1506,1256,1905,1105,1505,1105,1505,1258,0,0,0,0,0,0,0,0,2
111998786,111998786,12,45,0,0,30003,1230,1508,1507,1504,1505,1237,1906,1105,1505,1105,1505,1257,0,0,0,0,0,0,0,0,2
112214740,112214740,12,45,0,0,30003,1229,1509,1507,1503,1505,1236,1905,1106,1505,1105,1505,1257,0,0,0,0,0,0,0,0,2
112410575,112410575,12,45,0,0,30003,1218,1508,1507,1503,1506,1224,1905,1105,1505,1105,1506,1257,0,0,0,0,0,0,0,0,2
112630536,112630536,12,45,0,0,30003,1206,1508,1507,1503,1506,1213,1905,1105,1505,1105,1506,1257,0,0,0,0,0,0,0,0,2
112834562,112834562,12,45,0,0,30004,1203,1508,1507,1503,1505,1210,1905,1106,1505,1105,1505,1257,0,0,0,0,0,0,0,0,2
113026593,113026593,12,45,0,0,30004,1181,1508,1508,1503,1505,1185,1905,1105,1506,1105,1505,1257,0,0,0,0,0,0,0,0,2
113226556,113226556,12,45,0,0,30003,1175,1508,1507,1504,1505,1182,1905,1105,1505,1105,1506,1257,0,0,0,0,0,0,0,0,2
113430592,113430592,12,45,0,0,30003,1174,1508,1507,1503,1505,1180,1906,1105,1505,1105,1505,1257,0,0,0,0,0,0,0,0,2
113631028,113631028,12,45,0,0,30004,1173,1509,1507,1503,1505,1180,1905,1105,1506,1105,1505,1257,0,0,0,0,0,0,0,0,2
113842669,113842669,12,45,0,0,30003,1172,1508,1507,1504,1505,1179,1905,1105,1505,1106,1505,1257,0,0,0,0,0,0,0,0,2
114038567,114038567,12,45,0,0,30003,1148,1508,1507,1503,1506,1155,1905,1105,1505,1105,1505,1258,0,0,0,0,0,0,0,0,2
114242932,114242932,12,45,0,0,30004,1148,1509,1507,1503,1505,1153,1905,1106,1505,1105,1505,1257,0,0,0,0,0,0,0,0,2
114458954,114458954,12,45,0,0,30003,1124,1509,1507,1503,1505,1132,1905,1106,1505,1105,1505,1257,0,0,0,0,0,0,0,0,2
114650572,114650572,12,45,0,0,30003,1133,1508,1507,1504,1505,1142,1905,1105,1505,1105,1506,1257,0,0,0,0,0,0,0,0,2
114846762,114846762,12,45,0,0,30003,1139,1508,1507,1503,1505,1147,1906,1105,1505,1105,1505,1258,0,0,0,0,0,0,0,0,2
115066553,115066553,12,45,0,0,30004,1123,1508,1507,1503,1505,1125,1906,1105,1505,1105,1505,1257,0,0,0,0,0,0,0,0,2
115266573,115266573,12,45,0,0,30004,1115,1509,1507,1503,1505,1123,1905,1105,1506,1105,1505,1257,0,0,0,0,0,0,0,0,2
115450548,115450548,12,45,0,0,30003,1111,1508,1507,1503,1506,1117,1905,1105,1505,1105,1505,1258,0,0,0,0,0,0,0,0,2
115658533,115658533,12,45,0,0,30003,1098,1508,1507,1503,1505,1106,1905,1105,1505,1105,1505,1257,0,0,0,0,0,0,0,0,2
115878794,115878794,12,45,0,0,30003,1098,1508,1507,1503,1505,1105,1906,1105,1505,1105,1505,1257,0,0,0,0,0,0,0,0,2
116074610,116074610,12,45,0,0,30003,1098,1508,1507,1504,1505,1105,1905,1105,1505,1105,1506,1257,0,0,0,0,0,0,0,0,2
116274752,116274752,12,45,0,0,30003,1098,1508,1507,1503,1506,1105,1905,1105,1505,1105,1505,1258,0,0,0,0,0,0,0,0,2
116470812,116470812,12,45,0,0,30003,1098,1508,1507,1503,1505,1105,1906,1105,1505,1105,1505,1257,0,0,0,0,0,0,0,0,2
116674710,116674710,12,45,0,0,30004,1163,1508,1508,1504,1505,1176,1905,1105,1506,1105,1505,1257,0,0,0,0,0,0,0,0,2
116870917,116870917,12,45,0,0,30003,1178,1508,1507,1504,1505,1188,1905,1105,1505,1105,1506,1257,0,0,0,0,0,0,0,0,2
117090584,117090584,12,45,0,0,30003,1273,1508,1506,1504,1506,1257,1905,1105,1505,1105,1505,1258,0,0,0,0,0,0,0,0,2
117290805,117290805,12,45,0,0,30003,1313,1424,1503,1503,1505,1257,1906,1105,1505,1105,1505,1257,0,0,0,0,0,0,0,0,2
117490537,117490537,12,45,0,0,30003,1314,1360,1504,1503,1505,1257,1905,1106,1505,1105,1505,1257,0,0,0,0,0,0,0,0,2
117686143,117686143,12,45,0,0,30003,1335,1335,1504,1505,1505,1257,1905,1105,1505,1105,1506,1257,0,0,0,0,0,0,0,0,2
117885754,117885754,12,45,0,0,30003,1366,1348,1504,1504,1505,1258,1905,1105,1505,1105,1505,1258,0,0,0,0,0,0,0,0,2
118094526,118094526,12,45,0,0,30003,1386,1355,1502,1504,1505,1257,1906,1105,1505,1105,1505,1257,0,0,0,0,0,0,0,0,2
118301773,118301773,12,45,0,0,30004,1380,1354,1497,1504,1505,1257,1905,1105,1506,1105,1505,1257,0,0,0,0,0,0,0,0,2
118481950,118481950,12,45,0,0,30003,1399,1354,1492,1504,1505,1258,1905,1105,1505,1105,1505,1258,0,0,0,0,0,0,0,0,2
118705822,118705822,12,45,0,0,30004,1497,1366,1496,1504,1505,1257,1906,1105,1505,1105,1505,1257,0,0,0,0,0,0,0,0,2
118890000,118890000,12,45,0,0,30003,1497,1441,1506,1505,1505,1257,1905,1105,1505,1105,1506,1257,0,0,0,0,0,0,0,0,2
119102022,119102022,12,45,0,0,30003,1497,1509,1506,1504,1505,1258,1905,1105,1505,1105,1505,1257,0,0,0,0,0,0,0,0,2
119305760,119305760,12,45,0,0,30003,1497,1491,1540,1504,1505,1257,1906,1105,1505,1105,1505,1257,0,0,0,0,0,0,0,0,2
119521759,119521759,12,45,0,0,30004,1497,1483,1529,1504,1505,1257,1905,1105,1506,1105,1505,1257,0,0,0,0,0,0,0,0,2
119709977,119709977,12,45,0,0,30003,1497,1508,1507,1504,1506,1257,1905,1105,1505,1105,1506,1257,0,0,0,0,0,0,0,0,2
119910120,119910120,12,45,0,0,30003,1496,1464,1530,1504,1505,1257,1905,1106,1505,1105,1505,1257,0,0,0,0,0,0,0,0,2
120126121,120126121,12,45,0,0,30004,1497,1401,1580,1504,1505,1257,1905,1105,1505,1106,1505,1257,0,0,0,0,0,0,0,0,2
120313878,120313878,12,45,0,0,30003,1497,1465,1560,1504,1506,1257,1905,1105,1505,1105,1506,1257,0,0,0,0,0,0,0,0,2
120533769,120533769,12,45,0,0,30003,1497,1508,1507,1504,1505,1257,1906,1105,1505,1105,1505,1257,0,0,0,0,0,0,0,0,2
120733787,120733787,12,45,0,0,30003,1496,1510,1507,1504,1505,1257,1905,1106,1505,1105,1505,1257,0,0,0,0,0,0,0,0,2
120937950,120937950,12,45,0,0,30004,1497,1476,1532,1504,1505,1257,1905,1105,1505,1106,1505,1257,0,0,0,0,0,0,0,0,2
121134134,121134134,12,45,0,0,30003,1497,1473,1555,1504,1505,1257,1906,1105,1505,1105,1505,1257,0,0,0,0,0,0,0,0,2
121329786,121329786,12,45,0,0,30004,1496,1476,1565,1504,1505,1257,1905,1106,1505,1105,1505,1257,0,0,0,0,0,0,0,0,2
121541766,121541766,12,45,0,0,30003,1497,1508,1530,1504,1505,1257,1905,1105,1505,1106,1505,1257,0,0,0,0,0,0,0,0,2
121746177,121746177,12,45,0,0,30003,1497,1508,1507,1504,1505,1257,1906,1105,1505,1105,1505,1257,0,0,0,0,0,0,0,0,2
121949952,121949952,12,45,0,0,30003,1496,1508,1508,1504,1505,1257,1905,1106,1505,1105,1505,1257,0,0,0,0,0,0,0,0,2
122153746,122153746,12,45,0,0,30004,1498,1366,1530,1504,1505,1257,1905,1105,1505,1106,1505,1257,0,0,0,0,0,0,0,0,2
122341958,122341958,12,45,0,0,30003,1497,1368,1521,1504,1505,1257,1906,1105,1505,1105,1505,1257,0,0,0,0,0,0,0,0,2
122549769,122549769,12,45,0,0,30004,1496,1509,1507,1504,1505,1257,1905,1106,1505,1105,1505,1257,0,0,0,0,0,0,0,0,2
122737771,122737771,12,45,0,0,30003,1498,1508,1507,1504,1505,1257,1905,1105,1506,1105,1505,1257,0,0,0,0,0,0,0,0,2
122945782,122945782,12,45,0,0,30003,1497,1508,1522,1504,1505,1258,1905,1105,1505,1105,1505,1257,0,0,0,0,0,0,0,0,2
123145988,123145988,12,45,0,0,30003,1497,1433,1590,1504,1505,1257,1906,1105,1505,1105,1505,1257,0,0,0,0,0,0,0,0,2
123361795,123361795,12,45,0,0,30004,1497,1426,1606,1504,1505,1257,1905,1105,1506,1105,1505,1257,0,0,0,0,0,0,0,0,2
123557822,123557822,12,45,0,0,30003,1497,1507,1558,1505,1505,1257,1905,1105,1505,1105,1506,1257,0,0,0,0,0,0,0,0,2
123757756,123757756,12,45,0,0,30003,1498,1510,1506,1504,1505,1258,1905,1105,1505,1105,1505,1258,0,0,0,0,0,0,0,0,2
123953799,123953799,12,45,0,0,30004,1497,1621,1408,1504,1505,1257,1905,1105,1506,1105,1505,1257,0,0,0,0,0,0,0,0,2
124173734,124173734,12,45,0,0,30003,1498,1673,1366,1505,1505,1257,1905,1105,1505,1106,1505,1257,0,0,0,0,0,0,0,0,2
124374152,124374152,12,45,0,0,30003,1497,1509,1506,1504,1506,1257,1905,1105,1505,1105,1505,1258,0,0,0,0,0,0,0,0,2
124561758,124561758,12,45,0,0,30004,1498,1510,1506,1504,1505,1257,1905,1106,1505,1105,1505,1257,0,0,0,0,0,0,0,0,2
124761958,124761958,12,45,0,0,30003,1497,1508,1507,1504,1505,1257,1905,1105,1505,1106,1505,1257,0,0,0,0,0,0,0,0,2
124977730,124977730,12,45,0,0,30003,1497,1433,1544,1504,1506,1257,1905,1105,1505,1105,1506,1257,0,0,0,0,0,0,0,0,2
125177760,125177760,12,45,0,0,30003,1498,1397,1574,1504,1505,1258,1905,1105,1505,1105,1505,1257,0,0,0,0,0,0,0,0,2
125382153,125382153,12,45,0,0,30003,1497,1506,1519,1504,1505,1257,1906,1105,1505,1105,1505,1257,0,0,0,0,0,0,0,0,2
125585754,125585754,12,45,0,0,30003,1497,1508,1507,1505,1505,1257,1905,1105,1505,1105,1506,1257,0,0,0,0,0,0,0,0,2
125783528,125783528,12,45,0,0,30003,1497,1508,1507,1504,1505,1258,1905,1105,1505,1105,1505,1258,0,0,0,0,0,0,0,0,2
125985321,125985321,12,45,0,0,30004,1497,1508,1507,1504,1505,1257,1906,1105,1505,1105,1505,1257,0,0,0,0,0,0,0,0,2
126181005,126181005,12,45,0,0,30003,1396,1508,1507,1504,1505,1257,1905,1105,1505,1106,1505,1257,0,0,0,0,0,0,0,0,2
126384998,126384998,12,45,0,0,30003,1325,1508,1506,1503,1506,1257,1905,1105,1505,1105,1506,1257,0,0,0,0,0,0,0,0,2
126588982,126588982,12,45,0,0,30003,1289,1508,1507,1503,1505,1258,1905,1105,1505,1105,1505,1257,0,0,0,0,0,0,0,0,2
126788929,126788929,12,45,0,0,30003,1255,1508,1507,1503,1505,1257,1906,1105,1505,1105,1505,1257,0,0,0,0,0,0,0,0,2
126993147,126993147,12,45,0,0,30003,1244,1508,1507,1504,1505,1251,1905,1105,1505,1105,1506,1257,0,0,0,0,0,0,0,0,2
127197182,127197182,12,45,0,0,30003,1222,1508,1507,1503,1506,1229,1905,1105,1505,1105,1505,1258,0,0,0,0,0,0,0,0,2
127601001,127601001,12,45,0,0,30004,1178,1509,1507,1503,1505,1186,1905,1106,1505,1105,1505,1257,0,0,0,0,0,0,0,0,2
127796988,127796988,12,45,0,0,30003,1184,1508,1507,1504,1505,1191,1905,1105,1505,1105,1506,1257,0,0,0,0,0,0,0,0,2
128016948,128016948,12,45,0,0,30003,1186,1508,1507,1503,1505,1194,1905,1105,1505,1105,1505,1258,0,0,0,0,0,0,0,0,2
128216947,128216947,12,45,0,0,30003,1155,1508,1507,1503,1505,1162,1906,1105,1505,1105,1505,1257,0,0,0,0,0,0,0,0,2
128412961,128412961,12,45,0,0,30004,1145,1509,1507,1503,1505,1152,1905,1105,1506,1105,1505,1257,0,0,0,0,0,0,0,0,2
128617197,128617197,12,45,0,0,30003,1149,1508,1507,1502,1505,1157,1905,1105,1505,1105,1505,1257,0,0,0,0,0,0,0,0,2
128828972,128828972,12,45,0,0,30003,1168,1508,1507,1501,1505,1176,1905,1105,1505,1105,1505,1257,0,0,0,0,0,0,0,0,2
129024946,129024946,12,45,0,0,30003,1206,1508,1508,1502,1505,1213,1905,1105,1505,1106,1505,1257,0,0,0,0,0,0,0,0,2
129224937,129224937,12,45,0,0,30003,1497,1508,1507,1504,1506,1257,1905,1105,1505,1105,1506,1257,0,0,0,0,0,0,0,0,2
129417162,129417162,12,45,0,0,30003,1496,1443,1552,1504,1505,1257,1905,1106,1505,1105,1505,1257,0,0,0,0,0,0,0,0,2
129637127,129637127,12,45,0,0,30003,1497,1398,1586,1505,1505,1257,1905,1105,1505,1106,1505,1257,0,0,0,0,0,0,0,0,2
129841173,129841173,12,45,0,0,30003,1497,1483,1552,1504,1506,1257,1905,1105,1505,1105,1505,1258,0,0,0,0,0,0,0,0,2
130037329,130037329,12,45,0,0,30004,1497,1464,1570,1504,1505,1257,1906,1105,1505,1105,1505,1257,0,0,0,0,0,0,0,0,2
130249077,130249077,12,45,0,0,30004,1497,1445,1589,1504,1505,1257,1905,1105,1506,1105,1505,1257,0,0,0,0,0,0,0,0,2
130448998,130448998,12,45,0,0,30003,1497,1426,1595,1504,1506,1257,1905,1105,1505,1105,1506,1257,0,0,0,0,0,0,0,0,2
130649343,130649343,12,45,0,0,30003,1496,1407,1614,1504,1505,1257,1905,1106,1505,1105,1505,1257,0,0,0,0,0,0,0,0,2
130857168,130857168,12,45,0,0,30003,1497,1420,1610,1504,1505,1257,1905,1105,1505,1106,1505,1257,0,0,0,0,0,0,0,0,2
131053233,131053233,12,45,0,0,30003,1497,1453,1595,1504,1506,1257,1905,1105,1505,1105,1505,1258,0,0,0,0,0,0,0,0,2
131249179,131249179,12,45,0,0,30004,1497,1462,1592,1504,1505,1257,1905,1106,1505,1105,1505,1257,0,0,0,0,0,0,0,0,2
131444976,131444976,12,45,0,0,30003,1498,1456,1599,1505,1505,1257,1905,1105,1505,1106,1505,1257,0,0,0,0,0,0,0,0,2
131657345,131657345,12,45,0,0,30003,1497,1454,1608,1504,1506,1257,1905,1105,1505,1105,1505,1258,0,0,0,0,0,0,0,0,2
131853166,131853166,12,45,0,0,30004,1497,1457,1608,1504,1505,1257,1905,1105,1506,1105,1505,1257,0,0,0,0,0,0,0,0,2
132073142,132073142,12,45,0,0,30003,1498,1478,1593,1504,1505,1257,1905,1105,1506,1105,1505,1257,0,0,0,0,0,0,0,0,2
132876978,132876978,12,45,0,0,30003,1496,1492,1506,1504,1505,1258,1905,1105,1505,1105,1505,1257,0,0,0,0,0,0,0,0,2
133076950,133076950,12,45,0,0,30003,1497,1305,1506,1504,1505,1257,1905,1106,1505,1105,1505,1257,0,0,0,0,0,0,0,0,2
133284958,133284958,12,45,0,0,30003,1497,1264,1506,1504,1505,1257,1905,1105,1506,1105,1505,1257,0,0,0,0,0,0,0,0,2
133483441,133483441,12,45,0,0,30003,1497,1251,1506,1504,1506,1257,1905,1105,1505,1105,1506,1257,0,0,0,0,0,0,0,0,2
133684950,133684950,12,45,0,0,30003,1496,1247,1507,1504,1505,1257,1905,1106,1505,1105,1505,1257,0,0,0,0,0,0,0,0,2
133893021,133893021,12,45,0,0,30004,1497,1275,1507,1504,1505,1257,1905,1105,1505,1106,1505,1257,0,0,0,0,0,0,0,0,2
134084950,134084950,12,45,0,0,30003,1497,1296,1505,1504,1506,1257,1905,1105,1505,1105,1506,1257,0,0,0,0,0,0,0,0,2
134300172,134300172,12,45,0,0,30003,1498,1458,1507,1504,1505,1258,1905,1105,1505,1105,1505,1257,0,0,0,0,0,0,0,0,2
134505187,134505187,12,45,0,0,30004,1497,1509,1507,1504,1505,1257,1905,1106,1505,1105,1505,1257,0,0,0,0,0,0,0,0,2
134704263,134704263,12,45,0,0,30003,1497,1509,1506,1504,1506,1257,1905,1105,1505,1105,1506,1257,0,0,0,0,0,0,0,0,2
134900174,134900174,12,45,0,0,30003,1497,1626,1474,1504,1505,1258,1905,1105,1505,1105,1505,1257,0,0,0,0,0,0,0,0,2
135116153,135116153,12,45,0,0,30004,1497,1597,1505,1504,1505,1257,1906,1105,1505,1105,1505,1257,0,0,0,0,0,0,0,0,2
135300274,135300274,12,45,0,0,30003,1498,1509,1506,1504,1506,1257,1905,1105,1505,1105,1506,1257,0,0,0,0,0,0,0,0,2
135520155,135520155,12,45,0,0,30003,1497,1508,1538,1505,1505,1257,1905,1105,1505,1105,1506,1257,0,0,0,0,0,0,0,0,2
135724199,135724199,12,45,0,0,30004,1497,1508,1608,1504,1505,1257,1906,1105,1505,1105,1505,1257,0,0,0,0,0,0,0,0,2
135904331,135904331,12,45,0,0,30003,1498,1509,1634,1505,1505,1257,1905,1105,1505,1105,1506,1257,0,0,0,0,0,0,0,0,2
136124145,136124145,12,45,0,0,30003,1498,1508,1516,1505,1505,1257,1905,1105,1505,1105,1506,1257,0,0,0,0,0,0,0,0,2
136312172,136312172,12,45,0,0,30003,1497,1509,1505,1504,1505,1257,1906,1105,1505,1105,1505,1257,0,0,0,0,0,0,0,0,2
136524382,136524382,12,45,0,0,30004,1498,1542,1396,1504,1505,1257,1905,1105,1506,1105,1505,1257,0,0,0,0,0,0,0,0,2
136720365,136720365,12,45,0,0,30003,1498,1530,1351,1506,1505,1257,1905,1105,1505,1105,1506,1257,0,0,0,0,0,0,0,0,2
136936204,136936204,12,45,0,0,30003,1498,1512,1375,1504,1506,1257,1905,1105,1505,1105,1505,1258,0,0,0,0,0,0,0,0,2
137132151,137132151,12,45,0,0,30004,1498,1546,1383,1504,1505,1257,1905,1105,1506,1105,1505,1257,0,0,0,0,0,0,0,0,2
137340193,137340193,12,45,0,0,30004,1497,1579,1450,1505,1505,1257,1905,1105,1505,1106,1505,1257,0,0,0,0,0,0,0,0,2
137540395,137540395,12,45,0,0,30003,1497,1554,1477,1504,1506,1257,1905,1105,1505,1105,1506,1257,0,0,0,0,0,0,0,0,2
137740158,137740158,12,45,0,0,30003,1498,1629,1455,1504,1505,1258,1905,1105,1505,1105,1505,1257,0,0,0,0,0,0,0,0,2
137936350,137936350,12,45,0,0,30004,1498,1509,1506,1504,1505,1257,1905,1105,1506,1105,1505,1257,0,0,0,0,0,0,0,0,2
138136150,138136150,12,45,0,0,30003,1498,1509,1505,1505,1505,1257,1905,1105,1505,1105,1506,1257,0,0,0,0,0,0,0,0,2
138336208,138336208,12,45,0,0,30003,1497,1507,1554,1504,1505,1257,1906,1105,1505,1105,1505,1257,0,0,0,0,0,0,0,0,2
138560515,138560515,12,45,0,0,30003,1498,1508,1635,1504,1505,1257,1906,1105,1505,1105,1505,1257,0,0,0,0,0,0,0,0,2
138760160,138760160,12,45,0,0,30003,1498,1510,1664,1504,1505,1257,1905,1106,1505,1105,1505,1257,0,0,0,0,0,0,0,0,2
138972125,138972125,12,45,0,0,30004,1497,1509,1668,1504,1505,1257,1905,1105,1505,1106,1505,1257,0,0,0,0,0,0,0,0,2
139160129,139160129,12,45,0,0,30003,1497,1509,1667,1504,1505,1258,1905,1105,1505,1105,1505,1257,0,0,0,0,0,0,0,0,2
139364399,139364399,12,45,0,0,30003,1496,1511,1669,1504,1505,1257,1906,1105,1505,1105,1505,1257,0,0,0,0,0,0,0,0,2
139572374,139572374,12,45,0,0,30004,1498,1512,1672,1504,1505,1257,1905,1105,1506,1105,1505,1257,0,0,0,0,0,0,0,0,2
139764202,139764202,12,45,0,0,30003,1498,1512,1671,1504,1506,1257,1905,1105,1505,1105,1505,1258,0,0,0,0,0,0,0,0,2
139964538,139964538,12,45,0,0,30003,1498,1531,1642,1504,1505,1257,1906,1105,1505,1105,1505,1257,0,0,0,0,0,0,0,0,2
140176167,140176167,12,45,0,0,30004,1494,1545,1586,1504,1505,1257,1905,1105,1506,1105,1505,1257,0,0,0,0,0,0,0,0,2
140388210,140388210,12,45,0,0,30003,1497,1509,1507,1504,1506,1257,1905,1105,1505,1105,1506,1257,0,0,0,0,0,0,0,0,2
140587557,140587557,12,45,0,0,30003,1497,1510,1507,1504,1505,1257,1905,1106,1505,1105,1505,1257,0,0,0,0,0,0,0,0,2
140776356,140776356,12,45,0,0,30003,1498,1510,1446,1505,1505,1257,1905,1105,1505,1106,1505,1257,0,0,0,0,0,0,0,0,2
140976349,140976349,12,45,0,0,30004,1498,1510,1473,1504,1505,1257,1906,1105,1505,1105,1505,1257,0,0,0,0,0,0,0,0,2
141200351,141200351,12,45,0,0,30003,1498,1509,1505,1504,1505,1257,1906,1105,1505,1105,1505,1257,0,0,0,0,0,0,0,0,2
141399530,141399530,12,45,0,0,30004,1498,1510,1503,1504,1505,1257,1905,1105,1506,1105,1505,1257,0,0,0,0,0,0,0,0,2
141597779,141597779,12,45,0,0,30003,1496,1510,1425,1504,1505,1257,1906,1105,1505,1105,1505,1257,0,0,0,0,0,0,0,0,2
141791334,141791334,12,45,0,0,30004,1497,1511,1373,1504,1505,1257,1905,1106,1505,1105,1505,1257,0,0,0,0,0,0,0,0,2
142011369,142011369,12,45,0,0,30003,1497,1510,1439,1505,1505,1257,1905,1105,1505,1106,1505,1257,0,0,0,0,0,0,0,0,2
142207371,142207371,12,45,0,0,30003,1498,1509,1506,1504,1505,1257,1906,1105,1505,1105,1505,1257,0,0,0,0,0,0,0,0,2
142415528,142415528,12,45,0,0,30004,1498,1509,1507,1504,1505,1257,1905,1105,1506,1105,1505,1257,0,0,0,0,0,0,0,0,2
142615753,142615753,12,45,0,0,30003,1498,1509,1506,1505,1505,1257,1905,1105,1505,1105,1506,1257,0,0,0,0,0,0,0,0,2
142811373,142811373,12,45,0,0,30003,1497,1443,1507,1504,1505,1258,1905,1105,1505,1105,1505,1257,0,0,0,0,0,0,0,0,2
143015347,143015347,12,45,0,0,30003,1497,1367,1508,1503,1505,1257,1905,1105,1505,1106,1505,1257,0,0,0,0,0,0,0,0,2
143215367,143215367,12,45,0,0,30003,1498,1328,1510,1504,1506,1257,1905,1105,1505,1105,1505,1258,0,0,0,0,0,0,0,0,2
143427370,143427370,12,45,0,0,30003,1497,1508,1506,1504,1505,1257,1906,1105,1505,1105,1505,1257,0,0,0,0,0,0,0,0,2
143623741,143623741,12,45,0,0,30004,1498,1509,1506,1504,1505,1257,1905,1105,1506,1105,1505,1257,0,0,0,0,0,0,0,0,2
143827350,143827350,12,45,0,0,30003,1498,1508,1506,1504,1505,1258,1905,1105,1505,1105,1505,1258,0,0,0,0,0,0,0,0,2
144035353,144035353,12,45,0,0,30003,1498,1508,1506,1504,1505,1257,1906,1105,1505,1105,1505,1257,0,0,0,0,0,0,0,0,2
144223574,144223574,12,45,0,0,30004,1506,1508,1508,1504,1505,1257,1905,1105,1506,1105,1505,1257,0,0,0,0,0,0,0,0,2
144443359,144443359,12,45,0,0,30003,1634,1508,1506,1506,1505,1257,1905,1105,1505,1105,1506,1257,0,0,0,0,0,0,0,0,2
145651539,145651539,12,45,0,0,30003,1898,1508,1506,1500,1506,1257,1905,1105,1505,1105,1506,1257,0,0,0,0,0,0,0,0,2
145859551,145859551,12,45,0,0,30003,1898,1508,1506,1499,1505,1257,1906,1105,1505,1105,1505,1257,0,0,0,0,0,0,0,0,2
146059603,146059603,12,45,0,0,30004,1898,1509,1506,1499,1505,1257,1905,1106,1505,1105,1505,1257,0,0,0,0,0,0,0,0,2
146267368,146267368,12,45,0,0,30003,1898,1508,1507,1499,1505,1257,1905,1105,1505,1106,1505,1257,0,0,0,0,0,0,0,0,2
146467733,146467733,12,45,0,0,30003,1898,1508,1506,1499,1505,1257,1906,1105,1505,1105,1505,1257,0,0,0,0,0,0,0,0,2
146671397,146671397,12,45,0,0,30004,1898,1509,1506,1499,1505,1257,1905,1106,1505,1105,1505,1257,0,0,0,0,0,0,0,0,2
146875415,146875415,12,45,0,0,30003,1898,1508,1507,1499,1505,1257,1905,1105,1505,1106,1505,1257,0,0,0,0,0,0,0,0,2
147059351,147059351,12,45,0,0,30004,1898,1508,1506,1499,1505,1257,1906,1105,1505,1105,1505,1257,0,0,0,0,0,0,0,0,2
147282591,147282591,12,45,0,0,30004,1898,1508,1506,1498,1505,1257,1906,1105,1505,1105,1505,1257,0,0,0,0,0,0,0,0,2
147478750,147478750,12,45,0,0,30003,1898,1508,1507,1498,1505,1257,1905,1105,1505,1106,1505,1257,0,0,0,0,0,0,0,0,2
147679556,147679556,12,45,0,0,30003,1898,1508,1506,1498,1506,1257,1905,1105,1505,1105,1506,1257,0,0,0,0,0,0,0,0,2
147874534,147874534,12,45,0,0,30004,1897,1509,1506,1497,1505,1257,1905,1106,1505,1105,1505,1257,0,0,0,0,0,0,0,0,2
148078794,148078794,12,45,0,0,30003,1898,1508,1507,1497,1505,1257,1905,1105,1505,1106,1505,1257,0,0,0,0,0,0,0,0,2
148274571,148274571,12,45,0,0,30003,1898,1508,1506,1497,1506,1257,1905,1105,1505,1105,1506,1257,0,0,0,0,0,0,0,0,2
148490577,148490577,12,45,0,0,30003,1898,1508,1506,1481,1505,1258,1905,1105,1505,1105,1505,1257,0,0,0,0,0,0,0,0,2
148698921,148698921,12,45,0,0,30003,1898,1508,1506,1477,1505,1257,1906,1105,1505,1105,1505,1257,0,0,0,0,0,0,0,0,2
148894572,148894572,12,45,0,0,30003,1898,1508,1506,1477,1505,1257,1905,1105,1505,1105,1506,1257,0,0,0,0,0,0,0,0,2
149098760,149098760,12,45,0,0,30003,1898,1508,1506,1467,1505,1258,1905,1105,1505,1105,1505,1257,0,0,0,0,0,0,0,0,2
149298588,149298588,12,45,0,0,30004,1898,1508,1506,1465,1505,1257,1906,1105,1505,1105,1505,1257,0,0,0,0,0,0,0,0,2
149498603,149498603,12,45,0,0,30003,1898,1508,1506,1491,1505,1257,1905,1105,1505,1105,1506,1257,0,0,0,0,0,0,0,0,2
149694560,149694560,12,45,0,0,30003,1869,1508,1506,1503,1506,1257,1905,1105,1505,1105,1505,1258,0,0,0,0,0,0,0,0,2
149898541,149898541,12,45,0,0,30003,1750,1508,1506,1501,1505,1257,1906,1105,1505,1105,1505,1257,0,0,0,0,0,0,0,0,2
150098690,150098690,12,45,0,0,30003,1585,1508,1506,1503,1505,1257,1905,1105,1505,1106,1505,1257,0,0,0,0,0,0,0,0,2
150298756,150298756,12,45,0,0,30003,1550,1508,1506,1502,1506,1257,1905,1105,1505,1105,1505,1258,0,0,0,0,0,0,0,0,2
150506750,150506750,12,45,0,0,30003,1525,1508,1506,1503,1505,1257,1906,1105,1505,1105,1505,1257,0,0,0,0,0,0,0,0,2
150710565,150710565,12,45,0,0,30003,1498,1509,1506,1503,1505,1257,1905,1106,1505,1105,1505,1257,0,0,0,0,0,0,0,0,2
150910571,150910571,12,45,0,0,30003,1498,1508,1507,1504,1505,1257,1905,1105,1506,1105,1505,1257,0,0,0,0,0,0,0,0,2
151114757,151114757,12,45,0,0,30003,1498,1508,1506,1504,1505,1258,1905,1105,1505,1105,1505,1258,0,0,0,0,0,0,0,0,2
151314574,151314574,12,45,0,0,30004,1498,1508,1506,1504,1505,1257,1906,1105,1505,1105,1505,1257,0,0,0,0,0,0,0,0,2
151514744,151514744,12,45,0,0,30004,1498,1509,1506,1504,1505,1257,1905,1106,1505,1105,1505,1257,0,0,0,0,0,0,0,0,2
151726578,151726578,12,45,0,0,30003,1497,1508,1506,1504,1505,1257,1905,1105,1505,1106,1505,1257,0,0,0,0,0,0,0,0,2
151938925,151938925,12,45,0,0,30003,1482,1508,1506,1503,1505,1258,1905,1105,1505,1105,1505,1258,0,0,0,0,0,0,0,0,2
152134542,152134542,12,45,0,0,30004,1441,1508,1507,1503,1505,1257,1905,1105,1506,1105,1505,1257,0,0,0,0,0,0,0,0,2
152338600,152338600,12,45,0,0,30003,1373,1508,1506,1502,1506,1257,1905,1105,1505,1105,1506,1257,0,0,0,0,0,0,0,0,2
152538554,152538554,12,45,0,0,30003,1333,1508,1506,1502,1505,1257,1906,1105,1505,1105,1505,1257,0,0,0,0,0,0,0,0,2
152754555,152754555,12,45,0,0,30004,1283,1509,1506,1502,1505,1257,1905,1105,1506,1105,1505,1257,0,0,0,0,0,0,0,0,2
152954526,152954526,12,45,0,0,30003,1278,1508,1506,1503,1505,1257,1905,1105,1505,1105,1506,1257,0,0,0,0,0,0,0,0,2
153154585,153154585,12,45,0,0,30003,1253,1509,1506,1496,1505,1257,1905,1106,1505,1105,1505,1257,0,0,0,0,0,0,0,0,2
153350555,153350555,12,45,0,0,30004,1235,1508,1507,1500,1505,1242,1905,1105,1505,1106,1505,1257,0,0,0,0,0,0,0,0,2
153562757,153562757,12,45,0,0,30003,1203,1508,1506,1502,1506,1210,1905,1105,1505,1105,1505,1258,0,0,0,0,0,0,0,0,2
153746559,153746559,12,45,0,0,30003,1203,1509,1506,1501,1505,1210,1905,1105,1506,1105,1505,1257,0,0,0,0,0,0,0,0,2
153969778,153969778,12,45,0,0,30004,1148,1508,1507,1502,1505,1155,1905,1105,1506,1105,1505,1257,0,0,0,0,0,0,0,0,2
154173769,154173769,12,45,0,0,30003,1141,1508,1506,1502,1505,1149,1905,1105,1505,1105,1505,1257,0,0,0,0,0,0,0,0,2
154357730,154357730,12,45,0,0,30003,1140,1508,1507,1502,1505,1147,1905,1105,1505,1106,1505,1257,0,0,0,0,0,0,0,0,2
154577746,154577746,12,45,0,0,30004,1124,1508,1507,1500,1505,1131,1905,1105,1505,1106,1505,1257,0,0,0,0,0,0,0,0,2
154777734,154777734,12,45,0,0,30003,1121,1508,1506,1499,1505,1128,1906,1105,1505,1105,1505,1257,0,0,0,0,0,0,0,0,2
154981955,154981955,12,45,0,0,30003,1123,1509,1506,1498,1505,1131,1905,1105,1506,1105,1505,1257,0,0,0,0,0,0,0,0,2
155181761,155181761,12,45,0,0,30003,1125,1508,1506,1502,1505,1132,1905,1105,1505,1105,1506,1257,0,0,0,0,0,0,0,0,2
155381946,155381946,12,45,0,0,30003,1098,1509,1506,1501,1505,1106,1905,1105,1505,1105,1505,1257,0,0,0,0,0,0,0,0,2
155574147,155574147,12,45,0,0,30003,1101,1508,1507,1502,1505,1108,1905,1105,1506,1105,1505,1257,0,0,0,0,0,0,0,0,2
155773945,155773945,12,45,0,0,30003,1098,1508,1506,1503,1505,1105,1905,1105,1505,1105,1506,1257,0,0,0,0,0,0,0,0,2
155993727,155993727,12,45,0,0,30003,1101,1508,1506,1502,1505,1109,1905,1105,1505,1105,1505,1257,0,0,0,0,0,0,0,0,2
156186146,156186146,12,45,0,0,30003,1101,1475,1507,1503,1505,1108,1905,1105,1505,1106,1505,1257,0,0,0,0,0,0,0,0,2
156389797,156389797,12,45,0,0,30003,1102,1418,1506,1502,1506,1109,1905,1105,1505,1105,1505,1258,0,0,0,0,0,0,0,0,2
156585817,156585817,12,45,0,0,30003,1101,1394,1506,1502,1505,1108,1906,1105,1505,1105,1505,1257,0,0,0,0,0,0,0,0,2
156785950,156785950,12,45,0,0,30004,1101,1388,1506,1503,1505,1108,1905,1105,1505,1106,1505,1257,0,0,0,0,0,0,0,0,2
157005741,157005741,12,45,0,0,30004,1108,1508,1506,1503,1505,1115,1905,1105,1505,1106,1505,1257,0,0,0,0,0,0,0,0,2
157194144,157194144,12,45,0,0,30003,1101,1508,1506,1502,1505,1108,1906,1105,1505,1105,1505,1257,0,0,0,0,0,0,0,0,2
157410126,157410126,12,45,0,0,30003,1097,1509,1506,1503,1505,1105,1905,1105,1506,1105,1505,1257,0,0,0,0,0,0,0,0,2
157601774,157601774,12,45,0,0,30003,1098,1508,1506,1503,1505,1105,1905,1105,1505,1106,1505,1257,0,0,0,0,0,0,0,0,2
157809815,157809815,12,45,0,0,30003,1098,1508,1506,1500,1506,1105,1905,1105,1505,1105,1505,1258,0,0,0,0,0,0,0,0,2
158009759,158009759,12,45,0,0,30003,1098,1509,1506,1498,1505,1105,1905,1105,1506,1105,1505,1257,0,0,0,0,0,0,0,0,2
158217773,158217773,12,45,0,0,30003,1098,1509,1506,1499,1505,1105,1905,1105,1505,1105,1506,1257,0,0,0,0,0,0,0,0,2
158409826,158409826,12,45,0,0,30003,1098,1509,1506,1491,1505,1105,1906,1105,1505,1105,1505,1257,0,0,0,0,0,0,0,0,2
158613743,158613743,12,45,0,0,30004,1098,1509,1506,1484,1505,1105,1905,1105,1506,1105,1505,1257,0,0,0,0,0,0,0,0,2
158829737,158829737,12,45,0,0,30003,1098,1509,1506,1477,1505,1105,1905,1105,1505,1105,1506,1257,0,0,0,0,0,0,0,0,2
159030119,159030119,12,45,0,0,30003,1098,1508,1506,1473,1506,1105,1905,1105,1505,1105,1505,1258,0,0,0,0,0,0,0,0,2
159225928,159225928,12,45,0,0,30003,1098,1508,1506,1466,1505,1105,1906,1105,1505,1105,1505,1257,0,0,0,0,0,0,0,0,2
159437793,159437793,12,45,0,0,30003,1097,1509,1506,1467,1505,1105,1905,1105,1506,1105,1505,1257,0,0,0,0,0,0,0,0,2
159645819,159645819,12,45,0,0,30004,1098,1508,1506,1467,1505,1105,1905,1105,1505,1106,1505,1257,0,0,0,0,0,0,0,0,2
159849199,159849199,12,45,0,0,30003,1098,1508,1506,1466,1505,1105,1906,1105,1505,1105,1505,1257,0,0,0,0,0,0,0,0,2
160049153,160049153,12,45,0,0,30003,1097,1509,1506,1466,1505,1105,1905,1106,1505,1105,1505,1257,0,0,0,0,0,0,0,0,2
160240946,160240946,12,45,0,0,30004,1098,1508,1507,1464,1505,1105,1905,1105,1505,1106,1505,1257,0,0,0,0,0,0,0,0,2
160444959,160444959,12,45,0,0,30003,1150,1508,1506,1492,1505,1157,1906,1105,1505,1105,1505,1257,0,0,0,0,0,0,0,0,2
160641345,160641345,12,45,0,0,30004,1327,1476,1505,1504,1505,1257,1905,1106,1505,1105,1505,1257,0,0,0,0,0,0,0,0,2
160848971,160848971,12,45,0,0,30003,1498,1359,1508,1504,1505,1257,1905,1105,1506,1105,1505,1257,0,0,0,0,0,0,0,0,2
161061004,161061004,12,45,0,0,30003,1498,1298,1508,1505,1505,1257,1905,1105,1505,1105,1506,1257,0,0,0,0,0,0,0,0,2
161264965,161264965,12,45,0,0,30003,1498,1294,1507,1504,1505,1258,1905,1105,1505,1105,1505,1258,0,0,0,0,0,0,0,0,2
161464965,161464965,12,45,0,0,30004,1498,1297,1507,1504,1505,1257,1905,1105,1506,1105,1505,1257,0,0,0,0,0,0,0,0,2
161665197,161665197,12,45,0,0,30003,1498,1293,1507,1505,1505,1257,1905,1105,1505,1106,1505,1257,0,0,0,0,0,0,0,0,2
161865315,161865315,12,45,0,0,30003,1498,1294,1505,1504,1506,1257,1905,1105,1505,1105,1505,1258,0,0,0,0,0,0,0,0,2
162056972,162056972,12,45,0,0,30004,1497,1292,1505,1504,1505,1257,1905,1106,1505,1105,1505,1257,0,0,0,0,0,0,0,0,2
162257093,162257093,12,45,0,0,30003,1498,1288,1507,1504,1505,1257,1905,1105,1505,1106,1505,1257,0,0,0,0,0,0,0,0,2
162461055,162461055,12,45,0,0,30003,1498,1300,1506,1504,1506,1257,1905,1105,1505,1105,1506,1257,0,0,0,0,0,0,0,0,2
162661133,162661133,12,45,0,0,30003,1498,1309,1506,1504,1505,1257,1906,1105,1505,1105,1505,1257,0,0,0,0,0,0,0,0,2
