timestamp,error_count,device_id,x,y,z,temperature,scaling,x_raw,y_raw,z_raw,is_external
50793146,0,73225,0.05755257,-0.3513546,0.28893813,38.75,0.0012195122,226,-37,392,1
50905028,0,73225,0.061853975,-0.3689124,0.28505266,38.75,0.0012195122,231,-42,387,1
50994019,0,73225,0.05497173,-0.3513546,0.28738394,39.0,0.0012195122,223,-37,390,1
51104097,0,73225,0.0652951,-0.3689124,0.28582975,39.0,0.0012195122,235,-42,388,1
51196519,0,73225,0.05755257,-0.3689124,0.28816104,39.0,0.0012195122,226,-42,391,1
51286124,0,73225,0.06271426,-0.37242395,0.28349844,39.0,0.0012195122,232,-43,385,1
51405051,0,73225,0.060993694,-0.35486615,0.29049233,39.0,0.0012195122,230,-38,394,1
51496069,0,73225,0.060133412,-0.35486615,0.28738394,39.0,0.0012195122,229,-38,390,1
51610215,0,73225,0.05841285,-0.36188927,0.28893813,39.0,0.0012195122,227,-40,392,1
51706395,0,73225,0.060993694,-0.3583777,0.28971523,39.0,0.0012195122,230,-39,393,1
51817031,0,73225,0.060133412,-0.3583777,0.28816104,38.75,0.0012195122,229,-39,391,1
51909448,0,73225,0.05841285,-0.35486615,0.29049233,38.75,0.0012195122,227,-38,394,1
52020235,0,73225,0.060133412,-0.3583777,0.29126942,39.25,0.0012195122,229,-39,395,1
52108693,0,73225,0.059273135,-0.34784305,0.28816104,39.25,0.0012195122,228,-36,391,1
52219120,0,73225,0.060133412,-0.3513546,0.28816104,39.25,0.0012195122,229,-37,391,1
52309034,0,73225,0.06271426,-0.36188927,0.28816104,39.0,0.0012195122,232,-40,391,1
52422078,0,73225,0.060133412,-0.37242395,0.29126942,39.0,0.0012195122,229,-43,395,1
52510090,0,73225,0.05755257,-0.35486615,0.28816104,39.0,0.0012195122,226,-38,391,1
52624071,0,73225,0.060133412,-0.3583777,0.28893813,39.0,0.0012195122,229,-39,392,1
52714018,0,73225,0.059273135,-0.36540082,0.28893813,39.0,0.0012195122,228,-41,392,1
52827175,0,73225,0.06271426,-0.35486615,0.29049233,39.0,0.0012195122,232,-38,394,1
52936179,0,73225,0.060993694,-0.3583777,0.29049233,39.0,0.0012195122,230,-39,394,1
53025176,0,73225,0.05841285,-0.3689124,0.28816104,38.75,0.0012195122,227,-42,391,1
53137206,0,73225,0.060993694,-0.3513546,0.29126942,38.75,0.0012195122,230,-37,395,1
53230571,0,73225,0.059273135,-0.36188927,0.28893813,38.5,0.0012195122,228,-40,392,1
53325047,0,73225,0.05841285,-0.36188927,0.29204652,38.5,0.0012195122,227,-40,396,1
53438152,0,73225,0.059273135,-0.3583777,0.29049233,38.5,0.0012195122,228,-39,394,1
53529023,0,73225,0.059273135,-0.36540082,0.28971523,38.5,0.0012195122,228,-41,393,1
53641018,0,73225,0.05841285,-0.34784305,0.28738394,38.5,0.0012195122,227,-36,390,1
53731024,0,73225,0.055832006,-0.36540082,0.28738394,39.0,0.0012195122,224,-41,390,1
53843019,0,73225,0.059273135,-0.3689124,0.28816104,39.0,0.0012195122,228,-42,391,1
53953018,0,73225,0.056692287,-0.3689124,0.28893813,39.0,0.0012195122,225,-42,392,1
54046157,0,73225,0.059273135,-0.35486615,0.28893813,39.0,0.0012195122,228,-38,392,1
54136699,0,73225,0.055832006,-0.35486615,0.28660685,39.0,0.0012195122,224,-38,389,1
54252365,0,73225,0.05841285,-0.3513546,0.28893813,39.0,0.0012195122,227,-37,392,1
54344021,0,73225,0.05841285,-0.3513546,0.28816104,39.0,0.0012195122,227,-37,391,1
54456384,0,73225,0.05841285,-0.36540082,0.28738394,39.0,0.0012195122,227,-41,390,1
54567027,0,73225,0.059273135,-0.36188927,0.28893813,39.0,0.0012195122,228,-40,392,1
54659072,0,73225,0.059273135,-0.36188927,0.28738394,39.0,0.0012195122,228,-40,390,1
54755077,0,73225,0.05755257,-0.3583777,0.28893813,38.75,0.0012195122,226,-39,392,1
54869027,0,73225,0.061853975,-0.36188927,0.28893813,38.75,0.0012195122,231,-40,392,1
54959023,0,73225,0.059273135,-0.36188927,0.28738394,38.75,0.0012195122,228,-40,390,1
55072535,0,73225,0.05841285,-0.36188927,0.28893813,39.5,0.0012195122,227,-40,392,1
55163045,0,73225,0.059273135,-0.36540082,0.28816104,39.5,0.0012195122,228,-41,391,1
55259025,0,73225,0.060993694,-0.34433147,0.28893813,39.0,0.0012195122,230,-35,392,1
55371032,0,73225,0.05841285,-0.36540082,0.28971523,39.0,0.0012195122,227,-41,393,1
55461053,0,73225,0.060993694,-0.36188927,0.28816104,39.0,0.0012195122,230,-40,391,1
55579018,0,73225,0.05841285,-0.36188927,0.28816104,39.25,0.0012195122,227,-40,391,1
55671018,0,73225,0.056692287,-0.36540082,0.28816104,39.25,0.0012195122,225,-41,391,1
55783023,0,73225,0.05841285,-0.36540082,0.28893813,38.75,0.0012195122,227,-41,392,1
55879029,0,73225,0.059273135,-0.36188927,0.28738394,38.75,0.0012195122,228,-40,390,1
55975021,0,73225,0.05497173,-0.3583777,0.28660685,38.75,0.0012195122,223,-39,389,1
56071019,0,73225,0.059273135,-0.3583777,0.28816104,38.5,0.0012195122,228,-39,391,1
56185199,0,73225,0.05755257,-0.36540082,0.28893813,38.5,0.0012195122,226,-41,392,1
56275029,0,73225,0.060133412,-0.36188927,0.28816104,39.25,0.0012195122,229,-40,391,1
56387018,0,73225,0.060993694,-0.36188927,0.28893813,39.25,0.0012195122,230,-40,392,1
56500543,0,73225,0.059273135,-0.3583777,0.28660685,38.75,0.0012195122,228,-39,389,1
56591064,0,73225,0.05841285,-0.3583777,0.28971523,38.75,0.0012195122,227,-39,393,1
56687030,0,73225,0.060133412,-0.36540082,0.28893813,38.75,0.0012195122,229,-41,392,1
56783018,0,73225,0.05755257,-0.36188927,0.28971523,38.75,0.0012195122,226,-40,393,1
56898109,0,73225,0.060993694,-0.3583777,0.28893813,38.75,0.0012195122,230,-39,392,1
56988638,0,73225,0.05755257,-0.3583777,0.28505266,38.75,0.0012195122,226,-39,387,1
57103041,0,73225,0.056692287,-0.3583777,0.29049233,39.25,0.0012195122,225,-39,394,1
57198018,0,73225,0.05755257,-0.35486615,0.28582975,39.25,0.0012195122,226,-38,388,1
57310197,0,73225,0.060133412,-0.3689124,0.28893813,39.0,0.0012195122,229,-42,392,1
57400930,0,73225,0.05841285,-0.3583777,0.28893813,39.0,0.0012195122,227,-39,392,1
57494156,0,73225,0.056692287,-0.3583777,0.28738394,39.0,0.0012195122,225,-39,390,1
57607070,0,73225,0.059273135,-0.3583777,0.28738394,38.5,0.0012195122,228,-39,390,1
57702114,0,73225,0.05841285,-0.36540082,0.28816104,38.5,0.0012195122,227,-41,391,1
57815018,0,73225,0.05841285,-0.37242395,0.29049233,39.5,0.0012195122,227,-43,394,1
57905208,0,73225,0.059273135,-0.36188927,0.28893813,39.5,0.0012195122,228,-40,392,1
58018158,0,73225,0.05841285,-0.36188927,0.28738394,39.25,0.0012195122,227,-40,390,1
58111073,0,73225,0.05841285,-0.3583777,0.28816104,39.25,0.0012195122,227,-39,391,1
58205018,0,73225,0.059273135,-0.36540082,0.29049233,39.25,0.0012195122,228,-41,394,1
58319054,0,73225,0.056692287,-0.3583777,0.28738394,39.25,0.0012195122,225,-39,390,1
58407033,0,73225,0.060133412,-0.3513546,0.28816104,39.25,0.0012195122,229,-37,391,1
58527019,0,73225,0.056692287,-0.35486615,0.28971523,39.0,0.0012195122,225,-38,393,1
58620390,0,73225,0.060993694,-0.3689124,0.28893813,39.0,0.0012195122,230,-42,392,1
58732402,0,73225,0.05755257,-0.36540082,0.28816104,39.0,0.0012195122,226,-41,391,1
58823023,0,73225,0.060993694,-0.3689124,0.28971523,39.25,0.0012195122,230,-42,393,1
58935023,0,73225,0.059273135,-0.3583777,0.28893813,39.25,0.0012195122,228,-39,392,1
59031018,0,73225,0.059273135,-0.36188927,0.28816104,38.75,0.0012195122,228,-40,391,1
59124508,0,73225,0.05841285,-0.35486615,0.29049233,38.75,0.0012195122,227,-38,394,1
59239032,0,73225,0.05841285,-0.36188927,0.28816104,38.75,0.0012195122,227,-40,391,1
59333187,0,73225,0.059273135,-0.36540082,0.28816104,39.25,0.0012195122,228,-41,391,1
59426097,0,73225,0.05755257,-0.3689124,0.28816104,39.25,0.0012195122,226,-42,391,1
59540557,0,73225,0.060133412,-0.36188927,0.28893813,38.75,0.0012195122,229,-40,392,1
59631086,0,73225,0.06357454,-0.36540082,0.28660685,38.75,0.0012195122,233,-41,389,1
59751018,0,73225,0.059273135,-0.36188927,0.28738394,38.75,0.0012195122,228,-40,390,1
59841354,0,73225,0.060133412,-0.3583777,0.28660685,39.75,0.0012195122,229,-39,389,1
59951030,0,73225,0.059273135,-0.36540082,0.28893813,39.75,0.0012195122,228,-41,392,1
60041021,0,73225,0.060133412,-0.3513546,0.28893813,38.75,0.0012195122,229,-37,392,1
60156392,0,73225,0.060133412,-0.3689124,0.28660685,38.75,0.0012195122,229,-42,389,1
60247029,0,73225,0.059273135,-0.36188927,0.28660685,38.75,0.0012195122,228,-40,389,1
60340413,0,73225,0.056692287,-0.36188927,0.28816104,39.0,0.0012195122,225,-40,391,1
60452568,0,73225,0.060133412,-0.3583777,0.28893813,39.0,0.0012195122,229,-39,392,1
60543019,0,73225,0.056692287,-0.35486615,0.28971523,39.5,0.0012195122,225,-38,393,1
60663018,0,73225,0.060133412,-0.3583777,0.28971523,39.5,0.0012195122,229,-39,393,1
60749022,0,73225,0.05841285,-0.36188927,0.28971523,39.5,0.0012195122,227,-40,393,1
60863045,0,73225,0.059273135,-0.36188927,0.28971523,39.5,0.0012195122,228,-40,393,1
60953474,0,73225,0.056692287,-0.36188927,0.28816104,39.5,0.0012195122,225,-40,391,1
61065421,0,73225,0.059273135,-0.3583777,0.29049233,39.0,0.0012195122,228,-39,394,1
61175129,0,73225,0.05755257,-0.3513546,0.28893813,39.0,0.0012195122,226,-37,392,1
61263018,0,73225,0.060133412,-0.3513546,0.28971523,39.0,0.0012195122,229,-37,393,1
61378109,0,73225,0.059273135,-0.36188927,0.29049233,39.25,0.0012195122,228,-40,394,1
61468559,0,73225,0.05841285,-0.36188927,0.28893813,39.25,0.0012195122,227,-40,392,1
61583053,0,73225,0.05755257,-0.35486615,0.28738394,39.5,0.0012195122,226,-38,390,1
61673351,0,73225,0.05841285,-0.3583777,0.28971523,39.5,0.0012195122,227,-39,393,1
61767019,0,73225,0.059273135,-0.36540082,0.28738394,39.5,0.0012195122,228,-41,390,1
61883026,0,73225,0.05755257,-0.3583777,0.28971523,39.5,0.0012195122,226,-39,393,1
61972380,0,73225,0.05497173,-0.34784305,0.29049233,39.5,0.0012195122,223,-36,394,1
62081035,0,73225,0.05755257,-0.3689124,0.28738394,39.25,0.0012195122,226,-42,390,1
62194018,0,73225,0.05841285,-0.3583777,0.28971523,39.25,0.0012195122,227,-39,393,1
62285022,0,73225,0.05841285,-0.35486615,0.28893813,39.25,0.0012195122,227,-38,392,1
62398019,0,73225,0.056692287,-0.3689124,0.28738394,39.25,0.0012195122,225,-42,390,1
62487071,0,73225,0.05841285,-0.36188927,0.28660685,39.25,0.0012195122,227,-40,389,1
62583033,0,73225,0.059273135,-0.3513546,0.29049233,39.25,0.0012195122,228,-37,394,1
62697193,0,73225,0.060133412,-0.36540082,0.28893813,39.25,0.0012195122,229,-41,392,1
62789029,0,73225,0.056692287,-0.3583777,0.28816104,39.25,0.0012195122,225,-39,391,1
62902102,0,73225,0.05755257,-0.36188927,0.28893813,39.25,0.0012195122,226,-40,392,1
62991130,0,73225,0.05755257,-0.36188927,0.28893813,39.25,0.0012195122,226,-40,392,1
63107026,0,73225,0.060133412,-0.3513546,0.28971523,39.5,0.0012195122,229,-37,393,1
63199018,0,73225,0.060133412,-0.36540082,0.29049233,39.5,0.0012195122,229,-41,394,1
63311030,0,73225,0.059273135,-0.3513546,0.28971523,39.25,0.0012195122,228,-37,393,1
63404417,0,73225,0.059273135,-0.37242395,0.28582975,39.25,0.0012195122,228,-43,388,1
63495066,0,73225,0.059273135,-0.36188927,0.28660685,39.25,0.0012195122,228,-40,389,1
63607040,0,73225,0.060993694,-0.35486615,0.28816104,39.0,0.0012195122,230,-38,391,1
63697137,0,73225,0.056692287,-0.3583777,0.28816104,39.0,0.0012195122,225,-39,391,1
63817048,0,73225,0.05755257,-0.36188927,0.28893813,39.25,0.0012195122,226,-40,392,1
63908662,0,73225,0.056692287,-0.3583777,0.28738394,39.25,0.0012195122,225,-39,390,1
64023075,0,73225,0.059273135,-0.36540082,0.28971523,39.25,0.0012195122,228,-41,393,1
64113158,0,73225,0.05841285,-0.3513546,0.28738394,39.25,0.0012195122,227,-37,390,1
64207176,0,73225,0.05841285,-0.36540082,0.28893813,39.25,0.0012195122,227,-41,392,1
64321155,0,73225,0.059273135,-0.3583777,0.28738394,39.25,0.0012195122,228,-39,390,1
64412627,0,73225,0.05841285,-0.36188927,0.28660685,39.25,0.0012195122,227,-40,389,1
64526029,0,73225,0.05841285,-0.3583777,0.28893813,39.25,0.0012195122,227,-39,392,1
64617027,0,73225,0.059273135,-0.37242395,0.28893813,40.0,0.0012195122,228,-43,392,1
64727097,0,73225,0.053251166,-0.3513546,0.29126942,40.0,0.0012195122,221,-37,395,1
64820404,0,73225,0.059273135,-0.3583777,0.28971523,39.75,0.0012195122,228,-39,393,1
64935018,0,73225,0.059273135,-0.36540082,0.28816104,39.75,0.0012195122,228,-41,391,1
65025043,0,73225,0.059273135,-0.36188927,0.29049233,39.75,0.0012195122,228,-40,394,1
65135071,0,73225,0.05841285,-0.3583777,0.28738394,38.5,0.0012195122,227,-39,390,1
65231094,0,73225,0.059273135,-0.34081993,0.28738394,38.5,0.0012195122,228,-34,390,1
65320893,0,73225,0.060993694,-0.37242395,0.28971523,39.5,0.0012195122,230,-43,393,1
65432018,0,73225,0.061853975,-0.36540082,0.28816104,39.5,0.0012195122,231,-41,391,1
65544382,0,73225,0.05755257,-0.3583777,0.29049233,39.25,0.0012195122,226,-39,394,1
65635019,0,73225,0.061853975,-0.37242395,0.29049233,39.25,0.0012195122,231,-43,394,1
65731064,0,73225,0.060133412,-0.35486615,0.28971523,39.25,0.0012195122,229,-38,393,1
65847069,0,73225,0.05755257,-0.36540082,0.28971523,39.25,0.0012195122,226,-41,393,1
65934097,0,73225,0.05841285,-0.3583777,0.28816104,39.25,0.0012195122,227,-39,391,1
66045155,0,73225,0.05841285,-0.36188927,0.28816104,39.25,0.0012195122,227,-40,391,1
66133040,0,73225,0.056692287,-0.3513546,0.28816104,39.25,0.0012195122,225,-37,391,1
66243100,0,73225,0.060133412,-0.35486615,0.28816104,39.25,0.0012195122,229,-38,391,1
66336534,0,73225,0.060133412,-0.3513546,0.28893813,39.25,0.0012195122,229,-37,392,1
66447076,0,73225,0.05841285,-0.3759355,0.28582975,39.25,0.0012195122,227,-44,388,1
66541368,0,73225,0.061853975,-0.37242395,0.28738394,39.5,0.0012195122,231,-43,390,1
66656336,0,73225,0.060133412,-0.36540082,0.28893813,39.5,0.0012195122,229,-41,392,1
66747018,0,73225,0.059273135,-0.3583777,0.29049233,39.5,0.0012195122,228,-39,394,1
66843022,0,73225,0.06271426,-0.36540082,0.28971523,39.25,0.0012195122,232,-41,393,1
66963019,0,73225,0.060993694,-0.35486615,0.29204652,39.25,0.0012195122,230,-38,396,1
67059029,0,73225,0.060993694,-0.35486615,0.28971523,39.5,0.0012195122,230,-38,393,1
67155037,0,73225,0.059273135,-0.3583777,0.28971523,39.5,0.0012195122,228,-39,393,1
67251038,0,73225,0.060993694,-0.36540082,0.28816104,39.5,0.0012195122,230,-41,391,1
67370154,0,73225,0.055832006,-0.36188927,0.29049233,39.5,0.0012195122,224,-40,394,1
67461315,0,73225,0.05841285,-0.35486615,0.28893813,39.5,0.0012195122,227,-38,392,1
67573796,0,73225,0.05755257,-0.3689124,0.28816104,39.5,0.0012195122,226,-42,391,1
67667032,0,73225,0.059273135,-0.36540082,0.28816104,39.5,0.0012195122,228,-41,391,1
67755078,0,73225,0.060133412,-0.35486615,0.28738394,39.5,0.0012195122,229,-38,390,1
67871076,0,73225,0.061853975,-0.3689124,0.28738394,39.25,0.0012195122,231,-42,390,1
67962019,0,73225,0.059273135,-0.36540082,0.28816104,39.25,0.0012195122,228,-41,391,1
68074190,0,73225,0.05755257,-0.36540082,0.28971523,39.5,0.0012195122,226,-41,393,1
68184398,0,73225,0.056692287,-0.3513546,0.28738394,39.5,0.0012195122,225,-37,390,1
68995019,0,73225,0.060993694,-0.36188927,0.28971523,39.5,0.0012195122,230,-40,393,1
69085414,0,73225,0.060133412,-0.3583777,0.28893813,39.0,0.0012195122,229,-39,392,1
69203022,0,73225,0.059273135,-0.3689124,0.28738394,39.0,0.0012195122,228,-42,390,1
69299030,0,73225,0.060133412,-0.3759355,0.28738394,39.0,0.0012195122,229,-44,390,1
69390186,0,73225,0.05841285,-0.3583777,0.28893813,39.5,0.0012195122,227,-39,392,1
69491097,0,73225,0.060133412,-0.36188927,0.28816104,39.5,0.0012195122,229,-40,391,1
69608604,0,73225,0.05755257,-0.3689124,0.28816104,39.5,0.0012195122,226,-42,391,1
69698145,0,73225,0.059273135,-0.36188927,0.28893813,39.5,0.0012195122,228,-40,392,1
69808524,0,73225,0.059273135,-0.36540082,0.28660685,39.5,0.0012195122,228,-41,389,1
69897145,0,73225,0.060133412,-0.3583777,0.28893813,39.5,0.0012195122,229,-39,392,1
70009173,0,73225,0.059273135,-0.36188927,0.28816104,39.5,0.0012195122,228,-40,391,1
70101149,0,73225,0.060133412,-0.36540082,0.28660685,38.5,0.0012195122,229,-41,389,1
70216503,0,73225,0.05755257,-0.36188927,0.28816104,38.5,0.0012195122,226,-40,391,1
70304400,0,73225,0.05755257,-0.34433147,0.28971523,38.5,0.0012195122,226,-35,393,1
70418156,0,73225,0.05841285,-0.3583777,0.28893813,38.75,0.0012195122,227,-39,392,1
70529022,0,73225,0.059273135,-0.34784305,0.28816104,38.75,0.0012195122,228,-36,391,1
70621156,0,73225,0.05755257,-0.37242395,0.28349844,39.5,0.0012195122,226,-43,385,1
70711076,0,73225,0.05841285,-0.3513546,0.28427556,39.5,0.0012195122,227,-37,386,1
70827023,0,73225,0.056692287,-0.3513546,0.28505266,39.25,0.0012195122,225,-37,387,1
70923018,0,73225,0.056692287,-0.37242395,0.28039005,39.25,0.0012195122,225,-43,381,1
71017020,0,73225,0.056692287,-0.3689124,0.28039005,39.25,0.0012195122,225,-42,381,1
71130019,0,73225,0.06271426,-0.3513546,0.28116715,39.25,0.0012195122,232,-37,382,1
71221425,0,73225,0.05841285,-0.3513546,0.28582975,39.25,0.0012195122,227,-37,388,1
71336417,0,73225,0.055832006,-0.36188927,0.27028778,39.5,0.0012195122,224,-40,368,1
71427018,0,73225,0.059273135,-0.35486615,0.26562518,39.5,0.0012195122,228,-38,362,1
71541037,0,73225,0.060993694,-0.31623906,0.26717937,39.5,0.0012195122,230,-27,364,1
71629325,0,73225,0.06443482,-0.30219284,0.27184197,39.25,0.0012195122,234,-23,370,1
71741361,0,73225,0.061853975,-0.27761197,0.28194425,39.25,0.0012195122,231,-16,383,1
71831019,0,73225,0.06271426,-0.29165816,0.28349844,39.25,0.0012195122,232,-20,385,1
71947022,0,73225,0.06271426,-0.40402794,0.23298705,39.25,0.0012195122,232,-52,320,1
72043022,0,73225,0.05755257,-0.2951697,0.27883583,39.25,0.0012195122,226,-21,379,1
72135072,0,73225,0.06701566,-0.27761197,0.28272134,39.75,0.0012195122,237,-16,384,1
72252619,0,73225,0.060993694,-0.2741004,0.27495036,39.75,0.0012195122,230,-15,374,1
72347018,0,73225,0.061853975,-0.30921596,0.2695107,39.25,0.0012195122,231,-25,367,1
72436964,0,73225,0.060993694,-0.2986813,0.27495036,39.25,0.0012195122,230,-22,374,1
72547021,0,73225,0.056692287,-0.3197506,0.27650455,39.25,0.0012195122,225,-28,376,1
72659023,0,73225,0.060133412,-0.30219284,0.28505266,39.75,0.0012195122,229,-23,387,1
72748419,0,73225,0.0652951,-0.36188927,0.2695107,39.75,0.0012195122,235,-40,367,1
72860517,0,73225,0.060993694,-0.3689124,0.28660685,39.0,0.0012195122,230,-42,389,1
72949022,0,73225,0.06443482,-0.3829586,0.27106488,39.0,0.0012195122,234,-46,369,1
73061022,0,73225,0.060993694,-0.3689124,0.28660685,39.0,0.0012195122,230,-42,389,1
73152095,0,73225,0.06271426,-0.3759355,0.2687336,39.5,0.0012195122,232,-44,366,1
73262230,0,73225,0.060993694,-0.3759355,0.27261907,39.5,0.0012195122,230,-44,371,1
73371018,0,73225,0.055832006,-0.3513546,0.27650455,39.5,0.0012195122,224,-37,376,1
73459023,0,73225,0.053251166,-0.34081993,0.28039005,39.5,0.0012195122,221,-34,381,1
73552617,0,73225,0.055832006,-0.29165816,0.27961296,39.5,0.0012195122,224,-20,380,1
73668019,0,73225,0.061853975,-0.30921596,0.27495036,40.0,0.0012195122,231,-25,374,1
73757671,0,73225,0.060133412,-0.3127275,0.27650455,40.0,0.0012195122,229,-26,376,1
73872603,0,73225,0.059273135,-0.30219284,0.27339616,39.25,0.0012195122,228,-23,372,1
73961206,0,73225,0.05841285,-0.2986813,0.27728164,39.25,0.0012195122,227,-22,377,1
74074175,0,73225,0.060993694,-0.2986813,0.28194425,39.5,0.0012195122,230,-22,383,1
74163097,0,73225,0.05841285,-0.30219284,0.28039005,39.5,0.0012195122,227,-23,381,1
74280019,0,73225,0.05497173,-0.30921596,0.27961296,39.5,0.0012195122,223,-25,380,1
74369458,0,73225,0.056692287,-0.3057044,0.27728164,39.5,0.0012195122,225,-24,377,1
74481018,0,73225,0.05841285,-0.33379683,0.27339616,39.5,0.0012195122,227,-32,372,1
74574073,0,73225,0.06271426,-0.3197506,0.27339616,39.5,0.0012195122,232,-28,372,1
74688072,0,73225,0.05841285,-0.32326218,0.27572745,39.5,0.0012195122,227,-29,375,1
74777018,0,73225,0.051530603,-0.34081993,0.27417326,39.5,0.0012195122,219,-34,373,1
74890081,0,73225,0.05755257,-0.32326218,0.28039005,39.75,0.0012195122,226,-29,381,1
74981018,0,73225,0.060133412,-0.33379683,0.28505266,39.75,0.0012195122,229,-32,387,1
75095736,0,73225,0.05841285,-0.33379683,0.27650455,39.5,0.0012195122,227,-32,376,1
75184627,0,73225,0.061853975,-0.32677373,0.27572745,39.5,0.0012195122,231,-30,375,1
75295609,0,73225,0.06357454,-0.33028528,0.28272134,39.5,0.0012195122,233,-31,384,1
75386215,0,73225,0.059273135,-0.32677373,0.27805874,39.0,0.0012195122,228,-30,378,1
75505022,0,73225,0.059273135,-0.33379683,0.27495036,39.0,0.0012195122,228,-32,374,1
75595142,0,73225,0.060993694,-0.31623906,0.27728164,39.75,0.0012195122,230,-27,377,1
75706081,0,73225,0.059273135,-0.3197506,0.28039005,39.75,0.0012195122,228,-28,381,1
75797157,0,73225,0.06271426,-0.31623906,0.27495036,39.75,0.0012195122,232,-27,374,1
75909150,0,73225,0.051530603,-0.30219284,0.2695107,39.25,0.0012195122,219,-23,367,1
76002019,0,73225,0.05841285,-0.29165816,0.27184197,39.25,0.0012195122,227,-20,370,1
76094018,0,73225,0.073897906,-0.25654265,0.27261907,39.75,0.0012195122,245,-10,371,1
76207732,0,73225,0.07045679,-0.24951951,0.27495036,39.75,0.0012195122,241,-8,374,1
76298122,0,73225,0.07475819,-0.2600542,0.27184197,39.75,0.0012195122,246,-11,370,1
76415019,0,73225,0.06787594,-0.25654265,0.27261907,39.5,0.0012195122,238,-10,371,1
76501159,0,73225,0.06615538,-0.23547332,0.27106488,39.5,0.0012195122,236,-4,369,1
76614092,0,73225,0.073037624,-0.24951951,0.27650455,39.5,0.0012195122,244,-8,376,1
76724219,0,73225,0.07475819,-0.24249642,0.2695107,39.5,0.0012195122,246,-6,367,1
76818018,0,73225,0.075618476,-0.24249642,0.2687336,39.5,0.0012195122,247,-6,366,1
76909528,0,73225,0.07045679,-0.24600796,0.26717937,39.5,0.0012195122,241,-7,364,1
77023075,0,73225,0.06787594,-0.2600542,0.2695107,39.5,0.0012195122,238,-11,367,1
77114142,0,73225,0.073897906,-0.21791553,0.27339616,40.0,0.0012195122,245,1,372,1
77228570,0,73225,0.08508156,-0.24951951,0.26018548,40.0,0.0012195122,258,-8,355,1
77316215,0,73225,0.09540493,-0.24249642,0.2555229,39.75,0.0012195122,270,-6,349,1
77410018,0,73225,0.09540493,-0.24600796,0.2563,39.75,0.0012195122,270,-7,350,1
77530088,0,73225,0.100566626,-0.24951951,0.2555229,39.75,0.0012195122,276,-8,349,1
77620110,0,73225,0.087662406,-0.25654265,0.26173967,40.0,0.0012195122,261,-10,357,1
77735018,0,73225,0.07131707,-0.2670773,0.26562518,40.0,0.0012195122,242,-13,362,1
77826124,0,73225,0.06701566,-0.24951951,0.27495036,39.25,0.0012195122,237,-8,374,1
77921082,0,73225,0.06873622,-0.26356575,0.27572745,39.25,0.0012195122,239,-12,375,1
78033024,0,73225,0.06873622,-0.34433147,0.26173967,39.25,0.0012195122,239,-35,357,1
78145130,0,73225,0.06615538,-0.41456258,0.26640227,39.25,0.0012195122,236,-55,363,1
78236691,0,73225,0.06959651,-0.4918168,0.24930613,39.25,0.0012195122,240,-77,341,1
78330184,0,73225,0.0652951,-0.47074744,0.26640227,40.0,0.0012195122,235,-71,363,1
78445018,0,73225,0.050670322,-0.3899817,0.26251677,40.0,0.0012195122,218,-48,358,1
78534019,0,73225,0.05755257,-0.3197506,0.27106488,40.0,0.0012195122,226,-28,369,1
78649021,0,73225,0.06615538,-0.29165816,0.2687336,40.5,0.0012195122,236,-20,366,1
78738105,0,73225,0.055832006,-0.28463507,0.27184197,40.5,0.0012195122,224,-18,370,1
78850148,0,73225,0.07217734,-0.28112352,0.26329386,40.0,0.0012195122,243,-17,359,1
78943730,0,73225,0.083361,-0.27761197,0.2586313,40.0,0.0012195122,256,-16,353,1
79054146,0,73225,0.086802125,-0.27058885,0.26251677,40.0,0.0012195122,260,-14,358,1
79148740,0,73225,0.09024325,-0.28112352,0.26329386,39.75,0.0012195122,264,-17,359,1
79242168,0,73225,0.08852268,-0.25303108,0.2516374,39.75,0.0012195122,262,-9,344,1
79357040,0,73225,0.08938297,-0.2741004,0.2563,39.5,0.0012195122,263,-15,350,1
79450018,0,73225,0.07131707,-0.2741004,0.2687336,39.5,0.0012195122,242,-15,366,1
79547707,0,73225,0.06873622,-0.3689124,0.264071,39.5,0.0012195122,239,-42,360,1
79644972,0,73225,0.061853975,-0.47074744,0.26096258,39.5,0.0012195122,231,-71,356,1
79759608,0,73225,0.05239088,-0.57960564,0.26251677,39.5,0.0012195122,220,-102,358,1
79874030,0,73225,0.04981004,-0.5936519,0.2570771,39.5,0.0012195122,217,-106,351,1
79962213,0,73225,0.050670322,-0.600675,0.26173967,39.5,0.0012195122,218,-108,357,1
80055558,0,73225,0.05497173,-0.6076981,0.2516374,39.5,0.0012195122,223,-110,344,1
80170121,0,73225,0.061853975,-0.5831172,0.26018548,39.25,0.0012195122,231,-103,355,1
80260593,0,73225,0.05841285,-0.600675,0.2500832,39.25,0.0012195122,227,-108,342,1
80377125,0,73225,0.06271426,-0.569071,0.2500832,39.5,0.0012195122,232,-99,342,1
80466081,0,73225,0.06271426,-0.5585363,0.2563,39.5,0.0012195122,232,-96,350,1
80583726,0,73225,0.06271426,-0.56555945,0.2555229,39.5,0.0012195122,232,-98,349,1
80674019,0,73225,0.06271426,-0.4918168,0.26173967,39.5,0.0012195122,232,-77,357,1
80770160,0,73225,0.060993694,-0.34433147,0.26484808,39.5,0.0012195122,230,-35,361,1
81082116,0,73225,0.06357454,-0.27058885,0.2687336,39.5,0.0012195122,233,-14,366,1
81181020,0,73225,0.060993694,-0.28463507,0.2679565,39.25,0.0012195122,230,-18,365,1
81274018,0,73225,0.06357454,-0.28112352,0.26484808,39.25,0.0012195122,233,-17,361,1
81391748,0,73225,0.05841285,-0.27058885,0.27339616,39.0,0.0012195122,227,-14,372,1
81484116,0,73225,0.07131707,-0.28112352,0.26562518,39.0,0.0012195122,242,-17,362,1
81601018,0,73225,0.060993694,-0.28112352,0.27572745,39.0,0.0012195122,230,-17,375,1
81690128,0,73225,0.06357454,-0.2741004,0.27106488,39.75,0.0012195122,233,-15,369,1
81786218,0,73225,0.060133412,-0.2741004,0.27028778,39.75,0.0012195122,229,-15,368,1
81903714,0,73225,0.06787594,-0.28814662,0.2695107,40.25,0.0012195122,238,-19,367,1
81996601,0,73225,0.06787594,-0.28814662,0.27028778,40.25,0.0012195122,238,-19,368,1
82090074,0,73225,0.061853975,-0.2600542,0.27184197,40.25,0.0012195122,231,-11,370,1
82212544,0,73225,0.05841285,-0.2670773,0.27106488,40.25,0.0012195122,227,-13,369,1
82306019,0,73225,0.060993694,-0.2600542,0.27184197,40.25,0.0012195122,230,-11,370,1
82402080,0,73225,0.06443482,-0.27058885,0.2563,40.25,0.0012195122,234,-14,350,1
82498018,0,73225,0.06443482,-0.20035776,0.26717937,40.25,0.0012195122,234,6,364,1
82618081,0,73225,0.07475819,-0.11959201,0.27883583,40.25,0.0012195122,246,29,379,1
82714019,0,73225,0.073037624,-0.08447646,0.27028778,39.75,0.0012195122,244,39,368,1
82810018,0,73225,0.073897906,-0.042337812,0.26562518,39.75,0.0012195122,245,51,362,1
82906077,0,73225,0.06701566,-0.003710713,0.2687336,39.75,0.0012195122,237,62,366,1
83025239,0,73225,0.06615538,-0.0072222673,0.2695107,40.0,0.0012195122,236,61,367,1
83114082,0,73225,0.06873622,0.010335505,0.2679565,40.0,0.0012195122,239,66,365,1
83228671,0,73225,0.0652951,0.059497267,0.27184197,39.5,0.0012195122,235,80,370,1
83317021,0,73225,0.059273135,0.06300882,0.2687336,39.5,0.0012195122,228,81,366,1
84442018,0,73225,0.015398803,0.39309493,0.2679565,40.25,0.0012195122,177,175,365,1
84530137,0,73225,0.014538522,0.38607183,0.2679565,39.75,0.0012195122,176,173,365,1
84646169,0,73225,0.007656274,0.40362957,0.27261907,39.75,0.0012195122,168,178,371,1
84738019,0,73225,0.010237117,0.40362957,0.27184197,39.75,0.0012195122,171,178,370,1
84834075,0,73225,0.009376835,0.45630294,0.27728164,40.0,0.0012195122,170,193,377,1
84953018,0,73225,0.00077402615,0.4352336,0.27495036,40.0,0.0012195122,160,187,374,1
85042202,0,73225,-0.009549346,0.4808838,0.27495036,39.25,0.0012195122,148,200,374,1
85138144,0,73225,-0.012990469,0.47737223,0.27106488,39.25,0.0012195122,144,199,369,1
85255774,0,73225,-0.01385075,0.46332604,0.26096258,39.25,0.0012195122,143,195,356,1
85346099,0,73225,-0.021593278,0.4879069,0.26484808,39.25,0.0012195122,134,202,361,1
85458139,0,73225,-0.01385075,0.48439535,0.27417326,39.25,0.0012195122,143,201,373,1
85554162,0,73225,-0.015571312,0.5019531,0.27572745,39.75,0.0012195122,141,206,375,1
85650187,0,73225,-0.014711031,0.5019531,0.27339616,39.75,0.0012195122,142,206,372,1
85765556,0,73225,-0.017291874,0.4879069,0.27028778,39.75,0.0012195122,139,202,368,1
85858021,0,73225,-0.017291874,0.56164956,0.2586313,40.25,0.0012195122,139,223,353,1
85954018,0,73225,-0.017291874,0.74425036,0.24697483,40.25,0.0012195122,139,275,338,1
86076682,0,73225,-0.009549346,0.8460855,0.22366185,39.0,0.0012195122,148,304,308,1
86164038,0,73225,-0.0112699075,0.881201,0.21822219,39.0,0.0012195122,146,314,301,1
86282023,0,73225,-0.024174122,0.8601317,0.21977638,39.0,0.0012195122,131,308,303,1
86378077,0,73225,-0.016431592,0.8250161,0.23842673,39.5,0.0012195122,140,298,327,1
86474074,0,73225,-0.0043876595,0.61432284,0.2500832,39.5,0.0012195122,154,238,342,1
86570081,0,73225,-0.0112699075,0.5511149,0.26562518,40.5,0.0012195122,146,220,362,1
86666074,0,73225,-0.009549346,0.4984416,0.2695107,40.5,0.0012195122,148,205,367,1
86786246,0,73225,-0.009549346,0.48439535,0.27028778,40.5,0.0012195122,148,201,368,1
86882138,0,73225,-0.0086890645,0.47737223,0.26717937,39.75,0.0012195122,149,199,364,1
86978134,0,73225,-0.01385075,0.4598145,0.27106488,39.75,0.0012195122,143,194,369,1
87074135,0,73225,-0.0086890645,0.4808838,0.2679565,39.75,0.0012195122,149,200,365,1
87194018,0,73225,-0.0086890645,0.49493,0.27650455,40.25,0.0012195122,149,204,376,1
87290078,0,73225,-0.014711031,0.49493,0.26562518,40.25,0.0012195122,142,204,362,1
87381018,0,73225,-0.012130188,0.4879069,0.27184197,39.5,0.0012195122,145,202,370,1
87498128,0,73225,-0.007828783,0.47386068,0.27028778,39.5,0.0012195122,150,198,368,1
87594023,0,73225,-0.0069685024,0.48439535,0.26329386,39.5,0.0012195122,151,201,359,1
87690019,0,73225,-0.0086890645,0.4598145,0.26640227,40.0,0.0012195122,149,194,363,1
87786079,0,73225,-0.012130188,0.47737223,0.2679565,40.0,0.0012195122,145,199,365,1
87906074,0,73225,-0.0112699075,0.47737223,0.27106488,39.75,0.0012195122,146,199,369,1
87996393,0,73225,-0.0043876595,0.4492798,0.26717937,39.75,0.0012195122,154,191,364,1
88111573,0,73225,-0.0069685024,0.4808838,0.2679565,39.75,0.0012195122,151,200,365,1
88202074,0,73225,-0.005247941,0.48439535,0.27106488,39.5,0.0012195122,153,201,369,1
88298116,0,73225,-0.0061082216,0.5019531,0.27572745,39.5,0.0012195122,152,206,375,1
88415723,0,73225,-0.0069685024,0.4808838,0.2687336,40.0,0.0012195122,151,200,366,1
88505023,0,73225,-0.0043876595,0.4808838,0.26562518,40.0,0.0012195122,154,200,362,1
88620063,0,73225,-0.0026670978,0.4808838,0.27650455,40.0,0.0012195122,156,200,376,1
88714131,0,73225,-0.0026670978,0.49493,0.2679565,40.25,0.0012195122,156,204,365,1
88807757,0,73225,-0.0061082216,0.47737223,0.2695107,40.25,0.0012195122,152,199,367,1
88921018,0,73225,-8.625484e-05,0.46683758,0.27339616,39.25,0.0012195122,159,196,372,1
89012422,0,73225,-0.0043876595,0.47737223,0.2679565,39.25,0.0012195122,154,199,365,1
89106074,0,73225,-0.009549346,0.49141845,0.27417326,39.25,0.0012195122,148,203,373,1
89226098,0,73225,-0.0026670978,0.47034913,0.26018548,39.75,0.0012195122,156,197,355,1
89322018,0,73225,-0.007828783,0.4808838,0.26562518,39.75,0.0012195122,150,200,362,1
89418036,0,73225,-0.009549346,0.48439535,0.27028778,39.25,0.0012195122,148,201,368,1
89532365,0,73225,-0.0086890645,0.47034913,0.27184197,39.25,0.0012195122,149,197,370,1
89626183,0,73225,-0.0026670978,0.49141845,0.26251677,39.25,0.0012195122,156,203,358,1
89721201,0,73225,-0.005247941,0.61432284,0.25940838,39.75,0.0012195122,153,238,354,1
89833018,0,73225,-0.005247941,0.74425036,0.23764963,39.75,0.0012195122,153,275,326,1
89922116,0,73225,-0.0069685024,0.85662013,0.22133057,39.75,0.0012195122,151,307,305,1
90018029,0,73225,-0.012130188,0.881201,0.21977638,39.75,0.0012195122,145,314,303,1
90138151,0,73225,-0.009549346,0.9514321,0.2096741,39.75,0.0012195122,148,334,290,1
90233194,0,73225,-0.0061082216,0.91280496,0.2127825,39.75,0.0012195122,152,323,294,1
90346110,0,73225,-0.012130188,0.7828775,0.23220995,39.75,0.0012195122,145,286,319,1
90442018,0,73225,-0.0035273784,0.589742,0.2563,39.75,0.0012195122,155,231,350,1
90538019,0,73225,-0.009549346,0.5230225,0.26640227,39.75,0.0012195122,148,212,363,1
90634099,0,73225,-8.625484e-05,0.5019531,0.26562518,39.75,0.0012195122,159,206,362,1
90751604,0,73225,-0.005247941,0.38958338,0.27728164,39.25,0.0012195122,153,174,377,1
90842018,0,73225,0.0016343071,0.28423676,0.27728164,39.25,0.0012195122,161,144,377,1
90938115,0,73225,-0.0009465358,0.27019054,0.29126942,39.25,0.0012195122,158,140,395,1
91034018,0,73225,0.005075431,0.28072518,0.27961296,40.25,0.0012195122,165,143,380,1
91153341,0,73225,0.00421515,0.43172204,0.27184197,40.25,0.0012195122,164,186,370,1
91240038,0,73225,-0.0026670978,0.4492798,0.27495036,40.0,0.0012195122,156,191,374,1
91354018,0,73225,-0.0069685024,0.4598145,0.264071,40.0,0.0012195122,151,194,360,1
91450031,0,73225,-8.625484e-05,0.4598145,0.27261907,40.0,0.0012195122,159,194,371,1
91546018,0,73225,-8.625484e-05,0.47737223,0.2687336,39.25,0.0012195122,159,199,366,1
91658109,0,73225,-0.0018068168,0.47386068,0.26018548,39.25,0.0012195122,157,198,355,1
91754077,0,73225,0.0016343071,0.47386068,0.2687336,39.75,0.0012195122,161,198,366,1
91850139,0,73225,-8.625484e-05,0.4879069,0.27184197,39.75,0.0012195122,159,202,370,1
91964152,0,73225,-0.0026670978,0.47737223,0.27339616,39.75,0.0012195122,156,199,372,1
92057018,0,73225,-0.0026670978,0.49141845,0.27106488,40.0,0.0012195122,156,203,369,1
92170040,0,73225,-0.0009465358,0.4808838,0.26717937,40.0,0.0012195122,158,200,364,1
92266159,0,73225,0.02228105,0.47034913,0.2578542,40.25,0.0012195122,185,197,352,1
92359719,0,73225,0.036045548,0.4879069,0.26096258,40.25,0.0012195122,201,202,356,1
92471554,0,73225,0.048949763,0.47737223,0.2516374,40.25,0.0012195122,216,199,344,1
92562123,0,73225,0.054111447,0.4984416,0.2500832,40.0,0.0012195122,222,205,342,1
92674019,0,73225,0.048949763,0.49493,0.24930613,40.0,0.0012195122,216,204,341,1
92773588,0,73225,0.019700207,0.4984416,0.2679565,40.0,0.0012195122,182,205,365,1
92866085,0,73225,0.00421515,0.47386068,0.27028778,40.0,0.0012195122,164,198,368,1
92986077,0,73225,-0.0018068168,0.47386068,0.26484808,40.0,0.0012195122,157,198,361,1
93080021,0,73225,-0.0018068168,0.45630294,0.26717937,40.0,0.0012195122,157,193,364,1
93172988,0,73225,-0.0069685024,0.46683758,0.27028778,40.0,0.0012195122,151,196,368,1
93290074,0,73225,-0.017291874,0.47386068,0.27495036,39.75,0.0012195122,139,198,374,1
93386075,0,73225,-0.034497492,0.47034913,0.27883583,39.75,0.0012195122,119,197,379,1
93482090,0,73225,-0.025034402,0.47034913,0.27106488,39.75,0.0012195122,130,197,369,1
93580580,0,73225,-0.017291874,0.45630294,0.2695107,39.75,0.0012195122,139,193,367,1
93698031,0,73225,-0.0026670978,0.45630294,0.27650455,39.75,0.0012195122,156,193,376,1
93794073,0,73225,-8.625484e-05,0.47034913,0.264071,39.75,0.0012195122,159,197,360,1
93890081,0,73225,-0.007828783,0.47386068,0.27106488,39.75,0.0012195122,150,198,369,1
93986019,0,73225,-0.0026670978,0.47034913,0.26640227,39.75,0.0012195122,156,197,363,1
94100663,0,73225,-0.0018068168,0.47737223,0.264071,40.0,0.0012195122,157,199,360,1
94194019,0,73225,-0.0061082216,0.48439535,0.2695107,40.0,0.0012195122,152,201,367,1
94290019,0,73225,-0.0043876595,0.46683758,0.27339616,40.0,0.0012195122,154,196,372,1
94410207,0,73225,0.002494588,0.47034913,0.27261907,39.75,0.0012195122,162,197,371,1
94506157,0,73225,0.00077402615,0.45630294,0.26717937,39.75,0.0012195122,160,193,364,1
94599621,0,73225,-0.0026670978,0.4879069,0.2687336,39.5,0.0012195122,156,202,366,1
94716403,0,73225,-0.007828783,0.4808838,0.26562518,39.5,0.0012195122,150,200,362,1
94810075,0,73225,-0.0069685024,0.4808838,0.26096258,39.5,0.0012195122,151,200,356,1
94906119,0,73225,-8.625484e-05,0.49493,0.26329386,40.25,0.0012195122,159,204,359,1
95002077,0,73225,-0.005247941,0.46332604,0.26329386,40.25,0.0012195122,153,195,359,1
95119815,0,73225,-0.0026670978,0.47386068,0.2687336,40.0,0.0012195122,156,198,366,1
95211020,0,73225,0.005075431,0.4598145,0.2586313,40.0,0.0012195122,165,194,353,1
95325018,0,73225,0.00077402615,0.4598145,0.27495036,40.0,0.0012195122,160,194,374,1
95418019,0,73225,-0.005247941,0.47034913,0.27028778,39.25,0.0012195122,153,197,368,1
95513029,0,73225,-0.005247941,0.48439535,0.2679565,39.25,0.0012195122,153,201,365,1
95629018,0,73225,0.002494588,0.46332604,0.26562518,39.75,0.0012195122,162,195,362,1
95737029,0,73225,-0.0018068168,0.47386068,0.264071,39.75,0.0012195122,157,198,360,1
95824019,0,73225,-0.0018068168,0.4598145,0.26018548,39.75,0.0012195122,157,194,355,1
95936523,0,73225,-0.0043876595,0.46683758,0.2679565,40.25,0.0012195122,154,196,365,1
96026910,0,73225,-0.0043876595,0.4492798,0.25940838,40.25,0.0012195122,154,191,354,1
96140651,0,73225,-0.0018068168,0.49141845,0.26640227,39.0,0.0012195122,157,203,363,1
96228441,0,73225,0.00077402615,0.47386068,0.27028778,39.0,0.0012195122,160,198,368,1
96342116,0,73225,-0.0009465358,0.46332604,0.26562518,39.75,0.0012195122,158,195,362,1
96434018,0,73225,-0.0009465358,0.46683758,0.25940838,39.75,0.0012195122,158,196,354,1
96527740,0,73225,-0.005247941,0.47737223,0.27184197,39.75,0.0012195122,153,199,370,1
96640136,0,73225,-0.0061082216,0.46683758,0.27339616,39.75,0.0012195122,152,196,372,1
96750387,0,73225,-0.0035273784,0.49493,0.2687336,39.75,0.0012195122,155,204,366,1
96839773,0,73225,-0.0026670978,0.45630294,0.26018548,39.75,0.0012195122,156,193,355,1
96953018,0,73225,-0.0069685024,0.45279133,0.26096258,39.75,0.0012195122,151,192,356,1
97043292,0,73225,-0.0069685024,0.4598145,0.26096258,39.75,0.0012195122,151,194,356,1
97156575,0,73225,0.0016343071,0.45279133,0.26640227,40.0,0.0012195122,161,192,363,1
97252366,0,73225,-0.007828783,0.47737223,0.2687336,40.0,0.0012195122,150,199,366,1
97344018,0,73225,-0.0026670978,0.4808838,0.26640227,39.75,0.0012195122,156,200,363,1
97459283,0,73225,-0.0043876595,0.4808838,0.2695107,39.75,0.0012195122,154,200,367,1
97548071,0,73225,-0.005247941,0.46683758,0.26717937,39.75,0.0012195122,153,196,364,1
97663023,0,73225,-0.009549346,0.4598145,0.26562518,40.0,0.0012195122,148,194,362,1
97753035,0,73225,-0.01385075,0.4879069,0.27028778,40.0,0.0012195122,143,202,368,1
97865087,0,73225,-0.007828783,0.47386068,0.26562518,40.0,0.0012195122,150,198,362,1
97954294,0,73225,-0.0086890645,0.48439535,0.26717937,40.0,0.0012195122,149,201,364,1
98065027,0,73225,-0.007828783,0.49141845,0.2687336,40.0,0.0012195122,150,203,366,1
98174295,0,73225,-0.0069685024,0.4808838,0.27184197,40.25,0.0012195122,151,200,370,1
98264036,0,73225,-0.007828783,0.49141845,0.27106488,40.25,0.0012195122,150,203,369,1
98355389,0,73225,-0.005247941,0.47386068,0.2679565,39.75,0.0012195122,153,198,365,1
98468122,0,73225,-0.005247941,0.4808838,0.26717937,39.75,0.0012195122,153,200,364,1
98581018,0,73225,-0.005247941,0.47386068,0.27028778,40.25,0.0012195122,153,198,368,1
98669018,0,73225,-0.0061082216,0.4879069,0.27106488,40.25,0.0012195122,152,202,369,1
98779362,0,73225,-0.005247941,0.4984416,0.27650455,40.25,0.0012195122,153,205,376,1
98868028,0,73225,-0.0061082216,0.4984416,0.26640227,40.5,0.0012195122,152,205,363,1
98980024,0,73225,-0.010409626,0.49493,0.26173967,40.5,0.0012195122,147,204,357,1
99068018,0,73225,-0.0069685024,0.47737223,0.2687336,40.0,0.0012195122,151,199,366,1
99180024,0,73225,-0.007828783,0.49141845,0.27028778,40.0,0.0012195122,150,203,368,1
99291307,0,73225,-0.009549346,0.4879069,0.27028778,40.0,0.0012195122,148,202,368,1
99383038,0,73225,-0.007828783,0.45630294,0.26562518,40.0,0.0012195122,150,193,362,1
99497171,0,73225,-0.0043876595,0.4808838,0.26640227,40.0,0.0012195122,154,200,363,1
99588021,0,73225,-0.007828783,0.48439535,0.2679565,40.25,0.0012195122,150,201,365,1
99698451,0,73225,-0.005247941,0.46332604,0.26484808,40.25,0.0012195122,153,195,361,1
99786018,0,73225,-0.012130188,0.47737223,0.26640227,40.25,0.0012195122,145,199,363,1
99899378,0,73225,-0.0086890645,0.4808838,0.26717937,39.5,0.0012195122,149,200,364,1
99987542,0,73225,-0.0086890645,0.49141845,0.27417326,39.5,0.0012195122,149,203,373,1
100097030,0,73225,-0.0086890645,0.47386068,0.26173967,40.25,0.0012195122,149,198,357,1
100207022,0,73225,-0.009549346,0.46332604,0.26484808,40.25,0.0012195122,148,195,361,1
100294297,0,73225,-0.01385075,0.47034913,0.26484808,40.5,0.0012195122,143,197,361,1
100407021,0,73225,-0.009549346,0.47386068,0.264071,40.5,0.0012195122,148,198,360,1
100517121,0,73225,-0.005247941,0.46683758,0.26484808,40.5,0.0012195122,153,196,361,1
100609032,0,73225,-0.0069685024,0.47737223,0.264071,40.25,0.0012195122,151,199,360,1
100701019,0,73225,-0.0069685024,0.46683758,0.26251677,40.25,0.0012195122,151,196,358,1
100811805,0,73225,0.00077402615,0.47737223,0.25940838,40.0,0.0012195122,160,199,354,1
100901023,0,73225,0.002494588,0.49493,0.26562518,40.0,0.0012195122,162,204,362,1
101013018,0,73225,0.00421515,0.4598145,0.2563,40.0,0.0012195122,164,194,350,1
101105173,0,73225,-8.625484e-05,0.47034913,0.26329386,40.0,0.0012195122,159,197,359,1
101216076,0,73225,-0.0026670978,0.47386068,0.2563,40.0,0.0012195122,156,198,350,1
101329018,0,73225,-0.007828783,0.47034913,0.26018548,40.0,0.0012195122,150,197,355,1
101419410,0,73225,-0.0069685024,0.45630294,0.26173967,40.0,0.0012195122,151,193,357,1
101529018,0,73225,-0.0086890645,0.47737223,0.26096258,40.0,0.0012195122,149,199,356,1
101620032,0,73225,-0.007828783,0.47386068,0.27572745,40.0,0.0012195122,150,198,375,1
101730625,0,73225,-0.0043876595,0.4879069,0.28505266,40.0,0.0012195122,154,202,387,1
101823019,0,73225,-0.007828783,0.5089762,0.27495036,39.75,0.0012195122,150,208,374,1
101932035,0,73225,-0.0061082216,0.5089762,0.27572745,39.75,0.0012195122,152,208,375,1
102021019,0,73225,-0.009549346,0.4984416,0.27650455,39.75,0.0012195122,148,205,376,1
102132021,0,73225,-0.012130188,0.5019531,0.27572745,39.75,0.0012195122,145,206,375,1
102241182,0,73225,-0.007828783,0.48439535,0.26640227,39.75,0.0012195122,150,201,363,1
102333037,0,73225,-0.009549346,0.4879069,0.27339616,40.25,0.0012195122,148,202,372,1
102446055,0,73225,-0.012130188,0.51248777,0.27572745,40.25,0.0012195122,145,209,375,1
102536084,0,73225,-0.0061082216,0.4984416,0.28349844,39.75,0.0012195122,152,205,385,1
102647022,0,73225,-0.0061082216,0.5054647,0.28349844,39.75,0.0012195122,152,207,385,1
102737021,0,73225,-0.0112699075,0.47737223,0.26096258,39.75,0.0012195122,146,199,356,1
102849073,0,73225,-0.0069685024,0.49493,0.26562518,40.25,0.0012195122,151,204,362,1
102937023,0,73225,-0.0086890645,0.48439535,0.26717937,40.25,0.0012195122,149,201,364,1
103047018,0,73225,-0.0086890645,0.47737223,0.27339616,39.75,0.0012195122,149,199,372,1
103156018,0,73225,-8.625484e-05,0.4808838,0.26173967,39.75,0.0012195122,159,200,357,1
103247079,0,73225,-0.0043876595,0.5054647,0.27184197,40.0,0.0012195122,154,207,370,1
103356018,0,73225,-0.0112699075,0.48439535,0.264071,40.0,0.0012195122,146,201,360,1
103445019,0,73225,-0.009549346,0.4598145,0.27028778,40.0,0.0012195122,148,194,368,1
103561018,0,73225,-0.005247941,0.4808838,0.27028778,40.5,0.0012195122,153,200,368,1
103651427,0,73225,-0.0043876595,0.4879069,0.27028778,40.5,0.0012195122,154,202,368,1
103762380,0,73225,-0.0112699075,0.4879069,0.2695107,40.5,0.0012195122,146,202,367,1
103855018,0,73225,-0.0061082216,0.49493,0.2695107,40.5,0.0012195122,152,204,367,1
103965019,0,73225,-0.0035273784,0.49141845,0.27339616,40.5,0.0012195122,155,203,372,1
104056018,0,73225,-0.0043876595,0.5054647,0.27028778,40.25,0.0012195122,154,207,368,1
104164021,0,73225,0.00077402615,0.46332604,0.2679565,40.25,0.0012195122,160,195,365,1
104275249,0,73225,-0.0043876595,0.49493,0.26640227,40.25,0.0012195122,154,204,363,1
104363275,0,73225,-0.009549346,0.48439535,0.2679565,40.25,0.0012195122,148,201,365,1
104473021,0,73225,-0.01385075,0.4984416,0.27106488,40.25,0.0012195122,143,205,369,1
104565117,0,73225,-0.0069685024,0.4984416,0.27106488,40.25,0.0012195122,151,205,369,1
104677019,0,73225,0.00077402615,0.47737223,0.264071,40.25,0.0012195122,160,199,360,1
104769031,0,73225,-0.007828783,0.47034913,0.26173967,40.0,0.0012195122,150,197,357,1
104879048,0,73225,-0.0086890645,0.47386068,0.27184197,40.0,0.0012195122,149,198,370,1
104989019,0,73225,-0.007828783,0.4984416,0.27339616,40.0,0.0012195122,150,205,372,1
105081157,0,73225,-0.007828783,0.4984416,0.27028778,40.0,0.0012195122,150,205,368,1
105191079,0,73225,-0.0112699075,0.47737223,0.26717937,40.0,0.0012195122,146,199,364,1
105282019,0,73225,-0.0086890645,0.47737223,0.2695107,40.25,0.0012195122,149,199,367,1
105396076,0,73225,-0.0069685024,0.49141845,0.27261907,40.25,0.0012195122,151,203,371,1
105485023,0,73225,-0.0035273784,0.4808838,0.27339616,40.25,0.0012195122,155,200,372,1
105595575,0,73225,-0.005247941,0.4808838,0.2679565,40.25,0.0012195122,153,200,365,1
105684073,0,73225,-0.009549346,0.47034913,0.2695107,40.25,0.0012195122,148,197,367,1
105795875,0,73225,-0.007828783,0.49141845,0.2695107,39.5,0.0012195122,150,203,367,1
105883354,0,73225,-0.010409626,0.47737223,0.27184197,39.5,0.0012195122,147,199,370,1
105993021,0,73225,-0.0061082216,0.47034913,0.26562518,40.5,0.0012195122,152,197,362,1
106103021,0,73225,-0.007828783,0.49493,0.26562518,40.5,0.0012195122,150,204,362,1
106193159,0,73225,-0.0112699075,0.49141845,0.27106488,40.0,0.0012195122,146,203,369,1
106306019,0,73225,-0.010409626,0.49141845,0.27417326,40.0,0.0012195122,147,203,373,1
106394370,0,73225,-0.005247941,0.48439535,0.27184197,40.0,0.0012195122,153,201,370,1
106505187,0,73225,-0.0035273784,0.47386068,0.264071,40.0,0.0012195122,155,198,360,1
106597153,0,73225,-0.0069685024,0.49141845,0.264071,40.0,0.0012195122,151,203,360,1
106709018,0,73225,-0.0069685024,0.48439535,0.27417326,40.5,0.0012195122,151,201,373,1
106796107,0,73225,-0.0069685024,0.5089762,0.2687336,40.5,0.0012195122,151,208,366,1
106910355,0,73225,-0.0026670978,0.49141845,0.2679565,40.5,0.0012195122,156,203,365,1
107021029,0,73225,-0.009549346,0.48439535,0.26484808,40.25,0.0012195122,148,201,361,1
107110023,0,73225,-0.009549346,0.4879069,0.26717937,40.25,0.0012195122,148,202,364,1
107225135,0,73225,-0.0112699075,0.47034913,0.2695107,40.25,0.0012195122,146,197,367,1
107315415,0,73225,-0.0069685024,0.4984416,0.27417326,40.25,0.0012195122,151,205,373,1
107425030,0,73225,-0.0018068168,0.47386068,0.27417326,40.0,0.0012195122,157,198,373,1
107517018,0,73225,-0.005247941,0.47386068,0.27106488,40.0,0.0012195122,153,198,369,1
107626367,0,73225,-0.009549346,0.49493,0.2695107,40.0,0.0012195122,148,204,367,1
107721180,0,73225,-0.0086890645,0.48439535,0.27028778,39.75,0.0012195122,149,201,368,1
107830169,0,73225,-0.009549346,0.49493,0.2679565,39.75,0.0012195122,148,204,365,1
107918157,0,73225,-0.0035273784,0.49493,0.27339616,40.25,0.0012195122,155,204,372,1
108034291,0,73225,-0.0043876595,0.48439535,0.27417326,40.25,0.0012195122,154,201,373,1
108123018,0,73225,-8.625484e-05,0.4984416,0.26717937,40.25,0.0012195122,159,205,364,1
108234762,0,73225,-0.0009465358,0.49141845,0.26717937,40.5,0.0012195122,158,203,364,1
108321023,0,73225,-0.005247941,0.49141845,0.27495036,40.5,0.0012195122,153,203,374,1
108434562,0,73225,-0.005247941,0.4879069,0.27417326,39.75,0.0012195122,153,202,373,1
108526201,0,73225,-0.0061082216,0.47737223,0.27261907,39.75,0.0012195122,152,199,371,1
108637024,0,73225,-0.0026670978,0.4879069,0.26484808,39.75,0.0012195122,156,202,361,1
108747020,0,73225,-0.007828783,0.47737223,0.27106488,40.25,0.0012195122,150,199,369,1
108842758,0,73225,-0.0069685024,0.48439535,0.26717937,40.25,0.0012195122,151,201,364,1
108933019,0,73225,-0.0035273784,0.4984416,0.27572745,40.25,0.0012195122,155,205,375,1
109042486,0,73225,-0.012990469,0.47386068,0.2687336,40.25,0.0012195122,144,198,366,1
109138778,0,73225,-0.0009465358,0.47386068,0.26329386,40.25,0.0012195122,158,198,359,1
109256021,0,73225,-0.0026670978,0.49141845,0.27261907,40.25,0.0012195122,156,203,371,1
109344024,0,73225,-0.009549346,0.47386068,0.27184197,40.25,0.0012195122,148,198,370,1
109456023,0,73225,-0.0112699075,0.46332604,0.2687336,40.25,0.0012195122,146,195,366,1
109565033,0,73225,-0.0069685024,0.47737223,0.26484808,40.25,0.0012195122,151,199,361,1
109653070,0,73225,-0.009549346,0.47737223,0.26717937,40.0,0.0012195122,148,199,364,1
110890739,0,73225,-8.625484e-05,0.4808838,0.27028778,40.25,0.0012195122,159,200,368,1
111092018,0,73225,-0.007828783,0.4879069,0.27028778,40.25,0.0012195122,150,202,368,1
111182162,0,73225,-0.0043876595,0.4808838,0.27417326,40.0,0.0012195122,154,200,373,1
111294124,0,73225,-0.0061082216,0.47034913,0.27106488,40.0,0.0012195122,152,197,369,1
111385030,0,73225,-0.007828783,0.4808838,0.2695107,39.75,0.0012195122,150,200,367,1
111498531,0,73225,-0.005247941,0.48439535,0.2679565,39.75,0.0012195122,153,201,365,1
111588086,0,73225,-0.0043876595,0.47034913,0.2687336,39.75,0.0012195122,154,197,366,1
111704034,0,73225,-0.0043876595,0.47034913,0.2695107,40.5,0.0012195122,154,197,367,1
111794574,0,73225,-0.0069685024,0.4808838,0.27184197,40.5,0.0012195122,151,200,370,1
111906796,0,73225,-0.0009465358,0.47737223,0.27261907,40.25,0.0012195122,158,199,371,1
111993018,0,73225,-0.0009465358,0.48439535,0.27106488,40.25,0.0012195122,158,201,369,1
112106537,0,73225,-0.010409626,0.4879069,0.27184197,40.25,0.0012195122,147,202,370,1
112196077,0,73225,-0.0043876595,0.47386068,0.26329386,40.25,0.0012195122,154,198,359,1
112307021,0,73225,-8.625484e-05,0.45630294,0.27028778,40.25,0.0012195122,159,193,368,1
112403018,0,73225,-0.005247941,0.47386068,0.2695107,40.25,0.0012195122,153,198,367,1
112516080,0,73225,-0.0112699075,0.46683758,0.27417326,40.25,0.0012195122,146,196,373,1
112604065,0,73225,-0.005247941,0.47737223,0.2679565,40.25,0.0012195122,153,199,365,1
112715133,0,73225,-0.010409626,0.47737223,0.26640227,40.0,0.0012195122,147,199,363,1
112808019,0,73225,-0.0069685024,0.48439535,0.27339616,40.0,0.0012195122,151,201,372,1
112923562,0,73225,-0.0009465358,0.49493,0.26717937,40.5,0.0012195122,158,204,364,1
113012090,0,73225,-0.0061082216,0.46332604,0.27184197,40.5,0.0012195122,152,195,370,1
113126168,0,73225,-0.0035273784,0.49141845,0.27339616,40.25,0.0012195122,155,203,372,1
113216058,0,73225,-0.005247941,0.47737223,0.2687336,40.25,0.0012195122,153,199,366,1
113326145,0,73225,0.002494588,0.47034913,0.26018548,40.25,0.0012195122,162,197,355,1
113416023,0,73225,-0.005247941,0.48439535,0.26717937,40.5,0.0012195122,153,201,364,1
113526106,0,73225,-0.0086890645,0.46683758,0.27106488,40.5,0.0012195122,149,196,369,1
113636041,0,73225,-0.0035273784,0.47737223,0.27261907,40.0,0.0012195122,155,199,371,1
113723029,0,73225,-0.0035273784,0.4598145,0.26640227,40.0,0.0012195122,155,194,363,1
113834760,0,73225,-0.007828783,0.5019531,0.27106488,40.0,0.0012195122,150,206,369,1
113924072,0,73225,-0.0035273784,0.49493,0.27106488,40.25,0.0012195122,155,204,369,1
114035047,0,73225,0.002494588,0.47386068,0.26640227,40.25,0.0012195122,162,198,363,1
114131073,0,73225,-0.0043876595,0.4984416,0.27106488,40.0,0.0012195122,154,205,369,1
114227060,0,73225,-0.005247941,0.4808838,0.2679565,40.0,0.0012195122,153,200,365,1
114339059,0,73225,-0.0043876595,0.47386068,0.2687336,40.0,0.0012195122,154,198,366,1
114430208,0,73225,-0.0069685024,0.4808838,0.2679565,40.0,0.0012195122,151,200,365,1
114541139,0,73225,-0.0018068168,0.47386068,0.27805874,40.0,0.0012195122,157,198,378,1
114656065,0,73225,-0.0035273784,0.48439535,0.26562518,40.5,0.0012195122,155,201,362,1
114747065,0,73225,-0.0069685024,0.49141845,0.2695107,40.5,0.0012195122,151,203,367,1
114840082,0,73225,0.0016343071,0.4598145,0.26717937,40.5,0.0012195122,161,194,364,1
114950157,0,73225,-0.0043876595,0.4808838,0.2687336,39.25,0.0012195122,154,200,366,1
115059049,0,73225,-0.0026670978,0.47737223,0.27417326,39.25,0.0012195122,156,199,373,1
115150191,0,73225,-0.009549346,0.48439535,0.2695107,40.75,0.0012195122,148,201,367,1
115259123,0,73225,-0.0018068168,0.4808838,0.27184197,40.75,0.0012195122,157,200,370,1
115352019,0,73225,-8.625484e-05,0.4879069,0.27184197,40.0,0.0012195122,159,202,370,1
115464339,0,73225,-8.625484e-05,0.46332604,0.26717937,40.0,0.0012195122,159,195,364,1
115574229,0,73225,-0.0026670978,0.47386068,0.27184197,40.0,0.0012195122,156,198,370,1
115667051,0,73225,0.00077402615,0.4879069,0.27572745,40.5,0.0012195122,160,202,375,1
115755147,0,73225,-0.0035273784,0.48439535,0.27028778,40.5,0.0012195122,155,201,368,1
115872024,0,73225,-0.0035273784,0.49141845,0.27261907,40.75,0.0012195122,155,203,371,1
115964052,0,73225,-0.0043876595,0.4879069,0.27184197,40.75,0.0012195122,154,202,370,1
116075018,0,73225,-0.005247941,0.47737223,0.2687336,40.75,0.0012195122,153,199,366,1
116171018,0,73225,-0.0043876595,0.46683758,0.26640227,39.75,0.0012195122,154,196,363,1
116267037,0,73225,-0.007828783,0.48439535,0.27339616,39.75,0.0012195122,150,201,372,1
116379076,0,73225,-0.0026670978,0.4808838,0.2687336,40.25,0.0012195122,156,200,366,1
116469019,0,73225,0.005075431,0.48439535,0.26018548,40.25,0.0012195122,165,201,355,1
116579018,0,73225,-0.0018068168,0.48439535,0.26640227,40.25,0.0012195122,157,201,363,1
116669018,0,73225,-0.0035273784,0.47386068,0.26484808,40.25,0.0012195122,155,198,361,1
116780072,0,73225,-0.0061082216,0.49493,0.2687336,40.25,0.0012195122,152,204,366,1
116889165,0,73225,-8.625484e-05,0.4808838,0.27106488,40.5,0.0012195122,159,200,369,1
116984019,0,73225,-0.0009465358,0.47737223,0.27028778,40.5,0.0012195122,158,199,368,1
117094111,0,73225,-0.0043876595,0.4808838,0.2679565,40.5,0.0012195122,154,200,365,1
117181193,0,73225,-0.0026670978,0.47034913,0.2695107,40.5,0.0012195122,156,197,367,1
117292077,0,73225,-0.0009465358,0.51248777,0.26640227,40.5,0.0012195122,158,209,363,1
117387039,0,73225,-0.0086890645,0.5792073,0.26251677,40.5,0.0012195122,149,228,358,1
117502102,0,73225,-0.0018068168,0.66348463,0.24697483,40.5,0.0012195122,157,252,338,1
117590150,0,73225,-0.009549346,0.73722726,0.23764963,40.5,0.0012195122,148,273,326,1
117702156,0,73225,-0.009549346,0.8039468,0.23220995,40.5,0.0012195122,148,292,319,1
117794102,0,73225,-0.009549346,0.83555084,0.22677027,40.5,0.0012195122,148,301,312,1
117908072,0,73225,-0.010409626,0.8285276,0.22521608,40.5,0.0012195122,147,299,310,1
117998030,0,73225,-0.012130188,0.8460855,0.22521608,40.5,0.0012195122,145,304,310,1
118107106,0,73225,-0.0086890645,0.83555084,0.22910157,40.5,0.0012195122,149,301,315,1
118216043,0,73225,-0.0069685024,0.7899006,0.21977638,40.5,0.0012195122,151,288,303,1
118311364,0,73225,-0.0069685024,0.80745834,0.22288476,40.5,0.0012195122,151,293,307,1
118408123,0,73225,-0.0069685024,0.8109699,0.23609544,39.75,0.0012195122,151,294,324,1
118519018,0,73225,-0.018152155,0.77936596,0.22443898,39.75,0.0012195122,138,285,309,1
118612018,0,73225,-0.01385075,0.7969237,0.22055347,40.25,0.0012195122,143,290,304,1
118703586,0,73225,-0.014711031,0.7828775,0.23143286,40.25,0.0012195122,142,286,318,1
118823250,0,73225,-0.0061082216,0.77936596,0.23609544,40.25,0.0012195122,152,285,324,1
118919360,0,73225,-0.010409626,0.73722726,0.24075803,40.5,0.0012195122,147,273,330,1
119015222,0,73225,-0.0086890645,0.6740193,0.2516374,40.5,0.0012195122,149,255,344,1
119126201,0,73225,-0.0035273784,0.5335571,0.26717937,40.25,0.0012195122,155,215,364,1
119217186,0,73225,-0.007828783,0.49141845,0.264071,40.25,0.0012195122,150,203,360,1
119332031,0,73225,0.0016343071,0.48439535,0.26640227,40.25,0.0012195122,161,201,363,1
119420018,0,73225,0.007656274,0.4598145,0.26562518,40.25,0.0012195122,168,194,362,1
119535135,0,73225,0.015398803,0.4984416,0.264071,40.25,0.0012195122,177,205,360,1
119628111,0,73225,0.011097399,0.48439535,0.26640227,40.25,0.0012195122,172,201,363,1
119720018,0,73225,0.00077402615,0.4492798,0.26640227,40.25,0.0012195122,160,191,363,1
119836019,0,73225,0.005075431,0.45630294,0.27417326,40.25,0.0012195122,165,193,373,1
119935541,0,73225,0.0016343071,0.4492798,0.26251677,40.25,0.0012195122,161,191,358,1
120031362,0,73225,-0.0026670978,0.4984416,0.2679565,40.25,0.0012195122,156,205,365,1
120127041,0,73225,0.020560488,0.60729975,0.24930613,40.25,0.0012195122,183,236,341,1
120241169,0,73225,0.026582453,0.6740193,0.24153513,40.25,0.0012195122,190,255,331,1
120335029,0,73225,0.028303018,0.6599731,0.24075803,40.25,0.0012195122,192,251,330,1
120431772,0,73225,0.029163297,0.60729975,0.24775192,40.25,0.0012195122,193,236,339,1
120551394,0,73225,0.007656274,0.49493,0.27184197,40.25,0.0012195122,168,204,370,1
120647209,0,73225,-0.0035273784,0.49493,0.26640227,40.25,0.0012195122,155,204,363,1
120735075,0,73225,-0.0069685024,0.47737223,0.26717937,40.25,0.0012195122,151,199,364,1
120847693,0,73225,-0.0061082216,0.47737223,0.27417326,40.25,0.0012195122,152,199,373,1
120941770,0,73225,-0.0026670978,0.46332604,0.27339616,39.75,0.0012195122,156,195,372,1
121057316,0,73225,0.00421515,0.4984416,0.26251677,39.75,0.0012195122,164,205,358,1
121146019,0,73225,0.006795993,0.4879069,0.26018548,40.25,0.0012195122,167,202,355,1
121263305,0,73225,0.019700207,0.526534,0.25319162,40.25,0.0012195122,182,213,346,1
121359204,0,73225,0.017979644,0.55462646,0.24852902,40.25,0.0012195122,180,221,340,1
121452019,0,73225,0.02228105,0.54760337,0.25319162,40.5,0.0012195122,185,219,346,1
121563018,0,73225,0.018839926,0.53706867,0.26640227,40.5,0.0012195122,181,216,363,1
121655025,0,73225,0.011957678,0.51248777,0.26717937,40.5,0.0012195122,173,209,364,1
121769169,0,73225,0.009376835,0.5019531,0.26562518,40.5,0.0012195122,170,206,362,1
121857375,0,73225,0.00421515,0.47034913,0.2570771,40.5,0.0012195122,164,197,351,1
121969198,0,73225,0.0016343071,0.47737223,0.27261907,40.25,0.0012195122,161,199,371,1
122080023,0,73225,0.00077402615,0.4598145,0.26562518,40.25,0.0012195122,160,194,362,1
122168018,0,73225,-0.0018068168,0.5792073,0.2555229,40.25,0.0012195122,157,228,349,1
122281072,0,73225,-0.0043876595,0.71264637,0.23998094,40.25,0.0012195122,154,266,329,1
122369323,0,73225,-0.0061082216,0.7512735,0.23454125,40.25,0.0012195122,152,277,322,1
122480023,0,73225,-0.0009465358,0.77234286,0.24231222,40.25,0.0012195122,158,283,332,1
122572018,0,73225,0.002494588,0.60729975,0.24308932,40.25,0.0012195122,162,236,333,1
122686018,0,73225,-0.0026670978,0.5335571,0.264071,40.25,0.0012195122,156,215,360,1
122777206,0,73225,-0.0061082216,0.5054647,0.26562518,40.25,0.0012195122,152,207,362,1
122887018,0,73225,-0.0043876595,0.49141845,0.26717937,40.25,0.0012195122,154,203,364,1
122977342,0,73225,-0.005247941,0.4808838,0.27106488,40.25,0.0012195122,153,200,369,1
123087030,0,73225,0.0016343071,0.46332604,0.2695107,40.25,0.0012195122,161,195,367,1
123179072,0,73225,0.007656274,0.5054647,0.2570771,39.75,0.0012195122,168,207,351,1
123294151,0,73225,0.028303018,0.60027665,0.24697483,39.75,0.0012195122,192,234,338,1
123388022,0,73225,0.04034695,0.63890374,0.23687254,40.25,0.0012195122,206,245,325,1
123500087,0,73225,0.047229197,0.6178344,0.22987866,40.25,0.0012195122,214,239,316,1
123591018,0,73225,0.046368916,0.6283691,0.24075803,40.25,0.0012195122,213,242,330,1
123705345,0,73225,0.02142077,0.4808838,0.2586313,40.75,0.0012195122,184,200,353,1
123790142,0,73225,0.009376835,0.5089762,0.26717937,40.75,0.0012195122,170,208,364,1
123903023,0,73225,-0.0043876595,0.49141845,0.2687336,39.75,0.0012195122,154,203,366,1
123993526,0,73225,-0.012990469,0.38958338,0.27650455,39.75,0.0012195122,144,174,376,1
124103096,0,73225,-0.044820864,0.24560966,0.28971523,39.75,0.0012195122,107,133,393,1
124215021,0,73225,-0.0749307,0.1262168,0.3013717,40.25,0.0012195122,72,99,408,1
124304032,0,73225,-0.07579098,0.027893277,0.28816104,40.25,0.0012195122,71,71,391,1
124396043,0,73225,-0.03277693,0.34393317,0.29204652,40.25,0.0012195122,121,161,396,1
124508047,0,73225,0.00077402615,0.39660648,0.2679565,40.25,0.0012195122,160,176,365,1
124618154,0,73225,-0.0035273784,0.44576824,0.27106488,40.0,0.0012195122,155,190,369,1
124708048,0,73225,-0.0009465358,0.4352336,0.27028778,40.0,0.0012195122,158,187,368,1
124818124,0,73225,-0.0061082216,0.45630294,0.26484808,40.0,0.0012195122,152,193,361,1
124908047,0,73225,0.003354869,0.47034913,0.26173967,40.25,0.0012195122,163,197,357,1
125020018,0,73225,-0.0043876595,0.5089762,0.2570771,40.25,0.0012195122,154,208,351,1
125108048,0,73225,0.008516555,0.6037882,0.2570771,40.0,0.0012195122,169,235,351,1
125228086,0,73225,0.02228105,0.71966946,0.24697483,40.0,0.0012195122,185,268,338,1
125318320,0,73225,0.025722174,0.7091348,0.22832447,40.0,0.0012195122,189,265,314,1
125431029,0,73225,0.027442737,0.6915771,0.23609544,39.75,0.0012195122,191,260,324,1
125516019,0,73225,0.011957678,0.5335571,0.2586313,39.75,0.0012195122,173,215,353,1
125636047,0,73225,0.00077402615,0.5089762,0.26251677,40.25,0.0012195122,160,208,358,1
125728378,0,73225,-0.0026670978,0.4808838,0.26640227,40.25,0.0012195122,156,200,363,1
125837074,0,73225,-0.0035273784,0.5019531,0.27572745,40.25,0.0012195122,155,206,375,1
125927048,0,73225,0.002494588,0.46332604,0.2695107,40.75,0.0012195122,162,195,367,1
126040059,0,73225,-0.0069685024,0.48439535,0.26484808,40.75,0.0012195122,151,201,361,1
126130156,0,73225,-8.625484e-05,0.47737223,0.27028778,40.25,0.0012195122,159,199,368,1
126244106,0,73225,-0.0035273784,0.5054647,0.28039005,40.25,0.0012195122,155,207,381,1
