timestamp,heartbeat_time,data_rate,rate_multiplier,rate_rx,rate_tx,rate_txerr,remote_system_id,remote_component_id,remote_type,remote_system_status,type,mode,flow_control,forwarding,mavlink_v2,ftp,streams
49061452,49055781,1200.0,0.362384,0.12713256,1.5434688,0.0,255,0,6,4,0,0,0,1,1,1,36
50070408,49055781,1200.0,0.362384,0.121449344,1.2334076,0.0,255,0,6,4,0,0,0,1,1,1,36
50080163,50076209,1200.0,0.362384,0.121449344,1.2334076,0.0,255,0,6,4,0,0,0,1,1,1,36
51086497,50076209,1200.0,0.362384,0.10020835,1.1657902,0.0,255,0,6,4,0,0,0,1,1,1,36
51116415,51110145,1200.0,0.362384,0.14314115,1.5675943,0.0,255,0,6,4,0,0,0,1,1,1,36
52054454,52047856,1200.0,0.362384,0.14314115,1.5675943,0.0,255,0,6,4,0,0,0,1,1,1,36
53055276,52047856,1200.0,0.362384,0.101959825,1.2235179,0.0,255,0,6,4,0,0,0,1,1,1,36
53107350,53098276,1200.0,0.362384,0.09991726,1.1860179,0.0,255,0,6,4,0,0,0,1,1,1,36
54102013,54095146,1200.0,0.362384,0.09991726,1.1860179,0.0,255,0,6,4,0,0,0,1,1,1,36
55109616,54095146,1200.0,0.362384,0.1271082,1.4418837,0.0,255,0,6,4,0,0,0,1,1,1,36
55159173,55154162,1200.0,0.362384,0.063696675,1.2002842,0.0,255,0,6,4,0,0,0,1,1,1,36
56167230,55154162,1200.0,0.362384,0.100297906,1.3177755,0.0,255,0,6,4,0,0,0,1,1,1,36
56178875,56169188,1200.0,0.362384,0.100297906,1.3177755,0.0,255,0,6,4,0,0,0,1,1,1,36
57083328,57078144,1200.0,0.362384,0.100297906,1.3177755,0.0,255,0,6,4,0,0,0,1,1,1,36
58065418,58063337,1200.0,0.362384,0.1211334,1.43275,0.0,255,0,6,4,0,0,0,1,1,1,36
59069431,58063337,1200.0,0.362384,0.10081057,1.323513,0.0,255,0,6,4,0,0,0,1,1,1,36
59151325,59142186,1200.0,0.362384,0.06359155,1.5530249,0.0,255,0,6,4,0,0,0,1,1,1,36
60157447,59142186,1200.0,0.362384,0.10044314,1.2361467,0.0,255,0,6,4,0,0,0,1,1,1,36
60178320,60177573,1200.0,0.362384,0.10044314,1.2361467,0.0,255,0,6,4,0,0,0,1,1,1,36
61181374,60177573,1200.0,0.362384,0.100794174,1.2793875,0.0,255,0,6,4,0,0,0,1,1,1,36
61211133,61206435,1200.0,0.362384,0.100794174,1.2793875,0.0,255,0,6,4,0,0,0,1,1,1,36
62049489,62047132,1200.0,0.362384,0.100794174,1.2793875,0.0,255,0,6,4,0,0,0,1,1,1,36
63057791,62047132,1200.0,0.362384,0.121869355,1.4824108,0.0,255,0,6,4,0,0,0,1,1,1,36
63067133,63059039,1200.0,0.362384,0.121869355,1.4824108,0.0,255,0,6,4,0,0,0,1,1,1,36
64067139,63059039,1200.0,0.362384,0.10030917,1.2156279,0.0,255,0,6,4,0,0,0,1,1,1,36
64077488,64070173,1200.0,0.362384,0.10030917,1.2156279,0.0,255,0,6,4,0,0,0,1,1,1,36
65079209,64070173,1200.0,0.362384,0.12696482,1.2846441,0.0,255,0,6,4,0,0,0,1,1,1,36
65121536,65121359,1200.0,0.362384,0.12696482,1.2846441,0.0,255,0,6,4,0,0,0,1,1,1,36
66125772,65121359,1200.0,0.362384,0.04081531,1.2403872,0.0,255,0,6,4,0,0,0,1,1,1,36
66157494,66146197,1200.0,0.362384,0.04081531,1.2403872,0.0,255,0,6,4,0,0,0,1,1,1,36
67163449,66146197,1200.0,0.362384,0.020891426,1.0127368,0.0,255,0,6,4,0,0,0,1,1,1,36
67184953,67184817,1200.0,0.362384,0.0,1.1337699,0.0,255,0,6,4,0,0,0,1,1,1,36
68194323,67184817,1200.0,0.362384,0.32171115,1.9411556,0.0,255,0,6,4,0,0,0,1,1,1,36
69070389,69069374,1200.0,0.362384,0.32171115,1.9411556,0.0,255,0,6,4,0,0,0,1,1,1,36
70071147,69069374,1200.0,0.362384,0.47015083,2.122622,0.0,255,0,6,4,0,0,0,1,1,1,36
70091176,70082419,1200.0,0.362384,0.47015083,2.122622,0.0,255,0,6,4,0,0,0,1,1,1,36
71098326,70082419,1200.0,0.362384,0.3219543,2.0981514,0.0,255,0,6,4,0,0,0,1,1,1,36
71129212,71128927,1200.0,0.362384,0.3219543,2.0981514,0.0,255,0,6,4,0,0,0,1,1,1,36
72133838,71128927,1200.0,0.362384,0.38614482,1.9257609,0.0,255,0,6,4,0,0,0,1,1,1,36
72174405,72166525,1200.0,0.362384,0.38614482,1.9257609,0.0,255,0,6,4,0,0,0,1,1,1,36
73180667,72166525,1200.0,0.362384,0.2595783,1.6847724,0.0,255,0,6,4,0,0,0,1,1,1,36
73211549,73209733,1200.0,0.362384,0.2595783,1.6847724,0.0,255,0,6,4,0,0,0,1,1,1,36
74065580,74059202,1200.0,0.362384,0.21272343,1.6948292,0.0,255,0,6,4,0,0,0,1,1,1,36
75060717,75058157,1200.0,0.362384,0.14857596,1.3541352,0.0,255,0,6,4,0,0,0,1,1,1,36
76062315,75058157,1200.0,0.362384,0.14864191,1.3736907,0.0,255,0,6,4,0,0,0,1,1,1,36
76093118,76086145,1200.0,0.362384,0.14864191,1.3736907,0.0,255,0,6,4,0,0,0,1,1,1,36
77094184,76086145,1200.0,0.362384,0.052462153,1.3452088,0.0,255,0,6,4,0,0,0,1,1,1,36
77114310,77111092,1200.0,0.362384,0.052462153,1.3452088,0.0,255,0,6,4,0,0,0,1,1,1,36
78074235,78071865,1200.0,0.362384,0.020829653,0.93832636,0.0,255,0,6,4,0,0,0,1,1,1,36
79078138,78071865,1200.0,0.362384,0.020886356,1.1666522,0.0,255,0,6,4,0,0,0,1,1,1,36
79180819,79180667,1200.0,0.362384,0.020886356,1.1666522,0.0,255,0,6,4,0,0,0,1,1,1,36
80190514,79180667,1200.0,0.362384,0.40376687,2.1524262,0.0,255,0,6,4,0,0,0,1,1,1,36
81198532,79180667,1200.0,0.362384,0.30164623,2.0301585,0.0,255,0,6,4,0,0,0,1,1,1,36
81250476,81242198,1200.0,0.362384,0.30164623,2.0301585,0.0,255,0,6,4,0,0,0,1,1,1,36
82068867,82065043,1200.0,0.362384,0.086209536,1.352598,0.0,255,0,6,4,0,0,0,1,1,1,36
83074760,82065043,1200.0,0.362384,0.10080957,1.2406564,0.0,255,0,6,4,0,0,0,1,1,1,36
83106426,83103821,1200.0,0.362384,0.10080957,1.2406564,0.0,255,0,6,4,0,0,0,1,1,1,36
85122263,85121350,1200.0,0.362384,0.12586719,1.4539146,0.0,255,0,6,4,0,0,0,1,1,1,36
86127953,86124747,1200.0,0.362384,0.116391845,1.3399985,0.0,255,0,6,4,0,0,0,1,1,1,36
87128159,86124747,1200.0,0.362384,0.084343135,1.1768348,0.0,255,0,6,4,0,0,0,1,1,1,36
87180812,87174153,1200.0,0.362384,0.084343135,1.1768348,0.0,255,0,6,4,0,0,0,1,1,1,36
88162187,88153408,1200.0,0.362384,0.10002149,1.4171361,0.0,255,0,6,4,0,0,0,1,1,1,36
89088058,89082182,1200.0,0.362384,0.10076672,1.1283877,0.0,255,0,6,4,0,0,0,1,1,1,36
90092704,89082182,1200.0,0.362384,0.10030897,1.3894281,0.0,255,0,6,4,0,0,0,1,1,1,36
90122653,90116602,1200.0,0.362384,0.10030897,1.3894281,0.0,255,0,6,4,0,0,0,1,1,1,36
91086218,91081122,1200.0,0.362384,0.1006378,1.5593877,0.0,255,0,6,4,0,0,0,1,1,1,36
92087836,91081122,1200.0,0.362384,0.084881075,1.341121,0.0,255,0,6,4,0,0,0,1,1,1,36
92141500,92141321,1200.0,0.362384,0.084881075,1.341121,0.0,255,0,6,4,0,0,0,1,1,1,36
93144511,92141321,1200.0,0.362384,0.10075044,1.4384369,0.0,255,0,6,4,0,0,0,1,1,1,36
93206226,93205315,1200.0,0.362384,0.10075044,1.4384369,0.0,255,0,6,4,0,0,0,1,1,1,36
94213425,93205315,1200.0,0.362384,0.10516812,1.1945511,0.0,255,0,6,4,0,0,0,1,1,1,36
94234263,94228377,1200.0,0.362384,0.10516812,1.1945511,0.0,255,0,6,4,0,0,0,1,1,1,36
95066308,95060702,1200.0,0.362384,0.07991153,1.2685956,0.0,255,0,6,4,0,0,0,1,1,1,36
96068543,95060702,1200.0,0.362384,0.020860838,1.2526436,0.0,255,0,6,4,0,0,0,1,1,1,36
96098299,96089319,1200.0,0.362384,0.020860838,1.2526436,0.0,255,0,6,4,0,0,0,1,1,1,36
97098361,96089319,1200.0,0.362384,0.020918148,1.160459,0.0,255,0,6,4,0,0,0,1,1,1,36
97148999,97145322,1200.0,0.362384,0.020918148,1.160459,0.0,255,0,6,4,0,0,0,1,1,1,36
98159632,98159378,1200.0,0.362384,0.24493189,1.5155785,0.0,255,0,6,4,0,0,0,1,1,1,36
99103078,99097470,1200.0,0.362384,0.3344697,1.9343663,0.0,255,0,6,4,0,0,0,1,1,1,36
100103227,99097470,1200.0,0.362384,0.020839142,0.9387537,0.0,255,0,6,4,0,0,0,1,1,1,36
100187767,100181457,1200.0,0.362384,0.020839142,0.9387537,0.0,255,0,6,4,0,0,0,1,1,1,36
101157450,101157180,1200.0,0.362384,0.020971477,1.2123512,0.0,255,0,6,4,0,0,0,1,1,1,36
102101205,102094994,1200.0,0.362384,0.020792572,1.366369,0.0,255,0,6,4,0,0,0,1,1,1,36
103103393,102094994,1200.0,0.362384,0.21299487,1.4289657,0.0,255,0,6,4,0,0,0,1,1,1,36
103113425,103105457,1200.0,0.362384,0.21299487,1.4289657,0.0,255,0,6,4,0,0,0,1,1,1,36
104120244,103105457,1200.0,0.362384,0.036706347,1.2867063,0.0,255,0,6,4,0,0,0,1,1,1,36
105125372,103105457,1200.0,0.362384,0.032993797,0.999812,0.0,255,0,6,4,0,0,0,1,1,1,36
105167368,105167182,1200.0,0.362384,0.032993797,0.999812,0.0,255,0,6,4,0,0,0,1,1,1,36
106175742,105167182,1200.0,0.362384,0.020997752,1.1008822,0.0,255,0,6,4,0,0,0,1,1,1,36
106206993,106199212,1200.0,0.362384,0.020997752,1.1008822,0.0,255,0,6,4,0,0,0,1,1,1,36
107183576,107177042,1200.0,0.362384,0.020964256,1.2578553,0.0,255,0,6,4,0,0,0,1,1,1,36
108063123,108053049,1200.0,0.362384,0.020876037,1.1591171,0.0,255,0,6,4,0,0,0,1,1,1,36
109070296,108053049,1200.0,0.362384,0.020900846,0.9932878,0.0,255,0,6,4,0,0,0,1,1,1,36
109091216,109085045,1200.0,0.362384,0.020900846,0.9932878,0.0,255,0,6,4,0,0,0,1,1,1,36
112083347,111076146,1200.0,0.362384,0.020950222,1.1712172,0.0,255,0,6,4,0,0,0,1,1,1,36
112147453,112147266,1200.0,0.362384,0.020950222,1.1712172,0.0,255,0,6,4,0,0,0,1,1,1,36
113155199,112147266,1200.0,0.362384,0.020889847,1.3727614,0.0,255,0,6,4,0,0,0,1,1,1,36
113216517,113208076,1200.0,0.362384,0.020889847,1.3727614,0.0,255,0,6,4,0,0,0,1,1,1,36
114063537,114057051,1200.0,0.362384,0.020849196,1.2996,0.0,255,0,6,4,0,0,0,1,1,1,36
115072354,115070215,1200.0,0.362384,0.046574216,1.1930927,0.0,255,0,6,4,0,0,0,1,1,1,36
116080176,115070215,1200.0,0.362384,0.020977512,0.9779516,0.0,255,0,6,4,0,0,0,1,1,1,36
116102218,116096089,1200.0,0.362384,0.020977512,0.9779516,0.0,255,0,6,4,0,0,0,1,1,1,36
117102292,116096089,1200.0,0.362384,0.020856632,1.0934833,0.0,255,0,6,4,0,0,0,1,1,1,36
117132218,117131037,1200.0,0.362384,0.020856632,1.0934833,0.0,255,0,6,4,0,0,0,1,1,1,36
118134895,117131037,1200.0,0.362384,0.02089552,1.2935323,0.0,255,0,6,4,0,0,0,1,1,1,36
118166368,118160049,1200.0,0.362384,0.02089552,1.2935323,0.0,255,0,6,4,0,0,0,1,1,1,36
119122253,119119913,1200.0,0.362384,0.02085402,1.1181728,0.0,255,0,6,4,0,0,0,1,1,1,36
120126607,119119913,1200.0,0.362384,0.020833021,0.99006456,0.0,255,0,6,4,0,0,0,1,1,1,36
120156399,120153513,1200.0,0.362384,0.020833021,0.99006456,0.0,255,0,6,4,0,0,0,1,1,1,36
121054191,121054131,1200.0,0.362384,0.020952981,1.2831206,0.0,255,0,6,4,0,0,0,1,1,1,36
122060133,121054131,1200.0,0.362384,0.020793129,0.9366809,0.0,255,0,6,4,0,0,0,1,1,1,36
122080399,122076048,1200.0,0.362384,0.020793129,0.9366809,0.0,255,0,6,4,0,0,0,1,1,1,36
123068290,123065560,1200.0,0.362384,0.020920021,1.1695288,0.0,255,0,6,4,0,0,0,1,1,1,36
124071241,123065560,1200.0,0.362384,0.02086915,1.6118934,0.0,255,0,6,4,0,0,0,1,1,1,36
124152133,124149740,1200.0,0.362384,0.02086915,1.6118934,0.0,255,0,6,4,0,0,0,1,1,1,36
125152278,124149740,1200.0,0.362384,0.04672962,1.1215109,0.0,255,0,6,4,0,0,0,1,1,1,36
125175983,125175235,1200.0,0.362384,0.04672962,1.1215109,0.0,255,0,6,4,0,0,0,1,1,1,36
126109323,126106155,1200.0,0.362384,0.020935873,1.1395097,0.0,255,0,6,4,0,0,0,1,1,1,36
127113738,126106155,1200.0,0.362384,0.020946188,0.9764914,0.0,255,0,6,4,0,0,0,1,1,1,36
128059137,128052889,1200.0,0.362384,0.02084148,1.092689,0.0,255,0,6,4,0,0,0,1,1,1,36
129063212,128052889,1200.0,0.362384,0.020833291,1.2896799,0.0,255,0,6,4,0,0,0,1,1,1,36
129093377,129090248,1200.0,0.362384,0.020833291,1.2896799,0.0,255,0,6,4,0,0,0,1,1,1,36
130099133,129090248,1200.0,0.362384,0.020921167,1.1217731,0.0,255,0,6,4,0,0,0,1,1,1,36
130129940,130123041,1200.0,0.362384,0.020921167,1.1217731,0.0,255,0,6,4,0,0,0,1,1,1,36
131130112,130123041,1200.0,0.362384,0.020840237,0.98941505,0.0,255,0,6,4,0,0,0,1,1,1,36
131162367,131153788,1200.0,0.362384,0.020840237,0.98941505,0.0,255,0,6,4,0,0,0,1,1,1,36
132148704,132147334,1200.0,0.362384,0.020800212,1.3579568,0.0,255,0,6,4,0,0,0,1,1,1,36
133147286,133147054,1200.0,0.362384,0.0208499,0.8558388,0.0,255,0,6,4,0,0,0,1,1,1,36
134055475,134053043,1200.0,0.362384,0.020867346,1.2242175,0.0,255,0,6,4,0,0,0,1,1,1,36
135056526,134053043,1200.0,0.362384,0.046600584,1.6111904,0.0,255,0,6,4,0,0,0,1,1,1,36
135066290,135062179,1200.0,0.362384,0.046600584,1.6111904,0.0,255,0,6,4,0,0,0,1,1,1,36
136074311,135062179,1200.0,0.362384,0.020919375,1.0629035,0.0,255,0,6,4,0,0,0,1,1,1,36
136104135,136100620,1200.0,0.362384,0.020919375,1.0629035,0.0,255,0,6,4,0,0,0,1,1,1,36
137106572,136100620,1200.0,0.362384,0.020823417,1.1333888,0.0,255,0,6,4,0,0,0,1,1,1,36
137138305,137129053,1200.0,0.362384,0.020823417,1.1333888,0.0,255,0,6,4,0,0,0,1,1,1,36
138088357,138084703,1200.0,0.362384,0.020973425,1.0486712,0.0,255,0,6,4,0,0,0,1,1,1,36
139089317,138084703,1200.0,0.362384,0.020955259,1.0677203,0.0,255,0,6,4,0,0,0,1,1,1,36
139194390,139193490,1200.0,0.362384,0.020955259,1.0677203,0.0,255,0,6,4,0,0,0,1,1,1,36
140199753,139193490,1200.0,0.362384,0.02098078,1.2588468,0.0,255,0,6,4,0,0,0,1,1,1,36
140220598,140218309,1200.0,0.362384,0.02098078,1.2588468,0.0,255,0,6,4,0,0,0,1,1,1,36
141057202,141052070,1200.0,0.362384,0.020978957,1.1248717,0.0,255,0,6,4,0,0,0,1,1,1,36
142065283,141052070,1200.0,0.362384,0.020829033,1.0712074,0.0,255,0,6,4,0,0,0,1,1,1,36
142085184,142081046,1200.0,0.362384,0.020829033,1.0712074,0.0,255,0,6,4,0,0,0,1,1,1,36
143091782,142081046,1200.0,0.362384,0.020840693,1.2782291,0.0,255,0,6,4,0,0,0,1,1,1,36
143111412,143110954,1200.0,0.362384,0.020840693,1.2782291,0.0,255,0,6,4,0,0,0,1,1,1,36
144045498,144045314,1200.0,0.362384,0.020933911,0.8582903,0.0,255,0,6,4,0,0,0,1,1,1,36
146113329,145102952,1200.0,0.362384,0.020859221,1.4750448,0.0,255,0,6,4,0,0,0,1,1,1,36
146207348,146206790,1200.0,0.362384,0.020859221,1.4750448,0.0,255,0,6,4,0,0,0,1,1,1,36
147213180,147206784,1200.0,0.362384,0.020833332,1.0585316,0.0,255,0,6,4,0,0,0,1,1,1,36
148059273,148055601,1200.0,0.362384,0.020974703,1.1416231,0.0,255,0,6,4,0,0,0,1,1,1,36
149060133,148055601,1200.0,0.362384,0.02083819,1.0419095,0.0,255,0,6,4,0,0,0,1,1,1,36
149092219,149089183,1200.0,0.362384,0.02083819,1.0419095,0.0,255,0,6,4,0,0,0,1,1,1,36
150082769,150082516,1200.0,0.362384,0.020892382,1.0645167,0.0,255,0,6,4,0,0,0,1,1,1,36
151084137,150082516,1200.0,0.362384,0.02091698,1.2550187,0.0,255,0,6,4,0,0,0,1,1,1,36
151156722,151156577,1200.0,0.362384,0.02091698,1.2550187,0.0,255,0,6,4,0,0,0,1,1,1,36
152162221,152159773,1200.0,0.362384,0.05478584,1.1216155,0.0,255,0,6,4,1,0,0,1,1,1,36
153169923,152159773,1200.0,0.362384,0.02089552,1.1144278,0.0,255,0,6,4,1,0,0,1,1,1,36
153230561,153223196,1200.0,0.362384,0.02089552,1.1144278,0.0,255,0,6,4,1,0,0,1,1,1,36
154066333,154059037,1200.0,0.362384,0.020916333,1.2430278,0.0,255,0,6,4,1,0,0,1,1,1,36
155071066,154059037,1200.0,0.362384,0.046574216,0.8740098,0.0,255,0,6,4,1,0,0,1,1,1,36
155081473,155078215,1200.0,0.362384,0.046574216,0.8740098,0.0,255,0,6,4,1,0,0,1,1,1,36
156086450,155078215,1200.0,0.362384,0.020831266,1.5811923,0.0,255,0,6,4,1,0,0,1,1,1,36
156116345,156110186,1200.0,0.362384,0.020831266,1.5811923,0.0,255,0,6,4,1,0,0,1,1,1,36
157122337,156110186,1200.0,0.362384,0.02099515,1.2427129,0.0,255,0,6,4,0,0,0,1,1,1,36
157142353,157142201,1200.0,0.362384,0.02099515,1.2427129,0.0,255,0,6,4,0,0,0,1,1,1,36
158110262,158102129,1200.0,0.362384,0.020914793,1.0626706,0.0,255,0,6,4,0,0,0,1,1,1,36
159110338,158102129,1200.0,0.362384,0.020886106,1.136801,0.0,255,0,6,4,0,0,0,1,1,1,36
159210209,159206806,1200.0,0.362384,0.020886106,1.136801,0.0,255,0,6,4,0,0,0,1,1,1,36
160172995,160167047,1200.0,0.362384,0.02095503,1.0876658,0.0,255,0,6,4,0,0,0,1,1,1,36
161072873,161063043,1200.0,0.362384,0.020927152,1.026427,0.0,255,0,6,4,0,0,0,1,1,1,36
162073005,161063043,1200.0,0.362384,0.020887291,1.2532375,0.0,255,0,6,4,0,0,0,1,1,1,36
162095140,162088630,1200.0,0.362384,0.020887291,1.2532375,0.0,255,0,6,4,0,0,0,1,1,1,36
163103164,162088630,1200.0,0.362384,0.020872075,1.1191407,0.0,255,0,6,4,0,0,0,1,1,1,36
163133656,163127129,1200.0,0.362384,0.020872075,1.1191407,0.0,255,0,6,4,0,0,0,1,1,1,36
165131388,165126601,1200.0,0.362384,0.046837844,1.2646219,0.0,255,0,6,4,0,0,0,1,1,1,36
166130192,166128194,1200.0,0.362384,0.020925859,0.8579602,0.0,255,0,6,4,0,0,0,1,1,1,36
167052883,167047777,1200.0,0.362384,0.020969447,1.5916809,0.0,255,0,6,4,0,0,0,1,1,1,36
168058535,167047777,1200.0,0.362384,0.020951245,1.2391165,0.0,255,0,6,4,0,0,0,1,1,1,36
168078353,168078053,1200.0,0.362384,0.020951245,1.2391165,0.0,255,0,6,4,0,0,0,1,1,1,36
169082514,168078053,1200.0,0.362384,0.020877946,1.0617927,0.0,255,0,6,4,0,0,0,1,1,1,36
169114391,169108743,1200.0,0.362384,0.020877946,1.0617927,0.0,255,0,6,4,0,0,0,1,1,1,36
170122417,169108743,1200.0,0.362384,0.02087558,1.2187363,0.0,255,0,6,4,0,0,0,1,1,1,36
170134480,170134196,1200.0,0.362384,0.02087558,1.2187363,0.0,255,0,6,4,0,0,0,1,1,1,36
171101936,171101662,1200.0,0.362384,0.020808931,0.9978378,0.0,255,0,6,4,0,0,0,1,1,1,36
172108703,171101662,1200.0,0.362384,0.020980507,1.0290439,0.0,255,0,6,4,0,0,0,1,1,1,36
172173727,172169049,1200.0,0.362384,0.020980507,1.0290439,0.0,255,0,6,4,0,0,0,1,1,1,36
173181166,172169049,1200.0,0.362384,0.020883884,1.253033,0.0,255,0,6,4,0,0,0,1,1,1,36
173231382,173231148,1200.0,0.362384,0.020883884,1.253033,0.0,255,0,6,4,0,0,0,1,1,1,36
174061583,174054757,1200.0,0.362384,0.020891447,1.1201795,0.0,255,0,6,4,0,0,0,1,1,1,36
175065202,174054757,1200.0,0.362384,0.046804633,1.1362572,0.0,255,0,6,4,0,0,0,1,1,1,36
175087068,175081165,1200.0,0.362384,0.046804633,1.1362572,0.0,255,0,6,4,0,0,0,1,1,1,36
176089509,175081165,1200.0,0.362384,0.020919334,1.2432061,0.0,255,0,6,4,0,0,0,1,1,1,36
176129311,176121238,1200.0,0.362384,0.020919334,1.2432061,0.0,255,0,6,4,0,0,0,1,1,1,36
177135150,176121238,1200.0,0.362384,0.020759849,0.89069635,0.0,255,0,6,4,0,0,0,1,1,1,36
177155932,177155784,1200.0,0.362384,0.020759849,0.89069635,0.0,255,0,6,4,0,0,0,1,1,1,36
178146238,178145236,1200.0,0.362384,0.02099156,1.5933594,0.0,255,0,6,4,0,0,0,1,1,1,36
179122390,179120150,1200.0,0.362384,0.020873692,1.1947705,0.0,255,0,6,4,0,0,0,1,1,1,36
180047092,180046637,1200.0,0.362384,0.020871928,1.0614867,0.0,255,0,6,4,0,0,0,1,1,1,36
181056981,180046637,1200.0,0.362384,0.020966766,1.2230614,0.0,255,0,6,4,0,0,0,1,1,1,36
181076133,181071270,1200.0,0.362384,0.020966766,1.2230614,0.0,255,0,6,4,0,0,0,1,1,1,36
182077998,181071270,1200.0,0.362384,0.020926546,1.0044743,0.0,255,0,6,4,0,0,0,1,1,1,36
182110490,182101158,1200.0,0.362384,0.020926546,1.0044743,0.0,255,0,6,4,0,0,0,1,1,1,36
183102386,183100047,1200.0,0.362384,0.020797268,1.0200565,0.0,255,0,6,4,0,0,0,1,1,1,36
184076195,184067055,1200.0,0.362384,0.02095482,1.2882226,0.0,255,0,6,4,0,0,0,1,1,1,36
185080133,184067055,1200.0,0.362384,0.046851806,1.2261218,0.0,255,0,6,4,0,0,0,1,1,1,36
185200243,185197487,1200.0,0.362384,0.046851806,1.2261218,0.0,255,0,6,4,0,0,0,1,1,1,36
186203837,185197487,1200.0,0.362384,0.020861251,0.99935323,0.0,255,0,6,4,0,0,0,1,1,1,36
186234244,186228044,1200.0,0.362384,0.020861251,0.99935323,0.0,255,0,6,4,0,0,0,1,1,1,36
187062302,187053160,1200.0,0.362384,0.020833332,1.2380952,0.0,255,0,6,4,0,0,0,1,1,1,36
188069315,187053160,1200.0,0.362384,0.02085402,0.9572989,0.0,255,0,6,4,0,0,0,1,1,1,36
188079215,188078280,1200.0,0.362384,0.02085402,0.9572989,0.0,255,0,6,4,0,0,0,1,1,1,36
189080620,188078280,1200.0,0.362384,0.020872032,1.5216706,0.0,255,0,6,4,0,0,0,1,1,1,36
189114380,189114060,1200.0,0.362384,0.020872032,1.5216706,0.0,255,0,6,4,0,0,0,1,1,1,36
190117362,190111004,1200.0,0.362384,0.020875953,1.1948998,0.0,255,0,6,4,0,0,0,1,1,1,36
191115384,191112878,1200.0,0.362384,0.02095961,1.0659459,0.0,255,0,6,4,0,0,0,1,1,1,36
192119925,191112878,1200.0,0.362384,0.020873629,1.2573876,0.0,255,0,6,4,0,0,0,1,1,1,36
192209435,192206905,1200.0,0.362384,0.020873629,1.2573876,0.0,255,0,6,4,0,0,0,1,1,1,36
193170553,193161173,1200.0,0.362384,0.020927215,0.9646449,0.0,255,0,6,4,0,0,0,1,1,1,36
194072579,194071587,1200.0,0.362384,0.020801634,1.1430993,0.0,255,0,6,4,0,0,0,1,1,1,36
195074499,194071587,1200.0,0.362384,0.046815917,1.2859436,0.0,255,0,6,4,0,0,0,1,1,1,36
195095981,195090210,1200.0,0.362384,0.046815917,1.2859436,0.0,255,0,6,4,0,0,0,1,1,1,36
197066193,196058308,1200.0,0.362384,0.020785144,0.99570733,0.0,255,0,6,4,0,0,0,1,1,1,36
197160928,197156251,1200.0,0.362384,0.020785144,0.99570733,0.0,255,0,6,4,0,0,0,1,1,1,36
198163545,197156251,1200.0,0.362384,0.020793643,1.3179208,0.0,255,0,6,4,0,0,0,1,1,1,36
198193428,198187904,1200.0,0.362384,0.020793643,1.3179208,0.0,255,0,6,4,0,0,0,1,1,1,36
199201327,198187904,1200.0,0.362384,0.0208638,0.975631,0.0,255,0,6,4,0,0,0,1,1,1,36
199223133,199219910,1200.0,0.362384,0.0208638,0.975631,0.0,255,0,6,4,0,0,0,1,1,1,36
200057358,200053045,1200.0,0.362384,0.020986756,1.4290981,0.0,255,0,6,4,0,0,0,1,1,1,36
201060610,200053045,1200.0,0.362384,0.020929487,1.1979641,0.0,255,0,6,4,0,0,0,1,1,1,36
201070999,201069186,1200.0,0.362384,0.020929487,1.1979641,0.0,255,0,6,4,0,0,0,1,1,1,36
202076352,201069186,1200.0,0.362384,0.02087475,1.1053678,0.0,255,0,6,4,0,0,0,1,1,1,36
202097297,202093722,1200.0,0.362384,0.02087475,1.1053678,0.0,255,0,6,4,0,0,0,1,1,1,36
203069209,203062418,1200.0,0.362384,0.020916333,1.2161354,0.0,255,0,6,4,0,0,0,1,1,1,36
204070970,203062418,1200.0,0.362384,0.020812685,0.98017836,0.0,255,0,6,4,0,0,0,1,1,1,36
204080502,204075037,1200.0,0.362384,0.020812685,0.98017836,0.0,255,0,6,4,0,0,0,1,1,1,36
205082384,204075037,1200.0,0.362384,0.04678549,1.064121,0.0,255,0,6,4,0,0,0,1,1,1,36
205191199,205190861,1200.0,0.362384,0.04678549,1.064121,0.0,255,0,6,4,0,0,0,1,1,1,36
206200187,205190861,1200.0,0.362384,0.02086521,1.2837073,0.0,255,0,6,4,0,0,0,1,1,1,36
206220543,206220052,1200.0,0.362384,0.02086521,1.2837073,0.0,255,0,6,4,0,0,0,1,1,1,36
207063107,207054474,1200.0,0.362384,0.02082732,1.1593875,0.0,255,0,6,4,0,0,0,1,1,1,36
209080887,208076047,1200.0,0.362384,0.020898787,1.3335416,0.0,255,0,6,4,0,0,0,1,1,1,36
209112849,209104057,1200.0,0.362384,0.020898787,1.3335416,0.0,255,0,6,4,0,0,0,1,1,1,36
210121847,209104057,1200.0,0.362384,0.02095342,1.1813738,0.0,255,0,6,4,0,0,0,1,1,1,36
210144698,210136164,1200.0,0.362384,0.02095342,1.1813738,0.0,255,0,6,4,0,0,0,1,1,1,36
211123178,211122223,1200.0,0.362384,0.0209666,1.1861105,0.0,255,0,6,4,0,0,0,1,1,1,36
212126489,211122223,1200.0,0.362384,0.020858102,1.193878,0.0,255,0,6,4,0,0,0,1,1,1,36
212179133,212175374,1200.0,0.362384,0.020858102,1.193878,0.0,255,0,6,4,0,0,0,1,1,1,36
213172224,213164049,1200.0,0.362384,0.020940382,1.1487296,0.0,255,0,6,4,0,0,0,1,1,1,36
214055147,214046220,1200.0,0.362384,0.02083081,1.1923159,0.0,255,0,6,4,0,0,0,1,1,1,36
215058450,214046220,1200.0,0.362384,0.046886906,0.96567076,0.0,255,0,6,4,0,0,0,1,1,1,36
215088167,215082214,1200.0,0.362384,0.046886906,0.96567076,0.0,255,0,6,4,0,0,0,1,1,1,36
216094196,215082214,1200.0,0.362384,0.020863282,1.1017799,0.0,255,0,6,4,0,0,0,1,1,1,36
216115368,216112762,1200.0,0.362384,0.020863282,1.1017799,0.0,255,0,6,4,0,0,0,1,1,1,36
217063167,217055039,1200.0,0.362384,0.020823479,1.2414759,0.0,255,0,6,4,0,0,0,1,1,1,36
218067260,217055039,1200.0,0.362384,0.020875374,1.1620624,0.0,255,0,6,4,0,0,0,1,1,1,36
218117396,218109419,1200.0,0.362384,0.020875374,1.1620624,0.0,255,0,6,4,0,0,0,1,1,1,36
219125459,218109419,1200.0,0.362384,0.02082546,1.0283811,0.0,255,0,6,4,0,0,0,1,1,1,36
219217798,219210371,1200.0,0.362384,0.02082546,1.0283811,0.0,255,0,6,4,0,0,0,1,1,1,36
220211305,220209040,1200.0,0.362384,0.020966055,1.337834,0.0,255,0,6,4,0,0,0,1,1,1,36
221072623,221065593,1200.0,0.362384,0.020932846,1.1802138,0.0,255,0,6,4,0,0,0,1,1,1,36
222077001,221065593,1200.0,0.362384,0.020919979,1.1834731,0.0,255,0,6,4,0,0,0,1,1,1,36
222096138,222094283,1200.0,0.362384,0.020919979,1.1834731,0.0,255,0,6,4,0,0,0,1,1,1,36
223102619,223097039,1200.0,0.362384,0.020881787,1.2350085,0.0,255,0,6,4,0,0,0,1,1,1,36
224108153,223097039,1200.0,0.362384,0.020993575,1.1326534,0.0,255,0,6,4,0,0,0,1,1,1,36
224168133,224162140,1200.0,0.362384,0.020993575,1.1326534,0.0,255,0,6,4,0,0,0,1,1,1,36
225097978,225097638,1200.0,0.362384,0.046802584,1.1760395,0.0,255,0,6,4,0,0,0,1,1,1,36
226103209,225097638,1200.0,0.362384,0.020900056,1.045998,0.0,255,0,6,4,0,0,0,1,1,1,36
226229401,226221147,1200.0,0.362384,0.020900056,1.045998,0.0,255,0,6,4,0,0,0,1,1,1,36
227069402,227059551,1200.0,0.362384,0.020833332,1.0178571,0.0,255,0,6,4,0,0,0,1,1,1,36
228051958,228045369,1200.0,0.362384,0.020902842,1.2462076,0.0,255,0,6,4,0,0,0,1,1,1,36
230083464,229068103,1200.0,0.362384,0.020833332,1.0297618,0.0,255,0,6,4,0,0,0,1,1,1,36
230115099,230112045,1200.0,0.362384,0.020833332,1.0297618,0.0,255,0,6,4,0,0,0,1,1,1,36
231108374,231108035,1200.0,0.362384,0.02091173,1.3343675,0.0,255,0,6,4,0,0,0,1,1,1,36
232114344,231108035,1200.0,0.362384,0.020938503,1.1805327,0.0,255,0,6,4,0,0,0,1,1,1,36
232207083,232200079,1200.0,0.362384,0.020938503,1.1805327,0.0,255,0,6,4,0,0,0,1,1,1,36
233168654,233168534,1200.0,0.362384,0.020857293,1.219655,0.0,255,0,6,4,0,0,0,1,1,1,36
234079872,234075164,1200.0,0.362384,0.020914208,1.2180036,0.0,255,0,6,4,0,0,0,1,1,1,36
235087365,234075164,1200.0,0.362384,0.046621338,1.103041,0.0,255,0,6,4,0,0,0,1,1,1,36
235098103,235092076,1200.0,0.362384,0.046621338,1.103041,0.0,255,0,6,4,0,0,0,1,1,1,36
236102236,235092076,1200.0,0.362384,0.020921001,1.1765573,0.0,255,0,6,4,0,0,0,1,1,1,36
236132133,236124048,1200.0,0.362384,0.020921001,1.1765573,0.0,255,0,6,4,0,0,0,1,1,1,36
237135890,236124048,1200.0,0.362384,0.020928904,1.0474418,0.0,255,0,6,4,0,0,0,1,1,1,36
237146510,237145414,1200.0,0.362384,0.020928904,1.0474418,0.0,255,0,6,4,0,0,0,1,1,1,36
238112133,238103407,1200.0,0.362384,0.020820877,1.0172486,0.0,255,0,6,4,0,0,0,1,1,1,36
239115247,238103407,1200.0,0.362384,0.020935059,1.2481283,0.0,255,0,6,4,0,0,0,1,1,1,36
239139711,239137334,1200.0,0.362384,0.020935059,1.2481283,0.0,255,0,6,4,0,0,0,1,1,1,36
241071342,241066124,1200.0,0.362384,0.020908795,1.1629273,0.0,255,0,6,4,0,0,0,1,1,1,36
242073460,241066124,1200.0,0.362384,0.04193031,1.0762113,0.0,255,0,6,4,0,0,0,1,1,1,36
242103133,242101589,1200.0,0.362384,0.0,1.2975683,0.0,255,0,6,4,0,0,0,1,1,1,36
243112838,242101589,1200.0,0.362384,0.020907441,1.1787815,0.0,255,0,6,4,0,0,0,1,1,1,36
243135288,243128731,1200.0,0.362384,0.020907441,1.1787815,0.0,255,0,6,4,0,0,0,1,1,1,36
244143038,243128731,1200.0,0.362384,0.020923315,1.284293,0.0,255,0,6,4,0,0,0,1,1,1,36
244176710,244171076,1200.0,0.362384,0.020923315,1.284293,0.0,255,0,6,4,0,0,0,1,1,1,36
245161495,245161047,1200.0,0.362384,0.046631098,1.1528795,0.0,255,0,6,4,0,0,0,1,1,1,36
246166184,245161047,1200.0,0.362384,0.020890802,1.1062177,0.0,255,0,6,4,0,0,0,1,1,1,36
246230502,246225029,1200.0,0.362384,0.020890802,1.1062177,0.0,255,0,6,4,0,0,0,1,1,1,36
247066271,247060665,1200.0,0.362384,0.020890802,1.1062177,0.0,255,0,6,4,0,0,0,1,1,1,36
248074185,247060665,1200.0,0.362384,0.04192579,1.1789134,0.0,255,0,6,4,0,0,0,1,1,1,36
248084655,248078373,1200.0,0.362384,0.04192579,1.1789134,0.0,255,0,6,4,0,0,0,1,1,1,36
249087745,248078373,1200.0,0.362384,0.02082984,1.0821598,0.0,255,0,6,4,0,0,0,1,1,1,36
249119900,249109305,1200.0,0.362384,0.020906838,0.9816258,0.0,255,0,6,4,0,0,0,1,1,1,36
250117416,250109712,1200.0,0.362384,0.020906838,0.9816258,0.0,255,0,6,4,0,0,0,1,1,1,36
251107881,251101045,1200.0,0.362384,0.020811137,1.2407402,0.0,255,0,6,4,0,0,0,1,1,1,36
252109828,252104091,1200.0,0.362384,0.020797227,1.156722,0.0,255,0,6,4,0,0,0,1,1,1,36
253113202,252104091,1200.0,0.362384,0.02094926,1.0753953,0.0,255,0,6,4,0,0,0,1,1,1,36
253237792,253237656,1200.0,0.362384,0.0,1.2946641,0.0,255,0,6,4,0,0,0,1,1,1,36
254057402,254051712,1200.0,0.362384,0.0,1.2946641,0.0,255,0,6,4,0,0,0,1,1,1,36
255057525,254051712,1200.0,0.362384,0.06760082,1.2297384,0.0,255,0,6,4,0,0,0,1,1,1,36
255087290,255084098,1200.0,0.362384,0.06760082,1.2297384,0.0,255,0,6,4,0,0,0,1,1,1,36
256094379,255084098,1200.0,0.362384,0.020914918,1.2718261,0.0,255,0,6,4,0,0,0,1,1,1,36
256126213,256123251,1200.0,0.362384,0.020914918,1.2718261,0.0,255,0,6,4,0,0,0,1,1,1,36
257132217,256123251,1200.0,0.362384,0.020899557,1.1166334,0.0,255,0,6,4,0,0,0,1,1,1,36
257152133,257150371,1200.0,0.362384,0.020899557,1.1166334,0.0,255,0,6,4,0,0,0,1,1,1,36
258155176,257150371,1200.0,0.362384,0.020904008,1.106917,0.0,255,0,6,4,0,0,0,1,1,1,36
258188698,258188117,1200.0,0.362384,0.0,1.1767225,0.0,255,0,6,4,0,0,0,1,1,1,36
259146939,259144100,1200.0,0.362384,0.0,1.1767225,0.0,255,0,6,4,0,0,0,1,1,1,36
260151275,259144100,1200.0,0.362384,0.04192554,1.0890658,0.0,255,0,6,4,0,0,0,1,1,1,36
260190277,260190027,1200.0,0.362384,0.0,0.97895145,0.0,255,0,6,4,0,0,0,1,1,1,36
261076513,261067099,1200.0,0.362384,0.0,0.97895145,0.0,255,0,6,4,0,0,0,1,1,1,36
264112140,263098038,1200.0,0.362384,0.02089575,1.032847,0.0,255,0,6,4,0,0,0,1,1,1,36
264134203,264125204,1200.0,0.362384,0.02089575,1.032847,0.0,255,0,6,4,0,0,0,1,1,1,36
265135153,264125204,1200.0,0.362384,0.04665026,1.3101776,0.0,255,0,6,4,0,0,0,1,1,1,36
265186621,265185969,1200.0,0.362384,0.04665026,1.3101776,0.0,255,0,6,4,0,0,0,1,1,1,36
266196397,265185969,1200.0,0.362384,0.0,1.1929177,0.0,255,0,6,4,0,0,0,1,1,1,36
266216204,266216062,1200.0,0.362384,0.0,1.1929177,0.0,255,0,6,4,0,0,0,1,1,1,36
267064226,267056072,1200.0,0.362384,0.0,1.1929177,0.0,255,0,6,4,0,0,0,1,1,1,36
268074417,268067833,1200.0,0.362384,0.041669145,1.1141535,0.0,255,0,6,4,0,0,0,1,1,1,36
269074990,268067833,1200.0,0.362384,0.020839037,1.1034766,0.0,255,0,6,4,0,0,0,1,1,1,36
269105418,269105169,1200.0,0.362384,0.020839037,1.1034766,0.0,255,0,6,4,0,0,0,1,1,1,36
270107345,269105169,1200.0,0.362384,0.02079939,1.2093359,0.0,255,0,6,4,0,0,0,1,1,1,36
270137419,270131043,1200.0,0.362384,0.02079939,1.2093359,0.0,255,0,6,4,0,0,0,1,1,1,36
271104928,271099107,1200.0,0.362384,0.020800708,1.0410259,0.0,255,0,6,4,0,0,0,1,1,1,36
272103184,272103041,1200.0,0.362384,0.020833332,0.97817457,0.0,255,0,6,4,0,0,0,1,1,1,36
273104797,272103041,1200.0,0.362384,0.02077998,1.3220025,0.0,255,0,6,4,0,0,0,1,1,1,36
273199133,273197050,1200.0,0.362384,0.02077998,1.3220025,0.0,255,0,6,4,0,0,0,1,1,1,36
274070389,274067125,1200.0,0.362384,0.020879919,1.1175728,0.0,255,0,6,4,0,0,0,1,1,1,36
275074370,274067125,1200.0,0.362384,0.046729945,1.0529151,0.0,255,0,6,4,0,0,0,1,1,1,36
275084555,275081044,1200.0,0.362384,0.046729945,1.0529151,0.0,255,0,6,4,0,0,0,1,1,1,36
276088898,275081044,1200.0,0.362384,0.020813098,1.5272849,0.0,255,0,6,4,0,0,0,1,1,1,36
276098397,276098252,1200.0,0.362384,0.020813098,1.5272849,0.0,255,0,6,4,0,0,0,1,1,1,36
277109794,276098252,1200.0,0.362384,0.020959066,1.0948616,0.0,255,0,6,4,0,0,0,1,1,1,36
277142306,277141605,1200.0,0.362384,0.020959066,1.0948616,0.0,255,0,6,4,0,0,0,1,1,1,36
278152133,277141605,1200.0,0.362384,0.020958334,1.1507124,0.0,255,0,6,4,0,0,0,1,1,1,36
278174362,278174113,1200.0,0.362384,0.020958334,1.1507124,0.0,255,0,6,4,0,0,0,1,1,1,36
279183948,278174113,1200.0,0.362384,0.020994456,1.1227036,0.0,255,0,6,4,0,0,0,1,1,1,36
279214458,279208254,1200.0,0.362384,0.020994456,1.1227036,0.0,255,0,6,4,0,0,0,1,1,1,36
280202233,280199116,1200.0,0.362384,0.020786233,1.1006806,0.0,255,0,6,4,0,0,0,1,1,1,36
281063805,281063158,1200.0,0.362384,0.020954276,1.2183415,0.0,255,0,6,4,0,0,0,1,1,1,36
282071722,281063158,1200.0,0.362384,0.020900534,1.0460219,0.0,255,0,6,4,0,0,0,1,1,1,36
282092064,282086970,1200.0,0.362384,0.020900534,1.0460219,0.0,255,0,6,4,0,0,0,1,1,1,36
283095201,282086970,1200.0,0.362384,0.020990973,1.0595443,0.0,255,0,6,4,0,0,0,1,1,1,36
283125410,283117307,1200.0,0.362384,0.020990973,1.0595443,0.0,255,0,6,4,0,0,0,1,1,1,36
284125944,283117307,1200.0,0.362384,0.020833021,1.2916473,0.0,255,0,6,4,0,0,0,1,1,1,36
284167256,284160183,1200.0,0.362384,0.020833021,1.2916473,0.0,255,0,6,4,0,0,0,1,1,1,36
285095247,285088044,1200.0,0.362384,0.04684438,1.1013414,0.0,255,0,6,4,0,0,0,1,1,1,36
286100354,285088044,1200.0,0.362384,0.020818772,1.0290421,0.0,255,0,6,4,0,0,0,1,1,1,36
286218653,286217046,1200.0,0.362384,0.020818772,1.0290421,0.0,255,0,6,4,0,0,0,1,1,1,36
287226584,286217046,1200.0,0.362384,0.020972107,1.5389532,0.0,255,0,6,4,0,0,0,1,1,1,36
287247117,287245180,1200.0,0.362384,0.020972107,1.5389532,0.0,255,0,6,4,0,0,0,1,1,1,36
288066569,288066375,1200.0,0.362384,0.02081642,1.0874101,0.0,255,0,6,4,0,0,0,1,1,1,36
290116399,289102990,1200.0,0.362384,0.020872552,1.1867536,0.0,255,0,6,4,0,0,0,1,1,1,36
290138406,290129226,1200.0,0.362384,0.020872552,1.1867536,0.0,255,0,6,4,0,0,0,1,1,1,36
291143574,291140751,1200.0,0.362384,0.02088993,1.0743393,0.0,255,0,6,4,0,0,0,1,1,1,36
292114352,292106113,1200.0,0.362384,0.020998992,1.1819432,0.0,255,0,6,4,0,0,0,1,1,1,36
293114713,292106113,1200.0,0.362384,0.020967666,1.0493819,0.0,255,0,6,4,0,0,0,1,1,1,36
293156136,293155169,1200.0,0.362384,0.020967666,1.0493819,0.0,255,0,6,4,0,0,0,1,1,1,36
294080133,294072183,1200.0,0.362384,0.020975458,1.1416641,0.0,255,0,6,4,0,0,0,1,1,1,36
295082386,294072183,1200.0,0.362384,0.046912365,1.237688,0.0,255,0,6,4,0,0,0,1,1,1,36
295092145,295085380,1200.0,0.362384,0.046912365,1.237688,0.0,255,0,6,4,0,0,0,1,1,1,36
296077571,296072095,1200.0,0.362384,0.020854808,1.0765053,0.0,255,0,6,4,0,0,0,1,1,1,36
297085852,296072095,1200.0,0.362384,0.020812685,1.2666005,0.0,255,0,6,4,0,0,0,1,1,1,36
297155304,297149403,1200.0,0.362384,0.020812685,1.2666005,0.0,255,0,6,4,0,0,0,1,1,1,36
298148975,298141399,1200.0,0.362384,0.0208481,1.2915894,0.0,255,0,6,4,0,0,0,1,1,1,36
299121821,299119175,1200.0,0.362384,0.020900846,1.0918204,0.0,255,0,6,4,0,0,0,1,1,1,36
300131457,299119175,1200.0,0.362384,0.020998215,1.1928986,0.0,255,0,6,4,0,0,0,1,1,1,36
300245465,300245194,1200.0,0.362384,0.020998215,1.1928986,0.0,255,0,6,4,0,0,0,1,1,1,36
301075614,301072761,1200.0,0.362384,0.020870395,1.186631,0.0,255,0,6,4,0,0,0,1,1,1,36
302078376,301072761,1200.0,0.362384,0.02081578,1.0705258,0.0,255,0,6,4,0,0,0,1,1,1,36
302110489,302102101,1200.0,0.362384,0.02081578,1.0705258,0.0,255,0,6,4,0,0,0,1,1,1,36
303113318,303110593,1200.0,0.362384,0.020868527,1.1746,0.0,255,0,6,4,0,0,0,1,1,1,36
305106188,305100927,1200.0,0.362384,0.04662675,1.1944385,0.0,255,0,6,4,0,0,0,1,1,1,36
306112244,305100927,1200.0,0.362384,0.020790884,1.1672597,0.0,255,0,6,4,0,0,0,1,1,1,36
306234593,306225322,1200.0,0.362384,0.020790884,1.1672597,0.0,255,0,6,4,0,0,0,1,1,1,36
307162251,307159578,1200.0,0.362384,0.020917606,1.0797468,0.0,255,0,6,4,0,0,0,1,1,1,36
308164402,307159578,1200.0,0.362384,0.020831473,1.5078019,0.0,255,0,6,4,0,0,0,1,1,1,36
308217713,308213170,1200.0,0.362384,0.020831473,1.5078019,0.0,255,0,6,4,0,0,0,1,1,1,36
309121328,309112251,1200.0,0.362384,0.020836247,1.0904303,0.0,255,0,6,4,0,0,0,1,1,1,36
310135095,309112251,1200.0,0.362384,0.020814417,1.047659,0.0,255,0,6,4,0,0,0,1,1,1,36
310145180,310144092,1200.0,0.362384,0.020814417,1.047659,0.0,255,0,6,4,0,0,0,1,1,1,36
311153215,310144092,1200.0,0.362384,0.020866599,1.2281483,0.0,255,0,6,4,0,0,0,1,1,1,36
311175731,311175165,1200.0,0.362384,0.020866599,1.2281483,0.0,255,0,6,4,0,0,0,1,1,1,36
312185273,311175165,1200.0,0.362384,0.020963376,1.1489927,0.0,255,0,6,4,0,0,0,1,1,1,36
312217285,312208158,1200.0,0.362384,0.020963376,1.1489927,0.0,255,0,6,4,0,0,0,1,1,1,36
313220930,312208158,1200.0,0.362384,0.020836227,1.0318893,0.0,255,0,6,4,0,0,0,1,1,1,36
313240403,313239068,1200.0,0.362384,0.020836227,1.0318893,0.0,255,0,6,4,0,0,0,1,1,1,36
314079199,314077032,1200.0,0.362384,0.020891966,1.1759193,0.0,255,0,6,4,0,0,0,1,1,1,36
315086907,314077032,1200.0,0.362384,0.04662814,1.1032019,0.0,255,0,6,4,0,0,0,1,1,1,36
315096585,315092047,1200.0,0.362384,0.04662814,1.1032019,0.0,255,0,6,4,0,0,0,1,1,1,36
316090814,316090543,1200.0,0.362384,0.020915583,1.1384053,0.0,255,0,6,4,0,0,0,1,1,1,36
317062965,317057044,1200.0,0.362384,0.020979019,1.1778221,0.0,255,0,6,4,0,0,0,1,1,1,36
318068277,317057044,1200.0,0.362384,0.020809695,1.1138141,0.0,255,0,6,4,0,0,0,1,1,1,36
318115350,318114131,1200.0,0.362384,0.020809695,1.1138141,0.0,255,0,6,4,0,0,0,1,1,1,36
319122590,318114131,1200.0,0.362384,0.020776486,1.5038218,0.0,255,0,6,4,0,0,0,1,1,1,36
319222357,319218298,1200.0,0.362384,0.020776486,1.5038218,0.0,255,0,6,4,0,0,0,1,1,1,36
320182436,320177446,1200.0,0.362384,0.02098489,1.0572387,0.0,255,0,6,4,0,0,0,1,1,1,36
321076251,321075049,1200.0,0.362384,0.020916896,1.1514254,0.0,255,0,6,4,0,0,0,1,1,1,36
322087922,321075049,1200.0,0.362384,0.020866744,1.3225541,0.0,255,0,6,4,0,0,0,1,1,1,36
322097454,322096367,1200.0,0.362384,0.020866744,1.3225541,0.0,255,0,6,4,0,0,0,1,1,1,36
323074449,323072344,1200.0,0.362384,0.0209249,1.0771341,0.0,255,0,6,4,0,0,0,1,1,1,36
324081971,323072344,1200.0,0.362384,0.020961933,1.0391129,0.0,255,0,6,4,0,0,0,1,1,1,36
324174436,324169317,1200.0,0.362384,0.020961933,1.0391129,0.0,255,0,6,4,0,0,0,1,1,1,36
325113791,325108992,1200.0,0.362384,0.04669035,1.2288502,0.0,255,0,6,4,0,0,0,1,1,1,36
326123200,325108992,1200.0,0.362384,0.020982165,1.0590997,0.0,255,0,6,4,0,0,0,1,1,1,36
326174202,326166131,1200.0,0.362384,0.020982165,1.0590997,0.0,255,0,6,4,0,0,0,1,1,1,36
327065414,327057566,1200.0,0.362384,0.020994477,1.1436992,0.0,255,0,6,4,0,0,0,1,1,1,36
