timestamp,error_count,device_id,x,y,z,integral_dt,x_integral,y_integral,z_integral,temperature,scaling,x_raw,y_raw,z_raw
50805781,0,1114658,0.2627846,0.3005494,-10.056185,4175,0.0008457037,0.00052523636,-0.041836243,39.0,0.0071784677,407,521,-953
50903456,0,1114658,0.15930605,0.31738412,-9.988475,4228,0.00073043536,0.0015080655,-0.042785067,39.125,0.0071784677,390,502,-952
51004227,0,1114658,0.09493105,0.3956595,-9.913354,4199,0.00032338497,0.0014447644,-0.041573726,39.0,0.0071784677,391,515,-941
51108178,0,1114658,0.055024527,0.39060315,-9.975014,4167,0.00040332717,0.0019017529,-0.041117683,39.125,0.0071784677,401,520,-922
51208978,0,1114658,0.11995284,0.26549897,-9.993578,4201,0.0012773685,0.00079938176,-0.042045653,39.0,0.0071784677,426,546,-936
51310867,0,1114658,0.1419765,0.27863762,-10.038536,5290,0.0013609893,0.0016259981,-0.05309483,39.125,0.0071784677,409,539,-942
51407427,0,1114658,0.18222368,0.35302597,-10.008281,4200,0.0005783987,0.0016031086,-0.041810647,39.0,0.0071784677,385,504,-954
51513516,0,1114658,0.064812705,0.26566538,-10.027013,4181,0.00041824952,0.0012466582,-0.042260695,39.125,0.0071784677,400,527,-948
51614277,0,1114658,0.06760089,0.2991679,-9.989801,4184,0.00036170415,0.0011873756,-0.041425217,39.25,0.0071784677,389,509,-932
51714027,0,1114658,0.14387605,0.31651962,-9.948675,4200,0.00068781065,0.0011325916,-0.041843537,39.125,0.0071784677,403,512,-941
51815877,0,1114658,0.06445242,0.3151307,-9.877561,5250,0.00045789022,0.0019660452,-0.05196432,39.125,0.0071784677,384,515,-947
51918799,0,1114658,0.12330989,0.3102581,-9.980028,4222,0.0007496095,0.0015653331,-0.042318985,39.125,0.0071784677,396,527,-962
52020642,0,1114658,0.21632026,0.30478153,-9.920391,5265,0.0015408582,0.002649508,-0.051332746,39.0,0.0071784677,381,537,-910
52122477,0,1114658,0.08889179,0.31477785,-9.9942,5238,0.00074361777,0.001947957,-0.052634984,39.125,0.0071784677,396,526,-957
52225388,0,1114658,0.061203863,0.31186017,-9.880429,4207,0.00044390766,0.0010381264,-0.042261258,39.125,0.0071784677,405,504,-956
52325129,0,1114658,0.17083922,0.33535802,-10.000662,4199,0.000257696,0.0015903164,-0.042394515,39.125,0.0071784677,399,504,-971
52425948,0,1114658,0.17156647,0.28731665,-10.029817,4203,0.00031899847,0.001767473,-0.042544104,39.125,0.0071784677,385,496,-986
52525677,0,1114658,0.2059363,0.43921468,-9.881531,5211,0.0009942746,0.0024035,-0.050595473,39.125,0.0071784677,379,539,-900
52631766,0,1114658,0.08496773,0.33830404,-10.062129,4239,0.00015789989,0.0008276463,-0.04319271,39.25,0.0071784677,432,498,-947
52732566,0,1114658,0.17379135,0.3426795,-9.969067,4169,0.0010609805,0.0014081652,-0.04187232,39.25,0.0071784677,389,532,-978
52834377,0,1114658,0.15839268,0.33154485,-10.016308,4164,0.00042698393,0.0016060346,-0.041830324,39.125,0.0071784677,398,508,-953
52935177,0,1114658,0.1524867,0.27009714,-9.995802,4158,0.0004952593,0.0011916471,-0.04141384,39.25,0.0071784677,403,503,-938
53037027,0,1114658,0.20117168,0.37430727,-10.046106,4199,0.0008687919,0.0011318641,-0.041955464,39.25,0.0071784677,420,512,-928
53138940,0,1114658,0.10800781,0.19573157,-10.03658,5313,0.0012793967,0.0017987589,-0.05260974,39.125,0.0071784677,399,546,-948
53239715,0,1114658,0.065576255,0.27751085,-10.072197,4236,0.0002691232,0.0012834404,-0.042133957,39.125,0.0071784677,403,512,-956
53341527,0,1114658,0.07069615,0.39019176,-10.025479,4162,0.00019704444,0.0013860582,-0.041684315,39.125,0.0071784677,409,510,-949
53446527,0,1114658,0.1747175,0.321146,-10.210569,4199,0.00028259092,0.0012926572,-0.04307715,39.125,0.0071784677,392,498,-969
53548431,0,1114658,0.18337873,0.28588313,-10.002662,4253,0.00056684075,0.0010813816,-0.04236601,39.125,0.0071784677,411,519,-951
53644977,0,1114658,0.23264,0.24142471,-9.97183,6287,0.0015950517,0.0015386457,-0.06301354,39.125,0.0071784677,403,521,-969
53746827,0,1114658,0.16138105,0.31167987,-10.037809,6261,0.0014206063,0.0013590954,-0.06400407,39.0,0.0071784677,415,524,-990
53848678,0,1114658,0.10134489,0.27823883,-9.98202,4164,0.00010025265,0.0015646424,-0.041375797,39.125,0.0071784677,386,487,-939
53950527,0,1114658,0.087543406,0.45448962,-10.192939,5206,0.00039364648,0.002262745,-0.05328439,39.25,0.0071784677,387,496,-966
54053454,0,1114658,0.07122975,0.26250926,-9.979028,4227,0.0010696314,0.0006043834,-0.042307865,39.0,0.0071784677,431,533,-961
54155277,0,1114658,0.21362731,0.29409987,-10.022998,4199,0.0004300398,0.0019874687,-0.04210626,39.0,0.0071784677,380,498,-944
54259227,0,1114658,0.09652532,0.3361819,-10.195237,4171,0.0009864387,0.001434407,-0.04311496,39.25,0.0071784677,394,529,-963
54365314,0,1114658,-0.0034301768,0.32977125,-10.068052,5287,-0.00010255087,0.0012890325,-0.05322248,39.125,0.0071784677,395,501,-960
54466136,0,1114658,0.11673912,0.37378988,-10.022643,4259,0.00032578257,0.0012987306,-0.04252954,39.125,0.0071784677,406,509,-965
54567928,0,1114658,0.05250421,0.34844524,-10.108441,4191,0.0006004654,0.0017183358,-0.042591013,39.25,0.0071784677,409,531,-966
54668728,0,1114658,0.17095746,0.334478,-10.062662,4161,0.00080454483,0.001617459,-0.042052254,39.25,0.0071784677,399,517,-954
54770582,0,1114658,0.118744254,0.25546083,-9.862018,4205,0.000630232,0.0011925183,-0.041602384,39.25,0.0071784677,393,523,-939
54872427,0,1114658,0.093254335,0.29270384,-9.923391,4158,0.00040116388,0.0011452578,-0.041479204,39.125,0.0071784677,407,508,-974
54974308,0,1114658,0.1286813,0.31632948,-10.024893,4149,0.00088442676,0.001019746,-0.041282475,39.125,0.0071784677,410,537,-963
55075085,0,1114658,0.1547715,0.38082817,-10.137292,4165,0.0004809803,0.0013062682,-0.042123135,39.125,0.0071784677,409,515,-954
55176927,0,1114658,0.1688365,0.32983857,-9.943688,5150,0.00058114534,0.001223698,-0.051572382,39.125,0.0071784677,412,514,-948
55277727,0,1114658,0.1257322,0.2776507,-9.889343,4179,0.00021641527,0.001461628,-0.041271884,39.125,0.0071784677,397,518,-929
55381677,0,1114658,0.118033804,0.30062923,-9.936629,5250,0.0013017962,0.0009859409,-0.051873878,39.125,0.0071784677,425,527,-939
55484578,0,1114658,0.10598845,0.3332659,-10.136768,4178,0.00088301464,0.0014818299,-0.042636745,39.25,0.0071784677,403,529,-979
55584385,0,1114658,0.12501594,0.31466907,-9.976751,4228,0.0003687754,0.0012602466,-0.042530816,39.0,0.0071784677,399,504,-960
55685131,0,1114658,0.1152678,0.34400466,-9.847214,4204,0.00072689523,0.0019929286,-0.041138537,39.0,0.0071784677,382,524,-935
55786977,0,1114658,-0.018943105,0.38866562,-10.08471,4178,0.000236421,0.0018024541,-0.041641977,39.125,0.0071784677,408,490,-936
55887787,0,1114658,-0.013760378,0.37706372,-10.024098,4209,-9.007792e-05,0.0015462469,-0.04225464,39.125,0.0071784677,397,502,-942
55989658,0,1114658,0.14274754,0.3840614,-10.058983,4220,0.00064120063,0.0018653548,-0.042867173,39.125,0.0071784677,391,516,-978
56091477,0,1114658,0.1776078,0.2693076,-10.053067,5250,0.0016427501,0.0012631431,-0.052568853,39.25,0.0071784677,403,531,-952
56192277,0,1114658,0.048053704,0.33330247,-9.931575,4199,0.000364726,0.0006888752,-0.04190031,39.125,0.0071784677,435,494,-948
56294177,0,1114658,0.18317924,0.2634054,-10.0678,4202,0.0005926661,0.0010838758,-0.041881878,39.25,0.0071784677,412,537,-932
56398115,0,1114658,0.152155,0.41151586,-10.05037,5279,0.0005794034,0.0015375598,-0.052987922,39.125,0.0071784677,408,506,-946
56498903,0,1114658,0.15480393,0.28057626,-10.071371,4226,0.00077270926,0.0012426031,-0.0424954,39.125,0.0071784677,417,529,-964
56602827,0,1114658,0.31434345,0.33975527,-10.033701,5250,0.0012837533,0.0012268436,-0.052448243,39.0,0.0071784677,412,523,-950
56703627,0,1114658,0.16532373,0.22375487,-10.1248045,4200,0.00019085141,0.0014492813,-0.04205547,39.25,0.0071784677,393,506,-942
56805477,0,1114658,0.2139864,0.38861868,-10.040564,4184,0.0009816379,0.0011838148,-0.04174583,39.125,0.0071784677,410,542,-950
56904215,0,1114658,0.09203599,0.35703778,-9.900686,4238,-0.00015713047,0.0015874067,-0.04253151,39.125,0.0071784677,398,481,-951
57006027,0,1114658,0.1315224,0.25946495,-9.993297,5250,0.0010558693,0.0015115679,-0.05176566,39.125,0.0071784677,404,535,-898
57108927,0,1114658,0.33014104,0.361383,-10.007039,4199,0.0012003409,0.0008698178,-0.04288379,39.25,0.0071784677,423,535,-984
57210778,0,1114658,0.094206184,0.22890693,-10.06422,5251,0.00032551575,0.0011622166,-0.05267065,39.25,0.0071784677,427,523,-964
57311606,0,1114658,-0.04507668,0.27723646,-10.003471,4204,-0.00015415545,0.00074553164,-0.04181562,39.125,0.0071784677,410,516,-942
57416578,0,1114658,0.13556147,0.31621146,-9.973666,4170,0.00015968976,0.00084089173,-0.041294143,39.125,0.0071784677,424,501,-934
57516348,0,1114658,0.11845361,0.2703941,-10.167689,4183,0.0008670225,0.0016093542,-0.04230239,39.25,0.0071784677,385,533,-971
57615027,0,1114658,0.27455476,0.31823513,-10.018126,4200,0.00089333346,0.0015711421,-0.04171454,39.125,0.0071784677,382,521,-945
57719020,0,1114658,0.18147834,0.40620312,-10.162658,4220,0.0006034541,0.001295219,-0.04227446,39.125,0.0071784677,399,486,-937
57819787,0,1114658,0.12078268,0.23529243,-10.063449,4187,0.0006186224,0.0012310293,-0.04219792,39.25,0.0071784677,397,515,-972
57921627,0,1114658,0.06497363,0.35683882,-10.0327015,5247,0.00059832865,0.0023434802,-0.05305429,39.25,0.0071784677,389,522,-953
58022427,0,1114658,0.03156789,0.32344487,-9.977514,4158,0.0006362131,0.0011919093,-0.04149847,39.25,0.0071784677,403,527,-947
58123255,0,1114658,0.08641217,0.34596115,-10.0649395,4228,0.00030396017,0.0019884035,-0.043001372,39.25,0.0071784677,382,498,-947
58228269,0,1114658,0.26203182,0.32208547,-9.934252,4233,0.00084631745,0.0011784139,-0.043005522,39.125,0.0071784677,412,515,-974
58326985,0,1114658,0.053521954,0.3439016,-10.116774,6358,0.00021929899,0.0024113932,-0.064488776,39.125,0.0071784677,395,510,-970
58428777,0,1114658,0.1403948,0.47189024,-10.046219,5175,-1.0948888e-05,0.0022431994,-0.05142541,39.125,0.0071784677,394,486,-958
58530627,0,1114658,0.25017506,0.1988637,-9.861907,5214,0.0010539073,0.001800071,-0.051757056,39.25,0.0071784677,395,529,-937
58633527,0,1114658,0.09540405,0.2928614,-9.833992,4162,0.00053493027,0.001229177,-0.04121544,39.125,0.0071784677,403,524,-935
58732227,0,1114658,0.23784462,0.30083397,-9.897122,4182,0.0008281121,0.001653211,-0.04093338,39.125,0.0071784677,391,526,-932
58834119,0,1114658,0.16411698,0.20689109,-10.105755,4242,0.00047048795,0.00054422114,-0.04240531,39.25,0.0071784677,419,511,-955
58934893,0,1114658,0.12556168,0.40322024,-10.016626,6315,0.0008787038,0.0017088007,-0.06352393,39.25,0.0071784677,425,519,-964
59038827,0,1114658,0.11429725,0.2141191,-9.980134,4200,6.4453874e-05,0.0011954976,-0.04245296,39.375,0.0071784677,417,493,-971
59144890,0,1114658,0.058436707,0.29304537,-10.044468,5263,0.00013279302,0.0014301589,-0.0533174,39.25,0.0071784677,382,502,-977
59241477,0,1114658,0.1914585,0.23319258,-9.9945345,4157,0.0009036934,0.00097501016,-0.041785825,39.25,0.0071784677,409,526,-968
59345428,0,1114658,0.08062036,0.27151027,-10.168372,4201,0.0005286572,0.0009714616,-0.04262519,39.25,0.0071784677,415,525,-954
59446227,0,1114658,0.15431936,0.40869537,-10.002463,4200,0.001134459,0.001620947,-0.04202238,39.25,0.0071784677,393,542,-941
59548078,0,1114658,0.2316184,0.32207134,-9.937394,4156,0.00052020815,0.00088474905,-0.041463897,39.25,0.0071784677,399,505,-971
59649926,0,1114658,0.20158298,0.35175353,-10.075653,5199,0.001108392,0.0014694158,-0.05203839,39.125,0.0071784677,420,525,-961
59750761,0,1114658,0.25845706,0.4640432,-10.043846,4234,0.001342024,0.0020289249,-0.043004353,39.25,0.0071784677,381,537,-970
59854677,0,1114658,0.10932862,0.39518175,-9.90696,5249,0.00017849029,0.0025611569,-0.051323503,39.375,0.0071784677,357,501,-924
59951277,0,1114658,0.07256622,0.30705568,-10.063966,4199,0.00029926517,0.0011141464,-0.042400323,39.25,0.0071784677,402,501,-968
60057331,0,1114658,0.13166194,0.27619717,-9.939743,4168,0.00021366433,0.0010224734,-0.041232668,39.25,0.0071784677,403,491,-952
60158170,0,1114658,0.16995837,0.25507268,-10.069292,4206,0.0012677102,0.0009904325,-0.042080984,39.125,0.0071784677,407,528,-929
60259977,0,1114658,0.07436934,0.21197441,-9.913587,4190,0.00042508755,0.0010012155,-0.04101656,39.375,0.0071784677,397,512,-919
60360778,0,1114658,0.1460441,0.29162392,-9.989335,4200,0.0010749438,0.0009471254,-0.04232472,39.375,0.0071784677,403,542,-970
60464728,0,1114658,0.15611093,0.25209355,-10.097351,4176,0.00064728886,0.0016098047,-0.04162433,39.125,0.0071784677,386,510,-935
60562378,0,1114658,0.1611627,0.30937487,-9.986323,4201,0.000106744636,0.0014634986,-0.04145663,39.25,0.0071784677,396,476,-927
60663177,0,1114658,0.09613307,0.32138988,-9.989632,4200,0.0001060823,0.0013804686,-0.042056505,39.25,0.0071784677,399,508,-958
60769227,0,1114658,0.31103006,0.3951207,-9.928353,5249,0.0012508039,0.0020994523,-0.05182446,39.375,0.0071784677,375,527,-940
60872168,0,1114658,0.14188607,0.26562035,-9.962327,4240,0.00042031417,0.0016773733,-0.04225405,39.125,0.0071784677,383,513,-957
60973986,0,1114658,0.16531682,0.3005027,-10.00938,4209,0.00092468044,0.00091780006,-0.042528428,39.125,0.0071784677,421,532,-961
61073727,0,1114658,0.13346116,0.16474593,-10.070812,4200,8.164727e-05,0.0013115592,-0.042126,39.375,0.0071784677,398,485,-958
61174528,0,1114658,0.14588226,0.36120942,-10.161096,4200,0.000862824,0.0016017266,-0.042322174,39.25,0.0071784677,384,525,-958
61280609,0,1114658,0.15590972,0.33246347,-10.076004,4190,0.00060666795,0.0009104661,-0.04223829,39.375,0.0071784677,412,529,-961
61377189,0,1114658,0.012224023,0.3502271,-9.887596,4212,0.0006180713,0.00179217,-0.04173198,39.375,0.0071784677,388,506,-951
61481152,0,1114658,0.11942586,0.3880927,-9.912604,4225,0.0011343427,0.0018830183,-0.042296648,39.375,0.0071784677,381,504,-971
61585078,0,1114658,0.13480055,0.40550417,-10.090909,4160,4.2829575e-05,0.0018333759,-0.041692693,39.125,0.0071784677,391,496,-950
61685877,0,1114658,0.046804596,0.29002744,-10.040025,4200,0.00018865269,0.001265364,-0.04192226,39.5,0.0071784677,397,509,-947
61786677,0,1114658,0.1324201,0.27159917,-9.960648,4186,0.00050752587,0.0011145857,-0.04174392,39.375,0.0071784677,397,530,-958
61890627,0,1114658,0.20442708,0.26321828,-10.081472,4200,0.0005153054,0.0013753144,-0.04214381,39.25,0.0071784677,384,517,-954
61990377,0,1114658,0.1945926,0.34977373,-10.101586,5248,0.00053245685,0.0018643219,-0.053101998,39.25,0.0071784677,396,508,-965
62091177,0,1114658,0.113074966,0.28734916,-9.950072,4200,0.00034547332,0.0012598243,-0.041679133,39.25,0.0071784677,406,502,-958
62193027,0,1114658,0.102626994,0.26476932,-9.970177,4200,0.0005363027,0.0010081916,-0.041580144,39.25,0.0071784677,421,513,-947
62295947,0,1114658,0.13184047,0.3164003,-10.0680485,4176,0.00079318444,0.0015220309,-0.041629218,39.375,0.0071784677,396,515,-922
62397777,0,1114658,0.21351436,0.18507947,-10.043232,4199,0.00076826144,0.000917122,-0.04278965,39.25,0.0071784677,417,518,-979
62498577,0,1114658,0.18312402,0.42061168,-9.909538,4200,0.00012777027,0.0016950286,-0.041574106,39.25,0.0071784677,393,497,-942
62600427,0,1114658,0.20281135,0.27669016,-10.063876,4170,0.0006947992,0.00095784647,-0.042026702,39.375,0.0071784677,413,527,-943
62701227,0,1114658,-0.018254021,0.42558053,-10.020591,4154,0.00045651195,0.0012186536,-0.04149428,39.25,0.0071784677,403,532,-936
62805204,0,1114658,0.14113294,0.30943727,-9.886546,4227,-7.146048e-05,0.0014727076,-0.04174494,39.25,0.0071784677,397,509,-958
62904932,0,1114658,0.079963885,0.2928968,-9.992684,5166,0.000997601,0.0012923881,-0.051802427,39.375,0.0071784677,417,539,-947
63005727,0,1114658,0.14032274,0.31406438,-10.133569,4200,0.00092683383,0.0015075046,-0.04252234,39.25,0.0071784677,405,526,-959
63109678,0,1114658,0.04749487,0.28298128,-10.092417,5251,0.00058774697,0.0016780294,-0.052945286,39.375,0.0071784677,391,525,-981
63210476,0,1114658,0.053433813,0.23255683,-10.201137,4199,0.000109165696,0.0010468983,-0.042393263,39.375,0.0071784677,413,494,-944
63311277,0,1114658,0.088229835,0.13926254,-10.015312,4200,0.0006443435,0.0009968153,-0.04177913,39.25,0.0071784677,387,496,-946
63412079,0,1114658,0.09850039,0.30733126,-9.929657,4202,8.450882e-05,0.0009456346,-0.04172288,39.375,0.0071784677,417,492,-950
63513948,0,1114658,0.3115558,0.39687964,-9.99997,4221,0.0013004472,0.0024877952,-0.04233826,39.375,0.0071784677,370,519,-952
63613702,0,1114658,0.1790032,0.22467181,-10.008872,4224,0.0008176882,0.00093682867,-0.041755114,39.25,0.0071784677,420,507,-931
63718677,0,1114658,0.116998725,0.3878097,-9.997589,4156,0.00068544294,0.0012410659,-0.041345283,39.25,0.0071784677,405,510,-938
63820571,0,1114658,0.2186666,0.20233506,-10.088545,4223,0.0010196662,0.0012937917,-0.042590242,39.25,0.0071784677,390,526,-953
63922378,0,1114658,0.11962274,0.31132153,-10.166523,5227,0.00045615237,0.0018581247,-0.05263453,39.375,0.0071784677,373,495,-952
64023178,0,1114658,0.104480855,0.23913002,-9.983994,4201,0.0005831195,0.0012586982,-0.041895878,39.375,0.0071784677,396,508,-962
64125027,0,1114658,0.052914105,0.37289068,-10.03422,4200,0.00080403377,0.001294559,-0.041965548,39.375,0.0071784677,396,507,-959
64223741,0,1114658,0.02462238,0.27520645,-9.970858,5250,0.00069124764,0.0014177007,-0.05242511,39.25,0.0071784677,394,537,-947
64326627,0,1114658,0.14282455,0.37859818,-9.984306,4200,0.00063756935,0.0020335696,-0.042926002,39.25,0.0071784677,381,537,-964
64428514,0,1114658,0.17607282,0.30105123,-9.96913,4237,0.0005897216,0.0013880332,-0.042508293,39.375,0.0071784677,389,511,-948
64530332,0,1114658,0.18097606,0.30609807,-9.968938,5255,0.00029410367,0.0016666237,-0.05278311,39.375,0.0071784677,395,514,-958
64631163,0,1114658,0.16402271,0.3337493,-10.172206,4223,0.00016689884,0.0018164285,-0.04273695,39.25,0.0071784677,369,518,-963
64732977,0,1114658,0.15619874,0.2190812,-9.81353,4198,0.0007701157,0.0009314179,-0.041459087,39.25,0.0071784677,410,510,-953
64831735,0,1114658,0.28138506,0.46356875,-10.0371,4258,0.0014073002,0.0020262776,-0.04215403,39.25,0.0071784677,392,539,-929
64933541,0,1114658,0.22532351,0.15525109,-9.941859,4166,0.00086079276,0.0011781355,-0.04124571,39.25,0.0071784677,397,537,-932
65035377,0,1114658,0.14161673,0.26981232,-9.945846,5237,0.00041596062,0.0013746961,-0.05182722,39.25,0.0071784677,411,507,-953
65138320,0,1114658,0.13333915,0.33168215,-10.174875,4198,0.0012268728,0.0009089445,-0.043098103,39.25,0.0071784677,417,542,-986
65240158,0,1114658,0.08100742,0.4295943,-10.058658,5264,0.0010957571,0.0021006349,-0.052975703,39.25,0.0071784677,379,513,-956
65340927,0,1114658,-0.00412263,0.3467077,-10.056593,4199,0.00038385345,0.0014299332,-0.0426083,39.375,0.0071784677,401,517,-981
65442800,0,1114658,0.17756,0.26352262,-9.916894,4223,0.00038872295,0.00068844785,-0.042048976,39.5,0.0071784677,424,506,-958
65543612,0,1114658,0.20883814,0.35463172,-10.041457,4235,0.0006076895,0.0016466607,-0.042269032,39.25,0.0071784677,381,502,-960
65645439,0,1114658,0.102223136,0.41554517,-10.069872,4212,0.00041707497,0.0013898454,-0.041945294,39.375,0.0071784677,375,504,-935
65748397,0,1114658,0.23094514,0.363221,-9.918824,4238,0.0006473538,0.0014233745,-0.04239978,39.375,0.0071784677,399,517,-956
65848081,0,1114658,0.021422334,0.33874047,-10.003607,4204,-5.5845183e-05,0.001792517,-0.042099163,39.375,0.0071784677,385,501,-940
65949926,0,1114658,0.06305045,0.29181433,-9.9897585,5249,0.00075818447,0.0021974724,-0.052658442,39.375,0.0071784677,391,521,-971
66050726,0,1114658,0.23400919,0.3064978,-10.118032,4199,0.0008840751,0.0009957948,-0.042330172,39.375,0.0071784677,419,521,-947
66152578,0,1114658,0.28312665,0.3351637,-10.12978,4161,0.0012901234,0.0013551019,-0.042251866,39.375,0.0071784677,387,552,-995
66251326,0,1114658,0.1112878,0.39033595,-10.029238,4249,0.0008706217,0.0014250524,-0.04207901,39.125,0.0071784677,392,529,-936
66357365,0,1114658,0.1659041,0.25576898,-9.9889555,4236,0.000163318,0.0013973807,-0.042362332,39.625,0.0071784677,385,493,-950
66458177,0,1114658,0.032165952,0.35288614,-10.126709,4217,0.0007831782,0.0012242608,-0.041872825,39.375,0.0071784677,393,524,-919
66559979,0,1114658,0.13401322,0.34242272,-10.05156,4186,0.00080948934,0.0015901764,-0.04241159,39.375,0.0071784677,396,523,-978
66660778,0,1114658,0.08230651,0.3501359,-10.029078,4199,0.00028090525,0.0019060969,-0.041612387,39.375,0.0071784677,394,518,-938
66764727,0,1114658,0.19625898,0.324327,-10.015354,4184,0.0010786396,0.0015384674,-0.041414928,39.375,0.0071784677,393,545,-929
66865564,0,1114658,0.09122299,0.32309964,-9.9819565,4199,-0.00012586599,0.0009084024,-0.04262392,39.375,0.0071784677,407,508,-978
66966338,0,1114658,0.16691001,0.3624959,-9.939964,4181,0.00017448928,0.0016352248,-0.041304443,39.375,0.0071784677,388,489,-958
67067155,0,1114658,0.1572072,0.2558726,-9.928137,4188,0.0005832642,0.0014315579,-0.041791607,39.375,0.0071784677,389,536,-958
67167957,0,1114658,0.23717405,0.27447137,-9.98318,6330,0.0017870748,0.0021569815,-0.06240391,39.375,0.0071784677,403,519,-924
67268772,0,1114658,0.18174772,0.2417586,-10.044042,4218,0.00085935363,0.0009849457,-0.04250414,39.375,0.0071784677,419,537,-957
67372713,0,1114658,0.18565184,0.38696018,-9.990318,5261,0.00026869532,0.0029367444,-0.05296355,39.375,0.0071784677,368,508,-944
67471377,0,1114658,0.12726218,0.31959194,-9.932292,4200,0.00015459578,0.0010164888,-0.042128567,39.375,0.0071784677,393,514,-977
67574278,0,1114658,0.102272116,0.105165444,-10.02115,4164,0.0006779719,0.0004409949,-0.04175847,39.375,0.0071784677,419,515,-964
67674027,0,1114658,0.15285563,0.3433344,-9.974231,5249,0.0011707539,0.0019918093,-0.05219786,39.375,0.0071784677,393,531,-958
67779027,0,1114658,0.15935989,0.27500853,-9.862807,4200,0.0011725478,0.0009132472,-0.04115962,39.375,0.0071784677,409,538,-937
67879829,0,1114658,0.08958937,0.26574856,-10.058849,4202,0.0001575747,0.00119973,-0.042053744,39.25,0.0071784677,399,495,-936
67981677,0,1114658,0.06460132,0.22886394,-9.990616,5250,0.0009978025,0.0017419015,-0.051262464,39.375,0.0071784677,375,526,-925
68082500,0,1114658,0.08806223,0.35602918,-9.997409,4179,0.00029975298,0.0017190309,-0.04169621,39.375,0.0071784677,375,495,-948
68185393,0,1114658,0.111959085,0.29248032,-9.920871,4208,0.0002014315,0.0010590231,-0.041022386,39.375,0.0071784677,382,492,-935
69000177,0,1114658,0.2255435,0.2923766,-9.892412,4199,0.00071576587,0.0008146211,-0.04194241,39.375,0.0071784677,421,521,-946
69099927,0,1114658,0.1038459,0.20152724,-9.96504,4192,0.00029795835,0.0011711175,-0.04184429,39.5,0.0071784677,382,508,-959
69203878,0,1114658,0.055699438,0.41673914,-10.037006,5251,-1.1614248e-05,0.0019191408,-0.052502487,39.375,0.0071784677,399,490,-940
69308877,0,1114658,0.20106876,0.2727976,-10.006336,4190,0.00069356407,0.0013079024,-0.041807227,39.375,0.0071784677,396,512,-953
69409677,0,1114658,0.2541431,0.22782382,-10.132425,4199,0.0015658574,0.0010036624,-0.042219836,39.375,0.0071784677,403,552,-955
69511548,0,1114658,0.117943436,0.150389,-10.167377,4221,0.00088974467,0.0007702404,-0.04253004,39.375,0.0071784677,409,535,-949
69613378,0,1114658,0.14871946,0.39987838,-10.06006,5212,0.00044493625,0.0022493943,-0.05225471,39.375,0.0071784677,385,514,-947
69710006,0,1114658,0.11827161,0.34866482,-10.007819,4229,-5.9077494e-05,0.0012347125,-0.042474892,39.375,0.0071784677,409,507,-955
69816045,0,1114658,0.060886223,0.45842955,-10.181421,4218,0.00035509327,0.0020410197,-0.042700887,39.375,0.0071784677,385,533,-968
69913677,0,1114658,0.12567884,0.14220831,-10.166406,5250,0.0002442566,0.0014202028,-0.053087335,39.375,0.0071784677,397,497,-954
70016597,0,1114658,0.19415271,0.52044255,-9.963747,6318,0.0013233097,0.0032036304,-0.06255257,39.375,0.0071784677,388,526,-952
70118427,0,1114658,0.016970703,0.26811647,-10.074266,4200,0.00056033226,0.0010129814,-0.041563977,39.375,0.0071784677,416,516,-936
70220306,0,1114658,0.110862866,0.3097612,-9.985494,5279,-3.4983044e-05,0.0006680562,-0.053112317,39.375,0.0071784677,422,483,-950
70325314,0,1114658,0.13156731,0.17636158,-9.983399,4185,0.0009984064,0.00097004825,-0.04337809,39.375,0.0071784677,383,531,-912
70427157,0,1114658,0.23406462,0.21005642,-9.917695,4214,0.00023923673,0.0011579575,-0.04226232,39.375,0.0071784677,377,477,-984
70526901,0,1114658,0.1231608,0.13205568,-9.979554,5274,0.0015027478,0.001608734,-0.05371726,39.375,0.0071784677,372,566,-938
70631877,0,1114658,0.10482273,0.37475848,-10.082465,4142,0.00091289484,-0.00016831205,-0.040378347,39.375,0.0071784677,420,509,-844
70729527,0,1114658,0.08470985,0.15207227,-9.959537,4161,-2.0683352e-05,-0.0009917539,-0.044335473,39.5,0.0071784677,379,437,-970
70834527,0,1114658,0.018665614,0.16707924,-10.017816,4194,0.0014874315,0.00047329054,-0.04059884,39.375,0.0071784677,353,599,-1129
70936378,0,1114658,-0.1628685,0.27933663,-10.003871,5220,0.006138312,0.0001114356,-0.046297137,39.375,0.0071784677,488,895,-728
71032977,0,1114658,0.32218552,0.13779588,-9.919688,4199,0.004600644,0.008840975,-0.044617724,39.375,0.0071784677,114,449,-906
71136952,0,1114658,0.20102909,0.41047165,-10.395172,4225,0.008071252,0.013597643,-0.04854395,39.375,0.0071784677,239,755,-648
71240877,0,1114658,0.16730107,0.54323286,-9.649537,4196,-0.007059986,-0.009132141,-0.036734544,39.375,0.0071784677,970,827,-850
71341677,0,1114658,0.20812705,-0.041773822,-10.017881,4176,0.002430299,-0.006675416,-0.056594156,39.375,0.0071784677,641,719,-1479
71443555,0,1114658,-0.38713443,0.24176638,-11.143322,4189,-0.0064060576,-0.0076772603,-0.05059269,39.375,0.0071784677,95,963,-582
71543277,0,1114658,-0.07301704,-0.38918063,-9.54098,5221,-0.005907939,-0.006335841,-0.047416076,39.375,0.0071784677,439,449,-1072
71644082,0,1114658,-0.2973267,0.07163549,-9.833303,4204,0.0042436565,0.006241635,-0.041236497,39.5,0.0071784677,544,737,-798
71748028,0,1114658,-0.44009218,-0.24023543,-9.373577,4201,0.010876917,-0.00030513635,-0.029103804,39.375,0.0071784677,573,983,-1022
71844628,0,1114658,-0.1796048,-0.5032357,-6.5123196,4187,0.010143158,-0.006007394,-0.037466526,39.375,0.0071784677,123,756,-1124
71950677,0,1114658,0.8837517,-1.414165,-14.966194,4200,0.004297522,0.00050522474,-0.062138095,39.375,0.0071784677,240,1191,-1877
72052566,0,1114658,-0.036742594,-0.23672968,-11.2886715,4198,-0.006217267,0.001783973,-0.040659882,39.375,0.0071784677,470,265,-682
72153376,0,1114658,-0.15514858,-0.22928433,-9.071026,4225,-0.0084595615,-0.010011962,-0.032576974,39.375,0.0071784677,545,191,-205
72253120,0,1114658,0.051162582,0.07285543,-8.498596,5280,0.0054522553,0.008497595,-0.036970776,39.375,0.0071784677,313,567,-220
72354972,0,1114658,-0.34521902,-0.14572525,-9.503122,5295,-0.0102903005,-0.0045324285,-0.046716433,39.5,0.0071784677,556,347,-802
72455734,0,1114658,0.24507524,-0.17097427,-10.048898,4179,0.009362749,-0.0010184697,-0.046792988,39.5,0.0071784677,484,504,-1543
72556565,0,1114658,0.37439677,0.23665793,-12.002354,4210,-0.013498117,-0.0044391463,-0.048878055,39.375,0.0071784677,555,581,-928
72658390,0,1114658,1.3647345,0.06647435,-8.618488,4205,0.0049090455,-0.0061273365,-0.05099794,39.25,0.0071784677,704,13,-944
72759177,0,1114658,-0.16418678,0.038077198,-9.843162,4186,0.015071277,-0.00842601,-0.042241182,39.375,0.0071784677,712,813,-1404
72862092,0,1114658,-1.0729825,1.51903,-9.931103,6278,0.0058934996,0.02029349,-0.037936646,39.375,0.0071784677,306,905,-735
72963927,0,1114658,1.447001,-0.15641451,-10.078392,5237,0.0034894582,0.0062369136,-0.056194663,39.5,0.0071784677,79,306,-957
73066838,0,1114658,-0.4426554,1.3675866,-9.875671,4211,0.0018866457,-0.0013148247,-0.03374459,39.375,0.0071784677,765,687,-566
73165527,0,1114658,1.0739657,0.16790134,-10.043613,4155,0.008120693,-0.0030432278,-0.051418655,39.5,0.0071784677,129,131,-1558
73269477,0,1114658,-0.13925798,0.5093802,-10.428146,4162,-0.011482512,-0.0006096207,-0.051550847,39.375,0.0071784677,166,220,-794
73370277,0,1114658,-0.4651547,-0.13175966,-10.294287,4131,-0.0010330343,0.0050266935,-0.031680536,39.5,0.0071784677,53,901,-806
73472173,0,1114658,-0.16070361,0.039634366,-10.008531,4246,0.010754875,0.0076941005,-0.038783286,39.5,0.0071784677,233,1200,-692
73572941,0,1114658,-0.8641061,-0.751691,-10.497606,4214,0.0022382909,-0.0075137173,-0.044967763,39.375,0.0071784677,663,809,-35
73674806,0,1114658,-0.34042543,-0.28533813,-10.03793,5279,-0.0072060185,-0.0017688973,-0.06294744,39.5,0.0071784677,501,410,-715
73777677,0,1114658,1.2941447,-0.31706238,-9.900575,6296,0.010184199,0.00441949,-0.076701686,39.375,0.0071784677,407,-93,-1882
73877428,0,1114658,-0.5193457,-0.16041107,-10.1138315,4188,-0.009527761,0.0033546346,-0.040806577,39.375,0.0071784677,646,488,-736
73979277,0,1114658,0.16692565,0.045727838,-9.534642,4200,0.009226115,-0.0030343912,-0.043023698,39.375,0.0071784677,574,416,-776
74080080,0,1114658,-0.05889564,-0.36168718,-10.661132,4202,-0.002194898,0.01342407,-0.037584662,39.5,0.0071784677,51,728,-538
74180877,0,1114658,0.3024441,0.20375657,-10.1540365,4200,-0.0066014673,-0.0010405716,-0.061122,39.5,0.0071784677,605,-214,-582
74284839,0,1114658,0.6435851,-0.6865104,-9.765994,4204,0.011063781,0.0075199017,-0.039990727,39.5,0.0071784677,325,44,-1183
74386677,0,1114658,0.52645874,0.22429806,-10.399451,4198,-0.013791918,0.011483049,-0.04539884,39.375,0.0071784677,500,360,-514
74487477,0,1114658,0.5793854,-0.10956666,-10.28858,4200,-0.008828675,0.0050191735,-0.040523127,39.5,0.0071784677,381,-78,-921
74589384,0,1114658,0.5714289,-0.6600486,-10.313998,5307,-0.0032256478,-0.0057773106,-0.06639223,39.5,0.0071784677,284,24,-858
74689124,0,1114658,0.4122801,0.40523055,-10.866781,4247,-0.013601894,-0.008802525,-0.045296818,39.375,0.0071784677,756,-100,-461
74789881,0,1114658,0.25826335,0.25247386,-10.88769,4204,0.0015724602,-0.009102771,-0.041877385,39.375,0.0071784677,905,634,-691
74891766,0,1114658,-0.34696317,0.6104981,-10.352295,4218,-0.011427352,-0.0028555207,-0.04166036,39.5,0.0071784677,1201,735,-726
74992566,0,1114658,0.8808873,0.26470974,-9.482253,4175,-0.004293414,0.011659585,-0.045184452,39.5,0.0071784677,315,-21,-1727
75096515,0,1114658,0.90032417,-0.041634772,-9.647638,4214,0.018963907,0.012199867,-0.042851117,39.5,0.0071784677,152,197,-1166
75197315,0,1114658,0.33943132,-0.6119722,-10.417851,4230,-0.0015386696,-0.0038421862,-0.053599637,39.5,0.0071784677,552,273,-799
75297047,0,1114658,-0.6092907,0.12725914,-10.018441,4220,-0.0076298867,-0.008397486,-0.02958386,39.375,0.0071784677,694,901,-718
75402027,0,1114658,0.1370442,0.12268002,-9.956199,4200,-0.0070952065,-0.0069549703,-0.048691235,39.375,0.0071784677,374,696,-570
75503878,0,1114658,0.018123187,-0.04175622,-9.253169,4157,0.013393837,0.0041535143,-0.04994847,39.375,0.0071784677,131,691,-1638
75605727,0,1114658,-0.06776817,-0.38904852,-10.705798,5212,-0.0068167485,0.0017223249,-0.05534212,39.5,0.0071784677,164,63,-751
75708644,0,1114658,0.26030862,-0.28890726,-9.486712,6317,0.018822845,-0.0035099958,-0.06045579,39.5,0.0071784677,213,231,-1338
75810477,0,1114658,1.2143449,0.021549577,-9.987847,4200,-0.008890277,-0.0036101255,-0.04784691,39.5,0.0071784677,555,-46,-736
75912354,0,1114658,0.11139811,0.0652847,-10.593707,5276,0.0063837487,0.0030741936,-0.056349877,39.5,0.0071784677,397,599,-1078
76013130,0,1114658,0.45574334,0.42031354,-10.459849,4199,-0.009240881,-7.618652e-05,-0.05038096,39.5,0.0071784677,1045,-85,-898
76117082,0,1114658,-0.105831295,-0.35303396,-9.654315,5210,0.00045771027,0.0060858503,-0.053058527,39.5,0.0071784677,240,441,-1038
76213677,0,1114658,0.3659641,-0.044921584,-9.905773,4162,-0.013019761,0.0039402735,-0.06541443,39.375,0.0071784677,479,8,-1643
76319777,0,1114658,0.19496258,-0.3126487,-9.759904,4229,0.00064735033,0.0027026134,-0.040435396,39.5,0.0071784677,479,15,-870
76418427,0,1114658,0.070739456,-0.58872,-9.227553,6242,0.0041482933,-0.0021096538,-0.062225513,39.375,0.0071784677,533,-278,-1194
76518208,0,1114658,0.34673944,-0.40267408,-10.017573,4188,0.002080048,-0.0030018764,-0.052242305,39.375,0.0071784677,792,109,-1741
76622148,0,1114658,-0.28799975,-0.2737827,-10.423958,5271,-0.017832965,-0.014303451,-0.04818493,39.375,0.0071784677,548,277,-640
76722935,0,1114658,-0.38624647,-0.3501577,-10.610003,4209,-0.0072333887,-0.0017165414,-0.04861225,39.5,0.0071784677,415,613,-572
76824777,0,1114658,-0.8762385,-1.121096,-10.460647,4164,-0.004595494,-0.0019690348,-0.047194853,39.375,0.0071784677,190,655,-965
76927796,0,1114658,-0.45707458,-0.3022419,-10.480838,4318,-0.0049724593,-1.231502e-05,-0.032845847,39.5,0.0071784677,473,948,-483
77029527,0,1114658,-0.40709355,-0.12725843,-9.640537,4162,-0.009907382,-0.0018392849,-0.047570124,39.5,0.0071784677,659,409,-1097
77128269,0,1114658,0.18275882,-0.20081286,-9.355839,4241,0.00077902107,-0.0033113717,-0.045224722,39.5,0.0071784677,614,279,-1588
77230133,0,1114658,0.07765419,0.07783498,-10.365392,4244,-0.0044785975,-0.0017271301,-0.05001981,39.5,0.0071784677,549,205,-1027
77332977,0,1114658,-0.43710455,-0.28470123,-10.5984535,4156,-0.0003247404,0.007616635,-0.047165874,39.5,0.0071784677,346,348,-589
77434827,0,1114658,0.1342496,-0.6152648,-9.564755,4200,0.017650008,0.00014073079,-0.04297036,39.375,0.0071784677,27,940,-1116
77536678,0,1114658,-0.7411049,-0.23565817,-10.153976,5251,-0.010940281,0.0014047843,-0.05363468,39.375,0.0071784677,706,65,-373
77638527,0,1114658,-0.0445445,-0.7180279,-10.357802,5213,-0.014844223,0.005196901,-0.060555052,39.375,0.0071784677,254,111,-979
77739327,0,1114658,-0.21089436,-0.35548332,-10.759221,4166,0.010442724,-0.0018228784,-0.03366381,39.5,0.0071784677,738,726,-821
77841210,0,1114658,-0.2653892,-0.315294,-10.680833,4233,-0.004046883,0.010960449,-0.056351025,39.375,0.0071784677,352,398,-1085
77939878,0,1114658,-0.027097885,-0.08340243,-10.163907,4163,-0.0061060283,-0.0047135917,-0.036060613,39.375,0.0071784677,553,467,-1034
78043868,0,1114658,0.47710764,-0.46237135,-10.085447,4241,-0.0011064601,-0.010170563,-0.044581495,39.5,0.0071784677,985,-128,-1116
78146787,0,1114658,-0.68240476,-0.039432,-10.104611,4260,0.008720704,-0.011142537,-0.028984705,39.375,0.0071784677,944,833,-382
78244400,0,1114658,-0.6550543,0.020315507,-10.106416,4216,-0.0026123587,-0.0073942808,-0.045556474,39.5,0.0071784677,225,1000,-1390
78349378,0,1114658,-0.110998556,-0.5000257,-9.91735,4169,0.005466395,-0.010612826,-0.0350419,39.5,0.0071784677,618,653,-702
78447044,0,1114658,-0.07222076,-0.45644322,-10.048235,4203,-0.00466189,-0.0017620566,-0.040470634,39.5,0.0071784677,321,648,-1273
78549948,0,1114658,0.05208973,0.005982962,-9.842307,4197,0.0016278214,0.0023108271,-0.056047153,39.5,0.0071784677,178,277,-1316
78651795,0,1114658,-0.5916514,0.092517376,-9.664086,4217,-0.009183678,0.0016012023,-0.047222756,39.5,0.0071784677,856,206,-316
78754677,0,1114658,0.19588432,-0.46684065,-9.612869,4200,-0.0024501358,0.009155572,-0.058935262,39.5,0.0071784677,227,-61,-1513
78856565,0,1114658,-0.42646644,0.10122384,-10.481073,4216,0.012468691,0.0006324533,-0.053679325,39.5,0.0071784677,183,817,-1060
78957365,0,1114658,-0.67597866,0.026395082,-10.028534,4214,0.020797346,-0.008259219,-0.03981508,39.5,0.0071784677,806,971,-1353
79057090,0,1114658,-0.48138046,-0.98032314,-9.695684,4213,0.008955226,-0.012365211,-0.03833119,39.5,0.0071784677,213,605,-1038
79161056,0,1114658,-0.05858025,-0.27524856,-10.188725,5279,0.0019231788,0.0023940655,-0.060857944,39.5,0.0071784677,-36,353,-916
79261837,0,1114658,-0.3303605,-0.09440819,-11.115489,4210,0.008769948,0.0004864982,-0.044896495,39.5,0.0071784677,425,459,-489
79363766,0,1114658,-1.187118,-0.60757685,-10.41025,4289,-0.004788729,0.001810163,-0.036424868,39.5,0.0071784677,27,873,-495
79464599,0,1114658,-0.011089271,-0.40970874,-10.151807,4322,-0.0072552306,-0.008436512,-0.049167544,39.5,0.0071784677,622,473,-1336
79567378,0,1114658,-0.33669242,-0.039831955,-10.398091,4169,-0.009023006,0.0055316384,-0.06728008,39.5,0.0071784677,111,2,-890
79669227,0,1114658,-0.98894066,0.11794852,-9.82077,4171,-0.005678347,-0.008390914,-0.050356105,39.5,0.0071784677,630,759,-1229
79770048,0,1114658,-0.5525497,-0.10051565,-9.992317,4221,-0.0047049755,0.00040324414,-0.037707265,39.375,0.0071784677,603,496,-1086
79871878,0,1114658,0.43474644,0.06762541,-10.194344,4164,-0.0065152007,0.00734576,-0.056546785,39.5,0.0071784677,171,-51,-1518
79973727,0,1114658,-0.27014667,-0.2927893,-9.235215,5213,0.014528086,-0.01238504,-0.05079582,39.5,0.0071784677,461,473,-1485
80074527,0,1114658,-0.5489042,-0.060652502,-9.535927,4200,-0.008987199,-0.0022012694,-0.046088893,39.5,0.0071784677,472,456,-1650
80178525,0,1114658,-0.26854154,-0.25288385,-10.423651,5298,-0.016000057,0.009040312,-0.071756676,39.625,0.0071784677,16,216,-1358
80279278,0,1114658,-0.06306453,-0.24270974,-10.206057,4200,0.009295254,0.00013778973,-0.04809555,39.5,0.0071784677,198,580,-1500
80381168,0,1114658,-0.7532938,0.5514377,-9.680433,4241,-0.0040889294,-0.0048761372,-0.036626212,39.5,0.0071784677,860,645,-821
80479860,0,1114658,-0.3680853,0.4063761,-10.849493,5283,-0.0012280386,0.009930855,-0.0650797,39.625,0.0071784677,334,283,-344
80583777,0,1114658,-0.30216536,0.04074332,-9.802726,4168,-0.00711668,0.016070263,-0.034845732,39.375,0.0071784677,238,235,-1194
80684578,0,1114658,-0.4084935,0.9540394,-9.602515,4177,-0.002367525,0.006434437,-0.037160654,39.625,0.0071784677,296,654,-1023
80788528,0,1114658,-0.121406876,-0.057784215,-10.198556,4173,-0.005532926,-0.0046755685,-0.03836604,39.5,0.0071784677,587,186,-1075
81093056,0,1114658,0.36625656,0.22522163,-10.481375,5279,-0.010478176,-0.0020274972,-0.056219533,39.5,0.0071784677,513,-418,-878
81189627,0,1114658,0.0921119,-0.1376839,-10.101477,4200,0.0010551728,0.002940026,-0.04904535,39.5,0.0071784677,311,166,-1381
81295761,0,1114658,-0.42739722,0.24848658,-10.689885,4284,-0.005898068,0.008693246,-0.055656984,39.5,0.0071784677,163,347,-347
81394379,0,1114658,0.18730938,0.41720596,-9.826668,4201,-0.016761094,-0.0025200425,-0.05423921,39.625,0.0071784677,381,-360,-1341
81496227,0,1114658,-0.49544528,0.47445625,-10.39513,4200,-0.0030804765,0.0067369766,-0.042539187,39.5,0.0071784677,159,626,-863
81598134,0,1114658,-0.8112572,0.18996353,-10.429747,5307,-0.01214963,0.007108538,-0.066115595,39.75,0.0071784677,-47,311,-1076
81698940,0,1114658,-0.4765237,-0.16537488,-10.470897,4263,-0.008253057,0.006662336,-0.048879318,39.5,0.0071784677,-38,570,-538
81800727,0,1114658,0.08445227,-0.35548168,-9.592426,4161,-0.0037469522,0.0053627184,-0.054592654,39.5,0.0071784677,-211,-14,-1361
81901527,0,1114658,-0.26498017,0.16078109,-10.320318,4162,0.007761694,0.0019237961,-0.039891038,39.5,0.0071784677,363,576,-1044
82003378,0,1114658,0.06606802,0.28165504,-10.012844,4182,0.012793233,-0.00054447184,-0.042516347,39.5,0.0071784677,525,236,-1250
82104177,0,1114658,-0.31972724,0.03472813,-9.791038,4201,0.008356086,-0.0027799031,-0.026531702,39.625,0.0071784677,445,869,-994
82208157,0,1114658,-0.46566775,0.16952744,-9.412627,4229,0.0069449665,-0.004653168,-0.031931464,39.5,0.0071784677,719,782,-1409
82308927,0,1114658,-0.06295487,0.06857165,-9.636582,4200,-0.021650685,0.0103609115,-0.044999257,39.625,0.0071784677,216,-78,-1157
82410807,0,1114658,-0.45988613,0.3599041,-10.043457,4230,0.004014671,0.008266332,-0.0457468,39.5,0.0071784677,-40,1240,-1735
82512627,0,1114658,-0.07366954,-0.2607454,-10.941279,5249,0.006202395,0.0027553267,-0.0643261,39.625,0.0071784677,485,845,-1523
82614477,0,1114658,-0.05140922,0.42204672,-9.490005,5250,-0.0019292552,-0.0032548492,-0.065063,39.5,0.0071784677,832,166,-1254
82717380,0,1114658,-0.8575775,-0.2706333,-8.831098,4160,0.009931175,0.0025734226,-0.021276275,39.5,0.0071784677,522,1029,-984
82814000,0,1114658,-0.09348283,-0.36748448,-9.801407,4223,-0.004705652,0.0045588114,-0.045300763,39.5,0.0071784677,142,401,-1138
82920027,0,1114658,-0.895412,-0.16670632,-10.551148,4184,-0.0037666748,0.0016495582,-0.039744377,39.625,0.0071784677,417,551,-260
83020827,0,1114658,-0.29047704,-0.05492067,-9.594415,4166,0.0015236468,0.00043146295,-0.04697817,39.625,0.0071784677,638,386,-930
83122677,0,1114658,-0.25723907,-0.18859312,-9.909903,4200,0.00036653245,0.007997782,-0.044102393,39.625,0.0071784677,306,209,-910
83223477,0,1114658,-0.44525993,-0.107023016,-9.941089,4187,-0.010505907,0.0056116562,-0.034721237,39.625,0.0071784677,303,78,-724
83323242,0,1114658,-0.56674105,0.2495012,-10.463974,4188,-0.010302485,-0.004771323,-0.032196272,39.625,0.0071784677,665,1104,-624
83427177,0,1114658,-0.13051307,-0.1612342,-9.73601,5251,-0.0059126224,-0.00040339842,-0.037967566,39.5,0.0071784677,199,-401,-1719
84442527,0,1114658,-0.0060732323,-0.082986504,-10.23316,4200,-0.007920496,0.0049946527,-0.04273431,39.625,0.0071784677,635,-158,-707
84541227,0,1114658,-0.05256019,-0.14427306,-10.174125,6292,-0.0035059294,-0.0016667737,-0.050022397,39.5,0.0071784677,552,537,-970
84643078,0,1114658,0.07385863,-0.2246915,-10.267418,4144,-0.0015178199,0.0043207686,-0.041760445,39.625,0.0071784677,353,558,-1378
84747027,0,1114658,-0.13636546,0.1562788,-10.016588,4200,0.009245703,-0.007287239,-0.034839913,39.625,0.0071784677,745,253,-898
84847827,0,1114658,-0.3011592,-0.5170292,-9.325037,4200,0.014050676,0.00148507,-0.039479055,39.5,0.0071784677,290,340,-1607
84949677,0,1114658,-0.6453556,-0.26570672,-9.954395,4153,0.007595459,-0.009257084,-0.01955412,39.5,0.0071784677,588,1140,-179
85055776,0,1114658,0.08856431,-0.31892446,-8.973734,4243,0.00464391,-0.009651626,-0.04942296,39.5,0.0071784677,240,51,-1888
85156566,0,1114658,-0.89702976,0.3304423,-10.311737,4183,-0.00612286,-0.0056480123,-0.030909568,39.5,0.0071784677,738,973,-547
85258380,0,1114658,-0.3369427,-0.20143978,-10.371097,4180,-0.01980984,-0.004882744,-0.0563183,39.625,0.0071784677,569,387,-1166
85359177,0,1114658,-0.12727728,-0.36690754,-10.303735,4191,0.004630695,-0.00096510473,-0.036258377,39.625,0.0071784677,586,459,-922
85461075,0,1114658,-0.29493463,-0.09733268,-10.541965,4195,-0.0006794628,0.0073462,-0.040937882,39.75,0.0071784677,480,595,-860
85557627,0,1114658,0.071212,-0.42929196,-9.581985,4197,0.01409988,-0.012176863,-0.045927618,39.5,0.0071784677,722,344,-1529
85663715,0,1114658,0.25800115,-0.67426306,-9.393968,4238,0.015753902,-0.003564536,-0.030392082,39.5,0.0071784677,53,425,-893
85765528,0,1114658,-0.63078487,-0.052503485,-9.629304,4163,0.009818839,-0.005257273,-0.03050966,39.625,0.0071784677,721,1270,-1000
85866327,0,1114658,-0.1786287,0.032827776,-10.083251,4180,0.014553837,0.0013857513,-0.036614344,39.5,0.0071784677,547,369,-1884
85972378,0,1114658,-0.20284608,-0.64778835,-10.913403,5219,0.010582984,-0.0008108022,-0.06214188,39.625,0.0071784677,487,612,-1814
86071086,0,1114658,0.018847506,-0.3882196,-10.950495,4149,-0.010709978,0.001318345,-0.05403126,39.5,0.0071784677,409,-209,-1049
86175028,0,1114658,-1.0193781,-0.30775765,-9.907514,4201,0.0016884184,0.001262328,-0.03841694,39.625,0.0071784677,491,1204,-802
86275828,0,1114658,-0.45693645,-0.6213062,-9.462368,4190,-0.016733447,-0.0031506594,-0.03382982,39.625,0.0071784677,543,328,-1384
86376627,0,1114658,0.071101196,-0.33505225,-9.218427,4200,-0.0018119009,0.0068913857,-0.035021313,39.625,0.0071784677,687,188,-956
86478490,0,1114658,0.046149805,0.3151333,-9.778512,4212,0.006331346,-0.0008738291,-0.06334443,39.625,0.0071784677,231,326,-2096
86580348,0,1114658,-0.34725004,-0.74382174,-10.666634,5270,-0.004392713,-0.0063975477,-0.039121516,39.75,0.0071784677,614,845,-741
86681142,0,1114658,-0.23478281,-0.07911889,-10.016697,4168,-0.0021937338,0.0017477672,-0.038695075,39.5,0.0071784677,797,698,-1088
86783019,0,1114658,-0.9355465,-0.21198882,-10.102106,4209,0.0017478748,-0.005638455,-0.028374651,39.75,0.0071784677,745,810,-528
86883778,0,1114658,-0.39172608,-0.36233392,-9.927664,4178,0.0019746958,-0.0024694146,-0.033933062,39.75,0.0071784677,664,735,-924
86985627,0,1114658,-0.5603494,-0.29140785,-9.79898,4200,-0.00967352,-0.0066098757,-0.037791893,39.625,0.0071784677,977,921,-683
87091714,0,1114658,-0.85121554,-0.24880707,-10.020913,5273,-0.01667875,-0.0047016526,-0.062398087,39.625,0.0071784677,921,643,-937
87192570,0,1114658,-0.5920774,-0.20232807,-10.685314,4250,-0.015333983,0.0021628349,-0.04570667,39.625,0.0071784677,738,713,-832
87294327,0,1114658,0.23110299,-0.38921177,-9.779126,4142,-0.013981269,0.000865554,-0.060717795,39.5,0.0071784677,509,-48,-1560
87393027,0,1114658,-0.4381761,-0.31996578,-9.960143,4167,-0.000190105,-0.01214685,-0.0332665,39.625,0.0071784677,816,777,-740
87494934,0,1114658,-0.46230578,-0.04837654,-10.36929,4257,-0.0060077785,-0.00042765195,-0.044761587,39.625,0.0071784677,406,704,-1071
87596728,0,1114658,-0.5368091,-0.38753253,-10.595176,4195,-0.004569355,-0.005955715,-0.036658265,39.625,0.0071784677,644,874,-555
87698577,0,1114658,-0.38673458,-0.4874605,-10.986496,5212,-0.004645566,-0.003972089,-0.059365824,39.625,0.0071784677,606,750,-1084
87801518,0,1114658,-0.22499174,-0.35971746,-11.897038,4204,-0.014411192,0.0001327414,-0.043463916,39.625,0.0071784677,508,197,-629
87903327,0,1114658,-0.5107173,-0.32149175,-10.516978,4169,0.003506533,-0.0050529237,-0.046192244,39.625,0.0071784677,719,931,-1479
88005190,0,1114658,0.21832281,-0.37923747,-10.100443,5263,0.015607866,-0.00806462,-0.060982764,39.625,0.0071784677,414,228,-1204
88108078,0,1114658,-0.13529707,-0.37707493,-10.75253,4196,0.0038261255,0.0022508346,-0.034417246,39.625,0.0071784677,280,561,-522
88205727,0,1114658,-0.37889254,-0.51127315,-10.095648,4200,-0.0024865987,0.0020291538,-0.05216174,39.625,0.0071784677,190,517,-1312
88309677,0,1114658,-0.28923586,-0.04028193,-9.122913,4176,-0.009197722,0.004978534,-0.046836928,39.5,0.0071784677,533,185,-236
88410477,0,1114658,-0.11120032,-0.39642957,-8.210647,4161,-0.018857932,-0.007899862,-0.035062645,39.625,0.0071784677,563,197,-322
88511277,0,1114658,-0.70967394,-0.4376678,-9.237668,4182,-0.011773017,-0.002836678,-0.030161476,39.75,0.0071784677,544,692,-361
88612077,0,1114658,-0.49231273,-0.20478201,-10.329757,5233,-0.0146174375,0.0010708916,-0.06481754,39.5,0.0071784677,552,-352,-1523
88712877,0,1114658,-0.008172507,-0.6634018,-9.944171,4200,0.0049894094,-0.004754244,-0.04806999,39.5,0.0071784677,492,288,-1476
88814764,0,1114658,-0.7264069,-0.44421232,-11.199409,4237,-0.018016534,-0.0025663439,-0.051811866,39.5,0.0071784677,539,721,-634
88919757,0,1114658,0.47394437,-0.68840015,-10.119588,4209,0.015029793,-0.0031036441,-0.05800191,39.75,0.0071784677,323,410,-1431
89017378,0,1114658,0.49325886,-0.30147785,-10.052681,4162,0.010573389,-0.00090923463,-0.04909684,39.75,0.0071784677,510,57,-1566
89118200,0,1114658,0.13558216,-0.6052422,-9.45698,4193,0.0074494043,-0.003149689,-0.046753243,39.75,0.0071784677,500,191,-1606
89220027,0,1114658,-0.14553869,-0.36335596,-9.780682,4200,0.012712422,-0.0051777754,-0.04262293,39.625,0.0071784677,357,782,-1534
89321877,0,1114658,-0.060462695,-0.38945705,-11.911374,5250,-0.005739182,-0.004734937,-0.061710753,39.625,0.0071784677,426,105,-1164
89424777,0,1114658,0.1116333,-0.4436339,-11.259655,4199,0.011574455,-5.7753165e-05,-0.047753185,39.625,0.0071784677,552,333,-1115
89526628,0,1114658,-0.22824022,-0.4374794,-10.772272,4197,-0.0146731995,-0.001328597,-0.042116992,39.625,0.0071784677,440,377,-816
89628558,0,1114658,-0.5693647,0.18642367,-10.104465,3217,0.006432945,0.002904391,-0.017562954,39.625,0.0071784677,343,961,-310
89731377,0,1114658,0.07837515,-0.8639711,-9.616686,4199,0.010975636,0.0024669683,-0.04323786,39.5,0.0071784677,245,234,-1664
89833227,0,1114658,0.25430354,-0.4470925,-10.703681,5250,-0.0070434688,-0.004641929,-0.07539374,39.625,0.0071784677,771,-116,-1186
89934027,0,1114658,0.25751823,-0.94284624,-10.808142,4200,-0.005294773,-0.0024639105,-0.04728214,39.75,0.0071784677,174,-286,-1382
90039041,0,1114658,-0.58069813,0.15102713,-10.07548,4214,0.014822696,-0.004902291,-0.032889623,39.75,0.0071784677,632,1205,-1266
90138827,0,1114658,-0.3418539,-0.8680842,-10.683429,4250,0.0061748,-0.008168808,-0.040039692,39.625,0.0071784677,648,926,-1067
90237477,0,1114658,0.050345276,-1.2351321,-9.749983,4163,0.015375597,-0.0062017227,-0.039702397,39.75,0.0071784677,502,950,-1707
90341429,0,1114658,-0.222907,-0.727869,-9.964309,4202,0.008371803,-0.0092596775,-0.04597559,39.75,0.0071784677,547,524,-754
90444348,0,1114658,0.30912378,0.34508967,-10.397554,4190,0.005829497,0.0021894937,-0.056427035,39.625,0.0071784677,57,-82,-1144
90546206,0,1114658,-0.46271512,-0.71898425,-9.702793,4199,-0.0086612,-0.009986913,-0.045230344,39.625,0.0071784677,619,790,-1136
90645926,0,1114658,-0.093390815,-0.52713966,-9.525558,5223,-0.0064458163,-0.00021308432,-0.044459168,39.625,0.0071784677,603,379,-971
90747778,0,1114658,-0.44417182,-0.49207944,-10.499457,5251,-0.0050013526,-0.00025394556,-0.04704607,39.625,0.0071784677,630,679,-653
90848577,0,1114658,0.3129957,-0.7335113,-10.149231,4169,0.008396266,0.0015277844,-0.044356827,39.75,0.0071784677,353,-229,-1541
90950427,0,1114658,0.030802634,-0.3399804,-9.745301,4194,-0.011290232,-0.004478139,-0.044618167,39.625,0.0071784677,600,357,-1201
91052289,0,1114658,-0.6742011,0.13648747,-10.263994,4212,-0.0143301375,-0.0036116028,-0.037513077,39.5,0.0071784677,341,806,135
91156236,0,1114658,-0.25561398,-0.7967675,-9.5194435,5251,-0.0094126975,-0.0055452585,-0.037360996,39.75,0.0071784677,997,199,-612
91257036,0,1114658,0.51970106,-0.5051165,-8.836803,4209,0.0028251398,0.0036391127,-0.051600967,39.625,0.0071784677,117,-230,-1158
91354677,0,1114658,-0.29907027,-0.63431,-9.16212,5249,-0.0006912033,0.005783187,-0.04364381,39.625,0.0071784677,331,416,-901
91459714,0,1114658,-0.3643706,-0.36152017,-9.270495,4226,-0.004781243,0.0026090553,-0.037165392,39.75,0.0071784677,587,876,-646
91559473,0,1114658,0.08988851,-0.4923568,-8.589092,4246,0.010332491,0.0027605044,-0.046829864,39.625,0.0071784677,227,413,-1444
91661315,0,1114658,-0.09515366,-0.39552483,-9.899216,5288,-0.001142489,0.0010187906,-0.0396789,39.625,0.0071784677,907,316,-608
91764177,0,1114658,-0.18390603,-0.16209452,-9.956115,4200,0.015833933,-0.00062499533,-0.02950344,39.625,0.0071784677,445,464,-1035
91866027,0,1114658,0.1996391,-0.51762176,-10.229892,4200,0.009743335,0.0049433312,-0.057235233,39.75,0.0071784677,-52,453,-1327
91967877,0,1114658,0.15688671,-0.36030245,-9.897527,5250,0.014508961,0.003497169,-0.050637774,39.75,0.0071784677,203,757,-914
92066577,0,1114658,-0.105629124,-0.8351059,-9.853637,4196,0.01535612,-0.0029703134,-0.036653373,39.5,0.0071784677,187,735,-1277
92168427,0,1114658,0.24094856,-0.61115044,-10.136667,4199,0.016414462,-0.00024018445,-0.0478868,39.75,0.0071784677,273,572,-1148
92269227,0,1114658,-0.33911508,-0.1181858,-10.160282,6292,-0.0014518508,-0.0051160916,-0.061637003,39.625,0.0071784677,780,894,-829
92371078,0,1114658,-0.66188073,-0.5378315,-10.083581,4137,0.014858195,-0.004757369,-0.046229295,39.75,0.0071784677,439,1170,-1681
92472927,0,1114658,-0.45908478,-0.24172704,-10.428067,4200,-0.00025919883,-0.0033165219,-0.04698491,39.75,0.0071784677,589,300,-800
92574819,0,1114658,0.22176115,-0.55384564,-10.107778,5292,-0.00792578,0.0038753727,-0.07032391,39.625,0.0071784677,371,-265,-1002
92677690,0,1114658,-1.3183427,-0.9183324,-9.84641,4213,-0.0021042794,0.0045861364,-0.039391812,39.5,0.0071784677,116,792,-625
92779555,0,1114658,-0.11403338,-0.19008411,-10.782455,5267,-0.022103366,-0.0060776416,-0.0657123,39.625,0.0071784677,689,535,-726
92878270,0,1114658,-0.0626459,-0.35956928,-9.758226,4243,0.0020666674,-0.0012120462,-0.067421794,39.625,0.0071784677,199,148,-1331
92980078,0,1114658,-0.4089585,-0.09143125,-10.164905,4196,0.0053038057,-0.009981824,-0.051571622,39.75,0.0071784677,727,457,-1156
93084027,0,1114658,-0.3258155,-0.6021219,-10.526983,4200,-0.007980005,-0.0003587596,-0.041087274,39.75,0.0071784677,274,311,-1394
93181677,0,1114658,-0.24792482,-0.66892636,-9.847925,5250,-0.010991153,-0.002048167,-0.054912083,39.75,0.0071784677,323,158,-1629
93284589,0,1114658,-0.6482551,-0.18998347,-10.097964,4205,-0.002302537,0.0024880522,-0.05318445,39.75,0.0071784677,604,701,-913
93386437,0,1114658,-0.34646687,-0.23488782,-9.579491,5219,0.0029810078,-0.0103814015,-0.052479606,39.75,0.0071784677,633,926,-1107
93489350,0,1114658,-0.48704278,-0.47247976,-10.010956,4195,-0.013428601,-0.013966425,-0.02612039,39.75,0.0071784677,631,401,-288
93589084,0,1114658,-1.1030276,-0.6305716,-10.5684185,4207,-0.0031701182,0.0027758186,-0.04392979,39.625,0.0071784677,342,995,-584
93689877,0,1114658,-0.49611375,-0.3850619,-10.1679735,4200,0.003165415,-0.0033349888,-0.04607442,39.75,0.0071784677,401,809,-1066
93791771,0,1114658,0.11526179,-0.5514003,-10.923794,4216,-0.0046552885,-0.0033604358,-0.049901597,39.625,0.0071784677,401,99,-671
93895714,0,1114658,-0.39468718,-0.4955316,-10.290138,4237,0.0047466094,0.0009332365,-0.034839664,39.75,0.0071784677,453,1090,-1052
93996514,0,1114658,-0.57525253,-0.22721457,-9.407354,4237,-0.006329806,0.006371177,-0.050993193,39.625,0.0071784677,320,676,-1006
94097314,0,1114658,-0.3843886,-0.39735252,-9.911722,4237,-0.0145327095,0.0088926,-0.06805842,39.625,0.0071784677,144,363,-1207
94203329,0,1114658,-0.55012697,-0.24492803,-10.099701,4160,-0.0006679514,0.0013120788,-0.025548246,39.625,0.0071784677,594,618,-116
94305212,0,1114658,0.01848034,-0.2541022,-9.844248,4232,-0.0051219733,0.0067212544,-0.041609537,39.75,0.0071784677,321,-61,-1314
94406006,0,1114658,0.05484352,-0.41137317,-10.286791,4197,-0.01924495,0.008321219,-0.04218018,39.75,0.0071784677,409,-54,-1240
94507838,0,1114658,-0.38876712,-0.3579455,-10.107716,4211,-0.018071365,0.0024055592,-0.038919717,39.625,0.0071784677,315,377,-838
94607582,0,1114658,-0.07200223,-0.057188466,-9.543146,5255,0.005296504,0.009216641,-0.050838456,39.625,0.0071784677,14,55,-1222
94708424,0,1114658,0.41704094,-0.69176596,-9.57597,4247,0.012142167,-0.0028038584,-0.039597057,39.75,0.0071784677,82,-32,-1408
94810228,0,1114658,0.008727394,-0.68745863,-9.94065,4201,0.0046667824,-0.011803705,-0.039761502,39.625,0.0071784677,421,127,-1584
94914251,0,1114658,0.10825402,-0.74763703,-10.083676,3224,-0.009715778,0.0031950127,-0.050243735,39.75,0.0071784677,345,-71,-1462
95014986,0,1114658,0.052139435,-0.36294237,-9.5001745,4190,0.0063732993,-0.0026374299,-0.04153836,39.625,0.0071784677,238,174,-2202
95115778,0,1114658,-0.20557018,-0.33520746,-10.346374,4151,-0.0018846929,-0.010955577,-0.048676483,39.75,0.0071784677,854,390,-1353
95217627,0,1114658,-0.15983017,-0.6493308,-10.053099,4200,0.00440381,-0.005880768,-0.04245227,39.75,0.0071784677,278,475,-1350
95318427,0,1114658,0.06803282,-0.32422245,-9.4695635,4199,-0.0068533206,-0.009403066,-0.060986802,39.625,0.0071784677,571,-174,-1483
95420285,0,1114658,0.184372,-0.38495502,-10.199063,4197,-0.012201922,-0.012833981,-0.050676797,39.625,0.0071784677,683,-8,-1342
95523178,0,1114658,-0.10810138,-0.59413445,-9.785803,4191,-0.006230749,-0.0014249808,-0.044878263,39.75,0.0071784677,207,349,-1462
95625027,0,1114658,0.18272279,-0.6187092,-9.883255,4200,-0.010767274,0.001232285,-0.054607224,39.75,0.0071784677,285,-139,-1309
95722677,0,1114658,-0.16309103,-0.35327482,-10.980121,4200,0.004616366,-0.009246735,-0.048416935,39.75,0.0071784677,622,440,-796
95823477,0,1114658,0.2126061,-0.16700907,-11.577514,4200,-0.015209008,-0.0028864895,-0.050756816,39.75,0.0071784677,641,-273,-1237
95927427,0,1114658,0.018373089,-0.21336931,-11.482145,4200,0.0030507736,-0.003654665,-0.051318042,39.75,0.0071784677,755,136,-674
96028303,0,1114658,-0.39347497,-0.4860236,-11.592744,4276,-0.01599114,0.0026481904,-0.05058787,39.625,0.0071784677,399,398,-1413
96132180,0,1114658,-0.61886126,-0.36829746,-11.434459,4203,-0.009466204,0.0018165827,-0.03756187,39.625,0.0071784677,394,1119,-978
96234027,0,1114658,-0.47000784,-0.50130147,-10.651216,4181,0.007022459,-0.012769817,-0.04660998,39.75,0.0071784677,478,873,-862
96340077,0,1114658,-0.39726064,0.00063065364,-10.481452,5250,-0.0058881193,0.006004114,-0.042689703,39.75,0.0071784677,391,739,-112
96436677,0,1114658,-0.14960873,-0.53197694,-11.509995,4163,0.008385273,-0.00049167534,-0.05215104,39.75,0.0071784677,244,477,-1080
96540627,0,1114658,0.14179851,-0.5022183,-11.252238,4200,0.00092347525,-0.00013185729,-0.06195452,39.625,0.0071784677,522,68,-1353
96641428,0,1114658,0.40214548,-0.15241519,-10.584562,4201,-0.0042061484,-0.0008846252,-0.058698583,39.625,0.0071784677,441,-78,-976
96743277,0,1114658,0.14840662,-0.14179347,-10.400641,4200,-0.009819094,0.0016764748,-0.042448413,39.625,0.0071784677,441,1,-1283
96845152,0,1114658,-0.80311984,-0.1890694,-10.561132,5274,-0.0024930418,-0.0050066956,-0.04980721,39.75,0.0071784677,661,1129,-994
96945948,0,1114658,-0.31142738,-0.5995859,-11.568282,4221,-0.010091071,-0.0015640756,-0.050029647,39.75,0.0071784677,438,73,-603
97047803,0,1114658,-0.13478734,-0.40764794,-12.417027,4199,-0.0053447685,-0.0073271412,-0.05579643,39.625,0.0071784677,438,414,-414
97148624,0,1114658,-0.16199604,-0.31158417,-10.507818,4212,-0.0014843547,-0.006391066,-0.04468325,39.75,0.0071784677,683,517,-1377
97250427,0,1114658,-0.0040834695,-0.21928523,-9.771901,4199,-0.0041094963,-0.0014183999,-0.05811447,39.75,0.0071784677,520,149,-1283
97351227,0,1114658,-0.22647484,-0.23558357,-10.300899,4200,-0.015561011,-0.0018064087,-0.054164473,39.75,0.0071784677,603,180,-606
97459377,0,1114658,-0.14873849,-0.12055126,-10.34777,6279,0.004755248,0.002252769,-0.05542456,39.75,0.0071784677,685,375,-772
97559162,0,1114658,-0.32628384,-0.4459356,-9.729169,4195,0.01268388,-0.000986912,-0.032336272,39.625,0.0071784677,497,901,-958
97659927,0,1114658,-0.3379546,-0.23174931,-10.627362,4162,0.012668607,-0.0013673354,-0.041591506,39.625,0.0071784677,565,1054,-601
97761810,0,1114658,-0.5205505,-0.3119561,-9.639378,4233,0.010755284,-0.006657628,-0.018744199,39.875,0.0071784677,783,934,-610
97862577,0,1114658,0.17796189,-0.24091944,-10.491907,4199,-0.014804192,-0.002407696,-0.045949727,39.75,0.0071784677,619,46,-813
97964449,0,1114658,-0.7634767,-0.36237732,-10.096479,4186,-0.007288225,0.0061249016,-0.040334348,39.625,0.0071784677,281,681,-1159
98066278,0,1114658,-0.55829024,0.02374188,-10.315546,4143,0.0101034595,-0.0060153035,-0.040782277,39.75,0.0071784677,760,848,-710
98168167,0,1114658,0.08434841,-0.2583233,-9.493029,5246,0.014847184,-0.0039012271,-0.03318353,39.75,0.0071784677,513,35,-1006
98271027,0,1114658,0.14770931,-0.016538171,-8.982969,4196,0.0016289689,-0.0015464583,-0.045274023,39.75,0.0071784677,539,103,-1629
98370801,0,1114658,0.58497787,0.08248986,-9.577283,4224,0.00795728,-0.0047714803,-0.04711966,39.75,0.0071784677,475,-446,-1884
98469477,0,1114658,-0.4801993,-0.053842254,-9.585751,4185,0.0047203363,-0.005232387,-0.05108307,39.75,0.0071784677,672,643,-1599
98573427,0,1114658,-0.34997714,-0.120680705,-10.333082,4200,-0.013191951,0.002420391,-0.0355254,39.875,0.0071784677,466,309,-1085
98674237,0,1114658,-0.17391637,0.17941098,-9.914731,4210,-0.015199511,-0.0040745526,-0.04280655,39.625,0.0071784677,770,146,-670
98776077,0,1114658,-0.4590913,0.2707099,-9.652345,4200,-0.008709919,-0.009187057,-0.027123436,39.75,0.0071784677,880,532,-448
98877948,0,1114658,0.08309674,-0.23355922,-9.7079525,5262,0.010175547,-0.0050457027,-0.045071986,39.75,0.0071784677,815,784,-1339
98978726,0,1114658,-0.63288486,-0.098161496,-10.465193,4198,0.012117617,-0.0061661736,-0.03468032,39.875,0.0071784677,751,1330,-748
99080603,0,1114658,-0.35886535,-0.03628449,-10.74328,4219,0.004082237,-0.0025598141,-0.042750597,39.625,0.0071784677,351,987,-817
99184555,0,1114658,0.116251305,-0.07149244,-10.73564,5278,-0.007947434,-0.008080559,-0.063081175,39.75,0.0071784677,599,-254,-1268
99283228,0,1114658,-0.2109619,-0.37187505,-10.55236,4201,-0.013303836,0.0013920866,-0.049686756,39.75,0.0071784677,171,41,-1267
99384027,0,1114658,-0.2983098,-0.066153064,-10.689701,4200,-0.016555324,0.003643285,-0.055375766,40.0,0.0071784677,350,17,-574
99487988,0,1114658,-0.4121665,0.027751673,-9.964987,4185,0.00430019,0.0020961314,-0.04913642,39.75,0.0071784677,707,720,-1800
99587766,0,1114658,0.19008856,-0.23095416,-10.918665,5284,0.006894575,-0.008568431,-0.061765973,39.75,0.0071784677,570,458,-724
99690627,0,1114658,-0.51996857,-0.29173175,-10.69915,4200,-0.00071611116,-0.0027002722,-0.051435042,39.75,0.0071784677,675,737,-1309
99790378,0,1114658,0.21189971,-0.39235947,-10.348564,4182,0.0004114269,-0.004529493,-0.042276964,39.625,0.0071784677,454,216,-965
99891178,0,1114658,-0.6362104,-0.018724155,-10.388773,4200,-0.011601866,0.0049590557,-0.040226214,39.75,0.0071784677,545,710,-894
