timestamp,x,y,z,yaw,yawspeed,vx,vy,vz,acc_x,acc_y,acc_z,jerk_x,jerk_y,jerk_z,thrust[0],thrust[1],thrust[2]
52261328,nan,nan,nan,0.46764535,0.0,nan,nan,nan,0.0,0.0,0.0,0.0,0.0,0.0,0.0,0.0,0.0
52281343,nan,nan,nan,0.46756294,0.0,nan,nan,nan,0.0,0.0,0.0,0.0,0.0,0.0,0.0,0.0,0.0
52381303,nan,nan,nan,0.46719858,0.0,nan,nan,nan,0.0,0.0,0.0,0.0,0.0,0.0,0.0,0.0,0.0
52481450,nan,nan,nan,0.46676734,0.0,nan,nan,nan,0.0,0.0,0.0,0.0,0.0,0.0,0.0,0.0,0.0
52581504,nan,nan,nan,0.46632633,0.0,nan,nan,nan,0.0,0.0,0.0,0.0,0.0,0.0,0.0,0.0,0.0
52681549,nan,nan,nan,0.465772,0.0,nan,nan,nan,0.0,0.0,0.0,0.0,0.0,0.0,0.0,0.0,0.0
52781586,nan,nan,nan,0.4652464,0.0,nan,nan,nan,0.0,0.0,0.0,0.0,0.0,0.0,0.0,0.0,0.0
52881697,nan,nan,nan,0.46468848,0.0,nan,nan,nan,0.0,0.0,0.0,0.0,0.0,0.0,0.0,0.0,0.0
52981798,nan,nan,nan,0.46406284,0.0,nan,nan,nan,0.0,0.0,0.0,0.0,0.0,0.0,0.0,0.0,0.0
53081954,nan,nan,nan,0.46348852,0.0,nan,nan,nan,0.0,0.0,0.0,0.0,0.0,0.0,0.0,0.0,0.0
53182159,nan,nan,nan,0.4629663,0.0,nan,nan,nan,0.0,0.0,0.0,0.0,0.0,0.0,0.0,0.0,0.0
53282260,nan,nan,nan,0.46251252,0.0,nan,nan,nan,0.0,0.0,0.0,0.0,0.0,0.0,0.0,0.0,0.0
53382331,nan,nan,nan,0.46206188,0.0,nan,nan,nan,0.0,0.0,0.0,0.0,0.0,0.0,0.0,0.0,0.0
53482567,nan,nan,nan,0.4616231,0.0,nan,nan,nan,0.0,0.0,0.0,0.0,0.0,0.0,0.0,0.0,0.0
53582565,nan,nan,nan,0.46123174,0.0,nan,nan,nan,0.0,0.0,0.0,0.0,0.0,0.0,0.0,0.0,0.0
53682457,nan,nan,nan,0.4608271,0.0,nan,nan,nan,0.0,0.0,0.0,0.0,0.0,0.0,0.0,0.0,0.0
53802643,nan,nan,nan,0.4603282,0.0,nan,nan,nan,0.0,0.0,0.0,0.0,0.0,0.0,0.0,0.0,0.0
53902728,nan,nan,nan,0.45996594,0.0,nan,nan,nan,0.0,0.0,0.0,0.0,0.0,0.0,0.0,0.0,0.0
54002891,nan,nan,nan,0.45951986,0.0,nan,nan,nan,0.0,0.0,0.0,0.0,0.0,0.0,0.0,0.0,0.0
54103023,nan,nan,nan,0.45909107,0.0,nan,nan,nan,0.0,0.0,0.0,0.0,0.0,0.0,0.0,0.0,0.0
54203141,nan,nan,nan,0.45861343,0.0,nan,nan,nan,0.0,0.0,0.0,0.0,0.0,0.0,0.0,0.0,0.0
54303166,nan,nan,nan,0.4579925,0.0,nan,nan,nan,0.0,0.0,0.0,0.0,0.0,0.0,0.0,0.0,0.0
54403774,nan,nan,nan,0.457328,0.0,nan,nan,nan,0.0,0.0,0.0,0.0,0.0,0.0,0.0,0.0,0.0
54503322,nan,nan,nan,0.45677447,0.0,nan,nan,nan,0.0,0.0,0.0,0.0,0.0,0.0,0.0,0.0,0.0
54603376,nan,nan,nan,0.4563123,0.0,nan,nan,nan,0.0,0.0,0.0,0.0,0.0,0.0,0.0,0.0,0.0
54703588,nan,nan,nan,0.45584875,0.0,nan,nan,nan,0.0,0.0,0.0,0.0,0.0,0.0,0.0,0.0,0.0
54803599,nan,nan,nan,0.45545334,0.0,nan,nan,nan,0.0,0.0,0.0,0.0,0.0,0.0,0.0,0.0,0.0
54903993,nan,nan,nan,0.4550381,0.0,nan,nan,nan,0.0,0.0,0.0,0.0,0.0,0.0,0.0,0.0,0.0
55004097,nan,nan,nan,0.45455965,0.0,nan,nan,nan,0.0,0.0,0.0,0.0,0.0,0.0,0.0,0.0,0.0
55104133,nan,nan,nan,0.4541837,0.0,nan,nan,nan,0.0,0.0,0.0,0.0,0.0,0.0,0.0,0.0,0.0
55224134,nan,nan,nan,0.4537093,0.0,nan,nan,nan,0.0,0.0,0.0,0.0,0.0,0.0,0.0,0.0,0.0
55324171,nan,nan,nan,0.45335,0.0,nan,nan,nan,0.0,0.0,0.0,0.0,0.0,0.0,0.0,0.0,0.0
55424228,nan,nan,nan,0.45301843,0.0,nan,nan,nan,0.0,0.0,0.0,0.0,0.0,0.0,0.0,0.0,0.0
55525161,nan,nan,nan,0.45258108,0.0,nan,nan,nan,0.0,0.0,0.0,0.0,0.0,0.0,0.0,0.0,0.0
55624581,nan,nan,nan,0.45217246,0.0,nan,nan,nan,0.0,0.0,0.0,0.0,0.0,0.0,0.0,0.0,0.0
55724630,nan,nan,nan,0.45176786,0.0,nan,nan,nan,0.0,0.0,0.0,0.0,0.0,0.0,0.0,0.0,0.0
55825199,nan,nan,nan,0.45150995,0.0,nan,nan,nan,0.0,0.0,0.0,0.0,0.0,0.0,0.0,0.0,0.0
55924812,nan,nan,nan,0.45120853,0.0,nan,nan,nan,0.0,0.0,0.0,0.0,0.0,0.0,0.0,0.0,0.0
56025470,nan,nan,nan,0.45078778,0.0,nan,nan,nan,0.0,0.0,0.0,0.0,0.0,0.0,0.0,0.0,0.0
56124914,nan,nan,nan,0.4502768,0.0,nan,nan,nan,0.0,0.0,0.0,0.0,0.0,0.0,0.0,0.0,0.0
56225594,nan,nan,nan,0.44974515,0.0,nan,nan,nan,0.0,0.0,0.0,0.0,0.0,0.0,0.0,0.0,0.0
56345218,nan,nan,nan,0.44919237,0.0,nan,nan,nan,0.0,0.0,0.0,0.0,0.0,0.0,0.0,0.0,0.0
56445412,nan,nan,nan,0.44880563,0.0,nan,nan,nan,0.0,0.0,0.0,0.0,0.0,0.0,0.0,0.0,0.0
56545580,nan,nan,nan,0.44841516,0.0,nan,nan,nan,0.0,0.0,0.0,0.0,0.0,0.0,0.0,0.0,0.0
56645534,nan,nan,nan,0.44797054,0.0,nan,nan,nan,0.0,0.0,0.0,0.0,0.0,0.0,0.0,0.0,0.0
56745584,nan,nan,nan,0.44759166,0.0,nan,nan,nan,0.0,0.0,0.0,0.0,0.0,0.0,0.0,0.0,0.0
56845786,nan,nan,nan,0.44719413,0.0,nan,nan,nan,0.0,0.0,0.0,0.0,0.0,0.0,0.0,0.0,0.0
56945724,nan,nan,nan,0.44682366,0.0,nan,nan,nan,0.0,0.0,0.0,0.0,0.0,0.0,0.0,0.0,0.0
57045834,nan,nan,nan,0.44649208,0.0,nan,nan,nan,0.0,0.0,0.0,0.0,0.0,0.0,0.0,0.0,0.0
57146148,nan,nan,nan,0.44624174,0.0,nan,nan,nan,0.0,0.0,0.0,0.0,0.0,0.0,0.0,0.0,0.0
57246214,nan,nan,nan,0.44592565,0.0,nan,nan,nan,0.0,0.0,0.0,0.0,0.0,0.0,0.0,0.0,0.0
57346271,nan,nan,nan,0.4455633,0.0,nan,nan,nan,0.0,0.0,0.0,0.0,0.0,0.0,0.0,0.0,0.0
57446347,nan,nan,nan,0.4451361,0.0,nan,nan,nan,0.0,0.0,0.0,0.0,0.0,0.0,0.0,0.0,0.0
57546386,nan,nan,nan,0.44475278,0.0,nan,nan,nan,0.0,0.0,0.0,0.0,0.0,0.0,0.0,0.0,0.0
57646417,nan,nan,nan,0.44433203,0.0,nan,nan,nan,0.0,0.0,0.0,0.0,0.0,0.0,0.0,0.0,0.0
57746562,nan,nan,nan,0.44404334,0.0,nan,nan,nan,0.0,0.0,0.0,0.0,0.0,0.0,0.0,0.0,0.0
57866641,nan,nan,nan,0.44376093,0.0,nan,nan,nan,0.0,0.0,0.0,0.0,0.0,0.0,0.0,0.0,0.0
57966905,nan,nan,nan,0.4435863,0.0,nan,nan,nan,0.0,0.0,0.0,0.0,0.0,0.0,0.0,0.0,0.0
58066976,nan,nan,nan,0.44347975,0.0,nan,nan,nan,0.0,0.0,0.0,0.0,0.0,0.0,0.0,0.0,0.0
58167025,nan,nan,nan,0.44337955,0.0,nan,nan,nan,0.0,0.0,0.0,0.0,0.0,0.0,0.0,0.0,0.0
58267164,nan,nan,nan,0.44331717,0.0,nan,nan,nan,0.0,0.0,0.0,0.0,0.0,0.0,0.0,0.0,0.0
58367206,nan,nan,nan,0.44322512,0.0,nan,nan,nan,0.0,0.0,0.0,0.0,0.0,0.0,0.0,0.0,0.0
58467253,nan,nan,nan,0.44310176,0.0,nan,nan,nan,0.0,0.0,0.0,0.0,0.0,0.0,0.0,0.0,0.0
58567414,nan,nan,nan,0.44276613,0.0,nan,nan,nan,0.0,0.0,0.0,0.0,0.0,0.0,0.0,0.0,0.0
58667439,nan,nan,nan,0.44242316,0.0,nan,nan,nan,0.0,0.0,0.0,0.0,0.0,0.0,0.0,0.0,0.0
58767884,nan,nan,nan,0.4420328,0.0,nan,nan,nan,0.0,0.0,0.0,0.0,0.0,0.0,0.0,0.0,0.0
58888034,nan,nan,nan,0.44154665,0.0,nan,nan,nan,0.0,0.0,0.0,0.0,0.0,0.0,0.0,0.0,0.0
58988096,nan,nan,nan,0.44105965,0.0,nan,nan,nan,0.0,0.0,0.0,0.0,0.0,0.0,0.0,0.0,0.0
59088126,nan,nan,nan,0.4407251,0.0,nan,nan,nan,0.0,0.0,0.0,0.0,0.0,0.0,0.0,0.0,0.0
59188148,nan,nan,nan,0.4404058,0.0,nan,nan,nan,0.0,0.0,0.0,0.0,0.0,0.0,0.0,0.0,0.0
59288186,nan,nan,nan,0.44020233,0.0,nan,nan,nan,0.0,0.0,0.0,0.0,0.0,0.0,0.0,0.0,0.0
59388267,nan,nan,nan,0.44004098,0.0,nan,nan,nan,0.0,0.0,0.0,0.0,0.0,0.0,0.0,0.0,0.0
59489020,nan,nan,nan,0.43986744,0.0,nan,nan,nan,0.0,0.0,0.0,0.0,0.0,0.0,0.0,0.0,0.0
59588631,nan,nan,nan,0.4398058,0.0,nan,nan,nan,0.0,0.0,0.0,0.0,0.0,0.0,0.0,0.0,0.0
59688640,nan,nan,nan,0.43968016,0.0,nan,nan,nan,0.0,0.0,0.0,0.0,0.0,0.0,0.0,0.0,0.0
59788771,nan,nan,nan,0.43945408,0.0,nan,nan,nan,0.0,0.0,0.0,0.0,0.0,0.0,0.0,0.0,0.0
59908807,nan,nan,nan,0.4391725,0.0,nan,nan,nan,0.0,0.0,0.0,0.0,0.0,0.0,0.0,0.0,0.0
60009413,nan,nan,nan,0.43891641,0.0,nan,nan,nan,0.0,0.0,0.0,0.0,0.0,0.0,0.0,0.0,0.0
60108918,nan,nan,nan,0.4386653,0.0,nan,nan,nan,0.0,0.0,0.0,0.0,0.0,0.0,0.0,0.0,0.0
60209299,nan,nan,nan,0.43838316,0.0,nan,nan,nan,0.0,0.0,0.0,0.0,0.0,0.0,0.0,0.0,0.0
60309143,nan,nan,nan,0.4381157,0.0,nan,nan,nan,0.0,0.0,0.0,0.0,0.0,0.0,0.0,0.0,0.0
60409407,nan,nan,nan,0.4378773,0.0,nan,nan,nan,0.0,0.0,0.0,0.0,0.0,0.0,0.0,0.0,0.0
60509423,nan,nan,nan,0.43776914,0.0,nan,nan,nan,0.0,0.0,0.0,0.0,0.0,0.0,0.0,0.0,0.0
60609490,nan,nan,nan,0.4377435,0.0,nan,nan,nan,0.0,0.0,0.0,0.0,0.0,0.0,0.0,0.0,0.0
60709561,nan,nan,nan,0.43772188,0.0,nan,nan,nan,0.0,0.0,0.0,0.0,0.0,0.0,0.0,0.0,0.0
60809620,nan,nan,nan,0.437585,0.0,nan,nan,nan,0.0,0.0,0.0,0.0,0.0,0.0,0.0,0.0,0.0
60909682,nan,nan,nan,0.4373476,0.0,nan,nan,nan,0.0,0.0,0.0,0.0,0.0,0.0,0.0,0.0,0.0
61009841,nan,nan,nan,0.43711177,0.0,nan,nan,nan,0.0,0.0,0.0,0.0,0.0,0.0,0.0,0.0,0.0
61109973,nan,nan,nan,0.43686384,0.0,nan,nan,nan,0.0,0.0,0.0,0.0,0.0,0.0,0.0,0.0,0.0
61230152,nan,nan,nan,0.43650815,0.0,nan,nan,nan,0.0,0.0,0.0,0.0,0.0,0.0,0.0,0.0,0.0
61330285,nan,nan,nan,0.4362398,0.0,nan,nan,nan,0.0,0.0,0.0,0.0,0.0,0.0,0.0,0.0,0.0
61430339,nan,nan,nan,0.43592876,0.0,nan,nan,nan,0.0,0.0,0.0,0.0,0.0,0.0,0.0,0.0,0.0
61530354,nan,nan,nan,0.43559784,0.0,nan,nan,nan,0.0,0.0,0.0,0.0,0.0,0.0,0.0,0.0,0.0
61630413,nan,nan,nan,0.43528697,0.0,nan,nan,nan,0.0,0.0,0.0,0.0,0.0,0.0,0.0,0.0,0.0
61730497,nan,nan,nan,0.43500802,0.0,nan,nan,nan,0.0,0.0,0.0,0.0,0.0,0.0,0.0,0.0,0.0
61830601,nan,nan,nan,0.43478227,0.0,nan,nan,nan,0.0,0.0,0.0,0.0,0.0,0.0,0.0,0.0,0.0
61930797,nan,nan,nan,0.43454537,0.0,nan,nan,nan,0.0,0.0,0.0,0.0,0.0,0.0,0.0,0.0,0.0
62030971,nan,nan,nan,0.43424764,0.0,nan,nan,nan,0.0,0.0,0.0,0.0,0.0,0.0,0.0,0.0,0.0
62131010,nan,nan,nan,0.43389815,0.0,nan,nan,nan,0.0,0.0,0.0,0.0,0.0,0.0,0.0,0.0,0.0
62231106,nan,nan,nan,0.43355465,0.0,nan,nan,nan,0.0,0.0,0.0,0.0,0.0,0.0,0.0,0.0,0.0
62331163,nan,nan,nan,0.43322852,0.0,nan,nan,nan,0.0,0.0,0.0,0.0,0.0,0.0,0.0,0.0,0.0
62451274,nan,nan,nan,0.43292224,0.0,nan,nan,nan,0.0,0.0,0.0,0.0,0.0,0.0,0.0,0.0,0.0
62551383,nan,nan,nan,0.432645,0.0,nan,nan,nan,0.0,0.0,0.0,0.0,0.0,0.0,0.0,0.0,0.0
62651431,nan,nan,nan,0.4324134,0.0,nan,nan,nan,0.0,0.0,0.0,0.0,0.0,0.0,0.0,0.0,0.0
62751596,nan,nan,nan,0.43215,0.0,nan,nan,nan,0.0,0.0,0.0,0.0,0.0,0.0,0.0,0.0,0.0
62851998,nan,nan,nan,0.43192026,0.0,nan,nan,nan,0.0,0.0,0.0,0.0,0.0,0.0,0.0,0.0,0.0
62952122,nan,nan,nan,0.4316055,0.0,nan,nan,nan,0.0,0.0,0.0,0.0,0.0,0.0,0.0,0.0,0.0
63052159,nan,nan,nan,0.4313446,0.0,nan,nan,nan,0.0,0.0,0.0,0.0,0.0,0.0,0.0,0.0,0.0
63152189,nan,nan,nan,0.43117353,0.0,nan,nan,nan,0.0,0.0,0.0,0.0,0.0,0.0,0.0,0.0,0.0
63252152,nan,nan,nan,0.43094727,0.0,nan,nan,nan,0.0,0.0,0.0,0.0,0.0,0.0,0.0,0.0,0.0
63352243,nan,nan,nan,0.43069014,0.0,nan,nan,nan,0.0,0.0,0.0,0.0,0.0,0.0,0.0,0.0,0.0
63452255,nan,nan,nan,0.43041834,0.0,nan,nan,nan,0.0,0.0,0.0,0.0,0.0,0.0,0.0,0.0,0.0
63572629,nan,nan,nan,0.43013674,0.0,nan,nan,nan,0.0,0.0,0.0,0.0,0.0,0.0,0.0,0.0,0.0
63673032,nan,nan,nan,0.43000913,0.0,nan,nan,nan,0.0,0.0,0.0,0.0,0.0,0.0,0.0,0.0,0.0
63772721,nan,nan,nan,0.4299252,0.0,nan,nan,nan,0.0,0.0,0.0,0.0,0.0,0.0,0.0,0.0,0.0
63873341,nan,nan,nan,0.42979017,0.0,nan,nan,nan,0.0,0.0,0.0,0.0,0.0,0.0,0.0,0.0,0.0
63972845,nan,nan,nan,0.42960274,0.0,nan,nan,nan,0.0,0.0,0.0,0.0,0.0,0.0,0.0,0.0,0.0
64073314,nan,nan,nan,0.42945197,0.0,nan,nan,nan,0.0,0.0,0.0,0.0,0.0,0.0,0.0,0.0,0.0
64172952,nan,nan,nan,0.4293963,0.0,nan,nan,nan,0.0,0.0,0.0,0.0,0.0,0.0,0.0,0.0,0.0
64273316,nan,nan,nan,0.42933917,0.0,nan,nan,nan,0.0,0.0,0.0,0.0,0.0,0.0,0.0,0.0,0.0
64373196,nan,nan,nan,0.42928535,0.0,nan,nan,nan,0.0,0.0,0.0,0.0,0.0,0.0,0.0,0.0,0.0
64473527,nan,nan,nan,0.42921543,0.0,nan,nan,nan,0.0,0.0,0.0,0.0,0.0,0.0,0.0,0.0,0.0
64593516,nan,nan,nan,0.42905214,0.0,nan,nan,nan,0.0,0.0,0.0,0.0,0.0,0.0,0.0,0.0,0.0
64693560,nan,nan,nan,0.4290247,0.0,nan,nan,nan,0.0,0.0,0.0,0.0,0.0,0.0,0.0,0.0,0.0
64793581,nan,nan,nan,0.42893088,0.0,nan,nan,nan,0.0,0.0,0.0,0.0,0.0,0.0,0.0,0.0,0.0
64893712,nan,nan,nan,0.42884284,0.0,nan,nan,nan,0.0,0.0,0.0,0.0,0.0,0.0,0.0,0.0,0.0
64993777,nan,nan,nan,0.4288259,0.0,nan,nan,nan,0.0,0.0,0.0,0.0,0.0,0.0,0.0,0.0,0.0
65093935,nan,nan,nan,0.42880493,0.0,nan,nan,nan,0.0,0.0,0.0,0.0,0.0,0.0,0.0,0.0,0.0
65194142,nan,nan,nan,0.42883885,0.0,nan,nan,nan,0.0,0.0,0.0,0.0,0.0,0.0,0.0,0.0,0.0
65294216,nan,nan,nan,0.42885134,0.0,nan,nan,nan,0.0,0.0,0.0,0.0,0.0,0.0,0.0,0.0,0.0
65394342,nan,nan,nan,0.4287973,0.0,nan,nan,nan,0.0,0.0,0.0,0.0,0.0,0.0,0.0,0.0,0.0
65494379,nan,nan,nan,0.42866707,0.0,nan,nan,nan,0.0,0.0,0.0,0.0,0.0,0.0,0.0,0.0,0.0
65594426,nan,nan,nan,0.42850786,0.0,nan,nan,nan,0.0,0.0,0.0,0.0,0.0,0.0,0.0,0.0,0.0
65694457,nan,nan,nan,0.4284236,0.0,nan,nan,nan,0.0,0.0,0.0,0.0,0.0,0.0,0.0,0.0,0.0
65814647,nan,nan,nan,0.42829663,0.0,nan,nan,nan,0.0,0.0,0.0,0.0,0.0,0.0,0.0,0.0,0.0
65914730,nan,nan,nan,0.42815447,0.0,nan,nan,nan,0.0,0.0,0.0,0.0,0.0,0.0,0.0,0.0,0.0
66014879,nan,nan,nan,0.42806715,0.0,nan,nan,nan,0.0,0.0,0.0,0.0,0.0,0.0,0.0,0.0,0.0
66114990,nan,nan,nan,0.42794985,0.0,nan,nan,nan,0.0,0.0,0.0,0.0,0.0,0.0,0.0,0.0,0.0
66215114,nan,nan,nan,0.42780706,0.0,nan,nan,nan,0.0,0.0,0.0,0.0,0.0,0.0,0.0,0.0,0.0
66315149,nan,nan,nan,0.4276593,0.0,nan,nan,nan,0.0,0.0,0.0,0.0,0.0,0.0,0.0,0.0,0.0
66415225,nan,nan,nan,0.42756337,0.0,nan,nan,nan,0.0,0.0,0.0,0.0,0.0,0.0,0.0,0.0,0.0
66515302,nan,nan,nan,0.42744276,0.0,nan,nan,nan,0.0,0.0,0.0,0.0,0.0,0.0,0.0,0.0,0.0
66615390,nan,nan,nan,0.4272069,0.0,nan,nan,nan,0.0,0.0,0.0,0.0,0.0,0.0,0.0,0.0,0.0
66715597,nan,nan,nan,0.42693755,0.0,nan,nan,nan,0.0,0.0,0.0,0.0,0.0,0.0,0.0,0.0,0.0
66815909,nan,nan,nan,0.426738,0.0,nan,nan,nan,0.0,0.0,0.0,0.0,0.0,0.0,0.0,0.0,0.0
66916107,nan,nan,nan,0.4266617,0.0,nan,nan,nan,0.0,0.0,0.0,0.0,0.0,0.0,0.0,0.0,0.0
67016158,nan,nan,nan,0.4266485,0.0,nan,nan,nan,0.0,0.0,0.0,0.0,0.0,0.0,0.0,0.0,0.0
67116116,nan,nan,nan,0.42668098,0.0,nan,nan,nan,0.0,0.0,0.0,0.0,0.0,0.0,0.0,0.0,0.0
67236120,nan,nan,nan,0.4267027,0.0,nan,nan,nan,0.0,0.0,0.0,0.0,0.0,0.0,0.0,0.0,0.0
67336189,nan,nan,nan,0.42680544,0.0,nan,nan,nan,0.0,0.0,0.0,0.0,0.0,0.0,0.0,0.0,0.0
67436229,nan,nan,nan,0.42676175,0.0,nan,nan,nan,0.0,0.0,0.0,0.0,0.0,0.0,0.0,0.0,0.0
67536565,nan,nan,nan,0.42668137,0.0,nan,nan,nan,0.0,0.0,0.0,0.0,0.0,0.0,0.0,0.0,0.0
67637522,nan,nan,nan,0.42657694,0.0,nan,nan,nan,0.0,0.0,0.0,0.0,0.0,0.0,0.0,0.0,0.0
67736686,nan,nan,nan,0.42642474,0.0,nan,nan,nan,0.0,0.0,0.0,0.0,0.0,0.0,0.0,0.0,0.0
67837363,nan,nan,nan,0.4262323,0.0,nan,nan,nan,0.0,0.0,0.0,0.0,0.0,0.0,0.0,0.0,0.0
67936781,nan,nan,nan,0.42595756,0.0,nan,nan,nan,0.0,0.0,0.0,0.0,0.0,0.0,0.0,0.0,0.0
68037193,nan,nan,nan,0.42575935,0.0,nan,nan,nan,0.0,0.0,0.0,0.0,0.0,0.0,0.0,0.0,0.0
68136912,nan,nan,nan,0.42555937,0.0,nan,nan,nan,0.0,0.0,0.0,0.0,0.0,0.0,0.0,0.0,0.0
68857685,nan,nan,nan,0.4243314,0.0,nan,nan,nan,0.0,0.0,0.0,0.0,0.0,0.0,0.0,0.0,0.0
68957728,nan,nan,nan,0.42430037,0.0,nan,nan,nan,0.0,0.0,0.0,0.0,0.0,0.0,0.0,0.0,0.0
69057824,nan,nan,nan,0.42416498,0.0,nan,nan,nan,0.0,0.0,0.0,0.0,0.0,0.0,0.0,0.0,0.0
69158133,nan,nan,nan,0.42400852,0.0,nan,nan,nan,0.0,0.0,0.0,0.0,0.0,0.0,0.0,0.0,0.0
69258164,nan,nan,nan,0.42384094,0.0,nan,nan,nan,0.0,0.0,0.0,0.0,0.0,0.0,0.0,0.0,0.0
69358328,nan,nan,nan,0.42362383,0.0,nan,nan,nan,0.0,0.0,0.0,0.0,0.0,0.0,0.0,0.0,0.0
69458401,nan,nan,nan,0.4234444,0.0,nan,nan,nan,0.0,0.0,0.0,0.0,0.0,0.0,0.0,0.0,0.0
69578487,nan,nan,nan,0.42325985,0.0,nan,nan,nan,0.0,0.0,0.0,0.0,0.0,0.0,0.0,0.0,0.0
69678528,nan,nan,nan,0.42308253,0.0,nan,nan,nan,0.0,0.0,0.0,0.0,0.0,0.0,0.0,0.0,0.0
69778561,nan,nan,nan,0.42296836,0.0,nan,nan,nan,0.0,0.0,0.0,0.0,0.0,0.0,0.0,0.0,0.0
69878637,nan,nan,nan,0.42288315,0.0,nan,nan,nan,0.0,0.0,0.0,0.0,0.0,0.0,0.0,0.0,0.0
69978845,nan,nan,nan,0.42276376,0.0,nan,nan,nan,0.0,0.0,0.0,0.0,0.0,0.0,0.0,0.0,0.0
70078920,nan,nan,nan,0.42267132,-0.0,nan,nan,2.3900442,0.0,0.0,0.0,0.0,0.0,0.0,-6.323137e-27,-1.5445393e-26,-0.12
70179014,nan,nan,nan,0.42267132,-0.0,nan,nan,2.2064543,0.0,0.0,0.0,0.0,0.0,0.0,-7.548554e-28,3.913856e-28,-0.12
70279135,nan,nan,0.1484579,0.42267132,-0.0,nan,nan,2.0229764,0.0,0.0,0.0,0.0,0.0,0.0,-7.3218e-30,1.0579603e-29,-0.12
70379174,nan,nan,0.1484579,0.42267132,0.0,nan,nan,1.8395038,0.0,0.0,0.0,0.0,0.0,0.0,5.381429e-31,9.560816e-32,-0.12823984
70479304,nan,nan,0.1484579,0.42267132,0.0,nan,nan,1.655912,0.0,0.0,0.0,0.0,0.0,0.0,1.2217103e-32,-3.6300753e-33,-0.16172478
70579416,nan,nan,nan,0.42267132,-0.0,nan,nan,1.472454,0.0,0.0,0.0,0.0,0.0,0.0,-1.9896714e-34,-4.045496e-34,-0.19918042
70679558,nan,nan,nan,0.42267132,-0.0,nan,nan,1.288919,0.0,0.0,0.0,0.0,0.0,0.0,-9.3825134e-36,-4.1502204e-36,-0.23404598
70799960,nan,nan,nan,0.42267132,-0.0,nan,nan,1.0687704,0.0,0.0,0.0,0.0,0.0,0.0,-2.3330243e-37,2.2648006e-38,-0.2750557
70900044,nan,nan,nan,0.42267132,0.0,nan,nan,0.88512915,0.0,0.0,0.0,0.0,0.0,0.0,9.28013e-40,7.716286e-39,-0.30897945
71000131,nan,nan,nan,0.42267132,0.0,nan,nan,0.7011688,0.0,0.0,0.0,0.0,0.0,0.0,1.18446e-40,9.8789e-41,-0.34279203
71100119,nan,nan,nan,0.42267132,0.0,nan,nan,0.7,0.0,0.0,0.0,0.0,0.0,0.0,3.016e-42,3.3e-43,-0.33783484
71200138,nan,nan,nan,0.42267132,-0.0,nan,nan,0.7,0.0,0.0,0.0,0.0,0.0,0.0,2e-44,-9.7e-44,-0.33733478
71300161,nan,nan,nan,0.42267132,-0.0,nan,nan,0.36336896,0.0,0.0,0.0,0.0,0.0,0.0,-1e-45,-1e-45,-0.40104723
71400197,nan,nan,0.12617573,0.42267132,-0.0,nan,nan,0.0046748966,0.0,0.0,0.0,0.0,0.0,0.0,0.0,0.0,-0.45839766
71501440,nan,nan,0.12617573,0.42267132,0.0,nan,nan,0.025276259,0.0,0.0,0.0,0.0,0.0,0.0,0.0,0.0,-0.44346184
71600541,nan,nan,0.12617573,0.42267132,0.0,nan,nan,0.04956513,0.0,0.0,0.0,0.0,0.0,0.0,0.0,0.0,-0.44432905
71701157,nan,nan,nan,0.42267132,0.0,nan,nan,0.1313782,0.0,0.0,0.0,0.0,0.0,0.0,0.0,0.0,-0.42963618
71800679,nan,nan,nan,0.42267132,0.0,nan,nan,0.46348563,0.0,0.0,0.0,0.0,0.0,0.0,0.0,0.0,-0.37207296
71901504,nan,nan,-0.0014025293,0.42267132,-0.0,nan,nan,0.0,0.0,0.0,0.0,0.0,0.0,0.0,0.0,0.0,-0.5286864
72000785,nan,nan,-0.0014025293,0.42267132,-0.0,nan,nan,0.02347625,0.0,0.0,0.0,0.0,0.0,0.0,0.0,0.0,-0.43349162
72101553,nan,nan,-0.0014025293,0.42267132,0.0,nan,nan,0.07133708,0.0,0.0,0.0,0.0,0.0,0.0,0.0,0.0,-0.40299362
72221015,nan,nan,-0.0014025293,0.42267132,0.0,nan,nan,0.13046345,0.0,0.0,0.0,0.0,0.0,0.0,0.0,0.0,-0.42807442
72321175,nan,nan,-0.0014025293,0.42267132,0.0,nan,nan,0.16678782,0.0,0.0,0.0,0.0,0.0,0.0,0.0,0.0,-0.44887006
72421381,nan,nan,-0.0014025293,0.42267132,-0.0,nan,nan,0.19235992,0.0,0.0,0.0,0.0,0.0,0.0,0.0,0.0,-0.44555956
72521431,nan,nan,nan,0.42267132,-0.0,nan,nan,0.12618797,0.0,0.0,0.0,0.0,0.0,0.0,0.0,0.0,-0.44071093
72621525,nan,nan,nan,0.42267132,-0.0,nan,nan,0.36342943,0.0,0.0,0.0,0.0,0.0,0.0,0.0,0.0,-0.36229184
72721797,nan,nan,nan,0.42267132,0.0,nan,nan,0.43826202,0.0,0.0,0.0,0.0,0.0,0.0,0.0,0.0,-0.35750216
72821612,nan,nan,nan,0.42267132,0.0,nan,nan,0.46795255,0.0,0.0,0.0,0.0,0.0,0.0,0.0,0.0,-0.3306793
72921688,nan,nan,nan,0.42267132,0.0,nan,nan,0.4873349,0.0,0.0,0.0,0.0,0.0,0.0,0.0,0.0,-0.32574433
73021991,nan,nan,nan,0.42267132,0.0,nan,nan,0.38770142,0.0,0.0,0.0,0.0,0.0,0.0,0.0,0.0,-0.35267162
73121992,nan,nan,nan,0.42267132,0.0,nan,nan,0.290062,0.0,0.0,0.0,0.0,0.0,0.0,0.0,0.0,-0.3751159
73222142,nan,nan,nan,0.42267132,0.0,nan,nan,0.137518,0.0,0.0,0.0,0.0,0.0,0.0,0.0,0.0,-0.40858394
73322518,nan,nan,nan,0.42267132,0.0,nan,nan,0.0073676226,0.0,0.0,0.0,0.0,0.0,0.0,0.0,0.0,-0.43615952
73442331,nan,nan,-0.3637333,0.42267132,0.0,nan,nan,0.008104205,0.0,0.0,0.0,0.0,0.0,0.0,0.0,0.0,-0.42971224
73542352,nan,nan,-0.3637333,0.42267132,0.0,nan,nan,0.021868765,0.0,0.0,0.0,0.0,0.0,0.0,0.0,0.0,-0.43043065
73642456,nan,nan,-0.3637333,0.42267132,0.0,nan,nan,0.029195696,0.0,0.0,0.0,0.0,0.0,0.0,0.0,0.0,-0.4350732
73742510,nan,nan,-0.3637333,0.42267132,0.0,nan,nan,0.03727466,0.0,0.0,0.0,0.0,0.0,0.0,0.0,0.0,-0.43288577
73842599,nan,nan,-0.3637333,0.42267132,0.0,nan,nan,0.04181412,0.0,0.0,0.0,0.0,0.0,0.0,0.0,0.0,-0.42881626
73942774,nan,nan,-0.3637333,0.42267132,0.0,nan,nan,0.04841149,0.0,0.0,0.0,0.0,0.0,0.0,0.0,0.0,-0.43059552
74042952,nan,nan,-0.3637333,0.42267132,0.0,nan,nan,0.057588667,0.0,0.0,0.0,0.0,0.0,0.0,0.0,0.0,-0.42647678
74143006,nan,nan,-0.3637333,0.42267132,0.0,nan,nan,0.073066026,0.0,0.0,0.0,0.0,0.0,0.0,0.0,0.0,-0.41836137
74243330,nan,nan,-0.3637333,0.42267132,0.0,nan,nan,0.08135614,0.0,0.0,0.0,0.0,0.0,0.0,0.0,0.0,-0.41825056
74343179,nan,nan,-0.3637333,0.42267132,0.0,nan,nan,0.089557946,0.0,0.0,0.0,0.0,0.0,0.0,-0.0006438474,0.0014314704,-0.4229575
74443235,nan,nan,-0.3637333,0.42267132,0.0,nan,nan,0.09006292,0.0,0.0,0.0,0.0,0.0,0.0,-0.0017259917,0.0038374094,-0.42246255
74543393,nan,nan,-0.3637333,0.42267132,0.0,nan,nan,0.08940509,0.0,0.0,0.0,0.0,0.0,0.0,3.7907157e-05,-8.427924e-05,-0.42432472
74663447,nan,nan,-0.3637333,0.42267132,0.0,nan,nan,0.094987154,0.0,0.0,0.0,0.0,0.0,0.0,2.3938816e-07,-5.3223334e-07,-0.41757318
74764224,nan,nan,-0.3637333,0.42267132,0.0,nan,nan,0.099181205,0.0,0.0,0.0,0.0,0.0,0.0,4.1459987e-09,-9.217827e-09,-0.42005986
74863758,nan,nan,-0.3637333,0.42267132,0.0,nan,nan,0.10511407,0.0,0.0,0.0,0.0,0.0,0.0,-3.4284603e-11,7.622519e-11,-0.41809225
74964353,nan,nan,-0.3637333,0.42267132,0.0,nan,nan,0.112276345,0.0,0.0,0.0,0.0,0.0,0.0,-6.56506e-12,1.4596144e-11,-0.41630784
75063933,nan,nan,-0.3637333,0.42267132,0.0,nan,nan,0.118489504,0.0,0.0,0.0,0.0,0.0,0.0,1.2561055e-13,-2.7927086e-13,-0.4134267
75163982,nan,nan,-0.3637333,0.42267132,0.0,nan,nan,0.124880314,0.0,0.0,0.0,0.0,0.0,0.0,3.926164e-15,-8.729068e-15,-0.40973878
75264132,nan,nan,-0.3637333,0.42267132,0.0,nan,nan,0.12469563,0.0,0.0,0.0,0.0,0.0,0.0,5.8021783e-17,-1.2900025e-16,-0.4138049
75364377,nan,nan,-0.3637333,0.42267132,0.0,nan,nan,0.124150366,0.0,0.0,0.0,0.0,0.0,0.0,-6.9681214e-19,1.5492274e-18,-0.4133228
75464364,nan,nan,-0.3637333,0.42267132,0.0,nan,nan,0.12247431,0.0,0.0,0.0,0.0,0.0,0.0,-1.03523586e-19,2.301647e-19,-0.41252768
75564547,nan,nan,-0.3637333,0.42267132,0.0,nan,nan,0.1188665,0.0,0.0,0.0,0.0,0.0,0.0,-1.0730554e-21,2.3857317e-21,-0.41512412
75664616,nan,nan,-0.3637333,0.42267132,0.0,nan,nan,0.11610848,0.0,0.0,0.0,0.0,0.0,0.0,-4.0793533e-25,9.069655e-25,-0.4127894
75765524,nan,nan,nan,0.42267132,0.0,nan,nan,-0.024032272,0.0,0.0,0.0,0.0,0.0,0.0,1.3225039e-24,-2.9403323e-24,-0.44542864
75864758,nan,nan,nan,0.42267132,0.0,nan,nan,-0.06505457,0.0,0.0,0.0,0.0,0.0,0.0,1.7348837e-26,-3.857179e-26,-0.45455173
75965142,nan,nan,nan,0.42267132,0.0,nan,nan,-0.1145455,0.0,0.0,0.0,0.0,0.0,0.0,-6.802391e-28,1.5123802e-27,-0.45454746
76084924,nan,nan,nan,0.42267132,0.0,nan,nan,-0.11089372,0.0,0.0,0.0,0.0,0.0,0.0,-1.4950802e-29,3.3240224e-29,-0.4546487
76184940,nan,nan,nan,0.42267132,0.0,nan,nan,-0.059421536,0.0,0.0,0.0,0.0,0.0,0.0,-2.2378932e-31,4.975524e-31,-0.4468282
76285362,nan,nan,nan,0.42267132,0.0,nan,nan,-0.0372192,0.0,0.0,0.0,0.0,0.0,0.0,5.6446412e-33,-1.254977e-32,-0.4502047
76386167,nan,nan,-0.43365672,0.42267132,0.0,nan,nan,-0.006036371,0.0,0.0,0.0,0.0,0.0,0.0,1.5182158e-34,-3.3754598e-34,-0.44508502
76485438,nan,nan,-0.43365672,0.42267132,0.0,nan,nan,-0.01570198,0.0,0.0,0.0,0.0,0.0,0.0,1.3551253e-36,-3.0128597e-36,-0.45485225
76585481,nan,nan,-0.43365672,0.42267132,0.0,nan,nan,-0.02515772,0.0,0.0,0.0,0.0,0.0,0.0,-3.8590754e-38,8.579909e-38,-0.45062727
76685541,nan,nan,-0.43365672,0.42267132,0.0,nan,nan,-0.0306983,0.0,0.0,0.0,0.0,0.0,0.0,-1.490539e-39,3.313927e-39,-0.45387515
76785593,nan,nan,-0.43365672,0.42267132,0.0,nan,nan,-0.038662493,0.0,0.0,0.0,0.0,0.0,0.0,-3.168e-41,7.0436e-41,-0.4547904
76885640,nan,nan,-0.43365672,0.42267132,0.0,nan,nan,-0.047498614,0.0,0.0,0.0,0.0,0.0,0.0,1.37e-43,-3.04e-43,-0.45263413
76985762,nan,nan,-0.43365672,0.42267132,0.0,nan,nan,-0.054128706,0.0,0.0,0.0,0.0,0.0,0.0,0.0040025334,0.0018002612,-0.4528602
77085938,nan,nan,-0.43365672,0.42267132,0.0,nan,nan,-0.06032321,0.0,0.0,0.0,0.0,0.0,0.0,0.02360805,0.010618439,-0.4562025
77186112,nan,nan,-0.43365672,0.42267132,0.0,nan,nan,-0.07106987,0.0,0.0,0.0,0.0,0.0,0.0,0.031978067,0.014383108,-0.46138614
77286163,nan,nan,-0.43365672,0.42267132,0.0,nan,nan,-0.077056766,0.0,0.0,0.0,0.0,0.0,0.0,0.03883936,0.017469184,-0.46049556
77386265,nan,nan,-0.43365672,0.42267132,0.0,nan,nan,-0.08001202,0.0,0.0,0.0,0.0,0.0,0.0,0.038680144,0.017397571,-0.45547807
77486570,nan,nan,-0.43365672,0.42267132,0.0,nan,nan,-0.08737099,0.0,0.0,0.0,0.0,0.0,0.0,0.034529842,0.015530848,-0.47059622
77606559,nan,nan,-0.43365672,0.42267132,0.0,nan,nan,-0.1072869,0.0,0.0,0.0,0.0,0.0,0.0,-0.0009497059,-0.00042715913,-0.4772096
77706591,nan,nan,-0.43365672,0.42267132,0.0,nan,nan,-0.12528804,0.0,0.0,0.0,0.0,0.0,0.0,-6.351495e-06,-2.8567779e-06,-0.47609243
77806594,nan,nan,-0.43365672,0.42267132,0.0,nan,nan,-0.14454547,0.0,0.0,0.0,0.0,0.0,0.0,2.5780355e-07,1.1595499e-07,-0.46779978
77906735,nan,nan,-0.43365672,0.42267132,0.0,nan,nan,-0.1577726,0.0,0.0,0.0,0.0,0.0,0.0,0.0049203956,-0.010939494,-0.46515626
78006908,nan,nan,-0.43365672,0.42267132,0.0,nan,nan,-0.1652889,0.0,0.0,0.0,0.0,0.0,0.0,0.022169402,-0.049289387,-0.4668874
78107300,nan,nan,-0.43365672,0.42267132,0.0,nan,nan,-0.16377217,0.0,0.0,0.0,0.0,0.0,0.0,0.03155954,-0.07016656,-0.46562502
78207315,nan,nan,-0.43365672,0.42267132,0.0,nan,nan,-0.15700296,0.0,0.0,0.0,0.0,0.0,0.0,0.027885195,-0.06199735,-0.46070325
78307343,nan,nan,-0.43365672,0.42267132,0.0,nan,nan,-0.15031242,0.0,0.0,0.0,0.0,0.0,0.0,0.02174135,-0.048337698,-0.46598065
78407382,nan,nan,-0.43365672,0.42267132,0.0,nan,nan,-0.14274445,0.0,0.0,0.0,0.0,0.0,0.0,-5.5958662e-05,0.00012441329,-0.46562782
78507343,nan,nan,-0.43365672,0.42267132,0.0,nan,nan,-0.13415304,0.0,0.0,0.0,0.0,0.0,0.0,-5.028373e-06,1.1179616e-05,-0.46399003
78607408,nan,nan,-0.43365672,0.42267132,0.0,nan,nan,-0.12284508,0.0,0.0,0.0,0.0,0.0,0.0,-1.9346507e-07,4.3013225e-07,-0.46101487
78707761,nan,nan,-0.43365672,0.42267132,0.0,nan,nan,-0.116625786,0.0,0.0,0.0,0.0,0.0,0.0,0.0075538247,0.0033975644,-0.4697559
78807850,nan,nan,-0.43365672,0.42267132,0.0,nan,nan,-0.12203264,0.0,0.0,0.0,0.0,0.0,0.0,0.024979927,0.011235481,-0.48253003
78908293,nan,nan,-0.43365672,0.42267132,0.0,nan,nan,-0.13206142,0.0,0.0,0.0,0.0,0.0,0.0,0.035200838,0.015832648,-0.47827515
79029316,nan,nan,-0.43365672,0.42267132,0.0,nan,nan,-0.14198163,0.0,0.0,0.0,0.0,0.0,0.0,0.03425197,0.015405866,-0.4773417
79127948,nan,nan,-0.43365672,0.42267132,0.0,nan,nan,-0.15148535,0.0,0.0,0.0,0.0,0.0,0.0,0.04107681,0.018475544,-0.48586252
79228780,nan,nan,-0.43365672,0.42267132,0.0,nan,nan,-0.16449666,0.0,0.0,0.0,0.0,0.0,0.0,0.04290821,0.019299272,-0.4898111
79328147,nan,nan,-0.43365672,0.42267132,0.0,nan,nan,-0.17461187,0.0,0.0,0.0,0.0,0.0,0.0,-0.0017655315,-0.00079410156,-0.48257455
79428401,nan,nan,-0.43365672,0.42267132,0.0,nan,nan,-0.18077675,0.0,0.0,0.0,0.0,0.0,0.0,0.013188528,-0.02924586,-0.47410652
79528390,nan,nan,-0.43365672,0.42267132,0.0,nan,nan,-0.17974362,0.0,0.0,0.0,0.0,0.0,0.0,0.026898002,-0.078315936,-0.46789476
79628602,nan,nan,-0.43365672,0.42267132,0.0,nan,nan,-0.17868635,0.0,0.0,0.0,0.0,0.0,0.0,0.026847513,-0.11271904,-0.46838567
79728675,nan,nan,-0.43365672,0.42267132,0.0,nan,nan,-0.17548573,0.0,0.0,0.0,0.0,0.0,0.0,0.028219843,-0.112244755,-0.46750537
79828746,nan,nan,-0.43365672,0.42267132,0.0,nan,nan,-0.16609532,0.0,0.0,0.0,0.0,0.0,0.0,0.0356636,-0.102695994,-0.46717682
79928802,nan,nan,-0.43365672,0.42267132,0.0,nan,nan,-0.15705204,0.0,0.0,0.0,0.0,0.0,0.0,0.039718617,-0.096666954,-0.46635064
80028856,nan,nan,-0.43365672,0.42267132,0.0,nan,nan,-0.14814386,0.0,0.0,0.0,0.0,0.0,0.0,0.043512087,-0.09655094,-0.4750765
80128889,nan,nan,-0.43365672,0.42267132,0.0,nan,nan,-0.1440826,0.0,0.0,0.0,0.0,0.0,0.0,0.045099653,-0.10029186,-0.48148778
80249010,nan,nan,-0.43365672,0.42267132,0.0,nan,nan,-0.1392346,0.0,0.0,0.0,0.0,0.0,0.0,0.04343337,-0.09656583,-0.48317596
80349174,nan,nan,-0.43365672,0.42267132,0.0,nan,nan,-0.13639894,0.0,0.0,0.0,0.0,0.0,0.0,0.040817272,-0.09074933,-0.4785124
80449481,nan,nan,-0.43365672,0.42267132,0.0,nan,nan,-0.13597682,0.0,0.0,0.0,0.0,0.0,0.0,0.04031641,-0.08963576,-0.48159415
80549432,nan,nan,-0.43365672,0.42267132,0.0,nan,nan,-0.13477775,0.0,0.0,0.0,0.0,0.0,0.0,0.034154173,-0.07593521,-0.47907886
80649528,nan,nan,-0.43365672,0.42267132,0.0,nan,nan,-0.13216776,0.0,0.0,0.0,0.0,0.0,0.0,-0.00086224976,0.0019170459,-0.48666182
80749545,nan,nan,-0.43365672,0.42267132,0.0,nan,nan,-0.13597667,0.0,0.0,0.0,0.0,0.0,0.0,6.903111e-05,-0.00015347736,-0.4866383
81049810,nan,nan,-0.43365672,0.42267132,0.0,nan,nan,-0.14963979,0.0,0.0,0.0,0.0,0.0,0.0,-1.5575927e-09,3.4630068e-09,-0.49543574
81149997,nan,nan,-0.43365672,0.42267132,0.0,nan,nan,-0.1595447,0.0,0.0,0.0,0.0,0.0,0.0,-1.2735794e-11,2.831558e-11,-0.49306974
81250131,nan,nan,-0.43365672,0.42267132,0.0,nan,nan,-0.16417557,0.0,0.0,0.0,0.0,0.0,0.0,1.1528186e-12,-2.5630698e-12,-0.49300143
81350209,nan,nan,-0.43365672,0.42267132,0.0,nan,nan,-0.16623127,0.0,0.0,0.0,0.0,0.0,0.0,1.9201336e-14,-4.2690464e-14,-0.49064276
81450317,nan,nan,-0.43365672,0.42267132,0.0,nan,nan,-0.16514593,0.0,0.0,0.0,0.0,0.0,0.0,-3.4700753e-16,7.715043e-16,-0.48901674
81550359,nan,nan,-0.43365672,0.42267132,0.0,nan,nan,-0.16823927,0.0,0.0,0.0,0.0,0.0,0.0,-1.1387043e-17,2.5316892e-17,-0.49052063
81670433,nan,nan,-0.43365672,0.42267132,0.0,nan,nan,-0.16603118,0.0,0.0,0.0,0.0,0.0,0.0,-2.2006737e-19,4.8927733e-19,-0.48535407
81770505,nan,nan,-0.43365672,0.42267132,0.0,nan,nan,-0.16313204,0.0,0.0,0.0,0.0,0.0,0.0,1.8171494e-21,-4.0400806e-21,-0.49238655
81870646,nan,nan,-0.43365672,0.42267132,0.0,nan,nan,-0.15740326,0.0,0.0,0.0,0.0,0.0,0.0,1.0494609e-22,-2.3332739e-22,-0.49676237
81970786,nan,nan,-0.43365672,0.42267132,0.0,nan,nan,-0.1506505,0.0,0.0,0.0,0.0,0.0,0.0,3.2284038e-24,-7.177733e-24,-0.4887106
82071191,nan,nan,-0.43365672,0.42267132,0.0,nan,nan,-0.13866797,0.0,0.0,0.0,0.0,0.0,0.0,3.651267e-27,-8.117887e-27,-0.48127335
82171228,nan,nan,-0.43365672,0.42267132,0.0,nan,nan,-0.12351623,0.0,0.0,0.0,0.0,0.0,0.0,-8.172729e-28,1.8170487e-27,-0.48448443
82271342,nan,nan,-0.43365672,0.42208314,-0.15778632,nan,nan,-0.11127487,0.0,0.0,0.0,0.0,0.0,0.0,-2.443931e-29,5.4421634e-29,-0.48964655
82371371,nan,nan,-0.43365672,0.4150517,-0.911837,nan,nan,-0.106206566,0.0,0.0,0.0,0.0,0.0,0.0,-2.9749366e-31,6.7512383e-31,-0.49457484
82471311,nan,nan,-0.43365672,0.36566445,-1.4259908,nan,nan,-0.10204312,0.0,0.0,0.0,0.0,0.0,0.0,4.3272493e-33,-1.1301732e-32,-0.48130932
82571438,nan,nan,-0.43365672,0.26949912,-1.4815378,nan,nan,-0.08671671,0.0,0.0,0.0,0.0,0.0,0.0,3.7112586e-34,-1.3435931e-33,-0.4581775
82671558,nan,nan,-0.43365672,0.15980685,-0.70232624,nan,nan,-0.06567213,0.0,0.0,0.0,0.0,0.0,0.0,2.1865465e-36,-1.3565759e-35,-0.46371114
82773204,nan,nan,-0.43365672,0.08097595,-0.32256064,nan,nan,-0.050650746,0.0,0.0,0.0,0.0,0.0,0.0,-7.862196e-38,9.688066e-37,-0.48043743
82892255,nan,nan,-0.43365672,0.033089574,0.0,nan,nan,-0.030206978,0.0,0.0,0.0,0.0,0.0,0.0,-1.51133e-40,4.565726e-39,-0.47784686
82991926,nan,nan,-0.43365672,0.033089574,0.0,nan,nan,-0.011761636,0.0,0.0,0.0,0.0,0.0,0.0,-7.092e-42,2.1424e-40,-0.47463533
83092536,nan,nan,-0.43365672,-0.007992481,-0.2661313,nan,nan,0.004235029,0.0,0.0,0.0,0.0,0.0,0.0,-7.3e-44,-9.205e-42,-0.47685912
83192043,nan,nan,-0.43365672,-0.040467504,-0.8444428,nan,nan,0.014559209,0.0,0.0,0.0,0.0,0.0,0.0,-8e-45,-1.96e-43,-0.4791291
83292529,nan,nan,-0.43365672,-0.10477803,-1.5141966,nan,nan,0.02473396,0.0,0.0,0.0,0.0,0.0,0.0,-0.0,-3e-45,-0.47669283
83392148,nan,nan,-0.43365672,-0.20861323,-1.5342398,nan,nan,0.037293553,0.0,0.0,0.0,0.0,0.0,0.0,0.0,0.0,-0.4684798
84613464,nan,nan,-0.43365672,-0.6994654,-0.4579717,nan,nan,0.06442544,0.0,0.0,0.0,0.0,0.0,0.0,0.0,0.0,-0.48449376
84713561,nan,nan,-0.43365672,-0.7272994,-0.63498205,nan,nan,0.06499326,0.0,0.0,0.0,0.0,0.0,0.0,0.0,0.0,-0.4813814
84813612,nan,nan,-0.43365672,-0.7718691,-0.8410661,nan,nan,0.068764776,0.0,0.0,0.0,0.0,0.0,0.0,0.0,0.0,-0.47726494
84913674,nan,nan,-0.43365672,-0.83046174,-0.4158366,nan,nan,0.06734237,0.0,0.0,0.0,0.0,0.0,0.0,0.0,0.0,-0.4877798
85013810,nan,nan,-0.43365672,-0.8725771,-0.3144474,nan,nan,0.0583739,0.0,0.0,0.0,0.0,0.0,0.0,0.0,0.0,-0.49524
85113932,nan,nan,-0.43365672,-0.9071891,-0.20025627,nan,nan,0.044636935,0.0,0.0,0.0,0.0,0.0,0.0,0.0,0.0,-0.5005212
85214088,nan,nan,-0.43365672,-0.92441565,0.0,nan,nan,0.031009376,0.0,0.0,0.0,0.0,0.0,0.0,0.0,0.0,-0.4991717
85314243,nan,nan,-0.43365672,-0.92441565,0.0,nan,nan,0.024389684,0.0,0.0,0.0,0.0,0.0,0.0,0.0,0.0,-0.49625877
85414302,nan,nan,-0.43365672,-0.92441565,-0.0,nan,nan,0.018437505,0.0,0.0,0.0,0.0,0.0,0.0,0.0,0.0,-0.489446
85514339,nan,nan,-0.43365672,-0.92441565,-0.0,nan,nan,0.01528886,0.0,0.0,0.0,0.0,0.0,0.0,0.0,0.0,-0.48706058
85614447,nan,nan,-0.43365672,-0.92441565,-0.0,nan,nan,0.011902928,0.0,0.0,0.0,0.0,0.0,0.0,0.0,0.0,-0.48952478
85714470,nan,nan,-0.43365672,-0.92441565,0.0,nan,nan,0.003213495,0.0,0.0,0.0,0.0,0.0,0.0,0.0050044083,0.0037758716,-0.49935552
85834600,nan,nan,-0.43365672,-0.92441565,-0.0,nan,nan,-0.011658013,0.0,0.0,0.0,0.0,0.0,0.0,0.10573248,0.07031966,-0.5050408
85934799,nan,nan,-0.43365672,-0.92441565,0.0,nan,nan,-0.021439105,0.0,0.0,0.0,0.0,0.0,0.0,0.13235477,0.09865759,-0.49128208
86035146,nan,nan,-0.43365672,-0.92441565,0.0,nan,nan,-0.02143237,0.0,0.0,0.0,0.0,0.0,0.0,0.12195909,0.09200471,-0.47220573
86135335,nan,nan,-0.43365672,-0.92441565,-0.0,nan,nan,-0.01002869,0.0,0.0,0.0,0.0,0.0,0.0,0.11340476,0.085565515,-0.46643972
86235373,nan,nan,-0.43365672,-0.92441565,-0.0,nan,nan,-0.00030997396,0.0,0.0,0.0,0.0,0.0,0.0,0.10311816,0.07780361,-0.47474435
86335330,nan,nan,-0.43365672,-0.92441565,0.0,nan,nan,0.004115194,0.0,0.0,0.0,0.0,0.0,0.0,0.045598347,0.03440437,-0.48176864
86435326,nan,nan,-0.43365672,-0.92441565,0.0,nan,nan,-0.0008814633,0.0,0.0,0.0,0.0,0.0,0.0,0.0005353451,0.00040392275,-0.4962557
86535387,nan,nan,-0.43365672,-0.92441565,0.0,nan,nan,-0.010928422,0.0,0.0,0.0,0.0,0.0,0.0,-2.7327793e-05,-2.0619069e-05,-0.49837616
86635531,nan,nan,-0.43365672,-0.92441565,0.0,nan,nan,-0.016394198,0.0,0.0,0.0,0.0,0.0,0.0,-5.3682504e-07,-4.050394e-07,-0.49291322
86735558,nan,nan,-0.43365672,-0.92441565,-0.0,nan,nan,-0.02248317,0.0,0.0,0.0,0.0,0.0,0.0,-7.306055e-09,-5.5124847e-09,-0.4848169
86836921,nan,nan,-0.43365672,-0.92441565,-0.0,nan,nan,-0.029124886,0.0,0.0,0.0,0.0,0.0,0.0,2.4112004e-10,1.8192726e-10,-0.48843095
86935834,nan,nan,-0.43365672,-0.92441565,-0.0,nan,nan,-0.032992303,0.0,0.0,0.0,0.0,0.0,0.0,5.779874e-12,4.3609678e-12,-0.4920747
87036625,nan,nan,-0.43365672,-0.92441565,0.0,nan,nan,-0.03990525,0.0,0.0,0.0,0.0,0.0,0.0,1.5032917e-14,1.1342471e-14,-0.49707937
87156621,nan,nan,-0.43365672,-0.92441565,0.0,nan,nan,-0.0487763,0.0,0.0,0.0,0.0,0.0,0.0,1.0087723e-15,7.611279e-16,-0.49932003
87256027,nan,nan,-0.43365672,-0.92441565,0.0,nan,nan,-0.05327323,0.0,0.0,0.0,0.0,0.0,0.0,-5.859382e-17,-4.420957e-17,-0.49505442
87356156,nan,nan,-0.43365672,-0.92441565,0.0,nan,nan,-0.056245714,0.0,0.0,0.0,0.0,0.0,0.0,-1.1153358e-18,-8.4153106e-19,-0.49811232
87456212,nan,nan,nan,-0.92441565,-0.0,nan,nan,-0.06984758,0.0,0.0,0.0,0.0,0.0,0.0,-1.4638299e-20,-1.104473e-20,-0.49850774
87556499,nan,nan,nan,-0.92441565,-0.0,nan,nan,-0.13679591,0.0,0.0,0.0,0.0,0.0,0.0,5.5526735e-22,4.1895428e-22,-0.5054305
87656591,nan,nan,nan,-0.92441565,-0.0,nan,nan,-0.21338113,0.0,0.0,0.0,0.0,0.0,0.0,1.25759574e-23,9.4886746e-24,-0.51063544
87756659,nan,nan,nan,-0.92441565,0.0,nan,nan,-0.33150917,0.0,0.0,0.0,0.0,0.0,0.0,-5.569809e-27,-4.2024766e-27,-0.515225
87856732,nan,nan,nan,-0.92441565,0.0,nan,nan,-0.43178135,0.0,0.0,0.0,0.0,0.0,0.0,-4.6516793e-27,-3.5097346e-27,-0.5134331
87956760,nan,nan,nan,-0.92441565,0.0,nan,nan,-0.4506466,0.0,0.0,0.0,0.0,0.0,0.0,-2.281275e-28,-1.7212428e-28,-0.5007364
88056837,nan,nan,nan,-0.92441565,0.0,nan,nan,-0.45685577,0.0,0.0,0.0,0.0,0.0,0.0,-1.2502457e-30,-9.433218e-31,-0.49626905
88156903,nan,nan,nan,-0.92441565,0.0,nan,nan,-0.4493663,0.0,0.0,0.0,0.0,0.0,0.0,1.97841e-31,1.4927283e-31,-0.49202383
88257022,nan,nan,nan,-0.92441565,0.0,nan,nan,-0.23559579,0.0,0.0,0.0,0.0,0.0,0.0,2.6856347e-33,2.0263357e-33,-0.44514942
88357184,nan,nan,-0.55860466,-0.92441565,0.0,nan,nan,0.0,0.0,0.0,0.0,0.0,0.0,0.0,-6.748374e-35,-5.09171e-35,-0.4270848
88457364,nan,nan,-0.55860466,-0.92441565,0.0,nan,nan,0.009059012,0.0,0.0,0.0,0.0,0.0,0.0,-1.971873e-36,-1.4877961e-36,-0.46973604
88557434,nan,nan,-0.55860466,-0.92441565,0.0,nan,nan,-0.005622804,0.0,0.0,0.0,0.0,0.0,0.0,-1.6260101e-38,-1.2268392e-38,-0.5029822
88677539,nan,nan,-0.55860466,-0.92441565,0.0,nan,nan,-0.028443694,0.0,0.0,0.0,0.0,0.0,0.0,-4.43926e-40,-3.34947e-40,-0.5089399
88777569,nan,nan,-0.55860466,-0.92441565,0.0,nan,nan,-0.044927716,0.0,0.0,0.0,0.0,0.0,0.0,2.0501e-41,1.5468e-41,-0.5033108
88877631,nan,nan,-0.55860466,-0.92441565,0.0,nan,nan,-0.056471944,0.0,0.0,0.0,0.0,0.0,0.0,4.02e-43,3.04e-43,-0.49647826
88977725,nan,nan,-0.55860466,-0.92441565,0.0,nan,nan,-0.065730035,0.0,0.0,0.0,0.0,0.0,0.0,-3e-45,-1e-45,-0.4934715
89077832,nan,nan,nan,-0.92441565,0.0,nan,nan,-0.006604667,0.0,0.0,0.0,0.0,0.0,0.0,-1e-45,-0.0,-0.4770332
89178108,nan,nan,nan,-0.92441565,0.0,nan,nan,-0.18033671,0.0,0.0,0.0,0.0,0.0,0.0,0.0,0.0,-0.51742226
89278165,nan,nan,nan,-0.92441565,0.0,nan,nan,-0.2910142,0.0,0.0,0.0,0.0,0.0,0.0,0.0,0.0,-0.5281326
89378273,nan,nan,nan,-0.92441565,0.0,nan,nan,-0.35398293,0.0,0.0,0.0,0.0,0.0,0.0,0.0,0.0,-0.511491
89478432,nan,nan,nan,-0.92441565,0.0,nan,nan,-0.36757594,0.0,0.0,0.0,0.0,0.0,0.0,0.00014426555,0.00010884967,-0.49227884
89578463,nan,nan,nan,-0.92441565,0.0,nan,nan,-0.38436145,0.0,0.0,0.0,0.0,0.0,0.0,0.029695176,0.022405282,-0.4882883
89678495,nan,nan,nan,-0.92441565,0.0,nan,nan,-0.38572875,0.0,0.0,0.0,0.0,0.0,0.0,0.07245378,0.05466704,-0.48797515
89778541,nan,nan,nan,-0.92441565,0.0,nan,nan,-0.3835389,0.0,0.0,0.0,0.0,0.0,0.0,0.1165243,0.08791865,-0.49006954
89878735,nan,nan,nan,-0.92441565,0.0,nan,nan,-0.357022,0.0,0.0,0.0,0.0,0.0,0.0,0.1303477,0.09834852,-0.4800499
89978811,nan,nan,nan,-0.92441565,0.0,nan,nan,-0.3587227,0.0,0.0,0.0,0.0,0.0,0.0,0.14400758,0.108655035,-0.47592717
90079211,nan,nan,nan,-0.92441565,0.0,nan,nan,-0.35865155,0.0,0.0,0.0,0.0,0.0,0.0,0.14951956,0.112813875,-0.4773574
90199320,nan,nan,nan,-0.92441565,0.0,nan,nan,-0.37039763,0.0,0.0,0.0,0.0,0.0,0.0,0.093767576,0.07074849,-0.47901168
90299328,nan,nan,nan,-0.92441565,0.0,nan,nan,-0.37394136,0.0,0.0,0.0,0.0,0.0,0.0,0.04040914,0.030489065,-0.4856479
90399356,nan,nan,nan,-0.92441565,0.0,nan,nan,-0.40400594,0.0,0.0,0.0,0.0,0.0,0.0,0.0008896851,0.0006712756,-0.49739513
90499378,nan,nan,nan,-0.92441565,0.0,nan,nan,-0.40238988,0.0,0.0,0.0,0.0,0.0,0.0,5.563368e-06,4.197612e-06,-0.48978746
90599387,nan,nan,nan,-0.92441565,0.0,nan,nan,-0.4111863,0.0,0.0,0.0,0.0,0.0,0.0,-0.0036248043,-0.002734948,-0.494343
90699553,nan,nan,nan,-0.92441565,0.0,nan,nan,-0.42202443,0.0,0.0,0.0,0.0,0.0,0.0,-0.04928906,-0.037189044,-0.50099146
90799785,nan,nan,nan,-0.92441565,0.0,nan,nan,-0.41773412,0.0,0.0,0.0,0.0,0.0,0.0,-0.082253076,-0.061679415,-0.48854488
90900701,nan,nan,nan,-0.92441565,0.0,nan,nan,-0.40276775,0.0,0.0,0.0,0.0,0.0,0.0,-0.042503454,-0.0320682,-0.47544482
90999915,nan,nan,nan,-0.92441565,0.0,nan,nan,-0.37714052,0.0,0.0,0.0,0.0,0.0,0.0,-0.003189693,-0.0024067734,-0.4740802
91100169,nan,nan,nan,-0.92441565,0.0,nan,nan,-0.36016273,0.0,0.0,0.0,0.0,0.0,0.0,-0.00011409104,-8.6086475e-05,-0.4782199
91199980,nan,nan,nan,-0.92441565,0.0,nan,nan,-0.28211445,0.0,0.0,0.0,0.0,0.0,0.0,-2.306661e-06,-1.740468e-06,-0.4783311
91300519,nan,nan,nan,-0.92441565,0.0,nan,nan,-0.2391367,0.0,0.0,0.0,0.0,0.0,0.0,1.4377162e-08,1.0848415e-08,-0.4868827
91400190,nan,nan,nan,-0.92441565,0.0,nan,nan,-0.02573895,0.0,0.0,0.0,0.0,0.0,0.0,9.714082e-10,7.3296963e-10,-0.45754993
91500347,nan,nan,-1.172458,-0.92441565,0.0,nan,nan,0.0064406395,0.0,0.0,0.0,0.0,0.0,0.0,3.540365e-11,2.6713338e-11,-0.4706791
91620699,nan,nan,-1.172458,-0.92441565,0.0,nan,nan,-0.0029404163,0.0,0.0,0.0,0.0,0.0,0.0,4.210262e-13,3.1768067e-13,-0.49408996
91720617,nan,nan,-1.172458,-0.92441565,0.0,nan,nan,-0.016988754,0.0,0.0,0.0,0.0,0.0,0.0,4.6045033e-15,3.4742636e-15,-0.4965643
91820698,nan,nan,-1.172458,-0.92441565,0.0,nan,nan,-0.029194593,0.0,0.0,0.0,0.0,0.0,0.0,8.660189e-18,6.5340663e-18,-0.49794006
91920777,nan,nan,-1.172458,-0.92441565,0.0,nan,nan,-0.03681743,0.0,0.0,0.0,0.0,0.0,0.0,-4.906389e-18,-3.7020663e-18,-0.49383956
92020809,nan,nan,-1.172458,-0.92441565,0.0,nan,nan,-0.043734312,0.0,0.0,0.0,0.0,0.0,0.0,0.0018578153,-0.0024622832,-0.49491212
92120955,nan,nan,-1.172458,-0.92441565,0.0,nan,nan,-0.048939466,0.0,0.0,0.0,0.0,0.0,0.0,0.019347014,-0.025641857,-0.49248335
92221021,nan,nan,-1.172458,-0.92441565,0.0,nan,nan,-0.054942966,0.0,0.0,0.0,0.0,0.0,0.0,0.038149275,-0.050561715,-0.4883934
92321177,nan,nan,-1.172458,-0.92441565,0.0,nan,nan,-0.060252666,0.0,0.0,0.0,0.0,0.0,0.0,0.051440608,-0.06817758,-0.49158895
92421317,nan,nan,-1.172458,-0.92441565,0.0,nan,nan,-0.06477213,0.0,0.0,0.0,0.0,0.0,0.0,0.050201114,-0.0665348,-0.48701835
92521470,nan,nan,-1.172458,-0.92441565,0.0,nan,nan,-0.06514788,0.0,0.0,0.0,0.0,0.0,0.0,0.04684885,-0.06209182,-0.48422623
92621537,nan,nan,-1.172458,-0.92441565,0.0,nan,nan,-0.06569612,0.0,0.0,0.0,0.0,0.0,0.0,0.010780804,-0.014288501,-0.48646033
92721553,nan,nan,-1.172458,-0.92441565,0.0,nan,nan,-0.067920566,0.0,0.0,0.0,0.0,0.0,0.0,0.00033843925,-0.00044855554,-0.49493983
92821629,nan,nan,-1.172458,-0.92441565,0.0,nan,nan,-0.07592392,0.0,0.0,0.0,0.0,0.0,0.0,3.375676e-07,-4.4740028e-07,-0.4972182
92921685,nan,nan,-1.172458,-0.92441565,0.0,nan,nan,-0.08359468,0.0,0.0,0.0,0.0,0.0,0.0,-3.8173133e-07,5.059333e-07,-0.49974877
93041813,nan,nan,-1.172458,-0.92441565,0.0,nan,nan,-0.08999658,0.0,0.0,0.0,0.0,0.0,0.0,-0.00074990257,0.0009938946,-0.49814454
93142116,nan,nan,-1.172458,-0.92441565,0.0,nan,nan,-0.0887537,0.0,0.0,0.0,0.0,0.0,0.0,-0.019093174,0.022385653,-0.4882804
93242196,nan,nan,-1.172458,-0.92441565,0.0,nan,nan,-0.08450079,0.0,0.0,0.0,0.0,0.0,0.0,-0.026103599,0.03283502,-0.48331642
93342265,nan,nan,-1.172458,-0.92441565,0.0,nan,nan,-0.07451832,0.0,0.0,0.0,0.0,0.0,0.0,-0.021061573,0.028150681,-0.48329467
93442361,nan,nan,-1.172458,-0.92441565,0.0,nan,nan,-0.067322016,0.0,0.0,0.0,0.0,0.0,0.0,0.0009904705,-0.0013164188,-0.4903079
93542375,nan,nan,-1.172458,-0.92441565,0.0,nan,nan,-0.06495023,0.0,0.0,0.0,0.0,0.0,0.0,-8.777724e-06,1.1497334e-05,-0.49966967
93642424,nan,nan,-1.172458,-0.92441565,0.0,nan,nan,-0.066557765,0.0,0.0,0.0,0.0,0.0,0.0,-1.6398715e-06,2.1707565e-06,-0.50178313
93742529,nan,nan,-1.172458,-0.92441565,0.0,nan,nan,-0.06743789,0.0,0.0,0.0,0.0,0.0,0.0,-1.7390697e-08,2.3064342e-08,-0.49331668
93842596,nan,nan,-1.172458,-0.92441565,0.0,nan,nan,-0.06970322,0.0,0.0,0.0,0.0,0.0,0.0,9.778626e-10,-1.2921916e-09,-0.48978654
93942776,nan,nan,-1.172458,-0.92441565,0.0,nan,nan,-0.069738984,0.0,0.0,0.0,0.0,0.0,0.0,1.8587035e-11,-2.459158e-11,-0.486629
94043188,nan,nan,-1.172458,-0.92441565,0.0,nan,nan,-0.07069433,0.0,0.0,0.0,0.0,0.0,0.0,-1.7530873e-13,2.3011237e-13,-0.48868054
94143281,nan,nan,-1.172458,-0.92441565,0.0,nan,nan,-0.0724175,0.0,0.0,0.0,0.0,0.0,0.0,-2.5660741e-14,3.397193e-14,-0.49359164
94243343,nan,nan,-1.172458,-0.92441565,0.0,nan,nan,-0.07793617,0.0,0.0,0.0,0.0,0.0,0.0,-2.639344e-16,3.5014635e-16,-0.49605793
94343381,nan,nan,-1.172458,-0.92441565,0.0,nan,nan,-0.08449173,0.0,0.0,0.0,0.0,0.0,0.0,1.6491672e-17,-2.1795549e-17,-0.4960749
94463368,nan,nan,-1.172458,-0.92441565,0.0,nan,nan,-0.090462685,0.0,0.0,0.0,0.0,0.0,0.0,7.4228655e-20,-9.78974e-20,-0.4944042
94563386,nan,nan,-1.172458,-0.92441565,0.0,nan,nan,-0.09648633,0.0,0.0,0.0,0.0,0.0,0.0,3.8978305e-21,-5.1649953e-21,-0.4943661
94663442,nan,nan,-1.172458,-0.92441565,0.0,nan,nan,-0.10142267,0.0,0.0,0.0,0.0,0.0,0.0,2.3272122e-23,-3.1009226e-23,-0.5057888
94763585,nan,nan,-1.172458,-0.92441565,0.0,nan,nan,-0.10686755,0.0,0.0,0.0,0.0,0.0,0.0,-4.9147923e-25,6.463718e-25,-0.508609
94863805,nan,nan,-1.172458,-0.92441565,0.0,nan,nan,-0.11227691,0.0,0.0,0.0,0.0,0.0,0.0,-5.2209126e-26,6.913156e-26,-0.50347435
94965162,nan,nan,-1.172458,-0.92441565,0.0,nan,nan,-0.11692691,0.0,0.0,0.0,0.0,0.0,0.0,-4.8938573e-28,6.4959316e-28,-0.50429386
95063937,nan,nan,-1.172458,-0.92441565,0.0,nan,nan,-0.11915493,0.0,0.0,0.0,0.0,0.0,0.0,3.5705258e-29,-4.7196704e-29,-0.50284976
95163981,nan,nan,-1.172458,-0.92441565,0.0,nan,nan,-0.12062025,0.0,0.0,0.0,0.0,0.0,0.0,6.183562e-31,-8.183253e-31,-0.4924077
95263996,nan,nan,-1.172458,-0.92441565,0.0,nan,nan,-0.11895168,0.0,0.0,0.0,0.0,0.0,0.0,7.468565e-33,-9.899404e-33,-0.4934103
95365601,nan,nan,-1.172458,-0.92441565,0.0,nan,nan,-0.11892009,0.0,0.0,0.0,0.0,0.0,0.0,-3.3954095e-34,4.4853476e-34,-0.49570432
95464220,nan,nan,-1.172458,-0.92441565,0.0,nan,nan,-0.11380994,0.0,0.0,0.0,0.0,0.0,0.0,-6.995323e-36,9.252922e-36,-0.49241024
95564388,nan,nan,nan,-0.92441565,0.0,nan,nan,-0.10286975,0.0,0.0,0.0,0.0,0.0,0.0,3.2454187e-38,-4.224995e-38,-0.49082565
95664590,nan,nan,nan,-0.92441565,0.0,nan,nan,-0.17992823,0.0,0.0,0.0,0.0,0.0,0.0,1.0201044e-38,-1.3501366e-38,-0.50705206
95764638,nan,nan,nan,-0.92441565,0.0,nan,nan,-0.33932933,0.0,0.0,0.0,0.0,0.0,0.0,1.22961e-40,-1.63017e-40,-0.5294605
95864928,nan,nan,nan,-0.92441565,0.0,nan,nan,-0.419587,0.0,0.0,0.0,0.0,0.0,0.0,4.08e-43,-5.48e-43,-0.5174183
95984817,nan,nan,nan,-0.92441565,0.0,nan,nan,-0.67445207,0.0,0.0,0.0,0.0,0.0,0.0,-2.4e-44,3.2e-44,-0.5420361
96084832,nan,nan,nan,-0.92441565,0.0,nan,nan,-0.7131423,0.0,0.0,0.0,0.0,0.0,0.0,-1e-45,1e-45,-0.5154613
96184973,nan,nan,nan,-0.92441565,0.0,nan,nan,-0.75690675,0.0,0.0,0.0,0.0,0.0,0.0,0.0,0.0,-0.5007695
96285022,nan,nan,nan,-0.92441565,0.0,nan,nan,-0.796294,0.0,0.0,0.0,0.0,0.0,0.0,0.0,0.0,-0.5021624
96385516,nan,nan,nan,-0.92441565,0.0,nan,nan,-0.9606184,0.0,0.0,0.0,0.0,0.0,0.0,0.0,0.0,-0.5384152
96485406,nan,nan,nan,-0.92441565,0.0,nan,nan,-1.0032297,0.0,0.0,0.0,0.0,0.0,0.0,0.0,0.0,-0.5226865
96585478,nan,nan,nan,-1.0139266,0.0,nan,nan,-1.077215,0.0,0.0,0.0,0.0,0.0,0.0,0.0,0.0,-0.51596427
96685591,nan,nan,nan,-1.0139266,0.0,nan,nan,-1.1352079,0.0,0.0,0.0,0.0,0.0,0.0,0.0,0.0,-0.51107526
96785603,nan,nan,nan,-1.0139266,0.0,nan,nan,-1.2139226,0.0,0.0,0.0,0.0,0.0,0.0,0.0,0.0,-0.5179937
96905672,nan,nan,nan,-1.0139266,0.0,nan,nan,-1.3607523,0.0,0.0,0.0,0.0,0.0,0.0,0.0,0.0,-0.53442574
97005737,nan,nan,nan,-1.0139266,0.0,nan,nan,-1.5,0.0,0.0,0.0,0.0,0.0,0.0,0.0,0.0,-0.5342749
97105854,nan,nan,nan,-1.0139266,0.0,nan,nan,-1.5,0.0,0.0,0.0,0.0,0.0,0.0,0.0,0.0,-0.50334334
97206360,nan,nan,nan,-1.0139266,0.0,nan,nan,-1.5,0.0,0.0,0.0,0.0,0.0,0.0,0.0,0.0,-0.49695146
97306424,nan,nan,nan,-1.0139266,0.0,nan,nan,-1.5,0.0,0.0,0.0,0.0,0.0,0.0,0.0,0.0,-0.49649322
97406531,nan,nan,nan,-1.0139266,0.0,nan,nan,-1.5,0.0,0.0,0.0,0.0,0.0,0.0,0.0,0.0,-0.50227356
97506525,nan,nan,nan,-1.0139266,0.0,nan,nan,-1.5,0.0,0.0,0.0,0.0,0.0,0.0,0.0,0.0,-0.5019903
97606447,nan,nan,nan,-1.0049301,-0.002900233,nan,nan,-1.5,0.0,0.0,0.0,0.0,0.0,0.0,0.0,0.0,-0.50445354
97706555,nan,nan,nan,-1.0062221,-0.00083044625,nan,nan,-1.5,0.0,0.0,0.0,0.0,0.0,0.0,0.0,0.0,-0.50143677
97806599,nan,nan,nan,-1.0063431,0.0,nan,nan,-1.5,0.0,0.0,0.0,0.0,0.0,0.0,0.0,0.0,-0.5068613
97906797,nan,nan,nan,-1.0063431,0.0,nan,nan,-1.5,0.0,0.0,0.0,0.0,0.0,0.0,0.0,0.0,-0.5040436
98006974,nan,nan,nan,-1.0063431,0.0,nan,nan,-1.5,0.0,0.0,0.0,0.0,0.0,0.0,0.0,0.0,-0.49806407
98107815,nan,nan,nan,-1.0063431,-0.0,nan,nan,-1.5,0.0,0.0,0.0,0.0,0.0,0.0,0.0,0.0,-0.49754688
98207092,nan,nan,nan,-1.0063431,0.0,nan,nan,-1.5,0.0,0.0,0.0,0.0,0.0,0.0,0.0,0.0,-0.5029841
98327231,nan,nan,nan,-1.0063431,0.0,nan,nan,-1.5,0.0,0.0,0.0,0.0,0.0,0.0,0.0,0.0,-0.5089582
98427617,nan,nan,nan,-1.0063431,0.0,nan,nan,-1.5,0.0,0.0,0.0,0.0,0.0,0.0,0.0,0.0,-0.5071866
98527340,nan,nan,nan,-1.0063431,0.0,nan,nan,-1.5,0.0,0.0,0.0,0.0,0.0,0.0,0.0,0.0,-0.5051166
98627433,nan,nan,nan,-1.0063431,-0.0,nan,nan,-1.5,0.0,0.0,0.0,0.0,0.0,0.0,0.0,0.0,-0.49933544
98727695,nan,nan,nan,-1.0063431,-0.0,nan,nan,-1.5,0.0,0.0,0.0,0.0,0.0,0.0,0.0,0.0,-0.5053113
98827756,nan,nan,nan,-1.0063431,-0.0,nan,nan,-1.5,0.0,0.0,0.0,0.0,0.0,0.0,0.0,0.0,-0.5115378
98927827,nan,nan,nan,-1.0063431,0.0,nan,nan,-1.5,0.0,0.0,0.0,0.0,0.0,0.0,0.0,0.0,-0.5152019
99027874,nan,nan,nan,-1.0063431,0.0,nan,nan,-1.5245297,0.0,0.0,0.0,0.0,0.0,0.0,0.0,0.0,-0.51797396
99127971,nan,nan,nan,-1.0063431,-0.0,nan,nan,-1.5651882,0.0,0.0,0.0,0.0,0.0,0.0,0.0,0.0,-0.51635677
99227990,nan,nan,nan,-1.0063431,-0.0,nan,nan,-1.6109169,0.0,0.0,0.0,0.0,0.0,0.0,0.0,0.0,-0.5120711
99328075,nan,nan,nan,-1.0063431,-0.0,nan,nan,-1.655255,0.0,0.0,0.0,0.0,0.0,0.0,0.0,0.0,-0.5143101
99428209,nan,nan,nan,-1.0063431,0.0,nan,nan,-1.704669,0.0,0.0,0.0,0.0,0.0,0.0,0.0,0.0,-0.516186
99528505,nan,nan,nan,-1.0063431,0.0,nan,nan,-1.7511137,0.0,0.0,0.0,0.0,0.0,0.0,0.0,0.0,-0.51615137
99628605,nan,nan,nan,-1.0063431,0.0,nan,nan,-1.8034849,0.0,0.0,0.0,0.0,0.0,0.0,0.0,0.0,-0.51384574
99748659,nan,nan,nan,-1.0063431,-0.0,nan,nan,-1.8659221,0.0,0.0,0.0,0.0,0.0,0.0,0.0,0.0,-0.50995404
99848748,nan,nan,nan,-1.0063431,-0.0,nan,nan,-1.9177479,0.0,0.0,0.0,0.0,0.0,0.0,0.0,0.0,-0.5104843
99948753,nan,nan,nan,-1.0063431,-0.0,nan,nan,-1.9756631,0.0,0.0,0.0,0.0,0.0,0.0,0.0,0.0,-0.5150952
100048829,nan,nan,nan,-1.0063431,-0.0,nan,nan,-2.029792,0.0,0.0,0.0,0.0,0.0,0.0,0.0,0.0,-0.5197234
100148891,nan,nan,nan,-1.0063431,-0.0,nan,nan,-2.0900292,0.0,0.0,0.0,0.0,0.0,0.0,0.0,0.0,-0.5237838
100248987,nan,nan,nan,-1.0063431,-0.0,nan,nan,-2.1470544,0.0,0.0,0.0,0.0,0.0,0.0,0.0,0.0,-0.5257921
100349212,nan,nan,nan,-1.0063431,-0.0,nan,nan,-2.2099156,0.0,0.0,0.0,0.0,0.0,0.0,0.0,0.0,-0.52539456
100449303,nan,nan,nan,-1.0063431,-0.0,nan,nan,-2.27064,0.0,0.0,0.0,0.0,0.0,0.0,0.0,0.0,-0.52440923
100549384,nan,nan,nan,-1.0063431,0.0,nan,nan,-2.3377073,0.0,0.0,0.0,0.0,0.0,0.0,0.0,0.0,-0.52461535
100649491,nan,nan,nan,-1.0063431,-0.0,nan,nan,-2.4017708,0.0,0.0,0.0,0.0,0.0,0.0,0.0045506605,-0.0071871015,-0.52654415
100749560,nan,nan,nan,-1.0063431,-0.0,nan,nan,-2.4726498,0.0,0.0,0.0,0.0,0.0,0.0,0.010995156,-0.017365238,-0.52692485
100849596,nan,nan,nan,-1.0063431,0.0,nan,nan,-2.5387998,0.0,0.0,0.0,0.0,0.0,0.0,0.012456733,-0.019673584,-0.5361629
100969698,nan,nan,nan,-1.0063431,0.0,nan,nan,-2.622903,0.0,0.0,0.0,0.0,0.0,0.0,0.009999585,-0.015792878,-0.5413471
101069812,nan,nan,nan,-1.0063431,0.0,nan,nan,-2.697421,0.0,0.0,0.0,0.0,0.0,0.0,-0.0007913718,0.0012498557,-0.5428319
101169966,nan,nan,nan,-1.0063431,0.0,nan,nan,-2.768813,0.0,0.0,0.0,0.0,0.0,0.0,-9.753456e-06,1.5404154e-05,-0.543849
101270371,nan,nan,nan,-1.0063431,-0.0,nan,nan,-2.849028,0.0,0.0,0.0,0.0,0.0,0.0,4.2073808e-07,-6.644941e-07,-0.54184306
101370484,nan,nan,nan,-1.0063431,-0.0,nan,nan,-2.9250228,0.0,0.0,0.0,0.0,0.0,0.0,8.856725e-09,-1.3987898e-08,-0.54052824
101470544,nan,nan,nan,-1.0063431,0.0,nan,nan,-3.0,0.0,0.0,0.0,0.0,0.0,0.0,-3.253226e-11,5.1379935e-11,-0.53817654
101570538,nan,nan,nan,-1.0063431,0.0,nan,nan,-2.9771662,0.0,0.0,0.0,0.0,0.0,0.0,-1.2235563e-11,1.932428e-11,-0.5231566
101670511,nan,nan,nan,-1.0063431,0.0,nan,nan,-2.6582837,0.0,0.0,0.0,0.0,0.0,0.0,-1.2677191e-13,2.0021765e-13,-0.45943558
101770561,nan,nan,nan,-1.0063431,-0.0,nan,nan,-2.2442746,0.0,0.0,0.0,0.0,0.0,0.0,-4.5567556e-16,7.196727e-16,-0.42022628
101870655,nan,nan,nan,-1.0063431,-0.0,nan,nan,-1.9621646,0.0,0.0,0.0,0.0,0.0,0.0,1.166543e-16,-1.8423837e-16,-0.4379742
101970782,nan,nan,nan,-1.0063431,-0.0,nan,nan,-1.7242985,0.0,0.0,0.0,0.0,0.0,0.0,1.7150585e-18,-2.7086834e-18,-0.4531653
102071130,nan,nan,nan,-1.0063431,0.0,nan,nan,-1.4445795,0.0,0.0,0.0,0.0,0.0,0.0,-5.332026e-20,8.4211536e-20,-0.46121466
102191043,nan,nan,nan,-1.0063431,0.0,nan,nan,-1.1576877,0.0,0.0,0.0,0.0,0.0,0.0,-1.2939942e-21,2.0436741e-21,-0.4551047
102291450,nan,nan,nan,-1.0063431,0.0,nan,nan,-1.0356674,0.0,0.0,0.0,0.0,0.0,0.0,-2.2419862e-23,3.540889e-23,-0.47426125
102391187,nan,nan,nan,-1.0063431,0.0,nan,nan,-0.6616244,0.0,0.0,0.0,0.0,0.0,0.0,-2.2184327e-25,3.503689e-25,-0.42598403
102491895,nan,nan,nan,-1.0063431,-0.0,nan,nan,-0.4126522,0.0,0.0,0.0,0.0,0.0,0.0,1.1880221e-26,-1.8763067e-26,-0.41951135
102591358,nan,nan,-11.86053,-1.0063431,-0.0,nan,nan,0.009298325,0.0,0.0,0.0,0.0,0.0,0.0,2.155624e-28,-3.4044921e-28,-0.3924358
102691779,nan,nan,-11.86053,-1.0063431,0.0,nan,nan,0.04220009,0.0,0.0,0.0,0.0,0.0,0.0,-2.2239317e-30,3.512374e-30,-0.47316402
102791726,nan,nan,-11.86053,-1.0063431,0.0,nan,nan,0.03728676,0.0,0.0,0.0,0.0,0.0,0.0,-1.3380608e-31,2.1132706e-31,-0.5169217
102891739,nan,nan,-11.86053,-1.0063431,0.0,nan,nan,0.024867058,0.0,0.0,0.0,0.0,0.0,0.0,-4.0516267e-33,6.398951e-33,-0.51378477
102991889,nan,nan,-11.86053,-1.0063431,-0.0,nan,nan,0.023563385,0.0,0.0,0.0,0.0,0.0,0.0,-3.308826e-36,5.225806e-36,-0.49805272
103091963,nan,nan,-11.86053,-1.0063431,-0.0,nan,nan,0.033750534,0.0,0.0,0.0,0.0,0.0,0.0,1.0224645e-36,-1.6148329e-36,-0.49107644
103192004,nan,nan,-11.86053,-1.0063431,-0.0,nan,nan,0.04361248,0.0,0.0,0.0,0.0,0.0,0.0,5.635758e-38,-8.9008533e-38,-0.4885214
103292064,nan,nan,-11.86053,-1.0063431,0.0,nan,nan,0.051050186,0.0,0.0,0.0,0.0,0.0,0.0,3.48399e-40,-5.50246e-40,-0.48742715
103412172,nan,nan,-11.86053,-1.0063431,0.0,nan,nan,0.05073452,0.0,0.0,0.0,0.0,0.0,0.0,-6.41e-42,1.0123e-41,-0.4945039
103512336,nan,nan,-11.86053,-1.0063431,0.0,nan,nan,0.052736282,0.0,0.0,0.0,0.0,0.0,0.0,-2.8e-43,4.43e-43,-0.48841995
103612560,nan,nan,-11.86053,-1.0063431,0.0,nan,nan,0.057383537,0.0,0.0,0.0,0.0,0.0,0.0,-7e-45,1.1e-44,-0.49087813
103712588,nan,nan,-11.86053,-1.0063431,-0.0,nan,nan,0.058630943,0.0,0.0,0.0,0.0,0.0,0.0,0.0,0.0,-0.49674913
103812644,nan,nan,-11.86053,-1.0063431,-0.0,nan,nan,0.05151272,0.0,0.0,0.0,0.0,0.0,0.0,0.0,0.0,-0.5097042
103912751,nan,nan,-11.86053,-1.0063431,0.0,nan,nan,0.048392296,0.0,0.0,0.0,0.0,0.0,0.0,0.0,0.0,-0.50126725
104012799,nan,nan,-11.86053,-1.0063431,0.0,nan,nan,0.052679062,0.0,0.0,0.0,0.0,0.0,0.0,0.0,0.0,-0.49234945
104112855,nan,nan,-11.86053,-1.0063431,0.0,nan,nan,0.05903244,0.0,0.0,0.0,0.0,0.0,0.0,0.0,0.0,-0.48982662
104212940,nan,nan,-11.86053,-1.0063431,0.0,nan,nan,0.06489277,0.0,0.0,0.0,0.0,0.0,0.0,0.0,0.0,-0.49352205
104313044,nan,nan,-11.86053,-1.0063431,0.0,nan,nan,0.06863022,0.0,0.0,0.0,0.0,0.0,0.0,0.0,0.0,-0.48932472
104413287,nan,nan,-11.86053,-1.0063431,0.0,nan,nan,0.07614994,0.0,0.0,0.0,0.0,0.0,0.0,0.0,0.0,-0.4874867
104513413,nan,nan,-11.86053,-1.0063431,0.0,nan,nan,0.07960415,0.0,0.0,0.0,0.0,0.0,0.0,0.0,0.0,-0.4927073
104613427,nan,nan,-11.86053,-1.0063431,0.0,nan,nan,0.07650089,0.0,0.0,0.0,0.0,0.0,0.0,0.0,0.0,-0.5037445
104713506,nan,nan,nan,-1.0063431,0.0,nan,nan,0.04414316,0.0,0.0,0.0,0.0,0.0,0.0,0.0,0.0,-0.52098936
104833613,nan,nan,nan,-1.0063431,0.0,nan,nan,0.09753826,0.0,0.0,0.0,0.0,0.0,0.0,0.0,0.0,-0.49465448
104933671,nan,nan,nan,-1.0063431,0.0,nan,nan,0.14419287,0.0,0.0,0.0,0.0,0.0,0.0,0.0,0.0,-0.4729491
105033780,nan,nan,nan,-1.0063431,0.0,nan,nan,0.15563062,0.0,0.0,0.0,0.0,0.0,0.0,0.0,0.0,-0.4795981
105133979,nan,nan,nan,-1.0063431,0.0,nan,nan,0.16747472,0.0,0.0,0.0,0.0,0.0,0.0,0.0,0.0,-0.4893155
105234302,nan,nan,nan,-1.0063431,0.0,nan,nan,0.17892894,0.0,0.0,0.0,0.0,0.0,0.0,0.0,0.0,-0.5007649
105334516,nan,nan,nan,-1.0063431,0.0,nan,nan,0.23312075,0.0,0.0,0.0,0.0,0.0,0.0,0.0,0.0,-0.49524063
105434542,nan,nan,nan,-1.0063431,0.0,nan,nan,0.30094403,0.0,0.0,0.0,0.0,0.0,0.0,0.0,0.0,-0.48551524
105534514,nan,nan,nan,-1.0063431,0.0,nan,nan,0.29957384,0.0,0.0,0.0,0.0,0.0,0.0,0.0,0.0,-0.49378172
105634515,nan,nan,nan,-1.0063431,0.0,nan,nan,0.32445654,0.0,0.0,0.0,0.0,0.0,0.0,0.0,0.0,-0.49119043
105734572,nan,nan,nan,-1.0063431,0.0,nan,nan,0.37137955,0.0,0.0,0.0,0.0,0.0,0.0,0.0,0.0,-0.48011282
105834634,nan,nan,nan,-1.0063431,0.0,nan,nan,0.4175382,0.0,0.0,0.0,0.0,0.0,0.0,0.0,0.0,-0.47399426
105934779,nan,nan,nan,-1.0063431,0.0,nan,nan,0.4512947,0.0,0.0,0.0,0.0,0.0,0.0,0.0,0.0,-0.47483602
106035619,nan,nan,nan,-1.0063431,0.0,nan,nan,0.43594828,0.0,0.0,0.0,0.0,0.0,0.0,0.0,0.0,-0.4942636
106135006,nan,nan,nan,-1.0063431,0.0,nan,nan,0.42824867,0.0,0.0,0.0,0.0,0.0,0.0,0.0,0.0,-0.49989673
106255087,nan,nan,nan,-1.0063431,0.0,nan,nan,0.42898634,0.0,0.0,0.0,0.0,0.0,0.0,0.0,0.0,-0.49646357
106355767,nan,nan,nan,-1.0063431,0.0,nan,nan,0.4377769,0.0,0.0,0.0,0.0,0.0,0.0,0.0,0.0,-0.48822814
106455196,nan,nan,nan,-1.0063431,0.0,nan,nan,0.44618326,0.0,0.0,0.0,0.0,0.0,0.0,0.0,0.0,-0.48944327
106555879,nan,nan,nan,-1.0063431,0.0,nan,nan,0.46697408,0.0,0.0,0.0,0.0,0.0,0.0,0.0,0.0,-0.4936694
106655440,nan,nan,nan,-1.0063431,0.0,nan,nan,0.5474683,0.0,0.0,0.0,0.0,0.0,0.0,0.0,0.0,-0.4793111
106755564,nan,nan,nan,-1.0063431,0.0,nan,nan,0.56707543,0.0,0.0,0.0,0.0,0.0,0.0,0.0,0.0,-0.4887836
106855739,nan,nan,nan,-1.0063431,0.0,nan,nan,0.5811469,0.0,0.0,0.0,0.0,0.0,0.0,0.0,0.0,-0.4968536
106955815,nan,nan,nan,-1.0063431,0.0,nan,nan,0.58087945,0.0,0.0,0.0,0.0,0.0,0.0,0.0,0.0,-0.5024028
107055923,nan,nan,nan,-1.0063431,0.0,nan,nan,0.60461754,0.0,0.0,0.0,0.0,0.0,0.0,0.0,0.0,-0.49153054
107155960,nan,nan,nan,-1.0063431,0.0,nan,nan,0.5881358,0.0,0.0,0.0,0.0,0.0,0.0,0.0,0.0,-0.49119857
107256033,nan,nan,nan,-1.0063431,0.0,nan,nan,0.582037,0.0,0.0,0.0,0.0,0.0,0.0,0.0,0.0,-0.49045363
107356105,nan,nan,nan,-1.0063431,0.0,nan,nan,0.60709566,0.0,0.0,0.0,0.0,0.0,0.0,0.0,0.0,-0.49213147
107476229,nan,nan,nan,-1.0063431,0.0,nan,nan,0.6565618,0.0,0.0,0.0,0.0,0.0,0.0,0.0,0.0,-0.49383715
107576384,nan,nan,nan,-1.0063431,0.0,nan,nan,0.6618684,0.0,0.0,0.0,0.0,0.0,0.0,0.0,0.0,-0.49999356
107676533,nan,nan,nan,-1.0063431,0.0,nan,nan,0.6632596,0.0,0.0,0.0,0.0,0.0,0.0,0.0,0.0,-0.5048318
107776611,nan,nan,nan,-1.0063431,0.0,nan,nan,0.694329,0.0,0.0,0.0,0.0,0.0,0.0,0.0,0.0,-0.49210504
107876915,nan,nan,nan,-1.0063431,0.0,nan,nan,0.7139612,0.0,0.0,0.0,0.0,0.0,0.0,0.0,0.0,-0.48314705
107976768,nan,nan,nan,-1.0063431,0.0,nan,nan,0.7212668,0.0,0.0,0.0,0.0,0.0,0.0,0.0,0.0,-0.4806385
108076815,nan,nan,nan,-1.0063431,0.0,nan,nan,0.7197093,0.0,0.0,0.0,0.0,0.0,0.0,0.0,0.0,-0.48828486
108176940,nan,nan,nan,-1.0063431,0.0,nan,nan,0.7218273,0.0,0.0,0.0,0.0,0.0,0.0,0.0,0.0,-0.49661538
108277013,nan,nan,nan,-1.0063431,0.0,nan,nan,0.73426163,0.0,0.0,0.0,0.0,0.0,0.0,0.0,0.0,-0.4921417
108377192,nan,nan,nan,-1.0063431,0.0,nan,nan,0.763045,0.0,0.0,0.0,0.0,0.0,0.0,0.0,0.0,-0.4904812
108477558,nan,nan,nan,-1.0063431,0.0,nan,nan,0.80068386,0.0,0.0,0.0,0.0,0.0,0.0,0.0,0.0,-0.48682445
108577419,nan,nan,nan,-1.0063431,0.0,nan,nan,0.8106977,0.0,0.0,0.0,0.0,0.0,0.0,0.0,0.0,-0.49051017
108677764,nan,nan,nan,-1.0063431,0.0,nan,nan,0.796201,0.0,0.0,0.0,0.0,0.0,0.0,0.0,0.0,-0.4993811
108777762,nan,nan,nan,-1.0063431,0.0,nan,nan,0.79669166,0.0,0.0,0.0,0.0,0.0,0.0,0.0,0.0,-0.49935532
108877740,nan,nan,nan,-1.0063431,0.0,nan,nan,0.7892045,0.0,0.0,0.0,0.0,0.0,0.0,0.0,0.0,-0.49359846
108997778,nan,nan,nan,-1.0063431,0.0,nan,nan,0.7523707,0.0,0.0,0.0,0.0,0.0,0.0,0.0,0.0,-0.49760106
109097820,nan,nan,nan,-1.0063431,0.0,nan,nan,0.7405554,0.0,0.0,0.0,0.0,0.0,0.0,0.0,0.0,-0.495937
109198291,nan,nan,nan,-1.0063431,0.0,nan,nan,0.74237055,0.0,0.0,0.0,0.0,0.0,0.0,0.0,0.0,-0.49176762
109298930,nan,nan,nan,-1.0063431,0.0,nan,nan,0.73362094,0.0,0.0,0.0,0.0,0.0,0.0,0.0,0.0,-0.48951852
109398375,nan,nan,nan,-1.0063431,0.0,nan,nan,0.720626,0.0,0.0,0.0,0.0,0.0,0.0,0.0,0.0,-0.49302372
109498597,nan,nan,nan,-1.0063431,0.0,nan,nan,0.57230633,0.0,0.0,0.0,0.0,0.0,0.0,0.0,0.0,-0.51965666
109598645,nan,nan,nan,-1.0063431,0.0,nan,nan,0.40460464,0.0,0.0,0.0,0.0,0.0,0.0,0.0,0.0,-0.53081805
109699057,nan,nan,nan,-1.0063431,0.0,nan,nan,0.350809,0.0,0.0,0.0,0.0,0.0,0.0,0.0,0.0,-0.5031397
111219981,nan,nan,nan,-1.0063431,0.0,nan,nan,0.47368252,0.0,0.0,0.0,0.0,0.0,0.0,1.9330345e-16,1.2239405e-16,-0.48167107
111320058,nan,nan,nan,-1.0063431,0.0,nan,nan,0.5023755,0.0,0.0,0.0,0.0,0.0,0.0,1.47112e-18,9.314698e-19,-0.48433167
111420211,nan,nan,nan,-1.0063431,0.0,nan,nan,0.5067827,0.0,0.0,0.0,0.0,0.0,0.0,-5.2628087e-20,-3.3322554e-20,-0.49318445
111520332,nan,nan,nan,-1.0063431,0.0,nan,nan,0.52752143,0.0,0.0,0.0,0.0,0.0,0.0,-1.924267e-21,-1.2183891e-21,-0.4936785
111620484,nan,nan,nan,-1.0063431,0.0,nan,nan,0.5790991,0.0,0.0,0.0,0.0,0.0,0.0,-3.7292683e-23,-2.3612626e-23,-0.48583847
111720614,nan,nan,nan,-1.0063431,0.0,nan,nan,0.5862507,0.0,0.0,0.0,0.0,0.0,0.0,2.120193e-25,1.3424437e-25,-0.48781723
111840715,nan,nan,nan,-1.0063431,0.0,nan,nan,0.595332,0.0,0.0,0.0,0.0,0.0,0.0,1.6650291e-26,1.0542474e-26,-0.48384005
111940744,nan,nan,nan,-1.0063431,0.0,nan,nan,0.64903814,0.0,0.0,0.0,0.0,0.0,0.0,4.0072324e-28,2.5372615e-28,-0.47151604
112040813,nan,nan,nan,-1.0063431,0.0,nan,nan,0.6577227,0.0,0.0,0.0,0.0,0.0,0.0,1.7821155e-30,1.1283831e-30,-0.47990426
112140861,nan,nan,nan,-1.0063431,0.0,nan,nan,0.6576339,0.0,0.0,0.0,0.0,0.0,0.0,-1.2925508e-31,-8.18405e-32,-0.4959894
112240979,nan,nan,nan,-1.0063431,0.0,nan,nan,0.6588583,0.0,0.0,0.0,0.0,0.0,0.0,-4.234693e-33,-2.6812828e-33,-0.501
112341186,nan,nan,nan,-1.0063431,0.0,nan,nan,0.6654521,0.0,0.0,0.0,0.0,0.0,0.0,-6.6029756e-35,-4.1808095e-35,-0.49893248
112441527,nan,nan,nan,-1.0063431,0.0,nan,nan,0.69041216,0.0,0.0,0.0,0.0,0.0,0.0,6.7553684e-37,4.2773e-37,-0.4906241
112541704,nan,nan,nan,-1.0063431,0.0,nan,nan,0.7239086,0.0,0.0,0.0,0.0,0.0,0.0,1.0913898e-37,6.910359e-38,-0.48338154
112641793,nan,nan,nan,-1.0063431,0.0,nan,nan,0.7253846,0.0,0.0,0.0,0.0,0.0,0.0,1.158708e-39,7.3366e-40,-0.48759878
112741774,nan,nan,nan,-1.0063431,0.0,nan,nan,0.72572714,0.0,0.0,0.0,0.0,0.0,0.0,-6.9831e-41,-4.4215e-41,-0.49528998
112841766,nan,nan,nan,-1.0063431,0.0,nan,nan,0.7311844,0.0,0.0,0.0,0.0,0.0,0.0,-1.298e-42,-8.23e-43,-0.48841834
112941838,nan,nan,nan,-1.0063431,0.0,nan,nan,0.7670371,0.0,0.0,0.0,0.0,0.0,0.0,1.4e-44,8e-45,-0.48997092
113041964,nan,nan,nan,-1.0063431,0.0,nan,nan,0.778296,0.0,0.0,0.0,0.0,0.0,0.0,1e-45,0.0,-0.502879
113142127,nan,nan,nan,-1.0063431,0.0,nan,nan,0.8116939,0.0,0.0,0.0,0.0,0.0,0.0,0.0,0.0,-0.5027043
