timestamp,error_count,device_id,x,y,z,integral_dt,x_integral,y_integral,z_integral,temperature,scaling,x_raw,y_raw,z_raw
50802245,0,2228514,-0.008096928,-0.027866995,-0.0021881084,4244,-6.797857e-05,-0.00021173267,-1.6255664e-05,40.0,0.0012217306,1033,2145,-529
50905209,0,2228514,0.023902884,0.029265665,0.008989978,3579,5.9841466e-05,1.39402855e-05,-3.0673434e-06,40.0,0.0012217306,1006,2101,-519
51004590,0,2228514,0.0042032036,-0.005875253,-0.009481554,4233,8.1530714e-05,-1.070165e-05,-3.6654972e-05,40.0,0.0012217306,992,2117,-519
51108980,0,2228514,-0.0014400267,-0.028635358,-0.011845739,4290,-2.3314673e-05,-0.00016626655,-5.0385002e-05,40.0,0.0012217306,1005,2135,-529
51209796,0,2228514,0.0019532272,-0.0029171396,0.0013629347,4291,-1.8697312e-05,-7.323059e-05,-1.2470786e-05,40.0,0.0012217306,1014,2122,-526
51312755,0,2228514,0.002133859,0.017677808,0.012488508,4239,2.8920225e-05,0.000114807284,3.3216867e-05,40.0,0.0012217306,1010,2081,-513
51409294,0,2228514,-0.015438203,-0.018670198,-0.00077891996,4303,-2.5997722e-05,-1.4676536e-05,4.7487814e-05,40.0,0.0012217306,1027,2132,-503
51512239,0,2228514,0.0044679483,-0.0017805462,-0.0015034211,4289,1.7436152e-05,-0.00010876827,-1.6102604e-05,40.0,0.0012217306,1006,2125,-521
51615915,0,2228514,0.003829028,-0.005506394,-0.0026008408,4291,1.3257182e-06,9.498704e-05,-2.5884596e-05,40.0,0.0012217306,1016,2102,-520
51716015,0,2228514,0.008099868,0.0027451636,-0.0034053642,4248,8.5443295e-05,-2.7620112e-05,1.0051967e-05,40.0,0.0012217306,988,2079,-519
51819722,0,2228514,-0.021122217,-0.031286187,-0.0023453296,4286,9.021645e-08,2.8168226e-05,7.1368363e-06,40.0,0.0012217306,1021,2105,-525
51918360,0,2228514,-0.007597624,-0.009678648,0.002305228,4258,-3.789319e-05,-7.3593845e-05,-5.401774e-06,40.0,0.0012217306,1024,2138,-522
52021326,0,2228514,-0.016623724,-0.040847536,-0.007927009,3582,-3.5899535e-05,-8.437439e-05,-4.066042e-05,40.0,0.0012217306,1007,2093,-514
52122164,0,2228514,0.0062011634,0.0005079283,0.0012340613,4319,-9.645709e-05,-0.00016838728,-3.1382613e-05,40.0,0.0012217306,1039,2145,-530
52225168,0,2228514,-0.0059020612,-0.021346856,0.003100564,3647,-4.416156e-05,3.2449614e-05,-9.795192e-06,40.0,0.0012217306,1015,2083,-523
52324516,0,2228514,-0.0154748205,-0.050570406,-0.006363806,4326,-0.00014567382,-0.00027241115,-4.9955826e-05,40.0,0.0012217306,1035,2143,-528
52427440,0,2228514,-0.011297712,-0.0039733136,0.00046606595,3575,-0.00010097343,-0.00016442729,-6.829401e-06,40.0,0.0012217306,1035,2148,-523
52526837,0,2228514,-0.012632111,-0.052682914,-0.010738226,4272,-0.0001231121,-0.00016361284,-2.4749146e-05,40.0,0.0012217306,1028,2129,-520
52631215,0,2228514,-0.0027161983,-0.021738678,-0.0048317425,4279,-0.00010900855,-0.00014826437,-4.052491e-05,40.0,0.0012217306,1035,2132,-532
52734936,0,2228514,0.004296216,0.0046404856,-0.0017068562,4337,4.9196824e-05,1.0807779e-05,-3.086291e-05,40.0,0.0012217306,993,2069,-525
52837852,0,2228514,0.023390252,0.030879412,0.004330984,4293,1.7071785e-05,3.7389895e-05,-5.2987783e-05,40.0,0.0012217306,1010,2087,-533
52937234,0,2228514,-0.0054445947,-0.020439446,-0.00070614857,4289,-6.1525505e-05,-3.949467e-05,3.527802e-05,40.0,0.0012217306,1031,2103,-511
53040215,0,2228514,-0.010755102,-0.028115045,0.0027420332,4296,-4.8633265e-05,-0.0002448202,-4.6437896e-07,40.0,0.0012217306,1012,2154,-516
53140350,0,2228514,-0.0059653656,-0.0024944204,-0.004174248,3630,-4.4701646e-05,-5.9179623e-05,-2.0491123e-05,40.0,0.0012217306,1019,2118,-523
53241160,0,2228514,0.02638515,0.019805804,0.0023112625,4338,1.3155124e-05,-3.423332e-05,-3.4267217e-05,40.0,0.0012217306,1019,2125,-520
53344074,0,2228514,-0.007707877,-0.02443929,-0.008224617,3522,1.0741025e-05,-6.22847e-05,-4.0431652e-05,40.0,0.0012217306,1007,2100,-527
53444885,0,2228514,0.10008992,0.14528713,0.026624748,4290,0.0003857712,0.0005864856,9.99602e-05,40.0,0.0012217306,978,2018,-498
53547846,0,2228514,-0.02314998,-0.04304335,-0.006425461,4245,-0.00013105932,-0.00010250097,-7.6713346e-05,40.0,0.0012217306,1032,2119,-534
53647229,0,2228514,-0.0061724177,-0.017809987,-0.008715389,4267,-6.376734e-05,-0.00025491984,-5.6137058e-05,41.0,0.0012217306,1017,2162,-532
53750236,0,2228514,-0.0046332665,0.004569161,-0.0003551736,4238,-1.9310175e-05,-3.8461625e-05,1.1694555e-05,41.0,0.0012217306,1022,2113,-518
53849575,0,2228514,0.005639067,-0.01845461,0.0023838656,4259,-2.9978153e-05,-6.788132e-05,-3.5094497e-05,41.0,0.0012217306,1019,2123,-529
53952568,0,2228514,-0.014125103,-0.041928124,-0.014192503,4284,-4.5858058e-05,-8.91321e-05,-4.533748e-05,41.0,0.0012217306,1001,2082,-515
54056210,0,2228514,-0.012594394,-0.02924387,-0.008846203,4290,-9.987683e-05,-0.0002359724,-8.873257e-05,41.0,0.0012217306,1031,2129,-530
54154922,0,2228514,0.003550967,0.0007302542,-0.0011838584,4312,-4.7899714e-05,-7.417397e-05,-2.0578611e-05,41.0,0.0012217306,1021,2126,-520
54255736,0,2228514,-0.013334757,-0.023984062,-0.0015147764,4331,2.6126536e-05,-7.046353e-05,-3.400521e-05,41.0,0.0012217306,1004,2125,-518
54358655,0,2228514,0.0056467615,0.020601,0.013343072,4290,5.2007963e-05,0.00011680395,5.8855636e-05,41.0,0.0012217306,990,2055,-502
54458050,0,2228514,-0.0069583426,-0.011650143,-0.0041896296,4301,-1.880763e-05,-1.6003418e-05,-4.006086e-06,41.0,0.0012217306,1015,2105,-518
54561001,0,2228514,-0.0012565143,-0.00069846126,-0.00058072584,4291,7.393446e-05,0.00022127904,3.850011e-05,41.0,0.0012217306,1002,2069,-506
54664674,0,2228514,-0.002783294,0.017587835,0.0038874869,4255,-5.2561587e-05,-2.9965795e-05,3.064323e-05,41.0,0.0012217306,1027,2119,-509
54763344,0,2228514,-0.0089771245,-0.023608755,0.0036167093,4266,1.9599756e-05,-0.00013407266,2.7109669e-05,41.0,0.0012217306,996,2095,-510
54867739,0,2228514,-0.01962225,-0.00800253,-0.004841622,4989,-9.384615e-05,-7.174708e-05,-1.3183313e-05,41.0,0.0012217306,1015,2109,-516
54967158,0,2228514,-0.006912551,-0.029712945,-0.0060671982,4317,-7.1073686e-05,-0.00017156973,-2.7839378e-05,41.0,0.0012217306,1029,2138,-520
55070123,0,2228514,-0.019334536,-0.034761205,-0.010856332,3618,1.5761563e-05,-4.4296186e-05,-2.3106146e-05,41.0,0.0012217306,1003,2107,-518
55169465,0,2228514,-0.010605775,-0.01778813,-0.0048948824,4245,-3.386007e-05,-9.034547e-05,-3.2704662e-05,41.0,0.0012217306,1011,2122,-527
55270280,0,2228514,0.003857284,-0.012687503,-0.0035376528,4291,-1.2620215e-05,-7.09772e-05,-3.6354966e-05,41.0,0.0012217306,997,2062,-521
55373239,0,2228514,0.011387791,0.014255571,0.00023074025,4289,2.3492872e-05,-5.9310237e-06,5.5485416e-06,41.0,0.0012217306,1029,2131,-517
55473383,0,2228514,-0.0008110177,-0.008059621,-0.0073890304,4987,2.0822787e-05,-4.173447e-05,-2.7592425e-05,41.0,0.0012217306,1004,2115,-521
55578445,0,2228514,-0.003994433,-0.03833897,-0.01499251,4275,-5.1693794e-05,-0.00026108767,-9.8827346e-05,41.0,0.0012217306,1007,2088,-519
55677166,0,2228514,0.011137075,0.0036100792,-0.0029383013,3626,6.228234e-05,0.000102965816,-7.1700906e-06,41.0,0.0012217306,1011,2110,-517
55780789,0,2228514,0.0015586008,-0.006452886,-0.007094919,4228,0.00010819036,0.00017284637,-1.618871e-05,41.0,0.0012217306,1017,2106,-530
55879470,0,2228514,-0.00445263,-0.020853972,-0.005258311,3585,3.1143907e-05,-4.712468e-05,-2.7601205e-05,41.0,0.0012217306,988,2074,-522
55984566,0,2228514,-0.0124432305,-0.028605316,-0.004645913,4292,-9.238213e-05,-0.00017470236,-3.2837946e-05,41.0,0.0012217306,1015,2105,-525
56083234,0,2228514,-0.005727485,-0.021580253,-0.004435322,4253,-6.6133485e-05,-0.0001526715,-7.062928e-05,41.0,0.0012217306,1016,2144,-528
56184049,0,2228514,-0.009787418,-0.039027818,-0.0095684985,4273,-0.0001282812,-0.000247284,-5.2728126e-05,41.0,0.0012217306,1042,2143,-529
56287010,0,2228514,-0.012460405,-0.026350334,-0.00918203,4282,4.018906e-06,4.2282045e-06,-1.9666395e-05,41.0,0.0012217306,1000,2084,-510
56389979,0,2228514,-0.026250469,-0.034545094,-0.016033145,3584,9.643656e-06,-1.4975156e-05,-4.720525e-05,41.0,0.0012217306,1016,2118,-520
56489367,0,2228514,-0.014606442,-0.027481396,-0.006773602,4302,-0.000109055254,-0.00015083174,-1.7983508e-05,41.0,0.0012217306,1026,2122,-514
56592357,0,2228514,-0.020509494,-0.034073155,-0.0025891683,3617,-0.00011530417,-0.00026747308,-7.2756993e-06,41.0,0.0012217306,1037,2161,-526
56691736,0,2228514,-0.004969131,-0.0074714655,0.00361806,4326,-1.6104235e-05,5.527216e-05,1.8661154e-05,41.0,0.0012217306,1010,2090,-521
56794660,0,2228514,0.0134855965,0.033004526,0.0136824725,3569,1.718677e-05,2.1296908e-05,1.7598302e-05,41.0,0.0012217306,1001,2110,-520
56895489,0,2228514,0.0032941555,0.005906775,0.004357591,4304,4.8814677e-06,9.7925826e-05,4.7132016e-06,41.0,0.0012217306,1009,2086,-520
56998435,0,2228514,-0.0011183342,0.003341633,0.008538787,3541,2.4677072e-05,3.8672573e-05,4.068026e-05,41.0,0.0012217306,1007,2110,-510
57099269,0,2228514,-0.022768328,-0.02032654,-0.005099607,4301,-8.179705e-05,2.6973397e-05,2.9274692e-05,40.0,0.0012217306,1025,2090,-514
57199349,0,2228514,-0.016706957,-0.021787453,-0.0053471914,3561,-1.7935357e-05,-3.8246428e-05,-9.727755e-08,40.0,0.0012217306,1011,2116,-522
57304516,0,2228514,0.0020484207,0.0036518953,0.005626027,4345,3.9234514e-05,6.018114e-06,-2.2450688e-05,40.0,0.0012217306,989,2082,-516
57403158,0,2228514,-0.010957886,-0.011219508,-0.0064750332,3578,-3.8901348e-05,-4.758167e-05,-3.7728714e-05,40.0,0.0012217306,1027,2131,-527
57505374,0,2228514,-0.017106405,-0.022879777,-0.0025233328,4295,-3.3515094e-05,-0.0001723262,-1.4441072e-05,40.0,0.0012217306,1023,2143,-530
57608398,0,2228514,0.0053103655,0.0083766505,-0.001672886,4353,9.822619e-05,4.740271e-05,6.260843e-05,40.0,0.0012217306,966,2061,-506
57707736,0,2228514,-0.008355577,0.0033203869,-0.004470337,4312,1.343937e-05,3.2571876e-05,-3.059056e-05,40.0,0.0012217306,1018,2129,-534
57810674,0,2228514,0.005955419,-0.0057313363,-0.01015578,4290,-1.2623543e-05,-4.32003e-05,-3.4656667e-05,40.0,0.0012217306,992,2082,-523
57910116,0,2228514,-0.015550933,-0.041251138,-0.00733567,4346,-1.3541211e-05,-0.00011317088,1.9731639e-05,40.0,0.0012217306,1010,2117,-518
58013019,0,2228514,0.0017730203,-0.001688532,-0.0017689621,4289,2.0221183e-05,7.2991395e-05,-3.4572673e-05,40.0,0.0012217306,992,2080,-526
58115979,0,2228514,-0.017885195,-0.029059358,-0.0047980915,3565,-9.142778e-05,-0.00012911082,-8.621724e-06,40.0,0.0012217306,1036,2132,-529
58215365,0,2228514,-0.035270076,-0.06826052,-0.008304867,4290,-0.00018290845,-0.0003097502,-3.9373077e-05,40.0,0.0012217306,1031,2127,-519
58318325,0,2228514,-0.01558429,-0.037767675,-0.009397379,3546,-8.821711e-06,-5.3686068e-05,-2.950065e-05,40.0,0.0012217306,1013,2101,-524
58417710,0,2228514,0.00066921045,0.01073492,0.0018635128,4286,3.6072204e-05,0.00012487672,3.068072e-05,40.0,0.0012217306,1009,2091,-515
58518525,0,2228514,-0.013885795,0.0011053862,-0.0013168175,4290,-9.402471e-06,6.1339226e-05,3.252279e-05,40.0,0.0012217306,996,2072,-516
58621485,0,2228514,0.0022171964,-0.015926646,0.0018708569,4274,-1.7756905e-05,-1.5748732e-05,-3.09272e-06,40.0,0.0012217306,1015,2095,-519
58724444,0,2228514,-0.0014726586,-0.008790886,0.0037241597,3575,7.143498e-05,-3.2021486e-05,3.489001e-05,40.0,0.0012217306,987,2090,-503
58825321,0,2228514,-0.006011463,-0.007954729,8.565425e-05,4351,-1.2149271e-05,-0.00013032042,-2.5621686e-05,40.0,0.0012217306,1018,2134,-525
58928271,0,2228514,-0.023831775,-0.034713943,0.0020922471,4341,2.9563205e-05,0.00015019576,6.130627e-05,40.0,0.0012217306,1011,2070,-507
59027608,0,2228514,0.0019405193,-0.0053993105,0.0030742488,4294,4.905365e-07,2.693664e-05,1.9584433e-05,40.0,0.0012217306,1010,2081,-510
59130601,0,2228514,0.015475002,0.0131531255,0.012703691,4326,3.5202997e-05,3.0536856e-05,4.692795e-05,40.0,0.0012217306,1009,2097,-510
59231383,0,2228514,-0.0048086196,-0.01815046,-0.000793336,4293,1.5674214e-05,-7.163648e-05,2.3189214e-05,40.0,0.0012217306,985,2087,-514
59332917,0,2228514,-0.007477592,-0.0052947104,-0.0020272268,4297,-5.6139606e-07,-2.9666692e-06,2.3924324e-05,40.0,0.0012217306,1020,2117,-511
59433724,0,2228514,-0.0025468594,-0.0039884923,0.00027097046,4259,8.436528e-05,2.9564006e-05,7.0083797e-06,40.0,0.0012217306,993,2096,-508
59533837,0,2228514,-0.007789922,-0.023529151,-0.0040300186,4299,-3.463178e-05,-8.534836e-05,-5.767689e-06,40.0,0.0012217306,1020,2127,-519
59638270,0,2228514,-0.008022776,-0.014103733,-0.00014582189,3631,-2.9655896e-05,-9.566329e-05,-1.7788909e-05,40.0,0.0012217306,1000,2125,-521
59737600,0,2228514,-0.008910008,-0.019243125,-0.00466835,4285,-8.162251e-05,-0.00014050414,-2.3267396e-05,40.0,0.0012217306,1020,2131,-524
59836984,0,2228514,-0.007822652,-0.0059429137,-0.0036240902,4264,-4.452962e-05,-0.00014562746,-4.406278e-05,40.0,0.0012217306,1012,2114,-523
59941375,0,2228514,-0.012335765,-0.028990138,-0.0064063612,4243,-1.4239011e-05,-0.00014554932,-3.4309473e-05,40.0,0.0012217306,1009,2119,-516
60044386,0,2228514,-0.006978774,-0.03264559,-0.00787299,3627,-6.780981e-05,-0.00017910676,-5.9420006e-05,40.0,0.0012217306,1031,2131,-527
60143736,0,2228514,0.0006426434,0.009537966,0.00051606965,4307,-8.194274e-06,8.8534915e-05,1.1774473e-05,40.0,0.0012217306,1007,2077,-516
60246679,0,2228514,-0.008673534,-0.0029944915,0.0062512825,3571,-3.503437e-05,-6.3525455e-05,3.5270576e-05,40.0,0.0012217306,1019,2123,-515
60346131,0,2228514,-0.007137621,0.011335626,0.0075554284,4320,-6.351037e-05,-5.176316e-05,1.7035685e-05,40.0,0.0012217306,1029,2139,-524
60449062,0,2228514,0.00010800081,-0.0131763015,-0.0048600715,3612,1.3167227e-05,-2.4525067e-05,-9.2543305e-06,40.0,0.0012217306,1011,2082,-515
60552700,0,2228514,-0.030978166,-0.039006945,-0.0097884545,4279,-9.093821e-05,-8.635597e-05,-1.2875357e-05,40.0,0.0012217306,1006,2077,-513
60657150,0,2228514,-0.006380946,0.0063557546,0.010145453,4351,-2.8990711e-05,0.00015679175,4.820938e-05,40.0,0.0012217306,1009,2072,-508
60756504,0,2228514,-0.0025360354,0.010978859,0.0012643941,4319,-8.190333e-06,0.0001779186,6.576471e-06,40.0,0.0012217306,1002,2078,-513
60856575,0,2228514,-0.009253765,-0.0067164684,-0.0025725558,4225,-3.4126955e-05,-6.671207e-05,-1.1724855e-05,40.0,0.0012217306,1017,2110,-524
60960250,0,2228514,-0.020069836,-0.0408058,-0.0015254708,4290,-3.4518034e-05,-9.027598e-05,-3.4610464e-05,40.0,0.0012217306,1021,2107,-534
61058946,0,2228514,-0.003948291,-0.02189329,-0.0024961852,4316,-0.00010674348,-0.000176153,-4.016545e-05,40.0,0.0012217306,1024,2130,-528
61162595,0,2228514,-0.013146916,-0.023021039,0.0001804946,4273,-4.1993124e-05,-8.1666934e-05,1.9509649e-05,40.0,0.0012217306,1024,2129,-514
61264159,0,2228514,0.001694776,0.001263207,0.0046926513,4324,8.271894e-05,9.848083e-05,7.343557e-05,40.0,0.0012217306,993,2091,-501
61367108,0,2228514,-0.0061552892,-0.030574976,-0.01128457,3580,-2.289233e-05,-0.00012455575,-5.3409665e-05,40.0,0.0012217306,1008,2112,-531
61466517,0,2228514,-0.003556181,-0.017718596,0.0037122632,4337,-1.1605124e-05,-0.00011636564,5.9661623e-05,40.0,0.0012217306,1011,2113,-508
61566602,0,2228514,-0.009677535,-0.0070168674,-0.004736365,5034,8.728246e-05,-6.235834e-06,3.8738176e-06,40.0,0.0012217306,993,2119,-514
61670263,0,2228514,-0.009876998,-0.020733964,-0.0035808391,4270,-2.8359e-05,1.9353816e-05,3.283461e-05,40.0,0.0012217306,1017,2083,-509
61773230,0,2228514,-0.006205545,-0.018425846,-0.00044902533,4314,4.6173456e-05,-0.00014913018,-3.6574027e-05,40.0,0.0012217306,1002,2110,-524
61876891,0,2228514,-0.0035531167,-0.015863415,-0.005146669,4301,9.6232674e-05,-1.6534248e-05,2.4939787e-05,40.0,0.0012217306,966,2073,-506
61979840,0,2228514,0.001798087,-0.014146549,-0.0016643882,4290,2.7576654e-05,6.807084e-06,-1.8001505e-05,40.0,0.0012217306,995,2097,-521
62079225,0,2228514,-0.00026290817,-0.01604817,-0.01171831,4267,-1.9387462e-05,-0.00010214279,-1.1284956e-05,40.0,0.0012217306,1017,2118,-511
62182185,0,2228514,0.004343407,-0.025581975,-0.0018070067,4218,7.293434e-05,-2.5676154e-05,-1.7683937e-05,40.0,0.0012217306,988,2094,-517
62282319,0,2228514,-0.010724946,-0.015377268,-0.0026292237,3569,-9.901507e-06,-1.2199313e-05,2.624264e-06,40.0,0.0012217306,1021,2117,-517
62381670,0,2228514,0.008838574,0.010899925,-0.0075337677,4290,5.7290446e-05,3.7396763e-05,-2.0626207e-05,40.0,0.0012217306,990,2087,-525
62486116,0,2228514,0.03191664,0.022392571,-0.00025106044,3631,9.169625e-05,6.961291e-05,2.6441632e-05,40.0,0.0012217306,983,2075,-511
62586942,0,2228514,-0.0006376932,0.023536708,0.000808743,4324,4.4890083e-05,0.00021253241,-7.950655e-06,40.0,0.0012217306,993,2055,-514
62686975,0,2228514,0.018862737,0.02496819,0.0057177036,3556,5.815898e-05,-2.9021723e-05,-1.3542731e-05,40.0,0.0012217306,993,2117,-527
62790649,0,2228514,0.0062527196,-0.014662465,0.00641647,4283,3.2777898e-05,3.2097523e-05,1.3415518e-05,41.0,0.0012217306,1005,2092,-515
62893609,0,2228514,0.007858906,-5.5273435e-05,0.00562825,4245,8.4049214e-05,0.0002267291,6.69445e-05,41.0,0.0012217306,978,2040,-510
62997336,0,2228514,0.0037525184,0.0015510357,-0.00051973434,4341,-2.5773674e-05,-0.00014158107,-1.0159099e-05,41.0,0.0012217306,1002,2116,-516
63100269,0,2228514,0.05171343,0.06542252,0.007737596,4314,0.00032800392,0.00042339214,0.00011205077,41.0,0.0012217306,950,2007,-488
63199629,0,2228514,0.013374701,0.02698973,-0.0014375497,4289,-6.7627014e-05,-5.519659e-05,-2.4983949e-05,41.0,0.0012217306,1017,2126,-518
63302602,0,2228514,0.011186208,0.03037503,0.0021673872,4280,1.6533669e-06,5.7449695e-05,1.0009968e-05,41.0,0.0012217306,1030,2120,-520
63401315,0,2228514,0.01932118,0.037177462,-0.0010255473,3621,3.174172e-05,0.0001322617,9.155438e-06,41.0,0.0012217306,975,2038,-510
63504934,0,2228514,0.010377269,0.010148888,-0.0024844157,4289,4.609473e-05,-6.03189e-05,-1.537697e-05,41.0,0.0012217306,1008,2105,-514
63604403,0,2228514,0.015932756,0.024203287,0.0058004763,4334,-1.4934469e-05,-5.411392e-06,2.3193525e-05,41.0,0.0012217306,1011,2088,-516
63708710,0,2228514,0.0032781211,0.00943556,-0.0016184096,4291,-5.3758093e-05,-3.883212e-05,-9.341607e-06,41.0,0.0012217306,1016,2100,-518
63810240,0,2228514,-0.0053069377,-0.008515053,-0.003823443,4265,1.610841e-05,0.00011263718,-2.4068175e-05,41.0,0.0012217306,1002,2093,-521
63913954,0,2228514,0.007262983,0.015234822,0.0027120244,4328,4.8297643e-05,8.613345e-05,3.2855336e-05,41.0,0.0012217306,987,2087,-512
64014026,0,2228514,0.011413489,-0.001522386,0.0007851322,4302,6.790149e-05,0.000103066945,3.0081332e-05,41.0,0.0012217306,1006,2093,-520
64117715,0,2228514,-0.004723707,-0.006682552,-0.0032534841,4311,5.1871546e-05,8.820507e-05,1.3786431e-05,41.0,0.0012217306,977,2062,-503
64217789,0,2228514,-0.009169271,-0.0071610226,0.00019906483,4289,1.0520671e-05,5.6908717e-05,2.9936833e-05,41.0,0.0012217306,1019,2116,-513
64320792,0,2228514,0.020797249,0.006642972,0.0035363517,3609,6.481432e-05,-7.2240735e-05,-1.8062954e-05,41.0,0.0012217306,991,2113,-519
64420175,0,2228514,-0.009911654,-0.013145862,-0.009607533,4330,-1.5724807e-05,2.3239098e-05,-4.0115017e-05,41.0,0.0012217306,1011,2106,-528
64523094,0,2228514,-0.0008067695,-0.017869702,-0.0047460003,3566,5.025499e-05,3.7159905e-05,-8.300026e-06,41.0,0.0012217306,994,2088,-517
64622480,0,2228514,0.012740968,-0.0052223145,0.0009519288,4290,7.7492645e-05,-6.0246988e-05,4.9261733e-05,41.0,0.0012217306,989,2085,-505
64725440,0,2228514,0.017517107,0.013992468,0.003740063,3576,7.818805e-05,0.00012101634,2.5351348e-05,41.0,0.0012217306,1009,2078,-527
64824825,0,2228514,0.03193848,0.022951197,-0.00088194135,4253,-1.9252427e-06,3.1702537e-05,-3.4314242e-05,41.0,0.0012217306,1005,2095,-533
64927788,0,2228514,0.005832162,-0.0051172436,-0.0010568651,3579,-2.9305456e-05,-4.541157e-05,-1.7066077e-05,41.0,0.0012217306,1005,2074,-524
65031459,0,2228514,0.013068206,0.02219192,0.0026726983,4290,8.5214444e-05,0.00017712383,4.0525705e-05,41.0,0.0012217306,997,2065,-517
65131607,0,2228514,-0.0083795665,-0.019720221,-0.0027879307,3623,-6.343606e-06,2.6213918e-05,3.3962137e-05,40.0,0.0012217306,992,2043,-497
65230946,0,2228514,0.035672866,0.030780157,-0.0004865423,4292,9.400357e-05,0.00014836834,4.753003e-05,40.0,0.0012217306,999,2076,-512
65335335,0,2228514,0.017586492,0.020210888,-0.0037010047,4290,3.4563167e-05,0.00011158777,-1.005239e-05,40.0,0.0012217306,1019,2122,-531
65436160,0,2228514,0.028710123,0.013415345,-0.0066395523,4301,6.2657775e-05,8.258504e-05,-6.989858e-06,40.0,0.0012217306,997,2101,-517
65539159,0,2228514,-0.0027624464,0.0021183863,-0.0049088323,4340,4.0886853e-06,-0.0001282714,-4.046643e-05,40.0,0.0012217306,1035,2143,-531
65639925,0,2228514,0.016277527,0.0121204285,0.0023398395,4291,8.597739e-05,0.00011414012,1.4277661e-05,40.0,0.0012217306,986,2062,-511
65740024,0,2228514,0.01662028,-0.0046576643,-0.0018668505,4248,0.00013536468,8.1112536e-05,4.364786e-05,40.0,0.0012217306,992,2102,-517
65843739,0,2228514,0.015840564,0.016006459,0.00037589326,4329,5.1557185e-05,9.012358e-05,-2.0478039e-05,40.0,0.0012217306,996,2090,-514
65942370,0,2228514,-0.0024319883,0.007243333,-0.004975992,4250,-1.8091734e-05,4.6997277e-05,-1.9825862e-05,40.0,0.0012217306,1003,2076,-521
66045368,0,2228514,0.020459957,0.026422122,0.0037344757,3609,0.00014099032,0.00024199416,3.2268304e-05,40.0,0.0012217306,995,2078,-522
66149005,0,2228514,-0.023260772,-0.026370471,-0.0016849122,4290,-0.00012796909,-0.00026081945,-2.2564867e-05,40.0,0.0012217306,1031,2140,-519
66247736,0,2228514,0.0053976323,-0.014197886,-0.006055682,3637,2.6381249e-05,-5.3553453e-05,1.098462e-05,40.0,0.0012217306,1003,2088,-518
66351349,0,2228514,0.013626802,0.011977637,0.0009966668,4289,8.636363e-05,1.7730015e-05,2.1545386e-05,40.0,0.0012217306,985,2078,-504
66450019,0,2228514,0.0069228807,0.0046633836,-0.0004904296,3574,4.4386074e-05,-2.3677312e-05,1.3633976e-05,40.0,0.0012217306,985,2092,-524
66553742,0,2228514,0.014584877,0.005911213,0.0053273146,4337,0.0001374158,6.6592904e-05,3.5412766e-05,40.0,0.0012217306,978,2073,-518
66656671,0,2228514,0.0019814768,0.004738209,0.0013338905,4292,4.902671e-05,5.8108366e-05,3.293463e-05,40.0,0.0012217306,972,2043,-503
66757472,0,2228514,0.007581555,-0.01555446,-0.0021126068,4224,5.1841937e-05,-0.00017558447,-1.014801e-05,40.0,0.0012217306,998,2129,-519
66856184,0,2228514,0.017945647,0.017360108,0.0069090193,3617,5.335596e-05,2.4361245e-05,1.3147404e-05,40.0,0.0012217306,991,2068,-513
66959827,0,2228514,0.02570301,0.018327242,0.0012899156,4277,0.00010332485,0.000105200765,5.2533338e-05,40.0,0.0012217306,986,2071,-513
67061367,0,2228514,0.036727358,0.029476462,0.0035789348,4313,0.00019711739,0.00023704706,3.6434856e-05,40.0,0.0012217306,975,2038,-504
67160729,0,2228514,0.029065266,0.044077586,0.0067812838,4283,0.00019674776,0.00024144817,5.1814895e-05,40.0,0.0012217306,962,2043,-504
67263736,0,2228514,0.036397375,0.05085592,0.0060009155,4337,8.327576e-05,6.192025e-06,2.1394762e-05,40.0,0.0012217306,994,2089,-518
67364516,0,2228514,0.02974063,0.04809208,-0.00045607955,4302,8.111377e-05,9.279842e-05,5.9093934e-05,40.0,0.0012217306,983,2052,-496
67468895,0,2228514,0.0209894,0.016488682,0.0051980307,4290,0.00012889969,0.00017540641,2.7427917e-05,40.0,0.0012217306,984,2068,-511
67571857,0,2228514,0.04364517,0.07016712,0.0034177145,3535,0.00013614765,0.00018360504,2.6205278e-05,40.0,0.0012217306,976,2038,-513
67672670,0,2228514,0.016019514,0.016895236,0.0030119424,4249,0.00010625799,0.00011820615,2.5528894e-05,40.0,0.0012217306,984,2067,-517
67772816,0,2228514,0.012267758,0.022737566,-0.00045243447,3606,3.0098954e-05,9.1481685e-05,7.745239e-06,40.0,0.0012217306,991,2068,-521
67876444,0,2228514,0.0015566646,0.0033565103,0.0012542949,4286,6.0059454e-05,0.00010804993,4.5753036e-06,40.0,0.0012217306,1015,2107,-524
67975160,0,2228514,0.023388393,0.041672207,0.008209733,3568,5.856193e-05,0.000121642806,5.4738797e-05,40.0,0.0012217306,994,2096,-506
68078789,0,2228514,0.013465879,0.012703095,0.006499188,4289,0.00010422305,0.00012202628,4.306262e-05,40.0,0.0012217306,978,2080,-509
68178894,0,2228514,0.038840383,0.062414255,0.011875321,3580,0.00017186026,0.00028305515,5.2934505e-05,40.0,0.0012217306,972,2005,-501
68995419,0,2228514,0.0061347387,0.0007093395,-0.0030041568,4259,9.067113e-05,0.00014513738,3.0384815e-06,41.0,0.0012217306,987,2072,-520
69098380,0,2228514,0.03738609,0.085050456,0.007510035,4264,0.0002131711,0.00040929424,2.969141e-05,41.0,0.0012217306,964,2026,-525
69197764,0,2228514,0.021420632,0.028605508,0.0018946236,4290,0.00015410333,0.00013019801,-2.3090053e-05,41.0,0.0012217306,997,2061,-522
69300764,0,2228514,0.03473369,0.03470928,0.00375951,4318,0.00019239128,0.0001842885,6.217533e-05,41.0,0.0012217306,971,2081,-498
69400112,0,2228514,0.012905675,0.002915625,0.0032371578,4284,5.2220417e-05,-4.7022815e-05,2.8955394e-05,41.0,0.0012217306,998,2091,-509
69504516,0,2228514,0.047659703,0.07194632,0.012410647,4307,0.0002091408,0.00024534864,5.2127474e-05,41.0,0.0012217306,979,2051,-505
69605316,0,2228514,0.004838854,0.024016274,0.0013078017,4292,3.982073e-05,0.00016498959,3.00566e-05,41.0,0.0012217306,996,2060,-518
69708321,0,2228514,0.005772214,0.0056786775,0.0048153605,4337,0.00013236472,0.00021746721,7.285867e-05,40.0,0.0012217306,970,2047,-501
69808429,0,2228514,-0.004592763,-0.014084174,-0.004555593,3630,-4.025265e-05,3.2802152e-06,-2.1148564e-05,40.0,0.0012217306,1005,2078,-514
69907788,0,2228514,0.025098996,0.03020338,0.0030098278,4319,1.4465833e-05,3.4041474e-05,2.9317844e-06,40.0,0.0012217306,993,2068,-510
70010004,0,2228514,0.010985025,0.014193341,-0.0022923416,4289,9.260727e-05,0.00013267103,-2.2332579e-05,40.0,0.0012217306,967,2026,-518
70112965,0,2228514,0.011956061,0.0058722137,-0.00044065653,4290,0.00017189924,0.00025661621,3.861676e-05,40.0,0.0012217306,971,2066,-515
70212357,0,2228514,0.02502163,0.05457654,0.002930339,4252,0.00026779456,0.0002827054,2.79364e-05,40.0,0.0012217306,944,2043,-508
70315319,0,2228514,0.04363852,0.05351305,-0.0019594866,4299,0.0002634746,0.00036402565,-9.844923e-06,40.0,0.0012217306,954,2000,-516
70418271,0,2228514,0.040243667,0.05913028,0.013954567,3521,0.00017070632,0.00029810276,6.6375425e-05,40.0,0.0012217306,975,2063,-504
70517654,0,2228514,0.05863979,0.07628963,-0.0037680713,4247,0.0004755887,0.0005337839,5.5261617e-06,40.0,0.0012217306,921,2000,-516
70620615,0,2228514,0.06990173,0.09878694,0.033972938,4255,0.00012846818,0.00047360294,0.0001607063,40.0,0.0012217306,937,1965,-476
70721430,0,2228514,0.049081545,0.10490087,0.012341307,4248,0.0006276874,0.00052636315,6.377112e-05,40.0,0.0012217306,815,1973,-520
70824410,0,2228514,0.010138679,-0.003852951,0.00837981,4301,0.00038307317,-0.00016478554,9.149876e-05,41.0,0.0012217306,870,2115,-513
70925228,0,2228514,0.055027332,0.08695864,0.018539233,4314,8.7224216e-05,-2.5855117e-05,0.00014814644,41.0,0.0012217306,892,2236,-485
71025323,0,2228514,0.09303859,0.016280241,0.022430414,4308,0.0006151642,0.00014735167,3.5685374e-05,41.0,0.0012217306,1030,1968,-528
71124690,0,2228514,0.113669574,-0.036077347,0.002004873,4290,0.00195519,0.00014863016,6.23342e-06,41.0,0.0012217306,798,2148,-529
71227742,0,2228514,0.14880106,-0.053577572,-7.164057e-05,4383,-0.00036896992,6.3682935e-05,0.0001274784,41.0,0.0012217306,1255,1883,-547
71331324,0,2228514,-0.0037356615,-0.069644794,0.0020353,4258,0.0002048381,-0.00018899063,0.00023906423,41.0,0.0012217306,979,2112,-583
71434284,0,2228514,-0.0012228624,-0.04688565,0.00094246335,4246,0.0008940292,-0.00037170923,-0.00022162705,41.0,0.0012217306,461,2253,-675
71537244,0,2228514,0.30881727,-0.16380434,0.011151146,3574,0.001504995,-0.0005610527,0.00030310242,41.0,0.0012217306,976,2195,-507
71640920,0,2228514,0.031531435,0.08254076,0.02739107,4290,0.00047825518,0.0005864248,0.00041736913,41.0,0.0012217306,1111,1893,-552
71739602,0,2228514,0.007321039,-0.11894901,0.015673479,3576,-5.8940343e-05,-0.00062813144,0.0001767916,41.0,0.0012217306,956,2033,-448
71838975,0,2228514,0.065986834,-0.011048928,0.047363922,4225,0.0010495251,0.0010077227,0.00011151394,41.0,0.0012217306,1037,2054,-566
71943365,0,2228514,-0.8548295,0.5145951,0.03215981,4290,-0.004471822,0.001063587,0.00016381226,41.0,0.0012217306,1697,2100,-432
72042750,0,2228514,0.718902,-0.118902855,0.0023137117,4290,0.0031722453,0.00024667897,1.3881028e-05,40.0,0.0012217306,434,1917,-583
72145710,0,2228514,-0.17996716,0.016324747,-0.0012972774,4290,-0.00039748813,-0.0007999545,0.00013287379,40.0,0.0012217306,1006,2650,-458
72246525,0,2228514,0.14781111,0.024083272,0.007996517,4290,0.000107323955,-4.3101973e-05,0.0001816244,40.0,0.0012217306,1140,1940,-508
72346629,0,2228514,-0.13795102,0.040843688,-0.008258143,4275,-0.0006063578,0.00063430343,0.000155384,40.0,0.0012217306,1151,2258,-557
72450300,0,2228514,0.010361094,0.069796994,-0.009415817,4290,0.00031383682,0.00079135556,3.1910207e-05,40.0,0.0012217306,1113,1827,-584
72553340,0,2228514,-0.15164012,0.23547791,-0.028756676,4370,-0.00072099816,0.00031369322,2.8266337e-05,40.0,0.0012217306,973,1986,-615
72656220,0,2228514,-0.14107297,0.030127876,-0.029288683,3575,-0.00051829516,-0.00084111904,-0.0002165953,40.0,0.0012217306,1104,2425,-585
72759895,0,2228514,-0.1967219,0.081070706,0.028476462,4291,-0.0013323915,-0.0017161116,0.000324808,40.0,0.0012217306,1496,2623,-554
72858565,0,2228514,-0.013182829,0.092091635,0.01789622,3575,0.0010593076,0.0020475038,-2.0304244e-05,40.0,0.0012217306,506,1732,-480
72962240,0,2228514,0.11067302,0.061569728,-0.0013635291,4284,-0.0010562277,-0.00031669802,7.855715e-05,40.0,0.0012217306,1110,2117,-433
73060909,0,2228514,-0.06586549,-0.010749864,0.004986339,3542,0.0001311435,0.00019071522,-2.114388e-05,40.0,0.0012217306,691,2016,-518
73164609,0,2228514,0.067427844,0.03452056,-0.014717026,4238,-0.0014966119,-0.001150829,2.854693e-05,40.0,0.0012217306,1513,2317,-557
73263267,0,2228514,-0.03754535,0.0013825226,0.011996378,3531,0.00015347118,-0.00070925633,5.7944926e-05,40.0,0.0012217306,1050,2482,-515
73366946,0,2228514,0.18219012,-0.06984629,0.039287593,4306,0.00015023748,6.221313e-05,0.0001265944,40.0,0.0012217306,1049,1996,-534
73468516,0,2228514,0.13110146,-0.062359374,0.029329672,4344,-0.0005057334,0.0008971065,5.785373e-05,40.0,0.0012217306,1013,1902,-597
73569315,0,2228514,0.15591794,-0.013441769,-0.030584548,4323,0.0017144264,-0.0006213681,-6.57442e-05,40.0,0.0012217306,984,1791,-601
73672234,0,2228514,0.0801493,0.029126663,-0.06352309,4289,0.0014330706,-0.0002442608,-3.838216e-05,40.0,0.0012217306,969,1687,-670
73773050,0,2228514,0.032500125,0.16186638,-0.020512454,4290,-0.00095567136,0.0010862073,-0.0003558257,40.0,0.0012217306,994,2221,-655
73876011,0,2228514,-0.12782022,0.058491852,0.029425707,4275,-0.00084463914,0.00064258184,3.4783057e-05,40.0,0.0012217306,1129,1708,-641
73975394,0,2228514,0.07014527,0.036230784,0.0076391827,4287,0.0015666866,0.001119107,-2.609507e-05,40.0,0.0012217306,896,1861,-523
74078355,0,2228514,-0.026980305,-0.12715103,0.017512878,4261,-0.0011418912,0.00010744385,7.5260774e-05,40.0,0.0012217306,914,2197,-490
74179916,0,2228514,-0.15504323,-0.0330029,0.037813414,4994,0.00033778598,-0.0012683312,0.00024647778,40.0,0.0012217306,693,2202,-443
74279270,0,2228514,0.14498357,0.023914361,-0.04960938,4290,-5.907636e-05,0.0014088515,-0.00026054846,41.0,0.0012217306,1257,1819,-527
74383716,0,2228514,-0.07905574,-0.050667733,-0.027759245,4299,-0.00037707458,-0.002214111,-9.8206816e-05,41.0,0.0012217306,813,2444,-410
74484517,0,2228514,-0.09939484,-0.018161722,0.031691913,4332,-0.00087973446,-0.0014536419,6.742116e-06,41.0,0.0012217306,970,2407,-388
74586004,0,2228514,-0.06624599,0.054862086,-0.0016765042,3574,-0.0013006991,-0.0007394349,-6.657249e-05,41.0,0.0012217306,1419,2155,-598
74685390,0,2228514,0.0022159517,0.056572042,0.015515954,4215,0.0009585603,-0.001724864,0.0001488951,41.0,0.0012217306,732,2321,-528
74788392,0,2228514,-0.002283757,-0.026831964,0.026072338,3618,0.0013631397,-0.00030665306,9.920319e-05,41.0,0.0012217306,892,2009,-498
74892024,0,2228514,0.06351662,0.0022569494,-0.027080461,4254,0.0014371938,0.0011702165,-0.0005272636,41.0,0.0012217306,838,1643,-447
74990750,0,2228514,-0.012942246,0.06369031,-0.004628137,4346,0.0001659718,-0.0017316451,-9.033435e-05,41.0,0.0012217306,641,2432,-409
75090098,0,2228514,0.0387958,-0.050952166,0.0147064105,4308,-0.00068527623,0.0020323114,-0.00013340761,41.0,0.0012217306,1199,1847,-542
75193045,0,2228514,-0.0047139996,0.08658637,-0.024526251,4295,-0.0006227995,0.00041646964,9.758186e-06,41.0,0.0012217306,1270,2326,-529
75296715,0,2228514,-0.03146632,0.0044047832,0.021500546,4291,0.00063125964,0.0014362092,-9.727349e-05,41.0,0.0012217306,1116,1807,-513
75396816,0,2228514,0.043197755,0.045065127,0.006755993,4249,0.0009692957,6.0529455e-05,6.859367e-05,41.0,0.0012217306,833,2246,-398
75499813,0,2228514,0.107504085,0.081241116,0.01657067,3613,0.00047603296,0.0016347193,1.4547125e-05,41.0,0.0012217306,1191,2069,-520
75602020,0,2228514,0.010836141,-0.09228027,-0.021122616,4291,-0.000842697,-0.00062550756,-0.0001494051,41.0,0.0012217306,1126,2248,-489
75701412,0,2228514,0.013815326,-0.014368875,0.011107546,4213,0.0009490681,0.0012736656,5.051316e-05,41.0,0.0012217306,1039,1740,-622
75804401,0,2228514,0.013547846,0.08761336,-0.00921862,4327,5.0137813e-05,0.0007179204,-0.00019981756,41.0,0.0012217306,942,2451,-477
75903788,0,2228514,0.08669496,-0.048976857,0.030168043,4328,0.0013272191,-0.00090209884,8.69925e-05,41.0,0.0012217306,654,2118,-452
76006763,0,2228514,0.14805931,-0.05019466,-0.0052753747,4343,-0.0008886715,0.0005996013,-0.00019600845,41.0,0.0012217306,1000,2338,-508
76106095,0,2228514,0.07247007,-0.068675496,-0.024434341,4286,0.0002507934,-0.000676252,-0.00025835016,41.0,0.0012217306,558,2153,-538
76209055,0,2228514,0.011536345,0.02737809,-0.046974726,4290,-0.0004545526,-0.0003446759,-0.00025066274,41.0,0.0012217306,1108,2474,-486
76309172,0,2228514,-0.0393799,-0.013916085,-0.063663945,5004,-0.000699769,-0.0003577327,-0.00012360263,41.0,0.0012217306,933,2043,-558
76410001,0,2228514,0.117391065,0.049065895,-0.047775265,4321,0.0010297089,0.0011709218,-0.00023851696,41.0,0.0012217306,734,1637,-572
76514360,0,2228514,-0.02972072,0.03228678,-0.049096055,4266,0.00042897195,0.0003828871,-0.00020495488,41.0,0.0012217306,1076,2272,-473
76613765,0,2228514,0.04087269,0.14416465,-0.054294787,4310,-6.898274e-05,0.0014376163,-0.00045736672,40.0,0.0012217306,879,2208,-494
76718153,0,2228514,0.06302305,0.0701502,-0.046744697,4309,-0.00044858747,-0.0003031951,-0.00021166698,40.0,0.0012217306,965,2237,-666
76817522,0,2228514,-0.029176036,0.034443647,-0.08988565,4257,-0.00021934563,-0.0009858703,-0.00013776681,40.0,0.0012217306,1095,2030,-750
76920516,0,2228514,0.010336229,0.13657576,-0.032346494,4281,-0.0006388445,-0.0007483391,0.00010860246,40.0,0.0012217306,1166,2515,-566
77019865,0,2228514,0.0972209,0.098453805,0.01641833,4249,0.0008107696,0.0012429571,0.00012813092,40.0,0.0012217306,1057,1913,-359
77122824,0,2228514,0.021146866,-0.23947136,0.07412577,4289,0.00049846724,5.494486e-05,0.00020119674,40.0,0.0012217306,1002,2263,-393
77222258,0,2228514,0.15306467,-0.21350788,0.06529524,4302,4.2556603e-05,-0.0005437379,0.00039671452,40.0,0.0012217306,1159,2034,-366
77325216,0,2228514,-0.0795269,-0.16652404,0.06497556,4336,-8.421057e-05,-0.0007993882,0.00017791764,40.0,0.0012217306,1101,2067,-403
77428166,0,2228514,0.07701553,0.06720226,0.08210196,3599,0.00136487,0.000497107,0.000306524,40.0,0.0012217306,1039,1744,-532
77527537,0,2228514,0.11308132,0.10256092,0.06273757,4313,-0.0005292149,0.0011085726,0.00015483887,40.0,0.0012217306,1192,1786,-412
77630517,0,2228514,0.2262953,0.7470808,0.054994043,3574,0.0012915401,0.003339596,6.827562e-05,40.0,0.0012217306,993,1541,-471
77729860,0,2228514,0.14036755,0.34995598,0.041488342,4290,0.00036600305,0.00044331574,0.000500165,41.0,0.0012217306,1282,2089,-502
77835716,0,2228514,0.26773784,0.12815908,0.052999876,3609,-0.00031186987,0.0006623648,0.00014255232,41.0,0.0012217306,1391,2036,-549
77935065,0,2228514,-0.26443702,-0.047126252,0.04114261,4265,-0.0022031057,0.00039574163,0.0004111922,41.0,0.0012217306,1324,2320,-773
78034455,0,2228514,-0.68141204,0.02252633,-0.017617704,4252,-0.0029230253,0.00040966787,0.00037414246,41.0,0.0012217306,1947,2086,-685
78137421,0,2228514,-0.486236,0.040525317,-0.023520637,4234,-0.0029103965,-0.0008890172,-0.00015731953,41.0,0.0012217306,1321,2066,-396
78240401,0,2228514,-0.3369486,0.11486219,0.021401051,4322,-0.0003039827,0.00035895078,0.00012420153,41.0,0.0012217306,1191,2027,-568
78339767,0,2228514,0.33918342,0.12652275,0.06283697,4302,0.00012234035,-0.00033663615,0.00048934855,41.0,0.0012217306,761,2099,-627
78442750,0,2228514,1.2066709,0.28714395,0.06737736,4325,0.0039478224,0.0015162966,0.00023778458,41.0,0.0012217306,84,1961,-452
78543589,0,2228514,0.3637651,0.1850116,0.056381393,4346,0.0024773537,0.001303327,0.00020843507,41.0,0.0012217306,687,1784,-432
78643629,0,2228514,0.24968019,0.20055708,0.05435285,3568,0.00035137995,0.0012939668,0.00044128226,41.0,0.0012217306,1391,1886,-398
78747305,0,2228514,0.15659708,-0.033092305,0.069852695,4290,0.0016791875,0.0011260074,0.0002903882,41.0,0.0012217306,787,1991,-532
78847404,0,2228514,0.13473757,-0.15453376,0.07049518,4239,0.0004978526,-0.001558478,0.00031383903,40.0,0.0012217306,587,2306,-555
78951803,0,2228514,-0.06820098,-0.30659983,0.057479225,3532,0.000633423,-0.00056524173,4.3266453e-05,40.0,0.0012217306,826,2185,-436
79051182,0,2228514,0.11386789,0.13225655,0.08327235,4267,0.0024062886,0.00045922352,0.0003296381,40.0,0.0012217306,515,1765,-542
79151994,0,2228514,0.210323,0.09448601,0.04046589,4278,0.0018350213,-0.00012422614,0.00011229986,40.0,0.0012217306,565,1979,-323
79254988,0,2228514,0.018800989,0.0018165983,0.009041679,4324,0.00055221294,-0.00024470015,0.00023836699,40.0,0.0012217306,1214,2080,-597
79354339,0,2228514,0.15177074,0.5405596,0.0069047855,4210,0.0013003985,0.002107992,-9.7412136e-05,40.0,0.0012217306,631,2043,-582
79457318,0,2228514,-0.041681126,0.5374701,0.016932111,4302,-0.00089789863,0.0024879954,0.00037582565,40.0,0.0012217306,1267,1625,-582
79560260,0,2228514,-0.6548128,0.44914532,-0.029312456,3575,-0.0018634446,0.002303565,-2.5769086e-05,40.0,0.0012217306,1750,1736,-521
79659644,0,2228514,-0.8253629,0.44942403,-0.008182981,4289,-0.0045181797,0.0022957714,-0.00017392646,40.0,0.0012217306,1607,1819,-387
79764034,0,2228514,-0.12143985,0.26108536,0.018278321,4255,-0.0010146773,0.0008942377,0.0002223062,40.0,0.0012217306,1076,2092,-458
79863420,0,2228514,0.07832971,0.25460047,0.07550928,4249,0.0010535031,0.0015873655,0.00018617064,40.0,0.0012217306,925,1732,-517
79963564,0,2228514,0.0017345176,0.004138136,0.0072817644,3619,-0.0008335637,-0.0008335231,0.00011953678,40.0,0.0012217306,510,2119,-462
80068625,0,2228514,0.17193899,0.08413008,0.03367577,4269,0.0006301841,0.0005172654,0.00026472952,41.0,0.0012217306,1105,1955,-447
80167294,0,2228514,0.020590391,0.05258504,0.013379375,3527,0.0010931499,0.0016240249,-3.002979e-05,41.0,0.0012217306,808,1733,-513
80270978,0,2228514,0.2503714,0.23062587,0.020423684,4260,0.0011227237,0.00047347468,0.00012810552,41.0,0.0012217306,621,2122,-490
80369666,0,2228514,0.16810335,0.07790081,0.021216748,4298,0.001032326,0.0008738343,-7.63828e-05,41.0,0.0012217306,899,1827,-381
80473316,0,2228514,0.1852255,0.13385333,0.036232248,4248,0.0010933144,0.00056548254,-1.7505155e-05,41.0,0.0012217306,895,2060,-591
80573414,0,2228514,0.2388272,0.10215812,0.015706008,4232,0.0026535082,0.00020007495,-7.2299845e-05,41.0,0.0012217306,663,1961,-589
80672800,0,2228514,1.1181644,0.21320726,0.05731561,4284,0.005747065,0.0007326642,0.00042691577,41.0,0.0012217306,140,1941,-690
80775767,0,2228514,0.4079194,0.16168264,0.037816476,4297,0.0026736462,0.00054592255,-1.9382936e-05,41.0,0.0012217306,714,1833,-463
81082495,0,2228514,0.16392393,0.21084099,0.06609587,3553,0.00058720296,0.0007184612,0.00020247787,41.0,0.0012217306,529,1724,-435
81181879,0,2228514,0.123691574,0.25846148,0.049627267,4289,0.0014270829,0.0013700213,0.00032352246,41.0,0.0012217306,621,1612,-547
81284840,0,2228514,0.1322984,0.21562074,0.041536167,3525,0.00061306765,0.0013480666,8.916784e-05,41.0,0.0012217306,693,2036,-532
81384224,0,2228514,0.10500926,0.1836999,0.044746816,4290,0.00055875303,0.001596448,0.0003328129,41.0,0.0012217306,829,1511,-396
81488631,0,2228514,0.021257048,0.1652055,0.02148999,3570,0.00050229614,0.00049271225,-7.521588e-05,41.0,0.0012217306,895,2199,-379
81588000,0,2228514,0.07779745,0.0992089,0.015350332,4278,0.00092203316,0.0011796297,0.00011727954,41.0,0.0012217306,733,1809,-652
81690992,0,2228514,0.15189831,0.18235262,0.021961497,3587,0.001746085,0.000435435,-0.00028787256,41.0,0.0012217306,799,2245,-424
81790344,0,2228514,0.061733536,0.16573028,0.044225827,4218,0.0009169423,0.000570084,0.0004773229,41.0,0.0012217306,658,1629,-582
81893316,0,2228514,0.09865979,0.20250727,0.04833922,3586,0.00048732315,0.00042687677,2.9484734e-05,41.0,0.0012217306,827,1941,-486
81994156,0,2228514,0.099575184,0.14392222,0.023926808,4327,-0.00032853993,-0.00042489008,0.00021523886,41.0,0.0012217306,851,1851,-548
82097079,0,2228514,0.069411196,0.16535735,0.010302065,4290,0.00076482265,-0.00025795496,-7.0255235e-05,41.0,0.0012217306,538,1950,-392
82197928,0,2228514,0.08239196,0.14908634,0.009709481,4324,-0.000102855796,0.00015226785,0.00030756823,41.0,0.0012217306,1572,2008,-470
82296569,0,2228514,0.0719574,0.034497257,0.002303213,3579,0.0013403886,-2.9771085e-05,0.00017474496,41.0,0.0012217306,666,1702,-641
82400240,0,2228514,0.004060453,0.045861285,-0.32213333,4290,0.00045037805,0.0005962164,-0.0018532313,41.0,0.0012217306,825,2114,-749
82503219,0,2228514,0.04443264,0.12698586,-0.8483717,4283,0.00039525787,-9.467127e-05,-0.0039472557,41.0,0.0012217306,717,2230,-1045
82602585,0,2228514,0.025880331,0.09873516,-1.113433,4263,-0.0013165344,0.0001602611,-0.0047263247,41.0,0.0012217306,1324,2252,-1379
82705545,0,2228514,-0.033242546,0.09871664,-0.78809315,4230,0.00019381031,-0.00022601463,-0.0034635114,41.0,0.0012217306,1016,2349,-1132
82812799,0,2228514,0.06867828,-0.0064196717,-0.4911595,4268,-0.00038846896,-3.2033797e-05,-0.0021739646,41.0,0.0012217306,778,1879,-891
82909320,0,2228514,0.037697088,0.14851366,-0.25159338,4261,0.00044043156,0.00077414745,-0.00087070605,41.0,0.0012217306,1031,2060,-774
83012279,0,2228514,0.03099394,0.091097474,-0.13763958,3574,0.00022768993,0.00056859996,-0.0005114351,41.0,0.0012217306,814,1945,-569
83115955,0,2228514,0.018220339,0.13425276,-0.20629835,4239,0.00050122006,0.00027915716,-0.0010891402,41.0,0.0012217306,1045,1943,-876
83214625,0,2228514,0.15040174,0.06348964,-0.48816192,3576,0.00048712402,0.000618924,-0.0021146035,41.0,0.0012217306,969,1923,-1062
83319767,0,2228514,0.059039943,0.18936147,-0.8806245,4327,0.0009707882,-0.00060918625,-0.0038163308,41.0,0.0012217306,490,1895,-1254
83418400,0,2228514,0.017463453,-0.04885393,-1.1522211,4252,-0.00033005062,-0.0014697943,-0.0050111706,41.0,0.0012217306,965,2198,-1425
84438764,0,2228514,-0.038499873,0.09576662,0.17694089,4345,-0.0016079614,-0.00010833491,0.00073571637,41.0,0.0012217306,1372,2413,-243
84638201,0,2228514,0.05016063,0.057210874,-0.20618545,4245,-0.00024932437,1.9394833e-05,-0.00080032833,41.0,0.0012217306,834,2187,-664
84742580,0,2228514,0.054706212,0.1622513,-0.36667702,4258,0.00094222627,0.0009463885,-0.0015236862,41.0,0.0012217306,662,1907,-944
84843395,0,2228514,0.030239478,0.044381626,-0.55588275,4287,0.00017827681,0.001636416,-0.0024083008,41.0,0.0012217306,1289,1743,-1016
84946355,0,2228514,-0.03882294,-0.040748104,-0.42556888,4261,0.0014617015,0.00046950084,-0.0019261404,41.0,0.0012217306,733,1669,-823
85049315,0,2228514,0.09782957,0.09481524,-0.32421955,3575,0.0016584314,0.0011064343,-0.0012752903,41.0,0.0012217306,508,1885,-799
85152990,0,2228514,-0.050890088,-0.021753956,-0.25624484,4290,0.0008036726,-0.0005001934,-0.0010449679,41.0,0.0012217306,671,1889,-694
85253150,0,2228514,-0.003096684,-0.0052670036,-0.09991644,3635,-0.00025091378,-0.0009940824,6.443645e-05,41.0,0.0012217306,1227,2471,-570
85356765,0,2228514,0.02407416,0.0032531368,-0.029304309,4241,8.441916e-05,0.00049745693,-0.00021795882,41.0,0.0012217306,934,2299,-556
85456924,0,2228514,0.051655997,0.1043518,0.0071931574,4349,-0.00073457084,0.000373899,2.489564e-05,41.0,0.0012217306,798,2065,-429
85557720,0,2228514,0.15367593,0.12120117,0.034935597,4330,-0.0010716558,-0.00032200798,0.00024239699,41.0,0.0012217306,1255,2269,-449
85659210,0,2228514,0.019975709,0.08257706,0.038885128,4274,0.00064064865,0.0013839778,-0.00012003241,41.0,0.0012217306,1133,1701,-480
85758602,0,2228514,0.031924423,0.10141097,0.064730406,4297,-0.0010202685,-0.00077623175,0.0002755087,41.0,0.0012217306,692,2127,-402
85861555,0,2228514,1.2411495,-0.022078352,0.10234317,4240,0.0053159883,0.001737239,0.000481296,41.0,0.0012217306,-74,1960,-538
85962370,0,2228514,1.2884685,0.12896536,0.055298038,4272,0.0050064744,-0.00018495355,0.0004301123,41.0,0.0012217306,0,2232,-530
86065367,0,2228514,0.41967177,0.07920472,0.028579308,4314,0.0022073633,0.00053519354,-0.0001028229,41.0,0.0012217306,864,2260,-489
86172580,0,2228514,0.09203335,-0.008502872,0.024635384,4175,0.00085541885,0.0009392229,0.00015097836,41.0,0.0012217306,1135,1793,-547
86273395,0,2228514,-0.0402031,0.062756546,0.013690754,4243,-4.4299235e-05,-0.00031490132,0.00016277202,41.0,0.0012217306,908,2055,-520
86372064,0,2228514,-0.62918216,-0.038321152,-0.006914846,3548,-0.0035215095,0.00044742326,-3.700672e-05,41.0,0.0012217306,1836,2353,-514
86475767,0,2228514,-1.5584993,0.12994796,-0.010856865,4318,-0.007253022,0.0005955225,-2.5471465e-05,41.0,0.0012217306,2433,2200,-693
86574410,0,2228514,-0.12669948,0.025596602,0.018309763,3576,-0.0010631182,-0.00046751418,0.00015297452,41.0,0.0012217306,1196,2137,-621
86678144,0,2228514,-0.039673105,0.19844577,0.015350242,4329,0.0010940197,0.000863255,0.00030871286,41.0,0.0012217306,1115,1968,-438
86781053,0,2228514,-0.015209971,0.14735553,0.03177753,4287,0.0010174273,0.0015237397,0.00024908234,41.0,0.0012217306,1181,1796,-656
86880429,0,2228514,0.011727668,0.0356473,0.013165416,4269,-3.1444376e-06,0.000238435,-0.00013337072,41.0,0.0012217306,778,1934,-588
86983390,0,2228514,0.1410196,0.071185336,-0.004766133,4289,0.0022085302,0.0006418496,0.00011356193,41.0,0.0012217306,908,1695,-528
87082801,0,2228514,-0.01599501,0.027254647,-0.003950708,4316,-0.00044266236,0.0010172278,6.875994e-05,41.0,0.0012217306,1363,2322,-528
87185735,0,2228514,0.06262704,0.026548069,-0.0017866369,4290,-0.0006101609,-0.0004045203,0.00030034542,41.0,0.0012217306,1470,2515,-519
87287980,0,2228514,0.011441195,0.02894023,0.011886589,4264,0.00056227023,0.0016426609,-1.5618105e-05,41.0,0.0012217306,1055,2116,-490
87388081,0,2228514,0.049733933,0.102926545,0.02204377,4262,0.0010050172,-0.00024256491,-1.3694843e-05,41.0,0.0012217306,515,1924,-514
87491045,0,2228514,-0.006088963,-0.0044887452,0.013691953,3570,-5.7000547e-05,-0.00011619602,-1.4514904e-05,41.0,0.0012217306,711,1996,-502
87590425,0,2228514,-0.065191664,-0.0642708,0.006798897,4276,-0.0010391924,-0.0013081047,0.0002230183,41.0,0.0012217306,1006,2257,-552
87693407,0,2228514,-0.009674909,0.012860932,0.022829423,3597,0.0003541463,-0.0001690249,0.000118369586,41.0,0.0012217306,1085,2109,-477
87792770,0,2228514,0.08685836,0.007280923,0.026783075,4254,0.00066865573,0.0011804905,0.00011419016,41.0,0.0012217306,1167,2106,-671
87895767,0,2228514,0.102275416,0.08296938,0.021425197,3608,0.00031149475,-5.0522605e-05,0.00022017432,41.0,0.0012217306,768,2199,-425
87997975,0,2228514,-0.02124232,-0.0049554645,0.031201662,4259,0.0012573281,0.0002797226,0.0002715904,41.0,0.0012217306,608,1869,-520
88098102,0,2228514,0.04403146,0.09515199,0.045641672,3597,0.00094959274,-0.00018532627,0.00020883857,41.0,0.0012217306,918,2164,-543
88201759,0,2228514,0.11407202,0.020409426,0.048188526,4295,0.00033752786,0.00018500941,0.00012756595,41.0,0.0012217306,1211,2112,-335
88300458,0,2228514,-0.037197284,0.00027638374,0.047803983,3613,0.0005716088,0.0007638319,0.0001636175,41.0,0.0012217306,1068,2010,-551
88404133,0,2228514,0.036932576,0.11012702,0.039315596,4328,3.687642e-05,-0.00042174273,0.00011091765,41.0,0.0012217306,1091,2435,-614
88502779,0,2228514,0.028604092,0.078397006,0.004180538,3589,0.00013369927,-0.00023306564,2.991728e-05,41.0,0.0012217306,1106,2392,-451
88606440,0,2228514,0.07462386,0.15025443,0.027926248,4241,-0.0001828855,0.0012971638,7.523564e-05,41.0,0.0012217306,1161,2277,-503
88709400,0,2228514,0.10279225,0.030844161,0.023776982,4241,0.00070047774,0.0006942046,0.00016379466,41.0,0.0012217306,1309,2000,-386
88807355,0,2228514,0.094903566,0.14774011,0.043879576,4290,0.00073379854,0.00097110897,3.8709848e-05,41.0,0.0012217306,1045,2452,-388
88910320,0,2228514,-0.011746987,-0.03805823,0.01795087,4296,0.00013912885,-0.00077825034,9.7632415e-05,41.0,0.0012217306,693,2043,-425
89013328,0,2228514,0.08413569,0.1794199,0.031739056,3628,0.0006972218,0.0011842139,1.2889188e-05,41.0,0.0012217306,1019,2177,-550
89114097,0,2228514,0.15835522,0.11247779,0.014634682,4278,0.0009506421,0.0011712181,8.017766e-06,41.0,0.0012217306,1244,2038,-601
89218480,0,2228514,0.28770185,0.4594188,0.099907376,3500,0.0005921325,0.0015880846,0.00017771557,40.0,0.0012217306,1001,1910,-288
89317864,0,2228514,-0.018579356,0.048239056,0.011628133,4290,-0.0005453323,-0.00036265966,0.00011909374,40.0,0.0012217306,992,2062,-492
89420826,0,2228514,0.16089334,0.25622672,0.041806217,3511,2.5421989e-05,0.0013415122,0.00012292349,40.0,0.0012217306,1070,1894,-408
89524516,0,2228514,0.049986187,0.094565004,0.028772252,4306,0.00039390448,-0.00028165054,0.00023472632,40.0,0.0012217306,777,1825,-527
89623170,0,2228514,0.3386777,0.04651731,0.021950789,4234,0.001909718,-0.00029380422,0.0001735053,40.0,0.0012217306,484,1929,-412
89723985,0,2228514,0.95449984,-0.07900573,0.034948032,4270,0.004733241,-0.00026074686,0.00017803548,40.0,0.0012217306,290,1588,-572
89826972,0,2228514,1.0440118,0.09222631,0.044245843,4317,0.0044050585,0.001322051,0.00012259111,40.0,0.0012217306,355,2208,-656
89927803,0,2228514,0.57280624,0.0016414886,-0.006215081,4333,0.002590142,0.00079235545,-0.00019068137,40.0,0.0012217306,671,1961,-591
90030791,0,2228514,0.42169708,0.11181476,0.026524035,4323,0.0004393204,-0.00046807714,0.00032288543,40.0,0.0012217306,468,2054,-409
90130152,0,2228514,0.29517207,0.24585842,0.06397922,4337,-0.00028511253,0.0005470885,0.00034941052,40.0,0.0012217306,868,2031,-462
90233067,0,2228514,-0.3829831,0.26550868,0.06521599,4292,-0.0008487444,0.002080338,0.00016001222,40.0,0.0012217306,1514,1820,-522
90340363,0,2228514,-0.609453,0.45909104,0.09459591,4338,-0.0033170956,0.002080713,0.00042995313,41.0,0.0012217306,1607,1776,-358
90439716,0,2228514,-1.2284738,0.40789554,0.054109637,4307,-0.004953843,0.0028161388,2.6416305e-05,41.0,0.0012217306,2210,1803,-554
90542660,0,2228514,-0.19850044,0.24478933,0.084084414,4290,-0.00020502403,0.0004702176,0.0001442067,41.0,0.0012217306,643,1807,-453
90642044,0,2228514,0.060220007,0.24844141,0.09011411,4290,-0.00025361916,0.00095857825,0.0006442727,41.0,0.0012217306,877,2140,-538
90745050,0,2228514,-0.6953141,0.33388025,0.06060835,4335,-0.0019173966,0.001464831,0.0002548182,41.0,0.0012217306,1352,1653,-337
90844450,0,2228514,-0.66078293,0.22082824,0.050631877,4350,-0.0027224817,0.0024421813,7.140234e-05,41.0,0.0012217306,1565,1940,-532
90947375,0,2228514,0.51048017,0.19942977,0.051689107,4315,0.0017213242,0.00022784923,0.0002280017,41.0,0.0012217306,45,2229,-683
91046750,0,2228514,0.5281913,0.23982781,0.03891763,4302,0.0019857183,7.9566074e-05,0.00033655163,41.0,0.0012217306,462,2295,-390
91149695,0,2228514,0.5628567,0.12378232,0.06045562,4290,-0.00014043022,-0.00030854842,0.0002414688,41.0,0.0012217306,749,2134,-492
91253370,0,2228514,0.17745578,0.15731081,0.024361055,4291,0.00056472566,0.00087878277,0.0002144097,41.0,0.0012217306,1354,2174,-379
91353470,0,2228514,0.23325838,0.32023218,0.099247895,4254,0.0013214936,0.0014400446,0.0004093861,41.0,0.0012217306,643,1810,-453
91454285,0,2228514,0.23951615,0.340158,0.09592496,4285,0.0008283506,0.00077531964,0.00050302077,41.0,0.0012217306,591,1890,-478
91554384,0,2228514,0.22850119,0.4349757,0.09450474,4246,0.0008891976,0.0029501307,8.447204e-05,41.0,0.0012217306,614,1744,-527
91658779,0,2228514,0.15722278,0.36761895,0.09397691,5009,0.0019917397,0.0015157381,0.0003611251,41.0,0.0012217306,732,1877,-532
91762450,0,2228514,0.1700454,0.43509424,0.077426486,4251,0.0009069185,0.002226266,0.000102400714,41.0,0.0012217306,861,2091,-376
91865410,0,2228514,0.0913872,0.0867158,0.017218126,4253,-0.000888429,-0.00058514107,0.0003407325,41.0,0.0012217306,1092,2332,-474
91966229,0,2228514,0.14039737,0.20929357,0.027673662,4280,-0.00015578045,0.0016173342,0.00023975772,41.0,0.0012217306,1335,2152,-438
92069206,0,2228514,0.049478896,0.13578072,0.042179525,4312,0.00023014689,-0.000647636,0.00040840518,41.0,0.0012217306,788,2200,-610
92172158,0,2228514,0.16043402,-0.22559027,0.059914596,3568,0.0015654495,-0.0009390301,0.00040856455,41.0,0.0012217306,789,2036,-524
92275820,0,2228514,0.09059954,-0.34832707,0.044425976,4270,0.0013058047,-0.0011831751,0.00019162757,41.0,0.0012217306,1043,2198,-321
92374489,0,2228514,0.057334762,-0.27563018,0.052074574,3554,-0.00017673516,-0.0015150224,0.0002793235,41.0,0.0012217306,672,2243,-423
92475304,0,2228514,0.14070097,0.16601397,0.08910877,4289,0.001368668,0.0010473426,0.00027212768,41.0,0.0012217306,905,1793,-373
92578271,0,2228514,0.102218576,0.17546445,0.06686589,3543,0.001004535,0.0017674752,0.0001862275,41.0,0.0012217306,1058,1607,-567
92677650,0,2228514,0.16228426,0.9798243,0.06752474,4283,0.0012575297,0.0056929397,0.0002801463,41.0,0.0012217306,875,1151,-443
92780615,0,2228514,0.19681847,0.83188653,0.10805584,3544,0.0003487984,0.004383823,0.00024604303,41.0,0.0012217306,1193,1368,-516
92884350,0,2228514,0.2681278,0.68582875,0.106588,4355,0.0019443491,0.0034059745,0.00034827515,41.0,0.0012217306,874,1538,-556
92982996,0,2228514,0.09805567,0.21846244,0.053432487,3616,0.00027002237,0.00054792076,0.00018530499,41.0,0.0012217306,732,2031,-527
93086629,0,2228514,0.0713455,0.16806208,0.055906754,4289,0.0006052369,0.00087791093,0.00019612872,41.0,0.0012217306,992,1999,-527
93186756,0,2228514,0.034181558,0.5995341,0.048486233,4316,0.00022940082,0.0027049067,0.00025045456,41.0,0.0012217306,1071,1712,-482
93290405,0,2228514,0.12533092,0.35446665,0.04249271,4256,0.00031944655,0.0010540858,0.00014249547,41.0,0.0012217306,644,1901,-442
93390505,0,2228514,0.1765863,0.39313564,0.09857733,4290,0.0002262797,0.00066026975,0.0005155795,41.0,0.0012217306,612,1993,-418
93489950,0,2228514,0.2290571,-0.32140645,0.06335015,4350,0.0007199959,-0.00015345859,0.00037187463,41.0,0.0012217306,1384,2049,-592
93592850,0,2228514,0.15706566,0.15715365,0.061944008,4277,0.0005995611,-0.0002801436,0.00042381854,41.0,0.0012217306,966,2145,-524
93700100,0,2228514,0.117057554,0.117070794,0.043154743,3532,0.00016658763,0.00040719166,0.00035294556,41.0,0.0012217306,1183,2119,-399
93799557,0,2228514,0.19018374,0.3305282,0.09981519,4363,-0.0003921581,0.001190949,0.0006185462,41.0,0.0012217306,1154,1906,-454
93903875,0,2228514,0.26991725,0.34472525,0.06657102,4266,0.0012248745,0.0021336623,0.0003155324,41.0,0.0012217306,884,1607,-480
94004690,0,2228514,0.23314606,0.3958887,0.07414205,4287,0.0007783261,0.0016717725,0.0004081151,41.0,0.0012217306,946,1597,-500
94106220,0,2228514,0.10711253,0.30852285,0.06742375,4199,0.000109536275,0.000472966,0.0002830412,41.0,0.0012217306,728,1671,-507
94205604,0,2228514,0.24946308,0.31513163,0.059476465,4269,0.0012615189,0.0014710667,-4.4146657e-07,41.0,0.0012217306,678,1978,-415
94305705,0,2228514,0.20725715,0.30497962,0.092131115,3566,0.0017343123,0.00072755443,0.00038136964,41.0,0.0012217306,667,1901,-444
94409380,0,2228514,0.14744483,0.2944345,0.08498228,4217,0.0013007927,0.0025091576,6.901356e-05,41.0,0.0012217306,863,1762,-456
94512358,0,2228514,0.18606488,0.3872322,0.058793154,4309,2.0351732e-05,0.0016817792,0.00022280533,41.0,0.0012217306,1210,2109,-288
94611775,0,2228514,0.1668971,0.36985883,0.079814106,4340,0.0023150886,0.0018341377,0.00021040115,41.0,0.0012217306,858,1483,-489
94714751,0,2228514,0.39163947,0.31516442,0.10349928,4356,0.0026386546,0.002769,9.006125e-05,41.0,0.0012217306,798,1547,-402
94814094,0,2228514,0.16541867,0.31335682,0.08170007,4314,0.0011832346,0.0012036071,0.00036019296,41.0,0.0012217306,487,1651,-482
94914211,0,2228514,0.09549041,0.332733,0.10259052,4331,-0.0003109089,0.00093739555,0.00050517527,41.0,0.0012217306,488,1541,-441
95018560,0,2228514,0.19511117,0.30803105,0.06634845,3533,0.00089745026,0.0012815457,7.917765e-05,41.0,0.0012217306,483,1588,-377
95117986,0,2228514,0.20426002,0.3624813,0.08590742,4331,-0.00024870413,0.0023581842,0.0004883122,41.0,0.0012217306,991,1734,-487
95220905,0,2228514,0.16945389,0.37622136,0.09696101,3560,0.0011841278,0.0013029967,0.0003958931,41.0,0.0012217306,478,1834,-396
95324620,0,2228514,0.2231965,0.33905223,0.07257916,4268,0.0017552364,0.001959367,0.00017616736,41.0,0.0012217306,774,2214,-481
95423250,0,2228514,0.113935925,0.35282838,0.08343209,3534,0.00017024724,0.0017871327,5.2646246e-05,41.0,0.0012217306,612,1767,-413
95526936,0,2228514,0.18119477,0.3815637,0.083249085,4302,0.0018260042,0.0015541987,0.00037366533,41.0,0.0012217306,692,1940,-535
95629950,0,2228514,0.15652193,0.26535785,0.089323945,4355,0.0014031573,0.0018750915,0.0002421089,41.0,0.0012217306,842,1913,-539
95730728,0,2228514,0.16140677,0.3326986,0.077439085,4318,0.0010530311,0.0010067798,0.0003089845,41.0,0.0012217306,899,1840,-533
95832229,0,2228514,0.23947383,0.36611506,0.07690689,4290,0.0007911035,0.0006560991,0.0005006988,41.0,0.0012217306,721,1978,-514
95935905,0,2228514,0.22526167,0.30079746,0.06993933,4291,0.00021781898,0.0014216675,0.00029379185,41.0,0.0012217306,1136,2005,-368
96038916,0,2228514,0.1958086,0.35112363,0.061844036,4343,0.00036043147,0.001958533,0.00015485249,41.0,0.0012217306,993,1596,-484
96138271,0,2228514,0.18993503,0.2385552,0.07402854,4263,1.6861817e-05,5.4663804e-05,0.0005861008,41.0,0.0012217306,941,1979,-467
96241220,0,2228514,0.18158065,0.24758972,0.06859663,4300,0.001627434,0.0007897515,0.00017288214,41.0,0.0012217306,986,1882,-626
96340635,0,2228514,0.32196966,0.47847995,0.09154889,4308,0.002747429,0.0028965622,0.00032523766,41.0,0.0012217306,503,1698,-459
96440695,0,2228514,0.08849749,0.35882294,0.10250489,4290,0.0012504306,0.0012638741,0.00040738692,41.0,0.0012217306,863,1827,-424
96543716,0,2228514,0.12976258,0.22588107,0.06634786,3636,0.0009274911,0.001840348,0.00022713222,41.0,0.0012217306,722,1599,-499
96647333,0,2228514,0.113492385,0.1567978,0.030795315,4291,0.0004894871,0.00082970737,-0.00016375179,41.0,0.0012217306,948,1966,-495
96747477,0,2228514,0.21062158,0.22480018,0.041453764,3622,-0.00010905015,0.0015611411,0.00012944172,41.0,0.0012217306,1210,1813,-373
96846814,0,2228514,0.09508306,0.2437586,0.017149331,4289,-0.0005826871,0.0013886574,4.4236003e-05,41.0,0.0012217306,1244,2144,-518
96949785,0,2228514,0.16438293,0.24497071,0.0123903435,3585,0.0008179511,0.0009733207,-0.00011968569,41.0,0.0012217306,946,1902,-569
97050597,0,2228514,0.10376966,0.27396852,0.010305587,4297,0.0011043273,0.0013899462,1.5142096e-05,41.0,0.0012217306,977,2057,-525
97153561,0,2228514,0.031597715,0.24768205,-0.022142014,4267,0.00032818285,0.0014622931,-4.9646205e-05,41.0,0.0012217306,778,1857,-495
97254372,0,2228514,0.1356043,0.14771776,-0.025042625,4257,0.0010150207,0.0007218561,-0.00012428864,41.0,0.0012217306,931,1954,-582
97357346,0,2228514,0.114557795,0.1933222,-0.020889986,4304,0.00032722641,-0.000184397,-4.9142927e-05,41.0,0.0012217306,994,2256,-385
97456710,0,2228514,0.045280248,0.15685686,-0.0024736754,4291,0.0007064028,0.0008324208,-3.1180072e-05,41.0,0.0012217306,870,2081,-523
97559729,0,2228514,0.11958743,0.21413785,-0.0058859745,4350,0.00010031354,0.00024098942,-5.188362e-05,41.0,0.0012217306,1059,2160,-505
97659054,0,2228514,0.12371108,0.16037355,0.008796924,4269,0.0008061218,0.0013018075,-0.00016262825,41.0,0.0012217306,1067,2202,-442
97763445,0,2228514,0.16022778,0.24140964,0.016655514,4286,2.5130345e-05,0.000288038,0.00010877316,41.0,0.0012217306,1257,2186,-388
97862829,0,2228514,0.1283072,0.2335563,0.055083927,4289,0.0011357378,0.0011366465,0.00033584205,41.0,0.0012217306,790,1543,-495
