timestamp,voltage_v,voltage_filtered_v,current_a,current_filtered_a,average_current_a,discharged_mah,remaining,scale,temperature,cell_count,voltage_cell_v[0],voltage_cell_v[1],voltage_cell_v[2],voltage_cell_v[3],max_cell_voltage_delta,capacity,cycle_count,run_time_to_empty,average_time_to_empty,serial_number,connected,system_source,priority,is_powering_off,warning
133181649,16.627142,16.642248,38.936,38.933743,0.0,1403.378,0.9211243,1.0094789,0.0,4,0.0,0.0,0.0,0.0,0.0,0,0,0,0,0,1,1,0,0,0
134189744,16.607683,16.619953,38.9236,38.932804,0.0,1414.2803,0.9099768,1.0108331,0.0,4,0.0,0.0,0.0,0.0,0.0,0,0,0,0,0,1,1,0,0,0
134693758,16.607683,16.614857,38.936,38.933674,0.0,1419.7308,0.90742856,1.0111432,0.0,4,0.0,0.0,0.0,0.0,0.0,0,0,0,0,0,1,1,0,0,0
135186514,16.617413,16.61209,38.936,38.932728,0.0,1425.0598,0.9060448,1.0113117,0.0,4,0.0,0.0,0.0,0.0,0.0,0,0,0,0,0,1,1,0,0,0
135688122,16.568768,16.609966,38.9484,38.932053,0.0,1430.4836,0.9078205,1.0110955,0.0,4,0.0,0.0,0.0,0.0,0.0,0,0,0,0,0,1,1,0,0,0
136192028,16.335268,16.568987,38.936,38.932735,0.0,1435.9332,0.9254721,1.0089518,0.0,4,0.0,0.0,0.0,0.0,0.0,0,0,0,0,0,1,1,0,0,0
136696886,16.043392,16.35719,38.936,38.93062,0.0,1441.3923,0.89694864,1.0124204,0.0,4,0.0,0.0,0.0,0.0,0.0,0,0,0,0,0,1,1,0,0,0
137200934,15.916913,16.134914,38.936,38.928505,0.0,1446.8428,0.85320836,1.017786,0.0,4,0.0,0.0,0.0,0.0,0.0,0,0,0,0,0,1,1,0,0,0
137704976,16.033663,16.107912,38.9236,38.929123,0.0,1452.2932,0.8655003,1.0162724,0.0,4,0.0,0.0,0.0,0.0,0.0,0,0,0,0,0,1,1,0,0,0
138208904,15.868268,16.026224,38.936,38.92791,0.0,1457.7422,0.8505781,1.0181104,0.0,4,0.0,0.0,0.0,0.0,0.0,0,0,0,0,0,1,1,0,0,0
139720977,15.819622,15.788085,38.936,38.92287,0.0,1474.0903,0.78274995,1.0265497,0.0,4,0.0,0.0,0.0,0.0,0.0,0,0,0,0,0,1,1,0,0,0
140224072,15.741789,15.778033,38.9236,38.925274,0.0,1479.5298,0.7839058,1.0264047,0.0,4,0.0,0.0,0.0,0.0,0.0,0,0,0,0,0,1,1,0,0,0
140716150,15.790434,15.752427,38.936,38.92276,0.0,1484.8495,0.77566415,1.0274395,0.0,4,0.0,0.0,0.0,0.0,0.0,0,0,0,0,0,1,1,0,0,0
141219998,15.644497,15.7451,38.9236,38.922695,0.0,1490.297,0.7733868,1.0277257,0.0,4,0.0,0.0,0.0,0.0,0.0,0,0,0,0,0,1,1,0,0,0
141724382,16.150414,15.86,38.911198,38.922276,0.0,1495.7504,0.807309,1.0234779,0.0,4,0.0,0.0,0.0,0.0,0.0,0,0,0,0,0,1,1,0,0,0
142216085,15.751517,15.798203,38.9236,38.921833,0.0,1501.0667,0.78273755,1.0265512,0.0,4,0.0,0.0,0.0,0.0,0.0,0,0,0,0,0,1,1,0,0,0
142720091,15.547205,15.829712,38.911198,38.92301,0.0,1506.5162,0.794133,1.0251237,0.0,4,0.0,0.0,0.0,0.0,0.0,0,0,0,0,0,1,1,0,0,0
143224004,15.654226,15.818346,38.936,38.92528,0.0,1511.9652,0.7932194,1.025238,0.0,4,0.0,0.0,0.0,0.0,0.0,0,0,0,0,0,1,1,0,0,0
143728130,15.83908,15.78223,38.9236,38.924267,0.0,1517.416,0.7771595,1.0272516,0.0,4,0.0,0.0,0.0,0.0,0.0,0,0,0,0,0,1,1,0,0,0
144220066,15.72233,15.730992,38.9484,38.925774,0.0,1522.7352,0.7596491,1.029456,0.0,4,0.0,0.0,0.0,0.0,0.0,0,0,0,0,0,1,1,0,0,0
144723366,15.916913,15.726904,38.9484,38.923973,0.0,1528.1765,0.76045495,1.0293543,0.0,4,0.0,0.0,0.0,0.0,0.0,0,0,0,0,0,1,1,0,0,0
145222522,15.82935,15.777891,38.8988,38.923008,0.0,1533.5732,0.7774933,1.0272096,0.0,4,0.0,0.0,0.0,0.0,0.0,0,0,0,0,0,1,1,0,0,0
145727342,15.985018,15.7583885,38.911198,38.925133,0.0,1539.0319,0.77180654,1.0279244,0.0,4,0.0,0.0,0.0,0.0,0.0,0,0,0,0,0,1,1,0,0,0
146219334,15.887726,15.7417965,38.936,38.923607,0.0,1544.351,0.7650793,1.0287714,0.0,4,0.0,0.0,0.0,0.0,0.0,0,0,0,0,0,1,1,0,0,0
146723307,15.761247,15.745322,38.911198,38.924,0.0,1549.7996,0.7661579,1.0286355,0.0,4,0.0,0.0,0.0,0.0,0.0,0,0,0,0,0,1,1,0,0,0
147227411,14.7007675,15.522481,38.9236,38.920334,0.0,1555.2489,0.67359525,1.0404286,0.0,4,0.0,0.0,0.0,0.0,0.0,0,0,0,0,0,1,1,0,0,0
147731328,15.518018,15.584877,38.911198,38.92309,0.0,1560.6976,0.7003544,1.0369916,0.0,4,0.0,0.0,0.0,0.0,0.0,0,0,0,0,0,1,1,0,0,0
148235343,15.877996,15.609233,38.911198,38.921562,0.0,1566.1466,0.71140844,1.0355785,0.0,4,0.0,0.0,0.0,0.0,0.0,0,0,0,0,0,1,1,0,0,0
148739358,15.858539,15.581029,38.9236,38.92265,0.0,1571.596,0.700322,1.0369958,0.0,4,0.0,0.0,0.0,0.0,0.0,0,0,0,0,0,1,1,0,0,0
149243383,15.333163,15.5182905,38.911198,38.919224,0.0,1577.0446,0.67655164,1.0400478,0.0,4,0.0,0.0,0.0,0.0,0.0,0,0,0,0,0,1,1,0,0,0
149746586,15.37208,15.39392,38.936,38.919186,0.0,1582.485,0.6256512,1.046644,0.0,4,0.0,0.0,0.0,0.0,0.0,0,0,0,0,0,1,1,0,0,0
150250448,15.021831,15.18411,38.936,38.91505,0.0,1587.9313,0.54004127,1.057929,0.0,4,0.0,0.0,0.0,0.0,0.0,0,0,0,0,0,1,1,0,0,0
150742522,14.973185,15.209428,38.9236,38.91805,0.0,1593.2512,0.55300456,1.0562046,0.0,4,0.0,0.0,0.0,0.0,0.0,0,0,0,0,0,1,1,0,0,0
151246572,15.13858,15.19265,38.9484,38.91783,0.0,1598.7,0.54619056,1.0571103,0.0,4,0.0,0.0,0.0,0.0,0.0,0,0,0,0,0,1,1,0,0,0
151750406,16.160143,15.225185,38.911198,38.919197,0.0,1604.1469,0.56042176,1.0552205,0.0,4,0.0,0.0,0.0,0.0,0.0,0,0,0,0,0,1,1,0,0,0
152255011,16.286621,15.58272,38.936,38.92722,0.0,1609.604,0.66696054,1.0412843,0.0,4,0.0,0.0,0.0,0.0,0.0,0,0,0,0,0,1,1,0,0,0
152758600,14.369976,15.570935,38.8864,38.92489,0.0,1615.049,0.65953714,1.0422435,0.0,4,0.0,0.0,0.0,0.0,0.0,0,0,0,0,0,1,1,0,0,0
153262610,15.595851,15.587429,38.936,38.92514,0.0,1620.4983,0.6686085,1.0410717,0.0,4,0.0,0.0,0.0,0.0,0.0,0,0,0,0,0,1,1,0,0,0
153761650,15.72233,15.599237,38.9236,38.922085,0.0,1625.8934,0.68411523,1.0390748,0.0,4,0.0,0.0,0.0,0.0,0.0,0,0,0,0,0,1,1,0,0,0
154265738,15.790434,15.610482,38.936,38.92452,0.0,1631.3439,0.6966389,1.0374675,0.0,4,0.0,0.0,0.0,0.0,0.0,0,0,0,0,0,1,1,0,0,0
154757643,15.556934,15.590713,38.9236,38.920074,0.0,1636.6615,0.6938036,1.037831,0.0,4,0.0,0.0,0.0,0.0,0.0,0,0,0,0,0,1,1,0,0,0
155261650,15.790434,15.572756,38.9608,38.923576,0.0,1642.1111,0.6892403,1.0384164,0.0,4,0.0,0.0,0.0,0.0,0.0,0,0,0,0,0,1,1,0,0,0
155765740,15.508288,15.530542,38.8864,38.92326,0.0,1647.5612,0.6720398,1.0406291,0.0,4,0.0,0.0,0.0,0.0,0.0,0,0,0,0,0,1,1,0,0,0
156257943,15.313705,15.491639,38.911198,38.923275,0.0,1652.8827,0.65168077,1.0432605,0.0,4,0.0,0.0,0.0,0.0,0.0,0,0,0,0,0,1,1,0,0,0
156761751,15.712601,15.472912,38.936,38.924057,0.0,1658.3301,0.64119893,1.0446203,0.0,4,0.0,0.0,0.0,0.0,0.0,0,0,0,0,0,1,1,0,0,0
157265773,15.479101,15.465848,38.911198,38.923286,0.0,1663.7799,0.6305817,1.0460014,0.0,4,0.0,0.0,0.0,0.0,0.0,0,0,0,0,0,1,1,0,0,0
157768896,15.595851,15.450058,38.9236,38.92226,0.0,1669.2192,0.63013154,1.0460601,0.0,4,0.0,0.0,0.0,0.0,0.0,0,0,0,0,0,1,1,0,0,0
158268965,15.693143,15.509772,38.911198,38.92221,0.0,1674.6255,0.65577775,1.0427299,0.0,4,0.0,0.0,0.0,0.0,0.0,0,0,0,0,0,1,1,0,0,0
158772945,15.625038,15.566901,38.936,38.92563,0.0,1680.0751,0.67995054,1.0396103,0.0,4,0.0,0.0,0.0,0.0,0.0,0,0,0,0,0,1,1,0,0,0
159264967,15.410996,15.605226,38.936,38.92546,0.0,1685.3948,0.6960028,1.037549,0.0,4,0.0,0.0,0.0,0.0,0.0,0,0,0,0,0,1,1,0,0,0
159768922,15.751517,15.591585,38.936,38.925697,0.0,1690.8438,0.6935862,1.0378588,0.0,4,0.0,0.0,0.0,0.0,0.0,0,0,0,0,0,1,1,0,0,0
160776932,15.83908,15.640599,38.8988,38.924522,0.0,1701.743,0.7176159,1.0347866,0.0,4,0.0,0.0,0.0,0.0,0.0,0,0,0,0,0,1,1,0,0,0
161280949,15.7320595,15.620469,38.936,38.92497,0.0,1707.1925,0.7094086,1.0358338,0.0,4,0.0,0.0,0.0,0.0,0.0,0,0,0,0,0,1,1,0,0,0
161784890,15.410996,15.618517,38.936,38.926834,0.0,1712.6421,0.7079819,1.0360161,0.0,4,0.0,0.0,0.0,0.0,0.0,0,0,0,0,0,1,1,0,0,0
162284556,15.430455,15.600071,38.9236,38.927116,0.0,1718.0453,0.7006548,1.0369532,0.0,4,0.0,0.0,0.0,0.0,0.0,0,0,0,0,0,1,1,0,0,0
162787999,15.673684,15.601492,38.936,38.927643,0.0,1723.4896,0.70035154,1.036992,0.0,4,0.0,0.0,0.0,0.0,0.0,0,0,0,0,0,1,1,0,0,0
163280109,15.440185,15.594379,38.936,38.929485,0.0,1728.8114,0.69764405,1.0373387,0.0,4,0.0,0.0,0.0,0.0,0.0,0,0,0,0,0,1,1,0,0,0
163784156,15.469372,15.583916,38.936,38.93117,0.0,1734.2623,0.6925791,1.037988,0.0,4,0.0,0.0,0.0,0.0,0.0,0,0,0,0,0,1,1,0,0,0
164288122,15.858539,15.587514,38.936,38.930542,0.0,1739.712,0.6933287,1.0378919,0.0,4,0.0,0.0,0.0,0.0,0.0,0,0,0,0,0,1,1,0,0,0
164792038,15.654226,15.587545,38.936,38.930973,0.0,1745.1616,0.6925772,1.0379882,0.0,4,0.0,0.0,0.0,0.0,0.0,0,0,0,0,0,1,1,0,0,0
165296119,15.61531,15.591811,38.9236,38.93075,0.0,1750.6123,0.69368345,1.0378463,0.0,4,0.0,0.0,0.0,0.0,0.0,0,0,0,0,0,1,1,0,0,0
165800088,15.527747,15.594158,38.9608,38.930122,0.0,1756.0624,0.6938055,1.0378307,0.0,4,0.0,0.0,0.0,0.0,0.0,0,0,0,0,0,1,1,0,0,0
166303355,15.430455,15.591853,38.9236,38.929363,0.0,1761.5048,0.69149,1.0381277,0.0,4,0.0,0.0,0.0,0.0,0.0,0,0,0,0,0,1,1,0,0,0
166807376,15.6834135,15.599183,38.9236,38.92861,0.0,1766.9548,0.6943844,1.0377564,0.0,4,0.0,0.0,0.0,0.0,0.0,0,0,0,0,0,1,1,0,0,0
167311329,15.488831,15.604616,38.936,38.928223,0.0,1772.4039,0.697192,1.0373967,0.0,4,0.0,0.0,0.0,0.0,0.0,0,0,0,0,0,1,1,0,0,0
167815350,15.498559,15.611533,38.8988,38.92699,0.0,1777.8541,0.70116884,1.0368874,0.0,4,0.0,0.0,0.0,0.0,0.0,0,0,0,0,0,1,1,0,0,0
168319261,15.566664,15.604865,38.9236,38.92709,0.0,1783.3027,0.6976288,1.0373406,0.0,4,0.0,0.0,0.0,0.0,0.0,0,0,0,0,0,1,1,0,0,0
168823299,15.654226,15.610046,38.9236,38.92702,0.0,1788.7527,0.6995991,1.0370884,0.0,4,0.0,0.0,0.0,0.0,0.0,0,0,0,0,0,1,1,0,0,0
169327328,15.82935,15.604119,38.9608,38.931255,0.0,1794.2036,0.6969221,1.0374312,0.0,4,0.0,0.0,0.0,0.0,0.0,0,0,0,0,0,1,1,0,0,0
169831312,15.761247,15.605968,38.9236,38.927303,0.0,1799.6531,0.6981476,1.0372742,0.0,4,0.0,0.0,0.0,0.0,0.0,0,0,0,0,0,1,1,0,0,0
170329591,15.488831,15.597478,38.936,38.927246,0.0,1805.041,0.6945904,1.0377301,0.0,4,0.0,0.0,0.0,0.0,0.0,0,0,0,0,0,1,1,0,0,0
170834534,15.625038,15.604639,38.936,38.92977,0.0,1810.5017,0.6972931,1.0373837,0.0,4,0.0,0.0,0.0,0.0,0.0,0,0,0,0,0,1,1,0,0,0
171326490,15.702871,15.600079,38.936,38.92876,0.0,1815.8212,0.6965378,1.0374805,0.0,4,0.0,0.0,0.0,0.0,0.0,0,0,0,0,0,1,1,0,0,0
171830411,15.518018,15.592808,38.911198,38.928444,0.0,1821.2703,0.6940878,1.0377945,0.0,4,0.0,0.0,0.0,0.0,0.0,0,0,0,0,0,1,1,0,0,0
172334665,15.547205,15.572706,38.936,38.92872,0.0,1826.7233,0.6859234,1.0388423,0.0,4,0.0,0.0,0.0,0.0,0.0,0,0,0,0,0,1,1,0,0,0
172826524,15.498559,15.571105,38.9236,38.927032,0.0,1832.0416,0.6850155,1.038959,0.0,4,0.0,0.0,0.0,0.0,0.0,0,0,0,0,0,1,1,0,0,0
173330569,15.294247,15.572939,38.911198,38.928497,0.0,1837.4923,0.68587,1.0388492,0.0,4,0.0,0.0,0.0,0.0,0.0,0,0,0,0,0,1,1,0,0,0
173834558,15.265059,15.565387,38.936,38.92694,0.0,1842.9419,0.68300515,1.0392175,0.0,4,0.0,0.0,0.0,0.0,0.0,0,0,0,0,0,1,1,0,0,0
174337750,15.61531,15.557098,38.8988,38.928535,0.0,1848.3835,0.6801699,1.0395821,0.0,4,0.0,0.0,0.0,0.0,0.0,0,0,0,0,0,1,1,0,0,0
174841683,15.761247,15.55153,38.936,38.929134,0.0,1853.833,0.6774538,1.0399317,0.0,4,0.0,0.0,0.0,0.0,0.0,0,0,0,0,0,1,1,0,0,0
175345757,15.498559,15.548643,38.936,38.927666,0.0,1859.2836,0.67685205,1.0400091,0.0,4,0.0,0.0,0.0,0.0,0.0,0,0,0,0,0,1,1,0,0,0
175838177,15.61531,15.537858,38.9236,38.929188,0.0,1864.6079,0.6723259,1.0405923,0.0,4,0.0,0.0,0.0,0.0,0.0,0,0,0,0,0,1,1,0,0,0
176341781,15.547205,15.534689,38.9236,38.9303,0.0,1870.0538,0.67069227,1.0408028,0.0,4,0.0,0.0,0.0,0.0,0.0,0,0,0,0,0,1,1,0,0,0
176845789,15.712601,15.534609,38.9236,38.928116,0.0,1875.5037,0.67064553,1.0408089,0.0,4,0.0,0.0,0.0,0.0,0.0,0,0,0,0,0,1,1,0,0,0
177349718,15.625038,15.528575,38.936,38.926678,0.0,1880.9525,0.66929513,1.0409831,0.0,4,0.0,0.0,0.0,0.0,0.0,0,0,0,0,0,1,1,0,0,0
177841731,15.352622,15.507956,38.9608,38.928204,0.0,1886.2731,0.66068727,1.0420947,0.0,4,0.0,0.0,0.0,0.0,0.0,0,0,0,0,0,1,1,0,0,0
178352846,15.410996,15.511749,38.936,38.930443,0.0,1891.8004,0.6627386,1.0418296,0.0,4,0.0,0.0,0.0,0.0,0.0,0,0,0,0,0,1,1,0,0,0
178844926,15.60558,15.522403,38.9484,38.92895,0.0,1897.1212,0.6654423,1.0414804,0.0,4,0.0,0.0,0.0,0.0,0.0,0,0,0,0,0,1,1,0,0,0
179348941,14.603477,15.486545,38.911198,38.928528,0.0,1902.5714,0.65119916,1.0433228,0.0,4,0.0,0.0,0.0,0.0,0.0,0,0,0,0,0,1,1,0,0,0
180848797,15.177497,15.357224,38.936,38.928528,0.0,1918.7897,0.59663945,1.0504413,0.0,4,0.0,0.0,0.0,0.0,0.0,0,0,0,0,0,1,1,0,0,0
181352871,15.72233,15.388923,38.9484,38.92738,0.0,1924.2402,0.61030465,1.0486492,0.0,4,0.0,0.0,0.0,0.0,0.0,0,0,0,0,0,1,1,0,0,0
181856901,15.294247,15.361027,38.8988,38.927017,0.0,1929.6901,0.5984495,1.0502036,0.0,4,0.0,0.0,0.0,0.0,0.0,0,0,0,0,0,1,1,0,0,0
182360119,15.002372,15.298726,38.9484,38.9262,0.0,1935.1307,0.5718978,1.0537014,0.0,4,0.0,0.0,0.0,0.0,0.0,0,0,0,0,0,1,1,0,0,0
182864098,14.836976,15.204932,38.911198,38.924026,0.0,1940.5802,0.53503495,1.0585965,0.0,4,0.0,0.0,0.0,0.0,0.0,0,0,0,0,0,1,1,0,0,0
183356176,15.051018,15.032023,38.874,38.92036,0.0,1945.9003,0.46601325,1.0678853,0.0,4,0.0,0.0,0.0,0.0,0.0,0,0,0,0,0,1,1,0,0,0
183860103,15.060747,15.023633,38.911198,38.921276,0.0,1951.3486,0.46418077,1.0681341,0.0,4,0.0,0.0,0.0,0.0,0.0,0,0,0,0,0,1,1,0,0,0
184364115,14.827247,15.008367,38.936,38.922085,0.0,1956.7979,0.45758468,1.0690308,0.0,4,0.0,0.0,0.0,0.0,0.0,0,0,0,0,0,1,1,0,0,0
184856155,16.053122,15.097294,38.936,38.924747,0.0,1962.1187,0.49108154,1.0644928,0.0,4,0.0,0.0,0.0,0.0,0.0,0,0,0,0,0,1,1,0,0,0
185360149,16.08231,15.437498,38.8864,38.93136,0.0,1967.5696,0.58467895,1.0520147,0.0,4,0.0,0.0,0.0,0.0,0.0,0,0,0,0,0,1,1,0,0,0
185871282,15.25533,15.430715,38.9236,38.931213,0.0,1973.0972,0.58797294,1.0515809,0.0,4,0.0,0.0,0.0,0.0,0.0,0,0,0,0,0,1,1,0,0,0
186371366,15.391539,15.441055,38.9484,38.93,0.0,1978.5048,0.6043795,1.0494255,0.0,4,0.0,0.0,0.0,0.0,0.0,0,0,0,0,0,1,1,0,0,0
186875346,15.566664,15.453727,38.911198,38.92944,0.0,1983.9551,0.617318,1.0477319,0.0,4,0.0,0.0,0.0,0.0,0.0,0,0,0,0,0,1,1,0,0,0
187379354,15.274789,15.452019,38.8988,38.928745,0.0,1989.4053,0.6224058,1.0470674,0.0,4,0.0,0.0,0.0,0.0,0.0,0,0,0,0,0,1,1,0,0,0
187883356,15.284517,15.448571,38.9236,38.92836,0.0,1994.8553,0.6235741,1.0469149,0.0,4,0.0,0.0,0.0,0.0,0.0,0,0,0,0,0,1,1,0,0,0
188387416,15.663955,15.44845,38.9236,38.927013,0.0,2000.3058,0.62491876,1.0467396,0.0,4,0.0,0.0,0.0,0.0,0.0,0,0,0,0,0,1,1,0,0,0
188891444,15.693143,15.4663,38.9236,38.92859,0.0,2005.7563,0.6338194,1.0455799,0.0,4,0.0,0.0,0.0,0.0,0.0,0,0,0,0,0,1,1,0,0,0
189383334,15.284517,15.461028,38.9484,38.929287,0.0,2011.0756,0.63245755,1.0457572,0.0,4,0.0,0.0,0.0,0.0,0.0,0,0,0,0,0,1,1,0,0,0
189885734,15.469372,15.451398,38.9236,38.92811,0.0,2016.5077,0.62932855,1.0461646,0.0,4,0.0,0.0,0.0,0.0,0.0,0,0,0,0,0,1,1,0,0,0
190386543,15.537476,15.460648,38.936,38.930847,0.0,2021.9238,0.6324175,1.0457623,0.0,4,0.0,0.0,0.0,0.0,0.0,0,0,0,0,0,1,1,0,0,0
190890519,15.449913,15.464023,38.9236,38.93242,0.0,2027.3743,0.6335009,1.0456213,0.0,4,0.0,0.0,0.0,0.0,0.0,0,0,0,0,0,1,1,0,0,0
191394584,15.576392,15.467123,38.936,38.929676,0.0,2032.8246,0.63497716,1.0454292,0.0,4,0.0,0.0,0.0,0.0,0.0,0,0,0,0,0,1,1,0,0,0
191898548,15.712601,15.472282,38.911198,38.92949,0.0,2038.2743,0.6377943,1.0450628,0.0,4,0.0,0.0,0.0,0.0,0.0,0,0,0,0,0,1,1,0,0,0
192402636,15.498559,15.470303,38.9236,38.929897,0.0,2043.7258,0.6376732,1.0450785,0.0,4,0.0,0.0,0.0,0.0,0.0,0,0,0,0,0,1,1,0,0,0
192906510,15.693143,15.479891,38.936,38.929214,0.0,2049.1743,0.6403635,1.0447289,0.0,4,0.0,0.0,0.0,0.0,0.0,0,0,0,0,0,1,1,0,0,0
193407394,15.430455,15.4950905,38.911198,38.930943,0.0,2054.5913,0.64564496,1.0440431,0.0,4,0.0,0.0,0.0,0.0,0.0,0,0,0,0,0,1,1,0,0,0
193909675,15.430455,15.509089,38.936,38.93273,0.0,2060.024,0.6499718,1.043482,0.0,4,0.0,0.0,0.0,0.0,0.0,0,0,0,0,0,1,1,0,0,0
194413698,15.576392,15.50202,38.936,38.93076,0.0,2065.4734,0.6467932,1.043894,0.0,4,0.0,0.0,0.0,0.0,0.0,0,0,0,0,0,1,1,0,0,0
194917759,15.897455,15.498908,38.911198,38.92879,0.0,2070.924,0.6461523,1.0439773,0.0,4,0.0,0.0,0.0,0.0,0.0,0,0,0,0,0,1,1,0,0,0
195409731,15.566664,15.491919,38.936,38.93025,0.0,2076.245,0.64523774,1.0440959,0.0,4,0.0,0.0,0.0,0.0,0.0,0,0,0,0,0,1,1,0,0,0
195913750,15.401268,15.4768715,38.936,38.929817,0.0,2081.6956,0.63881093,1.0449307,0.0,4,0.0,0.0,0.0,0.0,0.0,0,0,0,0,0,1,1,0,0,0
196417785,15.72233,15.471701,38.911198,38.9279,0.0,2087.1455,0.63704854,1.0451598,0.0,4,0.0,0.0,0.0,0.0,0.0,0,0,0,0,0,1,1,0,0,0
196909620,15.537476,15.468001,38.936,38.929173,0.0,2092.464,0.63408834,1.0455449,0.0,4,0.0,0.0,0.0,0.0,0.0,0,0,0,0,0,1,1,0,0,0
198420974,15.644497,15.503876,38.936,38.932575,0.0,2108.8083,0.64755803,1.0437949,0.0,4,0.0,0.0,0.0,0.0,0.0,0,0,0,0,0,1,1,0,0,0
198924859,15.61531,15.502316,38.936,38.93192,0.0,2114.2576,0.64730054,1.0438282,0.0,4,0.0,0.0,0.0,0.0,0.0,0,0,0,0,0,1,1,0,0,0
199416917,15.333163,15.490356,38.9484,38.93272,0.0,2119.5789,0.64239675,1.0444647,0.0,4,0.0,0.0,0.0,0.0,0.0,0,0,0,0,0,1,1,0,0,0
199920809,15.634768,15.499524,38.8988,38.931427,0.0,2125.0273,0.64749223,1.0438035,0.0,4,0.0,0.0,0.0,0.0,0.0,0,0,0,0,0,1,1,0,0,0
200424822,15.070476,15.474527,38.9608,38.930367,0.0,2130.478,0.6380003,1.045036,0.0,4,0.0,0.0,0.0,0.0,0.0,0,0,0,0,0,1,1,0,0,0
200928104,15.547205,15.450007,38.936,38.93106,0.0,2135.9211,0.62385064,1.0468789,0.0,4,0.0,0.0,0.0,0.0,0.0,0,0,0,0,0,1,1,0,0,0
201432135,15.410996,15.45361,38.936,38.932194,0.0,2141.372,0.62545377,1.0466697,0.0,4,0.0,0.0,0.0,0.0,0.0,0,0,0,0,0,1,1,0,0,0
201924549,15.391539,15.449778,38.936,38.933876,0.0,2146.6975,0.62419873,1.0468335,0.0,4,0.0,0.0,0.0,0.0,0.0,0,0,0,0,0,1,1,0,0,0
202428064,15.420726,15.462936,38.936,38.93399,0.0,2152.1436,0.6295298,1.0461384,0.0,4,0.0,0.0,0.0,0.0,0.0,0,0,0,0,0,1,1,0,0,0
202932078,15.527747,15.475376,38.936,38.93401,0.0,2157.5938,0.6333683,1.0456386,0.0,4,0.0,0.0,0.0,0.0,0.0,0,0,0,0,0,1,1,0,0,0
203424160,15.381809,15.477187,38.936,38.93268,0.0,2162.9146,0.63488084,1.0454417,0.0,4,0.0,0.0,0.0,0.0,0.0,0,0,0,0,0,1,1,0,0,0
203928134,15.401268,15.470491,38.936,38.930573,0.0,2168.3643,0.632943,1.045694,0.0,4,0.0,0.0,0.0,0.0,0.0,0,0,0,0,0,1,1,0,0,0
204431358,15.488831,15.466776,38.9236,38.930622,0.0,2173.8057,0.63302976,1.0456827,0.0,4,0.0,0.0,0.0,0.0,0.0,0,0,0,0,0,1,1,0,0,0
204935353,15.527747,15.468451,38.9484,38.929485,0.0,2179.2556,0.633045,1.0456806,0.0,4,0.0,0.0,0.0,0.0,0.0,0,0,0,0,0,1,1,0,0,0
205427655,15.566664,15.477207,38.8864,38.928074,0.0,2184.5786,0.6371172,1.0451509,0.0,4,0.0,0.0,0.0,0.0,0.0,0,0,0,0,0,1,1,0,0,0
205931308,15.235872,15.479023,38.911198,38.925636,0.0,2190.025,0.6382883,1.0449985,0.0,4,0.0,0.0,0.0,0.0,0.0,0,0,0,0,0,1,1,0,0,0
206435338,15.313705,15.472194,38.936,38.928608,0.0,2195.4758,0.63632184,1.0452542,0.0,4,0.0,0.0,0.0,0.0,0.0,0,0,0,0,0,1,1,0,0,0
206939305,15.420726,15.466074,38.8864,38.929173,0.0,2200.926,0.63350374,1.0456209,0.0,4,0.0,0.0,0.0,0.0,0.0,0,0,0,0,0,1,1,0,0,0
207431378,15.226143,15.464325,38.936,38.931618,0.0,2206.2473,0.63310224,1.0456733,0.0,4,0.0,0.0,0.0,0.0,0.0,0,0,0,0,0,1,1,0,0,0
207935391,15.401268,15.451792,38.9236,38.93075,0.0,2211.6973,0.6278952,1.0463514,0.0,4,0.0,0.0,0.0,0.0,0.0,0,0,0,0,0,1,1,0,0,0
208434615,15.381809,15.452466,38.911198,38.930794,0.0,2217.0962,0.6284483,1.0462793,0.0,4,0.0,0.0,0.0,0.0,0.0,0,0,0,0,0,1,1,0,0,0
208938391,15.391539,15.444221,38.911198,38.929333,0.0,2222.5432,0.624934,1.0467376,0.0,4,0.0,0.0,0.0,0.0,0.0,0,0,0,0,0,1,1,0,0,0
209442491,15.440185,15.451434,38.936,38.93238,0.0,2227.9944,0.62857133,1.0462633,0.0,4,0.0,0.0,0.0,0.0,0.0,0,0,0,0,0,1,1,0,0,0
209934584,15.576392,15.450507,38.936,38.93023,0.0,2233.3152,0.62941056,1.046154,0.0,4,0.0,0.0,0.0,0.0,0.0,0,0,0,0,0,1,1,0,0,0
210438603,15.099664,15.43435,38.911198,38.930424,0.0,2238.7651,0.62253743,1.0470502,0.0,4,0.0,0.0,0.0,0.0,0.0,0,0,0,0,0,1,1,0,0,0
210942651,15.226143,15.433442,38.911198,38.93157,0.0,2244.2168,0.62244684,1.047062,0.0,4,0.0,0.0,0.0,0.0,0.0,0,0,0,0,0,1,1,0,0,0
211446468,15.313705,15.430844,38.9236,38.93029,0.0,2249.665,0.6205233,1.0473132,0.0,4,0.0,0.0,0.0,0.0,0.0,0,0,0,0,0,1,1,0,0,0
211949736,15.303976,15.427611,38.936,38.9319,0.0,2255.1072,0.61772424,1.0476788,0.0,4,0.0,0.0,0.0,0.0,0.0,0,0,0,0,0,1,1,0,0,0
212441707,15.313705,15.440323,38.911198,38.92978,0.0,2260.426,0.6209143,1.0472622,0.0,4,0.0,0.0,0.0,0.0,0.0,0,0,0,0,0,1,1,0,0,0
212945742,15.420726,15.430068,38.911198,38.93035,0.0,2265.877,0.6159342,1.0479127,0.0,4,0.0,0.0,0.0,0.0,0.0,0,0,0,0,0,1,1,0,0,0
213449747,15.518018,15.302123,38.9484,38.928192,0.0,2271.3262,0.56368953,1.0547875,0.0,4,0.0,0.0,0.0,0.0,0.0,0,0,0,0,0,1,1,0,0,0
213941698,15.342893,15.246301,38.936,38.927944,0.0,2276.6462,0.5420397,1.0576628,0.0,4,0.0,0.0,0.0,0.0,0.0,0,0,0,0,0,1,1,0,0,0
214445719,15.2164135,15.205579,38.936,38.925743,0.0,2282.0962,0.5272606,1.0596347,0.0,4,0.0,0.0,0.0,0.0,0.0,0,0,0,0,0,1,1,0,0,0
214949729,15.089934,15.172857,38.9236,38.92837,0.0,2287.5466,0.51590663,1.0611545,0.0,4,0.0,0.0,0.0,0.0,0.0,0,0,0,0,0,1,1,0,0,0
215453807,14.953726,15.108882,38.9236,38.926235,0.0,2292.997,0.49032193,1.0645953,0.0,4,0.0,0.0,0.0,0.0,0.0,0,0,0,0,0,1,1,0,0,0
215956877,15.381809,15.077074,38.911198,38.927143,0.0,2298.436,0.47847825,1.0661957,0.0,4,0.0,0.0,0.0,0.0,0.0,0,0,0,0,0,1,1,0,0,0
216460831,15.654226,15.238854,38.911198,38.93074,0.0,2303.8867,0.529219,1.0593729,0.0,4,0.0,0.0,0.0,0.0,0.0,0,0,0,0,0,1,1,0,0,0
216964838,15.72233,15.377005,38.8988,38.931618,0.0,2309.3384,0.5778859,1.0529104,0.0,4,0.0,0.0,0.0,0.0,0.0,0,0,0,0,0,1,1,0,0,0
217468929,15.625038,15.462374,38.936,38.93332,0.0,2314.7898,0.61008626,1.0486778,0.0,4,0.0,0.0,0.0,0.0,0.0,0,0,0,0,0,1,1,0,0,0
217960847,15.634768,15.434417,38.9484,38.934505,0.0,2320.1094,0.5984929,1.0501978,0.0,4,0.0,0.0,0.0,0.0,0.0,0,0,0,0,0,1,1,0,0,0
218464932,15.070476,15.484477,38.936,38.93452,0.0,2325.5605,0.61733896,1.0477291,0.0,4,0.0,0.0,0.0,0.0,0.0,0,0,0,0,0,1,1,0,0,0
218968076,15.041288,15.427029,38.911198,38.93245,0.0,2331.0012,0.60319597,1.0495807,0.0,4,0.0,0.0,0.0,0.0,0.0,0,0,0,0,0,1,1,0,0,0
220468154,15.265059,15.327576,38.936,38.928844,0.0,2347.2231,0.57430583,1.0533832,0.0,4,0.0,0.0,0.0,0.0,0.0,0,0,0,0,0,1,1,0,0,0
220972195,14.953726,15.344729,38.936,38.92969,0.0,2352.674,0.57928497,1.0527259,0.0,4,0.0,0.0,0.0,0.0,0.0,0,0,0,0,0,1,1,0,0,0
221476147,15.420726,15.335056,38.9236,38.928673,0.0,2358.1233,0.57588226,1.053175,0.0,4,0.0,0.0,0.0,0.0,0.0,0,0,0,0,0,1,1,0,0,0
221980149,15.449913,15.342998,38.9236,38.929295,0.0,2363.573,0.5790022,1.0527632,0.0,4,0.0,0.0,0.0,0.0,0.0,0,0,0,0,0,1,1,0,0,0
222491331,15.430455,15.327449,38.9484,38.92898,0.0,2369.1006,0.57296497,1.0535604,0.0,4,0.0,0.0,0.0,0.0,0.0,0,0,0,0,0,1,1,0,0,0
222983307,15.352622,15.30724,38.936,38.9287,0.0,2374.42,0.56677943,1.0543784,0.0,4,0.0,0.0,0.0,0.0,0.0,0,0,0,0,0,1,1,0,0,0
223487350,15.2164135,15.291003,38.9608,38.9285,0.0,2379.8696,0.5596078,1.0553284,0.0,4,0.0,0.0,0.0,0.0,0.0,0,0,0,0,0,1,1,0,0,0
223991301,15.37208,15.313605,38.936,38.929348,0.0,2385.3193,0.5672911,1.0543107,0.0,4,0.0,0.0,0.0,0.0,0.0,0,0,0,0,0,1,1,0,0,0
224483364,15.226143,15.305901,38.936,38.930153,0.0,2390.6409,0.5630782,1.0548685,0.0,4,0.0,0.0,0.0,0.0,0.0,0,0,0,0,0,1,1,0,0,0
224987750,15.25533,15.304747,38.9236,38.928123,0.0,2396.0942,0.5621994,1.0549848,0.0,4,0.0,0.0,0.0,0.0,0.0,0,0,0,0,0,1,1,0,0,0
225491340,15.440185,15.336212,38.936,38.929512,0.0,2401.5408,0.5742696,1.053388,0.0,4,0.0,0.0,0.0,0.0,0.0,0,0,0,0,0,1,1,0,0,0
225995371,15.109393,15.310625,38.936,38.929787,0.0,2406.9915,0.5635031,1.0548122,0.0,4,0.0,0.0,0.0,0.0,0.0,0,0,0,0,0,1,1,0,0,0
226498454,15.294247,15.314849,38.936,38.92996,0.0,2412.432,0.5648988,1.0546273,0.0,4,0.0,0.0,0.0,0.0,0.0,0,0,0,0,0,1,1,0,0,0
227002602,15.294247,15.296482,38.9236,38.929337,0.0,2417.8833,0.5576485,1.0555882,0.0,4,0.0,0.0,0.0,0.0,0.0,0,0,0,0,0,1,1,0,0,0
227494595,15.342893,15.287422,38.936,38.92843,0.0,2423.2026,0.5554927,1.0558742,0.0,4,0.0,0.0,0.0,0.0,0.0,0,0,0,0,0,1,1,0,0,0
227998553,15.303976,15.239009,38.936,38.929695,0.0,2428.6526,0.5364383,1.0584092,0.0,4,0.0,0.0,0.0,0.0,0.0,0,0,0,0,0,1,1,0,0,0
228502624,15.37208,15.227997,38.8988,38.92777,0.0,2434.1033,0.5336407,1.0587825,0.0,4,0.0,0.0,0.0,0.0,0.0,0,0,0,0,0,1,1,0,0,0
228994583,14.885622,15.218884,38.936,38.929543,0.0,2439.4238,0.530309,1.0592273,0.0,4,0.0,0.0,0.0,0.0,0.0,0,0,0,0,0,1,1,0,0,0
229498466,15.284517,15.207658,38.9236,38.929523,0.0,2444.8728,0.52541333,1.0598816,0.0,4,0.0,0.0,0.0,0.0,0.0,0,0,0,0,0,1,1,0,0,0
230009751,15.274789,15.201425,38.936,38.931,0.0,2450.4019,0.52159864,1.060392,0.0,4,0.0,0.0,0.0,0.0,0.0,0,0,0,0,0,1,1,0,0,0
230509636,15.459642,15.262362,38.936,38.932743,0.0,2455.8071,0.5427368,1.05757,0.0,4,0.0,0.0,0.0,0.0,0.0,0,0,0,0,0,1,1,0,0,0
231013643,15.741789,15.35377,38.936,38.932243,0.0,2461.2583,0.572336,1.0536435,0.0,4,0.0,0.0,0.0,0.0,0.0,0,0,0,0,0,1,1,0,0,0
231517758,14.768872,15.377956,38.911198,38.93014,0.0,2466.7087,0.576381,1.0531092,0.0,4,0.0,0.0,0.0,0.0,0.0,0,0,0,0,0,1,1,0,0,0
232009678,15.333163,15.419966,38.936,38.93426,0.0,2472.03,0.5919331,1.0510598,0.0,4,0.0,0.0,0.0,0.0,0.0,0,0,0,0,0,1,1,0,0,0
232513733,15.459642,15.426965,38.9484,38.932716,0.0,2477.4814,0.5969761,1.050397,0.0,4,0.0,0.0,0.0,0.0,0.0,0,0,0,0,0,1,1,0,0,0
233017798,14.914809,15.327213,38.911198,38.929386,0.0,2482.932,0.5612734,1.0551076,0.0,4,0.0,0.0,0.0,0.0,0.0,0,0,0,0,0,1,1,0,0,0
233517765,14.90508,15.265216,38.936,38.928337,0.0,2488.3374,0.53999406,1.0579352,0.0,4,0.0,0.0,0.0,0.0,0.0,0,0,0,0,0,1,1,0,0,0
234020883,15.002372,15.218785,38.911198,38.92843,0.0,2493.778,0.52381736,1.0600951,0.0,4,0.0,0.0,0.0,0.0,0.0,0,0,0,0,0,1,1,0,0,0
234524911,15.012101,15.219193,38.936,38.929955,0.0,2499.2297,0.5252784,1.0598997,0.0,4,0.0,0.0,0.0,0.0,0.0,0,0,0,0,0,1,1,0,0,0
235028907,15.196955,15.254316,38.936,38.92882,0.0,2504.6797,0.53506404,1.0585926,0.0,4,0.0,0.0,0.0,0.0,0.0,0,0,0,0,0,1,1,0,0,0
235532874,14.836976,15.246638,38.936,38.92853,0.0,2510.1294,0.5350302,1.0585971,0.0,4,0.0,0.0,0.0,0.0,0.0,0,0,0,0,0,1,1,0,0,0
236036881,15.012101,15.186348,38.911198,38.928654,0.0,2515.5798,0.51293117,1.0615535,0.0,4,0.0,0.0,0.0,0.0,0.0,0,0,0,0,0,1,1,0,0,0
236540873,15.274789,15.117526,38.936,38.92814,0.0,2521.0298,0.48631793,1.0651358,0.0,4,0.0,0.0,0.0,0.0,0.0,0,0,0,0,0,1,1,0,0,0
237040893,14.720226,15.031817,38.8864,38.92647,0.0,2526.4365,0.45175725,1.0698242,0.0,4,0.0,0.0,0.0,0.0,0.0,0,0,0,0,0,1,1,0,0,0
237544113,14.78833,14.9593935,38.911198,38.92572,0.0,2531.8782,0.4236191,1.0736719,0.0,4,0.0,0.0,0.0,0.0,0.0,0,0,0,0,0,1,1,0,0,0
238036183,14.710497,14.903321,38.9236,38.922234,0.0,2537.1982,0.4013422,1.0767378,0.0,4,0.0,0.0,0.0,0.0,0.0,0,0,0,0,0,1,1,0,0,0
238540077,15.099664,14.863252,38.911198,38.919933,0.0,2542.6455,0.38515455,1.0789766,0.0,4,0.0,0.0,0.0,0.0,0.0,0,0,0,0,0,1,1,0,0,0
239044092,15.712601,15.047558,38.9484,38.92559,0.0,2548.0957,0.44438344,1.0708299,0.0,4,0.0,0.0,0.0,0.0,0.0,0,0,0,0,0,1,1,0,0,0
239548073,15.566664,15.200197,38.911198,38.927185,0.0,2553.5454,0.49732953,1.0636507,0.0,4,0.0,0.0,0.0,0.0,0.0,0,0,0,0,0,1,1,0,0,0
240040129,15.693143,15.303883,38.936,38.928802,0.0,2558.8655,0.5344618,1.0586729,0.0,4,0.0,0.0,0.0,0.0,0.0,0,0,0,0,0,1,1,0,0,0
240544156,15.576392,15.371292,38.9484,38.931683,0.0,2564.3162,0.5616353,1.0550596,0.0,4,0.0,0.0,0.0,0.0,0.0,0,0,0,0,0,1,1,0,0,0
241055353,15.313705,15.395364,38.9236,38.929127,0.0,2569.8445,0.5726827,1.0535977,0.0,4,0.0,0.0,0.0,0.0,0.0,0,0,0,0,0,1,1,0,0,0
242063402,15.518018,15.374802,38.911198,38.92628,0.0,2580.7449,0.5689629,1.0540894,0.0,4,0.0,0.0,0.0,0.0,0.0,0,0,0,0,0,1,1,0,0,0
242567432,15.041288,15.348656,38.936,38.92477,0.0,2586.1946,0.5610216,1.055141,0.0,4,0.0,0.0,0.0,0.0,0.0,0,0,0,0,0,1,1,0,0,0
243071388,15.089934,15.33841,38.936,38.926693,0.0,2591.644,0.56014043,1.0552578,0.0,4,0.0,0.0,0.0,0.0,0.0,0,0,0,0,0,1,1,0,0,0
243575374,15.420726,15.320874,38.9236,38.926193,0.0,2597.093,0.5555957,1.0558605,0.0,4,0.0,0.0,0.0,0.0,0.0,0,0,0,0,0,1,1,0,0,0
244067358,14.992642,15.283453,38.911198,38.92092,0.0,2602.4119,0.543094,1.0575224,0.0,4,0.0,0.0,0.0,0.0,0.0,0,0,0,0,0,1,1,0,0,0
244571302,14.924539,15.227557,38.9236,38.921577,0.0,2607.8599,0.5238479,1.060091,0.0,4,0.0,0.0,0.0,0.0,0.0,0,0,0,0,0,1,1,0,0,0
245074495,14.875893,15.175673,38.9236,38.919754,0.0,2613.2998,0.50383884,1.0627747,0.0,4,0.0,0.0,0.0,0.0,0.0,0,0,0,0,0,1,1,0,0,0
245578412,14.982914,15.139176,38.911198,38.919163,0.0,2618.7478,0.4900177,1.0646363,0.0,4,0.0,0.0,0.0,0.0,0.0,0,0,0,0,0,1,1,0,0,0
246070400,14.924539,15.13514,38.9236,38.92247,0.0,2624.0684,0.48846227,1.0648463,0.0,4,0.0,0.0,0.0,0.0,0.0,0,0,0,0,0,1,1,0,0,0
246574557,15.25533,15.1599865,38.911198,38.922142,0.0,2629.519,0.49853736,1.063488,0.0,4,0.0,0.0,0.0,0.0,0.0,0,0,0,0,0,1,1,0,0,0
247078519,15.362351,15.16538,38.911198,38.92448,0.0,2634.968,0.4989093,1.0634379,0.0,4,0.0,0.0,0.0,0.0,0.0,0,0,0,0,0,1,1,0,0,0
247582532,15.274789,15.192044,38.9236,38.92342,0.0,2640.4167,0.51045066,1.0618864,0.0,4,0.0,0.0,0.0,0.0,0.0,0,0,0,0,0,1,1,0,0,0
248086519,15.2164135,15.157892,38.9236,38.922462,0.0,2645.8655,0.4968179,1.0637196,0.0,4,0.0,0.0,0.0,0.0,0.0,0,0,0,0,0,1,1,0,0,0
248588993,15.245601,15.190438,38.911198,38.921738,0.0,2651.2969,0.5073417,1.0623039,0.0,4,0.0,0.0,0.0,0.0,0.0,0,0,0,0,0,1,1,0,0,0
249093715,15.119122,15.214882,38.936,38.922344,0.0,2656.7544,0.5168045,1.0610341,0.0,4,0.0,0.0,0.0,0.0,0.0,0,0,0,0,0,1,1,0,0,0
249597619,15.459642,15.193229,38.936,38.922417,0.0,2662.2017,0.50784713,1.062236,0.0,4,0.0,0.0,0.0,0.0,0.0,0,0,0,0,0,1,1,0,0,0
250101684,15.362351,15.195007,38.936,38.925907,0.0,2667.652,0.50685483,1.0623693,0.0,4,0.0,0.0,0.0,0.0,0.0,0,0,0,0,0,1,1,0,0,0
250593763,15.2164135,15.188693,38.911198,38.924755,0.0,2672.9722,0.50505286,1.0626115,0.0,4,0.0,0.0,0.0,0.0,0.0,0,0,0,0,0,1,1,0,0,0
251097781,14.90508,15.17082,38.911198,38.92115,0.0,2678.4216,0.49919254,1.0633998,0.0,4,0.0,0.0,0.0,0.0,0.0,0,0,0,0,0,1,1,0,0,0
251601748,15.021831,15.147627,38.9236,38.919415,0.0,2683.8696,0.4904402,1.0645794,0.0,4,0.0,0.0,0.0,0.0,0.0,0,0,0,0,0,1,1,0,0,0
252104842,15.13858,15.12471,38.936,38.922073,0.0,2689.3093,0.48163205,1.0657691,0.0,4,0.0,0.0,0.0,0.0,0.0,0,0,0,0,0,1,1,0,0,0
252604858,15.2164135,15.108486,38.911198,38.919662,0.0,2694.7148,0.474037,1.0667971,0.0,4,0.0,0.0,0.0,0.0,0.0,0,0,0,0,0,1,1,0,0,0
253096944,15.002372,15.08309,38.911198,38.919247,0.0,2700.0347,0.46333295,1.0682493,0.0,4,0.0,0.0,0.0,0.0,0.0,0,0,0,0,0,1,1,0,0,0
253600925,14.982914,14.973196,38.936,38.922035,0.0,2705.4832,0.42025882,1.0741333,0.0,4,0.0,0.0,0.0,0.0,0.0,0,0,0,0,0,1,1,0,0,0
254104896,15.479101,15.100463,38.936,38.923325,0.0,2710.9321,0.46390516,1.0681715,0.0,4,0.0,0.0,0.0,0.0,0.0,0,0,0,0,0,1,1,0,0,0
254597066,14.836976,15.165671,38.911198,38.923153,0.0,2716.2527,0.4788335,1.0661477,0.0,4,0.0,0.0,0.0,0.0,0.0,0,0,0,0,0,1,1,0,0,0
255100863,15.362351,15.147854,38.911198,38.92183,0.0,2721.6995,0.47408706,1.0667903,0.0,4,0.0,0.0,0.0,0.0,0.0,0,0,0,0,0,1,1,0,0,0
255604911,14.992642,15.171377,38.8988,38.919685,0.0,2727.1484,0.48473197,1.06535,0.0,4,0.0,0.0,0.0,0.0,0.0,0,0,0,0,0,1,1,0,0,0
256608167,15.051018,15.218971,38.8988,38.921734,0.0,2737.9958,0.49613792,1.0638112,0.0,4,0.0,0.0,0.0,0.0,0.0,0,0,0,0,0,1,1,0,0,0
257112141,14.875893,15.106178,38.8864,38.918034,0.0,2743.4438,0.45890456,1.0688512,0.0,4,0.0,0.0,0.0,0.0,0.0,0,0,0,0,0,1,1,0,0,0
257604076,14.778601,15.096156,38.911198,38.920002,0.0,2748.762,0.45868522,1.068881,0.0,4,0.0,0.0,0.0,0.0,0.0,0,0,0,0,0,1,1,0,0,0
258108085,15.158038,15.077018,38.936,38.91721,0.0,2754.209,0.45434123,1.0694722,0.0,4,0.0,0.0,0.0,0.0,0.0,0,0,0,0,0,1,1,0,0,0
258612041,14.836976,15.108087,38.911198,38.919685,0.0,2759.658,0.46749336,1.0676844,0.0,4,0.0,0.0,0.0,0.0,0.0,0,0,0,0,0,1,1,0,0,0
259116138,14.924539,15.108833,38.911198,38.9211,0.0,2765.1074,0.46884328,1.0675012,0.0,4,0.0,0.0,0.0,0.0,0.0,0,0,0,0,0,1,1,0,0,0
259620162,14.68131,15.045276,38.9236,38.922985,0.0,2770.5566,0.44386798,1.0709002,0.0,4,0.0,0.0,0.0,0.0,0.0,0,0,0,0,0,1,1,0,0,0
260124141,14.729956,14.987142,38.8988,38.919994,0.0,2776.0046,0.42328674,1.0737175,0.0,4,0.0,0.0,0.0,0.0,0.0,0,0,0,0,0,1,1,0,0,0
260623358,15.294247,15.038841,38.936,38.919155,0.0,2781.4019,0.4412635,1.0712559,0.0,4,0.0,0.0,0.0,0.0,0.0,0,0,0,0,0,1,1,0,0,0
262123345,15.196955,15.176802,38.9236,38.91792,0.0,2797.6167,0.4839986,1.0654492,0.0,4,0.0,0.0,0.0,0.0,0.0,0,0,0,0,0,1,1,0,0,0
262627426,15.070476,15.195258,38.8864,38.918858,0.0,2803.0664,0.49246007,1.064307,0.0,4,0.0,0.0,0.0,0.0,0.0,0,0,0,0,0,1,1,0,0,0
263119329,15.274789,15.176205,38.911198,38.9172,0.0,2808.3843,0.48738176,1.0649922,0.0,4,0.0,0.0,0.0,0.0,0.0,0,0,0,0,0,1,1,0,0,0
263623329,15.177497,15.178343,38.9236,38.91632,0.0,2813.833,0.48839885,1.0648549,0.0,4,0.0,0.0,0.0,0.0,0.0,0,0,0,0,0,1,1,0,0,0
264127398,14.652122,15.171393,38.9236,38.919346,0.0,2819.2834,0.48713,1.0650262,0.0,4,0.0,0.0,0.0,0.0,0.0,0,0,0,0,0,1,1,0,0,0
264637657,15.25533,15.167277,38.936,38.920975,0.0,2824.7998,0.48551875,1.0652438,0.0,4,0.0,0.0,0.0,0.0,0.0,0,0,0,0,0,1,1,0,0,0
265130500,14.914809,15.126,38.8988,38.917786,0.0,2830.127,0.47053558,1.0672717,0.0,4,0.0,0.0,0.0,0.0,0.0,0,0,0,0,0,1,1,0,0,0
265634487,15.303976,15.118913,38.911198,38.91768,0.0,2835.5757,0.46945792,1.0674179,0.0,4,0.0,0.0,0.0,0.0,0.0,0,0,0,0,0,1,1,0,0,0
266138627,15.14831,15.089523,38.9236,38.91621,0.0,2841.0256,0.45854694,1.0688999,0.0,4,0.0,0.0,0.0,0.0,0.0,0,0,0,0,0,1,1,0,0,0
266642527,15.294247,15.078229,38.911198,38.919018,0.0,2846.4734,0.45556337,1.0693059,0.0,4,0.0,0.0,0.0,0.0,0.0,0,0,0,0,0,1,1,0,0,0
267134578,14.875893,15.121007,38.8988,38.91678,0.0,2851.7925,0.46982652,1.0673679,0.0,4,0.0,0.0,0.0,0.0,0.0,0,0,0,0,0,1,1,0,0,0
267638596,15.099664,15.104165,38.9236,38.915665,0.0,2857.2415,0.46237928,1.0683788,0.0,4,0.0,0.0,0.0,0.0,0.0,0,0,0,0,0,1,1,0,0,0
268142533,15.226143,15.105435,38.9236,38.918465,0.0,2862.69,0.46248323,1.0683647,0.0,4,0.0,0.0,0.0,0.0,0.0,0,0,0,0,0,1,1,0,0,0
268641733,15.265059,15.098025,38.911198,38.917683,0.0,2868.0857,0.4614895,1.0684998,0.0,4,0.0,0.0,0.0,0.0,0.0,0,0,0,0,0,1,1,0,0,0
269145660,15.060747,15.086385,38.911198,38.9178,0.0,2873.534,0.45477277,1.0694134,0.0,4,0.0,0.0,0.0,0.0,0.0,0,0,0,0,0,1,1,0,0,0
269649695,14.875893,15.03034,38.9236,38.91792,0.0,2878.9824,0.43228418,1.072484,0.0,4,0.0,0.0,0.0,0.0,0.0,0,0,0,0,0,1,1,0,0,0
270153659,15.226143,15.031949,38.911198,38.917625,0.0,2884.431,0.42524034,1.0734495,0.0,4,0.0,0.0,0.0,0.0,0.0,0,0,0,0,0,1,1,0,0,0
270645753,15.2164135,15.067519,38.9236,38.918427,0.0,2889.7507,0.4401849,1.0714033,0.0,4,0.0,0.0,0.0,0.0,0.0,0,0,0,0,0,1,1,0,0,0
271149752,15.109393,15.072908,38.9236,38.91803,0.0,2895.2,0.44446975,1.0708181,0.0,4,0.0,0.0,0.0,0.0,0.0,0,0,0,0,0,1,1,0,0,0
271654050,15.128851,15.074576,38.936,38.9202,0.0,2900.6523,0.4470814,1.0704616,0.0,4,0.0,0.0,0.0,0.0,0.0,0,0,0,0,0,1,1,0,0,0
272157669,15.099664,15.0746155,38.936,38.916836,0.0,2906.0962,0.4475158,1.0704024,0.0,4,0.0,0.0,0.0,0.0,0.0,0,0,0,0,0,1,1,0,0,0
272660969,15.158038,15.066155,38.911198,38.916233,0.0,2911.5369,0.44437295,1.0708313,0.0,4,0.0,0.0,0.0,0.0,0.0,0,0,0,0,0,1,1,0,0,0
273164918,15.021831,15.07257,38.9236,38.91819,0.0,2916.9844,0.4466117,1.0705258,0.0,4,0.0,0.0,0.0,0.0,0.0,0,0,0,0,0,1,1,0,0,0
273668900,15.187226,15.079226,38.9236,38.916183,0.0,2922.4324,0.45003015,1.0700595,0.0,4,0.0,0.0,0.0,0.0,0.0,0,0,0,0,0,1,1,0,0,0
274172947,15.303976,15.078283,38.911198,38.916588,0.0,2927.881,0.4505952,1.0699825,0.0,4,0.0,0.0,0.0,0.0,0.0,0,0,0,0,0,1,1,0,0,0
274677398,14.943996,15.074659,38.911198,38.918114,0.0,2933.3347,0.44901115,1.0701985,0.0,4,0.0,0.0,0.0,0.0,0.0,0,0,0,0,0,1,1,0,0,0
275180853,15.021831,15.077418,38.911198,38.91855,0.0,2938.7773,0.4495309,1.0701276,0.0,4,0.0,0.0,0.0,0.0,0.0,0,0,0,0,0,1,1,0,0,0
275684912,14.982914,15.109337,38.8864,38.91769,0.0,2944.2273,0.46186286,1.068449,0.0,4,0.0,0.0,0.0,0.0,0.0,0,0,0,0,0,1,1,0,0,0
276188980,15.245601,15.095436,38.911198,38.9168,0.0,2949.676,0.45770007,1.069015,0.0,4,0.0,0.0,0.0,0.0,0.0,0,0,0,0,0,1,1,0,0,0
276692120,14.875893,15.087991,38.936,38.91848,0.0,2955.1152,0.45300895,1.0696536,0.0,4,0.0,0.0,0.0,0.0,0.0,0,0,0,0,0,1,1,0,0,0
277184110,15.002372,15.090168,38.8864,38.91868,0.0,2960.4338,0.45579177,1.0692748,0.0,4,0.0,0.0,0.0,0.0,0.0,0,0,0,0,0,1,1,0,0,0
277688077,15.060747,15.084898,38.936,38.919357,0.0,2965.883,0.45493537,1.0693914,0.0,4,0.0,0.0,0.0,0.0,0.0,0,0,0,0,0,1,1,0,0,0
278192100,15.245601,15.079214,38.936,38.919502,0.0,2971.3318,0.45252115,1.0697201,0.0,4,0.0,0.0,0.0,0.0,0.0,0,0,0,0,0,1,1,0,0,0
278684168,15.119122,15.07052,38.8988,38.917553,0.0,2976.6504,0.45004112,1.0700581,0.0,4,0.0,0.0,0.0,0.0,0.0,0,0,0,0,0,1,1,0,0,0
279188179,15.206684,15.071598,38.936,38.915596,0.0,2982.0984,0.44863826,1.0702493,0.0,4,0.0,0.0,0.0,0.0,0.0,0,0,0,0,0,1,1,0,0,0
279692148,15.449913,15.013645,38.9236,38.917133,0.0,2987.547,0.42557985,1.0734029,0.0,4,0.0,0.0,0.0,0.0,0.0,0,0,0,0,0,1,1,0,0,0
280196118,15.226143,15.033487,38.911198,38.918655,0.0,2992.9956,0.42985135,1.0728173,0.0,4,0.0,0.0,0.0,0.0,0.0,0,0,0,0,0,1,1,0,0,0
280688111,15.284517,15.04603,38.911198,38.91566,0.0,2998.3135,0.43373376,1.0722855,0.0,4,0.0,0.0,0.0,0.0,0.0,0,0,0,0,0,1,1,0,0,0
281191272,14.992642,15.053444,38.911198,38.916298,0.0,3003.7524,0.43540412,1.072057,0.0,4,0.0,0.0,0.0,0.0,0.0,0,0,0,0,0,1,1,0,0,0
281695277,15.119122,15.074263,38.911198,38.916588,0.0,3009.2002,0.44284946,1.0710393,0.0,4,0.0,0.0,0.0,0.0,0.0,0,0,0,0,0,1,1,0,0,0
282187406,15.265059,15.078564,38.911198,38.915028,0.0,3014.5198,0.4441145,1.0708666,0.0,4,0.0,0.0,0.0,0.0,0.0,0,0,0,0,0,1,1,0,0,0
283195298,15.235872,15.106627,38.911198,38.91327,0.0,3025.415,0.44030696,1.0713866,0.0,4,0.0,0.0,0.0,0.0,0.0,0,0,0,0,0,1,1,0,0,0
283699319,15.342893,15.177385,38.9236,38.913982,0.0,3030.8628,0.46043235,1.0686435,0.0,4,0.0,0.0,0.0,0.0,0.0,0,0,0,0,0,1,1,0,0,0
284203335,15.537476,15.253137,38.936,38.918938,0.0,3036.3113,0.4792145,1.0660961,0.0,4,0.0,0.0,0.0,0.0,0.0,0,0,0,0,0,1,1,0,0,0
284706745,15.673684,15.36431,38.9484,38.922546,0.0,3041.754,0.47282916,1.0669608,0.0,4,0.0,0.0,0.0,0.0,0.0,0,0,0,0,0,1,1,0,0,0
285210515,15.693143,15.476073,38.936,38.924538,0.0,3047.201,0.463054,1.0682871,0.0,4,0.0,0.0,0.0,0.0,0.0,0,0,0,0,0,1,1,0,0,0
285714520,15.702871,15.55227,38.936,38.92428,0.0,3052.65,0.45810395,1.0689602,0.0,4,0.0,0.0,0.0,0.0,0.0,0,0,0,0,0,1,1,0,0,0
286218480,15.693143,15.605316,38.9236,38.925877,0.0,3058.0989,0.45640165,1.0691917,0.0,4,0.0,0.0,0.0,0.0,0.0,0,0,0,0,0,1,1,0,0,0
286710591,15.780705,15.645684,38.9236,38.925636,0.0,3063.4192,0.45843583,1.068915,0.0,4,0.0,0.0,0.0,0.0,0.0,0,0,0,0,0,1,1,0,0,0
287214551,15.800163,15.679412,38.9236,38.926144,0.0,3068.8694,0.4630435,1.0682886,0.0,4,0.0,0.0,0.0,0.0,0.0,0,0,0,0,0,1,1,0,0,0
