timestamp,baro_alt_meter,baro_temp_celcius,baro_pressure_pa,rho
133175052,91.56694,39.14,100230.0,1.1908982
133186785,91.733406,39.14,100228.0,1.1908745
133207048,91.56694,39.129997,100230.0,1.1908982
133218638,91.48238,39.129997,100231.0,1.1909101
133229042,91.733406,39.129997,100228.0,1.1908745
133251056,91.23137,39.14,100234.0,1.1909457
133262233,91.48238,39.14,100231.0,1.1909101
133273046,91.23137,39.14,100234.0,1.1909457
133295082,91.48238,39.14,100231.0,1.1909101
133305146,91.6515,39.14,100229.0,1.1908864
133316045,91.48238,39.14,100231.0,1.1909101
133337123,91.56694,39.14,100230.0,1.1908982
133347432,91.397835,39.14,100232.0,1.190922
133358145,91.56694,39.14,100230.0,1.1908982
133381052,91.733406,39.14,100228.0,1.1908745
133392509,91.733406,39.14,100228.0,1.1908745
133403075,91.56694,39.14,100230.0,1.1908982
133729161,91.98707,39.14,100225.0,1.1908388
133740052,91.56694,39.14,100230.0,1.1908982
133750129,91.56694,39.14,100230.0,1.1908982
133819351,91.6515,39.14,100229.0,1.1908864
133830147,91.48238,39.14,100231.0,1.1909101
133843060,91.31592,39.14,100232.99,1.1909337
133867106,91.733406,39.14,100228.0,1.1908745
133877560,91.6515,39.14,100229.0,1.1908864
133888383,91.56694,39.14,100230.0,1.1908982
133910353,91.733406,39.14,100228.0,1.1908745
133921050,91.733406,39.14,100228.0,1.1908745
133932393,91.48238,39.14,100231.0,1.1909101
133953082,91.31592,39.14,100232.99,1.1909337
133963047,91.6515,39.14,100229.0,1.1908864
133974172,91.81796,39.14,100226.99,1.1908624
133996099,91.56694,39.14,100230.0,1.1908982
134007050,91.56694,39.14,100230.0,1.1908982
134019028,91.90252,39.14,100225.99,1.1908506
134041055,91.397835,39.14,100232.0,1.190922
134052047,91.6515,39.14,100229.0,1.1908864
134063043,91.6515,39.14,100229.0,1.1908864
134085195,91.90252,39.14,100225.99,1.1908506
134096523,91.397835,39.14,100232.0,1.190922
134106535,91.48238,39.14,100231.0,1.1909101
134129059,91.397835,39.149998,100232.0,1.190922
134140388,91.48238,39.149998,100231.0,1.1909101
134151059,91.56694,39.149998,100230.0,1.1908982
134173134,91.6515,39.14,100229.0,1.1908864
134184398,91.6515,39.14,100229.0,1.1908864
134195042,91.31592,39.14,100232.99,1.1909337
134217047,91.56694,39.149998,100230.0,1.1908982
134228412,91.31592,39.149998,100232.99,1.1909337
134239054,91.6515,39.149998,100229.0,1.1908864
134261152,91.90252,39.14,100225.99,1.1908506
134272521,91.90252,39.14,100225.99,1.1908506
134283056,91.81796,39.14,100226.99,1.1908624
134305048,91.56694,39.14,100230.0,1.1908982
134316047,91.6515,39.14,100229.0,1.1908864
134327043,91.48238,39.14,100231.0,1.1909101
134349048,91.81796,39.149998,100226.99,1.1908624
134360047,91.31592,39.149998,100232.99,1.1909337
134371094,91.6515,39.149998,100229.0,1.1908864
134393047,91.48238,39.14,100231.0,1.1909101
134404080,91.397835,39.14,100232.0,1.190922
134415066,91.90252,39.14,100225.99,1.1908506
134437047,91.31592,39.149998,100232.99,1.1909337
134448048,90.97771,39.149998,100237.0,1.1909814
134459042,91.733406,39.149998,100228.0,1.1908745
134481050,91.56694,39.14,100230.0,1.1908982
134492050,91.81796,39.14,100226.99,1.1908624
134503042,92.153534,39.14,100223.0,1.1908151
134526130,91.397835,39.149998,100232.0,1.190922
134536110,91.81796,39.149998,100226.99,1.1908624
134547071,91.81796,39.149998,100226.99,1.1908624
134568048,91.6515,39.149998,100229.0,1.1908864
134579047,91.81796,39.149998,100226.99,1.1908624
134590122,91.48238,39.149998,100231.0,1.1909101
134612048,91.98707,39.149998,100225.0,1.1908388
134622283,91.98707,39.149998,100225.0,1.1908388
134634578,91.6515,39.149998,100229.0,1.1908864
134656368,91.14681,39.149998,100235.0,1.1909577
134667076,91.733406,39.149998,100228.0,1.1908745
134678455,91.48238,39.149998,100231.0,1.1909101
134700483,91.397835,39.149998,100232.0,1.190922
134711048,91.6515,39.149998,100229.0,1.1908864
134723159,91.6515,39.149998,100229.0,1.1908864
134746627,91.14681,39.149998,100235.0,1.1909577
134757047,91.31592,39.149998,100232.99,1.1909337
134768397,91.733406,39.149998,100228.0,1.1908745
134789048,91.81796,39.149998,100226.99,1.1908624
134800053,91.90252,39.149998,100225.99,1.1908506
134811295,91.6515,39.149998,100229.0,1.1908864
134833076,91.56694,39.149998,100230.0,1.1908982
134844047,91.48238,39.149998,100231.0,1.1909101
134855043,91.733406,39.149998,100228.0,1.1908745
134877078,91.397835,39.149998,100232.0,1.190922
134888094,91.56694,39.149998,100230.0,1.1908982
134899046,91.81796,39.149998,100226.99,1.1908624
134921048,91.6515,39.149998,100229.0,1.1908864
134932061,91.90252,39.149998,100225.99,1.1908506
134943043,91.81796,39.149998,100226.99,1.1908624
134964048,92.153534,39.149998,100223.0,1.1908151
134975050,91.6515,39.149998,100229.0,1.1908864
134986518,91.31592,39.149998,100232.99,1.1909337
135008047,91.56694,39.149998,100230.0,1.1908982
135019055,91.733406,39.149998,100228.0,1.1908745
135030128,91.90252,39.149998,100225.99,1.1908506
135052047,91.23137,39.149998,100234.0,1.1909457
135062131,91.6515,39.149998,100229.0,1.1908864
135073042,91.81796,39.149998,100226.99,1.1908624
135094148,91.81796,39.149998,100226.99,1.1908624
135107075,91.81796,39.149998,100226.99,1.1908624
135118127,91.397835,39.149998,100232.0,1.190922
135142018,91.6515,39.149998,100229.0,1.1908864
135152376,91.90252,39.149998,100225.99,1.1908506
135163019,91.48238,39.149998,100231.0,1.1909101
135185018,91.81796,39.149998,100226.99,1.1908624
135196480,91.56694,39.149998,100230.0,1.1908982
135207037,91.397835,39.149998,100232.0,1.190922
135229019,91.31592,39.149998,100232.99,1.1909337
135240395,91.81796,39.149998,100226.99,1.1908624
135251018,91.23137,39.149998,100234.0,1.1909457
135273064,91.56694,39.149998,100230.0,1.1908982
135284359,91.81796,39.149998,100226.99,1.1908624
135294143,91.98707,39.149998,100225.0,1.1908388
135317018,91.48238,39.16,100231.0,1.1909101
135328361,91.48238,39.16,100231.0,1.1909101
135339118,91.733406,39.16,100228.0,1.1908745
135361352,91.14681,39.149998,100235.0,1.1909577
135372369,91.23137,39.149998,100234.0,1.1909457
135383018,91.98707,39.149998,100225.0,1.1908388
135404018,91.81796,39.149998,100226.99,1.1908624
135415374,91.81796,39.149998,100226.99,1.1908624
135426018,91.48238,39.149998,100231.0,1.1909101
135448019,91.48238,39.149998,100231.0,1.1909101
135459458,91.81796,39.149998,100226.99,1.1908624
135470144,91.56694,39.149998,100230.0,1.1908982
135491035,91.48238,39.149998,100231.0,1.1909101
135501064,91.6515,39.149998,100229.0,1.1908864
135513412,91.90252,39.149998,100225.99,1.1908506
135535025,91.062256,39.16,100236.0,1.1909695
135546029,91.48238,39.16,100231.0,1.1909101
135557018,91.81796,39.16,100226.99,1.1908624
135578381,91.48238,39.16,100231.0,1.1909101
135588394,91.6515,39.16,100229.0,1.1908864
135599026,91.6515,39.16,100229.0,1.1908864
135620023,91.81796,39.16,100226.99,1.1908624
135631034,91.90252,39.16,100225.99,1.1908506
135642119,91.98707,39.16,100225.0,1.1908388
135664019,91.48238,39.16,100231.0,1.1909101
135675052,91.56694,39.16,100230.0,1.1908982
135686041,91.733406,39.16,100228.0,1.1908745
135708030,91.81796,39.16,100226.99,1.1908624
135719038,91.56694,39.16,100230.0,1.1908982
135729170,91.48238,39.16,100231.0,1.1909101
135751429,91.48238,39.16,100231.0,1.1909101
135762325,91.98707,39.16,100225.0,1.1908388
135773682,91.733406,39.16,100228.0,1.1908745
135795324,91.6515,39.16,100229.0,1.1908864
135805165,91.6515,39.16,100229.0,1.1908864
135816359,91.733406,39.16,100228.0,1.1908745
135838413,91.56694,39.16,100230.0,1.1908982
135848018,91.14681,39.16,100235.0,1.1909577
135859354,92.23809,39.16,100222.0,1.1908032
135880362,91.81796,39.149998,100226.99,1.1908624
135890126,91.733406,39.149998,100228.0,1.1908745
135901159,91.397835,39.149998,100232.0,1.190922
135923018,91.48238,39.16,100231.0,1.1909101
135934021,91.6515,39.16,100229.0,1.1908864
135945661,91.90252,39.16,100225.99,1.1908506
135967066,91.31592,39.16,100232.99,1.1909337
135979005,91.062256,39.16,100236.0,1.1909695
135990138,91.6515,39.16,100229.0,1.1908864
136012018,91.6515,39.16,100229.0,1.1908864
136023026,91.56694,39.16,100230.0,1.1908982
136034018,91.48238,39.16,100231.0,1.1909101
136055019,91.733406,39.16,100228.0,1.1908745
136065992,91.56694,39.16,100230.0,1.1908982
136077083,91.90252,39.16,100225.99,1.1908506
136099019,91.14681,39.16,100235.0,1.1909577
136110339,91.397835,39.16,100232.0,1.190922
136122014,92.068985,39.16,100224.0,1.1908269
136143064,91.81796,39.16,100226.99,1.1908624
136154423,91.90252,39.16,100225.99,1.1908506
136165308,91.90252,39.16,100225.99,1.1908506
136187018,91.90252,39.17,100225.99,1.1908506
136198387,91.56694,39.17,100230.0,1.1908982
136209823,91.48238,39.17,100231.0,1.1909101
136231018,91.6515,39.16,100229.0,1.1908864
136242434,91.98707,39.16,100225.0,1.1908388
136253191,91.90252,39.16,100225.99,1.1908506
136274012,92.068985,39.16,100224.0,1.1908269
136285045,92.407196,39.16,100219.99,1.1907793
136296023,91.81796,39.16,100226.99,1.1908624
136318018,91.81796,39.16,100226.99,1.1908624
136328019,91.56694,39.16,100230.0,1.1908982
136339018,91.98707,39.16,100225.0,1.1908388
136360397,91.397835,39.17,100232.0,1.190922
136370227,91.56694,39.17,100230.0,1.1908982
136381198,91.6515,39.17,100229.0,1.1908864
136403023,91.81796,39.16,100226.99,1.1908624
136413109,92.153534,39.16,100223.0,1.1908151
136424023,91.56694,39.16,100230.0,1.1908982
136445215,91.56694,39.17,100230.0,1.1908982
136456022,91.81796,39.17,100226.99,1.1908624
136467023,90.89315,39.17,100238.0,1.1909933
136490476,91.98707,39.16,100225.0,1.1908388
136501197,91.6515,39.16,100229.0,1.1908864
136512023,92.57366,39.16,100218.0,1.1907556
136533212,91.733406,39.17,100228.0,1.1908745
136544057,91.23137,39.17,100234.0,1.1909457
136555030,91.90252,39.17,100225.99,1.1908506
136576018,92.23809,39.16,100222.0,1.1908032
136586021,92.32265,39.16,100221.0,1.1907912
136597165,91.48238,39.16,100231.0,1.1909101
136619064,91.6515,39.17,100229.0,1.1908864
136630019,92.068985,39.17,100224.0,1.1908269
136640075,91.90252,39.17,100225.99,1.1908506
136660067,92.153534,39.16,100223.0,1.1908151
136671325,92.57366,39.16,100218.0,1.1907556
136681716,92.32265,39.16,100221.0,1.1907912
136703018,92.23809,39.17,100222.0,1.1908032
136714418,92.91188,39.17,100213.99,1.190708
136725213,92.49175,39.17,100219.0,1.1907675
136746770,92.407196,39.17,100219.99,1.1907793
136757342,92.407196,39.17,100219.99,1.1907793
136768018,91.56694,39.17,100230.0,1.1908982
136790108,92.49175,39.17,100219.0,1.1907675
136800021,91.98707,39.17,100225.0,1.1908388
136811018,92.57366,39.17,100218.0,1.1907556
136832358,92.153534,39.17,100223.0,1.1908151
136842324,92.32265,39.17,100221.0,1.1907912
136853335,92.57366,39.17,100218.0,1.1907556
136874099,92.49175,39.17,100219.0,1.1907675
136885321,92.068985,39.17,100224.0,1.1908269
136896018,92.742775,39.17,100216.0,1.1907319
136918018,92.742775,39.17,100216.0,1.1907319
136929963,92.49175,39.17,100219.0,1.1907675
136939149,92.153534,39.17,100223.0,1.1908151
136961719,91.98707,39.17,100225.0,1.1908388
136972018,92.23809,39.17,100222.0,1.1908032
136983052,91.98707,39.17,100225.0,1.1908388
137004018,92.153534,39.18,100223.0,1.1908151
137015023,92.068985,39.18,100224.0,1.1908269
137026021,92.23809,39.18,100222.0,1.1908032
137048021,92.57366,39.18,100218.0,1.1907556
137059018,92.742775,39.18,100216.0,1.1907319
137069312,92.742775,39.18,100216.0,1.1907319
137090911,91.98707,39.17,100225.0,1.1908388
137100019,92.23809,39.17,100222.0,1.1908032
137111047,91.81796,39.17,100226.99,1.1908624
137133168,91.98707,39.17,100225.0,1.1908388
137144018,91.98707,39.17,100225.0,1.1908388
137155074,91.90252,39.17,100225.99,1.1908506
137177800,92.068985,39.18,100224.0,1.1908269
137187049,91.90252,39.18,100225.99,1.1908506
137198018,92.068985,39.18,100224.0,1.1908269
137221206,91.98707,39.17,100225.0,1.1908388
137232023,92.57366,39.17,100218.0,1.1907556
137242018,92.49175,39.17,100219.0,1.1907675
137263018,92.153534,39.17,100223.0,1.1908151
137274138,92.153534,39.17,100223.0,1.1908151
137285357,92.32265,39.17,100221.0,1.1907912
137307018,91.98707,39.18,100225.0,1.1908388
137317046,91.90252,39.18,100225.99,1.1908506
137328358,92.407196,39.18,100219.99,1.1907793
137349314,92.49175,39.17,100219.0,1.1907675
137359019,92.49175,39.17,100219.0,1.1907675
137370018,92.91188,39.17,100213.99,1.190708
137392031,92.57366,39.18,100218.0,1.1907556
137403018,92.57366,39.18,100218.0,1.1907556
137413196,92.23809,39.18,100222.0,1.1908032
137434297,91.98707,39.18,100225.0,1.1908388
137445149,92.407196,39.18,100219.99,1.1907793
137456021,92.407196,39.18,100219.99,1.1907793
137477427,92.65822,39.18,100217.0,1.1907437
137488018,92.65822,39.18,100217.0,1.1907437
137499018,91.90252,39.18,100225.99,1.1908506
137520019,92.57366,39.18,100218.0,1.1907556
137531018,92.827324,39.18,100215.0,1.19072
137541200,92.65822,39.18,100217.0,1.1907437
137563019,91.90252,39.18,100225.99,1.1908506
137574402,92.65822,39.18,100217.0,1.1907437
137585934,92.49175,39.18,100219.0,1.1907675
137607109,92.827324,39.18,100215.0,1.19072
137618351,92.57366,39.18,100218.0,1.1907556
137629201,92.827324,39.18,100215.0,1.19072
137651022,92.65822,39.18,100217.0,1.1907437
137661167,92.49175,39.18,100219.0,1.1907675
137671018,92.827324,39.18,100215.0,1.19072
137692018,92.23809,39.18,100222.0,1.1908032
137703060,92.91188,39.18,100213.99,1.190708
137714018,93.1629,39.18,100211.0,1.1906724
137736018,92.65822,39.18,100217.0,1.1907437
137747021,92.827324,39.18,100215.0,1.19072
137758141,92.91188,39.18,100213.99,1.190708
137780018,92.65822,39.18,100217.0,1.1907437
137791042,92.57366,39.18,100218.0,1.1907556
137802018,92.49175,39.18,100219.0,1.1907675
137824018,92.407196,39.18,100219.99,1.1907793
137838315,92.9938,39.18,100213.0,1.1906962
137849687,92.32265,39.18,100221.0,1.1907912
137871089,92.91188,39.17,100213.99,1.190708
137882174,93.24746,39.17,100210.0,1.1906606
137893156,93.24746,39.17,100210.0,1.1906606
137915050,92.32265,39.18,100221.0,1.1907912
137926161,92.49175,39.18,100219.0,1.1907675
137936042,92.91188,39.18,100213.99,1.190708
137957395,92.65822,39.18,100217.0,1.1907437
137968425,93.1629,39.18,100211.0,1.1906724
137978390,92.57366,39.18,100218.0,1.1907556
137999095,92.9938,39.18,100213.0,1.1906962
138010126,92.91188,39.18,100213.99,1.190708
138021376,92.827324,39.18,100215.0,1.19072
138043047,92.742775,39.18,100216.0,1.1907319
138054162,93.32937,39.18,100209.0,1.1906487
138065982,93.07835,39.18,100212.0,1.1906843
138087060,92.65822,39.18,100217.0,1.1907437
138098131,92.23809,39.18,100222.0,1.1908032
138108360,92.91188,39.18,100213.99,1.190708
138130504,93.07835,39.18,100212.0,1.1906843
138141178,93.07835,39.18,100212.0,1.1906843
138152375,93.07835,39.18,100212.0,1.1906843
138174468,92.23809,39.18,100222.0,1.1908032
138184047,92.742775,39.18,100216.0,1.1907319
138194055,93.24746,39.18,100210.0,1.1906606
138215062,93.24746,39.18,100210.0,1.1906606
138226238,92.827324,39.18,100215.0,1.19072
138237345,92.91188,39.18,100213.99,1.190708
138258158,92.827324,39.18,100215.0,1.19072
138269212,93.07835,39.18,100212.0,1.1906843
138280402,92.91188,39.18,100213.99,1.190708
138302128,92.9938,39.18,100213.0,1.1906962
138314253,92.91188,39.18,100213.99,1.190708
138325042,92.9938,39.18,100213.0,1.1906962
138347047,93.07835,39.18,100212.0,1.1906843
138357407,92.57366,39.18,100218.0,1.1907556
139290643,93.75214,39.19,100204.0,1.1905893
139301626,93.83405,39.19,100203.0,1.1905774
139312047,94.00316,39.19,100200.99,1.1905535
139333187,93.66759,39.19,100205.0,1.1906011
139344051,94.087715,39.19,100200.0,1.1905417
139355042,93.9186,39.19,100201.99,1.1905655
139378124,93.83405,39.19,100203.0,1.1905774
139389305,93.75214,39.19,100204.0,1.1905893
139400048,93.83405,39.19,100203.0,1.1905774
139421590,93.75214,39.19,100204.0,1.1905893
139431099,93.9186,39.19,100201.99,1.1905655
139442167,94.087715,39.19,100200.0,1.1905417
139463415,94.087715,39.19,100200.0,1.1905417
139473760,94.33874,39.19,100197.0,1.1905061
139483332,94.42329,39.19,100196.0,1.1904942
139504047,93.75214,39.19,100204.0,1.1905893
139515047,93.9186,39.19,100201.99,1.1905655
139526119,93.66759,39.19,100205.0,1.1906011
139547079,93.83405,39.19,100203.0,1.1905774
139557370,94.25418,39.19,100198.0,1.190518
139568046,94.00316,39.19,100200.99,1.1905535
139589377,93.66759,39.19,100205.0,1.1906011
139600416,94.33874,39.19,100197.0,1.1905061
139611042,94.33874,39.19,100197.0,1.1905061
139632048,93.75214,39.19,100204.0,1.1905893
139643353,93.83405,39.19,100203.0,1.1905774
139654126,94.169624,39.19,100199.0,1.1905298
139677393,93.9186,39.19,100201.99,1.1905655
139688048,94.42329,39.19,100196.0,1.1904942
139698219,94.087715,39.19,100200.0,1.1905417
139720078,94.169624,39.19,100199.0,1.1905298
139731048,94.42329,39.19,100196.0,1.1904942
139741194,94.25418,39.19,100198.0,1.190518
139763236,94.33874,39.19,100197.0,1.1905061
139774148,94.087715,39.19,100200.0,1.1905417
139786238,94.087715,39.19,100200.0,1.1905417
139807051,94.25418,39.19,100198.0,1.190518
139818048,94.67431,39.19,100193.0,1.1904585
139828417,94.843414,39.19,100191.0,1.1904348
139850130,94.42329,39.19,100196.0,1.1904942
139860627,94.67431,39.19,100193.0,1.1904585
139871348,95.09444,39.19,100188.0,1.1903992
139894005,94.758865,39.19,100192.0,1.1904467
139905359,94.67431,39.19,100193.0,1.1904585
139916048,95.01253,39.19,100188.99,1.190411
139938188,94.25418,39.19,100198.0,1.190518
139950286,94.25418,39.19,100198.0,1.190518
139961197,95.01253,39.19,100188.99,1.190411
139984608,94.758865,39.19,100192.0,1.1904467
139994123,94.67431,39.19,100193.0,1.1904585
140005053,94.843414,39.19,100191.0,1.1904348
140028576,94.58975,39.19,100194.0,1.1904705
140039051,94.67431,39.19,100193.0,1.1904585
140050131,95.17899,39.19,100187.0,1.1903872
140072510,95.01253,39.18,100188.99,1.190411
140083354,94.92797,39.18,100190.0,1.1904229
140094416,94.843414,39.18,100191.0,1.1904348
140117784,94.58975,39.19,100194.0,1.1904705
140128604,94.758865,39.19,100192.0,1.1904467
140138118,94.92797,39.19,100190.0,1.1904229
140159078,95.17899,39.19,100187.0,1.1903872
140170164,95.430016,39.19,100184.0,1.1903516
140181045,95.17899,39.19,100187.0,1.1903872
140204248,95.09444,39.19,100188.0,1.1903992
140215050,95.01253,39.19,100188.99,1.190411
140226133,94.67431,39.19,100193.0,1.1904585
140249110,94.67431,39.19,100193.0,1.1904585
140261179,95.01253,39.19,100188.99,1.190411
140272530,94.758865,39.19,100192.0,1.1904467
140295376,95.01253,39.19,100188.99,1.190411
140306129,95.01253,39.19,100188.99,1.190411
140317377,94.58975,39.19,100194.0,1.1904705
140338478,95.430016,39.19,100184.0,1.1903516
140349051,95.17899,39.19,100187.0,1.1903872
140360747,95.59912,39.19,100182.0,1.1903279
140382495,95.430016,39.19,100184.0,1.1903516
140392388,95.59912,39.19,100182.0,1.1903279
140403350,95.68368,39.19,100181.0,1.190316
140424596,95.26355,39.19,100186.0,1.1903754
140435093,95.68368,39.19,100181.0,1.190316
140446128,95.76823,39.19,100180.0,1.1903042
140468993,95.26355,39.19,100186.0,1.1903754
140479590,95.09444,39.19,100188.0,1.1903992
140489042,95.3481,39.19,100185.0,1.1903635
140510232,95.09444,39.19,100188.0,1.1903992
140521059,95.17899,39.19,100187.0,1.1903872
140531042,95.430016,39.19,100184.0,1.1903516
140553064,95.85014,39.19,100179.0,1.1902922
140565498,95.430016,39.19,100184.0,1.1903516
140576579,95.26355,39.19,100186.0,1.1903754
140597042,95.3481,39.19,100185.0,1.1903635
140608398,95.68368,39.19,100181.0,1.190316
140620122,95.514565,39.19,100182.99,1.1903397
140642136,95.430016,39.19,100184.0,1.1903516
140653316,95.76823,39.19,100180.0,1.1903042
140664526,95.514565,39.19,100182.99,1.1903397
140685330,95.430016,39.19,100184.0,1.1903516
140696407,95.76823,39.19,100180.0,1.1903042
140707046,95.76823,39.19,100180.0,1.1903042
140729219,95.26355,39.19,100186.0,1.1903754
140739070,95.68368,39.19,100181.0,1.190316
140750166,95.93469,39.19,100178.0,1.1902803
140771449,95.430016,39.2,100184.0,1.1903516
140782245,95.59912,39.2,100182.0,1.1903279
140793378,95.93469,39.2,100178.0,1.1902803
140813054,95.93469,39.2,100178.0,1.1902803
140823063,95.68368,39.2,100181.0,1.190316
140834067,95.76823,39.2,100180.0,1.1903042
140856509,95.85014,39.19,100179.0,1.1902922
140867048,95.85014,39.19,100179.0,1.1902922
140877045,95.76823,39.19,100180.0,1.1903042
140898123,95.68368,39.2,100181.0,1.190316
140909648,95.85014,39.2,100179.0,1.1902922
140920573,96.103806,39.2,100175.99,1.1902565
140942152,96.103806,39.2,100175.99,1.1902565
140953059,96.01925,39.2,100176.99,1.1902684
140964881,95.76823,39.2,100180.0,1.1903042
140986126,96.188354,39.19,100175.0,1.1902447
140997096,96.27027,39.19,100174.0,1.1902329
141008421,95.93469,39.19,100178.0,1.1902803
141029527,96.103806,39.2,100175.99,1.1902565
141040498,96.188354,39.2,100175.0,1.1902447
141051077,96.35483,39.2,100173.0,1.190221
141072539,95.93469,39.2,100178.0,1.1902803
141083630,96.01925,39.2,100176.99,1.1902684
141093068,96.103806,39.2,100175.99,1.1902565
141114145,95.76823,39.2,100180.0,1.1903042
141125199,96.52393,39.2,100171.0,1.1901972
141136606,96.103806,39.2,100175.99,1.1902565
141157577,96.60849,39.2,100169.99,1.1901852
141168395,96.188354,39.2,100175.0,1.1902447
141179043,96.6904,39.2,100169.0,1.1901734
141201051,96.35483,39.2,100173.0,1.190221
141211053,96.60849,39.2,100169.99,1.1901852
141222134,96.35483,39.2,100173.0,1.190221
141243365,96.43938,39.2,100172.0,1.190209
141253459,96.6904,39.2,100169.0,1.1901734
141264526,96.188354,39.2,100175.0,1.1902447
141286141,96.43938,39.2,100172.0,1.190209
141297058,96.188354,39.2,100175.0,1.1902447
141307043,96.43938,39.2,100172.0,1.190209
141328504,96.43938,39.2,100172.0,1.190209
141339353,96.859505,39.2,100167.0,1.1901497
141349398,96.6904,39.2,100169.0,1.1901734
141371105,96.52393,39.2,100171.0,1.1901972
141381394,96.27027,39.2,100174.0,1.1902329
141392619,97.02597,39.2,100165.0,1.190126
141413161,96.859505,39.2,100167.0,1.1901497
141424554,97.02597,39.2,100165.0,1.190126
141435042,96.859505,39.2,100167.0,1.1901497
141456531,96.52393,39.21,100171.0,1.1901972
141467070,96.859505,39.21,100167.0,1.1901497
141478129,96.859505,39.21,100167.0,1.1901497
141499388,96.188354,39.2,100175.0,1.1902447
141510124,96.35483,39.2,100173.0,1.190221
141521452,96.774956,39.2,100168.0,1.1901616
141544790,96.188354,39.2,100175.0,1.1902447
141555083,96.6904,39.2,100169.0,1.1901734
141566348,96.60849,39.2,100169.99,1.1901852
141587353,96.859505,39.2,100167.0,1.1901497
141597847,96.27027,39.2,100174.0,1.1902329
141608265,96.43938,39.2,100172.0,1.190209
141630134,96.6904,39.21,100169.0,1.1901734
141640853,96.774956,39.21,100168.0,1.1901616
141651043,96.52393,39.21,100171.0,1.1901972
141672512,96.52393,39.21,100171.0,1.1901972
141683047,97.19508,39.21,100163.0,1.1901021
141693793,96.94406,39.21,100166.0,1.1901377
141715053,96.774956,39.2,100168.0,1.1901616
141726443,96.859505,39.2,100167.0,1.1901497
141737163,96.94406,39.2,100166.0,1.1901377
141760408,97.11317,39.2,100163.99,1.1901139
141771389,97.27963,39.2,100162.0,1.1900903
141781458,97.19508,39.2,100163.0,1.1901021
141803048,97.27963,39.21,100162.0,1.1900903
141814133,97.36419,39.21,100161.0,1.1900784
141825176,97.36419,39.21,100161.0,1.1900784
141846169,97.19508,39.21,100163.0,1.1901021
141856640,97.530655,39.21,100159.0,1.1900547
141867552,97.69977,39.21,100157.0,1.1900308
141888507,97.27963,39.2,100162.0,1.1900903
141898124,97.11317,39.2,100163.99,1.1901139
141909794,97.61521,39.2,100157.99,1.1900426
141931047,96.774956,39.21,100168.0,1.1901616
141941147,96.774956,39.21,100168.0,1.1901616
141952536,97.19508,39.21,100163.0,1.1901021
141974141,97.11317,39.21,100163.99,1.1901139
141985050,96.94406,39.21,100166.0,1.1901377
141995050,96.859505,39.21,100167.0,1.1901497
142016415,97.36419,39.21,100161.0,1.1900784
142026151,97.27963,39.21,100162.0,1.1900903
142037047,97.69977,39.21,100157.0,1.1900308
142059070,97.78432,39.21,100156.0,1.190019
142069678,97.11317,39.21,100163.99,1.1901139
142080518,97.448746,39.21,100160.0,1.1900665
142102175,96.774956,39.21,100168.0,1.1901616
142112408,97.19508,39.21,100163.0,1.1901021
142122154,97.19508,39.21,100163.0,1.1901021
142144826,96.94406,39.21,100166.0,1.1901377
142155051,97.27963,39.21,100162.0,1.1900903
142165705,96.35483,39.21,100173.0,1.190221
142187047,96.35483,39.21,100173.0,1.190221
142198124,96.52393,39.21,100171.0,1.1901972
142209042,96.35483,39.21,100173.0,1.190221
142230147,97.19508,39.2,100163.0,1.1901021
142241211,97.27963,39.2,100162.0,1.1900903
142253440,96.94406,39.2,100166.0,1.1901377
142275055,96.94406,39.21,100166.0,1.1901377
142285415,97.19508,39.21,100163.0,1.1901021
142296837,96.94406,39.21,100166.0,1.1901377
142317055,97.19508,39.21,100163.0,1.1901021
142327047,97.19508,39.21,100163.0,1.1901021
142338124,97.02597,39.21,100165.0,1.190126
142360612,97.11317,39.21,100163.99,1.1901139
142371052,97.02597,39.21,100165.0,1.190126
142382132,96.94406,39.21,100166.0,1.1901377
142403048,97.19508,39.21,100163.0,1.1901021
142414123,96.6904,39.21,100169.0,1.1901734
142425145,96.6904,39.21,100169.0,1.1901734
142448716,97.19508,39.21,100163.0,1.1901021
142459048,97.27963,39.21,100162.0,1.1900903
142470118,96.52393,39.21,100171.0,1.1901972
142491060,96.94406,39.21,100166.0,1.1901377
142502530,97.27963,39.21,100162.0,1.1900903
142513055,96.27027,39.21,100174.0,1.1902329
142533052,97.27963,39.21,100162.0,1.1900903
142544736,97.11317,39.21,100163.99,1.1901139
142555070,97.11317,39.21,100163.99,1.1901139
142576421,96.774956,39.21,100168.0,1.1901616
142587048,96.774956,39.21,100168.0,1.1901616
142598376,97.19508,39.21,100163.0,1.1901021
142620958,96.6904,39.21,100169.0,1.1901734
142630479,96.859505,39.21,100167.0,1.1901497
142641042,96.859505,39.21,100167.0,1.1901497
142662242,97.27963,39.21,100162.0,1.1900903
142672531,97.11317,39.21,100163.99,1.1901139
142683361,97.11317,39.21,100163.99,1.1901139
142705030,96.774956,39.219997,100168.0,1.1901616
142715064,97.02597,39.219997,100165.0,1.190126
142726024,97.27963,39.219997,100162.0,1.1900903
142747023,96.6904,39.219997,100169.0,1.1901734
142758639,97.02597,39.219997,100165.0,1.190126
142768573,97.27963,39.219997,100162.0,1.1900903
142790134,97.02597,39.21,100165.0,1.190126
142800553,96.94406,39.21,100166.0,1.1901377
142811043,96.859505,39.21,100167.0,1.1901497
142831335,96.52393,39.219997,100171.0,1.1901972
142842170,96.43938,39.219997,100172.0,1.190209
142854373,96.774956,39.219997,100168.0,1.1901616
142878414,96.774956,39.219997,100168.0,1.1901616
142888401,97.27963,39.219997,100162.0,1.1900903
142899087,96.859505,39.219997,100167.0,1.1901497
142920520,96.6904,39.219997,100169.0,1.1901734
142930130,96.859505,39.219997,100167.0,1.1901497
142941421,96.774956,39.219997,100168.0,1.1901616
142962163,97.19508,39.219997,100163.0,1.1901021
142974645,96.859505,39.219997,100167.0,1.1901497
142985042,96.6904,39.219997,100169.0,1.1901734
143005244,96.52393,39.219997,100171.0,1.1901972
143016509,97.11317,39.219997,100163.99,1.1901139
143027047,96.52393,39.219997,100171.0,1.1901972
143048576,96.60849,39.219997,100169.99,1.1901852
143059047,96.94406,39.219997,100166.0,1.1901377
143070129,97.27963,39.219997,100162.0,1.1900903
143092957,96.43938,39.219997,100172.0,1.190209
143103001,96.859505,39.219997,100167.0,1.1901497
143113093,96.859505,39.219997,100167.0,1.1901497
143133395,96.859505,39.219997,100167.0,1.1901497
143144582,96.94406,39.219997,100166.0,1.1901377
143155348,96.774956,39.219997,100168.0,1.1901616
143176544,96.859505,39.219997,100167.0,1.1901497
143187107,96.859505,39.219997,100167.0,1.1901497
143198389,96.52393,39.219997,100171.0,1.1901972
143219062,96.35483,39.219997,100173.0,1.190221
143230057,97.11317,39.219997,100163.99,1.1901139
143240421,96.859505,39.219997,100167.0,1.1901497
143261047,96.859505,39.219997,100167.0,1.1901497
143272526,97.02597,39.219997,100165.0,1.190126
143283050,96.94406,39.219997,100166.0,1.1901377
143305174,96.27027,39.219997,100174.0,1.1902329
143315107,96.60849,39.219997,100169.99,1.1901852
143326652,96.43938,39.219997,100172.0,1.190209
143347400,96.52393,39.219997,100171.0,1.1901972
143358394,96.94406,39.219997,100166.0,1.1901377
143369050,97.02597,39.219997,100165.0,1.190126
143390123,96.60849,39.219997,100169.99,1.1901852
143400404,96.94406,39.219997,100166.0,1.1901377
143411042,96.35483,39.219997,100173.0,1.190221
143432400,96.6904,39.219997,100169.0,1.1901734
143443141,96.188354,39.219997,100175.0,1.1902447
143454532,96.859505,39.219997,100167.0,1.1901497
143475047,96.94406,39.219997,100166.0,1.1901377
143486053,96.859505,39.219997,100167.0,1.1901497
143497043,96.6904,39.219997,100169.0,1.1901734
143519052,96.6904,39.219997,100169.0,1.1901734
143530159,95.93469,39.219997,100178.0,1.1902803
143541311,96.52393,39.219997,100171.0,1.1901972
143562125,96.188354,39.219997,100175.0,1.1902447
143573060,96.27027,39.219997,100174.0,1.1902329
143584520,96.188354,39.219997,100175.0,1.1902447
143606510,96.27027,39.219997,100174.0,1.1902329
143616519,96.43938,39.219997,100172.0,1.190209
143627048,96.60849,39.219997,100169.99,1.1901852
143649048,96.188354,39.219997,100175.0,1.1902447
143659047,96.60849,39.219997,100169.99,1.1901852
143670123,96.94406,39.219997,100166.0,1.1901377
143691047,96.6904,39.219997,100169.0,1.1901734
143702501,96.774956,39.219997,100168.0,1.1901616
143713182,96.188354,39.219997,100175.0,1.1902447
143736520,96.35483,39.219997,100173.0,1.190221
143747048,96.188354,39.219997,100175.0,1.1902447
143758135,96.52393,39.219997,100171.0,1.1901972
143780864,96.43938,39.219997,100172.0,1.190209
143791068,96.188354,39.219997,100175.0,1.1902447
143801045,96.43938,39.219997,100172.0,1.190209
143824514,96.103806,39.219997,100175.99,1.1902565
143835119,95.93469,39.219997,100178.0,1.1902803
143846156,96.27027,39.219997,100174.0,1.1902329
143867098,96.188354,39.219997,100175.0,1.1902447
143878140,96.859505,39.219997,100167.0,1.1901497
143888420,96.774956,39.219997,100168.0,1.1901616
143910587,96.188354,39.219997,100175.0,1.1902447
143921047,96.27027,39.219997,100174.0,1.1902329
143933372,96.60849,39.219997,100169.99,1.1901852
143955385,96.60849,39.219997,100169.99,1.1901852
143966211,95.85014,39.219997,100179.0,1.1902922
143977447,96.52393,39.219997,100171.0,1.1901972
143998469,96.188354,39.219997,100175.0,1.1902447
144008414,96.35483,39.219997,100173.0,1.190221
144019047,96.188354,39.219997,100175.0,1.1902447
144040677,96.52393,39.219997,100171.0,1.1901972
144051047,96.43938,39.219997,100172.0,1.190209
144062119,96.35483,39.219997,100173.0,1.190221
144084971,96.43938,39.23,100172.0,1.190209
144095949,96.52393,39.23,100171.0,1.1901972
144106283,96.27027,39.23,100174.0,1.1902329
144128420,96.6904,39.219997,100169.0,1.1901734
144139095,96.35483,39.219997,100173.0,1.190221
144150395,96.52393,39.219997,100171.0,1.1901972
144171104,96.43938,39.219997,100172.0,1.190209
144182164,96.35483,39.219997,100173.0,1.190221
144193047,96.774956,39.219997,100168.0,1.1901616
144215061,95.76823,39.23,100180.0,1.1903042
144225047,95.93469,39.23,100178.0,1.1902803
144237366,96.35483,39.23,100173.0,1.190221
144257049,96.27027,39.219997,100174.0,1.1902329
144267048,96.60849,39.219997,100169.99,1.1901852
144278118,96.103806,39.219997,100175.99,1.1902565
144298126,96.43938,39.23,100172.0,1.190209
144309411,96.35483,39.23,100173.0,1.190221
144319343,96.43938,39.23,100172.0,1.190209
144342381,95.76823,39.23,100180.0,1.1903042
144353064,96.188354,39.23,100175.0,1.1902447
144366546,96.6904,39.23,100169.0,1.1901734
144387051,96.43938,39.219997,100172.0,1.190209
144397164,96.27027,39.219997,100174.0,1.1902329
144408378,96.27027,39.219997,100174.0,1.1902329
144428189,96.188354,39.219997,100175.0,1.1902447
144438494,96.43938,39.219997,100172.0,1.190209
144449163,96.27027,39.219997,100174.0,1.1902329
144473062,95.85014,39.23,100179.0,1.1902922
144486529,95.93469,39.23,100178.0,1.1902803
144496539,96.6904,39.23,100169.0,1.1901734
144518161,95.85014,39.219997,100179.0,1.1902922
144528356,96.60849,39.219997,100169.99,1.1901852
144539042,96.01925,39.219997,100176.99,1.1902684
144560520,96.35483,39.23,100173.0,1.190221
144571390,96.774956,39.23,100168.0,1.1901616
144582238,96.60849,39.23,100169.99,1.1901852
144604891,96.27027,39.219997,100174.0,1.1902329
144614456,96.52393,39.219997,100171.0,1.1901972
144624565,96.6904,39.219997,100169.0,1.1901734
144646099,96.774956,39.219997,100168.0,1.1901616
144657048,96.774956,39.219997,100168.0,1.1901616
144668359,96.52393,39.219997,100171.0,1.1901972
144690129,95.93469,39.23,100178.0,1.1902803
144700256,96.103806,39.23,100175.99,1.1902565
144711044,95.76823,39.23,100180.0,1.1903042
144732452,95.59912,39.23,100182.0,1.1903279
144743051,96.103806,39.23,100175.99,1.1902565
144754449,96.52393,39.23,100171.0,1.1901972
144776784,96.35483,39.23,100173.0,1.190221
144787052,96.43938,39.23,100172.0,1.190209
144798903,95.93469,39.23,100178.0,1.1902803
144820377,96.27027,39.23,100174.0,1.1902329
144831761,96.01925,39.23,100176.99,1.1902684
144842362,96.43938,39.23,100172.0,1.190209
144863612,96.27027,39.23,100174.0,1.1902329
144874142,95.93469,39.23,100178.0,1.1902803
144885505,96.01925,39.23,100176.99,1.1902684
144906102,95.93469,39.23,100178.0,1.1902803
144917047,96.27027,39.23,100174.0,1.1902329
144927923,96.52393,39.23,100171.0,1.1901972
144948564,96.43938,39.23,100172.0,1.190209
144959588,96.43938,39.23,100172.0,1.190209
144970098,96.188354,39.23,100175.0,1.1902447
144992054,95.93469,39.23,100178.0,1.1902803
145002113,96.103806,39.23,100175.99,1.1902565
145013062,95.93469,39.23,100178.0,1.1902803
145034353,96.43938,39.23,100172.0,1.190209
145044539,96.43938,39.23,100172.0,1.190209
145055951,96.103806,39.23,100175.99,1.1902565
145076074,96.52393,39.23,100171.0,1.1901972
145086111,96.27027,39.23,100174.0,1.1902329
145097051,96.01925,39.23,100176.99,1.1902684
145120051,96.01925,39.23,100176.99,1.1902684
145133550,96.103806,39.23,100175.99,1.1902565
145143569,96.60849,39.23,100169.99,1.1901852
145164265,96.43938,39.23,100172.0,1.190209
145175743,95.93469,39.23,100178.0,1.1902803
145186146,96.52393,39.23,100171.0,1.1901972
145206380,95.93469,39.23,100178.0,1.1902803
145217150,96.188354,39.23,100175.0,1.1902447
145229774,96.27027,39.23,100174.0,1.1902329
145250120,96.01925,39.23,100176.99,1.1902684
145260223,95.85014,39.23,100179.0,1.1902922
145271741,95.76823,39.23,100180.0,1.1903042
145292399,96.01925,39.23,100176.99,1.1902684
145303755,95.93469,39.23,100178.0,1.1902803
145314115,96.52393,39.23,100171.0,1.1901972
145335617,96.35483,39.23,100173.0,1.190221
145346099,95.93469,39.23,100178.0,1.1902803
145357772,96.188354,39.23,100175.0,1.1902447
145378141,96.01925,39.23,100176.99,1.1902684
145389168,95.68368,39.23,100181.0,1.190316
145399708,95.430016,39.23,100184.0,1.1903516
145420499,95.09444,39.239998,100188.0,1.1903992
145430195,95.68368,39.239998,100181.0,1.190316
145441175,95.85014,39.239998,100179.0,1.1902922
145463799,95.59912,39.239998,100182.0,1.1903279
145474108,95.76823,39.239998,100180.0,1.1903042
145484261,95.514565,39.239998,100182.99,1.1903397
145506052,95.3481,39.239998,100185.0,1.1903635
145517047,95.76823,39.239998,100180.0,1.1903042
145528047,95.76823,39.239998,100180.0,1.1903042
145550754,95.514565,39.239998,100182.99,1.1903397
145561154,95.93469,39.239998,100178.0,1.1902803
145573962,95.68368,39.239998,100181.0,1.190316
145594436,95.3481,39.239998,100185.0,1.1903635
145605584,95.514565,39.239998,100182.99,1.1903397
145615581,95.93469,39.239998,100178.0,1.1902803
145636248,95.430016,39.23,100184.0,1.1903516
145647889,95.85014,39.23,100179.0,1.1902922
145658094,95.59912,39.23,100182.0,1.1903279
145680102,95.76823,39.239998,100180.0,1.1903042
145690102,95.514565,39.239998,100182.99,1.1903397
145701633,95.76823,39.239998,100180.0,1.1903042
145722157,95.59912,39.239998,100182.0,1.1903279
145732401,95.26355,39.239998,100186.0,1.1903754
145743740,95.26355,39.239998,100186.0,1.1903754
145764582,95.514565,39.239998,100182.99,1.1903397
145774814,95.430016,39.239998,100184.0,1.1903516
145786018,95.430016,39.239998,100184.0,1.1903516
145807742,95.3481,39.239998,100185.0,1.1903635
145818106,95.3481,39.239998,100185.0,1.1903635
145829032,95.26355,39.239998,100186.0,1.1903754
145850018,95.430016,39.23,100184.0,1.1903516
145860548,95.59912,39.23,100182.0,1.1903279
145871566,95.3481,39.23,100185.0,1.1903635
145893975,95.59912,39.239998,100182.0,1.1903279
145904018,95.68368,39.239998,100181.0,1.190316
145914021,95.430016,39.239998,100184.0,1.1903516
145936032,95.76823,39.239998,100180.0,1.1903042
145946076,95.93469,39.239998,100178.0,1.1902803
145957018,95.26355,39.239998,100186.0,1.1903754
145978324,95.17899,39.239998,100187.0,1.1903872
145988696,95.3481,39.239998,100185.0,1.1903635
145999555,95.68368,39.239998,100181.0,1.190316
146021512,95.26355,39.239998,100186.0,1.1903754
146032117,95.17899,39.239998,100187.0,1.1903872
146042019,95.430016,39.239998,100184.0,1.1903516
146063623,95.3481,39.239998,100185.0,1.1903635
146074472,95.430016,39.239998,100184.0,1.1903516
146084036,95.3481,39.239998,100185.0,1.1903635
146105026,95.01253,39.239998,100188.99,1.190411
146117715,95.514565,39.239998,100182.99,1.1903397
146128164,95.09444,39.239998,100188.0,1.1903992
146149760,95.59912,39.239998,100182.0,1.1903279
146159538,95.3481,39.239998,100185.0,1.1903635
146170105,95.26355,39.239998,100186.0,1.1903754
146192022,95.430016,39.239998,100184.0,1.1903516
146204174,95.09444,39.239998,100188.0,1.1903992
146215580,94.758865,39.239998,100192.0,1.1904467
146236384,94.843414,39.239998,100191.0,1.1904348
146246583,95.26355,39.239998,100186.0,1.1903754
146256038,94.92797,39.239998,100190.0,1.1904229
146277023,94.758865,39.239998,100192.0,1.1904467
146288063,95.01253,39.239998,100188.99,1.190411
146298018,95.26355,39.239998,100186.0,1.1903754
146319602,95.514565,39.25,100182.99,1.1903397
146330324,95.17899,39.25,100187.0,1.1903872
146340770,94.843414,39.25,100191.0,1.1904348
146362022,95.09444,39.25,100188.0,1.1903992
146373018,94.843414,39.25,100191.0,1.1904348
146384064,95.59912,39.25,100182.0,1.1903279
146407708,95.09444,39.25,100188.0,1.1903992
146418019,94.92797,39.25,100190.0,1.1904229
146429018,95.01253,39.25,100188.99,1.190411
146450384,94.92797,39.239998,100190.0,1.1904229
146460212,95.01253,39.239998,100188.99,1.190411
146471613,95.514565,39.239998,100182.99,1.1903397
146493505,94.758865,39.239998,100192.0,1.1904467
146504020,94.843414,39.239998,100191.0,1.1904348
146516605,94.843414,39.239998,100191.0,1.1904348
146538081,94.92797,39.25,100190.0,1.1904229
146549051,95.17899,39.25,100187.0,1.1903872
146559595,95.09444,39.25,100188.0,1.1903992
146581018,94.92797,39.25,100190.0,1.1904229
146592077,95.09444,39.25,100188.0,1.1903992
146604126,95.09444,39.25,100188.0,1.1903992
146626018,95.17899,39.239998,100187.0,1.1903872
146637182,94.67431,39.239998,100193.0,1.1904585
146648018,95.17899,39.239998,100187.0,1.1903872
146672020,94.758865,39.25,100192.0,1.1904467
146682019,94.92797,39.25,100190.0,1.1904229
146692234,95.26355,39.25,100186.0,1.1903754
146714019,95.17899,39.25,100187.0,1.1903872
146724028,95.01253,39.25,100188.99,1.190411
146735566,94.92797,39.25,100190.0,1.1904229
146757018,94.758865,39.239998,100192.0,1.1904467
146767765,95.26355,39.239998,100186.0,1.1903754
146778324,95.01253,39.239998,100188.99,1.190411
146799555,94.758865,39.239998,100192.0,1.1904467
146810023,94.843414,39.239998,100191.0,1.1904348
146821064,95.09444,39.239998,100188.0,1.1903992
146842127,94.58975,39.25,100194.0,1.1904705
146852697,95.09444,39.25,100188.0,1.1903992
146863598,95.09444,39.25,100188.0,1.1903992
146885359,94.67431,39.25,100193.0,1.1904585
146895767,95.09444,39.25,100188.0,1.1903992
146906131,94.843414,39.25,100191.0,1.1904348
146927807,95.430016,39.25,100184.0,1.1903516
146938018,95.3481,39.25,100185.0,1.1903635
146948540,94.50784,39.25,100194.99,1.1904823
146970324,95.09444,39.25,100188.0,1.1903992
146980557,94.92797,39.25,100190.0,1.1904229
146991620,94.50784,39.25,100194.99,1.1904823
147013030,94.67431,39.25,100193.0,1.1904585
147024030,94.758865,39.25,100192.0,1.1904467
147034018,94.67431,39.25,100193.0,1.1904585
147055589,94.25418,39.26,100198.0,1.190518
147066328,94.843414,39.26,100191.0,1.1904348
147076119,94.50784,39.26,100194.99,1.1904823
147098101,95.01253,39.25,100188.99,1.190411
147109328,95.01253,39.25,100188.99,1.190411
147120053,95.17899,39.25,100187.0,1.1903872
147141171,95.26355,39.25,100186.0,1.1903754
147151715,94.92797,39.25,100190.0,1.1904229
147161346,94.843414,39.25,100191.0,1.1904348
147183891,94.58975,39.26,100194.0,1.1904705
147193202,94.58975,39.26,100194.0,1.1904705
147204394,95.09444,39.26,100188.0,1.1903992
147226138,95.514565,39.26,100182.99,1.1903397
147236319,94.67431,39.26,100193.0,1.1904585
147247731,95.01253,39.26,100188.99,1.190411
147269018,94.50784,39.26,100194.99,1.1904823
147280064,94.58975,39.26,100194.0,1.1904705
147290018,94.758865,39.26,100192.0,1.1904467
147311700,94.50784,39.26,100194.99,1.1904823
147322442,94.843414,39.26,100191.0,1.1904348
147332774,95.17899,39.26,100187.0,1.1903872
147354019,94.843414,39.26,100191.0,1.1904348
147364220,94.58975,39.26,100194.0,1.1904705
147375609,95.01253,39.26,100188.99,1.190411
147396145,94.758865,39.26,100192.0,1.1904467
147406116,94.758865,39.26,100192.0,1.1904467
147417392,95.09444,39.26,100188.0,1.1903992
147439938,95.17899,39.26,100187.0,1.1903872
147449184,95.09444,39.26,100188.0,1.1903992
147460367,95.01253,39.26,100188.99,1.190411
147482019,95.01253,39.26,100188.99,1.190411
147492935,95.76823,39.26,100180.0,1.1903042
147503720,95.514565,39.26,100182.99,1.1903397
147525035,94.92797,39.26,100190.0,1.1904229
147536018,95.3481,39.26,100185.0,1.1903635
147546086,95.09444,39.26,100188.0,1.1903992
147567784,95.430016,39.26,100184.0,1.1903516
147578332,95.430016,39.26,100184.0,1.1903516
147588189,95.17899,39.26,100187.0,1.1903872
147610018,95.01253,39.26,100188.99,1.190411
147620375,95.514565,39.26,100182.99,1.1903397
147631631,95.3481,39.26,100185.0,1.1903635
147653034,95.09444,39.26,100188.0,1.1903992
147663600,95.514565,39.26,100182.99,1.1903397
147674383,95.68368,39.26,100181.0,1.190316
147695589,95.514565,39.26,100182.99,1.1903397
147705018,95.93469,39.26,100178.0,1.1902803
147716089,95.430016,39.26,100184.0,1.1903516
147738158,95.26355,39.26,100186.0,1.1903754
147748541,95.514565,39.26,100182.99,1.1903397
147759743,95.85014,39.26,100179.0,1.1902922
147780656,95.59912,39.26,100182.0,1.1903279
147791761,95.85014,39.26,100179.0,1.1902922
147801064,95.68368,39.26,100181.0,1.190316
147822119,95.85014,39.26,100179.0,1.1902922
147833400,95.68368,39.26,100181.0,1.190316
147844392,96.01925,39.26,100176.99,1.1902684
147866104,95.93469,39.26,100178.0,1.1902803
147876355,95.514565,39.26,100182.99,1.1903397
147886131,95.93469,39.26,100178.0,1.1902803
147908089,95.76823,39.27,100180.0,1.1903042
147919577,95.93469,39.27,100178.0,1.1902803
147930018,95.59912,39.27,100182.0,1.1903279
147952018,95.514565,39.26,100182.99,1.1903397
147962083,96.103806,39.26,100175.99,1.1902565
147973022,96.188354,39.26,100175.0,1.1902447
147994407,95.514565,39.27,100182.99,1.1903397
148004259,95.93469,39.27,100178.0,1.1902803
148015446,95.93469,39.27,100178.0,1.1902803
148036171,95.93469,39.26,100178.0,1.1902803
148047761,95.514565,39.26,100182.99,1.1903397
148058083,95.76823,39.26,100180.0,1.1903042
148079586,96.43938,39.27,100172.0,1.190209
148090572,96.27027,39.27,100174.0,1.1902329
148100056,96.27027,39.27,100174.0,1.1902329
148122083,95.85014,39.26,100179.0,1.1902922
148133018,95.93469,39.26,100178.0,1.1902803
148144018,96.01925,39.26,100176.99,1.1902684
148164496,96.43938,39.27,100172.0,1.190209
148175788,96.27027,39.27,100174.0,1.1902329
148186416,96.01925,39.27,100176.99,1.1902684
148207593,95.85014,39.26,100179.0,1.1902922
148218127,96.103806,39.26,100175.99,1.1902565
148228138,95.85014,39.26,100179.0,1.1902922
148250108,96.35483,39.27,100173.0,1.190221
148260378,96.6904,39.27,100169.0,1.1901734
148271603,96.35483,39.27,100173.0,1.190221
148293348,96.52393,39.27,100171.0,1.1901972
148304022,96.52393,39.27,100171.0,1.1901972
148316385,96.43938,39.27,100172.0,1.190209
148338109,96.52393,39.26,100171.0,1.1901972
148349018,96.94406,39.26,100166.0,1.1901377
148359597,96.27027,39.26,100174.0,1.1902329
148380151,96.27027,39.27,100174.0,1.1902329
148391816,96.188354,39.27,100175.0,1.1902447
148402117,96.60849,39.27,100169.99,1.1901852
148422113,96.43938,39.26,100172.0,1.190209
148433027,96.52393,39.26,100171.0,1.1901972
148444095,96.94406,39.26,100166.0,1.1901377
148466121,96.774956,39.27,100168.0,1.1901616
148476360,97.02597,39.27,100165.0,1.190126
148487779,97.19508,39.27,100163.0,1.1901021
148508416,97.11317,39.26,100163.99,1.1901139
148519449,96.94406,39.26,100166.0,1.1901377
148530560,96.859505,39.26,100167.0,1.1901497
148551592,96.94406,39.26,100166.0,1.1901377
148562075,96.94406,39.26,100166.0,1.1901377
148573024,97.27963,39.26,100162.0,1.1900903
148594018,97.11317,39.27,100163.99,1.1901139
148605018,97.19508,39.27,100163.0,1.1901021
148615543,97.36419,39.27,100161.0,1.1900784
148636505,97.02597,39.27,100165.0,1.190126
148647611,96.859505,39.27,100167.0,1.1901497
148658018,96.774956,39.27,100168.0,1.1901616
148679618,96.6904,39.27,100169.0,1.1901734
148690019,96.94406,39.27,100166.0,1.1901377
148701018,97.02597,39.27,100165.0,1.190126
148722397,97.27963,39.27,100162.0,1.1900903
148732866,97.27963,39.27,100162.0,1.1900903
148743572,97.530655,39.27,100159.0,1.1900547
148764545,97.19508,39.27,100163.0,1.1901021
148775626,97.36419,39.27,100161.0,1.1900784
148786018,97.27963,39.27,100162.0,1.1900903
148807745,97.27963,39.27,100162.0,1.1900903
148818019,97.27963,39.27,100162.0,1.1900903
148829018,97.19508,39.27,100163.0,1.1901021
148850092,97.19508,39.27,100163.0,1.1901021
148860694,97.448746,39.27,100160.0,1.1900665
148871824,97.61521,39.27,100157.99,1.1900426
148892215,97.36419,39.27,100161.0,1.1900784
148903622,97.27963,39.27,100162.0,1.1900903
148914106,97.530655,39.27,100159.0,1.1900547
148935611,97.61521,39.27,100157.99,1.1900426
148946029,97.36419,39.27,100161.0,1.1900784
148957023,97.36419,39.27,100161.0,1.1900784
148978186,97.78432,39.27,100156.0,1.190019
148988023,97.86887,39.27,100155.0,1.1900071
149000512,97.78432,39.27,100156.0,1.190019
149023302,97.86887,39.27,100155.0,1.1900071
149034018,98.119896,39.27,100151.99,1.1899713
149045359,98.119896,39.27,100151.99,1.1899713
149067325,97.27963,39.27,100162.0,1.1900903
149077018,97.61521,39.27,100157.99,1.1900426
149088358,97.61521,39.27,100157.99,1.1900426
149109019,97.78432,39.27,100156.0,1.190019
149120018,97.448746,39.27,100160.0,1.1900665
149131253,97.27963,39.27,100162.0,1.1900903
149152703,97.27963,39.27,100162.0,1.1900903
149163576,98.03534,39.27,100153.0,1.1899834
149173155,97.78432,39.27,100156.0,1.190019
149194140,97.530655,39.28,100159.0,1.1900547
149205324,98.03534,39.28,100153.0,1.1899834
149216107,98.03534,39.28,100153.0,1.1899834
149240071,98.204445,39.28,100150.99,1.1899594
149250808,97.86887,39.28,100155.0,1.1900071
149261037,98.289,39.28,100150.0,1.1899477
149283599,98.03534,39.27,100153.0,1.1899834
149294780,98.45547,39.27,100148.0,1.1899239
149305018,98.70913,39.27,100144.99,1.1898881
149327739,98.289,39.27,100150.0,1.1899477
149338453,97.86887,39.27,100155.0,1.1900071
149349023,98.204445,39.27,100150.99,1.1899594
149369023,98.37091,39.27,100149.0,1.1899358
149380063,98.62458,39.27,100146.0,1.1899002
149391601,98.45547,39.27,100148.0,1.1899239
149413018,98.96015,39.27,100142.0,1.1898526
149424686,99.12926,39.27,100140.0,1.1898289
149434103,98.37091,39.27,100149.0,1.1899358
149456019,98.204445,39.27,100150.99,1.1899594
149467018,98.37091,39.27,100149.0,1.1899358
149478488,99.464836,39.27,100136.0,1.1897813
149499019,98.96015,39.27,100142.0,1.1898526
149510018,99.12926,39.27,100140.0,1.1898289
149521018,99.29572,39.27,100138.0,1.1898052
149543876,99.04471,39.27,100141.0,1.1898408
149554023,98.793686,39.27,100144.0,1.1898764
149565151,98.96015,39.27,100142.0,1.1898526
149587018,99.29572,39.27,100138.0,1.1898052
149599458,99.464836,39.27,100136.0,1.1897813
149610018,99.549385,39.27,100135.0,1.1897695
149632018,99.29572,39.27,100138.0,1.1898052
149643105,99.12926,39.27,100140.0,1.1898289
149654018,98.96015,39.27,100142.0,1.1898526
149676018,99.63394,39.28,100134.0,1.1897576
149688266,99.63394,39.28,100134.0,1.1897576
149698154,99.29572,39.28,100138.0,1.1898052
149720368,99.464836,39.27,100136.0,1.1897813
149731021,99.21381,39.27,100138.99,1.1898168
149743803,99.80041,39.27,100132.0,1.1897337
149764392,99.96952,39.27,100130.0,1.18971
149775287,99.96952,39.27,100130.0,1.18971
149787107,99.38028,39.27,100137.0,1.1897932
149808361,99.96952,39.27,100130.0,1.18971
149819022,100.30509,39.27,100125.99,1.1896625
149831453,99.80041,39.27,100132.0,1.1897337
149854945,100.64066,39.26,100122.0,1.189615
149864024,99.80041,39.26,100132.0,1.1897337
149874933,100.38965,39.26,100125.0,1.1896507
149896394,100.13599,39.27,100128.0,1.1896863
149907018,100.30509,39.27,100125.99,1.1896625
149919271,100.38965,39.27,100125.0,1.1896507
149941345,99.7185,39.27,100132.99,1.1897455
149952018,100.72522,39.27,100121.0,1.1896031
149963325,100.72522,39.27,100121.0,1.1896031
149984358,100.64066,39.27,100122.0,1.189615
149995023,100.38965,39.27,100125.0,1.1896507
150007766,100.64066,39.27,100122.0,1.189615
150029352,101.06344,39.27,100117.0,1.1895555
150040021,100.80978,39.27,100119.99,1.1895912
150051330,100.72522,39.27,100121.0,1.1896031
150073340,101.98561,39.27,100106.0,1.1894249
150084037,100.72522,39.27,100121.0,1.1896031
150097320,101.39901,39.27,100113.0,1.1895081
150119802,101.48093,39.27,100112.0,1.1894962
150130289,101.06344,39.27,100117.0,1.1895555
150141346,101.65003,39.27,100110.0,1.1894724
150163354,101.39901,39.27,100113.0,1.1895081
150174019,101.65003,39.27,100110.0,1.1894724
150185339,101.65003,39.27,100110.0,1.1894724
150208201,101.229904,39.28,100115.0,1.1895318
150218081,101.48093,39.28,100112.0,1.1894962
150229018,101.65003,39.28,100110.0,1.1894724
150251022,101.98561,39.27,100106.0,1.1894249
150263334,101.39901,39.27,100113.0,1.1895081
150274372,102.23927,39.27,100103.0,1.1893892
150296245,101.565475,39.27,100111.0,1.1894842
150307023,101.565475,39.27,100111.0,1.1894842
150318297,102.23927,39.27,100103.0,1.1893892
150340019,102.15472,39.27,100104.0,1.1894011
150351545,101.903694,39.27,100107.0,1.1894368
150362019,101.98561,39.27,100106.0,1.1894249
150384018,102.40838,39.27,100100.99,1.1893654
150395042,102.574844,39.27,100099.0,1.1893417
150405043,102.49029,39.27,100100.0,1.1893536
150427087,102.6594,39.27,100098.0,1.1893299
150437026,102.40838,39.27,100100.99,1.1893654
150448079,102.99497,39.27,100094.0,1.1892823
150470315,103.07953,39.27,100093.0,1.1892704
150481018,103.164085,39.27,100092.0,1.1892586
150492018,102.74395,39.27,100097.0,1.189318
150514018,102.49029,39.27,100100.0,1.1893536
150525512,103.248634,39.27,100091.0,1.1892467
150536018,103.75332,39.27,100085.0,1.1891754
150558030,103.49966,39.27,100088.0,1.189211
150569382,103.49966,39.27,100088.0,1.189211
150580024,103.164085,39.27,100092.0,1.1892586
150602363,103.919785,39.27,100082.99,1.1891515
150613393,103.919785,39.27,100082.99,1.1891515
150624024,103.919785,39.27,100082.99,1.1891515
150647882,103.919785,39.27,100082.99,1.1891515
150658018,104.258,39.27,100079.0,1.1891041
150669038,104.258,39.27,100079.0,1.1891041
150691120,103.66876,39.27,100086.0,1.1891873
150702019,103.83523,39.27,100084.0,1.1891634
150713018,103.919785,39.27,100082.99,1.1891515
150735961,104.33991,39.28,100078.0,1.1890922
150746019,103.919785,39.28,100082.99,1.1891515
150757018,104.509026,39.28,100075.99,1.1890683
150778018,104.76269,39.27,100073.0,1.1890328
150789339,104.33991,39.27,100078.0,1.1890922
150799935,104.42711,39.27,100076.99,1.1890802
150820021,104.42711,39.27,100076.99,1.1890802
150831433,104.8446,39.27,100072.0,1.1890209
150841023,105.182816,39.27,100068.0,1.1889734
150863340,104.8446,39.28,100072.0,1.1890209
150874383,105.09826,39.28,100069.0,1.1889852
150885018,104.76269,39.28,100073.0,1.1890328
150907021,105.34928,39.28,100066.0,1.1889496
150918292,105.51839,39.28,100063.99,1.1889257
150929018,105.60294,39.28,100063.0,1.188914
150949018,104.92915,39.28,100071.0,1.1890091
150960054,105.09826,39.28,100069.0,1.1889852
150971019,105.0137,39.28,100069.99,1.188997
150993018,106.19218,39.28,100056.0,1.1888309
151004043,106.10763,39.28,100057.0,1.1888427
151015240,105.51839,39.28,100063.99,1.1889257
151037019,105.77205,39.28,100061.0,1.1888902
151048018,105.6875,39.28,100062.0,1.1889021
151059068,106.27409,39.28,100055.0,1.1888189
151081018,106.527756,39.27,100051.99,1.1887832
151092018,106.10763,39.27,100057.0,1.1888427
151103787,106.527756,39.27,100051.99,1.1887832
151125036,107.03244,39.28,100046.0,1.188712
151136018,106.94788,39.28,100047.0,1.1887239
151147021,106.4432,39.28,100053.0,1.1887952
151169018,106.10763,39.28,100057.0,1.1888427
151180018,106.94788,39.28,100047.0,1.1887239
151191436,107.45257,39.28,100041.0,1.1886525
151212030,106.78142,39.28,100049.0,1.1887476
151223849,106.94788,39.28,100047.0,1.1887239
151234306,107.11699,39.28,100044.99,1.1887
151256019,107.36801,39.28,100042.0,1.1886644
151267018,107.53712,39.28,100040.0,1.1886407
151279396,107.45257,39.28,100041.0,1.1886525
151301020,107.11699,39.27,100044.99,1.1887
151311336,107.53712,39.27,100040.0,1.1886407
151322022,107.95725,39.27,100035.0,1.1885812
151344021,107.79079,39.28,100037.0,1.1886051
151355334,107.79079,39.28,100037.0,1.1886051
151366365,107.79079,39.28,100037.0,1.1886051
151388018,107.79079,39.28,100037.0,1.1886051
151399709,107.95725,39.28,100035.0,1.1885812
151410018,107.95725,39.28,100035.0,1.1885812
151432023,107.875336,39.28,100036.0,1.1885931
151443332,108.210915,39.28,100032.0,1.1885456
151453023,108.29546,39.28,100031.0,1.1885338
151475032,108.29546,39.28,100031.0,1.1885338
151488724,108.37738,39.28,100030.0,1.1885219
151499021,108.210915,39.28,100032.0,1.1885456
151522331,108.46193,39.28,100029.0,1.18851
151533586,109.38939,39.28,100018.0,1.1883793
151544031,108.71559,39.28,100025.99,1.1884743
151566019,109.220276,39.28,100019.99,1.188403
151577349,108.80015,39.28,100025.0,1.1884625
151588018,108.546486,39.28,100028.0,1.1884981
151610352,109.30483,39.28,100019.0,1.1883912
151621393,109.220276,39.28,100019.99,1.188403
151632032,109.30483,39.28,100019.0,1.1883912
151654018,108.96661,39.28,100023.0,1.1884387
151665346,109.220276,39.28,100019.99,1.188403
151676022,109.6404,39.28,100015.0,1.1883436
151697968,109.38939,39.28,100018.0,1.1883793
151707055,109.894066,39.28,100012.0,1.188308
151719563,109.97598,39.28,100011.0,1.1882961
151741023,109.894066,39.28,100012.0,1.188308
151752018,109.6404,39.28,100015.0,1.1883436
151763018,109.72496,39.28,100013.99,1.1883317
151785019,109.72496,39.28,100013.99,1.1883317
151795074,110.06054,39.28,100010.0,1.1882843
151806019,109.894066,39.28,100012.0,1.188308
151828018,110.229645,39.28,100007.99,1.1882604
151839458,110.229645,39.28,100007.99,1.1882604
151851003,110.229645,39.28,100007.99,1.1882604
151873019,109.894066,39.28,100012.0,1.188308
151883018,110.14509,39.28,100009.0,1.1882724
151894021,110.985344,39.28,99999.0,1.1881535
151915021,110.39875,39.28,100006.0,1.1882367
151926023,110.903435,39.28,100000.0,1.1881654
151937019,110.73433,39.28,100001.99,1.1881891
151957356,110.81888,39.28,100000.99,1.1881772
151968020,111.07254,39.28,99998.0,1.1881417
151979340,110.565216,39.28,100004.0,1.188213
152001507,111.15446,39.28,99997.0,1.1881298
152012019,111.40812,39.28,99994.0,1.1880941
152023615,111.40812,39.28,99994.0,1.1880941
152045339,111.15446,39.28,99997.0,1.1881298
152056021,111.492676,39.28,99993.0,1.1880822
152067325,110.985344,39.28,99999.0,1.1881535
152088024,111.32356,39.28,99994.99,1.188106
152098364,111.32356,39.28,99994.99,1.188106
152109023,111.15446,39.28,99997.0,1.1881298
152130349,111.574585,39.28,99992.0,1.1880704
152141042,111.65914,39.28,99991.0,1.1880585
152152018,111.40812,39.28,99994.0,1.1880941
152174018,112.08191,39.28,99986.0,1.1879991
152185018,111.9128,39.28,99988.0,1.1880229
152196018,111.99735,39.28,99987.0,1.1880109
152218342,111.74369,39.28,99990.0,1.1880466
152229018,111.65914,39.28,99991.0,1.1880585
152240019,111.82825,39.28,99988.99,1.1880347
152262019,112.16382,39.28,99985.0,1.1879872
152273018,111.74369,39.28,99990.0,1.1880466
152284055,111.99735,39.28,99987.0,1.1880109
152307055,111.74369,39.28,99990.0,1.1880466
152318305,111.99735,39.28,99987.0,1.1880109
152329019,112.50204,39.28,99981.0,1.1879396
152350324,112.41749,39.28,99982.0,1.1879516
152361018,112.41749,39.28,99982.0,1.1879516
152372064,112.33293,39.28,99982.99,1.1879634
152393064,111.99735,39.28,99987.0,1.1880109
152404019,112.50204,39.28,99981.0,1.1879396
152415578,112.16382,39.28,99985.0,1.1879872
152437052,112.75306,39.28,99978.0,1.187904
152448021,112.840256,39.28,99976.99,1.1878921
152459031,112.58659,39.28,99980.0,1.1879278
152481018,112.75306,39.28,99978.0,1.187904
152492018,113.09128,39.28,99974.0,1.1878566
152503317,112.922165,39.28,99975.99,1.1878802
152525018,113.34229,39.28,99971.0,1.1878209
152535549,112.6685,39.28,99979.0,1.1879159
152546018,112.6685,39.28,99979.0,1.1879159
152568018,112.840256,39.29,99976.99,1.1878921
152579342,112.75306,39.29,99978.0,1.187904
152590334,112.75306,39.29,99978.0,1.187904
152612019,112.75306,39.28,99978.0,1.187904
152623613,112.248375,39.28,99984.0,1.1879753
152634319,112.41749,39.28,99982.0,1.1879516
152656019,112.75306,39.28,99978.0,1.187904
152667327,112.840256,39.28,99976.99,1.1878921
152679386,112.33293,39.28,99982.99,1.1879634
152701019,112.248375,39.28,99984.0,1.1879753
152712529,112.16382,39.28,99985.0,1.1879872
152722323,112.6685,39.28,99979.0,1.1879159
152744074,112.41749,39.28,99982.0,1.1879516
152755341,112.840256,39.28,99976.99,1.1878921
152765074,112.58659,39.28,99980.0,1.1879278
152786342,112.840256,39.29,99976.99,1.1878921
152797354,112.6685,39.29,99979.0,1.1879159
152808020,112.840256,39.29,99976.99,1.1878921
152830022,112.75306,39.28,99978.0,1.187904
152841352,112.248375,39.28,99984.0,1.1879753
152852018,113.00672,39.28,99975.0,1.1878684
152874018,112.248375,39.28,99984.0,1.1879753
152885380,111.9128,39.28,99988.0,1.1880229
152896021,113.257744,39.28,99972.0,1.1878327
152918018,112.33293,39.29,99982.99,1.1879634
152929370,112.33293,39.29,99982.99,1.1879634
152940018,112.58659,39.29,99980.0,1.1879278
152962019,112.33293,39.29,99982.99,1.1879634
152973339,112.50204,39.29,99981.0,1.1879396
152983402,112.16382,39.29,99985.0,1.1879872
153005020,112.41749,39.28,99982.0,1.1879516
153015839,112.58659,39.28,99980.0,1.1879278
153026019,112.50204,39.28,99981.0,1.1879396
153048018,112.248375,39.29,99984.0,1.1879753
153059020,112.840256,39.29,99976.99,1.1878921
153070297,112.6685,39.29,99979.0,1.1879159
153091031,112.41749,39.29,99982.0,1.1879516
153103248,112.922165,39.29,99975.99,1.1878802
153114371,113.17319,39.29,99973.0,1.1878446
153135967,112.41749,39.29,99982.0,1.1879516
153146028,112.6685,39.29,99979.0,1.1879159
153157383,112.75306,39.29,99978.0,1.187904
153178019,113.00672,39.29,99975.0,1.1878684
153189052,112.41749,39.29,99982.0,1.1879516
153200018,112.840256,39.29,99976.99,1.1878921
153221018,112.922165,39.29,99975.99,1.1878802
153232025,112.58659,39.29,99980.0,1.1879278
153242018,112.840256,39.29,99976.99,1.1878921
153264018,112.33293,39.29,99982.99,1.1879634
153274441,113.09128,39.29,99974.0,1.1878566
153285040,112.840256,39.29,99976.99,1.1878921
153309030,112.41749,39.29,99982.0,1.1879516
153319027,112.6685,39.29,99979.0,1.1879159
153330018,112.75306,39.29,99978.0,1.187904
153352019,112.840256,39.29,99976.99,1.1878921
153363023,112.33293,39.29,99982.99,1.1879634
153374569,112.840256,39.29,99976.99,1.1878921
153396018,112.58659,39.29,99980.0,1.1879278
153407022,112.41749,39.29,99982.0,1.1879516
153418126,112.58659,39.29,99980.0,1.1879278
153440019,112.58659,39.29,99980.0,1.1879278
153451018,112.840256,39.29,99976.99,1.1878921
153462938,112.75306,39.29,99978.0,1.187904
153484112,112.922165,39.29,99975.99,1.1878802
153495018,112.58659,39.29,99980.0,1.1879278
153506029,112.840256,39.29,99976.99,1.1878921
153527018,112.41749,39.29,99982.0,1.1879516
153538532,112.922165,39.29,99975.99,1.1878802
153549018,113.09128,39.29,99974.0,1.1878566
153571060,112.75306,39.29,99978.0,1.187904
153582018,112.58659,39.29,99980.0,1.1879278
153593024,112.41749,39.29,99982.0,1.1879516
153614112,112.75306,39.29,99978.0,1.187904
153625023,112.75306,39.29,99978.0,1.187904
