timestamp,error_count,device_id,pressure,temperature
133175023,0,3998474,1002.54,43.969997
133284018,0,3998474,1002.47,43.98
133392429,0,3998474,1002.51996,43.98
133899391,0,3998474,1002.55,43.989998
133996027,0,3998474,1002.49,43.98
134096494,0,3998474,1002.52997,43.989998
134206489,0,3998474,1002.57996,43.989998
134305019,0,3998474,1002.51996,43.989998
134404051,0,3998474,1002.6,44.0
134492021,0,3998474,1002.50995,43.989998
134612019,0,3998474,1002.49,44.0
134711019,0,3998474,1002.58997,43.989998
134800024,0,3998474,1002.57,44.0
134910020,0,3998474,1002.52997,44.0
135019018,0,3998474,1002.51996,44.0
135107046,0,3998474,1002.56,44.0
135215030,0,3998474,1002.57,44.0
135323020,0,3998474,1002.44995,44.01
135410127,0,3998474,1002.48,44.02
135519019,0,3998474,1002.50995,44.02
135629321,0,3998474,1002.56,44.03
135715143,0,3998474,1002.56,44.03
135822145,0,3998474,1002.52997,44.03
135932024,0,3998474,1002.52997,44.02
136021207,0,3998474,1002.51996,44.03
136137772,0,3998474,1002.5,44.03
136237487,0,3998474,1002.55,44.04
136323114,0,3998474,1002.48,44.04
136440018,0,3998474,1002.54,44.05
136536108,0,3998474,1002.54,44.059998
136643018,0,3998474,1002.44,44.05
136742191,0,3998474,1002.52997,44.07
136837224,0,3998474,1002.45996,44.059998
136944339,0,3998474,1002.45996,44.07
137051019,0,3998474,1002.45996,44.07
137138339,0,3998474,1002.55,44.079998
137255019,0,3998474,1002.47,44.09
137351334,0,3998474,1002.48,44.09
137458316,0,3998474,1002.49,44.09
137555041,0,3998474,1002.47,44.1
137654018,0,3998474,1002.42,44.1
137763022,0,3998474,1002.42,44.1
137860018,0,3998474,1002.38995,44.1
137968396,0,3998474,1002.38995,44.09
138054018,0,3998474,1002.42,44.1
138163018,0,3998474,1002.43,44.11
138269183,0,3998474,1002.38,44.11
139290615,0,3998474,1002.31,44.16
139389203,0,3998474,1002.25995,44.16
139493351,0,3998474,1002.27997,44.17
139589348,0,3998474,1002.26996,44.17
139688019,0,3998474,1002.22,44.16
139797159,0,3998474,1002.22,44.18
139893976,0,3998474,1002.19995,44.17
139994018,0,3998474,1002.13,44.17
140105037,0,3998474,1002.14996,44.18
140204219,0,3998474,1002.18,44.18
140306100,0,3998474,1002.18,44.19
140413197,0,3998474,1002.18,44.2
140510203,0,3998474,1002.04,44.19
140608369,0,3998474,1002.07996,44.2
140718018,0,3998474,1002.01996,44.2
140813025,0,3998474,1002.11,44.21
140909620,0,3998474,1001.93,44.21
141019074,0,3998474,1002.00995,44.21
141125170,0,3998474,1002.0,44.219997
141211024,0,3998474,1001.91,44.219997
141328402,0,3998474,1001.94995,44.219997
141424525,0,3998474,1001.94,44.239998
141533035,0,3998474,1001.97,44.23
141630019,0,3998474,1001.86,44.25
141726414,0,3998474,1001.94,44.25
141835042,0,3998474,1001.82996,44.25
141941042,0,3998474,1001.81,44.25
142026023,0,3998474,1001.85,44.26
142144797,0,3998474,1001.88,44.26
142241182,0,3998474,1001.94,44.26
142349412,0,3998474,1001.89996,44.27
142448688,0,3998474,1001.92,44.28
142544526,0,3998474,1001.87,44.27
142651018,0,3998474,1001.89996,44.28
142745027,0,3998474,1001.94995,44.29
142842141,0,3998474,1002.0,44.29
142951587,0,3998474,1001.99,44.3
143059018,0,3998474,1001.88,44.29
143165385,0,3998474,1001.97,44.309998
143261015,0,3998474,1001.98,44.309998
143358364,0,3998474,1001.95996,44.309998
143465031,0,3998474,1001.98,44.32
143562019,0,3998474,1001.91,44.309998
143659018,0,3998474,1001.91,44.32
143769018,0,3998474,1002.02997,44.329998
143867069,0,3998474,1001.94,44.32
143966182,0,3998474,1001.95996,44.329998
144073038,0,3998474,1002.00995,44.329998
144171068,0,3998474,1002.01996,44.34
144267019,0,3998474,1001.95996,44.34
144376625,0,3998474,1002.0,44.35
144486501,0,3998474,1002.04,44.36
144571357,0,3998474,1002.01996,44.35
144690100,0,3998474,1002.02997,44.36
144787023,0,3998474,1001.99,44.36
144896030,0,3998474,1002.0,44.37
144992021,0,3998474,1001.99,44.379997
145086082,0,3998474,1002.0,44.379997
145196393,0,3998474,1002.01996,44.379997
145292370,0,3998474,1002.05,44.379997
145389063,0,3998474,1002.04,44.39
145506023,0,3998474,1002.02997,44.39
145605555,0,3998474,1002.07,44.39
145690019,0,3998474,1002.05,44.39
145804342,0,3998474,1002.02997,44.399998
145897018,0,3998474,1002.13995,44.42
146005018,0,3998474,1002.05,44.41
146111612,0,3998474,1002.07996,44.42
146218186,0,3998474,1002.12,44.42
146325023,0,3998474,1002.13,44.43
146410018,0,3998474,1002.14996,44.44
146527869,0,3998474,1002.23,44.44
146626124,0,3998474,1002.07996,44.44
146714099,0,3998474,1002.13995,44.44
146831611,0,3998474,1002.19,44.45
146927836,0,3998474,1002.12,44.46
147034100,0,3998474,1002.18,44.46
147130105,0,3998474,1002.14996,44.469997
147226168,0,3998474,1002.12,44.469997
147332804,0,3998474,1002.13995,44.469997
147439967,0,3998474,1002.13,44.48
147525065,0,3998474,1002.12,44.48
147642094,0,3998474,1002.07,44.489998
147738187,0,3998474,1002.00995,44.489998
147844422,0,3998474,1002.07996,44.5
147941043,0,3998474,1002.04,44.51
148036246,0,3998474,1002.05,44.51
148144048,0,3998474,1001.98,44.51
148250137,0,3998474,1002.0,44.52
148338138,0,3998474,1002.0,44.52
148455552,0,3998474,1001.95996,44.52
148551695,0,3998474,1001.95996,44.53
148658100,0,3998474,1001.91,44.539997
148754137,0,3998474,1001.89996,44.53
148850121,0,3998474,1001.81,44.539997
148957064,0,3998474,1001.81,44.55
149056050,0,3998474,1001.89996,44.55
149152732,0,3998474,1001.76996,44.55
149261067,0,3998474,1001.75995,44.55
149369053,0,3998474,1001.64996,44.55
149456048,0,3998474,1001.73,44.559998
149576043,0,3998474,1001.69995,44.57
149676047,0,3998474,1001.64996,44.559998
149764421,0,3998474,1001.62,44.57
149874962,0,3998474,1001.5,44.57
149973047,0,3998474,1001.5,44.57
150073369,0,3998474,1001.37,44.579998
150185368,0,3998474,1001.38995,44.57
150285047,0,3998474,1001.32996,44.579998
150384052,0,3998474,1001.25995,44.59
150470347,0,3998474,1001.13995,44.579998
150591928,0,3998474,1001.13995,44.59
150691150,0,3998474,1000.98,44.59
150778397,0,3998474,1001.02997,44.6
150896823,0,3998474,1000.92,44.6
150993052,0,3998474,1000.77997,44.6
151081048,0,3998474,1000.76996,44.6
151191465,0,3998474,1000.74,44.61
151301059,0,3998474,1000.69,44.61
151388047,0,3998474,1000.63,44.62
151499051,0,3998474,1000.57996,44.62
151599953,0,3998474,1000.54,44.61
151697997,0,3998474,1000.37,44.61
151806367,0,3998474,1000.32,44.62
151904621,0,3998474,1000.25995,44.62
152001536,0,3998474,1000.22,44.629997
152109053,0,3998474,1000.13995,44.629997
152207396,0,3998474,1000.16,44.64
152307085,0,3998474,1000.07996,44.629997
152415729,0,3998474,1000.04,44.64
152514568,0,3998474,1000.00995,44.64
152612048,0,3998474,1000.08997,44.64
152722384,0,3998474,1000.1,44.649998
152819351,0,3998474,1000.00995,44.649998
152918404,0,3998474,1000.02997,44.66
153026398,0,3998474,1000.01996,44.66
153125048,0,3998474,999.98,44.66
153221048,0,3998474,1000.04,44.68
153330176,0,3998474,1000.00995,44.67
153429043,0,3998474,1000.02997,44.69
153527047,0,3998474,1000.07,44.69
153636047,0,3998474,1000.04,44.69
153733055,0,3998474,1000.0,44.69
153832377,0,3998474,1000.02997,44.69
153942213,0,3998474,1000.07,44.7
154040084,0,3998474,1000.05,44.71
154137104,0,3998474,1000.07996,44.71
154246217,0,3998474,1000.07,44.71
154344390,0,3998474,1000.02997,44.71
154443007,0,3998474,1000.02997,44.719997
154551048,0,3998474,1000.06,44.719997
154649048,0,3998474,1000.06,44.739998
154750483,0,3998474,1000.05,44.73
154840358,0,3998474,1000.04,44.719997
154960018,0,3998474,1000.1,44.739998
155059021,0,3998474,1000.05,44.73
155146597,0,3998474,1000.01996,44.75
155265019,0,3998474,1000.01996,44.75
155364019,0,3998474,999.98,44.75
155451066,0,3998474,999.99,44.75
155569018,0,3998474,1000.0,44.76
155666990,0,3998474,1000.00995,44.77
155777019,0,3998474,999.94995,44.77
155874810,0,3998474,1000.00995,44.77
155973018,0,3998474,1000.05,44.789997
156083146,0,3998474,999.99,44.78
156179032,0,3998474,999.99,44.78
156279047,0,3998474,999.94995,44.78
156367062,0,3998474,999.94,44.78
156491816,0,3998474,999.94,44.789997
156591196,0,3998474,999.92,44.78
156686054,0,3998474,999.98,44.789997
156795040,0,3998474,999.89996,44.78
156897019,0,3998474,999.97,44.78
156996148,0,3998474,999.94,44.789997
157105048,0,3998474,1000.02997,44.789997
157207043,0,3998474,999.97,44.789997
157308656,0,3998474,999.97,44.78
157400411,0,3998474,1000.05,44.789997
157518126,0,3998474,999.98,44.789997
157620614,0,3998474,999.98,44.789997
157708080,0,3998474,1000.02997,44.789997
157818579,0,3998474,999.99,44.789997
157916265,0,3998474,999.99,44.8
158017061,0,3998474,999.89996,44.78
158127063,0,3998474,999.94,44.78
158224049,0,3998474,999.91,44.77
158321710,0,3998474,999.93,44.78
158415061,0,3998474,999.88995,44.77
158523965,0,3998474,999.94,44.77
158632431,0,3998474,999.98,44.77
158717148,0,3998474,999.94,44.78
158837405,0,3998474,999.98,44.77
158934124,0,3998474,999.94,44.78
159022124,0,3998474,1000.05,44.76
159144044,0,3998474,1000.0,44.77
159240418,0,3998474,999.98,44.77
159347153,0,3998474,1000.12,44.77
159449650,0,3998474,1000.13,44.78
159546235,0,3998474,1000.07996,44.78
159654124,0,3998474,1000.13,44.789997
159753738,0,3998474,1000.13995,44.789997
159856395,0,3998474,1000.08997,44.789997
159963736,0,3998474,1000.14996,44.8
160059409,0,3998474,1000.13995,44.809998
160771583,0,3998474,1000.19995,44.84
160871042,0,3998474,1000.17,44.84
160968100,0,3998474,1000.31,44.85
161078136,0,3998474,1000.19995,44.86
161174133,0,3998474,1000.23,44.86
161278055,0,3998474,1000.29,44.87
161365445,0,3998474,1000.31,44.87
161478140,0,3998474,1000.25995,44.879997
161589176,0,3998474,1000.35,44.879997
161675048,0,3998474,1000.22,44.879997
161785788,0,3998474,1000.25995,44.89
161893048,0,3998474,1000.32,44.91
161984090,0,3998474,1000.36,44.91
162094176,0,3998474,1000.32,44.91
162189044,0,3998474,1000.33997,44.91
162293061,0,3998474,1000.42,44.92
162398129,0,3998474,1000.32,44.92
162495063,0,3998474,1000.38,44.93
162591047,0,3998474,1000.33997,44.94
162700396,0,3998474,1000.38,44.94
162810131,0,3998474,1000.3,44.94
162898147,0,3998474,1000.36,44.94
163004559,0,3998474,1000.44,44.96
163111063,0,3998474,1000.38995,44.95
163196518,0,3998474,1000.43,44.96
163316552,0,3998474,1000.41,44.969997
163413064,0,3998474,1000.39996,44.969997
163498935,0,3998474,1000.41,44.969997
163618628,0,3998474,1000.49,44.98
163713048,0,3998474,1000.44995,44.969997
163822160,0,3998474,1000.50995,44.98
163919047,0,3998474,1000.52997,44.989998
164014135,0,3998474,1000.51996,45.0
164124531,0,3998474,1000.48,45.0
164231048,0,3998474,1000.49,44.989998
164317060,0,3998474,1000.54,45.0
164436528,0,3998474,1000.51996,45.0
164535052,0,3998474,1000.54,45.0
164641052,0,3998474,1000.56,45.01
164740510,0,3998474,1000.62,45.02
164837052,0,3998474,1000.57,45.01
164945205,0,3998474,1000.58997,45.02
165044629,0,3998474,1000.58997,45.02
165140530,0,3998474,1000.66,45.02
165228620,0,3998474,1000.63,45.03
165346130,0,3998474,1000.64996,45.02
165444708,0,3998474,1000.67,45.03
165554138,0,3998474,1000.70996,45.02
165655048,0,3998474,1000.61,45.039997
165754123,0,3998474,1000.66,45.03
165838136,0,3998474,1000.69,45.03
165958142,0,3998474,1000.68,45.039997
166055052,0,3998474,1000.69,45.039997
166144915,0,3998474,1000.69995,45.039997
166261044,0,3998474,1000.74,45.05
166358398,0,3998474,1000.75995,45.05
166464222,0,3998474,1000.75995,45.05
166563591,0,3998474,1000.81,45.05
166659788,0,3998474,1000.82996,45.059998
166768992,0,3998474,1000.82996,45.07
166864148,0,3998474,1000.82,45.059998
166961022,0,3998474,1000.87,45.07
167070086,0,3998474,1000.89996,45.079998
167177018,0,3998474,1000.88995,45.07
167262082,0,3998474,1000.91,45.079998
167379523,0,3998474,1000.88,45.07
167474116,0,3998474,1000.87,45.079998
167582018,0,3998474,1000.94995,45.1
167678120,0,3998474,1000.89996,45.09
167776608,0,3998474,1000.88,45.09
167883555,0,3998474,1000.93,45.09
167990114,0,3998474,1000.88995,45.1
168075752,0,3998474,1000.88,45.1
168192231,0,3998474,1001.02997,45.1
168288359,0,3998474,1001.0,45.11
168395695,0,3998474,1000.98,45.11
168491457,0,3998474,1001.02997,45.12
168587737,0,3998474,1001.04,45.12
168702136,0,3998474,1000.92,45.12
168797024,0,3998474,1001.08997,45.12
168904090,0,3998474,1001.07996,45.129997
169001018,0,3998474,1001.13995,45.14
169097503,0,3998474,1001.18,45.129997
169203810,0,3998474,1001.07996,45.14
169310098,0,3998474,1001.08997,45.129997
169396048,0,3998474,1001.1,45.14
169515787,0,3998474,1001.13995,45.14
169611898,0,3998474,1001.16,45.149998
169717413,0,3998474,1001.17,45.149998
169814094,0,3998474,1001.16,45.149998
169910110,0,3998474,1001.20996,45.16
170018110,0,3998474,1001.26996,45.16
170124648,0,3998474,1001.19,45.16
170210818,0,3998474,1001.23,45.17
170320048,0,3998474,1001.25995,45.17
170419047,0,3998474,1001.26996,45.17
170518615,0,3998474,1001.26996,45.18
170626323,0,3998474,1001.26996,45.17
170725410,0,3998474,1001.29,45.17
170826370,0,3998474,1001.32,45.17
170938159,0,3998474,1001.36,45.17
171034363,0,3998474,1001.33997,45.18
171131049,0,3998474,1001.32,45.17
171241048,0,3998474,1001.38,45.18
171340058,0,3998474,1001.35,45.18
171440050,0,3998474,1001.27997,45.18
171526384,0,3998474,1001.42,45.18
171647967,0,3998474,1001.39996,45.18
171743716,0,3998474,1001.32,45.18
171831547,0,3998474,1001.47,45.19
171946356,0,3998474,1001.48,45.2
172044053,0,3998474,1001.48,45.2
172134659,0,3998474,1001.54,45.2
172254061,0,3998474,1001.5,45.2
172351386,0,3998474,1001.50995,45.2
172654314,0,3998474,1001.6,45.21
172765058,0,3998474,1001.63995,45.219997
172862356,0,3998474,1001.56,45.219997
172962368,0,3998474,1001.57996,45.219997
173072048,0,3998474,1001.64996,45.219997
173169043,0,3998474,1001.51996,45.23
173267056,0,3998474,1001.66,45.23
173356048,0,3998474,1001.68,45.23
173477424,0,3998474,1001.64996,45.239998
173573053,0,3998474,1001.72,45.239998
173681396,0,3998474,1001.68,45.25
173779099,0,3998474,1001.66,45.26
173879780,0,3998474,1001.6,45.25
173967929,0,3998474,1001.66,45.25
174087043,0,3998474,1001.75995,45.26
174185048,0,3998474,1001.75,45.27
174272048,0,3998474,1001.76996,45.27
174384048,0,3998474,1001.75,45.27
174493048,0,3998474,1001.8,45.27
174579048,0,3998474,1001.77997,45.28
174699048,0,3998474,1001.75,45.28
174799104,0,3998474,1001.82,45.28
174884366,0,3998474,1001.77997,45.28
174996370,0,3998474,1001.75,45.28
175106153,0,3998474,1001.75995,45.3
175194155,0,3998474,1001.82,45.3
175301169,0,3998474,1001.77997,45.3
175410158,0,3998474,1001.8,45.3
175496027,0,3998474,1001.82996,45.309998
175606423,0,3998474,1001.82996,45.32
175707047,0,3998474,1001.92,45.32
175806625,0,3998474,1001.87,45.309998
175916048,0,3998474,1001.89996,45.32
176014549,0,3998474,1001.91,45.32
176111050,0,3998474,1001.95996,45.32
176220048,0,3998474,1001.82996,45.32
176319217,0,3998474,1001.91,45.329998
176416050,0,3998474,1001.94,45.329998
176525048,0,3998474,1001.93,45.34
176624383,0,3998474,1001.94,45.35
176722187,0,3998474,1001.94,45.34
176832048,0,3998474,1001.94995,45.35
176931042,0,3998474,1002.0,45.35
177029154,0,3998474,1001.94,45.36
177142786,0,3998474,1001.97,45.35
177241042,0,3998474,1002.01996,45.36
177338201,0,3998474,1002.04,45.37
177445048,0,3998474,1001.95996,45.36
177543170,0,3998474,1001.94,45.37
177640082,0,3998474,1002.01996,45.37
177751403,0,3998474,1002.02997,45.379997
177851030,0,3998474,1002.02997,45.37
177950950,0,3998474,1002.01996,45.379997
178058143,0,3998474,1002.06,45.379997
178156027,0,3998474,1002.11,45.379997
178253018,0,3998474,1001.98,45.39
178362018,0,3998474,1002.05,45.39
178459028,0,3998474,1002.1,45.39
178555324,0,3998474,1002.07996,45.399998
178665216,0,3998474,1002.13,45.399998
178772018,0,3998474,1002.13,45.399998
178858025,0,3998474,1002.12,45.41
178969168,0,3998474,1002.13995,45.41
179076362,0,3998474,1002.07,45.42
179164358,0,3998474,1002.16,45.41
179273353,0,3998474,1002.17,45.42
179381770,0,3998474,1002.16,45.42
179468037,0,3998474,1002.17,45.43
179585376,0,3998474,1002.19,45.43
179769190,0,3998474,1002.1,45.44
180795019,0,3998474,1002.05,45.46
180893964,0,3998474,1002.16,45.469997
181003156,0,3998474,1002.1,45.469997
181100358,0,3998474,1002.07,45.469997
181198034,0,3998474,1002.08997,45.469997
181306019,0,3998474,1002.0,45.469997
181411036,0,3998474,1001.99,45.48
181497357,0,3998474,1001.98,45.48
181615019,0,3998474,1002.05,45.5
181715019,0,3998474,1001.94,45.489998
181801428,0,3998474,1001.94,45.489998
181918018,0,3998474,1001.82,45.5
182015018,0,3998474,1001.88995,45.5
182123018,0,3998474,1001.92,45.51
182220414,0,3998474,1001.83997,45.51
182316392,0,3998474,1001.82,45.51
182423023,0,3998474,1001.81,45.52
182524639,0,3998474,1001.70996,45.51
182622018,0,3998474,1001.69,45.51
182729357,0,3998474,1001.68,45.52
182836385,0,3998474,1001.6,45.52
182921362,0,3998474,1001.56,45.52
183041314,0,3998474,1001.61,45.53
183138018,0,3998474,1001.57996,45.53
183223022,0,3998474,1001.44995,45.53
183343328,0,3998474,1001.38,45.53
183439023,0,3998474,1001.31,45.539997
183548532,0,3998474,1001.31,45.539997
183644510,0,3998474,1001.23,45.55
183740391,0,3998474,1001.14996,45.539997
183849221,0,3998474,1001.1,45.55
183946018,0,3998474,1000.97,45.55
184041419,0,3998474,1000.94995,45.55
184148501,0,3998474,1000.82,45.55
184257043,0,3998474,1000.75995,45.539997
184345162,0,3998474,1000.74,45.559998
184455063,0,3998474,1000.68,45.559998
184562027,0,3998474,1000.55,45.559998
184647056,0,3998474,1000.49,45.559998
184763019,0,3998474,1000.47,45.559998
184860352,0,3998474,1000.41,45.57
184969018,0,3998474,1000.33997,45.57
185066028,0,3998474,1000.25995,45.57
185161411,0,3998474,1000.19,45.57
185268364,0,3998474,1000.17,45.559998
185375018,0,3998474,1000.13,45.579998
185459348,0,3998474,1000.1,45.579998
185577018,0,3998474,1000.01996,45.579998
185673483,0,3998474,1000.07996,45.57
185780528,0,3998474,1000.12,45.579998
185875074,0,3998474,1000.11,45.579998
185974081,0,3998474,1000.07,45.579998
186080018,0,3998474,1000.13995,45.579998
186187725,0,3998474,1000.07,45.59
186294088,0,3998474,1000.17,45.59
186400174,0,3998474,1000.07,45.59
186485030,0,3998474,1000.13,45.6
186602119,0,3998474,1000.11,45.59
186699459,0,3998474,1000.13995,45.61
186806021,0,3998474,1000.04,45.6
186902018,0,3998474,1000.11,45.61
186998172,0,3998474,1000.16,45.61
187104421,0,3998474,1000.13995,45.6
187211601,0,3998474,1000.06,45.61
187297368,0,3998474,1000.11,45.62
187414018,0,3998474,1000.08997,45.61
187510019,0,3998474,1000.02997,45.62
187616222,0,3998474,1000.1,45.62
187713019,0,3998474,1000.12,45.62
187809018,0,3998474,1000.08997,45.629997
187915566,0,3998474,1000.1,45.629997
188022082,0,3998474,1000.07996,45.64
188108068,0,3998474,1000.07,45.629997
188225018,0,3998474,1000.12,45.629997
188321019,0,3998474,1000.07,45.64
188427724,0,3998474,1000.18,45.649998
188523455,0,3998474,1000.08997,45.64
188619583,0,3998474,1000.13,45.64
188726018,0,3998474,1000.1,45.649998
188833037,0,3998474,1000.08997,45.649998
188939594,0,3998474,1000.13,45.66
189035626,0,3998474,1000.08997,45.66
189131906,0,3998474,1000.1,45.66
189240258,0,3998474,1000.08997,45.66
189339548,0,3998474,1000.11,45.66
189436023,0,3998474,1000.11,45.66
189546100,0,3998474,1000.16,45.66
189645377,0,3998474,1000.13995,45.66
189744600,0,3998474,1000.16,45.67
189853048,0,3998474,1000.11,45.66
189950122,0,3998474,1000.13,45.67
190048024,0,3998474,1000.14996,45.68
190157348,0,3998474,1000.13,45.67
190255300,0,3998474,1000.06,45.67
190354018,0,3998474,1000.19995,45.67
190462019,0,3998474,1000.13995,45.67
190558029,0,3998474,1000.05,45.67
190656022,0,3998474,1000.13,45.68
190765418,0,3998474,1000.20996,45.68
190863442,0,3998474,1000.17,45.68
190959429,0,3998474,1000.12,45.67
191070022,0,3998474,1000.11,45.67
191169018,0,3998474,1000.11,45.68
191267018,0,3998474,1000.14996,45.68
191376073,0,3998474,1000.12,45.68
191472383,0,3998474,1000.13,45.69
191571023,0,3998474,1000.12,45.69
191681019,0,3998474,1000.14996,45.68
191781023,0,3998474,1000.1,45.68
191879226,0,3998474,1000.13,45.69
191967339,0,3998474,1000.16,45.68
192077386,0,3998474,1000.14996,45.68
192184034,0,3998474,1000.13995,45.68
192291057,0,3998474,1000.13,45.68
192388018,0,3998474,1000.14996,45.69
192485064,0,3998474,1000.14996,45.69
192592018,0,3998474,1000.23,45.69
192688019,0,3998474,1000.16,45.69
192787024,0,3998474,1000.17,45.69
192896500,0,3998474,1000.20996,45.69
192993018,0,3998474,1000.23,45.69
193092018,0,3998474,1000.17,45.69
193202365,0,3998474,1000.19995,45.69
193299058,0,3998474,1000.19995,45.69
193397171,0,3998474,1000.20996,45.7
193484339,0,3998474,1000.19995,45.7
193607022,0,3998474,1000.17,45.69
193707413,0,3998474,1000.22,45.71
193815018,0,3998474,1000.14996,45.7
193913023,0,3998474,1000.18,45.7
194012029,0,3998474,1000.24,45.71
194121019,0,3998474,1000.3,45.71
194220023,0,3998474,1000.23,45.71
194318435,0,3998474,1000.24,45.719997
194430006,0,3998474,1000.23,45.71
194529018,0,3998474,1000.23,45.71
194626444,0,3998474,1000.29,45.719997
194713022,0,3998474,1000.20996,45.719997
194835035,0,3998474,1000.26996,45.73
194928385,0,3998474,1000.33997,45.73
195025019,0,3998474,1000.27997,45.719997
195134467,0,3998474,1000.35,45.73
195232023,0,3998474,1000.32,45.73
195329030,0,3998474,1000.3,45.73
195437019,0,3998474,1000.36,45.73
195546478,0,3998474,1000.35,45.739998
195637018,0,3998474,1000.39996,45.739998
195747031,0,3998474,1000.39996,45.739998
195844023,0,3998474,1000.43,45.75
195942330,0,3998474,1000.44995,45.75
196051038,0,3998474,1000.42,45.75
196148021,0,3998474,1000.41,45.75
196243029,0,3998474,1000.49,45.76
196355101,0,3998474,1000.38995,45.75
196451041,0,3998474,1000.43,45.76
196550019,0,3998474,1000.43,45.75
196649018,0,3998474,1000.43,45.75
196754765,0,3998474,1000.44995,45.76
196862099,0,3998474,1000.5,45.77
196948019,0,3998474,1000.44995,45.76
198181219,0,3998474,1000.56,45.78
198288023,0,3998474,1000.58997,45.789997
198375100,0,3998474,1000.6,45.78
198483166,0,3998474,1000.6,45.789997
198589500,0,3998474,1000.61,45.789997
198675059,0,3998474,1000.63995,45.8
198794335,0,3998474,1000.66,45.8
198893213,0,3998474,1000.67,45.789997
198981455,0,3998474,1000.66,45.789997
199098981,0,3998474,1000.66,45.8
199194239,0,3998474,1000.70996,45.789997
199301751,0,3998474,1000.67,45.8
199407018,0,3998474,1000.73,45.8
199494153,0,3998474,1000.69,45.809998
199613153,0,3998474,1000.74,45.809998
199709130,0,3998474,1000.75995,45.809998
199797066,0,3998474,1000.72,45.8
199915013,0,3998474,1000.82,45.809998
200012021,0,3998474,1000.76996,45.809998
200099153,0,3998474,1000.76996,45.809998
200221363,0,3998474,1000.75995,45.82
200317169,0,3998474,1000.81,45.809998
200426021,0,3998474,1000.81,45.82
200522024,0,3998474,1000.85,45.82
200620762,0,3998474,1000.79,45.82
200709185,0,3998474,1000.88,45.829998
200829045,0,3998474,1000.87,45.829998
200924371,0,3998474,1000.87,45.82
201034021,0,3998474,1000.83997,45.829998
201129473,0,3998474,1000.88,45.84
201225350,0,3998474,1000.95996,45.84
201332429,0,3998474,1000.82996,45.84
201441042,0,3998474,1000.94,45.84
201528137,0,3998474,1000.92,45.84
201636532,0,3998474,1000.97,45.84
201743330,0,3998474,1000.94,45.84
201829023,0,3998474,1000.89996,45.85
201945994,0,3998474,1001.05,45.84
202042018,0,3998474,1000.98,45.85
202149018,0,3998474,1001.00995,45.85
202247018,0,3998474,1000.99,45.85
202343018,0,3998474,1000.94,45.84
202449063,0,3998474,1001.02997,45.85
202562381,0,3998474,1001.07,45.85
202650021,0,3998474,1001.05,45.85
202770400,0,3998474,1001.02997,45.85
202863030,0,3998474,1001.01996,45.84
202970811,0,3998474,1001.13995,45.85
203069018,0,3998474,1001.16,45.85
203164417,0,3998474,1001.17,45.85
203273680,0,3998474,1001.13995,45.84
203369328,0,3998474,1001.20996,45.85
203466018,0,3998474,1001.13995,45.84
203586477,0,3998474,1001.14996,45.85
203679063,0,3998474,1001.22,45.85
203775019,0,3998474,1001.19995,45.84
203884365,0,3998474,1001.19995,45.85
203983023,0,3998474,1001.20996,45.85
204078098,0,3998474,1001.20996,45.85
204187274,0,3998474,1001.29,45.85
204289017,0,3998474,1001.26996,45.84
204390412,0,3998474,1001.26996,45.85
204478420,0,3998474,1001.26996,45.85
204596019,0,3998474,1001.33997,45.86
204694139,0,3998474,1001.24,45.85
204782018,0,3998474,1001.31,45.86
204900592,0,3998474,1001.26996,45.86
204998018,0,3998474,1001.33997,45.86
205086124,0,3998474,1001.39996,45.86
205206100,0,3998474,1001.32996,45.87
205304191,0,3998474,1001.32996,45.87
205411523,0,3998474,1001.44,45.879997
205507961,0,3998474,1001.37,45.879997
205606019,0,3998474,1001.38,45.879997
205713874,0,3998474,1001.43,45.879997
205818663,0,3998474,1001.44995,45.879997
205902082,0,3998474,1001.42,45.879997
206019704,0,3998474,1001.50995,45.89
206115981,0,3998474,1001.48,45.89
206222019,0,3998474,1001.55,45.899998
206329018,0,3998474,1001.48,45.89
206416242,0,3998474,1001.42,45.89
206523548,0,3998474,1001.61,45.89
206634181,0,3998474,1001.49,45.89
206720219,0,3998474,1001.55,45.89
206827718,0,3998474,1001.62,45.899998
206936352,0,3998474,1001.62,45.899998
207024121,0,3998474,1001.57,45.89
207139463,0,3998474,1001.62,45.899998
207235546,0,3998474,1001.67,45.899998
207342018,0,3998474,1001.64996,45.899998
207441018,0,3998474,1001.67,45.899998
207537199,0,3998474,1001.66,45.91
207642152,0,3998474,1001.70996,45.91
207749018,0,3998474,1001.63,45.92
207835570,0,3998474,1001.66,45.92
207953078,0,3998474,1001.68,45.91
208051327,0,3998474,1001.69995,45.91
208140358,0,3998474,1001.75,45.92
208256396,0,3998474,1001.75995,45.92
208357019,0,3998474,1001.72,45.91
208445018,0,3998474,1001.72,45.92
208562019,0,3998474,1001.77997,45.92
208663619,0,3998474,1001.75,45.92
208750140,0,3998474,1001.76996,45.91
208858018,0,3998474,1001.8,45.92
208966018,0,3998474,1001.73,45.92
209052562,0,3998474,1001.8,45.93
209162396,0,3998474,1001.8,45.93
209270018,0,3998474,1001.77997,45.93
209358018,0,3998474,1001.8,45.93
209467349,0,3998474,1001.88,45.93
209576018,0,3998474,1001.86,45.93
209661074,0,3998474,1001.82996,45.94
209780067,0,3998474,1001.85,45.94
209877018,0,3998474,1001.87,45.94
209965340,0,3998474,1001.87,45.94
210074352,0,3998474,1001.95996,45.94
210183054,0,3998474,1001.94995,45.94
210271023,0,3998474,1001.81,45.94
210388018,0,3998474,1001.98,45.95
210485354,0,3998474,1001.91,45.94
210583019,0,3998474,1001.88995,45.94
210691342,0,3998474,1001.92,45.94
210799021,0,3998474,1001.95996,45.95
210887022,0,3998474,1001.97,45.95
210995263,0,3998474,1002.05,45.96
211094019,0,3998474,1001.92,45.96
211191364,0,3998474,1001.95996,45.96
211298027,0,3998474,1001.97,45.96
211408018,0,3998474,1002.05,45.969997
211495093,0,3998474,1001.94995,45.96
211609042,0,3998474,1001.95996,45.96
211707436,0,3998474,1002.07,45.969997
211806106,0,3998474,1002.07996,45.969997
211916600,0,3998474,1001.95996,45.969997
212014244,0,3998474,1002.06,45.98
212111079,0,3998474,1002.07996,45.969997
212220049,0,3998474,1002.04,45.969997
212326179,0,3998474,1002.08997,45.98
212412381,0,3998474,1002.07,45.969997
212531018,0,3998474,1002.13,45.98
212629030,0,3998474,1002.08997,45.98
212717018,0,3998474,1002.05,45.98
212835038,0,3998474,1002.02997,45.98
212934182,0,3998474,1002.07996,45.98
213022099,0,3998474,1002.1,45.969997
213134021,0,3998474,1002.12,45.98
213242501,0,3998474,1002.07996,45.969997
213330491,0,3998474,1002.07996,45.969997
213440363,0,3998474,1002.1,45.969997
213548125,0,3998474,1002.11,45.969997
213634492,0,3998474,1002.14996,45.98
213743018,0,3998474,1002.08997,45.98
213854159,0,3998474,1002.1,45.98
213942164,0,3998474,1002.07,45.98
214060094,0,3998474,1002.07,45.969997
214161018,0,3998474,1002.05,45.98
214258661,0,3998474,1002.06,45.98
214351070,0,3998474,1002.04,45.98
214469929,0,3998474,1002.07996,45.98
214572507,0,3998474,1002.02997,45.98
214676256,0,3998474,1002.0,45.98
214767019,0,3998474,1002.01996,45.98
214876869,0,3998474,1002.07,45.989998
214976023,0,3998474,1002.07,45.989998
215075030,0,3998474,1002.06,45.989998
215182019,0,3998474,1002.02997,46.0
215276840,0,3998474,1001.93,46.0
215373019,0,3998474,1002.02997,46.0
215483018,0,3998474,1002.0,46.01
215581952,0,3998474,1002.08997,46.0
215679019,0,3998474,1001.97,46.01
215785139,0,3998474,1002.11,46.02
215887131,0,3998474,1002.01996,46.01
215986018,0,3998474,1001.98,46.01
216096428,0,3998474,1002.01996,46.01
216194107,0,3998474,1001.86,46.01
216293726,0,3998474,1002.01996,46.0
216399438,0,3998474,1002.11,46.0
216500018,0,3998474,1002.08997,46.0
216599457,0,3998474,1002.07,45.989998
216705321,0,3998474,1002.07996,45.989998
216805691,0,3998474,1002.12,45.989998
216903120,0,3998474,1002.07,45.98
217013861,0,3998474,1002.14996,45.98
217113326,0,3998474,1002.14996,45.969997
217212369,0,3998474,1002.18,45.969997
217300023,0,3998474,1002.05,45.969997
217422334,0,3998474,1002.08997,45.969997
217518019,0,3998474,1002.08997,45.96
217605679,0,3998474,1002.11,45.96
217724018,0,3998474,1002.04,45.95
217824118,0,3998474,1002.02997,45.95
217913064,0,3998474,1002.06,45.93
218031376,0,3998474,1002.08997,45.93
218129036,0,3998474,1002.14996,45.93
218236021,0,3998474,1002.12,45.91
218333965,0,3998474,1002.16,45.92
218439752,0,3998474,1002.23,45.92
218527421,0,3998474,1002.13995,45.899998
218641050,0,3998474,1002.19,45.89
218740031,0,3998474,1002.13,45.899998
218834045,0,3998474,1002.18,45.899998
218926354,0,3998474,1002.19,45.899998
219045403,0,3998474,1002.19995,45.89
220366264,0,3998474,1002.18,45.94
220452892,0,3998474,1002.18,45.96
220573178,0,3998474,1002.13995,45.96
220670018,0,3998474,1002.11,45.96
220776249,0,3998474,1002.12,45.96
220886348,0,3998474,1002.11,45.969997
220969028,0,3998474,1002.14996,45.969997
221079103,0,3998474,1002.13,45.98
221190137,0,3998474,1002.05,45.98
221278018,0,3998474,1002.07996,45.98
221386019,0,3998474,1002.08997,45.969997
221486350,0,3998474,1002.08997,45.98
221581318,0,3998474,1002.05,45.98
221691101,0,3998474,1002.04,45.989998
221790365,0,3998474,1002.01996,45.989998
221888523,0,3998474,1002.05,45.989998
221995018,0,3998474,1002.0,45.989998
222102502,0,3998474,1002.08997,45.989998
222186136,0,3998474,1002.0,46.0
222305018,0,3998474,1002.07996,46.0
222403827,0,3998474,1002.00995,45.989998
222513019,0,3998474,1001.94,45.989998
222612376,0,3998474,1001.98,45.989998
222710116,0,3998474,1002.01996,45.989998
222816379,0,3998474,1002.01996,46.0
222913066,0,3998474,1002.01996,45.989998
223008412,0,3998474,1002.00995,45.989998
223126018,0,3998474,1002.07996,45.989998
223222018,0,3998474,1001.99,46.0
223331566,0,3998474,1001.99,45.989998
223428018,0,3998474,1001.94,45.989998
223523584,0,3998474,1001.94,45.989998
223630018,0,3998474,1001.97,45.98
223728535,0,3998474,1001.93,45.989998
223828023,0,3998474,1001.94995,45.98
223936401,0,3998474,1001.87,45.969997
224043699,0,3998474,1001.87,45.969997
224150370,0,3998474,1001.94,45.96
224248523,0,3998474,1001.85,45.96
224344189,0,3998474,1001.87,45.96
224451589,0,3998474,1001.97,45.95
224549238,0,3998474,1001.87,45.95
224645023,0,3998474,1001.83997,45.95
224752876,0,3998474,1001.87,45.94
224858127,0,3998474,1001.86,45.94
224953546,0,3998474,1001.86,45.92
225062019,0,3998474,1001.94995,45.91
225165023,0,3998474,1002.00995,45.92
225253152,0,3998474,1001.94,45.92
225371722,0,3998474,1001.94995,45.92
225467978,0,3998474,1001.95996,45.91
225574023,0,3998474,1002.0,45.92
225673018,0,3998474,1001.94995,45.92
225769850,0,3998474,1001.98,45.93
225883563,0,3998474,1001.92,45.93
225981416,0,3998474,1001.89996,45.93
226067740,0,3998474,1001.88,45.93
226187043,0,3998474,1001.94,45.92
226287745,0,3998474,1001.89996,45.91
226393065,0,3998474,1001.91,45.91
226490976,0,3998474,1002.07996,45.899998
226593019,0,3998474,1001.99,45.89
226684026,0,3998474,1001.95996,45.89
226795018,0,3998474,1001.91,45.879997
226895561,0,3998474,1002.04,45.87
226996035,0,3998474,1001.98,45.86
227085018,0,3998474,1001.88,45.86
227201585,0,3998474,1002.04,45.85
227301018,0,3998474,1002.01996,45.85
227396063,0,3998474,1002.00995,45.829998
227509018,0,3998474,1002.0,45.809998
227606293,0,3998474,1002.02997,45.809998
227708018,0,3998474,1002.00995,45.809998
227800019,0,3998474,1001.92,45.789997
227910403,0,3998474,1001.91,45.76
228019022,0,3998474,1001.92,45.76
228108031,0,3998474,1001.88995,45.75
228219025,0,3998474,1001.94,45.73
228326019,0,3998474,1001.87,45.71
228412106,0,3998474,1001.91,45.71
228537151,0,3998474,1001.94995,45.69
228635021,0,3998474,1001.99,45.68
228729018,0,3998474,1001.88995,45.67
228836019,0,3998474,1001.92,45.66
228936744,0,3998474,1001.89996,45.66
229034785,0,3998474,1001.92,45.64
229145022,0,3998474,1001.87,45.629997
229244018,0,3998474,1002.02997,45.62
229348031,0,3998474,1001.88,45.61
229437028,0,3998474,1001.88995,45.59
229547064,0,3998474,1002.01996,45.59
229652411,0,3998474,1002.00995,45.579998
229750641,0,3998474,1001.93,45.579998
229858555,0,3998474,1001.95996,45.57
229964018,0,3998474,1001.88,45.57
230050768,0,3998474,1002.00995,45.579998
230161036,0,3998474,1002.04,45.579998
230271983,0,3998474,1002.08997,45.579998
230357042,0,3998474,1001.91,45.579998
230469049,0,3998474,1002.04,45.579998
230568025,0,3998474,1001.98,45.59
230667018,0,3998474,1002.00995,45.59
230779019,0,3998474,1002.0,45.6
230875036,0,3998474,1002.00995,45.6
230974556,0,3998474,1002.07,45.61
231072050,0,3998474,1002.00995,45.61
231184372,0,3998474,1002.11,45.61
231288059,0,3998474,1002.07,45.62
231384541,0,3998474,1002.0,45.62
231480222,0,3998474,1001.88,45.629997
231571018,0,3998474,1001.89996,45.629997
231691031,0,3998474,1002.08997,45.64
231792415,0,3998474,1001.99,45.64
231880029,0,3998474,1001.85,45.649998
232000016,0,3998474,1001.93,45.66
232093049,0,3998474,1001.94995,45.66
232193018,0,3998474,1001.91,45.67
232299026,0,3998474,1001.98,45.68
232399886,0,3998474,1001.99,45.68
232496852,0,3998474,1002.06,45.69
232608018,0,3998474,1002.11,45.69
232705184,0,3998474,1002.01996,45.7
232808507,0,3998474,1002.18,45.71
232895034,0,3998474,1002.06,45.7
233014540,0,3998474,1002.07,45.719997
233109018,0,3998474,1002.05,45.73
233200118,0,3998474,1002.06,45.73
233321202,0,3998474,1002.13995,45.73
233419050,0,3998474,1002.06,45.739998
233506132,0,3998474,1002.08997,45.75
233626181,0,3998474,1002.05,45.75
233724091,0,3998474,1002.08997,45.75
233810178,0,3998474,1002.02997,45.76
233933682,0,3998474,1002.06,45.77
234027043,0,3998474,1001.97,45.77
234130175,0,3998474,1001.94,45.78
234239616,0,3998474,1002.0,45.78
234335043,0,3998474,1001.97,45.789997
234436745,0,3998474,1001.92,45.789997
234543038,0,3998474,1002.00995,45.8
234639385,0,3998474,1001.93,45.8
234735574,0,3998474,1001.94995,45.8
234832063,0,3998474,1001.93,45.8
234946131,0,3998474,1001.82996,45.809998
235049191,0,3998474,1001.85,45.8
235149849,0,3998474,1001.89996,45.809998
235258016,0,3998474,1001.86,45.809998
235358381,0,3998474,1001.88995,45.82
235455048,0,3998474,1001.89996,45.82
235564048,0,3998474,1001.93,45.82
235663414,0,3998474,1001.86,45.82
235761335,0,3998474,1001.91,45.82
235871222,0,3998474,1001.89996,45.82
235969322,0,3998474,1001.86,45.829998
236065220,0,3998474,1001.75995,45.829998
236174915,0,3998474,1001.88995,45.829998
236271042,0,3998474,1001.89996,45.829998
236370464,0,3998474,1001.77997,45.82
236458185,0,3998474,1001.82996,45.829998
236581987,0,3998474,1001.76996,45.829998
236684138,0,3998474,1001.91,45.84
236770183,0,3998474,1001.81,45.829998
236881739,0,3998474,1001.75995,45.829998
236990209,0,3998474,1001.85,45.84
237081838,0,3998474,1001.8,45.84
237189145,0,3998474,1001.76996,45.84
237295081,0,3998474,1001.69,45.84
237384856,0,3998474,1001.79,45.84
237492383,0,3998474,1001.74,45.84
237599632,0,3998474,1001.69,45.84
237685165,0,3998474,1001.74,45.84
237796515,0,3998474,1001.75995,45.84
237905813,0,3998474,1001.76996,45.829998
237991361,0,3998474,1001.74,45.82
238108504,0,3998474,1001.83997,45.82
238206124,0,3998474,1001.82996,45.82
238292387,0,3998474,1001.81,45.809998
238412426,0,3998474,1001.75,45.8
238509019,0,3998474,1001.85,45.8
238618470,0,3998474,1001.74,45.789997
238716377,0,3998474,1001.85,45.78
238812592,0,3998474,1001.75995,45.78
238921807,0,3998474,1001.87,45.77
239018018,0,3998474,1001.77997,45.76
239114019,0,3998474,1001.85,45.75
239225620,0,3998474,1001.88,45.739998
239325130,0,3998474,1001.89996,45.73
239420550,0,3998474,1001.88995,45.73
239530135,0,3998474,1001.85,45.73
239626363,0,3998474,1001.83997,45.71
239722937,0,3998474,1001.88,45.71
239828544,0,3998474,1001.94995,45.71
239930386,0,3998474,1001.87,45.7
240026928,0,3998474,1001.89996,45.71
240135058,0,3998474,1001.92,45.7
240241475,0,3998474,1002.0,45.7
240330331,0,3998474,1001.94995,45.7
240447065,0,3998474,1001.99,45.68
240541056,0,3998474,1001.94,45.67
240641388,0,3998474,1001.94995,45.67
240750104,0,3998474,1002.05,45.66
240846552,0,3998474,1002.0,45.66
240944264,0,3998474,1001.97,45.66
241059589,0,3998474,1001.97,45.66
241155760,0,3998474,1001.98,45.649998
241245097,0,3998474,1002.02997,45.649998
242060048,0,3998474,1002.05,45.64
242178254,0,3998474,1002.1,45.64
242274103,0,3998474,1002.02997,45.64
242382100,0,3998474,1002.07,45.629997
242480346,0,3998474,1002.04,45.629997
242577048,0,3998474,1002.02997,45.64
242684051,0,3998474,1002.04,45.629997
242780047,0,3998474,1002.04,45.629997
242874436,0,3998474,1002.02997,45.62
242984580,0,3998474,1002.01996,45.61
243091714,0,3998474,1002.02997,45.61
243176015,0,3998474,1002.01996,45.6
243294099,0,3998474,1002.07,45.6
243390140,0,3998474,1002.07,45.6
243496112,0,3998474,1002.12,45.59
243593696,0,3998474,1002.04,45.579998
243689600,0,3998474,1002.0,45.579998
243796609,0,3998474,1002.11,45.57
243896174,0,3998474,1002.13,45.57
243993303,0,3998474,1002.13995,45.57
244102019,0,3998474,1002.12,45.57
244201020,0,3998474,1002.08997,45.57
244297558,0,3998474,1002.07,45.579998
244414375,0,3998474,1002.08997,45.579998
244512696,0,3998474,1002.12,45.579998
244598551,0,3998474,1002.07996,45.59
244720117,0,3998474,1002.07,45.59
244822394,0,3998474,1002.04,45.59
244913631,0,3998474,1002.07,45.59
245008152,0,3998474,1002.05,45.59
245129027,0,3998474,1002.08997,45.61
245225609,0,3998474,1002.06,45.61
245318356,0,3998474,1002.05,45.61
245427721,0,3998474,1002.12,45.61
245530380,0,3998474,1002.08997,45.6
245628056,0,3998474,1002.12,45.62
245717048,0,3998474,1001.92,45.62
245836085,0,3998474,1002.00995,45.629997
245935334,0,3998474,1001.97,45.62
246025335,0,3998474,1001.91,45.62
246137321,0,3998474,1001.88995,45.629997
246245098,0,3998474,1001.93,45.64
246340099,0,3998474,1001.89996,45.64
246432754,0,3998474,1001.97,45.629997
246552737,0,3998474,1001.91,45.629997
246650819,0,3998474,1001.94,45.629997
246756062,0,3998474,1001.95996,45.629997
246857337,0,3998474,1001.95996,45.64
246956048,0,3998474,1001.83997,45.64
247047792,0,3998474,1002.01996,45.64
247158344,0,3998474,1001.86,45.629997
247255244,0,3998474,1001.86,45.64
247352405,0,3998474,1001.94,45.649998
247464048,0,3998474,1001.95996,45.64
247562987,0,3998474,1001.85,45.64
247659018,0,3998474,1001.88995,45.649998
247771018,0,3998474,1001.88995,45.649998
247870362,0,3998474,1001.93,45.649998
247967616,0,3998474,1001.82,45.66
248078913,0,3998474,1001.79,45.649998
248174945,0,3998474,1001.88,45.649998
248282182,0,3998474,1001.8,45.649998
248388160,0,3998474,1001.82996,45.649998
248484497,0,3998474,1001.82,45.64
248591091,0,3998474,1001.82,45.64
248679028,0,3998474,1001.86,45.649998
248788018,0,3998474,1001.94,45.649998
248886124,0,3998474,1001.85,45.649998
248984018,0,3998474,1001.82996,45.64
249092018,0,3998474,1001.93,45.64
249195335,0,3998474,1001.79,45.64
249291020,0,3998474,1001.79,45.64
249406139,0,3998474,1001.76996,45.64
249503064,0,3998474,1001.82996,45.64
249602444,0,3998474,1001.72,45.629997
249695031,0,3998474,1001.82,45.629997
249815051,0,3998474,1001.85,45.61
249915872,0,3998474,1001.95996,45.59
250012047,0,3998474,1001.77997,45.6
250121018,0,3998474,1001.86,45.579998
250220358,0,3998474,1001.95996,45.57
250322521,0,3998474,1001.88,45.559998
250410444,0,3998474,1001.88995,45.559998
250524242,0,3998474,1001.79,45.539997
250628039,0,3998474,1001.88,45.52
250723965,0,3998474,1001.91,45.52
250834567,0,3998474,1001.82,45.51
250930511,0,3998474,1001.89996,45.5
251029177,0,3998474,1001.94,45.489998
251121176,0,3998474,1001.94995,45.469997
251244113,0,3998474,1001.86,45.45
251342034,0,3998474,1001.94,45.43
251433019,0,3998474,1001.86,45.43
251527030,0,3998474,1001.77997,45.399998
251646127,0,3998474,1001.88995,45.379997
251745019,0,3998474,1001.93,45.379997
251844348,0,3998474,1001.79,45.36
251952930,0,3998474,1001.93,45.34
252054139,0,3998474,1001.94995,45.329998
252153019,0,3998474,1001.97,45.309998
252243568,0,3998474,1001.94,45.289997
252361754,0,3998474,1001.91,45.27
252470105,0,3998474,1001.87,45.25
252558019,0,3998474,1001.85,45.239998
252675305,0,3998474,1001.97,45.219997
252768069,0,3998474,1001.99,45.2
252864019,0,3998474,1001.97,45.18
252958112,0,3998474,1001.85,45.16
253075075,0,3998474,1001.95996,45.12
253182166,0,3998474,1001.89996,45.11
253275228,0,3998474,1001.94995,45.079998
253372037,0,3998474,1001.86,45.07
253481985,0,3998474,1002.07,45.039997
253589341,0,3998474,1001.88,45.03
253674612,0,3998474,1001.94,45.01
253792018,0,3998474,1002.0,45.0
253894210,0,3998474,1001.92,44.989998
253976064,0,3998474,1001.92,44.98
254094143,0,3998474,1002.05,44.98
254195345,0,3998474,1001.89996,44.98
254283253,0,3998474,1001.88995,44.98
254403420,0,3998474,1001.86,44.98
254504066,0,3998474,1002.06,44.98
254598223,0,3998474,1001.92,44.989998
254686099,0,3998474,1001.87,44.989998
254811597,0,3998474,1001.93,45.01
254907611,0,3998474,1001.82,45.02
255014018,0,3998474,1002.0,45.02
255122162,0,3998474,1002.00995,45.03
255211683,0,3998474,1001.94995,45.03
255308160,0,3998474,1001.88,45.039997
255419748,0,3998474,1001.85,45.039997
255523019,0,3998474,1001.88,45.039997
255622427,0,3998474,1001.88995,45.05
255731019,0,3998474,1001.8,45.07
256434750,0,3998474,1001.89996,45.11
256542018,0,3998474,1001.94,45.12
256649381,0,3998474,1002.0,45.12
256745357,0,3998474,1001.97,45.14
256841023,0,3998474,1001.98,45.149998
256955058,0,3998474,1001.95996,45.149998
257054479,0,3998474,1001.92,45.17
257160529,0,3998474,1001.87,45.17
257245199,0,3998474,1002.00995,45.17
257364917,0,3998474,1001.97,45.19
257464387,0,3998474,1001.89996,45.19
257550282,0,3998474,1001.97,45.2
257670260,0,3998474,1001.93,45.2
257768541,0,3998474,1001.88,45.21
257857031,0,3998474,1001.91,45.219997
257977162,0,3998474,1001.92,45.23
258072738,0,3998474,1001.88,45.23
258181611,0,3998474,1001.86,45.23
258278018,0,3998474,1001.82996,45.239998
258379018,0,3998474,1001.88995,45.25
258486368,0,3998474,1001.83997,45.25
258584538,0,3998474,1001.87,45.25
258683022,0,3998474,1001.86,45.26
258789496,0,3998474,1001.86,45.27
258893066,0,3998474,1001.83997,45.28
258979354,0,3998474,1001.85,45.27
259086124,0,3998474,1001.81,45.27
259198416,0,3998474,1001.73,45.28
259286364,0,3998474,1001.8,45.27
259398124,0,3998474,1001.88,45.28
259495043,0,3998474,1001.92,45.28
259598774,0,3998474,1001.87,45.28
259705418,0,3998474,1001.82996,45.289997
259810149,0,3998474,1001.88,45.289997
259902364,0,3998474,1001.87,45.289997
260011063,0,3998474,1001.85,45.3
260107042,0,3998474,1001.82,45.309998
260208051,0,3998474,1001.76996,45.3
260315060,0,3998474,1001.70996,45.309998
260419349,0,3998474,1001.81,45.32
260516407,0,3998474,1001.68,45.32
260622099,0,3998474,1001.69995,45.329998
260722745,0,3998474,1001.75995,45.329998
260822100,0,3998474,1001.79,45.32
260928590,0,3998474,1001.79,45.329998
261022353,0,3998474,1001.86,45.329998
261940019,0,3998474,1001.82,45.329998
262046019,0,3998474,1001.74,45.329998
262142018,0,3998474,1001.75,45.329998
262238095,0,3998474,1001.81,45.329998
262344336,0,3998474,1001.79,45.329998
262451588,0,3998474,1001.74,45.329998
262536695,0,3998474,1001.70996,45.329998
262656387,0,3998474,1001.82996,45.32
262754133,0,3998474,1001.74,45.309998
262843619,0,3998474,1001.75995,45.3
262961018,0,3998474,1001.69,45.309998
263057214,0,3998474,1001.81,45.3
263163787,0,3998474,1001.70996,45.3
263259572,0,3998474,1001.82996,45.289997
263355570,0,3998474,1001.81,45.289997
263470350,0,3998474,1001.75995,45.289997
263568386,0,3998474,1001.85,45.28
263654328,0,3998474,1001.74,45.28
263774099,0,3998474,1001.70996,45.27
263873986,0,3998474,1001.8,45.27
263958324,0,3998474,1001.79,45.27
264075617,0,3998474,1001.81,45.27
264174125,0,3998474,1001.88995,45.27
264261071,0,3998474,1001.87,45.27
264383405,0,3998474,1001.82,45.26
264481018,0,3998474,1001.82,45.25
264567739,0,3998474,1001.81,45.25
264684375,0,3998474,1001.88995,45.26
264784023,0,3998474,1001.86,45.27
264880030,0,3998474,1001.88,45.26
264991018,0,3998474,1001.87,45.26
265090018,0,3998474,1001.85,45.26
265192033,0,3998474,1001.94995,45.26
265288105,0,3998474,1001.86,45.26
265384030,0,3998474,1001.87,45.25
265494019,0,3998474,1001.86,45.25
265603930,0,3998474,1001.91,45.25
265690018,0,3998474,1001.86,45.26
265810019,0,3998474,1001.98,45.26
265908398,0,3998474,1001.88,45.27
265996845,0,3998474,1001.92,45.26
266116769,0,3998474,1001.87,45.27
266213856,0,3998474,1001.87,45.27
266300195,0,3998474,1001.85,45.27
266418018,0,3998474,1001.93,45.27
266524798,0,3998474,1001.88995,45.26
266613393,0,3998474,1001.87,45.26
266709423,0,3998474,1001.94,45.26
266829018,0,3998474,1001.79,45.26
266927073,0,3998474,1001.8,45.25
267015030,0,3998474,1001.83997,45.26
267141180,0,3998474,1001.82,45.26
267237171,0,3998474,1001.82,45.25
267332781,0,3998474,1001.82,45.25
267440033,0,3998474,1001.86,45.25
267549581,0,3998474,1001.83997,45.25
267636021,0,3998474,1001.83997,45.26
267745018,0,3998474,1001.89996,45.26
267848033,0,3998474,1001.81,45.25
267951023,0,3998474,1001.82996,45.239998
268059438,0,3998474,1001.88995,45.25
268157019,0,3998474,1001.83997,45.25
268255029,0,3998474,1001.85,45.25
268363937,0,3998474,1001.85,45.25
268461021,0,3998474,1001.89996,45.25
268560484,0,3998474,1001.82,45.239998
268649922,0,3998474,1001.88995,45.239998
268760018,0,3998474,1001.76996,45.239998
268866140,0,3998474,1001.86,45.239998
268962166,0,3998474,1001.87,45.25
269069019,0,3998474,1001.94,45.25
269166440,0,3998474,1001.91,45.239998
269264023,0,3998474,1001.81,45.239998
269374960,0,3998474,1001.88,45.239998
269473023,0,3998474,1001.94995,45.239998
269570018,0,3998474,1001.86,45.239998
269680018,0,3998474,1001.89996,45.239998
269779032,0,3998474,1001.87,45.239998
269879113,0,3998474,1001.86,45.239998
269968352,0,3998474,1001.81,45.23
270094895,0,3998474,1001.82,45.23
270192185,0,3998474,1001.85,45.239998
270288493,0,3998474,1001.89996,45.23
270397036,0,3998474,1001.88,45.23
270505074,0,3998474,1001.86,45.219997
270590948,0,3998474,1001.81,45.23
270701018,0,3998474,1001.92,45.219997
270800225,0,3998474,1001.89996,45.219997
270905978,0,3998474,1001.89996,45.219997
271010109,0,3998474,1001.94,45.219997
271107058,0,3998474,1001.94995,45.23
271203019,0,3998474,1001.83997,45.219997
271314124,0,3998474,1001.88995,45.21
271414972,0,3998474,1001.88995,45.21
271509018,0,3998474,1001.93,45.21
271619024,0,3998474,1001.95996,45.21
271723022,0,3998474,1001.94995,45.21
271826020,0,3998474,1001.99,45.21
271914295,0,3998474,1001.95996,45.2
272022492,0,3998474,1001.99,45.2
272125063,0,3998474,1002.0,45.2
272227031,0,3998474,1002.00995,45.2
272323018,0,3998474,1002.0,45.19
272437078,0,3998474,1001.98,45.18
272535637,0,3998474,1001.94,45.19
272643031,0,3998474,1001.93,45.18
272733018,0,3998474,1001.92,45.19
272841019,0,3998474,1001.95996,45.18
272938018,0,3998474,1002.01996,45.18
273036143,0,3998474,1001.99,45.19
273144018,0,3998474,1002.01996,45.19
273254021,0,3998474,1002.02997,45.19
273340337,0,3998474,1002.00995,45.18
273457494,0,3998474,1002.04,45.19
273556029,0,3998474,1001.98,45.18
273642018,0,3998474,1002.07,45.19
273761062,0,3998474,1002.01996,45.19
273857067,0,3998474,1002.01996,45.18
273964029,0,3998474,1002.07996,45.19
274062020,0,3998474,1002.02997,45.18
274159388,0,3998474,1001.99,45.18
274268360,0,3998474,1002.12,45.18
274367568,0,3998474,1002.06,45.18
274465192,0,3998474,1002.13,45.18
274571018,0,3998474,1002.04,45.18
274678306,0,3998474,1002.08997,45.17
274764023,0,3998474,1002.05,45.17
274874108,0,3998474,1002.06,45.17
274980018,0,3998474,1002.1,45.18
275065169,0,3998474,1002.1,45.17
275182021,0,3998474,1002.08997,45.17
275278018,0,3998474,1002.06,45.17
275385166,0,3998474,1002.1,45.17
275483018,0,3998474,1002.08997,45.17
275580030,0,3998474,1002.14996,45.17
275687018,0,3998474,1002.11,45.17
275793389,0,3998474,1002.07996,45.17
275878267,0,3998474,1002.1,45.17
275996018,0,3998474,1002.1,45.17
276092033,0,3998474,1002.19995,45.17
276198236,0,3998474,1002.14996,45.17
276295018,0,3998474,1002.23,45.17
276393182,0,3998474,1002.19,45.17
276502021,0,3998474,1002.17,45.16
276599018,0,3998474,1002.17,45.17
276698153,0,3998474,1002.20996,45.16
276805023,0,3998474,1002.23,45.16
276912387,0,3998474,1002.25,45.16
276998018,0,3998474,1002.20996,45.16
277109174,0,3998474,1002.24,45.149998
277215106,0,3998474,1002.29,45.16
277302347,0,3998474,1002.20996,45.16
277421232,0,3998474,1002.32996,45.16
277517341,0,3998474,1002.25995,45.149998
277624291,0,3998474,1002.3,45.16
277723324,0,3998474,1002.20996,45.149998
277818444,0,3998474,1002.32,45.149998
277925409,0,3998474,1002.3,45.149998
278021380,0,3998474,1002.31,45.149998
278117340,0,3998474,1002.31,45.149998
278224374,0,3998474,1002.31,45.149998
278331080,0,3998474,1002.37,45.16
278416394,0,3998474,1002.35,45.149998
278537071,0,3998474,1002.35,45.149998
278635022,0,3998474,1002.33997,45.149998
278741334,0,3998474,1002.33997,45.14
278837362,0,3998474,1002.44995,45.149998
278933020,0,3998474,1002.38,45.14
279043030,0,3998474,1002.44,45.149998
279141588,0,3998474,1002.42,45.149998
279239068,0,3998474,1002.5,45.149998
279347018,0,3998474,1002.47,45.149998
279445022,0,3998474,1002.43,45.149998
279542019,0,3998474,1002.49,45.149998
279649018,0,3998474,1002.44995,45.149998
279755324,0,3998474,1002.41,45.149998
279840523,0,3998474,1002.47,45.149998
279948980,0,3998474,1002.44995,45.14
280056403,0,3998474,1002.44995,45.14
280143019,0,3998474,1002.47,45.149998
280262029,0,3998474,1002.44,45.14
280357018,0,3998474,1002.43,45.14
280465022,0,3998474,1002.41,45.14
280565052,0,3998474,1002.49,45.14
280661018,0,3998474,1002.43,45.129997
280768018,0,3998474,1002.5,45.14
280863844,0,3998474,1002.45996,45.149998
280961022,0,3998474,1002.47,45.14
281068642,0,3998474,1002.51996,45.149998
281175467,0,3998474,1002.49,45.14
281260576,0,3998474,1002.47,45.14
281378089,0,3998474,1002.44995,45.14
281474138,0,3998474,1002.47,45.14
281580150,0,3998474,1002.5,45.149998
281676086,0,3998474,1002.48,45.14
281773022,0,3998474,1002.47,45.149998
281879785,0,3998474,1002.44995,45.149998
281986018,0,3998474,1002.43,45.14
282071791,0,3998474,1002.49,45.14
282189018,0,3998474,1002.48,45.149998
282285196,0,3998474,1002.47,45.14
282391581,0,3998474,1002.44,45.149998
282487793,0,3998474,1002.6,45.14
282583606,0,3998474,1002.44995,45.149998
283207758,0,3998474,1002.43,45.14
283607608,0,3998474,1002.50995,45.129997
283714324,0,3998474,1002.44,45.129997
283804209,0,3998474,1002.44,45.129997
283910441,0,3998474,1002.44995,45.129997
284020513,0,3998474,1002.45996,45.14
284109061,0,3998474,1002.48,45.14
284216018,0,3998474,1002.48,45.129997
284322019,0,3998474,1002.41,45.129997
284429763,0,3998474,1002.43,45.14
284526018,0,3998474,1002.49,45.14
284623731,0,3998474,1002.49,45.14
284734022,0,3998474,1002.49,45.129997
284832019,0,3998474,1002.55,45.14
284932018,0,3998474,1002.5,45.129997
285020020,0,3998474,1002.51996,45.129997
285138439,0,3998474,1002.50995,45.129997
285237365,0,3998474,1002.56,45.14
285325324,0,3998474,1002.5,45.129997
285447080,0,3998474,1002.47,45.12
285544018,0,3998474,1002.5,45.14
285630369,0,3998474,1002.48,45.129997
285751018,0,3998474,1002.51996,45.14
285849479,0,3998474,1002.52997,45.129997
285937341,0,3998474,1002.5,45.129997
286047326,0,3998474,1002.44995,45.129997
286157371,0,3998474,1002.48,45.129997
286245498,0,3998474,1002.5,45.129997
286355298,0,3998474,1002.5,45.14
286454779,0,3998474,1002.49,45.12
286551034,0,3998474,1002.52997,45.129997
286660072,0,3998474,1002.57,45.129997
286759018,0,3998474,1002.50995,45.129997
286857049,0,3998474,1002.49,45.12
286967325,0,3998474,1002.54,45.129997
287065023,0,3998474,1002.5,45.129997
287163602,0,3998474,1002.49,45.129997
287273022,0,3998474,1002.48,45.129997
