timestamp,lat,lon,alt,alt_ellipsoid,delta_alt,vel_n,vel_e,vel_d,yaw,eph,epv,terrain_alt,lat_lon_reset_counter,alt_reset_counter,terrain_alt_valid,dead_reckoning
133185271,49.08982230648127,2.110436515537731,86.56161,131.61832,-0.0,-0.18655159,0.37708417,-0.0141775375,-1.1931221,0.89574295,1.3663179,0.0,2,0,0,0
133385283,49.08982228631876,2.1104364884400635,86.56273,131.61575,-0.0,-0.18571138,0.37308258,-0.0138090225,-1.1931468,0.8954899,1.3660502,0.0,2,0,0,0
133993270,49.089822220195316,2.110436530786811,86.565895,131.60576,-0.0,-0.18816245,0.36781043,-0.015386832,-1.1929767,0.89503795,1.3664447,0.0,2,0,0,0
134201271,49.08982221182885,2.110436521528783,86.573494,131.60918,-0.0,-0.18741138,0.3642846,-0.016592331,-1.1930006,0.89512324,1.3665081,0.0,2,0,0,0
134401310,49.0898222032276,2.1104365300868615,86.57961,131.61058,-0.0,-0.18569902,0.36164448,-0.01832585,-1.1929358,0.89489913,1.3664705,0.0,2,0,0,0
134601276,49.08982219714571,2.1104365228965523,86.58484,131.61147,-0.0,-0.18508078,0.35786596,-0.02061419,-1.1929631,0.8947187,1.3664391,0.0,2,0,0,0
134809277,49.089822173192346,2.1104365587264406,86.58954,131.6114,-0.0,-0.18480825,0.35590258,-0.022379318,-1.1928563,0.89480364,1.3662452,0.0,2,0,0,0
135009271,49.08982215939045,2.1104365907030815,86.59647,131.6138,-0.0,-0.1835279,0.3528497,-0.024653561,-1.1928296,0.8945988,1.3662273,0.0,2,0,0,0
135208516,49.089822171237955,2.110436586011143,86.60436,131.61685,-0.0,-0.1806752,0.34964588,-0.025713785,-1.193015,0.8943912,1.3662162,0.0,2,0,0,0
135415704,49.089822199413156,2.1104365724604173,86.616585,131.6239,-0.0,-0.17648406,0.34453532,-0.02888234,-1.1931987,0.89451194,1.3663179,0.0,2,0,0,0
135616471,49.08982222674678,2.110436546383872,86.62261,131.62497,-0.0,-0.17322889,0.34035087,-0.029261997,-1.1931883,0.8943048,1.366304,0.0,2,0,0,0
135816482,49.08982226391132,2.1104365087190353,86.62692,131.62408,-0.0,-0.17004083,0.33524847,-0.030346034,-1.193251,0.89412457,1.3663099,0.0,2,0,0,0
136024470,49.08982230014959,2.1104364915072127,86.63536,131.62712,-0.0,-0.16671889,0.33036765,-0.03201296,-1.1925927,0.8942293,1.3661573,0.0,2,0,0,0
136224489,49.089822341352644,2.1104364425574538,86.63846,131.62451,-0.0,-0.16248806,0.32658395,-0.033706628,-1.1929219,0.89405495,1.3661803,0.0,2,0,0,0
136424470,49.08982237338197,2.1104364241290847,86.641655,131.62144,-0.0,-0.15626162,0.33102185,-0.062798336,-1.1919805,0.89389175,1.3662055,0.0,2,0,0,0
136632471,49.08982235204232,2.1104364553467394,86.67036,131.64398,-0.0,-0.21262224,0.34126845,-0.20358695,-1.1903826,0.89405066,1.3660699,0.0,2,0,0,0
136832478,49.08982224229615,2.1104364779594516,86.77418,131.74097,-0.0,-0.24941047,0.3097673,-0.704875,-1.1809062,0.8938936,1.3661039,0.0,2,0,0,0
137032487,49.08982205632868,2.110436441980584,86.9954,131.95433,-0.0,-0.28128126,0.28442731,-1.2165984,-1.1721827,0.8937861,1.3661203,0.0,2,0,0,0
137232477,49.08982181057696,2.1104362868409816,87.32205,132.27122,-0.0,-0.31827852,0.2635532,-1.5003592,-1.171245,0.89376473,1.3661407,0.0,2,0,0,0
137432470,49.08982149941258,2.1104360675427496,87.63215,132.56943,-0.0,-0.34350425,0.21754393,-1.3499979,-1.1746743,0.89378273,1.3664184,0.0,2,0,0,0
137640474,49.089821102809196,2.1104358343612626,87.84578,132.75937,-0.0,-0.3732222,0.218759,-0.6486364,-1.1749169,0.894107,1.3667823,0.0,2,0,0,0
137840478,49.089820684784684,2.110435534761843,87.90965,132.82324,-0.0,-0.39401552,0.20554836,-0.1276558,-1.1794899,0.89404875,1.3667276,0.0,2,0,0,0
138040471,49.089820235518836,2.1104352172332113,87.882286,132.77777,-0.0,-0.42663655,0.1891849,0.08916562,-1.1833787,0.8938975,1.3669461,0.0,2,0,0,0
138248470,49.08981973468832,2.110434890832778,87.844826,132.73201,-0.0,-0.4468966,0.19287054,0.030116413,-1.1880755,0.89406735,1.3669692,0.0,2,0,0,0
139464470,49.089814998419,2.1104334195951218,89.01711,133.84608,-0.0,-0.71708953,0.19140004,-1.4717436,-1.1499007,0.89710647,1.3666469,0.0,2,0,0,0
139664470,49.089813889333946,2.1104331758962704,89.309044,134.12895,-0.0,-0.75968015,0.183404,-1.5237627,-1.1485443,0.8977992,1.3665805,0.0,2,0,0,0
139867702,49.08981267269402,2.1104330016969857,89.59942,134.40967,-0.0,-0.7958024,0.1893797,-1.4365104,-1.1496761,0.89850765,1.3667953,0.0,2,0,0,0
140067679,49.08981140383548,2.110432900423542,89.865486,134.66806,-0.0,-0.835603,0.20910926,-1.4602921,-1.15153,0.89934176,1.3667855,0.0,2,0,0,0
140267671,49.089810104590065,2.110432751482795,90.1453,134.9397,-0.0,-0.8623665,0.19200358,-1.4311814,-1.1534604,0.8999365,1.3667213,0.0,2,0,0,0
140475673,49.08980872558011,2.1104325964589212,90.42936,135.21832,-0.0,-0.89287066,0.1992103,-1.4224491,-1.1550968,0.900785,1.3667792,0.0,2,0,0,0
140676471,49.08980733983539,2.1104323916450864,90.7173,135.50009,-0.0,-0.9116882,0.19815837,-1.4684709,-1.1559243,0.90124726,1.3667116,0.0,2,0,0,0
140875697,49.089805938211114,2.110432189666051,91.00835,135.7858,-0.0,-0.9287467,0.20352285,-1.5011808,-1.155611,0.9016377,1.3669152,0.0,2,0,0,0
141083708,49.089804459183,2.1104318953554166,91.31266,136.08615,-0.0,-0.9464256,0.19723938,-1.4559351,-1.1529891,0.89502597,1.3667185,0.0,2,0,0,0
141283670,49.089803023921284,2.1104316005739356,91.59353,136.3636,-0.0,-0.9535437,0.19355139,-1.4833329,-1.1506946,0.9029279,1.3668782,0.0,2,0,0,0
141491702,49.08980153035799,2.1104312173947393,91.90812,136.67531,-0.0,-0.9598109,0.20331162,-1.5992724,-1.1508353,0.8959165,1.3666711,0.0,2,0,0,0
141691671,49.08980009246539,2.1104309015117053,92.140366,136.90594,-0.0,-0.9498236,0.1833009,-0.63111734,-1.1508136,0.8962676,1.3668715,0.0,2,0,0,0
141891688,49.08979864066585,2.110430500691923,92.14434,136.9114,-0.0,-0.9597416,0.18886885,0.108820714,-1.1511753,0.9048846,1.3667423,0.0,2,0,0,0
142099675,49.08979718689795,2.110430025173617,92.10791,136.87733,-0.0,-0.94357514,0.18522595,0.03272482,-1.1513636,0.8971763,1.3665642,0.0,2,0,0,0
142299671,49.08979575493607,2.1104295459089086,92.12012,136.89148,-0.0,-0.9310874,0.16673261,-0.052289587,-1.1535001,0.89746463,1.3665189,0.0,2,0,0,0
142499702,49.089794301914345,2.1104291153719354,92.08966,136.86353,-0.0,-0.9174106,0.16057502,0.45203885,-1.164524,0.8977502,1.3664745,0.0,2,0,0,0
142699720,49.08979288679261,2.110428672260263,91.95184,136.72968,-0.0,-0.9173296,0.17259751,0.75663877,-1.2359498,0.89806557,1.366447,0.0,2,0,0,0
142899677,49.08979144207303,2.110428258022795,91.796814,136.57927,-0.0,-0.91040975,0.15652335,0.67706186,-1.3488868,0.8983149,1.3664355,0.0,2,0,0,0
143107677,49.08978993221848,2.110427827281272,91.66093,136.44756,-0.0,-0.92047805,0.18033618,0.6571349,-1.4957237,0.8989121,1.3662728,0.0,2,0,0,0
143307670,49.08978847583901,2.1104274871784203,91.527435,136.3183,-0.0,-0.9074757,0.17948496,0.71508086,-1.6616607,0.8991486,1.3662924,0.0,2,0,0,0
143507711,49.0897870559444,2.1104272650295086,91.40988,136.2045,-0.0,-0.8900881,0.19521466,0.6316778,-1.9121083,0.89930093,1.366567,0.0,2,0,0,0
143707689,49.08978567223877,2.1104271108704364,91.297714,136.09555,-0.0,-0.89161086,0.22870858,0.6690603,-2.1147962,0.89946395,1.3665446,0.0,2,0,0,0
143915671,49.0897842114681,2.1104271207168055,91.191284,135.99295,-0.0,-0.8667569,0.2637925,0.3360081,-2.1485548,0.8997963,1.3663638,0.0,2,0,0,0
144115677,49.0897828332172,2.110427112936047,91.19363,135.99718,-0.0,-0.8530293,0.28762832,-0.097001396,-2.1280417,0.8998435,1.3663621,0.0,2,0,0,0
144315670,49.089781465596985,2.1104271114890976,91.21022,136.01476,-0.0,-0.8277854,0.29055873,0.039475612,-2.101192,0.89990526,1.3663713,0.0,2,0,0,0
144514896,49.0897800688978,2.1104271076839582,91.20179,136.00743,-0.0,-0.82956314,0.29405802,0.12881534,-2.0785718,0.8999501,1.3666637,0.0,2,0,0,0
144714870,49.089778632789155,2.1104271748055448,91.19634,136.00308,-0.0,-0.8286392,0.30212077,0.013222627,-2.0658326,0.8999608,1.3666377,0.0,2,0,0,0
144922870,49.08977709823831,2.1104272932909174,91.20415,136.01134,-0.0,-0.8202459,0.3151486,0.12457755,-2.0591977,0.90036875,1.3667248,0.0,2,0,0,0
145122870,49.089775588778316,2.110427422476963,91.11374,135.92215,-0.0,-0.82785165,0.31435445,0.7928978,-2.0574222,0.9003047,1.3666767,0.0,2,0,0,0
145322911,49.08977404797511,2.110427605722206,90.94096,135.75189,-0.0,-0.8362797,0.31651717,0.863708,-2.0568151,0.9001905,1.3669161,0.0,2,0,0,0
145522871,49.08977250786664,2.1104278283961757,90.78872,135.6012,-0.0,-0.8327218,0.33505926,0.7209359,-2.0564232,0.90015084,1.3668599,0.0,2,0,0,0
145730890,49.08977086905867,2.1104281103769584,90.6291,135.4435,-0.0,-0.8378309,0.32323122,0.7879825,-2.056664,0.90042907,1.3668993,0.0,2,0,0,0
145930871,49.08976927493907,2.1104283707844598,90.46533,135.2823,-0.0,-0.8488108,0.32122993,0.7625712,-2.0554597,0.90036047,1.3671038,0.0,2,0,0,0
146138871,49.08976760300396,2.110428567456064,90.30476,135.12419,-0.0,-0.8601319,0.3085507,0.69168824,-2.0548086,0.90061295,1.3668336,0.0,2,0,0,0
146338921,49.08976595495469,2.1104286938013446,90.164215,134.98604,-0.0,-0.8783402,0.27738288,0.6719938,-2.0566552,0.9005719,1.3670518,0.0,2,0,0,0
146538871,49.08976428021075,2.1104288209893,90.018776,134.84364,-0.0,-0.8710583,0.26859987,0.69742715,-2.0601323,0.90048164,1.3669579,0.0,2,0,0,0
146738870,49.089762568819,2.1104289051293765,89.8762,134.70404,-0.0,-0.8785519,0.2554082,0.66713643,-2.0622745,0.900437,1.3668588,0.0,2,0,0,0
146946874,49.0897607866017,2.1104289580452913,89.751976,134.58223,-0.0,-0.8834062,0.25263223,0.31102714,-2.0639172,0.9007322,1.3668864,0.0,2,0,0,0
147146882,49.089759060518226,2.110428984869642,89.7684,134.59988,-0.0,-0.89841586,0.24159063,-0.328818,-2.0639272,0.9006606,1.3665347,0.0,2,0,0,0
147346873,49.08975729581434,2.110428969009554,89.98192,134.81195,-0.0,-0.90363103,0.22373492,-1.6284469,-2.0600379,0.90063256,1.3667654,0.0,2,0,0,0
147546871,49.089755521538954,2.110428935141747,90.31092,135.1375,-0.0,-0.89920336,0.2121415,-1.511282,-2.05996,0.9006555,1.3667011,0.0,2,0,0,0
147754870,49.08975370375448,2.110428829117419,90.60162,135.42496,-0.0,-0.87296605,0.19705738,-1.4050157,-2.064132,0.90105295,1.36674,0.0,2,0,0,0
147954925,49.08975198627334,2.110428714018422,90.879395,135.69974,-0.0,-0.8592979,0.16879177,-1.413879,-2.0685878,0.90101355,1.3669502,0.0,2,0,0,0
148154871,49.08975029159737,2.1104285409145183,91.16643,135.98521,-0.0,-0.8533645,0.1531365,-1.452259,-2.0719337,0.90098286,1.366859,0.0,2,0,0,0
148362894,49.08974854866945,2.1104283698193127,91.46678,136.28493,-0.0,-0.8497125,0.12729213,-1.4439557,-2.074274,0.9012692,1.3666027,0.0,2,0,0,0
148562873,49.08974687709883,2.1104282207332243,91.749954,136.56808,-0.0,-0.83770466,0.12274597,-1.391396,-2.080328,0.90117866,1.3668333,0.0,2,0,0,0
148770871,49.08974514725881,2.110428045540465,92.0895,136.90805,-0.0,-0.838138,0.11101085,-1.7855643,-2.0839791,0.90142775,1.366583,0.0,2,0,0,0
148974070,49.089743445824475,2.1104278583218328,92.49115,137.30948,-0.0,-0.8616442,0.08061256,-2.0176854,-2.087073,0.90136427,1.3667947,0.0,2,0,0,0
149174871,49.08974172591615,2.110427685759042,92.94523,137.7628,-0.0,-0.87438923,0.08353397,-2.3870604,-2.0856721,0.9014253,1.3667846,0.0,2,0,0,0
149374078,49.089739944470715,2.1104274533418983,93.47245,138.28864,-0.0,-0.9177371,0.07928922,-2.8316302,-2.0849128,0.90134734,1.3667349,0.0,2,0,0,0
149574071,49.08973805995172,2.1104272216532816,94.076996,138.89113,-0.0,-0.986751,0.09539372,-3.272211,-2.0838203,0.9012256,1.3666704,0.0,2,0,0,0
149782070,49.08973599353164,2.11042706935827,94.81946,139.62918,-0.0,-1.0361421,0.14172557,-3.876202,-2.0803418,0.9015062,1.3667165,0.0,2,0,0,0
149982079,49.08973392958163,2.1104270896385597,95.6479,140.45157,-0.0,-1.0953318,0.1833294,-4.4375668,-2.0774534,0.901423,1.3666699,0.0,2,0,0,0
150182070,49.08973174443568,2.110427175711684,96.60921,141.40805,-0.0,-1.1507514,0.21824801,-5.2449374,-2.0758638,0.9014228,1.3663507,0.0,2,0,0,0
150382072,49.08972945704813,2.1104273386008057,97.719345,142.51169,-0.0,-1.1961147,0.24154525,-5.6828194,-2.0774431,0.9014559,1.3663213,0.0,2,0,0,0
150582070,49.089727097668586,2.110427528734772,98.82923,143.61421,-0.0,-1.2468468,0.23176216,-5.6580462,-2.0792322,0.90151423,1.3662962,0.0,2,0,0,0
150790072,49.08972458940787,2.110427731930881,99.97175,144.75029,-0.0,-1.2846966,0.23548016,-5.669948,-2.0790195,0.90190583,1.3663893,0.0,2,0,0,0
150990072,49.089722136629156,2.1104279413944624,101.07048,145.84317,-0.0,-1.3109623,0.24821626,-5.728839,-2.0772429,0.9019289,1.3663784,0.0,2,0,0,0
151190095,49.08971964418369,2.1104281632931707,102.166214,146.93259,-0.0,-1.3382256,0.24907243,-5.7350416,-2.0752354,0.9019448,1.3663497,0.0,2,0,0,0
151398077,49.08971699235068,2.1104283830039408,103.31036,148.0716,-0.0,-1.3902582,0.23498775,-5.6948185,-2.076509,0.9023396,1.3664345,0.0,2,0,0,0
151598070,49.08971435553532,2.110428574046826,104.41552,149.17386,-0.0,-1.4321499,0.22210634,-5.760768,-2.0755196,0.902344,1.3664153,0.0,2,0,0,0
151806078,49.08971153156998,2.1104287227188103,105.56016,150.31621,-0.0,-1.4730268,0.2119571,-5.43591,-2.0755334,0.9026173,1.3665091,0.0,2,0,0,0
152006076,49.089708788764995,2.110428831703014,106.46446,151.21921,-0.0,-1.494839,0.19972973,-3.9715183,-2.0764692,0.9024609,1.3662195,0.0,2,0,0,0
152206071,49.089706019681294,2.1104289037439954,107.03276,151.79114,-0.0,-1.5080577,0.18585004,-2.2209535,-2.0792875,0.9022511,1.3662175,0.0,2,0,0,0
152414070,49.08970311795192,2.1104289745391798,107.257416,152.02562,-0.0,-1.5197006,0.18230076,-0.41825336,-2.0825658,0.9022359,1.3663336,0.0,2,0,0,0
152614077,49.089700299698585,2.11042904400464,107.2352,152.01807,-0.0,-1.5442697,0.18348478,0.10209495,-2.0803742,0.9017703,1.3660691,0.0,2,0,0,0
152814078,49.0896974318811,2.110429167808335,107.24463,152.04451,-0.0,-1.5922478,0.20638569,-0.24338563,-2.0767698,0.90129614,1.3660836,0.0,2,0,0,0
153014090,49.08969449376122,2.110429337378593,107.41199,152.22775,-0.0,-1.6326002,0.18982399,-0.62510824,-2.071621,0.9009371,1.3663725,0.0,2,0,0,0
153222071,49.0896913804643,2.1104295080068023,107.49857,152.3297,-0.0,-1.6529645,0.20038414,0.048783537,-2.0713344,0.9010083,1.366472,0.0,2,0,0,0
153421275,49.08968833221231,2.1104296753338447,107.49627,152.34412,-0.0,-1.6823651,0.20502825,0.18428661,-2.0711613,0.90072834,1.366192,0.0,2,0,0,0
153625270,49.08968516103192,2.110429916850132,107.50639,152.37004,-0.0,-1.7081932,0.22677808,0.02226287,-2.070565,0.90081257,1.366296,0.0,2,0,0,0
153825271,49.089682017845576,2.1104302022265835,107.52062,152.39989,-0.0,-1.7318451,0.24441332,0.12849875,-2.0726776,0.9004945,1.3662523,0.0,2,0,0,0
154025271,49.0896788313817,2.110430498117858,107.51788,152.4131,-0.0,-1.7521405,0.2662777,0.095153585,-2.0737915,0.90034956,1.3662716,0.0,2,0,0,0
154233283,49.08967547326575,2.11043079827284,107.51819,152.42694,-0.0,-1.7871693,0.256713,0.17432922,-2.07421,0.9006268,1.3663847,0.0,2,0,0,0
154433271,49.08967221940696,2.110431134619959,107.50718,152.43004,-0.0,-1.7872249,0.27801245,0.16101786,-2.07507,0.9005992,1.3663768,0.0,2,0,0,0
154633277,49.08966894196251,2.1104314975091434,107.50636,152.44205,-0.0,-1.7954142,0.30538014,0.17171215,-2.075849,0.9006104,1.3663737,0.0,2,0,0,0
154833271,49.089665658548746,2.1104318895156897,107.49227,152.44044,-0.0,-1.8248545,0.3059244,0.13416803,-2.0753765,0.900652,1.3663774,0.0,2,0,0,0
155041293,49.089662161697746,2.110432111972858,107.50654,152.47751,-0.0,-1.9490203,0.10079358,-0.04418486,-2.0715451,0.9010124,1.3662168,0.0,2,0,0,0
155241271,49.089658438355876,2.1104313027980903,107.539505,152.51047,-0.0,-2.258818,-0.42699146,-0.02690444,-2.0710258,0.9011259,1.3662295,0.0,2,0,0,0
155449271,49.08965409629807,2.110429020245359,107.56226,152.55157,-0.0,-2.3830898,-0.8828475,0.10511598,-2.068283,0.9015309,1.3660768,0.0,2,0,0,0
155649285,49.08965030820264,2.110425405526659,107.62048,152.61638,-0.0,-1.7473743,-1.382225,-0.2863365,-2.0445895,0.901617,1.3663598,0.0,2,0,0,0
155849277,49.08964798185107,2.1104204906043176,107.70117,152.69707,-0.0,-0.89210224,-1.786271,-0.008103501,-2.0453274,0.90165645,1.3663137,0.0,2,0,0,0
156057324,49.08964736749116,2.110414226204866,107.73541,152.74326,-0.0,0.16382231,-2.252857,0.119134866,-2.047494,0.90196234,1.3663087,0.0,2,0,0,0
156257347,49.08964838364518,2.1104072455474587,107.752335,152.7651,-0.0,0.720435,-2.4477196,0.19226913,-2.055748,0.9019785,1.3664122,0.0,2,0,0,0
156457308,49.0896499314278,2.1104001591237207,107.758545,152.7748,-0.0,0.81476545,-2.350203,0.24791624,-2.0673327,0.9020461,1.366186,0.0,2,0,0,0
156657336,49.08965165244051,2.1103940748302867,107.77683,152.79405,-0.0,1.0434716,-1.7611145,-0.02677772,-2.077118,0.90219504,1.3659451,0.0,2,0,0,0
156865291,49.089654058998455,2.1103900917805047,107.83455,152.85117,-0.0,1.4533726,-0.8748564,0.050724614,-2.084466,0.9027246,1.3657787,0.0,2,0,0,0
157065291,49.08965693737307,2.1103883732618653,107.841675,152.85709,-0.0,1.6766539,-0.2168737,0.18023103,-2.0812836,0.90296793,1.3657469,0.0,2,0,0,0
157273308,49.089660189430575,2.110387840899193,107.85211,152.86433,-0.0,1.8546039,-0.035291117,0.08891204,-2.0507565,0.90372336,1.3657662,0.0,2,0,0,0
157473315,49.08966382868714,2.110387066509472,107.88162,152.88875,-0.0,2.3060834,-0.38251787,0.1623481,-2.0744016,0.9042667,1.3654311,0.0,2,0,0,0
157671690,49.089668648992316,2.110385041749597,107.8817,152.88278,-0.0,3.0896964,-0.91723645,0.25006717,-2.0711534,0.904777,1.3651079,0.0,2,0,0,0
157871709,49.089674886271006,2.1103814523059943,107.86322,152.85698,-0.0,3.8358426,-1.449372,0.28492144,-2.0732617,0.90514773,1.3647897,0.0,2,0,0,0
158074908,49.089682011741694,2.110376854927211,107.8097,152.79727,-0.0,4.0515165,-1.667569,0.40778017,-2.080928,0.9055984,1.3645182,0.0,2,0,0,0
158280479,49.08968930476449,2.1103720092174707,107.76713,152.74693,-0.0,3.8321881,-1.6412491,0.3050369,-2.074839,0.90654176,1.3641281,0.0,2,0,0,0
158480477,49.08969602740906,2.110367341076106,107.77086,152.73929,-0.0,3.561606,-1.5739121,0.29561698,-2.0603251,0.9069229,1.3638787,0.0,2,0,0,0
158680481,49.089702218861895,2.1103629093983023,107.790436,152.74496,-0.0,3.2327776,-1.4776682,0.28331754,-2.0474045,0.907229,1.363659,0.0,2,0,0,0
158888488,49.089707790878485,2.11035879036029,107.81889,152.75723,-0.0,2.632586,-1.2455461,0.17672135,-2.0398078,0.90784246,1.3635254,0.0,2,0,0,0
159088471,49.089711991737495,2.110355607698087,107.8419,152.76193,-0.0,1.9915955,-0.93000233,0.30233595,-2.0247808,0.89873326,1.363238,0.0,2,0,0,0
159288471,49.08971510010983,2.1103532730037178,107.795494,152.69513,-0.0,1.3619165,-0.609466,0.4127998,-2.018568,0.9080566,1.3631552,0.0,2,0,0,0
159488505,49.08971700550325,2.110351848191454,107.715805,152.59573,-0.0,0.7301507,-0.28861305,0.34368488,-2.021256,0.8987457,1.3629131,0.0,2,0,0,0
159688479,49.08971776695896,2.110351155279767,107.618744,152.47836,-0.0,0.14285439,-0.044116486,0.26460913,-2.0386195,0.90801436,1.3628912,0.0,2,0,0,0
159896490,49.08971759164454,2.110350955865979,107.510605,152.34943,-0.0,-0.2671197,0.071612574,0.2145614,-2.055407,0.90840715,1.3628714,0.0,2,0,0,0
160096471,49.08971690363825,2.1103508254520498,107.40235,152.22186,-0.0,-0.44925892,0.06685583,0.11725096,-2.0735092,0.8989681,1.3627205,0.0,2,0,0,0
160904490,49.089712574135376,2.1103490625376993,106.761765,151.50607,-0.0,-0.6850463,-0.07133746,0.8503646,-2.0889285,0.89955395,1.3632548,0.0,2,0,0,0
161104471,49.089711204229026,2.110348433861599,106.50925,151.23877,-0.0,-0.7597246,-0.10092783,0.8911128,-2.0805602,0.89958954,1.3633497,0.0,2,0,0,0
161304471,49.089709702423065,2.1103476883779675,106.27728,150.99301,-0.0,-0.8295942,-0.13146463,0.81445855,-2.0747046,0.89960444,1.3634799,0.0,2,0,0,0
161504471,49.089708085158925,2.110346946509223,106.06941,150.77206,-0.0,-0.8952849,-0.14609218,0.8051908,-2.0723062,0.8996383,1.3638308,0.0,2,0,0,0
161712471,49.08970629182576,2.1103461885976147,105.85421,150.54474,-0.0,-0.95687824,-0.14817998,0.8139511,-2.072672,0.9000175,1.3640835,0.0,2,0,0,0
161911671,49.08970446380889,2.110345486490359,105.64155,150.321,-0.0,-1.0097197,-0.16726753,0.840366,-2.075023,0.8999593,1.3642641,0.0,2,0,0,0
162119683,49.089702542392736,2.110344677306251,105.41525,150.08578,-0.0,-1.0349324,-0.18359677,0.9124861,-2.0774426,0.90031034,1.3645318,0.0,2,0,0,0
162319677,49.08970067988929,2.1103439210909345,105.20034,149.8617,-0.0,-1.0110486,-0.1464461,0.8399504,-2.0779562,0.90032923,1.3647114,0.0,2,0,0,0
162519701,49.089698884420606,2.110343262889831,105.020256,149.67294,-0.0,-0.96269715,-0.11477178,0.7989669,-2.078007,0.90035933,1.3651348,0.0,2,0,0,0
162719679,49.0896972186987,2.110342577532921,104.83266,149.47696,-0.0,-0.8479783,-0.13246538,0.8586814,-2.080358,0.9003743,1.365543,0.0,2,0,0,0
162927674,49.08969574430337,2.1103416391969803,104.63294,149.26875,-0.0,-0.6972654,-0.2456563,0.91207165,-2.081118,0.9006608,1.365531,0.0,2,0,0,0
163127671,49.08969466544342,2.110340449675852,104.44675,149.07483,-0.0,-0.49363276,-0.38452014,0.9029769,-2.0799842,0.9006099,1.3656723,0.0,2,0,0,0
163327677,49.08969395266671,2.1103389002227226,104.2643,148.88547,-0.0,-0.30004528,-0.5412258,0.96510255,-2.0807889,0.9005624,1.3663197,0.0,2,0,0,0
163527702,49.089693595475474,2.1103369876747866,104.07235,148.6869,-0.0,-0.13116673,-0.66377354,0.95557433,-2.0820596,0.90049714,1.3661262,0.0,2,0,0,0
163735694,49.08969346594976,2.1103347447538963,103.88536,148.49326,-0.0,-0.008893493,-0.7160137,0.99218446,-2.0811515,0.9006883,1.36632,0.0,2,0,0,0
163935671,49.08969346416396,2.110332596788989,103.70978,148.31105,-0.0,0.065194845,-0.6680616,0.9645356,-2.0813208,0.90045816,1.3661264,0.0,2,0,0,0
164143680,49.08969350798844,2.1103304398463285,103.5222,148.1173,-0.0,0.059346065,-0.63082105,1.0263095,-2.0817237,0.9006626,1.3663207,0.0,2,0,0,0
164343670,49.08969351684626,2.1103284495961008,103.34383,147.93155,-0.0,0.039536312,-0.6007948,1.0591372,-2.080356,0.9005175,1.3661265,0.0,2,0,0,0
164543671,49.08969345780317,2.1103265381804532,103.16899,147.7494,-0.0,0.0013033529,-0.5857584,1.0565549,-2.0769525,0.9003803,1.3662056,0.0,2,0,0,0
164751702,49.089693329118084,2.110324639573351,102.98326,147.55672,-0.0,-0.041064296,-0.5872705,1.0854747,-2.0741374,0.9005857,1.3663925,0.0,2,0,0,0
164951671,49.08969315694112,2.1103228336437985,102.80003,147.3657,-0.0,-0.051490277,-0.57069546,1.0919013,-2.0723681,0.9004615,1.366431,0.0,2,0,0,0
165151702,49.08969296120423,2.11032105360611,102.61077,147.1684,-0.0,-0.06458684,-0.5510508,1.097518,-2.0727851,0.9003888,1.366467,0.0,2,0,0,0
165359704,49.08969274785954,2.1103192463146425,102.42554,146.97385,-0.0,-0.08781118,-0.54025793,1.1084163,-2.0707445,0.90062654,1.366331,0.0,2,0,0,0
165559672,49.08969252514931,2.110317580792915,102.24091,146.77887,-0.0,-0.087310664,-0.50533164,1.1105462,-2.066831,0.9005356,1.3663616,0.0,2,0,0,0
165759699,49.08969231546703,2.110316038011646,102.04742,146.57446,-0.0,-0.08561339,-0.46677747,1.1508334,-2.06186,0.90045255,1.3663899,0.0,2,0,0,0
165958892,49.08969212178881,2.110314625147712,101.85216,146.3677,-0.0,-0.081102386,-0.40612745,1.0972848,-2.0545626,0.9003292,1.3664076,0.0,2,0,0,0
166167671,49.08969193468033,2.1103132840395413,101.646835,146.1518,-0.0,-0.081276245,-0.33916274,1.1022031,-2.0505633,0.900632,1.3665121,0.0,2,0,0,0
166366887,49.08969175936494,2.110312228029236,101.446465,145.93866,-0.0,-0.073440515,-0.2598904,1.0999029,-2.0505068,0.90055156,1.3670471,0.0,2,0,0,0
166574871,49.08969156592744,2.1103114029366123,101.234,145.71342,-0.0,-0.08457776,-0.18678863,1.0786948,-2.0550683,0.9008436,1.3670856,0.0,2,0,0,0
166774870,49.089691380646556,2.1103108227617704,101.04715,145.51294,-0.0,-0.08187255,-0.11582296,1.0718795,-2.0624976,0.9008072,1.3670048,0.0,2,0,0,0
166974871,49.089691194508156,2.110310386373495,100.843506,145.29504,-0.0,-0.06983341,-0.04444335,1.1038918,-2.0648932,0.9007913,1.3669207,0.0,2,0,0,0
167182870,49.08969103171542,2.110310098263827,100.626785,145.0643,-0.0,-0.0511512,0.00077363936,1.0941309,-2.066996,0.9011132,1.3669506,0.0,2,0,0,0
167382871,49.08969094080332,2.110309971306508,100.4152,144.83832,-0.0,-0.0053041256,0.04814458,1.0848658,-2.0694594,0.9011031,1.3668679,0.0,2,0,0,0
167590934,49.08969090614534,2.1103100157430466,100.19469,144.60286,-0.0,0.017619025,0.12918508,1.0539619,-2.0721927,0.9014332,1.3668886,0.0,2,0,0,0
167790871,49.08969091253523,2.1103103224370514,99.98609,144.37883,-0.0,0.040594984,0.24630922,1.0611739,-2.071218,0.901427,1.367074,0.0,2,0,0,0
167990870,49.08969095411524,2.110310938038299,99.787155,144.16315,-0.0,0.049720872,0.33644253,1.0391386,-2.068609,0.9012987,1.3669562,0.0,2,0,0,0
168198874,49.08969099020652,2.11031182317879,99.57888,143.94113,-0.0,0.057384353,0.40253213,1.0544896,-2.0638163,0.9016316,1.3669581,0.0,2,0,0,0
168398870,49.08969100266942,2.1103128527345323,99.37901,143.72699,-0.0,0.05046489,0.45783064,1.04134,-2.0602853,0.9015899,1.367135,0.0,2,0,0,0
168598873,49.08969099230151,2.1103140111861616,99.17697,143.51122,-0.0,0.04433129,0.5043756,1.0310895,-2.062711,0.90153885,1.3670053,0.0,2,0,0,0
168798878,49.089690938330236,2.1103152184223872,98.97811,143.29991,-0.0,0.009047405,0.51369834,1.0682911,-2.0683446,0.90152127,1.3671719,0.0,2,0,0,0
169006877,49.08969082174979,2.110316452192285,98.76264,143.07175,-0.0,-0.019623222,0.4891698,1.0454897,-2.07305,0.9018294,1.3671583,0.0,2,0,0,0
169206908,49.089690643460536,2.1103175132586744,98.5612,142.8583,-0.0,-0.028572157,0.46134388,1.0310636,-2.0777588,0.90172243,1.3670292,0.0,2,0,0,0
169406906,49.08969043007567,2.1103184312326952,98.36221,142.64796,-0.0,-0.045453932,0.37450573,1.0339669,-2.0797825,0.9016134,1.3668952,0.0,2,0,0,0
169606884,49.089690276683925,2.110319155902115,98.160805,142.43523,-0.0,0.01574155,0.31083226,1.0293379,-2.080288,0.9014817,1.3670574,0.0,2,0,0,0
169814870,49.089690274763235,2.110319633505562,97.95918,142.22266,-0.0,0.097124934,0.1975179,1.0244683,-2.0792794,0.90169156,1.3670399,0.0,2,0,0,0
170013297,49.089690415248086,2.110319782451817,97.7661,142.01822,-0.0,0.19022176,0.10341799,1.0469323,-2.0768633,0.90147877,1.3669072,0.0,2,0,0,0
170221289,49.089690737796715,2.110319663796708,97.55635,141.79813,-0.0,0.27586827,0.003041108,1.047655,-2.074441,0.9014894,1.3668416,0.0,2,0,0,0
170422086,49.08969122665392,2.1103192960980155,97.35967,141.59094,-0.0,0.3532862,-0.08069057,1.0237063,-2.0771513,0.9013848,1.3670397,0.0,2,0,0,0
170622071,49.08969184447727,2.110318744759778,97.17718,141.39719,-0.0,0.40066049,-0.12458147,1.0385399,-2.0850382,0.90111244,1.3669201,0.0,2,0,0,0
170822071,49.089692474299234,2.1103181598158582,96.98328,141.19157,-0.0,0.3900655,-0.11792601,1.0754416,-2.0883203,0.90088785,1.3668224,0.0,2,0,0,0
171022080,49.089693014701695,2.1103176845422964,96.77688,140.97269,-0.0,0.32449457,-0.08210715,1.1118351,-2.08899,0.9006332,1.3667426,0.0,2,0,0,0
171230078,49.089693466568,2.11031729218293,96.549255,140.7328,-0.0,0.2566288,-0.04718328,1.0946914,-2.0898852,0.90079916,1.366502,0.0,2,0,0,0
171430077,49.089693779553585,2.1103170414495307,96.34314,140.5145,-0.0,0.18160099,0.008357474,1.0866456,-2.091618,0.90070397,1.3664571,0.0,2,0,0,0
171630077,49.089693947757745,2.110316937855748,96.139915,140.29733,-0.0,0.105892494,0.04988113,1.0423275,-2.09517,0.9005842,1.3664241,0.0,2,0,0,0
171830073,49.08969401414067,2.1103169843089065,95.94038,140.08432,-0.0,0.02894003,0.08527937,1.1208073,-2.092774,0.90048903,1.3664019,0.0,2,0,0,0
172038095,49.08969400769977,2.1103171206173834,95.726,139.85605,-0.0,-0.0071082977,0.13785322,1.0986739,-2.0852556,0.9007219,1.3662233,0.0,2,0,0,0
172238073,49.08969393834962,2.110317336448011,95.51667,139.63252,-0.0,-0.06123584,0.16372049,1.0191131,-2.0749977,0.9005885,1.3664849,0.0,2,0,0,0
172638072,49.089693563372926,2.1103181300711245,95.10755,139.19415,-0.0,-0.109120995,0.24059233,0.97338504,-2.0641127,0.90053546,1.3661749,0.0,2,0,0,0
172846115,49.08969330942903,2.1103187590446386,94.89068,138.94794,-0.0,-0.12798993,0.315783,0.9318638,-2.0613632,0.9009202,1.3662845,0.0,2,0,0,0
173046070,49.08969305436179,2.110319576529291,94.68397,138.72633,-0.0,-0.11777121,0.41160056,0.8881011,-2.0629342,0.9009804,1.3662921,0.0,2,0,0,0
173254077,49.08969274415582,2.1103206228493527,94.48228,138.51047,-0.0,-0.13532415,0.46886495,0.8556196,-2.0686214,0.90138566,1.3661362,0.0,2,0,0,0
173454084,49.089692412799984,2.1103217277501307,94.279175,138.2936,-0.0,-0.1388024,0.50857425,0.89366823,-2.0804281,0.9014454,1.3661565,0.0,2,0,0,0
173654071,49.0896920726447,2.1103229655411817,94.084854,138.08609,-0.0,-0.13902667,0.553626,0.80258113,-2.0951014,0.9015127,1.3661766,0.0,2,0,0,0
173862115,49.089691736366184,2.110324386251136,93.895386,137.88313,-0.0,-0.13770929,0.57987446,0.9030412,-2.1066208,0.9019283,1.3660419,0.0,2,0,0,0
174062074,49.089691404710415,2.1103257714891686,93.7066,137.68259,-0.0,-0.16544798,0.54627293,0.8555653,-2.101968,0.90195054,1.3660746,0.0,2,0,0,0
174269296,49.08969102745282,2.1103271407298974,93.523056,137.48695,-0.0,-0.15598391,0.5169295,0.7816801,-2.0851612,0.9022848,1.3662051,0.0,2,0,0,0
174470071,49.08969069505927,2.1103283558049677,93.3546,137.30722,-0.0,-0.14334175,0.47107044,0.7635552,-2.0749474,0.90238875,1.3662496,0.0,2,0,0,0
174669306,49.089690399013236,2.1103294556175802,93.18236,137.12372,-0.0,-0.11516877,0.42812458,0.80231094,-2.0735712,0.9024132,1.3659989,0.0,2,0,0,0
174877310,49.08969011585775,2.110330480930669,93.00126,136.93158,-0.0,-0.095069304,0.38417456,0.772198,-2.0721734,0.90283036,1.3661432,0.0,2,0,0,0
175077304,49.089689959592846,2.1103313141439073,92.82086,136.74089,-0.0,-0.03869041,0.31788707,0.763516,-2.0709076,0.9028849,1.366181,0.0,2,0,0,0
175277298,49.08968988427368,2.1103318952688475,92.65315,136.56345,-0.0,-0.005240411,0.24917397,0.7652752,-2.069016,0.90292525,1.366219,0.0,2,0,0,0
175485277,49.08968984267756,2.1103323363396638,92.46835,136.36938,-0.0,0.0133161545,0.19212,0.7880813,-2.0661511,0.9033206,1.3660916,0.0,2,0,0,0
175685271,49.089689839521704,2.1103327123076614,92.31726,136.20891,-0.0,0.024512175,0.1525631,0.6676963,-2.0679326,0.90333563,1.3661308,0.0,2,0,0,0
175885271,49.08968983713762,2.110332954298385,92.172455,136.05486,-0.0,0.029162854,0.109580554,0.77483046,-2.069119,0.9033601,1.3661705,0.0,2,0,0,0
176093270,49.08968981554181,2.110333029950405,92.017494,135.89203,-0.0,0.047850687,0.05767143,0.72347057,-2.067061,0.89535433,1.3658231,0.0,2,0,0,0
176293273,49.0896898448909,2.1103329803931605,91.87788,135.743,-0.0,0.061983474,-0.0018870719,0.70430106,-2.063894,0.9036277,1.3660773,0.0,2,0,0,0
176501298,49.08968990266268,2.1103327639143195,91.71887,135.57545,-0.0,0.06797627,-0.0451251,0.75291467,-2.0624912,0.8956042,1.3660051,0.0,2,0,0,0
176701270,49.08968996877084,2.1103324680116904,91.57422,135.42197,-0.0,0.061508447,-0.065341026,0.7195535,-2.0633733,0.8955273,1.3657774,0.0,2,0,0,0
176901307,49.08968999995505,2.1103321186557378,91.424225,135.26451,-0.0,0.0127616925,-0.08617309,0.7364867,-2.0657382,0.89544374,1.365816,0.0,2,0,0,0
177101271,49.08968990255882,2.110331704112185,91.2549,135.08797,-0.0,-0.032165755,-0.08791937,0.76993674,-2.070539,0.89540815,1.3658541,0.0,2,0,0,0
177309273,49.08968973874536,2.1103312522633706,91.090546,134.91663,-0.0,-0.07405776,-0.10312772,0.7555878,-2.0760837,0.89567405,1.3659985,0.0,2,0,0,0
177509306,49.089689517503025,2.11033081372728,90.936386,134.75536,-0.0,-0.12330638,-0.107331626,0.80489945,-2.0819488,0.89564747,1.3660333,0.0,2,0,0,0
177709271,49.08968921516034,2.110330371550535,90.79393,134.60635,-0.0,-0.16392654,-0.10737797,0.7313395,-2.084174,0.8956324,1.3663208,0.0,2,0,0,0
177917297,49.08968886068911,2.1103299335647883,90.66386,134.46962,-0.0,-0.21790223,-0.12944043,0.7404348,-2.0865655,0.8958685,1.3664064,0.0,2,0,0,0
178117309,49.089688456216315,2.1103295145036065,90.54232,134.3411,-0.0,-0.2547475,-0.1183782,0.78755087,-2.0856388,0.8958493,1.3663849,0.0,2,0,0,0
178324477,49.08968799021494,2.1103290423165824,90.39184,134.183,-0.0,-0.29264814,-0.12861262,0.889923,-2.0840292,0.89616233,1.3661908,0.0,2,0,0,0
178524471,49.08968748326894,2.1103286321547112,90.251114,134.03421,-0.0,-0.31823784,-0.13229798,0.71548104,-2.0812535,0.8961858,1.3664421,0.0,2,0,0,0
178724470,49.089686939186294,2.1103282518529642,90.1231,133.89749,-0.0,-0.3366905,-0.13589421,0.7550407,-2.0773714,0.89618933,1.36667,0.0,2,0,0,0
178924493,49.08968638801933,2.1103278288435323,89.9767,133.74304,-0.0,-0.35329515,-0.15296102,0.7888304,-2.0754163,0.89618164,1.3666202,0.0,2,0,0,0
179124475,49.08968581275209,2.1103273729946723,89.81917,133.57571,-0.0,-0.35734174,-0.15784265,0.79762036,-2.0724154,0.8962243,1.3665605,0.0,2,0,0,0
179332471,49.08968521799872,2.1103268094336487,89.647545,133.39276,-0.0,-0.36705065,-0.15816121,0.73120284,-2.0684876,0.89669466,1.366609,0.0,2,0,0,0
179532477,49.08968466691727,2.1103261202312105,89.58385,133.31657,-0.0,-0.38921243,-0.16806985,-0.11836645,-2.0647702,0.8969891,1.3668172,0.0,2,0,0,0
180940471,49.089679493166265,2.110322651292741,90.64071,134.27316,-0.0,-0.4563966,-0.11561434,-1.375819,-2.0936303,0.9016925,1.3662637,0.0,2,0,0,0
181140470,49.089678710534095,2.1103223005570215,90.91312,134.53226,-0.0,-0.4605043,-0.12571037,-1.4296088,-2.109651,0.9023757,1.3662508,0.0,2,0,0,0
181348470,49.08967788724881,2.110321916150293,91.215416,134.82292,-0.0,-0.4646991,-0.14289106,-1.4627546,-2.1247058,0.9032677,1.3660781,0.0,2,0,0,0
181548470,49.089677082454656,2.1103215112736984,91.48588,135.0812,-0.0,-0.4823718,-0.16162379,-1.369466,-2.1389492,0.90370494,1.3660845,0.0,2,0,0,0
181748477,49.08967624457194,2.110321067893471,91.76113,135.3437,-0.0,-0.5010903,-0.16905528,-1.4687468,-2.1509016,0.9039947,1.3660787,0.0,2,0,0,0
181951695,49.08967535274237,2.110320578924454,92.088425,135.65889,-0.0,-0.50254995,-0.1719368,-1.7650338,-2.1642249,0.90418553,1.3660741,0.0,2,0,0,0
182158904,49.08967441516516,2.1103200322916553,92.48621,136.04346,-0.0,-0.52665025,-0.19154331,-2.1115983,-2.1788082,0.9047645,1.3659482,0.0,2,0,0,0
182359670,49.08967354192963,2.110319524358895,92.946144,136.48679,-0.0,-0.5199318,-0.17678891,-2.467965,-2.1941106,0.9047982,1.3659723,0.0,2,0,0,0
182567702,49.08967265937998,2.110319069336046,93.50423,137.03128,-0.0,-0.51331115,-0.18153906,-2.878825,-2.208635,0.905226,1.3660887,0.0,2,0,0,0
182767677,49.08967178516676,2.110318607751846,94.12113,137.63101,-0.0,-0.5248147,-0.18812747,-3.3835106,-2.2224255,0.9052257,1.366087,0.0,2,0,0,0
182967675,49.08967087436573,2.110318115312388,94.83646,138.32951,-0.0,-0.5542023,-0.19193697,-3.9620566,-2.2355812,0.9052843,1.3660935,0.0,2,0,0,0
183175682,49.08966987366479,2.110317616940445,95.7017,139.17801,-0.0,-0.5613945,-0.18337123,-4.583339,-2.249634,0.9057028,1.3659478,0.0,2,0,0,0
183375670,49.089668882689736,2.110317144303126,96.67608,140.13574,-0.0,-0.5916301,-0.18384221,-5.3730736,-2.262172,0.90575737,1.3659737,0.0,2,0,0,0
183575708,49.089667863857905,2.110316699260222,97.7818,141.22357,-0.0,-0.610347,-0.18261412,-5.7786593,-2.2763999,0.90584123,1.3660074,0.0,2,0,0,0
183783671,49.089666764543274,2.1103162481538473,98.925224,142.34976,-0.0,-0.61842686,-0.17825864,-5.8089695,-2.291908,0.9062889,1.365885,0.0,2,0,0,0
183983722,49.089665663633426,2.1103158369525366,100.029625,143.43892,-0.0,-0.637221,-0.17305028,-5.7809916,-2.3072662,0.9063319,1.3659316,0.0,2,0,0,0
184191700,49.08966447597985,2.1103154196877725,101.181,144.57661,-0.0,-0.65277314,-0.15754975,-5.7944,-2.3225515,0.90673715,1.3660758,0.0,2,0,0,0
184391671,49.089663299561614,2.11031500459702,102.2951,145.67809,-0.0,-0.66739494,-0.13756132,-5.8180223,-2.3384473,0.9067343,1.3661011,0.0,2,0,0,0
184591670,49.08966203029317,2.1103146421806374,103.413086,146.78651,-0.0,-0.7044286,-0.13214643,-5.84594,-2.3550625,0.90673524,1.3661326,0.0,2,0,0,0
184799671,49.08966061177479,2.11031430451702,104.565216,147.92957,-0.0,-0.7463702,-0.120646685,-5.684496,-2.3676348,0.9069854,1.366001,0.0,2,0,0,0
184999704,49.08965918986006,2.1103139776842355,105.54538,148.90257,-0.0,-0.78114283,-0.10841574,-4.3918552,-2.3705926,0.90682983,1.3662994,0.0,2,0,0,0
185199713,49.08965772199194,2.1103136778827563,106.21225,149.56763,-0.0,-0.797853,-0.10822205,-2.6943657,-2.3741386,0.9066348,1.3660381,0.0,2,0,0,0
185399677,49.08965621733024,2.110313391164787,106.5391,149.89845,-0.0,-0.8144489,-0.10169798,-0.9177975,-2.376508,0.90620595,1.3660594,0.0,2,0,0,0
185607671,49.08965459894281,2.110313088220553,106.58805,149.95567,-0.0,-0.8413355,-0.103235535,0.07212446,-2.372228,0.90606594,1.3661995,0.0,2,0,0,0
185806916,49.08965300836081,2.1103128701022866,106.596085,149.9763,-0.0,-0.8730954,-0.05753364,0.03534883,-2.3653617,0.90548813,1.3662138,0.0,2,0,0,0
186014871,49.08965128991896,2.1103127502604666,106.64316,150.03635,-0.0,-0.9353503,-0.029318217,0.07196666,-2.3607411,0.90521234,1.3663133,0.0,2,0,0,0
186214871,49.08964956099656,2.110312685162037,106.68402,150.08752,-0.0,-0.9776707,-0.007994856,0.098818846,-2.357898,0.9047415,1.3665544,0.0,2,0,0,0
186414871,49.08964772755979,2.110312670262741,106.715614,150.12968,-0.0,-1.0210418,0.013261409,0.11751092,-2.3572435,0.90438145,1.3665261,0.0,2,0,0,0
186622871,49.08964571267655,2.1103127199951004,106.74926,150.17307,-0.0,-1.0557396,0.04140315,0.17468202,-2.3584237,0.90437555,1.3663425,0.0,2,0,0,0
186822903,49.08964371134441,2.1103128334942585,106.76257,150.1961,-0.0,-1.0864443,0.072269686,0.18629497,-2.3586445,0.9040465,1.3663404,0.0,2,0,0,0
187022870,49.089641630541564,2.110313009372208,106.76254,150.20502,-0.0,-1.1160275,0.082748465,0.2419223,-2.3587952,0.90378666,1.3663213,0.0,2,0,0,0
187222878,49.08963947059394,2.1103132598872576,106.7572,150.20827,-0.0,-1.1706545,0.101116925,0.2119821,-2.3591175,0.9035531,1.3665704,0.0,2,0,0,0
187430871,49.089637195359764,2.1103136070284982,106.7607,150.22078,-0.0,-1.1461402,0.17275095,0.125024,-2.3610065,0.9036895,1.366374,0.0,2,0,0,0
187630877,49.08963516771523,2.110314317230086,106.7802,150.24892,-0.0,-0.97675556,0.3873704,0.07434158,-2.362877,0.9035503,1.3666241,0.0,2,0,0,0
187830871,49.089633562211695,2.110315776720234,106.789085,150.26578,-0.0,-0.71998817,0.6967746,0.15009484,-2.3642075,0.9034529,1.3665866,0.0,2,0,0,0
188038877,49.08963245036106,2.1103182574604995,106.78743,150.27321,-0.0,-0.42254335,1.0284358,0.23708618,-2.3667343,0.9036693,1.366645,0.0,2,0,0,0
188238877,49.08963176535112,2.1103213124808566,106.7704,150.2649,-0.0,-0.27951518,1.2029309,0.14920405,-2.3657877,0.9035832,1.3665794,0.0,2,0,0,0
188446877,49.08963117152788,2.110324764678243,106.772964,150.28616,-0.0,-0.32241493,1.1928157,0.15309031,-2.3648152,0.90390617,1.3668996,0.0,2,0,0,0
188646909,49.089630585011584,2.1103279806279116,106.763054,150.28511,-0.0,-0.3392486,1.0973136,0.169118,-2.361933,0.90393543,1.3670931,0.0,2,0,0,0
188846871,49.08963001492765,2.110330839206951,106.76491,150.29527,-0.0,-0.28450042,0.94650894,0.10389985,-2.3627212,0.9039647,1.3669792,0.0,2,0,0,0
189046871,49.089629543165366,2.1103332311708227,106.75688,150.29535,-0.0,-0.23333757,0.7688668,0.21557054,-2.3634171,0.90402365,1.3668804,0.0,2,0,0,0
189254871,49.08962921164714,2.11033512008503,106.75296,150.29913,-0.0,-0.14855133,0.5320925,0.10530616,-2.3625958,0.9044347,1.3671732,0.0,2,0,0,0
189454878,49.089629072981744,2.1103363570947726,106.747635,150.30074,-0.0,-0.038815487,0.32336715,0.17463744,-2.3624403,0.9045048,1.3670319,0.0,2,0,0,0
189654071,49.08962914341333,2.11033700669371,106.73771,150.29692,-0.0,0.04747223,0.101575725,0.1736278,-2.3616626,0.9045787,1.3671814,0.0,2,0,0,0
189854104,49.08962943138126,2.110337055051937,106.72598,150.28519,-0.0,0.19059315,-0.09397418,0.09839432,-2.360335,0.9046401,1.3673147,0.0,2,0,0,0
190062071,49.0896299264565,2.1103366164232584,106.73051,150.30133,-0.0,0.27438062,-0.29156676,0.081527755,-2.3609443,0.9048853,1.3669552,0.0,2,0,0,0
190262115,49.08963059920418,2.1103357348053775,106.733246,150.30902,-0.0,0.32705477,-0.43763524,0.11156912,-2.361963,0.90493447,1.3668392,0.0,2,0,0,0
190470080,49.08963140111506,2.110334392393684,106.73582,150.3153,-0.0,0.3830534,-0.56283414,0.07005008,-2.3629982,0.9052652,1.3668485,0.0,2,0,0,0
190670071,49.08963224475939,2.110332778236193,106.74029,150.32306,-0.0,0.40514198,-0.68423325,0.123980336,-2.3639858,0.9052979,1.3667641,0.0,2,0,0,0
190870078,49.08963313276164,2.110330891913793,106.72986,150.3146,-0.0,0.4291219,-0.7710501,0.14362966,-2.3621876,0.9053137,1.3664103,0.0,2,0,0,0
191078077,49.089634086940535,2.11032861556453,106.710236,150.29579,-0.0,0.43589413,-0.8742159,0.1079098,-2.3610058,0.90562785,1.36647,0.0,2,0,0,0
191278115,49.08963504798046,2.1103261182773263,106.69788,150.28313,-0.0,0.48011813,-0.9678299,0.07251243,-2.3602018,0.9056427,1.3664349,0.0,2,0,0,0
191478071,49.08963608926272,2.110323333967097,106.70096,150.2854,-0.0,0.5058615,-1.0962467,0.08303501,-2.3620884,0.9055955,1.3664135,0.0,2,0,0,0
191678070,49.089637211267565,2.1103202611473564,106.692696,150.27554,-0.0,0.58433145,-1.1733385,0.10308963,-2.3621688,0.90555817,1.3661255,0.0,2,0,0,0
191886072,49.089638530070765,2.110316980132045,106.67886,150.25954,-0.0,0.6680287,-1.1292741,0.053033095,-2.362489,0.90586555,1.3664948,0.0,2,0,0,0
192086084,49.08963988359237,2.1103140949973063,106.67518,150.25377,-0.0,0.7080964,-0.9801254,0.074081786,-2.3650756,0.905773,1.3664755,0.0,2,0,0,0
192294077,49.08964140545588,2.110311671722976,106.670296,150.24634,-0.0,0.77891976,-0.7078799,0.054117393,-2.3697197,0.9060773,1.3662952,0.0,2,0,0,0
192494071,49.08964307831993,2.110310164626535,106.66073,150.23344,-0.0,0.92016864,-0.3836983,0.05669415,-2.3696125,0.9060189,1.3663003,0.0,2,0,0,0
192694071,49.08964499422865,2.110309581225219,106.65982,150.22928,-0.0,1.0782278,-0.032732997,-0.060319647,-2.3633769,0.8974742,1.3658247,0.0,2,0,0,0
192902071,49.08964721774659,2.1103098685305386,106.64926,150.21577,-0.0,1.1354263,0.19596863,0.08921694,-2.3552046,0.89777106,1.3659537,0.0,2,0,0,0
193102093,49.08964932340539,2.1103105978822394,106.607285,150.17192,-0.0,1.0715469,0.27170476,0.15035884,-2.353827,0.8977385,1.3659823,0.0,2,0,0,0
193302071,49.089651171303245,2.1103114754738974,106.55955,150.12244,-0.0,0.9282282,0.31712413,0.16326258,-2.356419,0.8976809,1.3657503,0.0,2,0,0,0
193505270,49.08965275281198,2.1103124163092675,106.491974,150.05362,-0.0,0.7774283,0.32335323,0.32305783,-2.357028,0.8975774,1.3660493,0.0,2,0,0,0
193712510,49.08965407252866,2.1103134224575744,106.39098,149.95139,-0.0,0.63531196,0.32968846,0.43371448,-2.3621037,0.89788085,1.3662076,0.0,2,0,0,0
193913270,49.08965508103482,2.1103143993491136,106.27402,149.83366,-0.0,0.4939123,0.34771892,0.55201095,-2.3661013,0.89769536,1.366211,0.0,2,0,0,0
194113271,49.089655840030495,2.110315312435152,106.12311,149.68222,-0.0,0.3709578,0.35089958,0.7147668,-2.369303,0.8975867,1.3659502,0.0,2,0,0,0
194313303,49.08965634924133,2.1103162811950322,105.94563,149.50476,-0.0,0.24269807,0.35187033,0.7426512,-2.3699665,0.89742965,1.365965,0.0,2,0,0,0
194521315,49.08965660184033,2.110317258625423,105.778015,149.33745,-0.0,0.12319638,0.3595489,0.68890524,-2.368175,0.89761525,1.3660917,0.0,2,0,0,0
194721284,49.08965660755323,2.110318137269514,105.614876,149.17477,-0.0,-0.004757008,0.3509962,0.7181968,-2.3671522,0.8975166,1.366112,0.0,2,0,0,0
194929271,49.089656390326006,2.110319009850447,105.449356,149.00885,-0.0,-0.11440508,0.34960517,0.7093938,-2.368243,0.8977303,1.3662143,0.0,2,0,0,0
195129278,49.089656052220114,2.1103198101127876,105.28278,148.84239,-0.0,-0.12571684,0.3203622,0.77039987,-2.3681207,0.89759576,1.3662003,0.0,2,0,0,0
195329297,49.08965576751202,2.1103205038087847,105.107025,148.66678,-0.0,-0.04792314,0.30892155,0.7407578,-2.3654752,0.897501,1.3661906,0.0,2,0,0,0
195537363,49.089655640785004,2.1103213287182307,104.93532,148.49591,-0.0,0.056112003,0.41637298,0.7045415,-2.3623767,0.8977731,1.3660243,0.0,2,0,0,0
195737336,49.08965576557579,2.110322629462184,104.78281,148.34474,-0.0,0.21062587,0.6473032,0.6692964,-2.3594081,0.8977261,1.3660319,0.0,2,0,0,0
195937297,49.08965620504267,2.110324642301363,104.63857,148.20279,-0.0,0.3845595,0.9080411,0.6472835,-2.3558502,0.89759785,1.3660376,0.0,2,0,0,0
196145271,49.0896569782083,2.110327152669295,104.486855,148.05386,-0.0,0.5593921,0.9382991,0.61247283,-2.3572018,0.8978661,1.3661561,0.0,2,0,0,0
196345283,49.08965799199862,2.1103293143490522,104.3452,147.91606,-0.0,0.6882247,0.7131199,0.61523736,-2.3581836,0.89775676,1.3659002,0.0,2,0,0,0
196553271,49.089659279296065,2.1103308173136917,104.216545,147.79398,-0.0,0.80309397,0.43015274,0.61265415,-2.3592143,0.8979237,1.3660296,0.0,2,0,0,0
196753295,49.08966069531042,2.1103315822510855,104.0809,147.66579,-0.0,0.90016,0.19333088,0.6113621,-2.361918,0.89775926,1.3660395,0.0,2,0,0,0
196953277,49.08966225000788,2.1103317717345615,103.945694,147.53816,-0.0,0.9583414,-0.014522061,0.59716153,-2.364064,0.8975967,1.3663197,0.0,2,0,0,0
198176496,49.08967201674967,2.1103343265931302,103.088905,146.73514,-0.0,0.90672314,0.55397683,0.7896159,-2.3584044,0.8978205,1.3663598,0.0,2,0,0,0
198376471,49.08967351556313,2.110335817987141,102.91538,146.57187,-0.0,0.7778454,0.5581041,0.9159637,-2.3606749,0.89776444,1.3663291,0.0,2,0,0,0
198576477,49.089674773854384,2.1103372861812595,102.72115,146.38863,-0.0,0.63091606,0.5449182,0.9486278,-2.3613422,0.89771223,1.366312,0.0,2,0,0,0
198776477,49.08967575501854,2.110338725164237,102.52465,146.20236,-0.0,0.49553138,0.53463256,0.9298812,-2.3635917,0.89766675,1.3663036,0.0,2,0,0,0
198976506,49.089676470239475,2.110340145622775,102.33124,146.01888,-0.0,0.3562606,0.522301,0.9535691,-2.3654215,0.8976327,1.3662778,0.0,2,0,0,0
199184470,49.08967697975922,2.1103415453827163,102.12716,145.82513,-0.0,0.23413542,0.5183337,0.9419414,-2.366062,0.89792657,1.3663677,0.0,2,0,0,0
199384471,49.0896772545373,2.1103427899691907,101.93961,145.64792,-0.0,0.10964817,0.496173,0.9784763,-2.3666673,0.897868,1.366084,0.0,2,0,0,0
199584480,49.08967734553596,2.110343979747145,101.74022,145.45853,-0.0,0.017751154,0.49153307,0.9743706,-2.3665686,0.897859,1.3660916,0.0,2,0,0,0
199784471,49.08967724165713,2.110345184291765,101.53986,145.26816,-0.0,-0.09600464,0.48420453,0.96167773,-2.3667333,0.8977964,1.366104,0.0,2,0,0,0
199992505,49.089676924752744,2.110346421669696,101.34051,145.07932,-0.0,-0.18436839,0.48111758,1.0155247,-2.3656163,0.89804435,1.3662051,0.0,2,0,0,0
200192495,49.08967649038316,2.110347550333738,101.1414,144.88843,-0.0,-0.26797825,0.46038744,0.9931812,-2.3649738,0.8980626,1.3662084,0.0,2,0,0,0
200392471,49.089675989098964,2.1103487172789572,100.944084,144.7008,-0.0,-0.25645462,0.5282857,0.999255,-2.3646822,0.8980584,1.3662188,0.0,2,0,0,0
200598904,49.08967576094556,2.110350452192864,100.75843,144.52394,-0.0,0.04161077,0.84074855,0.7683118,-2.3579993,0.8983807,1.3660696,0.0,2,0,0,0
200795702,49.089676166466205,2.1103530702291526,100.58776,144.36057,-0.0,0.41092515,1.2238265,0.85530984,-2.352693,0.89812815,1.3659849,0.0,2,0,0,0
200999677,49.08967701980591,2.110356534835896,100.40794,144.18845,-0.0,0.5412234,1.3838453,0.9059761,-2.3503065,0.8984806,1.366104,0.0,2,0,0,0
201207695,49.08967789925287,2.110360295810066,100.22076,144.0088,-0.0,0.49170342,1.3412244,1.0219299,-2.3501883,0.8988997,1.3662163,0.0,2,0,0,0
201407671,49.08967870667313,2.110363535517394,100.05304,143.84885,-0.0,0.50209135,1.113387,0.95325536,-2.349472,0.8989915,1.3662184,0.0,2,0,0,0
201607697,49.08967966090693,2.110365806109458,99.89929,143.70198,-0.0,0.6541763,0.65952986,0.9109593,-2.3553197,0.899074,1.365962,0.0,2,0,0,0
201807670,49.08968093868351,2.1103666999965447,99.74311,143.55252,-0.0,0.86516577,0.1467128,0.93494993,-2.3611565,0.8991298,1.3659806,0.0,2,0,0,0
202007671,49.08968258657386,2.110366251131191,99.56948,143.38615,-0.0,1.0681219,-0.3471064,1.0049696,-2.3573744,0.8990519,1.3662642,0.0,2,0,0,0
202215699,49.08968473118574,2.110364513064688,99.37982,143.20319,-0.0,1.3112347,-0.7752254,0.9601248,-2.3583121,0.8992372,1.3663467,0.0,2,0,0,0
202415679,49.08968712115641,2.1103619135225538,99.18697,143.01768,-0.0,1.3708314,-1.0043927,1.0367148,-2.3601742,0.8990173,1.3665789,0.0,2,0,0,0
202615709,49.08968952107566,2.110359005734206,99.00105,142.8385,-0.0,1.3224343,-1.0236347,1.01179,-2.3573477,0.898783,1.3665344,0.0,2,0,0,0
202823684,49.08969182359042,2.1103560960598347,98.80301,142.64696,-0.0,1.1845671,-0.9559874,1.0136,-2.3538885,0.89898324,1.3665856,0.0,2,0,0,0
203023671,49.08969379350484,2.1103535421523976,98.60831,142.4585,-0.0,1.0367035,-0.8652128,1.0535245,-2.3511512,0.89877796,1.3665252,0.0,2,0,0,0
203231680,49.089695574082235,2.110351057951248,98.38772,142.23991,-0.0,0.87421405,-0.7591979,1.0419058,-2.3529906,0.8989259,1.3668361,0.0,2,0,0,0
203431694,49.08969695678288,2.1103489802793627,98.177025,142.03052,-0.0,0.6820328,-0.6135311,1.0328817,-2.3565636,0.89877003,1.3667468,0.0,2,0,0,0
203631677,49.089697977654325,2.1103474391916515,97.98649,141.8398,-0.0,0.48180062,-0.40021795,0.9963194,-2.3597224,0.8986356,1.3663927,0.0,2,0,0,0
203839677,49.0896987070763,2.110346619610775,97.783714,141.63644,-0.0,0.33977804,-0.09699428,1.034796,-2.3665905,0.89884436,1.3664478,0.0,2,0,0,0
204039670,49.089699349506596,2.1103467685104027,97.57991,141.43146,-0.0,0.42856732,0.3009028,0.9576062,-2.370222,0.8986954,1.3664032,0.0,2,0,0,0
204239687,49.08970030037791,2.110347995723761,97.38737,141.23706,-0.0,0.6697725,0.70176077,0.98818964,-2.3651707,0.89859086,1.3663703,0.0,2,0,0,0
204438871,49.08970170956632,2.1103503042235876,97.20552,141.05319,-0.0,0.93141586,1.0492251,1.0198076,-2.3616428,0.8985059,1.3666174,0.0,2,0,0,0
204646871,49.08970350539697,2.1103534612917003,96.992836,140.83667,-0.0,1.0078478,1.2119409,1.0296193,-2.3612015,0.89879096,1.3663785,0.0,2,0,0,0
204846871,49.08970520906347,2.110356754288881,96.79424,140.63605,-0.0,0.92656195,1.2284675,1.0504137,-2.3623548,0.89880055,1.3663406,0.0,2,0,0,0
205054884,49.08970676766532,2.1103600937398346,96.594345,140.43279,-0.0,0.8063363,1.1800305,1.0365899,-2.363582,0.89914656,1.3664169,0.0,2,0,0,0
205254916,49.08970804529751,2.1103631587867278,96.39355,140.2283,-0.0,0.68160594,1.1266563,1.0653386,-2.364217,0.89918464,1.3666388,0.0,2,0,0,0
205454871,49.08970911918385,2.110366080112931,96.19747,140.02759,-0.0,0.56488675,1.0708102,1.0335939,-2.3643887,0.89926285,1.3668365,0.0,2,0,0,0
205662904,49.089710006597656,2.1103689513780877,95.99969,139.8247,-0.0,0.46167183,1.0226616,1.0280725,-2.363716,0.89958274,1.3668568,0.0,2,0,0,0
205862871,49.08971065366067,2.110371585943824,95.80529,139.62442,-0.0,0.3442407,0.9723045,1.0460738,-2.3643627,0.89959115,1.3670523,0.0,2,0,0,0
206062911,49.08971110113752,2.110374133293644,95.61004,139.42355,-0.0,0.22306755,0.9220727,1.0333256,-2.3657384,0.89955384,1.3669325,0.0,2,0,0,0
206270924,49.08971133131759,2.1103766545293183,95.40228,139.2096,-0.0,0.11341999,0.8716621,1.0483502,-2.364642,0.8999383,1.3672004,0.0,2,0,0,0
206470877,49.0897113764488,2.110378960831796,95.200676,139.0018,-0.0,-0.0010494095,0.8348362,1.007092,-2.363927,0.89997786,1.3670638,0.0,2,0,0,0
206678877,49.08971125328131,2.110381212220781,94.9917,138.78699,-0.0,-0.10278048,0.783221,0.96093374,-2.3629813,0.90031093,1.3667756,0.0,2,0,0,0
206878871,49.089711032074575,2.110383182971224,94.81069,138.59914,-0.0,-0.1301962,0.6744333,0.927697,-2.3621745,0.9003106,1.3669652,0.0,2,0,0,0
207086890,49.08971081240287,2.1103848577731927,94.61321,138.39465,-0.0,-0.08664294,0.530422,0.9131314,-2.363184,0.90065086,1.3666879,0.0,2,0,0,0
207286891,49.08971066096638,2.1103860958947718,94.42666,138.20132,-0.0,-0.035221312,0.36812112,0.91858095,-2.3652527,0.9006698,1.3666146,0.0,2,0,0,0
207486871,49.08971065737312,2.110386891907387,94.23236,137.99974,-0.0,0.027098868,0.20857495,0.9190788,-2.3648622,0.90068865,1.3665352,0.0,2,0,0,0
207686877,49.08971079924736,2.110387195726709,94.03497,137.7958,-0.0,0.13458495,0.042483244,0.8835303,-2.3661592,0.9007091,1.3667353,0.0,2,0,0,0
207894087,49.089711066502744,2.1103871481599157,93.840996,137.59518,-0.0,0.15866014,-0.06596704,0.8498424,-2.3694353,0.8932046,1.3665211,0.0,2,0,0,0
208094077,49.089711305884116,2.110386939879287,93.66599,137.42017,-0.0,0.0802793,-0.09033068,0.80954486,-2.370036,0.9011482,1.3669423,0.0,2,0,0,0
208302070,49.08971141421507,2.110386759278264,93.48459,137.23262,-0.0,-0.005917444,-0.07038755,0.8444358,-2.3694472,0.90352917,1.3669363,0.0,2,0,0,0
208502074,49.08971135622005,2.1103866502498474,93.31399,137.05411,-0.0,-0.10638835,-0.051380973,0.83270735,-2.3691306,0.91312575,1.3670642,0.0,2,0,0,0
208702071,49.08971116141972,2.110386577099463,93.14193,136.87709,-0.0,-0.1893325,-0.025074232,0.8083807,-2.3679404,0.9146386,1.3669508,0.0,2,0,0,0
208906070,49.089710792325775,2.110386550811847,92.965126,136.69504,-0.0,-0.2561171,9.218215e-05,0.83019733,-2.3652523,0.91582024,1.366859,0.0,2,0,0,0
209114070,49.08971027911067,2.110386585285644,92.794655,136.51982,-0.0,-0.32358137,0.01519747,0.78992623,-2.361809,0.9079619,1.3664322,0.0,2,0,0,0
209314084,49.08970969029284,2.11038662302382,92.634605,136.3562,-0.0,-0.38347334,0.024710037,0.7590795,-2.3599286,0.90829694,1.3663814,0.0,2,0,0,0
209514070,49.08970892323614,2.1103866864378813,92.46522,136.18266,-0.0,-0.45090532,0.026878413,0.80626875,-2.359747,0.9084302,1.3663424,0.0,2,0,0,0
209722070,49.089708011269245,2.110386764713349,92.27539,135.98958,-0.0,-0.5070885,0.04271417,0.76883525,-2.3578513,0.9087454,1.3661485,0.0,2,0,0,0
209922070,49.08970706519321,2.110386870890966,92.10765,135.81863,-0.0,-0.5491776,0.06457237,0.7267845,-2.358764,0.90845335,1.3661343,0.0,2,0,0,0
210122077,49.08970600755282,2.110387113023576,91.95235,135.66223,-0.0,-0.5925715,0.08284264,0.69404745,-2.3602624,0.9180354,1.3663524,0.0,2,0,0,0
210322079,49.08970503096993,2.110387491137178,91.80854,135.51776,-0.0,-0.49487695,0.16886583,0.6798376,-2.3606548,0.907496,1.3661349,0.0,2,0,0,0
210530071,49.089704368479445,2.110388336995645,91.66697,135.37595,-0.0,-0.16923143,0.36626482,0.6084168,-2.3551621,0.9074219,1.3659762,0.0,2,0,0,0
210730071,49.08970438161933,2.1103896450195316,91.54262,135.25229,-0.0,0.15963863,0.5461723,0.67944956,-2.3610392,0.9068269,1.3662386,0.0,2,0,0,0
210938114,49.089704851128744,2.1103913415608506,91.39107,135.1031,-0.0,0.36940703,0.62333536,0.78793836,-2.3650372,0.9064982,1.366315,0.0,2,0,0,0
211138071,49.089705532651685,2.1103930587879627,91.24926,134.96396,-0.0,0.43102282,0.58936965,0.70246166,-2.3648934,0.90582377,1.3662672,0.0,2,0,0,0
211338127,49.08970627179214,2.110394632015653,91.12118,134.83958,-0.0,0.46531758,0.5130258,0.71632975,-2.3638024,0.90509444,1.3662325,0.0,2,0,0,0
211545277,49.08970708191241,2.110395941437017,90.984634,134.70638,-0.0,0.51011676,0.37712207,0.6860524,-2.3639803,0.9047264,1.3663183,0.0,2,0,0,0
211744506,49.08970802873492,2.1103967101655323,90.85941,134.58548,-0.0,0.61908424,0.17806754,0.66837335,-2.3690543,0.9040262,1.3662893,0.0,2,0,0,0
211952510,49.08970929030123,2.1103968628044147,90.73705,134.4682,-0.0,0.77669334,-0.087076694,0.70783615,-2.3733187,0.9036803,1.3661108,0.0,2,0,0,0
212153275,49.089710736255675,2.1103964178099828,90.628296,134.36359,-0.0,0.82792014,-0.25973693,0.6934749,-2.37746,0.903054,1.3663771,0.0,2,0,0,0
212353271,49.08971220717649,2.110395706294908,90.511154,134.25052,-0.0,0.77679485,-0.28699067,0.7253738,-2.3750963,0.9024343,1.3663468,0.0,2,0,0,0
212553270,49.08971352234629,2.1103949935128288,90.37259,134.11615,-0.0,0.65216196,-0.26152918,0.7718686,-2.3706298,0.90177816,1.366324,0.0,2,0,0,0
212761277,49.08971464385646,2.1103943112850376,90.21788,133.9655,-0.0,0.51218635,-0.20509821,0.79017085,-2.3652713,0.9015071,1.3663983,0.0,2,0,0,0
212961271,49.08971546707256,2.1103937731256703,90.06815,133.82013,-0.0,0.3656896,-0.16746733,0.74133825,-2.3578353,0.90099496,1.3663617,0.0,2,0,0,0
213161293,49.08971587218801,2.1103931825805793,89.96424,133.72025,-0.0,-0.09010618,-0.383415,0.12567078,-2.3425748,0.90055704,1.3665904,0.0,2,0,0,0
213361271,49.08971482422981,2.110391277061571,90.05505,133.81311,-0.0,-1.1034428,-1.0211816,-0.48302212,-2.3330767,0.9001359,1.3665391,0.0,2,0,0,0
213569270,49.0897120481891,2.110387711643008,90.14819,133.9069,-0.0,-1.9684088,-1.5517738,-0.08394863,-2.3438835,0.9000982,1.3662925,0.0,2,0,0,0
213769271,49.08970785629688,2.1103826724135537,90.15242,133.91232,-0.0,-2.780696,-2.1707845,0.063239366,-2.3528872,0.89981747,1.3664348,0.0,2,0,0,0
213969276,49.089702203251136,2.1103756317352906,90.14559,133.9072,-0.0,-3.580061,-2.9143357,-0.029371094,-2.3499637,0.89957964,1.3662575,0.0,2,0,0,0
214177340,49.08969488075132,2.1103661188918137,90.1659,133.92859,-0.0,-4.3442802,-3.658029,-0.024203861,-2.346435,0.8997339,1.3661364,0.0,2,0,0,0
214377296,49.08968663065615,2.1103550262995805,90.191475,133.95291,-0.0,-4.9940805,-4.3198895,0.01669326,-2.344498,0.8996578,1.3661636,0.0,2,0,0,0
214585271,49.089676902844275,2.110341551734665,90.2231,133.98209,-0.0,-5.6337695,-4.9883986,0.062049124,-2.342506,0.90002626,1.3660123,0.0,2,0,0,0
214785276,49.0896664845791,2.110326790667895,90.24903,134.0041,-0.0,-6.236199,-5.5955787,0.13383698,-2.3418167,0.9001716,1.3657702,0.0,2,0,0,0
214985303,49.089655038645,2.110310368273206,90.26497,134.01447,-0.0,-6.791997,-6.176215,0.16906764,-2.3419259,0.9003648,1.3655418,0.0,2,0,0,0
215193271,49.089642164719066,2.1102915937072595,90.27405,134.01724,-0.0,-7.306371,-6.716833,0.2192657,-2.342247,0.90101904,1.3656694,0.0,2,0,0,0
215395710,49.08962867272456,2.1102717496542884,90.278145,134.01404,-0.0,-7.820183,-7.2447143,0.2272223,-2.3431866,0.90148926,1.3655132,0.0,2,0,0,0
215596471,49.08961440416507,2.110250668298101,90.28274,134.01042,-0.0,-8.275944,-7.736543,0.2698853,-2.3430521,0.9017915,1.3653462,0.0,2,0,0,0
215796472,49.089599396176595,2.1102283310828813,90.28705,134.00627,-0.0,-8.717076,-8.197401,0.25653788,-2.3431313,0.9021185,1.3652211,0.0,2,0,0,0
215996481,49.08958373457623,2.1102049342742104,90.296036,134.00455,-0.0,-8.976241,-8.499962,0.37642264,-2.3464177,0.90232325,1.3651332,0.0,2,0,0,0
216196506,49.08956788831625,2.11018121377566,90.30786,134.00589,-0.0,-8.921471,-8.44315,-0.13829026,-2.3444395,0.9025997,1.3650585,0.0,2,0,0,0
216404471,49.089551767187764,2.11015715333559,90.45464,134.13802,-0.0,-8.592297,-8.130662,-0.1263307,-2.3469024,0.90311664,1.3650984,0.0,2,0,0,0
216604470,49.08953676425869,2.110134857731878,90.53147,134.19745,-0.0,-8.286913,-7.8315926,0.25092834,-2.353168,0.9030831,1.36527,0.0,2,0,0,0
216804484,49.08952218278154,2.1101133263437317,90.53047,134.1787,-0.0,-7.9706225,-7.537064,0.2187709,-2.3605287,0.90285075,1.3651595,0.0,2,0,0,0
217004503,49.08950811596734,2.1100926029900413,90.51563,134.1447,-0.0,-7.6879425,-7.253032,0.20285091,-2.3670237,0.9024994,1.3650403,0.0,2,0,0,0
217204470,49.08949457414282,2.1100727120026157,90.48583,134.09499,-0.0,-7.38829,-6.967688,0.20497257,-2.373847,0.9020823,1.3648944,0.0,2,0,0,0
217412492,49.08948097636151,2.1100529220001194,90.42149,134.0107,-0.0,-7.115702,-6.665138,0.21322437,-2.3830001,0.9019736,1.3648288,0.0,2,0,0,0
217612471,49.08946834228342,2.110034757112844,90.366196,133.93542,-0.0,-6.802401,-6.3073506,-0.0138241425,-2.3852682,0.9015575,1.3648952,0.0,2,0,0,0
217812500,49.08945671204852,2.110018418368601,90.43603,133.98508,-0.0,-5.895172,-5.339388,-1.075692,-2.3924525,0.90114564,1.3651845,0.0,2,0,0,0
218012477,49.089446808188306,2.110004890506619,90.65951,134.18816,-0.0,-4.995689,-4.3996015,-1.1450584,-2.392927,0.9008322,1.3649756,0.0,2,0,0,0
218220477,49.08943783739821,2.109993014548198,90.85464,134.36392,-0.0,-4.3989916,-3.7535522,-0.67066896,-2.390674,0.9010153,1.3648442,0.0,2,0,0,0
218420471,49.08943004212356,2.109983181025376,90.91998,134.41034,-0.0,-3.9480197,-3.256657,-0.28603843,-2.3929362,0.9009673,1.3646483,0.0,2,0,0,0
218627689,49.08942286138372,2.1099746405897464,90.90634,134.37564,-0.0,-3.4341419,-2.6661878,-0.30714133,-2.3910031,0.90129274,1.3645351,0.0,2,0,0,0
218827735,49.08941690810004,2.109968138421841,90.86947,134.3192,-0.0,-2.9022782,-2.0826344,-0.38485432,-2.3810263,0.9012584,1.3645684,0.0,2,0,0,0
219027671,49.08941200768642,2.109963377704516,90.8364,134.26605,-0.0,-2.2815669,-1.436129,-0.45520788,-2.3677683,0.90131277,1.3646088,0.0,2,0,0,0
220451686,49.08940441922072,2.1099734614008256,90.660736,134.02121,-0.0,0.93804896,1.9536177,-0.70902985,-2.359636,0.90335584,1.3646462,0.0,2,0,0,0
220651707,49.089406064270534,2.1099794681429755,90.67923,134.0418,-0.0,1.0667145,2.127399,-0.65014756,-2.3565636,0.9033331,1.3646499,0.0,2,0,0,0
220859670,49.08940782006283,2.1099859203204065,90.701706,134.07608,-0.0,1.0087129,2.098849,-0.535776,-2.356366,0.9036181,1.3647819,0.0,2,0,0,0
221059671,49.08940945523095,2.1099917147440874,90.71526,134.09906,-0.0,1.0341202,1.8505208,-0.3486021,-2.3558598,0.9034659,1.3648298,0.0,2,0,0,0
