timestamp,magnetometer_ga[0],magnetometer_ga[1],magnetometer_ga[2]
133177305,0.06947236,0.17873554,0.34726727
133186868,0.06418632,0.17692019,0.3457793
133197318,0.06414436,0.1661201,0.35467005
133206068,0.06592956,0.16790478,0.3502518
133217314,0.06415825,0.16610476,0.35172525
133226068,0.06940259,0.16796608,0.36204752
133245268,0.062428996,0.1787202,0.34428918
133254875,0.07473042,0.1733508,0.3546824
133265268,0.062401023,0.17152014,0.35021633
133274881,0.07828676,0.16970481,0.34882832
133285283,0.07651562,0.17513551,0.35026413
133294869,0.073014714,0.17148949,0.3443768
133305272,0.073014624,0.16787413,0.3443956
133314869,0.06770113,0.18055089,0.3487219
133325269,0.06770113,0.18055089,0.3487219
133334069,0.06417233,0.17332014,0.34874287
133345278,0.06235923,0.16795076,0.35906944
133354068,0.07295955,0.18962757,0.35606176
133365282,0.07295902,0.16793543,0.35617465
133374068,0.076529354,0.16788946,0.34735703
133385274,0.07474414,0.16610476,0.35177523
133394069,0.080043994,0.16428941,0.35033724
133405268,0.07480001,0.17688955,0.33993974
133414069,0.07480001,0.17688955,0.33993974
133721275,0.06944439,0.17153548,0.35319442
133730069,0.08355909,0.17876619,0.3532234
133741315,0.0694721,0.16788946,0.34732372
133750069,0.080044344,0.17875086,0.350262
133818868,0.06063015,0.1877969,0.35159573
133829300,0.06947245,0.18235089,0.34724844
133839685,0.07125748,0.17690487,0.34286785
133849296,0.07473051,0.17696618,0.35466358
133858869,0.06595781,0.18595092,0.34426823
133869283,0.07825896,0.16973546,0.35471785
133879678,0.07825896,0.16973546,0.35471785
133889268,0.060643427,0.1624741,0.34878266
133898069,0.0747306,0.18058154,0.35464475
133909301,0.06588821,0.18241219,0.35901085
133918069,0.06947254,0.18596625,0.34722963
133929268,0.06595746,0.17148949,0.34434348
133938069,0.08003028,0.17153548,0.35324436
133948468,0.07304251,0.17145884,0.33848727
133958069,0.067714855,0.17330481,0.3458148
133978069,0.067714855,0.17330481,0.3458148
133986869,0.07118833,0.1914429,0.3575164
133997306,0.07300125,0.1895816,0.34722748
134006877,0.0783011,0.18776625,0.3457895
134017351,0.07473069,0.18419687,0.35462594
134026869,0.057129055,0.17692019,0.34574598
134037360,0.0800857,0.16424344,0.34150296
134046869,0.092331775,0.16978143,0.36361876
134057321,0.07831465,0.1732895,0.34291998
134067669,0.07831465,0.1732895,0.34291998
134077295,0.06417242,0.17693552,0.34872407
134086084,0.08534438,0.18416622,0.34878638
134097295,0.06770095,0.17332014,0.34875953
134106069,0.06944421,0.16430475,0.35323203
134117343,0.06592956,0.16790478,0.3502518
134126072,0.06415834,0.16972013,0.35170645
134137295,0.06414498,0.19142759,0.35453835
134146069,0.07651554,0.17152014,0.35028297
134165312,0.05530205,0.17156613,0.3590173
134174869,0.05887239,0.17152014,0.35019967
134185278,0.07121604,0.1877969,0.35164568
134194868,0.06765917,0.16975078,0.35761264
134205268,0.07473051,0.17696618,0.35466358
134214868,0.06945828,0.17152014,0.35024965
134225268,0.08888656,0.16968948,0.34593353
134234870,0.073014535,0.16425876,0.3444144
134245269,0.073014535,0.16425876,0.3444144
134255669,0.073014535,0.16425876,0.3444144
134265268,0.07308422,0.17141287,0.329653
134274069,0.081745796,0.16616607,0.3635876
134285286,0.065943465,0.16788946,0.34730706
134294073,0.07830083,0.17692019,0.34584594
134305268,0.074744314,0.17333546,0.3517376
134314069,0.069416665,0.1751815,0.35906512
134325268,0.06943066,0.17878151,0.35610154
134334069,0.06771521,0.18776625,0.3457395
134353268,0.07997467,0.17159677,0.36502346
134362869,0.06951397,0.1750742,0.33845177
134373268,0.07122985,0.18416622,0.34871975
134382869,0.07470261,0.17338145,0.3605719
134393268,0.06064405,0.18778159,0.34865096
134402880,0.07298717,0.1823662,0.35020986
134413268,0.06241492,0.17150483,0.3472716
134422869,0.076543346,0.17148949,0.34439346
134433269,0.076543346,0.17148949,0.34439346
134442080,0.07651554,0.17152014,0.35028297
134453268,0.060629707,0.16972013,0.3516898
134462087,0.06417233,0.17332014,0.34874287
134473268,0.0748001,0.18050492,0.33992094
134482084,0.09245662,0.15879743,0.33717236
134493268,0.06238738,0.18238154,0.35310465
134502069,0.074758396,0.18055089,0.3487552
134513268,0.08005772,0.1570434,0.3474301
134522088,0.08005772,0.1570434,0.3474301
134541268,0.07655716,0.16785881,0.34146747
134550905,0.07121568,0.17333546,0.35172096
134561268,0.07831465,0.1732895,0.34291998
134570868,0.07478602,0.1732895,0.34290332
134581268,0.06771468,0.16607411,0.3458524
134590870,0.081829466,0.17692019,0.3458626
134601268,0.06947236,0.17873554,0.34726727
134610876,0.07122941,0.16608945,0.34881383
134621303,0.07122941,0.16608945,0.34881383
134630070,0.07648774,0.1715508,0.3561725
134641268,0.08181556,0.17693552,0.34880733
134650073,0.060616072,0.18058154,0.35457814
134661268,0.071285106,0.1696435,0.33701596
134670123,0.08184346,0.18052024,0.342899
134681268,0.08005816,0.17512019,0.34733605
134690084,0.05712923,0.18415089,0.34570837
134701268,0.06414445,0.16973546,0.35465124
134710089,0.06414445,0.16973546,0.35465124
134718868,0.072973095,0.17515084,0.35319224
134729268,0.05885884,0.1859969,0.3530692
134738869,0.069458365,0.17513551,0.35023084
134749268,0.07295928,0.17878151,0.3561182
134758869,0.053544823,0.1769815,0.3575084
134769268,0.07121577,0.17695084,0.35170212
134778869,0.07828711,0.18416622,0.34875306
134789287,0.055329673,0.16430475,0.3531654
134799680,0.055329673,0.16430475,0.3531654
134809269,0.055329673,0.16430475,0.3531654
134818077,0.07300072,0.16788946,0.34734038
134829268,0.07825913,0.17696618,0.35468024
134838080,0.058900192,0.17148949,0.34431016
134849268,0.060671676,0.18052024,0.34279904
134858104,0.06948626,0.1787202,0.3443225
134869268,0.060698856,0.15518208,0.33704126
134878074,0.08003036,0.17515084,0.35322556
134889268,0.06950016,0.17870489,0.34137774
134898083,0.06950016,0.17870489,0.34137774
134906878,0.06774274,0.17688955,0.33990642
134917294,0.08182938,0.17330481,0.3458814
134926868,0.079974934,0.18244283,0.36496702
134937295,0.07652944,0.17150483,0.3473382
134946869,0.07125757,0.18052024,0.34284902
134957292,0.07823107,0.16615075,0.3606262
134966869,0.08360079,0.1787202,0.34438914
134977295,0.07832872,0.18050492,0.3399376
134987669,0.07832872,0.18050492,0.3399376
134997303,0.06591593,0.17876619,0.35314012
135006069,0.07298699,0.17513551,0.3502475
135017297,0.06598543,0.17868955,0.3384163
135026069,0.055274427,0.17882748,0.3648692
135037295,0.085316144,0.1661201,0.35476997
135046068,0.06591567,0.16792011,0.35319656
135056468,0.057115242,0.18055089,0.34867194
135066086,0.050071437,0.16245876,0.34578794
135085269,0.08531658,0.18419687,0.35467592
135095689,0.058844857,0.18239686,0.35603276
135105268,0.08538573,0.16965884,0.34002733
135116482,0.069458015,0.16067408,0.3503061
135125268,0.06768723,0.1805662,0.35166666
135134903,0.06592982,0.17875086,0.35019535
135145269,0.06417251,0.18055089,0.34870526
135154914,0.07654343,0.17510486,0.34437463
135165268,0.073014446,0.16064343,0.34443325
135175683,0.073014446,0.16064343,0.34443325
135185268,0.06597171,0.1859356,0.34132344
135194069,0.08353093,0.1643354,0.3591882
135205268,0.072931305,0.17158145,0.36204535
135214104,0.08184328,0.1732895,0.34293664
135224468,0.073014446,0.16064343,0.34443325
135234086,0.081787676,0.1733508,0.3547157
135245268,0.065985166,0.16784348,0.33847275
135254102,0.07470279,0.18061219,0.36053428
135273268,0.073014975,0.18233556,0.34432036
135283706,0.07828667,0.16608945,0.34884712
135293268,0.07122976,0.18055089,0.34873855
135302906,0.06768679,0.16248941,0.35176075
135313268,0.080044344,0.17875086,0.350262
135323692,0.062428825,0.17148949,0.34432682
135333268,0.069472186,0.17150483,0.34730488
135344501,0.081856735,0.15519741,0.34008595
135353273,0.081856735,0.15519741,0.34008595
135362069,0.080044255,0.17513551,0.3502808
135373268,0.057073362,0.17336611,0.35754386
135382068,0.074758396,0.18055089,0.3487552
135392468,0.065902025,0.17878151,0.3560849
135402089,0.085399985,0.18410492,0.3370073
135412468,0.078231506,0.18422753,0.3605321
135422101,0.062373392,0.17878151,0.35606825
135432468,0.07651554,0.17152014,0.35028297
135442072,0.069472186,0.17150483,0.34730488
135452511,0.069472186,0.17150483,0.34730488
135461288,0.07298717,0.1823662,0.35020986
135471695,0.06770087,0.16970481,0.34877834
135481269,0.07832828,0.16242813,0.34003165
135492500,0.06595719,0.16064343,0.34439993
135501268,0.07118815,0.1842122,0.35755405
135511688,0.07125713,0.16244344,0.3429431
135521269,0.07121604,0.1877969,0.35164568
135531714,0.062415004,0.17512019,0.34725276
135541269,0.062415004,0.17512019,0.34725276
135550070,0.078342274,0.16602814,0.33706808
135560468,0.06768697,0.16972013,0.3517231
135570075,0.07825922,0.18058154,0.3546614
135580469,0.07832854,0.17327417,0.3399752
135590078,0.07478611,0.17690487,0.34288448
135601274,0.07830083,0.17692019,0.34584594
135610079,0.06595746,0.17148949,0.34434348
135620507,0.07121613,0.19141226,0.35162687
135630069,0.07121613,0.19141226,0.35162687
135640513,0.07825949,0.19142759,0.35460496
135649269,0.07302844,0.16424344,0.34146965
135658904,0.07652944,0.17150483,0.3473382
135669269,0.0748001,0.18050492,0.33992094
135680469,0.065943725,0.17873554,0.3472506
135689268,0.06591584,0.17515084,0.35315892
135699713,0.06774301,0.18773562,0.33984998
135709271,0.06591567,0.16792011,0.35319656
135718878,0.06591567,0.16792011,0.35319656
135729268,0.06591567,0.16792011,0.35319656
135738071,0.0783011,0.18776625,0.3457895
135748468,0.07122976,0.18055089,0.34873855
135758077,0.06595737,0.16787413,0.3443623
135769294,0.06771477,0.16968948,0.3458336
135778078,0.065943636,0.17512019,0.34726942
135788482,0.06245671,0.1750742,0.33841848
135798079,0.08184311,0.1660588,0.34297425
135808514,0.08184293,0.15882808,0.3430119
135818069,0.08184293,0.15882808,0.3430119
135827714,0.07295893,0.16432007,0.35619348
135837320,0.06947236,0.17873554,0.34726727
135848469,0.0695138,0.16784348,0.3384894
135857308,0.08004417,0.17152014,0.35029963
135868474,0.06949981,0.16424344,0.341453
135877312,0.08008605,0.17870489,0.34142768
135887704,0.06943022,0.16070473,0.35619563
135897295,0.067728676,0.16967416,0.3428888
135906869,0.067728676,0.16967416,0.3428888
135916468,0.08181556,0.17693552,0.34880733
135926083,0.07654308,0.16064343,0.3444499
135936468,0.080058336,0.18235089,0.3472984
135946073,0.055357475,0.1642741,0.34727588
135956511,0.062442634,0.16785881,0.34140086
135966070,0.072973184,0.17876619,0.35317343
135976504,0.07824497,0.16613542,0.35768142
135986068,0.07479992,0.17327417,0.33995855
136006074,0.07479992,0.17327417,0.33995855
136016499,0.06602696,0.17141287,0.32961968
136025269,0.07654317,0.16425876,0.34443107
136036498,0.069541775,0.17504355,0.33256227
136045268,0.07477212,0.17330481,0.34584808
136056468,0.0818432,0.16967416,0.34295544
136065269,0.07129909,0.17324352,0.33405238
136076479,0.066026695,0.1605668,0.32967612
136085269,0.066026695,0.1605668,0.32967612
136094869,0.066026695,0.1605668,0.32967612
136104468,0.064255655,0.16961285,0.33109313
136114072,0.0801274,0.16419746,0.3326687
136124521,0.08192686,0.18042828,0.32523048
136134069,0.07658487,0.1642128,0.3355968
136144497,0.05016892,0.1695822,0.325137
136154069,0.07841169,0.16233617,0.3223631
136164509,0.08365604,0.16419746,0.33268535
136174069,0.06072701,0.16961285,0.33107647
136184486,0.06072701,0.16961285,0.33107647
136193268,0.055413436,0.17867424,0.3354216
136204491,0.07485517,0.15875146,0.3282548
136213268,0.076696336,0.17493628,0.31198224
136224480,0.07662657,0.16416682,0.32676253
136233269,0.074883245,0.16956688,0.3223088
136244478,0.07481365,0.16602814,0.33705142
136253268,0.07132672,0.16598217,0.32820052
136264471,0.080210805,0.16410552,0.31500015
136273272,0.080210805,0.16410552,0.31500015
136282071,0.08016928,0.17138222,0.3237968
136292519,0.0748967,0.15147476,0.31945813
136302068,0.07659895,0.17142819,0.3326144
136313268,0.07489706,0.16593619,0.31938288
136322069,0.060782436,0.16232084,0.31933507
136332472,0.07661285,0.17141287,0.32966965
136342083,0.07142429,0.17672098,0.30753073
136352516,0.06608248,0.1677362,0.31785944
136362069,0.06608248,0.1677362,0.31785944
136372517,0.06608248,0.1677362,0.31785944
136381269,0.05898351,0.16778219,0.32666042
136392494,0.07145147,0.15138282,0.3017729
136401269,0.066068575,0.16775154,0.3208042
136412468,0.06438084,0.17309026,0.30457148
136421269,0.06962518,0.17495161,0.31489372
136432469,0.055482943,0.17859761,0.32069778
136441269,0.07141004,0.16227487,0.31055075
136452468,0.06959765,0.18582833,0.32072678
136461269,0.06959765,0.18582833,0.32072678
136470069,0.06786812,0.18759769,0.31334716
136480511,0.06962483,0.16049019,0.31496897
136490068,0.059080724,0.16405953,0.3060659
136500501,0.06608248,0.1677362,0.31785944
136510069,0.06620749,0.16398291,0.29137537
136520479,0.089108974,0.16944428,0.29881734
136530069,0.059149787,0.14590615,0.29143614
136540487,0.06622139,0.1639676,0.28843063
136550069,0.06622139,0.1639676,0.28843063
136560471,0.09094961,0.16393694,0.2826577
136569275,0.06446399,0.16215226,0.28695932
136580498,0.060935438,0.16576761,0.28692386
136589294,0.07510583,0.1765524,0.275155
136600468,0.0980623,0.15664494,0.27094957
136609269,0.07336179,0.15302958,0.2708518
136620468,0.073361345,0.1349528,0.27094588
136629268,0.064491965,0.16935234,0.28103217
136638869,0.064491965,0.16935234,0.28103217
136648509,0.06804822,0.16209097,0.27519694
136658069,0.062692404,0.14950618,0.28848922
136668502,0.05733721,0.1622289,0.3016498
136678068,0.06443618,0.16218291,0.29284886
136688504,0.06265115,0.16762893,0.29722944
136698069,0.060935084,0.15130618,0.2869991
136708468,0.050196722,0.16955155,0.31924745
136718069,0.07146635,0.1911364,0.29862118
136728478,0.07146635,0.1911364,0.29862118
136738069,0.07146635,0.1911364,0.29862118
136748468,0.06443618,0.16218291,0.29284886
136757308,0.07507723,0.14404485,0.28121385
136768468,0.06793656,0.14413679,0.2988491
136777342,0.060851857,0.15862885,0.30463007
136788468,0.05382222,0.15136749,0.29874486
136797311,0.07323659,0.14955215,0.2973735
136808468,0.06790938,0.16947493,0.30460694
136817324,0.08735166,0.1712443,0.29732722
136826869,0.08735166,0.1712443,0.29732722
136836468,0.076779306,0.15676755,0.29440776
136846068,0.07689087,0.17110637,0.2707744
136856468,0.06976384,0.16033693,0.28552136
136866069,0.06965272,0.16407487,0.30906063
136876468,0.06447824,0.17659837,0.2839393
136886078,0.05566312,0.15670624,0.2825288
136896468,0.06269311,0.17842904,0.28833872
136906068,0.059206102,0.1747677,0.27950656
136916469,0.059206102,0.1747677,0.27950656
136925282,0.064449996,0.15855223,0.2899229
136936468,0.078634195,0.16570632,0.27522808
136945315,0.06443609,0.15856755,0.2928677
136956468,0.07679329,0.16036758,0.29144418
136965286,0.07514736,0.1692757,0.26635832
136976468,0.05915023,0.16398291,0.29134208
136985271,0.064533226,0.15122956,0.27229196
136996468,0.07693186,0.14213754,0.26209062
137005288,0.07693186,0.14213754,0.26209062
137014069,0.0627481,0.15306023,0.27669138
137024468,0.06631861,0.16024499,0.2678361
137034116,0.05916413,0.1639676,0.2883973
137044468,0.06803387,0.14402951,0.27823576
137054082,0.076779395,0.16038291,0.29438895
137064468,0.069708146,0.15678287,0.2973192
137074069,0.078550786,0.16579826,0.2928967
137084468,0.06252595,0.16415149,0.32375115
137094869,0.06252595,0.16415149,0.32375115
137104469,0.06252595,0.16415149,0.32375115
137113315,0.07502216,0.16579826,0.29288003
137124468,0.07855052,0.1549522,0.29295313
137133286,0.07319525,0.16405953,0.30613253
137144468,0.06970761,0.13509072,0.2974321
137153273,0.07500809,0.15858288,0.2958624
137164468,0.06961075,0.15327477,0.31795135
137173282,0.069666445,0.15682884,0.3061535
137184468,0.07850873,0.15138282,0.3018062
137193285,0.07850873,0.15138282,0.3018062
137202069,0.069693886,0.14233676,0.30033922
137212478,0.071381874,0.14784408,0.31651554
137222068,0.073126,0.17498226,0.3207999
137232468,0.07676549,0.16039823,0.29733372
137242075,0.081940144,0.15510546,0.32241738
137252468,0.06608239,0.16412084,0.31787828
137262069,0.076737866,0.16765958,0.3031856
137272478,0.06609575,0.1424134,0.3150464
137282869,0.06609575,0.1424134,0.3150464
137292468,0.05896934,0.15695144,0.32966164
137301282,0.07668252,0.17856696,0.3149082
137312468,0.0802804,0.16764425,0.30025747
137321268,0.06435251,0.15142879,0.31057388
137332468,0.0643526,0.15504415,0.31055504
137341299,0.07323695,0.16401356,0.29729822
137352468,0.06435322,0.18035166,0.31042334
137361269,0.05905292,0.16409019,0.31195542
137370902,0.05905292,0.16409019,0.31195542
137380468,0.08736538,0.16399825,0.29442012
137390084,0.08199593,0.16227487,0.3106007
137400468,0.07154851,0.14042948,0.281216
137410068,0.07322287,0.15679818,0.30028063
137420468,0.060754724,0.16596684,0.32520577
137430069,0.07662657,0.16416682,0.32676253
137440468,0.06956922,0.16055149,0.326748
137450073,0.07658505,0.17144352,0.33555916
137460469,0.07658505,0.17144352,0.33555916
137469284,0.07479957,0.15881276,0.3400338
137480468,0.07300089,0.17512019,0.34730273
137489293,0.069416754,0.17879684,0.3590463
137500468,0.06067132,0.1660588,0.34287432
137509268,0.0800857,0.16424344,0.34150296
137520468,0.055385277,0.16424344,0.34138635
137529269,0.074716255,0.16252007,0.3576836
137540468,0.07479939,0.15158205,0.34007144
137549273,0.07479939,0.15158205,0.34007144
137568468,0.07842559,0.16232084,0.31941834
137578068,0.074952215,0.1477981,0.3076979
137588468,0.07128493,0.16241279,0.3370536
137598075,0.0819683,0.16953623,0.31645262
137608468,0.053739168,0.16592087,0.31633818
137618112,0.057267353,0.14784408,0.3164489
137628468,0.07149353,0.16579826,0.29286337
137638115,0.07149308,0.14772147,0.29295745
137648469,0.07149308,0.14772147,0.29295745
137657296,0.07504979,0.1585369,0.2870281
137668468,0.085593894,0.15496753,0.2959312
137677301,0.060879834,0.16582891,0.2987029
137688468,0.059066292,0.14238274,0.30912355
137697295,0.057267886,0.16953623,0.316336
137708468,0.06608265,0.17496693,0.31782183
137717294,0.053697374,0.16235149,0.3251913
137728470,0.07309758,0.14970541,0.32682112
137737331,0.07309758,0.14970541,0.32682112
137746075,0.08541309,0.1515514,0.3342319
137756468,0.08544116,0.16236682,0.32828596
137766069,0.06421412,0.17688955,0.33988976
137776468,0.053642128,0.17687422,0.33689505
137786099,0.07839779,0.16235149,0.32530788
137796478,0.06431108,0.16232084,0.3193517
137806080,0.06252613,0.17138222,0.3237135
137816468,0.060796697,0.17676695,0.31631505
137826887,0.060796697,0.17676695,0.31631505
137836468,0.071396224,0.16590555,0.3134767
137845269,0.07145192,0.16945961,0.3016788
137856468,0.080294214,0.16401356,0.29733154
137865269,0.07488333,0.17318222,0.32229
137876468,0.06615198,0.16765958,0.30313563
137885269,0.069708325,0.16401356,0.29728156
137896468,0.06965298,0.17492096,0.3090042
137905270,0.08205171,0.16944428,0.29878405
137925301,0.08205171,0.16944428,0.29878405
137934079,0.05562106,0.14229079,0.2914383
137944468,0.055677287,0.16753697,0.27952754
137954069,0.08737919,0.16036758,0.29149413
137964468,0.06972249,0.17484434,0.29428038
137974080,0.060837865,0.15502883,0.30759364
137984468,0.06444991,0.15493688,0.2899417
137994101,0.07675168,0.16402888,0.30025965
138004468,0.052078974,0.16038291,0.29427236
138014069,0.052078974,0.16038291,0.29427236
138024468,0.080335826,0.16035226,0.28851607
138033269,0.06792302,0.15861353,0.3017186
138044468,0.06435278,0.16227487,0.31051743
138053268,0.06260971,0.17852098,0.3060073
138064468,0.07138241,0.16953623,0.31640264
138073271,0.059025478,0.17858228,0.31776968
138084468,0.08199628,0.1767363,0.31052545
138093276,0.0750497,0.15492155,0.28704694
138112468,0.05726753,0.1550748,0.3164113
138122068,0.064408824,0.18029036,0.2986443
138132468,0.0679092,0.16224422,0.30464458
138142103,0.078592405,0.16213694,0.2840812
138152468,0.05910835,0.15679818,0.300214
138162068,0.08030785,0.15315218,0.29444325
138172483,0.07513292,0.14759888,0.26941597
138182068,0.083906345,0.16753697,0.2796608
138192469,0.083906345,0.16753697,0.2796608
138201269,0.076848626,0.1494602,0.27972156
138212468,0.06797844,0.15132152,0.2899772
138221269,0.06608257,0.17135157,0.31784064
138232468,0.060962796,0.14766018,0.2811284
138241290,0.055538103,0.16045953,0.3090128
138252468,0.06259537,0.16045953,0.30904612
138261279,0.06610992,0.15324412,0.31204516
138272468,0.057379182,0.17302896,0.29275912
138281275,0.057379182,0.17302896,0.29275912
138300468,0.075008266,0.1658136,0.29582477
138310068,0.076821186,0.16395226,0.28553584
138320468,0.06615171,0.15681352,0.30319208
138330069,0.06260962,0.17490563,0.3060261
138340468,0.07496638,0.15862885,0.3046967
138350069,0.06965263,0.16045953,0.30907944
138360468,0.06431063,0.14424406,0.3194458
139289286,0.06087939,0.14775212,0.29879698
139300468,0.069708675,0.178475,0.2972063
139309279,0.0803221,0.16759828,0.2914232
139320478,0.060893025,0.13689075,0.29590866
139329269,0.06089347,0.15496753,0.2958146
139340518,0.05033591,0.17662902,0.2897622
139349277,0.08037726,0.1494602,0.27973822
139360482,0.06797871,0.1621676,0.28992075
139369269,0.06797871,0.1621676,0.28992075
139378070,0.07154895,0.15850626,0.2811219
139398078,0.059150677,0.1820597,0.291248
139408479,0.06795162,0.19112109,0.29565975
139418069,0.06629036,0.14219883,0.2738197
139428468,0.06613781,0.15682884,0.30613685
139438069,0.0680058,0.13321407,0.28418174
139448478,0.082023546,0.1550135,0.30474883
139458869,0.082023546,0.1550135,0.30474883
139468486,0.0767515,0.15679818,0.3002973
139477324,0.057309587,0.16949026,0.30750173
139488482,0.06439439,0.15861353,0.30170193
139497333,0.07149326,0.1549522,0.2929198
139508474,0.069666356,0.15321347,0.3061723
139517317,0.050252236,0.1658749,0.30748722
139528484,0.06613799,0.16405953,0.3060992
139537302,0.07496656,0.16585957,0.30465907
139556468,0.059136506,0.17122898,0.29424924
139566070,0.075050056,0.16938297,0.28697166
139576472,0.08383658,0.15676755,0.29444107
139586069,0.062623166,0.16042888,0.3031566
139596468,0.06260882,0.14236741,0.30619544
139606069,0.066054136,0.14607473,0.32386187
139616475,0.0802387,0.16769023,0.30909178
139626069,0.06266514,0.17122898,0.29426587
139636514,0.06266514,0.17122898,0.29426587
139645275,0.07149379,0.17664434,0.29280692
139656472,0.059081525,0.19659777,0.30589658
139665268,0.060823876,0.15142879,0.31055722
139676478,0.06443636,0.16941363,0.29281124
139685268,0.07672361,0.15321347,0.30620563
139696468,0.052051257,0.16402888,0.30014303
139705269,0.07141048,0.18035166,0.31045666
139725269,0.07141048,0.18035166,0.31045666
139734869,0.076738305,0.18573637,0.30309156
139744472,0.06966671,0.1676749,0.30609706
139754869,0.0679092,0.16224422,0.30464458
139764513,0.05198149,0.15325946,0.31492332
139774081,0.07146555,0.1585982,0.2987905
139784472,0.046765044,0.15498285,0.29869273
139794878,0.060837954,0.15864418,0.30757484
139804515,0.060837954,0.15864418,0.30757484
139814069,0.060837954,0.15864418,0.30757484
139823671,0.08908072,0.15139814,0.30480096
139833283,0.08382223,0.13870607,0.2974799
139843684,0.07142385,0.15864418,0.3076248
139853269,0.0626507,0.14955215,0.29732352
139863668,0.07147963,0.1658136,0.29580814
139873282,0.059149966,0.15313685,0.29139853
139883668,0.06793754,0.18390569,0.29864216
139893269,0.06793754,0.18390569,0.29864216
139903669,0.07149406,0.1874904,0.29275048
139912483,0.067923106,0.1622289,0.3016998
139923700,0.076696254,0.17132092,0.31200108
139932472,0.07679373,0.17844436,0.2913501
139943669,0.06442273,0.18027504,0.29569954
139952472,0.053850643,0.17664434,0.29272363
139963669,0.07676567,0.16762893,0.29729608
139972499,0.075035706,0.15132152,0.2900105
139982070,0.075035706,0.15132152,0.2900105
139991675,0.053891722,0.15129086,0.28402105
140001287,0.076932214,0.15659897,0.26201537
140011671,0.066263005,0.16030627,0.27961516
140021269,0.071563125,0.169337,0.27812073
140031668,0.05210686,0.1639676,0.288364
140041269,0.045035526,0.15675221,0.29131308
140051668,0.052120678,0.16033693,0.28543806
140061276,0.06797817,0.14047545,0.29003364
140071669,0.06797817,0.14047545,0.29003364
140080478,0.09447868,0.18201374,0.28258032
140091700,0.073139645,0.16412084,0.31791157
140100473,0.08556609,0.15499818,0.3018207
140111669,0.07841195,0.17318222,0.32230666
140120493,0.073208876,0.15319815,0.3032442
140131669,0.06606831,0.15690547,0.32086065
140140469,0.0625959,0.18215166,0.30893323
140151669,0.059206013,0.17115234,0.2795254
140160469,0.059206013,0.17115234,0.2795254
140169268,0.074994534,0.17305961,0.2987319
140179671,0.06968052,0.16404422,0.30317113
140189269,0.07323677,0.15678287,0.29733586
140199668,0.066137634,0.14959812,0.3061745
140209268,0.07492468,0.15867484,0.31353098
140219668,0.048508734,0.16404422,0.30307117
140229292,0.060893644,0.16219825,0.29577696
140239668,0.055649396,0.16395226,0.28543591
140249278,0.055649396,0.16395226,0.28543591
140259700,0.06092118,0.15132152,0.28994387
140268469,0.07502189,0.1549522,0.29293647
140279669,0.060865667,0.15499818,0.3017041
140288469,0.055482764,0.1713669,0.32073542
140299669,0.059109148,0.18933639,0.30004466
140308468,0.08387872,0.17479835,0.28551272
140319669,0.06968025,0.15319815,0.30322757
140328469,0.06968025,0.15319815,0.30322757
140338069,0.06968025,0.15319815,0.30322757
140347671,0.06267921,0.17844436,0.29128346
140357343,0.06797933,0.18747509,0.28978905
140367682,0.06981935,0.15666026,0.27376112
140377324,0.071479805,0.1730443,0.2957705
140387668,0.069735765,0.1495215,0.2914673
140397328,0.071521156,0.1585369,0.28701144
140407668,0.0714929,0.14049077,0.29299507
140417336,0.0714929,0.14049077,0.29299507
140427700,0.053808317,0.15138282,0.3016896
140436469,0.09092145,0.14950618,0.2886225
140447668,0.05559335,0.1459368,0.297309
140456469,0.08028031,0.16402888,0.3002763
140467668,0.05034937,0.1585369,0.28691152
140476469,0.07330637,0.16032161,0.28259325
140487668,0.06616543,0.14956747,0.30028492
140496468,0.073223576,0.18572104,0.3001301
140506905,0.073223576,0.18572104,0.3001301
140515668,0.06795126,0.17665967,0.29573503
140525268,0.059136327,0.16399825,0.29428685
140535668,0.082107045,0.1585369,0.28706142
140545275,0.06793692,0.1585982,0.29877385
140555668,0.07849527,0.16947493,0.30465692
140565318,0.05385002,0.15133683,0.29285535
140575668,0.073167354,0.16047485,0.31204087
140585267,0.060838398,0.17672098,0.30748075
140595678,0.060838398,0.17672098,0.30748075
140604469,0.05906674,0.16045953,0.30902946
140615668,0.057295598,0.16589022,0.3104653
140624469,0.07319551,0.17490563,0.30607608
140635668,0.06792275,0.14776745,0.30177504
140644469,0.081996106,0.16950558,0.3105631
140655668,0.07150778,0.18024439,0.28984332
140664469,0.06793692,0.1585982,0.29877385
140675668,0.057281252,0.14782876,0.31350416
140684469,0.057281252,0.14782876,0.31350416
140693272,0.059080724,0.16405953,0.3060659
140703668,0.08207959,0.17302896,0.2928757
140713285,0.07150752,0.16939831,0.28989977
140723670,0.06447789,0.16213694,0.28401458
140733281,0.06972196,0.15315218,0.29439327
140743668,0.0714659,0.17305961,0.29871523
140753325,0.066263184,0.16753697,0.27957752
140763713,0.066263184,0.16753697,0.27957752
140773324,0.066263184,0.16753697,0.27957752
140783668,0.050377257,0.16212162,0.28100315
140792516,0.0767932,0.15675221,0.291463
140803668,0.0714242,0.1731056,0.30754954
140812468,0.046737596,0.16947493,0.304507
140823676,0.053878535,0.18022905,0.2868153
140832469,0.059122253,0.15678287,0.29726923
140843674,0.05908055,0.15682884,0.30610353
140852469,0.05908055,0.15682884,0.30610353
140861268,0.0697363,0.17121364,0.29135442
140871668,0.069750465,0.18204439,0.2883532
140881310,0.075036235,0.17301364,0.28989762
140891668,0.05556599,0.16404422,0.3031045
140901273,0.06262299,0.15319815,0.30319425
140911668,0.064297356,0.16956688,0.32225883
140921330,0.09267947,0.17662902,0.28996208
140931706,0.06972214,0.16038291,0.29435563
140941269,0.06972214,0.16038291,0.29435563
140951669,0.073223576,0.18572104,0.3001301
140960469,0.06442229,0.16219825,0.29579362
140971668,0.06963908,0.17493628,0.31194893
140980468,0.073209144,0.16404422,0.3031878
140991668,0.085552365,0.16224422,0.30472785
141000472,0.05203736,0.16404422,0.30308783
141011668,0.08912288,0.16942896,0.2958726
141020469,0.05732331,0.16224422,0.3045946
141030091,0.05732331,0.16224422,0.3045946
141039668,0.08378115,0.16405953,0.3061825
141049293,0.067867234,0.15144412,0.3135353
141059668,0.043181166,0.16950558,0.31037986
141069269,0.07142456,0.18756704,0.3074743
141079668,0.073278114,0.14227547,0.28857684
141089295,0.06267886,0.16398291,0.29135874
141099700,0.06269276,0.1639676,0.28841397
141109282,0.06979173,0.16392161,0.279613
141119669,0.06979173,0.16392161,0.279613
141128469,0.053822663,0.16944428,0.29865077
141139668,0.05737927,0.17664434,0.2927403
141148469,0.08556609,0.15499818,0.3018207
141159668,0.06620775,0.174829,0.29131895
141168468,0.07325129,0.18207504,0.2942594
141179668,0.06442229,0.16219825,0.29579362
141188469,0.071479455,0.15858288,0.29584575
141199669,0.06438067,0.16585957,0.3046091
141208474,0.06438067,0.16585957,0.3046091
141217294,0.06266514,0.17122898,0.29426587
141227668,0.055621594,0.16398291,0.29132542
141237294,0.064450435,0.17662902,0.28982884
141247668,0.06083804,0.16225955,0.307556
141257321,0.055677645,0.1819984,0.2794523
141267699,0.07150743,0.16578294,0.28991857
141277317,0.064366505,0.15502883,0.3076103
141287668,0.06804795,0.1512449,0.2752534
141297295,0.06804795,0.1512449,0.2752534
141307668,0.07853689,0.1658136,0.29584143
141316468,0.06263707,0.16041355,0.30021185
141327668,0.06969442,0.16402888,0.30022633
141336468,0.074994184,0.1585982,0.29880717
141347668,0.066179425,0.1531675,0.29732138
141356469,0.06972196,0.15315218,0.29439327
141367669,0.06802014,0.15127555,0.2811429
141376469,0.05922,0.17475238,0.27656183
141386120,0.05922,0.17475238,0.27656183
141395668,0.0874626,0.16027562,0.2738256
141405269,0.07336179,0.15302958,0.2708518
141415668,0.07682101,0.15672156,0.28557348
141425302,0.08742063,0.14947553,0.28271633
141435699,0.0608523,0.17670564,0.30453598
141445269,0.05366993,0.17684357,0.33100554
141455668,0.064255655,0.16961285,0.33109313
141465269,0.06954195,0.18227425,0.33252466
141475669,0.06954195,0.18227425,0.33252466
141484469,0.06060164,0.1589047,0.35763577
141495668,0.05718439,0.16601282,0.3340234
141504470,0.069458455,0.17875086,0.350212
141515669,0.06774248,0.16604348,0.33996287
141524469,0.062400933,0.16790478,0.35023513
141535668,0.05178732,0.1715508,0.3560559
141544469,0.06952761,0.1642128,0.33556348
141555681,0.0588723,0.16790478,0.3502185
141564469,0.0588723,0.16790478,0.3502185
141573269,0.05891418,0.17508954,0.34134656
141583676,0.072931215,0.16796608,0.36206415
141593269,0.076570876,0.16061278,0.33856037
141603707,0.06948591,0.16425876,0.34439775
141613269,0.07471687,0.18782756,0.35755187
141623679,0.07298682,0.16790478,0.3502851
141633279,0.05890037,0.1787202,0.34427252
141643688,0.060615893,0.1733508,0.35461575
141653269,0.060615893,0.1733508,0.35461575
141663668,0.055357832,0.17873554,0.34720063
141672471,0.06069921,0.1696435,0.33696598
141683668,0.06597144,0.17508954,0.34137988
141692469,0.06424175,0.16962819,0.3340379
141703677,0.05721246,0.17682825,0.32807744
141712469,0.07482728,0.15516676,0.33416313
141723700,0.071354344,0.1587208,0.3223486
141732469,0.06433888,0.1622902,0.3134622
141742072,0.06433888,0.1622902,0.3134622
141751668,0.059136596,0.17484434,0.2942304
141761287,0.07496629,0.1550135,0.3047155
141771691,0.07675203,0.17849033,0.3001844
141781284,0.069708414,0.16762893,0.29726276
141791668,0.08037735,0.15307555,0.2797194
141801269,0.07511885,0.1403835,0.27239838
141811668,0.07154922,0.16935234,0.28106546
141821269,0.08213519,0.17296767,0.28109664
141831669,0.08213519,0.17296767,0.28109664
141840468,0.06620775,0.174829,0.29131895
141851668,0.07156321,0.17295234,0.27810192
141860469,0.07682101,0.15672156,0.28557348
141871668,0.05919202,0.1675523,0.282489
141880469,0.085677385,0.15849093,0.27824378
141891679,0.08210766,0.18384439,0.28692973
141900469,0.09093562,0.16033693,0.2856213
141911680,0.07853653,0.15135217,0.2959167
141920475,0.07853653,0.15135217,0.2959167
141929282,0.052079327,0.17484434,0.29419708
141939668,0.05026614,0.16585957,0.30454248
141949269,0.08205179,0.17305961,0.2987652
141959668,0.06436668,0.16225955,0.30757266
141969268,0.0715208,0.14407548,0.28708673
141979682,0.043194532,0.1477981,0.307548
141989269,0.07507741,0.15127555,0.2811762
141999691,0.05921938,0.14944488,0.27669352
142010069,0.05921938,0.14944488,0.27669352
142019671,0.07153497,0.15490623,0.2840855
142028469,0.07330619,0.15309088,0.2826309
142039668,0.08220462,0.1692757,0.26639163
142048468,0.06803387,0.14402951,0.27823576
142059679,0.06447798,0.16575229,0.28399575
142068469,0.07676584,0.17485966,0.29725844
142079674,0.07495266,0.1658749,0.30760384
142088471,0.08560788,0.15856755,0.29296762
142107679,0.07852245,0.14413679,0.29889908
142117302,0.060879745,0.16221356,0.29872173
142127670,0.07326439,0.1495215,0.29148397
142137296,0.0573651,0.1658136,0.2957415
142147668,0.0484812,0.17492096,0.30890423
142157295,0.0608245,0.1767363,0.31042552
142167668,0.0696529,0.1713056,0.309023
142177316,0.06260971,0.17852098,0.3060073
142187673,0.06260971,0.17852098,0.3060073
142196469,0.060893912,0.1730443,0.29572052
142207668,0.05022417,0.15505949,0.3134332
142216469,0.09088019,0.16762893,0.29736272
142227672,0.06962447,0.14602876,0.31504422
142236469,0.05725336,0.14424406,0.31941247
142247674,0.06790929,0.16585957,0.30462575
142256484,0.073139995,0.17858228,0.3178363
142267675,0.053808227,0.14776745,0.30170843
142276476,0.053808227,0.14776745,0.30170843
142285269,0.055510476,0.16772088,0.31486472
142295668,0.07320923,0.16765958,0.30316895
142305268,0.07671007,0.16769023,0.30907512
142315672,0.060782526,0.16593619,0.31931624
142325269,0.06431108,0.16232084,0.3193517
142335668,0.062596075,0.18938237,0.30889562
142345268,0.06785422,0.18761301,0.31629193
142355672,0.07136825,0.15870547,0.31940386
142366075,0.07136825,0.15870547,0.31940386
142375668,0.069555506,0.1677975,0.32965514
142384481,0.050127488,0.18047427,0.33391482
142395676,0.069458105,0.16428941,0.3502873
142404469,0.06601341,0.18588962,0.33248916
142415689,0.05008525,0.15882808,0.34286198
142424517,0.07651518,0.15705872,0.35035822
142435714,0.06072701,0.16961285,0.33107647
142444514,0.066027135,0.17864358,0.32958204
142463668,0.06954107,0.1461207,0.3327128
142473268,0.07842603,0.18039763,0.31932428
142483672,0.07669572,0.14962877,0.31211394
142493269,0.06962465,0.15325946,0.3150066
142503668,0.07499445,0.16944428,0.29875073
142513272,0.06789513,0.15502883,0.30762696
142523676,0.07495266,0.1658749,0.30760384
142534069,0.07495266,0.1658749,0.30760384
142543713,0.07495266,0.1658749,0.30760384
142552469,0.057309497,0.1658749,0.30752054
142563713,0.037867323,0.16772088,0.31478143
142572469,0.06796454,0.15133683,0.29292196
142583685,0.06083822,0.16949026,0.3075184
142592486,0.044938926,0.18578234,0.3117759
142603688,0.073292196,0.14949085,0.28559443
142612472,0.055663653,0.17839839,0.2824159
142631668,0.037936825,0.16764425,0.3000576
142641268,0.05737838,0.14049077,0.29292843
142651675,0.05212112,0.1784137,0.28534397
142661269,0.059163954,0.1567369,0.28843495
142671713,0.0486203,0.17838305,0.27943778
142681269,0.07498055,0.16945961,0.30169547
142691693,0.052204084,0.16024499,0.2677695
142701268,0.071521066,0.15492155,0.28703028
142711673,0.071521066,0.15492155,0.28703028
142720469,0.055607516,0.15676755,0.29430783
142731673,0.05736528,0.1730443,0.29570386
142740469,0.053850375,0.16579826,0.29278007
142751718,0.05025277,0.18756704,0.30737433
142760515,0.06443644,0.17302896,0.2927924
142771668,0.04852281,0.17125961,0.30008876
142780512,0.030893909,0.18570572,0.29698545
142791668,0.06269302,0.17481369,0.28835753
142800489,0.06269302,0.17481369,0.28835753
142819702,0.044994175,0.17125961,0.3000721
142829268,0.050266497,0.18032101,0.3044672
142839702,0.043194886,0.16225955,0.30747274
142849268,0.045022067,0.17484434,0.2941638
142859709,0.03435286,0.17855163,0.31176355
142869268,0.036138073,0.18033634,0.30734533
142879692,0.0273373,0.17850566,0.30289596
142890069,0.0273373,0.17850566,0.30289596
142899668,0.0273373,0.17850566,0.30289596
142908469,0.04322331,0.18753639,0.30145147
142919677,0.030921536,0.17844436,0.29113355
142928486,0.03974966,0.1621676,0.28978747
142939668,0.027379448,0.19653648,0.2939676
142948487,0.032650966,0.17305961,0.298532
142959668,0.030879654,0.17125961,0.30000547
142968514,0.022009559,0.1767363,0.3102423
142979668,0.016737506,0.17852098,0.30579075
142988512,0.016737506,0.17852098,0.30579075
142997300,0.0043667583,0.19119771,0.31008375
143007677,0.02557936,0.15499818,0.30153754
143017299,0.004366492,0.18035166,0.3101402
143027683,0.004338246,0.16230552,0.31612378
143037296,0.0183977,0.18405895,0.32785657
143047668,-0.002690592,0.18758236,0.31006923
143057307,0.009666078,0.16769023,0.30875865
143067668,0.009610918,0.18582833,0.3204436
143078069,0.009610918,0.18582833,0.3204436
143087698,0.015021802,0.17665967,0.29548517
143096526,-0.007976455,0.19299772,0.30854365
143107668,-0.004433745,0.20021312,0.30557793
143116468,0.027351467,0.18933639,0.29989475
143127668,0.00435188,0.15144412,0.3132355
143136497,-0.004475803,0.18579768,0.3144875
143147668,-0.015061608,0.18941303,0.3144187
143156498,-0.011504553,0.2146899,0.3084141
143175699,-0.018507455,0.16401356,0.29686517
143185269,-0.013276486,0.18758236,0.31001925
143195668,-0.009747499,0.20204379,0.30996066
143205269,-0.016860541,0.19487439,0.32174402
143215668,-0.0026353435,0.17305961,0.29836544
143225282,-0.00783789,0.1747677,0.2791901
143235668,-0.0078658685,0.16756763,0.28511727
143245285,-0.034378856,0.18389037,0.29521433
143255700,-0.034378856,0.18389037,0.29521433
143264499,-0.014992191,0.18572104,0.29971367
143275668,-0.032538038,0.18561377,0.27901706
143284510,-0.032579474,0.19650583,0.2877949
143295668,-0.016805204,0.183967,0.31002143
143304487,-0.04319335,0.18930575,0.29367208
143315668,-0.023737,0.1982905,0.28341
143324491,-0.032663234,0.18213633,0.30553874
143335668,-0.037838336,0.16935234,0.2805491
143344486,-0.037838336,0.16935234,0.2805491
143363668,-0.034378856,0.18389037,0.29521433
143373269,-0.03972023,0.19298239,0.30544898
143383668,-0.046762787,0.22550529,0.3023016
143393268,-0.04839607,0.1837831,0.27453437
143403668,-0.060947713,0.18942834,0.3171469
143413269,-0.052036,0.18029036,0.29809463
143423699,-0.06269131,0.18398233,0.31274965
143433282,-0.07319361,0.19112109,0.2949935
143443668,-0.07319361,0.19112109,0.2949935
143452476,-0.064323254,0.1964905,0.2847002
143463668,-0.062566556,0.16938297,0.28632206
143472510,-0.06788031,0.17121364,0.2907048
143483668,-0.0749512,0.18207504,0.29355982
143492471,-0.07856377,0.16047485,0.3113246
143503668,-0.06266341,0.18756704,0.3068413
143512516,-0.105007075,0.18395168,0.30666023
143523668,-0.08384972,0.16227487,0.30981782
143532488,-0.08384972,0.16227487,0.30981782
143541274,-0.103236206,0.1676749,0.30528086
143551668,-0.108494096,0.18029036,0.2978281
143561268,-0.08020962,0.17299831,0.28621995
143571688,-0.10850764,0.19476712,0.3006976
143581269,-0.09087918,0.16224422,0.303895
143591706,-0.09966561,0.178475,0.29640678
143601268,-0.11385017,0.15685949,0.31117684
143611668,-0.11199484,0.18387504,0.29190314
143622070,-0.11199484,0.18387504,0.29190314
143631668,-0.08025123,0.17665967,0.29503542
143640498,-0.10495191,0.1658136,0.29497528
143651668,-0.10657048,0.15661429,0.26409397
143660490,-0.11896896,0.17293702,0.27425766
143671668,-0.10654197,0.1855065,0.2580539
143680478,-0.09778345,0.16569099,0.2714505
143691668,-0.11007132,0.15658364,0.25818777
143700469,-0.111940034,0.15127555,0.28029338
143720472,-0.111940034,0.15127555,0.28029338
143729309,-0.12609555,0.18024439,0.28891054
143739670,-0.12610997,0.15856755,0.2919682
143749269,-0.10146455,0.18393634,0.30373216
143759699,-0.11908034,0.16582891,0.29785338
143769281,-0.1173371,0.15681352,0.30232593
143779668,-0.106626175,0.15306023,0.27589184
143789272,-0.14196801,0.1567369,0.28748548
143799668,-0.13131218,0.17473705,0.2727176
143810069,-0.13131218,0.17473705,0.2727176
143819668,-0.12771447,0.15658364,0.25810447
143828498,-0.10979304,0.1671232,0.19923611
143839668,-0.11874708,0.15099968,0.22725435
143848468,-0.12916625,0.14720042,0.19188605
143859668,-0.10983474,0.16716917,0.2080704
143868469,-0.10103432,0.15453842,0.21259502
143879668,-0.11700277,0.18536857,0.2315011
143888477,-0.09587374,0.14203025,0.24066108
143907668,-0.12598504,0.15119891,0.26550296
143917326,-0.12956901,0.16210629,0.2772089
143927680,-0.122567624,0.15132152,0.2890777
143937338,-0.11719747,0.18196775,0.2727466
143947668,-0.1260403,0.16572164,0.27720675
143957322,-0.10835535,0.16929103,0.2684369
143967668,-0.13138212,0.1567369,0.28753546
143977334,-0.122595064,0.1658136,0.29489198
143987669,-0.122595064,0.1658136,0.29489198
143996469,-0.11905281,0.1549522,0.29202032
144007668,-0.1296803,0.15861353,0.3007858
144016472,-0.12788102,0.16761361,0.2933852
144027668,-0.12972201,0.1586595,0.3096201
144036469,-0.12615159,0.1622289,0.30078363
144047668,-0.14909486,0.15319815,0.30219483
144056469,-0.11559323,0.1731056,0.3066667
144067677,-0.11737844,0.17132092,0.31108493
144076469,-0.11737844,0.17132092,0.31108493
144095690,-0.110307366,0.16769023,0.3081923
144105275,-0.11209285,0.15505949,0.31266698
144115668,-0.106751196,0.15681352,0.30237588
144125284,-0.12444934,0.18218231,0.31393996
144135668,-0.10853615,0.1658749,0.30673766
144145316,-0.112092584,0.16590555,0.31261054
144155669,-0.104979984,0.15499818,0.30092123
144165279,-0.14028001,0.16224422,0.3036618
144175669,-0.14028001,0.16224422,0.3036618
144184476,-0.11557951,0.16585957,0.30375957
144195668,-0.10499389,0.1550135,0.303866
144204469,-0.12085147,0.17125961,0.29928923
144215668,-0.11736463,0.16769023,0.308159
144224468,-0.11910815,0.16585957,0.30374295
144235706,-0.108452395,0.18024439,0.2889938
144244469,-0.10496564,0.17305961,0.29788238
144255670,-0.10670958,0.15315218,0.29356042
144264478,-0.10670958,0.15315218,0.29356042
144273269,-0.12970838,0.1477981,0.3067318
144283668,-0.12792227,0.18573637,0.30212542
144293276,-0.12083775,0.16401356,0.2963821
144303668,-0.09792255,0.1622289,0.3009169
144313316,-0.12266493,0.15142879,0.30969104
144323668,-0.1102237,0.17844436,0.29046726
144333284,-0.124380365,0.16041355,0.299329
144343668,-0.106778905,0.16045953,0.30824658
144354103,-0.106778905,0.16045953,0.30824658
144363668,-0.10846621,0.18387504,0.2919198
144372471,-0.10319433,0.17485966,0.29640895
144382869,-0.094365925,0.16942896,0.29500642
144392469,-0.110196516,0.1531062,0.28470945
144402868,-0.10147897,0.16225955,0.3067898
144412469,-0.110279396,0.17489031,0.30226517
144422868,-0.10145082,0.17669033,0.300825
144432469,-0.10842477,0.17298299,0.28314194
144442869,-0.10842477,0.17298299,0.28314194
144452469,-0.10842477,0.17298299,0.28314194
144461276,-0.1189973,0.15127555,0.28026006
144471668,-0.104854785,0.15847561,0.27439955
144481278,-0.113683,0.17113702,0.27576444
144491668,-0.12602614,0.1765524,0.27420554
144502092,-0.101367675,0.16575229,0.28321287
144511668,-0.11021015,0.1639676,0.28759778
144522107,-0.1065981,0.16387564,0.26994583
144531668,-0.11015446,0.16752166,0.2757999
144542105,-0.11015446,0.16752166,0.2757999
144550868,-0.11023795,0.16399825,0.2934873
144560469,-0.12610997,0.15856755,0.2919682
144570868,-0.09789465,0.1658136,0.29500857
144580468,-0.09609598,0.14950618,0.28773966
144590868,-0.113822274,0.1604442,0.30526853
144600470,-0.08903864,0.15312153,0.28775415
144611675,-0.12436593,0.18209036,0.29627135
144620469,-0.10668133,0.17119832,0.2875768
144630869,-0.10668133,0.17119832,0.2875768
144639669,-0.11203698,0.16584425,0.30083147
144650083,-0.0997074,0.17490563,0.30525988
144659668,-0.09087892,0.17309026,0.30383855
144670877,-0.10668133,0.17119832,0.2875768
144679668,-0.10848063,0.16219825,0.29497743
144690874,-0.099679776,0.16764425,0.299408
144699669,-0.11376605,0.1856904,0.29335776
144710085,-0.10327818,0.15687482,0.31417158
144719669,-0.10327818,0.15687482,0.31417158
144729301,-0.10327818,0.15687482,0.31417158
144738881,-0.10672295,0.17485966,0.2963923
144748468,-0.099721655,0.16045953,0.3082799
144758868,-0.10848054,0.1658136,0.29495862
144768469,-0.09973503,0.18216698,0.31111178
144778868,-0.117308855,0.17485966,0.2963423
144788469,-0.108494624,0.1585982,0.297941
144799671,-0.09443508,0.183967,0.30965498
144808472,-0.09443508,0.183967,0.30965498
144818869,-0.09443508,0.183967,0.30965498
144827669,-0.11026584,0.16041355,0.29939562
144837302,-0.1102662,0.14595212,0.2994709
144847669,-0.12442127,0.19299772,0.30799398
144857301,-0.110307276,0.1713056,0.30817348
144867668,-0.11390586,0.15330543,0.32297474
144877337,-0.10329164,0.17496693,0.31702226
144887669,-0.105132274,0.18047427,0.33318192
144897334,-0.11223133,0.17690487,0.34200168
144907698,-0.11223133,0.17690487,0.34200168
144916468,-0.105132535,0.16962819,0.33323836
144926872,-0.09456001,0.19133563,0.3361202
144936468,-0.101617984,0.16241279,0.3362374
144946875,-0.09457427,0.17688955,0.3391402
144956469,-0.101617366,0.18772028,0.33610567
144966886,-0.10341728,0.1534127,0.343638
144976469,-0.11573233,0.1696435,0.33613312
144986868,-0.08391897,0.17319754,0.3244852
144996469,-0.08391897,0.17319754,0.3244852
145006880,-0.11914976,0.16952091,0.3125584
145015668,-0.10159009,0.16599749,0.33032906
145026873,-0.101492696,0.16950558,0.3096969
145035669,-0.092678204,0.16409019,0.31123915
145046914,-0.11552373,0.17302896,0.29194292
145055669,-0.092552915,0.17118299,0.28469867
145066874,-0.11737844,0.17132092,0.31108493
145075673,-0.09800595,0.16232084,0.3185855
145085279,-0.09800595,0.16232084,0.3185855
145095682,-0.09800595,0.16232084,0.3185855
145104468,-0.11029311,0.18213633,0.3051723
145114868,-0.11723943,0.17116767,0.2816373
145124473,-0.10842512,0.15852158,0.2832172
145134872,-0.12422737,0.16386032,0.2669178
145144468,-0.11368345,0.15306023,0.27585852
145155668,-0.113669634,0.14942954,0.27293256
145164468,-0.1032224,0.16404422,0.30235493
145174913,-0.11548211,0.16936766,0.28312743
145184482,-0.11548211,0.16936766,0.28312743
145193268,-0.09783905,0.16575229,0.28322953
145203669,-0.10499398,0.15139814,0.3038848
145214881,-0.11033517,0.16772088,0.31408185
145223668,-0.10329217,0.15327477,0.31713516
145234903,-0.1261515,0.16584425,0.30076483
145243693,-0.09082411,0.14049077,0.29222885
145254868,-0.10845257,0.17301364,0.28903145
145263707,-0.087141596,0.18009113,0.25964612
145273269,-0.087141596,0.18009113,0.25964612
145282902,-0.103069484,0.16387564,0.2699625
145292470,-0.10838307,0.17293702,0.27430764
145302891,-0.09252512,0.17115234,0.27880913
145312469,-0.10128445,0.15842962,0.2655819
145322902,-0.10848037,0.1730443,0.29492098
145332469,-0.10850809,0.17669033,0.30079168
145342904,-0.11896976,0.14039883,0.274427
145352479,-0.10850809,0.17669033,0.30079168
145362887,-0.09426907,0.1512449,0.27448717
145372472,-0.09426907,0.1512449,0.27448717
145382893,-0.10320832,0.17125961,0.2993725
145391675,-0.110307276,0.1713056,0.30817348
145402869,-0.09615167,0.14595212,0.2995375
145411692,-0.1119534,0.17298299,0.28312528
145422868,-0.09435212,0.16579826,0.2920805
145431705,-0.11032118,0.17132092,0.31111825
145442868,-0.10852261,0.15139814,0.30386817
145451697,-0.09969395,0.15681352,0.3024092
145461280,-0.09969395,0.15681352,0.3024092
145470912,-0.09966578,0.1712443,0.29644442
145480468,-0.09801994,0.1587208,0.32154906
145490876,-0.097866684,0.17301364,0.28908142
145500468,-0.101506956,0.15505949,0.31271696
145510878,-0.09265031,0.1676749,0.30533084
145520468,-0.11198138,0.16578294,0.28905243
145530879,-0.09620719,0.14962877,0.31129774
145540468,-0.10680671,0.16049019,0.31413612
145550876,-0.10680671,0.16049019,0.31413612
145559691,-0.11214846,0.15512078,0.32444602
145570868,-0.09800569,0.17316689,0.31852904
145579699,-0.110307455,0.16407487,0.30821112
145590868,-0.12800604,0.1713669,0.31986925
145599717,-0.10670896,0.17845969,0.29342872
145610868,-0.11549593,0.17299831,0.28605336
145619709,-0.10318043,0.17484434,0.29346418
145630868,-0.13140966,0.16761361,0.29336855
145639717,-0.13140966,0.16761361,0.29336855
145649269,-0.13140966,0.16761361,0.29336855
145658894,-0.10659819,0.1602603,0.26996467
145668469,-0.10666779,0.15672156,0.2847073
145678868,-0.09433813,0.16939831,0.2891169
145688469,-0.08902394,0.18564442,0.28464007
145698872,-0.083780125,0.1658136,0.2950752
145708469,-0.08556534,0.16402888,0.29949343
145718868,-0.09444978,0.15144412,0.3127691
145728468,-0.099763446,0.15689014,0.317133
145738869,-0.099763446,0.15689014,0.317133
145747670,-0.099637546,0.18929042,0.2904608
145758868,-0.10319362,0.2037825,0.29625842
145767714,-0.0978387,0.18021373,0.28315428
145778869,-0.08728079,0.17301364,0.28913137
145787699,-0.103236295,0.16405953,0.30529967
145798869,-0.10316627,0.18567507,0.29046294
145807708,-0.09604011,0.16029096,0.27590418
145818868,-0.094365925,0.16942896,0.29500642
145827680,-0.094365925,0.16942896,0.29500642
145836476,-0.08912204,0.15321347,0.30542275
145846868,-0.103235945,0.17852098,0.30522442
145856471,-0.10142319,0.16942896,0.2949731
145866900,-0.099763006,0.17496693,0.31703892
145876469,-0.1067929,0.15685949,0.31121016
145886868,-0.10503532,0.16590555,0.31264386
145896468,-0.10318043,0.17484434,0.29346418
145906868,-0.106653705,0.16393694,0.28172493
145916469,-0.106653705,0.16393694,0.28172493
145926868,-0.09778345,0.16569099,0.2714505
145935721,-0.10669577,0.1495215,0.29063445
145946868,-0.10318034,0.17845969,0.29344538
145955698,-0.09783896,0.16936766,0.28321072
145966870,-0.12085121,0.18210568,0.29923278
145975704,-0.099596456,0.16393694,0.28175825
145986868,-0.108508706,0.15138282,0.30092338
145995679,-0.09969359,0.17127495,0.30233395
146005277,-0.09969359,0.17127495,0.30233395
146014868,-0.1066677,0.16033693,0.2846885
146024469,-0.08553728,0.17484434,0.29354748
146034868,-0.10139557,0.1621676,0.2891212
146044469,-0.106695235,0.17121364,0.29052156
146054868,-0.103194505,0.16762893,0.29644656
146064468,-0.11025212,0.1531675,0.29648852
146074868,-0.10502133,0.16950558,0.30968025
146084469,-0.108535975,0.1731056,0.30670002
146094869,-0.108535975,0.1731056,0.30670002
146103720,-0.09613714,0.1712443,0.29646108
146114868,-0.09792237,0.16945961,0.30087927
146123702,-0.09969342,0.17850566,0.3022963
146134868,-0.090851374,0.16221356,0.29800546
146143687,-0.103236385,0.1604442,0.30531847
146154868,-0.09793583,0.1875517,0.30372998
146163673,-0.09262242,0.17125961,0.29942247
146174869,-0.096109174,0.17844436,0.2905339
146183708,-0.096109174,0.17844436,0.2905339
146192489,-0.09612298,0.18207504,0.29345986
146202868,-0.09090698,0.16227487,0.3097845
146212472,-0.10139557,0.1621676,0.2891212
146222868,-0.101492874,0.16227487,0.30973455
146232477,-0.11733657,0.17850566,0.30221304
146242868,-0.09973565,0.15685949,0.31124347
146252501,-0.106695324,0.16759828,0.29054037
146262868,-0.11203707,0.1622289,0.30085027
146272487,-0.11203707,0.1622289,0.30085027
146282869,-0.11203707,0.1622289,0.30085027
146291680,-0.11545405,0.18018308,0.27718145
146302870,-0.104938015,0.16579826,0.2920305
146311693,-0.09079533,0.18022905,0.28613234
146322868,-0.09969359,0.17127495,0.30233395
146331669,-0.0784523,0.17119832,0.28771007
146342870,-0.08906644,0.15315218,0.2936437
146351670,-0.09436637,0.15135217,0.2951005
146362868,-0.12089344,0.16045953,0.30817994
146371669,-0.12089344,0.16045953,0.30817994
146380468,-0.1155517,0.16582891,0.29787004
146390868,-0.10670913,0.17122898,0.29346633
146400468,-0.11912169,0.18033634,0.30661243
146410868,-0.09969359,0.17127495,0.30233395
146420475,-0.117392525,0.16410552,0.31406733
146430868,-0.10681999,0.185813,0.3169492
146440473,-0.09969342,0.17850566,0.3022963
146450868,-0.09613723,0.16762893,0.29647988
146461269,-0.09613723,0.16762893,0.29647988
146470868,-0.090782136,0.15129086,0.2833381
146479691,-0.08199509,0.16036758,0.2906946
146490868,-0.08729469,0.17302896,0.29207617
146499669,-0.10142302,0.17665967,0.2949355
146510876,-0.0979361,0.17670564,0.30378643
146519676,-0.11729521,0.16399825,0.293454
146530868,-0.11552373,0.17302896,0.29194292
146539669,-0.11207877,0.16227487,0.30968457
146558868,-0.0996379,0.174829,0.29053605
146568474,-0.11385017,0.15685949,0.31117684
146578868,-0.09789501,0.15135217,0.29508385
146588477,-0.09796416,0.16589022,0.30973238
146598868,-0.10503532,0.16590555,0.31264386
146608477,-0.09436575,0.17665967,0.29496878
146618868,-0.09440763,0.16947493,0.30384073
146628509,-0.112009265,0.16219825,0.29496077
146638869,-0.112009265,0.16219825,0.29496077
146649269,-0.112009265,0.16219825,0.29496077
146658868,-0.10848028,0.17665967,0.29490218
146667668,-0.10677864,0.1713056,0.30819014
146678868,-0.12089326,0.16769023,0.30814233
146687669,-0.11206461,0.1731056,0.30668336
146698868,-0.11729477,0.18207504,0.29335994
146707679,-0.10848054,0.1658136,0.29495862
146718869,-0.0925809,0.16398291,0.2906258
146727700,-0.101367764,0.16213694,0.2832317
146737296,-0.101367764,0.16213694,0.2832317
146746868,-0.09617876,0.17490563,0.30527654
146756468,-0.10496617,0.15136749,0.29799527
146766868,-0.10670905,0.17484434,0.29344752
146776477,-0.104965374,0.18390569,0.29782596
146786868,-0.12265076,0.16225955,0.30668986
146796514,-0.09442145,0.1731056,0.30676666
146806868,-0.09970757,0.1676749,0.30529752
146816479,-0.09092124,0.14782876,0.31280455
146826869,-0.09092124,0.14782876,0.31280455
146835668,-0.11528768,0.1619224,0.2419384
146846868,-0.10647318,0.15650702,0.24348064
146855669,-0.109904334,0.16363044,0.22281301
146866868,-0.11348839,0.17092247,0.23453778
146875669,-0.09212288,0.13455434,0.1935992
146886868,-0.10464645,0.15101501,0.23026574
146895707,-0.09573474,0.14187701,0.21121348
146906868,-0.09046189,0.17263052,0.21549569
146915669,-0.09046189,0.17263052,0.21549569
146924491,-0.10474305,0.18004516,0.25072855
146934868,-0.08895523,0.15302958,0.27008557
146944473,-0.10830028,0.14753757,0.25677076
146954868,-0.111967385,0.16938297,0.28608885
146964473,-0.10135369,0.16935234,0.28024927
146974868,-0.10849489,0.14775212,0.29799744
146984504,-0.10838298,0.1765524,0.27428883
146994870,-0.10852234,0.16224422,0.30381173
147004472,-0.10852234,0.16224422,0.30381173
147014868,-0.120823584,0.17484434,0.2933809
147023671,-0.09969395,0.15681352,0.3024092
147034868,-0.08908016,0.16039823,0.2965508
147043668,-0.10318034,0.17845969,0.29344538
147054868,-0.09788094,0.15856755,0.29210144
147063717,-0.08908034,0.1531675,0.29658845
147074868,-0.09775574,0.16204499,0.26557976
147083669,-0.10665353,0.17116767,0.2816873
147103680,-0.10665353,0.17116767,0.2816873
147112489,-0.108133115,0.16181512,0.22135837
147122868,-0.10459014,0.17987658,0.21833618
147132469,-0.102749765,0.16352317,0.20223299
147142868,-0.09032341,0.15078513,0.18616094
147152469,-0.09913773,0.16343121,0.18458107
147162868,-0.09908275,0.13806242,0.17293373
147172469,-0.106097855,0.15609324,0.16397206
147182868,-0.099109925,0.16340056,0.17869155
147192469,-0.099109925,0.16340056,0.17869155
147202868,-0.10969644,0.13809307,0.17877328
147211669,-0.101020694,0.14367704,0.20970671
147222868,-0.111564435,0.16170783,0.20072837
147231714,-0.092316695,0.16730711,0.23465653
147242868,-0.097589284,0.14739965,0.23031786
147251669,-0.07124221,0.16741438,0.2553698
147262881,-0.09062878,0.16919908,0.2508516
147271668,-0.103069484,0.16387564,0.2699625
147290868,-0.10679281,0.16047485,0.31119135
147300469,-0.10848028,0.17665967,0.29490218
147310868,-0.0909485,0.16955155,0.31858116
147320468,-0.10502116,0.1767363,0.3096426
147330868,-0.10511872,0.16599749,0.3303124
147340510,-0.11034898,0.17135157,0.31700778
147350868,-0.082120016,0.1677362,0.31715986
147360468,-0.1191634,0.18038231,0.31544673
147370869,-0.1191634,0.18038231,0.31544673
147381269,-0.1191634,0.18038231,0.31544673
147390868,-0.09622055,0.17133625,0.31412965
147399681,-0.09977726,0.16052084,0.32005894
147410869,-0.10693181,0.16062811,0.34063894
147419669,-0.09086519,0.16584425,0.3009314
147430871,-0.09093496,0.1550748,0.31571168
147439669,-0.10326384,0.17493628,0.31113273
147450882,-0.10856404,0.1622902,0.312646
147459669,-0.08917712,0.17496693,0.3170889
147478868,-0.10499389,0.1550135,0.303866
147488469,-0.08557916,0.16765958,0.3024194
147498868,-0.103236295,0.16405953,0.30529967
147508469,-0.099638075,0.16759828,0.2905737
147518868,-0.1013675,0.17298299,0.28317526
147528468,-0.09965215,0.16038291,0.2935561
147538868,-0.112133935,0.18041296,0.32136956
147548485,-0.09800586,0.16593619,0.31856668
147558869,-0.09800586,0.16593619,0.31856668
147567705,-0.096261725,0.19307435,0.32285106
147578868,-0.08906626,0.16038291,0.29360607
147587676,-0.10853659,0.1477981,0.30683172
147598871,-0.11021024,0.16035226,0.28761658
147607670,-0.108410954,0.16935234,0.28021598
147618908,-0.1207957,0.17842904,0.28747255
147627671,-0.11903864,0.16578294,0.2890191
147638868,-0.094295986,0.18742912,0.28018853
147647669,-0.094295986,0.18742912,0.28018853
147666868,-0.10669515,0.174829,0.29050273
147676469,-0.11373843,0.17842904,0.28750587
147686868,-0.119025186,0.14769082,0.28616843
147696468,-0.09955493,0.15666026,0.2729616
147706868,-0.122567095,0.17301364,0.2889648
147716492,-0.10489596,0.18021373,0.28312096
147726868,-0.11723899,0.18924445,0.28154325
147736475,-0.088968776,0.16750632,0.2729551
147746873,-0.088968776,0.16750632,0.2729551
147755669,-0.07661148,0.17292169,0.2715128
147766923,-0.08562086,0.16770555,0.31125367
147775668,-0.10675102,0.16404422,0.30233827
147786907,-0.10326366,0.18216698,0.31109512
147795669,-0.08556508,0.17487498,0.299437
147806904,-0.115398884,0.16204499,0.26549646
147815669,-0.104896046,0.17659837,0.28313977
147826900,-0.115523644,0.17664434,0.2919241
147835669,-0.115523644,0.17664434,0.2919241
147844468,-0.108494535,0.16221356,0.2979222
147854892,-0.11384973,0.17493628,0.31108278
147864468,-0.09616451,0.18935172,0.30225652
147874868,-0.09788067,0.16941363,0.29204503
147884482,-0.09252512,0.17115234,0.27880913
147894868,-0.10140983,0.14772147,0.29214123
147904472,-0.10842485,0.16936766,0.28316075
147914868,-0.11368345,0.15306023,0.27585852
147925269,-0.11368345,0.15306023,0.27585852
147934897,-0.11368345,0.15306023,0.27585852
147943669,-0.11380794,0.17850566,0.3022297
147954916,-0.101408765,0.19110575,0.29191548
147963669,-0.09265022,0.17129026,0.305312
147974905,-0.11545423,0.17295234,0.2772191
147983674,-0.09605374,0.17115234,0.27879247
147994901,-0.10492394,0.17301364,0.2890481
148003669,-0.092594884,0.16038291,0.2935894
148014884,-0.101367585,0.16936766,0.28319407
148023669,-0.101367585,0.16936766,0.28319407
148032468,-0.11375295,0.15313685,0.29058233
148042876,-0.112050794,0.16947493,0.30375743
148052484,-0.12081004,0.16036758,0.29051137
148062885,-0.11906644,0.1658136,0.29490864
148072482,-0.11375207,0.18929042,0.29039416
148082868,-0.09262269,0.16041355,0.29947892
148092472,-0.106695235,0.17121364,0.29052156
148102898,-0.099527046,0.16024499,0.26705322
148113269,-0.099527046,0.16024499,0.26705322
148122908,-0.090865456,0.15499818,0.30098784
148131668,-0.1102098,0.17842904,0.28752252
148142904,-0.11368309,0.16752166,0.27578324
148151669,-0.12072672,0.15666026,0.27286163
148162896,-0.10311191,0.13499877,0.27894732
148171669,-0.11898322,0.15849093,0.27727768
148182876,-0.11722598,0.15307555,0.2787866
148191668,-0.11906627,0.1730443,0.294871
148211695,-0.11906627,0.1730443,0.294871
148220482,-0.09795035,0.16225955,0.30680645
148230868,-0.09439382,0.16584425,0.30091473
148240501,-0.10326446,0.14962877,0.31126446
148250876,-0.08199518,0.15675221,0.2907134
148260468,-0.104896136,0.17298299,0.2831586
148270899,-0.0943661,0.16219825,0.29504406
148280468,-0.10846639,0.17664434,0.2919574
148290898,-0.08719755,0.16569099,0.27150047
148301269,-0.08719755,0.16569099,0.27150047
148310897,-0.11195313,0.18382907,0.28306884
148319669,-0.11732302,0.16402888,0.2993435
148330893,-0.10496546,0.18029036,0.29784477
148339669,-0.113780394,0.16762893,0.29639658
148350874,-0.085481495,0.18201374,0.2817308
148359668,-0.115565255,0.18030569,0.30073956
148370878,-0.092594266,0.1856904,0.29345772
148379695,-0.10146446,0.1875517,0.30371332
148398868,-0.10504958,0.15145944,0.31566387
148408472,-0.101465166,0.15862885,0.30386385
148418872,-0.113794036,0.17849033,0.2992849
148428472,-0.122567624,0.15132152,0.2890777
148438898,-0.103166975,0.15675221,0.29061347
148448468,-0.112009265,0.16219825,0.29496077
148458912,-0.12079561,0.18204439,0.28745374
148468469,-0.09436646,0.1477368,0.29511932
148478902,-0.09436646,0.1477368,0.29511932
148489271,-0.09436646,0.1477368,0.29511932
