timestamp,vel_pos_innov[0],vel_pos_innov[1],vel_pos_innov[2],vel_pos_innov[3],vel_pos_innov[4],vel_pos_innov[5],mag_innov[0],mag_innov[1],mag_innov[2],heading_innov,airspeed_innov,beta_innov,flow_innov[0],flow_innov[1],hagl_innov,vel_pos_innov_var[0],vel_pos_innov_var[1],vel_pos_innov_var[2],vel_pos_innov_var[3],vel_pos_innov_var[4],vel_pos_innov_var[5],mag_innov_var[0],mag_innov_var[1],mag_innov_var[2],heading_innov_var,airspeed_innov_var,beta_innov_var,flow_innov_var[0],flow_innov_var[1],hagl_innov_var,output_tracking_error[0],output_tracking_error[1],output_tracking_error[2],drag_innov[0],drag_innov[1],drag_innov_var[0],drag_innov_var[1],aux_vel_innov[0],aux_vel_innov[1]
133185271,-0.20442715,0.39640373,-0.096340664,-0.13907957,0.33422703,0.15795135,0.0,0.0,0.0,-0.006434679,0.0,0.0,0.0,0.0,0.0,0.2626622,0.2626547,0.5732991,0.41745573,0.4174455,4.05527,0.0,0.0,0.0,0.090151,0.0,0.0,0.0,0.0,0.0,0.0014494185,0.015920566,0.032594137,0.0,0.0,0.0,0.0,0.0,0.0
133385283,-0.16501406,0.3454005,0.029197238,-0.13784313,0.32745707,-0.10206604,0.0,0.0,0.0,0.0019083023,0.0,0.0,0.0,0.0,0.0,0.26250985,0.26250288,0.57322294,0.41408578,0.41407615,4.0551267,0.0,0.0,0.0,0.090151094,0.0,0.0,0.0,0.0,0.0,0.0013609936,0.0125025,0.02597904,0.0,0.0,0.0,0.0,0.0,0.0
133993270,-0.18679321,0.34860903,0.06339863,-0.16155207,0.34243688,0.059402466,0.0,0.0,0.0,0.014862895,0.0,0.0,0.0,0.0,0.0,0.2625326,0.26252678,0.5732804,0.40650344,0.40649465,4.0559287,0.0,0.0,0.0,0.09015106,0.0,0.0,0.0,0.0,0.0,0.0013666449,0.009174716,0.01862927,0.0,0.0,0.0,0.0,0.0,0.0
134193282,-0.16342518,0.33544558,0.06493841,-0.16106892,0.3406638,-0.033546448,0.0,0.0,0.0,-0.010140061,0.0,0.0,0.0,0.0,0.0,0.26244855,0.26244316,0.5734049,0.40355805,0.40354976,4.0562873,0.0,0.0,0.0,0.09015098,0.0,0.0,0.0,0.0,0.0,0.0013041949,0.007495976,0.015549094,0.0,0.0,0.0,0.0,0.0,0.0
134401310,-0.16786005,0.29726338,0.045318276,-0.1640315,0.33538958,-0.28564453,0.0,0.0,0.0,-0.041380048,0.0,0.0,0.0,0.0,0.0,0.26243374,0.2624287,0.5732935,0.40097353,0.4009656,4.0559998,0.0,0.0,0.0,0.090150915,0.0,0.0,0.0,0.0,0.0,0.0012202002,0.004357993,0.0099611115,0.0,0.0,0.0,0.0,0.0,0.0
134601276,-0.15182424,0.34657797,0.01486313,-0.16482139,0.3305899,0.0053634644,0.0,0.0,0.0,-0.04298985,0.0,0.0,0.0,0.0,0.0,0.26235926,0.26235455,0.57332784,0.3981005,0.39809301,4.055912,0.0,0.0,0.0,0.09015085,0.0,0.0,0.0,0.0,0.0,0.0012243572,0.0028727239,0.006455841,0.0,0.0,0.0,0.0,0.0,0.0
134809277,-0.15538602,0.2889468,0.029219283,-0.15845633,0.33525413,-0.22232056,0.0,0.0,0.0,-0.056056738,0.0,0.0,0.0,0.0,0.0,0.2624102,0.26240572,0.57326794,0.39587328,0.39586607,4.055674,0.0,0.0,0.0,0.09015078,0.0,0.0,0.0,0.0,0.0,0.0012968715,0.0029351779,0.007770045,0.0,0.0,0.0,0.0,0.0,0.0
135009271,-0.17185044,0.32693005,-0.082358755,-0.17336297,0.32568675,-0.13672638,0.0,0.0,0.0,0.047572613,0.0,0.0,0.0,0.0,0.0,0.26238865,0.26238447,0.57326204,0.3944865,0.39447957,4.0556235,0.0,0.0,0.0,0.0901508,0.0,0.0,0.0,0.0,0.0,0.0011431118,0.0022440546,0.0048865713,0.0,0.0,0.0,0.0,0.0,0.0
135208516,-0.21365756,0.3693729,-0.012978296,-0.17394996,0.33615792,-0.06341553,0.0,0.0,0.0,-0.096725464,0.0,0.0,0.0,0.0,0.0,0.2623685,0.2623646,0.57325757,0.39194974,0.39194313,4.0555925,0.0,0.0,0.0,0.09015074,0.0,0.0,0.0,0.0,0.0,0.0012599479,0.0033397248,0.0068794633,0.0,0.0,0.0,0.0,0.0,0.0
135415704,-0.17794254,0.31903058,0.04492691,-0.18182147,0.33382827,0.17832947,0.0,0.0,0.0,0.0041456223,0.0,0.0,0.0,0.0,0.0,0.26234633,0.26234266,0.5732579,0.39058527,0.390579,4.055573,0.0,0.0,0.0,0.09015085,0.0,0.0,0.0,0.0,0.0,0.0012239555,0.003080556,0.007855097,0.0,0.0,0.0,0.0,0.0,0.0
135616471,-0.15748833,0.34760267,-0.09280336,-0.17958665,0.3349517,-0.15868378,0.0,0.0,0.0,-0.0056210756,0.0,0.0,0.0,0.0,0.0,0.26232597,0.2623225,0.5732591,0.38924038,0.3892344,4.0555344,0.0,0.0,0.0,0.09015086,0.0,0.0,0.0,0.0,0.0,0.0012602574,0.0025718336,0.0067594247,0.0,0.0,0.0,0.0,0.0,0.0
135816482,-0.19134504,0.32715765,0.019734213,-0.17850018,0.33277506,0.2591629,0.0,0.0,0.0,-0.009655595,0.0,0.0,0.0,0.0,0.0,0.26230055,0.2622973,0.57326174,0.38671628,0.3867106,4.0552473,0.0,0.0,0.0,0.09015089,0.0,0.0,0.0,0.0,0.0,0.0012099452,0.002509933,0.0062534926,0.0,0.0,0.0,0.0,0.0,0.0
136024470,-0.17607155,0.30930504,0.022807365,-0.17565668,0.33408052,-0.5110779,0.0,0.0,0.0,0.009059668,0.0,0.0,0.0,0.0,0.0,0.26233175,0.2623287,0.57322097,0.38565463,0.38564917,4.0551243,0.0,0.0,0.0,0.090150915,0.0,0.0,0.0,0.0,0.0,0.0011377715,0.0038957603,0.009630199,0.0,0.0,0.0,0.0,0.0,0.0
136224489,-0.15691154,0.31203505,-0.058582276,-0.1712364,0.33101392,-0.04070282,0.0,0.0,0.0,-0.070774555,0.0,0.0,0.0,0.0,0.0,0.26225132,0.26224846,0.5731944,0.38287497,0.38286987,4.054887,0.0,0.0,0.0,0.09015085,0.0,0.0,0.0,0.0,0.0,0.0012037654,0.0058146515,0.014610485,0.0,0.0,0.0,0.0,0.0,0.0
136424470,-0.1357883,0.29755396,-0.04617773,-0.16948867,0.32251555,0.33213806,0.0,0.0,0.0,-0.026419759,0.0,0.0,0.0,0.0,0.0,0.2622304,0.26222783,0.5732079,0.38155702,0.38155216,4.0549564,0.0,0.0,0.0,0.09015088,0.0,0.0,0.0,0.0,0.0,0.001226725,0.005838602,0.013073412,0.0,0.0,0.0,0.0,0.0,0.0
136632471,-0.16712572,0.3200773,-0.06693771,-0.16902912,0.32283747,0.13064575,0.0,0.0,0.0,0.015874028,0.0,0.0,0.0,0.0,0.0,0.26221684,0.26221406,0.5732219,0.38025203,0.3802474,4.0548797,0.0,0.0,0.0,0.09015082,0.0,0.0,0.0,0.0,0.0,0.0011542413,0.0075874394,0.019212155,0.0,0.0,0.0,0.0,0.0,0.0
136832478,-0.13596272,0.26925868,0.02745083,-0.16702735,0.3161655,0.48282623,0.0,0.0,0.0,-0.034865737,0.0,0.0,0.0,0.0,0.0,0.2622164,0.26221383,0.57323736,0.37781003,0.3778056,4.0549746,0.0,0.0,0.0,0.09015085,0.0,0.0,0.0,0.0,0.0,0.0012196519,0.010718189,0.028668255,0.0,0.0,0.0,0.0,0.0,0.0
137032487,-0.1202868,0.27791065,-0.1038841,-0.16528308,0.308293,0.6355972,0.0,0.0,0.0,-0.054989934,0.0,0.0,0.0,0.0,0.0,0.26242468,0.26242173,0.57325304,0.37652737,0.37652314,4.055323,0.0,0.0,0.0,0.09015087,0.0,0.0,0.0,0.0,0.0,0.0013535356,0.018410759,0.05514675,0.0,0.0,0.0,0.0,0.0,0.0
137232477,-0.12533401,0.34596765,-0.096553504,-0.17244339,0.31035024,0.6122284,0.0,0.0,0.0,-0.051306486,0.0,0.0,0.0,0.0,0.0,0.26269042,0.2626819,0.57325774,0.37759647,0.37759253,4.055077,0.0,0.0,0.0,0.090150826,0.0,0.0,0.0,0.0,0.0,0.0013282158,0.015395552,0.049080472,0.0,0.0,0.0,0.0,0.0,0.0
137432470,-0.12399681,0.2795825,-0.069987655,-0.1628325,0.3149491,-0.14433289,0.0,0.0,0.0,-0.033163667,0.0,0.0,0.0,0.0,0.0,0.26297134,0.2629518,0.57326424,0.37759846,0.37759447,4.0558534,0.0,0.0,0.0,0.09015085,0.0,0.0,0.0,0.0,0.0,0.0014616024,0.007849792,0.019502873,0.0,0.0,0.0,0.0,0.0,0.0
137640474,-0.08076894,0.22296715,-0.104228616,-0.16128528,0.30983493,-0.26358795,0.0,0.0,0.0,-0.035592556,0.0,0.0,0.0,0.0,0.0,0.26290196,0.26288643,0.57334524,0.37761816,0.37761384,4.0565586,0.0,0.0,0.0,0.09015087,0.0,0.0,0.0,0.0,0.0,0.001279166,0.014131268,0.033305727,0.0,0.0,0.0,0.0,0.0,0.0
137840478,-0.14515404,0.35328498,0.028879762,-0.15853488,0.30577287,-0.35273743,0.0,0.0,0.0,-0.05490327,0.0,0.0,0.0,0.0,0.0,0.26260543,0.2626029,0.5734122,0.37761083,0.37760645,4.0567174,0.0,0.0,0.0,0.09015089,0.0,0.0,0.0,0.0,0.0,0.0013138695,0.014306882,0.039224304,0.0,0.0,0.0,0.0,0.0,0.0
138040471,-0.16661009,0.3004306,-0.17124641,-0.17031693,0.3055248,-0.2681427,0.0,0.0,0.0,-0.04289913,0.0,0.0,0.0,0.0,0.0,0.2621668,0.262173,0.5734209,0.37782368,0.3778208,4.057016,0.0,0.0,0.0,0.090150826,0.0,0.0,0.0,0.0,0.0,0.0013244532,0.014623695,0.03990898,0.0,0.0,0.0,0.0,0.0,0.0
138248470,-0.15087119,0.24766718,-0.12762415,-0.16646361,0.29594973,0.0012741089,0.0,0.0,0.0,-0.065496325,0.0,0.0,0.0,0.0,0.0,0.2617973,0.2618016,0.5734335,0.3762213,0.37622046,4.0573945,0.0,0.0,0.0,0.090150855,0.0,0.0,0.0,0.0,0.0,0.0012403671,0.0133527275,0.030915618,0.0,0.0,0.0,0.0,0.0,0.0
139464470,-0.089995086,0.4135841,-0.06238413,-0.14315486,0.3082305,-0.029701233,0.0,0.0,0.0,-0.023478746,0.0,0.0,0.0,0.0,0.0,0.26163143,0.26154825,0.57329214,0.4539691,0.45397466,4.0564938,0.0,0.0,0.0,0.093479596,0.0,0.0,0.0,0.0,0.0,0.0003986502,0.016313318,0.03414351,0.0,0.0,0.0,0.0,0.0,0.0
139664470,-0.18537652,0.27006304,-0.100042105,-0.13531232,0.31069982,-0.042915344,0.0,0.0,0.0,0.0019309521,0.0,0.0,0.0,0.0,0.0,0.26117006,0.26083708,0.57333744,0.47358668,0.4735874,4.0566163,0.0,0.0,0.0,0.09265737,0.0,0.0,0.0,0.0,0.0,0.00218597,0.016927876,0.03219787,0.0,0.0,0.0,0.0,0.0,0.0
139858888,-0.13386023,0.240556,0.070575476,-0.13753545,0.30448747,0.079696655,0.0,0.0,0.0,0.023732543,0.0,0.0,0.0,0.0,0.0,0.26125103,0.26047075,0.57333595,0.49266148,0.49263754,4.0569086,0.0,0.0,0.0,0.09214934,0.0,0.0,0.0,0.0,0.0,0.0014016002,0.0184804,0.036995184,0.0,0.0,0.0,0.0,0.0,0.0
140067679,-0.10909057,0.25450107,-0.014375687,-0.15472984,0.30493262,0.30400848,0.0,0.0,0.0,0.035662174,0.0,0.0,0.0,0.0,0.0,0.26180434,0.26039153,0.57341653,0.51137143,0.511273,4.056571,0.0,0.0,0.0,0.09180423,0.0,0.0,0.0,0.0,0.0,0.00096647936,0.017884487,0.035204407,0.0,0.0,0.0,0.0,0.0,0.0
140267671,-0.16436231,0.3299185,-0.10561097,-0.15316272,0.31660873,0.029708862,0.0,0.0,0.0,-0.06653571,0.0,0.0,0.0,0.0,0.0,0.2624323,0.26036167,0.5733926,0.5159585,0.5157415,4.056392,0.0,0.0,0.0,0.09155448,0.0,0.0,0.0,0.0,0.0,0.003510999,0.01498022,0.030952284,0.0,0.0,0.0,0.0,0.0,0.0
140475673,-0.18807042,0.29470846,0.02925539,-0.15781808,0.3310442,-0.20178986,0.0,0.0,0.0,0.03804171,0.0,0.0,0.0,0.0,0.0,0.26342922,0.2605806,0.57341367,0.5125398,0.51212835,4.057175,0.0,0.0,0.0,0.09136536,0.0,0.0,0.0,0.0,0.0,0.00088534306,0.0149029875,0.030771589,0.0,0.0,0.0,0.0,0.0,0.0
140676471,-0.08627242,0.35060397,0.06660938,-0.168751,0.3233319,-0.29250336,0.0,0.0,0.0,-0.00010097027,0.0,0.0,0.0,0.0,0.0,0.26436016,0.26079726,0.5734766,0.50743556,0.5067741,4.056985,0.0,0.0,0.0,0.091217265,0.0,0.0,0.0,0.0,0.0,0.0008961488,0.013495948,0.028021293,0.0,0.0,0.0,0.0,0.0,0.0
140875697,-0.12940466,0.28917587,0.22844958,-0.17084908,0.34406936,-0.010253906,0.0,0.0,0.0,0.011316419,0.0,0.0,0.0,0.0,0.0,0.2656727,0.2612778,0.57353413,0.5056393,0.50459415,4.057241,0.0,0.0,0.0,0.09109815,0.0,0.0,0.0,0.0,0.0,0.0014788619,0.012887327,0.026241973,0.0,0.0,0.0,0.0,0.0,0.0
141083708,-0.13113582,0.3545429,0.23395717,-0.15937662,0.3569308,-0.21897125,0.0,0.0,0.0,0.032747746,0.0,0.0,0.0,0.0,0.0,0.267906,0.26225397,0.57360727,0.49988663,0.49797952,4.057352,0.0,0.0,0.0,0.090989314,0.0,0.0,0.0,0.0,0.0,0.003304943,0.022048084,0.040402293,0.0,0.0,0.0,0.0,0.0,0.0
141283670,-0.13113582,0.3545429,0.23395717,-0.15937662,0.3569308,-0.2260971,0.0,0.0,0.0,-0.0051492453,0.0,0.0,0.0,0.0,0.0,0.267906,0.26225397,0.57360727,0.49988663,0.49797952,4.057138,0.0,0.0,0.0,0.09090919,0.0,0.0,0.0,0.0,0.0,0.0022297548,0.010555803,0.025134562,0.0,0.0,0.0,0.0,0.0,0.0
141483684,-0.12593931,0.25211984,0.16848743,-0.16614366,0.36514008,-0.4477234,0.0,0.0,0.0,-0.043156743,0.0,0.0,0.0,0.0,0.0,0.2697528,0.26330987,0.57371193,0.4972812,0.49435967,4.057417,0.0,0.0,0.0,0.09084115,0.0,0.0,0.0,0.0,0.0,0.0023766516,0.02238694,0.040412042,0.0,0.0,0.0,0.0,0.0,0.0
141691671,-0.069346786,0.39484912,0.23447287,-0.16370654,0.37370595,-0.5933914,0.0,0.0,0.0,0.030332208,0.0,0.0,0.0,0.0,0.0,0.27062228,0.26394022,0.57375264,0.4984333,0.49493587,4.0574775,0.0,0.0,0.0,0.09078268,0.0,0.0,0.0,0.0,0.0,0.0016304002,0.026642498,0.046704683,0.0,0.0,0.0,0.0,0.0,0.0
141891688,-0.069346786,0.39484912,0.23447287,-0.16370654,0.37370595,-0.26950836,0.0,0.0,0.0,-0.012351632,0.0,0.0,0.0,0.0,0.0,0.27062228,0.26394022,0.57375264,0.4984333,0.49493587,4.0570707,0.0,0.0,0.0,0.09072601,0.0,0.0,0.0,0.0,0.0,0.0030120201,0.013968136,0.03920196,0.0,0.0,0.0,0.0,0.0,0.0
142099675,-0.0152846575,0.31044942,0.07375609,-0.14541984,0.37448028,0.032722473,0.0,0.0,0.0,0.022323132,0.0,0.0,0.0,0.0,0.0,0.26990426,0.26366404,0.57373077,0.49693343,0.49268115,4.056916,0.0,0.0,0.0,0.09068216,0.0,0.0,0.0,0.0,0.0,0.001567178,0.022369862,0.04440209,0.0,0.0,0.0,0.0,0.0,0.0
142299671,-0.024704576,0.25166908,0.09093168,-0.14590812,0.369545,-0.088012695,0.0,0.0,0.0,0.04979956,0.0,0.0,0.0,0.0,0.0,0.2703292,0.26420447,0.5737462,0.4961856,0.49162796,4.056443,0.0,0.0,0.0,0.09064316,0.0,0.0,0.0,0.0,0.0,0.0026006286,0.020229936,0.043014664,0.0,0.0,0.0,0.0,0.0,0.0
142499702,-0.07503003,0.2350651,0.29764354,-0.1512003,0.36345407,0.050964355,0.0,0.0,0.0,0.04769969,0.0,0.0,0.0,0.0,0.0,0.2706303,0.26470384,0.57370454,0.49714705,0.49227083,4.0566626,0.0,0.0,0.0,0.09060894,0.0,0.0,0.0,0.0,0.0,0.0013412422,0.019027269,0.037270747,0.0,0.0,0.0,0.0,0.0,0.0
142699720,-0.007976294,0.2344355,0.077305704,-0.13453197,0.34790725,-0.3257141,-0.00072325766,0.0056176186,0.019238532,0.06309533,0.0,0.0,0.0,0.0,0.0,0.2700078,0.26451886,0.57375515,0.49583414,0.49091405,4.0565844,0.003146314,0.0032172364,0.0032146908,0.0905968,0.0,0.0,0.0,0.0,0.0,0.0014806113,0.014497788,0.029889995,0.0,0.0,0.0,0.0,0.0,0.0
142907671,-0.049320996,0.22531766,0.043403864,-0.12127161,0.33496904,0.043373108,-0.0063899495,-0.005171314,0.008524686,0.06309533,0.0,0.0,0.0,0.0,0.0,0.26976037,0.26465908,0.57367706,0.4948897,0.48989695,4.0557327,0.0026978878,0.002704947,0.0027002029,0.0905968,0.0,0.0,0.0,0.0,0.0,0.0011952259,0.011567468,0.023195507,0.0,0.0,0.0,0.0,0.0,0.0
143107677,-0.061737478,0.22921231,0.1285888,-0.10890055,0.32948518,0.048606873,-0.010180775,0.012797117,0.013263941,0.06309533,0.0,0.0,0.0,0.0,0.0,0.26958632,0.2649383,0.57366043,0.49216655,0.48724976,4.055445,0.002639652,0.0026283914,0.002622101,0.0905968,0.0,0.0,0.0,0.0,0.0,0.0012146017,0.0115807755,0.023136286,0.0,0.0,0.0,0.0,0.0,0.0
143307670,-0.08885765,0.18633547,0.18119788,-0.11560774,0.3177544,0.18749237,-0.000984815,0.026358992,-0.008781612,0.06309533,0.0,0.0,0.0,0.0,0.0,0.26932552,0.2651721,0.5736874,0.49113968,0.48628128,4.0554986,0.0026355542,0.0025938516,0.0025878586,0.0905968,0.0,0.0,0.0,0.0,0.0,0.0011712404,0.01252256,0.029461417,0.0,0.0,0.0,0.0,0.0,0.0
143515671,-0.08602345,0.19461954,0.006180167,-0.1256156,0.29271495,-0.05329895,0.0040878803,0.009990096,0.02159208,0.06309533,0.0,0.0,0.0,0.0,0.0,0.26901546,0.265404,0.5738315,0.49042928,0.48563612,4.056267,0.002663554,0.00257376,0.0025686645,0.0905968,0.0,0.0,0.0,0.0,0.0,0.0010736923,0.010090801,0.02573321,0.0,0.0,0.0,0.0,0.0,0.0
143715671,-0.05822569,0.16777113,0.2032628,-0.11650276,0.28521323,-0.10330963,-0.00044742227,0.005407825,-0.008679718,0.06309533,0.0,0.0,0.0,0.0,0.0,0.26848933,0.2655083,0.5737851,0.48876333,0.48425037,4.056033,0.0027074944,0.0025648014,0.0025563408,0.0905968,0.0,0.0,0.0,0.0,0.0,0.0009849292,0.009900703,0.027398529,0.0,0.0,0.0,0.0,0.0,0.0
143923670,0.014440298,0.23933126,-0.09391177,-0.13840055,0.2848664,-0.14391327,0.002085477,-0.008541182,-0.001642853,0.06309533,0.0,0.0,0.0,0.0,0.0,0.26815984,0.26586166,0.5738181,0.48868304,0.48428297,4.0560074,0.0026653442,0.0025616158,0.0025469593,0.0905968,0.0,0.0,0.0,0.0,0.0,0.00093389885,0.008782874,0.020067774,0.0,0.0,0.0,0.0,0.0,0.0
144123708,-0.0018079281,0.25533035,-0.31079355,-0.11672115,0.28064948,0.38480377,0.0030089244,-0.014353469,0.016467988,0.06309533,0.0,0.0,0.0,0.0,0.0,0.2676854,0.2660069,0.57383287,0.48763472,0.4836947,4.056002,0.0026098602,0.00255202,0.0025408103,0.0905968,0.0,0.0,0.0,0.0,0.0,0.0015832284,0.011347392,0.017608212,0.0,0.0,0.0,0.0,0.0,0.0
144323677,0.08268154,0.2558231,0.054196157,-0.11815691,0.2822386,0.107673645,-0.0042560995,-0.00088633597,-0.012992501,0.06309533,0.0,0.0,0.0,0.0,0.0,0.26752234,0.2663474,0.57374996,0.48753357,0.48395574,4.055718,0.0025774913,0.0025435796,0.0025361164,0.0905968,0.0,0.0,0.0,0.0,0.0,0.0024882392,0.016526787,0.02743931,0.0,0.0,0.0,0.0,0.0,0.0
144531677,0.081232905,0.2028897,-0.068173766,-0.102036476,0.27261108,-0.06611633,-0.006555006,-0.010049298,-0.0032075942,0.06309533,0.0,0.0,0.0,0.0,0.0,0.26698002,0.26627067,0.5738403,0.487367,0.4841787,4.056361,0.0025572965,0.0025368417,0.0025319774,0.0905968,0.0,0.0,0.0,0.0,0.0,0.0018905837,0.0155889,0.022471711,0.0,0.0,0.0,0.0,0.0,0.0
144733271,0.1119436,0.20038931,-0.07941435,-0.09743595,0.26987833,-0.04550934,-0.00030955672,0.0031142533,0.0023144782,0.06309533,0.0,0.0,0.0,0.0,0.0,0.26654,0.2662173,0.57391566,0.4871611,0.4843695,4.056777,0.0025465833,0.002532544,0.0025290214,0.0905968,0.0,0.0,0.0,0.0,0.0,0.001386869,0.016985299,0.024788128,0.0,0.0,0.0,0.0,0.0,0.0
144938895,0.11248648,0.22774199,-0.027869016,-0.08440542,0.27030617,0.19909668,0.00035461783,-0.007952303,-0.00733757,0.06309533,0.0,0.0,0.0,0.0,0.0,0.26630735,0.26627994,0.57388526,0.48822367,0.4858262,4.0564985,0.0025397458,0.0025293422,0.0025265731,0.0905968,0.0,0.0,0.0,0.0,0.0,0.0013495139,0.018016355,0.028226854,0.0,0.0,0.0,0.0,0.0,0.0
145138877,0.11950791,0.18697101,0.031827547,-0.07438183,0.25607765,-0.035942078,0.0012462288,-0.0049438924,-0.042696714,0.06309533,0.0,0.0,0.0,0.0,0.0,0.26593393,0.26617658,0.5737648,0.48802736,0.48600808,4.0567064,0.0025350032,0.0025267994,0.0025245107,0.0905968,0.0,0.0,0.0,0.0,0.0,0.0012700725,0.018754872,0.029248806,0.0,0.0,0.0,0.0,0.0,0.0
145338875,0.05825895,0.17943144,-0.17406327,-0.0739274,0.25062138,0.22828674,0.0062985346,0.005804464,0.013932407,0.06309533,0.0,0.0,0.0,0.0,0.0,0.26526332,0.26580265,0.57385856,0.48813382,0.48647046,4.0570846,0.002531422,0.0025246951,0.002522745,0.0905968,0.0,0.0,0.0,0.0,0.0,0.0008585381,0.014983058,0.024464397,0.0,0.0,0.0,0.0,0.0,0.0
145546870,0.15710932,0.14606334,0.039728224,-0.05429411,0.24955338,0.17152405,-0.0033730045,-0.0070255846,-0.0027233064,0.06309533,0.0,0.0,0.0,0.0,0.0,0.26494247,0.26564595,0.57386786,0.48744604,0.48612988,4.057212,0.0025282805,0.0025227424,0.0025210453,0.0905968,0.0,0.0,0.0,0.0,0.0,0.0007277924,0.01728918,0.02989671,0.0,0.0,0.0,0.0,0.0,0.0
145746904,0.13894707,0.18220976,0.108884454,-0.054115772,0.24877226,0.16117859,0.0040295795,0.0018004775,-0.011788994,0.06309533,0.0,0.0,0.0,0.0,0.0,0.264879,0.26568356,0.57382494,0.48720497,0.48620397,4.0575123,0.0025259948,0.0025212308,0.0025197386,0.0905968,0.0,0.0,0.0,0.0,0.0,0.0007775423,0.017977025,0.030956065,0.0,0.0,0.0,0.0,0.0,0.0
145946877,0.07379246,0.24446124,0.0915072,-0.05204153,0.25354165,-0.17197418,-0.017173067,-0.007014975,0.007954329,0.06309533,0.0,0.0,0.0,0.0,0.0,0.2646801,0.2655863,0.57386714,0.48697233,0.48626062,4.057571,0.0025240716,0.0025199347,0.0025185826,0.0905968,0.0,0.0,0.0,0.0,0.0,0.000818807,0.014901623,0.029051485,0.0,0.0,0.0,0.0,0.0,0.0
146154877,0.14814568,0.21735439,0.06621313,-0.04510832,0.25852075,-0.08623505,-0.0035935044,0.0018029213,0.015579104,0.06309533,0.0,0.0,0.0,0.0,0.0,0.26455435,0.26551747,0.57381225,0.4854408,0.48499078,4.057137,0.0025223577,0.0025187647,0.0025175582,0.0905968,0.0,0.0,0.0,0.0,0.0,0.0008461679,0.015143727,0.026290955,0.0,0.0,0.0,0.0,0.0,0.0
146354870,0.11056638,0.16258837,0.017151594,-0.029654026,0.25338793,0.054359436,0.0020155832,-0.003639102,-0.01254493,-0.050223827,0.0,0.0,0.0,0.0,0.0,0.2644124,0.2653889,0.5737281,0.48486963,0.48464298,4.0574245,0.0025216118,0.002518241,0.0025170885,0.090549596,0.0,0.0,0.0,0.0,0.0,0.0012004946,0.013985415,0.02524326,0.0,0.0,0.0,0.0,0.0,0.0
146562871,0.18794554,0.14622279,0.05633086,-0.01845789,0.25561142,0.21320343,0.0020155832,-0.003639102,-0.01254493,0.019872665,0.0,0.0,0.0,0.0,0.0,0.26437965,0.2653783,0.57381713,0.48506004,0.48505107,4.057793,0.0025216118,0.002518241,0.0025170885,0.09052195,0.0,0.0,0.0,0.0,0.0,0.00076413783,0.01648388,0.029930858,0.0,0.0,0.0,0.0,0.0,0.0
146762882,0.10001534,0.17482966,0.023052037,-0.013710499,0.2502904,0.10344696,0.0020155832,-0.003639102,-0.01254493,-0.016218185,0.0,0.0,0.0,0.0,0.0,0.26419497,0.26518464,0.57372016,0.48451722,0.48467335,4.057517,0.0025216118,0.002518241,0.0025170885,0.09049972,0.0,0.0,0.0,0.0,0.0,0.0012906237,0.013562616,0.025670212,0.0,0.0,0.0,0.0,0.0,0.0
146962871,0.102232814,0.20197168,0.069453895,-0.0100951195,0.25007018,0.0104599,0.0020155832,-0.003639102,-0.01254493,-0.008526564,0.0,0.0,0.0,0.0,0.0,0.26413253,0.2650975,0.5736742,0.48438483,0.48469323,4.05697,0.0025216118,0.002518241,0.0025170885,0.09047944,0.0,0.0,0.0,0.0,0.0,0.0007862856,0.011976982,0.02317729,0.0,0.0,0.0,0.0,0.0,0.0
147170871,0.15432161,0.23778275,-0.23278293,-0.015563011,0.2611975,-0.20080566,0.0020155832,-0.003639102,-0.01254493,0.018719435,0.0,0.0,0.0,0.0,0.0,0.26431873,0.2652025,0.5735909,0.48591673,0.4863645,4.056615,0.0025216118,0.002518241,0.0025170885,0.090460725,0.0,0.0,0.0,0.0,0.0,0.0009017842,0.012552592,0.024858331,0.0,0.0,0.0,0.0,0.0,0.0
147370878,0.1853739,0.09928481,0.07448073,-0.008015633,0.24938896,-0.24414062,0.0020155832,-0.003639102,-0.01254493,0.018419981,0.0,0.0,0.0,0.0,0.0,0.26466942,0.2653909,0.57366663,0.4858474,0.4863808,4.0569453,0.0025216118,0.002518241,0.0025170885,0.09044356,0.0,0.0,0.0,0.0,0.0,0.0007609962,0.014395357,0.025657594,0.0,0.0,0.0,0.0,0.0,0.0
147570905,0.120961845,0.19940323,0.20267868,-0.0068998337,0.24897832,-0.34545135,0.0020155832,-0.003639102,-0.01254493,0.015604258,0.0,0.0,0.0,0.0,0.0,0.26554242,0.26596034,0.57365245,0.48587316,0.4864498,4.0570774,0.0025216118,0.002518241,0.0025170885,0.090427645,0.0,0.0,0.0,0.0,0.0,0.00085406704,0.012249369,0.02177055,0.0,0.0,0.0,0.0,0.0,0.0
147778885,0.13199717,0.16675608,0.024161458,-0.00048732758,0.2432617,-0.4117508,0.0020155832,-0.003639102,-0.01254493,0.044670343,0.0,0.0,0.0,0.0,0.0,0.26534417,0.26574302,0.5736143,0.48592123,0.48651296,4.057186,0.0025216118,0.002518241,0.0025170885,0.09041114,0.0,0.0,0.0,0.0,0.0,0.00093575934,0.011175991,0.021760724,0.0,0.0,0.0,0.0,0.0,0.0
147978871,0.14197916,0.16850501,-0.07275796,-0.0003671646,0.23139107,0.17778015,0.0020155832,-0.003639102,-0.01254493,-0.035528183,0.0,0.0,0.0,0.0,0.0,0.2651104,0.26552278,0.5737057,0.4862659,0.48687756,4.0571437,0.0025216118,0.002518241,0.0025170885,0.09039764,0.0,0.0,0.0,0.0,0.0,0.00095198245,0.010418532,0.019117834,0.0,0.0,0.0,0.0,0.0,0.0
148186885,0.11450237,0.17077696,0.017245173,0.016183853,0.22208619,-0.038772583,0.0020155832,-0.003639102,-0.01254493,-0.035808325,0.0,0.0,0.0,0.0,0.0,0.26487276,0.2652562,0.57371646,0.4845394,0.4851382,4.057203,0.0025216118,0.002518241,0.0025170885,0.09038499,0.0,0.0,0.0,0.0,0.0,0.0006711234,0.009094618,0.017876271,0.0,0.0,0.0,0.0,0.0,0.0
148386871,0.12223005,0.06748052,0.089846015,0.02946949,0.20447361,-0.17203522,0.0020155832,-0.003639102,-0.01254493,-0.03275752,0.0,0.0,0.0,0.0,0.0,0.26473287,0.2650904,0.573578,0.48318756,0.48377794,4.056802,0.0025216118,0.002518241,0.0025170885,0.090371795,0.0,0.0,0.0,0.0,0.0,0.0007029886,0.0119932,0.024365712,0.0,0.0,0.0,0.0,0.0,0.0
148586885,0.12169403,0.14413239,0.10961878,0.032244682,0.20267063,0.055740356,0.0020155832,-0.003639102,-0.01254493,-0.003196478,0.0,0.0,0.0,0.0,0.0,0.26457345,0.26491356,0.57354856,0.48180553,0.48238072,4.0568237,0.0025216118,0.002518241,0.0025170885,0.09036088,0.0,0.0,0.0,0.0,0.0,0.00083949184,0.010924481,0.022246422,0.0,0.0,0.0,0.0,0.0,0.0
148794885,0.068380415,0.1011743,0.0900805,0.03583336,0.19190139,0.32870483,0.0020155832,-0.003639102,-0.01254493,-0.0053932667,0.0,0.0,0.0,0.0,0.0,0.2643797,0.26470897,0.573609,0.48170087,0.4822576,4.0566235,0.0025216118,0.002518241,0.0025170885,0.09035065,0.0,0.0,0.0,0.0,0.0,0.0010906872,0.01425629,0.0342062,0.0,0.0,0.0,0.0,0.0,0.0
148998870,0.12555689,0.088652514,0.038954616,0.040394783,0.1825214,0.03945923,0.0020155832,-0.003639102,-0.01254493,-0.04907465,0.0,0.0,0.0,0.0,0.0,0.264384,0.26464415,0.57353747,0.47996005,0.4804862,4.057025,0.0025216118,0.002518241,0.0025170885,0.09034102,0.0,0.0,0.0,0.0,0.0,0.0005654766,0.013677558,0.031433955,0.0,0.0,0.0,0.0,0.0,0.0
149198875,0.14426273,0.10316903,-0.027707458,0.03587246,0.1732279,0.45775604,0.0020155832,-0.003639102,-0.01254493,-0.0039362907,0.0,0.0,0.0,0.0,0.0,0.26450098,0.26471013,0.5735454,0.478964,0.4794644,4.056475,0.0025216118,0.002518241,0.0025170885,0.0903309,0.0,0.0,0.0,0.0,0.0,0.00064268825,0.0132357795,0.03246713,0.0,0.0,0.0,0.0,0.0,0.0
149398877,0.1515845,0.196612,-0.038823366,0.05004692,0.17471397,-0.03328705,0.0020155832,-0.003639102,-0.01254493,-0.099576235,0.0,0.0,0.0,0.0,0.0,0.26454228,0.26468644,0.5734915,0.47733822,0.4777943,4.056552,0.0025216118,0.002518241,0.0025170885,0.090322435,0.0,0.0,0.0,0.0,0.0,0.00065000076,0.009904009,0.022231128,0.0,0.0,0.0,0.0,0.0,0.0
149605313,0.08544582,0.18898219,-0.12090731,0.04427719,0.17397606,0.50388336,0.0020155832,-0.003639102,-0.01254493,0.07493615,0.0,0.0,0.0,0.0,0.0,0.2647974,0.26487505,0.57351303,0.4763832,0.47679704,4.056682,0.0025216118,0.002518241,0.0025170885,0.090314485,0.0,0.0,0.0,0.0,0.0,0.0006535954,0.006717488,0.016187094,0.0,0.0,0.0,0.0,0.0,0.0
149806113,0.11177802,0.10566085,-0.05925274,0.039746284,0.17298174,0.16293335,0.0020155832,-0.003639102,-0.01254493,-0.016509771,0.0,0.0,0.0,0.0,0.0,0.26485434,0.26488143,0.57344705,0.475928,0.4762854,4.0565014,0.0025216118,0.002518241,0.0025170885,0.09030693,0.0,0.0,0.0,0.0,0.0,0.00065703026,0.008244146,0.01784894,0.0,0.0,0.0,0.0,0.0,0.0
150014076,0.14904416,0.17433411,-0.029194117,0.028925896,0.17233574,0.1594925,0.0020155832,-0.003639102,-0.01254493,0.02081132,0.0,0.0,0.0,0.0,0.0,0.26526633,0.26523724,0.5735134,0.477976,0.47828138,4.056195,0.0025216118,0.002518241,0.0025170885,0.090298995,0.0,0.0,0.0,0.0,0.0,0.000899888,0.007007116,0.015155182,0.0,0.0,0.0,0.0,0.0,0.0
150214071,0.16617322,0.14821659,0.12258959,0.042728424,0.16556156,-0.109428406,0.0020155832,-0.003639102,-0.01254493,0.06408858,0.0,0.0,0.0,0.0,0.0,0.26536044,0.26529998,0.5734582,0.47759292,0.47783852,4.056102,0.0025216118,0.002518241,0.0025170885,0.09029229,0.0,0.0,0.0,0.0,0.0,0.00065884343,0.008078112,0.01807248,0.0,0.0,0.0,0.0,0.0,0.0
150414071,0.102369666,0.16923818,-0.040906906,0.045184135,0.17015582,-0.098869324,0.0020155832,-0.003639102,-0.01254493,0.082662344,0.0,0.0,0.0,0.0,0.0,0.26568338,0.26558554,0.57344913,0.47765264,0.47783983,4.0560193,0.0025216118,0.002518241,0.0025170885,0.09028512,0.0,0.0,0.0,0.0,0.0,0.000612565,0.0075350697,0.019507192,0.0,0.0,0.0,0.0,0.0,0.0
150622071,0.12091732,0.13158745,0.1568265,0.030582428,0.17145753,-0.59375,0.0020155832,-0.003639102,-0.01254493,0.038125753,0.0,0.0,0.0,0.0,0.0,0.26597568,0.2658587,0.57344085,0.47776052,0.47788814,4.0559516,0.0025216118,0.002518241,0.0025170885,0.09027918,0.0,0.0,0.0,0.0,0.0,0.0006582846,0.0147229135,0.04418886,0.0,0.0,0.0,0.0,0.0,0.0
150822088,0.07009411,0.1812218,-0.07098007,0.02914524,0.1642912,0.07383728,0.0020155832,-0.003639102,-0.01254493,-0.008875132,0.0,0.0,0.0,0.0,0.0,0.26562095,0.2655569,0.57342786,0.47782022,0.47790468,4.0557346,0.0025216118,0.002518241,0.0025170885,0.09027351,0.0,0.0,0.0,0.0,0.0,0.00061568787,0.012511066,0.037725743,0.0,0.0,0.0,0.0,0.0,0.0
151022077,0.10372841,0.14747816,-0.08751011,0.023842812,0.16862357,0.0070648193,0.0020155832,-0.003639102,-0.01254493,-0.045832872,0.0,0.0,0.0,0.0,0.0,0.26535648,0.26533297,0.57341874,0.47914207,0.47919628,4.0558743,0.0025216118,0.002518241,0.0025170885,0.09026811,0.0,0.0,0.0,0.0,0.0,0.0005843374,0.016334035,0.049066126,0.0,0.0,0.0,0.0,0.0,0.0
151222071,0.065371156,0.14626011,-0.0065612793,0.020951271,0.16931903,-0.6268234,0.0020155832,-0.003639102,-0.01254493,0.04884982,0.0,0.0,0.0,0.0,0.0,0.2651182,0.26513034,0.57340735,0.4804501,0.4804854,4.0560985,0.0025216118,0.002518241,0.0025170885,0.09026234,0.0,0.0,0.0,0.0,0.0,0.0006341768,0.018690871,0.056657076,0.0,0.0,0.0,0.0,0.0,0.0
151430071,0.05375862,0.108676136,0.10487652,0.026960373,0.16199458,-0.18804169,0.0020155832,-0.003639102,-0.01254493,0.0049393177,0.0,0.0,0.0,0.0,0.0,0.26482657,0.26486996,0.5733487,0.48009652,0.4801218,4.05603,0.0025216118,0.002518241,0.0025170885,0.09025744,0.0,0.0,0.0,0.0,0.0,0.00040277475,0.013108222,0.03688117,0.0,0.0,0.0,0.0,0.0,0.0
151630071,0.12617576,0.13619846,0.099695206,0.02643013,0.16012502,-0.33329773,0.0020155832,-0.003639102,-0.01254493,-0.0077393055,0.0,0.0,0.0,0.0,0.0,0.26463905,0.2647101,0.5733348,0.4801172,0.48013917,4.0558057,0.0025216118,0.002518241,0.0025170885,0.0902522,0.0,0.0,0.0,0.0,0.0,0.00048727216,0.013237119,0.03790415,0.0,0.0,0.0,0.0,0.0,0.0
151830116,0.08139038,0.2026368,-0.025571346,0.022349358,0.16954672,-0.5122757,0.0020155832,-0.003639102,-0.01254493,0.022867441,0.0,0.0,0.0,0.0,0.0,0.2644688,0.26456812,0.5733629,0.4791463,0.47917253,4.0557632,0.0025216118,0.002518241,0.0025170885,0.09024777,0.0,0.0,0.0,0.0,0.0,0.0006476322,0.013764607,0.040738054,0.0,0.0,0.0,0.0,0.0,0.0
152030117,0.061439157,0.13073367,0.09601879,0.0017213821,0.1691109,-0.7322693,0.0020155832,-0.003639102,-0.01254493,-0.036077976,0.0,0.0,0.0,0.0,0.0,0.26435414,0.26447424,0.57330257,0.4793947,0.4794288,4.055737,0.0025216118,0.002518241,0.0025170885,0.09024305,0.0,0.0,0.0,0.0,0.0,0.0010986463,0.016363297,0.048723854,0.0,0.0,0.0,0.0,0.0,0.0
152230071,0.06868553,0.14643472,0.19919252,0.024477959,0.16215873,-0.09445953,0.0020155832,-0.003639102,-0.01254493,-0.0036361217,0.0,0.0,0.0,0.0,0.0,0.26334962,0.26352003,0.57333946,0.47881597,0.47886613,4.0554304,0.0025216118,0.002518241,0.0025170885,0.090239026,0.0,0.0,0.0,0.0,0.0,0.0012543307,0.011216947,0.03200939,0.0,0.0,0.0,0.0,0.0,0.0
152430071,0.061062813,0.14143223,0.16974854,0.01737976,0.16189519,-0.09774017,0.0020155832,-0.003639102,-0.01254493,0.0779984,0.0,0.0,0.0,0.0,0.0,0.2622207,0.26246488,0.5732469,0.4784797,0.47856343,4.0554514,0.0025216118,0.002518241,0.0025170885,0.09023457,0.0,0.0,0.0,0.0,0.0,0.0009853663,0.009588458,0.02187697,0.0,0.0,0.0,0.0,0.0,0.0
152638072,0.064126134,0.12462861,0.16758037,0.020173073,0.16073915,0.37984467,0.0020155832,-0.003639102,-0.01254493,0.008985758,0.0,0.0,0.0,0.0,0.0,0.26121706,0.26154712,0.5732491,0.47800633,0.47813633,4.055319,0.0025216118,0.002518241,0.0025170885,0.090230584,0.0,0.0,0.0,0.0,0.0,0.0006897287,0.013785202,0.030890165,0.0,0.0,0.0,0.0,0.0,0.0
152838070,0.011021495,0.106944,0.13931324,0.020202637,0.1536623,0.5044174,0.0020155832,-0.003639102,-0.01254493,-0.05536008,0.0,0.0,0.0,0.0,0.0,0.26066893,0.26104984,0.57325613,0.47745615,0.4776404,4.05536,0.0025216118,0.002518241,0.0025170885,0.09022708,0.0,0.0,0.0,0.0,0.0,0.00044325582,0.024702873,0.069647014,0.0,0.0,0.0,0.0,0.0,0.0
153038070,0.044513702,0.14971036,0.2321196,0.031144142,0.15435243,0.10951996,0.0020155832,-0.003639102,-0.01254493,-0.041210413,0.0,0.0,0.0,0.0,0.0,0.26070786,0.26105523,0.5732222,0.47538742,0.4756125,4.0555553,0.0025216118,0.002518241,0.0025170885,0.09022339,0.0,0.0,0.0,0.0,0.0,0.00031259446,0.023931293,0.07072183,0.0,0.0,0.0,0.0,0.0,0.0
153238078,0.03509772,0.14342958,0.4774804,0.029473305,0.15768796,0.29112244,0.0020155832,-0.003639102,-0.01254493,-0.086450696,0.0,0.0,0.0,0.0,0.0,0.2613048,0.26156718,0.573305,0.47507802,0.47533348,4.0558314,0.0025216118,0.002518241,0.0025170885,0.09022015,0.0,0.0,0.0,0.0,0.0,0.0007630608,0.019414634,0.053819686,0.0,0.0,0.0,0.0,0.0,0.0
153445323,0.08314252,0.11528681,0.05365649,0.019276619,0.15612426,0.49967194,0.0020155832,-0.003639102,-0.01254493,-0.033894062,0.0,0.0,0.0,0.0,0.0,0.2611613,0.26142415,0.57333785,0.4751306,0.47541195,4.055602,0.0025216118,0.002518241,0.0025170885,0.090216786,0.0,0.0,0.0,0.0,0.0,0.00091248384,0.017198924,0.050943732,0.0,0.0,0.0,0.0,0.0,0.0
153649271,0.022495031,0.09474778,0.14158629,0.03918457,0.15224478,0.26054382,0.0020155832,-0.003639102,-0.01254493,-0.09904456,0.0,0.0,0.0,0.0,0.0,0.26106107,0.26130804,0.5732943,0.47452036,0.47481483,4.0553474,0.0025216118,0.002518241,0.0025170885,0.09021356,0.0,0.0,0.0,0.0,0.0,0.00048792982,0.014685269,0.041367617,0.0,0.0,0.0,0.0,0.0,0.0
153848525,0.039399743,0.16309302,0.20833953,0.02026558,0.15520346,-0.17593384,0.0020155832,-0.003639102,-0.01254493,-0.102879524,0.0,0.0,0.0,0.0,0.0,0.26133698,0.2615466,0.57324106,0.4745469,0.47485602,4.0552263,0.0025216118,0.002518241,0.0025170885,0.090210795,0.0,0.0,0.0,0.0,0.0,0.00055133604,0.012813914,0.035510756,0.0,0.0,0.0,0.0,0.0,0.0
154049277,0.073713064,0.1580799,0.09684238,0.007425308,0.16482124,-0.048820496,0.0020155832,-0.003639102,-0.01254493,-0.04538703,0.0,0.0,0.0,0.0,0.0,0.26158762,0.26176116,0.57327855,0.47465107,0.47496498,4.055279,0.0025216118,0.002518241,0.0025170885,0.0902082,0.0,0.0,0.0,0.0,0.0,0.00081030733,0.010205529,0.029745677,0.0,0.0,0.0,0.0,0.0,0.0
154248523,0.028811336,0.15455909,0.020143747,0.038333893,0.16376385,-0.22583771,0.0020155832,-0.003639102,-0.01254493,-0.002613306,0.0,0.0,0.0,0.0,0.0,0.26161182,0.2617563,0.5732902,0.47263044,0.47293153,4.055894,0.0025216118,0.002518241,0.0025170885,0.0902057,0.0,0.0,0.0,0.0,0.0,0.000869433,0.011008104,0.03387239,0.0,0.0,0.0,0.0,0.0,0.0
154457296,0.035053253,0.12755048,0.06827465,0.010089874,0.1633671,0.2493515,0.0020155832,-0.003639102,-0.01254493,-0.03897214,0.0,0.0,0.0,0.0,0.0,0.26189023,0.2620056,0.5733244,0.47423944,0.47453463,4.055871,0.0025216118,0.002518241,0.0025170885,0.090203024,0.0,0.0,0.0,0.0,0.0,0.0007130241,0.011838273,0.034979355,0.0,0.0,0.0,0.0,0.0,0.0
154657323,0.06358814,0.16491675,0.13613209,-0.0025024414,0.1644521,-0.045295715,0.0020155832,-0.003639102,-0.01254493,0.0057308674,0.0,0.0,0.0,0.0,0.0,0.262042,0.2621318,0.5733133,0.47420156,0.47448137,4.0555625,0.0025216118,0.002518241,0.0025170885,0.09020077,0.0,0.0,0.0,0.0,0.0,0.00040362478,0.009793192,0.028782358,0.0,0.0,0.0,0.0,0.0,0.0
154857297,0.012725711,0.14189348,0.08376278,-0.009168625,0.1732476,0.44361877,0.0020155832,-0.003639102,-0.01254493,-0.065853834,0.0,0.0,0.0,0.0,0.0,0.26224115,0.26230857,0.57330656,0.47423548,0.474496,4.0554066,0.0025216118,0.002518241,0.0025170885,0.09019859,0.0,0.0,0.0,0.0,0.0,0.00039882393,0.010155075,0.0284613,0.0,0.0,0.0,0.0,0.0,0.0
155065314,0.002644062,0.11967856,0.04428415,-0.029281616,0.1732204,0.61577606,0.0020155832,-0.003639102,-0.01254493,0.0025975704,0.0,0.0,0.0,0.0,0.0,0.26249,0.26253733,0.5732555,0.47460794,0.47484827,4.0554285,0.0025216118,0.002518241,0.0025170885,0.09019649,0.0,0.0,0.0,0.0,0.0,0.0008553769,0.011400755,0.030818107,0.0,0.0,0.0,0.0,0.0,0.0
155265277,-0.009104729,0.15079316,0.010095939,-0.020353317,0.17780024,0.0951767,0.0020155832,-0.003639102,-0.01254493,-0.077394724,0.0,0.0,0.0,0.0,0.0,0.262668,0.26270267,0.57321376,0.47435465,0.47456813,4.0554643,0.0025216118,0.002518241,0.0025170885,0.09019462,0.0,0.0,0.0,0.0,0.0,0.0011182801,0.012394367,0.022563117,0.0,0.0,0.0,0.0,0.0,0.0
155473277,-0.02146864,0.13545687,-0.13287641,-0.059038162,0.18152747,0.035308838,-0.015065556,-0.0049837977,0.00020137429,-0.12232101,0.0,0.0,0.0,0.0,0.0,0.26306364,0.26308426,0.57319,0.47642323,0.4766146,4.0553403,0.002769196,0.0027777236,0.0048384573,0.09019268,0.0,0.0,0.0,0.0,0.0,0.0032230269,0.014712335,0.03805812,0.0,0.0,0.0,0.0,0.0,0.0
155673271,0.015218496,0.16650957,0.04466735,-0.024406433,0.19706655,0.6773071,0.0093605,-0.010469601,0.021985024,-0.12232101,0.0,0.0,0.0,0.0,0.0,0.2631171,0.26306266,0.5731665,0.47326818,0.47343418,4.0558243,0.0025751328,0.0026803657,0.0027808459,0.09019268,0.0,0.0,0.0,0.0,0.0,0.0027377147,0.014482808,0.04858529,0.0,0.0,0.0,0.0,0.0,0.0
155873271,0.052239895,0.20165741,-0.18610771,-0.05578041,0.20943725,0.30119324,0.012153313,-0.034000695,-0.030939862,-0.12232101,0.0,0.0,0.0,0.0,0.0,0.2635029,0.26324373,0.57304025,0.46981853,0.46994147,4.055679,0.0025590735,0.0026679428,0.0026515066,0.09019268,0.0,0.0,0.0,0.0,0.0,0.0013010999,0.013077804,0.04325819,0.0,0.0,0.0,0.0,0.0,0.0
156081270,-0.06313145,0.10432565,0.12635319,-0.076589584,0.17942178,0.3191986,-0.031573787,-0.021303892,0.007123515,-0.12232101,0.0,0.0,0.0,0.0,0.0,0.26403034,0.2636753,0.5723521,0.4676616,0.46770886,4.0559316,0.002549756,0.0026166243,0.0026033146,0.09019268,0.0,0.0,0.0,0.0,0.0,0.000579589,0.012781327,0.040459376,0.0,0.0,0.0,0.0,0.0,0.0
156281271,-0.042262375,0.05366993,-0.045445904,-0.056560516,0.16767716,-0.49440765,0.007895812,-0.03219977,-0.043516666,-0.12232101,0.0,0.0,0.0,0.0,0.0,0.26411542,0.2640225,0.57188773,0.46605206,0.46602347,4.0561967,0.0025422527,0.0025785076,0.0025747488,0.09019268,0.0,0.0,0.0,0.0,0.0,0.0003333276,0.010935323,0.02683316,0.0,0.0,0.0,0.0,0.0,0.0
156481271,-0.00034695864,0.09239721,-0.11066824,-0.042308807,0.15823066,0.8375778,0.007081218,0.014897481,-0.013638794,-0.12232101,0.0,0.0,0.0,0.0,0.0,0.26458752,0.2651529,0.57159245,0.4661138,0.46602654,4.05555,0.0025377283,0.0025768625,0.0025698892,0.09019268,0.0,0.0,0.0,0.0,0.0,0.00080723135,0.013569284,0.04525708,0.0,0.0,0.0,0.0,0.0,0.0
156681277,-0.0063812137,-0.00920105,-0.14295839,-0.0542202,0.16170311,0.48264313,0.0073881,-0.0007124394,0.040860802,-0.12232101,0.0,0.0,0.0,0.0,0.0,0.2645903,0.26561442,0.5710889,0.46586996,0.46577302,4.0548635,0.0025396864,0.0025654372,0.0025565657,0.09019268,0.0,0.0,0.0,0.0,0.0,0.001026857,0.012793411,0.04389793,0.0,0.0,0.0,0.0,0.0,0.0
156889288,0.06429279,0.14511752,-0.022056505,-0.024894714,0.14647341,0.28334045,0.014089644,-0.007330209,-0.02486968,-0.12232101,0.0,0.0,0.0,0.0,0.0,0.26439404,0.2666447,0.5701792,0.468674,0.46873775,4.054382,0.0025753402,0.0025488401,0.002546418,0.09019268,0.0,0.0,0.0,0.0,0.0,0.0025863633,0.010698224,0.029452994,0.0,0.0,0.0,0.0,0.0,0.0
157089271,0.06429279,0.14511752,-0.022056505,-0.024894714,0.14647341,0.4256897,8.6426735e-05,-0.0022318363,-0.01850462,-0.12232101,0.0,0.0,0.0,0.0,0.0,0.26439404,0.2666447,0.5701792,0.468674,0.46873775,4.0542765,0.0025623224,0.0025412084,0.0025401234,0.09019268,0.0,0.0,0.0,0.0,0.0,0.0010642117,0.00721717,0.026611686,0.0,0.0,0.0,0.0,0.0,0.0
157297304,0.061698914,0.019734785,-0.07327986,-0.013692856,0.13386798,0.13459778,-0.013349801,-0.013194665,0.065412834,-0.12232101,0.0,0.0,0.0,0.0,0.0,0.26466927,0.26734772,0.5696551,0.48857427,0.48910156,4.0538387,0.0025266956,0.0025407348,0.0025374577,0.09019268,0.0,0.0,0.0,0.0,0.0,0.0010261508,0.0059434837,0.0111073805,0.0,0.0,0.0,0.0,0.0,0.0
157496481,-0.08657682,0.079629354,-0.2504986,-0.028190613,0.15588379,0.47146606,-0.012319438,-0.024566323,-0.0071143806,-0.12232101,0.0,0.0,0.0,0.0,0.0,0.26493034,0.26773152,0.5693884,0.48763788,0.48841792,4.053146,0.0025242204,0.0025329744,0.0025311545,0.09019268,0.0,0.0,0.0,0.0,0.0,0.00096594123,0.0063940757,0.026430063,0.0,0.0,0.0,0.0,0.0,0.0
157695684,0.16025567,0.0582875,-0.24020143,-0.011631012,0.14569855,0.061431885,-0.0050789267,-0.015161276,-0.005305961,-0.12232101,0.0,0.0,0.0,0.0,0.0,0.26496387,0.26837084,0.5691298,0.4883288,0.48938584,4.0522485,0.002524249,0.0025438538,0.0025317355,0.09019268,0.0,0.0,0.0,0.0,0.0,0.0008604948,0.009201387,0.010227958,0.0,0.0,0.0,0.0,0.0,0.0
157896483,0.16025567,0.0582875,-0.24020143,-0.011631012,0.14569855,-0.34170532,-0.0144856125,-0.0097331405,0.0015644431,-0.12232101,0.0,0.0,0.0,0.0,0.0,0.26496387,0.26837084,0.5691298,0.4883288,0.48938584,4.0513673,0.0025219647,0.0025415346,0.0025299988,0.09019268,0.0,0.0,0.0,0.0,0.0,0.00065030385,0.009333162,0.019969476,0.0,0.0,0.0,0.0,0.0,0.0
158098888,-0.1452434,-0.024217367,-0.13797972,0.0023174286,0.0910542,0.11789703,-0.0032310858,-0.009940743,-0.01615727,-0.12232101,0.0,0.0,0.0,0.0,0.0,0.26520127,0.26971498,0.5690562,0.4927771,0.49440762,4.050405,0.0025206683,0.0025266805,0.0025243945,0.09019268,0.0,0.0,0.0,0.0,0.0,0.0003876261,0.009878739,0.021220345,0.0,0.0,0.0,0.0,0.0,0.0
158296471,-0.09589434,0.1194216,-0.26962662,-0.049049377,0.106725216,0.9861374,-0.0057543293,0.008876085,-0.010757595,-0.12232101,0.0,0.0,0.0,0.0,0.0,0.26516986,0.2692982,0.56886,0.49407408,0.4959335,4.0497403,0.0025194252,0.0025269575,0.002525871,0.09019268,0.0,0.0,0.0,0.0,0.0,0.00069399533,0.0131475,0.019637916,0.0,0.0,0.0,0.0,0.0,0.0
158504470,-0.02903533,0.046614528,-0.21753934,-0.004429817,0.088923454,0.536705,-0.0067751706,0.017275855,-0.03779784,-0.12232101,0.0,0.0,0.0,0.0,0.0,0.26537797,0.26877818,0.5686916,0.49339664,0.49548075,4.048849,0.002518151,0.0025299033,0.002525812,0.09019268,0.0,0.0,0.0,0.0,0.0,0.00054213667,0.010798228,0.04557241,0.0,0.0,0.0,0.0,0.0,0.0
158704471,-0.038452387,0.04627335,-0.22405267,-0.019680977,0.089271545,0.56620026,0.0075095,0.017395496,-0.019486576,-0.12232101,0.0,0.0,0.0,0.0,0.0,0.26544482,0.26823834,0.56860137,0.49230978,0.49447542,4.0481534,0.002517025,0.0025279187,0.002524008,0.09019268,0.0,0.0,0.0,0.0,0.0,0.00043916458,0.0093684,0.047242276,0.0,0.0,0.0,0.0,0.0,0.0
158904471,-0.030496597,0.04112959,-0.25674635,-0.027738571,0.0852828,0.6816406,-0.02470462,0.025032416,0.011218041,-0.12232101,0.0,0.0,0.0,0.0,0.0,0.26555267,0.26781172,0.5685852,0.49117988,0.4933411,4.047678,0.0025162352,0.0025355467,0.0025262889,0.09019268,0.0,0.0,0.0,0.0,0.0,0.0004578381,0.00763715,0.03625154,0.0,0.0,0.0,0.0,0.0,0.0
159104521,-0.06554818,0.08142173,-0.32020634,-0.04546261,0.0939579,0.13347626,0.009090081,0.0006485358,-0.014832556,-0.12232101,0.0,0.0,0.0,0.0,0.0,0.2656624,0.2675291,0.5686532,0.48966265,0.49170676,4.047523,0.0025150755,0.0025454087,0.0025295387,0.09019268,0.0,0.0,0.0,0.0,0.0,0.00046811183,0.009461481,0.012798516,0.0,0.0,0.0,0.0,0.0,0.0
159312477,0.020084023,0.06618488,-0.2413536,0.0015792847,0.07159662,-0.33024597,-0.004049301,0.005748879,0.0075910687,-0.12232101,0.0,0.0,0.0,0.0,0.0,0.26578417,0.26747248,0.56876487,0.48754787,0.48946562,4.04678,0.0025142315,0.0025408417,0.002527328,0.09019268,0.0,0.0,0.0,0.0,0.0,0.0004389532,0.015437844,0.051491078,0.0,0.0,0.0,0.0,0.0,0.0
159512470,0.035967708,0.13603628,-0.33378258,0.011768341,0.07358408,-0.3906479,-0.007245742,0.010619413,-0.002566576,-0.12232101,0.0,0.0,0.0,0.0,0.0,0.265864,0.26757395,0.56895334,0.48592684,0.4876383,4.0461884,0.002513697,0.0025352978,0.0025248204,0.09019268,0.0,0.0,0.0,0.0,0.0,0.00053445995,0.021822149,0.07655187,0.0,0.0,0.0,0.0,0.0,0.0
159712471,-0.0026575923,0.1220385,-0.14216435,0.01225853,0.07421827,-0.7610245,-0.00023003668,0.0086377,-0.0069088936,-0.12232101,0.0,0.0,0.0,0.0,0.0,0.26626456,0.26821882,0.5692678,0.48638892,0.487929,4.046065,0.0025133,0.0025284775,0.002521551,0.09019268,0.0,0.0,0.0,0.0,0.0,0.00053672737,0.02719268,0.10341086,0.0,0.0,0.0,0.0,0.0,0.0
159920471,-0.0012492128,0.20388685,-0.2536429,0.029485703,0.07386398,-0.45861053,-0.015093513,0.007900417,-0.0023263693,-0.12232101,0.0,0.0,0.0,0.0,0.0,0.2665943,0.26889548,0.5696347,0.48682445,0.4882133,4.0460143,0.0025130112,0.0025240495,0.002519302,0.09019268,0.0,0.0,0.0,0.0,0.0,0.0007513848,0.031696312,0.115880795,0.0,0.0,0.0,0.0,0.0,0.0
160120475,0.009446114,0.21932024,-0.16903242,0.017133713,0.09631777,-0.84059906,-0.021722332,0.0023530424,0.025849968,-0.12232101,0.0,0.0,0.0,0.0,0.0,0.2665865,0.2690806,0.5699987,0.48649424,0.4877477,4.045875,0.0025127311,0.0025152713,0.0025148692,0.09019268,0.0,0.0,0.0,0.0,0.0,0.0012547295,0.0354026,0.12470504,0.0,0.0,0.0,0.0,0.0,0.0
160936480,0.060507476,0.1180483,0.015629351,0.007881165,0.09998751,-0.74474335,-0.0009113923,-0.00051534176,-0.0029021502,-0.12232101,0.0,0.0,0.0,0.0,0.0,0.2660474,0.26812553,0.57149327,0.48643625,0.4875704,4.0474143,0.0025113546,0.0025121078,0.0025120701,0.09019268,0.0,0.0,0.0,0.0,0.0,0.0007091062,0.021723093,0.08230422,0.0,0.0,0.0,0.0,0.0,0.0
161136490,0.0608657,0.18330795,-0.12269181,0.004425049,0.10319805,-0.48509216,-0.01022882,-0.0005069822,-0.00065514445,-0.12232101,0.0,0.0,0.0,0.0,0.0,0.26593322,0.2678523,0.5718883,0.48817313,0.48933733,4.0476937,0.002510952,0.0025117924,0.0025116254,0.09019268,0.0,0.0,0.0,0.0,0.0,0.0010638853,0.021306181,0.06970717,0.0,0.0,0.0,0.0,0.0,0.0
161336471,0.050316572,0.08011888,0.010364592,-0.006652832,0.101382256,-0.4409027,0.0066401884,-0.006425187,-0.005087763,-0.12232101,0.0,0.0,0.0,0.0,0.0,0.26585528,0.2676362,0.57224226,0.4881856,0.4893561,4.0478325,0.002510622,0.00251141,0.0025112047,0.09019268,0.0,0.0,0.0,0.0,0.0,0.00088015856,0.012910077,0.044641603,0.0,0.0,0.0,0.0,0.0,0.0
161536471,0.03940338,0.05935815,0.09118229,-0.0068244934,0.10561752,-0.32242584,0.011586003,-0.014585525,-0.0036738813,-0.12232101,0.0,0.0,0.0,0.0,0.0,0.26581702,0.2674425,0.5726334,0.48951584,0.49068773,4.0488105,0.0025102992,0.0025111062,0.0025108221,0.09019268,0.0,0.0,0.0,0.0,0.0,0.0006083931,0.008704583,0.033088405,0.0,0.0,0.0,0.0,0.0,0.0
161744484,0.08648926,0.085678205,0.1745466,0.003317833,0.10084963,-0.82066345,-0.0027806684,0.0021975338,0.010266006,-0.12232101,0.0,0.0,0.0,0.0,0.0,0.26571128,0.2671597,0.5729378,0.4895443,0.49071,4.0494256,0.0025100557,0.0025107823,0.0025104664,0.09019268,0.0,0.0,0.0,0.0,0.0,0.00055333355,0.008399551,0.029800925,0.0,0.0,0.0,0.0,0.0,0.0
161943677,-0.029945672,0.10760181,-0.10927218,-0.019399643,0.097875595,-0.011924744,-0.0044067577,-0.0018632859,0.0018211901,-0.12232101,0.0,0.0,0.0,0.0,0.0,0.26574242,0.26704037,0.57323426,0.49160972,0.49279562,4.0499344,0.002509845,0.0025105176,0.0025101553,0.09019268,0.0,0.0,0.0,0.0,0.0,0.0005804339,0.009548206,0.029294804,0.0,0.0,0.0,0.0,0.0,0.0
162150904,0.03819257,0.094899595,0.05117607,0.00080394745,0.1063261,-0.19417572,-0.010011092,0.0049667656,0.0047498047,-0.12232101,0.0,0.0,0.0,0.0,0.0,0.26536158,0.26647,0.5734895,0.49038708,0.49148518,4.0508795,0.0025096606,0.002510097,0.0025097863,0.09019268,0.0,0.0,0.0,0.0,0.0,0.00057020294,0.006969171,0.02091503,0.0,0.0,0.0,0.0,0.0,0.0
162351702,0.02688241,0.10438311,0.15887678,-0.0156030655,0.107185364,0.03819275,0.0010551885,-0.012422577,0.00783515,-0.12232101,0.0,0.0,0.0,0.0,0.0,0.26528966,0.26623845,0.57373947,0.4921231,0.49320498,4.051274,0.002509418,0.002509877,0.0025094962,0.09019268,0.0,0.0,0.0,0.0,0.0,0.0006287888,0.0031950772,0.0062650167,0.0,0.0,0.0,0.0,0.0,0.0
162552471,0.08269966,0.16053088,0.054968,-0.009100914,0.11022663,-0.32964325,-0.00895489,0.0027003884,-0.01434952,-0.12232101,0.0,0.0,0.0,0.0,0.0,0.2652119,0.2659813,0.5739906,0.49213243,0.49316487,4.0527363,0.002509233,0.0025095395,0.002509148,0.09019268,0.0,0.0,0.0,0.0,0.0,0.0005713901,0.004921646,0.009454828,0.0,0.0,0.0,0.0,0.0,0.0
162751686,0.04610002,0.14461586,0.121667266,-0.012969971,0.122094154,-0.2624359,0.009431504,0.0016620904,-0.002294451,-0.12232101,0.0,0.0,0.0,0.0,0.0,0.2650826,0.2656814,0.5741091,0.49212646,0.4930955,4.053434,0.0025090086,0.0025092445,0.0025089053,0.09019268,0.0,0.0,0.0,0.0,0.0,0.0006468111,0.005450109,0.014218046,0.0,0.0,0.0,0.0,0.0,0.0
162959671,-0.018808365,0.061359376,0.02855879,-0.018284798,0.11971426,-0.17092133,-0.019881114,-0.0014577508,-0.0075486004,-0.12232101,0.0,0.0,0.0,0.0,0.0,0.2649052,0.26534006,0.5741925,0.4934123,0.49430394,4.0535507,0.0025089008,0.002509267,0.0025087816,0.09019268,0.0,0.0,0.0,0.0,0.0,0.0006248332,0.004735661,0.016829021,0.0,0.0,0.0,0.0,0.0,0.0
163159677,0.057774425,0.019293547,0.068032205,-0.024580002,0.118459225,0.009933472,0.005763307,-0.004347086,-0.018765867,-0.12232101,0.0,0.0,0.0,0.0,0.0,0.26473123,0.2650302,0.5742507,0.49337792,0.49418348,4.0542455,0.0025088086,0.0025094154,0.0025087066,0.09019268,0.0,0.0,0.0,0.0,0.0,0.00041290474,0.009085919,0.028262436,0.0,0.0,0.0,0.0,0.0,0.0
163359710,-0.000900805,0.05978012,0.11971247,-0.020277023,0.11501837,0.10435486,-0.011782333,0.0061522275,0.0288295,-0.12232101,0.0,0.0,0.0,0.0,0.0,0.26453185,0.26472545,0.5743193,0.49165064,0.4923578,4.05528,0.002508676,0.002509823,0.0025087714,0.09019268,0.0,0.0,0.0,0.0,0.0,0.0003244857,0.010256721,0.030717622,0.0,0.0,0.0,0.0,0.0,0.0
163559675,0.07427308,0.07921147,0.027019083,-0.008986473,0.115213394,0.03175354,0.007459402,0.009418413,0.0044777095,-0.12232101,0.0,0.0,0.0,0.0,0.0,0.2643987,0.2645202,0.57440066,0.4916085,0.492222,4.055508,0.0025085525,0.002509326,0.0025084387,0.09019268,0.0,0.0,0.0,0.0,0.0,0.00020496435,0.010766507,0.034834467,0.0,0.0,0.0,0.0,0.0,0.0
163767705,0.12618187,0.06618905,0.05119568,-0.0002965927,0.10202122,0.38742828,-0.009087205,-0.004213974,-0.0020170808,-0.12232101,0.0,0.0,0.0,0.0,0.0,0.2643591,0.26444107,0.5743298,0.4905801,0.49110407,4.0555944,0.0025083798,0.0025085253,0.0025079586,0.09019268,0.0,0.0,0.0,0.0,0.0,0.00022312344,0.014339277,0.04597963,0.0,0.0,0.0,0.0,0.0,0.0
163967671,0.052691687,0.11655033,0.017428815,0.010212898,0.09481478,0.006111145,-0.00966347,0.007054761,0.018743366,-0.12232101,0.0,0.0,0.0,0.0,0.0,0.2643426,0.2644176,0.57429683,0.491147,0.49158713,4.05551,0.002508325,0.0025082894,0.0025077774,0.09019268,0.0,0.0,0.0,0.0,0.0,0.00030652736,0.0122614205,0.04132883,0.0,0.0,0.0,0.0,0.0,0.0
164167670,0.100804195,0.1385656,0.020268023,0.009724617,0.11214876,0.18445587,-0.0002989173,-0.0019615144,0.00039079785,-0.053073406,0.0,0.0,0.0,0.0,0.0,0.26407373,0.2641584,0.57418275,0.4902146,0.49057296,4.055284,0.0025082699,0.0025082577,0.0025076692,0.09020712,0.0,0.0,0.0,0.0,0.0,0.00046956458,0.015088773,0.049263738,0.0,0.0,0.0,0.0,0.0,0.0
164375671,0.08248819,0.08762646,0.058099806,0.02284336,0.11613512,0.21935272,-0.0002989173,-0.0019615144,0.00039079785,-0.029687166,0.0,0.0,0.0,0.0,0.0,0.26393613,0.26402172,0.5741518,0.48878172,0.48907495,4.0555115,0.0025082699,0.0025082577,0.0025076692,0.09020543,0.0,0.0,0.0,0.0,0.0,0.00063211285,0.018791873,0.059674818,0.0,0.0,0.0,0.0,0.0,0.0
164575681,0.037677497,-0.053718388,0.04740441,0.012054443,0.0955205,0.1826477,-0.0002989173,-0.0019615144,0.00039079785,-0.09395027,0.0,0.0,0.0,0.0,0.0,0.26382378,0.26390037,0.5741168,0.48864603,0.48888582,4.0554185,0.0025082699,0.0025082577,0.0025076692,0.09020425,0.0,0.0,0.0,0.0,0.0,0.00016664332,0.016526008,0.050050396,0.0,0.0,0.0,0.0,0.0,0.0
164783671,0.08035895,0.0627532,0.12097818,0.010549545,0.10096073,-0.097839355,-0.0002989173,-0.0019615144,0.00039079785,0.014192581,0.0,0.0,0.0,0.0,0.0,0.2637287,0.26378974,0.5740783,0.48850995,0.4887064,4.055934,0.0025082699,0.0025082577,0.0025076692,0.090202674,0.0,0.0,0.0,0.0,0.0,0.0006511465,0.015081108,0.04555229,0.0,0.0,0.0,0.0,0.0,0.0
164983702,0.116670966,0.07886714,0.06914103,0.008117676,0.10410786,0.19065094,-0.0002989173,-0.0019615144,0.00039079785,-0.07788217,0.0,0.0,0.0,0.0,0.0,0.2636367,0.26368845,0.5740249,0.48838103,0.48854208,4.056353,0.0025082699,0.0025082577,0.0025076692,0.09020128,0.0,0.0,0.0,0.0,0.0,0.00045305773,0.012867208,0.03910759,0.0,0.0,0.0,0.0,0.0,0.0
165183671,0.043332156,0.055904567,0.026624918,0.009431839,0.11184788,0.11504364,-0.0002989173,-0.0019615144,0.00039079785,-0.044006824,0.0,0.0,0.0,0.0,0.0,0.26350987,0.26355767,0.5739245,0.4879245,0.48805588,4.056137,0.0025082699,0.0025082577,0.0025076692,0.09020012,0.0,0.0,0.0,0.0,0.0,0.0003851642,0.011392129,0.035785012,0.0,0.0,0.0,0.0,0.0,0.0
165391671,0.11160438,0.117239356,0.013249993,0.0029411316,0.10765457,0.09223175,-0.0002989173,-0.0019615144,0.00039079785,0.0460186,0.0,0.0,0.0,0.0,0.0,0.26351452,0.26355776,0.5739096,0.48950285,0.48961058,4.0560694,0.0025082699,0.0025082577,0.0025076692,0.09019888,0.0,0.0,0.0,0.0,0.0,0.00036070228,0.012971882,0.041634675,0.0,0.0,0.0,0.0,0.0,0.0
165591716,0.016559616,-0.017956674,-0.013800621,0.00088882446,0.09972477,0.16072083,-0.0002989173,-0.0019615144,0.00039079785,-0.06191635,0.0,0.0,0.0,0.0,0.0,0.26346084,0.26349887,0.5738562,0.4894064,0.48949435,4.056154,0.0025082699,0.0025082577,0.0025076692,0.0901977,0.0,0.0,0.0,0.0,0.0,0.00039499332,0.011068807,0.03398802,0.0,0.0,0.0,0.0,0.0,0.0
165791677,0.06081415,0.05504316,-0.04839778,-0.0063152313,0.09428215,0.27899933,-0.0002989173,-0.0019615144,0.00039079785,-0.052524805,0.0,0.0,0.0,0.0,0.0,0.26341832,0.2634554,0.5737119,0.4893166,0.48938844,4.055918,0.0025082699,0.0025082577,0.0025076692,0.09019665,0.0,0.0,0.0,0.0,0.0,0.00040897875,0.005825877,0.016681366,0.0,0.0,0.0,0.0,0.0,0.0
165999677,0.049970627,0.05676332,0.021994233,-0.0072841644,0.085523605,-0.022109985,-0.0002989173,-0.0019615144,0.00039079785,-0.019152641,0.0,0.0,0.0,0.0,0.0,0.26342756,0.26346344,0.5737034,0.48956457,0.48962343,4.056277,0.0025082699,0.0025082577,0.0025076692,0.09019526,0.0,0.0,0.0,0.0,0.0,0.0006484989,0.005706751,0.015543409,0.0,0.0,0.0,0.0,0.0,0.0
166198871,-0.009529598,0.13570642,-0.21054995,-0.004216194,0.09677601,0.10349274,-0.0002989173,-0.0019615144,0.00039079785,0.0015416145,0.0,0.0,0.0,0.0,0.0,0.26328722,0.26332098,0.5736627,0.48877466,0.4888227,4.056565,0.0025082699,0.0025082577,0.0025076692,0.09019421,0.0,0.0,0.0,0.0,0.0,0.00061562256,0.004161995,0.01425565,0.0,0.0,0.0,0.0,0.0,0.0
166406871,0.092079684,-0.009388119,-0.0118124485,0.0016641617,0.078642845,0.24066925,-0.0002989173,-0.0019615144,0.00039079785,-0.01925397,0.0,0.0,0.0,0.0,0.0,0.26334023,0.26337442,0.57373965,0.49039897,0.49043927,4.057544,0.0025082699,0.0025082577,0.0025076692,0.09019319,0.0,0.0,0.0,0.0,0.0,0.00021782571,0.0053915484,0.009522015,0.0,0.0,0.0,0.0,0.0,0.0
166606871,0.05087331,0.031992078,-0.073366284,-0.00088500977,0.07882023,0.3428421,-0.0002989173,-0.0019615144,0.00039079785,-0.010063887,0.0,0.0,0.0,0.0,0.0,0.263311,0.26334298,0.57375735,0.49031746,0.49035162,4.057328,0.0025082699,0.0025082577,0.0025076692,0.09019221,0.0,0.0,0.0,0.0,0.0,0.0001495531,0.008344727,0.022725353,0.0,0.0,0.0,0.0,0.0,0.0
166806870,0.07109561,0.10485834,-0.029515266,0.0006170273,0.084093094,-0.055847168,-0.0002989173,-0.0019615144,0.00039079785,0.015741825,0.0,0.0,0.0,0.0,0.0,0.26332062,0.2633476,0.573681,0.49027857,0.490308,4.057611,0.0025082699,0.0025082577,0.0025076692,0.09019117,0.0,0.0,0.0,0.0,0.0,0.00037559244,0.003647991,0.010423433,0.0,0.0,0.0,0.0,0.0,0.0
167006876,0.08800648,0.10874562,0.12557447,0.00055122375,0.091174126,0.009063721,-0.0002989173,-0.0019615144,0.00039079785,-0.008347034,0.0,0.0,0.0,0.0,0.0,0.2633398,0.26336193,0.5736075,0.49159777,0.4916234,4.057189,0.0025082699,0.0025082577,0.0025076692,0.09019027,0.0,0.0,0.0,0.0,0.0,0.0005460534,0.002247738,0.0060200524,0.0,0.0,0.0,0.0,0.0,0.0
167206921,0.043070465,0.026468895,-0.006472349,-6.389618e-05,0.08182049,-0.04070282,-0.0002989173,-0.0019615144,0.00039079785,-0.08606839,0.0,0.0,0.0,0.0,0.0,0.26332262,0.26333937,0.57354265,0.49154848,0.4915708,4.057458,0.0025082699,0.0025082577,0.0025076692,0.09018939,0.0,0.0,0.0,0.0,0.0,0.0006555082,0.0043363394,0.010488606,0.0,0.0,0.0,0.0,0.0,0.0
167414871,0.046515718,0.082610436,-0.10593605,0.005637169,0.08493233,0.08589172,-0.0002989173,-0.0019615144,0.00039079785,-0.042438507,0.0,0.0,0.0,0.0,0.0,0.26333112,0.2633462,0.57347965,0.4915393,0.4915589,4.0569186,0.0025082699,0.0025082577,0.0025076692,0.09018845,0.0,0.0,0.0,0.0,0.0,0.000587822,0.004893319,0.01254252,0.0,0.0,0.0,0.0,0.0,0.0
167614870,0.062077023,0.057852115,-0.037054062,0.0050354004,0.08582878,0.0730896,-0.0002989173,-0.0019615144,0.00039079785,-0.020332575,0.0,0.0,0.0,0.0,0.0,0.2633506,0.2633654,0.5735207,0.49153036,0.49154788,4.0575933,0.0025082699,0.0025082577,0.0025076692,0.09018781,0.0,0.0,0.0,0.0,0.0,0.00076196506,0.0051964014,0.014492543,0.0,0.0,0.0,0.0,0.0,0.0
167814878,0.057799414,0.07807851,-0.07509029,0.009955406,0.09229946,-0.03526306,-0.0002989173,-0.0019615144,0.00039079785,0.029800892,0.0,0.0,0.0,0.0,0.0,0.26337028,0.26338533,0.57355595,0.49152586,0.4915418,4.0574846,0.0025082699,0.0025082577,0.0025076692,0.090187065,0.0,0.0,0.0,0.0,0.0,0.00028505875,0.003056532,0.008788799,0.0,0.0,0.0,0.0,0.0,0.0
168022875,0.053982843,0.0296053,-0.0634861,0.009976387,0.09626293,-0.19252777,-0.0002989173,-0.0019615144,0.00039079785,0.008482933,0.0,0.0,0.0,0.0,0.0,0.26357713,0.2635812,0.5735211,0.49252966,0.49254438,4.057779,0.0025082699,0.0025082577,0.0025076692,0.09018607,0.0,0.0,0.0,0.0,0.0,0.00021715793,0.0048080315,0.012302855,0.0,0.0,0.0,0.0,0.0,0.0
168222879,0.08433501,-0.005237907,0.046188295,0.023534775,0.08624649,0.14115143,-0.0002989173,-0.0019615144,0.00039079785,0.091213465,0.0,0.0,0.0,0.0,0.0,0.2633891,0.26338297,0.573436,0.4900824,0.4900947,4.0574727,0.0025082699,0.0025082577,0.0025076692,0.09018532,0.0,0.0,0.0,0.0,0.0,0.00021808676,0.005135868,0.009080723,0.0,0.0,0.0,0.0,0.0,0.0
168430888,0.083681926,0.03670606,-0.05501926,0.035758972,0.0822134,0.1969986,-0.0002989173,-0.0019615144,0.00039079785,0.02251935,0.0,0.0,0.0,0.0,0.0,0.26338917,0.263375,0.5733863,0.4874464,0.48745605,4.057757,0.0025082699,0.0025082577,0.0025076692,0.090184584,0.0,0.0,0.0,0.0,0.0,0.00022381321,0.0054491577,0.011636121,0.0,0.0,0.0,0.0,0.0,0.0
168630877,0.06590781,0.03724894,-0.024856687,0.035165787,0.08050728,0.21559906,-0.0002989173,-0.0019615144,0.00039079785,0.07964277,0.0,0.0,0.0,0.0,0.0,0.26340714,0.2633896,0.5734275,0.48609704,0.48610365,4.057601,0.0025082699,0.0025082577,0.0025076692,0.090183884,0.0,0.0,0.0,0.0,0.0,0.00028542723,0.0049503036,0.0115225995,0.0,0.0,0.0,0.0,0.0,0.0
168830871,0.048738714,0.079392225,0.021640778,0.045977592,0.08458805,0.023368835,-0.0002989173,-0.0019615144,0.00039079785,-0.1394993,0.0,0.0,0.0,0.0,0.0,0.26334566,0.26332814,0.57343054,0.48441124,0.48441473,4.057543,0.0025082699,0.0025082577,0.0025076692,0.09018307,0.0,0.0,0.0,0.0,0.0,0.00024847602,0.0029335618,0.0075648683,0.0,0.0,0.0,0.0,0.0,0.0
169038890,0.07980979,0.0733839,-0.0838995,0.043079376,0.087916374,0.087020874,-0.0002989173,-0.0019615144,0.00039079785,-0.05347538,0.0,0.0,0.0,0.0,0.0,0.26333886,0.26332211,0.57338095,0.48309076,0.4830908,4.057815,0.0025082699,0.0025082577,0.0025076692,0.09018242,0.0,0.0,0.0,0.0,0.0,0.00060561235,0.0045130476,0.0123826405,0.0,0.0,0.0,0.0,0.0,0.0
169238885,0.1418167,0.11356115,-0.04560995,0.05413437,0.105101585,0.09202576,-0.0002989173,-0.0019615144,0.00039079785,0.03731203,0.0,0.0,0.0,0.0,0.0,0.26340872,0.2633943,0.573376,0.48078036,0.48077688,4.0576653,0.0025082699,0.0025082577,0.0025076692,0.09018159,0.0,0.0,0.0,0.0,0.0,0.0010241901,0.0035750843,0.00765047,0.0,0.0,0.0,0.0,0.0,0.0
169438885,0.06186078,0.007678151,-0.07140112,0.06436443,0.10063362,-0.06466675,-0.0002989173,-0.0019615144,0.00039079785,0.032324314,0.0,0.0,0.0,0.0,0.0,0.26339546,0.2633885,0.5734233,0.47937816,0.47937244,4.057602,0.0025082699,0.0025082577,0.0025076692,0.0901811,0.0,0.0,0.0,0.0,0.0,0.00028436282,0.00330099,0.0073475004,0.0,0.0,0.0,0.0,0.0,0.0
169646880,0.026466817,0.058650434,0.08010125,0.054074287,0.10350418,0.055984497,-0.0002989173,-0.0019615144,0.00039079785,-0.029477358,0.0,0.0,0.0,0.0,0.0,0.26337603,0.26337418,0.57337904,0.47667468,0.476668,4.057538,0.0025082699,0.0025082577,0.0025076692,0.090180576,0.0,0.0,0.0,0.0,0.0,0.00022365632,0.0031273966,0.008257951,0.0,0.0,0.0,0.0,0.0,0.0
169846877,0.021957185,0.043054044,-0.14238513,0.06047058,0.103447914,-0.06575775,-0.0002989173,-0.0019615144,0.00039079785,-0.061647892,0.0,0.0,0.0,0.0,0.0,0.2633539,0.26335594,0.57333434,0.4752523,0.47524637,4.057695,0.0025082699,0.0025082577,0.0025076692,0.09018003,0.0,0.0,0.0,0.0,0.0,0.00032002883,0.0026663402,0.0049854554,0.0,0.0,0.0,0.0,0.0,0.0
170051702,0.07036359,0.099119574,-0.03335452,0.06680775,0.11112881,-0.10317993,-0.0002989173,-0.0019615144,0.00039079785,-0.07934117,0.0,0.0,0.0,0.0,0.0,0.26341972,0.26342246,0.5733305,0.4715801,0.47157672,4.0579443,0.0025082699,0.0025082577,0.0025076692,0.09017939,0.0,0.0,0.0,0.0,0.0,0.00071437226,0.0015148747,0.0035348453,0.0,0.0,0.0,0.0,0.0,0.0
170254095,-0.02926746,0.045058772,0.017238379,0.06163311,0.110616684,-0.10884857,-0.0002989173,-0.0019615144,0.00039079785,-0.015009165,0.0,0.0,0.0,0.0,0.0,0.2633076,0.26330584,0.5733366,0.46715406,0.46715388,4.057421,0.0025082699,0.0025082577,0.0025076692,0.09017899,0.0,0.0,0.0,0.0,0.0,0.0004315572,0.0028503973,0.0036469612,0.0,0.0,0.0,0.0,0.0,0.0
170454071,0.017596632,0.08398978,-0.11033845,0.059366226,0.10427475,0.53619385,-0.0002989173,-0.0019615144,0.00039079785,0.006668091,0.0,0.0,0.0,0.0,0.0,0.26324922,0.2632403,0.5733839,0.46299225,0.46299535,4.057488,0.0025082699,0.0025082577,0.0025076692,0.090178154,0.0,0.0,0.0,0.0,0.0,0.00026820938,0.007144362,0.022474738,0.0,0.0,0.0,0.0,0.0,0.0
170654071,0.023536712,0.06880861,-0.15517163,0.06439972,0.10629749,0.31182098,-0.0002989173,-0.0019615144,0.00039079785,-0.088522315,0.0,0.0,0.0,0.0,0.0,0.263355,0.26333484,0.57339257,0.46070552,0.46071157,4.0571647,0.0025082699,0.0025082577,0.0025076692,0.09017749,0.0,0.0,0.0,0.0,0.0,0.00032042045,0.00289766,0.008214605,0.0,0.0,0.0,0.0,0.0,0.0
170862071,0.013323814,-0.011031948,-0.04519224,0.06787491,0.10834217,0.23551178,-0.0002989173,-0.0019615144,0.00039079785,0.056411505,0.0,0.0,0.0,0.0,0.0,0.2632894,0.2632646,0.57332367,0.4575796,0.45758682,4.0565963,0.0025082699,0.0025082577,0.0025076692,0.090176836,0.0,0.0,0.0,0.0,0.0,0.00022915182,0.005038895,0.012588188,0.0,0.0,0.0,0.0,0.0,0.0
171062089,0.052416295,-0.0034680665,-0.1145308,0.07596493,0.0993948,-0.5488968,-0.0002989173,-0.0019615144,0.00039079785,-0.065711975,0.0,0.0,0.0,0.0,0.0,0.26330024,0.26326787,0.5732567,0.45642328,0.45643035,4.0563817,0.0025082699,0.0025082577,0.0025076692,0.09017629,0.0,0.0,0.0,0.0,0.0,0.00020734643,0.0085484255,0.021932913,0.0,0.0,0.0,0.0,0.0,0.0
