timestamp,ref_timestamp,ref_lat,ref_lon,x,y,z,delta_xy[0],delta_xy[1],delta_z,vx,vy,vz,z_deriv,delta_vxy[0],delta_vxy[1],delta_vz,ax,ay,az,yaw,ref_alt,dist_bottom,dist_bottom_rate,eph,epv,evh,evv,vxy_max,vz_max,hagl_min,hagl_max,xy_valid,z_valid,v_xy_valid,v_z_valid,xy_reset_counter,z_reset_counter,vxy_reset_counter,vz_reset_counter,xy_global,z_global,dist_bottom_valid
133185271,37837331,49.089833899999995,2.110435,-1.2891405,0.11035962,0.20180586,0.019202875,0.035526674,0.0,-0.18655159,0.37708417,-0.0141775375,-0.004338217,0.050790213,0.06781433,0.037628025,-0.09214117,0.165262,0.01055089,-1.1931221,86.76341,0.10958552,0.0141775375,0.30559996,0.23475157,0.15346906,0.103176974,inf,inf,inf,inf,1,1,1,1,2,0,2,2,1,1,0
133289287,37837331,49.089833899999995,2.110435,-1.2925359,0.11445124,0.20160776,0.019202875,0.035526674,0.0,-0.18728359,0.37721294,-0.013296624,-0.0037292806,0.050790213,0.06781433,0.037628025,-0.07509888,0.15915425,0.010356458,-1.193113,86.76341,0.10179573,0.013296624,0.29419875,0.2336173,0.14913484,0.10257779,inf,inf,inf,inf,1,1,1,1,2,0,2,2,1,1,0
133385283,37837331,49.089833899999995,2.110435,-1.2913824,0.1083864,0.20068406,0.019202875,0.035526674,0.0,-0.18571138,0.37308258,-0.0138090225,-0.0051475572,0.050790213,0.06781433,0.037628025,-0.074414335,0.15890844,0.011827972,-1.1931468,86.76341,0.105443165,0.0138090225,0.30485734,0.23318909,0.15340467,0.10279154,inf,inf,inf,inf,1,1,1,1,2,0,2,2,1,1,0
133897328,37837331,49.089833899999995,2.110435,-1.30064,0.11637446,0.20051028,0.019202875,0.035526674,0.0,-0.18976338,0.37173757,-0.01401906,-0.0049013994,0.050790213,0.06781433,0.037628025,-0.08682482,0.1606756,-0.01874488,-1.1930181,86.76341,0.1,0.01401906,0.2928372,0.23438539,0.14917277,0.10284719,inf,inf,inf,inf,1,1,1,1,2,0,2,2,1,1,0
134001271,37837331,49.089833899999995,2.110435,-1.2988553,0.11163677,0.19725429,0.019202875,0.035526674,0.0,-0.18814547,0.3677455,-0.015395392,-0.009114001,0.050790213,0.06781433,0.037628025,-0.07879289,0.15492943,-0.006277119,-1.1929712,86.76341,0.1,0.015395392,0.30444145,0.23612551,0.1538034,0.10363153,inf,inf,inf,inf,1,1,1,1,2,0,2,2,1,1,0
134105278,37837331,49.089833899999995,2.110435,-1.3007288,0.11436654,0.19365077,0.019202875,0.035526674,0.0,-0.18857332,0.3678826,-0.01617758,-0.012627392,0.050790213,0.06781433,0.037628025,-0.07034545,0.15548728,0.00045706422,-1.1929605,86.76341,0.1,0.01617758,0.2930484,0.23646636,0.14943954,0.10338324,inf,inf,inf,inf,1,1,1,1,2,0,2,2,1,1,0
134201271,37837331,49.089833899999995,2.110435,-1.2996653,0.11079588,0.18992108,0.019202875,0.035526674,0.0,-0.18741138,0.3642846,-0.016592331,-0.015549063,0.050790213,0.06781433,0.037628025,-0.08348722,0.14683516,0.007092194,-1.1930006,86.76341,0.1,0.016592331,0.30377877,0.23585662,0.15371247,0.10352285,inf,inf,inf,inf,1,1,1,1,2,0,2,2,1,1,0
134305276,37837331,49.089833899999995,2.110435,-1.3017322,0.11387132,0.1858931,0.019202875,0.035526674,0.0,-0.18737544,0.3641533,-0.017553104,-0.018783052,0.050790213,0.06781433,0.037628025,-0.08127992,0.15775615,0.008777499,-1.1929551,86.76341,0.10192968,0.017553104,0.2923853,0.23458487,0.14933294,0.102866754,inf,inf,inf,inf,1,1,1,1,2,0,2,2,1,1,0
134409271,37837331,49.089833899999995,2.110435,-1.3007898,0.11174111,0.1837613,0.019202875,0.035526674,0.0,-0.1858409,0.36169717,-0.018434266,-0.01970448,0.050790213,0.06781433,0.037628025,-0.092485085,0.15165456,-0.018403929,-1.1929575,86.76341,0.10753396,0.018434266,0.30403486,0.23627423,0.15396121,0.10363274,inf,inf,inf,inf,1,1,1,1,2,0,2,2,1,1,0
134505271,37837331,49.089833899999995,2.110435,-1.301825,0.113230824,0.18069682,0.019202875,0.035526674,0.0,-0.18577076,0.36088312,-0.02026804,-0.022562431,0.050790213,0.06781433,0.037628025,-0.07603027,0.13906881,-0.012577355,-1.1929489,86.76341,0.1,0.02026804,0.29184395,0.23438615,0.14928512,0.102800265,inf,inf,inf,inf,1,1,1,1,2,0,2,2,1,1,0
134609280,37837331,49.089833899999995,2.110435,-1.3015189,0.111236386,0.17847137,0.019202875,0.035526674,0.0,-0.18512185,0.35776937,-0.020630814,-0.022674225,0.050790213,0.06781433,0.037628025,-0.080043375,0.1367596,0.007994714,-1.1929634,86.76341,0.10648535,0.020630814,0.303506,0.23609437,0.1539219,0.10357554,inf,inf,inf,inf,1,1,1,1,2,0,2,2,1,1,0
134713284,37837331,49.089833899999995,2.110435,-1.3037097,0.1142866,0.17846355,0.019202875,0.035526674,0.0,-0.18541716,0.35750264,-0.020990934,-0.020737108,0.050790213,0.06781433,0.037628025,-0.063590825,0.15365154,0.002448372,-1.1929234,86.76341,0.102804035,0.020990934,0.29205412,0.23485287,0.14950739,0.10293863,inf,inf,inf,inf,1,1,1,1,2,0,2,2,1,1,0
134817342,37837331,49.089833899999995,2.110435,-1.3042517,0.11398126,0.17344503,0.019202875,0.035526674,0.0,-0.18491767,0.35588342,-0.022430127,-0.024942635,0.050790213,0.06781433,0.037628025,-0.076581016,0.13465308,-0.0014379092,-1.1928502,86.76341,0.1,0.022430127,0.3037575,0.23496109,0.15414496,0.10330477,inf,inf,inf,inf,1,1,1,1,2,0,2,2,1,1,0
134913278,37837331,49.089833899999995,2.110435,-1.3060393,0.11680964,0.16916098,0.019202875,0.035526674,0.0,-0.1851019,0.35510355,-0.023764588,-0.027967257,0.050790213,0.06781433,0.037628025,-0.092545934,0.13922445,-0.008388059,-1.1928122,86.76341,0.10497548,0.023764588,0.2914494,0.23474021,0.14938289,0.10291155,inf,inf,inf,inf,1,1,1,1,2,0,2,2,1,1,0
135017306,37837331,49.089833899999995,2.110435,-1.3057181,0.116279796,0.16673215,0.019202875,0.035526674,0.0,-0.18345942,0.35283893,-0.024824804,-0.028447947,0.050790213,0.06781433,0.037628025,-0.059551913,0.1314673,-0.029011305,-1.192831,86.76341,0.105040446,0.024824804,0.30315214,0.23485698,0.15401985,0.103281155,inf,inf,inf,inf,1,1,1,1,2,0,2,2,1,1,0
135121271,37837331,49.089833899999995,2.110435,-1.3059992,0.11764346,0.16360883,0.019202875,0.035526674,0.0,-0.18226425,0.35165963,-0.024522437,-0.028303523,0.050790213,0.06781433,0.037628025,-0.038080517,0.14500314,0.024895277,-1.1929715,86.76341,0.1,0.024522437,0.29171756,0.233673,0.14960298,0.10266913,inf,inf,inf,inf,1,1,1,1,2,0,2,2,1,1,0
135217375,37837331,49.089833899999995,2.110435,-1.3044338,0.116106756,0.15866166,0.019202875,0.035526674,0.0,-0.18052058,0.34979096,-0.025600536,-0.03145779,0.050790213,0.06781433,0.037628025,-0.046456885,0.14345112,0.040118143,-1.1930106,86.76341,0.10083285,0.025600536,0.30253723,0.23479234,0.15388383,0.10327438,inf,inf,inf,inf,1,1,1,1,2,0,2,2,1,1,0
135321275,37837331,49.089833899999995,2.110435,-1.3035381,0.11660917,0.15264624,0.019202875,0.035526674,0.0,-0.17839737,0.34791318,-0.027031444,-0.035463084,0.050790213,0.06781433,0.037628025,-0.07113677,0.14741023,0.0016252808,-1.1931019,86.76341,0.1,0.027031444,0.29115516,0.23362952,0.14947437,0.10267213,inf,inf,inf,inf,1,1,1,1,2,0,2,2,1,1,0
135424471,37837331,49.089833899999995,2.110435,-1.3012704,0.115149125,0.1463635,0.019202875,0.035526674,0.0,-0.17628925,0.34472144,-0.028852347,-0.039592057,0.050790213,0.06781433,0.037628025,-0.061902113,0.14698711,-0.007616419,-1.1932133,86.76341,0.100280255,0.028852347,0.30289948,0.23538792,0.15411371,0.10346969,inf,inf,inf,inf,1,1,1,1,2,0,2,2,1,1,0
135527702,37837331,49.089833899999995,2.110435,-1.2994732,0.11396298,0.14219786,0.019202875,0.035526674,0.0,-0.17444874,0.34218323,-0.029546715,-0.04010764,0.050790213,0.06781433,0.037628025,-0.10301291,0.13198197,-0.06446728,-1.1932087,86.76341,0.10868336,0.029546715,0.29134455,0.23410116,0.14962716,0.10285348,inf,inf,inf,inf,1,1,1,1,2,0,2,2,1,1,0
135624470,37837331,49.089833899999995,2.110435,-1.2981036,0.112925336,0.14056782,0.019202875,0.035526674,0.0,-0.17309235,0.34024462,-0.029385319,-0.037641063,0.050790213,0.06781433,0.037628025,-0.06501088,0.12881157,-0.0024108016,-1.1932006,86.76341,0.106835976,0.029385319,0.3023811,0.2337596,0.15399446,0.103065684,inf,inf,inf,inf,1,1,1,1,2,0,2,2,1,1,0
135727711,37837331,49.089833899999995,2.110435,-1.2960193,0.11135684,0.13845499,0.019202875,0.035526674,0.0,-0.17119615,0.33757132,-0.030200973,-0.036578428,0.050790213,0.06781433,0.037628025,-0.06298005,0.13255239,0.0015207558,-1.1932172,86.76341,0.11089559,0.030200973,0.29089767,0.23417653,0.14954334,0.102889314,inf,inf,inf,inf,1,1,1,1,2,0,2,2,1,1,0
135824470,37837331,49.089833899999995,2.110435,-1.2939183,0.11016452,0.1361694,0.019202875,0.035526674,0.0,-0.16995026,0.33503938,-0.030307889,-0.03544805,0.050790213,0.06781433,0.037628025,-0.0856719,0.10602747,0.069282204,-1.1931119,86.76341,0.10424444,0.030307889,0.3017471,0.23372713,0.15382461,0.103091784,inf,inf,inf,inf,1,1,1,1,2,0,2,2,1,1,0
135928470,37837331,49.089833899999995,2.110435,-1.2924603,0.110531025,0.13224551,0.019202875,0.035526674,0.0,-0.16733263,0.33373246,-0.031420898,-0.036731813,0.050790213,0.06781433,0.037628025,-0.05563156,0.045926847,0.036552485,-1.1931852,86.76341,0.10222164,0.031420898,0.29029506,0.23264255,0.14935979,0.10251723,inf,inf,inf,inf,1,1,1,1,2,0,2,2,1,1,0
136032471,37837331,49.089833899999995,2.110435,-1.2899002,0.108946025,0.12789796,0.019202875,0.035526674,0.0,-0.16623248,0.33041754,-0.031854175,-0.03761871,0.050790213,0.06781433,0.037628025,0.15657006,0.40678892,-0.04400376,-1.1924957,86.76341,0.10531534,0.031854175,0.30206096,0.23444794,0.15399648,0.10333148,inf,inf,inf,inf,1,1,1,1,2,0,2,2,1,1,0
136136471,37837331,49.089833899999995,2.110435,-1.286968,0.10621144,0.124539346,0.019202875,0.035526674,0.0,-0.16289447,0.32513306,-0.034917254,-0.040008612,0.050790213,0.06781433,0.037628025,0.82592833,-0.8480273,-0.33066186,-1.1935189,86.76341,0.10867396,0.034917254,0.29066637,0.23338324,0.14959097,0.10276545,inf,inf,inf,inf,1,1,1,1,2,0,2,2,1,1,0
136240471,37837331,49.089833899999995,2.110435,-1.2854599,0.10584153,0.12502907,0.019202875,0.035526674,0.0,-0.16351031,0.3304822,-0.035487734,-0.036110535,0.050790213,0.06781433,0.037628025,-0.11271861,1.1431024,0.7019955,-1.1928725,86.76341,0.10818423,0.035487734,0.30247167,0.23361687,0.15423647,0.103173025,inf,inf,inf,inf,1,1,1,1,2,0,2,2,1,1,0
136336471,37837331,49.089833899999995,2.110435,-1.2828182,0.10344169,0.12531602,0.019202875,0.035526674,0.0,-0.16189139,0.3333226,-0.0447119,-0.041626755,0.050790213,0.06781433,0.037628025,-1.7208599,0.56413835,-2.0505853,-1.1923271,86.76341,0.10789728,0.0447119,0.29018044,0.23352341,0.14947419,0.102830596,inf,inf,inf,inf,1,1,1,1,2,0,2,2,1,1,0
136440471,37837331,49.089833899999995,2.110435,-1.2820364,0.10480075,0.12049143,0.019202875,0.035526674,0.0,-0.1608925,0.33590034,-0.06427092,-0.061196458,0.050790213,0.06781433,0.037628025,0.17137508,1.7752995,-2.7413204,-1.1917592,86.76341,0.112721875,0.06427092,0.30198652,0.23376285,0.15413284,0.10323802,inf,inf,inf,inf,1,1,1,1,2,0,2,2,1,1,0
136544473,37837331,49.089833899999995,2.110435,-1.2809999,0.103699304,0.108502276,0.019202875,0.035526674,0.0,-0.18139021,0.3400748,-0.07802764,-0.080028936,0.050790213,0.06781433,0.037628025,1.8867464,-2.8749366,2.0169792,-1.1923908,86.76341,0.12471103,0.07802764,0.2906125,0.23271881,0.14974721,0.10267645,inf,inf,inf,inf,1,1,1,1,2,0,2,2,1,1,0
136640470,37837331,49.089833899999995,2.110435,-1.2846788,0.106669806,0.090990774,0.019202875,0.035526674,0.0,-0.21665047,0.34819117,-0.2140378,-0.22015823,0.050790213,0.06781433,0.037628025,-0.445602,-2.5214531,-1.1037211,-1.1904984,86.76341,0.14222252,0.2140378,0.3015331,0.23393717,0.1541404,0.103312336,inf,inf,inf,inf,1,1,1,1,2,0,2,2,1,1,0
136744471,37837331,49.089833899999995,2.110435,-1.2892365,0.106150106,0.04903812,0.019202875,0.035526674,0.0,-0.22843772,0.31100637,-0.49456218,-0.5039629,0.050790213,0.06781433,0.037628025,-0.36294323,-4.7371373,-0.69542557,-1.1853864,86.76341,0.1841752,0.49456218,0.2901261,0.23290673,0.14989707,0.10275446,inf,inf,inf,inf,1,1,1,1,2,0,2,2,1,1,0
136848470,37837331,49.089833899999995,2.110435,-1.29823,0.108711496,-0.024064077,0.019202875,0.035526674,0.0,-0.2549792,0.32897452,-0.7462092,-0.7628275,0.050790213,0.06781433,0.037628025,-0.97378504,5.050167,-3.017501,-1.1796982,86.76341,0.25727737,0.7462092,0.30200672,0.23317133,0.155406,0.10316488,inf,inf,inf,inf,1,1,1,1,2,0,2,2,1,1,0
136944476,37837331,49.089833899999995,2.110435,-1.3063608,0.10567959,-0.1201976,0.019202875,0.035526674,0.0,-0.27270028,0.2998104,-0.9725696,-1.0015236,0.050790213,0.06781433,0.037628025,-1.9027666,1.1066887,-4.6985207,-1.1746447,86.76341,0.3534109,0.9725696,0.2897156,0.23305932,0.15143111,0.102807246,inf,inf,inf,inf,1,1,1,1,2,0,2,2,1,1,0
137048484,37837331,49.089833899999995,2.110435,-1.3194376,0.10565326,-0.2552021,0.019202875,0.035526674,0.0,-0.27796695,0.28056353,-1.2445828,-1.289742,0.050790213,0.06781433,0.037628025,1.8498325,-0.8655879,3.073237,-1.1717976,86.76341,0.48841542,1.2445828,0.30170548,0.23487014,0.1571113,0.10360881,inf,inf,inf,inf,1,1,1,1,2,0,2,2,1,1,0
137152481,37837331,49.089833899999995,2.110435,-1.33176,0.09770311,-0.422845,0.019202875,0.035526674,0.0,-0.30057195,0.25288638,-1.4653004,-1.5285765,0.050790213,0.06781433,0.037628025,0.33433878,-3.1362507,-0.8085763,-1.1710907,86.76341,0.6560583,1.4653004,0.29046714,0.2337904,0.1534946,0.10302556,inf,inf,inf,inf,1,1,1,1,2,0,2,2,1,1,0
137256478,37837331,49.089833899999995,2.110435,-1.3489393,0.09375812,-0.5997239,0.019202875,0.035526674,0.0,-0.32261384,0.2581538,-1.4917239,-1.5684434,0.050790213,0.06781433,0.037628025,-0.3657129,0.7184997,3.3602066,-1.1715164,86.76341,0.8329372,1.4917239,0.30262017,0.23400939,0.15927026,0.10341347,inf,inf,inf,inf,1,1,1,1,2,0,2,2,1,1,0
137352477,37837331,49.089833899999995,2.110435,-1.3635464,0.08300952,-0.7533682,0.019202875,0.035526674,0.0,-0.3334144,0.23105446,-1.4092919,-1.4907123,0.050790213,0.06781433,0.037628025,0.042318154,-3.14874,1.4938179,-1.1732677,86.76341,0.9865815,1.4092919,0.2904639,0.23385665,0.15467454,0.10303909,inf,inf,inf,inf,1,1,1,1,2,0,2,2,1,1,0
137456480,37837331,49.089833899999995,2.110435,-1.3843569,0.07733029,-0.9020289,0.019202875,0.035526674,0.0,-0.3446106,0.21459264,-1.315224,-1.3926591,0.050790213,0.06781433,0.037628025,3.2372298,-5.7322435,4.718015,-1.1747214,86.76341,1.1352422,1.315224,0.30268273,0.23560709,0.1593119,0.10380967,inf,inf,inf,inf,1,1,1,1,2,0,2,2,1,1,0
137560470,37837331,49.089833899999995,2.110435,-1.4044379,0.06544148,-1.0220302,0.019202875,0.035526674,0.0,-0.36274007,0.22465368,-0.94850016,-1.0158961,0.050790213,0.06781433,0.037628025,-1.7483897,0.35452217,8.392111,-1.1734939,86.76341,1.2552435,0.94850016,0.2914222,0.23600063,0.15409468,0.10358494,inf,inf,inf,inf,1,1,1,1,2,0,2,2,1,1,0
137656480,37837331,49.089833899999995,2.110435,-1.4271988,0.060572907,-1.0914241,0.019202875,0.035526674,0.0,-0.37822592,0.22096464,-0.5986234,-0.65563613,0.050790213,0.06781433,0.037628025,-2.0693367,2.0784647,3.0390263,-1.1752218,86.76341,1.3246374,0.5986234,0.30268085,0.2370554,0.15784565,0.10413826,inf,inf,inf,inf,1,1,1,1,2,0,2,2,1,1,0
137760477,37837331,49.089833899999995,2.110435,-1.449459,0.046024755,-1.1346464,0.019202875,0.035526674,0.0,-0.37658188,0.20527394,-0.36461312,-0.40855247,0.050790213,0.06781433,0.037628025,0.5930058,1.777908,0.31923494,-1.1775845,86.76341,1.3678597,0.36461312,0.29138178,0.23571701,0.15138906,0.103448816,inf,inf,inf,inf,1,1,1,1,2,0,2,2,1,1,0
137864471,37837331,49.089833899999995,2.110435,-1.476324,0.038003992,-1.1459763,0.019202875,0.035526674,0.0,-0.39911357,0.19823487,-0.079134315,-0.1088116,0.050790213,0.06781433,0.037628025,-0.86077684,2.628256,-3.9813256,-1.1801453,86.76341,1.3791896,0.079134315,0.30342188,0.2373763,0.15490314,0.104181685,inf,inf,inf,inf,1,1,1,1,2,0,2,2,1,1,0
137960495,37837331,49.089833899999995,2.110435,-1.4983269,0.023945166,-1.1349896,0.019202875,0.035526674,0.0,-0.4099754,0.19014245,0.07493729,0.05771904,0.050790213,0.06781433,0.037628025,-0.3462929,-2.5478885,2.403215,-1.1821316,86.76341,1.3682029,-0.07493729,0.29104632,0.23701951,0.14900303,0.10372241,inf,inf,inf,inf,1,1,1,1,2,0,2,2,1,1,0
138064477,37837331,49.089833899999995,2.110435,-1.5265859,0.014665918,-1.1146964,0.019202875,0.035526674,0.0,-0.4266843,0.18028209,0.085617095,0.08155388,0.050790213,0.06781433,0.037628025,-1.6335629,-5.445276,1.1874689,-1.1838396,86.76341,1.3479097,-0.085617095,0.3029403,0.2386249,0.15264939,0.104434736,inf,inf,inf,inf,1,1,1,1,2,0,2,2,1,1,0
138168471,37837331,49.089833899999995,2.110435,-1.5515931,-0.0014299317,-1.0933144,0.019202875,0.035526674,0.0,-0.4432495,0.18149611,0.087238945,0.09471382,0.050790213,0.06781433,0.037628025,-3.6403184,1.2334372,-1.8636482,-1.1860942,86.76341,1.3265277,-0.087238945,0.29156747,0.23718101,0.14801596,0.103717156,inf,inf,inf,inf,1,1,1,1,2,0,2,2,1,1,0
138264518,37837331,49.089833899999995,2.110435,-1.5803269,-0.0085006235,-1.0798804,0.019202875,0.035526674,0.0,-0.4455671,0.17257448,0.0055390713,0.019672154,0.050790213,0.06781433,0.037628025,0.7963299,-3.8506477,-3.4640882,-1.1885026,86.76341,1.3130937,-0.0055390713,0.3025119,0.23810036,0.15222509,0.1042253,inf,inf,inf,inf,1,1,1,1,2,0,2,2,1,1,0
139384471,37837331,49.089833899999995,2.110435,-2.0526571,-0.11148339,-2.1467404,0.019202875,0.035526674,0.0,-0.69190747,0.18311569,-1.4049989,-1.3682587,0.050790213,0.06781433,0.037628025,0.3096434,-3.3573852,-3.7146106,-1.1504586,86.76341,2.3799539,1.4049989,0.3005995,0.23528273,0.14605063,0.10308391,inf,inf,inf,inf,1,1,1,1,2,0,2,2,1,1,0
139488491,37837331,49.089833899999995,2.110435,-2.115666,-0.11818287,-2.287508,0.019202875,0.035526674,0.0,-0.71906596,0.18189101,-1.497101,-1.454994,0.050790213,0.06781433,0.037628025,1.5136373,-4.825949,-1.2688417,-1.1495717,86.76341,2.5207214,1.497101,0.2925862,0.23559192,0.14113024,0.10288658,inf,inf,inf,inf,1,1,1,1,2,0,2,2,1,1,0
139592471,37837331,49.089833899999995,2.110435,-2.177624,-0.13068087,-2.438824,0.019202875,0.035526674,0.0,-0.74761784,0.18704961,-1.5288082,-1.4851408,0.050790213,0.06781433,0.037628025,1.0794554,-3.2398343,2.7767258,-1.149085,86.76341,2.6720371,1.5288082,0.30368432,0.23718959,0.1442924,0.10368085,inf,inf,inf,inf,1,1,1,1,2,0,2,2,1,1,0
139688471,37837331,49.089833899999995,2.110435,-2.2401257,-0.13550103,-2.581567,0.019202875,0.035526674,0.0,-0.76606005,0.1914199,-1.5243242,-1.481353,0.050790213,0.06781433,0.037628025,0.79488176,3.001252,-0.16543832,-1.1485531,86.76341,2.8147802,1.5243242,0.2949828,0.23685108,0.14059825,0.10330025,inf,inf,inf,inf,1,1,1,1,2,0,2,2,1,1,0
139792476,37837331,49.089833899999995,2.110435,-2.3071725,-0.1454494,-2.731982,0.019202875,0.035526674,0.0,-0.7964284,0.19679128,-1.4801034,-1.4362187,0.050790213,0.06781433,0.037628025,-2.8062522,-0.052709553,3.2387965,-1.1488572,86.76341,2.9651952,1.4801034,0.3058591,0.23679186,0.14468533,0.10368423,inf,inf,inf,inf,1,1,1,1,2,0,2,2,1,1,0
139892474,37837331,49.089833899999995,2.110435,-2.3783484,-0.14461447,-2.8691857,0.019202875,0.035526674,0.0,-0.7995773,0.20597972,-1.4164268,-1.3695419,0.050790213,0.06781433,0.037628025,-0.18134867,5.1764097,0.90931576,-1.1501739,86.76341,3.1023989,1.4164268,0.31623605,0.23775241,0.14869331,0.10428769,inf,inf,inf,inf,1,1,1,1,2,0,2,2,1,1,0
139995670,37837331,49.089833899999995,2.110435,-2.448534,-0.15324096,-3.0044644,0.019202875,0.035526674,0.0,-0.83036345,0.21037956,-1.4072042,-1.3563008,0.050790213,0.06781433,0.037628025,-1.7506324,4.7450447,1.2628812,-1.1514527,86.76341,3.2376776,1.4072042,0.30780718,0.23632582,0.14628647,0.10369098,inf,inf,inf,inf,1,1,1,1,2,0,2,2,1,1,0
140099671,37837331,49.089833899999995,2.110435,-2.5241132,-0.15485862,-3.147198,0.019202875,0.035526674,0.0,-0.8412341,0.20577985,-1.4879528,-1.4365396,0.050790213,0.06781433,0.037628025,-2.21032,4.7332654,-5.454595,-1.1515425,86.76341,3.3804111,1.4879528,0.30015486,0.23530401,0.14430307,0.103148654,inf,inf,inf,inf,1,1,1,1,2,0,2,2,1,1,0
140202893,37837331,49.089833899999995,2.110435,-2.5968974,-0.16390793,-3.2916512,0.019202875,0.035526674,0.0,-0.84889346,0.21132758,-1.4621873,-1.4098629,0.050790213,0.06781433,0.037628025,-0.25817865,5.1019626,0.31963095,-1.1522089,86.76341,3.5248647,1.4621873,0.31085944,0.2353082,0.14987502,0.10358487,inf,inf,inf,inf,1,1,1,1,2,0,2,2,1,1,0
140300471,37837331,49.089833899999995,2.110435,-2.6698928,-0.16559562,-3.4270205,0.019202875,0.035526674,0.0,-0.86970216,0.20344074,-1.4211676,-1.3694787,0.050790213,0.06781433,0.037628025,-0.61756295,-3.5525022,1.6980579,-1.153845,86.76341,3.660234,1.4211676,0.30152985,0.23500587,0.14810771,0.10324615,inf,inf,inf,inf,1,1,1,1,2,0,2,2,1,1,0
140403676,37837331,49.089833899999995,2.110435,-2.743867,-0.17508747,-3.568056,0.019202875,0.035526674,0.0,-0.87957484,0.20753396,-1.3986022,-1.3490766,0.050790213,0.06781433,0.037628025,-0.4088638,0.047885135,2.6340497,-1.1543127,86.76341,3.8012695,1.3986022,0.31233594,0.23670822,0.15401566,0.104111165,inf,inf,inf,inf,1,1,1,1,2,0,2,2,1,1,0
140500471,37837331,49.089833899999995,2.110435,-2.8170238,-0.17918158,-3.7000291,0.019202875,0.035526674,0.0,-0.89171124,0.19601025,-1.4359119,-1.3867743,0.050790213,0.06781433,0.037628025,2.255169,-2.196891,-0.14195399,-1.155338,86.76341,3.9332423,1.4359119,0.30262533,0.23626077,0.15205353,0.103728995,inf,inf,inf,inf,1,1,1,1,2,0,2,2,1,1,0
140603671,37837331,49.089833899999995,2.110435,-2.8946261,-0.18947737,-3.8469536,0.019202875,0.035526674,0.0,-0.9039599,0.20210646,-1.4771327,-1.429658,0.050790213,0.06781433,0.037628025,0.52963626,-3.6913567,5.182597,-1.1558659,86.76341,4.080167,1.4771327,0.31344128,0.23622239,0.15838689,0.10415434,inf,inf,inf,inf,1,1,1,1,2,0,2,2,1,1,0
140707714,37837331,49.089833899999995,2.110435,-2.9766903,-0.19404484,-3.999215,0.019202875,0.035526674,0.0,-0.91867393,0.19931957,-1.4489481,-1.4057902,0.050790213,0.06781433,0.037628025,-0.9760423,-3.0728788,1.8464869,-1.1565007,86.76341,4.232428,1.4489481,0.3042205,0.23645301,0.15706126,0.10399076,inf,inf,inf,inf,1,1,1,1,2,0,2,2,1,1,0
140811688,37837331,49.089833899999995,2.110435,-3.0568533,-0.20394717,-4.1504354,0.019202875,0.035526674,0.0,-0.9231753,0.2012284,-1.4704515,-1.4320588,0.050790213,0.06781433,0.037628025,-0.5110306,-1.1430736,0.8639363,-1.1562011,86.76341,4.383649,1.4704515,0.31533742,0.23812261,0.16399348,0.10485179,inf,inf,inf,inf,1,1,1,1,2,0,2,2,1,1,0
140907670,37837331,49.089833899999995,2.110435,-3.132929,-0.21100654,-4.2927713,0.019202875,0.035526674,0.0,-0.9365644,0.20533738,-1.5141557,-1.4783907,0.050790213,0.06781433,0.037628025,1.5806403,2.0673118,-0.42643577,-1.1552637,86.76341,4.525985,1.5141557,0.30516952,0.23607294,0.16162339,0.10404569,inf,inf,inf,inf,1,1,1,1,2,0,2,2,1,1,0
141011677,37837331,49.089833899999995,2.110435,-3.214626,-0.22255188,-4.4461646,0.019202875,0.035526674,0.0,-0.94530326,0.20682223,-1.501293,-1.4658928,0.050790213,0.06781433,0.037628025,-1.7302264,0.9478666,2.3016305,-1.1534791,86.76341,4.679378,1.501293,0.31644017,0.23770942,0.16865279,0.10491223,inf,inf,inf,inf,1,1,1,1,2,0,2,2,1,1,0
141115671,37837331,49.089833899999995,2.110435,-3.2975805,-0.2326056,-4.594578,0.019202875,0.035526674,0.0,-0.9458131,0.20356634,-1.4408377,-1.4046496,0.050790213,0.06781433,0.037628025,-1.5838674,0.6906997,1.1915879,-1.1526281,86.76341,4.827791,1.4408377,0.3069085,0.23794904,0.16667409,0.10472712,inf,inf,inf,inf,1,1,1,1,2,0,2,2,1,1,0
141211688,37837331,49.089833899999995,2.110435,-3.3734906,-0.24480501,-4.7293077,0.019202875,0.035526674,0.0,-0.9456611,0.1976705,-1.4515378,-1.415111,0.050790213,0.06781433,0.037628025,-0.32793027,2.7921731,-1.424764,-1.1511954,86.76341,4.962521,1.4515378,0.3176045,0.23724753,0.17308836,0.10494648,inf,inf,inf,inf,1,1,1,1,2,0,2,2,1,1,0
141315688,37837331,49.089833899999995,2.110435,-3.4575784,-0.25479534,-4.876309,0.019202875,0.035526674,0.0,-0.9452074,0.18382832,-1.4980389,-1.4600203,0.050790213,0.06781433,0.037628025,0.28588003,-2.145661,-3.971604,-1.1503892,86.76341,5.1095223,1.4980389,0.30775884,0.23751175,0.17016312,0.104757756,inf,inf,inf,inf,1,1,1,1,2,0,2,2,1,1,0
141419711,37837331,49.089833899999995,2.110435,-3.540576,-0.26900792,-5.0319242,0.019202875,0.035526674,0.0,-0.94570494,0.18083416,-1.573157,-1.5359015,0.050790213,0.06781433,0.037628025,1.194458,-2.9994369,0.9428556,-1.1501722,86.76341,5.2651377,1.573157,0.31966588,0.23744063,0.17731448,0.10516942,inf,inf,inf,inf,1,1,1,1,2,0,2,2,1,1,0
141515677,37837331,49.089833899999995,2.110435,-3.6174195,-0.28040037,-5.181637,0.019202875,0.035526674,0.0,-0.9588856,0.19706032,-1.5506624,-1.5135056,0.050790213,0.06781433,0.037628025,-1.8880737,0.3917001,3.3656476,-1.1511289,86.76341,5.41485,1.5506624,0.30880696,0.23703662,0.17387195,0.104777835,inf,inf,inf,inf,1,1,1,1,2,0,2,2,1,1,0
141619670,37837331,49.089833899999995,2.110435,-3.699893,-0.2936639,-5.317975,0.019202875,0.035526674,0.0,-0.9543885,0.18333615,-1.0922459,-1.0552766,0.050790213,0.06781433,0.037628025,-0.58442205,-0.82519907,4.524103,-1.1510186,86.76341,5.5511885,1.0922459,0.3210432,0.23862283,0.1813353,0.1056187,inf,inf,inf,inf,1,1,1,1,2,0,2,2,1,1,0
141723708,37837331,49.089833899999995,2.110435,-3.7835784,-0.306382,-5.3917336,0.019202875,0.035526674,0.0,-0.95014477,0.18431209,-0.44419193,-0.40527207,0.050790213,0.06781433,0.037628025,1.3473771,0.10223847,1.7312077,-1.1511644,86.76341,5.624947,0.44419193,0.3108356,0.23715773,0.17670888,0.104950815,inf,inf,inf,inf,1,1,1,1,2,0,2,2,1,1,0
141827701,37837331,49.089833899999995,2.110435,-3.866902,-0.32315224,-5.3965135,0.019202875,0.035526674,0.0,-0.9567858,0.1877906,0.020689638,0.06874168,0.050790213,0.06781433,0.037628025,-1.2542188,2.1010602,3.8118951,-1.1515489,86.76341,5.629727,-0.020689638,0.32336217,0.23709966,0.1810717,0.10530492,inf,inf,inf,inf,1,1,1,1,2,0,2,2,1,1,0
141923684,37837331,49.089833899999995,2.110435,-3.9449713,-0.3342227,-5.3730583,0.019202875,0.035526674,0.0,-0.9398724,0.1743111,0.13373737,0.19118237,0.050790213,0.06781433,0.037628025,1.8626279,1.3781168,2.0097291,-1.1513973,86.76341,5.6062717,-0.13373737,0.31170052,0.23674601,0.1739025,0.10485663,inf,inf,inf,inf,1,1,1,1,2,0,2,2,1,1,0
142027681,37837331,49.089833899999995,2.110435,-4.0250506,-0.35245982,-5.350862,0.019202875,0.035526674,0.0,-0.9381662,0.17020008,0.12929547,0.18755238,0.050790213,0.06781433,0.037628025,2.6553836,0.76914996,-1.0576329,-1.1512042,86.76341,5.5840755,-0.12929547,0.32425603,0.23674771,0.17920573,0.10525125,inf,inf,inf,inf,1,1,1,1,2,0,2,2,1,1,0
142131671,37837331,49.089833899999995,2.110435,-4.106711,-0.37051833,-5.343607,0.019202875,0.035526674,0.0,-0.9402981,0.17971316,-0.005739834,0.04718946,0.050790213,0.06781433,0.037628025,-1.7413434,2.6050754,-0.082404174,-1.1515908,86.76341,5.5768204,0.005739834,0.3135519,0.23544379,0.17486908,0.10465106,inf,inf,inf,inf,1,1,1,1,2,0,2,2,1,1,0
142227681,37837331,49.089833899999995,2.110435,-4.1831665,-0.38762242,-5.348222,0.019202875,0.035526674,0.0,-0.93371695,0.17856608,-0.07954491,-0.0313862,0.050790213,0.06781433,0.037628025,0.65562797,3.8581038,1.5254376,-1.1524464,86.76341,5.581435,0.07954491,0.3253659,0.23650429,0.18129446,0.10532155,inf,inf,inf,inf,1,1,1,1,2,0,2,2,1,1,0
142331709,37837331,49.089833899999995,2.110435,-4.266261,-0.40518537,-5.359782,0.019202875,0.035526674,0.0,-0.9277636,0.1768772,-0.040424865,-0.002074431,0.050790213,0.06781433,0.037628025,-1.7198358,5.3474593,-0.6672407,-1.1544139,86.76341,5.5929956,0.040424865,0.31446806,0.23682246,0.17731686,0.10514328,inf,inf,inf,inf,1,1,1,1,2,0,2,2,1,1,0
142435723,37837331,49.089833899999995,2.110435,-4.350203,-0.42217675,-5.3499227,0.019202875,0.035526674,0.0,-0.9299457,0.1685278,0.22006501,0.25707185,0.050790213,0.06781433,0.037628025,-1.5565435,0.44997537,5.250756,-1.15909,86.76341,5.583136,-0.22006501,0.327561,0.23685324,0.18401471,0.10556561,inf,inf,inf,inf,1,1,1,1,2,0,2,2,1,1,0
142531699,37837331,49.089833899999995,2.110435,-4.4270406,-0.4362813,-5.3103952,0.019202875,0.035526674,0.0,-0.91499484,0.17166099,0.54525995,0.5805939,0.050790213,0.06781433,0.037628025,-2.1492615,1.2037935,4.8810663,-1.1727774,86.76341,5.5436087,-0.54525995,0.31534177,0.23657571,0.17804052,0.10517474,inf,inf,inf,inf,1,1,1,1,2,0,2,2,1,1,0
142635671,37837331,49.089833899999995,2.110435,-4.50879,-0.45281368,-5.239632,0.019202875,0.035526674,0.0,-0.91959095,0.16514646,0.7450359,0.7790499,0.050790213,0.06781433,0.037628025,1.4589068,1.6400183,3.229581,-1.2102098,86.76341,5.4728456,-0.7450359,0.32856935,0.23666827,0.18315494,0.105582215,inf,inf,inf,inf,1,1,1,1,2,0,2,2,1,1,0
142739698,37837331,49.089833899999995,2.110435,-4.59134,-0.46981245,-5.156253,0.019202875,0.035526674,0.0,-0.9100586,0.16481505,0.74829394,0.7825441,0.050790213,0.06781433,0.037628025,-0.1445223,3.0518496,-7.4376264,-1.2538904,86.76341,5.3894663,-0.74829394,0.31725633,0.2354244,0.17680489,0.10495324,inf,inf,inf,inf,1,1,1,1,2,0,2,2,1,1,0
142835680,37837331,49.089833899999995,2.110435,-4.668996,-0.48372388,-5.080016,0.019202875,0.035526674,0.0,-0.913343,0.16061424,0.7153911,0.75111204,0.050790213,0.06781433,0.037628025,0.14540619,0.68655306,-0.49535546,-1.3058486,86.76341,5.3132296,-0.7153911,0.3295405,0.23657131,0.18216152,0.10562024,inf,inf,inf,inf,1,1,1,1,2,0,2,2,1,1,0
142939677,37837331,49.089833899999995,2.110435,-4.7524223,-0.49953938,-5.006315,0.019202875,0.035526674,0.0,-0.9144204,0.15522139,0.6554245,0.69006586,0.050790213,0.06781433,0.037628025,0.6956058,-2.2682948,1.1601523,-1.376469,86.76341,5.2395287,-0.6554245,0.31801385,0.23538384,0.17691435,0.10503745,inf,inf,inf,inf,1,1,1,1,2,0,2,2,1,1,0
143043694,37837331,49.089833899999995,2.110435,-4.83717,-0.512855,-4.9389157,0.019202875,0.035526674,0.0,-0.9110661,0.16867535,0.6360382,0.66827893,0.050790213,0.06781433,0.037628025,1.2707167,1.9242914,3.0504448,-1.4494878,86.76341,5.172129,-0.6360382,0.3314772,0.23558234,0.18328615,0.10550262,inf,inf,inf,inf,1,1,1,1,2,0,2,2,1,1,0
143139671,37837331,49.089833899999995,2.110435,-4.914393,-0.5284036,-4.8769193,0.019202875,0.035526674,0.0,-0.91231054,0.17292571,0.67507803,0.70321816,0.050790213,0.06781433,0.037628025,2.2796762,3.022869,-0.24370754,-1.5194153,86.76341,5.1101327,-0.67507803,0.31878427,0.23382258,0.1775148,0.1047445,inf,inf,inf,inf,1,1,1,1,2,0,2,2,1,1,0
143243708,37837331,49.089833899999995,2.110435,-4.999824,-0.53953445,-4.8065515,0.019202875,0.035526674,0.0,-0.92273045,0.17313181,0.72388643,0.7464366,0.050790213,0.06781433,0.037628025,-2.5062597,-1.0406064,3.1827416,-1.5996342,86.76341,5.039765,-0.72388643,0.3323774,0.2356818,0.1834871,0.1056316,inf,inf,inf,inf,1,1,1,1,2,0,2,2,1,1,0
143347670,37837331,49.089833899999995,2.110435,-5.0819383,-0.55302274,-4.738722,0.019202875,0.035526674,0.0,-0.90942186,0.18993607,0.70402217,0.7178022,0.050790213,0.06781433,0.037628025,-0.19083758,2.0848742,3.4043376,-1.7058811,86.76341,4.9719353,-0.70402217,0.32050386,0.23455986,0.17744063,0.10504628,inf,inf,inf,inf,1,1,1,1,2,0,2,2,1,1,0
143451728,37837331,49.089833899999995,2.110435,-5.1652474,-0.5597413,-4.677672,0.019202875,0.035526674,0.0,-0.8951204,0.19510682,0.653179,0.6569375,0.050790213,0.06781433,0.037628025,-1.117967,-1.5577136,-2.5353527,-1.8326471,86.76341,4.9108853,-0.653179,0.3342101,0.23636287,0.183239,0.1058946,inf,inf,inf,inf,1,1,1,1,2,0,2,2,1,1,0
143555671,37837331,49.089833899999995,2.110435,-5.2446876,-0.5687128,-4.620081,0.019202875,0.035526674,0.0,-0.88658226,0.20856895,0.64545,0.6400727,0.050790213,0.06781433,0.037628025,0.591426,2.0501888,0.17676894,-1.9758031,86.76341,4.8532944,-0.64545,0.32197395,0.23675697,0.17729756,0.10568275,inf,inf,inf,inf,1,1,1,1,2,0,2,2,1,1,0
143651677,37837331,49.089833899999995,2.110435,-5.319785,-0.5715106,-4.5659547,0.019202875,0.035526674,0.0,-0.8936125,0.21073979,0.6908621,0.67691123,0.050790213,0.06781433,0.037628025,-0.40942603,-2.6774855,-2.1511045,-2.0785666,86.76341,4.799168,-0.6908621,0.33468017,0.23622487,0.18259002,0.10587582,inf,inf,inf,inf,1,1,1,1,2,0,2,2,1,1,0
143755687,37837331,49.089833899999995,2.110435,-5.3990088,-0.57775396,-4.5066633,0.019202875,0.035526674,0.0,-0.8860802,0.22911179,0.6542809,0.6317661,0.050790213,0.06781433,0.037628025,1.0017,-0.35443422,2.9625244,-2.1321907,86.76341,4.7398767,-0.6542809,0.32244527,0.23665172,0.17638615,0.10567019,inf,inf,inf,inf,1,1,1,1,2,0,2,2,1,1,0
143859677,37837331,49.089833899999995,2.110435,-5.4809356,-0.57574576,-4.447829,0.019202875,0.035526674,0.0,-0.8849398,0.2502726,0.5720619,0.54594815,0.050790213,0.06781433,0.037628025,-1.6147523,-2.7377937,2.2343206,-2.148642,86.76341,4.681042,-0.5720619,0.33622146,0.23680758,0.18179761,0.10606828,inf,inf,inf,inf,1,1,1,1,2,0,2,2,1,1,0
143955679,37837331,49.089833899999995,2.110435,-5.5553074,-0.5761344,-4.4205112,0.019202875,0.035526674,0.0,-0.8754343,0.26064044,0.16653793,0.13608909,0.050790213,0.06781433,0.037628025,1.5505929,0.4996163,-7.1411366,-2.1461425,86.76341,4.6537247,-0.16653793,0.32235986,0.23496364,0.17504343,0.10522927,inf,inf,inf,inf,1,1,1,1,2,0,2,2,1,1,0
144059671,37837331,49.089833899999995,2.110435,-5.6359115,-0.57339853,-4.4223757,0.019202875,0.035526674,0.0,-0.85968226,0.27569696,-0.06770234,-0.09896464,0.050790213,0.06781433,0.037628025,-1.8936534,-0.21688123,1.2238396,-2.135222,86.76341,4.655589,0.06770234,0.33606395,0.23678915,0.181345,0.10608707,inf,inf,inf,inf,1,1,1,1,2,0,2,2,1,1,0
144163670,37837331,49.089833899999995,2.110435,-5.7142863,-0.5764652,-4.435943,0.019202875,0.035526674,0.0,-0.8530207,0.28404808,-0.074095495,-0.10496297,0.050790213,0.06781433,0.037628025,-2.7253623,0.4004567,5.2032447,-2.1212463,86.76341,4.6691566,0.074095495,0.32353488,0.23560882,0.1766072,0.10548696,inf,inf,inf,inf,1,1,1,1,2,0,2,2,1,1,0
144259671,37837331,49.089833899999995,2.110435,-5.7876077,-0.57331544,-4.443806,0.019202875,0.035526674,0.0,-0.84284014,0.29205835,0.0072482843,-0.02396101,0.050790213,0.06781433,0.037628025,-3.317116,1.1735289,3.8905334,-2.1083832,86.76341,4.6770196,-0.0072482843,0.33627933,0.2351761,0.182277,0.10570896,inf,inf,inf,inf,1,1,1,1,2,0,2,2,1,1,0
144363677,37837331,49.089833899999995,2.110435,-5.8672657,-0.5768582,-4.448135,0.019202875,0.035526674,0.0,-0.829338,0.2979777,0.07599146,0.040595517,0.050790213,0.06781433,0.037628025,0.34097403,3.9815297,1.9065797,-2.0944293,86.76341,4.6813483,-0.07599146,0.32370678,0.23567325,0.1759143,0.10550711,inf,inf,inf,inf,1,1,1,1,2,0,2,2,1,1,0
144467695,37837331,49.089833899999995,2.110435,-5.948704,-0.5734805,-4.442682,0.019202875,0.035526674,0.0,-0.8320476,0.2934306,0.15074499,0.113299906,0.050790213,0.06781433,0.037628025,-1.4683915,0.41511512,4.2812104,-2.0834627,86.76341,4.675895,-0.15074499,0.33747444,0.23589475,0.1811298,0.105899125,inf,inf,inf,inf,1,1,1,1,2,0,2,2,1,1,0
144571702,37837331,49.089833899999995,2.110435,-6.0303435,-0.57572675,-4.434604,0.019202875,0.035526674,0.0,-0.81930095,0.29547176,0.08900319,0.05132661,0.050790213,0.06781433,0.037628025,3.6433215,1.9309187,0.509789,-2.0737934,86.76341,4.6678176,-0.08900319,0.32482487,0.23633029,0.17469023,0.10565706,inf,inf,inf,inf,1,1,1,1,2,0,2,2,1,1,0
144666871,37837331,49.089833899999995,2.110435,-6.106924,-0.5700998,-4.4331555,0.019202875,0.035526674,0.0,-0.81987023,0.30841506,0.029937027,-0.0069092005,0.050790213,0.06781433,0.037628025,2.6245701,0.7114554,1.678087,-2.0682192,86.76341,4.666369,-0.029937027,0.3374729,0.23746242,0.17965984,0.10624907,inf,inf,inf,inf,1,1,1,1,2,0,2,2,1,1,0
144771671,37837331,49.089833899999995,2.110435,-6.1915236,-0.56932396,-4.434833,0.019202875,0.035526674,0.0,-0.82724667,0.3061654,-0.004564172,-0.04004188,0.050790213,0.06781433,0.037628025,1.4591712,-0.068090975,-3.9390209,-2.06352,86.76341,4.6680465,0.004564172,0.32482332,0.23780143,0.17402303,0.105979495,inf,inf,inf,inf,1,1,1,1,2,0,2,2,1,1,0
144874898,37837331,49.089833899999995,2.110435,-6.276471,-0.5605584,-4.442307,0.019202875,0.035526674,0.0,-0.8199259,0.32078436,0.03651513,-0.0040368238,0.050790213,0.06781433,0.037628025,3.1456022,3.854243,-3.641699,-2.0604286,86.76341,4.6755204,-0.03651513,0.33841595,0.2378156,0.17965093,0.10630609,inf,inf,inf,inf,1,1,1,1,2,0,2,2,1,1,0
144970871,37837331,49.089833899999995,2.110435,-6.355934,-0.5608203,-4.4333596,0.019202875,0.035526674,0.0,-0.825781,0.30577755,0.28067535,0.24003606,0.050790213,0.06781433,0.037628025,0.7988858,-0.3312247,0.7807833,-2.0581477,86.76341,4.666573,-0.28067535,0.3247635,0.23754823,0.17334901,0.105855964,inf,inf,inf,inf,1,1,1,1,2,0,2,2,1,1,0
145074883,37837331,49.089833899999995,2.110435,-6.4432926,-0.55189884,-4.3854012,0.019202875,0.035526674,0.0,-0.82682455,0.3211597,0.67292774,0.6349439,0.050790213,0.06781433,0.037628025,-1.249677,0.47884125,7.37989,-2.0573325,86.76341,4.6186147,-0.67292774,0.33841065,0.23766032,0.17845939,0.10618912,inf,inf,inf,inf,1,1,1,1,2,0,2,2,1,1,0
145178871,37837331,49.089833899999995,2.110435,-6.531817,-0.55010736,-4.3040648,0.019202875,0.035526674,0.0,-0.8380173,0.30303577,0.85851496,0.82447207,0.050790213,0.06781433,0.037628025,-1.2723343,-5.3485594,2.5048506,-2.0573628,86.76341,4.537278,-0.85851496,0.325746,0.2380366,0.1713616,0.10589521,inf,inf,inf,inf,1,1,1,1,2,0,2,2,1,1,0
145274871,37837331,49.089833899999995,2.110435,-6.614349,-0.54062545,-4.2203856,0.019202875,0.035526674,0.0,-0.8302931,0.30995694,0.89797235,0.8668811,0.050790213,0.06781433,0.037628025,1.1970537,-0.9059993,0.030175494,-2.0569623,86.76341,4.453599,-0.89797235,0.33820257,0.23744573,0.17515391,0.10598971,inf,inf,inf,inf,1,1,1,1,2,0,2,2,1,1,0
145378871,37837331,49.089833899999995,2.110435,-6.7026815,-0.53593045,-4.1312027,0.019202875,0.035526674,0.0,-0.83251756,0.31735578,0.8178232,0.7900987,0.050790213,0.06781433,0.037628025,1.0522525,-1.4766356,2.217884,-2.0567493,86.76341,4.364416,-0.8178232,0.32542783,0.23775797,0.16911064,0.10569068,inf,inf,inf,inf,1,1,1,1,2,0,2,2,1,1,0
145482871,37837331,49.089833899999995,2.110435,-6.791298,-0.5232364,-4.0530744,0.019202875,0.035526674,0.0,-0.83279663,0.33870786,0.72535765,0.6996549,0.050790213,0.06781433,0.037628025,2.1889837,3.1745806,-2.0371442,-2.0565019,86.76341,4.286288,-0.72535765,0.33882615,0.23942915,0.17444311,0.106422596,inf,inf,inf,inf,1,1,1,1,2,0,2,2,1,1,0
145578900,37837331,49.089833899999995,2.110435,-6.875383,-0.5181062,-3.9862072,0.019202875,0.035526674,0.0,-0.82266706,0.32785207,0.73104316,0.7053881,0.050790213,0.06781433,0.037628025,3.9082482,1.9199437,1.2972193,-2.056611,86.76341,4.2194204,-0.73104316,0.3252048,0.23906744,0.1689356,0.1059416,inf,inf,inf,inf,1,1,1,1,2,0,2,2,1,1,0
145682870,37837331,49.089833899999995,2.110435,-6.966103,-0.50331074,-3.9047909,0.019202875,0.035526674,0.0,-0.83752483,0.32856992,0.79667753,0.7760709,0.050790213,0.06781433,0.037628025,-2.5339022,-3.7328143,2.7608058,-2.0568018,86.76341,4.1380043,-0.79667753,0.338587,0.2390234,0.17439748,0.10622215,inf,inf,inf,inf,1,1,1,1,2,0,2,2,1,1,0
145786891,37837331,49.089833899999995,2.110435,-7.0584817,-0.4971487,-3.8192894,0.019202875,0.035526674,0.0,-0.8371355,0.3269206,0.79056436,0.7750975,0.050790213,0.06781433,0.037628025,1.8981566,1.5469182,-4.0137014,-2.056611,86.76341,4.0525026,-0.79056436,0.32600462,0.23926613,0.16876629,0.105905704,inf,inf,inf,inf,1,1,1,1,2,0,2,2,1,1,0
145890871,37837331,49.089833899999995,2.110435,-7.1507244,-0.48327914,-3.7343156,0.019202875,0.035526674,0.0,-0.846627,0.3314109,0.76535,0.75496167,0.050790213,0.06781433,0.037628025,-2.0910137,-0.46335056,-1.5770223,-2.0560749,86.76341,3.9675288,-0.76535,0.31407332,0.23945592,0.1634017,0.10555517,inf,inf,inf,inf,1,1,1,1,2,0,2,2,1,1,0
145994870,37837331,49.089833899999995,2.110435,-7.2427125,-0.47891608,-3.6504424,0.019202875,0.035526674,0.0,-0.85476685,0.3203308,0.72577924,0.7219053,0.050790213,0.06781433,0.037628025,-1.4856049,-1.6044958,-0.3330615,-2.055008,86.76341,3.8836555,-0.72577924,0.32678163,0.23936488,0.16851495,0.105833024,inf,inf,inf,inf,1,1,1,1,2,0,2,2,1,1,0
146098871,37837331,49.089833899999995,2.110435,-7.3353176,-0.46826488,-3.569588,0.019202875,0.035526674,0.0,-0.8526317,0.3116812,0.71303463,0.7153403,0.050790213,0.06781433,0.037628025,0.057216316,-2.3835864,1.5679294,-2.055018,86.76341,3.8028011,-0.71303463,0.31477675,0.23788093,0.16329011,0.105058074,inf,inf,inf,inf,1,1,1,1,2,0,2,2,1,1,0
146194871,37837331,49.089833899999995,2.110435,-7.4230857,-0.465934,-3.5022583,0.019202875,0.035526674,0.0,-0.8622624,0.30187836,0.6843834,0.6874717,0.050790213,0.06781433,0.037628025,-0.78518707,-3.788252,3.0238316,-2.0555015,86.76341,3.7354717,-0.6843834,0.3265033,0.23889627,0.16817385,0.10561895,inf,inf,inf,inf,1,1,1,1,2,0,2,2,1,1,0
146298878,37837331,49.089833899999995,2.110435,-7.5179276,-0.45892423,-3.428889,0.019202875,0.035526674,0.0,-0.86203116,0.29123974,0.6807727,0.6859788,0.050790213,0.06781433,0.037628025,3.1175704,0.16984184,1.1176044,-2.0562453,86.76341,3.6621022,-0.6807727,0.3146638,0.23745,0.16302599,0.10486618,inf,inf,inf,inf,1,1,1,1,2,0,2,2,1,1,0
146402871,37837331,49.089833899999995,2.110435,-7.6140976,-0.45654687,-3.3553195,0.019202875,0.035526674,0.0,-0.8649382,0.28793636,0.6774357,0.68480587,0.050790213,0.06781433,0.037628025,1.2005017,5.197575,-4.082944,-2.0574365,86.76341,3.588533,-0.6774357,0.32737026,0.23906794,0.16813815,0.10559881,inf,inf,inf,inf,1,1,1,1,2,0,2,2,1,1,0
146506922,37837331,49.089833899999995,2.110435,-7.7106376,-0.44970807,-3.278562,0.019202875,0.035526674,0.0,-0.87122947,0.27563038,0.6940812,0.7050335,0.050790213,0.06781433,0.037628025,-0.4537328,0.22207731,-0.06677089,-2.0594501,86.76341,3.5117755,-0.6940812,0.31538692,0.23927471,0.16288546,0.10527074,inf,inf,inf,inf,1,1,1,1,2,0,2,2,1,1,0
146602871,37837331,49.089833899999995,2.110435,-7.8022704,-0.44788533,-3.2093334,0.019202875,0.035526674,0.0,-0.87440115,0.25833625,0.68002766,0.69286793,0.050790213,0.06781433,0.037628025,0.62421924,-1.3344883,0.7258823,-2.0604768,86.76341,3.4425468,-0.68002766,0.32709286,0.24021839,0.16748367,0.10579836,inf,inf,inf,inf,1,1,1,1,2,0,2,2,1,1,0
146706871,37837331,49.089833899999995,2.110435,-7.9010434,-0.4431723,-3.135327,0.019202875,0.035526674,0.0,-0.8762992,0.26484498,0.670853,0.68635225,0.050790213,0.06781433,0.037628025,1.6966776,1.5538824,0.54770696,-2.0620546,86.76341,3.3685403,-0.670853,0.3152652,0.238687,0.16231383,0.10501953,inf,inf,inf,inf,1,1,1,1,2,0,2,2,1,1,0
146810882,37837331,49.089833899999995,2.110435,-8.00017,-0.44200757,-3.063357,0.019202875,0.035526674,0.0,-0.8876288,0.25483763,0.6623713,0.6788263,0.050790213,0.06781433,0.037628025,-3.603843,-1.6097037,-0.21050663,-2.0638685,86.76341,3.2965703,-0.6623713,0.32794595,0.23860228,0.16746321,0.1053127,inf,inf,inf,inf,1,1,1,1,2,0,2,2,1,1,0
146906877,37837331,49.089833899999995,2.110435,-8.09134,-0.43891314,-3.0033884,0.019202875,0.035526674,0.0,-0.892785,0.25601625,0.47907832,0.49481297,0.050790213,0.06781433,0.037628025,-0.7437628,1.6200513,-1.4572287,-2.0638156,86.76341,3.2366018,-0.47907832,0.31513906,0.23818585,0.16192675,0.10481584,inf,inf,inf,inf,1,1,1,1,2,0,2,2,1,1,0
147010884,37837331,49.089833899999995,2.110435,-8.190688,-0.43866268,-2.9801698,0.019202875,0.035526674,0.0,-0.8919904,0.24840419,0.0384385,0.050173383,0.050790213,0.06781433,0.037628025,0.17837709,-0.16715379,1.6594946,-2.0636835,86.76341,3.2133832,-0.0384385,0.3277922,0.23814878,0.1669905,0.10512929,inf,inf,inf,inf,1,1,1,1,2,0,2,2,1,1,0
147114910,37837331,49.089833899999995,2.110435,-8.290429,-0.43624505,-2.9946525,0.019202875,0.035526674,0.0,-0.8929592,0.24154903,-0.20375468,-0.19787775,0.050790213,0.06781433,0.037628025,-0.69104093,-0.598998,-2.0496657,-2.0640888,86.76341,3.2278657,0.20375468,0.3158772,0.23676847,0.16293451,0.10444188,inf,inf,inf,inf,1,1,1,1,2,0,2,2,1,1,0
147210871,37837331,49.089833899999995,2.110435,-8.383997,-0.43862525,-3.0416224,0.019202875,0.035526674,0.0,-0.89671594,0.2375589,-0.7629703,-0.7625557,0.050790213,0.06781433,0.037628025,0.5943207,-0.4567107,-10.4419565,-2.0630078,86.76341,3.2748356,0.7629703,0.3276347,0.2378225,0.1688547,0.10504704,inf,inf,inf,inf,1,1,1,1,2,0,2,2,1,1,0
147314879,37837331,49.089833899999995,2.110435,-8.485909,-0.43786946,-3.1667423,0.019202875,0.035526674,0.0,-0.89899737,0.23244825,-1.4975818,-1.5000935,0.050790213,0.06781433,0.037628025,0.3626511,1.6099054,2.2538776,-2.0602822,86.76341,3.3999557,1.4975818,0.3157755,0.23812443,0.16443998,0.10479143,inf,inf,inf,inf,1,1,1,1,2,0,2,2,1,1,0
147418871,37837331,49.089833899999995,2.110435,-8.589419,-0.43919054,-3.341267,0.019202875,0.035526674,0.0,-0.899904,0.21544899,-1.6774002,-1.6835798,0.050790213,0.06781433,0.037628025,2.4492054,0.5695574,0.29627877,-2.0595489,86.76341,3.5744805,1.6774002,0.32864186,0.23810852,0.17227055,0.105161026,inf,inf,inf,inf,1,1,1,1,2,0,2,2,1,1,0
147514873,37837331,49.089833899999995,2.110435,-8.68361,-0.4392651,-3.4980757,0.019202875,0.035526674,0.0,-0.9049653,0.19963783,-1.5492171,-1.5561799,0.050790213,0.06781433,0.037628025,-2.6816325,-4.123145,0.3271563,-2.059743,86.76341,3.731289,1.5492171,0.31578317,0.23775168,0.16814362,0.1047229,inf,inf,inf,inf,1,1,1,1,2,0,2,2,1,1,0
147618917,37837331,49.089833899999995,2.110435,-8.785657,-0.44375235,-3.6512437,0.019202875,0.035526674,0.0,-0.89769906,0.19434194,-1.4044322,-1.409931,0.050790213,0.06781433,0.037628025,-1.4761708,-1.6932932,1.1004766,-2.061326,86.76341,3.884457,1.4044322,0.32879993,0.23771879,0.17324851,0.105030015,inf,inf,inf,inf,1,1,1,1,2,0,2,2,1,1,0
147722877,37837331,49.089833899999995,2.110435,-8.886143,-0.44688258,-3.7940366,0.019202875,0.035526674,0.0,-0.8802388,0.18769036,-1.3757094,-1.3798025,0.050790213,0.06781433,0.037628025,1.5398304,-1.023947,1.7954724,-2.0635421,86.76341,4.02725,1.3757094,0.3169071,0.23798358,0.16698414,0.10472891,inf,inf,inf,inf,1,1,1,1,2,0,2,2,1,1,0
147818871,37837331,49.089833899999995,2.110435,-8.97872,-0.45181286,-3.9261377,0.019202875,0.035526674,0.0,-0.8694972,0.18003641,-1.410529,-1.4120957,0.050790213,0.06781433,0.037628025,1.695349,0.52015567,1.9567263,-2.0657287,86.76341,4.159351,1.410529,0.32886404,0.23898225,0.17110133,0.10527079,inf,inf,inf,inf,1,1,1,1,2,0,2,2,1,1,0
147922871,37837331,49.089833899999995,2.110435,-9.077568,-0.45479375,-4.0713334,0.019202875,0.035526674,0.0,-0.87058854,0.18116985,-1.4134877,-1.4123832,0.050790213,0.06781433,0.037628025,-2.2452583,1.5165064,2.5694597,-2.0679662,86.76341,4.304547,1.4134877,0.31681356,0.2375089,0.1655361,0.1045205,inf,inf,inf,inf,1,1,1,1,2,0,2,2,1,1,0
148026871,37837331,49.089833899999995,2.110435,-9.17629,-0.4614053,-4.217746,0.019202875,0.035526674,0.0,-0.8552948,0.16596572,-1.4280497,-1.4259737,0.050790213,0.06781433,0.037628025,2.3900602,2.7074804,0.6480699,-2.0699725,86.76341,4.450959,1.4280497,0.32972407,0.23913637,0.17056966,0.10525913,inf,inf,inf,inf,1,1,1,1,2,0,2,2,1,1,0
148130871,37837331,49.089833899999995,2.110435,-9.27419,-0.46804488,-4.368138,0.019202875,0.035526674,0.0,-0.85973316,0.14870368,-1.4465041,-1.4454643,0.050790213,0.06781433,0.037628025,-4.348792,-1.9543638,-0.14572223,-2.0715904,86.76341,4.6013513,1.4465041,0.31771356,0.23764536,0.16497752,0.10450544,inf,inf,inf,inf,1,1,1,1,2,0,2,2,1,1,0
148234871,37837331,49.089833899999995,2.110435,-9.371104,-0.47500548,-4.5195007,0.019202875,0.035526674,0.0,-0.8432399,0.14674455,-1.4791309,-1.4773389,0.050790213,0.06781433,0.037628025,2.0704908,2.6065679,1.295224,-2.0729074,86.76341,4.752714,1.4791309,0.3306239,0.23755893,0.16999711,0.10479382,inf,inf,inf,inf,1,1,1,1,2,0,2,2,1,1,0
148330902,37837331,49.089833899999995,2.110435,-9.460632,-0.48062053,-4.657652,0.019202875,0.035526674,0.0,-0.8475841,0.14261273,-1.4482125,-1.4448422,0.050790213,0.06781433,0.037628025,-1.4924864,1.3730654,-1.8229145,-2.073803,86.76341,4.8908653,1.4482125,0.3175543,0.23718365,0.16416796,0.10432429,inf,inf,inf,inf,1,1,1,1,2,0,2,2,1,1,0
148434870,37837331,49.089833899999995,2.110435,-9.5570965,-0.48539805,-4.804701,0.019202875,0.035526674,0.0,-0.8445829,0.12752528,-1.4366606,-1.4308659,0.050790213,0.06781433,0.037628025,1.7661332,1.5658461,-2.621132,-2.0758004,86.76341,5.0379143,1.4366606,0.33041173,0.23716584,0.16911818,0.1046432,inf,inf,inf,inf,1,1,1,1,2,0,2,2,1,1,0
148538877,37837331,49.089833899999995,2.110435,-9.6540575,-0.49172676,-4.9527807,0.019202875,0.035526674,0.0,-0.83864194,0.11370267,-1.3957764,-1.391296,0.050790213,0.06781433,0.037628025,1.2662525,-2.1049395,-1.2959096,-2.0791793,86.76341,5.185994,1.3957764,0.31827766,0.2374803,0.16356216,0.1043864,inf,inf,inf,inf,1,1,1,1,2,0,2,2,1,1,0
148634870,37837331,49.089833899999995,2.110435,-9.743052,-0.4969568,-5.090888,0.019202875,0.035526674,0.0,-0.8465411,0.10432373,-1.5020932,-1.4995515,0.050790213,0.06781433,0.037628025,-2.1119668,-2.6249008,-3.4429266,-2.0819616,86.76341,5.3241014,1.5020932,0.3301117,0.23847789,0.16797602,0.104938045,inf,inf,inf,inf,1,1,1,1,2,0,2,2,1,1,0
148738871,37837331,49.089833899999995,2.110435,-9.839195,-0.5039722,-5.2664857,0.019202875,0.035526674,0.0,-0.8412445,0.11487171,-1.7417407,-1.7466661,0.050790213,0.06781433,0.037628025,1.7086307,4.298333,-3.9403622,-2.0832634,86.76341,5.499699,1.7417407,0.31801677,0.23706482,0.16257593,0.10422547,inf,inf,inf,inf,1,1,1,1,2,0,2,2,1,1,0
148842102,37837331,49.089833899999995,2.110435,-9.934016,-0.51001847,-5.4634795,0.019202875,0.035526674,0.0,-0.8547777,0.08653441,-1.8550316,-1.8698336,0.050790213,0.06781433,0.037628025,-1.4036957,-1.1054475,-4.20596,-2.0855768,86.76341,5.696693,1.8550316,0.33081275,0.23870912,0.16812867,0.10498133,inf,inf,inf,inf,1,1,1,1,2,0,2,2,1,1,0
148942070,37837331,49.089833899999995,2.110435,-10.027776,-0.5175417,-5.6610537,0.019202875,0.035526674,0.0,-0.85503983,0.082153976,-1.9707296,-1.9910551,0.050790213,0.06781433,0.037628025,0.054776963,-0.78900325,-3.418992,-2.0867615,86.76341,5.894267,1.9707296,0.31783015,0.23830777,0.16321258,0.10451742,inf,inf,inf,inf,1,1,1,1,2,0,2,2,1,1,0
149046072,37837331,49.089833899999995,2.110435,-10.125499,-0.5234011,-5.882611,0.019202875,0.035526674,0.0,-0.8614212,0.07832601,-2.1227605,-2.1492116,0.050790213,0.06781433,0.037628025,-1.6781946,-2.926201,-1.8707029,-2.0872946,86.76341,6.115824,2.1227605,0.3306508,0.2382536,0.1684258,0.10482381,inf,inf,inf,inf,1,1,1,1,2,0,2,2,1,1,0
149142871,37837331,49.089833899999995,2.110435,-10.218159,-0.53011733,-6.104395,0.019202875,0.035526674,0.0,-0.8628833,0.086319886,-2.3341815,-2.3638608,0.050790213,0.06781433,0.037628025,2.5861697,3.4385796,-5.8574877,-2.085935,86.76341,6.3376083,2.3341815,0.31790158,0.23649332,0.16333693,0.10398421,inf,inf,inf,inf,1,1,1,1,2,0,2,2,1,1,0
149246085,37837331,49.089833899999995,2.110435,-10.317709,-0.5362389,-6.3625894,0.019202875,0.035526674,0.0,-0.87998956,0.07345042,-2.5253532,-2.5594337,0.050790213,0.06781433,0.037628025,3.0802114,2.8244874,0.7946792,-2.0852385,86.76341,6.595803,2.5253532,0.3306395,0.23643681,0.16876248,0.104310624,inf,inf,inf,inf,1,1,1,1,2,0,2,2,1,1,0
149350077,37837331,49.089833899999995,2.110435,-10.422779,-0.5471173,-6.6418467,0.019202875,0.035526674,0.0,-0.9155347,0.07439498,-2.798926,-2.8313296,0.050790213,0.06781433,0.037628025,-1.6496782,0.36878988,-8.328858,-2.085003,86.76341,6.87506,2.798926,0.31873485,0.23690554,0.16433859,0.104104355,inf,inf,inf,inf,1,1,1,1,2,0,2,2,1,1,0
149454070,37837331,49.089833899999995,2.110435,-10.529339,-0.5544867,-6.941536,0.019202875,0.035526674,0.0,-0.9457899,0.079433635,-3.0070586,-3.034156,0.050790213,0.06781433,0.037628025,-0.6001891,-2.6136417,-6.264127,-2.0845141,86.76341,7.1747494,3.0070586,0.3315553,0.23851751,0.17001316,0.10486371,inf,inf,inf,inf,1,1,1,1,2,0,2,2,1,1,0
149550078,37837331,49.089833899999995,2.110435,-10.630968,-0.564096,-7.2366314,0.019202875,0.035526674,0.0,-0.9830681,0.09021188,-3.196328,-3.2180057,0.050790213,0.06781433,0.037628025,-1.6862044,0.004308275,1.4597235,-2.0839872,86.76341,7.469845,3.196328,0.31829232,0.23647612,0.16498573,0.10397951,inf,inf,inf,inf,1,1,1,1,2,0,2,2,1,1,0
149654078,37837331,49.089833899999995,2.110435,-10.743198,-0.57083017,-7.5834403,0.019202875,0.035526674,0.0,-1.0141246,0.10617694,-3.5026336,-3.519839,0.050790213,0.06781433,0.037628025,-2.26679,-0.9308392,1.1093329,-2.0827894,86.76341,7.8166537,3.5026336,0.33123818,0.23646185,0.17073295,0.10430385,inf,inf,inf,inf,1,1,1,1,2,0,2,2,1,1,0
149757323,37837331,49.089833899999995,2.110435,-10.858885,-0.5769869,-7.9607096,0.019202875,0.035526674,0.0,-1.0374308,0.13337927,-3.8214316,-3.835873,0.050790213,0.06781433,0.037628025,-0.6879565,-1.1178583,-7.386273,-2.0809026,86.76341,8.193923,3.8214316,0.31915173,0.23679821,0.16618958,0.10407681,inf,inf,inf,inf,1,1,1,1,2,0,2,2,1,1,0
149853320,37837331,49.089833899999995,2.110435,-10.966502,-0.5762498,-8.339667,0.019202875,0.035526674,0.0,-1.0562944,0.16703507,-4.0544653,-4.0679836,0.050790213,0.06781433,0.037628025,-0.6338967,-0.25576216,8.427099,-2.0789046,86.76341,8.572881,4.0544653,0.3311779,0.23617859,0.1718302,0.10422531,inf,inf,inf,inf,1,1,1,1,2,0,2,2,1,1,0
149957333,37837331,49.089833899999995,2.110435,-11.08692,-0.5762667,-8.77586,0.019202875,0.035526674,0.0,-1.0774571,0.18113397,-4.3686123,-4.3792496,0.050790213,0.06781433,0.037628025,1.0627011,-0.15056974,-8.355358,-2.077933,86.76341,9.009073,4.3686123,0.3189073,0.23652633,0.16724467,0.10399851,inf,inf,inf,inf,1,1,1,1,2,0,2,2,1,1,0
150062078,37837331,49.089833899999995,2.110435,-11.210513,-0.5725066,-9.251226,0.019202875,0.035526674,0.0,-1.1039603,0.20611297,-4.7236133,-4.7319717,0.050790213,0.06781433,0.037628025,-0.08664944,1.8983501,-1.354756,-2.0763874,86.76341,9.48444,4.7236133,0.3320182,0.23657659,0.17328167,0.104347,inf,inf,inf,inf,1,1,1,1,2,0,2,2,1,1,0
150158071,37837331,49.089833899999995,2.110435,-11.329163,-0.57077974,-9.721912,0.019202875,0.035526674,0.0,-1.1343236,0.21316867,-5.115956,-5.1224756,0.050790213,0.06781433,0.037628025,-0.15589863,-1.6010057,-0.36332396,-2.0762153,86.76341,9.955126,5.115956,0.3188907,0.23631197,0.16836557,0.10394287,inf,inf,inf,inf,1,1,1,1,2,0,2,2,1,1,0
150262082,37837331,49.089833899999995,2.110435,-11.45914,-0.563317,-10.278632,0.019202875,0.035526674,0.0,-1.1685606,0.23451163,-5.591792,-5.595783,0.050790213,0.06781433,0.037628025,-1.9794596,1.6420995,-6.8364677,-2.0753622,86.76341,10.511846,5.591792,0.33208293,0.23638844,0.17477398,0.10430149,inf,inf,inf,inf,1,1,1,1,2,0,2,2,1,1,0
150366070,37837331,49.089833899999995,2.110435,-11.5928545,-0.558858,-10.865722,0.019202875,0.035526674,0.0,-1.194047,0.23697041,-5.675564,-5.6764402,0.050790213,0.06781433,0.037628025,-2.2871888,-1.1242374,6.823776,-2.0772557,86.76341,11.098935,5.675564,0.31995368,0.23513165,0.17084466,0.10367213,inf,inf,inf,inf,1,1,1,1,2,0,2,2,1,1,0
150462071,37837331,49.089833899999995,2.110435,-11.716704,-0.5506716,-11.403025,0.019202875,0.035526674,0.0,-1.2073325,0.23508228,-5.6476693,-5.6423597,0.050790213,0.06781433,0.037628025,0.45189255,-1.4774363,0.39113066,-2.0784423,86.76341,11.636238,5.6476693,0.33227235,0.23622277,0.17674948,0.1042655,inf,inf,inf,inf,1,1,1,1,2,0,2,2,1,1,0
150566078,37837331,49.089833899999995,2.110435,-11.854537,-0.5450998,-11.977912,0.019202875,0.035526674,0.0,-1.2397121,0.24527012,-5.6421804,-5.6245165,0.050790213,0.06781433,0.037628025,1.7736377,3.223692,6.037143,-2.0790706,86.76341,12.211125,5.6421804,0.32011676,0.23498408,0.17063774,0.103617504,inf,inf,inf,inf,1,1,1,1,2,0,2,2,1,1,0
150670072,37837331,49.089833899999995,2.110435,-11.992612,-0.53529936,-12.549467,0.019202875,0.035526674,0.0,-1.2605518,0.23987664,-5.664695,-5.632163,0.050790213,0.06781433,0.037628025,-0.45971826,-1.1900072,9.110171,-2.0793142,86.76341,12.7826805,5.664695,0.33345747,0.23509152,0.17554586,0.10396452,inf,inf,inf,inf,1,1,1,1,2,0,2,2,1,1,0
150766089,37837331,49.089833899999995,2.110435,-12.12237,-0.53087324,-13.076722,0.019202875,0.035526674,0.0,-1.276457,0.25004983,-5.6608105,-5.6141686,0.050790213,0.06781433,0.037628025,0.03225839,2.226955,4.636789,-2.0789952,86.76341,13.309936,5.6608105,0.32021448,0.23488832,0.16915843,0.1035678,inf,inf,inf,inf,1,1,1,1,2,0,2,2,1,1,0
150870071,37837331,49.089833899999995,2.110435,-12.262411,-0.5210415,-13.648612,0.019202875,0.035526674,0.0,-1.2928877,0.24452661,-5.6788483,-5.6206183,0.050790213,0.06781433,0.037628025,0.4706483,-0.32884613,3.2069728,-2.078219,86.76341,13.881825,5.6788483,0.33349508,0.23501207,0.1741706,0.10392105,inf,inf,inf,inf,1,1,1,1,2,0,2,2,1,1,0
150974078,37837331,49.089833899999995,2.110435,-12.405487,-0.51529896,-14.21969,0.019202875,0.035526674,0.0,-1.3105471,0.25613225,-5.6977425,-5.6238446,0.050790213,0.06781433,0.037628025,-0.43331325,1.7432871,11.5732975,-2.0773172,86.76341,14.452904,5.6977425,0.3212842,0.23545857,0.16814287,0.10371866,inf,inf,inf,inf,1,1,1,1,2,0,2,2,1,1,0
151078071,37837331,49.089833899999995,2.110435,-12.547936,-0.50419086,-14.787562,0.019202875,0.035526674,0.0,-1.3214347,0.2515269,-5.699082,-5.6099606,0.050790213,0.06781433,0.037628025,0.43350345,0.14329065,1.7209079,-2.0760953,86.76341,15.020776,5.699082,0.33454975,0.23721409,0.1731773,0.10449148,inf,inf,inf,inf,1,1,1,1,2,0,2,2,1,1,0
151182071,37837331,49.089833899999995,2.110435,-12.693473,-0.49850172,-15.358813,0.019202875,0.035526674,0.0,-1.3382962,0.2520665,-5.7308645,-5.627647,0.050790213,0.06781433,0.037628025,1.117595,2.1483374,6.854811,-2.0753775,86.76341,15.592027,5.7308645,0.32233018,0.23593582,0.16735332,0.103826694,inf,inf,inf,inf,1,1,1,1,2,0,2,2,1,1,0
151278113,37837331,49.089833899999995,2.110435,-12.827868,-0.48829553,-15.885155,0.019202875,0.035526674,0.0,-1.3657142,0.23665486,-5.737195,-5.621126,0.050790213,0.06781433,0.037628025,1.1060665,-1.8013072,0.91628367,-2.0759954,86.76341,16.118368,5.737195,0.3345491,0.23538359,0.17199203,0.1039675,inf,inf,inf,inf,1,1,1,1,2,0,2,2,1,1,0
151382081,37837331,49.089833899999995,2.110435,-12.97666,-0.48322168,-16.459093,0.019202875,0.035526674,0.0,-1.3838433,0.23118876,-5.691914,-5.5684094,0.050790213,0.06781433,0.037628025,-0.34150785,-1.6411736,4.9999294,-2.0768566,86.76341,16.692307,5.691914,0.3224409,0.23579271,0.16647223,0.10375509,inf,inf,inf,inf,1,1,1,1,2,0,2,2,1,1,0
151486087,37837331,49.089833899999995,2.110435,-13.126051,-0.4730926,-17.030872,0.019202875,0.035526674,0.0,-1.4147828,0.23151325,-5.6848674,-5.556174,0.050790213,0.06781433,0.037628025,-2.5018294,2.0843585,9.458625,-2.075953,86.76341,17.264086,5.6848674,0.31090617,0.23456767,0.16108151,0.103101864,inf,inf,inf,inf,1,1,1,1,2,0,2,2,1,1,0
151582074,37837331,49.089833899999995,2.110435,-13.268999,-0.46912608,-17.563322,0.019202875,0.035526674,0.0,-1.4287659,0.22116587,-5.7256145,-5.5944533,0.050790213,0.06781433,0.037628025,0.2521609,0.74855834,8.424367,-2.0758545,86.76341,17.796535,5.7256145,0.32246065,0.23567766,0.16523242,0.10369316,inf,inf,inf,inf,1,1,1,1,2,0,2,2,1,1,0
151686070,37837331,49.089833899999995,2.110435,-13.423628,-0.45897403,-18.140896,0.019202875,0.035526674,0.0,-1.4593978,0.21975455,-5.767299,-5.6306005,0.050790213,0.06781433,0.037628025,-1.8775156,0.43214664,0.97379434,-2.0753822,86.76341,18.37411,5.767299,0.3355908,0.23579158,0.17007068,0.10403495,inf,inf,inf,inf,1,1,1,1,2,0,2,2,1,1,0
151790071,37837331,49.089833899999995,2.110435,-13.582423,-0.45790204,-18.712229,0.019202875,0.035526674,0.0,-1.4659413,0.21157315,-5.5313945,-5.3904967,0.050790213,0.06781433,0.037628025,2.5323873,3.4839585,1.7045467,-2.0754628,86.76341,18.945442,5.5313945,0.3232218,0.23459035,0.1647377,0.10340512,inf,inf,inf,inf,1,1,1,1,2,0,2,2,1,1,0
151894071,37837331,49.089833899999995,2.110435,-13.740214,-0.4504237,-19.231277,0.019202875,0.035526674,0.0,-1.4752525,0.20503359,-4.861469,-4.7141824,0.050790213,0.06781433,0.037628025,0.27076986,-0.69686264,9.558069,-2.0758052,86.76341,19.46449,4.861469,0.33634135,0.23470972,0.16946399,0.10374569,inf,inf,inf,inf,1,1,1,1,2,0,2,2,1,1,0
151998075,37837331,49.089833899999995,2.110435,-13.899515,-0.44950396,-19.671122,0.019202875,0.035526674,0.0,-1.4898041,0.19338502,-4.036559,-3.8828897,0.050790213,0.06781433,0.037628025,0.8457418,-0.75343126,9.697796,-2.0764856,86.76341,19.904335,4.036559,0.32379293,0.23516789,0.16223596,0.10354057,inf,inf,inf,inf,1,1,1,1,2,0,2,2,1,1,0
152094071,37837331,49.089833899999995,2.110435,-14.046154,-0.44430596,-19.992867,0.019202875,0.035526674,0.0,-1.499202,0.1926017,-3.2133827,-3.0500884,0.050790213,0.06781433,0.037628025,-0.47602177,0.10190282,8.877341,-2.0776052,86.76341,20.22608,3.2133827,0.31116387,0.23336835,0.1543435,0.10271003,inf,inf,inf,inf,1,1,1,1,2,0,2,2,1,1,0
152198077,37837331,49.089833899999995,2.110435,-14.207306,-0.44420755,-20.253208,0.019202875,0.035526674,0.0,-1.5069532,0.18423603,-2.2919102,-2.1219819,0.050790213,0.06781433,0.037628025,-0.0034899525,0.0193911,9.026363,-2.0791945,86.76341,20.486422,2.2919102,0.3232407,0.23353815,0.1558429,0.10307827,inf,inf,inf,inf,1,1,1,1,2,0,2,2,1,1,0
