timestamp,error_count,device_id,x,y,z,integral_dt,x_integral,y_integral,z_integral,temperature,scaling,x_raw,y_raw,z_raw
133188639,0,1114658,-0.305361,0.018065939,-9.955188,4194,-0.0011107792,-0.0004128712,-0.041423667,40.625,0.0071784677,456,471,-944
133290472,0,1114658,-0.26230207,-0.0606243,-9.996465,4199,-0.0017485562,-0.00057883514,-0.041784756,40.75,0.0071784677,457,429,-942
133392387,0,1114658,-0.29240224,0.016336696,-10.054217,5314,-0.0012001438,0.00012409723,-0.053071216,40.625,0.0071784677,429,474,-937
133903734,0,1114658,-0.32358932,-0.1331835,-10.013804,5311,-0.0014582044,-0.00022850675,-0.053262588,40.75,0.0071784677,436,462,-950
134002372,0,1114658,-0.28774592,-0.056072146,-9.926759,4190,-0.0013134355,-0.00033275905,-0.04137315,40.625,0.0071784677,459,442,-942
134103203,0,1114658,-0.17470296,-0.015196805,-10.026765,4231,-0.0006474936,-0.0005232124,-0.04250944,40.625,0.0071784677,473,490,-967
134207144,0,1114658,-0.2684249,-0.076486565,-10.112076,4178,-0.0011741809,-2.6330542e-06,-0.04213747,40.625,0.0071784677,460,465,-958
134307922,0,1114658,-0.32220137,-0.12373126,-10.230239,4156,-0.001792564,-0.0001679011,-0.041975655,40.75,0.0071784677,450,435,-950
134409817,0,1114658,-0.1467827,-0.07471383,-10.047144,4245,-0.0010516967,-8.0134065e-05,-0.04307267,40.625,0.0071784677,447,466,-984
134511625,0,1114658,-0.2993694,-0.12177487,-10.0800905,5253,-0.0012886077,-0.0010618967,-0.052846465,40.75,0.0071784677,485,475,-954
134612422,0,1114658,-0.41963154,0.06863758,-10.006941,4200,-0.0016812698,-0.00016979862,-0.04214442,40.625,0.0071784677,445,437,-960
134711158,0,1114658,-0.34746736,0.060480747,-10.049848,4183,-0.0014962234,-0.00072987337,-0.042539366,40.75,0.0071784677,466,449,-971
134817220,0,1114658,-0.3156239,-0.12069978,-9.9554615,4247,-0.0012753233,-0.0009211443,-0.041812643,40.625,0.0071784677,467,456,-943
134914825,0,1114658,-0.22320022,-0.10025479,-9.909108,5224,-0.0013761679,-0.00033068215,-0.050898314,40.5,0.0071784677,444,439,-918
135017724,0,1114658,-0.31459516,-0.064999595,-10.070274,4195,-0.0014106322,0.00011994299,-0.042187206,40.625,0.0071784677,450,452,-970
135119618,0,1114658,-0.21078742,-0.08650966,-10.090838,5295,-0.001098943,0.00018677591,-0.053859416,40.625,0.0071784677,445,467,-978
135220411,0,1114658,-0.2639995,-0.04052292,-10.068475,4211,-0.0011222841,-8.4690415e-05,-0.04241455,40.625,0.0071784677,435,454,-983
135324385,0,1114658,-0.26339749,-0.10626017,-10.019901,4228,-0.0008275429,-0.00023541464,-0.041784883,40.75,0.0071784677,433,464,-923
135423045,0,1114658,-0.35351047,-0.13624887,-10.042653,4223,-0.0018113283,-0.00030424653,-0.042178802,40.5,0.0071784677,462,441,-943
135526972,0,1114658,-0.28445873,-0.02457566,-10.024172,4160,-0.00033804044,-2.1914886e-05,-0.04171098,40.625,0.0071784677,454,481,-946
135625673,0,1114658,-0.33648762,-0.056404363,-9.98802,4201,-0.0007301811,-0.00031346554,-0.042522892,40.75,0.0071784677,447,480,-978
135727590,0,1114658,-0.24172038,-0.09772518,-9.9499855,4268,-0.0015535037,-0.00043628056,-0.04215145,40.75,0.0071784677,446,449,-939
135828386,0,1114658,-0.4205925,-0.05651215,-10.130744,4228,-0.0024516752,7.0647407e-06,-0.043040108,40.625,0.0071784677,450,435,-954
135930182,0,1114658,-0.2661411,-0.007940889,-10.039427,4163,-0.0009985821,1.5325697e-05,-0.041325312,40.625,0.0071784677,431,446,-965
136034126,0,1114658,-0.25996488,0.031415492,-10.14816,5251,-0.0018588674,0.0009518707,-0.052788645,40.75,0.0071784677,443,474,-957
136134967,0,1114658,-0.4290185,-0.10004715,-10.175596,4228,0.00201221,0.0017666683,-0.045451116,40.625,0.0071784677,420,731,-966
136238942,0,1114658,-0.083667435,-0.08125142,-10.360826,5319,-0.00789967,0.0007522189,-0.05536418,40.625,0.0071784677,389,280,-714
136341772,0,1114658,-0.4359809,-0.37168702,-10.118526,4200,0.0031717864,0.0013028942,-0.040041313,40.625,0.0071784677,523,645,-1224
136443622,0,1114658,-0.25812164,-0.01957028,-10.737901,4199,-0.01889788,0.0010531922,-0.051104102,40.75,0.0071784677,547,8,-982
136545482,0,1114658,-0.2078472,-0.13907312,-10.307309,5260,0.014597124,0.0010511795,-0.0488729,40.625,0.0071784677,568,613,-1238
136646301,0,1114658,-0.20416752,-0.1097525,-12.883626,4162,-0.012938,0.0031876368,-0.051940273,40.75,0.0071784677,240,-156,-850
136747073,0,1114658,0.5099298,-0.5462862,-12.291725,4113,-0.007872199,0.0012098065,-0.060828164,40.625,0.0071784677,179,-417,-1614
136848932,0,1114658,-0.24859697,0.27829364,-12.585499,4200,-0.018985821,0.006447838,-0.048275005,40.625,0.0071784677,491,587,-783
136948673,0,1114658,-0.18529151,-0.17159608,-11.669737,5251,-0.0013932538,0.0052859955,-0.044815175,40.75,0.0071784677,271,1033,-1521
137051590,0,1114658,0.21270008,-0.09046492,-12.602579,6254,0.0018244438,0.00022751714,-0.09046971,40.625,0.0071784677,733,161,-2447
137154472,0,1114658,0.30901802,-0.12561922,-11.186294,4200,0.009248613,-0.0023515215,-0.05354399,40.75,0.0071784677,353,268,-1349
137256360,0,1114658,-1.0710474,-0.22708137,-9.563643,4203,-0.0059631444,0.0003232132,-0.03061158,40.625,0.0071784677,442,1326,-727
137360272,0,1114658,-0.28524253,0.16478075,-8.494047,4200,-0.000925955,-0.0022197047,-0.03905088,40.5,0.0071784677,671,1080,-984
137461072,0,1114658,0.5524922,0.26590958,-8.298621,4199,-0.022825481,0.0029449551,-0.04683587,40.625,0.0071784677,726,-683,-852
137562958,0,1114658,-0.77664727,-0.0977796,-5.04103,5285,0.007848805,-0.010407046,-0.019748293,40.625,0.0071784677,666,932,-339
137663772,0,1114658,0.38256484,-0.00011104901,-6.824323,4184,0.0062640803,0.0013528976,-0.037852995,40.625,0.0071784677,559,175,-1561
137765572,0,1114658,-0.51011264,-0.14920469,-7.0577273,4199,-0.0014795413,-0.008257484,-0.019281106,40.625,0.0071784677,501,795,-269
137868554,0,1114658,-0.96896154,-0.034515876,-8.947375,4282,-0.010531959,-0.0004531175,-0.027417742,40.625,0.0071784677,622,895,116
137970322,0,1114658,-0.37173256,-0.058149334,-9.725438,4151,-0.002699644,-0.007505492,-0.042790573,40.625,0.0071784677,477,824,-797
138071123,0,1114658,-0.39164785,0.22214389,-10.319055,4157,-0.0247304,0.013516623,-0.036241796,40.5,0.0071784677,496,349,-396
138171922,0,1114658,-0.4012504,-0.6766146,-10.730387,4177,0.00079329667,0.009698833,-0.033649452,40.75,0.0071784677,54,739,-578
138273772,0,1114658,-0.5780085,-0.23789972,-10.58827,4200,0.013551634,-0.0033648403,-0.0527385,40.625,0.0071784677,535,1204,-1484
139293324,0,1114658,-0.790763,0.14380695,-9.803459,4154,0.00097076804,-0.0005921069,-0.023899715,40.625,0.0071784677,1084,1005,-876
139394148,0,1114658,-0.4205751,-0.18569766,-10.913323,4188,0.00930316,-0.010906808,-0.056331415,40.625,0.0071784677,662,936,-1513
139493872,0,1114658,-0.6493994,-0.35587814,-11.072747,4199,-0.020171607,0.0013487019,-0.044244353,40.625,0.0071784677,441,765,-842
139594685,0,1114658,0.23888578,-0.2426228,-10.054077,4213,0.022721622,-0.008545745,-0.042532813,40.625,0.0071784677,613,441,-1291
139696577,0,1114658,0.17048316,-0.28391546,-9.91367,4205,0.005602386,-0.002252297,-0.047108132,40.75,0.0071784677,153,111,-1034
139799450,0,1114658,1.1477367,-0.3228441,-9.7558,4200,-0.010814951,0.01285114,-0.049978666,40.75,0.0071784677,153,-773,-1050
139903372,0,1114658,-0.27002752,0.2274021,-10.437402,4161,-0.018926557,0.009970604,-0.03626374,40.5,0.0071784677,464,122,-272
140005223,0,1114658,-0.15660766,0.22771907,-10.322576,4201,-0.017334647,0.008623652,-0.041937582,40.625,0.0071784677,483,71,-657
140103923,0,1114658,-0.8560224,-0.02107457,-10.544683,4150,0.011732462,3.5378685e-05,-0.022558786,40.625,0.0071784677,657,1447,-690
140205772,0,1114658,-0.7109861,0.5339102,-9.720789,5205,-0.011880179,-0.00024193453,-0.0413056,40.75,0.0071784677,765,956,-878
140308679,0,1114658,-0.1948467,0.18332808,-9.522392,4143,-0.018172309,0.004285197,-0.04250864,40.75,0.0071784677,603,304,-1008
140410539,0,1114658,0.073467955,-0.04896748,-9.972488,5224,-0.003978539,0.009480302,-0.060355958,40.75,0.0071784677,22,35,-1116
140511322,0,1114658,-0.047566254,-0.23943187,-10.688041,4165,0.009861495,0.006745665,-0.044603657,40.875,0.0071784677,24,360,-1000
140613203,0,1114658,-0.97105485,0.30726334,-10.041513,4231,-0.007300597,0.002311246,-0.030426893,40.625,0.0071784677,852,1318,-696
140718184,0,1114658,-0.5976179,-0.12555066,-9.832439,4197,0.004079072,-0.006752739,-0.03960487,40.75,0.0071784677,816,864,-852
140820022,0,1114658,-0.14141715,0.11607181,-10.835778,4194,0.0037649104,0.008184882,-0.039059885,40.75,0.0071784677,391,601,-727
140921872,0,1114658,-0.5090492,0.09394742,-10.184756,5249,0.010778317,0.002269138,-0.04456423,40.75,0.0071784677,836,932,-870
141024772,0,1114658,-0.6951876,-0.08381745,-10.1236925,4198,0.01794121,-0.010522877,-0.023788434,40.625,0.0071784677,693,1748,-160
141126622,0,1114658,-0.3808769,-0.07053905,-9.547738,5250,-0.0125454385,-0.005460257,-0.048625387,40.625,0.0071784677,803,609,-1335
141227422,0,1114658,-0.5300647,0.17020929,-10.241758,4200,0.002715927,8.12332e-05,-0.043592293,40.75,0.0071784677,685,1261,-1254
141329315,0,1114658,0.5388726,-0.28879717,-11.364447,4243,-0.0135969985,-0.0039570844,-0.046839997,40.75,0.0071784677,278,-267,-343
141430134,0,1114658,-0.18893826,0.09828037,-10.918755,4262,0.020955604,0.0018805732,-0.042293582,40.75,0.0071784677,662,557,-1343
141529822,0,1114658,-0.07655627,-0.172103,-7.240419,5248,0.0065467902,-0.009706579,-0.02906529,40.625,0.0071784677,494,916,-157
141634839,0,1114658,0.15995872,-0.33602166,-4.199287,4217,0.0067370837,-0.005155812,-0.025615744,40.75,0.0071784677,460,531,-266
141735622,0,1114658,-0.315132,-0.2963245,-4.398207,4200,-0.0056194384,-0.0055725253,-0.0057467297,40.625,0.0071784677,477,353,243
141835372,0,1114658,0.35521612,-0.04541675,-7.5417566,4177,0.002721994,0.0018044524,-0.046667352,40.625,0.0071784677,405,-38,-897
141937272,0,1114658,-0.21172437,0.45097783,-9.222515,4214,-0.015039408,0.003340655,-0.027492058,40.75,0.0071784677,912,191,-814
142038022,0,1114658,-0.15315795,-0.14041822,-11.099102,4160,0.0021979383,0.005994569,-0.046253692,40.625,0.0071784677,303,692,-1138
142139873,0,1114658,0.4104963,0.047474667,-11.379478,4104,-0.0056295865,0.00089105975,-0.04142134,40.75,0.0071784677,485,65,-1043
142240673,0,1114658,-0.83303225,0.35923895,-10.007869,4151,0.010559453,0.0018749598,-0.027848221,40.75,0.0071784677,594,1528,-680
142342522,0,1114658,0.6981158,0.25424036,-9.033627,5181,-0.01505266,0.0141989,-0.059503194,40.625,0.0071784677,414,-532,-961
142445423,0,1114658,0.056228664,-0.06853841,-6.4097953,4201,-0.0029004342,0.007831544,-0.035264827,40.75,0.0071784677,157,227,-900
142549414,0,1114658,-0.19451495,-0.07362944,-7.3925557,4225,0.013195316,0.00077794405,-0.029256487,40.625,0.0071784677,323,601,-1206
142650220,0,1114658,-0.3789861,0.24489981,-8.670139,4245,0.0025661306,0.0009813774,-0.027417451,40.625,0.0071784677,552,996,-947
142752023,0,1114658,-0.119556494,-0.47636876,-11.086798,4195,-0.017267825,0.0019944787,-0.05307563,40.625,0.0071784677,452,20,-558
142853873,0,1114658,-0.25861576,-0.4023877,-11.160758,5249,-0.006778342,-0.00691906,-0.07364495,40.625,0.0071784677,513,-118,-939
142952613,0,1114658,-0.12957853,0.036621638,-10.148345,4242,0.025559975,-0.005237705,-0.040149532,40.75,0.0071784677,741,539,-1264
143053373,0,1114658,-0.3836724,-0.2247145,-10.169584,4172,-0.01990113,0.009160332,-0.047315978,40.625,0.0071784677,265,309,-791
143155222,0,1114658,-0.4145735,0.11101566,-8.904765,4200,0.011387533,-0.010796815,-0.035458397,40.625,0.0071784677,813,929,-1008
143258171,0,1114658,-0.27985826,-0.4785013,-9.97865,4233,-0.0107092615,-0.0057230433,-0.050020218,40.75,0.0071784677,159,-70,-791
143357872,0,1114658,-0.20053169,-0.22804523,-11.454409,4199,-0.012362988,-0.005308813,-0.039410494,40.75,0.0071784677,437,282,186
143461862,0,1114658,-0.093456745,-0.41095924,-11.0831,5290,-1.773741e-05,-0.007117203,-0.07253288,40.75,0.0071784677,636,127,-883
143564722,0,1114658,-0.26898345,-0.2120543,-9.198866,4199,-0.0130062,0.003426442,-0.048480965,40.625,0.0071784677,446,407,-1351
143661366,0,1114658,-0.45275745,-0.6734947,-9.511366,4194,0.021132188,-0.0038913642,-0.02932011,40.75,0.0071784677,88,1403,-1112
143763195,0,1114658,0.44625324,-0.81563795,-10.277137,4223,0.006152765,-0.005024333,-0.055527743,40.75,0.0071784677,399,392,-1315
143869260,0,1114658,-0.31639174,-0.29703742,-14.080194,4231,-0.015254644,-0.00415248,-0.05875882,40.625,0.0071784677,498,431,-1647
143974223,0,1114658,-0.30580395,-0.29701895,-13.24352,4164,0.011266992,0.0015753242,-0.06955957,40.625,0.0071784677,560,540,-2138
144076078,0,1114658,0.62291145,-0.5755772,-10.917359,4205,-0.0059124865,0.0026420413,-0.053016767,40.875,0.0071784677,236,-405,-1299
144177960,0,1114658,-0.6318746,-0.25347114,-9.027519,5287,0.011704282,-0.012663594,-0.039032586,40.625,0.0071784677,351,857,-932
144278738,0,1114658,-0.12755364,0.28048655,-9.911238,4216,-0.005885959,0.0102158245,-0.040803798,40.625,0.0071784677,747,410,-152
144380573,0,1114658,0.48807117,-0.27495065,-8.88899,4161,0.02030249,0.004669,-0.03740767,40.75,0.0071784677,110,215,-1061
144485597,0,1114658,0.3465929,-0.12765862,-10.148011,4215,-0.016533028,0.014580603,-0.05090049,40.75,0.0071784677,-57,-98,-1163
144589523,0,1114658,-0.19693244,-0.5393332,-11.171484,4157,0.0043620146,-0.0070893196,-0.0507268,40.75,0.0071784677,100,168,-801
144689327,0,1114658,-0.84935516,0.10501896,-10.799772,5304,-0.007955302,0.0029758667,-0.053649448,40.625,0.0071784677,333,1104,-576
144792205,0,1114658,-0.19136973,-0.6234909,-9.916341,4212,0.021837689,-1.553729e-05,-0.036631033,40.625,0.0071784677,67,822,-853
144888772,0,1114658,0.07585935,0.1993058,-9.036866,6300,-0.021145578,0.00221635,-0.06948209,40.5,0.0071784677,749,645,-558
144994822,0,1114658,-0.415641,-0.5278736,-5.5739336,4200,0.00996423,-0.0018268124,-0.012320321,40.625,0.0071784677,177,823,-854
145093522,0,1114658,0.02407141,-0.52523816,-6.699256,4150,0.005446978,-0.0022357746,-0.026528718,40.625,0.0071784677,246,341,-1203
145197472,0,1114658,-0.3145183,0.50364226,-9.363148,4151,-0.0210561,-0.011121568,-0.04297174,40.625,0.0071784677,1324,394,-784
145299322,0,1114658,0.20573163,-0.10041217,-10.868164,4164,0.009608545,-0.0018255082,-0.05776805,40.75,0.0071784677,551,21,-1058
145405373,0,1114658,0.10552312,-0.18661796,-11.214285,5216,0.014153013,-0.010034065,-0.05700602,40.875,0.0071784677,516,161,-734
145502007,0,1114658,-0.049834393,-0.3176608,-10.136262,4235,-0.012504701,0.00768038,-0.040477276,40.875,0.0071784677,300,253,-1200
145605940,0,1114658,-0.1487158,-0.29411927,-9.209647,4218,0.022512099,-0.010506265,-0.024818247,40.75,0.0071784677,622,1322,-1124
145706768,0,1114658,0.025725806,-0.3601318,-9.973538,4242,0.029165894,-3.4082215e-05,-0.04171303,40.625,0.0071784677,157,835,-1333
145808572,0,1114658,-0.18343621,-0.44616762,-10.51325,4160,-0.014456281,0.0020023182,-0.048534572,40.75,0.0071784677,304,-3,-1124
145910422,0,1114658,0.31820434,-0.005089167,-10.303978,5233,0.009336138,-0.0006162395,-0.057536416,40.75,0.0071784677,621,366,-1634
146011223,0,1114658,0.4135847,-0.33319378,-9.9156275,4192,-0.00030728558,0.00086136383,-0.037771385,40.75,0.0071784677,281,-632,-1405
146115195,0,1114658,0.5534202,-0.7318754,-11.089112,4207,-0.0047772652,-0.0013256817,-0.05120217,40.625,0.0071784677,201,42,-616
146221225,0,1114658,0.29269287,0.02331771,-10.043391,4157,0.0005290291,-0.005111197,-0.031689513,40.75,0.0071784677,559,-267,-680
146322060,0,1114658,-0.7704827,0.1299998,-9.909022,4238,-0.009607135,0.008391208,-0.040336117,40.625,0.0071784677,501,1330,-924
146426013,0,1114658,0.3082611,-0.29424918,-9.669505,4237,-0.018526835,0.00018258883,-0.044221133,40.75,0.0071784677,344,-380,-1187
146527833,0,1114658,-0.49750036,0.27093908,-9.835095,4207,-0.0025078678,0.0008922737,-0.045722593,40.75,0.0071784677,743,887,-1523
146628632,0,1114658,0.045478296,-0.29566127,-10.073326,4210,-0.014484849,-0.0053540915,-0.05538242,40.75,0.0071784677,387,-316,-1089
146728415,0,1114658,0.089370504,-0.24483618,-10.07832,5256,-0.013738283,0.001317234,-0.061369814,40.75,0.0071784677,272,-76,-1164
146830234,0,1114658,-0.16033933,0.36665,-9.5127325,5262,-0.006463424,0.0018526596,-0.055457983,40.75,0.0071784677,791,411,-1665
146933141,0,1114658,-0.33218893,0.24425282,-15.127897,5268,0.005729514,-0.003697253,-0.10874751,40.75,0.0071784677,630,473,-1418
147034994,0,1114658,0.1878891,-0.29355738,-12.7669325,5272,0.019218652,-0.007793795,-0.065987706,40.75,0.0071784677,482,460,-1288
147136822,0,1114658,-0.16433698,-0.16562206,-13.3132305,5210,-0.0032509652,0.0036333154,-0.07088878,40.875,0.0071784677,293,462,-2314
147237648,0,1114658,-0.039995383,-0.33276504,-19.169693,4226,-0.0033542358,-0.0012675987,-0.08959835,40.75,0.0071784677,385,483,-1898
147337393,0,1114658,-0.40254423,0.014622429,-13.655185,4187,-0.0039183055,-0.008662358,-0.07464085,40.75,0.0071784677,1066,797,-1436
147438173,0,1114658,0.2335132,-0.06523244,-9.238672,4161,-0.0039617503,-0.0003013662,-0.047083706,40.75,0.0071784677,209,-168,-1051
147540026,0,1114658,0.50458324,-0.76606494,-8.5955305,4204,0.018263768,0.016441518,-0.035394564,40.75,0.0071784677,-329,484,-813
147641872,0,1114658,0.29770383,-0.21727961,-9.253457,5250,-0.0027658814,-0.0050414694,-0.058834717,40.75,0.0071784677,170,-125,-1359
147744795,0,1114658,-0.64960563,0.089868605,-11.120135,4220,0.0013424524,0.010516619,-0.042765003,40.875,0.0071784677,437,1179,-212
147847744,0,1114658,0.16145417,-0.2867742,-10.251397,3223,0.00060809165,-0.0010196161,-0.047129955,40.75,0.0071784677,326,20,-1382
147948537,0,1114658,-0.3700502,-0.524802,-9.939828,5314,0.007904048,-0.010693607,-0.054942854,40.875,0.0071784677,155,755,-930
148049316,0,1114658,0.07506449,0.4391854,-9.663475,4244,-0.0035267563,0.010678134,-0.03160389,40.75,0.0071784677,628,282,-1181
148151159,0,1114658,-0.43263322,0.009033215,-10.163254,4223,0.0027231614,-0.003686537,-0.041614316,40.75,0.0071784677,816,750,-944
148251923,0,1114658,-0.2610556,-0.3979888,-9.251319,4157,0.012662461,9.143633e-05,-0.0452635,40.75,0.0071784677,201,534,-1422
148352722,0,1114658,0.703523,-0.16344899,-9.97424,4145,0.0013460977,-0.008968667,-0.05613457,40.75,0.0071784677,459,-198,-1340
148456720,0,1114658,0.7237927,-0.27165523,-9.556577,4193,0.021574298,0.0014259202,-0.0379288,40.75,0.0071784677,142,-383,-1257
148556422,0,1114658,-0.53012943,0.11296249,-9.643813,5243,-0.0017079678,-0.004017615,-0.053556874,40.75,0.0071784677,818,913,-1171
148657284,0,1114658,0.45254514,0.06276794,-12.278278,4211,-0.00014039737,0.0021879724,-0.054492585,40.625,0.0071784677,248,-305,-1256
148761206,0,1114658,-0.72084814,-0.18678135,-11.9668,4189,-0.0064420477,0.0033086338,-0.027289737,40.875,0.0071784677,272,1042,-174
148863026,0,1114658,-0.29171807,-0.013419736,-10.3188305,5241,0.020791398,-0.0090281805,-0.06140691,40.875,0.0071784677,692,784,-1651
148961722,0,1114658,0.9270093,-0.18989316,-11.301968,4199,0.013542459,-0.0034048264,-0.05320111,40.75,0.0071784677,535,-34,-1558
149065673,0,1114658,0.23421763,-0.15963967,-11.891854,4201,0.020804398,-0.0027530764,-0.047513902,40.875,0.0071784677,717,540,-1200
149166472,0,1114658,-0.72727907,-0.1416894,-11.800076,4200,-0.013707226,-0.0035789537,-0.031863965,40.75,0.0071784677,590,977,-860
149267272,0,1114658,0.16265619,-0.62881035,-12.321832,4199,-0.010166034,0.0064648297,-0.05502127,40.75,0.0071784677,370,336,-2030
149371265,0,1114658,0.47719014,-0.35298946,-12.842226,4242,-0.0046135206,-0.0059926873,-0.047650352,40.625,0.0071784677,439,-87,-447
149472035,0,1114658,-0.39281127,-0.12008185,-11.303889,4213,0.016342215,0.0034937724,-0.039634846,40.75,0.0071784677,348,990,-2052
149569673,0,1114658,0.043044914,-0.37027273,-12.748282,4201,0.005493554,-0.0022494767,-0.040396336,40.75,0.0071784677,608,357,-989
149672572,0,1114658,-0.2672619,-0.23507872,-13.169911,4154,0.0033156532,-0.0059766327,-0.04454059,40.875,0.0071784677,711,678,-834
149773372,0,1114658,-0.18882611,-0.17779052,-12.762469,4154,-0.00075999624,-0.0008234236,-0.051289305,40.625,0.0071784677,580,879,-1537
149877371,0,1114658,0.24698548,-0.22714818,-12.737758,4178,0.00014000096,-0.002620863,-0.077183396,40.75,0.0071784677,624,0,-721
149978139,0,1114658,0.06644896,-0.46524298,-14.321808,5267,-0.0059566726,-0.007101393,-0.10394093,40.75,0.0071784677,793,444,-1177
150076845,0,1114658,0.2141798,-0.9186068,-13.962109,4201,-0.0020826266,-0.0022553306,-0.0744608,40.625,0.0071784677,398,-14,-1498
150180812,0,1114658,-0.08063376,-0.981013,-15.540148,4240,-0.0018963551,-0.0019484673,-0.07620824,40.75,0.0071784677,428,846,-619
150286823,0,1114658,0.19940692,-0.34970126,-12.72881,4201,-0.003672995,-0.003073225,-0.08386998,40.75,0.0071784677,877,241,-1941
150387623,0,1114658,-0.06879986,-0.77354497,-9.520053,4200,0.016142523,-0.0014066286,-0.03953809,40.875,0.0071784677,186,926,-1058
150487386,0,1114658,0.039310895,-0.45979902,-11.51621,4185,-0.0061494806,-0.005131153,-0.02151255,41.0,0.0071784677,343,512,5
150589234,0,1114658,-0.2662101,-0.14470023,-10.401431,4212,0.008855996,-0.0005578821,-0.057116285,40.75,0.0071784677,525,928,-1119
150690022,0,1114658,-0.13847576,-0.13666785,-9.634809,4200,0.009043146,0.0022288607,-0.023079144,40.75,0.0071784677,292,639,-2207
150791921,0,1114658,0.31831288,-0.242949,-10.315099,4205,0.00080619595,0.00067306776,-0.052749433,40.75,0.0071784677,477,-409,-666
150892719,0,1114658,-0.37850973,0.109804824,-10.2468815,4196,-0.0019061137,0.003013278,-0.06915081,40.875,0.0071784677,797,453,-2013
150996622,0,1114658,-0.12560919,0.12177535,-8.729428,4199,0.00811352,0.0029967765,-0.045723338,40.875,0.0071784677,379,753,-2045
151096412,0,1114658,-0.16793537,-0.4980587,-10.974765,5253,-0.0059797685,-0.0061438153,-0.04401456,40.75,0.0071784677,338,603,-316
151199273,0,1114658,0.057524107,-0.30562973,-10.246463,4152,-0.0072794924,0.002585329,-0.018305315,40.875,0.0071784677,331,138,88
151301165,0,1114658,-0.17837763,0.039940756,-10.940524,4233,-0.007736965,-0.00904838,-0.06031282,40.875,0.0071784677,777,379,-36
151397722,0,1114658,0.071360044,-0.2878809,-10.264763,4199,-0.007520824,-0.0049499534,-0.033797882,40.75,0.0071784677,430,235,384
151501673,0,1114658,0.038789626,0.038052678,-11.303161,4201,0.0048439163,-0.0029656834,-0.07905832,40.875,0.0071784677,979,656,-337
151607745,0,1114658,-0.14840282,-0.17581877,-11.280855,5273,-0.010015516,-0.004426208,-0.060701676,40.75,0.0071784677,604,408,301
151704347,0,1114658,-0.19250688,0.066472225,-10.067293,4190,-0.0041054133,-0.0023778277,-0.049265306,40.75,0.0071784677,753,630,-811
151806206,0,1114658,-0.75293726,-0.0814027,-5.002159,5284,0.0017576526,-0.0070724185,-0.017749194,40.75,0.0071784677,549,1330,-3
151908024,0,1114658,-0.8185565,0.05511498,-2.9475744,5212,-0.0069253566,0.0075012827,-0.00036875418,40.75,0.0071784677,395,703,550
152008837,0,1114658,-0.2880913,-0.5003391,-2.135521,4215,-0.002559724,-0.0008570539,-0.012535269,40.75,0.0071784677,365,531,263
152114915,0,1114658,-0.33498567,-0.101032495,-1.2926768,4243,-0.00034981748,-0.002781182,-0.007040421,40.75,0.0071784677,591,589,349
152215749,0,1114658,-0.012644473,-0.13681553,-1.3202854,4277,-0.0015401844,0.0011549186,-0.006053304,40.75,0.0071784677,374,385,241
152313345,0,1114658,-0.108491145,-0.115355685,-1.1742747,4147,-0.003526928,0.0008074145,-0.006394057,40.875,0.0071784677,419,390,249
152417333,0,1114658,-0.46842825,-0.036072556,-2.8903434,4260,-0.006890602,-0.00043228272,-0.007643046,40.875,0.0071784677,437,296,258
152518136,0,1114658,-0.3130661,-0.11602333,-7.5966744,4264,0.0061287335,0.0029413619,-0.027710343,40.75,0.0071784677,613,816,-887
152619922,0,1114658,0.5210358,-0.44895658,-9.622512,4154,0.014641248,0.0032927566,-0.03478172,40.625,0.0071784677,258,-299,-1417
152719743,0,1114658,-0.026553808,-0.48967636,-9.952469,5320,0.028674101,-0.007141303,-0.06296521,40.75,0.0071784677,229,968,-1547
152824672,0,1114658,-0.5597215,-0.4211948,-18.489738,4157,0.002871199,-0.009115156,-0.064042546,40.75,0.0071784677,228,1104,-194
152926522,0,1114658,0.07027612,-0.31387267,-10.810726,4164,-0.0031824522,0.0050506513,-0.03562591,40.875,0.0071784677,513,347,-1256
153030473,0,1114658,-0.052510303,-0.1947546,-6.542781,4193,-0.010949853,0.0022270423,-0.03974392,40.625,0.0071784677,469,1,-384
153131272,0,1114658,-0.049501523,0.029782519,-5.938106,4186,0.009490175,0.0025952514,-0.010463328,40.875,0.0071784677,439,549,-386
153233163,0,1114658,0.73874027,0.02180485,-8.447412,4241,-0.014592862,0.0015248589,-0.061166257,40.875,0.0071784677,608,-571,-958
153334972,0,1114658,-0.18407673,-0.16782531,-9.368777,4181,0.009903688,-0.011870678,-0.027391847,40.75,0.0071784677,541,933,-1131
153437872,0,1114658,-0.022792952,-0.1118624,-11.25875,4195,-0.0045433776,-0.007834427,-0.04716056,40.75,0.0071784677,618,387,-708
153535560,0,1114658,0.37909865,-0.25011197,-10.507237,4238,0.013030961,-0.0027855083,-0.044028487,40.75,0.0071784677,234,-207,-1094
153639472,0,1114658,-0.5284326,-0.05421214,-10.624377,5222,-0.012071783,0.0066487123,-0.05044044,40.875,0.0071784677,558,774,-508
153740328,0,1114658,0.5100709,0.0046074423,-9.130058,4247,-0.006104904,0.013801549,-0.04535424,40.75,0.0071784677,441,-422,-1141
153842123,0,1114658,0.22413924,-0.23973332,-9.315456,4154,0.0015102058,0.0031123448,-0.049352285,40.75,0.0071784677,142,-274,-1315
153942971,0,1114658,-0.47164354,-0.5447075,-10.264378,4209,0.017398916,-0.007170966,-0.024717195,40.75,0.0071784677,217,1296,-729
154044808,0,1114658,0.87185585,-0.07483959,-9.819291,4236,0.012309621,0.0027489106,-0.045493644,40.75,0.0071784677,458,-451,-1441
154147724,0,1114658,-0.87257993,-0.3309671,-9.174546,4252,0.0046634385,-0.0072667506,-0.030904014,40.75,0.0071784677,498,1160,-584
154247440,0,1114658,0.7361975,-0.40194377,-9.308356,5262,0.015928803,0.010126375,-0.05832742,40.875,0.0071784677,55,-153,-1566
154349336,0,1114658,0.5771534,-0.6801718,-9.844355,5314,0.014703887,-0.008068236,-0.0578371,40.875,0.0071784677,257,-85,-1427
154452194,0,1114658,-0.40212515,-0.46348792,-9.744169,4222,0.021213744,-0.0038782766,-0.051680982,40.75,0.0071784677,268,1053,-1180
154554022,0,1114658,-0.62255615,-0.049682666,-10.198436,5250,-0.023321362,-0.0024267235,-0.05131056,40.75,0.0071784677,804,869,-736
154656922,0,1114658,-0.83133054,-0.03253482,-10.042956,4200,-0.017312584,0.0023392553,-0.035390794,40.75,0.0071784677,571,656,-196
154758798,0,1114658,0.38860464,-0.5720925,-10.216061,5274,0.011530097,0.004754045,-0.061856005,40.75,0.0071784677,39,253,-1058
154861672,0,1114658,0.036686435,0.015766293,-10.370791,6300,0.012555683,-0.005316899,-0.058416817,40.75,0.0071784677,510,433,-1558
154961429,0,1114658,0.84141237,-0.504304,-11.797156,4151,-0.006122683,0.0002788022,-0.04660221,40.875,0.0071784677,678,508,-708
155060157,0,1114658,0.24241991,0.057895955,-10.736194,4235,-0.015107659,-0.0025696843,-0.047588784,40.75,0.0071784677,399,-675,-848
155164122,0,1114658,-0.16734205,-0.19245322,-10.660831,4250,0.0016406815,-0.008498111,-0.053371813,40.75,0.0071784677,297,61,-1057
155264896,0,1114658,-0.07956179,-0.62778234,-9.865937,6324,0.00079448416,0.0013266058,-0.070457436,40.75,0.0071784677,37,-557,-1009
155366738,0,1114658,0.0087930905,0.0110446075,-8.822412,5258,-0.005433201,-0.002364279,-0.055973835,40.875,0.0071784677,549,-936,-828
155469622,0,1114658,0.4156206,0.7882447,-10.657934,6300,-0.0058274753,0.0051402617,-0.07792651,40.875,0.0071784677,977,1174,-1441
155569387,0,1114658,-0.6275734,-2.0659885,-13.486721,4138,-0.01648282,-0.007185008,-0.050337546,40.75,0.0071784677,648,160,-1413
155673336,0,1114658,-0.7583427,-0.3496656,-11.010091,5264,-0.017716512,-0.0011479203,-0.054608375,40.75,0.0071784677,639,124,35
155776222,0,1114658,-0.78454787,-0.11531845,-9.193482,4200,-0.015250291,0.0062713358,-0.034894653,40.75,0.0071784677,486,373,-916
155878128,0,1114658,-0.9708022,-0.5875715,-10.30744,5306,-0.006263848,-0.0039335657,-0.04558757,40.75,0.0071784677,863,1203,-710
155980972,0,1114658,-0.2195582,-1.0924978,-10.947467,4200,-0.005380659,-0.008140541,-0.061557043,40.75,0.0071784677,544,-162,-1621
156082856,0,1114658,0.6284598,-1.5294069,-11.651223,5283,0.0033526632,-0.0071785357,-0.07645474,40.75,0.0071784677,583,-281,-1879
156179441,0,1114658,-0.30153614,-2.2868533,-9.216196,4219,-0.0011609895,-0.0029805691,-0.039754186,40.625,0.0071784677,1039,31,-16
156283372,0,1114658,0.107973844,0.940398,-10.371871,4176,-0.005157871,0.006482205,-0.048331257,40.75,0.0071784677,220,-35,-1204
156384194,0,1114658,-0.3528232,-1.2368908,-9.493893,4218,-0.007036912,0.006246275,-0.026135236,40.75,0.0071784677,527,-436,-235
156488169,0,1114658,-1.122033,-0.2527097,-8.888438,4247,0.006550093,-0.004239332,-0.027177144,40.875,0.0071784677,1030,1474,-1335
156594201,0,1114658,0.37999195,-1.2085452,-14.1769285,5279,-0.012079077,-0.017747274,-0.065178245,40.875,0.0071784677,972,983,-407
156690790,0,1114658,-0.54339576,-1.1736267,-12.518964,4218,-0.014402954,0.0007814797,-0.04759611,41.0,0.0071784677,616,81,-376
156796822,0,1114658,0.10271373,-1.0445427,-10.433484,4200,0.0034051242,-0.012540195,-0.045546375,40.875,0.0071784677,984,523,-1114
156895571,0,1114658,0.30134633,-1.2627689,-9.093859,6349,0.009438638,-0.007871442,-0.06604964,40.75,0.0071784677,634,186,-1342
157001573,0,1114658,1.0859897,-0.67102057,-10.853094,4178,-0.008660444,-0.0062969634,-0.042084284,40.75,0.0071784677,885,613,-700
157107622,0,1114658,0.23790002,-0.90337837,-9.563436,4164,0.0026316312,-0.011412846,-0.03429729,40.75,0.0071784677,680,1071,-1112
157208467,0,1114658,-0.7877839,1.012232,-10.053853,4245,0.0004533128,0.004633883,-0.023419142,40.75,0.0071784677,39,119,-1059
157312399,0,1114658,0.75621986,-2.1233814,-9.998342,4210,0.016458033,-0.0063483096,-0.03480141,40.75,0.0071784677,369,934,-1384
157413211,0,1114658,0.27860594,-1.0384516,-10.217507,4230,-0.02223035,-0.009822173,-0.030517085,40.75,0.0071784677,446,269,-717
157515052,0,1114658,0.39603755,-1.2967,-10.576876,5279,0.0006835192,-0.009616874,-0.065927416,40.75,0.0071784677,597,6,-1070
157620025,0,1114658,0.1171601,-1.475771,-11.086415,4158,-0.006737281,-0.0020194058,-0.044431336,40.75,0.0071784677,519,816,-1162
157719778,0,1114658,-0.0908792,-1.5402478,-10.939793,5251,-0.0014236653,-0.0063344073,-0.05334162,40.875,0.0071784677,176,1196,-319
157820589,0,1114658,0.2123413,-1.5636072,-10.467665,4177,-0.0011450789,-0.0014671448,-0.048929237,40.875,0.0071784677,518,240,-554
157922422,0,1114658,0.3085271,-1.9827541,-8.953859,4200,-0.02002585,-0.004550029,-0.0444751,40.875,0.0071784677,1302,-351,-369
158021163,0,1114658,-0.12258037,-0.4330969,-9.94606,5290,0.012726947,-0.013252099,-0.046185084,40.875,0.0071784677,646,1165,-1048
158125072,0,1114658,0.62375075,-1.4601912,-10.123925,4200,0.025871042,-0.0052827606,-0.056219015,40.875,0.0071784677,791,37,-1212
158224823,0,1114658,0.5551764,-0.9754689,-10.509937,5211,0.0038115385,-0.0058004158,-0.06479219,40.75,0.0071784677,900,245,-1594
158329822,0,1114658,-0.15616962,-1.314858,-10.306402,4200,0.016787201,-0.011869547,-0.04119211,40.75,0.0071784677,527,1237,-853
158431703,0,1114658,0.67583907,-1.4177538,-10.019425,4231,-0.0066743162,-0.0009887532,-0.038956568,40.75,0.0071784677,328,516,-1056
158529367,0,1114658,-0.6703463,-0.8438445,-9.624864,4194,-0.012368584,-0.0031642064,-0.04602121,40.75,0.0071784677,1334,858,-806
158633332,0,1114658,0.61640036,-2.0299423,-10.419953,5310,0.00860618,-0.015645718,-0.0460845,40.75,0.0071784677,853,175,-536
158734161,0,1114658,-0.2813641,-1.2930802,-10.716883,4289,-0.0011240508,-0.004393404,-0.051557414,40.75,0.0071784677,551,1294,-1751
158835922,0,1114658,0.727331,-0.58441186,-11.654244,4177,0.014430216,-0.0012671917,-0.066631585,40.75,0.0071784677,799,367,-473
158935758,0,1114658,0.19746836,-1.0053881,-10.512543,3220,0.0074812947,0.012227388,-0.044414,40.875,0.0071784677,186,833,-608
159042818,0,1114658,0.18615288,-1.0063974,-9.5943575,5295,0.013202978,-0.012214194,-0.046895687,40.75,0.0071784677,705,943,-382
159144643,0,1114658,-0.42618576,-0.8114664,-9.899597,5271,0.013581631,0.010568353,-0.031459164,40.75,0.0071784677,471,1351,-1090
159249631,0,1114658,0.6549571,-0.3612663,-11.003565,4209,0.012827123,-0.014867877,-0.0653434,41.0,0.0071784677,1246,315,-316
159351472,0,1114658,0.012647379,-0.33133334,-10.355294,4200,-0.018731466,-0.00057258934,-0.042978168,40.75,0.0071784677,500,429,-1831
159452315,0,1114658,-0.111417286,-0.62519366,-10.991558,4243,-0.0005950391,-0.0107201,-0.05540392,40.625,0.0071784677,799,206,-870
159552025,0,1114658,-0.13159828,-0.8061463,-11.133379,4202,-0.0066634584,0.0045517166,-0.040997066,40.75,0.0071784677,373,1126,-1362
159658115,0,1114658,0.33815724,-0.6189042,-11.002039,4243,0.0043588844,0.0011005414,-0.027876003,40.875,0.0071784677,281,886,-1018
159757822,0,1114658,0.3942962,-0.75711226,-9.965393,5232,0.011308065,0.0061218124,-0.045416463,40.875,0.0071784677,-3,530,-1822
159858634,0,1114658,-0.12233273,-0.7687857,-10.296904,4212,0.0012634858,0.0035436624,-0.038290344,41.0,0.0071784677,893,1004,-627
159960536,0,1114658,0.18736474,-0.66353035,-10.767662,4264,-0.0024188503,-0.0021037003,-0.053889412,40.625,0.0071784677,739,38,-773
160064422,0,1114658,0.52062035,-0.57895064,-10.909415,5233,0.022932105,-0.011621245,-0.057092216,40.75,0.0071784677,821,591,-1212
160777394,0,1114658,-9.543625e-06,-0.26208183,-8.919274,4184,-0.0032625054,-0.0030582254,-0.03671625,40.75,0.0071784677,1055,754,-664
160875023,0,1114658,0.73179466,-0.8056522,-8.702431,4201,0.026534282,-0.006779445,-0.03649878,40.875,0.0071784677,67,353,-1162
160977961,0,1114658,-0.3255334,-0.55169314,-9.12784,4239,0.00086113566,-0.014698719,-0.040108796,40.875,0.0071784677,478,1426,-1220
161079772,0,1114658,0.1541705,-0.34661138,-11.225303,4154,-0.008035312,-0.0064779376,-0.05858153,40.75,0.0071784677,675,-18,-1184
161180588,0,1114658,-0.07626669,-0.5743141,-10.141525,4176,0.016377345,-0.0051121702,-0.04553691,40.625,0.0071784677,755,883,-1387
161282422,0,1114658,-0.5393796,-0.24106275,-11.02265,4195,-0.00891892,0.00263993,-0.033245374,40.75,0.0071784677,303,877,-498
161386373,0,1114658,0.63615173,-0.60998017,-10.109889,4180,-0.014456668,0.0022385863,-0.043190762,40.75,0.0071784677,211,93,-1189
161485075,0,1114658,0.011341129,-0.22743778,-9.734525,4201,-0.0106263375,0.002858424,-0.03855492,40.75,0.0071784677,527,570,-776
161586954,0,1114658,0.51265097,-0.4952527,-10.540885,5281,0.014840466,-0.0076635224,-0.059900623,40.875,0.0071784677,1036,16,-1148
161687783,0,1114658,-0.066433586,-0.16710299,-10.603108,4191,-0.0109906895,0.00078599405,-0.038664192,40.875,0.0071784677,713,219,-266
161791698,0,1114658,0.25055486,-0.17093809,-9.444829,4226,0.018140523,-0.0099015245,-0.048328582,40.875,0.0071784677,907,590,-1556
161888272,0,1114658,-0.38211888,-0.61399573,-10.229851,4199,0.026776081,-0.0018968643,-0.040422022,40.75,0.0071784677,369,1560,-1126
161994322,0,1114658,-0.22742489,-0.6621618,-9.945516,4153,-0.0129833985,-0.003200961,-0.03689728,40.875,0.0071784677,771,209,-978
162096194,0,1114658,0.262513,-0.22336103,-9.486386,4220,0.010690144,0.006801489,-0.028980557,40.875,0.0071784677,552,727,-1030
162196972,0,1114658,-0.10136137,-0.48513708,-10.786801,4200,-0.021422865,-0.0031941729,-0.052660845,40.875,0.0071784677,263,-241,-806
162298822,0,1114658,-0.57591933,-0.4403665,-10.248499,4200,0.009690378,-0.0015798007,-0.031863175,40.75,0.0071784677,1080,1160,-1186
162399622,0,1114658,0.3016343,-0.47365984,-10.7399435,4200,0.00029330023,-0.0024891861,-0.051983237,41.0,0.0071784677,506,211,-773
162499372,0,1114658,0.44254985,-0.35690147,-9.833033,4182,-0.0016850255,0.005186505,-0.039811723,40.875,0.0071784677,147,163,-560
162603322,0,1114658,0.011125023,0.015059676,-9.311046,5205,-0.003283665,0.0014670626,-0.032933626,40.875,0.0071784677,757,554,-516
162704158,0,1114658,-0.3360496,-0.92866284,-10.083194,4235,0.012355949,-0.0037239273,-0.046527334,40.75,0.0071784677,281,839,-1421
162810185,0,1114658,0.45996603,-0.4219456,-9.648936,4147,-0.009492835,0.007803595,-0.040583044,40.875,0.0071784677,312,-94,-1002
162909961,0,1114658,-0.6015272,-0.41265684,-10.198454,5289,-0.010988596,0.004731705,-0.05588169,40.875,0.0071784677,435,991,-609
163012822,0,1114658,-0.18066101,-0.79461664,-9.897717,4199,0.023143811,-0.011664546,-0.042056836,40.875,0.0071784677,461,1235,-1128
163112573,0,1114658,0.77697897,-0.3858959,-10.189459,4143,-0.011169702,0.0026587318,-0.050460614,40.875,0.0071784677,341,-526,-1034
163213372,0,1114658,-0.18117483,-0.20086315,-10.254761,4158,-0.022233859,0.00096182653,-0.028868485,40.75,0.0071784677,728,166,-642
163315222,0,1114658,-0.034432396,-0.6933787,-9.462522,4200,0.012089425,0.0019758542,-0.029934853,40.75,0.0071784677,804,624,-530
163416022,0,1114658,-0.5520787,-0.20469649,-9.432029,4194,0.0006194406,-0.010328163,-0.038469817,40.875,0.0071784677,1006,876,-1113
163522115,0,1114658,0.0700874,-0.32960537,-10.326713,4243,-0.020603983,0.010865295,-0.046851482,40.75,0.0071784677,271,-56,-816
163623923,0,1114658,0.2905373,-1.1066605,-9.935735,4173,0.02550548,-0.008358141,-0.04800699,40.75,0.0071784677,360,508,-1099
163723776,0,1114658,0.5666399,-0.90229225,-9.299596,3223,0.0042069503,-0.0018594912,-0.03703494,40.875,0.0071784677,195,-158,-1301
163825523,0,1114658,0.3969446,-0.78497505,-10.686692,4167,-0.015329774,0.0032469977,-0.057899576,40.875,0.0071784677,243,307,-1254
163929473,0,1114658,-0.3288511,-0.7064076,-9.749776,4158,0.0133392075,-0.008261774,-0.03948882,40.875,0.0071784677,452,1232,-1139
164031322,0,1114658,-0.13777497,-1.1807181,-9.949463,4143,0.008314215,-0.0068522417,-0.052270744,40.75,0.0071784677,31,774,-938
164132160,0,1114658,0.63059396,-0.7372501,-9.344544,4237,0.012009505,0.005867127,-0.035501607,40.75,0.0071784677,373,91,-981
164233982,0,1114658,-0.13058597,-0.74958795,-10.141263,5259,0.0005513661,0.0023517716,-0.048521504,40.875,0.0071784677,273,891,-651
164335832,0,1114658,-0.035307534,-0.85779446,-9.613605,5260,-0.006205865,-0.013526396,-0.059789047,40.875,0.0071784677,645,590,-1331
164434522,0,1114658,0.10989991,-0.8553267,-10.181854,4200,0.0032275503,0.0013653886,-0.044617016,40.875,0.0071784677,381,168,-462
164536411,0,1114658,-0.06712374,-0.95941085,-10.020861,4214,0.023724431,-0.0070235054,-0.03651867,40.875,0.0071784677,336,1684,-1259
164640368,0,1114658,-0.40155077,-0.5087537,-10.263968,4201,-0.010192672,0.002461175,-0.045136657,40.875,0.0071784677,209,755,-420
164739037,0,1114658,0.27342185,-0.57628787,-10.502237,6315,-0.015836978,0.0015743836,-0.06102538,40.75,0.0071784677,494,333,-728
164842972,0,1114658,0.2882751,-0.673357,-9.666165,4170,-0.020087503,0.00058014237,-0.05503801,41.0,0.0071784677,476,77,-1066
164942760,0,1114658,0.28926358,-0.24759622,-9.884036,5278,-0.029867608,0.006176869,-0.045488235,40.875,0.0071784677,614,-334,-664
165045637,0,1114658,0.046004247,-0.5913047,-9.305184,4206,0.024313904,-0.015188425,-0.04011953,40.75,0.0071784677,640,1055,-1890
165147472,0,1114658,0.4482768,-0.8277443,-10.597559,4200,-0.02054222,0.0018014283,-0.05091757,40.75,0.0071784677,265,-412,-984
165249323,0,1114658,-0.031474333,-0.4886787,-9.62967,5250,0.003337078,0.002041529,-0.035622936,40.875,0.0071784677,785,481,-552
165350157,0,1114658,0.7452976,-0.64716166,-9.9874735,4197,0.015864532,-0.00012678119,-0.045912426,40.875,0.0071784677,645,78,-1120
165449872,0,1114658,0.1096059,-0.6603804,-10.407289,4199,-0.020682927,-0.00040598723,-0.054698758,40.75,0.0071784677,386,352,-794
165550672,0,1114658,-0.27465895,-0.4754181,-9.714923,6260,-0.013016175,-0.0054498725,-0.05966116,40.875,0.0071784677,850,1124,-1157
165655775,0,1114658,-0.8059928,-0.77698505,-10.140957,3238,0.008582166,-0.0010971042,-0.034311496,40.875,0.0071784677,724,1605,-730
165756516,0,1114658,-0.23238616,-0.85621905,-9.711231,4244,-0.020020287,-0.015315629,-0.04165787,40.875,0.0071784677,277,306,-947
165857342,0,1114658,-0.17305768,-0.42310846,-9.952713,4270,0.011050011,-0.008910559,-0.053786702,40.875,0.0071784677,841,781,-1440
165959186,0,1114658,-1.0360138,-0.5769474,-10.208901,4235,-0.0057254094,-0.0059646866,-0.038161986,40.625,0.0071784677,596,1511,-866
166061003,0,1114658,0.330913,-0.9646922,-10.061243,5247,-0.018575089,-0.004961001,-0.058729105,40.875,0.0071784677,187,-373,-1292
166159771,0,1114658,-0.36875242,-0.69415486,-9.422085,4299,0.018145625,0.0007819297,-0.039876994,40.875,0.0071784677,604,1134,-764
166261525,0,1114658,0.3763173,-0.84272885,-9.402208,4136,-0.011454475,0.0078336885,-0.038727622,40.75,0.0071784677,57,-330,-1088
166362355,0,1114658,0.07605767,-0.87516713,-9.887049,4203,0.014505125,-0.009253823,-0.047719188,40.875,0.0071784677,349,544,-1599
166464196,0,1114658,-0.90103966,-0.5350257,-10.053128,4224,0.012895975,-0.00400113,-0.037131604,40.875,0.0071784677,795,1528,-1148
166568168,0,1114658,-0.465344,-0.52014893,-9.889589,4246,-0.008759203,0.00042894043,-0.03141531,40.875,0.0071784677,451,1245,-1246
166667872,0,1114658,0.37635246,-0.7493606,-9.994559,5250,0.024913928,-0.012455946,-0.051297665,41.0,0.0071784677,721,349,-1283
166768677,0,1114658,0.6040645,-0.958213,-9.773092,4162,-0.012931582,-0.0034703482,-0.04389404,40.875,0.0071784677,275,148,-1538
166873718,0,1114658,0.29066595,-0.7644268,-10.062931,4246,-0.019862283,-0.008644809,-0.05687581,40.875,0.0071784677,215,-293,-1224
166975560,0,1114658,-0.24136877,-0.54916215,-10.482166,4238,0.011065755,-0.005101758,-0.02976686,41.0,0.0071784677,970,1209,-579
167072158,0,1114658,-0.3466858,-0.46619835,-10.375424,4236,0.01305713,-0.006623745,-0.028650215,40.875,0.0071784677,817,1391,-659
167176122,0,1114658,-0.11259239,-0.52460814,-10.039897,4250,-0.02332505,0.0029439635,-0.048431113,40.75,0.0071784677,273,427,-572
167276885,0,1114658,-0.25277317,-0.48340422,-10.103784,4213,0.0025541203,-0.0062020575,-0.043421753,40.875,0.0071784677,549,1206,-763
167378760,0,1114658,0.38398317,-0.5146969,-9.801366,4225,-0.006361682,0.00962506,-0.03843939,40.875,0.0071784677,99,-216,-694
167480573,0,1114658,-0.06352523,-0.19889048,-10.093304,5251,0.003865721,-0.002224618,-0.057962414,40.75,0.0071784677,711,677,-1090
167582422,0,1114658,0.073531866,-0.7751966,-10.306573,5174,-0.012175362,-0.0018547763,-0.056635756,40.75,0.0071784677,123,269,-624
167683222,0,1114658,0.6840947,-0.33316106,-9.897386,4184,0.03240998,-0.0033740955,-0.041496158,40.875,0.0071784677,448,745,-1168
167785073,0,1114658,0.46961072,-0.3270085,-10.011807,4201,-0.010455065,0.006449539,-0.041782714,40.75,0.0071784677,703,-348,-723
167883775,0,1114658,-0.03799032,-0.7422511,-10.316558,4163,0.02478593,-0.0024068477,-0.043837525,40.875,0.0071784677,290,1381,-1185
167989857,0,1114658,-0.14386185,-0.8348263,-9.781654,4235,0.014595372,-0.0059224684,-0.036963213,40.875,0.0071784677,370,1238,-1657
168091760,0,1114658,-0.77146786,-0.61008507,-9.771279,4288,-0.013659398,-0.002577799,-0.03522925,40.875,0.0071784677,723,1106,-1019
168192515,0,1114658,0.32722834,-0.5913144,-9.71377,4243,-0.006702996,0.0013604251,-0.030520696,40.75,0.0071784677,80,256,-977
168293315,0,1114658,-0.06859449,-0.6350242,-10.270885,4243,0.0023678213,-0.012269814,-0.046718765,40.75,0.0071784677,313,695,-576
168395196,0,1114658,-0.041681603,-0.34238714,-10.207023,4239,0.012833418,-0.011434368,-0.042859677,40.75,0.0071784677,957,495,-762
168496973,0,1114658,-0.205382,-0.22243571,-10.26341,5212,0.010532467,-0.007730165,-0.045252807,40.75,0.0071784677,1019,1034,-697
168597800,0,1114658,-0.1613206,-0.6312505,-10.377649,4228,-0.012622508,-0.001319671,-0.03878598,40.75,0.0071784677,345,1005,-488
168699622,0,1114658,0.3140297,-0.43687695,-9.810713,4162,-4.4529123e-05,-0.009791309,-0.046710346,40.875,0.0071784677,359,267,-797
168800422,0,1114658,0.29752174,-0.4369787,-9.012795,4200,0.003206551,0.0077539897,-0.026033778,40.75,0.0071784677,453,513,-824
168902272,0,1114658,0.45214465,-0.28682062,-10.09131,4179,0.009007333,-0.0006866537,-0.056255717,41.0,0.0071784677,939,33,-1529
169003072,0,1114658,0.091784455,-0.8620942,-10.578057,4133,-0.017144585,0.00017988382,-0.045767747,40.875,0.0071784677,390,8,-805
169102822,0,1114658,-0.87435186,-0.33198473,-9.689022,4200,0.011569247,-6.456586e-05,-0.037967484,40.875,0.0071784677,502,1354,-1047
169207823,0,1114658,-0.30258605,-0.39858615,-10.206376,4201,-0.023210015,0.008054127,-0.046092074,40.875,0.0071784677,165,683,-569
169307617,0,1114658,-1.4016622,-0.21223703,-10.597815,4244,0.004231231,-0.0027957559,-0.03449779,40.875,0.0071784677,823,1626,-645
169411561,0,1114658,0.45424742,-0.5220799,-10.488947,5289,-0.01788442,0.0023840012,-0.057073776,40.875,0.0071784677,259,-79,-899
169512350,0,1114658,-0.4004857,-0.70266944,-10.370618,4192,0.011427529,-0.004703621,-0.03153123,40.875,0.0071784677,554,1847,-934
169611023,0,1114658,-0.6360205,-0.7662505,-10.272764,6301,-0.0004993413,-0.0042386577,-0.0534528,40.875,0.0071784677,877,1189,-986
169714988,0,1114658,-0.16559477,-0.53965026,-10.61493,4190,-0.021567216,0.0042380453,-0.036635622,40.875,0.0071784677,621,348,-608
169814738,0,1114658,-0.5168688,-0.38834256,-9.74447,5262,0.0028682253,-0.009020886,-0.050223656,40.875,0.0071784677,675,1468,-832
169915567,0,1114658,0.6889689,-0.94997483,-10.099158,4235,-0.014854331,-0.0026193003,-0.049659453,40.875,0.0071784677,-136,-44,-1025
170016360,0,1114658,-0.5089867,-0.6688448,-9.694626,4202,0.003507741,-0.013927905,-0.042860392,40.875,0.0071784677,966,1123,-869
170120319,0,1114658,-0.07912306,-0.6331288,-10.072607,4219,-0.008220677,0.0057033645,-0.04166874,40.875,0.0071784677,59,943,-793
170221073,0,1114658,0.17493078,-0.32012284,-10.071865,4201,0.0055565573,-0.0026978152,-0.044053257,41.0,0.0071784677,938,-136,-1349
170322967,0,1114658,-0.4889613,-0.24260321,-9.708095,4206,0.0076874783,0.0021402682,-0.02316837,41.0,0.0071784677,706,1304,-943
170423761,0,1114658,0.77531993,-0.55726534,-10.436983,4201,-0.019622682,-0.0015924218,-0.052045267,40.875,0.0071784677,277,-329,-1080
170525572,0,1114658,-0.6947697,-0.45256194,-8.933886,5234,0.006010603,-0.0020570394,-0.04074371,40.875,0.0071784677,517,1371,-1410
170626373,0,1114658,-0.37180507,-1.0145775,-10.153324,4174,0.0025076203,-0.0048332014,-0.0354788,40.875,0.0071784677,381,1278,-1012
170730347,0,1114658,-0.107832514,-0.6717181,-9.746529,5275,0.008412189,-0.015567929,-0.05071219,40.875,0.0071784677,653,885,-1092
170831158,0,1114658,0.3018473,-1.1157478,-9.98749,4227,-0.0010778636,-0.00191811,-0.04963253,41.125,0.0071784677,-366,94,-364
170929871,0,1114658,0.49952292,-0.31325963,-9.947544,4249,-0.011917843,-0.0016378599,-0.05194369,40.75,0.0071784677,716,-279,-948
171033780,0,1114658,0.16082664,-0.26430127,-9.308673,4208,0.0075704497,0.0003442696,-0.0364344,40.875,0.0071784677,913,632,-637
171134572,0,1114658,-0.22978048,-0.4923561,-10.372437,6300,-0.007105412,-0.011652034,-0.054872688,40.875,0.0071784677,531,931,-994
171238527,0,1114658,-0.29463524,-0.7899512,-10.384383,4204,0.0035989888,-0.0035529917,-0.0288085,40.875,0.0071784677,575,945,-964
171339322,0,1114658,-0.66097224,-0.18419655,-10.052783,4163,-0.019536978,0.0006196966,-0.04044667,40.875,0.0071784677,451,768,-286
171441221,0,1114658,-0.94118303,-0.12099482,-9.850311,5299,-0.014820627,0.004250922,-0.04765942,40.875,0.0071784677,893,450,-337
171543023,0,1114658,-0.2995286,-0.5734514,-10.301926,5251,-0.016490063,-0.0048309155,-0.061151862,40.875,0.0071784677,418,336,-1408
171645960,0,1114658,-0.14134249,-0.38965565,-9.858619,4238,0.019802207,-0.007473415,-0.042204324,41.0,0.0071784677,601,899,-1060
171747793,0,1114658,-1.0411563,-0.31551126,-9.696928,5271,-0.0048557343,-0.00089894823,-0.036893066,41.0,0.0071784677,901,1080,-146
171850672,0,1114658,0.26129997,-0.5273587,-9.756103,4170,-0.010537387,0.0039958335,-0.04348871,41.0,0.0071784677,279,-7,-398
171950422,0,1114658,-0.059323546,-0.87003917,-10.296149,4183,0.008788273,-0.006280154,-0.046879373,41.0,0.0071784677,446,981,-992
172049163,0,1114658,-0.70240223,-0.12997715,-10.088794,4241,-0.004766506,0.0069897063,-0.035786495,41.0,0.0071784677,451,1466,-899
172155189,0,1114658,-0.4196012,0.08539712,-10.5071745,4216,-0.004830094,0.0051555075,-0.031616036,40.875,0.0071784677,830,963,-604
172252822,0,1114658,-0.412512,-0.747669,-10.599649,5180,-0.003305047,0.0023747608,-0.050926823,40.75,0.0071784677,307,680,-1003
172357822,0,1114658,0.039721224,-0.1877451,-10.406023,4200,-0.012718456,-0.0014347155,-0.033295874,41.0,0.0071784677,742,332,-550
172666532,0,1114658,-0.9055266,-0.36060128,-10.356778,4175,-0.0176505,-0.0018688467,-0.035926975,40.875,0.0071784677,559,1084,-397
172765267,0,1114658,-0.07009116,-0.3658966,-11.040314,6295,-0.01925288,0.0018997027,-0.07596648,40.875,0.0071784677,833,567,-709
172868167,0,1114658,0.048760545,-0.48045602,-9.878967,4220,0.026380647,-0.009261637,-0.036237992,40.875,0.0071784677,649,691,-1202
172970012,0,1114658,0.15090723,-0.8822753,-10.611886,5291,-0.0042608995,0.0026487056,-0.06133059,40.875,0.0071784677,-120,-124,-732
173070812,0,1114658,-0.24688926,0.1392891,-9.999579,4234,-0.0073187337,0.0029487042,-0.02908131,40.875,0.0071784677,1237,1138,-641
173169472,0,1114658,-0.7109036,-0.18361747,-10.374883,6274,0.016841223,-0.00049104856,-0.064478055,40.875,0.0071784677,505,1174,-1203
173271323,0,1114658,-0.8356464,-0.5616285,-9.297624,5187,0.016575178,-0.013361094,-0.047462296,40.875,0.0071784677,398,1606,-912
173376360,0,1114658,0.4819347,-0.27124894,-10.546233,4203,-0.022367103,0.011759285,-0.046589565,40.875,0.0071784677,324,-585,-803
173477163,0,1114658,0.5775203,-0.20291786,-10.125349,4241,-0.0010242505,0.0022799624,-0.034203935,40.875,0.0071784677,387,69,-890
173577967,0,1114658,-0.28824365,0.08610128,-10.848559,4245,-0.008395506,0.0042026774,-0.028458158,40.875,0.0071784677,785,858,-640
173679819,0,1114658,1.1369113,0.06210878,-9.77428,4197,-0.013363499,0.006173714,-0.046471994,40.875,0.0071784677,624,-685,-1222
173778478,0,1114658,-0.3665018,-0.09615071,-9.407069,4200,-0.009510454,-0.008102774,-0.023791337,40.875,0.0071784677,1031,703,-122
173882422,0,1114658,1.1927558,-0.043888047,-10.712693,4191,0.01879941,0.007255052,-0.053660855,40.75,0.0071784677,581,-241,-806
173983222,0,1114658,0.4729053,-0.7568946,-10.009001,4199,0.014545252,-0.0028520566,-0.0522575,40.875,0.0071784677,357,139,-1237
174085073,0,1114658,0.14460003,-0.644862,-10.448755,5251,-0.0055590225,-0.010760187,-0.05664584,40.875,0.0071784677,437,230,-1268
174185873,0,1114658,0.6079758,-0.40347624,-10.328222,4192,0.010215007,-0.0014754024,-0.03696597,40.75,0.0071784677,371,-148,-1139
174290918,0,1114658,-0.42968738,-0.20185395,-9.578442,4246,-0.005292472,-0.0090608215,-0.030089593,40.875,0.0071784677,815,961,-1332
174390622,0,1114658,0.04657221,-0.202249,-10.587206,4200,0.013373567,-0.00086034305,-0.044481575,40.75,0.0071784677,652,1020,-998
174495650,0,1114658,0.2648331,-0.39370862,-9.841651,4192,-0.019564906,0.009045767,-0.055214114,41.0,0.0071784677,-12,5,-1306
174595372,0,1114658,-0.39535007,-0.26744783,-9.600679,4177,0.016289527,-0.0071498402,-0.02000846,40.875,0.0071784677,345,1086,-930
174697277,0,1114658,-0.43359372,-0.07238277,-10.05155,4255,-0.0034078893,-0.00433711,-0.04413551,41.0,0.0071784677,883,1071,-890
174798054,0,1114658,-0.17356351,-0.14698686,-10.254393,4232,0.020507084,-0.005787046,-0.04406922,41.0,0.0071784677,775,1033,-1272
174902012,0,1114658,-0.46405435,-0.8268248,-8.972441,4240,-0.0011949246,-0.013924861,-0.045911927,40.875,0.0071784677,476,854,-1451
175002812,0,1114658,0.039044842,-0.6588425,-10.116137,4240,0.015211963,-0.0072693666,-0.035155848,40.875,0.0071784677,472,767,-1304
175104622,0,1114658,-0.29819986,-0.6674493,-11.192417,4178,-0.0064274506,-0.00029467567,-0.047745984,40.875,0.0071784677,381,845,-1018
175203322,0,1114658,-0.34232947,-0.22351246,-10.283214,4172,-0.020589616,0.0022174437,-0.040354926,40.75,0.0071784677,310,244,-277
175305211,0,1114658,1.363079,-0.38922378,-8.777011,4239,0.010068504,0.009033776,-0.0419072,40.875,0.0071784677,224,-693,-1018
175409170,0,1114658,0.37223515,-0.7216541,-10.456383,5298,0.004180754,0.0030521976,-0.0599559,40.875,0.0071784677,-176,-6,-721
175507822,0,1114658,-0.5933301,-0.24654126,-10.844247,4200,-0.0023871562,0.00044961355,-0.037015244,40.875,0.0071784677,521,1217,-1317
175613872,0,1114658,0.05379997,-0.14479835,-10.694736,5250,-0.0007627253,0.002428932,-0.045122787,40.875,0.0071784677,840,589,-766
175712572,0,1114658,-0.7146913,-0.2937857,-10.018428,4160,0.007530405,0.0005358424,-0.0280397,40.875,0.0071784677,757,1627,-524
175816545,0,1114658,-0.8079282,-0.2787297,-8.794137,4173,0.005652913,-0.010902732,-0.021400724,40.875,0.0071784677,981,1386,-832
175915222,0,1114658,0.5193648,-0.03227166,-10.2855,4199,-0.0039555863,0.007562028,-0.053501975,41.0,0.0071784677,434,-226,-1176
176019243,0,1114658,-0.089468494,-0.5745654,-10.269743,4233,0.024386218,-0.007316425,-0.032472953,40.875,0.0071784677,980,827,-1422
176119972,0,1114658,0.36842698,-0.6929149,-10.128699,4168,0.003768079,0.005864216,-0.045880705,40.875,0.0071784677,190,256,-637
176221822,0,1114658,-0.0020059196,-0.0020258685,-9.597608,4199,-0.01177935,0.0064140256,-0.03517365,40.875,0.0071784677,502,-20,-543
176323725,0,1114658,-0.4116991,-0.6563801,-9.412861,5303,0.01607193,-0.0151431905,-0.03602648,40.875,0.0071784677,690,1375,-1052
176426572,0,1114658,0.026495744,-0.40459836,-9.734575,4200,0.004095437,-0.009654396,-0.058473382,41.0,0.0071784677,769,293,-1675
176528443,0,1114658,-0.09777569,-0.37576053,-10.788942,5248,-0.01606087,0.0056818263,-0.075005986,40.875,0.0071784677,443,155,-838
176630273,0,1114658,-0.5797563,0.12862666,-9.575949,5251,0.007197992,-0.0063698525,-0.034444094,40.875,0.0071784677,950,1467,-1124
176731073,0,1114658,0.20484897,-0.5209109,-10.100674,4158,0.007587384,-0.00835845,-0.042331208,41.0,0.0071784677,559,521,-1399
176829772,0,1114658,-0.27615488,-0.13348283,-9.357045,4199,0.018624427,-0.017831802,-0.039989833,41.0,0.0071784677,901,1057,-1372
176935831,0,1114658,0.42751518,-0.46236098,-9.749938,4174,0.021306694,-0.002761088,-0.0464064,40.875,0.0071784677,216,357,-846
177036649,0,1114658,-0.59443074,-0.21251659,-9.706645,4184,0.01019596,-0.011146651,-0.032535654,40.875,0.0071784677,705,1427,-882
177138472,0,1114658,0.7171049,-0.33684734,-11.197039,4199,-0.014334907,0.001436352,-0.044758216,40.875,0.0071784677,205,-625,-588
177239273,0,1114658,0.55305356,-0.92989606,-9.653667,6301,0.012096826,0.0003111446,-0.06937169,41.0,0.0071784677,221,-606,-1108
177341164,0,1114658,0.23760901,-0.6888932,-9.496119,4218,0.027228585,0.0043618777,-0.04848737,41.0,0.0071784677,61,1042,-1294
177442974,0,1114658,-0.22518769,-0.71238446,-9.718619,5251,0.021298671,-0.016671678,-0.049010195,41.0,0.0071784677,486,1520,-1570
177543773,0,1114658,-1.012673,0.15171319,-9.662807,4155,-0.003769255,-0.004384557,-0.02973518,40.875,0.0071784677,904,1507,-1096
177642472,0,1114658,0.1682827,-0.22194263,-10.685689,4199,-0.014263764,-0.001763228,-0.039153934,41.0,0.0071784677,411,574,-551
177744360,0,1114658,-0.41492802,-0.11834593,-10.044461,4202,-0.007984611,0.0029782108,-0.040132985,41.0,0.0071784677,506,948,-1117
177846216,0,1114658,-0.017402448,-0.07990879,-10.235299,5294,0.0010196905,0.00751265,-0.06727279,41.0,0.0071784677,-183,180,-1146
177951221,0,1114658,0.009184849,-0.49407852,-10.218141,4239,0.017784368,-0.0012594899,-0.052304547,41.0,0.0071784677,715,881,-1116
178051987,0,1114658,0.005037367,-0.4158454,-9.474037,4215,0.01052907,-0.013444197,-0.043063853,41.0,0.0071784677,355,899,-1367
178153822,0,1114658,-0.17467003,-0.38599232,-8.75714,4199,0.00075358094,-0.016506571,-0.043819584,41.0,0.0071784677,739,589,-1295
178255753,0,1114658,-0.02194498,0.42435172,-9.356753,5330,0.00794579,0.00063701527,-0.030892357,41.0,0.0071784677,931,632,-601
178354380,0,1114658,0.0880807,-0.47072738,-11.033949,4167,0.00012338134,0.012446761,-0.051265676,40.875,0.0071784677,175,197,-507
178457342,0,1114658,0.4507015,-0.70984215,-11.196519,4226,-0.00023338276,-0.0071451343,-0.04987881,40.875,0.0071784677,361,46,-996
178558115,0,1114658,-0.008269788,-0.45592383,-10.324465,6329,-0.005851881,-0.00081434776,-0.06354855,41.0,0.0071784677,353,498,-931
178660973,0,1114658,0.23008908,-0.16651605,-9.271485,4200,0.0045796754,0.00935865,-0.03693607,41.0,0.0071784677,448,209,-826
178760737,0,1114658,0.15023653,-0.4551403,-9.91839,4201,-0.009077602,-0.0010675975,-0.04449256,40.875,0.0071784677,371,-168,-996
178861522,0,1114658,-0.42812988,-0.49500358,-9.375657,4171,0.018717308,-0.005580631,-0.039553724,41.0,0.0071784677,103,1017,-1195
178965473,0,1114658,-0.61157155,0.18082273,-10.260059,4158,-0.006934777,-0.0016973736,-0.04368081,40.875,0.0071784677,1142,1176,-1090
179066272,0,1114658,0.22736512,-0.2314706,-9.971779,4151,-0.0124871805,0.007876808,-0.039962444,40.75,0.0071784677,601,-140,-464
179166055,0,1114658,0.17111641,-0.51431745,-9.846158,5282,0.0067400965,-0.0034721433,-0.059681915,41.0,0.0071784677,-7,300,-1442
179266853,0,1114658,-0.05205149,-0.50533146,-10.039569,4191,0.015167893,-0.010390773,-0.0421723,41.0,0.0071784677,217,1110,-968
179368673,0,1114658,-0.3398874,-0.33819738,-13.875637,4131,-0.011381611,-0.002708362,-0.05299335,41.125,0.0071784677,328,936,-1617
179472651,0,1114658,-0.08668104,-0.4300557,-14.401389,5279,-0.0021909985,0.0014372269,-0.069239214,40.875,0.0071784677,513,439,-2205
179569257,0,1114658,-0.9787179,-0.3100771,-10.51693,5285,-0.00781899,-8.7010994e-05,-0.050842997,41.0,0.0071784677,409,1606,-1064
180795622,0,1114658,0.32715118,-0.54698825,-10.951035,4200,-0.02122471,0.007865655,-0.045004837,40.875,0.0071784677,97,-140,-411
180901673,0,1114658,-0.34113523,0.29870433,-9.457457,4201,0.019616969,-0.003996658,-0.033291534,40.875,0.0071784677,840,1077,-1138
181003590,0,1114658,-0.7201931,0.015625242,-9.306836,4267,0.024181994,-0.0021098128,-0.03429454,40.875,0.0071784677,465,1362,-1151
181104401,0,1114658,0.59961337,-0.52193147,-10.754578,4244,0.006172536,-0.007160536,-0.052555755,40.875,0.0071784677,391,-28,-1305
181207297,0,1114658,-0.13959956,0.5436831,-10.553402,3224,-0.006591428,0.0026432078,-0.034761485,40.875,0.0071784677,969,596,-769
181308056,0,1114658,-0.5175496,0.16037455,-9.612462,4222,0.013388129,-0.006891335,-0.02905155,40.875,0.0071784677,1029,1328,-794
181410967,0,1114658,-0.7310102,0.00073829637,-9.044659,4172,-0.0051807566,-0.007714741,-0.02948574,41.0,0.0071784677,1079,1093,-732
181514940,0,1114658,-0.51377666,0.26750103,-10.553822,4255,0.010243208,0.0014535681,-0.04118815,41.0,0.0071784677,766,1387,-896
181618822,0,1114658,0.99327713,-0.48938483,-10.408129,5250,0.013808205,-0.0008515564,-0.054554217,40.875,0.0071784677,192,-465,-1339
181720687,0,1114658,0.14526068,-0.2577084,-11.203581,5265,-0.010432556,-0.00083880726,-0.04692196,41.0,0.0071784677,545,184,-249
181818322,0,1114658,-0.14762242,-0.061545804,-11.493727,4142,-0.008048199,0.0023032934,-0.041088868,41.0,0.0071784677,459,599,-1400
181922282,0,1114658,0.24882786,-0.3653486,-11.116128,4160,0.023242481,-0.0020252303,-0.06446556,40.875,0.0071784677,629,450,-1800
182023096,0,1114658,0.1491953,-0.24599583,-11.524915,4202,0.0016116423,0.0071922797,-0.036902443,41.0,0.0071784677,584,437,-1275
182122822,0,1114658,-0.31841457,-0.38021174,-12.398594,4200,-0.018319264,-0.003558129,-0.053958453,41.0,0.0071784677,509,848,-936
182227823,0,1114658,0.38220426,0.0007247451,-12.346353,4201,0.014843991,-0.012561263,-0.07440083,40.875,0.0071784677,855,246,-939
182327612,0,1114658,0.14114714,-0.28461722,-12.35543,4205,-0.0052329237,-0.009773651,-0.05478867,40.875,0.0071784677,731,5,-604
182429422,0,1114658,0.112473,-0.30119422,-12.282608,4189,-0.01220251,-0.00055497384,-0.0489295,40.875,0.0071784677,677,183,-960
182528174,0,1114658,-0.6804001,0.04154069,-11.8006935,4251,0.0051753824,0.0018532142,-0.037348613,40.875,0.0071784677,507,1374,-1229
182632081,0,1114658,-0.11340565,-0.38180143,-12.424533,4208,0.010141569,-0.007327044,-0.060078498,40.875,0.0071784677,421,567,-1312
182732872,0,1114658,-0.09076758,-0.27381533,-12.545138,4200,0.005864946,0.0034817434,-0.039306927,41.0,0.0071784677,208,879,-2635
182834760,0,1114658,0.40191567,-0.3260209,-13.342913,4219,-0.01317579,0.0003758464,-0.058947038,40.875,0.0071784677,517,-142,-1001
182935538,0,1114658,-0.38853317,-0.17080483,-13.841617,4216,-0.006788062,-0.0028532792,-0.047857143,40.875,0.0071784677,395,928,-32
183040553,0,1114658,-0.28371274,-0.10007397,-12.913861,4192,0.00056948356,0.005433594,-0.033687726,40.875,0.0071784677,508,626,-1072
183140272,0,1114658,-0.19097388,-0.21299008,-13.12141,4199,0.0043582274,0.0014197004,-0.027853748,41.0,0.0071784677,153,880,-1485
