timestamp,error_count,device_id,x,y,z,integral_dt,x_integral,y_integral,z_integral,temperature,scaling,x_raw,y_raw,z_raw
133185271,0,1442850,-0.22741789,0.1704157,-9.6086645,4000,-0.0009127343,0.0006680958,-0.03842429,42.493397,0.0047884034,73,-32,-2084
133289287,0,1442850,-0.20755838,0.18771939,-9.599937,3996,-0.00086587504,0.0007225581,-0.03838415,42.52335,0.0047884034,74,-34,-2088
133389275,0,1442850,-0.22606915,0.17997427,-9.613649,3992,-0.0009029638,0.00063262274,-0.038343444,42.52934,0.0047884034,74,-29,-2085
133901271,0,1442850,-0.22522245,0.16909564,-9.630785,3943,-0.0008824424,0.0006868293,-0.038007833,42.511368,0.0047884034,73,-32,-2090
134005294,0,1442850,-0.21671793,0.18092154,-9.612566,4023,-0.0008658186,0.00077010866,-0.03871586,42.54731,0.0047884034,74,-35,-2090
134105278,0,1442850,-0.2198317,0.17103219,-9.617818,4007,-0.00087196205,0.00073837454,-0.038529694,42.52335,0.0047884034,73,-32,-2085
134205277,0,1442850,-0.21641073,0.16979863,-9.611215,4006,-0.0008352131,0.0006920784,-0.038550384,42.54132,0.0047884034,69,-31,-2092
134309271,0,1442850,-0.22462384,0.1716144,-9.610111,3995,-0.0008808767,0.0006978347,-0.038304187,42.54731,0.0047884034,73,-31,-2083
134409271,0,1442850,-0.22121665,0.16707642,-9.615519,4000,-0.0009011867,0.0006508107,-0.038537912,42.544315,0.0047884034,74,-30,-2093
134509287,0,1442850,-0.21488154,0.17298444,-9.617496,4016,-0.0008661574,0.0007014775,-0.038635068,42.532333,0.0047884034,70,-32,-2087
134613271,0,1442850,-0.21296148,0.1723831,-9.615441,3991,-0.0009182629,0.0006817961,-0.03842304,42.532333,0.0047884034,77,-32,-2092
134713284,0,1442850,-0.2203979,0.17974578,-9.638056,4013,-0.00088095653,0.0007623953,-0.038580004,42.52035,0.0047884034,74,-35,-2086
134817342,0,1442850,-0.2098508,0.16886738,-9.62059,4071,-0.0008488303,0.0006877423,-0.039161168,42.52934,0.0047884034,71,-30,-2091
134917303,0,1442850,-0.21923655,0.16150908,-9.615632,4025,-0.0008894402,0.00066648657,-0.038721494,42.568275,0.0047884034,73,-30,-2085
135017306,0,1442850,-0.20684256,0.18024504,-9.631205,4027,-0.0008067002,0.0007437788,-0.038844377,42.499386,0.0047884034,71,-34,-2096
135121271,0,1442850,-0.2193158,0.18716936,-9.607697,4780,-0.0010286664,0.0008908977,-0.045983896,42.54132,0.0047884034,74,-32,-2088
135221271,0,1442850,-0.223969,0.18128882,-9.622279,3896,-0.0008425775,0.0006957974,-0.03749886,42.511368,0.0047884034,72,-32,-2092
135321275,0,1442850,-0.22886911,0.1741504,-9.604632,3978,-0.00088485633,0.00071953534,-0.038237553,42.54132,0.0047884034,75,-32,-2088
135424471,0,1442850,-0.22706176,0.17817727,-9.608953,4000,-0.00088199833,0.00075385143,-0.03849024,42.535328,0.0047884034,73,-35,-2092
135527702,0,1442850,-0.21677832,0.17174348,-9.63359,3223,-0.0006802274,0.00056407787,-0.031075727,42.544315,0.0047884034,73,-31,-2089
135628471,0,1442850,-0.2052121,0.18235224,-9.625369,4001,-0.0008569443,0.00068187853,-0.038449015,42.568275,0.0047884034,73,-31,-2087
135727711,0,1442850,-0.20782924,0.17685647,-9.619512,4009,-0.0008532881,0.00071144704,-0.038563915,42.538322,0.0047884034,73,-31,-2089
135827723,0,1442850,-0.2175874,0.15506013,-9.623696,3253,-0.00096554874,0.00048589887,-0.031730328,42.556293,0.0047884034,88,-27,-2091
135932481,0,1442850,-0.20856658,0.17390828,-9.602265,4011,-0.0012708807,0.0007072762,-0.03844874,42.544315,0.0047884034,95,-39,-2109
136032471,0,1442850,-0.19358781,0.18880041,-9.6154785,3993,-0.0015377845,0.0019430092,-0.038554296,42.5533,0.0047884034,128,-87,-2158
136136471,0,1442850,-0.30581897,0.23292832,-9.789936,4001,0.004103679,0.0026006533,-0.03985106,42.52035,0.0047884034,-255,-71,-2027
136240471,0,1442850,-0.27870664,0.09130701,-9.881622,4000,-0.0046425695,0.0020275097,-0.035600185,42.532333,0.0047884034,39,-98,-1709
136340477,0,1442850,-0.5591251,-0.060274713,-9.73426,4006,0.003016498,0.002127706,-0.030399187,42.544315,0.0047884034,-141,-229,-2082
136444471,0,1442850,-0.61465836,0.24935807,-10.584394,4000,-0.016296608,0.0008100542,-0.045876272,42.50238,0.0047884034,340,115,-1652
136544473,0,1442850,-0.4781674,0.009435715,-9.925418,3977,0.013421277,0.00344865,-0.03031471,42.562286,0.0047884034,-524,-38,-2183
136644471,0,1442850,0.2022384,0.03680008,-11.958298,4001,0.0030216512,0.002320938,-0.060859635,42.556293,0.0047884034,727,-199,-3453
136748477,0,1442850,0.3547491,-0.27675936,-11.9010935,4006,-0.017869344,0.0055922233,-0.06578653,42.526344,0.0047884034,1273,-522,-3185
136848470,0,1442850,0.13816936,0.3795428,-12.349091,3999,-0.01944552,0.0055765235,-0.050623402,42.556293,0.0047884034,697,-207,-1962
136948471,0,1442850,-0.2773665,-0.082084276,-11.710978,3995,-0.0002378719,0.005245023,-0.02738991,42.54132,0.0047884034,-743,-386,-2470
137052516,0,1442850,0.32614103,0.25758013,-12.549837,4032,-0.004533242,-0.003201187,-0.080428466,42.526344,0.0047884034,590,307,-3970
137152481,0,1442850,-0.09117018,0.07595124,-10.592042,4006,0.012324594,-0.0021542949,-0.04182751,42.562286,0.0047884034,-680,96,-2784
137256478,0,1442850,-1.0265992,0.07477799,-9.344213,4001,-0.0029263208,0.00077885226,-0.025022822,42.556293,0.0047884034,-1178,-76,-1396
137360471,0,1442850,-0.56458116,0.43797243,-8.400134,4000,0.001794788,-0.0014164129,-0.033266373,42.52335,0.0047884034,-759,300,-1834
137460477,0,1442850,0.9541776,0.40147147,-7.669075,3997,-0.0131349005,0.0062603597,-0.045410633,42.568275,0.0047884034,1767,161,-2327
137564475,0,1442850,-0.26372764,-0.1701827,-4.38923,4005,0.0125498865,-0.0037504272,-0.017449727,42.544315,0.0047884034,-448,-42,-1241
137664481,0,1442850,0.44418478,0.11808582,-6.2564187,4010,0.0037803687,0.0015540012,-0.040671255,42.526344,0.0047884034,403,69,-3164
137764471,0,1442850,-0.3773582,0.4353846,-7.217828,3994,-0.0067111757,-0.007946165,-0.01504797,42.574265,0.0047884034,-129,384,-668
137868487,0,1442850,-0.7615128,0.1286591,-8.680009,4016,-0.012127398,0.0009485667,-0.025419833,42.54731,0.0047884034,-112,44,-652
137968484,0,1442850,-0.0008927779,0.38870475,-9.14725,4007,-0.009619585,-0.004097226,-0.04003591,42.562286,0.0047884034,250,470,-2196
138068497,0,1442850,0.63362247,-0.33162183,-9.673482,4020,-0.0052702464,0.00917331,-0.052827,42.550304,0.0047884034,1430,-879,-2511
138172492,0,1442850,-0.40550593,-0.2772047,-10.2079315,4021,0.002173273,0.009915839,-0.02996194,42.574265,0.0047884034,-488,-580,-1511
138272477,0,1442850,-0.5284781,0.03137411,-10.133678,4006,0.0001644576,-0.0027078446,-0.03574966,42.56528,0.0047884034,-815,96,-2742
139292503,0,1442850,-0.7295697,0.3025998,-10.011772,4032,-0.002835047,0.0054473844,-0.020168543,42.562286,0.0047884034,-533,433,-755
139392471,0,1442850,-0.5423144,0.32222143,-10.245904,4000,-0.00028994773,-0.0048642186,-0.040068984,42.5533,0.0047884034,-507,521,-2968
139496500,0,1442850,-0.8395445,0.1327514,-10.3405905,4029,0.005739916,0.00069765083,-0.035240516,42.508373,0.0047884034,-1371,54,-1906
139596477,0,1442850,0.6332982,-0.073401384,-9.472962,4006,0.003926226,-0.0040961583,-0.04713233,42.5533,0.0047884034,983,-103,-2909
139696477,0,1442850,0.2862289,-0.100989856,-9.3251705,3987,0.004548126,-0.0013142587,-0.046557374,42.526344,0.0047884034,435,-342,-2592
139800470,0,1442850,0.96285367,-0.053273823,-9.441194,4000,-0.023609892,0.010462223,-0.049171306,42.562286,0.0047884034,1865,-136,-2206
139900482,0,1442850,0.42582297,-0.18129916,-9.1834955,4780,0.0070829666,0.0013210466,-0.062338993,42.550304,0.0047884034,913,-705,-2819
140003670,0,1442850,0.4262433,0.0021715811,-9.833529,4000,-0.005804061,0.0084858015,-0.047463797,42.568275,0.0047884034,1332,-553,-2139
140103671,0,1442850,-0.87007964,0.145629,-10.479423,4000,0.0040370505,0.002241705,-0.014920204,42.56528,0.0047884034,-1429,133,-896
140202893,0,1442850,-0.015843568,0.46089172,-9.835742,3216,-0.015095822,0.006752155,-0.029748082,42.577263,0.0047884034,784,19,-1317
140308477,0,1442850,-0.20903198,0.3636126,-9.297108,4006,-0.020300934,0.0064453846,-0.043684572,42.568275,0.0047884034,413,133,-1979
140411708,0,1442850,0.007227824,0.3422989,-9.8159075,4031,-0.009327523,0.012253524,-0.051472694,42.601223,0.0047884034,627,-549,-2193
140511707,0,1442850,-0.16260041,-0.10052786,-10.21669,3236,0.007311577,0.009594307,-0.036629364,42.58924,0.0047884034,-88,-808,-2324
140615677,0,1442850,-0.7168689,0.29063478,-9.352848,4006,0.017567627,-0.0065686195,-0.02484596,42.568275,0.0047884034,-1165,428,-2187
140715671,0,1442850,-0.36741886,0.21581396,-9.485008,4000,-0.00830849,0.003718496,-0.03980358,42.595234,0.0047884034,41,126,-1818
140819708,0,1442850,-0.19374898,0.17870888,-10.585273,4037,0.0034570568,0.0094063915,-0.035147958,42.56528,0.0047884034,-270,-307,-1444
140923671,0,1442850,0.08824552,0.35921478,-9.276433,4000,0.01121014,-0.0059959567,-0.03253172,42.562286,0.0047884034,28,570,-2498
141023671,0,1442850,-1.0542824,0.31423262,-10.269266,3997,-0.003169341,-0.006042647,-0.028466752,42.57127,0.0047884034,-1278,565,-482
141127702,0,1442850,-0.47823346,0.12713145,-9.158449,4006,-0.0011611036,-0.00683951,-0.038636204,42.544315,0.0047884034,-596,381,-2544
141227677,0,1442850,-0.6529062,0.36674997,-9.692903,4006,0.004215132,0.0010956824,-0.03898553,42.586246,0.0047884034,-1025,248,-2524
141327677,0,1442850,0.50437146,0.42423666,-10.206025,3975,0.0018315832,-0.004654003,-0.0555903,42.601223,0.0047884034,1014,225,-2530
141431671,0,1442850,0.3067203,0.48998335,-10.331869,4000,0.009686079,-0.0009969897,-0.044410475,42.586246,0.0047884034,684,296,-3133
141531671,0,1442850,-0.21068075,-0.17024514,-6.5418406,3955,0.011070932,-2.5377143e-05,-0.016023813,42.604218,0.0047884034,-370,-387,-1330
141631681,0,1442850,-0.4545256,0.38928956,-3.5134592,4010,0.006314528,-0.004565144,-0.012604984,42.562286,0.0047884034,-446,256,-1011
141735725,0,1442850,-0.18708155,-0.17093632,-3.9578846,4054,-0.0050383857,-0.0051400857,-0.0023020764,42.577263,0.0047884034,208,87,-6
141835671,0,1442850,0.45630848,0.12288843,-6.9327865,3993,0.0030908897,0.0029706806,-0.048091315,42.583252,0.0047884034,528,-76,-2421
141939677,0,1442850,-0.5851117,0.5292478,-8.842597,4006,-0.009615029,-0.009780476,-0.02650284,42.613205,0.0047884034,-190,630,-1911
142039677,0,1442850,-0.042603932,0.29367188,-10.53567,4006,0.0043075196,0.005959751,-0.044245906,42.583252,0.0047884034,-100,-38,-2681
142139679,0,1442850,0.3965311,0.25713024,-11.031237,3977,-0.004084893,0.0027004473,-0.038974598,42.59823,0.0047884034,741,-30,-1951
142243671,0,1442850,0.089813896,0.35433778,-8.9075775,3998,0.018453708,-0.006107025,-0.038515773,42.580257,0.0047884034,-113,368,-2875
142343674,0,1442850,0.40977836,0.710388,-8.945595,4003,-0.022687167,0.0035151083,-0.042633627,42.586246,0.0047884034,1347,517,-1546
142443675,0,1442850,0.119491465,-0.02415118,-5.6465144,4004,0.0015563114,0.0046611866,-0.026532747,42.601223,0.0047884034,307,-357,-1821
142547671,0,1442850,-0.5148742,0.23657563,-7.133397,3949,0.009478906,-0.0027388616,-0.013441138,42.583252,0.0047884034,-722,-99,-1327
142647670,0,1442850,-0.25486976,0.18039186,-9.196924,3999,-0.006590998,0.004871842,-0.017800992,42.592236,0.0047884034,107,-168,-635
142751727,0,1442850,-0.03262253,-0.22624427,-10.429204,4056,-0.017106634,0.00189636,-0.059203006,42.59823,0.0047884034,782,-137,-2004
142851671,0,1442850,0.25138536,0.4105831,-9.772116,3990,0.008564658,-0.0008687682,-0.056445472,42.595234,0.0047884034,515,314,-3379
142951675,0,1442850,-0.5727283,0.41388825,-9.902827,3958,0.02072217,-0.0018925304,-0.03081188,42.583252,0.0047884034,-1193,314,-2385
143055687,0,1442850,-0.9512848,0.3018083,-9.809488,4017,0.00044906978,0.0023917286,-0.024958719,42.601223,0.0047884034,-973,345,-932
143155671,0,1442850,-0.29314873,0.41627166,-8.504559,4000,0.011177043,-0.008421192,-0.029143794,42.56528,0.0047884034,-326,504,-2331
143255709,0,1442850,-0.013046164,0.40332407,-9.177193,4038,0.0018319383,-0.009055361,-0.04277982,42.595234,0.0047884034,333,490,-2838
143359671,0,1442850,-0.25834692,-0.1167694,-10.719092,4001,-0.010182711,-0.0016770265,-0.011716635,42.601223,0.0047884034,-168,-75,-652
143459675,0,1442850,-0.10245136,0.26776624,-9.753573,4004,0.0058904365,0.00074762374,-0.057705984,42.62219,0.0047884034,-148,267,-3368
143563702,0,1442850,0.016347311,-0.026643952,-8.8676,4006,-0.012631471,0.0044985325,-0.042635933,42.580257,0.0047884034,662,-188,-2878
143663671,0,1442850,0.57096237,-0.15418631,-8.592894,4000,0.013116733,0.007136293,-0.04415118,42.5533,0.0047884034,304,-363,-3439
143763670,0,1442850,0.5274671,-0.6178198,-9.691097,3962,0.004297969,-0.0022756285,-0.04902879,42.601223,0.0047884034,383,-186,-2907
143867670,0,1442850,0.48531818,0.111938134,-13.4156,4000,-0.016467243,-0.0049231974,-0.055332653,42.610207,0.0047884034,1081,154,-2758
143971671,0,1442850,-0.7572981,-0.21630213,-12.79536,3994,0.0058285133,0.003522316,-0.034225725,42.601223,0.0047884034,-826,-318,-2750
144075670,0,1442850,0.6099169,-0.16688891,-10.313709,3999,0.00029845675,0.0026405826,-0.04949098,42.568275,0.0047884034,1150,-329,-2737
144179694,0,1442850,-0.076586366,-0.21219797,-8.244164,4016,0.008645268,0.0022922931,-0.03919083,42.58924,0.0047884034,-82,-599,-3073
144279681,0,1442850,-0.079513125,0.4668253,-9.565651,4001,-0.0063477606,0.0059913667,-0.030611593,42.601223,0.0047884034,65,431,-811
144379674,0,1442850,-0.3219901,-0.06629949,-8.338481,3972,0.024099214,0.002231842,-0.03225375,42.607212,0.0047884034,-904,-501,-2303
144483671,0,1442850,0.5217603,-0.23792472,-9.372122,4000,0.0014347108,0.005009367,-0.048291355,42.59823,0.0047884034,911,-860,-2729
144587671,0,1442850,-0.11114696,-0.08020082,-10.351531,4000,0.0038368704,-0.010938812,-0.049802758,42.625183,0.0047884034,-276,408,-2793
144686871,0,1442850,-0.22250602,0.17252502,-10.219891,4000,-0.018050106,0.0019969714,-0.05321251,42.619194,0.0047884034,680,-129,-2405
144790918,0,1442850,-0.7545252,-0.14428468,-9.470144,3247,0.01924352,-0.0041706357,-0.024874292,42.610207,0.0047884034,-1258,-62,-1873
144890871,0,1442850,-0.8067726,0.33785632,-9.010156,3999,0.0046533877,-0.0058525503,-0.025353573,42.604218,0.0047884034,-1182,296,-1105
144994888,0,1442850,-0.477596,-0.31887594,-5.197433,4018,0.010420624,-0.0021597631,-0.0035991436,42.595234,0.0047884034,-451,-182,-1215
145094879,0,1442850,0.3003284,-0.3217768,-6.015527,4008,-0.00054443465,0.003084257,-0.03815016,42.613205,0.0047884034,625,-382,-2964
145194891,0,1442850,0.67352647,0.63855404,-8.984623,4021,-0.0052104695,0.013804456,-0.040565006,42.64016,0.0047884034,1244,-37,-2292
145298871,0,1442850,0.15481572,0.18632436,-9.927806,4000,0.012617951,0.0019240887,-0.05062583,42.628178,0.0047884034,267,48,-3007
145402878,0,1442850,-0.630994,0.48211333,-10.587927,4008,0.017066479,-0.0044926605,-0.049927555,42.6162,0.0047884034,-953,515,-2577
145502871,0,1442850,-0.084660515,0.08436538,-9.7177725,3982,-0.011178124,0.00635978,-0.04050029,42.631176,0.0047884034,279,53,-2398
145606871,0,1442850,-0.0068304413,-0.123177625,-8.353878,3951,0.022578813,-0.007294344,-0.02528951,42.610207,0.0047884034,-762,120,-2473
145706874,0,1442850,0.05769446,-0.16991395,-9.236789,4003,0.024954729,0.0020953496,-0.03961464,42.625183,0.0047884034,-644,-515,-2723
145806890,0,1442850,0.20533185,-0.13848628,-9.610878,4019,-0.0065608057,-0.004250101,-0.048527986,42.595234,0.0047884034,994,-80,-2743
145910898,0,1442850,0.26255786,0.1911201,-9.145223,4021,0.006430406,-0.00011048425,-0.05115159,42.619194,0.0047884034,262,86,-3236
146010870,0,1442850,0.3319235,-0.11740455,-9.549735,3999,0.005343338,0.0010591247,-0.033564486,42.607212,0.0047884034,936,-273,-2500
146114877,0,1442850,0.65641344,-0.3355941,-10.227464,4006,-0.0005846601,-0.0031309796,-0.0509099,42.610207,0.0047884034,927,-167,-2226
146218871,0,1442850,-0.21307957,0.5394445,-10.029113,4000,0.020446792,-0.000955116,-0.037840363,42.6162,0.0047884034,-386,223,-1498
146322877,0,1442850,-0.7172297,0.34870204,-9.556547,3961,0.00087188464,0.005499358,-0.032408968,42.595234,0.0047884034,-1191,156,-2111
146422886,0,1442850,0.4066776,0.07963087,-9.301632,4015,0.017582482,-0.0017221924,-0.035473075,42.619194,0.0047884034,173,104,-2213
146526935,0,1442850,-0.31361982,0.35373822,-9.465263,4065,-0.0055495296,0.006313736,-0.03439178,42.64016,0.0047884034,-101,152,-2072
146626871,0,1442850,0.29845256,0.23969463,-9.28381,4000,0.006441194,-0.0020396404,-0.04452399,42.655136,0.0047884034,852,304,-3040
146730871,0,1442850,-0.3917685,0.18058136,-10.063244,4000,-0.0059656454,0.0038229022,-0.043418393,42.64615,0.0047884034,-592,-55,-1835
146830871,0,1442850,-0.0888716,0.48069274,-9.02381,3993,-0.0059110196,-0.0030920897,-0.048338614,42.613205,0.0047884034,247,595,-3480
146930881,0,1442850,-0.6735635,0.5931286,-13.341222,3997,0.0069576604,0.0061916495,-0.07715869,42.62219,0.0047884034,-430,60,-5664
147034877,0,1442850,0.18024375,0.038615588,-12.309522,4003,0.016381301,-0.005481049,-0.047778398,42.6162,0.0047884034,-3,127,-2389
147134874,0,1442850,0.2289295,-0.057241283,-13.274619,4003,0.00049457443,0.0009198347,-0.040063076,42.6162,0.0047884034,375,-244,-2578
147238871,0,1442850,0.120711535,0.099793196,-18.642075,3996,-0.0036295613,0.0009994943,-0.08217667,42.6162,0.0047884034,133,-63,-3146
147338871,0,1442850,-0.19304423,0.22708058,-13.571144,3956,0.0050926814,-0.0122290645,-0.057390645,42.604218,0.0047884034,-276,473,-1469
147438871,0,1442850,0.25637212,0.14170395,-8.765625,4000,-0.007341246,0.0016521793,-0.048191547,42.643154,0.0047884034,1066,-458,-2335
147542870,0,1442850,0.8761902,0.5925994,-8.299613,3993,-0.010857624,0.015404892,-0.0460534,42.613205,0.0047884034,1450,-149,-2408
147642871,0,1442850,0.20565411,0.058520626,-8.946263,3994,-0.010772026,0.0041104145,-0.051833853,42.64615,0.0047884034,1108,-699,-2522
147742871,0,1442850,-0.3350731,-0.1462708,-10.439571,3997,-0.01602713,0.012036717,-0.06344805,42.637165,0.0047884034,310,-791,-2483
147846890,0,1442850,0.20699362,0.059992664,-9.386063,4019,0.010785302,-0.0028512597,-0.047823414,42.628178,0.0047884034,251,-49,-3387
147946896,0,1442850,-0.52694464,0.16832781,-9.431516,4025,0.003454605,-0.012749342,-0.037879936,42.673107,0.0047884034,-419,302,-2253
148046871,0,1442850,-0.012742746,-0.17174467,-10.060295,3986,0.004938995,0.010395968,-0.03574514,42.613205,0.0047884034,199,-892,-1419
148150893,0,1442850,-0.5167134,0.36753753,-9.768931,4022,0.0025593585,-0.0018795559,-0.037156902,42.631176,0.0047884034,-332,537,-2152
148250885,0,1442850,-0.3337618,-0.13991545,-8.596434,4014,0.010682231,-0.0028861817,-0.03328179,42.628178,0.0047884034,-529,-207,-2735
148354884,0,1442850,0.37732387,-0.09122382,-9.949141,4002,-0.016345492,0.0028420086,-0.05251962,42.66412,0.0047884034,1012,-594,-2224
148454870,0,1442850,-0.2928514,0.032218736,-9.232248,3996,0.033326924,-0.0028478669,-0.024946485,42.65214,0.0047884034,-1386,-116,-1953
148554874,0,1442850,-0.40869525,0.33895177,-9.355345,4003,-0.005141966,0.0032978521,-0.034967955,42.65813,0.0047884034,-47,270,-2011
148658870,0,1442850,0.36378965,0.3009831,-11.963039,3999,-0.013423603,0.004751234,-0.0491163,42.667118,0.0047884034,1094,-152,-2419
148758871,0,1442850,0.10574513,0.058496937,-11.864357,3966,-0.019860525,-0.0009605758,-0.05938985,42.65214,0.0047884034,1065,-74,-1594
148862134,0,1442850,-0.63460946,0.42459583,-10.0187845,3250,0.017951146,-0.0046080556,-0.03173744,42.63417,0.0047884034,-1039,386,-2780
148962888,0,1442850,0.9828675,0.060401488,-10.743993,4017,0.00046950323,-0.0011750783,-0.054898866,42.637165,0.0047884034,1262,62,-3333
149062078,0,1442850,-0.5712359,-0.0077322554,-11.808497,4738,-0.0162666,0.0025794222,-0.056401186,42.65813,0.0047884034,-650,-270,-2101
149166870,0,1442850,-0.69612527,0.21543008,-11.521998,3999,-0.008241741,-0.0030824412,-0.025312165,42.619194,0.0047884034,-671,151,-1544
149266879,0,1442850,0.24645875,-0.37001812,-11.612333,4795,-0.0059390236,0.0048713754,-0.050122127,42.661125,0.0047884034,408,-338,-3421
149370078,0,1442850,0.4395721,0.19598417,-12.455744,4004,0.00511369,-0.004000579,-0.058286004,42.637165,0.0047884034,530,226,-1684
149470077,0,1442850,-0.59713733,0.04533139,-11.822249,4007,-0.0023730514,-0.0005943633,-0.020085977,42.625183,0.0047884034,-883,-242,-1246
149570071,0,1442850,0.06866549,0.02694927,-12.314509,3997,0.0034712525,-0.0011176221,-0.038206108,42.62219,0.0047884034,118,142,-2413
149674078,0,1442850,-0.25118226,-0.19374776,-12.581467,3997,0.0036341136,-0.006489911,-0.040137254,42.670113,0.0047884034,55,214,-2629
149774070,0,1442850,-0.33699054,0.16732132,-12.258274,3999,0.00090549677,-0.00011786341,-0.05302611,42.65813,0.0047884034,-462,215,-3294
149874078,0,1442850,-0.103922874,-0.112308115,-11.210039,4004,0.007921461,0.0038599325,-0.03908934,42.64615,0.0047884034,-669,-304,-4668
149978071,0,1442850,0.17028596,-0.10894058,-13.715872,3990,-0.003519969,-0.004720728,-0.091778785,42.631176,0.0047884034,261,610,-2696
150077347,0,1442850,0.19016284,-0.4384213,-13.454024,3253,-0.0063830595,0.00035262125,-0.055115987,42.643154,0.0047884034,709,12,-2347
150182070,0,1442850,0.023313168,-0.41962883,-15.188192,4000,0.0023232256,0.0010201507,-0.057065047,42.625183,0.0047884034,-526,-3,-1082
150286071,0,1442850,0.17274378,-0.032984216,-11.4946995,3996,0.0008580105,0.0023579374,-0.07060359,42.66412,0.0047884034,423,370,-5677
150386071,0,1442850,-0.27990204,-0.46028736,-9.09891,3999,0.0044638393,-0.005732086,-0.027868606,42.65813,0.0047884034,-1047,-55,-2008
150490071,0,1442850,-0.26249152,-0.19838324,-9.103599,4001,5.0778734e-05,0.0015381605,-0.014852826,42.6761,0.0047884034,-450,-297,-3178
150590071,0,1442850,-0.2948531,0.080148906,-9.947006,3994,0.014235863,0.0006057552,-0.05671596,42.65214,0.0047884034,-691,29,-2384
150690087,0,1442850,-0.19615576,-0.027275976,-9.131381,3974,0.008966627,0.0025700745,-0.017509205,42.628178,0.0047884034,-470,-348,-3535
150794107,0,1442850,0.0074381824,0.061940733,-10.036824,4035,-0.01829366,-0.00062196865,-0.03400576,42.65813,0.0047884034,904,120,-1025
150894071,0,1442850,-0.31009445,0.33059496,-10.356333,4000,-0.00019632158,-0.0031321864,-0.0667444,42.619194,0.0047884034,-56,578,-2643
150994071,0,1442850,-0.28060898,0.16481885,-9.064379,3999,-0.006476256,-0.0012264743,-0.0012458479,42.65813,0.0047884034,-231,-119,-1303
151098093,0,1442850,-0.28936183,-0.32465962,-10.198376,4023,0.0021615657,0.0011878842,-0.02230612,42.670113,0.0047884034,-593,-209,-2089
151198071,0,1442850,0.2370884,-0.006921198,-10.286161,3987,0.0004781289,0.0003821947,-0.032861687,42.6761,0.0047884034,554,-207,-71
151302072,0,1442850,-0.11994711,0.31409645,-10.96772,3925,-0.004298808,-0.0074495496,-0.035837617,42.65813,0.0047884034,-75,267,1017
151402071,0,1442850,-0.065066025,-0.042528536,-8.308694,3994,0.004536723,0.0053245123,-0.028005987,42.65214,0.0047884034,-603,-283,-3775
151502071,0,1442850,0.12568215,0.35613796,-10.893074,4001,0.007758362,-0.0029675418,-0.07100652,42.66412,0.0047884034,-251,768,-1441
151606097,0,1442850,0.17627019,0.108365625,-10.446912,4020,-0.005745086,0.0014017655,-0.06997396,42.64615,0.0047884034,711,316,-2223
151706070,0,1442850,-0.1564642,0.13463016,-9.695279,3954,0.0019975314,-0.0054824376,-0.036346022,42.655136,0.0047884034,-357,378,-1434
151806078,0,1442850,-0.7582114,0.0038401368,-4.603838,3998,0.004316866,-0.0054911864,-0.006321236,42.68509,0.0047884034,-1060,190,-614
151910071,0,1442850,-0.6443663,0.39253005,-2.1252165,3997,0.007447671,-0.0001966696,0.0042603943,42.667118,0.0047884034,-778,314,55
152010077,0,1442850,-0.29489657,-0.32971573,-1.5867985,4001,0.00018198951,0.0020862103,-0.00858407,42.649147,0.0047884034,-185,-199,-84
152114098,0,1442850,-0.22784086,0.14261039,-0.9682565,4021,-0.00019258115,-0.0015748806,-0.00544033,42.70006,0.0047884034,-48,185,-125
152214071,0,1442850,0.04187383,-0.13872069,-0.77896464,4000,0.00014894176,0.00048634922,-0.003260912,42.65813,0.0047884034,74,-61,-285
152314071,0,1442850,-0.047119446,0.033656284,-0.766889,4000,-0.002676691,0.0009881562,-0.004986724,42.69108,0.0047884034,145,-38,-256
152418071,0,1442850,-0.27561367,0.053450692,-2.5703623,4001,-0.0060261902,0.0004338112,-0.004327645,42.694073,0.0047884034,324,-55,-199
152518070,0,1442850,-0.3088053,0.06580454,-7.2466283,3992,0.0062944894,0.003779258,-0.025296919,42.631176,0.0047884034,-651,21,-1895
152618101,0,1442850,-0.25980598,-0.2718147,-9.504364,4024,0.023562789,-0.004173631,-0.019631267,42.69108,0.0047884034,-775,-205,-1852
152722071,0,1442850,0.8272007,-0.19919832,-9.870603,3991,-0.00044278428,0.0066796783,-0.051951274,42.637165,0.0047884034,1297,-439,-2558
152822080,0,1442850,-0.28364465,0.50133973,-17.261597,4009,-0.0076487977,-0.0018976605,-0.109721705,42.68509,0.0047884034,222,572,-4816
152926071,0,1442850,0.21403489,-0.063143805,-10.589811,3994,-0.0014839455,0.006177348,-0.028370682,42.679096,0.0047884034,445,-283,-2090
153026078,0,1442850,-0.37285706,-0.19111545,-5.302099,4007,0.012239413,0.0007495185,-0.016020391,42.694073,0.0047884034,-384,-140,-1758
153126084,0,1442850,-0.36577657,0.03763583,-6.1784186,4002,-0.0058928397,0.0009932353,-0.031641703,42.68209,0.0047884034,-89,-25,-1415
153230090,0,1442850,0.40841687,-0.07647743,-6.5721564,4019,0.020938328,0.003754727,-0.038430035,42.697067,0.0047884034,-111,-255,-3401
153329271,0,1442850,0.26089698,-0.08443637,-9.419802,4000,-0.005695996,0.009645583,-0.049579747,42.6761,0.0047884034,609,-489,-2010
153433273,0,1442850,0.07046435,0.012542899,-10.048843,4003,0.0014867685,0.00870508,-0.042839892,42.670113,0.0047884034,77,-323,-2973
153534077,0,1442850,-0.3223769,0.16979076,-10.118068,4006,0.023351897,-0.003729112,-0.03670329,42.661125,0.0047884034,-683,159,-2249
153633333,0,1442850,0.21045494,-0.113919355,-9.380783,4062,0.009392328,-0.007676059,-0.0403158,42.661125,0.0047884034,78,70,-2845
153737317,0,1442850,-0.31204236,-0.58895576,-8.426231,4034,0.021399554,0.0011016713,-0.031627286,42.6761,0.0047884034,-659,-817,-2260
153837297,0,1442850,-0.94488543,0.3101998,-9.787121,4026,0.0020300578,-0.0049484377,-0.018646996,42.670113,0.0047884034,-1140,539,-689
153941297,0,1442850,-0.7438796,0.06872355,-10.653662,3948,0.0005401997,-0.007996946,-0.02430923,42.65813,0.0047884034,-1031,427,-810
154041271,0,1442850,-0.9985345,-0.06438681,-10.071201,3927,0.020713476,-0.00041511212,-0.020970332,42.6761,0.0047884034,-1927,-65,-1229
154141271,0,1442850,0.5701294,0.07573425,-8.339839,3942,-0.0034716893,0.0072637596,-0.050675377,42.679096,0.0047884034,1000,-144,-2955
154245270,0,1442850,-0.20589763,-0.44705868,-8.766997,3994,0.026832838,2.5646295e-05,-0.029832061,42.70006,0.0047884034,-1023,-673,-2509
154345277,0,1442850,-1.0162739,0.18813816,-10.159418,4006,0.012916114,-0.0042641354,-0.018010674,42.68509,0.0047884034,-1743,573,-1185
154445305,0,1442850,0.50974864,0.3280846,-9.946817,3986,-0.013579445,0.007715336,-0.04017875,42.649147,0.0047884034,1266,-88,-1544
154549287,0,1442850,1.0234268,-0.16356483,-9.596998,4016,0.0021092584,0.004016726,-0.045528494,42.697067,0.0047884034,1407,-289,-2615
154649296,0,1442850,-0.41021964,0.20515658,-8.942567,4025,0.02446762,-0.007951865,-0.019732967,42.688084,0.0047884034,-1329,286,-1918
154753271,0,1442850,-0.7144944,0.42311347,-10.039876,4000,-0.007771158,-0.005779336,-0.025752388,42.670113,0.0047884034,-551,474,-1610
154857297,0,1442850,-0.2955814,0.22679943,-10.765674,4026,0.0010613038,0.0026820016,-0.033141144,42.706055,0.0047884034,-584,246,-1071
154957344,0,1442850,1.2406152,-0.7167339,-10.430094,4052,0.0065404885,0.002744182,-0.05283618,42.694073,0.0047884034,-176,-422,-3265
155061314,0,1442850,0.11118926,0.33139223,-10.365228,3997,-0.023962155,-0.0003960071,-0.04171486,42.70006,0.0047884034,1971,-7,-1752
155161273,0,1442850,-0.39322826,0.4463585,-9.740752,3961,0.0034814384,-0.003000779,-0.032611217,42.712044,0.0047884034,-436,508,-2712
155261271,0,1442850,-0.8562963,-0.21483678,-9.184947,3954,0.020843487,-0.007099975,-0.03164264,42.72103,0.0047884034,-835,196,-2606
155365277,0,1442850,-0.3245596,0.32215628,-8.15552,4006,0.0130156195,0.00021308774,-0.045893595,42.688084,0.0047884034,633,98,-2575
155465271,0,1442850,0.96391696,0.6589152,-10.623149,3987,-0.0021626535,0.0098611405,-0.037283655,42.6761,0.0047884034,889,-660,-2223
155565314,0,1442850,-0.33083326,-1.6569453,-12.885336,4043,0.012319625,-0.008049533,-0.052258573,42.70306,0.0047884034,60,370,-2413
155669277,0,1442850,0.19554639,-0.06781347,-10.252641,4006,0.011900974,0.00029999844,-0.06816319,42.694073,0.0047884034,339,7,-4038
155769271,0,1442850,-0.6356582,-0.31475168,-8.57307,3991,0.009698171,-0.011105593,-0.034300122,42.72702,0.0047884034,-657,304,-1996
155873271,0,1442850,0.079347916,-0.51909786,-9.850946,3994,-0.008267941,-0.0009214084,-0.049078032,42.69108,0.0047884034,1042,-133,-2200
155973271,0,1442850,-0.4619928,-0.5225108,-11.113724,4001,-0.019176235,0.001806098,-0.048978947,42.697067,0.0047884034,833,-172,-1780
156073271,0,1442850,0.26916635,-0.8689203,-11.238932,3938,-0.01958856,-0.0053817,-0.06810549,42.70006,0.0047884034,1398,282,-3734
156177331,0,1442850,-0.3135614,-2.598319,-8.120906,4048,0.00075593375,0.0053763385,-0.05281049,42.661125,0.0047884034,-167,-269,-2635
156277317,0,1442850,-0.91181177,1.3428919,-10.788232,4046,0.0029769083,0.0049108863,-0.030682573,42.69108,0.0047884034,-787,-207,-1574
156377295,0,1442850,-0.47913346,-0.13497682,-9.096868,4005,-0.0037454497,-0.010603998,-0.034213852,42.70006,0.0047884034,-141,1037,-1568
156481271,0,1442850,-0.018640764,-0.8115291,-8.286119,3974,-0.003824927,-0.00021282618,-0.056648932,42.68209,0.0047884034,887,-100,-3740
156581284,0,1442850,0.37404352,-1.303504,-12.962069,3981,-0.0032973539,-0.00915521,-0.08517569,42.72103,0.0047884034,647,901,-2455
156685289,0,1442850,0.25593248,-0.26247925,-10.917291,4012,0.010942799,-0.0067626177,-0.04514035,42.70306,0.0047884034,271,508,-3638
156785270,0,1442850,-0.072861545,-0.74238706,-9.795177,3999,0.0056769033,-0.0064378623,-0.03612888,42.673107,0.0047884034,-394,473,-1761
156885270,0,1442850,0.62934566,-0.46798554,-9.185505,3975,-0.007627116,-0.0014757675,-0.052980263,42.679096,0.0047884034,980,634,-2293
156989270,0,1442850,0.6957119,-0.5537392,-9.730689,3973,-0.011099331,-0.00021083537,-0.03674894,42.667118,0.0047884034,398,525,-1195
157089271,0,1442850,1.1937028,-1.1497774,-8.967253,3994,0.011096758,-0.012893847,-0.017211178,42.688084,0.0047884034,-30,-153,-2041
157189271,0,1442850,-1.3518964,0.6959832,-10.285007,3995,0.011764007,0.010837978,-0.06458765,42.68509,0.0047884034,-125,-407,-3524
157293277,0,1442850,2.1892428,-0.8053597,-10.13404,4006,-0.01283798,-0.0044400087,-0.049326964,42.688084,0.0047884034,800,715,-3064
157393290,0,1442850,-0.52504945,-1.5534283,-9.915427,3984,-0.006835702,-0.002091661,-0.040538453,42.730015,0.0047884034,-54,39,-1885
157496481,0,1442850,0.1049587,-1.3179392,-9.829592,4004,-0.0041711223,-0.004366874,-0.045085415,42.667118,0.0047884034,309,-297,-1993
157601284,0,1442850,0.34427795,-0.99732393,-10.658446,3962,-0.0035252746,-0.0038832868,-0.03812771,42.69108,0.0047884034,10,272,-1750
157703715,0,1442850,0.24777058,-0.9766791,-10.163978,3241,-0.004368511,-0.002423651,-0.040735357,42.697067,0.0047884034,-88,198,-3961
157804471,0,1442850,-0.56384647,-0.9014557,-9.788955,3987,-0.0003540907,-0.0058369185,-0.025012128,42.747986,0.0047884034,-1216,816,-2128
157904471,0,1442850,-0.54077387,-2.71772,-8.920987,4731,0.015379662,-0.023446038,-0.026051104,42.688084,0.0047884034,-1912,594,-591
158004481,0,1442850,0.73419446,0.08376544,-9.411908,4011,-0.010452373,0.0031714316,-0.056928467,42.706055,0.0047884034,1175,210,-2564
158106072,0,1442850,0.5285628,-1.3942268,-10.427628,3953,-0.024342444,0.000546393,-0.051124897,42.68209,0.0047884034,1198,256,-1822
158208471,0,1442850,0.55759317,-1.1268643,-10.048238,4000,-0.0012019586,-0.0041554933,-0.039585613,42.6761,0.0047884034,363,-97,-2127
158312477,0,1442850,0.6452109,-0.8162603,-10.435172,4006,-0.01859723,-0.0033425465,-0.055905025,42.679096,0.0047884034,943,495,-1999
158412477,0,1442850,-0.22653715,-0.9453801,-9.825205,4006,-0.0053937887,-0.004107599,-0.022762746,42.70905,0.0047884034,-207,296,-1463
158512518,0,1442850,0.5352775,-1.271342,-9.22557,4039,0.02031019,-0.0067455145,-0.040216874,42.71504,0.0047884034,463,356,-2243
158616471,0,1442850,-0.49251044,-1.3615392,-10.307536,3981,-0.009288255,-0.006706482,-0.04197425,42.724026,0.0047884034,-587,379,-1644
158716471,0,1442850,0.2715104,-0.7331599,-9.872146,4000,0.017875958,-0.009641819,-0.038620505,42.688084,0.0047884034,157,911,-2181
158816471,0,1442850,0.6392071,-1.2461743,-10.15539,4000,0.0095892325,-0.008193335,-0.06333914,42.712044,0.0047884034,-20,272,-2758
158920471,0,1442850,0.6612164,-0.6741578,-9.676418,3950,0.008659471,0.0036490662,-0.064403564,42.72702,0.0047884034,415,-77,-3342
159024485,0,1442850,0.5180334,-0.5487525,-9.7319145,4014,0.00021297252,-0.006647744,-0.056792874,42.70905,0.0047884034,635,385,-2868
159124498,0,1442850,-0.24696012,-1.0363669,-8.826994,4027,0.011639645,-0.0065879533,-0.037921265,42.712044,0.0047884034,-1171,404,-1989
159228471,0,1442850,-0.3031262,-0.43504992,-9.106231,3987,0.016560331,-0.0010026324,-0.059855085,42.655136,0.0047884034,-662,257,-3131
159328485,0,1442850,-0.07038077,-0.121103644,-11.294394,4014,-0.00088857743,-0.0043338505,-0.045203008,42.697067,0.0047884034,311,791,-1374
159432471,0,1442850,0.34974676,-0.78225595,-9.854608,3996,0.009613057,-0.0046028877,-0.04718608,42.673107,0.0047884034,112,316,-3291
159532470,0,1442850,-0.38300174,-0.43756837,-11.165797,3963,0.0014544916,-0.0006138617,-0.01708999,42.706055,0.0047884034,-1237,-176,-825
159632471,0,1442850,0.019965023,-0.30152953,-9.994623,3994,0.01655269,0.0018836416,-0.03581711,42.72103,0.0047884034,-963,163,-3573
159736477,0,1442850,0.39087054,-0.14803743,-10.64066,4006,-0.026447516,0.003592686,-0.038287353,42.70306,0.0047884034,1180,33,-2188
159840471,0,1442850,-0.21736225,-0.5098004,-9.738378,3994,0.016732063,-0.00047630398,-0.03346508,42.70905,0.0047884034,-944,46,-2415
159940471,0,1442850,0.21971978,-0.7925723,-10.254751,3997,-0.0038362094,-0.0016272612,-0.04027563,42.706055,0.0047884034,283,-174,-1273
160044477,0,1442850,1.2322445,-0.6740066,-10.114781,3992,-0.0016368972,-0.0027279903,-0.0488054,42.71504,0.0047884034,1100,-363,-2769
160956470,0,1442850,-0.42398423,-0.62331253,-9.035923,3999,0.018344615,-0.005094993,-0.031722937,42.706055,0.0047884034,-1402,-358,-2006
161056471,0,1442850,0.4155291,0.0010736071,-10.093297,3994,0.003826662,-0.0102893375,-0.047347773,42.71504,0.0047884034,176,898,-2445
161160471,0,1442850,-0.20980431,-0.4334935,-9.5021,3987,0.012565631,-0.0024203202,-0.040597774,42.730015,0.0047884034,-746,-170,-3123
161264475,0,1442850,0.0785808,-0.02861445,-9.618342,3991,0.005195558,0.0009937808,-0.04037064,42.706055,0.0047884034,-390,368,-3067
161364473,0,1442850,0.35889494,-0.36708146,-10.207747,3987,-0.023833323,0.0027702174,-0.05312995,42.72103,0.0047884034,1292,-310,-2068
161468526,0,1442850,0.066953,-0.42199376,-9.1211815,4055,0.01226862,-0.0029202276,-0.041365176,42.69108,0.0047884034,-285,-167,-2715
161568471,0,1442850,-0.08589333,-0.7347905,-10.051909,3997,-0.011455284,-0.0047346917,-0.042211898,42.747986,0.0047884034,219,-87,-2069
161672471,0,1442850,-0.057112604,-0.07143104,-9.540302,3958,0.0106022,-0.00089411053,-0.04160074,42.718033,0.0047884034,-357,-12,-2569
161772471,0,1442850,0.38975587,-0.5294818,-9.316458,4000,-0.00521231,-0.0045088492,-0.05025512,42.712044,0.0047884034,959,-327,-2513
161875680,0,1442850,-0.46505886,-0.16596846,-10.033298,4010,0.00761987,-0.0015048649,-0.029701773,42.718033,0.0047884034,-1086,-134,-1826
161977348,0,1442850,-0.34441856,-0.42519468,-9.095619,3277,0.009662185,-0.006185924,-0.028660448,42.741997,0.0047884034,-954,118,-2134
162075671,0,1442850,0.058460448,0.47771564,-8.955117,3963,-0.003942443,-0.00844435,-0.032054946,42.718033,0.0047884034,-243,1124,-2136
162178915,0,1442850,-0.39822745,-0.15900667,-10.043613,3244,-0.0014541773,-0.0007049738,-0.016329944,42.736008,0.0047884034,-81,67,-785
162279677,0,1442850,0.26654822,-0.085814096,-9.571506,3999,0.0058219414,-0.004416023,-0.0468758,42.730015,0.0047884034,299,396,-3585
162379708,0,1442850,0.52096266,-0.115235314,-10.282371,4012,-0.0024066283,-0.002348915,-0.03246457,42.70006,0.0047884034,737,27,-1847
162483715,0,1442850,-0.5366725,-0.06916034,-9.446552,4044,0.00085099647,-0.0063105254,-0.03386419,42.74499,0.0047884034,-1012,265,-2011
162583679,0,1442850,0.0075834803,0.13203555,-8.554869,4008,-0.010556495,-0.008844931,-0.040724568,42.724026,0.0047884034,-145,621,-2731
162687702,0,1442850,0.29757604,-0.5434355,-10.031793,4031,-0.015510665,-0.0038440616,-0.036387116,42.759968,0.0047884034,1075,278,-1780
162791671,0,1442850,-0.3908576,0.046640735,-9.859223,4000,0.0023898738,-0.011736985,-0.03534037,42.739002,0.0047884034,-908,675,-1329
162891671,0,1442850,-0.27243185,0.1512298,-9.132734,4000,0.01430488,-0.004637249,-0.026146233,42.730015,0.0047884034,-681,849,-2531
162995673,0,1442850,0.39763352,-0.35137188,-9.94317,3996,-0.023552272,0.007039753,-0.03681186,42.70006,0.0047884034,1385,-338,-1656
163095671,0,1442850,-0.83025795,-0.03382671,-10.068915,3961,0.01802113,-0.0020663626,-0.022339638,42.762962,0.0047884034,-2188,149,-1511
163195710,0,1442850,-0.36916107,-0.41101727,-9.585751,4030,0.012923209,-0.0066228313,-0.035760336,42.736008,0.0047884034,-1074,178,-2241
163299677,0,1442850,-0.12135536,-0.9747496,-9.502248,4006,0.0018426841,0.004290798,-0.042626344,42.75098,0.0047884034,-467,-789,-1476
163399670,0,1442850,0.65805465,-0.42600062,-9.340406,4000,-0.0042600962,0.006760642,-0.03992839,42.71504,0.0047884034,1079,-531,-1906
163499677,0,1442850,0.63225824,-0.61710125,-10.418223,4000,-0.026165668,0.00804668,-0.05346839,42.72103,0.0047884034,1574,-409,-2067
163603671,0,1442850,1.0944787,-0.7692245,-9.810653,3995,0.0019511301,0.00023717899,-0.051788427,42.759968,0.0047884034,1508,-285,-2515
163703677,0,1442850,0.22240376,-0.40482578,-9.09078,4003,-0.013747103,-0.007714711,-0.05469387,42.72702,0.0047884034,961,93,-2103
163807702,0,1442850,0.45074862,-0.2744718,-10.029347,4025,0.010042572,0.0008864072,-0.025423072,42.724026,0.0047884034,-413,232,-1557
163907671,0,1442850,-0.5266794,-0.6190217,-9.597583,3999,0.011382724,-0.0014811682,-0.029909376,42.74499,0.0047884034,-1245,-127,-2141
164007671,0,1442850,-0.3460681,-0.3543638,-9.061197,3999,0.010910185,-0.0054712314,-0.037437174,42.762962,0.0047884034,-851,-194,-2269
164111713,0,1442850,0.77875155,-0.14259712,-9.380892,4042,-0.026298823,0.0010975068,-0.047075756,42.724026,0.0047884034,1847,262,-2416
164211671,0,1442850,0.30821466,-0.29846832,-9.661184,4000,-0.0136181805,0.008657051,-0.036698923,42.736008,0.0047884034,334,8,-1966
164311708,0,1442850,-0.692138,-0.39422584,-9.238951,4021,-0.012778844,-0.006119957,-0.038326018,42.756973,0.0047884034,-377,322,-1854
164415701,0,1442850,0.5339361,-0.4356985,-9.252505,4030,-0.008980202,0.0024790957,-0.034021683,42.765957,0.0047884034,594,222,-2088
164515677,0,1442850,0.4958091,-0.33172718,-9.115142,4007,0.01472593,0.0005998431,-0.035675302,42.75098,0.0047884034,-62,252,-2500
164619708,0,1442850,-0.22189753,-0.55281013,-9.678019,4013,-0.002002609,0.0050761495,-0.022944434,42.72103,0.0047884034,-450,-450,-781
164719671,0,1442850,-0.36727884,-0.6965459,-9.63928,4000,0.0036128783,-0.0011897604,-0.036838755,42.730015,0.0047884034,-1229,125,-2408
164819670,0,1442850,0.7623299,-0.3213999,-9.949522,3968,-0.010681061,-0.006037821,-0.055311292,42.756973,0.0047884034,1107,114,-2077
164923671,0,1442850,-0.82016385,-0.29909176,-9.175305,3960,0.014221445,-0.00088556367,-0.02440671,42.72702,0.0047884034,-1796,509,-1977
165023673,0,1442850,0.00449433,-0.30580658,-8.962173,3951,0.013373013,-0.004590369,-0.032375388,42.718033,0.0047884034,-652,199,-3053
165123701,0,1442850,0.47127822,-0.25664783,-9.6924095,4024,-0.0019026008,-0.0045868093,-0.04823339,42.759968,0.0047884034,1059,496,-3003
165227678,0,1442850,0.22646958,-0.077402055,-8.982605,4007,-0.009499437,-0.0028129746,-0.037946373,42.72103,0.0047884034,25,628,-2188
165327671,0,1442850,0.36383232,-0.10236097,-9.237062,4000,0.006716325,-0.00402256,-0.035447873,42.73301,0.0047884034,-349,534,-2527
165431698,0,1442850,-0.17155646,-0.508641,-9.446565,4027,0.004556204,0.0030632326,-0.019761574,42.759968,0.0047884034,-860,-271,-1296
165535671,0,1442850,0.70773995,-0.31247103,-9.6881695,4000,-0.009983214,0.0013613154,-0.04575465,42.75398,0.0047884034,1331,165,-2153
165635671,0,1442850,0.052188464,-0.47865728,-9.266415,3971,0.024092333,0.004187988,-0.033777785,42.747986,0.0047884034,-1043,-369,-2431
165739691,0,1442850,-0.6224383,-0.14786053,-9.435118,4020,0.0034157597,0.0069488445,-0.028647818,42.712044,0.0047884034,-1254,243,-1314
165839670,0,1442850,0.64931107,-0.29820967,-9.916577,4000,-0.008655475,-0.0015466245,-0.052330643,42.739002,0.0047884034,954,-398,-2028
165938870,0,1442850,-0.4004235,-0.44341132,-9.52668,3956,0.016573455,0.00064144714,-0.023313869,42.74499,0.0047884034,-942,198,-1787
166043671,0,1442850,-0.44424468,-0.50596124,-9.361122,4000,0.0057586823,0.0014130463,-0.033190828,42.712044,0.0047884034,-877,89,-1882
166143716,0,1442850,0.26602277,-0.8120828,-9.599224,4045,-0.007322345,-0.0038018005,-0.04541207,42.73301,0.0047884034,805,-114,-2022
166246880,0,1442850,0.22304516,-0.33154953,-9.075159,4010,0.021167163,-0.004665545,-0.030978974,42.765957,0.0047884034,-351,197,-2487
166350874,0,1442850,-0.030986607,-0.46128187,-8.99625,4003,0.018103464,-0.003404884,-0.042684443,42.736008,0.0047884034,-562,-105,-3643
166450871,0,1442850,-0.4756803,-0.1458836,-10.022855,4000,-0.017939474,0.0010686365,-0.036755335,42.774944,0.0047884034,119,133,-1426
166554116,0,1442850,0.30861974,-0.43302065,-10.206303,3246,-0.0093620485,-0.0020971883,-0.03032117,42.75398,0.0047884034,798,34,-1452
166654912,0,1442850,-0.122410335,-0.30364713,-9.53425,4041,0.022823632,-0.003421842,-0.025310937,42.765957,0.0047884034,-1365,423,-2501
166755686,0,1442850,0.99611074,-0.36984733,-9.3404045,4015,0.0030621272,-0.005705878,-0.04029947,42.741997,0.0047884034,1070,240,-2966
166858871,0,1442850,-0.03343374,-0.36371633,-8.684223,3990,0.0076436,-0.0019979093,-0.03277966,42.756973,0.0047884034,-733,424,-2883
166958907,0,1442850,0.7084997,-0.5311467,-9.792356,4036,-0.0058333874,-0.0020031482,-0.053958733,42.765957,0.0047884034,745,58,-2513
167058879,0,1442850,-0.3408028,-0.07912491,-10.520118,4009,-0.010265216,-0.002751444,-0.023190768,42.747986,0.0047884034,-4,99,-565
167162889,0,1442850,0.95753366,-0.5755894,-9.526537,4019,-0.0057151653,-0.0077096894,-0.049073007,42.718033,0.0047884034,1584,-219,-2238
167262871,0,1442850,0.15994556,-0.26816463,-9.57351,4000,-0.016828464,0.0082251355,-0.04043065,42.739002,0.0047884034,427,-199,-2131
167366871,0,1442850,0.73648363,-0.4155549,-9.306195,4000,-0.000559208,0.0038423087,-0.04581832,42.756973,0.0047884034,1107,-537,-2157
167466871,0,1442850,-0.03971588,-0.33753338,-9.923162,3961,-0.019593496,0.0022370005,-0.041179247,42.75098,0.0047884034,402,-11,-1798
167566871,0,1442850,0.36407155,-0.38124332,-9.632452,3994,0.0036654398,-0.006751448,-0.043219626,42.774944,0.0047884034,-493,711,-2687
167670896,0,1442850,-0.25153303,-0.24215618,-9.713266,4025,0.026308522,-0.00054210174,-0.02041954,42.774944,0.0047884034,-1686,-156,-1339
167770877,0,1442850,0.32096565,-0.2482746,-9.470868,4006,0.021410508,0.002820029,-0.04614035,42.730015,0.0047884034,-59,-177,-2705
167870871,0,1442850,-0.18621075,-0.24886955,-10.086574,3989,0.0029819813,0.001532308,-0.029522208,42.75398,0.0047884034,-780,-54,-1272
167974872,0,1442850,-0.13245393,-0.3204514,-10.063732,4001,-0.009679331,0.0010401797,-0.032715175,42.77794,0.0047884034,237,16,-1211
168074910,0,1442850,0.19548716,-0.23193304,-9.360515,4039,0.01867467,-0.00020221842,-0.03932277,42.74499,0.0047884034,-440,244,-2371
168178888,0,1442850,0.42234886,-0.4267694,-9.706474,4011,0.02116101,0.0012940881,-0.040320665,42.783928,0.0047884034,-315,-174,-2017
168278871,0,1442850,-0.54619735,-0.4574221,-9.890515,3994,0.002176005,-0.0041739275,-0.0397953,42.765957,0.0047884034,-1308,528,-2485
168378871,0,1442850,0.2905429,-0.391597,-9.720618,4000,-0.018710801,-0.00025912013,-0.03820438,42.739002,0.0047884034,835,-92,-1621
168482877,0,1442850,-0.17631376,-0.26588923,-10.130458,3998,-0.02032566,0.0004258446,-0.033848587,42.76895,0.0047884034,299,34,-1149
168582870,0,1442850,0.6673083,-0.20878543,-9.725198,3999,0.0019990057,-0.009456541,-0.048147522,42.774944,0.0047884034,521,653,-2387
168682873,0,1442850,0.03951204,-0.2159298,-9.746367,4002,-0.013022927,0.012902735,-0.031811856,42.76895,0.0047884034,181,-257,-1201
168786908,0,1442850,0.4760363,-0.43843555,-9.096239,4037,0.005274367,0.00904768,-0.03137809,42.75098,0.0047884034,655,-716,-1510
168886871,0,1442850,0.19143024,-0.5413723,-10.06093,3954,0.0013316715,0.0028674118,-0.026072647,42.774944,0.0047884034,-120,-433,-1211
168990870,0,1442850,0.5035864,-0.28003433,-9.949647,3992,-0.007030164,-0.004280639,-0.054907136,42.730015,0.0047884034,713,89,-2658
169094877,0,1442850,0.48973024,-0.13174397,-9.181363,3993,0.011447754,-0.0043015415,-0.047076914,42.741997,0.0047884034,314,221,-2920
169198875,0,1442850,-0.75672644,-0.072858304,-9.735633,3998,0.006068307,0.0017938386,-0.020205675,42.77794,0.0047884034,-1482,346,-754
169298871,0,1442850,-0.028917307,-0.3071557,-9.468112,4000,0.02134636,-0.0052885516,-0.028933289,42.810886,0.0047884034,-866,15,-2695
169402896,0,1442850,-0.4221691,-0.1044109,-10.0220375,4025,-0.007912933,-0.0019479493,-0.02673876,42.77794,0.0047884034,-645,412,-1381
169502878,0,1442850,0.21907118,-0.07904383,-9.485522,4004,0.025430031,-0.0070103207,-0.02755315,42.78992,0.0047884034,-972,667,-2754
169606884,0,1442850,0.24659647,-0.49558163,-10.110692,4001,-0.02042278,-0.0045908084,-0.044135757,42.774944,0.0047884034,1068,-23,-1369
169706871,0,1442850,-0.5521517,-0.33389103,-9.970191,4001,0.007949266,-0.004285613,-0.02096637,42.78992,0.0047884034,-1285,415,-1396
169806871,0,1442850,0.6346095,-0.6603224,-9.111108,4000,0.0173186,-0.0069530145,-0.04833978,42.780933,0.0047884034,256,-316,-2436
169910871,0,1442850,-0.18327728,-0.06369085,-9.531621,3994,0.018989526,-0.0018220844,-0.027333137,42.762962,0.0047884034,-969,267,-1900
170013297,0,1442850,-0.06283247,-0.23128702,-9.316478,3213,-0.017298363,0.0017283927,-0.02824264,42.786922,0.0047884034,2,447,-2048
170110891,0,1442850,-0.20547378,-0.09403815,-9.804936,3998,-0.013104397,0.01009048,-0.039480463,42.75098,0.0047884034,-605,172,-1504
170214077,0,1442850,-0.013067703,-0.30280322,-9.830831,3988,-0.004875309,-0.0033266486,-0.03952783,42.75398,0.0047884034,505,196,-1727
170317300,0,1442850,0.07361392,-0.81762713,-9.649165,3230,-0.008069578,-0.004660685,-0.04392518,42.765957,0.0047884034,724,-601,-2400
170417313,0,1442850,-0.33885142,-0.3586737,-10.027335,3242,0.012378844,-0.0017026687,-0.020328104,42.765957,0.0047884034,-1525,104,-1377
170517378,0,1442850,-0.167689,-0.120313056,-9.17858,3294,0.007991253,-0.0061920397,-0.039980046,42.792915,0.0047884034,303,352,-2892
170622071,0,1442850,0.7058327,-0.6783097,-9.907889,3993,-0.013055144,-0.002846471,-0.04754735,42.79591,0.0047884034,771,369,-2250
170722073,0,1442850,0.37443238,-0.8965491,-9.275567,3995,0.002396504,0.0020911107,-0.038484998,42.786922,0.0047884034,418,-565,-2517
170822071,0,1442850,0.41245556,-0.16659378,-9.508115,4753,-0.017017392,0.014605368,-0.048342492,42.79591,0.0047884034,863,-286,-1908
170926095,0,1442850,-0.07053044,-0.08720892,-9.5638485,4024,0.017083917,0.0017482121,-0.030477457,42.77794,0.0047884034,-723,-87,-2379
171026090,0,1442850,-0.6025838,-0.34580603,-8.496683,4010,-0.007494962,-0.0051428927,-0.0435984,42.756973,0.0047884034,638,-95,-2646
171126071,0,1442850,0.12649873,-0.79626465,-9.332029,3968,0.015858412,-0.0016228533,-0.052909303,42.75398,0.0047884034,-559,-356,-2892
171230078,0,1442850,0.069675595,-0.5329972,-9.782768,4008,0.0043893317,0.0011856251,-0.036153153,42.804893,0.0047884034,13,-9,-2525
171330070,0,1442850,-0.90402085,0.038152,-9.753316,3999,0.005970559,-0.0020746994,-0.027513348,42.76895,0.0047884034,-1945,421,-1540
171434079,0,1442850,-0.57844836,-0.4498909,-8.427064,4002,0.016009364,-0.006837513,-0.031174183,42.77195,0.0047884034,-836,263,-3136
171534070,0,1442850,-0.49867624,-0.13088198,-10.058506,3998,-0.0041375477,-0.0011255582,-0.042850442,42.783928,0.0047884034,-653,299,-1968
171634071,0,1442850,-0.28955743,0.12111172,-9.5477,3994,0.016540276,-0.0003436124,-0.030263131,42.80789,0.0047884034,-604,272,-1874
171738071,0,1442850,-0.93586767,-0.13697717,-8.625643,3999,0.017434664,-0.012009131,-0.012806266,42.77794,0.0047884034,-1592,441,-1689
171838080,0,1442850,0.5311128,-0.08052668,-9.792378,4001,-0.0062606833,0.006103263,-0.05215337,42.765957,0.0047884034,992,-253,-2222
171938097,0,1442850,-0.0065912055,-0.5523792,-9.612351,4020,0.0058260537,-0.006320662,-0.031710576,42.828857,0.0047884034,-346,136,-2278
172042072,0,1442850,0.15436566,-0.20125239,-9.306163,3977,0.014022373,-0.004518418,-0.044110514,42.756973,0.0047884034,366,-80,-2755
172142077,0,1442850,-0.2938781,-0.2517725,-10.405673,4007,-0.005966655,0.0029948417,-0.05151021,42.77195,0.0047884034,461,-331,-1859
172246071,0,1442850,0.09534943,0.072094336,-10.082395,3994,0.0038558163,-0.007519109,-0.038617507,42.783928,0.0047884034,-107,720,-2601
172350096,0,1442850,-0.27608472,-0.64099455,-9.758449,4026,-0.002744589,-0.0024286823,-0.034893844,42.77195,0.0047884034,-399,-140,-1997
172654086,0,1442850,-0.27580065,-0.23715353,-10.140535,4015,-0.023924904,-0.0015063254,-0.047170844,42.75398,0.0047884034,1245,257,-1555
172754072,0,1442850,-0.30228764,-0.041757077,-10.882917,4002,-0.008288853,-0.0006433802,-0.039251838,42.81388,0.0047884034,58,319,-1120
172858070,0,1442850,0.8215511,-0.5572433,-9.275883,3981,0.011428638,-0.0011974425,-0.045716442,42.804893,0.0047884034,815,-379,-2807
172958070,0,1442850,0.5028748,-0.19240901,-10.127222,3985,0.0039812783,0.0059965583,-0.05096427,42.783928,0.0047884034,979,-577,-2034
173058070,0,1442850,0.22645503,-0.052884188,-10.410489,3992,-0.02012406,0.013778551,-0.03285911,42.780933,0.0047884034,734,-310,-1267
173162086,0,1442850,0.71890897,-0.11786486,-10.450276,4006,-0.011310787,-0.00023387733,-0.048817065,42.759968,0.0047884034,1810,-116,-2161
173262077,0,1442850,0.023092475,-0.5985922,-8.573247,3998,0.020078147,0.0046683275,-0.03653477,42.774944,0.0047884034,-185,-681,-2364
173366072,0,1442850,0.0854872,0.39876854,-10.406165,4001,-0.02760565,0.0050787744,-0.04592463,42.81388,0.0047884034,1201,280,-1828
173466071,0,1442850,0.6440711,-0.25390562,-9.570222,4001,-0.0047510373,0.0056611695,-0.032965437,42.81388,0.0047884034,1302,-428,-1768
173566077,0,1442850,-0.22333725,0.34184444,-11.075401,4006,-0.015229734,0.0016325162,-0.03548472,42.79591,0.0047884034,93,33,-1139
173670078,0,1442850,0.21964058,0.21538505,-10.126899,4001,-0.022826457,0.0009430385,-0.041749313,42.78992,0.0047884034,841,350,-2049
173770070,0,1442850,-0.3151342,-0.48461863,-7.9336348,3999,0.01889699,-0.002147183,-0.029148495,42.78992,0.0047884034,-1144,-495,-2850
173870090,0,1442850,0.7506671,-0.09388849,-9.714894,4019,0.015141778,0.0069750072,-0.0394002,42.798904,0.0047884034,347,-261,-2356
173974073,0,1442850,0.84400755,-0.6052227,-9.670742,3995,-0.011265969,0.0012968213,-0.04544036,42.798904,0.0047884034,2042,-568,-2329
174072485,0,1442850,-0.02760617,0.20239674,-9.544177,3214,-0.0008727154,-0.007195399,-0.030146578,42.786922,0.0047884034,55,555,-3029
174176484,0,1442850,0.4229956,-0.10112539,-9.636477,3996,-0.007873887,0.0035615587,-0.044052035,42.783928,0.0047884034,1314,-326,-2873
174277322,0,1442850,0.2178515,-0.12883087,-10.038003,3238,-0.018339306,-0.00010018266,-0.017144164,42.77794,0.0047884034,937,151,-962
174377304,0,1442850,-0.31669435,-0.0001720171,-10.032433,4005,-0.0057668965,0.0061016073,-0.043354224,42.792915,0.0047884034,-287,-103,-2148
174481319,0,1442850,0.55090845,-0.18194777,-8.348954,4016,0.008731621,-0.0053900997,-0.048370957,42.816875,0.0047884034,467,-165,-3301
174581271,0,1442850,-0.85820013,0.13186684,-10.370384,3947,-0.0032953816,-0.005248351,-0.026279328,42.79591,0.0047884034,-911,628,-85
174685277,0,1442850,-0.36512697,0.16546829,-9.568218,4006,-0.008557874,0.0011452513,-0.035406735,42.792915,0.0047884034,-288,242,-1981
174789271,0,1442850,0.52137023,0.17998146,-9.65598,4756,0.014173651,-0.0049566724,-0.05377236,42.81388,0.0047884034,388,-81,-3478
174889271,0,1442850,-0.29366997,-0.020996721,-8.580714,3965,-0.0071079256,-0.012146842,-0.034856915,42.828857,0.0047884034,-232,724,-2350
174993274,0,1442850,0.70865434,-0.2144819,-9.101843,3982,0.007988406,-0.002209698,-0.044719536,42.759968,0.0047884034,646,-4,-3252
175093309,0,1442850,0.058692865,-0.05290233,-10.686683,4038,-0.0016918282,0.0025502958,-0.046214916,42.81388,0.0047884034,72,-238,-2579
175193271,0,1442850,-0.2640033,-0.07484095,-10.085392,3974,-0.018398385,0.006047505,-0.034140687,42.78992,0.0047884034,321,-129,-1122
175297322,0,1442850,0.14751534,0.29013044,-8.825193,4051,-0.027699815,-0.004159856,-0.0370164,42.81987,0.0047884034,774,654,-1579
175397341,0,1442850,0.28373638,-0.4079365,-9.463879,4070,0.0049588624,0.008081678,-0.04991316,42.792915,0.0047884034,735,-863,-2689
175501289,0,1442850,0.41459048,-0.10654254,-10.374253,3966,0.010105353,-0.00076134334,-0.05048113,42.81987,0.0047884034,36,-4,-3397
175605284,0,1442850,-0.19454718,-0.13335711,-9.439993,4013,0.0066152243,-0.008190298,-0.034186352,42.765957,0.0047884034,-478,346,-2780
175705284,0,1442850,0.77486575,-0.17717035,-8.76203,4013,0.012259372,-0.008970634,-0.040948458,42.792915,0.0047884034,774,228,-2973
175809303,0,1442850,0.6849892,-0.18373138,-8.119075,4033,0.008534984,0.0042837798,-0.04807778,42.822865,0.0047884034,707,-431,-3685
175909270,0,1442850,-0.6663323,0.037791044,-9.9216585,4000,0.00011998182,-0.0057004346,-0.031680834,42.828857,0.0047884034,-1052,344,-1679
176009273,0,1442850,0.44564006,-0.034303103,-9.369504,4002,0.017385181,-0.009343054,-0.03609723,42.786922,0.0047884034,165,532,-2562
176113271,0,1442850,0.17190287,0.26298508,-10.092687,3993,-0.011005974,-0.0003862785,-0.032611717,42.822865,0.0047884034,497,469,-1550
176213271,0,1442850,-0.46962726,0.22916907,-9.424989,3983,-0.0068186214,-0.0006882035,-0.030400896,42.849823,0.0047884034,-528,269,-1779
176313304,0,1442850,0.14441279,-0.57418954,-8.525379,4033,0.020980814,-0.008798964,-0.031353455,42.825863,0.0047884034,-672,-160,-2714
176417333,0,1442850,0.17000553,-0.17118767,-9.711976,4055,0.001259953,-0.00094983284,-0.04728514,42.822865,0.0047884034,465,-483,-1971
176517296,0,1442850,0.046765164,-0.443017,-10.49021,4002,-0.015145406,0.006972784,-0.055995222,42.80789,0.0047884034,520,-135,-2094
176621272,0,1442850,0.40726992,-0.14904825,-8.878299,3975,0.01978712,-0.008124113,-0.03927668,42.81388,0.0047884034,-129,258,-3452
176721271,0,1442850,0.07564403,-0.16108413,-9.577868,3966,0.0056099175,-0.007704214,-0.040341705,42.8019,0.0047884034,39,122,-2421
176821276,0,1442850,0.8278878,-0.30761775,-8.838086,3908,0.0016821851,0.00029483438,-0.056942448,42.816875,0.0047884034,949,-512,-3697
176925271,0,1442850,0.46324745,-0.36421722,-8.845351,3994,0.016244901,0.003994893,-0.04707867,42.810886,0.0047884034,433,-509,-2461
177025278,0,1442850,-0.51053196,-0.00605027,-9.501734,3999,0.01384781,-0.008964783,-0.022928018,42.825863,0.0047884034,-1475,416,-1547
177125271,0,1442850,0.6170433,-0.072905615,-10.140525,4000,0.009978513,-0.0013407989,-0.050455436,42.81388,0.0047884034,570,-27,-3530
177229271,0,1442850,0.7625362,-0.27365035,-9.794305,4000,-0.023296956,0.0058984784,-0.049157754,42.792915,0.0047884034,1882,-300,-1974
177329271,0,1442850,0.17385772,-0.21586025,-8.70045,3994,0.022623962,0.0029953294,-0.03693318,42.831852,0.0047884034,-677,-587,-2925
177433297,0,1442850,0.50482005,-0.5477256,-9.011999,4011,0.019783279,-0.00029520178,-0.052487664,42.8648,0.0047884034,27,-497,-3315
177533277,0,1442850,-0.9545544,0.2502816,-9.585735,3967,0.008187999,-0.008743731,-0.024593,42.834846,0.0047884034,-1704,586,-1712
177633277,0,1442850,-0.55427015,0.08247562,-10.32807,3979,0.0024698325,-0.00039734627,-0.025086004,42.81987,0.0047884034,-1194,137,-1650
177737296,0,1442850,0.04634759,0.027481942,-9.1108265,4025,0.019220397,-0.004304465,-0.038935542,42.810886,0.0047884034,-482,-13,-2938
177837307,0,1442850,0.0681389,0.47624427,-10.083067,4028,-0.008944101,0.009292907,-0.035841078,42.78992,0.0047884034,377,259,-1132
177937297,0,1442850,-0.43799925,-0.3739118,-9.814863,4807,-0.0007803496,-0.00049694994,-0.04014568,42.843834,0.0047884034,-598,-3,-2119
178041314,0,1442850,-0.03670037,-0.058413554,-8.774555,4018,0.010767324,-0.008886391,-0.03925184,42.825863,0.0047884034,-216,-4,-3135
178141288,0,1442850,-0.36822325,0.025194775,-8.577971,3982,0.0017867854,-0.013717094,-0.02221541,42.798904,0.0047884034,-322,801,-1561
178245301,0,1442850,0.3105418,0.5303117,-8.997237,3213,0.0057332735,-0.011855367,-0.0158632,42.825863,0.0047884034,-86,865,-1867
178344480,0,1442850,0.1346216,-0.065327056,-10.389666,4000,-0.001178614,0.011527256,-0.03262335,42.816875,0.0047884034,285,-80,-1320
178444517,0,1442850,0.29626986,-0.014361757,-10.541876,4045,0.014622108,-0.0012251509,-0.03953678,42.81987,0.0047884034,9,159,-2645
178547707,0,1442850,-0.24642695,-0.01940148,-10.106567,3234,-0.004720003,0.0025361972,-0.026235307,42.840836,0.0047884034,-97,-100,-1713
178648492,0,1442850,0.25145936,-0.24133708,-9.086077,4012,0.001969496,0.007760709,-0.04313888,42.873783,0.0047884034,281,-487,-2141
178752485,0,1442850,-0.32921934,0.09862162,-9.712706,4014,-0.0068279468,0.0029389234,-0.04901282,42.83784,0.0047884034,-41,-119,-1833
178852470,0,1442850,0.7122629,-0.20501406,-9.084189,4000,0.011517869,0.006501124,-0.03667277,42.858807,0.0047884034,472,-443,-2507
178952471,0,1442850,-0.11005318,0.15069148,-10.070015,3994,-0.01844111,0.005175688,-0.03404266,42.83784,0.0047884034,608,-23,-1930
179056471,0,1442850,-0.23973554,0.17733039,-9.562194,4000,-0.014522362,-0.00011113309,-0.027410842,42.852818,0.0047884034,472,428,-938
179156477,0,1442850,0.017141605,-0.31743896,-9.479973,4003,-0.0039830715,0.0059927152,-0.050866775,42.867794,0.0047884034,658,-378,-2748
179256471,0,1442850,0.15594845,-0.07443689,-9.28394,3997,0.014603455,-0.0039030956,-0.035078757,42.831852,0.0047884034,-307,-157,-2779
179360511,0,1442850,-0.6943697,-0.5304295,-12.952616,4040,0.0044911653,0.0019357534,-0.044097453,42.84683,0.0047884034,-1107,-505,-2844
179460471,0,1442850,0.084526144,-0.14374304,-15.272782,4000,-0.003371914,-0.0009963367,-0.049205933,42.825863,0.0047884034,317,-33,-1216
179564471,0,1442850,0.8016737,-0.066401474,-10.540209,4000,-0.010092624,-0.00075756246,-0.04988864,42.843834,0.0047884034,1840,229,-2686
180784470,0,1442850,0.235114,-0.24192803,-10.407885,3984,-0.02229855,0.0063173925,-0.049222294,42.876778,0.0047884034,1126,-578,-1875
180884471,0,1442850,0.18578169,-0.023738636,-9.752254,4000,-0.01243497,0.005856646,-0.056346685,42.843834,0.0047884034,1193,-575,-2477
180988476,0,1442850,-0.63725597,0.16658118,-10.061088,4006,-0.02372656,-7.6946395e-05,-0.03360667,42.858807,0.0047884034,18,181,-1007
181088471,0,1442850,-0.23039685,-0.052431367,-10.119744,3987,-0.0018037265,0.00568751,-0.03288931,42.861805,0.0047884034,-411,-94,-1926
181192471,0,1442850,0.40865833,-0.008714656,-9.541463,3989,0.0059929555,0.0072055813,-0.053924665,42.828857,0.0047884034,695,-803,-3119
181292493,0,1442850,0.12523736,-0.229353,-10.199274,4022,-0.021288667,0.011075471,-0.049118806,42.840836,0.0047884034,905,-591,-1650
181392484,0,1442850,0.57287234,-0.49323937,-8.366975,4013,0.0077422326,0.00066877436,-0.045058608,42.843834,0.0047884034,519,-714,-2627
181496471,0,1442850,0.33012408,0.27630636,-9.432181,3992,0.011196157,-0.005191132,-0.03676626,42.849823,0.0047884034,309,23,-2500
181596471,0,1442850,1.0612259,-0.13953564,-9.68263,4001,0.0076060193,0.0029451132,-0.045136422,42.83784,0.0047884034,1281,-279,-3041
181696471,0,1442850,0.40525368,-0.008204026,-10.006834,3981,0.00080642896,0.00088071404,-0.04871641,42.90673,0.0047884034,808,-359,-2052
181800471,0,1442850,-0.4808227,0.3554,-10.860252,3965,0.015828831,0.0025916686,-0.04648351,42.88876,0.0047884034,-1026,161,-2989
181899671,0,1442850,-0.36676848,-0.16492485,-10.531989,3963,0.018062301,0.0016978611,-0.03754764,42.825863,0.0047884034,-1214,46,-3221
