timestamp,error_count,device_id,x,y,z,integral_dt,x_integral,y_integral,z_integral,temperature,scaling,x_raw,y_raw,z_raw
133188548,0,2228514,-0.045990415,-0.08331236,-0.02721147,4318,-6.3216685e-05,-0.00013066753,-3.0167948e-05,42.0,0.0012217306,846,1818,-453
133291480,0,2228514,-0.011275787,-0.01968596,-0.0010328385,4290,2.9570667e-05,-4.7168658e-05,3.084197e-05,42.0,0.0012217306,820,1763,-422
133390917,0,2228514,-0.048551936,-0.11589845,-0.026792819,4342,-0.00010893226,-0.00022109834,-0.00012051511,42.0,0.0012217306,831,1786,-459
133899945,0,2228514,-0.023757368,-0.04966345,-0.015256566,4228,2.5344332e-05,-4.2028387e-05,-1.4615368e-05,42.0,0.0012217306,813,1751,-428
134004362,0,2228514,0.002162155,0.012342151,0.006926824,4317,-2.793606e-07,5.1271643e-05,-2.6297716e-05,42.0,0.0012217306,805,1728,-421
134103736,0,2228514,-0.023814054,-0.051118955,-0.016952751,4302,-0.00016442042,-0.00024196779,-8.861759e-05,42.0,0.0012217306,866,1835,-457
134205343,0,2228514,-0.03826945,-0.05084863,-0.010359459,3656,-9.9960176e-05,-0.00014900984,-1.7523422e-05,42.0,0.0012217306,832,1794,-439
134308925,0,2228514,0.010271296,0.037369534,0.00934247,4290,-2.8679824e-05,-3.6174857e-05,-2.1616006e-05,42.0,0.0012217306,828,1797,-447
134407633,0,2228514,-0.030764831,-0.051448338,-0.009511779,3613,-7.50465e-05,-0.0001738825,-2.4049332e-05,42.0,0.0012217306,814,1764,-433
134511270,0,2228514,-0.033186525,-0.07146436,-0.020963639,4290,-5.5499426e-05,-0.00022269138,-8.392079e-05,42.0,0.0012217306,829,1773,-440
134611370,0,2228514,-0.03366656,-0.06466566,-0.01696518,4286,-0.00020940618,-0.0003176693,-8.970736e-05,42.0,0.0012217306,841,1819,-454
134715045,0,2228514,-0.008312652,-0.027407736,-0.008987879,4283,-8.129203e-05,-0.00024215307,-6.954288e-05,42.0,0.0012217306,833,1791,-438
134818013,0,2228514,-0.04385958,-0.04745839,-0.01238282,4298,-0.00011259974,-0.00016714145,-1.9336981e-05,42.0,0.0012217306,848,1824,-439
134918135,0,2228514,-0.0014270915,-0.006408937,0.0041767964,3605,-8.00641e-06,-4.1712967e-05,-2.1582373e-05,42.0,0.0012217306,829,1770,-436
135017490,0,2228514,-0.037546232,-0.07853372,-0.022945207,4277,-0.00015090765,-0.00032166622,-6.949715e-05,42.0,0.0012217306,835,1807,-446
135120522,0,2228514,-0.044916693,-0.07408599,-0.026163189,3647,-0.00016554247,-0.00029548092,-9.9107914e-05,42.0,0.0012217306,854,1813,-464
135221337,0,2228514,-0.028616706,-0.069158144,-0.02133798,4362,-0.00028620692,-0.0005133252,-0.0001780191,42.0,0.0012217306,880,1889,-474
135324225,0,2228514,0.01785464,0.01761321,0.008675128,3575,0.0001007152,0.00014250875,3.6722133e-05,42.0,0.0012217306,792,1743,-426
135423619,0,2228514,-0.029573465,-0.080145516,-0.022221996,4299,-0.00014263236,-0.00038425342,-8.438361e-05,42.0,0.0012217306,832,1805,-439
135526602,0,2228514,-0.057191122,-0.08963768,-0.031735793,3607,-0.00020465865,-0.00036998498,-0.000109149325,42.0,0.0012217306,834,1819,-458
135627385,0,2228514,-0.022710767,-0.036275197,-0.011535983,4290,-0.00017397694,-0.00046493107,-0.0001309981,42.0,0.0012217306,862,1870,-461
135730345,0,2228514,-0.023945883,-0.041475803,-0.014283918,4229,-0.00017956783,-0.00032060593,-9.69005e-05,42.0,0.0012217306,849,1846,-458
135831162,0,2228514,-0.029530635,-0.047073744,-0.00029170178,4237,1.00666075e-05,7.99115e-06,5.6087796e-05,42.0,0.0012217306,811,1756,-418
135929830,0,2228514,-0.01267366,0.0053270995,-0.024253907,5005,1.7181628e-05,2.124252e-05,-0.00015086547,42.0,0.0012217306,826,1773,-465
136033505,0,2228514,-0.02306353,-0.0057527954,0.008670796,4282,-0.00031518147,-0.00028276356,-5.2305524e-05,42.0,0.0012217306,859,1830,-449
136136537,0,2228514,-0.037060205,-0.026201766,-0.003655569,4363,0.00018814864,4.735475e-05,4.4638455e-05,42.0,0.0012217306,793,1881,-456
136241570,0,2228514,-0.02313029,-0.066745475,-0.018939085,4226,5.059577e-05,0.00030513664,2.5951369e-05,42.0,0.0012217306,853,1812,-440
136340239,0,2228514,-0.022722665,-0.044161186,-0.022411065,4289,-0.0006483044,5.2165873e-05,-0.00040320167,42.0,0.0012217306,939,2008,-459
136443915,0,2228514,-0.05281855,-0.15313745,-0.03033461,4263,0.00016508765,0.0005709244,-0.00034114684,42.0,0.0012217306,710,1387,-572
136542589,0,2228514,0.047289606,0.12785418,-0.0017252082,4295,2.3024046e-05,0.0013264982,-0.00013874343,42.0,0.0012217306,895,1922,-483
136646260,0,2228514,-0.08953997,0.10440075,0.010670711,4282,5.5917335e-06,0.00015870816,5.7937566e-05,42.0,0.0012217306,201,1565,-333
136749270,0,2228514,-0.1322967,-0.2409576,0.02856049,4340,0.00040588365,-4.3568823e-05,2.856304e-05,42.0,0.0012217306,512,1548,-451
136847910,0,2228514,-0.07994348,-0.10657553,0.048002984,3562,0.00097509037,0.00023300867,0.00028626475,42.0,0.0012217306,577,1390,-509
136951613,0,2228514,-0.02380747,0.04565153,0.06017583,4288,-0.00074329285,-0.0006076344,0.00011260157,42.0,0.0012217306,794,1986,-345
137050235,0,2228514,0.08114265,0.12543295,0.052421793,3531,-0.0009253777,-0.0008525211,0.000121721205,42.0,0.0012217306,882,1876,-306
137153979,0,2228514,-0.018514642,-0.049543284,-0.0009385325,4359,-0.00030017403,-0.00063475705,-2.6054906e-06,42.0,0.0012217306,709,1829,-365
137256870,0,2228514,0.067026645,0.042821273,-0.020422932,4275,-0.0003690402,0.0016740225,-0.0005046354,42.0,0.0012217306,1109,1791,-503
137360589,0,2228514,0.09216423,0.09039115,0.0036286274,4335,0.0006791184,0.0010942525,-0.00018620033,42.0,0.0012217306,947,1732,-439
137459214,0,2228514,-0.09562209,-0.06720135,-0.007640463,4260,0.00060368667,-0.0025355672,0.00029587923,42.0,0.0012217306,547,1851,-338
137562917,0,2228514,0.093968764,0.08476835,-0.0015755689,4267,-0.00057874154,0.00073581905,-9.073319e-05,42.0,0.0012217306,999,1682,-388
137665860,0,2228514,0.00519763,0.08432892,-0.0031290106,4300,-3.641909e-05,-0.0012009206,4.434741e-05,42.0,0.0012217306,720,1705,-423
137766702,0,2228514,0.09358586,-0.0074908566,-0.03540349,4328,-0.00095614215,0.0009232267,-0.00030546018,42.0,0.0012217306,1070,1733,-458
137869625,0,2228514,0.005038706,0.091469646,-0.02687803,4266,0.00027310898,0.0020779276,-0.0003613056,42.0,0.0012217306,811,1483,-464
137968359,0,2228514,0.066081315,-0.01408496,-0.018190552,3638,0.00067580934,0.00043086527,4.5370714e-05,42.0,0.0012217306,923,1525,-547
138071970,0,2228514,0.06639165,0.002861041,0.013114134,4275,0.0018261841,0.0013321269,-0.0001920599,42.0,0.0012217306,856,1332,-522
138170665,0,2228514,-0.08562841,-0.11810426,-0.027398419,3600,8.0718644e-05,0.00012135711,-0.00011622781,42.0,0.0012217306,826,1694,-551
138271455,0,2228514,0.012936661,-0.032552935,-0.02087872,4290,-4.3472894e-05,0.0008460459,-0.00018518094,42.0,0.0012217306,1230,1638,-439
139290329,0,2228514,-0.12377768,-0.08378305,-0.009189891,4279,0.0013545674,0.00012215124,-0.00012736439,42.0,0.0012217306,387,1553,-507
139393317,0,2228514,0.002192361,-0.12943226,0.0028466624,4318,-0.0010497867,0.00023144513,-0.00012571555,42.0,0.0012217306,939,1879,-417
139496249,0,2228514,0.07812375,0.11876234,0.029521365,3574,-0.00017265553,0.001266372,-0.00014797444,42.0,0.0012217306,864,1602,-458
139595634,0,2228514,0.024654219,0.12824282,0.011180252,4289,-0.0009831283,-0.000723208,0.0003362405,42.0,0.0012217306,841,1883,-310
139696537,0,2228514,0.0041388916,-0.09558536,-0.014463605,4377,-0.00068945193,-0.0011294575,5.1857485e-05,42.0,0.0012217306,575,1945,-399
139799410,0,2228514,-0.08470774,0.011798614,-0.011605301,4251,0.0007665239,-0.0019657854,0.00023253266,42.0,0.0012217306,470,1652,-415
139902380,0,2228514,0.12940039,-0.062190536,-0.013066401,4264,0.0021889997,-0.0002997147,-1.3458637e-05,42.0,0.0012217306,176,1437,-456
140004615,0,2228514,-0.23426448,0.021426668,-0.025307868,4253,-0.00017000295,-0.0002484974,0.00011889335,42.0,0.0012217306,857,1529,-474
140104715,0,2228514,0.11260166,0.039876767,0.0022070673,3567,-0.0002721047,-0.00015983837,-0.00021562967,42.0,0.0012217306,1141,2229,-381
140204099,0,2228514,-0.010368144,-0.10898877,-0.022678114,4289,0.0023335945,0.0006338897,-0.00030589246,42.0,0.0012217306,566,1443,-484
140307060,0,2228514,-0.021543209,-0.061804287,-0.034985207,4242,0.0015497623,-0.00065705547,-0.00017388206,42.0,0.0012217306,452,1489,-531
140410762,0,2228514,-0.10105957,-0.0962026,-0.04158479,4318,0.00034486756,-0.0009364232,-0.00026127734,42.0,0.0012217306,252,1613,-519
140513694,0,2228514,-0.07573646,-0.04414497,-0.035127666,4289,0.001543587,-0.0007014266,-0.00014937898,42.0,0.0012217306,627,1788,-417
140616655,0,2228514,0.06737204,0.09389976,-0.00400514,3570,-0.00095509534,-0.00021152885,0.000114669376,42.0,0.0012217306,1076,2113,-367
140717470,0,2228514,-0.017044367,-0.027457912,-0.02257513,4248,0.0007550545,0.0011068671,-0.00014999093,42.0,0.0012217306,943,1711,-504
140817570,0,2228514,0.0683957,0.029986382,0.022965793,3558,0.00092272816,0.0011599556,-2.3773962e-05,42.0,0.0012217306,492,1536,-416
140921266,0,2228514,-0.06126707,0.052878544,0.014520359,4312,0.0006703496,0.00022303133,-0.00015034496,42.0,0.0012217306,867,2035,-364
141024204,0,2228514,-0.017277537,-0.070943534,0.008650684,4282,-0.000307616,0.0012546541,-0.00016048862,42.0,0.0012217306,1229,1965,-452
141127879,0,2228514,0.073426455,0.00870433,0.02358526,4249,-0.00071666134,0.0008876567,9.614776e-05,42.0,0.0012217306,1289,1709,-418
141226549,0,2228514,0.04079004,-0.0055488213,0.001627504,4280,-0.00030129962,0.00076696975,-0.00015808314,42.0,0.0012217306,1050,1668,-460
141330225,0,2228514,-0.041505944,-0.21360576,-0.027795358,4256,0.0006278409,-0.00034643055,0.00018248276,42.0,0.0012217306,678,1625,-508
141430324,0,2228514,-0.019765168,-0.045735184,-0.018503996,4290,-0.0006284768,-0.0015023147,-0.00011553423,42.0,0.0012217306,1088,2224,-361
141533321,0,2228514,-0.06291273,0.048947822,-0.0024408812,3611,-0.0006275658,-0.00084318785,7.27621e-05,42.0,0.0012217306,713,2003,-483
141634116,0,2228514,0.0729104,0.014914351,-0.0018580683,4267,-0.000465633,-0.0008122218,-3.2787484e-05,42.0,0.0012217306,926,2042,-404
141733485,0,2228514,0.091750115,-0.08572087,-0.010479461,4262,0.00038113727,-0.00030225277,0.0001172872,42.0,0.0012217306,859,1612,-491
141836459,0,2228514,-0.091190614,-0.013687384,-0.0027966693,4299,0.00017652525,-0.00093758915,0.00028246714,42.0,0.0012217306,674,1798,-382
141939411,0,2228514,0.05385794,-0.09909137,-0.00066677015,3581,-0.00016123013,0.00035746215,-3.3506276e-05,42.0,0.0012217306,1432,1693,-502
142044520,0,2228514,-0.061257035,-0.109771594,-0.003453065,4272,0.00017102183,7.47633e-05,1.4628992e-05,42.0,0.0012217306,692,1662,-458
142143196,0,2228514,0.041826323,0.0010667992,-0.013734822,3583,-0.0009614379,0.0002510168,-0.000251523,42.0,0.0012217306,1072,1769,-458
142246895,0,2228514,-0.015614453,-0.065065034,-0.01868703,4331,6.4237895e-05,-0.0010653122,0.00023014005,42.0,0.0012217306,659,1445,-476
142345525,0,2228514,-0.032457907,-0.059706043,-0.015175955,3557,9.237324e-05,0.0009973693,-0.00032376748,42.0,0.0012217306,1174,1381,-532
142449210,0,2228514,-0.08237977,0.07723377,-0.031958982,4300,0.0010109901,0.0011313343,-0.00019637265,42.0,0.0012217306,598,1495,-372
142552193,0,2228514,0.10481904,-0.1937654,-0.3721903,4323,0.0007534732,-0.0021530031,-0.001532012,42.0,0.0012217306,524,1957,-726
142651561,0,2228514,-0.15462923,-0.025295902,-0.3984196,4275,-0.0018222058,-0.00045976616,-0.0018036148,42.0,0.0012217306,1217,1894,-841
142751655,0,2228514,0.03869357,-0.057248544,-0.46286365,4300,0.00014358785,0.0003239666,-0.002047572,42.0,0.0012217306,591,1280,-908
142855342,0,2228514,-0.012597953,-0.044215832,-0.65181524,4312,0.00045612085,0.00030246738,-0.0026832577,42.0,0.0012217306,693,1368,-1003
142958280,0,2228514,-0.042887367,0.008063223,-0.6800435,4267,0.00036644738,0.00077773177,-0.0030133377,42.0,0.0012217306,846,1381,-1154
143061243,0,2228514,-0.013300506,-0.028901177,-0.707522,3579,0.00011259219,-0.0009919434,-0.0024023368,42.0,0.0012217306,593,1826,-1056
143162116,0,2228514,-0.037027135,0.16478154,-0.6881072,4350,0.00061445165,0.0019163331,-0.0031895405,42.0,0.0012217306,769,1386,-1116
143265015,0,2228514,0.002830873,-0.026253568,-0.89634925,3573,6.278471e-05,-0.0015462583,-0.0031172514,42.0,0.0012217306,743,2302,-1090
143365856,0,2228514,-0.14350238,-0.021252016,-1.118101,4316,0.00015997993,-0.00044973727,-0.004675724,42.0,0.0012217306,324,1670,-1269
143468814,0,2228514,-0.03070789,0.1489092,-1.344506,4298,-0.0012972243,-0.0006165608,-0.005861157,42.0,0.0012217306,790,1887,-1477
143568175,0,2228514,0.028205005,-0.09274949,-1.213111,4287,-0.00039682665,7.1020426e-05,-0.0051374473,42.0,0.0012217306,1138,1991,-1410
143671159,0,2228514,0.123868555,0.021389898,-0.7616911,4315,0.00037263607,0.0023645884,-0.0037784313,42.0,0.0012217306,965,1693,-1037
143774849,0,2228514,0.036299393,-0.1030462,-0.24173546,4329,-6.4274725e-05,-0.0017195594,-0.00096813927,42.0,0.0012217306,1147,2115,-573
143873515,0,2228514,-0.13159291,0.0146824,-0.0430793,4295,-0.0012719455,0.0005747044,2.6539381e-05,42.0,0.0012217306,955,1755,-451
143974315,0,2228514,-0.11957433,-0.032886934,0.07559536,4296,-0.0020836424,-0.0012957015,0.0003184993,42.0,0.0012217306,1027,2106,-367
144078687,0,2228514,0.07233559,-0.17977022,0.124358274,4292,0.000829455,-0.00021691162,0.0006340388,42.0,0.0012217306,774,1391,-411
144178125,0,2228514,-0.0043864655,-0.046502255,0.1065329,4314,-0.0015230991,-0.00013364351,0.000483807,42.0,0.0012217306,1325,2097,-277
144278178,0,2228514,-0.10096246,0.024929948,0.114337504,4299,0.0013089818,-0.00031707145,0.0005521946,42.0,0.0012217306,372,1686,-373
144381880,0,2228514,-0.052750763,-0.0716282,0.10395451,4326,6.562662e-05,-0.0024110894,0.0005244573,42.0,0.0012217306,377,2188,-229
144484804,0,2228514,-0.18919033,-0.012616494,0.094282255,4274,0.0002272795,-0.00087296165,0.00057316443,42.0,0.0012217306,687,1704,-281
144587789,0,2228514,-0.04135395,-0.016580483,0.06803937,3598,-0.0014417609,5.389894e-06,0.000288199,42.0,0.0012217306,924,1796,-428
144691461,0,2228514,0.03146853,0.026093146,0.03154476,4270,-0.0005184619,-0.00019927998,6.727856e-05,42.0,0.0012217306,1140,2131,-532
144794399,0,2228514,-0.04610642,-0.06483091,0.008817683,4265,0.00090346613,-0.0018699296,0.00026624528,42.0,0.0012217306,288,1820,-448
144897388,0,2228514,0.036134735,-0.14078438,0.009073172,3603,0.0010190586,-0.0012767598,-1.18656335e-05,42.0,0.0012217306,625,1793,-477
144996745,0,2228514,-0.06208546,-0.11321828,-0.016479352,4223,-0.0014741358,-0.0017475944,1.8587547e-05,42.0,0.0012217306,924,2122,-528
145099009,0,2228514,-0.10208482,-0.061190825,-0.034580775,4247,0.0006003897,0.00065298297,-0.00041285108,42.0,0.0012217306,500,1469,-416
145197659,0,2228514,-0.033270787,-0.22692543,-0.029481618,4245,0.0001682614,6.544324e-05,0.00011310875,42.0,0.0012217306,1355,1413,-543
145301369,0,2228514,-0.1464571,-0.18890606,-0.0503206,4319,-0.00020677142,-0.0016711601,-2.7678749e-05,42.0,0.0012217306,474,1721,-542
145404362,0,2228514,-0.043469444,-0.15620084,-0.058112405,4357,-0.00037653642,-0.0010924051,-0.00014372494,42.0,0.0012217306,486,2021,-495
145504412,0,2228514,-0.16978183,-0.19194058,-0.05267646,5022,-0.00044852466,-0.0005471687,-0.0002294642,42.0,0.0012217306,1055,1989,-410
145608115,0,2228514,-0.019281995,-0.2604341,-0.039245877,4335,-0.001316442,-0.0027084455,8.0171936e-05,42.0,0.0012217306,844,2506,-442
145706809,0,2228514,-0.110809065,-0.0015127994,-0.043612987,3644,-0.0010612713,-0.0015965585,-0.00030826646,42.0,0.0012217306,689,2268,-323
145811855,0,2228514,-0.076481424,-0.1458945,-0.025563795,4268,-6.752644e-05,0.00025845252,-0.00019028499,42.0,0.0012217306,1133,1927,-445
145910515,0,2228514,-0.0760741,-0.038212623,-0.038476836,3572,-0.0009071512,-0.0006736974,-0.0001462287,42.0,0.0012217306,677,1927,-371
146009962,0,2228514,-0.25462365,-0.34638298,-0.059386272,4352,-0.00039987828,-0.0028178627,-5.406082e-05,42.0,0.0012217306,849,2207,-445
146117172,0,2228514,-0.09126934,-0.28592515,-0.04570694,4312,0.00034194722,-0.000889893,-0.0002960063,42.0,0.0012217306,550,1804,-526
146220142,0,2228514,-0.057905618,-0.11907986,-0.065956384,3574,0.00072405644,-0.0016032143,0.00010907201,42.0,0.0012217306,722,1936,-474
146323821,0,2228514,-0.072562285,-0.16777834,-0.052120354,4281,-0.0009809439,-0.00044376866,-0.0005978779,42.0,0.0012217306,971,2026,-614
146426793,0,2228514,0.10316534,0.011980218,-0.006475681,3585,0.0008957402,0.00028165255,-7.713392e-05,42.0,0.0012217306,725,1571,-461
146526150,0,2228514,-0.037229124,0.05436412,-0.0033108823,4311,0.00081507897,0.00045723995,-0.00015033872,42.0,0.0012217306,825,1693,-463
146626230,0,2228514,-0.038054436,-0.042402916,-0.031917796,5006,-0.0007183534,-0.0011676003,-0.00013795563,42.0,0.0012217306,862,2032,-280
146731335,0,2228514,0.037390426,0.007340696,-0.0039049012,4290,0.00046188268,0.00081526535,-0.00019548633,42.0,0.0012217306,1016,1592,-329
146830004,0,2228514,0.086039625,0.21132839,0.030719334,3574,-7.6702876e-05,0.0001578986,0.00032577515,42.0,0.0012217306,976,1361,-469
146933680,0,2228514,-0.074576885,0.012687148,-0.005728193,4290,0.00071987166,-0.00026355675,0.00055499,42.0,0.0012217306,521,1511,-233
147036640,0,2228514,-0.14418533,-0.19030929,-0.02483791,4265,-0.00028196114,-0.0019605013,0.00019888055,42.0,0.0012217306,1117,2071,-453
147136024,0,2228514,-0.045626193,-0.046394065,-0.008042106,4249,0.0007415616,-0.0007076046,-2.2328824e-05,42.0,0.0012217306,1011,1998,-453
147236160,0,2228514,-0.10615782,-0.09614282,-0.011430556,4323,-0.0010178318,-0.0011764584,-7.3211726e-05,42.0,0.0012217306,721,2041,-250
147339800,0,2228514,0.07007881,-0.10481376,-0.007343191,4260,0.001723492,6.412481e-05,0.00029781874,42.0,0.0012217306,1024,1889,-475
147439900,0,2228514,-0.022762535,-0.023296759,0.0022737295,4291,0.0010122149,-0.00012192792,-2.7128237e-05,42.0,0.0012217306,475,1486,-446
147542937,0,2228514,-0.030668782,-0.052696377,-0.007607919,3645,0.0024798352,-0.0014374993,0.0002026629,42.0,0.0012217306,525,1679,-394
147642245,0,2228514,-0.117328644,-0.024325129,-0.025830748,4284,-0.00065857626,-0.0005574491,-9.760754e-05,42.0,0.0012217306,578,1626,-379
147745959,0,2228514,-0.095481515,-0.032292582,-0.049250606,4297,0.0012460727,0.0010507623,-0.00031500062,42.0,0.0012217306,805,2016,-480
147844614,0,2228514,0.06874708,-0.022449775,-0.03629134,4246,-0.00072285836,-0.0006072129,-0.00036156774,42.0,0.0012217306,1380,2156,-457
147948979,0,2228514,-0.0139588,-0.050261047,-0.038261984,5004,-0.0017780593,0.0005641429,-0.00039009523,42.0,0.0012217306,674,1839,-488
148048381,0,2228514,-0.0114626065,0.12894873,0.0028311454,4281,0.0015755796,0.00012878931,3.4920075e-05,42.0,0.0012217306,444,1745,-433
148151324,0,2228514,-0.022909004,0.09736991,-0.018660435,3556,-0.00076496624,0.00078780286,-0.00010268515,42.0,0.0012217306,817,1809,-419
148250762,0,2228514,-0.123123854,-0.1514278,-0.021060765,4342,-0.0017794722,-0.0008950006,-5.997204e-06,42.0,0.0012217306,1152,2124,-522
148355143,0,2228514,-0.08134016,-0.055391353,-0.028196188,3581,0.00023627517,0.00029174768,-0.00013467773,42.0,0.0012217306,557,1316,-485
148454485,0,2228514,-0.09468719,-0.024221158,-0.055222623,4276,-0.0016179784,-0.00056848803,-0.00033301563,42.0,0.0012217306,1030,2378,-439
148557445,0,2228514,0.049985744,-0.055357367,-0.05921515,3576,-0.0006790171,-0.00030810316,-0.0001217618,42.0,0.0012217306,1083,1687,-567
148656830,0,2228514,-0.0022482213,-0.0051380377,-0.013017075,4262,0.00049352756,-0.0010084865,0.00014960453,42.0,0.0012217306,662,2009,-403
148759790,0,2228514,-0.1359425,-0.05729924,-0.024122974,4215,0.0006504238,0.0016904346,-0.00010165019,42.0,0.0012217306,764,1454,-577
148862068,0,2228514,0.05923631,0.08814885,0.00014630468,4323,-0.00041235556,0.00015851241,-0.00018395767,42.0,0.0012217306,1151,2004,-358
148960710,0,2228514,0.009525729,0.024993546,0.00057306385,3502,-0.00091476226,-0.0015182329,0.00011193582,42.0,0.0012217306,970,2331,-355
149064428,0,2228514,0.045493048,0.16720371,0.002079912,4338,-5.3941738e-05,0.0012488186,-0.0002381333,42.0,0.0012217306,1019,1923,-368
149167340,0,2228514,-0.05689553,-0.069649756,0.003850762,4290,-8.309672e-05,0.00023041488,-0.00031209466,42.0,0.0012217306,1228,1949,-530
149271015,0,2228514,-0.09962423,-0.11871791,-0.012821372,4254,-0.0012545494,-0.0004275178,-0.00020333637,42.0,0.0012217306,703,1870,-411
149369685,0,2228514,0.042247515,-0.0052255536,0.0015075221,4290,0.0013107278,-0.00065107545,0.00028912784,42.0,0.0012217306,505,1799,-332
149473360,0,2228514,-0.11152607,0.011162709,-0.023769053,4291,-0.0016746398,-0.0011014618,-0.00038429137,42.0,0.0012217306,930,2221,-441
149576362,0,2228514,-0.10364726,0.017195163,0.0006341094,4333,-0.00027518853,0.0005317606,8.217219e-05,42.0,0.0012217306,1091,1774,-460
149675723,0,2228514,-0.07985687,-0.19614607,-0.031623546,4308,-3.0289573e-05,-0.0011208643,-0.000106621694,42.0,0.0012217306,843,1896,-424
149778712,0,2228514,0.06660425,-0.094752654,0.03871267,4337,0.00092929706,0.00014122088,0.00035729568,42.0,0.0012217306,922,1924,-457
149877413,0,2228514,-0.1598802,-0.19997562,-0.023058381,3653,0.000408289,-0.0010149777,0.00023692145,42.0,0.0012217306,452,1461,-260
149982456,0,2228514,-0.18544404,-0.14599134,-0.011144216,4276,-0.0019895486,-0.0006763411,-0.0007521255,42.0,0.0012217306,1638,2589,-594
150081198,0,2228514,-0.12540898,-0.03062013,-0.023154443,3663,-0.00094543345,0.00043826524,-0.0004126437,42.0,0.0012217306,1128,1987,-518
150184785,0,2228514,-0.14919099,-0.086881295,-0.025707599,4268,-0.0010010746,-0.0008307363,-0.0002221718,42.0,0.0012217306,1158,2488,-459
150287768,0,2228514,-0.1116719,-0.17462316,-0.025325146,4313,0.00044578957,-0.0014650531,0.00027720467,42.0,0.0012217306,427,1226,-412
150387160,0,2228514,-0.19117892,-0.20308885,-0.07893518,4321,-0.001984102,-0.0007907291,-0.0006438451,42.0,0.0012217306,1081,2052,-542
150490145,0,2228514,0.114877254,0.004683435,-0.023198253,4346,-0.0007764154,-0.00029368693,-0.00040929855,42.0,0.0012217306,1263,2262,-579
150590918,0,2228514,-0.13268416,-0.24106073,-0.059281904,4304,-8.994435e-05,-0.0011361175,-0.00027766463,42.0,0.0012217306,556,2073,-335
150689575,0,2228514,-0.00115753,-0.063633814,-0.02064571,3533,-0.0014015714,-0.001230496,-0.00039920266,42.0,0.0012217306,1318,2434,-504
150793296,0,2228514,-0.06921648,-0.15788375,-0.02512521,4337,0.0006751474,-0.000569464,0.00032917768,42.0,0.0012217306,672,1549,-427
150896263,0,2228514,0.0047002216,-0.15286496,-0.0169901,4343,0.0011670104,8.798438e-05,0.000103956954,42.0,0.0012217306,664,1684,-475
150995656,0,2228514,-0.12732059,-0.17262629,-0.025815854,4351,-0.0018112609,-0.0011145374,-0.00050240924,42.0,0.0012217306,1214,2070,-524
151098563,0,2228514,-0.009462964,-0.05594444,-0.0076364824,4298,-0.0010183004,-0.00030979386,-0.0002559145,42.0,0.0012217306,1230,2172,-460
151197940,0,2228514,0.15281652,0.07274364,0.014355683,4290,0.0018669813,0.0007952976,0.00033833992,42.0,0.0012217306,681,1527,-345
151300916,0,2228514,-0.10145825,-0.1902895,-0.026763141,4306,0.0012963942,0.00032026533,0.00021717568,42.0,0.0012217306,318,1245,-380
151406762,0,2228514,-0.0705246,-0.12699185,-0.028745204,3603,0.0012623052,0.0005542609,0.00020771952,42.0,0.0012217306,402,1416,-379
151507562,0,2228514,-0.06180026,-0.081616975,-0.0078261085,4317,-0.0017823069,-0.0014093032,-0.0004939536,42.0,0.0012217306,1501,2177,-612
151607634,0,2228514,0.0014243257,-0.043055046,-0.004712158,3574,0.0012125626,0.0010341592,0.00033553079,42.0,0.0012217306,748,1501,-492
151711344,0,2228514,-0.06720468,-0.14837272,-0.03258806,4324,-0.00017411634,-0.00090711477,-6.9218695e-05,42.0,0.0012217306,1052,1997,-429
151811410,0,2228514,0.051376984,-0.1872633,-0.032559406,4250,0.0010302432,-0.0016923826,0.00016255789,42.0,0.0012217306,553,1904,-522
151915085,0,2228514,0.00081754115,-0.26213232,-0.06651074,4272,-0.0008429779,-0.0027454358,-0.00015049375,42.0,0.0012217306,1034,2215,-526
152013755,0,2228514,-0.089237295,-0.26575175,-0.06175947,3557,-4.33149e-05,-0.00096023595,-0.00024134245,42.0,0.0012217306,734,2057,-514
152117430,0,2228514,-0.02607059,-0.14723566,-0.03906532,4259,-0.00033777652,-0.00051976676,-0.000113174196,42.0,0.0012217306,954,1922,-464
152217530,0,2228514,-0.13762027,-0.1945977,-0.062554754,4291,-0.0005487664,-0.0009785348,-0.0003242951,42.0,0.0012217306,902,1934,-487
152316914,0,2228514,-0.21987827,-0.21038833,-0.08382454,4289,-0.00086236175,-0.0006883653,-0.0003990954,42.0,0.0012217306,971,1895,-499
152419875,0,2228514,-0.21547264,0.017486192,-0.060774557,4261,-0.00079279323,0.000688426,-0.0003139879,42.0,0.0012217306,964,1626,-494
152524307,0,2228514,-0.23283245,-0.16426916,-0.051097192,3610,-0.0013961159,-0.001093714,-0.00018902322,42.0,0.0012217306,965,1777,-441
152627981,0,2228514,-0.14775594,-0.2297731,-0.051322766,4257,-0.0014109606,0.00015338868,-0.00031064215,42.0,0.0012217306,1313,2260,-331
152730917,0,2228514,-0.117119126,-0.15938205,-0.058244307,4281,-0.0011086045,-0.0019632706,-0.000104374,42.0,0.0012217306,781,2422,-343
152830285,0,2228514,-0.16514735,0.011712453,-0.020731395,4266,-0.0011491113,-0.0020805746,-0.00029789523,42.0,0.0012217306,471,1427,-288
152933265,0,2228514,-0.023723694,-0.5626028,-0.012189571,4311,-2.8525907e-05,-0.0024919678,-0.00025050182,42.0,0.0012217306,493,2268,-494
153032662,0,2228514,-0.13308935,-0.43278083,-0.05307198,4287,0.00050520536,-0.00043862037,-0.00032291198,42.0,0.0012217306,823,1623,-491
153135609,0,2228514,-0.15008783,0.20911522,-0.06618585,4295,-0.0002640405,-6.1793915e-05,9.431086e-06,42.0,0.0012217306,781,1529,-490
153234975,0,2228514,-0.09096093,-0.23027843,-0.031633765,4290,0.000722299,-0.00040529764,-7.9354184e-05,42.0,0.0012217306,821,1379,-496
153337962,0,2228514,-0.032497615,-0.17150097,-0.03111569,4317,-0.0014275323,-0.002046851,-4.493069e-05,42.0,0.0012217306,626,2121,-584
153437415,0,2228514,-0.14685953,-0.11414844,-0.039440233,4386,4.5115918e-05,0.00019150914,-5.0154267e-05,42.0,0.0012217306,732,1623,-417
153540279,0,2228514,-0.04338537,-0.17054254,-0.031202849,4289,-0.00015679997,0.00027350703,-0.00039844567,42.0,0.0012217306,944,1598,-530
153639716,0,2228514,-0.059698142,-0.17436008,-0.04116529,4316,0.00091322535,0.0005074013,-0.00026928296,42.0,0.0012217306,965,1807,-603
153741194,0,2228514,-0.23479764,-0.21848695,-0.078355156,3574,0.0008695776,-0.0011243768,-0.000113679824,42.0,0.0012217306,675,1765,-496
153844870,0,2228514,-0.014961323,-0.22994615,-0.038407955,4290,0.0009919906,-0.0009780407,-0.0002549609,42.0,0.0012217306,401,1491,-428
153947830,0,2228514,-0.2171155,-0.3575848,-0.057274427,4269,-2.5375371e-05,-0.0025509514,-0.00013477806,42.0,0.0012217306,498,1917,-391
154049395,0,2228514,-0.0018636219,0.01330265,-0.018423267,3610,0.0013910931,0.0023791164,-8.824138e-05,42.0,0.0012217306,1009,1199,-587
154150175,0,2228514,-0.059444927,-0.15808642,-0.04859501,4291,-0.00087403174,-0.0014378332,-0.00020562943,42.0,0.0012217306,952,2230,-359
154249560,0,2228514,-0.14708728,-0.07465977,-0.022164691,4223,0.0011626342,-0.0013888563,0.00020845854,42.0,0.0012217306,577,1459,-400
154353962,0,2228514,-0.057169307,-0.1266181,-0.03128513,4302,0.0009969324,0.0013013928,-0.00048595664,42.0,0.0012217306,706,1494,-574
154454123,0,2228514,-0.072525725,-0.09036493,-0.045501757,3649,-0.0012247144,-0.001737126,8.538248e-05,42.0,0.0012217306,417,2114,-451
154553449,0,2228514,-0.12578931,-0.29409415,-0.045063443,4285,0.00047881977,0.00040578027,-0.0003629903,42.0,0.0012217306,1057,1467,-548
154656419,0,2228514,-0.04237606,-0.0880212,-0.043990206,3600,0.0011618697,0.0014929505,-0.00021003107,42.0,0.0012217306,895,1403,-510
154760069,0,2228514,-0.05124371,-0.2082922,-0.04237833,4288,0.0002505067,-0.0017611724,3.5996618e-05,42.0,0.0012217306,207,1823,-552
154858762,0,2228514,-0.23545425,-0.32608974,-0.046694588,3597,-0.0009827391,-0.0011564809,-0.00023254282,42.0,0.0012217306,1340,2506,-396
154962425,0,2228514,-0.09868116,-1.6149181,-0.03251486,4254,0.00054044573,-0.0071716956,3.3995835e-05,42.0,0.0012217306,923,3075,-564
155062514,0,2228514,0.071375884,-1.554879,-0.016406775,3545,0.00050312607,-0.0038189273,-0.00018734077,42.0,0.0012217306,865,2639,-628
155163340,0,2228514,-0.1876529,-0.6030618,-0.03578347,4300,-0.0021186434,-0.002509606,-4.8664588e-05,42.0,0.0012217306,767,2308,-414
155266290,0,2228514,-0.22564575,-0.5459685,-0.05864759,3528,-0.00020942875,-0.000884556,-0.0001825921,42.0,0.0012217306,962,1524,-600
155369985,0,2228514,0.24990876,1.5042988,-0.05573683,4278,0.0018541679,0.0077025415,-0.00015090838,42.0,0.0012217306,842,-114,-672
155468650,0,2228514,2.3134825,1.1709086,-0.059055347,3584,0.008323097,0.0041893306,-0.00038846038,42.0,0.0012217306,-745,779,-613
155572373,0,2228514,1.5872906,0.36066484,-0.07402538,4353,0.006403847,0.0029226851,-0.00023100838,42.0,0.0012217306,93,1419,-616
155672438,0,2228514,0.99716353,0.06775279,-0.111416474,4271,0.0054772994,2.9657505e-05,-6.05893e-05,42.0,0.0012217306,-48,1284,-593
155776085,0,2228514,0.062644705,-0.10867627,-0.10705999,4280,0.002024233,0.0001899279,-0.0007120617,42.0,0.0012217306,814,1487,-451
155879046,0,2228514,0.042133927,0.048858084,-0.09326378,4284,-0.0007693034,0.00088407286,-0.0007349135,42.0,0.0012217306,1108,1822,-428
155982020,0,2228514,-0.144354,-0.21812582,-0.041434877,3590,-0.0005957462,-0.0010298707,-0.00010795315,42.0,0.0012217306,614,1492,-495
156081391,0,2228514,-0.21658394,-0.17593068,-0.070894875,4223,-0.0024681801,-0.00303924,-0.00011903652,42.0,0.0012217306,1257,2506,-337
156184392,0,2228514,-3.3772752,-0.009065352,-0.11195067,3618,-0.014100442,0.0002775023,-0.00059869734,42.0,0.0012217306,4060,1600,-853
156283774,0,2228514,-2.2275,-0.002405048,-0.12331755,4322,-0.0073878234,-0.00044737005,-0.0005061699,42.0,0.0012217306,1993,1552,-670
156386786,0,2228514,0.18750322,-0.14726798,-0.03762432,3627,0.0018895543,-0.00080603815,0.0003863271,42.0,0.0012217306,983,1361,-654
156490369,0,2228514,-0.32642478,1.416367,-0.11216868,4227,-0.0025107022,0.005602396,-0.0008836339,42.0,0.0012217306,1495,1007,-221
156591900,0,2228514,0.33978227,2.370973,-0.13446578,4274,0.0033744436,0.009726493,-0.00018234972,42.0,0.0012217306,90,-583,-380
156695619,0,2228514,0.06567865,0.10943209,-0.08122577,4334,-0.00073375215,-0.0005292723,-0.0003693857,42.0,0.0012217306,958,2164,-550
156794245,0,2228514,-0.035888363,0.6886416,-0.07760831,4235,0.00037379572,0.0028441655,-0.0003019542,42.0,0.0012217306,919,1172,-635
156897941,0,2228514,-0.23164175,-0.79822916,-0.03254981,4298,-0.0008053423,-0.0029501873,-0.000834293,42.0,0.0012217306,145,1947,-266
157000879,0,2228514,-0.36557028,-0.45338213,0.0008653279,4288,-0.00029572632,-0.0026378275,-0.0002597839,42.0,0.0012217306,462,2154,-205
157108160,0,2228514,-0.23333472,-3.9459844,0.048817825,4320,-0.0015104397,-0.015692808,0.0004283023,42.0,0.0012217306,1467,4957,-133
157207585,0,2228514,1.6513951,0.08355952,0.08283588,4353,0.0108296415,0.0016129726,0.00012432631,42.0,0.0012217306,-1104,2133,-110
157311905,0,2228514,2.576617,-0.47451097,0.05088712,4291,0.008019742,-0.0036245836,0.00016926834,42.0,0.0012217306,-442,2345,-487
157414917,0,2228514,0.79870903,-0.40286586,-0.030590013,3628,0.0028678803,-0.00021522671,-0.00016595813,42.0,0.0012217306,809,1826,-673
157514250,0,2228514,0.28049073,-0.28482717,-0.057825077,4288,0.00035219302,-0.0018284378,9.764666e-05,42.0,0.0012217306,696,2173,-533
157617215,0,2228514,-0.019459201,-0.12658308,-0.0650737,3571,0.00054841454,-0.000606669,-0.0001593173,42.0,0.0012217306,882,1548,-484
157720912,0,2228514,-0.03772451,-0.17109609,-0.07746919,4317,0.0006132883,0.00034911098,-0.00016404636,42.0,0.0012217306,1200,2262,-661
157819619,0,2228514,-0.26287884,-0.11705083,-0.09573745,3639,2.630303e-05,-0.00085759204,-0.00016809869,42.0,0.0012217306,1114,2148,-475
157921799,0,2228514,-2.8081996,-0.42172524,-0.15017052,4289,-0.011807093,-0.0027303698,-0.00019067501,42.0,0.0012217306,2917,1769,-640
158024768,0,2228514,-2.2880857,-0.09194001,-0.123699114,4252,-0.009465404,-0.001752341,-0.00046809757,42.0,0.0012217306,1911,1978,-363
158124173,0,2228514,-0.7827628,-0.31117448,-0.058151405,4313,-0.0051775523,-0.001983199,-0.00011689551,42.0,0.0012217306,1981,2628,-670
158227112,0,2228514,-0.3177396,-0.23052697,0.0006774464,4263,0.00037878947,-0.00028701604,-7.239427e-05,42.0,0.0012217306,971,1880,3
158330813,0,2228514,-0.33737087,-0.18856286,0.017292319,4323,-0.0030021062,-0.0020494412,0.00079677877,42.0,0.0012217306,1018,1742,-780
158429450,0,2228514,-0.09008737,-0.1051555,-0.05027791,4268,0.00036437187,-0.00043838716,-0.0009114079,42.0,0.0012217306,51,2605,-41
158533208,0,2228514,-0.18466267,-0.1398336,0.0012336486,4359,-0.0017125992,0.00014491031,0.00046615716,42.0,0.0012217306,2033,1824,-623
158631795,0,2228514,-0.5333354,-0.25783983,-0.011437257,4241,-0.0029161123,-0.0010127085,-0.00039237973,42.0,0.0012217306,965,2473,-392
158736232,0,2228514,-1.5150508,-0.22456676,-0.009955284,3584,-0.005529556,-0.0012518823,0.0005572779,42.0,0.0012217306,2099,1706,-643
158834193,0,2228514,-0.8457526,-0.11893859,0.040015668,4344,-0.004375181,-0.0014911714,0.0001814027,42.0,0.0012217306,1540,1857,-552
158937863,0,2228514,-0.44900462,-0.22187819,-0.0022530213,4338,-0.0009937156,-0.0015629814,-0.00014896296,42.0,0.0012217306,656,2074,-501
159040774,0,2228514,-0.22994891,-0.21264122,0.009416042,4200,-0.0011987505,-0.0014009154,0.00018417079,42.0,0.0012217306,967,1972,-402
159143740,0,2228514,-0.16540053,-0.02651157,0.016370684,3580,-0.00087339996,0.00048594925,-0.00013836114,42.0,0.0012217306,1312,2486,-495
159247410,0,2228514,-0.14868875,-0.28466186,-0.062067006,4250,0.00018341662,-0.0025512225,-0.00030237588,42.0,0.0012217306,925,2129,-350
159348946,0,2228514,0.20785858,-0.22994919,-0.043735996,4296,0.002389153,-0.001744715,-0.00021612413,42.0,0.0012217306,485,2480,-410
159452615,0,2228514,-0.06937324,-0.24797012,-0.113736175,4276,0.0010026695,-0.00012535945,-0.00025683898,42.0,0.0012217306,420,1966,-222
159551284,0,2228514,0.101667866,-0.30208522,-0.1515909,4272,0.00057538453,-0.001133874,-0.00052720803,42.0,0.0012217306,864,1657,-574
159654995,0,2228514,0.13109441,-0.055753093,-0.12416589,4325,0.0012263514,0.00016090654,5.734068e-05,42.0,0.0012217306,913,1312,-751
159757986,0,2228514,0.4465263,-0.06843829,-0.108086295,4323,0.0012602473,-0.0025954447,-0.00043049894,42.0,0.0012217306,682,2397,-334
159857344,0,2228514,1.1103557,-0.30932376,-0.13719623,4329,0.0049699275,-0.00023416999,-0.0003028959,42.0,0.0012217306,725,1767,-708
159961694,0,2228514,0.079312995,-0.16304514,-0.15108019,4257,0.0016222574,-0.00044657438,-0.00084948214,42.0,0.0012217306,299,1664,-389
160064659,0,2228514,0.06285112,-0.34188396,-0.1538863,4279,-6.1958846e-05,-0.0025686526,-0.0005588844,42.0,0.0012217306,368,2486,-541
160776795,0,2228514,-0.19570436,-0.14241904,-0.061222065,4258,0.0004209765,-0.00091357157,-8.6667314e-05,42.0,0.0012217306,856,1611,-548
160875476,0,2228514,-0.03223687,-0.19545433,-0.03208272,4286,-0.0019108317,-0.0024733818,-3.3977543e-05,42.0,0.0012217306,1074,2405,-535
160979160,0,2228514,-0.19830412,-0.28746822,-0.030571928,4211,-0.0025824313,-0.00082301575,-3.460879e-05,42.0,0.0012217306,1508,1894,-487
161082123,0,2228514,-0.11522154,-0.25501525,-0.023805128,4304,0.0009897653,0.00027680304,2.0481251e-05,42.0,0.0012217306,1067,1615,-486
161181485,0,2228514,-0.05895868,-0.18117557,-0.027422924,4269,-0.0028076188,-0.0014105147,-0.00024322011,42.0,0.0012217306,869,2296,-534
161280159,0,2228514,-0.23803118,-0.24852972,-0.03036824,4294,-0.00049927115,-0.0006027472,0.00026814168,42.0,0.0012217306,781,1411,-627
161383159,0,2228514,-0.09153305,-0.20217817,-0.051476646,3598,-0.0002992307,-0.001557976,1.204286e-05,42.0,0.0012217306,559,2245,-533
161485368,0,2228514,-0.10781432,-0.29229492,-0.024295965,4299,0.00042211366,-0.0005236352,0.00012435846,42.0,0.0012217306,1400,1673,-627
161586178,0,2228514,-0.1465902,-0.20383348,-0.050082806,4294,-0.0021708466,-0.0025464625,-8.399164e-05,42.0,0.0012217306,810,2302,-565
161690565,0,2228514,0.08196354,-0.020868842,-0.022321263,4290,0.0006480923,0.0008905662,-0.0005838972,42.0,0.0012217306,1041,1845,-397
161790713,0,2228514,-0.12285596,0.055782557,-0.047763392,3623,-0.0012537752,-0.0006220363,-8.760651e-05,42.0,0.0012217306,1287,1986,-467
161890117,0,2228514,0.074330434,-0.13169235,-0.052100383,4357,-0.0016069957,-0.0025201035,-0.00021809488,42.0,0.0012217306,567,2565,-476
161993010,0,2228514,-0.10080602,-0.11102807,-0.034849614,3566,0.0003850415,-0.0009068194,-0.0003100346,42.0,0.0012217306,211,1794,-716
162096685,0,2228514,0.018283082,-0.07579793,-0.038883094,4254,0.000754641,-0.0013265025,2.8966651e-05,42.0,0.0012217306,862,2242,-319
162193971,0,2228514,0.0034579574,0.34665456,-0.02070779,3621,-0.0010780807,7.5658645e-05,0.00018503684,42.0,0.0012217306,799,1643,-503
162297608,0,2228514,0.0990214,0.034379426,-0.0050422763,4292,0.0014913871,0.0010529462,-0.00014688216,42.0,0.0012217306,922,1953,-629
162400568,0,2228514,-0.012287827,0.00475701,-0.025434181,4289,0.0011914881,0.0004068779,-0.000101907994,42.0,0.0012217306,490,1669,-451
162501408,0,2228514,0.03666168,-0.2697432,-0.026726844,4323,0.0017322404,-0.0010207605,-8.686527e-05,42.0,0.0012217306,578,1520,-548
162604363,0,2228514,0.5621583,-0.31596488,-0.001328527,4310,0.0031796347,-0.0014019797,0.00015241007,42.0,0.0012217306,779,2064,-335
162707309,0,2228514,-0.037352763,0.0026633393,0.0074116685,3572,-0.00024077555,-0.0008240676,0.00012706978,42.0,0.0012217306,60,1809,-452
162806680,0,2228514,-0.04604923,-0.20842507,-0.021010568,4291,-0.0014985304,-0.0014450949,7.9547695e-05,42.0,0.0012217306,568,2230,-613
162909640,0,2228514,0.18100052,0.045065604,0.01581514,3521,-0.00019110496,0.00093868864,-1.3371722e-05,42.0,0.0012217306,587,1575,-668
163013331,0,2228514,0.05568398,-0.1556677,-0.032609556,4307,-0.000733729,-0.0006818446,5.407573e-05,42.0,0.0012217306,962,2286,-458
163113415,0,2228514,0.34112248,-0.13020246,-0.005550452,3547,0.002640366,-0.00059271825,0.00019062638,42.0,0.0012217306,460,1121,-388
163217117,0,2228514,-0.14865331,-0.10725989,-0.061168805,4308,-0.0030158907,0.00046019716,-0.00028885278,42.0,0.0012217306,1634,2040,-661
163317220,0,2228514,-0.08115088,-0.13691235,-0.033122998,3583,-0.00068989996,-0.0018313067,0.00015530246,42.0,0.0012217306,1176,1942,-412
163416575,0,2228514,-0.1481301,-0.011248568,-0.020873617,4271,-0.001876552,0.00019165434,-0.00041958978,42.0,0.0012217306,984,1620,-333
163519561,0,2228514,-0.5471874,-0.13516998,-0.03304715,3600,-0.0019841404,-0.0020692449,-5.0416224e-05,42.0,0.0012217306,667,2069,-460
163623209,0,2228514,-0.23773389,0.15262778,-0.06505199,4262,-0.0031023107,0.000706195,-0.00045117748,42.0,0.0012217306,1202,1953,-518
163726177,0,2228514,-0.2038326,0.11003919,-0.013116377,4298,-0.0004088984,-0.00042142096,9.7598015e-05,42.0,0.0012217306,322,1052,-623
163825564,0,2228514,-0.26908442,-0.019220863,0.0012863484,4247,-0.000903066,-0.00017672867,-7.2991505e-05,42.0,0.0012217306,952,1517,-432
163929962,0,2228514,-0.17250781,-0.040444925,-0.033215906,4308,-0.0021988268,-0.0009954015,-0.00020242101,42.0,0.0012217306,1293,2208,-271
164030778,0,2228514,-0.11132617,0.013321148,-0.018952252,4295,-0.0016386813,0.00039932883,0.0001407672,42.0,0.0012217306,1451,1638,-361
164129430,0,2228514,-0.16098563,-0.23450857,-0.034237336,4264,-0.002471405,-0.00031610116,-0.00015059291,42.0,0.0012217306,1176,2542,-622
164233820,0,2228514,0.031130617,-0.18836585,-0.0005754229,3575,0.00035425767,7.0582355e-05,0.00012864068,42.0,0.0012217306,1153,2282,-453
164334635,0,2228514,-0.14436215,-0.26164895,-0.039111413,4290,-0.0017012398,-8.532915e-05,-0.0006788924,42.0,0.0012217306,1120,2107,-294
164437631,0,2228514,-0.1464731,-0.14531091,-0.008183399,3612,0.00018491827,-0.0002222263,0.00020129011,42.0,0.0012217306,1258,1655,-549
164536980,0,2228514,0.047343608,-0.053892884,-0.025568746,4290,-0.0012248523,-0.0007006125,-6.0218765e-05,42.0,0.0012217306,1495,2279,-443
164639940,0,2228514,0.055486966,0.12654275,0.017527545,4203,0.0013645941,0.0019278858,-0.00068212685,42.0,0.0012217306,126,1422,-177
164739324,0,2228514,-0.09629971,-0.098640926,-0.005399753,4273,0.0013574178,0.0004685125,-0.0002762618,42.0,0.0012217306,1123,1618,-322
164842304,0,2228514,-0.010554079,-0.19469288,-0.030755667,3542,0.0007969569,-0.00087890483,-0.000256493,42.0,0.0012217306,343,1714,-414
164944568,0,2228514,-0.033300642,-0.032284684,-0.03272091,4328,0.0012132209,0.0013287653,-2.9185061e-05,42.0,0.0012217306,1377,1691,-382
165044664,0,2228514,0.03088887,0.09821923,-0.016271187,3609,-0.00076557894,-0.0001129533,-0.00035647317,42.0,0.0012217306,1119,1965,-185
165148340,0,2228514,-0.13178733,-0.07396491,-0.00043484918,4324,0.00056293234,0.0004652238,0.00010751199,42.0,0.0012217306,355,1544,-627
165246975,0,2228514,-0.040434897,-0.07109053,-0.024727471,3576,0.00053134386,0.00022219658,0.00022166921,42.0,0.0012217306,1272,1635,-486
165350649,0,2228514,-0.09604249,-0.15592216,-0.0055617574,4289,-0.0019546303,-0.0021573007,7.321321e-05,42.0,0.0012217306,964,2486,-525
165449334,0,2228514,0.0021164538,-0.010819035,0.020801328,3569,0.0007293723,0.000107242115,0.00037984748,42.0,0.0012217306,620,871,-573
165554425,0,2228514,-0.07244682,-0.07244566,0.013518688,4254,-0.0016244672,0.0002336121,0.00010125124,42.0,0.0012217306,707,2361,-500
165657395,0,2228514,-0.047116097,-0.06794509,-0.007596086,4205,-0.0022454457,0.0004024507,-0.0008961475,42.0,0.0012217306,441,2238,-426
165756769,0,2228514,-0.03528438,-0.005961248,0.0052858004,4235,0.0006978723,5.5845343e-05,0.00068145886,42.0,0.0012217306,1026,1120,-570
165855439,0,2228514,-0.07331131,0.021178987,0.0049858578,4280,-0.00086229685,0.00057167275,-0.00016083487,42.0,0.0012217306,860,2004,-437
165960570,0,2228514,-0.19102672,-0.19493048,-0.0077267755,4316,-0.001620631,-5.3925556e-05,-1.2673004e-06,42.0,0.0012217306,1518,1715,-598
166059214,0,2228514,-0.038559485,-0.15658171,-0.02825392,4245,-0.000117155105,-0.0020598236,-0.000361665,42.0,0.0012217306,302,1844,-219
166162205,0,2228514,-0.20598495,-0.20144461,-0.05501421,3605,-0.0020891347,-0.0016792861,-0.0007533165,42.0,0.0012217306,702,2344,-292
166261566,0,2228514,-0.051423684,-0.20110169,-0.036511008,4216,0.0014695325,-0.0010414019,-0.00036358315,42.0,0.0012217306,623,2017,-147
166364538,0,2228514,-0.21893403,-0.03233604,-0.038753573,3593,2.1203728e-05,-0.0004939593,0.0004742427,42.0,0.0012217306,647,1889,-631
166463905,0,2228514,-0.042248867,-0.04865959,-0.076315194,4278,-0.00049454207,0.00033516332,-0.00061144936,42.0,0.0012217306,895,1822,-440
166566937,0,2228514,-0.12040418,-0.26025802,-0.08515463,3646,0.0006596303,-0.00094728667,-0.00040520637,42.0,0.0012217306,937,1607,-576
166670540,0,2228514,-0.08861697,-0.20615382,-0.089418486,4290,0.00072233647,-0.0021634344,-0.00014348171,42.0,0.0012217306,732,1849,-255
166770640,0,2228514,-0.09272534,-0.17028245,-0.0712073,3575,-0.0007723912,1.3011279e-05,-0.00014846752,42.0,0.0012217306,1490,1842,-682
166871455,0,2228514,-0.10603524,-0.20933707,-0.06871243,4290,-0.002050532,-0.0018539341,-0.0007472169,42.0,0.0012217306,366,2049,-440
166974415,0,2228514,-0.0742814,-0.046621423,-0.031772222,3576,-0.0012141473,0.00077901845,-0.00018382251,42.0,0.0012217306,1124,2088,-856
167075230,0,2228514,0.060083818,-0.026402941,-0.019481266,4290,7.43874e-05,-0.0014539439,0.00023620558,42.0,0.0012217306,779,1957,-388
167178199,0,2228514,-0.13178414,-0.059860483,-0.033131406,4231,-0.0014213652,0.0013624063,-0.0006393036,42.0,0.0012217306,751,1698,-521
167277575,0,2228514,-0.02645554,-0.19144273,-0.05553808,4257,-0.0006959159,-0.0002707863,0.00010707918,42.0,0.0012217306,954,1862,-691
167379108,0,2228514,-0.12510107,-0.14133164,-0.06891106,3568,0.00100505,-0.00048819845,-0.0005010083,43.0,0.0012217306,538,2167,-374
167482779,0,2228514,-0.2561375,0.17182818,-0.053190272,4269,-0.00068301294,7.942177e-05,-0.00025807088,43.0,0.0012217306,747,1656,-318
167581450,0,2228514,-0.09057886,-0.2148163,-0.026141744,4242,0.00078358175,-0.00043556243,0.00034302828,43.0,0.0012217306,1129,1723,-345
167683717,0,2228514,0.0051561343,0.12655908,-0.02978788,4313,-0.0009363632,-0.00038404338,-1.9559494e-07,43.0,0.0012217306,1242,2383,-404
167786654,0,2228514,-0.16319585,-0.1983661,-0.03679666,4290,0.0006091388,-0.0007716396,-0.00039369616,43.0,0.0012217306,794,1285,-329
167886041,0,2228514,-0.0647935,-0.26919216,-0.030225735,4279,-0.0022208581,-0.0026252987,-0.00030598647,43.0,0.0012217306,81,2245,-558
167988999,0,2228514,-0.1356922,-0.113785855,-0.020499459,4290,-0.0019481818,-7.474749e-05,-0.0005209774,43.0,0.0012217306,892,2501,-444
168088430,0,2228514,-0.03761382,-0.403304,-0.004377888,4335,0.00063426315,-0.00260628,0.00064770115,43.0,0.0012217306,789,1630,-420
168189976,0,2228514,-0.14139888,-0.29771578,-0.020154057,4351,-0.0009076637,-0.0021699974,7.331445e-06,43.0,0.0012217306,478,1978,-493
168295768,0,2228514,-0.15156269,-0.2292266,-0.0019911977,5007,-0.00047193174,-0.001953623,0.00020320501,43.0,0.0012217306,902,2053,-584
168400842,0,2228514,-0.04802662,-0.25209475,-0.032650616,4272,-0.0006269968,-0.00075031124,-0.00018312392,43.0,0.0012217306,1025,2191,-670
168499540,0,2228514,-0.06911842,-0.13009068,-0.019039258,3591,-0.000454552,-0.0016708741,-0.000119761855,42.0,0.0012217306,629,2041,-275
168600381,0,2228514,-0.1457554,-0.20630628,-0.06973131,4315,-0.0023055281,-0.0006715919,-0.0009630322,42.0,0.0012217306,781,2043,-768
168703289,0,2228514,-0.12859301,-0.30061466,-0.10810807,4294,-8.615491e-05,-0.00075689744,-0.00063898263,42.0,0.0012217306,821,2021,-313
168802668,0,2228514,-0.043204907,-0.04914198,-0.05960916,4257,-0.00077481224,-0.0012099483,-0.00045659833,42.0,0.0012217306,891,1985,-295
168907060,0,2228514,0.08251243,-0.23210472,-0.052259136,4268,0.0012535776,0.00091538497,0.00029234623,42.0,0.0012217306,1218,1924,-772
169007875,0,2228514,-0.016529707,-0.27525946,-0.064734116,4234,-0.0006053997,-0.0015425861,-0.00035802438,42.0,0.0012217306,1113,2531,-579
169106545,0,2228514,0.09643916,-0.18337995,-0.08198502,3539,0.0011918934,-0.0020791905,-0.0001289233,42.0,0.0012217306,236,2103,-259
169210226,0,2228514,-0.36250898,-0.16061592,-0.101224914,4251,-0.0016229362,0.0011979159,-0.0010775687,42.0,0.0012217306,830,2273,-577
169313199,0,2228514,-0.14411104,-0.29979026,-0.078989215,4269,-0.00040790343,-0.0028848073,-0.0003479767,42.0,0.0012217306,198,1889,-489
169412568,0,2228514,0.18722406,-0.24270798,-0.046857394,4293,0.002370822,-1.7511458e-05,-0.0001551228,42.0,0.0012217306,976,1662,-498
169515588,0,2228514,0.09314584,-0.14821522,-0.04888927,4353,-0.0007448295,-0.0025442522,-0.00049774616,42.0,0.0012217306,362,2580,-343
169614937,0,2228514,-0.07016937,-0.2590428,-0.058956467,4296,-0.00047558238,-0.002494154,0.00033347562,42.0,0.0012217306,820,2163,-678
169717919,0,2228514,-0.07447121,-0.20451805,-0.052732334,4339,-0.0008893922,0.00033608143,-0.00046350874,42.0,0.0012217306,1235,2128,-382
169820159,0,2228514,-0.26749763,-0.27462056,-0.06667314,4297,-0.00083114154,-0.0021442648,0.00012446861,42.0,0.0012217306,1421,2060,-154
169918810,0,2228514,-0.042729203,-0.23905772,-0.047629397,4300,-0.0008717697,0.0003106382,-0.0010553958,42.0,0.0012217306,710,1940,-689
170022459,0,2228514,-0.14047834,-0.22190757,-0.058703233,4245,-0.00010601217,-0.0018580903,-0.00039439267,42.0,0.0012217306,703,2279,-270
170125424,0,2228514,-0.1437643,-0.20586102,-0.06491873,4249,-0.0011015739,-0.0011622228,-0.0006240037,42.0,0.0012217306,822,2280,-128
170224805,0,2228514,-0.08161428,-0.26223946,-0.050764192,4288,0.0011577329,-0.00057411415,0.00025344445,42.0,0.0012217306,906,1410,-723
170327768,0,2228514,-0.30286682,-0.28241494,-0.08286594,4294,-0.0022252903,-0.0021988358,-0.00047780928,42.0,0.0012217306,524,1901,-426
170427160,0,2228514,-0.20389006,-0.246517,-0.07224229,4243,-0.0006215865,0.0007444116,-0.00022790568,42.0,0.0012217306,1049,1731,-793
170530147,0,2228514,-0.33780143,-0.054150756,-0.111340895,4328,-0.0012698626,-0.001276619,-0.00087817415,42.0,0.0012217306,421,2020,-260
170630210,0,2228514,-0.49910125,-0.3243325,-0.084937766,4988,-0.0031552196,-0.0024512243,-0.00015256893,42.0,0.0012217306,1010,2288,-479
170735315,0,2228514,-0.3050556,-0.08084286,-0.03748955,4290,-0.0011293463,-0.00084535556,-0.0004806892,43.0,0.0012217306,908,1840,-375
170834020,0,2228514,-0.38127455,-0.28118968,-0.07393391,3611,-0.0012337031,-0.0001773434,-0.000722452,43.0,0.0012217306,721,1546,-768
170937661,0,2228514,0.0006228722,0.00047501567,0.0015490123,4291,-0.0012354568,-0.00089263846,-0.0004984193,43.0,0.0012217306,925,2148,-237
171034930,0,2228514,-0.008297181,0.033292763,-0.007537791,3605,-0.0012254994,-0.00057726674,-0.00026947953,43.0,0.0012217306,736,1760,-279
171138575,0,2228514,-0.1307576,-0.24458829,-0.034889106,4290,-0.00093336124,-0.0015830909,-0.0003891059,43.0,0.0012217306,703,2122,-354
171240108,0,2228514,-0.02827249,0.03791208,-0.03143936,4293,-0.0006812028,2.0299307e-05,-0.00044361126,43.0,0.0012217306,1119,2191,-360
171343782,0,2228514,-0.02493426,-0.10287388,-0.06252327,4293,-0.00064029125,-0.0008124819,-0.0005538322,43.0,0.0012217306,1053,2191,-229
171442449,0,2228514,-0.069535926,0.18811853,-0.030269412,4240,0.0005228142,0.0020669983,-0.0005075892,43.0,0.0012217306,806,2008,-292
171546155,0,2228514,0.043566465,-0.3340243,-0.07181083,4320,-0.0016344757,-0.0009759255,-0.00052457536,43.0,0.0012217306,812,2082,-479
171644795,0,2228514,-0.10591544,0.060815573,-0.06764915,4278,-0.0014677127,0.00047272936,-0.00058755296,43.0,0.0012217306,1413,2111,-246
171748518,0,2228514,0.11699109,0.021296844,-0.008286829,4338,0.0006177938,0.0018884925,-0.00045564957,43.0,0.0012217306,752,2223,-431
171847141,0,2228514,-0.11883652,-0.12156013,0.009853877,4224,-0.0016733425,-0.0021653615,0.0003590171,43.0,0.0012217306,929,1847,-441
171950814,0,2228514,-0.15834342,-0.13001117,0.002033911,4289,-0.0027930965,-0.0010460416,0.00020431381,42.0,0.0012217306,1201,1993,-493
172053777,0,2228514,0.00970468,-0.058297023,0.013685429,4292,5.573997e-05,-0.0011922069,0.00059630134,42.0,0.0012217306,1019,2348,-219
172154590,0,2228514,-0.018930469,0.01712705,0.043881763,4290,0.0028958342,0.00056421343,0.0003928374,42.0,0.0012217306,763,1438,-509
172254690,0,2228514,-0.073215544,-0.19418442,0.024978435,4290,-0.00081081456,-0.00077361363,0.00029692368,42.0,0.0012217306,1403,2372,-440
172357650,0,2228514,0.05332644,0.10195505,0.061647467,3513,0.0015325618,-3.107626e-05,0.00026287718,42.0,0.0012217306,788,1249,-531
172665176,0,2228514,-0.0026693633,0.038926736,0.013015344,4366,0.0018607456,0.0006142857,0.00018611319,42.0,0.0012217306,796,920,-303
172766629,0,2228514,0.049383312,0.14429495,0.022804013,4274,9.232142e-05,0.0019962133,-6.8445835e-05,42.0,0.0012217306,1074,2005,-336
172867444,0,2228514,-0.08008292,0.08243772,-0.01934916,4286,-0.0015268265,6.1479455e-05,0.00012422667,42.0,0.0012217306,1194,2258,-543
172970405,0,2228514,0.050662026,0.048677947,0.00328755,4244,0.00096224697,0.00026158968,0.00046796384,42.0,0.0012217306,913,1610,-451
173071220,0,2228514,0.04856408,-0.24582705,-0.010457039,4243,0.0010118167,-0.0006206671,0.00013744224,42.0,0.0012217306,1061,1906,-686
173171320,0,2228514,0.048979335,0.021961894,-0.03479105,4290,-0.00056443695,-0.0018449248,-0.00023434879,42.0,0.0012217306,230,1865,-379
173274995,0,2228514,-0.046320226,0.00042262662,-0.05352416,4255,0.00043158024,-0.0018526837,-0.00017308231,42.0,0.0012217306,284,1940,-390
173373665,0,2228514,-0.06080596,-0.03769083,-0.077872954,4282,-0.0009382248,-0.0023980467,-8.6670574e-05,42.0,0.0012217306,424,2229,-480
173477361,0,2228514,0.01422724,0.18846127,-0.0732114,4312,0.0013482991,-0.0005190597,-0.00013499196,42.0,0.0012217306,816,1634,-395
173576009,0,2228514,0.0061586723,-0.09871486,-0.08584202,4279,0.0023385938,-8.5562555e-05,-0.00029368105,42.0,0.0012217306,205,1573,-539
173679727,0,2228514,-0.06723429,-0.10024871,-0.05579196,4332,0.00061868,-0.0023531795,-0.00016943907,42.0,0.0012217306,294,1814,-406
173782648,0,2228514,-0.0066688894,-0.31241062,-0.09189355,4293,-0.0016548772,-0.002322664,-0.00024493347,42.0,0.0012217306,1522,2323,-569
173882762,0,2228514,0.013704308,-0.04601306,-0.004448133,3592,0.0005180514,-0.0016053193,0.00023685549,42.0,0.0012217306,270,2189,-398
173982154,0,2228514,-0.03441687,0.0349951,-0.0138292825,4314,-0.0015110972,-0.0011966208,0.0003997359,42.0,0.0012217306,940,2123,-530
174085114,0,2228514,0.056276627,-0.16758096,0.05606804,3589,-0.000872044,-0.0005886154,0.00029846342,42.0,0.0012217306,757,1599,-488
174188765,0,2228514,-0.021921355,-0.10731324,0.06161055,4270,0.0014501485,-0.0011222438,0.00040852657,42.0,0.0012217306,816,1733,-337
174287435,0,2228514,0.027675701,0.09403951,0.0987921,3575,0.0019504712,0.00021587586,0.00067142054,42.0,0.0012217306,474,1439,-467
174391108,0,2228514,-0.07467818,-0.20688556,-0.0038814088,4289,-0.0011293459,-0.0013978806,-0.00019361646,42.0,0.0012217306,916,2149,-343
174494116,0,2228514,0.12235097,0.105407774,0.01830111,4337,0.00040423154,-0.0005812177,-6.137408e-06,42.0,0.0012217306,527,1512,-330
174597744,0,2228514,-0.2514156,-0.16273178,-0.01982805,4290,-0.0023026548,-0.0022804847,7.744908e-05,42.0,0.0012217306,1182,2334,-430
174696415,0,2228514,0.11231095,-0.046437066,-0.011610974,4257,0.00044854346,0.00102936,0.00021458724,42.0,0.0012217306,1262,1792,-600
174800090,0,2228514,0.20998031,-0.05206873,-0.023256203,4290,-0.000597617,-0.0015657346,0.00016622555,42.0,0.0012217306,972,2135,-267
174903050,0,2228514,-0.17974934,-0.0035723147,-0.03140075,4288,-0.003148158,0.0010452961,-0.00042540047,42.0,0.0012217306,1110,1777,-402
175002434,0,2228514,0.1585207,-0.016422374,-0.0020791986,4263,-0.0001424609,-0.00031025725,-8.8965506e-05,42.0,0.0012217306,966,1927,-390
175105397,0,2228514,-0.012535936,-0.028138991,-0.0026385458,4232,0.00011160332,0.0009078546,-0.00014366045,42.0,0.0012217306,747,1639,-550
175205523,0,2228514,-0.085600056,-0.12888685,0.0010123381,3561,4.270254e-05,0.0012318217,-7.5707925e-05,42.0,0.0012217306,1064,1840,-660
175304880,0,2228514,-0.104426906,0.018846735,0.0033486,4290,-5.7864363e-05,-0.0019209799,0.0004944536,42.0,0.0012217306,693,2187,-431
175407840,0,2228514,-0.25010556,0.06996078,-0.016686,3576,-0.0017959576,-0.0005163879,0.00019983451,42.0,0.0012217306,712,1716,-392
175511562,0,2228514,-0.06567303,-0.11885147,-0.021811873,4289,-0.0021298595,-0.0021319594,-1.9698604e-05,42.0,0.0012217306,917,2284,-420
175611618,0,2228514,0.058665235,0.060415808,-0.01747011,3578,0.0008731573,0.00012754931,-9.1181624e-05,42.0,0.0012217306,852,1842,-476
175711000,0,2228514,-0.20610622,-0.19011782,-0.03199368,4231,0.0005423537,0.0012332301,-0.00039205432,42.0,0.0012217306,804,1539,-472
175815390,0,2228514,0.15984885,-0.021821689,-0.016923605,3559,0.00044329325,0.0013788792,-0.0004490084,42.0,0.0012217306,783,1714,-680
175919065,0,2228514,0.011744085,-0.01215816,0.011355351,4252,0.00035409638,0.0009048189,0.00017654843,42.0,0.0012217306,1412,1556,-554
176022024,0,2228514,-0.0037601672,-0.05294606,0.018623028,4288,-0.0011128779,-0.0013645128,0.00056536763,42.0,0.0012217306,973,1978,-426
176122839,0,2228514,0.0065850425,-0.022898216,-0.030146316,4289,0.0020338332,-5.050188e-05,-0.00018283747,42.0,0.0012217306,737,1544,-349
176225800,0,2228514,-0.13560647,-0.16061628,-0.053091284,4290,-0.00122685,-0.00018323539,-0.00018869853,42.0,0.0012217306,1168,1714,-517
176325215,0,2228514,-0.081905626,-0.00074430526,-0.0047216113,4321,-0.0020240583,-0.0011959613,-0.00024051096,42.0,0.0012217306,1035,2195,-353
176428168,0,2228514,-0.062289122,-0.067992896,-0.008379098,4313,-0.00029397328,-5.8759233e-05,-3.7344675e-05,42.0,0.0012217306,559,1683,-207
176529000,0,2228514,-0.25444373,-0.09514536,-0.02157279,4316,-0.00056661543,0.0005489501,-8.98353e-05,43.0,0.0012217306,822,1449,-557
176631920,0,2228514,-0.050080117,-0.018342521,-0.030646253,4291,-0.002403419,-0.00079218537,-6.885703e-05,43.0,0.0012217306,1481,2279,-357
176734917,0,2228514,-0.17164294,-0.07355262,-0.031447243,3613,0.0001045575,-0.00050499436,-0.00020687566,43.0,0.0012217306,526,1646,-542
176838554,0,2228514,-0.013406156,-0.057345018,-0.020057738,4289,0.0014599637,0.00078961503,-8.94044e-05,43.0,0.0012217306,951,1772,-588
176937272,0,2228514,0.022028005,-0.07200157,-0.04444765,3613,0.00033305003,-0.0012718157,0.00023095937,43.0,0.0012217306,511,2069,-365
177040915,0,2228514,-0.09390275,-0.049612187,-0.04831678,4305,-0.0007366305,-0.0016067493,-0.00013153731,43.0,0.0012217306,729,2055,-422
177140999,0,2228514,0.001274262,-0.11451648,-0.027252553,4289,0.0015925866,0.001141326,-0.00018754622,43.0,0.0012217306,920,1315,-638
177240427,0,2228514,-0.16784611,-0.08580423,-0.02522124,4332,0.00084131083,-0.0013775413,-0.00024056768,43.0,0.0012217306,333,1607,-373
177343344,0,2228514,0.061691716,-0.12315468,-0.051904477,4284,0.0006768404,-0.0026578936,-0.00024180544,43.0,0.0012217306,66,1847,-319
177447020,0,2228514,-0.16582279,-0.00033209278,-0.03402106,4258,-0.00070617127,-0.0016736771,-1.602014e-05,43.0,0.0012217306,322,1961,-403
177545690,0,2228514,-0.04356677,-0.06199596,-0.039568495,4290,-0.0014131732,0.00081918814,-0.00032381937,43.0,0.0012217306,1307,1978,-367
177650124,0,2228514,-0.01252392,0.029509574,0.013936194,3619,-0.00012071232,-0.0012562604,0.00017841421,42.0,0.0012217306,345,1602,-465
177749465,0,2228514,-0.032164298,-0.031839855,-0.052435216,4247,-0.0015280221,-0.0016201593,0.00024795104,42.0,0.0012217306,1125,2080,-482
177852430,0,2228514,-0.03767261,0.0056558414,-0.012655916,3580,-0.0009658554,2.2087095e-05,0.00011827394,42.0,0.0012217306,1438,1799,-534
177956101,0,2228514,-0.14794761,-0.18280822,-0.010458786,4291,0.0005390208,-0.0010655255,0.00011158369,42.0,0.0012217306,647,1729,-610
178059074,0,2228514,0.080459215,-0.029047407,0.019072438,4261,0.0023362609,0.0001228323,0.0001718367,42.0,0.0012217306,1017,1716,-555
178158446,0,2228514,-0.206419,-0.07966006,-0.018013498,4244,-0.0011088878,-4.7089925e-05,-0.00022104717,42.0,0.0012217306,197,1682,-452
178262836,0,2228514,0.03062667,-0.08185573,0.010219914,4291,0.0016281549,8.485852e-05,-1.1485748e-05,42.0,0.0012217306,264,1639,-512
178362220,0,2228514,-0.092750326,0.01348924,0.01424804,4211,-0.001542996,-0.00010490603,5.413734e-05,42.0,0.0012217306,913,1893,-479
178465216,0,2228514,0.005731786,-0.052137583,-0.004921616,4326,-0.0012879374,-0.0008513447,-4.981267e-05,42.0,0.0012217306,1183,1933,-281
178564568,0,2228514,0.041312624,-0.024606416,-0.003268592,4285,-0.0012381037,-0.0007433897,0.00017651025,42.0,0.0012217306,1108,1769,-345
178667575,0,2228514,-0.03316672,-0.087154426,-0.0015742882,4341,-0.0017187992,0.00014272059,-3.4407618e-05,42.0,0.0012217306,1159,1765,-367
178771200,0,2228514,0.0027523101,-0.00084163295,0.0002752903,4283,-0.0009874898,-0.0018904991,0.00034299964,42.0,0.0012217306,1054,2061,-376
178871299,0,2228514,0.025199916,-0.18609667,-0.0107162,4289,-0.00023859332,0.00042714266,-0.00035032918,42.0,0.0012217306,829,1722,-658
178974260,0,2228514,-0.16244073,-0.14543888,-0.040104266,3575,0.0017020886,-0.0006323683,-0.00032935143,42.0,0.0012217306,811,1563,-331
179077991,0,2228514,-0.08283608,-0.1442688,-0.004679655,4331,0.0011881911,-0.0012517865,6.8954887e-06,42.0,0.0012217306,264,1673,-487
179179465,0,2228514,-0.22394022,-0.14466077,0.0051173437,3575,-0.00063645374,-0.0005169477,3.7803573e-05,42.0,0.0012217306,294,1597,-642
179278916,0,2228514,0.0650708,-0.10357458,0.011557916,4356,-0.001397399,-0.00017707859,0.00030578507,42.0,0.0012217306,1319,1905,-355
179378968,0,2228514,-0.13044891,-0.044075873,0.009451556,3594,-3.1094733e-05,0.00070855627,-7.9697864e-05,42.0,0.0012217306,1164,1830,-566
179482662,0,2228514,-0.043147366,-0.070264585,-0.0069643706,4327,-0.0014987382,-0.00095101673,-0.00024956718,42.0,0.0012217306,670,1974,-369
179585589,0,2228514,-0.081241,-0.10123649,-0.026333222,4266,0.0006458638,-0.0024157169,0.0005009866,42.0,0.0012217306,507,1711,-372
179786500,0,2228514,-0.014215903,-0.036772616,0.0076561775,3532,-0.0002259567,-0.00046189752,-2.931208e-05,42.0,0.0012217306,517,1620,-415
180801086,0,2228514,-0.01816667,0.05674809,-0.06281464,4292,-0.0021317718,-0.0002840107,-0.00029762104,42.0,0.0012217306,1383,2231,-476
180904044,0,2228514,0.15523228,0.09360578,-0.074837945,3507,-0.00031262432,-0.0011760506,-1.4932841e-05,42.0,0.0012217306,577,1943,-345
181003430,0,2228514,-0.16813166,0.044274986,-0.08244358,4263,-0.001307604,0.00026733868,-0.0006231813,42.0,0.0012217306,990,2259,-462
