timestamp,error_count,device_id,x,y,z,temperature,scaling,x_raw,y_raw,z_raw,is_external
133182271,0,131618,0.08146629,0.18604113,0.36267918,40.625,8e-05,-3910,1179,4634,0
133282296,0,131618,0.0791219,0.18843462,0.36696792,40.75,8e-05,-3940,1150,4695,0
133392270,0,131618,0.07726256,0.18811549,0.36134335,40.625,8e-05,-3936,1127,4615,0
133902270,0,131618,0.07516069,0.18987072,0.36717886,40.75,8e-05,-3958,1101,4698,0
134002270,0,131618,0.07394808,0.18867399,0.36921775,40.625,8e-05,-3943,1086,4727,0
134102270,0,131618,0.075322375,0.18819527,0.36647576,40.625,8e-05,-3937,1103,4688,0
134202270,0,131618,0.075726576,0.18891333,0.36788192,40.625,8e-05,-3946,1108,4708,0
134302270,0,131618,0.075807415,0.19130683,0.36633515,40.75,8e-05,-3976,1109,4686,0
134402270,0,131618,0.07564574,0.18819527,0.36921775,40.625,8e-05,-3937,1107,4727,0
134512270,0,131618,0.07548405,0.18755701,0.36352286,40.75,8e-05,-3929,1105,4646,0
134612270,0,131618,0.0759691,0.19082813,0.36949897,40.625,8e-05,-3970,1111,4731,0
134712318,0,131618,0.0777476,0.18803571,0.3679522,40.625,8e-05,-3935,1133,4709,0
134812270,0,131618,0.0773434,0.18979093,0.36949897,40.625,8e-05,-3957,1128,4731,0
134912270,0,131618,0.078636855,0.18915267,0.36148396,40.5,8e-05,-3949,1144,4617,0
135012270,0,131618,0.07483732,0.18612091,0.36837408,40.625,8e-05,-3911,1097,4715,0
135122270,0,131618,0.07653499,0.18803571,0.36612424,40.75,8e-05,-3935,1118,4683,0
135222270,0,131618,0.07378639,0.18843462,0.36696792,40.625,8e-05,-3940,1084,4695,0
135322307,0,131618,0.081547126,0.18699853,0.36049965,40.75,8e-05,-3922,1180,4603,0
135422295,0,131618,0.07629246,0.18931223,0.36781162,40.5,8e-05,-3951,1115,4707,0
135522271,0,131618,0.07968778,0.18707831,0.36753038,40.625,8e-05,-3923,1157,4703,0
135622271,0,131618,0.07718172,0.18907289,0.368585,40.75,8e-05,-3948,1126,4718,0
135722305,0,131618,0.07936443,0.18580177,0.35958567,40.75,8e-05,-3907,1153,4590,0
135832270,0,131618,0.07839433,0.18675919,0.36521026,40.625,8e-05,-3919,1141,4670,0
135932339,0,131618,0.08098124,0.18516351,0.3590232,40.625,8e-05,-3899,1173,4582,0
136032275,0,131618,0.08009199,0.18931223,0.34489146,40.75,8e-05,-3951,1162,4381,0
136132270,0,131618,0.07799013,0.1866794,0.34116518,40.625,8e-05,-3918,1136,4328,0
136242271,0,131618,0.07815181,0.19202487,0.34622732,40.625,8e-05,-3985,1138,4400,0
136342298,0,131618,0.08251722,0.19178551,0.3176123,40.75,8e-05,-3982,1192,3993,0
136442271,0,131618,0.085265815,0.1928227,0.31838566,40.75,8e-05,-3995,1226,4004,0
136542270,0,131618,0.08292142,0.20127973,0.30087918,40.625,8e-05,-4101,1197,3755,0
136642270,0,131618,0.07362471,0.19832774,0.2951843,40.75,8e-05,-4064,1082,3674,0
136742270,0,131618,0.08332563,0.20215733,0.27085802,40.625,8e-05,-4112,1202,3328,0
136842270,0,131618,0.07313967,0.19393967,0.2617181,40.625,8e-05,-4009,1076,3198,0
136952270,0,131618,0.090277955,0.1928227,0.27880272,40.625,8e-05,-3995,1288,3441,0
137052297,0,131618,0.08429572,0.19194509,0.27247506,40.625,8e-05,-3984,1214,3351,0
137152270,0,131618,0.08971207,0.19050899,0.30341023,40.75,8e-05,-3966,1281,3791,0
137252270,0,131618,0.08025367,0.18197218,0.3365952,40.625,8e-05,-3859,1164,4263,0
137362271,0,131618,0.08073872,0.19529597,0.29448122,40.625,8e-05,-4026,1170,3664,0
137462270,0,131618,0.074109755,0.18013717,0.346157,40.625,8e-05,-3836,1088,4399,0
137562273,0,131618,0.07758592,0.18428591,0.3503051,40.625,8e-05,-3888,1131,4458,0
137662317,0,131618,0.08372983,0.19074833,0.28618497,40.625,8e-05,-3969,1207,3546,0
137762277,0,131618,0.069906026,0.18651982,0.34475085,40.625,8e-05,-3916,1036,4379,0
137862270,0,131618,0.07710087,0.19370031,0.30038702,40.625,8e-05,-4006,1125,3748,0
137962270,0,131618,0.07960694,0.19290249,0.2855522,40.625,8e-05,-3996,1156,3537,0
138072281,0,131618,0.074109755,0.18468481,0.31922936,40.625,8e-05,-3893,1088,4016,0
138172291,0,131618,0.08429572,0.19856709,0.28892696,40.75,8e-05,-4067,1214,3585,0
138272274,0,131618,0.08001115,0.19872667,0.28801295,40.625,8e-05,-4069,1161,3572,0
139292345,0,131618,0.07055275,0.19298227,0.31958088,40.625,8e-05,-3997,1044,4021,0
139392270,0,131618,0.07807097,0.19816819,0.28660682,40.625,8e-05,-4062,1137,3552,0
139492270,0,131618,0.07475648,0.19130683,0.2960983,40.625,8e-05,-3976,1096,3687,0
139592270,0,131618,0.074999005,0.18939203,0.31754196,40.625,8e-05,-3952,1099,3992,0
139692270,0,131618,0.07766676,0.19745013,0.30411333,40.75,8e-05,-4053,1132,3801,0
139802303,0,131618,0.06869341,0.19529597,0.3022853,40.75,8e-05,-4026,1021,3775,0
139902308,0,131618,0.07265462,0.20008297,0.3185966,40.5,8e-05,-4086,1070,4007,0
140002270,0,131618,0.088580295,0.19864687,0.274514,40.625,8e-05,-4068,1267,3380,0
140102271,0,131618,0.08518498,0.19362053,0.2953249,40.625,8e-05,-4005,1225,3676,0
140202270,0,131618,0.07928358,0.18819527,0.30158225,40.75,8e-05,-3937,1152,3765,0
140302275,0,131618,0.07014854,0.19202487,0.31641707,40.75,8e-05,-3985,1039,3976,0
140412270,0,131618,0.07718172,0.19194509,0.30439454,40.75,8e-05,-3984,1126,3805,0
140512298,0,131618,0.0809004,0.20104037,0.28752083,40.875,8e-05,-4098,1172,3565,0
140612270,0,131618,0.07524153,0.19178551,0.30094948,40.625,8e-05,-3982,1102,3756,0
140712270,0,131618,0.0763733,0.1942588,0.29391876,40.75,8e-05,-4013,1116,3656,0
140812270,0,131618,0.07548405,0.19178551,0.3126908,40.75,8e-05,-3982,1105,3923,0
140922270,0,131618,0.072897136,0.19545555,0.31873718,40.75,8e-05,-4028,1073,4009,0
141022270,0,131618,0.080334514,0.1990458,0.28822386,40.625,8e-05,-4073,1165,3575,0
141122270,0,131618,0.07128032,0.19824797,0.30003548,40.625,8e-05,-4063,1053,3743,0
141222306,0,131618,0.0745948,0.19848731,0.29876998,40.75,8e-05,-4066,1094,3725,0
141322270,0,131618,0.09189478,0.20183821,0.28084162,40.75,8e-05,-4108,1308,3470,0
141432284,0,131618,0.07467565,0.19952449,0.2826696,40.625,8e-05,-4079,1095,3496,0
141532270,0,131618,0.07192705,0.18651982,0.35951537,40.625,8e-05,-3916,1061,4589,0
141632270,0,131618,0.0692593,0.18771657,0.365843,40.75,8e-05,-3931,1028,4679,0
141732270,0,131618,0.08138545,0.19960429,0.3119877,40.625,8e-05,-4080,1178,3913,0
141832284,0,131618,0.07645415,0.19800861,0.2766232,40.625,8e-05,-4060,1117,3410,0
141932276,0,131618,0.07661583,0.1980884,0.30826142,40.75,8e-05,-4061,1119,3860,0
142042311,0,131618,0.08955038,0.20439127,0.2718423,40.625,8e-05,-4140,1279,3342,0
142142270,0,131618,0.071684524,0.19872667,0.3096676,40.75,8e-05,-4069,1058,3880,0
142242270,0,131618,0.08170881,0.19266313,0.3119174,40.75,8e-05,-3993,1182,3912,0
142342271,0,131618,0.073705554,0.18811549,0.3462976,40.625,8e-05,-3936,1083,4401,0
142442305,0,131618,0.06772332,0.18508373,0.34833652,40.75,8e-05,-3898,1009,4430,0
142552281,0,131618,0.07467565,0.19210465,0.31262046,40.625,8e-05,-3986,1095,3922,0
142652320,0,131618,0.068289205,0.1980884,0.2913174,40.625,8e-05,-4061,1016,3619,0
142752270,0,131618,0.058749963,0.20638585,0.29293445,40.625,8e-05,-4165,898,3642,0
142852270,0,131618,0.049534086,0.20933783,0.28970033,40.625,8e-05,-4202,784,3596,0
142952270,0,131618,0.03296168,0.20702413,0.306785,40.75,8e-05,-4173,579,3839,0
143052270,0,131618,0.015095815,0.20925805,0.32689282,40.625,8e-05,-4201,358,4125,0
143162270,0,131618,0.0024846168,0.20814109,0.29637954,40.75,8e-05,-4187,202,3691,0
143262270,0,131618,-0.015381248,0.21069415,0.29975426,40.75,8e-05,-4219,-19,3739,0
143362276,0,131618,-0.030660199,0.21564071,0.28217748,40.75,8e-05,-4281,-208,3489,0
143462271,0,131618,-0.057418577,0.20718369,0.30277747,40.75,8e-05,-4175,-539,3782,0
143562270,0,131618,-0.094605446,0.19625339,0.31852627,40.625,8e-05,-4038,-999,4006,0
143672270,0,131618,-0.10721664,0.19752991,0.27528736,40.625,8e-05,-4054,-1155,3391,0
143772270,0,131618,-0.117806815,0.1876368,0.3275959,40.75,8e-05,-3930,-1286,4135,0
143872270,0,131618,-0.09694983,0.20630607,0.20378496,40.625,8e-05,-4164,-1028,2374,0
143972278,0,131618,-0.1183727,0.1818924,0.30629283,40.625,8e-05,-3858,-1293,3832,0
144072274,0,131618,-0.11772597,0.18747723,0.33104095,40.875,8e-05,-3928,-1285,4184,0
144172270,0,131618,-0.10826757,0.18644005,0.29869965,40.625,8e-05,-3915,-1168,3724,0
144272276,0,131618,-0.119504474,0.18779637,0.32787713,40.625,8e-05,-3932,-1307,4139,0
144382270,0,131618,-0.10592318,0.19346097,0.3159249,40.75,8e-05,-4003,-1139,3969,0
144482270,0,131618,-0.090967596,0.1947375,0.25391397,40.75,8e-05,-4019,-954,3087,0
144582293,0,131618,-0.1102886,0.19689165,0.30341023,40.75,8e-05,-4046,-1193,3791,0
144692270,0,131618,-0.099213384,0.18987072,0.30952695,40.75,8e-05,-3958,-1056,3878,0
144792319,0,131618,-0.10527646,0.18939203,0.32105735,40.625,8e-05,-3952,-1131,4042,0
144892270,0,131618,-0.111986265,0.1847646,0.35979658,40.75,8e-05,-3894,-1214,4593,0
144992270,0,131618,-0.10317459,0.18644005,0.34095424,40.625,8e-05,-3915,-1105,4325,0
145092270,0,131618,-0.10074936,0.20008297,0.3150109,40.625,8e-05,-4086,-1075,3956,0
145192307,0,131618,-0.098809175,0.19800861,0.30298838,40.625,8e-05,-4060,-1051,3785,0
145302270,0,131618,-0.10163861,0.19569491,0.28175563,40.625,8e-05,-4031,-1086,3483,0
145402312,0,131618,-0.1053573,0.19338118,0.3096676,40.875,8e-05,-4002,-1132,3880,0
145502283,0,131618,-0.10309375,0.19290249,0.3090348,40.875,8e-05,-3996,-1104,3871,0
145602270,0,131618,-0.10802505,0.1980884,0.32119796,40.75,8e-05,-4061,-1165,4044,0
145702271,0,131618,-0.10729748,0.19513641,0.30938634,40.625,8e-05,-4024,-1156,3876,0
145812271,0,131618,-0.09816244,0.19768949,0.292372,40.75,8e-05,-4056,-1043,3634,0
145912295,0,131618,-0.106327385,0.19306207,0.30284777,40.75,8e-05,-3998,-1144,3783,0
146012300,0,131618,-0.09331199,0.19122703,0.3039727,40.75,8e-05,-3975,-983,3799,0
146112270,0,131618,-0.10107272,0.1947375,0.32021365,40.625,8e-05,-4019,-1079,4030,0
146212281,0,131618,-0.09549469,0.19306207,0.3128314,40.75,8e-05,-3998,-1010,3925,0
146322270,0,131618,-0.10018347,0.19609381,0.3178935,40.75,8e-05,-4036,-1068,3997,0
146422270,0,131618,-0.10568066,0.19880645,0.33786076,40.75,8e-05,-4070,-1136,4281,0
146522271,0,131618,-0.099213384,0.19050899,0.3029181,40.75,8e-05,-3966,-1056,3784,0
146622270,0,131618,-0.09872834,0.19258335,0.31030035,40.75,8e-05,-3992,-1050,3889,0
146732270,0,131618,-0.10462973,0.1947375,0.30776927,40.625,8e-05,-4019,-1123,3853,0
146832270,0,131618,-0.10285122,0.19697143,0.2687488,40.75,8e-05,-4047,-1101,3298,0
146932283,0,131618,-0.09331199,0.19218445,0.27809963,40.75,8e-05,-3987,-983,3431,0
147032270,0,131618,-0.09298862,0.19497685,0.29743412,40.75,8e-05,-4022,-979,3706,0
147132273,0,131618,-0.09072508,0.21755551,0.20694879,40.875,8e-05,-4305,-951,2419,0
147232270,0,131618,-0.0958989,0.20311475,0.23071261,40.75,8e-05,-4124,-1015,2757,0
147332270,0,131618,-0.10074936,0.185722,0.33012697,40.75,8e-05,-3906,-1075,4171,0
147432270,0,131618,-0.103740476,0.18947181,0.345243,40.75,8e-05,-3953,-1112,4386,0
147542278,0,131618,-0.109561026,0.19505663,0.3432041,40.75,8e-05,-4023,-1184,4357,0
147642281,0,131618,-0.10099188,0.19162595,0.31543276,40.75,8e-05,-3980,-1078,3962,0
147742270,0,131618,-0.09420124,0.19210465,0.27894336,40.875,8e-05,-3986,-994,3443,0
147842270,0,131618,-0.103012905,0.19864687,0.30776927,40.75,8e-05,-4068,-1103,3853,0
147942270,0,131618,-0.10244702,0.20000319,0.30537882,40.875,8e-05,-4085,-1096,3819,0
148042270,0,131618,-0.107459165,0.19330141,0.30783957,40.75,8e-05,-4001,-1158,3854,0
148152273,0,131618,-0.10180029,0.20207757,0.2935672,40.75,8e-05,-4111,-1088,3651,0
148252270,0,131618,-0.10317459,0.19721077,0.3069256,40.75,8e-05,-4050,-1105,3841,0
148352313,0,131618,-0.10737833,0.18620071,0.32408053,40.75,8e-05,-3912,-1157,4085,0
148452270,0,131618,-0.10794421,0.19258335,0.29947302,40.75,8e-05,-3992,-1164,3735,0
148552307,0,131618,-0.09945591,0.20877935,0.28154472,40.75,8e-05,-4195,-1059,3480,0
148652270,0,131618,-0.10212366,0.19928515,0.2618587,40.625,8e-05,-4076,-1092,3200,0
148752270,0,131618,-0.09201853,0.19609381,0.2746546,40.875,8e-05,-4036,-967,3382,0
148862270,0,131618,-0.10479141,0.19561511,0.30003548,40.875,8e-05,-4030,-1125,3743,0
148962270,0,131618,-0.097919926,0.20096059,0.261929,40.75,8e-05,-4097,-1040,3201,0
149062270,0,131618,-0.105842344,0.19832774,0.2599604,40.875,8e-05,-4064,-1138,3173,0
149162309,0,131618,-0.09945591,0.18963137,0.30783957,40.75,8e-05,-3955,-1059,3854,0
149272270,0,131618,-0.09977926,0.19920535,0.2804198,40.75,8e-05,-4075,-1063,3464,0
149372306,0,131618,-0.101315245,0.19226421,0.2698737,40.875,8e-05,-3988,-1082,3314,0
149472270,0,131618,-0.09703067,0.20239669,0.26544437,40.75,8e-05,-4115,-1029,3251,0
149572270,0,131618,-0.104144685,0.19792883,0.24779727,40.75,8e-05,-4059,-1117,3000,0
149672289,0,131618,-0.096868984,0.20263605,0.24758634,40.875,8e-05,-4118,-1027,2997,0
149772294,0,131618,-0.095413856,0.20048189,0.25482798,40.625,8e-05,-4091,-1009,3100,0
149872270,0,131618,-0.10479141,0.18931223,0.29209077,40.75,8e-05,-3951,-1125,3630,0
149982270,0,131618,-0.086440496,0.20319453,0.20737064,40.75,8e-05,-4125,-898,2425,0
150082272,0,131618,-0.08660218,0.21117285,0.20055084,40.875,8e-05,-4225,-900,2328,0
150182270,0,131618,-0.0878148,0.21133241,0.19070783,40.75,8e-05,-4227,-915,2188,0
150282270,0,131618,-0.09646478,0.19577469,0.28217748,40.75,8e-05,-4032,-1022,3489,0
150382270,0,131618,-0.09565637,0.19729057,0.28175563,40.875,8e-05,-4051,-1012,3483,0
150482313,0,131618,-0.097596556,0.20183821,0.2833024,41.0,8e-05,-4108,-1036,3505,0
150582271,0,131618,-0.0949288,0.20104037,0.26509282,40.75,8e-05,-4098,-1003,3246,0
150692270,0,131618,-0.10058768,0.19609381,0.2669911,40.75,8e-05,-4036,-1073,3273,0
150792270,0,131618,-0.09937506,0.19385989,0.27310783,40.625,8e-05,-4008,-1058,3360,0
150892270,0,131618,-0.096707314,0.20558803,0.26291332,40.875,8e-05,-4155,-1025,3215,0
150992270,0,131618,-0.105033934,0.19441837,0.28780204,40.875,8e-05,-4015,-1128,3569,0
151092308,0,131618,-0.09994095,0.20646565,0.25335154,40.75,8e-05,-4166,-1065,3079,0
151192305,0,131618,-0.09226105,0.20167865,0.27824026,40.875,8e-05,-4106,-970,3433,0
151302292,0,131618,-0.09727319,0.19601403,0.2992621,40.875,8e-05,-4035,-1032,3732,0
151402270,0,131618,-0.099698424,0.19210465,0.29019248,40.75,8e-05,-3986,-1062,3603,0
151502270,0,131618,-0.097596556,0.19729057,0.25707778,40.875,8e-05,-4051,-1036,3132,0
151602271,0,131618,-0.099213384,0.20415193,0.28667712,40.75,8e-05,-4137,-1056,3553,0
151702269,0,131618,-0.097111516,0.19354075,0.2961686,40.75,8e-05,-4004,-1030,3688,0
151812270,0,131618,-0.10479141,0.18651982,0.36401504,40.75,8e-05,-3916,-1125,4653,0
151912298,0,131618,-0.104063846,0.19242379,0.36310104,40.75,8e-05,-3990,-1116,4640,0
152012270,0,131618,-0.102932066,0.19737035,0.3666867,40.75,8e-05,-4052,-1102,4691,0
152112270,0,131618,-0.09994095,0.19737035,0.36724916,40.75,8e-05,-4052,-1065,4699,0
152212270,0,131618,-0.09816244,0.19417901,0.36619455,40.75,8e-05,-4012,-1043,4684,0
152312305,0,131618,-0.09533301,0.19441837,0.36626485,40.875,8e-05,-4015,-1008,4685,0
152422270,0,131618,-0.09331199,0.19816819,0.29476243,40.875,8e-05,-4062,-983,3668,0
152522309,0,131618,-0.10147693,0.19370031,0.28773174,40.75,8e-05,-4006,-1084,3568,0
152622304,0,131618,-0.10842925,0.19354075,0.2903331,40.875,8e-05,-4004,-1170,3605,0
152722270,0,131618,-0.1043872,0.20048189,0.30052763,40.75,8e-05,-4091,-1120,3750,0
152822270,0,131618,-0.0891891,0.21300787,0.14550032,40.75,8e-05,-4248,-932,1545,0
152932270,0,131618,-0.10689327,0.18484437,0.36443686,40.75,8e-05,-3895,-1151,4659,0
153032270,0,131618,-0.08967414,0.19026965,0.35832015,40.75,8e-05,-3963,-938,4572,0
153132270,0,131618,-0.09703067,0.19577469,0.3050273,40.875,8e-05,-4032,-1029,3814,0
153232270,0,131618,-0.107135795,0.19210465,0.31353447,40.875,8e-05,-3986,-1154,3935,0
153332288,0,131618,-0.10317459,0.19210465,0.28520066,40.75,8e-05,-3986,-1105,3532,0
153432270,0,131618,-0.104063846,0.19976385,0.27992764,40.75,8e-05,-4082,-1116,3457,0
153542271,0,131618,-0.10188113,0.19577469,0.29968396,40.875,8e-05,-4032,-1089,3738,0
153642270,0,131618,-0.10794421,0.18939203,0.3206355,40.875,8e-05,-3952,-1164,4036,0
153742270,0,131618,-0.10859094,0.18851441,0.3332908,40.75,8e-05,-3941,-1172,4216,0
153842270,0,131618,-0.10818674,0.19784905,0.31901842,40.75,8e-05,-4058,-1167,4013,0
153942270,0,131618,-0.09986011,0.20127973,0.30432424,40.75,8e-05,-4101,-1064,3804,0
154042284,0,131618,-0.11053112,0.19409923,0.332658,40.75,8e-05,-4011,-1196,4207,0
154142270,0,131618,-0.09913254,0.19960429,0.27057678,40.75,8e-05,-4080,-1055,3324,0
154252270,0,131618,-0.11958532,0.19034941,0.3022853,40.875,8e-05,-3964,-1308,3775,0
154352270,0,131618,-0.1120671,0.19186531,0.31627646,40.625,8e-05,-3983,-1215,3974,0
154452283,0,131618,-0.103983,0.19018985,0.3259085,40.75,8e-05,-3962,-1115,4111,0
154552270,0,131618,-0.102204494,0.19210465,0.296028,40.75,8e-05,-3986,-1093,3686,0
154652270,0,131618,-0.112471305,0.1947375,0.31726074,40.75,8e-05,-4019,-1220,3988,0
154752278,0,131618,-0.1089143,0.19752991,0.32393995,40.75,8e-05,-4054,-1176,4083,0
154862299,0,131618,-0.10163861,0.19338118,0.28077132,40.75,8e-05,-4002,-1086,3469,0
154962270,0,131618,-0.07431435,0.18923245,0.30551946,40.875,8e-05,-3950,-748,3821,0
155062307,0,131618,-0.0026892081,0.19433859,0.33757952,40.875,8e-05,-4014,138,4277,0
155162270,0,131618,0.04565372,0.18979093,0.2960983,40.75,8e-05,-3957,736,3687,0
155262270,0,131618,0.06748079,0.18931223,0.3233775,40.75,8e-05,-3951,1006,4075,0
155362270,0,131618,0.04104578,0.19569491,0.27219385,40.875,8e-05,-4031,679,3347,0
155462310,0,131618,-0.041816257,0.23981503,0.2550389,40.875,8e-05,-4584,-346,3103,0
155572271,0,131618,-0.06841295,0.3570964,0.14725798,40.75,8e-05,-6054,-675,1570,0
155672327,0,131618,-0.102527864,0.38510033,0.2011836,40.75,8e-05,-6405,-1097,2337,0
155772270,0,131618,-0.10357879,0.4008974,0.16223341,40.75,8e-05,-6603,-1110,1783,0
155872270,0,131618,-0.102932066,0.40169522,0.112807475,40.75,8e-05,-6613,-1102,1080,0
155982271,0,131618,-0.090240024,0.41597643,0.092137165,40.75,8e-05,-6792,-945,786,0
156082270,0,131618,-0.109884396,0.40337068,0.16842046,40.75,8e-05,-6634,-1188,1871,0
156182289,0,131618,-0.10285122,0.35502204,0.2022382,40.625,8e-05,-6028,-1101,2352,0
156282270,0,131618,-0.11368392,0.22074685,0.29202047,40.75,8e-05,-4345,-1235,3629,0
156382270,0,131618,-0.10163861,0.21572049,0.28801295,40.75,8e-05,-4282,-1086,3572,0
156482270,0,131618,-0.12928623,0.20782195,0.2119406,40.875,8e-05,-4183,-1428,2490,0
156592270,0,131618,-0.25855103,0.21859269,0.18838769,40.875,8e-05,-4318,-3027,2155,0
156692270,0,131618,-0.27471924,0.21157177,0.22157267,40.75,8e-05,-4230,-3227,2627,0
156792286,0,131618,-0.30648974,0.20901869,0.19914469,40.875,8e-05,-4198,-3620,2308,0
156892284,0,131618,-0.2969505,0.21436419,0.2286737,40.75,8e-05,-4265,-3502,2728,0
157002270,0,131618,-0.30398366,0.19561511,0.15386687,40.75,8e-05,-4030,-3589,1664,0
157102271,0,131618,-0.16752404,0.21492267,0.21925254,40.75,8e-05,-4272,-1901,2594,0
157212270,0,131618,-0.11513906,0.20407213,0.3110034,40.75,8e-05,-4136,-1253,3899,0
157312319,0,131618,-0.10939935,0.3312466,0.22044778,40.75,8e-05,-5730,-1182,2611,0
157412270,0,131618,-0.09994095,0.36635125,0.19337949,40.75,8e-05,-6170,-1065,2226,0
157512270,0,131618,-0.095575534,0.39874324,0.15316379,40.75,8e-05,-6576,-1011,1654,0
157612289,0,131618,-0.09816244,0.40680137,0.12897813,40.75,8e-05,-6677,-1043,1310,0
157722270,0,131618,-0.106650755,0.40353024,0.13818836,40.875,8e-05,-6636,-1148,1441,0
157822270,0,131618,-0.10899514,0.40440786,0.17003752,40.875,8e-05,-6647,-1177,1894,0
157922271,0,131618,-0.09929422,0.3641971,0.20048052,40.875,8e-05,-6143,-1057,2327,0
158022270,0,131618,-0.10236618,0.26199478,0.25974947,40.75,8e-05,-4862,-1095,3170,0
158122270,0,131618,-0.106569916,0.21627899,0.32576793,40.875,8e-05,-4289,-1147,4109,0
158222270,0,131618,-0.09872834,0.1980884,0.31325325,40.75,8e-05,-4061,-1050,3931,0
158322288,0,131618,-0.09476713,0.1866794,0.3079099,40.75,8e-05,-3918,-1001,3855,0
158422303,0,131618,-0.10778253,0.18277001,0.3178232,40.75,8e-05,-3869,-1162,3996,0
158532270,0,131618,-0.09832413,0.18348806,0.3226744,40.75,8e-05,-3878,-1045,4065,0
158632295,0,131618,-0.10171945,0.17933933,0.34608668,40.75,8e-05,-3826,-1087,4398,0
158732270,0,131618,-0.08425779,0.13210766,0.30551946,40.75,8e-05,-3234,-871,3821,0
158832270,0,131618,-0.09573722,0.08080703,0.31824505,40.75,8e-05,-2591,-1013,4002,0
158932270,0,131618,-0.102932066,0.07107347,0.3607106,40.875,8e-05,-2469,-1102,4606,0
159042290,0,131618,-0.10058768,0.061020788,0.3151515,40.75,8e-05,-2343,-1073,3958,0
159142271,0,131618,-0.09282693,0.056951843,0.30657405,40.75,8e-05,-2292,-977,3836,0
159242306,0,131618,-0.09953674,0.06620669,0.30319932,41.0,8e-05,-2408,-1060,3788,0
159352272,0,131618,-0.09751572,0.07506264,0.34390715,40.75,8e-05,-2519,-1035,4367,0
159452352,0,131618,-0.091776006,0.07633917,0.30523822,40.875,8e-05,-2535,-964,3817,0
159552270,0,131618,-0.09597974,0.07833375,0.3453133,40.625,8e-05,-2560,-1016,4387,0
159652270,0,131618,-0.09824328,0.09038102,0.34355563,40.875,8e-05,-2711,-1044,4362,0
159752284,0,131618,-0.091776006,0.10067306,0.34039178,40.875,8e-05,-2840,-964,4317,0
159852270,0,131618,-0.09533301,0.14654842,0.3235884,41.0,8e-05,-3415,-1008,4078,0
159962270,0,131618,-0.08999751,0.18683895,0.27908394,40.625,8e-05,-3920,-942,3445,0
160062270,0,131618,-0.100830205,0.19290249,0.3119174,40.75,8e-05,-3996,-1076,3912,0
160772270,0,131618,-0.10818674,0.19306207,0.32351807,40.75,8e-05,-3998,-1167,4077,0
160882271,0,131618,-0.09751572,0.19633317,0.31023002,40.875,8e-05,-4039,-1035,3888,0
160982271,0,131618,-0.10681244,0.20327431,0.31951058,40.875,8e-05,-4126,-1150,4020,0
161082270,0,131618,-0.09226105,0.1980884,0.29673105,40.75,8e-05,-4061,-970,3696,0
161182285,0,131618,-0.096868984,0.19625339,0.28723958,40.625,8e-05,-4038,-1027,3561,0
161282270,0,131618,-0.10188113,0.19489707,0.30073857,40.75,8e-05,-4021,-1089,3753,0
161382281,0,131618,-0.10754001,0.20000319,0.33694676,40.75,8e-05,-4085,-1159,4268,0
161482270,0,131618,-0.108348414,0.20008297,0.30945665,40.75,8e-05,-4086,-1169,3877,0
161582270,0,131618,-0.09775824,0.20040211,0.29876998,40.875,8e-05,-4090,-1038,3725,0
161692306,0,131618,-0.11020776,0.20119995,0.33097064,40.875,8e-05,-4100,-1192,4183,0
161792270,0,131618,-0.09646478,0.19497685,0.28913787,40.875,8e-05,-4022,-1022,3588,0
161892270,0,131618,-0.104063846,0.20375301,0.30861297,40.75,8e-05,-4132,-1116,3865,0
161992307,0,131618,-0.106246546,0.20088081,0.28885666,40.875,8e-05,-4096,-1143,3584,0
162092270,0,131618,-0.10317459,0.20973675,0.3099488,40.875,8e-05,-4207,-1105,3884,0
162192270,0,131618,-0.11885775,0.20072125,0.29848874,40.875,8e-05,-4094,-1299,3721,0
162302270,0,131618,-0.11901943,0.20271581,0.31135494,40.75,8e-05,-4119,-1301,3904,0
162402270,0,131618,-0.135511,0.2138057,0.30776927,40.875,8e-05,-4258,-1505,3853,0
162502270,0,131618,-0.12807362,0.20750283,0.29075494,40.875,8e-05,-4179,-1413,3611,0
162602297,0,131618,-0.12217223,0.23048039,0.29708257,40.875,8e-05,-4467,-1340,3701,0
162702274,0,131618,-0.106327385,0.25058576,0.285271,40.75,8e-05,-4719,-1144,3533,0
162802270,0,131618,-0.10365963,0.2502666,0.28273994,40.875,8e-05,-4715,-1111,3497,0
162912270,0,131618,-0.10697412,0.24165004,0.28281024,40.875,8e-05,-4607,-1152,3498,0
163012270,0,131618,-0.10317459,0.25680885,0.28133377,40.875,8e-05,-4797,-1105,3477,0
163112271,0,131618,-0.11643252,0.2671009,0.30277747,40.875,8e-05,-4926,-1269,3782,0
163212270,0,131618,-0.10357879,0.26367024,0.2737406,40.75,8e-05,-4883,-1110,3369,0
163312289,0,131618,-0.10972271,0.26837742,0.27345937,40.75,8e-05,-4942,-1186,3365,0
163412270,0,131618,-0.10244702,0.26390958,0.2562341,40.875,8e-05,-4886,-1096,3120,0
163522270,0,131618,-0.10737833,0.24843162,0.29708257,40.75,8e-05,-4692,-1157,3701,0
163622271,0,131618,-0.11263299,0.23303346,0.30263686,40.75,8e-05,-4499,-1222,3780,0
163722270,0,131618,-0.12435493,0.23821937,0.3101597,40.875,8e-05,-4564,-1367,3887,0
163822270,0,131618,-0.13454092,0.22513492,0.27894336,40.875,8e-05,-4400,-1493,3443,0
163922270,0,131618,-0.122738115,0.21236959,0.30432424,40.875,8e-05,-4240,-1347,3804,0
164032270,0,131618,-0.12880118,0.20774217,0.28787234,40.75,8e-05,-4182,-1422,3570,0
164132270,0,131618,-0.1305797,0.20742303,0.32647097,41.0,8e-05,-4178,-1444,4119,0
164232270,0,131618,-0.115704946,0.21165155,0.2830915,40.875,8e-05,-4231,-1260,3502,0
164332270,0,131618,-0.1102886,0.20750283,0.2983481,40.875,8e-05,-4179,-1193,3719,0
164432270,0,131618,-0.10462973,0.213327,0.2844273,40.875,8e-05,-4252,-1123,3521,0
164532286,0,131618,-0.10616571,0.20447105,0.31803414,40.875,8e-05,-4141,-1142,3999,0
164632270,0,131618,-0.11222879,0.21627899,0.2846382,40.875,8e-05,-4289,-1217,3524,0
164742308,0,131618,-0.11190542,0.20798151,0.30383208,40.75,8e-05,-4185,-1213,3797,0
164842270,0,131618,-0.11441149,0.21444397,0.28920817,41.0,8e-05,-4266,-1244,3589,0
164942270,0,131618,-0.11489654,0.20965697,0.28576314,40.875,8e-05,-4206,-1250,3540,0
165042270,0,131618,-0.11748345,0.21149197,0.30446485,40.75,8e-05,-4229,-1282,3806,0
165142309,0,131618,-0.1237082,0.21316743,0.32176042,40.75,8e-05,-4250,-1359,4052,0
165242270,0,131618,-0.1148157,0.21205047,0.27606073,40.875,8e-05,-4236,-1249,3402,0
165342270,0,131618,-0.11804934,0.21460353,0.29455152,40.875,8e-05,-4268,-1289,3665,0
165452270,0,131618,-0.111986265,0.20750283,0.28766143,41.0,8e-05,-4179,-1214,3567,0
165552270,0,131618,-0.11538158,0.21891183,0.31353447,40.875,8e-05,-4322,-1256,3935,0
165652270,0,131618,-0.10786337,0.21101329,0.2931454,40.875,8e-05,-4223,-1163,3645,0
165752309,0,131618,-0.119504474,0.21835333,0.28379452,40.875,8e-05,-4315,-1307,3512,0
165852270,0,131618,-0.121929705,0.21101329,0.292372,40.875,8e-05,-4223,-1337,3634,0
165952270,0,131618,-0.11635167,0.21404505,0.30186346,40.625,8e-05,-4261,-1268,3769,0
166052270,0,131618,-0.1183727,0.21364613,0.29448122,40.875,8e-05,-4256,-1293,3664,0
166162302,0,131618,-0.11683673,0.21197069,0.29673105,40.875,8e-05,-4235,-1274,3696,0
166262270,0,131618,-0.11311803,0.21228981,0.31023002,40.75,8e-05,-4239,-1228,3888,0
166362270,0,131618,-0.109561026,0.20343389,0.28991127,40.875,8e-05,-4128,-1184,3599,0
166462270,0,131618,-0.120312884,0.20854001,0.30165255,40.875,8e-05,-4192,-1317,3766,0
166562271,0,131618,-0.12136382,0.21476309,0.30868328,40.875,8e-05,-4270,-1330,3866,0
166672305,0,131618,-0.12395073,0.20534867,0.31599522,41.0,8e-05,-4152,-1362,3970,0
166772270,0,131618,-0.11926195,0.20909849,0.29841843,41.0,8e-05,-4199,-1304,3720,0
166872270,0,131618,-0.11513906,0.20734325,0.28991127,40.875,8e-05,-4177,-1253,3599,0
166972292,0,131618,-0.12750773,0.21867247,0.29012218,41.0,8e-05,-4319,-1406,3602,0
167072283,0,131618,-0.1228998,0.20590717,0.30277747,40.75,8e-05,-4159,-1349,3782,0
167172272,0,131618,-0.1237082,0.21867247,0.29982457,40.75,8e-05,-4319,-1359,3740,0
167282270,0,131618,-0.124759145,0.21915117,0.28998154,41.0,8e-05,-4325,-1372,3600,0
167382270,0,131618,-0.12249559,0.21173133,0.28688806,40.875,8e-05,-4232,-1344,3556,0
167482270,0,131618,-0.13146895,0.20526889,0.2775372,40.75,8e-05,-4151,-1455,3423,0
167582280,0,131618,-0.12928623,0.21500243,0.2717017,40.75,8e-05,-4273,-1428,3340,0
167682329,0,131618,-0.13227735,0.20646565,0.27423275,40.875,8e-05,-4166,-1465,3376,0
167782270,0,131618,-0.1444035,0.19888623,0.31255016,40.75,8e-05,-4071,-1615,3921,0
167892287,0,131618,-0.13801707,0.21588005,0.30734745,40.875,8e-05,-4284,-1536,3847,0
167992270,0,131618,-0.13332829,0.20566781,0.28695837,40.875,8e-05,-4156,-1478,3557,0
168092280,0,131618,-0.12524419,0.21292809,0.29265323,40.875,8e-05,-4247,-1378,3638,0
168192270,0,131618,-0.12168718,0.20167865,0.30263686,40.75,8e-05,-4106,-1334,3780,0
168292280,0,131618,-0.1148157,0.20981653,0.2961686,40.75,8e-05,-4208,-1249,3688,0
168402303,0,131618,-0.11538158,0.20973675,0.27416247,40.875,8e-05,-4207,-1256,3375,0
168502296,0,131618,-0.11433065,0.20734325,0.29202047,40.75,8e-05,-4177,-1243,3629,0
168602270,0,131618,-0.1169984,0.20455085,0.2883645,40.875,8e-05,-4142,-1276,3577,0
168702270,0,131618,-0.108348414,0.20630607,0.2942703,40.875,8e-05,-4164,-1169,3661,0
168802271,0,131618,-0.11133953,0.20686455,0.2853413,40.75,8e-05,-4171,-1206,3534,0
168912270,0,131618,-0.10689327,0.21308763,0.29841843,40.75,8e-05,-4249,-1151,3720,0
169012273,0,131618,-0.10939935,0.21308763,0.3022853,40.875,8e-05,-4249,-1182,3775,0
169112334,0,131618,-0.10390216,0.22162445,0.31430784,40.875,8e-05,-4356,-1114,3946,0
169212270,0,131618,-0.1043872,0.21404505,0.28421637,40.875,8e-05,-4261,-1120,3518,0
169312270,0,131618,-0.09994095,0.21803421,0.29785597,40.875,8e-05,-4311,-1065,3712,0
169412270,0,131618,-0.1053573,0.21388549,0.3119877,40.875,8e-05,-4259,-1132,3913,0
169522270,0,131618,-0.10754001,0.22840604,0.30636314,40.875,8e-05,-4441,-1159,3833,0
169622270,0,131618,-0.10147693,0.24787314,0.29469213,40.875,8e-05,-4685,-1084,3667,0
169722288,0,131618,-0.11012692,0.23798002,0.31079248,40.875,8e-05,-4561,-1191,3896,0
169822292,0,131618,-0.094282076,0.24053308,0.28049007,40.875,8e-05,-4593,-995,3465,0
169922271,0,131618,-0.10317459,0.2371024,0.29391876,40.875,8e-05,-4550,-1105,3656,0
170022270,0,131618,-0.10681244,0.24316594,0.3092457,41.0,8e-05,-4626,-1150,3874,0
170132270,0,131618,-0.10155777,0.23813958,0.26438975,40.875,8e-05,-4563,-1085,3236,0
170232317,0,131618,-0.10640823,0.23359194,0.30551946,41.0,8e-05,-4506,-1145,3821,0
170332270,0,131618,-0.10212366,0.23558651,0.29694197,41.0,8e-05,-4531,-1092,3699,0
170432303,0,131618,-0.09735404,0.23558651,0.27992764,41.0,8e-05,-4531,-1033,3457,0
170532315,0,131618,-0.10697412,0.21635877,0.32225254,40.875,8e-05,-4290,-1152,4059,0
170632270,0,131618,-0.11117785,0.21683747,0.29159862,41.0,8e-05,-4296,-1204,3623,0
170732270,0,131618,-0.107135795,0.21101329,0.29694197,40.875,8e-05,-4223,-1154,3699,0
170842270,0,131618,-0.11303719,0.18923245,0.32119796,40.875,8e-05,-3950,-1227,4044,0
170942270,0,131618,-0.10972271,0.18787614,0.3235884,40.875,8e-05,-3933,-1186,4078,0
171042270,0,131618,-0.11004608,0.19138661,0.30734745,40.875,8e-05,-3977,-1190,3847,0
171142273,0,131618,-0.105842344,0.19593425,0.29989487,40.875,8e-05,-4034,-1138,3741,0
171242272,0,131618,-0.11109701,0.19385989,0.29637954,40.875,8e-05,-4008,-1203,3691,0
171342270,0,131618,-0.106569916,0.19194509,0.32506484,40.875,8e-05,-3984,-1147,4099,0
171452270,0,131618,-0.10479141,0.18747723,0.2940594,40.875,8e-05,-3928,-1125,3658,0
171552270,0,131618,-0.10980355,0.19537577,0.32330716,40.875,8e-05,-4027,-1187,4074,0
171652282,0,131618,-0.11845354,0.19250357,0.3179638,40.75,8e-05,-3991,-1294,3998,0
171752270,0,131618,-0.1156241,0.19042921,0.3422198,41.0,8e-05,-3965,-1259,4343,0
171852285,0,131618,-0.106246546,0.18963137,0.29637954,41.0,8e-05,-3955,-1143,3691,0
171962277,0,131618,-0.11594747,0.19856709,0.28892696,40.875,8e-05,-4067,-1263,3585,0
172062270,0,131618,-0.11336056,0.19585446,0.31754196,41.0,8e-05,-4033,-1231,3992,0
172162270,0,131618,-0.10600403,0.18508373,0.32183072,40.875,8e-05,-3898,-1140,4053,0
172262306,0,131618,-0.102527864,0.20151909,0.2943406,40.75,8e-05,-4104,-1097,3662,0
172672286,0,131618,-0.107459165,0.19242379,0.29490307,40.875,8e-05,-3990,-1158,3670,0
172772270,0,131618,-0.11311803,0.20223713,0.30024642,40.875,8e-05,-4113,-1228,3746,0
172872270,0,131618,-0.12128298,0.19274293,0.32436177,41.0,8e-05,-3994,-1329,4089,0
172972270,0,131618,-0.12605259,0.19130683,0.3108628,40.875,8e-05,-3976,-1388,3897,0
173072270,0,131618,-0.11150122,0.19713101,0.29743412,40.875,8e-05,-4049,-1208,3706,0
173172270,0,131618,-0.1228998,0.19114727,0.3177529,40.875,8e-05,-3974,-1349,3995,0
173282270,0,131618,-0.12459746,0.20072125,0.30144164,40.875,8e-05,-4094,-1370,3763,0
173382283,0,131618,-0.11441149,0.19441837,0.30312902,41.0,8e-05,-4015,-1244,3787,0
173482270,0,131618,-0.12168718,0.19689165,0.2873802,40.875,8e-05,-4046,-1334,3563,0
173582270,0,131618,-0.12637596,0.20263605,0.30671468,40.875,8e-05,-4118,-1392,3838,0
173682270,0,131618,-0.12298063,0.19170573,0.31669828,40.875,8e-05,-3981,-1350,3980,0
173782271,0,131618,-0.12168718,0.19872667,0.29855904,40.875,8e-05,-4069,-1334,3722,0
173882270,0,131618,-0.1053573,0.19784905,0.27704504,40.75,8e-05,-4058,-1132,3416,0
173992293,0,131618,-0.10285122,0.19992341,0.2965201,41.0,8e-05,-4084,-1101,3693,0
174092273,0,131618,-0.11449233,0.20606673,0.29799658,40.875,8e-05,-4161,-1245,3714,0
174192270,0,131618,-0.10454889,0.20383279,0.30657405,41.0,8e-05,-4133,-1122,3836,0
174292270,0,131618,-0.10349796,0.21372591,0.30664435,41.0,8e-05,-4257,-1109,3837,0
174392270,0,131618,-0.10600403,0.21436419,0.29680136,40.75,8e-05,-4265,-1140,3697,0
174492270,0,131618,-0.1120671,0.2114122,0.2953249,41.0,8e-05,-4228,-1215,3676,0
174602271,0,131618,-0.10155777,0.20822087,0.29096586,40.875,8e-05,-4188,-1085,3614,0
174702270,0,131618,-0.109156825,0.2138057,0.29293445,40.75,8e-05,-4258,-1179,3642,0
174802297,0,131618,-0.11230962,0.21077393,0.31508124,40.75,8e-05,-4220,-1218,3957,0
174902288,0,131618,-0.109884396,0.2138057,0.31121433,40.875,8e-05,-4258,-1188,3902,0
175002270,0,131618,-0.10859094,0.22050749,0.29272354,40.875,8e-05,-4342,-1172,3639,0
175102270,0,131618,-0.107135795,0.21723637,0.2846382,40.875,8e-05,-4301,-1154,3524,0
175202305,0,131618,-0.109965235,0.2114122,0.33596244,40.75,8e-05,-4228,-1189,4254,0
175312270,0,131618,-0.10697412,0.21260895,0.31543276,40.875,8e-05,-4243,-1152,3962,0
175412305,0,131618,-0.09694983,0.20431149,0.27620137,40.875,8e-05,-4139,-1028,3404,0
175512303,0,131618,-0.10592318,0.20702413,0.2963092,40.875,8e-05,-4173,-1139,3690,0
175612270,0,131618,-0.11117785,0.21013567,0.3119877,40.875,8e-05,-4212,-1204,3913,0
175712270,0,131618,-0.10495309,0.21213025,0.29187986,40.875,8e-05,-4237,-1127,3627,0
175812270,0,131618,-0.109480195,0.21149197,0.31733105,40.875,8e-05,-4229,-1183,3989,0
175912270,0,131618,-0.10058768,0.20702413,0.29989487,41.0,8e-05,-4173,-1073,3741,0
176022271,0,131618,-0.106569916,0.21787465,0.2939891,40.875,8e-05,-4309,-1147,3657,0
176122282,0,131618,-0.11352224,0.2071039,0.3235884,40.875,8e-05,-4174,-1233,4078,0
176222298,0,131618,-0.10244702,0.21252917,0.29012218,40.875,8e-05,-4242,-1096,3602,0
176322270,0,131618,-0.10325543,0.21181111,0.2993324,40.875,8e-05,-4233,-1106,3733,0
176422270,0,131618,-0.11004608,0.21268873,0.2999652,41.0,8e-05,-4244,-1190,3742,0
176522270,0,131618,-0.10147693,0.21021545,0.2865365,40.875,8e-05,-4213,-1084,3551,0
176622270,0,131618,-0.108348414,0.20143929,0.3121986,40.875,8e-05,-4103,-1169,3916,0
176732270,0,131618,-0.10487225,0.19920535,0.29982457,41.0,8e-05,-4075,-1126,3740,0
176832270,0,131618,-0.10357879,0.19114727,0.31163615,41.0,8e-05,-3974,-1110,3908,0
176932293,0,131618,-0.10277039,0.19497685,0.301301,40.875,8e-05,-4022,-1100,3761,0
177042270,0,131618,-0.11085449,0.19880645,0.30762866,41.0,8e-05,-4070,-1200,3851,0
177142270,0,131618,-0.10826757,0.19585446,0.29666075,40.875,8e-05,-4033,-1168,3695,0
177242270,0,131618,-0.09816244,0.19154617,0.31255016,40.875,8e-05,-3979,-1043,3921,0
177342270,0,131618,-0.10673159,0.19314183,0.2999652,40.875,8e-05,-3999,-1149,3742,0
177442270,0,131618,-0.10721664,0.19346097,0.29778567,41.0,8e-05,-4003,-1155,3711,0
177542270,0,131618,-0.107459165,0.18811549,0.31163615,40.875,8e-05,-3936,-1158,3908,0
177642303,0,131618,-0.103821315,0.19449815,0.2833024,41.0,8e-05,-4016,-1113,3505,0
177742307,0,131618,-0.11101617,0.18811549,0.3316034,41.0,8e-05,-3936,-1202,4192,0
177852270,0,131618,-0.11255214,0.18979093,0.31304234,40.875,8e-05,-3957,-1221,3928,0
177952306,0,131618,-0.09945591,0.19689165,0.28414607,41.0,8e-05,-4046,-1059,3517,0
178052270,0,131618,-0.10818674,0.19338118,0.32309625,41.0,8e-05,-4002,-1167,4071,0
178152270,0,131618,-0.10487225,0.19338118,0.30481637,41.0,8e-05,-4002,-1126,3811,0
178262270,0,131618,-0.1134414,0.19417901,0.3148703,41.0,8e-05,-4012,-1232,3954,0
178362317,0,131618,-0.10471057,0.20000319,0.28695837,40.875,8e-05,-4085,-1124,3557,0
178462271,0,131618,-0.10681244,0.19330141,0.32794744,40.875,8e-05,-4001,-1150,4140,0
178562295,0,131618,-0.11796849,0.19872667,0.31051126,41.0,8e-05,-4069,-1288,3892,0
178662270,0,131618,-0.11724093,0.19960429,0.31163615,41.0,8e-05,-4080,-1279,3908,0
178772305,0,131618,-0.11004608,0.20080103,0.3344157,40.875,8e-05,-4095,-1190,4232,0
178872270,0,131618,-0.097596556,0.19888623,0.3079802,40.875,8e-05,-4071,-1036,3856,0
178972270,0,131618,-0.10907598,0.19186531,0.31149557,40.875,8e-05,-3983,-1178,3906,0
179072299,0,131618,-0.115300745,0.20135951,0.304957,40.75,8e-05,-4102,-1255,3813,0
179172270,0,131618,-0.10495309,0.20191799,0.29490307,41.0,8e-05,-4109,-1127,3670,0
179272270,0,131618,-0.10365963,0.20032233,0.30875358,41.0,8e-05,-4089,-1111,3867,0
179382270,0,131618,-0.0891891,0.21085373,0.20167574,41.125,8e-05,-4221,-932,2344,0
179482275,0,131618,-0.09994095,0.19768949,0.29082525,40.875,8e-05,-4056,-1065,3612,0
179582271,0,131618,-0.10859094,0.19306207,0.34622732,41.0,8e-05,-3998,-1172,4400,0
179782284,0,131618,-0.10430636,0.20096059,0.2794355,40.75,8e-05,-4097,-1119,3450,0
180802270,0,131618,-0.11352224,0.19130683,0.3147297,40.875,8e-05,-3976,-1233,3952,0
180902270,0,131618,-0.11101617,0.18971115,0.3119877,40.875,8e-05,-3956,-1202,3913,0
181002270,0,131618,-0.10867178,0.19242379,0.30186346,40.875,8e-05,-3990,-1173,3769,0
181102307,0,131618,-0.10487225,0.20167865,0.2698034,40.875,8e-05,-4106,-1126,3313,0
181212283,0,131618,-0.11174373,0.19338118,0.30615222,40.75,8e-05,-4002,-1211,3830,0
181312311,0,131618,-0.11554327,0.18093501,0.3176123,40.875,8e-05,-3846,-1258,3993,0
181412270,0,131618,-0.12160634,0.18939203,0.30748805,41.0,8e-05,-3952,-1333,3849,0
181512270,0,131618,-0.120312884,0.19290249,0.30411333,41.0,8e-05,-3996,-1317,3801,0
181612273,0,131618,-0.122010544,0.18484437,0.30052763,40.875,8e-05,-3895,-1338,3750,0
181712305,0,131618,-0.12435493,0.18628047,0.293286,41.0,8e-05,-3913,-1367,3647,0
181822270,0,131618,-0.120312884,0.19362053,0.2795058,41.0,8e-05,-4005,-1317,3451,0
181922319,0,131618,-0.117806815,0.19066855,0.27831057,40.875,8e-05,-3968,-1286,3434,0
182022270,0,131618,-0.11998952,0.18675919,0.27437338,41.0,8e-05,-3919,-1313,3378,0
182122270,0,131618,-0.12726521,0.19561511,0.28681773,41.0,8e-05,-4030,-1403,3555,0
182222270,0,131618,-0.12710352,0.18428591,0.29448122,40.875,8e-05,-3888,-1401,3664,0
182322270,0,131618,-0.11651336,0.19178551,0.2718423,40.875,8e-05,-3982,-1270,3342,0
182422270,0,131618,-0.12249559,0.19449815,0.27071738,40.875,8e-05,-4016,-1344,3326,0
182532270,0,131618,-0.13154978,0.18532309,0.29047373,40.875,8e-05,-3901,-1456,3607,0
182632273,0,131618,-0.124839984,0.18851441,0.24182114,40.875,8e-05,-3941,-1373,2915,0
182732270,0,131618,-0.12257643,0.18053608,0.2636867,41.0,8e-05,-3841,-1345,3226,0
182832270,0,131618,-0.118696064,0.18723787,0.23479043,40.875,8e-05,-3925,-1297,2815,0
182932270,0,131618,-0.12896287,0.17726497,0.28386483,40.875,8e-05,-3800,-1424,3513,0
183032270,0,131618,-0.12653764,0.19114727,0.23668873,40.875,8e-05,-3974,-1394,2842,0
183132270,0,131618,-0.12750773,0.18165305,0.27135015,41.0,8e-05,-3855,-1406,3335,0
183242270,0,131618,-0.11546243,0.18947181,0.19865255,41.0,8e-05,-3953,-1257,2301,0
183342279,0,131618,-0.119504474,0.18037651,0.22811124,41.0,8e-05,-3839,-1307,2720,0
183442270,0,131618,-0.12831615,0.18181263,0.23957132,41.0,8e-05,-3857,-1416,2883,0
183542270,0,131618,-0.13761286,0.16848882,0.31845596,40.875,8e-05,-3690,-1531,4005,0
183642271,0,131618,-0.13146895,0.1818924,0.24491467,40.875,8e-05,-3858,-1455,2959,0
183742270,0,131618,-0.13931052,0.17902021,0.26910034,40.875,8e-05,-3822,-1552,3303,0
183852288,0,131618,-0.13227735,0.18221153,0.24294606,41.0,8e-05,-3862,-1465,2931,0
183952270,0,131618,-0.14561613,0.17750432,0.2657959,40.75,8e-05,-3803,-1630,3256,0
184052274,0,131618,-0.13777454,0.17822237,0.2463208,41.0,8e-05,-3812,-1533,2979,0
184152270,0,131618,-0.14925398,0.17207906,0.27226415,41.0,8e-05,-3735,-1675,3348,0
184252320,0,131618,-0.13672361,0.17263754,0.2509611,40.875,8e-05,-3742,-1520,3045,0
184352270,0,131618,-0.13405585,0.17223862,0.24062592,41.0,8e-05,-3737,-1487,2898,0
184462307,0,131618,-0.13995725,0.16577618,0.27711535,41.0,8e-05,-3656,-1560,3417,0
184562270,0,131618,-0.14230165,0.16801012,0.263757,40.875,8e-05,-3684,-1589,3227,0
184662270,0,131618,-0.15426612,0.1656964,0.25967917,40.875,8e-05,-3655,-1737,3169,0
184762270,0,131618,-0.15564041,0.14989932,0.35107848,41.0,8e-05,-3457,-1754,4469,0
184862309,0,131618,-0.15200257,0.148543,0.36345258,41.0,8e-05,-3440,-1709,4645,0
184972274,0,131618,-0.15046658,0.15157478,0.3686553,41.0,8e-05,-3478,-1690,4719,0
185072295,0,131618,-0.14957732,0.15309064,0.3706942,41.0,8e-05,-3497,-1679,4748,0
185172270,0,131618,-0.14602032,0.15819678,0.37280342,41.0,8e-05,-3561,-1635,4778,0
185272270,0,131618,-0.14666706,0.16162746,0.36788192,41.0,8e-05,-3604,-1643,4708,0
185372282,0,131618,-0.1493348,0.16346246,0.35909352,41.0,8e-05,-3627,-1676,4583,0
185472270,0,131618,-0.14545444,0.16322312,0.2875911,41.125,8e-05,-3624,-1628,3566,0
185572270,0,131618,-0.15329602,0.1648188,0.27683413,40.875,8e-05,-3644,-1725,3413,0
185682270,0,131618,-0.15410443,0.1585957,0.29862934,40.875,8e-05,-3566,-1735,3723,0
185782270,0,131618,-0.15564041,0.15484588,0.29216108,41.0,8e-05,-3519,-1754,3631,0
185882271,0,131618,-0.16105676,0.15939352,0.29989487,40.875,8e-05,-3576,-1821,3741,0
185982270,0,131618,-0.15515536,0.14630908,0.3106519,40.875,8e-05,-3412,-1748,3894,0
186082270,0,131618,-0.1457778,0.16489856,0.28484914,41.0,8e-05,-3645,-1632,3527,0
186182270,0,131618,-0.15895489,0.15907438,0.32984573,41.125,8e-05,-3572,-1795,4167,0
186292270,0,131618,-0.151275,0.16641445,0.315714,41.0,8e-05,-3664,-1700,3966,0
186392270,0,131618,-0.14844556,0.15779786,0.28583342,40.875,8e-05,-3556,-1665,3541,0
186492270,0,131618,-0.15846984,0.1523726,0.33026758,41.0,8e-05,-3488,-1789,4173,0
186602270,0,131618,-0.15863153,0.16114876,0.324643,40.875,8e-05,-3598,-1791,4093,0
186702270,0,131618,-0.15289181,0.15388848,0.30052763,41.125,8e-05,-3507,-1720,3750,0
186802270,0,131618,-0.1562063,0.1576383,0.32597885,40.875,8e-05,-3554,-1761,4112,0
186902281,0,131618,-0.1503049,0.15843613,0.31578428,40.875,8e-05,-3564,-1688,3967,0
187002270,0,131618,-0.14602032,0.16051048,0.29462186,40.875,8e-05,-3590,-1635,3666,0
187102270,0,131618,-0.16129927,0.15269174,0.32604915,40.875,8e-05,-3492,-1824,4113,0
187212292,0,131618,-0.1625119,0.15261194,0.31901842,41.0,8e-05,-3491,-1839,4013,0
187312270,0,131618,-0.1494965,0.16059028,0.29848874,41.0,8e-05,-3591,-1678,3721,0
187412270,0,131618,-0.1597633,0.16234551,0.29841843,41.125,8e-05,-3613,-1805,3720,0
187512270,0,131618,-0.22378938,0.1576383,0.29968396,41.125,8e-05,-3554,-2597,3738,0
187612299,0,131618,-0.24375711,0.16035092,0.3029181,40.875,8e-05,-3588,-2844,3784,0
187712270,0,131618,-0.25135615,0.15596285,0.27303752,41.0,8e-05,-3533,-2938,3359,0
187812270,0,131618,-0.25547907,0.16362204,0.25672626,41.0,8e-05,-3629,-2989,3127,0
187922270,0,131618,-0.26453325,0.15700002,0.2922314,41.0,8e-05,-3546,-3101,3632,0
188022270,0,131618,-0.2526496,0.16625488,0.26860818,41.125,8e-05,-3662,-2954,3296,0
188122271,0,131618,-0.23834077,0.15301087,0.2816853,40.875,8e-05,-3496,-2777,3482,0
188222305,0,131618,-0.16065256,0.17008448,0.2903331,40.875,8e-05,-3710,-1816,3605,0
188322287,0,131618,-0.16404787,0.1576383,0.3148703,40.875,8e-05,-3554,-1858,3954,0
188422306,0,131618,-0.14965817,0.16082962,0.29715288,40.875,8e-05,-3594,-1680,3702,0
188522270,0,131618,-0.1486881,0.1637816,0.2942,41.0,8e-05,-3631,-1668,3660,0
188632270,0,131618,-0.14965817,0.18532309,0.30319932,40.875,8e-05,-3901,-1680,3788,0
188732270,0,131618,-0.14189744,0.20064147,0.2833727,40.875,8e-05,-4093,-1584,3506,0
188832270,0,131618,-0.15701471,0.20351365,0.29159862,41.0,8e-05,-4129,-1771,3623,0
188932311,0,131618,-0.15353854,0.20606673,0.28393516,40.875,8e-05,-4161,-1728,3514,0
189042288,0,131618,-0.13421755,0.21165155,0.25335154,40.875,8e-05,-4231,-1489,3079,0
189142270,0,131618,-0.15256846,0.22010857,0.2862553,41.0,8e-05,-4337,-1716,3547,0
189242271,0,131618,-0.13817874,0.22298077,0.269944,40.875,8e-05,-4373,-1538,3315,0
189342270,0,131618,-0.14860724,0.21915117,0.2719126,41.0,8e-05,-4325,-1667,3343,0
189442270,0,131618,-0.1494965,0.22393817,0.28808329,40.875,8e-05,-4385,-1678,3573,0
189542270,0,131618,-0.15240677,0.21875226,0.29448122,40.875,8e-05,-4320,-1714,3664,0
189642270,0,131618,-0.15216424,0.22848581,0.28027916,40.875,8e-05,-4442,-1711,3462,0
189752287,0,131618,-0.14731379,0.23151757,0.27015492,41.0,8e-05,-4480,-1651,3318,0
189852311,0,131618,-0.15733808,0.22226273,0.28414607,40.875,8e-05,-4364,-1775,3517,0
189952270,0,131618,-0.15669134,0.21811399,0.3029181,40.875,8e-05,-4312,-1767,3784,0
190052270,0,131618,-0.15353854,0.21779485,0.2989809,40.875,8e-05,-4308,-1728,3728,0
190152279,0,131618,-0.15733808,0.20574759,0.28899726,41.0,8e-05,-4157,-1775,3586,0
190252270,0,131618,-0.15402359,0.20614651,0.30481637,41.0,8e-05,-4162,-1734,3811,0
190362275,0,131618,-0.15499368,0.20893893,0.30087918,40.875,8e-05,-4197,-1746,3755,0
190462287,0,131618,-0.14779884,0.20630607,0.2951843,40.875,8e-05,-4164,-1657,3674,0
190562287,0,131618,-0.1475563,0.20702413,0.28477883,40.875,8e-05,-4173,-1654,3526,0
190662270,0,131618,-0.14513107,0.20367323,0.30087918,41.0,8e-05,-4131,-1624,3755,0
190762316,0,131618,-0.14796051,0.20646565,0.29644984,41.0,8e-05,-4166,-1659,3692,0
190862270,0,131618,-0.15394275,0.19880645,0.2911065,41.0,8e-05,-4070,-1733,3616,0
190962270,0,131618,-0.1520834,0.19888623,0.30277747,41.0,8e-05,-4071,-1710,3782,0
191072279,0,131618,-0.15863153,0.19872667,0.31360477,41.0,8e-05,-4069,-1791,3936,0
191172286,0,131618,-0.14213996,0.20151909,0.2835836,40.875,8e-05,-4104,-1587,3509,0
191272282,0,131618,-0.15588294,0.20822087,0.3099488,41.0,8e-05,-4188,-1757,3884,0
191372294,0,131618,-0.14319089,0.20869955,0.29209077,41.0,8e-05,-4194,-1600,3630,0
191472270,0,131618,-0.14965817,0.21891183,0.2726157,40.875,8e-05,-4322,-1680,3353,0
191572270,0,131618,-0.14537361,0.20542845,0.27908394,40.875,8e-05,-4153,-1627,3445,0
191682282,0,131618,-0.16283526,0.19705121,0.31346416,41.0,8e-05,-4048,-1843,3934,0
191782270,0,131618,-0.18635999,0.19792883,0.2747249,40.875,8e-05,-4059,-2134,3383,0
191882270,0,131618,-0.18967447,0.17933933,0.302215,41.0,8e-05,-3826,-2175,3774,0
191982289,0,131618,-0.18975532,0.1676112,0.28948942,41.125,8e-05,-3679,-2176,3593,0
192082270,0,131618,-0.19557588,0.1637816,0.30376178,41.0,8e-05,-3631,-2248,3796,0
192182270,0,131618,-0.20584267,0.15149498,0.29757476,41.0,8e-05,-3477,-2375,3708,0
192282270,0,131618,-0.2240319,0.15356936,0.307699,41.0,8e-05,-3503,-2600,3852,0
192392270,0,131618,-0.2527305,0.15309064,0.28991127,41.125,8e-05,-3497,-2955,3599,0
192492270,0,131618,-0.23987675,0.15739895,0.23696995,40.875,8e-05,-3551,-2796,2846,0
192592311,0,131618,-0.24456553,0.15021846,0.27149078,41.0,8e-05,-3461,-2854,3337,0
192692281,0,131618,-0.24715243,0.1566809,0.2991215,41.125,8e-05,-3542,-2886,3730,0
192792270,0,131618,-0.23825993,0.1614679,0.30523822,41.0,8e-05,-3602,-2776,3817,0
192892270,0,131618,-0.1948483,0.15947331,0.31163615,41.0,8e-05,-3577,-2239,3908,0
192992270,0,131618,-0.16315863,0.15915418,0.3020744,41.125,8e-05,-3573,-1847,3772,0
193102270,0,131618,-0.15273014,0.1613881,0.30854267,41.0,8e-05,-3601,-1718,3864,0
193202270,0,131618,-0.14585865,0.16106898,0.3109331,41.0,8e-05,-3597,-1633,3898,0
193302270,0,131618,-0.14699042,0.15269174,0.32618976,41.0,8e-05,-3492,-1647,4115,0
193402318,0,131618,-0.14844556,0.15293108,0.32675222,41.0,8e-05,-3495,-1665,4123,0
193502271,0,131618,-0.15240677,0.15580328,0.34587577,41.0,8e-05,-3531,-1714,4395,0
193612270,0,131618,-0.14472687,0.15867548,0.3029181,41.0,8e-05,-3567,-1619,3784,0
193712268,0,131618,-0.1503049,0.15891482,0.30369145,41.0,8e-05,-3570,-1688,3795,0
193812270,0,131618,-0.142625,0.16051048,0.30369145,41.0,8e-05,-3590,-1593,3795,0
193912310,0,131618,-0.14480771,0.16434008,0.3060819,41.0,8e-05,-3638,-1620,3829,0
194012270,0,131618,-0.14707126,0.15420762,0.33012697,41.0,8e-05,-3511,-1648,4171,0
194122282,0,131618,-0.14116988,0.16370183,0.30537882,41.0,8e-05,-3630,-1575,3819,0
194222273,0,131618,-0.15159835,0.15348956,0.33322048,41.0,8e-05,-3502,-1704,4215,0
194322270,0,131618,-0.14335258,0.16114876,0.28934878,40.875,8e-05,-3598,-1602,3591,0
194422271,0,131618,-0.14884976,0.16170724,0.31704983,41.0,8e-05,-3605,-1670,3985,0
194522309,0,131618,-0.14569695,0.15588306,0.31536245,41.0,8e-05,-3532,-1631,3961,0
194632270,0,131618,-0.14157407,0.16282421,0.29462186,41.0,8e-05,-3619,-1580,3666,0
194732306,0,131618,-0.1494965,0.16322312,0.30411333,41.0,8e-05,-3624,-1678,3801,0
194832318,0,131618,-0.1524876,0.15516502,0.3178232,41.0,8e-05,-3523,-1715,3996,0
194932270,0,131618,-0.14820303,0.15971266,0.32731467,41.0,8e-05,-3580,-1662,4131,0
195042270,0,131618,-0.16445208,0.18173283,0.31437814,41.125,8e-05,-3856,-1863,3947,0
195142270,0,131618,-0.17188945,0.18859419,0.3069959,41.0,8e-05,-3942,-1955,3842,0
195242270,0,131618,-0.17108104,0.19960429,0.2875911,41.0,8e-05,-4080,-1945,3566,0
195342270,0,131618,-0.16930254,0.18771657,0.27036586,40.875,8e-05,-3931,-1923,3321,0
195442270,0,131618,-0.19589923,0.17136101,0.28590375,41.125,8e-05,-3726,-2252,3542,0
195552272,0,131618,-0.20697446,0.16944622,0.2753577,41.125,8e-05,-3702,-2389,3392,0
195652270,0,131618,-0.22686134,0.15947331,0.26326483,41.0,8e-05,-3577,-2635,3220,0
195752270,0,131618,-0.22896321,0.17223862,0.26263207,41.0,8e-05,-3737,-2661,3211,0
195852270,0,131618,-0.24634403,0.16386138,0.28273994,41.125,8e-05,-3632,-2876,3497,0
195962270,0,131618,-0.21748379,0.1766267,0.26235086,41.0,8e-05,-3792,-2519,3207,0
196062270,0,131618,-0.19048288,0.18915267,0.28470853,41.0,8e-05,-3949,-2185,3525,0
196162270,0,131618,-0.16534133,0.22928365,0.285271,41.0,8e-05,-4452,-1874,3533,0
196262284,0,131618,-0.15119416,0.22864538,0.27774814,41.0,8e-05,-4444,-1699,3426,0
196362270,0,131618,-0.14844556,0.24117135,0.26150715,40.875,8e-05,-4601,-1665,3195,0
196462272,0,131618,-0.15176004,0.25034642,0.2911065,41.0,8e-05,-4716,-1706,3616,0
196562270,0,131618,-0.14335258,0.23989482,0.27381092,41.0,8e-05,-4585,-1602,3370,0
196672270,0,131618,-0.1501432,0.22345947,0.2981372,41.0,8e-05,-4379,-1686,3716,0
196772270,0,131618,-0.14602032,0.22130533,0.28295085,41.0,8e-05,-4352,-1635,3500,0
196872306,0,131618,-0.14432266,0.22649124,0.27310783,41.125,8e-05,-4417,-1614,3360,0
196972313,0,131618,-0.1494965,0.21643853,0.29539523,41.0,8e-05,-4291,-1678,3677,0
198192270,0,131618,-0.15830816,0.15843613,0.34102458,41.0,8e-05,-3564,-1787,4326,0
198292270,0,131618,-0.14424182,0.1580372,0.29300478,41.0,8e-05,-3559,-1613,3643,0
198392314,0,131618,-0.142625,0.16322312,0.2992621,41.0,8e-05,-3624,-1593,3732,0
198502275,0,131618,-0.14294836,0.16059028,0.30685526,40.875,8e-05,-3591,-1597,3840,0
198602271,0,131618,-0.14319089,0.15317044,0.2944109,41.0,8e-05,-3498,-1600,3663,0
198702270,0,131618,-0.14699042,0.15684047,0.32049486,41.0,8e-05,-3544,-1647,4034,0
198802270,0,131618,-0.1408465,0.15747872,0.291458,41.0,8e-05,-3552,-1571,3621,0
198902271,0,131618,-0.14925398,0.16218594,0.31149557,41.0,8e-05,-3611,-1675,3906,0
199002270,0,131618,-0.14893061,0.16649422,0.30144164,41.0,8e-05,-3665,-1671,3763,0
199112319,0,131618,-0.14787968,0.15787764,0.31346416,41.0,8e-05,-3557,-1658,3934,0
199212270,0,131618,-0.14650539,0.16234551,0.3167686,41.0,8e-05,-3613,-1641,3981,0
199312270,0,131618,-0.15564041,0.15835634,0.33083004,41.125,8e-05,-3563,-1754,4181,0
199412270,0,131618,-0.14957732,0.16114876,0.30376178,41.0,8e-05,-3598,-1679,3796,0
199512270,0,131618,-0.14965817,0.16067006,0.3188075,41.0,8e-05,-3592,-1680,4010,0
199612270,0,131618,-0.15450864,0.16170724,0.32021365,41.125,8e-05,-3605,-1740,4030,0
199722271,0,131618,-0.14133155,0.16816968,0.28808329,41.0,8e-05,-3686,-1577,3573,0
199822315,0,131618,-0.15022406,0.16322312,0.2981372,40.875,8e-05,-3624,-1687,3716,0
199922270,0,131618,-0.14941566,0.1609892,0.32780683,40.875,8e-05,-3596,-1677,4138,0
200022270,0,131618,-0.15766142,0.16274442,0.31023002,40.875,8e-05,-3618,-1779,3888,0
200122270,0,131618,-0.14690958,0.15939352,0.28892696,41.0,8e-05,-3576,-1646,3585,0
200222270,0,131618,-0.15273014,0.16449966,0.30073857,41.125,8e-05,-3640,-1718,3753,0
200322294,0,131618,-0.16372451,0.16928664,0.324643,41.0,8e-05,-3700,-1854,4093,0
200422312,0,131618,-0.2019623,0.1742332,0.25187507,41.0,8e-05,-3762,-2327,3058,0
200532307,0,131618,-0.27795285,0.17215885,0.24814878,40.875,8e-05,-3736,-3267,3005,0
200632307,0,131618,-0.2752851,0.17598844,0.28049007,41.0,8e-05,-3784,-3234,3465,0
200732270,0,131618,-0.29088742,0.16729207,0.2236116,41.0,8e-05,-3675,-3427,2656,0
200832270,0,131618,-0.27851877,0.16513792,0.28948942,41.0,8e-05,-3648,-3274,3593,0
200932280,0,131618,-0.17479974,0.17367472,0.30066824,41.0,8e-05,-3755,-1991,3752,0
201032320,0,131618,-0.17229366,0.164739,0.30446485,41.0,8e-05,-3643,-1960,3806,0
201142270,0,131618,-0.14505024,0.16250508,0.28984097,41.0,8e-05,-3615,-1623,3598,0
201242318,0,131618,-0.14820303,0.17941912,0.31550306,41.0,8e-05,-3827,-1662,3963,0
201342270,0,131618,-0.14133155,0.22226273,0.29244232,41.0,8e-05,-4364,-1577,3635,0
201442270,0,131618,-0.13559183,0.25106448,0.26776448,41.0,8e-05,-4725,-1506,3284,0
201542270,0,131618,-0.12306148,0.27635574,0.23401704,41.0,8e-05,-5042,-1351,2804,0
201642270,0,131618,-0.12087878,0.29015827,0.24350852,41.0,8e-05,-5215,-1324,2939,0
201742270,0,131618,-0.11667504,0.30060986,0.25658566,41.0,8e-05,-5346,-1272,3125,0
201852270,0,131618,-0.12128298,0.29382828,0.26213992,41.125,8e-05,-5261,-1329,3204,0
201952288,0,131618,-0.13413669,0.28577018,0.2612259,40.875,8e-05,-5160,-1488,3191,0
202052270,0,131618,-0.13381334,0.284733,0.26769418,40.875,8e-05,-5147,-1484,3283,0
202152270,0,131618,-0.13146895,0.27579728,0.2552498,41.125,8e-05,-5035,-1455,3106,0
202252270,0,131618,-0.14205912,0.27316442,0.28084162,40.875,8e-05,-5002,-1586,3470,0
202352270,0,131618,-0.14383762,0.23845872,0.28885666,41.0,8e-05,-4567,-1608,3584,0
202452270,0,131618,-0.14602032,0.19872667,0.28491944,40.875,8e-05,-4069,-1635,3528,0
202562270,0,131618,-0.14876892,0.17263754,0.29708257,41.0,8e-05,-3742,-1669,3701,0
202662295,0,131618,-0.15418527,0.16059028,0.3099488,40.875,8e-05,-3591,-1736,3884,0
202762270,0,131618,-0.1408465,0.15556392,0.29539523,40.875,8e-05,-3528,-1571,3677,0
202862270,0,131618,-0.15289181,0.15325022,0.2960983,41.125,8e-05,-3499,-1720,3687,0
202972270,0,131618,-0.14804135,0.15117584,0.31381568,41.125,8e-05,-3473,-1660,3939,0
203072270,0,131618,-0.15070911,0.1528513,0.2931454,41.0,8e-05,-3494,-1693,3645,0
203172281,0,131618,-0.14860724,0.1432773,0.32618976,41.0,8e-05,-3374,-1667,4115,0
203272270,0,131618,-0.14230165,0.14152208,0.2939891,41.0,8e-05,-3352,-1589,3657,0
203372299,0,131618,-0.14893061,0.13745312,0.3147297,41.0,8e-05,-3301,-1671,3952,0
203482272,0,131618,-0.15564041,0.130512,0.2910362,41.0,8e-05,-3214,-1754,3615,0
203582270,0,131618,-0.16226937,0.117347755,0.3010901,41.0,8e-05,-3049,-1836,3758,0
203682270,0,131618,-0.17738664,0.113438375,0.31845596,41.0,8e-05,-3000,-2023,4005,0
203782296,0,131618,-0.17973103,0.110406615,0.28590375,41.125,8e-05,-2962,-2052,3542,0
203882270,0,131618,-0.21368426,0.12636326,0.30038702,41.0,8e-05,-3162,-2472,3748,0
203982274,0,131618,-0.25079027,0.1505376,0.25349212,41.0,8e-05,-3465,-2931,3081,0
204092311,0,131618,-0.27512345,0.15596285,0.2785215,41.0,8e-05,-3533,-3232,3437,0
204192270,0,131618,-0.2740725,0.15747872,0.2580621,41.0,8e-05,-3552,-3219,3146,0
204292282,0,131618,-0.2740725,0.1652177,0.23886825,41.125,8e-05,-3649,-3219,2873,0
204392305,0,131618,-0.25911692,0.1676112,0.27908394,41.0,8e-05,-3679,-3034,3445,0
204492270,0,131618,-0.23648143,0.16394117,0.2785215,41.125,8e-05,-3633,-2754,3437,0
204592270,0,131618,-0.20163895,0.16609532,0.3015119,41.125,8e-05,-3660,-2323,3764,0
204692270,0,131618,-0.16437124,0.16410074,0.3110034,41.125,8e-05,-3635,-1862,3899,0
204792270,0,131618,-0.14561613,0.16545705,0.28484914,41.0,8e-05,-3652,-1630,3527,0
204902270,0,131618,-0.15078995,0.15771808,0.30636314,41.0,8e-05,-3555,-1694,3833,0
205002270,0,131618,-0.14650539,0.16753142,0.3185966,41.125,8e-05,-3678,-1641,4007,0
205102270,0,131618,-0.14399931,0.16394117,0.3101597,40.875,8e-05,-3633,-1610,3887,0
205202271,0,131618,-0.1475563,0.15165456,0.32738498,41.0,8e-05,-3479,-1654,4132,0
205312278,0,131618,-0.14189744,0.16513792,0.29546553,41.0,8e-05,-3648,-1584,3678,0
205412270,0,131618,-0.1394722,0.1667336,0.291458,41.0,8e-05,-3668,-1554,3621,0
205512274,0,131618,-0.154832,0.16035092,0.32119796,41.0,8e-05,-3588,-1744,4044,0
205622271,0,131618,-0.14602032,0.16593574,0.30158225,41.0,8e-05,-3658,-1635,3765,0
205722270,0,131618,-0.14521192,0.16434008,0.29574674,40.875,8e-05,-3638,-1625,3682,0
205822270,0,131618,-0.14699042,0.16386138,0.3344157,41.0,8e-05,-3632,-1647,4232,0
205922270,0,131618,-0.14108902,0.16314334,0.28984097,41.0,8e-05,-3623,-1574,3598,0
206022270,0,131618,-0.14820303,0.16561662,0.2943406,41.0,8e-05,-3654,-1662,3662,0
206122270,0,131618,-0.13987641,0.1609892,0.30615222,41.0,8e-05,-3596,-1559,3830,0
206232278,0,131618,-0.14246333,0.16386138,0.27816996,41.0,8e-05,-3632,-1591,3432,0
206332270,0,131618,-0.14925398,0.16082962,0.31044093,41.0,8e-05,-3594,-1675,3891,0
206432273,0,131618,-0.14642453,0.16202638,0.30488667,41.0,8e-05,-3609,-1640,3812,0
206542271,0,131618,-0.15370023,0.16226572,0.3293536,41.0,8e-05,-3612,-1730,4160,0
206642270,0,131618,-0.13664277,0.16218594,0.26410854,41.0,8e-05,-3611,-1519,3232,0
206742271,0,131618,-0.15264928,0.1714408,0.29954335,40.875,8e-05,-3727,-1717,3736,0
206842270,0,131618,-0.15256846,0.19824797,0.31944028,41.0,8e-05,-4063,-1716,4019,0
206952316,0,131618,-0.14626284,0.20654541,0.28281024,40.875,8e-05,-4167,-1638,3498,0
207052270,0,131618,-0.15531705,0.21157177,0.28456792,40.875,8e-05,-4230,-1750,3523,0
207152270,0,131618,-0.15806565,0.19393967,0.31240955,41.0,8e-05,-4009,-1784,3919,0
207252270,0,131618,-0.14763714,0.20143929,0.28316176,41.0,8e-05,-4103,-1655,3503,0
207352308,0,131618,-0.15919742,0.2071039,0.3178935,41.0,8e-05,-4174,-1798,3997,0
207452303,0,131618,-0.15822731,0.21787465,0.29391876,41.0,8e-05,-4309,-1786,3656,0
207552270,0,131618,-0.14408013,0.22002879,0.2666396,40.875,8e-05,-4336,-1611,3268,0
207662278,0,131618,-0.15070911,0.21859269,0.26537403,41.0,8e-05,-4318,-1693,3250,0
207762271,0,131618,-0.1524876,0.20854001,0.2804198,41.0,8e-05,-4192,-1715,3464,0
207862271,0,131618,-0.15232593,0.18955159,0.28161502,41.0,8e-05,-3954,-1713,3481,0
207962306,0,131618,-0.15879321,0.17303647,0.2943406,41.0,8e-05,-3747,-1793,3662,0
208062270,0,131618,-0.1467479,0.16553684,0.28520066,41.0,8e-05,-3653,-1644,3532,0
208162281,0,131618,-0.14876892,0.17056319,0.3039727,41.0,8e-05,-3716,-1669,3799,0
208262270,0,131618,-0.16162264,0.15588306,0.33554062,41.0,8e-05,-3532,-1828,4248,0
208372275,0,131618,-0.14254417,0.16545705,0.29216108,41.0,8e-05,-3652,-1592,3631,0
208472270,0,131618,-0.16170348,0.16362204,0.3119174,41.0,8e-05,-3629,-1829,3912,0
208572270,0,131618,-0.15636797,0.16074984,0.3150109,41.125,8e-05,-3593,-1763,3956,0
208672270,0,131618,-0.14488855,0.16585597,0.29005188,41.0,8e-05,-3657,-1621,3601,0
208772270,0,131618,-0.15515536,0.15851592,0.31908873,40.875,8e-05,-3565,-1748,4014,0
208872270,0,131618,-0.15952078,0.16386138,0.30235565,41.0,8e-05,-3632,-1802,3776,0
208982270,0,131618,-0.15669134,0.16832925,0.30664435,41.125,8e-05,-3688,-1767,3837,0
209082286,0,131618,-0.15822731,0.16402094,0.32408053,41.125,8e-05,-3634,-1786,4085,0
209182270,0,131618,-0.15855068,0.15875526,0.31325325,41.125,8e-05,-3568,-1790,3931,0
209282271,0,131618,-0.14973901,0.16912708,0.30045733,41.125,8e-05,-3698,-1681,3749,0
209382270,0,131618,-0.14965817,0.16840902,0.3099488,41.125,8e-05,-3689,-1680,3884,0
209482270,0,131618,-0.15725723,0.16426031,0.3228853,41.0,8e-05,-3637,-1774,4068,0
209582270,0,131618,-0.15709554,0.1637816,0.28723958,41.0,8e-05,-3631,-1772,3561,0
209692270,0,131618,-0.1475563,0.16497836,0.29265323,40.875,8e-05,-3646,-1654,3638,0
209792282,0,131618,-0.15612546,0.16162746,0.3119877,41.125,8e-05,-3604,-1760,3913,0
209892273,0,131618,-0.1501432,0.15963286,0.31346416,41.125,8e-05,-3579,-1686,3934,0
209992277,0,131618,-0.14060399,0.1723982,0.26776448,41.0,8e-05,-3739,-1568,3284,0
210102286,0,131618,-0.15669134,0.1652177,0.304043,41.125,8e-05,-3649,-1767,3800,0
210202270,0,131618,-0.16614975,0.16090941,0.29764503,41.0,8e-05,-3595,-1884,3709,0
210302270,0,131618,-0.2023665,0.18213174,0.28189626,41.0,8e-05,-3861,-2332,3485,0
210402281,0,131618,-0.2240319,0.19354075,0.24610989,40.875,8e-05,-4004,-2600,2976,0
