timestamp,noutputs,output[0],output[1],output[2],output[3],output[4],output[5],output[6],output[7],output[8],output[9],output[10],output[11],output[12],output[13],output[14],output[15]
133175166,8,1075.0,1075.0,1075.0,1075.0,1075.0,1075.0,0.0,0.0,0.0,0.0,0.0,0.0,0.0,0.0,0.0,0.0
133195153,8,1075.0,1075.0,1075.0,1075.0,1075.0,1075.0,0.0,0.0,0.0,0.0,0.0,0.0,0.0,0.0,0.0,0.0
133215165,8,1075.0,1075.0,1075.0,1075.0,1075.0,1075.0,0.0,0.0,0.0,0.0,0.0,0.0,0.0,0.0,0.0,0.0
133239311,8,1075.0,1075.0,1075.0,1075.0,1075.0,1075.0,0.0,0.0,0.0,0.0,0.0,0.0,0.0,0.0,0.0,0.0
133259323,8,1075.0,1075.0,1075.0,1075.0,1075.0,1075.0,0.0,0.0,0.0,0.0,0.0,0.0,0.0,0.0,0.0,0.0
133279280,8,1075.0,1075.0,1075.0,1075.0,1075.0,1075.0,0.0,0.0,0.0,0.0,0.0,0.0,0.0,0.0,0.0,0.0
133303149,8,1075.0,1075.0,1075.0,1075.0,1075.0,1075.0,0.0,0.0,0.0,0.0,0.0,0.0,0.0,0.0,0.0,0.0
133323177,8,1075.0,1075.0,1075.0,1075.0,1075.0,1075.0,0.0,0.0,0.0,0.0,0.0,0.0,0.0,0.0,0.0,0.0
133347157,8,1075.0,1075.0,1075.0,1075.0,1075.0,1075.0,0.0,0.0,0.0,0.0,0.0,0.0,0.0,0.0,0.0,0.0
133371347,8,1075.0,1075.0,1075.0,1075.0,1075.0,1075.0,0.0,0.0,0.0,0.0,0.0,0.0,0.0,0.0,0.0,0.0
133395364,8,1075.0,1075.0,1075.0,1075.0,1075.0,1075.0,0.0,0.0,0.0,0.0,0.0,0.0,0.0,0.0,0.0,0.0
133415345,8,1075.0,1075.0,1075.0,1075.0,1075.0,1075.0,0.0,0.0,0.0,0.0,0.0,0.0,0.0,0.0,0.0,0.0
133731344,8,1075.0,1075.0,1075.0,1075.0,1075.0,1075.0,0.0,0.0,0.0,0.0,0.0,0.0,0.0,0.0,0.0,0.0
133755360,8,1075.0,1075.0,1075.0,1075.0,1075.0,1075.0,0.0,0.0,0.0,0.0,0.0,0.0,0.0,0.0,0.0,0.0
133819188,8,1075.0,1075.0,1075.0,1075.0,1075.0,1075.0,0.0,0.0,0.0,0.0,0.0,0.0,0.0,0.0,0.0,0.0
133839313,8,1075.0,1075.0,1075.0,1075.0,1075.0,1075.0,0.0,0.0,0.0,0.0,0.0,0.0,0.0,0.0,0.0,0.0
133859350,8,1075.0,1075.0,1075.0,1075.0,1075.0,1075.0,0.0,0.0,0.0,0.0,0.0,0.0,0.0,0.0,0.0,0.0
133883185,8,1075.0,1075.0,1075.0,1075.0,1075.0,1075.0,0.0,0.0,0.0,0.0,0.0,0.0,0.0,0.0,0.0,0.0
133903612,8,1075.0,1075.0,1075.0,1075.0,1075.0,1075.0,0.0,0.0,0.0,0.0,0.0,0.0,0.0,0.0,0.0,0.0
133927115,8,1075.0,1075.0,1075.0,1075.0,1075.0,1075.0,0.0,0.0,0.0,0.0,0.0,0.0,0.0,0.0,0.0,0.0
133947192,8,1075.0,1075.0,1075.0,1075.0,1075.0,1075.0,0.0,0.0,0.0,0.0,0.0,0.0,0.0,0.0,0.0,0.0
133967213,8,1075.0,1075.0,1075.0,1075.0,1075.0,1075.0,0.0,0.0,0.0,0.0,0.0,0.0,0.0,0.0,0.0,0.0
133987137,8,1075.0,1075.0,1075.0,1075.0,1075.0,1075.0,0.0,0.0,0.0,0.0,0.0,0.0,0.0,0.0,0.0,0.0
134007292,8,1075.0,1075.0,1075.0,1075.0,1075.0,1075.0,0.0,0.0,0.0,0.0,0.0,0.0,0.0,0.0,0.0,0.0
134031365,8,1075.0,1075.0,1075.0,1075.0,1075.0,1075.0,0.0,0.0,0.0,0.0,0.0,0.0,0.0,0.0,0.0,0.0
134055147,8,1075.0,1075.0,1075.0,1075.0,1075.0,1075.0,0.0,0.0,0.0,0.0,0.0,0.0,0.0,0.0,0.0,0.0
134075168,8,1075.0,1075.0,1075.0,1075.0,1075.0,1075.0,0.0,0.0,0.0,0.0,0.0,0.0,0.0,0.0,0.0,0.0
134099382,8,1075.0,1075.0,1075.0,1075.0,1075.0,1075.0,0.0,0.0,0.0,0.0,0.0,0.0,0.0,0.0,0.0,0.0
134119601,8,1075.0,1075.0,1075.0,1075.0,1075.0,1075.0,0.0,0.0,0.0,0.0,0.0,0.0,0.0,0.0,0.0,0.0
134143336,8,1075.0,1075.0,1075.0,1075.0,1075.0,1075.0,0.0,0.0,0.0,0.0,0.0,0.0,0.0,0.0,0.0,0.0
134163256,8,1075.0,1075.0,1075.0,1075.0,1075.0,1075.0,0.0,0.0,0.0,0.0,0.0,0.0,0.0,0.0,0.0,0.0
134187286,8,1075.0,1075.0,1075.0,1075.0,1075.0,1075.0,0.0,0.0,0.0,0.0,0.0,0.0,0.0,0.0,0.0,0.0
134207298,8,1075.0,1075.0,1075.0,1075.0,1075.0,1075.0,0.0,0.0,0.0,0.0,0.0,0.0,0.0,0.0,0.0,0.0
134231152,8,1075.0,1075.0,1075.0,1075.0,1075.0,1075.0,0.0,0.0,0.0,0.0,0.0,0.0,0.0,0.0,0.0,0.0
134255264,8,1075.0,1075.0,1075.0,1075.0,1075.0,1075.0,0.0,0.0,0.0,0.0,0.0,0.0,0.0,0.0,0.0,0.0
134275350,8,1075.0,1075.0,1075.0,1075.0,1075.0,1075.0,0.0,0.0,0.0,0.0,0.0,0.0,0.0,0.0,0.0,0.0
134295280,8,1075.0,1075.0,1075.0,1075.0,1075.0,1075.0,0.0,0.0,0.0,0.0,0.0,0.0,0.0,0.0,0.0,0.0
134319358,8,1075.0,1075.0,1075.0,1075.0,1075.0,1075.0,0.0,0.0,0.0,0.0,0.0,0.0,0.0,0.0,0.0,0.0
134343138,8,1075.0,1075.0,1075.0,1075.0,1075.0,1075.0,0.0,0.0,0.0,0.0,0.0,0.0,0.0,0.0,0.0,0.0
134367315,8,1075.0,1075.0,1075.0,1075.0,1075.0,1075.0,0.0,0.0,0.0,0.0,0.0,0.0,0.0,0.0,0.0,0.0
134387156,8,1075.0,1075.0,1075.0,1075.0,1075.0,1075.0,0.0,0.0,0.0,0.0,0.0,0.0,0.0,0.0,0.0,0.0
134411146,8,1075.0,1075.0,1075.0,1075.0,1075.0,1075.0,0.0,0.0,0.0,0.0,0.0,0.0,0.0,0.0,0.0,0.0
134435194,8,1075.0,1075.0,1075.0,1075.0,1075.0,1075.0,0.0,0.0,0.0,0.0,0.0,0.0,0.0,0.0,0.0,0.0
134455379,8,1075.0,1075.0,1075.0,1075.0,1075.0,1075.0,0.0,0.0,0.0,0.0,0.0,0.0,0.0,0.0,0.0,0.0
134479562,8,1075.0,1075.0,1075.0,1075.0,1075.0,1075.0,0.0,0.0,0.0,0.0,0.0,0.0,0.0,0.0,0.0,0.0
134499395,8,1075.0,1075.0,1075.0,1075.0,1075.0,1075.0,0.0,0.0,0.0,0.0,0.0,0.0,0.0,0.0,0.0,0.0
134523569,8,1075.0,1075.0,1075.0,1075.0,1075.0,1075.0,0.0,0.0,0.0,0.0,0.0,0.0,0.0,0.0,0.0,0.0
134543383,8,1075.0,1075.0,1075.0,1075.0,1075.0,1075.0,0.0,0.0,0.0,0.0,0.0,0.0,0.0,0.0,0.0,0.0
134563378,8,1075.0,1075.0,1075.0,1075.0,1075.0,1075.0,0.0,0.0,0.0,0.0,0.0,0.0,0.0,0.0,0.0,0.0
134583421,8,1075.0,1075.0,1075.0,1075.0,1075.0,1075.0,0.0,0.0,0.0,0.0,0.0,0.0,0.0,0.0,0.0,0.0
134607146,8,1075.0,1075.0,1075.0,1075.0,1075.0,1075.0,0.0,0.0,0.0,0.0,0.0,0.0,0.0,0.0,0.0,0.0
134627199,8,1075.0,1075.0,1075.0,1075.0,1075.0,1075.0,0.0,0.0,0.0,0.0,0.0,0.0,0.0,0.0,0.0,0.0
134651370,8,1075.0,1075.0,1075.0,1075.0,1075.0,1075.0,0.0,0.0,0.0,0.0,0.0,0.0,0.0,0.0,0.0,0.0
134671288,8,1075.0,1075.0,1075.0,1075.0,1075.0,1075.0,0.0,0.0,0.0,0.0,0.0,0.0,0.0,0.0,0.0,0.0
134695565,8,1075.0,1075.0,1075.0,1075.0,1075.0,1075.0,0.0,0.0,0.0,0.0,0.0,0.0,0.0,0.0,0.0,0.0
134719384,8,1075.0,1075.0,1075.0,1075.0,1075.0,1075.0,0.0,0.0,0.0,0.0,0.0,0.0,0.0,0.0,0.0,0.0
134743148,8,1075.0,1075.0,1075.0,1075.0,1075.0,1075.0,0.0,0.0,0.0,0.0,0.0,0.0,0.0,0.0,0.0,0.0
134763179,8,1075.0,1075.0,1075.0,1075.0,1075.0,1075.0,0.0,0.0,0.0,0.0,0.0,0.0,0.0,0.0,0.0,0.0
134787171,8,1075.0,1075.0,1075.0,1075.0,1075.0,1075.0,0.0,0.0,0.0,0.0,0.0,0.0,0.0,0.0,0.0,0.0
134811160,8,1075.0,1075.0,1075.0,1075.0,1075.0,1075.0,0.0,0.0,0.0,0.0,0.0,0.0,0.0,0.0,0.0,0.0
134831144,8,1075.0,1075.0,1075.0,1075.0,1075.0,1075.0,0.0,0.0,0.0,0.0,0.0,0.0,0.0,0.0,0.0,0.0
134851126,8,1075.0,1075.0,1075.0,1075.0,1075.0,1075.0,0.0,0.0,0.0,0.0,0.0,0.0,0.0,0.0,0.0,0.0
134871289,8,1075.0,1075.0,1075.0,1075.0,1075.0,1075.0,0.0,0.0,0.0,0.0,0.0,0.0,0.0,0.0,0.0,0.0
134891147,8,1075.0,1075.0,1075.0,1075.0,1075.0,1075.0,0.0,0.0,0.0,0.0,0.0,0.0,0.0,0.0,0.0,0.0
134915277,8,1075.0,1075.0,1075.0,1075.0,1075.0,1075.0,0.0,0.0,0.0,0.0,0.0,0.0,0.0,0.0,0.0,0.0
134935307,8,1075.0,1075.0,1075.0,1075.0,1075.0,1075.0,0.0,0.0,0.0,0.0,0.0,0.0,0.0,0.0,0.0,0.0
134955377,8,1075.0,1075.0,1075.0,1075.0,1075.0,1075.0,0.0,0.0,0.0,0.0,0.0,0.0,0.0,0.0,0.0,0.0
134975343,8,1075.0,1075.0,1075.0,1075.0,1075.0,1075.0,0.0,0.0,0.0,0.0,0.0,0.0,0.0,0.0,0.0,0.0
134995282,8,1075.0,1075.0,1075.0,1075.0,1075.0,1075.0,0.0,0.0,0.0,0.0,0.0,0.0,0.0,0.0,0.0,0.0
135019569,8,1075.0,1075.0,1075.0,1075.0,1075.0,1075.0,0.0,0.0,0.0,0.0,0.0,0.0,0.0,0.0,0.0,0.0
135043147,8,1075.0,1075.0,1075.0,1075.0,1075.0,1075.0,0.0,0.0,0.0,0.0,0.0,0.0,0.0,0.0,0.0,0.0
135067327,8,1075.0,1075.0,1075.0,1075.0,1075.0,1075.0,0.0,0.0,0.0,0.0,0.0,0.0,0.0,0.0,0.0,0.0
135087318,8,1075.0,1075.0,1075.0,1075.0,1075.0,1075.0,0.0,0.0,0.0,0.0,0.0,0.0,0.0,0.0,0.0,0.0
135107160,8,1075.0,1075.0,1075.0,1075.0,1075.0,1075.0,0.0,0.0,0.0,0.0,0.0,0.0,0.0,0.0,0.0,0.0
135131134,8,1075.0,1075.0,1075.0,1075.0,1075.0,1075.0,0.0,0.0,0.0,0.0,0.0,0.0,0.0,0.0,0.0,0.0
135155143,8,1075.0,1075.0,1075.0,1075.0,1075.0,1075.0,0.0,0.0,0.0,0.0,0.0,0.0,0.0,0.0,0.0,0.0
135175183,8,1075.0,1075.0,1075.0,1075.0,1075.0,1075.0,0.0,0.0,0.0,0.0,0.0,0.0,0.0,0.0,0.0,0.0
135196185,8,1075.0,1075.0,1075.0,1075.0,1075.0,1075.0,0.0,0.0,0.0,0.0,0.0,0.0,0.0,0.0,0.0,0.0
135219361,8,1075.0,1075.0,1075.0,1075.0,1075.0,1075.0,0.0,0.0,0.0,0.0,0.0,0.0,0.0,0.0,0.0,0.0
135243271,8,1075.0,1075.0,1075.0,1075.0,1075.0,1075.0,0.0,0.0,0.0,0.0,0.0,0.0,0.0,0.0,0.0,0.0
135263394,8,1075.0,1075.0,1075.0,1075.0,1075.0,1075.0,0.0,0.0,0.0,0.0,0.0,0.0,0.0,0.0,0.0,0.0
135287144,8,1075.0,1075.0,1075.0,1075.0,1075.0,1075.0,0.0,0.0,0.0,0.0,0.0,0.0,0.0,0.0,0.0,0.0
135307600,8,1075.0,1075.0,1075.0,1075.0,1075.0,1075.0,0.0,0.0,0.0,0.0,0.0,0.0,0.0,0.0,0.0,0.0
135327341,8,1075.0,1075.0,1075.0,1075.0,1075.0,1075.0,0.0,0.0,0.0,0.0,0.0,0.0,0.0,0.0,0.0,0.0
135350596,8,1075.0,1075.0,1075.0,1075.0,1075.0,1075.0,0.0,0.0,0.0,0.0,0.0,0.0,0.0,0.0,0.0,0.0
135375385,8,1075.0,1075.0,1075.0,1075.0,1075.0,1075.0,0.0,0.0,0.0,0.0,0.0,0.0,0.0,0.0,0.0,0.0
135398358,8,1075.0,1075.0,1075.0,1075.0,1075.0,1075.0,0.0,0.0,0.0,0.0,0.0,0.0,0.0,0.0,0.0,0.0
135422362,8,1075.0,1075.0,1075.0,1075.0,1075.0,1075.0,0.0,0.0,0.0,0.0,0.0,0.0,0.0,0.0,0.0,0.0
135446504,8,1075.0,1075.0,1075.0,1075.0,1075.0,1075.0,0.0,0.0,0.0,0.0,0.0,0.0,0.0,0.0,0.0,0.0
135466552,8,1075.0,1075.0,1075.0,1075.0,1075.0,1075.0,0.0,0.0,0.0,0.0,0.0,0.0,0.0,0.0,0.0,0.0
135490484,8,1075.0,1075.0,1075.0,1075.0,1075.0,1075.0,0.0,0.0,0.0,0.0,0.0,0.0,0.0,0.0,0.0,0.0
135513751,8,1075.0,1075.0,1075.0,1075.0,1075.0,1075.0,0.0,0.0,0.0,0.0,0.0,0.0,0.0,0.0,0.0,0.0
135533757,8,1075.0,1075.0,1075.0,1075.0,1075.0,1075.0,0.0,0.0,0.0,0.0,0.0,0.0,0.0,0.0,0.0,0.0
135554354,8,1075.0,1075.0,1075.0,1075.0,1075.0,1075.0,0.0,0.0,0.0,0.0,0.0,0.0,0.0,0.0,0.0,0.0
135578338,8,1075.0,1075.0,1075.0,1075.0,1075.0,1075.0,0.0,0.0,0.0,0.0,0.0,0.0,0.0,0.0,0.0,0.0
135601569,8,1075.0,1075.0,1075.0,1075.0,1075.0,1075.0,0.0,0.0,0.0,0.0,0.0,0.0,0.0,0.0,0.0,0.0
135622404,8,1075.0,1075.0,1075.0,1075.0,1075.0,1075.0,0.0,0.0,0.0,0.0,0.0,0.0,0.0,0.0,0.0,0.0
135642367,8,1075.0,1075.0,1075.0,1075.0,1075.0,1075.0,0.0,0.0,0.0,0.0,0.0,0.0,0.0,0.0,0.0,0.0
135666805,8,1180.0,1178.0,1184.0,1174.0,1185.0,1173.0,0.0,0.0,0.0,0.0,0.0,0.0,0.0,0.0,0.0,0.0
135689547,8,1179.0,1179.0,1185.0,1173.0,1185.0,1173.0,0.0,0.0,0.0,0.0,0.0,0.0,0.0,0.0,0.0,0.0
135710352,8,1179.0,1179.0,1184.0,1174.0,1185.0,1173.0,0.0,0.0,0.0,0.0,0.0,0.0,0.0,0.0,0.0,0.0
135734378,8,1180.0,1178.0,1184.0,1174.0,1185.0,1173.0,0.0,0.0,0.0,0.0,0.0,0.0,0.0,0.0,0.0,0.0
135758328,8,1180.0,1178.0,1183.0,1175.0,1186.0,1172.0,0.0,0.0,0.0,0.0,0.0,0.0,0.0,0.0,0.0,0.0
135778369,8,1178.0,1180.0,1184.0,1174.0,1186.0,1172.0,0.0,0.0,0.0,0.0,0.0,0.0,0.0,0.0,0.0,0.0
135798575,8,1179.0,1179.0,1183.0,1175.0,1186.0,1172.0,0.0,0.0,0.0,0.0,0.0,0.0,0.0,0.0,0.0,0.0
135818568,8,1182.0,1176.0,1186.0,1172.0,1185.0,1173.0,0.0,0.0,0.0,0.0,0.0,0.0,0.0,0.0,0.0,0.0
135842404,8,1182.0,1176.0,1188.0,1170.0,1181.0,1177.0,0.0,0.0,0.0,0.0,0.0,0.0,0.0,0.0,0.0,0.0
135866336,8,1184.0,1174.0,1186.0,1172.0,1184.0,1174.0,0.0,0.0,0.0,0.0,0.0,0.0,0.0,0.0,0.0,0.0
135886354,8,1195.0,1186.0,1194.0,1180.0,1191.0,1182.0,0.0,0.0,0.0,0.0,0.0,0.0,0.0,0.0,0.0,0.0
135910553,8,1204.0,1207.0,1210.0,1201.0,1214.0,1197.0,0.0,0.0,0.0,0.0,0.0,0.0,0.0,0.0,0.0,0.0
135934339,8,1211.0,1218.0,1215.0,1214.0,1224.0,1205.0,0.0,0.0,0.0,0.0,0.0,0.0,0.0,0.0,0.0,0.0
135954765,8,1224.0,1224.0,1225.0,1223.0,1235.0,1212.0,0.0,0.0,0.0,0.0,0.0,0.0,0.0,0.0,0.0,0.0
135978551,8,1235.0,1231.0,1235.0,1231.0,1239.0,1227.0,0.0,0.0,0.0,0.0,0.0,0.0,0.0,0.0,0.0,0.0
136002548,8,1247.0,1238.0,1248.0,1238.0,1243.0,1242.0,0.0,0.0,0.0,0.0,0.0,0.0,0.0,0.0,0.0,0.0
136026765,8,1254.0,1250.0,1265.0,1239.0,1250.0,1253.0,0.0,0.0,0.0,0.0,0.0,0.0,0.0,0.0,0.0,0.0
136050392,8,1276.0,1266.0,1274.0,1267.0,1277.0,1264.0,0.0,0.0,0.0,0.0,0.0,0.0,0.0,0.0,0.0,0.0
136074354,8,1278.0,1282.0,1274.0,1286.0,1285.0,1274.0,0.0,0.0,0.0,0.0,0.0,0.0,0.0,0.0,0.0,0.0
136094533,8,1283.0,1295.0,1285.0,1293.0,1290.0,1288.0,0.0,0.0,0.0,0.0,0.0,0.0,0.0,0.0,0.0,0.0
136118621,8,1317.0,1281.0,1299.0,1299.0,1320.0,1278.0,0.0,0.0,0.0,0.0,0.0,0.0,0.0,0.0,0.0,0.0
136138622,8,1296.0,1321.0,1323.0,1294.0,1309.0,1308.0,0.0,0.0,0.0,0.0,0.0,0.0,0.0,0.0,0.0,0.0
136162619,8,1307.0,1328.0,1338.0,1298.0,1322.0,1313.0,0.0,0.0,0.0,0.0,0.0,0.0,0.0,0.0,0.0,0.0
136182609,8,1328.0,1327.0,1326.0,1329.0,1323.0,1335.0,0.0,0.0,0.0,0.0,0.0,0.0,0.0,0.0,0.0,0.0
136202333,8,1327.0,1348.0,1349.0,1326.0,1336.0,1339.0,0.0,0.0,0.0,0.0,0.0,0.0,0.0,0.0,0.0,0.0
136222355,8,1338.0,1357.0,1391.0,1303.0,1379.0,1316.0,0.0,0.0,0.0,0.0,0.0,0.0,0.0,0.0,0.0,0.0
136246620,8,1343.0,1369.0,1380.0,1332.0,1366.0,1346.0,0.0,0.0,0.0,0.0,0.0,0.0,0.0,0.0,0.0,0.0
136266475,8,1327.0,1407.0,1413.0,1320.0,1373.0,1360.0,0.0,0.0,0.0,0.0,0.0,0.0,0.0,0.0,0.0,0.0
136290366,8,1360.0,1411.0,1416.0,1355.0,1389.0,1382.0,0.0,0.0,0.0,0.0,0.0,0.0,0.0,0.0,0.0,0.0
136313985,8,1429.0,1363.0,1409.0,1383.0,1441.0,1352.0,0.0,0.0,0.0,0.0,0.0,0.0,0.0,0.0,0.0,0.0
136334341,8,1411.0,1400.0,1429.0,1382.0,1432.0,1379.0,0.0,0.0,0.0,0.0,0.0,0.0,0.0,0.0,0.0,0.0
136354487,8,1400.0,1428.0,1459.0,1369.0,1439.0,1389.0,0.0,0.0,0.0,0.0,0.0,0.0,0.0,0.0,0.0,0.0
136378323,8,1472.0,1375.0,1367.0,1480.0,1415.0,1431.0,0.0,0.0,0.0,0.0,0.0,0.0,0.0,0.0,0.0,0.0
136398326,8,1423.0,1445.0,1441.0,1427.0,1425.0,1443.0,0.0,0.0,0.0,0.0,0.0,0.0,0.0,0.0,0.0,0.0
136418327,8,1452.0,1434.0,1510.0,1376.0,1511.0,1374.0,0.0,0.0,0.0,0.0,0.0,0.0,0.0,0.0,0.0,0.0
136438327,8,1509.0,1393.0,1380.0,1522.0,1438.0,1464.0,0.0,0.0,0.0,0.0,0.0,0.0,0.0,0.0,0.0,0.0
136462566,8,1454.0,1468.0,1563.0,1359.0,1552.0,1370.0,0.0,0.0,0.0,0.0,0.0,0.0,0.0,0.0,0.0,0.0
136482510,8,1442.0,1493.0,1381.0,1554.0,1359.0,1577.0,0.0,0.0,0.0,0.0,0.0,0.0,0.0,0.0,0.0,0.0
136506521,8,1518.0,1438.0,1481.0,1474.0,1518.0,1437.0,0.0,0.0,0.0,0.0,0.0,0.0,0.0,0.0,0.0,0.0
136530812,8,1487.0,1504.0,1560.0,1432.0,1550.0,1442.0,0.0,0.0,0.0,0.0,0.0,0.0,0.0,0.0,0.0,0.0
136554482,8,1507.0,1501.0,1548.0,1460.0,1549.0,1460.0,0.0,0.0,0.0,0.0,0.0,0.0,0.0,0.0,0.0,0.0
136574348,8,1514.0,1509.0,1510.0,1512.0,1433.0,1590.0,0.0,0.0,0.0,0.0,0.0,0.0,0.0,0.0,0.0,0.0
136594483,8,1502.0,1534.0,1584.0,1452.0,1558.0,1478.0,0.0,0.0,0.0,0.0,0.0,0.0,0.0,0.0,0.0,0.0
136618414,8,1518.0,1534.0,1559.0,1494.0,1529.0,1523.0,0.0,0.0,0.0,0.0,0.0,0.0,0.0,0.0,0.0,0.0
136638762,8,1511.0,1548.0,1505.0,1555.0,1466.0,1594.0,0.0,0.0,0.0,0.0,0.0,0.0,0.0,0.0,0.0,0.0
136662349,8,1453.0,1612.0,1561.0,1504.0,1460.0,1605.0,0.0,0.0,0.0,0.0,0.0,0.0,0.0,0.0,0.0,0.0
136682526,8,1546.0,1516.0,1461.0,1601.0,1454.0,1608.0,0.0,0.0,0.0,0.0,0.0,0.0,0.0,0.0,0.0,0.0
136706361,8,1457.0,1612.0,1566.0,1504.0,1456.0,1613.0,0.0,0.0,0.0,0.0,0.0,0.0,0.0,0.0,0.0,0.0
136726362,8,1608.0,1456.0,1476.0,1588.0,1521.0,1543.0,0.0,0.0,0.0,0.0,0.0,0.0,0.0,0.0,0.0,0.0
136750378,8,1552.0,1510.0,1508.0,1555.0,1494.0,1569.0,0.0,0.0,0.0,0.0,0.0,0.0,0.0,0.0,0.0,0.0
136770605,8,1593.0,1480.0,1537.0,1536.0,1552.0,1520.0,0.0,0.0,0.0,0.0,0.0,0.0,0.0,0.0,0.0,0.0
136794393,8,1575.0,1501.0,1488.0,1587.0,1487.0,1588.0,0.0,0.0,0.0,0.0,0.0,0.0,0.0,0.0,0.0,0.0
136814523,8,1573.0,1505.0,1448.0,1630.0,1440.0,1637.0,0.0,0.0,0.0,0.0,0.0,0.0,0.0,0.0,0.0,0.0
136834402,8,1581.0,1499.0,1513.0,1568.0,1501.0,1579.0,0.0,0.0,0.0,0.0,0.0,0.0,0.0,0.0,0.0,0.0
136858589,8,1632.0,1454.0,1454.0,1632.0,1492.0,1595.0,0.0,0.0,0.0,0.0,0.0,0.0,0.0,0.0,0.0,0.0
136882356,8,1595.0,1489.0,1506.0,1579.0,1513.0,1571.0,0.0,0.0,0.0,0.0,0.0,0.0,0.0,0.0,0.0,0.0
136902352,8,1627.0,1469.0,1486.0,1610.0,1506.0,1589.0,0.0,0.0,0.0,0.0,0.0,0.0,0.0,0.0,0.0,0.0
136926791,8,1570.0,1525.0,1528.0,1568.0,1499.0,1597.0,0.0,0.0,0.0,0.0,0.0,0.0,0.0,0.0,0.0,0.0
136950341,8,1505.0,1596.0,1627.0,1474.0,1529.0,1572.0,0.0,0.0,0.0,0.0,0.0,0.0,0.0,0.0,0.0,0.0
136974351,8,1543.0,1556.0,1588.0,1512.0,1522.0,1577.0,0.0,0.0,0.0,0.0,0.0,0.0,0.0,0.0,0.0,0.0
136998792,8,1534.0,1564.0,1573.0,1526.0,1508.0,1590.0,0.0,0.0,0.0,0.0,0.0,0.0,0.0,0.0,0.0,0.0
137022417,8,1549.0,1556.0,1570.0,1535.0,1519.0,1585.0,0.0,0.0,0.0,0.0,0.0,0.0,0.0,0.0,0.0,0.0
137042401,8,1572.0,1527.0,1552.0,1546.0,1525.0,1574.0,0.0,0.0,0.0,0.0,0.0,0.0,0.0,0.0,0.0,0.0
137062359,8,1574.0,1515.0,1548.0,1541.0,1517.0,1572.0,0.0,0.0,0.0,0.0,0.0,0.0,0.0,0.0,0.0,0.0
137082483,8,1551.0,1517.0,1533.0,1535.0,1496.0,1572.0,0.0,0.0,0.0,0.0,0.0,0.0,0.0,0.0,0.0,0.0
137106801,8,1536.0,1506.0,1503.0,1539.0,1480.0,1562.0,0.0,0.0,0.0,0.0,0.0,0.0,0.0,0.0,0.0,0.0
137126559,8,1524.0,1506.0,1483.0,1547.0,1452.0,1578.0,0.0,0.0,0.0,0.0,0.0,0.0,0.0,0.0,0.0,0.0
137150326,8,1474.0,1527.0,1549.0,1451.0,1484.0,1516.0,0.0,0.0,0.0,0.0,0.0,0.0,0.0,0.0,0.0,0.0
137170510,8,1484.0,1511.0,1522.0,1472.0,1469.0,1526.0,0.0,0.0,0.0,0.0,0.0,0.0,0.0,0.0,0.0,0.0
137194602,8,1497.0,1489.0,1496.0,1490.0,1457.0,1529.0,0.0,0.0,0.0,0.0,0.0,0.0,0.0,0.0,0.0,0.0
137218549,8,1547.0,1437.0,1423.0,1560.0,1439.0,1545.0,0.0,0.0,0.0,0.0,0.0,0.0,0.0,0.0,0.0,0.0
137238542,8,1509.0,1469.0,1502.0,1476.0,1477.0,1501.0,0.0,0.0,0.0,0.0,0.0,0.0,0.0,0.0,0.0,0.0
137262475,8,1557.0,1422.0,1434.0,1544.0,1456.0,1523.0,0.0,0.0,0.0,0.0,0.0,0.0,0.0,0.0,0.0,0.0
137282416,8,1510.0,1471.0,1571.0,1410.0,1549.0,1432.0,0.0,0.0,0.0,0.0,0.0,0.0,0.0,0.0,0.0,0.0
137306331,8,1513.0,1468.0,1577.0,1405.0,1564.0,1417.0,0.0,0.0,0.0,0.0,0.0,0.0,0.0,0.0,0.0,0.0
137326345,8,1438.0,1551.0,1530.0,1458.0,1450.0,1539.0,0.0,0.0,0.0,0.0,0.0,0.0,0.0,0.0,0.0,0.0
137346351,8,1512.0,1488.0,1455.0,1545.0,1441.0,1559.0,0.0,0.0,0.0,0.0,0.0,0.0,0.0,0.0,0.0,0.0
137366368,8,1554.0,1446.0,1457.0,1544.0,1478.0,1523.0,0.0,0.0,0.0,0.0,0.0,0.0,0.0,0.0,0.0,0.0
137390372,8,1548.0,1467.0,1443.0,1571.0,1449.0,1565.0,0.0,0.0,0.0,0.0,0.0,0.0,0.0,0.0,0.0,0.0
137410593,8,1488.0,1459.0,1514.0,1433.0,1493.0,1454.0,0.0,0.0,0.0,0.0,0.0,0.0,0.0,0.0,0.0,0.0
137434331,8,1497.0,1385.0,1452.0,1429.0,1469.0,1412.0,0.0,0.0,0.0,0.0,0.0,0.0,0.0,0.0,0.0,0.0
137454344,8,1363.0,1457.0,1533.0,1287.0,1451.0,1369.0,0.0,0.0,0.0,0.0,0.0,0.0,0.0,0.0,0.0,0.0
137478562,8,1352.0,1409.0,1475.0,1286.0,1406.0,1355.0,0.0,0.0,0.0,0.0,0.0,0.0,0.0,0.0,0.0,0.0
137502789,8,1322.0,1427.0,1427.0,1322.0,1324.0,1425.0,0.0,0.0,0.0,0.0,0.0,0.0,0.0,0.0,0.0,0.0
137526368,8,1398.0,1372.0,1347.0,1422.0,1312.0,1457.0,0.0,0.0,0.0,0.0,0.0,0.0,0.0,0.0,0.0,0.0
137550350,8,1490.0,1341.0,1418.0,1414.0,1441.0,1390.0,0.0,0.0,0.0,0.0,0.0,0.0,0.0,0.0,0.0,0.0
137574769,8,1363.0,1490.0,1513.0,1339.0,1410.0,1442.0,0.0,0.0,0.0,0.0,0.0,0.0,0.0,0.0,0.0,0.0
137598547,8,1514.0,1381.0,1390.0,1504.0,1427.0,1467.0,0.0,0.0,0.0,0.0,0.0,0.0,0.0,0.0,0.0,0.0
137618613,8,1418.0,1502.0,1509.0,1411.0,1435.0,1485.0,0.0,0.0,0.0,0.0,0.0,0.0,0.0,0.0,0.0,0.0
137642361,8,1512.0,1432.0,1453.0,1492.0,1463.0,1481.0,0.0,0.0,0.0,0.0,0.0,0.0,0.0,0.0,0.0,0.0
137662379,8,1497.0,1456.0,1495.0,1458.0,1478.0,1475.0,0.0,0.0,0.0,0.0,0.0,0.0,0.0,0.0,0.0,0.0
137682713,8,1443.0,1503.0,1440.0,1506.0,1383.0,1564.0,0.0,0.0,0.0,0.0,0.0,0.0,0.0,0.0,0.0,0.0
137706501,8,1474.0,1432.0,1384.0,1522.0,1372.0,1534.0,0.0,0.0,0.0,0.0,0.0,0.0,0.0,0.0,0.0,0.0
137730376,8,1466.0,1369.0,1379.0,1457.0,1396.0,1440.0,0.0,0.0,0.0,0.0,0.0,0.0,0.0,0.0,0.0,0.0
137754769,8,1469.0,1379.0,1444.0,1404.0,1465.0,1383.0,0.0,0.0,0.0,0.0,0.0,0.0,0.0,0.0,0.0,0.0
137778347,8,1394.0,1471.0,1464.0,1401.0,1399.0,1466.0,0.0,0.0,0.0,0.0,0.0,0.0,0.0,0.0,0.0,0.0
137798339,8,1494.0,1389.0,1421.0,1462.0,1449.0,1434.0,0.0,0.0,0.0,0.0,0.0,0.0,0.0,0.0,0.0,0.0
137818345,8,1418.0,1484.0,1465.0,1437.0,1405.0,1497.0,0.0,0.0,0.0,0.0,0.0,0.0,0.0,0.0,0.0,0.0
137842361,8,1432.0,1493.0,1500.0,1425.0,1446.0,1479.0,0.0,0.0,0.0,0.0,0.0,0.0,0.0,0.0,0.0,0.0
137866338,8,1489.0,1453.0,1410.0,1532.0,1408.0,1533.0,0.0,0.0,0.0,0.0,0.0,0.0,0.0,0.0,0.0,0.0
137886364,8,1490.0,1471.0,1536.0,1425.0,1518.0,1443.0,0.0,0.0,0.0,0.0,0.0,0.0,0.0,0.0,0.0,0.0
137906337,8,1442.0,1542.0,1487.0,1489.0,1412.0,1565.0,0.0,0.0,0.0,0.0,0.0,0.0,0.0,0.0,0.0,0.0
137930498,8,1500.0,1499.0,1432.0,1568.0,1408.0,1591.0,0.0,0.0,0.0,0.0,0.0,0.0,0.0,0.0,0.0,0.0
137954595,8,1523.0,1488.0,1467.0,1544.0,1462.0,1550.0,0.0,0.0,0.0,0.0,0.0,0.0,0.0,0.0,0.0,0.0
137978568,8,1516.0,1499.0,1475.0,1540.0,1457.0,1558.0,0.0,0.0,0.0,0.0,0.0,0.0,0.0,0.0,0.0,0.0
137998554,8,1493.0,1529.0,1505.0,1517.0,1459.0,1563.0,0.0,0.0,0.0,0.0,0.0,0.0,0.0,0.0,0.0,0.0
138022376,8,1569.0,1454.0,1513.0,1511.0,1544.0,1479.0,0.0,0.0,0.0,0.0,0.0,0.0,0.0,0.0,0.0,0.0
138042770,8,1505.0,1523.0,1562.0,1466.0,1531.0,1497.0,0.0,0.0,0.0,0.0,0.0,0.0,0.0,0.0,0.0,0.0
138066459,8,1559.0,1465.0,1532.0,1492.0,1554.0,1470.0,0.0,0.0,0.0,0.0,0.0,0.0,0.0,0.0,0.0,0.0
138086357,8,1445.0,1584.0,1549.0,1416.0,1517.0,1507.0,0.0,0.0,0.0,0.0,0.0,0.0,0.0,0.0,0.0,0.0
138110404,8,1529.0,1506.0,1570.0,1466.0,1561.0,1475.0,0.0,0.0,0.0,0.0,0.0,0.0,0.0,0.0,0.0,0.0
138130632,8,1460.0,1575.0,1514.0,1520.0,1439.0,1596.0,0.0,0.0,0.0,0.0,0.0,0.0,0.0,0.0,0.0,0.0
138154373,8,1471.0,1567.0,1544.0,1494.0,1482.0,1556.0,0.0,0.0,0.0,0.0,0.0,0.0,0.0,0.0,0.0,0.0
138174338,8,1473.0,1570.0,1592.0,1451.0,1528.0,1514.0,0.0,0.0,0.0,0.0,0.0,0.0,0.0,0.0,0.0,0.0
138198586,8,1545.0,1495.0,1450.0,1590.0,1460.0,1508.0,0.0,0.0,0.0,0.0,0.0,0.0,0.0,0.0,0.0,0.0
138222777,8,1560.0,1475.0,1488.0,1547.0,1510.0,1525.0,0.0,0.0,0.0,0.0,0.0,0.0,0.0,0.0,0.0,0.0
138242332,8,1563.0,1469.0,1529.0,1504.0,1558.0,1475.0,0.0,0.0,0.0,0.0,0.0,0.0,0.0,0.0,0.0,0.0
138266492,8,1542.0,1482.0,1507.0,1516.0,1521.0,1503.0,0.0,0.0,0.0,0.0,0.0,0.0,0.0,0.0,0.0,0.0
138290585,8,1513.0,1503.0,1494.0,1523.0,1483.0,1533.0,0.0,0.0,0.0,0.0,0.0,0.0,0.0,0.0,0.0,0.0
138314343,8,1432.0,1575.0,1504.0,1503.0,1422.0,1584.0,0.0,0.0,0.0,0.0,0.0,0.0,0.0,0.0,0.0,0.0
138334521,8,1496.0,1509.0,1523.0,1482.0,1502.0,1502.0,0.0,0.0,0.0,0.0,0.0,0.0,0.0,0.0,0.0,0.0
138358547,8,1447.0,1555.0,1566.0,1436.0,1492.0,1510.0,0.0,0.0,0.0,0.0,0.0,0.0,0.0,0.0,0.0,0.0
139302762,8,1550.0,1519.0,1496.0,1573.0,1486.0,1583.0,0.0,0.0,0.0,0.0,0.0,0.0,0.0,0.0,0.0,0.0
139326505,8,1476.0,1595.0,1584.0,1487.0,1491.0,1579.0,0.0,0.0,0.0,0.0,0.0,0.0,0.0,0.0,0.0,0.0
139350332,8,1526.0,1541.0,1600.0,1467.0,1554.0,1513.0,0.0,0.0,0.0,0.0,0.0,0.0,0.0,0.0,0.0,0.0
139374791,8,1564.0,1501.0,1584.0,1480.0,1576.0,1488.0,0.0,0.0,0.0,0.0,0.0,0.0,0.0,0.0,0.0,0.0
139398551,8,1562.0,1494.0,1532.0,1525.0,1527.0,1529.0,0.0,0.0,0.0,0.0,0.0,0.0,0.0,0.0,0.0,0.0
139422571,8,1502.0,1549.0,1538.0,1514.0,1477.0,1574.0,0.0,0.0,0.0,0.0,0.0,0.0,0.0,0.0,0.0,0.0
139446700,8,1509.0,1534.0,1518.0,1526.0,1461.0,1582.0,0.0,0.0,0.0,0.0,0.0,0.0,0.0,0.0,0.0,0.0
139466382,8,1526.0,1511.0,1558.0,1479.0,1522.0,1515.0,0.0,0.0,0.0,0.0,0.0,0.0,0.0,0.0,0.0,0.0
139490486,8,1557.0,1474.0,1502.0,1529.0,1500.0,1531.0,0.0,0.0,0.0,0.0,0.0,0.0,0.0,0.0,0.0,0.0
139510362,8,1559.0,1464.0,1544.0,1479.0,1550.0,1473.0,0.0,0.0,0.0,0.0,0.0,0.0,0.0,0.0,0.0,0.0
139530612,8,1508.0,1509.0,1560.0,1457.0,1522.0,1495.0,0.0,0.0,0.0,0.0,0.0,0.0,0.0,0.0,0.0,0.0
139554750,8,1532.0,1483.0,1502.0,1513.0,1494.0,1521.0,0.0,0.0,0.0,0.0,0.0,0.0,0.0,0.0,0.0,0.0
139578501,8,1538.0,1476.0,1475.0,1539.0,1473.0,1541.0,0.0,0.0,0.0,0.0,0.0,0.0,0.0,0.0,0.0,0.0
139602338,8,1479.0,1530.0,1531.0,1479.0,1471.0,1539.0,0.0,0.0,0.0,0.0,0.0,0.0,0.0,0.0,0.0,0.0
139626752,8,1485.0,1523.0,1553.0,1455.0,1497.0,1511.0,0.0,0.0,0.0,0.0,0.0,0.0,0.0,0.0,0.0,0.0
139646326,8,1486.0,1526.0,1476.0,1536.0,1422.0,1590.0,0.0,0.0,0.0,0.0,0.0,0.0,0.0,0.0,0.0,0.0
139666342,8,1533.0,1480.0,1480.0,1533.0,1470.0,1543.0,0.0,0.0,0.0,0.0,0.0,0.0,0.0,0.0,0.0,0.0
139690409,8,1490.0,1520.0,1518.0,1492.0,1472.0,1538.0,0.0,0.0,0.0,0.0,0.0,0.0,0.0,0.0,0.0,0.0
139714366,8,1449.0,1564.0,1570.0,1443.0,1478.0,1535.0,0.0,0.0,0.0,0.0,0.0,0.0,0.0,0.0,0.0,0.0
139738578,8,1484.0,1531.0,1582.0,1432.0,1521.0,1493.0,0.0,0.0,0.0,0.0,0.0,0.0,0.0,0.0,0.0,0.0
139762363,8,1529.0,1492.0,1534.0,1487.0,1513.0,1508.0,0.0,0.0,0.0,0.0,0.0,0.0,0.0,0.0,0.0,0.0
139786464,8,1564.0,1460.0,1471.0,1553.0,1490.0,1535.0,0.0,0.0,0.0,0.0,0.0,0.0,0.0,0.0,0.0,0.0
139810486,8,1573.0,1451.0,1499.0,1525.0,1524.0,1500.0,0.0,0.0,0.0,0.0,0.0,0.0,0.0,0.0,0.0,0.0
139833703,8,1565.0,1467.0,1502.0,1530.0,1525.0,1507.0,0.0,0.0,0.0,0.0,0.0,0.0,0.0,0.0,0.0,0.0
139857537,8,1553.0,1488.0,1515.0,1526.0,1526.0,1514.0,0.0,0.0,0.0,0.0,0.0,0.0,0.0,0.0,0.0,0.0
139878815,8,1531.0,1514.0,1499.0,1546.0,1490.0,1555.0,0.0,0.0,0.0,0.0,0.0,0.0,0.0,0.0,0.0,0.0
139902425,8,1646.0,1404.0,1435.0,1615.0,1529.0,1521.0,0.0,0.0,0.0,0.0,0.0,0.0,0.0,0.0,0.0,0.0
139922340,8,1599.0,1454.0,1496.0,1557.0,1539.0,1514.0,0.0,0.0,0.0,0.0,0.0,0.0,0.0,0.0,0.0,0.0
139945557,8,1596.0,1465.0,1510.0,1551.0,1546.0,1515.0,0.0,0.0,0.0,0.0,0.0,0.0,0.0,0.0,0.0,0.0
139966526,8,1554.0,1525.0,1596.0,1463.0,1566.0,1493.0,0.0,0.0,0.0,0.0,0.0,0.0,0.0,0.0,0.0,0.0
139988913,8,1476.0,1581.0,1588.0,1469.0,1507.0,1550.0,0.0,0.0,0.0,0.0,0.0,0.0,0.0,0.0,0.0,0.0
140009532,8,1476.0,1582.0,1570.0,1488.0,1494.0,1564.0,0.0,0.0,0.0,0.0,0.0,0.0,0.0,0.0,0.0,0.0
140033767,8,1579.0,1478.0,1509.0,1549.0,1529.0,1528.0,0.0,0.0,0.0,0.0,0.0,0.0,0.0,0.0,0.0,0.0
140054601,8,1558.0,1494.0,1476.0,1575.0,1478.0,1574.0,0.0,0.0,0.0,0.0,0.0,0.0,0.0,0.0,0.0,0.0
140077518,8,1594.0,1455.0,1439.0,1610.0,1480.0,1569.0,0.0,0.0,0.0,0.0,0.0,0.0,0.0,0.0,0.0,0.0
140097528,8,1533.0,1506.0,1510.0,1528.0,1489.0,1550.0,0.0,0.0,0.0,0.0,0.0,0.0,0.0,0.0,0.0,0.0
140117678,8,1462.0,1569.0,1630.0,1401.0,1541.0,1490.0,0.0,0.0,0.0,0.0,0.0,0.0,0.0,0.0,0.0,0.0
140141588,8,1511.0,1529.0,1546.0,1493.0,1508.0,1531.0,0.0,0.0,0.0,0.0,0.0,0.0,0.0,0.0,0.0,0.0
140161751,8,1435.0,1603.0,1643.0,1395.0,1529.0,1509.0,0.0,0.0,0.0,0.0,0.0,0.0,0.0,0.0,0.0,0.0
140185736,8,1435.0,1599.0,1637.0,1398.0,1525.0,1510.0,0.0,0.0,0.0,0.0,0.0,0.0,0.0,0.0,0.0,0.0
140209744,8,1504.0,1533.0,1604.0,1433.0,1563.0,1475.0,0.0,0.0,0.0,0.0,0.0,0.0,0.0,0.0,0.0,0.0
140229818,8,1432.0,1610.0,1583.0,1460.0,1476.0,1566.0,0.0,0.0,0.0,0.0,0.0,0.0,0.0,0.0,0.0,0.0
140250614,8,1456.0,1589.0,1634.0,1412.0,1546.0,1499.0,0.0,0.0,0.0,0.0,0.0,0.0,0.0,0.0,0.0,0.0
140273965,8,1485.0,1563.0,1455.0,1593.0,1401.0,1648.0,0.0,0.0,0.0,0.0,0.0,0.0,0.0,0.0,0.0,0.0
140294335,8,1613.0,1438.0,1460.0,1590.0,1526.0,1525.0,0.0,0.0,0.0,0.0,0.0,0.0,0.0,0.0,0.0,0.0
140314351,8,1533.0,1522.0,1586.0,1469.0,1569.0,1486.0,0.0,0.0,0.0,0.0,0.0,0.0,0.0,0.0,0.0,0.0
140337749,8,1507.0,1551.0,1590.0,1468.0,1548.0,1511.0,0.0,0.0,0.0,0.0,0.0,0.0,0.0,0.0,0.0,0.0
140357738,8,1458.0,1603.0,1615.0,1445.0,1523.0,1538.0,0.0,0.0,0.0,0.0,0.0,0.0,0.0,0.0,0.0,0.0
140377755,8,1568.0,1492.0,1466.0,1594.0,1487.0,1573.0,0.0,0.0,0.0,0.0,0.0,0.0,0.0,0.0,0.0,0.0
140401761,8,1452.0,1610.0,1626.0,1436.0,1518.0,1544.0,0.0,0.0,0.0,0.0,0.0,0.0,0.0,0.0,0.0,0.0
140425704,8,1502.0,1563.0,1526.0,1539.0,1476.0,1589.0,0.0,0.0,0.0,0.0,0.0,0.0,0.0,0.0,0.0,0.0
140449548,8,1455.0,1606.0,1545.0,1515.0,1450.0,1611.0,0.0,0.0,0.0,0.0,0.0,0.0,0.0,0.0,0.0,0.0
140469547,8,1548.0,1512.0,1507.0,1553.0,1506.0,1554.0,0.0,0.0,0.0,0.0,0.0,0.0,0.0,0.0,0.0,0.0
140489962,8,1576.0,1480.0,1532.0,1524.0,1558.0,1497.0,0.0,0.0,0.0,0.0,0.0,0.0,0.0,0.0,0.0,0.0
140510327,8,1576.0,1478.0,1547.0,1508.0,1573.0,1481.0,0.0,0.0,0.0,0.0,0.0,0.0,0.0,0.0,0.0,0.0
140533792,8,1581.0,1467.0,1483.0,1565.0,1522.0,1525.0,0.0,0.0,0.0,0.0,0.0,0.0,0.0,0.0,0.0,0.0
140557563,8,1534.0,1511.0,1530.0,1515.0,1521.0,1524.0,0.0,0.0,0.0,0.0,0.0,0.0,0.0,0.0,0.0,0.0
140577536,8,1567.0,1471.0,1428.0,1610.0,1458.0,1579.0,0.0,0.0,0.0,0.0,0.0,0.0,0.0,0.0,0.0,0.0
140597962,8,1566.0,1468.0,1445.0,1589.0,1470.0,1564.0,0.0,0.0,0.0,0.0,0.0,0.0,0.0,0.0,0.0,0.0
140620763,8,1588.0,1445.0,1404.0,1629.0,1456.0,1577.0,0.0,0.0,0.0,0.0,0.0,0.0,0.0,0.0,0.0,0.0
140641576,8,1549.0,1481.0,1482.0,1548.0,1494.0,1536.0,0.0,0.0,0.0,0.0,0.0,0.0,0.0,0.0,0.0,0.0
140661738,8,1418.0,1616.0,1650.0,1384.0,1526.0,1508.0,0.0,0.0,0.0,0.0,0.0,0.0,0.0,0.0,0.0,0.0
140681682,8,1439.0,1599.0,1579.0,1458.0,1477.0,1560.0,0.0,0.0,0.0,0.0,0.0,0.0,0.0,0.0,0.0,0.0
140705981,8,1500.0,1538.0,1545.0,1493.0,1504.0,1534.0,0.0,0.0,0.0,0.0,0.0,0.0,0.0,0.0,0.0,0.0
140729540,8,1463.0,1577.0,1570.0,1470.0,1491.0,1549.0,0.0,0.0,0.0,0.0,0.0,0.0,0.0,0.0,0.0,0.0
140753787,8,1456.0,1586.0,1586.0,1456.0,1494.0,1548.0,0.0,0.0,0.0,0.0,0.0,0.0,0.0,0.0,0.0,0.0
140774408,8,1522.0,1524.0,1527.0,1518.0,1500.0,1546.0,0.0,0.0,0.0,0.0,0.0,0.0,0.0,0.0,0.0,0.0
140797593,8,1526.0,1516.0,1543.0,1498.0,1518.0,1524.0,0.0,0.0,0.0,0.0,0.0,0.0,0.0,0.0,0.0,0.0
140821820,8,1490.0,1545.0,1589.0,1446.0,1525.0,1509.0,0.0,0.0,0.0,0.0,0.0,0.0,0.0,0.0,0.0,0.0
140845589,8,1485.0,1547.0,1537.0,1494.0,1470.0,1562.0,0.0,0.0,0.0,0.0,0.0,0.0,0.0,0.0,0.0,0.0
140869682,8,1489.0,1535.0,1501.0,1523.0,1446.0,1578.0,0.0,0.0,0.0,0.0,0.0,0.0,0.0,0.0,0.0,0.0
140889661,8,1443.0,1581.0,1562.0,1462.0,1456.0,1568.0,0.0,0.0,0.0,0.0,0.0,0.0,0.0,0.0,0.0,0.0
140909774,8,1496.0,1528.0,1561.0,1462.0,1513.0,1511.0,0.0,0.0,0.0,0.0,0.0,0.0,0.0,0.0,0.0,0.0
140933809,8,1440.0,1578.0,1597.0,1421.0,1487.0,1531.0,0.0,0.0,0.0,0.0,0.0,0.0,0.0,0.0,0.0,0.0
140957962,8,1470.0,1545.0,1565.0,1451.0,1481.0,1534.0,0.0,0.0,0.0,0.0,0.0,0.0,0.0,0.0,0.0,0.0
140981533,8,1497.0,1526.0,1525.0,1497.0,1465.0,1557.0,0.0,0.0,0.0,0.0,0.0,0.0,0.0,0.0,0.0,0.0
141001775,8,1472.0,1552.0,1624.0,1400.0,1539.0,1486.0,0.0,0.0,0.0,0.0,0.0,0.0,0.0,0.0,0.0,0.0
141025588,8,1455.0,1565.0,1643.0,1377.0,1542.0,1478.0,0.0,0.0,0.0,0.0,0.0,0.0,0.0,0.0,0.0,0.0
141045739,8,1459.0,1562.0,1495.0,1526.0,1405.0,1616.0,0.0,0.0,0.0,0.0,0.0,0.0,0.0,0.0,0.0,0.0
141069537,8,1463.0,1564.0,1512.0,1515.0,1425.0,1603.0,0.0,0.0,0.0,0.0,0.0,0.0,0.0,0.0,0.0,0.0
141089754,8,1539.0,1497.0,1455.0,1580.0,1444.0,1591.0,0.0,0.0,0.0,0.0,0.0,0.0,0.0,0.0,0.0,0.0
141113652,8,1490.0,1551.0,1498.0,1544.0,1430.0,1612.0,0.0,0.0,0.0,0.0,0.0,0.0,0.0,0.0,0.0,0.0
141133551,8,1602.0,1443.0,1495.0,1550.0,1528.0,1517.0,0.0,0.0,0.0,0.0,0.0,0.0,0.0,0.0,0.0,0.0
141157774,8,1567.0,1478.0,1522.0,1523.0,1522.0,1523.0,0.0,0.0,0.0,0.0,0.0,0.0,0.0,0.0,0.0,0.0
141181547,8,1492.0,1552.0,1512.0,1531.0,1448.0,1596.0,0.0,0.0,0.0,0.0,0.0,0.0,0.0,0.0,0.0,0.0
141205663,8,1478.0,1566.0,1562.0,1483.0,1474.0,1571.0,0.0,0.0,0.0,0.0,0.0,0.0,0.0,0.0,0.0,0.0
141229562,8,1544.0,1501.0,1559.0,1486.0,1534.0,1511.0,0.0,0.0,0.0,0.0,0.0,0.0,0.0,0.0,0.0,0.0
141249548,8,1508.0,1535.0,1512.0,1531.0,1455.0,1587.0,0.0,0.0,0.0,0.0,0.0,0.0,0.0,0.0,0.0,0.0
141269733,8,1472.0,1570.0,1547.0,1496.0,1455.0,1587.0,0.0,0.0,0.0,0.0,0.0,0.0,0.0,0.0,0.0,0.0
141293602,8,1479.0,1559.0,1528.0,1510.0,1443.0,1595.0,0.0,0.0,0.0,0.0,0.0,0.0,0.0,0.0,0.0,0.0
141317975,8,1573.0,1475.0,1481.0,1567.0,1482.0,1567.0,0.0,0.0,0.0,0.0,0.0,0.0,0.0,0.0,0.0,0.0
141341692,8,1518.0,1510.0,1488.0,1562.0,1460.0,1589.0,0.0,0.0,0.0,0.0,0.0,0.0,0.0,0.0,0.0,0.0
141365530,8,1491.0,1565.0,1550.0,1506.0,1473.0,1583.0,0.0,0.0,0.0,0.0,0.0,0.0,0.0,0.0,0.0,0.0
141389967,8,1518.0,1546.0,1539.0,1525.0,1485.0,1579.0,0.0,0.0,0.0,0.0,0.0,0.0,0.0,0.0,0.0,0.0
141409772,8,1493.0,1574.0,1577.0,1489.0,1494.0,1573.0,0.0,0.0,0.0,0.0,0.0,0.0,0.0,0.0,0.0,0.0
141433770,8,1514.0,1476.0,1461.0,1530.0,1438.0,1553.0,0.0,0.0,0.0,0.0,0.0,0.0,0.0,0.0,0.0,0.0
141457716,8,1476.0,1434.0,1396.0,1514.0,1385.0,1525.0,0.0,0.0,0.0,0.0,0.0,0.0,0.0,0.0,0.0,0.0
141481695,8,1374.0,1463.0,1451.0,1386.0,1379.0,1459.0,0.0,0.0,0.0,0.0,0.0,0.0,0.0,0.0,0.0,0.0
141505536,8,1356.0,1409.0,1459.0,1306.0,1397.0,1368.0,0.0,0.0,0.0,0.0,0.0,0.0,0.0,0.0,0.0,0.0
141529754,8,1326.0,1378.0,1416.0,1287.0,1354.0,1349.0,0.0,0.0,0.0,0.0,0.0,0.0,0.0,0.0,0.0,0.0
141553545,8,1274.0,1368.0,1350.0,1292.0,1264.0,1378.0,0.0,0.0,0.0,0.0,0.0,0.0,0.0,0.0,0.0,0.0
141577750,8,1240.0,1300.0,1296.0,1244.0,1227.0,1313.0,0.0,0.0,0.0,0.0,0.0,0.0,0.0,0.0,0.0,0.0
141597561,8,1246.0,1305.0,1337.0,1215.0,1266.0,1286.0,0.0,0.0,0.0,0.0,0.0,0.0,0.0,0.0,0.0,0.0
141617574,8,1294.0,1285.0,1291.0,1289.0,1253.0,1326.0,0.0,0.0,0.0,0.0,0.0,0.0,0.0,0.0,0.0,0.0
141641965,8,1322.0,1302.0,1316.0,1308.0,1288.0,1337.0,0.0,0.0,0.0,0.0,0.0,0.0,0.0,0.0,0.0,0.0
141661743,8,1319.0,1337.0,1391.0,1266.0,1337.0,1320.0,0.0,0.0,0.0,0.0,0.0,0.0,0.0,0.0,0.0,0.0
141685534,8,1386.0,1324.0,1366.0,1343.0,1353.0,1356.0,0.0,0.0,0.0,0.0,0.0,0.0,0.0,0.0,0.0,0.0
141705688,8,1445.0,1300.0,1314.0,1431.0,1348.0,1398.0,0.0,0.0,0.0,0.0,0.0,0.0,0.0,0.0,0.0,0.0
141725788,8,1430.0,1371.0,1339.0,1462.0,1335.0,1466.0,0.0,0.0,0.0,0.0,0.0,0.0,0.0,0.0,0.0,0.0
141745762,8,1368.0,1462.0,1422.0,1407.0,1344.0,1485.0,0.0,0.0,0.0,0.0,0.0,0.0,0.0,0.0,0.0,0.0
141769735,8,1468.0,1410.0,1428.0,1449.0,1420.0,1457.0,0.0,0.0,0.0,0.0,0.0,0.0,0.0,0.0,0.0,0.0
141789722,8,1492.0,1417.0,1460.0,1449.0,1457.0,1451.0,0.0,0.0,0.0,0.0,0.0,0.0,0.0,0.0,0.0,0.0
141813610,8,1453.0,1493.0,1504.0,1442.0,1446.0,1500.0,0.0,0.0,0.0,0.0,0.0,0.0,0.0,0.0,0.0,0.0
141837793,8,1530.0,1468.0,1418.0,1579.0,1410.0,1588.0,0.0,0.0,0.0,0.0,0.0,0.0,0.0,0.0,0.0,0.0
141858029,8,1501.0,1508.0,1574.0,1436.0,1524.0,1486.0,0.0,0.0,0.0,0.0,0.0,0.0,0.0,0.0,0.0,0.0
141881598,8,1544.0,1487.0,1566.0,1466.0,1545.0,1481.0,0.0,0.0,0.0,0.0,0.0,0.0,0.0,0.0,0.0,0.0
141901780,8,1519.0,1518.0,1435.0,1601.0,1395.0,1641.0,0.0,0.0,0.0,0.0,0.0,0.0,0.0,0.0,0.0,0.0
141925719,8,1491.0,1555.0,1509.0,1536.0,1437.0,1608.0,0.0,0.0,0.0,0.0,0.0,0.0,0.0,0.0,0.0,0.0
141945679,8,1666.0,1383.0,1486.0,1564.0,1580.0,1469.0,0.0,0.0,0.0,0.0,0.0,0.0,0.0,0.0,0.0,0.0
141969735,8,1669.0,1390.0,1447.0,1612.0,1545.0,1514.0,0.0,0.0,0.0,0.0,0.0,0.0,0.0,0.0,0.0,0.0
141993570,8,1547.0,1509.0,1490.0,1566.0,1468.0,1587.0,0.0,0.0,0.0,0.0,0.0,0.0,0.0,0.0,0.0,0.0
142013581,8,1557.0,1501.0,1523.0,1535.0,1507.0,1551.0,0.0,0.0,0.0,0.0,0.0,0.0,0.0,0.0,0.0,0.0
142033812,8,1514.0,1550.0,1564.0,1500.0,1503.0,1562.0,0.0,0.0,0.0,0.0,0.0,0.0,0.0,0.0,0.0,0.0
142053851,8,1550.0,1510.0,1521.0,1540.0,1498.0,1562.0,0.0,0.0,0.0,0.0,0.0,0.0,0.0,0.0,0.0,0.0
142077540,8,1560.0,1489.0,1483.0,1566.0,1483.0,1565.0,0.0,0.0,0.0,0.0,0.0,0.0,0.0,0.0,0.0,0.0
142097759,8,1481.0,1555.0,1537.0,1499.0,1469.0,1567.0,0.0,0.0,0.0,0.0,0.0,0.0,0.0,0.0,0.0,0.0
142121675,8,1508.0,1520.0,1494.0,1534.0,1456.0,1572.0,0.0,0.0,0.0,0.0,0.0,0.0,0.0,0.0,0.0,0.0
142145958,8,1529.0,1491.0,1519.0,1501.0,1505.0,1515.0,0.0,0.0,0.0,0.0,0.0,0.0,0.0,0.0,0.0,0.0
142165788,8,1430.0,1581.0,1546.0,1466.0,1433.0,1578.0,0.0,0.0,0.0,0.0,0.0,0.0,0.0,0.0,0.0,0.0
142189700,8,1468.0,1535.0,1519.0,1484.0,1456.0,1548.0,0.0,0.0,0.0,0.0,0.0,0.0,0.0,0.0,0.0,0.0
142213576,8,1556.0,1439.0,1427.0,1568.0,1457.0,1539.0,0.0,0.0,0.0,0.0,0.0,0.0,0.0,0.0,0.0,0.0
142233711,8,1481.0,1513.0,1523.0,1471.0,1473.0,1521.0,0.0,0.0,0.0,0.0,0.0,0.0,0.0,0.0,0.0,0.0
142253973,8,1465.0,1526.0,1580.0,1411.0,1515.0,1476.0,0.0,0.0,0.0,0.0,0.0,0.0,0.0,0.0,0.0,0.0
142273536,8,1457.0,1526.0,1492.0,1492.0,1433.0,1551.0,0.0,0.0,0.0,0.0,0.0,0.0,0.0,0.0,0.0,0.0
142297689,8,1427.0,1543.0,1506.0,1465.0,1428.0,1542.0,0.0,0.0,0.0,0.0,0.0,0.0,0.0,0.0,0.0,0.0
142317710,8,1536.0,1404.0,1394.0,1546.0,1444.0,1497.0,0.0,0.0,0.0,0.0,0.0,0.0,0.0,0.0,0.0,0.0
142341727,8,1471.0,1409.0,1389.0,1491.0,1407.0,1473.0,0.0,0.0,0.0,0.0,0.0,0.0,0.0,0.0,0.0,0.0
142362022,8,1435.0,1454.0,1524.0,1365.0,1507.0,1381.0,0.0,0.0,0.0,0.0,0.0,0.0,0.0,0.0,0.0,0.0
142385645,8,1335.0,1500.0,1506.0,1329.0,1425.0,1411.0,0.0,0.0,0.0,0.0,0.0,0.0,0.0,0.0,0.0,0.0
142409596,8,1277.0,1500.0,1431.0,1346.0,1317.0,1460.0,0.0,0.0,0.0,0.0,0.0,0.0,0.0,0.0,0.0,0.0
142429784,8,1450.0,1347.0,1354.0,1443.0,1397.0,1400.0,0.0,0.0,0.0,0.0,0.0,0.0,0.0,0.0,0.0,0.0
142449673,8,1325.0,1488.0,1442.0,1370.0,1329.0,1483.0,0.0,0.0,0.0,0.0,0.0,0.0,0.0,0.0,0.0,0.0
142473737,8,1446.0,1418.0,1539.0,1325.0,1355.0,1490.0,0.0,0.0,0.0,0.0,0.0,0.0,0.0,0.0,0.0,0.0
142497769,8,1518.0,1381.0,1540.0,1359.0,1362.0,1537.0,0.0,0.0,0.0,0.0,0.0,0.0,0.0,0.0,0.0,0.0
142521561,8,1536.0,1380.0,1566.0,1350.0,1438.0,1478.0,0.0,0.0,0.0,0.0,0.0,0.0,0.0,0.0,0.0,0.0
142541973,8,1567.0,1380.0,1456.0,1490.0,1389.0,1558.0,0.0,0.0,0.0,0.0,0.0,0.0,0.0,0.0,0.0,0.0
142561546,8,1556.0,1400.0,1544.0,1413.0,1494.0,1462.0,0.0,0.0,0.0,0.0,0.0,0.0,0.0,0.0,0.0,0.0
142581689,8,1580.0,1396.0,1476.0,1373.0,1408.0,1568.0,0.0,0.0,0.0,0.0,0.0,0.0,0.0,0.0,0.0,0.0
142601738,8,1521.0,1469.0,1487.0,1503.0,1392.0,1598.0,0.0,0.0,0.0,0.0,0.0,0.0,0.0,0.0,0.0,0.0
142621758,8,1644.0,1360.0,1512.0,1493.0,1534.0,1470.0,0.0,0.0,0.0,0.0,0.0,0.0,0.0,0.0,0.0,0.0
142641795,8,1485.0,1528.0,1555.0,1458.0,1402.0,1611.0,0.0,0.0,0.0,0.0,0.0,0.0,0.0,0.0,0.0,0.0
142665688,8,1569.0,1448.0,1528.0,1488.0,1468.0,1549.0,0.0,0.0,0.0,0.0,0.0,0.0,0.0,0.0,0.0,0.0
142689563,8,1635.0,1391.0,1491.0,1535.0,1508.0,1517.0,0.0,0.0,0.0,0.0,0.0,0.0,0.0,0.0,0.0,0.0
142709658,8,1593.0,1437.0,1440.0,1589.0,1415.0,1615.0,0.0,0.0,0.0,0.0,0.0,0.0,0.0,0.0,0.0,0.0
142729556,8,1588.0,1436.0,1495.0,1530.0,1481.0,1543.0,0.0,0.0,0.0,0.0,0.0,0.0,0.0,0.0,0.0,0.0
142749539,8,1613.0,1419.0,1489.0,1542.0,1480.0,1552.0,0.0,0.0,0.0,0.0,0.0,0.0,0.0,0.0,0.0,0.0
142769707,8,1562.0,1460.0,1601.0,1421.0,1496.0,1527.0,0.0,0.0,0.0,0.0,0.0,0.0,0.0,0.0,0.0,0.0
142793979,8,1571.0,1452.0,1549.0,1474.0,1427.0,1596.0,0.0,0.0,0.0,0.0,0.0,0.0,0.0,0.0,0.0,0.0
142817559,8,1529.0,1489.0,1561.0,1457.0,1413.0,1605.0,0.0,0.0,0.0,0.0,0.0,0.0,0.0,0.0,0.0,0.0
142837767,8,1539.0,1480.0,1534.0,1486.0,1422.0,1597.0,0.0,0.0,0.0,0.0,0.0,0.0,0.0,0.0,0.0,0.0
142861725,8,1541.0,1468.0,1581.0,1429.0,1483.0,1526.0,0.0,0.0,0.0,0.0,0.0,0.0,0.0,0.0,0.0,0.0
142885810,8,1526.0,1483.0,1562.0,1447.0,1468.0,1541.0,0.0,0.0,0.0,0.0,0.0,0.0,0.0,0.0,0.0,0.0
142905568,8,1529.0,1472.0,1494.0,1507.0,1405.0,1596.0,0.0,0.0,0.0,0.0,0.0,0.0,0.0,0.0,0.0,0.0
142925548,8,1495.0,1506.0,1545.0,1456.0,1428.0,1572.0,0.0,0.0,0.0,0.0,0.0,0.0,0.0,0.0,0.0,0.0
142945556,8,1557.0,1438.0,1488.0,1506.0,1439.0,1555.0,0.0,0.0,0.0,0.0,0.0,0.0,0.0,0.0,0.0,0.0
142969725,8,1496.0,1498.0,1474.0,1519.0,1372.0,1621.0,0.0,0.0,0.0,0.0,0.0,0.0,0.0,0.0,0.0,0.0
142989688,8,1526.0,1464.0,1499.0,1491.0,1430.0,1561.0,0.0,0.0,0.0,0.0,0.0,0.0,0.0,0.0,0.0,0.0
143013801,8,1496.0,1491.0,1549.0,1437.0,1455.0,1532.0,0.0,0.0,0.0,0.0,0.0,0.0,0.0,0.0,0.0,0.0
143033578,8,1446.0,1541.0,1533.0,1454.0,1396.0,1591.0,0.0,0.0,0.0,0.0,0.0,0.0,0.0,0.0,0.0,0.0
143057716,8,1464.0,1523.0,1614.0,1373.0,1477.0,1510.0,0.0,0.0,0.0,0.0,0.0,0.0,0.0,0.0,0.0,0.0
143081965,8,1499.0,1493.0,1511.0,1481.0,1418.0,1574.0,0.0,0.0,0.0,0.0,0.0,0.0,0.0,0.0,0.0,0.0
143101749,8,1540.0,1453.0,1569.0,1424.0,1514.0,1479.0,0.0,0.0,0.0,0.0,0.0,0.0,0.0,0.0,0.0,0.0
143125597,8,1574.0,1424.0,1562.0,1436.0,1534.0,1464.0,0.0,0.0,0.0,0.0,0.0,0.0,0.0,0.0,0.0,0.0
143145748,8,1503.0,1497.0,1549.0,1451.0,1452.0,1548.0,0.0,0.0,0.0,0.0,0.0,0.0,0.0,0.0,0.0,0.0
143169750,8,1543.0,1457.0,1466.0,1534.0,1406.0,1594.0,0.0,0.0,0.0,0.0,0.0,0.0,0.0,0.0,0.0,0.0
143189995,8,1549.0,1457.0,1470.0,1537.0,1413.0,1593.0,0.0,0.0,0.0,0.0,0.0,0.0,0.0,0.0,0.0,0.0
143213665,8,1580.0,1431.0,1525.0,1486.0,1479.0,1532.0,0.0,0.0,0.0,0.0,0.0,0.0,0.0,0.0,0.0,0.0
143237947,8,1637.0,1380.0,1528.0,1489.0,1403.0,1614.0,0.0,0.0,0.0,0.0,0.0,0.0,0.0,0.0,0.0,0.0
143257987,8,1627.0,1390.0,1581.0,1436.0,1412.0,1605.0,0.0,0.0,0.0,0.0,0.0,0.0,0.0,0.0,0.0,0.0
143281551,8,1563.0,1452.0,1498.0,1517.0,1282.0,1732.0,0.0,0.0,0.0,0.0,0.0,0.0,0.0,0.0,0.0,0.0
143301611,8,1591.0,1424.0,1565.0,1450.0,1416.0,1599.0,0.0,0.0,0.0,0.0,0.0,0.0,0.0,0.0,0.0,0.0
143321565,8,1541.0,1472.0,1572.0,1442.0,1388.0,1626.0,0.0,0.0,0.0,0.0,0.0,0.0,0.0,0.0,0.0,0.0
143341550,8,1498.0,1512.0,1563.0,1446.0,1357.0,1653.0,0.0,0.0,0.0,0.0,0.0,0.0,0.0,0.0,0.0,0.0
143365772,8,1610.0,1397.0,1550.0,1458.0,1432.0,1576.0,0.0,0.0,0.0,0.0,0.0,0.0,0.0,0.0,0.0,0.0
143385721,8,1535.0,1467.0,1557.0,1445.0,1381.0,1621.0,0.0,0.0,0.0,0.0,0.0,0.0,0.0,0.0,0.0,0.0
143409538,8,1567.0,1435.0,1591.0,1412.0,1406.0,1597.0,0.0,0.0,0.0,0.0,0.0,0.0,0.0,0.0,0.0,0.0
143429554,8,1547.0,1442.0,1584.0,1406.0,1329.0,1661.0,0.0,0.0,0.0,0.0,0.0,0.0,0.0,0.0,0.0,0.0
143449682,8,1559.0,1436.0,1653.0,1341.0,1409.0,1586.0,0.0,0.0,0.0,0.0,0.0,0.0,0.0,0.0,0.0,0.0
143469687,8,1566.0,1418.0,1555.0,1429.0,1372.0,1612.0,0.0,0.0,0.0,0.0,0.0,0.0,0.0,0.0,0.0,0.0
143493785,8,1481.0,1502.0,1572.0,1411.0,1394.0,1589.0,0.0,0.0,0.0,0.0,0.0,0.0,0.0,0.0,0.0,0.0
143514019,8,1517.0,1469.0,1494.0,1493.0,1430.0,1557.0,0.0,0.0,0.0,0.0,0.0,0.0,0.0,0.0,0.0,0.0
143537716,8,1423.0,1559.0,1527.0,1455.0,1439.0,1543.0,0.0,0.0,0.0,0.0,0.0,0.0,0.0,0.0,0.0,0.0
143561547,8,1542.0,1437.0,1458.0,1520.0,1542.0,1437.0,0.0,0.0,0.0,0.0,0.0,0.0,0.0,0.0,0.0,0.0
143585969,8,1395.0,1586.0,1431.0,1550.0,1495.0,1486.0,0.0,0.0,0.0,0.0,0.0,0.0,0.0,0.0,0.0,0.0
143609687,8,1476.0,1509.0,1435.0,1549.0,1453.0,1531.0,0.0,0.0,0.0,0.0,0.0,0.0,0.0,0.0,0.0,0.0
143633687,8,1412.0,1574.0,1426.0,1561.0,1457.0,1530.0,0.0,0.0,0.0,0.0,0.0,0.0,0.0,0.0,0.0,0.0
143653549,8,1438.0,1546.0,1290.0,1695.0,1534.0,1450.0,0.0,0.0,0.0,0.0,0.0,0.0,0.0,0.0,0.0,0.0
143673556,8,1366.0,1624.0,1450.0,1540.0,1693.0,1296.0,0.0,0.0,0.0,0.0,0.0,0.0,0.0,0.0,0.0,0.0
143693985,8,1361.0,1628.0,1459.0,1529.0,1624.0,1461.0,0.0,0.0,0.0,0.0,0.0,0.0,0.0,0.0,0.0,0.0
143717537,8,1437.0,1552.0,1362.0,1627.0,1555.0,1434.0,0.0,0.0,0.0,0.0,0.0,0.0,0.0,0.0,0.0,0.0
143737689,8,1456.0,1525.0,1359.0,1622.0,1540.0,1441.0,0.0,0.0,0.0,0.0,0.0,0.0,0.0,0.0,0.0,0.0
143757737,8,1357.0,1620.0,1522.0,1455.0,1577.0,1401.0,0.0,0.0,0.0,0.0,0.0,0.0,0.0,0.0,0.0,0.0
143777731,8,1456.0,1557.0,1388.0,1624.0,1507.0,1506.0,0.0,0.0,0.0,0.0,0.0,0.0,0.0,0.0,0.0,0.0
143801965,8,1451.0,1631.0,1509.0,1574.0,1581.0,1502.0,0.0,0.0,0.0,0.0,0.0,0.0,0.0,0.0,0.0,0.0
143821546,8,1496.0,1667.0,1537.0,1626.0,1589.0,1573.0,0.0,0.0,0.0,0.0,0.0,0.0,0.0,0.0,0.0,0.0
143841552,8,1588.0,1643.0,1542.0,1689.0,1644.0,1588.0,0.0,0.0,0.0,0.0,0.0,0.0,0.0,0.0,0.0,0.0
143861767,8,1538.0,1673.0,1654.0,1556.0,1685.0,1526.0,0.0,0.0,0.0,0.0,0.0,0.0,0.0,0.0,0.0,0.0
143885572,8,1580.0,1625.0,1600.0,1605.0,1652.0,1550.0,0.0,0.0,0.0,0.0,0.0,0.0,0.0,0.0,0.0,0.0
143909996,8,1619.0,1551.0,1549.0,1621.0,1635.0,1535.0,0.0,0.0,0.0,0.0,0.0,0.0,0.0,0.0,0.0,0.0
143929759,8,1521.0,1627.0,1565.0,1584.0,1567.0,1582.0,0.0,0.0,0.0,0.0,0.0,0.0,0.0,0.0,0.0,0.0
143953581,8,1541.0,1576.0,1586.0,1531.0,1604.0,1513.0,0.0,0.0,0.0,0.0,0.0,0.0,0.0,0.0,0.0,0.0
143973608,8,1486.0,1612.0,1611.0,1487.0,1576.0,1522.0,0.0,0.0,0.0,0.0,0.0,0.0,0.0,0.0,0.0,0.0
143993570,8,1473.0,1596.0,1563.0,1506.0,1526.0,1543.0,0.0,0.0,0.0,0.0,0.0,0.0,0.0,0.0,0.0,0.0
144013557,8,1472.0,1554.0,1521.0,1530.0,1491.0,1560.0,0.0,0.0,0.0,0.0,0.0,0.0,0.0,0.0,0.0,0.0
144037800,8,1476.0,1541.0,1527.0,1489.0,1495.0,1521.0,0.0,0.0,0.0,0.0,0.0,0.0,0.0,0.0,0.0,0.0
144061564,8,1531.0,1464.0,1507.0,1489.0,1532.0,1463.0,0.0,0.0,0.0,0.0,0.0,0.0,0.0,0.0,0.0,0.0
144081599,8,1460.0,1532.0,1532.0,1459.0,1488.0,1504.0,0.0,0.0,0.0,0.0,0.0,0.0,0.0,0.0,0.0,0.0
144105784,8,1474.0,1509.0,1479.0,1504.0,1441.0,1542.0,0.0,0.0,0.0,0.0,0.0,0.0,0.0,0.0,0.0,0.0
144125986,8,1477.0,1499.0,1462.0,1514.0,1430.0,1545.0,0.0,0.0,0.0,0.0,0.0,0.0,0.0,0.0,0.0,0.0
144145746,8,1537.0,1436.0,1434.0,1539.0,1458.0,1515.0,0.0,0.0,0.0,0.0,0.0,0.0,0.0,0.0,0.0,0.0
144169588,8,1565.0,1415.0,1445.0,1535.0,1486.0,1494.0,0.0,0.0,0.0,0.0,0.0,0.0,0.0,0.0,0.0,0.0
144189560,8,1457.0,1527.0,1549.0,1435.0,1480.0,1504.0,0.0,0.0,0.0,0.0,0.0,0.0,0.0,0.0,0.0,0.0
144209748,8,1457.0,1530.0,1465.0,1522.0,1393.0,1593.0,0.0,0.0,0.0,0.0,0.0,0.0,0.0,0.0,0.0,0.0
144234007,8,1470.0,1525.0,1471.0,1522.0,1398.0,1595.0,0.0,0.0,0.0,0.0,0.0,0.0,0.0,0.0,0.0,0.0
144257539,8,1452.0,1549.0,1495.0,1505.0,1402.0,1599.0,0.0,0.0,0.0,0.0,0.0,0.0,0.0,0.0,0.0,0.0
144281569,8,1413.0,1597.0,1548.0,1462.0,1410.0,1600.0,0.0,0.0,0.0,0.0,0.0,0.0,0.0,0.0,0.0,0.0
144305985,8,1416.0,1600.0,1585.0,1432.0,1444.0,1573.0,0.0,0.0,0.0,0.0,0.0,0.0,0.0,0.0,0.0,0.0
144329567,8,1405.0,1607.0,1628.0,1384.0,1468.0,1543.0,0.0,0.0,0.0,0.0,0.0,0.0,0.0,0.0,0.0,0.0
144353563,8,1422.0,1595.0,1640.0,1377.0,1484.0,1533.0,0.0,0.0,0.0,0.0,0.0,0.0,0.0,0.0,0.0,0.0
144373550,8,1488.0,1537.0,1474.0,1550.0,1381.0,1644.0,0.0,0.0,0.0,0.0,0.0,0.0,0.0,0.0,0.0,0.0
144393712,8,1624.0,1400.0,1491.0,1533.0,1525.0,1498.0,0.0,0.0,0.0,0.0,0.0,0.0,0.0,0.0,0.0,0.0
144413946,8,1537.0,1492.0,1596.0,1432.0,1556.0,1472.0,0.0,0.0,0.0,0.0,0.0,0.0,0.0,0.0,0.0,0.0
144433558,8,1474.0,1568.0,1488.0,1554.0,1378.0,1665.0,0.0,0.0,0.0,0.0,0.0,0.0,0.0,0.0,0.0,0.0
144457713,8,1424.0,1628.0,1597.0,1455.0,1434.0,1618.0,0.0,0.0,0.0,0.0,0.0,0.0,0.0,0.0,0.0,0.0
144477764,8,1484.0,1571.0,1570.0,1485.0,1461.0,1594.0,0.0,0.0,0.0,0.0,0.0,0.0,0.0,0.0,0.0,0.0
144497714,8,1566.0,1489.0,1527.0,1529.0,1489.0,1567.0,0.0,0.0,0.0,0.0,0.0,0.0,0.0,0.0,0.0,0.0
144522019,8,1582.0,1473.0,1510.0,1546.0,1493.0,1563.0,0.0,0.0,0.0,0.0,0.0,0.0,0.0,0.0,0.0,0.0
144541533,8,1507.0,1545.0,1546.0,1506.0,1459.0,1593.0,0.0,0.0,0.0,0.0,0.0,0.0,0.0,0.0,0.0,0.0
144561721,8,1529.0,1520.0,1477.0,1572.0,1413.0,1635.0,0.0,0.0,0.0,0.0,0.0,0.0,0.0,0.0,0.0,0.0
144581547,8,1563.0,1476.0,1510.0,1529.0,1480.0,1559.0,0.0,0.0,0.0,0.0,0.0,0.0,0.0,0.0,0.0,0.0
144601544,8,1574.0,1462.0,1501.0,1535.0,1487.0,1549.0,0.0,0.0,0.0,0.0,0.0,0.0,0.0,0.0,0.0,0.0
144625696,8,1489.0,1542.0,1517.0,1514.0,1421.0,1609.0,0.0,0.0,0.0,0.0,0.0,0.0,0.0,0.0,0.0,0.0
144649567,8,1473.0,1554.0,1553.0,1474.0,1444.0,1583.0,0.0,0.0,0.0,0.0,0.0,0.0,0.0,0.0,0.0,0.0
144672889,8,1514.0,1506.0,1527.0,1494.0,1458.0,1562.0,0.0,0.0,0.0,0.0,0.0,0.0,0.0,0.0,0.0,0.0
144692909,8,1502.0,1520.0,1579.0,1443.0,1493.0,1530.0,0.0,0.0,0.0,0.0,0.0,0.0,0.0,0.0,0.0,0.0
144716760,8,1561.0,1453.0,1543.0,1470.0,1518.0,1495.0,0.0,0.0,0.0,0.0,0.0,0.0,0.0,0.0,0.0,0.0
144739299,8,1582.0,1430.0,1478.0,1535.0,1486.0,1527.0,0.0,0.0,0.0,0.0,0.0,0.0,0.0,0.0,0.0,0.0
144761749,8,1557.0,1454.0,1459.0,1552.0,1445.0,1566.0,0.0,0.0,0.0,0.0,0.0,0.0,0.0,0.0,0.0,0.0
144785713,8,1485.0,1524.0,1579.0,1430.0,1394.0,1615.0,0.0,0.0,0.0,0.0,0.0,0.0,0.0,0.0,0.0,0.0
144808914,8,1511.0,1501.0,1572.0,1439.0,1503.0,1508.0,0.0,0.0,0.0,0.0,0.0,0.0,0.0,0.0,0.0,0.0
144832958,8,1421.0,1591.0,1563.0,1448.0,1402.0,1609.0,0.0,0.0,0.0,0.0,0.0,0.0,0.0,0.0,0.0,0.0
144852982,8,1541.0,1448.0,1465.0,1525.0,1442.0,1547.0,0.0,0.0,0.0,0.0,0.0,0.0,0.0,0.0,0.0,0.0
144877192,8,1446.0,1475.0,1454.0,1466.0,1372.0,1548.0,0.0,0.0,0.0,0.0,0.0,0.0,0.0,0.0,0.0,0.0
144900891,8,1435.0,1348.0,1450.0,1334.0,1418.0,1365.0,0.0,0.0,0.0,0.0,0.0,0.0,0.0,0.0,0.0,0.0
144920768,8,1463.0,1307.0,1358.0,1412.0,1365.0,1405.0,0.0,0.0,0.0,0.0,0.0,0.0,0.0,0.0,0.0,0.0
144944745,8,1423.0,1365.0,1337.0,1450.0,1294.0,1494.0,0.0,0.0,0.0,0.0,0.0,0.0,0.0,0.0,0.0,0.0
144968886,8,1458.0,1349.0,1422.0,1385.0,1401.0,1406.0,0.0,0.0,0.0,0.0,0.0,0.0,0.0,0.0,0.0,0.0
144992763,8,1408.0,1424.0,1506.0,1326.0,1428.0,1405.0,0.0,0.0,0.0,0.0,0.0,0.0,0.0,0.0,0.0,0.0
145012749,8,1488.0,1367.0,1369.0,1486.0,1367.0,1488.0,0.0,0.0,0.0,0.0,0.0,0.0,0.0,0.0,0.0,0.0
145032757,8,1412.0,1471.0,1518.0,1364.0,1421.0,1462.0,0.0,0.0,0.0,0.0,0.0,0.0,0.0,0.0,0.0,0.0
145057162,8,1517.0,1389.0,1406.0,1499.0,1399.0,1507.0,0.0,0.0,0.0,0.0,0.0,0.0,0.0,0.0,0.0,0.0
145080964,8,1528.0,1426.0,1430.0,1524.0,1413.0,1541.0,0.0,0.0,0.0,0.0,0.0,0.0,0.0,0.0,0.0,0.0
145100968,8,1475.0,1509.0,1561.0,1422.0,1474.0,1510.0,0.0,0.0,0.0,0.0,0.0,0.0,0.0,0.0,0.0,0.0
145124973,8,1486.0,1513.0,1470.0,1529.0,1390.0,1608.0,0.0,0.0,0.0,0.0,0.0,0.0,0.0,0.0,0.0,0.0
145148786,8,1501.0,1519.0,1521.0,1500.0,1443.0,1578.0,0.0,0.0,0.0,0.0,0.0,0.0,0.0,0.0,0.0,0.0
145172793,8,1473.0,1560.0,1482.0,1550.0,1373.0,1660.0,0.0,0.0,0.0,0.0,0.0,0.0,0.0,0.0,0.0,0.0
145192784,8,1631.0,1411.0,1545.0,1496.0,1580.0,1462.0,0.0,0.0,0.0,0.0,0.0,0.0,0.0,0.0,0.0,0.0
145216808,8,1650.0,1395.0,1484.0,1560.0,1543.0,1502.0,0.0,0.0,0.0,0.0,0.0,0.0,0.0,0.0,0.0,0.0
145237216,8,1584.0,1463.0,1502.0,1545.0,1494.0,1553.0,0.0,0.0,0.0,0.0,0.0,0.0,0.0,0.0,0.0,0.0
145260751,8,1591.0,1467.0,1520.0,1562.0,1487.0,1572.0,0.0,0.0,0.0,0.0,0.0,0.0,0.0,0.0,0.0,0.0
145284943,8,1529.0,1530.0,1580.0,1480.0,1507.0,1553.0,0.0,0.0,0.0,0.0,0.0,0.0,0.0,0.0,0.0,0.0
145309165,8,1530.0,1530.0,1597.0,1463.0,1522.0,1538.0,0.0,0.0,0.0,0.0,0.0,0.0,0.0,0.0,0.0,0.0
145328772,8,1492.0,1563.0,1590.0,1465.0,1484.0,1571.0,0.0,0.0,0.0,0.0,0.0,0.0,0.0,0.0,0.0,0.0
145352767,8,1556.0,1493.0,1533.0,1517.0,1495.0,1554.0,0.0,0.0,0.0,0.0,0.0,0.0,0.0,0.0,0.0,0.0
145372762,8,1565.0,1478.0,1493.0,1549.0,1457.0,1586.0,0.0,0.0,0.0,0.0,0.0,0.0,0.0,0.0,0.0,0.0
145396947,8,1554.0,1479.0,1485.0,1549.0,1450.0,1583.0,0.0,0.0,0.0,0.0,0.0,0.0,0.0,0.0,0.0,0.0
145420792,8,1506.0,1514.0,1493.0,1528.0,1416.0,1604.0,0.0,0.0,0.0,0.0,0.0,0.0,0.0,0.0,0.0,0.0
145440785,8,1497.0,1523.0,1566.0,1454.0,1476.0,1544.0,0.0,0.0,0.0,0.0,0.0,0.0,0.0,0.0,0.0,0.0
145464861,8,1495.0,1515.0,1571.0,1439.0,1479.0,1532.0,0.0,0.0,0.0,0.0,0.0,0.0,0.0,0.0,0.0,0.0
145484880,8,1479.0,1527.0,1539.0,1467.0,1446.0,1560.0,0.0,0.0,0.0,0.0,0.0,0.0,0.0,0.0,0.0,0.0
145508989,8,1520.0,1482.0,1542.0,1460.0,1486.0,1516.0,0.0,0.0,0.0,0.0,0.0,0.0,0.0,0.0,0.0,0.0
145528957,8,1456.0,1547.0,1571.0,1431.0,1451.0,1551.0,0.0,0.0,0.0,0.0,0.0,0.0,0.0,0.0,0.0,0.0
145548962,8,1447.0,1554.0,1542.0,1458.0,1416.0,1584.0,0.0,0.0,0.0,0.0,0.0,0.0,0.0,0.0,0.0,0.0
145568775,8,1507.0,1496.0,1470.0,1533.0,1405.0,1598.0,0.0,0.0,0.0,0.0,0.0,0.0,0.0,0.0,0.0,0.0
145588798,8,1623.0,1379.0,1455.0,1547.0,1507.0,1495.0,0.0,0.0,0.0,0.0,0.0,0.0,0.0,0.0,0.0,0.0
145608804,8,1560.0,1445.0,1500.0,1505.0,1479.0,1525.0,0.0,0.0,0.0,0.0,0.0,0.0,0.0,0.0,0.0,0.0
145633192,8,1575.0,1434.0,1473.0,1536.0,1466.0,1543.0,0.0,0.0,0.0,0.0,0.0,0.0,0.0,0.0,0.0,0.0
145652882,8,1510.0,1505.0,1558.0,1458.0,1487.0,1528.0,0.0,0.0,0.0,0.0,0.0,0.0,0.0,0.0,0.0,0.0
145672959,8,1513.0,1506.0,1557.0,1462.0,1484.0,1536.0,0.0,0.0,0.0,0.0,0.0,0.0,0.0,0.0,0.0,0.0
145696757,8,1569.0,1455.0,1532.0,1492.0,1514.0,1509.0,0.0,0.0,0.0,0.0,0.0,0.0,0.0,0.0,0.0,0.0
145716788,8,1524.0,1505.0,1615.0,1414.0,1547.0,1482.0,0.0,0.0,0.0,0.0,0.0,0.0,0.0,0.0,0.0,0.0
145736791,8,1437.0,1591.0,1547.0,1482.0,1393.0,1635.0,0.0,0.0,0.0,0.0,0.0,0.0,0.0,0.0,0.0,0.0
145756893,8,1518.0,1507.0,1538.0,1487.0,1468.0,1558.0,0.0,0.0,0.0,0.0,0.0,0.0,0.0,0.0,0.0,0.0
145777149,8,1565.0,1466.0,1465.0,1566.0,1437.0,1595.0,0.0,0.0,0.0,0.0,0.0,0.0,0.0,0.0,0.0,0.0
145800965,8,1547.0,1482.0,1524.0,1505.0,1478.0,1551.0,0.0,0.0,0.0,0.0,0.0,0.0,0.0,0.0,0.0,0.0
145824979,8,1514.0,1519.0,1619.0,1414.0,1530.0,1503.0,0.0,0.0,0.0,0.0,0.0,0.0,0.0,0.0,0.0,0.0
145849162,8,1559.0,1470.0,1552.0,1477.0,1507.0,1522.0,0.0,0.0,0.0,0.0,0.0,0.0,0.0,0.0,0.0,0.0
145868912,8,1548.0,1478.0,1598.0,1429.0,1554.0,1473.0,0.0,0.0,0.0,0.0,0.0,0.0,0.0,0.0,0.0,0.0
145892754,8,1585.0,1440.0,1515.0,1510.0,1507.0,1518.0,0.0,0.0,0.0,0.0,0.0,0.0,0.0,0.0,0.0,0.0
145912769,8,1560.0,1466.0,1464.0,1562.0,1427.0,1598.0,0.0,0.0,0.0,0.0,0.0,0.0,0.0,0.0,0.0,0.0
145936770,8,1577.0,1451.0,1475.0,1553.0,1457.0,1571.0,0.0,0.0,0.0,0.0,0.0,0.0,0.0,0.0,0.0,0.0
145957175,8,1577.0,1446.0,1475.0,1548.0,1457.0,1566.0,0.0,0.0,0.0,0.0,0.0,0.0,0.0,0.0,0.0,0.0
145980726,8,1493.0,1523.0,1514.0,1502.0,1423.0,1594.0,0.0,0.0,0.0,0.0,0.0,0.0,0.0,0.0,0.0,0.0
146004908,8,1456.0,1558.0,1556.0,1458.0,1424.0,1589.0,0.0,0.0,0.0,0.0,0.0,0.0,0.0,0.0,0.0,0.0
146029199,8,1508.0,1502.0,1540.0,1470.0,1466.0,1544.0,0.0,0.0,0.0,0.0,0.0,0.0,0.0,0.0,0.0,0.0
146052772,8,1518.0,1491.0,1558.0,1451.0,1462.0,1547.0,0.0,0.0,0.0,0.0,0.0,0.0,0.0,0.0,0.0,0.0
146076974,8,1512.0,1499.0,1526.0,1485.0,1445.0,1566.0,0.0,0.0,0.0,0.0,0.0,0.0,0.0,0.0,0.0,0.0
146096770,8,1529.0,1482.0,1534.0,1477.0,1477.0,1534.0,0.0,0.0,0.0,0.0,0.0,0.0,0.0,0.0,0.0,0.0
146120752,8,1462.0,1544.0,1584.0,1422.0,1463.0,1542.0,0.0,0.0,0.0,0.0,0.0,0.0,0.0,0.0,0.0,0.0
146144981,8,1556.0,1446.0,1540.0,1462.0,1512.0,1490.0,0.0,0.0,0.0,0.0,0.0,0.0,0.0,0.0,0.0,0.0
146164977,8,1452.0,1547.0,1525.0,1474.0,1395.0,1604.0,0.0,0.0,0.0,0.0,0.0,0.0,0.0,0.0,0.0,0.0
146188965,8,1508.0,1492.0,1482.0,1517.0,1407.0,1593.0,0.0,0.0,0.0,0.0,0.0,0.0,0.0,0.0,0.0,0.0
146209165,8,1537.0,1462.0,1533.0,1465.0,1486.0,1512.0,0.0,0.0,0.0,0.0,0.0,0.0,0.0,0.0,0.0,0.0
146228970,8,1573.0,1423.0,1521.0,1475.0,1515.0,1481.0,0.0,0.0,0.0,0.0,0.0,0.0,0.0,0.0,0.0,0.0
146252793,8,1564.0,1432.0,1469.0,1527.0,1457.0,1539.0,0.0,0.0,0.0,0.0,0.0,0.0,0.0,0.0,0.0,0.0
146276738,8,1520.0,1478.0,1501.0,1497.0,1441.0,1557.0,0.0,0.0,0.0,0.0,0.0,0.0,0.0,0.0,0.0,0.0
146296735,8,1553.0,1445.0,1505.0,1494.0,1482.0,1516.0,0.0,0.0,0.0,0.0,0.0,0.0,0.0,0.0,0.0,0.0
146317170,8,1550.0,1448.0,1510.0,1488.0,1481.0,1517.0,0.0,0.0,0.0,0.0,0.0,0.0,0.0,0.0,0.0,0.0
146340998,8,1450.0,1548.0,1550.0,1538.0,1432.0,1566.0,0.0,0.0,0.0,0.0,0.0,0.0,0.0,0.0,0.0,0.0
146364859,8,1475.0,1522.0,1515.0,1482.0,1420.0,1577.0,0.0,0.0,0.0,0.0,0.0,0.0,0.0,0.0,0.0,0.0
146389173,8,1506.0,1493.0,1495.0,1504.0,1425.0,1574.0,0.0,0.0,0.0,0.0,0.0,0.0,0.0,0.0,0.0,0.0
146413004,8,1512.0,1491.0,1464.0,1540.0,1406.0,1598.0,0.0,0.0,0.0,0.0,0.0,0.0,0.0,0.0,0.0,0.0
146436792,8,1546.0,1452.0,1474.0,1524.0,1448.0,1550.0,0.0,0.0,0.0,0.0,0.0,0.0,0.0,0.0,0.0,0.0
146461177,8,1499.0,1504.0,1509.0,1494.0,1436.0,1567.0,0.0,0.0,0.0,0.0,0.0,0.0,0.0,0.0,0.0,0.0
146480879,8,1556.0,1447.0,1482.0,1521.0,1467.0,1537.0,0.0,0.0,0.0,0.0,0.0,0.0,0.0,0.0,0.0,0.0
146504783,8,1495.0,1512.0,1496.0,1510.0,1419.0,1588.0,0.0,0.0,0.0,0.0,0.0,0.0,0.0,0.0,0.0,0.0
146524754,8,1516.0,1489.0,1518.0,1487.0,1463.0,1542.0,0.0,0.0,0.0,0.0,0.0,0.0,0.0,0.0,0.0,0.0
146549021,8,1509.0,1496.0,1539.0,1466.0,1474.0,1531.0,0.0,0.0,0.0,0.0,0.0,0.0,0.0,0.0,0.0,0.0
146572740,8,1494.0,1511.0,1559.0,1447.0,1472.0,1533.0,0.0,0.0,0.0,0.0,0.0,0.0,0.0,0.0,0.0,0.0
146596942,8,1527.0,1477.0,1527.0,1476.0,1480.0,1523.0,0.0,0.0,0.0,0.0,0.0,0.0,0.0,0.0,0.0,0.0
146616766,8,1506.0,1494.0,1495.0,1504.0,1429.0,1571.0,0.0,0.0,0.0,0.0,0.0,0.0,0.0,0.0,0.0,0.0
146636892,8,1502.0,1498.0,1565.0,1436.0,1489.0,1512.0,0.0,0.0,0.0,0.0,0.0,0.0,0.0,0.0,0.0,0.0
146660763,8,1539.0,1457.0,1504.0,1492.0,1472.0,1523.0,0.0,0.0,0.0,0.0,0.0,0.0,0.0,0.0,0.0,0.0
146684889,8,1464.0,1534.0,1501.0,1496.0,1394.0,1603.0,0.0,0.0,0.0,0.0,0.0,0.0,0.0,0.0,0.0,0.0
146708892,8,1513.0,1485.0,1531.0,1467.0,1475.0,1523.0,0.0,0.0,0.0,0.0,0.0,0.0,0.0,0.0,0.0,0.0
146728915,8,1534.0,1464.0,1474.0,1524.0,1435.0,1563.0,0.0,0.0,0.0,0.0,0.0,0.0,0.0,0.0,0.0,0.0
146749168,8,1536.0,1464.0,1502.0,1497.0,1467.0,1532.0,0.0,0.0,0.0,0.0,0.0,0.0,0.0,0.0,0.0,0.0
146768969,8,1541.0,1456.0,1549.0,1448.0,1517.0,1481.0,0.0,0.0,0.0,0.0,0.0,0.0,0.0,0.0,0.0,0.0
146788884,8,1579.0,1418.0,1439.0,1557.0,1452.0,1544.0,0.0,0.0,0.0,0.0,0.0,0.0,0.0,0.0,0.0,0.0
146812781,8,1590.0,1451.0,1534.0,1507.0,1534.0,1507.0,0.0,0.0,0.0,0.0,0.0,0.0,0.0,0.0,0.0,0.0
146836752,8,1591.0,1514.0,1578.0,1526.0,1544.0,1561.0,0.0,0.0,0.0,0.0,0.0,0.0,0.0,0.0,0.0,0.0
146857369,8,1620.0,1560.0,1545.0,1635.0,1504.0,1676.0,0.0,0.0,0.0,0.0,0.0,0.0,0.0,0.0,0.0,0.0
146876736,8,1660.0,1571.0,1577.0,1654.0,1542.0,1689.0,0.0,0.0,0.0,0.0,0.0,0.0,0.0,0.0,0.0,0.0
146896928,8,1639.0,1580.0,1634.0,1585.0,1586.0,1633.0,0.0,0.0,0.0,0.0,0.0,0.0,0.0,0.0,0.0,0.0
146920762,8,1542.0,1635.0,1688.0,1489.0,1566.0,1611.0,0.0,0.0,0.0,0.0,0.0,0.0,0.0,0.0,0.0,0.0
146940896,8,1574.0,1574.0,1597.0,1550.0,1528.0,1620.0,0.0,0.0,0.0,0.0,0.0,0.0,0.0,0.0,0.0,0.0
146960910,8,1655.0,1469.0,1539.0,1585.0,1544.0,1580.0,0.0,0.0,0.0,0.0,0.0,0.0,0.0,0.0,0.0,0.0
146980906,8,1606.0,1488.0,1516.0,1578.0,1493.0,1601.0,0.0,0.0,0.0,0.0,0.0,0.0,0.0,0.0,0.0,0.0
147001143,8,1518.0,1539.0,1566.0,1490.0,1478.0,1578.0,0.0,0.0,0.0,0.0,0.0,0.0,0.0,0.0,0.0,0.0
147024745,8,1519.0,1521.0,1581.0,1459.0,1503.0,1537.0,0.0,0.0,0.0,0.0,0.0,0.0,0.0,0.0,0.0,0.0
147044719,8,1517.0,1499.0,1588.0,1429.0,1520.0,1496.0,0.0,0.0,0.0,0.0,0.0,0.0,0.0,0.0,0.0,0.0
147064784,8,1565.0,1510.0,1582.0,1493.0,1536.0,1539.0,0.0,0.0,0.0,0.0,0.0,0.0,0.0,0.0,0.0,0.0
147084744,8,1619.0,1510.0,1536.0,1593.0,1516.0,1614.0,0.0,0.0,0.0,0.0,0.0,0.0,0.0,0.0,0.0,0.0
147109225,8,1592.0,1598.0,1573.0,1617.0,1504.0,1686.0,0.0,0.0,0.0,0.0,0.0,0.0,0.0,0.0,0.0,0.0
147132926,8,1581.0,1662.0,1698.0,1546.0,1595.0,1649.0,0.0,0.0,0.0,0.0,0.0,0.0,0.0,0.0,0.0,0.0
147152760,8,1681.0,1616.0,1665.0,1632.0,1616.0,1681.0,0.0,0.0,0.0,0.0,0.0,0.0,0.0,0.0,0.0,0.0
147172753,8,1679.0,1654.0,1690.0,1642.0,1618.0,1715.0,0.0,0.0,0.0,0.0,0.0,0.0,0.0,0.0,0.0,0.0
147196721,8,1762.0,1614.0,1643.0,1733.0,1626.0,1750.0,0.0,0.0,0.0,0.0,0.0,0.0,0.0,0.0,0.0,0.0
147220778,8,1665.0,1625.0,1624.0,1585.0,1624.0,1666.0,0.0,0.0,0.0,0.0,0.0,0.0,0.0,0.0,0.0,0.0
147240876,8,1630.0,1592.0,1623.0,1599.0,1551.0,1671.0,0.0,0.0,0.0,0.0,0.0,0.0,0.0,0.0,0.0,0.0
147264752,8,1604.0,1570.0,1622.0,1552.0,1549.0,1625.0,0.0,0.0,0.0,0.0,0.0,0.0,0.0,0.0,0.0,0.0
147289241,8,1598.0,1512.0,1568.0,1541.0,1515.0,1595.0,0.0,0.0,0.0,0.0,0.0,0.0,0.0,0.0,0.0,0.0
147312774,8,1524.0,1545.0,1510.0,1558.0,1497.0,1572.0,0.0,0.0,0.0,0.0,0.0,0.0,0.0,0.0,0.0,0.0
147332863,8,1524.0,1503.0,1536.0,1491.0,1459.0,1567.0,0.0,0.0,0.0,0.0,0.0,0.0,0.0,0.0,0.0,0.0
147352747,8,1453.0,1544.0,1578.0,1419.0,1443.0,1554.0,0.0,0.0,0.0,0.0,0.0,0.0,0.0,0.0,0.0,0.0
147372970,8,1501.0,1464.0,1550.0,1415.0,1482.0,1483.0,0.0,0.0,0.0,0.0,0.0,0.0,0.0,0.0,0.0,0.0
147392916,8,1477.0,1478.0,1542.0,1413.0,1456.0,1499.0,0.0,0.0,0.0,0.0,0.0,0.0,0.0,0.0,0.0,0.0
147412999,8,1439.0,1508.0,1492.0,1454.0,1373.0,1574.0,0.0,0.0,0.0,0.0,0.0,0.0,0.0,0.0,0.0,0.0
147436980,8,1542.0,1406.0,1443.0,1506.0,1431.0,1518.0,0.0,0.0,0.0,0.0,0.0,0.0,0.0,0.0,0.0,0.0
147457357,8,1525.0,1431.0,1445.0,1511.0,1428.0,1520.0,0.0,0.0,0.0,0.0,0.0,0.0,0.0,0.0,0.0,0.0
147480861,8,1519.0,1447.0,1534.0,1432.0,1484.0,1483.0,0.0,0.0,0.0,0.0,0.0,0.0,0.0,0.0,0.0,0.0
147500881,8,1468.0,1508.0,1517.0,1458.0,1413.0,1563.0,0.0,0.0,0.0,0.0,0.0,0.0,0.0,0.0,0.0,0.0
147524791,8,1458.0,1527.0,1602.0,1383.0,1486.0,1499.0,0.0,0.0,0.0,0.0,0.0,0.0,0.0,0.0,0.0,0.0
147544888,8,1417.0,1579.0,1490.0,1507.0,1328.0,1668.0,0.0,0.0,0.0,0.0,0.0,0.0,0.0,0.0,0.0,0.0
147568907,8,1452.0,1553.0,1526.0,1479.0,1399.0,1605.0,0.0,0.0,0.0,0.0,0.0,0.0,0.0,0.0,0.0,0.0
147589034,8,1589.0,1424.0,1460.0,1553.0,1472.0,1541.0,0.0,0.0,0.0,0.0,0.0,0.0,0.0,0.0,0.0,0.0
147608973,8,1607.0,1418.0,1508.0,1517.0,1528.0,1497.0,0.0,0.0,0.0,0.0,0.0,0.0,0.0,0.0,0.0,0.0
147628965,8,1528.0,1508.0,1579.0,1457.0,1509.0,1527.0,0.0,0.0,0.0,0.0,0.0,0.0,0.0,0.0,0.0,0.0
147652797,8,1590.0,1456.0,1485.0,1561.0,1474.0,1572.0,0.0,0.0,0.0,0.0,0.0,0.0,0.0,0.0,0.0,0.0
147672880,8,1555.0,1491.0,1613.0,1432.0,1567.0,1478.0,0.0,0.0,0.0,0.0,0.0,0.0,0.0,0.0,0.0,0.0
147693052,8,1519.0,1531.0,1534.0,1516.0,1460.0,1590.0,0.0,0.0,0.0,0.0,0.0,0.0,0.0,0.0,0.0,0.0
147712898,8,1516.0,1538.0,1549.0,1505.0,1471.0,1583.0,0.0,0.0,0.0,0.0,0.0,0.0,0.0,0.0,0.0,0.0
147736726,8,1467.0,1585.0,1604.0,1449.0,1475.0,1578.0,0.0,0.0,0.0,0.0,0.0,0.0,0.0,0.0,0.0,0.0
147760957,8,1485.0,1567.0,1606.0,1446.0,1490.0,1563.0,0.0,0.0,0.0,0.0,0.0,0.0,0.0,0.0,0.0,0.0
147780773,8,1531.0,1513.0,1617.0,1426.0,1562.0,1482.0,0.0,0.0,0.0,0.0,0.0,0.0,0.0,0.0,0.0,0.0
147804730,8,1604.0,1439.0,1540.0,1503.0,1558.0,1485.0,0.0,0.0,0.0,0.0,0.0,0.0,0.0,0.0,0.0,0.0
147824763,8,1557.0,1485.0,1540.0,1502.0,1509.0,1532.0,0.0,0.0,0.0,0.0,0.0,0.0,0.0,0.0,0.0,0.0
147848903,8,1604.0,1433.0,1451.0,1586.0,1472.0,1565.0,0.0,0.0,0.0,0.0,0.0,0.0,0.0,0.0,0.0,0.0
147872740,8,1591.0,1451.0,1448.0,1594.0,1456.0,1586.0,0.0,0.0,0.0,0.0,0.0,0.0,0.0,0.0,0.0,0.0
147896805,8,1522.0,1518.0,1500.0,1540.0,1443.0,1597.0,0.0,0.0,0.0,0.0,0.0,0.0,0.0,0.0,0.0,0.0
147920932,8,1529.0,1509.0,1584.0,1454.0,1529.0,1616.0,0.0,0.0,0.0,0.0,0.0,0.0,0.0,0.0,0.0,0.0
147944965,8,1458.0,1584.0,1542.0,1500.0,1416.0,1627.0,0.0,0.0,0.0,0.0,0.0,0.0,0.0,0.0,0.0,0.0
147964751,8,1547.0,1495.0,1539.0,1503.0,1504.0,1537.0,0.0,0.0,0.0,0.0,0.0,0.0,0.0,0.0,0.0,0.0
147984757,8,1544.0,1499.0,1545.0,1497.0,1512.0,1530.0,0.0,0.0,0.0,0.0,0.0,0.0,0.0,0.0,0.0,0.0
148004777,8,1536.0,1509.0,1465.0,1579.0,1418.0,1626.0,0.0,0.0,0.0,0.0,0.0,0.0,0.0,0.0,0.0,0.0
148024938,8,1458.0,1580.0,1507.0,1531.0,1389.0,1649.0,0.0,0.0,0.0,0.0,0.0,0.0,0.0,0.0,0.0,0.0
148045164,8,1550.0,1488.0,1520.0,1518.0,1490.0,1548.0,0.0,0.0,0.0,0.0,0.0,0.0,0.0,0.0,0.0,0.0
148064931,8,1498.0,1537.0,1524.0,1511.0,1444.0,1592.0,0.0,0.0,0.0,0.0,0.0,0.0,0.0,0.0,0.0,0.0
148088885,8,1571.0,1461.0,1485.0,1547.0,1476.0,1556.0,0.0,0.0,0.0,0.0,0.0,0.0,0.0,0.0,0.0,0.0
148112917,8,1586.0,1451.0,1448.0,1589.0,1457.0,1579.0,0.0,0.0,0.0,0.0,0.0,0.0,0.0,0.0,0.0,0.0
148132778,8,1563.0,1472.0,1517.0,1517.0,1501.0,1534.0,0.0,0.0,0.0,0.0,0.0,0.0,0.0,0.0,0.0,0.0
148153145,8,1533.0,1497.0,1501.0,1529.0,1459.0,1571.0,0.0,0.0,0.0,0.0,0.0,0.0,0.0,0.0,0.0,0.0
148177004,8,1576.0,1454.0,1473.0,1557.0,1477.0,1553.0,0.0,0.0,0.0,0.0,0.0,0.0,0.0,0.0,0.0,0.0
148200737,8,1552.0,1469.0,1477.0,1544.0,1462.0,1558.0,0.0,0.0,0.0,0.0,0.0,0.0,0.0,0.0,0.0,0.0
148220904,8,1608.0,1416.0,1415.0,1609.0,1454.0,1570.0,0.0,0.0,0.0,0.0,0.0,0.0,0.0,0.0,0.0,0.0
148244870,8,1542.0,1483.0,1483.0,1542.0,1455.0,1570.0,0.0,0.0,0.0,0.0,0.0,0.0,0.0,0.0,0.0,0.0
148264766,8,1561.0,1459.0,1521.0,1499.0,1508.0,1512.0,0.0,0.0,0.0,0.0,0.0,0.0,0.0,0.0,0.0,0.0
148288933,8,1599.0,1425.0,1487.0,1537.0,1512.0,1512.0,0.0,0.0,0.0,0.0,0.0,0.0,0.0,0.0,0.0,0.0
148308937,8,1549.0,1482.0,1500.0,1531.0,1477.0,1553.0,0.0,0.0,0.0,0.0,0.0,0.0,0.0,0.0,0.0,0.0
148333181,8,1489.0,1544.0,1557.0,1476.0,1472.0,1561.0,0.0,0.0,0.0,0.0,0.0,0.0,0.0,0.0,0.0,0.0
148356741,8,1566.0,1464.0,1480.0,1550.0,1481.0,1549.0,0.0,0.0,0.0,0.0,0.0,0.0,0.0,0.0,0.0,0.0
148376763,8,1604.0,1430.0,1421.0,1614.0,1454.0,1580.0,0.0,0.0,0.0,0.0,0.0,0.0,0.0,0.0,0.0,0.0
148400781,8,1588.0,1445.0,1442.0,1591.0,1467.0,1566.0,0.0,0.0,0.0,0.0,0.0,0.0,0.0,0.0,0.0,0.0
148420886,8,1556.0,1479.0,1539.0,1496.0,1524.0,1511.0,0.0,0.0,0.0,0.0,0.0,0.0,0.0,0.0,0.0,0.0
148441172,8,1465.0,1572.0,1613.0,1424.0,1515.0,1521.0,0.0,0.0,0.0,0.0,0.0,0.0,0.0,0.0,0.0,0.0
148460916,8,1501.0,1545.0,1459.0,1587.0,1397.0,1648.0,0.0,0.0,0.0,0.0,0.0,0.0,0.0,0.0,0.0,0.0
