timestamp,voltage_v,voltage_filtered_v,current_a,current_filtered_a,average_current_a,discharged_mah,remaining,scale,temperature,cell_count,voltage_cell_v[0],voltage_cell_v[1],voltage_cell_v[2],voltage_cell_v[3],max_cell_voltage_delta,capacity,cycle_count,run_time_to_empty,average_time_to_empty,serial_number,connected,system_source,priority,is_powering_off,warning
100761836,16.520123,16.54927,38.8616,38.891125,0.0,1051.4725,0.8746355,1.0151504,0.0,4,0.0,0.0,0.0,0.0,0.0,0,0,0,0,0,1,1,0,0,0
101265861,16.53958,16.541288,38.8864,38.893475,0.0,1056.9177,0.8706444,1.0156403,0.0,4,0.0,0.0,0.0,0.0,0.0,0,0,0,0,0,1,1,0,0,0
101770010,16.500664,16.533207,38.8864,38.892063,0.0,1062.3641,0.8666037,1.0161368,0.0,4,0.0,0.0,0.0,0.0,0.0,0,0,0,0,0,1,1,0,0,0
102274762,16.53958,16.533548,38.874,38.8932,0.0,1067.8173,0.8667744,1.0161158,0.0,4,0.0,0.0,0.0,0.0,0.0,0,0,0,0,0,1,1,0,0,0
102778774,16.53958,16.526316,38.8864,38.894386,0.0,1073.2623,0.86315805,1.0165604,0.0,4,0.0,0.0,0.0,0.0,0.0,0,0,0,0,0,1,1,0,0,0
103282789,16.520123,16.522293,38.874,38.894302,0.0,1078.7076,0.86114675,1.0168079,0.0,4,0.0,0.0,0.0,0.0,0.0,0,0,0,0,0,1,1,0,0,0
103775636,16.52985,16.521317,38.911198,38.8927,0.0,1084.0319,0.86065847,1.0168681,0.0,4,0.0,0.0,0.0,0.0,0.0,0,0,0,0,0,1,1,0,0,0
104279634,16.510393,16.519695,38.8988,38.89486,0.0,1089.477,0.85984784,1.0169679,0.0,4,0.0,0.0,0.0,0.0,0.0,0,0,0,0,0,1,1,0,0,0
104783551,16.52985,16.51888,38.936,38.898518,0.0,1094.9222,0.8594406,1.017018,0.0,4,0.0,0.0,0.0,0.0,0.0,0,0,0,0,0,1,1,0,0,0
105288377,16.510393,16.517408,38.8864,38.899364,0.0,1100.3772,0.8587044,1.0171087,0.0,4,0.0,0.0,0.0,0.0,0.0,0,0,0,0,0,1,1,0,0,0
105792382,16.510393,16.51779,38.911198,38.90002,0.0,1105.8231,0.8588951,1.0170852,0.0,4,0.0,0.0,0.0,0.0,0.0,0,0,0,0,0,1,1,0,0,0
106296833,16.510393,16.516823,38.8864,38.898457,0.0,1111.2737,0.8584116,1.0171447,0.0,4,0.0,0.0,0.0,0.0,0.0,0,0,0,0,0,1,1,0,0,0
106797446,16.510393,16.51664,38.8988,38.89673,0.0,1116.6823,0.85832006,1.017156,0.0,4,0.0,0.0,0.0,0.0,0.0,0,0,0,0,0,1,1,0,0,0
107289096,16.53958,16.518316,38.8864,38.89867,0.0,1121.9949,0.85915834,1.0170528,0.0,4,0.0,0.0,0.0,0.0,0.0,0,0,0,0,0,1,1,0,0,0
107793113,16.520123,16.518248,38.9236,38.901333,0.0,1127.4414,0.859124,1.017057,0.0,4,0.0,0.0,0.0,0.0,0.0,0,0,0,0,0,1,1,0,0,0
108297858,16.42283,16.513355,38.8988,38.901817,0.0,1132.8959,0.86798555,1.0159669,0.0,4,0.0,0.0,0.0,0.0,0.0,0,0,0,0,0,1,1,0,0,0
108801911,16.403372,16.490412,38.8864,38.90218,0.0,1138.3427,0.8882807,1.0134791,0.0,4,0.0,0.0,0.0,0.0,0.0,0,0,0,0,0,1,1,0,0,0
109305838,16.130955,16.389256,38.8864,38.901157,0.0,1143.7882,0.8926676,1.012943,0.0,4,0.0,0.0,0.0,0.0,0.0,0,0,0,0,0,1,1,0,0,0
109809911,15.965559,16.258718,38.8988,38.900627,0.0,1149.2349,0.8809431,1.0143772,0.0,4,0.0,0.0,0.0,0.0,0.0,0,0,0,0,0,1,1,0,0,0
110310743,15.975288,16.142761,38.911198,38.900726,0.0,1154.6465,0.86257535,1.0166322,0.0,4,0.0,0.0,0.0,0.0,0.0,0,0,0,0,0,1,1,0,0,0
110814720,16.014206,16.07223,38.8988,38.899582,0.0,1160.0919,0.8534735,1.0177532,0.0,4,0.0,0.0,0.0,0.0,0.0,0,0,0,0,0,1,1,0,0,0
111306731,16.043392,16.03937,38.8864,38.899925,0.0,1165.4086,0.8524664,1.0178775,0.0,4,0.0,0.0,0.0,0.0,0.0,0,0,0,0,0,1,1,0,0,0
111811497,15.946101,15.96837,38.8616,38.896828,0.0,1170.8622,0.83180314,1.0204326,0.0,4,0.0,0.0,0.0,0.0,0.0,0,0,0,0,0,1,1,0,0,0
112315536,15.848809,15.948103,38.8864,38.896027,0.0,1176.3081,0.8279217,1.020914,0.0,4,0.0,0.0,0.0,0.0,0.0,0,0,0,0,0,1,1,0,0,0
112819608,15.770976,15.902773,38.8864,38.897667,0.0,1181.7544,0.8145912,1.0225706,0.0,4,0.0,0.0,0.0,0.0,0.0,0,0,0,0,0,1,1,0,0,0
113324333,15.946101,15.883487,38.8864,38.895557,0.0,1187.2076,0.80942327,1.0232143,0.0,4,0.0,0.0,0.0,0.0,0.0,0,0,0,0,0,1,1,0,0,0
113828315,15.819622,15.832673,38.8988,38.898396,0.0,1192.6533,0.789995,1.0256417,0.0,4,0.0,0.0,0.0,0.0,0.0,0,0,0,0,0,1,1,0,0,0
114332311,15.673684,15.807879,38.8864,38.899696,0.0,1198.0992,0.7806471,1.0268136,0.0,4,0.0,0.0,0.0,0.0,0.0,0,0,0,0,0,1,1,0,0,0
114825521,15.790434,15.792748,38.9236,38.897724,0.0,1203.4283,0.7757481,1.0274289,0.0,4,0.0,0.0,0.0,0.0,0.0,0,0,0,0,0,1,1,0,0,0
115329185,15.819622,15.779072,38.8988,38.896744,0.0,1208.87,0.7714327,1.0279715,0.0,4,0.0,0.0,0.0,0.0,0.0,0,0,0,0,0,1,1,0,0,0
115833113,15.877996,15.763951,38.8864,38.8944,0.0,1214.3141,0.7661198,1.0286403,0.0,4,0.0,0.0,0.0,0.0,0.0,0,0,0,0,0,1,1,0,0,0
116841968,15.381809,15.72497,38.874,38.893963,0.0,1225.2135,0.7478617,1.0309453,0.0,4,0.0,0.0,0.0,0.0,0.0,0,0,0,0,0,1,1,0,0,0
117334000,15.770976,15.69199,38.911198,38.893246,0.0,1230.529,0.7322653,1.0329225,0.0,4,0.0,0.0,0.0,0.0,0.0,0,0,0,0,0,1,1,0,0,0
117837950,15.82935,15.693172,38.874,38.89646,0.0,1235.9745,0.7333639,1.032783,0.0,4,0.0,0.0,0.0,0.0,0.0,0,0,0,0,0,1,1,0,0,0
118342729,15.537476,15.671756,38.8864,38.895664,0.0,1241.4279,0.7244814,1.0339122,0.0,4,0.0,0.0,0.0,0.0,0.0,0,0,0,0,0,1,1,0,0,0
118846766,15.508288,15.663113,38.8988,38.89589,0.0,1246.8737,0.7219742,1.0342313,0.0,4,0.0,0.0,0.0,0.0,0.0,0,0,0,0,0,1,1,0,0,0
119350747,15.586122,15.652807,38.8988,38.895824,0.0,1252.319,0.71636754,1.0349457,0.0,4,0.0,0.0,0.0,0.0,0.0,0,0,0,0,0,1,1,0,0,0
119843592,15.644497,15.643219,38.8864,38.89546,0.0,1257.6436,0.7109631,1.0356354,0.0,4,0.0,0.0,0.0,0.0,0.0,0,0,0,0,0,1,1,0,0,0
120343567,15.537476,15.64617,38.8864,38.894867,0.0,1263.0455,0.7133663,1.0353285,0.0,4,0.0,0.0,0.0,0.0,0.0,0,0,0,0,0,1,1,0,0,0
120847427,15.770976,15.64569,38.8988,38.896732,0.0,1268.4899,0.71405107,1.0352411,0.0,4,0.0,0.0,0.0,0.0,0.0,0,0,0,0,0,1,1,0,0,0
121352281,15.634768,15.643566,38.8864,38.89774,0.0,1273.9445,0.71356183,1.0353036,0.0,4,0.0,0.0,0.0,0.0,0.0,0,0,0,0,0,1,1,0,0,0
121844313,15.556934,15.613539,38.911198,38.897415,0.0,1279.2606,0.70008737,1.0370258,0.0,4,0.0,0.0,0.0,0.0,0.0,0,0,0,0,0,1,1,0,0,0
122348248,15.654226,15.619652,38.8988,38.897625,0.0,1284.7057,0.70133096,1.0368667,0.0,4,0.0,0.0,0.0,0.0,0.0,0,0,0,0,0,1,1,0,0,0
122852245,15.547205,15.607956,38.8864,38.89623,0.0,1290.1509,0.69556123,1.0376056,0.0,4,0.0,0.0,0.0,0.0,0.0,0,0,0,0,0,1,1,0,0,0
123357163,15.459642,15.597164,38.8864,38.895565,0.0,1295.6062,0.69103605,1.038186,0.0,4,0.0,0.0,0.0,0.0,0.0,0,0,0,0,0,1,1,0,0,0
123849128,15.556934,15.584062,38.8864,38.89636,0.0,1300.922,0.6857107,1.0388697,0.0,4,0.0,0.0,0.0,0.0,0.0,0,0,0,0,0,1,1,0,0,0
124353184,15.644497,15.575116,38.8864,38.89744,0.0,1306.3683,0.68383676,1.0391105,0.0,4,0.0,0.0,0.0,0.0,0.0,0,0,0,0,0,1,1,0,0,0
124857209,15.72233,15.566654,38.911198,38.895805,0.0,1311.8138,0.6813238,1.0394336,0.0,4,0.0,0.0,0.0,0.0,0.0,0,0,0,0,0,1,1,0,0,0
125349972,15.673684,15.582376,38.9236,38.897324,0.0,1317.1385,0.68522817,1.0389317,0.0,4,0.0,0.0,0.0,0.0,0.0,0,0,0,0,0,1,1,0,0,0
125853977,15.60558,15.579592,38.8988,38.89882,0.0,1322.5846,0.6835459,1.0391479,0.0,4,0.0,0.0,0.0,0.0,0.0,0,0,0,0,0,1,1,0,0,0
126357891,15.654226,15.568805,38.8988,38.898182,0.0,1328.0294,0.67919713,1.0397073,0.0,4,0.0,0.0,0.0,0.0,0.0,0,0,0,0,0,1,1,0,0,0
126861910,15.498559,15.559097,38.911198,38.89853,0.0,1333.4755,0.67463666,1.0402944,0.0,4,0.0,0.0,0.0,0.0,0.0,0,0,0,0,0,1,1,0,0,0
127354716,15.654226,15.555057,38.8864,38.89578,0.0,1338.7999,0.6728876,1.0405198,0.0,4,0.0,0.0,0.0,0.0,0.0,0,0,0,0,0,1,1,0,0,0
127858716,15.770976,15.562939,38.8988,38.89705,0.0,1344.2456,0.67747766,1.0399286,0.0,4,0.0,0.0,0.0,0.0,0.0,0,0,0,0,0,1,1,0,0,0
128362710,15.391539,15.5399065,38.8988,38.89711,0.0,1349.6909,0.668001,1.0411501,0.0,4,0.0,0.0,0.0,0.0,0.0,0,0,0,0,0,1,1,0,0,0
128853926,15.72233,15.576622,38.8864,38.8963,0.0,1354.9984,0.68159086,1.0393993,0.0,4,0.0,0.0,0.0,0.0,0.0,0,0,0,0,0,1,1,0,0,0
129359928,15.391539,15.549925,38.8988,38.894257,0.0,1360.4651,0.6702164,1.0408642,0.0,4,0.0,0.0,0.0,0.0,0.0,0,0,0,0,0,1,1,0,0,0
129863609,15.595851,15.554087,38.911198,38.897873,0.0,1365.9072,0.6720312,1.0406302,0.0,4,0.0,0.0,0.0,0.0,0.0,0,0,0,0,0,1,1,0,0,0
130355541,15.566664,15.5528345,38.8864,38.898586,0.0,1371.2228,0.6714781,1.0407015,0.0,4,0.0,0.0,0.0,0.0,0.0,0,0,0,0,0,1,1,0,0,0
130856210,15.537476,15.529106,38.8616,38.895004,0.0,1376.6321,0.66187555,1.0419412,0.0,4,0.0,0.0,0.0,0.0,0.0,0,0,0,0,0,1,1,0,0,0
131360248,15.459642,15.537711,38.8988,38.897682,0.0,1382.0784,0.66370946,1.0417042,0.0,4,0.0,0.0,0.0,0.0,0.0,0,0,0,0,0,1,1,0,0,0
131864338,15.654226,15.535583,38.911198,38.89978,0.0,1387.5258,0.663266,1.0417615,0.0,4,0.0,0.0,0.0,0.0,0.0,0,0,0,0,0,1,1,0,0,0
132356388,15.625038,15.535119,38.8864,38.897526,0.0,1392.8422,0.6619213,1.0419352,0.0,4,0.0,0.0,0.0,0.0,0.0,0,0,0,0,0,1,1,0,0,0
132861187,15.576392,15.531302,38.911198,38.900143,0.0,1398.297,0.66073877,1.042088,0.0,4,0.0,0.0,0.0,0.0,0.0,0,0,0,0,0,1,1,0,0,0
133365134,15.518018,15.520171,38.8864,38.896908,0.0,1403.7417,0.655011,1.042829,0.0,4,0.0,0.0,0.0,0.0,0.0,0,0,0,0,0,1,1,0,0,0
133869129,15.625038,15.5226755,38.8988,38.898464,0.0,1409.1874,0.65488034,1.042846,0.0,4,0.0,0.0,0.0,0.0,0.0,0,0,0,0,0,1,1,0,0,0
134373196,15.527747,15.511602,38.8864,38.898727,0.0,1414.634,0.6498478,1.0434979,0.0,4,0.0,0.0,0.0,0.0,0.0,0,0,0,0,0,1,1,0,0,0
134865919,15.479101,15.512446,38.9236,38.89834,0.0,1419.9578,0.6485756,1.0436629,0.0,4,0.0,0.0,0.0,0.0,0.0,0,0,0,0,0,1,1,0,0,0
135369881,15.401268,15.503873,38.8988,38.898968,0.0,1425.4032,0.6460932,1.0439849,0.0,4,0.0,0.0,0.0,0.0,0.0,0,0,0,0,0,1,1,0,0,0
135873888,15.518018,15.495202,38.911198,38.8967,0.0,1430.8483,0.6434811,1.0443239,0.0,4,0.0,0.0,0.0,0.0,0.0,0,0,0,0,0,1,1,0,0,0
136377879,15.25533,15.489581,38.8988,38.89811,0.0,1436.2941,0.64060956,1.0446969,0.0,4,0.0,0.0,0.0,0.0,0.0,0,0,0,0,0,1,1,0,0,0
136882802,15.654226,15.481533,38.8988,38.900017,0.0,1441.7501,0.63799554,1.0450367,0.0,4,0.0,0.0,0.0,0.0,0.0,0,0,0,0,0,1,1,0,0,0
137374651,15.566664,15.480526,38.8988,38.89943,0.0,1447.0647,0.6383694,1.044988,0.0,4,0.0,0.0,0.0,0.0,0.0,0,0,0,0,0,1,1,0,0,0
137878698,15.469372,15.492649,38.8988,38.89885,0.0,1452.5114,0.64506704,1.044118,0.0,4,0.0,0.0,0.0,0.0,0.0,0,0,0,0,0,1,1,0,0,0
138379525,15.430455,15.49435,38.911198,38.89962,0.0,1457.9231,0.6452759,1.044091,0.0,4,0.0,0.0,0.0,0.0,0.0,0,0,0,0,0,1,1,0,0,0
138883561,15.6834135,15.4815855,38.911198,38.8991,0.0,1463.3693,0.63823587,1.0450054,0.0,4,0.0,0.0,0.0,0.0,0.0,0,0,0,0,0,1,1,0,0,0
139387441,15.440185,15.471542,38.911198,38.89968,0.0,1468.8138,0.6348389,1.0454472,0.0,4,0.0,0.0,0.0,0.0,0.0,0,0,0,0,0,1,1,0,0,0
139891501,15.410996,15.463949,38.8864,38.90043,0.0,1474.2606,0.63244706,1.0457585,0.0,4,0.0,0.0,0.0,0.0,0.0,0,0,0,0,0,1,1,0,0,0
140384364,15.60558,15.466738,38.8864,38.9001,0.0,1479.5863,0.632078,1.0458065,0.0,4,0.0,0.0,0.0,0.0,0.0,0,0,0,0,0,1,1,0,0,0
140888346,15.712601,15.470255,38.8864,38.900856,0.0,1485.0325,0.6345423,1.0454859,0.0,4,0.0,0.0,0.0,0.0,0.0,0,0,0,0,0,1,1,0,0,0
141392369,15.508288,15.476687,38.8616,38.902004,0.0,1490.4788,0.6366213,1.0452154,0.0,4,0.0,0.0,0.0,0.0,0.0,0,0,0,0,0,1,1,0,0,0
141896357,15.527747,15.474276,38.8864,38.90328,0.0,1495.9252,0.63425523,1.0455232,0.0,4,0.0,0.0,0.0,0.0,0.0,0,0,0,0,0,1,1,0,0,0
142388331,15.440185,15.478348,38.8988,38.9025,0.0,1501.2417,0.63532335,1.0453842,0.0,4,0.0,0.0,0.0,0.0,0.0,0,0,0,0,0,1,1,0,0,0
143889205,15.440185,15.480745,38.8988,38.901905,0.0,1517.4597,0.6339901,1.0455576,0.0,4,0.0,0.0,0.0,0.0,0.0,0,0,0,0,0,1,1,0,0,0
144393046,15.265059,15.458047,38.8864,38.898922,0.0,1522.9036,0.6254843,1.0466658,0.0,4,0.0,0.0,0.0,0.0,0.0,0,0,0,0,0,1,1,0,0,0
144897958,15.265059,15.4539385,38.911198,38.901,0.0,1528.3597,0.62421876,1.0468309,0.0,4,0.0,0.0,0.0,0.0,0.0,0,0,0,0,0,1,1,0,0,0
145401920,15.576392,15.448111,38.911198,38.905346,0.0,1533.8064,0.6229666,1.0469942,0.0,4,0.0,0.0,0.0,0.0,0.0,0,0,0,0,0,1,1,0,0,0
145905958,15.303976,15.440132,38.9236,38.904366,0.0,1539.2534,0.6198433,1.047402,0.0,4,0.0,0.0,0.0,0.0,0.0,0,0,0,0,0,1,1,0,0,0
146409937,15.897455,15.415701,38.911198,38.90345,0.0,1544.6993,0.6048525,1.0493635,0.0,4,0.0,0.0,0.0,0.0,0.0,0,0,0,0,0,1,1,0,0,0
146902786,15.352622,15.434574,38.8988,38.90431,0.0,1550.0254,0.6133602,1.0482494,0.0,4,0.0,0.0,0.0,0.0,0.0,0,0,0,0,0,1,1,0,0,0
147406758,15.401268,15.438904,38.8864,38.903744,0.0,1555.4717,0.6150816,1.0480243,0.0,4,0.0,0.0,0.0,0.0,0.0,0,0,0,0,0,1,1,0,0,0
147910755,15.673684,15.447685,38.911198,38.90631,0.0,1560.9186,0.6193808,1.0474623,0.0,4,0.0,0.0,0.0,0.0,0.0,0,0,0,0,0,1,1,0,0,0
148414731,15.303976,15.435567,38.8988,38.90313,0.0,1566.3643,0.6162804,1.0478675,0.0,4,0.0,0.0,0.0,0.0,0.0,0,0,0,0,0,1,1,0,0,0
148916342,15.440185,15.437972,38.911198,38.902733,0.0,1571.7852,0.6168278,1.047796,0.0,4,0.0,0.0,0.0,0.0,0.0,0,0,0,0,0,1,1,0,0,0
149419815,15.459642,15.442197,38.8988,38.90355,0.0,1577.2261,0.61843854,1.0475855,0.0,4,0.0,0.0,0.0,0.0,0.0,0,0,0,0,0,1,1,0,0,0
149923624,15.61531,15.456291,38.8864,38.904095,0.0,1582.6704,0.6255978,1.046651,0.0,4,0.0,0.0,0.0,0.0,0.0,0,0,0,0,0,1,1,0,0,0
150427557,15.469372,15.45666,38.911198,38.90406,0.0,1588.1162,0.62674505,1.0465014,0.0,4,0.0,0.0,0.0,0.0,0.0,0,0,0,0,0,1,1,0,0,0
150931400,15.420726,15.457114,38.911198,38.90575,0.0,1593.5616,0.62535936,1.0466821,0.0,4,0.0,0.0,0.0,0.0,0.0,0,0,0,0,0,1,1,0,0,0
151432317,15.14831,15.458189,38.8988,38.903904,0.0,1598.9742,0.6260012,1.0465984,0.0,4,0.0,0.0,0.0,0.0,0.0,0,0,0,0,0,1,1,0,0,0
151936309,15.420726,15.439224,38.911198,38.905777,0.0,1604.421,0.6189125,1.0475236,0.0,4,0.0,0.0,0.0,0.0,0.0,0,0,0,0,0,1,1,0,0,0
152440315,15.410996,15.424668,38.936,38.905075,0.0,1609.8678,0.61330014,1.0482572,0.0,4,0.0,0.0,0.0,0.0,0.0,0,0,0,0,0,1,1,0,0,0
152932343,15.498559,15.424721,38.8988,38.905193,0.0,1615.1853,0.6121853,1.0484031,0.0,4,0.0,0.0,0.0,0.0,0.0,0,0,0,0,0,1,1,0,0,0
153437180,15.420726,15.444701,38.9236,38.903137,0.0,1620.641,0.621826,1.0471431,0.0,4,0.0,0.0,0.0,0.0,0.0,0,0,0,0,0,1,1,0,0,0
153941155,15.430455,15.4568615,38.911198,38.90211,0.0,1626.0874,0.62790376,1.0463504,0.0,4,0.0,0.0,0.0,0.0,0.0,0,0,0,0,0,1,1,0,0,0
154445171,15.352622,15.459792,38.8864,38.90281,0.0,1631.5336,0.62836343,1.0462904,0.0,4,0.0,0.0,0.0,0.0,0.0,0,0,0,0,0,1,1,0,0,0
154949143,14.90508,15.44559,38.8988,38.90007,0.0,1636.9792,0.6220215,1.0471176,0.0,4,0.0,0.0,0.0,0.0,0.0,0,0,0,0,0,1,1,0,0,0
155453998,15.449913,15.436686,38.911198,38.901707,0.0,1642.4347,0.6187056,1.0475506,0.0,4,0.0,0.0,0.0,0.0,0.0,0,0,0,0,0,1,1,0,0,0
155958013,15.265059,15.436789,38.8864,38.90286,0.0,1647.8813,0.61875135,1.0475446,0.0,4,0.0,0.0,0.0,0.0,0.0,0,0,0,0,0,1,1,0,0,0
156461817,15.449913,15.431429,38.911198,38.90475,0.0,1653.3259,0.61538965,1.047984,0.0,4,0.0,0.0,0.0,0.0,0.0,0,0,0,0,0,1,1,0,0,0
156965799,15.537476,15.447085,38.8988,38.904655,0.0,1658.7723,0.62266713,1.0470333,0.0,4,0.0,0.0,0.0,0.0,0.0,0,0,0,0,0,1,1,0,0,0
157469941,15.488831,15.449676,38.8988,38.903435,0.0,1664.2202,0.6228569,1.0470085,0.0,4,0.0,0.0,0.0,0.0,0.0,0,0,0,0,0,1,1,0,0,0
157962636,15.333163,15.437,38.911198,38.90473,0.0,1669.5447,0.61875325,1.0475444,0.0,4,0.0,0.0,0.0,0.0,0.0,0,0,0,0,0,1,1,0,0,0
158466744,15.381809,15.443736,38.9236,38.903698,0.0,1674.992,0.62123567,1.0472202,0.0,4,0.0,0.0,0.0,0.0,0.0,0,0,0,0,0,1,1,0,0,0
158970661,15.440185,15.45363,38.9236,38.903748,0.0,1680.4374,0.62726384,1.0464338,0.0,4,0.0,0.0,0.0,0.0,0.0,0,0,0,0,0,1,1,0,0,0
159474674,15.576392,15.457988,38.8988,38.90271,0.0,1685.8837,0.62837964,1.0462884,0.0,4,0.0,0.0,0.0,0.0,0.0,0,0,0,0,0,1,1,0,0,0
159978747,15.196955,15.468143,38.8988,38.903416,0.0,1691.331,0.6330946,1.0456742,0.0,4,0.0,0.0,0.0,0.0,0.0,0,0,0,0,0,1,1,0,0,0
160483632,15.595851,15.430958,38.911198,38.90546,0.0,1696.7876,0.61812097,1.047627,0.0,4,0.0,0.0,0.0,0.0,0.0,0,0,0,0,0,1,1,0,0,0
160975516,15.459642,15.43028,38.8988,38.904575,0.0,1702.1036,0.6158493,1.0479239,0.0,4,0.0,0.0,0.0,0.0,0.0,0,0,0,0,0,1,1,0,0,0
161479569,15.547205,15.423567,38.911198,38.905907,0.0,1707.5509,0.61328584,1.0482591,0.0,4,0.0,0.0,0.0,0.0,0.0,0,0,0,0,0,1,1,0,0,0
161983568,15.440185,15.419607,38.8988,38.906677,0.0,1712.9979,0.612582,1.0483512,0.0,4,0.0,0.0,0.0,0.0,0.0,0,0,0,0,0,1,1,0,0,0
162487544,15.362351,15.419917,38.9236,38.907375,0.0,1718.4448,0.61245996,1.0483671,0.0,4,0.0,0.0,0.0,0.0,0.0,0,0,0,0,0,1,1,0,0,0
162988273,15.25533,15.401869,38.8988,38.904076,0.0,1723.8555,0.6032427,1.0495745,0.0,4,0.0,0.0,0.0,0.0,0.0,0,0,0,0,0,1,1,0,0,0
163492311,15.37208,15.4066,38.8988,38.900227,0.0,1729.3014,0.6044901,1.0494109,0.0,4,0.0,0.0,0.0,0.0,0.0,0,0,0,0,0,1,1,0,0,0
163996316,15.498559,15.41816,38.9236,38.90076,0.0,1734.7474,0.6099337,1.0486978,0.0,4,0.0,0.0,0.0,0.0,0.0,0,0,0,0,0,1,1,0,0,0
164500325,15.410996,15.41694,38.8864,38.902477,0.0,1740.194,0.6085194,1.048883,0.0,4,0.0,0.0,0.0,0.0,0.0,0,0,0,0,0,1,1,0,0,0
165004366,15.625038,15.414952,38.8988,38.89869,0.0,1745.6404,0.6084555,1.0488914,0.0,4,0.0,0.0,0.0,0.0,0.0,0,0,0,0,0,1,1,0,0,0
165513148,15.37208,15.411992,38.8864,38.896473,0.0,1751.1371,0.6059626,1.0492179,0.0,4,0.0,0.0,0.0,0.0,0.0,0,0,0,0,0,1,1,0,0,0
166017103,15.488831,15.416772,38.9236,38.90067,0.0,1756.5835,0.60620576,1.0491861,0.0,4,0.0,0.0,0.0,0.0,0.0,0,0,0,0,0,1,1,0,0,0
166509071,15.479101,15.417011,38.8988,38.899498,0.0,1761.8995,0.60794526,1.0489582,0.0,4,0.0,0.0,0.0,0.0,0.0,0,0,0,0,0,1,1,0,0,0
167013064,15.518018,15.418653,38.911198,38.898735,0.0,1767.3448,0.60942537,1.0487643,0.0,4,0.0,0.0,0.0,0.0,0.0,0,0,0,0,0,1,1,0,0,0
167517128,15.265059,15.416468,38.911198,38.901566,0.0,1772.7917,0.6083544,1.0489047,0.0,4,0.0,0.0,0.0,0.0,0.0,0,0,0,0,0,1,1,0,0,0
168021838,15.479101,15.401757,38.911198,38.899128,0.0,1778.2448,0.60234433,1.0496924,0.0,4,0.0,0.0,0.0,0.0,0.0,0,0,0,0,0,1,1,0,0,0
168525923,15.566664,15.396497,38.911198,38.90022,0.0,1783.6917,0.5994876,1.0500672,0.0,4,0.0,0.0,0.0,0.0,0.0,0,0,0,0,0,1,1,0,0,0
169029867,15.547205,15.395558,38.8988,38.899498,0.0,1789.1367,0.5981758,1.0502394,0.0,4,0.0,0.0,0.0,0.0,0.0,0,0,0,0,0,1,1,0,0,0
169533989,15.37208,15.403508,38.8988,38.899174,0.0,1794.5839,0.60271436,1.0496439,0.0,4,0.0,0.0,0.0,0.0,0.0,0,0,0,0,0,1,1,0,0,0
170037949,15.060747,15.398312,38.8864,38.898632,0.0,1800.0297,0.6002415,1.0499682,0.0,4,0.0,0.0,0.0,0.0,0.0,0,0,0,0,0,1,1,0,0,0
170542764,15.527747,15.389494,38.911198,38.90069,0.0,1805.4847,0.5984295,1.0502062,0.0,4,0.0,0.0,0.0,0.0,0.0,0,0,0,0,0,1,1,0,0,0
171046760,15.479101,15.4008465,38.911198,38.901463,0.0,1810.9305,0.6025856,1.0496607,0.0,4,0.0,0.0,0.0,0.0,0.0,0,0,0,0,0,1,1,0,0,0
171538743,15.440185,15.397559,38.8864,38.899487,0.0,1816.2467,0.60073835,1.049903,0.0,4,0.0,0.0,0.0,0.0,0.0,0,0,0,0,0,1,1,0,0,0
172042724,15.342893,15.416071,38.911198,38.90158,0.0,1821.6927,0.6087864,1.048848,0.0,4,0.0,0.0,0.0,0.0,0.0,0,0,0,0,0,1,1,0,0,0
172546738,15.391539,15.412838,38.8988,38.90098,0.0,1827.1392,0.60642797,1.049157,0.0,4,0.0,0.0,0.0,0.0,0.0,0,0,0,0,0,1,1,0,0,0
173055517,15.401268,15.421046,38.911198,38.899612,0.0,1832.6367,0.61014634,1.0486699,0.0,4,0.0,0.0,0.0,0.0,0.0,0,0,0,0,0,1,1,0,0,0
173559640,15.381809,15.400045,38.8988,38.89832,0.0,1838.0835,0.6016262,1.0497866,0.0,4,0.0,0.0,0.0,0.0,0.0,0,0,0,0,0,1,1,0,0,0
174051516,15.410996,15.374551,38.8616,38.900417,0.0,1843.3989,0.5911067,1.0511686,0.0,4,0.0,0.0,0.0,0.0,0.0,0,0,0,0,0,1,1,0,0,0
174555598,15.410996,15.379432,38.8988,38.89916,0.0,1848.8461,0.5927437,1.0509533,0.0,4,0.0,0.0,0.0,0.0,0.0,0,0,0,0,0,1,1,0,0,0
175059601,15.391539,15.36566,38.911198,38.898487,0.0,1854.2916,0.5866502,1.0517551,0.0,4,0.0,0.0,0.0,0.0,0.0,0,0,0,0,0,1,1,0,0,0
175563604,15.294247,15.372358,38.911198,38.898594,0.0,1859.7377,0.5877841,1.0516058,0.0,4,0.0,0.0,0.0,0.0,0.0,0,0,0,0,0,1,1,0,0,0
176068308,15.420726,15.364592,38.8864,38.901188,0.0,1865.1914,0.58418685,1.0520796,0.0,4,0.0,0.0,0.0,0.0,0.0,0,0,0,0,0,1,1,0,0,0
176572342,15.469372,15.372766,38.8988,38.900444,0.0,1870.6377,0.588332,1.0515337,0.0,4,0.0,0.0,0.0,0.0,0.0,0,0,0,0,0,1,1,0,0,0
177076346,15.625038,15.3976145,38.8864,38.89922,0.0,1876.0834,0.5972164,1.0503654,0.0,4,0.0,0.0,0.0,0.0,0.0,0,0,0,0,0,1,1,0,0,0
177568330,15.498559,15.380525,38.8864,38.899014,0.0,1881.3993,0.58938056,1.0513957,0.0,4,0.0,0.0,0.0,0.0,0.0,0,0,0,0,0,1,1,0,0,0
178072353,15.362351,15.383284,38.8988,38.89894,0.0,1886.8455,0.58976537,1.051345,0.0,4,0.0,0.0,0.0,0.0,0.0,0,0,0,0,0,1,1,0,0,0
178576333,15.420726,15.411888,38.9236,38.90233,0.0,1892.2919,0.6013964,1.0498167,0.0,4,0.0,0.0,0.0,0.0,0.0,0,0,0,0,0,1,1,0,0,0
179069536,15.488831,15.404365,38.911198,38.901905,0.0,1897.6215,0.59916383,1.0501097,0.0,4,0.0,0.0,0.0,0.0,0.0,0,0,0,0,0,1,1,0,0,0
179573099,15.37208,15.3982,38.8864,38.901287,0.0,1903.0626,0.59677297,1.0504237,0.0,4,0.0,0.0,0.0,0.0,0.0,0,0,0,0,0,1,1,0,0,0
180077107,15.284517,15.405594,38.8864,38.90452,0.0,1908.5098,0.60021096,1.0499723,0.0,4,0.0,0.0,0.0,0.0,0.0,0,0,0,0,0,1,1,0,0,0
180569187,15.274789,15.392717,38.911198,38.904068,0.0,1913.8275,0.5966838,1.0504354,0.0,4,0.0,0.0,0.0,0.0,0.0,0,0,0,0,0,1,1,0,0,0
181073189,15.488831,15.36542,38.911198,38.9032,0.0,1919.2737,0.58465034,1.0520185,0.0,4,0.0,0.0,0.0,0.0,0.0,0,0,0,0,0,1,1,0,0,0
181577151,15.342893,15.352675,38.8864,38.90046,0.0,1924.719,0.5781854,1.052871,0.0,4,0.0,0.0,0.0,0.0,0.0,0,0,0,0,0,1,1,0,0,0
182077948,15.449913,15.358228,38.9236,38.903908,0.0,1930.1316,0.5802143,1.0526032,0.0,4,0.0,0.0,0.0,0.0,0.0,0,0,0,0,0,1,1,0,0,0
182581945,15.479101,15.353143,38.8864,38.904423,0.0,1935.578,0.5783408,1.0528505,0.0,4,0.0,0.0,0.0,0.0,0.0,0,0,0,0,0,1,1,0,0,0
183085975,15.508288,15.344174,38.8988,38.903362,0.0,1941.0248,0.5757306,1.053195,0.0,4,0.0,0.0,0.0,0.0,0.0,0,0,0,0,0,1,1,0,0,0
183589967,15.109393,15.329903,38.8988,38.903873,0.0,1946.4714,0.5686386,1.0541323,0.0,4,0.0,0.0,0.0,0.0,0.0,0,0,0,0,0,1,1,0,0,0
184094205,15.401268,15.3578615,38.8988,38.903637,0.0,1951.9205,0.5787485,1.0527967,0.0,4,0.0,0.0,0.0,0.0,0.0,0,0,0,0,0,1,1,0,0,0
184597017,15.333163,15.348308,38.911198,38.903435,0.0,1957.3541,0.5748704,1.0533086,0.0,4,0.0,0.0,0.0,0.0,0.0,0,0,0,0,0,1,1,0,0,0
185098778,15.420726,15.34544,38.911198,38.903454,0.0,1962.7765,0.57353145,1.0534855,0.0,4,0.0,0.0,0.0,0.0,0.0,0,0,0,0,0,1,1,0,0,0
185602773,15.13858,15.334442,38.8988,38.90363,0.0,1968.2234,0.5705951,1.0538737,0.0,4,0.0,0.0,0.0,0.0,0.0,0,0,0,0,0,1,1,0,0,0
186106799,15.566664,15.202321,38.8988,38.897728,0.0,1973.6687,0.5180009,1.0608739,0.0,4,0.0,0.0,0.0,0.0,0.0,0,0,0,0,0,1,1,0,0,0
186610726,15.284517,15.247093,38.8988,38.90092,0.0,1979.1146,0.53417665,1.0587109,0.0,4,0.0,0.0,0.0,0.0,0.0,0,0,0,0,0,1,1,0,0,0
187114725,15.14831,15.261191,38.8864,38.901737,0.0,1984.5604,0.54014426,1.0579152,0.0,4,0.0,0.0,0.0,0.0,0.0,0,0,0,0,0,1,1,0,0,0
187618683,15.761247,15.3614025,38.8988,38.902737,0.0,1990.0067,0.57194644,1.053695,0.0,4,0.0,0.0,0.0,0.0,0.0,0,0,0,0,0,1,1,0,0,0
188118865,15.430455,15.322462,38.8988,38.90014,0.0,1995.411,0.5559681,1.0558112,0.0,4,0.0,0.0,0.0,0.0,0.0,0,0,0,0,0,1,1,0,0,0
188623591,15.430455,15.319193,38.8864,38.900517,0.0,2000.8652,0.55569106,1.0558479,0.0,4,0.0,0.0,0.0,0.0,0.0,0,0,0,0,0,1,1,0,0,0
189115579,15.508288,15.304645,38.8988,38.90372,0.0,2006.1819,0.5501273,1.0565869,0.0,4,0.0,0.0,0.0,0.0,0.0,0,0,0,0,0,1,1,0,0,0
189619773,15.158038,15.298695,38.911198,38.900684,0.0,2011.6299,0.5494359,1.0566788,0.0,4,0.0,0.0,0.0,0.0,0.0,0,0,0,0,0,1,1,0,0,0
190123586,15.021831,15.287819,38.8988,38.898136,0.0,2017.0735,0.5463479,1.0570893,0.0,4,0.0,0.0,0.0,0.0,0.0,0,0,0,0,0,1,1,0,0,0
190627497,15.187226,15.317554,38.8864,38.898384,0.0,2022.5187,0.55596334,1.0558118,0.0,4,0.0,0.0,0.0,0.0,0.0,0,0,0,0,0,1,1,0,0,0
191130653,15.37208,15.310713,38.911198,38.900204,0.0,2027.9558,0.5532859,1.0561672,0.0,4,0.0,0.0,0.0,0.0,0.0,0,0,0,0,0,1,1,0,0,0
191640372,15.352622,15.330726,38.8988,38.902416,0.0,2033.4645,0.5625194,1.0549425,0.0,4,0.0,0.0,0.0,0.0,0.0,0,0,0,0,0,1,1,0,0,0
192144388,15.401268,15.34906,38.911198,38.902603,0.0,2038.9113,0.57085925,1.0538387,0.0,4,0.0,0.0,0.0,0.0,0.0,0,0,0,0,0,1,1,0,0,0
192648342,15.206684,15.341485,38.911198,38.904613,0.0,2044.3578,0.56951696,1.0540162,0.0,4,0.0,0.0,0.0,0.0,0.0,0,0,0,0,0,1,1,0,0,0
193152353,15.537476,15.336806,38.8864,38.90375,0.0,2049.8042,0.5686944,1.054125,0.0,4,0.0,0.0,0.0,0.0,0.0,0,0,0,0,0,1,1,0,0,0
193656340,15.158038,15.32405,38.9236,38.90192,0.0,2055.2502,0.5644801,1.0546827,0.0,4,0.0,0.0,0.0,0.0,0.0,0,0,0,0,0,1,1,0,0,0
194159545,15.488831,15.277756,38.936,38.90527,0.0,2060.6887,0.5461634,1.0571139,0.0,4,0.0,0.0,0.0,0.0,0.0,0,0,0,0,0,1,1,0,0,0
194652208,15.303976,15.262419,38.8864,38.904606,0.0,2066.0125,0.5398887,1.0579493,0.0,4,0.0,0.0,0.0,0.0,0.0,0,0,0,0,0,1,1,0,0,0
195157038,15.109393,15.263836,38.8988,38.902866,0.0,2071.4673,0.5400103,1.0579331,0.0,4,0.0,0.0,0.0,0.0,0.0,0,0,0,0,0,1,1,0,0,0
195661116,15.518018,15.266469,38.936,38.90272,0.0,2076.9143,0.53927165,1.0580316,0.0,4,0.0,0.0,0.0,0.0,0.0,0,0,0,0,0,1,1,0,0,0
196165129,15.2164135,15.264881,38.8988,38.900818,0.0,2082.361,0.5371292,1.0583172,0.0,4,0.0,0.0,0.0,0.0,0.0,0,0,0,0,0,1,1,0,0,0
196669105,15.2164135,15.264542,38.8988,38.89835,0.0,2087.8062,0.5355609,1.0585263,0.0,4,0.0,0.0,0.0,0.0,0.0,0,0,0,0,0,1,1,0,0,0
197173117,15.099664,15.257736,38.8988,38.900143,0.0,2093.2527,0.53233844,1.0589563,0.0,4,0.0,0.0,0.0,0.0,0.0,0,0,0,0,0,1,1,0,0,0
197677126,15.070476,15.242521,38.911198,38.90235,0.0,2098.6992,0.5257562,1.0598358,0.0,4,0.0,0.0,0.0,0.0,0.0,0,0,0,0,0,1,1,0,0,0
198177981,15.294247,15.246382,38.8988,38.902283,0.0,2104.1118,0.5265153,1.0597342,0.0,4,0.0,0.0,0.0,0.0,0.0,0,0,0,0,0,1,1,0,0,0
198681831,15.274789,15.249916,38.8864,38.903645,0.0,2109.557,0.5283893,1.0594838,0.0,4,0.0,0.0,0.0,0.0,0.0,0,0,0,0,0,1,1,0,0,0
199185912,15.167768,15.245548,38.8988,38.901962,0.0,2115.005,0.525883,1.0598187,0.0,4,0.0,0.0,0.0,0.0,0.0,0,0,0,0,0,1,1,0,0,0
199690195,15.031559,15.209987,38.911198,38.900715,0.0,2120.4539,0.51067907,1.0618557,0.0,4,0.0,0.0,0.0,0.0,0.0,0,0,0,0,0,1,1,0,0,0
200193971,15.158038,15.248499,38.936,38.90294,0.0,2125.8982,0.524617,1.0599881,0.0,4,0.0,0.0,0.0,0.0,0.0,0,0,0,0,0,1,1,0,0,0
200697935,15.25533,15.241997,38.936,38.903667,0.0,2131.3447,0.52282935,1.0602273,0.0,4,0.0,0.0,0.0,0.0,0.0,0,0,0,0,0,1,1,0,0,0
201201895,15.274789,15.209427,38.911198,38.901768,0.0,2136.791,0.51017267,1.0619237,0.0,4,0.0,0.0,0.0,0.0,0.0,0,0,0,0,0,1,1,0,0,0
201694740,15.14831,15.240238,38.8864,38.903618,0.0,2142.1172,0.5206588,1.0605178,0.0,4,0.0,0.0,0.0,0.0,0.0,0,0,0,0,0,1,1,0,0,0
202206766,14.856435,15.231993,38.8988,38.90524,0.0,2147.6506,0.5200699,1.0605967,0.0,4,0.0,0.0,0.0,0.0,0.0,0,0,0,0,0,1,1,0,0,0
203718775,14.846705,15.164794,38.911198,38.90175,0.0,2163.9905,0.4909175,1.064515,0.0,4,0.0,0.0,0.0,0.0,0.0,0,0,0,0,0,1,1,0,0,0
204222762,15.187226,15.150531,38.911198,38.90061,0.0,2169.4363,0.48647243,1.065115,0.0,4,0.0,0.0,0.0,0.0,0.0,0,0,0,0,0,1,1,0,0,0
204726781,15.099664,15.139662,38.874,38.897976,0.0,2174.8813,0.48247653,1.0656549,0.0,4,0.0,0.0,0.0,0.0,0.0,0,0,0,0,0,1,1,0,0,0
205230762,15.245601,15.148422,38.936,38.901157,0.0,2180.328,0.48614722,1.0651588,0.0,4,0.0,0.0,0.0,0.0,0.0,0,0,0,0,0,1,1,0,0,0
205734680,15.2164135,15.153262,38.8864,38.90056,0.0,2185.7734,0.48744184,1.0649841,0.0,4,0.0,0.0,0.0,0.0,0.0,0,0,0,0,0,1,1,0,0,0
206235541,15.206684,15.152993,38.8988,38.901478,0.0,2191.1863,0.48655397,1.065104,0.0,4,0.0,0.0,0.0,0.0,0.0,0,0,0,0,0,1,1,0,0,0
206727561,15.099664,15.144164,38.8988,38.900368,0.0,2196.5027,0.4814995,1.065787,0.0,4,0.0,0.0,0.0,0.0,0.0,0,0,0,0,0,1,1,0,0,0
207231638,15.751517,15.205201,38.911198,38.902954,0.0,2201.9504,0.503012,1.0628859,0.0,4,0.0,0.0,0.0,0.0,0.0,0,0,0,0,0,1,1,0,0,0
207735586,15.167768,15.191336,38.9236,38.902378,0.0,2207.3962,0.4932912,1.0641948,0.0,4,0.0,0.0,0.0,0.0,0.0,0,0,0,0,0,1,1,0,0,0
208239592,15.25533,15.1892395,38.911198,38.902504,0.0,2212.8435,0.49421865,1.0640699,0.0,4,0.0,0.0,0.0,0.0,0.0,0,0,0,0,0,1,1,0,0,0
208743568,15.158038,15.18013,38.911198,38.902397,0.0,2218.2893,0.49312574,1.0642172,0.0,4,0.0,0.0,0.0,0.0,0.0,0,0,0,0,0,1,1,0,0,0
209247515,15.13858,15.206231,38.9236,38.902714,0.0,2223.7354,0.5010522,1.0631496,0.0,4,0.0,0.0,0.0,0.0,0.0,0,0,0,0,0,1,1,0,0,0
209751498,15.410996,15.226616,38.911198,38.905228,0.0,2229.1821,0.50931627,1.0620387,0.0,4,0.0,0.0,0.0,0.0,0.0,0,0,0,0,0,1,1,0,0,0
210255555,15.274789,15.226,38.911198,38.90469,0.0,2234.629,0.50915414,1.0620605,0.0,4,0.0,0.0,0.0,0.0,0.0,0,0,0,0,0,1,1,0,0,0
210764363,15.187226,15.226178,38.8988,38.90398,0.0,2240.1272,0.5110448,1.0618067,0.0,4,0.0,0.0,0.0,0.0,0.0,0,0,0,0,0,1,1,0,0,0
211256355,15.119122,15.233033,38.911198,38.906612,0.0,2245.4443,0.5153087,1.0612346,0.0,4,0.0,0.0,0.0,0.0,0.0,0,0,0,0,0,1,1,0,0,0
211760323,15.099664,15.220538,38.911198,38.905327,0.0,2250.8906,0.5107992,1.0618396,0.0,4,0.0,0.0,0.0,0.0,0.0,0,0,0,0,0,1,1,0,0,0
212264361,15.051018,15.214955,38.8988,38.903355,0.0,2256.3372,0.5092886,1.0620424,0.0,4,0.0,0.0,0.0,0.0,0.0,0,0,0,0,0,1,1,0,0,0
212756291,15.196955,15.210203,38.911198,38.906326,0.0,2261.6548,0.5083111,1.0621737,0.0,4,0.0,0.0,0.0,0.0,0.0,0,0,0,0,0,1,1,0,0,0
213260324,15.303976,15.203438,38.8864,38.906,0.0,2267.1023,0.5039595,1.0627584,0.0,4,0.0,0.0,0.0,0.0,0.0,0,0,0,0,0,1,1,0,0,0
213764325,15.14831,15.205264,38.8864,38.90442,0.0,2272.549,0.50438863,1.0627007,0.0,4,0.0,0.0,0.0,0.0,0.0,0,0,0,0,0,1,1,0,0,0
214256349,14.953726,15.098773,38.8988,38.90265,0.0,2277.866,0.4622391,1.0683979,0.0,4,0.0,0.0,0.0,0.0,0.0,0,0,0,0,0,1,1,0,0,0
214760364,15.333163,15.145815,38.911198,38.90348,0.0,2283.3125,0.4816988,1.06576,0.0,4,0.0,0.0,0.0,0.0,0.0,0,0,0,0,0,1,1,0,0,0
215265392,15.313705,15.132984,38.911198,38.901802,0.0,2288.7695,0.4759882,1.0665329,0.0,4,0.0,0.0,0.0,0.0,0.0,0,0,0,0,0,1,1,0,0,0
215769139,15.031559,15.125467,38.911198,38.903435,0.0,2294.2134,0.47170144,1.0671136,0.0,4,0.0,0.0,0.0,0.0,0.0,0,0,0,0,0,1,1,0,0,0
216273113,15.041288,15.107272,38.8988,38.90257,0.0,2299.6594,0.46257955,1.0683516,0.0,4,0.0,0.0,0.0,0.0,0.0,0,0,0,0,0,1,1,0,0,0
216777153,15.060747,15.115014,38.911198,38.90408,0.0,2305.108,0.46457464,1.0680807,0.0,4,0.0,0.0,0.0,0.0,0.0,0,0,0,0,0,1,1,0,0,0
217281152,15.206684,15.118585,38.911198,38.903515,0.0,2310.5537,0.46611053,1.067872,0.0,4,0.0,0.0,0.0,0.0,0.0,0,0,0,0,0,1,1,0,0,0
217785185,15.119122,15.12722,38.911198,38.905727,0.0,2316.0005,0.47046882,1.0672808,0.0,4,0.0,0.0,0.0,0.0,0.0,0,0,0,0,0,1,1,0,0,0
218289193,15.303976,15.110031,38.911198,38.90315,0.0,2321.4468,0.46096498,1.0685711,0.0,4,0.0,0.0,0.0,0.0,0.0,0,0,0,0,0,1,1,0,0,0
218793174,14.992642,15.118587,38.8864,38.905006,0.0,2326.8943,0.4652174,1.0679933,0.0,4,0.0,0.0,0.0,0.0,0.0,0,0,0,0,0,1,1,0,0,0
219297211,14.584018,15.099866,38.9236,38.905296,0.0,2332.3408,0.456981,1.0691129,0.0,4,0.0,0.0,0.0,0.0,0.0,0,0,0,0,0,1,1,0,0,0
219790160,15.547205,15.065733,38.936,38.90474,0.0,2337.6682,0.4434331,1.0709596,0.0,4,0.0,0.0,0.0,0.0,0.0,0,0,0,0,0,1,1,0,0,0
220301930,15.041288,15.116473,38.8864,38.902794,0.0,2343.1987,0.4600504,1.0686954,0.0,4,0.0,0.0,0.0,0.0,0.0,0,0,0,0,0,1,1,0,0,0
220793914,15.187226,15.101127,38.8988,38.90087,0.0,2348.5144,0.45498306,1.0693848,0.0,4,0.0,0.0,0.0,0.0,0.0,0,0,0,0,0,1,1,0,0,0
221297925,15.187226,15.101806,38.911198,38.901615,0.0,2353.961,0.45581418,1.0692717,0.0,4,0.0,0.0,0.0,0.0,0.0,0,0,0,0,0,1,1,0,0,0
221801946,15.031559,15.094236,38.911198,38.90311,0.0,2359.4075,0.45400697,1.0695177,0.0,4,0.0,0.0,0.0,0.0,0.0,0,0,0,0,0,1,1,0,0,0
222293940,15.070476,15.090962,38.8988,38.901127,0.0,2364.7231,0.4525259,1.0697194,0.0,4,0.0,0.0,0.0,0.0,0.0,0,0,0,0,0,1,1,0,0,0
222797970,15.274789,15.09824,38.8988,38.90216,0.0,2370.1704,0.4559639,1.0692513,0.0,4,0.0,0.0,0.0,0.0,0.0,0,0,0,0,0,1,1,0,0,0
223301970,15.021831,15.094455,38.9236,38.901443,0.0,2375.6172,0.4543069,1.069477,0.0,4,0.0,0.0,0.0,0.0,0.0,0,0,0,0,0,1,1,0,0,0
223794068,15.2164135,15.099017,38.911198,38.90177,0.0,2380.9355,0.4549201,1.0693934,0.0,4,0.0,0.0,0.0,0.0,0.0,0,0,0,0,0,1,1,0,0,0
224297911,15.119122,15.091344,38.8864,38.90251,0.0,2386.3804,0.45180684,1.0698174,0.0,4,0.0,0.0,0.0,0.0,0.0,0,0,0,0,0,1,1,0,0,0
224801942,14.087831,15.034382,38.911198,38.90474,0.0,2391.827,0.42889816,1.0729479,0.0,4,0.0,0.0,0.0,0.0,0.0,0,0,0,0,0,1,1,0,0,0
225305931,15.235872,14.993035,38.8988,38.904964,0.0,2397.2742,0.41335708,1.0750821,0.0,4,0.0,0.0,0.0,0.0,0.0,0,0,0,0,0,1,1,0,0,0
225806754,14.895351,14.987594,38.8988,38.9068,0.0,2402.6873,0.40978795,1.0755733,0.0,4,0.0,0.0,0.0,0.0,0.0,0,0,0,0,0,1,1,0,0,0
226310743,14.982914,14.981784,38.911198,38.90435,0.0,2408.134,0.40691024,1.0759698,0.0,4,0.0,0.0,0.0,0.0,0.0,0,0,0,0,0,1,1,0,0,0
226814694,15.177497,14.977679,38.8864,38.905727,0.0,2413.58,0.40533382,1.0761871,0.0,4,0.0,0.0,0.0,0.0,0.0,0,0,0,0,0,1,1,0,0,0
227318724,14.992642,14.988569,38.9236,38.905865,0.0,2419.0269,0.40891248,1.075694,0.0,4,0.0,0.0,0.0,0.0,0.0,0,0,0,0,0,1,1,0,0,0
227822725,15.25533,15.113977,38.911198,38.906338,0.0,2424.4736,0.45045358,1.0700018,0.0,4,0.0,0.0,0.0,0.0,0.0,0,0,0,0,0,1,1,0,0,0
228326617,14.934268,15.110555,38.874,38.90564,0.0,2429.9192,0.44783098,1.0703595,0.0,4,0.0,0.0,0.0,0.0,0.0,0,0,0,0,0,1,1,0,0,0
228830616,15.177497,15.060456,38.9236,38.905464,0.0,2435.366,0.43152982,1.0725874,0.0,4,0.0,0.0,0.0,0.0,0.0,0,0,0,0,0,1,1,0,0,0
229334683,15.333163,15.065175,38.8988,38.904797,0.0,2440.8132,0.43540412,1.072057,0.0,4,0.0,0.0,0.0,0.0,0.0,0,0,0,0,0,1,1,0,0,0
229838675,15.177497,15.086546,38.911198,38.90473,0.0,2446.26,0.4443124,1.0708395,0.0,4,0.0,0.0,0.0,0.0,0.0,0,0,0,0,0,1,1,0,0,0
230342611,14.943996,15.099741,38.8988,38.90509,0.0,2451.7058,0.44895488,1.0702062,0.0,4,0.0,0.0,0.0,0.0,0.0,0,0,0,0,0,1,1,0,0,0
230846702,14.963455,15.087752,38.911198,38.90548,0.0,2457.1536,0.44527036,1.0707088,0.0,4,0.0,0.0,0.0,0.0,0.0,0,0,0,0,0,1,1,0,0,0
231350660,15.031559,15.088963,38.936,38.905895,0.0,2462.5996,0.44592267,1.0706197,0.0,4,0.0,0.0,0.0,0.0,0.0,0,0,0,0,0,1,1,0,0,0
231847563,15.284517,15.094522,38.8988,38.904743,0.0,2467.9697,0.44957906,1.070121,0.0,4,0.0,0.0,0.0,0.0,0.0,0,0,0,0,0,1,1,0,0,0
232351507,15.099664,15.095136,38.8864,38.905933,0.0,2473.4165,0.4496439,1.0701122,0.0,4,0.0,0.0,0.0,0.0,0.0,0,0,0,0,0,1,1,0,0,0
232855523,15.012101,15.089223,38.936,38.906136,0.0,2478.8635,0.44836074,1.0702872,0.0,4,0.0,0.0,0.0,0.0,0.0,0,0,0,0,0,1,1,0,0,0
233359589,15.021831,15.082465,38.911198,38.902763,0.0,2484.3103,0.44549972,1.0706775,0.0,4,0.0,0.0,0.0,0.0,0.0,0,0,0,0,0,1,1,0,0,0
233863541,15.080205,15.075179,38.911198,38.90632,0.0,2489.7566,0.4416011,1.0712098,0.0,4,0.0,0.0,0.0,0.0,0.0,0,0,0,0,0,1,1,0,0,0
234367540,15.031559,15.074295,38.911198,38.909306,0.0,2495.2043,0.4404562,1.0713662,0.0,4,0.0,0.0,0.0,0.0,0.0,0,0,0,0,0,1,1,0,0,0
234871457,14.875893,15.0516615,38.911198,38.90852,0.0,2500.6497,0.4322675,1.0724863,0.0,4,0.0,0.0,0.0,0.0,0.0,0,0,0,0,0,1,1,0,0,0
235375560,15.187226,15.027878,38.8864,38.90622,0.0,2506.098,0.42341024,1.0737005,0.0,4,0.0,0.0,0.0,0.0,0.0,0,0,0,0,0,1,1,0,0,0
235879548,15.099664,15.041969,38.936,38.90468,0.0,2511.5444,0.4296468,1.0728453,0.0,4,0.0,0.0,0.0,0.0,0.0,0,0,0,0,0,1,1,0,0,0
236383555,15.196955,15.049456,38.911198,38.90553,0.0,2516.9912,0.4312604,1.0726242,0.0,4,0.0,0.0,0.0,0.0,0.0,0,0,0,0,0,1,1,0,0,0
236887525,14.836976,15.064672,38.8616,38.9053,0.0,2522.4377,0.437033,1.0718342,0.0,4,0.0,0.0,0.0,0.0,0.0,0,0,0,0,0,1,1,0,0,0
237391618,15.099664,15.048266,38.911198,38.9029,0.0,2527.884,0.43056518,1.0727195,0.0,4,0.0,0.0,0.0,0.0,0.0,0,0,0,0,0,1,1,0,0,0
237895562,15.128851,15.0164385,38.8988,38.905163,0.0,2533.3303,0.41842824,1.0743847,0.0,4,0.0,0.0,0.0,0.0,0.0,0,0,0,0,0,1,1,0,0,0
238395561,15.041288,15.013297,38.911198,38.904163,0.0,2538.734,0.41632968,1.0746732,0.0,4,0.0,0.0,0.0,0.0,0.0,0,0,0,0,0,1,1,0,0,0
238896386,15.070476,15.018542,38.8616,38.905052,0.0,2544.1467,0.41881162,1.074332,0.0,4,0.0,0.0,0.0,0.0,0.0,0,0,0,0,0,1,1,0,0,0
239400368,14.914809,15.009212,38.8988,38.904713,0.0,2549.5935,0.4147852,1.0748856,0.0,4,0.0,0.0,0.0,0.0,0.0,0,0,0,0,0,1,1,0,0,0
239904350,15.012101,15.011045,38.8864,38.90521,0.0,2555.04,0.41345388,1.0750687,0.0,4,0.0,0.0,0.0,0.0,0.0,0,0,0,0,0,1,1,0,0,0
240408260,15.206684,15.010165,38.911198,38.90787,0.0,2560.4863,0.41259557,1.0751868,0.0,4,0.0,0.0,0.0,0.0,0.0,0,0,0,0,0,1,1,0,0,0
240912409,14.973185,15.005372,38.8616,38.90553,0.0,2565.9343,0.4099601,1.0755496,0.0,4,0.0,0.0,0.0,0.0,0.0,0,0,0,0,0,1,1,0,0,0
241404258,14.924539,14.995506,38.8988,38.90511,0.0,2571.2498,0.40457183,1.0762922,0.0,4,0.0,0.0,0.0,0.0,0.0,0,0,0,0,0,1,1,0,0,0
241908288,15.235872,14.999967,38.911198,38.90447,0.0,2576.697,0.40508634,1.0762212,0.0,4,0.0,0.0,0.0,0.0,0.0,0,0,0,0,0,1,1,0,0,0
242412463,15.031559,15.030689,38.911198,38.904408,0.0,2582.146,0.41698962,1.0745825,0.0,4,0.0,0.0,0.0,0.0,0.0,0,0,0,0,0,1,1,0,0,0
242904363,14.895351,15.019894,38.8864,38.906925,0.0,2587.4626,0.41295892,1.0751368,0.0,4,0.0,0.0,0.0,0.0,0.0,0,0,0,0,0,1,1,0,0,0
243408354,15.002372,14.971181,38.9236,38.904644,0.0,2592.9092,0.3957389,1.0775117,0.0,4,0.0,0.0,0.0,0.0,0.0,0,0,0,0,0,1,1,0,0,0
243912340,14.982914,14.989181,38.8988,38.90694,0.0,2598.3567,0.4032262,1.0764778,0.0,4,0.0,0.0,0.0,0.0,0.0,0,0,0,0,0,1,1,0,0,0
244416366,14.817518,14.972039,38.9236,38.904076,0.0,2603.8035,0.39653236,1.077402,0.0,4,0.0,0.0,0.0,0.0,0.0,0,0,0,0,0,1,1,0,0,0
244920291,15.070476,14.975316,38.874,38.905846,0.0,2609.2493,0.39673263,1.0773743,0.0,4,0.0,0.0,0.0,0.0,0.0,0,0,0,0,0,1,1,0,0,0
245424321,14.895351,14.969559,38.911198,38.906857,0.0,2614.696,0.39447576,1.0776863,0.0,4,0.0,0.0,0.0,0.0,0.0,0,0,0,0,0,1,1,0,0,0
245928335,14.934268,14.964778,38.9236,38.90474,0.0,2620.1426,0.39258462,1.0779479,0.0,4,0.0,0.0,0.0,0.0,0.0,0,0,0,0,0,1,1,0,0,0
246432360,14.836976,14.951678,38.911198,38.904663,0.0,2625.5894,0.3877676,1.0786146,0.0,4,0.0,0.0,0.0,0.0,0.0,0,0,0,0,0,1,1,0,0,0
246936360,14.982914,14.957151,38.8988,38.903183,0.0,2631.0356,0.38782912,1.0786061,0.0,4,0.0,0.0,0.0,0.0,0.0,0,0,0,0,0,1,1,0,0,0
247437189,14.875893,14.95881,38.8988,38.904552,0.0,2636.448,0.38878852,1.0784732,0.0,4,0.0,0.0,0.0,0.0,0.0,0,0,0,0,0,1,1,0,0,0
247941132,15.051018,14.97588,38.8988,38.904903,0.0,2641.8943,0.39569598,1.0775176,0.0,4,0.0,0.0,0.0,0.0,0.0,0,0,0,0,0,1,1,0,0,0
248445226,15.099664,14.9741955,38.8864,38.90593,0.0,2647.3418,0.39497024,1.077618,0.0,4,0.0,0.0,0.0,0.0,0.0,0,0,0,0,0,1,1,0,0,0
248949209,14.7494135,14.977487,38.8988,38.90372,0.0,2652.788,0.3967703,1.0773692,0.0,4,0.0,0.0,0.0,0.0,0.0,0,0,0,0,0,1,1,0,0,0
249453217,14.360247,14.905055,38.936,38.90532,0.0,2658.2349,0.3676365,1.08141,0.0,4,0.0,0.0,0.0,0.0,0.0,0,0,0,0,0,1,1,0,0,0
249957217,15.060747,14.852165,38.911198,38.904114,0.0,2663.6807,0.34912187,1.0839938,0.0,4,0.0,0.0,0.0,0.0,0.0,0,0,0,0,0,1,1,0,0,0
250461195,15.060747,14.85933,38.911198,38.903572,0.0,2669.127,0.35118085,1.0837058,0.0,4,0.0,0.0,0.0,0.0,0.0,0,0,0,0,0,1,1,0,0,0
250965208,15.031559,14.874576,38.8988,38.90404,0.0,2674.5728,0.3567055,1.082934,0.0,4,0.0,0.0,0.0,0.0,0.0,0,0,0,0,0,1,1,0,0,0
251469206,14.885622,14.87975,38.9236,38.90698,0.0,2680.0198,0.3578332,1.0827765,0.0,4,0.0,0.0,0.0,0.0,0.0,0,0,0,0,0,1,1,0,0,0
251973221,15.002372,14.879055,38.8988,38.90554,0.0,2685.467,0.35692865,1.0829028,0.0,4,0.0,0.0,0.0,0.0,0.0,0,0,0,0,0,1,1,0,0,0
252477177,14.875893,15.040938,38.911198,38.909534,0.0,2690.9148,0.40434295,1.0763237,0.0,4,0.0,0.0,0.0,0.0,0.0,0,0,0,0,0,1,1,0,0,0
252981193,15.158038,14.965191,38.911198,38.906944,0.0,2696.3623,0.37868053,1.0798746,0.0,4,0.0,0.0,0.0,0.0,0.0,0,0,0,0,0,1,1,0,0,0
253485189,15.13858,14.972819,38.911198,38.90772,0.0,2701.8093,0.38599616,1.07886,0.0,4,0.0,0.0,0.0,0.0,0.0,0,0,0,0,0,1,1,0,0,0
253989132,15.2164135,14.987881,38.911198,38.91096,0.0,2707.2566,0.3940385,1.0777467,0.0,4,0.0,0.0,0.0,0.0,0.0,0,0,0,0,0,1,1,0,0,0
254493170,15.206684,15.010867,38.911198,38.90938,0.0,2712.7039,0.40316755,1.0764859,0.0,4,0.0,0.0,0.0,0.0,0.0,0,0,0,0,0,1,1,0,0,0
254997221,15.13858,15.006994,38.936,38.908764,0.0,2718.1516,0.4029625,1.0765142,0.0,4,0.0,0.0,0.0,0.0,0.0,0,0,0,0,0,1,1,0,0,0
255501178,15.226143,14.999255,38.8988,38.90594,0.0,2723.5977,0.40051204,1.0768523,0.0,4,0.0,0.0,0.0,0.0,0.0,0,0,0,0,0,1,1,0,0,0
256005211,14.846705,14.9973755,38.911198,38.90748,0.0,2729.0452,0.40088302,1.0768012,0.0,4,0.0,0.0,0.0,0.0,0.0,0,0,0,0,0,1,1,0,0,0
256509155,15.080205,14.982076,38.911198,38.90846,0.0,2734.4915,0.39559537,1.0775316,0.0,4,0.0,0.0,0.0,0.0,0.0,0,0,0,0,0,1,1,0,0,0
257013129,14.78833,14.98112,38.911198,38.906975,0.0,2739.9382,0.3964165,1.0774181,0.0,4,0.0,0.0,0.0,0.0,0.0,0,0,0,0,0,1,1,0,0,0
257517126,14.856435,14.97794,38.9236,38.908848,0.0,2745.3867,0.395346,1.077566,0.0,4,0.0,0.0,0.0,0.0,0.0,0,0,0,0,0,1,1,0,0,0
258021209,15.13858,14.973106,38.911198,38.90803,0.0,2750.8345,0.39367658,1.0777968,0.0,4,0.0,0.0,0.0,0.0,0.0,0,0,0,0,0,1,1,0,0,0
258525204,15.099664,14.961337,38.9236,38.90714,0.0,2756.281,0.3879307,1.0785921,0.0,4,0.0,0.0,0.0,0.0,0.0,0,0,0,0,0,1,1,0,0,0
259017079,15.012101,14.890688,38.8988,38.907635,0.0,2761.5972,0.36085445,1.082355,0.0,4,0.0,0.0,0.0,0.0,0.0,0,0,0,0,0,1,1,0,0,0
259521120,14.807789,14.897035,38.8988,38.90712,0.0,2767.0447,0.36350995,1.0819848,0.0,4,0.0,0.0,0.0,0.0,0.0,0,0,0,0,0,1,1,0,0,0
260025970,14.875893,14.9026,38.911198,38.90564,0.0,2772.5,0.36361438,1.0819702,0.0,4,0.0,0.0,0.0,0.0,0.0,0,0,0,0,0,1,1,0,0,0
260529881,15.002372,14.913268,38.911198,38.908176,0.0,2777.946,0.36682206,1.0815234,0.0,4,0.0,0.0,0.0,0.0,0.0,0,0,0,0,0,1,1,0,0,0
261029852,14.778601,14.905672,38.8988,38.90833,0.0,2783.3496,0.36293298,1.0820652,0.0,4,0.0,0.0,0.0,0.0,0.0,0,0,0,0,0,1,1,0,0,0
261533948,15.021831,14.915396,38.911198,38.908806,0.0,2788.7983,0.36537343,1.0817251,0.0,4,0.0,0.0,0.0,0.0,0.0,0,0,0,0,0,1,1,0,0,0
262025937,14.574288,14.920157,38.936,38.91013,0.0,2794.1155,0.36743718,1.0814377,0.0,4,0.0,0.0,0.0,0.0,0.0,0,0,0,0,0,1,1,0,0,0
262529950,14.895351,14.899839,38.8864,38.909363,0.0,2799.563,0.35903913,1.0826082,0.0,4,0.0,0.0,0.0,0.0,0.0,0,0,0,0,0,1,1,0,0,0
263033967,14.895351,14.884913,38.911198,38.909695,0.0,2805.01,0.35240585,1.0835346,0.0,4,0.0,0.0,0.0,0.0,0.0,0,0,0,0,0,1,1,0,0,0
263525811,14.7494135,14.872687,38.936,38.909714,0.0,2810.3267,0.34775096,1.0841856,0.0,4,0.0,0.0,0.0,0.0,0.0,0,0,0,0,0,1,1,0,0,0
264029848,14.875893,14.880187,38.8988,38.907665,0.0,2815.7744,0.3498128,1.0838971,0.0,4,0.0,0.0,0.0,0.0,0.0,0,0,0,0,0,1,1,0,0,0
264533907,15.060747,14.889,38.9484,38.90863,0.0,2821.2222,0.35336524,1.0834005,0.0,4,0.0,0.0,0.0,0.0,0.0,0,0,0,0,0,1,1,0,0,0
265037830,15.051018,14.8725,38.8988,38.90944,0.0,2826.669,0.3474663,1.0842254,0.0,4,0.0,0.0,0.0,0.0,0.0,0,0,0,0,0,1,1,0,0,0
265541890,14.7007675,14.882041,38.8988,38.908623,0.0,2832.1165,0.35101777,1.0837287,0.0,4,0.0,0.0,0.0,0.0,0.0,0,0,0,0,0,1,1,0,0,0
266045917,14.68131,14.884511,38.8864,38.906693,0.0,2837.5637,0.3524664,1.0835261,0.0,4,0.0,0.0,0.0,0.0,0.0,0,0,0,0,0,1,1,0,0,0
266549962,14.963455,14.880096,38.874,38.90539,0.0,2843.0103,0.3506096,1.0837857,0.0,4,0.0,0.0,0.0,0.0,0.0,0,0,0,0,0,1,1,0,0,0
267053964,14.875893,14.880403,38.8988,38.907074,0.0,2848.4587,0.35035926,1.0838207,0.0,4,0.0,0.0,0.0,0.0,0.0,0,0,0,0,0,1,1,0,0,0
267558040,14.982914,14.864774,38.911198,38.90797,0.0,2853.907,0.34567434,1.0844762,0.0,4,0.0,0.0,0.0,0.0,0.0,0,0,0,0,0,1,1,0,0,0
268061811,14.846705,14.867152,38.936,38.910065,0.0,2859.3518,0.3454464,1.0845082,0.0,4,0.0,0.0,0.0,0.0,0.0,0,0,0,0,0,1,1,0,0,0
268565913,14.67158,14.870725,38.911198,38.909473,0.0,2864.8005,0.3462208,1.0843997,0.0,4,0.0,0.0,0.0,0.0,0.0,0,0,0,0,0,1,1,0,0,0
269069855,14.90508,14.865084,38.9236,38.909847,0.0,2870.2473,0.34474784,1.0846059,0.0,4,0.0,0.0,0.0,0.0,0.0,0,0,0,0,0,1,1,0,0,0
269573915,14.856435,14.850683,38.8864,38.90844,0.0,2875.695,0.33660203,1.085748,0.0,4,0.0,0.0,0.0,0.0,0.0,0,0,0,0,0,1,1,0,0,0
270077930,15.021831,14.858758,38.911198,38.9085,0.0,2881.1423,0.33932763,1.0853655,0.0,4,0.0,0.0,0.0,0.0,0.0,0,0,0,0,0,1,1,0,0,0
270581930,14.856435,14.856357,38.911198,38.9097,0.0,2886.5898,0.33892184,1.0854225,0.0,4,0.0,0.0,0.0,0.0,0.0,0,0,0,0,0,1,1,0,0,0
271085919,14.7494135,14.857814,38.9236,38.908092,0.0,2892.0374,0.34023458,1.0852385,0.0,4,0.0,0.0,0.0,0.0,0.0,0,0,0,0,0,1,1,0,0,0
271589801,15.012101,14.867311,38.911198,38.90946,0.0,2897.4841,0.34389478,1.0847255,0.0,4,0.0,0.0,0.0,0.0,0.0,0,0,0,0,0,1,1,0,0,0
272093905,14.973185,14.858619,38.8988,38.907784,0.0,2902.932,0.34070045,1.0851731,0.0,4,0.0,0.0,0.0,0.0,0.0,0,0,0,0,0,1,1,0,0,0
272597849,14.973185,14.860947,38.911198,38.90921,0.0,2908.3787,0.34111625,1.0851148,0.0,4,0.0,0.0,0.0,0.0,0.0,0,0,0,0,0,1,1,0,0,0
273101911,14.807789,14.855623,38.8864,38.908695,0.0,2913.8267,0.33688098,1.0857089,0.0,4,0.0,0.0,0.0,0.0,0.0,0,0,0,0,0,1,1,0,0,0
273605930,14.759143,14.853155,38.8864,38.910255,0.0,2919.2744,0.3360651,1.0858233,0.0,4,0.0,0.0,0.0,0.0,0.0,0,0,0,0,0,1,1,0,0,0
274109900,14.613205,14.870339,38.8988,38.908592,0.0,2924.7207,0.34483463,1.0845938,0.0,4,0.0,0.0,0.0,0.0,0.0,0,0,0,0,0,1,1,0,0,0
274613927,14.778601,14.856606,38.936,38.909355,0.0,2930.168,0.3398741,1.085289,0.0,4,0.0,0.0,0.0,0.0,0.0,0,0,0,0,0,1,1,0,0,0
275117914,14.78833,14.846056,38.9236,38.907074,0.0,2935.6147,0.33566266,1.0858798,0.0,4,0.0,0.0,0.0,0.0,0.0,0,0,0,0,0,1,1,0,0,0
275621930,14.982914,14.849444,38.9236,38.907463,0.0,2941.0615,0.33434516,1.0860648,0.0,4,0.0,0.0,0.0,0.0,0.0,0,0,0,0,0,1,1,0,0,0
276126212,14.817518,14.85914,38.911198,38.908936,0.0,2946.512,0.33823377,1.085519,0.0,4,0.0,0.0,0.0,0.0,0.0,0,0,0,0,0,1,1,0,0,0
276629954,14.846705,14.864054,38.8864,38.910904,0.0,2951.9575,0.34094173,1.0851393,0.0,4,0.0,0.0,0.0,0.0,0.0,0,0,0,0,0,1,1,0,0,0
277133870,14.856435,14.874806,38.8864,38.90712,0.0,2957.4043,0.34491187,1.084583,0.0,4,0.0,0.0,0.0,0.0,0.0,0,0,0,0,0,1,1,0,0,0
277637801,14.934268,14.878249,38.911198,38.906548,0.0,2962.8508,0.34651405,1.0843587,0.0,4,0.0,0.0,0.0,0.0,0.0,0,0,0,0,0,1,1,0,0,0
278141883,14.778601,14.877052,38.936,38.909985,0.0,2968.2988,0.34678918,1.0843202,0.0,4,0.0,0.0,0.0,0.0,0.0,0,0,0,0,0,1,1,0,0,0
278645852,14.992642,14.872562,38.911198,38.907658,0.0,2973.746,0.34579974,1.0844587,0.0,4,0.0,0.0,0.0,0.0,0.0,0,0,0,0,0,1,1,0,0,0
279149865,14.875893,14.8708315,38.911198,38.90989,0.0,2979.1943,0.34579116,1.0844599,0.0,4,0.0,0.0,0.0,0.0,0.0,0,0,0,0,0,1,1,0,0,0
279653893,14.836976,14.860488,38.8988,38.907963,0.0,2984.641,0.34056264,1.0851924,0.0,4,0.0,0.0,0.0,0.0,0.0,0,0,0,0,0,1,1,0,0,0
280157872,14.009997,14.795472,38.8988,38.909416,0.0,2990.0889,0.31034547,1.0894454,0.0,4,0.0,0.0,0.0,0.0,0.0,0,0,0,0,0,1,1,0,0,0
280661955,14.311602,14.746152,38.8864,38.906193,0.0,2995.5356,0.27711707,1.0941607,0.0,4,0.0,0.0,0.0,0.0,0.0,0,0,0,0,0,1,1,0,0,0
281165932,14.661851,14.77619,38.8988,38.90432,0.0,3000.9824,0.29258662,1.0919604,0.0,4,0.0,0.0,0.0,0.0,0.0,0,0,0,0,0,1,1,0,0,0
281670048,15.031559,14.781106,38.911198,38.908245,0.0,3006.4312,0.29999238,1.0909102,0.0,4,0.0,0.0,0.0,0.0,0.0,0,0,0,0,0,1,1,0,0,0
282173918,14.992642,14.769826,38.911198,38.90558,0.0,3011.8757,0.29800206,1.0911922,0.0,4,0.0,0.0,0.0,0.0,0.0,0,0,0,0,0,1,1,0,0,0
282677803,14.934268,14.800719,38.911198,38.90739,0.0,3017.321,0.31062156,1.0894064,0.0,4,0.0,0.0,0.0,0.0,0.0,0,0,0,0,0,1,1,0,0,0
283181832,14.827247,14.820364,38.911198,38.907223,0.0,3022.768,0.32081348,1.0879682,0.0,4,0.0,0.0,0.0,0.0,0.0,0,0,0,0,0,1,1,0,0,0
283685909,14.778601,14.828905,38.8988,38.90748,0.0,3028.216,0.32525855,1.0873423,0.0,4,0.0,0.0,0.0,0.0,0.0,0,0,0,0,0,1,1,0,0,0
284189856,14.982914,14.830301,38.8864,38.90778,0.0,3033.6624,0.3273638,1.087046,0.0,4,0.0,0.0,0.0,0.0,0.0,0,0,0,0,0,1,1,0,0,0
284693905,14.885622,14.822853,38.911198,38.908615,0.0,3039.1096,0.32609302,1.0872248,0.0,4,0.0,0.0,0.0,0.0,0.0,0,0,0,0,0,1,1,0,0,0
285197917,14.953726,14.8269205,38.936,38.90897,0.0,3044.5564,0.32784778,1.086978,0.0,4,0.0,0.0,0.0,0.0,0.0,0,0,0,0,0,1,1,0,0,0
285701886,14.982914,14.827493,38.8988,38.90921,0.0,3050.0034,0.32814533,1.0869361,0.0,4,0.0,0.0,0.0,0.0,0.0,0,0,0,0,0,1,1,0,0,0
286205941,14.875893,14.836677,38.911198,38.909836,0.0,3055.4512,0.3320673,1.0863848,0.0,4,0.0,0.0,0.0,0.0,0.0,0,0,0,0,0,1,1,0,0,0
286709892,14.836976,14.827412,38.8864,38.907207,0.0,3060.897,0.32835466,1.0869067,0.0,4,0.0,0.0,0.0,0.0,0.0,0,0,0,0,0,1,1,0,0,0
287213892,14.885622,14.826016,38.911198,38.909462,0.0,3066.345,0.32734615,1.0870485,0.0,4,0.0,0.0,0.0,0.0,0.0,0,0,0,0,0,1,1,0,0,0
287718031,14.642393,14.82837,38.8988,38.909363,0.0,3071.7937,0.32797462,1.0869601,0.0,4,0.0,0.0,0.0,0.0,0.0,0,0,0,0,0,1,1,0,0,0
288725859,14.729956,14.823028,38.8988,38.908634,0.0,3082.6863,0.32767373,1.0870024,0.0,4,0.0,0.0,0.0,0.0,0.0,0,0,0,0,0,1,1,0,0,0
289229915,14.817518,14.832757,38.911198,38.910202,0.0,3088.1353,0.3308075,1.0865618,0.0,4,0.0,0.0,0.0,0.0,0.0,0,0,0,0,0,1,1,0,0,0
289733897,14.827247,14.827715,38.911198,38.91004,0.0,3093.5825,0.3273509,1.0870478,0.0,4,0.0,0.0,0.0,0.0,0.0,0,0,0,0,0,1,1,0,0,0
290237930,14.798059,14.833959,38.8988,38.910492,0.0,3099.0308,0.32880002,1.086844,0.0,4,0.0,0.0,0.0,0.0,0.0,0,0,0,0,0,1,1,0,0,0
290741940,14.895351,14.847303,38.9236,38.911488,0.0,3104.4788,0.33470088,1.0860149,0.0,4,0.0,0.0,0.0,0.0,0.0,0,0,0,0,0,1,1,0,0,0
291246055,14.856435,14.817087,38.9236,38.90965,0.0,3109.9275,0.3228343,1.0876836,0.0,4,0.0,0.0,0.0,0.0,0.0,0,0,0,0,0,1,1,0,0,0
291749915,14.992642,14.818294,38.8864,38.909706,0.0,3115.3723,0.32411987,1.0875025,0.0,4,0.0,0.0,0.0,0.0,0.0,0,0,0,0,0,1,1,0,0,0
292253904,14.807789,14.8078985,38.911198,38.9085,0.0,3120.8198,0.3193863,1.0881693,0.0,4,0.0,0.0,0.0,0.0,0.0,0,0,0,0,0,1,1,0,0,0
292757904,14.593747,14.800747,38.8988,38.911358,0.0,3126.2678,0.31757098,1.0884254,0.0,4,0.0,0.0,0.0,0.0,0.0,0,0,0,0,0,1,1,0,0,0
293261841,14.895351,14.808094,38.9236,38.912487,0.0,3131.715,0.31902152,1.0882208,0.0,4,0.0,0.0,0.0,0.0,0.0,0,0,0,0,0,1,1,0,0,0
293765943,14.817518,14.816484,38.911198,38.909203,0.0,3137.163,0.3217085,1.0878421,0.0,4,0.0,0.0,0.0,0.0,0.0,0,0,0,0,0,1,1,0,0,0
294269969,14.982914,14.810285,38.911198,38.908257,0.0,3142.6108,0.32024223,1.0880487,0.0,4,0.0,0.0,0.0,0.0,0.0,0,0,0,0,0,1,1,0,0,0
294773910,14.642393,14.80124,38.936,38.910236,0.0,3148.0574,0.31586534,1.088666,0.0,4,0.0,0.0,0.0,0.0,0.0,0,0,0,0,0,1,1,0,0,0
295277886,14.836976,14.803847,38.911198,38.91189,0.0,3153.505,0.31726247,1.0884689,0.0,4,0.0,0.0,0.0,0.0,0.0,0,0,0,0,0,1,1,0,0,0
295781937,14.914809,14.784746,38.911198,38.908867,0.0,3158.9526,0.30896217,1.0896409,0.0,4,0.0,0.0,0.0,0.0,0.0,0,0,0,0,0,1,1,0,0,0
296281895,14.836976,14.800587,38.911198,38.909107,0.0,3164.356,0.31672174,1.0885451,0.0,4,0.0,0.0,0.0,0.0,0.0,0,0,0,0,0,1,1,0,0,0
296784237,14.778601,14.789223,38.8988,38.908264,0.0,3169.7847,0.31281215,1.0890969,0.0,4,0.0,0.0,0.0,0.0,0.0,0,0,0,0,0,1,1,0,0,0
297294694,14.846705,14.800394,38.911198,38.908947,0.0,3175.3015,0.3162549,1.088611,0.0,4,0.0,0.0,0.0,0.0,0.0,0,0,0,0,0,1,1,0,0,0
297785116,14.739684,14.814877,38.9236,38.910877,0.0,3180.602,0.32292253,1.0876712,0.0,4,0.0,0.0,0.0,0.0,0.0,0,0,0,0,0,1,1,0,0,0
298289079,14.632664,14.831136,38.8988,38.90811,0.0,3186.0476,0.3249963,1.0873791,0.0,4,0.0,0.0,0.0,0.0,0.0,0,0,0,0,0,1,1,0,0,0
298793174,14.856435,14.853292,38.8864,38.907284,0.0,3191.4958,0.33280164,1.0862815,0.0,4,0.0,0.0,0.0,0.0,0.0,0,0,0,0,0,1,1,0,0,0
299297132,14.846705,14.868477,38.8988,38.905453,0.0,3196.942,0.33992368,1.085282,0.0,4,0.0,0.0,0.0,0.0,0.0,0,0,0,0,0,1,1,0,0,0
299789166,14.992642,14.864777,38.8988,38.906975,0.0,3202.2595,0.33916456,1.0853884,0.0,4,0.0,0.0,0.0,0.0,0.0,0,0,0,0,0,1,1,0,0,0
300293156,15.002372,14.891935,38.911198,38.90888,0.0,3207.7063,0.34867412,1.0840564,0.0,4,0.0,0.0,0.0,0.0,0.0,0,0,0,0,0,1,1,0,0,0
300797179,14.856435,14.879758,38.8988,38.909065,0.0,3213.1536,0.34555274,1.0844933,0.0,4,0.0,0.0,0.0,0.0,0.0,0,0,0,0,0,1,1,0,0,0
301301167,14.885622,14.870921,38.8988,38.90802,0.0,3218.6003,0.34252053,1.084918,0.0,4,0.0,0.0,0.0,0.0,0.0,0,0,0,0,0,1,1,0,0,0
301805198,15.031559,14.768896,38.8864,38.90668,0.0,3224.0483,0.30245334,1.0905616,0.0,4,0.0,0.0,0.0,0.0,0.0,0,0,0,0,0,1,1,0,0,0
302309171,14.759143,14.793635,38.9236,38.907482,0.0,3229.4954,0.31125194,1.0893172,0.0,4,0.0,0.0,0.0,0.0,0.0,0,0,0,0,0,1,1,0,0,0
302813265,14.68131,14.785749,38.8988,38.906853,0.0,3234.9436,0.30919248,1.0896083,0.0,4,0.0,0.0,0.0,0.0,0.0,0,0,0,0,0,1,1,0,0,0
303317182,14.56456,14.789456,38.8864,38.90686,0.0,3240.3896,0.3096841,1.0895388,0.0,4,0.0,0.0,0.0,0.0,0.0,0,0,0,0,0,1,1,0,0,0
303821171,14.924539,14.807348,38.911198,38.90954,0.0,3245.8372,0.31832296,1.0883193,0.0,4,0.0,0.0,0.0,0.0,0.0,0,0,0,0,0,1,1,0,0,0
304325175,14.603477,14.801335,38.8988,38.90862,0.0,3251.2842,0.316387,1.0885923,0.0,4,0.0,0.0,0.0,0.0,0.0,0,0,0,0,0,1,1,0,0,0
304829195,14.817518,14.799146,38.8988,38.90944,0.0,3256.732,0.3149584,1.0887939,0.0,4,0.0,0.0,0.0,0.0,0.0,0,0,0,0,0,1,1,0,0,0
305333171,14.963455,14.812985,38.911198,38.909473,0.0,3262.1792,0.32155496,1.0878638,0.0,4,0.0,0.0,0.0,0.0,0.0,0,0,0,0,0,1,1,0,0,0
305837181,14.729956,14.831717,38.911198,38.91019,0.0,3267.627,0.32772428,1.0869952,0.0,4,0.0,0.0,0.0,0.0,0.0,0,0,0,0,0,1,1,0,0,0
306341167,14.768872,14.836185,38.911198,38.912144,0.0,3273.0737,0.32801133,1.086955,0.0,4,0.0,0.0,0.0,0.0,0.0,0,0,0,0,0,1,1,0,0,0
306845159,14.817518,14.8371105,38.8988,38.911446,0.0,3278.521,0.32747775,1.0870299,0.0,4,0.0,0.0,0.0,0.0,0.0,0,0,0,0,0,1,1,0,0,0
307349128,14.827247,14.830499,38.911198,38.91142,0.0,3283.9678,0.32512647,1.0873609,0.0,4,0.0,0.0,0.0,0.0,0.0,0,0,0,0,0,1,1,0,0,0
307853109,14.778601,14.820567,38.874,38.909393,0.0,3289.4158,0.32113343,1.0879232,0.0,4,0.0,0.0,0.0,0.0,0.0,0,0,0,0,0,1,1,0,0,0
308357135,14.759143,14.806533,38.911198,38.909622,0.0,3294.8635,0.31614143,1.088627,0.0,4,0.0,0.0,0.0,0.0,0.0,0,0,0,0,0,1,1,0,0,0
308849103,14.836976,14.802702,38.936,38.910625,0.0,3300.181,0.3164695,1.0885807,0.0,4,0.0,0.0,0.0,0.0,0.0,0,0,0,0,0,1,1,0,0,0
309353070,14.428351,14.790823,38.8988,38.909145,0.0,3305.6277,0.31135303,1.089303,0.0,4,0.0,0.0,0.0,0.0,0.0,0,0,0,0,0,1,1,0,0,0
309855595,14.798059,14.785986,38.911198,38.90809,0.0,3311.0588,0.3076499,1.0898263,0.0,4,0.0,0.0,0.0,0.0,0.0,0,0,0,0,0,1,1,0,0,0
310360588,14.632664,14.810937,38.8988,38.90905,0.0,3316.5164,0.316253,1.0886112,0.0,4,0.0,0.0,0.0,0.0,0.0,0,0,0,0,0,1,1,0,0,0
310864363,14.7007675,14.8021,38.8988,38.906876,0.0,3321.9612,0.3122118,1.0891817,0.0,4,0.0,0.0,0.0,0.0,0.0,0,0,0,0,0,1,1,0,0,0
311356357,14.78833,14.811493,38.8864,38.9074,0.0,3327.279,0.3165081,1.0885752,0.0,4,0.0,0.0,0.0,0.0,0.0,0,0,0,0,0,1,1,0,0,0
311860311,14.817518,14.807002,38.9236,38.908447,0.0,3332.7256,0.3157161,1.0886871,0.0,4,0.0,0.0,0.0,0.0,0.0,0,0,0,0,0,1,1,0,0,0
312364356,14.759143,14.811858,38.911198,38.910095,0.0,3338.1733,0.31887323,1.0882417,0.0,4,0.0,0.0,0.0,0.0,0.0,0,0,0,0,0,1,1,0,0,0
312868313,14.778601,14.816546,38.8988,38.908882,0.0,3343.6204,0.3202079,1.0880536,0.0,4,0.0,0.0,0.0,0.0,0.0,0,0,0,0,0,1,1,0,0,0
313360373,14.603477,14.817429,38.9236,38.91047,0.0,3348.9385,0.32113296,1.0879232,0.0,4,0.0,0.0,0.0,0.0,0.0,0,0,0,0,0,1,1,0,0,0
313864387,14.720226,14.813138,38.8864,38.910534,0.0,3354.3862,0.3197072,1.0881242,0.0,4,0.0,0.0,0.0,0.0,0.0,0,0,0,0,0,1,1,0,0,0
314368351,14.652122,14.752691,38.874,38.907227,0.0,3359.8333,0.2940448,1.0917535,0.0,4,0.0,0.0,0.0,0.0,0.0,0,0,0,0,0,1,1,0,0,0
314860217,14.836976,14.72755,38.936,38.905518,0.0,3365.1487,0.2843879,1.0931255,0.0,4,0.0,0.0,0.0,0.0,0.0,0,0,0,0,0,1,1,0,0,0
316372303,14.836976,14.74464,38.9236,38.909363,0.0,3381.4905,0.29140788,1.0921277,0.0,4,0.0,0.0,0.0,0.0,0.0,0,0,0,0,0,1,1,0,0,0
316876312,14.613205,14.738549,38.8988,38.911205,0.0,3386.9382,0.28794605,1.0926195,0.0,4,0.0,0.0,0.0,0.0,0.0,0,0,0,0,0,1,1,0,0,0
317380322,14.720226,14.748239,38.936,38.91076,0.0,3392.3855,0.29080707,1.092213,0.0,4,0.0,0.0,0.0,0.0,0.0,0,0,0,0,0,1,1,0,0,0
317884382,14.866163,14.74894,38.911198,38.9102,0.0,3397.8342,0.29075652,1.0922202,0.0,4,0.0,0.0,0.0,0.0,0.0,0,0,0,0,0,1,1,0,0,0
318388547,14.914809,14.741681,38.936,38.914364,0.0,3403.2842,0.2896784,1.0923734,0.0,4,0.0,0.0,0.0,0.0,0.0,0,0,0,0,0,1,1,0,0,0
318892325,14.535372,14.769045,38.911198,38.91218,0.0,3408.729,0.2950681,1.0916083,0.0,4,0.0,0.0,0.0,0.0,0.0,0,0,0,0,0,1,1,0,0,0
319392243,14.78833,14.770016,38.911198,38.909645,0.0,3414.1318,0.2953332,1.0915706,0.0,4,0.0,0.0,0.0,0.0,0.0,0,0,0,0,0,1,1,0,0,0
319896310,14.68131,14.765117,38.911198,38.909615,0.0,3419.5798,0.29448777,1.0916905,0.0,4,0.0,0.0,0.0,0.0,0.0,0,0,0,0,0,1,1,0,0,0
320399625,14.817518,14.764787,38.936,38.91078,0.0,3425.0193,0.29496747,1.0916225,0.0,4,0.0,0.0,0.0,0.0,0.0,0,0,0,0,0,1,1,0,0,0
320891583,15.051018,14.754797,38.911198,38.91138,0.0,3430.3367,0.29012853,1.0923095,0.0,4,0.0,0.0,0.0,0.0,0.0,0,0,0,0,0,1,1,0,0,0
321395543,14.807789,14.739844,38.8988,38.909363,0.0,3435.7834,0.28550893,1.092966,0.0,4,0.0,0.0,0.0,0.0,0.0,0,0,0,0,0,1,1,0,0,0
321899631,14.827247,14.74421,38.936,38.91132,0.0,3441.2322,0.28602248,1.092893,0.0,4,0.0,0.0,0.0,0.0,0.0,0,0,0,0,0,1,1,0,0,0
322403574,14.710497,14.745738,38.911198,38.912052,0.0,3446.6797,0.28615505,1.092874,0.0,4,0.0,0.0,0.0,0.0,0.0,0,0,0,0,0,1,1,0,0,0
322907421,14.661851,14.738067,38.911198,38.907135,0.0,3452.1248,0.28381234,1.0932074,0.0,4,0.0,0.0,0.0,0.0,0.0,0,0,0,0,0,1,1,0,0,0
323411434,14.78833,14.735654,38.9236,38.909668,0.0,3457.5735,0.28204042,1.0934595,0.0,4,0.0,0.0,0.0,0.0,0.0,0,0,0,0,0,1,1,0,0,0
323915577,14.90508,14.734423,38.911198,38.908646,0.0,3463.023,0.28056604,1.0936694,0.0,4,0.0,0.0,0.0,0.0,0.0,0,0,0,0,0,1,1,0,0,0
324419580,14.661851,14.73366,38.8864,38.91033,0.0,3468.47,0.27988368,1.0937666,0.0,4,0.0,0.0,0.0,0.0,0.0,0,0,0,0,0,1,1,0,0,0
324923567,14.68131,14.729702,38.8864,38.911053,0.0,3473.9177,0.27861577,1.0939472,0.0,4,0.0,0.0,0.0,0.0,0.0,0,0,0,0,0,1,1,0,0,0
325427515,14.778601,14.733874,38.8988,38.910732,0.0,3479.3655,0.2810529,1.0936,0.0,4,0.0,0.0,0.0,0.0,0.0,0,0,0,0,0,1,1,0,0,0
325931505,14.846705,14.728857,38.911198,38.910164,0.0,3484.8125,0.2790354,1.0938873,0.0,4,0.0,0.0,0.0,0.0,0.0,0,0,0,0,0,1,1,0,0,0
326435640,14.759143,14.723274,38.911198,38.91277,0.0,3490.2615,0.2773903,1.0941218,0.0,4,0.0,0.0,0.0,0.0,0.0,0,0,0,0,0,1,1,0,0,0
326939639,14.632664,14.726269,38.911198,38.91325,0.0,3495.7085,0.27904636,1.0938858,0.0,4,0.0,0.0,0.0,0.0,0.0,0,0,0,0,0,1,1,0,0,0
327438761,14.622934,14.734625,38.8988,38.909904,0.0,3501.1025,0.28214103,1.0934452,0.0,4,0.0,0.0,0.0,0.0,0.0,0,0,0,0,0,1,1,0,0,0
327942713,14.467268,14.730671,38.8988,38.910423,0.0,3506.5503,0.2822016,1.0934365,0.0,4,0.0,0.0,0.0,0.0,0.0,0,0,0,0,0,1,1,0,0,0
328446752,14.934268,14.730203,38.911198,38.912292,0.0,3511.998,0.28185636,1.0934857,0.0,4,0.0,0.0,0.0,0.0,0.0,0,0,0,0,0,1,1,0,0,0
328938842,14.817518,14.76304,38.911198,38.912663,0.0,3517.3162,0.29578763,1.0915062,0.0,4,0.0,0.0,0.0,0.0,0.0,0,0,0,0,0,1,1,0,0,0
329442707,14.720226,14.752756,38.8988,38.910023,0.0,3522.7625,0.29204398,1.0920374,0.0,4,0.0,0.0,0.0,0.0,0.0,0,0,0,0,0,1,1,0,0,0
329946674,14.506185,14.7652445,38.8864,38.90973,0.0,3528.209,0.29567176,1.0915226,0.0,4,0.0,0.0,0.0,0.0,0.0,0,0,0,0,0,1,1,0,0,0
330438744,14.739684,14.758021,38.911198,38.91101,0.0,3533.5276,0.2936676,1.091807,0.0,4,0.0,0.0,0.0,0.0,0.0,0,0,0,0,0,1,1,0,0,0
330942685,14.7007675,14.753994,38.911198,38.910152,0.0,3538.974,0.29098874,1.0921873,0.0,4,0.0,0.0,0.0,0.0,0.0,0,0,0,0,0,1,1,0,0,0
331446756,14.087831,14.732978,38.911198,38.90815,0.0,3544.4226,0.28274804,1.0933588,0.0,4,0.0,0.0,0.0,0.0,0.0,0,0,0,0,0,1,1,0,0,0
331950680,14.710497,14.733399,38.8988,38.907715,0.0,3549.869,0.2832201,1.0932915,0.0,4,0.0,0.0,0.0,0.0,0.0,0,0,0,0,0,1,1,0,0,0
332454748,14.691039,14.727771,38.8988,38.908443,0.0,3555.3167,0.27965337,1.0937994,0.0,4,0.0,0.0,0.0,0.0,0.0,0,0,0,0,0,1,1,0,0,0
332958697,14.710497,14.733887,38.911198,38.9098,0.0,3560.764,0.2817133,1.093506,0.0,4,0.0,0.0,0.0,0.0,0.0,0,0,0,0,0,1,1,0,0,0
333458644,14.486726,14.736095,38.911198,38.909523,0.0,3566.168,0.28362066,1.0932345,0.0,4,0.0,0.0,0.0,0.0,0.0,0,0,0,0,0,1,1,0,0,0
333961136,14.827247,14.726841,38.8988,38.909103,0.0,3571.5989,0.27735215,1.0941272,0.0,4,0.0,0.0,0.0,0.0,0.0,0,0,0,0,0,1,1,0,0,0
334465155,14.90508,14.71531,38.9236,38.910736,0.0,3577.047,0.27292472,1.0947585,0.0,4,0.0,0.0,0.0,0.0,0.0,0,0,0,0,0,1,1,0,0,0
334957957,14.720226,14.721116,38.911198,38.90822,0.0,3582.3733,0.27625352,1.0942838,0.0,4,0.0,0.0,0.0,0.0,0.0,0,0,0,0,0,1,1,0,0,0
335461859,14.836976,14.724052,38.8988,38.907394,0.0,3587.8184,0.27719718,1.0941492,0.0,4,0.0,0.0,0.0,0.0,0.0,0,0,0,0,0,1,1,0,0,0
335966167,14.807789,14.710774,38.911198,38.905117,0.0,3593.268,0.27408248,1.0945934,0.0,4,0.0,0.0,0.0,0.0,0.0,0,0,0,0,0,1,1,0,0,0
336469977,14.710497,14.711699,38.8988,38.904194,0.0,3598.7126,0.27262717,1.094801,0.0,4,0.0,0.0,0.0,0.0,0.0,0,0,0,0,0,1,1,0,0,0
336973992,14.7007675,14.712676,38.911198,38.908726,0.0,3604.161,0.27186567,1.0949097,0.0,4,0.0,0.0,0.0,0.0,0.0,0,0,0,0,0,1,1,0,0,0
337477956,14.447809,14.707814,38.911198,38.910034,0.0,3609.608,0.27225858,1.0948536,0.0,4,0.0,0.0,0.0,0.0,0.0,0,0,0,0,0,1,1,0,0,0
337981968,14.661851,14.721411,38.911198,38.90968,0.0,3615.0554,0.276491,1.09425,0.0,4,0.0,0.0,0.0,0.0,0.0,0,0,0,0,0,1,1,0,0,0
