timestamp,ref_timestamp,ref_lat,ref_lon,x,y,z,delta_xy[0],delta_xy[1],delta_z,vx,vy,vz,z_deriv,delta_vxy[0],delta_vxy[1],delta_vz,ax,ay,az,yaw,ref_alt,dist_bottom,dist_bottom_rate,eph,epv,evh,evv,vxy_max,vz_max,hagl_min,hagl_max,xy_valid,z_valid,v_xy_valid,v_z_valid,xy_reset_counter,z_reset_counter,vxy_reset_counter,vz_reset_counter,xy_global,z_global,dist_bottom_valid
100869476,0,0.0,0.0,0.0,0.0,0.08079942,-5.862651e-07,4.3724148e-07,0.0,-0.02617006,0.022732414,-0.013431563,0.011168694,-0.00014645644,0.00010922845,0.0,-0.014723919,0.007807468,-0.0026442644,-1.3557748,0.0,0.104253106,0.013431563,0.119082354,0.24778427,0.10002993,0.10972006,inf,inf,inf,inf,0,1,0,1,1,0,1,1,0,0,0
100973482,0,0.0,0.0,0.0,0.0,0.08057283,-5.862651e-07,4.3724148e-07,0.0,-0.02595557,0.022853907,-0.013504261,0.009312388,-0.00014645644,0.00010922845,0.0,0.009915385,0.013308192,0.0036591322,-1.3558443,0.0,0.10675806,0.013504261,0.120378464,0.24912366,0.100750804,0.11010999,inf,inf,inf,inf,0,1,0,1,1,0,1,1,0,0,0
101077476,0,0.0,0.0,0.0,0.0,0.07914172,-5.862651e-07,4.3724148e-07,0.0,-0.02569828,0.023405228,-0.014297537,0.005755905,-0.00014645644,0.00010922845,0.0,0.0014061707,0.02288811,0.005808091,-1.355975,0.0,0.1,0.014297537,0.119963765,0.24855585,0.10057998,0.109973155,inf,inf,inf,inf,0,1,0,1,1,0,1,1,0,0,0
101173471,0,0.0,0.0,0.0,0.0,0.075645916,-5.862651e-07,4.3724148e-07,0.0,-0.025400303,0.02413139,-0.014904238,0.0009137558,-0.00014645644,0.00010922845,0.0,-0.014975244,0.015213444,-0.015562433,-1.3560603,0.0,0.1,0.014904238,0.11894782,0.24731903,0.10008882,0.10965157,inf,inf,inf,inf,0,1,0,1,1,0,1,1,0,0,0
101277477,0,0.0,0.0,0.0,0.0,0.07222685,-5.862651e-07,4.3724148e-07,0.0,-0.024689578,0.024741773,-0.016575206,-0.004342661,-0.00014645644,0.00010922845,0.0,-0.027081568,0.029726375,-0.018745838,-1.3560225,0.0,0.1,0.016575206,0.12024141,0.24867237,0.100783736,0.110043816,inf,inf,inf,inf,0,1,0,1,1,0,1,1,0,0,0
101381494,0,0.0,0.0,0.0,0.0,0.068773985,-5.862651e-07,4.3724148e-07,0.0,-0.02390114,0.02563913,-0.017807927,-0.008592297,-0.00014645644,0.00010922845,0.0,-0.0010807764,0.03224303,-0.007458598,-1.3560451,0.0,0.1,0.017807927,0.12141932,0.24995948,0.10137036,0.11040427,inf,inf,inf,inf,0,1,0,1,1,0,1,1,0,0,0
101477471,0,0.0,0.0,0.0,0.0,0.06648471,-5.862651e-07,4.3724148e-07,0.0,-0.023461565,0.026575966,-0.018778915,-0.011029208,-0.00014645644,0.00010922845,0.0,-0.022699118,0.037911583,0.00825727,-1.3560845,0.0,0.1,0.018778915,0.121862635,0.25049347,0.101547755,0.110545754,inf,inf,inf,inf,0,1,0,1,1,0,1,1,0,0,0
101581471,0,0.0,0.0,0.0,0.0,0.06527418,-5.862651e-07,4.3724148e-07,0.0,-0.023184067,0.02777193,-0.019171083,-0.011495835,-0.00014645644,0.00010922845,0.0,-0.0064541893,0.03378396,-0.01303452,-1.3560871,0.0,0.103399605,0.019171083,0.12112118,0.24975283,0.10110289,0.110330306,inf,inf,inf,inf,0,1,0,1,1,0,1,1,0,0,0
101685471,0,0.0,0.0,0.0,0.0,0.06498707,-5.862651e-07,4.3724148e-07,0.0,-0.022702487,0.028507221,-0.019021329,-0.010496818,-0.00014645644,0.00010922845,0.0,-0.014589982,0.019725366,-0.0024653596,-1.3560601,0.0,0.106383674,0.019021329,0.120457865,0.24905254,0.10072845,0.1101346,inf,inf,inf,inf,0,1,0,1,1,0,1,1,0,0,0
101781477,0,0.0,0.0,0.0,0.0,0.063913904,-5.862651e-07,4.3724148e-07,0.0,-0.022066351,0.029550709,-0.019030677,-0.010696528,-0.00014645644,0.00010922845,0.0,-0.023293102,0.033592124,-0.0055239224,-1.356089,0.0,0.101393454,0.019030677,0.12097863,0.24963027,0.10098975,0.1102964,inf,inf,inf,inf,0,1,0,1,1,0,1,1,0,0,0
101884718,0,0.0,0.0,0.0,0.0,0.05952125,-5.862651e-07,4.3724148e-07,0.0,-0.0218827,0.030607373,-0.019905692,-0.014898262,-0.00014645644,0.00010922845,0.0,-0.0074731857,0.042449027,-0.041687507,-1.3561149,0.0,0.1,0.019905692,0.12034459,0.24891773,0.10065517,0.11011685,inf,inf,inf,inf,0,1,0,1,1,0,1,1,0,0,0
101989496,0,0.0,0.0,0.0,0.0,0.055318467,-5.862651e-07,4.3724148e-07,0.0,-0.021158682,0.031228527,-0.020875322,-0.018399969,-0.00014645644,0.00010922845,0.0,-0.0046882103,0.014942197,-0.019179037,-1.3562348,0.0,0.10109184,0.020875322,0.11987851,0.24836865,0.10042951,0.10996307,inf,inf,inf,inf,0,1,0,1,1,0,1,1,0,0,0
102086271,0,0.0,0.0,0.0,0.0,0.05235167,-5.862651e-07,4.3724148e-07,0.0,-0.020826673,0.032126788,-0.02164841,-0.020282224,-0.00014645644,0.00010922845,0.0,-0.008932325,0.021463668,-0.01115639,-1.356344,0.0,0.10106869,0.02164841,0.12048159,0.24899861,0.10076122,0.11014964,inf,inf,inf,inf,0,1,0,1,1,0,1,1,0,0,0
102190271,0,0.0,0.0,0.0,0.0,0.05103156,-5.862651e-07,4.3724148e-07,0.0,-0.020511704,0.032405343,-0.02192391,-0.019673685,-0.00014645644,0.00010922845,0.0,-0.016761255,0.03564138,-0.018756943,-1.3564694,0.0,0.108909905,0.02192391,0.120022684,0.24843,0.100553274,0.110009566,inf,inf,inf,inf,0,1,0,1,1,0,1,1,0,0,0
102294314,0,0.0,0.0,0.0,0.0,0.050463542,-5.862651e-07,4.3724148e-07,0.0,-0.020700397,0.03326622,-0.020748142,-0.017097939,-0.00014645644,0.00010922845,0.0,-0.011438235,0.022803254,0.0056045866,-1.3565948,0.0,0.10583678,0.020748142,0.119628586,0.24793561,0.1003765,0.1098752,inf,inf,inf,inf,0,1,0,1,1,0,1,1,0,0,0
102390296,0,0.0,0.0,0.0,0.0,0.049814887,-5.862651e-07,4.3724148e-07,0.0,-0.021037685,0.033814494,-0.020352168,-0.015782338,-0.00014645644,0.00010922845,0.0,-0.021581603,0.014416378,-0.002879563,-1.3566834,0.0,0.10420754,0.020352168,0.120264694,0.24859421,0.10071705,0.110069424,inf,inf,inf,inf,0,1,0,1,1,0,1,1,0,0,0
102494277,0,0.0,0.0,0.0,0.0,0.049517825,-5.862651e-07,4.3724148e-07,0.0,-0.02125005,0.03465937,-0.019831827,-0.014035168,-0.00014645644,0.00010922845,0.0,-0.014058047,0.015294186,-0.0066669583,-1.3567463,0.0,0.10547343,0.019831827,0.11978648,0.2480255,0.10047003,0.10992336,inf,inf,inf,inf,0,1,0,1,1,0,1,1,0,0,0
102598278,0,0.0,0.0,0.0,0.0,0.045139104,-5.862651e-07,4.3724148e-07,0.0,-0.021248108,0.03520433,-0.020951934,-0.018100573,-0.00014645644,0.00010922845,0.0,-0.004002798,0.02404478,0.0057603396,-1.3569257,0.0,0.1,0.020951934,0.12102548,0.24936706,0.10111031,0.11030338,inf,inf,inf,inf,0,1,0,1,1,0,1,1,0,0,0
102694271,0,0.0,0.0,0.0,0.0,0.03876956,-5.862651e-07,4.3724148e-07,0.0,-0.021164035,0.03574332,-0.023004733,-0.024621682,-0.00014645644,0.00010922845,0.0,-0.0030147596,-0.00058953394,-0.025902523,-1.3571222,0.0,0.1,0.023004733,0.12152861,0.24995418,0.10133507,0.1104635,inf,inf,inf,inf,0,1,0,1,1,0,1,1,0,0,0
102798318,0,0.0,0.0,0.0,0.0,0.032715548,-5.862651e-07,4.3724148e-07,0.0,-0.020683216,0.03623324,-0.024946982,-0.02984727,-0.00014645644,0.00010922845,0.0,-0.012549405,0.012947644,-0.0053082784,-1.3572996,0.0,0.1,0.024946982,0.120886706,0.2492937,0.1009669,0.11027691,inf,inf,inf,inf,0,1,0,1,1,0,1,1,0,0,0
102902271,0,0.0,0.0,0.0,0.0,0.027087133,-5.862651e-07,4.3724148e-07,0.0,-0.020605242,0.036815275,-0.02518653,-0.032338873,-0.00014645644,0.00010922845,0.0,-0.0019021422,0.026960116,0.024951605,-1.3575494,0.0,0.1,0.02518653,0.1202805,0.2486531,0.10062751,0.110097446,inf,inf,inf,inf,0,1,0,1,1,0,1,1,0,0,0
103006271,0,0.0,0.0,0.0,0.0,0.020905593,-5.862651e-07,4.3724148e-07,0.0,-0.019960767,0.037508164,-0.026177967,-0.03580833,-0.00014645644,0.00010922845,0.0,-0.015593962,0.02533941,-0.009613308,-1.3577938,0.0,0.1,0.026177967,0.12144248,0.24995063,0.101214714,0.11045571,inf,inf,inf,inf,0,1,0,1,1,0,1,1,0,0,0
103102279,0,0.0,0.0,0.0,0.0,0.016906193,-5.862651e-07,4.3724148e-07,0.0,-0.02008406,0.037674002,-0.026834916,-0.03681847,-0.00014645644,0.00010922845,0.0,-0.024508547,0.0013623997,0.0037368971,-1.3580346,0.0,0.1,0.026834916,0.120207354,0.24861588,0.100554444,0.11008356,inf,inf,inf,inf,0,1,0,1,1,0,1,1,0,0,0
103206271,0,0.0,0.0,0.0,0.0,0.011209605,-5.862651e-07,4.3724148e-07,0.0,-0.020539528,0.037838478,-0.027792495,-0.039280467,-0.00014645644,0.00010922845,0.0,-0.01682481,0.030698523,0.0034989156,-1.3581156,0.0,0.101451166,0.027792495,0.121405505,0.24993269,0.10117413,0.11045161,inf,inf,inf,inf,0,1,0,1,1,0,1,1,0,0,0
103309518,0,0.0,0.0,0.0,0.0,0.0086051095,-5.862651e-07,4.3724148e-07,0.0,-0.020190742,0.038353328,-0.028580165,-0.038306937,-0.00014645644,0.00010922845,0.0,0.011705729,0.018470468,-0.046181515,-1.3581887,0.0,0.10812771,0.028580165,0.12082437,0.24930552,0.10086585,0.11027798,inf,inf,inf,inf,0,1,0,1,1,0,1,1,0,0,0
103407082,0,0.0,0.0,0.0,0.0,0.010416747,-5.862651e-07,4.3724148e-07,0.0,-0.01956329,0.038317848,-0.027310198,-0.03143666,-0.00014645644,0.00010922845,0.0,-0.023487894,0.0042863134,0.03613066,-1.3582006,0.0,0.11724259,0.027310198,0.12139224,0.24992996,0.10116014,0.11045236,inf,inf,inf,inf,0,1,0,1,1,0,1,1,0,0,0
103510271,0,0.0,0.0,0.0,0.0,0.014125246,-5.862651e-07,4.3724148e-07,0.0,-0.01901847,0.03840649,-0.025632476,-0.022935504,-0.00014645644,0.00010922845,0.0,-0.0101320045,0.034839466,-0.006202726,-1.3582891,0.0,0.12150888,0.025632476,0.12084931,0.24932548,0.10089026,0.11029007,inf,inf,inf,inf,0,1,0,1,1,0,1,1,0,0,0
103615071,0,0.0,0.0,0.0,0.0,0.01793261,-5.862651e-07,4.3724148e-07,0.0,-0.018782042,0.038008306,-0.023570655,-0.015004603,-0.00014645644,0.00010922845,0.0,0.0071966946,0.020155404,-0.011668603,-1.3582989,0.0,0.11582224,0.023570655,0.12038976,0.24880332,0.10067093,0.11013755,inf,inf,inf,inf,0,1,0,1,1,0,1,1,0,0,0
103711070,0,0.0,0.0,0.0,0.0,0.02076488,-5.862651e-07,4.3724148e-07,0.0,-0.018736707,0.037864134,-0.022406075,-0.00990034,-0.00014645644,0.00010922845,0.0,-0.0026069214,0.014613852,-0.010254343,-1.3583312,0.0,0.11329187,0.022406075,0.11927246,0.24753974,0.10010698,0.10979486,inf,inf,inf,inf,0,1,0,1,1,0,1,1,0,0,0
103815071,0,0.0,0.0,0.0,0.0,0.023371084,-5.862651e-07,4.3724148e-07,0.0,-0.018283775,0.037927754,-0.021313503,-0.0056312857,-0.00014645644,0.00010922845,0.0,-0.005875179,0.03944079,0.009231562,-1.3583869,0.0,0.11220309,0.021313503,0.12053814,0.24890156,0.10078675,0.11018146,inf,inf,inf,inf,0,1,0,1,1,0,1,1,0,0,0
103919078,0,0.0,0.0,0.0,0.0,0.026950898,-5.862651e-07,4.3724148e-07,0.0,-0.017993627,0.037947934,-0.019770926,-0.00046533687,-0.00014645644,0.00010922845,0.0,0.00088627054,0.028787434,-0.017467886,-1.3584509,0.0,0.112528,0.019770926,0.1200871,0.24835868,0.100571565,0.11003998,inf,inf,inf,inf,0,1,0,1,1,0,1,1,0,0,0
104015077,0,0.0,0.0,0.0,0.0,0.029728526,-5.862651e-07,4.3724148e-07,0.0,-0.01788388,0.037876833,-0.018592592,0.0030316378,-0.00014645644,0.00010922845,0.0,-0.01444026,0.02238687,-0.02636375,-1.3584194,0.0,0.11265049,0.018592592,0.120742045,0.249041,0.10092613,0.1102373,inf,inf,inf,inf,0,1,0,1,1,0,1,1,0,0,0
104119083,0,0.0,0.0,0.0,0.0,0.031771615,-5.862651e-07,4.3724148e-07,0.0,-0.018226292,0.037113354,-0.017711844,0.0051004686,-0.00014645644,0.00010922845,0.0,-0.019160172,0.020331765,-0.0147667015,-1.3583808,0.0,0.104921415,0.017711844,0.120285675,0.2485018,0.10069987,0.110095024,inf,inf,inf,inf,0,1,0,1,1,0,1,1,0,0,0
104223078,0,0.0,0.0,0.0,0.0,0.033336043,-5.862651e-07,4.3724148e-07,0.0,-0.018121287,0.036665414,-0.016297253,0.0070466916,-0.00014645644,0.00010922845,0.0,0.002753659,0.017576996,0.01088546,-1.3583498,0.0,0.10857472,0.016297253,0.119855955,0.24797918,0.10049292,0.109960325,inf,inf,inf,inf,0,1,0,1,1,0,1,1,0,0,0
104319089,0,0.0,0.0,0.0,0.0,0.033535987,-5.862651e-07,4.3724148e-07,0.0,-0.017768156,0.035880663,-0.015827551,0.006632068,-0.00014645644,0.00010922845,0.0,-0.024608148,0.014017606,0.004178832,-1.3583412,0.0,0.10226548,0.015827551,0.11882881,0.24678832,0.099972606,0.1096399,inf,inf,inf,inf,0,1,0,1,1,0,1,1,0,0,0
104423073,0,0.0,0.0,0.0,0.0,0.031610087,-5.862651e-07,4.3724148e-07,0.0,-0.017213795,0.034954913,-0.016526205,0.002973942,-0.00014645644,0.00010922845,0.0,-0.0008217725,0.019250147,0.0072949054,-1.3583479,0.0,0.1,0.016526205,0.12015263,0.24819815,0.1006799,0.11004315,inf,inf,inf,inf,0,1,0,1,1,0,1,1,0,0,0
104527071,0,0.0,0.0,0.0,0.0,0.028846804,-5.862651e-07,4.3724148e-07,0.0,-0.01746948,0.03454143,-0.017119398,-0.0008728484,-0.00014645644,0.00010922845,0.0,-0.0038888515,0.009532921,0.0015999624,-1.3583829,0.0,0.1,0.017119398,0.119751535,0.24770649,0.1004806,0.10991689,inf,inf,inf,inf,0,1,0,1,1,0,1,1,0,0,0
104623070,0,0.0,0.0,0.0,0.0,0.027839357,-5.862651e-07,4.3724148e-07,0.0,-0.017156428,0.033890717,-0.016807223,-0.0016076344,-0.00014645644,0.00010922845,0.0,-0.010200146,0.02749558,0.0074877697,-1.3583755,0.0,0.105530985,0.016807223,0.120420374,0.24841462,0.1008297,0.11011984,inf,inf,inf,inf,0,1,0,1,1,0,1,1,0,0,0
104727079,0,0.0,0.0,0.0,0.0,0.029640354,-5.862651e-07,4.3724148e-07,0.0,-0.017391773,0.033908006,-0.015397243,0.0014795745,-0.00014645644,0.00010922845,0.0,-0.010514503,0.040647823,-0.0053699883,-1.3583694,0.0,0.106092416,0.015397243,0.11995049,0.24789011,0.10056977,0.10997648,inf,inf,inf,inf,0,1,0,1,1,0,1,1,0,0,0
104831071,0,0.0,0.0,0.0,0.0,0.030311828,-5.862651e-07,4.3724148e-07,0.0,-0.017396593,0.032955363,-0.015139482,0.0020189574,-0.00014645644,0.00010922845,0.0,-0.019016199,0.023292858,0.004429403,-1.3584342,0.0,0.10368208,0.015139482,0.12117113,0.24928166,0.101166286,0.11034226,inf,inf,inf,inf,0,1,0,1,1,0,1,1,0,0,0
104934325,0,0.0,0.0,0.0,0.0,0.031070227,-5.862651e-07,4.3724148e-07,0.0,-0.017336622,0.032107122,-0.014455259,0.0029486292,-0.00014645644,0.00010922845,0.0,0.0041153533,0.03277181,-0.037761014,-1.3584561,0.0,0.101069756,0.014455259,0.1204601,0.2485797,0.10073674,0.11014816,inf,inf,inf,inf,0,1,0,1,1,0,1,1,0,0,0
105039071,0,0.0,0.0,0.0,0.0,0.029399186,-5.862651e-07,4.3724148e-07,0.0,-0.017280592,0.031318717,-0.015226161,5.1100564e-05,-0.00014645644,0.00010922845,0.0,-0.021001978,0.0068111527,-0.017103523,-1.3585038,0.0,0.1,0.015226161,0.12162816,0.24990515,0.10131501,0.11050748,inf,inf,inf,inf,0,1,0,1,1,0,1,1,0,0,0
105135871,0,0.0,0.0,0.0,0.0,0.026610946,-5.862651e-07,4.3724148e-07,0.0,-0.01740496,0.030771548,-0.016031094,-0.003621255,-0.00014645644,0.00010922845,0.0,-0.029789522,0.0059613273,-0.008323292,-1.3584878,0.0,0.1,0.016031094,0.12038937,0.24859758,0.10064665,0.11013616,inf,inf,inf,inf,0,1,0,1,1,0,1,1,0,0,0
105239882,0,0.0,0.0,0.0,0.0,0.021508394,-5.862651e-07,4.3724148e-07,0.0,-0.017560843,0.030412572,-0.017077273,-0.009323809,-0.00014645644,0.00010922845,0.0,-0.013441341,0.022444366,0.007748136,-1.3584638,0.0,0.1,0.017077273,0.12152048,0.24989727,0.10121227,0.11048849,inf,inf,inf,inf,0,1,0,1,1,0,1,1,0,0,0
105343918,0,0.0,0.0,0.0,0.0,0.016889544,-5.862651e-07,4.3724148e-07,0.0,-0.018151077,0.02935897,-0.018088004,-0.013822465,-0.00014645644,0.00010922845,0.0,-0.0015581204,0.024457948,-0.020669108,-1.3585033,0.0,0.1,0.018088004,0.122644454,0.25122407,0.101754285,0.11082543,inf,inf,inf,inf,0,1,0,1,1,0,1,1,0,0,0
105439871,0,0.0,0.0,0.0,0.0,0.014006561,-5.862651e-07,4.3724148e-07,0.0,-0.018485202,0.02855755,-0.017760523,-0.014903732,-0.00014645644,0.00010922845,0.0,-0.02373185,0.012407655,0.01013552,-1.3585865,0.0,0.1,0.017760523,0.12127519,0.24982291,0.10100387,0.110418856,inf,inf,inf,inf,0,1,0,1,1,0,1,1,0,0,0
105543871,0,0.0,0.0,0.0,0.0,0.011006272,-5.862651e-07,4.3724148e-07,0.0,-0.019449346,0.027770923,-0.017982487,-0.016473195,-0.00014645644,0.00010922845,0.0,-0.03156649,0.0040753675,-0.017783627,-1.358616,0.0,0.1,0.017982487,0.12061558,0.24915807,0.100645415,0.11022066,inf,inf,inf,inf,0,1,0,1,1,0,1,1,0,0,0
105647871,0,0.0,0.0,0.0,0.0,0.00630347,-5.862651e-07,4.3724148e-07,0.0,-0.019305287,0.027633961,-0.019281628,-0.020497078,-0.00014645644,0.00010922845,0.0,-0.0010285306,0.019880306,-0.01505396,-1.358664,0.0,0.1,0.019281628,0.11999483,0.24851082,0.10031599,0.11003113,inf,inf,inf,inf,0,1,0,1,1,0,1,1,0,0,0
105743885,0,0.0,0.0,0.0,0.0,0.0049722157,-5.862651e-07,4.3724148e-07,0.0,-0.019329922,0.027380763,-0.01914984,-0.019598527,-0.00014645644,0.00010922845,0.0,0.0071965186,0.009814739,-0.013182997,-1.3587313,0.0,0.10486978,0.01914984,0.12053309,0.24912037,0.10060591,0.11019479,inf,inf,inf,inf,0,1,0,1,1,0,1,1,0,0,0
105847880,0,0.0,0.0,0.0,0.0,0.004076602,-5.862651e-07,4.3724148e-07,0.0,-0.018971048,0.02660424,-0.019618643,-0.018836427,-0.00014645644,0.00010922845,0.0,0.0037227077,0.008286272,-0.008414591,-1.3588854,0.0,0.1,0.019618643,0.12163629,0.25038725,0.10116415,0.110531926,inf,inf,inf,inf,0,1,0,1,1,0,1,1,0,0,0
105951879,0,0.0,0.0,0.0,0.0,0.001617029,-5.862651e-07,4.3724148e-07,0.0,-0.018912626,0.025436522,-0.020288203,-0.019856656,-0.00014645644,0.00010922845,0.0,-0.0037288568,0.009028609,-0.02775333,-1.3590674,0.0,0.1,0.020288203,0.12091875,0.24967256,0.10077063,0.11031614,inf,inf,inf,inf,0,1,0,1,1,0,1,1,0,0,0
106047871,0,0.0,0.0,0.0,0.0,-0.00035033238,-5.862651e-07,4.3724148e-07,0.0,-0.018583976,0.024924884,-0.019652657,-0.019244544,-0.00014645644,0.00010922845,0.0,-0.01856303,0.0022416539,-0.014995241,-1.3592618,0.0,0.10291989,0.019652657,0.12140108,0.2502369,0.10102386,0.11046308,inf,inf,inf,inf,0,1,0,1,1,0,1,1,0,0,0
106151893,0,0.0,0.0,0.0,0.0,-0.00020130015,-5.862651e-07,4.3724148e-07,0.0,-0.018265694,0.024318034,-0.020130439,-0.017471666,-0.00014645644,0.00010922845,0.0,0.0015508904,0.0075490745,0.0056426795,-1.3594598,0.0,0.10875288,0.020130439,0.12245577,0.25146294,0.10154693,0.11078469,inf,inf,inf,inf,0,1,0,1,1,0,1,1,0,0,0
106255871,0,0.0,0.0,0.0,0.0,-0.00034447838,-5.862651e-07,4.3724148e-07,0.0,-0.01841796,0.023308085,-0.019489596,-0.0151972845,-0.00014645644,0.00010922845,0.0,-0.011318164,0.009612227,0.01646682,-1.3595277,0.0,0.10486125,0.019489596,0.12168301,0.25070035,0.10112383,0.110553,inf,inf,inf,inf,0,1,0,1,1,0,1,1,0,0,0
106359116,0,0.0,0.0,0.0,0.0,-0.0020934877,-5.862651e-07,4.3724148e-07,0.0,-0.018051198,0.023214899,-0.019881904,-0.015756916,-0.00014645644,0.00010922845,0.0,-0.008938368,0.029497216,-0.044166427,-1.3595335,0.0,0.10407413,0.019881904,0.12096657,0.2499646,0.10075403,0.1103342,inf,inf,inf,inf,0,1,0,1,1,0,1,1,0,0,0
106456671,0,0.0,0.0,0.0,0.0,-0.000875374,-5.862651e-07,4.3724148e-07,0.0,-0.018211171,0.022364164,-0.019025613,-0.01216024,-0.00014645644,0.00010922845,0.0,-0.019140987,-0.0012437614,-0.013337716,-1.3594551,0.0,0.11686522,0.019025613,0.121457614,0.2505191,0.1010231,0.11048028,inf,inf,inf,inf,0,1,0,1,1,0,1,1,0,0,0
106559871,0,0.0,0.0,0.0,0.0,0.003492299,-5.862651e-07,4.3724148e-07,0.0,-0.016961303,0.021461349,-0.016616903,-0.0044370107,-0.00014645644,0.00010922845,0.0,-0.010422419,0.016952757,0.016773054,-1.3593493,0.0,0.11395411,0.016616903,0.12080771,0.24981447,0.1007051,0.11027781,inf,inf,inf,inf,0,1,0,1,1,0,1,1,0,0,0
106660671,0,0.0,0.0,0.0,0.0,0.0057903803,-5.862651e-07,4.3724148e-07,0.0,-0.016942434,0.02067576,-0.016348511,-0.0016973275,-0.00014645644,0.00010922845,0.0,-0.008427981,0.015138148,0.005006431,-1.3592591,0.0,0.10997927,0.016348511,0.1201997,0.24913271,0.10041568,0.110085055,inf,inf,inf,inf,0,1,0,1,1,0,1,1,0,0,0
106764675,0,0.0,0.0,0.0,0.0,0.009660194,-5.862651e-07,4.3724148e-07,0.0,-0.016514625,0.02009709,-0.013913173,0.004331918,-0.00014645644,0.00010922845,0.0,-0.02607341,0.028260523,0.028107384,-1.3592665,0.0,0.10942879,0.013913173,0.11950687,0.24833478,0.10007494,0.10988844,inf,inf,inf,inf,0,1,0,1,1,0,1,1,0,0,0
106868671,0,0.0,0.0,0.0,0.0,0.011681269,-5.862651e-07,4.3724148e-07,0.0,-0.016754823,0.01966955,-0.013504507,0.0059062727,-0.00014645644,0.00010922845,0.0,-0.007863813,0.012259094,0.00603782,-1.3593732,0.0,0.10545389,0.013504507,0.12059513,0.24949983,0.100670315,0.11024099,inf,inf,inf,inf,0,1,0,1,1,0,1,1,0,0,0
106964715,0,0.0,0.0,0.0,0.0,0.014703965,-5.862651e-07,4.3724148e-07,0.0,-0.016551916,0.019325735,-0.012795725,0.008714947,-0.00014645644,0.00010922845,0.0,-0.017360928,-0.00081757095,0.014491695,-1.3594694,0.0,0.103753604,0.012795725,0.11947056,0.24819653,0.10012704,0.10988397,inf,inf,inf,inf,0,1,0,1,1,0,1,1,0,0,0
107068670,0,0.0,0.0,0.0,0.0,0.013957513,-5.862651e-07,4.3724148e-07,0.0,-0.016309526,0.018664086,-0.013753565,0.005826397,-0.00014645644,0.00010922845,0.0,0.002825596,0.012939653,-0.02802562,-1.3595526,0.0,0.1,0.013753565,0.12073573,0.2495309,0.10083131,0.11026368,inf,inf,inf,inf,0,1,0,1,1,0,1,1,0,0,0
107172670,0,0.0,0.0,0.0,0.0,0.011956259,-5.862651e-07,4.3724148e-07,0.0,-0.016106678,0.018410625,-0.014168223,0.002694103,-0.00014645644,0.00010922845,0.0,-0.009187075,0.0101407645,0.006956975,-1.359603,0.0,0.10066822,0.014168223,0.12027996,0.24895002,0.10063869,0.11011273,inf,inf,inf,inf,0,1,0,1,1,0,1,1,0,0,0
107268678,0,0.0,0.0,0.0,0.0,0.011990222,-5.862651e-07,4.3724148e-07,0.0,-0.016001705,0.018511247,-0.014093491,0.002425742,-0.00014645644,0.00010922845,0.0,-0.018898536,0.010639852,-0.021993468,-1.3596506,0.0,0.10532959,0.014093491,0.12094364,0.24961288,0.101019055,0.110305674,inf,inf,inf,inf,0,1,0,1,1,0,1,1,0,0,0
107372671,0,0.0,0.0,0.0,0.0,0.012751698,-5.862651e-07,4.3724148e-07,0.0,-0.01569818,0.018008422,-0.013404549,0.0034351659,-0.00014645644,0.00010922845,0.0,0.005258652,0.0047994396,-0.0086595,-1.3597617,0.0,0.10159898,0.013404549,0.120394565,0.24898338,0.1007345,0.110132866,inf,inf,inf,inf,0,1,0,1,1,0,1,1,0,0,0
107476689,0,0.0,0.0,0.0,0.0,0.010459706,-5.862651e-07,4.3724148e-07,0.0,-0.01533498,0.017987803,-0.014916204,-0.0007765612,-0.00014645644,0.00010922845,0.0,-0.017468812,0.011512704,0.0009363164,-1.3599582,0.0,0.1,0.014916204,0.12158156,0.25028,0.10134582,0.110490955,inf,inf,inf,inf,0,1,0,1,1,0,1,1,0,0,0
107580722,0,0.0,0.0,0.0,0.0,0.008886967,-5.862651e-07,4.3724148e-07,0.0,-0.015789773,0.01754977,-0.015042368,-0.0024368756,-0.00014645644,0.00010922845,0.0,-0.017245525,-0.007305933,-0.0036276302,-1.3601035,0.0,0.10103235,0.015042368,0.12270016,0.25153834,0.10189329,0.11082897,inf,inf,inf,inf,0,1,0,1,1,0,1,1,0,0,0
107684671,0,0.0,0.0,0.0,0.0,0.008258641,-5.862651e-07,4.3724148e-07,0.0,-0.015800392,0.017019527,-0.015036981,-0.0028366975,-0.00014645644,0.00010922845,0.0,-0.010725953,0.02279461,3.739861e-05,-1.3601741,0.0,0.105432674,0.015036981,0.12194671,0.2507862,0.10145841,0.110606775,inf,inf,inf,inf,0,1,0,1,1,0,1,1,0,0,0
107780670,0,0.0,0.0,0.0,0.0,0.009601464,-5.862651e-07,4.3724148e-07,0.0,-0.016147371,0.01666641,-0.014580932,-0.0008646619,-0.00014645644,0.00010922845,0.0,0.0030298498,0.0039358675,-0.02357843,-1.3601737,0.0,0.11107721,0.014580932,0.12063265,0.24937923,0.10075363,0.11020757,inf,inf,inf,inf,0,1,0,1,1,0,1,1,0,0,0
107884671,0,0.0,0.0,0.0,0.0,0.010975345,-5.862651e-07,4.3724148e-07,0.0,-0.015713746,0.016517647,-0.01311853,0.001776923,-0.00014645644,0.00010922845,0.0,-0.007813297,0.0015141381,-1.9564559e-05,-1.3601619,0.0,0.10271227,0.01311853,0.12176132,0.25063428,0.10133015,0.11055112,inf,inf,inf,inf,0,1,0,1,1,0,1,1,0,0,0
107988701,0,0.0,0.0,0.0,0.0,0.012050228,-5.862651e-07,4.3724148e-07,0.0,-0.015410919,0.01551538,-0.013269047,0.0023256114,-0.00014645644,0.00010922845,0.0,-0.0073917573,-0.0054470464,-0.021900779,-1.3600817,0.0,0.10269327,0.013269047,0.12116016,0.24996766,0.10102406,0.11036533,inf,inf,inf,inf,0,1,0,1,1,0,1,1,0,0,0
108084721,0,0.0,0.0,0.0,0.0,0.01523841,-5.862651e-07,4.3724148e-07,0.0,-0.015743734,0.015556018,-0.012549911,0.0058079856,-0.00014645644,0.00010922845,0.0,-0.0033240924,0.0055315057,-0.022075482,-1.3600338,0.0,0.117230274,0.012549911,0.11997545,0.24863371,0.1004225,0.109998524,inf,inf,inf,inf,0,1,0,1,1,0,1,1,0,0,0
108188670,0,0.0,0.0,0.0,0.0,0.019935993,-5.862651e-07,4.3724148e-07,0.0,-0.015699591,0.015496193,-0.010740046,0.011256649,-0.00014645644,0.00010922845,0.0,-0.022362687,0.0122876,0.026735809,-1.360007,0.0,0.106655866,0.010740046,0.1194662,0.24802132,0.10018519,0.10983742,inf,inf,inf,inf,0,1,0,1,1,0,1,1,0,0,0
108293481,0,0.0,0.0,0.0,0.0,0.021444831,-5.862651e-07,4.3724148e-07,0.0,-0.015338472,0.015803609,-0.011263426,0.010784911,-0.00014645644,0.00010922845,0.0,0.05085126,0.019000068,-0.099235855,-1.3601364,0.0,0.101808965,0.011263426,0.120724104,0.24935704,0.100870065,0.11021812,inf,inf,inf,inf,0,1,0,1,1,0,1,1,0,0,0
108389489,0,0.0,0.0,0.0,0.0,0.0198088,-5.862651e-07,4.3724148e-07,0.0,-0.015610703,0.015402004,-0.013520849,0.005704358,-0.00014645644,0.00010922845,0.0,0.056080446,0.015684424,-0.057627507,-1.3601403,0.0,0.1,0.013520849,0.1196878,0.24815099,0.10036575,0.109882645,inf,inf,inf,inf,0,1,0,1,1,0,1,1,0,0,0
108493501,0,0.0,0.0,0.0,0.0,0.01825526,-5.862651e-07,4.3724148e-07,0.0,-0.015788632,0.014856808,-0.014321816,0.002604813,-0.00014645644,0.00010922845,0.0,-0.038279574,-0.034386884,-0.04049099,-1.3602673,0.0,0.1,0.014321816,0.119252086,0.24759434,0.10017257,0.1097423,inf,inf,inf,inf,0,1,0,1,1,0,1,1,0,0,0
108597471,0,0.0,0.0,0.0,0.0,0.016779926,-5.862651e-07,4.3724148e-07,0.0,-0.015453406,0.014970779,-0.015306102,-0.00022336398,-0.00014645644,0.00010922845,0.0,0.030498164,0.043586135,-0.013114653,-1.3599184,0.0,0.1,0.015306102,0.12227259,0.2489354,0.10175764,0.110123456,inf,inf,inf,inf,0,1,0,1,1,0,1,1,0,0,0
108693483,0,0.0,0.0,0.0,0.0,0.015713649,-5.862651e-07,4.3724148e-07,0.0,-0.015279558,0.014804744,-0.017098082,-0.0031030288,-0.00014645644,0.00010922845,0.0,-0.011672106,-0.09387392,-0.13116877,-1.3600762,0.0,0.1,0.017098082,0.1302299,0.24953349,0.10575649,0.11028893,inf,inf,inf,inf,0,1,0,1,1,0,1,1,0,0,0
108797483,0,0.0,0.0,0.0,0.0,0.015160803,-5.862651e-07,4.3724148e-07,0.0,-0.015457902,0.014476523,-0.019107731,-0.0054408824,-0.00014645644,0.00010922845,0.0,0.65479004,-0.13694428,-0.8993345,-1.3598043,0.0,0.1,0.019107731,0.13938323,0.24889526,0.11013722,0.11011076,inf,inf,inf,inf,0,1,0,1,1,0,1,1,0,0,0
108901470,0,0.0,0.0,0.0,0.0,0.015773334,-5.862651e-07,4.3724148e-07,0.0,-0.018329853,0.013872154,-0.013404467,0.0010976986,-0.00014645644,0.00010922845,0.0,0.82821435,-0.14377595,0.81539935,-1.3597628,0.0,0.1,0.013404467,0.14907333,0.24827878,0.114571184,0.10994387,inf,inf,inf,inf,0,1,0,1,1,0,1,1,0,0,0
108997494,0,0.0,0.0,0.0,0.0,0.012323222,-5.862651e-07,4.3724148e-07,0.0,-0.026702065,0.020949109,-0.058471065,-0.045847144,-0.00014645644,0.00010922845,0.0,-0.39552996,0.8125522,0.6133204,-1.3590906,0.0,0.10163557,0.058471065,0.15850772,0.24890916,0.11871096,0.11012218,inf,inf,inf,inf,0,1,0,1,1,0,1,1,0,0,0
109101471,0,0.0,0.0,0.0,0.0,0.0028597047,-5.862651e-07,4.3724148e-07,0.0,-0.021203281,0.017366989,-0.021555204,-0.014744512,-0.00014645644,0.00010922845,0.0,0.8904386,0.47408327,-0.1209878,-1.3586051,0.0,0.11109909,0.021555204,0.16922516,0.24831393,0.123231575,0.10996448,inf,inf,inf,inf,0,1,0,1,1,0,1,1,0,0,0
109205471,0,0.0,0.0,0.0,0.0,-0.00503455,-5.862651e-07,4.3724148e-07,0.0,-0.024178816,0.025007091,-0.035443615,-0.034148738,-0.00014645644,0.00010922845,0.0,-2.037233,1.7184684,1.4620972,-1.3585647,0.0,0.11899334,0.035443615,0.18047883,0.24773662,0.12793995,0.10981213,inf,inf,inf,inf,0,1,0,1,1,0,1,1,0,0,0
109309471,0,0.0,0.0,0.0,0.0,-0.015754528,-5.862651e-07,4.3724148e-07,0.0,-0.020832967,0.031559914,-0.039472125,-0.044310827,-0.00014645644,0.00010922845,0.0,0.022125227,0.80667037,-0.017998803,-1.3576572,0.0,0.12971333,0.039472125,0.19226493,0.24908379,0.13242337,0.110191554,inf,inf,inf,inf,0,1,0,1,1,0,1,1,0,0,0
109405471,0,0.0,0.0,0.0,0.0,-0.030930607,-5.862651e-07,4.3724148e-07,0.0,-0.019464593,0.023799201,-0.046161592,-0.0617846,-0.00014645644,0.00010922845,0.0,2.1934159,0.01889382,1.497099,-1.3578987,0.0,0.1448894,0.046161592,0.20357929,0.24782726,0.13676952,0.109851375,inf,inf,inf,inf,0,1,0,1,1,0,1,1,0,0,0
109509517,0,0.0,0.0,0.0,0.0,-0.05459808,-5.862651e-07,4.3724148e-07,0.0,-0.0127023915,0.027481448,-0.059024446,-0.0898927,-0.00014645644,0.00010922845,0.0,1.1297624,-1.8997562,-0.5008713,-1.357501,0.0,0.16855687,0.059024446,0.21633953,0.24730408,0.14144915,0.10971639,inf,inf,inf,inf,0,1,0,1,1,0,1,1,0,0,0
109613482,0,0.0,0.0,0.0,0.0,-0.07996366,-5.862651e-07,4.3724148e-07,0.0,-0.008803421,0.030452302,-0.0043301904,-0.05242799,-0.00014645644,0.00010922845,0.0,1.0795091,-0.8561181,-0.51693654,-1.3567718,0.0,0.19392246,0.0043301904,0.22962564,0.24868673,0.14626887,0.11011416,inf,inf,inf,inf,0,1,0,1,1,0,1,1,0,0,0
109709483,0,0.0,0.0,0.0,0.0,-0.09920275,-5.862651e-07,4.3724148e-07,0.0,-0.028884657,0.028888006,-0.05277247,-0.110798664,-0.00014645644,0.00010922845,0.0,-1.855118,-0.090608425,2.1067078,-1.3565559,0.0,0.21316154,0.05277247,0.24230494,0.24746573,0.15064755,0.109784275,inf,inf,inf,inf,0,1,0,1,1,0,1,1,0,0,0
109813470,0,0.0,0.0,0.0,0.0,-0.11247458,-5.862651e-07,4.3724148e-07,0.0,-0.035902217,0.022814509,-0.06083463,-0.119129464,-0.00014645644,0.00010922845,0.0,0.48888958,-0.7207143,0.95737344,-1.3563904,0.0,0.22643337,0.06083463,0.25651523,0.24697189,0.15530717,0.10965963,inf,inf,inf,inf,0,1,0,1,1,0,1,1,0,0,0
109915071,0,0.0,0.0,0.0,0.0,-0.117694,-5.862651e-07,4.3724148e-07,0.0,-0.025069084,0.03677735,-0.06365975,-0.11378272,-0.00014645644,0.00010922845,0.0,0.031764444,1.9143077,1.8669345,-1.3565952,0.0,0.2316528,0.06365975,0.2712752,0.24838258,0.16032825,0.110069014,inf,inf,inf,inf,0,1,0,1,1,0,1,1,0,0,0
110018271,0,0.0,0.0,0.0,0.0,-0.120236,-5.862651e-07,4.3724148e-07,0.0,-0.014873883,0.029587992,-0.08262388,-0.12222778,-0.00014645644,0.00010922845,0.0,1.6881003,-1.3623663,-0.28857556,-1.3561693,0.0,0.23419479,0.08262388,0.28635782,0.24781607,0.1652199,0.10993766,inf,inf,inf,inf,0,1,0,1,1,0,1,1,0,0,0
110114271,0,0.0,0.0,0.0,0.0,-0.12776217,-5.862651e-07,4.3724148e-07,0.0,-0.013909533,0.041719407,-0.12647806,-0.15916866,-0.00014645644,0.00010922845,0.0,-1.1298797,-0.93983,2.8362184,-1.3537047,0.0,0.24172096,0.12647806,0.30053994,0.24651216,0.16968735,0.109609745,inf,inf,inf,inf,0,1,0,1,1,0,1,1,0,0,0
110218271,0,0.0,0.0,0.0,0.0,-0.14245938,-5.862651e-07,4.3724148e-07,0.0,-0.004033234,0.036848884,-0.15688178,-0.18480171,-0.00014645644,0.00010922845,0.0,0.06949113,1.8182001,-0.78967124,-1.3513974,0.0,0.25641817,0.15688178,0.31659916,0.24785507,0.17486161,0.110005334,inf,inf,inf,inf,0,1,0,1,1,0,1,1,0,0,0
110322271,0,0.0,0.0,0.0,0.0,-0.1623555,-5.862651e-07,4.3724148e-07,0.0,0.0082232235,0.035399724,-0.13887534,-0.16790098,-0.00014645644,0.00010922845,0.0,0.69742745,-1.5633527,0.6505264,-1.3489785,0.0,0.2763143,0.13887534,0.33329198,0.24922508,0.180138,0.1103833,inf,inf,inf,inf,0,1,0,1,1,0,1,1,0,0,0
110426277,0,0.0,0.0,0.0,0.0,-0.18620467,-5.862651e-07,4.3724148e-07,0.0,0.023764795,0.042099975,-0.11316,-0.1495973,-0.00014645644,0.00010922845,0.0,1.3938466,2.5836337,-1.6204089,-1.3463593,0.0,0.30016345,0.11316,0.35037464,0.24864002,0.18519454,0.110213384,inf,inf,inf,inf,0,1,0,1,1,0,1,1,0,0,0
110522270,0,0.0,0.0,0.0,0.0,-0.20692511,-5.862651e-07,4.3724148e-07,0.0,0.03054039,0.03610524,-0.045907944,-0.09165836,-0.00014645644,0.00010922845,0.0,-0.14631729,1.4144427,0.22461113,-1.3445448,0.0,0.3208839,0.045907944,0.3666117,0.24929701,0.18977465,0.11039055,inf,inf,inf,inf,0,1,0,1,1,0,1,1,0,0,0
110626314,0,0.0,0.0,0.0,0.0,-0.2217592,-5.862651e-07,4.3724148e-07,0.0,0.031686477,0.033032466,-0.026588941,-0.07766338,-0.00014645644,0.00010922845,0.0,-0.57142633,-2.3860273,2.3941197,-1.3422713,0.0,0.33571798,0.026588941,0.38454992,0.24874109,0.19457705,0.11023216,inf,inf,inf,inf,0,1,0,1,1,0,1,1,0,0,0
110730281,0,0.0,0.0,0.0,0.0,-0.23088169,-5.862651e-07,4.3724148e-07,0.0,0.053733725,0.043972477,-0.026570272,-0.07764057,-0.00014645644,0.00010922845,0.0,-0.07160731,0.84535366,-0.6592264,-1.3428712,0.0,0.34484047,0.026570272,0.40287247,0.24818875,0.19941318,0.110077426,inf,inf,inf,inf,0,1,0,1,1,0,1,1,0,0,0
110826271,0,0.0,0.0,0.0,0.0,-0.24221627,-5.862651e-07,4.3724148e-07,0.0,0.062674195,0.04843739,-0.03442522,-0.088271946,-0.00014645644,0.00010922845,0.0,-2.012212,0.797511,1.4453604,-1.3434749,0.0,0.35617507,0.03442522,0.42026088,0.24888177,0.20416115,0.110271506,inf,inf,inf,inf,0,1,0,1,1,0,1,1,0,0,0
110930295,0,0.0,0.0,0.0,0.0,-0.2525282,-5.862651e-07,4.3724148e-07,0.0,0.07846718,0.037734162,-0.014933879,-0.06915655,-0.00014645644,0.00010922845,0.0,0.59550375,-1.3992659,0.35373324,-1.3436521,0.0,0.36648697,0.014933879,0.43937296,0.24835412,0.20921521,0.11012643,inf,inf,inf,inf,0,1,0,1,1,0,1,1,0,0,0
111034271,0,0.0,0.0,0.0,0.0,-0.25332183,-5.862651e-07,4.3724148e-07,0.0,0.09897738,0.045642618,-0.020042645,-0.06701351,-0.00014645644,0.00010922845,0.0,0.15149069,-1.4283922,1.0701661,-1.3444585,0.0,0.3672806,0.020042645,0.458865,0.24781424,0.21430555,0.10997527,inf,inf,inf,inf,0,1,0,1,1,0,1,1,0,0,0
111130277,0,0.0,0.0,0.0,0.0,-0.25217572,-5.862651e-07,4.3724148e-07,0.0,0.094809696,0.040522553,-0.005077891,-0.044747256,-0.00014645644,0.00010922845,0.0,-2.2334611,-2.711639,2.9224405,-1.3461523,0.0,0.36613452,0.005077891,0.47735137,0.24852082,0.21900588,0.11017398,inf,inf,inf,inf,0,1,0,1,1,0,1,1,0,0,0
111234281,0,0.0,0.0,0.0,0.0,-0.25249436,-5.862651e-07,4.3724148e-07,0.0,0.06743292,0.046390016,-0.08770687,-0.11552478,-0.00014645644,0.00010922845,0.0,0.39062306,1.265824,-0.9547154,-1.3470153,0.0,0.36645317,0.08770687,0.4975461,0.24802111,0.22411864,0.110042036,inf,inf,inf,inf,0,1,0,1,1,0,1,1,0,0,0
111338314,0,0.0,0.0,0.0,0.0,-0.24331014,-5.862651e-07,4.3724148e-07,0.0,0.0436411,0.044829257,-0.06041747,-0.068201445,-0.00014645644,0.00010922845,0.0,1.0291151,-0.16720177,0.831754,-1.3463421,0.0,0.35726893,0.06041747,0.5180745,0.24754068,0.2295175,0.10990979,inf,inf,inf,inf,0,1,0,1,1,0,1,1,0,0,0
111434287,0,0.0,0.0,0.0,0.0,-0.2421118,-5.862651e-07,4.3724148e-07,0.0,0.009413288,0.046739936,-0.09250087,-0.09119507,-0.00014645644,0.00010922845,0.0,-0.9920419,-0.21798125,1.7713492,-1.3455698,0.0,0.35607058,0.09250087,0.53756475,0.24827828,0.23429458,0.110120304,inf,inf,inf,inf,0,1,0,1,1,0,1,1,0,0,0
111539077,0,0.0,0.0,0.0,0.0,-0.23702423,-5.862651e-07,4.3724148e-07,0.0,0.007972853,0.035479367,-0.20248595,-0.1812013,-0.00014645644,0.00010922845,0.0,-1.0708331,-3.1733525,0.87227297,-1.3430359,0.0,0.35098302,0.20248595,0.5588841,0.24787812,0.23938036,0.11000513,inf,inf,inf,inf,0,1,0,1,1,0,1,1,0,0,0
111643086,0,0.0,0.0,0.0,0.0,-0.24697839,-5.862651e-07,4.3724148e-07,0.0,0.023212317,0.040079843,-0.2867085,-0.25244164,-0.00014645644,0.00010922845,0.0,0.50086063,-1.4523144,-2.4915032,-1.3416104,0.0,0.36093718,0.2867085,0.58012664,0.2473516,0.2446584,0.109878376,inf,inf,inf,inf,0,1,0,1,1,0,1,1,0,0,0
111739070,0,0.0,0.0,0.0,0.0,-0.27291274,-5.862651e-07,4.3724148e-07,0.0,0.042624567,0.043296423,-0.35009217,-0.31576112,-0.00014645644,0.00010922845,0.0,1.5382898,1.1314719,-3.8344867,-1.3421017,0.0,0.38687152,0.35009217,0.6006342,0.24814144,0.2500273,0.11008961,inf,inf,inf,inf,0,1,0,1,1,0,1,1,0,0,0
111843078,0,0.0,0.0,0.0,0.0,-0.31050345,-5.862651e-07,4.3724148e-07,0.0,0.058239967,0.057165004,-0.353024,-0.3245941,-0.00014645644,0.00010922845,0.0,1.2724386,0.8925978,-3.8731506,-1.3422767,0.0,0.42446226,0.353024,0.6231455,0.24949111,0.25550577,0.11045303,inf,inf,inf,inf,0,1,0,1,1,0,1,1,0,0,0
111947071,0,0.0,0.0,0.0,0.0,-0.3487556,-5.862651e-07,4.3724148e-07,0.0,0.0714524,0.06145446,-0.24176432,-0.22349356,-0.00014645644,0.00010922845,0.0,-0.94113123,1.8700681,-1.341251,-1.3444632,0.0,0.46271437,0.24176432,0.64529663,0.24888885,0.2606558,0.110268936,inf,inf,inf,inf,0,1,0,1,1,0,1,1,0,0,0
112043071,0,0.0,0.0,0.0,0.0,-0.36901468,-5.862651e-07,4.3724148e-07,0.0,0.085672334,0.062621966,-0.077435926,-0.06721815,-0.00014645644,0.00010922845,0.0,-0.15492189,-2.1437292,0.3269799,-1.347332,0.0,0.48297346,0.077435926,0.6662901,0.24946032,0.265042,0.110403195,inf,inf,inf,inf,0,1,0,1,1,0,1,1,0,0,0
112147090,0,0.0,0.0,0.0,0.0,-0.37836647,-5.862651e-07,4.3724148e-07,0.0,0.11046942,0.08138659,-0.019217785,-0.015711702,-0.00014645644,0.00010922845,0.0,1.48217,1.5744152,-0.20264198,-1.3503885,0.0,0.49232525,0.019217785,0.6894531,0.250753,0.2691311,0.11074053,inf,inf,inf,inf,0,1,0,1,1,0,1,1,0,0,0
112251078,0,0.0,0.0,0.0,0.0,-0.38950852,-5.862651e-07,4.3724148e-07,0.0,0.11780522,0.08813008,-0.020855825,-0.026849965,-0.00014645644,0.00010922845,0.0,0.08665229,-0.37164617,0.4292268,-1.352632,0.0,0.5034673,0.020855825,0.7118541,0.25010228,0.27300143,0.1105398,inf,inf,inf,inf,0,1,0,1,1,0,1,1,0,0,0
112347075,0,0.0,0.0,0.0,0.0,-0.4002359,-5.862651e-07,4.3724148e-07,0.0,0.13688396,0.091435015,-0.0073513393,-0.021269191,-0.00014645644,0.00010922845,0.0,-0.13108543,-0.4806811,-0.11009161,-1.35471,0.0,0.51419467,0.0073513393,0.7321118,0.24876297,0.2769095,0.11015288,inf,inf,inf,inf,0,1,0,1,1,0,1,1,0,0,0
112451070,0,0.0,0.0,0.0,0.0,-0.4138205,-5.862651e-07,4.3724148e-07,0.0,0.15138085,0.10016053,0.0142137585,-0.011823539,-0.00014645644,0.00010922845,0.0,1.0303816,-2.5374515,1.0921742,-1.3555576,0.0,0.5277793,-0.0142137585,0.7555024,0.25007793,0.28171146,0.11050549,inf,inf,inf,inf,0,1,0,1,1,0,1,1,0,0,0
112555070,0,0.0,0.0,0.0,0.0,-0.43083116,-5.862651e-07,4.3724148e-07,0.0,0.15326366,0.11270691,-0.11066779,-0.1461294,-0.00014645644,0.00010922845,0.0,-0.04025813,-1.9379855,-1.132407,-1.3548884,0.0,0.54478997,0.11066779,0.77784276,0.24946046,0.28594074,0.11032346,inf,inf,inf,inf,0,1,0,1,1,0,1,1,0,0,0
112659120,0,0.0,0.0,0.0,0.0,-0.453809,-5.862651e-07,4.3724148e-07,0.0,0.1613745,0.11892295,-0.20682634,-0.2424529,-0.00014645644,0.00010922845,0.0,1.2834413,-0.08606176,1.0034599,-1.3540524,0.0,0.5677678,0.20682634,0.80007535,0.24885152,0.29023594,0.11014425,inf,inf,inf,inf,0,1,0,1,1,0,1,1,0,0,0
112755071,0,0.0,0.0,0.0,0.0,-0.47358394,-5.862651e-07,4.3724148e-07,0.0,0.16851178,0.12603049,-0.19884263,-0.23030514,-0.00014645644,0.00010922845,0.0,-0.13874617,1.2157817,1.0835434,-1.3533869,0.0,0.5875427,0.19884263,0.8213419,0.24947561,0.2950685,0.11031066,inf,inf,inf,inf,0,1,0,1,1,0,1,1,0,0,0
112859871,0,0.0,0.0,0.0,0.0,-0.49004984,-5.862651e-07,4.3724148e-07,0.0,0.18604526,0.13022918,-0.17003183,-0.19514276,-0.00014645644,0.00010922845,0.0,2.0622458,-1.7664042,-1.4672465,-1.3533435,0.0,0.6040086,0.17003183,0.84341,0.24887033,0.29938674,0.11013605,inf,inf,inf,inf,0,1,0,1,1,0,1,1,0,0,0
112963082,0,0.0,0.0,0.0,0.0,-0.49570096,-5.862651e-07,4.3724148e-07,0.0,0.18568256,0.14128064,-0.13831423,-0.15004174,-0.00014645644,0.00010922845,0.0,-1.169959,-1.6085932,3.1460598,-1.3541505,0.0,0.60965973,0.13831423,0.865479,0.24833852,0.30316848,0.10996822,inf,inf,inf,inf,0,1,0,1,1,0,1,1,0,0,0
113059075,0,0.0,0.0,0.0,0.0,-0.49144158,-5.862651e-07,4.3724148e-07,0.0,0.20946263,0.15412533,-0.11145578,-0.10495593,-0.00014645644,0.00010922845,0.0,0.33124802,0.27588642,0.8038259,-1.3547611,0.0,0.6054004,0.11145578,0.8862321,0.2489142,0.30671424,0.110139735,inf,inf,inf,inf,0,1,0,1,1,0,1,1,0,0,0
113163883,0,0.0,0.0,0.0,0.0,-0.47871178,-5.862651e-07,4.3724148e-07,0.0,0.22723746,0.15956986,-0.077198096,-0.049648087,-0.00014645644,0.00010922845,0.0,1.103163,-2.2706041,0.11162443,-1.3568428,0.0,0.59267056,0.077198096,0.90759945,0.24835543,0.31024674,0.109985694,inf,inf,inf,inf,0,1,0,1,1,0,1,1,0,0,0
113267871,0,0.0,0.0,0.0,0.0,-0.4648009,-5.862651e-07,4.3724148e-07,0.0,0.23699528,0.17056257,-0.05774524,-0.013401389,-0.00014645644,0.00010922845,0.0,0.5904966,2.8559048,-0.23910712,-1.3590125,0.0,0.5787597,0.05774524,0.9285746,0.24779151,0.31344485,0.10983176,inf,inf,inf,inf,0,1,0,1,1,0,1,1,0,0,0
113371886,0,0.0,0.0,0.0,0.0,-0.45306668,-5.862651e-07,4.3724148e-07,0.0,0.24452206,0.16571088,-0.05075286,0.004523062,-0.00014645644,0.00010922845,0.0,0.8730902,0.121496655,-0.55260223,-1.3606411,0.0,0.5670255,0.05075286,0.9515399,0.24922119,0.31728882,0.11022147,inf,inf,inf,inf,0,1,0,1,1,0,1,1,0,0,0
113467874,0,0.0,0.0,0.0,0.0,-0.44246545,-5.862651e-07,4.3724148e-07,0.0,0.29347828,0.15730493,-0.056312986,0.00776709,-0.00014645644,0.00010922845,0.0,3.4441602,-0.6908829,-3.108104,-1.3619195,0.0,0.55642426,0.056312986,0.9693925,0.24795964,0.3198622,0.10987274,inf,inf,inf,inf,0,1,0,1,1,0,1,1,0,0,0
113571871,0,0.0,0.0,0.0,0.0,-0.43373072,-5.862651e-07,4.3724148e-07,0.0,0.37993413,0.13846883,-0.043628246,0.026075983,-0.00014645644,0.00010922845,0.0,2.097271,-2.2412944,-2.1856203,-1.3635808,0.0,0.5476895,0.043628246,0.9892039,0.24742715,0.32284614,0.10973174,inf,inf,inf,inf,0,1,0,1,1,0,1,1,0,0,0
113675878,0,0.0,0.0,0.0,0.0,-0.4229776,-5.862651e-07,4.3724148e-07,0.0,0.53491956,0.10575501,-0.04876848,0.026908703,-0.00014645644,0.00010922845,0.0,0.43143427,0.0442909,-1.2129928,-1.3646716,0.0,0.5369364,0.04876848,1.011083,0.24878873,0.32648122,0.11011772,inf,inf,inf,inf,0,1,0,1,1,0,1,1,0,0,0
113771871,0,0.0,0.0,0.0,0.0,-0.41318834,-5.862651e-07,4.3724148e-07,0.0,0.7458106,0.06858248,-0.07854339,0.0044451803,-0.00014645644,0.00010922845,0.0,1.3945873,-1.5887119,-1.3595179,-1.3654677,0.0,0.5271471,0.07854339,1.0301592,0.24938858,0.32927802,0.110263795,inf,inf,inf,inf,0,1,0,1,1,0,1,1,0,0,0
113875877,0,0.0,0.0,0.0,0.0,-0.40473893,-5.862651e-07,4.3724148e-07,0.0,0.9364144,0.029511886,-0.05768278,0.031676143,-0.00014645644,0.00010922845,0.0,1.1954814,-2.2431538,3.895248,-1.3655877,0.0,0.51869774,0.05768278,1.051323,0.25061226,0.33281344,0.11055862,inf,inf,inf,inf,0,1,0,1,1,0,1,1,0,0,0
113979871,0,0.0,0.0,0.0,0.0,-0.39076436,-5.862651e-07,4.3724148e-07,0.0,1.0782905,0.014877008,0.012110596,0.105923526,-0.00014645644,0.00010922845,0.0,-1.3481047,0.76784635,0.69624215,-1.3587842,0.0,0.50472313,-0.012110596,1.0721332,0.25177348,0.33622205,0.110820614,inf,inf,inf,inf,0,1,0,1,1,0,1,1,0,0,0
114075871,0,0.0,0.0,0.0,0.0,-0.372267,-5.862651e-07,4.3724148e-07,0.0,1.1473392,-0.0045531103,0.037647776,0.13717532,-0.00014645644,0.00010922845,0.0,-0.078333065,-1.9921281,1.636295,-1.358966,0.0,0.48622578,-0.037647776,1.0900506,0.2522199,0.3384044,0.11088123,inf,inf,inf,inf,0,1,0,1,1,0,1,1,0,0,0
114179879,0,0.0,0.0,0.0,0.0,-0.35082182,-5.862651e-07,4.3724148e-07,0.0,1.1672804,-0.0031699701,0.018125799,0.12305666,-0.00014645644,0.00010922845,0.0,-0.44504842,-0.13659623,0.49602827,-1.3600616,0.0,0.46478063,-0.018125799,1.1067559,0.25138724,0.3402508,0.11063843,inf,inf,inf,inf,0,1,0,1,1,0,1,1,0,0,0
114283886,0,0.0,0.0,0.0,0.0,-0.33456445,-5.862651e-07,4.3724148e-07,0.0,1.1745833,-0.0060550603,-0.028094793,0.08091882,-0.00014645644,0.00010922845,0.0,0.41126078,-2.188527,0.8297841,-1.3605616,0.0,0.44852322,0.028094793,1.1263415,0.25256443,0.34291828,0.11095108,inf,inf,inf,inf,0,1,0,1,1,0,1,1,0,0,0
114387879,0,0.0,0.0,0.0,0.0,-0.32152945,-5.862651e-07,4.3724148e-07,0.0,1.1751401,0.008917846,-0.036455996,0.07641445,-0.00014645644,0.00010922845,0.0,0.28914604,-3.1258779,1.2953404,-1.3611244,0.0,0.43548822,0.036455996,1.1417798,0.25170046,0.34481615,0.11068499,inf,inf,inf,inf,0,1,0,1,1,0,1,1,0,0,0
114491871,0,0.0,0.0,0.0,0.0,-0.30670607,-5.862651e-07,4.3724148e-07,0.0,1.1202704,0.07364044,-0.024299758,0.09315987,-0.00014645644,0.00010922845,0.0,-0.3933834,-1.9119718,-0.6052849,-1.3633964,0.0,0.42066485,0.024299758,1.1565195,0.25084355,0.3465587,0.11042139,inf,inf,inf,inf,0,1,0,1,1,0,1,1,0,0,0
114587871,0,0.0,0.0,0.0,0.0,-0.29756236,-5.862651e-07,4.3724148e-07,0.0,1.0516788,0.17225796,-0.12309107,-0.0030003327,-0.00014645644,0.00010922845,0.0,-0.88443804,1.7670486,-1.6652336,-1.3672779,0.0,0.41152114,0.12309107,1.1720306,0.2513081,0.3484398,0.110534936,inf,inf,inf,inf,0,1,0,1,1,0,1,1,0,0,0
114691117,0,0.0,0.0,0.0,0.0,-0.293274,-5.862651e-07,4.3724148e-07,0.0,0.92175764,0.3270229,-0.1271846,-0.003680755,-0.00014645644,0.00010922845,0.0,-1.0379194,2.8508754,-2.9940567,-1.3696239,0.0,0.40723276,0.1271846,1.1856148,0.25053394,0.3496521,0.11029988,inf,inf,inf,inf,0,1,0,1,1,0,1,1,0,0,0
114796671,0,0.0,0.0,0.0,0.0,-0.2889202,-5.862651e-07,4.3724148e-07,0.0,0.7675419,0.51425844,-0.08307831,0.040742233,-0.00014645644,0.00010922845,0.0,0.3191586,1.289924,-3.717572,-1.370386,0.0,0.402879,0.08307831,1.1985749,0.24979916,0.3512966,0.110047676,inf,inf,inf,inf,0,1,0,1,1,0,1,1,0,0,0
114892686,0,0.0,0.0,0.0,0.0,-0.29365426,-5.862651e-07,4.3724148e-07,0.0,0.6732195,0.63841003,-0.04728799,0.06451128,-0.00014645644,0.00010922845,0.0,1.5975001,-1.5689077,2.035089,-1.3646437,0.0,0.40761304,0.04728799,1.21295,0.25041875,0.35273528,0.11015363,inf,inf,inf,inf,0,1,0,1,1,0,1,1,0,0,0
114996671,0,0.0,0.0,0.0,0.0,-0.2999673,-5.862651e-07,4.3724148e-07,0.0,0.58770055,0.75350714,-0.009694709,0.08658274,-0.00014645644,0.00010922845,0.0,0.9771914,-1.3081572,-0.6353297,-1.358599,0.0,0.41392606,0.009694709,1.2246023,0.24968189,0.35320672,0.109888665,inf,inf,inf,inf,0,1,0,1,1,0,1,1,0,0,0
115100677,0,0.0,0.0,0.0,0.0,-0.3002673,-5.862651e-07,4.3724148e-07,0.0,0.5558884,0.8138534,0.024657661,0.10864538,-0.00014645644,0.00010922845,0.0,-0.94224995,4.130433,-0.7100607,-1.3591783,0.0,0.4142261,-0.024657661,1.2401881,0.2508536,0.35489246,0.110176265,inf,inf,inf,inf,0,1,0,1,1,0,1,1,0,0,0
115196692,0,0.0,0.0,0.0,0.0,-0.29262856,-5.862651e-07,4.3724148e-07,0.0,0.54153407,0.8209973,0.009219159,0.0909559,-0.00014645644,0.00010922845,0.0,-0.93781203,-3.1796691,1.2075841,-1.3608546,0.0,0.40658736,-0.009219159,1.2525946,0.25128937,0.35573068,0.11029183,inf,inf,inf,inf,0,1,0,1,1,0,1,1,0,0,0
115300670,0,0.0,0.0,0.0,0.0,-0.28511956,-5.862651e-07,4.3724148e-07,0.0,0.5325637,0.8161952,0.0012246417,0.08109437,-0.00014645644,0.00010922845,0.0,-1.0611185,-1.2556882,3.4170232,-1.3618305,0.0,0.39907837,-0.0012246417,1.2670251,0.25234833,0.35730076,0.11057168,inf,inf,inf,inf,0,1,0,1,1,0,1,1,0,0,0
115404676,0,0.0,0.0,0.0,0.0,-0.27827597,-5.862651e-07,4.3724148e-07,0.0,0.52596736,0.80677694,-0.025856497,0.05374756,-0.00014645644,0.00010922845,0.0,-0.5576082,-2.6148548,0.19085921,-1.3618982,0.0,0.39223474,0.025856497,1.281009,0.2534015,0.35891396,0.110847555,inf,inf,inf,inf,0,1,0,1,1,0,1,1,0,0,0
115500671,0,0.0,0.0,0.0,0.0,-0.27386373,-5.862651e-07,4.3724148e-07,0.0,0.53773427,0.7976484,-0.030543871,0.048199013,-0.00014645644,0.00010922845,0.0,2.7319105,0.07689397,-2.7537394,-1.3577971,0.0,0.3878225,0.030543871,1.2918714,0.2537482,0.35992953,0.11093033,inf,inf,inf,inf,0,1,0,1,1,0,1,1,0,0,0
115604677,0,0.0,0.0,0.0,0.0,-0.26602602,-5.862651e-07,4.3724148e-07,0.0,0.5252801,0.78564453,-0.007995175,0.07122347,-0.00014645644,0.00010922845,0.0,0.91454,-1.4136256,-1.1909255,-1.3380207,0.0,0.3799848,0.007995175,1.2993928,0.25272617,0.36000305,0.11062623,inf,inf,inf,inf,0,1,0,1,1,0,1,1,0,0,0
115708675,0,0.0,0.0,0.0,0.0,-0.2557972,-5.862651e-07,4.3724148e-07,0.0,0.50976217,0.77786595,-0.030799853,0.05114994,-0.00014645644,0.00010922845,0.0,0.88792425,1.7848046,-2.7767117,-1.3034661,0.0,0.36975598,0.030799853,1.311884,0.25374687,0.36121503,0.11089333,inf,inf,inf,inf,0,1,0,1,1,0,1,1,0,0,0
115812723,0,0.0,0.0,0.0,0.0,-0.24832256,-5.862651e-07,4.3724148e-07,0.0,0.50598055,0.75360334,-0.06518922,0.019192647,-0.00014645644,0.00010922845,0.0,0.66973585,2.0721562,-1.3233892,-1.2730919,0.0,0.36228135,0.06518922,1.3182876,0.25277755,0.36101493,0.11061682,inf,inf,inf,inf,0,1,0,1,1,0,1,1,0,0,0
115908699,0,0.0,0.0,0.0,0.0,-0.24716565,-5.862651e-07,4.3724148e-07,0.0,0.49317425,0.7495245,-0.05521718,0.02789001,-0.00014645644,0.00010922845,0.0,-1.8627374,-0.3411647,2.4790993,-1.246592,0.0,0.36112446,0.05521718,1.3214746,0.2511563,0.36047068,0.11017133,inf,inf,inf,inf,0,1,0,1,1,0,1,1,0,0,0
116012671,0,0.0,0.0,0.0,0.0,-0.24747874,-5.862651e-07,4.3724148e-07,0.0,0.48557195,0.7430458,-0.05986392,0.019256443,-0.00014645644,0.00010922845,0.0,-0.6176196,1.5672761,-0.8012571,-1.2334746,0.0,0.36143753,0.05986392,1.3326143,0.25221905,0.3619001,0.11046614,inf,inf,inf,inf,0,1,0,1,1,0,1,1,0,0,0
116116671,0,0.0,0.0,0.0,0.0,-0.24886084,-5.862651e-07,4.3724148e-07,0.0,0.47843352,0.72832185,-0.06409349,0.011467783,-0.00014645644,0.00010922845,0.0,1.1945906,-1.0145656,-1.376057,-1.2281034,0.0,0.3628196,0.06409349,1.3433032,0.25325212,0.3628472,0.11074662,inf,inf,inf,inf,0,1,0,1,1,0,1,1,0,0,0
116211917,0,0.0,0.0,0.0,0.0,-0.25188404,-5.862651e-07,4.3724148e-07,0.0,0.4629396,0.7129887,-0.049299598,0.020855054,-0.00014645644,0.00010922845,0.0,0.806443,-3.2288692,1.3920486,-1.2265811,0.0,0.36584282,0.049299598,1.3448657,0.2515911,0.3621274,0.1102896,inf,inf,inf,inf,0,1,0,1,1,0,1,1,0,0,0
116421471,0,0.0,0.0,0.0,0.0,-0.26578256,-5.862651e-07,4.3724148e-07,0.0,0.43369532,0.68230635,-0.063778564,-0.00870751,-0.00014645644,0.00010922845,0.0,0.36602902,1.3796382,0.36347184,-1.1714927,0.0,0.37974137,0.063778564,1.3582754,0.25180814,0.36292207,0.11037761,inf,inf,inf,inf,0,1,0,1,1,0,1,1,0,0,0
116725471,0,0.0,0.0,0.0,0.0,-0.26843962,-5.862651e-07,4.3724148e-07,0.0,0.3931234,0.6260051,0.028824156,0.07267045,-0.00014645644,0.00010922845,0.0,0.58391976,-2.467129,3.0780578,-1.1485507,0.0,0.38239843,-0.028824156,1.3700011,0.25063905,0.36312366,0.110104755,inf,inf,inf,inf,0,1,0,1,1,0,1,1,0,0,0
116829496,0,0.0,0.0,0.0,0.0,-0.26850542,-5.862651e-07,4.3724148e-07,0.0,0.38546827,0.6096063,-0.0060848,0.031166593,-0.00014645644,0.00010922845,0.0,1.3292137,-1.1269945,-0.8373067,-1.1805357,0.0,0.38246423,0.0060848,1.3781941,0.25175458,0.36431515,0.11042891,inf,inf,inf,inf,0,1,0,1,1,0,1,1,0,0,0
116925483,0,0.0,0.0,0.0,0.0,-0.28034228,-5.862651e-07,4.3724148e-07,0.0,0.38221547,0.6112809,-0.10114164,-0.073979504,-0.00014645644,0.00010922845,0.0,1.1422237,2.0183523,-1.2558104,-1.2457335,0.0,0.39430106,0.10114164,1.376971,0.25022092,0.36357737,0.1100248,inf,inf,inf,inf,0,1,0,1,1,0,1,1,0,0,0
117029483,0,0.0,0.0,0.0,0.0,-0.30399337,-5.862651e-07,4.3724148e-07,0.0,0.36826608,0.5822567,-0.15047057,-0.13560623,-0.00014645644,0.00010922845,0.0,1.3229222,0.76357037,-0.3551075,-1.3414128,0.0,0.41795218,0.15047057,1.384676,0.25138235,0.36546266,0.110370465,inf,inf,inf,inf,0,1,0,1,1,0,1,1,0,0,0
117133513,0,0.0,0.0,0.0,0.0,-0.3236701,-5.862651e-07,4.3724148e-07,0.0,0.3592918,0.5500527,-0.12290191,-0.11343611,-0.00014645644,0.00010922845,0.0,0.76997626,-2.1673324,-1.1321398,-1.4429356,0.0,0.43762887,0.12290191,1.3855624,0.25058877,0.36590114,0.11018073,inf,inf,inf,inf,0,1,0,1,1,0,1,1,0,0,0
117229478,0,0.0,0.0,0.0,0.0,-0.33847883,-5.862651e-07,4.3724148e-07,0.0,0.3400343,0.54364055,-0.112750776,-0.107681595,-0.00014645644,0.00010922845,0.0,-0.589125,0.87366766,0.5952623,-1.5395432,0.0,0.45243764,0.112750776,1.3836286,0.24914311,0.36501846,0.109814,inf,inf,inf,inf,0,1,0,1,1,0,1,1,0,0,0
117333488,0,0.0,0.0,0.0,0.0,-0.36054656,-5.862651e-07,4.3724148e-07,0.0,0.31311268,0.5082282,-0.21382628,-0.21343338,-0.00014645644,0.00010922845,0.0,-1.1809285,-0.094825506,-2.2948573,-1.6613839,0.0,0.47450536,0.21382628,1.3840872,0.24843568,0.3639336,0.10965777,inf,inf,inf,inf,0,1,0,1,1,0,1,1,0,0,0
117437480,0,0.0,0.0,0.0,0.0,-0.38880417,-5.862651e-07,4.3724148e-07,0.0,0.2989686,0.48784524,-0.16539083,-0.17225598,-0.00014645644,0.00010922845,0.0,2.7399592,1.7627908,-1.1242812,-1.7642425,0.0,0.502763,0.16539083,1.3910363,0.24970332,0.36444223,0.11004713,inf,inf,inf,inf,0,1,0,1,1,0,1,1,0,0,0
117541477,0,0.0,0.0,0.0,0.0,-0.40917444,-5.862651e-07,4.3724148e-07,0.0,0.2714366,0.45798495,-0.08605886,-0.099482074,-0.00014645644,0.00010922845,0.0,0.2751037,2.0035145,1.9988563,-1.8609388,0.0,0.5231332,0.08605886,1.3910577,0.24904054,0.3634603,0.10991218,inf,inf,inf,inf,0,1,0,1,1,0,1,1,0,0,0
117637471,0,0.0,0.0,0.0,0.0,-0.42441282,-5.862651e-07,4.3724148e-07,0.0,0.24412219,0.4130586,-0.08034843,-0.09884487,-0.00014645644,0.00010922845,0.0,-0.6794126,-2.5315888,-1.2939955,-1.9480301,0.0,0.5383716,0.08034843,1.3882983,0.24772312,0.36119792,0.1095902,inf,inf,inf,inf,0,1,0,1,1,0,1,1,0,0,0
117741470,0,0.0,0.0,0.0,0.0,-0.44019994,-5.862651e-07,4.3724148e-07,0.0,0.22195475,0.38430744,-0.08251923,-0.10569662,-0.00014645644,0.00010922845,0.0,0.7144702,1.9579778,-1.9974815,-2.03764,0.0,0.55415875,0.08251923,1.3946166,0.24903928,0.36110446,0.11000099,inf,inf,inf,inf,0,1,0,1,1,0,1,1,0,0,0
117845471,0,0.0,0.0,0.0,0.0,-0.45534125,-5.862651e-07,4.3724148e-07,0.0,0.20623182,0.35370514,-0.0720232,-0.09838361,-0.00014645644,0.00010922845,0.0,-0.79503036,1.1059498,3.0210776,-2.1281395,0.0,0.56930006,0.0720232,1.3939933,0.24846385,0.36026442,0.10989195,inf,inf,inf,inf,0,1,0,1,1,0,1,1,0,0,0
117940717,0,0.0,0.0,0.0,0.0,-0.46571696,-5.862651e-07,4.3724148e-07,0.0,0.18761972,0.31528875,-0.08438002,-0.11072228,-0.00014645644,0.00010922845,0.0,0.5690527,1.43097,0.29288206,-2.2160773,0.0,0.57967573,0.08438002,1.3906435,0.24721807,0.35975912,0.10960187,inf,inf,inf,inf,0,1,0,1,1,0,1,1,0,0,0
118046271,0,0.0,0.0,0.0,0.0,-0.48130423,-5.862651e-07,4.3724148e-07,0.0,0.16255885,0.27196395,-0.122260496,-0.1508333,-0.00014645644,0.00010922845,0.0,-2.2190938,-1.608735,-1.1598198,-2.3264003,0.0,0.595263,0.122260496,1.3964292,0.24858715,0.3618409,0.1100282,inf,inf,inf,inf,0,1,0,1,1,0,1,1,0,0,0
118149525,0,0.0,0.0,0.0,0.0,-0.49967736,-5.862651e-07,4.3724148e-07,0.0,0.14283101,0.23985167,-0.17233227,-0.19978453,-0.00014645644,0.00010922845,0.0,-0.4211072,0.5458228,0.79741824,-2.4347894,0.0,0.61363614,0.17233227,1.3952882,0.2480633,0.36413315,0.10993416,inf,inf,inf,inf,0,1,0,1,1,0,1,1,0,0,0
118246275,0,0.0,0.0,0.0,0.0,-0.5214985,-5.862651e-07,4.3724148e-07,0.0,0.1311749,0.20572317,-0.18986256,-0.21850571,-0.00014645644,0.00010922845,0.0,2.6130214,-0.11811169,-4.9114146,-2.5346813,0.0,0.6354573,0.18986256,1.3917779,0.24692754,0.3676731,0.10966676,inf,inf,inf,inf,0,1,0,1,1,0,1,1,0,0,0
118350271,0,0.0,0.0,0.0,0.0,-0.5469945,-5.862651e-07,4.3724148e-07,0.0,0.10409221,0.16842191,-0.17730412,-0.20920023,-0.00014645644,0.00010922845,0.0,2.401234,0.2511367,-2.0680213,-2.6542063,0.0,0.6609533,0.17730412,1.3904976,0.2464365,0.3737864,0.10958429,inf,inf,inf,inf,0,1,0,1,1,0,1,1,0,0,0
118454271,0,0.0,0.0,0.0,0.0,-0.573249,-5.862651e-07,4.3724148e-07,0.0,0.07370112,0.12914163,-0.17675993,-0.21255928,-0.00014645644,0.00010922845,0.0,1.5611908,0.49895272,-1.6691351,-2.7700636,0.0,0.68720776,0.17675993,1.3959544,0.24783888,0.38307,0.110025845,inf,inf,inf,inf,0,1,0,1,1,0,1,1,0,0,0
118550274,0,0.0,0.0,0.0,0.0,-0.5964783,-5.862651e-07,4.3724148e-07,0.0,0.035587147,0.08756705,-0.15647338,-0.19464882,-0.00014645644,0.00010922845,0.0,-3.2277641,-0.78215545,3.2782435,-2.870289,0.0,0.71043706,0.15647338,1.398819,0.24850354,0.3932515,0.11024353,inf,inf,inf,inf,0,1,0,1,1,0,1,1,0,0,0
118654308,0,0.0,0.0,0.0,0.0,-0.6217459,-5.862651e-07,4.3724148e-07,0.0,0.012715637,0.039053027,-0.16344659,-0.20526396,-0.00014645644,0.00010922845,0.0,1.108488,0.12235487,2.0175033,-2.9873905,0.0,0.73570466,0.16344659,1.4042434,0.24983361,0.40747574,0.1106639,inf,inf,inf,inf,0,1,0,1,1,0,1,1,0,0,0
118758274,0,0.0,0.0,0.0,0.0,-0.6501201,-5.862651e-07,4.3724148e-07,0.0,-0.024179583,-0.013923243,-0.22641246,-0.27072763,-0.00014645644,0.00010922845,0.0,-1.2603023,-1.8280408,-0.5676738,-3.1112523,0.0,0.76407886,0.22641246,1.4029974,0.24923977,0.42296425,0.110536486,inf,inf,inf,inf,0,1,0,1,1,0,1,1,0,0,0
118854271,0,0.0,0.0,0.0,0.0,-0.6767543,-5.862651e-07,4.3724148e-07,0.0,-0.04813499,-0.060138132,-0.22458792,-0.26805294,-0.00014645644,0.00010922845,0.0,0.40871662,-2.1623616,1.6019464,3.0587046,0.0,0.7907131,0.22458792,1.3994993,0.2479686,0.43955207,0.110246785,inf,inf,inf,inf,0,1,0,1,1,0,1,1,0,0,0
118958289,0,0.0,0.0,0.0,0.0,-0.7025528,-5.862651e-07,4.3724148e-07,0.0,-0.087801464,-0.106199,-0.21394084,-0.25508925,-0.00014645644,0.00010922845,0.0,-1.7271186,0.08586603,1.0345736,2.9358652,0.0,0.8165116,0.21394084,1.4058928,0.24930626,0.4623534,0.11066601,inf,inf,inf,inf,0,1,0,1,1,0,1,1,0,0,0
119062276,0,0.0,0.0,0.0,0.0,-0.7264499,-5.862651e-07,4.3724148e-07,0.0,-0.12640925,-0.15707795,-0.22167201,-0.25924557,-0.00014645644,0.00010922845,0.0,-0.5427808,-1.6130594,-0.5442983,2.8149164,0.0,0.8404087,0.22167201,1.4127238,0.25057322,0.4867894,0.11107038,inf,inf,inf,inf,0,1,0,1,1,0,1,1,0,0,0
119158271,0,0.0,0.0,0.0,0.0,-0.74387217,-5.862651e-07,4.3724148e-07,0.0,-0.1555545,-0.20813549,-0.19967128,-0.23014015,-0.00014645644,0.00010922845,0.0,0.70406896,-2.1578264,-2.1853192,2.722755,0.0,0.85783094,0.19967128,1.4175389,0.25114956,0.51097596,0.11129035,inf,inf,inf,inf,0,1,0,1,1,0,1,1,0,0,0
119262271,0,0.0,0.0,0.0,0.0,-0.759648,-5.862651e-07,4.3724148e-07,0.0,-0.19221205,-0.2590539,-0.16400485,-0.18908603,-0.00014645644,0.00010922845,0.0,-0.73190045,-2.3973768,-1.7480934,2.6379323,0.0,0.8736068,0.16400485,1.4188119,0.25044885,0.5384079,0.11116492,inf,inf,inf,inf,0,1,0,1,1,0,1,1,0,0,0
119366270,0,0.0,0.0,0.0,0.0,-0.7752084,-5.862651e-07,4.3724148e-07,0.0,-0.23054942,-0.29947236,-0.15685223,-0.17812638,-0.00014645644,0.00010922845,0.0,0.65793633,-0.7115533,-1.0507879,2.561539,0.0,0.8891672,0.15685223,1.4211565,0.24979566,0.56686884,0.11104086,inf,inf,inf,inf,0,1,0,1,1,0,1,1,0,0,0
119470300,0,0.0,0.0,0.0,0.0,-0.7898076,-5.862651e-07,4.3724148e-07,0.0,-0.25923914,-0.3537793,-0.09314088,-0.11224551,-0.00014645644,0.00010922845,0.0,0.57285154,-0.74785495,2.9494967,2.5245495,0.0,0.9037664,0.09314088,1.4246047,0.24915536,0.5967689,0.11094674,inf,inf,inf,inf,0,1,0,1,1,0,1,1,0,0,0
119574270,0,0.0,0.0,0.0,0.0,-0.79241186,-5.862651e-07,4.3724148e-07,0.0,-0.28782362,-0.39570466,0.062497336,0.045244634,-0.00014645644,0.00010922845,0.0,1.5758526,-1.3998216,2.5866628,2.5063617,0.0,0.90637064,-0.062497336,1.4366796,0.25047842,0.6292815,0.11139098,inf,inf,inf,inf,0,1,0,1,1,0,1,1,0,0,0
119670270,0,0.0,0.0,0.0,0.0,-0.7801162,-5.862651e-07,4.3724148e-07,0.0,-0.32159775,-0.42839944,0.12794843,0.1142953,-0.00014645644,0.00010922845,0.0,1.4899164,0.43452382,-1.1164591,2.5006022,0.0,0.894075,-0.12794843,1.4394085,0.2491549,0.6564343,0.1110889,inf,inf,inf,inf,0,1,0,1,1,0,1,1,0,0,0
119773493,0,0.0,0.0,0.0,0.0,-0.7655324,-5.862651e-07,4.3724148e-07,0.0,-0.35292208,-0.48810396,0.08373282,0.07446397,-0.00014645644,0.00010922845,0.0,1.919317,-1.0891817,-1.2156464,2.5027995,0.0,0.87949115,-0.08373282,1.4467926,0.24856643,0.6857364,0.11099411,inf,inf,inf,inf,0,1,0,1,1,0,1,1,0,0,0
119879141,0,0.0,0.0,0.0,0.0,-0.75984263,-5.862651e-07,4.3724148e-07,0.0,-0.39955664,-0.52521384,0.030382665,0.021285577,-0.00014645644,0.00010922845,0.0,1.9635581,-1.5846674,-1.3000306,2.5106337,0.0,0.8738014,-0.030382665,1.4632874,0.24989384,0.7193839,0.111443505,inf,inf,inf,inf,0,1,0,1,1,0,1,1,0,0,0
119979089,0,0.0,0.0,0.0,0.0,-0.760333,-5.862651e-07,4.3724148e-07,0.0,-0.44229364,-0.55719113,0.006849886,-0.0036398966,-0.00014645644,0.00010922845,0.0,-1.4688146,1.3726761,-1.0971547,2.518727,0.0,0.8742918,-0.006849886,1.4819065,0.25124282,0.75418466,0.11187381,inf,inf,inf,inf,0,1,0,1,1,0,1,1,0,0,0
120075070,0,0.0,0.0,0.0,0.0,-0.7623336,-5.862651e-07,4.3724148e-07,0.0,-0.47076306,-0.5998472,0.021856112,0.009204198,-0.00014645644,0.00010922845,0.0,-1.7395581,-1.0943033,-1.863422,2.52636,0.0,0.87629235,-0.021856112,1.4880792,0.24958631,0.78301674,0.11151255,inf,inf,inf,inf,0,1,0,1,1,0,1,1,0,0,0
120179077,0,0.0,0.0,0.0,0.0,-0.7629,-5.862651e-07,4.3724148e-07,0.0,-0.5036123,-0.6408047,0.04887899,0.033111755,-0.00014645644,0.00010922845,0.0,-0.029124599,-0.99675024,-1.3444629,2.5344121,0.0,0.8768588,-0.04887899,1.5094136,0.2507998,0.81632584,0.11190077,inf,inf,inf,inf,0,1,0,1,1,0,1,1,0,0,0
120283118,0,0.0,0.0,0.0,0.0,-0.7620523,-5.862651e-07,4.3724148e-07,0.0,-0.5257939,-0.68714523,0.0511233,0.032207903,-0.00014645644,0.00010922845,0.0,2.2236707,-2.8589313,-1.1691959,2.541797,0.0,0.8760111,-0.0511233,1.5330145,0.25205296,0.84845203,0.112282105,inf,inf,inf,inf,0,1,0,1,1,0,1,1,0,0,0
120387083,0,0.0,0.0,0.0,0.0,-0.7594477,-5.862651e-07,4.3724148e-07,0.0,-0.5609382,-0.7091923,0.045040388,0.025283732,-0.00014645644,0.00010922845,0.0,-0.30374914,-1.1718744,-2.379904,2.5513856,0.0,0.87340647,-0.045040388,1.5492626,0.25131905,0.87716454,0.112080276,inf,inf,inf,inf,0,1,0,1,1,0,1,1,0,0,0
120483071,0,0.0,0.0,0.0,0.0,-0.75791043,-5.862651e-07,4.3724148e-07,0.0,-0.58225656,-0.7416868,0.033558358,0.013555993,-0.00014645644,0.00010922845,0.0,1.5782998,-1.8548521,-1.1539505,2.5737562,0.0,0.8718692,-0.033558358,1.5713338,0.25188118,0.9050684,0.11225075,inf,inf,inf,inf,0,1,0,1,1,0,1,1,0,0,0
120587072,0,0.0,0.0,0.0,0.0,-0.75723267,-5.862651e-07,4.3724148e-07,0.0,-0.6107128,-0.77090377,0.022760665,0.003047253,-0.00014645644,0.00010922845,0.0,-1.4998703,2.542791,2.1503074,2.608077,0.0,0.87119144,-0.022760665,1.5901005,0.2511739,0.9319001,0.1120356,inf,inf,inf,inf,0,1,0,1,1,0,1,1,0,0,0
120691071,0,0.0,0.0,0.0,0.0,-0.7607739,-5.862651e-07,4.3724148e-07,0.0,-0.6337593,-0.8116147,0.02354552,0.0008124574,-0.00014645644,0.00010922845,0.0,2.8015602,0.041764647,2.26449,2.64076,0.0,0.8747327,-0.02354552,1.6099106,0.25049886,0.957519,0.11184134,inf,inf,inf,inf,0,1,0,1,1,0,1,1,0,0,0
120787071,0,0.0,0.0,0.0,0.0,-0.7596815,-5.862651e-07,4.3724148e-07,0.0,-0.6638565,-0.8409324,0.07022532,0.04708856,-0.00014645644,0.00010922845,0.0,-0.36622918,0.009396209,1.7075942,2.6613986,0.0,0.8736403,-0.07022532,1.6355277,0.25109848,0.98152375,0.112012155,inf,inf,inf,inf,0,1,0,1,1,0,1,1,0,0,0
120891076,0,0.0,0.0,0.0,0.0,-0.7477665,-5.862651e-07,4.3724148e-07,0.0,-0.6873933,-0.8752135,0.08519854,0.06885562,-0.00014645644,0.00010922845,0.0,-0.9109376,-0.47652858,0.60506546,2.6711166,0.0,0.8617253,-0.08519854,1.6566372,0.25042936,1.0026956,0.1118264,inf,inf,inf,inf,0,1,0,1,1,0,1,1,0,0,0
