timestamp,roll_body,pitch_body,yaw_body,yaw_sp_move_rate,q_d[0],q_d[1],q_d[2],q_d[3],thrust_body[0],thrust_body[1],thrust_body[2],q_d_valid,roll_reset_integral,pitch_reset_integral,yaw_reset_integral,fw_control_yaw,apply_flaps
101492864,-0.0,-0.0,-1.3560822,0.0,0.778803,-0.0,0.0,-0.6272686,0.0,0.0,-0.0,1,0,0,0,0,0
101511589,-0.0,-0.0,-1.356092,0.0,0.7787999,-0.0,0.0,-0.6272724,0.0,0.0,-0.0,1,0,0,0,0,0
101611765,-0.0,-0.0,-1.3560812,0.0,0.7788033,-0.0,0.0,-0.6272682,0.0,0.0,-0.0,1,0,0,0,0,0
101712028,-0.0,-0.0,-1.3560613,0.0,0.7788095,-0.0,0.0,-0.6272605,0.0,0.0,-0.0,1,0,0,0,0,0
101812020,-0.0,-0.0,-1.3560973,0.0,0.7787982,-0.0,0.0,-0.6272745,0.0,0.0,-0.0,1,0,0,0,0,0
101912094,-0.0,-0.0,-1.3561692,0.0,0.7787757,-0.0,0.0,-0.6273025,0.0,0.0,-0.0,1,0,0,0,0,0
102012170,-0.0,-0.0,-1.356283,0.0,0.77874,-0.0,0.0,-0.6273468,0.0,0.0,-0.0,1,0,0,0,0,0
102112217,-0.0,-0.0,-1.3563712,0.0,0.77871233,-0.0,0.0,-0.62738115,0.0,0.0,-0.0,1,0,0,0,0,0
102212301,-0.0,-0.0,-1.356495,0.0,0.7786735,-0.0,0.0,-0.6274293,0.0,0.0,-0.0,1,0,0,0,0,0
102312452,-0.0,-0.0,-1.3566209,0.0,0.778634,-0.0,0.0,-0.62747836,0.0,0.0,-0.0,1,0,0,0,0,0
102412573,-0.0,-0.0,-1.3566825,0.0,0.77861464,-0.0,0.0,-0.6275024,0.0,0.0,-0.0,1,0,0,0,0,0
102512715,-0.0,-0.0,-1.3567655,0.0,0.7785886,-0.0,0.0,-0.6275347,0.0,0.0,-0.0,1,0,0,0,0,0
102612848,-0.0,-0.0,-1.3569372,0.0,0.77853477,-0.0,0.0,-0.6276015,0.0,0.0,-0.0,1,0,0,0,0,0
102732923,-0.0,-0.0,-1.3571754,0.0,0.77846,-0.0,0.0,-0.62769425,0.0,0.0,-0.0,1,0,0,0,0,0
102832956,-0.0,-0.0,-1.3573302,0.0,0.7784114,-0.0,0.0,-0.6277545,0.0,0.0,-0.0,1,0,0,0,0,0
102932994,-0.0,-0.0,-1.3576155,0.0,0.77832186,-0.0,0.0,-0.6278656,0.0,0.0,-0.0,1,0,0,0,0,0
103033119,-0.0,-0.0,-1.3578776,0.0,0.77823955,-0.0,0.0,-0.6279676,0.0,0.0,-0.0,1,0,0,0,0,0
103133207,-0.0,-0.0,-1.3580518,0.0,0.7781849,-0.0,0.0,-0.62803537,0.0,0.0,-0.0,1,0,0,0,0,0
103233486,-0.0,-0.0,-1.3581169,0.0,0.7781644,-0.0,0.0,-0.62806064,0.0,0.0,-0.0,1,0,0,0,0,0
103333809,-0.0,-0.0,-1.3582015,0.0,0.77813786,-0.0,0.0,-0.62809354,0.0,0.0,-0.0,1,0,0,0,0,0
103433761,-0.0,-0.0,-1.3582261,0.0,0.7781301,-0.0,0.0,-0.62810314,0.0,0.0,-0.0,1,0,0,0,0,0
103533793,-0.0,-0.0,-1.3582808,0.0,0.77811295,-0.0,0.0,-0.62812436,0.0,0.0,-0.0,1,0,0,0,0,0
103633808,-0.0,-0.0,-1.3583108,0.0,0.77810353,-0.0,0.0,-0.6281361,0.0,0.0,-0.0,1,0,0,0,0,0
103733846,-0.0,-0.0,-1.3583499,0.0,0.77809125,-0.0,0.0,-0.6281513,0.0,0.0,-0.0,1,0,0,0,0,0
103833932,-0.0,-0.0,-1.3583972,0.0,0.77807635,-0.0,0.0,-0.6281698,0.0,0.0,-0.0,1,0,0,0,0,0
103933992,-0.0,-0.0,-1.3584471,0.0,0.77806073,-0.0,0.0,-0.62818915,0.0,0.0,-0.0,1,0,0,0,0,0
104054171,-0.0,-0.0,-1.3583978,0.0,0.77807623,-0.0,0.0,-0.62816995,0.0,0.0,-0.0,1,0,0,0,0,0
104154326,-0.0,-0.0,-1.3583612,0.0,0.7780877,-0.0,0.0,-0.6281557,0.0,0.0,-0.0,1,0,0,0,0,0
104254420,-0.0,-0.0,-1.358351,0.0,0.7780909,-0.0,0.0,-0.6281517,0.0,0.0,-0.0,1,0,0,0,0,0
104354481,-0.0,-0.0,-1.358353,0.0,0.77809024,-0.0,0.0,-0.6281525,0.0,0.0,-0.0,1,0,0,0,0,0
104454528,-0.0,-0.0,-1.3583674,0.0,0.7780857,-0.0,0.0,-0.62815815,0.0,0.0,-0.0,1,0,0,0,0,0
104554634,-0.0,-0.0,-1.3583667,0.0,0.77808595,-0.0,0.0,-0.62815785,0.0,0.0,-0.0,1,0,0,0,0,0
104654734,-0.0,-0.0,-1.3583508,0.0,0.778091,-0.0,0.0,-0.62815154,0.0,0.0,-0.0,1,0,0,0,0,0
104754951,-0.0,-0.0,-1.3584051,0.0,0.7780739,-0.0,0.0,-0.62817276,0.0,0.0,-0.0,1,0,0,0,0,0
104854988,-0.0,-0.0,-1.3584478,0.0,0.7780605,-0.0,0.0,-0.6281893,0.0,0.0,-0.0,1,0,0,0,0,0
104955195,-0.0,-0.0,-1.3584667,0.0,0.77805454,-0.0,0.0,-0.6281968,0.0,0.0,-0.0,1,0,0,0,0,0
105056038,-0.0,-0.0,-1.3584952,0.0,0.7780456,-0.0,0.0,-0.62820786,0.0,0.0,-0.0,1,0,0,0,0,0
105175359,-0.0,-0.0,-1.3584744,0.0,0.77805215,-0.0,0.0,-0.6281997,0.0,0.0,-0.0,1,0,0,0,0,0
105275441,-0.0,-0.0,-1.3584913,0.0,0.77804685,-0.0,0.0,-0.62820625,0.0,0.0,-0.0,1,0,0,0,0,0
105375446,-0.0,-0.0,-1.3585142,0.0,0.77803963,-0.0,0.0,-0.6282152,0.0,0.0,-0.0,1,0,0,0,0,0
105475549,-0.0,-0.0,-1.3586016,0.0,0.7780122,-0.0,0.0,-0.6282492,0.0,0.0,-0.0,1,0,0,0,0,0
105575647,-0.0,-0.0,-1.3586255,0.0,0.77800465,-0.0,0.0,-0.6282585,0.0,0.0,-0.0,1,0,0,0,0,0
105676105,-0.0,-0.0,-1.3586848,0.0,0.77798605,-0.0,0.0,-0.6282816,0.0,0.0,-0.0,1,0,0,0,0,0
105776188,-0.0,-0.0,-1.3587712,0.0,0.7779589,-0.0,0.0,-0.62831515,0.0,0.0,-0.0,1,0,0,0,0,0
105876328,-0.0,-0.0,-1.3589123,0.0,0.7779146,-0.0,0.0,-0.62837005,0.0,0.0,-0.0,1,0,0,0,0,0
105976361,-0.0,-0.0,-1.3590755,0.0,0.7778633,-0.0,0.0,-0.6284336,0.0,0.0,-0.0,1,0,0,0,0,0
106076381,-0.0,-0.0,-1.3593047,0.0,0.77779126,-0.0,0.0,-0.6285227,0.0,0.0,-0.0,1,0,0,0,0,0
106176432,-0.0,-0.0,-1.3594763,0.0,0.7777373,-0.0,0.0,-0.6285894,0.0,0.0,-0.0,1,0,0,0,0,0
106276409,-0.0,-0.0,-1.3595201,0.0,0.7777236,-0.0,0.0,-0.6286064,0.0,0.0,-0.0,1,0,0,0,0,0
106376448,-0.0,-0.0,-1.3595058,0.0,0.7777281,-0.0,0.0,-0.62860084,0.0,0.0,-0.0,1,0,0,0,0,0
106476866,-0.0,-0.0,-1.3594291,0.0,0.77775216,-0.0,0.0,-0.62857103,0.0,0.0,-0.0,1,0,0,0,0,0
106596829,-0.0,-0.0,-1.3593078,0.0,0.7777903,-0.0,0.0,-0.6285238,0.0,0.0,-0.0,1,0,0,0,0,0
106697030,-0.0,-0.0,-1.3592582,0.0,0.7778059,-0.0,0.0,-0.6285046,0.0,0.0,-0.0,1,0,0,0,0,0
106797181,-0.0,-0.0,-1.3592887,0.0,0.7777963,-0.0,0.0,-0.6285165,0.0,0.0,-0.0,1,0,0,0,0,0
106897121,-0.0,-0.0,-1.3594044,0.0,0.7777599,-0.0,0.0,-0.62856156,0.0,0.0,-0.0,1,0,0,0,0,0
106997128,-0.0,-0.0,-1.3594836,0.0,0.77773505,-0.0,0.0,-0.62859225,0.0,0.0,-0.0,1,0,0,0,0,0
107097349,-0.0,-0.0,-1.359574,0.0,0.7777067,-0.0,0.0,-0.62862736,0.0,0.0,-0.0,1,0,0,0,0,0
107197262,-0.0,-0.0,-1.3596215,0.0,0.7776917,-0.0,0.0,-0.6286459,0.0,0.0,-0.0,1,0,0,0,0,0
107297651,-0.0,-0.0,-1.3596859,0.0,0.77767146,-0.0,0.0,-0.628671,0.0,0.0,-0.0,1,0,0,0,0,0
107398435,-0.0,-0.0,-1.3597881,0.0,0.7776394,-0.0,0.0,-0.6287107,0.0,0.0,-0.0,1,0,0,0,0,0
107497720,-0.0,-0.0,-1.3599799,0.0,0.777579,-0.0,0.0,-0.6287852,0.0,0.0,-0.0,1,0,0,0,0,0
107597845,-0.0,-0.0,-1.3601091,0.0,0.7775384,-0.0,0.0,-0.62883544,0.0,0.0,-0.0,1,0,0,0,0,0
107697839,-0.0,-0.0,-1.3601828,0.0,0.77751523,-0.0,0.0,-0.6288641,0.0,0.0,-0.0,1,0,0,0,0,0
107798027,-0.0,-0.0,-1.3601583,0.0,0.7775229,-0.0,0.0,-0.6288546,0.0,0.0,-0.0,1,0,0,0,0,0
107917988,-0.0,-0.0,-1.3601483,0.0,0.7775261,-0.0,0.0,-0.6288508,0.0,0.0,-0.0,1,0,0,0,0,0
108018400,-0.0,-0.0,-1.3600473,0.0,0.77755785,-0.0,0.0,-0.6288114,0.0,0.0,-0.0,1,0,0,0,0,0
108118361,0.0,-0.0,-1.3600346,0.0,0.77756184,0.0,-0.0,-0.6288065,0.0,0.0,-0.12,1,0,0,0,0,0
108218469,0.0,-0.0,-1.3600346,0.0,0.77756184,0.0,-0.0,-0.6288065,0.0,0.0,-0.12,1,0,0,0,0,0
108318700,0.0,-0.0,-1.3600346,0.0,0.77756184,0.0,-0.0,-0.6288065,0.0,0.0,-0.12,1,0,0,0,0,0
108418580,0.0,-0.0,-1.3600346,0.0,0.77756184,0.0,-0.0,-0.6288065,0.0,0.0,-0.12299517,1,0,0,0,0,0
108519641,0.0,-0.0,-1.3600346,0.0,0.77756184,0.0,-0.0,-0.6288065,0.0,0.0,-0.15536979,1,0,0,0,0,0
108618708,0.0,-0.0,-1.3600346,0.0,0.77756184,0.0,-0.0,-0.6288065,0.0,0.0,-0.18821734,1,0,0,0,0,0
108718937,0.0,-0.0,-1.3600346,0.0,0.77756184,0.0,-0.0,-0.6288065,0.0,0.0,-0.22176743,1,0,0,0,0,0
108818940,0.0,-0.0,-1.3600346,0.0,0.77756184,0.0,-0.0,-0.6288065,0.0,0.0,-0.25492448,1,0,0,0,0,0
108919180,0.0,-0.0,-1.3600346,0.0,0.77756184,0.0,-0.0,-0.6288065,0.0,0.0,-0.29001188,1,0,0,0,0,0
109019383,0.0,-0.0,-1.3600346,0.0,0.77756184,0.0,-0.0,-0.6288065,0.0,0.0,-0.3157798,1,0,0,0,0,0
109119373,0.0,-0.0,-1.3600346,0.0,0.77756184,0.0,-0.0,-0.6288065,0.0,0.0,-0.36053106,1,0,0,0,0,0
109219455,0.0,-0.0,-1.3600346,0.0,0.77756184,0.0,-0.0,-0.6288065,0.0,0.0,-0.3908071,1,0,0,0,0,0
109319446,0.0,-0.0,-1.3600346,0.0,0.77756184,0.0,-0.0,-0.6288065,0.0,0.0,-0.42779636,1,0,0,0,0,0
109419535,0.0,-0.0,-1.3600346,0.0,0.77756184,0.0,-0.0,-0.6288065,0.0,0.0,-0.45263508,1,0,0,0,0,0
109539640,0.0,-0.0,-1.3600346,0.0,0.77756184,0.0,-0.0,-0.6288065,0.0,0.0,-0.4192048,1,0,0,0,0,0
109639763,0.0,-0.0,-1.3600346,0.0,0.77756184,0.0,-0.0,-0.6288065,0.0,0.0,-0.41671127,1,0,0,0,0,0
109739932,0.0,-0.0,-1.3600346,0.0,0.77756184,0.0,-0.0,-0.6288065,0.0,0.0,-0.40667802,1,0,0,0,0,0
109840297,0.0,-0.0,-1.3600346,0.0,0.77756184,0.0,-0.0,-0.6288065,0.0,0.0,-0.42051435,1,0,0,0,0,0
109940370,0.0,-0.0,-1.3600346,0.0,0.77756184,0.0,-0.0,-0.6288065,0.0,0.0,-0.45229548,1,0,0,0,0,0
110040131,0.0,-0.0,-1.3600346,0.0,0.77756184,0.0,-0.0,-0.6288065,0.0,0.0,-0.46048784,1,0,0,0,0,0
110140212,0.0,-0.0,-1.3600346,0.0,0.77756184,0.0,-0.0,-0.6288065,0.0,0.0,-0.44573665,1,0,0,0,0,0
110240343,0.0,-0.0,-1.3600346,0.0,0.77756184,0.0,-0.0,-0.6288065,0.0,0.0,-0.44004387,1,0,0,0,0,0
110340439,0.0,-0.0,-1.3600346,0.0,0.77756184,0.0,-0.0,-0.6288065,0.0,0.0,-0.43928683,1,0,0,0,0,0
110440595,0.0,-0.0,-1.3600346,0.0,0.77756184,0.0,-0.0,-0.6288065,0.0,0.0,-0.44163314,1,0,0,0,0,0
110540759,0.0,-0.0,-1.3600346,0.0,0.77756184,0.0,-0.0,-0.6288065,0.0,0.0,-0.44758335,1,0,0,0,0,0
110640809,0.0,-0.0,-1.3600346,0.0,0.77756184,0.0,-0.0,-0.6288065,0.0,0.0,-0.44678584,1,0,0,0,0,0
110740919,0.0,-0.0,-1.3600346,0.0,0.77756184,0.0,-0.0,-0.6288065,0.0,0.0,-0.44759718,1,0,0,0,0,0
110840965,0.0,-0.0,-1.3600346,0.0,0.77756184,0.0,-0.0,-0.6288065,0.0,0.0,-0.44096184,1,0,0,0,0,0
110961034,0.0,-0.0,-1.3600346,0.0,0.77756184,0.0,-0.0,-0.6288065,0.0,0.0,-0.44456267,1,0,0,0,0,0
111061178,0.0,-0.0,-1.3600346,0.0,0.77756184,0.0,-0.0,-0.6288065,0.0,0.0,-0.44368574,1,0,0,0,0,0
111161255,0.0,-0.0,-1.3600346,0.0,0.77756184,0.0,-0.0,-0.6288065,0.0,0.0,-0.43492147,1,0,0,0,0,0
111261417,0.0,-0.0,-1.3600346,0.0,0.77756184,0.0,-0.0,-0.6288065,0.0,0.0,-0.42931214,1,0,0,0,0,0
111361544,0.0,-0.0,-1.3600346,0.0,0.77756184,0.0,-0.0,-0.6288065,0.0,0.0,-0.43478775,1,0,0,0,0,0
111461632,0.0,-0.0,-1.3600346,0.0,0.77756184,0.0,-0.0,-0.6288065,0.0,0.0,-0.47277945,1,0,0,0,0,0
111561771,0.0,-0.0,-1.3600346,0.0,0.77756184,0.0,-0.0,-0.6288065,0.0,0.0,-0.46151245,1,0,0,0,0,0
111661810,0.0,-0.0,-1.3600346,0.0,0.77756184,0.0,-0.0,-0.6288065,0.0,0.0,-0.4648487,1,0,0,0,0,0
111761830,0.0,-0.0,-1.3600346,0.0,0.77756184,0.0,-0.0,-0.6288065,0.0,0.0,-0.45214242,1,0,0,0,0,0
111861934,0.0,-0.0,-1.3600346,0.0,0.77756184,0.0,-0.0,-0.6288065,0.0,0.0,-0.41194326,1,0,0,0,0,0
111962026,0.0,-0.0,-1.3600346,0.0,0.77756184,0.0,-0.0,-0.6288065,0.0,0.0,-0.42484194,1,0,0,0,0,0
112062198,0.0,-0.0,-1.3600346,0.0,0.77756184,0.0,-0.0,-0.6288065,0.0,0.0,-0.45145005,1,0,0,0,0,0
112182403,0.0,-0.0,-1.3600346,0.0,0.77756184,0.0,-0.0,-0.6288065,0.0,0.0,-0.45812988,1,0,0,0,0,0
112282503,0.0,-0.0,-1.3600346,0.0,0.77756184,0.0,-0.0,-0.6288065,0.0,0.0,-0.45407814,1,0,0,0,0,0
112382517,0.0,-0.0,-1.3600346,0.0,0.77756184,0.0,-0.0,-0.6288065,0.0,0.0,-0.45668864,1,0,0,0,0,0
112482546,0.0,-0.0,-1.3600346,0.0,0.77756184,0.0,-0.0,-0.6288065,0.0,0.0,-0.49746242,1,0,0,0,0,0
112582639,0.0,-0.0,-1.3600346,0.0,0.77756184,0.0,-0.0,-0.6288065,0.0,0.0,-0.47610337,1,0,0,0,0,0
112682751,0.0,-0.0,-1.3600346,0.0,0.77756184,0.0,-0.0,-0.6288065,0.0,0.0,-0.45608675,1,0,0,0,0,0
112782855,0.0,-0.0,-1.3600346,0.0,0.77756184,0.0,-0.0,-0.6288065,0.0,0.0,-0.45974216,1,0,0,0,0,0
112883346,0.0,-0.0,-1.3600346,0.0,0.77756184,0.0,-0.0,-0.6288065,0.0,0.0,-0.46347654,1,0,0,0,0,0
112983427,0.0,-0.0,-1.3600346,0.0,0.77756184,0.0,-0.0,-0.6288065,0.0,0.0,-0.4634619,1,0,0,0,0,0
113083801,0.0,-0.0,-1.3600346,0.0,0.77756184,0.0,-0.0,-0.6288065,0.0,0.0,-0.45714325,1,0,0,0,0,0
113183387,0.0,-0.0,-1.3600346,0.0,0.77756184,0.0,-0.0,-0.6288065,0.0,0.0,-0.4568381,1,0,0,0,0,0
113283476,-2.1880835e-12,-0.0007398635,-1.3600346,0.0,0.7775618,-0.00023261546,-0.0002876448,-0.6288065,0.0,0.0,-0.46195483,1,0,0,0,0,0
113383588,0.060919546,-0.051123112,-1.3600346,0.0,0.77743673,0.007608892,-0.039008394,-0.6277042,0.0,0.0,-0.463041,1,0,0,0,0,0
113483570,0.16400793,-0.08280335,-1.3600346,0.0,0.7764167,0.03769839,-0.08353772,-0.6235202,0.0,0.0,-0.4724173,1,0,0,0,0,0
113603660,0.24534868,-0.10998135,-1.3600346,0.0,0.77478105,0.060702655,-0.11924471,-0.61790794,0.0,0.0,-0.48448822,1,0,0,0,0,0
113704159,0.2679565,-0.11000369,-1.3600346,0.0,0.7740458,0.06944962,-0.12623025,-0.61651903,0.0,0.0,-0.48412755,1,0,0,0,0,0
113804283,0.13518864,-0.06506728,-1.3600346,0.0,0.7767572,0.032083914,-0.0676836,-0.62533015,0.0,0.0,-0.46282473,1,0,0,0,0,0
113904390,-0.0039408836,-0.0010071584,-1.3600346,0.0,0.77755964,-0.0018487924,0.00084746233,-0.62880594,0.0,0.0,-0.4641911,1,0,0,0,0,0
114004354,-1.4247845e-05,0.00011196308,-1.3600346,0.0,0.77756184,2.966226e-05,4.8008675e-05,-0.6288065,0.0,0.0,-0.47206518,1,0,0,0,0,0
114104354,5.9596805e-06,-2.5979443e-06,-1.3600346,0.0,0.77756184,1.500208e-06,-2.8837742e-06,-0.6288065,0.0,0.0,-0.47967684,1,0,0,0,0,0
114204366,8.1054104e-08,-7.3645154e-08,-1.3600346,0.0,0.77756184,8.358016e-09,-5.41155e-08,-0.6288065,0.0,0.0,-0.47556204,1,0,0,0,0,0
114304452,-2.7015545e-09,0.008159188,-1.3600346,0.0,0.7775554,0.0025652666,0.0031721285,-0.6288012,0.0,0.0,-0.4656771,1,0,0,0,0,0
114404555,-0.0447029,0.12584755,-1.3600346,0.0,0.7767129,0.022187104,0.06290839,-0.6263125,0.0,0.0,-0.46988627,1,0,0,0,0,0
114504780,-0.121567294,0.21440856,-1.3600346,0.0,0.7757574,0.02019466,0.12102306,-0.618988,0.0,0.0,-0.48737603,1,0,0,0,0,0
114604851,-0.11299305,0.23568135,-1.3600346,0.0,0.7751118,0.030207967,0.12653087,-0.6182873,0.0,0.0,-0.46825776,1,0,0,0,0,0
114704929,-0.08630039,0.26518077,-1.3600346,0.0,0.7736056,0.049805094,0.12958632,-0.6182728,0.0,0.0,-0.47569397,1,0,0,0,0,0
114805549,-0.034444492,0.1550912,-1.3600346,0.0,0.77594906,0.035354644,0.07102354,-0.6257865,0.0,0.0,-0.4731148,1,0,0,0,0,0
114905173,0.0009985474,-0.0062773656,-1.3600346,0.0,0.7775589,-0.0015854063,-0.0027544606,-0.62880206,0.0,0.0,-0.4681831,1,0,0,0,0,0
115025174,4.1048334e-06,-3.5411616e-05,-1.3600346,0.0,0.77756184,-9.537646e-06,-1.50579335e-05,-0.6288065,0.0,0.0,-0.4769445,1,0,0,0,0,0
115125203,2.6381002e-07,-1.0182334e-06,-1.3600346,0.0,0.77756184,-2.1757158e-07,-4.7881247e-07,-0.6288065,0.0,0.0,-0.4819327,1,0,0,0,0,0
115225516,1.8723298e-09,-1.3751944e-10,-1.3600346,0.0,0.77756184,6.846895e-10,-6.4213146e-10,-0.6288065,0.0,0.0,-0.48254287,1,0,0,0,0,0
115326676,-2.1146732e-10,1.18257e-09,-1.3600346,-0.0,0.77756184,2.8958938e-10,5.2624666e-10,-0.6288065,0.0,0.0,-0.48090488,1,0,0,0,0,0
115425678,-3.371199e-12,1.5109023e-11,-1.3619461,0.1361426,0.7769605,3.4462932e-12,6.930725e-12,-0.6295494,0.0,0.0,-0.47621647,1,0,0,0,0,0
115526299,7.2850614e-14,-6.008554e-13,-1.354754,0.32954705,0.7792194,-1.5991012e-13,-2.5692867e-13,-0.6267513,0.0,0.0,-0.4794946,1,0,0,0,0,0
115625813,2.1490253e-15,-1.31251906e-14,-1.3318495,0.4578195,0.78634584,-3.209344e-15,-5.8242883e-15,-0.6177865,0.0,0.0,-0.48475707,1,0,0,0,0,0
115726505,2.5944004e-17,2.3718901e-17,-1.298271,0.3005466,0.7966067,1.7502596e-17,1.6057697e-18,-0.60449797,0.0,0.0,-0.48333395,1,0,0,0,0,0
115825931,-4.4817344e-19,5.0570576e-18,-1.2697772,0.31864986,0.8051378,1.3192188e-18,2.1687168e-18,-0.59308785,0.0,0.0,-0.4763903,1,0,0,0,0,0
115925980,-5.3473695e-20,2.3363414e-19,-1.2474815,-0.0,0.8116993,4.6527724e-20,1.1043668e-19,-0.5840756,0.0,0.0,-0.47835177,1,0,0,0,0,0
116026176,-5.185851e-22,1.1430888e-21,-1.2474815,0.0,0.8116993,1.2335756e-22,6.1536866e-22,-0.5840756,0.0,0.0,-0.47724122,1,0,0,0,0,0
116126548,3.567697e-23,-2.1389755e-22,-1.2474815,-0.0,0.8116993,-4.7986683e-23,-9.722927e-23,-0.5840756,0.0,0.0,-0.4786632,1,0,0,0,0,0
116447280,3.9603162e-29,1.2924444e-28,-1.1644787,-0.0,0.8352334,5.2074413e-29,4.308583e-29,-0.5498957,0.0,0.0,-0.47303063,1,0,0,0,0,0
116746796,2.938037e-33,-2.2118565e-32,-1.1510086,-0.60889006,0.8389179,-4.7867162e-33,-1.0077355e-32,-0.54425794,0.0,0.0,-0.48295006,1,0,0,0,0,0
116846983,7.5878465e-35,-4.427999e-34,-1.1896666,-1.0661893,0.82824194,-9.264319e-35,-2.0463277e-34,-0.5603707,0.0,0.0,-0.48963657,1,0,0,0,0,0
116947153,1.3039497e-36,-6.177611e-36,-1.2623874,-1.2964628,0.8073237,-1.2963767e-36,-2.878402e-36,-0.5901089,0.0,0.0,-0.47799715,1,0,0,0,0,0
117047259,1.5098519e-38,-4.754424e-38,-1.3579494,-1.118566,0.778217,-9.05382e-39,-2.3240769e-38,-0.6279955,0.0,0.0,-0.4695299,1,0,0,0,0,0
117147333,-7.43215e-40,4.760687e-39,-1.4536854,-1.1437409,0.7472762,1.304078e-39,2.025713e-39,-0.6645136,0.0,0.0,-0.479735,1,0,0,0,0,0
117247344,-1.4935e-41,7.7848e-41,-1.558682,-1.3928435,0.71137685,2.2044e-41,3.2938e-41,-0.70281076,0.0,0.0,-0.49613306,1,0,0,0,0,0
117347394,-2.09e-43,8.34e-43,-1.6736507,-0.96545726,0.6698234,2.4e-43,3.57e-43,-0.74252045,0.0,0.0,-0.4614963,1,0,0,0,0,0
117447568,7e-45,-4.6e-44,-1.7716542,-0.88877285,0.6326491,-1.5e-44,-1.7e-44,-0.77443856,0.0,0.0,-0.47325987,1,0,0,0,0,0
117547620,0.0,0.0,-1.8645226,-0.89664954,0.59601974,0.0,0.0,-0.80296975,0.0,0.0,-0.48420942,1,0,0,0,0,0
117667906,0.0,0.0,-1.9725968,-0.80776674,0.5517807,0.0,0.0,-0.8339893,0.0,0.0,-0.4827927,1,0,0,0,0,0
117768013,0.0,0.0,-2.0582535,-0.8624117,0.51556724,0.0,0.0,-0.85684913,0.0,0.0,-0.4850603,1,0,0,0,0,0
117868136,0.0,0.0,-2.1460142,-0.9648519,-0.47748426,-0.0,0.0,0.8786403,0.0,0.0,-0.4869615,1,0,0,0,0,0
117968180,0.0,0.0,-2.2413816,-1.171905,-0.4350605,-0.0,0.0,0.90040123,0.0,0.0,-0.49743563,1,0,0,0,0,0
118068219,0.0,0.0,-2.347629,-1.1085565,-0.3866366,-0.0,0.0,0.92223215,0.0,0.0,-0.48618248,1,0,0,0,0,0
118168315,0.0,0.0,-2.4520533,-1.0522065,-0.3379799,-0.0,0.0,0.94115335,0.0,0.0,-0.4790162,1,0,0,0,0,0
118268345,0.0,0.0,-2.5569372,-1.2743098,-0.28818196,-0.0,0.0,0.9575757,0.0,0.0,-0.48724064,1,0,0,0,0,0
118368426,0.0,0.0,-2.6727767,-1.1353291,-0.23226722,-0.0,0.0,0.972652,0.0,0.0,-0.48688814,1,0,0,0,0,0
118468732,0.0,0.0,-2.7829123,-0.9971675,-0.17838037,-0.0,0.0,0.9839616,0.0,0.0,-0.4858319,1,0,0,0,0,0
118568777,0.0,0.0,-2.8865643,-1.2059714,-0.1271689,-0.0,0.0,0.9918811,0.0,0.0,-0.49357358,1,0,0,0,0,0
118668840,0.0,0.0,-3.0020657,-1.1909325,-0.06970692,-0.0,0.0,0.99756753,0.0,0.0,-0.49559665,1,0,0,0,0,0
118768974,0.0,0.0,-3.1207464,-1.1730005,-0.010422951,-0.0,0.0,0.9999457,0.0,0.0,-0.48481283,1,0,0,0,0,0
118868960,-0.0,-0.0,3.0446107,-1.1694463,0.048471954,0.0,-0.0,0.99882454,0.0,0.0,-0.4847773,1,0,0,0,0,0
118969036,-0.0,-0.0,2.9264286,-1.161778,0.10737465,0.0,-0.0,0.9942187,0.0,0.0,-0.48846748,1,0,0,0,0,0
119069129,-0.0,-0.0,2.8103719,-0.8081239,0.1648544,0.0,-0.0,0.98631793,0.0,0.0,-0.47943088,1,0,0,0,0,0
119189253,-0.0,-0.0,2.6994674,-0.6720143,0.21926655,0.0,-0.0,0.975665,0.0,0.0,-0.48284003,1,0,0,0,0,0
119289557,-0.0,-0.0,2.6188133,-0.6127693,0.25842327,0.0,-0.0,0.9660318,0.0,0.0,-0.47834188,1,0,0,0,0,0
119389662,-0.0,-0.0,2.561539,0.0,0.285978,0.0,-0.0,0.9582362,0.0,0.0,-0.44748092,1,0,0,0,0,0
119489752,-0.0,-0.0,2.561539,0.0,0.285978,0.0,-0.0,0.9582362,0.0,0.0,-0.45753905,1,0,0,0,0,0
119589761,-0.0,-0.0,2.561539,-0.0,0.285978,0.0,-0.0,0.95823616,0.0,0.0,-0.4866546,1,0,0,0,0,0
119689773,-0.0,-0.0,2.561539,-0.0,0.285978,0.0,-0.0,0.9582362,0.0,0.0,-0.4995328,1,0,0,0,0,0
119789851,-0.0,-0.0,2.561539,-0.0,0.285978,0.0,-0.0,0.9582362,0.0,0.0,-0.4943561,1,0,0,0,0,0
119889951,-0.0,-0.0,2.561539,0.0,0.285978,0.0,-0.0,0.9582362,0.0,0.0,-0.48588786,1,0,0,0,0,0
119990050,-0.0,-0.0,2.561539,0.0,0.285978,0.0,-0.0,0.9582362,0.0,0.0,-0.4817376,1,0,0,0,0,0
120090197,-0.0,-0.0,2.561539,0.0,0.285978,0.0,-0.0,0.95823616,0.0,0.0,-0.48597014,1,0,0,0,0,0
120190388,-0.0,-0.0,2.561539,-0.0,0.285978,0.0,-0.0,0.95823616,0.0,0.0,-0.49023926,1,0,0,0,0,0
120290505,-0.0,-0.0,2.541999,0.06421175,0.29532605,0.0,-0.0,0.95539653,0.0,0.0,-0.48964298,1,0,0,0,0,0
120410524,-0.0,-0.0,2.5546322,0.3721645,0.28928542,0.0,-0.0,0.9572429,0.0,0.0,-0.48907042,1,0,0,0,0,0
120510575,-0.0,-0.0,2.5811727,0.45365247,0.27655745,0.0,-0.0,0.9609974,0.0,0.0,-0.48716676,1,0,0,0,0,0
120610701,-0.0,-0.0,2.6149235,0.34156805,0.26030162,0.0,-0.0,0.96552736,0.0,0.0,-0.484189,1,0,0,0,0,0
120710763,-0.0,-0.0,2.6445444,0.1592084,0.24597372,0.0,-0.0,0.96927655,0.0,0.0,-0.48652118,1,0,0,0,0,0
120810949,-0.0,-0.0,2.6540515,-0.0,0.24136339,0.0,-0.0,0.97043484,0.0,0.0,-0.49491462,1,0,0,0,0,0
120911340,-0.0,-0.0,2.6540515,-0.0,0.24136339,0.0,-0.0,0.97043484,0.0,0.0,-0.49803442,1,0,0,0,0,0
121011418,-0.0,-0.0,2.6540515,-0.0,0.24136339,0.0,-0.0,0.97043484,0.0,0.0,-0.49170846,1,0,0,0,0,0
121111443,-0.0,-0.0,2.6540515,0.0,0.24136339,0.0,-0.0,0.97043484,0.0,0.0,-0.48768872,1,0,0,0,0,0
121211562,-0.0,-0.0,2.6540515,0.0,0.24136339,0.0,-0.0,0.97043484,0.0,0.0,-0.48125437,1,0,0,0,0,0
121311554,-0.0,-0.0,2.6540515,0.0,0.24136339,0.0,-0.0,0.97043484,0.0,0.0,-0.48058864,1,0,0,0,0,0
121411528,-0.0,-0.0,2.6540515,-0.0,0.24136339,0.0,-0.0,0.97043484,0.0,0.0,-0.48886937,1,0,0,0,0,0
121511629,-0.0,-0.0,2.6540515,-0.0,0.24136339,0.0,-0.0,0.97043484,0.0,0.0,-0.4963373,1,0,0,0,0,0
121611754,-0.0,-0.0,2.6540515,0.0,0.24136339,0.0,-0.0,0.97043484,0.0,0.0,-0.5038942,1,0,0,0,0,0
121712150,-0.0,-0.0,2.663281,-0.5151875,0.23688257,0.0,-0.0,0.9715383,0.0,0.0,-0.4971755,1,0,0,0,0,0
121832308,-0.0,-0.0,2.6254032,-0.7885722,0.2552389,0.0,-0.0,0.96687806,0.0,0.0,-0.47773838,1,0,0,0,0,0
121932308,-0.0,-0.0,2.5689075,-0.82147115,0.28244564,0.0,-0.0,0.95928335,0.0,0.0,-0.47201988,1,0,0,0,0,0
122032319,-0.0,-0.0,2.5031676,-1.2885075,0.31381896,0.0,-0.0,0.9494828,0.0,0.0,-0.47606894,1,0,0,0,0,0
122132377,-0.0,-0.0,2.4106152,-1.0867137,0.3574058,0.0,-0.0,0.9339492,0.0,0.0,-0.47895575,1,0,0,0,0,0
122232392,-0.0,-0.0,2.3159897,-0.93863434,0.40117708,0.0,-0.0,0.91600055,0.0,0.0,-0.48479515,1,0,0,0,0,0
122332432,-0.0,-0.0,2.2285345,-0.837798,0.44083533,0.0,-0.0,0.8975881,0.0,0.0,-0.4916012,1,0,0,0,0,0
122432786,-0.0,-0.0,2.143478,-0.63683623,0.4785981,0.0,-0.0,0.8780341,0.0,0.0,-0.49702886,1,0,0,0,0,0
122533418,-0.0,-0.0,2.087163,0.0,0.5031283,0.0,-0.0,0.8642119,0.0,0.0,-0.49611786,1,0,0,0,0,0
122632836,-0.0,-0.0,2.087163,0.0,0.5031283,0.0,-0.0,0.8642118,0.0,0.0,-0.4823937,1,0,0,0,0,0
122733696,-3.8806434e-11,0.0037087873,2.087163,0.0,0.50312746,-0.0016025878,0.0009329973,0.86421025,0.0,0.0,-0.4769786,1,0,0,0,0,0
122832970,-0.015357479,0.10158045,2.087163,-0.0,0.5021278,-0.047731716,0.018914824,0.863268,0.0,0.0,-0.47954926,1,0,0,0,0,0
122933046,-0.020026127,0.17264608,2.087163,-0.0,0.50048375,-0.079524055,0.034754425,0.86138487,0.0,0.0,-0.49123195,1,0,0,0,0,0
123033144,-0.030953865,0.22985199,2.087163,-0.0,0.49821576,-0.10682523,0.04440183,0.85930085,0.0,0.0,-0.49669242,1,0,0,0,0,0
123133195,-0.05824726,0.28923,2.087163,0.0,0.49403864,-0.13898791,0.04757307,0.8569393,0.0,0.0,-0.4951521,1,0,0,0,0,0
123253929,-0.02264196,0.23367399,2.087163,0.0,0.49852565,-0.10639282,0.04892977,0.8589288,0.0,0.0,-0.48796597,1,0,0,0,0,0
123353557,-0.00030120483,-0.01289069,2.087163,0.0,0.5031187,0.005494334,-0.003372963,0.8641933,0.0,0.0,-0.47819492,1,0,0,0,0,0
123453976,-1.8326746e-06,-0.00014520124,2.087163,0.0,0.50312835,6.228127e-05,-3.7319332e-05,0.8642117,0.0,0.0,-0.48232627,1,0,0,0,0,0
123553718,2.5723645e-07,7.5580333e-06,2.087163,-0.0,0.5031283,-3.201159e-06,2.012484e-06,0.8642119,0.0,0.0,-0.48678082,1,0,0,0,0,0
123653902,3.9396664e-09,1.4884998e-07,2.087163,-0.0,0.5031283,-6.3327874e-08,3.9147675e-08,0.8642118,0.0,0.0,-0.49821377,1,0,0,0,0,0
123753828,0.10062283,0.00942132,2.087163,-0.0,0.50269085,0.0212363,0.04582795,0.8629894,0.0,0.0,-0.5046003,1,0,0,0,0,0
123854479,0.189691,0.019966038,2.087163,0.0,0.5016591,0.03905705,0.08683977,0.8598089,0.0,0.0,-0.5061298,1,0,0,0,0,0
123954000,0.2690894,0.01127631,2.087163,0.0,0.49922696,0.06265962,0.11873382,0.8560073,0.0,0.0,-0.5031679,1,0,0,0,0,0
124054203,0.31242323,0.0110555375,2.087163,0.0,0.4977377,0.07355506,0.13719676,0.8532431,0.0,0.0,-0.50275475,1,0,0,0,0,0
124154350,0.34393302,-0.00078507996,2.087163,0.0,0.49564916,0.08642963,0.14768946,0.8514985,0.0,0.0,-0.5026436,1,0,0,0,0,0
124254476,0.34759003,4.3657947e-05,2.087163,-0.0,0.49555227,0.08698308,0.14945152,0.851191,0.0,0.0,-0.4986646,1,0,0,0,0,0
124354549,0.34761727,6.556067e-07,2.087163,0.0,0.4955479,0.08700815,0.1494525,0.8511908,0.0,0.0,-0.4993712,1,0,0,0,0,0
124454558,0.32722124,-2.7445642e-08,2.087163,0.0,0.4964093,0.08195039,0.14076424,0.8526707,0.0,0.0,-0.5031877,1,0,0,0,0,0
124574629,0.31357324,1.4452498e-08,2.087163,0.0,0.49695706,0.07856101,0.1349424,0.8536114,0.0,0.0,-0.50231206,1,0,0,0,0,0
124674728,0.3110615,7.2600543e-09,2.087163,0.0,0.49705532,0.077936836,0.13387029,0.8537802,0.0,0.0,-0.50523067,1,0,0,0,0,0
124775022,0.29590625,-1.1918559e-08,2.087163,0.0,0.4976316,0.07416813,0.12739685,0.8547701,0.0,0.0,-0.5032851,1,0,0,0,0,0
124875151,0.0452217,-8.834498e-10,2.087163,-0.0,0.5029997,0.01137519,0.019538898,0.8639908,0.0,0.0,-0.47944498,1,0,0,0,0,0
124975219,0.0019276884,2.7365141e-11,2.087163,-0.0,0.5031281,0.00048493716,0.00083296525,0.86421126,0.0,0.0,-0.47731423,1,0,0,0,0,0
125075322,-8.046005e-06,1.1953151e-13,2.087163,0.0,0.5031283,-2.024087e-06,-3.4767256e-06,0.8642119,0.0,0.0,-0.46718934,1,0,0,0,0,0
125175370,-2.7406768e-06,1.2281215e-13,2.087163,0.0,0.5031283,-6.894562e-07,-1.1842624e-06,0.8642119,0.0,0.0,-0.47527063,1,0,0,0,0,0
125275384,-3.1985678e-08,-3.3213033e-16,2.087163,0.0,0.5031283,-8.046451e-09,-1.38211975e-08,0.8642118,0.0,0.0,-0.48329413,1,0,0,0,0,0
125375418,1.5491268e-09,-1.7439351e-17,2.087163,0.0,0.5031283,3.8970488e-10,6.6938677e-10,0.8642119,0.0,0.0,-0.49414027,1,0,0,0,0,0
125475521,3.1314864e-11,-3.4370435e-19,2.087163,0.0,0.5031283,7.8776985e-12,1.3531334e-11,0.8642118,0.0,0.0,-0.49475214,1,0,0,0,0,0
125575635,4.412288e-13,-4.153607e-21,2.087163,0.0,0.5031283,1.1099738e-13,1.9065755e-13,0.8642119,0.0,0.0,-0.48705685,1,0,0,0,0,0
125675993,-1.3784933e-14,7.419297e-23,2.087163,0.0,0.5031283,-3.4677957e-15,-5.95655e-15,0.8642119,0.0,0.0,-0.4822684,1,0,0,0,0,0
125795995,-2.8276623e-17,6.5898965e-25,2.087163,0.0,0.5031283,-7.113386e-18,-1.2218495e-17,0.8642119,0.0,0.0,-0.48887667,1,0,0,0,0,0
125896105,-5.533697e-18,1.7042083e-25,2.087163,0.0,0.5031283,-1.3920801e-18,-2.3911428e-18,0.8642119,0.0,0.0,-0.4886995,1,0,0,0,0,0
125996168,-6.022366e-20,-1.1450652e-27,2.087163,0.0,0.5031283,-1.5150113e-20,-2.6022995e-20,0.8642118,0.0,0.0,-0.49418035,1,0,0,0,0,0
126096179,3.3530895e-21,6.8186196e-29,2.087163,0.0,0.5031283,8.4351723e-22,1.4488895e-21,0.8642119,0.0,0.0,-0.4971651,1,0,0,0,0,0
126196310,3.367321e-09,0.07874345,2.087163,0.0,0.5027384,-0.034016717,0.019803913,0.863542,0.0,0.0,-0.4946833,1,0,0,0,0,0
126296364,-0.0017841501,0.17990237,2.087163,0.0,0.5010248,-0.07807906,0.044428144,0.86075777,0.0,0.0,-0.49752027,1,0,0,0,0,0
126396446,-3.537572e-06,0.20374094,2.087163,0.0,0.50051975,-0.08788634,0.051163804,0.85973155,0.0,0.0,-0.49192798,1,0,0,0,0,0
126496686,1.902786e-06,0.19706193,2.087163,0.0,0.50068814,-0.08501343,0.049494356,0.8600199,0.0,0.0,-0.4849414,1,0,0,0,0,0
126596832,1.0761558e-08,0.21419337,2.087163,0.0,0.5002457,-0.09237738,0.053780437,0.8592604,0.0,0.0,-0.49262738,1,0,0,0,0,0
126696920,-3.4303678e-09,0.20046726,2.087163,0.0,0.500603,-0.0864781,0.050345972,0.85987407,0.0,0.0,-0.5014561,1,0,0,0,0,0
126796953,-9.499308e-10,0.15712914,2.087163,0.0,0.50157636,-0.06782659,0.039487414,0.861546,0.0,0.0,-0.4915096,1,0,0,0,0,0
126897051,7.4553574e-10,0.037603244,2.087163,0.0,0.50303936,-0.016247625,0.009459073,0.86405915,0.0,0.0,-0.48747548,1,0,0,0,0,0
126997108,-4.4052383e-11,0.0011442046,2.087163,0.0,0.50312823,-0.0004944175,0.0002878409,0.8642116,0.0,0.0,-0.4889754,1,0,0,0,0,0
127117181,-1.4617843e-13,1.3782586e-05,2.087163,0.0,0.5031283,-5.955536e-06,3.4672055e-06,0.8642119,0.0,0.0,-0.4923301,1,0,0,0,0,0
127217352,-1.1708096e-14,-3.0274552e-07,2.087163,0.0,0.5031283,1.3081811e-07,-7.615994e-08,0.8642119,0.0,0.0,-0.49372217,1,0,0,0,0,0
127317499,-3.5591096e-16,-8.848428e-09,2.087163,0.0,0.5031283,3.8234576e-09,-2.2259476e-09,0.8642119,0.0,0.0,-0.50180274,1,0,0,0,0,0
127417586,7.7756136e-19,-1.0356333e-10,2.087163,0.0,0.5031283,4.4750318e-11,-2.6052828e-11,0.8642119,0.0,0.0,-0.50030285,1,0,0,0,0,0
127517697,5.9808726e-20,1.8868158e-12,2.087163,0.0,0.5031283,-8.153041e-13,4.7465536e-13,0.8642119,0.0,0.0,-0.49793544,1,0,0,0,0,0
127617753,-7.5947685e-21,2.1851049e-13,2.087163,0.0,0.5031283,-9.4419664e-14,5.4969416e-14,0.8642119,0.0,0.0,-0.48862463,1,0,0,0,0,0
127717800,-7.320326e-23,-5.313451e-15,2.087163,0.0,0.5031283,2.2959732e-15,-1.3366741e-15,0.8642119,0.0,0.0,-0.4946166,1,0,0,0,0,0
127817935,-1.7997672e-24,-1.4682539e-16,2.087163,0.0,0.5031283,6.344411e-17,-3.6936016e-17,0.8642119,0.0,0.0,-0.49467072,1,0,0,0,0,0
127917970,-3.52361e-26,-1.3797816e-18,2.087163,0.0,0.5031283,5.9621173e-19,-3.4710367e-19,0.8642119,0.0,0.0,-0.50722533,1,0,0,0,0,0
128018065,6.2809583e-28,3.5621573e-20,2.087163,0.0,0.5031283,-1.539229e-20,8.961113e-21,0.8642119,0.0,0.0,-0.49885395,1,0,0,0,0,0
128118558,-3.9439482e-29,1.4064721e-21,2.087163,0.0,0.5031283,-6.077448e-22,3.5381805e-22,0.8642119,0.0,0.0,-0.50477076,1,0,0,0,0,0
128218623,-1.7756006e-30,3.1066598e-23,2.087163,0.0,0.5031283,-1.342406e-23,7.8152434e-24,0.8642119,0.0,0.0,-0.4977961,1,0,0,0,0,0
128318703,2.9217647e-33,-1.139274e-25,2.087163,0.0,0.5031283,4.9228695e-26,-2.8660056e-26,0.8642119,0.0,0.0,-0.5086086,1,0,0,0,0,0
128418697,4.290062e-34,-4.2185107e-26,2.087163,0.0,0.5031283,1.8228431e-26,-1.0612264e-26,0.8642119,0.0,0.0,-0.5015458,1,0,0,0,0,0
128538767,9.347667e-36,-3.120543e-28,2.087163,0.0,0.5031283,1.3484047e-28,-7.850169e-29,0.8642118,0.0,0.0,-0.48485318,1,0,0,0,0,0
128638734,-7.227256e-38,-1.9056272e-30,2.087163,0.0,0.5031283,8.234327e-31,-4.7938766e-31,0.8642119,0.0,0.0,-0.47610208,1,0,0,0,0,0
128738830,-1.3849473e-10,-0.0022195878,2.087163,0.0,0.503128,0.0009590966,-0.00055836875,0.86421126,0.0,0.0,-0.45093015,1,0,0,0,0,0
128838963,9.0920627e-10,-0.04726399,2.087163,0.0,0.5029878,0.020421145,-0.0118888235,0.8639705,0.0,0.0,-0.4576253,1,0,0,0,0,0
128939471,2.4094135e-10,-0.10700611,2.087163,0.0,0.5024084,0.046215907,-0.026906058,0.86297506,0.0,0.0,-0.48475754,1,0,0,0,0,0
129039580,-4.9353326e-09,-0.12112719,2.087163,0.0,0.50220585,0.052307777,-0.030452637,0.8626273,0.0,0.0,-0.4983769,1,0,0,0,0,0
129139576,-4.2455017e-09,-0.11722171,2.087163,0.0,0.5022644,0.050623193,-0.029471904,0.86272776,0.0,0.0,-0.50329036,1,0,0,0,0,0
129239614,3.9451136e-09,-0.11858389,2.087163,0.0,0.5022442,0.051210772,-0.029813983,0.8626932,0.0,0.0,-0.51128566,1,0,0,0,0,0
129339623,-1.5758946e-09,-0.13148062,2.087163,0.0,0.5020415,0.056772634,-0.033051994,0.86234504,0.0,0.0,-0.50910383,1,0,0,0,0,0
129439646,2.9406417e-09,-0.12760839,2.087163,0.0,0.5021046,0.055102922,-0.032079916,0.86245316,0.0,0.0,-0.49411932,1,0,0,0,0,0
129539629,3.0336786e-10,-0.13214403,2.087163,0.0,0.50203055,0.057058673,-0.03321852,0.8623261,0.0,0.0,-0.4841295,1,0,0,0,0,0
129639806,3.5200182e-10,-0.13620964,2.087163,0.0,0.5019619,0.058811493,-0.03423899,0.8622084,0.0,0.0,-0.48645666,1,0,0,0,0,0
129740024,-7.082003e-09,-0.14638802,2.087163,0.0,0.5017812,0.06319866,-0.03679311,0.8618978,0.0,0.0,-0.49320605,1,0,0,0,0,0
129841125,7.516411e-10,-0.13836196,2.087163,0.0,0.5019248,0.059739333,-0.034779154,0.8621445,0.0,0.0,-0.49060225,1,0,0,0,0,0
129960730,1.8931927e-09,-0.13035147,2.087163,0.0,0.5020601,0.056285758,-0.032768548,0.86237687,0.0,0.0,-0.49268708,1,0,0,0,0,0
130060195,-3.5534096e-09,-0.12570001,2.087163,0.0,0.502135,0.054279957,-0.0316008,0.8625054,0.0,0.0,-0.49218407,1,0,0,0,0,0
130160566,5.145708e-11,-0.108793445,2.087163,0.0,0.5023841,0.046987105,-0.027355036,0.86293346,0.0,0.0,-0.49218068,1,0,0,0,0,0
130260344,4.777549e-10,-0.038720857,2.087163,0.0,0.50303406,0.016730465,-0.009740171,0.86404985,0.0,0.0,-0.48968738,1,0,0,0,0,0
130360750,2.0644116e-12,0.0005143162,2.087163,0.0,0.5031283,-0.00022223903,0.00012938355,0.8642118,0.0,0.0,-0.4949535,1,0,0,0,0,0
130460581,-3.0484e-13,2.0584323e-05,2.087163,0.0,0.5031283,-8.894607e-06,5.1782786e-06,0.8642118,0.0,0.0,-0.49152213,1,0,0,0,0,0
130560752,-6.654894e-11,0.0011131037,2.087163,0.0,0.50312823,-0.00048097858,0.000280017,0.86421174,0.0,0.0,-0.50122106,1,0,0,0,0,0
130660890,-8.5812635e-10,0.06865078,2.087163,0.0,0.50283194,-0.029658578,0.017266687,0.8637027,0.0,0.0,-0.5108591,1,0,0,0,0,0
130761190,9.107847e-10,0.18370394,2.087163,0.0,0.5010074,-0.07926799,0.04614838,0.8605688,0.0,0.0,-0.5126935,1,0,0,0,0,0
130861613,-0.0031539637,0.20510717,2.087163,0.0,0.5003447,-0.08926188,0.050151475,0.8597514,0.0,0.0,-0.49013093,1,0,0,0,0,0
130961053,0.0001862043,0.19352603,2.087163,0.0,0.5007825,-0.08344666,0.04868837,0.8601646,0.0,0.0,-0.47705668,1,0,0,0,0,0
131061732,-0.00037467876,0.20306836,2.087163,0.0,0.50052065,-0.087690115,0.050835937,0.85977066,0.0,0.0,-0.48602155,1,0,0,0,0,0
131161246,4.9434933e-05,0.15007237,2.087163,0.0,0.50171417,-0.06477391,0.037738718,0.8617791,0.0,0.0,-0.48725083,1,0,0,0,0,0
131261389,9.640812e-07,-0.0029862048,2.087163,0.0,0.50312775,0.0012905987,-0.00075080525,0.86421084,0.0,0.0,-0.476367,1,0,0,0,0,0
131381740,1.2916464e-08,-6.925654e-05,2.087163,0.0,0.5031283,2.9929404e-05,-1.7416884e-05,0.8642118,0.0,0.0,-0.49205402,1,0,0,0,0,0
131481673,8.8479564e-11,-1.1024655e-06,2.087163,0.0,0.5031283,4.7640407e-07,-2.7730263e-07,0.8642119,0.0,0.0,-0.4930119,1,0,0,0,0,0
131581740,-1.0521146e-11,2.3942537e-08,2.087163,0.0,0.5031283,-1.0348356e-08,6.0185394e-09,0.8642119,0.0,0.0,-0.49354362,1,0,0,0,0,0
131681777,-1.6606605e-13,7.042943e-10,2.087163,0.0,0.5031283,-3.0437147e-10,1.7710348e-10,0.8642118,0.0,0.0,-0.49533233,1,0,0,0,0,0
131781820,-1.6754606e-15,1.3061199e-11,2.087163,-0.0,0.5031283,-5.644242e-12,3.2850064e-12,0.8642119,0.0,0.0,-0.49548838,1,0,0,0,0,0
131881989,1.0743554e-16,-1.4788138e-13,2.0936077,0.031753514,0.5003409,6.404683e-14,-3.694905e-14,0.8658287,0.0,0.0,-0.490511,1,0,0,0,0,0
131982039,-0.009224993,3.3690488e-11,2.0986876,0.39332142,0.49813488,-0.0022976613,-0.0039994656,0.8670873,0.0,0.0,-0.4896055,1,0,0,0,0,0
132082219,-0.024545925,-6.2473987e-10,2.1258667,0.6037702,0.48627445,-0.005968327,-0.01072367,0.87372,0.0,0.0,-0.48715577,1,0,0,0,0,0
132182356,0.00047419636,7.209537e-12,2.1609845,-0.0,0.47089413,0.00011164813,0.00020916555,0.8821897,0.0,0.0,-0.48388544,1,0,0,0,0,0
132282527,2.502793e-06,-1.2767783e-13,2.1609845,0.0,0.47089422,5.892753e-07,1.103969e-06,0.8821897,0.0,0.0,-0.48718637,1,0,0,0,0,0
132382484,-1.3992128e-07,-2.1169609e-15,2.1609845,0.0,0.47089422,-3.2944055e-08,-6.171856e-08,0.8821897,0.0,0.0,-0.4921284,1,0,0,0,0,0
132482553,-1.0155271e-08,3.4192968e-16,2.1609845,0.0,0.47089413,-2.3910287e-09,-4.4794373e-09,0.8821897,0.0,0.0,-0.49684098,1,0,0,0,0,0
132582638,-7.862938e-11,1.5702991e-19,2.1609845,0.0,0.47089422,-1.8513056e-11,-3.4683013e-11,0.8821897,0.0,0.0,-0.49364796,1,0,0,0,0,0
132682800,7.801615e-12,-1.3518278e-19,2.1609845,0.0,0.47089422,1.8368672e-12,3.441252e-12,0.8821897,0.0,0.0,-0.49109176,1,0,0,0,0,0
132782839,1.2783408e-13,7.642598e-21,2.1609845,0.0,0.47089422,3.0098154e-14,5.638695e-14,0.8821897,0.0,0.0,-0.4959984,1,0,0,0,0,0
132903203,9.996382e-16,5.162559e-24,2.1762376,-0.15947518,0.46415251,2.3199227e-16,4.427174e-16,0.8857553,0.0,0.0,-0.49686438,1,0,0,0,0,0
133003274,2.1750026e-18,-7.1781085e-26,2.1660223,-0.46564355,0.46867055,5.0967985e-19,9.606694e-19,0.883373,0.0,0.0,-0.49763826,1,0,0,0,0,0
133103347,-3.3445326e-19,1.0050681e-26,2.1376328,-0.66553,0.48116213,-8.0463115e-20,-1.4659614e-19,0.8766316,0.0,0.0,-0.494824,1,0,0,0,0,0
133203433,-1.9825627e-20,2.1606794e-28,2.091402,-0.75172913,0.50129545,-4.9692488e-21,-8.577321e-21,0.8652763,0.0,0.0,-0.48818338,1,0,0,0,0,0
133303476,7.221273e-22,2.561134e-29,2.0349636,-0.12160067,0.5255101,1.8974257e-22,3.0718842e-22,0.85078734,0.0,0.0,-0.4789942,1,0,0,0,0,0
133403500,1.6378243e-23,-8.617524e-31,2.0256205,0.0,0.52947885,4.335967e-24,6.94702e-24,0.8483232,0.0,0.0,-0.47999433,1,0,0,0,0,0
133503539,2.5613276e-25,1.6209018e-32,2.0256205,0.0,0.52947885,6.780842e-26,1.0864167e-25,0.84832317,0.0,0.0,-0.4827716,1,0,0,0,0,0
133603657,-5.89907e-27,1.5623966e-34,2.0256205,-0.0,0.52947885,-1.5617165e-27,-2.5021586e-27,0.8483232,0.0,0.0,-0.48367,1,0,0,0,0,0
133703797,-3.0802377e-28,-6.230376e-36,2.0256205,0.0,0.52947885,-8.1546034e-29,-1.3065184e-28,0.8483232,0.0,0.0,-0.4847874,1,0,0,0,0,0
133804032,-1.7853438e-30,-7.597693e-39,2.0256205,0.0,0.52947885,-4.726509e-31,-7.5727415e-31,0.8483232,0.0,0.0,-0.4895603,1,0,0,0,0,0
133904111,3.8096555e-32,-1.325491e-39,2.0256205,0.0,0.52947885,1.008566e-32,1.6159093e-32,0.8483232,0.0,0.0,-0.49083146,1,0,0,0,0,0
134004128,4.054762e-33,1.88794e-40,2.0256205,-0.0,0.52947885,1.0734553e-33,1.7198742e-33,0.8483232,0.0,0.0,-0.4933444,1,0,0,0,0,0
134124226,3.7832884e-35,-7.93e-43,2.0115876,0.43252605,0.5354179,1.0128203e-35,1.5976585e-35,0.8445874,0.0,0.0,-0.4948063,1,0,0,0,0,0
134224295,-2.7822885e-36,-8.5e-44,2.0359688,0.8303954,0.5250824,-7.304654e-37,-1.18393514e-36,0.85105145,0.0,0.0,-0.49564302,1,0,0,0,0,0
134324374,-4.9136654e-38,-3e-45,2.0913525,0.82332134,0.5013169,-1.2316515e-38,-2.1258082e-38,0.8652638,0.0,0.0,-0.4840395,1,0,0,0,0,0
134424503,-0.008318809,1.5833429e-10,2.156707,0.94019884,0.4727757,-0.0019664767,-0.0036651755,0.881173,0.0,0.0,-0.47801074,1,0,0,0,0,0
134524888,1.50918695e-05,-3.021255e-13,2.2326884,0.9252265,0.43897012,3.31244e-06,6.780035e-06,0.89850163,0.0,0.0,-0.47676724,1,0,0,0,0,0
134624770,3.2060047e-06,6.99604e-14,2.3152928,0.52661246,0.40149623,6.435993e-07,1.4681269e-06,0.91586065,0.0,0.0,-0.4808743,1,0,0,0,0,0
134724887,1.4805207e-07,3.1232646e-15,2.368115,-0.0,0.37717012,2.7920407e-08,6.855877e-08,0.926144,0.0,0.0,-0.48359329,1,0,0,0,0,0
134824925,7.23863e-10,1.5402581e-17,2.368115,-0.0,0.37717012,1.3650973e-10,3.3520065e-10,0.926144,0.0,0.0,-0.48815528,1,0,0,0,0,0
134924969,-1.3557115e-10,1.4561607e-18,2.368115,0.0,0.37717012,-2.556669e-11,-6.277919e-11,0.926144,0.0,0.0,-0.48870802,1,0,0,0,0,0
135025132,-1.0808117e-09,0.051163148,2.368115,0.0,0.37704676,-0.023689637,0.009647552,0.925841,0.0,0.0,-0.49136332,1,0,0,0,0,0
135125172,6.7819177e-09,0.15175776,2.368115,0.0,0.37608483,-0.07020736,0.028591795,0.92347914,0.0,0.0,-0.49794275,1,0,0,0,0,0
135225265,-1.1436229e-08,0.1965057,2.368115,-0.0,0.37535113,-0.09084996,0.03699844,0.92167723,0.0,0.0,-0.50204575,1,0,0,0,0,0
135325788,9.936999e-09,0.21227778,2.368115,-0.0,0.3750476,-0.09811542,0.039957292,0.92093223,0.0,0.0,-0.5019083,1,0,0,0,0,0
135425869,-1.2066554e-08,0.20696732,2.368115,-0.0,0.37515238,-0.095669806,0.038961314,0.9211894,0.0,0.0,-0.4939329,1,0,0,0,0,0
135545981,6.915934e-09,0.2047013,2.368115,0.0,0.37519637,-0.094626024,0.038536243,0.9212972,0.0,0.0,-0.49378142,1,0,0,0,0,0
135645957,2.402834e-09,0.21457927,2.368115,0.0,0.3750014,-0.09917511,0.040388845,0.9208187,0.0,0.0,-0.5030043,1,0,0,0,0,0
135745940,5.4694236e-09,0.20489505,2.368115,0.0,0.37519258,-0.094715275,0.03857259,0.9212881,0.0,0.0,-0.502534,1,0,0,0,0,0
135845966,-2.1704558e-09,0.17647919,2.368115,-0.0,0.37570274,-0.081616566,0.03323817,0.9225407,0.0,0.0,-0.49852985,1,0,0,0,0,0
135946043,-3.5285694e-09,0.1541216,2.368115,-0.0,0.37605083,-0.07129877,0.02903627,0.9233955,0.0,0.0,-0.4931843,1,0,0,0,0,0
136046299,1.4846749e-10,-0.009491345,2.368115,-0.0,0.37716585,0.004395159,-0.0017899191,0.9261336,0.0,0.0,-0.48470205,1,0,0,0,0,0
136146359,1.3077716e-12,-0.00013392224,2.368115,0.0,0.37717012,6.2015635e-05,-2.5255733e-05,0.926144,0.0,0.0,-0.49160162,1,0,0,0,0,0
136247454,-1.06626086e-13,4.168724e-06,2.368115,0.0,0.37717012,-1.930419e-06,7.861589e-07,0.926144,0.0,0.0,-0.49151424,1,0,0,0,0,0
136346464,-2.7864826e-15,1.0160332e-07,2.368115,0.0,0.37717012,-4.704965e-08,1.9160867e-08,0.926144,0.0,0.0,-0.50474596,1,0,0,0,0,0
136447233,-8.314396e-18,3.8019235e-10,2.368115,-0.0,0.37717012,-1.7605642e-10,7.169859e-11,0.926144,0.0,0.0,-0.49833715,1,0,0,0,0,0
136546759,0.122574724,1.2394068e-09,2.368115,-0.0,0.376462,0.02310129,0.056725394,0.92440516,0.0,0.0,-0.5071123,1,0,0,0,0,0
136646763,0.16043079,9.568044e-09,2.368115,0.0,0.37595734,0.030222414,0.07421137,0.9231659,0.0,0.0,-0.50306714,1,0,0,0,0,0
136766813,0.20430243,-7.6499956e-10,2.368115,-0.0,0.375204,0.038461417,0.09444229,0.9213161,0.0,0.0,-0.49512568,1,0,0,0,0,0
136867170,0.20598163,3.8515227e-10,2.368115,0.0,0.37517154,0.038776424,0.09521579,0.92123646,0.0,0.0,-0.49431157,1,0,0,0,0,0
136967778,0.08178479,-1.2003603e-09,2.368115,0.0,0.37685487,0.015419092,0.037861694,0.92536974,0.0,0.0,-0.4893972,1,0,0,0,0,0
137067242,0.0010444914,9.940406e-11,2.368115,-0.0,0.37717006,0.00019697542,0.00048367472,0.9261438,0.0,0.0,-0.5002173,1,0,0,0,0,0
137168286,5.994462e-06,-3.4101758e-13,2.368115,-0.0,0.37717012,1.1304661e-06,2.7758672e-06,0.926144,0.0,0.0,-0.5113304,1,0,0,0,0,0
137267382,-9.1056506e-07,2.1811166e-15,2.368115,-0.0,0.37717012,-1.7171895e-07,-4.2165715e-07,0.926144,0.0,0.0,-0.50077695,1,0,0,0,0,0
137368066,-1.3767091e-08,7.407875e-17,2.368115,0.0,0.37717012,-2.5962674e-09,-6.3751537e-09,0.926144,0.0,0.0,-0.4958806,1,0,0,0,0,0
137467527,3.5240236e-10,-2.0238906e-17,2.368115,0.0,0.37717012,6.645783e-11,1.6318766e-10,0.926144,0.0,0.0,-0.49476117,1,0,0,0,0,0
137568363,9.475159e-12,1.06063786e-19,2.368115,0.0,0.37717012,1.7868735e-12,4.3876808e-12,0.926144,0.0,0.0,-0.49993208,1,0,0,0,0,0
137667965,-0.037727542,1.0106641e-09,2.368115,0.0,0.37710303,-0.0071144295,-0.017469533,0.92597926,0.0,0.0,-0.49612632,1,0,0,0,0,0
137767986,-0.21232443,0.0067127123,2.368115,0.0,0.37471518,-0.043056775,-0.09687756,0.92105883,0.0,0.0,-0.50660354,1,0,0,0,0,0
137868087,-0.25369534,0.0012089727,2.368115,0.0,0.37406892,-0.048270293,-0.11693824,0.9187317,0.0,0.0,-0.49930236,1,0,0,0,0,0
137968345,-0.2403126,1.4813636e-05,2.368115,0.0,0.37444985,-0.04521721,-0.11101169,0.91946673,0.0,0.0,-0.48892346,1,0,0,0,0,0
138068164,-0.22247565,-2.4230022e-07,2.368115,0.0,0.374839,-0.041868996,-0.102809936,0.92041993,0.0,0.0,-0.4908014,1,0,0,0,0,0
138188247,-0.20322227,3.787348e-09,2.368115,0.0,0.37522468,-0.03825877,-0.09394468,0.921367,0.0,0.0,-0.49606922,1,0,0,0,0,0
138288357,-0.18774411,1.6681047e-09,2.368115,0.0,0.37550953,-0.035353754,-0.0868114,0.9220664,0.0,0.0,-0.4971871,1,0,0,0,0,0
138388857,-0.1976713,-2.8306553e-09,2.368115,0.0,0.37532938,-0.03721719,-0.09138708,0.9216242,0.0,0.0,-0.49638242,1,0,0,0,0,0
138489097,-0.19033366,6.0621868e-09,2.368115,0.0,0.37546352,-0.03583993,-0.088005215,0.9219532,0.0,0.0,-0.49562812,1,0,0,0,0,0
138588819,0.010731647,5.1634672e-11,2.368115,0.0,0.3771647,0.0020238187,0.0049695014,0.92613065,0.0,0.0,-0.49169496,1,0,0,0,0,0
138689539,-0.00011292078,3.4925396e-12,2.368115,0.0,0.37717012,-2.129517e-05,-5.229045e-05,0.926144,0.0,0.0,-0.4916835,1,0,0,0,0,0
138788932,-5.325994e-06,-1.5927645e-13,2.368115,0.0,0.37717012,-1.0044027e-06,-2.4663186e-06,0.926144,0.0,0.0,-0.49508667,1,0,0,0,0,0
138888967,-1.18387405e-07,-6.447244e-15,2.368115,0.0,0.37717012,-2.2326093e-08,-5.4821893e-08,0.926144,0.0,0.0,-0.49978846,1,0,0,0,0,0
138989047,1.0453665e-10,-2.9893e-18,2.368115,0.0,0.37717012,1.971405e-11,4.8407993e-11,0.926144,0.0,0.0,-0.4989798,1,0,0,0,0,0
139089153,1.7284381e-10,-4.1001887e-18,2.368115,0.0,0.37717012,3.259576e-11,8.003913e-11,0.926144,0.0,0.0,-0.50268763,1,0,0,0,0,0
139189242,2.2615061e-10,-0.037975926,2.368115,0.0,0.3771021,0.017584529,-0.007161261,0.92597705,0.0,0.0,-0.5078554,1,0,0,0,0,0
139289624,9.811155e-10,-0.09486528,2.368115,0.0,0.37674588,0.043912984,-0.017883467,0.92510235,0.0,0.0,-0.503802,1,0,0,0,0,0
139389613,-7.342108e-10,-0.17721769,2.368115,0.0,0.37569043,0.081957206,-0.033376895,0.92251056,0.0,0.0,-0.5065068,1,0,0,0,0,0
139489765,-1.911488e-09,-0.20956403,2.368115,0.0,0.37510154,0.09686574,-0.039448366,0.9210645,0.0,0.0,-0.5115996,1,0,0,0,0,0
139589827,-9.94481e-09,-0.1996355,2.368115,0.0,0.3752927,0.09229217,-0.037585787,0.921534,0.0,0.0,-0.51075214,1,0,0,0,0,0
139709848,-3.123013e-10,-0.18055725,2.368115,0.0,0.37563416,0.08349748,-0.034004167,0.9223724,0.0,0.0,-0.5021761,1,0,0,0,0,0
139809867,-7.815207e-09,-0.17240334,2.368115,0.0,0.37576964,0.079736315,-0.032472443,0.9227052,0.0,0.0,-0.5005996,1,0,0,0,0,0
139909949,-2.8642335e-09,-0.11655938,2.368115,0.0,0.3765298,0.053944834,-0.021968916,0.9245716,0.0,0.0,-0.4952965,1,0,0,0,0,0
140010058,4.9813636e-11,-0.00063999795,2.368115,0.0,0.37717012,0.0002963651,-0.00012069403,0.926144,0.0,0.0,-0.498993,1,0,0,0,0,0
140110224,4.728766e-12,8.165742e-05,2.368115,0.0,0.37717012,-3.781326e-05,1.5399371e-05,0.926144,0.0,0.0,-0.48922887,1,0,0,0,0,0
140210637,-4.1619743e-14,1.2717096e-06,2.368115,0.0,0.37717012,-5.888931e-07,2.398254e-07,0.926144,0.0,0.0,-0.4922067,1,0,0,0,0,0
140310464,4.0037892e-16,-2.9684928e-08,2.368115,0.0,0.37717012,1.37462575e-08,-5.5981335e-09,0.926144,0.0,0.0,-0.49448353,1,0,0,0,0,0
140410574,1.1345181e-09,0.031006098,2.368115,0.0,0.37712485,-0.01435748,0.0058470536,0.9260327,0.0,0.0,-0.488859,1,0,0,0,0,0
140510592,-1.2431188e-09,0.11969531,2.368115,0.0,0.37649488,-0.05539446,0.022559272,0.92448586,0.0,0.0,-0.495937,1,0,0,0,0,0
140610643,-2.7125087e-09,0.16762158,2.368115,0.0,0.37584627,-0.07753002,0.031573933,0.9228932,0.0,0.0,-0.5070366,1,0,0,0,0,0
140710760,-6.6487177e-10,0.1616198,2.368115,0.0,0.3759393,-0.07476017,0.030445917,0.9231217,0.0,0.0,-0.5131971,1,0,0,0,0,0
140810928,-6.4359484e-10,0.105899185,2.368115,0.0,0.37664154,-0.049016036,0.019961674,0.924846,0.0,0.0,-0.50103414,1,0,0,0,0,0
140930999,-7.9468203e-13,-0.00015637356,2.368115,0.0,0.37717012,7.2412215e-05,-2.9489715e-05,0.926144,0.0,0.0,-0.48479992,1,0,0,0,0,0
141031232,3.8834977e-12,-5.6461322e-05,2.368115,0.0,0.37717012,2.6145655e-05,-1.0647759e-05,0.926144,0.0,0.0,-0.49593598,1,0,0,0,0,0
141131316,9.4693955e-15,-6.6234423e-07,2.368115,0.0,0.37717012,3.0671302e-07,-1.2490821e-07,0.926144,0.0,0.0,-0.49515638,1,0,0,0,0,0
141231341,-1.5690057e-16,3.1738242e-08,2.368115,0.0,0.37717012,-1.469709e-08,5.985358e-09,0.926144,0.0,0.0,-0.49192885,1,0,0,0,0,0
141331458,-3.2947974e-17,6.4411926e-10,2.368115,0.0,0.37717012,-2.982736e-10,1.2147125e-10,0.926144,0.0,0.0,-0.49498764,1,0,0,0,0,0
141431462,9.56774e-20,-3.7942943e-12,2.368115,0.0,0.37717012,1.7570313e-12,-7.1554714e-13,0.926144,0.0,0.0,-0.49704623,1,0,0,0,0,0
141531560,4.9737918e-21,-2.8167017e-13,2.368115,0.0,0.37717012,1.3043356e-13,-5.311878e-14,0.926144,0.0,0.0,-0.4986027,1,0,0,0,0,0
141631796,-3.592335e-22,-6.8879627e-15,2.3647435,-0.3605228,0.37873083,3.1874282e-15,-1.304342e-15,0.9255069,0.0,0.0,-0.49567923,1,0,0,0,0,0
141732134,6.246043e-26,-2.6871096e-17,2.3407602,-0.86812985,0.38980165,1.2372779e-17,-5.237199e-18,0.92089885,0.0,0.0,-0.4903099,1,0,0,0,0,0
141832231,-5.301499e-26,2.1531964e-18,2.2833378,-0.87866336,0.41607746,-9.789822e-19,4.479482e-19,0.9093292,0.0,0.0,-0.48121816,1,0,0,0,0,0
141932321,1.0311317e-26,1.4267181e-19,2.2138171,-0.83628786,0.4474284,-6.379711e-20,3.1917717e-20,0.8943197,0.0,0.0,-0.4780165,1,0,0,0,0,0
142032354,-1.0179918e-29,1.0367625e-21,2.140956,-0.9755218,0.47970495,-4.548432e-22,2.4867004e-22,0.87742984,0.0,0.0,-0.48849785,1,0,0,0,0,0
142132328,2.4069657e-32,-1.1701098e-23,2.0584626,-0.8848958,0.5154777,5.0133527e-24,-3.0158275e-24,0.85690296,0.0,0.0,-0.49911928,1,0,0,0,0,0
142232350,7.5547605e-32,-1.8160335e-24,1.9758123,-0.7960562,0.5504392,7.5808074e-25,-4.998079e-25,0.8348752,0.0,0.0,-0.49741045,1,0,0,0,0,0
142352449,3.1090809e-34,-1.8886828e-26,1.8805081,-0.89590794,0.58958286,7.62752e-27,-5.567675e-27,0.8077079,0.0,0.0,-0.48858684,1,0,0,0,0,0
142452552,7.9484345e-38,-1.2273611e-29,1.7960986,-0.9285986,0.6231368,4.799674e-30,-3.8240697e-30,0.7821129,0.0,0.0,-0.4885541,1,0,0,0,0,0
142553000,-1.9753145e-37,2.1432576e-29,1.7066959,-1.0553948,0.65746415,-8.07457e-30,7.045577e-30,0.75348586,0.0,0.0,-0.4926566,1,0,0,0,0,0
142653027,5.1152e-40,2.7737534e-31,1.6095726,-1.0509915,0.69326526,-9.994977e-32,9.614734e-32,0.72068256,0.0,0.0,-0.4989407,1,0,0,0,0,0
143153937,1e-45,2.450554e-39,1.1228001,0.0,0.8465106,-6.52303e-40,1.03721e-39,0.53237194,0.0,0.0,-0.48343122,1,0,0,0,0,0
143874780,0.0,-0.0,1.1228001,0.0,0.8465106,0.0,-0.0,0.53237194,0.0,0.0,-0.496983,1,0,0,0,0,0
143974067,0.0,-0.0,1.1228001,0.0,0.8465106,0.0,-0.0,0.53237194,0.0,0.0,-0.49355727,1,0,0,0,0,0
144074174,0.0,-0.0,1.1228001,0.0,0.8465106,0.0,-0.0,0.53237194,0.0,0.0,-0.49747285,1,0,0,0,0,0
144174351,-0.058658745,-9.537053e-10,1.1228001,0.0,0.8461465,-0.024824064,-0.015611895,0.5321429,0.0,0.0,-0.50082463,1,0,0,0,0,0
144274446,-0.21538761,0.00723852,1.1228001,-0.0,0.8413938,-0.09290287,-0.054176033,0.5296135,0.0,0.0,-0.5071893,1,0,0,0,0,0
144374556,-0.32737127,0.024042478,1.1228001,0.0,0.83409244,-0.14424782,-0.07670691,0.5268761,0.0,0.0,-0.51847214,1,0,0,0,0,0
144474583,-0.34695518,0.024197709,1.1228001,0.0,0.83263206,-0.15244873,-0.0817975,0.52611065,0.0,0.0,-0.50380945,1,0,0,0,0,0
144574600,-0.35469693,0.012395023,1.1228001,0.0,0.8326349,-0.15258636,-0.088755436,0.5249371,0.0,0.0,-0.49905762,1,0,0,0,0,0
144675264,-0.2852857,-0.0006828255,1.1228001,0.0,0.837939,-0.12015971,-0.07596786,0.5269239,0.0,0.0,-0.49762622,1,0,0,0,0,0
144774813,-0.13121979,8.676293e-05,1.1228001,-0.0,0.84468776,-0.055522677,-0.034867167,0.5312288,0.0,0.0,-0.4888915,1,0,0,0,0,0
144875283,0.006772021,-4.3375077e-09,1.1228001,0.0,0.84650576,0.0028662893,0.0018026114,0.53236884,0.0,0.0,-0.49521646,1,0,0,0,0,0
144995330,6.550114e-05,1.3336397e-08,1.1228001,-0.0,0.8465106,2.7720154e-05,1.7441127e-05,0.53237194,0.0,0.0,-0.50285095,1,0,0,0,0,0
145095293,-7.2074e-07,-8.90848e-10,1.1228001,0.0,0.8465106,-3.048199e-07,-1.9222792e-07,0.53237194,0.0,0.0,-0.5039428,1,0,0,0,0,0
145195371,-3.2907973e-08,-1.6175958e-11,1.1228001,0.0,0.8465106,-1.39241685e-08,-8.766487e-09,0.53237194,0.0,0.0,-0.5036915,1,0,0,0,0,0
145295384,-7.248554e-10,-2.018e-13,1.1228001,0.0,0.8465106,-3.0674518e-10,-1.9303174e-10,0.53237194,0.0,0.0,-0.5045848,1,0,0,0,0,0
145395447,9.885724e-13,8.469581e-15,1.1228001,-0.0,0.8465106,4.1616407e-13,2.6672889e-13,0.53237194,0.0,0.0,-0.5031522,1,0,0,0,0,0
145495518,2.751905e-13,1.8095178e-16,1.1228001,-0.0,0.8465106,1.1642767e-13,7.3328435e-14,0.53237194,0.0,0.0,-0.50162256,1,0,0,0,0,0
145595647,1.306671e-14,-5.433099e-19,1.1228001,0.0,0.8465106,5.530699e-15,3.4779448e-15,0.53237194,0.0,0.0,-0.4957072,1,0,0,0,0,0
145695812,0.046951182,2.6802652e-10,1.1228001,0.0,0.84627736,0.019870512,0.012496597,0.5322252,0.0,0.0,-0.49773097,1,0,0,0,0,0
145796070,0.17887643,1.7685654e-09,1.1228001,0.0,0.84312713,0.0756095,0.04755094,0.53024405,0.0,0.0,-0.50556344,1,0,0,0,0,0
145896141,0.25017077,1.0933741e-09,1.1228001,0.0,0.83989686,0.1056102,0.066418424,0.5282124,0.0,0.0,-0.5070594,1,0,0,0,0,0
145996156,0.25633144,-2.1245252e-09,1.1228001,0.0,0.83956754,0.108196855,0.06804517,0.52800536,0.0,0.0,-0.49967626,1,0,0,0,0,0
146096197,0.2579221,3.4589782e-09,1.1228001,0.0,0.8394812,0.108864546,0.06846509,0.52795106,0.0,0.0,-0.5014941,1,0,0,0,0,0
146196259,-0.06532348,7.2455636e-10,1.1228001,0.0,0.8460591,-0.027643595,-0.017385101,0.532088,0.0,0.0,-0.48617345,1,0,0,0,0,0
146296357,-0.0018840588,4.0802268e-11,1.1228001,0.0,0.84651023,-0.00079743774,-0.0005015099,0.53237164,0.0,0.0,-0.4780593,1,0,0,0,0,0
146416443,-1.8999628e-05,0.061140135,1.1228001,0.0,0.84611493,-0.016280144,0.025868798,0.5321234,0.0,0.0,-0.44873166,1,0,0,0,0,0
146516698,2.4743184e-07,0.22657342,1.1228001,0.0,0.8410844,-0.06018163,0.09569346,0.5289593,0.0,0.0,-0.47562927,1,0,0,0,0,0
146617011,1.2815813e-08,0.28483766,1.1228001,0.0,0.83794016,-0.075563714,0.12015191,0.526982,0.0,0.0,-0.49597704,1,0,0,0,0,0
146716925,3.788375e-09,0.3312232,1.1228001,0.0,0.8349284,-0.08776447,0.139552,0.52508783,0.0,0.0,-0.5017058,1,0,0,0,0,0
146816963,2.1042217e-09,0.3122563,1.1228001,0.0,0.83621424,-0.082780965,0.13162784,0.52589655,0.0,0.0,-0.50376946,1,0,0,0,0,0
146916981,-1.0470486e-08,0.26624563,1.1228001,0.0,0.83902085,-0.0706617,0.11235731,0.5276616,0.0,0.0,-0.4998402,1,0,0,0,0,0
147017054,3.2098466e-09,0.27706218,1.1228001,0.0,0.83840096,-0.073514394,0.116893314,0.52727175,0.0,0.0,-0.50579274,1,0,0,0,0,0
147117172,4.1188524e-09,0.21725126,1.1228001,0.0,0.84152126,-0.057715565,0.09177202,0.5292341,0.0,0.0,-0.49594784,1,0,0,0,0,0
147217254,-1.0491584e-08,0.19507243,1.1228001,0.0,0.8424872,-0.05184325,0.08243458,0.5298416,0.0,0.0,-0.48745602,1,0,0,0,0,0
147317527,-1.5835522e-10,-0.008902552,1.1228001,0.0,0.84650224,0.002369726,-0.0037680396,0.53236663,0.0,0.0,-0.47761267,1,0,0,0,0,0
147417584,-5.7317124e-12,-0.00015201593,1.1228001,0.0,0.8465106,4.04645e-05,-6.434155e-05,0.53237194,0.0,0.0,-0.4839906,1,0,0,0,0,0
147517665,-1.7679633e-14,2.545657e-06,1.1228001,0.0,0.8465106,-6.776181e-07,1.0774629e-06,0.53237194,0.0,0.0,-0.490519,1,0,0,0,0,0
147617751,-2.5689832e-15,8.748973e-08,1.1228001,0.0,0.8465106,-2.3288537e-08,3.7030492e-08,0.53237194,0.0,0.0,-0.4915491,1,0,0,0,0,0
147717836,2.813033e-18,1.547155e-09,1.1228001,0.0,0.8465106,-4.1183085e-10,6.548415e-10,0.53237194,0.0,0.0,-0.49428838,1,0,0,0,0,0
147817851,0.008810403,0.0054580723,1.1228001,0.0,0.8465056,0.0022761773,0.004655322,0.5323546,0.0,0.0,-0.49545228,1,0,0,0,0,0
147938028,0.068245396,4.6941255e-05,1.1228001,0.0,0.84601825,0.028867133,0.018182298,0.5320613,0.0,0.0,-0.49484193,1,0,0,0,0,0
148038136,0.12896164,-2.409437e-07,1.1228001,0.0,0.8447514,0.054545943,0.03430389,0.5312655,0.0,0.0,-0.50354797,1,0,0,0,0,0
148138214,0.16404684,-0.0022196597,1.1228001,0.0,0.84361565,0.069944665,0.042681653,0.53065866,0.0,0.0,-0.50062764,1,0,0,0,0,0
148238705,0.22329825,-0.031019088,1.1228001,0.0,0.8402189,0.1025097,0.046261586,0.53045624,0.0,0.0,-0.5079516,1,0,0,0,0,0
148338719,0.2863484,-0.024894975,1.1228001,0.0,0.8368387,0.12733419,0.065527044,0.5283873,0.0,0.0,-0.51367027,1,0,0,0,0,0
148438727,0.36353198,-0.017905047,1.1228001,0.0,0.8316703,0.15770231,0.08877782,0.52495044,0.0,0.0,-0.5194869,1,0,0,0,0,0
148538744,0.34605765,-0.0062329792,1.1228001,0.0,0.8335807,0.14737462,0.089057535,0.52487403,0.0,0.0,-0.4945498,1,0,0,0,0,0
148638751,0.30981654,0.00039992,1.1228001,0.0,0.8363906,0.13050248,0.08230661,0.525971,0.0,0.0,-0.4857771,1,0,0,0,0,0
148738786,0.29790452,-4.414088e-06,1.1228001,0.0,0.8371371,0.12562509,0.07900324,0.5264772,0.0,0.0,-0.49145314,1,0,0,0,0,0
148839191,0.18718922,-2.0321347e-07,1.1228001,0.0,0.84280556,0.07911326,0.04975434,0.5300418,0.0,0.0,-0.48849824,1,0,0,0,0,0
148939012,0.056711975,-5.784824e-09,1.1228001,0.0,0.84617025,0.024000429,0.015093905,0.53215784,0.0,0.0,-0.49007097,1,0,0,0,0,0
149039541,-0.00048244433,3.6044806e-10,1.1228001,0.0,0.8465106,-0.00020419722,-0.00012841975,0.5323719,0.0,0.0,-0.5001889,1,0,0,0,0,0
149139537,-4.174224e-05,8.2628505e-12,1.1228001,0.0,0.8465106,-1.7667628e-05,-1.1111196e-05,0.53237194,0.0,0.0,-0.49476233,1,0,0,0,0,0
149239570,-0.037359986,-6.5773004e-10,1.1228001,0.0,0.8463629,-0.015811894,-0.009944126,0.532279,0.0,0.0,-0.49325135,1,0,0,0,0,0
149359573,-0.11237933,-4.6673354e-09,1.1228001,0.0,0.8451747,-0.047540117,-0.02989806,0.5315317,0.0,0.0,-0.49176484,1,0,0,0,0,0
149459609,-0.18257672,0.0185312,1.1228001,0.0,0.8424999,-0.0820781,-0.04071914,0.53084743,0.0,0.0,-0.49511278,1,0,0,0,0,0
149559655,-0.09162564,-0.0010498104,1.1228001,0.0,0.8456351,-0.038488314,-0.02482479,0.531793,0.0,0.0,-0.48837352,1,0,0,0,0,0
149659902,0.0024349792,1.6596492e-06,1.1228001,0.0,0.84650993,0.0010301758,0.00064885954,0.5323715,0.0,0.0,-0.48451415,1,0,0,0,0,0
149760355,1.7950575e-05,4.014628e-07,1.1228001,0.0,0.8465106,7.4908116e-06,4.948112e-06,0.53237194,0.0,0.0,-0.4991233,1,0,0,0,0,0
149860072,-1.9172926e-06,1.8808269e-08,1.1228001,0.0,0.8465106,-8.165108e-07,-5.0239566e-07,0.53237194,0.0,0.0,-0.51142037,1,0,0,0,0,0
149960407,-3.0918535e-08,9.4069134e-11,1.1228001,0.0,0.8465106,-1.3111475e-08,-8.1902645e-09,0.53237194,0.0,0.0,-0.5145727,1,0,0,0,0,0
150060178,6.4225625e-10,-1.7113684e-11,1.1228001,0.0,0.8465106,2.763938e-10,1.6371614e-10,0.53237194,0.0,0.0,-0.5091512,1,0,0,0,0,0
150160332,1.9379899e-11,-2.5200984e-13,1.1228001,0.0,0.8465106,8.269726e-12,5.0519922e-12,0.53237194,0.0,0.0,-0.5004554,1,0,0,0,0,0
150260286,3.6417088e-13,-2.2130034e-15,1.1228001,0.0,0.8465106,1.5472634e-13,9.600051e-14,0.53237194,0.0,0.0,-0.49157044,1,0,0,0,0,0
150360936,-3.8227575e-15,1.8007449e-16,1.1228001,0.0,0.8465106,-1.6659357e-15,-9.413469e-16,0.53237194,0.0,0.0,-0.49043384,1,0,0,0,0,0
150480732,-1.8061252e-16,3.0948543e-18,1.1279039,-0.39046213,0.8451493,-7.714941e-17,-4.6963626e-17,0.53453034,0.0,0.0,-0.49423543,1,0,0,0,0,0
150580741,-4.0165843e-18,3.5840818e-20,1.1093926,-0.50844824,0.8500604,-1.7166079e-18,-1.0425041e-18,0.52668524,0.0,0.0,-0.4912359,1,0,0,0,0,0
150680940,3.447456e-21,-1.7637011e-21,1.0755517,-0.5300334,0.85885006,1.9321315e-21,1.2556265e-22,0.5122271,0.0,0.0,-0.48763213,1,0,0,0,0,0
150780928,1.499035e-21,-3.544401e-23,1.0355786,-0.49986148,0.8689155,6.600391e-22,3.555826e-22,0.49496055,0.0,0.0,-0.48680082,1,0,0,0,0,0
150880952,7.344159e-23,2.2893224e-25,0.9958421,0.0,0.87857735,3.2207392e-23,1.7638422e-23,0.47760007,0.0,0.0,-0.48968777,1,0,0,0,0,0
150980998,3.9215466e-25,1.5755964e-26,0.9958421,0.0,0.87857735,1.6850659e-25,1.0056797e-25,0.47760007,0.0,0.0,-0.48942974,1,0,0,0,0,0
151081118,-6.5540813e-26,5.4678596e-28,0.9958421,-0.0,0.87857735,-2.8921912e-26,-1.5410952e-26,0.47760007,0.0,0.0,-0.48904434,1,0,0,0,0,0
151181203,-9.766868e-28,1.254827e-30,0.9958421,-0.0,0.87857735,-4.293471e-28,-2.3268159e-28,0.47760007,0.0,0.0,-0.48901108,1,0,0,0,0,0
151281547,2.169726e-10,0.006675748,0.9958421,0.0,0.8785725,-0.0015941658,0.002932575,0.4775974,0.0,0.0,-0.49370015,1,0,0,0,0,0
151381553,1.1492559e-08,0.18416405,0.9958421,0.0,0.8748552,-0.043916248,0.0807869,0.4755767,0.0,0.0,-0.5128141,1,0,0,0,0,0
151481633,6.929066e-09,0.30584675,0.9958421,0.0,0.86832434,-0.07275188,0.13383196,0.47202644,0.0,0.0,-0.53107756,1,0,0,0,0,0
151581896,8.437556e-11,0.3557548,0.9958421,-0.0,0.86471474,-0.08450695,0.15545622,0.47006425,0.0,0.0,-0.5190479,1,0,0,0,0,0
151681824,-6.61951e-09,0.37719095,0.9958421,-0.0,0.8629989,-0.0895402,0.16471522,0.4691315,0.0,0.0,-0.5067044,1,0,0,0,0,0
151781811,-5.277001e-09,0.32800937,0.9958421,-0.0,0.8667881,-0.07797797,0.14344572,0.4711913,0.0,0.0,-0.4874681,1,0,0,0,0,0
151902375,1.6558852e-08,0.31472382,0.9958421,0.0,0.8677218,-0.074846245,0.1376847,0.47169888,0.0,0.0,-0.5003102,1,0,0,0,0,0
152002043,1.6186382e-08,0.30382797,0.9958421,0.0,0.86845905,-0.07227537,0.13295542,0.47209963,0.0,0.0,-0.5080978,1,0,0,0,0,0
152102201,1.2260232e-08,0.3064999,0.9958421,0.0,0.8682806,-0.07290602,0.13411553,0.4720027,0.0,0.0,-0.51444167,1,0,0,0,0,0
152202364,-1.9101664e-08,0.3059746,0.9958421,0.0,0.86831576,-0.07278207,0.13388748,0.47202188,0.0,0.0,-0.5151779,1,0,0,0,0,0
152302454,-8.240359e-09,0.26918977,0.9958421,-0.0,0.87063134,-0.06408861,0.1178953,0.47328046,0.0,0.0,-0.4979711,1,0,0,0,0,0
152402567,3.0694163e-09,0.27113226,0.9958421,-0.0,0.8705164,-0.064548254,0.11874084,0.47321802,0.0,0.0,-0.49811342,1,0,0,0,0,0
152502557,-4.18909e-09,0.2719773,0.9958421,-0.0,0.8704662,-0.064748175,0.11910864,0.47319075,0.0,0.0,-0.49889883,1,0,0,0,0,0
152602619,-1.207184e-08,0.26795673,0.9958421,0.0,0.8707038,-0.06379682,0.11735851,0.47332,0.0,0.0,-0.5066054,1,0,0,0,0,0
152702751,5.010315e-09,0.103335924,0.9958421,0.0,0.8774049,-0.024665637,0.045374103,0.47696275,0.0,0.0,-0.49417704,1,0,0,0,0,0
152802844,-1.0185992e-13,-4.9194323e-06,0.9958421,0.0,0.87857735,1.1747605e-06,-2.161051e-06,0.47760007,0.0,0.0,-0.48780492,1,0,0,0,0,0
152902994,-2.8398638e-13,-2.4087049e-05,0.9958421,-0.0,0.87857735,5.7519883e-06,-1.0581169e-05,0.47760007,0.0,0.0,-0.48973203,1,0,0,0,0,0
153003179,5.03761e-15,-3.0494948e-07,0.9958421,-0.0,0.87857735,7.282195e-08,-1.3396085e-07,0.47760007,0.0,0.0,-0.4886138,1,0,0,0,0,0
153103547,-5.1114733e-18,-1.7052852e-09,0.9958421,-0.0,0.87857735,4.0722217e-10,-7.4911255e-10,0.47760007,0.0,0.0,-0.49838638,1,0,0,0,0,0
153223381,1.7678488e-18,3.947971e-11,0.9958421,-0.0,0.87857735,-9.4277555e-12,1.7342992e-11,0.47760007,0.0,0.0,-0.4993293,1,0,0,0,0,0
153323523,2.0478304e-20,1.6094935e-12,0.9958421,0.0,0.87857735,-3.843471e-13,7.070323e-13,0.47760007,0.0,0.0,-0.50028026,1,0,0,0,0,0
153423533,1.9647177e-22,3.423435e-14,0.9958421,0.0,0.87857735,-8.175164e-15,1.5038763e-14,0.47760007,0.0,0.0,-0.50467885,1,0,0,0,0,0
153523554,-4.303918e-24,-1.1127215e-16,0.9958421,0.0,0.87857735,2.657179e-17,-4.8880597e-17,0.47760007,0.0,0.0,-0.4976856,1,0,0,0,0,0
153623649,1.7548037e-24,-4.9039803e-17,0.9958421,0.0,0.87857735,1.1710709e-17,-2.154263e-17,0.47760007,0.0,0.0,-0.49277064,1,0,0,0,0,0
153723878,1.776606e-26,-5.8417573e-19,0.9958421,0.0,0.87857735,1.3950119e-19,-2.566218e-19,0.47760007,0.0,0.0,-0.49673215,1,0,0,0,0,0
153823959,-1.7595296e-28,2.7106844e-20,0.9958421,0.0,0.87857735,-6.473116e-21,1.190773e-20,0.47760007,0.0,0.0,-0.5063443,1,0,0,0,0,0
153924112,1.8432329e-29,5.5682266e-22,0.9958421,0.0,0.87857735,-1.3296927e-22,2.446059e-22,0.47760007,0.0,0.0,-0.49847564,1,0,0,0,0,0
154024169,3.1217745e-32,7.972011e-24,0.9958421,0.0,0.87857735,-1.9037166e-24,3.5020147e-24,0.47760007,0.0,0.0,-0.49628213,1,0,0,0,0,0
154124182,5.7823978e-33,-2.3858652e-25,0.9958421,0.0,0.87857735,5.697447e-26,-1.0480836e-25,0.47760007,0.0,0.0,-0.49540123,1,0,0,0,0,0
