timestamp,x,y,z,yaw,yawspeed,vx,vy,vz,acc_x,acc_y,acc_z,jerk_x,jerk_y,jerk_z,thrust[0],thrust[1],thrust[2]
102632825,nan,nan,0.044604894,-1.3569651,0.0,nan,nan,-0.0,nan,nan,nan,nan,nan,nan,0.0,0.0,nan
102652833,nan,nan,0.042975087,-1.3570079,0.0,nan,nan,-0.0,nan,nan,nan,nan,nan,nan,0.0,0.0,nan
102852927,nan,nan,0.030519612,-1.3573812,0.0,nan,nan,-0.0,nan,nan,nan,nan,nan,nan,0.0,0.0,nan
103053089,nan,nan,0.020453576,-1.3579233,0.0,nan,nan,-0.0,nan,nan,nan,nan,nan,nan,0.0,0.0,nan
103253402,nan,nan,0.010245741,-1.3581276,0.0,nan,nan,-0.0,nan,nan,nan,nan,nan,nan,0.0,0.0,nan
103453720,nan,nan,0.01126412,-1.3582534,0.0,nan,nan,-0.0,nan,nan,nan,nan,nan,nan,0.0,0.0,nan
103653803,nan,nan,0.018322818,-1.3583142,0.0,nan,nan,-0.0,nan,nan,nan,nan,nan,nan,0.0,0.0,nan
103853911,nan,nan,0.023632424,-1.3584083,0.0,nan,nan,-0.0,nan,nan,nan,nan,nan,nan,0.0,0.0,nan
104054134,nan,nan,0.03006019,-1.3583978,0.0,nan,nan,-0.0,nan,nan,nan,nan,nan,nan,0.0,0.0,nan
104254383,nan,nan,0.033487268,-1.358351,0.0,nan,nan,-0.0,nan,nan,nan,nan,nan,nan,0.0,0.0,nan
104474539,nan,nan,0.031199187,-1.3583729,0.0,nan,nan,-0.0,nan,nan,nan,nan,nan,nan,0.0,0.0,nan
104674698,nan,nan,0.028339371,-1.3583499,0.0,nan,nan,-0.0,nan,nan,nan,nan,nan,nan,0.0,0.0,nan
104874985,nan,nan,0.030434847,-1.3584229,0.0,nan,nan,-0.0,nan,nan,nan,nan,nan,nan,0.0,0.0,nan
105075248,nan,nan,0.028948084,-1.3584937,0.0,nan,nan,-0.0,nan,nan,nan,nan,nan,nan,0.0,0.0,nan
105275360,nan,nan,0.021080967,-1.3584913,0.0,nan,nan,-0.0,nan,nan,nan,nan,nan,nan,0.0,0.0,nan
105475511,nan,nan,0.013806426,-1.3586016,0.0,nan,nan,-0.0,nan,nan,nan,nan,nan,nan,0.0,0.0,nan
105675782,nan,nan,0.00630347,-1.3586848,0.0,nan,nan,-0.0,nan,nan,nan,nan,nan,nan,0.0,0.0,nan
105896231,nan,nan,0.0031931885,-1.3589494,0.0,nan,nan,-0.0,nan,nan,nan,nan,nan,nan,0.0,0.0,nan
106096346,nan,nan,-0.0007735316,-1.3593495,0.0,nan,nan,0.0,nan,nan,nan,nan,nan,nan,0.0,0.0,nan
106296425,nan,nan,-0.0005996761,-1.3595428,0.0,nan,nan,-0.0,nan,nan,nan,nan,nan,nan,0.0,0.0,nan
106497154,nan,nan,1.9347877e-05,-1.3594091,0.0,nan,nan,-0.0,nan,nan,nan,nan,nan,nan,0.0,0.0,nan
106696990,nan,nan,0.006160704,-1.3592582,0.0,nan,nan,-0.0,nan,nan,nan,nan,nan,nan,0.0,0.0,nan
106897029,nan,nan,0.011681269,-1.3594044,0.0,nan,nan,0.0,nan,nan,nan,nan,nan,nan,0.0,0.0,nan
107097231,nan,nan,nan,-1.359574,0.0,nan,nan,-0.21312444,nan,nan,nan,nan,nan,nan,0.0,0.0,nan
107297612,nan,nan,nan,-1.3596859,0.0,nan,nan,-0.1971484,nan,nan,nan,nan,nan,nan,0.0,0.0,nan
107497681,nan,nan,nan,-1.3599799,0.0,nan,nan,-0.4975447,nan,nan,nan,nan,nan,nan,0.0,0.0,nan
107718442,nan,nan,0.008352804,-1.3601773,0.0,nan,nan,0.0,nan,nan,nan,nan,nan,nan,0.0,0.0,nan
107917951,nan,nan,0.011055147,-1.3601483,0.0,nan,nan,0.0,nan,nan,nan,nan,nan,nan,0.0,0.0,nan
108118320,nan,nan,nan,-1.3600346,0.0,nan,nan,-0.7353478,nan,nan,nan,nan,nan,nan,0.0,0.0,nan
108318659,nan,nan,nan,-1.3600346,0.0,nan,nan,-0.7863872,nan,nan,nan,nan,nan,nan,0.0,0.0,nan
108519601,nan,nan,0.018834189,-1.3600346,0.0,nan,nan,-0.0,nan,nan,nan,nan,nan,nan,0.0,0.0,nan
108718846,nan,nan,0.018834189,-1.3600346,0.0,nan,nan,-0.0,nan,nan,nan,nan,nan,nan,0.0,0.0,nan
108919139,nan,nan,0.018834189,-1.3600346,0.0,nan,nan,-0.0,nan,nan,nan,nan,nan,nan,0.0,0.0,nan
109119332,nan,nan,0.018834189,-1.3600346,0.0,nan,nan,-0.0,nan,nan,nan,nan,nan,nan,0.0,0.0,nan
109339425,nan,nan,0.018834189,-1.3600346,0.0,nan,nan,-0.0,nan,nan,nan,nan,nan,nan,0.0,0.0,nan
109539599,nan,nan,nan,-1.3600346,0.0,nan,nan,0.2411003,nan,nan,nan,nan,nan,nan,0.0,0.0,nan
109739817,nan,nan,nan,-1.3600346,0.0,nan,nan,0.2823979,nan,nan,nan,nan,nan,nan,0.0,0.0,nan
109940328,nan,nan,nan,-1.3600346,0.0,nan,nan,0.05561149,nan,nan,nan,nan,nan,nan,0.0,0.0,nan
110140171,nan,nan,-0.11870687,-1.3600346,0.0,nan,nan,-0.0,nan,nan,nan,nan,nan,nan,0.0,0.0,nan
110340399,nan,nan,-0.11870687,-1.3600346,0.0,nan,nan,-0.0,nan,nan,nan,nan,nan,nan,0.0,0.0,nan
110540718,nan,nan,-0.11870687,-1.3600346,0.0,nan,nan,-0.0,nan,nan,nan,nan,nan,nan,0.0,0.0,nan
110740871,nan,nan,-0.11870687,-1.3600346,0.0,nan,nan,-0.0,nan,nan,nan,nan,nan,nan,0.0,0.0,nan
110960989,nan,nan,-0.11870687,-1.3600346,0.0,nan,nan,-0.0,nan,nan,nan,nan,nan,nan,0.0,0.0,nan
111161214,nan,nan,-0.11870687,-1.3600346,0.0,nan,nan,-0.0,nan,nan,nan,nan,nan,nan,0.0,0.0,nan
111361504,nan,nan,-0.11870687,-1.3600346,0.0,nan,nan,0.0,nan,nan,nan,nan,nan,nan,0.0,0.0,nan
111561690,nan,nan,nan,-1.3600346,0.0,nan,nan,-0.17046061,nan,nan,nan,nan,nan,nan,0.0,0.0,nan
111761789,nan,nan,nan,-1.3600346,0.0,nan,nan,-0.23430714,nan,nan,nan,nan,nan,nan,0.0,0.0,nan
111961980,nan,nan,-0.33317512,-1.3600346,0.0,nan,nan,0.0,nan,nan,nan,nan,nan,nan,0.0,0.0,nan
112162339,nan,nan,-0.33317512,-1.3600346,0.0,nan,nan,0.0,nan,nan,nan,nan,nan,nan,0.0,0.0,nan
112362474,nan,nan,-0.33317512,-1.3600346,0.0,nan,nan,0.0,nan,nan,nan,nan,nan,nan,0.0,0.0,nan
112562599,nan,nan,nan,-1.3600346,0.0,nan,nan,-0.17139006,nan,nan,nan,nan,nan,nan,0.0,0.0,nan
112782813,nan,nan,nan,-1.3600346,0.0,nan,nan,-0.14110573,nan,nan,nan,nan,nan,nan,0.0,0.0,nan
112983374,nan,nan,nan,-1.3600346,0.0,nan,nan,-0.12320487,nan,nan,nan,nan,nan,nan,0.0,0.0,nan
113183346,nan,nan,nan,-1.3600346,0.0,nan,nan,-0.00980345,nan,nan,nan,nan,nan,nan,0.0,0.0,nan
113383533,nan,nan,-0.45881176,-1.3600346,0.0,nan,nan,0.0,nan,nan,nan,nan,nan,nan,0.10058143,-0.053210374,nan
113583621,nan,nan,-0.45881176,-1.3600346,0.0,nan,nan,0.0,nan,nan,nan,nan,nan,nan,0.37635696,-0.08158217,nan
113784180,nan,nan,nan,-1.3600346,0.0,nan,nan,-0.029668488,nan,nan,nan,nan,nan,nan,0.31255662,-0.062310092,nan
113984284,nan,nan,nan,-1.3600346,0.0,nan,nan,-0.0042169043,nan,nan,nan,nan,nan,nan,0.00042584678,9.130671e-05,nan
114184320,nan,nan,nan,-1.3600346,0.0,nan,nan,-0.023724312,nan,nan,nan,nan,nan,nan,-2.7306706e-08,-2.0216055e-07,nan
114384459,nan,nan,-0.3444582,-1.3600346,0.0,nan,nan,0.0,nan,nan,nan,nan,nan,nan,-0.058576997,0.12922908,nan
114604809,nan,nan,-0.3444582,-1.3600346,0.0,nan,nan,0.0,nan,nan,nan,nan,nan,nan,-0.23472969,0.3005045,nan
114805434,nan,nan,-0.3444582,-1.3600346,0.0,nan,nan,0.0,nan,nan,nan,nan,nan,nan,-0.09541954,0.20792511,nan
115005128,nan,nan,-0.3444582,-1.3600346,0.0,nan,nan,0.0,nan,nan,nan,nan,nan,nan,5.6970446e-05,-0.0001334602,nan
115206006,nan,nan,-0.3444582,-1.3600346,0.0,nan,nan,0.0,nan,nan,nan,nan,nan,nan,-3.1800692e-08,8.651587e-08,nan
115406311,nan,nan,-0.3444582,nan,0.0103754625,nan,nan,0.0,nan,nan,nan,nan,nan,nan,3.5978729e-12,-1.9005247e-11,nan
115606477,nan,nan,-0.3444582,nan,0.46537486,nan,nan,0.0,nan,nan,nan,nan,nan,nan,1.0729073e-14,-1.98119e-14,nan
115805907,nan,nan,-0.3444582,nan,0.3280586,nan,nan,0.0,nan,nan,nan,nan,nan,nan,-1.26376455e-17,2.4549902e-17,nan
116006470,nan,nan,-0.3444582,-1.2474815,0.0,nan,nan,0.0,nan,nan,nan,nan,nan,nan,6.3393567e-21,-1.3164024e-20,nan
116206371,nan,nan,-0.3444582,nan,0.21519819,nan,nan,0.0,nan,nan,nan,nan,nan,nan,7.9661584e-26,1.2500344e-24,nan
116426507,nan,nan,-0.3444582,nan,0.017208338,nan,nan,0.0,nan,nan,nan,nan,nan,nan,-1.7038024e-27,2.7745136e-27,nan
116826849,nan,nan,nan,nan,-1.0077058,nan,nan,-0.097523615,nan,nan,nan,nan,nan,nan,3.7765656e-34,-4.571598e-34,nan
117027236,nan,nan,nan,nan,-1.2590785,nan,nan,-0.1530207,nan,nan,nan,nan,nan,nan,-9.502333e-38,2.6820507e-37,nan
117227308,nan,nan,nan,nan,-1.4995004,nan,nan,-0.26329327,nan,nan,nan,nan,nan,nan,-2.0102e-41,2.0111e-41,nan
117427480,nan,nan,nan,nan,-0.895013,nan,nan,-0.16495633,nan,nan,nan,nan,nan,nan,4e-45,-1.4e-43,nan
117627768,nan,nan,nan,nan,-0.8010733,nan,nan,-0.14310884,nan,nan,nan,nan,nan,nan,0.0,0.0,nan
117848045,nan,nan,nan,nan,-0.916825,nan,nan,-0.15606372,nan,nan,nan,nan,nan,nan,0.0,0.0,nan
118048159,nan,nan,nan,nan,-1.1146595,nan,nan,-0.2149106,nan,nan,nan,nan,nan,nan,0.0,0.0,nan
118248300,nan,nan,nan,nan,-1.2926832,nan,nan,-0.25899777,nan,nan,nan,nan,nan,nan,0.0,0.0,nan
118448463,nan,nan,nan,nan,-1.014322,nan,nan,-0.24878034,nan,nan,nan,nan,nan,nan,0.0,0.0,nan
118648788,nan,nan,nan,nan,-1.2549205,nan,nan,-0.31971502,nan,nan,nan,nan,nan,nan,0.0,0.0,nan
118848915,nan,nan,nan,nan,-1.1711949,nan,nan,-0.30383357,nan,nan,nan,nan,nan,nan,0.0,0.0,nan
119049077,nan,nan,nan,nan,-0.89602333,nan,nan,-0.27574152,nan,nan,nan,nan,nan,nan,0.0,0.0,nan
119249443,nan,nan,nan,nan,-0.70165503,nan,nan,-0.2174263,nan,nan,nan,nan,nan,nan,0.0,0.0,nan
119469697,nan,nan,-0.78664637,2.561539,-0.0,nan,nan,0.0,nan,nan,nan,nan,nan,nan,0.0,0.0,nan
119669734,nan,nan,-0.78664637,2.561539,-0.0,nan,nan,0.0,nan,nan,nan,nan,nan,nan,0.0,0.0,nan
119869879,nan,nan,-0.78664637,2.561539,0.0,nan,nan,0.0,nan,nan,nan,nan,nan,nan,0.0,0.0,nan
120070151,nan,nan,-0.78664637,2.561539,-0.0,nan,nan,0.0,nan,nan,nan,nan,nan,nan,0.0,0.0,nan
120270469,nan,nan,-0.78664637,2.561539,-0.0,nan,nan,0.0,nan,nan,nan,nan,nan,nan,0.0,0.0,nan
120470506,nan,nan,-0.78664637,nan,0.44242087,nan,nan,-0.0,nan,nan,nan,nan,nan,nan,0.0,0.0,nan
120670711,nan,nan,-0.78664637,nan,0.18675467,nan,nan,0.0,nan,nan,nan,nan,nan,nan,0.0,0.0,nan
120870929,nan,nan,-0.78664637,2.6540515,0.0,nan,nan,0.0,nan,nan,nan,nan,nan,nan,0.0,0.0,nan
121071397,nan,nan,-0.78664637,2.6540515,0.0,nan,nan,-0.0,nan,nan,nan,nan,nan,nan,0.0,0.0,nan
121271462,nan,nan,-0.78664637,2.6540515,-0.0,nan,nan,-0.0,nan,nan,nan,nan,nan,nan,0.0,0.0,nan
121491552,nan,nan,-0.78664637,2.6540515,-0.0,nan,nan,-0.0,nan,nan,nan,nan,nan,nan,0.0,0.0,nan
121691786,nan,nan,-0.78664637,nan,-0.19114402,nan,nan,-0.0,nan,nan,nan,nan,nan,nan,0.0,0.0,nan
121892220,nan,nan,-0.78664637,nan,-0.7936495,nan,nan,-0.0,nan,nan,nan,nan,nan,nan,0.0,0.0,nan
122092337,nan,nan,-0.78664637,nan,-1.2080133,nan,nan,-0.0,nan,nan,nan,nan,nan,nan,0.0,0.0,nan
122292363,nan,nan,-0.78664637,nan,-0.89230895,nan,nan,-0.0,nan,nan,nan,nan,nan,nan,0.0,0.0,nan
122492699,nan,nan,-0.78664637,nan,-0.3398598,nan,nan,-0.0,nan,nan,nan,nan,nan,nan,0.0,0.0,nan
122693699,nan,nan,-0.78664637,2.087163,-0.0,nan,nan,-0.0,nan,nan,nan,nan,nan,nan,0.0,0.0,nan
122912938,nan,nan,-0.78664637,2.087163,-0.0,nan,nan,-0.0,nan,nan,nan,nan,nan,nan,0.14820874,-0.20223725,nan
123113136,nan,nan,-0.78664637,2.087163,0.0,nan,nan,-0.0,nan,nan,nan,nan,nan,nan,0.2710688,-0.3140096,nan
123313626,nan,nan,-0.78664637,2.087163,-0.0,nan,nan,-0.0,nan,nan,nan,nan,nan,nan,0.038683873,-0.073956,nan
123513736,nan,nan,-0.78664637,2.087163,-0.0,nan,nan,-0.0,nan,nan,nan,nan,nan,nan,-4.5918678e-06,1.0208042e-05,nan
123713780,nan,nan,-0.78664637,2.087163,0.0,nan,nan,-0.0,nan,nan,nan,nan,nan,nan,-0.03832376,-0.026246864,nan
123913918,nan,nan,-0.78664637,2.087163,0.0,nan,nan,-0.0,nan,nan,nan,nan,nan,nan,-0.3110088,-0.19509852,nan
124114205,nan,nan,-0.78664637,2.087163,-0.0,nan,nan,-0.0,nan,nan,nan,nan,nan,nan,-0.42280132,-0.25089565,nan
124314479,nan,nan,-0.78664637,2.087163,0.0,nan,nan,-0.0,nan,nan,nan,nan,nan,nan,-0.4502204,-0.2556064,nan
124534639,nan,nan,-0.78664637,2.087163,-0.0,nan,nan,-0.0,nan,nan,nan,nan,nan,nan,-0.39795247,-0.22593647,nan
124734761,nan,nan,-0.78664637,2.087163,-0.0,nan,nan,-0.0,nan,nan,nan,nan,nan,nan,-0.3845926,-0.21835144,nan
124935157,nan,nan,-0.78664637,2.087163,0.0,nan,nan,-0.0,nan,nan,nan,nan,nan,nan,0.007562665,0.004293683,nan
125135272,nan,nan,-0.78664637,2.087163,0.0,nan,nan,-0.0,nan,nan,nan,nan,nan,nan,1.3441323e-06,7.631276e-07,nan
125335467,nan,nan,-0.78664637,2.087163,0.0,nan,nan,-0.0,nan,nan,nan,nan,nan,nan,1.5710439e-09,8.9195606e-10,nan
125535555,nan,nan,-0.78664637,2.087163,0.0,nan,nan,-0.0,nan,nan,nan,nan,nan,nan,3.2475515e-12,1.8437888e-12,nan
125735929,nan,nan,-0.78664637,2.087163,0.0,nan,nan,-0.0,nan,nan,nan,nan,nan,nan,-9.822503e-16,-5.576701e-16,nan
125936092,nan,nan,-0.78664637,2.087163,0.0,nan,nan,-0.0,nan,nan,nan,nan,nan,nan,-5.175599e-19,-2.9384327e-19,nan
126156227,nan,nan,-0.78664637,2.087163,0.0,nan,nan,-0.0,nan,nan,nan,nan,nan,nan,0.017373355,-0.030600503,nan
126356383,nan,nan,-0.78664637,2.087163,0.0,nan,nan,-0.0,nan,nan,nan,nan,nan,nan,0.13898456,-0.24539994,nan
126556696,nan,nan,-0.78664637,2.087163,0.0,nan,nan,-0.0,nan,nan,nan,nan,nan,nan,0.13756596,-0.24230087,nan
126757035,nan,nan,-0.78664637,2.087163,0.0,nan,nan,-0.0,nan,nan,nan,nan,nan,nan,0.13558593,-0.23881385,nan
126957068,nan,nan,-0.78664637,2.087163,0.0,nan,nan,-0.0,nan,nan,nan,nan,nan,nan,-0.0016057605,0.0028283012,nan
127157176,nan,nan,-0.78664637,2.087163,0.0,nan,nan,-0.0,nan,nan,nan,nan,nan,nan,-6.2397964e-07,1.0990445e-06,nan
127357407,nan,nan,-0.78664637,2.087163,0.0,nan,nan,0.0,nan,nan,nan,nan,nan,nan,1.2241408e-09,-2.1561364e-09,nan
127557704,nan,nan,-0.78664637,2.087163,0.0,nan,nan,0.0,nan,nan,nan,nan,nan,nan,-1.4707763e-12,2.5905471e-12,nan
127777791,nan,nan,nan,2.087163,0.0,nan,nan,-0.0083713485,nan,nan,nan,nan,nan,nan,1.8338388e-16,-3.230026e-16,nan
127977978,nan,nan,nan,2.087163,0.0,nan,nan,-0.08988309,nan,nan,nan,nan,nan,nan,1.8030867e-19,-3.175861e-19,nan
128178586,nan,nan,nan,2.087163,0.0,nan,nan,-0.2128574,nan,nan,nan,nan,nan,nan,-6.5223266e-23,1.1488079e-22,nan
128378636,nan,nan,nan,2.087163,0.0,nan,nan,-0.30505586,nan,nan,nan,nan,nan,nan,1.2868608e-25,-2.2666082e-25,nan
128578655,nan,nan,nan,2.087163,0.0,nan,nan,-0.32571602,nan,nan,nan,nan,nan,nan,3.834299e-29,-6.7535303e-29,nan
128778782,nan,nan,nan,2.087163,0.0,nan,nan,-0.016369497,nan,nan,nan,nan,nan,nan,-0.017899467,0.03152717,nan
128979434,nan,nan,-0.78911126,2.087163,0.0,nan,nan,0.0,nan,nan,nan,nan,nan,nan,-0.08208265,0.14457601,nan
129199531,nan,nan,-0.78911126,2.087163,0.0,nan,nan,0.0,nan,nan,nan,nan,nan,nan,-0.08318436,0.1465165,nan
129399576,nan,nan,-0.78911126,2.087163,0.0,nan,nan,0.0,nan,nan,nan,nan,nan,nan,-0.09344986,0.16459762,nan
129599616,nan,nan,-0.78911126,2.087163,0.0,nan,nan,0.0,nan,nan,nan,nan,nan,nan,-0.0945557,0.16654538,nan
129800402,nan,nan,-0.78911126,2.087163,0.0,nan,nan,0.0,nan,nan,nan,nan,nan,nan,-0.099554166,0.1753494,nan
130000276,nan,nan,-0.78911126,2.087163,0.0,nan,nan,0.0,nan,nan,nan,nan,nan,nan,-0.09066573,0.15969379,nan
130200318,nan,nan,-0.78911126,2.087163,0.0,nan,nan,0.0,nan,nan,nan,nan,nan,nan,-0.061920095,0.10906275,nan
130400401,nan,nan,-0.78911126,2.087163,0.0,nan,nan,0.0,nan,nan,nan,nan,nan,nan,-0.00019543743,0.0003442331,nan
130600778,nan,nan,-0.78911126,2.087163,0.0,nan,nan,0.0,nan,nan,nan,nan,nan,nan,0.008930137,-0.015729068,nan
130800955,nan,nan,-0.78911126,2.087163,0.0,nan,nan,0.0,nan,nan,nan,nan,nan,nan,0.13836037,-0.24259372,nan
131001015,nan,nan,-0.78911126,2.087163,0.0,nan,nan,0.0,nan,nan,nan,nan,nan,nan,0.1413846,-0.24894333,nan
131201252,nan,nan,-0.78911126,2.087163,0.0,nan,nan,0.0,nan,nan,nan,nan,nan,nan,0.02983479,-0.052519195,nan
131421735,nan,nan,-0.78911126,2.087163,0.0,nan,nan,0.0,nan,nan,nan,nan,nan,nan,7.5899975e-06,-1.33682015e-05,nan
131622411,nan,nan,-0.78911126,2.087163,0.0,nan,nan,-0.0,nan,nan,nan,nan,nan,nan,-6.251172e-09,1.1005817e-08,nan
131821839,nan,nan,-0.78911126,2.087163,-0.0,nan,nan,-0.0,nan,nan,nan,nan,nan,nan,-9.753928e-13,1.7184946e-12,nan
132022039,nan,nan,-0.78911126,nan,0.62231284,nan,nan,-0.0,nan,nan,nan,nan,nan,nan,0.046907187,0.027811335,nan
132222363,nan,nan,-0.78911126,2.1609845,0.0,nan,nan,0.0,nan,nan,nan,nan,nan,nan,9.6221425e-05,6.445182e-05,nan
132422479,nan,nan,-0.78911126,2.1609845,0.0,nan,nan,0.0,nan,nan,nan,nan,nan,nan,-7.2195945e-08,-4.835888e-08,nan
132622620,nan,nan,-0.78911126,2.1609845,-0.0,nan,nan,0.0,nan,nan,nan,nan,nan,nan,2.2266064e-11,1.4914438e-11,nan
132822926,nan,nan,-0.78911126,2.1609845,0.0,nan,nan,0.0,nan,nan,nan,nan,nan,nan,1.1130816e-14,7.455735e-15,nan
133043298,nan,nan,-0.78911126,nan,-0.49830323,nan,nan,0.0,nan,nan,nan,nan,nan,nan,-6.5835905e-18,-4.372338e-18,nan
133243386,nan,nan,-0.78911126,nan,-0.62688756,nan,nan,0.0,nan,nan,nan,nan,nan,nan,1.2683427e-20,6.8754655e-21,nan
133443491,nan,nan,-0.78911126,2.0256205,0.0,nan,nan,-0.0,nan,nan,nan,nan,nan,nan,3.1722328e-24,1.5512816e-24,nan
133643649,nan,nan,-0.78911126,2.0256205,0.0,nan,nan,-0.0,nan,nan,nan,nan,nan,nan,-2.6869045e-27,-1.3139469e-27,nan
133844002,nan,nan,-0.78911126,2.0256205,-0.0,nan,nan,-0.0,nan,nan,nan,nan,nan,nan,1.0017192e-30,4.8985958e-31,nan
134044105,nan,nan,-0.78911126,2.0256205,-0.0,nan,nan,-0.0,nan,nan,nan,nan,nan,nan,2.632614e-34,1.2873977e-34,nan
134244258,nan,nan,-0.78911126,nan,0.8623174,nan,nan,-0.0,nan,nan,nan,nan,nan,nan,1.2123903e-37,6.2370775e-38,nan
134444558,nan,nan,-0.78911126,nan,0.94019884,nan,nan,-0.0,nan,nan,nan,nan,nan,nan,0.009806768,0.006706704,nan
134644737,nan,nan,-0.78911126,nan,0.34256458,nan,nan,-0.0,nan,nan,nan,nan,nan,nan,1.2171382e-06,1.1572173e-06,nan
134864888,nan,nan,-0.78911126,2.368115,-0.0,nan,nan,-0.0,nan,nan,nan,nan,nan,nan,-1.5239522e-09,-1.5607247e-09,nan
135065060,nan,nan,-0.78911126,2.368115,-0.0,nan,nan,-0.0,nan,nan,nan,nan,nan,nan,0.086408235,-0.08437235,nan
135265380,nan,nan,-0.78911126,2.368115,0.0,nan,nan,-0.0,nan,nan,nan,nan,nan,nan,0.2237803,-0.21850778,nan
135465782,nan,nan,-0.78911126,2.368115,-0.0,nan,nan,-0.0,nan,nan,nan,nan,nan,nan,0.20858923,-0.20367461,nan
135665846,nan,nan,-0.78911126,2.368115,0.0,nan,nan,-0.0,nan,nan,nan,nan,nan,nan,0.2181232,-0.21298395,nan
135865924,nan,nan,-0.78911126,2.368115,0.0,nan,nan,-0.0,nan,nan,nan,nan,nan,nan,0.1803461,-0.17609693,nan
136066066,nan,nan,-0.78911126,2.368115,-0.0,nan,nan,-0.0,nan,nan,nan,nan,nan,nan,-0.0018155993,0.0017728215,nan
136266380,nan,nan,-0.78911126,2.368115,0.0,nan,nan,-0.0,nan,nan,nan,nan,nan,nan,-1.084858e-06,1.0592975e-06,nan
136466630,nan,nan,-0.78911126,2.368115,0.0,nan,nan,-0.0,nan,nan,nan,nan,nan,nan,1.7151018e-09,-1.674692e-09,nan
136686750,nan,nan,-0.78911126,2.368115,-0.0,nan,nan,-0.0,nan,nan,nan,nan,nan,nan,-0.1872563,-0.19177474,nan
136887393,nan,nan,-0.78911126,2.368115,0.0,nan,nan,-0.0,nan,nan,nan,nan,nan,nan,-0.18408753,-0.1885295,nan
137087473,nan,nan,-0.78911126,2.368115,0.0,nan,nan,-0.0,nan,nan,nan,nan,nan,nan,-0.0005706558,-0.0005844256,nan
137287576,nan,nan,-0.78911126,2.368115,-0.0,nan,nan,-0.0,nan,nan,nan,nan,nan,nan,1.3057497e-07,1.337257e-07,nan
137487506,nan,nan,-0.78911126,2.368115,0.0,nan,nan,-0.0,nan,nan,nan,nan,nan,nan,1.2761384e-10,1.3069312e-10,nan
137688409,nan,nan,-0.78911126,2.368115,0.0,nan,nan,-0.0,nan,nan,nan,nan,nan,nan,0.082404315,0.0806019,nan
137888057,nan,nan,-0.78911126,2.368115,0.0,nan,nan,-0.0,nan,nan,nan,nan,nan,nan,0.25255582,0.25866672,nan
138088133,nan,nan,-0.78911126,2.368115,0.0,nan,nan,-0.0,nan,nan,nan,nan,nan,nan,0.22159712,0.22694361,nan
138288315,nan,nan,-0.78911126,2.368115,0.0,nan,nan,-0.0,nan,nan,nan,nan,nan,nan,0.18955287,0.19412673,nan
138508583,nan,nan,-0.78911126,2.368115,0.0,nan,nan,-0.0,nan,nan,nan,nan,nan,nan,0.16398694,0.1679439,nan
138708866,nan,nan,-0.78911126,2.368115,0.0,nan,nan,-0.0,nan,nan,nan,nan,nan,nan,-0.00013925777,-0.00014261802,nan
138909032,nan,nan,-0.78911126,2.368115,0.0,nan,nan,-0.0,nan,nan,nan,nan,nan,nan,1.1812029e-07,1.209705e-07,nan
139109109,nan,nan,-0.78911126,2.368115,0.0,nan,nan,-0.0,nan,nan,nan,nan,nan,nan,-4.4120985e-11,-4.5185612e-11,nan
139309558,nan,nan,-0.78911126,2.368115,0.0,nan,nan,-0.0,nan,nan,nan,nan,nan,nan,-0.11103585,0.10841972,nan
139509722,nan,nan,-0.78911126,2.368115,0.0,nan,nan,-0.0,nan,nan,nan,nan,nan,nan,-0.21732731,0.21220683,nan
139709805,nan,nan,-0.78911126,2.368115,0.0,nan,nan,-0.0,nan,nan,nan,nan,nan,nan,-0.18652827,0.18213344,nan
139909906,nan,nan,-0.78911126,2.368115,0.0,nan,nan,-0.0,nan,nan,nan,nan,nan,nan,-0.1196449,0.11682593,nan
140130220,nan,nan,-0.78911126,2.368115,0.0,nan,nan,-0.0,nan,nan,nan,nan,nan,nan,1.0359696e-05,-1.0115609e-05,nan
140330432,nan,nan,-0.78911126,2.368115,0.0,nan,nan,-0.0,nan,nan,nan,nan,nan,nan,0.0011369307,-0.0011101433,nan
140530552,nan,nan,-0.78911126,2.368115,0.0,nan,nan,-0.0,nan,nan,nan,nan,nan,nan,0.13487299,-0.13169521,nan
140730765,nan,nan,-0.78911126,2.368115,0.0,nan,nan,-0.0,nan,nan,nan,nan,nan,nan,0.16160655,-0.15779892,nan
140930957,nan,nan,-0.78911126,2.368115,0.0,nan,nan,-0.0,nan,nan,nan,nan,nan,nan,-0.00015978547,0.00015602073,nan
141131274,nan,nan,-0.78911126,2.368115,0.0,nan,nan,-0.0,nan,nan,nan,nan,nan,nan,-6.767959e-07,6.6084976e-07,nan
141331416,nan,nan,-0.78911126,2.368115,0.0,nan,nan,-0.0,nan,nan,nan,nan,nan,nan,6.5817335e-10,-6.42666e-10,nan
141531519,nan,nan,-0.78911126,2.368115,0.0,nan,nan,-0.0,nan,nan,nan,nan,nan,nan,-2.8781591e-13,2.8103464e-13,nan
141731814,nan,nan,-0.78911126,nan,-0.86812985,nan,nan,-0.0,nan,nan,nan,nan,nan,nan,-2.6713824e-17,2.7551437e-17,nan
141952264,nan,nan,-0.78911126,nan,-0.8591371,nan,nan,-0.0,nan,nan,nan,nan,nan,nan,5.7751624e-20,-7.938839e-20,nan
142152166,nan,nan,-0.78911126,nan,-0.8778383,nan,nan,-0.0,nan,nan,nan,nan,nan,nan,1.1530802e-23,-2.269666e-23,nan
142352407,nan,nan,-0.78911126,nan,-0.89590794,nan,nan,-0.0,nan,nan,nan,nan,nan,nan,-8.2209976e-27,2.5689841e-26,nan
142552952,nan,nan,-0.78911126,nan,-1.0553948,nan,nan,-0.0,nan,nan,nan,nan,nan,nan,4.1469424e-30,-3.0326668e-29,nan
143153897,nan,nan,-0.78911126,1.1228001,0.0,nan,nan,-0.0,nan,nan,nan,nan,nan,nan,-1.515954e-39,-3.154387e-39,nan
143974027,nan,nan,-0.78911126,1.1228001,0.0,nan,nan,-0.0,nan,nan,nan,nan,nan,nan,0.0,0.0,nan
144174310,nan,nan,-0.78911126,1.1228001,0.0,nan,nan,-0.0,nan,nan,nan,nan,nan,nan,0.07559308,-0.036328983,nan
144374511,nan,nan,-0.78911126,1.1228001,0.0,nan,nan,-0.0,nan,nan,nan,nan,nan,nan,0.4223759,-0.24109092,nan
144574558,nan,nan,-0.78911126,1.1228001,0.0,nan,nan,-0.0,nan,nan,nan,nan,nan,nan,0.46910158,-0.24508476,nan
144774771,nan,nan,-0.78911126,1.1228001,-0.0,nan,nan,-0.0,nan,nan,nan,nan,nan,nan,0.16983046,-0.08175563,nan
144975155,nan,nan,-0.78911126,1.1228001,0.0,nan,nan,-0.0,nan,nan,nan,nan,nan,nan,-5.5814708e-05,2.6873664e-05,nan
145195290,nan,nan,-0.78911126,1.1228001,0.0,nan,nan,-0.0,nan,nan,nan,nan,nan,nan,4.2369606e-08,-2.0336614e-08,nan
145395406,nan,nan,-0.78911126,1.1228001,-0.0,nan,nan,-0.0,nan,nan,nan,nan,nan,nan,-1.2777435e-12,6.006456e-13,nan
145595606,nan,nan,-0.78911126,1.1228001,0.0,nan,nan,-0.0,nan,nan,nan,nan,nan,nan,-1.6819313e-14,8.083989e-15,nan
145796016,nan,nan,-0.78911126,1.1228001,0.0,nan,nan,-0.0,nan,nan,nan,nan,nan,nan,-0.23273984,0.11185153,nan
145996108,nan,nan,-0.78911126,1.1228001,0.0,nan,nan,-0.0,nan,nan,nan,nan,nan,nan,-0.33737513,0.1621378,nan
146196217,nan,nan,-0.78911126,1.1228001,0.0,nan,nan,-0.0,nan,nan,nan,nan,nan,nan,0.0842051,-0.0404678,nan
146396412,nan,nan,-0.78911126,1.1228001,0.0,nan,nan,-0.0,nan,nan,nan,nan,nan,nan,-0.015518459,-0.03232417,nan
146596709,nan,nan,-0.78911126,1.1228001,0.0,nan,nan,-0.0,nan,nan,nan,nan,nan,nan,-0.17442077,-0.3629334,nan
146796930,nan,nan,-0.78911126,1.1228001,0.0,nan,nan,-0.0,nan,nan,nan,nan,nan,nan,-0.1997002,-0.4155347,nan
147017013,nan,nan,-0.78911126,1.1228001,0.0,nan,nan,-0.0,nan,nan,nan,nan,nan,nan,-0.17592002,-0.36605307,nan
147217213,nan,nan,-0.78911126,1.1228001,0.0,nan,nan,-0.0,nan,nan,nan,nan,nan,nan,-0.12222948,-0.2543342,nan
147417542,nan,nan,-0.78911126,1.1228001,0.0,nan,nan,-0.0,nan,nan,nan,nan,nan,nan,9.403966e-05,0.00019567701,nan
147617671,nan,nan,-0.78911126,1.1228001,0.0,nan,nan,-0.0,nan,nan,nan,nan,nan,nan,-5.412264e-08,-1.1261799e-07,nan
147817809,nan,nan,-0.78911126,1.1228001,0.0,nan,nan,-0.0,nan,nan,nan,nan,nan,nan,-0.014717826,-0.0015752892,nan
148017997,nan,nan,-0.78911126,1.1228001,0.0,nan,nan,-0.0,nan,nan,nan,nan,nan,nan,-0.15280513,0.07344229,nan
148218625,nan,nan,-0.78911126,1.1228001,0.0,nan,nan,-0.0,nan,nan,nan,nan,nan,nan,-0.25584564,0.15622535,nan
148438638,nan,nan,-0.78911126,1.1228001,0.0,nan,nan,-0.0,nan,nan,nan,nan,nan,nan,-0.47870946,0.25843492,nan
148638709,nan,nan,-0.78911126,1.1228001,0.0,nan,nan,-0.0,nan,nan,nan,nan,nan,nan,-0.41231707,0.19752017,nan
148839149,nan,nan,-0.78911126,1.1228001,0.0,nan,nan,-0.0,nan,nan,nan,nan,nan,nan,-0.24380678,0.11717046,nan
149039499,nan,nan,-0.78911126,1.1228001,0.0,nan,nan,-0.0,nan,nan,nan,nan,nan,nan,0.00062100886,-0.00029844878,nan
149239529,nan,nan,-0.78911126,1.1228001,0.0,nan,nan,-0.0,nan,nan,nan,nan,nan,nan,0.048112683,-0.023122286,nan
149439580,nan,nan,-0.78911126,1.1228001,0.0,nan,nan,-0.0,nan,nan,nan,nan,nan,nan,0.2233549,-0.13451925,nan
149639627,nan,nan,-0.78911126,1.1228001,0.0,nan,nan,-0.0,nan,nan,nan,nan,nan,nan,0.0016724197,-0.000937898,nan
149840891,nan,nan,-0.78911126,1.1228001,0.0,nan,nan,-0.0,nan,nan,nan,nan,nan,nan,3.4047412e-06,-1.6043383e-06,nan
150040398,nan,nan,-0.78911126,1.1228001,0.0,nan,nan,-0.0,nan,nan,nan,nan,nan,nan,-3.678714e-09,1.7968613e-09,nan
150240325,nan,nan,-0.78911126,1.1228001,0.0,nan,nan,-0.0,nan,nan,nan,nan,nan,nan,-3.275966e-13,1.4639207e-13,nan
150440706,nan,nan,-0.78911126,1.1228001,0.0,nan,nan,-0.0,nan,nan,nan,nan,nan,nan,1.3837123e-17,1.4921724e-17,nan
150640818,nan,nan,-0.78911126,nan,-0.51754355,nan,nan,0.0,nan,nan,nan,nan,nan,nan,-4.052383e-19,2.1779792e-19,nan
150840909,nan,nan,-0.78911126,nan,-0.31095853,nan,nan,-0.0,nan,nan,nan,nan,nan,nan,6.1753425e-22,-3.9493734e-22,nan
151061041,nan,nan,-0.78911126,0.9958421,-0.0,nan,nan,-0.0,nan,nan,nan,nan,nan,nan,8.7536185e-26,-5.5170984e-26,nan
151261296,nan,nan,-0.78911126,0.9958421,0.0,nan,nan,-0.0,nan,nan,nan,nan,nan,nan,-0.005184608,-0.008001179,nan
151461581,nan,nan,-0.78911126,0.9958421,0.0,nan,nan,-0.0,nan,nan,nan,nan,nan,nan,-0.23301297,-0.35959876,nan
151661731,nan,nan,-0.78911126,0.9958421,-0.0,nan,nan,-0.0,nan,nan,nan,nan,nan,nan,-0.30766582,-0.47480723,nan
151861890,nan,nan,-0.78911126,0.9958421,0.0,nan,nan,-0.0,nan,nan,nan,nan,nan,nan,-0.2598547,-0.40102243,nan
152062048,nan,nan,-0.78911126,0.9958421,-0.0,nan,nan,-0.0,nan,nan,nan,nan,nan,nan,-0.24550107,-0.37887108,nan
152262395,nan,nan,-0.78911126,0.9958421,-0.0,nan,nan,-0.0,nan,nan,nan,nan,nan,nan,-0.23458682,-0.3620276,nan
152482520,nan,nan,-0.78911126,0.9958421,0.0,nan,nan,-0.0,nan,nan,nan,nan,nan,nan,-0.21163704,-0.3266102,nan
152682663,nan,nan,-0.78911126,0.9958421,0.0,nan,nan,-0.0,nan,nan,nan,nan,nan,nan,-0.14133887,-0.21812211,nan
152882942,nan,nan,-0.78911126,0.9958421,-0.0,nan,nan,-0.0,nan,nan,nan,nan,nan,nan,1.1457343e-05,1.7681617e-05,nan
153083454,nan,nan,-0.78911126,0.9958421,0.0,nan,nan,-0.0,nan,nan,nan,nan,nan,nan,-9.616909e-09,-1.4841357e-08,nan
153283397,nan,nan,-0.78911126,0.9958421,0.0,nan,nan,-0.0,nan,nan,nan,nan,nan,nan,4.731491e-13,7.301903e-13,nan
153483500,nan,nan,-0.78911126,0.9958421,-0.0,nan,nan,-0.0,nan,nan,nan,nan,nan,nan,3.657799e-15,5.644922e-15,nan
153683657,nan,nan,-0.78911126,0.9958421,0.0,nan,nan,-0.0,nan,nan,nan,nan,nan,nan,-3.3918928e-18,-5.2345602e-18,nan
153884021,nan,nan,-0.78911126,0.9958421,0.0,nan,nan,-0.0,nan,nan,nan,nan,nan,nan,1.4113277e-21,2.1780405e-21,nan
154084136,nan,nan,-0.78911126,0.9958421,0.0,nan,nan,-0.0,nan,nan,nan,nan,nan,nan,2.0426467e-25,3.1523276e-25,nan
154284291,nan,nan,-0.78911126,0.9958421,0.0,nan,nan,-0.0,nan,nan,nan,nan,nan,nan,0.06648639,-0.050686806,nan
154484464,nan,nan,-0.78911126,0.9958421,0.0,nan,nan,-0.0,nan,nan,nan,nan,nan,nan,0.13787507,-0.119102456,nan
154684984,nan,nan,-0.78911126,0.9958421,0.0,nan,nan,-0.0,nan,nan,nan,nan,nan,nan,0.2125751,-0.13751984,nan
154885052,nan,nan,-0.78911126,0.9958421,0.0,nan,nan,-0.0,nan,nan,nan,nan,nan,nan,-0.011356909,0.007359219,nan
155105144,nan,nan,-0.78911126,0.9958421,0.0,nan,nan,-0.0,nan,nan,nan,nan,nan,nan,1.1928224e-06,-7.7299836e-07,nan
155305399,nan,nan,-0.78911126,0.9958421,0.0,nan,nan,-0.0,nan,nan,nan,nan,nan,nan,1.443479e-09,-9.353542e-10,nan
155505681,nan,nan,-0.78911126,0.9958421,0.0,nan,nan,-0.0,nan,nan,nan,nan,nan,nan,-0.29404047,0.2070026,nan
155705922,nan,nan,-0.78911126,0.9958421,0.0,nan,nan,-0.0,nan,nan,nan,nan,nan,nan,-0.116764374,0.07564286,nan
155905928,nan,nan,-0.78911126,0.9958421,0.0,nan,nan,-0.0,nan,nan,nan,nan,nan,nan,7.229949e-05,-4.683569e-05,nan
156106299,nan,nan,-0.78911126,0.9958421,0.0,nan,nan,-0.0,nan,nan,nan,nan,nan,nan,0.101885736,-0.06601997,nan
156306409,nan,nan,-0.78911126,0.9958421,0.0,nan,nan,-0.0,nan,nan,nan,nan,nan,nan,0.14315931,-0.092764445,nan
156506532,nan,nan,-0.78911126,0.9958421,0.0,nan,nan,-0.0,nan,nan,nan,nan,nan,nan,-9.798533e-05,6.349258e-05,nan
156726864,nan,nan,-0.78911126,0.9958421,0.0,nan,nan,-0.0,nan,nan,nan,nan,nan,nan,1.3962068e-08,-9.047147e-09,nan
156926950,nan,nan,-0.78911126,0.9958421,0.0,nan,nan,-0.0,nan,nan,nan,nan,nan,nan,1.1612327e-11,-7.524562e-12,nan
157127460,nan,nan,-0.78911126,0.9958421,0.0,nan,nan,-0.0,nan,nan,nan,nan,nan,nan,-1.604222e-14,1.0395046e-14,nan
157327341,nan,nan,-0.78911126,0.9958421,0.0,nan,nan,-0.0,nan,nan,nan,nan,nan,nan,9.082397e-18,-5.885216e-18,nan
157527495,nan,nan,-0.78911126,0.9958421,0.0,nan,nan,-0.0,nan,nan,nan,nan,nan,nan,-1.1345065e-21,7.3513804e-22,nan
157728214,nan,nan,-0.78911126,0.9958421,0.0,nan,nan,-0.0,nan,nan,nan,nan,nan,nan,-2.8544823e-24,1.8496489e-24,nan
157928293,nan,nan,-0.78911126,0.9958421,0.0,nan,nan,-0.0,nan,nan,nan,nan,nan,nan,-0.20468393,0.15277983,nan
158148134,nan,nan,-0.78911126,0.9958421,0.0,nan,nan,-0.0,nan,nan,nan,nan,nan,nan,-0.28571498,0.20099676,nan
158348330,nan,nan,-0.78911126,0.9958421,0.0,nan,nan,-0.0,nan,nan,nan,nan,nan,nan,0.009286225,-0.0060212263,nan
158548596,nan,nan,-0.78911126,0.9958421,0.0,nan,nan,-0.0,nan,nan,nan,nan,nan,nan,-4.669473e-06,3.0361168e-06,nan
158748851,nan,nan,-0.78911126,0.9958421,0.0,nan,nan,-0.0,nan,nan,nan,nan,nan,nan,1.436815e-10,-1.0050296e-10,nan
158948925,nan,nan,nan,0.9958421,0.0,nan,nan,0.13120449,nan,nan,nan,nan,nan,nan,1.8511258e-12,-1.197434e-12,nan
159149143,nan,nan,nan,0.9958421,0.0,nan,nan,0.15962538,nan,nan,nan,nan,nan,nan,-2.6606462e-16,1.73863e-16,nan
159349554,nan,nan,nan,0.9958421,0.0,nan,nan,0.19735764,nan,nan,nan,nan,nan,nan,-2.1885224e-19,1.411662e-19,nan
159569687,nan,nan,nan,0.9958421,0.0,nan,nan,0.16434436,nan,nan,nan,nan,nan,nan,8.925533e-23,-5.809293e-23,nan
159769759,nan,nan,nan,0.9958421,0.0,nan,nan,0.22699678,nan,nan,nan,nan,nan,nan,-1.7225312e-25,1.1193696e-25,nan
159969978,nan,nan,nan,0.9958421,0.0,nan,nan,0.2243047,nan,nan,nan,nan,nan,nan,2.1800489e-29,-1.4382988e-29,nan
160170313,nan,nan,nan,0.9958421,0.0,nan,nan,0.24082386,nan,nan,nan,nan,nan,nan,5.388927e-32,-3.4830782e-32,nan
160370461,nan,nan,-0.6575264,0.9958421,0.0,nan,nan,-0.0,nan,nan,nan,nan,nan,nan,0.04711225,-0.030527819,nan
160570579,nan,nan,-0.6575264,0.9958421,0.0,nan,nan,-0.0,nan,nan,nan,nan,nan,nan,0.18546155,-0.120175466,nan
160770749,nan,nan,-0.6575264,0.9958421,0.0,nan,nan,-0.0,nan,nan,nan,nan,nan,nan,0.0138999345,-0.009006886,nan
160971015,nan,nan,-0.6575264,0.9958421,0.0,nan,nan,-0.0,nan,nan,nan,nan,nan,nan,1.6542108e-05,-1.07189635e-05,nan
161191470,nan,nan,-0.6575264,0.9958421,0.0,nan,nan,-0.0,nan,nan,nan,nan,nan,nan,0.12248051,0.18901883,nan
161391469,nan,nan,-0.6575264,0.9958421,0.0,nan,nan,-0.0,nan,nan,nan,nan,nan,nan,0.19847463,0.3062972,nan
161591576,nan,nan,-0.6575264,0.9958421,0.0,nan,nan,-0.0,nan,nan,nan,nan,nan,nan,0.20750873,0.32023916,nan
161792208,nan,nan,-0.6575264,0.9958421,0.0,nan,nan,-0.0,nan,nan,nan,nan,nan,nan,0.16170326,0.24954957,nan
161992601,nan,nan,-0.6575264,0.9958421,0.0,nan,nan,-0.0,nan,nan,nan,nan,nan,nan,0.000559029,0.0008627251,nan
162192381,nan,nan,-0.6575264,0.9958421,0.0,nan,nan,-0.0,nan,nan,nan,nan,nan,nan,-8.57301e-07,-1.3230352e-06,nan
162392436,nan,nan,-0.6575264,0.9958421,0.0,nan,nan,-0.0,nan,nan,nan,nan,nan,nan,-9.37494e-11,-1.4467935e-10,nan
162592870,nan,nan,-0.6575264,0.9958421,0.0,nan,nan,-0.0,nan,nan,nan,nan,nan,nan,3.0926366e-14,4.772731e-14,nan
162812904,nan,nan,-0.6575264,0.9958421,0.0,nan,nan,-0.0,nan,nan,nan,nan,nan,nan,-0.19657299,0.21528508,nan
163013121,nan,nan,-0.6575264,0.9958421,0.0,nan,nan,-0.0,nan,nan,nan,nan,nan,nan,-0.34539455,0.2840586,nan
163213205,nan,nan,-0.6575264,0.9958421,0.0,nan,nan,-0.0,nan,nan,nan,nan,nan,nan,-0.27561566,0.17777291,nan
163413560,nan,nan,-0.6575264,0.9958421,0.0,nan,nan,-0.0,nan,nan,nan,nan,nan,nan,0.00071271317,-0.00046143855,nan
163613723,nan,nan,-0.6575264,0.9958421,0.0,nan,nan,-0.0,nan,nan,nan,nan,nan,nan,-4.5110755e-06,2.9230998e-06,nan
163813804,nan,nan,-0.6575264,0.9958421,0.0,nan,nan,-0.0,nan,nan,nan,nan,nan,nan,3.6344687e-09,-2.3552376e-09,nan
164013995,nan,nan,-0.6575264,0.9958421,0.0,nan,nan,-0.0,nan,nan,nan,nan,nan,nan,5.8988827e-13,-3.8221688e-13,nan
164234400,nan,nan,-0.6575264,0.9958421,0.0,nan,nan,-0.0,nan,nan,nan,nan,nan,nan,-1.6738653e-16,1.08481885e-16,nan
164434530,nan,nan,-0.6575264,0.9958421,0.0,nan,nan,-0.0,nan,nan,nan,nan,nan,nan,-5.0798347e-20,3.290915e-20,nan
164634598,nan,nan,-0.6575264,0.9958421,0.0,nan,nan,-0.0,nan,nan,nan,nan,nan,nan,1.151756e-22,-7.463317e-23,nan
164834809,nan,nan,-0.6575264,0.9958421,0.0,nan,nan,-0.0,nan,nan,nan,nan,nan,nan,-2.6918779e-27,1.7461569e-27,nan
165035202,nan,nan,-0.6575264,nan,-0.050309993,nan,nan,-0.0,nan,nan,nan,nan,nan,nan,-1.6839916e-29,1.0814679e-29,nan
165235295,nan,nan,-0.6575264,nan,-0.7425281,nan,nan,-0.0,nan,nan,nan,nan,nan,nan,1.5597263e-32,-1.05334535e-32,nan
165435401,nan,nan,-0.6575264,nan,-0.7491578,nan,nan,-0.0,nan,nan,nan,nan,nan,nan,-6.104694e-36,5.0941254e-36,nan
165655623,nan,nan,-0.6575264,0.7447129,0.0,nan,nan,-0.0,nan,nan,nan,nan,nan,nan,-2.282579e-39,2.476384e-39,nan
165855928,nan,nan,-0.6575264,0.7447129,0.0,nan,nan,-0.0,nan,nan,nan,nan,nan,nan,1.338e-42,-1.452e-42,nan
166056094,nan,nan,-0.6575264,0.7447129,-0.0,nan,nan,-0.0,nan,nan,nan,nan,nan,nan,-1e-45,1e-45,nan
166256324,nan,nan,-0.6575264,0.7447129,-0.0,nan,nan,-0.0,nan,nan,nan,nan,nan,nan,0.0,0.0,nan
166456432,nan,nan,-0.6575264,nan,0.1268588,nan,nan,-0.0,nan,nan,nan,nan,nan,nan,0.0,0.0,nan
166656937,nan,nan,-0.6575264,nan,0.11565185,nan,nan,-0.0,nan,nan,nan,nan,nan,nan,0.0,0.0,nan
166857112,nan,nan,-0.6575264,nan,0.24704915,nan,nan,-0.0,nan,nan,nan,nan,nan,nan,0.0,0.0,nan
167077107,nan,nan,-0.6575264,0.80239934,0.0,nan,nan,-0.0,nan,nan,nan,nan,nan,nan,0.0,0.0,nan
167277267,nan,nan,-0.6575264,0.80239934,-0.0,nan,nan,-0.0,nan,nan,nan,nan,nan,nan,0.0,0.0,nan
167478621,nan,nan,-0.6575264,0.80239934,0.0,nan,nan,-0.0,nan,nan,nan,nan,nan,nan,-0.009202835,-0.009521197,nan
167677818,nan,nan,-0.6575264,0.80239934,0.0,nan,nan,-0.0,nan,nan,nan,nan,nan,nan,-0.1637124,-0.16937584,nan
167877909,nan,nan,-0.6575264,0.80239934,-0.0,nan,nan,-0.0,nan,nan,nan,nan,nan,nan,-0.2841821,-0.29401305,nan
168078365,nan,nan,-0.6575264,0.80239934,0.0,nan,nan,-0.0,nan,nan,nan,nan,nan,nan,-0.11091441,-0.114751354,nan
168278450,nan,nan,-0.6575264,0.80239934,-0.0,nan,nan,-0.0,nan,nan,nan,nan,nan,nan,-0.011235134,-0.0116238,nan
168478590,nan,nan,-0.6575264,0.80239934,-0.0,nan,nan,-0.0,nan,nan,nan,nan,nan,nan,-5.058788e-06,-5.2337905e-06,nan
168678689,nan,nan,-0.6575264,0.80239934,0.0,nan,nan,-0.0,nan,nan,nan,nan,nan,nan,9.169661e-09,9.4868735e-09,nan
168878853,nan,nan,-0.6575264,0.80239934,-0.0,nan,nan,-0.0,nan,nan,nan,nan,nan,nan,2.1104934e-14,2.1835034e-14,nan
169099198,nan,nan,-0.6575264,0.80239934,-0.0,nan,nan,-0.0,nan,nan,nan,nan,nan,nan,-7.552372e-16,-7.813637e-16,nan
169299378,nan,nan,-0.6575264,0.80239934,0.0,nan,nan,-0.0,nan,nan,nan,nan,nan,nan,1.7000026e-19,1.7588122e-19,nan
169499497,nan,nan,-0.6575264,0.80239934,-0.0,nan,nan,-0.0,nan,nan,nan,nan,nan,nan,-4.625136e-22,-4.7851374e-22,nan
169699662,nan,nan,-0.6575264,0.80239934,-0.0,nan,nan,-0.0,nan,nan,nan,nan,nan,nan,-1.064589e-25,-1.1014172e-25,nan
169899982,nan,nan,-0.6575264,0.80239934,0.0,nan,nan,-0.0,nan,nan,nan,nan,nan,nan,-0.03127556,-0.0323575,nan
170100134,nan,nan,-0.6575264,0.80239934,0.0,nan,nan,-0.0,nan,nan,nan,nan,nan,nan,-0.21050474,-0.21778691,nan
170300279,nan,nan,-0.6575264,0.80239934,0.0,nan,nan,-0.0,nan,nan,nan,nan,nan,nan,-0.28538716,-0.29525977,nan
170500574,nan,nan,-0.6575264,0.80239934,0.0,nan,nan,-0.0,nan,nan,nan,nan,nan,nan,-0.2522528,-0.26097918,nan
170720799,nan,nan,-0.6575264,0.80239934,0.0,nan,nan,-0.0,nan,nan,nan,nan,nan,nan,-0.24060561,-0.24892908,nan
170920929,nan,nan,-0.6575264,0.80239934,0.0,nan,nan,-0.0,nan,nan,nan,nan,nan,nan,-0.14187641,-0.14678445,nan
171121119,nan,nan,-0.6575264,0.80239934,0.0,nan,nan,-0.0,nan,nan,nan,nan,nan,nan,6.8753776e-05,7.113223e-05,nan
171321385,nan,nan,-0.6575264,0.80239934,0.0,nan,nan,-0.0,nan,nan,nan,nan,nan,nan,-3.3686735e-08,-3.4852086e-08,nan
171521626,nan,nan,-0.6575264,0.80239934,0.0,nan,nan,-0.0,nan,nan,nan,nan,nan,nan,1.2577211e-10,1.3012305e-10,nan
171721759,nan,nan,-0.6575264,0.80239934,0.0,nan,nan,-0.0,nan,nan,nan,nan,nan,nan,0.0714657,0.073937975,nan
171921894,nan,nan,-0.6575264,0.80239934,0.0,nan,nan,-0.0,nan,nan,nan,nan,nan,nan,0.06346223,0.06565762,nan
172122161,nan,nan,-0.6575264,0.80239934,0.0,nan,nan,-0.0,nan,nan,nan,nan,nan,nan,0.024699379,0.02304402,nan
172342621,nan,nan,-0.6575264,0.80239934,0.0,nan,nan,-0.0,nan,nan,nan,nan,nan,nan,4.091916e-06,2.9130836e-06,nan
172542719,nan,nan,-0.6575264,0.80239934,0.0,nan,nan,-0.0,nan,nan,nan,nan,nan,nan,-4.6725845e-09,-4.151986e-09,nan
172742747,nan,nan,-0.6575264,0.80239934,0.0,nan,nan,-0.0,nan,nan,nan,nan,nan,nan,2.3450443e-12,2.3897713e-12,nan
172943107,nan,nan,-0.6575264,0.80239934,0.0,nan,nan,-0.0,nan,nan,nan,nan,nan,nan,-6.8359926e-17,-3.277456e-16,nan
173143238,nan,nan,-0.6575264,0.80239934,0.0,nan,nan,-0.0,nan,nan,nan,nan,nan,nan,-9.32963e-19,-7.2556763e-19,nan
173343463,nan,nan,-0.6575264,0.80239934,0.0,nan,nan,-0.0,nan,nan,nan,nan,nan,nan,9.108267e-22,6.0228594e-22,nan
173543558,nan,nan,-0.6575264,0.80239934,0.0,nan,nan,0.0,nan,nan,nan,nan,nan,nan,-1.2072396e-24,-1.0556303e-24,nan
173743792,nan,nan,nan,0.80239934,0.0,nan,nan,-0.09108392,nan,nan,nan,nan,nan,nan,6.678439e-28,6.6615615e-28,nan
173964259,nan,nan,nan,0.80239934,0.0,nan,nan,-0.29323506,nan,nan,nan,nan,nan,nan,1.9618348e-31,1.6121415e-31,nan
174164932,nan,nan,nan,0.80239934,0.0,nan,nan,-0.30795702,nan,nan,nan,nan,nan,nan,-1.4595814e-34,-1.376838e-34,nan
174365253,nan,nan,nan,0.80239934,0.0,nan,nan,-0.28848696,nan,nan,nan,nan,nan,nan,4.431545e-38,5.1897487e-38,nan
174564932,nan,nan,nan,0.80239934,0.0,nan,nan,-0.28291354,nan,nan,nan,nan,nan,nan,2.3114e-41,1.2994e-41,nan
174764857,nan,nan,nan,0.80239934,0.0,nan,nan,-0.29281864,nan,nan,nan,nan,nan,nan,-3.9e-44,-3.5e-44,nan
174964975,nan,nan,nan,0.80239934,0.0,nan,nan,-0.37609905,nan,nan,nan,nan,nan,nan,0.0,0.0,nan
175165126,nan,nan,nan,0.80239934,0.0,nan,nan,-0.39241678,nan,nan,nan,nan,nan,nan,0.0,0.0,nan
175365384,nan,nan,nan,0.80239934,0.0,nan,nan,-0.39065328,nan,nan,nan,nan,nan,nan,0.0,0.0,nan
175585697,nan,nan,nan,0.80239934,0.0,nan,nan,-0.38827863,nan,nan,nan,nan,nan,nan,0.0,0.0,nan
175785755,nan,nan,nan,0.80239934,0.0,nan,nan,-0.38380632,nan,nan,nan,nan,nan,nan,0.0,0.0,nan
175985953,nan,nan,nan,0.80239934,0.0,nan,nan,-0.38396603,nan,nan,nan,nan,nan,nan,0.0,0.0,nan
176186233,nan,nan,nan,0.80239934,0.0,nan,nan,-0.37809265,nan,nan,nan,nan,nan,nan,0.0,0.0,nan
176386401,nan,nan,nan,0.80239934,0.0,nan,nan,-0.37852496,nan,nan,nan,nan,nan,nan,0.0,0.0,nan
176586545,nan,nan,nan,0.80239934,0.0,nan,nan,-0.3839736,nan,nan,nan,nan,nan,nan,0.0,0.0,nan
176786792,nan,nan,nan,0.7553799,0.0,nan,nan,-0.3603332,nan,nan,nan,nan,nan,nan,0.0,0.0,nan
176987015,nan,nan,nan,0.7553799,0.0,nan,nan,-0.16524324,nan,nan,nan,nan,nan,nan,0.0,0.0,nan
177187254,nan,nan,-1.6854501,0.7553799,0.0,nan,nan,0.0,nan,nan,nan,nan,nan,nan,-0.099534504,-0.09373126,nan
177407397,nan,nan,-1.6854501,0.7553799,0.0,nan,nan,0.0,nan,nan,nan,nan,nan,nan,-0.2787991,-0.26254404,nan
177607568,nan,nan,-1.6854501,0.7553799,0.0,nan,nan,0.0,nan,nan,nan,nan,nan,nan,-0.29759037,-0.2802397,nan
177808126,nan,nan,-1.6854501,0.7553799,0.0,nan,nan,0.0,nan,nan,nan,nan,nan,nan,-0.13782509,-0.12978935,nan
178008247,nan,nan,-1.6854501,0.7553799,0.0,nan,nan,-0.0,nan,nan,nan,nan,nan,nan,2.8471522e-06,2.6811524e-06,nan
178208226,nan,nan,-1.6854501,0.7553799,0.0,nan,nan,-0.0,nan,nan,nan,nan,nan,nan,-4.191203e-08,-3.94684e-08,nan
178408404,nan,nan,nan,0.7553799,0.0,nan,nan,0.34316167,nan,nan,nan,nan,nan,nan,3.536526e-11,3.3303332e-11,nan
178608794,nan,nan,nan,0.7553799,0.0,nan,nan,0.39009562,nan,nan,nan,nan,nan,nan,-1.3117483e-14,-1.2352684e-14,nan
178829043,nan,nan,nan,0.7553799,0.0,nan,nan,0.4081678,nan,nan,nan,nan,nan,nan,-6.5575186e-18,-6.17519e-18,nan
179029093,nan,nan,nan,0.7553799,0.0,nan,nan,0.43451646,nan,nan,nan,nan,nan,nan,3.486965e-21,3.2836615e-21,nan
179229205,nan,nan,nan,0.7553799,0.0,nan,nan,0.4523862,nan,nan,nan,nan,nan,nan,-2.6688907e-25,-2.5132842e-25,nan
179431181,nan,nan,nan,0.7553799,0.0,nan,nan,0.45147663,nan,nan,nan,nan,nan,nan,-1.2430881e-27,-1.1706113e-27,nan
179630475,nan,nan,nan,0.7553799,0.0,nan,nan,0.49004057,nan,nan,nan,nan,nan,nan,1.1976273e-30,1.1278011e-30,nan
179830462,nan,nan,nan,0.7553799,0.0,nan,nan,0.50830597,nan,nan,nan,nan,nan,nan,1.378981e-34,1.2985811e-34,nan
180029998,nan,nan,nan,0.7553799,0.0,nan,nan,0.47510907,nan,nan,nan,nan,nan,nan,-2.1268852e-37,-2.0028795e-37,nan
180250350,nan,nan,nan,0.7553799,0.0,nan,nan,0.439408,nan,nan,nan,nan,nan,nan,-5.26e-42,-4.954e-42,nan
180450528,nan,nan,nan,0.7553799,0.0,nan,nan,0.4365609,nan,nan,nan,nan,nan,nan,3.4e-44,3.2e-44,nan
180650608,nan,nan,nan,0.7553799,0.0,nan,nan,0.100734726,nan,nan,nan,nan,nan,nan,0.0,0.0,nan
180850804,nan,nan,-0.666587,0.7553799,0.0,nan,nan,-0.0,nan,nan,nan,nan,nan,nan,0.06818218,0.0642069,nan
181051171,nan,nan,-0.666587,0.7553799,0.0,nan,nan,-0.0,nan,nan,nan,nan,nan,nan,0.09924674,0.09346027,nan
181251345,nan,nan,-0.666587,0.7553799,0.0,nan,nan,-0.0,nan,nan,nan,nan,nan,nan,0.00029881712,0.00028139492,nan
181451409,nan,nan,-0.666587,0.7553799,0.0,nan,nan,-0.0,nan,nan,nan,nan,nan,nan,-3.0126168e-07,-2.8369698e-07,nan
181651613,nan,nan,-0.666587,0.7553799,0.0,nan,nan,-0.0,nan,nan,nan,nan,nan,nan,1.3638302e-10,1.2843136e-10,nan
181852006,nan,nan,-0.666587,0.7553799,0.0,nan,nan,-0.0,nan,nan,nan,nan,nan,nan,-0.16141064,0.17140417,nan
182052101,nan,nan,-0.666587,0.7553799,0.0,nan,nan,-0.0,nan,nan,nan,nan,nan,nan,-0.18794549,0.19958188,nan
182272224,nan,nan,-0.666587,0.7553799,0.0,nan,nan,-0.0,nan,nan,nan,nan,nan,nan,0.0024488193,-0.0023910503,nan
182472465,nan,nan,-0.666587,0.7553799,0.0,nan,nan,-0.0,nan,nan,nan,nan,nan,nan,-3.5986503e-07,2.1589682e-07,nan
182672738,nan,nan,-0.666587,0.7553799,0.0,nan,nan,-0.0,nan,nan,nan,nan,nan,nan,-5.230157e-10,5.277098e-10,nan
182872914,nan,nan,-0.666587,0.7553799,0.0,nan,nan,-0.0,nan,nan,nan,nan,nan,nan,1.7434495e-13,-1.5365527e-13,nan
183073074,nan,nan,-0.666587,0.7553799,0.0,nan,nan,-0.0,nan,nan,nan,nan,nan,nan,6.9257186e-17,-8.9296907e-17,nan
183273222,nan,nan,-0.666587,0.7553799,0.0,nan,nan,0.0,nan,nan,nan,nan,nan,nan,-1.342272e-19,1.4295537e-19,nan
183473789,nan,nan,nan,0.7553799,0.0,nan,nan,-0.1096321,nan,nan,nan,nan,nan,nan,8.780498e-23,-8.6938335e-23,nan
183673840,nan,nan,nan,0.7553799,0.0,nan,nan,-0.23992667,nan,nan,nan,nan,nan,nan,-1.9798665e-26,1.5348018e-26,nan
183893910,nan,nan,nan,0.7553799,0.0,nan,nan,-0.25958824,nan,nan,nan,nan,nan,nan,-2.7145922e-30,2.1584376e-30,nan
184094061,nan,nan,-0.8247849,0.7553799,0.0,nan,nan,-0.0,nan,nan,nan,nan,nan,nan,-2.417728e-33,2.8679526e-33,nan
184294424,nan,nan,-0.8247849,0.7553799,0.0,nan,nan,-0.0,nan,nan,nan,nan,nan,nan,3.258625e-36,-3.41606e-36,nan
184494518,nan,nan,-0.8247849,0.7553799,0.0,nan,nan,-0.0,nan,nan,nan,nan,nan,nan,-0.09580065,-0.09021511,nan
184694637,nan,nan,-0.8247849,0.7553799,0.0,nan,nan,-0.0,nan,nan,nan,nan,nan,nan,-0.13394095,-0.12613167,nan
184894931,nan,nan,-0.8247849,0.7553799,0.0,nan,nan,-0.0,nan,nan,nan,nan,nan,nan,-0.08856149,-0.08339802,nan
185095206,nan,nan,-0.8247849,0.7553799,0.0,nan,nan,-0.0,nan,nan,nan,nan,nan,nan,-5.544622e-06,-5.2213495e-06,nan
185315478,nan,nan,-0.8247849,0.7553799,0.0,nan,nan,-0.0,nan,nan,nan,nan,nan,nan,-1.8950558e-08,-1.7845668e-08,nan
185515745,nan,nan,-0.8247849,0.7553799,0.0,nan,nan,0.0,nan,nan,nan,nan,nan,nan,5.1840203e-12,4.881772e-12,nan
185716098,nan,nan,nan,0.7553799,0.0,nan,nan,-1.0883944,nan,nan,nan,nan,nan,nan,3.4980693e-15,3.2941185e-15,nan
185916199,nan,nan,nan,0.7553799,0.0,nan,nan,-1.6137383,nan,nan,nan,nan,nan,nan,-1.5115805e-18,-1.4234496e-18,nan
186116111,nan,nan,nan,0.7553799,0.0,nan,nan,-1.5481017,nan,nan,nan,nan,nan,nan,3.097211e-21,2.9166318e-21,nan
186316302,nan,nan,nan,0.7553799,0.0,nan,nan,-1.434335,nan,nan,nan,nan,nan,nan,-4.817217e-25,-4.536355e-25,nan
186516480,nan,nan,nan,0.7553799,0.0,nan,nan,-1.3558382,nan,nan,nan,nan,nan,nan,-8.906609e-28,-8.38732e-28,nan
186716778,nan,nan,nan,0.7553799,0.0,nan,nan,-1.3955957,nan,nan,nan,nan,nan,nan,9.8105075e-31,9.238518e-31,nan
186916874,nan,nan,nan,0.7553799,0.0,nan,nan,-1.3517694,nan,nan,nan,nan,nan,nan,-4.7901836e-34,-4.5108976e-34,nan
187117062,nan,nan,nan,0.7553799,0.0,nan,nan,-1.3401732,nan,nan,nan,nan,nan,nan,2.708871e-39,2.550934e-39,nan
187317376,nan,nan,nan,0.7553799,0.0,nan,nan,-1.3043727,nan,nan,nan,nan,nan,nan,2.00395e-40,1.88711e-40,nan
187517552,nan,nan,nan,0.7553799,0.0,nan,nan,-0.0,nan,nan,nan,nan,nan,nan,-2.7e-44,-2.5e-44,nan
187737758,nan,nan,-3.1391,0.7553799,0.0,nan,nan,-0.0,nan,nan,nan,nan,nan,nan,0.0,0.0,nan
187937886,nan,nan,-3.1391,0.7553799,0.0,nan,nan,-0.0,nan,nan,nan,nan,nan,nan,0.0,0.0,nan
188138189,nan,nan,-3.1391,0.7553799,0.0,nan,nan,-0.0,nan,nan,nan,nan,nan,nan,0.0,0.0,nan
188338423,nan,nan,-3.1391,0.7553799,0.0,nan,nan,-0.0,nan,nan,nan,nan,nan,nan,0.0,0.0,nan
188538530,nan,nan,-3.1391,0.7553799,0.0,nan,nan,-0.0,nan,nan,nan,nan,nan,nan,0.0,0.0,nan
188738685,nan,nan,-3.1391,0.7553799,0.0,nan,nan,-0.0,nan,nan,nan,nan,nan,nan,0.0,0.0,nan
188938966,nan,nan,-3.1391,0.7553799,0.0,nan,nan,-0.0,nan,nan,nan,nan,nan,nan,0.0,0.0,nan
189139522,nan,nan,-3.1391,0.7553799,0.0,nan,nan,-0.0,nan,nan,nan,nan,nan,nan,-0.13507514,-0.12719974,nan
189339592,nan,nan,-3.1391,0.7553799,0.0,nan,nan,-0.0,nan,nan,nan,nan,nan,nan,-0.16521898,-0.15558608,nan
189559559,nan,nan,-3.1391,0.7553799,0.0,nan,nan,-0.0,nan,nan,nan,nan,nan,nan,-0.16720308,-0.15745449,nan
189759965,nan,nan,-3.1391,0.7553799,0.0,nan,nan,-0.0,nan,nan,nan,nan,nan,nan,0.0028937447,0.0027250284,nan
189960090,nan,nan,-3.1391,0.7553799,0.0,nan,nan,-0.0,nan,nan,nan,nan,nan,nan,-5.290514e-06,-4.9820565e-06,nan
190160140,nan,nan,nan,0.7553799,0.0,nan,nan,0.082704715,nan,nan,nan,nan,nan,nan,3.3913812e-09,3.1936507e-09,nan
190360354,nan,nan,nan,0.7553799,0.0,nan,nan,0.35848084,nan,nan,nan,nan,nan,nan,-7.197857e-13,-6.7781945e-13,nan
190560598,nan,nan,nan,0.7553799,0.0,nan,nan,0.44574317,nan,nan,nan,nan,nan,nan,-8.074539e-16,-7.603763e-16,nan
190760833,nan,nan,nan,0.7553799,0.0,nan,nan,0.46542317,nan,nan,nan,nan,nan,nan,1.009216e-18,9.503748e-19,nan
190960969,nan,nan,nan,0.7553799,0.0,nan,nan,0.47845143,nan,nan,nan,nan,nan,nan,-5.388137e-22,-5.0739877e-22,nan
191161107,nan,nan,nan,0.7553799,0.0,nan,nan,0.4896491,nan,nan,nan,nan,nan,nan,4.2961738e-26,4.04569e-26,nan
191361391,nan,nan,nan,0.7553799,0.0,nan,nan,0.54628533,nan,nan,nan,nan,nan,nan,1.9058276e-28,1.7947104e-28,nan
191561685,nan,nan,nan,0.7553799,0.0,nan,nan,0.5871093,nan,nan,nan,nan,nan,nan,-1.8447811e-31,-1.7372233e-31,nan
191781771,nan,nan,nan,0.7553799,0.0,nan,nan,0.75550437,nan,nan,nan,nan,nan,nan,-2.103294e-35,-1.980664e-35,nan
191981929,nan,nan,nan,0.7553799,0.0,nan,nan,0.7697845,nan,nan,nan,nan,nan,nan,3.2713968e-38,3.080662e-38,nan
192182315,nan,nan,nan,0.7553799,0.0,nan,nan,0.8049651,nan,nan,nan,nan,nan,nan,-1.9642e-41,-1.8497e-41,nan
192382494,nan,nan,nan,0.7553799,0.0,nan,nan,0.8029418,nan,nan,nan,nan,nan,nan,3e-45,3e-45,nan
192582557,nan,nan,nan,0.7553799,0.0,nan,nan,0.79748434,nan,nan,nan,nan,nan,nan,0.0,0.0,nan
192782732,nan,nan,nan,0.7553799,0.0,nan,nan,0.79755944,nan,nan,nan,nan,nan,nan,0.0,0.0,nan
192983021,nan,nan,nan,0.7553799,0.0,nan,nan,0.8058929,nan,nan,nan,nan,nan,nan,0.0,0.0,nan
193183307,nan,nan,nan,0.7553799,0.0,nan,nan,0.7973516,nan,nan,nan,nan,nan,nan,0.0,0.0,nan
193403428,nan,nan,nan,0.7553799,0.0,nan,nan,0.794658,nan,nan,nan,nan,nan,nan,0.0,0.0,nan
193603577,nan,nan,nan,0.7553799,0.0,nan,nan,0.71767795,nan,nan,nan,nan,nan,nan,0.0,0.0,nan
193803810,nan,nan,nan,0.7553799,0.0,nan,nan,0.29211372,nan,nan,nan,nan,nan,nan,0.0,0.0,nan
194004215,nan,nan,-0.74727136,0.7553799,0.0,nan,nan,-0.0,nan,nan,nan,nan,nan,nan,0.0,0.0,nan
194204332,nan,nan,-0.74727136,0.7553799,0.0,nan,nan,-0.0,nan,nan,nan,nan,nan,nan,-0.07970422,0.08463899,nan
194404370,nan,nan,-0.74727136,0.7553799,0.0,nan,nan,-0.0,nan,nan,nan,nan,nan,nan,-0.16109683,0.17107092,nan
194604732,nan,nan,-0.74727136,0.7553799,0.0,nan,nan,-0.0,nan,nan,nan,nan,nan,nan,-0.22489604,0.23882018,nan
194825025,nan,nan,-0.74727136,0.7553799,0.0,nan,nan,-0.0,nan,nan,nan,nan,nan,nan,-0.27191955,0.2887551,nan
195025075,nan,nan,-0.74727136,0.7553799,0.0,nan,nan,-0.0,nan,nan,nan,nan,nan,nan,-0.2862995,0.30402532,nan
195225193,nan,nan,-0.74727136,0.7553799,0.0,nan,nan,-0.0,nan,nan,nan,nan,nan,nan,-0.26100063,0.27716014,nan
195426032,nan,nan,-0.74727136,0.7553799,0.0,nan,nan,-0.0,nan,nan,nan,nan,nan,nan,-0.025855068,0.02745585,nan
195626311,nan,nan,-0.74727136,0.7553799,0.0,nan,nan,-0.0,nan,nan,nan,nan,nan,nan,-1.2690377e-05,1.3476085e-05,nan
195826749,nan,nan,-0.74727136,0.7553799,0.0,nan,nan,-0.0,nan,nan,nan,nan,nan,nan,6.81911e-09,-7.2413058e-09,nan
196026370,nan,nan,-0.74727136,0.7553799,0.0,nan,nan,-0.0,nan,nan,nan,nan,nan,nan,0.050827067,-0.1342468,nan
196226323,nan,nan,-0.74727136,0.7553799,0.0,nan,nan,-0.0,nan,nan,nan,nan,nan,nan,0.09501548,-0.15602666,nan
196426504,nan,nan,-0.74727136,0.7553799,0.0,nan,nan,-0.0,nan,nan,nan,nan,nan,nan,0.08832961,-0.20988873,nan
196646650,nan,nan,-0.74727136,0.7553799,0.0,nan,nan,-0.0,nan,nan,nan,nan,nan,nan,0.117325015,-0.26059186,nan
196846831,nan,nan,-0.74727136,0.7553799,0.0,nan,nan,-0.0,nan,nan,nan,nan,nan,nan,0.0014756039,-0.0013470522,nan
197047183,nan,nan,-0.74727136,0.7553799,0.0,nan,nan,-0.0,nan,nan,nan,nan,nan,nan,1.1497317e-05,-1.1306344e-05,nan
197247298,nan,nan,-0.74727136,0.7553799,0.0,nan,nan,-0.0,nan,nan,nan,nan,nan,nan,-1.0656596e-08,1.0435548e-08,nan
197447385,nan,nan,-0.74727136,0.7553799,0.0,nan,nan,-0.0,nan,nan,nan,nan,nan,nan,4.431842e-12,-4.3198023e-12,nan
197647577,nan,nan,-0.74727136,0.7553799,0.0,nan,nan,-0.0,nan,nan,nan,nan,nan,nan,-0.12385944,-0.11663796,nan
197847899,nan,nan,-0.74727136,0.7553799,0.0,nan,nan,-0.0,nan,nan,nan,nan,nan,nan,-0.22094317,-0.20806134,nan
198068060,nan,nan,-0.74727136,0.7553799,0.0,nan,nan,-0.0,nan,nan,nan,nan,nan,nan,-0.029515179,-0.027794331,nan
198268201,nan,nan,-0.74727136,0.7553799,0.0,nan,nan,-0.0,nan,nan,nan,nan,nan,nan,2.9824494e-06,2.808561e-06,nan
198468433,nan,nan,-0.74727136,0.7553799,0.0,nan,nan,-0.0,nan,nan,nan,nan,nan,nan,-6.645504e-09,-6.2580456e-09,nan
198668747,nan,nan,-0.74727136,0.7553799,0.0,nan,nan,-0.0,nan,nan,nan,nan,nan,nan,-2.5091653e-13,-2.3628712e-13,nan
198868842,nan,nan,-0.74727136,0.7553799,0.0,nan,nan,-0.0,nan,nan,nan,nan,nan,nan,3.0318469e-15,2.8550785e-15,nan
199069015,nan,nan,-0.74727136,0.7553799,0.0,nan,nan,0.0,nan,nan,nan,nan,nan,nan,-2.539235e-18,-2.3911879e-18,nan
199269251,nan,nan,nan,0.7553799,0.0,nan,nan,-0.14534204,nan,nan,nan,nan,nan,nan,9.322929e-22,8.779367e-22,nan
199489891,nan,nan,nan,0.7553799,0.0,nan,nan,-0.19421029,nan,nan,nan,nan,nan,nan,4.720317e-25,4.445104e-25,nan
199689838,nan,nan,nan,0.7553799,0.0,nan,nan,-0.3633329,nan,nan,nan,nan,nan,nan,2.983927e-29,2.8099526e-29,nan
199889940,nan,nan,nan,0.7553799,0.0,nan,nan,-0.12501922,nan,nan,nan,nan,nan,nan,-7.82078e-32,-7.3647983e-32,nan
200090042,nan,nan,-0.8105523,0.7553799,0.0,nan,nan,0.0,nan,nan,nan,nan,nan,nan,5.560996e-35,5.236768e-35,nan
200291188,nan,nan,-0.8105523,0.7553799,0.0,nan,nan,-0.0,nan,nan,nan,nan,nan,nan,-1.5418755e-38,-1.4519782e-38,nan
200491524,nan,nan,-0.8105523,0.7553799,0.0,nan,nan,-0.0,nan,nan,nan,nan,nan,nan,-1.0085e-41,-9.497e-42,nan
200690651,nan,nan,nan,0.7553799,0.0,nan,nan,-0.056909,nan,nan,nan,nan,nan,nan,4e-45,4e-45,nan
200891113,nan,nan,nan,0.7553799,0.0,nan,nan,-0.3265938,nan,nan,nan,nan,nan,nan,0.0,0.0,nan
201111195,nan,nan,nan,0.7553799,0.0,nan,nan,-0.46031803,nan,nan,nan,nan,nan,nan,0.0,0.0,nan
201311300,nan,nan,nan,0.7553799,0.0,nan,nan,-0.1545132,nan,nan,nan,nan,nan,nan,0.0,0.0,nan
201511442,nan,nan,-1.0250132,0.7553799,0.0,nan,nan,-0.0,nan,nan,nan,nan,nan,nan,0.0,0.0,nan
201711765,nan,nan,-1.0250132,0.7553799,0.0,nan,nan,-0.0,nan,nan,nan,nan,nan,nan,0.0,0.0,nan
201911985,nan,nan,-1.0250132,0.7553799,0.0,nan,nan,-0.0,nan,nan,nan,nan,nan,nan,-0.07477623,-0.07041649,nan
202112144,nan,nan,-1.0250132,0.7553799,0.0,nan,nan,-0.0,nan,nan,nan,nan,nan,nan,-0.23556435,-0.22183004,nan
202312305,nan,nan,-1.0250132,0.7553799,0.0,nan,nan,-0.0,nan,nan,nan,nan,nan,nan,-0.19814341,-0.18659088,nan
202512462,nan,nan,-1.0250132,0.7553799,0.0,nan,nan,-0.0,nan,nan,nan,nan,nan,nan,0.0040784976,0.0038407056,nan
203133049,nan,nan,-1.0250132,0.7553799,0.0,nan,nan,-0.0,nan,nan,nan,nan,nan,nan,7.23051e-13,6.8089436e-13,nan
203733706,nan,nan,nan,0.7553799,0.0,nan,nan,-0.63888407,nan,nan,nan,nan,nan,nan,1.1505852e-23,1.0835016e-23,nan
203933857,nan,nan,nan,0.7553799,0.0,nan,nan,-1.0600461,nan,nan,nan,nan,nan,nan,-8.347781e-26,-7.8610735e-26,nan
204134057,nan,nan,nan,0.7553799,0.0,nan,nan,-1.0968428,nan,nan,nan,nan,nan,nan,1.3444963e-28,1.266107e-28,nan
204354684,nan,nan,nan,0.7553799,0.0,nan,nan,-1.1540418,nan,nan,nan,nan,nan,nan,2.0148952e-32,1.897419e-32,nan
204554608,nan,nan,nan,0.7553799,0.0,nan,nan,-1.2041451,nan,nan,nan,nan,nan,nan,-2.4947598e-35,-2.3493057e-35,nan
204754754,nan,nan,nan,0.7553799,0.0,nan,nan,-1.202531,nan,nan,nan,nan,nan,nan,1.3239413e-38,1.2467505e-38,nan
204955189,nan,nan,nan,0.7553799,0.0,nan,nan,-1.2788932,nan,nan,nan,nan,nan,nan,-2.2938e-41,-2.16e-41,nan
205155190,nan,nan,nan,0.7553799,0.0,nan,nan,-1.3132796,nan,nan,nan,nan,nan,nan,-4e-45,-4e-45,nan
205355323,nan,nan,nan,0.7553799,0.0,nan,nan,-1.3296821,nan,nan,nan,nan,nan,nan,0.0,0.0,nan
205555488,nan,nan,nan,0.7553799,0.0,nan,nan,-1.3333158,nan,nan,nan,nan,nan,nan,0.0,0.0,nan
205775783,nan,nan,nan,0.7553799,0.0,nan,nan,-1.3375593,nan,nan,nan,nan,nan,nan,0.0,0.0,nan
205976073,nan,nan,nan,0.7553799,0.0,nan,nan,-1.3316708,nan,nan,nan,nan,nan,nan,0.0,0.0,nan
206176580,nan,nan,nan,0.7553799,0.0,nan,nan,-1.346007,nan,nan,nan,nan,nan,nan,0.0,0.0,nan
206376321,nan,nan,nan,0.7553799,0.0,nan,nan,-1.3461905,nan,nan,nan,nan,nan,nan,0.0,0.0,nan
206576819,nan,nan,nan,0.7553799,0.0,nan,nan,-1.3459907,nan,nan,nan,nan,nan,nan,0.0,0.0,nan
206776888,nan,nan,nan,0.7553799,0.0,nan,nan,-1.3489646,nan,nan,nan,nan,nan,nan,0.0,0.0,nan
206976942,nan,nan,nan,0.7553799,0.0,nan,nan,-1.2410018,nan,nan,nan,nan,nan,nan,0.0,0.0,nan
207177124,nan,nan,nan,0.7553799,0.0,nan,nan,-0.46530935,nan,nan,nan,nan,nan,nan,0.0,0.0,nan
207397557,nan,nan,-5.2207723,0.7553799,0.0,nan,nan,-0.0,nan,nan,nan,nan,nan,nan,0.0,0.0,nan
207597680,nan,nan,-5.2207723,0.7553799,0.0,nan,nan,-0.0,nan,nan,nan,nan,nan,nan,0.0,0.0,nan
207797786,nan,nan,-5.2207723,0.7553799,0.0,nan,nan,-0.0,nan,nan,nan,nan,nan,nan,0.0,0.0,nan
207997917,nan,nan,-5.2207723,0.7553799,0.0,nan,nan,-0.0,nan,nan,nan,nan,nan,nan,0.0,0.0,nan
208198219,nan,nan,-5.2207723,0.7553799,0.0,nan,nan,-0.0,nan,nan,nan,nan,nan,nan,0.0,0.0,nan
208398426,nan,nan,-5.2207723,0.7553799,0.0,nan,nan,-0.0,nan,nan,nan,nan,nan,nan,0.0,0.0,nan
208598514,nan,nan,-5.2207723,0.7553799,0.0,nan,nan,-0.0,nan,nan,nan,nan,nan,nan,0.0,0.0,nan
208798731,nan,nan,-5.2207723,0.7553799,0.0,nan,nan,-0.0,nan,nan,nan,nan,nan,nan,0.0,0.0,nan
208999002,nan,nan,nan,0.7553799,0.0,nan,nan,0.24272498,nan,nan,nan,nan,nan,nan,0.0,0.0,nan
209199549,nan,nan,nan,0.7553799,0.0,nan,nan,0.4074352,nan,nan,nan,nan,nan,nan,0.0,0.0,nan
209419561,nan,nan,nan,0.7553799,0.0,nan,nan,0.5980973,nan,nan,nan,nan,nan,nan,0.0,0.0,nan
209619595,nan,nan,nan,0.7553799,0.0,nan,nan,0.66495246,nan,nan,nan,nan,nan,nan,0.0,0.0,nan
209819969,nan,nan,nan,0.7553799,0.0,nan,nan,0.8233884,nan,nan,nan,nan,nan,nan,0.0,0.0,nan
210020205,nan,nan,nan,0.7553799,0.0,nan,nan,0.8811961,nan,nan,nan,nan,nan,nan,0.0,0.0,nan
210220178,nan,nan,nan,0.7553799,0.0,nan,nan,0.88183355,nan,nan,nan,nan,nan,nan,0.0,0.0,nan
210420377,nan,nan,nan,0.7553799,0.0,nan,nan,0.8971412,nan,nan,nan,nan,nan,nan,0.0,0.0,nan
210620596,nan,nan,nan,0.7553799,0.0,nan,nan,0.9045776,nan,nan,nan,nan,nan,nan,0.0,0.0,nan
210820855,nan,nan,nan,0.7553799,0.0,nan,nan,0.92229396,nan,nan,nan,nan,nan,nan,0.0,0.0,nan
211020976,nan,nan,nan,0.7553799,0.0,nan,nan,0.9301334,nan,nan,nan,nan,nan,nan,0.0,0.0,nan
211241618,nan,nan,nan,0.7553799,0.0,nan,nan,0.9499085,nan,nan,nan,nan,nan,nan,0.0,0.0,nan
211441415,nan,nan,nan,0.7553799,0.0,nan,nan,0.9580265,nan,nan,nan,nan,nan,nan,0.0,0.0,nan
211641691,nan,nan,nan,0.7553799,0.0,nan,nan,1.0,nan,nan,nan,nan,nan,nan,0.0,0.0,nan
211841772,nan,nan,nan,0.7553799,0.0,nan,nan,0.9999999,nan,nan,nan,nan,nan,nan,0.0,0.0,nan
212041970,nan,nan,nan,0.7553799,0.0,nan,nan,1.0,nan,nan,nan,nan,nan,nan,0.0,0.0,nan
212242215,nan,nan,nan,0.7553799,0.0,nan,nan,1.0,nan,nan,nan,nan,nan,nan,0.0,0.0,nan
212442429,nan,nan,nan,0.7553799,0.0,nan,nan,1.0,nan,nan,nan,nan,nan,nan,0.0,0.0,nan
212642572,nan,nan,nan,0.7553799,0.0,nan,nan,1.0,nan,nan,nan,nan,nan,nan,0.0,0.0,nan
212862830,nan,nan,nan,0.7553799,0.0,nan,nan,1.0,nan,nan,nan,nan,nan,nan,0.0,0.0,nan
213063085,nan,nan,nan,0.7553799,0.0,nan,nan,1.0,nan,nan,nan,nan,nan,nan,0.0,0.0,nan
213263300,nan,nan,nan,0.7553799,0.0,nan,nan,1.0,nan,nan,nan,nan,nan,nan,0.0,0.0,nan
213463500,nan,nan,nan,0.7553799,0.0,nan,nan,1.0,nan,nan,nan,nan,nan,nan,0.0,0.0,nan
213663577,nan,nan,nan,0.7553799,0.0,nan,nan,1.0,nan,nan,nan,nan,nan,nan,0.0,0.0,nan
213864134,nan,nan,nan,0.7553799,0.0,nan,nan,0.98663527,nan,nan,nan,nan,nan,nan,0.0,0.0,nan
214064206,nan,nan,nan,0.7553799,0.0,nan,nan,0.44673342,nan,nan,nan,nan,nan,nan,0.0,0.0,nan
214284343,nan,nan,-0.7494778,0.7553799,0.0,nan,nan,-0.0,nan,nan,nan,nan,nan,nan,0.0,0.0,nan
214484414,nan,nan,-0.7494778,0.7553799,0.0,nan,nan,-0.0,nan,nan,nan,nan,nan,nan,0.0,0.0,nan
214684745,nan,nan,-0.7494778,0.7553799,0.0,nan,nan,-0.0,nan,nan,nan,nan,nan,nan,0.0,0.0,nan
214885053,nan,nan,-0.7494778,0.7553799,0.0,nan,nan,-0.0,nan,nan,nan,nan,nan,nan,-0.063094914,-0.025333187,nan
215085066,nan,nan,-0.7494778,0.7553799,0.0,nan,nan,-0.0,nan,nan,nan,nan,nan,nan,-0.28335878,-0.16370805,nan
215285215,nan,nan,-0.7494778,0.7553799,0.0,nan,nan,-0.0,nan,nan,nan,nan,nan,nan,-0.3357892,-0.21667227,nan
215485639,nan,nan,-0.7494778,0.7553799,0.0,nan,nan,-0.0,nan,nan,nan,nan,nan,nan,-0.3075811,0.013516407,nan
215685699,nan,nan,-0.7494778,0.7553799,0.0,nan,nan,-0.0,nan,nan,nan,nan,nan,nan,-0.32030925,0.22540918,nan
215905887,nan,nan,-0.7494778,0.7553799,0.0,nan,nan,-0.0,nan,nan,nan,nan,nan,nan,-0.377445,0.40131477,nan
216106096,nan,nan,-0.7494778,0.7553799,0.0,nan,nan,-0.0,nan,nan,nan,nan,nan,nan,-0.3824619,0.40614042,nan
216306371,nan,nan,-0.7494778,0.7553799,0.0,nan,nan,-0.0,nan,nan,nan,nan,nan,nan,-0.19409047,0.20610732,nan
216506546,nan,nan,-0.7494778,0.7553799,0.0,nan,nan,-0.0,nan,nan,nan,nan,nan,nan,-6.49138e-05,6.893285e-05,nan
216706617,nan,nan,-0.7494778,0.7553799,0.0,nan,nan,-0.0,nan,nan,nan,nan,nan,nan,-1.0700121e-07,1.13626044e-07,nan
216906850,nan,nan,-0.7494778,0.7553799,0.0,nan,nan,-0.0,nan,nan,nan,nan,nan,nan,0.052532468,-0.056557555,nan
217107169,nan,nan,-0.7494778,0.7553799,0.0,nan,nan,-0.0,nan,nan,nan,nan,nan,nan,0.14718428,-0.33391148,nan
217307336,nan,nan,-0.7494778,0.7553799,0.0,nan,nan,-0.0,nan,nan,nan,nan,nan,nan,0.070121005,-0.07396133,nan
217507417,nan,nan,-0.7494778,0.7553799,0.0,nan,nan,-0.0,nan,nan,nan,nan,nan,nan,3.8864582e-05,-4.6230514e-05,nan
217727637,nan,nan,-0.7494778,0.7553799,0.0,nan,nan,-0.0,nan,nan,nan,nan,nan,nan,-0.11578179,-0.10903128,nan
217928002,nan,nan,-0.7494778,0.7553799,0.0,nan,nan,-0.0,nan,nan,nan,nan,nan,nan,-0.2744016,-0.25840294,nan
218128094,nan,nan,-0.7494778,0.7553799,0.0,nan,nan,-0.0,nan,nan,nan,nan,nan,nan,0.004498219,0.004235956,nan
218328254,nan,nan,-0.7494778,0.7553799,0.0,nan,nan,-0.0,nan,nan,nan,nan,nan,nan,-5.9728527e-06,-5.6246126e-06,nan
218528564,nan,nan,-0.7494778,0.7553799,0.0,nan,nan,-0.0,nan,nan,nan,nan,nan,nan,0.039181486,-0.041607346,nan
218729016,nan,nan,-0.7494778,0.7553799,0.0,nan,nan,-0.0,nan,nan,nan,nan,nan,nan,0.09883554,0.0009333315,nan
218929038,nan,nan,-0.7494778,0.7553799,0.0,nan,nan,-0.0,nan,nan,nan,nan,nan,nan,0.078879714,0.06499227,nan
219129158,nan,nan,-0.7494778,0.7553799,0.0,nan,nan,0.0,nan,nan,nan,nan,nan,nan,-6.61607e-05,-5.5341276e-05,nan
219349647,nan,nan,nan,0.7553799,0.0,nan,nan,-0.42880863,nan,nan,nan,nan,nan,nan,3.6873526e-09,4.7525273e-09,nan
219549675,nan,nan,nan,0.7553799,0.0,nan,nan,-0.74977887,nan,nan,nan,nan,nan,nan,9.157055e-12,7.277032e-12,nan
219749728,nan,nan,nan,0.7553799,0.0,nan,nan,-0.49536636,nan,nan,nan,nan,nan,nan,-9.550784e-15,-8.361235e-15,nan
219949877,nan,nan,nan,0.7553799,0.0,nan,nan,-0.07817475,nan,nan,nan,nan,nan,nan,4.4575522e-18,4.215385e-18,nan
