timestamp,heartbeat_time,data_rate,rate_multiplier,rate_rx,rate_tx,rate_txerr,remote_system_id,remote_component_id,remote_type,remote_system_status,type,mode,flow_control,forwarding,mavlink_v2,ftp,streams
101099228,100087223,1200.0,0.36675593,0.064360574,1.3466213,0.0,255,0,6,4,0,0,0,1,1,1,36
101119325,101111566,1200.0,0.36675593,0.064360574,1.3466213,0.0,255,0,6,4,0,0,0,1,1,1,36
102125222,101111566,1200.0,0.36675593,0.020900305,0.9186182,0.0,255,0,6,4,0,0,0,1,1,1,36
102155272,102149039,1200.0,0.36675593,0.020900305,0.9186182,0.0,255,0,6,4,0,0,0,1,1,1,36
102993398,102986157,1200.0,0.36675593,0.020862432,1.5428265,0.0,255,0,6,4,0,0,0,1,1,1,36
104001843,102986157,1200.0,0.36675593,0.020906234,0.99752605,0.0,255,0,6,4,0,0,0,1,1,1,36
104012273,104002047,1200.0,0.36675593,0.020906234,0.99752605,0.0,255,0,6,4,0,0,0,1,1,1,36
105020339,104002047,1200.0,0.36675593,0.046798017,0.9518916,0.0,255,0,6,4,0,0,0,1,1,1,36
105033303,105030161,1200.0,0.36675593,0.046798017,0.9518916,0.0,255,0,6,4,0,0,0,1,1,1,36
106041979,105030161,1200.0,0.36675593,0.020862184,1.1464267,0.0,255,0,6,4,0,0,0,1,1,1,36
106071382,106063160,1200.0,0.36675593,0.020862184,1.1464267,0.0,255,0,6,4,0,0,0,1,1,1,36
107026555,107025576,1200.0,0.36675593,0.020872489,0.97404945,0.0,255,0,6,4,0,0,0,1,1,1,36
108036197,107025576,1200.0,0.36675593,0.020814933,1.0328171,0.0,255,0,6,4,0,0,0,1,1,1,36
108127448,108127301,1200.0,0.36675593,0.020814933,1.0328171,0.0,255,0,6,4,0,0,0,1,1,1,36
109135260,109132088,1200.0,0.36675593,0.020937188,1.2003987,0.0,255,0,6,4,0,0,0,1,1,1,36
109986423,109982050,1200.0,0.36675593,0.020935705,0.99494445,0.0,255,0,6,4,0,0,0,1,1,1,36
110995556,109982050,1200.0,0.36675593,0.020959567,1.1338128,0.0,255,0,6,4,0,0,0,1,1,1,36
111015335,111014046,1200.0,0.36675593,0.020959567,1.1338128,0.0,255,0,6,4,0,0,0,1,1,1,36
111992119,111991963,1200.0,0.36675593,0.020916356,1.2808777,0.0,255,0,6,4,0,0,0,1,1,1,36
112996880,111991963,1200.0,0.36675593,0.020826885,1.034402,0.0,255,0,6,4,0,0,0,1,1,1,36
113016752,113012587,1200.0,0.36675593,0.020826885,1.034402,0.0,255,0,6,4,0,0,0,1,1,1,36
114019410,113012587,1200.0,0.36675593,0.020932846,1.1273832,0.0,255,0,6,4,0,0,0,1,1,1,36
114110659,114107161,1200.0,0.36675593,0.020932846,1.1273832,0.0,255,0,6,4,0,0,0,1,1,1,36
115112175,114107161,1200.0,0.36675593,0.046649057,1.0163538,0.0,255,0,6,4,0,0,0,1,1,1,36
115142682,115134612,1200.0,0.36675593,0.046649057,1.0163538,0.0,255,0,6,4,0,0,0,1,1,1,36
116151595,115134612,1200.0,0.36675593,0.020814376,0.9277265,0.0,255,0,6,4,0,0,0,1,1,1,36
116172235,116164079,1200.0,0.36675593,0.020814376,0.9277265,0.0,255,0,6,4,0,0,0,1,1,1,36
116997245,116988044,1200.0,0.36675593,0.020936353,1.2781144,0.0,255,0,6,4,0,0,0,1,1,1,36
118004384,116988044,1200.0,0.36675593,0.020914147,0.8903451,0.0,255,0,6,4,0,0,0,1,1,1,36
118025211,118019136,1200.0,0.36675593,0.020914147,0.8903451,0.0,255,0,6,4,0,0,0,1,1,1,36
119027170,118019136,1200.0,0.36675593,0.02087695,0.99712294,0.0,255,0,6,4,0,0,0,1,1,1,36
119057356,119052164,1200.0,0.36675593,0.02087695,0.99712294,0.0,255,0,6,4,0,0,0,1,1,1,36
120064251,119052164,1200.0,0.36675593,0.02099664,1.1738122,0.0,255,0,6,4,0,0,0,1,1,1,36
120094327,120085103,1200.0,0.36675593,0.02099664,1.1738122,0.0,255,0,6,4,0,0,0,1,1,1,36
121096200,120085103,1200.0,0.36675593,0.02089602,0.99405354,0.0,255,0,6,4,0,0,0,1,1,1,36
121116870,121110142,1200.0,0.36675593,0.02089602,0.99405354,0.0,255,0,6,4,0,0,0,1,1,1,36
122125352,121110142,1200.0,0.36675593,0.020887936,1.4711075,0.0,255,0,6,4,0,0,0,1,1,1,36
122145227,122143137,1200.0,0.36675593,0.020887936,1.4711075,0.0,255,0,6,4,0,0,0,1,1,1,36
122991496,122986169,1200.0,0.36675593,0.020881122,1.0191977,0.0,255,0,6,4,0,0,0,1,1,1,36
123996436,122986169,1200.0,0.36675593,0.020858413,1.0647722,0.0,255,0,6,4,0,0,0,1,1,1,36
124006839,124001537,1200.0,0.36675593,0.020858413,1.0647722,0.0,255,0,6,4,0,0,0,1,1,1,36
124992147,124988202,1200.0,0.36675593,0.046626147,1.0307355,0.0,255,0,6,4,0,0,0,1,1,1,36
125995295,125993076,1200.0,0.36675593,0.020958062,1.029939,0.0,255,0,6,4,0,0,0,1,1,1,36
127002536,125993076,1200.0,0.36675593,0.02092759,0.902876,0.0,255,0,6,4,0,0,0,1,1,1,36
127024249,127020164,1200.0,0.36675593,0.02092759,0.902876,0.0,255,0,6,4,0,0,0,1,1,1,36
128025529,127020164,1200.0,0.36675593,0.020880355,1.304525,0.0,255,0,6,4,0,0,0,1,1,1,36
128131295,128130039,1200.0,0.36675593,0.020880355,1.304525,0.0,255,0,6,4,0,0,0,1,1,1,36
129138219,128130039,1200.0,0.36675593,0.020923335,0.9415501,0.0,255,0,6,4,0,0,0,1,1,1,36
129169569,129162057,1200.0,0.36675593,0.020923335,0.9415501,0.0,255,0,6,4,0,0,0,1,1,1,36
129990213,129986047,1200.0,0.36675593,0.02095503,1.269276,0.0,255,0,6,4,0,0,0,1,1,1,36
130997438,129986047,1200.0,0.36675593,0.02086206,1.1186037,0.0,255,0,6,4,0,0,0,1,1,1,36
131017302,131011262,1200.0,0.36675593,0.02086206,1.1186037,0.0,255,0,6,4,0,0,0,1,1,1,36
132027256,131011262,1200.0,0.36675593,0.02084514,0.9727732,0.0,255,0,6,4,0,0,0,1,1,1,36
132047196,132045061,1200.0,0.36675593,0.02084514,0.9727732,0.0,255,0,6,4,0,0,0,1,1,1,36
133048145,132045061,1200.0,0.36675593,0.020937417,1.262227,0.0,255,0,6,4,0,0,0,1,1,1,36
133088149,133079124,1200.0,0.36675593,0.020937417,1.262227,0.0,255,0,6,4,0,0,0,1,1,1,36
134096464,133079124,1200.0,0.36675593,0.020875247,0.9453505,0.0,255,0,6,4,0,0,0,1,1,1,36
134116180,134110138,1200.0,0.36675593,0.020875247,0.9453505,0.0,255,0,6,4,0,0,0,1,1,1,36
135120455,134110138,1200.0,0.36675593,0.046731107,1.0867468,0.0,255,0,6,4,0,0,0,1,1,1,36
135151329,135141047,1200.0,0.36675593,0.046731107,1.0867468,0.0,255,0,6,4,0,0,0,1,1,1,36
136152347,135141047,1200.0,0.36675593,0.020971855,1.1424668,0.0,255,0,6,4,0,0,0,1,1,1,36
136183126,136174965,1200.0,0.36675593,0.020971855,1.1424668,0.0,255,0,6,4,0,0,0,1,1,1,36
137000761,137000257,1200.0,0.36675593,0.020869274,0.9391173,0.0,255,0,6,4,0,0,0,1,1,1,36
138003780,137000257,1200.0,0.36675593,0.020820918,0.858615,0.0,255,0,6,4,0,0,0,1,1,1,36
138033145,138031948,1200.0,0.36675593,0.020820918,0.858615,0.0,255,0,6,4,0,0,0,1,1,1,36
139042504,138031948,1200.0,0.36675593,0.020981997,1.3938041,0.0,255,0,6,4,0,0,0,1,1,1,36
139062224,139058336,1200.0,0.36675593,0.020981997,1.3938041,0.0,255,0,6,4,0,0,0,1,1,1,36
140038399,140029045,1200.0,0.36675593,0.020891903,0.9202386,0.0,255,0,6,4,0,0,0,1,1,1,36
141043282,140029045,1200.0,0.36675593,0.020809138,1.475467,0.0,255,0,6,4,0,0,0,1,1,1,36
141094565,141089105,1200.0,0.36675593,0.020809138,1.475467,0.0,255,0,6,4,0,0,0,1,1,1,36
142094730,141089105,1200.0,0.36675593,0.020878175,0.9971814,0.0,255,0,6,4,0,0,0,1,1,1,36
142137913,142134044,1200.0,0.36675593,0.020878175,0.9971814,0.0,255,0,6,4,0,0,0,1,1,1,36
144000549,142990039,1200.0,0.36675593,0.020782141,1.1420281,0.0,255,0,6,4,0,0,0,1,1,1,36
144010750,144008049,1200.0,0.36675593,0.020782141,1.1420281,0.0,255,0,6,4,0,0,0,1,1,1,36
145013412,144008049,1200.0,0.36675593,0.04669341,1.0342094,0.0,255,0,6,4,0,0,0,1,1,1,36
145023325,145022205,1200.0,0.36675593,0.04669341,1.0342094,0.0,255,0,6,4,0,0,0,1,1,1,36
146027593,145022205,1200.0,0.36675593,0.020879108,0.997226,0.0,255,0,6,4,0,0,0,1,1,1,36
146079252,146073138,1200.0,0.36675593,0.020879108,0.997226,0.0,255,0,6,4,0,0,0,1,1,1,36
147079493,146073138,1200.0,0.36675593,0.020792078,1.161386,0.0,255,0,6,4,0,0,0,1,1,1,36
147110220,147102057,1200.0,0.36675593,0.020792078,1.161386,0.0,255,0,6,4,0,0,0,1,1,1,36
148111410,147102057,1200.0,0.36675593,0.02089552,0.9940298,0.0,255,0,6,4,0,0,0,1,1,1,36
148132741,148132430,1200.0,0.36675593,0.02089552,0.9940298,0.0,255,0,6,4,0,0,0,1,1,1,36
149132108,149128381,1200.0,0.36675593,0.020936124,1.1315476,0.0,255,0,6,4,0,0,0,1,1,1,36
149996288,149989076,1200.0,0.36675593,0.020933388,1.280924,0.0,255,0,6,4,0,0,0,1,1,1,36
150998638,149989076,1200.0,0.36675593,0.020921063,1.0390794,0.0,255,0,6,4,0,0,0,1,1,1,36
151019785,151018177,1200.0,0.36675593,0.020921063,1.0390794,0.0,255,0,6,4,0,0,0,1,1,1,36
151997624,151989932,1200.0,0.36675593,0.020810952,1.1188364,0.0,255,0,6,4,0,0,0,1,1,1,36
153003593,151989932,1200.0,0.36675593,0.020916168,1.0388362,0.0,255,0,6,4,0,0,0,1,1,1,36
153085943,153079152,1200.0,0.36675593,0.020916168,1.0388362,0.0,255,0,6,4,0,0,0,1,1,1,36
154088149,153079152,1200.0,0.36675593,0.020813903,0.8870687,0.0,255,0,6,4,0,0,0,1,1,1,36
155094538,153079152,1200.0,0.36675593,0.044911925,1.2994517,0.0,255,0,6,4,0,0,0,1,1,1,36
155114602,155113392,1200.0,0.36675593,0.044911925,1.2994517,0.0,255,0,6,4,0,0,0,1,1,1,36
156116153,155113392,1200.0,0.36675593,0.02084605,0.968845,0.0,255,0,6,4,0,0,0,1,1,1,36
156180158,156174853,1200.0,0.36675593,0.02084605,0.968845,0.0,255,0,6,4,0,0,0,1,1,1,36
157010431,157001053,1200.0,0.36675593,0.02090353,1.1526803,0.0,255,0,6,4,0,0,0,1,1,1,36
158016621,157001053,1200.0,0.36675593,0.020764735,0.96407694,0.0,255,0,6,4,0,0,0,1,1,1,36
158037588,158033039,1200.0,0.36675593,0.020764735,0.96407694,0.0,255,0,6,4,0,0,0,1,1,1,36
159039630,158033039,1200.0,0.36675593,0.02082887,1.1912129,0.0,255,0,6,4,0,0,0,1,1,1,36
159069666,159062049,1200.0,0.36675593,0.02082887,1.1912129,0.0,255,0,6,4,0,0,0,1,1,1,36
160004398,160003172,1200.0,0.36675593,0.020807035,1.2979627,0.0,255,0,6,4,0,0,0,1,1,1,36
161005165,160003172,1200.0,0.36675593,0.020975249,0.9898319,0.0,255,0,6,4,0,0,0,1,1,1,36
161132198,161126047,1200.0,0.36675593,0.020975249,0.9898319,0.0,255,0,6,4,0,0,0,1,1,1,36
162140114,161126047,1200.0,0.36675593,0.02095595,1.0298352,0.0,255,0,6,4,0,0,0,1,1,1,36
162161132,162158193,1200.0,0.36675593,0.02095595,1.0298352,0.0,255,0,6,4,0,0,0,1,1,1,36
162995242,162990035,1200.0,0.36675593,0.020797,1.007169,0.0,255,0,6,4,0,0,0,1,1,1,36
164001929,162990035,1200.0,0.36675593,0.020880936,1.0659221,0.0,255,0,6,4,0,0,0,1,1,1,36
164022380,164013073,1200.0,0.36675593,0.020880936,1.0659221,0.0,255,0,6,4,0,0,0,1,1,1,36
165031332,164013073,1200.0,0.36675593,0.046637163,0.8801524,0.0,255,0,6,4,0,0,0,1,1,1,36
165041908,165041613,1200.0,0.36675593,0.046637163,0.8801524,0.0,255,0,6,4,0,0,0,1,1,1,36
166050639,165041613,1200.0,0.36675593,0.02081772,1.4225441,0.0,255,0,6,4,0,0,0,1,1,1,36
166080144,166072045,1200.0,0.36675593,0.02081772,1.4225441,0.0,255,0,6,4,0,0,0,1,1,1,36
167042453,167035444,1200.0,0.36675593,0.020918438,0.8188074,0.0,255,0,6,4,0,0,0,1,1,1,36
168051297,167035444,1200.0,0.36675593,0.054774925,1.3046391,0.0,255,0,6,4,1,0,0,1,1,1,36
168135252,168133048,1200.0,0.36675593,0.054774925,1.3046391,0.0,255,0,6,4,1,0,0,1,1,1,36
169137204,168133048,1200.0,0.36675593,0.020856278,1.202712,0.0,255,0,6,4,1,0,0,1,1,1,36
169147361,169142584,1200.0,0.36675593,0.020856278,1.202712,0.0,255,0,6,4,1,0,0,1,1,1,36
169995337,169989059,1200.0,0.36675593,0.020936124,0.8852989,0.0,255,0,6,4,1,0,0,1,1,1,36
171001580,169989059,1200.0,0.36675593,0.020853586,1.2263894,0.0,255,0,6,4,1,0,0,1,1,1,36
171031246,171022048,1200.0,0.36675593,0.020853586,1.2263894,0.0,255,0,6,4,1,0,0,1,1,1,36
171993145,171989163,1200.0,0.36675593,0.020810457,0.9820554,0.0,255,0,6,4,1,0,0,1,1,1,36
172999939,171989163,1200.0,0.36675593,0.020837054,1.0239923,0.0,255,0,6,4,0,0,0,1,1,1,36
173019537,173013057,1200.0,0.36675593,0.020837054,1.0239923,0.0,255,0,6,4,0,0,0,1,1,1,36
174026323,173013057,1200.0,0.36675593,0.020867096,1.1765068,0.0,255,0,6,4,0,0,0,1,1,1,36
174096249,174095791,1200.0,0.36675593,0.020867096,1.1765068,0.0,255,0,6,4,0,0,0,1,1,1,36
175104347,174095791,1200.0,0.36675593,0.046829958,1.0053495,0.0,255,0,6,4,0,0,0,1,1,1,36
175114376,175110041,1200.0,0.36675593,0.046829958,1.0053495,0.0,255,0,6,4,0,0,0,1,1,1,36
176115280,175110041,1200.0,0.36675593,0.020878341,1.0150851,0.0,255,0,6,4,0,0,0,1,1,1,36
176175199,176171201,1200.0,0.36675593,0.020878341,1.0150851,0.0,255,0,6,4,0,0,0,1,1,1,36
176995291,176995141,1200.0,0.36675593,0.020975396,1.1955975,0.0,255,0,6,4,0,0,0,1,1,1,36
178005875,176995141,1200.0,0.36675593,0.020789834,1.1592808,0.0,255,0,6,4,0,0,0,1,1,1,36
178035384,178029673,1200.0,0.36675593,0.020789834,1.1592808,0.0,255,0,6,4,0,0,0,1,1,1,36
179036241,178029673,1200.0,0.36675593,0.020995086,1.2027185,0.0,255,0,6,4,0,0,0,1,1,1,36
179066482,179059155,1200.0,0.36675593,0.020995086,1.2027185,0.0,255,0,6,4,0,0,0,1,1,1,36
180026370,180020073,1200.0,0.36675593,0.020986231,1.0423162,0.0,255,0,6,4,0,0,0,1,1,1,36
181034213,180020073,1200.0,0.36675593,0.02083145,0.8878166,0.0,255,0,6,4,0,0,0,1,1,1,36
181115359,181115170,1200.0,0.36675593,0.02083145,0.8878166,0.0,255,0,6,4,0,0,0,1,1,1,36
182121144,181115170,1200.0,0.36675593,0.020939067,1.2114745,0.0,255,0,6,4,0,0,0,1,1,1,36
182162976,182156161,1200.0,0.36675593,0.020939067,1.2114745,0.0,255,0,6,4,0,0,0,1,1,1,36
183164297,182156161,1200.0,0.36675593,0.02099605,0.9798157,0.0,255,0,6,4,0,0,0,1,1,1,36
183196135,183185248,1200.0,0.36675593,0.02099605,0.9798157,0.0,255,0,6,4,0,0,0,1,1,1,36
184013175,184007163,1200.0,0.36675593,0.022876147,1.1000443,0.0,255,0,6,4,0,0,0,1,1,1,36
185017255,184007163,1200.0,0.36675593,0.044810135,1.2078822,0.0,255,0,6,4,0,0,0,1,1,1,36
185037346,185037056,1200.0,0.36675593,0.044810135,1.2078822,0.0,255,0,6,4,0,0,0,1,1,1,36
186040376,185037056,1200.0,0.36675593,0.02095367,0.95688426,0.0,255,0,6,4,0,0,0,1,1,1,36
186072210,186069048,1200.0,0.36675593,0.02095367,0.95688426,0.0,255,0,6,4,0,0,0,1,1,1,36
187076836,186069048,1200.0,0.36675593,0.020871328,1.2284267,0.0,255,0,6,4,0,0,0,1,1,1,36
187107513,187102045,1200.0,0.36675593,0.020871328,1.2284267,0.0,255,0,6,4,0,0,0,1,1,1,36
188115372,187102045,1200.0,0.36675593,0.020878589,1.2994436,0.0,255,0,6,4,0,0,0,1,1,1,36
188136369,188132390,1200.0,0.36675593,0.020878589,1.2994436,0.0,255,0,6,4,0,0,0,1,1,1,36
189138360,188132390,1200.0,0.36675593,0.020937439,0.94816685,0.0,255,0,6,4,0,0,0,1,1,1,36
189170219,189165218,1200.0,0.36675593,0.020937439,0.94816685,0.0,255,0,6,4,0,0,0,1,1,1,36
189997731,189988757,1200.0,0.36675593,0.020937439,0.94816685,0.0,255,0,6,4,0,0,0,1,1,1,36
190998181,189988757,1200.0,0.36675593,0.04182271,1.0933652,0.0,255,0,6,4,0,0,0,1,1,1,36
191028606,191021988,1200.0,0.36675593,0.02099666,1.0428342,0.0,255,0,6,4,0,0,0,1,1,1,36
192037145,191021988,1200.0,0.36675593,0.0,0.8873827,0.0,255,0,6,4,0,0,0,1,1,1,36
192057742,192049550,1200.0,0.36675593,0.0,0.8873827,0.0,255,0,6,4,0,0,0,1,1,1,36
193063431,192049550,1200.0,0.36675593,0.02087143,1.3129125,0.0,255,0,6,4,0,0,0,1,1,1,36
193083422,193081020,1200.0,0.36675593,0.02087143,1.3129125,0.0,255,0,6,4,0,0,0,1,1,1,36
194011443,194011050,1200.0,0.36675593,0.02087143,1.3129125,0.0,255,0,6,4,0,0,0,1,1,1,36
195013749,194011050,1200.0,0.36675593,0.041602608,0.9479452,0.0,255,0,6,4,0,0,0,1,1,1,36
195138735,195136150,1200.0,0.36675593,0.025913732,1.1541578,0.0,255,0,6,4,0,0,0,1,1,1,36
196144282,195136150,1200.0,0.36675593,0.020827588,0.9669951,0.0,255,0,6,4,0,0,0,1,1,1,36
196184144,196176384,1200.0,0.36675593,0.020827588,0.9669951,0.0,255,0,6,4,0,0,0,1,1,1,36
197002851,196994934,1200.0,0.36675593,0.020827588,0.9669951,0.0,255,0,6,4,0,0,0,1,1,1,36
198011799,196994934,1200.0,0.36675593,0.041603435,1.2332447,0.0,255,0,6,4,0,0,0,1,1,1,36
198031625,198029609,1200.0,0.36675593,0.041603435,1.2332447,0.0,255,0,6,4,0,0,0,1,1,1,36
199034754,198029609,1200.0,0.36675593,0.020830069,1.2954319,0.0,255,0,6,4,0,0,0,1,1,1,36
199064182,199059241,1200.0,0.36675593,0.020830069,1.2954319,0.0,255,0,6,4,0,0,0,1,1,1,36
200067402,199059241,1200.0,0.36675593,0.0209351,0.948061,0.0,255,0,6,4,0,0,0,1,1,1,36
200097184,200093045,1200.0,0.36675593,0.0,1.0297644,0.0,255,0,6,4,0,0,0,1,1,1,36
201098862,200093045,1200.0,0.36675593,0.022768917,1.1285464,0.0,255,0,6,4,0,0,0,1,1,1,36
201108312,201099136,1200.0,0.36675593,0.022768917,1.1285464,0.0,255,0,6,4,0,0,0,1,1,1,36
202113182,201099136,1200.0,0.36675593,0.018911174,0.9445634,0.0,255,0,6,4,0,0,0,1,1,1,36
202143275,202137709,1200.0,0.36675593,0.018911174,0.9445634,0.0,255,0,6,4,0,0,0,1,1,1,36
204008170,204003264,1200.0,0.36675593,0.02091896,0.862658,0.0,255,0,6,4,0,0,0,1,1,1,36
205008714,204003264,1200.0,0.36675593,0.04175116,1.4473736,0.0,255,0,6,4,0,0,0,1,1,1,36
205040174,205037048,1200.0,0.36675593,0.04175116,1.4473736,0.0,255,0,6,4,0,0,0,1,1,1,36
206044241,205037048,1200.0,0.36675593,0.046951167,0.82114595,0.0,255,0,6,4,0,0,0,1,1,1,36
206075481,206069528,1200.0,0.36675593,0.046951167,0.82114595,0.0,255,0,6,4,0,0,0,1,1,1,36
207034502,207025089,1200.0,0.36675593,0.020891324,1.3032206,0.0,255,0,6,4,0,0,0,1,1,1,36
208042397,207025089,1200.0,0.36675593,0.020763276,1.2705147,0.0,255,0,6,4,0,0,0,1,1,1,36
208134275,208131933,1200.0,0.36675593,0.020908067,0.8084452,0.0,255,0,6,4,0,0,0,1,1,1,36
209142192,208131933,1200.0,0.36675593,0.0,1.266865,0.0,255,0,6,4,0,0,0,1,1,1,36
209162342,209161556,1200.0,0.36675593,0.0,1.266865,0.0,255,0,6,4,0,0,0,1,1,1,36
209994538,209992230,1200.0,0.36675593,0.0,1.266865,0.0,255,0,6,4,0,0,0,1,1,1,36
210997368,209992230,1200.0,0.36675593,0.041832667,0.97609556,0.0,255,0,6,4,0,0,0,1,1,1,36
211018324,211014057,1200.0,0.36675593,0.041832667,0.97609556,0.0,255,0,6,4,0,0,0,1,1,1,36
212028938,211014057,1200.0,0.36675593,0.020890428,0.9977667,0.0,255,0,6,4,0,0,0,1,1,1,36
212049828,212043092,1200.0,0.36675593,0.020890428,0.9977667,0.0,255,0,6,4,0,0,0,1,1,1,36
213003554,212999349,1200.0,0.36675593,0.020834118,1.1746475,0.0,255,0,6,4,0,0,0,1,1,1,36
214005822,212999349,1200.0,0.36675593,0.020920647,0.98426664,0.0,255,0,6,4,0,0,0,1,1,1,36
214108977,214107154,1200.0,0.36675593,0.020920647,0.98426664,0.0,255,0,6,4,0,0,0,1,1,1,36
215111487,215111340,1200.0,0.36675593,0.04662698,1.0734127,0.0,255,0,6,4,0,0,0,1,1,1,36
216117770,215111340,1200.0,0.36675593,0.020946022,1.154026,0.0,255,0,6,4,0,0,0,1,1,1,36
216170519,216167156,1200.0,0.36675593,0.020946022,1.154026,0.0,255,0,6,4,0,0,0,1,1,1,36
216999502,216992170,1200.0,0.36675593,0.020865977,1.1635267,0.0,255,0,6,4,0,0,0,1,1,1,36
218005592,216992170,1200.0,0.36675593,0.020957224,1.2404681,0.0,255,0,6,4,0,0,0,1,1,1,36
218026795,218024046,1200.0,0.36675593,0.020957224,1.2404681,0.0,255,0,6,4,0,0,0,1,1,1,36
219032195,218024046,1200.0,0.36675593,0.020792078,0.99306923,0.0,255,0,6,4,0,0,0,1,1,1,36
219053768,219050617,1200.0,0.36675593,0.020792078,0.99306923,0.0,255,0,6,4,0,0,0,1,1,1,36
220000355,219996144,1200.0,0.36675593,0.020954402,0.8930567,0.0,255,0,6,4,0,0,0,1,1,1,36
221006578,219996144,1200.0,0.36675593,0.020991687,1.2764944,0.0,255,0,6,4,0,0,0,1,1,1,36
221127370,221120079,1200.0,0.36675593,0.020991687,1.2764944,0.0,255,0,6,4,0,0,0,1,1,1,36
222135254,221120079,1200.0,0.36675593,0.020949135,0.8948273,0.0,255,0,6,4,0,0,0,1,1,1,36
222155444,222152205,1200.0,0.36675593,0.020949135,0.8948273,0.0,255,0,6,4,0,0,0,1,1,1,36
223155152,223148210,1200.0,0.36675593,0.020833125,0.99502975,0.0,255,0,6,4,0,0,0,1,1,1,36
224006521,224003200,1200.0,0.36675593,0.020790165,1.2008795,0.0,255,0,6,4,0,0,0,1,1,1,36
225015334,224003200,1200.0,0.36675593,0.04677287,0.9752641,0.0,255,0,6,4,0,0,0,1,1,1,36
225035320,225032047,1200.0,0.36675593,0.04677287,0.9752641,0.0,255,0,6,4,0,0,0,1,1,1,36
226039437,225032047,1200.0,0.36675593,0.020999957,1.5179969,0.0,255,0,6,4,0,0,0,1,1,1,36
226069508,226064047,1200.0,0.36675593,0.020999957,1.5179969,0.0,255,0,6,4,0,0,0,1,1,1,36
227015427,227012205,1200.0,0.36675593,0.020914625,1.0208329,0.0,255,0,6,4,0,0,0,1,1,1,36
228017220,227012205,1200.0,0.36675593,0.020980801,0.9481324,0.0,255,0,6,4,0,0,0,1,1,1,36
228111498,228106047,1200.0,0.36675593,0.020980801,0.9481324,0.0,255,0,6,4,0,0,0,1,1,1,36
229116108,228106047,1200.0,0.36675593,0.02083325,1.1309478,0.0,255,0,6,4,0,0,0,1,1,1,36
229157147,229154188,1200.0,0.36675593,0.02083325,1.1309478,0.0,255,0,6,4,0,0,0,1,1,1,36
229999155,229993036,1200.0,0.36675593,0.020916395,1.0278914,0.0,255,0,6,4,0,0,0,1,1,1,36
231005627,229993036,1200.0,0.36675593,0.020833189,0.859121,0.0,255,0,6,4,0,0,0,1,1,1,36
231015401,231014036,1200.0,0.36675593,0.020833189,0.859121,0.0,255,0,6,4,0,0,0,1,1,1,36
232013606,232013232,1200.0,0.36675593,0.02081283,1.309226,0.0,255,0,6,4,0,0,0,1,1,1,36
233016138,232013232,1200.0,0.36675593,0.020854766,0.92952675,0.0,255,0,6,4,0,0,0,1,1,1,36
233078213,233073043,1200.0,0.36675593,0.020854766,0.92952675,0.0,255,0,6,4,0,0,0,1,1,1,36
234082472,234078044,1200.0,0.36675593,0.020933827,1.194225,0.0,255,0,6,4,0,0,0,1,1,1,36
235084425,234078044,1200.0,0.36675593,0.04697341,1.0184236,0.0,255,0,6,4,0,0,0,1,1,1,36
235136193,235130325,1200.0,0.36675593,0.04697341,1.0184236,0.0,255,0,6,4,0,0,0,1,1,1,36
236140736,235130325,1200.0,0.36675593,0.020969907,1.1803062,0.0,255,0,6,4,0,0,0,1,1,1,36
236170402,236162308,1200.0,0.36675593,0.020969907,1.1803062,0.0,255,0,6,4,0,0,0,1,1,1,36
236990220,236986057,1200.0,0.36675593,0.020835938,1.2957969,0.0,255,0,6,4,0,0,0,1,1,1,36
237993102,236986057,1200.0,0.36675593,0.02099811,0.9509144,0.0,255,0,6,4,0,0,0,1,1,1,36
238023453,238015106,1200.0,0.36675593,0.02099811,0.9509144,0.0,255,0,6,4,0,0,0,1,1,1,36
239027246,238015106,1200.0,0.36675593,0.02082449,1.0233749,0.0,255,0,6,4,0,0,0,1,1,1,36
239047328,239047104,1200.0,0.36675593,0.02082449,1.0233749,0.0,255,0,6,4,0,0,0,1,1,1,36
240007377,240000838,1200.0,0.36675593,0.02090611,1.1349031,0.0,255,0,6,4,0,0,0,1,1,1,36
241011396,240000838,1200.0,0.36675593,0.020863386,0.94282633,0.0,255,0,6,4,0,0,0,1,1,1,36
241113283,241107157,1200.0,0.36675593,0.020863386,0.94282633,0.0,255,0,6,4,0,0,0,1,1,1,36
242121372,241107157,1200.0,0.36675593,0.02093199,0.9030659,0.0,255,0,6,4,0,0,0,1,1,1,36
242151237,242144809,1200.0,0.36675593,0.02093199,0.9030659,0.0,255,0,6,4,0,0,0,1,1,1,36
243159237,242144809,1200.0,0.36675593,0.020808684,1.3822912,0.0,255,0,6,4,0,0,0,1,1,1,36
243169622,243169109,1200.0,0.36675593,0.020808684,1.3822912,0.0,255,0,6,4,0,0,0,1,1,1,36
243998034,243994049,1200.0,0.36675593,0.020933492,0.81939673,0.0,255,0,6,4,0,0,0,1,1,1,36
244998656,243994049,1200.0,0.36675593,0.046914473,1.6100647,0.0,255,0,6,4,0,0,0,1,1,1,36
245029576,245026045,1200.0,0.36675593,0.046914473,1.6100647,0.0,255,0,6,4,0,0,0,1,1,1,36
246039079,245026045,1200.0,0.36675593,0.020791234,0.99302894,0.0,255,0,6,4,0,0,0,1,1,1,36
246059231,246055170,1200.0,0.36675593,0.020791234,0.99302894,0.0,255,0,6,4,0,0,0,1,1,1,36
247061397,246055170,1200.0,0.36675593,0.02095689,0.8103331,0.0,255,0,6,4,0,0,0,1,1,1,36
247081397,247081171,1200.0,0.36675593,0.02095689,0.8103331,0.0,255,0,6,4,0,0,0,1,1,1,36
248086811,247081171,1200.0,0.36675593,0.020960134,1.2745757,0.0,255,0,6,4,0,0,0,1,1,1,36
248119117,248118972,1200.0,0.36675593,0.020960134,1.2745757,0.0,255,0,6,4,0,0,0,1,1,1,36
249120177,248118972,1200.0,0.36675593,0.02089336,0.9750234,0.0,255,0,6,4,0,0,0,1,1,1,36
249151205,249145742,1200.0,0.36675593,0.02089336,0.9750234,0.0,255,0,6,4,0,0,0,1,1,1,36
250153822,249145742,1200.0,0.36675593,0.020905172,0.99847084,0.0,255,0,6,4,0,0,0,1,1,1,36
250184347,250179124,1200.0,0.36675593,0.020905172,0.99847084,0.0,255,0,6,4,0,0,0,1,1,1,36
251010361,251004048,1200.0,0.36675593,0.020971498,1.1823931,0.0,255,0,6,4,0,0,0,1,1,1,36
252019380,251004048,1200.0,0.36675593,0.020861043,0.9814624,0.0,255,0,6,4,0,0,0,1,1,1,36
252030621,252028095,1200.0,0.36675593,0.020861043,0.9814624,0.0,255,0,6,4,0,0,0,1,1,1,36
253039002,252028095,1200.0,0.36675593,0.020971898,1.0595801,0.0,255,0,6,4,0,0,0,1,1,1,36
253070353,253064042,1200.0,0.36675593,0.020971898,1.0595801,0.0,255,0,6,4,0,0,0,1,1,1,36
254076174,253064042,1200.0,0.36675593,0.020861397,1.1493636,0.0,255,0,6,4,0,0,0,1,1,1,36
254116267,254107103,1200.0,0.36675593,0.020861397,1.1493636,0.0,255,0,6,4,0,0,0,1,1,1,36
255124457,254107103,1200.0,0.36675593,0.046749607,1.1856496,0.0,255,0,6,4,0,0,0,1,1,1,36
255134971,255128154,1200.0,0.36675593,0.046749607,1.1856496,0.0,255,0,6,4,0,0,0,1,1,1,36
256136148,255128154,1200.0,0.36675593,0.02099746,1.2428496,0.0,255,0,6,4,0,0,0,1,1,1,36
256167188,256163162,1200.0,0.36675593,0.02099746,1.2428496,0.0,255,0,6,4,0,0,0,1,1,1,36
256998463,256992036,1200.0,0.36675593,0.020927964,0.99955946,0.0,255,0,6,4,0,0,0,1,1,1,36
258006544,256992036,1200.0,0.36675593,0.020945145,0.8926621,0.0,255,0,6,4,0,0,0,1,1,1,36
258026375,258017584,1200.0,0.36675593,0.020945145,0.8926621,0.0,255,0,6,4,0,0,0,1,1,1,36
259030520,258017584,1200.0,0.36675593,0.020808602,1.2653612,0.0,255,0,6,4,0,0,0,1,1,1,36
259051601,259048144,1200.0,0.36675593,0.020808602,1.2653612,0.0,255,0,6,4,0,0,0,1,1,1,36
260058486,259048144,1200.0,0.36675593,0.020851495,0.8906567,0.0,255,0,6,4,0,0,0,1,1,1,36
260090713,260080087,1200.0,0.36675593,0.020851495,0.8906567,0.0,255,0,6,4,0,0,0,1,1,1,36
261100262,260080087,1200.0,0.36675593,0.020885192,1.0372978,0.0,255,0,6,4,0,0,0,1,1,1,36
261111265,261110729,1200.0,0.36675593,0.020885192,1.0372978,0.0,255,0,6,4,0,0,0,1,1,1,36
262117338,262111338,1200.0,0.36675593,0.020979019,1.1718282,0.0,255,0,6,4,0,0,0,1,1,1,36
263125233,262111338,1200.0,0.36675593,0.020958062,0.95708483,0.0,255,0,6,4,0,0,0,1,1,1,36
263178692,263169037,1200.0,0.36675593,0.020958062,0.95708483,0.0,255,0,6,4,0,0,0,1,1,1,36
264002378,263995103,1200.0,0.36675593,0.020893546,1.5103049,0.0,255,0,6,4,0,0,0,1,1,1,36
264996214,264992046,1200.0,0.36675593,0.020832982,1.0376809,0.0,255,0,6,4,0,0,0,1,1,1,36
265998894,264992046,1200.0,0.36675593,0.04664998,0.9419326,0.0,255,0,6,4,0,0,0,1,1,1,36
266059429,266052048,1200.0,0.36675593,0.04664998,0.9419326,0.0,255,0,6,4,0,0,0,1,1,1,36
267059482,266052048,1200.0,0.36675593,0.020825379,1.1305205,0.0,255,0,6,4,0,0,0,1,1,1,36
267090488,267084049,1200.0,0.36675593,0.020825379,1.1305205,0.0,255,0,6,4,0,0,0,1,1,1,36
268092171,267084049,1200.0,0.36675593,0.020811839,1.0227532,0.0,255,0,6,4,0,0,0,1,1,1,36
268122617,268114389,1200.0,0.36675593,0.020811839,1.0227532,0.0,255,0,6,4,0,0,0,1,1,1,36
269124279,269124050,1200.0,0.36675593,0.02095894,0.90422857,0.0,255,0,6,4,0,0,0,1,1,1,36
270125239,269124050,1200.0,0.36675593,0.020979041,1.2797215,0.0,255,0,6,4,0,0,0,1,1,1,36
270146210,270142963,1200.0,0.36675593,0.020979041,1.2797215,0.0,255,0,6,4,0,0,0,1,1,1,36
271003487,270997048,1200.0,0.36675593,0.020934056,0.9330608,0.0,255,0,6,4,0,0,0,1,1,1,36
272011286,270997048,1200.0,0.36675593,0.020795146,1.1863135,0.0,255,0,6,4,0,0,0,1,1,1,36
272033425,272026378,1200.0,0.36675593,0.020795146,1.1863135,0.0,255,0,6,4,0,0,0,1,1,1,36
272981359,272980079,1200.0,0.36675593,0.020937188,0.9950149,0.0,255,0,6,4,0,0,0,1,1,1,36
273983590,272980079,1200.0,0.36675593,0.020811634,1.1713977,0.0,255,0,6,4,0,0,0,1,1,1,36
274025376,274017044,1200.0,0.36675593,0.020811634,1.1713977,0.0,255,0,6,4,0,0,0,1,1,1,36
275028185,274017044,1200.0,0.36675593,0.046811394,1.321675,0.0,255,0,6,4,0,0,0,1,1,1,36
275099431,275097047,1200.0,0.36675593,0.046811394,1.321675,0.0,255,0,6,4,0,0,0,1,1,1,36
276111310,275097047,1200.0,0.36675593,0.020854186,0.94439673,0.0,255,0,6,4,0,0,0,1,1,1,36
276153259,276151463,1200.0,0.36675593,0.020854186,0.94439673,0.0,255,0,6,4,0,0,0,1,1,1,36
276985279,276985095,1200.0,0.36675593,0.020947902,1.0294397,0.0,255,0,6,4,0,0,0,1,1,1,36
277986491,276985095,1200.0,0.36675593,0.020833064,1.1309377,0.0,255,0,6,4,0,0,0,1,1,1,36
278017402,278012090,1200.0,0.36675593,0.020833064,1.1309377,0.0,255,0,6,4,0,0,0,1,1,1,36
279023301,278012090,1200.0,0.36675593,0.020905778,0.944742,0.0,255,0,6,4,0,0,0,1,1,1,36
279043398,279042575,1200.0,0.36675593,0.020905778,0.944742,0.0,255,0,6,4,0,0,0,1,1,1,36
280006897,280005101,1200.0,0.36675593,0.020825978,0.89849216,0.0,255,0,6,4,0,0,0,1,1,1,36
281012318,280005101,1200.0,0.36675593,0.020904569,1.3886607,0.0,255,0,6,4,0,0,0,1,1,1,36
281109228,281105128,1200.0,0.36675593,0.020904569,1.3886607,0.0,255,0,6,4,0,0,0,1,1,1,36
282121168,281105128,1200.0,0.36675593,0.02089523,0.81789905,0.0,255,0,6,4,0,0,0,1,1,1,36
282141199,282135135,1200.0,0.36675593,0.02089523,0.81789905,0.0,255,0,6,4,0,0,0,1,1,1,36
283148231,282135135,1200.0,0.36675593,0.020997627,1.5918201,0.0,255,0,6,4,0,0,0,1,1,1,36
283170328,283166762,1200.0,0.36675593,0.020997627,1.5918201,0.0,255,0,6,4,0,0,0,1,1,1,36
283991959,283985079,1200.0,0.36675593,0.020835731,0.99515414,0.0,255,0,6,4,0,0,0,1,1,1,36
284999983,283985079,1200.0,0.36675593,0.04689327,0.83110833,0.0,255,0,6,4,0,0,0,1,1,1,36
285029250,285020046,1200.0,0.36675593,0.04689327,0.83110833,0.0,255,0,6,4,0,0,0,1,1,1,36
285995358,285992102,1200.0,0.36675593,0.02091021,1.2715399,0.0,255,0,6,4,0,0,0,1,1,1,36
286997230,285992102,1200.0,0.36675593,0.020924691,0.97648555,0.0,255,0,6,4,0,0,0,1,1,1,36
287008716,287008078,1200.0,0.36675593,0.020924691,0.97648555,0.0,255,0,6,4,0,0,0,1,1,1,36
288017193,287008078,1200.0,0.36675593,0.020878507,1.0369658,0.0,255,0,6,4,0,0,0,1,1,1,36
288119637,288112208,1200.0,0.36675593,0.020878507,1.0369658,0.0,255,0,6,4,0,0,0,1,1,1,36
289122670,288112208,1200.0,0.36675593,0.02088127,1.166368,0.0,255,0,6,4,0,0,0,1,1,1,36
289132145,289131061,1200.0,0.36675593,0.02088127,1.166368,0.0,255,0,6,4,0,0,0,1,1,1,36
290140330,289131061,1200.0,0.36675593,0.020951496,0.95678496,0.0,255,0,6,4,0,0,0,1,1,1,36
290180574,290177060,1200.0,0.36675593,0.020951496,0.95678496,0.0,255,0,6,4,0,0,0,1,1,1,36
291007538,291000095,1200.0,0.36675593,0.020968776,1.142299,0.0,255,0,6,4,0,0,0,1,1,1,36
291991360,291991178,1200.0,0.36675593,0.02080215,1.0638814,0.0,255,0,6,4,0,0,0,1,1,1,36
292996146,291991178,1200.0,0.36675593,0.02097837,1.1697938,0.0,255,0,6,4,0,0,0,1,1,1,36
293067385,293065101,1200.0,0.36675593,0.02097837,1.1697938,0.0,255,0,6,4,0,0,0,1,1,1,36
293997419,293997051,1200.0,0.36675593,0.020797802,1.2310319,0.0,255,0,6,4,0,0,0,1,1,1,36
294999411,293997051,1200.0,0.36675593,0.046793733,1.019506,0.0,255,0,6,4,0,0,0,1,1,1,36
295131371,295124049,1200.0,0.36675593,0.046793733,1.019506,0.0,255,0,6,4,0,0,0,1,1,1,36
296132202,295124049,1200.0,0.36675593,0.020958731,0.93316257,0.0,255,0,6,4,0,0,0,1,1,1,36
296162525,296157048,1200.0,0.36675593,0.020958731,0.93316257,0.0,255,0,6,4,0,0,0,1,1,1,36
296994213,296993128,1200.0,0.36675593,0.020938858,1.2333984,0.0,255,0,6,4,0,0,0,1,1,1,36
298003145,296993128,1200.0,0.36675593,0.020875165,0.8916678,0.0,255,0,6,4,0,0,0,1,1,1,36
298014058,298011133,1200.0,0.36675593,0.020875165,0.8916678,0.0,255,0,6,4,0,0,0,1,1,1,36
299020550,298011133,1200.0,0.36675593,0.02091696,1.0388756,0.0,255,0,6,4,0,0,0,1,1,1,36
300008218,300000088,1200.0,0.36675593,0.0,1.1612815,0.0,255,0,6,4,0,0,0,1,1,1,36
301014577,301008058,1200.0,0.36675593,0.02091821,0.95526487,0.0,255,0,6,4,0,0,0,1,1,1,36
302016311,301008058,1200.0,0.36675593,0.02086691,1.5083795,0.0,255,0,6,4,0,0,0,1,1,1,36
302127544,302127367,1200.0,0.36675593,0.02086691,1.5083795,0.0,255,0,6,4,0,0,0,1,1,1,36
303130617,302127367,1200.0,0.36675593,0.020966014,1.0233412,0.0,255,0,6,4,0,0,0,1,1,1,36
303170328,303164044,1200.0,0.36675593,0.020966014,1.0233412,0.0,255,0,6,4,0,0,0,1,1,1,36
303988203,303988049,1200.0,0.36675593,0.020792099,0.9792089,0.0,255,0,6,4,0,0,0,1,1,1,36
304993623,303988049,1200.0,0.36675593,0.046820533,1.1167195,0.0,255,0,6,4,0,0,0,1,1,1,36
305024145,305019496,1200.0,0.36675593,0.046820533,1.1167195,0.0,255,0,6,4,0,0,0,1,1,1,36
305992434,305988048,1200.0,0.36675593,0.020887416,1.0264673,0.0,255,0,6,4,0,0,0,1,1,1,36
306994599,305988048,1200.0,0.36675593,0.020858537,0.89989686,0.0,255,0,6,4,0,0,0,1,1,1,36
307085898,307081712,1200.0,0.36675593,0.020858537,0.89989686,0.0,255,0,6,4,0,0,0,1,1,1,36
308092435,307081712,1200.0,0.36675593,0.0209571,1.3073238,0.0,255,0,6,4,0,0,0,1,1,1,36
308113811,308110335,1200.0,0.36675593,0.0209571,1.3073238,0.0,255,0,6,4,0,0,0,1,1,1,36
309116218,308110335,1200.0,0.36675593,0.02095108,0.9048871,0.0,255,0,6,4,0,0,0,1,1,1,36
309137780,309137633,1200.0,0.36675593,0.02095108,0.9048871,0.0,255,0,6,4,0,0,0,1,1,1,36
310142165,309137633,1200.0,0.36675593,0.02096616,1.2789357,0.0,255,0,6,4,0,0,0,1,1,1,36
310173838,310171103,1200.0,0.36675593,0.02096616,1.2789357,0.0,255,0,6,4,0,0,0,1,1,1,36
310997925,310997619,1200.0,0.36675593,0.020853689,0.90862507,0.0,255,0,6,4,0,0,0,1,1,1,36
312005859,310997619,1200.0,0.36675593,0.020868776,1.174614,0.0,255,0,6,4,0,0,0,1,1,1,36
312025405,312024764,1200.0,0.36675593,0.020868776,1.174614,0.0,255,0,6,4,0,0,0,1,1,1,36
313029746,312024764,1200.0,0.36675593,0.020798339,1.2934586,0.0,255,0,6,4,0,0,0,1,1,1,36
313059640,313055095,1200.0,0.36675593,0.020798339,1.2934586,0.0,255,0,6,4,0,0,0,1,1,1,36
314019425,314013456,1200.0,0.36675593,0.020913625,0.9470885,0.0,255,0,6,4,0,0,0,1,1,1,36
316119333,315110192,1200.0,0.36675593,0.020765392,1.1312194,0.0,255,0,6,4,0,0,0,1,1,1,36
316149968,316149662,1200.0,0.36675593,0.020765392,1.1312194,0.0,255,0,6,4,0,0,0,1,1,1,36
317155451,316149662,1200.0,0.36675593,0.020827299,0.8975574,0.0,255,0,6,4,0,0,0,1,1,1,36
317185576,317180961,1200.0,0.36675593,0.020827299,0.8975574,0.0,255,0,6,4,0,0,0,1,1,1,36
318003755,318002049,1200.0,0.36675593,0.020791048,0.89698523,0.0,255,0,6,4,0,0,0,1,1,1,36
319013749,318002049,1200.0,0.36675593,0.02087581,1.3867502,0.0,255,0,6,4,0,0,0,1,1,1,36
319034531,319034307,1200.0,0.36675593,0.02087581,1.3867502,0.0,255,0,6,4,0,0,0,1,1,1,36
319994308,319990295,1200.0,0.36675593,0.02083048,0.91753304,0.0,255,0,6,4,0,0,0,1,1,1,36
321005207,319990295,1200.0,0.36675593,0.02086691,1.4795632,0.0,255,0,6,4,0,0,0,1,1,1,36
321026434,321025052,1200.0,0.36675593,0.02086691,1.4795632,0.0,255,0,6,4,0,0,0,1,1,1,36
322028863,321025052,1200.0,0.36675593,0.020987637,1.0024096,0.0,255,0,6,4,0,0,0,1,1,1,36
322100891,322098053,1200.0,0.36675593,0.020987637,1.0024096,0.0,255,0,6,4,0,0,0,1,1,1,36
323101526,322098053,1200.0,0.36675593,0.020792387,0.9257563,0.0,255,0,6,4,0,0,0,1,1,1,36
323154213,323153125,1200.0,0.36675593,0.020792387,0.9257563,0.0,255,0,6,4,0,0,0,1,1,1,36
324150501,324149152,1200.0,0.36675593,0.020834139,1.1448855,0.0,255,0,6,4,0,0,0,1,1,1,36
325005199,325002171,1200.0,0.36675593,0.046801746,1.0366089,0.0,255,0,6,4,0,0,0,1,1,1,36
326008378,325002171,1200.0,0.36675593,0.020990364,1.0025398,0.0,255,0,6,4,0,0,0,1,1,1,36
326048322,326042282,1200.0,0.36675593,0.020990364,1.0025398,0.0,255,0,6,4,0,0,0,1,1,1,36
327009212,327004111,1200.0,0.36675593,0.020929571,1.1690661,0.0,255,0,6,4,0,0,0,1,1,1,36
328016199,327004111,1200.0,0.36675593,0.020814748,0.9901873,0.0,255,0,6,4,0,0,0,1,1,1,36
328099559,328099412,1200.0,0.36675593,0.020814748,0.9901873,0.0,255,0,6,4,0,0,0,1,1,1,36
329100304,328099412,1200.0,0.36675593,0.020916542,1.1284972,0.0,255,0,6,4,0,0,0,1,1,1,36
329112781,329103949,1200.0,0.36675593,0.020916542,1.1284972,0.0,255,0,6,4,0,0,0,1,1,1,36
330115533,329103949,1200.0,0.36675593,0.02089207,1.2803854,0.0,255,0,6,4,0,0,0,1,1,1,36
330168447,330164140,1200.0,0.36675593,0.02089207,1.2803854,0.0,255,0,6,4,0,0,0,1,1,1,36
330989599,330989049,1200.0,0.36675593,0.02081613,1.0338677,0.0,255,0,6,4,0,0,0,1,1,1,36
331995227,330989049,1200.0,0.36675593,0.020853898,1.1211452,0.0,255,0,6,4,0,0,0,1,1,1,36
332025683,332019330,1200.0,0.36675593,0.020853898,1.1211452,0.0,255,0,6,4,0,0,0,1,1,1,36
333027393,332019330,1200.0,0.36675593,0.020833436,1.0347273,0.0,255,0,6,4,0,0,0,1,1,1,36
333048344,333044177,1200.0,0.36675593,0.020833436,1.0347273,0.0,255,0,6,4,0,0,0,1,1,1,36
334022526,334017078,1200.0,0.36675593,0.020804541,0.8866697,0.0,255,0,6,4,0,0,0,1,1,1,36
335026721,334017078,1200.0,0.36675593,0.046995297,1.3018698,0.0,255,0,6,4,0,0,0,1,1,1,36
335109174,335108103,1200.0,0.36675593,0.046995297,1.3018698,0.0,255,0,6,4,0,0,0,1,1,1,36
336112274,335108103,1200.0,0.36675593,0.020905819,0.97162277,0.0,255,0,6,4,0,0,0,1,1,1,36
336142500,336136046,1200.0,0.36675593,0.020905819,0.97162277,0.0,255,0,6,4,0,0,0,1,1,1,36
337150477,336136046,1200.0,0.36675593,0.02093341,1.154328,0.0,255,0,6,4,0,0,0,1,1,1,36
337172333,337171920,1200.0,0.36675593,0.02093341,1.154328,0.0,255,0,6,4,0,0,0,1,1,1,36
338000640,337995122,1200.0,0.36675593,0.020878175,0.9295759,0.0,255,0,6,4,0,0,0,1,1,1,36
339006762,337995122,1200.0,0.36675593,0.020936895,0.995998,0.0,255,0,6,4,0,0,0,1,1,1,36
339027017,339022491,1200.0,0.36675593,0.020936895,0.995998,0.0,255,0,6,4,0,0,0,1,1,1,36
340030784,339022491,1200.0,0.36675593,0.020952353,1.4746466,0.0,255,0,6,4,0,0,0,1,1,1,36
340062577,340062390,1200.0,0.36675593,0.020952353,1.4746466,0.0,255,0,6,4,0,0,0,1,1,1,36
341062615,340062390,1200.0,0.36675593,0.020963585,1.0232226,0.0,255,0,6,4,0,0,0,1,1,1,36
341092257,341090425,1200.0,0.36675593,0.020963585,1.0232226,0.0,255,0,6,4,0,0,0,1,1,1,36
342093762,341090425,1200.0,0.36675593,0.020998761,1.0719367,0.0,255,0,6,4,0,0,0,1,1,1,36
342114633,342114321,1200.0,0.36675593,0.020998761,1.0719367,0.0,255,0,6,4,0,0,0,1,1,1,36
343116185,342114321,1200.0,0.36675593,0.020917688,1.0130137,0.0,255,0,6,4,0,0,0,1,1,1,36
343146732,343142324,1200.0,0.36675593,0.020917688,1.0130137,0.0,255,0,6,4,0,0,0,1,1,1,36
344108174,344106658,1200.0,0.36675593,0.020875247,1.0656317,0.0,255,0,6,4,0,0,0,1,1,1,36
345003780,345003383,1200.0,0.36675593,0.020829428,0.8797953,0.0,255,0,6,4,0,0,0,1,1,1,36
346010152,345003383,1200.0,0.36675593,0.02081681,1.2985725,0.0,255,0,6,4,0,0,0,1,1,1,36
346041565,346035099,1200.0,0.36675593,0.02081681,1.2985725,0.0,255,0,6,4,0,0,0,1,1,1,36
347043302,346035099,1200.0,0.36675593,0.020916333,0.94322705,0.0,255,0,6,4,0,0,0,1,1,1,36
347073675,347066174,1200.0,0.36675593,0.020916333,0.94322705,0.0,255,0,6,4,0,0,0,1,1,1,36
348075220,347066174,1200.0,0.36675593,0.02095618,1.2673498,0.0,255,0,6,4,0,0,0,1,1,1,36
348105819,348099098,1200.0,0.36675593,0.02095618,1.2673498,0.0,255,0,6,4,0,0,0,1,1,1,36
349109242,349102145,1200.0,0.36675593,0.020922815,1.123854,0.0,255,0,6,4,0,0,0,1,1,1,36
350117381,349102145,1200.0,0.36675593,0.020834014,0.97225404,0.0,255,0,6,4,0,0,0,1,1,1,36
350168297,350161162,1200.0,0.36675593,0.020834014,0.97225404,0.0,255,0,6,4,0,0,0,1,1,1,36
351004432,350994045,1200.0,0.36675593,0.020910002,1.2605743,0.0,255,0,6,4,0,0,0,1,1,1,36
352012283,350994045,1200.0,0.36675593,0.02098009,0.95009834,0.0,255,0,6,4,0,0,0,1,1,1,36
352022422,352014043,1200.0,0.36675593,0.02098009,0.95009834,0.0,255,0,6,4,0,0,0,1,1,1,36
353032910,352014043,1200.0,0.36675593,0.020955406,1.0697236,0.0,255,0,6,4,0,0,0,1,1,1,36
353052227,353046045,1200.0,0.36675593,0.020955406,1.0697236,0.0,255,0,6,4,0,0,0,1,1,1,36
354062191,353046045,1200.0,0.36675593,0.020830749,1.1347798,0.0,255,0,6,4,0,0,0,1,1,1,36
354084742,354078199,1200.0,0.36675593,0.020830749,1.1347798,0.0,255,0,6,4,0,0,0,1,1,1,36
355011212,355010052,1200.0,0.36675593,0.046638686,0.9585739,0.0,255,0,6,4,0,0,0,1,1,1,36
356018245,355010052,1200.0,0.36675593,0.020894336,1.098445,0.0,255,0,6,4,0,0,0,1,1,1,36
356142240,356133425,1200.0,0.36675593,0.020894336,1.098445,0.0,255,0,6,4,0,0,0,1,1,1,36
357143502,356133425,1200.0,0.36675593,0.020953525,1.1544394,0.0,255,0,6,4,0,0,0,1,1,1,36
357173157,357164135,1200.0,0.36675593,0.020953525,1.1544394,0.0,255,0,6,4,0,0,0,1,1,1,36
358000166,357996101,1200.0,0.36675593,0.020962916,0.92336655,0.0,255,0,6,4,0,0,0,1,1,1,36
359005555,357996101,1200.0,0.36675593,0.02083321,1.4771737,0.0,255,0,6,4,0,0,0,1,1,1,36
359025181,359019411,1200.0,0.36675593,0.02083321,1.4771737,0.0,255,0,6,4,0,0,0,1,1,1,36
359987314,359984095,1200.0,0.36675593,0.020953065,1.0007583,0.0,255,0,6,4,0,0,0,1,1,1,36
360988144,359984095,1200.0,0.36675593,0.02081867,0.92692643,0.0,255,0,6,4,0,0,0,1,1,1,36
361093212,361088048,1200.0,0.36675593,0.02081867,0.92692643,0.0,255,0,6,4,0,0,0,1,1,1,36
362098983,361088048,1200.0,0.36675593,0.020810332,1.1435773,0.0,255,0,6,4,0,0,0,1,1,1,36
362128184,362120054,1200.0,0.36675593,0.020810332,1.1435773,0.0,255,0,6,4,0,0,0,1,1,1,36
363137356,362120054,1200.0,0.36675593,0.020855574,1.012985,0.0,255,0,6,4,0,0,0,1,1,1,36
363157186,363150195,1200.0,0.36675593,0.020855574,1.012985,0.0,255,0,6,4,0,0,0,1,1,1,36
364159261,363150195,1200.0,0.36675593,0.020915272,0.9989532,0.0,255,0,6,4,0,0,0,1,1,1,36
364191247,364187214,1200.0,0.36675593,0.020915272,0.9989532,0.0,255,0,6,4,0,0,0,1,1,1,36
365012148,365008049,1200.0,0.36675593,0.046687007,1.1860486,0.0,255,0,6,4,0,0,0,1,1,1,36
365996404,365992076,1200.0,0.36675593,0.020890595,0.99379545,0.0,255,0,6,4,0,0,0,1,1,1,36
366999003,365992076,1200.0,0.36675593,0.020999579,1.1329774,0.0,255,0,6,4,0,0,0,1,1,1,36
367074491,367072053,1200.0,0.36675593,0.020999579,1.1329774,0.0,255,0,6,4,0,0,0,1,1,1,36
368078213,367072053,1200.0,0.36675593,0.020884695,1.2799335,0.0,255,0,6,4,0,0,0,1,1,1,36
368101548,368097256,1200.0,0.36675593,0.020884695,1.2799335,0.0,255,0,6,4,0,0,0,1,1,1,36
369105413,368097256,1200.0,0.36675593,0.020886626,1.0373691,0.0,255,0,6,4,0,0,0,1,1,1,36
369135337,369134043,1200.0,0.36675593,0.020886626,1.0373691,0.0,255,0,6,4,0,0,0,1,1,1,36
370138310,369134043,1200.0,0.36675593,0.02087448,1.1222519,0.0,255,0,6,4,0,0,0,1,1,1,36
370159399,370155174,1200.0,0.36675593,0.02087448,1.1222519,0.0,255,0,6,4,0,0,0,1,1,1,36
371007513,370998041,1200.0,0.36675593,0.020920897,1.0390712,0.0,255,0,6,4,0,0,0,1,1,1,36
372013226,372009828,1200.0,0.36675593,0.020912042,0.8912513,0.0,255,0,6,4,0,0,0,1,1,1,36
373022213,372009828,1200.0,0.36675593,0.020829592,1.2706051,0.0,255,0,6,4,0,0,0,1,1,1,36
373054303,373045048,1200.0,0.36675593,0.020829592,1.2706051,0.0,255,0,6,4,0,0,0,1,1,1,36
374058213,373045048,1200.0,0.36675593,0.020899286,0.9981897,0.0,255,0,6,4,0,0,0,1,1,1,36
374078337,374074049,1200.0,0.36675593,0.020899286,0.9981897,0.0,255,0,6,4,0,0,0,1,1,1,36
376107998,375102198,1200.0,0.36675593,0.020936603,0.93018335,0.0,255,0,6,4,0,0,0,1,1,1,36
376137350,376132398,1200.0,0.36675593,0.020936603,0.93018335,0.0,255,0,6,4,0,0,0,1,1,1,36
377140971,376132398,1200.0,0.36675593,0.020810477,0.9880022,0.0,255,0,6,4,0,0,0,1,1,1,36
377170191,377167324,1200.0,0.36675593,0.020810477,0.9880022,0.0,255,0,6,4,0,0,0,1,1,1,36
378001720,377993046,1200.0,0.36675593,0.025991578,1.5514972,0.0,255,0,6,4,0,0,0,1,1,1,36
379004138,377993046,1200.0,0.36675593,0.01597538,0.98947513,0.0,255,0,6,4,0,0,0,1,1,1,36
379025347,379022047,1200.0,0.36675593,0.01597538,0.98947513,0.0,255,0,6,4,0,0,0,1,1,1,36
380033172,379022047,1200.0,0.36675593,0.02079908,1.0617435,0.0,255,0,6,4,0,0,0,1,1,1,36
380053191,380050754,1200.0,0.36675593,0.02079908,1.0617435,0.0,255,0,6,4,0,0,0,1,1,1,36
381013146,381009089,1200.0,0.36675593,0.020988666,1.0454354,0.0,255,0,6,4,0,0,0,1,1,1,36
382020216,381009089,1200.0,0.36675593,0.02089787,1.0040929,0.0,255,0,6,4,0,0,0,1,1,1,36
382110834,382105165,1200.0,0.36675593,0.02089787,1.0040929,0.0,255,0,6,4,0,0,0,1,1,1,36
383116147,383111124,1200.0,0.36675593,0.02087359,0.86078703,0.0,255,0,6,4,0,0,0,1,1,1,36
384124172,383111124,1200.0,0.36675593,0.020828497,1.2576444,0.0,255,0,6,4,0,0,0,1,1,1,36
384155011,384146297,1200.0,0.36675593,0.020828497,1.2576444,0.0,255,0,6,4,0,0,0,1,1,1,36
385002533,384995270,1200.0,0.36675593,0.020828497,1.2576444,0.0,255,0,6,4,0,0,0,1,1,1,36
386008286,384995270,1200.0,0.36675593,0.0673498,0.937945,0.0,255,0,6,4,0,0,0,1,1,1,36
386028147,386027148,1200.0,0.36675593,0.0673498,0.937945,0.0,255,0,6,4,0,0,0,1,1,1,36
387037067,386027148,1200.0,0.36675593,0.020870954,1.2393371,0.0,255,0,6,4,0,0,0,1,1,1,36
387068999,387059095,1200.0,0.36675593,0.0,1.1546187,0.0,255,0,6,4,0,0,0,1,1,1,36
388075231,387059095,1200.0,0.36675593,0.020835875,1.0308797,0.0,255,0,6,4,0,0,0,1,1,1,36
388095636,388092809,1200.0,0.36675593,0.020835875,1.0308797,0.0,255,0,6,4,0,0,0,1,1,1,36
389033569,389027104,1200.0,0.36675593,0.020835875,1.0308797,0.0,255,0,6,4,0,0,0,1,1,1,36
390034522,389027104,1200.0,0.36675593,0.04166985,1.1508815,0.0,255,0,6,4,0,0,0,1,1,1,36
390156004,390150047,1200.0,0.36675593,0.0,0.94736665,0.0,255,0,6,4,0,0,0,1,1,1,36
391164065,390150047,1200.0,0.36675593,0.020929134,1.0075883,0.0,255,0,6,4,0,0,0,1,1,1,36
391185117,391179949,1200.0,0.36675593,0.020929134,1.0075883,0.0,255,0,6,4,0,0,0,1,1,1,36
392014351,392006220,1200.0,0.36675593,0.020929134,1.0075883,0.0,255,0,6,4,0,0,0,1,1,1,36
393017814,392006220,1200.0,0.36675593,0.041665096,1.1328938,0.0,255,0,6,4,0,0,0,1,1,1,36
393037639,393031474,1200.0,0.36675593,0.041665096,1.1328938,0.0,255,0,6,4,0,0,0,1,1,1,36
394016029,394008576,1200.0,0.36675593,0.020919522,0.92344743,0.0,255,0,6,4,0,0,0,1,1,1,36
395023559,394008576,1200.0,0.36675593,0.020958083,1.0778443,0.0,255,0,6,4,0,0,0,1,1,1,36
395033239,395027275,1200.0,0.36675593,0.020958083,1.0778443,0.0,255,0,6,4,0,0,0,1,1,1,36
397115222,396098193,1200.0,0.36675593,0.005994,1.247751,0.0,255,0,6,4,0,0,0,1,1,1,36
397157243,397157068,1200.0,0.36675593,0.005994,1.247751,0.0,255,0,6,4,0,0,0,1,1,1,36
398159467,398159223,1200.0,0.36675593,0.020927506,0.93675506,0.0,255,0,6,4,0,0,0,1,1,1,36
399017258,399009048,1200.0,0.36675593,0.020927506,0.93675506,0.0,255,0,6,4,0,0,0,1,1,1,36
400020397,399009048,1200.0,0.36675593,0.04193211,0.93348867,0.0,255,0,6,4,0,0,0,1,1,1,36
400050445,400043045,1200.0,0.36675593,0.04193211,0.93348867,0.0,255,0,6,4,0,0,0,1,1,1,36
401020274,401012168,1200.0,0.36675593,0.02099624,1.0908047,0.0,255,0,6,4,0,0,0,1,1,1,36
402027216,401012168,1200.0,0.36675593,0.020796588,0.9705074,0.0,255,0,6,4,0,0,0,1,1,1,36
402108243,402105779,1200.0,0.36675593,0.020796588,0.9705074,0.0,255,0,6,4,0,0,0,1,1,1,36
403109690,402105779,1200.0,0.36675593,0.02083108,0.972117,0.0,255,0,6,4,0,0,0,1,1,1,36
403139650,403135096,1200.0,0.36675593,0.0,1.1720061,0.0,255,0,6,4,0,0,0,1,1,1,36
404147232,403135096,1200.0,0.36675593,0.020833354,0.9097231,0.0,255,0,6,4,0,0,0,1,1,1,36
404169005,404168855,1200.0,0.36675593,0.020833354,0.9097231,0.0,255,0,6,4,0,0,0,1,1,1,36
404989592,404986422,1200.0,0.36675593,0.020833354,0.9097231,0.0,255,0,6,4,0,0,0,1,1,1,36
405998331,404986422,1200.0,0.36675593,0.0675538,1.2050407,0.0,255,0,6,4,0,0,0,1,1,1,36
406028896,406022075,1200.0,0.36675593,0.0675538,1.2050407,0.0,255,0,6,4,0,0,0,1,1,1,36
407032559,406022075,1200.0,0.36675593,0.020804519,1.255206,0.0,255,0,6,4,0,0,0,1,1,1,36
407064162,407054041,1200.0,0.36675593,0.020804519,1.255206,0.0,255,0,6,4,0,0,0,1,1,1,36
408068940,407054041,1200.0,0.36675593,0.020934662,0.9231189,0.0,255,0,6,4,0,0,0,1,1,1,36
408088386,408085135,1200.0,0.36675593,0.020934662,0.9231189,0.0,255,0,6,4,0,0,0,1,1,1,36
409097248,408085135,1200.0,0.36675593,0.020918667,1.0957397,0.0,255,0,6,4,0,0,0,1,1,1,36
409117186,409116112,1200.0,0.36675593,0.020918667,1.0957397,0.0,255,0,6,4,0,0,0,1,1,1,36
410119249,409116112,1200.0,0.36675593,0.020832775,0.9305306,0.0,255,0,6,4,0,0,0,1,1,1,36
410149533,410140206,1200.0,0.36675593,0.020832775,0.9305306,0.0,255,0,6,4,0,0,0,1,1,1,36
411151267,410140206,1200.0,0.36675593,0.020971624,0.9357339,0.0,255,0,6,4,0,0,0,1,1,1,36
411191289,411182045,1200.0,0.36675593,0.0,1.2140453,0.0,255,0,6,4,0,0,0,1,1,1,36
412002857,412001051,1200.0,0.36675593,0.0,1.2140453,0.0,255,0,6,4,0,0,0,1,1,1,36
413007398,412001051,1200.0,0.36675593,0.04174946,0.9324046,0.0,255,0,6,4,0,0,0,1,1,1,36
413030431,413026852,1200.0,0.36675593,0.04174946,0.9324046,0.0,255,0,6,4,0,0,0,1,1,1,36
414034167,414028043,1200.0,0.36675593,0.020874148,1.12621,0.0,255,0,6,4,0,0,0,1,1,1,36
415009991,415000103,1200.0,0.36675593,0.020937793,0.95516217,0.0,255,0,6,4,0,0,0,1,1,1,36
416014354,415000103,1200.0,0.36675593,0.046625134,1.2102693,0.0,255,0,6,4,0,0,0,1,1,1,36
416064210,416055140,1200.0,0.36675593,0.046625134,1.2102693,0.0,255,0,6,4,0,0,0,1,1,1,36
417065754,416055140,1200.0,0.36675593,0.020943535,1.20176,0.0,255,0,6,4,0,0,0,1,1,1,36
417157180,417151264,1200.0,0.36675593,0.020943535,1.20176,0.0,255,0,6,4,0,0,0,1,1,1,36
418165377,417151264,1200.0,0.36675593,0.020994456,0.9487495,0.0,255,0,6,4,0,0,0,1,1,1,36
418195382,418189148,1200.0,0.36675593,0.020833332,1.0029762,0.0,255,0,6,4,0,0,0,1,1,1,36
419015303,419014034,1200.0,0.36675593,0.020833332,1.0029762,0.0,255,0,6,4,0,0,0,1,1,1,36
420022476,419014034,1200.0,0.36675593,0.020872677,1.0108339,0.0,255,0,6,4,0,0,0,1,1,1,36
420044577,420042042,1200.0,0.36675593,0.020872677,1.0108339,0.0,255,0,6,4,0,0,0,1,1,1,36
421050194,420042042,1200.0,0.36675593,0.020843774,0.96179134,0.0,255,0,6,4,0,0,0,1,1,1,36
421070218,421064390,1200.0,0.36675593,0.020843774,0.96179134,0.0,255,0,6,4,0,0,0,1,1,1,36
422078462,421064390,1200.0,0.36675593,0.020830605,0.89869183,0.0,255,0,6,4,0,0,0,1,1,1,36
422110427,422105117,1200.0,0.36675593,0.020830605,0.89869183,0.0,255,0,6,4,0,0,0,1,1,1,36
423111182,422105117,1200.0,0.36675593,0.020827712,1.3210721,0.0,255,0,6,4,0,0,0,1,1,1,36
423121147,423113061,1200.0,0.36675593,0.020827712,1.3210721,0.0,255,0,6,4,0,0,0,1,1,1,36
424125383,423113061,1200.0,0.36675593,0.020999977,0.8619991,0.0,255,0,6,4,0,0,0,1,1,1,36
424177525,424169100,1200.0,0.36675593,0.020999977,0.8619991,0.0,255,0,6,4,0,0,0,1,1,1,36
424996111,424990049,1200.0,0.36675593,0.046885736,1.2649173,0.0,255,0,6,4,0,0,0,1,1,1,36
426006442,424990049,1200.0,0.36675593,0.02077217,1.0959793,0.0,255,0,6,4,0,0,0,1,1,1,36
426027210,426021049,1200.0,0.36675593,0.02077217,1.0959793,0.0,255,0,6,4,0,0,0,1,1,1,36
427033222,426021049,1200.0,0.36675593,0.020861728,0.91990286,0.0,255,0,6,4,0,0,0,1,1,1,36
427054694,427054541,1200.0,0.36675593,0.020861728,0.91990286,0.0,255,0,6,4,0,0,0,1,1,1,36
428062342,427054541,1200.0,0.36675593,0.020878611,1.1672138,0.0,255,0,6,4,0,0,0,1,1,1,36
428082801,428082221,1200.0,0.36675593,0.020878611,1.1672138,0.0,255,0,6,4,0,0,0,1,1,1,36
429084231,428082221,1200.0,0.36675593,0.020924961,0.945609,0.0,255,0,6,4,0,0,0,1,1,1,36
429104284,429104130,1200.0,0.36675593,0.020924961,0.945609,0.0,255,0,6,4,0,0,0,1,1,1,36
430109744,429104130,1200.0,0.36675593,0.020967143,1.0094181,0.0,255,0,6,4,0,0,0,1,1,1,36
430119343,430117620,1200.0,0.36675593,0.020967143,1.0094181,0.0,255,0,6,4,0,0,0,1,1,1,36
431125506,430117620,1200.0,0.36675593,0.020895543,1.1363195,0.0,255,0,6,4,0,0,0,1,1,1,36
431146385,431143134,1200.0,0.36675593,0.020895543,1.1363195,0.0,255,0,6,4,0,0,0,1,1,1,36
432007405,432006040,1200.0,0.36675593,0.02087473,0.9612316,0.0,255,0,6,4,0,0,0,1,1,1,36
433016573,432006040,1200.0,0.36675593,0.020871224,1.0127512,0.0,255,0,6,4,0,0,0,1,1,1,36
433026471,433026044,1200.0,0.36675593,0.020871224,1.0127512,0.0,255,0,6,4,0,0,0,1,1,1,36
434028196,433026044,1200.0,0.36675593,0.020982604,1.0950922,0.0,255,0,6,4,0,0,0,1,1,1,36
434058219,434054192,1200.0,0.36675593,0.020982604,1.0950922,0.0,255,0,6,4,0,0,0,1,1,1,36
435062396,434054192,1200.0,0.36675593,0.046626937,1.1577369,0.0,255,0,6,4,0,0,0,1,1,1,36
435092236,435086376,1200.0,0.36675593,0.046626937,1.1577369,0.0,255,0,6,4,0,0,0,1,1,1,36
436025147,436018203,1200.0,0.36675593,0.020959087,1.2026523,0.0,255,0,6,4,0,0,0,1,1,1,36
437032491,436018203,1200.0,0.36675593,0.02099811,0.93791556,0.0,255,0,6,4,0,0,0,1,1,1,36
437153293,437149048,1200.0,0.36675593,0.02099811,0.93791556,0.0,255,0,6,4,0,0,0,1,1,1,36
438109369,438109050,1200.0,0.36675593,0.020911252,0.93304014,0.0,255,0,6,4,0,0,0,1,1,1,36
439015981,439004045,1200.0,0.36675593,0.020938503,1.087805,0.0,255,0,6,4,0,0,0,1,1,1,36
440022398,439004045,1200.0,0.36675593,0.020795826,0.97047186,0.0,255,0,6,4,0,0,0,1,1,1,36
440042513,440036057,1200.0,0.36675593,0.020795826,0.97047186,0.0,255,0,6,4,0,0,0,1,1,1,36
441014379,441010213,1200.0,0.36675593,0.02088912,0.97482556,0.0,255,0,6,4,0,0,0,1,1,1,36
442014444,441010213,1200.0,0.36675593,0.020964526,1.1710186,0.0,255,0,6,4,0,0,0,1,1,1,36
442024187,442021603,1200.0,0.36675593,0.020964526,1.1710186,0.0,255,0,6,4,0,0,0,1,1,1,36
443025930,442021603,1200.0,0.36675593,0.020791152,0.92669135,0.0,255,0,6,4,0,0,0,1,1,1,36
443130366,443124833,1200.0,0.36675593,0.020791152,0.92669135,0.0,255,0,6,4,0,0,0,1,1,1,36
444131207,443124833,1200.0,0.36675593,0.02076301,1.1597624,0.0,255,0,6,4,0,0,0,1,1,1,36
444162699,444159133,1200.0,0.36675593,0.02076301,1.1597624,0.0,255,0,6,4,0,0,0,1,1,1,36
445166863,444159133,1200.0,0.36675593,0.046619996,1.2775863,0.0,255,0,6,4,0,0,0,1,1,1,36
445198317,445190046,1200.0,0.36675593,0.046619996,1.2775863,0.0,255,0,6,4,0,0,0,1,1,1,36
446018314,446014087,1200.0,0.36675593,0.020784937,0.9165168,0.0,255,0,6,4,0,0,0,1,1,1,36
447024368,446014087,1200.0,0.36675593,0.020897975,1.0946559,0.0,255,0,6,4,0,0,0,1,1,1,36
447045815,447040262,1200.0,0.36675593,0.020897975,1.0946559,0.0,255,0,6,4,0,0,0,1,1,1,36
448049187,447040262,1200.0,0.36675593,0.020972945,1.0077001,0.0,255,0,6,4,0,0,0,1,1,1,36
448079635,448077181,1200.0,0.36675593,0.020972945,1.0077001,0.0,255,0,6,4,0,0,0,1,1,1,36
449011837,449011570,1200.0,0.36675593,0.02089178,0.8615372,0.0,255,0,6,4,0,0,0,1,1,1,36
450013371,449011570,1200.0,0.36675593,0.020881994,1.2091669,0.0,255,0,6,4,0,0,0,1,1,1,36
450145197,450144029,1200.0,0.36675593,0.020881994,1.2091669,0.0,255,0,6,4,0,0,0,1,1,1,36
451149416,451141054,1200.0,0.36675593,0.020872157,0.97204614,0.0,255,0,6,4,0,0,0,1,1,1,36
451998642,451994417,1200.0,0.36675593,0.020980593,1.0919899,0.0,255,0,6,4,0,0,0,1,1,1,36
452998723,451994417,1200.0,0.36675593,0.020834366,0.92960954,0.0,255,0,6,4,0,0,0,1,1,1,36
453028189,453019176,1200.0,0.36675593,0.020834366,0.92960954,0.0,255,0,6,4,0,0,0,1,1,1,36
454030025,453019176,1200.0,0.36675593,0.02078399,1.2074509,0.0,255,0,6,4,0,0,0,1,1,1,36
454061739,454052944,1200.0,0.36675593,0.02078399,1.2074509,0.0,255,0,6,4,0,0,0,1,1,1,36
455063229,454052944,1200.0,0.36675593,0.046496812,1.2128743,0.0,255,0,6,4,0,0,0,1,1,1,36
455093150,455084757,1200.0,0.36675593,0.046496812,1.2128743,0.0,255,0,6,4,0,0,0,1,1,1,36
456097577,455084757,1200.0,0.36675593,0.020916646,0.98507446,0.0,255,0,6,4,0,0,0,1,1,1,36
456117418,456116794,1200.0,0.36675593,0.020916646,0.98507446,0.0,255,0,6,4,0,0,0,1,1,1,36
457120390,456116794,1200.0,0.36675593,0.02091198,0.96693015,0.0,255,0,6,4,0,0,0,1,1,1,36
457160452,457153129,1200.0,0.36675593,0.02091198,0.96693015,0.0,255,0,6,4,0,0,0,1,1,1,36
458162216,457153129,1200.0,0.36675593,0.020850832,1.0902007,0.0,255,0,6,4,0,0,0,1,1,1,36
458182217,458181045,1200.0,0.36675593,0.020850832,1.0902007,0.0,255,0,6,4,0,0,0,1,1,1,36
459005820,459005052,1200.0,0.36675593,0.020803696,0.91932523,0.0,255,0,6,4,0,0,0,1,1,1,36
460016103,459005052,1200.0,0.36675593,0.020934682,0.8613126,0.0,255,0,6,4,0,0,0,1,1,1,36
460048942,460038045,1200.0,0.36675593,0.020934682,0.8613126,0.0,255,0,6,4,0,0,0,1,1,1,36
461008177,460998177,1200.0,0.36675593,0.020999327,1.3339573,0.0,255,0,6,4,0,0,0,1,1,1,36
462012175,460998177,1200.0,0.36675593,0.020963335,0.860495,0.0,255,0,6,4,0,0,0,1,1,1,36
462097265,462097105,1200.0,0.36675593,0.020963335,0.860495,0.0,255,0,6,4,0,0,0,1,1,1,36
463034508,463028047,1200.0,0.36675593,0.020914271,1.4829214,0.0,255,0,6,4,0,0,0,1,1,1,36
464126640,464126330,1200.0,0.36675593,0.020941488,0.9772695,0.0,255,0,6,4,0,0,0,1,1,1,36
465134221,464126330,1200.0,0.36675593,0.046820115,0.8298118,0.0,255,0,6,4,0,0,0,1,1,1,36
465186545,465186064,1200.0,0.36675593,0.046820115,0.8298118,0.0,255,0,6,4,0,0,0,1,1,1,36
466019517,466011173,1200.0,0.36675593,0.020844335,1.1652975,0.0,255,0,6,4,0,0,0,1,1,1,36
467025192,466011173,1200.0,0.36675593,0.020833125,1.0118947,0.0,255,0,6,4,0,0,0,1,1,1,36
467045693,467039101,1200.0,0.36675593,0.020833125,1.0118947,0.0,255,0,6,4,0,0,0,1,1,1,36
468048050,467039101,1200.0,0.36675593,0.020815037,0.9317207,0.0,255,0,6,4,0,0,0,1,1,1,36
468078380,468071813,1200.0,0.36675593,0.020815037,0.9317207,0.0,255,0,6,4,0,0,0,1,1,1,36
469084962,468071813,1200.0,0.36675593,0.020833354,1.1636916,0.0,255,0,6,4,0,0,0,1,1,1,36
469104253,469103940,1200.0,0.36675593,0.020833354,1.1636916,0.0,255,0,6,4,0,0,0,1,1,1,36
470099476,470099319,1200.0,0.36675593,0.020812664,0.9276502,0.0,255,0,6,4,0,0,0,1,1,1,36
471107417,470099319,1200.0,0.36675593,0.02085402,1.0943396,0.0,255,0,6,4,0,0,0,1,1,1,36
471168463,471165047,1200.0,0.36675593,0.02085402,1.0943396,0.0,255,0,6,4,0,0,0,1,1,1,36
471999021,471994521,1200.0,0.36675593,0.020997815,1.0528904,0.0,255,0,6,4,0,0,0,1,1,1,36
473000842,471994521,1200.0,0.36675593,0.020892361,1.1003311,0.0,255,0,6,4,0,0,0,1,1,1,36
473020454,473018369,1200.0,0.36675593,0.020892361,1.1003311,0.0,255,0,6,4,0,0,0,1,1,1,36
474028349,473018369,1200.0,0.36675593,0.020917542,1.2002685,0.0,255,0,6,4,0,0,0,1,1,1,36
474059396,474049851,1200.0,0.36675593,0.020917542,1.2002685,0.0,255,0,6,4,0,0,0,1,1,1,36
475064318,474049851,1200.0,0.36675593,0.046624392,0.9910163,0.0,255,0,6,4,0,0,0,1,1,1,36
475084285,475080044,1200.0,0.36675593,0.046624392,0.9910163,0.0,255,0,6,4,0,0,0,1,1,1,36
476089851,475080044,1200.0,0.36675593,0.020833105,0.8898712,0.0,255,0,6,4,0,0,0,1,1,1,36
476109996,476102366,1200.0,0.36675593,0.020833105,0.8898712,0.0,255,0,6,4,0,0,0,1,1,1,36
477111232,476102366,1200.0,0.36675593,0.020796422,1.2002506,0.0,255,0,6,4,0,0,0,1,1,1,36
477141203,477140789,1200.0,0.36675593,0.020796422,1.2002506,0.0,255,0,6,4,0,0,0,1,1,1,36
478147546,477140789,1200.0,0.36675593,0.020790473,0.8900302,0.0,255,0,6,4,0,0,0,1,1,1,36
478178442,478170041,1200.0,0.36675593,0.020790473,0.8900302,0.0,255,0,6,4,0,0,0,1,1,1,36
479012450,479005070,1200.0,0.36675593,0.020968756,0.93660444,0.0,255,0,6,4,0,0,0,1,1,1,36
480013484,479005070,1200.0,0.36675593,0.020922793,1.210533,0.0,255,0,6,4,0,0,0,1,1,1,36
480024622,480024325,1200.0,0.36675593,0.020922793,1.210533,0.0,255,0,6,4,0,0,0,1,1,1,36
481025269,480024325,1200.0,0.36675593,0.020818504,0.8882562,0.0,255,0,6,4,0,0,0,1,1,1,36
481056715,481052044,1200.0,0.36675593,0.020818504,0.8882562,0.0,255,0,6,4,0,0,0,1,1,1,36
482063461,481052044,1200.0,0.36675593,0.020833973,1.4038129,0.0,255,0,6,4,0,0,0,1,1,1,36
482093204,482084044,1200.0,0.36675593,0.020833973,1.4038129,0.0,255,0,6,4,0,0,0,1,1,1,36
483095321,482084044,1200.0,0.36675593,0.020889513,1.0593967,0.0,255,0,6,4,0,0,0,1,1,1,36
483116283,483116102,1200.0,0.36675593,0.020889513,1.0593967,0.0,255,0,6,4,0,0,0,1,1,1,36
484123267,483116102,1200.0,0.36675593,0.020962037,0.88439834,0.0,255,0,6,4,0,0,0,1,1,1,36
484154722,484152101,1200.0,0.36675593,0.020962037,0.88439834,0.0,255,0,6,4,0,0,0,1,1,1,36
485156376,484152101,1200.0,0.36675593,0.046909183,1.1587566,0.0,255,0,6,4,0,0,0,1,1,1,36
485186428,485179376,1200.0,0.36675593,0.046909183,1.1587566,0.0,255,0,6,4,0,0,0,1,1,1,36
486007349,486005072,1200.0,0.36675593,0.020899286,0.9643527,0.0,255,0,6,4,0,0,0,1,1,1,36
487009679,486005072,1200.0,0.36675593,0.02095915,0.8643154,0.0,255,0,6,4,0,0,0,1,1,1,36
487237353,487230173,1200.0,0.36675593,0.02095915,0.8643154,0.0,255,0,6,4,0,0,0,1,1,1,36
488068129,488064980,1200.0,0.36675593,0.020828208,1.2764716,0.0,255,0,6,4,0,0,0,1,1,1,36
489068592,488064980,1200.0,0.36675593,0.020851204,0.9005735,0.0,255,0,6,4,0,0,0,1,1,1,36
489098468,489098042,1200.0,0.36675593,0.020851204,0.9005735,0.0,255,0,6,4,0,0,0,1,1,1,36
490103470,489098042,1200.0,0.36675593,0.020898266,1.1703029,0.0,255,0,6,4,0,0,0,1,1,1,36
490124259,490121245,1200.0,0.36675593,0.020898266,1.1703029,0.0,255,0,6,4,0,0,0,1,1,1,36
491127263,490121245,1200.0,0.36675593,0.020896664,0.8896009,0.0,255,0,6,4,0,0,0,1,1,1,36
491137370,491134049,1200.0,0.36675593,0.020896664,0.8896009,0.0,255,0,6,4,0,0,0,1,1,1,36
492147492,492145095,1200.0,0.36675593,0.020937208,1.1764717,0.0,255,0,6,4,0,0,0,1,1,1,36
493020429,493011404,1200.0,0.36675593,0.020998739,1.2049277,0.0,255,0,6,4,0,0,0,1,1,1,36
494026519,493011404,1200.0,0.36675593,0.02087336,0.98303586,0.0,255,0,6,4,0,0,0,1,1,1,36
494046453,494044047,1200.0,0.36675593,0.02087336,0.98303586,0.0,255,0,6,4,0,0,0,1,1,1,36
495052283,494044047,1200.0,0.36675593,0.04658497,0.98324025,0.0,255,0,6,4,0,0,0,1,1,1,36
495082324,495075124,1200.0,0.36675593,0.04658497,0.98324025,0.0,255,0,6,4,0,0,0,1,1,1,36
496087223,495075124,1200.0,0.36675593,0.020958815,1.1796819,0.0,255,0,6,4,0,0,0,1,1,1,36
496107797,496104843,1200.0,0.36675593,0.020958815,1.1796819,0.0,255,0,6,4,0,0,0,1,1,1,36
497115398,496104843,1200.0,0.36675593,0.020810582,0.83638716,0.0,255,0,6,4,0,0,0,1,1,1,36
497135229,497130182,1200.0,0.36675593,0.020810582,0.83638716,0.0,255,0,6,4,0,0,0,1,1,1,36
498100757,498097146,1200.0,0.36675593,0.02079939,0.8557463,0.0,255,0,6,4,0,0,0,1,1,1,36
500023187,500022044,1200.0,0.36675593,0.020831907,0.8154203,0.0,255,0,6,4,0,0,0,1,1,1,36
501015290,501010136,1200.0,0.36675593,0.020917458,1.4831474,0.0,255,0,6,4,0,0,0,1,1,1,36
502013386,502011938,1200.0,0.36675593,0.020832464,0.9721817,0.0,255,0,6,4,0,0,0,1,1,1,36
503017202,502011938,1200.0,0.36675593,0.020917146,0.8914688,0.0,255,0,6,4,0,0,0,1,1,1,36
503118606,503113212,1200.0,0.36675593,0.020917146,0.8914688,0.0,255,0,6,4,0,0,0,1,1,1,36
504124160,503113212,1200.0,0.36675593,0.020854061,1.1231402,0.0,255,0,6,4,0,0,0,1,1,1,36
504144176,504136079,1200.0,0.36675593,0.020854061,1.1231402,0.0,255,0,6,4,0,0,0,1,1,1,36
505144222,504136079,1200.0,0.36675593,0.046999153,1.0009819,0.0,255,0,6,4,0,0,0,1,1,1,36
506002192,505997162,1200.0,0.36675593,0.0,0.93348235,0.0,255,0,6,4,0,0,0,1,1,1,36
507011446,505997162,1200.0,0.36675593,0.020833332,1.203373,0.0,255,0,6,4,0,0,0,1,1,1,36
507033717,507027120,1200.0,0.36675593,0.020833332,1.203373,0.0,255,0,6,4,0,0,0,1,1,1,36
508034274,507027120,1200.0,0.36675593,0.020976296,0.8949886,0.0,255,0,6,4,0,0,0,1,1,1,36
