timestamp,x,y,z,yaw,yawspeed,vx,vy,vz,acc_x,acc_y,acc_z,jerk_x,jerk_y,jerk_z,thrust[0],thrust[1],thrust[2]
101511572,nan,nan,nan,-1.356092,0.0,nan,nan,nan,0.0,0.0,0.0,0.0,0.0,0.0,0.0,0.0,0.0
101531602,nan,nan,nan,-1.3560828,0.0,nan,nan,nan,0.0,0.0,0.0,0.0,0.0,0.0,0.0,0.0,0.0
101631756,nan,nan,nan,-1.3560797,0.0,nan,nan,nan,0.0,0.0,0.0,0.0,0.0,0.0,0.0,0.0,0.0
101732012,nan,nan,nan,-1.3560514,0.0,nan,nan,nan,0.0,0.0,0.0,0.0,0.0,0.0,0.0,0.0,0.0
101832016,nan,nan,nan,-1.3560863,0.0,nan,nan,nan,0.0,0.0,0.0,0.0,0.0,0.0,0.0,0.0,0.0
101932076,nan,nan,nan,-1.3561739,0.0,nan,nan,nan,0.0,0.0,0.0,0.0,0.0,0.0,0.0,0.0,0.0
102032177,nan,nan,nan,-1.3563126,0.0,nan,nan,nan,0.0,0.0,0.0,0.0,0.0,0.0,0.0,0.0,0.0
102132196,nan,nan,nan,-1.3563955,0.0,nan,nan,nan,0.0,0.0,0.0,0.0,0.0,0.0,0.0,0.0,0.0
102232283,nan,nan,nan,-1.3565186,0.0,nan,nan,nan,0.0,0.0,0.0,0.0,0.0,0.0,0.0,0.0,0.0
102332426,nan,nan,nan,-1.3566419,0.0,nan,nan,nan,0.0,0.0,0.0,0.0,0.0,0.0,0.0,0.0,0.0
102432606,nan,nan,nan,-1.3566848,0.0,nan,nan,nan,0.0,0.0,0.0,0.0,0.0,0.0,0.0,0.0,0.0
102532736,nan,nan,nan,-1.3567886,0.0,nan,nan,nan,0.0,0.0,0.0,0.0,0.0,0.0,0.0,0.0,0.0
102652853,nan,nan,nan,-1.3570079,0.0,nan,nan,nan,0.0,0.0,0.0,0.0,0.0,0.0,0.0,0.0,0.0
102752909,nan,nan,nan,-1.3572152,0.0,nan,nan,nan,0.0,0.0,0.0,0.0,0.0,0.0,0.0,0.0,0.0
102852947,nan,nan,nan,-1.3573812,0.0,nan,nan,nan,0.0,0.0,0.0,0.0,0.0,0.0,0.0,0.0,0.0
102953003,nan,nan,nan,-1.357659,0.0,nan,nan,nan,0.0,0.0,0.0,0.0,0.0,0.0,0.0,0.0,0.0
103053110,nan,nan,nan,-1.3579233,0.0,nan,nan,nan,0.0,0.0,0.0,0.0,0.0,0.0,0.0,0.0,0.0
103153221,nan,nan,nan,-1.3580632,0.0,nan,nan,nan,0.0,0.0,0.0,0.0,0.0,0.0,0.0,0.0,0.0
103253422,nan,nan,nan,-1.3581276,0.0,nan,nan,nan,0.0,0.0,0.0,0.0,0.0,0.0,0.0,0.0,0.0
103353624,nan,nan,nan,-1.3582174,0.0,nan,nan,nan,0.0,0.0,0.0,0.0,0.0,0.0,0.0,0.0,0.0
103453740,nan,nan,nan,-1.3582534,0.0,nan,nan,nan,0.0,0.0,0.0,0.0,0.0,0.0,0.0,0.0,0.0
103553779,nan,nan,nan,-1.3582766,0.0,nan,nan,nan,0.0,0.0,0.0,0.0,0.0,0.0,0.0,0.0,0.0
103653824,nan,nan,nan,-1.3583142,0.0,nan,nan,nan,0.0,0.0,0.0,0.0,0.0,0.0,0.0,0.0,0.0
103753846,nan,nan,nan,-1.358361,0.0,nan,nan,nan,0.0,0.0,0.0,0.0,0.0,0.0,0.0,0.0,0.0
103853931,nan,nan,nan,-1.3584083,0.0,nan,nan,nan,0.0,0.0,0.0,0.0,0.0,0.0,0.0,0.0,0.0
103954027,nan,nan,nan,-1.3584461,0.0,nan,nan,nan,0.0,0.0,0.0,0.0,0.0,0.0,0.0,0.0,0.0
104054154,nan,nan,nan,-1.3583978,0.0,nan,nan,nan,0.0,0.0,0.0,0.0,0.0,0.0,0.0,0.0,0.0
104174301,nan,nan,nan,-1.3583617,0.0,nan,nan,nan,0.0,0.0,0.0,0.0,0.0,0.0,0.0,0.0,0.0
104274384,nan,nan,nan,-1.3583524,0.0,nan,nan,nan,0.0,0.0,0.0,0.0,0.0,0.0,0.0,0.0,0.0
104374465,nan,nan,nan,-1.3583518,0.0,nan,nan,nan,0.0,0.0,0.0,0.0,0.0,0.0,0.0,0.0,0.0
104474560,nan,nan,nan,-1.3583729,0.0,nan,nan,nan,0.0,0.0,0.0,0.0,0.0,0.0,0.0,0.0,0.0
104574629,nan,nan,nan,-1.3583686,0.0,nan,nan,nan,0.0,0.0,0.0,0.0,0.0,0.0,0.0,0.0,0.0
104674718,nan,nan,nan,-1.3583499,0.0,nan,nan,nan,0.0,0.0,0.0,0.0,0.0,0.0,0.0,0.0,0.0
104774854,nan,nan,nan,-1.3584062,0.0,nan,nan,nan,0.0,0.0,0.0,0.0,0.0,0.0,0.0,0.0,0.0
104875005,nan,nan,nan,-1.3584229,0.0,nan,nan,nan,0.0,0.0,0.0,0.0,0.0,0.0,0.0,0.0,0.0
104975444,nan,nan,nan,-1.3584949,0.0,nan,nan,nan,0.0,0.0,0.0,0.0,0.0,0.0,0.0,0.0,0.0
105095456,nan,nan,nan,-1.3584875,0.0,nan,nan,nan,0.0,0.0,0.0,0.0,0.0,0.0,0.0,0.0,0.0
105195338,nan,nan,nan,-1.3584633,0.0,nan,nan,nan,0.0,0.0,0.0,0.0,0.0,0.0,0.0,0.0,0.0
105295434,nan,nan,nan,-1.3584901,0.0,nan,nan,nan,0.0,0.0,0.0,0.0,0.0,0.0,0.0,0.0,0.0
105395438,nan,nan,nan,-1.3585565,0.0,nan,nan,nan,0.0,0.0,0.0,0.0,0.0,0.0,0.0,0.0,0.0
105495568,nan,nan,nan,-1.3586067,0.0,nan,nan,nan,0.0,0.0,0.0,0.0,0.0,0.0,0.0,0.0,0.0
105595689,nan,nan,nan,-1.3586195,0.0,nan,nan,nan,0.0,0.0,0.0,0.0,0.0,0.0,0.0,0.0,0.0
105695811,nan,nan,nan,-1.35871,0.0,nan,nan,nan,0.0,0.0,0.0,0.0,0.0,0.0,0.0,0.0,0.0
105796323,nan,nan,nan,-1.3587937,0.0,nan,nan,nan,0.0,0.0,0.0,0.0,0.0,0.0,0.0,0.0,0.0
105896299,nan,nan,nan,-1.3589494,0.0,nan,nan,nan,0.0,0.0,0.0,0.0,0.0,0.0,0.0,0.0,0.0
105996311,nan,nan,nan,-1.35913,0.0,nan,nan,nan,0.0,0.0,0.0,0.0,0.0,0.0,0.0,0.0,0.0
106096366,nan,nan,nan,-1.3593495,0.0,nan,nan,nan,0.0,0.0,0.0,0.0,0.0,0.0,0.0,0.0,0.0
106196404,nan,nan,nan,-1.359508,0.0,nan,nan,nan,0.0,0.0,0.0,0.0,0.0,0.0,0.0,0.0,0.0
106296445,nan,nan,nan,-1.3595428,0.0,nan,nan,nan,0.0,0.0,0.0,0.0,0.0,0.0,0.0,0.0,0.0
106396703,nan,nan,nan,-1.3594851,0.0,nan,nan,nan,0.0,0.0,0.0,0.0,0.0,0.0,0.0,0.0,0.0
106516812,nan,nan,nan,-1.3593909,0.0,nan,nan,nan,0.0,0.0,0.0,0.0,0.0,0.0,0.0,0.0,0.0
106616854,nan,nan,nan,-1.3593115,0.0,nan,nan,nan,0.0,0.0,0.0,0.0,0.0,0.0,0.0,0.0,0.0
106717152,nan,nan,nan,-1.3592557,0.0,nan,nan,nan,0.0,0.0,0.0,0.0,0.0,0.0,0.0,0.0,0.0
106817151,nan,nan,nan,-1.3593214,0.0,nan,nan,nan,0.0,0.0,0.0,0.0,0.0,0.0,0.0,0.0,0.0
106917091,nan,nan,nan,-1.3594229,0.0,nan,nan,nan,0.0,0.0,0.0,0.0,0.0,0.0,0.0,0.0,0.0
107017153,nan,nan,nan,-1.3595111,0.0,nan,nan,nan,0.0,0.0,0.0,0.0,0.0,0.0,0.0,0.0,0.0
107117215,nan,nan,nan,-1.3595892,0.0,nan,nan,nan,0.0,0.0,0.0,0.0,0.0,0.0,0.0,0.0,0.0
107217346,nan,nan,nan,-1.3596343,0.0,nan,nan,nan,0.0,0.0,0.0,0.0,0.0,0.0,0.0,0.0,0.0
107317930,nan,nan,nan,-1.3596914,0.0,nan,nan,nan,0.0,0.0,0.0,0.0,0.0,0.0,0.0,0.0,0.0
107417638,nan,nan,nan,-1.3598138,0.0,nan,nan,nan,0.0,0.0,0.0,0.0,0.0,0.0,0.0,0.0,0.0
107517901,nan,nan,nan,-1.3600067,0.0,nan,nan,nan,0.0,0.0,0.0,0.0,0.0,0.0,0.0,0.0,0.0
107617720,nan,nan,nan,-1.3601458,0.0,nan,nan,nan,0.0,0.0,0.0,0.0,0.0,0.0,0.0,0.0,0.0
107718462,nan,nan,nan,-1.3601773,0.0,nan,nan,nan,0.0,0.0,0.0,0.0,0.0,0.0,0.0,0.0,0.0
107817868,nan,nan,nan,-1.3601588,0.0,nan,nan,nan,0.0,0.0,0.0,0.0,0.0,0.0,0.0,0.0,0.0
107917971,nan,nan,nan,-1.3601483,0.0,nan,nan,nan,0.0,0.0,0.0,0.0,0.0,0.0,0.0,0.0,0.0
108038454,nan,nan,nan,-1.3600388,0.0,nan,nan,nan,0.0,0.0,0.0,0.0,0.0,0.0,0.0,0.0,0.0
108138348,nan,nan,nan,-1.3600346,0.0,nan,nan,2.3899782,0.0,0.0,0.0,0.0,0.0,0.0,0.0,0.0,-0.12
108239249,nan,nan,nan,-1.3600346,0.0,nan,nan,2.2048573,0.0,0.0,0.0,0.0,0.0,0.0,0.0,0.0,-0.12
108338523,nan,nan,nan,-1.3600346,0.0,nan,nan,2.022855,0.0,0.0,0.0,0.0,0.0,0.0,0.0,0.0,-0.12
108438643,nan,nan,nan,-1.3600346,0.0,nan,nan,1.8393017,0.0,0.0,0.0,0.0,0.0,0.0,0.0,0.0,-0.1289455
108538596,nan,nan,0.018834189,-1.3600346,0.0,nan,nan,1.6560527,0.0,0.0,0.0,0.0,0.0,0.0,0.0,0.0,-0.16155359
108638794,nan,nan,0.018834189,-1.3600346,0.0,nan,nan,1.4723581,0.0,0.0,0.0,0.0,0.0,0.0,0.0,0.0,-0.19494721
108738780,nan,nan,0.018834189,-1.3600346,0.0,nan,nan,1.2890486,0.0,0.0,0.0,0.0,0.0,0.0,0.0,0.0,-0.22830811
108839513,nan,nan,0.018834189,-1.3600346,0.0,nan,nan,1.1044484,0.0,0.0,0.0,0.0,0.0,0.0,0.0,0.0,-0.26282048
108939130,nan,nan,0.018834189,-1.3600346,0.0,nan,nan,0.92188865,0.0,0.0,0.0,0.0,0.0,0.0,0.0,0.0,-0.29690212
109039240,nan,nan,0.018834189,-1.3600346,0.0,nan,nan,0.7382052,0.0,0.0,0.0,0.0,0.0,0.0,0.0,0.0,-0.324306
109159416,nan,nan,0.018834189,-1.3600346,0.0,nan,nan,0.5180732,0.0,0.0,0.0,0.0,0.0,0.0,0.0,0.0,-0.3726949
109259469,nan,nan,0.018834189,-1.3600346,0.0,nan,nan,0.3345547,0.0,0.0,0.0,0.0,0.0,0.0,0.0,0.0,-0.40645516
109359602,nan,nan,0.018834189,-1.3600346,0.0,nan,nan,0.15088405,0.0,0.0,0.0,0.0,0.0,0.0,0.0,0.0,-0.44424474
109459528,nan,nan,nan,-1.3600346,0.0,nan,nan,0.1527686,0.0,0.0,0.0,0.0,0.0,0.0,0.0,0.0,-0.43527806
109559625,nan,nan,nan,-1.3600346,0.0,nan,nan,0.25031304,0.0,0.0,0.0,0.0,0.0,0.0,0.0,0.0,-0.41968974
109659895,nan,nan,nan,-1.3600346,0.0,nan,nan,0.28443247,0.0,0.0,0.0,0.0,0.0,0.0,0.0,0.0,-0.4112069
109759908,nan,nan,nan,-1.3600346,0.0,nan,nan,0.28265288,0.0,0.0,0.0,0.0,0.0,0.0,0.0,0.0,-0.4061665
109860253,nan,nan,nan,-1.3600346,0.0,nan,nan,0.16457145,0.0,0.0,0.0,0.0,0.0,0.0,0.0,0.0,-0.43051374
109960099,nan,nan,nan,-1.3600346,0.0,nan,nan,0.026141431,0.0,0.0,0.0,0.0,0.0,0.0,0.0,0.0,-0.45777097
110060142,nan,nan,-0.11870687,-1.3600346,0.0,nan,nan,0.004498087,0.0,0.0,0.0,0.0,0.0,0.0,0.0,0.0,-0.45718637
110160213,nan,nan,-0.11870687,-1.3600346,0.0,nan,nan,0.013973951,0.0,0.0,0.0,0.0,0.0,0.0,0.0,0.0,-0.44385827
110260353,nan,nan,-0.11870687,-1.3600346,0.0,nan,nan,0.031120822,0.0,0.0,0.0,0.0,0.0,0.0,0.0,0.0,-0.4389844
110380720,nan,nan,-0.11870687,-1.3600346,0.0,nan,nan,0.055249855,0.0,0.0,0.0,0.0,0.0,0.0,0.0,0.0,-0.43853885
110480609,nan,nan,-0.11870687,-1.3600346,0.0,nan,nan,0.0789711,0.0,0.0,0.0,0.0,0.0,0.0,0.0,0.0,-0.44348586
110580860,nan,nan,-0.11870687,-1.3600346,0.0,nan,nan,0.09726976,0.0,0.0,0.0,0.0,0.0,0.0,0.0,0.0,-0.44892064
110680859,nan,nan,-0.11870687,-1.3600346,0.0,nan,nan,0.10762395,0.0,0.0,0.0,0.0,0.0,0.0,0.0,0.0,-0.45013928
110780920,nan,nan,-0.11870687,-1.3600346,0.0,nan,nan,0.117357805,0.0,0.0,0.0,0.0,0.0,0.0,0.0,0.0,-0.4465354
110880954,nan,nan,-0.11870687,-1.3600346,0.0,nan,nan,0.1301366,0.0,0.0,0.0,0.0,0.0,0.0,0.0,0.0,-0.44080096
110981034,nan,nan,-0.11870687,-1.3600346,0.0,nan,nan,0.13373382,0.0,0.0,0.0,0.0,0.0,0.0,0.0,0.0,-0.44383854
111081171,nan,nan,-0.11870687,-1.3600346,0.0,nan,nan,0.13502638,0.0,0.0,0.0,0.0,0.0,0.0,0.0,0.0,-0.44332668
111181238,nan,nan,-0.11870687,-1.3600346,0.0,nan,nan,0.13418083,0.0,0.0,0.0,0.0,0.0,0.0,0.0,0.0,-0.42877403
111281505,nan,nan,-0.11870687,-1.3600346,0.0,nan,nan,0.13051884,0.0,0.0,0.0,0.0,0.0,0.0,0.0,0.0,-0.42941138
111381686,nan,nan,nan,-1.3600346,0.0,nan,nan,-0.041978832,0.0,0.0,0.0,0.0,0.0,0.0,0.0,0.0,-0.4646818
111481635,nan,nan,nan,-1.3600346,0.0,nan,nan,-0.1367522,0.0,0.0,0.0,0.0,0.0,0.0,0.0,0.0,-0.47286493
111601757,nan,nan,nan,-1.3600346,0.0,nan,nan,-0.21053204,0.0,0.0,0.0,0.0,0.0,0.0,0.0,0.0,-0.46442038
111701794,nan,nan,nan,-1.3600346,0.0,nan,nan,-0.2491483,0.0,0.0,0.0,0.0,0.0,0.0,0.0,0.0,-0.4621188
111801872,nan,nan,nan,-1.3600346,0.0,nan,nan,-0.16649452,0.0,0.0,0.0,0.0,0.0,0.0,0.0,0.0,-0.43573362
111901991,nan,nan,-0.33317512,-1.3600346,0.0,nan,nan,0.0,0.0,0.0,0.0,0.0,0.0,0.0,0.0,0.0,-0.41100633
112002045,nan,nan,-0.33317512,-1.3600346,0.0,nan,nan,0.027431041,0.0,0.0,0.0,0.0,0.0,0.0,0.0,0.0,-0.43702984
112102219,nan,nan,-0.33317512,-1.3600346,0.0,nan,nan,0.04162398,0.0,0.0,0.0,0.0,0.0,0.0,0.0,0.0,-0.45600384
112202408,nan,nan,-0.33317512,-1.3600346,0.0,nan,nan,0.049420893,0.0,0.0,0.0,0.0,0.0,0.0,0.0,0.0,-0.45643857
112302491,nan,nan,-0.33317512,-1.3600346,0.0,nan,nan,0.06141168,0.0,0.0,0.0,0.0,0.0,0.0,0.0,0.0,-0.45316368
112402502,nan,nan,-0.33317512,-1.3600346,0.0,nan,nan,0.07330912,0.0,0.0,0.0,0.0,0.0,0.0,0.0,0.0,-0.4581522
112502581,nan,nan,nan,-1.3600346,0.0,nan,nan,-0.1349442,0.0,0.0,0.0,0.0,0.0,0.0,0.0,0.0,-0.4919768
112602659,nan,nan,nan,-1.3600346,0.0,nan,nan,-0.18267083,0.0,0.0,0.0,0.0,0.0,0.0,0.0,0.0,-0.4694202
112702742,nan,nan,nan,-1.3600346,0.0,nan,nan,-0.13734666,0.0,0.0,0.0,0.0,0.0,0.0,0.0,0.0,-0.45476228
112802902,nan,nan,nan,-1.3600346,0.0,nan,nan,-0.14511473,0.0,0.0,0.0,0.0,0.0,0.0,0.0,0.0,-0.4607151
112903346,nan,nan,nan,-1.3600346,0.0,nan,nan,-0.13854232,0.0,0.0,0.0,0.0,0.0,0.0,0.0,0.0,-0.4646146
113023208,nan,nan,nan,-1.3600346,0.0,nan,nan,-0.07215667,0.0,0.0,0.0,0.0,0.0,0.0,0.0,0.0,-0.4579033
113123511,nan,nan,nan,-1.3600346,0.0,nan,nan,-0.01278845,0.0,0.0,0.0,0.0,0.0,0.0,0.0,0.0,-0.45490137
113223428,nan,nan,nan,-1.3600346,0.0,nan,nan,-0.012518639,0.0,0.0,0.0,0.0,0.0,0.0,0.0,0.0,-0.4586395
113323458,nan,nan,-0.45881176,-1.3600346,0.0,nan,nan,0.0,0.0,0.0,0.0,0.0,0.0,0.0,0.0029837668,-0.0057998165,-0.4592794
113423538,nan,nan,-0.45881176,-1.3600346,0.0,nan,nan,-0.010689765,0.0,0.0,0.0,0.0,0.0,0.0,0.04499435,-0.019293902,-0.46031207
113523575,nan,nan,-0.45881176,-1.3600346,0.0,nan,nan,-0.020380676,0.0,0.0,0.0,0.0,0.0,0.0,0.09613572,-0.021029146,-0.46244842
113623761,nan,nan,-0.45881176,-1.3600346,0.0,nan,nan,-0.029866934,0.0,0.0,0.0,0.0,0.0,0.0,0.12674892,-0.023789743,-0.46796197
113724160,nan,nan,nan,-1.3600346,0.0,nan,nan,-0.022946274,0.0,0.0,0.0,0.0,0.0,0.0,0.14027928,-0.024022305,-0.46188426
113824218,nan,nan,nan,-1.3600346,0.0,nan,nan,-0.009677882,0.0,0.0,0.0,0.0,0.0,0.0,0.043324053,-0.011928774,-0.45455983
113924317,nan,nan,nan,-1.3600346,0.0,nan,nan,-0.004188294,0.0,0.0,0.0,0.0,0.0,0.0,-0.0016943265,-0.0008415029,-0.4650912
114024369,nan,nan,-0.38380325,-1.3600346,0.0,nan,nan,0.0,0.0,0.0,0.0,0.0,0.0,0.0,-3.417627e-05,1.2704861e-05,-0.4734046
114124339,nan,nan,nan,-1.3600346,0.0,nan,nan,-0.016622221,0.0,0.0,0.0,0.0,0.0,0.0,4.7530492e-07,6.463116e-07,-0.48143137
114244378,nan,nan,-0.3444582,-1.3600346,0.0,nan,nan,-0.0027917325,0.0,0.0,0.0,0.0,0.0,0.0,1.8149674e-08,3.4554295e-09,-0.46866566
114344523,nan,nan,-0.3444582,-1.3600346,0.0,nan,nan,-0.017246127,0.0,0.0,0.0,0.0,0.0,0.0,-0.004757168,0.016283995,-0.4648767
114445094,nan,nan,-0.3444582,-1.3600346,0.0,nan,nan,-0.029961437,0.0,0.0,0.0,0.0,0.0,0.0,-0.07000334,0.08115515,-0.46942753
114544841,nan,nan,-0.3444582,-1.3600346,0.0,nan,nan,-0.04369843,0.0,0.0,0.0,0.0,0.0,0.0,-0.077868864,0.088887125,-0.4650673
114645666,nan,nan,-0.3444582,-1.3600346,0.0,nan,nan,-0.048843235,0.0,0.0,0.0,0.0,0.0,0.0,-0.06931305,0.10028829,-0.4532069
114745062,nan,nan,-0.3444582,-1.3600346,0.0,nan,nan,-0.054009795,0.0,0.0,0.0,0.0,0.0,0.0,-0.059495587,0.11070353,-0.45804775
114845047,nan,nan,-0.3444582,-1.3600346,0.0,nan,nan,-0.05415699,0.0,0.0,0.0,0.0,0.0,0.0,-0.013066744,0.032272086,-0.46768135
114945152,nan,nan,-0.3444582,-1.3600346,0.0,nan,nan,-0.047262967,0.0,0.0,0.0,0.0,0.0,0.0,-0.00019359964,0.0004274392,-0.47146538
115045149,nan,nan,-0.3444582,-1.3600346,0.0,nan,nan,-0.042638183,0.0,0.0,0.0,0.0,0.0,0.0,5.480466e-06,-1.6202655e-05,-0.47980472
115145189,nan,nan,-0.3444582,-1.3600346,0.0,nan,nan,-0.046785235,0.0,0.0,0.0,0.0,0.0,0.0,1.4172055e-07,-3.6534612e-07,-0.48168254
115246440,nan,nan,-0.3444582,-1.3600346,0.0,nan,nan,-0.055815965,0.0,0.0,0.0,0.0,0.0,0.0,2.4362825e-09,-5.679791e-09,-0.48267663
115345572,nan,nan,-0.3444582,-1.3600346,-0.0,nan,nan,-0.06178826,0.0,0.0,0.0,0.0,0.0,0.0,-3.970392e-11,1.3315848e-10,-0.47888663
115445839,nan,nan,-0.3444582,-1.3619767,0.1361426,nan,nan,-0.068086594,0.0,0.0,0.0,0.0,0.0,0.0,-3.0595825e-12,6.700446e-12,-0.47581872
115545784,nan,nan,-0.3444582,-1.3519922,0.3847438,nan,nan,-0.073523045,0.0,0.0,0.0,0.0,0.0,0.0,-2.537876e-14,3.7477223e-14,-0.48043776
115665805,nan,nan,-0.3444582,-1.3187251,0.38970795,nan,nan,-0.083661556,0.0,0.0,0.0,0.0,0.0,0.0,-4.2575733e-16,8.2936654e-16,-0.48369583
115766000,nan,nan,-0.3444582,-1.2858273,0.26401433,nan,nan,-0.09392458,0.0,0.0,0.0,0.0,0.0,0.0,1.5009763e-17,-3.4716198e-17,-0.4803882
115865923,nan,nan,-0.3444582,-1.2580563,0.10092569,nan,nan,-0.096365154,0.0,0.0,0.0,0.0,0.0,0.0,3.7097567e-19,-7.186612e-19,-0.47606924
115966423,nan,nan,-0.3444582,-1.2474815,0.0,nan,nan,-0.09772372,0.0,0.0,0.0,0.0,0.0,0.0,6.6096507e-22,2.5852213e-21,-0.4796917
116066358,nan,nan,-0.3444582,-1.2474815,0.0,nan,nan,-0.09582284,0.0,0.0,0.0,0.0,0.0,0.0,-5.6582436e-22,1.0239205e-21,-0.47744697
116166700,nan,nan,-0.3444582,-1.2474815,-0.0,nan,nan,-0.094613805,0.0,0.0,0.0,0.0,0.0,0.0,-7.450027e-24,1.2116985e-23,-0.47785202
116366655,nan,nan,-0.3444582,-1.191541,0.43490914,nan,nan,-0.08105618,0.0,0.0,0.0,0.0,0.0,0.0,6.803737e-27,-1.11971826e-26,-0.47364426
116466534,nan,nan,nan,-1.1644787,0.0,nan,nan,-0.044455603,0.0,0.0,0.0,0.0,0.0,0.0,1.078417e-28,-1.542414e-28,-0.468203
116666723,nan,nan,nan,-1.1470767,-0.20844994,nan,nan,-0.010257239,0.0,0.0,0.0,0.0,0.0,0.0,-7.532002e-32,1.1612211e-31,-0.47274733
116766806,nan,nan,nan,-1.1555219,-0.73851776,nan,nan,-0.0542856,0.0,0.0,0.0,0.0,0.0,0.0,-7.1083755e-34,4.8185846e-34,-0.48922712
116887016,nan,nan,nan,-1.215558,-1.1478289,nan,nan,-0.11456537,0.0,0.0,0.0,0.0,0.0,0.0,-1.5235228e-35,2.260552e-35,-0.48203185
116987216,nan,nan,nan,-1.2983091,-1.3545322,nan,nan,-0.15752044,0.0,0.0,0.0,0.0,0.0,0.0,-7.08992e-38,5.5092234e-38,-0.47459102
117087262,nan,nan,nan,-1.3985248,-1.0060842,nan,nan,-0.1326359,0.0,0.0,0.0,0.0,0.0,0.0,1.223605e-39,-5.270134e-39,-0.46905178
117187321,nan,nan,nan,-1.492361,-1.4191284,nan,nan,-0.22083011,0.0,0.0,0.0,0.0,0.0,0.0,1.11262e-40,-3.74689e-40,-0.49465483
117287355,nan,nan,nan,-1.6078227,-1.0399189,nan,nan,-0.17167775,0.0,0.0,0.0,0.0,0.0,0.0,7.8e-43,-2.705e-42,-0.471678
117387428,nan,nan,nan,-1.7135289,-0.9098153,nan,nan,-0.16210087,0.0,0.0,0.0,0.0,0.0,0.0,7e-45,2.8e-44,-0.46327958
117487585,nan,nan,nan,-1.8093132,-0.86508095,nan,nan,-0.14981475,0.0,0.0,0.0,0.0,0.0,0.0,0.0,4e-45,-0.47679523
117587637,nan,nan,nan,-1.9008731,-0.8755205,nan,nan,-0.15507546,0.0,0.0,0.0,0.0,0.0,0.0,0.0,0.0,-0.48525125
117687948,nan,nan,nan,-1.9897984,-0.83081764,nan,nan,-0.14723468,0.0,0.0,0.0,0.0,0.0,0.0,0.0,0.0,-0.48338884
117787989,nan,nan,nan,-2.075438,-0.87676734,nan,nan,-0.15673406,0.0,0.0,0.0,0.0,0.0,0.0,0.0,0.0,-0.48631653
117888129,nan,nan,nan,-2.1631584,-1.0562775,nan,nan,-0.16787338,0.0,0.0,0.0,0.0,0.0,0.0,0.0,0.0,-0.48914054
118008376,nan,nan,nan,-2.2841506,-1.131457,nan,nan,-0.21684337,0.0,0.0,0.0,0.0,0.0,0.0,0.0,0.0,-0.49520975
118108199,nan,nan,nan,-2.3897636,-1.0890361,nan,nan,-0.20996776,0.0,0.0,0.0,0.0,0.0,0.0,0.0,0.0,-0.4827078
118208348,nan,nan,nan,-2.4923425,-1.2280958,nan,nan,-0.25306314,0.0,0.0,0.0,0.0,0.0,0.0,0.0,0.0,-0.48638117
118308405,nan,nan,nan,-2.603265,-1.2482773,nan,nan,-0.25713772,0.0,0.0,0.0,0.0,0.0,0.0,0.0,0.0,-0.48715162
118408448,nan,nan,nan,-2.7183073,-1.0561467,nan,nan,-0.24858046,0.0,0.0,0.0,0.0,0.0,0.0,0.0,0.0,-0.48696753
118508754,nan,nan,nan,-2.824885,-0.9959875,nan,nan,-0.24900126,0.0,0.0,0.0,0.0,0.0,0.0,0.0,0.0,-0.48505694
118608890,nan,nan,nan,-2.9300284,-1.3216339,nan,nan,-0.32232493,0.0,0.0,0.0,0.0,0.0,0.0,0.0,0.0,-0.50327814
118708903,nan,nan,nan,-3.0502172,-1.1860828,nan,nan,-0.30546236,0.0,0.0,0.0,0.0,0.0,0.0,0.0,0.0,-0.4889585
118808976,nan,nan,nan,3.1152046,-1.1596243,nan,nan,-0.3086981,0.0,0.0,0.0,0.0,0.0,0.0,0.0,0.0,-0.48359323
118908990,nan,nan,nan,2.9975126,-1.1679133,nan,nan,-0.3077309,0.0,0.0,0.0,0.0,0.0,0.0,0.0,0.0,-0.48879662
119029067,nan,nan,nan,2.8558283,-1.000016,nan,nan,-0.28865585,0.0,0.0,0.0,0.0,0.0,0.0,0.0,0.0,-0.48512635
119129215,nan,nan,nan,2.7505262,-0.6587071,nan,nan,-0.23644853,0.0,0.0,0.0,0.0,0.0,0.0,0.0,0.0,-0.47788772
119229409,nan,nan,nan,2.666957,-0.68400323,nan,nan,-0.22431381,0.0,0.0,0.0,0.0,0.0,0.0,0.0,0.0,-0.4841438
119329539,nan,nan,nan,2.587427,-0.1913462,nan,nan,-0.12643106,0.0,0.0,0.0,0.0,0.0,0.0,0.0,0.0,-0.46720952
119429661,nan,nan,nan,2.561539,-0.0,nan,nan,-0.0042848536,0.0,0.0,0.0,0.0,0.0,0.0,0.0,0.0,-0.44537443
119529736,nan,nan,-0.78664637,2.561539,0.0,nan,nan,0.0075159073,0.0,0.0,0.0,0.0,0.0,0.0,0.0,0.0,-0.46832404
119629743,nan,nan,-0.78664637,2.561539,0.0,nan,nan,0.001174748,0.0,0.0,0.0,0.0,0.0,0.0,0.0,0.0,-0.4978922
119729801,nan,nan,-0.78664637,2.561539,0.0,nan,nan,-0.015028,0.0,0.0,0.0,0.0,0.0,0.0,0.0,0.0,-0.4986041
119829878,nan,nan,-0.78664637,2.561539,-0.0,nan,nan,-0.024894416,0.0,0.0,0.0,0.0,0.0,0.0,0.0,0.0,-0.49176413
119929977,nan,nan,-0.78664637,2.561539,-0.0,nan,nan,-0.026674986,0.0,0.0,0.0,0.0,0.0,0.0,0.0,0.0,-0.48294652
120030165,nan,nan,-0.78664637,2.561539,-0.0,nan,nan,-0.025366724,0.0,0.0,0.0,0.0,0.0,0.0,0.0,0.0,-0.48098558
120130306,nan,nan,-0.78664637,2.561539,0.0,nan,nan,-0.023865163,0.0,0.0,0.0,0.0,0.0,0.0,0.0,0.0,-0.48562282
120230409,nan,nan,-0.78664637,2.561539,-0.0,nan,nan,-0.024345636,0.0,0.0,0.0,0.0,0.0,0.0,0.0,0.0,-0.49014574
120330494,nan,nan,-0.78664637,2.5445948,0.20362628,nan,nan,-0.02599758,0.0,0.0,0.0,0.0,0.0,0.0,0.0,0.0,-0.49172392
120430518,nan,nan,-0.78664637,2.5586529,0.3787546,nan,nan,-0.027490199,0.0,0.0,0.0,0.0,0.0,0.0,0.0,0.0,-0.48877397
120550577,nan,nan,-0.78664637,2.5944366,0.42542288,nan,nan,-0.029720485,0.0,0.0,0.0,0.0,0.0,0.0,0.0,0.0,-0.4851598
120650721,nan,nan,-0.78664637,2.6285317,0.19496457,nan,nan,-0.027684271,0.0,0.0,0.0,0.0,0.0,0.0,0.0,0.0,-0.48327887
120750785,nan,nan,-0.78664637,2.6540515,-0.0,nan,nan,-0.024822235,0.0,0.0,0.0,0.0,0.0,0.0,0.0,0.0,-0.48775774
120850943,nan,nan,-0.78664637,2.6540515,0.0,nan,nan,-0.03261155,0.0,0.0,0.0,0.0,0.0,0.0,0.0,0.0,-0.4947353
120951320,nan,nan,-0.78664637,2.6540515,0.0,nan,nan,-0.044698358,0.0,0.0,0.0,0.0,0.0,0.0,0.0,0.0,-0.4989568
121051404,nan,nan,-0.78664637,2.6540515,-0.0,nan,nan,-0.049238503,0.0,0.0,0.0,0.0,0.0,0.0,0.0,0.0,-0.49085084
121151501,nan,nan,-0.78664637,2.6540515,-0.0,nan,nan,-0.048048377,0.0,0.0,0.0,0.0,0.0,0.0,0.0,0.0,-0.48455018
121251482,nan,nan,-0.78664637,2.6540515,-0.0,nan,nan,-0.0432716,0.0,0.0,0.0,0.0,0.0,0.0,0.0,0.0,-0.48133287
121351427,nan,nan,-0.78664637,2.6540515,0.0,nan,nan,-0.035946727,0.0,0.0,0.0,0.0,0.0,0.0,0.0,0.0,-0.4852265
121451536,nan,nan,-0.78664637,2.6540515,-0.0,nan,nan,-0.037648916,0.0,0.0,0.0,0.0,0.0,0.0,0.0,0.0,-0.4920214
121551569,nan,nan,-0.78664637,2.6540515,0.0,nan,nan,-0.042313516,0.0,0.0,0.0,0.0,0.0,0.0,0.0,0.0,-0.49718213
121671781,nan,nan,-0.78664637,2.6540515,0.0,nan,nan,-0.047326684,0.0,0.0,0.0,0.0,0.0,0.0,0.0,0.0,-0.49968892
121772170,nan,nan,-0.78664637,2.654348,-0.87383986,nan,nan,-0.043863535,0.0,0.0,0.0,0.0,0.0,0.0,0.0,0.0,-0.49225134
121872243,nan,nan,-0.78664637,2.6032546,-0.7779934,nan,nan,-0.03037262,0.0,0.0,0.0,0.0,0.0,0.0,0.0,0.0,-0.47186083
121972231,nan,nan,-0.78664637,2.544461,-0.998261,nan,nan,-0.015727341,0.0,0.0,0.0,0.0,0.0,0.0,0.0,0.0,-0.47397035
122072328,nan,nan,-0.78664637,2.4692452,-1.2756146,nan,nan,-0.006295264,0.0,0.0,0.0,0.0,0.0,0.0,0.0,0.0,-0.476935
122172365,nan,nan,-0.78664637,2.3722558,-1.0588366,nan,nan,-0.0027914047,0.0,0.0,0.0,0.0,0.0,0.0,0.0,0.0,-0.4800582
122272380,nan,nan,-0.78664637,2.2802753,-0.89152926,nan,nan,-0.0046601295,0.0,0.0,0.0,0.0,0.0,0.0,0.0,0.0,-0.4869942
122372419,nan,nan,-0.78664637,2.1941922,-0.73177034,nan,nan,-0.009004772,0.0,0.0,0.0,0.0,0.0,0.0,0.0,0.0,-0.49553245
122472575,nan,nan,-0.78664637,2.1163926,-0.49279532,nan,nan,-0.013278663,0.0,0.0,0.0,0.0,0.0,0.0,0.0,0.0,-0.49429998
122573135,nan,nan,-0.78664637,2.087163,-0.0,nan,nan,-0.016633153,0.0,0.0,0.0,0.0,0.0,0.0,0.0,0.0,-0.49121246
122672883,nan,nan,-0.78664637,2.087163,0.0,nan,nan,-0.014309585,0.0,0.0,0.0,0.0,0.0,0.0,0.0,0.0,-0.4793396
122773035,nan,nan,-0.78664637,2.087163,0.0,nan,nan,-0.0071472526,0.0,0.0,0.0,0.0,0.0,0.0,0.0059750066,-0.010524059,-0.47640166
122872955,nan,nan,-0.78664637,2.087163,0.0,nan,nan,0.0007749796,0.0,0.0,0.0,0.0,0.0,0.0,0.04528466,-0.058689363,-0.48188645
122974426,nan,nan,-0.78664637,2.087163,0.0,nan,nan,0.0076745152,0.0,0.0,0.0,0.0,0.0,0.0,0.05752207,-0.076284766,-0.4846747
123093155,nan,nan,-0.78664637,2.087163,0.0,nan,nan,0.013439357,0.0,0.0,0.0,0.0,0.0,0.0,0.080714196,-0.097524635,-0.47856626
123193271,nan,nan,-0.78664637,2.087163,0.0,nan,nan,0.022227764,0.0,0.0,0.0,0.0,0.0,0.0,0.083976895,-0.10118527,-0.47292355
123294486,nan,nan,-0.78664637,2.087163,-0.0,nan,nan,0.027180016,0.0,0.0,0.0,0.0,0.0,0.0,0.033234403,-0.06096837,-0.4772546
123393696,nan,nan,-0.78664637,2.087163,-0.0,nan,nan,0.0296188,0.0,0.0,0.0,0.0,0.0,0.0,0.00024761035,-0.00043582317,-0.47791103
123495184,nan,nan,-0.78664637,2.087163,0.0,nan,nan,0.026457608,0.0,0.0,0.0,0.0,0.0,0.0,-2.2265156e-05,4.2123058e-05,-0.48565874
123593741,nan,nan,-0.78664637,2.087163,0.0,nan,nan,0.020744741,0.0,0.0,0.0,0.0,0.0,0.0,-3.7788627e-07,7.028023e-07,-0.48980147
123694191,nan,nan,-0.78664637,2.087163,0.0,nan,nan,0.01169771,0.0,0.0,0.0,0.0,0.0,0.0,-0.0026257997,-0.0017043266,-0.5007103
123793834,nan,nan,-0.78664637,2.087163,0.0,nan,nan,0.0046785474,0.0,0.0,0.0,0.0,0.0,0.0,-0.06471787,-0.04562707,-0.5032349
123893957,nan,nan,-0.78664637,2.087163,-0.0,nan,nan,-0.001260221,0.0,0.0,0.0,0.0,0.0,0.0,-0.10264451,-0.06595358,-0.48955205
123994034,nan,nan,-0.78664637,2.087163,-0.0,nan,nan,-0.0036466122,0.0,0.0,0.0,0.0,0.0,0.0,-0.124316886,-0.07749388,-0.4836469
124094215,nan,nan,-0.78664637,2.087163,0.0,nan,nan,0.0015124083,0.0,0.0,0.0,0.0,0.0,0.0,-0.13566667,-0.083101265,-0.47521713
124194406,nan,nan,-0.78664637,2.087163,0.0,nan,nan,0.0063735843,0.0,0.0,0.0,0.0,0.0,0.0,-0.1476312,-0.0835137,-0.4715673
124294498,nan,nan,-0.78664637,2.087163,0.0,nan,nan,0.015883267,0.0,0.0,0.0,0.0,0.0,0.0,-0.14782393,-0.08392173,-0.4699653
124394513,nan,nan,-0.78664637,2.087163,-0.0,nan,nan,0.024598897,0.0,0.0,0.0,0.0,0.0,0.0,-0.14827773,-0.08418439,-0.47177786
124494548,nan,nan,-0.78664637,2.087163,-0.0,nan,nan,0.037103534,0.0,0.0,0.0,0.0,0.0,0.0,-0.13422918,-0.07620826,-0.47820508
124614656,nan,nan,-0.78664637,2.087163,-0.0,nan,nan,0.05355847,0.0,0.0,0.0,0.0,0.0,0.0,-0.13377263,-0.07594906,-0.4795326
124714741,nan,nan,-0.78664637,2.087163,-0.0,nan,nan,0.06554717,0.0,0.0,0.0,0.0,0.0,0.0,-0.13181649,-0.07483847,-0.48268372
124814867,nan,nan,-0.78664637,2.087163,0.0,nan,nan,0.07812512,0.0,0.0,0.0,0.0,0.0,0.0,-0.11827185,-0.06714854,-0.4794161
124915158,nan,nan,-0.78664637,2.087163,0.0,nan,nan,0.08882326,0.0,0.0,0.0,0.0,0.0,0.0,0.00899798,0.005108579,-0.47785476
125015284,nan,nan,-0.78664637,2.087163,-0.0,nan,nan,0.100238144,0.0,0.0,0.0,0.0,0.0,0.0,-0.00013299752,-7.5509e-05,-0.4739393
125115301,nan,nan,-0.78664637,2.087163,-0.0,nan,nan,0.11317766,0.0,0.0,0.0,0.0,0.0,0.0,-4.8434645e-06,-2.7498643e-06,-0.4659302
125215463,nan,nan,-0.78664637,2.087163,-0.0,nan,nan,0.12669379,0.0,0.0,0.0,0.0,0.0,0.0,-1.00130634e-07,-5.6848908e-08,-0.4782883
125315374,nan,nan,-0.78664637,2.087163,0.0,nan,nan,0.13671052,0.0,0.0,0.0,0.0,0.0,0.0,5.367715e-10,3.0475064e-10,-0.48794895
125415480,nan,nan,-0.78664637,2.087163,0.0,nan,nan,0.14443219,0.0,0.0,0.0,0.0,0.0,0.0,1.4929301e-10,8.476071e-11,-0.4952465
125515540,nan,nan,-0.78664637,2.087163,0.0,nan,nan,0.15161449,0.0,0.0,0.0,0.0,0.0,0.0,1.6942389e-12,9.618996e-13,-0.4924757
125615658,nan,nan,-0.78664637,2.087163,0.0,nan,nan,0.16059965,0.0,0.0,0.0,0.0,0.0,0.0,5.1513295e-15,2.9246538e-15,-0.48221993
125715938,nan,nan,-0.78664637,2.087163,0.0,nan,nan,0.16830629,0.0,0.0,0.0,0.0,0.0,0.0,-1.6737478e-15,-9.502658e-16,-0.48270604
125836035,nan,nan,-0.78664637,2.087163,0.0,nan,nan,0.1736589,0.0,0.0,0.0,0.0,0.0,0.0,-1.10846065e-17,-6.2932563e-18,-0.4913008
125936114,nan,nan,-0.78664637,2.087163,0.0,nan,nan,0.17293608,0.0,0.0,0.0,0.0,0.0,0.0,-1.7700149e-19,-1.0049213e-19,-0.48841563
126036134,nan,nan,-0.78664637,2.087163,0.0,nan,nan,0.17028981,0.0,0.0,0.0,0.0,0.0,0.0,1.7709812e-21,1.0054698e-21,-0.4976341
126136202,nan,nan,-0.78664637,2.087163,0.0,nan,nan,0.16331273,0.0,0.0,0.0,0.0,0.0,0.0,0.0010922119,-0.0019237639,-0.49705878
126236299,nan,nan,-0.78664637,2.087163,0.0,nan,nan,0.15710592,0.0,0.0,0.0,0.0,0.0,0.0,0.029528147,-0.052009303,-0.4900353
126336416,nan,nan,-0.78664637,2.087163,0.0,nan,nan,0.15107024,0.0,0.0,0.0,0.0,0.0,0.0,0.04689982,-0.0824889,-0.48544896
126436462,nan,nan,-0.78664637,2.087163,0.0,nan,nan,0.14708304,0.0,0.0,0.0,0.0,0.0,0.0,0.047546405,-0.083738886,-0.47892752
126536699,nan,nan,-0.78664637,2.087163,0.0,nan,nan,0.14499462,0.0,0.0,0.0,0.0,0.0,0.0,0.046169262,-0.08131987,-0.47792614
126636793,nan,nan,-0.78664637,2.087163,0.0,nan,nan,0.13940132,0.0,0.0,0.0,0.0,0.0,0.0,0.0536394,-0.09447759,-0.48631898
126736903,nan,nan,-0.78664637,2.087163,0.0,nan,nan,0.12204933,0.0,0.0,0.0,0.0,0.0,0.0,0.048842933,-0.08602934,-0.48855242
126836973,nan,nan,-0.78664637,2.087163,0.0,nan,nan,0.10617089,0.0,0.0,0.0,0.0,0.0,0.0,0.036884714,-0.06496677,-0.48491868
126937029,nan,nan,-0.78664637,2.087163,0.0,nan,nan,0.089435935,0.0,0.0,0.0,0.0,0.0,0.0,-0.0024368109,0.004292069,-0.4867028
127057104,nan,nan,-0.78664637,2.087163,0.0,nan,nan,0.0662508,0.0,0.0,0.0,0.0,0.0,0.0,-3.256718e-05,5.7362093e-05,-0.49122792
127157198,nan,nan,-0.78664637,2.087163,0.0,nan,nan,0.048193157,0.0,0.0,0.0,0.0,0.0,0.0,-2.1538115e-07,3.793609e-07,-0.49295864
127257372,nan,nan,-0.78664637,2.087163,0.0,nan,nan,0.025821865,0.0,0.0,0.0,0.0,0.0,0.0,2.7378045e-08,-4.822223e-08,-0.49886543
127357481,nan,nan,-0.78664637,2.087163,0.0,nan,nan,0.006289482,0.0,0.0,0.0,0.0,0.0,0.0,4.30325e-10,-7.5795153e-10,-0.50204015
127457588,nan,nan,-0.78664637,2.087163,0.0,nan,nan,-0.013492703,0.0,0.0,0.0,0.0,0.0,0.0,-9.917124e-12,1.7467494e-11,-0.5002644
127557726,nan,nan,-0.78664637,2.087163,0.0,nan,nan,-0.027598083,0.0,0.0,0.0,0.0,0.0,0.0,-5.0921973e-13,8.9691254e-13,-0.49446073
127657745,nan,nan,-0.78664637,2.087163,0.0,nan,nan,-0.038310707,0.0,0.0,0.0,0.0,0.0,0.0,-2.89805e-15,5.104471e-15,-0.4884943
127757790,nan,nan,-0.78664637,2.087163,0.0,nan,nan,-0.047789156,0.0,0.0,0.0,0.0,0.0,0.0,4.478381e-16,-7.8879827e-16,-0.49945548
127857921,nan,nan,nan,2.087163,0.0,nan,nan,-0.035282448,0.0,0.0,0.0,0.0,0.0,0.0,6.764341e-18,-1.1914349e-17,-0.4985686
127957992,nan,nan,nan,2.087163,0.0,nan,nan,-0.087078094,0.0,0.0,0.0,0.0,0.0,0.0,-1.7541934e-19,3.089743e-19,-0.50631744
128058174,nan,nan,nan,2.087163,0.0,nan,nan,-0.122202314,0.0,0.0,0.0,0.0,0.0,0.0,-4.646617e-21,8.184304e-21,-0.49817908
128178609,nan,nan,nan,2.087163,0.0,nan,nan,-0.2128574,0.0,0.0,0.0,0.0,0.0,0.0,-2.2837547e-23,4.022484e-23,-0.5000577
128278602,nan,nan,nan,2.087163,0.0,nan,nan,-0.2748832,0.0,0.0,0.0,0.0,0.0,0.0,-1.0032855e-24,1.7671338e-24,-0.50779146
128378707,nan,nan,nan,2.087163,0.0,nan,nan,-0.30505586,0.0,0.0,0.0,0.0,0.0,0.0,4.5253832e-26,-7.9707695e-26,-0.5022235
128478698,nan,nan,nan,2.087163,0.0,nan,nan,-0.33303466,0.0,0.0,0.0,0.0,0.0,0.0,9.122931e-28,-1.6068645e-27,-0.48962766
128578745,nan,nan,nan,2.087163,0.0,nan,nan,-0.32571602,0.0,0.0,0.0,0.0,0.0,0.0,1.288452e-29,-2.2694108e-29,-0.47990525
128678765,nan,nan,nan,2.087163,0.0,nan,nan,-0.1944499,0.0,0.0,0.0,0.0,0.0,0.0,-3.6380393e-31,6.4078487e-31,-0.46082503
128778805,nan,nan,nan,2.087163,0.0,nan,nan,-0.016369497,0.0,0.0,0.0,0.0,0.0,0.0,-0.0055354456,0.00974984,-0.4416576
128878984,nan,nan,-0.78911126,2.087163,0.0,nan,nan,0.0018154383,0.0,0.0,0.0,0.0,0.0,0.0,-0.017865086,0.03146661,-0.46620205
128979456,nan,nan,-0.78911126,2.087163,0.0,nan,nan,-0.0039485097,0.0,0.0,0.0,0.0,0.0,0.0,-0.027957095,0.04924214,-0.48642278
129079535,nan,nan,-0.78911126,2.087163,0.0,nan,nan,-0.01581037,0.0,0.0,0.0,0.0,0.0,0.0,-0.029985998,0.052815743,-0.497289
129179558,nan,nan,-0.78911126,2.087163,0.0,nan,nan,-0.03590375,0.0,0.0,0.0,0.0,0.0,0.0,-0.029086467,0.05123135,-0.50194186
129279592,nan,nan,-0.78911126,2.087163,0.0,nan,nan,-0.05329871,0.0,0.0,0.0,0.0,0.0,0.0,-0.02988473,0.052637376,-0.5055851
129379609,nan,nan,-0.78911126,2.087163,0.0,nan,nan,-0.072615504,0.0,0.0,0.0,0.0,0.0,0.0,-0.03265612,0.057518747,-0.49906728
129479590,nan,nan,-0.78911126,2.087163,0.0,nan,nan,-0.08425516,0.0,0.0,0.0,0.0,0.0,0.0,-0.03135589,0.055228595,-0.4857679
129599638,nan,nan,-0.78911126,2.087163,0.0,nan,nan,-0.08443391,0.0,0.0,0.0,0.0,0.0,0.0,-0.031763397,0.055946354,-0.47974718
129700063,nan,nan,-0.78911126,2.087163,0.0,nan,nan,-0.08076149,0.0,0.0,0.0,0.0,0.0,0.0,-0.03464865,0.061028287,-0.48450568
129800424,nan,nan,-0.78911126,2.087163,0.0,nan,nan,-0.07906383,0.0,0.0,0.0,0.0,0.0,0.0,-0.034024782,0.05992944,-0.48810038
129900162,nan,nan,-0.78911126,2.087163,0.0,nan,nan,-0.078266025,0.0,0.0,0.0,0.0,0.0,0.0,-0.03331176,0.058673553,-0.48541334
130000298,nan,nan,-0.78911126,2.087163,0.0,nan,nan,-0.07999605,0.0,0.0,0.0,0.0,0.0,0.0,-0.030942835,0.054501064,-0.4874052
130100183,nan,nan,-0.78911126,2.087163,0.0,nan,nan,-0.08548272,0.0,0.0,0.0,0.0,0.0,0.0,-0.029984346,0.052812826,-0.49059173
130200341,nan,nan,-0.78911126,2.087163,0.0,nan,nan,-0.08975601,0.0,0.0,0.0,0.0,0.0,0.0,-0.021163058,0.037275482,-0.48811263
130300384,nan,nan,-0.78911126,2.087163,0.0,nan,nan,-0.09391981,0.0,0.0,0.0,0.0,0.0,0.0,0.00092554843,-0.0016302117,-0.49239722
130400423,nan,nan,-0.78911126,2.087163,0.0,nan,nan,-0.10105318,0.0,0.0,0.0,0.0,0.0,0.0,-6.76069e-05,0.0001190792,-0.49403363
130500593,nan,nan,-0.78911126,2.087163,0.0,nan,nan,-0.108909905,0.0,0.0,0.0,0.0,0.0,0.0,-1.1959212e-06,2.106432e-06,-0.49344406
130600800,nan,nan,-0.78911126,2.087163,0.0,nan,nan,-0.11270553,0.0,0.0,0.0,0.0,0.0,0.0,0.0031530126,-0.005553548,-0.504244
130720919,nan,nan,-0.78911126,2.087163,0.0,nan,nan,-0.11569387,0.0,0.0,0.0,0.0,0.0,0.0,0.03276481,-0.057710197,-0.5106283
130821109,nan,nan,-0.78911126,2.087163,0.0,nan,nan,-0.110818684,0.0,0.0,0.0,0.0,0.0,0.0,0.04734398,-0.08301042,-0.48868194
130921005,nan,nan,-0.78911126,2.087163,0.0,nan,nan,-0.09484804,0.0,0.0,0.0,0.0,0.0,0.0,0.05317552,-0.09317885,-0.47067758
131021736,nan,nan,-0.78911126,2.087163,0.0,nan,nan,-0.07523668,0.0,0.0,0.0,0.0,0.0,0.0,0.04788649,-0.08433023,-0.47592786
131121189,nan,nan,-0.78911126,2.087163,0.0,nan,nan,-0.0620628,0.0,0.0,0.0,0.0,0.0,0.0,0.05014606,-0.08826603,-0.48060596
131221357,nan,nan,-0.78911126,2.087163,0.0,nan,nan,-0.048555553,0.0,0.0,0.0,0.0,0.0,0.0,-0.00029447864,0.0005220882,-0.47918802
131321507,nan,nan,-0.78911126,2.087163,0.0,nan,nan,-0.037182808,0.0,0.0,0.0,0.0,0.0,0.0,4.293254e-05,-7.553873e-05,-0.4826945
131421759,nan,nan,-0.78911126,2.087163,0.0,nan,nan,-0.031815648,0.0,0.0,0.0,0.0,0.0,0.0,2.6313448e-06,-4.6345663e-06,-0.49511874
131521705,nan,nan,-0.78911126,2.087163,0.0,nan,nan,-0.02759391,0.0,0.0,0.0,0.0,0.0,0.0,1.745422e-08,-3.07708e-08,-0.49229524
131622437,nan,nan,-0.78911126,2.087163,0.0,nan,nan,-0.025535285,0.0,0.0,0.0,0.0,0.0,0.0,-2.148181e-09,3.7820884e-09,-0.4907752
131721794,nan,nan,-0.78911126,2.087163,-0.0,nan,nan,-0.026179254,0.0,0.0,0.0,0.0,0.0,0.0,-3.4219967e-11,6.0262705e-11,-0.49894872
131821862,nan,nan,-0.78911126,2.087163,-0.0,nan,nan,-0.02903974,0.0,0.0,0.0,0.0,0.0,0.0,-3.3827086e-13,5.959821e-13,-0.4952885
131921951,nan,nan,-0.78911126,2.0939715,0.12398029,nan,nan,-0.031514227,0.0,0.0,0.0,0.0,0.0,0.0,2.2151524e-14,-3.8384694e-14,-0.48821765
132022184,nan,nan,-0.78911126,2.10598,0.62231284,nan,nan,-0.029515088,0.0,0.0,0.0,0.0,0.0,0.0,0.016030075,0.009504254,-0.4880557
132122347,nan,nan,-0.78911126,2.1434042,0.47211814,nan,nan,-0.028932452,0.0,0.0,0.0,0.0,0.0,0.0,0.0039216033,0.002528078,-0.48551387
132242416,nan,nan,-0.78911126,2.1609845,0.0,nan,nan,-0.024486363,0.0,0.0,0.0,0.0,0.0,0.0,1.4551872e-05,9.747254e-06,-0.48384687
132342448,nan,nan,-0.78911126,2.1609845,0.0,nan,nan,-0.022684634,0.0,0.0,0.0,0.0,0.0,0.0,2.6747242e-07,1.7916057e-07,-0.4907472
132442501,nan,nan,-0.78911126,2.1609845,0.0,nan,nan,-0.02431947,0.0,0.0,0.0,0.0,0.0,0.0,-2.4949932e-08,-1.6712168e-08,-0.49354845
132542574,nan,nan,-0.78911126,2.1609845,-0.0,nan,nan,-0.027866483,0.0,0.0,0.0,0.0,0.0,0.0,-4.1802728e-10,-2.8000646e-10,-0.49694115
132642710,nan,nan,-0.78911126,2.1609845,-0.0,nan,nan,-0.028522193,0.0,0.0,0.0,0.0,0.0,0.0,7.681339e-12,5.1451777e-12,-0.49268204
132742779,nan,nan,-0.78911126,2.1609845,0.0,nan,nan,-0.03106141,0.0,0.0,0.0,0.0,0.0,0.0,2.4732278e-13,1.6566376e-13,-0.4914118
132842995,nan,nan,-0.78911126,2.1783028,-0.004432909,nan,nan,-0.03527671,0.0,0.0,0.0,0.0,0.0,0.0,4.8131144e-15,3.3461429e-15,-0.49846163
132943182,nan,nan,-0.78911126,2.1735442,-0.19580011,nan,nan,-0.04320216,0.0,0.0,0.0,0.0,0.0,0.0,-4.0916985e-17,-2.8158184e-17,-0.49670053
133043320,nan,nan,-0.78911126,2.1570385,-0.49830323,nan,nan,-0.052608132,0.0,0.0,0.0,0.0,0.0,0.0,-2.2939414e-18,-1.5234678e-18,-0.49761418
133163364,nan,nan,-0.78911126,2.112811,-0.828116,nan,nan,-0.058389246,0.0,0.0,0.0,0.0,0.0,0.0,-5.408047e-20,-3.2565723e-20,-0.49320057
133263420,nan,nan,-0.78911126,2.0561876,-0.49976334,nan,nan,-0.05204618,0.0,0.0,0.0,0.0,0.0,0.0,-6.3659245e-23,-3.357915e-23,-0.48233545
133363479,nan,nan,-0.78911126,2.0256205,-0.0,nan,nan,-0.042641222,0.0,0.0,0.0,0.0,0.0,0.0,1.9162017e-23,9.3705876e-24,-0.47964898
133463515,nan,nan,-0.78911126,2.0256205,-0.0,nan,nan,-0.030320644,0.0,0.0,0.0,0.0,0.0,0.0,5.6301875e-25,2.7532678e-25,-0.48102152
133563576,nan,nan,-0.78911126,2.0256205,0.0,nan,nan,-0.02001512,0.0,0.0,0.0,0.0,0.0,0.0,6.656991e-27,3.2553936e-27,-0.4819533
133663731,nan,nan,-0.78911126,2.0256205,0.0,nan,nan,-0.010353863,0.0,0.0,0.0,0.0,0.0,0.0,-1.2032806e-28,-5.8842685e-29,-0.48491037
133763879,nan,nan,-0.78911126,2.0256205,-0.0,nan,nan,-0.0023880005,0.0,0.0,0.0,0.0,0.0,0.0,-1.4162342e-29,-6.9256516e-30,-0.48899373
133864034,nan,nan,-0.78911126,2.0256205,-0.0,nan,nan,0.0057896376,0.0,0.0,0.0,0.0,0.0,0.0,-1.3721837e-31,-6.7102366e-32,-0.49197167
133964104,nan,nan,-0.78911126,2.0256205,-0.0,nan,nan,0.014062166,0.0,0.0,0.0,0.0,0.0,0.0,9.5563826e-33,4.6732505e-33,-0.49197686
134064120,nan,nan,-0.78911126,2.0256205,-0.0,nan,nan,0.01902914,0.0,0.0,0.0,0.0,0.0,0.0,9.06811e-35,4.4344764e-35,-0.49192947
134164211,nan,nan,-0.78911126,2.0160646,0.61812454,nan,nan,0.02129376,0.0,0.0,0.0,0.0,0.0,0.0,-2.3452002e-36,-1.1192061e-36,-0.49777025
134264285,nan,nan,-0.78911126,2.056116,0.8530205,nan,nan,0.02180469,0.0,0.0,0.0,0.0,0.0,0.0,-2.209583e-37,-1.1653149e-37,-0.4902563
134364397,nan,nan,-0.78911126,2.116404,0.8562878,nan,nan,0.026123047,0.0,0.0,0.0,0.0,0.0,0.0,0.0040218965,0.0024416056,-0.48055097
134484564,nan,nan,-0.78911126,2.2008295,0.99327254,nan,nan,0.035539806,0.0,0.0,0.0,0.0,0.0,0.0,-0.00046034966,-0.00033567112,-0.47822657
134584714,nan,nan,-0.78911126,2.282666,0.89145696,nan,nan,0.041725993,0.0,0.0,0.0,0.0,0.0,0.0,-2.3097482e-06,-1.9928157e-06,-0.4783205
134684794,nan,nan,-0.78911126,2.3579175,0.1643459,nan,nan,0.04352933,0.0,0.0,0.0,0.0,0.0,0.0,3.6259527e-07,3.63847e-07,-0.4835304
134784892,nan,nan,-0.78911126,2.368115,0.0,nan,nan,0.03918737,0.0,0.0,0.0,0.0,0.0,0.0,5.3943987e-09,5.5245644e-09,-0.48750398
134884929,nan,nan,-0.78911126,2.368115,-0.0,nan,nan,0.035981774,0.0,0.0,0.0,0.0,0.0,0.0,-1.4392976e-10,-1.4740273e-10,-0.4874182
134985018,nan,nan,-0.78911126,2.368115,-0.0,nan,nan,0.031906247,0.0,0.0,0.0,0.0,0.0,0.0,0.0020757394,-0.0020268327,-0.48889792
135085126,nan,nan,-0.78911126,2.368115,-0.0,nan,nan,0.031508088,0.0,0.0,0.0,0.0,0.0,0.0,0.038279515,-0.037377603,-0.49200633
135185232,nan,nan,-0.78911126,2.368115,-0.0,nan,nan,0.026300669,0.0,0.0,0.0,0.0,0.0,0.0,0.062063817,-0.060601518,-0.49130505
135285420,nan,nan,-0.78911126,2.368115,0.0,nan,nan,0.018747985,0.0,0.0,0.0,0.0,0.0,0.0,0.07646573,-0.0746641,-0.4912819
135385799,nan,nan,-0.78911126,2.368115,0.0,nan,nan,0.015579283,0.0,0.0,0.0,0.0,0.0,0.0,0.07409743,-0.07235161,-0.48508415
135485806,nan,nan,-0.78911126,2.368115,0.0,nan,nan,0.015233517,0.0,0.0,0.0,0.0,0.0,0.0,0.070707954,-0.06904199,-0.4821802
135585920,nan,nan,-0.78911126,2.368115,-0.0,nan,nan,0.013427675,0.0,0.0,0.0,0.0,0.0,0.0,0.07366247,-0.07192689,-0.4899477
135705871,nan,nan,-0.78911126,2.368115,-0.0,nan,nan,0.0055876374,0.0,0.0,0.0,0.0,0.0,0.0,0.074131325,-0.0723847,-0.49353075
135805900,nan,nan,-0.78911126,2.368115,-0.0,nan,nan,0.0064765215,0.0,0.0,0.0,0.0,0.0,0.0,0.06866966,-0.06705172,-0.48907298
135906018,nan,nan,-0.78911126,2.368115,0.0,nan,nan,0.008540332,0.0,0.0,0.0,0.0,0.0,0.0,0.061731502,-0.060277037,-0.48687
136006027,nan,nan,-0.78911126,2.368115,0.0,nan,nan,0.010458887,0.0,0.0,0.0,0.0,0.0,0.0,0.011110545,-0.010848767,-0.4884117
136106201,nan,nan,-0.78911126,2.368115,0.0,nan,nan,0.015221119,0.0,0.0,0.0,0.0,0.0,0.0,0.00027689824,-0.00027037418,-0.488577
136207020,nan,nan,-0.78911126,2.368115,-0.0,nan,nan,0.017126024,0.0,0.0,0.0,0.0,0.0,0.0,1.3320091e-06,-1.3006253e-06,-0.49141034
136306410,nan,nan,-0.78911126,2.368115,-0.0,nan,nan,0.016711533,0.0,0.0,0.0,0.0,0.0,0.0,-8.508457e-08,8.3079875e-08,-0.49814278
136406653,nan,nan,-0.78911126,2.368115,0.0,nan,nan,0.012803853,0.0,0.0,0.0,0.0,0.0,0.0,-6.001149e-09,5.8597553e-09,-0.5003445
136506724,nan,nan,-0.78911126,2.368115,0.0,nan,nan,0.009390175,0.0,0.0,0.0,0.0,0.0,0.0,-0.009645683,-0.0098784305,-0.50028884
136626736,nan,nan,-0.78911126,2.368115,0.0,nan,nan,0.0016134381,0.0,0.0,0.0,0.0,0.0,0.0,-0.05648694,-0.057849955,-0.49965015
136726792,nan,nan,-0.78911126,2.368115,0.0,nan,nan,-0.00043994188,0.0,0.0,0.0,0.0,0.0,0.0,-0.06659381,-0.0682007,-0.48690054
136827221,nan,nan,-0.78911126,2.368115,-0.0,nan,nan,0.00387609,0.0,0.0,0.0,0.0,0.0,0.0,-0.078056924,-0.079940416,-0.4822228
136928129,nan,nan,-0.78911126,2.368115,-0.0,nan,nan,0.010045528,0.0,0.0,0.0,0.0,0.0,0.0,-0.047010697,-0.048145052,-0.48785776
137027254,nan,nan,-0.78911126,2.368115,-0.0,nan,nan,0.01123029,0.0,0.0,0.0,0.0,0.0,0.0,0.0024394486,0.002498312,-0.4899794
137127455,nan,nan,-0.78911126,2.368115,0.0,nan,nan,0.004612088,0.0,0.0,0.0,0.0,0.0,0.0,3.900917e-05,3.9950453e-05,-0.51004106
137227356,nan,nan,-0.78911126,2.368115,0.0,nan,nan,-0.0006967783,0.0,0.0,0.0,0.0,0.0,0.0,3.7172018e-07,3.806897e-07,-0.5067306
137327463,nan,nan,-0.78911126,2.368115,0.0,nan,nan,-0.003370285,0.0,0.0,0.0,0.0,0.0,0.0,-2.5482331e-08,-2.6097213e-08,-0.49528685
137427481,nan,nan,-0.78911126,2.368115,-0.0,nan,nan,0.0017350912,0.0,0.0,0.0,0.0,0.0,0.0,-4.5636311e-10,-4.67375e-10,-0.49554458
137527790,nan,nan,-0.78911126,2.368115,0.0,nan,nan,0.005785525,0.0,0.0,0.0,0.0,0.0,0.0,6.27316e-12,6.4245297e-12,-0.50109196
137627652,nan,nan,-0.78911126,2.368115,0.0,nan,nan,0.007273078,0.0,0.0,0.0,0.0,0.0,0.0,0.0058159893,0.0059563275,-0.4966596
137727924,nan,nan,-0.78911126,2.368115,0.0,nan,nan,0.009892046,0.0,0.0,0.0,0.0,0.0,0.0,0.063770816,0.059556674,-0.49534845
137848027,nan,nan,-0.78911126,2.368115,0.0,nan,nan,0.01545912,0.0,0.0,0.0,0.0,0.0,0.0,0.090878,0.0901177,-0.4891951
137948087,nan,nan,-0.78911126,2.368115,0.0,nan,nan,0.02600348,0.0,0.0,0.0,0.0,0.0,0.0,0.08166155,0.08362191,-0.47697285
138048151,nan,nan,-0.78911126,2.368115,0.0,nan,nan,0.03802961,0.0,0.0,0.0,0.0,0.0,0.0,0.075606085,0.077431776,-0.47722822
138148167,nan,nan,-0.78911126,2.368115,0.0,nan,nan,0.042982697,0.0,0.0,0.0,0.0,0.0,0.0,0.071036264,0.07275037,-0.48592615
138248275,nan,nan,-0.78911126,2.368115,0.0,nan,nan,0.044427633,0.0,0.0,0.0,0.0,0.0,0.0,0.06712068,0.068740286,-0.49081418
138348420,nan,nan,-0.78911126,2.368115,0.0,nan,nan,0.046756387,0.0,0.0,0.0,0.0,0.0,0.0,0.06708319,0.068701886,-0.48982328
138448458,nan,nan,-0.78911126,2.368115,0.0,nan,nan,0.048355043,0.0,0.0,0.0,0.0,0.0,0.0,0.06999497,0.071683936,-0.4852302
138548884,nan,nan,-0.78911126,2.368115,0.0,nan,nan,0.044995964,0.0,0.0,0.0,0.0,0.0,0.0,0.01396815,0.014305198,-0.4892409
138649090,nan,nan,-0.78911126,2.368115,0.0,nan,nan,0.036982417,0.0,0.0,0.0,0.0,0.0,0.0,0.0003170269,0.00032467666,-0.49011734
138748903,nan,nan,-0.78911126,2.368115,0.0,nan,nan,0.023083746,0.0,0.0,0.0,0.0,0.0,0.0,3.4846487e-08,3.568732e-08,-0.49404064
138848933,nan,nan,-0.78911126,2.368115,0.0,nan,nan,0.007193446,0.0,0.0,0.0,0.0,0.0,0.0,-1.1570452e-07,-1.1849645e-07,-0.49565098
138949004,nan,nan,-0.78911126,2.368115,0.0,nan,nan,-0.005653858,0.0,0.0,0.0,0.0,0.0,0.0,-6.075692e-09,-6.2222965e-09,-0.5002023
139069160,nan,nan,-0.78911126,2.368115,0.0,nan,nan,-0.021150231,0.0,0.0,0.0,0.0,0.0,0.0,-3.524619e-11,-3.6096674e-11,-0.50275606
139169204,nan,nan,-0.78911126,2.368115,0.0,nan,nan,-0.03724122,0.0,0.0,0.0,0.0,0.0,0.0,-0.007345634,0.0071725617,-0.5064023
139269527,nan,nan,-0.78911126,2.368115,0.0,nan,nan,-0.054997265,0.0,0.0,0.0,0.0,0.0,0.0,-0.034351412,0.033542052,-0.50458115
139369589,nan,nan,-0.78911126,2.368115,0.0,nan,nan,-0.07167852,0.0,0.0,0.0,0.0,0.0,0.0,-0.060608428,0.059180424,-0.49779725
139469750,nan,nan,-0.78911126,2.368115,0.0,nan,nan,-0.08192885,0.0,0.0,0.0,0.0,0.0,0.0,-0.07381436,0.07207521,-0.50082123
139569800,nan,nan,-0.78911126,2.368115,0.0,nan,nan,-0.09004325,0.0,0.0,0.0,0.0,0.0,0.0,-0.07227488,0.070571996,-0.49925804
139669822,nan,nan,-0.78911126,2.368115,0.0,nan,nan,-0.09472525,0.0,0.0,0.0,0.0,0.0,0.0,-0.067672744,0.06607829,-0.49797454
139769836,nan,nan,-0.78911126,2.368115,0.0,nan,nan,-0.098442376,0.0,0.0,0.0,0.0,0.0,0.0,-0.06251297,0.061040092,-0.4943375
139869925,nan,nan,-0.78911126,2.368115,0.0,nan,nan,-0.09865457,0.0,0.0,0.0,0.0,0.0,0.0,-0.052092556,0.050865192,-0.49093553
139969995,nan,nan,-0.78911126,2.368115,0.0,nan,nan,-0.097219944,0.0,0.0,0.0,0.0,0.0,0.0,0.0035839495,-0.0034995072,-0.4960828
140070139,nan,nan,-0.78911126,2.368115,0.0,nan,nan,-0.09191805,0.0,0.0,0.0,0.0,0.0,0.0,3.6170502e-05,-3.5318284e-05,-0.49406818
140190598,nan,nan,-0.78911126,2.368115,0.0,nan,nan,-0.07981479,0.0,0.0,0.0,0.0,0.0,0.0,-2.8019256e-09,2.735909e-09,-0.4891149
140290441,nan,nan,-0.78911126,2.368115,0.0,nan,nan,-0.07184923,0.0,0.0,0.0,0.0,0.0,0.0,-1.0471336e-08,1.0224618e-08,-0.49302092
140390514,nan,nan,-0.78911126,2.368115,0.0,nan,nan,-0.06382394,0.0,0.0,0.0,0.0,0.0,0.0,0.0068695717,-0.0067077163,-0.48924226
140490567,nan,nan,-0.78911126,2.368115,0.0,nan,nan,-0.050381422,0.0,0.0,0.0,0.0,0.0,0.0,0.037279096,-0.036400754,-0.49176008
140590598,nan,nan,-0.78911126,2.368115,0.0,nan,nan,-0.040815413,0.0,0.0,0.0,0.0,0.0,0.0,0.057642546,-0.05628442,-0.49676424
140690713,nan,nan,-0.78911126,2.368115,0.0,nan,nan,-0.037795305,0.0,0.0,0.0,0.0,0.0,0.0,0.059021343,-0.057630733,-0.50635415
140790851,nan,nan,-0.78911126,2.368115,0.0,nan,nan,-0.036592126,0.0,0.0,0.0,0.0,0.0,0.0,0.044133108,-0.043093275,-0.5000739
140890971,nan,nan,-0.78911126,2.368115,0.0,nan,nan,-0.029214978,0.0,0.0,0.0,0.0,0.0,0.0,-0.0018663066,0.0018223341,-0.48797557
140991106,nan,nan,-0.78911126,2.368115,0.0,nan,nan,-0.02121514,0.0,0.0,0.0,0.0,0.0,0.0,8.590967e-05,-8.388554e-05,-0.4903841
141091248,nan,nan,-0.78911126,2.368115,0.0,nan,nan,-0.021676064,0.0,0.0,0.0,0.0,0.0,0.0,1.8004013e-06,-1.7579816e-06,-0.49783227
141191312,nan,nan,-0.78911126,2.368115,0.0,nan,nan,-0.021211326,0.0,0.0,0.0,0.0,0.0,0.0,2.5676504e-08,-2.5071536e-08,-0.49352756
141291343,nan,nan,-0.78911126,2.368115,0.0,nan,nan,-0.018432558,0.0,0.0,0.0,0.0,0.0,0.0,2.1479689e-10,-2.0973602e-10,-0.49624097
141411436,nan,nan,-0.78911126,2.368115,0.0,nan,nan,-0.014281452,0.0,0.0,0.0,0.0,0.0,0.0,-1.3381518e-12,1.3066233e-12,-0.49291676
141511540,nan,nan,-0.78911126,2.368115,0.0,nan,nan,-0.012635708,0.0,0.0,0.0,0.0,0.0,0.0,-3.2133386e-13,3.1376285e-13,-0.49740094
141611621,nan,nan,-0.78911126,2.3652444,-0.24271111,nan,nan,-0.014095783,0.0,0.0,0.0,0.0,0.0,0.0,-3.599255e-15,3.5346918e-15,-0.4983153
141711767,nan,nan,-0.78911126,2.3488722,-0.7380845,nan,nan,-0.01298511,0.0,0.0,0.0,0.0,0.0,0.0,1.8452355e-16,-1.8724579e-16,-0.49436188
141812157,nan,nan,-0.78911126,2.2969127,-0.94716364,nan,nan,-0.009163916,0.0,0.0,0.0,0.0,0.0,0.0,3.3397576e-18,-3.76121e-18,-0.48183206
141912309,nan,nan,-0.78911126,2.22764,-0.83628786,nan,nan,0.0010411143,0.0,0.0,0.0,0.0,0.0,0.0,4.1646095e-20,-5.401151e-20,-0.47804072
142012278,nan,nan,-0.78911126,2.1562655,-0.98466426,nan,nan,0.00617522,0.0,0.0,0.0,0.0,0.0,0.0,-1.2975836e-21,1.9570998e-21,-0.4867957
142112257,nan,nan,-0.78911126,2.0746217,-0.8839376,nan,nan,0.004852712,0.0,0.0,0.0,0.0,0.0,0.0,-2.708051e-23,4.9122974e-23,-0.49589548
142212364,nan,nan,-0.78911126,1.9925615,-0.80963403,nan,nan,0.002262652,0.0,0.0,0.0,0.0,0.0,0.0,-4.2483457e-26,9.468303e-26,-0.49473253
142312370,nan,nan,-0.78911126,1.9127175,-0.86494344,nan,nan,0.0003438592,0.0,0.0,0.0,0.0,0.0,0.0,6.315913e-27,-1.7746321e-26,-0.491717
142412425,nan,nan,-0.78911126,1.8309139,-0.9112333,nan,nan,0.005179405,0.0,0.0,0.0,0.0,0.0,0.0,2.796443e-28,-1.050712e-27,-0.48870653
142512898,nan,nan,-0.78911126,1.7432525,-1.0504521,nan,nan,0.011482477,0.0,0.0,0.0,0.0,0.0,0.0,1.2159176e-30,-6.980552e-30,-0.4902439
142613025,nan,nan,-0.78911126,1.6486063,-1.0630995,nan,nan,0.014645755,0.0,0.0,0.0,0.0,0.0,0.0,-7.132078e-32,9.147515e-31,-0.49529445
143133248,nan,nan,-0.78911126,1.1228001,0.0,nan,nan,0.020642042,0.0,0.0,0.0,0.0,0.0,0.0,-9.0246e-40,-1.877831e-39,-0.48494384
143833964,nan,nan,-0.78911126,1.1228001,0.0,nan,nan,0.08443242,0.0,0.0,0.0,0.0,0.0,0.0,0.0,0.0,-0.49438587
143953959,nan,nan,-0.78911126,1.1228001,0.0,nan,nan,0.08780444,0.0,0.0,0.0,0.0,0.0,0.0,0.0,0.0,-0.49703538
144054204,nan,nan,-0.78911126,1.1228001,-0.0,nan,nan,0.0885064,0.0,0.0,0.0,0.0,0.0,0.0,0.0,0.0,-0.49649024
144154323,nan,nan,-0.78911126,1.1228001,-0.0,nan,nan,0.0872336,0.0,0.0,0.0,0.0,0.0,0.0,0.0104650725,-0.005029368,-0.4999231
144254415,nan,nan,-0.78911126,1.1228001,-0.0,nan,nan,0.084168375,0.0,0.0,0.0,0.0,0.0,0.0,0.06934085,-0.03558929,-0.49551898
144354531,nan,nan,-0.78911126,1.1228001,0.0,nan,nan,0.08498943,0.0,0.0,0.0,0.0,0.0,0.0,0.14338489,-0.07896154,-0.49105105
144454544,nan,nan,-0.78911126,1.1228001,0.0,nan,nan,0.08785629,0.0,0.0,0.0,0.0,0.0,0.0,0.14935663,-0.08688209,-0.47659454
144554895,nan,nan,-0.78911126,1.1228001,-0.0,nan,nan,0.09319985,0.0,0.0,0.0,0.0,0.0,0.0,0.149971,-0.07903687,-0.46684217
144654689,nan,nan,-0.78911126,1.1228001,-0.0,nan,nan,0.095424235,0.0,0.0,0.0,0.0,0.0,0.0,0.14169498,-0.0701235,-0.47557712
144755002,nan,nan,-0.78911126,1.1228001,-0.0,nan,nan,0.09417814,0.0,0.0,0.0,0.0,0.0,0.0,0.079791784,-0.038405128,-0.4823597
144854948,nan,nan,-0.78911126,1.1228001,0.0,nan,nan,0.090155005,0.0,0.0,0.0,0.0,0.0,0.0,-0.0030052501,0.0014442839,-0.49235505
144955519,nan,nan,-0.78911126,1.1228001,0.0,nan,nan,0.07747543,0.0,0.0,0.0,0.0,0.0,0.0,0.00011443732,-5.4925902e-05,-0.5024216
145055220,nan,nan,-0.78911126,1.1228001,0.0,nan,nan,0.061519146,0.0,0.0,0.0,0.0,0.0,0.0,2.5722163e-06,-1.2352657e-06,-0.5031904
145155305,nan,nan,-0.78911126,1.1228001,-0.0,nan,nan,0.04273969,0.0,0.0,0.0,0.0,0.0,0.0,-9.875175e-10,4.3790271e-10,-0.5075454
145275366,nan,nan,-0.78911126,1.1228001,-0.0,nan,nan,0.02272439,0.0,0.0,0.0,0.0,0.0,0.0,3.8951062e-10,-1.8730784e-10,-0.50339895
145375399,nan,nan,-0.78911126,1.1228001,-0.0,nan,nan,0.008427978,0.0,0.0,0.0,0.0,0.0,0.0,-2.6484462e-11,1.2716113e-11,-0.50340503
145475493,nan,nan,-0.78911126,1.1228001,-0.0,nan,nan,-0.0038897395,0.0,0.0,0.0,0.0,0.0,0.0,-4.7901104e-13,2.3009519e-13,-0.5040741
145575750,nan,nan,-0.78911126,1.1228001,0.0,nan,nan,-0.009675264,0.0,0.0,0.0,0.0,0.0,0.0,6.130932e-15,-2.938319e-15,-0.4960765
145675758,nan,nan,-0.78911126,1.1228001,0.0,nan,nan,-0.012183428,0.0,0.0,0.0,0.0,0.0,0.0,-0.01105011,0.0053105294,-0.49555045
145775931,nan,nan,-0.78911126,1.1228001,0.0,nan,nan,-0.020651579,0.0,0.0,0.0,0.0,0.0,0.0,-0.08118904,0.03901832,-0.4981956
145876053,nan,nan,-0.78911126,1.1228001,0.0,nan,nan,-0.027923405,0.0,0.0,0.0,0.0,0.0,0.0,-0.11430431,0.054933064,-0.49247357
145976115,nan,nan,-0.78911126,1.1228001,0.0,nan,nan,-0.030857801,0.0,0.0,0.0,0.0,0.0,0.0,-0.1142055,0.054885577,-0.48344514
146076130,nan,nan,-0.78911126,1.1228001,0.0,nan,nan,-0.034654915,0.0,0.0,0.0,0.0,0.0,0.0,-0.12198363,0.05862364,-0.4848972
146176195,nan,nan,-0.78911126,1.1228001,0.0,nan,nan,-0.03779447,0.0,0.0,0.0,0.0,0.0,0.0,0.039589398,-0.019026116,-0.4869434
146276289,nan,nan,-0.78911126,1.1228001,0.0,nan,nan,-0.03582239,0.0,0.0,0.0,0.0,0.0,0.0,-0.0008080159,0.00038832123,-0.48241156
146376380,nan,nan,-0.78911126,1.1228001,0.0,nan,nan,-0.025289297,0.0,0.0,0.0,0.0,0.0,0.0,-0.00076478027,-0.001509159,-0.45607775
146476600,nan,nan,-0.78911126,1.1228001,0.0,nan,nan,-0.005664587,0.0,0.0,0.0,0.0,0.0,0.0,-0.027859135,-0.057967123,-0.4554208
146576719,nan,nan,-0.78911126,1.1228001,0.0,nan,nan,0.009583473,0.0,0.0,0.0,0.0,0.0,0.0,-0.055750534,-0.1160053,-0.4737012
146696864,nan,nan,-0.78911126,1.1228001,0.0,nan,nan,0.021021903,0.0,0.0,0.0,0.0,0.0,0.0,-0.0708065,-0.14733364,-0.47479647
146796952,nan,nan,-0.78911126,1.1228001,0.0,nan,nan,0.030777454,0.0,0.0,0.0,0.0,0.0,0.0,-0.06716611,-0.13975874,-0.48033574
146896959,nan,nan,-0.78911126,1.1228001,0.0,nan,nan,0.03867358,0.0,0.0,0.0,0.0,0.0,0.0,-0.056559324,-0.117688216,-0.48347437
146997011,nan,nan,-0.78911126,1.1228001,0.0,nan,nan,0.043969393,0.0,0.0,0.0,0.0,0.0,0.0,-0.059303418,-0.12339812,-0.48370162
147097134,nan,nan,-0.78911126,1.1228001,0.0,nan,nan,0.045306206,0.0,0.0,0.0,0.0,0.0,0.0,-0.049722735,-0.1034627,-0.48719674
147197221,nan,nan,-0.78911126,1.1228001,0.0,nan,nan,0.04760039,0.0,0.0,0.0,0.0,0.0,0.0,-0.048103597,-0.10009361,-0.47750992
147297414,nan,nan,-0.78911126,1.1228001,0.0,nan,nan,0.051297963,0.0,0.0,0.0,0.0,0.0,0.0,0.0029276744,0.0060918834,-0.479535
147397518,nan,nan,-0.78911126,1.1228001,0.0,nan,nan,0.054722488,0.0,0.0,0.0,0.0,0.0,0.0,1.11952395e-05,2.3294971e-05,-0.48425034
147497639,nan,nan,-0.78911126,1.1228001,0.0,nan,nan,0.05240488,0.0,0.0,0.0,0.0,0.0,0.0,-2.9221603e-06,-6.0804095e-06,-0.4920763
147597690,nan,nan,-0.78911126,1.1228001,0.0,nan,nan,0.048861086,0.0,0.0,0.0,0.0,0.0,0.0,-4.1200583e-08,-8.5729866e-08,-0.49049932
147697818,nan,nan,-0.78911126,1.1228001,0.0,nan,nan,0.043640316,0.0,0.0,0.0,0.0,0.0,0.0,1.2818931e-09,2.6673537e-09,-0.49353674
147797828,nan,nan,-0.78911126,1.1228001,0.0,nan,nan,0.036478996,0.0,0.0,0.0,0.0,0.0,0.0,-0.0012938355,-0.0026922035,-0.49395126
147897915,nan,nan,-0.78911126,1.1228001,0.0,nan,nan,0.03122145,0.0,0.0,0.0,0.0,0.0,0.0,-0.031153467,0.0150564,-0.49125212
147998024,nan,nan,-0.78911126,1.1228001,0.0,nan,nan,0.025928915,0.0,0.0,0.0,0.0,0.0,0.0,-0.044645883,0.021459617,-0.49620742
148098156,nan,nan,-0.78911126,1.1228001,0.0,nan,nan,0.023301959,0.0,0.0,0.0,0.0,0.0,0.0,-0.06472577,0.031106142,-0.4982072
148218648,nan,nan,-0.78911126,1.1228001,0.0,nan,nan,0.022300899,0.0,0.0,0.0,0.0,0.0,0.0,-0.08885772,0.05425861,-0.49600995
148318600,nan,nan,-0.78911126,1.1228001,0.0,nan,nan,0.022243977,0.0,0.0,0.0,0.0,0.0,0.0,-0.12061265,0.071118146,-0.49138775
148418693,nan,nan,-0.78911126,1.1228001,0.0,nan,nan,0.023262322,0.0,0.0,0.0,0.0,0.0,0.0,-0.16441703,0.09352278,-0.49085823
148518758,nan,nan,-0.78911126,1.1228001,0.0,nan,nan,0.033605874,0.0,0.0,0.0,0.0,0.0,0.0,-0.1540487,0.077465594,-0.47173992
148618739,nan,nan,-0.78911126,1.1228001,0.0,nan,nan,0.0500257,0.0,0.0,0.0,0.0,0.0,0.0,-0.1410643,0.067658134,-0.46183473
148718777,nan,nan,-0.78911126,1.1228001,0.0,nan,nan,0.06442368,0.0,0.0,0.0,0.0,0.0,0.0,-0.13258284,0.06373538,-0.46629593
148818832,nan,nan,-0.78911126,1.1228001,0.0,nan,nan,0.06910843,0.0,0.0,0.0,0.0,0.0,0.0,-0.088568114,0.042564888,-0.47866014
148918988,nan,nan,-0.78911126,1.1228001,0.0,nan,nan,0.06805009,0.0,0.0,0.0,0.0,0.0,0.0,-0.053073715,0.025506483,-0.48619193
149019525,nan,nan,-0.78911126,1.1228001,0.0,nan,nan,0.06099856,0.0,0.0,0.0,0.0,0.0,0.0,0.00021579345,-0.00010370753,-0.49626505
149119556,nan,nan,-0.78911126,1.1228001,0.0,nan,nan,0.052306533,0.0,0.0,0.0,0.0,0.0,0.0,6.244971e-05,-3.0012467e-05,-0.4989596
149219582,nan,nan,-0.78911126,1.1228001,0.0,nan,nan,0.047552526,0.0,0.0,0.0,0.0,0.0,0.0,0.0074622384,-0.003586248,-0.49217948
149319550,nan,nan,-0.78911126,1.1228001,0.0,nan,nan,0.049654722,0.0,0.0,0.0,0.0,0.0,0.0,0.03893172,-0.018710043,-0.4908581
149419586,nan,nan,-0.78911126,1.1228001,0.0,nan,nan,0.0549137,0.0,0.0,0.0,0.0,0.0,0.0,0.07379094,-0.041720178,-0.48666087
149519585,nan,nan,-0.78911126,1.1228001,0.0,nan,nan,0.05943221,0.0,0.0,0.0,0.0,0.0,0.0,0.06129659,-0.031100053,-0.48709083
149639650,nan,nan,-0.78911126,1.1228001,0.0,nan,nan,0.0654338,0.0,0.0,0.0,0.0,0.0,0.0,0.0005657375,-0.0003172673,-0.48310655
149740068,nan,nan,-0.78911126,1.1228001,0.0,nan,nan,0.06952745,0.0,0.0,0.0,0.0,0.0,0.0,3.5877227e-05,-1.8077719e-05,-0.4941371
149840913,nan,nan,-0.78911126,1.1228001,0.0,nan,nan,0.064751744,0.0,0.0,0.0,0.0,0.0,0.0,1.2094973e-06,-5.6992377e-07,-0.5073341
149940107,nan,nan,-0.78911126,1.1228001,0.0,nan,nan,0.05393213,0.0,0.0,0.0,0.0,0.0,0.0,2.0881121e-09,-5.414301e-10,-0.5149291
150040421,nan,nan,-0.78911126,1.1228001,0.0,nan,nan,0.04238856,0.0,0.0,0.0,0.0,0.0,0.0,-1.3211936e-09,6.453346e-10,-0.5129129
150140186,nan,nan,-0.78911126,1.1228001,0.0,nan,nan,0.037851274,0.0,0.0,0.0,0.0,0.0,0.0,-1.722509e-11,8.244357e-12,-0.5026152
150240347,nan,nan,-0.78911126,1.1228001,0.0,nan,nan,0.03798139,0.0,0.0,0.0,0.0,0.0,0.0,-1.13549666e-13,5.0741583e-14,-0.49501655
150340437,nan,nan,-0.78911126,1.1228001,0.0,nan,nan,0.03837949,0.0,0.0,0.0,0.0,0.0,0.0,1.3828746e-14,-6.8034864e-15,-0.4906128
150440729,nan,nan,-0.78911126,1.1228001,0.0,nan,nan,0.039892673,0.0,0.0,0.0,0.0,0.0,0.0,4.7722126e-18,5.1462752e-18,-0.4925465
150540704,nan,nan,-0.78911126,1.1204275,-0.49953967,nan,nan,0.03782642,0.0,0.0,0.0,0.0,0.0,0.0,-4.9676873e-18,2.5543042e-18,-0.4930282
150640840,nan,nan,-0.78911126,1.0899397,-0.51754355,nan,nan,0.03699416,0.0,0.0,0.0,0.0,0.0,0.0,-1.3840761e-19,7.438806e-20,-0.4877786
150760939,nan,nan,-0.78911126,1.0440053,-0.54342324,nan,nan,0.03685242,0.0,0.0,0.0,0.0,0.0,0.0,-2.4511048e-21,1.4436633e-21,-0.4849902
150860931,nan,nan,-0.78911126,1.002922,-0.15281138,nan,nan,0.03323084,0.0,0.0,0.0,0.0,0.0,0.0,2.940245e-23,-2.0478734e-23,-0.4888919
150961099,nan,nan,-0.78911126,0.9958421,-0.0,nan,nan,0.028805256,0.0,0.0,0.0,0.0,0.0,0.0,1.24481e-24,-8.355026e-25,-0.49028343
151061063,nan,nan,-0.78911126,0.9958421,-0.0,nan,nan,0.027491987,0.0,0.0,0.0,0.0,0.0,0.0,2.996808e-26,-1.8887828e-26,-0.48892754
151161182,nan,nan,-0.78911126,0.9958421,0.0,nan,nan,0.02491504,0.0,0.0,0.0,0.0,0.0,0.0,-6.8134244e-29,6.1355855e-29,-0.48915908
151261390,nan,nan,-0.78911126,0.9958421,0.0,nan,nan,0.02291596,0.0,0.0,0.0,0.0,0.0,0.0,-0.0017909404,-0.0027638802,-0.49333102
151361525,nan,nan,-0.78911126,0.9958421,0.0,nan,nan,0.016809702,0.0,0.0,0.0,0.0,0.0,0.0,-0.038493384,-0.059405163,-0.49902368
151461603,nan,nan,-0.78911126,0.9958421,0.0,nan,nan,0.0034391284,0.0,0.0,0.0,0.0,0.0,0.0,-0.08293369,-0.12798794,-0.50830466
151561713,nan,nan,-0.78911126,0.9958421,-0.0,nan,nan,-0.006664574,0.0,0.0,0.0,0.0,0.0,0.0,-0.09508695,-0.14674352,-0.49052265
151661753,nan,nan,-0.78911126,0.9958421,-0.0,nan,nan,-0.0068975687,0.0,0.0,0.0,0.0,0.0,0.0,-0.10182801,-0.15714672,-0.47267345
151761768,nan,nan,-0.78911126,0.9958421,0.0,nan,nan,0.0014874339,0.0,0.0,0.0,0.0,0.0,0.0,-0.08861579,-0.13675688,-0.46289432
151861912,nan,nan,-0.78911126,0.9958421,0.0,nan,nan,0.007584095,0.0,0.0,0.0,0.0,0.0,0.0,-0.08522704,-0.13152717,-0.46840343
151961977,nan,nan,-0.78911126,0.9958421,0.0,nan,nan,0.0056535006,0.0,0.0,0.0,0.0,0.0,0.0,-0.084729455,-0.13075927,-0.48289266
152062153,nan,nan,-0.78911126,0.9958421,-0.0,nan,nan,-0.0047628284,0.0,0.0,0.0,0.0,0.0,0.0,-0.08407547,-0.12975001,-0.4890904
152162395,nan,nan,-0.78911126,0.9958421,-0.0,nan,nan,-0.017482042,0.0,0.0,0.0,0.0,0.0,0.0,-0.08476129,-0.1308084,-0.49235258
152282408,nan,nan,-0.78911126,0.9958421,-0.0,nan,nan,-0.027624905,0.0,0.0,0.0,0.0,0.0,0.0,-0.0751109,-0.115915366,-0.48398095
152382505,nan,nan,-0.78911126,0.9958421,-0.0,nan,nan,-0.023936152,0.0,0.0,0.0,0.0,0.0,0.0,-0.07424117,-0.11457316,-0.47755823
152482542,nan,nan,-0.78911126,0.9958421,0.0,nan,nan,-0.016326845,0.0,0.0,0.0,0.0,0.0,0.0,-0.07116057,-0.109819,-0.48019868
152582590,nan,nan,-0.78911126,0.9958421,0.0,nan,nan,-0.009293497,0.0,0.0,0.0,0.0,0.0,0.0,-0.07288367,-0.11247819,-0.48749387
152682685,nan,nan,-0.78911126,0.9958421,0.0,nan,nan,-0.007813215,0.0,0.0,0.0,0.0,0.0,0.0,-0.048608832,-0.07501589,-0.49116433
152782818,nan,nan,-0.78911126,0.9958421,-0.0,nan,nan,-0.00784719,0.0,0.0,0.0,0.0,0.0,0.0,0.0003490879,0.0005387321,-0.4895892
152882964,nan,nan,-0.78911126,0.9958421,-0.0,nan,nan,-0.0019147396,0.0,0.0,0.0,0.0,0.0,0.0,3.9348824e-06,6.072532e-06,-0.4904797
152983118,nan,nan,-0.78911126,0.9958421,-0.0,nan,nan,0.0061184764,0.0,0.0,0.0,0.0,0.0,0.0,-7.649828e-08,-1.18056455e-07,-0.48989138
153083476,nan,nan,-0.78911126,0.9958421,0.0,nan,nan,0.014353812,0.0,0.0,0.0,0.0,0.0,0.0,-3.346701e-09,-5.1648175e-09,-0.49699795
153183359,nan,nan,-0.78911126,0.9958421,0.0,nan,nan,0.019268453,0.0,0.0,0.0,0.0,0.0,0.0,-8.2604874e-11,-1.274805e-10,-0.4989542
153283419,nan,nan,-0.78911126,0.9958421,0.0,nan,nan,0.0204764,0.0,0.0,0.0,0.0,0.0,0.0,1.6554161e-13,2.5547313e-13,-0.499669
153383506,nan,nan,-0.78911126,0.9958421,0.0,nan,nan,0.021176636,0.0,0.0,0.0,0.0,0.0,0.0,2.8701583e-14,4.42939e-14,-0.50309813
153483522,nan,nan,-0.78911126,0.9958421,-0.0,nan,nan,0.024409592,0.0,0.0,0.0,0.0,0.0,0.0,1.2815551e-15,1.9777681e-15,-0.5003693
153603596,nan,nan,-0.78911126,0.9958421,0.0,nan,nan,0.030950427,0.0,0.0,0.0,0.0,0.0,0.0,5.8696616e-18,9.058393e-18,-0.49129653
153703785,nan,nan,-0.78911126,0.9958421,0.0,nan,nan,0.033579648,0.0,0.0,0.0,0.0,0.0,0.0,-1.9826653e-19,-3.0597607e-19,-0.49706373
153803933,nan,nan,-0.78911126,0.9958421,0.0,nan,nan,0.030184627,0.0,0.0,0.0,0.0,0.0,0.0,-1.7472415e-20,-2.6964416e-20,-0.50538313
153904082,nan,nan,-0.78911126,0.9958421,0.0,nan,nan,0.025911152,0.0,0.0,0.0,0.0,0.0,0.0,-1.4800278e-22,-2.2840623e-22,-0.50042737
154004148,nan,nan,-0.78911126,0.9958421,0.0,nan,nan,0.02481091,0.0,0.0,0.0,0.0,0.0,0.0,7.7984344e-25,1.2034982e-24,-0.49544024
154104165,nan,nan,-0.78911126,0.9958421,0.0,nan,nan,0.02145636,0.0,0.0,0.0,0.0,0.0,0.0,2.1218603e-25,3.2745744e-25,-0.49704432
154204228,nan,nan,-0.78911126,0.9958421,0.0,nan,nan,0.017394006,0.0,0.0,0.0,0.0,0.0,0.0,0.00015857165,-0.000102751335,-0.49379253
154304340,nan,nan,-0.78911126,0.9958421,0.0,nan,nan,0.012875795,0.0,0.0,0.0,0.0,0.0,0.0,0.025926989,-0.023343096,-0.4906957
154404400,nan,nan,-0.78911126,0.9958421,0.0,nan,nan,0.0036224723,0.0,0.0,0.0,0.0,0.0,0.0,0.03170668,-0.023062045,-0.49334675
154504586,nan,nan,-0.78911126,0.9958421,0.0,nan,nan,-0.009440899,0.0,0.0,0.0,0.0,0.0,0.0,0.053900443,-0.043983374,-0.4967816
154604981,nan,nan,-0.78911126,0.9958421,0.0,nan,nan,-0.02039212,0.0,0.0,0.0,0.0,0.0,0.0,0.081725426,-0.058108144,-0.49473488
