timestamp,timestamp_sample,control[0],control[1],control[2],control[3],control[4],control[5],control[6],control[7]
100769559,100769473,0.0098375315,-0.004298174,0.6982915,-0.0,0.0,0.0,0.0,0.0
100873565,100873488,0.0094381515,-0.0047892714,0.69822013,-0.0,0.0,0.0,0.0,0.0
100973588,100973482,0.009252105,-0.004130768,0.69837743,-0.0,0.0,0.0,0.0,0.0
101077588,101077476,0.0087326085,-0.0045703673,0.6981987,-0.0,0.0,0.0,0.0,0.0
101177581,101177485,0.009483098,-0.0048898496,0.6981121,-0.0,0.0,0.0,0.0,0.0
101277558,101277477,0.009246878,-0.004645215,0.6980367,-0.0,0.0,0.0,0.0,0.0
101381564,101381494,0.008944676,-0.004585999,0.69838226,-0.0,0.0,0.0,0.0,0.0
101481547,101481471,0.008289242,-0.0043216404,0.69817525,-0.0,0.0,0.0,0.0,0.0
101581629,101581471,0.009799664,-0.001640223,0.00020953795,0.0,0.0,0.0,0.0,0.0
101685573,101685471,0.009902331,-0.0016724506,6.2225874e-05,0.0,0.0,0.0,0.0,0.0
101785547,101785471,0.0097284885,-0.0015180925,0.00015589736,0.0,0.0,0.0,0.0,0.0
101889547,101889471,0.009658475,-0.0015070672,0.00024007962,0.0,0.0,0.0,0.0,0.0
101989566,101989496,0.009843148,-0.002048544,0.00019263459,0.0,0.0,0.0,0.0,0.0
102090352,102090271,0.0102190245,-0.0011208608,-0.0001556501,0.0,0.0,0.0,0.0,0.0
102190347,102190271,0.009087086,-0.0019615884,8.538353e-05,0.0,0.0,0.0,0.0,0.0
102294436,102294314,0.009444887,-0.0023999892,0.00018638307,0.0,0.0,0.0,0.0,0.0
102394360,102394283,0.00924876,-0.0015232243,0.00011995117,0.0,0.0,0.0,0.0,0.0
102498391,102498315,0.009978703,-0.0015502023,9.1745416e-05,0.0,0.0,0.0,0.0,0.0
102598354,102598278,0.009067902,-0.001905313,0.00047004138,0.0,0.0,0.0,0.0,0.0
102698377,102698271,0.00954022,-0.0019906454,0.00018195387,0.0,0.0,0.0,0.0,0.0
102802347,102802271,0.009830214,-0.0011353978,0.0002609831,0.0,0.0,0.0,0.0,0.0
102902347,102902271,0.009373806,-0.0016312221,0.00038179447,0.0,0.0,0.0,0.0,0.0
103002380,103002304,0.009726384,-0.001330598,0.00011113823,0.0,0.0,0.0,0.0,0.0
103106360,103106284,0.009627248,-0.001414275,0.00021443136,0.0,0.0,0.0,0.0,0.0
103206347,103206271,0.009471633,-0.0015559221,0.00029068385,0.0,0.0,0.0,0.0,0.0
103309588,103309518,0.009875542,-0.0022246502,-2.1779182e-05,0.0,0.0,0.0,0.0,0.0
103411143,103411071,0.009686924,-0.0017926656,-9.4893374e-05,0.0,0.0,0.0,0.0,0.0
103513635,103513514,0.0091832485,-0.0016648943,9.2181195e-05,0.0,0.0,0.0,0.0,0.0
103615150,103615071,0.009568791,-0.0017768122,0.00021930403,0.0,0.0,0.0,0.0,0.0
103715198,103715074,0.009299909,-0.0019432756,0.00034850265,0.0,0.0,0.0,0.0,0.0
103815189,103815071,0.009428562,-0.0017377932,0.00015160807,0.0,0.0,0.0,0.0,0.0
103919150,103919078,0.009973236,-0.0012764501,0.00024558668,0.0,0.0,0.0,0.0,0.0
104019175,104019083,0.009353454,-0.0019605684,-4.857008e-05,0.0,0.0,0.0,0.0,0.0
104119184,104119083,0.010022069,-0.0015324967,0.00036620614,0.0,0.0,0.0,0.0,0.0
104223150,104223078,0.009566516,-0.0013739181,5.1350573e-05,0.0,0.0,0.0,0.0,0.0
104323187,104323070,0.009903051,-0.0013825695,0.00017985622,0.0,0.0,0.0,0.0,0.0
104427166,104427075,0.009558042,-0.0015353976,0.0003551259,0.0,0.0,0.0,0.0,0.0
104527152,104527071,0.0102134105,-0.0014526312,0.00022128066,0.0,0.0,0.0,0.0,0.0
104627159,104627079,0.009809134,-0.0017650521,-1.4650548e-05,0.0,0.0,0.0,0.0,0.0
104730418,104730296,0.0090112835,-0.0011051344,0.00017030185,0.0,0.0,0.0,0.0,0.0
104831171,104831071,0.010523525,-0.0014507225,0.00019687018,0.0,0.0,0.0,0.0,0.0
104934403,104934325,0.010304539,-0.00087538373,0.00029344534,0.0,0.0,0.0,0.0,0.0
105039156,105039071,0.01002172,-0.0010593457,0.00021645792,0.0,0.0,0.0,0.0,0.0
105140804,105140699,0.0104115475,-0.0010308361,0.0002620291,0.0,0.0,0.0,0.0,0.0
105239961,105239882,0.010348815,-0.0008300556,0.00031052242,0.0,0.0,0.0,0.0,0.0
105343994,105343918,0.00985641,-0.0013451633,0.00013686031,0.0,0.0,0.0,0.0,0.0
105443974,105443871,0.010004523,-0.0007560769,6.042212e-05,0.0,0.0,0.0,0.0,0.0
105543950,105543871,0.009582097,-0.0016722706,0.00015865882,0.0,0.0,0.0,0.0,0.0
105647947,105647871,0.009544589,-0.0013771693,0.00035380627,0.0,0.0,0.0,0.0,0.0
105748037,105747916,0.009897297,-0.0008766626,0.00013642128,0.0,0.0,0.0,0.0,0.0
105848006,105847880,0.010273074,-0.0013578857,0.0002486093,0.0,0.0,0.0,0.0,0.0
105951955,105951879,0.009395716,-0.0012044237,0.00018603394,0.0,0.0,0.0,0.0,0.0
106051947,106051871,0.010553556,-0.00061076717,0.00019928976,0.0,0.0,0.0,0.0,0.0
106155947,106155871,0.009685782,-0.00091163616,0.00019195637,0.0,0.0,0.0,0.0,0.0
106255947,106255871,0.009945189,-0.0007118016,-1.37505895e-05,0.0,0.0,0.0,0.0,0.0
106359229,106359116,0.0096437875,-0.0007395938,0.00032969748,0.0,0.0,0.0,0.0,0.0
106460762,106460688,0.009864014,-0.0006105907,0.00020724538,0.0,0.0,0.0,0.0,0.0
106559947,106559871,0.010492859,-0.0008686883,4.2679603e-05,0.0,0.0,0.0,0.0,0.0
106660747,106660671,0.009999381,-0.00039794078,-0.00016630684,0.0,0.0,0.0,0.0,0.0
106764756,106764675,0.010581537,-0.00079173443,-5.055612e-05,0.0,0.0,0.0,0.0,0.0
106868747,106868671,0.01038513,-0.0007032919,0.00017763862,0.0,0.0,0.0,0.0,0.0
106968754,106968677,0.009744555,-0.0006493531,9.16742e-05,0.0,0.0,0.0,0.0,0.0
107072789,107072670,0.009637067,-0.0007118027,0.00041492327,0.0,0.0,0.0,0.0,0.0
107172747,107172670,0.010308796,-0.0013369537,-3.5244633e-05,0.0,0.0,0.0,0.0,0.0
107272769,107272695,0.010448615,-0.00069295947,0.0001221361,0.0,0.0,0.0,0.0,0.0
107376754,107376678,0.009892899,-0.0007667262,-6.3931235e-05,0.0,0.0,0.0,0.0,0.0
107476766,107476689,0.009989236,-0.00014847459,0.0005899381,0.0,0.0,0.0,0.0,0.0
107576747,107576671,0.009230317,-0.001107457,-5.822364e-05,0.0,0.0,0.0,0.0,0.0
107680759,107680677,0.010286555,-0.00023183128,-6.482233e-05,0.0,0.0,0.0,0.0,0.0
107780787,107780670,0.009689677,-0.0007152808,0.0002066129,0.0,0.0,0.0,0.0,0.0
107884788,107884671,0.010153321,-0.00032075887,0.00012066305,0.0,0.0,0.0,0.0,0.0
107984751,107984670,0.00979305,0.00012771548,0.0004411414,0.0,0.0,0.0,0.0,0.0
108084801,108084721,0.010174078,-0.00033967305,0.00018786501,0.0,0.0,0.0,0.0,0.0
108188747,108188670,0.010124482,-0.00057416863,-0.000128312,0.12,0.0,0.0,0.0,0.0
108289567,108289490,0.0094301645,0.0014297997,0.0014677304,0.12,0.0,0.0,0.0,0.0
108389559,108389489,0.010668121,-0.00043290138,-0.00014402912,0.12,0.0,0.0,0.0,0.0
108493581,108493501,0.008212254,-0.0008472207,4.7192992e-05,0.14183486,0.0,0.0,0.0,0.0
108597548,108597471,0.011047569,-0.0013073037,-0.0012272529,0.1749247,0.0,0.0,0.0,0.0
108697552,108697481,0.013163005,0.0013296615,0.0015758923,0.20833656,0.0,0.0,0.0,0.0
108801579,108801475,-0.018514562,0.0045724064,5.087025e-05,0.24224842,0.0,0.0,0.0,0.0
108901552,108901470,0.046729494,-0.0050791902,-2.703017e-05,0.27723143,0.0,0.0,0.0,0.0
109001553,109001471,0.030274043,-0.0063098646,-0.0025522397,0.3053748,0.0,0.0,0.0,0.0
109105571,109105493,-0.012805766,0.007813121,-0.0025240981,0.35160345,0.0,0.0,0.0,0.0
109205622,109205471,-0.061785076,0.02577185,-0.001722705,0.3840227,0.0,0.0,0.0,0.0
109309585,109309471,0.06510403,-0.028811757,-0.0031824468,0.41950697,0.0,0.0,0.0,0.0
109409564,109409486,-0.010123441,-0.0054820916,-0.0031046118,0.457462,0.0,0.0,0.0,0.0
109509597,109509517,0.042098712,-0.06508605,-0.0021383527,0.42304543,0.0,0.0,0.0,0.0
109613559,109613482,0.036839053,-0.02837154,-0.0047382675,0.42296106,0.0,0.0,0.0,0.0
109714359,109714281,0.014562416,-0.04834297,-0.0040956903,0.405546,0.0,0.0,0.0,0.0
109813592,109813470,0.01629366,-0.023500567,0.0007106546,0.41094178,0.0,0.0,0.0,0.0
109915160,109915071,0.022856297,0.044808768,-0.00516841,0.4366108,0.0,0.0,0.0,0.0
110018393,110018271,0.013466324,-0.035419546,-0.006298107,0.462355,0.0,0.0,0.0,0.0
110118356,110118271,0.020869855,-0.038137246,-0.0073492955,0.44906843,0.0,0.0,0.0,0.0
110222367,110222289,-0.010898235,0.0059613395,-0.012489963,0.43961522,0.0,0.0,0.0,0.0
110322348,110322271,0.021618107,-0.039062362,-0.011509706,0.43949312,0.0,0.0,0.0,0.0
110422348,110422271,0.047895834,-0.031135628,-0.01499349,0.4418238,0.0,0.0,0.0,0.0
110526368,110526291,-0.010801881,0.009973117,-0.017706871,0.4457363,0.0,0.0,0.0,0.0
110626391,110626314,0.012190425,-0.0442431,-0.015157895,0.44697466,0.0,0.0,0.0,0.0
110730362,110730281,0.022667184,0.015681121,-0.013317749,0.44749695,0.0,0.0,0.0,0.0
110830351,110830274,0.010751707,-0.037834603,-0.014358729,0.44326746,0.0,0.0,0.0,0.0
110930377,110930295,0.013761794,-0.003679164,-0.012949774,0.44371638,0.0,0.0,0.0,0.0
111034348,111034271,-0.016567886,-0.036894083,-0.012447655,0.44306678,0.0,0.0,0.0,0.0
111134348,111134270,0.056031,0.02669761,-0.009800156,0.44541264,0.0,0.0,0.0,0.0
111234358,111234281,-0.014235802,-0.014700129,-0.010446446,0.42908353,0.0,0.0,0.0,0.0
111338426,111338314,0.024053097,-0.047618877,-0.0098535335,0.43314168,0.0,0.0,0.0,0.0
111438348,111438271,-0.0006451917,-0.04766664,-0.018383276,0.47718912,0.0,0.0,0.0,0.0
111539158,111539077,-0.042215344,-0.038830463,-0.017544195,0.4717179,0.0,0.0,0.0,0.0
111643163,111643086,0.03343265,-0.066214204,-0.017258903,0.46684405,0.0,0.0,0.0,0.0
111743168,111743094,-0.07307093,-0.0029050556,-0.019852187,0.45636487,0.0,0.0,0.0,0.0
111847158,111847070,-0.055306256,-0.0114680715,-0.017284913,0.42361167,0.0,0.0,0.0,0.0
111947181,111947071,0.01072622,0.038567454,-0.016853906,0.42012867,0.0,0.0,0.0,0.0
112047198,112047117,0.08143765,-0.022905033,-0.011474596,0.445932,0.0,0.0,0.0,0.0
112151144,112151071,-0.052518312,-0.028906442,-0.011111062,0.46010733,0.0,0.0,0.0,0.0
112251152,112251078,0.023132946,-0.024254661,-0.010487653,0.45555207,0.0,0.0,0.0,0.0
112351158,112351070,0.025882255,0.038605526,-0.010949329,0.45407248,0.0,0.0,0.0,0.0
112455152,112455078,0.022090573,0.030023973,-0.012238841,0.49430394,0.0,0.0,0.0,0.0
112555195,112555070,-0.0032164028,-0.06274022,-0.014717665,0.481112,0.0,0.0,0.0,0.0
112659207,112659120,0.018124916,-0.011447116,-0.016503157,0.463344,0.0,0.0,0.0,0.0
112759204,112759077,0.031078545,0.055982094,-0.016589072,0.45683995,0.0,0.0,0.0,0.0
112859986,112859871,0.049825735,-0.024794534,-0.014756115,0.46303988,0.0,0.0,0.0,0.0
112963157,112963082,-0.028511837,-0.046081398,-0.011312247,0.46762487,0.0,0.0,0.0,0.0
113067150,113067077,-0.01835705,-0.06603005,-0.011597722,0.45988423,0.0,0.0,0.0,0.0
113167948,113167871,-0.028190665,0.028674698,-0.011432482,0.45552388,0.0,0.0,0.0,0.0
113267948,113267871,0.003113498,0.0206803,-0.008398943,0.4605664,0.0,0.0,0.0,0.0
113372000,113371886,0.063996404,-0.004701155,-0.008527114,0.4612098,0.0,0.0,0.0,0.0
113471986,113471870,0.041810106,0.010093787,-0.0048916265,0.4689319,0.0,0.0,0.0,0.0
113575948,113575871,0.030417169,0.0010578844,-0.012722689,0.48095962,0.0,0.0,0.0,0.0
113675955,113675878,-0.022195378,0.025487505,-0.012156202,0.48679084,0.0,0.0,0.0,0.0
113775965,113775887,0.047199044,0.0014437812,-0.012625524,0.48053557,0.0,0.0,0.0,0.0
113879948,113879871,0.03221182,0.006099788,-0.009289466,0.4543018,0.0,0.0,0.0,0.0
113979974,113979871,-0.047862,0.008503776,-0.011375647,0.47205365,0.0,0.0,0.0,0.0
114079948,114079871,0.045269083,-0.014287099,-0.008865618,0.47653583,0.0,0.0,0.0,0.0
114183967,114183889,0.0039290907,-0.0035351526,-0.010636245,0.48120475,0.0,0.0,0.0,0.0
114283966,114283886,0.018361025,-0.055432547,-0.00948294,0.4676016,0.0,0.0,0.0,0.0
114387957,114387879,-0.034924816,-0.040507417,-0.005753444,0.46610788,0.0,0.0,0.0,0.0
114491948,114491871,0.026805343,-0.08997558,0.0018352568,0.48614803,0.0,0.0,0.0,0.0
114591203,114591115,-0.018966218,0.015174266,-0.00561545,0.4716934,0.0,0.0,0.0,0.0
114695955,114695877,-0.010497631,-0.009052483,-0.010038044,0.47121203,0.0,0.0,0.0,0.0
114796752,114796671,0.11550407,-0.10174476,-0.014908107,0.4748361,0.0,0.0,0.0,0.0
114896755,114896674,-0.014023101,0.039258327,-0.018229857,0.46890336,0.0,0.0,0.0,0.0
115000748,115000673,0.035552315,0.051571444,-0.014367053,0.47440767,0.0,0.0,0.0,0.0
115100793,115100677,0.019021282,0.076097384,-0.010670467,0.4830225,0.0,0.0,0.0,0.0
115200748,115200671,0.05516142,-0.047223546,-0.013471492,0.4805771,0.0,0.0,0.0,0.0
115304760,115304682,0.05823631,-0.026769798,-0.012193815,0.47969776,0.0,0.0,0.0,0.0
115404754,115404676,0.020665735,-0.048711378,-0.010942665,0.4782362,0.0,0.0,0.0,0.0
115504835,115504717,-0.033523407,0.06196206,0.006155079,0.47951016,0.0,0.0,0.0,0.0
115608752,115608670,-0.038799424,0.024440786,0.020728339,0.48440802,0.0,0.0,0.0,0.0
115708752,115708675,0.04877411,-0.0072800843,-0.0009245635,0.48220596,0.0,0.0,0.0,0.0
115808750,115808672,0.046981525,-0.045171756,-0.003915013,0.4789664,0.0,0.0,0.0,0.0
115912752,115912671,0.06243498,-0.04363193,-0.051695585,0.47756934,0.0,0.0,0.0,0.0
116012796,116012671,0.06991359,0.023510568,-0.036684215,0.47783047,0.0,0.0,0.0,0.0
116116812,116116671,0.061050326,-0.03823123,-0.030197866,0.47702855,0.0,0.0,0.0,0.0
116216755,116216677,0.034359176,0.03437387,0.027096296,0.47832182,0.0,0.0,0.0,0.0
116421554,116421471,0.038027063,-0.008395244,-0.027252432,0.47397256,0.0,0.0,0.0,0.0
116725548,116725471,-0.024088724,-0.07002193,-0.075468384,0.47896755,0.0,0.0,0.0,0.0
116829608,116829496,0.06400822,-0.04231014,-0.10443554,0.49398077,0.0,0.0,0.0,0.0
116929561,116929483,-0.026259363,-0.07206727,-0.0947701,0.4819803,0.0,0.0,0.0,0.0
117033565,117033488,-0.028355243,-0.03605573,-0.07453877,0.47219324,0.0,0.0,0.0,0.0
117133594,117133513,-0.007275405,-0.020744404,-0.057718493,0.47345367,0.0,0.0,0.0,0.0
117233592,117233477,-0.017025122,-0.03817474,-0.09871918,0.50306755,0.0,0.0,0.0,0.0
117337548,117337471,0.02450075,0.03923215,-0.01615611,0.46102735,0.0,0.0,0.0,0.0
117437557,117437480,0.053067606,0.04989765,-0.016403046,0.46994445,0.0,0.0,0.0,0.0
117541581,117541477,-0.005292511,0.013048812,-0.019744324,0.4812436,0.0,0.0,0.0,0.0
117641559,117641482,0.016128082,0.045914143,-0.0029029418,0.48338163,0.0,0.0,0.0,0.0
117741541,117741470,0.023616685,0.04388384,-0.018907964,0.4859562,0.0,0.0,0.0,0.0
117845548,117845471,-0.061489806,-0.014475541,-0.022781167,0.48554748,0.0,0.0,0.0,0.0
117945555,117945477,0.040334884,-0.018220186,-0.046634965,0.49113292,0.0,0.0,0.0,0.0
118046349,118046271,0.013514006,-0.0038831416,-0.03319377,0.49302575,0.0,0.0,0.0,0.0
118149650,118149525,0.069032565,0.009558529,-0.015823666,0.47806036,0.0,0.0,0.0,0.0
118250417,118250271,-0.04059051,-0.078755945,-0.059340056,0.48553607,0.0,0.0,0.0,0.0
118350351,118350271,0.033638082,0.051349085,-0.02959254,0.48641634,0.0,0.0,0.0,0.0
118454359,118454271,0.02512944,0.034716114,-0.018883223,0.48366472,0.0,0.0,0.0,0.0
118554348,118554271,0.03463891,0.01836482,-0.04063304,0.48789415,0.0,0.0,0.0,0.0
118654386,118654308,0.014923612,0.0034916184,-0.035443377,0.5031716,0.0,0.0,0.0,0.0
118758352,118758274,0.04176786,-0.021800807,-0.029248942,0.48618063,0.0,0.0,0.0,0.0
118858354,118858277,-0.059468053,-0.013180107,-0.025359198,0.485399,0.0,0.0,0.0,0.0
118962374,118962295,0.04188498,0.04066851,-0.02227163,0.4873566,0.0,0.0,0.0,0.0
119062354,119062276,0.059706453,0.007825868,0.02240353,0.48170227,0.0,0.0,0.0,0.0
119162358,119162277,-0.07137353,0.015020234,0.017788028,0.47869644,0.0,0.0,0.0,0.0
119266409,119266293,-0.032866,-0.013991837,0.0033755992,0.48404542,0.0,0.0,0.0,0.0
119366355,119366270,0.023915928,0.019581825,0.09663483,0.46096718,0.0,0.0,0.0,0.0
119466359,119466282,0.091573305,0.015444863,0.055154655,0.44892737,0.0,0.0,0.0,0.0
119569599,119569521,0.103584625,0.061565574,0.043321118,0.4739594,0.0,0.0,0.0,0.0
119670378,119670270,0.019349381,0.054254718,0.030203234,0.4998156,0.0,0.0,0.0,0.0
119773573,119773493,-0.059989996,-0.0021700843,0.015386315,0.49770325,0.0,0.0,0.0,0.0
119875151,119875071,0.02172466,-0.012805693,0.006643667,0.48802698,0.0,0.0,0.0,0.0
119975151,119975070,-0.047785047,-0.03865539,0.0018375218,0.48187545,0.0,0.0,0.0,0.0
120079151,120079071,-0.0016032995,-0.007335017,-0.002825225,0.48314244,0.0,0.0,0.0,0.0
120179176,120179077,0.05769653,0.014631966,-0.005564825,0.48955718,0.0,0.0,0.0,0.0
120279167,120279094,-0.0046416493,-0.026342764,-0.0073269373,0.49108475,0.0,0.0,0.0,0.0
120383171,120383071,-0.038133807,-0.0031512403,0.024014182,0.48992068,0.0,0.0,0.0,0.0
120483152,120483071,0.039989088,0.05528726,0.02536693,0.4887727,0.0,0.0,0.0,0.0
120583152,120583071,-0.0052152416,0.020403894,0.011008764,0.48498797,0.0,0.0,0.0,0.0
120687169,120687076,0.061685495,0.023121601,-0.01945683,0.48363432,0.0,0.0,0.0,0.0
120787219,120787071,0.027766567,-0.011399298,-0.0378754,0.4929927,0.0,0.0,0.0,0.0
120891174,120891076,-0.0039804624,-0.005496604,-0.02791826,0.4977991,0.0,0.0,0.0,0.0
120991183,120991108,0.030675506,0.008606243,-0.0227548,0.49509236,0.0,0.0,0.0,0.0
121091153,121091072,0.019708047,-0.009921978,-0.017595302,0.49029654,0.0,0.0,0.0,0.0
121195152,121195071,-0.053620942,-0.008699548,-0.014255375,0.48363388,0.0,0.0,0.0,0.0
121295167,121295072,0.013041745,-0.071497954,-0.011020325,0.48014113,0.0,0.0,0.0,0.0
121395952,121395870,-0.024440933,-0.015654568,-0.012124691,0.48823458,0.0,0.0,0.0,0.0
121499155,121499075,0.062405277,-0.07187464,-0.011670944,0.49392948,0.0,0.0,0.0,0.0
121599144,121599071,-0.016848203,-0.051430393,-0.011010566,0.5037188,0.0,0.0,0.0,0.0
121699952,121699871,-0.035828426,-0.09397385,-0.04181888,0.49712998,0.0,0.0,0.0,0.0
121803991,121803911,0.033161633,-0.024115602,-0.078924164,0.48654866,0.0,0.0,0.0,0.0
121903975,121903871,0.03553565,-0.04424623,-0.057132818,0.4729531,0.0,0.0,0.0,0.0
122003952,122003870,-0.078213766,-0.057901077,-0.077882126,0.474002,0.0,0.0,0.0,0.0
122107948,122107871,-0.044446304,0.008987946,-0.05725026,0.47873148,0.0,0.0,0.0,0.0
122207962,122207882,-0.055481136,3.2467353e-05,-0.028559322,0.48248515,0.0,0.0,0.0,0.0
122311959,122311882,0.063154235,0.029663142,-0.022677273,0.48986435,0.0,0.0,0.0,0.0
122411955,122411877,0.02447291,0.054830655,-0.0044652224,0.49566984,0.0,0.0,0.0,0.0
122511965,122511890,0.059034463,-0.031005388,0.04448587,0.49558797,0.0,0.0,0.0,0.0
122615949,122615871,0.040214393,0.023155186,0.050830003,0.48683158,0.0,0.0,0.0,0.0
122715992,122715870,-0.027514726,-0.0271824,0.0344332,0.47941297,0.0,0.0,0.0,0.0
122815962,122815885,-0.00841486,0.03561826,0.021453667,0.47601923,0.0,0.0,0.0,0.0
122919979,122919875,0.066024706,-0.011726317,0.014230049,0.4901431,0.0,0.0,0.0,0.0
123019948,123019870,-0.017692842,0.06024293,0.0032998556,0.49674293,0.0,0.0,0.0,0.0
123123958,123123877,0.02448262,0.022698142,-0.0041315695,0.49678946,0.0,0.0,0.0,0.0
123227969,123227892,0.021163639,0.019112928,-0.009098441,0.49197912,0.0,0.0,0.0,0.0
123328749,123328671,-0.020732751,-0.119675696,-0.012481906,0.47790402,0.0,0.0,0.0,0.0
123428798,123428711,-0.0001543858,0.0952961,-0.008734514,0.4778537,0.0,0.0,0.0,0.0
123532786,123532671,0.073638156,-0.0180557,-0.009019598,0.4874969,0.0,0.0,0.0,0.0
123632753,123632675,-0.0018725609,-0.057513684,-0.0034768968,0.49132133,0.0,0.0,0.0,0.0
123736770,123736695,0.06633914,-0.01642862,-0.008055505,0.5030051,0.0,0.0,0.0,0.0
123836796,123836717,-0.049654692,0.011997612,-0.009867937,0.5071042,0.0,0.0,0.0,0.0
123936775,123936671,0.01659587,-0.03578797,-0.009861571,0.5033522,0.0,0.0,0.0,0.0
124040748,124040670,-0.03481849,-0.013071198,-0.0053562187,0.50328934,0.0,0.0,0.0,0.0
124140758,124140677,-0.05059773,-0.020136686,-0.0043203477,0.5020219,0.0,0.0,0.0,0.0
124240773,124240691,0.02331599,-0.040711742,-0.0046485923,0.50011253,0.0,0.0,0.0,0.0
124344758,124344680,0.06674582,-0.0059856414,-0.0058702296,0.4993664,0.0,0.0,0.0,0.0
124444748,124444671,-0.08312037,-0.077616386,-0.004494876,0.50142676,0.0,0.0,0.0,0.0
124548819,124548703,0.03824688,-0.042872638,-0.0033181212,0.50180256,0.0,0.0,0.0,0.0
124652749,124652671,0.071254194,-0.027262673,-0.006975653,0.5036203,0.0,0.0,0.0,0.0
124752748,124752671,-0.0051365937,0.046255883,-0.0072553344,0.50539607,0.0,0.0,0.0,0.0
124852801,124852683,-0.05292393,0.076993,-0.0082939975,0.4890393,0.0,0.0,0.0,0.0
124956756,124956675,0.18388028,-0.05757768,0.002718241,0.47742817,0.0,0.0,0.0,0.0
125056748,125056671,-0.03270573,-0.02199347,-0.006482528,0.4706998,0.0,0.0,0.0,0.0
125159993,125159916,0.034410454,-0.07667015,-0.0051955692,0.47357073,0.0,0.0,0.0,0.0
125261620,125261508,-0.016959043,0.055239916,-0.0075404523,0.4842334,0.0,0.0,0.0,0.0
125361548,125361471,0.03212799,0.01268941,-0.005917278,0.49192598,0.0,0.0,0.0,0.0
125465564,125465486,-0.03214271,0.01856157,-0.0050434386,0.4937923,0.0,0.0,0.0,0.0
125565563,125565486,-0.0024939082,-0.04568281,-0.005114672,0.48905835,0.0,0.0,0.0,0.0
125665582,125665475,-0.030471848,-0.045725316,-0.003929864,0.48232362,0.0,0.0,0.0,0.0
125769561,125769484,-0.054510858,-0.0028824313,-0.006434044,0.48862013,0.0,0.0,0.0,0.0
125869600,125869522,-0.031089582,-0.019505812,-0.0065985126,0.48995164,0.0,0.0,0.0,0.0
125969597,125969516,0.08189631,0.042721443,-0.008391091,0.49021903,0.0,0.0,0.0,0.0
126073548,126073471,0.03898167,0.0043109735,-0.008705148,0.49976718,0.0,0.0,0.0,0.0
126173552,126173471,0.04000491,0.08157768,-0.009405333,0.49324855,0.0,0.0,0.0,0.0
126277627,126277470,-0.02141863,-0.06024831,-0.0017212657,0.49574214,0.0,0.0,0.0,0.0
126377569,126377487,-0.021115495,-0.013023404,-0.0049305395,0.49341023,0.0,0.0,0.0,0.0
126477548,126477471,-0.010666999,-0.046520326,-0.0069736666,0.48769328,0.0,0.0,0.0,0.0
126581594,126581516,7.981994e-05,-0.047445904,-0.0051962067,0.48896578,0.0,0.0,0.0,0.0
126681548,126681471,0.009270168,-0.09772641,-0.0062515447,0.50224704,0.0,0.0,0.0,0.0
126781592,126781470,-0.05609637,-0.06215308,-0.010403808,0.49321118,0.0,0.0,0.0,0.0
126884795,126884717,-0.009717946,-0.018169846,-0.009006025,0.4883765,0.0,0.0,0.0,0.0
126986396,126986277,-0.04762204,0.09440452,-0.01565719,0.48754948,0.0,0.0,0.0,0.0
127086377,127086294,0.10305766,-0.027518312,-0.012936356,0.49354044,0.0,0.0,0.0,0.0
127190348,127190271,0.019859875,-0.06794945,-0.012025901,0.49337983,0.0,0.0,0.0,0.0
127290348,127290270,-0.0058717295,0.025199514,-0.010821087,0.49825054,0.0,0.0,0.0,0.0
127390359,127390281,0.059374403,0.05661742,-0.010996721,0.500453,0.0,0.0,0.0,0.0
127494384,127494302,0.019684937,-0.041365635,-0.0131351715,0.5000978,0.0,0.0,0.0,0.0
127594354,127594277,-0.028072238,0.065767355,-0.015998878,0.49371523,0.0,0.0,0.0,0.0
127698375,127698271,-0.03129658,-0.04324358,-0.01621181,0.4877355,0.0,0.0,0.0,0.0
127798350,127798271,0.063818686,-0.049175836,-0.014680406,0.49390194,0.0,0.0,0.0,0.0
127898351,127898271,0.056508318,0.020741114,-0.0179279,0.5051822,0.0,0.0,0.0,0.0
128002352,128002271,-0.025277134,-0.041293457,-0.015313517,0.50249547,0.0,0.0,0.0,0.0
128102390,128102312,0.05890514,0.0077456064,-0.010571741,0.498494,0.0,0.0,0.0,0.0
128202427,128202308,0.067279756,0.04584866,-0.006329328,0.5000577,0.0,0.0,0.0,0.0
128306356,128306279,-0.03967291,0.009761936,-0.005782499,0.508241,0.0,0.0,0.0,0.0
128406361,128406284,0.037551235,0.002915393,-0.008922064,0.5044297,0.0,0.0,0.0,0.0
128510348,128510271,-0.020510815,-0.03298754,-0.008762693,0.48474497,0.0,0.0,0.0,0.0
128614359,128614282,-0.033637546,-0.03874584,-0.0052777976,0.48376593,0.0,0.0,0.0,0.0
128714382,128714277,0.02877772,0.01597018,-0.007788622,0.4532429,0.0,0.0,0.0,0.0
128815190,128815071,-0.008103283,-0.048108235,-0.0054174825,0.44899142,0.0,0.0,0.0,0.0
128919194,128919121,0.051703427,0.0035206007,-0.010464194,0.47467056,0.0,0.0,0.0,0.0
129019192,129019075,-0.09204422,-0.022008311,-0.008716238,0.49062324,0.0,0.0,0.0,0.0
129123201,129123110,0.04398297,0.02153424,-0.009710372,0.50304663,0.0,0.0,0.0,0.0
129223154,129223072,0.07873532,-0.021579525,-0.012309077,0.5042646,0.0,0.0,0.0,0.0
129323151,129323070,-0.018340312,-0.008555447,-0.008736753,0.51020354,0.0,0.0,0.0,0.0
129427178,129427070,0.050296698,0.014204908,-0.01184846,0.4969717,0.0,0.0,0.0,0.0
129527152,129527078,0.011096787,-0.06263632,-0.010193673,0.48529157,0.0,0.0,0.0,0.0
129627165,129627075,-0.010193902,-0.083029844,-0.008121196,0.48590398,0.0,0.0,0.0,0.0
129731190,129731109,-0.01565301,-0.038821355,-0.008421848,0.49152154,0.0,0.0,0.0,0.0
129831199,129831077,0.012497424,-0.021126762,-0.00918878,0.49142838,0.0,0.0,0.0,0.0
129935151,129935071,-0.027137503,-0.031646952,-0.008159646,0.49011418,0.0,0.0,0.0,0.0
130035151,130035070,0.0156162,-0.040908743,-0.011271384,0.49417537,0.0,0.0,0.0,0.0
130135170,130135083,0.044941522,-0.010294771,-0.0127888825,0.4937005,0.0,0.0,0.0,0.0
130239153,130239071,-0.007458023,-0.08672221,-0.012023991,0.48994425,0.0,0.0,0.0,0.0
130339154,130339072,0.00843086,-0.09913271,-0.009107017,0.49370328,0.0,0.0,0.0,0.0
130439160,130439071,0.08672211,0.019684415,-0.012975257,0.49332708,0.0,0.0,0.0,0.0
130543154,130543072,0.07451433,0.009966489,-0.012638983,0.49596533,0.0,0.0,0.0,0.0
130643153,130643071,-0.009535161,-0.019996054,-0.01055798,0.5044879,0.0,0.0,0.0,0.0
130745567,130745489,0.02484709,0.046363052,-0.012673995,0.5152744,0.0,0.0,0.0,0.0
130847993,130847915,0.008902459,-0.1113146,-0.01098379,0.49639422,0.0,0.0,0.0,0.0
130948018,130947871,-0.023198795,-0.12064887,-0.013045953,0.47975034,0.0,0.0,0.0,0.0
131047959,131047882,0.049152307,0.05225805,-0.014242081,0.48260912,0.0,0.0,0.0,0.0
131151957,131151872,0.10920453,-0.056952074,-0.012559219,0.48938802,0.0,0.0,0.0,0.0
131252005,131251927,-0.064597294,-0.00942375,-0.01607893,0.47762617,0.0,0.0,0.0,0.0
131355948,131355871,0.03978054,-0.046920463,-0.011198493,0.48687991,0.0,0.0,0.0,0.0
131455948,131455871,-0.042805217,-0.007157647,-0.013152587,0.49285135,0.0,0.0,0.0,0.0
131556007,131555883,-0.0134485625,-0.08705766,-0.010660059,0.49228507,0.0,0.0,0.0,0.0
131659966,131659884,-0.047714137,-0.061055265,-0.011662163,0.49512908,0.0,0.0,0.0,0.0
131759948,131759871,0.04214843,-0.038578648,-0.0133164255,0.4998245,0.0,0.0,0.0,0.0
131859948,131859871,0.07549028,0.009934622,-0.008633973,0.4917522,0.0,0.0,0.0,0.0
131963955,131963877,-3.5475e-05,-0.0630231,0.03132026,0.48862347,0.0,0.0,0.0,0.0
132063948,132063871,0.039936915,-0.034115396,0.054966096,0.48876897,0.0,0.0,0.0,0.0
132167954,132167877,0.03366464,-0.040698268,-0.08499237,0.48455557,0.0,0.0,0.0,0.0
132267968,132267890,-0.0027007237,-0.022438757,-0.036215104,0.483073,0.0,0.0,0.0,0.0
132367982,132367877,0.06487973,0.0042963056,-0.030316481,0.4921805,0.0,0.0,0.0,0.0
132471952,132471870,-0.025419137,-0.043003216,-0.027290097,0.49540883,0.0,0.0,0.0,0.0
132572750,132572671,-0.060836267,-0.047028456,-0.02095801,0.4946336,0.0,0.0,0.0,0.0
132672748,132672671,0.004156086,-0.022565434,-0.016857361,0.4922261,0.0,0.0,0.0,0.0
132776752,132776670,0.057971384,0.0030963982,-0.01430207,0.49363396,0.0,0.0,0.0,0.0
132876748,132876671,0.05856445,-0.008593984,-0.019936102,0.4990203,0.0,0.0,0.0,0.0
132976767,132976692,0.0034602764,0.07373414,-0.043880537,0.4972349,0.0,0.0,0.0,0.0
133080755,133080677,-0.022526238,-0.0020253137,-0.045649827,0.4969408,0.0,0.0,0.0,0.0
133180748,133180671,-0.033403452,0.015153837,-0.07615798,0.49320057,0.0,0.0,0.0,0.0
133284755,133284677,-0.044736076,-0.00092541956,-0.006084012,0.48233545,0.0,0.0,0.0,0.0
133384790,133384671,-0.02750579,0.022051804,0.029126665,0.47964898,0.0,0.0,0.0,0.0
133484834,133484677,0.00892723,-0.010956009,0.019518286,0.48102152,0.0,0.0,0.0,0.0
133588798,133588680,0.05107297,-0.017646037,0.012979625,0.48192528,0.0,0.0,0.0,0.0
133688760,133688683,0.06364224,0.0033270605,0.0055405805,0.4840556,0.0,0.0,0.0,0.0
133788766,133788691,0.015220267,-0.05807745,0.0014941674,0.49006978,0.0,0.0,0.0,0.0
133892761,133892671,-0.020154705,-0.03831319,-0.0037470567,0.49006236,0.0,0.0,0.0,0.0
133992748,133992671,0.10731763,-0.0006941281,-0.009512602,0.4910885,0.0,0.0,0.0,0.0
134092785,134092671,0.028157933,-0.017426673,-0.01025064,0.49474373,0.0,0.0,0.0,0.0
134196769,134196688,-0.015637035,-0.033911295,0.07194318,0.49789256,0.0,0.0,0.0,0.0
134296748,134296671,0.04667621,0.026535152,0.041598596,0.48793215,0.0,0.0,0.0,0.0
134400776,134400671,0.02897568,0.0111550335,0.031166704,0.4785516,0.0,0.0,0.0,0.0
134501621,134501516,0.010396014,0.016243367,0.0323817,0.4782269,0.0,0.0,0.0,0.0
134601555,134601477,0.04987466,0.009379588,0.011109518,0.4783205,0.0,0.0,0.0,0.0
134705548,134705471,0.13037363,-0.044952754,-0.07137428,0.4835304,0.0,0.0,0.0,0.0
134805594,134805517,-0.053638533,-0.0293332,-0.065572694,0.48750398,0.0,0.0,0.0,0.0
134905599,134905477,-0.020479942,-0.04212731,-0.05379024,0.4874182,0.0,0.0,0.0,0.0
135009555,135009471,-0.020494472,-0.023742173,-0.04122034,0.49014595,0.0,0.0,0.0,0.0
135109563,135109486,0.010871461,-0.013739002,-0.030968133,0.49924272,0.0,0.0,0.0,0.0
135209548,135209469,-0.04328656,-0.049214333,-0.022833671,0.5007289,0.0,0.0,0.0,0.0
135313558,135313480,0.01630554,0.006617379,-0.018902559,0.50183445,0.0,0.0,0.0,0.0
135413554,135413477,-0.0062005543,-0.0006837075,-0.015105322,0.4963541,0.0,0.0,0.0,0.0
135517612,135517471,0.03791642,0.071031414,-0.013217139,0.49322385,0.0,0.0,0.0,0.0
135621585,135621471,0.07918287,0.020032782,-0.010753643,0.50010365,0.0,0.0,0.0,0.0
135721556,135721479,-0.01663302,0.07345946,-0.00856678,0.5042892,0.0,0.0,0.0,0.0
135825549,135825471,0.003915273,-0.069481336,-0.0069072917,0.49840128,0.0,0.0,0.0,0.0
135925555,135925477,0.07110633,0.061230734,-0.009989874,0.49445575,0.0,0.0,0.0,0.0
136025548,136025471,0.11206565,-0.052696995,-0.0120525975,0.4886585,0.0,0.0,0.0,0.0
136129588,136129483,0.028696002,0.024185069,-0.008045238,0.48857716,0.0,0.0,0.0,0.0
136229600,136229520,-0.018533764,0.09245545,-0.009819943,0.49141034,0.0,0.0,0.0,0.0
136329564,136329482,0.02857313,-0.01932621,-0.008898885,0.49814278,0.0,0.0,0.0,0.0
136433576,136433498,0.056505412,-0.05741582,-0.007852852,0.50140464,0.0,0.0,0.0,0.0
136534368,136534290,0.03611418,-0.040722284,-0.0060948827,0.5027309,0.0,0.0,0.0,0.0
136634378,136634271,-0.07492439,-0.055018615,-0.008349584,0.5061498,0.0,0.0,0.0,0.0
136738348,136738270,0.029728204,-0.0049085347,-0.0077754864,0.49614334,0.0,0.0,0.0,0.0
136838352,136838271,0.08108541,0.029377699,-0.006312206,0.49499714,0.0,0.0,0.0,0.0
136938394,136938315,0.02422902,-0.03364871,-0.005718939,0.49247655,0.0,0.0,0.0,0.0
137042363,137042286,0.070417605,-0.105626054,-0.00042500068,0.48999184,0.0,0.0,0.0,0.0
137142351,137142270,-0.026453337,0.007218921,-0.0032067746,0.51004106,0.0,0.0,0.0,0.0
137246349,137246271,0.053628527,-0.05612488,-0.0042544063,0.5067306,0.0,0.0,0.0,0.0
137346371,137346293,0.04382903,-0.031844188,-0.0036128475,0.49528685,0.0,0.0,0.0,0.0
137446357,137446277,-0.095863074,-0.01992789,-0.005584865,0.49554458,0.0,0.0,0.0,0.0
137550429,137550270,-0.019120563,0.016468808,-0.0071333046,0.50109196,0.0,0.0,0.0,0.0
137650348,137650271,0.037728865,-0.047327425,-0.0056208605,0.49672937,0.0,0.0,0.0,0.0
137750348,137750271,-0.07699038,-0.027614161,-0.0070362967,0.502975,0.0,0.0,0.0,0.0
137854356,137854275,-0.034218714,-0.02693806,-0.008072464,0.5056599,0.0,0.0,0.0,0.0
137954357,137954279,-0.022361556,-0.030420767,-0.008758639,0.49108484,0.0,0.0,0.0,0.0
138058348,138058271,0.080474354,-0.05860236,-0.009669118,0.48934522,0.0,0.0,0.0,0.0
138158391,138158277,0.018160429,-0.008940219,-0.009540054,0.49645036,0.0,0.0,0.0,0.0
138258369,138258294,0.025775786,-0.032814514,-0.008513709,0.500129,0.0,0.0,0.0,0.0
138363167,138363075,0.019760061,0.044511363,-0.009612996,0.49914622,0.0,0.0,0.0,0.0
138466349,138466272,0.089360945,0.004123065,-0.009335188,0.4954657,0.0,0.0,0.0,0.0
138567175,138567094,0.12602946,0.0011873535,-0.010331124,0.4896493,0.0,0.0,0.0,0.0
138671158,138671077,-0.009021591,0.040160164,-0.015743002,0.49011755,0.0,0.0,0.0,0.0
138771158,138771077,-0.015526974,-0.008108383,-0.010207098,0.49404064,0.0,0.0,0.0,0.0
138871165,138871090,0.00079591124,-0.064220786,-0.01087268,0.49565098,0.0,0.0,0.0,0.0
138975154,138975072,0.037326682,0.012930897,-0.014452833,0.50041497,0.0,0.0,0.0,0.0
139075165,139075084,0.042439114,0.011677851,-0.012212707,0.50275606,0.0,0.0,0.0,0.0
139175157,139175077,-0.04603776,-0.07962413,-0.007978372,0.5065064,0.0,0.0,0.0,0.0
139279189,139279078,-0.058750547,-0.024602173,-0.00859059,0.50686014,0.0,0.0,0.0,0.0
139379144,139379071,-0.07073372,-0.0352512,-0.00774779,0.50495327,0.0,0.0,0.0,0.0
139483173,139483082,-0.0612371,-0.075560175,-0.0056080907,0.5113368,0.0,0.0,0.0,0.0
139583196,139583075,0.033724647,0.013389926,-0.0070184246,0.5093748,0.0,0.0,0.0,0.0
139683178,139683070,-0.015445287,-0.08964536,-0.007012884,0.5068773,0.0,0.0,0.0,0.0
139787151,139787070,-0.035280865,-0.035038654,-0.0042013153,0.5019993,0.0,0.0,0.0,0.0
139887160,139887077,-0.09416469,-0.022850594,-0.006072107,0.49630496,0.0,0.0,0.0,0.0
139987168,139987079,0.0009794502,-0.07034358,-0.006938022,0.4961081,0.0,0.0,0.0,0.0
140091177,140091089,-0.012673162,-0.026415087,-0.010538897,0.49406818,0.0,0.0,0.0,0.0
140190386,140190308,0.015387522,0.03288282,-0.011289945,0.48532364,0.0,0.0,0.0,0.0
140295203,140295074,0.01608577,-0.025107525,-0.0117019545,0.49302092,0.0,0.0,0.0,0.0
140395953,140395875,-0.010275404,-0.04215516,-0.00883601,0.48933643,0.0,0.0,0.0,0.0
140495952,140495870,-0.044891965,-0.052182768,-0.006681836,0.4945126,0.0,0.0,0.0,0.0
140595948,140595871,-0.008305711,0.028425986,-0.010857857,0.5032547,0.0,0.0,0.0,0.0
140700004,140699923,0.03394471,0.03929276,-0.012328954,0.5130296,0.0,0.0,0.0,0.0
140799994,140799870,0.0051384107,-0.025702998,-0.009031046,0.50386375,0.0,0.0,0.0,0.0
140903948,140903871,0.04687431,-0.0950744,-0.009273832,0.48798254,0.0,0.0,0.0,0.0
141004006,141003925,-0.07607754,-0.014561339,-0.0060464935,0.4903841,0.0,0.0,0.0,0.0
141103958,141103880,-0.023311108,-0.038880344,-0.008852226,0.49783227,0.0,0.0,0.0,0.0
141207949,141207871,-0.030806322,0.025443833,-0.008112867,0.49352756,0.0,0.0,0.0,0.0
141307948,141307871,-0.020535668,-0.06385742,-0.008003991,0.49624097,0.0,0.0,0.0,0.0
141407948,141407871,0.043341618,0.016742164,-0.008837886,0.493836,0.0,0.0,0.0,0.0
141512038,141511906,0.012442472,0.014466019,-0.008965163,0.4944536,0.0,0.0,0.0,0.0
141611952,141611874,0.03189899,-0.0026359237,-0.031069774,0.4972733,0.0,0.0,0.0,0.0
141715992,141715915,-0.013443108,0.01188417,-0.08970325,0.49436188,0.0,0.0,0.0,0.0
141815948,141815871,0.045777403,0.017131828,-0.07384448,0.48766282,0.0,0.0,0.0,0.0
141915951,141915871,-0.0037369377,-0.05401867,-0.0391528,0.47597638,0.0,0.0,0.0,0.0
142019995,142019903,-0.069930196,-0.028294045,-0.062180456,0.4867957,0.0,0.0,0.0,0.0
142120002,142119883,0.061607663,-0.040983785,-0.028435059,0.49589548,0.0,0.0,0.0,0.0
142219995,142219887,0.055198397,-0.0053246547,-0.015468257,0.49473253,0.0,0.0,0.0,0.0
142323954,142323876,-0.030853216,-0.054174915,-0.03040395,0.491717,0.0,0.0,0.0,0.0
142423179,142423087,-0.016407482,-0.059461627,-0.028246239,0.48870653,0.0,0.0,0.0,0.0
142527948,142527870,0.027853401,-0.014432972,-0.043595217,0.4902439,0.0,0.0,0.0,0.0
142628749,142628671,0.015075441,0.037170712,-0.03330526,0.49529445,0.0,0.0,0.0,0.0
143136748,143136671,0.031347234,0.004695216,0.08038844,0.48763344,0.0,0.0,0.0,0.0
143236785,143236677,-0.015658885,-0.019245025,0.07257886,0.47372845,0.0,0.0,0.0,0.0
143844749,143844671,-0.044215314,-0.016684584,-0.009522667,0.49438587,0.0,0.0,0.0,0.0
143948755,143948677,-0.019095212,-0.0098261535,-0.0130592715,0.49697274,0.0,0.0,0.0,0.0
144048749,144048671,0.078373276,0.026775395,-0.015345521,0.4999274,0.0,0.0,0.0,0.0
144148774,144148698,-0.016738852,-0.07155836,-0.013352889,0.5005873,0.0,0.0,0.0,0.0
144252796,144252692,-0.017081108,-0.08884915,-0.0123415,0.5027488,0.0,0.0,0.0,0.0
144352752,144352670,0.09819774,-0.03516077,-0.013676925,0.5169724,0.0,0.0,0.0,0.0
144452755,144452677,-0.030705841,0.014963453,-0.015221948,0.509845,0.0,0.0,0.0,0.0
144557548,144557471,0.035137873,0.00022143082,-0.016089281,0.49735665,0.0,0.0,0.0,0.0
144657549,144657471,0.11151555,-0.01769084,-0.015436331,0.50252074,0.0,0.0,0.0,0.0
144757601,144757471,-0.02775845,0.0019550587,-0.015510685,0.49436423,0.0,0.0,0.0,0.0
144861585,144861471,-0.056570772,-0.051054075,-0.011525442,0.49236634,0.0,0.0,0.0,0.0
144961548,144961471,0.009213193,-0.011493678,-0.008858067,0.5024216,0.0,0.0,0.0,0.0
145065555,145065477,-0.016768297,0.0043220883,-0.009218029,0.5031904,0.0,0.0,0.0,0.0
145165548,145165471,-0.07140569,0.0037712473,-0.008851765,0.5075454,0.0,0.0,0.0,0.0
145265553,145265470,-0.03701544,-0.046031475,-0.009868087,0.50402486,0.0,0.0,0.0,0.0
145369598,145369483,0.0047029336,-0.07489793,-0.010689454,0.5036403,0.0,0.0,0.0,0.0
145469549,145469472,-0.002210692,-0.028749615,-0.012146872,0.5035871,0.0,0.0,0.0,0.0
145569572,145569489,0.050962083,0.019809037,-0.012474936,0.49968714,0.0,0.0,0.0,0.0
145673595,145673518,0.053912006,-0.021390727,-0.010754479,0.4953782,0.0,0.0,0.0,0.0
145773581,145773477,0.030990515,0.028442075,-0.011481254,0.50354207,0.0,0.0,0.0,0.0
145877548,145877471,-0.004224389,-0.05670451,-0.009431455,0.5106432,0.0,0.0,0.0,0.0
145977549,145977471,0.03204545,-0.0075610024,-0.008720105,0.49757078,0.0,0.0,0.0,0.0
146077597,146077520,0.0027355473,-0.016238393,-0.009664784,0.5031746,0.0,0.0,0.0,0.0
146181569,146181488,-0.21178554,0.023344219,-0.014008775,0.48892042,0.0,0.0,0.0,0.0
146281558,146281477,0.18621744,-0.041710775,-0.0057408717,0.4824124,0.0,0.0,0.0,0.0
146381549,146381471,-0.081954286,0.004067823,-0.020869672,0.45608088,0.0,0.0,0.0,0.0
146486375,146486271,0.0006268866,0.010102917,-0.0038781515,0.45993957,0.0,0.0,0.0,0.0
146586358,146586277,0.039048098,-0.014613842,-0.011128788,0.49087492,0.0,0.0,0.0,0.0
146685559,146685481,-0.0825727,0.039027452,-0.01224772,0.500081,0.0,0.0,0.0,0.0
146790429,146790301,-0.0671965,-0.12744527,-0.011877524,0.5036244,0.0,0.0,0.0,0.0
146890386,146890271,0.013723805,-0.0293463,-0.016305733,0.5019627,0.0,0.0,0.0,0.0
146990348,146990271,-0.097299516,0.0017794386,-0.014335096,0.49998155,0.0,0.0,0.0,0.0
147094362,147094279,0.029773936,-0.007614099,-0.016344406,0.5046821,0.0,0.0,0.0,0.0
147194366,147194286,0.05830749,0.07837097,-0.016541753,0.49221882,0.0,0.0,0.0,0.0
147298355,147298278,-0.07330801,-0.04626386,-0.018083407,0.48248038,0.0,0.0,0.0,0.0
147398389,147398271,0.030507432,0.08052432,-0.018155096,0.48036095,0.0,0.0,0.0,0.0
147498355,147498275,0.012310476,-0.09906081,-0.015476897,0.49298465,0.0,0.0,0.0,0.0
147602348,147602271,0.040414754,-0.024734644,-0.012782615,0.49049932,0.0,0.0,0.0,0.0
147702352,147702274,-0.014253823,0.0031331375,-0.012142667,0.49353674,0.0,0.0,0.0,0.0
147802355,147802277,0.05284697,0.035738233,-0.012823633,0.49396026,0.0,0.0,0.0,0.0
147906404,147906298,-0.026206553,0.010597891,-0.013504516,0.4924692,0.0,0.0,0.0,0.0
148006390,148006311,0.09674545,0.029461307,-0.009549192,0.4986738,0.0,0.0,0.0,0.0
148110361,148110282,-0.038706396,0.05766699,-0.010648665,0.5033562,0.0,0.0,0.0,0.0
148210370,148210289,0.011062667,-0.012204321,-0.0066837603,0.50544596,0.0,0.0,0.0,0.0
148310393,148310271,-0.048899826,-0.0039800094,-0.0052358536,0.51170635,0.0,0.0,0.0,0.0
148414355,148414277,0.059945934,0.010669932,-0.007624644,0.5282914,0.0,0.0,0.0,0.0
148514358,148514277,-0.012985465,-0.05409547,-0.007754228,0.5075342,0.0,0.0,0.0,0.0
148614383,148614306,-0.06957244,-0.041545838,-0.0068216147,0.48807177,0.0,0.0,0.0,0.0
148718357,148718280,-0.0029053765,-0.061292734,-0.004478194,0.485776,0.0,0.0,0.0,0.0
148819165,148819083,-0.07406483,-0.015648829,-0.0077922046,0.4888668,0.0,0.0,0.0,0.0
148919172,148919087,0.048493776,0.012385657,-0.008100895,0.4909519,0.0,0.0,0.0,0.0
149023149,149023071,0.19578047,-0.045921635,-0.0044186832,0.4926548,0.0,0.0,0.0,0.0
149123150,149123071,-0.06898043,-0.014788143,-0.007772515,0.4968076,0.0,0.0,0.0,0.0
149227168,149227088,0.027301118,-0.015730618,-0.0073184427,0.4922491,0.0,0.0,0.0,0.0
149327238,149327120,0.08272056,0.040533677,-0.0063851904,0.49275494,0.0,0.0,0.0,0.0
149427185,149427085,0.017828695,-0.027450394,-0.0056301863,0.49398834,0.0,0.0,0.0,0.0
149531158,149531077,0.10889427,-0.0034406816,-0.009542454,0.49191663,0.0,0.0,0.0,0.0
149631151,149631077,0.08488244,0.05513556,-0.00847704,0.48514512,0.0,0.0,0.0,0.0
149731166,149731076,0.10491766,0.015114009,-0.007258315,0.49185258,0.0,0.0,0.0,0.0
149835155,149835071,0.0647724,0.017947543,-0.008152237,0.50503856,0.0,0.0,0.0,0.0
149935189,149935071,-0.0425442,-0.07683962,-0.007818266,0.5112068,0.0,0.0,0.0,0.0
150039233,150039110,0.0059365747,-0.049522523,-0.0082545,0.5131552,0.0,0.0,0.0,0.0
150143157,150143077,0.06447726,0.008963744,-0.011962804,0.505479,0.0,0.0,0.0,0.0
150243164,150243082,0.009461557,0.035495326,-0.011170249,0.49566144,0.0,0.0,0.0,0.0
150347160,150347071,0.02295479,0.054262895,-0.011252934,0.4906128,0.0,0.0,0.0,0.0
150447152,150447070,-0.038164496,-0.0052290703,-0.013418651,0.4925465,0.0,0.0,0.0,0.0
150547144,150547071,0.028020177,-0.07993375,-0.060936365,0.4930282,0.0,0.0,0.0,0.0
150651155,150651071,-0.0049979626,-0.0690858,-0.044978335,0.4877786,0.0,0.0,0.0,0.0
150751151,150751070,-0.023875691,-0.0096761165,-0.04219812,0.4853138,0.0,0.0,0.0,0.0
150851151,150851071,-0.021101627,-0.048477508,0.002270203,0.48913252,0.0,0.0,0.0,0.0
150955964,150955886,-0.036142338,-0.02105967,0.020128278,0.49063796,0.0,0.0,0.0,0.0
151055979,151055871,0.036371917,-0.041144308,0.011937182,0.48834893,0.0,0.0,0.0,0.0
151156787,151156671,-0.03139426,0.04700044,0.0047239764,0.48818538,0.0,0.0,0.0,0.0
151259955,151259877,0.05896389,0.0018998327,-0.0011501294,0.49324545,0.0,0.0,0.0,0.0
151359995,151359877,-0.091774374,0.048807215,-0.005199078,0.5015259,0.0,0.0,0.0,0.0
151459993,151459874,0.03922208,-0.103137515,-0.004605573,0.529987,0.0,0.0,0.0,0.0
151563948,151563871,0.032697644,0.047093857,-0.0101039605,0.52024996,0.0,0.0,0.0,0.0
151663948,151663871,0.033794336,0.01638517,-0.01060661,0.5141729,0.0,0.0,0.0,0.0
151767948,151767871,-0.030794416,-0.04751995,-0.011023563,0.49074063,0.0,0.0,0.0,0.0
151867948,151867870,-0.056074694,0.026398227,-0.01008927,0.49392796,0.0,0.0,0.0,0.0
151967989,151967871,0.001902878,-0.025412487,-0.013257347,0.5074075,0.0,0.0,0.0,0.0
152072037,152071910,0.056229685,-0.06495377,-0.010098002,0.5129456,0.0,0.0,0.0,0.0
152171948,152171871,0.021564253,-0.041284263,-0.010260226,0.5164362,0.0,0.0,0.0,0.0
152271948,152271871,-0.008006126,0.04977885,-0.011554256,0.50791526,0.0,0.0,0.0,0.0
152375973,152375895,0.007065343,-0.0067577474,-0.011023733,0.4964725,0.0,0.0,0.0,0.0
152475985,152475877,0.07487579,0.07947633,-0.012930995,0.49949953,0.0,0.0,0.0,0.0
152579959,152579870,0.010205807,-0.030484369,-0.0105709825,0.50126904,0.0,0.0,0.0,0.0
152679991,152679914,0.027522583,0.058664523,-0.010944682,0.50612897,0.0,0.0,0.0,0.0
152779962,152779884,-0.017007828,0.047928672,-0.013773143,0.4921401,0.0,0.0,0.0,0.0
152883948,152883871,-0.04218389,-0.01829786,-0.010428282,0.48679107,0.0,0.0,0.0,0.0
152983948,152983871,0.08495485,0.024584426,-0.011505271,0.48970646,0.0,0.0,0.0,0.0
153083204,153083124,-0.011564047,0.055575725,-0.008839241,0.49546286,0.0,0.0,0.0,0.0
153187187,153187102,0.0032959064,0.016867185,-0.0113239195,0.4989542,0.0,0.0,0.0,0.0
153288749,153288671,0.02954282,0.0054325564,-0.010641177,0.499669,0.0,0.0,0.0,0.0
153388765,153388689,0.083867446,-0.0538132,-0.0074944906,0.50309813,0.0,0.0,0.0,0.0
153492807,153492729,-0.040154126,-0.018042058,-0.009138579,0.5003693,0.0,0.0,0.0,0.0
153592793,153592677,0.09616021,0.008575387,-0.006027198,0.49221414,0.0,0.0,0.0,0.0
153692749,153692671,0.068282604,-0.004605911,-0.009991631,0.49451363,0.0,0.0,0.0,0.0
153796751,153796671,0.06500034,0.048512626,-0.0060200756,0.5044077,0.0,0.0,0.0,0.0
153896834,153896716,-0.017959082,0.05796323,-0.0069109555,0.50214785,0.0,0.0,0.0,0.0
154000788,154000670,-0.04237073,-0.0060269795,-0.0052137882,0.49377102,0.0,0.0,0.0,0.0
154100758,154100681,-0.02270786,0.017139284,-0.004171913,0.49684322,0.0,0.0,0.0,0.0
154200748,154200672,-0.013109062,0.006008187,-0.0042206743,0.49547225,0.0,0.0,0.0,0.0
154304757,154304671,0.019708207,0.021662721,-0.0015932634,0.49123123,0.0,0.0,0.0,0.0
154404748,154404671,-0.021213992,-0.026978161,-0.0034770453,0.49488303,0.0,0.0,0.0,0.0
154508763,154508687,-0.0355535,-0.013731819,-0.0062462706,0.50162905,0.0,0.0,0.0,0.0
154608801,154608686,0.010365804,-0.04606305,-0.0074266787,0.5070886,0.0,0.0,0.0,0.0
154708755,154708677,-0.050756235,-0.020893445,-0.01019753,0.4976538,0.0,0.0,0.0,0.0
154812753,154812676,0.024139352,0.03070883,-0.009205199,0.50062823,0.0,0.0,0.0,0.0
154912758,154912680,-0.015725084,0.020822192,-0.012327322,0.50018954,0.0,0.0,0.0,0.0
155012826,155012715,0.05982388,0.00038919342,-0.0068874527,0.5004581,0.0,0.0,0.0,0.0
155116761,155116670,-0.027586715,-0.050907545,-0.004723807,0.49974662,0.0,0.0,0.0,0.0
155216759,155216682,-0.015753536,-0.0039833756,-0.0067003677,0.5033967,0.0,0.0,0.0,0.0
155320751,155320676,0.030908309,-0.014033338,-0.009391996,0.5086798,0.0,0.0,0.0,0.0
155420761,155420677,0.057421327,0.027437797,-0.008732995,0.50840485,0.0,0.0,0.0,0.0
155521549,155521471,-0.021644471,0.033381466,-0.0130564235,0.5138227,0.0,0.0,0.0,0.0
155621549,155621471,0.0063464437,-0.07250008,-0.00694978,0.50914615,0.0,0.0,0.0,0.0
155725555,155725477,0.022765853,0.023843719,-0.004857553,0.48784786,0.0,0.0,0.0,0.0
155825555,155825477,-0.034046207,-0.012537516,-0.0036170124,0.49448216,0.0,0.0,0.0,0.0
155929624,155929510,-0.024102585,-0.07389093,-0.0023841672,0.5028011,0.0,0.0,0.0,0.0
156029594,156029516,-0.02299688,-0.031040229,-0.0053308485,0.5021604,0.0,0.0,0.0,0.0
156129602,156129483,-0.008157443,0.024568815,-0.0059153493,0.50106543,0.0,0.0,0.0,0.0
156233552,156233471,-0.033463713,0.02332825,-0.006914229,0.49900717,0.0,0.0,0.0,0.0
156333573,156333496,0.017008463,-0.03462872,-0.0072725974,0.4952469,0.0,0.0,0.0,0.0
156433588,156433473,-0.047787942,-0.054770153,-0.008550177,0.4933272,0.0,0.0,0.0,0.0
156537595,156537477,-0.037543975,-0.03535855,-0.003551156,0.49519813,0.0,0.0,0.0,0.0
156637548,156637471,0.060569316,0.038328905,-0.00287838,0.49703422,0.0,0.0,0.0,0.0
156741548,156741471,0.029916529,0.07306497,-0.00283051,0.501056,0.0,0.0,0.0,0.0
156841550,156841471,-0.045372356,-0.051757205,0.00035575265,0.50012046,0.0,0.0,0.0,0.0
156941564,156941481,0.0052347854,0.062098444,-0.004211613,0.4941525,0.0,0.0,0.0,0.0
157045573,157045495,-0.040591303,0.015349357,-0.0013194876,0.49198422,0.0,0.0,0.0,0.0
157145619,157145515,0.055586535,0.0074056797,-0.0005803462,0.4908873,0.0,0.0,0.0,0.0
157245548,157245471,0.07195401,0.03085692,-0.0010151621,0.49088043,0.0,0.0,0.0,0.0
157349564,157349487,0.086409494,0.019411327,-0.00021168357,0.49313658,0.0,0.0,0.0,0.0
157448823,157448716,-0.11048479,-0.031074652,0.0001896238,0.49711972,0.0,0.0,0.0,0.0
157553573,157553495,-0.09538307,0.0021489244,-0.0020766235,0.500973,0.0,0.0,0.0,0.0
157653558,157653480,0.11760818,0.02459617,-0.0045053386,0.50998145,0.0,0.0,0.0,0.0
157754351,157754272,0.023453023,0.00655145,-0.0057686013,0.5167279,0.0,0.0,0.0,0.0
157857552,157857475,0.060533002,0.047696885,-0.0050606523,0.5052328,0.0,0.0,0.0,0.0
157958397,157958320,0.047752537,-0.030463947,-0.004028939,0.5090302,0.0,0.0,0.0,0.0
158058359,158058277,0.033081405,0.009125745,-0.0017475837,0.5015852,0.0,0.0,0.0,0.0
158162390,158162271,-0.11767246,0.034795932,-0.0034861248,0.48709753,0.0,0.0,0.0,0.0
158262348,158262271,-0.009753751,0.03375389,0.0020320937,0.4891428,0.0,0.0,0.0,0.0
158362351,158362270,0.08046487,0.01846146,0.0015573734,0.49770093,0.0,0.0,0.0,0.0
158466423,158466304,0.06653118,0.017230427,-0.002642686,0.50215155,0.0,0.0,0.0,0.0
158566398,158566290,-0.060831305,-0.053902514,-0.0020555682,0.50641644,0.0,0.0,0.0,0.0
158666406,158666301,-0.04488554,0.0629648,-0.0021648607,0.51350284,0.0,0.0,0.0,0.0
158770385,158770308,-0.049306452,-0.028793633,-0.0016283933,0.5078349,0.0,0.0,0.0,0.0
158870353,158870275,-0.079035975,0.027004104,-0.0023182267,0.5053788,0.0,0.0,0.0,0.0
158974371,158974293,-0.027225189,-0.03492176,-0.001324855,0.478927,0.0,0.0,0.0,0.0
159074385,159074271,0.004363401,0.02767874,-0.0037353504,0.48727855,0.0,0.0,0.0,0.0
159174382,159174302,-0.043487452,-0.022331497,-0.000726365,0.49842528,0.0,0.0,0.0,0.0
159278384,159278293,-0.11095363,-0.033297777,-0.0026846537,0.50179595,0.0,0.0,0.0,0.0
159378348,159378271,0.1194523,0.04948661,-0.0017543033,0.49532998,0.0,0.0,0.0,0.0
159478348,159478271,0.0011587471,0.008686501,-0.0013665914,0.49956268,0.0,0.0,0.0,0.0
159582416,159582293,0.04198563,-0.012420367,-0.0046214433,0.50216806,0.0,0.0,0.0,0.0
159682363,159682284,-0.055835832,-0.060874015,-0.004703942,0.4868995,0.0,0.0,0.0,0.0
159786392,159786314,-0.017005334,0.015282065,-0.009262262,0.49446458,0.0,0.0,0.0,0.0
159886370,159886291,0.09178452,-0.03379993,-0.009141037,0.5001619,0.0,0.0,0.0,0.0
159986370,159986289,-0.01903305,-0.0049789026,-0.011396917,0.5106819,0.0,0.0,0.0,0.0
160090350,160090271,0.029737173,0.018644795,-0.011054298,0.5078208,0.0,0.0,0.0,0.0
160189597,160189510,0.04129604,0.06791973,-0.010646544,0.5025358,0.0,0.0,0.0,0.0
160291179,160291095,0.06941248,-0.031111235,-0.009557091,0.53198165,0.0,0.0,0.0,0.0
160395151,160395070,-0.04454549,-0.015295552,-0.008830135,0.52074516,0.0,0.0,0.0,0.0
160495197,160495102,0.009551221,0.059916012,-0.0093803005,0.4948192,0.0,0.0,0.0,0.0
160595163,160595071,0.022660982,0.024277769,-0.006944409,0.49338877,0.0,0.0,0.0,0.0
160699189,160699071,0.024045905,-0.03602598,-0.0070207687,0.50335914,0.0,0.0,0.0,0.0
160799154,160799072,0.03812358,-0.042441145,-0.0071638892,0.49567458,0.0,0.0,0.0,0.0
160903158,160903077,0.11169781,-0.0041750586,-0.012193013,0.49217072,0.0,0.0,0.0,0.0
161007153,161007077,-0.01641314,0.052381024,-0.009819858,0.49494103,0.0,0.0,0.0,0.0
161107188,161107070,-0.03748625,-0.13578981,-0.00413468,0.49851465,0.0,0.0,0.0,0.0
161211215,161211122,0.024515282,0.06628308,-0.010441447,0.50963664,0.0,0.0,0.0,0.0
161311193,161311071,0.07871847,-0.019240595,-0.008703014,0.5083968,0.0,0.0,0.0,0.0
161411155,161411071,0.060894027,0.037896812,-0.007790814,0.5094989,0.0,0.0,0.0,0.0
161515144,161515071,-0.016289124,-0.03043429,-0.008121429,0.5085419,0.0,0.0,0.0,0.0
161615168,161615077,0.10635353,-0.01031291,-0.008901598,0.5150132,0.0,0.0,0.0,0.0
161715202,161715082,0.023938894,0.013234332,-0.007939426,0.5161537,0.0,0.0,0.0,0.0
161819159,161819078,-0.0632005,0.0051360284,-0.0074856705,0.5046637,0.0,0.0,0.0,0.0
161919153,161919071,0.029888546,-0.010322054,-0.0071641365,0.49917462,0.0,0.0,0.0,0.0
162023183,162023089,0.029884253,-0.020599512,-0.007623667,0.50508267,0.0,0.0,0.0,0.0
162127151,162127078,-0.03342797,-0.074895784,-0.007921969,0.49826476,0.0,0.0,0.0,0.0
162227184,162227077,0.0039908704,0.07892917,-0.01032459,0.5009673,0.0,0.0,0.0,0.0
162331158,162331078,0.10932869,-0.03021804,-0.011056915,0.50723654,0.0,0.0,0.0,0.0
162431198,162431072,0.044626337,-0.039960485,-0.009603775,0.50517845,0.0,0.0,0.0,0.0
162530398,162530320,0.049806736,-0.033007775,-0.011506985,0.5070503,0.0,0.0,0.0,0.0
162631168,162631085,0.096603796,-0.05057777,-0.011471904,0.49542147,0.0,0.0,0.0,0.0
162735952,162735874,0.0041828766,-0.066573486,-0.011706138,0.49335054,0.0,0.0,0.0,0.0
162837585,162837471,0.05785225,-0.15833086,-0.007469234,0.51358515,0.0,0.0,0.0,0.0
162939981,162939877,-0.035347022,-0.030906022,-0.011136794,0.5111176,0.0,0.0,0.0,0.0
163039948,163039871,-0.07329839,0.042360235,-0.016819995,0.5003935,0.0,0.0,0.0,0.0
163139999,163139893,0.015080433,0.040030807,-0.01630347,0.5020502,0.0,0.0,0.0,0.0
163243994,163243916,0.013534249,0.065225124,-0.012342666,0.49823478,0.0,0.0,0.0,0.0
163343992,163343877,-0.08087436,-0.033711035,-0.013212297,0.49852756,0.0,0.0,0.0,0.0
163443958,163443877,0.1396056,0.019179396,-0.012498804,0.4930304,0.0,0.0,0.0,0.0
163547949,163547871,-0.072004795,0.02051729,-0.013254074,0.4926227,0.0,0.0,0.0,0.0
163647956,163647879,0.06800874,0.02221863,-0.015676126,0.49878722,0.0,0.0,0.0,0.0
163751948,163751871,0.056602318,-0.053159498,-0.016184662,0.5088223,0.0,0.0,0.0,0.0
163851948,163851871,-0.0076113543,-0.061717704,-0.0148018,0.5036142,0.0,0.0,0.0,0.0
163951952,163951874,-0.003420803,0.053310715,-0.016151028,0.49734554,0.0,0.0,0.0,0.0
164055955,164055877,0.026986176,-0.040054187,-0.01522183,0.50185555,0.0,0.0,0.0,0.0
164155948,164155871,0.04786931,-0.022784477,-0.014132845,0.5001898,0.0,0.0,0.0,0.0
164255948,164255871,0.024509668,0.07143505,-0.015042436,0.4929072,0.0,0.0,0.0,0.0
164360034,164359870,0.021141425,0.026455063,-0.016293509,0.49320257,0.0,0.0,0.0,0.0
164459948,164459871,0.026039995,-0.015411823,-0.012782812,0.5011313,0.0,0.0,0.0,0.0
164563948,164563871,0.02606663,-0.0036895,-0.013731005,0.5062086,0.0,0.0,0.0,0.0
164663983,164663906,-0.05510277,-0.03196881,-0.013133628,0.5005477,0.0,0.0,0.0,0.0
164763973,164763872,-0.061896503,-0.011534111,-0.012420674,0.50042254,0.0,0.0,0.0,0.0
164867948,164867871,-0.011006509,-0.029831644,-0.0129538905,0.5093344,0.0,0.0,0.0,0.0
164967988,164967871,-0.032281175,-0.04106158,-0.013225471,0.50623065,0.0,0.0,0.0,0.0
165068785,165068671,0.04778417,0.024222894,-0.021190982,0.50406754,0.0,0.0,0.0,0.0
165172786,165172671,0.00864674,-0.055258885,-0.05354764,0.5029241,0.0,0.0,0.0,0.0
165272752,165272671,0.09396216,-0.0037895448,-0.090999395,0.5010193,0.0,0.0,0.0,0.0
165372796,165372715,-0.039251726,-0.017041411,-0.043698173,0.49420616,0.0,0.0,0.0,0.0
165476775,165476671,0.01611543,-0.0035134903,-0.044533968,0.48663157,0.0,0.0,0.0,0.0
165576755,165576677,0.01339183,-0.009445877,-0.020668402,0.48734093,0.0,0.0,0.0,0.0
165680767,165680691,-0.0017041236,0.08432618,0.043797046,0.48788187,0.0,0.0,0.0,0.0
165780795,165780714,0.03461742,-0.041505825,0.02656785,0.48796543,0.0,0.0,0.0,0.0
165880790,165880671,0.033653885,-0.015258512,0.017937675,0.49126658,0.0,0.0,0.0,0.0
165984748,165984671,-0.035175707,0.026100494,0.008417855,0.49282587,0.0,0.0,0.0,0.0
166084749,166084671,-0.013485189,-0.034252994,0.0023550931,0.49519604,0.0,0.0,0.0,0.0
166184767,166184688,0.02550318,0.08361716,-0.0066382815,0.49634144,0.0,0.0,0.0,0.0
166288755,166288677,0.10556472,0.013067254,-0.007804306,0.50200397,0.0,0.0,0.0,0.0
166388752,166388675,-0.05871329,-0.041933116,0.004056086,0.50977564,0.0,0.0,0.0,0.0
166492808,166492687,-0.046058398,-0.080377206,-0.010040337,0.5151482,0.0,0.0,0.0,0.0
166596743,166596671,-0.032786075,-0.064871006,-0.008823319,0.5135287,0.0,0.0,0.0,0.0
166696746,166696672,0.00946003,0.02014888,-0.016101696,0.5047485,0.0,0.0,0.0,0.0
166796756,166796678,0.033250943,-0.036695506,0.01965191,0.5003915,0.0,0.0,0.0,0.0
166900750,166900671,-0.031615436,-0.0010609931,-0.024396976,0.49745062,0.0,0.0,0.0,0.0
167000796,167000677,0.0018814725,0.0037512488,-0.021657053,0.4942893,0.0,0.0,0.0,0.0
167104785,167104671,0.026696466,-0.0055694496,-0.023546351,0.49787736,0.0,0.0,0.0,0.0
167204748,167204671,0.014225631,0.04209111,-0.01942088,0.492902,0.0,0.0,0.0,0.0
167304796,167304712,0.05131918,-0.02791312,-0.017008647,0.49237597,0.0,0.0,0.0,0.0
167408793,167408670,0.08724841,-0.05455816,-0.017314842,0.5041899,0.0,0.0,0.0,0.0
167508751,167508670,-0.039331935,-0.018617684,-0.014966808,0.5207257,0.0,0.0,0.0,0.0
167611979,167611901,-0.03764335,0.07828504,-0.013385981,0.51943,0.0,0.0,0.0,0.0
167712001,167711924,-0.042463776,-0.024852829,-0.01348066,0.51236105,0.0,0.0,0.0,0.0
167812757,167812679,-0.0048176,-0.028242126,-0.012743451,0.50679797,0.0,0.0,0.0,0.0
167913601,167913519,-0.015990008,-0.08098401,-0.01160947,0.5023227,0.0,0.0,0.0,0.0
168017557,168017476,0.007930032,0.060252868,-0.016231155,0.48531958,0.0,0.0,0.0,0.0
168117555,168117477,0.0496974,-0.09812259,-0.010197866,0.48512006,0.0,0.0,0.0,0.0
168221548,168221471,0.04161077,-0.01466541,-0.007738653,0.5121066,0.0,0.0,0.0,0.0
168321548,168321471,-0.049545947,-0.055854835,-0.010199644,0.5128202,0.0,0.0,0.0,0.0
168421559,168421479,0.0064909104,-0.047121238,-0.0077717453,0.5038018,0.0,0.0,0.0,0.0
168525579,168525475,0.040161993,0.066985466,-0.00994923,0.49246445,0.0,0.0,0.0,0.0
168625548,168625471,-0.004409671,0.04116495,-0.0081528425,0.49584818,0.0,0.0,0.0,0.0
168725548,168725471,-0.061492074,-0.050211687,-0.008098418,0.49842775,0.0,0.0,0.0,0.0
168829578,168829493,-0.041882154,-0.03858966,-0.008790224,0.5004148,0.0,0.0,0.0,0.0
168929649,168929497,-0.017917302,-0.03843766,-0.0096152015,0.49920565,0.0,0.0,0.0,0.0
169033601,169033483,-0.017854933,-0.056821924,-0.008064375,0.4968776,0.0,0.0,0.0,0.0
169133559,169133482,-0.028148899,-0.05713837,-0.008874747,0.49781132,0.0,0.0,0.0,0.0
169233559,169233485,0.088010706,0.05658197,-0.009971098,0.5021149,0.0,0.0,0.0,0.0
169337551,169337470,0.10692544,0.020416096,-0.010390677,0.5037081,0.0,0.0,0.0,0.0
169437548,169437471,-0.014025286,-0.06576186,-0.009711145,0.506994,0.0,0.0,0.0,0.0
169537589,169537471,-0.029598394,-0.052187007,-0.011475157,0.50955826,0.0,0.0,0.0,0.0
169641585,169641471,-0.04163833,-0.0046411334,-0.009620454,0.5058524,0.0,0.0,0.0,0.0
169741548,169741471,0.021699313,-0.07106577,-0.0110082645,0.49941152,0.0,0.0,0.0,0.0
169845573,169845495,0.017335745,-0.058476068,-0.010472344,0.49445876,0.0,0.0,0.0,0.0
169945583,169945478,-0.040376134,-0.0023437594,-0.009445477,0.5008664,0.0,0.0,0.0,0.0
170045548,170045471,-0.023321612,-0.05113801,-0.010545181,0.52217734,0.0,0.0,0.0,0.0
170148792,170148709,-0.043806832,0.026186684,-0.011147353,0.518958,0.0,0.0,0.0,0.0
170249599,170249509,-0.050525438,-0.022969691,-0.008918566,0.51340294,0.0,0.0,0.0,0.0
170350388,170350310,-0.04134401,-0.005178158,-0.011475129,0.5098389,0.0,0.0,0.0,0.0
170454357,170454278,-0.07449075,-0.05995767,-0.010814482,0.5106954,0.0,0.0,0.0,0.0
170554349,170554271,-0.06397243,-0.019218257,-0.012120346,0.511043,0.0,0.0,0.0,0.0
170654355,170654271,0.090588346,0.033690013,-0.009888707,0.51399004,0.0,0.0,0.0,0.0
170758348,170758271,0.03596563,-0.03921901,-0.010638549,0.50681454,0.0,0.0,0.0,0.0
170858350,170858271,-0.012311415,-0.048175924,-0.01048652,0.4971557,0.0,0.0,0.0,0.0
170958361,170958284,0.05233426,0.036818907,-0.012172613,0.48405728,0.0,0.0,0.0,0.0
171062413,171062294,0.022856908,0.061667014,-0.011848678,0.48813954,0.0,0.0,0.0,0.0
171162352,171162270,0.079643555,-0.043706317,-0.00677746,0.49381632,0.0,0.0,0.0,0.0
171266348,171266271,0.099887535,0.0029425882,-0.0035457388,0.50413585,0.0,0.0,0.0,0.0
171370348,171370270,0.037402425,0.02651575,-0.009133158,0.51669824,0.0,0.0,0.0,0.0
171470348,171470271,0.025652202,0.0031061785,-0.008050548,0.50341445,0.0,0.0,0.0,0.0
171574372,171574294,0.005830964,-0.02547873,-0.00522188,0.49115607,0.0,0.0,0.0,0.0
171674418,171674277,-0.029153416,-0.050723087,-0.0069716284,0.4883563,0.0,0.0,0.0,0.0
171774361,171774277,0.09647983,0.061080184,-0.0081763435,0.4922192,0.0,0.0,0.0,0.0
171878348,171878271,0.03601721,0.039062474,-0.0071387608,0.50243413,0.0,0.0,0.0,0.0
171978373,171978294,-0.0887763,-0.06901793,-0.006135082,0.50418997,0.0,0.0,0.0,0.0
172082341,172082271,-0.037055463,-0.050834734,-0.0075364364,0.5087464,0.0,0.0,0.0,0.0
172186377,172186272,-0.030457381,-0.04123161,-0.007565103,0.5068181,0.0,0.0,0.0,0.0
172286348,172286271,-0.04003544,-0.028217826,-0.009335428,0.49513826,0.0,0.0,0.0,0.0
172386361,172386277,-0.013380745,-0.022931952,-0.011043357,0.49223828,0.0,0.0,0.0,0.0
172490353,172490275,-0.033727765,-0.05808659,-0.010943452,0.49082962,0.0,0.0,0.0,0.0
172590390,172590270,0.032135475,0.026967123,-0.011004482,0.4945444,0.0,0.0,0.0,0.0
172694350,172694271,0.045496117,0.0069084573,-0.011644735,0.4946754,0.0,0.0,0.0,0.0
172793621,172793503,-0.002556199,0.03633248,-0.0118535785,0.49422196,0.0,0.0,0.0,0.0
172895167,172895089,0.05909422,-0.03156708,-0.011228092,0.4958153,0.0,0.0,0.0,0.0
172998385,172998271,0.06582294,-0.06005599,-0.012339206,0.5054702,0.0,0.0,0.0,0.0
173098381,173098303,-0.027116243,-0.06413513,-0.008358701,0.5213848,0.0,0.0,0.0,0.0
173199168,173199084,0.072924085,-0.028119657,-0.011303653,0.5196909,0.0,0.0,0.0,0.0
173303193,173303071,0.004937328,0.067816526,-0.0098361075,0.5064514,0.0,0.0,0.0,0.0
173403151,173403078,0.04657625,0.020587994,-0.011170249,0.50042534,0.0,0.0,0.0,0.0
173503167,173503078,0.059133586,-0.034680363,-0.012401726,0.50494266,0.0,0.0,0.0,0.0
173607207,173607116,0.049765907,0.028035667,-0.011017724,0.5057286,0.0,0.0,0.0,0.0
173707228,173707070,0.029237974,-0.010563355,-0.0144715365,0.5051575,0.0,0.0,0.0,0.0
173811203,173811115,-0.014887173,0.001946264,-0.013258543,0.52214086,0.0,0.0,0.0,0.0
173911166,173911093,0.020577528,0.0306628,-0.013877728,0.5139068,0.0,0.0,0.0,0.0
174011169,174011089,0.07016969,0.060604904,-0.014999688,0.5109933,0.0,0.0,0.0,0.0
174115158,174115077,-0.031189164,-0.08592764,-0.011557431,0.50249565,0.0,0.0,0.0,0.0
174215157,174215077,0.019650815,-0.01862645,-0.012231448,0.5008717,0.0,0.0,0.0,0.0
174315205,174315110,0.089292854,0.0020508007,-0.012378748,0.49486116,0.0,0.0,0.0,0.0
174419156,174419075,0.0331796,0.043079834,-0.012975448,0.50583977,0.0,0.0,0.0,0.0
174519151,174519077,0.058469605,-0.0116731,-0.012073274,0.5072698,0.0,0.0,0.0,0.0
174623174,174623082,0.029622817,0.081957616,-0.012533325,0.5018662,0.0,0.0,0.0,0.0
