timestamp,x,y,z,r,flaps,aux1,aux2,aux3,aux4,aux5,aux6,mode_switch,return_switch,rattitude_switch,posctl_switch,loiter_switch,acro_switch,offboard_switch,kill_switch,arm_switch,transition_switch,gear_switch,mode_slot,data_source,stab_switch,man_switch
100962963,0.0,0.0,0.49705243,0.0,0.0,0.0,0.0,0.0,0.0,0.0,0.0,0,0,0,0,0,0,0,3,3,0,0,3,1,0,0
101159136,0.0,0.0,0.49643242,0.0,0.0,0.0,0.0,0.0,0.0,0.0,0.0,0,0,0,0,0,0,0,3,3,0,0,3,1,0,0
101362784,0.0,0.0,0.49503976,0.0,0.0,0.0,0.0,0.0,0.0,0.0,0.0,0,0,0,0,0,0,0,3,3,0,0,3,1,0,0
101583011,0.0,0.0,0.49742493,0.0,0.0,0.0,0.0,0.0,0.0,0.0,0.0,0,0,0,0,0,0,0,3,3,0,0,3,1,0,0
101771198,0.0,0.0,0.49614558,0.0,0.0,0.0,0.0,0.0,0.0,0.0,0.0,0,0,0,0,0,0,0,3,3,0,0,3,1,0,0
101970764,0.0,0.0,0.49726146,0.0,0.0,0.0,0.0,0.0,0.0,0.0,0.0,0,0,0,0,0,0,0,3,3,0,0,3,1,0,0
102167934,0.0,0.0,0.49613327,0.0,0.0,0.0,0.0,0.0,0.0,0.0,0.0,0,0,0,0,0,0,0,3,3,0,0,3,1,0,0
102383934,0.0,0.0,0.49627772,0.0,0.0,0.0,0.0,0.0,0.0,0.0,0.0,0,0,0,0,0,0,0,3,3,0,0,3,1,0,0
102587752,0.0,0.0,0.49686718,0.0,0.0,0.0,0.0,0.0,0.0,0.0,0.0,0,0,0,0,0,0,0,3,3,0,0,3,1,0,0
102787606,0.0,0.0,0.4971267,0.0,0.0,0.0,0.0,0.0,0.0,0.0,0.0,0,0,0,0,0,0,0,3,3,0,0,3,1,0,0
102995976,0.0,0.0,0.49720144,0.0,0.0,0.0,0.0,0.0,0.0,0.0,0.0,0,0,0,0,0,0,0,3,3,0,0,3,1,0,0
103191774,0.0,0.0,0.49672905,0.0,0.0,0.0,0.0,0.0,0.0,0.0,0.0,0,0,0,0,0,0,0,3,3,0,0,3,1,0,0
103391958,0.0,0.0,0.49658835,0.0,0.0,0.0,0.0,0.0,0.0,0.0,0.0,0,0,0,0,0,0,0,3,3,0,0,3,1,0,0
103583559,0.0,0.0,0.49752608,0.0,0.0,0.0,0.0,0.0,0.0,0.0,0.0,0,0,0,0,0,0,0,3,3,0,0,3,1,0,0
103800457,0.0,0.0,0.49614,0.0,0.0,0.0,0.0,0.0,0.0,0.0,0.0,0,0,0,0,0,0,0,3,3,0,0,3,1,0,0
103996465,0.0,0.0,0.49616838,0.0,0.0,0.0,0.0,0.0,0.0,0.0,0.0,0,0,0,0,0,0,0,3,3,0,0,3,1,0,0
104192337,0.0,0.0,0.4975722,0.0,0.0,0.0,0.0,0.0,0.0,0.0,0.0,0,0,0,0,0,0,0,3,3,0,0,3,1,0,0
104396781,0.0,0.0,0.49746832,0.0,0.0,0.0,0.0,0.0,0.0,0.0,0.0,0,0,0,0,0,0,0,3,3,0,0,3,1,0,0
104600533,0.0,0.0,0.49746835,0.0,0.0,0.0,0.0,0.0,0.0,0.0,0.0,0,0,0,0,0,0,0,3,3,0,0,3,1,0,0
104816349,0.0,0.0,0.49715632,0.0,0.0,0.0,0.0,0.0,0.0,0.0,0.0,0,0,0,0,0,0,0,3,3,0,0,3,1,0,0
105012348,0.0,0.0,0.49658906,0.0,0.0,0.0,0.0,0.0,0.0,0.0,0.0,0,0,0,0,0,0,0,3,3,0,0,3,1,0,0
105213170,0.0,0.0,0.496245,0.0,0.0,0.0,0.0,0.0,0.0,0.0,0.0,0,0,0,0,0,0,0,3,3,0,0,3,1,0,0
105417197,0.0,0.0,0.49719897,0.0,0.0,0.0,0.0,0.0,0.0,0.0,0.0,0,0,0,0,0,0,0,3,3,0,0,3,1,0,0
105625166,0.0,0.0,0.49704495,0.0,0.0,0.0,0.0,0.0,0.0,0.0,0.0,0,0,0,0,0,0,0,3,3,0,0,3,1,0,0
105821178,0.0,0.0,0.49616936,0.0,0.0,0.0,0.0,0.0,0.0,0.0,0.0,0,0,0,0,0,0,0,3,3,0,0,3,1,0,0
106021180,0.0,0.0,0.4975229,0.0,0.0,0.0,0.0,0.0,0.0,0.0,0.0,0,0,0,0,0,0,0,3,3,0,0,3,1,0,0
106233396,0.0,0.0,0.4975354,0.0,0.0,0.0,0.0,0.0,0.0,0.0,0.0,0,0,0,0,0,0,0,3,3,0,0,3,1,0,0
106433168,0.0,0.0,0.49684873,0.0,0.0,0.0,0.0,0.0,0.0,0.0,0.0,0,0,0,0,0,0,0,3,3,0,0,3,1,0,0
106633999,0.0,0.0,0.49746782,0.0,0.0,0.0,0.0,0.0,0.0,0.0,0.0,0,0,0,0,0,0,0,3,3,0,0,3,1,0,0
106829996,0.0,0.0,0.5123415,0.0,0.0,0.0,0.0,0.0,0.0,0.0,0.0,0,0,0,0,0,0,0,3,3,0,0,3,1,0,0
107034019,0.0,0.0,0.57372916,0.0,0.0,0.0,0.0,0.0,0.0,0.0,0.0,0,0,0,0,0,0,0,3,3,0,0,3,1,0,0
107234347,0.0,0.0,0.5837605,0.0,0.0,0.0,0.0,0.0,0.0,0.0,0.0,0,0,0,0,0,0,0,3,3,0,0,3,1,0,0
107453977,0.0,0.0,0.6135023,0.0,0.0,0.0,0.0,0.0,0.0,0.0,0.0,0,0,0,0,0,0,0,3,3,0,0,3,1,0,0
107646011,0.0,0.0,0.60842353,0.0,0.0,0.0,0.0,0.0,0.0,0.0,0.0,0,0,0,0,0,0,0,3,3,0,0,3,1,0,0
107842060,0.0,0.0,0.4972842,0.0,0.0,0.0,0.0,0.0,0.0,0.0,0.0,0,0,0,0,0,0,0,3,3,0,0,3,1,0,0
108062354,0.0,0.0,0.6462804,0.0,0.0,0.0,0.0,0.0,0.0,0.0,0.0,0,0,0,0,0,0,0,3,3,0,0,3,1,0,0
108266744,0.0,0.0,0.69312656,0.0,0.0,0.0,0.0,0.0,0.0,0.0,0.0,0,0,0,0,0,0,0,3,3,0,0,3,1,0,0
108466998,0.0,0.0,0.5082784,0.0,0.0,0.0,0.0,0.0,0.0,0.0,0.0,0,0,0,0,0,0,0,3,3,0,0,3,1,0,0
108666771,0.0,0.0,0.49746326,0.0,0.0,0.0,0.0,0.0,0.0,0.0,0.0,0,0,0,0,0,0,0,3,3,0,0,3,1,0,0
108862958,0.0,0.0,0.49698812,0.0,0.0,0.0,0.0,0.0,0.0,0.0,0.0,0,0,0,0,0,0,0,3,3,0,0,3,1,0,0
109062781,0.0,0.0,0.49745888,0.0,0.0,0.0,0.0,0.0,0.0,0.0,0.0,0,0,0,0,0,0,0,3,3,0,0,3,1,0,0
109258786,0.0,0.0,0.4913467,0.0,0.0,0.0,0.0,0.0,0.0,0.0,0.0,0,0,0,0,0,0,0,3,3,0,0,3,1,0,0
109470802,0.0,0.0,0.3672255,0.0,0.0,0.0,0.0,0.0,0.0,0.0,0.0,0,0,0,0,0,0,0,3,3,0,0,3,1,0,0
109678849,0.0,0.0,0.32236832,0.0,0.0,0.0,0.0,0.0,0.0,0.0,0.0,0,0,0,0,0,0,0,3,3,0,0,3,1,0,0
109884363,0.0,0.0,0.39323634,0.0,0.0,0.0,0.0,0.0,0.0,0.0,0.0,0,0,0,0,0,0,0,3,3,0,0,3,1,0,0
110087770,0.0,0.0,0.48853305,0.0,0.0,0.0,0.0,0.0,0.0,0.0,0.0,0,0,0,0,0,0,0,3,3,0,0,3,1,0,0
110287549,0.0,0.0,0.49366263,0.0,0.0,0.0,0.0,0.0,0.0,0.0,0.0,0,0,0,0,0,0,0,3,3,0,0,3,1,0,0
110483758,0.0,0.0,0.49367568,0.0,0.0,0.0,0.0,0.0,0.0,0.0,0.0,0,0,0,0,0,0,0,3,3,0,0,3,1,0,0
110691754,0.0,0.0,0.49319068,0.0,0.0,0.0,0.0,0.0,0.0,0.0,0.0,0,0,0,0,0,0,0,3,3,0,0,3,1,0,0
110883671,0.0,0.0,0.49367097,0.0,0.0,0.0,0.0,0.0,0.0,0.0,0.0,0,0,0,0,0,0,0,3,3,0,0,3,1,0,0
111099808,0.0,0.0,0.49587104,0.0,0.0,0.0,0.0,0.0,0.0,0.0,0.0,0,0,0,0,0,0,0,3,3,0,0,3,1,0,0
111291557,0.0,0.0,0.5324596,0.0,0.0,0.0,0.0,0.0,0.0,0.0,0.0,0,0,0,0,0,0,0,3,3,0,0,3,1,0,0
111494996,0.0,0.0,0.57365793,0.0,0.0,0.0,0.0,0.0,0.0,0.0,0.0,0,0,0,0,0,0,0,3,3,0,0,3,1,0,0
111696742,0.0,0.0,0.58737224,0.0,0.0,0.0,0.0,0.0,0.0,0.0,0.0,0,0,0,0,0,0,0,3,3,0,0,3,1,0,0
111904541,0.0,0.0,0.5445433,0.0,0.0,0.0,0.0,0.0,0.0,0.0,0.0,0,0,0,0,0,0,0,3,3,0,0,3,1,0,0
112096376,0.0,0.0,0.5029149,0.0,0.0,0.0,0.0,0.0,0.0,0.0,0.0,0,0,0,0,0,0,0,3,3,0,0,3,1,0,0
112316586,0.0,0.0,0.54024196,0.0,0.0,0.0,0.0,0.0,0.0,0.0,0.0,0,0,0,0,0,0,0,3,3,0,0,3,1,0,0
112496570,0.0,0.0,0.57024163,0.0,0.0,0.0,0.0,0.0,0.0,0.0,0.0,0,0,0,0,0,0,0,3,3,0,0,3,1,0,0
112708412,0.0,0.0,0.57065713,0.0,0.0,0.0,0.0,0.0,0.0,0.0,0.0,0,0,0,0,0,0,0,3,3,0,0,3,1,0,0
112904369,0.0,0.0,0.5705917,0.0,0.0,0.0,0.0,0.0,0.0,0.0,0.0,0,0,0,0,0,0,0,3,3,0,0,3,1,0,0
113108344,0.0,0.0,0.55191827,0.0,0.0,0.0,0.0,0.0,0.0,0.0,0.0,0,0,0,0,0,0,0,3,3,0,0,3,1,0,0
113317558,0.019576723,0.005299876,0.54881406,0.0,0.0,0.0,0.0,0.0,0.0,0.0,0.0,0,0,0,0,0,0,0,3,3,0,0,3,1,0,0
113513445,0.12561652,0.27673343,0.54282415,0.0,0.0,0.0,0.0,0.0,0.0,0.0,0.0,0,0,0,0,0,0,0,3,3,0,0,3,1,0,0
113725142,0.1594499,0.4045729,0.55415004,0.0,0.0,0.0,0.0,0.0,0.0,0.0,0.0,0,0,0,0,0,0,0,3,3,0,0,3,1,0,0
113925267,0.0015412931,-0.00047706283,0.5506445,0.0,0.0,0.0,0.0,0.0,0.0,0.0,0.0,0,0,0,0,0,0,0,3,3,0,0,3,1,0,0
114129387,-1.3103265e-06,-1.0089357e-06,0.55337614,0.0,0.0,0.0,0.0,0.0,0.0,0.0,0.0,0,0,0,0,0,0,0,3,3,0,0,3,1,0,0
114341400,-0.10167248,-0.012889821,0.53801715,0.0,0.0,0.0,0.0,0.0,0.0,0.0,0.0,0,0,0,0,0,0,0,3,3,0,0,3,1,0,0
114545196,-0.32688564,-0.17679827,0.5339425,0.0,0.0,0.0,0.0,0.0,0.0,0.0,0.0,0,0,0,0,0,0,0,3,3,0,0,3,1,0,0
114746016,-0.33801758,-0.08522721,0.53167146,0.0,0.0,0.0,0.0,0.0,0.0,0.0,0.0,0,0,0,0,0,0,0,3,3,0,0,3,1,0,0
114934220,-0.0013888214,-0.00030259357,0.53164613,0.0,0.0,0.0,0.0,0.0,0.0,0.0,0.0,0,0,0,0,0,0,0,3,3,0,0,3,1,0,0
115134058,1.1471564e-06,1.8427647e-07,0.5286771,0.0,0.0,0.0,0.0,0.0,0.0,0.0,0.0,0,0,0,0,0,0,0,3,3,0,0,3,1,0,0
115353987,1.7806126e-10,4.705082e-11,0.5146859,0.040699016,0.0,0.0,0.0,0.0,0.0,0.0,0.0,0,0,0,0,0,0,0,3,3,0,0,3,1,0,0
115550340,-2.1426816e-13,-3.864991e-14,0.50749475,0.2105069,0.0,0.0,0.0,0.0,0.0,0.0,0.0,0,0,0,0,0,0,0,3,3,0,0,3,1,0,0
115745936,1.1159024e-16,1.380836e-17,0.50759494,0.16807108,0.0,0.0,0.0,0.0,0.0,0.0,0.0,0,0,0,0,0,0,0,3,3,0,0,3,1,0,0
115950194,-6.6727796e-21,4.311233e-21,0.5312619,-0.0060625877,0.0,0.0,0.0,0.0,0.0,0.0,0.0,0,0,0,0,0,0,0,3,3,0,0,3,1,0,0
116150167,-4.1411578e-23,-9.6065746e-24,0.5143218,0.050631497,0.0,0.0,0.0,0.0,0.0,0.0,0.0,0,0,0,0,0,0,0,3,3,0,0,3,1,0,0
116770899,-6.970508e-33,-1.3135504e-33,0.56187624,-0.3268011,0.0,0.0,0.0,0.0,0.0,0.0,0.0,0,0,0,0,0,0,0,3,3,0,0,3,1,0,0
116962758,4.0876704e-36,5.5149435e-37,0.57243866,-0.44331577,0.0,0.0,0.0,0.0,0.0,0.0,0.0,0,0,0,0,0,0,0,3,3,0,0,3,1,0,0
117166944,1.103632e-39,2.3548e-40,0.5831245,-0.4658953,0.0,0.0,0.0,0.0,0.0,0.0,0.0,0,0,0,0,0,0,0,3,3,0,0,3,1,0,0
117358739,-8.72e-43,-1.37e-43,0.5736824,-0.34163773,0.0,0.0,0.0,0.0,0.0,0.0,0.0,0,0,0,0,0,0,0,3,3,0,0,3,1,0,0
117571129,0.0,0.0,0.5732613,-0.32573634,0.0,0.0,0.0,0.0,0.0,0.0,0.0,0,0,0,0,0,0,0,3,3,0,0,3,1,0,0
117774872,0.0,0.0,0.5735101,-0.3260578,0.0,0.0,0.0,0.0,0.0,0.0,0.0,0,0,0,0,0,0,0,3,3,0,0,3,1,0,0
117974779,0.0,0.0,0.58265465,-0.39757094,0.0,0.0,0.0,0.0,0.0,0.0,0.0,0,0,0,0,0,0,0,3,3,0,0,3,1,0,0
118175946,0.0,0.0,0.58579284,-0.39302826,0.0,0.0,0.0,0.0,0.0,0.0,0.0,0,0,0,0,0,0,0,3,3,0,0,3,1,0,0
118371617,0.0,0.0,0.5877279,-0.38280916,0.0,0.0,0.0,0.0,0.0,0.0,0.0,0,0,0,0,0,0,0,3,3,0,0,3,1,0,0
118583548,0.0,0.0,0.59834874,-0.4407582,0.0,0.0,0.0,0.0,0.0,0.0,0.0,0,0,0,0,0,0,0,3,3,0,0,3,1,0,0
118783572,0.0,0.0,0.5962283,-0.39883503,0.0,0.0,0.0,0.0,0.0,0.0,0.0,0,0,0,0,0,0,0,3,3,0,0,3,1,0,0
118999637,0.0,0.0,0.5954156,-0.3815041,0.0,0.0,0.0,0.0,0.0,0.0,0.0,0,0,0,0,0,0,0,3,3,0,0,3,1,0,0
119207767,0.0,0.0,0.5836471,-0.27635723,0.0,0.0,0.0,0.0,0.0,0.0,0.0,0,0,0,0,0,0,0,3,3,0,0,3,1,0,0
119407731,0.0,0.0,0.5506427,0.0051677558,0.0,0.0,0.0,0.0,0.0,0.0,0.0,0,0,0,0,0,0,0,3,3,0,0,3,1,0,0
119587657,0.0,0.0,0.5359097,-2.6986509e-06,0.0,0.0,0.0,0.0,0.0,0.0,0.0,0,0,0,0,0,0,0,3,3,0,0,3,1,0,0
119808346,0.0,0.0,0.5199756,4.1304236e-09,0.0,0.0,0.0,0.0,0.0,0.0,0.0,0,0,0,0,0,0,0,3,3,0,0,3,1,0,0
120004372,0.0,0.0,0.5162535,-5.3918827e-13,0.0,0.0,0.0,0.0,0.0,0.0,0.0,0,0,0,0,0,0,0,3,3,0,0,3,1,0,0
120208456,0.0,0.0,0.5071995,0.018689064,0.0,0.0,0.0,0.0,0.0,0.0,0.0,0,0,0,0,0,0,0,3,3,0,0,3,1,0,0
120412547,0.0,0.0,0.4974127,0.19765468,0.0,0.0,0.0,0.0,0.0,0.0,0.0,0,0,0,0,0,0,0,3,3,0,0,3,1,0,0
120608368,0.0,0.0,0.49957547,0.16428648,0.0,0.0,0.0,0.0,0.0,0.0,0.0,0,0,0,0,0,0,0,3,3,0,0,3,1,0,0
120808589,0.0,0.0,0.5073142,-0.005992999,0.0,0.0,0.0,0.0,0.0,0.0,0.0,0,0,0,0,0,0,0,3,3,0,0,3,1,0,0
121008344,0.0,0.0,0.49698994,5.1097372e-06,0.0,0.0,0.0,0.0,0.0,0.0,0.0,0,0,0,0,0,0,0,3,3,0,0,3,1,0,0
121212606,0.0,0.0,0.49746716,-1.921792e-09,0.0,0.0,0.0,0.0,0.0,0.0,0.0,0,0,0,0,0,0,0,3,3,0,0,3,1,0,0
121432377,0.0,0.0,0.4946064,0.035218302,0.0,0.0,0.0,0.0,0.0,0.0,0.0,0,0,0,0,0,0,0,3,3,0,0,3,1,0,0
121629530,0.0,0.0,0.4864875,-0.07873504,0.0,0.0,0.0,0.0,0.0,0.0,0.0,0,0,0,0,0,0,0,3,3,0,0,3,1,0,0
121829169,0.0,0.0,0.49418905,-0.30331835,0.0,0.0,0.0,0.0,0.0,0.0,0.0,0,0,0,0,0,0,0,3,3,0,0,3,1,0,0
122033282,0.0,0.0,0.50003123,-0.43850386,0.0,0.0,0.0,0.0,0.0,0.0,0.0,0,0,0,0,0,0,0,3,3,0,0,3,1,0,0
122229177,0.0,0.0,0.4949357,-0.33091852,0.0,0.0,0.0,0.0,0.0,0.0,0.0,0,0,0,0,0,0,0,3,3,0,0,3,1,0,0
122425263,0.0,0.0,0.4949283,-0.26419613,0.0,0.0,0.0,0.0,0.0,0.0,0.0,0,0,0,0,0,0,0,3,3,0,0,3,1,0,0
122637543,0.0,0.0,0.49369755,-0.00064833026,0.0,0.0,0.0,0.0,0.0,0.0,0.0,0,0,0,0,0,0,0,3,3,0,0,3,1,0,0
122845254,-0.17986755,-0.028575819,0.494937,-1.4695644e-07,0.0,0.0,0.0,0.0,0.0,0.0,0.0,0,0,0,0,0,0,0,3,3,0,0,3,1,0,0
123033546,-0.33791566,-0.047878463,0.49493673,1.3171918e-10,0.0,0.0,0.0,0.0,0.0,0.0,0.0,0,0,0,0,0,0,0,3,3,0,0,3,1,0,0
123250423,-0.28797683,-0.007897084,0.49497092,1.754212e-14,0.0,0.0,0.0,0.0,0.0,0.0,0.0,0,0,0,0,0,0,0,3,3,0,0,3,1,0,0
123446153,0.00020736887,-2.617331e-06,0.4949367,-2.3936987e-17,0.0,0.0,0.0,0.0,0.0,0.0,0.0,0,0,0,0,0,0,0,3,3,0,0,3,1,0,0
123661992,-4.341614e-08,2.161598e-09,0.4949372,-1.0613652e-21,0.0,0.0,0.0,0.0,0.0,0.0,0.0,0,0,0,0,0,0,0,3,3,0,0,3,1,0,0
123853981,-0.024818266,0.32105282,0.49493673,3.8623545e-24,0.0,0.0,0.0,0.0,0.0,0.0,0.0,0,0,0,0,0,0,0,3,3,0,0,3,1,0,0
124058170,-0.016943665,0.46924183,0.49449748,-2.9208486e-27,0.0,0.0,0.0,0.0,0.0,0.0,0.0,0,0,0,0,0,0,0,3,3,0,0,3,1,0,0
124262168,2.1293442e-06,0.5157235,0.49493685,9.13733e-31,0.0,0.0,0.0,0.0,0.0,0.0,0.0,0,0,0,0,0,0,0,3,3,0,0,3,1,0,0
124466060,-1.6052406e-08,0.47143766,0.4949697,4.3905793e-34,0.0,0.0,0.0,0.0,0.0,0.0,0.0,0,0,0,0,0,0,0,3,3,0,0,3,1,0,0
124661954,1.310524e-11,0.45914727,0.49504182,-7.698656e-37,0.0,0.0,0.0,0.0,0.0,0.0,0.0,0,0,0,0,0,0,0,3,3,0,0,3,1,0,0
124858172,-4.640334e-15,0.06462735,0.49493662,4.85902e-40,0.0,0.0,0.0,0.0,0.0,0.0,0.0,0,0,0,0,0,0,0,3,3,0,0,3,1,0,0
125058164,-1.4982571e-18,-1.1490884e-05,0.49493426,-9.8e-44,0.0,0.0,0.0,0.0,0.0,0.0,0.0,0,0,0,0,0,0,0,3,3,0,0,3,1,0,0
125262969,3.2714672e-21,-4.5680277e-08,0.49492952,0.0,0.0,0.0,0.0,0.0,0.0,0.0,0.0,0,0,0,0,0,0,0,3,3,0,0,3,1,0,0
125483157,-6.3611525e-26,8.409409e-12,0.49445647,0.0,0.0,0.0,0.0,0.0,0.0,0.0,0.0,0,0,0,0,0,0,0,3,3,0,0,3,1,0,0
125674855,-4.800159e-28,4.9778182e-15,0.49514696,0.0,0.0,0.0,0.0,0.0,0.0,0.0,0.0,0,0,0,0,0,0,0,3,3,0,0,3,1,0,0
125870860,4.4576415e-31,-7.902937e-18,0.49493656,0.0,0.0,0.0,0.0,0.0,0.0,0.0,0.0,0,0,0,0,0,0,0,3,3,0,0,3,1,0,0
126095133,5.534823e-35,-1.6156766e-22,0.49493548,0.0,0.0,0.0,0.0,0.0,0.0,0.0,0.0,0,0,0,0,0,0,0,3,3,0,0,3,1,0,0
126286763,-0.2597354,-0.0025898318,0.49493673,0.0,0.0,0.0,0.0,0.0,0.0,0.0,0.0,0,0,0,0,0,0,0,3,3,0,0,3,1,0,0
126498747,-0.28377113,5.9944045e-07,0.49467525,0.0,0.0,0.0,0.0,0.0,0.0,0.0,0.0,0,0,0,0,0,0,0,3,3,0,0,3,1,0,0
126690973,-0.29019475,2.5408525e-10,0.49493483,0.0,0.0,0.0,0.0,0.0,0.0,0.0,0.0,0,0,0,0,0,0,0,3,3,0,0,3,1,0,0
126906790,0.010721188,-1.7104592e-13,0.4949372,0.0,0.0,0.0,0.0,0.0,0.0,0.0,0.0,0,0,0,0,0,0,0,3,3,0,0,3,1,0,0
127103965,-1.9683572e-05,8.098738e-19,0.49445647,0.0,0.0,0.0,0.0,0.0,0.0,0.0,0.0,0,0,0,0,0,0,0,3,3,0,0,3,1,0,0
127307566,1.2636863e-08,7.169366e-20,0.49700993,0.0,0.0,0.0,0.0,0.0,0.0,0.0,0.0,0,0,0,0,0,0,0,3,3,0,0,3,1,0,0
127511693,-2.694652e-12,-6.289922e-23,0.52930325,0.0,0.0,0.0,0.0,0.0,0.0,0.0,0.0,0,0,0,0,0,0,0,3,3,0,0,3,1,0,0
127715923,-2.9977106e-15,2.4536306e-26,0.5475067,0.0,0.0,0.0,0.0,0.0,0.0,0.0,0.0,0,0,0,0,0,0,0,3,3,0,0,3,1,0,0
127915692,3.7562495e-18,5.2147984e-30,0.56188107,0.0,0.0,0.0,0.0,0.0,0.0,0.0,0.0,0,0,0,0,0,0,0,3,3,0,0,3,1,0,0
128107577,-2.0086502e-21,-1.4935909e-32,0.5795502,0.0,0.0,0.0,0.0,0.0,0.0,0.0,0.0,0,0,0,0,0,0,0,3,3,0,0,3,1,0,0
128307578,1.6270517e-25,1.0825031e-35,0.593007,0.0,0.0,0.0,0.0,0.0,0.0,0.0,0.0,0,0,0,0,0,0,0,3,3,0,0,3,1,0,0
128511576,7.082529e-28,-3.123323e-39,0.5999964,0.0,0.0,0.0,0.0,0.0,0.0,0.0,0.0,0,0,0,0,0,0,0,3,3,0,0,3,1,0,0
128730834,0.0031699047,-2.119e-42,0.56520593,0.0,0.0,0.0,0.0,0.0,0.0,0.0,0.0,0,0,0,0,0,0,0,3,3,0,0,3,1,0,0
128928366,0.15340653,1e-45,0.53274095,0.0,0.0,0.0,0.0,0.0,0.0,0.0,0.0,0,0,0,0,0,0,0,3,3,0,0,3,1,0,0
129136389,0.16818097,0.0,0.5303791,0.0,0.0,0.0,0.0,0.0,0.0,0.0,0.0,0,0,0,0,0,0,0,3,3,0,0,3,1,0,0
129332717,0.18886334,0.0,0.5292286,0.0,0.0,0.0,0.0,0.0,0.0,0.0,0.0,0,0,0,0,0,0,0,3,3,0,0,3,1,0,0
129540350,0.1894309,0.0,0.5277526,0.0,0.0,0.0,0.0,0.0,0.0,0.0,0.0,0,0,0,0,0,0,0,3,3,0,0,3,1,0,0
129744372,0.20935042,0.0,0.5248105,0.0,0.0,0.0,0.0,0.0,0.0,0.0,0.0,0,0,0,0,0,0,0,3,3,0,0,3,1,0,0
129944721,0.18722278,0.0,0.5231139,0.0,0.0,0.0,0.0,0.0,0.0,0.0,0.0,0,0,0,0,0,0,0,3,3,0,0,3,1,0,0
130140378,0.15598905,0.0,0.52278495,0.0,0.0,0.0,0.0,0.0,0.0,0.0,0.0,0,0,0,0,0,0,0,3,3,0,0,3,1,0,0
130340749,-0.0007345197,0.0,0.52255327,0.0,0.0,0.0,0.0,0.0,0.0,0.0,0.0,0,0,0,0,0,0,0,3,3,0,0,3,1,0,0
130544384,-0.0015896773,0.0,0.5164597,0.0,0.0,0.0,0.0,0.0,0.0,0.0,0.0,0,0,0,0,0,0,0,3,3,0,0,3,1,0,0
130746969,-0.26534808,0.0,0.5087543,0.0,0.0,0.0,0.0,0.0,0.0,0.0,0.0,0,0,0,0,0,0,0,3,3,0,0,3,1,0,0
130953280,-0.27988666,0.00027099237,0.5088609,0.0,0.0,0.0,0.0,0.0,0.0,0.0,0.0,0,0,0,0,0,0,0,3,3,0,0,3,1,0,0
131141147,-0.21594916,7.14051e-05,0.5079797,0.0,0.0,0.0,0.0,0.0,0.0,0.0,0.0,0,0,0,0,0,0,0,3,3,0,0,3,1,0,0
131353528,9.890858e-05,1.8452397e-08,0.50756925,0.0,0.0,0.0,0.0,0.0,0.0,0.0,0.0,0,0,0,0,0,0,0,3,3,0,0,3,1,0,0
131557350,-3.419348e-08,-1.5027028e-11,0.49876297,0.0,0.0,0.0,0.0,0.0,0.0,0.0,0.0,0,0,0,0,0,0,0,3,3,0,0,3,1,0,0
131753149,-1.2030458e-11,5.3013243e-15,0.4978447,0.070484735,0.0,0.0,0.0,0.0,0.0,0.0,0.0,0,0,0,0,0,0,0,3,3,0,0,3,1,0,0
131965342,9.447191e-15,-0.013175029,0.4974379,0.20141046,0.0,0.0,0.0,0.0,0.0,0.0,0.0,0,0,0,0,0,0,0,3,3,0,0,3,1,0,0
132169380,-3.4758305e-19,0.0006772227,0.521897,0.014195368,0.0,0.0,0.0,0.0,0.0,0.0,0.0,0,0,0,0,0,0,0,3,3,0,0,3,1,0,0
132373150,-3.695524e-21,-1.998283e-07,0.51599705,-0.059241477,0.0,0.0,0.0,0.0,0.0,0.0,0.0,0,0,0,0,0,0,0,3,3,0,0,3,1,0,0
132574017,3.37166e-24,-1.1229439e-10,0.50367147,-0.00016927878,0.0,0.0,0.0,0.0,0.0,0.0,0.0,0,0,0,0,0,0,0,3,3,0,0,3,1,0,0
132774014,-1.3777051e-27,1.8256598e-13,0.5130286,-0.029985216,0.0,0.0,0.0,0.0,0.0,0.0,0.0,0,0,0,0,0,0,0,3,3,0,0,3,1,0,0
132966319,-2.2503803e-31,-1.1176624e-16,0.5218787,-0.19944285,0.0,0.0,0.0,0.0,0.0,0.0,0.0,0,0,0,0,0,0,0,3,3,0,0,3,1,0,0
133170210,7.795124e-34,2.0245244e-20,0.5396213,-0.31096995,0.0,0.0,0.0,0.0,0.0,0.0,0.0,0,0,0,0,0,0,0,3,3,0,0,3,1,0,0
133369986,-5.8491054e-37,2.9643402e-23,0.50015336,0.002565484,0.0,0.0,0.0,0.0,0.0,0.0,0.0,0,0,0,0,0,0,0,3,3,0,0,3,1,0,0
133573986,1.80413e-40,-3.4434808e-26,0.49757338,9.4862315e-07,0.0,0.0,0.0,0.0,0.0,0.0,0.0,0,0,0,0,0,0,0,3,3,0,0,3,1,0,0
133785958,1.14e-43,-2.549735e-30,0.49746838,-7.1459094e-10,0.0,0.0,0.0,0.0,0.0,0.0,0.0,0,0,0,0,0,0,0,3,3,0,0,3,1,0,0
133970155,0.0,-6.9293105e-34,0.49750257,1.2682171e-12,0.0,0.0,0.0,0.0,0.0,0.0,0.0,0,0,0,0,0,0,0,3,3,0,0,3,1,0,0
134178059,0.0,-6.802224e-36,0.4895345,0.28904048,0.0,0.0,0.0,0.0,0.0,0.0,0.0,0,0,0,0,0,0,0,3,3,0,0,3,1,0,0
134378179,0.0,-0.02299851,0.49488637,0.32208502,0.0,0.0,0.0,0.0,0.0,0.0,0.0,0,0,0,0,0,0,0,3,3,0,0,3,1,0,0
134594944,0.0,1.7217175e-05,0.49519813,0.29405883,0.0,0.0,0.0,0.0,0.0,0.0,0.0,0,0,0,0,0,0,0,3,3,0,0,3,1,0,0
134794784,0.0,-9.188943e-09,0.49609938,-0.0011145388,0.0,0.0,0.0,0.0,0.0,0.0,0.0,0,0,0,0,0,0,0,3,3,0,0,3,1,0,0
135006943,-0.073132366,-2.8400804e-12,0.496203,-6.6178507e-07,0.0,0.0,0.0,0.0,0.0,0.0,0.0,0,0,0,0,0,0,0,3,3,0,0,3,1,0,0
135206738,-0.2843081,2.0405367e-15,0.49623552,3.202644e-10,0.0,0.0,0.0,0.0,0.0,0.0,0.0,0,0,0,0,0,0,0,3,3,0,0,3,1,0,0
135406808,-0.29987398,-5.783237e-19,0.49594107,6.732652e-16,0.0,0.0,0.0,0.0,0.0,0.0,0.0,0,0,0,0,0,0,0,3,3,0,0,3,1,0,0
135610745,-0.31262454,-3.5910132e-22,0.49622932,-1.3614899e-16,0.0,0.0,0.0,0.0,0.0,0.0,0.0,0,0,0,0,0,0,0,3,3,0,0,3,1,0,0
135802759,-0.26725528,5.5812727e-25,0.49620482,1.1851204e-19,0.0,0.0,0.0,0.0,0.0,0.0,0.0,0,0,0,0,0,0,0,3,3,0,0,3,1,0,0
136002963,0.012621725,-3.3499433e-28,0.4962013,-4.5778677e-23,0.0,0.0,0.0,0.0,0.0,0.0,0.0,0,0,0,0,0,0,0,3,3,0,0,3,1,0,0
136202773,-1.897833e-05,5.605567e-32,0.495941,-1.0219518e-26,0.0,0.0,0.0,0.0,0.0,0.0,0.0,0,0,0,0,0,0,0,3,3,0,0,3,1,0,0
136422318,-5.4297095e-10,7.068942e-35,0.49623743,1.190791e-29,0.0,0.0,0.0,0.0,0.0,0.0,0.0,0,0,0,0,0,0,0,3,3,0,0,3,1,0,0
136623584,2.9937914e-12,0.23110506,0.4962025,-1.18566605e-33,0.0,0.0,0.0,0.0,0.0,0.0,0.0,0,0,0,0,0,0,0,3,3,0,0,3,1,0,0
136827589,-2.3824085e-15,0.32595882,0.4962001,-4.005827e-36,0.0,0.0,0.0,0.0,0.0,0.0,0.0,0,0,0,0,0,0,0,3,3,0,0,3,1,0,0
137027763,8.115616e-19,-0.0013563989,0.49572235,3.99716e-39,0.0,0.0,0.0,0.0,0.0,0.0,0.0,0,0,0,0,0,0,0,3,3,0,0,3,1,0,0
137219579,3.002967e-22,-1.4995688e-06,0.49620262,-1.792e-42,0.0,0.0,0.0,0.0,0.0,0.0,0.0,0,0,0,0,0,0,0,3,3,0,0,3,1,0,0
137423593,-6.0554215e-25,1.8825876e-09,0.49594107,-0.0,0.0,0.0,0.0,0.0,0.0,0.0,0.0,0,0,0,0,0,0,0,3,3,0,0,3,1,0,0
137623543,4.0125713e-28,-0.023938239,0.49620306,0.0,0.0,0.0,0.0,0.0,0.0,0.0,0.0,0,0,0,0,0,0,0,3,3,0,0,3,1,0,0
137827936,-0.006023156,-0.373587,0.49615914,0.0,0.0,0.0,0.0,0.0,0.0,0.0,0.0,0,0,0,0,0,0,0,3,3,0,0,3,1,0,0
138031558,2.7842113e-06,-0.3238634,0.49620247,0.0,0.0,0.0,0.0,0.0,0.0,0.0,0.0,0,0,0,0,0,0,0,3,3,0,0,3,1,0,0
138251578,4.199717e-10,-0.27307928,0.49619296,0.0,0.0,0.0,0.0,0.0,0.0,0.0,0.0,0,0,0,0,0,0,0,3,3,0,0,3,1,0,0
138446763,-5.1724456e-13,-0.29453295,0.49558294,0.0,0.0,0.0,0.0,0.0,0.0,0.0,0.0,0,0,0,0,0,0,0,3,3,0,0,3,1,0,0
138640571,2.735568e-16,-0.00132228,0.4962032,0.0,0.0,0.0,0.0,0.0,0.0,0.0,0.0,0,0,0,0,0,0,0,3,3,0,0,3,1,0,0
138864380,8.563711e-20,-2.0467012e-07,0.49623674,0.0,0.0,0.0,0.0,0.0,0.0,0.0,0.0,0,0,0,0,0,0,0,3,3,0,0,3,1,0,0
139048757,-9.855557e-23,1.4331192e-10,0.49620125,0.0,0.0,0.0,0.0,0.0,0.0,0.0,0.0,0,0,0,0,0,0,0,3,3,0,0,3,1,0,0
139264723,0.13588953,-1.2875353e-13,0.49590126,0.0,0.0,0.0,0.0,0.0,0.0,0.0,0.0,0,0,0,0,0,0,0,3,3,0,0,3,1,0,0
139460379,0.2941918,7.8588734e-18,0.49620295,0.0,0.0,0.0,0.0,0.0,0.0,0.0,0.0,0,0,0,0,0,0,0,3,3,0,0,3,1,0,0
139660717,0.27125582,4.7641532e-20,0.4962013,0.0,0.0,0.0,0.0,0.0,0.0,0.0,0.0,0,0,0,0,0,0,0,3,3,0,0,3,1,0,0
139864373,0.21179886,-4.489619e-23,0.495941,0.0,0.0,0.0,0.0,0.0,0.0,0.0,0.0,0,0,0,0,0,0,0,3,3,0,0,3,1,0,0
140064347,-0.00014613025,1.9008531e-26,0.49621144,0.0,0.0,0.0,0.0,0.0,0.0,0.0,0.0,0,0,0,0,0,0,0,3,3,0,0,3,1,0,0
140260388,1.7132561e-07,2.4177408e-30,0.4962324,0.0,0.0,0.0,0.0,0.0,0.0,0.0,0.0,0,0,0,0,0,0,0,3,3,0,0,3,1,0,0
140481174,-0.1513159,-4.7149585e-33,0.4961683,0.0,0.0,0.0,0.0,0.0,0.0,0.0,0.0,0,0,0,0,0,0,0,3,3,0,0,3,1,0,0
140661173,-0.23184228,7.837845e-36,0.4962013,0.0,0.0,0.0,0.0,0.0,0.0,0.0,0.0,0,0,0,0,0,0,0,3,3,0,0,3,1,0,0
140881291,0.0076340917,1.37126e-39,0.4951437,0.0,0.0,0.0,0.0,0.0,0.0,0.0,0.0,0,0,0,0,0,0,0,3,3,0,0,3,1,0,0
141073176,-7.2186954e-06,-1.5e-42,0.49620336,0.0,0.0,0.0,0.0,0.0,0.0,0.0,0.0,0,0,0,0,0,0,0,3,3,0,0,3,1,0,0
141289433,-8.639882e-10,0.0,0.49623674,0.0,0.0,0.0,0.0,0.0,0.0,0.0,0.0,0,0,0,0,0,0,0,3,3,0,0,3,1,0,0
141473138,3.7913078e-13,0.0,0.49620244,-0.005269697,0.0,0.0,0.0,0.0,0.0,0.0,0.0,0,0,0,0,0,0,0,3,3,0,0,3,1,0,0
141689570,-7.5944873e-16,0.0,0.49593914,-0.29030105,0.0,0.0,0.0,0.0,0.0,0.0,0.0,0,0,0,0,0,0,0,3,3,0,0,3,1,0,0
141885389,1.1683721e-19,0.0,0.49449554,-0.31542432,0.0,0.0,0.0,0.0,0.0,0.0,0.0,0,0,0,0,0,0,0,3,3,0,0,3,1,0,0
142085136,2.19513e-22,0.0,0.49588078,-0.33160344,0.0,0.0,0.0,0.0,0.0,0.0,0.0,0,0,0,0,0,0,0,3,3,0,0,3,1,0,0
142285161,-2.4099126e-25,0.0,0.49620244,-0.31324422,0.0,0.0,0.0,0.0,0.0,0.0,0.0,0,0,0,0,0,0,0,3,3,0,0,3,1,0,0
142485960,1.1736181e-28,0.0,0.49678957,-0.36305073,0.0,0.0,0.0,0.0,0.0,0.0,0.0,0,0,0,0,0,0,0,3,3,0,0,3,1,0,0
143905996,0.0,0.0,0.49468237,1.377397e-14,0.0,0.0,0.0,0.0,0.0,0.0,0.0,0,0,0,0,0,0,0,3,3,0,0,3,1,0,0
144122167,0.0,-0.0054648705,0.49493736,4.1352976e-18,0.0,0.0,0.0,0.0,0.0,0.0,0.0,0,0,0,0,0,0,0,3,3,0,0,3,1,0,0
144314204,-0.020412825,-0.4512736,0.49489573,-4.681255e-21,0.0,0.0,0.0,0.0,0.0,0.0,0.0,0,0,0,0,0,0,0,3,3,0,0,3,1,0,0
144514738,-0.021563219,-0.5120701,0.49493665,4.642019e-24,0.0,0.0,0.0,0.0,0.0,0.0,0.0,0,0,0,0,0,0,0,3,3,0,0,3,1,0,0
144714857,0.00033916795,-0.333179,0.49489412,-2.0689185e-27,0.0,0.0,0.0,0.0,0.0,0.0,0.0,0,0,0,0,0,0,0,3,3,0,0,3,1,0,0
144919186,1.14001494e-07,-0.0009972637,0.49493673,-1.5963591e-31,0.0,0.0,0.0,0.0,0.0,0.0,0.0,0,0,0,0,0,0,0,3,3,0,0,3,1,0,0
145138865,-9.3037425e-11,3.0382314e-09,0.49460435,5.001698e-34,0.0,0.0,0.0,0.0,0.0,0.0,0.0,0,0,0,0,0,0,0,3,3,0,0,3,1,0,0
145330838,4.0998123e-15,1.5007662e-10,0.49533555,-9.0564177e-38,0.0,0.0,0.0,0.0,0.0,0.0,0.0,0,0,0,0,0,0,0,3,3,0,0,3,1,0,0
145531164,3.58036e-17,-1.3223561e-13,0.4949365,-1.3269e-40,0.0,0.0,0.0,0.0,0.0,0.0,0.0,0,0,0,0,0,0,0,3,3,0,0,3,1,0,0
145726970,-3.2975852e-20,0.17735349,0.49493673,1.53e-43,0.0,0.0,0.0,0.0,0.0,0.0,0.0,0,0,0,0,0,0,0,3,3,0,0,3,1,0,0
145946801,-4.16265e-24,0.36660978,0.4947082,0.0,0.0,0.0,0.0,0.0,0.0,0.0,0.0,0,0,0,0,0,0,0,3,3,0,0,3,1,0,0
146146797,5.9401003e-27,0.018949442,0.49493724,0.0,0.0,0.0,0.0,0.0,0.0,0.0,0.0,0,0,0,0,0,0,0,3,3,0,0,3,1,0,0
146346814,-3.4210756e-30,0.0002844251,0.49493673,0.0,0.0,0.0,0.0,0.0,0.0,0.0,0.0,0,0,0,0,0,0,0,3,3,0,0,3,1,0,0
146546748,-0.37189656,-1.9482295e-07,0.4943087,0.0,0.0,0.0,0.0,0.0,0.0,0.0,0.0,0,0,0,0,0,0,0,3,3,0,0,3,1,0,0
146747557,-0.45867363,4.9601562e-11,0.49493742,0.0,0.0,0.0,0.0,0.0,0.0,0.0,0.0,0,0,0,0,0,0,0,3,3,0,0,3,1,0,0
146959588,-0.39830697,3.9184747e-14,0.49493673,0.0,0.0,0.0,0.0,0.0,0.0,0.0,0.0,0,0,0,0,0,0,0,3,3,0,0,3,1,0,0
147155767,-0.32722256,-5.518607e-17,0.49489573,0.0,0.0,0.0,0.0,0.0,0.0,0.0,0.0,0,0,0,0,0,0,0,3,3,0,0,3,1,0,0
147367963,-0.00096485944,3.1566566e-20,0.49493665,0.0,0.0,0.0,0.0,0.0,0.0,0.0,0.0,0,0,0,0,0,0,0,3,3,0,0,3,1,0,0
147563741,1.1546826e-07,-4.1842906e-24,0.49493673,0.0,0.0,0.0,0.0,0.0,0.0,0.0,0.0,0,0,0,0,0,0,0,3,3,0,0,3,1,0,0
147763925,-0.0062439707,-9.7104895e-27,0.49497092,0.0,0.0,0.0,0.0,0.0,0.0,0.0,0.0,0,0,0,0,0,0,0,3,3,0,0,3,1,0,0
147980038,8.888174e-06,0.14256959,0.4949372,0.0,0.0,0.0,0.0,0.0,0.0,0.0,0.0,0,0,0,0,0,0,0,3,3,0,0,3,1,0,0
148163827,0.017590797,0.27260754,0.49555632,0.0,0.0,0.0,0.0,0.0,0.0,0.0,0.0,0,0,0,0,0,0,0,3,3,0,0,3,1,0,0
148375921,0.04697218,0.540804,0.49519086,0.0,0.0,0.0,0.0,0.0,0.0,0.0,0.0,0,0,0,0,0,0,0,3,3,0,0,3,1,0,0
148584371,0.0022045637,0.50332004,0.49492836,0.0,0.0,0.0,0.0,0.0,0.0,0.0,0.0,0,0,0,0,0,0,0,3,3,0,0,3,1,0,0
148787576,-1.9861522e-08,0.32319674,0.49467525,0.0,0.0,0.0,0.0,0.0,0.0,0.0,0.0,0,0,0,0,0,0,0,3,3,0,0,3,1,0,0
148988348,-9.158176e-10,-0.011611579,0.49493483,0.0,0.0,0.0,0.0,0.0,0.0,0.0,0.0,0,0,0,0,0,0,0,3,3,0,0,3,1,0,0
149188452,8.0750494e-13,-0.004368579,0.49493673,0.0,0.0,0.0,0.0,0.0,0.0,0.0,0.0,0,0,0,0,0,0,0,3,3,0,0,3,1,0,0
149384387,-0.008923723,-0.22838539,0.4940544,0.0,0.0,0.0,0.0,0.0,0.0,0.0,0.0,0,0,0,0,0,0,0,3,3,0,0,3,1,0,0
149592459,-0.00021608033,-0.032533694,0.4949379,0.0,0.0,0.0,0.0,0.0,0.0,0.0,0.0,0,0,0,0,0,0,0,3,3,0,0,3,1,0,0
149792586,1.9148938e-07,6.8809236e-06,0.49493673,0.0,0.0,0.0,0.0,0.0,0.0,0.0,0.0,0,0,0,0,0,0,0,3,3,0,0,3,1,0,0
149992756,-7.562185e-11,3.0417049e-09,0.49493673,0.0,0.0,0.0,0.0,0.0,0.0,0.0,0.0,0,0,0,0,0,0,0,3,3,0,0,3,1,0,0
150192365,-1.5069678e-14,-5.5666023e-12,0.49757996,0.0,0.0,0.0,0.0,0.0,0.0,0.0,0.0,0,0,0,0,0,0,0,3,3,0,0,3,1,0,0
150392573,4.5158298e-17,3.569654e-15,0.4962662,-0.039281853,0.0,0.0,0.0,0.0,0.0,0.0,0.0,0,0,0,0,0,0,0,3,3,0,0,3,1,0,0
150588546,-3.3024246e-20,-7.5847535e-19,0.502537,-0.2326268,0.0,0.0,0.0,0.0,0.0,0.0,0.0,0,0,0,0,0,0,0,3,3,0,0,3,1,0,0
150795643,9.700749e-24,-8.491546e-22,0.49863225,-0.20671701,0.0,0.0,0.0,0.0,0.0,0.0,0.0,0,0,0,0,0,0,0,3,3,0,0,3,1,0,0
151013137,6.4438284e-27,2.827625e-25,0.49619928,-0.0001390973,0.0,0.0,0.0,0.0,0.0,0.0,0.0,0,0,0,0,0,0,0,3,3,0,0,3,1,0,0
151214318,-2.9443267e-30,6.353801e-29,0.4962025,-3.791898e-08,0.0,0.0,0.0,0.0,0.0,0.0,0.0,0,0,0,0,0,0,0,3,3,0,0,3,1,0,0
151405366,-0.3383326,-1.7512792e-31,0.49623552,9.196337e-11,0.0,0.0,0.0,0.0,0.0,0.0,0.0,0,0,0,0,0,0,0,3,3,0,0,3,1,0,0
151609560,-0.56352586,1.2591377e-34,0.49620256,-6.419243e-14,0.0,0.0,0.0,0.0,0.0,0.0,0.0,0,0,0,0,0,0,0,3,3,0,0,3,1,0,0
151813178,-0.48631713,-3.5738085e-38,0.4962324,1.7084936e-17,0.0,0.0,0.0,0.0,0.0,0.0,0.0,0,0,0,0,0,0,0,3,3,0,0,3,1,0,0
152013214,-0.4459939,-2.2114e-41,0.49619526,1.2263886e-20,0.0,0.0,0.0,0.0,0.0,0.0,0.0,0,0,0,0,0,0,0,3,3,0,0,3,1,0,0
152225143,-0.44757715,1.1e-44,0.4951437,-5.506436e-24,0.0,0.0,0.0,0.0,0.0,0.0,0.0,0,0,0,0,0,0,0,3,3,0,0,3,1,0,0
152417166,-0.38508552,0.0,0.49620336,-5.9140446e-28,0.0,0.0,0.0,0.0,0.0,0.0,0.0,0,0,0,0,0,0,0,3,3,0,0,3,1,0,0
152625394,-0.3647985,0.0,0.4962013,2.8467953e-30,0.0,0.0,0.0,0.0,0.0,0.0,0.0,0,0,0,0,0,0,0,3,3,0,0,3,1,0,0
152841160,-0.0001359147,0.0,0.49620306,-2.2066045e-34,0.0,0.0,0.0,0.0,0.0,0.0,0.0,0,0,0,0,0,0,0,3,3,0,0,3,1,0,0
153029205,3.863638e-09,0.0,0.4962025,-3.7979655e-37,0.0,0.0,0.0,0.0,0.0,0.0,0.0,0,0,0,0,0,0,0,3,3,0,0,3,1,0,0
153229573,5.415876e-11,0.0,0.4962013,4.24792e-40,0.0,0.0,0.0,0.0,0.0,0.0,0.0,0,0,0,0,0,0,0,3,3,0,0,3,1,0,0
153441960,-7.705391e-15,0.0,0.4962025,3.5e-44,0.0,0.0,0.0,0.0,0.0,0.0,0.0,0,0,0,0,0,0,0,3,3,0,0,3,1,0,0
153642089,-6.4211008e-18,0.0,0.4963076,0.0,0.0,0.0,0.0,0.0,0.0,0.0,0.0,0,0,0,0,0,0,0,3,3,0,0,3,1,0,0
153845969,8.86428e-21,0.0,0.49620247,0.0,0.0,0.0,0.0,0.0,0.0,0.0,0.0,0,0,0,0,0,0,0,3,3,0,0,3,1,0,0
154058322,3.7562714e-25,0.0,0.49616206,0.0,0.0,0.0,0.0,0.0,0.0,0.0,0.0,0,0,0,0,0,0,0,3,3,0,0,3,1,0,0
154258163,-0.006382187,-0.08335982,0.49620247,0.0,0.0,0.0,0.0,0.0,0.0,0.0,0.0,0,0,0,0,0,0,0,3,3,0,0,3,1,0,0
154450041,-0.02481009,-0.17096244,0.4962013,0.0,0.0,0.0,0.0,0.0,0.0,0.0,0.0,0,0,0,0,0,0,0,3,3,0,0,3,1,0,0
154670328,0.00018855532,-0.25317946,0.4962025,0.0,0.0,0.0,0.0,0.0,0.0,0.0,0.0,0,0,0,0,0,0,0,3,3,0,0,3,1,0,0
154869982,1.374478e-07,0.0135328295,0.49454546,0.0,0.0,0.0,0.0,0.0,0.0,0.0,0.0,0,0,0,0,0,0,0,3,3,0,0,3,1,0,0
155050003,-6.524117e-11,-1.4060783e-05,0.49619862,0.0,0.0,0.0,0.0,0.0,0.0,0.0,0.0,0,0,0,0,0,0,0,3,3,0,0,3,1,0,0
155266167,1.1610625e-13,4.129424e-09,0.4962001,0.0,0.0,0.0,0.0,0.0,0.0,0.0,0.0,0,0,0,0,0,0,0,3,3,0,0,3,1,0,0
155466859,0.006894181,0.30779436,0.4962025,0.0,0.0,0.0,0.0,0.0,0.0,0.0,0.0,0,0,0,0,0,0,0,3,3,0,0,3,1,0,0
155670786,3.603121e-06,0.15277702,0.49623674,0.0,0.0,0.0,0.0,0.0,0.0,0.0,0.0,0,0,0,0,0,0,0,3,3,0,0,3,1,0,0
155870779,1.7533683e-08,0.00013778033,0.495941,0.0,0.0,0.0,0.0,0.0,0.0,0.0,0.0,0,0,0,0,0,0,0,3,3,0,0,3,1,0,0
156075120,-1.682417e-11,-0.09385712,0.49620062,0.0,0.0,0.0,0.0,0.0,0.0,0.0,0.0,0,0,0,0,0,0,0,3,3,0,0,3,1,0,0
156274751,7.258297e-15,-0.19423367,0.49616152,0.0,0.0,0.0,0.0,0.0,0.0,0.0,0.0,0,0,0,0,0,0,0,3,3,0,0,3,1,0,0
156478777,2.9916025e-18,-0.00012174976,0.49620244,0.0,0.0,0.0,0.0,0.0,0.0,0.0,0.0,0,0,0,0,0,0,0,3,3,0,0,3,1,0,0
156678776,-1.783395e-21,-1.1403266e-07,0.4955829,0.0,0.0,0.0,0.0,0.0,0.0,0.0,0.0,0,0,0,0,0,0,0,3,3,0,0,3,1,0,0
156890941,-4.700051e-25,4.2588627e-11,0.4962027,0.0,0.0,0.0,0.0,0.0,0.0,0.0,0.0,0,0,0,0,0,0,0,3,3,0,0,3,1,0,0
157090805,3.774078e-28,7.473832e-15,0.49623674,0.0,0.0,0.0,0.0,0.0,0.0,0.0,0.0,0,0,0,0,0,0,0,3,3,0,0,3,1,0,0
157290967,-1.3036396e-31,-2.4548222e-17,0.4962025,0.0,0.0,0.0,0.0,0.0,0.0,0.0,0.0,0,0,0,0,0,0,0,3,3,0,0,3,1,0,0
157503789,-7.1189625e-35,1.3518627e-21,0.4964621,0.0,0.0,0.0,0.0,0.0,0.0,0.0,0.0,0,0,0,0,0,0,0,3,3,0,0,3,1,0,0
157703585,3.6034558e-38,3.401363e-24,0.4957218,0.0,0.0,0.0,0.0,0.0,0.0,0.0,0.0,0,0,0,0,0,0,0,3,3,0,0,3,1,0,0
157903564,0.016909081,0.2548554,0.49620262,0.0,0.0,0.0,0.0,0.0,0.0,0.0,0.0,0,0,0,0,0,0,0,3,3,0,0,3,1,0,0
158099754,0.034611676,0.40319246,0.49623552,0.0,0.0,0.0,0.0,0.0,0.0,0.0,0.0,0,0,0,0,0,0,0,3,3,0,0,3,1,0,0
158303959,2.7852431e-05,-0.007289105,0.49623242,0.0,0.0,0.0,0.0,0.0,0.0,0.0,0.0,0,0,0,0,0,0,0,3,3,0,0,3,1,0,0
158507669,-2.0118696e-09,1.4848108e-05,0.4961614,0.0,0.0,0.0,0.0,0.0,0.0,0.0,0.0,0,0,0,0,0,0,0,3,3,0,0,3,1,0,0
158703557,-1.003392e-11,-9.870406e-09,0.49462065,0.0,0.0,0.0,0.0,0.0,0.0,0.0,0.0,0,0,0,0,0,0,0,3,3,0,0,3,1,0,0
158903780,9.606695e-15,2.327528e-12,0.40638542,0.0,0.0,0.0,0.0,0.0,0.0,0.0,0.0,0,0,0,0,0,0,0,3,3,0,0,3,1,0,0
159119607,1.1206592e-18,1.9978494e-15,0.37887198,0.0,0.0,0.0,0.0,0.0,0.0,0.0,0.0,0,0,0,0,0,0,0,3,3,0,0,3,1,0,0
159319753,-1.7093974e-21,-8.1003905e-19,0.3635963,0.0,0.0,0.0,0.0,0.0,0.0,0.0,0.0,0,0,0,0,0,0,0,3,3,0,0,3,1,0,0
159519577,1.0171845e-24,-1.3884904e-22,0.37612408,0.0,0.0,0.0,0.0,0.0,0.0,0.0,0.0,0,0,0,0,0,0,0,3,3,0,0,3,1,0,0
159723766,-1.6399197e-28,4.6402637e-25,0.34686762,0.0,0.0,0.0,0.0,0.0,0.0,0.0,0.0,0,0,0,0,0,0,0,3,3,0,0,3,1,0,0
159927765,-2.8746244e-31,-3.4611484e-28,0.34928718,0.0,0.0,0.0,0.0,0.0,0.0,0.0,0.0,0,0,0,0,0,0,0,3,3,0,0,3,1,0,0
160127752,3.2024032e-34,1.0558993e-31,0.33881718,0.0,0.0,0.0,0.0,0.0,0.0,0.0,0.0,0,0,0,0,0,0,0,3,3,0,0,3,1,0,0
160340585,-1.5774904e-37,-0.02586291,0.4963904,0.0,0.0,0.0,0.0,0.0,0.0,0.0,0.0,0,0,0,0,0,0,0,3,3,0,0,3,1,0,0
160532401,2.094e-42,-0.20976901,0.49496764,0.0,0.0,0.0,0.0,0.0,0.0,0.0,0.0,0,0,0,0,0,0,0,3,3,0,0,3,1,0,0
160728381,6.6e-44,-0.13023433,0.4949367,0.0,0.0,0.0,0.0,0.0,0.0,0.0,0.0,0,0,0,0,0,0,0,3,3,0,0,3,1,0,0
160932723,0.0,4.7816113e-05,0.4940544,0.0,0.0,0.0,0.0,0.0,0.0,0.0,0.0,0,0,0,0,0,0,0,3,3,0,0,3,1,0,0
161152543,0.20562713,2.420995e-08,0.49493754,0.0,0.0,0.0,0.0,0.0,0.0,0.0,0.0,0,0,0,0,0,0,0,3,3,0,0,3,1,0,0
161332403,0.34478226,-3.1934917e-11,0.49493673,0.0,0.0,0.0,0.0,0.0,0.0,0.0,0.0,0,0,0,0,0,0,0,3,3,0,0,3,1,0,0
161552467,0.38112974,9.044947e-16,0.49489573,0.0,0.0,0.0,0.0,0.0,0.0,0.0,0.0,0,0,0,0,0,0,0,3,3,0,0,3,1,0,0
161752406,0.34216446,4.620725e-18,0.49492824,0.0,0.0,0.0,0.0,0.0,0.0,0.0,0.0,0,0,0,0,0,0,0,3,3,0,0,3,1,0,0
161940723,-0.0022361146,-4.292483e-21,0.4949367,0.0,0.0,0.0,0.0,0.0,0.0,0.0,0.0,0,0,0,0,0,0,0,3,3,0,0,3,1,0,0
162148521,-1.4373118e-06,6.219789e-24,0.49493673,0.0,0.0,0.0,0.0,0.0,0.0,0.0,0.0,0,0,0,0,0,0,0,3,3,0,0,3,1,0,0
162363720,6.995972e-10,2.1413758e-28,0.49445456,0.0,0.0,0.0,0.0,0.0,0.0,0.0,0.0,0,0,0,0,0,0,0,3,3,0,0,3,1,0,0
162567659,5.687123e-14,-9.894574e-31,0.49493676,0.0,0.0,0.0,0.0,0.0,0.0,0.0,0.0,0,0,0,0,0,0,0,3,3,0,0,3,1,0,0
162749136,0.015964255,0.12381324,0.49493673,0.0,0.0,0.0,0.0,0.0,0.0,0.0,0.0,0,0,0,0,0,0,0,3,3,0,0,3,1,0,0
162949262,0.07326975,0.44533384,0.49495822,0.0,0.0,0.0,0.0,0.0,0.0,0.0,0.0,0,0,0,0,0,0,0,3,3,0,0,3,1,0,0
163165258,0.0024770251,0.40053958,0.49493662,0.0,0.0,0.0,0.0,0.0,0.0,0.0,0.0,0,0,0,0,0,0,0,3,3,0,0,3,1,0,0
163373527,9.448912e-07,0.020492526,0.49493673,0.0,0.0,0.0,0.0,0.0,0.0,0.0,0.0,0,0,0,0,0,0,0,3,3,0,0,3,1,0,0
163569166,-5.9117655e-10,-3.3764873e-06,0.4940544,0.0,0.0,0.0,0.0,0.0,0.0,0.0,0.0,0,0,0,0,0,0,0,3,3,0,0,3,1,0,0
163769519,1.1587836e-13,-5.7279195e-09,0.49369872,0.0,0.0,0.0,0.0,0.0,0.0,0.0,0.0,0,0,0,0,0,0,0,3,3,0,0,3,1,0,0
163965198,1.4912342e-16,6.427105e-12,0.49493805,0.0,0.0,0.0,0.0,0.0,0.0,0.0,0.0,0,0,0,0,0,0,0,3,3,0,0,3,1,0,0
164185341,-4.5637742e-20,5.211723e-16,0.49445406,0.0,0.0,0.0,0.0,0.0,0.0,0.0,0.0,0,0,0,0,0,0,0,3,3,0,0,3,1,0,0
164381525,-1.2079876e-23,-1.0912102e-18,0.49493676,0.0,0.0,0.0,0.0,0.0,0.0,0.0,0.0,0,0,0,0,0,0,0,3,3,0,0,3,1,0,0
164573169,2.985786e-26,7.315353e-22,0.49467525,0.0,0.0,0.0,0.0,0.0,0.0,0.0,0.0,0,0,0,0,0,0,0,3,3,0,0,3,1,0,0
164785400,-9.505365e-31,1.6125118e-25,0.49500823,0.0,0.0,0.0,0.0,0.0,0.0,0.0,0.0,0,0,0,0,0,0,0,3,3,0,0,3,1,0,0
164981376,-4.2961435e-33,-1.4757679e-28,0.49493665,-0.045276165,0.0,0.0,0.0,0.0,0.0,0.0,0.0,0,0,0,0,0,0,0,3,3,0,0,3,1,0,0
165185982,4.15095e-36,6.051393e-32,0.48119152,-0.2277025,0.0,0.0,0.0,0.0,0.0,0.0,0.0,0,0,0,0,0,0,0,3,3,0,0,3,1,0,0
165386063,-1.803446e-39,9.6647934e-36,0.47851366,-0.28231397,0.0,0.0,0.0,0.0,0.0,0.0,0.0,0,0,0,0,0,0,0,3,3,0,0,3,1,0,0
165601973,-7.37e-43,-1.5257545e-38,0.4873895,-0.16321413,0.0,0.0,0.0,0.0,0.0,0.0,0.0,0,0,0,0,0,0,0,3,3,0,0,3,1,0,0
165802168,0.0,2.037e-42,0.49499142,0.00013694246,0.0,0.0,0.0,0.0,0.0,0.0,0.0,0,0,0,0,0,0,0,3,3,0,0,3,1,0,0
165998029,0.0,6e-45,0.49504152,-1.0052493e-07,0.0,0.0,0.0,0.0,0.0,0.0,0.0,0,0,0,0,0,0,0,3,3,0,0,3,1,0,0
166214130,0.0,0.0,0.49449748,0.05276682,0.0,0.0,0.0,0.0,0.0,0.0,0.0,0,0,0,0,0,0,0,3,3,0,0,3,1,0,0
166394199,0.0,0.0,0.49504244,0.13873275,0.0,0.0,0.0,0.0,0.0,0.0,0.0,0,0,0,0,0,0,0,3,3,0,0,3,1,0,0
166602215,0.0,0.0,0.49493423,0.13490874,0.0,0.0,0.0,0.0,0.0,0.0,0.0,0,0,0,0,0,0,0,3,3,0,0,3,1,0,0
166818020,0.0,0.0,0.49537647,0.18192606,0.0,0.0,0.0,0.0,0.0,0.0,0.0,0,0,0,0,0,0,0,3,3,0,0,3,1,0,0
167009983,0.0,0.0,0.4958176,0.05832633,0.0,0.0,0.0,0.0,0.0,0.0,0.0,0,0,0,0,0,0,0,3,3,0,0,3,1,0,0
167210067,0.0,0.0,0.49564704,-3.038268e-05,0.0,0.0,0.0,0.0,0.0,0.0,0.0,0,0,0,0,0,0,0,3,3,0,0,3,1,0,0
167410012,0.0,0.0,0.49493846,1.8220847e-09,0.0,0.0,0.0,0.0,0.0,0.0,0.0,0,0,0,0,0,0,0,3,3,0,0,3,1,0,0
167633192,-0.22911984,0.0,0.49464223,6.8213477e-12,0.0,0.0,0.0,0.0,0.0,0.0,0.0,0,0,0,0,0,0,0,3,3,0,0,3,1,0,0
167827001,-0.37512285,0.0,0.49494198,-1.839748e-15,0.0,0.0,0.0,0.0,0.0,0.0,0.0,0,0,0,0,0,0,0,3,3,0,0,3,1,0,0
168034990,-0.18435751,0.0,0.49520773,-1.2820655e-18,0.0,0.0,0.0,0.0,0.0,0.0,0.0,0,0,0,0,0,0,0,3,3,0,0,3,1,0,0
168238812,-0.07622908,0.0,0.49483353,1.8973964e-21,0.0,0.0,0.0,0.0,0.0,0.0,0.0,0,0,0,0,0,0,0,3,3,0,0,3,1,0,0
168434752,3.5755595e-05,0.0,0.49625832,-1.1129034e-24,0.0,0.0,0.0,0.0,0.0,0.0,0.0,0,0,0,0,0,0,0,3,3,0,0,3,1,0,0
168634991,1.0676517e-09,0.0,0.49516627,1.6793537e-28,0.0,0.0,0.0,0.0,0.0,0.0,0.0,0,0,0,0,0,0,0,3,3,0,0,3,1,0,0
168830822,-1.6066213e-11,0.0,0.49600342,3.2453749e-31,0.0,0.0,0.0,0.0,0.0,0.0,0.0,0,0,0,0,0,0,0,3,3,0,0,3,1,0,0
169051013,1.7720855e-15,0.0,0.49497095,-7.977077e-35,0.0,0.0,0.0,0.0,0.0,0.0,0.0,0,0,0,0,0,0,0,3,3,0,0,3,1,0,0
169246821,2.0226278e-18,0.0,0.49557403,-3.0772814e-38,0.0,0.0,0.0,0.0,0.0,0.0,0.0,0,0,0,0,0,0,0,3,3,0,0,3,1,0,0
169430853,-1.3473591e-21,0.0,0.49556953,1e-43,0.0,0.0,0.0,0.0,0.0,0.0,0.0,0,0,0,0,0,0,0,3,3,0,0,3,1,0,0
169650810,1.3382723e-24,0.0,0.49490914,-3.9e-44,0.0,0.0,0.0,0.0,0.0,0.0,0.0,0,0,0,0,0,0,0,3,3,0,0,3,1,0,0
169838889,-0.00052967214,0.0,0.49619013,0.0,0.0,0.0,0.0,0.0,0.0,0.0,0.0,0,0,0,0,0,0,0,3,3,0,0,3,1,0,0
170054811,-0.29173532,0.0,0.4953842,0.0,0.0,0.0,0.0,0.0,0.0,0.0,0.0,0,0,0,0,0,0,0,3,3,0,0,3,1,0,0
170258768,-0.39719415,0.0,0.49538553,0.0,0.0,0.0,0.0,0.0,0.0,0.0,0.0,0,0,0,0,0,0,0,3,3,0,0,3,1,0,0
170467539,-0.36330277,0.0,0.49592364,0.0,0.0,0.0,0.0,0.0,0.0,0.0,0.0,0,0,0,0,0,0,0,3,3,0,0,3,1,0,0
170667765,-0.35072643,0.0,0.49523404,0.0,0.0,0.0,0.0,0.0,0.0,0.0,0.0,0,0,0,0,0,0,0,3,3,0,0,3,1,0,0
170871550,-0.27855974,0.0,0.495352,0.0,0.0,0.0,0.0,0.0,0.0,0.0,0.0,0,0,0,0,0,0,0,3,3,0,0,3,1,0,0
171071916,-0.0011234821,0.0,0.49479172,0.0,0.0,0.0,0.0,0.0,0.0,0.0,0.0,0,0,0,0,0,0,0,3,3,0,0,3,1,0,0
171271753,6.342445e-07,0.0,0.49578723,0.0,0.0,0.0,0.0,0.0,0.0,0.0,0.0,0,0,0,0,0,0,0,3,3,0,0,3,1,0,0
171479560,-7.786336e-11,0.0,0.49492717,0.0,0.0,0.0,0.0,0.0,0.0,0.0,0.0,0,0,0,0,0,0,0,3,3,0,0,3,1,0,0
171679558,0.08889404,0.0,0.49484968,0.0,0.0,0.0,0.0,0.0,0.0,0.0,0.0,0,0,0,0,0,0,0,3,3,0,0,3,1,0,0
171867763,0.094253175,0.0,0.49516967,0.0,0.0,0.0,0.0,0.0,0.0,0.0,0.0,0,0,0,0,0,0,0,3,3,0,0,3,1,0,0
172063543,0.07938773,-0.015902119,0.4957146,0.0,0.0,0.0,0.0,0.0,0.0,0.0,0.0,0,0,0,0,0,0,0,3,3,0,0,3,1,0,0
172287763,-4.916981e-05,3.6448307e-06,0.4954137,0.0,0.0,0.0,0.0,0.0,0.0,0.0,0.0,0,0,0,0,0,0,0,3,3,0,0,3,1,0,0
172479542,2.578073e-08,-1.1938407e-10,0.49450698,0.0,0.0,0.0,0.0,0.0,0.0,0.0,0.0,0,0,0,0,0,0,0,3,3,0,0,3,1,0,0
172683668,-1.6824148e-12,-1.4386153e-12,0.49521348,0.0,0.0,0.0,0.0,0.0,0.0,0.0,0.0,0,0,0,0,0,0,0,3,3,0,0,3,1,0,0
172891658,-9.444476e-15,1.3057989e-15,0.4956696,0.0,0.0,0.0,0.0,0.0,0.0,0.0,0.0,0,0,0,0,0,0,0,3,3,0,0,3,1,0,0
173092461,8.952924e-18,-5.3043955e-19,0.49597034,0.0,0.0,0.0,0.0,0.0,0.0,0.0,0.0,0,0,0,0,0,0,0,3,3,0,0,3,1,0,0
173296464,-3.8142288e-21,-8.988287e-23,0.4958592,0.0,0.0,0.0,0.0,0.0,0.0,0.0,0.0,0,0,0,0,0,0,0,3,3,0,0,3,1,0,0
173504454,-4.614833e-25,3.0295187e-25,0.51124316,0.0,0.0,0.0,0.0,0.0,0.0,0.0,0.0,0,0,0,0,0,0,0,3,3,0,0,3,1,0,0
173700550,2.0171553e-27,-2.262955e-28,0.5602135,0.0,0.0,0.0,0.0,0.0,0.0,0.0,0.0,0,0,0,0,0,0,0,3,3,0,0,3,1,0,0
173904572,-1.564735e-30,6.9220966e-32,0.5874588,0.0,0.0,0.0,0.0,0.0,0.0,0.0,0.0,0,0,0,0,0,0,0,3,3,0,0,3,1,0,0
174104563,5.114903e-34,3.5387517e-35,0.5962928,0.0,0.0,0.0,0.0,0.0,0.0,0.0,0.0,0,0,0,0,0,0,0,3,3,0,0,3,1,0,0
174304600,2.1601955e-37,-6.017729e-38,0.59335214,0.0,0.0,0.0,0.0,0.0,0.0,0.0,0.0,0,0,0,0,0,0,0,3,3,0,0,3,1,0,0
174500539,-4.04992e-40,3.7528e-41,0.59244376,0.0,0.0,0.0,0.0,0.0,0.0,0.0,0.0,0,0,0,0,0,0,0,3,3,0,0,3,1,0,0
174708369,2.62e-43,-8e-45,0.5937662,0.0,0.0,0.0,0.0,0.0,0.0,0.0,0.0,0,0,0,0,0,0,0,3,3,0,0,3,1,0,0
174912497,0.0,0.0,0.60440785,0.0,0.0,0.0,0.0,0.0,0.0,0.0,0.0,0,0,0,0,0,0,0,3,3,0,0,3,1,0,0
175112359,0.0,0.0,0.6088522,0.0,0.0,0.0,0.0,0.0,0.0,0.0,0.0,0,0,0,0,0,0,0,3,3,0,0,3,1,0,0
175316763,0.0,0.0,0.6089316,0.0,0.0,0.0,0.0,0.0,0.0,0.0,0.0,0,0,0,0,0,0,0,3,3,0,0,3,1,0,0
175512550,0.0,0.0,0.6088535,0.0,0.0,0.0,0.0,0.0,0.0,0.0,0.0,0,0,0,0,0,0,0,3,3,0,0,3,1,0,0
175732464,0.0,0.0,0.607538,0.0,0.0,0.0,0.0,0.0,0.0,0.0,0.0,0,0,0,0,0,0,0,3,3,0,0,3,1,0,0
175925159,0.0,0.0,0.607595,0.0,0.0,0.0,0.0,0.0,0.0,0.0,0.0,0,0,0,0,0,0,0,3,3,0,0,3,1,0,0
176125242,0.0,0.0,0.6075949,0.0,0.0,0.0,0.0,0.0,0.0,0.0,0.0,0,0,0,0,0,0,0,3,3,0,0,3,1,0,0
176337251,0.0,0.0,0.60718036,0.0,0.0,0.0,0.0,0.0,0.0,0.0,0.0,0,0,0,0,0,0,0,3,3,0,0,3,1,0,0
176545214,0.0,0.0,0.60759294,0.0,0.0,0.0,0.0,0.0,0.0,0.0,0.0,0,0,0,0,0,0,0,3,3,0,0,3,1,0,0
176741151,0.0,0.0,0.60630333,0.0,0.0,0.0,0.0,0.0,0.0,0.0,0.0,0,0,0,0,0,0,0,3,3,0,0,3,1,0,0
176949148,0.0,0.0,0.5815355,0.0,0.0,0.0,0.0,0.0,0.0,0.0,0.0,0,0,0,0,0,0,0,3,3,0,0,3,1,0,0
177145142,-0.081935346,0.0,0.53682756,0.0,0.0,0.0,0.0,0.0,0.0,0.0,0.0,0,0,0,0,0,0,0,3,3,0,0,3,1,0,0
177345174,-0.3430084,0.0,0.53535616,0.0,0.0,0.0,0.0,0.0,0.0,0.0,0.0,0,0,0,0,0,0,0,3,3,0,0,3,1,0,0
177557330,-0.42645252,0.0,0.53035647,0.0,0.0,0.0,0.0,0.0,0.0,0.0,0.0,0,0,0,0,0,0,0,3,3,0,0,3,1,0,0
177757180,-0.33566225,0.0,0.529605,0.0,0.0,0.0,0.0,0.0,0.0,0.0,0.0,0,0,0,0,0,0,0,3,3,0,0,3,1,0,0
177957153,-0.0004615334,0.0,0.50642544,0.0,0.0,0.0,0.0,0.0,0.0,0.0,0.0,0,0,0,0,0,0,0,3,3,0,0,3,1,0,0
178173297,4.549567e-08,0.0,0.4974779,0.0,0.0,0.0,0.0,0.0,0.0,0.0,0.0,0,0,0,0,0,0,0,3,3,0,0,3,1,0,0
178369175,5.934479e-11,0.0,0.3166907,0.0,0.0,0.0,0.0,0.0,0.0,0.0,0.0,0,0,0,0,0,0,0,3,3,0,0,3,1,0,0
178565139,-7.1038797e-14,0.0,0.2746025,0.0,0.0,0.0,0.0,0.0,0.0,0.0,0.0,0,0,0,0,0,0,0,3,3,0,0,3,1,0,0
178769412,3.686554e-17,0.0,0.26938614,0.0,0.0,0.0,0.0,0.0,0.0,0.0,0.0,0,0,0,0,0,0,0,3,3,0,0,3,1,0,0
178973990,-2.0977807e-21,0.0,0.25437635,0.0,0.0,0.0,0.0,0.0,0.0,0.0,0.0,0,0,0,0,0,0,0,3,3,0,0,3,1,0,0
179170336,-1.377403e-23,0.0,0.24631502,0.0,0.0,0.0,0.0,0.0,0.0,0.0,0.0,0,0,0,0,0,0,0,3,3,0,0,3,1,0,0
179389992,2.2184631e-27,0.0,0.24683607,0.0,0.0,0.0,0.0,0.0,0.0,0.0,0.0,0,0,0,0,0,0,0,3,3,0,0,3,1,0,0
179585935,1.5737164e-30,0.0,0.22945085,0.0,0.0,0.0,0.0,0.0,0.0,0.0,0.0,0,0,0,0,0,0,0,3,3,0,0,3,1,0,0
179782322,-2.31218e-33,0.0,0.22163063,0.0,0.0,0.0,0.0,0.0,0.0,0.0,0.0,0,0,0,0,0,0,0,3,3,0,0,3,1,0,0
179982149,1.3513734e-36,0.0,0.23095705,0.0,0.0,0.0,0.0,0.0,0.0,0.0,0.0,0,0,0,0,0,0,0,3,3,0,0,3,1,0,0
180197941,3.66657e-40,0.0,0.2382672,0.0,0.0,0.0,0.0,0.0,0.0,0.0,0.0,0,0,0,0,0,0,0,3,3,0,0,3,1,0,0
180394351,-2.89e-43,0.0,0.2545118,0.0,0.0,0.0,0.0,0.0,0.0,0.0,0.0,0,0,0,0,0,0,0,3,3,0,0,3,1,0,0
180594021,0.0,0.0,0.36698377,0.0,0.0,0.0,0.0,0.0,0.0,0.0,0.0,0,0,0,0,0,0,0,3,3,0,0,3,1,0,0
180798062,0.06659331,0.0,0.49323416,0.0,0.0,0.0,0.0,0.0,0.0,0.0,0.0,0,0,0,0,0,0,0,3,3,0,0,3,1,0,0
180990025,0.13780268,0.0,0.49370426,0.0,0.0,0.0,0.0,0.0,0.0,0.0,0.0,0,0,0,0,0,0,0,3,3,0,0,3,1,0,0
181214000,-0.0006114308,0.0,0.4936709,0.0,0.0,0.0,0.0,0.0,0.0,0.0,0.0,0,0,0,0,0,0,0,3,3,0,0,3,1,0,0
181410167,-3.6153125e-07,0.0,0.49374175,0.0,0.0,0.0,0.0,0.0,0.0,0.0,0.0,0,0,0,0,0,0,0,3,3,0,0,3,1,0,0
181610767,5.7426114e-10,0.0,0.4941005,0.0,0.0,0.0,0.0,0.0,0.0,0.0,0.0,0,0,0,0,0,0,0,3,3,0,0,3,1,0,0
181814758,-3.4804348e-13,0.21767554,0.4933366,0.0,0.0,0.0,0.0,0.0,0.0,0.0,0.0,0,0,0,0,0,0,0,3,3,0,0,3,1,0,0
182014852,6.0612546e-17,0.29837924,0.49344248,0.0,0.0,0.0,0.0,0.0,0.0,0.0,0.0,0,0,0,0,0,0,0,3,3,0,0,3,1,0,0
182202948,-0.0008897375,0.0026390378,0.4936684,0.0,0.0,0.0,0.0,0.0,0.0,0.0,0.0,0,0,0,0,0,0,0,3,3,0,0,3,1,0,0
182407120,2.904981e-07,8.862942e-06,0.49371183,0.0,0.0,0.0,0.0,0.0,0.0,0.0,0.0,0,0,0,0,0,0,0,3,3,0,0,3,1,0,0
182623119,1.6994565e-10,-1.7266437e-09,0.4940473,0.0,0.0,0.0,0.0,0.0,0.0,0.0,0.0,0,0,0,0,0,0,0,3,3,0,0,3,1,0,0
182818999,-8.289149e-14,-9.440074e-13,0.4946764,0.0,0.0,0.0,0.0,0.0,0.0,0.0,0.0,0,0,0,0,0,0,0,3,3,0,0,3,1,0,0
183022887,3.9248738e-19,1.5545488e-15,0.4950423,0.0,0.0,0.0,0.0,0.0,0.0,0.0,0.0,0,0,0,0,0,0,0,3,3,0,0,3,1,0,0
183235121,1.9185944e-20,2.3623244e-20,0.49764815,0.0,0.0,0.0,0.0,0.0,0.0,0.0,0.0,0,0,0,0,0,0,0,3,3,0,0,3,1,0,0
183430783,-4.4590635e-24,-2.4044488e-22,0.56100696,0.0,0.0,0.0,0.0,0.0,0.0,0.0,0.0,0,0,0,0,0,0,0,3,3,0,0,3,1,0,0
183626956,-4.2302662e-27,1.9980133e-25,0.58382356,0.0,0.0,0.0,0.0,0.0,0.0,0.0,0.0,0,0,0,0,0,0,0,3,3,0,0,3,1,0,0
183826738,5.5785576e-30,-7.256143e-29,0.6003218,0.0,0.0,0.0,0.0,0.0,0.0,0.0,0.0,0,0,0,0,0,0,0,3,3,0,0,3,1,0,0
184038750,2.803151e-34,-3.7242265e-32,0.49383834,0.0,0.0,0.0,0.0,0.0,0.0,0.0,0.0,0,0,0,0,0,0,0,3,3,0,0,3,1,0,0
184230790,-9.076873e-37,1.9510745e-35,0.4962037,0.0,0.0,0.0,0.0,0.0,0.0,0.0,0.0,0,0,0,0,0,0,0,3,3,0,0,3,1,0,0
184442191,-0.042523116,-1.260221e-39,0.49620014,0.0,0.0,0.0,0.0,0.0,0.0,0.0,0.0,0,0,0,0,0,0,0,3,3,0,0,3,1,0,0
184642802,-0.1710099,-7.158e-42,0.49646398,0.0,0.0,0.0,0.0,0.0,0.0,0.0,0.0,0,0,0,0,0,0,0,3,3,0,0,3,1,0,0
184838776,-0.21687889,6e-45,0.4962374,0.0,0.0,0.0,0.0,0.0,0.0,0.0,0.0,0,0,0,0,0,0,0,3,3,0,0,3,1,0,0
185059543,-0.00020249165,0.0,0.497081,0.0,0.0,0.0,0.0,0.0,0.0,0.0,0.0,0,0,0,0,0,0,0,3,3,0,0,3,1,0,0
185259573,5.257608e-08,0.0,0.49627313,0.0,0.0,0.0,0.0,0.0,0.0,0.0,0.0,0,0,0,0,0,0,0,3,3,0,0,3,1,0,0
185439557,-1.3103582e-10,0.0,0.49514362,0.0,0.0,0.0,0.0,0.0,0.0,0.0,0.0,0,0,0,0,0,0,0,3,3,0,0,3,1,0,0
185643923,-1.9708409e-14,0.0,0.65338135,0.0,0.0,0.0,0.0,0.0,0.0,0.0,0.0,0,0,0,0,0,0,0,3,3,0,0,3,1,0,0
185843594,7.266144e-17,0.0,0.7697816,0.0,0.0,0.0,0.0,0.0,0.0,0.0,0.0,0,0,0,0,0,0,0,3,3,0,0,3,1,0,0
186063801,-4.5615566e-21,0.0,0.78919095,0.0,0.0,0.0,0.0,0.0,0.0,0.0,0.0,0,0,0,0,0,0,0,3,3,0,0,3,1,0,0
186263581,-9.9394076e-24,0.0,0.76729536,0.0,0.0,0.0,0.0,0.0,0.0,0.0,0.0,0,0,0,0,0,0,0,3,3,0,0,3,1,0,0
186459765,1.0603462e-26,0.0,0.7538572,0.0,0.0,0.0,0.0,0.0,0.0,0.0,0.0,0,0,0,0,0,0,0,3,3,0,0,3,1,0,0
186671657,9.734143e-31,0.0,0.76021093,0.0,0.0,0.0,0.0,0.0,0.0,0.0,0.0,0,0,0,0,0,0,0,3,3,0,0,3,1,0,0
186875549,-1.8263294e-33,0.0,0.7520566,0.0,0.0,0.0,0.0,0.0,0.0,0.0,0.0,0,0,0,0,0,0,0,3,3,0,0,3,1,0,0
187075551,1.1815396e-36,0.0,0.75164753,0.0,0.0,0.0,0.0,0.0,0.0,0.0,0.0,0,0,0,0,0,0,0,3,3,0,0,3,1,0,0
187275582,-2.57906e-40,0.0,0.7475088,0.0,0.0,0.0,0.0,0.0,0.0,0.0,0.0,0,0,0,0,0,0,0,3,3,0,0,3,1,0,0
187467572,-2.76e-43,0.0,0.57693404,0.0,0.0,0.0,0.0,0.0,0.0,0.0,0.0,0,0,0,0,0,0,0,3,3,0,0,3,1,0,0
187687539,0.0,0.0,0.49593002,0.0,0.0,0.0,0.0,0.0,0.0,0.0,0.0,0,0,0,0,0,0,0,3,3,0,0,3,1,0,0
187887767,0.0,0.0,0.49565193,0.0,0.0,0.0,0.0,0.0,0.0,0.0,0.0,0,0,0,0,0,0,0,3,3,0,0,3,1,0,0
188088754,0.0,0.0,0.4961936,0.0,0.0,0.0,0.0,0.0,0.0,0.0,0.0,0,0,0,0,0,0,0,3,3,0,0,3,1,0,0
188288344,0.0,0.0,0.49620256,0.0,0.0,0.0,0.0,0.0,0.0,0.0,0.0,0,0,0,0,0,0,0,3,3,0,0,3,1,0,0
188508338,0.0,0.0,0.49620256,0.0,0.0,0.0,0.0,0.0,0.0,0.0,0.0,0,0,0,0,0,0,0,3,3,0,0,3,1,0,0
188708577,0.0,0.0,0.49620256,0.0,0.0,0.0,0.0,0.0,0.0,0.0,0.0,0,0,0,0,0,0,0,3,3,0,0,3,1,0,0
188888380,0.0,0.0,0.4951437,0.0,0.0,0.0,0.0,0.0,0.0,0.0,0.0,0,0,0,0,0,0,0,3,3,0,0,3,1,0,0
189088608,-0.15201472,0.0,0.49596766,0.0,0.0,0.0,0.0,0.0,0.0,0.0,0.0,0,0,0,0,0,0,0,3,3,0,0,3,1,0,0
189312794,-0.22769046,0.0,0.49630827,0.0,0.0,0.0,0.0,0.0,0.0,0.0,0.0,0,0,0,0,0,0,0,3,3,0,0,3,1,0,0
189512406,-0.231367,0.0,0.49594098,0.0,0.0,0.0,0.0,0.0,0.0,0.0,0.0,0,0,0,0,0,0,0,3,3,0,0,3,1,0,0
189700359,-0.057644323,0.0,0.4962001,0.0,0.0,0.0,0.0,0.0,0.0,0.0,0.0,0,0,0,0,0,0,0,3,3,0,0,3,1,0,0
189908340,3.6118658e-05,0.0,0.49627337,0.0,0.0,0.0,0.0,0.0,0.0,0.0,0.0,0,0,0,0,0,0,0,3,3,0,0,3,1,0,0
190100568,-7.1156987e-09,0.0,0.45628998,0.0,0.0,0.0,0.0,0.0,0.0,0.0,0.0,0,0,0,0,0,0,0,3,3,0,0,3,1,0,0
190304569,-9.079497e-12,0.0,0.30380878,0.0,0.0,0.0,0.0,0.0,0.0,0.0,0.0,0,0,0,0,0,0,0,3,3,0,0,3,1,0,0
190520402,2.792695e-15,0.0,0.25199702,0.0,0.0,0.0,0.0,0.0,0.0,0.0,0.0,0,0,0,0,0,0,0,3,3,0,0,3,1,0,0
190724418,7.3228087e-19,0.0,0.24053748,0.0,0.0,0.0,0.0,0.0,0.0,0.0,0.0,0,0,0,0,0,0,0,3,3,0,0,3,1,0,0
190928564,-1.8210446e-21,0.0,0.23893736,0.0,0.0,0.0,0.0,0.0,0.0,0.0,0.0,0,0,0,0,0,0,0,3,3,0,0,3,1,0,0
191131668,1.2789953e-24,0.0,0.22996393,0.0,0.0,0.0,0.0,0.0,0.0,0.0,0.0,0,0,0,0,0,0,0,3,3,0,0,3,1,0,0
191333170,-3.451774e-28,0.0,0.20440179,0.0,0.0,0.0,0.0,0.0,0.0,0.0,0.0,0,0,0,0,0,0,0,3,3,0,0,3,1,0,0
191533290,-2.4018813e-31,0.0,0.18615092,0.0,0.0,0.0,0.0,0.0,0.0,0.0,0.0,0,0,0,0,0,0,0,3,3,0,0,3,1,0,0
191745362,1.1029608e-34,0.0,0.1141476,0.0,0.0,0.0,0.0,0.0,0.0,0.0,0.0,0,0,0,0,0,0,0,3,3,0,0,3,1,0,0
191925209,-2.0868507e-37,0.0,0.116342545,0.0,0.0,0.0,0.0,0.0,0.0,0.0,0.0,0,0,0,0,0,0,0,3,3,0,0,3,1,0,0
192145258,-5.6303e-41,0.0,0.0869536,0.0,0.0,0.0,0.0,0.0,0.0,0.0,0.0,0,0,0,0,0,0,0,3,3,0,0,3,1,0,0
192337233,4.5e-44,0.0,0.08875069,0.0,0.0,0.0,0.0,0.0,0.0,0.0,0.0,0,0,0,0,0,0,0,3,3,0,0,3,1,0,0
192537401,0.0,0.0,0.09112832,0.0,0.0,0.0,0.0,0.0,0.0,0.0,0.0,0,0,0,0,0,0,0,3,3,0,0,3,1,0,0
192737137,0.0,0.0,0.09070001,0.0,0.0,0.0,0.0,0.0,0.0,0.0,0.0,0,0,0,0,0,0,0,3,3,0,0,3,1,0,0
192949217,0.0,0.0,0.08760907,0.0,0.0,0.0,0.0,0.0,0.0,0.0,0.0,0,0,0,0,0,0,0,3,3,0,0,3,1,0,0
193161588,0.0,0.0,0.091191776,0.0,0.0,0.0,0.0,0.0,0.0,0.0,0.0,0,0,0,0,0,0,0,3,3,0,0,3,1,0,0
193361369,0.0,0.0,0.09239671,0.0,0.0,0.0,0.0,0.0,0.0,0.0,0.0,0,0,0,0,0,0,0,3,3,0,0,3,1,0,0
193557520,0.0,0.0,0.11198151,0.0,0.0,0.0,0.0,0.0,0.0,0.0,0.0,0,0,0,0,0,0,0,3,3,0,0,3,1,0,0
193769174,0.0,0.0,0.28199276,0.0,0.0,0.0,0.0,0.0,0.0,0.0,0.0,0,0,0,0,0,0,0,3,3,0,0,3,1,0,0
193965140,0.0,0.0,0.49795392,0.0,0.0,0.0,0.0,0.0,0.0,0.0,0.0,0,0,0,0,0,0,0,3,3,0,0,3,1,0,0
194165166,0.0,0.08524504,0.49366316,0.0,0.0,0.0,0.0,0.0,0.0,0.0,0.0,0,0,0,0,0,0,0,3,3,0,0,3,1,0,0
194385518,0.0,0.23498394,0.493628,0.0,0.0,0.0,0.0,0.0,0.0,0.0,0.0,0,0,0,0,0,0,0,3,3,0,0,3,1,0,0
194569189,0.0,0.31737083,0.49411026,0.0,0.0,0.0,0.0,0.0,0.0,0.0,0.0,0,0,0,0,0,0,0,3,3,0,0,3,1,0,0
194785215,0.0,0.39227775,0.49393192,0.0,0.0,0.0,0.0,0.0,0.0,0.0,0.0,0,0,0,0,0,0,0,3,3,0,0,3,1,0,0
194981941,0.0,0.41908848,0.49477258,0.0,0.0,0.0,0.0,0.0,0.0,0.0,0.0,0,0,0,0,0,0,0,3,3,0,0,3,1,0,0
195190013,0.0,0.38353893,0.49497014,0.0,0.0,0.0,0.0,0.0,0.0,0.0,0.0,0,0,0,0,0,0,0,3,3,0,0,3,1,0,0
195381976,0.0,0.14603207,0.4949367,0.0,0.0,0.0,0.0,0.0,0.0,0.0,0.0,0,0,0,0,0,0,0,3,3,0,0,3,1,0,0
195589988,0.0,9.50634e-06,0.49368912,0.0,0.0,0.0,0.0,0.0,0.0,0.0,0.0,0,0,0,0,0,0,0,3,3,0,0,3,1,0,0
195790316,0.0,-2.4258144e-08,0.49497104,0.0,0.0,0.0,0.0,0.0,0.0,0.0,0.0,0,0,0,0,0,0,0,3,3,0,0,3,1,0,0
195990017,-0.04011559,-0.094556175,0.4949343,0.0,0.0,0.0,0.0,0.0,0.0,0.0,0.0,0,0,0,0,0,0,0,3,3,0,0,3,1,0,0
196194067,-0.036897905,-0.16961263,0.4944903,0.0,0.0,0.0,0.0,0.0,0.0,0.0,0.0,0,0,0,0,0,0,0,3,3,0,0,3,1,0,0
196409994,-0.07958748,-0.21335705,0.49493423,0.0,0.0,0.0,0.0,0.0,0.0,0.0,0.0,0,0,0,0,0,0,0,3,3,0,0,3,1,0,0
196602006,-0.10191828,-0.2626349,0.49411973,0.0,0.0,0.0,0.0,0.0,0.0,0.0,0.0,0,0,0,0,0,0,0,3,3,0,0,3,1,0,0
196802062,0.0030553897,-0.07413257,0.49500862,0.0,0.0,0.0,0.0,0.0,0.0,0.0,0.0,0,0,0,0,0,0,0,3,3,0,0,3,1,0,0
197001982,-8.3634365e-07,1.8292762e-05,0.49449742,0.0,0.0,0.0,0.0,0.0,0.0,0.0,0.0,0,0,0,0,0,0,0,3,3,0,0,3,1,0,0
197205936,-5.6353255e-10,1.541747e-08,0.4944976,0.0,0.0,0.0,0.0,0.0,0.0,0.0,0.0,0,0,0,0,0,0,0,3,3,0,0,3,1,0,0
197425933,2.6492385e-13,-6.1831816e-12,0.49493665,0.0,0.0,0.0,0.0,0.0,0.0,0.0,0.0,0,0,0,0,0,0,0,3,3,0,0,3,1,0,0
197613985,-0.09716402,-9.129938e-16,0.49467525,0.0,0.0,0.0,0.0,0.0,0.0,0.0,0.0,0,0,0,0,0,0,0,3,3,0,0,3,1,0,0
197814029,-0.3037918,3.4138515e-18,0.4949671,0.0,0.0,0.0,0.0,0.0,0.0,0.0,0.0,0,0,0,0,0,0,0,3,3,0,0,3,1,0,0
198030166,-0.07515464,-2.1732424e-22,0.49500751,0.0,0.0,0.0,0.0,0.0,0.0,0.0,0.0,0,0,0,0,0,0,0,3,3,0,0,3,1,0,0
198225961,1.6125477e-05,-4.662932e-25,0.49460247,0.0,0.0,0.0,0.0,0.0,0.0,0.0,0.0,0,0,0,0,0,0,0,3,3,0,0,3,1,0,0
198426238,-2.7022983e-08,4.988539e-28,0.4949368,0.0,0.0,0.0,0.0,0.0,0.0,0.0,0.0,0,0,0,0,0,0,0,3,3,0,0,3,1,0,0
198622779,1.6753349e-11,-2.3790306e-31,0.49467525,0.0,0.0,0.0,0.0,0.0,0.0,0.0,0.0,0,0,0,0,0,0,0,3,3,0,0,3,1,0,0
198826739,-3.1798712e-15,-3.5722283e-36,0.49703112,0.0,0.0,0.0,0.0,0.0,0.0,0.0,0.0,0,0,0,0,0,0,0,3,3,0,0,3,1,0,0
199034779,-4.316758e-18,1.038166e-37,0.5179996,0.0,0.0,0.0,0.0,0.0,0.0,0.0,0.0,0,0,0,0,0,0,0,3,3,0,0,3,1,0,0
199234960,5.11257e-21,-8.9072e-41,0.57143104,0.0,0.0,0.0,0.0,0.0,0.0,0.0,0.0,0,0,0,0,0,0,0,3,3,0,0,3,1,0,0
199426744,-2.633783e-24,3.4e-44,0.5778351,0.0,0.0,0.0,0.0,0.0,0.0,0.0,0.0,0,0,0,0,0,0,0,3,3,0,0,3,1,0,0
199635121,-8.552731e-28,0.0,0.6043635,0.0,0.0,0.0,0.0,0.0,0.0,0.0,0.0,0,0,0,0,0,0,0,3,3,0,0,3,1,0,0
199846833,2.4224305e-32,0.0,0.5683801,0.0,0.0,0.0,0.0,0.0,0.0,0.0,0.0,0,0,0,0,0,0,0,3,3,0,0,3,1,0,0
200042773,1.2375106e-34,0.0,0.551035,0.0,0.0,0.0,0.0,0.0,0.0,0.0,0.0,0,0,0,0,0,0,0,3,3,0,0,3,1,0,0
200242819,-1.1823285e-37,0.0,0.49474475,0.0,0.0,0.0,0.0,0.0,0.0,0.0,0.0,0,0,0,0,0,0,0,3,3,0,0,3,1,0,0
200451014,5.0783e-41,0.0,0.49532956,0.0,0.0,0.0,0.0,0.0,0.0,0.0,0.0,0,0,0,0,0,0,0,3,3,0,0,3,1,0,0
200662951,2.2e-44,0.0,0.54591674,0.0,0.0,0.0,0.0,0.0,0.0,0.0,0.0,0,0,0,0,0,0,0,3,3,0,0,3,1,0,0
200859152,0.0,0.0,0.596165,0.0,0.0,0.0,0.0,0.0,0.0,0.0,0.0,0,0,0,0,0,0,0,3,3,0,0,3,1,0,0
201062777,0.0,0.0,0.6179766,0.0,0.0,0.0,0.0,0.0,0.0,0.0,0.0,0,0,0,0,0,0,0,3,3,0,0,3,1,0,0
201270937,0.0,0.0,0.5848888,0.0,0.0,0.0,0.0,0.0,0.0,0.0,0.0,0,0,0,0,0,0,0,3,3,0,0,3,1,0,0
201462761,0.0,0.0,0.4960558,0.0,0.0,0.0,0.0,0.0,0.0,0.0,0.0,0,0,0,0,0,0,0,3,3,0,0,3,1,0,0
201683032,0.0,0.0,0.49579895,0.0,0.0,0.0,0.0,0.0,0.0,0.0,0.0,0,0,0,0,0,0,0,3,3,0,0,3,1,0,0
201878863,-0.07886761,0.0,0.49597415,0.0,0.0,0.0,0.0,0.0,0.0,0.0,0.0,0,0,0,0,0,0,0,3,3,0,0,3,1,0,0
202078783,-0.30207628,0.0,0.49627393,0.0,0.0,0.0,0.0,0.0,0.0,0.0,0.0,0,0,0,0,0,0,0,3,3,0,0,3,1,0,0
202279542,-0.28599814,0.0,0.49620244,0.0,0.0,0.0,0.0,0.0,0.0,0.0,0.0,0,0,0,0,0,0,0,3,3,0,0,3,1,0,0
202487590,0.0021443935,0.0,0.4962025,0.0,0.0,0.0,0.0,0.0,0.0,0.0,0.0,0,0,0,0,0,0,0,3,3,0,0,3,1,0,0
203083616,-1.636839e-12,0.0,0.49575612,0.0,0.0,0.0,0.0,0.0,0.0,0.0,0.0,0,0,0,0,0,0,0,3,3,0,0,3,1,0,0
203695584,-8.888699e-22,0.0,0.6367107,0.0,0.0,0.0,0.0,0.0,0.0,0.0,0.0,0,0,0,0,0,0,0,3,3,0,0,3,1,0,0
203903597,-2.193228e-25,0.0,0.703547,0.0,0.0,0.0,0.0,0.0,0.0,0.0,0.0,0,0,0,0,0,0,0,3,3,0,0,3,1,0,0
204087665,2.2643166e-28,0.0,0.7136699,0.0,0.0,0.0,0.0,0.0,0.0,0.0,0.0,0,0,0,0,0,0,0,3,3,0,0,3,1,0,0
204295571,-2.7024667e-31,0.0,0.72283685,0.0,0.0,0.0,0.0,0.0,0.0,0.0,0.0,0,0,0,0,0,0,0,3,3,0,0,3,1,0,0
204503614,1.3996012e-34,0.0,0.72970945,0.0,0.0,0.0,0.0,0.0,0.0,0.0,0.0,0,0,0,0,0,0,0,3,3,0,0,3,1,0,0
204699594,-7.732392e-39,0.0,0.7303795,0.0,0.0,0.0,0.0,0.0,0.0,0.0,0.0,0,0,0,0,0,0,0,3,3,0,0,3,1,0,0
204903556,-5.2497e-41,0.0,0.7377154,0.0,0.0,0.0,0.0,0.0,0.0,0.0,0.0,0,0,0,0,0,0,0,3,3,0,0,3,1,0,0
205119585,1e-44,0.0,0.74794847,0.0,0.0,0.0,0.0,0.0,0.0,0.0,0.0,0,0,0,0,0,0,0,3,3,0,0,3,1,0,0
205315742,0.0,0.0,0.7494017,0.0,0.0,0.0,0.0,0.0,0.0,0.0,0.0,0,0,0,0,0,0,0,3,3,0,0,3,1,0,0
205527667,0.0,0.0,0.7496026,0.0,0.0,0.0,0.0,0.0,0.0,0.0,0.0,0,0,0,0,0,0,0,3,3,0,0,3,1,0,0
205723546,0.0,0.0,0.75062394,0.0,0.0,0.0,0.0,0.0,0.0,0.0,0.0,0,0,0,0,0,0,0,3,3,0,0,3,1,0,0
205919596,0.0,0.0,0.7507037,0.0,0.0,0.0,0.0,0.0,0.0,0.0,0.0,0,0,0,0,0,0,0,3,3,0,0,3,1,0,0
206120379,0.0,0.0,0.75188076,0.0,0.0,0.0,0.0,0.0,0.0,0.0,0.0,0,0,0,0,0,0,0,3,3,0,0,3,1,0,0
206339601,0.0,0.0,0.7514185,0.0,0.0,0.0,0.0,0.0,0.0,0.0,0.0,0,0,0,0,0,0,0,3,3,0,0,3,1,0,0
206540760,0.0,0.0,0.75189877,0.0,0.0,0.0,0.0,0.0,0.0,0.0,0.0,0,0,0,0,0,0,0,3,3,0,0,3,1,0,0
206736602,0.0,0.0,0.7530765,0.0,0.0,0.0,0.0,0.0,0.0,0.0,0.0,0,0,0,0,0,0,0,3,3,0,0,3,1,0,0
206940337,0.0,0.0,0.7437975,0.0,0.0,0.0,0.0,0.0,0.0,0.0,0.0,0,0,0,0,0,0,0,3,3,0,0,3,1,0,0
207144358,0.0,0.0,0.6378934,0.0,0.0,0.0,0.0,0.0,0.0,0.0,0.0,0,0,0,0,0,0,0,3,3,0,0,3,1,0,0
207352380,0.0,0.0,0.4947428,0.0,0.0,0.0,0.0,0.0,0.0,0.0,0.0,0,0,0,0,0,0,0,3,3,0,0,3,1,0,0
207552364,0.0,0.0,0.49337226,0.0,0.0,0.0,0.0,0.0,0.0,0.0,0.0,0,0,0,0,0,0,0,3,3,0,0,3,1,0,0
207752616,0.0,0.0,0.49367082,0.0,0.0,0.0,0.0,0.0,0.0,0.0,0.0,0,0,0,0,0,0,0,3,3,0,0,3,1,0,0
207952374,0.0,0.0,0.4936709,0.0,0.0,0.0,0.0,0.0,0.0,0.0,0.0,0,0,0,0,0,0,0,3,3,0,0,3,1,0,0
208156648,0.0,0.0,0.49370384,0.0,0.0,0.0,0.0,0.0,0.0,0.0,0.0,0,0,0,0,0,0,0,3,3,0,0,3,1,0,0
208360371,0.0,0.0,0.49367088,0.0,0.0,0.0,0.0,0.0,0.0,0.0,0.0,0,0,0,0,0,0,0,3,3,0,0,3,1,0,0
208556727,0.0,0.0,0.4936709,0.0,0.0,0.0,0.0,0.0,0.0,0.0,0.0,0,0,0,0,0,0,0,3,3,0,0,3,1,0,0
208760455,0.0,0.0,0.47429046,0.0,0.0,0.0,0.0,0.0,0.0,0.0,0.0,0,0,0,0,0,0,0,3,3,0,0,3,1,0,0
208960390,0.0,0.0,0.3504469,0.0,0.0,0.0,0.0,0.0,0.0,0.0,0.0,0,0,0,0,0,0,0,3,3,0,0,3,1,0,0
209160412,0.0,0.0,0.27516967,0.0,0.0,0.0,0.0,0.0,0.0,0.0,0.0,0,0,0,0,0,0,0,3,3,0,0,3,1,0,0
209372342,0.0,0.0,0.19910729,0.0,0.0,0.0,0.0,0.0,0.0,0.0,0.0,0,0,0,0,0,0,0,3,3,0,0,3,1,0,0
209572541,0.0,0.0,0.15401216,0.0,0.0,0.0,0.0,0.0,0.0,0.0,0.0,0,0,0,0,0,0,0,3,3,0,0,3,1,0,0
209768555,0.0,0.0,0.09614314,0.0,0.0,0.0,0.0,0.0,0.0,0.0,0.0,0,0,0,0,0,0,0,3,3,0,0,3,1,0,0
209968367,0.0,0.0,0.053783294,0.0,0.0,0.0,0.0,0.0,0.0,0.0,0.0,0,0,0,0,0,0,0,3,3,0,0,3,1,0,0
210172373,0.0,0.0,0.053067226,0.0,0.0,0.0,0.0,0.0,0.0,0.0,0.0,0,0,0,0,0,0,0,3,3,0,0,3,1,0,0
210388383,0.0,0.0,0.049749713,0.0,0.0,0.0,0.0,0.0,0.0,0.0,0.0,0,0,0,0,0,0,0,3,3,0,0,3,1,0,0
210585996,0.0,0.0,0.042972777,0.0,0.0,0.0,0.0,0.0,0.0,0.0,0.0,0,0,0,0,0,0,0,3,3,0,0,3,1,0,0
210769254,0.0,0.0,0.034618333,0.0,0.0,0.0,0.0,0.0,0.0,0.0,0.0,0,0,0,0,0,0,0,3,3,0,0,3,1,0,0
210989552,0.0,0.0,0.03239557,0.0,0.0,0.0,0.0,0.0,0.0,0.0,0.0,0,0,0,0,0,0,0,3,3,0,0,3,1,0,0
211189178,0.0,0.0,0.02347051,0.0,0.0,0.0,0.0,0.0,0.0,0.0,0.0,0,0,0,0,0,0,0,3,3,0,0,3,1,0,0
211401187,0.0,0.0,0.019732578,0.0,0.0,0.0,0.0,0.0,0.0,0.0,0.0,0,0,0,0,0,0,0,3,3,0,0,3,1,0,0
211593166,0.0,0.0,0.000557083,0.0,0.0,0.0,0.0,0.0,0.0,0.0,0.0,0,0,0,0,0,0,0,3,3,0,0,3,1,0,0
211789603,0.0,0.0,0.0,0.0,0.0,0.0,0.0,0.0,0.0,0.0,0.0,0,0,0,0,0,0,0,3,3,0,0,3,1,0,0
211993153,0.0,0.0,0.0,0.0,0.0,0.0,0.0,0.0,0.0,0.0,0.0,0,0,0,0,0,0,0,3,3,0,0,3,1,0,0
212205181,0.0,0.0,3.2728923e-14,0.0,0.0,0.0,0.0,0.0,0.0,0.0,0.0,0,0,0,0,0,0,0,3,3,0,0,3,1,0,0
212417155,0.0,0.0,2.5148373e-17,0.0,0.0,0.0,0.0,0.0,0.0,0.0,0.0,0,0,0,0,0,0,0,3,3,0,0,3,1,0,0
212617526,0.0,0.0,0.0,0.0,0.0,0.0,0.0,0.0,0.0,0.0,0.0,0,0,0,0,0,0,0,3,3,0,0,3,1,0,0
212809426,0.0,0.0,0.0,0.0,0.0,0.0,0.0,0.0,0.0,0.0,0.0,0,0,0,0,0,0,0,3,3,0,0,3,1,0,0
213005155,0.0,0.0,5.66569e-27,0.0,0.0,0.0,0.0,0.0,0.0,0.0,0.0,0,0,0,0,0,0,0,3,3,0,0,3,1,0,0
213209286,0.0,0.0,0.0,0.0,0.0,0.0,0.0,0.0,0.0,0.0,0.0,0,0,0,0,0,0,0,3,3,0,0,3,1,0,0
213405214,0.0,0.0,1.4370067e-33,0.0,0.0,0.0,0.0,0.0,0.0,0.0,0.0,0,0,0,0,0,0,0,3,3,0,0,3,1,0,0
213605254,0.0,0.0,6.0660717e-37,0.0,0.0,0.0,0.0,0.0,0.0,0.0,0.0,0,0,0,0,0,0,0,3,3,0,0,3,1,0,0
213821172,0.0,0.0,0.0,0.0,0.0,0.0,0.0,0.0,0.0,0.0,0.0,0,0,0,0,0,0,0,3,3,0,0,3,1,0,0
214013149,0.0,0.0,0.1858732,0.0,0.0,0.0,0.0,0.0,0.0,0.0,0.0,0,0,0,0,0,0,0,3,3,0,0,3,1,0,0
214233427,0.0,0.0,0.4785236,0.0,0.0,0.0,0.0,0.0,0.0,0.0,0.0,0,0,0,0,0,0,0,3,3,0,0,3,1,0,0
214417517,0.0,0.0,0.49263194,0.0,0.0,0.0,0.0,0.0,0.0,0.0,0.0,0,0,0,0,0,0,0,3,3,0,0,3,1,0,0
214617198,0.0,0.0,0.49344444,0.0,0.0,0.0,0.0,0.0,0.0,0.0,0.0,0,0,0,0,0,0,0,3,3,0,0,3,1,0,0
214817370,-0.03299406,0.010753673,0.49366897,0.0,0.0,0.0,0.0,0.0,0.0,0.0,0.0,0,0,0,0,0,0,0,3,3,0,0,3,1,0,0
215037935,-0.3062546,0.0776876,0.4936709,0.0,0.0,0.0,0.0,0.0,0.0,0.0,0.0,0,0,0,0,0,0,0,3,3,0,0,3,1,0,0
215225944,-0.35576123,0.048981458,0.4936709,0.0,0.0,0.0,0.0,0.0,0.0,0.0,0.0,0,0,0,0,0,0,0,3,3,0,0,3,1,0,0
215445976,-0.2515231,0.2136221,0.4936709,0.0,0.0,0.0,0.0,0.0,0.0,0.0,0.0,0,0,0,0,0,0,0,3,3,0,0,3,1,0,0
215646016,-0.09747491,0.35504198,0.4936709,0.0,0.0,0.0,0.0,0.0,0.0,0.0,0.0,0,0,0,0,0,0,0,3,3,0,0,3,1,0,0
215846065,-0.005777716,0.5308693,0.49323168,0.0,0.0,0.0,0.0,0.0,0.0,0.0,0.0,0,0,0,0,0,0,0,3,3,0,0,3,1,0,0
216038316,3.7992031e-06,0.5690144,0.4934083,0.0,0.0,0.0,0.0,0.0,0.0,0.0,0.0,0,0,0,0,0,0,0,3,3,0,0,3,1,0,0
216241958,-8.6940855e-10,0.39671102,0.49367142,0.0,0.0,0.0,0.0,0.0,0.0,0.0,0.0,0,0,0,0,0,0,0,3,3,0,0,3,1,0,0
216461985,-7.7231803e-13,0.0012172149,0.49367276,0.0,0.0,0.0,0.0,0.0,0.0,0.0,0.0,0,0,0,0,0,0,0,3,3,0,0,3,1,0,0
216653971,3.0855137e-16,-3.747461e-07,0.4941101,0.0,0.0,0.0,0.0,0.0,0.0,0.0,0.0,0,0,0,0,0,0,0,3,3,0,0,3,1,0,0
216854064,5.7679886e-20,-0.051767256,0.49367073,0.0,0.0,0.0,0.0,0.0,0.0,0.0,0.0,0,0,0,0,0,0,0,3,3,0,0,3,1,0,0
217070163,-0.10774143,-0.3177685,0.4936709,0.0,0.0,0.0,0.0,0.0,0.0,0.0,0.0,0,0,0,0,0,0,0,3,3,0,0,3,1,0,0
217265980,-0.013504388,-0.16105227,0.4931954,0.0,0.0,0.0,0.0,0.0,0.0,0.0,0.0,0,0,0,0,0,0,0,3,3,0,0,3,1,0,0
217470212,2.4843011e-06,-0.00020310478,0.49448112,0.0,0.0,0.0,0.0,0.0,0.0,0.0,0.0,0,0,0,0,0,0,0,3,3,0,0,3,1,0,0
217661945,-0.045387827,1.15946136e-07,0.4939408,0.0,0.0,0.0,0.0,0.0,0.0,0.0,0.0,0,0,0,0,0,0,0,3,3,0,0,3,1,0,0
217881978,-0.3908058,3.255453e-11,0.49466392,0.0,0.0,0.0,0.0,0.0,0.0,0.0,0.0,0,0,0,0,0,0,0,3,3,0,0,3,1,0,0
218077980,-0.06478036,-2.4994955e-14,0.49381986,0.0,0.0,0.0,0.0,0.0,0.0,0.0,0.0,0,0,0,0,0,0,0,3,3,0,0,3,1,0,0
218289991,-3.6398942e-06,-4.412046e-18,0.4928028,0.0,0.0,0.0,0.0,0.0,0.0,0.0,0.0,0,0,0,0,0,0,0,3,3,0,0,3,1,0,0
218486331,1.062865e-08,-0.04136236,0.4943446,0.0,0.0,0.0,0.0,0.0,0.0,0.0,0.0,0,0,0,0,0,0,0,3,3,0,0,3,1,0,0
218686142,0.060486335,-0.06925634,0.49445596,0.0,0.0,0.0,0.0,0.0,0.0,0.0,0.0,0,0,0,0,0,0,0,3,3,0,0,3,1,0,0
218897992,0.12590809,-0.0057406183,0.49404594,0.0,0.0,0.0,0.0,0.0,0.0,0.0,0.0,0,0,0,0,0,0,0,3,3,0,0,3,1,0,0
219098345,4.068817e-05,7.5522044e-06,0.49467415,0.0,0.0,0.0,0.0,0.0,0.0,0.0,0.0,0,0,0,0,0,0,0,3,3,0,0,3,1,0,0
219297950,9.462759e-08,-7.703698e-09,0.60723525,0.0,0.0,0.0,0.0,0.0,0.0,0.0,0.0,0,0,0,0,0,0,0,3,3,0,0,3,1,0,0
219485935,-9.9789926e-11,3.525176e-12,0.6487891,0.0,0.0,0.0,0.0,0.0,0.0,0.0,0.0,0,0,0,0,0,0,0,3,3,0,0,3,1,0,0
219694145,4.7017877e-14,1.8492405e-16,0.6534832,0.0,0.0,0.0,0.0,0.0,0.0,0.0,0.0,0,0,0,0,0,0,0,3,3,0,0,3,1,0,0
219893971,1.2135667e-18,-1.6534926e-18,0.5674164,0.0,0.0,0.0,0.0,0.0,0.0,0.0,0.0,0,0,0,0,0,0,0,3,3,0,0,3,1,0,0
220110785,-1.1063247e-20,1.6496409e-22,0.495438,0.0,0.0,0.0,0.0,0.0,0.0,0.0,0.0,0,0,0,0,0,0,0,3,3,0,0,3,1,0,0
220306810,2.3535501e-24,2.12157e-25,0.49620292,0.0,0.0,0.0,0.0,0.0,0.0,0.0,0.0,0,0,0,0,0,0,0,3,3,0,0,3,1,0,0
