timestamp,magnetometer_ga[0],magnetometer_ga[1],magnetometer_ga[2]
100773483,0.021995302,0.1622902,0.3132623
100823095,0.032552946,0.14424406,0.31929588
100833480,0.03260846,0.1405674,0.30753565
100843869,0.03260846,0.1405674,0.30753565
100853479,0.029093822,0.14416744,0.30455542
100862318,0.030837419,0.14961345,0.30895266
100873479,0.0025941164,0.13516735,0.3118394
100882327,0.034296103,0.13161328,0.3237872
100893479,0.04140897,0.13155198,0.31204146
100902306,0.051981222,0.1424134,0.31497976
100913479,0.041395336,0.1424134,0.31492978
100922330,0.041395336,0.1424134,0.31492978
100941468,0.03609557,0.14784408,0.31634897
100951089,0.050168388,0.14789005,0.32524988
100961468,0.036025975,0.14430536,0.33109158
100971095,0.037783742,0.16058213,0.3324876
100981468,0.02725345,0.16052084,0.3206586
100991068,0.029010596,0.15149009,0.32218635
101001468,0.03959675,0.16233617,0.32217988
101011869,0.03959675,0.16233617,0.32217988
101021487,0.025454072,0.14790538,0.32807803
101030318,0.037852623,0.135198,0.31789553
101041468,0.037852887,0.14604408,0.3178391
101050317,0.018438337,0.1406287,0.31924805
101061468,0.0255373,0.14058273,0.3104471
101070317,0.036053687,0.14065935,0.32522088
101081468,0.037839256,0.15690547,0.32072738
101090272,0.037839256,0.15690547,0.32072738
101099069,0.027294531,0.13516735,0.31195602
101109490,0.03082325,0.1387827,0.31195384
101119069,0.037894413,0.13876738,0.30904242
101129480,0.030753834,0.1424747,0.32665887
101139083,0.020126684,0.16059746,0.33534908
101149481,0.044868536,0.14970541,0.32668787
101159079,0.030795805,0.15327477,0.31776813
101169481,0.028996516,0.14427471,0.32516876
101179871,0.028996516,0.14427471,0.32516876
101189480,0.0360119,0.13708998,0.33407396
101198272,0.043111037,0.14427471,0.3252354
101209480,0.032511424,0.15152074,0.32809255
101218317,0.027281076,0.15325946,0.31480673
101229480,0.039568685,0.15152074,0.32812586
101238276,0.039596397,0.14787473,0.32225513
101249480,0.03956824,0.13344395,0.32821992
101258269,0.03956824,0.13344395,0.32821992
101267085,0.029065933,0.14058273,0.31046373
101277468,0.037866347,0.12795196,0.3149884
101287070,0.027239017,0.138844,0.32371628
101297468,0.037824996,0.14245936,0.32374743
101307069,0.037866436,0.13156731,0.31496957
101317468,0.029010596,0.15149009,0.32218635
101327073,0.039582316,0.14065935,0.32523754
101337469,0.039582316,0.14065935,0.32523754
101347869,0.039582316,0.14065935,0.32523754
101357468,0.023641238,0.15338205,0.33834812
101366293,0.025454339,0.15875146,0.3280216
101377468,0.03246972,0.15156671,0.33692682
101386285,0.03609557,0.14784408,0.31634897
101397468,0.030754102,0.15332076,0.32660243
101406276,0.030781904,0.15329011,0.3207129
101417475,0.048383538,0.1605668,0.32959282
101426279,0.048383538,0.1605668,0.32959282
101435069,0.03779764,0.1605668,0.32954288
101445469,0.032553215,0.15509012,0.31923944
101455068,0.023710653,0.14969008,0.32364318
101465468,0.036040235,0.15875146,0.32807156
101475068,0.034282826,0.15693612,0.32660028
101485468,0.030809348,0.13879803,0.31489864
101495069,0.037866525,0.13518268,0.31495076
101505469,0.037866525,0.13518268,0.31495076
101514269,0.023710743,0.15330543,0.32362437
101525468,0.023710653,0.14969008,0.32364318
101534269,0.02719758,0.14973605,0.33249408
101544668,0.039540704,0.1443207,0.33405298
101554323,0.032511603,0.15875146,0.3280549
101565468,0.030781904,0.15329011,0.3207129
101585468,0.023752533,0.15687482,0.31477126
101594269,0.023752533,0.15687482,0.31477126
101603081,0.036068212,0.16595152,0.3221444
101613485,0.034282647,0.14970541,0.3266379
101623072,0.043139108,0.15509012,0.31928942
101633473,0.03779755,0.15695144,0.32956168
101643084,0.041367445,0.13882868,0.32083812
101653473,0.030740112,0.14972073,0.329566
101663070,0.039568864,0.15875146,0.32808822
101673474,0.039568864,0.15875146,0.32808822
101682269,0.041284576,0.16061278,0.33839378
101693474,0.021870371,0.16965884,0.33972752
101702269,0.02189773,0.1515514,0.33393207
101713469,0.029010773,0.1587208,0.3221487
101722326,0.05548214,0.14605941,0.32086712
101733474,0.023654783,0.1389053,0.33547863
101742283,0.037811365,0.15332076,0.32663575
101753481,0.02898297,0.15875146,0.32803825
101762282,0.02898297,0.15875146,0.32803825
101771083,0.027198024,0.16781282,0.33240002
101781468,0.030795895,0.15689014,0.31774932
101791081,0.032539405,0.1587208,0.32216537
101801468,0.025495775,0.1478594,0.31924376
101811074,0.03779764,0.1605668,0.32954288
101821468,0.023710476,0.14245936,0.3236808
101831115,0.032525588,0.16235149,0.32509133
101850269,0.028982705,0.14790538,0.3280947
101861468,0.021939432,0.15150541,0.32509783
101870268,0.03961074,0.16593619,0.3192163
101881468,0.04132583,0.14249001,0.3296536
101890289,0.03955487,0.15515143,0.3310518
101901468,0.035984717,0.16242813,0.33983177
101910283,0.030754013,0.14970541,0.32662123
101921468,0.025523933,0.1622902,0.31327897
101930288,0.025523933,0.1622902,0.31327897
101939074,0.03604041,0.16598217,0.32803392
101949468,0.030768182,0.16053616,0.32362005
101959115,0.034268476,0.13887465,0.3296391
101969468,0.034268655,0.14610538,0.32960147
101979074,0.02548214,0.1587208,0.32213205
101989487,0.039582673,0.15512078,0.3251623
101999072,0.03774159,0.14255132,0.34141597
102018268,0.0413817,0.15327477,0.3178181
102027881,0.034310717,0.16052084,0.3206919
102038268,0.030768447,0.17138222,0.3235636
102047875,0.044882435,0.14969008,0.3237431
102058314,0.016625678,0.15333608,0.32948056
102068669,0.02896916,0.16238214,0.3309642
102078308,0.041340265,0.16416682,0.32659596
102088669,0.041340265,0.16416682,0.32659596
102098288,0.041340265,0.16416682,0.32659596
102107868,0.032511603,0.15875146,0.3280549
102118282,0.032511156,0.14067468,0.328149
102127124,0.034282915,0.16055149,0.32658145
102138268,0.027211482,0.14972073,0.32954934
102147088,0.037852976,0.14965943,0.31782025
102158268,0.027225649,0.16055149,0.32654813
102167068,0.04131211,0.14973605,0.33256072
102186268,0.036012255,0.1515514,0.3339987
102195905,0.027211837,0.16418214,0.3294741
102206268,0.03606759,0.14064403,0.32227612
102215891,0.037852976,0.14965943,0.31782025
102226281,0.032483622,0.1515514,0.33398205
102235908,0.025440171,0.1479207,0.3310228
102246279,0.023752267,0.14602876,0.31482768
102256669,0.023752267,0.14602876,0.31482768
102266275,0.023752267,0.14602876,0.31482768
102275074,0.04309714,0.14429004,0.32818013
102286282,0.02894118,0.15518208,0.33689132
102295083,0.036025975,0.14430536,0.33109158
102306268,0.032511245,0.14429004,0.32813016
102315068,0.025495775,0.1478594,0.31924376
102326268,0.02902414,0.13701335,0.31931683
102335069,0.04312494,0.1442594,0.3222906
102354278,0.036012698,0.16962819,0.33390462
102363868,0.027198024,0.16781282,0.33240002
102374268,0.030712754,0.16782816,0.33536142
102383878,0.030754281,0.16055149,0.3265648
102394275,0.027197758,0.15696676,0.33245647
102403883,0.02371092,0.16053616,0.32358673
102414279,0.02541228,0.14433601,0.3369311
102424669,0.02541228,0.14433601,0.3369311
102434275,0.02541228,0.14433601,0.3369311
102443104,0.043069605,0.15516676,0.3340132
102454281,0.0324977,0.15876678,0.33099967
102463069,0.034255024,0.15696676,0.3324898
102474268,0.032525588,0.16235149,0.32509133
102483069,0.032469984,0.16241279,0.33687037
102494268,0.028941713,0.17687422,0.33677843
102503069,0.027253361,0.15690547,0.32067743
102513482,0.027253361,0.15690547,0.32067743
102522268,0.04305579,0.15879743,0.33693916
102531906,0.029024407,0.1478594,0.31926042
102542268,0.039541062,0.15878211,0.33397773
102551910,0.01313875,0.15329011,0.3206296
102562280,0.032483976,0.16601282,0.3339068
102571880,0.034268744,0.14972073,0.32958266
102582268,0.041298028,0.14252067,0.3355431
102592676,0.041298028,0.14252067,0.3355431
102602276,0.041298028,0.14252067,0.3355431
102611069,0.027225383,0.14970541,0.32660457
102622283,0.02368294,0.15333608,0.32951388
102631069,0.030754456,0.16778219,0.32652718
102642268,0.029010862,0.16233617,0.3221299
102651069,0.028927546,0.16604348,0.33977965
102662268,0.030754281,0.16055149,0.3265648
102671069,0.03608211,0.16593619,0.31919965
102680716,0.03608211,0.16593619,0.31919965
102690268,0.02718368,0.14975138,0.33543885
102699918,0.013097136,0.15695144,0.3294451
102710268,0.028982705,0.14790538,0.3280947
102719910,0.04489616,0.14244404,0.32083595
102730308,0.036053866,0.14789005,0.32518327
102739871,0.032553215,0.15509012,0.31923944
102750294,0.020154309,0.15333608,0.32949722
102760679,0.020154309,0.15333608,0.32949722
102770268,0.036081757,0.15147476,0.3192749
102779069,0.027225472,0.15332076,0.32658577
102790268,0.021967234,0.15147476,0.31920826
102799068,0.032539137,0.14787473,0.32222182
102810268,0.023682851,0.14972073,0.32953268
102819070,0.027253361,0.15690547,0.32067743
102830268,0.039568774,0.15513611,0.32810703
102839069,0.039540883,0.1515514,0.33401537
102848719,0.039540883,0.1515514,0.33401537
102858268,0.03959675,0.16233617,0.32217988
102867914,0.04838318,0.14610538,0.3296681
102878268,0.02898306,0.16236682,0.32801944
102887903,0.041367892,0.15690547,0.32074404
102898311,0.03246954,0.14433601,0.33696443
102907917,0.041367624,0.14605941,0.32080048
102918308,0.044896338,0.14967476,0.32079834
102927915,0.044896338,0.14967476,0.32079834
102938268,0.025468152,0.15512078,0.32509565
102947069,0.04131202,0.1461207,0.33257952
102958268,0.036053687,0.14065935,0.32522088
102967069,0.030781815,0.14967476,0.3207317
102978269,0.030767914,0.14969008,0.3236765
102987068,0.028927457,0.16242813,0.33979845
102998268,0.020154485,0.1605668,0.32945958
103007068,0.021925708,0.15875146,0.32800493
103016717,0.021925708,0.15875146,0.32800493
103026268,0.04312521,0.15510546,0.32223415
103035911,0.030725857,0.13527462,0.33258602
103046268,0.037811454,0.15693612,0.3266169
103055900,0.037797283,0.14610538,0.32961813
103066281,0.020112606,0.15338205,0.33833146
103075906,0.044840556,0.14250533,0.33261502
103086281,0.035984453,0.15158205,0.33988822
103095883,0.035984453,0.15158205,0.33988822
103106275,0.032525145,0.14427471,0.32518542
103115071,0.04836946,0.1533514,0.33257523
103126288,0.044854544,0.14610538,0.32965145
103135069,0.028955525,0.17324352,0.3338525
103146268,0.021967323,0.15509012,0.31918946
103155069,0.037825264,0.15330543,0.32369098
103166268,0.03424112,0.1569821,0.33543453
103175069,0.03424112,0.1569821,0.33543453
103183899,0.028941091,0.15156671,0.33691016
103194268,0.032497343,0.14430536,0.33107492
103203913,0.0166255,0.14610538,0.32951817
103214268,0.028996784,0.15512078,0.3251123
103223900,0.04135372,0.14607473,0.32374528
103234279,0.029010952,0.16595152,0.3221111
103243928,0.028996872,0.15873612,0.3250935
103254268,0.043125384,0.16233617,0.32219654
103263869,0.043125384,0.16233617,0.32219654
103274279,0.02365505,0.14975138,0.3354222
103283069,0.039582405,0.14427471,0.32521874
103294286,0.02898297,0.15875146,0.32803825
103303069,0.036095925,0.16230552,0.31627372
103314269,0.037838988,0.14605941,0.32078382
103323069,0.032525323,0.15150541,0.32514778
103333508,0.043083593,0.15876678,0.33104965
103343069,0.043083593,0.15876678,0.33104965
103351909,0.04665357,0.1442594,0.32230726
103362268,0.036026064,0.1479207,0.33107278
103371903,0.043069694,0.15878211,0.3339944
103382268,0.023669217,0.16058213,0.332421
103391899,0.03245573,0.14796668,0.33989036
103402314,0.03605422,0.16235149,0.325108
103411887,0.030740201,0.15333608,0.32954717
103422276,0.030740201,0.15333608,0.32954717
103431869,0.030740201,0.15333608,0.32954717
103442274,0.02896907,0.15876678,0.330983
103451068,0.043125473,0.16595152,0.3221777
103462269,0.0324838,0.15878211,0.3339444
103471075,0.028996695,0.15150541,0.32513112
103482277,0.041326363,0.16418214,0.3295407
103491069,0.03782553,0.16415149,0.32363454
103502268,0.02541237,0.14795135,0.3369123
103511069,0.02541237,0.14795135,0.3369123
103519910,0.027197758,0.15696676,0.33245647
103531080,0.016583886,0.1497667,0.33833364
103539869,0.030768093,0.15692079,0.32363886
103551068,0.03599844,0.15518208,0.33692464
103559869,0.05545452,0.15332076,0.32671902
103571068,0.02719758,0.14973605,0.33249408
103579873,0.0466263,0.16598217,0.3280839
103599068,0.043069694,0.15878211,0.3339944
103608676,0.037783917,0.16781282,0.33245
103619068,0.046639934,0.15512078,0.3251956
103628670,0.029010685,0.15510546,0.32216752
103639069,0.034226954,0.14615135,0.33843574
103648678,0.032497343,0.14430536,0.33107492
103659068,0.034269013,0.1605668,0.32952622
103669517,0.034269013,0.1605668,0.32952622
103679068,0.018410712,0.14789005,0.32509997
103687916,0.043111306,0.15512078,0.32517895
103699075,0.029010596,0.15149009,0.32218635
103707903,0.037825175,0.14969008,0.32370982
103719087,0.050154578,0.15152074,0.3281758
103727869,0.04305579,0.15879743,0.33693916
103739071,0.037839167,0.15329011,0.3207462
103747891,0.029024407,0.1478594,0.31926042
103767068,0.025495864,0.15147476,0.31922492
103776670,0.043083325,0.1479207,0.33110607
103787078,0.03245591,0.15519741,0.33985275
103796669,0.04308368,0.16238214,0.33103082
103807087,0.02722556,0.15693612,0.32656696
103816676,0.039554603,0.14430536,0.33110824
103827068,0.043111216,0.15150541,0.32519776
103837469,0.043111216,0.15150541,0.32519776
103847075,0.039582938,0.16596684,0.32510585
103855884,0.03245573,0.14796668,0.33989036
103867068,0.034227043,0.1497667,0.3384169
103875884,0.050126866,0.15516676,0.3340465
103887068,0.028982883,0.15513611,0.32805708
103895880,0.043083236,0.14430536,0.3311249
103907068,0.023738455,0.14965943,0.31775364
103915889,0.023738455,0.14965943,0.31775364
103924687,0.03246945,0.14072065,0.33698323
103935068,0.025426893,0.17324352,0.33383584
103944674,0.02193961,0.15873612,0.3250602
103955068,0.03608149,0.1406287,0.31933135
103964675,0.03951317,0.15519741,0.33988607
103975068,0.034296814,0.16053616,0.3236367
103984715,0.044896428,0.15329011,0.3207795
103995075,0.027197758,0.15696676,0.33245647
104005469,0.027197758,0.15696676,0.33245647
104015068,0.034268655,0.14610538,0.32960147
104023914,0.043111127,0.14789005,0.32521656
104035069,0.043069426,0.14793603,0.33405083
104043880,0.02542627,0.14793603,0.33396754
104055068,0.032511514,0.15513611,0.32807374
104063869,0.034268744,0.14972073,0.32958266
104075068,0.03609566,0.15145944,0.31633016
104083887,0.03609566,0.15145944,0.31633016
104092678,0.027183857,0.1569821,0.3354012
104103068,0.04839735,0.15693612,0.3266669
104112669,0.037811454,0.15693612,0.3266169
104123069,0.03952698,0.15156671,0.3369601
104132689,0.032483354,0.14070533,0.3340385
104143086,0.027253184,0.14967476,0.32071504
104152671,0.034324348,0.14965943,0.3178036
104163069,0.034324348,0.14965943,0.3178036
104171869,0.03948519,0.14799732,0.3458132
104183068,0.03776948,0.14613603,0.33550763
104191885,0.034296725,0.15692079,0.32365552
104203068,0.03424103,0.15336673,0.33545336
104211879,0.029024763,0.16232084,0.31918514
104223069,0.037825085,0.14607473,0.32372862
104231884,0.032525588,0.16235149,0.32509133
104243075,0.025509942,0.15869015,0.31624255
104251869,0.025509942,0.15869015,0.31624255
104260673,0.036039967,0.14790538,0.328128
104271068,0.04308377,0.16599749,0.331012
104280714,0.03776984,0.16059746,0.33543238
104291068,0.04658433,0.15518208,0.33697462
104300686,0.04127076,0.16424344,0.34131974
104311068,0.020112516,0.1497667,0.3383503
104320677,0.04838345,0.15695144,0.32961166
104331076,0.04838345,0.15695144,0.32961166
104340668,0.04133991,0.14970541,0.3266712
104351075,0.043069072,0.1334746,0.33412609
104359873,0.03069823,0.14253598,0.33843789
104371068,0.039568596,0.14790538,0.32814467
104379877,0.039541062,0.15878211,0.33397773
104390268,0.036026064,0.1479207,0.33107278
104399873,0.016653568,0.15692079,0.32357222
104419070,0.03955487,0.15515143,0.3310518
104428675,0.034282826,0.15693612,0.32660028
104439068,0.036026597,0.16961285,0.3309599
104448726,0.036026154,0.15153606,0.33105394
104459069,0.039541237,0.16601282,0.33394012
104468697,0.030740112,0.14972073,0.329566
104479068,0.025454251,0.15513611,0.32804042
104488668,0.034255024,0.15696676,0.3324898
104499075,0.034255024,0.15696676,0.3324898
104507869,0.036026333,0.15876678,0.33101633
104519068,0.034254845,0.14973605,0.3325274
104527876,0.028982883,0.15513611,0.32805708
104539069,0.020196011,0.15329011,0.32066292
104547906,0.032539405,0.1587208,0.32216537
104559087,0.03601252,0.16239747,0.33394226
104567873,0.04134,0.15332076,0.3266524
104578295,0.04134,0.15332076,0.3266524
104587068,0.037797727,0.16418214,0.32952404
104597468,0.034282647,0.14970541,0.3266379
104607068,0.032483533,0.14793603,0.33400086
104616688,0.035998616,0.16241279,0.336887
104627070,0.028954992,0.1515514,0.3339654
104636669,0.036026154,0.15153606,0.33105394
104647868,0.036053866,0.14789005,0.32518327
104656669,0.036053866,0.14789005,0.32518327
104667069,0.036053866,0.14789005,0.32518327
104675868,0.041326452,0.1677975,0.3295219
104687068,0.025384657,0.15159737,0.342783
104695881,0.044771407,0.1570434,0.34726354
104707069,0.025412459,0.15156671,0.3368935
104715905,0.04489607,0.13882868,0.32085478
104727070,0.030698499,0.15338205,0.33838144
104735870,0.025412548,0.15518208,0.33687466
104745497,0.025412548,0.15518208,0.33687466
104755068,0.039610386,0.15147476,0.31929156
104764703,0.030739933,0.14249001,0.3296036
104775068,0.046612132,0.15515143,0.33108512
104784669,0.036012255,0.1515514,0.3339987
104795069,0.03772787,0.14979735,0.3443231
104804669,0.028996605,0.14789005,0.32514995
104815068,0.037811186,0.14609006,0.32667336
104824669,0.037811186,0.14609006,0.32667336
104835068,0.034268655,0.14610538,0.32960147
104843869,0.043069247,0.14070533,0.33408847
104855068,0.034240942,0.14975138,0.33547217
104863909,0.039568152,0.12982862,0.32823876
104875069,0.037852887,0.14604408,0.3178391
104883902,0.03785271,0.13881335,0.3178767
104895069,0.016611688,0.14973605,0.33244413
104903869,0.025481964,0.15149009,0.3221697
104913509,0.025481964,0.15149009,0.3221697
104923075,0.032483622,0.1515514,0.33398205
104932668,0.036039878,0.14429004,0.32814682
104943068,0.027170045,0.16061278,0.33832717
104952669,0.037825264,0.15330543,0.32369098
104963068,0.036095392,0.14061338,0.31638658
104972668,0.032567028,0.15145944,0.3163135
104983086,0.039568596,0.14790538,0.32814467
104992669,0.039568596,0.14790538,0.32814467
105001511,0.036039878,0.14429004,0.32814682
105011869,0.028941534,0.1696435,0.33681607
105021503,0.02719758,0.14973605,0.33249408
105032707,0.034296546,0.14969008,0.32369316
105041516,0.03606777,0.14787473,0.32223848
105051883,0.027169956,0.15699741,0.33834597
105063069,0.037811454,0.15693612,0.3266169
105071880,0.037811454,0.15693612,0.3266169
105080680,0.041298296,0.15336673,0.33548665
105091068,0.027170045,0.16061278,0.33832717
105100669,0.048369724,0.16419746,0.3325188
105111069,0.034296546,0.14969008,0.32369316
105120669,0.036040056,0.15152074,0.3281092
105131069,0.039554782,0.15153606,0.3310706
105140690,0.021884006,0.15879743,0.3368392
105160669,0.021884006,0.15879743,0.3368392
105169508,0.039554693,0.1479207,0.33108944
105179868,0.041367713,0.14967476,0.32078168
105189493,0.023710476,0.14245936,0.3236808
105199882,0.0342552,0.16419746,0.33245215
105209511,0.039541326,0.16962819,0.33392128
105219872,0.037755582,0.14615135,0.3384524
105229476,0.03776948,0.14613603,0.33550763
105239873,0.03776948,0.14613603,0.33550763
105248669,0.027211748,0.1605668,0.3294929
105259879,0.037825353,0.15692079,0.32367218
105268669,0.037811365,0.15332076,0.32663575
105279868,0.043139197,0.15870547,0.31927058
105288669,0.03958285,0.16235149,0.32512465
105299868,0.03604041,0.16598217,0.32803392
105308668,0.027211305,0.14249001,0.32958698
105327868,0.03604032,0.16236682,0.32805276
105337517,0.035998262,0.14795135,0.33696228
105347868,0.039582584,0.15150541,0.3251811
105357518,0.04836919,0.14250533,0.33263168
105367873,0.034296636,0.15330543,0.32367432
105377509,0.036096014,0.16592087,0.31625488
105387868,0.030781994,0.15690547,0.32069406
105397478,0.032511514,0.15513611,0.32807374
105407877,0.032511514,0.15513611,0.32807374
105416674,0.03951308,0.15158205,0.33990487
105427879,0.027225383,0.14970541,0.32660457
105436669,0.027211659,0.15695144,0.3295117
105447868,0.055398915,0.15338205,0.33849806
105456669,0.039582584,0.15150541,0.3251811
105467868,0.02718359,0.14613603,0.33545765
105476679,0.0324699,0.15879743,0.33688918
105495868,0.039540973,0.15516676,0.33399653
105505478,0.032525055,0.14065935,0.32520422
105515868,0.032483887,0.16239747,0.3339256
105525488,0.027239284,0.14969008,0.32365984
105535872,0.037811276,0.14970541,0.32665455
105545474,0.021911807,0.15876678,0.3309497
105555878,0.036012433,0.15878211,0.33396107
105565507,0.036026064,0.1479207,0.33107278
105575869,0.036026064,0.1479207,0.33107278
105584669,0.02901015,0.1334133,0.3222804
105595879,0.021939343,0.14789005,0.32511663
105604669,0.020181932,0.14607473,0.32364532
105615869,0.02718368,0.14975138,0.33543885
105624672,0.04312512,0.15149009,0.32225296
105635868,0.034240942,0.14975138,0.33547217
105644669,0.025495954,0.15509012,0.31920612
105663868,0.03421323,0.15339738,0.34134287
105673467,0.036067948,0.15510546,0.32220083
105683869,0.03074029,0.15695144,0.32952836
105693506,0.039554693,0.1479207,0.33108944
105703873,0.037811186,0.14609006,0.32667336
105713470,0.023710743,0.15330543,0.32362437
105723872,0.029010506,0.14787473,0.32220516
105733469,0.029010506,0.14787473,0.32220516
105743876,0.02896907,0.15876678,0.330983
105752669,0.034296636,0.15330543,0.32367432
105763879,0.023682851,0.14972073,0.32953268
105772669,0.034254935,0.1533514,0.3325086
105783916,0.02894118,0.15518208,0.33689132
105792669,0.036026508,0.16599749,0.3309787
105803868,0.025454162,0.15152074,0.32805923
105812668,0.02012624,0.14252067,0.33544317
105831868,0.03608158,0.14424406,0.31931254
105841501,0.028996784,0.15512078,0.3251123
105851868,0.034282736,0.15332076,0.3266191
105861486,0.03776975,0.1569821,0.3354512
105871876,0.035998616,0.16241279,0.336887
105881492,0.035998352,0.15156671,0.33694345
105891872,0.0324838,0.15878211,0.3339444
105901469,0.0324838,0.15878211,0.3339444
105911872,0.02898297,0.15875146,0.32803825
105920669,0.03246945,0.14072065,0.33698323
105931868,0.037811276,0.14970541,0.32665455
105940670,0.037853066,0.15327477,0.31780145
105951870,0.04658424,0.15156671,0.33699343
105960669,0.029010417,0.1442594,0.32222396
105971868,0.04131211,0.14973605,0.33256072
105980670,0.04131211,0.14973605,0.33256072
105989503,0.037742212,0.16785881,0.34128425
105999868,0.027211659,0.15695144,0.3295117
106009467,0.037811276,0.14970541,0.32665455
106019868,0.035998352,0.15156671,0.33694345
106029470,0.044840734,0.14973605,0.33257738
106039897,0.041339643,0.13885933,0.32672766
106049489,0.02722556,0.15693612,0.32656696
106059902,0.0413817,0.15327477,0.3178181
106079868,0.034227222,0.15699741,0.3383793
106088669,0.039582405,0.14427471,0.32521874
106099868,0.034255113,0.16058213,0.33247095
106108669,0.04309767,0.16598217,0.32806724
106119913,0.030726211,0.14973605,0.33251074
106128669,0.03255277,0.13701335,0.3193335
106139868,0.044840734,0.14973605,0.33257738
106148680,0.044840734,0.14973605,0.33257738
106157487,0.037866525,0.13518268,0.31495076
106167868,0.039596487,0.15149009,0.32223633
106177473,0.021925708,0.15875146,0.32800493
106187868,0.028968982,0.15515143,0.33100182
106197468,0.039610296,0.1478594,0.31931037
106207911,0.03955443,0.13707465,0.33114585
106217479,0.036068123,0.16233617,0.32216322
106227880,0.036068123,0.16233617,0.32216322
106237495,0.036068123,0.16233617,0.32216322
106247879,0.048397172,0.14970541,0.32670453
106256669,0.030753834,0.1424747,0.32665887
106267868,0.03609575,0.1550748,0.31631133
106276671,0.03774177,0.14978203,0.34137833
106287868,0.036039878,0.14429004,0.32814682
106296669,0.03428238,0.13885933,0.32669434
106307877,0.04136798,0.16052084,0.32072523
106316669,0.04136798,0.16052084,0.32072523
106325477,0.039582673,0.15512078,0.3251623
106335868,0.043056056,0.1696435,0.3368827
106345473,0.0413122,0.1533514,0.3325419
106355868,0.039527245,0.16241279,0.33690366
106365477,0.0148547245,0.16599749,0.33087876
106375918,0.043111216,0.15150541,0.32519776
106385488,0.027211748,0.1605668,0.3294929
106395869,0.027211748,0.1605668,0.3294929
106404708,0.034157716,0.15707405,0.3531031
106415883,0.041298296,0.15336673,0.33548665
106424669,0.028982705,0.14790538,0.3280947
106435869,0.0307124,0.15336673,0.3354367
106444668,0.02898297,0.15875146,0.32803825
106454295,0.043097496,0.15875146,0.32810488
106464669,0.032553036,0.1478594,0.31927705
106474309,0.036026508,0.16599749,0.3309787
106484669,0.036026508,0.16599749,0.3309787
106493511,0.044854544,0.14610538,0.32965145
106503868,0.027211571,0.15333608,0.32953054
106513514,0.030753834,0.1424747,0.32665887
106523868,0.023682496,0.1352593,0.32960793
106533510,0.023710743,0.15330543,0.32362437
106543908,0.030781904,0.15329011,0.3207129
106553469,0.028982705,0.14790538,0.3280947
106563873,0.028982705,0.14790538,0.3280947
106572708,0.041326363,0.16418214,0.3295407
106582295,0.03949909,0.147982,0.34286845
106592669,0.025481874,0.14787473,0.3221885
106602296,0.036012433,0.15878211,0.33396107
106612668,0.03951317,0.15519741,0.33988607
106622284,0.039596666,0.1587208,0.3221987
106632669,0.034310628,0.15690547,0.32071072
106642282,0.032539226,0.15149009,0.322203
106652669,0.032539226,0.15149009,0.322203
106661514,0.027211571,0.15333608,0.32953054
106671868,0.037783742,0.16058213,0.3324876
106681472,0.034254935,0.1533514,0.3325086
106691868,0.028982794,0.15152074,0.3280759
106701469,0.027225472,0.15332076,0.32658577
106712712,0.044854544,0.14610538,0.32965145
106721490,0.037755318,0.13530527,0.33850884
106740712,0.034227222,0.15699741,0.3383793
106750287,0.039582584,0.15150541,0.3251811
106760668,0.028927011,0.14435135,0.33989254
106770272,0.028968627,0.14069,0.33107707
106780668,0.03952689,0.14795135,0.33697894
106790298,0.028968893,0.15153606,0.33102062
106800668,0.039582673,0.15512078,0.3251623
106810281,0.02892719,0.15158205,0.3398549
106820690,0.02892719,0.15158205,0.3398549
106829503,0.027211392,0.14610538,0.32956815
106840668,0.043125384,0.16233617,0.32219654
106849493,0.029010506,0.14787473,0.32220516
106859881,0.04658415,0.14795135,0.33701226
106869496,0.030768268,0.16415149,0.32360122
106880712,0.027253361,0.15690547,0.32067743
106889468,0.04135372,0.14607473,0.32374528
106908712,0.029010773,0.1587208,0.3221487
106918284,0.027155967,0.15339738,0.34130955
106928668,0.036053777,0.14427471,0.32520208
106938292,0.030767914,0.14969008,0.3236765
106948668,0.030740201,0.15333608,0.32954717
106958268,0.03251169,0.16236682,0.3280361
106968668,0.023696486,0.13885933,0.32664436
106978269,0.044812754,0.14253598,0.33850452
106988669,0.044812754,0.14253598,0.33850452
106997495,0.04661169,0.13707465,0.33117917
107008668,0.03425529,0.16781282,0.33243334
107017490,0.027197404,0.14250533,0.33253172
107028668,0.0413817,0.15327477,0.3178181
107037486,0.029010596,0.15149009,0.32218635
107048712,0.032539226,0.15149009,0.322203
107057493,0.036040146,0.15513611,0.32809037
107076713,0.028941002,0.14795135,0.33692896
107086268,0.034255113,0.16058213,0.33247095
107096668,0.034282826,0.15693612,0.32660028
107106280,0.021939522,0.15512078,0.325079
107116668,0.030712578,0.16059746,0.33539906
107126269,0.020140585,0.16058213,0.33240435
107136668,0.02189764,0.14793603,0.3339509
107147084,0.02189764,0.14793603,0.3339509
107156669,0.02189764,0.14793603,0.3339509
107165490,0.034296636,0.15330543,0.32367432
107176668,0.029010685,0.15510546,0.32216752
107185474,0.039540794,0.14793603,0.33403417
107196668,0.018397434,0.17321287,0.32791302
107205469,0.02894118,0.15518208,0.33689132
107216714,0.028913379,0.15521273,0.34278083
107225477,0.018383356,0.16599749,0.3308954
107244712,0.035984542,0.15519741,0.3398694
107254269,0.04132592,0.14610538,0.3296348
107264668,0.044813376,0.16784348,0.33837283
107274269,0.023641326,0.15699741,0.33832932
107284668,0.032525502,0.15873612,0.32511017
107294269,0.023752267,0.14602876,0.31482768
107304668,0.028982794,0.15152074,0.3280759
107315069,0.028982794,0.15152074,0.3280759
107324668,0.027212014,0.17141287,0.32943645
107333511,0.03251169,0.16236682,0.3280361
107344668,0.037811544,0.16055149,0.3265981
107353513,0.037783563,0.1533514,0.33252525
107364669,0.037839167,0.15329011,0.3207462
107373511,0.027183857,0.1569821,0.3354012
107384713,0.027211659,0.15695144,0.3295117
107394268,0.027225383,0.14970541,0.32660457
107412712,0.04665348,0.14064403,0.32232606
107422268,0.041284487,0.15699741,0.3384126
107432668,0.025439994,0.14069,0.3310604
107442269,0.036040146,0.15513611,0.32809037
107452668,0.028955169,0.15878211,0.33392775
107462269,0.044896428,0.15329011,0.3207795
107472668,0.034268655,0.14610538,0.32960147
107483069,0.034268655,0.14610538,0.32960147
107492668,0.025468063,0.15150541,0.32511446
107501514,0.025468152,0.15512078,0.32509565
107512668,0.04311148,0.16235149,0.3251413
107521482,0.029010773,0.1587208,0.3221487
107532668,0.04841116,0.15330543,0.32374096
107541473,0.032470163,0.1696435,0.33683273
107552714,0.032497432,0.1479207,0.33105612
107561469,0.032497432,0.1479207,0.33105612
107571082,0.032497432,0.1479207,0.33105612
107580713,0.039568864,0.15875146,0.32808822
107590269,0.050154578,0.15152074,0.3281758
107600668,0.032553215,0.15509012,0.31923944
107610269,0.03606777,0.14787473,0.32223848
107620668,0.039582405,0.14427471,0.32521874
107630269,0.034324437,0.15327477,0.3177848
107640668,0.028996428,0.14065935,0.32518756
107650269,0.028996428,0.14065935,0.32518756
107660669,0.034282647,0.14970541,0.3266379
107669518,0.03955434,0.13345927,0.3311647
107680669,0.035998262,0.14795135,0.33696228
107689476,0.03951326,0.15881276,0.33986723
107700671,0.029038664,0.16230552,0.3162404
107709525,0.041298117,0.14613603,0.3355243
107720704,0.04481311,0.15699741,0.33842927
107729498,0.04481311,0.15699741,0.33842927
107739093,0.04481311,0.15699741,0.33842927
107748712,0.039596576,0.15510546,0.3222175
107758269,0.030781725,0.14605941,0.3207505
107768671,0.04135372,0.14607473,0.32374528
107778269,0.036040146,0.15513611,0.32809037
107788668,0.03606786,0.15149009,0.32221967
107798269,0.037811454,0.15693612,0.3266169
107808669,0.041340265,0.16416682,0.32659596
107818269,0.041340265,0.16416682,0.32659596
107828682,0.028954903,0.14793603,0.3339842
107837473,0.041340355,0.16778219,0.32657713
107848674,0.016598053,0.16059746,0.33533242
107857475,0.03074029,0.15695144,0.32952836
107868679,0.02719767,0.1533514,0.33247527
107877477,0.037797462,0.15333608,0.3295805
107888672,0.039541062,0.15878211,0.33397773
107897480,0.039541062,0.15878211,0.33397773
107906269,0.023682762,0.14610538,0.3295515
107916712,0.03424112,0.1569821,0.33543453
107926268,0.023696663,0.14609006,0.32660675
107936668,0.032552946,0.14424406,0.31929588
107946268,0.03776966,0.15336673,0.33547
107956668,0.034282826,0.15693612,0.32660028
107966269,0.02192562,0.15513611,0.32802376
107976668,0.030781904,0.15329011,0.3207129
107996669,0.028982705,0.14790538,0.3280947
108005509,0.044882257,0.14245936,0.32378075
108016669,0.027197758,0.15696676,0.33245647
108025503,0.030823607,0.15324412,0.3118786
108036669,0.0307124,0.15336673,0.3354367
108045469,0.03776975,0.1569821,0.3354512
108055903,0.027197847,0.16058213,0.33243766
108065496,0.027197847,0.16058213,0.33243766
108074271,0.041298386,0.1569821,0.33546785
108084712,0.025412815,0.16602814,0.33681822
108095068,0.034240853,0.14613603,0.33549097
108104668,0.036039967,0.14790538,0.328128
108114268,0.0166394,0.14609006,0.32657343
108124668,0.039541148,0.16239747,0.33395892
108135087,0.037852623,0.135198,0.31789553
108144668,0.020140585,0.16058213,0.33240435
108154269,0.020140585,0.16058213,0.33240435
108163109,0.036026064,0.1479207,0.33107278
108173472,0.027267175,0.15327477,0.31775147
108183089,0.030698588,0.15699741,0.33836263
108193472,0.046611864,0.14430536,0.33114156
108204669,0.041409325,0.14601342,0.3119662
108213474,0.048355646,0.1569821,0.33550116
108223900,0.050168477,0.15150541,0.32523108
108233469,0.050168477,0.15150541,0.32523108
108242269,0.051939607,0.14607473,0.32379526
108252713,0.03783881,0.13882868,0.32082146
108262268,0.044868536,0.14970541,0.32668787
108273468,0.02723946,0.15692079,0.3236222
108282269,0.04841054,0.12799793,0.32387266
108293472,0.03248371,0.15516676,0.33396325
108302269,0.030809885,0.16049019,0.31478575
108313468,0.03606768,0.1442594,0.32225728
108322269,0.03606768,0.1442594,0.32225728
108331073,0.036081668,0.1478594,0.3192937
108341482,0.04135399,0.15692079,0.32368883
108351080,0.04134,0.15332076,0.3266524
108361480,0.03783881,0.13882868,0.32082146
108371075,0.034268476,0.13887465,0.3296391
108381494,0.050182026,0.13702868,0.32236156
108391068,0.037839256,0.15690547,0.32072738
108401475,0.037839256,0.15690547,0.32072738
108410268,0.03779755,0.15695144,0.32956168
108421468,0.032497432,0.1479207,0.33105612
108430269,0.044840824,0.1533514,0.33255857
108441468,0.03603979,0.14067468,0.32816565
108450269,0.039596397,0.14787473,0.32225513
108461479,0.037838988,0.14605941,0.32078382
108470308,0.036039878,0.14429004,0.32814682
108481468,0.04482692,0.15336673,0.3355033
108490271,0.04482692,0.15336673,0.3355033
108499072,0.027239816,0.17138222,0.32354695
108509505,0.034240853,0.14613603,0.33549097
108519083,0.030768268,0.16415149,0.32360122
108529469,0.036095925,0.16230552,0.31627372
108539075,0.03774168,0.14616668,0.34139714
108549516,0.04315292,0.15145944,0.31636345
108559070,0.034282647,0.14970541,0.3266379
108569484,0.034282647,0.14970541,0.3266379
108578269,0.032552946,0.14424406,0.31929588
108589510,0.030795895,0.15689014,0.31774932
108598269,0.036053866,0.14789005,0.32518327
108609472,0.041367803,0.15329011,0.32076287
108618269,0.018452505,0.15145944,0.31624687
108629506,0.023738544,0.15327477,0.3177348
108638269,0.03606759,0.14064403,0.32227612
108649515,0.032525413,0.15512078,0.32512897
108658269,0.032525413,0.15512078,0.32512897
108667068,0.050223727,0.13698271,0.3135273
108677472,0.053724643,0.1406287,0.31941465
108687069,0.03260864,0.1477981,0.307498
108697472,0.04669536,0.14782876,0.31345418
108707068,0.043111216,0.15150541,0.32519776
108717472,0.03786697,0.15325946,0.3148567
108727069,0.044895984,0.13521333,0.3208736
108737469,0.044895984,0.13521333,0.3208736
108746269,0.034324348,0.14965943,0.3178036
108757468,0.041409325,0.14601342,0.3119662
108766269,0.036095127,0.12976731,0.31644303
108777468,0.046709172,0.14419809,0.31052822
108786268,0.036109205,0.13698271,0.31346065
108797474,0.043110773,0.13342862,0.32529184
108806269,0.044896428,0.15329011,0.3207795
108817484,0.030753745,0.13885933,0.32667768
108826269,0.030753745,0.13885933,0.32667768
108835069,0.021980869,0.14061338,0.31631997
108845474,0.03432488,0.17135157,0.31769073
108855075,0.039610296,0.1478594,0.31931037
108865468,0.04138126,0.135198,0.3179122
108875068,0.039596576,0.15510546,0.3222175
108885472,0.036108937,0.12613663,0.3135171
108895068,0.025495509,0.13701335,0.3193002
108905469,0.025495509,0.13701335,0.3193002
108914269,0.03431054,0.15329011,0.32072955
108925468,0.03258128,0.16590555,0.3132935
108934269,0.03437951,0.13152133,0.30611864
108945469,0.025509765,0.15145944,0.3162802
108954269,0.04312485,0.14064403,0.3223094
108965468,0.039610296,0.1478594,0.31931037
108974269,0.041422963,0.13515203,0.3090779
108994269,0.041422963,0.13515203,0.3090779
109003079,0.029010417,0.1442594,0.32222396
109013470,0.030837065,0.13515203,0.3090279
109023090,0.037825264,0.15330543,0.32369098
109033499,0.025537211,0.13696738,0.3104659
109043069,0.046667468,0.14424406,0.3193625
109053514,0.020237891,0.16047485,0.311791
109063075,0.034324437,0.15327477,0.3177848
109073469,0.034324437,0.15327477,0.3177848
109082269,0.036123373,0.14781342,0.31045943
109093488,0.03435197,0.14239806,0.3119517
109102269,0.022008847,0.14781342,0.3103928
109113469,0.032664243,0.1477368,0.29571897
109122269,0.030878853,0.13872139,0.3001748
109133501,0.043250047,0.14412147,0.29578775
109142269,0.041464575,0.13149068,0.30026242
109161468,0.03970716,0.12967536,0.2987911
109171079,0.020265337,0.14598277,0.30597675
109181511,0.029121624,0.14413679,0.29866588
109191092,0.02914916,0.13326004,0.29283282
109201468,0.037936114,0.13872139,0.30020812
109211083,0.04326413,0.15133683,0.29280537
109221478,0.025634607,0.14047545,0.28983375
109231075,0.050251883,0.15141347,0.30756247
109241469,0.050251883,0.15141347,0.30756247
109250281,0.03966572,0.1405674,0.30756897
109261468,0.050279506,0.14415212,0.30171058
109270269,0.030892579,0.13147536,0.29726768
109281468,0.027378116,0.14230612,0.29424983
109290273,0.046806302,0.1368601,0.2899525
109301468,0.030823518,0.14962877,0.3118974
109310269,0.039777197,0.15129086,0.2839544
109319869,0.039777197,0.15129086,0.2839544
109329474,0.020237358,0.1387827,0.3119039
109339080,0.03800589,0.14949085,0.28542787
109349515,0.036192786,0.14412147,0.29575443
109359075,0.025620973,0.15133683,0.29272208
109369482,0.038046878,0.12052202,0.2767441
109379069,0.02926019,0.12590675,0.26931232
109389484,0.023891099,0.13864477,0.28541768
109399068,0.027447265,0.12776805,0.27960125
109409477,0.027447265,0.12776805,0.27960125
109418269,0.0380753,0.14579888,0.27072287
109429518,0.032761108,0.12955277,0.2751997
109438269,0.048633575,0.15306023,0.27662474
109449473,0.02743363,0.13862945,0.2824896
109458268,0.029135525,0.14412147,0.2957211
109469513,0.030920735,0.14590615,0.2913029
109478269,0.030934636,0.14589083,0.28835812
109487869,0.030934636,0.14589083,0.28835812
109497470,0.020264894,0.12790598,0.3060708
109507087,0.01853591,0.15136749,0.2985783
109517511,0.030837419,0.14961345,0.30895266
109527068,0.053780604,0.15502883,0.30756032
109537493,0.0485499,0.14230612,0.29434976
109547073,0.018577257,0.1368601,0.28981924
109557489,0.036248036,0.12959874,0.28405064
109567084,0.036248036,0.12959874,0.28405064
109577472,0.036248036,0.12959874,0.28405064
109586268,0.029204763,0.13319875,0.28105372
109597469,0.029135704,0.15135217,0.2956835
109606269,0.034407753,0.14956747,0.30013502
109617485,0.027336767,0.15681352,0.30300885
109626268,0.027377937,0.1350754,0.29428744
109637470,0.0343657,0.13515203,0.30904457
109646269,0.03083715,0.13876738,0.3090091
109655869,0.03083715,0.13876738,0.3090091
109665469,0.04850829,0.14596745,0.30316526
109675073,0.050334755,0.12962939,0.2900068
109685483,0.022105888,0.1368601,0.2898359
109695084,0.03606768,0.1442594,0.32225728
109705519,0.03970725,0.1332907,0.2987723
109715093,0.037922483,0.1495828,0.30309647
109725502,0.030879121,0.14956747,0.30011836
109735069,0.030879121,0.14956747,0.30011836
109745472,0.018521743,0.14053676,0.30157948
109754268,0.04853627,0.1531675,0.29723808
109764699,0.036192432,0.12966004,0.29582968
109774269,0.029135615,0.1477368,0.2957023
109785474,0.045035258,0.14590615,0.2913695
109794268,0.043250225,0.15135217,0.2957501
109805514,0.029094001,0.15139814,0.30451778
109814269,0.025523843,0.15867484,0.3132978
109823869,0.025523843,0.15867484,0.3132978
109834268,0.03435215,0.14962877,0.31191406
109843079,0.032650523,0.15498285,0.2986261
109854305,0.013332652,0.124152705,0.27955344
109863079,0.034449015,0.13144471,0.2913948
109874268,0.032622363,0.14055207,0.30459088
109883069,0.04323606,0.14052142,0.29875132
109894268,0.025606627,0.13327537,0.2957609
109903069,0.025606627,0.13327537,0.2957609
109912692,0.036178887,0.14413679,0.2986992
109922268,0.04856363,0.13506007,0.2914426
109931869,0.025648419,0.13684477,0.2869078
109942268,0.027377937,0.1350754,0.29428744
109951872,0.025675954,0.12596805,0.2810747
109962268,0.030920291,0.12782936,0.29139695
109971869,0.023849307,0.1350754,0.29427078
109982270,0.023849307,0.1350754,0.29427078
109992669,0.023849307,0.1350754,0.29427078
110002268,0.031017777,0.1349528,0.270746
110011068,0.020320853,0.14230612,0.2942165
110022272,0.025620794,0.14410613,0.29275972
110031069,0.01863286,0.1367988,0.2780402
110042281,0.022078263,0.14412147,0.29568782
110051068,0.046792757,0.15133683,0.29282203
110062278,0.03804741,0.14221416,0.2766312
110071069,0.03804741,0.14221416,0.2766312
110079875,0.023808315,0.16404422,0.30295458
110090268,0.022092342,0.15133683,0.29270542
110099869,0.03620722,0.16579826,0.2926968
110110268,0.044993374,0.13872139,0.30024144
110119868,0.029107546,0.1369214,0.30164826
110130268,0.023849485,0.14230612,0.29423317
110139869,0.018508108,0.15139814,0.30446783
110150269,0.018508108,0.15139814,0.30446783
110159080,0.04504898,0.1386601,0.2884624
110170268,0.05739228,0.14047545,0.28998366
110179079,0.04499382,0.15679818,0.30014735
110190268,0.023849485,0.14230612,0.29423317
110199105,0.025607161,0.15496753,0.29564804
110210268,0.057420615,0.16213694,0.28398126
110219069,0.037895035,0.16407487,0.3089107
110230268,0.039748862,0.12962939,0.2899568
110239069,0.039748862,0.12962939,0.2899568
110247875,0.03623458,0.14769082,0.28690132
110258269,0.036220767,0.15132152,0.28982726
110267869,0.032678235,0.15133683,0.2927554
110278268,0.03087921,0.15318282,0.30009955
110287868,0.048591696,0.1458755,0.28549665
110298268,0.006234398,0.15312153,0.2882039
110307868,0.037991986,0.14950618,0.28837264
110318269,0.037991986,0.14950618,0.28837264
110327085,0.032664154,0.14412147,0.29573777
110338268,0.04509104,0.15307555,0.27955285
110347080,0.03270586,0.14407548,0.2869035
110358268,0.050307486,0.15135217,0.29578343
110367082,0.018577347,0.14047545,0.28980044
110378283,0.045049068,0.14227547,0.28844357
110387069,0.032747384,0.1367988,0.27810684
110398285,0.025662497,0.14406016,0.2839254
110407069,0.025662497,0.14406016,0.2839254
110415868,0.046806388,0.14047545,0.28993368
110426268,0.039749306,0.14770615,0.28986275
110435869,0.029135348,0.13689075,0.29575875
110446289,0.02386312,0.13144471,0.29134482
110455868,0.03438004,0.15321347,0.30600575
110466289,0.018591158,0.13684477,0.2868745
110475868,0.05384993,0.14772147,0.29287416
110486269,0.05384993,0.14772147,0.29287416
110495076,0.030920913,0.15313685,0.29126525
110506294,0.027281076,0.15325946,0.31480673
110515072,0.048605774,0.15309088,0.28251427
110526282,0.03449125,0.15309088,0.28244764
110535081,0.04506297,0.14226013,0.28549883
110546292,0.025606716,0.13689075,0.2957421
110555102,0.034504708,0.13499877,0.27959692
110566291,0.0185499,0.15496753,0.29561472
110575069,0.0185499,0.15496753,0.29561472
110583893,0.034491513,0.16393694,0.2823912
110594284,0.043236416,0.15498285,0.29867607
110603868,0.025690122,0.1367988,0.27807352
110614281,0.032705683,0.13684477,0.2869411
110623868,0.0308793,0.15679818,0.30008075
110634268,0.020279594,0.16042888,0.30295673
110643873,0.03626238,0.14766018,0.2810118
110654269,0.03626238,0.14766018,0.2810118
110663076,0.04319471,0.15502883,0.30751035
110674276,0.025620883,0.14772147,0.2927409
110683073,0.025634874,0.15132152,0.2897773
110694269,0.043277938,0.14770615,0.2898794
110703084,0.020307306,0.15678287,0.297086
110714276,0.02913597,0.16219825,0.29562706
110723069,0.027392637,0.16759828,0.29117334
110734278,0.029177317,0.14769082,0.286868
110743076,0.029177317,0.14769082,0.286868
110751869,0.03799163,0.13504475,0.2884479
110762268,0.034463357,0.14950618,0.28835598
110771868,0.041562505,0.15669091,0.27951735
110782270,0.030920735,0.14590615,0.2913029
110791868,0.01503517,0.1549522,0.2926533
110802276,0.02207853,0.15496753,0.29563138
110811869,0.02913597,0.16219825,0.29562706
110822269,0.02913597,0.16219825,0.29562706
110831068,0.027405739,0.13504475,0.2883979
110842280,0.029204853,0.13681413,0.28103492
110851079,0.02027977,0.16765958,0.3029191
110862268,0.037936203,0.14233676,0.30018932
110871090,0.03969397,0.15861353,0.30158535
110882277,0.020321207,0.15676755,0.29414126
110891078,0.03790867,0.15321347,0.3060224
110900669,0.03790867,0.15321347,0.3060224
110911073,0.03790867,0.15321347,0.3060224
110919876,0.036234137,0.12961406,0.2869954
110930286,0.03447699,0.13864477,0.28546765
110939868,0.030976074,0.13499877,0.2795803
110950268,0.04867501,0.1421682,0.26784688
110959868,0.039818548,0.13678348,0.2751954
110970277,0.034490805,0.1350141,0.28254172
110979868,0.036262028,0.13319875,0.28108704
110990269,0.036262028,0.13319875,0.28108704
110999087,0.034462914,0.13142939,0.28845003
111010280,0.029177407,0.15130618,0.2868492
111019072,0.030907102,0.15676755,0.2941912
111030316,0.030948536,0.1458755,0.28541338
111039080,0.039762944,0.13684477,0.28697443
111050276,0.034449104,0.13506007,0.291376
111059068,0.018549632,0.14412147,0.29567116
111068669,0.018549632,0.14412147,0.29567116
111079073,0.018549632,0.14412147,0.29567116
111087876,0.04329175,0.14407548,0.28695345
111098300,0.043278027,0.15132152,0.28986058
111107869,0.032706127,0.15492155,0.28684705
111118271,0.036206868,0.15133683,0.29277205
111127868,0.030962348,0.14224482,0.28248742
111138282,0.037991364,0.124198675,0.28850433
111147868,0.05225915,0.13849153,0.2561033
111158317,0.05225915,0.13849153,0.2561033
111167115,0.045118485,0.13858347,0.2737386
111178277,0.05219009,0.15664494,0.27073303
111187069,0.029163506,0.15132152,0.28979397
111198317,0.018633127,0.14764485,0.27798375
111207069,0.036206957,0.1549522,0.29275325
111218282,0.018507753,0.13693672,0.30454308
111227068,0.027350225,0.13872139,0.30015814
111236669,0.027350225,0.13872139,0.30015814
111246268,0.025606982,0.1477368,0.29568565
111255869,0.037964184,0.14953683,0.29426217
111266288,0.023891542,0.15672156,0.28532362
111275869,0.037950374,0.1531675,0.2971881
111287068,0.048591517,0.13864477,0.2855343
111295873,0.041562058,0.13861412,0.27961144
111306277,0.037991717,0.1386601,0.28842908
111315869,0.0414791,0.15678287,0.29718596
111326299,0.0414791,0.15678287,0.29718596
111335102,0.03979092,0.14404485,0.28104725
111346281,0.022120321,0.1585369,0.28677827
111355068,0.023877198,0.1386601,0.28836244
111366302,0.034435645,0.15315218,0.2942267
111375068,0.038061224,0.13858347,0.27370527
111386268,0.04329184,0.14769082,0.28693464
111395076,0.041603673,0.1349528,0.27079597
111404669,0.041603673,0.1349528,0.27079597
111415070,0.027544837,0.13850684,0.25893146
111423869,0.03461636,0.15295295,0.25594476
111434278,0.02573209,0.14759888,0.26918277
111443869,0.01867474,0.14398354,0.2691683
111454303,0.027475689,0.1530449,0.27358004
111463869,0.025690388,0.14764485,0.27801707
111474317,0.025648952,0.1585369,0.28679493
111483869,0.025648952,0.1585369,0.28679493
111503084,0.018604882,0.12959874,0.28396738
111513473,0.02571819,0.1476142,0.27212757
111523090,0.03804777,0.15667559,0.27655596
111533518,0.03628992,0.13678348,0.27517873
111543070,0.036290094,0.1440142,0.2751411
111552668,0.0380058,0.1458755,0.2854467
111563068,0.04333363,0.15126021,0.27808154
111573514,0.04333363,0.15126021,0.27808154
111583086,0.03977746,0.16213694,0.28389797
111591878,0.052161757,0.13498345,0.27673545
111603080,0.03274765,0.14764485,0.2780504
111611869,0.032747384,0.1367988,0.27810684
111623068,0.022106064,0.14409082,0.28979826
111631871,0.015105029,0.169337,0.2778542
111643077,0.016820557,0.1639676,0.28819743
111651869,0.016820557,0.1639676,0.28819743
111660680,0.045105472,0.17475238,0.2764952
111671107,0.025663119,0.16936766,0.28379372
111680668,0.039735407,0.14772147,0.29280752
111691109,0.034435645,0.15315218,0.2942267
111700669,0.025662586,0.1476755,0.2839066
111711075,0.02391899,0.14222948,0.27950934
111720668,0.025648952,0.1585369,0.28679493
111731068,0.022106687,0.16939831,0.28966656
111741469,0.022106687,0.16939831,0.28966656
111751074,0.03980571,0.18018308,0.27791438
111759869,0.0327063,0.16215226,0.2868094
111771077,0.037992164,0.1567369,0.288335
111779869,0.030934457,0.1386601,0.28839576
111791068,0.032692313,0.15855223,0.289773
111799869,0.018619582,0.16212162,0.28085324
111811073,0.03624848,0.1476755,0.2839566
111819890,0.03624848,0.1476755,0.2839566
111828680,0.03439421,0.16404422,0.30300453
111839074,0.036179066,0.15136749,0.29866156
111848668,0.007991808,0.15493688,0.2896752
111859079,0.027323222,0.17129026,0.30587837
111868668,0.020307573,0.16762893,0.29702955
111879111,0.025676666,0.15489091,0.2809242
111888669,0.032664686,0.1658136,0.29562488
111899078,0.032664686,0.1658136,0.29562488
111907869,0.032678235,0.15133683,0.2927554
111919068,0.029177051,0.13684477,0.28692445
111927884,0.037895124,0.16769023,0.3088919
111939073,0.018522453,0.16945961,0.30142897
111947899,0.037978087,0.1495215,0.29131737
111959114,0.036206868,0.15133683,0.29277205
111967869,0.01857779,0.15855223,0.28970635
111979074,0.01680639,0.15313685,0.29119864
111987869,0.01680639,0.15313685,0.29119864
111996668,0.029163683,0.15855223,0.28975633
112007084,0.03273393,0.15489091,0.28095752
112016668,0.022106599,0.16578294,0.2896854
112027112,0.02394688,0.1458142,0.27360103
112036669,0.023933334,0.16029096,0.2764705
112047108,0.03276155,0.14762953,0.27510563
112056668,0.022134222,0.15852158,0.2838335
112067078,0.022134222,0.15852158,0.2838335
112075869,0.018675275,0.16567567,0.2690554
112087068,0.022134311,0.16213694,0.2838147
112095869,0.031004319,0.1530449,0.2735967
112107074,0.023919433,0.16030627,0.27941525
112115869,0.018660929,0.1476142,0.27209425
112127118,0.009791275,0.17116767,0.28223696
112135868,0.036290184,0.14762953,0.27512228
112147081,0.029330406,0.15475297,0.254438
112155869,0.029330406,0.15475297,0.254438
112164695,0.016889796,0.1530449,0.27353007
112175089,0.018563978,0.16218291,0.2926323
112184668,0.020432414,0.15664494,0.27058312
112195110,0.023975126,0.16386032,0.2676174
112204669,0.0080890255,0.15121424,0.26908067
112215105,0.03806167,0.15666026,0.2736112
112224668,0.036234934,0.16215226,0.28682607
112235076,0.036234934,0.16215226,0.28682607
112243869,0.027406361,0.16035226,0.2882662
112255114,0.046862524,0.16210629,0.27804175
112263876,0.020362733,0.14949085,0.2853446
112275076,0.025634874,0.15132152,0.2897773
112283869,0.018619316,0.15127555,0.2809097
112295072,0.020307485,0.16401356,0.2970484
112303871,0.023877908,0.16758296,0.28821194
112315103,0.02387782,0.1639676,0.28823075
112323869,0.02387782,0.1639676,0.28823075
112332683,0.029135881,0.15858288,0.29564586
112343077,0.023905799,0.17116767,0.2823036
112352668,0.016806567,0.16036758,0.291161
112363091,0.02567702,0.16935234,0.28084892
112372669,0.02571828,0.15122956,0.27210873
112383083,0.032734104,0.16212162,0.28091988
112392668,0.030962616,0.15309088,0.282431
112403113,0.030962616,0.15309088,0.282431
112411869,0.036290538,0.16209097,0.27504703
112423108,0.043292463,0.17299831,0.28680295
112431869,0.020404613,0.15667559,0.27647266
112443088,0.015146022,0.14036818,0.26917043
112451868,0.015132564,0.15846027,0.27202114
112463068,0.020557523,0.15650702,0.24408029
112471868,0.00998571,0.16372238,0.2410479
112481469,0.00998571,0.16372238,0.2410479
112491877,0.00998571,0.16372238,0.2410479
112500669,0.031115526,0.1529223,0.25003856
112511077,0.002817419,0.17107572,0.26453507
112520668,0.029288525,0.14756823,0.26330993
112531091,0.02748959,0.15302958,0.27063525
112540675,0.015160366,0.15842962,0.2661316
112551111,0.011631291,0.14035285,0.266209
112560668,0.030948805,0.15672156,0.28535694
112571083,0.030948805,0.15672156,0.28535694
112579877,0.020418603,0.16027562,0.2735091
112591082,0.025621329,0.16579826,0.29264683
112599869,0.013264835,0.1929211,0.2939198
112611068,0.029178295,0.18745975,0.28666106
112619869,0.011562408,0.16573697,0.28080112
112631076,0.029247621,0.18015243,0.2719749
112639868,0.01684818,0.15670624,0.28234556
112649481,0.01684818,0.15670624,0.28234556
112659869,0.01684818,0.15670624,0.28234556
112668669,0.01680639,0.15313685,0.29119864
112679105,0.020362733,0.14949085,0.2853446
112688668,0.034533575,0.1783524,0.27348167
112699113,0.018619493,0.15850626,0.28087208
112708668,0.023905443,0.15670624,0.28237885
112719067,0.009763473,0.17119832,0.2881265
112728668,0.0132365,0.17125961,0.2999222
112739102,0.0132365,0.17125961,0.2999222
112747869,0.020377077,0.1675523,0.28230575
112759068,0.031018753,0.17472173,0.27053902
112767876,0.04161802,0.15301426,0.26775712
112779070,0.016917864,0.16386032,0.2675841
112787885,0.0116044665,0.18015243,0.2718916
112797472,0.022190537,0.18738313,0.27190393
112807868,0.02919184,0.17298299,0.28379157
112817469,0.02919184,0.17298299,0.28379157
112827870,0.02919184,0.17298299,0.28379157
112836690,0.018633572,0.16572164,0.27788967
112847098,0.03096306,0.17116767,0.28233692
112856681,0.027406538,0.16758296,0.28822857
112867128,0.02391979,0.1747677,0.27934
112876669,0.02919184,0.17298299,0.28379157
112887120,0.023947235,0.16027562,0.27352574
112896668,0.020391334,0.1819984,0.27928573
112907069,0.020391334,0.1819984,0.27928573
112915868,0.03096297,0.1675523,0.28235573
112927068,0.023892075,0.1784137,0.28521073
112935871,0.03101822,0.15302958,0.2706519
112947068,0.020390801,0.16030627,0.27939862
112955868,0.02389172,0.16395226,0.28528598
112967068,0.0133755095,0.17110637,0.27047455
112975875,0.027406184,0.15312153,0.28830385
112985469,0.027406184,0.15312153,0.28830385
112995875,0.027406184,0.15312153,0.28830385
113004670,0.023933867,0.18198308,0.27635762
113015116,0.04504978,0.17119832,0.28829306
113024668,0.00456066,0.16206032,0.26900756
113035073,0.027448153,0.16392161,0.2794131
113044669,0.006290002,0.15306023,0.27642485
113055083,0.011534872,0.17661369,0.2866342
113064669,0.011548863,0.18021373,0.28367063
113075087,0.011548863,0.18021373,0.28367063
113083868,0.00808938,0.16567567,0.26900542
113093481,0.016848626,0.17478304,0.28225148
113103869,0.027475866,0.16027562,0.2735424
113113480,0.025746437,0.16566034,0.26614395
113123876,0.022204172,0.17652175,0.2690156
113133488,0.023919433,0.16030627,0.27941525
113143869,0.032762263,0.1765524,0.27495512
113153480,0.032762263,0.1765524,0.27495512
113163874,0.032762263,0.1765524,0.27495512
113172669,0.016834546,0.16756763,0.28523386
113183914,0.022106599,0.16578294,0.2896854
113192669,0.011520794,0.16939831,0.28961658
113203874,0.018578501,0.18747509,0.28955585
113212670,0.030963328,0.18201374,0.28228047
113223914,0.022246052,0.18370646,0.26014367
113232668,0.031018753,0.17472173,0.27053902
113251876,0.032734018,0.15850626,0.28093868
113261469,0.007992074,0.16578294,0.28961876
113271868,0.020377344,0.17839839,0.28224933
113281476,0.0027206459,0.19287512,0.28503552
113291868,0.009819166,0.17475238,0.27632862
113301469,0.015119108,0.1765524,0.27487183
113311892,0.02391979,0.1747677,0.27934
113321468,0.0115770195,0.19464451,0.27770585
113331915,0.0115770195,0.19464451,0.27770585
113340694,0.02563523,0.16578294,0.28970203
113351893,0.027420351,0.16395226,0.28530264
113360671,0.046918306,0.1692757,0.26622507
113371877,0.013347886,0.17836773,0.27632648
113380698,0.013305916,0.16756763,0.2852172
113391882,0.008020054,0.17298299,0.2836916
113400674,0.034575187,0.17469108,0.26466617
113419868,0.034547206,0.167491,0.27059332
113429487,0.009735582,0.16761361,0.29403484
113439868,0.011493436,0.18750574,0.29541206
113449481,0.008076012,0.18738313,0.27183732
113459903,0.030977229,0.1819984,0.27933568
113469487,0.025663385,0.18021373,0.28373727
113479892,0.029247534,0.17653707,0.2719937
113489480,0.024017273,0.18189113,0.25868905
113499913,0.024017273,0.18189113,0.25868905
113508677,0.018676074,0.19821388,0.26888606
113519867,0.038076635,0.20002922,0.27044064
113528682,0.031075332,0.21442936,0.25855303
113539898,0.029234165,0.19824453,0.27482557
113548669,0.043334786,0.19825985,0.27783695
113559868,0.031005563,0.20365989,0.27333328
113568679,0.02578885,0.19453724,0.25715914
113587880,0.07171727,0.21978343,0.24546495
113597480,0.052274562,0.19993727,0.2528387
113607877,0.0540596,0.19449127,0.24845812
113617468,0.03990355,0.20176794,0.25718814
113627884,0.041744903,0.22518346,0.24087797
113637468,0.048857767,0.22512217,0.22913224
113647869,0.043558266,0.24139893,0.23049496
113658292,0.043558266,0.24139893,0.23049496
113667883,0.043558266,0.24139893,0.23049496
113676669,0.04181467,0.23595291,0.22609773
113687892,0.057631087,0.2414449,0.23939589
113696669,0.04538491,0.23229158,0.21729892
113707868,0.061312627,0.24127632,0.20702018
113716669,0.04888619,0.250399,0.22311103
113727868,0.06302878,0.2612144,0.21723169
113736669,0.05949953,0.23590694,0.21734674
113755884,0.05074108,0.25933778,0.20393138
113765469,0.059499796,0.246753,0.2172903
113775878,0.07182937,0.25581437,0.2217187
113785468,0.0418848,0.26118377,0.21124223
113795874,0.057687223,0.26307574,0.22750396
113805468,0.050629962,0.26307574,0.22747064
113815877,0.03127137,0.27206048,0.21702534
113826269,0.03127137,0.27206048,0.21702534
113835868,0.059388943,0.261337,0.24077311
113844687,0.064730585,0.26309106,0.23048203
113855868,0.062917836,0.2721831,0.24073333
113864669,0.050560188,0.2523063,0.24225092
113875868,0.06290349,0.25412163,0.24377218
113884669,0.0647722,0.25942975,0.22166657
113895868,0.05770059,0.24136828,0.2246721
113904673,0.05428317,0.24124567,0.20109734
113923880,0.04888548,0.22147617,0.22326155
113933474,0.036458418,0.20529135,0.23948409
113943871,0.025858708,0.20892201,0.24236009
113953473,0.043473974,0.20533733,0.2483517
113963893,0.04870477,0.2216754,0.26154345
113973477,0.032901715,0.19447593,0.24541342
113983868,0.02574679,0.18012178,0.2660687
113994269,0.02574679,0.18012178,0.2660687
114003868,0.025761314,0.20541395,0.26299223
114012681,0.03636075,0.19093718,0.26017267
114023868,0.034603253,0.1855065,0.2587202
114032669,0.031032743,0.17832176,0.26757547
114043868,0.016903874,0.1602603,0.27054766
114052669,0.025718989,0.18015243,0.27195823
114063868,0.023934312,0.20005988,0.27626354
114072678,0.041591372,0.20004454,0.2734021
114082304,0.041591372,0.20004454,0.2734021
114091878,0.034588557,0.1529836,0.2618343
114101469,0.027447708,0.14584485,0.2795072
114111887,0.009860957,0.17832176,0.26747552
114121468,0.032790154,0.18013711,0.26904675
114131868,0.031088257,0.17464511,0.25581524
114141479,0.006387841,0.17464511,0.25569862
114151868,0.02573227,0.1548296,0.26914513
114161469,0.02573227,0.1548296,0.26914513
114171868,0.015146644,0.16567567,0.26903874
114180669,0.020419136,0.18196775,0.27339622
114191868,0.009763651,0.17842904,0.28808886
114200678,0.039860956,0.16566034,0.2662106
114211868,0.043445017,0.15836832,0.25448582
114220676,0.034505684,0.1747677,0.27938998
114231868,0.013333807,0.17115234,0.27930886
114240680,0.018689442,0.17650642,0.26605418
114250269,0.018689442,0.17650642,0.26605418
114259903,0.0150630595,0.1585369,0.28674495
114269493,0.009833155,0.1783524,0.27336505
114279868,0.031032743,0.17832176,0.26757547
114289469,0.032831587,0.16924505,0.2602689
114299868,0.022148479,0.17296767,0.28081346
114309488,0.020460572,0.17107572,0.26461837
114319868,0.02393369,0.17475238,0.27639526
114329488,0.02393369,0.17475238,0.27639526
114339868,0.027448596,0.1819984,0.27931905
114348688,0.020474916,0.18913718,0.26157954
114359868,0.031004673,0.16750632,0.27352145
114368668,0.0045053232,0.17296767,0.2807302
114379868,0.011604111,0.16569099,0.27196684
114388707,-0.0008084296,0.17479835,0.28511295
114399868,0.0062624663,0.16393694,0.28225794
114408700,0.022120766,0.17661369,0.2866842
114418269,0.022120766,0.17661369,0.2866842
114427868,0.020419046,0.1783524,0.27341503
114437477,0.016917951,0.16747569,0.26756528
114447868,0.020390978,0.16753697,0.27936098
114457469,0.008061312,0.15486026,0.2749514
114467868,-0.004281723,0.16389096,0.2733737
114477469,0.0062762783,0.16030627,0.27933198
114487868,-0.006094825,0.15852158,0.28370026
114497472,-0.006094825,0.15852158,0.28370026
114507868,-0.0024969561,0.14759888,0.26904953
114516673,-0.032497223,0.14941423,0.2703709
114527868,-0.004199117,0.13126081,0.25587443
114536679,-0.030712545,0.12950678,0.26606557
114547868,-0.018382613,0.15302958,0.2704187
114556681,-0.034310147,0.15127555,0.28065982
114567868,-0.030795418,0.15129086,0.28362128
114576670,-0.030851467,0.13327537,0.2954944
114586269,-0.030851467,0.13327537,0.2954944
114595868,-0.041423365,0.13687542,0.29248086
114605474,-0.055523816,0.14409082,0.2894318
114615868,-0.0466816,0.13502942,0.28510335
114625468,-0.041423365,0.13687542,0.29248086
114635868,-0.03255327,0.13139874,0.28224406
114645469,-0.039583173,0.113291316,0.27641526
114655868,-0.055552416,0.11158324,0.29549068
114665469,-0.055552416,0.11158324,0.29549068
114675868,-0.048424937,0.14042948,0.28064966
114684712,-0.050168894,0.12052202,0.27632767
114695868,-0.04315289,0.13864477,0.2851012
114704678,-0.06781205,0.12052202,0.27624437
114715868,-0.043180868,0.13144471,0.29102835
114724681,-0.06608217,0.13321407,0.28354877
114734268,-0.06608226,0.12959874,0.2835676
114744714,-0.05898267,0.15486026,0.27463493
114754274,-0.05898267,0.15486026,0.27463493
114763868,-0.05891379,0.12947613,0.2600428
114773469,-0.051926393,0.115091324,0.2748752
