timestamp,baro_alt_meter,baro_temp_celcius,baro_pressure_pa,rho
100822561,-29.51471,33.489998,101680.0,1.2081265
100844018,-29.92691,33.489998,101685.0,1.208186
100855151,-30.09602,33.489998,101687.0,1.2082098
100866221,-29.847641,33.489998,101684.0,1.2081741
100887137,-30.17529,33.489998,101688.0,1.2082217
100898331,-29.430155,33.489998,101679.0,1.2081147
100909021,-29.92691,33.489998,101685.0,1.208186
100930187,-30.09602,33.489998,101687.0,1.2082098
100941024,-30.17529,33.489998,101688.0,1.2082217
100952018,-29.92691,33.489998,101685.0,1.208186
100973404,-30.011465,33.5,101686.0,1.208198
100983420,-30.011465,33.5,101686.0,1.208198
100994193,-30.17529,33.5,101688.0,1.2082217
101015019,-30.09602,33.5,101687.0,1.2082098
101026345,-30.011465,33.5,101686.0,1.208198
101036029,-30.259844,33.5,101688.99,1.2082335
101057018,-29.51471,33.489998,101680.0,1.2081265
101068023,-29.678534,33.489998,101682.0,1.2081504
101079099,-29.92691,33.489998,101685.0,1.208186
101101018,-30.17529,33.5,101688.0,1.2082217
101111790,-30.17529,33.5,101688.0,1.2082217
101122332,-29.430155,33.5,101679.0,1.2081147
101144030,-30.428951,33.5,101691.0,1.2082573
101154062,-29.847641,33.5,101684.0,1.2081741
101164018,-30.011465,33.5,101686.0,1.208198
101185018,-29.92691,33.5,101685.0,1.208186
101196018,-30.259844,33.5,101688.99,1.2082335
101207018,-30.011465,33.5,101686.0,1.208198
101229018,-30.17529,33.5,101688.0,1.2082217
101240060,-30.259844,33.5,101688.99,1.2082335
101250321,-29.92691,33.5,101685.0,1.208186
101272018,-30.011465,33.5,101686.0,1.208198
101282172,-29.92691,33.5,101685.0,1.208186
101293024,-29.92691,33.5,101685.0,1.208186
101315102,-29.847641,33.5,101684.0,1.2081741
101327136,-30.259844,33.5,101688.99,1.2082335
101338336,-29.847641,33.5,101684.0,1.2081741
101359154,-30.259844,33.5,101688.99,1.2082335
101370185,-30.09602,33.5,101687.0,1.2082098
101381403,-30.259844,33.5,101688.99,1.2082335
101402073,-30.011465,33.51,101686.0,1.208198
101412039,-29.847641,33.51,101684.0,1.2081741
101423031,-29.847641,33.51,101684.0,1.2081741
101444018,-30.50822,33.51,101692.0,1.2082692
101455377,-30.011465,33.51,101686.0,1.208198
101466315,-29.763088,33.51,101682.99,1.2081622
101487180,-30.344398,33.51,101690.0,1.2082454
101498165,-30.17529,33.51,101688.0,1.2082217
101509023,-29.92691,33.51,101685.0,1.208186
101530207,-29.92691,33.51,101685.0,1.208186
101541030,-30.011465,33.51,101686.0,1.208198
101552030,-29.847641,33.51,101684.0,1.2081741
101573018,-29.92691,33.51,101685.0,1.208186
101584021,-29.847641,33.51,101684.0,1.2081741
101594174,-29.847641,33.51,101684.0,1.2081741
101616018,-30.17529,33.51,101688.0,1.2082217
101626310,-29.763088,33.51,101682.99,1.2081622
101636023,-29.847641,33.51,101684.0,1.2081741
101658164,-29.92691,33.52,101685.0,1.208186
101669018,-29.763088,33.52,101682.99,1.2081622
101680018,-30.17529,33.52,101688.0,1.2082217
101701018,-30.09602,33.51,101687.0,1.2082098
101711369,-30.011465,33.51,101686.0,1.208198
101722134,-29.92691,33.51,101685.0,1.208186
101744018,-29.92691,33.52,101685.0,1.208186
101755141,-29.92691,33.52,101685.0,1.208186
101766759,-30.17529,33.52,101688.0,1.2082217
101788018,-30.09602,33.52,101687.0,1.2082098
101799195,-30.011465,33.52,101686.0,1.208198
101810162,-30.17529,33.52,101688.0,1.2082217
101832059,-30.09602,33.52,101687.0,1.2082098
101843018,-29.847641,33.52,101684.0,1.2081741
101854963,-30.17529,33.52,101688.0,1.2082217
101875019,-29.92691,33.51,101685.0,1.208186
101885922,-30.011465,33.51,101686.0,1.208198
101896018,-30.09602,33.51,101687.0,1.2082098
101917018,-29.92691,33.52,101685.0,1.208186
101928025,-30.17529,33.52,101688.0,1.2082217
101939148,-29.763088,33.52,101682.99,1.2081622
101960063,-30.17529,33.52,101688.0,1.2082217
101970329,-30.17529,33.52,101688.0,1.2082217
101981984,-30.011465,33.52,101686.0,1.208198
102002305,-29.92691,33.52,101685.0,1.208186
102014604,-30.259844,33.52,101688.99,1.2082335
102025264,-30.011465,33.52,101686.0,1.208198
102046018,-29.847641,33.52,101684.0,1.2081741
102057366,-30.09602,33.52,101687.0,1.2082098
102067106,-29.678534,33.52,101682.0,1.2081504
102091018,-29.763088,33.52,101682.99,1.2081622
102103510,-30.17529,33.52,101688.0,1.2082217
102114023,-29.763088,33.52,101682.99,1.2081622
102136018,-30.17529,33.53,101688.0,1.2082217
102147494,-30.09602,33.53,101687.0,1.2082098
102158018,-29.847641,33.53,101684.0,1.2081741
102180035,-30.09602,33.52,101687.0,1.2082098
102192400,-30.011465,33.52,101686.0,1.208198
102203131,-29.763088,33.52,101682.99,1.2081622
102226068,-30.011465,33.52,101686.0,1.208198
102237367,-30.17529,33.52,101688.0,1.2082217
102247966,-30.09602,33.52,101687.0,1.2082098
102269023,-30.17529,33.52,101688.0,1.2082217
102280352,-29.92691,33.52,101685.0,1.208186
102291018,-29.678534,33.52,101682.0,1.2081504
102314022,-30.17529,33.53,101688.0,1.2082217
102325370,-30.011465,33.53,101686.0,1.208198
102336224,-29.92691,33.53,101685.0,1.208186
102357018,-29.599264,33.53,101681.0,1.2081385
102368023,-29.51471,33.53,101680.0,1.2081265
102378018,-30.17529,33.53,101688.0,1.2082217
102399366,-29.92691,33.53,101685.0,1.208186
102410018,-29.92691,33.53,101685.0,1.208186
102421023,-29.599264,33.53,101681.0,1.2081385
102443141,-29.92691,33.53,101685.0,1.208186
102453111,-29.92691,33.53,101685.0,1.208186
102464022,-29.678534,33.53,101682.0,1.2081504
102485018,-29.678534,33.53,101682.0,1.2081504
102496231,-30.17529,33.53,101688.0,1.2082217
102507018,-30.17529,33.53,101688.0,1.2082217
102529018,-30.011465,33.54,101686.0,1.208198
102539018,-30.011465,33.54,101686.0,1.208198
102551362,-29.847641,33.54,101684.0,1.2081741
102573404,-30.09602,33.53,101687.0,1.2082098
102583584,-29.763088,33.53,101682.99,1.2081622
102594019,-29.678534,33.53,101682.0,1.2081504
102616021,-29.92691,33.54,101685.0,1.208186
102626018,-29.847641,33.54,101684.0,1.2081741
102637018,-29.847641,33.54,101684.0,1.2081741
102659108,-30.17529,33.54,101688.0,1.2082217
102670018,-30.259844,33.54,101688.99,1.2082335
102681068,-29.847641,33.54,101684.0,1.2081741
102703662,-30.17529,33.54,101688.0,1.2082217
102714051,-29.847641,33.54,101684.0,1.2081741
102725018,-29.92691,33.54,101685.0,1.208186
102747044,-29.763088,33.54,101682.99,1.2081622
102758018,-29.847641,33.54,101684.0,1.2081741
102769018,-29.847641,33.54,101684.0,1.2081741
102792011,-29.678534,33.54,101682.0,1.2081504
102803141,-30.011465,33.54,101686.0,1.208198
102814018,-29.847641,33.54,101684.0,1.2081741
102836018,-30.50822,33.54,101692.0,1.2082692
102847358,-30.428951,33.54,101691.0,1.2082573
102858018,-29.678534,33.54,101682.0,1.2081504
102880787,-29.763088,33.54,101682.99,1.2081622
102891374,-29.599264,33.54,101681.0,1.2081385
102902018,-29.92691,33.54,101685.0,1.208186
102924018,-30.011465,33.54,101686.0,1.208198
102935772,-29.763088,33.54,101682.99,1.2081622
102946124,-29.847641,33.54,101684.0,1.2081741
102967451,-29.678534,33.55,101682.0,1.2081504
102978967,-30.17529,33.55,101688.0,1.2082217
102989018,-29.847641,33.55,101684.0,1.2081741
103011018,-30.428951,33.55,101691.0,1.2082573
103023673,-29.92691,33.55,101685.0,1.208186
103034023,-29.92691,33.55,101685.0,1.208186
103056018,-30.09602,33.55,101687.0,1.2082098
103067491,-30.09602,33.55,101687.0,1.2082098
103078018,-30.17529,33.55,101688.0,1.2082217
103100018,-29.763088,33.55,101682.99,1.2081622
103111390,-30.344398,33.55,101690.0,1.2082454
103122024,-29.763088,33.55,101682.99,1.2081622
103144021,-29.847641,33.55,101684.0,1.2081741
103155419,-30.344398,33.55,101690.0,1.2082454
103166018,-30.259844,33.55,101688.99,1.2082335
103188025,-30.50822,33.55,101692.0,1.2082692
103199812,-30.011465,33.55,101686.0,1.208198
103210018,-29.92691,33.55,101685.0,1.208186
103232018,-30.011465,33.55,101686.0,1.208198
103243340,-30.17529,33.55,101688.0,1.2082217
103254063,-30.09602,33.55,101687.0,1.2082098
103276029,-30.09602,33.55,101687.0,1.2082098
103287667,-29.847641,33.55,101684.0,1.2081741
103298018,-30.17529,33.55,101688.0,1.2082217
103319516,-30.09602,33.559998,101687.0,1.2082098
103330018,-30.259844,33.559998,101688.99,1.2082335
103341018,-29.678534,33.559998,101682.0,1.2081504
103363018,-29.92691,33.559998,101685.0,1.208186
103374018,-30.259844,33.559998,101688.99,1.2082335
103385018,-29.847641,33.559998,101684.0,1.2081741
103406018,-29.92691,33.559998,101685.0,1.208186
103417020,-30.09602,33.559998,101687.0,1.2082098
103428022,-29.763088,33.559998,101682.99,1.2081622
103450023,-29.92691,33.559998,101685.0,1.208186
103460088,-29.92691,33.559998,101685.0,1.208186
103471336,-30.259844,33.559998,101688.99,1.2082335
103493018,-30.09602,33.559998,101687.0,1.2082098
103504018,-30.09602,33.559998,101687.0,1.2082098
103515018,-30.011465,33.559998,101686.0,1.208198
103536119,-29.92691,33.559998,101685.0,1.208186
103547030,-29.847641,33.559998,101684.0,1.2081741
103558341,-30.09602,33.559998,101687.0,1.2082098
103580018,-30.17529,33.559998,101688.0,1.2082217
103590018,-30.09602,33.559998,101687.0,1.2082098
103601018,-29.678534,33.559998,101682.0,1.2081504
103623330,-30.09602,33.57,101687.0,1.2082098
103633018,-30.011465,33.57,101686.0,1.208198
103644022,-29.92691,33.57,101685.0,1.208186
103666147,-29.92691,33.559998,101685.0,1.208186
103677018,-30.428951,33.559998,101691.0,1.2082573
103688218,-29.847641,33.559998,101684.0,1.2081741
103710049,-30.344398,33.57,101690.0,1.2082454
103720585,-30.011465,33.57,101686.0,1.208198
103731018,-29.599264,33.57,101681.0,1.2081385
103753018,-30.011465,33.57,101686.0,1.208198
103764325,-30.09602,33.57,101687.0,1.2082098
103775018,-29.847641,33.57,101684.0,1.2081741
103797024,-30.09602,33.57,101687.0,1.2082098
103808200,-30.011465,33.57,101686.0,1.208198
103819018,-30.259844,33.57,101688.99,1.2082335
103841018,-30.011465,33.57,101686.0,1.208198
103852338,-29.847641,33.57,101684.0,1.2081741
103864804,-30.428951,33.57,101691.0,1.2082573
103886018,-29.92691,33.57,101685.0,1.208186
103897023,-30.011465,33.57,101686.0,1.208198
103908018,-29.92691,33.57,101685.0,1.208186
103930023,-29.599264,33.57,101681.0,1.2081385
103940023,-29.847641,33.57,101684.0,1.2081741
103951023,-30.011465,33.57,101686.0,1.208198
103973119,-30.011465,33.579998,101686.0,1.208198
103984219,-30.17529,33.579998,101688.0,1.2082217
103995018,-30.09602,33.579998,101687.0,1.2082098
104016881,-30.09602,33.579998,101687.0,1.2082098
104026018,-30.09602,33.579998,101687.0,1.2082098
104037024,-29.847641,33.579998,101684.0,1.2081741
104058029,-30.09602,33.579998,101687.0,1.2082098
104069018,-29.92691,33.579998,101685.0,1.208186
104080194,-29.847641,33.579998,101684.0,1.2081741
104101023,-29.678534,33.579998,101682.0,1.2081504
104112951,-30.011465,33.579998,101686.0,1.208198
104123383,-29.847641,33.579998,101684.0,1.2081741
104144374,-29.92691,33.579998,101685.0,1.208186
104155334,-30.011465,33.579998,101686.0,1.208198
104166342,-30.344398,33.579998,101690.0,1.2082454
104188369,-30.259844,33.579998,101688.99,1.2082335
104199483,-29.26633,33.579998,101676.99,1.2080909
104210345,-29.678534,33.579998,101682.0,1.2081504
104232825,-29.763088,33.579998,101682.99,1.2081622
104243018,-30.259844,33.579998,101688.99,1.2082335
104254452,-30.259844,33.579998,101688.99,1.2082335
104276325,-30.011465,33.579998,101686.0,1.208198
104288198,-29.678534,33.579998,101682.0,1.2081504
104299018,-29.763088,33.579998,101682.99,1.2081622
104320782,-30.011465,33.579998,101686.0,1.208198
104331018,-30.17529,33.579998,101688.0,1.2082217
104342491,-30.011465,33.579998,101686.0,1.208198
104364354,-30.17529,33.579998,101688.0,1.2082217
104376445,-29.847641,33.579998,101684.0,1.2081741
104387370,-30.344398,33.579998,101690.0,1.2082454
104409018,-29.92691,33.59,101685.0,1.208186
104420032,-30.17529,33.59,101688.0,1.2082217
104431330,-30.09602,33.59,101687.0,1.2082098
104452021,-30.17529,33.59,101688.0,1.2082217
104463018,-30.259844,33.59,101688.99,1.2082335
104474023,-30.17529,33.59,101688.0,1.2082217
104496982,-30.011465,33.59,101686.0,1.208198
104508021,-29.847641,33.59,101684.0,1.2081741
104518018,-30.09602,33.59,101687.0,1.2082098
104539495,-29.92691,33.59,101685.0,1.208186
104550018,-29.763088,33.59,101682.99,1.2081622
104560314,-30.011465,33.59,101686.0,1.208198
104582369,-29.92691,33.6,101685.0,1.208186
104593051,-30.344398,33.6,101690.0,1.2082454
104604338,-30.09602,33.6,101687.0,1.2082098
104626341,-29.763088,33.59,101682.99,1.2081622
104637024,-29.92691,33.59,101685.0,1.208186
104649412,-30.17529,33.59,101688.0,1.2082217
104671432,-29.763088,33.59,101682.99,1.2081622
104682030,-30.17529,33.59,101688.0,1.2082217
104693387,-30.09602,33.59,101687.0,1.2082098
104715752,-30.09602,33.59,101687.0,1.2082098
104726067,-29.847641,33.59,101684.0,1.2081741
104737366,-29.847641,33.59,101684.0,1.2081741
104759941,-29.599264,33.6,101681.0,1.2081385
104770018,-30.011465,33.6,101686.0,1.208198
104781366,-29.599264,33.6,101681.0,1.2081385
104803761,-30.09602,33.6,101687.0,1.2082098
104814023,-30.011465,33.6,101686.0,1.208198
104825359,-29.847641,33.6,101684.0,1.2081741
104846018,-29.847641,33.6,101684.0,1.2081741
104857018,-30.011465,33.6,101686.0,1.208198
104868024,-29.763088,33.6,101682.99,1.2081622
104890018,-29.847641,33.6,101684.0,1.2081741
104901018,-30.259844,33.6,101688.99,1.2082335
104912344,-29.3456,33.6,101678.0,1.2081028
104934023,-29.92691,33.6,101685.0,1.208186
104944240,-29.847641,33.6,101684.0,1.2081741
104955217,-30.17529,33.6,101688.0,1.2082217
104977076,-29.763088,33.6,101682.99,1.2081622
104988027,-29.678534,33.6,101682.0,1.2081504
104998063,-29.599264,33.6,101681.0,1.2081385
105019490,-30.344398,33.6,101690.0,1.2082454
105030342,-30.17529,33.6,101688.0,1.2082217
105040385,-29.763088,33.6,101682.99,1.2081622
105061063,-29.92691,33.61,101685.0,1.208186
105072723,-29.92691,33.61,101685.0,1.208186
105083018,-30.011465,33.61,101686.0,1.208198
105105182,-30.17529,33.61,101688.0,1.2082217
105116080,-29.847641,33.61,101684.0,1.2081741
105127018,-30.011465,33.61,101686.0,1.208198
105148018,-30.428951,33.61,101691.0,1.2082573
105159018,-29.763088,33.61,101682.99,1.2081622
105170018,-29.847641,33.61,101684.0,1.2081741
105190018,-29.92691,33.61,101685.0,1.208186
105201214,-30.259844,33.61,101688.99,1.2082335
105212705,-29.847641,33.61,101684.0,1.2081741
105234018,-30.011465,33.61,101686.0,1.208198
105244585,-30.011465,33.61,101686.0,1.208198
105255399,-30.17529,33.61,101688.0,1.2082217
105276636,-29.678534,33.61,101682.0,1.2081504
105287030,-30.011465,33.61,101686.0,1.208198
105297195,-29.92691,33.61,101685.0,1.208186
105319018,-30.09602,33.62,101687.0,1.2082098
105330396,-29.847641,33.62,101684.0,1.2081741
105341027,-29.678534,33.62,101682.0,1.2081504
105364755,-29.678534,33.61,101682.0,1.2081504
105375018,-29.678534,33.61,101682.0,1.2081504
105386018,-30.09602,33.61,101687.0,1.2082098
105407018,-30.09602,33.62,101687.0,1.2082098
105418310,-29.847641,33.62,101684.0,1.2081741
105429022,-29.92691,33.62,101685.0,1.208186
105449186,-30.344398,33.62,101690.0,1.2082454
105460566,-29.678534,33.62,101682.0,1.2081504
105471104,-30.09602,33.62,101687.0,1.2082098
105492584,-30.344398,33.62,101690.0,1.2082454
105503018,-30.259844,33.62,101688.99,1.2082335
105514024,-30.259844,33.62,101688.99,1.2082335
105535324,-29.92691,33.62,101685.0,1.208186
105546215,-29.847641,33.62,101684.0,1.2081741
105556580,-30.17529,33.62,101688.0,1.2082217
105577198,-30.09602,33.62,101687.0,1.2082098
105588586,-29.847641,33.62,101684.0,1.2081741
105599158,-30.09602,33.62,101687.0,1.2082098
105620620,-29.92691,33.62,101685.0,1.208186
105631367,-29.763088,33.62,101682.99,1.2081622
105641027,-29.92691,33.62,101685.0,1.208186
105662018,-30.011465,33.62,101686.0,1.208198
105673783,-29.51471,33.62,101680.0,1.2081265
105684601,-29.678534,33.62,101682.0,1.2081504
105706018,-30.09602,33.63,101687.0,1.2082098
105716701,-30.428951,33.63,101691.0,1.2082573
105727018,-30.011465,33.63,101686.0,1.208198
105748598,-29.763088,33.63,101682.99,1.2081622
105759018,-29.678534,33.63,101682.0,1.2081504
105770018,-29.3456,33.63,101678.0,1.2081028
105791324,-30.50822,33.63,101692.0,1.2082692
105801630,-30.17529,33.63,101688.0,1.2082217
105812573,-29.92691,33.63,101685.0,1.208186
105834039,-29.763088,33.63,101682.99,1.2081622
105845100,-29.847641,33.63,101684.0,1.2081741
105855135,-30.011465,33.63,101686.0,1.208198
105876801,-30.17529,33.64,101688.0,1.2082217
105887116,-30.09602,33.64,101687.0,1.2082098
105897114,-29.92691,33.64,101685.0,1.208186
105919018,-30.259844,33.64,101688.99,1.2082335
105930708,-30.50822,33.64,101692.0,1.2082692
105940734,-30.259844,33.64,101688.99,1.2082335
105961060,-30.011465,33.64,101686.0,1.208198
105972785,-29.847641,33.64,101684.0,1.2081741
105982018,-29.763088,33.64,101682.99,1.2081622
106004585,-30.259844,33.64,101688.99,1.2082335
106015018,-29.763088,33.64,101682.99,1.2081622
106025034,-29.92691,33.64,101685.0,1.208186
106047081,-30.011465,33.64,101686.0,1.208198
106058030,-29.92691,33.64,101685.0,1.208186
106069018,-30.011465,33.64,101686.0,1.208198
106089668,-29.847641,33.64,101684.0,1.2081741
106100550,-29.678534,33.64,101682.0,1.2081504
106111035,-30.09602,33.64,101687.0,1.2082098
106132610,-30.011465,33.64,101686.0,1.208198
106143083,-29.92691,33.64,101685.0,1.208186
106154030,-30.011465,33.64,101686.0,1.208198
106177639,-30.011465,33.64,101686.0,1.208198
106188597,-30.011465,33.64,101686.0,1.208198
106199018,-30.17529,33.64,101688.0,1.2082217
106220582,-29.847641,33.64,101684.0,1.2081741
106231018,-30.17529,33.64,101688.0,1.2082217
106242018,-30.09602,33.64,101687.0,1.2082098
106263383,-30.259844,33.64,101688.99,1.2082335
106273824,-30.428951,33.64,101691.0,1.2082573
106284613,-30.011465,33.64,101686.0,1.208198
106305165,-30.344398,33.64,101690.0,1.2082454
106316795,-29.678534,33.64,101682.0,1.2081504
106331018,-30.09602,33.64,101687.0,1.2082098
106353199,-30.259844,33.64,101688.99,1.2082335
106364578,-30.011465,33.64,101686.0,1.208198
106375075,-30.011465,33.64,101686.0,1.208198
106397022,-29.847641,33.64,101684.0,1.2081741
106407018,-29.763088,33.64,101682.99,1.2081622
106418018,-29.763088,33.64,101682.99,1.2081622
106439335,-30.011465,33.649998,101686.0,1.208198
106450024,-30.17529,33.649998,101688.0,1.2082217
106461719,-29.763088,33.649998,101682.99,1.2081622
106483805,-29.92691,33.649998,101685.0,1.208186
106494018,-30.09602,33.649998,101687.0,1.2082098
106505538,-30.09602,33.649998,101687.0,1.2082098
106527414,-29.763088,33.649998,101682.99,1.2081622
106537761,-30.50822,33.649998,101692.0,1.2082692
106548639,-30.259844,33.649998,101688.99,1.2082335
106570137,-29.678534,33.649998,101682.0,1.2081504
106580618,-29.92691,33.649998,101685.0,1.208186
106591018,-29.430155,33.649998,101679.0,1.2081147
106613018,-30.09602,33.649998,101687.0,1.2082098
106624018,-30.344398,33.649998,101690.0,1.2082454
106635018,-29.51471,33.649998,101680.0,1.2081265
106657656,-29.847641,33.649998,101684.0,1.2081741
106667074,-29.430155,33.649998,101679.0,1.2081147
106678022,-30.09602,33.649998,101687.0,1.2082098
106700024,-30.592775,33.649998,101693.0,1.208281
106710348,-30.344398,33.649998,101690.0,1.2082454
106721305,-30.259844,33.649998,101688.99,1.2082335
106743018,-30.17529,33.66,101688.0,1.2082217
106753385,-29.678534,33.66,101682.0,1.2081504
106763018,-30.17529,33.66,101688.0,1.2082217
106785485,-29.92691,33.66,101685.0,1.208186
106796018,-29.678534,33.66,101682.0,1.2081504
106807116,-29.92691,33.66,101685.0,1.208186
106828063,-30.011465,33.66,101686.0,1.208198
106839018,-29.92691,33.66,101685.0,1.208186
106850023,-29.599264,33.66,101681.0,1.2081385
106872018,-30.011465,33.66,101686.0,1.208198
106882022,-29.51471,33.66,101680.0,1.2081265
106894049,-29.763088,33.66,101682.99,1.2081622
106916324,-30.17529,33.66,101688.0,1.2082217
106926424,-30.09602,33.66,101687.0,1.2082098
106937651,-29.847641,33.66,101684.0,1.2081741
106958174,-30.17529,33.66,101688.0,1.2082217
106969525,-30.011465,33.66,101686.0,1.208198
106980018,-29.92691,33.66,101685.0,1.208186
107001382,-30.259844,33.66,101688.99,1.2082335
107012018,-29.847641,33.66,101684.0,1.2081741
107023018,-30.011465,33.66,101686.0,1.208198
107044018,-30.17529,33.66,101688.0,1.2082217
107055098,-30.17529,33.66,101688.0,1.2082217
107065383,-30.17529,33.66,101688.0,1.2082217
107086034,-30.17529,33.67,101688.0,1.2082217
107097786,-29.92691,33.67,101685.0,1.208186
107107117,-29.92691,33.67,101685.0,1.208186
107128018,-30.09602,33.66,101687.0,1.2082098
107139018,-29.92691,33.66,101685.0,1.208186
107150023,-29.599264,33.66,101681.0,1.2081385
107172018,-30.011465,33.67,101686.0,1.208198
107183140,-29.92691,33.67,101685.0,1.208186
107194018,-29.678534,33.67,101682.0,1.2081504
107214177,-30.09602,33.67,101687.0,1.2082098
107225420,-29.847641,33.67,101684.0,1.2081741
107236332,-29.763088,33.67,101682.99,1.2081622
107258347,-29.763088,33.67,101682.99,1.2081622
107269859,-29.763088,33.67,101682.99,1.2081622
107279251,-29.847641,33.67,101684.0,1.2081741
107300052,-30.17529,33.67,101688.0,1.2082217
107311018,-30.011465,33.67,101686.0,1.208198
107322021,-30.011465,33.67,101686.0,1.208198
107343039,-30.09602,33.67,101687.0,1.2082098
107353417,-29.92691,33.67,101685.0,1.208186
107364018,-30.17529,33.67,101688.0,1.2082217
107385591,-29.92691,33.68,101685.0,1.208186
107396022,-30.011465,33.68,101686.0,1.208198
107406021,-30.17529,33.68,101688.0,1.2082217
107428061,-29.51471,33.67,101680.0,1.2081265
107438792,-30.011465,33.67,101686.0,1.208198
107449601,-30.17529,33.67,101688.0,1.2082217
107471018,-29.763088,33.68,101682.99,1.2081622
107482340,-30.17529,33.68,101688.0,1.2082217
107494744,-30.259844,33.68,101688.99,1.2082335
107516018,-29.92691,33.67,101685.0,1.208186
107526029,-30.011465,33.67,101686.0,1.208198
107536018,-29.847641,33.67,101684.0,1.2081741
107558035,-30.011465,33.68,101686.0,1.208198
107569422,-30.09602,33.68,101687.0,1.2082098
107580018,-29.92691,33.68,101685.0,1.208186
107602018,-30.09602,33.68,101687.0,1.2082098
107613855,-30.259844,33.68,101688.99,1.2082335
107624018,-30.17529,33.68,101688.0,1.2082217
107646039,-29.847641,33.68,101684.0,1.2081741
107657370,-29.678534,33.68,101682.0,1.2081504
107667110,-29.678534,33.68,101682.0,1.2081504
107689573,-29.678534,33.68,101682.0,1.2081504
107700068,-30.09602,33.68,101687.0,1.2082098
107710212,-29.92691,33.68,101685.0,1.208186
107732330,-30.259844,33.69,101688.99,1.2082335
107742393,-30.011465,33.69,101686.0,1.208198
107753520,-30.344398,33.69,101690.0,1.2082454
107775133,-29.847641,33.69,101684.0,1.2081741
107785387,-29.847641,33.69,101684.0,1.2081741
107796030,-29.847641,33.69,101684.0,1.2081741
107817348,-29.92691,33.69,101685.0,1.208186
107828018,-30.344398,33.69,101690.0,1.2082454
107839018,-29.92691,33.69,101685.0,1.208186
107860024,-30.09602,33.69,101687.0,1.2082098
107870721,-30.09602,33.69,101687.0,1.2082098
107881308,-30.011465,33.69,101686.0,1.208198
107903106,-30.259844,33.69,101688.99,1.2082335
107914373,-30.428951,33.69,101691.0,1.2082573
107924023,-29.847641,33.69,101684.0,1.2081741
107946063,-30.09602,33.69,101687.0,1.2082098
107958795,-29.847641,33.69,101684.0,1.2081741
107969567,-29.763088,33.69,101682.99,1.2081622
107991018,-29.92691,33.69,101685.0,1.208186
108001417,-30.09602,33.69,101687.0,1.2082098
108011018,-29.763088,33.69,101682.99,1.2081622
108033398,-29.763088,33.69,101682.99,1.2081622
108044030,-29.847641,33.69,101684.0,1.2081741
108054049,-30.17529,33.69,101688.0,1.2082217
108077157,-30.17529,33.69,101688.0,1.2082217
108088075,-29.763088,33.69,101682.99,1.2081622
108099126,-29.678534,33.69,101682.0,1.2081504
108121359,-30.17529,33.69,101688.0,1.2082217
108132018,-29.763088,33.69,101682.99,1.2081622
108143023,-30.011465,33.69,101686.0,1.208198
108163024,-29.847641,33.69,101684.0,1.2081741
108174589,-29.763088,33.69,101682.99,1.2081622
108185018,-30.011465,33.69,101686.0,1.208198
108206021,-30.011465,33.7,101686.0,1.208198
108217018,-29.847641,33.7,101684.0,1.2081741
108228025,-29.847641,33.7,101684.0,1.2081741
108250198,-30.344398,33.7,101690.0,1.2082454
108261788,-30.09602,33.7,101687.0,1.2082098
108271183,-29.763088,33.7,101682.99,1.2081622
108293386,-30.011465,33.71,101686.0,1.208198
108304015,-29.92691,33.71,101685.0,1.208186
108315019,-30.17529,33.71,101688.0,1.2082217
108336018,-30.011465,33.7,101686.0,1.208198
108347018,-29.92691,33.7,101685.0,1.208186
108357018,-29.92691,33.7,101685.0,1.208186
108378212,-30.09602,33.71,101687.0,1.2082098
108389414,-29.92691,33.71,101685.0,1.208186
108399464,-29.763088,33.71,101682.99,1.2081622
108421063,-30.09602,33.71,101687.0,1.2082098
108432018,-29.678534,33.71,101682.0,1.2081504
108442324,-29.92691,33.71,101685.0,1.208186
108463140,-29.92691,33.71,101685.0,1.208186
108474215,-30.17529,33.71,101688.0,1.2082217
108485397,-30.011465,33.71,101686.0,1.208198
108506155,-30.011465,33.71,101686.0,1.208198
108517023,-30.09602,33.71,101687.0,1.2082098
108528018,-29.92691,33.71,101685.0,1.208186
108549018,-29.599264,33.71,101681.0,1.2081385
108560018,-30.09602,33.71,101687.0,1.2082098
108571018,-29.678534,33.71,101682.0,1.2081504
108594187,-30.259844,33.71,101688.99,1.2082335
108605366,-30.011465,33.71,101686.0,1.208198
108615186,-29.847641,33.71,101684.0,1.2081741
108637018,-30.17529,33.71,101688.0,1.2082217
108647742,-30.011465,33.71,101686.0,1.208198
108658208,-30.09602,33.71,101687.0,1.2082098
108680018,-30.09602,33.71,101687.0,1.2082098
108691175,-29.92691,33.71,101685.0,1.208186
108702522,-30.011465,33.71,101686.0,1.208198
108724018,-30.09602,33.71,101687.0,1.2082098
108735169,-30.17529,33.71,101688.0,1.2082217
108746322,-29.763088,33.71,101682.99,1.2081622
108767018,-29.763088,33.71,101682.99,1.2081622
108778186,-29.51471,33.71,101680.0,1.2081265
108789434,-29.3456,33.71,101678.0,1.2081028
108810219,-29.763088,33.71,101682.99,1.2081622
108821018,-29.92691,33.71,101685.0,1.208186
108832018,-29.847641,33.71,101684.0,1.2081741
108854649,-30.011465,33.71,101686.0,1.208198
108865018,-29.678534,33.71,101682.0,1.2081504
108876067,-29.678534,33.71,101682.0,1.2081504
108898211,-29.847641,33.719997,101684.0,1.2081741
108909018,-30.011465,33.719997,101686.0,1.208198
108920018,-29.763088,33.719997,101682.99,1.2081622
108941018,-29.678534,33.71,101682.0,1.2081504
108952018,-29.678534,33.71,101682.0,1.2081504
108963160,-30.09602,33.71,101687.0,1.2082098
108985018,-30.428951,33.719997,101691.0,1.2082573
108996030,-29.847641,33.719997,101684.0,1.2081741
109007018,-29.763088,33.719997,101682.99,1.2081622
109029018,-30.17529,33.719997,101688.0,1.2082217
109040063,-30.011465,33.719997,101686.0,1.208198
109051018,-29.92691,33.719997,101685.0,1.208186
109074127,-29.599264,33.719997,101681.0,1.2081385
109085023,-29.763088,33.719997,101682.99,1.2081622
109096018,-29.51471,33.719997,101680.0,1.2081265
109117018,-29.51471,33.719997,101680.0,1.2081265
109128329,-29.26633,33.719997,101676.99,1.2080909
109139029,-29.430155,33.719997,101679.0,1.2081147
109160018,-30.011465,33.719997,101686.0,1.208198
109170184,-29.51471,33.719997,101680.0,1.2081265
109180018,-29.599264,33.719997,101681.0,1.2081385
109202175,-29.92691,33.719997,101685.0,1.208186
109213018,-29.678534,33.719997,101682.0,1.2081504
109224063,-30.09602,33.719997,101687.0,1.2082098
109245075,-29.430155,33.73,101679.0,1.2081147
109256022,-29.26633,33.73,101676.99,1.2080909
109266346,-29.51471,33.73,101680.0,1.2081265
109288030,-29.763088,33.73,101682.99,1.2081622
109298154,-29.430155,33.73,101679.0,1.2081147
109309023,-29.678534,33.73,101682.0,1.2081504
109331018,-29.181776,33.73,101675.99,1.208079
109343190,-29.51471,33.73,101680.0,1.2081265
109354321,-29.3456,33.73,101678.0,1.2081028
109376029,-29.599264,33.73,101681.0,1.2081385
109387158,-29.3456,33.73,101678.0,1.2081028
109398502,-29.763088,33.73,101682.99,1.2081622
109420036,-29.599264,33.73,101681.0,1.2081385
109431107,-29.847641,33.73,101684.0,1.2081741
109442165,-29.847641,33.73,101684.0,1.2081741
109464033,-29.3456,33.73,101678.0,1.2081028
109474297,-30.011465,33.73,101686.0,1.208198
109485366,-29.181776,33.73,101675.99,1.208079
109507325,-30.50822,33.73,101692.0,1.2082692
109517018,-30.011465,33.73,101686.0,1.208198
109528355,-29.430155,33.73,101679.0,1.2081147
109549410,-30.428951,33.739998,101691.0,1.2082573
109559759,-30.011465,33.739998,101686.0,1.208198
109570019,-30.259844,33.739998,101688.99,1.2082335
109592018,-30.17529,33.739998,101688.0,1.2082217
109603018,-30.17529,33.739998,101688.0,1.2082217
109614696,-29.763088,33.739998,101682.99,1.2081622
109636018,-29.430155,33.739998,101679.0,1.2081147
109647215,-30.259844,33.739998,101688.99,1.2082335
109657018,-30.17529,33.739998,101688.0,1.2082217
109679018,-30.09602,33.739998,101687.0,1.2082098
109690173,-30.428951,33.739998,101691.0,1.2082573
109701031,-30.428951,33.739998,101691.0,1.2082573
109722018,-29.51471,33.75,101680.0,1.2081265
109734162,-29.599264,33.75,101681.0,1.2081385
109745023,-29.847641,33.75,101684.0,1.2081741
109767018,-30.50822,33.75,101692.0,1.2082692
109778508,-30.259844,33.75,101688.99,1.2082335
109789018,-29.763088,33.75,101682.99,1.2081622
109810196,-29.92691,33.75,101685.0,1.208186
109822173,-29.599264,33.75,101681.0,1.2081385
109832031,-29.847641,33.75,101684.0,1.2081741
109854041,-29.847641,33.75,101684.0,1.2081741
109865018,-29.599264,33.75,101681.0,1.2081385
109875018,-29.430155,33.75,101679.0,1.2081147
109897018,-29.763088,33.75,101682.99,1.2081622
109907018,-30.592775,33.75,101693.0,1.208281
109918022,-29.763088,33.75,101682.99,1.2081622
109940422,-29.847641,33.75,101684.0,1.2081741
109950027,-29.51471,33.75,101680.0,1.2081265
109961018,-29.26633,33.75,101676.99,1.2080909
109983367,-30.428951,33.76,101691.0,1.2082573
109994018,-29.51471,33.76,101680.0,1.2081265
110004075,-29.847641,33.76,101684.0,1.2081741
110025063,-30.344398,33.76,101690.0,1.2082454
110036021,-29.763088,33.76,101682.99,1.2081622
110047144,-29.51471,33.76,101680.0,1.2081265
110069018,-29.430155,33.76,101679.0,1.2081147
110079102,-29.92691,33.76,101685.0,1.208186
110090018,-29.017954,33.76,101674.0,1.2080553
110112018,-29.430155,33.76,101679.0,1.2081147
110123381,-29.763088,33.76,101682.99,1.2081622
110134022,-30.17529,33.76,101688.0,1.2082217
110156018,-29.3456,33.77,101678.0,1.2081028
110167359,-29.430155,33.77,101679.0,1.2081147
110178018,-29.847641,33.77,101684.0,1.2081741
110200018,-29.3456,33.77,101678.0,1.2081028
110211660,-28.9334,33.77,101673.0,1.2080435
110221906,-29.097223,33.77,101675.0,1.2080672
110243937,-29.26633,33.76,101676.99,1.2080909
110254023,-29.430155,33.76,101679.0,1.2081147
110265029,-29.3456,33.76,101678.0,1.2081028
110287162,-29.763088,33.77,101682.99,1.2081622
110298044,-29.763088,33.77,101682.99,1.2081622
110309018,-29.763088,33.77,101682.99,1.2081622
110330018,-29.51471,33.77,101680.0,1.2081265
110340262,-29.847641,33.77,101684.0,1.2081741
110351029,-29.51471,33.77,101680.0,1.2081265
110373018,-29.430155,33.77,101679.0,1.2081147
110384018,-29.678534,33.77,101682.0,1.2081504
110395649,-29.430155,33.77,101679.0,1.2081147
110417023,-30.17529,33.78,101688.0,1.2082217
110428020,-30.011465,33.78,101686.0,1.208198
110438990,-29.181776,33.78,101675.99,1.208079
110460358,-30.17529,33.77,101688.0,1.2082217
110471139,-29.678534,33.77,101682.0,1.2081504
110483534,-30.09602,33.77,101687.0,1.2082098
110504018,-30.09602,33.78,101687.0,1.2082098
110514018,-29.763088,33.78,101682.99,1.2081622
110525018,-29.181776,33.78,101675.99,1.208079
110546018,-30.011465,33.78,101686.0,1.208198
110556262,-29.017954,33.78,101674.0,1.2080553
110567113,-29.763088,33.78,101682.99,1.2081622
110589063,-29.599264,33.78,101681.0,1.2081385
110600325,-29.51471,33.78,101680.0,1.2081265
110611643,-29.599264,33.78,101681.0,1.2081385
110633018,-29.3456,33.78,101678.0,1.2081028
110644370,-29.51471,33.78,101680.0,1.2081265
110655106,-29.847641,33.78,101684.0,1.2081741
110677018,-28.848845,33.78,101672.0,1.2080315
110688324,-29.678534,33.78,101682.0,1.2081504
110699431,-30.011465,33.78,101686.0,1.208198
110721023,-30.259844,33.79,101688.99,1.2082335
110732371,-30.17529,33.79,101688.0,1.2082217
110743018,-29.763088,33.79,101682.99,1.2081622
110766063,-30.17529,33.79,101688.0,1.2082217
110777372,-30.17529,33.79,101688.0,1.2082217
110788266,-30.09602,33.79,101687.0,1.2082098
110810018,-30.09602,33.79,101687.0,1.2082098
110821366,-29.26633,33.79,101676.99,1.2080909
110832028,-29.181776,33.79,101675.99,1.208079
110852018,-29.599264,33.8,101681.0,1.2081385
110863123,-30.011465,33.8,101686.0,1.208198
110874018,-29.097223,33.8,101675.0,1.2080672
110895166,-30.011465,33.79,101686.0,1.208198
110906018,-30.17529,33.79,101688.0,1.2082217
110916022,-29.51471,33.79,101680.0,1.2081265
110938022,-30.17529,33.8,101688.0,1.2082217
110948207,-29.678534,33.8,101682.0,1.2081504
110959139,-29.763088,33.8,101682.99,1.2081622
110980018,-30.17529,33.8,101688.0,1.2082217
110991018,-29.26633,33.8,101676.99,1.2080909
111002031,-30.428951,33.8,101691.0,1.2082573
111024018,-30.925709,33.8,101697.0,1.2083286
111036244,-30.011465,33.8,101686.0,1.208198
111047107,-30.841154,33.8,101696.0,1.2083167
111068325,-30.17529,33.8,101688.0,1.2082217
111078063,-30.259844,33.8,101688.99,1.2082335
111089410,-30.09602,33.8,101687.0,1.2082098
111111336,-30.50822,33.809998,101692.0,1.2082692
111122018,-30.09602,33.809998,101687.0,1.2082098
111133491,-29.92691,33.809998,101685.0,1.208186
111155165,-29.599264,33.8,101681.0,1.2081385
111165384,-29.430155,33.8,101679.0,1.2081147
111176019,-28.76429,33.8,101671.0,1.2080196
111197023,-29.51471,33.809998,101680.0,1.2081265
111207105,-29.3456,33.809998,101678.0,1.2081028
111218018,-29.847641,33.809998,101684.0,1.2081741
111240018,-29.51471,33.809998,101680.0,1.2081265
111251371,-30.67733,33.809998,101694.0,1.208293
111262063,-29.097223,33.809998,101675.0,1.2080672
111283663,-30.344398,33.809998,101690.0,1.2082454
111294613,-31.591572,33.809998,101705.0,1.2084236
111305018,-30.259844,33.809998,101688.99,1.2082335
111327018,-29.92691,33.82,101685.0,1.208186
111339484,-30.428951,33.82,101691.0,1.2082573
111350018,-29.51471,33.82,101680.0,1.2081265
111372227,-29.763088,33.809998,101682.99,1.2081622
111383947,-29.763088,33.809998,101682.99,1.2081622
111394023,-29.847641,33.809998,101684.0,1.2081741
111416018,-29.3456,33.82,101678.0,1.2081028
111426128,-29.763088,33.82,101682.99,1.2081622
111436018,-29.097223,33.82,101675.0,1.2080672
111458018,-29.430155,33.82,101679.0,1.2081147
111468063,-29.51471,33.82,101680.0,1.2081265
111479116,-29.181776,33.82,101675.99,1.208079
111499462,-29.430155,33.82,101679.0,1.2081147
111509089,-28.600466,33.82,101669.0,1.2079959
111520020,-29.430155,33.82,101679.0,1.2081147
111542018,-30.259844,33.82,101688.99,1.2082335
111553018,-29.599264,33.82,101681.0,1.2081385
111564261,-29.26633,33.82,101676.99,1.2080909
111586018,-29.3456,33.829998,101678.0,1.2081028
111597018,-29.599264,33.829998,101681.0,1.2081385
111608020,-28.9334,33.829998,101673.0,1.2080435
111630024,-29.599264,33.82,101681.0,1.2081385
111640033,-29.3456,33.82,101678.0,1.2081028
111651040,-29.097223,33.82,101675.0,1.2080672
111673104,-29.430155,33.829998,101679.0,1.2081147
111684838,-29.26633,33.829998,101676.99,1.2080909
111694103,-29.678534,33.829998,101682.0,1.2081504
111714162,-29.92691,33.829998,101685.0,1.208186
111724405,-29.017954,33.829998,101674.0,1.2080553
111734063,-29.847641,33.829998,101684.0,1.2081741
111756184,-29.763088,33.829998,101682.99,1.2081622
111767305,-29.847641,33.829998,101684.0,1.2081741
111778018,-29.26633,33.829998,101676.99,1.2080909
111799018,-29.51471,33.829998,101680.0,1.2081265
111810018,-29.26633,33.829998,101676.99,1.2080909
111821018,-29.3456,33.829998,101678.0,1.2081028
111843018,-29.51471,33.829998,101680.0,1.2081265
111854020,-29.678534,33.829998,101682.0,1.2081504
111865018,-29.763088,33.829998,101682.99,1.2081622
111887354,-29.678534,33.829998,101682.0,1.2081504
111898068,-29.51471,33.829998,101680.0,1.2081265
111908461,-29.3456,33.829998,101678.0,1.2081028
111930405,-29.763088,33.829998,101682.99,1.2081622
111941018,-29.430155,33.829998,101679.0,1.2081147
111952374,-29.599264,33.829998,101681.0,1.2081385
111974340,-29.599264,33.829998,101681.0,1.2081385
111984046,-29.26633,33.829998,101676.99,1.2080909
111994040,-29.92691,33.829998,101685.0,1.208186
112016024,-29.097223,33.84,101675.0,1.2080672
112027026,-28.76429,33.84,101671.0,1.2080196
112038018,-29.847641,33.84,101684.0,1.2081741
112060185,-29.017954,33.84,101674.0,1.2080553
112071726,-29.599264,33.84,101681.0,1.2081385
112082302,-29.847641,33.84,101684.0,1.2081741
112103340,-29.92691,33.84,101685.0,1.208186
112114018,-29.017954,33.84,101674.0,1.2080553
112125097,-29.51471,33.84,101680.0,1.2081265
112148375,-29.599264,33.84,101681.0,1.2081385
112159018,-29.181776,33.84,101675.99,1.208079
112170018,-29.26633,33.84,101676.99,1.2080909
112192027,-29.097223,33.84,101675.0,1.2080672
112203018,-29.097223,33.84,101675.0,1.2080672
112214023,-29.3456,33.84,101678.0,1.2081028
112235018,-29.017954,33.84,101674.0,1.2080553
112246018,-29.3456,33.84,101678.0,1.2081028
112257018,-29.26633,33.84,101676.99,1.2080909
112279022,-29.599264,33.84,101681.0,1.2081385
112290050,-29.26633,33.84,101676.99,1.2080909
112301018,-29.430155,33.84,101679.0,1.2081147
112322018,-29.678534,33.84,101682.0,1.2081504
112333400,-29.51471,33.84,101680.0,1.2081265
112344028,-29.3456,33.84,101678.0,1.2081028
112367018,-29.430155,33.84,101679.0,1.2081147
112378340,-29.51471,33.84,101680.0,1.2081265
112389018,-29.92691,33.84,101685.0,1.208186
112411375,-29.847641,33.85,101684.0,1.2081741
112422341,-29.763088,33.85,101682.99,1.2081622
112433046,-30.17529,33.85,101688.0,1.2082217
112455388,-29.51471,33.84,101680.0,1.2081265
112466343,-29.678534,33.84,101682.0,1.2081504
112477437,-29.599264,33.84,101681.0,1.2081385
112498023,-29.599264,33.84,101681.0,1.2081385
112509407,-29.847641,33.84,101684.0,1.2081741
112520021,-29.599264,33.84,101681.0,1.2081385
112543018,-29.3456,33.84,101678.0,1.2081028
112554469,-29.430155,33.84,101679.0,1.2081147
112565018,-29.097223,33.84,101675.0,1.2080672
112587018,-29.678534,33.84,101682.0,1.2081504
112598399,-29.430155,33.84,101679.0,1.2081147
112609018,-29.430155,33.84,101679.0,1.2081147
112631018,-30.011465,33.84,101686.0,1.208198
112642330,-29.847641,33.84,101684.0,1.2081741
112653020,-29.678534,33.84,101682.0,1.2081504
112675304,-29.92691,33.84,101685.0,1.208186
112686380,-30.259844,33.84,101688.99,1.2082335
112697024,-29.599264,33.84,101681.0,1.2081385
112719969,-29.678534,33.85,101682.0,1.2081504
112730324,-29.678534,33.85,101682.0,1.2081504
112741018,-30.09602,33.85,101687.0,1.2082098
112763018,-29.51471,33.85,101680.0,1.2081265
112774329,-29.847641,33.85,101684.0,1.2081741
112785024,-30.011465,33.85,101686.0,1.208198
112805018,-29.678534,33.85,101682.0,1.2081504
112816457,-30.17529,33.85,101688.0,1.2082217
112828164,-30.17529,33.85,101688.0,1.2082217
112849059,-30.09602,33.85,101687.0,1.2082098
112859018,-29.763088,33.85,101682.99,1.2081622
112870018,-29.763088,33.85,101682.99,1.2081622
112892241,-30.17529,33.85,101688.0,1.2082217
112903511,-30.011465,33.85,101686.0,1.208198
112915345,-29.763088,33.85,101682.99,1.2081622
112936018,-29.51471,33.85,101680.0,1.2081265
112946018,-29.847641,33.85,101684.0,1.2081741
112957018,-29.430155,33.85,101679.0,1.2081147
112979018,-29.763088,33.85,101682.99,1.2081622
112990019,-29.763088,33.85,101682.99,1.2081622
113001018,-30.011465,33.85,101686.0,1.208198
113023284,-30.09602,33.85,101687.0,1.2082098
113034029,-29.430155,33.85,101679.0,1.2081147
113045024,-29.3456,33.85,101678.0,1.2081028
113067376,-29.51471,33.85,101680.0,1.2081265
113078018,-29.678534,33.85,101682.0,1.2081504
113089018,-29.763088,33.85,101682.99,1.2081622
113111021,-29.92691,33.85,101685.0,1.208186
113122023,-29.51471,33.85,101680.0,1.2081265
113133401,-29.51471,33.85,101680.0,1.2081265
113155018,-29.51471,33.85,101680.0,1.2081265
113165239,-29.763088,33.85,101682.99,1.2081622
113176461,-29.26633,33.85,101676.99,1.2080909
113198024,-29.181776,33.85,101675.99,1.208079
113209421,-29.763088,33.85,101682.99,1.2081622
113221170,-30.17529,33.85,101688.0,1.2082217
113243023,-29.92691,33.86,101685.0,1.208186
113253427,-29.763088,33.86,101682.99,1.2081622
113264549,-29.678534,33.86,101682.0,1.2081504
113285599,-30.259844,33.86,101688.99,1.2082335
113296730,-29.181776,33.86,101675.99,1.208079
113307018,-29.430155,33.86,101679.0,1.2081147
113329018,-29.763088,33.86,101682.99,1.2081622
113339018,-29.3456,33.86,101678.0,1.2081028
113350018,-29.599264,33.86,101681.0,1.2081385
113371413,-29.763088,33.86,101682.99,1.2081622
113381773,-30.09602,33.86,101687.0,1.2082098
113392619,-29.3456,33.86,101678.0,1.2081028
113414050,-29.430155,33.86,101679.0,1.2081147
113425018,-30.011465,33.86,101686.0,1.208198
113435022,-29.26633,33.86,101676.99,1.2080909
113456697,-29.678534,33.86,101682.0,1.2081504
113467329,-29.92691,33.86,101685.0,1.208186
113477249,-29.847641,33.86,101684.0,1.2081741
113499040,-29.92691,33.86,101685.0,1.208186
113509600,-30.011465,33.86,101686.0,1.208198
113520604,-29.678534,33.86,101682.0,1.2081504
113542018,-29.847641,33.86,101684.0,1.2081741
113553018,-29.92691,33.86,101685.0,1.208186
113563461,-29.763088,33.86,101682.99,1.2081622
113584611,-29.92691,33.86,101685.0,1.208186
113594018,-30.17529,33.86,101688.0,1.2082217
113605196,-29.599264,33.86,101681.0,1.2081385
113627187,-29.678534,33.87,101682.0,1.2081504
113637171,-29.599264,33.87,101681.0,1.2081385
113648640,-29.847641,33.87,101684.0,1.2081741
113669663,-29.847641,33.87,101684.0,1.2081741
113680557,-29.847641,33.87,101684.0,1.2081741
113690066,-29.599264,33.87,101681.0,1.2081385
113711119,-30.17529,33.87,101688.0,1.2082217
113722018,-29.26633,33.87,101676.99,1.2080909
113733018,-29.678534,33.87,101682.0,1.2081504
113755018,-29.847641,33.87,101684.0,1.2081741
113765561,-29.678534,33.87,101682.0,1.2081504
113776612,-29.51471,33.87,101680.0,1.2081265
113798150,-29.678534,33.87,101682.0,1.2081504
113808545,-29.763088,33.87,101682.99,1.2081622
113819074,-29.763088,33.87,101682.99,1.2081622
113841022,-30.259844,33.87,101688.99,1.2082335
113851018,-29.92691,33.87,101685.0,1.208186
113862018,-30.09602,33.87,101687.0,1.2082098
113883100,-29.847641,33.87,101684.0,1.2081741
113893019,-29.763088,33.87,101682.99,1.2081622
113904887,-29.847641,33.87,101684.0,1.2081741
113926018,-30.344398,33.87,101690.0,1.2082454
113937068,-29.51471,33.87,101680.0,1.2081265
113949912,-29.678534,33.87,101682.0,1.2081504
113971099,-29.430155,33.87,101679.0,1.2081147
113982029,-29.678534,33.87,101682.0,1.2081504
113993018,-29.3456,33.87,101678.0,1.2081028
114016569,-29.847641,33.87,101684.0,1.2081741
114026018,-29.763088,33.87,101682.99,1.2081622
114037238,-30.259844,33.87,101688.99,1.2082335
114059120,-30.344398,33.87,101690.0,1.2082454
114069015,-29.847641,33.87,101684.0,1.2081741
114079429,-29.3456,33.87,101678.0,1.2081028
114099145,-29.763088,33.87,101682.99,1.2081622
114109882,-29.847641,33.87,101684.0,1.2081741
114120583,-29.678534,33.87,101682.0,1.2081504
114141223,-30.09602,33.88,101687.0,1.2082098
114152751,-29.678534,33.88,101682.0,1.2081504
114162063,-29.763088,33.88,101682.99,1.2081622
114183116,-30.17529,33.88,101688.0,1.2082217
114194398,-29.678534,33.88,101682.0,1.2081504
114205136,-30.09602,33.88,101687.0,1.2082098
114227018,-29.51471,33.88,101680.0,1.2081265
114237539,-29.763088,33.88,101682.99,1.2081622
114247092,-29.763088,33.88,101682.99,1.2081622
114269527,-30.67733,33.88,101694.0,1.208293
114280599,-29.92691,33.88,101685.0,1.208186
114291074,-30.344398,33.88,101690.0,1.2082454
114312463,-29.92691,33.88,101685.0,1.208186
114323018,-29.430155,33.88,101679.0,1.2081147
114334018,-29.678534,33.88,101682.0,1.2081504
114355390,-29.847641,33.88,101684.0,1.2081741
114366014,-29.847641,33.88,101684.0,1.2081741
114377020,-29.847641,33.88,101684.0,1.2081741
114398018,-30.011465,33.88,101686.0,1.208198
114408607,-29.678534,33.88,101682.0,1.2081504
114419018,-30.09602,33.88,101687.0,1.2082098
114440554,-29.678534,33.88,101682.0,1.2081504
114451484,-30.09602,33.88,101687.0,1.2082098
114461199,-30.09602,33.88,101687.0,1.2082098
114483021,-29.92691,33.88,101685.0,1.208186
114493685,-29.763088,33.88,101682.99,1.2081622
114504828,-29.763088,33.88,101682.99,1.2081622
114525208,-30.17529,33.89,101688.0,1.2082217
114536608,-30.17529,33.89,101688.0,1.2082217
114547018,-29.3456,33.89,101678.0,1.2081028
114569023,-29.678534,33.88,101682.0,1.2081504
114579078,-29.92691,33.88,101685.0,1.208186
114590024,-28.18298,33.88,101663.99,1.2079364
114611330,-29.678534,33.89,101682.0,1.2081504
114622314,-28.68502,33.89,101669.99,1.2080077
114632324,-29.763088,33.89,101682.99,1.2081622
114654358,-29.678534,33.89,101682.0,1.2081504
114665020,-29.017954,33.89,101674.0,1.2080553
114675088,-29.763088,33.89,101682.99,1.2081622
114697074,-29.763088,33.89,101682.99,1.2081622
114707018,-29.430155,33.89,101679.0,1.2081147
114717791,-29.51471,33.89,101680.0,1.2081265
114737387,-29.3456,33.89,101678.0,1.2081028
114748324,-29.097223,33.89,101675.0,1.2080672
114758326,-29.599264,33.89,101681.0,1.2081385
114779018,-29.92691,33.89,101685.0,1.208186
114790708,-29.26633,33.89,101676.99,1.2080909
114801389,-29.017954,33.89,101674.0,1.2080553
114822051,-29.678534,33.89,101682.0,1.2081504
114832024,-29.26633,33.89,101676.99,1.2080909
114843372,-29.678534,33.89,101682.0,1.2081504
114865979,-29.763088,33.89,101682.99,1.2081622
114876031,-30.259844,33.89,101688.99,1.2082335
114886425,-29.678534,33.89,101682.0,1.2081504
114907169,-29.92691,33.89,101685.0,1.208186
114918018,-29.599264,33.89,101681.0,1.2081385
114929425,-29.847641,33.89,101684.0,1.2081741
114951021,-30.17529,33.899998,101688.0,1.2082217
114961369,-30.50822,33.899998,101692.0,1.2082692
114972023,-29.599264,33.899998,101681.0,1.2081385
114993538,-30.259844,33.899998,101688.99,1.2082335
115004018,-30.011465,33.899998,101686.0,1.208198
115014024,-29.763088,33.899998,101682.99,1.2081622
115035018,-30.011465,33.899998,101686.0,1.208198
115046539,-29.847641,33.899998,101684.0,1.2081741
115057414,-29.3456,33.899998,101678.0,1.2081028
115078045,-29.92691,33.899998,101685.0,1.208186
115089548,-29.3456,33.899998,101678.0,1.2081028
115099099,-29.097223,33.899998,101675.0,1.2080672
115121394,-29.92691,33.899998,101685.0,1.208186
115132023,-29.763088,33.899998,101682.99,1.2081622
115142381,-29.599264,33.899998,101681.0,1.2081385
115164018,-30.17529,33.91,101688.0,1.2082217
115174640,-30.259844,33.91,101688.99,1.2082335
115185609,-29.599264,33.91,101681.0,1.2081385
115207018,-29.430155,33.899998,101679.0,1.2081147
115218065,-30.011465,33.899998,101686.0,1.208198
115230607,-29.599264,33.899998,101681.0,1.2081385
115252023,-29.26633,33.899998,101676.99,1.2080909
115263269,-29.847641,33.899998,101684.0,1.2081741
115273367,-29.678534,33.899998,101682.0,1.2081504
115294210,-30.17529,33.91,101688.0,1.2082217
115304113,-29.599264,33.91,101681.0,1.2081385
115315100,-29.678534,33.91,101682.0,1.2081504
115337346,-30.259844,33.899998,101688.99,1.2082335
115348018,-29.599264,33.899998,101681.0,1.2081385
115359018,-29.599264,33.899998,101681.0,1.2081385
115380018,-29.430155,33.899998,101679.0,1.2081147
115391154,-29.92691,33.899998,101685.0,1.208186
115402063,-29.51471,33.899998,101680.0,1.2081265
115425407,-29.678534,33.899998,101682.0,1.2081504
115436046,-29.763088,33.899998,101682.99,1.2081622
115447018,-29.92691,33.899998,101685.0,1.208186
115469919,-30.344398,33.91,101690.0,1.2082454
115480018,-30.09602,33.91,101687.0,1.2082098
115490018,-29.763088,33.91,101682.99,1.2081622
115513552,-30.09602,33.91,101687.0,1.2082098
115524376,-29.847641,33.91,101684.0,1.2081741
115534419,-30.259844,33.91,101688.99,1.2082335
115556023,-29.847641,33.899998,101684.0,1.2081741
115566017,-29.678534,33.899998,101682.0,1.2081504
115577411,-29.678534,33.899998,101682.0,1.2081504
115598729,-29.599264,33.91,101681.0,1.2081385
115609408,-29.678534,33.91,101682.0,1.2081504
115620347,-30.09602,33.91,101687.0,1.2082098
115641528,-29.3456,33.91,101678.0,1.2081028
115652018,-29.430155,33.91,101679.0,1.2081147
115663018,-29.599264,33.91,101681.0,1.2081385
115684018,-29.92691,33.91,101685.0,1.208186
115695018,-30.09602,33.91,101687.0,1.2082098
115706018,-29.3456,33.91,101678.0,1.2081028
115729648,-30.17529,33.91,101688.0,1.2082217
115740018,-29.599264,33.91,101681.0,1.2081385
115750329,-29.847641,33.91,101684.0,1.2081741
115771140,-29.51471,33.91,101680.0,1.2081265
115782359,-29.763088,33.91,101682.99,1.2081622
115793545,-29.51471,33.91,101680.0,1.2081265
115815029,-29.678534,33.91,101682.0,1.2081504
115825731,-29.3456,33.91,101678.0,1.2081028
115836018,-29.847641,33.91,101684.0,1.2081741
115856018,-29.763088,33.92,101682.99,1.2081622
115867018,-29.847641,33.92,101684.0,1.2081741
115878023,-29.92691,33.92,101685.0,1.208186
115900018,-30.09602,33.92,101687.0,1.2082098
115910500,-29.847641,33.92,101684.0,1.2081741
115921395,-29.51471,33.92,101680.0,1.2081265
115943019,-30.09602,33.92,101687.0,1.2082098
115954068,-29.599264,33.92,101681.0,1.2081385
115966532,-29.3456,33.92,101678.0,1.2081028
115988026,-29.430155,33.92,101679.0,1.2081147
115998322,-29.763088,33.92,101682.99,1.2081622
116009424,-29.26633,33.92,101676.99,1.2080909
116031018,-29.51471,33.92,101680.0,1.2081265
116042021,-29.51471,33.92,101680.0,1.2081265
116053835,-29.678534,33.92,101682.0,1.2081504
116075018,-29.51471,33.92,101680.0,1.2081265
116086412,-29.678534,33.92,101682.0,1.2081504
116097443,-29.3456,33.92,101678.0,1.2081028
116118386,-29.51471,33.92,101680.0,1.2081265
116129649,-29.763088,33.92,101682.99,1.2081622
116140377,-29.92691,33.92,101685.0,1.208186
116161546,-29.599264,33.92,101681.0,1.2081385
116172023,-29.678534,33.92,101682.0,1.2081504
116183018,-29.92691,33.92,101685.0,1.208186
116204018,-30.011465,33.92,101686.0,1.208198
116215018,-30.011465,33.92,101686.0,1.208198
116226018,-29.678534,33.92,101682.0,1.2081504
116378030,-29.599264,33.93,101681.0,1.2081385
116388019,-29.599264,33.93,101681.0,1.2081385
116398023,-29.599264,33.93,101681.0,1.2081385
116419179,-29.599264,33.93,101681.0,1.2081385
116431198,-29.3456,33.93,101678.0,1.2081028
116442216,-29.51471,33.93,101680.0,1.2081265
116463018,-29.678534,33.93,101682.0,1.2081504
116473400,-29.847641,33.93,101684.0,1.2081741
116484018,-29.430155,33.93,101679.0,1.2081147
116681023,-29.51471,33.93,101680.0,1.2081265
116691146,-29.3456,33.93,101678.0,1.2081028
116702668,-29.51471,33.93,101680.0,1.2081265
116724021,-29.92691,33.94,101685.0,1.208186
116735018,-29.097223,33.94,101675.0,1.2080672
116746339,-29.181776,33.94,101675.99,1.208079
116768018,-29.51471,33.93,101680.0,1.2081265
116779018,-29.599264,33.93,101681.0,1.2081385
116790637,-29.017954,33.93,101674.0,1.2080553
116812037,-30.011465,33.94,101686.0,1.208198
116823126,-29.599264,33.94,101681.0,1.2081385
116834349,-29.3456,33.94,101678.0,1.2081028
116855106,-29.678534,33.94,101682.0,1.2081504
116866515,-30.011465,33.94,101686.0,1.208198
116877030,-29.51471,33.94,101680.0,1.2081265
116899178,-30.011465,33.94,101686.0,1.208198
116910766,-29.763088,33.94,101682.99,1.2081622
116921036,-29.92691,33.94,101685.0,1.208186
116943126,-29.763088,33.94,101682.99,1.2081622
116954642,-29.51471,33.94,101680.0,1.2081265
116965116,-29.599264,33.94,101681.0,1.2081385
116986337,-29.599264,33.94,101681.0,1.2081385
116997360,-29.599264,33.94,101681.0,1.2081385
117008021,-29.181776,33.94,101675.99,1.208079
117028184,-29.430155,33.95,101679.0,1.2081147
117039190,-29.430155,33.95,101679.0,1.2081147
117050193,-29.763088,33.95,101682.99,1.2081622
117072022,-29.92691,33.94,101685.0,1.208186
117082345,-29.430155,33.94,101679.0,1.2081147
117093022,-29.599264,33.94,101681.0,1.2081385
117114318,-29.678534,33.95,101682.0,1.2081504
117125023,-29.51471,33.95,101680.0,1.2081265
117135018,-29.678534,33.95,101682.0,1.2081504
117157044,-29.181776,33.95,101675.99,1.208079
117167587,-29.430155,33.95,101679.0,1.2081147
117178165,-29.181776,33.95,101675.99,1.208079
117199018,-29.763088,33.95,101682.99,1.2081622
117210342,-29.097223,33.95,101675.0,1.2080672
117221018,-29.763088,33.95,101682.99,1.2081622
117243018,-29.3456,33.95,101678.0,1.2081028
117255392,-29.3456,33.95,101678.0,1.2081028
117266059,-29.847641,33.95,101684.0,1.2081741
117288018,-29.763088,33.95,101682.99,1.2081622
117298319,-29.3456,33.95,101678.0,1.2081028
117310569,-29.3456,33.95,101678.0,1.2081028
117330150,-29.763088,33.95,101682.99,1.2081622
117341030,-29.181776,33.95,101675.99,1.208079
117352030,-29.599264,33.95,101681.0,1.2081385
117374850,-29.599264,33.95,101681.0,1.2081385
117385018,-29.599264,33.95,101681.0,1.2081385
117396018,-29.097223,33.95,101675.0,1.2080672
117418171,-29.599264,33.96,101681.0,1.2081385
117428035,-29.51471,33.96,101680.0,1.2081265
117439018,-29.3456,33.96,101678.0,1.2081028
117461068,-29.3456,33.96,101678.0,1.2081028
117471423,-29.51471,33.96,101680.0,1.2081265
117482189,-29.181776,33.96,101675.99,1.208079
117504018,-29.678534,33.95,101682.0,1.2081504
117514164,-29.430155,33.95,101679.0,1.2081147
117524018,-28.9334,33.95,101673.0,1.2080435
117546171,-29.678534,33.96,101682.0,1.2081504
117557018,-29.678534,33.96,101682.0,1.2081504
117568018,-29.3456,33.96,101678.0,1.2081028
117589018,-29.3456,33.96,101678.0,1.2081028
117599160,-29.678534,33.96,101682.0,1.2081504
117610192,-29.3456,33.96,101678.0,1.2081028
117632022,-29.3456,33.96,101678.0,1.2081028
117643099,-29.430155,33.96,101679.0,1.2081147
117654499,-29.097223,33.96,101675.0,1.2080672
117676023,-29.26633,33.96,101676.99,1.2080909
117688045,-30.09602,33.96,101687.0,1.2082098
117699173,-29.3456,33.96,101678.0,1.2081028
117719144,-29.51471,33.96,101680.0,1.2081265
117730206,-29.678534,33.96,101682.0,1.2081504
117741361,-29.430155,33.96,101679.0,1.2081147
117762188,-29.017954,33.96,101674.0,1.2080553
117773018,-28.68502,33.96,101669.99,1.2080077
117784018,-29.3456,33.96,101678.0,1.2081028
117806752,-29.678534,33.969997,101682.0,1.2081504
117817020,-29.678534,33.969997,101682.0,1.2081504
117828073,-29.51471,33.969997,101680.0,1.2081265
117849021,-29.51471,33.96,101680.0,1.2081265
117860018,-29.430155,33.96,101679.0,1.2081147
117871144,-29.430155,33.96,101679.0,1.2081147
117893018,-29.51471,33.969997,101680.0,1.2081265
117903376,-29.678534,33.969997,101682.0,1.2081504
117914018,-29.678534,33.969997,101682.0,1.2081504
117936018,-29.51471,33.969997,101680.0,1.2081265
117947018,-29.26633,33.969997,101676.99,1.2080909
117958779,-29.763088,33.969997,101682.99,1.2081622
117980018,-29.3456,33.969997,101678.0,1.2081028
117991018,-29.097223,33.969997,101675.0,1.2080672
118002192,-29.097223,33.969997,101675.0,1.2080672
118024018,-29.430155,33.969997,101679.0,1.2081147
118035249,-29.430155,33.969997,101679.0,1.2081147
118045024,-29.51471,33.969997,101680.0,1.2081265
118067172,-29.181776,33.969997,101675.99,1.208079
118077074,-29.181776,33.969997,101675.99,1.208079
118088018,-29.26633,33.969997,101676.99,1.2080909
118110018,-29.017954,33.969997,101674.0,1.2080553
118121018,-29.3456,33.969997,101678.0,1.2081028
118132018,-29.430155,33.969997,101679.0,1.2081147
118154021,-29.51471,33.98,101680.0,1.2081265
118165018,-29.3456,33.98,101678.0,1.2081028
118176022,-29.51471,33.98,101680.0,1.2081265
118197023,-29.097223,33.969997,101675.0,1.2080672
118208400,-28.9334,33.969997,101673.0,1.2080435
118219132,-29.181776,33.969997,101675.99,1.208079
118242063,-29.430155,33.98,101679.0,1.2081147
118253432,-29.51471,33.98,101680.0,1.2081265
118263511,-29.017954,33.98,101674.0,1.2080553
118284029,-30.011465,33.98,101686.0,1.208198
118295403,-29.51471,33.98,101680.0,1.2081265
118305029,-29.017954,33.98,101674.0,1.2080553
118327761,-29.430155,33.98,101679.0,1.2081147
118338018,-29.678534,33.98,101682.0,1.2081504
118349018,-29.017954,33.98,101674.0,1.2080553
118371189,-29.430155,33.98,101679.0,1.2081147
118382018,-29.017954,33.98,101674.0,1.2080553
118393021,-28.68502,33.98,101669.99,1.2080077
118414018,-29.181776,33.98,101675.99,1.208079
118425018,-29.181776,33.98,101675.99,1.208079
118436018,-29.763088,33.98,101682.99,1.2081622
118459131,-29.3456,33.98,101678.0,1.2081028
118469098,-29.599264,33.98,101681.0,1.2081385
118480018,-29.181776,33.98,101675.99,1.208079
118502022,-29.26633,33.98,101676.99,1.2080909
118513018,-29.017954,33.98,101674.0,1.2080553
118523018,-29.017954,33.98,101674.0,1.2080553
118545018,-29.181776,33.989998,101675.99,1.208079
118555018,-29.181776,33.989998,101675.99,1.208079
118567370,-29.678534,33.989998,101682.0,1.2081504
118588019,-29.430155,33.989998,101679.0,1.2081147
118599635,-29.26633,33.989998,101676.99,1.2080909
118610032,-29.599264,33.989998,101681.0,1.2081385
118632024,-29.430155,33.989998,101679.0,1.2081147
118643123,-29.3456,33.989998,101678.0,1.2081028
118654063,-29.26633,33.989998,101676.99,1.2080909
118675230,-29.599264,33.989998,101681.0,1.2081385
118686030,-29.181776,33.989998,101675.99,1.208079
118696110,-28.9334,33.989998,101673.0,1.2080435
118717063,-29.847641,33.989998,101684.0,1.2081741
118728202,-29.097223,33.989998,101675.0,1.2080672
118738063,-29.097223,33.989998,101675.0,1.2080672
118760083,-29.430155,33.989998,101679.0,1.2081147
118771451,-29.847641,33.989998,101684.0,1.2081741
118782022,-29.51471,33.989998,101680.0,1.2081265
118804018,-29.430155,33.989998,101679.0,1.2081147
118816247,-29.181776,33.989998,101675.99,1.208079
118827105,-28.9334,33.989998,101673.0,1.2080435
118850018,-29.26633,33.989998,101676.99,1.2080909
118861413,-29.181776,33.989998,101675.99,1.208079
118872021,-29.678534,33.989998,101682.0,1.2081504
118894027,-29.430155,33.989998,101679.0,1.2081147
118905337,-29.430155,33.989998,101679.0,1.2081147
118916027,-29.678534,33.989998,101682.0,1.2081504
118939133,-29.847641,33.989998,101684.0,1.2081741
118952163,-29.26633,33.989998,101676.99,1.2080909
118963182,-29.3456,33.989998,101678.0,1.2081028
118986045,-29.181776,33.989998,101675.99,1.208079
118997337,-29.430155,33.989998,101679.0,1.2081147
119008024,-29.26633,33.989998,101676.99,1.2080909
119030030,-29.181776,34.0,101675.99,1.208079
119041337,-28.68502,34.0,101669.99,1.2080077
119052023,-28.848845,34.0,101672.0,1.2080315
119072021,-29.3456,33.989998,101678.0,1.2081028
119083124,-29.26633,33.989998,101676.99,1.2080909
119094018,-29.26633,33.989998,101676.99,1.2080909
119116018,-29.430155,34.0,101679.0,1.2081147
119126018,-28.9334,34.0,101673.0,1.2080435
119137018,-29.26633,34.0,101676.99,1.2080909
119159430,-29.3456,34.0,101678.0,1.2081028
119169094,-29.51471,34.0,101680.0,1.2081265
119180018,-29.599264,34.0,101681.0,1.2081385
119203018,-28.9334,34.01,101673.0,1.2080435
119214018,-28.848845,34.01,101672.0,1.2080315
119225018,-29.51471,34.01,101680.0,1.2081265
119246018,-29.181776,34.0,101675.99,1.208079
119256111,-29.097223,34.0,101675.0,1.2080672
119267046,-28.515913,34.0,101668.0,1.207984
119290022,-29.097223,34.01,101675.0,1.2080672
119301436,-29.097223,34.01,101675.0,1.2080672
119312060,-29.181776,34.01,101675.99,1.208079
119334063,-29.017954,34.01,101674.0,1.2080553
119345359,-29.3456,34.01,101678.0,1.2081028
119355156,-29.51471,34.01,101680.0,1.2081265
119378018,-29.51471,34.01,101680.0,1.2081265
119389403,-29.26633,34.01,101676.99,1.2080909
119400042,-28.68502,34.01,101669.99,1.2080077
119422018,-29.017954,34.01,101674.0,1.2080553
119433396,-29.26633,34.01,101676.99,1.2080909
119444018,-29.181776,34.01,101675.99,1.208079
119466018,-29.847641,34.01,101684.0,1.2081741
119477394,-29.3456,34.01,101678.0,1.2081028
119488018,-29.3456,34.01,101678.0,1.2081028
119510018,-29.181776,34.01,101675.99,1.208079
119521359,-29.181776,34.01,101675.99,1.208079
119531015,-28.9334,34.01,101673.0,1.2080435
119553018,-28.76429,34.02,101671.0,1.2080196
119563018,-29.51471,34.02,101680.0,1.2081265
119574018,-28.600466,34.02,101669.0,1.2079959
119595018,-29.430155,34.01,101679.0,1.2081147
119605018,-28.848845,34.01,101672.0,1.2080315
119615463,-28.600466,34.01,101669.0,1.2079959
119636019,-29.097223,34.02,101675.0,1.2080672
119648174,-29.181776,34.02,101675.99,1.208079
119659113,-28.9334,34.02,101673.0,1.2080435
119681030,-29.26633,34.02,101676.99,1.2080909
119691125,-29.26633,34.02,101676.99,1.2080909
119702023,-29.181776,34.02,101675.99,1.208079
119724018,-29.017954,34.02,101674.0,1.2080553
119735816,-28.68502,34.02,101669.99,1.2080077
119746048,-29.181776,34.02,101675.99,1.208079
119768063,-29.430155,34.02,101679.0,1.2081147
119779021,-29.097223,34.02,101675.0,1.2080672
119790022,-29.51471,34.02,101680.0,1.2081265
119811018,-29.430155,34.02,101679.0,1.2081147
119822359,-28.9334,34.02,101673.0,1.2080435
