timestamp,vel_pos_innov[0],vel_pos_innov[1],vel_pos_innov[2],vel_pos_innov[3],vel_pos_innov[4],vel_pos_innov[5],mag_innov[0],mag_innov[1],mag_innov[2],heading_innov,airspeed_innov,beta_innov,flow_innov[0],flow_innov[1],hagl_innov,vel_pos_innov_var[0],vel_pos_innov_var[1],vel_pos_innov_var[2],vel_pos_innov_var[3],vel_pos_innov_var[4],vel_pos_innov_var[5],mag_innov_var[0],mag_innov_var[1],mag_innov_var[2],heading_innov_var,airspeed_innov_var,beta_innov_var,flow_innov_var[0],flow_innov_var[1],hagl_innov_var,output_tracking_error[0],output_tracking_error[1],output_tracking_error[2],drag_innov[0],drag_innov[1],drag_innov_var[0],drag_innov_var[1],aux_vel_innov[0],aux_vel_innov[1]
100765471,0.0,0.0,0.0,-0.0194217,0.015220754,0.021276474,0.0,0.0,0.0,0.04168439,0.0,0.0,0.0,0.0,0.0,0.0,0.0,0.0,0.25735602,0.25735593,4.062666,0.0,0.0,0.0,0.09015359,0.0,0.0,0.0,0.0,0.0,0.00052916916,0.0033226172,0.012137062,0.0,0.0,0.0,0.0,0.0,0.0
100965471,0.0,0.0,0.0,-0.019135697,0.015281054,-0.36063194,0.0,0.0,0.0,-0.0056010485,0.0,0.0,0.0,0.0,0.0,0.0,0.0,0.0,0.25730175,0.2573016,4.062329,0.0,0.0,0.0,0.09015349,0.0,0.0,0.0,0.0,0.0,0.00019534754,0.0014016436,0.0050064297,0.0,0.0,0.0,0.0,0.0,0.0
101173471,0.0,0.0,0.0,-0.018908234,0.015434898,-0.12263107,0.0,0.0,0.0,0.026892781,0.0,0.0,0.0,0.0,0.0,0.0,0.0,0.0,0.25728038,0.25728023,4.0621166,0.0,0.0,0.0,0.09015347,0.0,0.0,0.0,0.0,0.0,0.00020302656,0.0017399624,0.004721999,0.0,0.0,0.0,0.0,0.0,0.0
101373515,0.0,0.0,0.0,-0.019267239,0.016176043,-0.0034217834,0.0,0.0,0.0,-0.039331675,0.0,0.0,0.0,0.0,0.0,0.0,0.0,0.0,0.25751308,0.25751284,4.063111,0.0,0.0,0.0,0.090153456,0.0,0.0,0.0,0.0,0.0,0.00020440298,0.0018082565,0.0054162033,0.0,0.0,0.0,0.0,0.0,0.0
101581471,0.0,0.0,0.0,-0.018924598,0.016634775,0.16501999,0.0,0.0,0.0,-0.0298208,0.0,0.0,0.0,0.0,0.0,0.0,0.0,0.0,0.25755703,0.25755677,4.0633645,0.0,0.0,0.0,0.090153426,0.0,0.0,0.0,0.0,0.0,0.00041736182,0.0007942173,0.0010408198,0.0,0.0,0.0,0.0,0.0,0.0
101781477,0.0,0.0,0.0,-0.018166615,0.016976176,-0.0046653748,0.0,0.0,0.0,0.064703465,0.0,0.0,0.0,0.0,0.0,0.0,0.0,0.0,0.25745714,0.25745684,4.0629416,0.0,0.0,0.0,0.0901535,0.0,0.0,0.0,0.0,0.0,0.00019190731,0.0008321441,0.002081975,0.0,0.0,0.0,0.0,0.0,0.0
101980706,0.0,0.0,0.0,-0.017455542,0.017503211,-0.015522003,0.0,0.0,0.0,0.023121715,0.0,0.0,0.0,0.0,0.0,0.0,0.0,0.0,0.25737995,0.25737962,4.0625753,0.0,0.0,0.0,0.09015339,0.0,0.0,0.0,0.0,0.0,0.00025169036,0.0016123409,0.0047584106,0.0,0.0,0.0,0.0,0.0,0.0
102190271,0.0,0.0,0.0,-0.016792707,0.01836302,-0.26234245,0.0,0.0,0.0,-0.020620823,0.0,0.0,0.0,0.0,0.0,0.0,0.0,0.0,0.25732896,0.2573286,4.0622954,0.0,0.0,0.0,0.090153456,0.0,0.0,0.0,0.0,0.0,0.00023437558,0.0022519731,0.005595907,0.0,0.0,0.0,0.0,0.0,0.0
102390296,0.0,0.0,0.0,-0.016360192,0.019377325,0.11001396,0.0,0.0,0.0,-0.020110607,0.0,0.0,0.0,0.0,0.0,0.0,0.0,0.0,0.25736713,0.25736675,4.0624137,0.0,0.0,0.0,0.09015335,0.0,0.0,0.0,0.0,0.0,0.00018766239,0.0011701835,0.0018325173,0.0,0.0,0.0,0.0,0.0,0.0
102590271,0.0,0.0,0.0,-0.016207285,0.020561166,0.38460732,0.0,0.0,0.0,0.040269494,0.0,0.0,0.0,0.0,0.0,0.0,0.0,0.0,0.25746316,0.25746274,4.062807,0.0,0.0,0.0,0.09015334,0.0,0.0,0.0,0.0,0.0,0.00034706158,0.004645171,0.013097374,0.0,0.0,0.0,0.0,0.0,0.0
102798318,0.0,0.0,0.0,-0.015949102,0.021322576,0.1206646,0.0,0.0,0.0,0.03429699,0.0,0.0,0.0,0.0,0.0,0.0,0.0,0.0,0.25744593,0.25744548,4.062771,0.0,0.0,0.0,0.09015332,0.0,0.0,0.0,0.0,0.0,0.0004176358,0.004256941,0.012389486,0.0,0.0,0.0,0.0,0.0,0.0
102998277,0.0,0.0,0.0,-0.015720373,0.022055827,-0.21898842,0.0,0.0,0.0,-0.018266559,0.0,0.0,0.0,0.0,0.0,0.0,0.0,0.0,0.25743517,0.2574347,4.062748,0.0,0.0,0.0,0.09015321,0.0,0.0,0.0,0.0,0.0,0.00062720187,0.0020203516,0.005575338,0.0,0.0,0.0,0.0,0.0,0.0
103198281,0.0,0.0,0.0,-0.015454177,0.022792043,0.028051376,0.0,0.0,0.0,-0.0027393103,0.0,0.0,0.0,0.0,0.0,0.0,0.0,0.0,0.25743118,0.25743073,4.0627413,0.0,0.0,0.0,0.090153195,0.0,0.0,0.0,0.0,0.0,0.00025730065,0.0017059521,0.0041219094,0.0,0.0,0.0,0.0,0.0,0.0
103398271,0.0,0.0,0.0,-0.0152359875,0.023469323,0.00023460388,0.0,0.0,0.0,0.01139915,0.0,0.0,0.0,0.0,0.0,0.0,0.0,0.0,0.25742897,0.25742853,4.0627375,0.0,0.0,0.0,0.09015318,0.0,0.0,0.0,0.0,0.0,0.0002095902,0.004866835,0.013482491,0.0,0.0,0.0,0.0,0.0,0.0
103599077,0.0,0.0,0.0,-0.014943931,0.023856035,-0.120054245,0.0,0.0,0.0,0.020374179,0.0,0.0,0.0,0.0,0.0,0.0,0.0,0.0,0.25736392,0.25736344,4.062437,0.0,0.0,0.0,0.09015309,0.0,0.0,0.0,0.0,0.0,0.00029752738,0.0052453303,0.015022831,0.0,0.0,0.0,0.0,0.0,0.0
103807096,0.0,0.0,0.0,-0.014562211,0.024194254,-0.034715652,0.0,0.0,0.0,-0.018091917,0.0,0.0,0.0,0.0,0.0,0.0,0.0,0.0,0.25732157,0.25732115,4.062214,0.0,0.0,0.0,0.09015316,0.0,0.0,0.0,0.0,0.0,0.0002852086,0.0032534164,0.009504886,0.0,0.0,0.0,0.0,0.0,0.0
104007114,0.0,0.0,0.0,-0.014322214,0.02454078,-0.15397835,0.0,0.0,0.0,-0.061739683,0.0,0.0,0.0,0.0,0.0,0.0,0.0,0.0,0.25734696,0.25734654,4.0622845,0.0,0.0,0.0,0.09015306,0.0,0.0,0.0,0.0,0.0,0.00039737415,0.003485836,0.010465349,0.0,0.0,0.0,0.0,0.0,0.0
104207083,0.0,0.0,0.0,-0.013898216,0.024560131,-0.113767624,0.0,0.0,0.0,-0.021162271,0.0,0.0,0.0,0.0,0.0,0.0,0.0,0.0,0.25729418,0.2572938,4.06201,0.0,0.0,0.0,0.09015296,0.0,0.0,0.0,0.0,0.0,0.00042501715,0.0024488796,0.007108128,0.0,0.0,0.0,0.0,0.0,0.0
104415081,0.0,0.0,0.0,-0.013644423,0.024529006,-0.29390526,0.0,0.0,0.0,0.011996865,0.0,0.0,0.0,0.0,0.0,0.0,0.0,0.0,0.25727317,0.25727284,4.061857,0.0,0.0,0.0,0.09015286,0.0,0.0,0.0,0.0,0.0,0.0002973868,0.0026368757,0.0062698466,0.0,0.0,0.0,0.0,0.0,0.0
104615077,0.0,0.0,0.0,-0.013447005,0.024414325,-0.1631012,0.0,0.0,0.0,-0.010267973,0.0,0.0,0.0,0.0,0.0,0.0,0.0,0.0,0.25730658,0.25730628,4.061967,0.0,0.0,0.0,0.090152755,0.0,0.0,0.0,0.0,0.0,0.00031313006,0.0017367367,0.003789682,0.0,0.0,0.0,0.0,0.0,0.0
104815077,0.0,0.0,0.0,-0.013619542,0.024795389,0.04972267,0.0,0.0,0.0,-0.0100752115,0.0,0.0,0.0,0.0,0.0,0.0,0.0,0.0,0.2575404,0.25754014,4.0630097,0.0,0.0,0.0,0.090152666,0.0,0.0,0.0,0.0,0.0,0.00023980619,0.0013377474,0.0025363541,0.0,0.0,0.0,0.0,0.0,0.0
105014319,0.0,0.0,0.0,-0.013237831,0.024025597,0.12363434,0.0,0.0,0.0,-0.03499198,0.0,0.0,0.0,0.0,0.0,0.0,0.0,0.0,0.2574413,0.25744107,4.0626435,0.0,0.0,0.0,0.09015266,0.0,0.0,0.0,0.0,0.0,0.00043907878,0.001999225,0.0049840594,0.0,0.0,0.0,0.0,0.0,0.0
105223871,0.0,0.0,0.0,-0.013163803,0.023596399,0.19535446,0.0,0.0,0.0,0.010804892,0.0,0.0,0.0,0.0,0.0,0.0,0.0,0.0,0.25751117,0.257511,4.063003,0.0,0.0,0.0,0.090152554,0.0,0.0,0.0,0.0,0.0,0.00036270512,0.00415957,0.011839556,0.0,0.0,0.0,0.0,0.0,0.0
105423871,0.0,0.0,0.0,-0.013111319,0.022992885,-0.05657959,0.0,0.0,0.0,-0.021139503,0.0,0.0,0.0,0.0,0.0,0.0,0.0,0.0,0.25756103,0.25756088,4.063325,0.0,0.0,0.0,0.09015256,0.0,0.0,0.0,0.0,0.0,0.00023943491,0.0011993772,0.0035715417,0.0,0.0,0.0,0.0,0.0,0.0
105623871,0.0,0.0,0.0,-0.012971197,0.021975752,-0.1917324,0.0,0.0,0.0,-0.025280237,0.0,0.0,0.0,0.0,0.0,0.0,0.0,0.0,0.25745967,0.25745955,4.062928,0.0,0.0,0.0,0.090152465,0.0,0.0,0.0,0.0,0.0,0.00023162428,0.0018083358,0.005528856,0.0,0.0,0.0,0.0,0.0,0.0
105831877,0.0,0.0,0.0,-0.013312537,0.021379048,0.051366806,0.0,0.0,0.0,0.050833583,0.0,0.0,0.0,0.0,0.0,0.0,0.0,0.0,0.25752646,0.25752637,4.063257,0.0,0.0,0.0,0.090152465,0.0,0.0,0.0,0.0,0.0,0.00027418573,0.0010522911,0.002001364,0.0,0.0,0.0,0.0,0.0,0.0
106031871,0.0,0.0,0.0,-0.013394329,0.020660782,0.09613037,0.0,0.0,0.0,-0.010137558,0.0,0.0,0.0,0.0,0.0,0.0,0.0,0.0,0.25749648,0.2574964,4.0631824,0.0,0.0,0.0,0.09015237,0.0,0.0,0.0,0.0,0.0,0.0004933237,0.0011653049,0.0029937276,0.0,0.0,0.0,0.0,0.0,0.0
106239878,0.0,0.0,0.0,-0.013478766,0.019985847,0.020177841,0.0,0.0,0.0,-0.018420935,0.0,0.0,0.0,0.0,0.0,0.0,0.0,0.0,0.25753367,0.2575336,4.0634246,0.0,0.0,0.0,0.090152286,0.0,0.0,0.0,0.0,0.0,0.00022193759,0.00096831727,0.002320638,0.0,0.0,0.0,0.0,0.0,0.0
106439909,0.0,0.0,0.0,-0.013226748,0.01890582,-0.47875023,0.0,0.0,0.0,-0.035087585,0.0,0.0,0.0,0.0,0.0,0.0,0.0,0.0,0.25743762,0.25743753,4.0630393,0.0,0.0,0.0,0.09015237,0.0,0.0,0.0,0.0,0.0,0.0005674658,0.005170893,0.014994808,0.0,0.0,0.0,0.0,0.0,0.0
106644679,0.0,0.0,0.0,-0.013110036,0.018153774,0.11207771,0.0,0.0,0.0,-0.0042949915,0.0,0.0,0.0,0.0,0.0,0.0,0.0,0.0,0.25742215,0.25742206,4.0629716,0.0,0.0,0.0,0.090152286,0.0,0.0,0.0,0.0,0.0,0.00035565626,0.0019213322,0.005848306,0.0,0.0,0.0,0.0,0.0,0.0
106844717,0.0,0.0,0.0,-0.012823583,0.017335169,0.5310192,0.0,0.0,0.0,0.006857395,0.0,0.0,0.0,0.0,0.0,0.0,0.0,0.0,0.25739086,0.25739077,4.062799,0.0,0.0,0.0,0.09015227,0.0,0.0,0.0,0.0,0.0,0.00017356488,0.0020523826,0.0028833721,0.0,0.0,0.0,0.0,0.0,0.0
107044671,0.0,0.0,0.0,-0.012440799,0.01650433,0.15338707,0.0,0.0,0.0,0.001473546,0.0,0.0,0.0,0.0,0.0,0.0,0.0,0.0,0.25731903,0.25731897,4.0624194,0.0,0.0,0.0,0.090152435,0.0,0.0,0.0,0.0,0.0,0.00016678608,0.0015605743,0.0028383497,0.0,0.0,0.0,0.0,0.0,0.0
107252685,0.0,0.0,0.0,-0.012283784,0.01586839,-0.13564873,0.0,0.0,0.0,0.012549639,0.0,0.0,0.0,0.0,0.0,0.0,0.0,0.0,0.25737232,0.25737223,4.062577,0.0,0.0,0.0,0.090152346,0.0,0.0,0.0,0.0,0.0,0.0002170062,0.0016649474,0.003985725,0.0,0.0,0.0,0.0,0.0,0.0
107452677,0.0,0.0,0.0,-0.012204479,0.01544096,0.18717003,0.0,0.0,0.0,0.04195857,0.0,0.0,0.0,0.0,0.0,0.0,0.0,0.0,0.25743544,0.25743535,4.062841,0.0,0.0,0.0,0.090152346,0.0,0.0,0.0,0.0,0.0,0.00035256936,0.002957852,0.008299033,0.0,0.0,0.0,0.0,0.0,0.0
107660677,0.0,0.0,0.0,-0.012121861,0.015098735,-0.2254467,0.0,0.0,0.0,0.017126441,0.0,0.0,0.0,0.0,0.0,0.0,0.0,0.0,0.2575678,0.25756767,4.0634713,0.0,0.0,0.0,0.09015234,0.0,0.0,0.0,0.0,0.0,0.00014305492,0.0015133048,0.0026958974,0.0,0.0,0.0,0.0,0.0,0.0
107860719,0.0,0.0,0.0,-0.011769555,0.014386635,0.27921677,0.0,0.0,0.0,-0.019681811,0.0,0.0,0.0,0.0,0.0,0.0,0.0,0.0,0.2574595,0.25745937,4.0630255,0.0,0.0,0.0,0.09015234,0.0,0.0,0.0,0.0,0.0,0.0003731416,0.0013626663,0.0027317046,0.0,0.0,0.0,0.0,0.0,0.0
108060671,0.0,0.0,0.0,-0.011564787,0.013706235,-0.17136955,0.0,0.0,0.0,-0.011774421,0.0,0.0,0.0,0.0,0.0,0.0,0.0,0.0,0.25739193,0.25739178,4.06271,0.0,0.0,0.0,0.090152346,0.0,0.0,0.0,0.0,0.0,0.0004595311,0.0035510291,0.0097889025,0.0,0.0,0.0,0.0,0.0,0.0
108269490,0.0,0.0,0.0,-0.011348162,0.013077518,0.20572662,0.0,0.0,0.0,-0.023753643,0.0,0.0,0.0,0.0,0.0,0.0,0.0,0.0,0.2573254,0.25732526,4.0623665,0.0,0.0,0.0,0.09015225,0.0,0.0,0.0,0.0,0.0,0.00014080298,0.0013554067,0.0025208804,0.0,0.0,0.0,0.0,0.0,0.0
108469482,0.0,0.0,0.0,-0.01125973,0.0125834895,0.031290054,0.0,0.0,0.0,0.024242401,0.0,0.0,0.0,0.0,0.0,0.0,0.0,0.0,0.25729808,0.2572979,4.062173,0.0,0.0,0.0,0.090152256,0.0,0.0,0.0,0.0,0.0,0.00022672067,0.0018083284,0.004935501,0.0,0.0,0.0,0.0,0.0,0.0
108669518,0.0,0.0,0.0,-0.0124623235,0.013615711,-0.053686142,0.0,0.0,0.0,0.0560112,0.0,0.0,0.0,0.0,0.0,0.0,0.0,0.0,100.00813,100.00813,4.062818,0.0,0.0,0.0,0.09015225,0.0,0.0,0.0,0.0,0.0,0.00056031824,0.0025234004,0.0042363405,0.0,0.0,0.0,0.0,0.0,0.0
108869483,0.0,0.0,0.0,-0.01574914,0.01681116,0.03472328,0.0,0.0,0.0,-0.08973849,0.0,0.0,0.0,0.0,0.0,0.0,0.0,0.0,100.01055,100.01055,4.0628014,0.0,0.0,0.0,0.09015217,0.0,0.0,0.0,0.0,0.0,0.00063956896,0.0038691824,0.0064523574,0.0,0.0,0.0,0.0,0.0,0.0
109077471,0.0,0.0,0.0,-0.020095257,0.02062887,-0.073316574,0.0,0.0,0.0,0.030472636,0.0,0.0,0.0,0.0,0.0,0.0,0.0,0.0,100.0139,100.01389,4.0625453,0.0,0.0,0.0,0.090152174,0.0,0.0,0.0,0.0,0.0,0.0007199651,0.006499553,0.016075715,0.0,0.0,0.0,0.0,0.0,0.0
109277470,0.0,0.0,0.0,-0.025380922,0.025073063,0.40834236,0.0,0.0,0.0,0.0664804,0.0,0.0,0.0,0.0,0.0,0.0,0.0,0.0,100.017784,100.017784,4.0625777,0.0,0.0,0.0,0.090152256,0.0,0.0,0.0,0.0,0.0,7.533029e-05,0.0077688065,0.02098528,0.0,0.0,0.0,0.0,0.0,0.0
109477497,0.0,0.0,0.0,-0.029671248,0.029372726,0.43810844,0.0,0.0,0.0,-0.042271495,0.0,0.0,0.0,0.0,0.0,0.0,0.0,0.0,100.02235,100.02235,4.0622835,0.0,0.0,0.0,0.09015235,0.0,0.0,0.0,0.0,0.0,0.0005574456,0.014883902,0.043385066,0.0,0.0,0.0,0.0,0.0,0.0
109685492,0.0,0.0,0.0,-0.034225915,0.03558099,-0.19261551,0.0,0.0,0.0,0.079149246,0.0,0.0,0.0,0.0,0.0,0.0,0.0,0.0,100.028595,100.02859,4.062106,0.0,0.0,0.0,0.09015237,0.0,0.0,0.0,0.0,0.0,0.00021387207,0.010402514,0.031994876,0.0,0.0,0.0,0.0,0.0,0.0
109883077,0.0,0.0,0.0,-0.037714913,0.041193303,-0.12582016,0.0,0.0,0.0,-0.07311809,0.0,0.0,0.0,0.0,0.0,0.0,0.0,0.0,100.03526,100.03526,4.061859,0.0,0.0,0.0,0.09015227,0.0,0.0,0.0,0.0,0.0,0.0004677059,0.006772004,0.014850217,0.0,0.0,0.0,0.0,0.0,0.0
110090277,0.0,0.0,0.0,-0.044426307,0.046874855,-0.75842476,0.0,0.0,0.0,-0.026438236,0.0,0.0,0.0,0.0,0.0,0.0,0.0,0.0,100.04338,100.04337,4.06187,0.0,0.0,0.0,0.09015224,0.0,0.0,0.0,0.0,0.0,0.00019121074,0.006111098,0.016772823,0.0,0.0,0.0,0.0,0.0,0.0
110290294,0.0,0.0,0.0,-0.048378646,0.054156587,0.04027176,0.0,0.0,0.0,0.0075170994,0.0,0.0,0.0,0.0,0.0,0.0,0.0,0.0,100.05385,100.05385,4.0626535,0.0,0.0,0.0,0.09015225,0.0,0.0,0.0,0.0,0.0,5.899491e-05,0.0044872444,0.009673155,0.0,0.0,0.0,0.0,0.0,0.0
110490271,0.0,0.0,0.0,-0.048944734,0.061448794,0.09287262,0.0,0.0,0.0,-0.039976954,0.0,0.0,0.0,0.0,0.0,0.0,0.0,0.0,100.06525,100.06524,4.0626845,0.0,0.0,0.0,0.09015224,0.0,0.0,0.0,0.0,0.0,0.00012618053,0.0104689365,0.02977516,0.0,0.0,0.0,0.0,0.0,0.0
110698271,0.0,0.0,0.0,-0.045408744,0.06830791,-0.046962738,0.0,0.0,0.0,-0.031338453,0.0,0.0,0.0,0.0,0.0,0.0,0.0,0.0,100.077805,100.0778,4.062386,0.0,0.0,0.0,0.09015225,0.0,0.0,0.0,0.0,0.0,2.0482215e-05,0.0023635626,0.0048716916,0.0,0.0,0.0,0.0,0.0,0.0
110898271,0.0,0.0,0.0,-0.03685986,0.07615165,-0.48728943,0.0,0.0,0.0,0.05723059,0.0,0.0,0.0,0.0,0.0,0.0,0.0,0.0,100.09399,100.09398,4.062202,0.0,0.0,0.0,0.09015218,0.0,0.0,0.0,0.0,0.0,4.689877e-05,0.0020396116,0.003027562,0.0,0.0,0.0,0.0,0.0,0.0
111098308,0.0,0.0,0.0,-0.023176117,0.0843981,-0.13951874,0.0,0.0,0.0,-0.032355547,0.0,0.0,0.0,0.0,0.0,0.0,0.0,0.0,100.111084,100.11107,4.062283,0.0,0.0,0.0,0.090152174,0.0,0.0,0.0,0.0,0.0,0.00027878414,0.006343617,0.017116172,0.0,0.0,0.0,0.0,0.0,0.0
111298282,0.0,0.0,0.0,-0.0048315437,0.092772745,-0.34422493,0.0,0.0,0.0,-0.012797594,0.0,0.0,0.0,0.0,0.0,0.0,0.0,0.0,100.12944,100.129425,4.0620446,0.0,0.0,0.0,0.09015218,0.0,0.0,0.0,0.0,0.0,0.00016569142,0.017507905,0.051124588,0.0,0.0,0.0,0.0,0.0,0.0
111507071,0.0,0.0,0.0,0.007945222,0.10017981,-0.65758324,0.0,0.0,0.0,-0.044873595,0.0,0.0,0.0,0.0,0.0,0.0,0.0,0.0,100.152565,100.15255,4.0619216,0.0,0.0,0.0,0.090152174,0.0,0.0,0.0,0.0,0.0,0.0005384926,0.020900637,0.06270181,0.0,0.0,0.0,0.0,0.0,0.0
111707071,0.0,0.0,0.0,0.011064944,0.10697013,-0.5325756,0.0,0.0,0.0,-0.023815036,0.0,0.0,0.0,0.0,0.0,0.0,0.0,0.0,100.17653,100.17651,4.0620914,0.0,0.0,0.0,0.09015211,0.0,0.0,0.0,0.0,0.0,4.006308e-05,0.0032013792,0.011859726,0.0,0.0,0.0,0.0,0.0,0.0
111907071,0.0,0.0,0.0,0.014944261,0.11322307,-0.20005226,0.0,0.0,0.0,0.059533358,0.0,0.0,0.0,0.0,0.0,0.0,0.0,0.0,100.20194,100.20192,4.062761,0.0,0.0,0.0,0.090151936,0.0,0.0,0.0,0.0,0.0,0.0005342914,0.006047517,0.015293929,0.0,0.0,0.0,0.0,0.0,0.0
112115072,0.0,0.0,0.0,0.025468744,0.12142306,0.14377594,0.0,0.0,0.0,0.03956127,0.0,0.0,0.0,0.0,0.0,0.0,0.0,0.0,100.23182,100.2318,4.0630817,0.0,0.0,0.0,0.09015186,0.0,0.0,0.0,0.0,0.0,0.0007477931,0.0047811437,0.013680927,0.0,0.0,0.0,0.0,0.0,0.0
112315112,0.0,0.0,0.0,0.042173594,0.13184536,-0.02725792,0.0,0.0,0.0,-0.0089885,0.0,0.0,0.0,0.0,0.0,0.0,0.0,0.0,100.2625,100.26247,4.0630546,0.0,0.0,0.0,0.09015169,0.0,0.0,0.0,0.0,0.0,0.0009186079,0.0063828747,0.019362826,0.0,0.0,0.0,0.0,0.0,0.0
112515071,0.0,0.0,0.0,0.06355122,0.14471114,-0.019716263,0.0,0.0,0.0,0.036976814,0.0,0.0,0.0,0.0,0.0,0.0,0.0,0.0,100.293526,100.293495,4.0626965,0.0,0.0,0.0,0.09015154,0.0,0.0,0.0,0.0,0.0,0.0009399438,0.008040086,0.024966685,0.0,0.0,0.0,0.0,0.0,0.0
112715070,0.0,0.0,0.0,0.09003209,0.16056065,0.04317665,0.0,0.0,0.0,0.061368227,0.0,0.0,0.0,0.0,0.0,0.0,0.0,0.0,100.32792,100.32789,4.062706,0.0,0.0,0.0,0.09015155,0.0,0.0,0.0,0.0,0.0,0.0012117499,0.0032287415,0.007787272,0.0,0.0,0.0,0.0,0.0,0.0
112923071,0.0,0.0,0.0,0.12218679,0.18166824,-0.30389786,0.0,0.0,0.0,0.090379834,0.0,0.0,0.0,0.0,0.0,0.0,0.0,0.0,100.36859,100.36856,4.062794,0.0,0.0,0.0,0.09015149,0.0,0.0,0.0,0.0,0.0,0.0016836289,0.010919545,0.03133076,0.0,0.0,0.0,0.0,0.0,0.0
113122300,0.0,0.0,0.0,0.15174092,0.20072424,-0.3198681,0.0,0.0,0.0,0.05804813,0.0,0.0,0.0,0.0,0.0,0.0,0.0,0.0,100.404144,100.40411,4.062475,0.0,0.0,0.0,0.090151496,0.0,0.0,0.0,0.0,0.0,0.0014340912,0.01843903,0.055519246,0.0,0.0,0.0,0.0,0.0,0.0
113323871,0.0,0.0,0.0,0.18563272,0.22259508,0.015663147,0.0,0.0,0.0,0.020278096,0.0,0.0,0.0,0.0,0.0,0.0,0.0,0.0,100.442825,100.442795,4.0625606,0.0,0.0,0.0,0.09015142,0.0,0.0,0.0,0.0,0.0,0.0015869128,0.011834041,0.03801961,0.0,0.0,0.0,0.0,0.0,0.0
113531871,0.0,0.0,0.0,0.2256367,0.24622202,-0.14731598,0.0,0.0,0.0,-0.07280767,0.0,0.0,0.0,0.0,0.0,0.0,0.0,0.0,100.48433,100.48431,4.0623484,0.0,0.0,0.0,0.090151526,0.0,0.0,0.0,0.0,0.0,0.0015971411,0.008150524,0.027707795,0.0,0.0,0.0,0.0,0.0,0.0
113731871,0.0,0.0,0.0,0.2713513,0.26570895,-0.36818123,0.0,0.0,0.0,0.093291044,0.0,0.0,0.0,0.0,0.0,0.0,0.0,0.0,100.52362,100.5236,4.063027,0.0,0.0,0.0,0.09015213,0.0,0.0,0.0,0.0,0.0,0.0016053763,0.011658949,0.036387198,0.0,0.0,0.0,0.0,0.0,0.0
113939871,0.0,0.0,0.0,0.36014563,0.2756132,-0.27086067,0.0,0.0,0.0,0.0046607256,0.0,0.0,0.0,0.0,0.0,0.0,0.0,0.0,100.56554,100.56553,4.063933,0.0,0.0,0.0,0.0901544,0.0,0.0,0.0,0.0,0.0,0.0013944606,0.010330643,0.03100327,0.0,0.0,0.0,0.0,0.0,0.0
114139879,0.0,0.0,0.0,0.52595544,0.26820084,0.04983902,0.0,0.0,0.0,0.07237172,0.0,0.0,0.0,0.0,0.0,0.0,0.0,0.0,100.60656,100.60659,4.0640883,0.0,0.0,0.0,0.090151966,0.0,0.0,0.0,0.0,0.0,0.0014903835,0.010563381,0.035412993,0.0,0.0,0.0,0.0,0.0,0.0
114339877,0.0,0.0,0.0,0.71793133,0.25160825,-0.23354912,0.0,0.0,0.0,0.12044895,0.0,0.0,0.0,0.0,0.0,0.0,0.0,0.0,100.643715,100.64379,4.0639033,0.0,0.0,0.0,0.09015172,0.0,0.0,0.0,0.0,0.0,0.0015151282,0.012282178,0.043850604,0.0,0.0,0.0,0.0,0.0,0.0
114539871,0.0,0.0,0.0,0.9024229,0.23425312,-0.18185425,0.0,0.0,0.0,0.16932797,0.0,0.0,0.0,0.0,0.0,0.0,0.0,0.0,100.67931,100.67944,4.0636854,0.0,0.0,0.0,0.09015173,0.0,0.0,0.0,0.0,0.0,0.0018212972,0.01466812,0.05380421,0.0,0.0,0.0,0.0,0.0,0.0
114740671,0.0,0.0,0.0,1.0568516,0.22665538,0.18449211,0.0,0.0,0.0,0.14681637,0.0,0.0,0.0,0.0,0.0,0.0,0.0,0.0,100.71026,100.710434,4.0631814,0.0,0.0,0.0,0.0901533,0.0,0.0,0.0,0.0,0.0,0.0025998477,0.016566167,0.06500823,0.0,0.0,0.0,0.0,0.0,0.0
114940692,0.0,0.0,0.0,1.1709087,0.2570682,0.03161621,0.0,0.0,0.0,0.20419347,0.0,0.0,0.0,0.0,0.0,0.0,0.0,0.0,100.74261,100.74281,4.0630927,0.0,0.0,0.0,0.09015479,0.0,0.0,0.0,0.0,0.0,0.0036916493,0.019876456,0.07717193,0.0,0.0,0.0,0.0,0.0,0.0
115148712,0.0,0.0,0.0,1.2358919,0.35565063,-0.4872074,0.0,0.0,0.0,0.19401455,0.0,0.0,0.0,0.0,0.0,0.0,0.0,0.0,100.77949,100.7797,4.0636935,0.0,0.0,0.0,0.09015196,0.0,0.0,0.0,0.0,0.0,0.0048794453,0.018854957,0.07982845,0.0,0.0,0.0,0.0,0.0,0.0
115348670,0.0,0.0,0.0,1.2641653,0.48277953,-0.6031418,0.0,0.0,0.0,0.15893829,0.0,0.0,0.0,0.0,0.0,0.0,0.0,0.0,100.81298,100.81321,4.064434,0.0,0.0,0.0,0.090151645,0.0,0.0,0.0,0.0,0.0,0.0044579515,0.019941637,0.08317619,0.0,0.0,0.0,0.0,0.0,0.0
115556670,0.0,0.0,0.0,1.2808127,0.61465853,-0.24876785,0.0,0.0,0.0,0.12961626,0.0,0.0,0.0,0.0,0.0,0.0,0.0,0.0,100.84462,100.84484,4.0648284,0.0,0.0,0.0,0.090151675,0.0,0.0,0.0,0.0,0.0,0.003457764,0.022200912,0.09084601,0.0,0.0,0.0,0.0,0.0,0.0
115756698,0.0,0.0,0.0,1.2824101,0.71952283,0.064826965,0.0,0.0,0.0,0.1267972,0.0,0.0,0.0,0.0,0.0,0.0,0.0,0.0,100.86667,100.86688,4.064472,0.0,0.0,0.0,0.0901517,0.0,0.0,0.0,0.0,0.0,0.00285772,0.024310183,0.10064047,0.0,0.0,0.0,0.0,0.0,0.0
115956683,0.0,0.0,0.0,1.2777731,0.7983056,-0.006181717,0.0,0.0,0.0,0.09341431,0.0,0.0,0.0,0.0,0.0,0.0,0.0,0.0,100.88365,100.88385,4.0641394,0.0,0.0,0.0,0.090151705,0.0,0.0,0.0,0.0,0.0,0.0030754039,0.021205785,0.09070803,0.0,0.0,0.0,0.0,0.0,0.0
116164680,0.0,0.0,0.0,1.271218,0.8904137,-0.0734272,0.0,0.0,0.0,0.05258906,0.0,0.0,0.0,0.0,0.0,0.0,0.0,0.0,100.90735,100.90753,4.0642223,0.0,0.0,0.0,0.0901516,0.0,0.0,0.0,0.0,0.0,0.0019643796,0.024919743,0.10676477,0.0,0.0,0.0,0.0,0.0,0.0
116773482,0.0,0.0,0.0,1.2120916,1.0560508,0.054855347,0.0,0.0,0.0,0.042530656,0.0,0.0,0.0,0.0,0.0,0.0,0.0,0.0,100.951195,100.95135,4.0639286,0.0,0.0,0.0,0.09015158,0.0,0.0,0.0,0.0,0.0,0.0008109159,0.022792647,0.1007912,0.0,0.0,0.0,0.0,0.0,0.0
116973471,0.0,0.0,0.0,1.179237,1.0803182,0.11230087,0.0,0.0,0.0,0.05499482,0.0,0.0,0.0,0.0,0.0,0.0,0.0,0.0,100.95695,100.95711,4.0633664,0.0,0.0,0.0,0.09015161,0.0,0.0,0.0,0.0,0.0,0.00086981483,0.024463965,0.10380354,0.0,0.0,0.0,0.0,0.0,0.0
117173478,0.0,0.0,0.0,1.1484872,1.100981,0.019039154,0.0,0.0,0.0,-0.024453402,0.0,0.0,0.0,0.0,0.0,0.0,0.0,0.0,100.96511,100.96529,4.063209,0.0,0.0,0.0,0.090151645,0.0,0.0,0.0,0.0,0.0,0.0008193733,0.020540852,0.09289526,0.0,0.0,0.0,0.0,0.0,0.0
117373488,0.0,0.0,0.0,1.1133903,1.1075826,0.10607147,0.0,0.0,0.0,-0.01767695,0.0,0.0,0.0,0.0,0.0,0.0,0.0,0.0,100.968575,100.968765,4.0627594,0.0,0.0,0.0,0.09015162,0.0,0.0,0.0,0.0,0.0,0.0008038858,0.018959912,0.08544674,0.0,0.0,0.0,0.0,0.0,0.0
117581480,0.0,0.0,0.0,1.0716777,1.105842,0.17641068,0.0,0.0,0.0,-0.0035506487,0.0,0.0,0.0,0.0,0.0,0.0,0.0,0.0,100.97244,100.97264,4.062444,0.0,0.0,0.0,0.09015169,0.0,0.0,0.0,0.0,0.0,0.00080463063,0.018576836,0.084051676,0.0,0.0,0.0,0.0,0.0,0.0
117781470,0.0,0.0,0.0,1.0286443,1.0923256,-0.18848038,0.0,0.0,0.0,-0.021349907,0.0,0.0,0.0,0.0,0.0,0.0,0.0,0.0,100.97365,100.97383,4.0620985,0.0,0.0,0.0,0.09015183,0.0,0.0,0.0,0.0,0.0,0.00078415987,0.01473248,0.07041854,0.0,0.0,0.0,0.0,0.0,0.0
117988695,0.0,0.0,0.0,0.9763684,1.0656265,-0.21603584,0.0,0.0,0.0,0.004070282,0.0,0.0,0.0,0.0,0.0,0.0,0.0,0.0,100.975075,100.97522,4.0618854,0.0,0.0,0.0,0.09015188,0.0,0.0,0.0,0.0,0.0,0.0008166812,0.0135483155,0.06541308,0.0,0.0,0.0,0.0,0.0,0.0
118190312,0.0,0.0,0.0,0.9280452,1.0328612,0.18415642,0.0,0.0,0.0,0.01839614,0.0,0.0,0.0,0.0,0.0,0.0,0.0,0.0,100.978325,100.9784,4.062003,0.0,0.0,0.0,0.09015186,0.0,0.0,0.0,0.0,0.0,0.00085236196,0.010743208,0.05237175,0.0,0.0,0.0,0.0,0.0,0.0
118390277,0.0,0.0,0.0,0.87538946,0.9876225,0.46858025,0.0,0.0,0.0,0.024268627,0.0,0.0,0.0,0.0,0.0,0.0,0.0,0.0,100.97725,100.977234,4.0617595,0.0,0.0,0.0,0.09015194,0.0,0.0,0.0,0.0,0.0,0.0006487391,0.010273161,0.04386806,0.0,0.0,0.0,0.0,0.0,0.0
118598277,0.0,0.0,0.0,0.8213745,0.93673766,0.15953445,0.0,0.0,0.0,-0.034347773,0.0,0.0,0.0,0.0,0.0,0.0,0.0,0.0,100.9865,100.98635,4.0625267,0.0,0.0,0.0,0.09015201,0.0,0.0,0.0,0.0,0.0,0.0005894025,0.009614577,0.036161408,0.0,0.0,0.0,0.0,0.0,0.0
118798271,0.0,0.0,0.0,0.7590935,0.872302,-0.21227074,0.0,0.0,0.0,-0.05961442,0.0,0.0,0.0,0.0,0.0,0.0,0.0,0.0,100.98911,100.988846,4.0625525,0.0,0.0,0.0,0.09015207,0.0,0.0,0.0,0.0,0.0,0.0007050821,0.0055594603,0.02301861,0.0,0.0,0.0,0.0,0.0,0.0
118998288,0.0,0.0,0.0,0.6976725,0.8037613,0.090106964,0.0,0.0,0.0,-0.02724719,0.0,0.0,0.0,0.0,0.0,0.0,0.0,0.0,100.999725,100.99936,4.0632086,0.0,0.0,0.0,0.09015206,0.0,0.0,0.0,0.0,0.0,0.0006592413,0.0054956926,0.021997044,0.0,0.0,0.0,0.0,0.0,0.0
119206320,0.0,0.0,0.0,0.61398906,0.7038368,0.5520725,0.0,0.0,0.0,0.03677845,0.0,0.0,0.0,0.0,0.0,0.0,0.0,0.0,101.00868,101.00827,4.0632157,0.0,0.0,0.0,0.09015224,0.0,0.0,0.0,0.0,0.0,0.00085503445,0.0047494248,0.02133937,0.0,0.0,0.0,0.0,0.0,0.0
119406272,0.0,0.0,0.0,0.53103125,0.60287035,-0.15971756,0.0,0.0,0.0,-0.054746628,0.0,0.0,0.0,0.0,0.0,0.0,0.0,0.0,101.021225,101.02085,4.063179,0.0,0.0,0.0,0.090152286,0.0,0.0,0.0,0.0,0.0,0.0008143782,0.0048979404,0.028095724,0.0,0.0,0.0,0.0,0.0,0.0
119606277,0.0,0.0,0.0,0.4431656,0.4948134,-0.109342575,0.0,0.0,0.0,-0.0483613,0.0,0.0,0.0,0.0,0.0,0.0,0.0,0.0,101.03564,101.035385,4.062816,0.0,0.0,0.0,0.090152316,0.0,0.0,0.0,0.0,0.0,0.00087872555,0.0056984834,0.03843386,0.0,0.0,0.0,0.0,0.0,0.0
119815071,0.0,0.0,0.0,0.34911457,0.37659642,0.20220947,0.0,0.0,0.0,-0.039346933,0.0,0.0,0.0,0.0,0.0,0.0,0.0,0.0,101.06228,101.062225,4.0628395,0.0,0.0,0.0,0.09015223,0.0,0.0,0.0,0.0,0.0,0.001332437,0.008449133,0.053269032,0.0,0.0,0.0,0.0,0.0,0.0
120019077,0.0,0.0,0.0,0.2446737,0.24483123,0.15802574,0.0,0.0,0.0,-0.038958073,0.0,0.0,0.0,0.0,0.0,0.0,0.0,0.0,101.109695,101.10992,4.063554,0.0,0.0,0.0,0.090152204,0.0,0.0,0.0,0.0,0.0,0.0013121205,0.011734743,0.06734363,0.0,0.0,0.0,0.0,0.0,0.0
120219087,0.0,0.0,0.0,0.14761464,0.12577543,0.068058014,0.0,0.0,0.0,-0.04539013,0.0,0.0,0.0,0.0,0.0,0.0,0.0,0.0,101.159134,101.15962,4.063974,0.0,0.0,0.0,0.09015219,0.0,0.0,0.0,0.0,0.0,0.0011176978,0.016056921,0.082216166,0.0,0.0,0.0,0.0,0.0,0.0
120419077,0.0,0.0,0.0,0.032418936,-0.014607079,0.070230484,0.0,0.0,0.0,0.00078487396,0.0,0.0,0.0,0.0,0.0,0.0,0.0,0.0,101.21577,101.2165,4.0635867,0.0,0.0,0.0,0.09015211,0.0,0.0,0.0,0.0,0.0,0.0008245723,0.020351553,0.094797686,0.0,0.0,0.0,0.0,0.0,0.0
120619071,0.0,0.0,0.0,-0.07279411,-0.14277045,0.32390976,0.0,0.0,0.0,-0.044854403,0.0,0.0,0.0,0.0,0.0,0.0,0.0,0.0,101.282104,101.28299,4.063521,0.0,0.0,0.0,0.09015192,0.0,0.0,0.0,0.0,0.0,0.00059699547,0.028617024,0.112932,0.0,0.0,0.0,0.0,0.0,0.0
120827109,0.0,0.0,0.0,-0.1755261,-0.26938105,-0.15930176,0.0,0.0,0.0,0.0043103695,0.0,0.0,0.0,0.0,0.0,0.0,0.0,0.0,101.357414,101.35835,4.063483,0.0,0.0,0.0,0.09015191,0.0,0.0,0.0,0.0,0.0,0.00047420894,0.03347467,0.12672365,0.0,0.0,0.0,0.0,0.0,0.0
121027071,0.0,0.0,0.0,-0.27261087,-0.38845745,0.094696045,0.0,0.0,0.0,-0.0010676384,0.0,0.0,0.0,0.0,0.0,0.0,0.0,0.0,101.43886,101.439705,4.0634494,0.0,0.0,0.0,0.09015191,0.0,0.0,0.0,0.0,0.0,0.0006875652,0.045002308,0.14723958,0.0,0.0,0.0,0.0,0.0,0.0
121227085,0.0,0.0,0.0,-0.36138612,-0.498164,0.17822266,0.0,0.0,0.0,-0.015399694,0.0,0.0,0.0,0.0,0.0,0.0,0.0,0.0,101.53453,101.53521,4.0640535,0.0,0.0,0.0,0.09015181,0.0,0.0,0.0,0.0,0.0,0.0009697917,0.053473946,0.16113344,0.0,0.0,0.0,0.0,0.0,0.0
121435083,0.0,0.0,0.0,-0.4505197,-0.61008215,-0.56964874,0.0,0.0,0.0,0.028496742,0.0,0.0,0.0,0.0,0.0,0.0,0.0,0.0,101.62966,101.62993,4.0639834,0.0,0.0,0.0,0.09015172,0.0,0.0,0.0,0.0,0.0,0.001281759,0.066918425,0.18937819,0.0,0.0,0.0,0.0,0.0,0.0
121635916,0.0,0.0,0.0,-0.5109732,-0.6842908,0.04109955,0.0,0.0,0.0,-0.030922413,0.0,0.0,0.0,0.0,0.0,0.0,0.0,0.0,101.6957,101.695496,4.063497,0.0,0.0,0.0,0.09015162,0.0,0.0,0.0,0.0,0.0,0.0016723698,0.08212987,0.21474542,0.0,0.0,0.0,0.0,0.0,0.0
121835881,0.0,0.0,0.0,-0.5691964,-0.75730795,0.067165375,0.0,0.0,0.0,-0.040139914,0.0,0.0,0.0,0.0,0.0,0.0,0.0,0.0,101.78375,101.78302,4.0637836,0.0,0.0,0.0,0.09015155,0.0,0.0,0.0,0.0,0.0,0.002039752,0.09439339,0.23670095,0.0,0.0,0.0,0.0,0.0,0.0
122035878,0.0,0.0,0.0,-0.60596913,-0.80780685,-0.23389244,0.0,0.0,0.0,-0.012017012,0.0,0.0,0.0,0.0,0.0,0.0,0.0,0.0,101.83492,101.83366,4.063338,0.0,0.0,0.0,0.09015164,0.0,0.0,0.0,0.0,0.0,0.002087553,0.096055776,0.2410774,0.0,0.0,0.0,0.0,0.0,0.0
122235871,0.0,0.0,0.0,-0.6431471,-0.866848,0.03347206,0.0,0.0,0.0,-0.04246664,0.0,0.0,0.0,0.0,0.0,0.0,0.0,0.0,101.90579,101.903984,4.063621,0.0,0.0,0.0,0.09015166,0.0,0.0,0.0,0.0,0.0,0.0021108037,0.09688535,0.24388458,0.0,0.0,0.0,0.0,0.0,0.0
122443917,0.0,0.0,0.0,-0.67306656,-0.9130385,-0.11664009,0.0,0.0,0.0,-0.002035141,0.0,0.0,0.0,0.0,0.0,0.0,0.0,0.0,101.98523,101.9829,4.0644817,0.0,0.0,0.0,0.09015163,0.0,0.0,0.0,0.0,0.0,0.002198781,0.091131225,0.23008195,0.0,0.0,0.0,0.0,0.0,0.0
122643870,0.0,0.0,0.0,-0.67566067,-0.92453545,0.058078766,0.0,0.0,0.0,-0.08605361,0.0,0.0,0.0,0.0,0.0,0.0,0.0,0.0,101.998764,101.996,4.0639076,0.0,0.0,0.0,0.090151675,0.0,0.0,0.0,0.0,0.0,0.0026845227,0.09406214,0.2357529,0.0,0.0,0.0,0.0,0.0,0.0
122843871,0.0,0.0,0.0,-0.6702963,-0.9259885,0.29925346,0.0,0.0,0.0,-0.08897519,0.0,0.0,0.0,0.0,0.0,0.0,0.0,0.0,102.0104,102.00723,4.063464,0.0,0.0,0.0,0.09015168,0.0,0.0,0.0,0.0,0.0,0.0033846593,0.101986535,0.25208804,0.0,0.0,0.0,0.0,0.0,0.0
123051871,0.0,0.0,0.0,-0.6573591,-0.921146,0.112127304,0.0,0.0,0.0,-0.15554738,0.0,0.0,0.0,0.0,0.0,0.0,0.0,0.0,102.00968,102.006256,4.0630226,0.0,0.0,0.0,0.090151675,0.0,0.0,0.0,0.0,0.0,0.0038126307,0.08666581,0.22121175,0.0,0.0,0.0,0.0,0.0,0.0
123252679,0.0,0.0,0.0,-0.632034,-0.9357356,0.30789757,0.0,0.0,0.0,-0.15992212,0.0,0.0,0.0,0.0,0.0,0.0,0.0,0.0,102.01638,102.012726,4.062962,0.0,0.0,0.0,0.090151675,0.0,0.0,0.0,0.0,0.0,0.0038802407,0.076499134,0.19824918,0.0,0.0,0.0,0.0,0.0,0.0
123452719,0.0,0.0,0.0,-0.5682286,-0.99884593,-0.09636116,0.0,0.0,0.0,-0.1788106,0.0,0.0,0.0,0.0,0.0,0.0,0.0,0.0,102.02892,102.025055,4.063248,0.0,0.0,0.0,0.090151735,0.0,0.0,0.0,0.0,0.0,0.0037795005,0.070159525,0.18325639,0.0,0.0,0.0,0.0,0.0,0.0
123660671,0.0,0.0,0.0,-0.4598655,-1.0888913,0.28361702,0.0,0.0,0.0,-0.124560595,0.0,0.0,0.0,0.0,0.0,0.0,0.0,0.0,102.00722,102.00319,4.062883,0.0,0.0,0.0,0.09015167,0.0,0.0,0.0,0.0,0.0,0.0037273073,0.069813564,0.1849016,0.0,0.0,0.0,0.0,0.0,0.0
123860675,0.0,0.0,0.0,-0.36332393,-1.1742973,-0.2946396,0.0,0.0,0.0,-0.061009645,0.0,0.0,0.0,0.0,0.0,0.0,0.0,0.0,101.99455,101.990326,4.062857,0.0,0.0,0.0,0.090151764,0.0,0.0,0.0,0.0,0.0,0.0030896212,0.06183604,0.17142402,0.0,0.0,0.0,0.0,0.0,0.0
124068671,0.0,0.0,0.0,-0.29018813,-1.2415813,-0.20005417,0.0,0.0,0.0,-0.103560686,0.0,0.0,0.0,0.0,0.0,0.0,0.0,0.0,101.97945,101.97507,4.0628695,0.0,0.0,0.0,0.0901518,0.0,0.0,0.0,0.0,0.0,0.0023441573,0.055171978,0.15500149,0.0,0.0,0.0,0.0,0.0,0.0
124268721,0.0,0.0,0.0,-0.2724551,-1.3277621,0.09684563,0.0,0.0,0.0,-0.19409537,0.0,0.0,0.0,0.0,0.0,0.0,0.0,0.0,101.99627,101.99167,4.0638013,0.0,0.0,0.0,0.09015182,0.0,0.0,0.0,0.0,0.0,0.003136601,0.050489448,0.1446946,0.0,0.0,0.0,0.0,0.0,0.0
124468679,0.0,0.0,0.0,-0.33804703,-1.414057,0.33644676,0.0,0.0,0.0,-0.18751669,0.0,0.0,0.0,0.0,0.0,0.0,0.0,0.0,101.98028,101.97559,4.064018,0.0,0.0,0.0,0.09015174,0.0,0.0,0.0,0.0,0.0,0.0040429006,0.058026314,0.16874646,0.0,0.0,0.0,0.0,0.0,0.0
124676671,0.0,0.0,0.0,-0.48578328,-1.5104573,0.11748886,0.0,0.0,0.0,-0.13286757,0.0,0.0,0.0,0.0,0.0,0.0,0.0,0.0,101.94773,101.94303,4.063843,0.0,0.0,0.0,0.09015164,0.0,0.0,0.0,0.0,0.0,0.004858276,0.058663152,0.18013689,0.0,0.0,0.0,0.0,0.0,0.0
124876670,0.0,0.0,0.0,-0.70232666,-1.6361436,0.29998398,0.0,0.0,0.0,-0.21326709,0.0,0.0,0.0,0.0,0.0,0.0,0.0,0.0,101.91616,101.91144,4.0637355,0.0,0.0,0.0,0.09015148,0.0,0.0,0.0,0.0,0.0,0.0050815046,0.058118917,0.1882915,0.0,0.0,0.0,0.0,0.0,0.0
125075889,0.0,0.0,0.0,-0.95046204,-1.7568613,-0.09180641,0.0,0.0,0.0,-0.25350904,0.0,0.0,0.0,0.0,0.0,0.0,0.0,0.0,101.874245,101.86949,4.0633373,0.0,0.0,0.0,0.090151414,0.0,0.0,0.0,0.0,0.0,0.0051289247,0.058704603,0.1970022,0.0,0.0,0.0,0.0,0.0,0.0
125285471,0.0,0.0,0.0,-1.2168646,-1.8800664,0.061193466,0.0,0.0,0.0,-0.13832974,0.0,0.0,0.0,0.0,0.0,0.0,0.0,0.0,101.84523,101.840385,4.063355,0.0,0.0,0.0,0.09015153,0.0,0.0,0.0,0.0,0.0,0.004251058,0.060674187,0.20777388,0.0,0.0,0.0,0.0,0.0,0.0
125485477,0.0,0.0,0.0,-1.4673471,-1.993787,0.2995186,0.0,0.0,0.0,-0.16721511,0.0,0.0,0.0,0.0,0.0,0.0,0.0,0.0,101.83593,101.830894,4.0640507,0.0,0.0,0.0,0.09015146,0.0,0.0,0.0,0.0,0.0,0.0035098607,0.07825032,0.25663784,0.0,0.0,0.0,0.0,0.0,0.0
125685475,0.0,0.0,0.0,-1.6315724,-2.042945,-0.008243561,0.0,0.0,0.0,-0.12320733,0.0,0.0,0.0,0.0,0.0,0.0,0.0,0.0,101.8114,101.80624,4.064238,0.0,0.0,0.0,0.09015155,0.0,0.0,0.0,0.0,0.0,0.0032516725,0.090607874,0.29739285,0.0,0.0,0.0,0.0,0.0,0.0
125893504,0.0,0.0,0.0,-1.7281895,-2.0445487,0.23976326,0.0,0.0,0.0,-0.12996197,0.0,0.0,0.0,0.0,0.0,0.0,0.0,0.0,101.777565,101.772385,4.0640516,0.0,0.0,0.0,0.09015154,0.0,0.0,0.0,0.0,0.0,0.003056504,0.08498075,0.2905867,0.0,0.0,0.0,0.0,0.0,0.0
126093471,0.0,0.0,0.0,-1.7688608,-2.0065718,-0.000749588,0.0,0.0,0.0,-0.073406935,0.0,0.0,0.0,0.0,0.0,0.0,0.0,0.0,101.7365,101.731445,4.063542,0.0,0.0,0.0,0.09015155,0.0,0.0,0.0,0.0,0.0,0.0028282388,0.07582918,0.27163875,0.0,0.0,0.0,0.0,0.0,0.0
126301471,0.0,0.0,0.0,-1.7819614,-1.9484344,0.03303528,0.0,0.0,0.0,-0.06237316,0.0,0.0,0.0,0.0,0.0,0.0,0.0,0.0,101.697075,101.69226,4.063136,0.0,0.0,0.0,0.09015163,0.0,0.0,0.0,0.0,0.0,0.0026519173,0.07002471,0.2614714,0.0,0.0,0.0,0.0,0.0,0.0
126501482,0.0,0.0,0.0,-1.7602903,-1.8809202,0.30667686,0.0,0.0,0.0,-0.1190176,0.0,0.0,0.0,0.0,0.0,0.0,0.0,0.0,101.66167,101.65714,4.062717,0.0,0.0,0.0,0.090151675,0.0,0.0,0.0,0.0,0.0,0.0027038206,0.053462222,0.21466245,0.0,0.0,0.0,0.0,0.0,0.0
126702271,0.0,0.0,0.0,-1.6992093,-1.8264722,-0.15150642,0.0,0.0,0.0,-0.17213488,0.0,0.0,0.0,0.0,0.0,0.0,0.0,0.0,101.627525,101.62335,4.0624037,0.0,0.0,0.0,0.090151615,0.0,0.0,0.0,0.0,0.0,0.0032460114,0.04852825,0.20097506,0.0,0.0,0.0,0.0,0.0,0.0
126909483,0.0,0.0,0.0,-1.602114,-1.8194555,-0.027219772,0.0,0.0,0.0,-0.1731062,0.0,0.0,0.0,0.0,0.0,0.0,0.0,0.0,101.605446,101.60155,4.0624475,0.0,0.0,0.0,0.09015158,0.0,0.0,0.0,0.0,0.0,0.0034326236,0.030594341,0.13767956,0.0,0.0,0.0,0.0,0.0,0.0
127110312,0.0,0.0,0.0,-1.4403609,-1.8319436,0.02009964,0.0,0.0,0.0,-0.16704202,0.0,0.0,0.0,0.0,0.0,0.0,0.0,0.0,101.5664,101.5628,4.0618434,0.0,0.0,0.0,0.09015152,0.0,0.0,0.0,0.0,0.0,0.003523697,0.025406213,0.11843432,0.0,0.0,0.0,0.0,0.0,0.0
127310271,0.0,0.0,0.0,-1.275561,-1.8693659,-0.02003479,0.0,0.0,0.0,-0.064670324,0.0,0.0,0.0,0.0,0.0,0.0,0.0,0.0,101.54715,101.543724,4.0619526,0.0,0.0,0.0,0.09015151,0.0,0.0,0.0,0.0,0.0,0.0030059174,0.016559144,0.07113292,0.0,0.0,0.0,0.0,0.0,0.0
127510316,0.0,0.0,0.0,-1.1083252,-1.8729802,0.06022644,0.0,0.0,0.0,-0.08284235,0.0,0.0,0.0,0.0,0.0,0.0,0.0,0.0,101.52041,101.517166,4.0617027,0.0,0.0,0.0,0.090151474,0.0,0.0,0.0,0.0,0.0,0.0025981206,0.01919181,0.039275624,0.0,0.0,0.0,0.0,0.0,0.0
127718278,0.0,0.0,0.0,-0.93001544,-1.8476084,-0.28282928,0.0,0.0,0.0,-0.11019111,0.0,0.0,0.0,0.0,0.0,0.0,0.0,0.0,101.494644,101.49158,4.0615664,0.0,0.0,0.0,0.090151384,0.0,0.0,0.0,0.0,0.0,0.002372456,0.026787937,0.052267417,0.0,0.0,0.0,0.0,0.0,0.0
127918271,0.0,0.0,0.0,-0.777902,-1.7984176,-0.26293373,0.0,0.0,0.0,-0.1222229,0.0,0.0,0.0,0.0,0.0,0.0,0.0,0.0,101.47059,101.46769,4.0613656,0.0,0.0,0.0,0.09015146,0.0,0.0,0.0,0.0,0.0,0.0027682814,0.03752594,0.08020182,0.0,0.0,0.0,0.0,0.0,0.0
128118315,0.0,0.0,0.0,-0.63087314,-1.7454408,-0.12752914,0.0,0.0,0.0,-0.058851004,0.0,0.0,0.0,0.0,0.0,0.0,0.0,0.0,101.460945,101.45819,4.061849,0.0,0.0,0.0,0.090151474,0.0,0.0,0.0,0.0,0.0,0.0031267912,0.04836957,0.11523504,0.0,0.0,0.0,0.0,0.0,0.0
128326271,0.0,0.0,0.0,-0.48992458,-1.6614963,0.20431519,0.0,0.0,0.0,-0.17480063,0.0,0.0,0.0,0.0,0.0,0.0,0.0,0.0,101.44411,101.44152,4.0619564,0.0,0.0,0.0,0.09015136,0.0,0.0,0.0,0.0,0.0,0.003587337,0.053543027,0.13572104,0.0,0.0,0.0,0.0,0.0,0.0
128526307,0.0,0.0,0.0,-0.35955366,-1.5585451,-0.44225502,0.0,0.0,0.0,-0.20084,0.0,0.0,0.0,0.0,0.0,0.0,0.0,0.0,101.4215,101.4191,4.0617337,0.0,0.0,0.0,0.09015136,0.0,0.0,0.0,0.0,0.0,0.004160045,0.06047147,0.15999511,0.0,0.0,0.0,0.0,0.0,0.0
128734277,0.0,0.0,0.0,-0.23117034,-1.4514786,-0.32562828,0.0,0.0,0.0,-0.16848946,0.0,0.0,0.0,0.0,0.0,0.0,0.0,0.0,101.412704,101.41045,4.062206,0.0,0.0,0.0,0.09015136,0.0,0.0,0.0,0.0,0.0,0.0041277744,0.06713216,0.18441474,0.0,0.0,0.0,0.0,0.0,0.0
128935071,0.0,0.0,0.0,-0.111759044,-1.3470349,0.0052871704,0.0,0.0,0.0,-0.16394043,0.0,0.0,0.0,0.0,0.0,0.0,0.0,0.0,101.4226,101.420456,4.0635853,0.0,0.0,0.0,0.09015128,0.0,0.0,0.0,0.0,0.0,0.0038244317,0.07169385,0.20320915,0.0,0.0,0.0,0.0,0.0,0.0
129135078,0.0,0.0,0.0,-0.008199655,-1.2088022,-0.31910706,0.0,0.0,0.0,-0.25230455,0.0,0.0,0.0,0.0,0.0,0.0,0.0,0.0,101.3979,101.395935,4.063162,0.0,0.0,0.0,0.09015118,0.0,0.0,0.0,0.0,0.0,0.003949534,0.0747119,0.21435425,0.0,0.0,0.0,0.0,0.0,0.0
129343070,0.0,0.0,0.0,0.090155624,-1.0485691,-0.45002937,0.0,0.0,0.0,-0.104561806,0.0,0.0,0.0,0.0,0.0,0.0,0.0,0.0,101.39207,101.39022,4.0637774,0.0,0.0,0.0,0.090151116,0.0,0.0,0.0,0.0,0.0,0.003216133,0.07734061,0.22579664,0.0,0.0,0.0,0.0,0.0,0.0
129543126,0.0,0.0,0.0,0.15417418,-0.8617852,-0.00522995,0.0,0.0,0.0,-0.05905485,0.0,0.0,0.0,0.0,0.0,0.0,0.0,0.0,101.368004,101.36627,4.063303,0.0,0.0,0.0,0.09015091,0.0,0.0,0.0,0.0,0.0,0.0019974064,0.07807242,0.23251408,0.0,0.0,0.0,0.0,0.0,0.0
129743071,0.0,0.0,0.0,0.19750828,-0.63886076,-0.09631729,0.0,0.0,0.0,-0.051766396,0.0,0.0,0.0,0.0,0.0,0.0,0.0,0.0,101.351456,101.34977,4.0632224,0.0,0.0,0.0,0.09015097,0.0,0.0,0.0,0.0,0.0,0.0010235388,0.07937953,0.24179646,0.0,0.0,0.0,0.0,0.0,0.0
129943070,0.0,0.0,0.0,0.21866788,-0.38648832,-0.35097313,0.0,0.0,0.0,-0.02721095,0.0,0.0,0.0,0.0,0.0,0.0,0.0,0.0,101.335884,101.33418,4.063163,0.0,0.0,0.0,0.09015087,0.0,0.0,0.0,0.0,0.0,0.0007397187,0.081177294,0.2528254,0.0,0.0,0.0,0.0,0.0,0.0
130151077,0.0,0.0,0.0,0.21933171,-0.08612098,0.16627693,0.0,0.0,0.0,0.06717157,0.0,0.0,0.0,0.0,0.0,0.0,0.0,0.0,101.315155,101.31338,4.0628414,0.0,0.0,0.0,0.09015075,0.0,0.0,0.0,0.0,0.0,0.00023793816,0.08312081,0.2661751,0.0,0.0,0.0,0.0,0.0,0.0
130350319,0.0,0.0,0.0,0.2040178,0.21102272,-0.11912727,0.0,0.0,0.0,-0.049198627,0.0,0.0,0.0,0.0,0.0,0.0,0.0,0.0,101.301575,101.299644,4.0628314,0.0,0.0,0.0,0.090150826,0.0,0.0,0.0,0.0,0.0,0.00016193917,0.08573061,0.28120473,0.0,0.0,0.0,0.0,0.0,0.0
130551076,0.0,0.0,0.0,0.17821795,0.51644135,0.26357841,0.0,0.0,0.0,-0.059829235,0.0,0.0,0.0,0.0,0.0,0.0,0.0,0.0,101.2888,101.28667,4.0628414,0.0,0.0,0.0,0.09015082,0.0,0.0,0.0,0.0,0.0,0.00095882296,0.08830274,0.29723507,0.0,0.0,0.0,0.0,0.0,0.0
130757477,0.0,0.0,0.0,0.15223244,0.8233567,0.23586845,0.0,0.0,0.0,-0.09796381,0.0,0.0,0.0,0.0,0.0,0.0,0.0,0.0,101.270615,101.26824,4.0625477,0.0,0.0,0.0,0.09015081,0.0,0.0,0.0,0.0,0.0,0.0019283623,0.093422554,0.32182753,0.0,0.0,0.0,0.0,0.0,0.0
130955923,0.0,0.0,0.0,0.14197886,1.0583541,-0.027402878,0.0,0.0,0.0,-0.07337046,0.0,0.0,0.0,0.0,0.0,0.0,0.0,0.0,101.2635,101.260895,4.0627766,0.0,0.0,0.0,0.09015077,0.0,0.0,0.0,0.0,0.0,0.002308071,0.09142903,0.32367027,0.0,0.0,0.0,0.0,0.0,0.0
131155875,0.0,0.0,0.0,0.1584944,1.2807745,0.18516731,0.0,0.0,0.0,-0.099895716,0.0,0.0,0.0,0.0,0.0,0.0,0.0,0.0,101.261795,101.25896,4.0634174,0.0,0.0,0.0,0.09015075,0.0,0.0,0.0,0.0,0.0,0.0030911143,0.093307056,0.33862862,0.0,0.0,0.0,0.0,0.0,0.0
131355871,0.0,0.0,0.0,0.20646605,1.3969029,0.24866486,0.0,0.0,0.0,-0.13531995,0.0,0.0,0.0,0.0,0.0,0.0,0.0,0.0,101.25497,101.25201,4.063589,0.0,0.0,0.0,0.0901507,0.0,0.0,0.0,0.0,0.0,0.0033996925,0.08983076,0.3301584,0.0,0.0,0.0,0.0,0.0,0.0
131563870,0.0,0.0,0.0,0.2949875,1.4636804,-0.09942818,0.0,0.0,0.0,-0.11499643,0.0,0.0,0.0,0.0,0.0,0.0,0.0,0.0,101.2483,101.245285,4.063826,0.0,0.0,0.0,0.090150826,0.0,0.0,0.0,0.0,0.0,0.0030757526,0.08738205,0.31937495,0.0,0.0,0.0,0.0,0.0,0.0
131763900,0.0,0.0,0.0,0.39103177,1.4932172,-0.09739494,0.0,0.0,0.0,-0.08548498,0.0,0.0,0.0,0.0,0.0,0.0,0.0,0.0,101.23631,101.23332,4.063651,0.0,0.0,0.0,0.09015076,0.0,0.0,0.0,0.0,0.0,0.0024702242,0.084984325,0.31133708,0.0,0.0,0.0,0.0,0.0,0.0
131971898,0.0,0.0,0.0,0.49081576,1.5177517,0.5780754,0.0,0.0,0.0,-0.12222648,0.0,0.0,0.0,0.0,0.0,0.0,0.0,0.0,101.22047,101.21754,4.0632467,0.0,0.0,0.0,0.09015064,0.0,0.0,0.0,0.0,0.0,0.002044362,0.08311193,0.3057379,0.0,0.0,0.0,0.0,0.0,0.0
132171877,0.0,0.0,0.0,0.5748836,1.5379385,0.077186584,0.0,0.0,0.0,-0.08266568,0.0,0.0,0.0,0.0,0.0,0.0,0.0,0.0,101.205925,101.20307,4.0628276,0.0,0.0,0.0,0.09015061,0.0,0.0,0.0,0.0,0.0,0.0017761013,0.07676323,0.28305703,0.0,0.0,0.0,0.0,0.0,0.0
132371871,0.0,0.0,0.0,0.6636162,1.5689558,-0.17920685,0.0,0.0,0.0,-0.04895425,0.0,0.0,0.0,0.0,0.0,0.0,0.0,0.0,101.19735,101.19456,4.0628147,0.0,0.0,0.0,0.09015059,0.0,0.0,0.0,0.0,0.0,0.0015506888,0.07056687,0.2596071,0.0,0.0,0.0,0.0,0.0,0.0
132580671,0.0,0.0,0.0,0.7626676,1.6148243,-0.18135834,0.0,0.0,0.0,-0.044587135,0.0,0.0,0.0,0.0,0.0,0.0,0.0,0.0,101.19818,101.19543,4.063455,0.0,0.0,0.0,0.090150476,0.0,0.0,0.0,0.0,0.0,0.001185243,0.06532714,0.24066007,0.0,0.0,0.0,0.0,0.0,0.0
132780688,0.0,0.0,0.0,0.8520893,1.6520241,-0.16164207,0.0,0.0,0.0,-0.031038523,0.0,0.0,0.0,0.0,0.0,0.0,0.0,0.0,101.19436,101.19167,4.063712,0.0,0.0,0.0,0.09015046,0.0,0.0,0.0,0.0,0.0,0.0011460979,0.063772164,0.23531197,0.0,0.0,0.0,0.0,0.0,0.0
132980677,0.0,0.0,0.0,0.9228455,1.6716144,-0.13754272,0.0,0.0,0.0,-0.09032035,0.0,0.0,0.0,0.0,0.0,0.0,0.0,0.0,101.18129,101.17872,4.0632463,0.0,0.0,0.0,0.0901505,0.0,0.0,0.0,0.0,0.0,0.0011887437,0.060346093,0.22300622,0.0,0.0,0.0,0.0,0.0,0.0
133180671,0.0,0.0,0.0,0.9872212,1.6888403,0.27867317,0.0,0.0,0.0,-0.021346569,0.0,0.0,0.0,0.0,0.0,0.0,0.0,0.0,101.1692,101.16675,4.062827,0.0,0.0,0.0,0.09015047,0.0,0.0,0.0,0.0,0.0,0.0011835564,0.05645817,0.20880109,0.0,0.0,0.0,0.0,0.0,0.0
133388671,0.0,0.0,0.0,1.0660065,1.7249063,0.09140968,0.0,0.0,0.0,0.025506258,0.0,0.0,0.0,0.0,0.0,0.0,0.0,0.0,101.17108,101.16871,4.0634284,0.0,0.0,0.0,0.09015045,0.0,0.0,0.0,0.0,0.0,0.0009793966,0.053505417,0.19717936,0.0,0.0,0.0,0.0,0.0,0.0
133588680,0.0,0.0,0.0,1.125779,1.7447912,-0.06348801,0.0,0.0,0.0,-0.0489707,0.0,0.0,0.0,0.0,0.0,0.0,0.0,0.0,101.164185,101.16193,4.0633235,0.0,0.0,0.0,0.09015044,0.0,0.0,0.0,0.0,0.0,0.0011979179,0.051268302,0.18953636,0.0,0.0,0.0,0.0,0.0,0.0
133788691,0.0,0.0,0.0,1.1904868,1.7725177,0.05454445,0.0,0.0,0.0,-0.031183004,0.0,0.0,0.0,0.0,0.0,0.0,0.0,0.0,101.16246,101.16031,4.0635967,0.0,0.0,0.0,0.090150334,0.0,0.0,0.0,0.0,0.0,0.0012932105,0.049336083,0.18250488,0.0,0.0,0.0,0.0,0.0,0.0
133988677,0.0,0.0,0.0,1.243024,1.7899694,0.33935738,0.0,0.0,0.0,-0.08426857,0.0,0.0,0.0,0.0,0.0,0.0,0.0,0.0,101.15596,101.15393,4.0634575,0.0,0.0,0.0,0.09015023,0.0,0.0,0.0,0.0,0.0,0.0014036249,0.0488145,0.18131447,0.0,0.0,0.0,0.0,0.0,0.0
134188671,0.0,0.0,0.0,1.2869067,1.7982299,-0.20577812,0.0,0.0,0.0,-0.030973911,0.0,0.0,0.0,0.0,0.0,0.0,0.0,0.0,101.14586,101.14397,4.063025,0.0,0.0,0.0,0.090150185,0.0,0.0,0.0,0.0,0.0,0.0012394252,0.04451184,0.1663863,0.0,0.0,0.0,0.0,0.0,0.0
134396671,0.0,0.0,0.0,1.3353089,1.809792,-0.03618622,0.0,0.0,0.0,-0.04544115,0.0,0.0,0.0,0.0,0.0,0.0,0.0,0.0,101.13722,101.135475,4.0627284,0.0,0.0,0.0,0.09015016,0.0,0.0,0.0,0.0,0.0,0.0011826393,0.044426996,0.16654254,0.0,0.0,0.0,0.0,0.0,0.0
134597490,0.0,0.0,0.0,1.3841026,1.8270065,-0.33483696,0.0,0.0,0.0,-0.017552853,0.0,0.0,0.0,0.0,0.0,0.0,0.0,0.0,101.133675,101.13205,4.0627627,0.0,0.0,0.0,0.09015017,0.0,0.0,0.0,0.0,0.0,0.001119678,0.04084501,0.15308838,0.0,0.0,0.0,0.0,0.0,0.0
134797471,0.0,0.0,0.0,1.4254076,1.8355135,0.3117695,0.0,0.0,0.0,0.008160591,0.0,0.0,0.0,0.0,0.0,0.0,0.0,0.0,101.12594,101.12444,4.062444,0.0,0.0,0.0,0.09015019,0.0,0.0,0.0,0.0,0.0,0.0009927988,0.036645506,0.13657781,0.0,0.0,0.0,0.0,0.0,0.0
135005491,0.0,0.0,0.0,1.4657112,1.8418291,0.051174164,0.0,0.0,0.0,-0.0013940334,0.0,0.0,0.0,0.0,0.0,0.0,0.0,0.0,101.1196,101.11824,4.0622506,0.0,0.0,0.0,0.090150274,0.0,0.0,0.0,0.0,0.0,0.0011084724,0.03656606,0.13728628,0.0,0.0,0.0,0.0,0.0,0.0
135205471,0.0,0.0,0.0,1.5130787,1.8605694,-0.47711945,0.0,0.0,0.0,0.0190866,0.0,0.0,0.0,0.0,0.0,0.0,0.0,0.0,101.1255,101.12424,4.062949,0.0,0.0,0.0,0.09015026,0.0,0.0,0.0,0.0,0.0,0.001133416,0.027538832,0.10092606,0.0,0.0,0.0,0.0,0.0,0.0
135405500,0.0,0.0,0.0,1.5580844,1.8616204,-0.04893112,0.0,0.0,0.0,-0.023489952,0.0,0.0,0.0,0.0,0.0,0.0,0.0,0.0,101.127235,101.12608,4.063297,0.0,0.0,0.0,0.09015018,0.0,0.0,0.0,0.0,0.0,0.0010565537,0.028019533,0.10299115,0.0,0.0,0.0,0.0,0.0,0.0
135613479,0.0,0.0,0.0,1.6156718,1.8250766,-0.24551773,0.0,0.0,0.0,-0.11637497,0.0,0.0,0.0,0.0,0.0,0.0,0.0,0.0,101.12437,101.12338,4.0632324,0.0,0.0,0.0,0.090150066,0.0,0.0,0.0,0.0,0.0,0.001234439,0.02655932,0.097694784,0.0,0.0,0.0,0.0,0.0,0.0
135813482,0.0,0.0,0.0,1.7056283,1.7274472,0.075876236,0.0,0.0,0.0,-0.061213017,0.0,0.0,0.0,0.0,0.0,0.0,0.0,0.0,101.11421,101.113464,4.062587,0.0,0.0,0.0,0.09015003,0.0,0.0,0.0,0.0,0.0,0.0014998533,0.031009395,0.11766449,0.0,0.0,0.0,0.0,0.0,0.0
136021470,0.0,0.0,0.0,1.8623834,1.6209005,0.5330391,0.0,0.0,0.0,0.011999369,0.0,0.0,0.0,0.0,0.0,0.0,0.0,0.0,101.12491,101.12441,4.063563,0.0,0.0,0.0,0.090150006,0.0,0.0,0.0,0.0,0.0,0.0013428968,0.021939894,0.08398969,0.0,0.0,0.0,0.0,0.0,0.0
136221481,0.0,0.0,0.0,2.0412161,1.4605684,-0.30983734,0.0,0.0,0.0,0.0027196407,0.0,0.0,0.0,0.0,0.0,0.0,0.0,0.0,101.12715,101.12697,4.0638294,0.0,0.0,0.0,0.09014999,0.0,0.0,0.0,0.0,0.0,0.0013458907,0.024044028,0.097819656,0.0,0.0,0.0,0.0,0.0,0.0
136420715,0.0,0.0,0.0,2.2079499,1.2926192,0.09864044,0.0,0.0,0.0,0.02547574,0.0,0.0,0.0,0.0,0.0,0.0,0.0,0.0,101.12479,101.124916,4.0636954,0.0,0.0,0.0,0.09014994,0.0,0.0,0.0,0.0,0.0,0.0013096463,0.028462468,0.11911024,0.0,0.0,0.0,0.0,0.0,0.0
136630271,0.0,0.0,0.0,2.3425548,1.1399678,0.12200737,0.0,0.0,0.0,0.02644825,0.0,0.0,0.0,0.0,0.0,0.0,0.0,0.0,101.11847,101.11886,4.063238,0.0,0.0,0.0,0.09014995,0.0,0.0,0.0,0.0,0.0,0.0013739998,0.029532539,0.12457666,0.0,0.0,0.0,0.0,0.0,0.0
136830271,0.0,0.0,0.0,2.4618304,0.99450237,-0.20499802,0.0,0.0,0.0,-0.0024883747,0.0,0.0,0.0,0.0,0.0,0.0,0.0,0.0,101.114075,101.1147,4.0629272,0.0,0.0,0.0,0.0901499,0.0,0.0,0.0,0.0,0.0,0.0014412145,0.03752546,0.1590885,0.0,0.0,0.0,0.0,0.0,0.0
137030271,0.0,0.0,0.0,2.5329478,0.88051367,-0.37609673,0.0,0.0,0.0,-0.03835416,0.0,0.0,0.0,0.0,0.0,0.0,0.0,0.0,101.11669,101.11747,4.063142,0.0,0.0,0.0,0.09014992,0.0,0.0,0.0,0.0,0.0,0.0013187478,0.0338039,0.1467064,0.0,0.0,0.0,0.0,0.0,0.0
137238271,0.0,0.0,0.0,2.5579093,0.7327053,-0.38474846,0.0,0.0,0.0,0.016549587,0.0,0.0,0.0,0.0,0.0,0.0,0.0,0.0,101.12414,101.125046,4.0637,0.0,0.0,0.0,0.09014984,0.0,0.0,0.0,0.0,0.0,0.0014738844,0.03665119,0.15556508,0.0,0.0,0.0,0.0,0.0,0.0
137438277,0.0,0.0,0.0,2.5198188,0.58719015,0.19335556,0.0,0.0,0.0,0.055943012,0.0,0.0,0.0,0.0,0.0,0.0,0.0,0.0,101.122734,101.123695,4.0635448,0.0,0.0,0.0,0.09014987,0.0,0.0,0.0,0.0,0.0,0.0013953934,0.03867858,0.16165434,0.0,0.0,0.0,0.0,0.0,0.0
137638301,0.0,0.0,0.0,2.487944,0.46919695,0.10557175,0.0,0.0,0.0,0.04664111,0.0,0.0,0.0,0.0,0.0,0.0,0.0,0.0,101.129745,101.13074,4.064047,0.0,0.0,0.0,0.09014974,0.0,0.0,0.0,0.0,0.0,0.0013875554,0.033497877,0.14497381,0.0,0.0,0.0,0.0,0.0,0.0
137846271,0.0,0.0,0.0,2.4153578,0.3585919,-0.065748215,0.0,0.0,0.0,0.121346235,0.0,0.0,0.0,0.0,0.0,0.0,0.0,0.0,101.12471,101.125694,4.063556,0.0,0.0,0.0,0.090149745,0.0,0.0,0.0,0.0,0.0,0.0015687743,0.03632406,0.15462467,0.0,0.0,0.0,0.0,0.0,0.0
138046270,0.0,0.0,0.0,2.360877,0.2885486,-0.027956009,0.0,0.0,0.0,0.124955416,0.0,0.0,0.0,0.0,0.0,0.0,0.0,0.0,101.123985,101.124954,4.063421,0.0,0.0,0.0,0.090149805,0.0,0.0,0.0,0.0,0.0,0.0019845471,0.033957545,0.14596602,0.0,0.0,0.0,0.0,0.0,0.0
138254271,0.0,0.0,0.0,2.329863,0.27447015,0.24847794,0.0,0.0,0.0,0.06267595,0.0,0.0,0.0,0.0,0.0,0.0,0.0,0.0,101.12014,101.1211,4.0630236,0.0,0.0,0.0,0.09014979,0.0,0.0,0.0,0.0,0.0,0.0024329312,0.033037495,0.14415494,0.0,0.0,0.0,0.0,0.0,0.0
138453499,0.0,0.0,0.0,2.3533437,0.3289401,-0.17004013,0.0,0.0,0.0,0.105588675,0.0,0.0,0.0,0.0,0.0,0.0,0.0,0.0,101.11969,101.12065,4.062908,0.0,0.0,0.0,0.09014977,0.0,0.0,0.0,0.0,0.0,0.002604676,0.028630467,0.12949616,0.0,0.0,0.0,0.0,0.0,0.0
138655083,0.0,0.0,0.0,2.4079013,0.43404177,-0.015232086,0.0,0.0,0.0,0.077182055,0.0,0.0,0.0,0.0,0.0,0.0,0.0,0.0,101.116585,101.117546,4.0625978,0.0,0.0,0.0,0.0901496,0.0,0.0,0.0,0.0,0.0,0.0028057776,0.024610326,0.113310665,0.0,0.0,0.0,0.0,0.0,0.0
138863071,0.0,0.0,0.0,2.5208955,0.60118884,0.19085121,0.0,0.0,0.0,0.07164955,0.0,0.0,0.0,0.0,0.0,0.0,0.0,0.0,101.12607,101.12706,4.0632567,0.0,0.0,0.0,0.09014956,0.0,0.0,0.0,0.0,0.0,0.0026687062,0.020953575,0.0942972,0.0,0.0,0.0,0.0,0.0,0.0
139063089,0.0,0.0,0.0,2.5993347,0.76224047,-0.15934563,0.0,0.0,0.0,0.058273315,0.0,0.0,0.0,0.0,0.0,0.0,0.0,0.0,101.12595,101.12694,4.06315,0.0,0.0,0.0,0.09014959,0.0,0.0,0.0,0.0,0.0,0.0021566208,0.020521859,0.085950255,0.0,0.0,0.0,0.0,0.0,0.0
139263081,0.0,0.0,0.0,2.6438994,0.9016107,0.13869858,0.0,0.0,0.0,0.024440289,0.0,0.0,0.0,0.0,0.0,0.0,0.0,0.0,101.12178,101.12274,4.062743,0.0,0.0,0.0,0.090149544,0.0,0.0,0.0,0.0,0.0,0.0018861953,0.021958271,0.08315586,0.0,0.0,0.0,0.0,0.0,0.0
139471070,0.0,0.0,0.0,2.6668072,1.0427139,-0.1679039,0.0,0.0,0.0,-0.029586792,0.0,0.0,0.0,0.0,0.0,0.0,0.0,0.0,101.119064,101.119965,4.0624523,0.0,0.0,0.0,0.09014945,0.0,0.0,0.0,0.0,0.0,0.0017525188,0.024755161,0.093282185,0.0,0.0,0.0,0.0,0.0,0.0
139671111,0.0,0.0,0.0,2.6593404,1.1711049,-0.40611076,0.0,0.0,0.0,0.16285038,0.0,0.0,0.0,0.0,0.0,0.0,0.0,0.0,101.120155,101.12098,4.062463,0.0,0.0,0.0,0.09014934,0.0,0.0,0.0,0.0,0.0,0.0020820864,0.022925979,0.088607125,0.0,0.0,0.0,0.0,0.0,0.0
139871071,0.0,0.0,0.0,2.5914218,1.3071274,-0.2800026,0.0,0.0,0.0,0.047929764,0.0,0.0,0.0,0.0,0.0,0.0,0.0,0.0,101.117,101.11769,4.0621495,0.0,0.0,0.0,0.090149365,0.0,0.0,0.0,0.0,0.0,0.0027805285,0.020571025,0.08077786,0.0,0.0,0.0,0.0,0.0,0.0
140071070,0.0,0.0,0.0,2.4717174,1.4827543,-0.09535217,0.0,0.0,0.0,0.07639551,0.0,0.0,0.0,0.0,0.0,0.0,0.0,0.0,101.11866,101.11919,4.0622077,0.0,0.0,0.0,0.09014928,0.0,0.0,0.0,0.0,0.0,0.0030249225,0.01879976,0.076539375,0.0,0.0,0.0,0.0,0.0,0.0
140278299,0.0,0.0,0.0,2.2886527,1.6835505,0.13253212,0.0,0.0,0.0,0.08667278,0.0,0.0,0.0,0.0,0.0,0.0,0.0,0.0,101.117065,101.11738,4.0620174,0.0,0.0,0.0,0.090149194,0.0,0.0,0.0,0.0,0.0,0.0027360336,0.023373099,0.096674986,0.0,0.0,0.0,0.0,0.0,0.0
140479885,0.0,0.0,0.0,2.1108332,1.8476391,0.13770294,0.0,0.0,0.0,0.12384415,0.0,0.0,0.0,0.0,0.0,0.0,0.0,0.0,101.11445,101.11456,4.061767,0.0,0.0,0.0,0.090149276,0.0,0.0,0.0,0.0,0.0,0.0023358879,0.026235705,0.10629941,0.0,0.0,0.0,0.0,0.0,0.0
140679911,0.0,0.0,0.0,1.9432384,1.9996749,-0.34404564,0.0,0.0,0.0,0.042194605,0.0,0.0,0.0,0.0,0.0,0.0,0.0,0.0,101.116806,101.11673,4.0619044,0.0,0.0,0.0,0.09014913,0.0,0.0,0.0,0.0,0.0,0.002219748,0.028153127,0.11750639,0.0,0.0,0.0,0.0,0.0,0.0
140879871,0.0,0.0,0.0,1.8104688,2.1132853,0.23656082,0.0,0.0,0.0,0.025672913,0.0,0.0,0.0,0.0,0.0,0.0,0.0,0.0,101.121826,101.1216,4.062259,0.0,0.0,0.0,0.09014921,0.0,0.0,0.0,0.0,0.0,0.0016972485,0.027364245,0.11974744,0.0,0.0,0.0,0.0,0.0,0.0
141087875,0.0,0.0,0.0,1.6988255,2.198375,-0.089571,0.0,0.0,0.0,0.1005764,0.0,0.0,0.0,0.0,0.0,0.0,0.0,0.0,101.13181,101.131454,4.0629673,0.0,0.0,0.0,0.09014931,0.0,0.0,0.0,0.0,0.0,0.0016003491,0.03144525,0.13218021,0.0,0.0,0.0,0.0,0.0,0.0
141287870,0.0,0.0,0.0,1.6167634,2.2304585,0.09797859,0.0,0.0,0.0,0.04888463,0.0,0.0,0.0,0.0,0.0,0.0,0.0,0.0,101.140945,101.14049,4.063587,0.0,0.0,0.0,0.090149485,0.0,0.0,0.0,0.0,0.0,0.0016388082,0.035951186,0.14609227,0.0,0.0,0.0,0.0,0.0,0.0
141487912,0.0,0.0,0.0,1.5515695,2.2459776,-0.1893673,0.0,0.0,0.0,0.03211856,0.0,0.0,0.0,0.0,0.0,0.0,0.0,0.0,101.15302,101.152504,4.064432,0.0,0.0,0.0,0.09014954,0.0,0.0,0.0,0.0,0.0,0.0016972424,0.034689207,0.1439399,0.0,0.0,0.0,0.0,0.0,0.0
141687870,0.0,0.0,0.0,1.4672352,2.225188,-0.18726158,0.0,0.0,0.0,0.059582233,0.0,0.0,0.0,0.0,0.0,0.0,0.0,0.0,101.151344,101.15078,4.064206,0.0,0.0,0.0,0.09014968,0.0,0.0,0.0,0.0,0.0,0.0019760858,0.035127312,0.14671056,0.0,0.0,0.0,0.0,0.0,0.0
141887871,0.0,0.0,0.0,1.3912684,2.2040915,0.2172718,0.0,0.0,0.0,0.07567096,0.0,0.0,0.0,0.0,0.0,0.0,0.0,0.0,101.153,101.1524,4.0642476,0.0,0.0,0.0,0.09014964,0.0,0.0,0.0,0.0,0.0,0.0017985199,0.03296403,0.13862309,0.0,0.0,0.0,0.0,0.0,0.0
142095882,0.0,0.0,0.0,1.2901766,2.156468,0.05416298,0.0,0.0,0.0,0.042105198,0.0,0.0,0.0,0.0,0.0,0.0,0.0,0.0,101.14717,101.146545,4.0637126,0.0,0.0,0.0,0.09014963,0.0,0.0,0.0,0.0,0.0,0.0017231731,0.03288374,0.13752747,0.0,0.0,0.0,0.0,0.0,0.0
142295097,0.0,0.0,0.0,1.2122128,2.1228635,-0.033060074,0.0,0.0,0.0,-0.017617702,0.0,0.0,0.0,0.0,0.0,0.0,0.0,0.0,101.14918,101.148544,4.063824,0.0,0.0,0.0,0.090149716,0.0,0.0,0.0,0.0,0.0,0.0015013096,0.029898094,0.12561086,0.0,0.0,0.0,0.0,0.0,0.0
142496687,0.0,0.0,0.0,1.1161824,2.0669973,0.19893837,0.0,0.0,0.0,-0.05237806,0.0,0.0,0.0,0.0,0.0,0.0,0.0,0.0,101.14756,101.14693,4.0636644,0.0,0.0,0.0,0.09014978,0.0,0.0,0.0,0.0,0.0,0.0015713609,0.031041738,0.12712118,0.0,0.0,0.0,0.0,0.0,0.0
143920670,0.0,0.0,0.0,0.67749935,1.530323,0.0918808,0.0,0.0,0.0,-0.082134366,0.0,0.0,0.0,0.0,0.0,0.0,0.0,0.0,101.11827,101.117874,4.0620403,0.0,0.0,0.0,0.09015005,0.0,0.0,0.0,0.0,0.0,0.0031686611,0.027234768,0.10675959,0.0,0.0,0.0,0.0,0.0,0.0
144120715,0.0,0.0,0.0,0.64696527,1.4341952,0.17885399,0.0,0.0,0.0,-0.10008645,0.0,0.0,0.0,0.0,0.0,0.0,0.0,0.0,101.11682,101.11647,4.0621147,0.0,0.0,0.0,0.090150036,0.0,0.0,0.0,0.0,0.0,0.003130928,0.027373655,0.10808166,0.0,0.0,0.0,0.0,0.0,0.0
144328676,0.0,0.0,0.0,0.6218925,1.335778,0.014572144,0.0,0.0,0.0,-0.1342988,0.0,0.0,0.0,0.0,0.0,0.0,0.0,0.0,101.1192,101.11889,4.062482,0.0,0.0,0.0,0.09015,0.0,0.0,0.0,0.0,0.0,0.0025019739,0.02782559,0.11130831,0.0,0.0,0.0,0.0,0.0,0.0
144528716,0.0,0.0,0.0,0.6048263,1.2296565,-0.20373917,0.0,0.0,0.0,-0.098971725,0.0,0.0,0.0,0.0,0.0,0.0,0.0,0.0,101.117134,101.11685,4.0624976,0.0,0.0,0.0,0.090150006,0.0,0.0,0.0,0.0,0.0,0.0027674013,0.027383896,0.11127488,0.0,0.0,0.0,0.0,0.0,0.0
144729490,0.0,0.0,0.0,0.6318263,1.098221,0.044208527,0.0,0.0,0.0,-0.14778972,0.0,0.0,0.0,0.0,0.0,0.0,0.0,0.0,101.111084,101.11083,4.0621877,0.0,0.0,0.0,0.09014993,0.0,0.0,0.0,0.0,0.0,0.0032238082,0.029169865,0.11381323,0.0,0.0,0.0,0.0,0.0,0.0
144937476,0.0,0.0,0.0,0.76712626,0.91075945,-0.026069641,0.0,0.0,0.0,-0.09369469,0.0,0.0,0.0,0.0,0.0,0.0,0.0,0.0,101.11852,101.11825,4.062939,0.0,0.0,0.0,0.09014992,0.0,0.0,0.0,0.0,0.0,0.0029997525,0.03247439,0.11931421,0.0,0.0,0.0,0.0,0.0,0.0
145137471,0.0,0.0,0.0,0.96849585,0.6879616,-0.15668106,0.0,0.0,0.0,-0.016697884,0.0,0.0,0.0,0.0,0.0,0.0,0.0,0.0,101.12048,101.12017,4.0632386,0.0,0.0,0.0,0.09014999,0.0,0.0,0.0,0.0,0.0,0.0024334765,0.03270529,0.1203602,0.0,0.0,0.0,0.0,0.0,0.0
145345471,0.0,0.0,0.0,1.1776158,0.463083,-0.07702637,0.0,0.0,0.0,-0.07351804,0.0,0.0,0.0,0.0,0.0,0.0,0.0,0.0,101.12176,101.12139,4.063464,0.0,0.0,0.0,0.09015006,0.0,0.0,0.0,0.0,0.0,0.0021492138,0.032051932,0.12807462,0.0,0.0,0.0,0.0,0.0,0.0
145545480,0.0,0.0,0.0,1.3347781,0.26746243,-0.020145416,0.0,0.0,0.0,-0.09550381,0.0,0.0,0.0,0.0,0.0,0.0,0.0,0.0,101.114685,101.11427,4.0630174,0.0,0.0,0.0,0.09015006,0.0,0.0,0.0,0.0,0.0,0.0018786881,0.034050405,0.14189953,0.0,0.0,0.0,0.0,0.0,0.0
145745471,0.0,0.0,0.0,1.462607,0.088778466,-0.4948311,0.0,0.0,0.0,-0.09038401,0.0,0.0,0.0,0.0,0.0,0.0,0.0,0.0,101.10821,101.10775,4.06262,0.0,0.0,0.0,0.09015003,0.0,0.0,0.0,0.0,0.0,0.0020058001,0.038740527,0.16087261,0.0,0.0,0.0,0.0,0.0,0.0
145953470,0.0,0.0,0.0,1.5829364,-0.099664815,0.0043125153,0.0,0.0,0.0,-0.061251998,0.0,0.0,0.0,0.0,0.0,0.0,0.0,0.0,101.10738,101.106865,4.0626955,0.0,0.0,0.0,0.09015007,0.0,0.0,0.0,0.0,0.0,0.0020696912,0.042470995,0.17963393,0.0,0.0,0.0,0.0,0.0,0.0
146153483,0.0,0.0,0.0,1.6450921,-0.23701888,0.37797165,0.0,0.0,0.0,-0.053958297,0.0,0.0,0.0,0.0,0.0,0.0,0.0,0.0,101.11329,101.1127,4.063257,0.0,0.0,0.0,0.09015014,0.0,0.0,0.0,0.0,0.0,0.0021534588,0.04253284,0.1870435,0.0,0.0,0.0,0.0,0.0,0.0
146354274,0.0,0.0,0.0,1.6115408,-0.3334691,-0.021053314,0.0,0.0,0.0,-0.0643605,0.0,0.0,0.0,0.0,0.0,0.0,0.0,0.0,101.10696,101.106316,4.062813,0.0,0.0,0.0,0.09015017,0.0,0.0,0.0,0.0,0.0,0.001897699,0.044000085,0.19297245,0.0,0.0,0.0,0.0,0.0,0.0
146561511,0.0,0.0,0.0,1.5016187,-0.4054691,0.60803986,0.0,0.0,0.0,-0.1436038,0.0,0.0,0.0,0.0,0.0,0.0,0.0,0.0,101.10195,101.10125,4.0624785,0.0,0.0,0.0,0.09015022,0.0,0.0,0.0,0.0,0.0,0.0016808445,0.04761698,0.19738038,0.0,0.0,0.0,0.0,0.0,0.0
146762271,0.0,0.0,0.0,1.3794867,-0.4673587,0.1873188,0.0,0.0,0.0,-0.19885218,0.0,0.0,0.0,0.0,0.0,0.0,0.0,0.0,101.10126,101.100494,4.062485,0.0,0.0,0.0,0.09015041,0.0,0.0,0.0,0.0,0.0,0.0025540143,0.045901675,0.18873528,0.0,0.0,0.0,0.0,0.0,0.0
146962277,0.0,0.0,0.0,1.2547331,-0.56237185,0.54730034,0.0,0.0,0.0,-0.22955203,0.0,0.0,0.0,0.0,0.0,0.0,0.0,0.0,101.10768,101.10684,4.063067,0.0,0.0,0.0,0.09015046,0.0,0.0,0.0,0.0,0.0,0.0039474335,0.042434182,0.17497386,0.0,0.0,0.0,0.0,0.0,0.0
147162277,0.0,0.0,0.0,1.0634216,-0.74525785,0.16425323,0.0,0.0,0.0,-0.29501987,0.0,0.0,0.0,0.0,0.0,0.0,0.0,0.0,101.10243,101.10151,4.062699,0.0,0.0,0.0,0.090150416,0.0,0.0,0.0,0.0,0.0,0.0057037757,0.04079042,0.18150799,0.0,0.0,0.0,0.0,0.0,0.0
147370290,0.0,0.0,0.0,0.8654249,-1.0045881,-0.0010108948,0.0,0.0,0.0,-0.16184592,0.0,0.0,0.0,0.0,0.0,0.0,0.0,0.0,101.112755,101.111694,4.0635757,0.0,0.0,0.0,0.0901503,0.0,0.0,0.0,0.0,0.0,0.005207473,0.04122365,0.18236324,0.0,0.0,0.0,0.0,0.0,0.0
147570271,0.0,0.0,0.0,0.6449775,-1.284053,-0.25922203,0.0,0.0,0.0,-0.11598694,0.0,0.0,0.0,0.0,0.0,0.0,0.0,0.0,101.106445,101.10526,4.063092,0.0,0.0,0.0,0.090150304,0.0,0.0,0.0,0.0,0.0,0.004623744,0.04420139,0.20228161,0.0,0.0,0.0,0.0,0.0,0.0
147770270,0.0,0.0,0.0,0.4226798,-1.5773044,0.4231701,0.0,0.0,0.0,-0.0700717,0.0,0.0,0.0,0.0,0.0,0.0,0.0,0.0,101.10476,101.10344,4.063005,0.0,0.0,0.0,0.09015025,0.0,0.0,0.0,0.0,0.0,0.0031199984,0.051592115,0.22591947,0.0,0.0,0.0,0.0,0.0,0.0
147978290,0.0,0.0,0.0,0.20266476,-1.8644977,0.103429794,0.0,0.0,0.0,-0.110556245,0.0,0.0,0.0,0.0,0.0,0.0,0.0,0.0,101.104065,101.10259,4.0630145,0.0,0.0,0.0,0.09015017,0.0,0.0,0.0,0.0,0.0,0.0028583442,0.06122444,0.26146096,0.0,0.0,0.0,0.0,0.0,0.0
148178277,0.0,0.0,0.0,0.032919575,-2.0576797,-0.07103157,0.0,0.0,0.0,-0.039266467,0.0,0.0,0.0,0.0,0.0,0.0,0.0,0.0,101.09839,101.09683,4.062613,0.0,0.0,0.0,0.09015023,0.0,0.0,0.0,0.0,0.0,0.002265804,0.06684739,0.2822147,0.0,0.0,0.0,0.0,0.0,0.0
148386277,0.0,0.0,0.0,-0.15263358,-2.2283254,-0.028522491,0.0,0.0,0.0,0.010897279,0.0,0.0,0.0,0.0,0.0,0.0,0.0,0.0,101.09391,101.0923,4.0623293,0.0,0.0,0.0,0.09015026,0.0,0.0,0.0,0.0,0.0,0.0016172077,0.07305246,0.3081145,0.0,0.0,0.0,0.0,0.0,0.0
148587124,0.0,0.0,0.0,-0.34706,-2.3339887,-0.16682053,0.0,0.0,0.0,-0.073051095,0.0,0.0,0.0,0.0,0.0,0.0,0.0,0.0,101.09317,101.09156,4.06235,0.0,0.0,0.0,0.09015025,0.0,0.0,0.0,0.0,0.0,0.0014001178,0.073592685,0.3117299,0.0,0.0,0.0,0.0,0.0,0.0
148786270,0.0,0.0,0.0,-0.5895697,-2.3594933,0.32754517,0.0,0.0,0.0,-0.018042088,0.0,0.0,0.0,0.0,0.0,0.0,0.0,0.0,101.08884,101.08734,4.062068,0.0,0.0,0.0,0.09015019,0.0,0.0,0.0,0.0,0.0,0.0011536401,0.07321911,0.3083303,0.0,0.0,0.0,0.0,0.0,0.0
148991095,0.0,0.0,0.0,-0.93043756,-2.3134902,-0.014915466,0.0,0.0,0.0,-0.054967523,0.0,0.0,0.0,0.0,0.0,0.0,0.0,0.0,101.084816,101.08356,4.061829,0.0,0.0,0.0,0.09015009,0.0,0.0,0.0,0.0,0.0,0.0012693608,0.074946985,0.31700274,0.0,0.0,0.0,0.0,0.0,0.0
149199109,0.0,0.0,0.0,-1.291591,-2.2495816,0.07068443,0.0,0.0,0.0,0.04110217,0.0,0.0,0.0,0.0,0.0,0.0,0.0,0.0,101.09432,101.09334,4.0626903,0.0,0.0,0.0,0.09015003,0.0,0.0,0.0,0.0,0.0,0.0013005444,0.066249065,0.2855503,0.0,0.0,0.0,0.0,0.0,0.0
149399070,0.0,0.0,0.0,-1.6124483,-2.1385026,0.056144714,0.0,0.0,0.0,-0.114812255,0.0,0.0,0.0,0.0,0.0,0.0,0.0,0.0,101.089165,101.088524,4.0623536,0.0,0.0,0.0,0.09015008,0.0,0.0,0.0,0.0,0.0,0.0019042676,0.067086056,0.2931228,0.0,0.0,0.0,0.0,0.0,0.0
149599071,0.0,0.0,0.0,-1.9185984,-2.0227003,0.6393242,0.0,0.0,0.0,-0.12065339,0.0,0.0,0.0,0.0,0.0,0.0,0.0,0.0,101.08526,101.084984,4.0621386,0.0,0.0,0.0,0.09014992,0.0,0.0,0.0,0.0,0.0,0.0026195901,0.073692024,0.32224548,0.0,0.0,0.0,0.0,0.0,0.0
149807082,0.0,0.0,0.0,-2.1252792,-1.9404414,0.21098328,0.0,0.0,0.0,-0.14714408,0.0,0.0,0.0,0.0,0.0,0.0,0.0,0.0,101.0849,101.08489,4.062206,0.0,0.0,0.0,0.09014981,0.0,0.0,0.0,0.0,0.0,0.0030903313,0.070844255,0.30846786,0.0,0.0,0.0,0.0,0.0,0.0
150007095,0.0,0.0,0.0,-2.2699785,-1.8922453,0.018667221,0.0,0.0,0.0,-0.14222014,0.0,0.0,0.0,0.0,0.0,0.0,0.0,0.0,101.09162,101.091805,4.062835,0.0,0.0,0.0,0.090149835,0.0,0.0,0.0,0.0,0.0,0.0030703715,0.06596526,0.28293413,0.0,0.0,0.0,0.0,0.0,0.0
150207115,0.0,0.0,0.0,-2.3538594,-1.8248963,-0.09277153,0.0,0.0,0.0,-0.0738132,0.0,0.0,0.0,0.0,0.0,0.0,0.0,0.0,101.08709,101.08743,4.0625443,0.0,0.0,0.0,0.09014976,0.0,0.0,0.0,0.0,0.0,0.0029804315,0.072458826,0.30957237,0.0,0.0,0.0,0.0,0.0,0.0
150407071,0.0,0.0,0.0,-2.4062886,-1.7706121,-0.08328247,0.0,0.0,0.0,-0.1618079,0.0,0.0,0.0,0.0,0.0,0.0,0.0,0.0,101.08631,101.08676,4.06256,0.0,0.0,0.0,0.09014968,0.0,0.0,0.0,0.0,0.0,0.0028306413,0.068607435,0.29378483,0.0,0.0,0.0,0.0,0.0,0.0
150607072,0.0,0.0,0.0,-2.4319556,-1.718081,-0.24031067,0.0,0.0,0.0,-0.06273985,0.0,0.0,0.0,0.0,0.0,0.0,0.0,0.0,101.08558,101.0861,4.062573,0.0,0.0,0.0,0.0901496,0.0,0.0,0.0,0.0,0.0,0.0029333548,0.064252764,0.2753254,0.0,0.0,0.0,0.0,0.0,0.0
150814299,0.0,0.0,0.0,-2.4271142,-1.6614485,-0.39229584,0.0,0.0,0.0,-0.05925393,0.0,0.0,0.0,0.0,0.0,0.0,0.0,0.0,101.0808,101.08136,4.062252,0.0,0.0,0.0,0.09014954,0.0,0.0,0.0,0.0,0.0,0.002773379,0.056165975,0.24054238,0.0,0.0,0.0,0.0,0.0,0.0
151015875,0.0,0.0,0.0,-2.4031713,-1.6036376,0.10797119,0.0,0.0,0.0,-0.10668445,0.0,0.0,0.0,0.0,0.0,0.0,0.0,0.0,101.077194,101.077774,4.062041,0.0,0.0,0.0,0.09014946,0.0,0.0,0.0,0.0,0.0,0.003164968,0.05706282,0.24294917,0.0,0.0,0.0,0.0,0.0,0.0
