timestamp,states[0],states[1],states[2],states[3],states[4],states[5],states[6],states[7],states[8],states[9],states[10],states[11],states[12],states[13],states[14],states[15],states[16],states[17],states[18],states[19],states[20],states[21],states[22],states[23],vibe[0],vibe[1],vibe[2],covariances[0],covariances[1],covariances[2],covariances[3],covariances[4],covariances[5],covariances[6],covariances[7],covariances[8],covariances[9],covariances[10],covariances[11],covariances[12],covariances[13],covariances[14],covariances[15],covariances[16],covariances[17],covariances[18],covariances[19],covariances[20],covariances[21],covariances[22],covariances[23],control_mode_flags,pos_horiz_accuracy,pos_vert_accuracy,mag_test_ratio,vel_test_ratio,pos_test_ratio,hgt_test_ratio,tas_test_ratio,hagl_test_ratio,beta_test_ratio,time_slip,gps_check_fail_flags,filter_fault_flags,innovation_check_flags,solution_status_flags,n_states,pre_flt_fail,health_flags,timeout_flags
100765471,0.7789329,-0.0035828406,0.0037364108,-0.627086,-0.024482226,0.020618567,-0.010718821,-0.018866563,0.014785665,0.09099883,-1.1476835e-06,-4.1586277e-06,4.4865433e-06,0.0002344073,-0.00062661385,0.0020739455,0.14609265,1.6798086e-08,0.29791352,0.0,0.0,0.0,0.0,0.0,3.8550097e-11,8.301039e-06,0.0017629988,1.5473222e-05,7.528895e-05,7.426069e-05,2.2959757e-05,0.0050227577,0.0050223297,0.012072134,0.0071457652,0.0071456716,0.061699264,9.912712e-12,9.9130695e-12,1.846866e-11,1.7509187e-06,1.8061602e-06,5e-08,0.0,0.0,0.0,0.0,0.0,0.0,0.0,0.0,531,0.1195468,0.24839337,0.053395987,0.0,0.00038284244,0.0021111744,0.0,0.0,0.0,0.015983,0,0,0,165,24,0,0,0
100965471,0.7788618,-0.003582065,0.003732978,-0.62717426,-0.02411585,0.020405063,-0.011809778,-0.01878506,0.015010493,0.08742543,-1.1766418e-06,-4.123101e-06,4.5059523e-06,0.00023462936,-0.0006267796,0.002074465,0.14609265,1.6798086e-08,0.29791352,0.0,0.0,0.0,0.0,0.0,4.104174e-11,8.502021e-06,0.001209672,1.5471353e-05,7.528958e-05,7.426075e-05,2.2956512e-05,0.0050422703,0.005041765,0.012081571,0.0071696076,0.0071694762,0.061716534,9.915074e-12,9.915467e-12,1.8466947e-11,1.7509044e-06,1.8061503e-06,5.0000036e-08,0.0,0.0,0.0,0.0,0.0,0.0,0.0,0.0,531,0.11974591,0.24842812,0.0071747163,0.0,0.0003772445,0.035785463,0.0,0.0,0.0,0.015983,0,0,0,165,24,0,0,0
101173471,0.77886885,-0.0035123383,0.003720922,-0.6271661,-0.023434553,0.020738384,-0.016187059,-0.01837316,0.0149983065,0.073483646,-1.2087276e-06,-4.083208e-06,4.469435e-06,0.00023513299,-0.00062650326,0.0020786354,0.14609265,1.6798086e-08,0.29791352,0.0,0.0,0.0,0.0,0.0,4.063114e-11,8.421286e-06,0.0008394963,1.547775e-05,7.528412e-05,7.425445e-05,2.2965703e-05,0.005009175,0.005008597,0.012023468,0.0070743724,0.007074211,0.0611667,9.9107614e-12,9.911193e-12,1.8469429e-11,1.7508905e-06,1.80614e-06,5e-08,0.0,0.0,0.0,0.0,0.0,0.0,0.0,0.0,531,0.11894782,0.24731903,0.034448568,0.0,0.00037277574,0.012168984,0.0,0.0,0.0,0.015983,0,0,0,165,24,0,0,0
101373515,0.77882224,-0.0035009272,0.0037120583,-0.62722397,-0.023167076,0.02230303,-0.017821787,-0.018705104,0.015704112,0.06668282,-1.2345431e-06,-4.0501714e-06,4.4633425e-06,0.00023528456,-0.00062657706,0.0020799343,0.14609265,1.6798086e-08,0.29791352,0.0,0.0,0.0,0.0,0.0,3.95666e-11,8.421358e-06,0.00059838116,1.54766e-05,7.530297e-05,7.427258e-05,2.2961953e-05,0.0051045907,0.0051039294,0.012146274,0.0072938763,0.0072936662,0.06213037,9.921613e-12,9.922071e-12,1.8467831e-11,1.7508787e-06,1.8061309e-06,5e-08,0.0,0.0,0.0,0.0,0.0,0.0,0.0,0.0,531,0.120778896,0.24925964,0.05038229,0.0,0.00037968185,0.00033951047,0.0,0.0,0.0,0.015983,0,0,0,165,24,0,0,0
101581471,0.77891916,-0.0034724732,0.0036978659,-0.62710387,-0.021811541,0.023591941,-0.017346492,-0.018369358,0.01614647,0.06867378,-1.2643e-06,-4.0105715e-06,4.384853e-06,0.00023507749,-0.0006265732,0.00207746,0.14609265,1.6798086e-08,0.29791352,0.0,0.0,0.0,0.0,0.0,3.8121437e-11,8.090307e-06,0.0005023465,1.5454993e-05,7.5307296e-05,7.427663e-05,2.2934282e-05,0.0051112613,0.005110533,0.012172776,0.007335295,0.007335046,0.06237648,9.920765e-12,9.921251e-12,1.8457484e-11,1.7508652e-06,1.8061198e-06,5e-08,0.0,0.0,0.0,0.0,0.0,0.0,0.0,0.0,531,0.12112118,0.24975283,0.03819925,0.0,0.0003728979,0.016372826,0.0,0.0,0.0,0.015983,0,0,0,165,24,0,0,0
101781477,0.77879673,-0.0034625784,0.0037094643,-0.6272559,-0.021001043,0.02538063,-0.018905204,-0.017808465,0.016688084,0.06530736,-1.291685e-06,-3.9718934e-06,4.429889e-06,0.00023502053,-0.0006270582,0.0020775297,0.14609265,1.6798086e-08,0.29791352,0.0,0.0,0.0,0.0,0.0,3.7512816e-11,8.125874e-06,0.00063949556,1.5480453e-05,7.531051e-05,7.42791e-05,2.2969445e-05,0.0050998535,0.005099076,0.012165295,0.0073180567,0.0073177726,0.062315274,9.918412e-12,9.9189225e-12,1.8468914e-11,1.7508519e-06,1.8061093e-06,5.000004e-08,0.0,0.0,0.0,0.0,0.0,0.0,0.0,0.0,531,0.12097863,0.24963027,0.082882516,0.0,0.00035803174,0.00046290967,0.0,0.0,0.0,0.015983,0,0,0,165,24,0,0,0
101980706,0.7787399,-0.0034528251,0.003700339,-0.62732655,-0.020287149,0.027283786,-0.021593634,-0.017277729,0.017433956,0.054424714,-1.3175999e-06,-3.9327997e-06,4.439631e-06,0.00023516463,-0.00062720245,0.0020801604,0.14609265,1.6798086e-08,0.29791352,0.0,0.0,0.0,0.0,0.0,3.8030423e-11,7.9743495e-06,0.0020599873,1.545242e-05,7.531733e-05,7.428537e-05,2.2927441e-05,0.005102245,0.00510142,0.012167349,0.0073206313,0.007320308,0.062303327,9.918699e-12,9.9192295e-12,1.8454759e-11,1.7508389e-06,1.8060973e-06,5e-08,0.0,0.0,0.0,0.0,0.0,0.0,0.0,0.0,531,0.120999746,0.24960634,0.029617997,0.0,0.0003450092,0.0015401997,0.0,0.0,0.0,0.015983,0,0,0,165,24,0,0,0
102190271,0.7786847,-0.0034262927,0.0037151715,-0.6273952,-0.018746933,0.028377216,-0.018882483,-0.016478885,0.018088436,0.059941463,-1.3443131e-06,-3.8884027e-06,4.4409e-06,0.00023473318,-0.00062772934,0.0020761867,0.14609265,1.6798086e-08,0.29791352,0.0,0.0,0.0,0.0,0.0,3.59708e-11,7.756869e-06,0.0017863564,1.5459627e-05,7.531711e-05,7.428447e-05,2.2936352e-05,0.005055905,0.0050550564,0.012102105,0.0072028963,0.0072025475,0.061717466,9.91582e-12,9.916367e-12,1.8460431e-11,1.7508241e-06,1.8060844e-06,5e-08,0.0,0.0,0.0,0.0,0.0,0.0,0.0,0.0,531,0.120022684,0.24843,0.026414445,0.0,0.00036199292,0.026032316,0.0,0.0,0.0,0.015983,0,0,0,165,24,0,0,0
102390296,0.7786611,-0.0034361992,0.0036976733,-0.6274246,-0.01904424,0.029532136,-0.020218987,-0.016043438,0.019057889,0.05402242,-1.3671219e-06,-3.8469097e-06,4.43747e-06,0.00023469285,-0.0006279072,0.0020769478,0.14609265,1.6798086e-08,0.29791352,0.0,0.0,0.0,0.0,0.0,3.416666e-11,7.969091e-06,0.0011785566,1.5457332e-05,7.532666e-05,7.429354e-05,2.2934772e-05,0.0050723944,0.0050715297,0.012115278,0.007231991,0.007231606,0.061799083,9.918917e-12,9.919476e-12,1.846086e-11,1.7508119e-06,1.8060729e-06,5.0000036e-08,0.0,0.0,0.0,0.0,0.0,0.0,0.0,0.0,531,0.120264694,0.24859421,0.025760893,0.0,0.00038195975,0.010916558,0.0,0.0,0.0,0.015983,0,0,0,165,24,0,0,0
102590271,0.7785133,-0.0034054222,0.0036732885,-0.6276082,-0.019539582,0.03076538,-0.024871754,-0.015737593,0.01996463,0.036511127,-1.3887206e-06,-3.8039834e-06,4.51583e-06,0.00023501417,-0.0006281856,0.0020825353,0.14609265,1.6798086e-08,0.29791352,0.0,0.0,0.0,0.0,0.0,3.339691e-11,7.79522e-06,0.0015658741,1.5455338e-05,7.5333366e-05,7.429954e-05,2.293225e-05,0.005078542,0.00507767,0.012124072,0.0072468338,0.0072464217,0.061836246,9.919109e-12,9.919668e-12,1.8459435e-11,1.7508005e-06,1.806062e-06,5e-08,0.0,0.0,0.0,0.0,0.0,0.0,0.0,0.0,531,0.120387934,0.24866895,0.051583633,0.0,0.0004052197,0.03816229,0.0,0.0,0.0,0.015983,0,0,0,165,24,0,0,0
102798318,0.77840424,-0.0033712797,0.0036655057,-0.6277438,-0.019899927,0.031663015,-0.028023155,-0.015646419,0.020957619,0.024803473,-1.4101752e-06,-3.7579337e-06,4.555413e-06,0.00023513247,-0.00062843633,0.0020851707,0.14609265,1.6798086e-08,0.29791352,0.0,0.0,0.0,0.0,0.0,3.8310764e-11,7.987058e-06,0.0010368082,1.5462732e-05,7.53411e-05,7.4306474e-05,2.2941309e-05,0.005097592,0.005096724,0.012160996,0.007307016,0.0073065786,0.06214735,9.9212236e-12,9.921775e-12,1.846307e-11,1.7507903e-06,1.8060518e-06,5.0000036e-08,0.0,0.0,0.0,0.0,0.0,0.0,0.0,0.0,531,0.120886706,0.2492937,0.043933097,0.0,0.00042023967,0.011972882,0.0,0.0,0.0,0.015983,0,0,0,165,24,0,0,0
102998277,0.7782181,-0.0033935788,0.0036737444,-0.6279742,-0.019301873,0.032302056,-0.028404683,-0.015420211,0.021677317,0.020681001,-1.4302889e-06,-3.7113637e-06,4.6561568e-06,0.00023501084,-0.00062914577,0.002084835,0.14609265,1.6798086e-08,0.29791352,0.0,0.0,0.0,0.0,0.0,3.4186497e-11,7.852824e-06,0.0007262743,1.5435344e-05,7.534291e-05,7.430791e-05,2.289958e-05,0.005089109,0.0050882692,0.012157629,0.007296976,0.0072965305,0.062125936,9.919482e-12,9.920018e-12,1.8448802e-11,1.75078e-06,1.8060416e-06,5e-08,0.0,0.0,0.0,0.0,0.0,0.0,0.0,0.0,531,0.12080359,0.24925075,0.023398759,0.0,0.00043470017,0.021729074,0.0,0.0,0.0,0.015983,0,0,0,165,24,0,0,0
103198281,0.7781866,-0.0033727759,0.0036586777,-0.62801343,-0.018710319,0.033406686,-0.028371898,-0.0151566835,0.022399643,0.012887002,-1.4502817e-06,-3.663079e-06,4.6269515e-06,0.00023505917,-0.0006291441,0.002085594,0.14609265,1.6798086e-08,0.29791352,0.0,0.0,0.0,0.0,0.0,3.267027e-11,8.127784e-06,0.00056462147,1.5435795e-05,7.53453e-05,7.4309544e-05,2.28951e-05,0.0050851367,0.0050843344,0.012156777,0.007292797,0.0072923456,0.062118087,9.918604e-12,9.9191245e-12,1.8447554e-11,1.75077e-06,1.806032e-06,5e-08,0.0,0.0,0.0,0.0,0.0,0.0,0.0,0.0,531,0.120768964,0.249235,0.0035089513,0.0,0.00044921378,0.0027833935,0.0,0.0,0.0,0.015983,0,0,0,165,24,0,0,0
103398271,0.7781413,-0.003341808,0.0036485745,-0.6280698,-0.019061372,0.03348923,-0.021725575,-0.014948144,0.023059106,0.027833173,-1.4688725e-06,-3.6140646e-06,4.6355444e-06,0.0002344424,-0.00062983413,0.0020775956,0.14609265,1.6798086e-08,0.29791352,0.0,0.0,0.0,0.0,0.0,3.501803e-11,8.180473e-06,0.002244068,1.5433916e-05,7.5347285e-05,7.431111e-05,2.2893024e-05,0.0050835637,0.0050828187,0.012156894,0.00729099,0.007290539,0.06211571,9.9180195e-12,9.918523e-12,1.8446305e-11,1.7507608e-06,1.8060239e-06,5e-08,0.0,0.0,0.0,0.0,0.0,0.0,0.0,0.0,531,0.120754,0.24923024,0.014601874,0.0,0.00046256444,2.3278544e-05,0.0,0.0,0.0,0.015983,0,0,0,165,24,0,0,0
103599077,0.77819115,-0.0033509522,0.0036280218,-0.6280081,-0.018201953,0.03349321,-0.018609747,-0.014805881,0.023707945,0.036101084,-1.4872868e-06,-3.5638916e-06,4.572116e-06,0.00023410884,-0.00063001044,0.0020724998,0.14609265,1.6798086e-08,0.29791352,0.0,0.0,0.0,0.0,0.0,3.6286783e-11,7.950335e-06,0.0026115135,1.5432941e-05,7.535067e-05,7.431431e-05,2.289138e-05,0.005092805,0.0050921394,0.012162895,0.0073055234,0.0073050777,0.062170193,9.921609e-12,9.922089e-12,1.8448451e-11,1.7507516e-06,1.8060159e-06,5.0000036e-08,0.0,0.0,0.0,0.0,0.0,0.0,0.0,0.0,531,0.12087432,0.2493395,0.026098557,0.0,0.00047024572,0.011912809,0.0,0.0,0.0,0.015983,0,0,0,165,24,0,0,0
103807096,0.7781524,-0.0033850593,0.003593569,-0.6280563,-0.017518187,0.03284215,-0.018306337,-0.014287574,0.023768332,0.035720613,-1.5066822e-06,-3.5079393e-06,4.55809e-06,0.00023406548,-0.00063022826,0.0020710502,0.14609265,1.6798086e-08,0.29791352,0.0,0.0,0.0,0.0,0.0,3.6553864e-11,7.888731e-06,0.0018471105,1.5441057e-05,7.534312e-05,7.430657e-05,2.290066e-05,0.00504594,0.005045384,0.012097271,0.0071887067,0.007188292,0.06160564,9.917553e-12,9.918005e-12,1.8453353e-11,1.7507414e-06,1.8060074e-06,5.0000036e-08,0.0,0.0,0.0,0.0,0.0,0.0,0.0,0.0,531,0.11990412,0.24820483,0.023175055,0.0,0.0004769518,0.0034448789,0.0,0.0,0.0,0.015983,0,0,0,165,24,0,0,0
104007114,0.77816904,-0.0033943807,0.003585495,-0.6280356,-0.016772231,0.032833986,-0.015002096,-0.014048044,0.02410408,0.04250036,-1.5235171e-06,-3.4570915e-06,4.5016477e-06,0.00023388553,-0.0006303823,0.0020668681,0.14609265,1.6798086e-08,0.29791352,0.0,0.0,0.0,0.0,0.0,3.7297092e-11,8.165632e-06,0.001234748,1.5441114e-05,7.534501e-05,7.430811e-05,2.2897042e-05,0.0050600497,0.0050595826,0.012109615,0.007213279,0.0072128866,0.061675917,9.919198e-12,9.919623e-12,1.845228e-11,1.7507328e-06,1.806e-06,5.000004e-08,0.0,0.0,0.0,0.0,0.0,0.0,0.0,0.0,531,0.12010898,0.24834636,0.07908623,0.0,0.00048375916,0.015279336,0.0,0.0,0.0,0.015983,0,0,0,165,24,0,0,0
104207083,0.77818227,-0.0034101976,0.003551015,-0.6280193,-0.016817078,0.032757293,-0.015094336,-0.013771492,0.024387771,0.042333104,-1.5396998e-06,-3.4060126e-06,4.4645044e-06,0.00023394667,-0.0006304582,0.0020655799,0.14609265,1.6798086e-08,0.29791352,0.0,0.0,0.0,0.0,0.0,3.8445375e-11,8.256199e-06,0.00083634385,1.5413725e-05,7.5345415e-05,7.430839e-05,2.28564e-05,0.0050737388,0.0050733536,0.012122699,0.0072387056,0.0072383415,0.06175224,9.920545e-12,9.920937e-12,1.8438327e-11,1.7507244e-06,1.8059918e-06,5e-08,0.0,0.0,0.0,0.0,0.0,0.0,0.0,0.0,531,0.1203206,0.24849999,0.027108092,0.0,0.00048419024,0.011289591,0.0,0.0,0.0,0.015983,0,0,0,165,24,0,0,0
104415081,0.778142,-0.0034629372,0.0035167097,-0.62806904,-0.016629294,0.031478252,-0.018381925,-0.013391576,0.024087751,0.02885237,-1.5570222e-06,-3.349636e-06,4.4490343e-06,0.00023442695,-0.00063035433,0.002069545,0.14609265,1.6798086e-08,0.29791352,0.0,0.0,0.0,0.0,0.0,3.93586e-11,8.294728e-06,0.00058024103,1.5422276e-05,7.533521e-05,7.429818e-05,2.2865921e-05,0.005035097,0.0050347927,0.0120668905,0.007142674,0.007142356,0.061257917,9.915555e-12,9.9159144e-12,1.8441571e-11,1.7507142e-06,1.8059832e-06,5.0000036e-08,0.0,0.0,0.0,0.0,0.0,0.0,0.0,0.0,531,0.11952,0.24750337,0.015367552,0.0,0.00048359632,0.029165875,0.0,0.0,0.0,0.015983,0,0,0,165,24,0,0,0
104615077,0.77814806,-0.0035073939,0.0035145245,-0.62806135,-0.016073288,0.029965641,-0.01594713,-0.013193398,0.02396087,0.03349753,-1.5722209e-06,-3.2988112e-06,4.404972e-06,0.00023438706,-0.0006305275,0.0020661075,0.14609265,1.6798086e-08,0.29791352,0.0,0.0,0.0,0.0,0.0,3.9659987e-11,8.050752e-06,0.00069840247,1.5396417e-05,7.533405e-05,7.4296906e-05,2.2824954e-05,0.0050501474,0.0050499076,0.012083737,0.0071745245,0.007174241,0.061364833,9.916967e-12,9.9172935e-12,1.8427971e-11,1.750705e-06,1.805975e-06,5e-08,0.0,0.0,0.0,0.0,0.0,0.0,0.0,0.0,531,0.11978634,0.24771926,0.01315291,0.0,0.00048130407,0.016185233,0.0,0.0,0.0,0.015983,0,0,0,165,24,0,0,0
104815077,0.77812123,-0.0035267158,0.0035426638,-0.62809414,-0.016321065,0.029724248,-0.014234016,-0.013364211,0.024330378,0.034320645,-1.5856409e-06,-3.253362e-06,4.3940486e-06,0.00023445394,-0.000630724,0.002064566,0.14609265,1.6798086e-08,0.29791352,0.0,0.0,0.0,0.0,0.0,4.1748896e-11,7.981792e-06,0.0012010428,1.5396288e-05,7.5346965e-05,7.430964e-05,2.2824132e-05,0.0051466567,0.0051464564,0.012210112,0.00740522,0.0074049584,0.062416874,9.9293785e-12,9.929677e-12,1.8429295e-11,1.7506968e-06,1.8059677e-06,5.0000054e-08,0.0,0.0,0.0,0.0,0.0,0.0,0.0,0.0,531,0.121697076,0.24983369,0.012905997,0.0,0.00048859435,0.004933561,0.0,0.0,0.0,0.015983,0,0,0,165,24,0,0,0
105022301,0.77817416,-0.0035913142,0.0035273766,-0.6280284,-0.016162535,0.028091818,-0.01592114,-0.012863433,0.023320975,0.028221285,-1.6029604e-06,-3.1959325e-06,4.3208574e-06,0.00023481257,-0.00063055573,0.0020656255,0.14609265,1.6798086e-08,0.29791352,0.0,0.0,0.0,0.0,0.0,4.2727256e-11,8.186942e-06,0.0021544197,1.5404317e-05,7.532645e-05,7.4289055e-05,2.2834656e-05,0.0050655883,0.005065444,0.012126337,0.0072424957,0.0072422866,0.061756067,9.91821e-12,9.918477e-12,1.8432365e-11,1.7506866e-06,1.8059591e-06,5e-08,0.0,0.0,0.0,0.0,0.0,0.0,0.0,0.0,531,0.12035274,0.24850768,0.044823516,0.0,0.00047332447,0.004215505,0.0,0.0,0.0,0.015983,0,0,0,165,24,0,0,0
105223871,0.77812874,-0.003623493,0.0035189213,-0.62808454,-0.016168375,0.02710524,-0.0208711,-0.01302584,0.023319725,0.013683749,-1.6165109e-06,-3.151561e-06,4.30086e-06,0.00023531305,-0.0006303903,0.0020699778,0.14609265,1.6798086e-08,0.29791352,0.0,0.0,0.0,0.0,0.0,3.9803195e-11,8.231822e-06,0.0028530555,1.5379677e-05,7.533677e-05,7.429895e-05,2.2793067e-05,0.005146435,0.005146323,0.012240807,0.007440049,0.0074398653,0.06269288,9.928775e-12,9.929018e-12,1.842003e-11,1.7506784e-06,1.8059516e-06,5e-08,0.0,0.0,0.0,0.0,0.0,0.0,0.0,0.0,531,0.12198325,0.25038546,0.0138407,0.0,0.00046499455,0.019383391,0.0,0.0,0.0,0.015983,0,0,0,165,24,0,0,0
105423871,0.77807933,-0.0036485961,0.0034973095,-0.62814575,-0.01680213,0.026170513,-0.018911216,-0.012860193,0.022527318,0.014200195,-1.6317243e-06,-3.1021038e-06,4.291935e-06,0.00023538063,-0.00063062826,0.0020681012,0.14609265,1.6798086e-08,0.29791352,0.0,0.0,0.0,0.0,0.0,4.1261026e-11,8.308466e-06,0.001813018,1.5381109e-05,7.532837e-05,7.429022e-05,2.2791974e-05,0.005128406,0.0051283212,0.01222678,0.007416684,0.0074165342,0.062688395,9.929206e-12,9.929426e-12,1.8424248e-11,1.7506692e-06,1.8059429e-06,5e-08,0.0,0.0,0.0,0.0,0.0,0.0,0.0,0.0,531,0.1217917,0.2503765,0.027078986,0.0,0.0004530577,0.0056136977,0.0,0.0,0.0,0.015983,0,0,0,165,24,0,0,0
105623871,0.7780375,-0.003675139,0.003490295,-0.62819743,-0.017394118,0.024595773,-0.020180047,-0.012871973,0.021731926,0.005153028,-1.6470152e-06,-3.0549734e-06,4.2737256e-06,0.00023574074,-0.00063060597,0.002070043,0.14609265,1.6798086e-08,0.29791352,0.0,0.0,0.0,0.0,0.0,4.0676254e-11,8.580346e-06,0.001185405,1.5382297e-05,7.532129e-05,7.428295e-05,2.2789609e-05,0.0051176236,0.0051175416,0.012217222,0.0073974803,0.0073973564,0.062651806,9.927623e-12,9.927826e-12,1.8423865e-11,1.75066e-06,1.8059337e-06,5.0000036e-08,0.0,0.0,0.0,0.0,0.0,0.0,0.0,0.0,531,0.12163403,0.25030342,0.032383144,0.0,0.00043310106,0.01902418,0.0,0.0,0.0,0.015983,0,0,0,165,24,0,0,0
105831877,0.7779173,-0.0036586092,0.0034406455,-0.6283466,-0.018093009,0.024440747,-0.017719714,-0.013211611,0.02114227,0.009356642,-1.6621738e-06,-3.010066e-06,4.3275154e-06,0.00023567681,-0.00063112366,0.002066935,0.14609265,1.6798086e-08,0.29791352,0.0,0.0,0.0,0.0,0.0,3.88272e-11,8.339509e-06,0.0008054841,1.5390202e-05,7.5320975e-05,7.4282434e-05,2.2801138e-05,0.0051451726,0.0051450753,0.01225252,0.0074618114,0.0074617076,0.06297446,9.930805e-12,9.930996e-12,1.8427681e-11,1.7506497e-06,1.8059242e-06,5.000007e-08,0.0,0.0,0.0,0.0,0.0,0.0,0.0,0.0,531,0.12216185,0.25094712,0.06511613,0.0,0.00042128647,0.00509654,0.0,0.0,0.0,0.015983,0,0,0,165,24,0,0,0
106031871,0.7777645,-0.0036570646,0.0033825717,-0.6285361,-0.017835474,0.023390325,-0.021029739,-0.013287183,0.020432867,0.00052796485,-1.6783523e-06,-2.965787e-06,4.390359e-06,0.00023597374,-0.00063138816,0.0020690416,0.14609265,1.6798086e-08,0.29791352,0.0,0.0,0.0,0.0,0.0,3.9092257e-11,8.437048e-06,0.0005621127,1.5365395e-05,7.5312724e-05,7.4273856e-05,2.2760807e-05,0.0051305247,0.0051304144,0.012237132,0.0074327174,0.00743263,0.06290027,9.928565e-12,9.92875e-12,1.8414664e-11,1.7506395e-06,1.8059146e-06,5e-08,0.0,0.0,0.0,0.0,0.0,0.0,0.0,0.0,531,0.12192353,0.25079927,0.012985881,0.0,0.00040715633,0.009538003,0.0,0.0,0.0,0.015983,0,0,0,165,24,0,0,0
106239878,0.77782243,-0.0036547408,0.0033329204,-0.6284648,-0.017239379,0.02204146,-0.017959163,-0.013359211,0.01975146,0.0050724642,-1.6957308e-06,-2.9214361e-06,4.31151e-06,0.00023600784,-0.00063140923,0.002065499,0.14609265,1.6798086e-08,0.29791352,0.0,0.0,0.0,0.0,0.0,3.6628825e-11,8.412133e-06,0.00070179894,1.5374253e-05,7.530883e-05,7.426983e-05,2.2772221e-05,0.0051412964,0.0051411674,0.012257688,0.007468455,0.0074683772,0.06313752,9.929336e-12,9.929521e-12,1.8418694e-11,1.7506296e-06,1.8059059e-06,5.0000075e-08,0.0,0.0,0.0,0.0,0.0,0.0,0.0,0.0,531,0.12221634,0.25127178,0.02359663,0.0,0.0003938271,0.0020019747,0.0,0.0,0.0,0.015983,0,0,0,165,24,0,0,0
106439909,0.77788275,-0.0036870346,0.0033312938,-0.62838984,-0.01684393,0.02047251,-0.013725719,-0.012844305,0.018360572,0.01621427,-1.7148458e-06,-2.8747234e-06,4.238148e-06,0.00023586246,-0.000631591,0.0020593496,0.14609265,1.6798086e-08,0.29791352,0.0,0.0,0.0,0.0,0.0,3.851699e-11,8.33171e-06,0.0007482897,1.5374448e-05,7.52843e-05,7.424514e-05,2.2771903e-05,0.005036066,0.005035925,0.0121204285,0.0072227255,0.0072226543,0.062061187,9.916712e-12,9.916903e-12,1.8419042e-11,1.7506194e-06,1.8058979e-06,5e-08,0.0,0.0,0.0,0.0,0.0,0.0,0.0,0.0,531,0.12018893,0.24912083,0.044946056,0.0,0.00037261436,0.047502175,0.0,0.0,0.0,0.015983,0,0,0,165,24,0,0,0
106644679,0.7778415,-0.0036994535,0.0033314934,-0.62844086,-0.016456239,0.019637771,-0.014368829,-0.012863336,0.017786762,0.013810568,-1.7318893e-06,-2.8350123e-06,4.226348e-06,0.00023603588,-0.0006316805,0.002059126,0.14609265,1.6798086e-08,0.29791352,0.0,0.0,0.0,0.0,0.0,3.602507e-11,8.056143e-06,0.001420152,1.5383743e-05,7.528533e-05,7.424592e-05,2.278321e-05,0.0050675618,0.005067403,0.012152812,0.0072842864,0.0072842133,0.062343597,9.921485e-12,9.921685e-12,1.8423959e-11,1.7506102e-06,1.8058911e-06,5.0000036e-08,0.0,0.0,0.0,0.0,0.0,0.0,0.0,0.0,531,0.12070004,0.249687,0.005501747,0.0,0.00035780304,0.011120578,0.0,0.0,0.0,0.015983,0,0,0,165,24,0,0,0
106844717,0.7777979,-0.0037166884,0.0033267667,-0.62849474,-0.015051128,0.01887933,-0.015571465,-0.012564561,0.01697209,0.011439,-1.748608e-06,-2.7973467e-06,4.234195e-06,0.00023618394,-0.00063183124,0.0020591216,0.14609265,1.6798086e-08,0.29791352,0.0,0.0,0.0,0.0,0.0,4.0121868e-11,8.35413e-06,0.0012734844,1.5381946e-05,7.527909e-05,7.4239746e-05,2.2781505e-05,0.005055319,0.005055137,0.012142126,0.007247183,0.007247106,0.06214193,9.915458e-12,9.915674e-12,1.8416818e-11,1.750601e-06,1.8058851e-06,5.0000025e-08,0.0,0.0,0.0,0.0,0.0,0.0,0.0,0.0,531,0.120392226,0.24928282,0.008784105,0.0,0.00034168948,0.05268992,0.0,0.0,0.0,0.015983,0,0,0,165,24,0,0,0
107044671,0.7777704,-0.0037167515,0.003308434,-0.62852883,-0.015090698,0.018081864,-0.013245218,-0.012339616,0.016335545,0.014756953,-1.7649621e-06,-2.761346e-06,4.218633e-06,0.00023611209,-0.00063204195,0.0020568043,0.14609265,1.6798086e-08,0.29791352,0.0,0.0,0.0,0.0,0.0,3.615225e-11,7.843883e-06,0.0010819682,1.5382688e-05,7.5282194e-05,7.424261e-05,2.278123e-05,0.0050743693,0.005074164,0.0121479705,0.007269586,0.007269504,0.062186066,9.9202035e-12,9.92044e-12,1.8419408e-11,1.7505922e-06,1.805879e-06,5.0000036e-08,0.0,0.0,0.0,0.0,0.0,0.0,0.0,0.0,531,0.12057815,0.24937133,0.0018875638,0.0,0.0003253584,0.01522041,0.0,0.0,0.0,0.015983,0,0,0,165,24,0,0,0
107252685,0.77774364,-0.0037271285,0.0033109048,-0.62856185,-0.014876589,0.01714877,-0.012897245,-0.011931794,0.015414108,0.017524138,-1.7829586e-06,-2.7229817e-06,4.1903722e-06,0.00023597323,-0.00063225365,0.002054404,0.14609265,1.6798086e-08,0.29791352,0.0,0.0,0.0,0.0,0.0,3.6068034e-11,8.129482e-06,0.00079963345,1.5366524e-05,7.527825e-05,7.423846e-05,2.2753402e-05,0.0050358623,0.005035629,0.012081981,0.007161151,0.0071610636,0.061612662,9.915341e-12,9.915604e-12,1.8410523e-11,1.7505822e-06,1.8058723e-06,5e-08,0.0,0.0,0.0,0.0,0.0,0.0,0.0,0.0,531,0.11967546,0.24821898,0.016075682,0.0,0.00031278937,0.013459996,0.0,0.0,0.0,0.015983,0,0,0,165,24,0,0,0
107452677,0.77756715,-0.0037267455,0.0033411994,-0.62878,-0.0148014575,0.01736464,-0.016098512,-0.0120884,0.015271106,0.005692035,-1.7972668e-06,-2.6933567e-06,4.2792703e-06,0.00023609013,-0.00063255854,0.0020582732,0.14609265,1.6798086e-08,0.29791352,0.0,0.0,0.0,0.0,0.0,3.905681e-11,8.367349e-06,0.0005955824,1.536733e-05,7.529883e-05,7.425889e-05,2.2752556e-05,0.005128666,0.00512839,0.012199264,0.007374512,0.0073744096,0.06256556,9.925989e-12,9.926275e-12,1.8410343e-11,1.7505732e-06,1.8058661e-06,5.0000004e-08,0.0,0.0,0.0,0.0,0.0,0.0,0.0,0.0,531,0.12144514,0.25013107,0.053747572,0.0,0.00030432682,0.018571688,0.0,0.0,0.0,0.015983,0,0,0,165,24,0,0,0
107660677,0.7775622,-0.0037707663,0.003322959,-0.6287859,-0.014441577,0.016986491,-0.014300333,-0.011879842,0.014790557,0.0118367085,-1.8140597e-06,-2.6593711e-06,4.2423385e-06,0.00023577992,-0.00063282857,0.0020544669,0.14609265,1.6798086e-08,0.29791352,0.0,0.0,0.0,0.0,0.0,3.9392715e-11,8.464677e-06,0.00052791025,1.5376561e-05,7.530707e-05,7.426698e-05,2.2763845e-05,0.00514263,0.0051423064,0.012226685,0.007422902,0.007422787,0.06282913,9.926352e-12,9.926666e-12,1.8414263e-11,1.7505621e-06,1.8058579e-06,5.0000036e-08,0.0,0.0,0.0,0.0,0.0,0.0,0.0,0.0,531,0.12184289,0.25065738,0.021938417,0.0,0.0002975054,0.022367902,0.0,0.0,0.0,0.015983,0,0,0,165,24,0,0,0
107860719,0.7776151,-0.0037841029,0.003298359,-0.62872076,-0.014710186,0.016069781,-0.013619599,-0.011662202,0.014224299,0.011785814,-1.830693e-06,-2.6265664e-06,4.1860767e-06,0.00023566616,-0.00063291803,0.0020533556,0.14609265,1.6798086e-08,0.29791352,0.0,0.0,0.0,0.0,0.0,4.039989e-11,8.5357915e-06,0.00048056463,1.53757e-05,7.531181e-05,7.427159e-05,2.2764507e-05,0.0051277205,0.005127355,0.012213122,0.007397839,0.0073977136,0.0627482,9.923696e-12,9.9240425e-12,1.8414143e-11,1.7505498e-06,1.8058488e-06,5.000004e-08,0.0,0.0,0.0,0.0,0.0,0.0,0.0,0.0,531,0.12163697,0.2504959,0.025211766,0.0,0.00028353382,0.02770427,0.0,0.0,0.0,0.015983,0,0,0,165,24,0,0,0
108060671,0.77765095,-0.0038101068,0.0032748827,-0.62867624,-0.014272659,0.015301176,-0.00788519,-0.011232496,0.01331295,0.025516236,-1.8485056e-06,-2.592205e-06,4.1334897e-06,0.00023515745,-0.00063327525,0.0020468284,0.14609265,1.6798086e-08,0.29791352,0.0,0.0,0.0,0.0,0.0,3.987826e-11,8.543194e-06,0.0008606804,1.5375539e-05,7.5304546e-05,7.426426e-05,2.2764605e-05,0.0050344304,0.0050340276,0.0120902,0.007179645,0.0071795094,0.061741672,9.911771e-12,9.9121536e-12,1.841391e-11,1.7505362e-06,1.8058388e-06,5e-08,0.0,0.0,0.0,0.0,0.0,0.0,0.0,0.0,531,0.119829684,0.24847871,0.015082652,0.0,0.0002701599,0.017004183,0.0,0.0,0.0,0.015983,0,0,0,165,24,0,0,0
108269490,0.77756983,-0.0038274194,0.0032627638,-0.62877655,-0.0146293435,0.014614797,-0.0098434985,-0.01125638,0.012936971,0.024085512,-1.8641613e-06,-2.563176e-06,4.1544686e-06,0.00023502306,-0.000633556,0.0020467876,0.14609265,1.6798086e-08,0.29791352,0.0,0.0,0.0,0.0,0.0,9.5832314e-11,1.0666006e-05,0.0019341423,1.5358613e-05,7.5321244e-05,7.428086e-05,2.2738028e-05,0.005078601,0.0050781425,0.012137594,0.0072679124,0.007267755,0.062097926,9.9178174e-12,9.918231e-12,1.8405992e-11,1.750524e-06,1.8058306e-06,5.0000008e-08,0.0,0.0,0.0,0.0,0.0,0.0,0.0,0.0,531,0.120563954,0.24919455,0.030427665,0.0,0.0002578007,0.020414133,0.0,0.0,0.0,0.015983,0,0,0,165,24,0,0,0
108469482,0.77756625,-0.0038115678,0.003251341,-0.62878126,-0.014229722,0.01430663,-0.012960388,-0.010940376,0.012226508,0.016308017,-1.8819414e-06,-2.5316651e-06,4.106817e-06,0.00023512327,-0.0006335502,0.0020488217,0.14609265,1.6798086e-08,0.29791352,0.0,0.0,0.0,0.0,0.0,3.211081e-10,2.2117114e-05,0.0014619797,1.5360818e-05,7.53184e-05,7.427765e-05,2.2736676e-05,0.005008124,0.0050076265,0.0120325,0.007091064,0.0070908964,0.06122118,9.910736e-12,9.911185e-12,1.8408289e-11,1.7505114e-06,1.8058217e-06,5e-08,0.0,0.0,0.0,0.0,0.0,0.0,0.0,0.0,531,0.11908804,0.24742913,0.031053746,0.0,0.00024807497,0.003104968,0.0,0.0,0.0,0.015983,0,0,0,165,24,0,0,0
108669518,0.7776522,-0.0038509343,0.0032681192,-0.6286745,-0.0156987,0.015488766,-0.014377092,-0.0125858905,0.013737031,0.017084025,-1.8893732e-06,-2.5187353e-06,4.020145e-06,0.00023509056,-0.00063343893,0.0020471616,0.14609265,1.6798086e-08,0.29791352,0.0,0.0,0.0,0.0,0.0,7.960915e-10,3.83295e-05,0.0013101096,1.5360707e-05,7.540563e-05,7.436495e-05,2.2737193e-05,0.0054868767,0.005486275,0.012154613,0.008217212,0.008216962,0.062192548,9.967915e-12,9.968373e-12,1.8408178e-11,1.7505037e-06,1.8058172e-06,5e-08,0.0,0.0,0.0,0.0,0.0,0.0,0.0,0.0,659,0.12819584,0.24938434,0.07174858,0.0,1.3615157e-05,0.0053269486,0.0,0.0,0.0,0.015983,0,0,0,165,24,0,0,0
108869483,0.7777311,-0.003717117,0.003276246,-0.62857765,-0.017827408,0.01726641,-0.015107555,-0.015885703,0.016946815,0.019561267,-1.8897628e-06,-2.518031e-06,3.936144e-06,0.00023504367,-0.00063327834,0.002044818,0.14609265,1.6798086e-08,0.29791352,0.0,0.0,0.0,0.0,0.0,7.905421e-09,0.00012633829,0.0031811476,1.5360509e-05,7.555802e-05,7.451646e-05,2.2737282e-05,0.006407769,0.0064069955,0.012152959,0.010663692,0.010663254,0.062177934,1.0069935e-11,1.0070386e-11,1.8408188e-11,1.7504967e-06,1.8058142e-06,5.0000036e-08,0.0,0.0,0.0,0.0,0.0,0.0,0.0,0.0,659,0.14603749,0.24935503,0.114952214,0.0,1.6810272e-05,0.0034453867,0.0,0.0,0.0,0.015983,0,0,0,165,24,0,0,0
109077471,0.77788204,-0.0034359174,0.003088178,-0.62839353,-0.022038143,0.020688286,-0.023299279,-0.020092336,0.020626266,-0.0021374307,-1.8906087e-06,-2.5170484e-06,3.83998e-06,0.0002356519,-0.000632721,0.002051701,0.14609265,1.6798086e-08,0.29791352,0.0,0.0,0.0,0.0,0.0,3.466167e-08,0.00029938234,0.004642241,1.5364276e-05,7.571993e-05,7.467748e-05,2.2752838e-05,0.0074639353,0.0074629583,0.012082293,0.013895349,0.013894629,0.06158216,1.0175698e-11,1.0176142e-11,1.8412247e-11,1.7504899e-06,1.805811e-06,5e-08,0.0,0.0,0.0,0.0,0.0,0.0,0.0,0.0,659,0.16670325,0.24815753,0.039034497,0.0,2.0627436e-05,0.007275001,0.0,0.0,0.0,0.015983,0,0,0,165,24,0,0,0
109277470,0.7780267,-0.0044630636,0.004414561,-0.62819993,-0.028419366,0.020665672,-0.02670459,-0.025377281,0.0250668,-0.024651604,-1.8907685e-06,-2.5170361e-06,3.8816643e-06,0.00023595736,-0.00063265674,0.0020569994,0.14609265,1.6798086e-08,0.29791352,0.0,0.0,0.0,0.0,0.0,1.8247096e-07,0.00055948924,0.008339592,1.5356114e-05,7.5871576e-05,7.483263e-05,2.2769414e-05,0.008578218,0.0085770255,0.012088938,0.017782072,0.017780975,0.061613683,1.0277109e-11,1.0277546e-11,1.8412175e-11,1.7504838e-06,1.8058081e-06,5e-08,0.0,0.0,0.0,0.0,0.0,0.0,0.0,0.0,659,0.18858166,0.24822104,0.08515928,0.0,2.5378666e-05,0.040518522,0.0,0.0,0.0,0.015983,0,0,0,165,24,0,0,0
109477497,0.77847356,-0.003893942,0.0047170194,-0.6276476,-0.023292793,0.034981593,-0.061080575,-0.029831676,0.029582689,-0.08036806,-1.892439e-06,-2.5152685e-06,3.7247157e-06,0.0002374205,-0.00063143676,0.002074944,0.14609265,1.6798086e-08,0.29791352,0.0,0.0,0.0,0.0,0.0,3.5045605e-07,0.00089493237,0.012229369,1.534046e-05,7.603353e-05,7.499271e-05,2.2783997e-05,0.009805483,0.009804003,0.012100522,0.022550855,0.022549238,0.061672684,1.0378065e-11,1.0378495e-11,1.841193e-11,1.7504776e-06,1.8058049e-06,5e-08,0.0,0.0,0.0,0.0,0.0,0.0,0.0,0.0,659,0.21236782,0.24833986,0.054148413,0.0,2.9667934e-05,0.04347369,0.0,0.0,0.0,0.015983,0,0,0,165,24,0,0,0
109685492,0.7783982,-0.00042946052,0.005333418,-0.62774813,-0.02005319,0.039891485,-0.07247694,-0.03421544,0.03557204,-0.11961913,-1.8929632e-06,-2.5148267e-06,3.7579905e-06,0.0002380401,-0.0006313385,0.0020846985,0.14609265,1.6798086e-08,0.29791352,0.0,0.0,0.0,0.0,0.0,3.7873107e-07,0.00097533996,0.013779779,1.5345368e-05,7.6216056e-05,7.515867e-05,2.2789933e-05,0.011185263,0.011183502,0.012041978,0.028584236,0.028581906,0.06115653,1.0482427e-11,1.0482852e-11,1.8415927e-11,1.7504708e-06,1.8058003e-06,5e-08,0.0,0.0,0.0,0.0,0.0,0.0,0.0,0.0,659,0.23909442,0.24729846,0.10138761,0.0,3.5575904e-05,0.019113738,0.0,0.0,0.0,0.015983,0,0,0,165,24,0,0,0
109883077,0.77886474,-0.0032268655,0.004848915,-0.627165,-0.022324773,0.02639975,-0.05539356,-0.037935417,0.041435964,-0.0939465,-1.8934811e-06,-2.5134489e-06,3.645376e-06,0.00023718203,-0.0006312483,0.0020706458,0.14609265,1.6798086e-08,0.29791352,0.0,0.0,0.0,0.0,0.0,3.6883006e-07,0.0009974334,0.014722483,1.5326665e-05,7.636995e-05,7.5327494e-05,2.2817603e-05,0.012625872,0.012623859,0.012061589,0.03558819,0.035584997,0.061293222,1.0584293e-11,1.0584713e-11,1.841801e-11,1.7504645e-06,1.8057964e-06,5.0000054e-08,0.0,0.0,0.0,0.0,0.0,0.0,0.0,0.0,659,0.26678303,0.24757469,0.09366195,0.0,4.1186042e-05,0.012485841,0.0,0.0,0.0,0.015983,0,0,0,165,24,0,0,0
110090277,0.7786731,-0.0041705277,0.0037706036,-0.62740463,-0.021472698,0.028750394,-0.061751463,-0.04481067,0.047419265,-0.09641412,-1.8938798e-06,-2.5126285e-06,3.6569982e-06,0.00023696477,-0.00063141563,0.0020674937,0.14609265,1.6798086e-08,0.29791352,0.0,0.0,0.0,0.0,0.0,3.7689682e-07,0.0011217849,0.016179636,1.5313379e-05,7.653829e-05,7.550086e-05,2.2785334e-05,0.014218865,0.014216584,0.0121181235,0.044089712,0.044085376,0.061614845,1.0683715e-11,1.0684128e-11,1.8405744e-11,1.7504589e-06,1.8057942e-06,5.000001e-08,0.0,0.0,0.0,0.0,0.0,0.0,0.0,0.0,659,0.2969429,0.24822338,0.033866547,0.0,4.6864694e-05,0.07526264,0.0,0.0,0.0,0.015983,0,0,0,165,24,0,0,0
110290294,0.779593,1.0242874e-05,0.003044849,-0.6262792,-0.010402244,0.046804007,-0.14623353,-0.0483529,0.054127056,-0.13867427,-1.8949083e-06,-2.5113154e-06,3.6651738e-06,0.00023756915,-0.00063118496,0.002077451,0.14609265,1.6798086e-08,0.29791352,0.0,0.0,0.0,0.0,0.0,4.4991958e-07,0.0012386891,0.015780462,1.5247289e-05,7.671917e-05,7.567111e-05,2.2834416e-05,0.015939211,0.01593659,0.012132734,0.053822733,0.053817034,0.06168751,1.0779872e-11,1.0780279e-11,1.8404226e-11,1.7504537e-06,1.8057917e-06,5e-08,0.0,0.0,0.0,0.0,0.0,0.0,0.0,0.0,659,0.328085,0.24836971,0.009629167,0.0,5.4142012e-05,0.003996002,0.0,0.0,0.0,0.015983,0,0,0,165,24,0,0,0
110490271,0.7809853,0.0013780852,0.0022952822,-0.62454385,0.0065133055,0.037517086,-0.15572913,-0.048913684,0.061407737,-0.21107596,-1.8962188e-06,-2.509613e-06,3.6823785e-06,0.00023849144,-0.0006308406,0.0020935368,0.14609265,1.6798086e-08,0.29791352,0.0,0.0,0.0,0.0,0.0,4.966857e-07,0.0013805745,0.01721791,1.5156707e-05,7.6888035e-05,7.5845135e-05,2.2919487e-05,0.017715186,0.017712506,0.012133091,0.06520611,0.06519879,0.061717477,1.087582e-11,1.0876222e-11,1.8404037e-11,1.7504491e-06,1.8057902e-06,5e-08,0.0,0.0,0.0,0.0,0.0,0.0,0.0,0.0,659,0.36111617,0.24843003,0.051209215,0.0,6.1428764e-05,0.009215335,0.0,0.0,0.0,0.015983,0,0,0,165,24,0,0,0
110698271,0.78250563,0.00036113785,0.0023008848,-0.6226392,0.03213228,0.033429164,-0.046254832,-0.044903282,0.06885808,-0.22542955,-1.8970626e-06,-2.507536e-06,3.662657e-06,0.0002383022,-0.0006309016,0.0020900045,0.14609265,1.6798086e-08,0.29791352,0.0,0.0,0.0,0.0,0.0,4.842973e-07,0.0014163168,0.019088618,1.5074796e-05,7.705585e-05,7.6027194e-05,2.3025606e-05,0.019587439,0.019585183,0.012181694,0.07891273,0.07890348,0.06212177,1.0974216e-11,1.0974614e-11,1.8408058e-11,1.7504452e-06,1.8057895e-06,5.0000036e-08,0.0,0.0,0.0,0.0,0.0,0.0,0.0,0.0,659,0.39726087,0.2492424,0.040143564,0.0,6.828135e-05,0.0046600737,0.0,0.0,0.0,0.015983,0,0,0,165,24,0,0,0
110898271,0.782915,-0.0003733805,0.0026291492,-0.62212306,0.05251723,0.0455308,-0.030815057,-0.03681732,0.07608616,-0.24595162,-1.8979847e-06,-2.5049137e-06,3.6822967e-06,0.00023857808,-0.0006308099,0.0020951207,0.14609265,1.6798086e-08,0.29791352,0.0,0.0,0.0,0.0,0.0,4.4907608e-07,0.0013893385,0.017809879,1.504847e-05,7.7218254e-05,7.6195065e-05,2.3055762e-05,0.02154935,0.021547478,0.012074589,0.09389831,0.093887016,0.06124967,1.1065229e-11,1.1065623e-11,1.8408003e-11,1.750442e-06,1.8057882e-06,5e-08,0.0,0.0,0.0,0.0,0.0,0.0,0.0,0.0,659,0.43334204,0.24748671,0.0733106,0.0,7.611589e-05,0.048354425,0.0,0.0,0.0,0.015983,0,0,0,165,24,0,0,0
111098308,0.782599,0.0007320819,0.001536666,-0.6225239,0.077338204,0.038958024,-0.00782495,-0.023147376,0.08430631,-0.23379505,-1.8979465e-06,-2.502518e-06,3.740468e-06,0.00023829122,-0.0006310757,0.0020880308,0.14609265,1.6798086e-08,0.29791352,0.0,0.0,0.0,0.0,0.0,5.433754e-07,0.0014445826,0.01877644,1.5055264e-05,7.739062e-05,7.636358e-05,2.3043647e-05,0.023627415,0.02362627,0.012084432,0.11095965,0.1109462,0.061328333,1.1154816e-11,1.115521e-11,1.8407966e-11,1.7504398e-06,1.8057876e-06,5e-08,0.0,0.0,0.0,0.0,0.0,0.0,0.0,0.0,659,0.47106886,0.24764557,0.041446447,0.0,8.435127e-05,0.013844506,0.0,0.0,0.0,0.015983,0,0,0,165,24,0,0,0
111298282,0.7819573,0.001684213,0.0004421347,-0.62332964,0.09371121,0.041567095,0.018332848,-0.0040400987,0.09300994,-0.18422058,-1.8976796e-06,-2.4988974e-06,3.6779866e-06,0.0002378448,-0.00063073635,0.0020678581,0.14609265,1.6798086e-08,0.29791352,0.0,0.0,0.0,0.0,0.0,6.2785944e-07,0.0013864886,0.018006442,1.5091871e-05,7.75624e-05,7.652892e-05,2.3002907e-05,0.02580736,0.02580679,0.01210057,0.13014162,0.13012603,0.06144144,1.124159e-11,1.1241984e-11,1.8407898e-11,1.7504387e-06,1.8057866e-06,5.0000036e-08,0.0,0.0,0.0,0.0,0.0,0.0,0.0,0.0,659,0.5101643,0.24787384,0.016393319,0.0,9.271277e-05,0.03415859,0.0,0.0,0.0,0.015983,0,0,0,165,24,0,0,0
111507071,0.78201073,-0.002889364,0.0041084597,-0.6232447,0.042790417,0.045597553,-0.032754414,0.007955232,0.10003662,-0.16002059,-1.8968068e-06,-2.4940332e-06,3.5866829e-06,0.00023778933,-0.0006303244,0.0020530901,0.14609265,1.6798086e-08,0.29791352,0.0,0.0,0.0,0.0,0.0,5.0037335e-07,0.0012653101,0.017360816,1.50950045e-05,7.771256e-05,7.669115e-05,2.2981892e-05,0.028228475,0.028226126,0.012045404,0.15233557,0.15231746,0.060977586,1.1328974e-11,1.1329365e-11,1.8401137e-11,1.7504382e-06,1.8057855e-06,5e-08,0.0,0.0,0.0,0.0,0.0,0.0,0.0,0.0,659,0.55195385,0.2469364,0.057481676,0.0,0.00010010348,0.06525517,0.0,0.0,0.0,0.015983,0,0,0,165,24,0,0,0
111707071,0.782888,-0.0007699681,0.0037447016,-0.62215096,0.0068001086,0.035779018,-0.19352694,0.0110647,0.106789514,-0.20600429,-1.8952317e-06,-2.4898673e-06,3.6443894e-06,0.00023781888,-0.00063060963,0.0020638574,0.14609265,1.6798086e-08,0.29791352,0.0,0.0,0.0,0.0,0.0,4.8584053e-07,0.0013088515,0.018714469,1.5032175e-05,7.787717e-05,7.6853896e-05,2.3038276e-05,0.030795585,0.030791922,0.012066604,0.17622137,0.17620055,0.061142366,1.1412181e-11,1.1412574e-11,1.8404809e-11,1.7504375e-06,1.8057832e-06,5e-08,0.0,0.0,0.0,0.0,0.0,0.0,0.0,0.0,659,0.59365135,0.24726982,0.030506331,0.0,0.00010687585,0.052848957,0.0,0.0,0.0,0.015983,0,0,0,165,24,0,0,0
111907071,0.78300005,0.0016546197,0.0019346282,-0.62201655,0.041350972,0.04331777,-0.35849664,0.015225429,0.11333601,-0.29355836,-1.893518e-06,-2.4857552e-06,3.732807e-06,0.00023781942,-0.0006306333,0.0020763017,0.14609265,1.6798086e-08,0.29791352,0.0,0.0,0.0,0.0,0.0,4.1525152e-07,0.0012196208,0.018479584,1.4982145e-05,7.8043646e-05,7.7015786e-05,2.3013787e-05,0.033500254,0.033495996,0.012184633,0.20277536,0.20275147,0.062139027,1.14904215e-11,1.1490814e-11,1.83922e-11,1.7504366e-06,1.8057816e-06,5e-08,0.0,0.0,0.0,0.0,0.0,0.0,0.0,0.0,659,0.6368099,0.24927701,0.07626048,0.0,0.00011310894,0.019850105,0.0,0.0,0.0,0.015983,0,0,0,165,24,0,0,0
112115072,0.7821993,0.0014513431,0.0013167672,-0.6230253,0.070291154,0.061146952,-0.24982187,0.02598743,0.121594615,-0.37171826,-1.8908817e-06,-2.480372e-06,3.8109165e-06,0.00023769913,-0.00063069136,0.0020798552,0.14609265,1.6798086e-08,0.29791352,0.0,0.0,0.0,0.0,0.0,4.2408192e-07,0.0012586089,0.018053852,1.5027802e-05,7.819887e-05,7.71686e-05,2.298965e-05,0.035899132,0.03589656,0.012212546,0.23266178,0.23263477,0.062451452,1.15649886e-11,1.1565383e-11,1.839662e-11,1.7504344e-06,1.8057793e-06,5.0000036e-08,0.0,0.0,0.0,0.0,0.0,0.0,0.0,0.0,659,0.6821265,0.24990289,0.050676845,0.0,0.00012128258,0.014265547,0.0,0.0,0.0,0.015983,0,0,0,165,24,0,0,0
112315112,0.7802917,0.0025506606,0.0035793902,-0.6254004,0.10930367,0.080607526,-0.0301897,0.0429186,0.13213414,-0.4114627,-1.887053e-06,-2.4746046e-06,3.939626e-06,0.00023726383,-0.00063076784,0.0020880378,0.14609265,1.6798086e-08,0.29791352,0.0,0.0,0.0,0.0,0.0,3.7100114e-07,0.001229619,0.016196327,1.5110359e-05,7.834484e-05,7.729458e-05,2.284875e-05,0.038005132,0.03800543,0.012201291,0.26332465,0.2632954,0.06242611,1.1630509e-11,1.16309054e-11,1.8384393e-11,1.7504301e-06,1.805776e-06,5.0000036e-08,0.0,0.0,0.0,0.0,0.0,0.0,0.0,0.0,659,0.7256859,0.24985218,0.011514019,0.0,0.00013167267,0.0027045584,0.0,0.0,0.0,0.015983,0,0,0,165,24,0,0,0
112515071,0.7789271,0.0038648741,0.001849612,-0.62709993,0.1354443,0.09021493,-0.02243726,0.0655478,0.14579564,-0.446563,-1.8816904e-06,-2.4677595e-06,4.061413e-06,0.00023693818,-0.0006307936,0.0020995785,0.14609265,1.6798086e-08,0.29791352,0.0,0.0,0.0,0.0,0.0,3.402708e-07,0.0012299697,0.016433729,1.517285e-05,7.8482844e-05,7.742317e-05,2.2781549e-05,0.040425513,0.040427234,0.012196403,0.2959669,0.29593614,0.062425252,1.1690776e-11,1.1691183e-11,1.8384988e-11,1.7504251e-06,1.8057715e-06,5.000007e-08,0.0,0.0,0.0,0.0,0.0,0.0,0.0,0.0,659,0.7693523,0.24985045,0.047366314,0.0,0.00014449925,0.001956354,0.0,0.0,0.0,0.015983,0,0,0,165,24,0,0,0
112715070,0.7787831,0.0017824717,0.004023956,-0.62727803,0.1510204,0.12562889,-0.10576786,0.092137024,0.16190447,-0.42788765,-1.8739871e-06,-2.4604963e-06,4.2492716e-06,0.00023698607,-0.00063101883,0.002090879,0.14609265,1.6798086e-08,0.29791352,0.0,0.0,0.0,0.0,0.0,4.340924e-07,0.0013916368,0.018098531,1.5148934e-05,7.859611e-05,7.754113e-05,2.2755883e-05,0.042998906,0.04300039,0.012193121,0.33043528,0.330404,0.062433064,1.1745543e-11,1.1745958e-11,1.8373037e-11,1.7504186e-06,1.8057654e-06,5.000002e-08,0.0,0.0,0.0,0.0,0.0,0.0,0.0,0.0,659,0.8129202,0.2498661,0.07861106,0.0,0.00016029806,0.004284215,0.0,0.0,0.0,0.015983,0,0,0,165,24,0,0,0
112923071,0.7791171,0.002100246,0.0011361301,-0.62687397,0.1661459,0.123480864,-0.18517648,0.12176299,0.18101019,-0.4352499,-1.8624282e-06,-2.4512897e-06,4.4988283e-06,0.00023704715,-0.00063127064,0.0020791814,0.14609265,1.6798086e-08,0.29791352,0.0,0.0,0.0,0.0,0.0,6.0607294e-07,0.0015528637,0.018693874,1.51060485e-05,7.870378e-05,7.7657765e-05,2.281469e-05,0.045527007,0.045529123,0.012114919,0.3672403,0.36720878,0.061823774,1.1792341e-11,1.179277e-11,1.8377928e-11,1.7504086e-06,1.8057563e-06,5e-08,0.0,0.0,0.0,0.0,0.0,0.0,0.0,0.0,659,0.85700005,0.24864388,0.11577419,0.0,0.00018133438,0.030154021,0.0,0.0,0.0,0.015983,0,0,0,165,24,0,0,0
113122300,0.7790498,0.0008113172,0.00086401455,-0.6269609,0.18747628,0.14009422,-0.12504013,0.1525144,0.20094737,-0.4096196,-1.8494903e-06,-2.4411029e-06,4.6339273e-06,0.00023753343,-0.00063129904,0.0020573463,0.14609265,1.6798086e-08,0.29791352,0.0,0.0,0.0,0.0,0.0,5.251793e-07,0.0014977014,0.019209107,1.50986125e-05,7.879798e-05,7.775846e-05,2.2828155e-05,0.047715325,0.047719013,0.012117609,0.40441185,0.40438068,0.061826628,1.18350225e-11,1.1835464e-11,1.8378712e-11,1.7503969e-06,1.8057455e-06,5.0000025e-08,0.0,0.0,0.0,0.0,0.0,0.0,0.0,0.0,659,0.89932895,0.24864961,0.07435813,0.0,0.00020031989,0.0317399,0.0,0.0,0.0,0.015983,0,0,0,165,24,0,0,0
113323871,0.7781272,0.0016617669,0.0025152785,-0.6280996,0.21664374,0.16071849,-0.060110793,0.18653972,0.22288358,-0.4117718,-1.8327767e-06,-2.4300227e-06,4.8713855e-06,0.00023715054,-0.0006314611,0.0020513595,0.14609265,1.6798086e-08,0.29791352,0.0,0.0,0.0,0.0,0.0,5.0959704e-07,0.0014147493,0.016998112,1.5113303e-05,7.8892124e-05,7.7841876e-05,2.2757144e-05,0.049813513,0.049819253,0.012127933,0.44311514,0.4430853,0.061942913,1.1878205e-11,1.1878659e-11,1.8373138e-11,1.7503828e-06,1.8057331e-06,5e-08,0.0,0.0,0.0,0.0,0.0,0.0,0.0,0.0,659,0.94138217,0.24888334,0.02597572,0.0,0.00022210389,0.0015542079,0.0,0.0,0.0,0.015983,0,0,0,165,24,0,0,0
113531871,0.7768533,0.0024493705,0.0027300941,-0.629671,0.23290864,0.16473076,-0.035922118,0.22456701,0.24504268,-0.40529558,-1.8099478e-06,-2.415497e-06,5.089447e-06,0.0002367677,-0.0006315179,0.0020456417,0.14609265,1.6798086e-08,0.29791352,0.0,0.0,0.0,0.0,0.0,1.077414e-06,0.0014962977,0.017887278,1.5178317e-05,7.8967154e-05,7.7906676e-05,2.2714961e-05,0.05176715,0.051774573,0.0120609915,0.4819958,0.48196903,0.061391648,1.19054515e-11,1.1905924e-11,1.8378065e-11,1.7503642e-06,1.8057156e-06,5e-08,0.0,0.0,0.0,0.0,0.0,0.0,0.0,0.0,659,0.9818171,0.24777338,0.09326469,0.0,0.00024562795,0.014618112,0.0,0.0,0.0,0.015983,0,0,0,165,24,0,0,0
113731871,0.7754878,0.02043594,-0.05014608,-0.62903607,0.37300694,0.14417407,-0.031099124,0.27290332,0.2655166,-0.3771813,-1.7893063e-06,-2.4027506e-06,5.313976e-06,0.00023716461,-0.0006283944,0.0020319212,0.14609265,1.6798086e-08,0.29791352,0.0,0.0,0.0,0.0,0.0,1.6661972e-06,0.0014228746,0.017524075,1.52022685e-05,7.8993944e-05,7.787853e-05,2.2956578e-05,0.053922538,0.053944193,0.012187047,0.5234255,0.5234036,0.062398016,1.193957e-11,1.1940056e-11,1.8391417e-11,1.7503484e-06,1.8056763e-06,5.0000036e-08,0.0,0.0,0.0,0.0,0.0,0.0,0.0,0.0,659,1.0231466,0.24979594,0.119502954,0.0,0.00027064365,0.036531437,0.0,0.0,0.0,0.015983,0,0,0,165,24,0,0,0
113939871,0.77291256,0.05840168,-0.10913217,-0.62232286,0.735488,0.062690735,-0.062912345,0.36970866,0.2751325,-0.36135817,-1.7650482e-06,-2.3884304e-06,5.487049e-06,0.00023755779,-0.00061945734,0.0020228657,0.14609265,1.6798086e-08,0.29791352,0.0,0.0,0.0,0.0,0.0,2.5095387e-06,0.0015318599,0.017786661,1.5604808e-05,7.859312e-05,7.7201235e-05,2.3767516e-05,0.056178436,0.056262255,0.012316693,0.5677242,0.56772035,0.06363475,1.1972292e-11,1.1972853e-11,1.8383208e-11,1.750329e-06,1.8053445e-06,5.000006e-08,0.0,0.0,0.0,0.0,0.0,0.0,0.0,0.0,659,1.0655725,0.25225928,0.0059701707,0.0,0.00035913155,0.026872167,0.0,0.0,0.0,0.015983,0,0,0,165,24,0,0,0
114139879,0.77709305,0.02264856,-0.040112477,-0.62769765,1.0638486,0.00083426386,0.027647054,0.5313064,0.2665363,-0.33781582,-1.7264975e-06,-2.3738698e-06,5.7094253e-06,0.0002381832,-0.0006069834,0.0020110188,0.14609265,1.6798086e-08,0.29791352,0.0,0.0,0.0,0.0,0.0,2.5868371e-06,0.0017586135,0.017833326,1.5055032e-05,7.918496e-05,7.8086705e-05,2.299245e-05,0.057568517,0.057742614,0.012269917,0.60571015,0.6057415,0.06343015,1.1986272e-11,1.1986917e-11,1.8383664e-11,1.7503056e-06,1.8050233e-06,5.0000004e-08,0.0,0.0,0.0,0.0,0.0,0.0,0.0,0.0,659,1.1006596,0.25185344,0.09270603,0.0,0.00052436756,0.0049444493,0.0,0.0,0.0,0.015983,0,0,0,165,24,0,0,0
114339877,0.7771301,0.0028099946,-0.0035824494,-0.62932354,1.1515265,-0.01889028,0.04859014,0.7226454,0.2497173,-0.29862833,-1.666981e-06,-2.363701e-06,5.9057206e-06,0.00023903609,-0.000605774,0.0019993482,0.14609265,1.6798086e-08,0.29791352,0.0,0.0,0.0,0.0,0.0,1.7885868e-06,0.0015890433,0.016022181,1.5094e-05,7.925333e-05,7.8216304e-05,2.2837137e-05,0.05892893,0.059127416,0.012241451,0.642523,0.6426003,0.063250445,1.1996291e-11,1.1997001e-11,1.838416e-11,1.7502816e-06,1.8049923e-06,5e-08,0.0,0.0,0.0,0.0,0.0,0.0,0.0,0.0,659,1.1336328,0.2514964,0.15429173,0.0,0.0007156317,0.02317056,0.0,0.0,0.0,0.015983,0,0,0,165,24,0,0,0
114547877,0.776772,0.0017932014,0.0045924312,-0.6297626,1.1554822,0.00560378,-0.031068174,0.9148868,0.23245163,-0.27322793,-1.5877081e-06,-2.3589755e-06,6.1574333e-06,0.00024012304,-0.00060648564,0.0019893525,0.14609265,1.6798086e-08,0.29791352,0.0,0.0,0.0,0.0,0.0,1.8676834e-06,0.0014639592,0.016289487,1.5131188e-05,7.927911e-05,7.823056e-05,2.284247e-05,0.06048377,0.060672853,0.012248213,0.68081206,0.6809452,0.06339144,1.2006341e-11,1.2007146e-11,1.8388777e-11,1.7502568e-06,1.8049627e-06,5.0000036e-08,0.0,0.0,0.0,0.0,0.0,0.0,0.0,0.0,659,1.1669436,0.25177658,0.2169044,0.0,0.0008993733,0.018042363,0.0,0.0,0.0,0.015983,0,0,0,165,24,0,0,0
114748696,0.77343094,0.018305058,0.08785644,-0.6274957,1.031112,0.15747435,-0.09984451,1.0668746,0.22609283,-0.24612853,-1.4813668e-06,-2.355188e-06,6.533931e-06,0.00025013697,-0.0006076844,0.0019768064,0.14609265,1.6798086e-08,0.29791352,0.0,0.0,0.0,0.0,0.0,2.0988996e-06,0.0014859405,0.017372195,1.5902548e-05,7.899983e-05,7.74586e-05,2.3169296e-05,0.061311357,0.061452456,0.012099592,0.7095713,0.7097527,0.06226471,1.2000724e-11,1.2001662e-11,1.8391153e-11,1.7501668e-06,1.8049288e-06,5e-08,0.0,0.0,0.0,0.0,0.0,0.0,0.0,0.0,659,1.1913538,0.24952897,0.18806604,0.0,0.0010705597,0.023342555,0.0,0.0,0.0,0.015983,0,0,0,165,24,0,0,0
114948670,0.7705253,0.033891372,0.12572041,-0.6239685,0.74979186,0.47587758,-0.08315433,1.1729455,0.2632999,-0.30889624,-1.3644295e-06,-2.3435011e-06,7.051118e-06,0.00028503663,-0.0006094583,0.0019933141,0.14609265,1.6798086e-08,0.29791352,0.0,0.0,0.0,0.0,0.0,2.2916763e-06,0.0015573732,0.019627674,1.6521775e-05,7.865825e-05,7.670359e-05,2.3646551e-05,0.062140115,0.062193107,0.012066459,0.7415724,0.7417765,0.0622131,1.2007816e-11,1.2008843e-11,1.8397605e-11,1.7497206e-06,1.8048968e-06,5e-08,0.0,0.0,0.0,0.0,0.0,0.0,0.0,0.0,659,1.217928,0.24942555,0.2615617,0.0,0.0011771577,0.02966825,0.0,0.0,0.0,0.015983,0,0,0,165,24,0,0,0
115148712,0.77597666,0.015144485,0.042641077,-0.62913644,0.5599869,0.73739225,-0.019402498,1.2311022,0.35877728,-0.29871333,-1.257498e-06,-2.3288922e-06,7.7568575e-06,0.0003195243,-0.0006117402,0.0019857488,0.14609265,1.6798086e-08,0.29791352,0.0,0.0,0.0,0.0,0.0,2.4981102e-06,0.0016514115,0.02094275,1.5263573e-05,7.9298596e-05,7.806553e-05,2.3017357e-05,0.06315387,0.06314074,0.012152739,0.77675515,0.7769722,0.06304527,1.2019225e-11,1.2020369e-11,1.839924e-11,1.7494726e-06,1.8048662e-06,5.0000036e-08,0.0,0.0,0.0,0.0,0.0,0.0,0.0,0.0,659,1.2464861,0.25108817,0.2485269,0.0,0.0012311031,0.048337415,0.0,0.0,0.0,0.015983,0,0,0,165,24,0,0,0
115356688,0.77602786,-7.126843e-05,0.007411623,-0.6306552,0.5135962,0.8049144,0.010939825,1.2625374,0.49170634,-0.27496347,-1.145315e-06,-2.3183331e-06,8.268585e-06,0.00032427695,-0.0006137517,0.00197834,0.14609265,1.6798086e-08,0.29791352,0.0,0.0,0.0,0.0,0.0,1.9506078e-06,0.0018685288,0.022152504,1.5004582e-05,7.936985e-05,7.8333156e-05,2.2962127e-05,0.064241156,0.06420862,0.012277959,0.8132348,0.81345975,0.06412487,1.2031867e-11,1.2033145e-11,1.8391316e-11,1.7494419e-06,1.8048332e-06,5.000004e-08,0.0,0.0,0.0,0.0,0.0,0.0,0.0,0.0,659,1.2754194,0.25322887,0.2035956,0.0,0.0012590577,0.059834182,0.0,0.0,0.0,0.015983,0,0,0,165,24,0,0,0
115556670,0.7759422,-0.00011505336,0.00039085172,-0.630804,0.4927036,0.80311096,-0.019976106,1.2702036,0.60958016,-0.25933516,-1.0138002e-06,-2.2960548e-06,8.659882e-06,0.00032502817,-0.0006152093,0.0019726618,0.14609265,1.6798086e-08,0.29791352,0.0,0.0,0.0,0.0,0.0,1.6597506e-06,0.0019097936,0.023094246,1.4951433e-05,7.936002e-05,7.8337434e-05,2.2997525e-05,0.06467994,0.06464423,0.01223118,0.83754104,0.8377622,0.06379449,1.2027546e-11,1.2028949e-11,1.8391734e-11,1.7494137e-06,1.8047954e-06,5e-08,0.0,0.0,0.0,0.0,0.0,0.0,0.0,0.0,659,1.294335,0.25257573,0.16603486,0.0,0.0012754378,0.024677612,0.0,0.0,0.0,0.015983,0,0,0,165,24,0,0,0
115756698,0.78222865,-0.0012097139,0.0022095293,-0.6229863,0.47973666,0.7771801,0.0049299826,1.2713646,0.71331966,-0.23874892,-8.7909547e-07,-2.2629783e-06,8.999151e-06,0.00032584692,-0.00061697885,0.0019635588,0.14609265,1.6798086e-08,0.29791352,0.0,0.0,0.0,0.0,0.0,1.827295e-06,0.0017706776,0.019870564,1.4562404e-05,7.932185e-05,7.833924e-05,2.3394075e-05,0.06486289,0.06483244,0.012182696,0.8592215,0.8594314,0.063449524,1.20230085e-11,1.2024511e-11,1.839227e-11,1.7493854e-06,1.8047537e-06,5e-08,0.0,0.0,0.0,0.0,0.0,0.0,0.0,0.0,659,1.310974,0.25189188,0.16242369,0.0,0.0012768889,0.0064310757,0.0,0.0,0.0,0.015983,0,0,0,165,24,0,0,0
115956683,0.80138546,-0.00026623762,0.0003273777,-0.59814817,0.4734717,0.7308087,-0.053282533,1.2779298,0.80882746,-0.24016045,-7.572609e-07,-2.226979e-06,9.429275e-06,0.0003258112,-0.0006182265,0.0019632916,0.14609265,1.6798086e-08,0.29791352,0.0,0.0,0.0,0.0,0.0,2.0159157e-06,0.0018435234,0.019773716,1.3378895e-05,7.927412e-05,7.842071e-05,2.4575196e-05,0.06564518,0.0656285,0.012272034,0.88653964,0.88673735,0.064189136,1.2031418e-11,1.20329875e-11,1.839287e-11,1.7493596e-06,1.8047172e-06,5.0000068e-08,0.0,0.0,0.0,0.0,0.0,0.0,0.0,0.0,659,1.3316445,0.25335574,0.11966113,0.0,0.0012721648,0.00061327434,0.0,0.0,0.0,0.015983,0,0,0,165,24,0,0,0
116164680,0.8148415,-0.00024535507,0.0033771303,-0.5796741,0.4502616,0.71316874,-0.05230887,1.2598149,0.8824372,-0.25062567,-6.031974e-07,-2.1680603e-06,9.579468e-06,0.0003278904,-0.0006184599,0.00196236,0.14609265,1.6798086e-08,0.29791352,0.0,0.0,0.0,0.0,0.0,1.3824849e-06,0.0016557879,0.018277232,1.2546828e-05,7.919544e-05,7.842518e-05,2.5372874e-05,0.06542962,0.06542809,0.01215237,0.8991913,0.89936906,0.06320734,1.2020579e-11,1.2022213e-11,1.8384764e-11,1.7493256e-06,1.8046678e-06,5e-08,0.0,0.0,0.0,0.0,0.0,0.0,0.0,0.0,659,1.3411041,0.2514107,0.06736516,0.0,0.0012654897,0.007284475,0.0,0.0,0.0,0.015983,0,0,0,165,24,0,0,0
116773482,0.8394679,-0.0034362434,0.002124436,-0.54339445,0.38227108,0.6116196,-0.002603258,1.2006603,1.046079,-0.28818613,-1.9569586e-07,-1.9700076e-06,9.673363e-06,0.0003363454,-0.0006169895,0.001962145,0.14609265,1.6798086e-08,0.29791352,0.0,0.0,0.0,0.0,0.0,1.2204727e-06,0.0016890453,0.020284124,1.1017825e-05,7.906548e-05,7.847874e-05,2.6931892e-05,0.06596825,0.06604191,0.012137084,0.94223005,0.9423803,0.06292313,1.2029183e-11,1.2030927e-11,1.839432e-11,1.7491865e-06,1.8044719e-06,5e-08,0.0,0.0,0.0,0.0,0.0,0.0,0.0,0.0,659,1.3728111,0.25084484,0.054480627,0.0,0.0012063676,0.005442218,0.0,0.0,0.0,0.015983,0,0,0,165,24,0,0,0
116973471,0.83405817,-0.0013081612,0.0030381272,-0.5516667,0.35050124,0.5810382,0.0015148781,1.1708406,1.0746903,-0.31616184,-6.3406276e-08,-1.892541e-06,9.614656e-06,0.00034019633,-0.00061486766,0.001972883,0.14609265,1.6798086e-08,0.29791352,0.0,0.0,0.0,0.0,0.0,2.164034e-06,0.0015587894,0.020101221,1.13668875e-05,7.908461e-05,7.843032e-05,2.6583342e-05,0.06624259,0.06634559,0.012122071,0.9514778,0.951635,0.06272529,1.2032562e-11,1.2034326e-11,1.8394909e-11,1.7491028e-06,1.8043604e-06,5.0000036e-08,0.0,0.0,0.0,0.0,0.0,0.0,0.0,0.0,659,1.3795335,0.25045016,0.07044688,0.0,0.0011736349,0.011142179,0.0,0.0,0.0,0.015983,0,0,0,165,24,0,0,0
117173478,0.7907857,-0.00018853934,0.00083342474,-0.6120927,0.33348677,0.53884697,-0.14564297,1.140174,1.09483,-0.32457894,6.334561e-08,-1.8165698e-06,9.593881e-06,0.00034522283,-0.0006130231,0.0019688946,0.14609265,1.6798086e-08,0.29791352,0.0,0.0,0.0,0.0,0.0,3.2912076e-06,0.0014565372,0.019661207,1.4012421e-05,7.925645e-05,7.8272584e-05,2.394233e-05,0.06679046,0.066905186,0.012116315,0.9595099,0.95968133,0.06257412,1.2038089e-11,1.20398795e-11,1.839557e-11,1.7489846e-06,1.8042068e-06,5.000004e-08,0.0,0.0,0.0,0.0,0.0,0.0,0.0,0.0,659,1.3853488,0.2501482,0.031324137,0.0,0.001142985,0.0018890483,0.0,0.0,0.0,0.015983,0,0,0,165,24,0,0,0
117373488,0.7273255,-0.0006123042,0.0019135638,-0.6862898,0.3106381,0.50704867,-0.11061268,1.1076453,1.1050792,-0.36640105,1.8670295e-07,-1.7380294e-06,9.567021e-06,0.0003505042,-0.00061022775,0.00197384,0.14609265,1.6798086e-08,0.29791352,0.0,0.0,0.0,0.0,0.0,4.080521e-06,0.001376349,0.019339295,1.763433e-05,7.946742e-05,7.80883e-05,2.0275324e-05,0.06647288,0.06657631,0.012120397,0.9664794,0.9666676,0.062481456,1.2045727e-11,1.2047539e-11,1.8383376e-11,1.7488221e-06,1.8040027e-06,5.0000043e-08,0.0,0.0,0.0,0.0,0.0,0.0,0.0,0.0,659,1.3903766,0.24996291,0.022643693,0.0,0.0011080372,0.010524902,0.0,0.0,0.0,0.015983,0,0,0,165,24,0,0,0
117581480,0.64437115,-0.0031771886,0.001748255,-0.76470435,0.27495104,0.46102503,-0.19690834,1.0635316,1.0988499,-0.42105782,3.1855075e-07,-1.6511874e-06,9.569557e-06,0.00035675833,-0.0006068514,0.0019799192,0.14609265,1.6798086e-08,0.29791352,0.0,0.0,0.0,0.0,0.0,4.968211e-06,0.0014965143,0.019912494,2.1959358e-05,7.9654055e-05,7.7898396e-05,1.5995287e-05,0.06575673,0.0658118,0.0120607745,0.9666768,0.96687084,0.061830204,1.2049586e-11,1.2051432e-11,1.838807e-11,1.7485946e-06,1.8037208e-06,5.000004e-08,0.0,0.0,0.0,0.0,0.0,0.0,0.0,0.0,659,1.3905206,0.2486568,0.004548283,0.0,0.001100503,0.01750496,0.0,0.0,0.0,0.015983,0,0,0,165,24,0,0,0
117781470,0.5708363,-0.004460765,7.740853e-05,-0.8210518,0.22495227,0.38567132,-0.08272643,1.0223563,1.0881188,-0.44994855,4.3176448e-07,-1.5752989e-06,9.628076e-06,0.0003625625,-0.0006038931,0.0019813888,0.14609265,1.6798086e-08,0.29791352,0.0,0.0,0.0,0.0,0.0,5.0478225e-06,0.0014953869,0.019878237,2.5349702e-05,7.9768586e-05,7.77742e-05,1.26191835e-05,0.06499206,0.064994186,0.012082777,0.97135466,0.9715387,0.06183481,1.2061416e-11,1.20633035e-11,1.8388315e-11,1.7483646e-06,1.8034403e-06,5.0000047e-08,0.0,0.0,0.0,0.0,0.0,0.0,0.0,0.0,659,1.3938771,0.24866606,0.027348617,0.0,0.0010870454,0.018703416,0.0,0.0,0.0,0.015983,0,0,0,165,24,0,0,0
117988695,0.49448827,-0.0032140496,-0.0011869546,-0.86917764,0.19004712,0.33078352,-0.08833149,0.96844363,1.058017,-0.47632992,5.512781e-07,-1.4926795e-06,9.685642e-06,0.00036860624,-0.0006011225,0.0019843564,0.14609265,1.6798086e-08,0.29791352,0.0,0.0,0.0,0.0,0.0,5.496325e-06,0.0016224431,0.020818492,2.8463064e-05,7.9824946e-05,7.765102e-05,9.534496e-06,0.06497507,0.064924836,0.012036627,0.9691614,0.96930367,0.06128292,1.20696335e-11,1.20715694e-11,1.839274e-11,1.7481201e-06,1.8031416e-06,5.0000036e-08,0.0,0.0,0.0,0.0,0.0,0.0,0.0,0.0,659,1.3922877,0.24755387,0.005213913,0.0,0.0010604681,0.02143838,0.0,0.0,0.0,0.015983,0,0,0,165,24,0,0,0
118190312,0.40778124,0.0003365533,-0.00024387137,-0.9130796,0.16063778,0.25566712,-0.10755699,0.9203168,1.0248575,-0.49721852,6.528078e-07,-1.4214967e-06,9.763906e-06,0.00037320837,-0.000599724,0.0019857157,0.14609265,1.6798086e-08,0.29791352,0.0,0.0,0.0,0.0,0.0,5.196438e-06,0.0014993374,0.018619543,3.1467018e-05,7.986358e-05,7.756826e-05,6.540905e-06,0.06683983,0.06677582,0.012071941,0.97234905,0.9724224,0.061399665,1.2089596e-11,1.2091565e-11,1.839735e-11,1.7479408e-06,1.8029239e-06,5.0000036e-08,0.0,0.0,0.0,0.0,0.0,0.0,0.0,0.0,659,1.3945507,0.24778956,0.023564922,0.0,0.0010278453,0.018274551,0.0,0.0,0.0,0.015983,0,0,0,165,24,0,0,0
118390277,0.31108353,-0.0029464648,-0.0007490075,-0.9503777,0.11383903,0.18773378,-0.1934723,0.86882603,0.9810465,-0.54965174,7.48215e-07,-1.3511252e-06,9.740846e-06,0.0003766113,-0.00059875875,0.0019933316,0.14609265,1.6798086e-08,0.29791352,0.0,0.0,0.0,0.0,0.0,5.710731e-06,0.0014830717,0.01947095,3.415008e-05,7.981212e-05,7.752418e-05,3.880018e-06,0.07136633,0.071353026,0.012108947,0.9747923,0.9747667,0.061505623,1.2107688e-11,1.2109686e-11,1.8398562e-11,1.7478069e-06,1.8027683e-06,5.000007e-08,0.0,0.0,0.0,0.0,0.0,0.0,0.0,0.0,659,1.3962661,0.24800327,0.031087395,0.0,0.0009828319,0.046500422,0.0,0.0,0.0,0.015983,0,0,0,165,24,0,0,0
118598277,0.1971897,-0.00406002,-0.0018517207,-0.9803552,0.06261376,0.11709271,-0.1831301,0.81385994,0.92853206,-0.60406154,8.3788655e-07,-1.2852234e-06,9.769494e-06,0.0003784097,-0.0006002102,0.0019995214,0.14609265,1.6798086e-08,0.29791352,0.0,0.0,0.0,0.0,0.0,6.850373e-06,0.0017036691,0.021351008,3.6366408e-05,7.968399e-05,7.751181e-05,1.6428047e-06,0.07964496,0.07978029,0.012178375,0.98041093,0.9802608,0.0619104,1.21295075e-11,1.2131521e-11,1.8390189e-11,1.7476702e-06,1.8026268e-06,5.0000025e-08,0.0,0.0,0.0,0.0,0.0,0.0,0.0,0.0,659,1.4002398,0.248818,0.04399847,0.0,0.0009321518,0.015830198,0.0,0.0,0.0,0.015983,0,0,0,165,24,0,0,0
118798271,0.091891915,-0.0038685717,-0.0033607595,-0.9957558,0.0020038856,0.029243264,-0.16719893,0.75166917,0.86404276,-0.63700104,9.2070763e-07,-1.2218845e-06,9.673328e-06,0.00038066716,-0.0006054208,0.0019984827,0.14609265,1.6798086e-08,0.29791352,0.0,0.0,0.0,0.0,0.0,7.2590365e-06,0.0016915145,0.021700598,3.7584196e-05,7.9449404e-05,7.748021e-05,4.415987e-07,0.0920778,0.092458196,0.0122022135,0.98303914,0.9827704,0.06193556,1.2147944e-11,1.2149952e-11,1.8390336e-11,1.7473856e-06,1.8023457e-06,5.0000025e-08,0.0,0.0,0.0,0.0,0.0,0.0,0.0,0.0,659,1.4020733,0.24886855,0.07636426,0.0,0.00086802087,0.021063019,0.0,0.0,0.0,0.015983,0,0,0,165,24,0,0,0
118998288,-0.02714684,-0.0023213502,-0.002772882,-0.9996249,-0.05221395,-0.066762224,-0.23950298,0.6899978,0.7948833,-0.6746538,9.883123e-07,-1.1710298e-06,9.655904e-06,0.00038123594,-0.000612963,0.001996826,0.14609265,1.6798086e-08,0.29791352,0.0,0.0,0.0,0.0,0.0,7.5990793e-06,0.0017055603,0.02082359,3.7954258e-05,7.912573e-05,7.748875e-05,8.890076e-08,0.11116619,0.11187219,0.012349069,0.99738026,0.9970119,0.062927715,1.2176582e-11,1.2178565e-11,1.8390572e-11,1.746776e-06,1.8017287e-06,5.000006e-08,0.0,0.0,0.0,0.0,0.0,0.0,0.0,0.0,659,1.4122295,0.250854,0.034902826,0.0,0.00079977495,0.008940335,0.0,0.0,0.0,0.015983,0,0,0,165,24,0,0,0
119206320,-0.14891468,-0.0007348477,-0.005517768,-0.98883444,-0.12342572,-0.16195382,-0.21208346,0.60790014,0.6969355,-0.71290267,1.0637607e-06,-1.112569e-06,9.553641e-06,0.00038121812,-0.00062622986,0.001994263,0.14609265,1.6798086e-08,0.29791352,0.0,0.0,0.0,0.0,0.0,7.2682697e-06,0.0017204871,0.020033939,3.723401e-05,7.855609e-05,7.734866e-05,8.4910545e-07,0.13600132,0.13708986,0.0122876335,0.9986106,0.9982079,0.06223221,1.2191115e-11,1.2193029e-11,1.8394687e-11,1.7449074e-06,1.799801e-06,5e-08,0.0,0.0,0.0,0.0,0.0,0.0,0.0,0.0,659,1.4130883,0.24946384,0.047112033,0.0,0.0007003151,0.05477611,0.0,0.0,0.0,0.015983,0,0,0,165,24,0,0,0
