timestamp,timestamp_last_signal,channel_count,rssi,rc_lost_frame_count,rc_total_frame_count,rc_ppm_frame_length,values[0],values[1],values[2],values[3],values[4],values[5],values[6],values[7],values[8],values[9],values[10],values[11],values[12],values[13],values[14],values[15],values[16],values[17],rc_failsafe,rc_lost,input_source
100770862,100770862,12,45,0,0,30003,1501,1509,1507,1506,1505,1257,1105,1105,1505,1105,1506,1257,0,0,0,0,0,0,0,0,2
100962963,100962963,12,45,0,0,30003,1501,1509,1507,1506,1505,1257,1105,1105,1505,1105,1506,1257,0,0,0,0,0,0,0,0,2
101159136,101159136,12,45,0,0,30003,1501,1509,1507,1505,1505,1258,1105,1105,1505,1105,1505,1257,0,0,0,0,0,0,0,0,2
101362784,101362784,12,45,0,0,30003,1500,1509,1507,1505,1505,1258,1105,1105,1505,1105,1505,1257,0,0,0,0,0,0,0,0,2
101583011,101583011,12,45,0,0,30003,1501,1509,1507,1505,1505,1258,1105,1105,1505,1105,1505,1257,0,0,0,0,0,0,0,0,2
101771198,101771198,12,45,0,0,30004,1500,1509,1507,1505,1505,1257,1105,1106,1505,1105,1505,1257,0,0,0,0,0,0,0,0,2
101970764,101970764,12,45,0,0,30003,1500,1509,1507,1505,1505,1257,1105,1106,1505,1105,1505,1257,0,0,0,0,0,0,0,0,2
102191576,102191576,12,45,0,0,30003,1500,1509,1507,1505,1505,1257,1105,1106,1505,1105,1505,1257,0,0,0,0,0,0,0,0,2
102383934,102383934,12,45,0,0,30003,1500,1509,1507,1505,1505,1257,1105,1106,1505,1105,1505,1257,0,0,0,0,0,0,0,0,2
102587752,102587752,12,45,0,0,30003,1500,1509,1507,1505,1505,1257,1106,1105,1505,1105,1505,1257,0,0,0,0,0,0,0,0,2
102787606,102787606,12,45,0,0,30004,1501,1509,1508,1505,1505,1257,1105,1105,1506,1105,1505,1257,0,0,0,0,0,0,0,0,2
102995976,102995976,12,45,0,0,30003,1501,1508,1508,1505,1505,1257,1105,1105,1506,1105,1505,1257,0,0,0,0,0,0,0,0,2
103191774,103191774,12,45,0,0,30003,1500,1509,1508,1505,1505,1257,1105,1105,1505,1106,1505,1257,0,0,0,0,0,0,0,0,2
103391958,103391958,12,45,0,0,30003,1500,1509,1507,1505,1506,1257,1105,1105,1505,1106,1505,1257,0,0,0,0,0,0,0,0,2
103604643,103604643,12,45,0,0,30003,1501,1509,1507,1506,1505,1257,1105,1105,1505,1105,1506,1257,0,0,0,0,0,0,0,0,2
103800457,103800457,12,45,0,0,30003,1500,1509,1507,1505,1505,1258,1105,1105,1505,1105,1505,1257,0,0,0,0,0,0,0,0,2
103996465,103996465,12,45,0,0,30004,1500,1509,1507,1505,1505,1257,1106,1105,1505,1105,1505,1257,0,0,0,0,0,0,0,0,2
104212371,104212371,12,45,0,0,30003,1501,1509,1507,1505,1505,1257,1106,1105,1505,1105,1505,1257,0,0,0,0,0,0,0,0,2
104396781,104396781,12,45,0,0,30004,1501,1509,1508,1505,1505,1257,1105,1105,1505,1106,1505,1257,0,0,0,0,0,0,0,0,2
104600533,104600533,12,45,0,0,30004,1501,1509,1507,1506,1505,1257,1105,1105,1505,1105,1506,1257,0,0,0,0,0,0,0,0,2
104816349,104816349,12,45,0,0,30003,1500,1509,1507,1506,1505,1257,1105,1105,1505,1105,1506,1257,0,0,0,0,0,0,0,0,2
105012348,105012348,12,45,0,0,30003,1501,1509,1507,1505,1506,1257,1105,1105,1505,1105,1505,1258,0,0,0,0,0,0,0,0,2
105213170,105213170,12,45,0,0,30003,1500,1509,1507,1504,1505,1257,1106,1105,1505,1105,1505,1257,0,0,0,0,0,0,0,0,2
105417197,105417197,12,45,0,0,30003,1500,1509,1507,1505,1505,1257,1105,1106,1505,1105,1505,1257,0,0,0,0,0,0,0,0,2
105625166,105625166,12,45,0,0,30003,1499,1510,1507,1505,1505,1257,1105,1106,1505,1105,1505,1257,0,0,0,0,0,0,0,0,2
105821178,105821178,12,45,0,0,30003,1500,1509,1507,1506,1505,1257,1105,1105,1505,1105,1506,1257,0,0,0,0,0,0,0,0,2
106021180,106021180,12,45,0,0,30003,1501,1509,1507,1506,1505,1257,1105,1105,1505,1105,1506,1257,0,0,0,0,0,0,0,0,2
106233396,106233396,12,45,0,0,30003,1501,1509,1507,1505,1506,1257,1105,1105,1505,1105,1505,1258,0,0,0,0,0,0,0,0,2
106433168,106433168,12,45,0,0,30003,1501,1509,1507,1505,1506,1257,1105,1105,1505,1105,1505,1258,0,0,0,0,0,0,0,0,2
106633999,106633999,12,45,0,0,30003,1501,1509,1507,1504,1505,1258,1105,1105,1505,1105,1505,1257,0,0,0,0,0,0,0,0,2
106829996,106829996,12,45,0,0,30003,1517,1510,1507,1505,1505,1257,1105,1105,1506,1105,1505,1257,0,0,0,0,0,0,0,0,2
107034019,107034019,12,45,0,0,30003,1564,1510,1507,1505,1505,1257,1105,1105,1506,1105,1505,1257,0,0,0,0,0,0,0,0,2
107234347,107234347,12,45,0,0,30004,1566,1509,1508,1505,1505,1257,1105,1105,1506,1105,1505,1257,0,0,0,0,0,0,0,0,2
107453977,107453977,12,45,0,0,30004,1600,1509,1508,1505,1505,1257,1105,1105,1505,1106,1505,1257,0,0,0,0,0,0,0,0,2
107646011,107646011,12,45,0,0,30003,1583,1509,1507,1505,1506,1257,1105,1105,1505,1105,1505,1258,0,0,0,0,0,0,0,0,2
107862140,107862140,12,45,0,0,30003,1501,1509,1507,1505,1505,1258,1105,1105,1505,1105,1506,1257,0,0,0,0,0,0,0,0,2
108062354,108062354,12,45,0,0,30003,1620,1509,1507,1505,1505,1258,1105,1105,1505,1105,1505,1257,0,0,0,0,0,0,0,0,2
108266744,108266744,12,45,0,0,30004,1648,1509,1507,1505,1505,1257,1106,1105,1505,1105,1505,1257,0,0,0,0,0,0,0,0,2
108466998,108466998,12,45,0,0,30003,1501,1508,1507,1505,1505,1257,1105,1106,1505,1105,1505,1257,0,0,0,0,0,0,0,0,2
108666771,108666771,12,45,0,0,30004,1501,1509,1508,1505,1505,1257,1105,1105,1505,1106,1505,1257,0,0,0,0,0,0,0,0,2
108862958,108862958,12,45,0,0,30004,1501,1509,1507,1506,1505,1257,1105,1105,1505,1105,1506,1257,0,0,0,0,0,0,0,0,2
109062781,109062781,12,45,0,0,30003,1501,1509,1507,1506,1505,1257,1105,1105,1505,1105,1506,1257,0,0,0,0,0,0,0,0,2
109258786,109258786,12,45,0,0,30003,1497,1509,1507,1504,1505,1258,1105,1105,1505,1105,1505,1257,0,0,0,0,0,0,0,0,2
109470802,109470802,12,45,0,0,30003,1384,1509,1507,1503,1505,1257,1106,1105,1505,1105,1505,1257,0,0,0,0,0,0,0,0,2
109678849,109678849,12,45,0,0,30004,1363,1509,1507,1504,1505,1257,1106,1105,1505,1105,1505,1257,0,0,0,0,0,0,0,0,2
109884363,109884363,12,45,0,0,30004,1431,1509,1507,1503,1505,1257,1105,1106,1505,1105,1505,1257,0,0,0,0,0,0,0,0,2
110087770,110087770,12,45,0,0,30004,1496,1510,1507,1504,1505,1257,1105,1106,1505,1105,1505,1257,0,0,0,0,0,0,0,0,2
110287549,110287549,12,45,0,0,30003,1498,1509,1507,1505,1505,1257,1105,1105,1505,1105,1506,1257,0,0,0,0,0,0,0,0,2
110483758,110483758,12,45,0,0,30003,1498,1509,1507,1505,1505,1257,1105,1105,1505,1105,1506,1257,0,0,0,0,0,0,0,0,2
110691754,110691754,12,45,0,0,30003,1498,1509,1507,1505,1506,1257,1105,1105,1505,1105,1505,1258,0,0,0,0,0,0,0,0,2
110883671,110883671,12,45,0,0,30004,1498,1509,1507,1504,1505,1257,1106,1105,1505,1105,1505,1257,0,0,0,0,0,0,0,0,2
111099808,111099808,12,45,0,0,30003,1500,1508,1507,1504,1505,1257,1106,1105,1505,1105,1505,1257,0,0,0,0,0,0,0,0,2
111291557,111291557,12,45,0,0,30003,1538,1509,1507,1505,1505,1257,1105,1106,1505,1105,1505,1257,0,0,0,0,0,0,0,0,2
111494996,111494996,12,45,0,0,30003,1562,1510,1507,1506,1505,1257,1105,1106,1505,1105,1505,1257,0,0,0,0,0,0,0,0,2
111696742,111696742,12,45,0,0,30003,1572,1508,1507,1507,1505,1257,1105,1105,1505,1105,1506,1257,0,0,0,0,0,0,0,0,2
111904541,111904541,12,45,0,0,30003,1536,1509,1507,1506,1505,1257,1105,1105,1505,1105,1506,1257,0,0,0,0,0,0,0,0,2
112096376,112096376,12,45,0,0,30003,1504,1509,1507,1505,1506,1257,1105,1105,1505,1105,1505,1258,0,0,0,0,0,0,0,0,2
112316586,112316586,12,45,0,0,30003,1536,1508,1507,1505,1506,1257,1105,1105,1505,1105,1505,1258,0,0,0,0,0,0,0,0,2
112496570,112496570,12,45,0,0,30004,1560,1509,1507,1505,1505,1257,1106,1105,1505,1105,1505,1257,0,0,0,0,0,0,0,0,2
112708412,112708412,12,45,0,0,30003,1559,1509,1507,1505,1505,1257,1105,1106,1505,1105,1505,1257,0,0,0,0,0,0,0,0,2
112904369,112904369,12,45,0,0,30003,1558,1510,1507,1505,1505,1257,1105,1106,1505,1105,1505,1257,0,0,0,0,0,0,0,0,2
113108344,113108344,12,45,0,0,30004,1544,1508,1507,1506,1505,1257,1105,1105,1505,1105,1506,1257,0,0,0,0,0,0,0,0,2
113317558,113317558,12,45,0,0,30003,1541,1496,1525,1507,1505,1257,1105,1105,1505,1105,1506,1257,0,0,0,0,0,0,0,0,2
113513445,113513445,12,45,0,0,30003,1538,1367,1576,1507,1505,1257,1105,1105,1505,1105,1506,1257,0,0,0,0,0,0,0,0,2
113725142,113725142,12,45,0,0,30003,1547,1350,1573,1506,1506,1257,1105,1105,1505,1105,1505,1258,0,0,0,0,0,0,0,0,2
113925267,113925267,12,45,0,0,30003,1543,1508,1512,1506,1506,1257,1105,1105,1505,1105,1505,1258,0,0,0,0,0,0,0,0,2
114129387,114129387,12,45,0,0,30004,1545,1508,1509,1506,1505,1257,1106,1105,1505,1105,1505,1257,0,0,0,0,0,0,0,0,2
114341400,114341400,12,45,0,0,30004,1533,1526,1449,1506,1505,1257,1105,1106,1505,1105,1505,1257,0,0,0,0,0,0,0,0,2
114545196,114545196,12,45,0,0,30003,1529,1586,1362,1506,1505,1257,1105,1106,1505,1105,1505,1257,0,0,0,0,0,0,0,0,2
114746016,114746016,12,45,0,0,30003,1527,1544,1388,1506,1505,1257,1105,1105,1506,1105,1505,1257,0,0,0,0,0,0,0,0,2
114934220,114934220,12,45,0,0,30003,1528,1508,1506,1507,1505,1257,1105,1105,1505,1105,1506,1257,0,0,0,0,0,0,0,0,2
115154355,115154355,12,45,0,0,30003,1526,1508,1507,1506,1505,1257,1105,1105,1506,1105,1505,1257,0,0,0,0,0,0,0,0,2
115353987,115353987,12,45,0,0,30003,1515,1508,1506,1470,1506,1257,1105,1105,1505,1105,1505,1258,0,0,0,0,0,0,0,0,2
115550340,115550340,12,45,0,0,30003,1509,1508,1506,1409,1506,1257,1105,1105,1505,1105,1505,1258,0,0,0,0,0,0,0,0,2
115745936,115745936,12,45,0,0,30003,1509,1508,1506,1427,1505,1257,1106,1105,1505,1105,1505,1257,0,0,0,0,0,0,0,0,2
115950194,115950194,12,45,0,0,30003,1526,1508,1506,1514,1505,1257,1105,1106,1505,1105,1505,1257,0,0,0,0,0,0,0,0,2
116150167,116150167,12,45,0,0,30003,1515,1508,1506,1448,1505,1257,1105,1106,1505,1105,1505,1257,0,0,0,0,0,0,0,0,2
116770899,116770899,12,45,0,0,30003,1553,1508,1506,1646,1505,1257,1105,1105,1505,1105,1506,1257,0,0,0,0,0,0,0,0,2
116962758,116962758,12,45,0,0,30003,1561,1508,1506,1690,1505,1257,1105,1105,1505,1105,1506,1257,0,0,0,0,0,0,0,0,2
117166944,117166944,12,45,0,0,30003,1573,1508,1506,1705,1505,1257,1105,1105,1505,1105,1506,1257,0,0,0,0,0,0,0,0,2
117378775,117378775,12,45,0,0,30003,1562,1508,1506,1644,1505,1257,1105,1105,1505,1105,1505,1258,0,0,0,0,0,0,0,0,2
117571129,117571129,12,45,0,0,30003,1560,1508,1506,1636,1505,1257,1106,1105,1505,1105,1505,1257,0,0,0,0,0,0,0,0,2
117774872,117774872,12,45,0,0,30004,1561,1508,1506,1644,1505,1257,1106,1105,1505,1105,1505,1257,0,0,0,0,0,0,0,0,2
117974779,117974779,12,45,0,0,30004,1568,1508,1506,1667,1505,1257,1106,1105,1505,1105,1505,1257,0,0,0,0,0,0,0,0,2
118175946,118175946,12,45,0,0,30004,1573,1508,1507,1680,1505,1257,1105,1105,1506,1105,1505,1257,0,0,0,0,0,0,0,0,2
118395538,118395538,12,45,0,0,30003,1572,1508,1506,1657,1505,1257,1105,1106,1505,1105,1505,1257,0,0,0,0,0,0,0,0,2
118583548,118583548,12,45,0,0,30004,1582,1508,1507,1688,1505,1257,1105,1105,1505,1106,1505,1257,0,0,0,0,0,0,0,0,2
118783572,118783572,12,45,0,0,30004,1579,1508,1507,1671,1505,1257,1105,1105,1505,1106,1505,1257,0,0,0,0,0,0,0,0,2
118999637,118999637,12,45,0,0,30003,1576,1508,1506,1655,1505,1257,1105,1105,1505,1105,1506,1257,0,0,0,0,0,0,0,0,2
119207767,119207767,12,45,0,0,30003,1568,1508,1506,1625,1505,1257,1105,1105,1505,1105,1506,1257,0,0,0,0,0,0,0,0,2
119407731,119407731,12,45,0,0,30003,1543,1508,1506,1507,1505,1258,1105,1105,1505,1105,1505,1257,0,0,0,0,0,0,0,0,2
119611566,119611566,12,45,0,0,30003,1532,1508,1506,1505,1505,1258,1105,1105,1505,1105,1505,1257,0,0,0,0,0,0,0,0,2
119808346,119808346,12,45,0,0,30003,1519,1508,1506,1506,1505,1258,1105,1105,1505,1105,1505,1257,0,0,0,0,0,0,0,0,2
120004372,120004372,12,45,0,0,30004,1516,1509,1506,1505,1505,1257,1105,1105,1506,1105,1505,1257,0,0,0,0,0,0,0,0,2
120208456,120208456,12,45,0,0,30003,1509,1509,1506,1478,1505,1257,1105,1105,1506,1105,1505,1257,0,0,0,0,0,0,0,0,2
120412547,120412547,12,45,0,0,30003,1501,1509,1506,1415,1505,1257,1105,1105,1506,1105,1505,1257,0,0,0,0,0,0,0,0,2
120608368,120608368,12,45,0,0,30003,1503,1508,1506,1434,1505,1257,1105,1105,1505,1105,1506,1257,0,0,0,0,0,0,0,0,2
120808589,120808589,12,45,0,0,30003,1508,1508,1506,1505,1506,1257,1105,1105,1505,1105,1505,1258,0,0,0,0,0,0,0,0,2
121008344,121008344,12,45,0,0,30003,1501,1508,1506,1505,1506,1257,1105,1105,1505,1105,1505,1258,0,0,0,0,0,0,0,0,2
121232717,121232717,12,45,0,0,30003,1501,1507,1507,1505,1505,1258,1105,1105,1505,1105,1505,1257,0,0,0,0,0,0,0,0,2
121432377,121432377,12,45,0,0,30003,1499,1508,1506,1490,1505,1258,1105,1105,1505,1105,1505,1257,0,0,0,0,0,0,0,0,2
121629530,121629530,12,45,0,0,30004,1492,1509,1506,1546,1505,1257,1105,1105,1506,1105,1505,1257,0,0,0,0,0,0,0,0,2
121829169,121829169,12,45,0,0,30004,1498,1508,1507,1631,1505,1257,1105,1105,1506,1105,1505,1257,0,0,0,0,0,0,0,0,2
122033282,122033282,12,45,0,0,30004,1500,1508,1507,1678,1505,1257,1105,1105,1505,1106,1505,1257,0,0,0,0,0,0,0,0,2
122229177,122229177,12,45,0,0,30003,1499,1508,1506,1644,1506,1257,1105,1105,1505,1105,1505,1258,0,0,0,0,0,0,0,0,2
122425263,122425263,12,45,0,0,30003,1499,1508,1506,1602,1505,1258,1105,1105,1505,1105,1505,1257,0,0,0,0,0,0,0,0,2
122637543,122637543,12,45,0,0,30003,1499,1508,1506,1505,1505,1258,1105,1105,1505,1105,1505,1257,0,0,0,0,0,0,0,0,2
122845254,122845254,12,45,0,0,30003,1499,1530,1409,1505,1505,1257,1106,1105,1505,1105,1505,1257,0,0,0,0,0,0,0,0,2
123033546,123033546,12,45,0,0,30004,1499,1537,1365,1505,1505,1257,1105,1105,1506,1105,1505,1257,0,0,0,0,0,0,0,0,2
123250423,123250423,12,45,0,0,30004,1499,1512,1392,1505,1505,1257,1105,1105,1505,1106,1505,1257,0,0,0,0,0,0,0,0,2
123446153,123446153,12,45,0,0,30003,1499,1508,1507,1505,1505,1257,1105,1105,1505,1106,1505,1257,0,0,0,0,0,0,0,0,2
123661992,123661992,12,45,0,0,30003,1499,1500,1499,1505,1505,1257,1105,1105,1505,1105,1506,1257,0,0,0,0,0,0,0,0,2
123853981,123853981,12,45,0,0,30003,1499,1358,1488,1506,1505,1257,1105,1105,1505,1105,1506,1257,0,0,0,0,0,0,0,0,2
124058170,124058170,12,45,0,0,30003,1499,1313,1488,1505,1505,1257,1106,1105,1505,1105,1505,1257,0,0,0,0,0,0,0,0,2
124262168,124262168,12,45,0,0,30004,1499,1295,1500,1505,1505,1257,1106,1105,1505,1105,1505,1257,0,0,0,0,0,0,0,0,2
124466060,124466060,12,45,0,0,30004,1499,1318,1501,1505,1505,1257,1105,1106,1505,1105,1505,1257,0,0,0,0,0,0,0,0,2
124661954,124661954,12,45,0,0,30003,1499,1318,1504,1505,1505,1257,1105,1105,1505,1106,1505,1257,0,0,0,0,0,0,0,0,2
124858172,124858172,12,45,0,0,30004,1499,1543,1506,1505,1505,1257,1105,1105,1505,1106,1505,1257,0,0,0,0,0,0,0,0,2
125082090,125082090,12,45,0,0,30004,1499,1508,1505,1506,1505,1257,1105,1105,1505,1105,1506,1257,0,0,0,0,0,0,0,0,2
125286741,125286741,12,45,0,0,30003,1499,1508,1505,1506,1505,1257,1105,1105,1505,1105,1506,1257,0,0,0,0,0,0,0,0,2
125483157,125483157,12,45,0,0,30003,1499,1508,1505,1506,1505,1257,1105,1105,1505,1105,1506,1257,0,0,0,0,0,0,0,0,2
125674855,125674855,12,45,0,0,30004,1499,1508,1505,1505,1505,1257,1106,1105,1505,1105,1505,1257,0,0,0,0,0,0,0,0,2
125894986,125894986,12,45,0,0,30003,1499,1508,1505,1505,1506,1257,1105,1105,1505,1105,1505,1258,0,0,0,0,0,0,0,0,2
126095133,126095133,12,45,0,0,30003,1499,1509,1501,1505,1505,1257,1105,1106,1505,1105,1505,1257,0,0,0,0,0,0,0,0,2
126286763,126286763,12,45,0,0,30003,1499,1518,1388,1504,1505,1257,1105,1106,1505,1105,1505,1257,0,0,0,0,0,0,0,0,2
126498747,126498747,12,45,0,0,30004,1498,1513,1387,1505,1505,1257,1105,1105,1506,1105,1505,1257,0,0,0,0,0,0,0,0,2
126690973,126690973,12,45,0,0,30004,1499,1511,1381,1506,1505,1257,1105,1105,1505,1105,1506,1257,0,0,0,0,0,0,0,0,2
126906790,126906790,12,45,0,0,30003,1499,1509,1506,1506,1505,1257,1105,1105,1505,1105,1506,1257,0,0,0,0,0,0,0,0,2
127103965,127103965,12,45,0,0,30003,1499,1508,1506,1506,1505,1257,1105,1105,1505,1105,1506,1257,0,0,0,0,0,0,0,0,2
127307566,127307566,12,45,0,0,30003,1504,1508,1506,1506,1506,1257,1105,1105,1505,1105,1505,1258,0,0,0,0,0,0,0,0,2
127511693,127511693,12,45,0,0,30003,1527,1508,1506,1508,1505,1257,1106,1105,1505,1105,1505,1257,0,0,0,0,0,0,0,0,2
127715923,127715923,12,45,0,0,30004,1542,1508,1506,1509,1505,1257,1106,1105,1505,1105,1505,1257,0,0,0,0,0,0,0,0,2
127915692,127915692,12,45,0,0,30004,1553,1508,1506,1507,1505,1257,1106,1105,1505,1105,1505,1257,0,0,0,0,0,0,0,0,2
128107577,128107577,12,45,0,0,30003,1566,1508,1507,1507,1505,1257,1105,1105,1505,1106,1505,1257,0,0,0,0,0,0,0,0,2
128307578,128307578,12,45,0,0,30004,1577,1509,1507,1507,1505,1257,1105,1105,1505,1106,1505,1257,0,0,0,0,0,0,0,0,2
128531535,128531535,12,45,0,0,30003,1582,1508,1506,1507,1505,1257,1105,1105,1505,1105,1506,1257,0,0,0,0,0,0,0,0,2
128730834,128730834,12,45,0,0,30003,1552,1508,1521,1506,1506,1257,1105,1105,1505,1105,1505,1258,0,0,0,0,0,0,0,0,2
128928366,128928366,12,45,0,0,30003,1527,1507,1579,1506,1505,1258,1105,1105,1505,1105,1505,1257,0,0,0,0,0,0,0,0,2
129136389,129136389,12,45,0,0,30003,1527,1507,1581,1506,1505,1257,1106,1105,1505,1105,1505,1257,0,0,0,0,0,0,0,0,2
129332717,129332717,12,45,0,0,30003,1526,1508,1590,1506,1505,1257,1105,1105,1505,1106,1505,1257,0,0,0,0,0,0,0,0,2
129540350,129540350,12,45,0,0,30003,1525,1508,1589,1507,1505,1257,1105,1105,1505,1105,1506,1257,0,0,0,0,0,0,0,0,2
129744372,129744372,12,45,0,0,30003,1523,1507,1596,1506,1506,1257,1105,1105,1505,1105,1505,1258,0,0,0,0,0,0,0,0,2
129944721,129944721,12,45,0,0,30003,1521,1508,1587,1506,1505,1258,1105,1105,1505,1105,1505,1257,0,0,0,0,0,0,0,0,2
130140378,130140378,12,45,0,0,30004,1521,1509,1570,1506,1505,1257,1105,1105,1506,1105,1505,1257,0,0,0,0,0,0,0,0,2
130340749,130340749,12,45,0,0,30004,1520,1508,1511,1505,1505,1257,1105,1105,1505,1106,1505,1257,0,0,0,0,0,0,0,0,2
130544384,130544384,12,45,0,0,30003,1516,1510,1492,1506,1505,1257,1105,1105,1505,1105,1506,1257,0,0,0,0,0,0,0,0,2
130746969,130746969,12,45,0,0,30003,1511,1518,1385,1506,1505,1257,1106,1105,1505,1105,1505,1257,0,0,0,0,0,0,0,0,2
130953280,130953280,12,45,0,0,30004,1510,1517,1385,1505,1505,1257,1105,1106,1505,1105,1505,1257,0,0,0,0,0,0,0,0,2
131141147,131141147,12,45,0,0,30003,1509,1512,1422,1506,1505,1257,1105,1105,1505,1105,1506,1257,0,0,0,0,0,0,0,0,2
131353528,131353528,12,45,0,0,30003,1509,1508,1506,1506,1505,1257,1105,1105,1505,1105,1506,1257,0,0,0,0,0,0,0,0,2
131557350,131557350,12,45,0,0,30003,1502,1508,1505,1506,1506,1257,1105,1105,1505,1105,1505,1258,0,0,0,0,0,0,0,0,2
131753149,131753149,12,45,0,0,30003,1501,1509,1505,1457,1505,1258,1105,1105,1505,1105,1505,1257,0,0,0,0,0,0,0,0,2
131965342,131965342,12,45,0,0,30004,1501,1536,1505,1402,1505,1257,1106,1105,1505,1105,1505,1257,0,0,0,0,0,0,0,0,2
132169380,132169380,12,45,0,0,30003,1523,1511,1505,1507,1505,1257,1105,1106,1505,1105,1505,1257,0,0,0,0,0,0,0,0,2
132373150,132373150,12,45,0,0,30003,1516,1509,1505,1538,1505,1257,1105,1105,1505,1105,1506,1257,0,0,0,0,0,0,0,0,2
132574017,132574017,12,45,0,0,30003,1506,1508,1505,1507,1506,1257,1105,1105,1505,1105,1505,1258,0,0,0,0,0,0,0,0,2
132774014,132774014,12,45,0,0,30003,1514,1508,1505,1543,1505,1258,1105,1105,1505,1105,1505,1257,0,0,0,0,0,0,0,0,2
132966319,132966319,12,45,0,0,30003,1524,1510,1505,1598,1505,1257,1105,1105,1506,1105,1505,1257,0,0,0,0,0,0,0,0,2
133170210,133170210,12,45,0,0,30003,1531,1509,1506,1630,1505,1257,1105,1105,1506,1105,1505,1257,0,0,0,0,0,0,0,0,2
133369986,133369986,12,45,0,0,30003,1502,1508,1506,1505,1505,1257,1105,1105,1505,1105,1506,1257,0,0,0,0,0,0,0,0,2
133573986,133573986,12,45,0,0,30003,1501,1508,1505,1505,1505,1258,1105,1105,1505,1105,1506,1257,0,0,0,0,0,0,0,0,2
133785958,133785958,12,45,0,0,30003,1501,1508,1505,1505,1506,1257,1105,1105,1505,1105,1505,1258,0,0,0,0,0,0,0,0,2
133970155,133970155,12,45,0,0,30003,1501,1508,1505,1505,1505,1257,1105,1106,1505,1105,1505,1257,0,0,0,0,0,0,0,0,2
134178059,134178059,12,45,0,0,30004,1497,1510,1506,1370,1505,1257,1105,1105,1506,1105,1505,1257,0,0,0,0,0,0,0,0,2
134378179,134378179,12,45,0,0,30003,1499,1528,1505,1369,1506,1257,1105,1105,1505,1105,1505,1258,0,0,0,0,0,0,0,0,2
134594944,134594944,12,45,0,0,30003,1500,1510,1506,1413,1505,1257,1105,1105,1505,1105,1506,1257,0,0,0,0,0,0,0,0,2
134794784,134794784,12,45,0,0,30003,1500,1508,1505,1505,1505,1258,1105,1105,1505,1105,1505,1257,0,0,0,0,0,0,0,0,2
135006943,135006943,12,45,0,0,30003,1500,1515,1462,1505,1505,1257,1106,1105,1505,1105,1505,1257,0,0,0,0,0,0,0,0,2
135206738,135206738,12,45,0,0,30003,1500,1517,1374,1505,1505,1257,1105,1106,1505,1105,1505,1257,0,0,0,0,0,0,0,0,2
135406808,135406808,12,45,0,0,30004,1499,1513,1381,1505,1505,1257,1105,1105,1506,1105,1505,1257,0,0,0,0,0,0,0,0,2
135610745,135610745,12,45,0,0,30003,1500,1515,1373,1506,1505,1257,1105,1105,1505,1105,1505,1258,0,0,0,0,0,0,0,0,2
135802759,135802759,12,45,0,0,30003,1500,1512,1398,1505,1506,1257,1105,1105,1505,1105,1505,1258,0,0,0,0,0,0,0,0,2
136002963,136002963,12,45,0,0,30003,1500,1509,1507,1505,1505,1257,1105,1106,1505,1105,1505,1257,0,0,0,0,0,0,0,0,2
136202773,136202773,12,45,0,0,30003,1499,1509,1506,1505,1505,1257,1105,1105,1506,1105,1505,1257,0,0,0,0,0,0,0,0,2
136422318,136422318,12,45,0,0,30004,1500,1508,1507,1505,1505,1257,1105,1105,1506,1105,1505,1257,0,0,0,0,0,0,0,0,2
136623584,136623584,12,45,0,0,30004,1500,1401,1509,1504,1505,1257,1105,1105,1505,1106,1505,1257,0,0,0,0,0,0,0,0,2
136827589,136827589,12,45,0,0,30003,1500,1382,1507,1506,1505,1257,1105,1105,1505,1105,1506,1257,0,0,0,0,0,0,0,0,2
137027763,137027763,12,45,0,0,30003,1500,1508,1507,1505,1506,1257,1105,1105,1505,1105,1505,1258,0,0,0,0,0,0,0,0,2
137219579,137219579,12,45,0,0,30003,1500,1508,1506,1505,1505,1257,1106,1105,1505,1105,1505,1257,0,0,0,0,0,0,0,0,2
137423593,137423593,12,45,0,0,30003,1499,1509,1506,1505,1505,1257,1105,1106,1505,1105,1505,1257,0,0,0,0,0,0,0,0,2
137643544,137643544,12,45,0,0,30004,1499,1565,1495,1505,1505,1257,1105,1105,1506,1105,1505,1257,0,0,0,0,0,0,0,0,2
137827936,137827936,12,45,0,0,30003,1500,1659,1494,1506,1505,1257,1105,1105,1505,1105,1506,1257,0,0,0,0,0,0,0,0,2
138031558,138031558,12,45,0,0,30003,1500,1642,1505,1505,1506,1257,1105,1105,1505,1105,1505,1258,0,0,0,0,0,0,0,0,2
138251578,138251578,12,45,0,0,30003,1500,1622,1506,1505,1505,1258,1105,1105,1505,1105,1505,1257,0,0,0,0,0,0,0,0,2
138446763,138446763,12,45,0,0,30003,1500,1628,1505,1505,1505,1258,1105,1105,1505,1105,1505,1257,0,0,0,0,0,0,0,0,2
138640571,138640571,12,45,0,0,30004,1500,1508,1507,1505,1505,1257,1105,1105,1506,1105,1505,1257,0,0,0,0,0,0,0,0,2
138864380,138864380,12,45,0,0,30003,1500,1508,1506,1505,1505,1257,1105,1106,1505,1105,1505,1257,0,0,0,0,0,0,0,0,2
139048757,139048757,12,45,0,0,30003,1500,1508,1507,1507,1505,1257,1105,1105,1505,1105,1506,1257,0,0,0,0,0,0,0,0,2
139264723,139264723,12,45,0,0,30003,1499,1507,1574,1506,1505,1257,1105,1105,1505,1105,1506,1257,0,0,0,0,0,0,0,0,2
139460379,139460379,12,45,0,0,30003,1500,1507,1635,1505,1506,1257,1105,1105,1505,1105,1505,1258,0,0,0,0,0,0,0,0,2
139660717,139660717,12,45,0,0,30004,1500,1508,1620,1505,1505,1257,1105,1106,1505,1105,1505,1257,0,0,0,0,0,0,0,0,2
139864373,139864373,12,45,0,0,30003,1499,1509,1593,1505,1505,1257,1105,1106,1505,1105,1505,1257,0,0,0,0,0,0,0,0,2
140064347,140064347,12,45,0,0,30004,1500,1509,1509,1505,1505,1257,1105,1105,1506,1105,1505,1257,0,0,0,0,0,0,0,0,2
140260388,140260388,12,45,0,0,30003,1500,1509,1507,1506,1505,1257,1105,1105,1505,1105,1506,1257,0,0,0,0,0,0,0,0,2
140481174,140481174,12,45,0,0,30003,1500,1511,1425,1505,1505,1257,1105,1105,1505,1106,1505,1257,0,0,0,0,0,0,0,0,2
140681195,140681195,12,45,0,0,30003,1500,1511,1404,1505,1505,1258,1105,1105,1505,1105,1505,1257,0,0,0,0,0,0,0,0,2
140881291,140881291,12,45,0,0,30003,1500,1511,1504,1505,1505,1258,1105,1105,1505,1105,1505,1257,0,0,0,0,0,0,0,0,2
141073176,141073176,12,45,0,0,30004,1500,1511,1505,1505,1505,1257,1105,1105,1506,1105,1505,1257,0,0,0,0,0,0,0,0,2
141289433,141289433,12,45,0,0,30003,1500,1510,1505,1505,1505,1257,1105,1106,1505,1105,1505,1257,0,0,0,0,0,0,0,0,2
141473138,141473138,12,45,0,0,30004,1500,1509,1506,1524,1505,1257,1105,1105,1505,1106,1505,1257,0,0,0,0,0,0,0,0,2
141689570,141689570,12,45,0,0,30003,1499,1508,1506,1642,1505,1257,1105,1105,1505,1105,1506,1257,0,0,0,0,0,0,0,0,2
141885389,141885389,12,45,0,0,30003,1499,1508,1506,1638,1505,1257,1105,1105,1505,1105,1506,1257,0,0,0,0,0,0,0,0,2
142085136,142085136,12,45,0,0,30003,1500,1509,1506,1643,1505,1257,1106,1105,1505,1105,1505,1257,0,0,0,0,0,0,0,0,2
142285161,142285161,12,45,0,0,30003,1500,1508,1506,1643,1505,1257,1106,1105,1505,1105,1505,1257,0,0,0,0,0,0,0,0,2
142485960,142485960,12,45,0,0,30003,1502,1508,1505,1659,1505,1257,1105,1106,1505,1105,1505,1257,0,0,0,0,0,0,0,0,2
143905996,143905996,12,45,0,0,30004,1498,1509,1505,1505,1505,1257,1105,1105,1506,1105,1505,1257,0,0,0,0,0,0,0,0,2
144122167,144122167,12,45,0,0,30004,1499,1529,1505,1505,1505,1257,1105,1105,1506,1105,1505,1257,0,0,0,0,0,0,0,0,2
144314204,144314204,12,45,0,0,30003,1499,1693,1486,1506,1505,1257,1105,1105,1505,1105,1506,1257,0,0,0,0,0,0,0,0,2
144514738,144514738,12,45,0,0,30003,1499,1715,1487,1505,1506,1257,1105,1105,1505,1105,1505,1258,0,0,0,0,0,0,0,0,2
144714857,144714857,12,45,0,0,30003,1499,1620,1507,1505,1505,1258,1105,1105,1505,1105,1505,1257,0,0,0,0,0,0,0,0,2
144938765,144938765,12,45,0,0,30003,1499,1508,1506,1505,1505,1257,1106,1105,1505,1105,1505,1257,0,0,0,0,0,0,0,0,2
145138865,145138865,12,45,0,0,30004,1498,1509,1506,1505,1505,1257,1105,1105,1506,1105,1505,1257,0,0,0,0,0,0,0,0,2
145330838,145330838,12,45,0,0,30003,1499,1508,1506,1505,1506,1257,1105,1105,1505,1105,1505,1258,0,0,0,0,0,0,0,0,2
145531164,145531164,12,45,0,0,30003,1499,1509,1507,1505,1505,1258,1105,1105,1505,1105,1505,1257,0,0,0,0,0,0,0,0,2
145750858,145750858,12,45,0,0,30003,1499,1408,1508,1505,1505,1257,1106,1105,1505,1105,1505,1257,0,0,0,0,0,0,0,0,2
145946801,145946801,12,45,0,0,30003,1498,1353,1508,1505,1505,1257,1105,1106,1505,1105,1505,1257,0,0,0,0,0,0,0,0,2
146146797,146146797,12,45,0,0,30004,1499,1553,1507,1505,1505,1257,1105,1105,1506,1105,1505,1257,0,0,0,0,0,0,0,0,2
146346814,146346814,12,45,0,0,30003,1499,1509,1505,1505,1506,1257,1105,1105,1505,1105,1505,1258,0,0,0,0,0,0,0,0,2
146546748,146546748,12,45,0,0,30003,1499,1510,1345,1505,1505,1258,1105,1105,1505,1105,1505,1257,0,0,0,0,0,0,0,0,2
146747557,146747557,12,45,0,0,30003,1499,1510,1315,1505,1505,1257,1105,1106,1505,1105,1505,1257,0,0,0,0,0,0,0,0,2
146959588,146959588,12,45,0,0,30004,1499,1511,1336,1505,1505,1257,1105,1105,1506,1105,1505,1257,0,0,0,0,0,0,0,0,2
147155767,147155767,12,45,0,0,30003,1499,1510,1361,1505,1506,1257,1105,1105,1505,1105,1505,1258,0,0,0,0,0,0,0,0,2
147367963,147367963,12,45,0,0,30003,1499,1508,1506,1505,1505,1258,1105,1105,1505,1105,1505,1257,0,0,0,0,0,0,0,0,2
147563741,147563741,12,45,0,0,30003,1499,1508,1506,1505,1505,1257,1106,1105,1505,1105,1505,1257,0,0,0,0,0,0,0,0,2
147763925,147763925,12,45,0,0,30004,1499,1507,1492,1505,1505,1257,1105,1105,1505,1106,1505,1257,0,0,0,0,0,0,0,0,2
147980038,147980038,12,45,0,0,30003,1499,1429,1508,1505,1505,1257,1105,1105,1506,1105,1505,1257,0,0,0,0,0,0,0,0,2
148183685,148183685,12,45,0,0,30003,1499,1386,1524,1505,1506,1257,1105,1105,1505,1105,1505,1258,0,0,0,0,0,0,0,0,2
148375921,148375921,12,45,0,0,30003,1500,1283,1528,1505,1505,1258,1105,1105,1505,1105,1505,1257,0,0,0,0,0,0,0,0,2
148584371,148584371,12,45,0,0,30004,1499,1308,1507,1505,1505,1257,1106,1105,1505,1105,1505,1257,0,0,0,0,0,0,0,0,2
148787576,148787576,12,45,0,0,30004,1498,1387,1503,1505,1505,1257,1105,1105,1506,1105,1505,1257,0,0,0,0,0,0,0,0,2
148988348,148988348,12,45,0,0,30003,1499,1513,1505,1506,1505,1257,1105,1105,1505,1105,1506,1257,0,0,0,0,0,0,0,0,2
149188452,149188452,12,45,0,0,30003,1499,1527,1504,1505,1506,1257,1105,1105,1505,1105,1505,1258,0,0,0,0,0,0,0,0,2
149384387,149384387,12,45,0,0,30003,1498,1609,1490,1505,1505,1257,1105,1106,1505,1105,1505,1257,0,0,0,0,0,0,0,0,2
149592459,149592459,12,45,0,0,30004,1499,1523,1507,1505,1505,1257,1105,1105,1506,1105,1505,1257,0,0,0,0,0,0,0,0,2
149792586,149792586,12,45,0,0,30004,1499,1508,1507,1505,1505,1257,1105,1105,1505,1105,1506,1257,0,0,0,0,0,0,0,0,2
149992756,149992756,12,45,0,0,30003,1499,1508,1506,1506,1505,1257,1105,1105,1505,1105,1506,1257,0,0,0,0,0,0,0,0,2
150192365,150192365,12,45,0,0,30004,1502,1508,1506,1505,1505,1257,1106,1105,1505,1105,1505,1257,0,0,0,0,0,0,0,0,2
150392573,150392573,12,45,0,0,30004,1500,1509,1506,1553,1505,1257,1105,1106,1505,1105,1505,1257,0,0,0,0,0,0,0,0,2
150612367,150612367,12,45,0,0,30004,1505,1509,1506,1605,1505,1257,1105,1105,1506,1105,1505,1257,0,0,0,0,0,0,0,0,2
150795643,150795643,12,45,0,0,30003,1501,1508,1506,1590,1506,1257,1105,1105,1505,1106,1505,1257,0,0,0,0,0,0,0,0,2
151013137,151013137,12,45,0,0,30003,1500,1508,1506,1507,1505,1257,1105,1105,1505,1105,1506,1257,0,0,0,0,0,0,0,0,2
151214318,151214318,12,45,0,0,30003,1500,1508,1505,1505,1505,1257,1106,1105,1505,1105,1505,1257,0,0,0,0,0,0,0,0,2
151405366,151405366,12,45,0,0,30004,1500,1508,1343,1505,1505,1257,1105,1106,1505,1105,1505,1257,0,0,0,0,0,0,0,0,2
151609560,151609560,12,45,0,0,30003,1500,1510,1274,1505,1505,1257,1105,1105,1506,1105,1505,1257,0,0,0,0,0,0,0,0,2
151813178,151813178,12,45,0,0,30003,1500,1509,1305,1505,1506,1257,1105,1105,1505,1105,1505,1258,0,0,0,0,0,0,0,0,2
152033289,152033289,12,45,0,0,30003,1500,1509,1319,1506,1505,1257,1105,1105,1505,1105,1506,1257,0,0,0,0,0,0,0,0,2
152225143,152225143,12,45,0,0,30003,1500,1509,1326,1505,1505,1257,1106,1105,1505,1105,1505,1257,0,0,0,0,0,0,0,0,2
152417166,152417166,12,45,0,0,30004,1500,1509,1344,1505,1505,1257,1105,1106,1505,1105,1505,1257,0,0,0,0,0,0,0,0,2
152625394,152625394,12,45,0,0,30003,1500,1510,1357,1506,1505,1257,1105,1105,1505,1105,1505,1257,0,0,0,0,0,0,0,0,2
152841160,152841160,12,45,0,0,30004,1500,1508,1506,1505,1505,1257,1105,1105,1506,1105,1505,1257,0,0,0,0,0,0,0,0,2
153029205,153029205,12,45,0,0,30003,1500,1508,1505,1505,1506,1257,1105,1105,1505,1105,1505,1258,0,0,0,0,0,0,0,0,2
153249188,153249188,12,45,0,0,30003,1500,1508,1505,1505,1505,1258,1105,1105,1505,1105,1505,1257,0,0,0,0,0,0,0,0,2
153441960,153441960,12,45,0,0,30004,1500,1508,1505,1505,1505,1257,1106,1105,1505,1105,1505,1257,0,0,0,0,0,0,0,0,2
153642089,153642089,12,45,0,0,30003,1500,1508,1506,1505,1505,1257,1105,1105,1505,1106,1505,1257,0,0,0,0,0,0,0,0,2
153845969,153845969,12,45,0,0,30003,1500,1508,1505,1506,1505,1257,1105,1105,1505,1105,1506,1257,0,0,0,0,0,0,0,0,2
154058322,154058322,12,45,0,0,30003,1500,1508,1505,1506,1505,1257,1105,1105,1505,1105,1506,1257,0,0,0,0,0,0,0,0,2
154258163,154258163,12,45,0,0,30003,1500,1558,1487,1505,1506,1257,1105,1105,1505,1105,1505,1258,0,0,0,0,0,0,0,0,2
154450041,154450041,12,45,0,0,30003,1500,1585,1485,1505,1505,1257,1105,1106,1505,1105,1505,1257,0,0,0,0,0,0,0,0,2
154670328,154670328,12,45,0,0,30004,1500,1612,1505,1505,1505,1257,1106,1105,1505,1105,1505,1257,0,0,0,0,0,0,0,0,2
154869982,154869982,12,45,0,0,30003,1498,1508,1507,1505,1505,1257,1105,1105,1505,1106,1505,1257,0,0,0,0,0,0,0,0,2
155074183,155074183,12,45,0,0,30004,1500,1508,1507,1505,1505,1257,1105,1105,1505,1105,1506,1257,0,0,0,0,0,0,0,0,2
155266167,155266167,12,45,0,0,30003,1500,1508,1505,1505,1505,1258,1105,1105,1505,1105,1506,1257,0,0,0,0,0,0,0,0,2
155466859,155466859,12,45,0,0,30003,1500,1350,1524,1505,1505,1257,1106,1105,1505,1105,1505,1257,0,0,0,0,0,0,0,0,2
155670786,155670786,12,45,0,0,30004,1500,1444,1509,1505,1505,1257,1105,1106,1505,1105,1505,1257,0,0,0,0,0,0,0,0,2
155870779,155870779,12,45,0,0,30004,1499,1509,1506,1505,1505,1257,1105,1105,1506,1105,1505,1257,0,0,0,0,0,0,0,0,2
156075120,156075120,12,45,0,0,30003,1500,1560,1505,1506,1505,1257,1105,1105,1505,1105,1506,1257,0,0,0,0,0,0,0,0,2
156274751,156274751,12,45,0,0,30003,1500,1583,1506,1505,1506,1257,1105,1105,1505,1105,1505,1258,0,0,0,0,0,0,0,0,2
156478777,156478777,12,45,0,0,30003,1500,1508,1506,1505,1506,1257,1105,1105,1505,1105,1505,1257,0,0,0,0,0,0,0,0,2
156698782,156698782,12,45,0,0,30003,1500,1509,1506,1505,1505,1258,1105,1105,1505,1105,1505,1257,0,0,0,0,0,0,0,0,2
156890941,156890941,12,45,0,0,30003,1500,1508,1506,1505,1505,1257,1106,1105,1505,1105,1505,1257,0,0,0,0,0,0,0,0,2
157090805,157090805,12,45,0,0,30004,1500,1508,1507,1505,1505,1257,1105,1105,1505,1106,1505,1257,0,0,0,0,0,0,0,0,2
157290967,157290967,12,45,0,0,30003,1500,1508,1506,1506,1505,1257,1105,1105,1505,1105,1506,1257,0,0,0,0,0,0,0,0,2
157503789,157503789,12,45,0,0,30003,1501,1508,1506,1506,1505,1257,1105,1105,1505,1105,1506,1257,0,0,0,0,0,0,0,0,2
157703585,157703585,12,45,0,0,30003,1500,1508,1506,1503,1506,1257,1105,1105,1505,1105,1505,1258,0,0,0,0,0,0,0,0,2
157903564,157903564,12,45,0,0,30003,1500,1386,1524,1505,1505,1257,1106,1105,1505,1105,1505,1257,0,0,0,0,0,0,0,0,2
158099754,158099754,12,45,0,0,30003,1500,1345,1526,1505,1505,1257,1105,1106,1505,1105,1505,1257,0,0,0,0,0,0,0,0,2
158303959,158303959,12,45,0,0,30004,1500,1509,1507,1505,1505,1257,1105,1105,1506,1105,1505,1257,0,0,0,0,0,0,0,0,2
158507669,158507669,12,45,0,0,30004,1500,1508,1508,1505,1505,1257,1105,1105,1506,1105,1505,1257,0,0,0,0,0,0,0,0,2
158703557,158703557,12,45,0,0,30003,1498,1508,1507,1503,1506,1257,1105,1105,1505,1105,1505,1258,0,0,0,0,0,0,0,0,2
158903780,158903780,12,45,0,0,30003,1414,1508,1507,1503,1506,1257,1105,1105,1505,1105,1505,1257,0,0,0,0,0,0,0,0,2
159119607,159119607,12,45,0,0,30003,1407,1508,1507,1503,1505,1258,1105,1105,1505,1105,1505,1257,0,0,0,0,0,0,0,0,2
159319753,159319753,12,45,0,0,30003,1394,1508,1507,1503,1505,1257,1106,1105,1505,1105,1505,1257,0,0,0,0,0,0,0,0,2
159519577,159519577,12,45,0,0,30004,1405,1508,1508,1505,1505,1257,1105,1105,1505,1106,1505,1257,0,0,0,0,0,0,0,0,2
159723766,159723766,12,45,0,0,30003,1383,1508,1507,1504,1505,1257,1105,1105,1505,1105,1506,1257,0,0,0,0,0,0,0,0,2
159927765,159927765,12,45,0,0,30003,1384,1508,1506,1504,1506,1257,1105,1105,1505,1105,1505,1257,0,0,0,0,0,0,0,0,2
160127752,160127752,12,45,0,0,30003,1380,1510,1506,1504,1505,1257,1106,1105,1505,1105,1505,1257,0,0,0,0,0,0,0,0,2
160340585,160340585,12,45,0,0,30003,1499,1545,1506,1505,1505,1257,1105,1106,1505,1105,1505,1257,0,0,0,0,0,0,0,0,2
160532401,160532401,12,45,0,0,30003,1499,1602,1506,1506,1505,1257,1105,1105,1505,1105,1506,1257,0,0,0,0,0,0,0,0,2
160748478,160748478,12,45,0,0,30003,1499,1508,1507,1505,1506,1257,1105,1105,1505,1105,1505,1258,0,0,0,0,0,0,0,0,2
160932723,160932723,12,45,0,0,30004,1498,1509,1507,1505,1505,1257,1105,1106,1505,1105,1505,1257,0,0,0,0,0,0,0,0,2
161152543,161152543,12,45,0,0,30003,1499,1509,1605,1505,1505,1257,1105,1106,1505,1105,1505,1257,0,0,0,0,0,0,0,0,2
161352571,161352571,12,45,0,0,30003,1499,1511,1656,1506,1505,1257,1105,1105,1505,1105,1506,1257,0,0,0,0,0,0,0,0,2
161552467,161552467,12,45,0,0,30003,1499,1510,1664,1505,1506,1257,1105,1105,1505,1105,1505,1258,0,0,0,0,0,0,0,0,2
161752406,161752406,12,45,0,0,30003,1499,1509,1632,1505,1505,1258,1105,1105,1505,1105,1505,1257,0,0,0,0,0,0,0,0,2
161940723,161940723,12,45,0,0,30004,1499,1509,1509,1505,1505,1257,1105,1105,1506,1105,1505,1257,0,0,0,0,0,0,0,0,2
162148521,162148521,12,45,0,0,30004,1499,1508,1509,1506,1505,1257,1105,1105,1505,1105,1506,1257,0,0,0,0,0,0,0,0,2
162363720,162363720,12,45,0,0,30003,1499,1508,1509,1505,1506,1257,1105,1105,1505,1105,1505,1258,0,0,0,0,0,0,0,0,2
162567659,162567659,12,45,0,0,30003,1499,1508,1509,1505,1505,1258,1105,1105,1505,1105,1505,1257,0,0,0,0,0,0,0,0,2
162749136,162749136,12,45,0,0,30003,1499,1427,1531,1505,1505,1257,1105,1105,1506,1105,1505,1257,0,0,0,0,0,0,0,0,2
162973293,162973293,12,45,0,0,30004,1499,1324,1537,1505,1505,1257,1105,1105,1505,1106,1505,1257,0,0,0,0,0,0,0,0,2
163165258,163165258,12,45,0,0,30003,1499,1365,1509,1506,1505,1257,1105,1105,1505,1105,1506,1257,0,0,0,0,0,0,0,0,2
163373527,163373527,12,45,0,0,30003,1499,1508,1504,1505,1506,1257,1105,1105,1505,1105,1505,1258,0,0,0,0,0,0,0,0,2
163569166,163569166,12,45,0,0,30004,1498,1509,1506,1505,1505,1257,1105,1106,1505,1105,1505,1257,0,0,0,0,0,0,0,0,2
163769519,163769519,12,45,0,0,30004,1499,1508,1507,1505,1505,1257,1105,1105,1506,1105,1505,1257,0,0,0,0,0,0,0,0,2
163965198,163965198,12,45,0,0,30003,1499,1508,1506,1504,1506,1257,1105,1105,1505,1105,1505,1258,0,0,0,0,0,0,0,0,2
164185341,164185341,12,45,0,0,30003,1499,1508,1506,1506,1505,1257,1105,1105,1505,1105,1505,1258,0,0,0,0,0,0,0,0,2
164381525,164381525,12,45,0,0,30003,1499,1508,1506,1505,1505,1257,1106,1105,1505,1105,1505,1257,0,0,0,0,0,0,0,0,2
164573169,164573169,12,45,0,0,30004,1498,1509,1506,1505,1505,1257,1105,1105,1506,1105,1505,1257,0,0,0,0,0,0,0,0,2
164785400,164785400,12,45,0,0,30004,1499,1509,1507,1505,1505,1257,1105,1105,1505,1106,1505,1257,0,0,0,0,0,0,0,0,2
164981376,164981376,12,45,0,0,30003,1499,1508,1506,1539,1506,1257,1105,1105,1505,1105,1505,1257,0,0,0,0,0,0,0,0,2
165185982,165185982,12,45,0,0,30003,1487,1509,1506,1619,1505,1258,1105,1105,1505,1105,1505,1257,0,0,0,0,0,0,0,0,2
165386063,165386063,12,45,0,0,30003,1486,1509,1506,1628,1505,1257,1105,1106,1505,1105,1505,1257,0,0,0,0,0,0,0,0,2
165601973,165601973,12,45,0,0,30003,1497,1510,1506,1558,1505,1257,1105,1105,1506,1105,1505,1257,0,0,0,0,0,0,0,0,2
165802168,165802168,12,45,0,0,30003,1499,1509,1507,1505,1505,1257,1105,1105,1505,1106,1505,1257,0,0,0,0,0,0,0,0,2
165998029,165998029,12,45,0,0,30003,1499,1508,1506,1505,1506,1257,1105,1105,1505,1105,1505,1257,0,0,0,0,0,0,0,0,2
166214130,166214130,12,45,0,0,30003,1499,1508,1506,1468,1505,1257,1106,1105,1505,1105,1505,1257,0,0,0,0,0,0,0,0,2
166417979,166417979,12,45,0,0,30003,1498,1509,1506,1442,1505,1257,1105,1106,1505,1105,1505,1257,0,0,0,0,0,0,0,0,2
166602215,166602215,12,45,0,0,30004,1499,1509,1506,1441,1505,1257,1105,1105,1505,1105,1506,1257,0,0,0,0,0,0,0,0,2
166818020,166818020,12,45,0,0,30003,1499,1509,1507,1434,1505,1257,1105,1105,1505,1106,1505,1257,0,0,0,0,0,0,0,0,2
167009983,167009983,12,45,0,0,30003,1500,1509,1505,1505,1506,1257,1105,1105,1505,1105,1505,1257,0,0,0,0,0,0,0,0,2
167210067,167210067,12,45,0,0,30003,1500,1509,1505,1505,1505,1258,1105,1105,1505,1105,1505,1257,0,0,0,0,0,0,0,0,2
167410012,167410012,12,45,0,0,30004,1499,1508,1505,1505,1505,1257,1105,1105,1506,1105,1505,1257,0,0,0,0,0,0,0,0,2
167633192,167633192,12,45,0,0,30003,1498,1510,1406,1505,1505,1257,1105,1105,1506,1105,1505,1257,0,0,0,0,0,0,0,0,2
167827001,167827001,12,45,0,0,30003,1499,1508,1331,1506,1505,1257,1105,1105,1505,1105,1506,1257,0,0,0,0,0,0,0,0,2
168034990,168034990,12,45,0,0,30003,1500,1509,1433,1505,1506,1257,1105,1105,1505,1105,1505,1258,0,0,0,0,0,0,0,0,2
168238812,168238812,12,45,0,0,30003,1499,1509,1505,1505,1505,1258,1105,1105,1505,1105,1505,1257,0,0,0,0,0,0,0,0,2
168434752,168434752,12,45,0,0,30003,1500,1510,1505,1505,1505,1257,1105,1105,1506,1105,1505,1257,0,0,0,0,0,0,0,0,2
168634991,168634991,12,45,0,0,30004,1500,1508,1506,1505,1505,1257,1105,1105,1505,1106,1505,1257,0,0,0,0,0,0,0,0,2
168830822,168830822,12,45,0,0,30003,1499,1508,1505,1506,1505,1257,1105,1105,1505,1105,1506,1257,0,0,0,0,0,0,0,0,2
169051013,169051013,12,45,0,0,30003,1499,1508,1506,1506,1505,1257,1105,1105,1505,1105,1506,1257,0,0,0,0,0,0,0,0,2
169246821,169246821,12,45,0,0,30003,1500,1508,1506,1505,1506,1257,1105,1105,1505,1105,1505,1258,0,0,0,0,0,0,0,0,2
169454970,169454970,12,45,0,0,30003,1499,1508,1506,1505,1505,1257,1105,1106,1505,1105,1505,1257,0,0,0,0,0,0,0,0,2
169650810,169650810,12,45,0,0,30003,1499,1509,1506,1505,1505,1257,1105,1105,1506,1105,1505,1257,0,0,0,0,0,0,0,0,2
169862780,169862780,12,45,0,0,30004,1500,1508,1478,1505,1505,1257,1105,1105,1505,1106,1505,1257,0,0,0,0,0,0,0,0,2
170054811,170054811,12,45,0,0,30003,1499,1508,1379,1505,1506,1257,1105,1105,1505,1105,1505,1257,0,0,0,0,0,0,0,0,2
170258768,170258768,12,45,0,0,30003,1500,1506,1336,1505,1505,1258,1105,1105,1505,1105,1505,1257,0,0,0,0,0,0,0,0,2
170467539,170467539,12,45,0,0,30003,1499,1508,1353,1505,1505,1257,1106,1105,1505,1105,1505,1257,0,0,0,0,0,0,0,0,2
170667765,170667765,12,45,0,0,30003,1500,1508,1359,1505,1505,1257,1105,1106,1505,1105,1505,1257,0,0,0,0,0,0,0,0,2
170871550,170871550,12,45,0,0,30004,1499,1510,1408,1505,1505,1257,1105,1105,1506,1105,1505,1257,0,0,0,0,0,0,0,0,2
171071916,171071916,12,45,0,0,30003,1499,1508,1506,1506,1505,1257,1105,1105,1505,1105,1506,1257,0,0,0,0,0,0,0,0,2
171271753,171271753,12,45,0,0,30003,1500,1508,1506,1505,1506,1257,1105,1105,1505,1105,1505,1258,0,0,0,0,0,0,0,0,2
171479560,171479560,12,45,0,0,30003,1499,1509,1507,1505,1505,1258,1105,1105,1505,1105,1505,1257,0,0,0,0,0,0,0,0,2
171679558,171679558,12,45,0,0,30003,1501,1509,1556,1505,1505,1257,1106,1105,1505,1105,1505,1257,0,0,0,0,0,0,0,0,2
171867763,171867763,12,45,0,0,30004,1500,1515,1551,1504,1505,1257,1105,1105,1506,1105,1505,1257,0,0,0,0,0,0,0,0,2
172087640,172087640,12,45,0,0,30004,1499,1509,1524,1505,1505,1257,1105,1105,1505,1106,1505,1257,0,0,0,0,0,0,0,0,2
172287763,172287763,12,45,0,0,30003,1499,1508,1509,1506,1505,1257,1105,1105,1505,1105,1506,1257,0,0,0,0,0,0,0,0,2
172479542,172479542,12,45,0,0,30003,1499,1508,1509,1505,1505,1258,1105,1105,1505,1105,1505,1257,0,0,0,0,0,0,0,0,2
172683668,172683668,12,45,0,0,30004,1500,1508,1508,1505,1505,1257,1106,1105,1505,1105,1505,1257,0,0,0,0,0,0,0,0,2
172891658,172891658,12,45,0,0,30003,1500,1509,1508,1505,1505,1257,1105,1105,1506,1105,1505,1257,0,0,0,0,0,0,0,0,2
173092461,173092461,12,45,0,0,30003,1499,1508,1508,1506,1505,1257,1105,1105,1505,1105,1506,1257,0,0,0,0,0,0,0,0,2
173296464,173296464,12,45,0,0,30003,1500,1508,1508,1505,1505,1257,1106,1105,1505,1105,1505,1257,0,0,0,0,0,0,0,0,2
173504454,173504454,12,45,0,0,30004,1513,1509,1508,1505,1505,1257,1105,1106,1505,1105,1505,1257,0,0,0,0,0,0,0,0,2
173700550,173700550,12,45,0,0,30004,1553,1509,1509,1505,1505,1257,1105,1105,1505,1106,1505,1257,0,0,0,0,0,0,0,0,2
173904572,173904572,12,45,0,0,30003,1576,1509,1508,1506,1505,1257,1105,1105,1505,1105,1506,1257,0,0,0,0,0,0,0,0,2
174104563,174104563,12,45,0,0,30003,1579,1509,1508,1505,1505,1257,1106,1105,1505,1105,1505,1257,0,0,0,0,0,0,0,0,2
174304600,174304600,12,45,0,0,30003,1576,1510,1509,1505,1505,1257,1105,1105,1506,1105,1505,1257,0,0,0,0,0,0,0,0,2
174500539,174500539,12,45,0,0,30004,1576,1509,1509,1505,1505,1257,1105,1105,1505,1106,1505,1257,0,0,0,0,0,0,0,0,2
174708369,174708369,12,45,0,0,30003,1577,1509,1508,1505,1505,1258,1105,1105,1505,1105,1506,1257,0,0,0,0,0,0,0,0,2
174912497,174912497,12,45,0,0,30003,1586,1509,1508,1505,1505,1257,1106,1105,1505,1105,1505,1257,0,0,0,0,0,0,0,0,2
175112359,175112359,12,45,0,0,30003,1589,1510,1508,1505,1505,1257,1105,1105,1506,1105,1505,1257,0,0,0,0,0,0,0,0,2
175316763,175316763,12,45,0,0,30003,1589,1509,1509,1505,1505,1257,1105,1105,1505,1106,1505,1257,0,0,0,0,0,0,0,0,2
175536373,175536373,12,45,0,0,30003,1589,1509,1508,1506,1505,1257,1105,1105,1505,1105,1505,1258,0,0,0,0,0,0,0,0,2
175732464,175732464,12,45,0,0,30003,1588,1509,1508,1505,1505,1258,1105,1105,1505,1105,1505,1257,0,0,0,0,0,0,0,0,2
175925159,175925159,12,45,0,0,30004,1588,1510,1508,1505,1505,1257,1105,1105,1506,1105,1505,1257,0,0,0,0,0,0,0,0,2
176125242,176125242,12,45,0,0,30004,1588,1509,1509,1505,1505,1257,1105,1105,1505,1106,1505,1257,0,0,0,0,0,0,0,0,2
176337251,176337251,12,45,0,0,30003,1588,1509,1508,1505,1506,1257,1105,1105,1505,1105,1505,1258,0,0,0,0,0,0,0,0,2
176545214,176545214,12,45,0,0,30003,1588,1509,1508,1505,1505,1258,1105,1105,1505,1105,1505,1257,0,0,0,0,0,0,0,0,2
176741151,176741151,12,45,0,0,30004,1587,1510,1509,1506,1505,1257,1105,1105,1506,1105,1505,1257,0,0,0,0,0,0,0,0,2
176949148,176949148,12,45,0,0,30003,1565,1509,1509,1505,1505,1257,1105,1105,1505,1106,1505,1257,0,0,0,0,0,0,0,0,2
177145142,177145142,12,45,0,0,30003,1533,1509,1440,1505,1506,1257,1105,1105,1505,1105,1505,1258,0,0,0,0,0,0,0,0,2
177345174,177345174,12,45,0,0,30003,1531,1509,1360,1505,1505,1257,1105,1106,1505,1105,1505,1257,0,0,0,0,0,0,0,0,2
177557330,177557330,12,45,0,0,30003,1527,1510,1330,1505,1505,1257,1105,1105,1506,1105,1505,1257,0,0,0,0,0,0,0,0,2
177757180,177757180,12,45,0,0,30003,1524,1510,1382,1505,1505,1257,1105,1105,1505,1106,1505,1257,0,0,0,0,0,0,0,0,2
177957153,177957153,12,45,0,0,30003,1502,1509,1505,1506,1505,1257,1105,1105,1505,1105,1506,1257,0,0,0,0,0,0,0,0,2
178173297,178173297,12,45,0,0,30003,1501,1509,1505,1505,1506,1257,1105,1105,1505,1105,1505,1257,0,0,0,0,0,0,0,0,2
178369175,178369175,12,45,0,0,30003,1339,1509,1505,1502,1505,1257,1106,1105,1505,1105,1505,1257,0,0,0,0,0,0,0,0,2
178565139,178565139,12,45,0,0,30003,1325,1509,1506,1503,1505,1257,1105,1105,1505,1106,1505,1257,0,0,0,0,0,0,0,0,2
178769412,178769412,12,45,0,0,30003,1320,1509,1505,1504,1505,1257,1105,1105,1505,1105,1506,1257,0,0,0,0,0,0,0,0,2
178973990,178973990,12,45,0,0,30003,1309,1509,1505,1503,1506,1257,1105,1105,1505,1105,1505,1258,0,0,0,0,0,0,0,0,2
179170336,179170336,12,45,0,0,30003,1302,1510,1505,1503,1505,1257,1105,1105,1506,1105,1505,1257,0,0,0,0,0,0,0,0,2
179389992,179389992,12,45,0,0,30003,1303,1509,1505,1504,1505,1257,1105,1106,1505,1105,1505,1257,0,0,0,0,0,0,0,0,2
179585935,179585935,12,45,0,0,30004,1290,1509,1505,1504,1505,1257,1105,1105,1505,1105,1506,1257,0,0,0,0,0,0,0,0,2
179782322,179782322,12,45,0,0,30003,1283,1509,1505,1504,1506,1257,1105,1105,1505,1105,1505,1258,0,0,0,0,0,0,0,0,2
179982149,179982149,12,45,0,0,30003,1294,1508,1505,1503,1505,1257,1105,1106,1505,1105,1505,1257,0,0,0,0,0,0,0,0,2
180197941,180197941,12,45,0,0,30003,1300,1510,1505,1503,1505,1257,1105,1105,1506,1105,1505,1257,0,0,0,0,0,0,0,0,2
180394351,180394351,12,45,0,0,30004,1309,1509,1506,1504,1505,1257,1105,1105,1505,1106,1505,1257,0,0,0,0,0,0,0,0,2
180594021,180594021,12,45,0,0,30003,1420,1509,1507,1505,1505,1257,1105,1105,1505,1105,1506,1257,0,0,0,0,0,0,0,0,2
180798062,180798062,12,45,0,0,30003,1498,1509,1543,1504,1505,1257,1106,1105,1505,1105,1505,1257,0,0,0,0,0,0,0,0,2
181014026,181014026,12,45,0,0,30003,1498,1509,1568,1504,1505,1258,1105,1105,1505,1105,1505,1257,0,0,0,0,0,0,0,0,2
181214000,181214000,12,45,0,0,30004,1498,1510,1510,1505,1505,1257,1105,1105,1506,1105,1505,1257,0,0,0,0,0,0,0,0,2
181410167,181410167,12,45,0,0,30003,1498,1508,1510,1505,1505,1257,1105,1105,1505,1106,1505,1257,0,0,0,0,0,0,0,0,2
181610767,181610767,12,45,0,0,30003,1498,1508,1509,1506,1505,1257,1105,1105,1505,1105,1506,1257,0,0,0,0,0,0,0,0,2
181814758,181814758,12,45,0,0,30004,1498,1411,1509,1504,1505,1257,1106,1105,1505,1105,1505,1257,0,0,0,0,0,0,0,0,2
182014852,182014852,12,45,0,0,30003,1497,1389,1509,1504,1505,1257,1105,1106,1505,1105,1505,1257,0,0,0,0,0,0,0,0,2
182227130,182227130,12,45,0,0,30004,1498,1509,1505,1505,1505,1257,1105,1105,1506,1105,1505,1257,0,0,0,0,0,0,0,0,2
182430810,182430810,12,45,0,0,30004,1498,1508,1506,1505,1505,1257,1105,1105,1505,1106,1505,1257,0,0,0,0,0,0,0,0,2
182623119,182623119,12,45,0,0,30003,1498,1508,1505,1504,1505,1258,1105,1105,1505,1105,1505,1257,0,0,0,0,0,0,0,0,2
182818999,182818999,12,45,0,0,30003,1498,1508,1505,1504,1505,1257,1106,1105,1505,1105,1505,1257,0,0,0,0,0,0,0,0,2
183022887,183022887,12,45,0,0,30003,1499,1508,1505,1505,1505,1257,1105,1106,1505,1105,1505,1257,0,0,0,0,0,0,0,0,2
183235121,183235121,12,45,0,0,30003,1507,1509,1506,1504,1505,1257,1105,1105,1506,1105,1505,1257,0,0,0,0,0,0,0,0,2
183430783,183430783,12,45,0,0,30003,1556,1508,1506,1504,1506,1257,1105,1105,1505,1105,1505,1258,0,0,0,0,0,0,0,0,2
183626956,183626956,12,45,0,0,30003,1571,1508,1506,1504,1505,1258,1105,1105,1505,1105,1505,1257,0,0,0,0,0,0,0,0,2
183847121,183847121,12,45,0,0,30003,1581,1509,1506,1504,1505,1258,1105,1105,1505,1105,1505,1257,0,0,0,0,0,0,0,0,2
184038750,184038750,12,45,0,0,30004,1500,1508,1507,1505,1505,1257,1105,1105,1505,1106,1505,1257,0,0,0,0,0,0,0,0,2
184254825,184254825,12,45,0,0,30004,1499,1509,1506,1505,1505,1257,1105,1105,1506,1105,1505,1257,0,0,0,0,0,0,0,0,2
184442191,184442191,12,45,0,0,30003,1500,1509,1455,1506,1505,1257,1105,1105,1505,1105,1506,1257,0,0,0,0,0,0,0,0,2
184662785,184662785,12,45,0,0,30003,1501,1509,1429,1505,1506,1257,1105,1105,1505,1105,1505,1258,0,0,0,0,0,0,0,0,2
184860563,184860563,12,45,0,0,30003,1500,1510,1448,1505,1505,1258,1105,1105,1505,1105,1505,1257,0,0,0,0,0,0,0,0,2
185059543,185059543,12,45,0,0,30003,1500,1509,1506,1505,1505,1257,1106,1105,1505,1105,1505,1257,0,0,0,0,0,0,0,0,2
185259573,185259573,12,45,0,0,30004,1500,1509,1506,1505,1505,1257,1105,1105,1505,1106,1505,1257,0,0,0,0,0,0,0,0,2
185463970,185463970,12,45,0,0,30003,1500,1509,1506,1506,1505,1257,1105,1105,1505,1105,1506,1257,0,0,0,0,0,0,0,0,2
185663657,185663657,12,45,0,0,30003,1667,1508,1505,1506,1505,1257,1105,1105,1505,1105,1506,1257,0,0,0,0,0,0,0,0,2
185867763,185867763,12,45,0,0,30003,1731,1508,1505,1505,1505,1257,1106,1105,1505,1105,1505,1257,0,0,0,0,0,0,0,0,2
186063801,186063801,12,45,0,0,30003,1729,1508,1505,1506,1505,1257,1105,1106,1505,1105,1505,1257,0,0,0,0,0,0,0,0,2
186283585,186283585,12,45,0,0,30004,1713,1509,1505,1505,1505,1257,1105,1105,1506,1105,1505,1257,0,0,0,0,0,0,0,0,2
186483573,186483573,12,45,0,0,30003,1703,1508,1506,1505,1505,1257,1105,1105,1505,1106,1505,1257,0,0,0,0,0,0,0,0,2
186691750,186691750,12,45,0,0,30003,1707,1508,1505,1506,1505,1257,1105,1105,1505,1105,1506,1257,0,0,0,0,0,0,0,0,2
186875549,186875549,12,45,0,0,30004,1703,1508,1506,1505,1505,1257,1106,1105,1505,1105,1505,1257,0,0,0,0,0,0,0,0,2
187095557,187095557,12,45,0,0,30003,1701,1510,1506,1505,1505,1257,1105,1105,1506,1105,1505,1257,0,0,0,0,0,0,0,0,2
187295584,187295584,12,45,0,0,30003,1694,1509,1505,1506,1505,1257,1105,1105,1505,1105,1506,1257,0,0,0,0,0,0,0,0,2
187490972,187490972,12,45,0,0,30003,1500,1509,1504,1505,1506,1257,1105,1105,1505,1105,1505,1258,0,0,0,0,0,0,0,0,2
187687539,187687539,12,45,0,0,30003,1499,1510,1504,1504,1505,1257,1105,1105,1506,1105,1505,1257,0,0,0,0,0,0,0,0,2
187910842,187910842,12,45,0,0,30003,1499,1510,1505,1505,1505,1257,1105,1106,1505,1105,1505,1257,0,0,0,0,0,0,0,0,2
188110866,188110866,12,45,0,0,30003,1500,1509,1505,1506,1505,1257,1105,1105,1505,1105,1506,1257,0,0,0,0,0,0,0,0,2
188308387,188308387,12,45,0,0,30003,1500,1509,1505,1505,1505,1258,1105,1105,1505,1105,1505,1257,0,0,0,0,0,0,0,0,2
188508338,188508338,12,45,0,0,30004,1500,1510,1506,1505,1505,1257,1105,1105,1506,1105,1505,1257,0,0,0,0,0,0,0,0,2
188708577,188708577,12,45,0,0,30003,1500,1508,1505,1506,1505,1257,1105,1105,1505,1105,1506,1257,0,0,0,0,0,0,0,0,2
188912376,188912376,12,45,0,0,30003,1500,1508,1505,1505,1506,1257,1105,1105,1505,1105,1505,1258,0,0,0,0,0,0,0,0,2
189112408,189112408,12,45,0,0,30003,1500,1509,1410,1505,1505,1257,1106,1105,1505,1105,1505,1257,0,0,0,0,0,0,0,0,2
189312794,189312794,12,45,0,0,30004,1500,1509,1407,1505,1505,1257,1105,1105,1505,1106,1505,1257,0,0,0,0,0,0,0,0,2
189532406,189532406,12,45,0,0,30004,1500,1509,1405,1505,1505,1257,1105,1105,1505,1106,1505,1257,0,0,0,0,0,0,0,0,2
189724607,189724607,12,45,0,0,30003,1500,1509,1505,1505,1506,1257,1105,1105,1505,1105,1505,1257,0,0,0,0,0,0,0,0,2
189932398,189932398,12,45,0,0,30003,1500,1509,1505,1505,1505,1257,1106,1105,1505,1105,1505,1257,0,0,0,0,0,0,0,0,2
190124387,190124387,12,45,0,0,30004,1442,1508,1506,1502,1505,1257,1105,1105,1505,1105,1506,1257,0,0,0,0,0,0,0,0,2
190328381,190328381,12,45,0,0,30003,1334,1508,1505,1502,1506,1257,1105,1105,1505,1105,1505,1258,0,0,0,0,0,0,0,0,2
190544563,190544563,12,45,0,0,30003,1305,1508,1505,1502,1505,1258,1105,1105,1505,1105,1505,1257,0,0,0,0,0,0,0,0,2
190748416,190748416,12,45,0,0,30004,1298,1508,1505,1503,1505,1257,1105,1106,1505,1105,1505,1257,0,0,0,0,0,0,0,0,2
190928564,190928564,12,45,0,0,30003,1292,1508,1505,1504,1505,1257,1105,1105,1505,1105,1506,1257,0,0,0,0,0,0,0,0,2
191131668,191131668,12,45,0,0,30003,1290,1509,1505,1502,1506,1257,1105,1105,1505,1105,1505,1258,0,0,0,0,0,0,0,0,2
191333170,191333170,12,45,0,0,30003,1270,1508,1505,1503,1505,1258,1105,1105,1505,1105,1505,1257,0,0,0,0,0,0,0,0,2
191533290,191533290,12,45,0,0,30004,1255,1508,1506,1503,1505,1257,1105,1105,1505,1106,1505,1257,0,0,0,0,0,0,0,0,2
191745362,191745362,12,45,0,0,30003,1197,1508,1505,1504,1505,1203,1105,1105,1505,1105,1506,1257,0,0,0,0,0,0,0,0,2
191949143,191949143,12,45,0,0,30003,1189,1509,1505,1503,1506,1191,1105,1105,1505,1105,1505,1258,0,0,0,0,0,0,0,0,2
192145258,192145258,12,45,0,0,30003,1178,1508,1505,1503,1505,1185,1106,1105,1505,1105,1505,1257,0,0,0,0,0,0,0,0,2
192357211,192357211,12,45,0,0,30004,1178,1508,1505,1504,1505,1185,1105,1106,1505,1105,1505,1257,0,0,0,0,0,0,0,0,2
192561148,192561148,12,45,0,0,30003,1180,1509,1505,1503,1505,1187,1105,1105,1506,1105,1505,1257,0,0,0,0,0,0,0,0,2
192761188,192761188,12,45,0,0,30003,1180,1508,1505,1503,1506,1187,1105,1105,1505,1105,1505,1258,0,0,0,0,0,0,0,0,2
192949217,192949217,12,45,0,0,30003,1177,1509,1505,1504,1505,1185,1105,1105,1506,1105,1505,1257,0,0,0,0,0,0,0,0,2
193161588,193161588,12,45,0,0,30003,1180,1508,1505,1503,1505,1187,1105,1106,1505,1105,1505,1257,0,0,0,0,0,0,0,0,2
193361369,193361369,12,45,0,0,30003,1181,1509,1505,1504,1505,1188,1105,1105,1505,1105,1506,1257,0,0,0,0,0,0,0,0,2
193577162,193577162,12,45,0,0,30003,1206,1508,1505,1503,1506,1214,1105,1105,1505,1105,1505,1258,0,0,0,0,0,0,0,0,2
193769174,193769174,12,45,0,0,30003,1370,1508,1506,1504,1505,1258,1105,1105,1505,1105,1505,1257,0,0,0,0,0,0,0,0,2
193965140,193965140,12,45,0,0,30003,1498,1509,1505,1504,1505,1257,1105,1105,1506,1105,1505,1257,0,0,0,0,0,0,0,0,2
194185228,194185228,12,45,0,0,30003,1497,1446,1505,1504,1505,1257,1105,1105,1506,1105,1505,1257,0,0,0,0,0,0,0,0,2
194385518,194385518,12,45,0,0,30003,1498,1405,1506,1504,1506,1257,1105,1105,1505,1105,1505,1258,0,0,0,0,0,0,0,0,2
194569189,194569189,12,45,0,0,30003,1498,1373,1509,1504,1505,1257,1105,1106,1505,1105,1505,1257,0,0,0,0,0,0,0,0,2
194785215,194785215,12,45,0,0,30003,1499,1343,1509,1504,1505,1257,1106,1105,1505,1105,1505,1257,0,0,0,0,0,0,0,0,2
194981941,194981941,12,45,0,0,30004,1498,1334,1510,1504,1505,1257,1105,1105,1505,1106,1505,1257,0,0,0,0,0,0,0,0,2
195190013,195190013,12,45,0,0,30003,1499,1348,1507,1506,1505,1257,1105,1105,1505,1105,1506,1257,0,0,0,0,0,0,0,0,2
195381976,195381976,12,45,0,0,30003,1499,1511,1506,1504,1506,1257,1105,1105,1505,1105,1505,1258,0,0,0,0,0,0,0,0,2
195589988,195589988,12,45,0,0,30003,1499,1508,1506,1504,1505,1258,1105,1105,1505,1105,1505,1257,0,0,0,0,0,0,0,0,2
195790316,195790316,12,45,0,0,30004,1499,1508,1507,1504,1505,1257,1105,1105,1506,1105,1505,1257,0,0,0,0,0,0,0,0,2
195990017,195990017,12,45,0,0,30004,1499,1571,1474,1505,1505,1257,1105,1105,1505,1105,1506,1257,0,0,0,0,0,0,0,0,2
196194067,196194067,12,45,0,0,30003,1499,1590,1479,1505,1505,1257,1105,1105,1505,1105,1506,1257,0,0,0,0,0,0,0,0,2
196409994,196409994,12,45,0,0,30003,1499,1605,1467,1504,1506,1257,1105,1105,1505,1105,1505,1257,0,0,0,0,0,0,0,0,2
196602006,196602006,12,45,0,0,30003,1498,1619,1457,1504,1505,1257,1105,1105,1506,1105,1505,1257,0,0,0,0,0,0,0,0,2
196802062,196802062,12,45,0,0,30004,1499,1509,1507,1504,1505,1257,1105,1105,1505,1106,1505,1257,0,0,0,0,0,0,0,0,2
197001982,197001982,12,45,0,0,30003,1499,1509,1506,1505,1505,1257,1105,1105,1505,1105,1506,1257,0,0,0,0,0,0,0,0,2
197205936,197205936,12,45,0,0,30003,1499,1509,1506,1504,1505,1258,1105,1105,1505,1105,1505,1257,0,0,0,0,0,0,0,0,2
197425933,197425933,12,45,0,0,30003,1499,1509,1506,1504,1505,1258,1105,1105,1505,1105,1505,1257,0,0,0,0,0,0,0,0,2
197613985,197613985,12,45,0,0,30003,1498,1510,1425,1504,1505,1257,1105,1105,1506,1105,1505,1257,0,0,0,0,0,0,0,0,2
197814029,197814029,12,45,0,0,30004,1499,1508,1376,1504,1505,1257,1105,1105,1505,1106,1505,1257,0,0,0,0,0,0,0,0,2
198030166,198030166,12,45,0,0,30003,1499,1509,1487,1505,1505,1257,1105,1105,1505,1105,1506,1257,0,0,0,0,0,0,0,0,2
198225961,198225961,12,45,0,0,30003,1499,1508,1505,1504,1505,1258,1105,1105,1505,1105,1505,1257,0,0,0,0,0,0,0,0,2
198426238,198426238,12,45,0,0,30004,1499,1508,1506,1504,1505,1257,1106,1105,1505,1105,1505,1257,0,0,0,0,0,0,0,0,2
198622779,198622779,12,45,0,0,30004,1498,1509,1506,1504,1505,1257,1105,1105,1506,1105,1505,1257,0,0,0,0,0,0,0,0,2
198826739,198826739,12,45,0,0,30003,1501,1508,1506,1505,1505,1257,1105,1105,1505,1105,1506,1257,0,0,0,0,0,0,0,0,2
199034779,199034779,12,45,0,0,30003,1520,1508,1506,1504,1506,1257,1105,1105,1505,1105,1505,1258,0,0,0,0,0,0,0,0,2
199234960,199234960,12,45,0,0,30003,1560,1508,1506,1505,1505,1258,1105,1105,1505,1105,1505,1257,0,0,0,0,0,0,0,0,2
199446785,199446785,12,45,0,0,30003,1565,1508,1506,1504,1505,1257,1106,1105,1505,1105,1505,1257,0,0,0,0,0,0,0,0,2
199635121,199635121,12,45,0,0,30004,1586,1508,1507,1504,1505,1257,1105,1105,1505,1106,1505,1257,0,0,0,0,0,0,0,0,2
199846833,199846833,12,45,0,0,30003,1557,1508,1506,1506,1505,1257,1105,1105,1505,1105,1506,1257,0,0,0,0,0,0,0,0,2
200042773,200042773,12,45,0,0,30003,1526,1508,1506,1505,1506,1257,1105,1105,1505,1105,1505,1258,0,0,0,0,0,0,0,0,2
200242819,200242819,12,45,0,0,30003,1499,1508,1506,1505,1505,1258,1105,1105,1505,1105,1505,1257,0,0,0,0,0,0,0,0,2
200451014,200451014,12,45,0,0,30004,1498,1509,1507,1505,1505,1257,1105,1106,1505,1105,1505,1257,0,0,0,0,0,0,0,0,2
200662951,200662951,12,45,0,0,30004,1552,1508,1507,1503,1505,1257,1105,1105,1505,1106,1505,1257,0,0,0,0,0,0,0,0,2
200859152,200859152,12,45,0,0,30003,1580,1508,1506,1503,1505,1258,1105,1105,1505,1105,1505,1257,0,0,0,0,0,0,0,0,2
201062777,201062777,12,45,0,0,30003,1597,1508,1506,1504,1505,1257,1105,1106,1505,1105,1505,1257,0,0,0,0,0,0,0,0,2
201270937,201270937,12,45,0,0,30004,1560,1509,1506,1504,1505,1257,1105,1105,1506,1105,1505,1257,0,0,0,0,0,0,0,0,2
201462761,201462761,12,45,0,0,30003,1501,1508,1506,1504,1506,1257,1105,1105,1505,1105,1505,1258,0,0,0,0,0,0,0,0,2
201683032,201683032,12,45,0,0,30003,1500,1508,1506,1505,1506,1257,1105,1105,1505,1105,1505,1258,0,0,0,0,0,0,0,0,2
201878863,201878863,12,45,0,0,30003,1499,1509,1457,1505,1505,1257,1105,1105,1506,1105,1505,1257,0,0,0,0,0,0,0,0,2
202078783,202078783,12,45,0,0,30004,1500,1509,1368,1505,1505,1257,1105,1105,1505,1106,1505,1257,0,0,0,0,0,0,0,0,2
202279542,202279542,12,45,0,0,30003,1500,1509,1385,1504,1505,1258,1105,1105,1505,1105,1505,1257,0,0,0,0,0,0,0,0,2
202487590,202487590,12,45,0,0,30003,1500,1509,1504,1505,1505,1257,1105,1106,1505,1105,1505,1257,0,0,0,0,0,0,0,0,2
203083616,203083616,12,45,0,0,30003,1500,1508,1505,1505,1505,1257,1106,1105,1505,1105,1505,1257,0,0,0,0,0,0,0,0,2
203695584,203695584,12,45,0,0,30003,1621,1508,1505,1507,1505,1257,1105,1105,1505,1105,1506,1257,0,0,0,0,0,0,0,0,2
203903597,203903597,12,45,0,0,30003,1669,1509,1505,1506,1506,1257,1105,1105,1505,1105,1505,1258,0,0,0,0,0,0,0,0,2
204087665,204087665,12,45,0,0,30003,1672,1510,1505,1506,1505,1257,1105,1105,1506,1105,1505,1257,0,0,0,0,0,0,0,0,2
204295571,204295571,12,45,0,0,30004,1679,1509,1506,1506,1505,1257,1105,1105,1505,1106,1505,1257,0,0,0,0,0,0,0,0,2
204503614,204503614,12,45,0,0,30003,1685,1509,1505,1507,1505,1257,1105,1105,1505,1105,1506,1257,0,0,0,0,0,0,0,0,2
204699594,204699594,12,45,0,0,30003,1685,1509,1505,1506,1505,1257,1106,1105,1505,1105,1505,1257,0,0,0,0,0,0,0,0,2
204903556,204903556,12,45,0,0,30004,1694,1510,1505,1506,1505,1257,1105,1105,1506,1105,1505,1257,0,0,0,0,0,0,0,0,2
205119585,205119585,12,45,0,0,30004,1698,1509,1506,1506,1505,1257,1105,1105,1505,1106,1505,1257,0,0,0,0,0,0,0,0,2
205315742,205315742,12,45,0,0,30003,1700,1509,1505,1507,1505,1257,1105,1105,1505,1105,1506,1257,0,0,0,0,0,0,0,0,2
205527667,205527667,12,45,0,0,30003,1701,1509,1505,1506,1506,1257,1105,1105,1505,1105,1505,1257,0,0,0,0,0,0,0,0,2
205723546,205723546,12,45,0,0,30003,1701,1510,1505,1506,1505,1257,1105,1105,1506,1105,1505,1257,0,0,0,0,0,0,0,0,2
205919596,205919596,12,45,0,0,30003,1701,1509,1506,1506,1505,1257,1105,1105,1505,1106,1505,1257,0,0,0,0,0,0,0,0,2
206120379,206120379,12,45,0,0,30003,1702,1509,1505,1506,1505,1258,1105,1105,1505,1105,1506,1257,0,0,0,0,0,0,0,0,2
206339601,206339601,12,45,0,0,30003,1702,1509,1505,1506,1506,1257,1105,1105,1505,1105,1505,1257,0,0,0,0,0,0,0,0,2
206540760,206540760,12,45,0,0,30004,1702,1509,1505,1505,1505,1257,1105,1105,1506,1105,1505,1257,0,0,0,0,0,0,0,0,2
206736602,206736602,12,45,0,0,30004,1702,1509,1506,1506,1505,1257,1105,1105,1505,1106,1505,1257,0,0,0,0,0,0,0,0,2
206940337,206940337,12,45,0,0,30003,1689,1509,1505,1507,1505,1257,1105,1105,1505,1105,1506,1257,0,0,0,0,0,0,0,0,2
207144358,207144358,12,45,0,0,30003,1593,1509,1505,1505,1506,1257,1105,1105,1505,1105,1505,1258,0,0,0,0,0,0,0,0,2
207352380,207352380,12,45,0,0,30003,1498,1509,1505,1505,1505,1257,1106,1105,1505,1105,1505,1257,0,0,0,0,0,0,0,0,2
207552364,207552364,12,45,0,0,30004,1498,1508,1507,1505,1505,1257,1105,1105,1505,1106,1505,1257,0,0,0,0,0,0,0,0,2
207752616,207752616,12,45,0,0,30003,1498,1508,1505,1506,1505,1257,1105,1105,1505,1105,1506,1257,0,0,0,0,0,0,0,0,2
207952374,207952374,12,45,0,0,30003,1498,1508,1505,1505,1506,1257,1105,1105,1505,1105,1505,1258,0,0,0,0,0,0,0,0,2
208156648,208156648,12,45,0,0,30004,1498,1508,1505,1505,1505,1257,1105,1106,1505,1105,1505,1257,0,0,0,0,0,0,0,0,2
208360371,208360371,12,45,0,0,30004,1498,1509,1505,1505,1505,1257,1105,1105,1506,1105,1505,1257,0,0,0,0,0,0,0,0,2
208556727,208556727,12,45,0,0,30004,1498,1508,1507,1505,1505,1257,1105,1105,1505,1105,1506,1257,0,0,0,0,0,0,0,0,2
208760455,208760455,12,45,0,0,30003,1480,1508,1505,1504,1505,1258,1105,1105,1505,1105,1505,1257,0,0,0,0,0,0,0,0,2
208960390,208960390,12,45,0,0,30003,1377,1508,1505,1504,1505,1257,1105,1106,1505,1105,1505,1257,0,0,0,0,0,0,0,0,2
