timestamp,roll,pitch,yaw,thrust_body[0],thrust_body[1],thrust_body[2]
100833726,0.061734047,-0.028674105,3.4906585,0.0,0.0,0.0
100865687,0.061776236,-0.028676206,3.4906585,0.0,0.0,0.0
100897677,0.061527207,-0.02882239,3.4906585,0.0,0.0,0.0
100929716,0.061588887,-0.02885059,3.4906585,0.0,0.0,0.0
100961727,0.061346337,-0.028931646,3.4906585,0.0,0.0,0.0
100993761,0.06101239,-0.028877016,3.4906585,0.0,0.0,0.0
101021743,0.060866404,-0.028881796,3.4906585,0.0,0.0,0.0
101053701,0.060720112,-0.028829258,3.4906585,0.0,0.0,0.0
101085669,0.060548246,-0.02886009,3.4906585,0.0,0.0,0.0
101117713,0.060731724,-0.02880514,3.4906585,0.0,0.0,0.0
101149720,0.060759455,-0.028969599,3.4906585,0.0,0.0,0.0
101181733,0.06070579,-0.028714215,3.4906585,0.0,0.0,0.0
101213688,0.060780767,-0.028665561,3.4906585,0.0,0.0,0.0
101245720,0.060650658,-0.028524375,3.4906585,0.0,0.0,0.0
101277712,0.06050382,-0.028605193,3.4906585,0.0,0.0,0.0
101309720,0.06041949,-0.028601099,3.4906585,0.0,0.0,0.0
101341667,0.06025633,-0.028660433,3.4906585,0.0,0.0,0.0
101373753,0.060393393,-0.028629402,3.4906585,0.0,0.0,0.0
101405716,0.060330927,-0.028597478,3.4906585,0.0,0.0,0.0
101437783,0.060297303,-0.02870896,3.4906585,0.0,0.0,0.0
101469684,0.06044648,-0.0288141,3.4906585,0.0,0.0,0.0
101501735,0.06617568,-0.010209838,-4.37686e-07,0.0,0.0,-0.0
101533698,0.065990604,-0.01036806,-2.332265e-05,0.0,0.0,-0.0
101565677,0.06604153,-0.010510502,-2.1662201e-05,0.0,0.0,-0.0
101597680,0.06595774,-0.01046261,-3.1347226e-05,0.0,0.0,-0.0
101629699,0.0659891,-0.010339083,-1.3972532e-05,0.0,0.0,-0.0
101661705,0.06611484,-0.010551664,-3.0759704e-05,0.0,0.0,-0.0
101693691,0.066077225,-0.010427181,-2.358178e-05,0.0,0.0,-0.0
101721717,0.06610979,-0.010420795,-4.7762056e-05,0.0,0.0,-0.0
101753735,0.06614083,-0.010437731,-2.2361335e-05,0.0,0.0,-0.0
101785668,0.06611942,-0.010399534,4.695047e-06,0.0,0.0,-0.0
101817716,0.06581454,-0.0103667015,-1.7060805e-05,0.0,0.0,-0.0
101849716,0.06569901,-0.010550667,-2.0229741e-05,0.0,0.0,-0.0
101881681,0.06578343,-0.010568165,1.981308e-07,0.0,0.0,-0.0
101913687,0.06578624,-0.010615903,-2.238508e-05,0.0,0.0,-0.0
101945706,0.06550543,-0.010669335,8.856226e-06,0.0,0.0,-0.0
101976920,0.06556726,-0.010675193,-1.2362901e-05,0.0,0.0,-0.0
102008957,0.06558202,-0.010652675,8.444391e-05,0.0,0.0,-0.0
102038554,0.06555727,-0.010744383,-1.307076e-06,0.0,0.0,-0.0
102070489,0.065441735,-0.010705199,6.1469227e-06,0.0,0.0,-0.0
102102510,0.06536647,-0.010768343,-7.8660205e-06,0.0,0.0,-0.0
102134479,0.06539907,-0.010697409,-2.3394812e-05,0.0,0.0,-0.0
102166539,0.06539198,-0.010710638,1.649178e-05,0.0,0.0,-0.0
102198464,0.06549368,-0.010597664,-9.140356e-06,0.0,0.0,-0.0
102230505,0.06549819,-0.010505006,3.6734367e-05,0.0,0.0,-0.0
102262477,0.06540978,-0.010434646,-6.099193e-06,0.0,0.0,-0.0
102294594,0.065322466,-0.010482292,-2.2602044e-05,0.0,0.0,-0.0
102326511,0.06500076,-0.010389281,1.8030792e-05,0.0,0.0,-0.0
102358463,0.06493939,-0.010467663,-1.5433372e-05,0.0,0.0,-0.0
102390501,0.06501633,-0.010401968,5.165627e-05,0.0,0.0,-0.0
102418512,0.064972006,-0.010502811,-5.53453e-07,0.0,0.0,-0.0
102450513,0.06514297,-0.010554293,2.4193025e-05,0.0,0.0,-0.0
102482548,0.065081194,-0.010639179,1.3078547e-05,0.0,0.0,-0.0
102513704,0.06516847,-0.010615254,-2.3038723e-05,0.0,0.0,-0.0
102546548,0.06514309,-0.010817112,7.68388e-06,0.0,0.0,-0.0
102578516,0.06505945,-0.010793542,-2.8584932e-06,0.0,0.0,-0.0
102610551,0.06471322,-0.010817182,9.857742e-05,0.0,0.0,-0.0
102642484,0.06460329,-0.010706159,4.121682e-05,0.0,0.0,-0.0
102670532,0.06465425,-0.010799522,9.8964534e-05,0.0,0.0,-0.0
102702463,0.06471631,-0.010707081,1.715219e-05,0.0,0.0,-0.0
102734514,0.064749256,-0.010844882,-2.3063909e-05,0.0,0.0,-0.0
102766471,0.06485899,-0.01075254,3.8791704e-06,0.0,0.0,-0.0
102798574,0.06482622,-0.010820761,1.9332488e-06,0.0,0.0,-0.0
102830472,0.064823404,-0.010714139,4.929123e-05,0.0,0.0,-0.0
102862463,0.06477526,-0.010569203,4.1043666e-05,0.0,0.0,-0.0
102894478,0.06459988,-0.010739088,-2.3402408e-05,0.0,0.0,-0.0
102922519,0.06449207,-0.010741924,2.8853736e-05,0.0,0.0,-0.0
102954501,0.06448002,-0.01080023,-2.3977096e-05,0.0,0.0,-0.0
102986563,0.06444977,-0.010745483,5.477902e-05,0.0,0.0,-0.0
103018469,0.06442265,-0.010681125,8.646048e-06,0.0,0.0,-0.0
103050546,0.06447828,-0.010757215,7.4276075e-05,0.0,0.0,-0.0
103082495,0.0645149,-0.01084874,3.5570585e-05,0.0,0.0,-0.0
103114552,0.06442144,-0.010793912,-2.3345223e-05,0.0,0.0,-0.0
103146474,0.0643516,-0.010829893,6.3658786e-06,0.0,0.0,-0.0
103174542,0.064354815,-0.010824297,-2.3276129e-05,0.0,0.0,-0.0
103206463,0.06422012,-0.010958717,2.807409e-05,0.0,0.0,-0.0
103238507,0.0640584,-0.010850496,-1.7643973e-05,0.0,0.0,-0.0
103270490,0.06399179,-0.010781595,6.109651e-05,0.0,0.0,-0.0
103302578,0.06393511,-0.010703215,-2.1785228e-05,0.0,0.0,-0.0
103333710,0.06394821,-0.010597335,1.357979e-05,0.0,0.0,-0.0
103366524,0.064017706,-0.010656977,-9.590744e-06,0.0,0.0,-0.0
103398509,0.063999176,-0.010662956,-2.2468641e-05,0.0,0.0,-0.0
103431312,0.06395599,-0.010637693,5.0911167e-05,0.0,0.0,-0.0
103464179,0.06399329,-0.0104193995,-1.2019782e-05,0.0,0.0,-0.0
103493759,0.06406714,-0.010347259,1.6563361e-05,0.0,0.0,-0.0
103527321,0.06406899,-0.010325962,-2.6673562e-05,0.0,0.0,-0.0
103559378,0.06393846,-0.010213223,-2.0145282e-05,0.0,0.0,-0.0
103587323,0.0639483,-0.010036487,-2.1757973e-05,0.0,0.0,-0.0
103619383,0.064065665,-0.009996695,-1.6431462e-05,0.0,0.0,-0.0
103650499,0.064012766,-0.010125676,-2.7856506e-05,0.0,0.0,-0.0
103683332,0.06391612,-0.010043892,-4.9145186e-05,0.0,0.0,-0.0
103715335,0.06390875,-0.010029911,-2.0466916e-05,0.0,0.0,-0.0
103747316,0.06378993,-0.010138807,2.520394e-05,0.0,0.0,-0.0
103779419,0.06383563,-0.009980171,-2.839831e-05,0.0,0.0,-0.0
103811275,0.0639258,-0.009992813,1.397955e-05,0.0,0.0,-0.0
103839377,0.064048745,-0.009908092,6.331693e-06,0.0,0.0,-0.0
103871270,0.06393936,-0.009765973,7.506222e-06,0.0,0.0,-0.0
103903362,0.063827105,-0.009699491,1.1655666e-06,0.0,0.0,-0.0
103935305,0.063908145,-0.009459398,-2.0076866e-05,0.0,0.0,-0.0
103967312,0.06392633,-0.009367861,-2.0214313e-05,0.0,0.0,-0.0
103999331,0.06390017,-0.009414434,-2.5307807e-05,0.0,0.0,-0.0
104031370,0.063840054,-0.009439351,-7.5328295e-05,0.0,0.0,-0.0
104063326,0.06397204,-0.009343697,-4.107468e-05,0.0,0.0,-0.0
104095317,0.064095564,-0.009206246,-1.8890953e-05,0.0,0.0,-0.0
104127294,0.06414203,-0.009104836,-1.5537087e-05,0.0,0.0,-0.0
104159405,0.06408808,-0.009071776,-2.378329e-05,0.0,0.0,-0.0
104191294,0.06423135,-0.0089012515,-4.7475833e-06,0.0,0.0,-0.0
104223361,0.064271286,-0.008749592,-5.2801257e-05,0.0,0.0,-0.0
104255270,0.064183325,-0.008720266,-1.8858378e-05,0.0,0.0,-0.0
104287295,0.06422703,-0.008646975,-4.62916e-05,0.0,0.0,-0.0
104315277,0.0642517,-0.008610865,-1.8287219e-05,0.0,0.0,-0.0
104347341,0.06441972,-0.008500679,1.1245559e-05,0.0,0.0,-0.0
104379373,0.064555146,-0.008452907,-4.0388375e-05,0.0,0.0,-0.0
104411311,0.064530715,-0.008348878,-4.0803003e-05,0.0,0.0,-0.0
104443305,0.06461884,-0.008269835,-1.7066386e-05,0.0,0.0,-0.0
104475351,0.06464362,-0.008293576,-1.815962e-05,0.0,0.0,-0.0
104507320,0.064920075,-0.0082805045,1.6169497e-06,0.0,0.0,-0.0
104539338,0.06508543,-0.008314056,-3.0362447e-05,0.0,0.0,-0.0
104567265,0.06515593,-0.008308752,-3.8290273e-05,0.0,0.0,-0.0
104599360,0.06503163,-0.0081710825,-1.0047637e-05,0.0,0.0,-0.0
104631279,0.06500666,-0.00825865,-3.7454512e-05,0.0,0.0,-0.0
104664104,0.06502,-0.008175334,-2.4732071e-05,0.0,0.0,-0.0
104695308,0.065107755,-0.00802586,-1.757198e-05,0.0,0.0,-0.0
104727322,0.065273315,-0.008011928,-4.5198763e-06,0.0,0.0,-0.0
104758512,0.065431185,-0.008021126,-1.9383819e-05,0.0,0.0,-0.0
104791314,0.06540068,-0.007713465,-2.8374036e-05,0.0,0.0,-0.0
104823340,0.06546068,-0.007700641,-1.9587316e-05,0.0,0.0,-0.0
104855275,0.06554463,-0.007748932,-1.589318e-05,0.0,0.0,-0.0
104887301,0.06579366,-0.007690907,-2.015651e-05,0.0,0.0,-0.0
104919362,0.06577745,-0.007733584,-1.5982823e-05,0.0,0.0,-0.0
104951336,0.06590922,-0.007639798,1.7674587e-05,0.0,0.0,-0.0
104983326,0.0660163,-0.007480513,3.6268423e-06,0.0,0.0,-0.0
105014521,0.06579089,-0.0074006976,-1.0953913e-05,0.0,0.0,-0.0
105042528,0.06581375,-0.0073475083,-1.212918e-05,0.0,0.0,-0.0
105074499,0.06576932,-0.0072835265,-1.1661831e-05,0.0,0.0,-0.0
105108112,0.06581945,-0.007202089,-3.0348625e-05,0.0,0.0,-0.0
105140927,0.065792926,-0.007191127,-1.6028922e-05,0.0,0.0,-0.0
105172098,0.065976426,-0.007095497,-3.485688e-05,0.0,0.0,-0.0
105204151,0.06601246,-0.00708042,-2.343636e-05,0.0,0.0,-0.0
105232068,0.0658635,-0.007006482,8.216672e-06,0.0,0.0,-0.0
105264136,0.065845504,-0.006830924,6.1010937e-06,0.0,0.0,-0.0
105296137,0.06581877,-0.0069114966,-1.4333158e-05,0.0,0.0,-0.0
105328139,0.065936245,-0.006848449,3.2017047e-05,0.0,0.0,-0.0
105360065,0.065954775,-0.0068662716,-8.128875e-06,0.0,0.0,-0.0
105392115,0.0660532,-0.0067737317,6.880438e-05,0.0,0.0,-0.0
105424117,0.06604956,-0.006620883,-1.7084523e-05,0.0,0.0,-0.0
105456145,0.06609043,-0.0065357126,-1.4557014e-05,0.0,0.0,-0.0
105488082,0.06602345,-0.0064462665,-3.36514e-05,0.0,0.0,-0.0
105520136,0.0658679,-0.0063336412,-6.316266e-06,0.0,0.0,-0.0
105552111,0.065788195,-0.006430169,2.6649546e-05,0.0,0.0,-0.0
105584142,0.06563057,-0.006481677,5.4656846e-07,0.0,0.0,-0.0
105616092,0.06562545,-0.0062855515,-1.34915235e-05,0.0,0.0,-0.0
105648068,0.06564734,-0.0061004255,3.8553382e-05,0.0,0.0,-0.0
105680156,0.065436974,-0.006001431,-2.5487047e-06,0.0,0.0,-0.0
105708103,0.065570995,-0.005956419,1.4588184e-05,0.0,0.0,-0.0
105740105,0.06541741,-0.005810377,-1.0401574e-05,0.0,0.0,-0.0
105772154,0.06523475,-0.0057801194,5.5257176e-05,0.0,0.0,-0.0
105804086,0.0651743,-0.0057179783,2.0350888e-05,0.0,0.0,-0.0
105836129,0.06500965,-0.005599305,4.5184715e-05,0.0,0.0,-0.0
105868144,0.06497704,-0.0054812296,2.272753e-05,0.0,0.0,-0.0
105900118,0.065007605,-0.005373379,1.5263075e-05,0.0,0.0,-0.0
105932090,0.064795196,-0.005326724,5.3879354e-05,0.0,0.0,-0.0
105960120,0.06459229,-0.0052015055,-1.7639604e-05,0.0,0.0,-0.0
105992065,0.06467811,-0.0050243456,0.00010241574,0.0,0.0,-0.0
106024159,0.064667344,-0.0049937074,2.200146e-05,0.0,0.0,-0.0
106056115,0.06458453,-0.0049276873,0.00012272497,0.0,0.0,-0.0
106088071,0.064670384,-0.0049313284,4.9966897e-05,0.0,0.0,-0.0
106120147,0.06483309,-0.005010639,2.8058545e-05,0.0,0.0,-0.0
106152099,0.06472574,-0.005112717,7.677768e-05,0.0,0.0,-0.0
106184102,0.064785816,-0.0050399536,2.9321338e-05,0.0,0.0,-0.0
106216142,0.064634375,-0.0049865665,2.3934499e-05,0.0,0.0,-0.0
106248096,0.0647874,-0.004875418,2.0343007e-06,0.0,0.0,-0.0
106280090,0.06495111,-0.0047472804,-4.4941617e-06,0.0,0.0,-0.0
106312105,0.064867266,-0.004612838,-1.7012917e-05,0.0,0.0,-0.0
106344129,0.064681225,-0.0046431227,1.1308415e-06,0.0,0.0,-0.0
106376141,0.06471416,-0.0046837297,-0.00011202084,0.0,0.0,-0.0
106408102,0.064809546,-0.0046423534,-5.1064444e-06,0.0,0.0,-0.0
106440177,0.0650054,-0.004657819,-9.6122885e-06,0.0,0.0,-0.0
106472101,0.06509828,-0.0045147534,-4.9498718e-05,0.0,0.0,-0.0
106504125,0.06502952,-0.004583565,-1.6037759e-05,0.0,0.0,-0.0
106536094,0.065069884,-0.0044508292,-4.833002e-05,0.0,0.0,-0.0
106568158,0.06524467,-0.004453941,-6.656379e-05,0.0,0.0,-0.0
106598509,0.065231144,-0.004445036,-8.73617e-06,0.0,0.0,-0.0
106628977,0.065097794,-0.0043856534,-6.39058e-06,0.0,0.0,-0.0
106660907,0.064976305,-0.004445321,-4.183078e-05,0.0,0.0,-0.0
106692131,0.06523213,-0.00427551,1.1692004e-05,0.0,0.0,-0.0
106724866,0.06540277,-0.0042236927,-1.01879095e-05,0.0,0.0,-0.0
106756893,0.06550903,-0.004239488,-2.3847788e-06,0.0,0.0,-0.0
106788914,0.06556234,-0.0042615533,1.9179817e-05,0.0,0.0,-0.0
106820893,0.06539995,-0.004174832,1.8744659e-05,0.0,0.0,-0.0
106852873,0.065073974,-0.0040901564,2.920343e-05,0.0,0.0,-0.0
106884883,0.065036505,-0.004085263,-3.3839244e-06,0.0,0.0,-0.0
106916959,0.06498119,-0.004174815,4.223676e-05,0.0,0.0,-0.0
106948878,0.064979956,-0.004230645,1.660335e-05,0.0,0.0,-0.0
106980893,0.0649743,-0.0042207716,5.208192e-06,0.0,0.0,-0.0
107012904,0.06508858,-0.004270484,4.3885226e-05,0.0,0.0,-0.0
107044940,0.06507987,-0.00409408,1.2214239e-05,0.0,0.0,-0.0
107076974,0.06506966,-0.0039832443,6.968917e-05,0.0,0.0,-0.0
107108900,0.06531988,-0.0038523267,4.2942025e-05,0.0,0.0,-0.0
107140890,0.0653588,-0.0039197914,-2.9595965e-06,0.0,0.0,-0.0
107172949,0.06544934,-0.00410379,-4.535893e-05,0.0,0.0,-0.0
107204867,0.06551372,-0.0041075014,-7.441139e-06,0.0,0.0,-0.0
107236942,0.0652856,-0.004168221,2.1280592e-05,0.0,0.0,-0.0
107268872,0.065285176,-0.0041553453,-1.2027003e-05,0.0,0.0,-0.0
107300997,0.06530288,-0.004222445,-9.410015e-06,0.0,0.0,-0.0
107332863,0.06544119,-0.004093946,6.552675e-05,0.0,0.0,-0.0
107364873,0.0654176,-0.0039520063,9.847077e-06,0.0,0.0,-0.0
107396864,0.06545102,-0.003923896,6.8865455e-05,0.0,0.0,-0.0
107428913,0.065500274,-0.0038086544,3.364178e-05,0.0,0.0,-0.0
107460933,0.0656674,-0.0037080757,-8.454681e-06,0.0,0.0,-0.0
107492870,0.06564343,-0.0035969734,1.6395561e-05,0.0,0.0,-0.0
107524908,0.06561064,-0.0034791762,2.2156637e-05,0.0,0.0,-0.0
107552960,0.065744326,-0.0035212429,2.1762435e-05,0.0,0.0,-0.0
107584877,0.06575676,-0.0035953799,1.5134328e-05,0.0,0.0,-0.0
107616945,0.06577008,-0.0035034053,7.235783e-05,0.0,0.0,-0.0
107648868,0.0657704,-0.0034436102,-9.084328e-06,0.0,0.0,-0.0
107680880,0.065672174,-0.0032319196,-6.7506826e-06,0.0,0.0,-0.0
107712919,0.06561234,-0.0031779888,-1.2435355e-05,0.0,0.0,-0.0
107744896,0.06578635,-0.0031639056,-4.2662014e-06,0.0,0.0,-0.0
107776968,0.065722,-0.0029376182,-2.254051e-06,0.0,0.0,-0.0
107804991,0.06578134,-0.0028049732,-6.467534e-06,0.0,0.0,-0.0
107836865,0.06575682,-0.0027628809,3.331686e-05,0.0,0.0,-0.0
107868935,0.06563873,-0.0028474669,-6.8398112e-06,0.0,0.0,-0.0
107900889,0.06577562,-0.0027439976,-6.2192457e-06,0.0,0.0,-0.0
107932909,0.06565272,-0.0025261352,-2.5503714e-05,0.0,0.0,-0.0
107964881,0.06553341,-0.0026561946,-1.542942e-05,0.0,0.0,-0.0
107996892,0.06553851,-0.0025281808,-4.243878e-05,0.0,0.0,-0.0
108028907,0.065703906,-0.0024081264,-2.2562235e-05,0.0,0.0,-0.0
108060910,0.06572326,-0.0024047093,-4.519604e-06,0.0,0.0,-0.0
108092873,0.065696254,-0.002339502,8.592412e-06,0.0,0.0,-0.0
108124868,0.0657004,-0.0025609592,-3.8680275e-05,0.0,0.0,-0.12
108156888,0.06560777,-0.0025685215,-3.3068773e-05,0.0,0.0,-0.12
108188915,0.06556864,-0.0024800748,-7.676107e-05,0.0,0.0,-0.12
108217736,0.06564111,-0.002551697,-7.4450836e-05,0.0,0.0,-0.12
108252919,0.065579586,-0.0024897966,-0.0004861244,0.0,0.0,-0.12
108285681,0.06562127,-0.0027609903,1.834509e-05,0.0,0.0,-0.12
108317699,0.06553722,-0.0026316321,0.00052178034,0.0,0.0,-0.12
108349739,0.065797314,-0.0025941695,0.00053089415,0.0,0.0,-0.12
108381702,0.06579971,-0.0026233862,0.00032430846,0.0,0.0,-0.12
108413718,0.06600108,-0.0026447515,0.0003446328,0.0,0.0,-0.12
108445705,0.0662228,-0.002503062,0.00057443784,0.0,0.0,-0.1289455
108477708,0.06617737,-0.0023196163,0.00070733187,0.0,0.0,-0.13517866
108509699,0.066139996,-0.0021232048,0.000632533,0.0,0.0,-0.14833716
108541681,0.06592499,-0.0018907504,0.00045426947,0.0,0.0,-0.16155359
108573744,0.06584043,-0.002214326,0.00013406217,0.0,0.0,-0.16814265
108605700,0.064343,-0.0022271571,-0.00034116683,0.0,0.0,-0.18152902
108637723,0.062070716,-0.0020926583,-0.00038467956,0.0,0.0,-0.18821734
108665708,0.061921157,-0.0028878439,-0.00046321622,0.0,0.0,-0.20156091
108697672,0.06440359,-0.0032396151,0.00010976164,0.0,0.0,-0.20833656
108729702,0.064261496,-0.0028200592,0.000103518,0.0,0.0,-0.22176743
108761710,0.06301175,-0.0032555698,-0.00046423468,0.0,0.0,-0.23538163
108793707,0.061586007,-0.0040302216,-0.00065409933,0.0,0.0,-0.24224842
108825720,0.06397972,-0.0031695468,-0.0008040461,0.0,0.0,-0.25492448
108857674,0.06332374,-0.003923006,-0.00089473557,0.0,0.0,-0.26282048
108889765,0.062451974,-0.003051446,-0.00085060485,0.0,0.0,-0.27723143
108917686,0.06166832,-0.004660139,-0.0009305843,0.0,0.0,-0.28353685
108949751,0.066571325,-0.0058374903,-0.001361419,0.0,0.0,-0.29690212
108981669,0.06610833,-0.0037837976,-0.0021346007,0.0,0.0,-0.3053748
109013679,0.0719848,-0.0032769337,-0.0029720087,0.0,0.0,-0.3100083
109045680,0.07948391,-0.004429393,-0.0033635162,0.0,0.0,-0.324306
109077738,0.077760905,-0.006966674,-0.0033520828,0.0,0.0,-0.33310533
109109726,0.08004804,-0.008237068,-0.0040243748,0.0,0.0,-0.35160345
109141733,0.08150099,-0.0064677,-0.004429255,0.0,0.0,-0.36681834
109173678,0.080874056,-0.008264587,-0.0043856185,0.0,0.0,-0.3726949
109205738,0.08464291,-0.0066167195,-0.004414946,0.0,0.0,-0.3840227
109237715,0.082794644,-0.006448728,-0.005541234,0.0,0.0,-0.3908071
109269725,0.07374233,-0.009579083,-0.0062171235,0.0,0.0,-0.40645516
109301673,0.07330655,-0.01671074,-0.0060123266,0.0,0.0,-0.41950697
109333759,0.06993104,-0.010757298,-0.00694865,0.0,0.0,-0.42779636
109365718,0.06814407,-0.0046562687,-0.0070314812,0.0,0.0,-0.44424474
109393750,0.06958624,-0.015179401,-0.005709814,0.0,0.0,-0.44955134
109425676,0.0667533,-0.009860672,-0.006714439,0.0,0.0,-0.45263508
109457710,0.07359045,-0.010884412,-0.00707334,0.0,0.0,-0.4450145
109489678,0.07189265,-0.038665928,-0.0064683394,0.0,0.0,-0.42880517
109521739,0.047987934,-0.05058203,-0.0069588805,0.0,0.0,-0.42399538
109553679,0.045240425,-0.049487088,-0.0074364855,0.0,0.0,-0.4192048
109584917,0.06580679,-0.04302349,-0.00805659,0.0,0.0,-0.4198184
109617704,0.07531053,-0.03955692,-0.009234421,0.0,0.0,-0.42296106
109645718,0.065534785,-0.020442627,-0.010297021,0.0,0.0,-0.41671127
109677710,0.07576043,-0.0011600069,-0.009622457,0.0,0.0,-0.4112069
109709750,0.07916346,-0.017872073,-0.009870553,0.0,0.0,-0.405546
109741670,0.058684934,-0.017791403,-0.011326082,0.0,0.0,-0.40667802
109773708,0.07628702,0.0006961426,-0.011735598,0.0,0.0,-0.4061665
109805720,0.086466275,-0.007407228,-0.010796253,0.0,0.0,-0.41094178
109838500,0.07036908,-0.003554437,-0.009817808,0.0,0.0,-0.410049
109872120,0.08821172,-0.013070953,-0.009257243,0.0,0.0,-0.43051374
109903319,0.08135694,-0.0033431628,-0.009833278,0.0,0.0,-0.4366108
109935273,0.0731608,-0.009020388,-0.009081922,0.0,0.0,-0.4443566
109967307,0.06780453,-0.014189935,-0.010023249,0.0,0.0,-0.45777097
109998563,0.056719404,-0.021896923,-0.009991899,0.0,0.0,-0.4614495
110030467,0.04506551,-0.018497698,-0.012581742,0.0,0.0,-0.4600038
110062538,0.046886068,-0.014473688,-0.015070052,0.0,0.0,-0.45718637
110090482,0.04328769,-0.010418176,-0.016316384,0.0,0.0,-0.45261294
110122500,0.033968247,-0.029250417,-0.018397773,0.0,0.0,-0.44951868
110154509,0.006776193,-0.04249916,-0.019714048,0.0,0.0,-0.44573665
110186534,-0.0009314784,-0.026062023,-0.021760318,0.0,0.0,-0.44252095
110218468,0.007964731,-0.026864322,-0.023764592,0.0,0.0,-0.43961522
110250507,0.016083928,-0.03398029,-0.026403379,0.0,0.0,-0.44004387
110282514,0.016124109,-0.035352997,-0.029022027,0.0,0.0,-0.43936563
110310500,0.00821246,-0.03274614,-0.030470582,0.0,0.0,-0.43949312
110342517,0.0039043047,-0.026292413,-0.03204965,0.0,0.0,-0.43928683
110374483,0.0153788915,-0.021664053,-0.034468234,0.0,0.0,-0.43926585
110406469,0.027671617,-0.021411415,-0.037105825,0.0,0.0,-0.4418238
110438516,0.0359015,-0.032792043,-0.038940214,0.0,0.0,-0.4429276
110470515,0.012495154,-0.033591166,-0.040502623,0.0,0.0,-0.4441658
110502565,0.016017854,-0.02302671,-0.042661995,0.0,0.0,-0.44592017
110534503,0.015081059,-0.026370523,-0.04422559,0.0,0.0,-0.4457363
110566545,0.009124948,-0.030535402,-0.047022942,0.0,0.0,-0.44893003
110594489,0.012089992,-0.03681081,-0.048670072,0.0,0.0,-0.44892064
110626514,0.01956832,-0.033343125,-0.049495187,0.0,0.0,-0.44697466
110658494,0.03984373,-0.033367038,-0.05063448,0.0,0.0,-0.44678584
110690501,0.033842366,-0.030182183,-0.049955793,0.0,0.0,-0.45013928
110722483,0.026772147,-0.028421331,-0.048130654,0.0,0.0,-0.44749695
110754528,0.021839703,-0.010010008,-0.048379622,0.0,0.0,-0.44759718
110786501,0.02674092,-0.011817522,-0.046975855,0.0,0.0,-0.4465354
110818516,0.01845674,-0.033011805,-0.046100628,0.0,0.0,-0.4441231
110846519,0.020550614,-0.049504742,-0.047229316,0.0,0.0,-0.44096184
110878476,-0.0046746037,-0.050067868,-0.047335353,0.0,0.0,-0.44046175
110910470,-0.0066558304,-0.030604327,-0.046946935,0.0,0.0,-0.4402096
110942533,0.012441573,-0.021780385,-0.045709867,0.0,0.0,-0.44405645
110974517,0.04563977,-0.019122873,-0.04500472,0.0,0.0,-0.44456267
111006507,0.05362281,-0.020697042,-0.04425645,0.0,0.0,-0.4443918
111038484,0.031523567,-0.020885086,-0.043634497,0.0,0.0,-0.44306678
111070518,0.0038224612,-0.0019298545,-0.04182037,0.0,0.0,-0.44368574
111098505,-0.0060289055,-0.004896384,-0.040900495,0.0,0.0,-0.44332668
111130509,-0.011216537,-0.015637338,-0.039492484,0.0,0.0,-0.44541264
111162497,0.03814804,-0.015448305,-0.037920635,0.0,0.0,-0.43492147
111194504,0.096868806,-0.008195753,-0.03812223,0.0,0.0,-0.42877403
111225713,0.10085316,-0.008518228,-0.037220437,0.0,0.0,-0.42908353
111258536,0.06756203,-0.014650484,-0.036393296,0.0,0.0,-0.4287308
111290500,0.0507257,-0.010949456,-0.038930215,0.0,0.0,-0.42941138
111323306,0.062100403,-0.00019764401,-0.039821018,0.0,0.0,-0.43314168
111353706,0.058387928,-0.020734644,-0.03797666,0.0,0.0,-0.43559766
111387285,0.051257353,-0.0059647164,-0.039579794,0.0,0.0,-0.4646818
111418498,0.06206274,-0.014878472,-0.0398984,0.0,0.0,-0.47360098
111449716,0.047923833,-0.032131415,-0.041672032,0.0,0.0,-0.47723147
111482488,0.04085349,-0.014720122,-0.044569064,0.0,0.0,-0.47286493
111511281,0.042281393,-0.014392848,-0.04653437,0.0,0.0,-0.47116402
111543317,0.038200114,-0.03185508,-0.047636088,0.0,0.0,-0.46647176
111575278,0.030295666,-0.025808256,-0.048702825,0.0,0.0,-0.46151245
111607324,0.03203017,-0.010023521,-0.050381936,0.0,0.0,-0.46442038
111639342,0.011101226,-0.011078576,-0.051224556,0.0,0.0,-0.46684405
111671318,0.01484537,-0.03442711,-0.05133515,0.0,0.0,-0.4648487
111703364,0.012104977,-0.04673141,-0.050990626,0.0,0.0,-0.4621188
111735351,-0.0044840937,-0.04083126,-0.0497296,0.0,0.0,-0.45636487
111763391,-0.008460184,-0.023088278,-0.05058327,0.0,0.0,-0.45214242
111795297,-0.006570103,-0.01954466,-0.050434668,0.0,0.0,-0.4451054
111827273,0.007661448,-0.029819578,-0.05017816,0.0,0.0,-0.4298479
111859351,0.0055881455,-0.049365636,-0.049054094,0.0,0.0,-0.42361167
111891319,-0.00083876454,-0.050872635,-0.047234993,0.0,0.0,-0.41667995
111923352,0.00677654,-0.032785993,-0.045647413,0.0,0.0,-0.4145285
111955264,-0.009441563,-0.027879894,-0.043461412,0.0,0.0,-0.42012867
111987276,-0.02301151,-0.018410247,-0.04113483,0.0,0.0,-0.43190318
112015280,-0.025417514,-0.023756174,-0.038135007,0.0,0.0,-0.43702984
112047317,-0.017514717,-0.037488706,-0.035544917,0.0,0.0,-0.445932
112079418,-0.010850966,-0.037823725,-0.032682583,0.0,0.0,-0.45145005
112111309,0.0045868843,-0.043629605,-0.030266294,0.0,0.0,-0.45600384
112143309,0.0026697877,-0.058496304,-0.02715125,0.0,0.0,-0.46010733
112175302,-0.00044768423,-0.064199105,-0.025400208,0.0,0.0,-0.4584385
112207307,0.0009832677,-0.06137331,-0.023517514,0.0,0.0,-0.45643857
112239385,0.0026402574,-0.05926547,-0.021637479,0.0,0.0,-0.45527306
112267302,0.012977533,-0.062467054,-0.020016488,0.0,0.0,-0.4550221
112299378,0.0021229084,-0.06477088,-0.017707216,0.0,0.0,-0.45407814
112331279,-0.01627436,-0.058877323,-0.016311768,0.0,0.0,-0.45306534
112363336,-0.022615142,-0.04417189,-0.014388673,0.0,0.0,-0.45611438
112395295,-0.00094716664,-0.026571695,-0.0139723215,0.0,0.0,-0.45668864
112427335,0.014932259,-0.017980041,-0.013290985,0.0,0.0,-0.4833471
112459353,0.011848842,-0.024545183,-0.01312497,0.0,0.0,-0.49430394
112491318,0.010480525,-0.03248964,-0.0131921405,0.0,0.0,-0.49746242
112523334,0.015087437,-0.039425906,-0.013469655,0.0,0.0,-0.4858249
112555344,0.007817661,-0.069292195,-0.014063312,0.0,0.0,-0.481112
112587269,-0.0061557745,-0.084482685,-0.0156402,0.0,0.0,-0.47610337
112619402,-0.0077194604,-0.06533358,-0.016824497,0.0,0.0,-0.4694202
112651289,0.015215637,-0.044370934,-0.016732031,0.0,0.0,-0.463344
112683392,0.031136109,-0.043172054,-0.017207846,0.0,0.0,-0.45608675
112715279,0.006957342,-0.05179631,-0.018452339,0.0,0.0,-0.45476228
112743362,-0.01507669,-0.046521574,-0.01877613,0.0,0.0,-0.45683995
112775272,-0.0041180467,-0.019022169,-0.018923804,0.0,0.0,-0.45745146
112808124,0.020730652,-0.0028254099,-0.019919865,0.0,0.0,-0.4607151
112840111,0.011546227,-0.03387834,-0.019320123,0.0,0.0,-0.4645509
112871348,-0.0040295133,-0.05551032,-0.018213589,0.0,0.0,-0.46329027
112903313,-0.010590028,-0.034974627,-0.018062893,0.0,0.0,-0.46347654
112934525,-0.0037691605,-0.020139495,-0.018102942,0.0,0.0,-0.46635497
112967326,-0.006254513,-0.02020068,-0.016471341,0.0,0.0,-0.46525985
112995325,-0.00026998893,-0.029608186,-0.015618406,0.0,0.0,-0.4634619
113027310,-0.0036282388,-0.0464027,-0.015140254,0.0,0.0,-0.4579033
113059408,-0.025051177,-0.052508008,-0.014692884,0.0,0.0,-0.45988423
113090491,-0.030582365,-0.05709731,-0.013180419,0.0,0.0,-0.45714325
113122545,-0.0012140741,-0.047710117,-0.01118022,0.0,0.0,-0.45499545
113156114,0.0028933536,-0.04169369,-0.0093998825,0.0,0.0,-0.4549866
113188096,-0.023377033,-0.06272978,-0.007683352,0.0,0.0,-0.4568381
113220092,-0.023891276,-0.054323386,-0.0058580786,0.0,0.0,-0.458059
113252093,-0.005714816,-0.034802165,-0.0037773547,0.0,0.0,-0.45930597
113284165,-0.01996406,-0.027082033,-0.0016302085,0.0,0.0,-0.46195483
113316106,-0.02742608,-0.07074499,5.7131198e-05,0.0,0.0,-0.4604895
113348119,0.005329429,-0.13997701,0.0012343955,0.0,0.0,-0.46006256
113380072,0.07777888,-0.1956289,0.0026094408,0.0,0.0,-0.4612098
113412152,0.41332984,-0.33517173,0.0063632466,0.0,0.0,-0.46202835
113444115,0.70956916,-0.44710273,0.015501121,0.0,0.0,-0.46580443
113476125,0.80354744,-0.43465894,0.021967055,0.0,0.0,-0.4689319
113508079,0.8499411,-0.30804783,0.02171431,0.0,0.0,-0.47368115
113540154,0.80657446,-0.27973485,0.024969071,0.0,0.0,-0.47280318
113572113,0.78902346,-0.31347224,0.03229658,0.0,0.0,-0.48095962
113604215,0.76627064,-0.30432802,0.035992272,0.0,0.0,-0.48448822
113632123,0.6472446,-0.22615792,0.031186715,0.0,0.0,-0.48540667
113664112,0.5009673,-0.14826931,0.026280534,0.0,0.0,-0.4842975
113696075,0.48819622,-0.14195597,0.028365081,0.0,0.0,-0.4861311
113728157,0.44508135,-0.12992798,0.029570846,0.0,0.0,-0.483314
113760120,0.34234834,-0.09272167,0.025655784,0.0,0.0,-0.48276007
113792117,-0.21668532,0.0685559,0.009401819,0.0,0.0,-0.47264436
113824093,-0.69671845,0.23340121,-0.0018263181,0.0,0.0,-0.46282473
113856176,-1.2215953,0.46726477,-0.010701934,0.0,0.0,-0.45434064
113884128,-1.2879341,0.5365801,-0.009858759,0.0,0.0,-0.4543018
113916141,-1.079651,0.47606796,-0.007477266,0.0,0.0,-0.4641911
113948121,-0.77262986,0.32705054,-0.0071644983,0.0,0.0,-0.46976784
113980102,-0.5340437,0.21069813,-0.006999751,0.0,0.0,-0.47205365
114012077,-0.37504235,0.13913162,-0.006907959,0.0,0.0,-0.47206518
114044164,-0.27099475,0.09122407,-0.0050793723,0.0,0.0,-0.4734046
114076104,-0.19001378,0.07719252,-0.0041623577,0.0,0.0,-0.47653583
114108118,-0.1302139,0.06460652,-0.0025823507,0.0,0.0,-0.47967684
114140084,-0.105020605,0.037711557,-0.0011275847,0.0,0.0,-0.48143137
114172151,-0.06973186,0.013179063,-0.00016644696,0.0,0.0,-0.48120475
114204100,-0.03533464,0.012154643,-0.00019427638,0.0,0.0,-0.47879758
114236070,-0.031680282,0.0064259693,0.0004644249,0.0,0.0,-0.47035563
114268075,-0.04297339,-0.008742995,0.00049356476,0.0,0.0,-0.4676016
114300116,-0.019384617,-0.02210036,0.0016106939,0.0,0.0,-0.46616665
114332110,-0.0037078746,0.20792492,0.0014203542,0.0,0.0,-0.4647406
114360175,0.0069552944,0.20450445,0.0010582055,0.0,0.0,-0.46518615
114395328,-0.1236463,0.5481927,0.0054636383,0.0,0.0,-0.4670814
114424124,-0.28363404,0.66953766,0.010818592,0.0,0.0,-0.46988627
114456071,-0.63579303,1.0382156,0.031748094,0.0,0.0,-0.48150682
114488176,-0.6538343,0.9832157,0.040230814,0.0,0.0,-0.48614803
114520075,-0.503313,0.7288238,0.038427915,0.0,0.0,-0.48737603
114552092,-0.34802318,0.5318885,0.037719257,0.0,0.0,-0.4798459
114584094,-0.2536547,0.41694894,0.03827357,0.0,0.0,-0.47518423
114612867,-0.15281917,0.39924935,0.039410688,0.0,0.0,-0.46825776
114644114,-0.030870272,0.32695597,0.038118504,0.0,0.0,-0.46776035
114676151,0.055664644,0.33246124,0.040613536,0.0,0.0,-0.4700529
114708079,0.13834108,0.33430544,0.040715113,0.0,0.0,-0.47569397
114740864,0.1296871,0.2604571,0.037735824,0.0,0.0,-0.4733444
114772092,0.30697003,-0.017514778,0.027851766,0.0,0.0,-0.47425205
114804167,0.38417238,-0.34046447,0.01764945,0.0,0.0,-0.4748361
114832917,0.44821134,-0.80360335,0.0056406613,0.0,0.0,-0.4701313
114864909,0.4519246,-1.039552,-0.000636728,0.0,0.0,-0.46897554
114896880,0.45691124,-1.3635328,-0.0068479776,0.0,0.0,-0.46890336
114928873,0.33226576,-1.0396237,-0.0063494868,0.0,0.0,-0.47139147
114960912,0.23757815,-0.7328651,-0.00679711,0.0,0.0,-0.47146562
114992911,0.18369201,-0.5087318,-0.0068826824,0.0,0.0,-0.47440767
115024948,0.16102472,-0.37784258,-0.006687954,0.0,0.0,-0.47632492
115056916,0.13592787,-0.29193747,-0.005054948,0.0,0.0,-0.47980472
115084897,0.09654644,-0.23411554,-0.003339464,0.0,0.0,-0.48296964
115116870,0.055829477,-0.15881759,-0.0019906303,0.0,0.0,-0.48323965
115148908,0.048029482,-0.09768701,0.000384152,0.0,0.0,-0.48168254
115180894,0.056289967,-0.07973261,0.0016636023,0.0,0.0,-0.48100945
115212873,0.03876812,-0.08324848,0.0024836909,0.0,0.0,-0.4804533
115244867,0.015542648,-0.062413048,0.0041686166,0.0,0.0,-0.48254287
115276915,0.0010158336,-0.03199345,0.004464127,0.0,0.0,-0.48060596
115308954,0.010588491,-0.007203527,0.004667363,0.0,0.0,-0.48182058
115336936,0.0139020365,0.005580426,0.0054595554,0.0,0.0,-0.48090488
115368914,-0.0016674226,0.0039751623,0.005674392,0.0,0.0,-0.4780399
115400869,0.0085328575,-0.009595401,0.0050438778,0.0,0.0,-0.4782362
115432866,0.03909552,-0.016400151,0.13592182,0.0,0.0,-0.47621647
115464898,0.048138328,-0.022709321,0.13446817,0.0,0.0,-0.47581872
115496922,0.025219282,-0.02706888,0.2087029,0.0,0.0,-0.47951016
115528907,0.024578495,-0.021522515,0.32952592,0.0,0.0,-0.4794946
115560916,0.04107259,-0.021391949,0.3788665,0.0,0.0,-0.48043776
115588863,0.030516572,-0.007421284,0.45870548,0.0,0.0,-0.48440802
115620871,0.0038658634,0.00039478822,0.45543504,0.0,0.0,-0.48408285
115652935,-0.0019807827,0.030940719,0.4541521,0.0,0.0,-0.48436245
115684897,0.015823264,0.038983688,0.3733079,0.0,0.0,-0.48369583
115716878,0.012991132,0.021271957,0.34192923,0.0,0.0,-0.48423478
115748915,0.009483218,0.0016732032,0.26396957,0.0,0.0,-0.48261613
115780942,0.005180879,-0.005028036,0.25482094,0.0,0.0,-0.4803882
115812953,0.0021056007,-0.0028488336,0.32472083,0.0,0.0,-0.47684735
115840932,0.011228919,0.011853488,0.30893913,0.0,0.0,-0.4763903
115872900,0.036538977,-0.0020862364,0.097193845,0.0,0.0,-0.47606924
115904878,0.029060865,-0.01633891,0.09001942,0.0,0.0,-0.47779602
115936868,0.0150448885,-0.025790047,-0.014690645,0.0,0.0,-0.47835177
115968931,0.018921966,-0.036071327,-0.026166465,0.0,0.0,-0.4796917
116000915,0.023480712,-0.034765188,-0.03539615,0.0,0.0,-0.47814924
116032911,0.030803004,-0.031043898,-0.042890675,0.0,0.0,-0.47724122
116064877,0.023996998,-0.021824641,-0.048185993,0.0,0.0,-0.47651896
116092895,0.019120809,-0.013910986,-0.05164356,0.0,0.0,-0.4766614
116124876,0.019309735,-0.004699075,-0.05439244,0.0,0.0,-0.47702855
116156904,0.037328407,-0.00038225882,-0.05651965,0.0,0.0,-0.47684363
116188870,0.047337223,-0.0023490642,0.03834343,0.0,0.0,-0.47882643
116220875,0.038378064,-0.0047894977,0.21450596,0.0,0.0,-0.47832182
116380872,0.03891609,0.0484643,0.42247796,0.0,0.0,-0.47364426
116413704,0.044200085,0.03731578,0.24309365,0.0,0.0,-0.47397256
116445698,0.037671626,0.014737482,0.004261735,0.0,0.0,-0.47362277
116476107,0.031956024,0.0004744296,-0.014125308,0.0,0.0,-0.468203
116669690,0.025066452,0.011064119,-0.20843942,0.0,0.0,-0.47274733
116701748,0.043475624,0.018639818,-0.20800011,0.0,0.0,-0.47273886
116729732,0.0540302,0.01378044,-0.52133936,0.0,0.0,-0.48322225
116761739,0.05137036,-0.0023328895,-0.6020253,0.0,0.0,-0.48295006
116793682,0.040013652,-0.017161109,-0.87587136,0.0,0.0,-0.49250948
116825723,0.042229347,-0.011727767,-0.93714017,0.0,0.0,-0.49398077
116857688,0.05959863,0.00041860528,-1.0528619,0.0,0.0,-0.48963657
116889781,0.054360673,0.0038336623,-1.1477997,0.0,0.0,-0.48203185
116921666,0.018039104,-0.013549521,-1.1695566,0.0,0.0,-0.4819803
116953720,-0.016708666,-0.025848636,-1.28692,0.0,0.0,-0.47799715
116981674,-0.018396541,-0.018068671,-1.2659078,0.0,0.0,-0.4717103
117013705,0.014000754,-0.0036557517,-1.3314677,0.0,0.0,-0.47580254
117045695,0.049309473,-0.00085073523,-1.2125642,0.0,0.0,-0.47219324
117077712,0.058934525,-0.0035042325,-0.99074113,0.0,0.0,-0.46721745
117109685,0.042321153,-0.0032051024,-1.060778,0.0,0.0,-0.4733928
117141712,0.012671992,0.0019942385,-1.03041,0.0,0.0,-0.47345367
117173708,0.010907101,0.004495721,-1.265415,0.0,0.0,-0.48489165
117205751,0.020151086,-0.010232654,-1.3731678,0.0,0.0,-0.49465483
117237668,0.03805726,-0.02980273,-1.4731101,0.0,0.0,-0.50306755
117269749,0.044242408,-0.0460761,-1.2004879,0.0,0.0,-0.48640925
117301712,0.041163277,-0.043822125,-1.000378,0.0,0.0,-0.471678
117333741,0.041257754,-0.018315205,-0.97182184,0.0,0.0,-0.46102735
117365685,0.040207505,0.0054927683,-0.92070913,0.0,0.0,-0.4614963
117397697,0.036369313,0.01533973,-0.8870865,0.0,0.0,-0.46327958
117429735,0.039597522,0.019214572,-0.8949743,0.0,0.0,-0.46994445
117457706,0.03719867,0.025160765,-0.86706275,0.0,0.0,-0.47325987
117489726,0.04101029,0.027740333,-0.8650241,0.0,0.0,-0.47679523
117521755,0.047125127,0.020958826,-0.83886033,0.0,0.0,-0.47973868
117553680,0.047883146,0.022571614,-0.8861151,0.0,0.0,-0.48420942
117585714,0.037761867,0.034197237,-0.8559059,0.0,0.0,-0.48594707
117617725,0.028447384,0.046394486,-0.8129174,0.0,0.0,-0.4835434
117649791,0.02551833,0.04335524,-0.8077035,0.0,0.0,-0.48452038
117681678,0.016408443,0.028904047,-0.7786309,0.0,0.0,-0.4827927
117709770,0.0124997515,0.022916002,-0.840051,0.0,0.0,-0.48582792
117741657,0.015045327,0.022953732,-0.8102044,0.0,0.0,-0.4859562
117773728,0.018804872,0.022057593,-0.8526404,0.0,0.0,-0.4850603
117805696,0.010206589,0.035881918,-0.83769166,0.0,0.0,-0.48631653
117837744,0.0027559446,0.034488235,-0.88684016,0.0,0.0,-0.48554748
117869667,0.0061524855,0.011969537,-0.9648468,0.0,0.0,-0.4869615
117901719,0.0011502475,0.007353651,-1.0235457,0.0,0.0,-0.48914054
117933727,-0.00043012947,0.035442967,-1.1164922,0.0,0.0,-0.49113292
117961729,0.011983467,0.04395772,-1.1286796,0.0,0.0,-0.4926237
117996924,0.011166451,0.009781985,-1.1277194,0.0,0.0,-0.49756637
118026516,-0.0021654267,-0.0075273206,-1.084163,0.0,0.0,-0.49520975
118058506,-0.0052650347,0.011969171,-1.0905912,0.0,0.0,-0.48890227
118090472,-0.011664008,0.03061676,-1.0890287,0.0,0.0,-0.4834419
118121730,-0.016651357,0.031142263,-1.0537357,0.0,0.0,-0.4827078
118154525,-0.010720652,0.034506194,-0.9967803,0.0,0.0,-0.47591785
118182499,-0.00055879867,0.039396346,-1.0183128,0.0,0.0,-0.4790162
118214467,0.0023867623,0.037117563,-1.2168872,0.0,0.0,-0.48638117
118246470,-0.016674584,0.032468334,-1.2404866,0.0,0.0,-0.48553607
118278478,-0.02596111,0.027861476,-1.2488841,0.0,0.0,-0.48724064
118310510,-0.021805342,0.03424016,-1.2482723,0.0,0.0,-0.48715162
118342501,-0.007858105,0.041445613,-1.1685503,0.0,0.0,-0.48641634
118374476,-0.012444704,0.05133447,-1.1225713,0.0,0.0,-0.48688814
118406484,-0.017250154,0.051570795,-1.0467577,0.0,0.0,-0.48656434
118434487,-0.019252662,0.05186412,-1.017781,0.0,0.0,-0.48297507
118466521,-0.030833714,0.04720962,-0.9666299,0.0,0.0,-0.48366472
118498536,-0.028604865,0.051525515,-0.97355133,0.0,0.0,-0.48471716
118530473,-0.023682395,0.06580285,-1.0193206,0.0,0.0,-0.4870701
118562481,-0.028667081,0.07193416,-1.0466363,0.0,0.0,-0.48789415
118594493,-0.05246099,0.052966554,-1.3092657,0.0,0.0,-0.502592
118626531,-0.052644696,0.045699056,-1.2700989,0.0,0.0,-0.50327814
118658482,-0.039686896,0.043369062,-1.2274132,0.0,0.0,-0.5031716
118686503,-0.02540052,0.03979899,-1.1359987,0.0,0.0,-0.49559665
118718471,-0.04349409,0.023292933,-1.159649,0.0,0.0,-0.4889585
118750467,-0.04898538,0.010326313,-1.191925,0.0,0.0,-0.48618063
118782475,-0.042960957,0.016943976,-1.1331125,0.0,0.0,-0.48481283
118814497,-0.04473145,0.022878401,-1.1462812,0.0,0.0,-0.48359323
118846487,-0.039805513,0.018493682,-1.113831,0.0,0.0,-0.48443297
118878510,-0.038427133,0.011532259,-1.1432146,0.0,0.0,-0.4847773
118910510,-0.061051525,0.0029505258,-1.167889,0.0,0.0,-0.48879662
118938480,-0.06532607,-0.004032793,-1.1416031,0.0,0.0,-0.48762694
118970513,-0.06987653,-0.0022799717,-1.1617348,0.0,0.0,-0.48846748
119002555,-0.06389816,-0.002172741,-1.1012416,0.0,0.0,-0.4883355
119034467,-0.07193038,-0.012862943,-0.9871979,0.0,0.0,-0.48512635
119066498,-0.06314301,-0.004129965,-0.84604144,0.0,0.0,-0.48170227
119098510,-0.062135916,0.0070079393,-0.69783974,0.0,0.0,-0.47599703
119130522,-0.08393573,0.005348063,-0.65868986,0.0,0.0,-0.47788772
119162479,-0.09958251,0.011408219,-0.6299839,0.0,0.0,-0.47869644
119190520,-0.10426886,0.009288593,-0.6719958,0.0,0.0,-0.48284003
119222467,-0.08964342,0.006711143,-0.6567433,0.0,0.0,-0.4845697
119254476,-0.08240572,-0.0007783873,-0.69228655,0.0,0.0,-0.48404542
119286505,-0.070608154,-0.005619686,-0.66004086,0.0,0.0,-0.48124698
119318515,-0.06641104,0.0002018339,-0.39768264,0.0,0.0,-0.47445214
119350482,-0.07058049,0.0104028685,-0.028605022,0.0,0.0,-0.46096718
119382524,-0.06869917,0.014587918,0.017281406,0.0,0.0,-0.45513105
119414501,-0.082459815,0.011962856,0.054219007,0.0,0.0,-0.44514954
119442479,-0.095145024,0.010818332,0.07908627,0.0,0.0,-0.44537443
119474510,-0.105153285,-0.0015143648,0.10357477,0.0,0.0,-0.45091182
119506488,-0.10135019,-0.0073313545,0.12383513,0.0,0.0,-0.45753905
119538467,-0.096340284,-0.0136340605,0.13927074,0.0,0.0,-0.46832404
119569737,-0.08352047,-0.014456319,0.1519943,0.0,0.0,-0.4739594
119602514,-0.07026585,-0.0064406223,0.16143192,0.0,0.0,-0.4866546
119634511,-0.0784939,-0.0028437919,0.16683178,0.0,0.0,-0.4978922
119666472,-0.085380696,-0.009926567,0.17043123,0.0,0.0,-0.4998156
119694470,-0.079557285,-0.008468542,0.17137483,0.0,0.0,-0.4995328
119726469,-0.06893764,0.011517993,0.16964635,0.0,0.0,-0.50076705
119758514,-0.060817413,0.016892735,0.1670921,0.0,0.0,-0.4990205
119791313,-0.059839003,-0.00029086566,0.16263951,0.0,0.0,-0.4943561
119823393,-0.04966748,-0.002723418,0.15553233,0.0,0.0,-0.49203512
119855285,-0.046019174,0.005418327,0.14817025,0.0,0.0,-0.48942712
119886489,-0.062684394,0.0072127827,0.14165293,0.0,0.0,-0.48802698
119916071,-0.064994596,0.014229519,0.13523015,0.0,0.0,-0.48520598
119948066,-0.04314657,0.015589419,0.12789296,0.0,0.0,-0.48294652
119979395,-0.044254772,0.01752538,0.12116879,0.0,0.0,-0.48187545
120011376,-0.048082244,0.02460621,0.11353677,0.0,0.0,-0.4801648
120043293,-0.044210803,0.018587256,0.10685514,0.0,0.0,-0.48098558
120075314,-0.052691214,0.0098648,0.09943627,0.0,0.0,-0.48314244
120107335,-0.043291084,0.0014628331,0.09281801,0.0,0.0,-0.48597014
120135324,-0.031299986,0.0005111564,0.08621224,0.0,0.0,-0.48562282
120167305,-0.04075235,0.00026407948,0.0796362,0.0,0.0,-0.48741952
120199409,-0.04732407,-0.00083508354,0.07308304,0.0,0.0,-0.49023926
120231275,-0.03068868,0.0040662955,0.0665198,0.0,0.0,-0.49014574
120263338,-0.01669157,0.0053475224,0.05990428,0.0,0.0,-0.4917067
120295301,-0.0311159,-0.0050983946,0.06334237,0.0,0.0,-0.48964298
120327378,-0.0457648,-0.011978893,0.12834746,0.0,0.0,-0.4901238
120359334,-0.036258917,-0.0059122522,0.20163964,0.0,0.0,-0.49161467
120387290,-0.023191873,0.0063405116,0.28267962,0.0,0.0,-0.48992068
120419333,-0.024431456,0.01206727,0.3682028,0.0,0.0,-0.48907042
120451333,-0.017730847,0.013956667,0.40361607,0.0,0.0,-0.48976824
120483346,-0.013058405,0.010803738,0.4329576,0.0,0.0,-0.4887727
120515313,-0.026711471,0.011923412,0.45056778,0.0,0.0,-0.48716676
120547263,-0.042001702,0.016898664,0.42078596,0.0,0.0,-0.4861736
120579411,-0.045998964,0.010321429,0.41794008,0.0,0.0,-0.48498797
120611321,-0.039153863,0.003800015,0.34156013,0.0,0.0,-0.484189
120639373,-0.029310433,-0.007953601,0.2418687,0.0,0.0,-0.48342967
120671306,-0.039317023,-0.0007175789,0.18675411,0.0,0.0,-0.48363432
120703355,-0.03777488,0.012960988,0.17396992,0.0,0.0,-0.4855886
120735277,-0.030929709,0.030232513,0.093316816,0.0,0.0,-0.4845261
120767353,-0.03977936,0.03896634,-0.00950877,0.0,0.0,-0.48775774
120799355,-0.037673134,0.020499114,-0.023889832,0.0,0.0,-0.4945697
120831320,-0.032284085,0.008940414,-0.03324948,0.0,0.0,-0.49830425
120863315,-0.028824313,0.015247668,-0.04084262,0.0,0.0,-0.4947353
120891294,-0.01948319,0.027709927,-0.046803907,0.0,0.0,-0.4977991
120923334,-0.03001903,0.023786038,-0.05243668,0.0,0.0,-0.49803442
120955357,-0.03538119,0.010326962,-0.05653848,0.0,0.0,-0.4989568
120987297,-0.03456347,0.010574965,-0.058992215,0.0,0.0,-0.49509236
121019376,-0.028589772,0.014097105,-0.061250117,0.0,0.0,-0.49170846
121051279,-0.022931281,0.011625881,-0.061597034,0.0,0.0,-0.49100602
121083386,-0.023287237,0.0051357495,-0.060706846,0.0,0.0,-0.49029654
121115304,-0.023493044,0.00012774303,-0.05998463,0.0,0.0,-0.48768872
121143350,-0.021907816,0.0039669108,-0.059196223,0.0,0.0,-0.48554277
121175277,-0.0205392,0.012920411,-0.05763369,0.0,0.0,-0.48363388
121207309,-0.028473968,0.009865373,-0.05558489,0.0,0.0,-0.48161197
121239346,-0.043768056,-0.00025599007,-0.053426847,0.0,0.0,-0.47975886
121271359,-0.04148684,0.010237784,-0.050634682,0.0,0.0,-0.48133287
121303363,-0.031280447,0.02564442,-0.04812632,0.0,0.0,-0.47968447
121332173,-0.033157155,0.021291053,-0.046746284,0.0,0.0,-0.48178563
121364113,-0.059037823,0.019388858,-0.04584299,0.0,0.0,-0.4852265
121396129,-0.06578151,0.0153288795,-0.044576503,0.0,0.0,-0.48823458
121427283,-0.033945557,0.022054574,-0.04319594,0.0,0.0,-0.48886937
121459424,0.0011981395,0.01875184,-0.04115701,0.0,0.0,-0.4920214
121491273,-0.009632229,0.012000084,-0.03897102,0.0,0.0,-0.49163103
121523358,-0.047691032,0.009464501,-0.037257925,0.0,0.0,-0.4963373
121556119,-0.055703327,0.008754391,-0.034142725,0.0,0.0,-0.49718213
121587339,-0.02415623,-0.0058300826,-0.031894878,0.0,0.0,-0.50169295
121616094,0.006948287,-0.018506274,-0.030734895,0.0,0.0,-0.5038942
121648145,0.014719369,-0.01743383,-0.029513264,0.0,0.0,-0.50213665
121680074,-0.001761573,-0.013814862,-0.026944162,0.0,0.0,-0.49968892
121712067,-0.016199594,-0.01299798,-0.19039351,0.0,0.0,-0.49712998
121744125,-0.015047956,-0.014836656,-0.78148085,0.0,0.0,-0.49454042
121776108,0.0042103473,-0.018009083,-0.87041837,0.0,0.0,-0.49225134
121808117,0.0420852,-0.030002926,-0.821098,0.0,0.0,-0.48654866
121836175,0.048685767,-0.046550583,-0.7819744,0.0,0.0,-0.47773838
121868078,0.03196338,-0.052009158,-0.76369846,0.0,0.0,-0.477171
121900126,0.0066516143,-0.039242264,-0.7808056,0.0,0.0,-0.4729531
121932115,0.003916651,-0.024036221,-0.77925074,0.0,0.0,-0.46917987
121964151,0.0020758738,-0.02229739,-0.8416565,0.0,0.0,-0.47162858
121996078,-0.006528711,-0.021822944,-0.9904809,0.0,0.0,-0.474002
122028079,-0.012967399,-0.029937671,-1.1444696,0.0,0.0,-0.47692436
122060072,-0.012833722,-0.048779793,-1.2937934,0.0,0.0,-0.4799002
122092148,-0.01758831,-0.05952085,-1.2225816,0.0,0.0,-0.476935
122124094,-0.01925755,-0.059929512,-1.1012633,0.0,0.0,-0.47807637
122156091,-0.022929382,-0.04216637,-1.0624478,0.0,0.0,-0.4798346
122188121,-0.03518116,-0.027925825,-1.0164975,0.0,0.0,-0.4800582
122220121,-0.05374729,-0.021866629,-0.91717064,0.0,0.0,-0.48426342
122252095,-0.047058605,-0.016537406,-0.8882665,0.0,0.0,-0.48479515
122284078,-0.03876826,-0.016257996,-0.8620404,0.0,0.0,-0.4869942
122316126,-0.033849914,-0.017778613,-0.8649801,0.0,0.0,-0.49137345
122348114,-0.031284653,-0.011291179,-0.7991403,0.0,0.0,-0.4916012
122380139,-0.029840913,-0.01013263,-0.71352684,0.0,0.0,-0.49553245
122412087,-0.013539184,-0.017657043,-0.67989945,0.0,0.0,-0.49566984
122444145,-0.010990051,-0.026462294,-0.6193083,0.0,0.0,-0.49702886
122476116,-0.017140403,-0.02765009,-0.48406535,0.0,0.0,-0.49429998
122508143,-0.004185244,-0.013309344,-0.3106758,0.0,0.0,-0.49558797
122536115,0.0011272713,-0.018275522,0.03321288,0.0,0.0,-0.49611786
122568117,-0.016649608,-0.012011599,0.07126162,0.0,0.0,-0.49274167
122600087,-0.025752457,-0.01963824,0.09704608,0.0,0.0,-0.48683158
122632135,-0.018741097,-0.0065221367,0.11561101,0.0,0.0,-0.48662207
122664112,-0.00497248,-0.008997042,0.13065541,0.0,0.0,-0.4828079
122696120,-0.003926383,-0.027581427,0.1417995,0.0,0.0,-0.47941297
122728077,-0.009340985,-0.037625197,0.14963065,0.0,0.0,-0.4765309
122760130,-0.015908727,0.041830514,0.1541923,0.0,0.0,-0.47520843
122788090,-0.019886367,0.1254076,0.15625392,0.0,0.0,-0.47655535
122820134,-0.09133546,0.45513347,0.15768655,0.0,0.0,-0.47914556
122852114,-0.12743518,0.5539837,0.15713683,0.0,0.0,-0.47954926
122884126,-0.16885115,0.7812805,0.15613633,0.0,0.0,-0.4875548
122916078,-0.1350134,0.7826894,0.15275595,0.0,0.0,-0.4901431
122948157,-0.0880524,0.60614485,0.14826645,0.0,0.0,-0.49123195
122980117,-0.10342224,0.5506615,0.14310455,0.0,0.0,-0.49400175
123012122,-0.11138965,0.5166898,0.13627563,0.0,0.0,-0.49741992
123044074,-0.11236905,0.5592052,0.13025641,0.0,0.0,-0.49669242
123076140,-0.11581898,0.48010597,0.123454705,0.0,0.0,-0.49488217
123108123,-0.15396379,0.45721737,0.11727012,0.0,0.0,-0.49502677
123140066,-0.22620322,0.5807571,0.11272596,0.0,0.0,-0.4951521
123172069,-0.19139628,0.48977152,0.10397164,0.0,0.0,-0.4933384
123204089,-0.067744315,0.23323688,0.093653485,0.0,0.0,-0.4908638
123232880,-0.030775066,0.13350539,0.086362965,0.0,0.0,-0.49197912
123264879,0.1485919,-0.1556466,0.0728396,0.0,0.0,-0.48796597
123296914,0.29741684,-0.7385875,0.060055245,0.0,0.0,-0.4822796
123328868,0.24629167,-1.2217255,0.048902735,0.0,0.0,-0.47790402
123360112,0.17292768,-1.5211796,0.040120684,0.0,0.0,-0.47819492
123392904,0.1097989,-1.1744405,0.035612755,0.0,0.0,-0.47758505
123424940,0.08543705,-0.7539242,0.02997206,0.0,0.0,-0.4778537
123456953,0.07480338,-0.45839995,0.025687523,0.0,0.0,-0.48232627
123484931,0.05869915,-0.33501437,0.02313453,0.0,0.0,-0.4837256
123516881,0.031741,-0.28483328,0.019583771,0.0,0.0,-0.4874969
123548874,0.04267245,-0.23769408,0.016538361,0.0,0.0,-0.48616764
123580914,0.04895866,-0.16774637,0.015763495,0.0,0.0,-0.48819402
123612934,0.025984943,-0.104611814,0.013574534,0.0,0.0,-0.48980147
123644904,0.0071714926,-0.07805886,0.012416458,0.0,0.0,-0.4942467
123676922,0.005630183,-0.065313876,0.011217015,0.0,0.0,-0.4988273
123708883,0.047738567,-0.042233903,0.009674643,0.0,0.0,-0.5007201
123740993,0.4642823,0.023416664,0.007904907,0.0,0.0,-0.50456583
123772867,0.6386222,0.05336562,0.005302619,0.0,0.0,-0.5046003
123804901,0.88716745,0.08151712,0.0019435354,0.0,0.0,-0.5094268
123836919,0.78005576,0.071963616,-0.0006696384,0.0,0.0,-0.50640666
123868943,0.71623176,0.051292762,-0.002178617,0.0,0.0,-0.5061298
123900868,0.9268928,0.021100188,-0.0003422267,0.0,0.0,-0.5045265
123932959,0.8243568,0.02265232,-0.0013398005,0.0,0.0,-0.5033522
123964891,0.72333956,0.011410404,-0.0016043605,0.0,0.0,-0.5031679
123996948,0.67386,0.008440454,-0.003159968,0.0,0.0,-0.50534576
124028894,0.56219107,0.017181313,-0.0030592724,0.0,0.0,-0.501585
124060876,0.5943697,0.004140391,-0.0014856703,0.0,0.0,-0.50275475
124092908,0.496111,-0.0035575784,-0.0016062916,0.0,0.0,-0.501032
124124913,0.45213056,-0.03125187,0.0025862511,0.0,0.0,-0.5025654
124156935,0.43735334,-0.061499853,0.009034521,0.0,0.0,-0.5026436
124188872,0.34648767,-0.05742408,0.00877469,0.0,0.0,-0.5032912
124220915,0.2732689,-0.04926031,0.007709183,0.0,0.0,-0.5003587
124252915,0.22261153,-0.029561907,0.007686674,0.0,0.0,-0.50011253
124284917,0.17293884,-0.022165727,0.006509882,0.0,0.0,-0.4984458
124316872,0.13851632,-0.03868703,0.0056362916,0.0,0.0,-0.4993072
124348911,0.10690121,-0.04761872,0.005023274,0.0,0.0,-0.4993664
124380967,0.076032355,-0.041558303,0.0048733046,0.0,0.0,-0.49986762
124412931,0.06413035,-0.030469898,0.0042724186,0.0,0.0,-0.5016449
124444863,0.008797594,-0.023142416,0.0030368078,0.0,0.0,-0.50142676
124476917,-0.11164588,-0.036237016,0.002408704,0.0,0.0,-0.5032138
124508903,-0.15649672,-0.042877853,0.0016380576,0.0,0.0,-0.50249904
124540954,-0.13699663,-0.040056743,0.0016348185,0.0,0.0,-0.50180256
124572870,-0.07016502,-0.028886413,0.0013584415,0.0,0.0,-0.5025652
124604934,-0.007921749,-0.009875582,0.00023353913,0.0,0.0,-0.50176674
124636896,-0.012799666,-0.00031792925,-0.00078345666,0.0,0.0,-0.5036203
124668946,0.013847113,0.0065253163,-0.0014495372,0.0,0.0,-0.5042326
124700863,0.032179147,0.010552654,-0.0012120983,0.0,0.0,-0.5063824
124732882,0.0056285462,0.012499437,-0.0015870726,0.0,0.0,-0.5059249
124764924,-0.004677666,0.012743602,-0.0024802494,0.0,0.0,-0.50626796
124796901,0.0018860629,0.00012904145,-0.002933211,0.0,0.0,-0.50126255
124828887,-0.09754806,-0.00937118,-0.0038281565,0.0,0.0,-0.49833417
124856997,-1.0607883,0.00071465975,-0.0051320023,0.0,0.0,-0.48134756
124888872,-1.5434506,-0.0059433696,-0.004614673,0.0,0.0,-0.47944498
124920166,-1.7805799,-0.024245184,-0.0035484172,0.0,0.0,-0.47796676
124952900,-1.2670989,-0.028919905,-0.0023441445,0.0,0.0,-0.47742817
124984909,-0.7521391,-0.036237165,-0.0003897785,0.0,0.0,-0.47731423
125016882,-0.42778182,-0.04433542,0.002347874,0.0,0.0,-0.47393933
125048867,-0.3187948,-0.058228396,0.0018253062,0.0,0.0,-0.4706998
125080940,-0.2950751,-0.05463338,-9.112284e-05,0.0,0.0,-0.46718934
125108109,-0.22905251,-0.016993621,-0.0002503905,0.0,0.0,-0.4659905
125140906,-0.10113385,0.00600456,-0.0005247912,0.0,0.0,-0.4701092
125172940,-0.010174347,0.00890718,-0.0013428978,0.0,0.0,-0.47357073
125205705,0.014404059,-0.0029885622,-0.0010303619,0.0,0.0,-0.47549066
125237677,0.008967537,-0.014764294,-0.0015366689,0.0,0.0,-0.481755
125269776,0.027593525,0.0013353636,-0.0026423656,0.0,0.0,-0.4842334
125301725,0.063958056,0.030110324,-0.0031358923,0.0,0.0,-0.48562914
125333701,0.07251891,0.04171514,-0.005048939,0.0,0.0,-0.48794895
125365673,0.06014575,0.031990066,-0.005491145,0.0,0.0,-0.49192598
125397708,0.06284792,0.020560324,-0.0050392565,0.0,0.0,-0.49513483
125429744,0.08078047,0.02380672,-0.0045835283,0.0,0.0,-0.4952465
125461708,0.08809323,0.0259209,-0.0036313953,0.0,0.0,-0.4937923
125493713,0.078937724,0.014968569,-0.002983763,0.0,0.0,-0.49475214
125521721,0.07821627,0.009442619,-0.003246136,0.0,0.0,-0.4924757
125553689,0.080342956,0.018229907,-0.0039688,0.0,0.0,-0.4911194
125585727,0.07543209,0.024613788,-0.0040055593,0.0,0.0,-0.48705685
125617703,0.07539009,0.016985837,-0.0040685264,0.0,0.0,-0.48221993
125649723,0.08052428,0.0062942486,-0.002750699,0.0,0.0,-0.482403
125681704,0.09360801,0.006273325,-0.0026425805,0.0,0.0,-0.4822684
125713741,0.10033704,0.013297793,-0.0015969466,0.0,0.0,-0.48120734
125745708,0.102680005,0.016255658,-0.0016423445,0.0,0.0,-0.4857565
125773763,0.09007467,0.0171473,-0.0023075303,0.0,0.0,-0.48862013
125805695,0.084814176,0.016937716,-0.0025028167,0.0,0.0,-0.48887667
125837711,0.084783904,0.015611548,-0.0027353987,0.0,0.0,-0.4913008
125869719,0.08139445,0.010367872,-0.0036360056,0.0,0.0,-0.48995164
125901746,0.087181605,0.0010031641,-0.0044502495,0.0,0.0,-0.4886995
125933701,0.08429442,0.0039347163,-0.0040415553,0.0,0.0,-0.48841774
125965704,0.06528477,0.009253972,-0.0035446563,0.0,0.0,-0.49021903
125997686,0.06344287,0.017152265,-0.0056597725,0.0,0.0,-0.49418035
126025706,0.06219353,0.018445337,-0.006169212,0.0,0.0,-0.49560297
126057727,0.058193322,0.015087284,-0.005932552,0.0,0.0,-0.49976718
126089730,0.059068836,0.008413184,-0.0064670406,0.0,0.0,-0.4989161
126121716,0.061209634,0.010222578,-0.007122332,0.0,0.0,-0.4984955
126153707,0.07696893,0.056036614,-0.006707442,0.0,0.0,-0.4970637
126185696,0.08369769,0.38870952,-0.0069777616,0.0,0.0,-0.49170062
126217740,0.076801464,0.6592178,-0.006042394,0.0,0.0,-0.49530533
126249741,0.07653178,0.7055696,-0.0041834824,0.0,0.0,-0.49367142
126277764,0.065278314,0.80764616,-0.003013823,0.0,0.0,-0.4973985
126309686,0.057168473,0.78347564,-0.000808656,0.0,0.0,-0.49752027
126341708,0.06672045,0.71265614,-0.0009910795,0.0,0.0,-0.49463594
126373695,0.08211078,0.57052463,0.0002564892,0.0,0.0,-0.49341023
126405753,0.080155805,0.47372034,-9.099544e-05,0.0,0.0,-0.49192798
126437668,0.06790961,0.31946614,-0.00082219497,0.0,0.0,-0.4885125
126469723,0.058890358,0.23110707,-0.0016766579,0.0,0.0,-0.48769328
126501695,0.053439934,0.1745659,-0.0021277124,0.0,0.0,-0.4849414
126529733,0.05520853,0.12722206,-0.003006106,0.0,0.0,-0.4855733
126561727,0.035527267,0.06591277,-0.003858794,0.0,0.0,-0.48580578
126593750,0.033226777,0.10047749,-0.0038989745,0.0,0.0,-0.48896578
126625675,0.0402794,0.24277003,-0.005490731,0.0,0.0,-0.49639913
126657699,0.041624267,0.14850241,-0.006372377,0.0,0.0,-0.49998417
126689709,0.03126012,0.042910215,-0.0061856457,0.0,0.0,-0.50224704
126721751,0.044872474,-0.01814558,-0.0077071963,0.0,0.0,-0.49943432
126753691,0.05395647,-0.011343474,-0.008911492,0.0,0.0,-0.4984678
126781755,0.042891216,-0.17514332,-0.010666994,0.0,0.0,-0.49321118
126816971,0.031039353,-0.24916053,-0.012217767,0.0,0.0,-0.4915096
126845737,0.042227205,-0.25143737,-0.013687685,0.0,0.0,-0.4906397
126877718,0.048385363,-0.47288498,-0.014733222,0.0,0.0,-0.4883765
126909736,0.06043228,-0.8564991,-0.017189633,0.0,0.0,-0.48747548
126941700,0.07914255,-1.0876185,-0.019950699,0.0,0.0,-0.4867278
126974473,0.07798529,-0.86157626,-0.02397364,0.0,0.0,-0.48854715
127005711,0.08584786,-0.5831149,-0.028019862,0.0,0.0,-0.4889754
127034474,0.07475013,-0.3704276,-0.03052926,0.0,0.0,-0.48961726
127066504,0.06921199,-0.24965134,-0.03199206,0.0,0.0,-0.49122792
127098509,0.05368022,-0.20238753,-0.031743597,0.0,0.0,-0.4934039
127130474,0.052099906,-0.15553205,-0.031188542,0.0,0.0,-0.4923301
127162482,0.048569262,-0.10361548,-0.03252232,0.0,0.0,-0.49295864
127194510,0.033030998,-0.06548698,-0.031508785,0.0,0.0,-0.49337983
127226505,0.015035987,-0.03726722,-0.032180414,0.0,0.0,-0.49372217
127254504,0.013195108,-0.018820353,-0.030988086,0.0,0.0,-0.49585998
127286520,0.0321446,-0.016551778,-0.030783381,0.0,0.0,-0.49825054
127318493,0.03844669,-0.012730099,-0.029540801,0.0,0.0,-0.50180274
127350491,0.036005393,-0.010784137,-0.02943543,0.0,0.0,-0.50038207
127382523,0.034917977,-0.0023375996,-0.029270006,0.0,0.0,-0.500453
127414515,0.04125163,0.0113838855,-0.028340757,0.0,0.0,-0.4984313
127446464,0.04009799,0.019482162,-0.027903918,0.0,0.0,-0.5013003
127478488,0.032460492,0.011594362,-0.02828236,0.0,0.0,-0.5000978
127510522,0.010609472,0.0012902784,-0.028908893,0.0,0.0,-0.49898586
127542511,0.0225991,0.009251671,-0.028855467,0.0,0.0,-0.49659508
127574504,0.028211989,0.014309473,-0.028662615,0.0,0.0,-0.49446073
127606483,0.011520602,0.014749828,-0.03004559,0.0,0.0,-0.4913298
127638520,0.013447413,0.0102208415,-0.030421494,0.0,0.0,-0.488958
127670512,0.0262077,0.0032241046,-0.03059003,0.0,0.0,-0.4884943
127702506,0.024238475,0.012599885,-0.032191757,0.0,0.0,-0.48993433
127734487,0.021158963,0.018936308,-0.0323003,0.0,0.0,-0.4946166
127766524,0.017801955,0.016706357,-0.03317157,0.0,0.0,-0.49945548
127798510,0.02448485,0.015201576,-0.033606768,0.0,0.0,-0.4950204
127830497,0.02679255,0.015394161,-0.033790044,0.0,0.0,-0.49467072
127862467,0.024037382,-0.0013629632,-0.034040257,0.0,0.0,-0.4985686
127894558,0.02146769,-0.010523445,-0.035278365,0.0,0.0,-0.5051822
127926512,0.01780939,-0.01182594,-0.035713818,0.0,0.0,-0.50722533
127954531,0.01917183,-0.011266205,-0.035654254,0.0,0.0,-0.507609
127986514,0.032645393,-0.014754218,-0.03535419,0.0,0.0,-0.5031767
128018520,0.023738215,-0.01975993,-0.03549402,0.0,0.0,-0.49885395
128050488,0.01808928,-0.004349821,-0.034359764,0.0,0.0,-0.49891996
128082525,0.04109073,0.0129248025,-0.03246151,0.0,0.0,-0.498494
128114524,0.049342714,0.0072388696,-0.030007005,0.0,0.0,-0.5017407
128146470,0.03550209,-0.00071364944,-0.027417429,0.0,0.0,-0.50158423
128178485,0.010946075,0.0020029095,-0.024660012,0.0,0.0,-0.5005145
128206507,0.009958192,0.026483022,-0.021870108,0.0,0.0,-0.49924994
128238477,0.027575359,0.029527338,-0.0178479,0.0,0.0,-0.4977961
128270539,0.029663602,0.01757052,-0.014856006,0.0,0.0,-0.5053297
128302498,-0.0028147644,0.0158635,-0.012401396,0.0,0.0,-0.508241
128334549,-0.00591603,0.023393013,-0.01055452,0.0,0.0,-0.5086086
128366459,0.0027633803,0.016739096,-0.009895114,0.0,0.0,-0.50519466
128398561,-0.0020092144,0.003778928,-0.009711627,0.0,0.0,-0.5022235
128430497,-0.0074456586,0.0019907865,-0.00904027,0.0,0.0,-0.5015458
128458555,0.009310551,0.012318648,-0.008707274,0.0,0.0,-0.49589548
128490512,0.026018606,0.019591162,-0.008508849,0.0,0.0,-0.48962766
128522523,0.015885495,0.018333055,-0.008436947,0.0,0.0,-0.48545167
128554480,-0.0011969699,0.011980866,-0.008051518,0.0,0.0,-0.48485318
128585761,0.0119876005,0.021421254,-0.0065739397,0.0,0.0,-0.47990525
128618517,0.022033717,0.026112726,-0.0054074633,0.0,0.0,-0.48376593
128649759,0.021899037,0.022965606,-0.0040714527,0.0,0.0,-0.47610208
128678476,0.024870208,0.02531133,-0.0045330278,0.0,0.0,-0.47010937
128709711,0.009207199,0.021903967,-0.0032481577,0.0,0.0,-0.4532429
128742484,0.001696271,0.00761423,-0.002393779,0.0,0.0,-0.45093015
128773764,-0.0022823056,-0.04682062,-0.00092991756,0.0,0.0,-0.44953606
128807317,-0.0064163376,-0.13876083,0.00063381693,0.0,0.0,-0.44899142
128839324,-0.006522035,-0.26286376,0.00035746326,0.0,0.0,-0.4576253
128871288,-0.009417464,-0.30763444,-0.0005563513,0.0,0.0,-0.46287528
128903348,-0.0144346,-0.459253,-0.0008671697,0.0,0.0,-0.47467056
128935350,-0.009314675,-0.43666723,-0.001960462,0.0,0.0,-0.47984457
128967294,-0.00115065,-0.43181682,-0.0032141828,0.0,0.0,-0.4865022
128999374,-0.0037174888,-0.34707487,-0.0039927214,0.0,0.0,-0.48970756
129031310,-0.015594223,-0.28289655,-0.0044446425,0.0,0.0,-0.4941844
129063380,-0.023234619,-0.24837196,-0.005440807,0.0,0.0,-0.50134254
129095278,-0.025844965,-0.1891012,-0.006046095,0.0,0.0,-0.5009841
129127313,-0.026647575,-0.12311423,-0.007046349,0.0,0.0,-0.50400937
129159361,-0.019607453,-0.070068344,-0.0074639525,0.0,0.0,-0.50329036
129191330,-0.012637725,-0.056363672,-0.0068411166,0.0,0.0,-0.5053873
129223307,-0.011622691,-0.07470852,-0.007911446,0.0,0.0,-0.5061543
129255317,-0.00031488948,-0.08179411,-0.008931515,0.0,0.0,-0.51128566
129287326,0.0062650866,-0.06879112,-0.010244859,0.0,0.0,-0.5091955
129319421,-0.005879472,-0.07247448,-0.010078687,0.0,0.0,-0.51020354
129351293,-0.015554198,-0.106008306,-0.010407852,0.0,0.0,-0.50910383
129383324,-0.011480563,-0.100756906,-0.010780126,0.0,0.0,-0.5034312
129415328,-0.005062265,-0.090524435,-0.011377303,0.0,0.0,-0.50145423
129447320,-0.008013574,-0.040553916,-0.011662761,0.0,0.0,-0.49411932
129479376,-0.008204757,-0.022356542,-0.011652949,0.0,0.0,-0.49040776
129511263,-0.0034329244,-0.043759875,-0.011513998,0.0,0.0,-0.4883191
129543374,-0.0044506504,-0.050276697,-0.011482221,0.0,0.0,-0.4841295
129571286,0.0058853584,-0.039266247,-0.0113321515,0.0,0.0,-0.4853613
129603361,4.5442997e-05,-0.03571093,-0.010685025,0.0,0.0,-0.4840416
129635316,-0.011227571,-0.04536013,-0.01011134,0.0,0.0,-0.48590398
129667269,-0.015359747,-0.048284214,-0.008426052,0.0,0.0,-0.48706302
129699285,-0.007360038,-0.053444386,-0.0073435465,0.0,0.0,-0.48824587
129731309,-0.008503425,-0.08869593,-0.006997045,0.0,0.0,-0.49152154
129763346,-0.005358852,-0.07518369,-0.0059752683,0.0,0.0,-0.4931182
129795294,-0.00078947237,-0.052434947,-0.00487352,0.0,0.0,-0.49274918
129823399,0.0040312307,-0.012088559,-0.0043906323,0.0,0.0,-0.49142838
129855279,-0.008296039,-0.0058111497,-0.0041465014,0.0,0.0,-0.49060225
129887273,-0.023501024,-0.017938407,-0.0031454356,0.0,0.0,-0.49296755
129919398,-0.010654107,-0.020457909,-0.0031768023,0.0,0.0,-0.49007997
129951296,-0.00033529734,0.011987157,-0.0026376434,0.0,0.0,-0.4920632
129983314,-0.0077908915,0.030094309,-0.002436589,0.0,0.0,-0.49013647
130015275,-0.027603451,0.026441772,-0.0033661206,0.0,0.0,-0.491418
130047340,-0.03160243,0.021171909,-0.003617294,0.0,0.0,-0.49467567
130075277,-0.022018379,0.012444711,-0.0039168117,0.0,0.0,-0.49218407
130107309,-0.00036775184,0.011837904,-0.0040995474,0.0,0.0,-0.49433643
130139363,-0.0011339971,0.02675356,-0.0051063667,0.0,0.0,-0.4937005
130171290,-0.002946434,0.0798819,-0.0060618427,0.0,0.0,-0.49218068
130203311,0.0036430284,0.20431274,-0.006923062,0.0,0.0,-0.4899911
