timestamp,rollspeed,pitchspeed,yawspeed,q[0],q[1],q[2],q[3],delta_q_reset[0],delta_q_reset[1],delta_q_reset[2],delta_q_reset[3],quat_reset_counter
100833489,-0.0014797308,-0.0016827865,-0.0010274607,0.77887905,-0.0035737613,0.003828912,-0.6271524,0.9999931,-7.0315787e-06,-9.555778e-06,0.0037348683,2
100865488,0.0011826527,-0.0008067831,-0.0009059816,0.7788903,-0.0035715427,0.0038282822,-0.6271383,0.9999931,-7.0315787e-06,-9.555778e-06,0.0037348683,2
100897471,-0.00063677,0.00056251866,-0.00060521415,0.7788953,-0.0035507048,0.0038358558,-0.62713224,0.9999931,-7.0315787e-06,-9.555778e-06,0.0037348683,2
100929477,0.0007481465,0.0011866395,-0.0033739684,0.7788871,-0.003551374,0.003838909,-0.62714255,0.9999931,-7.0315787e-06,-9.555778e-06,0.0037348683,2
100961477,0.0005475354,0.0009817942,-0.0018869947,0.7788737,-0.0035322404,0.0038376548,-0.62715924,0.9999931,-7.0315787e-06,-9.555778e-06,0.0037348683,2
100993482,0.00021132827,-0.00049749325,-0.0015667665,0.77886176,-0.003512356,0.0038222927,-0.6271743,0.9999931,-7.0315787e-06,-9.555778e-06,0.0037348683,2
101021496,0.0021430936,-8.286047e-05,-0.002087237,0.7788529,-0.0034982562,0.0038166088,-0.6271854,0.9999931,-7.0315787e-06,-9.555778e-06,0.0037348683,2
101053502,-0.0017883352,0.0014298776,-0.0012686877,0.7788359,-0.0034935474,0.0038159937,-0.62720656,0.9999931,-7.0315787e-06,-9.555778e-06,0.0037348683,2
101085477,0.00021967199,-0.0010330633,-6.332662e-05,0.77882695,-0.0034803005,0.0038068676,-0.62721765,0.9999931,-7.0315787e-06,-9.555778e-06,0.0037348683,2
101117516,-0.0022166192,0.002256863,-0.0007294323,0.7788156,-0.0034946185,0.003816501,-0.62723166,0.9999931,-7.0315787e-06,-9.555778e-06,0.0037348683,2
101149490,0.0002178687,0.0010956378,-0.00017661336,0.7788053,-0.0034894347,0.0038241772,-0.6272445,0.9999931,-7.0315787e-06,-9.555778e-06,0.0037348683,2
101181497,0.00076067983,0.00076112564,-0.0015584934,0.77879906,-0.0034925814,0.0038031952,-0.62725234,0.9999931,-7.0315787e-06,-9.555778e-06,0.0037348683,2
101213492,0.0012923065,-0.0018908284,-0.00047977606,0.7787947,-0.003501804,0.0037971537,-0.6272577,0.9999931,-7.0315787e-06,-9.555778e-06,0.0037348683,2
101245476,0.00043957663,0.0029027846,-0.0005067761,0.77879906,-0.0034919563,0.003791871,-0.6272524,0.9999931,-7.0315787e-06,-9.555778e-06,0.0037348683,2
101277477,-9.641117e-05,0.0011943977,0.00088079413,0.77881384,-0.003482163,0.0037913218,-0.62723404,0.9999931,-7.0315787e-06,-9.555778e-06,0.0037348683,2
101309482,0.00022888153,0.002679358,-0.0010384484,0.77881175,-0.00347391,0.0037905308,-0.6272367,0.9999931,-7.0315787e-06,-9.555778e-06,0.0037348683,2
101341471,-0.0014691267,0.0008630267,-0.0026422776,0.7788076,-0.0034655037,0.003789355,-0.62724185,0.9999931,-7.0315787e-06,-9.555778e-06,0.0037348683,2
101373515,0.0017451476,-0.00030219072,-0.0026215436,0.77880836,-0.0034726288,0.0037853108,-0.62724096,0.9999931,-7.0315787e-06,-9.555778e-06,0.0037348683,2
101405492,-0.0008286898,0.0012893069,-0.0015685628,0.7788027,-0.003471088,0.0037869383,-0.62724805,0.9999931,-7.0315787e-06,-9.555778e-06,0.0037348683,2
101437496,0.0015048264,-0.0014682373,-0.0007092207,0.77879506,-0.003465241,0.0037867108,-0.6272576,0.9999931,-7.0315787e-06,-9.555778e-06,0.0037348683,2
101469474,-0.0015757858,-0.0014780129,-0.0017695569,0.7787937,-0.003477645,0.0038024164,-0.627259,0.9999931,-7.0315787e-06,-9.555778e-06,0.0037348683,2
101501477,-0.00019574215,0.0010831554,-0.000708941,0.77879274,-0.003470792,0.0038055556,-0.6272603,0.9999931,-7.0315787e-06,-9.555778e-06,0.0037348683,2
101533471,0.0011935444,0.0014035315,-0.0008256143,0.77879524,-0.0034495292,0.0038048779,-0.62725735,0.9999931,-7.0315787e-06,-9.555778e-06,0.0037348683,2
101565477,0.0009871022,1.5789643e-05,-0.00090404117,0.7787942,-0.0034477531,0.0038139378,-0.6272585,0.9999931,-7.0315787e-06,-9.555778e-06,0.0037348683,2
101597471,-0.00018865897,-0.00031021336,-0.0017615072,0.7787918,-0.0034472728,0.0038080025,-0.6272616,0.9999931,-7.0315787e-06,-9.555778e-06,0.0037348683,2
101629493,-0.00019763682,0.00012333764,4.5713503e-05,0.7787961,-0.0034545998,0.0038027563,-0.6272563,0.9999931,-7.0315787e-06,-9.555778e-06,0.0037348683,2
101661478,-0.0013557533,-0.001592749,-0.0017592506,0.7787997,-0.00345588,0.0038203266,-0.6272515,0.9999931,-7.0315787e-06,-9.555778e-06,0.0037348683,2
101693482,0.0009792153,0.0012832854,-0.0015502822,0.7787999,-0.0034524112,0.0038125599,-0.6272513,0.9999931,-7.0315787e-06,-9.555778e-06,0.0037348683,2
101721471,-0.0012335757,7.9686e-05,-0.00040408398,0.7788048,-0.003460125,0.003814924,-0.62724525,0.9999931,-7.0315787e-06,-9.555778e-06,0.0037348683,2
101753489,-0.0002836032,-0.00041697675,-0.0014392729,0.77879643,-0.0034597947,0.0038151846,-0.62725556,0.9999931,-7.0315787e-06,-9.555778e-06,0.0037348683,2
101785471,0.0009787916,0.0010728375,-0.0004908145,0.77879244,-0.0034565062,0.0038126677,-0.62726057,0.9999931,-7.0315787e-06,-9.555778e-06,0.0037348683,2
101817516,0.0007643993,0.0010844236,-5.4988253e-05,0.7787904,-0.0034400942,0.0037962338,-0.62726337,0.9999931,-7.0315787e-06,-9.555778e-06,0.0037348683,2
101849471,-0.0006800403,0.0004068028,-0.0019018645,0.77879167,-0.0034277118,0.003802629,-0.6272619,0.9999931,-7.0315787e-06,-9.555778e-06,0.0037348683,2
101881477,-0.00029190496,-0.00041287375,-0.00027708476,0.77878654,-0.003432062,0.0038057903,-0.6272682,0.9999931,-7.0315787e-06,-9.555778e-06,0.0037348683,2
101913490,0.003113513,0.00021605717,-0.0023874198,0.77876496,-0.0034237022,0.0038055961,-0.62729496,0.9999931,-7.0315787e-06,-9.555778e-06,0.0037348683,2
101945501,0.0017188468,0.00097632315,0.001108943,0.7787641,-0.003405487,0.0037982098,-0.62729615,0.9999931,-7.0315787e-06,-9.555778e-06,0.0037348683,2
101976682,0.000454385,0.0009733421,0.0007798464,0.77875465,-0.003410882,0.0038032434,-0.62730795,0.9999931,-7.0315787e-06,-9.555778e-06,0.0037348683,2
102008716,0.00055866747,0.0013713848,-0.0022263294,0.7787325,-0.0034124553,0.003802998,-0.62733537,0.9999931,-7.0315787e-06,-9.555778e-06,0.0037348683,2
102038277,0.0008726966,0.0013934196,-0.0008164549,0.7787189,-0.0034055363,0.0038071799,-0.62735224,0.9999931,-7.0315787e-06,-9.555778e-06,0.0037348683,2
102070295,0.0010868027,0.0008594814,0.00025463075,0.77871174,-0.0034008084,0.003798241,-0.6273612,0.9999931,-7.0315787e-06,-9.555778e-06,0.0037348683,2
102102270,-7.9920515e-05,0.001285889,-7.721255e-05,0.77870953,-0.003394551,0.0038005146,-0.627364,0.9999931,-7.0315787e-06,-9.555778e-06,0.0037348683,2
102134279,-0.0017825405,0.000109911925,-0.00050442165,0.7786956,-0.0034039784,0.0037982774,-0.6273814,0.9999931,-7.0315787e-06,-9.555778e-06,0.0037348683,2
102166271,-0.0032736738,0.00032207445,-0.0001929111,0.77867925,-0.0034048832,0.0038009738,-0.62740153,0.9999931,-7.0315787e-06,-9.555778e-06,0.0037348683,2
102198271,-0.0026252228,0.0002001102,-0.0011345381,0.77867043,-0.0034155059,0.0037981917,-0.6274123,0.9999931,-7.0315787e-06,-9.555778e-06,0.0037348683,2
102230271,0.0003479425,0.00020826972,-0.00017387769,0.7786585,-0.0034155655,0.0037891848,-0.6274272,0.9999931,-7.0315787e-06,-9.555778e-06,0.0037348683,2
102262286,-0.0010196151,0.0021058978,-0.0020107147,0.7786477,-0.0034133662,0.003785459,-0.6274407,0.9999931,-7.0315787e-06,-9.555778e-06,0.0037348683,2
102294314,0.0018464904,0.0013708636,-0.001023746,0.77863467,-0.0034021693,0.0037794681,-0.62745696,0.9999931,-7.0315787e-06,-9.555778e-06,0.0037348683,2
102326277,-7.916939e-05,0.0006319544,-0.00038871675,0.7786211,-0.0033912763,0.0037596792,-0.62747407,0.9999931,-7.0315787e-06,-9.555778e-06,0.0037348683,2
102358271,0.00088828476,0.0010532415,-0.001655557,0.778619,-0.0033817787,0.003760881,-0.6274767,0.9999931,-7.0315787e-06,-9.555778e-06,0.0037348683,2
102390296,0.0007584292,-0.00031855033,0.0010013466,0.7786069,-0.0033913942,0.0037587136,-0.62749153,0.9999931,-7.0315787e-06,-9.555778e-06,0.0037348683,2
102418271,-0.00039040772,0.0023338448,-0.0005039574,0.77860385,-0.003382334,0.0037682375,-0.6274955,0.9999931,-7.0315787e-06,-9.555778e-06,0.0037348683,2
102450319,0.00045611002,0.001592669,2.970366e-05,0.7786008,-0.0033896717,0.003777375,-0.6274991,0.9999931,-7.0315787e-06,-9.555778e-06,0.0037348683,2
102482271,0.00013491012,0.0005281965,0.0007809211,0.77859056,-0.0033836516,0.0037782935,-0.6275118,0.9999931,-7.0315787e-06,-9.555778e-06,0.0037348683,2
102513491,0.0011074707,0.0006848596,-0.002756612,0.7785781,-0.003388668,0.0037802253,-0.62752736,0.9999931,-7.0315787e-06,-9.555778e-06,0.0037348683,2
102546315,0.00014628499,0.001694977,-0.0013542383,0.77856827,-0.0033771878,0.0037938124,-0.62753946,0.9999931,-7.0315787e-06,-9.555778e-06,0.0037348683,2
102578320,0.0016398062,0.0010541639,-0.0013447596,0.7785486,-0.0033716522,0.0037856004,-0.627564,0.9999931,-7.0315787e-06,-9.555778e-06,0.0037348683,2
102610271,0.00077948585,9.9731085e-05,0.0004665607,0.77852744,-0.003352235,0.0037700413,-0.62759036,0.9999931,-7.0315787e-06,-9.555778e-06,0.0037348683,2
102642277,-0.00092095195,0.0005198729,-0.0012430433,0.7785088,-0.0033530365,0.0037608827,-0.6276134,0.9999931,-7.0315787e-06,-9.555778e-06,0.0037348683,2
102670271,-0.0015615338,0.0003953442,-0.00124978,0.77848876,-0.0033526297,0.0037696473,-0.6276383,0.9999931,-7.0315787e-06,-9.555778e-06,0.0037348683,2
102702271,-0.0003847138,0.0006250546,-0.0005195292,0.7784658,-0.0033585345,0.0037661917,-0.62766683,0.9999931,-7.0315787e-06,-9.555778e-06,0.0037348683,2
102734276,-0.0010223648,0.002113923,-0.0019096993,0.77844864,-0.0033529096,0.0037791475,-0.62768805,0.9999931,-7.0315787e-06,-9.555778e-06,0.0037348683,2
102766280,0.0007664054,0.00063428015,0.00013651716,0.77843606,-0.003362898,0.0037745086,-0.62770355,0.9999931,-7.0315787e-06,-9.555778e-06,0.0037348683,2
102798318,-0.00091586786,-0.0024565563,-0.0017713703,0.7784137,-0.0033641204,0.003774309,-0.6277313,0.9999931,-7.0315787e-06,-9.555778e-06,0.0037348683,2
102830277,0.00013369446,0.0006281885,0.00055541866,0.77840406,-0.0033634533,0.003771416,-0.6277433,0.9999931,-7.0315787e-06,-9.555778e-06,0.0037348683,2
102862271,0.00056645164,0.0020115674,-0.0012536058,0.77837753,-0.0033650321,0.0037621844,-0.6277762,0.9999931,-7.0315787e-06,-9.555778e-06,0.0037348683,2
102894279,0.0007884196,0.0009352049,-0.001686131,0.77834255,-0.0033471233,0.003762083,-0.62781984,0.9999931,-7.0315787e-06,-9.555778e-06,0.0037348683,2
102922271,-0.00071104395,0.001478976,-0.0015750718,0.7783219,-0.0033420688,0.0037598603,-0.6278454,0.9999931,-7.0315787e-06,-9.555778e-06,0.0037348683,2
102954270,-0.00060062227,-0.00055295986,-0.00073128357,0.77829796,-0.0033407698,0.003759599,-0.62787515,0.9999931,-7.0315787e-06,-9.555778e-06,0.0037348683,2
102986271,-0.00037249702,0.00017977765,-0.0015807803,0.7782715,-0.0033401933,0.0037558572,-0.62790793,0.9999931,-7.0315787e-06,-9.555778e-06,0.0037348683,2
103018270,-0.00110927,0.0015419018,-0.0028535395,0.77824575,-0.0033409933,0.0037538605,-0.6279398,0.9999931,-7.0315787e-06,-9.555778e-06,0.0037348683,2
103050306,-0.0014411641,0.00029884483,-0.0013785558,0.77821803,-0.0033425617,0.003759763,-0.62797415,0.9999931,-7.0315787e-06,-9.555778e-06,0.0037348683,2
103082271,0.0008930166,-0.00034481994,-0.0008269446,0.7781931,-0.0033373288,0.0037631416,-0.6280049,0.9999931,-7.0315787e-06,-9.555778e-06,0.0037348683,2
103114271,-0.00038657052,0.0011463097,-9.43988e-05,0.7781796,-0.0033343793,0.0037593748,-0.6280218,0.9999931,-7.0315787e-06,-9.555778e-06,0.0037348683,2
103146277,-0.00017793749,9.37586e-05,0.000780242,0.77817506,-0.0033294384,0.0037562484,-0.6280273,0.9999931,-7.0315787e-06,-9.555778e-06,0.0037348683,2
103174271,0.00034808804,-0.00053041946,0.0004600106,0.77817035,-0.0033298268,0.003754502,-0.6280334,0.9999931,-7.0315787e-06,-9.555778e-06,0.0037348683,2
103206271,0.0007984959,-0.0002466599,-0.001694534,0.7781577,-0.0033141926,0.0037559615,-0.628049,0.9999931,-7.0315787e-06,-9.555778e-06,0.0037348683,2
103238279,0.0013207083,-0.0006682279,0.00034268026,0.7781571,-0.0033093952,0.0037404322,-0.6280499,0.9999931,-7.0315787e-06,-9.555778e-06,0.0037348683,2
103270271,-6.685089e-05,0.0014562918,-0.0015778113,0.7781426,-0.003308208,0.0037381197,-0.62806785,0.9999931,-7.0315787e-06,-9.555778e-06,0.0037348683,2
103302317,-0.001770755,-0.000550108,0.0010708487,0.77813613,-0.0033137016,0.0037298633,-0.6280759,0.9999931,-7.0315787e-06,-9.555778e-06,0.0037348683,2
103333517,0.0011099864,0.0008210773,-0.002495295,0.7781285,-0.003313777,0.0037227157,-0.6280854,0.9999931,-7.0315787e-06,-9.555778e-06,0.0037348683,2
103366279,0.00077437516,-0.00066079956,0.0013060544,0.7781264,-0.0033169754,0.0037277904,-0.628088,0.9999931,-7.0315787e-06,-9.555778e-06,0.0037348683,2
103398271,0.0016297268,0.00093246263,0.0008669548,0.77813035,-0.0033123135,0.0037286014,-0.6280831,0.9999931,-7.0315787e-06,-9.555778e-06,0.0037348683,2
103431071,4.480254e-05,-0.0010970212,0.00045329484,0.778123,-0.0033159184,0.0037238845,-0.6280922,0.9999931,-7.0315787e-06,-9.555778e-06,0.0037348683,2
103463891,-0.0018237819,0.0005560605,0.0008037376,0.7781147,-0.0033300503,0.0037181426,-0.6281025,0.9999931,-7.0315787e-06,-9.555778e-06,0.0037348683,2
103493510,-0.00021992682,-0.0025027883,-0.0015661311,0.77810663,-0.0033379318,0.0037108853,-0.62811244,0.9999931,-7.0315787e-06,-9.555778e-06,0.0037348683,2
103527077,0.0012075527,-0.00024487733,0.0012011246,0.77810603,-0.0033347243,0.0037106292,-0.62811315,0.9999931,-7.0315787e-06,-9.555778e-06,0.0037348683,2
103559072,-0.0016557167,0.0016636509,-0.00052548613,0.77810717,-0.003334469,0.0037041446,-0.62811184,0.9999931,-7.0315787e-06,-9.555778e-06,0.0037348683,2
103587101,-0.0006643773,-0.00086947996,-0.00094142987,0.7781046,-0.0033458339,0.0036886572,-0.6281151,0.9999931,-7.0315787e-06,-9.555778e-06,0.0037348683,2
103619077,0.00090173644,-0.00047050227,-0.0017744224,0.7780988,-0.0033512274,0.0036907913,-0.62812215,0.9999931,-7.0315787e-06,-9.555778e-06,0.0037348683,2
103650300,5.7067184e-05,0.00093362055,-0.002766508,0.77809525,-0.0033414993,0.003698976,-0.62812656,0.9999931,-7.0315787e-06,-9.555778e-06,0.0037348683,2
103683090,0.0005809384,0.0006925038,-0.00200074,0.7780976,-0.0033390303,0.0036886162,-0.6281237,0.9999931,-7.0315787e-06,-9.555778e-06,0.0037348683,2
103715074,0.0008018532,0.0016479859,-0.002431321,0.7780872,-0.0033377053,0.0036886202,-0.62813663,0.9999931,-7.0315787e-06,-9.555778e-06,0.0037348683,2
103747072,0.0015393274,-0.0015240131,-0.000173056,0.7780794,-0.0033280898,0.0036836248,-0.62814635,0.9999931,-7.0315787e-06,-9.555778e-06,0.0037348683,2
103779070,0.00016908336,0.00048336288,0.00012653042,0.77807915,-0.0033380713,0.0036812352,-0.6281467,0.9999931,-7.0315787e-06,-9.555778e-06,0.0037348683,2
103811070,-0.0002767605,0.0010253225,-7.725705e-05,0.7780735,-0.0033428718,0.0036877105,-0.62815374,0.9999931,-7.0315787e-06,-9.555778e-06,0.0037348683,2
103839111,-0.00016615623,0.00015648123,-0.0016804955,0.7780644,-0.003355219,0.0036871335,-0.62816477,0.9999931,-7.0315787e-06,-9.555778e-06,0.0037348683,2
103871071,-0.003247289,0.0018599996,-0.0019182614,0.7780605,-0.003358186,0.0036798494,-0.6281697,0.9999931,-7.0315787e-06,-9.555778e-06,0.0037348683,2
103903071,-0.00090826186,-0.001221313,-0.0006073862,0.7780554,-0.0033548435,0.003662796,-0.6281759,0.9999931,-7.0315787e-06,-9.555778e-06,0.0037348683,2
103935077,0.00025282393,-4.433986e-05,0.00066951703,0.77805495,-0.0033679735,0.003652773,-0.6281767,0.9999931,-7.0315787e-06,-9.555778e-06,0.0037348683,2
103967070,0.0011219615,0.0009792714,-0.0021920502,0.77805185,-0.0033708941,0.0036486064,-0.62818056,0.9999931,-7.0315787e-06,-9.555778e-06,0.0037348683,2
103999071,-0.00027560952,-0.00025722655,0.0009915828,0.77805704,-0.0033707598,0.003650007,-0.62817395,0.9999931,-7.0315787e-06,-9.555778e-06,0.0037348683,2
104031098,-0.0005864578,0.0012154228,-0.0019991891,0.7780651,-0.0033646913,0.0036511696,-0.6281641,0.9999931,-7.0315787e-06,-9.555778e-06,0.0037348683,2
104063071,0.00014265628,0.00015882729,0.0005805073,0.778074,-0.0033774073,0.0036492639,-0.628153,0.9999931,-7.0315787e-06,-9.555778e-06,0.0037348683,2
104095071,-0.0005961695,-0.0020777418,4.75056e-05,0.7780781,-0.0033954477,0.0036443768,-0.6281478,0.9999931,-7.0315787e-06,-9.555778e-06,0.0037348683,2
104127092,-0.00016040716,0.0018556421,-0.0010388684,0.7780741,-0.0033975076,0.0036461628,-0.6281529,0.9999931,-7.0315787e-06,-9.555778e-06,0.0037348683,2
104159105,-0.0011214658,-0.0005003916,-0.0009319215,0.7780809,-0.0034004112,0.0036390438,-0.6281444,0.9999931,-7.0315787e-06,-9.555778e-06,0.0037348683,2
104191071,0.000167917,0.0024928364,-0.0013599516,0.7780781,-0.0034114246,0.0036388407,-0.62814784,0.9999931,-7.0315787e-06,-9.555778e-06,0.0037348683,2
104223078,-0.0002572515,-0.00015621347,-0.0019708527,0.7780837,-0.0034251818,0.003628039,-0.62814087,0.9999931,-7.0315787e-06,-9.555778e-06,0.0037348683,2
104255072,0.00037812925,-0.00017063381,-0.0012356028,0.7780831,-0.003420346,0.0036212516,-0.6281418,0.9999931,-7.0315787e-06,-9.555778e-06,0.0037348683,2
104287089,-0.0015277844,0.0013306247,-0.0008089348,0.7780863,-0.0034275996,0.0036236334,-0.6281376,0.9999931,-7.0315787e-06,-9.555778e-06,0.0037348683,2
104315070,0.0007968387,0.0012162526,-0.00017587477,0.7780874,-0.0034273502,0.0036196094,-0.6281363,0.9999931,-7.0315787e-06,-9.555778e-06,0.0037348683,2
104347071,-0.00036134993,-0.00039624533,-0.00272643,0.7780851,-0.0034466104,0.0036200224,-0.6281389,0.9999931,-7.0315787e-06,-9.555778e-06,0.0037348683,2
104379071,5.4974094e-05,0.0007857939,-0.0006032816,0.77808577,-0.0034548377,0.00362507,-0.6281383,0.9999931,-7.0315787e-06,-9.555778e-06,0.0037348683,2
104411071,-0.00026538668,0.0008847903,-0.0016636495,0.77808696,-0.0034588214,0.0036181598,-0.62813675,0.9999931,-7.0315787e-06,-9.555778e-06,0.0037348683,2
104443071,0.0013404137,0.0012041517,-0.0020903356,0.7780782,-0.00346497,0.0036162531,-0.62814766,0.9999931,-7.0315787e-06,-9.555778e-06,0.0037348683,2
104475071,-0.001963318,0.00046281907,-0.00017942337,0.7780765,-0.0034713086,0.003621913,-0.6281495,0.9999931,-7.0315787e-06,-9.555778e-06,0.0037348683,2
104507071,-0.00027057994,0.0023848885,0.0009889214,0.7780762,-0.0034834547,0.003635336,-0.6281498,0.9999931,-7.0315787e-06,-9.555778e-06,0.0037348683,2
104539077,-0.0007782263,0.0013057203,-0.0024053769,0.7780733,-0.003493875,0.0036443104,-0.62815315,0.9999931,-7.0315787e-06,-9.555778e-06,0.0037348683,2
104567071,-0.0003472988,-0.0013603701,-0.0028126852,0.7780783,-0.0035010239,0.0036427046,-0.628147,0.9999931,-7.0315787e-06,-9.555778e-06,0.0037348683,2
104599071,0.00027588557,0.0013010197,-0.0019848754,0.77806973,-0.003495938,0.0036318274,-0.6281577,0.9999931,-7.0315787e-06,-9.555778e-06,0.0037348683,2
104631080,0.0018578611,0.0013230653,0.0014199074,0.7780781,-0.0034876938,0.0036339718,-0.62814736,0.9999931,-7.0315787e-06,-9.555778e-06,0.0037348683,2
104663894,0.00038332798,-0.00029080795,-0.0011270335,0.77808315,-0.0034969342,0.0036288626,-0.62814116,0.9999931,-7.0315787e-06,-9.555778e-06,0.0037348683,2
104695070,-3.05601e-05,0.0011005469,-0.00018855857,0.77808404,-0.0035082912,0.0036269103,-0.62814,0.9999931,-7.0315787e-06,-9.555778e-06,0.0037348683,2
104727079,0.0009092797,0.00024270314,-0.001022737,0.7780772,-0.003518447,0.0036316214,-0.6281485,0.9999931,-7.0315787e-06,-9.555778e-06,0.0037348683,2
104758320,-0.0009931067,-0.00053968525,-0.0014318407,0.77806497,-0.0035307957,0.0036409702,-0.6281634,0.9999931,-7.0315787e-06,-9.555778e-06,0.0037348683,2
104791071,-0.0025955143,2.4849898e-05,-0.0015614934,0.77806526,-0.0035461553,0.0036240304,-0.62816304,0.9999931,-7.0315787e-06,-9.555778e-06,0.0037348683,2
104823085,-0.00015895457,0.0014013661,-0.00038945745,0.77806073,-0.003544798,0.0036252942,-0.62816864,0.9999931,-7.0315787e-06,-9.555778e-06,0.0037348683,2
104855077,-5.6632605e-05,0.00046585142,0.0015311377,0.7780549,-0.0035484582,0.003630695,-0.62817585,0.9999931,-7.0315787e-06,-9.555778e-06,0.0037348683,2
104887105,-0.0018417898,0.0018409191,-0.0017735886,0.77805936,-0.0035672798,0.0036436343,-0.6281701,0.9999931,-7.0315787e-06,-9.555778e-06,0.0037348683,2
104919071,-0.00014837376,-0.0010456588,-0.0016478832,0.7780526,-0.0035651748,0.0036388081,-0.62817854,0.9999931,-7.0315787e-06,-9.555778e-06,0.0037348683,2
104951107,5.8929058e-05,0.00045116476,-0.0003832258,0.7780463,-0.0035753667,0.0036416096,-0.6281863,0.9999931,-7.0315787e-06,-9.555778e-06,0.0037348683,2
104983095,-0.00024664315,0.0016064041,-0.0031525744,0.7780322,-0.0035884106,0.0036395676,-0.62820375,0.9999931,-7.0315787e-06,-9.555778e-06,0.0037348683,2
105014319,0.0008348996,0.0006474742,-0.00046312634,0.77803177,-0.0035785697,0.003621046,-0.6282044,0.9999931,-7.0315787e-06,-9.555778e-06,0.0037348683,2
105042290,-6.688207e-05,0.0007597236,-0.0015489087,0.77803487,-0.003583544,0.0036199933,-0.6282005,0.9999931,-7.0315787e-06,-9.555778e-06,0.0037348683,2
105074301,0.0015207904,0.0012885429,-0.0006105266,0.77803785,-0.003581473,0.003613016,-0.62819695,0.9999931,-7.0315787e-06,-9.555778e-06,0.0037348683,2
105107894,0.00091522746,0.0012880049,-0.0012232543,0.7780411,-0.003588699,0.0036112666,-0.62819266,0.9999931,-7.0315787e-06,-9.555778e-06,0.0037348683,2
105140699,-0.0017191777,0.0003228427,-0.00012932284,0.77804095,-0.0035935822,0.003611607,-0.62819296,0.9999931,-7.0315787e-06,-9.555778e-06,0.0037348683,2
105171871,-0.0009011625,-0.0014698496,0.00049483794,0.77804375,-0.0036095565,0.0036104752,-0.6281894,0.9999931,-7.0315787e-06,-9.555778e-06,0.0037348683,2
105203888,0.0020653303,-0.0014723525,0.0007117868,0.77805036,-0.0036078505,0.0036075865,-0.62818134,0.9999931,-7.0315787e-06,-9.555778e-06,0.0037348683,2
105231871,0.0011294067,0.00022655919,-0.0011157821,0.7780485,-0.00360185,0.0035997601,-0.6281836,0.9999931,-7.0315787e-06,-9.555778e-06,0.0037348683,2
105263876,0.00028557703,-0.00020316936,-0.002389602,0.7780397,-0.0036110957,0.0035887673,-0.6281945,0.9999931,-7.0315787e-06,-9.555778e-06,0.0037348683,2
105295870,0.0007945745,0.0013991314,0.00079738355,0.77804095,-0.0036027376,0.0035942239,-0.6281931,0.9999931,-7.0315787e-06,-9.555778e-06,0.0037348683,2
105327877,0.00038516955,-0.00030348718,0.0003902355,0.7780377,-0.003615581,0.0035940409,-0.62819695,0.9999931,-7.0315787e-06,-9.555778e-06,0.0037348683,2
105359871,0.00080783945,0.0026709593,-0.00047843222,0.77803123,-0.003611424,0.0036000893,-0.628205,0.9999931,-7.0315787e-06,-9.555778e-06,0.0037348683,2
105391871,0.0009261343,-0.00054314884,-0.0033418948,0.7780179,-0.003625613,0.0035942255,-0.6282214,0.9999931,-7.0315787e-06,-9.555778e-06,0.0037348683,2
105423871,-0.00067969994,0.0006457734,-0.0006934105,0.7780101,-0.0036336952,0.0035888352,-0.62823105,0.9999931,-7.0315787e-06,-9.555778e-06,0.0037348683,2
105455871,0.0006067759,0.0022468502,-0.0015505882,0.7780052,-0.0036362428,0.003586612,-0.6282372,0.9999931,-7.0315787e-06,-9.555778e-06,0.0037348683,2
105487871,0.00028188832,0.00043249156,-0.0009056225,0.778005,-0.0036393153,0.0035756181,-0.6282375,0.9999931,-7.0315787e-06,-9.555778e-06,0.0037348683,2
105519871,-0.0004618214,-0.0002149599,-0.0018589351,0.7780001,-0.0036373956,0.0035613228,-0.6282436,0.9999931,-7.0315787e-06,-9.555778e-06,0.0037348683,2
105551871,0.00038580882,0.0009605564,-0.0007931882,0.77799773,-0.0036251545,0.0035639708,-0.6282467,0.9999931,-7.0315787e-06,-9.555778e-06,0.0037348683,2
105583871,0.00038376573,-0.0013796485,-0.00035520524,0.77799463,-0.0036161288,0.0035558706,-0.6282506,0.9999931,-7.0315787e-06,-9.555778e-06,0.0037348683,2
105615878,-0.00035924633,1.2900506e-05,-6.228278e-05,0.7779895,-0.0036246872,0.0035469949,-0.62825686,0.9999931,-7.0315787e-06,-9.555778e-06,0.0037348683,2
105647871,0.0016594814,0.0005363359,-0.0012167732,0.77798414,-0.003631124,0.0035352749,-0.62826365,0.9999931,-7.0315787e-06,-9.555778e-06,0.0037348683,2
105679929,-0.0012064931,0.00267096,-0.00070800853,0.7779758,-0.0036250297,0.0035262436,-0.6282739,0.9999931,-7.0315787e-06,-9.555778e-06,0.0037348683,2
105707871,-0.00035652576,-0.0013819181,-0.0003571452,0.7779664,-0.0036389292,0.0035226797,-0.6282855,0.9999931,-7.0315787e-06,-9.555778e-06,0.0037348683,2
105739871,0.000597894,-0.00021326318,-0.0004714328,0.7779634,-0.0036338137,0.0035071939,-0.62828946,0.9999931,-7.0315787e-06,-9.555778e-06,0.0037348683,2
105771871,-0.0004597673,0.0023482866,-0.00059014146,0.77795047,-0.0036227386,0.0035018907,-0.6283055,0.9999931,-7.0315787e-06,-9.555778e-06,0.0037348683,2
105803877,0.00018073374,0.0014917512,-0.0012265537,0.7779378,-0.0036221088,0.0034932422,-0.6283212,0.9999931,-7.0315787e-06,-9.555778e-06,0.0037348683,2
105835871,-0.0005701374,-0.0009620358,-0.00068511086,0.77792287,-0.0036221445,0.003475435,-0.6283399,0.9999931,-7.0315787e-06,-9.555778e-06,0.0037348683,2
105867886,-0.0008881711,-0.0012835577,-0.00047256466,0.7779068,-0.0036267268,0.003466724,-0.6283596,0.9999931,-7.0315787e-06,-9.555778e-06,0.0037348683,2
105899871,0.0018889323,0.0011591312,-0.0028225114,0.7778871,-0.0036262777,0.0034622087,-0.6283841,0.9999931,-7.0315787e-06,-9.555778e-06,0.0037348683,2
105931877,0.0018648222,-2.9187911e-05,-0.0030188558,0.7778696,-0.0036172776,0.003447365,-0.628406,0.9999931,-7.0315787e-06,-9.555778e-06,0.0037348683,2
105959870,-0.0014394573,0.00032383553,0.0012070115,0.77785826,-0.003615709,0.0034348932,-0.62842005,0.9999931,-7.0315787e-06,-9.555778e-06,0.0037348683,2
105991871,-0.0020517374,-0.0006595567,-0.0020892648,0.77783775,-0.0036315883,0.0034277958,-0.6284455,0.9999931,-7.0315787e-06,-9.555778e-06,0.0037348683,2
106023906,6.967809e-05,0.0011521778,-0.0004976331,0.7778126,-0.0036266688,0.0034257427,-0.62847644,0.9999931,-7.0315787e-06,-9.555778e-06,0.0037348683,2
106055871,0.00058762694,0.0008572243,0.0023847418,0.7777956,-0.0036243561,0.0034168172,-0.62849766,0.9999931,-7.0315787e-06,-9.555778e-06,0.0037348683,2
106087871,-0.0013216704,0.0006315127,-0.00070515793,0.7777735,-0.0036324337,0.003423336,-0.62852496,0.9999931,-7.0315787e-06,-9.555778e-06,0.0037348683,2
106119922,0.0006074761,0.0014704891,-0.0020863763,0.7777506,-0.0036341706,0.003434971,-0.62855303,0.9999931,-7.0315787e-06,-9.555778e-06,0.0037348683,2
106151893,0.00060602644,0.00073172816,-0.0008040344,0.77773404,-0.0036236513,0.0034348443,-0.6285736,0.9999931,-7.0315787e-06,-9.555778e-06,0.0037348683,2
106183870,-0.00046882522,0.0022224046,-0.0004948499,0.77772325,-0.0036304696,0.003437168,-0.62858695,0.9999931,-7.0315787e-06,-9.555778e-06,0.0037348683,2
106215898,-0.0028035226,-0.00032656576,0.00015086617,0.77771544,-0.003630814,0.0034256384,-0.6285967,0.9999931,-7.0315787e-06,-9.555778e-06,0.0037348683,2
106247888,-0.0015262736,-0.000757062,-0.0001610042,0.77770984,-0.0036438282,0.0034241588,-0.62860346,0.9999931,-7.0315787e-06,-9.555778e-06,0.0037348683,2
106279883,-0.0012962604,-0.00045318683,-0.002927104,0.7777117,-0.0036591208,0.003424482,-0.62860125,0.9999931,-7.0315787e-06,-9.555778e-06,0.0037348683,2
106311871,0.0012461052,0.0015758282,-0.0012186795,0.77770877,-0.0036540383,0.003412411,-0.628605,0.9999931,-7.0315787e-06,-9.555778e-06,0.0037348683,2
106343899,-0.00013386452,0.0013564122,-0.0025008372,0.77771056,-0.003643887,0.0034065573,-0.6286028,0.9999931,-7.0315787e-06,-9.555778e-06,0.0037348683,2
106375927,-0.00079435384,-0.0013908542,7.252814e-05,0.77772135,-0.003648414,0.003407138,-0.62858945,0.9999931,-7.0315787e-06,-9.555778e-06,0.0037348683,2
106407883,-0.001735453,-0.001078919,-0.001003848,0.7777261,-0.0036572332,0.0034108665,-0.62858355,0.9999931,-7.0315787e-06,-9.555778e-06,0.0037348683,2
106435877,-0.0010917996,0.0020167634,0.00025674654,0.77773124,-0.0036638067,0.0034218486,-0.6285772,0.9999931,-7.0315787e-06,-9.555778e-06,0.0037348683,2
106467917,-0.0012594685,-0.00048977963,-0.0006007757,0.7777382,-0.0036763095,0.00341775,-0.62856823,0.9999931,-7.0315787e-06,-9.555778e-06,0.0037348683,2
106499880,0.00071792555,0.00061109144,-0.0012105547,0.7777505,-0.0036689434,0.0034184614,-0.6285532,0.9999931,-7.0315787e-06,-9.555778e-06,0.0037348683,2
106531871,-0.0005610482,0.0005062615,-0.0018524032,0.77775985,-0.0036778196,0.0034124264,-0.6285416,0.9999931,-7.0315787e-06,-9.555778e-06,0.0037348683,2
106563882,-0.0016343598,0.00030481172,0.0017570772,0.7777725,-0.0036881894,0.0034209932,-0.6285258,0.9999931,-7.0315787e-06,-9.555778e-06,0.0037348683,2
106594313,-7.432098e-05,-0.00033752937,0.00047054677,0.77778167,-0.0036878756,0.003419737,-0.62851465,0.9999931,-7.0315787e-06,-9.555778e-06,0.0037348683,2
106628716,6.959302e-05,0.00018853597,0.0008746396,0.77778214,-0.0036826911,0.0034089314,-0.62851393,0.9999931,-7.0315787e-06,-9.555778e-06,0.0037348683,2
106656689,0.00059546356,-1.3933226e-05,0.0019850824,0.77779514,-0.0036726797,0.0034073645,-0.628498,0.9999931,-7.0315787e-06,-9.555778e-06,0.0037348683,2
106687090,-0.001740838,-0.0002424912,-0.00110418,0.7777944,-0.0036962058,0.0034095605,-0.6284987,0.9999931,-7.0315787e-06,-9.555778e-06,0.0037348683,2
106720671,-0.00035933225,0.0004080211,0.00037621922,0.77779806,-0.0037089349,0.0034146952,-0.62849414,0.9999931,-7.0315787e-06,-9.555778e-06,0.0037348683,2
106752671,-2.822779e-05,0.00060545676,-0.0011095272,0.77779216,-0.003714499,0.0034208095,-0.62850136,0.9999931,-7.0315787e-06,-9.555778e-06,0.0037348683,2
106784680,-0.0003397574,-0.0009872076,-0.0017404568,0.77778935,-0.0037166127,0.003424717,-0.6285047,0.9999931,-7.0315787e-06,-9.555778e-06,0.0037348683,2
106816671,0.0008422095,-0.0009018256,-0.0025826097,0.7777742,-0.0037110068,0.0034117685,-0.6285237,0.9999931,-7.0315787e-06,-9.555778e-06,0.0037348683,2
106848671,0.00062539056,-0.00014487238,-0.0018500325,0.77776694,-0.003695561,0.003390982,-0.6285329,0.9999931,-7.0315787e-06,-9.555778e-06,0.0037348683,2
106880721,-0.00013630048,0.0015745499,-0.00058207527,0.7777594,-0.0036935064,0.0033889315,-0.62854224,0.9999931,-7.0315787e-06,-9.555778e-06,0.0037348683,2
106908721,-0.00021525651,-0.0003452223,0.00026338035,0.7777463,-0.0036840425,0.0033923252,-0.62855834,0.9999931,-7.0315787e-06,-9.555778e-06,0.0037348683,2
106940671,-0.00013220723,0.0005022625,-0.00047456715,0.77773476,-0.0036830679,0.0033964496,-0.62857276,0.9999931,-7.0315787e-06,-9.555778e-06,0.0037348683,2
106972695,-0.000556182,-0.00034936998,-0.0007860546,0.7777289,-0.0036830506,0.0033900603,-0.62857985,0.9999931,-7.0315787e-06,-9.555778e-06,0.0037348683,2
107004671,-0.0005605814,7.128238e-05,-0.0010038483,0.7777225,-0.0036870337,0.0034031842,-0.62858784,0.9999931,-7.0315787e-06,-9.555778e-06,0.0037348683,2
107036670,-0.0019240414,0.0001938558,-0.0013284348,0.7777128,-0.0036908253,0.0033915914,-0.6285998,0.9999931,-7.0315787e-06,-9.555778e-06,0.0037348683,2
107068670,0.0005229761,-0.00014926062,-0.002269765,0.7777046,-0.0037006615,0.0033840395,-0.62861,0.9999931,-7.0315787e-06,-9.555778e-06,0.0037348683,2
107100695,-0.0015058619,0.0003789254,-0.0025000821,0.77769357,-0.00372028,0.0033859105,-0.6286234,0.9999931,-7.0315787e-06,-9.555778e-06,0.0037348683,2
107132715,-0.00055611716,0.0012392264,-0.00058772543,0.7776877,-0.0037200155,0.003394063,-0.62863076,0.9999931,-7.0315787e-06,-9.555778e-06,0.0037348683,2
107164671,0.0006066138,0.0022104296,0.0010228815,0.77768856,-0.003718961,0.0034050643,-0.62862945,0.9999931,-7.0315787e-06,-9.555778e-06,0.0037348683,2
107196677,0.0004992252,0.0026247636,-0.0004682722,0.77768284,-0.003721903,0.0034133699,-0.62863666,0.9999931,-7.0315787e-06,-9.555778e-06,0.0037348683,2
107228678,7.930538e-05,-0.0012116523,-0.00045573997,0.77767676,-0.0037071428,0.0034050746,-0.6286442,0.9999931,-7.0315787e-06,-9.555778e-06,0.0037348683,2
107260671,-0.0007676649,0.00081435964,-0.00089817675,0.7776729,-0.003702215,0.0034063277,-0.628649,0.9999931,-7.0315787e-06,-9.555778e-06,0.0037348683,2
107292684,0.0016850381,0.00048589328,-0.0020503956,0.7776656,-0.0037028147,0.0034098201,-0.628658,0.9999931,-7.0315787e-06,-9.555778e-06,0.0037348683,2
107324677,0.0010521334,-0.00014500864,-0.0028096808,0.7776547,-0.0037150562,0.0034135832,-0.62867147,0.9999931,-7.0315787e-06,-9.555778e-06,0.0037348683,2
107356710,9.00804e-05,0.0010096589,-0.0014316821,0.7776419,-0.0037186132,0.0034022199,-0.6286874,0.9999931,-7.0315787e-06,-9.555778e-06,0.0037348683,2
107384721,-0.00044833118,0.0002654482,-0.0016444362,0.7776325,-0.0037266966,0.0034054886,-0.628699,0.9999931,-7.0315787e-06,-9.555778e-06,0.0037348683,2
107416683,-0.0016257301,0.0010009457,-0.00048546767,0.77762234,-0.0037298235,0.0034009314,-0.62871146,0.9999931,-7.0315787e-06,-9.555778e-06,0.0037348683,2
107448671,-0.0015109305,0.0012379603,-5.7869358e-05,0.7776023,-0.0037451196,0.003399703,-0.6287362,0.9999931,-7.0315787e-06,-9.555778e-06,0.0037348683,2
107480671,0.000610537,0.0020811036,0.00035923964,0.7775759,-0.0037543199,0.0033894123,-0.62876886,0.9999931,-7.0315787e-06,-9.555778e-06,0.0037348683,2
107512677,6.648498e-05,0.00018515285,0.0012398316,0.77756345,-0.0037546314,0.0033867788,-0.6287842,0.9999931,-7.0315787e-06,-9.555778e-06,0.0037348683,2
107544718,7.8787605e-05,-0.00035999937,0.0010175861,0.7775491,-0.0037607048,0.0033896933,-0.62880194,0.9999931,-7.0315787e-06,-9.555778e-06,0.0037348683,2
107576671,0.0011452624,0.0013455863,0.00058550347,0.77753377,-0.0037595648,0.0033986964,-0.62882084,0.9999931,-7.0315787e-06,-9.555778e-06,0.0037348683,2
107608693,0.0012538654,5.905397e-05,-0.0009979028,0.7775235,-0.0037649153,0.0033913292,-0.6288334,0.9999931,-7.0315787e-06,-9.555778e-06,0.0037348683,2
107636715,-0.0028854485,0.0017511768,-0.00038267768,0.7775098,-0.0037621157,0.003385925,-0.62885046,0.9999931,-7.0315787e-06,-9.555778e-06,0.0037348683,2
107668671,0.0015630429,0.0015604481,0.0010181854,0.7775091,-0.0037654669,0.003371736,-0.6288514,0.9999931,-7.0315787e-06,-9.555778e-06,0.0037348683,2
107700680,0.00083545427,-0.00057840813,-0.00046059533,0.77750593,-0.003766586,0.003363349,-0.62885547,0.9999931,-7.0315787e-06,-9.555778e-06,0.0037348683,2
107732720,-0.00022473847,0.001438019,-0.00046547095,0.77751046,-0.0037774958,0.0033684787,-0.6288497,0.9999931,-7.0315787e-06,-9.555778e-06,0.0037348683,2
107764670,-0.00056511146,-0.0013200585,7.154152e-05,0.7775112,-0.0037861762,0.0033546286,-0.62884885,0.9999931,-7.0315787e-06,-9.555778e-06,0.0037348683,2
107796671,-0.0006495706,-0.0011143094,-0.00066762546,0.77751374,-0.0037922857,0.0033504248,-0.62884575,0.9999931,-7.0315787e-06,-9.555778e-06,0.0037348683,2
107828691,0.00062223885,-0.0015456411,-0.001195831,0.7775074,-0.003800012,0.0033508753,-0.6288534,0.9999931,-7.0315787e-06,-9.555778e-06,0.0037348683,2
107860719,0.0013555426,-0.00037764813,-0.00044720533,0.7775119,-0.0037884763,0.0033499363,-0.628848,0.9999931,-7.0315787e-06,-9.555778e-06,0.0037348683,2
107888680,0.00083564495,0.0011188884,-0.00067318685,0.7775133,-0.003793469,0.0033424597,-0.62884617,0.9999931,-7.0315787e-06,-9.555778e-06,0.0037348683,2
107920671,-0.00044190855,-0.0018811082,-0.001943385,0.77751625,-0.003807175,0.003328084,-0.6288425,0.9999931,-7.0315787e-06,-9.555778e-06,0.0037348683,2
107952671,0.0005363128,0.00069766503,-0.0002815614,0.7775319,-0.0037938554,0.0033283033,-0.6288232,0.9999931,-7.0315787e-06,-9.555778e-06,0.0037348683,2
107984670,0.00073100324,-0.00091302785,-0.0026808265,0.7775342,-0.0038015067,0.0033232062,-0.6288204,0.9999931,-7.0315787e-06,-9.555778e-06,0.0037348683,2
108016678,-0.0012887304,0.0013256833,-0.0014310787,0.77754855,-0.003810339,0.0033229715,-0.6288027,0.9999931,-7.0315787e-06,-9.555778e-06,0.0037348683,2
108048720,-0.0013804757,0.000987501,-0.0017224896,0.77755374,-0.0038153562,0.0033230223,-0.6287961,0.9999931,-7.0315787e-06,-9.555778e-06,0.0037348683,2
108080671,-0.0007952088,0.00032373014,-0.0012737985,0.7775528,-0.0038146332,0.0033187573,-0.6287975,0.9999931,-7.0315787e-06,-9.555778e-06,0.0037348683,2
108112691,-0.0008663696,0.0006893683,-0.0004629682,0.777553,-0.0038069144,0.0033307597,-0.6287971,0.9999931,-7.0315787e-06,-9.555778e-06,0.0037348683,2
108140715,0.0012736106,0.00025556207,-0.0006695429,0.77755374,-0.0037991875,0.0033291185,-0.6287962,0.9999931,-7.0315787e-06,-9.555778e-06,0.0037348683,2
108172671,0.0014731102,0.00047796284,-2.7960225e-05,0.77755445,-0.0038032914,0.0033210982,-0.6287953,0.9999931,-7.0315787e-06,-9.555778e-06,0.0037348683,2
108204677,0.0005243205,0.00068022637,-0.0017337726,0.7775646,-0.0037980285,0.003321949,-0.6287828,0.9999931,-7.0315787e-06,-9.555778e-06,0.0037348683,2
108237488,0.0023011675,0.002309267,0.0041165845,0.7775913,-0.003791189,0.0033270102,-0.62874985,0.9999931,-7.0315787e-06,-9.555778e-06,0.0037348683,2
108269490,-0.007318583,-0.00095248164,-0.008359902,0.77757275,-0.003801313,0.0033266223,-0.62877274,0.9999931,-7.0315787e-06,-9.555778e-06,0.0037348683,2
108301499,0.0007110194,-0.004981538,-0.0036265296,0.7775101,-0.0037984424,0.0033203019,-0.6288503,0.9999931,-7.0315787e-06,-9.555778e-06,0.0037348683,2
108333471,-0.003021498,-0.006440406,0.0010461535,0.7774854,-0.00380666,0.0033214085,-0.6288808,0.9999931,-7.0315787e-06,-9.555778e-06,0.0037348683,2
108365478,0.009431464,0.0018253253,0.0045833206,0.77750623,-0.0038028965,0.0033235797,-0.628855,0.9999931,-7.0315787e-06,-9.555778e-06,0.0037348683,2
108397471,-0.0040613264,-0.0018647606,0.0005957916,0.77751833,-0.0038178463,0.0033425712,-0.6288398,0.9999931,-7.0315787e-06,-9.555778e-06,0.0037348683,2
108429483,0.0006098857,0.008072743,-0.0037656338,0.77749664,-0.003821915,0.003350388,-0.62886655,0.9999931,-7.0315787e-06,-9.555778e-06,0.0037348683,2
108461488,0.0060685202,0.0006998,-0.0007286455,0.7774723,-0.0038305286,0.0033410634,-0.6288967,0.9999931,-7.0315787e-06,-9.555778e-06,0.0037348683,2
108493501,-0.00029459444,0.0023915828,0.000799143,0.7774792,-0.003840479,0.0033315958,-0.62888813,0.9999931,-7.0315787e-06,-9.555778e-06,0.0037348683,2
108525471,0.004985385,-0.003047199,0.0020407438,0.77749443,-0.0038570552,0.0033046198,-0.6288694,0.9999931,-7.0315787e-06,-9.555778e-06,0.0037348683,2
108553513,0.00074066204,0.0045701633,0.0009306509,0.7775178,-0.0038339987,0.0033060282,-0.6288406,0.9999931,-7.0315787e-06,-9.555778e-06,0.0037348683,2
108585471,-0.007898348,-0.0011890389,0.006224827,0.77756053,-0.0038182128,0.0033162537,-0.62878776,0.9999931,-7.0315787e-06,-9.555778e-06,0.0037348683,2
108617471,0.022508502,0.010547128,-0.0028376111,0.7775819,-0.0036680528,0.0031795045,-0.628763,0.9999931,-7.0315787e-06,-9.555778e-06,0.0037348683,2
108649524,0.008402828,-0.004390634,0.001312346,0.77761626,-0.0035611738,0.0031189104,-0.6287214,0.9999931,-7.0315787e-06,-9.555778e-06,0.0037348683,2
108681476,-0.02474057,0.001422965,-0.009534958,0.77756447,-0.0036669383,0.0032636046,-0.62878406,0.9999931,-7.0315787e-06,-9.555778e-06,0.0037348683,2
108713477,-0.015563353,0.010311034,-0.00086992304,0.7775321,-0.0037781857,0.0033227548,-0.62882316,0.9999931,-7.0315787e-06,-9.555778e-06,0.0037348683,2
108745471,-0.00045246328,0.00837325,0.00016262912,0.777576,-0.0036832674,0.003251748,-0.6287697,0.9999931,-7.0315787e-06,-9.555778e-06,0.0037348683,2
108777477,-0.044923265,-0.00956289,0.011745007,0.77762944,-0.0036513645,0.0032736966,-0.6287038,0.9999931,-7.0315787e-06,-9.555778e-06,0.0037348683,2
108805471,-0.10447079,0.0031432207,-0.0066081816,0.7776277,-0.003636105,0.003236244,-0.62870616,0.9999931,-7.0315787e-06,-9.555778e-06,0.0037348683,2
108837471,0.030490592,0.069694184,0.00975824,0.7776621,-0.0035985038,0.0032942875,-0.62866366,0.9999931,-7.0315787e-06,-9.555778e-06,0.0037348683,2
108869483,-0.046619687,-0.042899165,0.0048186695,0.7776575,-0.0035355517,0.0031533772,-0.6286704,0.9999931,-7.0315787e-06,-9.555778e-06,0.0037348683,2
108901470,-0.06360551,-0.021626681,-0.0070211343,0.7776389,-0.0036201833,0.003231246,-0.6286925,0.9999931,-7.0315787e-06,-9.555778e-06,0.0037348683,2
108933475,-0.025032606,-0.017360963,0.0050189537,0.7776957,-0.0036415688,0.0033137691,-0.6286218,0.9999931,-7.0315787e-06,-9.555778e-06,0.0037348683,2
108965477,0.044168662,-0.09025642,0.0042943074,0.77775496,-0.0036643767,0.003474964,-0.6285473,0.9999931,-7.0315787e-06,-9.555778e-06,0.0037348683,2
108997494,-0.023330871,-0.04814821,0.010512994,0.7778488,-0.0039133457,0.003359255,-0.6284304,0.9999931,-7.0315787e-06,-9.555778e-06,0.0037348683,2
109029483,0.0682773,-0.0686648,-0.00015844175,0.7779357,-0.0042877044,0.0037870142,-0.62831783,0.9999931,-7.0315787e-06,-9.555778e-06,0.0037348683,2
109061470,-0.20690505,0.09363438,-0.0004935185,0.7779018,-0.0046539973,0.0044321236,-0.62835306,0.9999931,-7.0315787e-06,-9.555778e-06,0.0037348683,2
109093497,-0.13528611,0.056128133,-0.02034646,0.7779441,-0.0044328114,0.0044593,-0.62830204,0.9999931,-7.0315787e-06,-9.555778e-06,0.0037348683,2
109125479,0.011582923,0.11055638,0.0032401264,0.7780376,-0.0043958724,0.0044352105,-0.62818676,0.9999931,-7.0315787e-06,-9.555778e-06,0.0037348683,2
109157480,0.07908291,0.04584324,-0.008659478,0.7780544,-0.0043196348,0.0043152506,-0.62816733,0.9999931,-7.0315787e-06,-9.555778e-06,0.0037348683,2
109189471,0.090542115,0.05039863,-0.018307345,0.7779852,-0.004363206,0.0044520944,-0.6282516,0.9999931,-7.0315787e-06,-9.555778e-06,0.0037348683,2
109221487,0.15324728,0.1798462,-0.023503078,0.7780816,-0.004317558,0.004639132,-0.62813133,0.9999931,-7.0315787e-06,-9.555778e-06,0.0037348683,2
109253480,0.15782882,0.25738114,-0.0009011399,0.7781991,-0.0037272873,0.0043558767,-0.6279916,0.9999931,-7.0315787e-06,-9.555778e-06,0.0037348683,2
109285474,0.13757327,-0.10882045,-0.0084747635,0.7782531,-0.0035697196,0.0039335308,-0.6279284,0.9999931,-7.0315787e-06,-9.555778e-06,0.0037348683,2
109317471,0.10922901,-0.4329584,0.054798026,0.77833015,-0.004005557,0.0037526635,-0.62783134,0.9999931,-7.0315787e-06,-9.555778e-06,0.0037348683,2
109349524,-0.16885374,0.18868652,-0.013340674,0.77834696,-0.0039789295,0.0038980653,-0.62780976,0.9999931,-7.0315787e-06,-9.555778e-06,0.0037348683,2
109381471,0.14449795,0.17928022,-0.008242258,0.778197,-0.00298869,0.0042451415,-0.627999,0.9999931,-7.0315787e-06,-9.555778e-06,0.0037348683,2
109413483,-0.060912497,-0.12880807,0.03456429,0.7782861,-0.0035707986,0.0037802877,-0.62788826,0.9999931,-7.0315787e-06,-9.555778e-06,0.0037348683,2
109445470,-0.06832929,0.24305819,-0.025618719,0.77832824,-0.0038054388,0.004262515,-0.6278316,0.9999931,-7.0315787e-06,-9.555778e-06,0.0037348683,2
109477497,0.31583688,-0.03934801,-0.008948777,0.7782836,-0.002682456,0.0050016446,-0.6278873,0.9999931,-7.0315787e-06,-9.555778e-06,0.0037348683,2
109505470,0.012444142,0.23802775,-0.038396142,0.77824616,-0.0009289623,0.0055023506,-0.62793463,0.9999931,-7.0315787e-06,-9.555778e-06,0.0037348683,2
109537502,0.031378724,-0.14774066,-0.046829555,0.7783872,-0.0002925247,0.0052029477,-0.627763,0.9999931,-7.0315787e-06,-9.555778e-06,0.0037348683,2
109568716,-0.19446094,0.15571544,-0.057466824,0.7784043,-0.0012390147,0.0055589806,-0.62773746,0.9999931,-7.0315787e-06,-9.555778e-06,0.0037348683,2
109601488,-0.10016012,-0.089842886,-0.008401173,0.77853334,-0.0026140425,0.0059957984,-0.6275693,0.9999931,-7.0315787e-06,-9.555778e-06,0.0037348683,2
109633483,0.13084982,0.01294505,-0.01504888,0.7786317,-0.0023344078,0.0050357063,-0.6274569,0.9999931,-7.0315787e-06,-9.555778e-06,0.0037348683,2
109665478,-0.02817543,-0.16048259,-0.032842983,0.7786101,-0.0042268173,0.0034854983,-0.6274841,0.9999931,-7.0315787e-06,-9.555778e-06,0.0037348683,2
109697479,-0.079669304,0.31561407,-0.018303541,0.77858627,-0.0039588516,0.005126963,-0.6275041,0.9999931,-7.0315787e-06,-9.555778e-06,0.0037348683,2
109729483,0.19958934,-0.19799547,0.088127226,0.77880347,-0.002737533,0.004113595,-0.6272485,0.9999931,-7.0315787e-06,-9.555778e-06,0.0037348683,2
109757471,0.0012365057,-0.15361604,0.054310746,0.7788772,-0.0037016794,0.0033123435,-0.6271568,0.9999931,-7.0315787e-06,-9.555778e-06,0.0037348683,2
109789520,0.007917561,0.029191423,0.035700474,0.77876204,-0.0050650807,0.004719038,-0.6272814,0.9999931,-7.0315787e-06,-9.555778e-06,0.0037348683,2
109820720,0.27782997,-0.089615054,-0.030549433,0.7786977,-0.0042039906,0.003796405,-0.62737375,0.9999931,-7.0315787e-06,-9.555778e-06,0.0037348683,2
109852693,-0.21268173,0.2120416,-0.0037542884,0.77860564,-0.0043195793,0.004514228,-0.62748253,0.9999931,-7.0315787e-06,-9.555778e-06,0.0037348683,2
109887092,0.11204809,-0.2092172,0.06215665,0.7786852,-0.0049428954,0.004520585,-0.6273791,0.9999931,-7.0315787e-06,-9.555778e-06,0.0037348683,2
109915071,-0.0069523384,0.08480623,-0.027155057,0.77862954,-0.004407181,0.0039149397,-0.6274561,0.9999931,-7.0315787e-06,-9.555778e-06,0.0037348683,2
109947086,-0.028046941,0.09905878,0.014046724,0.7785756,-0.0034950136,0.00441729,-0.6275257,0.9999931,-7.0315787e-06,-9.555778e-06,0.0037348683,2
109979071,-0.04433831,0.14226604,0.008562575,0.7786967,-0.0029722713,0.00429103,-0.6273789,0.9999931,-7.0315787e-06,-9.555778e-06,0.0037348683,2
110010271,-0.050279345,-0.16002849,0.04317673,0.77877843,-0.0023562503,0.003668273,-0.62728405,0.9999931,-7.0315787e-06,-9.555778e-06,0.0037348683,2
110042290,-0.02557198,0.15050632,-0.018869855,0.77905434,-0.0016541482,0.003368905,-0.6269453,0.9999931,-7.0315787e-06,-9.555778e-06,0.0037348683,2
110074299,0.06784803,-0.062901475,-0.0063173966,0.7793052,-0.0022288722,0.0026683256,-0.62663496,0.9999931,-7.0315787e-06,-9.555778e-06,0.0037348683,2
110106293,-0.2478656,-0.07479857,0.060895253,0.7795575,-0.0015556694,0.0033315658,-0.6263198,0.9999931,-7.0315787e-06,-9.555778e-06,0.0037348683,2
110138271,0.18330783,0.17378162,0.00472623,0.7796919,0.001287637,0.0030507098,-0.6261546,0.9999931,-7.0315787e-06,-9.555778e-06,0.0037348683,2
110170277,0.13810414,-0.19691513,0.017942123,0.7799312,0.0013523014,0.002008043,-0.62586063,0.9999931,-7.0315787e-06,-9.555778e-06,0.0037348683,2
110202284,-0.18416004,-0.011895469,0.036479805,0.7801036,0.0011690024,0.0016091254,-0.6256473,0.9999931,-7.0315787e-06,-9.555778e-06,0.0037348683,2
110230277,0.01781286,-0.18209031,0.046293654,0.7803766,0.0004909259,0.0019775704,-0.6253064,0.9999931,-7.0315787e-06,-9.555778e-06,0.0037348683,2
110262271,0.059006374,0.03114668,0.05050758,0.78067183,0.0007947503,0.0031504668,-0.6249327,0.9999931,-7.0315787e-06,-9.555778e-06,0.0037348683,2
110294271,-0.0017111341,0.05373205,0.030502735,0.78092575,0.000951025,0.0027070716,-0.6246172,0.9999931,-7.0315787e-06,-9.555778e-06,0.0037348683,2
110326271,0.033806406,-0.23001425,0.04031498,0.7810742,0.0011464137,0.001906012,-0.62443423,0.9999931,-7.0315787e-06,-9.555778e-06,0.0037348683,2
110358277,-0.27067846,0.10424826,0.019398144,0.78127503,0.0005210567,0.0018824062,-0.6241839,0.9999931,-7.0315787e-06,-9.555778e-06,0.0037348683,2
110390271,0.24161367,-0.14487621,0.11162812,0.7816296,-0.00058273465,0.0022805645,-0.6237385,0.9999931,-7.0315787e-06,-9.555778e-06,0.0037348683,2
110422271,-0.3672136,0.07416544,0.054883193,0.7818316,-0.0008041509,0.0037052815,-0.6234782,0.9999931,-7.0315787e-06,-9.555778e-06,0.0037348683,2
110454271,0.33621055,0.17438003,0.012392133,0.78200555,0.000583139,0.0029710922,-0.6232641,0.9999931,-7.0315787e-06,-9.555778e-06,0.0037348683,2
110482271,-0.1880884,-0.1724968,0.034786664,0.7821792,0.00038129187,0.002517552,-0.6230485,0.9999931,-7.0315787e-06,-9.555778e-06,0.0037348683,2
110514270,-0.056538433,0.24015866,-0.006212657,0.78233457,0.00030291884,0.0023743662,-0.6228539,0.9999931,-7.0315787e-06,-9.555778e-06,0.0037348683,2
110546301,0.19769661,-0.17766045,0.023805493,0.782659,0.00048637096,0.0019822882,-0.6224474,0.9999931,-7.0315787e-06,-9.555778e-06,0.0037348683,2
110578270,-0.18110035,0.085962206,0.03735682,0.7829477,0.0010946274,0.00271601,-0.62208056,0.9999931,-7.0315787e-06,-9.555778e-06,0.0037348683,2
110610271,0.12752318,0.064677246,0.027835608,0.7830165,0.0008104866,0.0026426392,-0.621995,0.9999931,-7.0315787e-06,-9.555778e-06,0.0037348683,2
110642271,-0.2209384,-0.13814875,0.013587078,0.78317326,-0.0006231965,0.0038207467,-0.6217914,0.9999931,-7.0315787e-06,-9.555778e-06,0.0037348683,2
110674285,-0.106280796,-0.0065778745,0.012645362,0.783177,-0.0006186853,0.0037177627,-0.6217874,0.9999931,-7.0315787e-06,-9.555778e-06,0.0037348683,2
110706274,0.16442227,0.14276138,-0.014421981,0.7829904,-0.00041922927,0.0033976708,-0.6220244,0.9999931,-7.0315787e-06,-9.555778e-06,0.0037348683,2
110738294,0.05407549,-0.3991901,0.037112202,0.78296304,-0.00064829964,0.0019226456,-0.62206507,0.9999931,-7.0315787e-06,-9.555778e-06,0.0037348683,2
110770285,-0.12409305,0.054844007,-0.0055016964,0.7828559,-0.0011855987,0.0018566038,-0.62219924,0.9999931,-7.0315787e-06,-9.555778e-06,0.0037348683,2
110802285,0.17701356,0.103244,0.0077514495,0.78272617,-0.000152426,0.0023671119,-0.6223617,0.9999931,-7.0315787e-06,-9.555778e-06,0.0037348683,2
110834278,0.13392358,-0.017325547,0.015427009,0.7828241,0.00087350875,0.0037374804,-0.62223125,0.9999931,-7.0315787e-06,-9.555778e-06,0.0037348683,2
110866270,-0.13104947,-0.053088706,0.020313678,0.78286535,0.0020472454,0.0034024098,-0.6221787,0.9999931,-7.0315787e-06,-9.555778e-06,0.0037348683,2
110898271,0.17100096,0.013075445,-0.04373956,0.78278416,0.002501098,0.0018096716,-0.62228566,0.9999931,-7.0315787e-06,-9.555778e-06,0.0037348683,2
110930295,-0.22152482,-0.1541022,-0.029940221,0.78268564,0.0007353611,0.0015392867,-0.6224148,0.9999931,-7.0315787e-06,-9.555778e-06,0.0037348683,2
110958271,-0.0544653,-0.1421814,0.022303747,0.7826189,-0.001230661,0.0026879855,-0.6224943,0.9999931,-7.0315787e-06,-9.555778e-06,0.0037348683,2
110990278,-0.03684292,-0.35092804,0.056869008,0.78252935,-0.0024444256,0.0039097453,-0.62259674,0.9999931,-7.0315787e-06,-9.555778e-06,0.0037348683,2
111022271,-0.02340741,0.14721076,-0.001118856,0.78248197,-0.0012963272,0.0034127247,-0.6226627,0.9999931,-7.0315787e-06,-9.555778e-06,0.0037348683,2
111054270,0.36466295,-0.16807793,0.0037879883,0.78232896,-0.00042160126,0.0009984528,-0.6228646,0.9999931,-7.0315787e-06,-9.555778e-06,0.0037348683,2
111086284,-0.104052596,-0.10714648,0.017203763,0.78218025,-0.00013417979,0.00029079276,-0.6230522,0.9999931,-7.0315787e-06,-9.555778e-06,0.0037348683,2
111118280,0.121351816,0.20581913,-0.032119922,0.7820195,0.0018630954,4.6905184e-06,-0.6232513,0.9999931,-7.0315787e-06,-9.555778e-06,0.0037348683,2
111149517,-0.1626802,0.11882867,0.030982984,0.7818513,-0.00022164213,0.0021200848,-0.6234615,0.9999931,-7.0315787e-06,-9.555778e-06,0.0037348683,2
111178286,-0.25196669,0.09631415,-0.02355471,0.7817998,-0.003942989,0.00463418,-0.6234998,0.9999931,-7.0315787e-06,-9.555778e-06,0.0037348683,2
111210271,0.10986604,0.016163994,-0.005921418,0.78174496,-0.0060686,0.005397493,-0.62354547,0.9999931,-7.0315787e-06,-9.555778e-06,0.0037348683,2
111242274,0.017809166,-0.096721284,0.03351768,0.7816181,-0.0042837313,0.00473283,-0.62372464,0.9999931,-7.0315787e-06,-9.555778e-06,0.0037348683,2
111273503,0.14457178,0.2418377,-0.024478244,0.7817751,-0.0021512338,0.0036579813,-0.6235461,0.9999931,-7.0315787e-06,-9.555778e-06,0.0037348683,2
111306285,-0.23899451,-0.24869959,-0.0072871544,0.7820276,-0.0035183914,0.0027191166,-0.623228,0.9999931,-7.0315787e-06,-9.555778e-06,0.0037348683,2
111338314,-0.011135,0.40950778,-0.078312166,0.78184295,-0.0028859084,0.0041144392,-0.62345517,0.9999931,-7.0315787e-06,-9.555778e-06,0.0037348683,2
111371070,0.12479349,-0.17312385,0.033477444,0.78189903,-0.0023678748,0.0031112954,-0.6233929,0.9999931,-7.0315787e-06,-9.555778e-06,0.0037348683,2
111402308,0.072258644,0.153125,-0.039127797,0.7820303,-0.003056687,0.0035085382,-0.6232231,0.9999931,-7.0315787e-06,-9.555778e-06,0.0037348683,2
111434287,0.15625773,0.30545878,-0.0147468615,0.7820867,-0.0017281795,0.004257957,-0.6231529,0.9999931,-7.0315787e-06,-9.555778e-06,0.0037348683,2
111463071,-0.033894096,-0.15914647,0.0628148,0.78247064,-0.0015238831,0.003567663,-0.6226755,0.9999931,-7.0315787e-06,-9.555778e-06,0.0037348683,2
111493477,0.058463577,0.07688105,0.023724204,0.7826534,-0.0017715186,0.0026360892,-0.62244976,0.9999931,-7.0315787e-06,-9.555778e-06,0.0037348683,2
111527070,-0.13617688,0.2518591,-0.01822912,0.78282434,-0.0010261885,0.0034996616,-0.6222321,0.9999931,-7.0315787e-06,-9.555778e-06,0.0037348683,2
111559071,0.29651034,0.0608911,-0.028829709,0.7829436,-0.0004958063,0.0033328708,-0.6220836,0.9999931,-7.0315787e-06,-9.555778e-06,0.0037348683,2
111591071,0.098304994,-0.13954134,0.011289489,0.7831326,-0.0014875445,0.0024828443,-0.6218481,0.9999931,-7.0315787e-06,-9.555778e-06,0.0037348683,2
111623077,-0.033168904,-0.10114224,-0.03660081,0.78325504,-0.0008738011,0.0013171852,-0.62169844,0.9999931,-7.0315787e-06,-9.555778e-06,0.0037348683,2
111651114,0.0350233,0.26644558,0.025639504,0.78333694,0.00091506564,0.0018977999,-0.6215938,0.9999931,-7.0315787e-06,-9.555778e-06,0.0037348683,2
111683086,0.19004843,0.087155595,0.0066492883,0.78328454,0.001403838,0.003176595,-0.6216538,0.9999931,-7.0315787e-06,-9.555778e-06,0.0037348683,2
111715070,-0.115360826,-0.03519582,-0.037027705,0.7831347,0.0013951015,0.0032730603,-0.6218419,0.9999931,-7.0315787e-06,-9.555778e-06,0.0037348683,2
111747071,-0.24809287,-0.12742838,0.013994017,0.78316987,0.0017742856,0.001489327,-0.6218035,0.9999931,-7.0315787e-06,-9.555778e-06,0.0037348683,2
111779071,0.048378922,0.10423423,-0.015066583,0.7831977,0.0017741824,0.0006988685,-0.6217698,0.9999931,-7.0315787e-06,-9.555778e-06,0.0037348683,2
111811081,0.07042248,0.11114733,-0.014931766,0.78318226,0.00087279023,0.001589905,-0.62178963,0.9999931,-7.0315787e-06,-9.555778e-06,0.0037348683,2
111843078,0.11308291,0.0027234151,-0.032274082,0.78311104,0.0016464118,0.0028049597,-0.62187344,0.9999931,-7.0315787e-06,-9.555778e-06,0.0037348683,2
111875070,0.0068664793,-0.09184728,0.0056072487,0.78293335,0.002552418,0.003088789,-0.6220927,0.9999931,-7.0315787e-06,-9.555778e-06,0.0037348683,2
111907071,-0.11343969,-0.10202048,0.031041527,0.7826985,0.0014061102,0.0027901724,-0.6223933,0.9999931,-7.0315787e-06,-9.555778e-06,0.0037348683,2
111939082,0.31289494,-0.03515946,-0.0026823427,0.7824546,0.0018043852,0.0014884959,-0.6227033,0.9999931,-7.0315787e-06,-9.555778e-06,0.0037348683,2
111971071,0.10447075,-0.23511867,-0.018840047,0.7822455,0.0018779142,0.0001465932,-0.6229674,0.9999931,-7.0315787e-06,-9.555778e-06,0.0037348683,2
112003072,0.02365997,0.27240965,-0.023673812,0.78193456,0.002707797,0.0003385246,-0.6233547,0.9999931,-7.0315787e-06,-9.555778e-06,0.0037348683,2
112035071,0.11670284,-0.15187895,0.0052820425,0.7816455,0.002802903,0.00088330463,-0.6237161,0.9999931,-7.0315787e-06,-9.555778e-06,0.0037348683,2
112067087,-0.020225942,-0.016292028,0.003101107,0.78131765,0.0026746737,0.0016085642,-0.62412596,0.9999931,-7.0315787e-06,-9.555778e-06,0.0037348683,2
112099070,0.16013584,-0.09831618,0.034601726,0.7810353,0.0021202331,0.0021558173,-0.6244797,0.9999931,-7.0315787e-06,-9.555778e-06,0.0037348683,2
112131071,-0.19611043,-0.08554433,0.059094712,0.78075373,0.0019697596,0.0033564477,-0.6248268,0.9999931,-7.0315787e-06,-9.555778e-06,0.0037348683,2
112163071,0.19794583,0.0975809,-0.025878547,0.7804553,0.0033069984,0.0036516837,-0.6251923,0.9999931,-7.0315787e-06,-9.555778e-06,0.0037348683,2
112195119,0.08941834,0.0041348017,-0.029797845,0.78021616,0.0031746805,0.00373948,-0.6254908,0.9999931,-7.0315787e-06,-9.555778e-06,0.0037348683,2
112227071,-0.24053702,-0.09594858,-0.00076702447,0.7800498,0.0023780428,0.0037927988,-0.62570155,0.9999931,-7.0315787e-06,-9.555778e-06,0.0037348683,2
112259071,0.12483724,-0.022423895,-0.035913166,0.779793,0.0026303874,0.0041061165,-0.6260185,0.9999931,-7.0315787e-06,-9.555778e-06,0.0037348683,2
112291071,0.16454953,0.17696862,-0.033673618,0.7795675,0.002854309,0.0044036875,-0.6262964,0.9999931,-7.0315787e-06,-9.555778e-06,0.0037348683,2
112323095,-0.031852204,-0.14828928,-0.02378937,0.779392,0.003410767,0.0028358295,-0.62652105,0.9999931,-7.0315787e-06,-9.555778e-06,0.0037348683,2
112355071,0.06743691,0.010749243,-0.03850321,0.7791995,0.0040003927,0.001689725,-0.626761,0.9999931,-7.0315787e-06,-9.555778e-06,0.0037348683,2
112387072,-0.13624904,-0.21666701,0.03778527,0.77914476,0.0012248178,0.0013409078,-0.62684137,0.9999931,-7.0315787e-06,-9.555778e-06,0.0037348683,2
112419071,-0.19372799,-0.23431388,0.011372611,0.7790474,-0.0002856588,0.0017046491,-0.62696266,0.9999931,-7.0315787e-06,-9.555778e-06,0.0037348683,2
112451070,-0.033830058,0.04705947,-0.00872474,0.77896655,0.000706076,0.0022736199,-0.62706107,0.9999931,-7.0315787e-06,-9.555778e-06,0.0037348683,2
112483071,0.123420015,0.2105827,-0.022816246,0.7789993,0.0013626768,0.0024270301,-0.62701863,0.9999931,-7.0315787e-06,-9.555778e-06,0.0037348683,2
112515071,0.1476284,0.20604916,-0.029866748,0.7790816,0.0008172181,0.0026365754,-0.62691647,0.9999931,-7.0315787e-06,-9.555778e-06,0.0037348683,2
112547072,0.063113004,0.035577353,0.049534768,0.7791626,0.0018045629,0.004027566,-0.6268063,0.9999931,-7.0315787e-06,-9.555778e-06,0.0037348683,2
112579070,-0.04249697,-0.33649665,0.040646937,0.77932465,0.0037895811,0.0047127786,-0.6265913,0.9999931,-7.0315787e-06,-9.555778e-06,0.0037348683,2
112611077,-0.14822142,-0.23158012,0.00805213,0.7794101,0.004171105,0.003962292,-0.62648773,0.9999931,-7.0315787e-06,-9.555778e-06,0.0037348683,2
112643070,-0.036638588,0.11673591,-0.008655077,0.77946275,0.0017774486,0.003737713,-0.626435,0.9999931,-7.0315787e-06,-9.555778e-06,0.0037348683,2
112675078,-0.094083264,0.23362365,0.03487706,0.77951396,-3.0814317e-05,0.0042278497,-0.6263706,0.9999931,-7.0315787e-06,-9.555778e-06,0.0037348683,2
112707104,0.16233252,-0.1933596,0.041933924,0.77965534,0.0012684133,0.003253476,-0.6261991,0.9999931,-7.0315787e-06,-9.555778e-06,0.0037348683,2
112739111,0.05166816,-0.04014244,0.015716957,0.7796602,0.0031480852,0.0020593258,-0.6261915,0.9999931,-7.0315787e-06,-9.555778e-06,0.0037348683,2
112771071,-0.042363923,0.059144825,-0.00012644159,0.7796813,0.0011646,0.00094081566,-0.6261746,0.9999931,-7.0315787e-06,-9.555778e-06,0.0037348683,2
112799901,-0.33242467,-0.046388738,0.044668667,0.7797669,-0.0011842301,0.0015528352,-0.62606686,0.9999931,-7.0315787e-06,-9.555778e-06,0.0037348683,2
112831871,0.12094795,0.4744152,-0.036405623,0.7796701,0.0013130947,0.00278311,-0.62618303,0.9999931,-7.0315787e-06,-9.555778e-06,0.0037348683,2
112863875,0.23983562,-0.09893386,-0.017053831,0.779628,0.0026140627,0.0025999655,-0.6262322,0.9999931,-7.0315787e-06,-9.555778e-06,0.0037348683,2
112894333,-0.1661759,-0.11509006,0.065282665,0.77963096,0.0022648466,0.0026639781,-0.62622947,0.9999931,-7.0315787e-06,-9.555778e-06,0.0037348683,2
112927077,-0.08461224,0.061708074,-0.0044546314,0.7795304,0.0016980671,0.0010529887,-0.62636125,0.9999931,-7.0315787e-06,-9.555778e-06,0.0037348683,2
112959070,0.2890333,0.14699294,-0.037778977,0.77943563,0.0016100835,0.0007092734,-0.62648,0.9999931,-7.0315787e-06,-9.555778e-06,0.0037348683,2
112991118,0.043719195,-0.053259514,0.0032177586,0.7793105,0.0014454961,0.0017601758,-0.6266338,0.9999931,-7.0315787e-06,-9.555778e-06,0.0037348683,2
113022287,-0.18672568,-0.25280744,0.025605708,0.7792541,0.0024574955,0.0026037472,-0.6266979,0.9999931,-7.0315787e-06,-9.555778e-06,0.0037348683,2
113051875,0.18264212,0.26104152,-0.050982483,0.77919155,0.0037936894,0.0019152404,-0.6267715,0.9999931,-7.0315787e-06,-9.555778e-06,0.0037348683,2
113082304,-0.07291823,-0.20998916,-0.014906106,0.7790516,0.0044289427,0.0016210454,-0.62694216,0.9999931,-7.0315787e-06,-9.555778e-06,0.0037348683,2
113115085,-0.13829693,-0.037392724,-0.03616367,0.77883244,0.0028362318,0.0027502251,-0.6272196,0.9999931,-7.0315787e-06,-9.555778e-06,0.0037348683,2
113147884,0.13045666,0.20945337,-0.037743382,0.7786329,0.0016897307,0.0029438795,-0.6274707,0.9999931,-7.0315787e-06,-9.555778e-06,0.0037348683,2
113179916,0.05276877,-0.076564245,-0.012878806,0.7784616,0.003774754,0.0022645865,-0.62767684,0.9999931,-7.0315787e-06,-9.555778e-06,0.0037348683,2
113211876,0.060607027,-0.013805448,-0.012218971,0.77823436,0.0046681515,0.0024253945,-0.6279518,0.9999931,-7.0315787e-06,-9.555778e-06,0.0037348683,2
113239882,-0.1915284,-0.31125155,-0.004314516,0.77808475,0.0021130936,0.0018277009,-0.6281532,0.9999931,-7.0315787e-06,-9.555778e-06,0.0037348683,2
113271877,0.087968655,0.16204838,-0.09488214,0.7777546,0.0020067994,0.00080181414,-0.62856436,0.9999931,-7.0315787e-06,-9.555778e-06,0.0037348683,2
113303870,0.26034546,0.22487357,-0.0684724,0.7775335,0.0037594056,0.0003151944,-0.62883025,0.9999931,-7.0315787e-06,-9.555778e-06,0.0037348683,2
