timestamp,time_utc_usec,lat,lon,alt,alt_ellipsoid,s_variance_m_s,c_variance_rad,eph,epv,hdop,vdop,noise_per_ms,jamming_indicator,vel_m_s,vel_n_m_s,vel_e_m_s,vel_d_m_s,cog_rad,timestamp_time_relative,heading,heading_offset,fix_type,vel_ned_valid,satellites_used
100900180,1562312245800054,488476352,23582578,63064,109245,1.6990001,3.1415925,942.34406,1422.499,4.06,5.0,98,11,0.109000005,0.08400001,0.07,0.33900002,0.0,0,nan,0.0,0,0,4
101104112,1562312246000054,488476386,23582631,63122,109303,1.2750001,3.1415925,906.507,1376.222,4.06,5.0,98,11,0.22200002,0.064,0.21200001,0.23200001,0.0,0,nan,0.0,0,0,4
101304198,1562312246200054,488476401,23582646,62605,108786,1.33,3.1415925,875.63904,1336.633,4.06,5.0,98,11,0.209,0.11100001,0.17600001,0.30600002,0.0,0,nan,0.0,0,0,4
101501092,1562312246400054,488476404,23582570,61061,107243,1.672,3.1415925,848.69403,1302.296,4.06,5.0,98,11,0.028,-0.008,0.026,0.35900003,0.0,0,nan,0.0,0,0,4
101704114,1562312246600055,488476415,23582508,60004,106185,1.9120001,3.1415925,826.29205,1274.296,4.06,5.0,98,11,0.082,0.047000002,-0.068,0.37500003,0.0,0,nan,0.0,0,0,4
101899189,1562312246800055,488476430,23582497,59706,105888,2.196,3.1415925,807.47003,1251.2831,4.06,5.0,98,11,0.282,0.13700001,-0.24700001,0.273,0.0,0,nan,0.0,0,0,4
102101062,1562312247000055,488476447,23582558,60313,106495,2.23,3.1415925,790.38904,1230.498,4.06,5.0,98,11,0.36,0.13700001,-0.333,0.259,0.0,0,nan,0.0,0,0,4
102300183,1562312247200055,488476448,23582594,60247,106429,2.232,3.1415925,774.80804,1211.6271,4.06,5.0,98,12,0.316,-0.059000004,-0.31100002,0.30100003,0.0,0,nan,0.0,0,0,4
102501064,1562312247400055,488476452,23582617,60088,106269,2.092,3.1415925,760.52905,1194.411,4.06,5.0,98,12,0.143,0.025,-0.141,0.254,0.0,0,nan,0.0,0,0,4
102701211,1562312247600055,488476455,23582670,60366,106548,1.5130001,3.1415925,747.38806,1178.634,4.06,5.0,98,12,0.080000006,-0.080000006,0.003,0.25800002,0.0,0,nan,0.0,0,0,4
102904323,1562312247800055,488476444,23582631,59449,105631,2.193,2.9297276,735.24805,1164.1171,4.06,5.0,98,12,0.34500003,0.079,-0.33600003,0.24700001,0.0,0,nan,0.0,0,0,4
103099105,1562312248000055,488476447,23582531,57912,104093,1.886,2.9297452,723.994,1150.7161,4.06,5.0,98,12,0.082,-0.006,-0.082,0.208,0.0,0,nan,0.0,0,0,4
103296179,1562312248200055,488476459,23582437,56988,103170,2.1230001,2.929765,713.53,1138.3041,4.06,5.0,97,12,0.47200003,-0.020000001,-0.47200003,0.28,0.0,0,nan,0.0,0,0,4
103500185,1562312248400055,488476463,23582359,56066,102247,2.0600002,2.9297845,703.77405,1126.774,4.06,5.0,97,12,0.402,0.10300001,-0.38900003,0.185,0.0,0,nan,0.0,0,0,4
103697418,1562312248600055,488476467,23582292,55380,101562,2.115,2.929804,694.65204,1116.036,4.06,5.0,97,12,0.33800003,-0.055000003,-0.33400002,0.15400001,0.0,0,nan,0.0,0,0,4
103897196,1562312248800056,488476480,23582227,54721,100902,2.0540001,2.9298236,686.104,1106.009,4.06,5.0,97,12,0.157,-0.0050000004,-0.157,0.18900001,0.0,0,nan,0.0,0,0,4
104101215,1562312249000056,488476482,23582169,53861,100042,1.028,2.9298332,678.07306,1096.623,4.06,5.0,97,12,0.158,-0.15100001,0.047000002,0.132,0.0,0,nan,0.0,0,0,4
104301056,1562312249200056,488476505,23582088,52882,99063,1.1800001,2.929844,670.51404,1087.816,4.06,5.0,97,11,0.10300001,0.07700001,0.068,0.172,0.0,0,nan,0.0,0,0,4
104506057,1562312249400056,488476522,23582002,51779,97961,1.9580001,2.9298625,663.38306,1079.536,4.06,5.0,97,11,0.142,-0.065000005,-0.125,0.066,0.0,0,nan,0.0,0,0,4
104701162,1562312249600056,488476541,23581937,50993,97175,1.7820001,2.9298787,656.64606,1071.737,4.06,5.0,97,11,0.157,0.075,0.13700001,-0.007,0.0,0,nan,0.0,0,0,4
104897370,1562312249800056,488476542,23581870,50067,96249,1.8000001,2.9298956,650.268,1064.378,4.06,5.0,97,11,0.19500001,-0.123,0.15100001,-0.058000002,0.0,0,nan,0.0,0,0,4
105097170,1562312250000056,488476550,23581774,48753,94934,1.9720001,2.929914,644.22003,1057.42,4.06,5.0,97,11,0.10700001,0.012,0.106000006,-0.133,0.0,0,nan,0.0,0,0,4
105299114,1562312250200056,488476566,23581682,47780,93962,1.5430001,2.9299288,638.478,1050.832,4.06,5.0,97,13,0.083000004,-0.049000002,0.068,0.007,0.0,0,nan,0.0,0,0,4
105499157,1562312250400056,488476583,23581604,46804,92985,1.0840001,2.9299386,633.017,1044.586,4.06,5.0,97,13,0.105000004,-0.089,-0.057000004,-0.1,0.0,0,nan,0.0,0,0,4
105698180,1562312250600056,488476597,23581519,45671,91853,1.172,2.9299498,627.81805,1038.656,4.06,5.0,97,13,0.041,-0.024,0.033,0.034,0.0,0,nan,0.0,0,0,4
105902056,1562312250800056,488476620,23581459,45166,91347,1.8900001,2.9299672,622.861,1033.0181,4.06,5.0,97,13,0.134,-0.07,-0.11400001,0.059000004,0.0,0,nan,0.0,0,0,4
106098015,1562312251000057,488476630,23581401,44388,90569,2.068,2.9299867,618.12805,1027.65,4.06,5.0,97,13,0.19500001,-0.044000003,-0.19000001,0.09,0.0,0,nan,0.0,0,0,4
106301207,1562312251200057,488476640,23581370,43953,90134,1.8870001,2.9300041,613.606,1022.53406,4.06,5.0,97,11,0.273,-0.063,0.266,0.009000001,0.0,0,nan,0.0,0,0,4
106499108,1562312251400057,488476653,23581332,43512,89694,1.4560001,2.9300177,609.278,1017.64905,4.06,5.0,97,11,0.051000003,-0.047000002,0.020000001,-0.043,0.0,0,nan,0.0,0,0,4
106698372,1562312251600057,488476664,23581299,43207,89389,1.4820001,2.9300313,605.13306,1012.98303,4.06,5.0,97,11,0.20300001,-0.143,-0.14400001,0.002,0.0,0,nan,0.0,0,0,4
106895175,1562312251800057,488476679,23581268,42870,89052,1.983,2.93005,601.15906,1008.52203,4.06,5.0,97,11,0.047000002,0.016,0.044000003,-0.016,0.0,0,nan,0.0,0,0,4
107100050,1562312252000057,488476689,23581235,42500,88681,1.521,2.9300642,597.346,1004.25104,4.06,5.0,97,11,0.165,0.026,-0.163,-0.083000004,0.0,0,nan,0.0,0,0,4
107299129,1562312252200057,488476695,23581204,42155,88336,1.1400001,2.9300747,593.68304,1000.15704,4.06,5.0,97,11,0.126,-0.097,-0.080000006,-0.069000006,0.0,0,nan,0.0,0,0,4
107499161,1562312252400057,488476709,23581164,41713,87894,1.1650001,2.930086,590.16205,996.23004,4.06,5.0,97,11,0.1,0.1,-0.0050000004,-0.12100001,0.0,0,nan,0.0,0,0,4
107702212,1562312252600057,488476716,23581146,41510,87691,2.0,2.9301047,586.77405,992.46106,4.06,5.0,97,11,0.25500003,0.058000002,0.24800001,-0.120000005,0.0,0,nan,0.0,0,0,4
107900099,1562312252800057,488476719,23581126,41242,87424,1.9980001,2.9301236,583.512,988.84,4.06,5.0,97,11,0.16900001,-0.030000001,0.16600001,-0.062000003,0.0,0,nan,0.0,0,0,4
108098402,1562312253000057,488476727,23581101,41049,87231,2.0040002,2.930142,580.367,985.35504,4.06,5.0,97,11,0.19700001,-0.029000001,0.19500001,-0.11100001,0.0,0,nan,0.0,0,0,4
108299182,1562312253200057,488476731,23581071,41003,87184,1.25,2.9301538,577.335,982.00305,4.06,5.0,97,11,0.029000001,-0.011000001,-0.027,-0.2,0.0,0,nan,0.0,0,0,4
108496104,1562312253400058,488476733,23581037,40726,86907,1.1910001,2.9301646,574.40906,978.77606,4.06,5.0,97,11,0.061000004,0.061000004,-0.002,-0.098000005,0.0,0,nan,0.0,0,0,4
108695287,1562312253600058,488476738,23581003,40636,86817,1.297,2.930177,571.583,975.6661,4.06,5.0,97,11,0.18100001,0.060000002,-0.171,-0.11100001,0.0,0,nan,0.0,0,0,4
108899209,1562312253800058,488476744,23580971,40355,86536,1.057,2.9301867,568.853,972.66907,4.0699997,5.0,97,11,0.093,0.075,-0.054,-0.14,0.0,0,nan,0.0,0,0,4
109095162,1562312254000058,488476746,23580951,40306,86487,1.0450001,2.9301965,566.215,969.78,4.0699997,5.0,97,11,0.123,-0.116000004,-0.041,-0.09200001,0.0,0,nan,0.0,0,0,4
109295564,1562312254200058,488476756,23580916,40114,86296,1.5400001,2.930211,563.661,966.98505,4.0699997,5.0,97,12,0.13800001,0.074,-0.117000006,-0.035,0.0,0,nan,0.0,0,0,4
109497055,1562312254400058,488476763,23580897,39935,86116,1.651,2.9302268,561.19,964.29004,4.0699997,5.0,97,12,0.063,0.0,0.063,-0.202,0.0,0,nan,0.0,0,0,4
109695250,1562312254600058,488476766,23580888,39934,86115,1.774,2.9302433,558.796,961.68304,4.0699997,5.0,97,12,0.186,0.120000005,0.142,-0.13100001,0.0,0,nan,0.0,0,0,4
109894475,1562312254800058,488476766,23580875,39980,86161,1.21,2.9302547,556.47705,959.1611,4.0699997,5.0,97,12,0.062000003,0.028,-0.055000003,-0.056,0.0,0,nan,0.0,0,0,4
110096133,1562312255000058,488476762,23580868,40043,86225,1.296,2.9302669,554.22705,956.72003,4.0699997,5.0,97,12,0.141,-0.030000001,-0.13700001,-0.12100001,0.0,0,nan,0.0,0,0,4
110297052,1562312255200058,488476757,23580855,40152,86334,1.664,2.9302824,552.04504,954.356,4.0699997,5.0,97,11,0.27800003,-0.09200001,-0.26200002,-0.047000002,0.0,0,nan,0.0,0,0,4
110499484,1562312255400058,488476747,23580867,40478,86659,1.1,2.9302928,549.926,952.064,4.0699997,5.0,97,11,0.052,-0.052,0.003,-0.029000001,0.0,0,nan,0.0,0,0,4
110696138,1562312255600059,488476733,23580891,40865,87046,1.7870001,2.9303095,547.869,949.843,4.0699997,5.0,97,11,0.11800001,-0.071,0.094000004,-0.120000005,0.0,0,nan,0.0,0,0,4
110897133,1562312255800059,488476720,23580918,41371,87553,1.853,2.930327,545.867,947.68207,4.0699997,5.0,97,11,0.18800001,0.087000005,0.16700001,-0.11400001,0.0,0,nan,0.0,0,0,4
111097103,1562312256000059,488476710,23580933,41742,87923,1.6790001,2.9303427,543.92303,945.5881,4.0699997,5.0,97,11,0.13800001,0.07700001,0.11400001,-0.043,0.0,0,nan,0.0,0,0,4
111294527,1562312256200059,488476698,23580956,42243,88424,1.1600001,2.9303539,542.03204,943.55707,4.0699997,5.0,97,13,0.044000003,0.002,-0.044000003,-0.20600002,0.0,0,nan,0.0,0,0,4
111495287,1562312256400059,488476686,23580980,42640,88822,1.6320001,2.930369,540.19403,941.5881,4.0699997,5.0,97,13,0.23500001,0.16100001,0.172,-0.141,0.0,0,nan,0.0,0,0,4
111697119,1562312256600059,488476674,23580999,43185,89366,1.069,2.9303787,538.40405,939.67004,4.0699997,5.0,97,13,0.108,0.006,-0.108,-0.28800002,0.0,0,nan,0.0,0,0,4
111896084,1562312256800059,488476665,23581019,43679,89860,1.139,2.9303894,536.66205,937.809,4.0699997,5.0,97,13,0.171,0.162,-0.055000003,-0.38700002,0.0,0,nan,0.0,0,0,4
112097222,1562312257000059,488476659,23581029,43986,90167,1.491,2.9304035,534.965,935.99603,4.0699997,5.0,97,13,0.23400001,0.186,0.143,-0.19900002,0.0,0,nan,0.0,0,0,4
112296233,1562312257200059,488476644,23581057,44496,90677,1.521,2.9304173,533.31104,934.23004,4.0699997,5.0,97,11,0.109000005,0.078,0.076000005,-0.097,0.0,0,nan,0.0,0,0,4
112498512,1562312257400059,488476636,23581077,44833,91015,1.1140001,2.9304278,531.7,932.517,4.0699997,5.0,97,11,0.279,0.24900001,0.124000005,-0.039,0.0,0,nan,0.0,0,0,4
112698057,1562312257600059,488476626,23581103,45176,91357,1.48,2.9304419,530.13605,930.85706,4.0699997,5.0,97,11,0.19800001,0.156,0.12200001,-0.24000001,0.0,0,nan,0.0,0,0,4
112897414,1562312257800059,488476619,23581115,45568,91750,1.103,2.9304519,528.60504,929.236,4.0699997,5.0,97,11,0.12100001,0.047000002,-0.11100001,-0.36100003,0.0,0,nan,0.0,0,0,4
113098178,1562312258000060,488476616,23581123,46114,92295,1.317,2.9304643,527.116,927.66907,4.0699997,5.0,97,11,0.53900003,0.363,-0.39800003,-0.40300003,0.0,0,nan,0.0,0,0,4
113298065,1562312258200060,488476617,23581141,46430,92612,1.5830001,2.9304793,525.661,926.13403,4.0699997,5.0,97,12,0.35500002,0.286,0.21000001,-0.379,0.0,0,nan,0.0,0,0,4
113497118,1562312258400060,488476611,23581199,46798,92980,2.298,2.9305005,524.241,924.637,4.0699997,5.0,97,12,1.126,0.059000004,1.125,-0.41000003,0.0,0,nan,0.0,0,0,4
113693803,1562312258600060,488476606,23581244,47130,93311,2.282,2.9305217,522.857,923.19104,4.0699997,5.0,97,12,1.1680001,0.282,1.133,-0.35500002,0.0,0,nan,0.0,0,0,4
113893224,1562312258800060,488476603,23581317,47484,93666,2.3260002,2.9305437,521.507,921.778,4.0699997,5.0,97,12,1.6650001,0.68500006,1.5170001,-0.39200002,0.0,0,nan,0.0,0,0,4
114095119,1562312259000060,488476599,23581373,47817,93998,2.4620001,2.9305668,520.189,920.39606,4.0699997,5.0,97,12,1.531,0.335,1.493,-0.17600001,0.0,0,nan,0.0,0,0,4
114295152,1562312259200060,488476611,23581410,48420,94601,2.325,2.9305887,518.916,919.11707,4.0699997,5.0,96,11,1.4020001,0.943,1.0370001,-0.15300001,0.0,0,nan,0.0,0,0,4
114494050,1562312259400060,488476637,23581440,48992,95173,1.9390001,2.9306066,517.643,917.73004,4.0699997,5.0,96,11,1.7110001,1.4640001,0.88600004,-0.046000004,0.0,0,nan,0.0,0,0,4
114701564,1562312259600060,488476632,23581450,48913,95094,1.6320001,2.9306219,516.41205,916.45605,4.0699997,5.0,96,11,1.0600001,1.041,0.19500001,-0.091000006,0.0,0,nan,0.0,0,0,4
114907316,1562312259800060,488476643,23581420,49237,95419,2.0180001,2.9306407,515.22003,915.26105,4.0699997,5.0,96,11,1.0020001,0.864,-0.509,0.252,0.0,0,nan,0.0,0,0,4
115099246,1562312260000060,488476688,23581353,50300,96482,2.2410002,2.9306617,514.03,914.00507,4.0699997,5.0,96,11,1.7570001,1.22,-1.264,-0.046000004,0.0,0,nan,0.0,0,0,4
115295208,1562312260200061,488476721,23581369,51892,98074,1.868,2.9306793,512.86005,912.752,4.0699997,5.0,96,12,1.01,0.89900005,-0.45900002,-0.15,0.0,0,nan,0.0,0,0,4
115495214,1562312260400061,488476692,23581405,51708,97889,1.8850001,2.9306967,511.73502,911.59106,4.0699997,5.0,96,12,0.92800003,0.82400006,-0.42600003,0.064,0.0,0,nan,0.0,0,0,4
115699126,1562312260600061,488476697,23581443,52642,98824,1.6420001,2.930712,510.63803,910.47107,4.0699997,5.0,96,12,0.88400006,0.86200005,-0.19500001,-0.072000004,0.0,0,nan,0.0,0,0,4
115894518,1562312260800061,488476633,23581518,51340,97521,1.5610001,2.9307268,509.55502,909.35205,4.0699997,5.0,96,12,0.85600007,0.85,-0.105000004,-0.071,0.0,0,nan,0.0,0,0,4
116099227,1562312261000061,488476579,23581568,50448,96630,1.8950001,2.9307442,508.51303,908.3121,4.0699997,5.0,96,12,0.36,0.238,-0.27,-0.23200001,0.0,0,nan,0.0,0,0,4
116693122,1562312261600061,488476557,23581667,49081,95262,2.742,2.9308095,505.48303,905.24304,4.0699997,5.0,96,12,1.159,0.93600005,0.684,-0.24200001,0.0,0,nan,0.0,0,0,4
116896128,1562312261800061,488476587,23581689,49036,95217,2.5740001,2.9308336,504.506,904.23804,4.0699997,5.0,96,12,1.58,1.3900001,0.75100005,-0.37,0.0,0,nan,0.0,0,0,4
117095161,1562312262000061,488476607,23581646,48923,95105,1.845,2.930851,503.54602,903.254,4.0699997,5.0,96,12,1.5130001,1.498,-0.21200001,-0.45800003,0.0,0,nan,0.0,0,0,4
117295347,1562312262200061,488476673,23581644,49708,95889,2.051,2.9308727,502.61502,902.314,4.0699997,5.0,96,13,2.252,2.2480001,-0.147,-0.596,0.0,0,nan,0.0,0,0,4
117497066,1562312262400061,488476724,23581618,50548,96729,1.9720001,2.9308941,501.69904,901.39105,4.0699997,5.0,96,13,2.1030002,2.036,-0.52500004,-0.89800006,0.0,0,nan,0.0,0,0,4
117696114,1562312262600062,488476745,23581695,49978,96160,2.252,2.9309208,500.78903,900.44604,4.0699997,5.0,96,13,2.71,2.709,0.074,-0.76400006,0.0,0,nan,0.0,0,0,4
117898345,1562312262800062,488476771,23581690,49736,95918,2.552,2.9309444,499.90604,899.541,4.0699997,5.0,96,13,1.7860001,1.746,0.374,-0.587,0.0,0,nan,0.0,0,0,4
118105087,1562312263000062,488476842,23581664,51073,97254,2.897,2.9309716,499.00403,898.55804,4.0699997,5.0,96,13,1.297,1.079,0.72,-0.47900003,0.0,0,nan,0.0,0,0,4
118304064,1562312263200062,488476855,23581713,50838,97019,3.492,2.9310045,498.15002,897.68604,4.0699997,5.0,96,11,1.491,0.794,1.2620001,-0.22700001,0.0,0,nan,0.0,0,0,4
118505098,1562312263400062,488476909,23581627,51288,97470,2.6290002,2.931029,497.308,896.83405,4.0699997,5.0,96,11,0.91400003,0.76100004,0.507,-0.178,0.0,0,nan,0.0,0,0,4
118701067,1562312263600062,488476936,23581685,51747,97928,2.891,2.9310563,496.48303,895.99506,4.0699997,5.0,96,11,1.542,1.09,1.0910001,-0.164,0.0,0,nan,0.0,0,0,4
118900161,1562312263800062,488476966,23581714,52604,98785,3.2440002,2.9310865,495.674,895.17505,4.0699997,5.0,96,11,1.3180001,0.739,1.0910001,-0.40500003,0.0,0,nan,0.0,0,0,4
119100053,1562312264000062,488476922,23581794,51567,97749,3.394,2.9311182,494.90903,894.45703,4.08,5.0,96,11,1.138,0.47200003,1.036,-0.70000005,0.0,0,nan,0.0,0,0,4
119296734,1562312264200062,488476894,23581768,50958,97139,3.229,2.9311488,494.13904,893.69806,4.08,5.0,96,12,0.544,-0.179,0.514,-0.51600003,0.0,0,nan,0.0,0,0,4
119501057,1562312264400062,488476886,23581835,50347,96528,3.5850003,2.931182,493.37003,892.913,4.08,5.0,96,12,1.182,0.563,1.039,-0.335,0.0,0,nan,0.0,0,0,4
119701057,1562312264600062,488476860,23581822,49122,95304,3.1690001,2.9312115,492.618,892.1611,4.08,5.0,96,12,0.545,0.29500002,0.45900002,-0.637,0.0,0,nan,0.0,0,0,4
119902838,1562312264800063,488476918,23581788,49630,95812,3.1060002,2.9312406,491.877,891.41406,4.08,5.0,96,12,0.929,0.75000006,0.54700005,-0.60700005,0.0,0,nan,0.0,0,0,4
120105094,1562312265000063,488476917,23581817,49310,95491,3.4640002,2.931273,491.15002,890.684,4.08,5.0,96,12,1.0710001,0.63900006,0.859,-0.35900003,0.0,0,nan,0.0,0,0,4
120314055,1562312265200063,488477786,23579641,22898,69079,3.0000002,2.9313014,64.96001,102.48701,2.04,2.44,96,10,0.675,0.34500003,0.58100003,-0.22900002,0.0,0,nan,0.0,0,0,5
120501192,1562312265400063,488477809,23579642,22654,68836,2.963,2.9313288,47.859,76.592,2.04,2.44,96,10,0.94900006,0.63600004,0.70500004,-0.273,0.0,0,nan,0.0,3,1,5
120698053,1562312265600063,488477791,23579640,22215,68396,2.575,2.9313529,40.289,65.397,2.04,2.44,96,10,0.35300002,0.266,0.23200001,-0.49,0.0,0,nan,0.0,3,1,5
120897246,1562312265800063,488477742,23579625,21872,68053,2.568,2.931377,35.749,58.077003,2.04,2.44,96,10,0.55700004,-0.21000001,-0.51600003,-0.36,0.0,0,nan,0.0,3,1,5
121098062,1562312266000063,488477703,23579638,21462,67644,2.9110003,2.931404,32.93,53.682003,2.04,2.44,96,10,0.57900006,-0.34100002,-0.467,0.24000001,0.0,0,nan,0.0,3,1,5
121301521,1562312266200063,488477703,23579673,20844,67026,2.273,2.9314256,30.837002,50.407,2.04,2.44,96,13,0.264,0.24900001,-0.08800001,0.324,0.0,0,nan,0.0,3,1,5
121498281,1562312266400063,488477678,23579723,21066,67247,2.5200002,2.931449,29.247002,48.536003,2.04,2.44,96,13,0.36200002,-0.356,0.065000005,-0.321,0.0,0,nan,0.0,3,1,5
121699166,1562312266600063,488477674,23579786,21400,67581,2.5830002,2.9314733,27.881,46.793003,2.04,2.44,96,13,0.65900004,-0.29000002,0.591,-0.528,0.0,0,nan,0.0,3,1,5
121894216,1562312266800063,488477669,23579869,21251,67433,2.789,2.9314992,26.828001,45.207,2.04,2.44,96,13,0.91200006,0.18400002,0.89300007,-0.822,0.0,0,nan,0.0,3,1,5
122098056,1562312267000064,488477692,23579916,21358,67540,3.0300002,2.9315279,25.963001,43.789,2.04,2.44,96,13,1.238,0.60200006,1.082,-0.437,0.0,0,nan,0.0,3,1,5
122301206,1562312267200064,488477664,23579953,21235,67416,2.936,2.9315553,25.124,42.593002,2.04,2.44,96,10,0.86500007,0.16800001,0.84800005,-0.155,0.0,0,nan,0.0,3,1,5
122493593,1562312267400064,488477651,23579974,20719,66901,2.42,2.9315782,24.465002,41.644,2.04,2.44,96,10,1.006,-0.275,0.96700007,0.133,0.0,0,nan,0.0,3,1,5
122694372,1562312267600064,488477657,23580013,19990,66171,2.6200001,2.9316025,23.812,40.769,2.04,2.44,96,10,1.1780001,-0.086,1.1750001,0.049000002,0.0,0,nan,0.0,3,1,5
122894349,1562312267800064,488477668,23580033,19505,65687,2.6680002,2.9316273,23.297,39.977,2.04,2.44,96,10,1.213,-0.101,1.2090001,-0.080000006,0.0,0,nan,0.0,3,1,5
123093693,1562312268000064,488477667,23580042,18803,64985,2.571,2.9316514,22.859001,39.226,2.04,2.44,96,10,1.021,-0.23400001,0.994,-0.135,0.0,0,nan,0.0,3,1,5
123298051,1562312268200064,488477681,23580037,18547,64728,2.4550002,2.9316745,22.486002,38.656002,2.04,2.44,96,12,0.915,-0.31300002,0.86,-0.15900001,0.0,0,nan,0.0,3,1,5
123495791,1562312268400064,488477685,23580036,18054,64236,2.3500001,2.9316964,22.085001,38.111,2.04,2.44,96,12,0.86300004,-0.40600002,0.76100004,-0.13700001,0.0,0,nan,0.0,3,1,5
123694516,1562312268600064,488477732,23580060,17545,63727,2.923,2.9317236,21.843,37.643,2.04,2.44,96,12,1.189,0.569,1.044,-0.024,0.0,0,nan,0.0,3,1,5
123895167,1562312268800064,488477771,23580118,16608,62790,2.831,2.93175,21.524,37.086002,2.04,2.44,96,12,1.9360001,1.3310001,1.406,0.128,0.0,0,nan,0.0,3,1,5
124098058,1562312269000064,488477785,23580148,15990,62171,2.9450002,2.9317777,21.284,36.691,2.04,2.44,96,12,1.6580001,1.075,1.263,-0.1,0.0,0,nan,0.0,3,1,5
124306165,1562312269200065,488477810,23580123,15484,61666,2.5700002,2.9318018,21.146002,36.377003,2.04,2.44,96,11,1.5230001,1.4410001,0.49100003,0.223,0.0,0,nan,0.0,3,1,5
124496057,1562312269400065,488477820,23580079,15194,61376,2.2540002,2.9318228,20.986,36.051003,2.04,2.44,96,11,1.246,1.215,-0.28,0.246,0.0,0,nan,0.0,3,1,5
124695211,1562312269600065,488477844,23580024,14988,61170,2.0900002,2.9318423,20.820002,35.691,2.04,2.44,96,11,1.195,1.0120001,-0.63600004,0.149,0.0,0,nan,0.0,3,1,5
124894365,1562312269800065,488477845,23579948,15183,61365,2.5210001,2.931866,20.665,35.343002,2.04,2.44,96,11,1.2160001,0.286,-1.182,-0.013,0.0,0,nan,0.0,3,1,5
125100056,1562312270000065,488477839,23579861,15441,61622,2.7,2.9318912,20.470001,35.017002,2.04,2.44,96,11,1.7440001,-0.24900001,-1.7260001,-0.317,0.0,0,nan,0.0,3,1,5
125304057,1562312270200065,488477825,23579809,15259,61440,2.6850002,2.9319162,20.36,34.935,2.04,2.44,96,11,1.9010001,-0.25500003,-1.8840001,-0.388,0.0,0,nan,0.0,3,1,5
125500053,1562312270400065,488477828,23579733,15497,61678,2.6710002,2.9319415,20.244001,34.738003,2.04,2.44,96,11,2.029,-0.26700002,-2.012,-0.46,0.0,0,nan,0.0,3,1,5
125699170,1562312270600065,488477805,23579673,15180,61361,2.914,2.9319687,20.227001,34.727,2.04,2.44,96,11,2.091,-0.86800003,-1.9020001,-0.22500001,0.0,0,nan,0.0,3,1,5
125896588,1562312270800065,488477785,23579635,15054,61235,2.8920002,2.9319959,20.159,34.575,2.04,2.44,96,11,2.0440001,-0.85,-1.858,-0.365,0.0,0,nan,0.0,3,1,5
126100097,1562312271000065,488477754,23579567,15433,61614,2.976,2.9320238,20.051,34.444,2.04,2.44,96,11,2.4220002,-1.307,-2.039,-0.54,0.0,0,nan,0.0,3,1,5
126307192,1562312271200065,488477694,23579492,15310,61491,3.0500002,0.66290253,20.001001,34.18,2.04,2.44,96,10,3.163,-2.443,-2.01,-0.29900002,3.949305,0,nan,0.0,3,1,5
126499260,1562312271400065,488477679,23579468,14593,60775,2.9550002,0.6630247,19.933,33.911003,2.04,2.44,96,10,2.5200002,-2.065,-1.445,0.21900001,3.949305,0,nan,0.0,3,1,5
126696150,1562312271600066,488477656,23579432,14211,60392,2.9380002,0.6631462,19.844002,33.572002,2.04,2.44,96,10,2.204,-1.6100001,-1.5050001,0.36400002,3.949305,0,nan,0.0,3,1,5
126898346,1562312271800066,488477651,23579413,14308,60489,2.9060001,0.66326624,19.844002,33.457,2.04,2.44,96,10,1.746,-1.1780001,-1.2880001,-0.093,3.949305,0,nan,0.0,3,1,5
127096124,1562312272000066,488477642,23579395,14227,60408,2.7630002,0.66338056,19.793001,33.118,2.04,2.44,96,10,1.4200001,-0.906,-1.093,-0.33100003,3.949305,0,nan,0.0,3,1,5
127296067,1562312272200066,488477632,23579330,14079,60260,2.9880002,0.663504,19.738,32.971,2.04,2.44,96,11,1.4810001,-0.83300006,-1.225,0.319,3.949305,0,nan,0.0,3,1,5
127493189,1562312272400066,488477640,23579311,13744,59926,2.8560002,0.66362214,19.68,32.795002,2.04,2.44,96,11,1.016,-0.31100002,-0.96700007,0.46500003,3.949305,0,nan,0.0,3,1,5
127698054,1562312272600066,488477608,23579213,14088,60269,2.9110003,0.66374224,19.615002,32.552002,2.04,2.44,96,11,1.9760001,-0.69000006,-1.8510001,0.282,3.949305,0,nan,0.0,3,1,5
127896863,1562312272800066,488477579,23579171,14294,60475,2.7630002,0.6638564,19.555,32.34,2.04,2.44,96,11,2.204,-1.616,-1.498,-0.021000002,3.949305,0,nan,0.0,3,1,5
128096618,1562312273000066,488477574,23579155,14616,60797,2.5630002,0.6639623,19.536001,32.316,2.04,2.44,96,11,1.9570001,-1.59,-1.1400001,-0.56100005,3.949305,0,nan,0.0,3,1,5
128308335,1562312273200066,488477590,23579166,14645,60827,2.2810001,0.66405654,19.327002,31.196001,2.04,2.4299998,96,11,1.0200001,-0.845,-0.57100004,-0.69100004,3.949305,0,nan,0.0,3,1,5
128500053,1562312273400066,488477606,23579128,15137,61318,2.329,0.66415274,19.296001,30.806002,2.04,2.4299998,96,11,1.0400001,-0.77800006,-0.69000006,-0.697,3.949305,0,nan,0.0,3,1,5
128696607,1562312273600066,488477589,23579111,15366,61548,2.075,0.6642382,19.211,30.460001,2.04,2.4299998,96,11,1.131,-1.033,-0.462,-0.37300003,3.949305,0,nan,0.0,3,1,5
128898088,1562312273800067,488477595,23579084,16070,62251,1.866,0.6643154,19.086,30.284002,2.04,2.4299998,96,11,1.34,-1.3160001,-0.24900001,-0.13100001,3.949305,0,nan,0.0,3,1,5
129093123,1562312274000067,488477603,23579062,16624,62805,1.8980001,0.66439354,18.998001,30.149002,2.04,2.4299998,96,11,1.2210001,-1.171,-0.34600002,-0.11100001,3.949305,0,nan,0.0,3,1,5
129294058,1562312274200067,488477586,23579068,17071,63252,1.968,0.6644749,19.134,31.098001,2.04,2.4299998,96,12,0.36,-0.026,-0.35900003,-0.223,3.949305,0,nan,0.0,3,1,5
129498062,1562312274400067,488477567,23579050,17933,64114,1.9790001,0.66455656,19.069,31.080002,2.04,2.4299998,96,12,0.60200006,-0.068,-0.59800005,-0.372,3.949305,0,nan,0.0,3,1,5
129698220,1562312274600067,488477548,23579032,18664,64845,2.065,0.66464174,19.014002,30.861002,2.04,2.4299998,96,12,0.634,-0.282,-0.568,-0.321,3.949305,0,nan,0.0,3,1,5
129894226,1562312274800067,488477527,23579052,18042,64223,1.96,0.66472256,18.956001,30.853,2.04,2.4299998,96,12,0.609,0.094000004,-0.60200006,-0.26200002,3.949305,0,nan,0.0,3,1,5
130094172,1562312275000067,488477514,23579040,18327,64508,2.0010002,0.6648051,18.925001,30.709002,2.04,2.4299998,96,12,0.83100003,-0.26000002,-0.79,-0.44700003,3.949305,0,nan,0.0,3,1,5
130309057,1562312275200067,488477492,23578979,19453,65634,2.239,0.66489744,18.893002,30.631,2.04,2.4299998,96,12,1.299,-0.44300002,-1.2210001,-0.31300002,3.949305,0,nan,0.0,3,1,5
130497620,1562312275400067,488477471,23578959,20076,66257,2.032,0.66498125,18.836,30.417002,2.04,2.4299998,96,12,1.225,-0.142,-1.2160001,-0.555,3.949305,0,nan,0.0,3,1,5
130693100,1562312275600067,488477458,23578961,21225,67406,1.5170001,0.6650439,18.902,30.587002,2.04,2.4299998,96,12,0.44200003,-0.18200001,-0.40300003,-0.78900003,3.949305,0,nan,0.0,3,1,5
130893801,1562312275800067,488477453,23578988,22211,68392,1.9810001,0.66512537,18.862001,30.374,2.04,2.4299998,96,12,0.287,0.18,0.223,-1.098,3.949305,0,nan,0.0,3,1,5
131094178,1562312276000067,488477415,23578974,22151,68332,1.465,0.66518575,18.843,30.354002,2.04,2.4299998,96,12,0.36200002,-0.039,-0.36,-0.99000007,3.949305,0,nan,0.0,3,1,5
131293552,1562312276200068,488477395,23578907,22652,68834,2.036,0.66526973,18.845001,30.427002,2.04,2.4299998,96,13,0.99600005,-0.14,-0.98600006,-0.633,3.949305,0,nan,0.0,3,1,5
131494384,1562312276400068,488477392,23578871,22628,68809,2.2340002,0.6653619,18.721,30.184002,2.04,2.4299998,96,13,0.98800004,-0.287,-0.94500005,-0.29000002,3.949305,0,nan,0.0,3,1,5
131694177,1562312276600068,488477385,23578907,22085,68267,1.94,0.6654418,18.735,30.337002,2.04,2.4299998,96,13,0.26200002,0.26200002,-0.002,-0.013,3.949305,0,nan,0.0,3,1,5
131894310,1562312276800068,488477389,23578946,21535,67716,2.44,0.66554236,18.793001,30.646002,2.04,2.4299998,96,13,0.703,0.51600003,0.47700003,0.083000004,3.949305,0,nan,0.0,3,1,5
132093654,1562312277000068,488477345,23578972,20963,67144,1.96,0.6656231,18.807001,30.686,2.04,2.4299998,96,13,0.57000005,-0.47700003,0.312,-0.31100002,3.949305,0,nan,0.0,3,1,5
132303117,1562312277200068,488477366,23578996,20982,67163,2.242,0.66571546,18.782001,30.560001,2.04,2.4299998,95,13,0.88900006,-0.24900001,0.85300004,-0.15,3.949305,0,nan,0.0,3,1,5
132494189,1562312277400068,488477320,23578987,20467,66649,2.127,0.6658031,18.823,30.571001,2.04,2.4299998,95,13,1.294,-1.245,0.35300002,-0.014,3.949305,0,nan,0.0,3,1,5
132690349,1562312277600068,488477268,23578944,20300,66482,2.3500001,0.6658998,18.769001,30.430002,2.04,2.4299998,95,13,1.5100001,-1.4710001,-0.34,0.455,3.949305,0,nan,0.0,3,1,5
132895179,1562312277800068,488477211,23578878,20489,66670,2.5870001,0.66600627,18.805,30.614002,2.04,2.4299998,95,13,2.2770002,-2.022,-1.046,0.623,3.949305,0,nan,0.0,3,1,5
133091200,1562312278000068,488477164,23578849,21481,67663,2.4620001,0.66610765,18.736,30.463001,2.04,2.4299998,95,13,2.345,-2.269,-0.59300005,0.572,3.949305,0,nan,0.0,3,1,5
133295390,1562312278200068,488477124,23578865,21817,67999,2.4450002,0.6662084,18.804,30.751001,2.04,2.4299998,95,13,1.7340001,-1.733,-0.040000003,0.54,3.949305,0,nan,0.0,3,1,5
133494444,1562312278400069,488477121,23578887,21667,67848,2.766,0.6663222,18.821001,30.852001,2.04,2.4299998,95,13,0.65500003,-0.637,-0.15400001,0.127,3.949305,0,nan,0.0,3,1,5
133690233,1562312278600069,488477165,23578924,21041,67222,2.551,0.6664271,18.774,30.761002,2.04,2.4299998,95,13,0.767,0.75900006,0.11000001,0.096,3.949305,0,nan,0.0,3,1,5
133891209,1562312278800069,488477163,23578894,21004,67185,1.899,0.6665052,18.856,30.973001,2.04,2.4299998,95,13,0.76000005,0.268,-0.711,-0.441,3.949305,0,nan,0.0,3,1,5
134096143,1562312279000069,488477177,23578855,20685,66866,2.1200001,0.66659254,18.800001,30.752,2.04,2.4299998,95,13,1.125,0.293,-1.0860001,-0.264,3.949305,0,nan,0.0,3,1,5
134302172,1562312279200069,488477189,23578867,20869,67050,1.7650001,0.66666514,18.802,30.705002,2.04,2.4299998,95,12,0.46,0.287,-0.35900003,-0.425,3.949305,0,nan,0.0,3,1,5
134492074,1562312279400069,488477220,23578895,21158,67339,2.127,0.6667526,18.806002,30.680002,2.04,2.4299998,95,12,0.683,0.67300004,0.117000006,-0.744,3.949305,0,nan,0.0,3,1,5
134691215,1562312279600069,488477227,23578912,21257,67439,2.354,0.66684943,18.879002,30.844002,2.04,2.4299998,95,12,0.52400005,0.29000002,0.43600002,-0.75500005,3.949305,0,nan,0.0,3,1,5
134896059,1562312279800069,488477233,23578780,21905,68086,2.7870002,0.66696393,18.380001,28.564001,2.04,2.4299998,95,12,1.2270001,-0.78900003,-0.93900007,0.19600001,3.949305,0,nan,0.0,3,1,5
135095826,1562312280000069,488477182,23578671,22471,68653,2.605,0.6670709,18.222,27.77,2.04,2.4299998,95,12,2.328,-1.7210001,-1.5680001,0.77500004,3.949305,0,nan,0.0,3,1,5
135295227,1562312280200069,488477179,23578624,23312,69494,2.5870001,0.6671774,18.245,27.833002,2.04,2.4299998,96,12,2.056,-1.5810001,-1.315,0.535,3.949305,0,nan,0.0,3,1,5
135497064,1562312280400069,488477191,23578577,24619,70800,2.38,0.66727513,18.364,28.521002,2.04,2.4299998,96,12,1.565,-1.233,-0.96500003,0.305,3.949305,0,nan,0.0,3,1,5
135695165,1562312280600070,488477188,23578509,26010,72191,2.273,0.6673685,18.299002,28.505001,2.04,2.4299998,96,12,1.455,-1.2030001,-0.82000005,0.462,3.949305,0,nan,0.0,3,1,5
135895302,1562312280800070,488477152,23578488,26092,72273,2.3040001,0.66746306,18.232,28.424002,2.04,2.4299998,96,12,1.2470001,-0.82600003,-0.934,0.261,3.949305,0,nan,0.0,3,1,5
136100161,1562312281000070,488477139,23578498,26949,73130,1.682,0.6675322,18.209002,28.399002,2.04,2.4299998,96,12,0.43600002,-0.358,-0.25,-0.21900001,3.949305,0,nan,0.0,3,1,5
136307260,1562312281200070,488477140,23578481,27270,73452,1.7760001,0.66760516,18.19,28.389002,2.04,2.4299998,96,11,0.38300002,0.064,-0.37800002,-0.32000002,3.949305,0,nan,0.0,3,1,5
136496188,1562312281400070,488477133,23578398,27918,74099,2.3240001,0.66770065,17.922,27.394001,2.04,2.4299998,96,11,1.1730001,-0.56700003,-1.0270001,-0.034,3.949305,0,nan,0.0,3,1,5
136696161,1562312281600070,488477113,23578352,28105,74287,2.4380002,0.6678008,18.118,28.242,2.04,2.4299998,96,11,1.2750001,0.07,-1.273,0.008,3.949305,0,nan,0.0,3,1,5
136896251,1562312281800070,488477076,23578360,27185,73366,2.26,0.66789365,17.982,28.386002,2.04,2.4299998,96,11,0.97800004,0.064,-0.975,-0.294,3.949305,0,nan,0.0,3,1,5
137097055,1562312282000070,488477034,23578344,26879,73061,2.0210001,0.66797656,17.842001,28.237001,2.04,2.4299998,96,11,1.1700001,-0.88100004,-0.77000004,-0.35300002,3.949305,0,nan,0.0,3,1,5
137296099,1562312282200070,488476991,23578321,26672,72854,1.955,0.66805685,17.826,28.359001,2.04,2.4299998,95,11,1.649,-1.396,-0.878,-0.381,3.949305,0,nan,0.0,3,1,5
137497126,1562312282400070,488476992,23578308,27108,73289,2.184,0.6681464,17.694,28.166002,2.04,2.4299998,95,11,0.90500003,-0.77300006,-0.47200003,-0.048,3.949305,0,nan,0.0,3,1,5
137697056,1562312282600070,488477033,23578263,28073,74254,2.206,0.668237,17.404001,27.486002,2.04,2.4299998,95,11,1.284,-0.9620001,-0.851,0.15,3.949305,0,nan,0.0,3,1,5
137892135,1562312282800070,488477064,23578240,28785,74966,2.206,0.66832757,17.662,28.253002,2.04,2.4299998,95,11,1.1420001,-0.11800001,-1.136,0.07300001,3.949305,0,nan,0.0,3,1,5
138092126,1562312283000071,488477147,23578219,31166,77347,2.237,0.66841936,17.211,27.11,2.04,2.4299998,95,11,0.546,-0.365,-0.407,-0.09200001,3.949305,0,nan,0.0,3,1,5
138308108,1562312283200071,488477175,23578247,31968,78149,1.6940001,0.6684888,17.156,27.021002,2.04,2.4299998,95,12,0.45900002,-0.45600003,0.055000003,0.058000002,3.949305,0,nan,0.0,3,1,5
138498288,1562312283400071,488477187,23578279,31717,77899,1.9410001,0.6685684,17.169,27.153002,2.04,2.4299998,95,12,0.106000006,-0.066,-0.082,0.020000001,3.949305,0,nan,0.0,3,1,5
138694150,1562312283600071,488477188,23578323,31127,77309,1.71,0.6686386,17.017,26.847002,2.04,2.4299998,95,12,0.282,0.026,0.28,0.17500001,3.949305,0,nan,0.0,3,1,5
138893382,1562312283800071,488477194,23578353,30323,76504,1.5300001,0.66870123,16.939001,26.801,2.04,2.4299998,95,12,1.034,0.9990001,-0.26700002,0.43100002,3.949305,0,nan,0.0,3,1,5
139097052,1562312284000071,488477221,23578395,30754,76936,1.797,0.66877484,17.212,27.597002,2.04,2.4299998,95,12,0.94200003,0.632,0.69900006,0.45100003,3.949305,0,nan,0.0,3,1,5
139298050,1562312284200071,488477251,23578412,31123,77304,1.7340001,0.6688461,17.109001,27.429,2.04,2.4299998,95,11,0.9990001,0.89400005,0.446,0.24300002,3.949305,0,nan,0.0,3,1,5
139498090,1562312284400071,488477264,23578391,31864,78046,1.7590001,0.6689182,16.810001,26.762001,2.04,2.4299998,95,11,1.1190001,1.0400001,-0.41300002,0.39800003,3.949305,0,nan,0.0,3,1,5
139697063,1562312284600071,488477282,23578397,33269,79451,1.603,0.66898394,16.736,26.721,2.04,2.4299998,95,11,1.0450001,1.031,-0.16800001,0.393,3.949305,0,nan,0.0,3,1,5
139896708,1562312284800071,488477264,23578472,32642,78823,1.695,0.66905344,17.058,27.640001,2.04,2.4299998,95,11,1.148,1.0530001,0.455,0.155,3.949305,0,nan,0.0,3,1,5
140097144,1562312285000071,488477250,23578539,32015,78196,1.838,0.66912866,16.759,26.306002,2.04,2.4299998,95,11,0.684,0.186,0.65900004,0.128,3.949305,0,nan,0.0,3,1,5
140305117,1562312285200072,488477216,23578582,31159,77340,1.8560001,0.6692048,17.077002,27.324001,2.04,2.4299998,95,11,0.25,-0.10300001,0.22800002,-0.19600001,3.949305,0,nan,0.0,3,1,5
140497688,1562312285400072,488477272,23578537,32783,78965,1.4870001,0.6692657,16.787,26.347002,2.04,2.4299998,95,11,0.23900001,-0.19600001,0.13700001,-0.049000002,3.949305,0,nan,0.0,3,1,5
140698499,1562312285600072,488477234,23578529,32281,78462,1.9330001,0.6693449,17.026001,27.424002,2.04,2.4299998,95,11,0.68600005,0.31800002,-0.60700005,0.39000002,3.949305,0,nan,0.0,3,1,5
140897513,1562312285800072,488477208,23578519,32730,78911,2.216,0.6694357,17.01,27.479002,2.04,2.4299998,95,11,0.51500005,-0.134,-0.497,0.335,3.949305,0,nan,0.0,3,1,5
141097829,1562312286000072,488477164,23578531,32195,78376,1.605,0.6695013,17.19,28.278002,2.04,2.4299998,95,11,0.224,-0.115,-0.192,0.808,3.949305,0,nan,0.0,3,1,5
141299117,1562312286200072,488477125,23578531,31898,78079,1.8700001,0.6695779,17.145,28.314001,2.04,2.4299998,95,12,0.648,-0.53900003,-0.36,0.86300004,3.949305,0,nan,0.0,3,1,5
141501055,1562312286400072,488477090,23578557,31878,78059,1.6370001,0.6696449,17.144001,28.328001,2.04,2.4299998,95,12,0.49600002,-0.49400002,0.039,0.59000003,3.949305,0,nan,0.0,3,1,5
141699115,1562312286600072,488477099,23578538,32592,78773,1.6560001,0.66971284,17.138,28.323002,2.04,2.4299998,95,12,0.26900002,-0.261,-0.065000005,0.54300004,3.949305,0,nan,0.0,3,1,5
141897697,1562312286800072,488477074,23578549,32309,78490,1.8960001,0.6697903,17.173,28.472002,2.04,2.4299998,95,12,0.17500001,0.004,-0.17500001,0.326,3.949305,0,nan,0.0,3,1,5
142098058,1562312287000072,488477052,23578524,32616,78797,2.3070002,0.66988474,17.174002,28.496002,2.04,2.4299998,95,12,0.551,-0.38500002,-0.39400002,0.38500002,3.949305,0,nan,0.0,3,1,5
142310170,1562312287200072,488477017,23578519,32316,78498,2.2700002,0.6699777,17.201,28.640001,2.04,2.4299998,95,11,0.51500005,-0.35500002,-0.372,0.49300003,3.949305,0,nan,0.0,3,1,5
142494195,1562312287400072,488476985,23578531,31650,77832,1.646,0.67004514,17.263,28.764002,2.04,2.4299998,95,11,0.16900001,-0.035,-0.16600001,0.65400004,3.949305,0,nan,0.0,3,1,5
143892165,1562312288800073,488476931,23578381,32618,78799,2.483,0.67069614,17.564001,29.235,2.04,2.4299998,95,13,1.1040001,0.21800001,-1.082,0.32000002,3.949305,0,nan,0.0,3,1,5
144091315,1562312289000073,488476915,23578335,33096,79278,2.73,0.67080766,17.348001,28.334002,2.04,2.4299998,95,13,1.118,-0.22000001,-1.0960001,0.347,3.949305,0,nan,0.0,3,1,5
144307054,1562312289200073,488476916,23578321,33055,79236,2.466,0.6709084,17.284,27.963001,2.04,2.4299998,95,12,0.90800005,0.11800001,-0.90000004,0.39100003,3.949305,0,nan,0.0,3,1,5
144496218,1562312289400073,488476940,23578287,33617,79799,2.0530002,0.6709923,17.287,27.885002,2.04,2.4299998,95,12,1.2270001,0.77400005,-0.952,0.38700002,3.949305,0,nan,0.0,3,1,5
144697134,1562312289600073,488476946,23578279,33880,80062,1.9620001,0.6710724,17.209002,27.572,2.04,2.4299998,95,12,0.51100004,0.335,-0.38500002,0.407,3.949305,0,nan,0.0,3,1,5
144897103,1562312289800074,488476947,23578278,33851,80032,1.136,0.67111886,17.201,27.511002,2.04,2.4299998,95,12,0.467,0.42000002,0.20500001,0.915,3.949305,0,nan,0.0,3,1,5
145096122,1562312290000074,488476953,23578289,33503,79684,1.156,0.6711661,17.195002,27.477001,2.04,2.4299998,95,12,0.455,0.42100003,0.17400001,0.66200006,3.949305,0,nan,0.0,3,1,5
145296200,1562312290200074,488477002,23578298,33556,79737,1.6550001,0.6712337,17.27,27.732002,2.04,2.4299998,95,10,1.378,1.35,0.27400002,0.43600002,3.949305,0,nan,0.0,3,1,5
145496271,1562312290400074,488477031,23578317,33381,79563,1.9190001,0.67131203,17.496,28.566002,2.04,2.4299998,95,10,1.4720001,1.44,0.30600002,0.12200001,3.949305,0,nan,0.0,3,1,5
145696258,1562312290600074,488477019,23578312,33069,79251,1.7540001,0.6713838,17.503,28.729002,2.04,2.4299998,95,10,0.73600006,0.711,0.18900001,0.37600002,3.949305,0,nan,0.0,3,1,5
145895331,1562312290800074,488477008,23578318,32620,78801,1.8410001,0.67145884,17.537,28.887001,2.04,2.4299998,95,10,1.013,1.0120001,-0.058000002,0.518,3.949305,0,nan,0.0,3,1,5
146100098,1562312291000074,488477001,23578301,32430,78611,1.894,0.6715363,17.583,29.035002,2.04,2.4299998,95,10,1.077,0.93600005,-0.53300005,0.46400002,3.949305,0,nan,0.0,3,1,5
146312051,1562312291200074,488476998,23578269,32439,78620,2.1290002,0.67162323,17.634,29.135002,2.04,2.4299998,95,11,1.427,0.794,-1.1850001,-0.056,3.949305,0,nan,0.0,3,1,5
146497569,1562312291400074,488477019,23578244,32636,78817,2.0640001,0.6717076,17.692001,29.248001,2.04,2.4299998,95,11,1.22,0.83100003,-0.89300007,0.079,3.949305,0,nan,0.0,3,1,5
146697146,1562312291600074,488477008,23578258,32055,78236,2.3470001,0.67180336,17.689001,29.166002,2.04,2.4299998,95,11,0.35500002,0.187,-0.30200002,0.089,3.949305,0,nan,0.0,3,1,5
146898054,1562312291800074,488476993,23578231,31947,78129,2.5310001,0.67190653,17.703001,29.187002,2.04,2.4299998,95,11,0.68500006,-0.60700005,-0.31800002,0.257,3.949305,0,nan,0.0,3,1,5
147095167,1562312292000074,488476989,23578220,31554,77735,2.1680002,0.671995,17.741001,29.217001,2.04,2.4299998,95,11,0.61300004,-0.587,-0.17600001,0.49500003,3.949305,0,nan,0.0,3,1,5
147297076,1562312292200075,488476990,23578194,31132,77313,2.403,0.6720931,17.742,29.125002,2.04,2.4299998,95,12,0.67800003,0.063,-0.675,0.59900004,3.949305,0,nan,0.0,3,1,5
147498058,1562312292400075,488476977,23578177,31060,77241,2.6620002,0.67220163,17.827002,29.253002,2.04,2.4299998,95,12,0.95800006,0.011000001,-0.95800006,0.066,3.949305,0,nan,0.0,3,1,5
147697064,1562312292600075,488476959,23578166,30991,77173,2.7810001,0.6723151,17.93,29.462002,2.04,2.4299998,95,12,0.82600003,-0.287,-0.77500004,-0.074,3.949305,0,nan,0.0,3,1,5
147897074,1562312292800075,488476964,23578144,30894,77075,2.5100002,0.6724174,17.976002,29.529001,2.04,2.4299998,95,12,0.84800005,-0.82600003,-0.192,0.30400002,3.949305,0,nan,0.0,3,1,5
148096181,1562312293000075,488476998,23578145,31248,77429,1.491,0.67247826,17.879002,29.229002,2.04,2.4299998,95,12,0.089,0.079,0.040000003,0.314,3.949305,0,nan,0.0,3,1,5
148305061,1562312293200075,488477007,23578082,31926,78107,2.6290002,0.6725854,17.922,29.273,2.04,2.4299998,95,11,0.669,-0.023000002,-0.669,0.17300001,3.949305,0,nan,0.0,3,1,5
148497131,1562312293400075,488477025,23578092,31452,77633,1.5860001,0.67265004,17.882,29.118002,2.04,2.4299998,95,11,0.162,0.15200001,-0.055000003,0.282,3.949305,0,nan,0.0,3,1,5
148692294,1562312293600075,488477042,23578140,30982,77164,2.608,0.6727563,17.896,29.111002,2.04,2.4299998,95,11,0.8,0.16700001,0.78300005,0.089,3.949305,0,nan,0.0,3,1,5
148897868,1562312293800075,488477025,23578157,30868,77050,2.164,0.67284465,17.890001,29.087002,2.04,2.4299998,95,11,0.73,-0.29500002,0.66800004,-0.266,3.949305,0,nan,0.0,3,1,5
149093145,1562312294000075,488477019,23578196,30247,76428,2.082,0.67292947,17.937,29.213001,2.04,2.4299998,95,11,1.3560001,-0.652,1.189,-0.178,3.949305,0,nan,0.0,3,1,5
149293076,1562312294200075,488477021,23578195,30136,76317,2.8520002,0.6730455,18.025002,29.400002,2.04,2.4299998,95,15,0.55200005,0.157,0.52900004,-0.004,3.949305,0,nan,0.0,3,1,5
149497292,1562312294400076,488477031,23578207,29814,75995,2.9020002,0.67316383,18.066,29.457,2.04,2.4299998,95,15,0.57900006,0.289,0.50200003,-0.104,3.949305,0,nan,0.0,3,1,5
149697055,1562312294600076,488477060,23578200,29483,75664,2.7740002,0.6732768,18.223001,29.812002,2.04,2.4299998,95,15,0.707,0.462,0.535,0.21300001,3.949305,0,nan,0.0,3,1,5
149893132,1562312294800076,488477047,23578185,29517,75698,2.019,0.67335916,18.226002,29.751001,2.04,2.4299998,95,15,0.141,-0.068,0.124000005,-0.20400001,3.949305,0,nan,0.0,3,1,5
150092230,1562312295000076,488477051,23578187,29431,75613,1.802,0.67343247,18.257,29.810001,2.04,2.4299998,95,15,0.33600003,0.323,-0.091000006,-0.485,3.949305,0,nan,0.0,3,1,5
150306276,1562312295200076,488477050,23578159,29140,75322,1.6270001,0.6734988,18.185001,29.608002,2.04,2.4299998,95,15,0.37500003,0.185,-0.326,-0.333,3.949305,0,nan,0.0,3,1,5
150496932,1562312295400076,488477043,23578106,29228,75409,2.8860002,0.67361623,18.193,29.589,2.04,2.4299998,95,15,0.601,-0.27600002,-0.53400004,0.0050000004,3.949305,0,nan,0.0,3,1,5
150692223,1562312295600076,488477051,23578057,29231,75413,2.65,0.6737241,18.168001,29.454,2.04,2.4299998,95,15,0.632,-0.29200003,-0.56100005,0.43300003,3.949305,0,nan,0.0,3,1,5
150893072,1562312295800076,488477043,23578011,29076,75257,2.546,0.67382777,18.129002,29.299002,2.04,2.4299998,95,15,0.91700006,-0.22200002,-0.89000005,0.66700006,3.949305,0,nan,0.0,3,1,5
151097092,1562312296000076,488477037,23577999,28998,75180,2.6100001,0.67393386,18.196001,29.397001,2.04,2.4299998,95,15,0.90700006,-0.035,-0.906,0.4,3.949305,0,nan,0.0,3,1,5
151302861,1562312296200076,488477035,23577978,28521,74702,2.492,0.6740353,18.217001,29.408,2.04,2.4299998,95,13,0.85300004,0.096,-0.84800005,0.50100005,3.949305,0,nan,0.0,3,1,5
151497180,1562312296400076,488477022,23577931,27749,73931,2.5970001,0.6741409,18.256,29.477001,2.04,2.4299998,95,13,1.006,-0.587,-0.81600004,0.88600004,3.949305,0,nan,0.0,3,1,5
151698454,1562312296600077,488477000,23577886,27030,73212,2.5790002,0.6742458,18.302,29.593002,2.04,2.4299998,95,13,1.503,-1.19,-0.91800004,1.059,3.949305,0,nan,0.0,3,1,5
151897077,1562312296800077,488476991,23577875,26602,72784,2.437,0.6743449,18.326,29.660002,2.04,2.4299998,95,13,1.09,-0.90700006,-0.605,1.1520001,3.949305,0,nan,0.0,3,1,5
152097083,1562312297000077,488476976,23577874,26329,72510,2.364,0.6744411,18.33,29.603,2.04,2.4299998,95,13,0.9710001,-0.864,-0.44300002,0.91200006,3.949305,0,nan,0.0,3,1,5
152306348,1562312297200077,488476924,23577781,26422,72603,2.924,0.67455995,18.404001,29.736002,2.04,2.4299998,95,12,2.144,-1.243,-1.746,0.9710001,3.949305,0,nan,0.0,3,1,5
152494180,1562312297400077,488476879,23577736,26452,72634,2.6890001,0.6746692,18.355001,29.598001,2.04,2.4299998,95,12,2.157,-1.2820001,-1.7340001,1.1370001,3.949305,0,nan,0.0,3,1,5
152693891,1562312297600077,488476848,23577714,26665,72846,2.6220002,0.67477584,18.351002,29.568,2.04,2.4299998,95,12,1.9080001,-1.304,-1.3920001,0.9710001,3.949305,0,nan,0.0,3,1,5
152894096,1562312297800077,488476814,23577691,26844,73025,2.584,0.67488074,18.367,29.573002,2.04,2.4299998,95,12,2.2610002,-1.8620001,-1.2820001,0.328,3.949305,0,nan,0.0,3,1,5
153093125,1562312298000077,488476813,23577656,27130,73312,2.63,0.67498755,18.382,29.588001,2.04,2.4299998,95,12,1.6450001,-0.818,-1.427,0.279,3.949305,0,nan,0.0,3,1,5
153291222,1562312298200077,488476820,23577608,27281,73462,2.427,0.67508614,18.35,29.499,2.04,2.4299998,95,13,1.72,-0.141,-1.7140001,0.209,3.949305,0,nan,0.0,3,1,5
153492073,1562312298400077,488476800,23577563,27500,73682,2.4480002,0.67518544,18.316,29.348001,2.04,2.4299998,95,13,1.718,-0.25,-1.6990001,0.22200002,3.949305,0,nan,0.0,3,1,5
153694319,1562312298600077,488476791,23577536,28583,74765,2.68,0.6752944,18.094002,28.377,2.04,2.4299998,95,13,1.08,-0.55,-0.93000007,0.186,3.949305,0,nan,0.0,3,1,5
153895114,1562312298800077,488476780,23577534,28961,75142,2.306,0.6753881,18.029001,28.084002,2.04,2.4299998,95,13,1.085,-1.0680001,-0.18800001,0.07,3.949305,0,nan,0.0,3,1,5
154094798,1562312299000078,488476757,23577499,29443,75625,2.289,0.67548096,18.026001,28.021002,2.04,2.4299998,95,13,1.2820001,-1.233,-0.35300002,0.231,3.949305,0,nan,0.0,3,1,5
154303503,1562312299200078,488476745,23577408,30545,76726,2.446,0.67558026,17.724,26.796001,2.04,2.4299998,95,14,1.4670001,-0.763,-1.253,0.60800004,3.949305,0,nan,0.0,3,1,5
154492163,1562312299400078,488476740,23577401,31180,77361,2.3300002,0.6756747,17.678001,26.663002,2.04,2.4299998,95,14,1.0250001,-0.509,-0.89000005,0.11400001,3.949305,0,nan,0.0,3,1,5
154694933,1562312299600078,488476698,23577489,31019,77200,1.5640001,0.6757382,17.903002,27.736002,2.04,2.4299998,95,14,0.23700002,-0.147,0.187,-0.588,3.949305,0,nan,0.0,3,1,5
154892189,1562312299800078,488476707,23577495,31695,77876,1.9030001,0.67581534,17.931002,28.044,2.04,2.4299998,95,14,1.013,1.0020001,-0.14600001,-0.786,3.949305,0,nan,0.0,3,1,5
155091171,1562312300000078,488476731,23577511,31548,77729,1.9800001,0.6758958,17.868,28.035002,2.04,2.4299998,95,14,0.90000004,0.89100003,0.123,-0.929,3.949305,0,nan,0.0,3,1,5
155291310,1562312300200078,488476739,23577476,31236,77418,1.7190001,0.6759654,17.832,28.011002,2.04,2.4299998,95,17,0.54700005,0.49400002,-0.23400001,-0.446,3.949305,0,nan,0.0,3,1,5
155491211,1562312300400078,488476726,23577470,30115,76297,1.7450001,0.6760363,17.876001,28.221,2.04,2.4299998,95,17,0.45600003,0.22700001,-0.395,-0.116000004,3.949305,0,nan,0.0,3,1,5
155691294,1562312300600078,488476711,23577478,29844,76025,1.7190001,0.676106,18.202002,29.527002,2.04,2.4299998,95,17,0.91,0.64000005,-0.646,-0.33,3.949305,0,nan,0.0,3,1,5
155892095,1562312300800078,488476733,23577487,30184,76366,2.114,0.6761916,17.92,28.589,2.04,2.4299998,95,17,0.647,0.646,-0.035,-0.47700003,3.949305,0,nan,0.0,3,1,5
156096055,1562312301000078,488476734,23577469,30135,76316,1.8970001,0.67626864,17.85,28.400002,2.04,2.4299998,95,17,0.42100003,0.40100002,-0.12900001,-0.060000002,3.949305,0,nan,0.0,3,1,5
156307226,1562312301200079,488476747,23577449,30619,76800,1.5910001,0.6763332,17.815,28.284,2.04,2.4299998,95,14,0.56100005,0.39900002,-0.39400002,-0.126,3.949305,0,nan,0.0,3,1,5
156500127,1562312301400079,488476751,23577446,31068,77249,1.4610001,0.6763924,17.805,28.362001,2.04,2.4299998,95,14,0.40100002,0.29900002,-0.26700002,-0.342,3.949305,0,nan,0.0,3,1,5
156700064,1562312301600079,488476763,23577419,31697,77879,1.6380001,0.67645866,17.729,28.156002,2.04,2.4299998,95,14,0.80700004,0.656,-0.47000003,-0.15900001,3.949305,0,nan,0.0,3,1,5
156897079,1562312301800079,488476767,23577405,32091,78272,1.5970001,0.6765236,17.646,27.857002,2.04,2.4299998,95,14,0.9620001,0.77000004,-0.578,-0.24100001,3.949305,0,nan,0.0,3,1,5
157100056,1562312302000079,488476756,23577394,31995,78176,1.6610001,0.6765908,17.630001,27.866001,2.04,2.4299998,95,14,0.632,0.28,-0.56700003,-0.109000005,3.949305,0,nan,0.0,3,1,5
157295368,1562312302200079,488476753,23577378,32361,78542,1.7850001,0.6766632,17.594002,27.820002,2.04,2.4299998,95,15,0.642,-0.017,-0.642,-0.21700001,3.949305,0,nan,0.0,3,1,5
157496224,1562312302400079,488476746,23577360,32467,78648,1.8470001,0.6767381,17.558,27.78,2.04,2.4299998,95,15,0.74700004,0.049000002,-0.74500006,-0.132,3.949305,0,nan,0.0,3,1,5
157696176,1562312302600079,488476770,23577284,33807,79988,2.091,0.6768228,17.262001,26.578001,2.04,2.4299998,95,15,0.901,-0.193,-0.88000005,0.086,3.949305,0,nan,0.0,3,1,5
157900062,1562312302800079,488476804,23577211,35408,81589,2.094,0.6769076,17.217001,26.480001,2.04,2.4299998,95,15,0.77300006,-0.12900001,-0.762,0.083000004,3.949305,0,nan,0.0,3,1,5
158100380,1562312303000079,488476778,23577221,34672,80853,2.0770001,0.6769917,16.948,25.509,2.04,2.4299998,95,15,0.46300003,-0.17,-0.43,-0.003,3.949305,0,nan,0.0,3,1,5
158311448,1562312303200079,488476747,23577184,35193,81374,1.8970001,0.6770685,17.12,26.361002,2.04,2.4299998,94,14,1.241,-0.075,-1.2390001,-0.319,3.949305,0,nan,0.0,3,1,5
158501055,1562312303400079,488476738,23577152,35748,81930,1.595,0.6771331,16.890001,26.11,2.04,2.4299998,94,14,0.671,-0.068,-0.66700006,-0.40300003,3.949305,0,nan,0.0,3,1,5
158697056,1562312303600080,488476733,23577107,36263,82444,1.794,0.67720586,16.761002,26.019001,2.04,2.4299998,94,14,0.455,-0.16100001,-0.42600003,-0.16100001,3.949305,0,nan,0.0,3,1,5
158896121,1562312303800080,488476706,23577104,35690,81872,1.7620001,0.6772771,16.757,26.482,2.04,2.4299998,94,14,0.33400002,-0.009000001,-0.33400002,-0.134,3.949305,0,nan,0.0,3,1,5
159096171,1562312304000080,488476679,23577107,35173,81355,2.171,0.677365,16.794,26.946001,2.04,2.4299998,94,14,0.499,-0.29500002,-0.402,-0.13100001,3.949305,0,nan,0.0,3,1,5
159301092,1562312304200080,488476674,23577071,35510,81692,2.051,0.6774479,17.109001,27.769001,2.04,2.4299998,94,15,0.89500004,0.179,-0.87700003,0.163,3.949305,0,nan,0.0,3,1,5
159496259,1562312304400080,488476675,23577071,35298,81479,1.7300001,0.67751807,16.725,26.830002,2.04,2.4299998,94,15,0.24800001,-0.18,-0.171,0.223,3.949305,0,nan,0.0,3,1,5
159697114,1562312304600080,488476686,23577115,35433,81614,1.7870001,0.67759037,17.127,27.908,2.04,2.4299998,94,15,0.56,0.43100002,0.35700002,-0.625,3.949305,0,nan,0.0,3,1,5
159896050,1562312304800080,488476700,23577117,35781,81963,1.5560001,0.6776534,16.775002,27.045002,2.04,2.4299998,94,15,0.565,0.549,-0.136,-0.363,3.949305,0,nan,0.0,3,1,5
160096135,1562312305000080,488476743,23577079,36770,82951,1.7490001,0.67772406,16.721,26.94,2.04,2.4299998,94,15,0.541,0.256,-0.476,0.002,3.949305,0,nan,0.0,3,1,5
160308129,1562312305200080,488476792,23577039,38130,84312,2.227,0.6778143,16.331001,25.946001,2.04,2.4299998,94,14,0.64900005,-0.38300002,-0.52400005,0.087000005,3.949305,0,nan,0.0,3,1,5
160497054,1562312305400080,488476814,23577020,38849,85030,2.0040002,0.67789525,16.671001,26.878002,2.04,2.4299998,94,14,0.84000003,-0.66800004,-0.509,0.231,3.949305,0,nan,0.0,3,1,5
160697052,1562312305600080,488476896,23576974,41346,87527,1.8570001,0.6779703,16.298,25.963001,2.04,2.4299998,94,14,0.864,-0.73700005,-0.45100003,-0.037,3.949305,0,nan,0.0,3,1,5
160898063,1562312305800081,488476892,23577014,41014,87195,1.863,0.6780457,16.097,25.467001,2.04,2.4299998,94,14,0.57900006,-0.165,-0.555,0.033,3.949305,0,nan,0.0,3,1,5
161098283,1562312306000081,488476931,23577062,40819,87001,1.8280001,0.6781197,16.091002,25.593,2.04,2.4299998,94,14,0.21400002,0.017,-0.21400002,-0.022000002,3.949305,0,nan,0.0,3,1,5
161296779,1562312306200081,488476966,23577109,40465,86647,1.5280001,0.67818135,15.922001,25.386002,2.04,2.4299998,94,15,0.156,0.108,-0.112,0.063,3.949305,0,nan,0.0,3,1,5
161504300,1562312306400081,488477012,23577147,40143,86325,1.3980001,0.67823803,15.919001,25.535002,2.04,2.4299998,94,15,0.257,0.192,-0.171,0.24800001,3.949305,0,nan,0.0,3,1,5
161701091,1562312306600081,488477070,23577184,40577,86759,1.291,0.67829025,15.861001,25.580002,2.04,2.4299998,94,15,0.215,0.18300001,0.113000005,0.18200001,3.949305,0,nan,0.0,3,1,5
161902067,1562312306800081,488477090,23577192,41060,87241,1.5530001,0.6783529,15.558001,25.025002,2.04,2.4299998,94,15,0.841,0.64400005,-0.541,0.16700001,3.949305,0,nan,0.0,3,1,5
162101242,1562312307000081,488477079,23577235,39976,86157,1.442,0.6784112,15.610001,25.232,2.04,2.4299998,94,15,1.0040001,0.813,-0.588,0.531,3.949305,0,nan,0.0,3,1,5
162313054,1562312307200081,488477102,23577261,39849,86030,1.4230001,0.6784702,15.769001,25.706001,2.04,2.4299998,94,13,1.32,1.2470001,-0.43300003,0.615,3.949305,0,nan,0.0,3,1,5
162501141,1562312307400081,488477066,23577264,39213,85394,1.6890001,0.67853844,16.19,26.832,2.04,2.4299998,94,13,1.195,-0.63100004,-1.014,1.1340001,3.949305,0,nan,0.0,3,1,5
162703187,1562312307600081,488477039,23577208,38024,84205,1.6790001,0.4703257,16.192001,26.855001,2.04,2.4299998,94,13,2.834,-1.6170001,-2.3270001,2.7910001,4.054554,0,nan,0.0,3,1,5
162898377,1562312307800081,488477022,23577176,37841,84022,1.9470001,0.46626973,16.227001,26.934002,2.04,2.4299998,94,13,2.8240001,-1.6570001,-2.2870002,2.3270001,4.070213,0,nan,0.0,3,1,5
163098170,1562312308000082,488477009,23577172,37040,83222,2.0240002,0.56358755,16.026001,26.108002,2.04,2.4299998,94,13,2.582,-0.81000006,-2.4510002,1.7830001,4.2015567,0,nan,0.0,3,1,5
163298186,1562312308200082,488476984,23577180,35370,81551,2.226,0.73553336,16.124,26.105001,2.04,2.4299998,94,15,2.1160002,-0.293,-2.0960002,1.2900001,4.3391056,0,nan,0.0,3,1,5
163499174,1562312308400082,488477022,23577171,35206,81388,2.102,0.73561174,16.214,26.393002,2.04,2.4299998,94,15,1.315,0.14500001,-1.307,0.8880001,4.3391056,0,nan,0.0,3,1,5
163698487,1562312308600082,488477075,23577153,35648,81829,2.025,0.73568714,15.978001,25.985,2.04,2.4299998,94,15,1.485,0.42700002,-1.4230001,0.559,4.3391056,0,nan,0.0,3,1,5
163894401,1562312308800082,488477129,23577146,35647,81829,1.549,0.7357449,16.052,26.545002,2.04,2.4299998,94,15,1.338,1.006,-0.88100004,0.726,4.3391056,0,nan,0.0,3,1,5
164102393,1562312309000082,488477139,23577198,34487,80668,1.5790001,0.7358037,15.867001,26.008001,2.04,2.4299998,94,15,0.51100004,0.34600002,-0.37600002,0.356,4.3391056,0,nan,0.0,3,1,5
164310619,1562312309200082,488477190,23577197,34470,80651,1.1980001,0.73584837,15.817,25.955002,2.04,2.4299998,94,15,0.46300003,0.446,-0.125,0.508,4.3391056,0,nan,0.0,3,1,5
164499145,1562312309400082,488477224,23577201,34220,80402,1.0250001,0.73588645,15.830001,26.02,2.04,2.4299998,94,15,0.172,0.172,0.003,0.85400003,4.3391056,0,nan,0.0,3,1,5
164697096,1562312309600082,488477282,23577181,35196,81377,1.281,0.73593426,15.802001,26.011002,2.04,2.4299998,94,15,0.56,0.508,-0.23700002,0.54800004,4.3391056,0,nan,0.0,3,1,5
164904773,1562312309800082,488477275,23577200,34510,80692,1.4590001,0.73598856,16.393002,27.728,2.04,2.4299998,94,15,0.71900004,0.634,-0.33800003,0.574,4.3391056,0,nan,0.0,3,1,5
165102140,1562312310000082,488477282,23577218,34239,80421,1.343,0.7360386,16.373001,27.761002,2.04,2.4299998,94,15,0.35300002,0.32900003,-0.12900001,0.48200002,4.3391056,0,nan,0.0,3,1,5
165299413,1562312310200083,488477279,23577250,33589,79771,1.202,0.7360835,16.361,27.696001,2.04,2.4299998,94,16,0.27100003,0.22100002,0.156,0.637,4.3391056,0,nan,0.0,3,1,5
165498380,1562312310400083,488477288,23577265,33156,79337,1.2370001,0.7361296,16.404001,27.802002,2.04,2.4299998,94,16,0.104,0.07700001,0.069000006,0.67,4.3391056,0,nan,0.0,3,1,5
165695176,1562312310600083,488477288,23577290,32373,78554,1.25,0.736176,16.371,27.664001,2.04,2.4299998,94,16,0.18300001,0.18300001,0.003,0.767,4.3391056,0,nan,0.0,3,1,5
165900188,1562312310800083,488477289,23577322,31386,77567,1.2360001,0.7362221,16.356,27.623001,2.04,2.4299998,94,16,0.38000003,0.38000003,0.017,0.85400003,4.3391056,0,nan,0.0,3,1,5
166099130,1562312311000083,488477285,23577381,29969,76150,1.2060001,0.7362671,16.076,26.584002,2.04,2.4299998,94,16,0.712,0.671,0.238,0.74600005,4.3391056,0,nan,0.0,3,1,5
166310364,1562312311200083,488477270,23577400,29078,75259,1.4150001,0.7363198,16.081001,26.517002,2.04,2.4299998,94,15,0.82900006,0.753,-0.347,0.87700003,4.3391056,0,nan,0.0,3,1,5
166499126,1562312311400083,488477309,23577376,29384,75566,1.7490001,0.7363849,16.41,27.640001,2.04,2.4299998,94,15,1.45,1.24,-0.75200003,0.93100005,4.3391056,0,nan,0.0,3,1,5
166698169,1562312311600083,488477312,23577396,28946,75127,1.524,0.7364416,16.427,27.767002,2.04,2.4299998,94,15,0.81000006,0.735,-0.342,0.98100007,4.3391056,0,nan,0.0,3,1,5
166899167,1562312311800083,488477314,23577436,27961,74142,1.2370001,0.7364877,16.396,27.709002,2.04,2.4299998,94,15,0.17300001,0.149,0.089,0.95400006,4.3391056,0,nan,0.0,3,1,5
167100063,1562312312000083,488477313,23577493,27207,73388,1.4560001,0.736542,16.509,27.985,2.04,2.4299998,94,15,0.77000004,-0.054,0.768,1.0860001,4.3391056,0,nan,0.0,3,1,5
167299230,1562312312200083,488477353,23577553,26889,73071,1.8900001,0.7366123,16.525002,27.965002,2.04,2.4299998,94,14,1.1850001,0.51000005,1.07,0.71800005,4.3391056,0,nan,0.0,3,1,5
167499230,1562312312400083,488477346,23577589,26392,72573,1.577,0.73667115,16.592001,28.108002,2.04,2.4299998,94,14,1.041,0.628,0.83000004,1.039,4.3391056,0,nan,0.0,3,1,5
167695158,1562312312600084,488477363,23577621,26790,72972,1.6400001,0.73673797,16.637001,28.168001,2.04,2.4299998,94,14,1.307,0.74300003,1.075,1.235,4.3391056,0,nan,0.0,3,1,5
167896078,1562312312800084,488477352,23577657,26810,72991,1.3800001,0.7368013,16.28,26.805002,2.04,2.4299998,94,14,1.079,0.30600002,1.0350001,1.3180001,4.3391056,0,nan,0.0,3,1,5
168100199,1562312313000084,488477346,23577695,27179,73361,1.3340001,0.73685247,15.964001,25.658,2.04,2.4299998,94,14,0.81000006,0.15400001,0.79600006,1.105,4.3391056,0,nan,0.0,3,1,5
168313109,1562312313200084,488477412,23577744,28729,74910,2.0800002,0.7369298,15.983001,25.605001,2.04,2.4299998,94,12,1.32,0.93200004,0.93500006,0.29200003,4.3391056,0,nan,0.0,3,1,5
168503214,1562312313400084,488477406,23577795,28846,75028,2.0640001,0.7370066,15.997001,25.614,2.04,2.4299998,94,12,1.373,1.003,0.938,0.284,4.3391056,0,nan,0.0,3,1,5
168697158,1562312313600084,488477356,23577864,27918,74100,2.0900002,0.73708445,15.996,25.609001,2.04,2.4299998,94,12,0.98300004,0.40800002,0.89400005,0.492,4.3391056,0,nan,0.0,3,1,5
168900062,1562312313800084,488477352,23577979,27537,73718,2.581,0.7371804,16.032001,25.657001,2.04,2.4299998,94,12,1.7010001,0.45700002,1.639,0.192,4.3391056,0,nan,0.0,3,1,5
169100109,1562312314000084,488477383,23578034,28222,74403,2.607,0.73727745,16.055,25.677002,2.04,2.4299998,94,12,1.6800001,0.85400003,1.4460001,-0.164,4.3391056,0,nan,0.0,3,1,5
169300136,1562312314200084,488477431,23578075,29849,76030,2.6450002,0.73737574,16.071001,25.69,2.04,2.4299998,94,13,1.94,0.647,1.8290001,-0.105000004,4.3391056,0,nan,0.0,3,1,5
169500098,1562312314400084,488477419,23578124,29996,76177,2.6160002,0.73747295,16.11,25.736002,2.04,2.4299998,94,13,1.5560001,0.611,1.4310001,-0.023000002,4.3391056,0,nan,0.0,3,1,5
169697190,1562312314600084,488477371,23578177,29034,75215,2.4060001,0.7375625,16.131,25.762001,2.04,2.4199998,94,13,0.919,0.508,0.76600003,0.089,4.3391056,0,nan,0.0,3,1,5
169899368,1562312314800085,488477439,23578137,30131,76313,1.58,0.7376211,16.122002,25.761002,2.04,2.4199998,94,13,1.1,1.0960001,-0.094000004,-0.109000005,4.3391056,0,nan,0.0,3,1,5
170101057,1562312315000085,488477531,23578038,32177,78358,1.725,0.7376852,16.116001,25.759,2.04,2.4199998,94,13,1.292,1.0660001,-0.73,0.079,4.3391056,0,nan,0.0,3,1,5
170312053,1562312315200085,488477570,23577948,33238,79419,2.272,0.73776966,16.117,25.77,2.04,2.4199998,94,14,1.5320001,0.58100003,-1.4180001,0.22100002,4.3391056,0,nan,0.0,3,1,5
170500079,1562312315400085,488477599,23577912,34889,81070,2.4750001,0.73786163,16.128,25.794,2.04,2.4199998,94,14,0.88400006,-0.053000003,-0.882,0.132,4.3391056,0,nan,0.0,3,1,5
170703340,1562312315600085,488477509,23578013,33546,79727,1.8370001,0.7379299,16.142,25.819002,2.04,2.4199998,94,14,0.14,-0.066,-0.123,-0.071,4.3391056,0,nan,0.0,3,1,5
170897287,1562312315800085,488477486,23578061,34146,80328,1.5410001,0.7379871,16.140001,25.818,2.04,2.4199998,94,14,0.544,-0.47200003,0.27100003,-0.432,4.3391056,0,nan,0.0,3,1,5
171101160,1562312316000085,488477438,23578077,34007,80188,1.521,0.73804367,16.508001,27.016,2.04,2.4199998,94,14,0.897,-0.89400005,-0.080000006,-0.3,4.3391056,0,nan,0.0,3,1,5
171301063,1562312316200085,488477390,23578116,34321,80502,1.5660001,0.7381018,16.603,27.365002,2.04,2.4199998,94,14,1.1630001,-1.1520001,0.16000001,-0.29500002,4.3391056,0,nan,0.0,3,1,5
