timestamp,noutputs,output[0],output[1],output[2],output[3],output[4],output[5],output[6],output[7],output[8],output[9],output[10],output[11],output[12],output[13],output[14],output[15]
100771517,8,1075.0,1075.0,1075.0,1075.0,1075.0,1075.0,0.0,0.0,0.0,0.0,0.0,0.0,0.0,0.0,0.0,0.0
100859365,8,1075.0,1075.0,1075.0,1075.0,1075.0,1075.0,0.0,0.0,0.0,0.0,0.0,0.0,0.0,0.0,0.0,0.0
100963544,8,1075.0,1075.0,1075.0,1075.0,1075.0,1075.0,0.0,0.0,0.0,0.0,0.0,0.0,0.0,0.0,0.0,0.0
101071610,8,1075.0,1075.0,1075.0,1075.0,1075.0,1075.0,0.0,0.0,0.0,0.0,0.0,0.0,0.0,0.0,0.0,0.0
101159741,8,1075.0,1075.0,1075.0,1075.0,1075.0,1075.0,0.0,0.0,0.0,0.0,0.0,0.0,0.0,0.0,0.0,0.0
101275486,8,1075.0,1075.0,1075.0,1075.0,1075.0,1075.0,0.0,0.0,0.0,0.0,0.0,0.0,0.0,0.0,0.0,0.0
101363397,8,1075.0,1075.0,1075.0,1075.0,1075.0,1075.0,0.0,0.0,0.0,0.0,0.0,0.0,0.0,0.0,0.0,0.0
101475561,8,1075.0,1075.0,1075.0,1075.0,1075.0,1075.0,0.0,0.0,0.0,0.0,0.0,0.0,0.0,0.0,0.0,0.0
101583679,8,1075.0,1075.0,1075.0,1075.0,1075.0,1075.0,0.0,0.0,0.0,0.0,0.0,0.0,0.0,0.0,0.0,0.0
101667485,8,1075.0,1075.0,1075.0,1075.0,1075.0,1075.0,0.0,0.0,0.0,0.0,0.0,0.0,0.0,0.0,0.0,0.0
101771821,8,1075.0,1075.0,1075.0,1075.0,1075.0,1075.0,0.0,0.0,0.0,0.0,0.0,0.0,0.0,0.0,0.0,0.0
101879707,8,1075.0,1075.0,1075.0,1075.0,1075.0,1075.0,0.0,0.0,0.0,0.0,0.0,0.0,0.0,0.0,0.0,0.0
101991352,8,1075.0,1075.0,1075.0,1075.0,1075.0,1075.0,0.0,0.0,0.0,0.0,0.0,0.0,0.0,0.0,0.0,0.0
102080353,8,1075.0,1075.0,1075.0,1075.0,1075.0,1075.0,0.0,0.0,0.0,0.0,0.0,0.0,0.0,0.0,0.0,0.0
102192179,8,1075.0,1075.0,1075.0,1075.0,1075.0,1075.0,0.0,0.0,0.0,0.0,0.0,0.0,0.0,0.0,0.0,0.0
102296328,8,1075.0,1075.0,1075.0,1075.0,1075.0,1075.0,0.0,0.0,0.0,0.0,0.0,0.0,0.0,0.0,0.0,0.0
102384580,8,1075.0,1075.0,1075.0,1075.0,1075.0,1075.0,0.0,0.0,0.0,0.0,0.0,0.0,0.0,0.0,0.0,0.0
102496164,8,1075.0,1075.0,1075.0,1075.0,1075.0,1075.0,0.0,0.0,0.0,0.0,0.0,0.0,0.0,0.0,0.0,0.0
102588346,8,1075.0,1075.0,1075.0,1075.0,1075.0,1075.0,0.0,0.0,0.0,0.0,0.0,0.0,0.0,0.0,0.0,0.0
102680283,8,1075.0,1075.0,1075.0,1075.0,1075.0,1075.0,0.0,0.0,0.0,0.0,0.0,0.0,0.0,0.0,0.0,0.0
102788264,8,1075.0,1075.0,1075.0,1075.0,1075.0,1075.0,0.0,0.0,0.0,0.0,0.0,0.0,0.0,0.0,0.0,0.0
102900371,8,1075.0,1075.0,1075.0,1075.0,1075.0,1075.0,0.0,0.0,0.0,0.0,0.0,0.0,0.0,0.0,0.0,0.0
102996568,8,1075.0,1075.0,1075.0,1075.0,1075.0,1075.0,0.0,0.0,0.0,0.0,0.0,0.0,0.0,0.0,0.0,0.0
103104575,8,1075.0,1075.0,1075.0,1075.0,1075.0,1075.0,0.0,0.0,0.0,0.0,0.0,0.0,0.0,0.0,0.0,0.0
103192388,8,1075.0,1075.0,1075.0,1075.0,1075.0,1075.0,0.0,0.0,0.0,0.0,0.0,0.0,0.0,0.0,0.0,0.0
103304350,8,1075.0,1075.0,1075.0,1075.0,1075.0,1075.0,0.0,0.0,0.0,0.0,0.0,0.0,0.0,0.0,0.0,0.0
103392551,8,1075.0,1075.0,1075.0,1075.0,1075.0,1075.0,0.0,0.0,0.0,0.0,0.0,0.0,0.0,0.0,0.0,0.0
103499767,8,1075.0,1075.0,1075.0,1075.0,1075.0,1075.0,0.0,0.0,0.0,0.0,0.0,0.0,0.0,0.0,0.0,0.0
103605258,8,1075.0,1075.0,1075.0,1075.0,1075.0,1075.0,0.0,0.0,0.0,0.0,0.0,0.0,0.0,0.0,0.0,0.0
103713380,8,1075.0,1075.0,1075.0,1075.0,1075.0,1075.0,0.0,0.0,0.0,0.0,0.0,0.0,0.0,0.0,0.0,0.0
103801117,8,1075.0,1075.0,1075.0,1075.0,1075.0,1075.0,0.0,0.0,0.0,0.0,0.0,0.0,0.0,0.0,0.0,0.0
103913117,8,1075.0,1075.0,1075.0,1075.0,1075.0,1075.0,0.0,0.0,0.0,0.0,0.0,0.0,0.0,0.0,0.0,0.0
104016982,8,1075.0,1075.0,1075.0,1075.0,1075.0,1075.0,0.0,0.0,0.0,0.0,0.0,0.0,0.0,0.0,0.0,0.0
104104931,8,1075.0,1075.0,1075.0,1075.0,1075.0,1075.0,0.0,0.0,0.0,0.0,0.0,0.0,0.0,0.0,0.0,0.0
104212952,8,1075.0,1075.0,1075.0,1075.0,1075.0,1075.0,0.0,0.0,0.0,0.0,0.0,0.0,0.0,0.0,0.0,0.0
104325341,8,1075.0,1075.0,1075.0,1075.0,1075.0,1075.0,0.0,0.0,0.0,0.0,0.0,0.0,0.0,0.0,0.0,0.0
104420959,8,1075.0,1075.0,1075.0,1075.0,1075.0,1075.0,0.0,0.0,0.0,0.0,0.0,0.0,0.0,0.0,0.0,0.0
104512982,8,1075.0,1075.0,1075.0,1075.0,1075.0,1075.0,0.0,0.0,0.0,0.0,0.0,0.0,0.0,0.0,0.0,0.0
104621121,8,1075.0,1075.0,1075.0,1075.0,1075.0,1075.0,0.0,0.0,0.0,0.0,0.0,0.0,0.0,0.0,0.0,0.0
104709069,8,1075.0,1075.0,1075.0,1075.0,1075.0,1075.0,0.0,0.0,0.0,0.0,0.0,0.0,0.0,0.0,0.0,0.0
104816978,8,1075.0,1075.0,1075.0,1075.0,1075.0,1075.0,0.0,0.0,0.0,0.0,0.0,0.0,0.0,0.0,0.0,0.0
104924937,8,1075.0,1075.0,1075.0,1075.0,1075.0,1075.0,0.0,0.0,0.0,0.0,0.0,0.0,0.0,0.0,0.0,0.0
105032933,8,1075.0,1075.0,1075.0,1075.0,1075.0,1075.0,0.0,0.0,0.0,0.0,0.0,0.0,0.0,0.0,0.0,0.0
105125771,8,1075.0,1075.0,1075.0,1075.0,1075.0,1075.0,0.0,0.0,0.0,0.0,0.0,0.0,0.0,0.0,0.0,0.0
105237917,8,1075.0,1075.0,1075.0,1075.0,1075.0,1075.0,0.0,0.0,0.0,0.0,0.0,0.0,0.0,0.0,0.0,0.0
105330157,8,1075.0,1075.0,1075.0,1075.0,1075.0,1075.0,0.0,0.0,0.0,0.0,0.0,0.0,0.0,0.0,0.0,0.0
105438232,8,1075.0,1075.0,1075.0,1075.0,1075.0,1075.0,0.0,0.0,0.0,0.0,0.0,0.0,0.0,0.0,0.0,0.0
105541904,8,1075.0,1075.0,1075.0,1075.0,1075.0,1075.0,0.0,0.0,0.0,0.0,0.0,0.0,0.0,0.0,0.0,0.0
105645940,8,1075.0,1075.0,1075.0,1075.0,1075.0,1075.0,0.0,0.0,0.0,0.0,0.0,0.0,0.0,0.0,0.0,0.0
105733756,8,1075.0,1075.0,1075.0,1075.0,1075.0,1075.0,0.0,0.0,0.0,0.0,0.0,0.0,0.0,0.0,0.0,0.0
105845761,8,1075.0,1075.0,1075.0,1075.0,1075.0,1075.0,0.0,0.0,0.0,0.0,0.0,0.0,0.0,0.0,0.0,0.0
105949906,8,1075.0,1075.0,1075.0,1075.0,1075.0,1075.0,0.0,0.0,0.0,0.0,0.0,0.0,0.0,0.0,0.0,0.0
106045965,8,1075.0,1075.0,1075.0,1075.0,1075.0,1075.0,0.0,0.0,0.0,0.0,0.0,0.0,0.0,0.0,0.0,0.0
106149776,8,1075.0,1075.0,1075.0,1075.0,1075.0,1075.0,0.0,0.0,0.0,0.0,0.0,0.0,0.0,0.0,0.0,0.0
106254048,8,1075.0,1075.0,1075.0,1075.0,1075.0,1075.0,0.0,0.0,0.0,0.0,0.0,0.0,0.0,0.0,0.0,0.0
106345984,8,1075.0,1075.0,1075.0,1075.0,1075.0,1075.0,0.0,0.0,0.0,0.0,0.0,0.0,0.0,0.0,0.0,0.0
106454586,8,1075.0,1075.0,1075.0,1075.0,1075.0,1075.0,0.0,0.0,0.0,0.0,0.0,0.0,0.0,0.0,0.0,0.0
106541892,8,1075.0,1075.0,1075.0,1075.0,1075.0,1075.0,0.0,0.0,0.0,0.0,0.0,0.0,0.0,0.0,0.0,0.0
106654577,8,1075.0,1075.0,1075.0,1075.0,1075.0,1075.0,0.0,0.0,0.0,0.0,0.0,0.0,0.0,0.0,0.0,0.0
106742762,8,1075.0,1075.0,1075.0,1075.0,1075.0,1075.0,0.0,0.0,0.0,0.0,0.0,0.0,0.0,0.0,0.0,0.0
106854543,8,1075.0,1075.0,1075.0,1075.0,1075.0,1075.0,0.0,0.0,0.0,0.0,0.0,0.0,0.0,0.0,0.0,0.0
106966783,8,1075.0,1075.0,1075.0,1075.0,1075.0,1075.0,0.0,0.0,0.0,0.0,0.0,0.0,0.0,0.0,0.0,0.0
107054977,8,1075.0,1075.0,1075.0,1075.0,1075.0,1075.0,0.0,0.0,0.0,0.0,0.0,0.0,0.0,0.0,0.0,0.0
107166535,8,1075.0,1075.0,1075.0,1075.0,1075.0,1075.0,0.0,0.0,0.0,0.0,0.0,0.0,0.0,0.0,0.0,0.0
107258671,8,1075.0,1075.0,1075.0,1075.0,1075.0,1075.0,0.0,0.0,0.0,0.0,0.0,0.0,0.0,0.0,0.0,0.0
107366564,8,1075.0,1075.0,1075.0,1075.0,1075.0,1075.0,0.0,0.0,0.0,0.0,0.0,0.0,0.0,0.0,0.0,0.0
107474784,8,1075.0,1075.0,1075.0,1075.0,1075.0,1075.0,0.0,0.0,0.0,0.0,0.0,0.0,0.0,0.0,0.0,0.0
107558946,8,1075.0,1075.0,1075.0,1075.0,1075.0,1075.0,0.0,0.0,0.0,0.0,0.0,0.0,0.0,0.0,0.0,0.0
107666995,8,1075.0,1075.0,1075.0,1075.0,1075.0,1075.0,0.0,0.0,0.0,0.0,0.0,0.0,0.0,0.0,0.0,0.0
107775023,8,1075.0,1075.0,1075.0,1075.0,1075.0,1075.0,0.0,0.0,0.0,0.0,0.0,0.0,0.0,0.0,0.0,0.0
107862765,8,1075.0,1075.0,1075.0,1075.0,1075.0,1075.0,0.0,0.0,0.0,0.0,0.0,0.0,0.0,0.0,0.0,0.0
107974756,8,1075.0,1075.0,1075.0,1075.0,1075.0,1075.0,0.0,0.0,0.0,0.0,0.0,0.0,0.0,0.0,0.0,0.0
108086762,8,1075.0,1075.0,1075.0,1075.0,1075.0,1075.0,0.0,0.0,0.0,0.0,0.0,0.0,0.0,0.0,0.0,0.0
108178571,8,1170.0,1188.0,1183.0,1175.0,1174.0,1184.0,0.0,0.0,0.0,0.0,0.0,0.0,0.0,0.0,0.0,0.0
108287353,8,1170.0,1188.0,1180.0,1178.0,1174.0,1184.0,0.0,0.0,0.0,0.0,0.0,0.0,0.0,0.0,0.0,0.0
108375338,8,1172.0,1186.0,1183.0,1175.0,1174.0,1184.0,0.0,0.0,0.0,0.0,0.0,0.0,0.0,0.0,0.0,0.0
108491502,8,1188.0,1208.0,1202.0,1194.0,1193.0,1203.0,0.0,0.0,0.0,0.0,0.0,0.0,0.0,0.0,0.0,0.0
108583496,8,1212.0,1230.0,1226.0,1216.0,1216.0,1226.0,0.0,0.0,0.0,0.0,0.0,0.0,0.0,0.0,0.0,0.0
108687360,8,1238.0,1263.0,1254.0,1247.0,1246.0,1255.0,0.0,0.0,0.0,0.0,0.0,0.0,0.0,0.0,0.0,0.0
108799409,8,1250.0,1322.0,1303.0,1269.0,1265.0,1307.0,0.0,0.0,0.0,0.0,0.0,0.0,0.0,0.0,0.0,0.0
108887362,8,1318.0,1304.0,1300.0,1322.0,1308.0,1314.0,0.0,0.0,0.0,0.0,0.0,0.0,0.0,0.0,0.0,0.0
108999800,8,1346.0,1336.0,1347.0,1335.0,1347.0,1335.0,0.0,0.0,0.0,0.0,0.0,0.0,0.0,0.0,0.0,0.0
109087573,8,1307.0,1424.0,1389.0,1342.0,1328.0,1403.0,0.0,0.0,0.0,0.0,0.0,0.0,0.0,0.0,0.0,0.0
109195528,8,1453.0,1358.0,1404.0,1407.0,1449.0,1362.0,0.0,0.0,0.0,0.0,0.0,0.0,0.0,0.0,0.0,0.0
109307350,8,1455.0,1414.0,1411.0,1459.0,1432.0,1437.0,0.0,0.0,0.0,0.0,0.0,0.0,0.0,0.0,0.0,0.0
109407372,8,1440.0,1495.0,1523.0,1412.0,1491.0,1444.0,0.0,0.0,0.0,0.0,0.0,0.0,0.0,0.0,0.0,0.0
109495373,8,1449.0,1450.0,1451.0,1447.0,1446.0,1452.0,0.0,0.0,0.0,0.0,0.0,0.0,0.0,0.0,0.0,0.0
109591763,8,1429.0,1454.0,1408.0,1475.0,1387.0,1496.0,0.0,0.0,0.0,0.0,0.0,0.0,0.0,0.0,0.0,0.0
109703331,8,1452.0,1404.0,1363.0,1494.0,1384.0,1472.0,0.0,0.0,0.0,0.0,0.0,0.0,0.0,0.0,0.0,0.0
109796159,8,1463.0,1402.0,1418.0,1447.0,1443.0,1422.0,0.0,0.0,0.0,0.0,0.0,0.0,0.0,0.0,0.0,0.0
109904941,8,1457.0,1452.0,1488.0,1420.0,1479.0,1430.0,0.0,0.0,0.0,0.0,0.0,0.0,0.0,0.0,0.0,0.0
110020388,8,1465.0,1492.0,1509.0,1448.0,1481.0,1477.0,0.0,0.0,0.0,0.0,0.0,0.0,0.0,0.0,0.0,0.0
110112563,8,1447.0,1487.0,1455.0,1479.0,1417.0,1517.0,0.0,0.0,0.0,0.0,0.0,0.0,0.0,0.0,0.0,0.0
110220577,8,1428.0,1490.0,1445.0,1472.0,1381.0,1537.0,0.0,0.0,0.0,0.0,0.0,0.0,0.0,0.0,0.0,0.0
110308134,8,1480.0,1437.0,1472.0,1445.0,1459.0,1458.0,0.0,0.0,0.0,0.0,0.0,0.0,0.0,0.0,0.0,0.0
110420362,8,1449.0,1472.0,1496.0,1425.0,1447.0,1474.0,0.0,0.0,0.0,0.0,0.0,0.0,0.0,0.0,0.0,0.0
110508566,8,1462.0,1463.0,1477.0,1447.0,1433.0,1491.0,0.0,0.0,0.0,0.0,0.0,0.0,0.0,0.0,0.0,0.0
110624186,8,1389.0,1542.0,1522.0,1410.0,1402.0,1530.0,0.0,0.0,0.0,0.0,0.0,0.0,0.0,0.0,0.0,0.0
110712335,8,1443.0,1492.0,1471.0,1464.0,1412.0,1523.0,0.0,0.0,0.0,0.0,0.0,0.0,0.0,0.0,0.0,0.0
110820382,8,1524.0,1401.0,1453.0,1473.0,1475.0,1450.0,0.0,0.0,0.0,0.0,0.0,0.0,0.0,0.0,0.0,0.0
110928155,8,1417.0,1502.0,1528.0,1390.0,1447.0,1472.0,0.0,0.0,0.0,0.0,0.0,0.0,0.0,0.0,0.0,0.0
111032372,8,1451.0,1473.0,1466.0,1457.0,1416.0,1507.0,0.0,0.0,0.0,0.0,0.0,0.0,0.0,0.0,0.0,0.0
111124164,8,1540.0,1387.0,1398.0,1529.0,1448.0,1479.0,0.0,0.0,0.0,0.0,0.0,0.0,0.0,0.0,0.0,0.0
111227712,8,1467.0,1432.0,1401.0,1497.0,1429.0,1469.0,0.0,0.0,0.0,0.0,0.0,0.0,0.0,0.0,0.0,0.0
111335770,8,1463.0,1443.0,1492.0,1479.0,1428.0,1478.0,0.0,0.0,0.0,0.0,0.0,0.0,0.0,0.0,0.0,0.0
111428429,8,1501.0,1476.0,1474.0,1503.0,1449.0,1528.0,0.0,0.0,0.0,0.0,0.0,0.0,0.0,0.0,0.0,0.0
111540965,8,1521.0,1452.0,1508.0,1466.0,1488.0,1485.0,0.0,0.0,0.0,0.0,0.0,0.0,0.0,0.0,0.0,0.0
111633187,8,1522.0,1443.0,1486.0,1479.0,1468.0,1497.0,0.0,0.0,0.0,0.0,0.0,0.0,0.0,0.0,0.0,0.0
111741132,8,1487.0,1460.0,1481.0,1466.0,1446.0,1500.0,0.0,0.0,0.0,0.0,0.0,0.0,0.0,0.0,0.0,0.0
111832962,8,1488.0,1412.0,1411.0,1489.0,1408.0,1493.0,0.0,0.0,0.0,0.0,0.0,0.0,0.0,0.0,0.0,0.0
111929129,8,1397.0,1470.0,1469.0,1398.0,1391.0,1476.0,0.0,0.0,0.0,0.0,0.0,0.0,0.0,0.0,0.0,0.0
112049123,8,1472.0,1453.0,1466.0,1459.0,1446.0,1479.0,0.0,0.0,0.0,0.0,0.0,0.0,0.0,0.0,0.0,0.0
112145183,8,1530.0,1422.0,1431.0,1521.0,1458.0,1494.0,0.0,0.0,0.0,0.0,0.0,0.0,0.0,0.0,0.0,0.0
112252952,8,1505.0,1440.0,1447.0,1498.0,1451.0,1495.0,0.0,0.0,0.0,0.0,0.0,0.0,0.0,0.0,0.0,0.0
112340981,8,1472.0,1469.0,1499.0,1442.0,1472.0,1468.0,0.0,0.0,0.0,0.0,0.0,0.0,0.0,0.0,0.0,0.0
112453371,8,1513.0,1500.0,1501.0,1512.0,1479.0,1534.0,0.0,0.0,0.0,0.0,0.0,0.0,0.0,0.0,0.0,0.0
112541089,8,1486.0,1512.0,1534.0,1464.0,1481.0,1517.0,0.0,0.0,0.0,0.0,0.0,0.0,0.0,0.0,0.0,0.0
112644962,8,1462.0,1500.0,1556.0,1405.0,1493.0,1469.0,0.0,0.0,0.0,0.0,0.0,0.0,0.0,0.0,0.0,0.0
112753143,8,1492.0,1455.0,1512.0,1435.0,1488.0,1460.0,0.0,0.0,0.0,0.0,0.0,0.0,0.0,0.0,0.0,0.0
112857746,8,1502.0,1456.0,1526.0,1432.0,1507.0,1451.0,0.0,0.0,0.0,0.0,0.0,0.0,0.0,0.0,0.0,0.0
112952935,8,1503.0,1461.0,1502.0,1462.0,1486.0,1478.0,0.0,0.0,0.0,0.0,0.0,0.0,0.0,0.0,0.0,0.0
113064560,8,1480.0,1472.0,1483.0,1469.0,1457.0,1496.0,0.0,0.0,0.0,0.0,0.0,0.0,0.0,0.0,0.0,0.0
113157791,8,1525.0,1420.0,1416.0,1529.0,1441.0,1504.0,0.0,0.0,0.0,0.0,0.0,0.0,0.0,0.0,0.0,0.0
113249785,8,1453.0,1497.0,1530.0,1420.0,1483.0,1467.0,0.0,0.0,0.0,0.0,0.0,0.0,0.0,0.0,0.0,0.0
113361757,8,1464.0,1489.0,1453.0,1500.0,1422.0,1532.0,0.0,0.0,0.0,0.0,0.0,0.0,0.0,0.0,0.0,0.0
113469808,8,1508.0,1456.0,1472.0,1491.0,1486.0,1477.0,0.0,0.0,0.0,0.0,0.0,0.0,0.0,0.0,0.0,0.0
113561971,8,1568.0,1415.0,1444.0,1539.0,1496.0,1487.0,0.0,0.0,0.0,0.0,0.0,0.0,0.0,0.0,0.0,0.0
113653803,8,1541.0,1454.0,1495.0,1500.0,1505.0,1491.0,0.0,0.0,0.0,0.0,0.0,0.0,0.0,0.0,0.0,0.0
113773774,8,1544.0,1449.0,1496.0,1497.0,1513.0,1480.0,0.0,0.0,0.0,0.0,0.0,0.0,0.0,0.0,0.0,0.0
113858183,8,1575.0,1368.0,1413.0,1530.0,1491.0,1452.0,0.0,0.0,0.0,0.0,0.0,0.0,0.0,0.0,0.0,0.0
113973885,8,1409.0,1565.0,1482.0,1485.0,1485.0,1485.0,0.0,0.0,0.0,0.0,0.0,0.0,0.0,0.0,0.0,0.0
114061902,8,1439.0,1539.0,1494.0,1484.0,1423.0,1555.0,0.0,0.0,0.0,0.0,0.0,0.0,0.0,0.0,0.0,0.0
114177755,8,1492.0,1498.0,1492.0,1498.0,1465.0,1526.0,0.0,0.0,0.0,0.0,0.0,0.0,0.0,0.0,0.0,0.0
114269786,8,1482.0,1486.0,1497.0,1472.0,1466.0,1502.0,0.0,0.0,0.0,0.0,0.0,0.0,0.0,0.0,0.0,0.0
114385882,8,1506.0,1457.0,1517.0,1447.0,1522.0,1442.0,0.0,0.0,0.0,0.0,0.0,0.0,0.0,0.0,0.0,0.0
114477874,8,1518.0,1515.0,1514.0,1484.0,1498.0,1500.0,0.0,0.0,0.0,0.0,0.0,0.0,0.0,0.0,0.0,0.0
114593080,8,1460.0,1520.0,1528.0,1452.0,1483.0,1497.0,0.0,0.0,0.0,0.0,0.0,0.0,0.0,0.0,0.0,0.0
114681914,8,1524.0,1447.0,1454.0,1516.0,1476.0,1495.0,0.0,0.0,0.0,0.0,0.0,0.0,0.0,0.0,0.0,0.0
114790578,8,1383.0,1595.0,1493.0,1485.0,1357.0,1621.0,0.0,0.0,0.0,0.0,0.0,0.0,0.0,0.0,0.0,0.0
114890568,8,1512.0,1456.0,1530.0,1438.0,1510.0,1458.0,0.0,0.0,0.0,0.0,0.0,0.0,0.0,0.0,0.0,0.0
114998546,8,1509.0,1469.0,1483.0,1496.0,1470.0,1509.0,0.0,0.0,0.0,0.0,0.0,0.0,0.0,0.0,0.0,0.0
115086553,8,1520.0,1473.0,1490.0,1504.0,1483.0,1510.0,0.0,0.0,0.0,0.0,0.0,0.0,0.0,0.0,0.0,0.0
115194559,8,1451.0,1539.0,1475.0,1515.0,1397.0,1593.0,0.0,0.0,0.0,0.0,0.0,0.0,0.0,0.0,0.0,0.0
115282759,8,1511.0,1478.0,1498.0,1491.0,1486.0,1503.0,0.0,0.0,0.0,0.0,0.0,0.0,0.0,0.0,0.0,0.0
115394721,8,1487.0,1498.0,1549.0,1436.0,1507.0,1477.0,0.0,0.0,0.0,0.0,0.0,0.0,0.0,0.0,0.0,0.0
115506812,8,1414.0,1573.0,1506.0,1481.0,1446.0,1541.0,0.0,0.0,0.0,0.0,0.0,0.0,0.0,0.0,0.0,0.0
115598651,8,1491.0,1505.0,1498.0,1497.0,1559.0,1437.0,0.0,0.0,0.0,0.0,0.0,0.0,0.0,0.0,0.0,0.0
115706738,8,1479.0,1512.0,1424.0,1568.0,1466.0,1526.0,0.0,0.0,0.0,0.0,0.0,0.0,0.0,0.0,0.0,0.0
115790686,8,1514.0,1474.0,1474.0,1514.0,1463.0,1526.0,0.0,0.0,0.0,0.0,0.0,0.0,0.0,0.0,0.0,0.0
115906564,8,1514.0,1471.0,1510.0,1474.0,1431.0,1553.0,0.0,0.0,0.0,0.0,0.0,0.0,0.0,0.0,0.0,0.0
115998592,8,1488.0,1496.0,1550.0,1435.0,1447.0,1537.0,0.0,0.0,0.0,0.0,0.0,0.0,0.0,0.0,0.0,0.0
116110758,8,1527.0,1455.0,1487.0,1495.0,1445.0,1537.0,0.0,0.0,0.0,0.0,0.0,0.0,0.0,0.0,0.0,0.0
116199000,8,1482.0,1504.0,1507.0,1479.0,1478.0,1508.0,0.0,0.0,0.0,0.0,0.0,0.0,0.0,0.0,0.0,0.0
116419342,8,1554.0,1424.0,1500.0,1477.0,1490.0,1487.0,0.0,0.0,0.0,0.0,0.0,0.0,0.0,0.0,0.0,0.0
116727360,8,1516.0,1470.0,1599.0,1388.0,1416.0,1570.0,0.0,0.0,0.0,0.0,0.0,0.0,0.0,0.0,0.0,0.0
116811825,8,1630.0,1380.0,1607.0,1403.0,1436.0,1574.0,0.0,0.0,0.0,0.0,0.0,0.0,0.0,0.0,0.0,0.0
116923327,8,1632.0,1360.0,1558.0,1433.0,1420.0,1571.0,0.0,0.0,0.0,0.0,0.0,0.0,0.0,0.0,0.0,0.0
117023374,8,1525.0,1456.0,1559.0,1422.0,1344.0,1637.0,0.0,0.0,0.0,0.0,0.0,0.0,0.0,0.0,0.0,0.0
117123522,8,1531.0,1446.0,1537.0,1439.0,1444.0,1532.0,0.0,0.0,0.0,0.0,0.0,0.0,0.0,0.0,0.0,0.0
117235602,8,1565.0,1462.0,1573.0,1453.0,1383.0,1644.0,0.0,0.0,0.0,0.0,0.0,0.0,0.0,0.0,0.0,0.0
117319377,8,1436.0,1526.0,1508.0,1454.0,1463.0,1499.0,0.0,0.0,0.0,0.0,0.0,0.0,0.0,0.0,0.0,0.0
117427379,8,1449.0,1518.0,1499.0,1468.0,1443.0,1524.0,0.0,0.0,0.0,0.0,0.0,0.0,0.0,0.0,0.0,0.0
117531632,8,1459.0,1528.0,1538.0,1450.0,1471.0,1516.0,0.0,0.0,0.0,0.0,0.0,0.0,0.0,0.0,0.0,0.0
117619603,8,1486.0,1508.0,1469.0,1525.0,1430.0,1564.0,0.0,0.0,0.0,0.0,0.0,0.0,0.0,0.0,0.0,0.0
117735486,8,1488.0,1511.0,1551.0,1447.0,1497.0,1501.0,0.0,0.0,0.0,0.0,0.0,0.0,0.0,0.0,0.0,0.0
117839368,8,1554.0,1443.0,1522.0,1476.0,1496.0,1502.0,0.0,0.0,0.0,0.0,0.0,0.0,0.0,0.0,0.0,0.0
117927766,8,1579.0,1433.0,1517.0,1495.0,1435.0,1577.0,0.0,0.0,0.0,0.0,0.0,0.0,0.0,0.0,0.0,0.0
118036430,8,1501.0,1514.0,1594.0,1421.0,1499.0,1515.0,0.0,0.0,0.0,0.0,0.0,0.0,0.0,0.0,0.0,0.0
118130586,8,1511.0,1482.0,1514.0,1478.0,1451.0,1541.0,0.0,0.0,0.0,0.0,0.0,0.0,0.0,0.0,0.0,0.0
118240367,8,1599.0,1398.0,1521.0,1477.0,1432.0,1565.0,0.0,0.0,0.0,0.0,0.0,0.0,0.0,0.0,0.0,0.0
118348163,8,1564.0,1436.0,1497.0,1502.0,1473.0,1526.0,0.0,0.0,0.0,0.0,0.0,0.0,0.0,0.0,0.0,0.0
118444156,8,1534.0,1460.0,1462.0,1531.0,1457.0,1537.0,0.0,0.0,0.0,0.0,0.0,0.0,0.0,0.0,0.0,0.0
118536443,8,1468.0,1529.0,1527.0,1470.0,1463.0,1534.0,0.0,0.0,0.0,0.0,0.0,0.0,0.0,0.0,0.0,0.0
118656161,8,1508.0,1522.0,1560.0,1470.0,1448.0,1582.0,0.0,0.0,0.0,0.0,0.0,0.0,0.0,0.0,0.0,0.0
118760154,8,1505.0,1494.0,1576.0,1423.0,1495.0,1504.0,0.0,0.0,0.0,0.0,0.0,0.0,0.0,0.0,0.0,0.0
118844395,8,1498.0,1498.0,1517.0,1479.0,1458.0,1538.0,0.0,0.0,0.0,0.0,0.0,0.0,0.0,0.0,0.0,0.0
118952422,8,1528.0,1473.0,1479.0,1522.0,1466.0,1535.0,0.0,0.0,0.0,0.0,0.0,0.0,0.0,0.0,0.0,0.0
119064178,8,1481.0,1510.0,1442.0,1549.0,1487.0,1504.0,0.0,0.0,0.0,0.0,0.0,0.0,0.0,0.0,0.0,0.0
119148543,8,1473.0,1511.0,1427.0,1557.0,1478.0,1507.0,0.0,0.0,0.0,0.0,0.0,0.0,0.0,0.0,0.0,0.0
119256547,8,1486.0,1509.0,1481.0,1514.0,1489.0,1506.0,0.0,0.0,0.0,0.0,0.0,0.0,0.0,0.0,0.0,0.0
119364576,8,1409.0,1546.0,1411.0,1544.0,1609.0,1345.0,0.0,0.0,0.0,0.0,0.0,0.0,0.0,0.0,0.0,0.0
119456307,8,1427.0,1507.0,1400.0,1534.0,1505.0,1428.0,0.0,0.0,0.0,0.0,0.0,0.0,0.0,0.0,0.0,0.0
119568253,8,1510.0,1467.0,1395.0,1582.0,1535.0,1443.0,0.0,0.0,0.0,0.0,0.0,0.0,0.0,0.0,0.0,0.0
119656142,8,1520.0,1499.0,1425.0,1595.0,1520.0,1500.0,0.0,0.0,0.0,0.0,0.0,0.0,0.0,0.0,0.0,0.0
119764381,8,1456.0,1565.0,1522.0,1499.0,1512.0,1509.0,0.0,0.0,0.0,0.0,0.0,0.0,0.0,0.0,0.0,0.0
119853261,8,1549.0,1459.0,1450.0,1559.0,1519.0,1490.0,0.0,0.0,0.0,0.0,0.0,0.0,0.0,0.0,0.0,0.0
119961978,8,1493.0,1498.0,1488.0,1504.0,1492.0,1499.0,0.0,0.0,0.0,0.0,0.0,0.0,0.0,0.0,0.0,0.0
120069244,8,1444.0,1546.0,1504.0,1487.0,1448.0,1542.0,0.0,0.0,0.0,0.0,0.0,0.0,0.0,0.0,0.0,0.0
120161174,8,1487.0,1514.0,1516.0,1485.0,1491.0,1510.0,0.0,0.0,0.0,0.0,0.0,0.0,0.0,0.0,0.0,0.0
120277173,8,1552.0,1456.0,1436.0,1572.0,1466.0,1542.0,0.0,0.0,0.0,0.0,0.0,0.0,0.0,0.0,0.0,0.0
120369432,8,1496.0,1512.0,1483.0,1525.0,1501.0,1507.0,0.0,0.0,0.0,0.0,0.0,0.0,0.0,0.0,0.0,0.0
120480929,8,1509.0,1494.0,1453.0,1550.0,1537.0,1467.0,0.0,0.0,0.0,0.0,0.0,0.0,0.0,0.0,0.0,0.0
120568934,8,1510.0,1487.0,1437.0,1560.0,1481.0,1516.0,0.0,0.0,0.0,0.0,0.0,0.0,0.0,0.0,0.0,0.0
120676994,8,1558.0,1435.0,1461.0,1533.0,1462.0,1532.0,0.0,0.0,0.0,0.0,0.0,0.0,0.0,0.0,0.0,0.0
120789197,8,1561.0,1449.0,1462.0,1549.0,1416.0,1594.0,0.0,0.0,0.0,0.0,0.0,0.0,0.0,0.0,0.0,0.0
120880967,8,1511.0,1508.0,1567.0,1452.0,1493.0,1526.0,0.0,0.0,0.0,0.0,0.0,0.0,0.0,0.0,0.0,0.0
120988933,8,1546.0,1468.0,1554.0,1460.0,1532.0,1483.0,0.0,0.0,0.0,0.0,0.0,0.0,0.0,0.0,0.0,0.0
121080971,8,1542.0,1465.0,1486.0,1521.0,1477.0,1530.0,0.0,0.0,0.0,0.0,0.0,0.0,0.0,0.0,0.0,0.0
121192984,8,1490.0,1505.0,1530.0,1464.0,1483.0,1511.0,0.0,0.0,0.0,0.0,0.0,0.0,0.0,0.0,0.0,0.0
121297116,8,1556.0,1432.0,1509.0,1480.0,1539.0,1449.0,0.0,0.0,0.0,0.0,0.0,0.0,0.0,0.0,0.0,0.0
121389786,8,1570.0,1429.0,1474.0,1524.0,1511.0,1487.0,0.0,0.0,0.0,0.0,0.0,0.0,0.0,0.0,0.0,0.0
121497007,8,1525.0,1483.0,1567.0,1441.0,1553.0,1455.0,0.0,0.0,0.0,0.0,0.0,0.0,0.0,0.0,0.0,0.0
121585148,8,1489.0,1537.0,1547.0,1479.0,1492.0,1534.0,0.0,0.0,0.0,0.0,0.0,0.0,0.0,0.0,0.0,0.0
121697804,8,1492.0,1530.0,1541.0,1481.0,1493.0,1530.0,0.0,0.0,0.0,0.0,0.0,0.0,0.0,0.0,0.0,0.0
121781734,8,1630.0,1379.0,1579.0,1430.0,1395.0,1614.0,0.0,0.0,0.0,0.0,0.0,0.0,0.0,0.0,0.0,0.0
121897964,8,1513.0,1461.0,1499.0,1475.0,1388.0,1586.0,0.0,0.0,0.0,0.0,0.0,0.0,0.0,0.0,0.0,0.0
121990174,8,1593.0,1384.0,1524.0,1453.0,1408.0,1569.0,0.0,0.0,0.0,0.0,0.0,0.0,0.0,0.0,0.0,0.0
122101867,8,1588.0,1395.0,1548.0,1435.0,1461.0,1522.0,0.0,0.0,0.0,0.0,0.0,0.0,0.0,0.0,0.0,0.0
122206144,8,1567.0,1425.0,1490.0,1502.0,1476.0,1516.0,0.0,0.0,0.0,0.0,0.0,0.0,0.0,0.0,0.0,0.0
122293827,8,1436.0,1564.0,1544.0,1457.0,1424.0,1576.0,0.0,0.0,0.0,0.0,0.0,0.0,0.0,0.0,0.0,0.0
122405776,8,1474.0,1542.0,1565.0,1450.0,1518.0,1497.0,0.0,0.0,0.0,0.0,0.0,0.0,0.0,0.0,0.0,0.0
122509762,8,1452.0,1563.0,1526.0,1490.0,1582.0,1433.0,0.0,0.0,0.0,0.0,0.0,0.0,0.0,0.0,0.0,0.0
122593911,8,1447.0,1560.0,1482.0,1525.0,1578.0,1429.0,0.0,0.0,0.0,0.0,0.0,0.0,0.0,0.0,0.0,0.0
122717769,8,1452.0,1535.0,1477.0,1510.0,1525.0,1462.0,0.0,0.0,0.0,0.0,0.0,0.0,0.0,0.0,0.0,0.0
122801987,8,1457.0,1525.0,1441.0,1541.0,1471.0,1511.0,0.0,0.0,0.0,0.0,0.0,0.0,0.0,0.0,0.0,0.0
122910005,8,1492.0,1512.0,1427.0,1577.0,1458.0,1546.0,0.0,0.0,0.0,0.0,0.0,0.0,0.0,0.0,0.0,0.0
123013896,8,1536.0,1483.0,1526.0,1492.0,1562.0,1456.0,0.0,0.0,0.0,0.0,0.0,0.0,0.0,0.0,0.0,0.0
123121740,8,1541.0,1473.0,1489.0,1526.0,1514.0,1500.0,0.0,0.0,0.0,0.0,0.0,0.0,0.0,0.0,0.0,0.0
123209809,8,1426.0,1581.0,1538.0,1469.0,1449.0,1558.0,0.0,0.0,0.0,0.0,0.0,0.0,0.0,0.0,0.0,0.0
123314792,8,1533.0,1459.0,1441.0,1551.0,1444.0,1548.0,0.0,0.0,0.0,0.0,0.0,0.0,0.0,0.0,0.0,0.0
123422630,8,1522.0,1462.0,1582.0,1402.0,1586.0,1398.0,0.0,0.0,0.0,0.0,0.0,0.0,0.0,0.0,0.0,0.0
123514750,8,1496.0,1502.0,1430.0,1568.0,1404.0,1594.0,0.0,0.0,0.0,0.0,0.0,0.0,0.0,0.0,0.0,0.0
123622570,8,1553.0,1453.0,1510.0,1496.0,1538.0,1467.0,0.0,0.0,0.0,0.0,0.0,0.0,0.0,0.0,0.0,0.0
123726556,8,1541.0,1487.0,1491.0,1537.0,1500.0,1528.0,0.0,0.0,0.0,0.0,0.0,0.0,0.0,0.0,0.0,0.0
123834573,8,1580.0,1455.0,1519.0,1516.0,1556.0,1479.0,0.0,0.0,0.0,0.0,0.0,0.0,0.0,0.0,0.0,0.0
123918587,8,1467.0,1564.0,1487.0,1544.0,1417.0,1614.0,0.0,0.0,0.0,0.0,0.0,0.0,0.0,0.0,0.0,0.0
124034666,8,1500.0,1526.0,1554.0,1471.0,1525.0,1501.0,0.0,0.0,0.0,0.0,0.0,0.0,0.0,0.0,0.0,0.0
124126696,8,1529.0,1499.0,1534.0,1493.0,1531.0,1497.0,0.0,0.0,0.0,0.0,0.0,0.0,0.0,0.0,0.0,0.0
124242655,8,1514.0,1510.0,1521.0,1503.0,1508.0,1516.0,0.0,0.0,0.0,0.0,0.0,0.0,0.0,0.0,0.0,0.0
124334776,8,1492.0,1529.0,1509.0,1513.0,1477.0,1545.0,0.0,0.0,0.0,0.0,0.0,0.0,0.0,0.0,0.0,0.0
124446564,8,1503.0,1523.0,1533.0,1492.0,1504.0,1522.0,0.0,0.0,0.0,0.0,0.0,0.0,0.0,0.0,0.0,0.0
124534576,8,1460.0,1566.0,1574.0,1453.0,1506.0,1520.0,0.0,0.0,0.0,0.0,0.0,0.0,0.0,0.0,0.0,0.0
124642543,8,1598.0,1432.0,1467.0,1563.0,1532.0,1498.0,0.0,0.0,0.0,0.0,0.0,0.0,0.0,0.0,0.0,0.0
124750571,8,1469.0,1563.0,1529.0,1503.0,1461.0,1571.0,0.0,0.0,0.0,0.0,0.0,0.0,0.0,0.0,0.0,0.0
124838565,8,1544.0,1476.0,1549.0,1471.0,1563.0,1457.0,0.0,0.0,0.0,0.0,0.0,0.0,0.0,0.0,0.0,0.0
124950563,8,1364.0,1620.0,1536.0,1448.0,1409.0,1574.0,0.0,0.0,0.0,0.0,0.0,0.0,0.0,0.0,0.0,0.0
125058751,8,1594.0,1377.0,1432.0,1540.0,1522.0,1450.0,0.0,0.0,0.0,0.0,0.0,0.0,0.0,0.0,0.0,0.0
125150686,8,1438.0,1533.0,1510.0,1460.0,1447.0,1524.0,0.0,0.0,0.0,0.0,0.0,0.0,0.0,0.0,0.0,0.0
125239533,8,1532.0,1453.0,1502.0,1483.0,1525.0,1460.0,0.0,0.0,0.0,0.0,0.0,0.0,0.0,0.0,0.0,0.0
125355528,8,1458.0,1549.0,1527.0,1480.0,1460.0,1546.0,0.0,0.0,0.0,0.0,0.0,0.0,0.0,0.0,0.0,0.0
125463332,8,1548.0,1464.0,1475.0,1536.0,1505.0,1506.0,0.0,0.0,0.0,0.0,0.0,0.0,0.0,0.0,0.0,0.0
125547384,8,1477.0,1530.0,1517.0,1490.0,1474.0,1533.0,0.0,0.0,0.0,0.0,0.0,0.0,0.0,0.0,0.0,0.0
125651514,8,1463.0,1529.0,1495.0,1497.0,1454.0,1538.0,0.0,0.0,0.0,0.0,0.0,0.0,0.0,0.0,0.0,0.0
125767375,8,1478.0,1525.0,1507.0,1496.0,1470.0,1533.0,0.0,0.0,0.0,0.0,0.0,0.0,0.0,0.0,0.0,0.0
125871518,8,1462.0,1543.0,1561.0,1445.0,1502.0,1503.0,0.0,0.0,0.0,0.0,0.0,0.0,0.0,0.0,0.0,0.0
125963585,8,1418.0,1585.0,1578.0,1424.0,1477.0,1525.0,0.0,0.0,0.0,0.0,0.0,0.0,0.0,0.0,0.0,0.0
126055376,8,1438.0,1581.0,1572.0,1446.0,1481.0,1537.0,0.0,0.0,0.0,0.0,0.0,0.0,0.0,0.0,0.0,0.0
126159361,8,1523.0,1495.0,1486.0,1531.0,1481.0,1537.0,0.0,0.0,0.0,0.0,0.0,0.0,0.0,0.0,0.0,0.0
126267370,8,1465.0,1550.0,1528.0,1487.0,1476.0,1539.0,0.0,0.0,0.0,0.0,0.0,0.0,0.0,0.0,0.0,0.0
126371367,8,1530.0,1481.0,1482.0,1529.0,1496.0,1516.0,0.0,0.0,0.0,0.0,0.0,0.0,0.0,0.0,0.0,0.0
126475657,8,1447.0,1554.0,1544.0,1458.0,1469.0,1533.0,0.0,0.0,0.0,0.0,0.0,0.0,0.0,0.0,0.0,0.0
126559596,8,1542.0,1458.0,1509.0,1491.0,1531.0,1469.0,0.0,0.0,0.0,0.0,0.0,0.0,0.0,0.0,0.0,0.0
126671741,8,1519.0,1504.0,1443.0,1580.0,1432.0,1591.0,0.0,0.0,0.0,0.0,0.0,0.0,0.0,0.0,0.0,0.0
126779770,8,1502.0,1515.0,1526.0,1491.0,1494.0,1524.0,0.0,0.0,0.0,0.0,0.0,0.0,0.0,0.0,0.0,0.0
126866683,8,1544.0,1459.0,1508.0,1495.0,1522.0,1481.0,0.0,0.0,0.0,0.0,0.0,0.0,0.0,0.0,0.0,0.0
126976197,8,1440.0,1563.0,1635.0,1368.0,1522.0,1481.0,0.0,0.0,0.0,0.0,0.0,0.0,0.0,0.0,0.0,0.0
127084175,8,1500.0,1508.0,1513.0,1495.0,1474.0,1533.0,0.0,0.0,0.0,0.0,0.0,0.0,0.0,0.0,0.0,0.0
127176565,8,1493.0,1518.0,1512.0,1499.0,1468.0,1543.0,0.0,0.0,0.0,0.0,0.0,0.0,0.0,0.0,0.0,0.0
127284503,8,1547.0,1474.0,1510.0,1511.0,1515.0,1506.0,0.0,0.0,0.0,0.0,0.0,0.0,0.0,0.0,0.0,0.0
127376351,8,1547.0,1480.0,1464.0,1562.0,1468.0,1559.0,0.0,0.0,0.0,0.0,0.0,0.0,0.0,0.0,0.0,0.0
127488366,8,1484.0,1539.0,1543.0,1480.0,1482.0,1541.0,0.0,0.0,0.0,0.0,0.0,0.0,0.0,0.0,0.0,0.0
127580139,8,1486.0,1527.0,1516.0,1497.0,1458.0,1555.0,0.0,0.0,0.0,0.0,0.0,0.0,0.0,0.0,0.0,0.0
127692349,8,1569.0,1432.0,1475.0,1527.0,1500.0,1501.0,0.0,0.0,0.0,0.0,0.0,0.0,0.0,0.0,0.0,0.0
127784121,8,1527.0,1495.0,1559.0,1463.0,1533.0,1489.0,0.0,0.0,0.0,0.0,0.0,0.0,0.0,0.0,0.0,0.0
127896566,8,1492.0,1540.0,1555.0,1477.0,1482.0,1550.0,0.0,0.0,0.0,0.0,0.0,0.0,0.0,0.0,0.0,0.0
128000395,8,1476.0,1553.0,1517.0,1512.0,1439.0,1589.0,0.0,0.0,0.0,0.0,0.0,0.0,0.0,0.0,0.0,0.0
128088380,8,1471.0,1549.0,1572.0,1448.0,1506.0,1514.0,0.0,0.0,0.0,0.0,0.0,0.0,0.0,0.0,0.0,0.0
128192300,8,1510.0,1513.0,1473.0,1550.0,1454.0,1569.0,0.0,0.0,0.0,0.0,0.0,0.0,0.0,0.0,0.0,0.0
128284164,8,1484.0,1549.0,1523.0,1509.0,1472.0,1561.0,0.0,0.0,0.0,0.0,0.0,0.0,0.0,0.0,0.0,0.0
128400569,8,1514.0,1513.0,1506.0,1521.0,1485.0,1542.0,0.0,0.0,0.0,0.0,0.0,0.0,0.0,0.0,0.0,0.0
128512160,8,1477.0,1519.0,1542.0,1454.0,1495.0,1501.0,0.0,0.0,0.0,0.0,0.0,0.0,0.0,0.0,0.0,0.0
128596329,8,1499.0,1489.0,1468.0,1520.0,1457.0,1531.0,0.0,0.0,0.0,0.0,0.0,0.0,0.0,0.0,0.0,0.0
128711483,8,1515.0,1426.0,1442.0,1499.0,1473.0,1469.0,0.0,0.0,0.0,0.0,0.0,0.0,0.0,0.0,0.0,0.0
128817145,8,1450.0,1483.0,1495.0,1439.0,1462.0,1472.0,0.0,0.0,0.0,0.0,0.0,0.0,0.0,0.0,0.0,0.0
128905215,8,1505.0,1461.0,1482.0,1484.0,1481.0,1486.0,0.0,0.0,0.0,0.0,0.0,0.0,0.0,0.0,0.0,0.0
129016974,8,1445.0,1561.0,1545.0,1462.0,1464.0,1542.0,0.0,0.0,0.0,0.0,0.0,0.0,0.0,0.0,0.0,0.0
129113395,8,1504.0,1524.0,1493.0,1535.0,1459.0,1570.0,0.0,0.0,0.0,0.0,0.0,0.0,0.0,0.0,0.0,0.0
129201221,8,1573.0,1460.0,1492.0,1540.0,1526.0,1506.0,0.0,0.0,0.0,0.0,0.0,0.0,0.0,0.0,0.0,0.0
129312930,8,1523.0,1518.0,1525.0,1516.0,1501.0,1540.0,0.0,0.0,0.0,0.0,0.0,0.0,0.0,0.0,0.0,0.0
129425015,8,1545.0,1481.0,1504.0,1522.0,1507.0,1518.0,0.0,0.0,0.0,0.0,0.0,0.0,0.0,0.0,0.0,0.0
129517062,8,1476.0,1526.0,1539.0,1463.0,1489.0,1514.0,0.0,0.0,0.0,0.0,0.0,0.0,0.0,0.0,0.0,0.0
129612950,8,1522.0,1473.0,1467.0,1528.0,1469.0,1526.0,0.0,0.0,0.0,0.0,0.0,0.0,0.0,0.0,0.0,0.0
129720961,8,1460.0,1545.0,1531.0,1474.0,1462.0,1543.0,0.0,0.0,0.0,0.0,0.0,0.0,0.0,0.0,0.0,0.0
129828923,8,1548.0,1462.0,1477.0,1533.0,1501.0,1509.0,0.0,0.0,0.0,0.0,0.0,0.0,0.0,0.0,0.0,0.0
129921072,8,1508.0,1497.0,1528.0,1477.0,1512.0,1494.0,0.0,0.0,0.0,0.0,0.0,0.0,0.0,0.0,0.0,0.0
130032937,8,1550.0,1463.0,1468.0,1545.0,1489.0,1524.0,0.0,0.0,0.0,0.0,0.0,0.0,0.0,0.0,0.0,0.0
130117192,8,1469.0,1544.0,1543.0,1470.0,1474.0,1539.0,0.0,0.0,0.0,0.0,0.0,0.0,0.0,0.0,0.0,0.0
130224987,8,1547.0,1458.0,1481.0,1524.0,1495.0,1511.0,0.0,0.0,0.0,0.0,0.0,0.0,0.0,0.0,0.0,0.0
130317147,8,1504.0,1505.0,1521.0,1489.0,1491.0,1519.0,0.0,0.0,0.0,0.0,0.0,0.0,0.0,0.0,0.0,0.0
130429117,8,1515.0,1498.0,1507.0,1505.0,1488.0,1525.0,0.0,0.0,0.0,0.0,0.0,0.0,0.0,0.0,0.0,0.0
130544969,8,1477.0,1539.0,1457.0,1559.0,1401.0,1615.0,0.0,0.0,0.0,0.0,0.0,0.0,0.0,0.0,0.0,0.0
130637141,8,1544.0,1487.0,1485.0,1546.0,1492.0,1539.0,0.0,0.0,0.0,0.0,0.0,0.0,0.0,0.0,0.0,0.0
130724285,8,1522.0,1527.0,1511.0,1538.0,1478.0,1570.0,0.0,0.0,0.0,0.0,0.0,0.0,0.0,0.0,0.0,0.0
130837763,8,1512.0,1507.0,1497.0,1522.0,1472.0,1547.0,0.0,0.0,0.0,0.0,0.0,0.0,0.0,0.0,0.0,0.0
130930006,8,1511.0,1482.0,1507.0,1487.0,1486.0,1508.0,0.0,0.0,0.0,0.0,0.0,0.0,0.0,0.0,0.0,0.0
131037871,8,1510.0,1488.0,1480.0,1518.0,1461.0,1536.0,0.0,0.0,0.0,0.0,0.0,0.0,0.0,0.0,0.0,0.0
131141736,8,1552.0,1456.0,1457.0,1550.0,1474.0,1533.0,0.0,0.0,0.0,0.0,0.0,0.0,0.0,0.0,0.0,0.0
131245950,8,1569.0,1417.0,1435.0,1552.0,1470.0,1517.0,0.0,0.0,0.0,0.0,0.0,0.0,0.0,0.0,0.0,0.0
131354177,8,1482.0,1519.0,1508.0,1492.0,1456.0,1544.0,0.0,0.0,0.0,0.0,0.0,0.0,0.0,0.0,0.0,0.0
131445766,8,1475.0,1540.0,1572.0,1443.0,1499.0,1515.0,0.0,0.0,0.0,0.0,0.0,0.0,0.0,0.0,0.0,0.0
131557938,8,1492.0,1518.0,1561.0,1448.0,1514.0,1495.0,0.0,0.0,0.0,0.0,0.0,0.0,0.0,0.0,0.0,0.0
131645751,8,1470.0,1537.0,1558.0,1449.0,1492.0,1515.0,0.0,0.0,0.0,0.0,0.0,0.0,0.0,0.0,0.0,0.0
131753790,8,1487.0,1535.0,1521.0,1501.0,1462.0,1561.0,0.0,0.0,0.0,0.0,0.0,0.0,0.0,0.0,0.0,0.0
131861743,8,1498.0,1511.0,1516.0,1492.0,1491.0,1518.0,0.0,0.0,0.0,0.0,0.0,0.0,0.0,0.0,0.0,0.0
131941731,8,1475.0,1527.0,1531.0,1471.0,1527.0,1475.0,0.0,0.0,0.0,0.0,0.0,0.0,0.0,0.0,0.0,0.0
132053786,8,1473.0,1530.0,1385.0,1618.0,1528.0,1475.0,0.0,0.0,0.0,0.0,0.0,0.0,0.0,0.0,0.0,0.0
132145880,8,1513.0,1485.0,1457.0,1541.0,1462.0,1535.0,0.0,0.0,0.0,0.0,0.0,0.0,0.0,0.0,0.0,0.0
132257776,8,1507.0,1488.0,1537.0,1457.0,1444.0,1551.0,0.0,0.0,0.0,0.0,0.0,0.0,0.0,0.0,0.0,0.0
132350191,8,1510.0,1490.0,1508.0,1492.0,1440.0,1560.0,0.0,0.0,0.0,0.0,0.0,0.0,0.0,0.0,0.0,0.0
132465910,8,1550.0,1461.0,1516.0,1495.0,1485.0,1527.0,0.0,0.0,0.0,0.0,0.0,0.0,0.0,0.0,0.0,0.0
132574676,8,1521.0,1492.0,1543.0,1471.0,1497.0,1517.0,0.0,0.0,0.0,0.0,0.0,0.0,0.0,0.0,0.0,0.0
132666786,8,1521.0,1490.0,1480.0,1530.0,1450.0,1560.0,0.0,0.0,0.0,0.0,0.0,0.0,0.0,0.0,0.0,0.0
132774680,8,1546.0,1466.0,1459.0,1553.0,1462.0,1550.0,0.0,0.0,0.0,0.0,0.0,0.0,0.0,0.0,0.0,0.0
132859006,8,1463.0,1558.0,1541.0,1480.0,1484.0,1537.0,0.0,0.0,0.0,0.0,0.0,0.0,0.0,0.0,0.0,0.0
132966970,8,1489.0,1529.0,1507.0,1511.0,1411.0,1607.0,0.0,0.0,0.0,0.0,0.0,0.0,0.0,0.0,0.0,0.0
133078545,8,1507.0,1510.0,1557.0,1460.0,1427.0,1591.0,0.0,0.0,0.0,0.0,0.0,0.0,0.0,0.0,0.0,0.0
133170792,8,1566.0,1442.0,1527.0,1481.0,1396.0,1612.0,0.0,0.0,0.0,0.0,0.0,0.0,0.0,0.0,0.0,0.0
133266539,8,1531.0,1463.0,1549.0,1445.0,1511.0,1483.0,0.0,0.0,0.0,0.0,0.0,0.0,0.0,0.0,0.0,0.0
133370567,8,1474.0,1516.0,1433.0,1557.0,1522.0,1468.0,0.0,0.0,0.0,0.0,0.0,0.0,0.0,0.0,0.0,0.0
133482551,8,1427.0,1563.0,1442.0,1547.0,1433.0,1557.0,0.0,0.0,0.0,0.0,0.0,0.0,0.0,0.0,0.0,0.0
133574592,8,1459.0,1533.0,1529.0,1463.0,1526.0,1465.0,0.0,0.0,0.0,0.0,0.0,0.0,0.0,0.0,0.0,0.0
133678744,8,1477.0,1520.0,1494.0,1503.0,1493.0,1504.0,0.0,0.0,0.0,0.0,0.0,0.0,0.0,0.0,0.0,0.0
133786578,8,1441.0,1563.0,1516.0,1488.0,1455.0,1548.0,0.0,0.0,0.0,0.0,0.0,0.0,0.0,0.0,0.0,0.0
133874708,8,1542.0,1467.0,1463.0,1546.0,1488.0,1521.0,0.0,0.0,0.0,0.0,0.0,0.0,0.0,0.0,0.0,0.0
133994712,8,1491.0,1516.0,1518.0,1489.0,1489.0,1519.0,0.0,0.0,0.0,0.0,0.0,0.0,0.0,0.0,0.0,0.0
134086590,8,1520.0,1489.0,1488.0,1521.0,1478.0,1531.0,0.0,0.0,0.0,0.0,0.0,0.0,0.0,0.0,0.0,0.0
134178718,8,1367.0,1566.0,1405.0,1614.0,1539.0,1480.0,0.0,0.0,0.0,0.0,0.0,0.0,0.0,0.0,0.0,0.0
134290591,8,1452.0,1554.0,1507.0,1499.0,1575.0,1432.0,0.0,0.0,0.0,0.0,0.0,0.0,0.0,0.0,0.0,0.0
134378763,8,1458.0,1531.0,1484.0,1505.0,1547.0,1442.0,0.0,0.0,0.0,0.0,0.0,0.0,0.0,0.0,0.0,0.0
134491511,8,1460.0,1538.0,1471.0,1512.0,1520.0,1463.0,0.0,0.0,0.0,0.0,0.0,0.0,0.0,0.0,0.0,0.0
134595564,8,1461.0,1524.0,1511.0,1474.0,1524.0,1461.0,0.0,0.0,0.0,0.0,0.0,0.0,0.0,0.0,0.0,0.0
134683369,8,1631.0,1360.0,1544.0,1446.0,1427.0,1563.0,0.0,0.0,0.0,0.0,0.0,0.0,0.0,0.0,0.0,0.0
134795399,8,1542.0,1459.0,1553.0,1449.0,1414.0,1587.0,0.0,0.0,0.0,0.0,0.0,0.0,0.0,0.0,0.0,0.0
134903377,8,1521.0,1480.0,1529.0,1472.0,1405.0,1596.0,0.0,0.0,0.0,0.0,0.0,0.0,0.0,0.0,0.0,0.0
135007529,8,1523.0,1481.0,1605.0,1398.0,1515.0,1488.0,0.0,0.0,0.0,0.0,0.0,0.0,0.0,0.0,0.0,0.0
135095529,8,1571.0,1443.0,1532.0,1482.0,1510.0,1504.0,0.0,0.0,0.0,0.0,0.0,0.0,0.0,0.0,0.0,0.0
135207338,8,1506.0,1515.0,1504.0,1517.0,1437.0,1584.0,0.0,0.0,0.0,0.0,0.0,0.0,0.0,0.0,0.0,0.0
135299342,8,1513.0,1515.0,1557.0,1471.0,1501.0,1527.0,0.0,0.0,0.0,0.0,0.0,0.0,0.0,0.0,0.0,0.0
135407470,8,1532.0,1484.0,1506.0,1510.0,1488.0,1528.0,0.0,0.0,0.0,0.0,0.0,0.0,0.0,0.0,0.0,0.0
135503343,8,1526.0,1484.0,1532.0,1478.0,1513.0,1496.0,0.0,0.0,0.0,0.0,0.0,0.0,0.0,0.0,0.0,0.0
135611368,8,1552.0,1472.0,1498.0,1526.0,1512.0,1512.0,0.0,0.0,0.0,0.0,0.0,0.0,0.0,0.0,0.0,0.0
135719522,8,1480.0,1551.0,1518.0,1512.0,1458.0,1573.0,0.0,0.0,0.0,0.0,0.0,0.0,0.0,0.0,0.0,0.0
135803341,8,1477.0,1549.0,1549.0,1477.0,1493.0,1532.0,0.0,0.0,0.0,0.0,0.0,0.0,0.0,0.0,0.0,0.0
135911560,8,1518.0,1498.0,1514.0,1501.0,1503.0,1513.0,0.0,0.0,0.0,0.0,0.0,0.0,0.0,0.0,0.0,0.0
136023547,8,1530.0,1473.0,1481.0,1522.0,1479.0,1524.0,0.0,0.0,0.0,0.0,0.0,0.0,0.0,0.0,0.0,0.0
136111382,8,1528.0,1469.0,1538.0,1460.0,1540.0,1457.0,0.0,0.0,0.0,0.0,0.0,0.0,0.0,0.0,0.0,0.0
136226810,8,1517.0,1491.0,1482.0,1526.0,1474.0,1534.0,0.0,0.0,0.0,0.0,0.0,0.0,0.0,0.0,0.0,0.0
136315120,8,1571.0,1445.0,1491.0,1524.0,1541.0,1475.0,0.0,0.0,0.0,0.0,0.0,0.0,0.0,0.0,0.0,0.0
136422975,8,1545.0,1479.0,1506.0,1517.0,1516.0,1508.0,0.0,0.0,0.0,0.0,0.0,0.0,0.0,0.0,0.0,0.0
136516171,8,1531.0,1492.0,1457.0,1566.0,1462.0,1560.0,0.0,0.0,0.0,0.0,0.0,0.0,0.0,0.0,0.0,0.0
136624303,8,1568.0,1467.0,1525.0,1510.0,1543.0,1492.0,0.0,0.0,0.0,0.0,0.0,0.0,0.0,0.0,0.0,0.0
136716156,8,1492.0,1533.0,1548.0,1476.0,1516.0,1509.0,0.0,0.0,0.0,0.0,0.0,0.0,0.0,0.0,0.0,0.0
136828170,8,1498.0,1515.0,1486.0,1528.0,1463.0,1550.0,0.0,0.0,0.0,0.0,0.0,0.0,0.0,0.0,0.0,0.0
136940297,8,1545.0,1465.0,1461.0,1549.0,1488.0,1522.0,0.0,0.0,0.0,0.0,0.0,0.0,0.0,0.0,0.0,0.0
137048367,8,1442.0,1564.0,1454.0,1552.0,1392.0,1614.0,0.0,0.0,0.0,0.0,0.0,0.0,0.0,0.0,0.0,0.0
137136307,8,1515.0,1521.0,1548.0,1488.0,1536.0,1500.0,0.0,0.0,0.0,0.0,0.0,0.0,0.0,0.0,0.0,0.0
137244141,8,1472.0,1563.0,1587.0,1448.0,1529.0,1506.0,0.0,0.0,0.0,0.0,0.0,0.0,0.0,0.0,0.0,0.0
137352144,8,1472.0,1543.0,1506.0,1509.0,1461.0,1554.0,0.0,0.0,0.0,0.0,0.0,0.0,0.0,0.0,0.0,0.0
137448331,8,1488.0,1527.0,1562.0,1454.0,1520.0,1495.0,0.0,0.0,0.0,0.0,0.0,0.0,0.0,0.0,0.0,0.0
137536147,8,1465.0,1556.0,1554.0,1467.0,1487.0,1535.0,0.0,0.0,0.0,0.0,0.0,0.0,0.0,0.0,0.0,0.0
137644164,8,1507.0,1510.0,1467.0,1550.0,1451.0,1567.0,0.0,0.0,0.0,0.0,0.0,0.0,0.0,0.0,0.0,0.0
137760400,8,1530.0,1502.0,1520.0,1513.0,1516.0,1517.0,0.0,0.0,0.0,0.0,0.0,0.0,0.0,0.0,0.0,0.0
137852303,8,1446.0,1591.0,1523.0,1514.0,1510.0,1527.0,0.0,0.0,0.0,0.0,0.0,0.0,0.0,0.0,0.0,0.0
137964179,8,1433.0,1574.0,1544.0,1463.0,1449.0,1559.0,0.0,0.0,0.0,0.0,0.0,0.0,0.0,0.0,0.0,0.0
138052340,8,1453.0,1550.0,1483.0,1519.0,1415.0,1587.0,0.0,0.0,0.0,0.0,0.0,0.0,0.0,0.0,0.0,0.0
138164372,8,1501.0,1516.0,1518.0,1499.0,1485.0,1531.0,0.0,0.0,0.0,0.0,0.0,0.0,0.0,0.0,0.0,0.0
138252158,8,1536.0,1487.0,1463.0,1560.0,1464.0,1559.0,0.0,0.0,0.0,0.0,0.0,0.0,0.0,0.0,0.0,0.0
138360953,8,1528.0,1494.0,1465.0,1556.0,1457.0,1564.0,0.0,0.0,0.0,0.0,0.0,0.0,0.0,0.0,0.0,0.0
138468282,8,1550.0,1465.0,1459.0,1556.0,1481.0,1534.0,0.0,0.0,0.0,0.0,0.0,0.0,0.0,0.0,0.0,0.0
138572955,8,1401.0,1604.0,1567.0,1437.0,1439.0,1566.0,0.0,0.0,0.0,0.0,0.0,0.0,0.0,0.0,0.0,0.0
138664973,8,1562.0,1444.0,1530.0,1476.0,1551.0,1455.0,0.0,0.0,0.0,0.0,0.0,0.0,0.0,0.0,0.0,0.0
138777109,8,1529.0,1484.0,1502.0,1510.0,1498.0,1515.0,0.0,0.0,0.0,0.0,0.0,0.0,0.0,0.0,0.0,0.0
138864972,8,1505.0,1511.0,1501.0,1515.0,1469.0,1547.0,0.0,0.0,0.0,0.0,0.0,0.0,0.0,0.0,0.0,0.0
138977388,8,1492.0,1532.0,1541.0,1482.0,1495.0,1529.0,0.0,0.0,0.0,0.0,0.0,0.0,0.0,0.0,0.0,0.0
139069066,8,1486.0,1540.0,1543.0,1483.0,1482.0,1544.0,0.0,0.0,0.0,0.0,0.0,0.0,0.0,0.0,0.0,0.0
139176956,8,1512.0,1523.0,1572.0,1463.0,1540.0,1495.0,0.0,0.0,0.0,0.0,0.0,0.0,0.0,0.0,0.0,0.0
139265370,8,1510.0,1525.0,1529.0,1506.0,1499.0,1536.0,0.0,0.0,0.0,0.0,0.0,0.0,0.0,0.0,0.0,0.0
139376976,8,1548.0,1480.0,1453.0,1575.0,1473.0,1555.0,0.0,0.0,0.0,0.0,0.0,0.0,0.0,0.0,0.0,0.0
139484948,8,1499.0,1544.0,1602.0,1441.0,1556.0,1487.0,0.0,0.0,0.0,0.0,0.0,0.0,0.0,0.0,0.0,0.0
139568942,8,1571.0,1473.0,1498.0,1546.0,1531.0,1514.0,0.0,0.0,0.0,0.0,0.0,0.0,0.0,0.0,0.0,0.0
139680998,8,1509.0,1526.0,1480.0,1555.0,1450.0,1585.0,0.0,0.0,0.0,0.0,0.0,0.0,0.0,0.0,0.0,0.0
139776937,8,1505.0,1521.0,1522.0,1505.0,1502.0,1524.0,0.0,0.0,0.0,0.0,0.0,0.0,0.0,0.0,0.0,0.0
139884970,8,1458.0,1516.0,1521.0,1496.0,1497.0,1520.0,0.0,0.0,0.0,0.0,0.0,0.0,0.0,0.0,0.0,0.0
139997006,8,1506.0,1510.0,1502.0,1515.0,1482.0,1534.0,0.0,0.0,0.0,0.0,0.0,0.0,0.0,0.0,0.0,0.0
140084956,8,1517.0,1496.0,1475.0,1537.0,1458.0,1555.0,0.0,0.0,0.0,0.0,0.0,0.0,0.0,0.0,0.0,0.0
140176974,8,1557.0,1440.0,1414.0,1583.0,1450.0,1547.0,0.0,0.0,0.0,0.0,0.0,0.0,0.0,0.0,0.0,0.0
140285200,8,1488.0,1522.0,1518.0,1492.0,1472.0,1537.0,0.0,0.0,0.0,0.0,0.0,0.0,0.0,0.0,0.0,0.0
140393781,8,1435.0,1568.0,1552.0,1450.0,1458.0,1544.0,0.0,0.0,0.0,0.0,0.0,0.0,0.0,0.0,0.0,0.0
140501884,8,1552.0,1462.0,1453.0,1560.0,1481.0,1532.0,0.0,0.0,0.0,0.0,0.0,0.0,0.0,0.0,0.0,0.0
140594049,8,1600.0,1426.0,1438.0,1588.0,1506.0,1521.0,0.0,0.0,0.0,0.0,0.0,0.0,0.0,0.0,0.0,0.0
140701912,8,1504.0,1542.0,1578.0,1468.0,1527.0,1519.0,0.0,0.0,0.0,0.0,0.0,0.0,0.0,0.0,0.0,0.0
140793788,8,1537.0,1495.0,1483.0,1549.0,1484.0,1548.0,0.0,0.0,0.0,0.0,0.0,0.0,0.0,0.0,0.0,0.0
140905787,8,1552.0,1450.0,1507.0,1495.0,1530.0,1472.0,0.0,0.0,0.0,0.0,0.0,0.0,0.0,0.0,0.0,0.0
141009998,8,1446.0,1431.0,1464.0,1542.0,1520.0,1486.0,0.0,0.0,0.0,0.0,0.0,0.0,0.0,0.0,0.0,0.0
141093893,8,1507.0,1512.0,1534.0,1485.0,1507.0,1513.0,0.0,0.0,0.0,0.0,0.0,0.0,0.0,0.0,0.0,0.0
141210146,8,1520.0,1491.0,1454.0,1557.0,1446.0,1566.0,0.0,0.0,0.0,0.0,0.0,0.0,0.0,0.0,0.0,0.0
141313790,8,1533.0,1483.0,1458.0,1559.0,1462.0,1555.0,0.0,0.0,0.0,0.0,0.0,0.0,0.0,0.0,0.0,0.0
141405725,8,1566.0,1446.0,1440.0,1572.0,1484.0,1528.0,0.0,0.0,0.0,0.0,0.0,0.0,0.0,0.0,0.0,0.0
141517735,8,1504.0,1510.0,1531.0,1482.0,1504.0,1509.0,0.0,0.0,0.0,0.0,0.0,0.0,0.0,0.0,0.0,0.0
141606169,8,1511.0,1507.0,1547.0,1471.0,1468.0,1550.0,0.0,0.0,0.0,0.0,0.0,0.0,0.0,0.0,0.0,0.0
141714178,8,1594.0,1417.0,1565.0,1446.0,1412.0,1599.0,0.0,0.0,0.0,0.0,0.0,0.0,0.0,0.0,0.0,0.0
141822166,8,1525.0,1476.0,1598.0,1403.0,1429.0,1572.0,0.0,0.0,0.0,0.0,0.0,0.0,0.0,0.0,0.0,0.0
141906001,8,1525.0,1456.0,1568.0,1413.0,1480.0,1501.0,0.0,0.0,0.0,0.0,0.0,0.0,0.0,0.0,0.0,0.0
142017955,8,1530.0,1465.0,1501.0,1495.0,1386.0,1609.0,0.0,0.0,0.0,0.0,0.0,0.0,0.0,0.0,0.0,0.0
142125742,8,1479.0,1537.0,1529.0,1487.0,1425.0,1591.0,0.0,0.0,0.0,0.0,0.0,0.0,0.0,0.0,0.0,0.0
142218151,8,1515.0,1500.0,1538.0,1478.0,1501.0,1515.0,0.0,0.0,0.0,0.0,0.0,0.0,0.0,0.0,0.0,0.0
142330167,8,1495.0,1514.0,1566.0,1443.0,1484.0,1525.0,0.0,0.0,0.0,0.0,0.0,0.0,0.0,0.0,0.0,0.0
142421770,8,1533.0,1472.0,1491.0,1514.0,1462.0,1543.0,0.0,0.0,0.0,0.0,0.0,0.0,0.0,0.0,0.0,0.0
142529914,8,1575.0,1430.0,1452.0,1554.0,1404.0,1602.0,0.0,0.0,0.0,0.0,0.0,0.0,0.0,0.0,0.0,0.0
142622683,8,1479.0,1533.0,1580.0,1431.0,1475.0,1536.0,0.0,0.0,0.0,0.0,0.0,0.0,0.0,0.0,0.0,0.0
143142551,8,1403.0,1598.0,1448.0,1554.0,1561.0,1440.0,0.0,0.0,0.0,0.0,0.0,0.0,0.0,0.0,0.0,0.0
143842757,8,1517.0,1493.0,1482.0,1528.0,1475.0,1536.0,0.0,0.0,0.0,0.0,0.0,0.0,0.0,0.0,0.0,0.0
143950581,8,1458.0,1560.0,1541.0,1477.0,1453.0,1565.0,0.0,0.0,0.0,0.0,0.0,0.0,0.0,0.0,0.0,0.0
144034620,8,1502.0,1518.0,1530.0,1490.0,1480.0,1541.0,0.0,0.0,0.0,0.0,0.0,0.0,0.0,0.0,0.0,0.0
144146563,8,1508.0,1516.0,1579.0,1445.0,1533.0,1491.0,0.0,0.0,0.0,0.0,0.0,0.0,0.0,0.0,0.0,0.0
144242032,8,1463.0,1565.0,1576.0,1451.0,1485.0,1542.0,0.0,0.0,0.0,0.0,0.0,0.0,0.0,0.0,0.0,0.0
144358551,8,1452.0,1600.0,1555.0,1498.0,1445.0,1608.0,0.0,0.0,0.0,0.0,0.0,0.0,0.0,0.0,0.0,0.0
144450977,8,1550.0,1490.0,1473.0,1567.0,1466.0,1574.0,0.0,0.0,0.0,0.0,0.0,0.0,0.0,0.0,0.0,0.0
144559763,8,1545.0,1473.0,1456.0,1563.0,1451.0,1567.0,0.0,0.0,0.0,0.0,0.0,0.0,0.0,0.0,0.0,0.0
144647370,8,1535.0,1492.0,1499.0,1529.0,1485.0,1543.0,0.0,0.0,0.0,0.0,0.0,0.0,0.0,0.0,0.0,0.0
144763359,8,1544.0,1469.0,1510.0,1504.0,1507.0,1506.0,0.0,0.0,0.0,0.0,0.0,0.0,0.0,0.0,0.0,0.0
144851374,8,1490.0,1515.0,1526.0,1479.0,1473.0,1532.0,0.0,0.0,0.0,0.0,0.0,0.0,0.0,0.0,0.0,0.0
144963404,8,1463.0,1562.0,1589.0,1436.0,1517.0,1508.0,0.0,0.0,0.0,0.0,0.0,0.0,0.0,0.0,0.0,0.0
145071531,8,1537.0,1492.0,1518.0,1510.0,1517.0,1512.0,0.0,0.0,0.0,0.0,0.0,0.0,0.0,0.0,0.0,0.0
145159484,8,1587.0,1449.0,1504.0,1532.0,1550.0,1486.0,0.0,0.0,0.0,0.0,0.0,0.0,0.0,0.0,0.0,0.0
145263573,8,1539.0,1496.0,1539.0,1496.0,1536.0,1498.0,0.0,0.0,0.0,0.0,0.0,0.0,0.0,0.0,0.0,0.0
145355390,8,1512.0,1517.0,1562.0,1467.0,1531.0,1498.0,0.0,0.0,0.0,0.0,0.0,0.0,0.0,0.0,0.0,0.0
145463350,8,1519.0,1507.0,1496.0,1530.0,1470.0,1555.0,0.0,0.0,0.0,0.0,0.0,0.0,0.0,0.0,0.0,0.0
145575349,8,1478.0,1545.0,1559.0,1463.0,1493.0,1529.0,0.0,0.0,0.0,0.0,0.0,0.0,0.0,0.0,0.0,0.0
145663490,8,1523.0,1496.0,1516.0,1503.0,1504.0,1514.0,0.0,0.0,0.0,0.0,0.0,0.0,0.0,0.0,0.0,0.0
145771552,8,1467.0,1562.0,1498.0,1531.0,1425.0,1604.0,0.0,0.0,0.0,0.0,0.0,0.0,0.0,0.0,0.0,0.0
145879564,8,1533.0,1509.0,1484.0,1557.0,1471.0,1570.0,0.0,0.0,0.0,0.0,0.0,0.0,0.0,0.0,0.0,0.0
145971357,8,1475.0,1544.0,1558.0,1461.0,1501.0,1518.0,0.0,0.0,0.0,0.0,0.0,0.0,0.0,0.0,0.0,0.0
146083357,8,1520.0,1508.0,1512.0,1517.0,1492.0,1536.0,0.0,0.0,0.0,0.0,0.0,0.0,0.0,0.0,0.0,0.0
146171551,8,1701.0,1298.0,1359.0,1639.0,1535.0,1463.0,0.0,0.0,0.0,0.0,0.0,0.0,0.0,0.0,0.0,0.0
146283357,8,1277.0,1715.0,1631.0,1360.0,1401.0,1591.0,0.0,0.0,0.0,0.0,0.0,0.0,0.0,0.0,0.0,0.0
146390731,8,1559.0,1387.0,1494.0,1452.0,1520.0,1426.0,0.0,0.0,0.0,0.0,0.0,0.0,0.0,0.0,0.0,0.0
146484284,8,1448.0,1493.0,1489.0,1452.0,1456.0,1484.0,0.0,0.0,0.0,0.0,0.0,0.0,0.0,0.0,0.0,0.0
146588188,8,1495.0,1512.0,1472.0,1535.0,1438.0,1569.0,0.0,0.0,0.0,0.0,0.0,0.0,0.0,0.0,0.0,0.0
146679341,8,1554.0,1465.0,1525.0,1494.0,1537.0,1482.0,0.0,0.0,0.0,0.0,0.0,0.0,0.0,0.0,0.0,0.0
146796175,8,1584.0,1445.0,1399.0,1630.0,1437.0,1592.0,0.0,0.0,0.0,0.0,0.0,0.0,0.0,0.0,0.0,0.0
146892400,8,1532.0,1495.0,1514.0,1512.0,1491.0,1535.0,0.0,0.0,0.0,0.0,0.0,0.0,0.0,0.0,0.0,0.0
146980393,8,1442.0,1581.0,1602.0,1421.0,1490.0,1532.0,0.0,0.0,0.0,0.0,0.0,0.0,0.0,0.0,0.0,0.0
147088297,8,1502.0,1529.0,1541.0,1490.0,1486.0,1545.0,0.0,0.0,0.0,0.0,0.0,0.0,0.0,0.0,0.0,0.0
147204176,8,1518.0,1491.0,1498.0,1512.0,1475.0,1535.0,0.0,0.0,0.0,0.0,0.0,0.0,0.0,0.0,0.0,0.0
147300170,8,1476.0,1516.0,1516.0,1476.0,1447.0,1545.0,0.0,0.0,0.0,0.0,0.0,0.0,0.0,0.0,0.0,0.0
147388163,8,1535.0,1454.0,1607.0,1382.0,1601.0,1387.0,0.0,0.0,0.0,0.0,0.0,0.0,0.0,0.0,0.0,0.0
147500139,8,1497.0,1513.0,1511.0,1500.0,1461.0,1550.0,0.0,0.0,0.0,0.0,0.0,0.0,0.0,0.0,0.0,0.0
147608186,8,1479.0,1527.0,1513.0,1493.0,1456.0,1551.0,0.0,0.0,0.0,0.0,0.0,0.0,0.0,0.0,0.0,0.0
147696315,8,1531.0,1478.0,1513.0,1497.0,1505.0,1505.0,0.0,0.0,0.0,0.0,0.0,0.0,0.0,0.0,0.0,0.0
147808202,8,1471.0,1541.0,1568.0,1445.0,1499.0,1513.0,0.0,0.0,0.0,0.0,0.0,0.0,0.0,0.0,0.0,0.0
147912424,8,1540.0,1470.0,1513.0,1497.0,1513.0,1497.0,0.0,0.0,0.0,0.0,0.0,0.0,0.0,0.0,0.0,0.0
148004288,8,1494.0,1523.0,1521.0,1496.0,1479.0,1537.0,0.0,0.0,0.0,0.0,0.0,0.0,0.0,0.0,0.0,0.0
148096382,8,1578.0,1446.0,1425.0,1600.0,1462.0,1563.0,0.0,0.0,0.0,0.0,0.0,0.0,0.0,0.0,0.0,0.0
148208133,8,1478.0,1552.0,1583.0,1447.0,1524.0,1506.0,0.0,0.0,0.0,0.0,0.0,0.0,0.0,0.0,0.0,0.0
148316163,8,1569.0,1474.0,1502.0,1542.0,1536.0,1508.0,0.0,0.0,0.0,0.0,0.0,0.0,0.0,0.0,0.0,0.0
148416370,8,1491.0,1581.0,1571.0,1502.0,1508.0,1565.0,0.0,0.0,0.0,0.0,0.0,0.0,0.0,0.0,0.0,0.0
148520568,8,1536.0,1500.0,1478.0,1558.0,1476.0,1560.0,0.0,0.0,0.0,0.0,0.0,0.0,0.0,0.0,0.0,0.0
148609192,8,1554.0,1448.0,1448.0,1555.0,1480.0,1522.0,0.0,0.0,0.0,0.0,0.0,0.0,0.0,0.0,0.0,0.0
148720133,8,1445.0,1553.0,1537.0,1461.0,1466.0,1532.0,0.0,0.0,0.0,0.0,0.0,0.0,0.0,0.0,0.0,0.0
148809434,8,1486.0,1518.0,1515.0,1489.0,1480.0,1524.0,0.0,0.0,0.0,0.0,0.0,0.0,0.0,0.0,0.0,0.0
148921069,8,1515.0,1492.0,1460.0,1547.0,1451.0,1556.0,0.0,0.0,0.0,0.0,0.0,0.0,0.0,0.0,0.0,0.0
149013224,8,1529.0,1481.0,1521.0,1489.0,1521.0,1489.0,0.0,0.0,0.0,0.0,0.0,0.0,0.0,0.0,0.0,0.0
149121147,8,1484.0,1534.0,1551.0,1467.0,1506.0,1512.0,0.0,0.0,0.0,0.0,0.0,0.0,0.0,0.0,0.0,0.0
149228978,8,1535.0,1475.0,1487.0,1523.0,1503.0,1507.0,0.0,0.0,0.0,0.0,0.0,0.0,0.0,0.0,0.0,0.0
149317062,8,1507.0,1502.0,1459.0,1551.0,1452.0,1558.0,0.0,0.0,0.0,0.0,0.0,0.0,0.0,0.0,0.0,0.0
149432970,8,1496.0,1517.0,1498.0,1514.0,1473.0,1540.0,0.0,0.0,0.0,0.0,0.0,0.0,0.0,0.0,0.0,0.0
149525369,8,1421.0,1592.0,1556.0,1457.0,1450.0,1563.0,0.0,0.0,0.0,0.0,0.0,0.0,0.0,0.0,0.0,0.0
149637125,8,1432.0,1565.0,1585.0,1412.0,1496.0,1501.0,0.0,0.0,0.0,0.0,0.0,0.0,0.0,0.0,0.0,0.0
149728954,8,1567.0,1437.0,1547.0,1457.0,1582.0,1422.0,0.0,0.0,0.0,0.0,0.0,0.0,0.0,0.0,0.0,0.0
149840976,8,1466.0,1565.0,1565.0,1467.0,1494.0,1538.0,0.0,0.0,0.0,0.0,0.0,0.0,0.0,0.0,0.0,0.0
149924974,8,1514.0,1526.0,1570.0,1471.0,1535.0,1506.0,0.0,0.0,0.0,0.0,0.0,0.0,0.0,0.0,0.0,0.0
150036956,8,1437.0,1609.0,1620.0,1426.0,1506.0,1540.0,0.0,0.0,0.0,0.0,0.0,0.0,0.0,0.0,0.0,0.0
150125144,8,1534.0,1505.0,1529.0,1510.0,1513.0,1527.0,0.0,0.0,0.0,0.0,0.0,0.0,0.0,0.0,0.0,0.0
150233150,8,1539.0,1476.0,1435.0,1580.0,1434.0,1581.0,0.0,0.0,0.0,0.0,0.0,0.0,0.0,0.0,0.0,0.0
150345215,8,1478.0,1532.0,1476.0,1534.0,1421.0,1589.0,0.0,0.0,0.0,0.0,0.0,0.0,0.0,0.0,0.0,0.0
150436979,8,1475.0,1535.0,1509.0,1501.0,1444.0,1566.0,0.0,0.0,0.0,0.0,0.0,0.0,0.0,0.0,0.0,0.0
150548981,8,1557.0,1457.0,1578.0,1435.0,1474.0,1540.0,0.0,0.0,0.0,0.0,0.0,0.0,0.0,0.0,0.0,0.0
150656965,8,1545.0,1457.0,1486.0,1516.0,1411.0,1590.0,0.0,0.0,0.0,0.0,0.0,0.0,0.0,0.0,0.0,0.0
150749434,8,1540.0,1458.0,1512.0,1487.0,1448.0,1550.0,0.0,0.0,0.0,0.0,0.0,0.0,0.0,0.0,0.0,0.0
150844991,8,1543.0,1459.0,1480.0,1523.0,1484.0,1518.0,0.0,0.0,0.0,0.0,0.0,0.0,0.0,0.0,0.0,0.0
150953782,8,1441.0,1565.0,1518.0,1489.0,1507.0,1500.0,0.0,0.0,0.0,0.0,0.0,0.0,0.0,0.0,0.0,0.0
151061739,8,1459.0,1544.0,1476.0,1527.0,1465.0,1538.0,0.0,0.0,0.0,0.0,0.0,0.0,0.0,0.0,0.0,0.0
151147467,8,1447.0,1555.0,1511.0,1492.0,1472.0,1531.0,0.0,0.0,0.0,0.0,0.0,0.0,0.0,0.0,0.0,0.0
151257922,8,1464.0,1547.0,1526.0,1485.0,1482.0,1529.0,0.0,0.0,0.0,0.0,0.0,0.0,0.0,0.0,0.0,0.0
151365749,8,1598.0,1428.0,1514.0,1511.0,1585.0,1440.0,0.0,0.0,0.0,0.0,0.0,0.0,0.0,0.0,0.0,0.0
151454185,8,1508.0,1568.0,1577.0,1498.0,1532.0,1544.0,0.0,0.0,0.0,0.0,0.0,0.0,0.0,0.0,0.0,0.0
151569777,8,1509.0,1549.0,1588.0,1470.0,1542.0,1517.0,0.0,0.0,0.0,0.0,0.0,0.0,0.0,0.0,0.0,0.0
151657957,8,1492.0,1556.0,1570.0,1478.0,1512.0,1536.0,0.0,0.0,0.0,0.0,0.0,0.0,0.0,0.0,0.0,0.0
151773776,8,1540.0,1467.0,1464.0,1543.0,1471.0,1536.0,0.0,0.0,0.0,0.0,0.0,0.0,0.0,0.0,0.0,0.0
151857897,8,1460.0,1548.0,1556.0,1452.0,1478.0,1529.0,0.0,0.0,0.0,0.0,0.0,0.0,0.0,0.0,0.0,0.0
151970176,8,1483.0,1553.0,1577.0,1459.0,1508.0,1528.0,0.0,0.0,0.0,0.0,0.0,0.0,0.0,0.0,0.0,0.0
152078215,8,1526.0,1520.0,1600.0,1446.0,1575.0,1471.0,0.0,0.0,0.0,0.0,0.0,0.0,0.0,0.0,0.0,0.0
152161966,8,1553.0,1494.0,1558.0,1489.0,1554.0,1494.0,0.0,0.0,0.0,0.0,0.0,0.0,0.0,0.0,0.0,0.0
152265761,8,1537.0,1508.0,1574.0,1471.0,1557.0,1487.0,0.0,0.0,0.0,0.0,0.0,0.0,0.0,0.0,0.0,0.0
152373767,8,1463.0,1554.0,1555.0,1462.0,1477.0,1539.0,0.0,0.0,0.0,0.0,0.0,0.0,0.0,0.0,0.0,0.0
152465998,8,1515.0,1507.0,1477.0,1546.0,1460.0,1563.0,0.0,0.0,0.0,0.0,0.0,0.0,0.0,0.0,0.0,0.0
152582169,8,1487.0,1538.0,1568.0,1458.0,1516.0,1509.0,0.0,0.0,0.0,0.0,0.0,0.0,0.0,0.0,0.0,0.0
152673770,8,1500.0,1533.0,1586.0,1447.0,1541.0,1492.0,0.0,0.0,0.0,0.0,0.0,0.0,0.0,0.0,0.0,0.0
152777727,8,1423.0,1586.0,1600.0,1409.0,1478.0,1531.0,0.0,0.0,0.0,0.0,0.0,0.0,0.0,0.0,0.0,0.0
152882028,8,1513.0,1487.0,1445.0,1555.0,1431.0,1569.0,0.0,0.0,0.0,0.0,0.0,0.0,0.0,0.0,0.0,0.0
152985996,8,1531.0,1474.0,1481.0,1524.0,1486.0,1519.0,0.0,0.0,0.0,0.0,0.0,0.0,0.0,0.0,0.0,0.0
153093906,8,1470.0,1548.0,1521.0,1497.0,1460.0,1541.0,0.0,0.0,0.0,0.0,0.0,0.0,0.0,0.0,0.0,0.0
153185912,8,1492.0,1531.0,1578.0,1445.0,1528.0,1495.0,0.0,0.0,0.0,0.0,0.0,0.0,0.0,0.0,0.0,0.0
153290769,8,1581.0,1440.0,1430.0,1591.0,1475.0,1545.0,0.0,0.0,0.0,0.0,0.0,0.0,0.0,0.0,0.0,0.0
153378771,8,1560.0,1467.0,1520.0,1506.0,1552.0,1475.0,0.0,0.0,0.0,0.0,0.0,0.0,0.0,0.0,0.0,0.0
153486817,8,1534.0,1494.0,1538.0,1490.0,1533.0,1495.0,0.0,0.0,0.0,0.0,0.0,0.0,0.0,0.0,0.0,0.0
153602551,8,1530.0,1480.0,1540.0,1470.0,1550.0,1460.0,0.0,0.0,0.0,0.0,0.0,0.0,0.0,0.0,0.0,0.0
153686541,8,1472.0,1535.0,1507.0,1499.0,1454.0,1552.0,0.0,0.0,0.0,0.0,0.0,0.0,0.0,0.0,0.0,0.0
153802724,8,1464.0,1567.0,1586.0,1445.0,1518.0,1512.0,0.0,0.0,0.0,0.0,0.0,0.0,0.0,0.0,0.0,0.0
153890729,8,1528.0,1504.0,1558.0,1474.0,1551.0,1481.0,0.0,0.0,0.0,0.0,0.0,0.0,0.0,0.0,0.0,0.0
153994576,8,1549.0,1463.0,1521.0,1491.0,1551.0,1461.0,0.0,0.0,0.0,0.0,0.0,0.0,0.0,0.0,0.0,0.0
154106820,8,1532.0,1485.0,1515.0,1502.0,1528.0,1489.0,0.0,0.0,0.0,0.0,0.0,0.0,0.0,0.0,0.0,0.0
154198577,8,1502.0,1513.0,1489.0,1526.0,1473.0,1542.0,0.0,0.0,0.0,0.0,0.0,0.0,0.0,0.0,0.0,0.0
154302746,8,1445.0,1562.0,1529.0,1478.0,1464.0,1544.0,0.0,0.0,0.0,0.0,0.0,0.0,0.0,0.0,0.0,0.0
154410792,8,1529.0,1485.0,1480.0,1534.0,1493.0,1521.0,0.0,0.0,0.0,0.0,0.0,0.0,0.0,0.0,0.0,0.0
154518556,8,1502.0,1524.0,1535.0,1490.0,1483.0,1543.0,0.0,0.0,0.0,0.0,0.0,0.0,0.0,0.0,0.0,0.0
154602563,8,1533.0,1503.0,1502.0,1533.0,1499.0,1536.0,0.0,0.0,0.0,0.0,0.0,0.0,0.0,0.0,0.0,0.0
154718782,8,1497.0,1521.0,1549.0,1470.0,1512.0,1506.0,0.0,0.0,0.0,0.0,0.0,0.0,0.0,0.0,0.0,0.0
154806692,8,1505.0,1519.0,1537.0,1487.0,1508.0,1516.0,0.0,0.0,0.0,0.0,0.0,0.0,0.0,0.0,0.0,0.0
154914693,8,1550.0,1473.0,1481.0,1542.0,1486.0,1537.0,0.0,0.0,0.0,0.0,0.0,0.0,0.0,0.0,0.0,0.0
155026534,8,1396.0,1627.0,1597.0,1427.0,1465.0,1559.0,0.0,0.0,0.0,0.0,0.0,0.0,0.0,0.0,0.0,0.0
155118779,8,1571.0,1451.0,1508.0,1515.0,1552.0,1470.0,0.0,0.0,0.0,0.0,0.0,0.0,0.0,0.0,0.0,0.0
155226682,8,1593.0,1436.0,1433.0,1596.0,1499.0,1530.0,0.0,0.0,0.0,0.0,0.0,0.0,0.0,0.0,0.0,0.0
155334567,8,1513.0,1526.0,1567.0,1472.0,1534.0,1504.0,0.0,0.0,0.0,0.0,0.0,0.0,0.0,0.0,0.0,0.0
155422568,8,1536.0,1501.0,1521.0,1517.0,1519.0,1519.0,0.0,0.0,0.0,0.0,0.0,0.0,0.0,0.0,0.0,0.0
155535743,8,1582.0,1465.0,1501.0,1546.0,1528.0,1519.0,0.0,0.0,0.0,0.0,0.0,0.0,0.0,0.0,0.0,0.0
155627507,8,1520.0,1519.0,1473.0,1566.0,1456.0,1583.0,0.0,0.0,0.0,0.0,0.0,0.0,0.0,0.0,0.0,0.0
155739339,8,1526.0,1475.0,1463.0,1537.0,1478.0,1522.0,0.0,0.0,0.0,0.0,0.0,0.0,0.0,0.0,0.0,0.0
155831326,8,1540.0,1474.0,1485.0,1528.0,1509.0,1504.0,0.0,0.0,0.0,0.0,0.0,0.0,0.0,0.0,0.0,0.0
155939380,8,1523.0,1509.0,1546.0,1486.0,1547.0,1486.0,0.0,0.0,0.0,0.0,0.0,0.0,0.0,0.0,0.0,0.0
156027359,8,1533.0,1494.0,1478.0,1548.0,1492.0,1535.0,0.0,0.0,0.0,0.0,0.0,0.0,0.0,0.0,0.0,0.0
156143383,8,1456.0,1566.0,1526.0,1497.0,1456.0,1567.0,0.0,0.0,0.0,0.0,0.0,0.0,0.0,0.0,0.0,0.0
156231380,8,1550.0,1473.0,1477.0,1546.0,1500.0,1523.0,0.0,0.0,0.0,0.0,0.0,0.0,0.0,0.0,0.0,0.0
156335360,8,1444.0,1573.0,1564.0,1453.0,1478.0,1538.0,0.0,0.0,0.0,0.0,0.0,0.0,0.0,0.0,0.0,0.0
156439368,8,1555.0,1456.0,1451.0,1561.0,1477.0,1534.0,0.0,0.0,0.0,0.0,0.0,0.0,0.0,0.0,0.0,0.0
156543792,8,1543.0,1471.0,1467.0,1547.0,1494.0,1521.0,0.0,0.0,0.0,0.0,0.0,0.0,0.0,0.0,0.0,0.0
156655331,8,1467.0,1551.0,1557.0,1461.0,1507.0,1511.0,0.0,0.0,0.0,0.0,0.0,0.0,0.0,0.0,0.0,0.0
156739367,8,1511.0,1514.0,1509.0,1516.0,1500.0,1525.0,0.0,0.0,0.0,0.0,0.0,0.0,0.0,0.0,0.0,0.0
156847415,8,1551.0,1472.0,1452.0,1571.0,1493.0,1531.0,0.0,0.0,0.0,0.0,0.0,0.0,0.0,0.0,0.0,0.0
156959575,8,1510.0,1501.0,1562.0,1449.0,1558.0,1454.0,0.0,0.0,0.0,0.0,0.0,0.0,0.0,0.0,0.0,0.0
157051577,8,1541.0,1468.0,1499.0,1510.0,1533.0,1476.0,0.0,0.0,0.0,0.0,0.0,0.0,0.0,0.0,0.0,0.0
157159342,8,1465.0,1541.0,1524.0,1481.0,1485.0,1521.0,0.0,0.0,0.0,0.0,0.0,0.0,0.0,0.0,0.0,0.0
157247358,8,1536.0,1471.0,1462.0,1545.0,1500.0,1507.0,0.0,0.0,0.0,0.0,0.0,0.0,0.0,0.0,0.0,0.0
157359549,8,1540.0,1473.0,1493.0,1520.0,1524.0,1489.0,0.0,0.0,0.0,0.0,0.0,0.0,0.0,0.0,0.0,0.0
157463592,8,1483.0,1536.0,1554.0,1465.0,1522.0,1497.0,0.0,0.0,0.0,0.0,0.0,0.0,0.0,0.0,0.0,0.0
157551829,8,1484.0,1536.0,1498.0,1522.0,1466.0,1554.0,0.0,0.0,0.0,0.0,0.0,0.0,0.0,0.0,0.0,0.0
157663337,8,1628.0,1412.0,1485.0,1555.0,1585.0,1455.0,0.0,0.0,0.0,0.0,0.0,0.0,0.0,0.0,0.0,0.0
157771367,8,1504.0,1548.0,1571.0,1481.0,1534.0,1518.0,0.0,0.0,0.0,0.0,0.0,0.0,0.0,0.0,0.0,0.0
157862713,8,1468.0,1565.0,1583.0,1449.0,1521.0,1511.0,0.0,0.0,0.0,0.0,0.0,0.0,0.0,0.0,0.0,0.0
157972325,8,1560.0,1479.0,1504.0,1535.0,1536.0,1503.0,0.0,0.0,0.0,0.0,0.0,0.0,0.0,0.0,0.0,0.0
158080148,8,1535.0,1491.0,1473.0,1553.0,1501.0,1525.0,0.0,0.0,0.0,0.0,0.0,0.0,0.0,0.0,0.0,0.0
158164178,8,1454.0,1546.0,1570.0,1430.0,1513.0,1488.0,0.0,0.0,0.0,0.0,0.0,0.0,0.0,0.0,0.0,0.0
158280348,8,1513.0,1492.0,1520.0,1485.0,1536.0,1468.0,0.0,0.0,0.0,0.0,0.0,0.0,0.0,0.0,0.0,0.0
158372309,8,1480.0,1539.0,1532.0,1486.0,1510.0,1509.0,0.0,0.0,0.0,0.0,0.0,0.0,0.0,0.0,0.0,0.0
158484563,8,1453.0,1575.0,1576.0,1451.0,1506.0,1522.0,0.0,0.0,0.0,0.0,0.0,0.0,0.0,0.0,0.0,0.0
158576178,8,1406.0,1628.0,1513.0,1522.0,1400.0,1634.0,0.0,0.0,0.0,0.0,0.0,0.0,0.0,0.0,0.0,0.0
158680374,8,1479.0,1563.0,1565.0,1478.0,1516.0,1527.0,0.0,0.0,0.0,0.0,0.0,0.0,0.0,0.0,0.0,0.0
158772569,8,1516.0,1520.0,1602.0,1434.0,1588.0,1449.0,0.0,0.0,0.0,0.0,0.0,0.0,0.0,0.0,0.0,0.0
158884376,8,1473.0,1548.0,1559.0,1463.0,1512.0,1509.0,0.0,0.0,0.0,0.0,0.0,0.0,0.0,0.0,0.0,0.0
158992372,8,1495.0,1491.0,1475.0,1511.0,1472.0,1514.0,0.0,0.0,0.0,0.0,0.0,0.0,0.0,0.0,0.0,0.0
159100296,8,1414.0,1593.0,1572.0,1435.0,1476.0,1532.0,0.0,0.0,0.0,0.0,0.0,0.0,0.0,0.0,0.0,0.0
159188175,8,1541.0,1479.0,1489.0,1532.0,1514.0,1507.0,0.0,0.0,0.0,0.0,0.0,0.0,0.0,0.0,0.0,0.0
159300276,8,1473.0,1552.0,1529.0,1496.0,1489.0,1537.0,0.0,0.0,0.0,0.0,0.0,0.0,0.0,0.0,0.0,0.0
159392169,8,1506.0,1509.0,1501.0,1514.0,1500.0,1515.0,0.0,0.0,0.0,0.0,0.0,0.0,0.0,0.0,0.0,0.0
159500161,8,1436.0,1589.0,1566.0,1458.0,1481.0,1544.0,0.0,0.0,0.0,0.0,0.0,0.0,0.0,0.0,0.0,0.0
159608182,8,1565.0,1460.0,1461.0,1564.0,1502.0,1523.0,0.0,0.0,0.0,0.0,0.0,0.0,0.0,0.0,0.0,0.0
159700327,8,1558.0,1438.0,1419.0,1576.0,1468.0,1527.0,0.0,0.0,0.0,0.0,0.0,0.0,0.0,0.0,0.0,0.0
159792392,8,1530.0,1484.0,1519.0,1494.0,1518.0,1496.0,0.0,0.0,0.0,0.0,0.0,0.0,0.0,0.0,0.0,0.0
159904166,8,1423.0,1602.0,1570.0,1456.0,1458.0,1567.0,0.0,0.0,0.0,0.0,0.0,0.0,0.0,0.0,0.0,0.0
159992161,8,1547.0,1494.0,1519.0,1523.0,1515.0,1526.0,0.0,0.0,0.0,0.0,0.0,0.0,0.0,0.0,0.0,0.0
160108322,8,1505.0,1529.0,1538.0,1496.0,1496.0,1538.0,0.0,0.0,0.0,0.0,0.0,0.0,0.0,0.0,0.0,0.0
160200139,8,1532.0,1496.0,1490.0,1537.0,1479.0,1549.0,0.0,0.0,0.0,0.0,0.0,0.0,0.0,0.0,0.0,0.0
160317147,8,1574.0,1529.0,1500.0,1604.0,1495.0,1608.0,0.0,0.0,0.0,0.0,0.0,0.0,0.0,0.0,0.0,0.0
160400968,8,1576.0,1483.0,1506.0,1553.0,1530.0,1529.0,0.0,0.0,0.0,0.0,0.0,0.0,0.0,0.0,0.0,0.0
160509173,8,1479.0,1535.0,1494.0,1520.0,1444.0,1570.0,0.0,0.0,0.0,0.0,0.0,0.0,0.0,0.0,0.0,0.0
160620969,8,1557.0,1458.0,1457.0,1558.0,1488.0,1527.0,0.0,0.0,0.0,0.0,0.0,0.0,0.0,0.0,0.0,0.0
160729095,8,1462.0,1560.0,1571.0,1451.0,1493.0,1560.0,0.0,0.0,0.0,0.0,0.0,0.0,0.0,0.0,0.0,0.0
160821136,8,1613.0,1404.0,1473.0,1545.0,1546.0,1471.0,0.0,0.0,0.0,0.0,0.0,0.0,0.0,0.0,0.0,0.0
160912952,8,1473.0,1536.0,1582.0,1427.0,1516.0,1494.0,0.0,0.0,0.0,0.0,0.0,0.0,0.0,0.0,0.0,0.0
161025127,8,1520.0,1494.0,1570.0,1444.0,1559.0,1455.0,0.0,0.0,0.0,0.0,0.0,0.0,0.0,0.0,0.0,0.0
161133132,8,1542.0,1479.0,1499.0,1522.0,1514.0,1506.0,0.0,0.0,0.0,0.0,0.0,0.0,0.0,0.0,0.0,0.0
161221363,8,1558.0,1482.0,1559.0,1480.0,1575.0,1465.0,0.0,0.0,0.0,0.0,0.0,0.0,0.0,0.0,0.0,0.0
161333087,8,1602.0,1438.0,1477.0,1563.0,1543.0,1497.0,0.0,0.0,0.0,0.0,0.0,0.0,0.0,0.0,0.0,0.0
161424939,8,1483.0,1557.0,1556.0,1484.0,1504.0,1536.0,0.0,0.0,0.0,0.0,0.0,0.0,0.0,0.0,0.0,0.0
161529196,8,1474.0,1563.0,1631.0,1406.0,1561.0,1476.0,0.0,0.0,0.0,0.0,0.0,0.0,0.0,0.0,0.0,0.0
161641167,8,1514.0,1537.0,1508.0,1543.0,1480.0,1571.0,0.0,0.0,0.0,0.0,0.0,0.0,0.0,0.0,0.0,0.0
161728930,8,1583.0,1471.0,1501.0,1553.0,1536.0,1518.0,0.0,0.0,0.0,0.0,0.0,0.0,0.0,0.0,0.0,0.0
161848972,8,1525.0,1503.0,1516.0,1512.0,1511.0,1517.0,0.0,0.0,0.0,0.0,0.0,0.0,0.0,0.0,0.0,0.0
161941341,8,1529.0,1493.0,1539.0,1482.0,1531.0,1491.0,0.0,0.0,0.0,0.0,0.0,0.0,0.0,0.0,0.0,0.0
162033206,8,1522.0,1510.0,1523.0,1509.0,1509.0,1523.0,0.0,0.0,0.0,0.0,0.0,0.0,0.0,0.0,0.0,0.0
162149169,8,1473.0,1547.0,1517.0,1503.0,1457.0,1563.0,0.0,0.0,0.0,0.0,0.0,0.0,0.0,0.0,0.0,0.0
162257122,8,1530.0,1499.0,1553.0,1477.0,1542.0,1488.0,0.0,0.0,0.0,0.0,0.0,0.0,0.0,0.0,0.0,0.0
162340958,8,1556.0,1480.0,1510.0,1525.0,1519.0,1517.0,0.0,0.0,0.0,0.0,0.0,0.0,0.0,0.0,0.0,0.0
162457203,8,1601.0,1433.0,1487.0,1547.0,1541.0,1492.0,0.0,0.0,0.0,0.0,0.0,0.0,0.0,0.0,0.0,0.0
162545238,8,1512.0,1522.0,1498.0,1536.0,1462.0,1572.0,0.0,0.0,0.0,0.0,0.0,0.0,0.0,0.0,0.0,0.0
162660282,8,1483.0,1528.0,1527.0,1484.0,1473.0,1538.0,0.0,0.0,0.0,0.0,0.0,0.0,0.0,0.0,0.0,0.0
162749809,8,1428.0,1584.0,1556.0,1456.0,1445.0,1567.0,0.0,0.0,0.0,0.0,0.0,0.0,0.0,0.0,0.0,0.0
162865738,8,1527.0,1522.0,1461.0,1588.0,1435.0,1614.0,0.0,0.0,0.0,0.0,0.0,0.0,0.0,0.0,0.0,0.0
162949974,8,1527.0,1516.0,1502.0,1540.0,1478.0,1564.0,0.0,0.0,0.0,0.0,0.0,0.0,0.0,0.0,0.0,0.0
163061720,8,1543.0,1481.0,1464.0,1559.0,1460.0,1563.0,0.0,0.0,0.0,0.0,0.0,0.0,0.0,0.0,0.0,0.0
163165888,8,1494.0,1534.0,1481.0,1546.0,1415.0,1613.0,0.0,0.0,0.0,0.0,0.0,0.0,0.0,0.0,0.0,0.0
163269794,8,1493.0,1532.0,1467.0,1558.0,1418.0,1608.0,0.0,0.0,0.0,0.0,0.0,0.0,0.0,0.0,0.0,0.0
163374109,8,1601.0,1416.0,1450.0,1567.0,1510.0,1506.0,0.0,0.0,0.0,0.0,0.0,0.0,0.0,0.0,0.0,0.0
163461883,8,1403.0,1608.0,1584.0,1426.0,1449.0,1562.0,0.0,0.0,0.0,0.0,0.0,0.0,0.0,0.0,0.0,0.0
163569892,8,1403.0,1607.0,1527.0,1482.0,1390.0,1619.0,0.0,0.0,0.0,0.0,0.0,0.0,0.0,0.0,0.0,0.0
163677814,8,1535.0,1495.0,1500.0,1530.0,1478.0,1551.0,0.0,0.0,0.0,0.0,0.0,0.0,0.0,0.0,0.0,0.0
163770172,8,1503.0,1531.0,1498.0,1537.0,1441.0,1594.0,0.0,0.0,0.0,0.0,0.0,0.0,0.0,0.0,0.0,0.0
163861731,8,1492.0,1537.0,1489.0,1540.0,1428.0,1601.0,0.0,0.0,0.0,0.0,0.0,0.0,0.0,0.0,0.0,0.0
163965855,8,1464.0,1555.0,1571.0,1448.0,1487.0,1532.0,0.0,0.0,0.0,0.0,0.0,0.0,0.0,0.0,0.0,0.0
164077782,8,1561.0,1466.0,1493.0,1534.0,1502.0,1525.0,0.0,0.0,0.0,0.0,0.0,0.0,0.0,0.0,0.0,0.0
164185921,8,1530.0,1489.0,1485.0,1534.0,1467.0,1552.0,0.0,0.0,0.0,0.0,0.0,0.0,0.0,0.0,0.0,0.0
164269886,8,1479.0,1529.0,1517.0,1491.0,1456.0,1552.0,0.0,0.0,0.0,0.0,0.0,0.0,0.0,0.0,0.0,0.0
164382211,8,1580.0,1434.0,1444.0,1570.0,1484.0,1530.0,0.0,0.0,0.0,0.0,0.0,0.0,0.0,0.0,0.0,0.0
164490212,8,1520.0,1510.0,1533.0,1497.0,1496.0,1534.0,0.0,0.0,0.0,0.0,0.0,0.0,0.0,0.0,0.0,0.0
164573775,8,1493.0,1541.0,1573.0,1461.0,1511.0,1523.0,0.0,0.0,0.0,0.0,0.0,0.0,0.0,0.0,0.0,0.0
164681773,8,1580.0,1444.0,1463.0,1561.0,1495.0,1529.0,0.0,0.0,0.0,0.0,0.0,0.0,0.0,0.0,0.0,0.0
164785981,8,1527.0,1502.0,1475.0,1554.0,1456.0,1573.0,0.0,0.0,0.0,0.0,0.0,0.0,0.0,0.0,0.0,0.0
164894178,8,1491.0,1547.0,1616.0,1422.0,1545.0,1493.0,0.0,0.0,0.0,0.0,0.0,0.0,0.0,0.0,0.0,0.0
164981981,8,1482.0,1552.0,1609.0,1425.0,1536.0,1498.0,0.0,0.0,0.0,0.0,0.0,0.0,0.0,0.0,0.0,0.0
165098776,8,1521.0,1506.0,1579.0,1447.0,1477.0,1549.0,0.0,0.0,0.0,0.0,0.0,0.0,0.0,0.0,0.0,0.0
165186563,8,1547.0,1480.0,1636.0,1390.0,1495.0,1531.0,0.0,0.0,0.0,0.0,0.0,0.0,0.0,0.0,0.0,0.0
165296305,8,1569.0,1452.0,1558.0,1463.0,1409.0,1612.0,0.0,0.0,0.0,0.0,0.0,0.0,0.0,0.0,0.0,0.0
165386758,8,1508.0,1503.0,1569.0,1443.0,1445.0,1567.0,0.0,0.0,0.0,0.0,0.0,0.0,0.0,0.0,0.0,0.0
165494748,8,1566.0,1437.0,1513.0,1490.0,1454.0,1549.0,0.0,0.0,0.0,0.0,0.0,0.0,0.0,0.0,0.0,0.0
165602602,8,1545.0,1457.0,1469.0,1532.0,1524.0,1478.0,0.0,0.0,0.0,0.0,0.0,0.0,0.0,0.0,0.0,0.0
165710768,8,1444.0,1555.0,1493.0,1506.0,1527.0,1472.0,0.0,0.0,0.0,0.0,0.0,0.0,0.0,0.0,0.0,0.0
165802780,8,1473.0,1529.0,1504.0,1498.0,1538.0,1464.0,0.0,0.0,0.0,0.0,0.0,0.0,0.0,0.0,0.0,0.0
165910771,8,1466.0,1543.0,1458.0,1550.0,1459.0,1549.0,0.0,0.0,0.0,0.0,0.0,0.0,0.0,0.0,0.0,0.0
165998705,8,1438.0,1573.0,1520.0,1491.0,1474.0,1536.0,0.0,0.0,0.0,0.0,0.0,0.0,0.0,0.0,0.0,0.0
166103014,8,1502.0,1512.0,1485.0,1530.0,1485.0,1529.0,0.0,0.0,0.0,0.0,0.0,0.0,0.0,0.0,0.0,0.0
166214737,8,1486.0,1533.0,1592.0,1427.0,1551.0,1467.0,0.0,0.0,0.0,0.0,0.0,0.0,0.0,0.0,0.0,0.0
166302576,8,1495.0,1532.0,1464.0,1563.0,1432.0,1595.0,0.0,0.0,0.0,0.0,0.0,0.0,0.0,0.0,0.0,0.0
166418561,8,1548.0,1499.0,1469.0,1578.0,1501.0,1547.0,0.0,0.0,0.0,0.0,0.0,0.0,0.0,0.0,0.0,0.0
166510660,8,1578.0,1472.0,1450.0,1600.0,1475.0,1576.0,0.0,0.0,0.0,0.0,0.0,0.0,0.0,0.0,0.0,0.0
166602796,8,1560.0,1487.0,1467.0,1579.0,1481.0,1566.0,0.0,0.0,0.0,0.0,0.0,0.0,0.0,0.0,0.0,0.0
