timestamp,rollspeed,pitchspeed,yawspeed,rollspeed_integ,pitchspeed_integ,yawspeed_integ,additional_integ1
100833672,0.00010032351,0.00086369854,-0.0015465003,0.0,0.0,0.0,0.0
100865630,0.0006733668,0.00066349853,0.00013178174,0.0,0.0,0.0,0.0
100897620,0.00093887025,0.0012065084,-0.00073719013,0.0,0.0,0.0,0.0
100929659,1.3354293e-06,0.00022128117,-0.0015439473,0.0,0.0,0.0,0.0
100961673,0.002195368,0.001405538,-0.0011580288,0.0,0.0,0.0,0.0
100993659,0.0015006455,0.0006195463,-0.0010972767,0.0,0.0,0.0,0.0
101021684,0.0012589565,0.0011006943,-0.0012370967,0.0,0.0,0.0,0.0
101053643,-0.00046754873,0.0006109212,-0.0011885425,0.0,0.0,0.0,0.0
101085618,0.00080376863,0.00045016163,-0.00028315923,0.0,0.0,0.0,0.0
101117658,-0.0013051333,0.001528008,-8.8376866e-05,0.0,0.0,0.0,0.0
101149661,0.00026454125,0.0010229636,-0.001890802,0.0,0.0,0.0,0.0
101181681,-3.5962672e-05,-0.00011506694,-0.0003841602,0.0,0.0,0.0,0.0
101213634,-0.00085149927,-0.00074460544,-0.0016910271,0.0,0.0,0.0,0.0
101245665,0.00015109546,0.0002668117,-0.00038834082,0.0,0.0,0.0,0.0
101277656,-0.00041789433,0.0009057641,0.00047507207,0.0,0.0,0.0,0.0
101309668,0.0001920946,0.0013277765,-0.0011952613,0.0,0.0,0.0,0.0
101341612,-0.00074357656,0.00065420434,-0.0010786937,0.0,0.0,0.0,0.0
101373697,-0.0003923548,-0.0007222393,-0.00057697605,0.0,0.0,0.0,0.0
101405665,-0.00026424034,0.00079086935,-0.00083932804,0.0,0.0,0.0,0.0
101437684,0.00045683692,-3.871281e-05,-0.001934598,0.0,0.0,0.0,0.0
101469632,-0.0017724892,0.0008135905,-0.0003241715,0.0,0.0,0.0,0.0
101501634,-0.00013679775,0.0011151503,-0.0014686816,0.0,0.0,0.0,0.0
101533642,0.0014228609,0.0008753495,6.096426e-05,0.0,0.0,0.0,0.0
101565622,-0.00039146465,0.00035997937,-0.0010537127,0.0,0.0,0.0,0.0
101597625,-0.0006881944,0.00021339167,-0.0014171004,0.0,0.0,0.0,0.0
101629643,4.8045164e-05,0.00031526433,-0.0010850609,0.0,0.0,0.0,0.0
101661650,-0.0013222037,0.0025627753,-0.00062042696,0.0,0.0,0.0,0.0
101693631,0.0011100554,0.00013366638,-0.0008007774,0.0,0.0,0.0,0.0
101721665,-4.3081323e-05,-0.00020002353,0.0002343725,0.0,0.0,0.0,0.0
101753631,0.0002977649,0.0009906959,-0.0018533269,0.0,0.0,0.0,0.0
101785612,-2.445381e-05,0.00077289797,-0.00078908267,0.0,0.0,0.0,0.0
101817657,0.0012839709,-6.914593e-05,-0.00023409686,0.0,0.0,0.0,0.0
101849658,-0.0011910817,0.00075163064,-0.0010860483,0.0,0.0,0.0,0.0
101881619,-0.00035397027,0.00045348576,-0.0005415959,0.0,0.0,0.0,0.0
101913631,-0.00014812585,0.0012210018,-0.0025446867,0.0,0.0,0.0,0.0
101945653,0.00035239581,0.0006252909,-8.778699e-05,0.0,0.0,0.0,0.0
101976827,-0.0004313104,0.000105783314,-0.00061898446,0.0,0.0,0.0,0.0
102008904,-0.0005553713,0.00026080597,-0.0022957865,0.0,0.0,0.0,0.0
102038496,0.00044218294,0.0010510589,-0.0010152719,0.0,0.0,0.0,0.0
102070439,0.00027130477,6.325013e-05,6.2266656e-05,0.0,0.0,0.0,0.0
102102459,-0.00017543687,0.0010531002,-7.3366566e-05,0.0,0.0,0.0,0.0
102134420,-0.0005785009,-0.0003732139,-0.00043915206,0.0,0.0,0.0,0.0
102166489,-0.0006994145,0.00080198515,-0.0004352096,0.0,0.0,0.0,0.0
102198412,-0.00018675545,0.00062484597,-0.000784038,0.0,0.0,0.0,0.0
102230453,0.0008074272,0.0004487018,-0.0004538514,0.0,0.0,0.0,0.0
102262428,-0.00026140327,-0.00017175346,-0.00069341593,0.0,0.0,0.0,0.0
102294540,0.0004782905,0.0013162659,-0.00089290534,0.0,0.0,0.0,0.0
102326427,1.3732206e-05,-2.1609681e-05,-0.0008999357,0.0,0.0,0.0,0.0
102358412,0.00016537141,0.00076611305,-0.00091862306,0.0,0.0,0.0,0.0
102390446,-0.0004838767,-0.0002722111,-0.0011474813,0.0,0.0,0.0,0.0
102422450,-0.00088463735,0.0019758744,-0.0009529744,0.0,0.0,0.0,0.0
102454431,-0.00021371973,0.0012981058,-0.00088143477,0.0,0.0,0.0,0.0
102486422,-0.00044719473,0.00086258294,-0.00027589357,0.0,0.0,0.0,0.0
102518464,0.00025888643,0.0007870188,-0.0017600493,0.0,0.0,0.0,0.0
102550460,-0.0001769043,0.0012169802,-0.0008140644,0.0,0.0,0.0,0.0
102582421,0.0013830501,0.0011094463,-0.0010874378,0.0,0.0,0.0,0.0
102614414,0.00047720672,0.0002534045,-0.00020063334,0.0,0.0,0.0,0.0
102646456,-0.00084391225,-6.9860806e-05,-0.0014065125,0.0,0.0,0.0,0.0
102678451,-0.0010995644,0.000462146,-0.0016788363,0.0,0.0,0.0,0.0
102710489,0.00011104391,0.0002753715,-0.00053343456,0.0,0.0,0.0,0.0
102742437,-0.0017990815,0.00071271986,-0.0009332653,0.0,0.0,0.0,0.0
102774438,0.0010721063,0.0009154787,0.00022085075,0.0,0.0,0.0,0.0
102806460,-0.00019939762,-0.0007619642,-0.00016458181,0.0,0.0,0.0,0.0
102838501,-0.00019838213,0.00012860232,-0.00044708175,0.0,0.0,0.0,0.0
102870412,0.0011242185,0.0011546254,-0.002069422,0.0,0.0,0.0,0.0
102902453,0.000675934,0.0015527487,-0.0018969828,0.0,0.0,0.0,0.0
102934450,-0.00044218643,0.0008692464,-0.0015237804,0.0,0.0,0.0,0.0
102966465,0.00037360567,0.0005936986,-0.00044757675,0.0,0.0,0.0,0.0
102998422,-0.0008073333,-0.00029213206,-0.00040963315,0.0,0.0,0.0,0.0
103030427,-0.00091627165,0.0013492357,-0.0022413728,0.0,0.0,0.0,0.0
103058412,-0.0011660772,0.00068241067,-0.0010291416,0.0,0.0,0.0,0.0
103090484,0.00067333307,0.0007120175,-0.0006407412,0.0,0.0,0.0,0.0
103122449,-0.0005059926,0.0009020561,-0.0004340301,0.0,0.0,0.0,0.0
103154441,-0.0004560161,0.0007686174,0.00017544674,0.0,0.0,0.0,0.0
103186413,-0.00043304605,0.0008890995,-0.00032202582,0.0,0.0,0.0,0.0
103217664,0.0005743306,-0.00011050116,-0.00033135136,0.0,0.0,0.0,0.0
103250450,0.0005116808,-0.0011863807,-0.00038572738,0.0,0.0,0.0,0.0
103282522,-0.00037048446,0.000781607,-0.0014890056,0.0,0.0,0.0,0.0
103309697,-0.0005018049,0.00016887835,7.1990245e-05,0.0,0.0,0.0,0.0
103342455,-6.529858e-05,0.0010850658,-0.0005261229,0.0,0.0,0.0,0.0
103374411,-7.20551e-05,9.6517324e-05,0.0009415897,0.0,0.0,0.0,0.0
103407232,0.0003668993,0.0008051352,0.00046774466,0.0,0.0,0.0,0.0
103439253,-0.0009025759,-0.00047497803,-0.00044710696,0.0,0.0,0.0,0.0
103471255,-0.00090456335,0.00019015343,-0.00035869022,0.0,0.0,0.0,0.0
103502422,-0.0008901841,-0.00072516,-0.0016559549,0.0,0.0,0.0,0.0
103531233,0.001367046,0.0007504402,0.00020294066,0.0,0.0,0.0,0.0
103563218,-0.0008285438,0.000332419,-0.0009856434,0.0,0.0,0.0,0.0
103595216,-0.0012187058,-0.00034742084,-0.0009207105,0.0,0.0,0.0,0.0
103627246,0.00096029445,0.0006440885,-0.0014046128,0.0,0.0,0.0,0.0
103659226,0.0003521092,0.0005774047,-0.0013332565,0.0,0.0,0.0,0.0
103691223,0.0003825954,0.00014496085,-0.0012297353,0.0,0.0,0.0,0.0
103723219,0.0014633494,0.0019436958,-0.0017532886,0.0,0.0,0.0,0.0
103755292,0.0010308737,-0.00088941806,-0.0005646074,0.0,0.0,0.0,0.0
103783291,-0.0010728699,0.0007176227,-0.00029692295,0.0,0.0,0.0,0.0
103815254,-0.0008969973,0.00085008587,-0.00074406073,0.0,0.0,0.0,0.0
103847220,-7.021113e-05,2.757588e-06,-0.0010344739,0.0,0.0,0.0,0.0
103879215,-0.00085274526,0.00088798883,-0.00187399,0.0,0.0,0.0,0.0
103911212,-0.00048170105,-0.00089882524,-0.000999237,0.0,0.0,0.0,0.0
103943325,-0.0005496178,0.00030009123,0.00031005865,0.0,0.0,0.0,0.0
103975221,0.00080824987,0.00045140344,-0.0010609222,0.0,0.0,0.0,0.0
104007273,-0.00011844386,0.00023556946,-0.000104176666,0.0,0.0,0.0,0.0
104035225,-0.0005876637,0.0012106135,-0.0007995843,0.0,0.0,0.0,0.0
104067228,-0.00018290266,-0.00029806286,-6.0449704e-05,0.0,0.0,0.0,0.0
104099217,-3.549359e-05,-0.0010607735,-0.0010362088,0.0,0.0,0.0,0.0
104131260,3.1165226e-05,0.0010167389,-0.0012098119,0.0,0.0,0.0,0.0
104163227,-5.913171e-07,0.00010367832,-0.0005901161,0.0,0.0,0.0,0.0
104195251,3.884759e-05,0.0016362696,-0.0011924473,0.0,0.0,0.0,0.0
104227225,0.00010831444,-0.00047190144,-0.000979316,0.0,0.0,0.0,0.0
104259322,-0.0006399869,0.00019975088,-0.00059540424,0.0,0.0,0.0,0.0
104287244,-0.0006326061,0.0009045289,-0.0004825742,0.0,0.0,0.0,0.0
104319267,0.00024158505,0.00032865474,-0.000857926,0.0,0.0,0.0,0.0
104351232,-0.0005711556,0.00021873614,-0.002549768,0.0,0.0,0.0,0.0
104383278,-0.00077296305,0.0006440781,-0.0003231222,0.0,0.0,0.0,0.0
104415224,-0.000353339,0.00052640605,-0.00078839395,0.0,0.0,0.0,0.0
104447245,-9.023253e-05,0.0007260536,-0.0010445756,0.0,0.0,0.0,0.0
104479226,-0.001039781,0.000668507,-0.00036014325,0.0,0.0,0.0,0.0
104511236,-0.0006715085,0.0016426884,-0.0005509241,0.0,0.0,0.0,0.0
104539221,4.0277213e-05,0.0013413476,-0.0006590349,0.0,0.0,0.0,0.0
104571214,3.6258818e-05,-0.0009490231,-0.0017547989,0.0,0.0,0.0,0.0
104603274,0.00015274915,0.00090710813,-0.0014035892,0.0,0.0,0.0,0.0
104635266,0.00076288317,0.0017286314,0.00068297953,0.0,0.0,0.0,0.0
104668014,-0.0010035726,-0.00025121126,-0.0006422682,0.0,0.0,0.0,0.0
104699226,-0.00037019292,-3.6664045e-05,-0.00037562766,0.0,0.0,0.0,0.0
104730522,-0.0006120575,0.00036478226,-0.0008560291,0.0,0.0,0.0,0.0
104763304,-0.0015393042,0.00048904226,-0.0009753632,0.0,0.0,0.0,0.0
104791263,-0.0006995272,-0.0011113863,0.000100961945,0.0,0.0,0.0,0.0
104823222,0.00077657355,0.0015688831,-0.0004387701,0.0,0.0,0.0,0.0
104855222,-0.0006745609,0.0006531989,-0.0005433198,0.0,0.0,0.0,0.0
104887251,-0.0007759342,0.00058493717,-0.000673888,0.0,0.0,0.0,0.0
104919244,-0.00046993815,0.0004210214,-0.0016478702,0.0,0.0,0.0,0.0
104951282,-0.00018601066,0.0006234664,-0.0016239858,0.0,0.0,0.0,0.0
104983275,-0.001024351,-0.0005009858,-0.0025495442,0.0,0.0,0.0,0.0
105014464,0.0011876816,-0.00029359024,-0.0011600493,0.0,0.0,0.0,0.0
105042475,-0.0005707128,0.00027748087,-0.0013428496,0.0,0.0,0.0,0.0
105074443,0.00043251796,0.0002898075,-0.0012683992,0.0,0.0,0.0,0.0
105108046,-1.23378995e-05,0.0011640377,-0.00079845625,0.0,0.0,0.0,0.0
105140875,-0.0015178487,-0.00012132371,-0.0013253951,0.0,0.0,0.0,0.0
105172032,-0.0010274615,-0.0010523894,-4.1011954e-05,0.0,0.0,0.0,0.0
105204086,-0.000396333,0.0006279256,-0.0005191521,0.0,0.0,0.0,0.0
105232014,0.00036505266,0.00080858043,-0.0019283529,0.0,0.0,0.0,0.0
105264079,7.413447e-05,-0.00041629106,-0.0016280725,0.0,0.0,0.0,0.0
105296061,0.0006297141,0.0006683625,-0.00070374715,0.0,0.0,0.0,0.0
105328078,-0.0007949609,-0.00018907618,-0.0017566577,0.0,0.0,0.0,0.0
105360014,-3.0661875e-05,0.0013386264,-0.0010539403,0.0,0.0,0.0,0.0
105392057,-0.0012794227,-0.0015800451,-0.0024510624,0.0,0.0,0.0,0.0
105424057,-0.00019470078,-0.00018479896,-0.0004948199,0.0,0.0,0.0,0.0
105456058,-0.00032002246,-0.0001060277,-0.00087328255,0.0,0.0,0.0,0.0
105488026,0.0004387169,-0.00064322946,0.0002026998,0.0,0.0,0.0,0.0
105520070,-0.00026595418,0.00079244975,-0.00095304626,0.0,0.0,0.0,0.0
105552054,0.00014193956,0.0013121711,-0.0011684161,0.0,0.0,0.0,0.0
105584046,4.0819286e-05,0.0010989006,-0.0005402532,0.0,0.0,0.0,0.0
105616028,-0.000648176,-0.00017667058,-0.0013954095,0.0,0.0,0.0,0.0
105648014,0.00011317503,0.00029936264,-0.0017391996,0.0,0.0,0.0,0.0
105680087,0.00019749625,4.7618378e-05,-0.0010891696,0.0,0.0,0.0,0.0
105708044,-0.00021560348,-0.00089627155,-0.0009928986,0.0,0.0,0.0,0.0
105740041,0.00037321303,0.0005855714,-0.00047102285,0.0,0.0,0.0,0.0
105772014,0.0009529447,0.0010817682,-0.0013634372,0.0,0.0,0.0,0.0
105804023,0.0005974737,0.00072361866,-0.0011086252,0.0,0.0,0.0,0.0
105836027,0.0007234479,1.1168799e-05,0.00011598074,0.0,0.0,0.0,0.0
105868075,6.066257e-06,-0.00013320876,-0.000496429,0.0,0.0,0.0,0.0
105900017,-0.00043987745,0.00070662104,-0.0017524101,0.0,0.0,0.0,0.0
105932023,0.00012750617,9.800217e-05,-0.0010315534,0.0,0.0,0.0,0.0
105960061,0.00053004606,0.00047644094,0.00054228987,0.0,0.0,0.0,0.0
105992016,-0.00048980623,0.00031090635,-0.0013341098,0.0,0.0,0.0,0.0
106024095,0.00024184755,0.0010807485,-0.00011427986,0.0,0.0,0.0,0.0
106056054,-0.00032388006,-0.00011318154,-6.807485e-05,0.0,0.0,0.0,0.0
106088016,-0.0012302715,0.00020033846,-0.00042161153,0.0,0.0,0.0,0.0
106120076,-0.0002775137,0.0012704531,-0.0015160339,0.0,0.0,0.0,0.0
106152038,0.00086981,0.0010782197,-0.0013037911,0.0,0.0,0.0,0.0
106184044,-0.0010514195,0.00024612903,-0.0010605697,0.0,0.0,0.0,0.0
106216047,-0.0003504602,-0.00030444696,-0.00021863636,0.0,0.0,0.0,0.0
106248039,-0.0008442374,0.0004049923,-0.00075848127,0.0,0.0,0.0,0.0
106280031,-0.0005596233,0.0006104941,-0.0008989374,0.0,0.0,0.0,0.0
106312045,0.00086723873,-4.165736e-05,-0.00096557423,0.0,0.0,0.0,0.0
106344044,-0.00017205448,0.0009181936,-0.0016099677,0.0,0.0,0.0,0.0
106376087,-0.0010333521,-0.00035950993,0.0005895406,0.0,0.0,0.0,0.0
106408040,-0.0014317338,0.0006661714,-0.001430939,0.0,0.0,0.0,0.0
106440122,-0.0012348127,0.00067296426,-0.00039847457,0.0,0.0,0.0,0.0
106472020,-0.00032982067,-0.0004141834,-0.00038703112,0.0,0.0,0.0,0.0
106504061,0.00039832873,0.00021252921,-0.0011464932,0.0,0.0,0.0,0.0
106536037,-0.00022614353,0.00019483193,-0.0014150911,0.0,0.0,0.0,0.0
106568084,-0.0016255957,0.00040925987,0.0006123867,0.0,0.0,0.0,0.0
106598453,-3.391535e-05,0.00025009207,-4.1031308e-05,0.0,0.0,0.0,0.0
106628927,0.0015669857,-9.1358146e-05,-0.00095739716,0.0,0.0,0.0,0.0
106660854,0.00020554411,0.00040722283,0.00075700803,0.0,0.0,0.0,0.0
106692066,-0.0011378697,-5.881017e-05,-0.00067578105,0.0,0.0,0.0,0.0
106724812,0.0004052357,0.0006526151,-0.00048595466,0.0,0.0,0.0,0.0
106756830,0.00021454232,0.00064477196,-0.0005232526,0.0,0.0,0.0,0.0
106788857,-0.0005619371,-0.0004994831,-0.0012415024,0.0,0.0,0.0,0.0
106820839,0.0006472535,-1.8743449e-06,-0.0024206133,0.0,0.0,0.0,0.0
106852822,0.00075525785,2.925808e-05,-0.001474146,0.0,0.0,0.0,0.0
106884829,-0.00048103268,0.0012627927,-0.00051705725,0.0,0.0,0.0,0.0
106916895,-9.875215e-05,0.00022820698,-0.00052040454,0.0,0.0,0.0,0.0
106948823,1.430641e-05,0.00019959144,-0.0008906014,0.0,0.0,0.0,0.0
106980837,-0.001031904,0.00094737473,-0.001083004,0.0,0.0,0.0,0.0
107012851,-0.00011079239,0.00026192557,-0.0014857012,0.0,0.0,0.0,0.0
107044890,-0.0014968116,-3.6954065e-05,-0.0011453268,0.0,0.0,0.0,0.0
107072853,0.00013739505,-0.0003679194,-0.0020530033,0.0,0.0,0.0,0.0
107104894,-0.0014963822,-0.0003369721,-0.0014343127,0.0,0.0,0.0,0.0
107136818,-0.00025551763,0.0008960641,-0.00030470605,0.0,0.0,0.0,0.0
107168840,7.392852e-05,0.001787053,0.00042254524,0.0,0.0,0.0,0.0
107200850,-0.0002459357,0.0013150808,-0.00087973394,0.0,0.0,0.0,0.0
107232827,0.00056072423,0.00027154066,-0.00090760156,0.0,0.0,0.0,0.0
107264818,8.586596e-05,-4.3744396e-05,-0.0012869576,0.0,0.0,0.0,0.0
107296881,0.00062594016,0.001319159,-0.0016028138,0.0,0.0,0.0,0.0
107328840,0.00023692031,-0.00056569837,-0.0021071583,0.0,0.0,0.0,0.0
107356854,-0.00014316702,1.442543e-05,-0.00031577508,0.0,0.0,0.0,0.0
107388854,-8.5105436e-05,0.00084901706,-0.0010235878,0.0,0.0,0.0,0.0
107420823,-0.00074649404,0.00011553809,-0.00016066202,0.0,0.0,0.0,0.0
107452819,-0.000914305,0.00023475534,-0.0006865616,0.0,0.0,0.0,0.0
107484848,-1.5196216e-05,0.00021328224,-0.0013142873,0.0,0.0,0.0,0.0
107516854,0.00020110371,-2.8640206e-05,0.00044661656,0.0,0.0,0.0,0.0
107548890,-0.0004796186,0.00075839745,0.00030575116,0.0,0.0,0.0,0.0
107580868,0.0008098523,0.0012599087,0.00029842346,0.0,0.0,0.0,0.0
107612894,0.0006442645,0.0003239686,-0.0011582149,0.0,0.0,0.0,0.0
107644853,-0.0012917852,0.00053168077,-0.00039361703,0.0,0.0,0.0,0.0
107676841,0.00053544156,-0.00014582736,0.0007046532,0.0,0.0,0.0,0.0
107708812,-0.00047277132,-0.0003696685,-0.00023372137,0.0,0.0,0.0,0.0
107740855,-0.0010676326,0.0008063407,-0.00017569371,0.0,0.0,0.0,0.0
107772877,-2.4007866e-05,-0.0009427625,-0.0008776486,0.0,0.0,0.0,0.0
107800863,-0.00090757286,-0.00049505976,-0.0001719766,0.0,0.0,0.0,0.0
107832886,0.0005130302,-0.0002458294,-0.001870411,0.0,0.0,0.0,0.0
107864889,0.0011479519,8.27176e-05,-0.00048650615,0.0,0.0,0.0,0.0
107896812,-0.0011459519,0.0005258188,-0.0009027844,0.0,0.0,0.0,0.0
107928862,-5.502472e-06,-0.00049558573,-0.0004942014,0.0,0.0,0.0,0.0
107960840,0.0003838381,0.0010047432,9.217241e-05,0.0,0.0,0.0,0.0
107992901,0.00051006605,-0.00065734534,-0.00094197004,0.0,0.0,0.0,0.0
108024815,-0.0009406208,0.00012107442,-0.0007914423,0.0,0.0,0.0,0.0
108056061,-0.00056403206,0.0007172241,-0.00069845765,0.0,0.0,0.0,0.0
108084865,-0.00037209853,7.602165e-05,-0.00094324857,0.0,0.0,0.0,0.0
108116853,0.0002194737,0.0015078525,-0.0006286283,0.0,0.0,0.0,0.0
108148854,0.0006707117,0.00012255262,-0.00092380296,0.0,0.0,0.0,0.0
108180852,0.00039304374,-0.00011154954,0.00045293453,0.0,0.0,0.0,0.0
108213624,-0.0008565367,0.0005239742,-0.0018992219,0.0,0.0,0.0,0.0
108245630,0.0008204716,-0.0010679854,0.005863816,0.0,0.0,0.0,0.0
108273642,-0.0021423623,-0.00014095483,-0.007132703,0.0,0.0,0.0,0.0
108305636,-0.0007599408,-0.0011574826,-0.005218019,0.0,0.0,0.0,0.0
108337654,0.0011850735,-0.0019960662,-0.0001241923,0.0,0.0,0.0,0.0
108369631,0.0012531427,0.00054699695,0.003619038,0.0,0.0,0.0,0.0
108401629,-0.0012546916,-0.0010112063,-0.00015519984,0.0,0.0,0.0,0.0
108433634,-0.00054369145,0.00027517165,-0.0031340146,0.0,0.0,0.0,0.0
108465665,0.002403152,-0.00011138397,-0.0020745173,0.0,0.0,0.0,0.0
108497623,0.0006107982,-0.001140611,-4.407452e-05,0.0,0.0,0.0,0.0
108525661,-0.00080492825,0.00088663225,0.0014856405,0.0,0.0,0.0,0.0
108557623,-6.2965366e-05,0.0025135137,0.001885599,0.0,0.0,0.0,0.0
108589661,0.003565981,0.0012398311,0.0053576482,6.41668e-05,-3.9688935e-06,-6.1573533e-06,0.0
108621613,0.016476452,-0.00059082103,-0.0029403777,0.00015128453,-6.0333787e-06,-1.0897588e-05,0.0
108653670,0.0028893673,0.004998885,0.00030873728,0.00023849925,-1.2195512e-05,-1.6861588e-05,0.0
108685613,-0.010520174,0.001404012,-0.008382544,0.000353108,-2.03936e-05,3.968064e-06,0.0
108717625,-0.008108187,0.00027397322,-0.00013580109,0.00046834943,-2.3583912e-05,2.1813556e-05,0.0
108749667,0.0062126787,-0.00060365454,0.0048072855,0.00056110014,-2.8179764e-05,1.5169328e-05,0.0
108781656,-0.016989032,0.003771289,0.0025310917,0.0006521498,-4.0803792e-05,7.076397e-06,0.0
108813611,-0.023686396,0.009003422,-0.0008129915,0.0007559245,-4.6200996e-05,2.7929698e-06,0.0
108845637,0.011291762,0.005287284,0.0016130236,0.00085984496,-4.982247e-05,-5.612554e-07,0.0
108877624,-0.0028881878,-0.009428676,-0.000906926,0.0009490467,-5.141724e-05,-1.484359e-06,0.0
108909707,0.0046626874,-0.0123299165,0.0015806779,0.0010455878,-5.492014e-05,-3.5631442e-06,0.0
108941616,-0.0030433976,0.046761595,0.0037806428,0.0011646557,-8.2077204e-05,-1.7694136e-05,0.0
108973663,-0.0063237683,-0.010450329,0.003600234,0.0012872521,-9.582219e-05,-3.449064e-05,0.0
109001629,-0.004127079,-0.024210243,0.009981952,0.001393035,-8.2521816e-05,-6.1158215e-05,0.0
109033652,-0.006182687,-0.010388575,0.0025048794,0.0015565903,-8.783446e-05,-9.2505536e-05,0.0
109065617,-0.073956974,0.033458065,0.0013549281,0.0017233146,-0.00011218145,-9.557746e-05,0.0
109097648,-0.025262931,0.004443837,0.004005917,0.0018580619,-0.00014093576,-0.00011626335,0.0
109129625,0.019435737,0.022453513,0.0012136546,0.0019965742,-0.00014954367,-0.00014781073,0.0
109161656,0.019095529,0.015307758,-0.0085811755,0.0021176147,-0.00016982974,-0.00016048766,0.0
109193633,0.018982057,0.013450549,-0.011216053,0.0022692315,-0.00019389462,-0.00015579256,0.0
109225691,0.051143453,0.039573334,0.0011086656,0.0024226755,-0.00021055534,-0.00018473742,0.0
109253633,0.08675066,0.0096469335,0.008087243,0.0024892446,-0.0002111077,-0.0002377393,0.0
109285657,0.021403404,0.083708175,-0.0025707078,0.0025527168,-0.00022644823,-0.0002769076,0.0
109317613,0.029769173,0.00995367,0.00091321534,0.0026959658,-0.00026962583,-0.00029840093,0.0
109349667,0.050895296,-0.10153905,0.0035011547,0.0027810654,-0.00024611308,-0.00034632185,0.0
109381614,0.028634245,0.070300736,-0.015272067,0.002873935,-0.00029931482,-0.0003280834,0.0
109413705,0.016256057,-0.06013844,0.006880738,0.0029704543,-0.00033241676,-0.0003517541,0.0
109445618,-0.009237205,0.025606845,0.00082030916,0.0031211108,-0.00030164642,-0.00040411015,0.0
109477692,0.02632921,0.1214372,-0.005609371,0.0032421977,-0.0004767557,-0.0004067542,0.0
109505627,0.14959316,0.034653075,0.010004929,0.003220798,-0.00066489127,-0.00043182596,0.0
109537648,-0.011479166,0.023370521,0.00986871,0.0031979322,-0.0007994027,-0.00047941098,0.0
109568939,-0.082759336,-0.04612045,0.0023844154,0.0033459978,-0.0008401524,-0.00051222,0.0
109601661,-0.081174776,0.0012039902,0.008419442,0.0035888392,-0.00087313185,-0.00056156015,0.0
109633626,0.0601841,-0.09280422,0.0063143084,0.0036879822,-0.0008889367,-0.00062220515,0.0
109665650,-0.06729875,-0.13129745,-0.0072160773,0.0037913832,-0.00069300074,-0.00065539393,0.0
109697622,-0.00026747197,0.15003714,-0.007629428,0.0039985287,-0.00074247515,-0.00066970213,0.0
109729703,0.11428915,-0.03685459,0.014342175,0.004011567,-0.0008707098,-0.0007355528,0.0
109757666,-0.090189286,-0.079135396,0.0003158844,0.004062776,-0.0007664542,-0.0007938797,0.0
109789692,-0.065838374,0.027624121,-0.004648404,0.004408614,-0.0007694009,-0.0007959995,0.0
109820913,0.1284223,-0.037098255,-0.009761101,0.004481359,-0.00079744216,-0.00080036116,0.0
109852836,-0.06288248,0.025541842,-0.0139679,0.004556492,-0.00079688523,-0.00080189947,0.0
109887257,0.024391273,-0.032096494,0.010727482,0.0048087104,-0.00083145563,-0.00082680094,0.0
109915224,0.06193033,-0.059079934,0.012113858,0.004830386,-0.0008051961,-0.0008721056,0.0
109947235,0.042108826,0.09408345,-0.004347535,0.0049025877,-0.0008634163,-0.0008959483,0.0
109979254,0.042907953,-0.035112258,0.015375351,0.004964698,-0.0009350362,-0.0009313205,0.0
110010416,0.0748216,0.04342818,0.011353296,0.0049711545,-0.00096042996,-0.000993309,0.0
110042480,0.029767698,-0.025563905,0.029708492,0.004969432,-0.0010046901,-0.0010977539,0.0
110074441,-0.026631497,-0.05447135,0.016903745,0.005032792,-0.000976886,-0.0012037283,0.0
110106468,0.05861933,0.108767256,0.011696883,0.0050659645,-0.0010536371,-0.0013013643,0.0
110138413,0.16012044,0.06286058,0.0193499,0.0049487124,-0.0012363484,-0.0014201581,0.0
110170425,0.0014351186,-0.082795165,0.02896127,0.004856079,-0.001292852,-0.001561282,0.0
110198413,0.0054569785,-0.057010587,0.026059711,0.004826652,-0.0012385512,-0.0016905402,0.0
110230463,-0.06071693,0.039777804,0.025552101,0.0049023572,-0.0012935378,-0.0018580589,0.0
110262440,-0.0017852198,0.0689186,0.022587206,0.0049883183,-0.0014170469,-0.0020193774,0.0
110294442,0.034871303,-0.07000279,0.02653782,0.0049771373,-0.0014821192,-0.0021898039,0.0
110326413,0.021673638,0.0077054324,0.022964187,0.004928462,-0.0014964993,-0.0023510938,0.0
110358421,-0.017630197,-0.05575229,0.017422209,0.004942458,-0.0014782484,-0.0025144322,0.0
110390440,-0.11018124,-0.0041384003,0.025050843,0.005120458,-0.0014887673,-0.002689992,0.0
110422413,-0.00095987757,0.054673433,0.022793902,0.005229456,-0.0015898573,-0.0028816145,0.0
110450440,0.013454614,0.004975592,0.029053885,0.0052399114,-0.0016663381,-0.0030497331,0.0
110482510,0.07140318,0.0013826503,0.013924705,0.005176,-0.0017040772,-0.0032339848,0.0
110514416,-0.019407803,-0.056400716,0.02636797,0.0051939525,-0.0017000338,-0.0034272939,0.0
110546487,0.0014310402,0.022592554,0.026662298,0.0052268356,-0.0017507862,-0.0036449118,0.0
110578453,0.017018715,0.057788614,0.025208283,0.005199071,-0.0018515844,-0.0038786181,0.0
110610418,-0.021786606,-0.039457783,0.0166755,0.0052780495,-0.0019082121,-0.004091343,0.0
110642413,-0.12937048,0.023137944,0.018244011,0.005432049,-0.001978979,-0.004288945,0.0
110674436,0.043384146,-0.010874203,-0.011490576,0.005545616,-0.0020211437,-0.0044564907,0.0
110706449,0.009244559,-0.015709072,-0.007895274,0.0055744015,-0.0020361291,-0.00458403,0.0
110738440,0.032588463,-0.043948174,-0.007046638,0.0055495137,-0.002022941,-0.0047068456,0.0
110770428,-0.017899096,-0.026583815,-0.007930714,0.0055822902,-0.0019410299,-0.0048356443,0.0
110802428,0.045663245,0.08826053,0.0016330247,0.005628627,-0.002043281,-0.0049711308,0.0
110834456,-0.038536873,0.1063882,0.0033648743,0.0056326613,-0.002289401,-0.0051285475,0.0
110866425,0.14335874,0.017983502,-0.0077036936,0.0055646207,-0.0024291014,-0.0052740043,0.0
110898414,0.0033786667,-0.095679,-0.0010277175,0.0054356707,-0.0024235006,-0.0054222364,0.0
110930442,-0.098730646,-0.04608352,-0.009298212,0.0054996475,-0.002347696,-0.005553753,0.0
110962464,-0.15743186,0.020074075,-0.012657578,0.0057853092,-0.0023436695,-0.0056769606,0.0
110994444,-0.026686573,-0.039700713,0.0016224977,0.006017739,-0.0024038148,-0.0058067725,0.0
111026450,0.091726676,0.017748196,0.0006399696,0.0059930393,-0.0024390754,-0.0059558023,0.0
111058415,0.132977,-0.061506655,-0.030183077,0.005841488,-0.0023807532,-0.0060434667,0.0
111090465,0.0713466,-0.035261724,-0.013876986,0.0057251095,-0.0023223804,-0.006119613,0.0
111122443,0.02602473,0.087389745,-0.014234476,0.0056040017,-0.0024103897,-0.006203836,0.0
111153663,-0.2695316,0.03569104,-0.018680887,0.0058270628,-0.0025060058,-0.0062670177,0.0
111182417,-0.26705524,-0.05032208,0.0018293668,0.0063387654,-0.0024797919,-0.0063719735,0.0
111214419,0.0022538896,0.023489716,-0.023677874,0.0067323823,-0.0024329468,-0.0064696586,0.0
111246429,0.14637178,0.047637735,-0.00032629725,0.0067078746,-0.0025270449,-0.006538729,0.0
111278492,0.1041216,-0.008024459,0.021557955,0.006570611,-0.0025696328,-0.0066991895,0.0
111310436,-0.11285912,-0.10096921,0.016540322,0.0067046615,-0.0024765949,-0.0068920082,0.0
111342454,0.033315487,0.12426,-0.023453979,0.006838821,-0.002566042,-0.0069689094,0.0
111371253,0.053986873,-0.072550654,0.010863912,0.0068364334,-0.0026211971,-0.007064611,0.0
111402455,-0.077130154,0.002595312,0.004206079,0.0069682696,-0.0025617746,-0.0072334344,0.0
111434432,0.09119867,0.08764655,0.0046996977,0.0070468,-0.0027101086,-0.0073641073,0.0
111466480,0.015739392,-0.063511476,0.037350256,0.007015037,-0.0027707545,-0.007603479,0.0
111498419,0.001962127,-0.025798544,0.018571034,0.007061436,-0.0026816868,-0.007821137,0.0
111531216,-0.035818607,0.09878572,0.016820593,0.0071054096,-0.0028145642,-0.008020703,0.0
111563222,0.0631023,-0.008285537,0.0012347227,0.0071463757,-0.0029037958,-0.008202919,0.0
111595259,0.049001474,-0.08664131,0.009825388,0.007195801,-0.0028304104,-0.00839697,0.0
111627242,0.11952086,-0.0053585893,0.015163648,0.007131478,-0.0027897658,-0.008597648,0.0
111659215,-0.021157132,0.09279531,0.0031813867,0.007061783,-0.002949526,-0.0087578595,0.0
111691273,-0.059589673,0.06796163,-0.0018686757,0.00713047,-0.0031552352,-0.008923916,0.0
111723239,0.11077363,-0.031100364,-0.0122285085,0.0070927124,-0.0032224979,-0.009066899,0.0
111755251,0.057770375,-0.053719386,0.003753982,0.006994476,-0.0031632166,-0.009235672,0.0
111787223,-0.042844202,-0.04760128,-0.000983481,0.006965762,-0.0031195919,-0.009403767,0.0
111819236,-0.08293361,0.05878506,-0.0129159475,0.0070810677,-0.0031955584,-0.0095296,0.0
111847223,0.05728386,0.09517301,-0.011749334,0.007104031,-0.0033785922,-0.009628855,0.0
111879325,-0.018241338,-0.011505787,-0.012107001,0.0070725842,-0.0035410582,-0.009744583,0.0
111911242,-0.045861803,-0.07785381,-0.014345721,0.0071114656,-0.0035311906,-0.009846126,0.0
111943299,0.0719187,-0.052052476,-0.020626709,0.007051726,-0.0034831017,-0.009930389,0.0
111975224,0.06587416,-0.05173653,-0.0228181,0.006935447,-0.0034608482,-0.010006034,0.0
112007242,0.008512342,0.069096975,-0.03717073,0.0068331724,-0.003513783,-0.010042239,0.0
112039243,-0.002468655,0.036646575,-0.034569114,0.0068163364,-0.003634209,-0.010063431,0.0
112071277,-0.06423346,0.029041661,-0.030541394,0.0068594944,-0.0037327262,-0.010074852,0.0
112099250,-0.079131186,0.0067137093,-0.022711284,0.006906451,-0.003804686,-0.010095642,0.0
112131218,0.0061618993,0.059202556,-0.031751595,0.006964033,-0.0039472603,-0.010093935,0.0
112163216,0.076736614,0.039033525,-0.020408465,0.006947722,-0.0041271225,-0.010105779,0.0
112195261,-0.026477687,-0.02542668,-0.018775696,0.0069271885,-0.0042588995,-0.010109913,0.0
112227248,-0.0447684,-0.0019071829,-0.021300873,0.006965705,-0.0043189386,-0.010122584,0.0
112259216,-0.0011762406,0.035014294,-0.017090255,0.0070357057,-0.0044297837,-0.010141324,0.0
112291235,-0.009349566,-0.01916073,-0.011580036,0.007059373,-0.00455807,-0.01015232,0.0
112323282,0.10519699,-0.048695635,-0.014704051,0.006930789,-0.0046284446,-0.01016621,0.0
112355235,0.015891341,-0.044973344,-0.017973209,0.0067752535,-0.0046397913,-0.010176965,0.0
112387285,-0.14843571,-0.15671273,-0.0014050514,0.0068895444,-0.004543464,-0.01019471,0.0
112419218,-0.054770254,-0.0041194824,-0.011324639,0.0070599057,-0.004477934,-0.010217061,0.0
112451261,0.045336287,0.075761914,-0.006416994,0.0070810127,-0.004581498,-0.010231092,0.0
112483292,0.022094386,0.030506017,0.0008041662,0.007065425,-0.004681115,-0.010270975,0.0
112515257,-0.04539051,-0.046742946,0.012936116,0.0071246284,-0.0047337124,-0.010335929,0.0
112547232,0.0023968797,0.11259743,0.01594273,0.0071534305,-0.00495579,-0.010407297,0.0
112579248,0.0642116,0.09431216,0.021956034,0.0070543056,-0.0052899006,-0.010507727,0.0
112611267,0.012961857,-0.035650585,0.0046890117,0.0069368845,-0.0053959996,-0.010607186,0.0
112643312,-0.17058364,-0.10179995,0.0041841865,0.0070970613,-0.005302723,-0.010699641,0.0
112675216,-0.0839611,-0.030034455,0.02046335,0.0073087458,-0.0052637984,-0.010792939,0.0
112707251,0.1375898,0.009197637,0.020897,0.0072677387,-0.005396693,-0.010916706,0.0
112739253,0.10876462,0.0036562304,-0.003518068,0.007026262,-0.0054691196,-0.011004805,0.0
112771261,-0.10971389,-0.1788129,0.013483634,0.0070532304,-0.0053392095,-0.011085577,0.0
112800049,-0.102345735,0.004559032,0.0032230266,0.007254186,-0.0052323877,-0.011171351,0.0
112832056,0.13251756,0.20595683,-0.008784748,0.0072494787,-0.0054179933,-0.011231631,0.0
112864019,0.053927824,0.0031696516,0.0032045254,0.0071227984,-0.00567652,-0.011288215,0.0
112894486,-0.020627307,-0.032634873,-0.0001253575,0.0070848335,-0.0057260115,-0.011336996,0.0
112927265,0.0656785,-0.101423025,-0.011854079,0.0070597585,-0.005626027,-0.0113680195,0.0
112959216,-0.039558597,-0.0036062682,-0.0062921066,0.0070477077,-0.005590212,-0.011399631,0.0
112991264,-0.038136885,0.043133743,-0.0012473802,0.007096112,-0.0057263914,-0.011416466,0.0
113022471,0.04947522,0.07471243,-0.0071238438,0.0070650345,-0.0059094806,-0.011450945,0.0
113052021,0.08855609,-0.018519634,-0.008416601,0.006943788,-0.0059904163,-0.011474947,0.0
113082447,0.020582184,0.034296878,-0.014787842,0.006798496,-0.0061149853,-0.011480552,0.0
113115258,-0.17000805,-0.041751977,-0.013229899,0.00691935,-0.0061850883,-0.011480198,0.0
113148060,-0.007848498,-0.027531091,-0.00996302,0.0070815,-0.0061697266,-0.011480622,0.0
113180060,0.15065518,0.08264502,-0.01111888,0.006888173,-0.006345602,-0.011474538,0.0
113212025,-0.031169727,-0.0008553539,-0.02247227,0.006752117,-0.0065151723,-0.011445616,0.0
113240035,-0.08736182,-0.13563843,-0.016754005,0.0068524317,-0.006445342,-0.011416574,0.0
113272024,0.09827264,-0.027694948,-0.024161447,0.0068633268,-0.0063264216,-0.01136993,0.0
113304045,0.0561852,0.05349986,-0.019139497,0.006672915,-0.006433189,-0.011301845,0.0
113336020,-0.08783061,0.058654055,-0.013180378,0.0066442043,-0.0067183725,-0.011250851,0.0
113368050,-0.14628938,-0.018334854,-0.014630275,0.0068668025,-0.0069573964,-0.011200813,0.0
113400035,-0.035364065,-0.19040799,-0.006196912,0.007419423,-0.0072336616,-0.011153522,0.0
113432097,0.30203167,-0.22198255,-0.007756528,0.007896306,-0.007463318,-0.01110679,0.0
113464024,0.58764005,-0.35287926,-0.015948623,0.00812703,-0.0076517537,-0.011030922,0.0
113492044,0.44752684,-0.41477764,-0.0037166018,0.008609664,-0.007687751,-0.010945955,0.0
113524025,0.8038145,-0.40676,-0.0065736044,0.008956172,-0.0075151715,-0.010851326,0.0
113556017,1.0473992,-0.28944325,0.025740704,0.008885711,-0.0074890945,-0.010803922,0.0
113588037,0.9064412,-0.27277404,0.0416961,0.008643501,-0.0075833867,-0.010794662,0.0
113620043,0.6872715,-0.25466517,0.032470867,0.008564283,-0.0076379883,-0.010793845,0.0
113652035,0.7571511,-0.27657333,0.031564023,0.008435966,-0.0075680125,-0.010804874,0.0
113684050,0.695715,-0.23097274,0.03523545,0.008079726,-0.0073471093,-0.010835476,0.0
113716055,0.46166968,-0.15309384,0.01860842,0.007944484,-0.0072350865,-0.01082351,0.0
113744011,0.38144457,-0.08870067,0.025973191,0.007930215,-0.00723802,-0.010802664,0.0
113776034,0.3846168,-0.088845275,0.029328007,0.0077655637,-0.007241681,-0.01079788,0.0
113808063,0.3024191,-0.070875615,0.0025453763,0.007017757,-0.0070507294,-0.010808375,0.0
113840015,-0.13825138,0.0070759486,-0.010922,0.0056127068,-0.006506186,-0.010827512,0.0
113872017,-0.944226,0.19964027,-0.017384078,0.0046812776,-0.005976805,-0.010815238,0.0
113904081,-1.444271,0.53315765,-0.017662605,0.004647482,-0.0058258516,-0.01077311,0.0
113936061,-1.3978074,0.7502449,-0.016348073,0.0052931365,-0.0061938306,-0.010727157,0.0
113968020,-1.0457138,0.56339127,-0.0039679473,0.0060638287,-0.0067630378,-0.010733444,0.0
113996062,-0.8188724,0.43441284,0.00071405637,0.00662166,-0.0071281996,-0.010752186,0.0
114028018,-0.50023764,0.20051496,-0.014330163,0.007011723,-0.007307316,-0.010747345,0.0
114060072,-0.4446051,0.08201987,-0.011205174,0.007327341,-0.0074245823,-0.010713155,0.0
114092033,-0.2855102,0.04736483,-0.013259131,0.007547551,-0.0074076653,-0.010685201,0.0
114124056,-0.11393941,0.13840066,-0.016351083,0.007618316,-0.0074370345,-0.010653826,0.0
114156063,-0.18722118,0.1285042,-0.0014072033,0.0077097006,-0.0075952974,-0.0106443,0.0
114188048,-0.21405405,-0.021811737,0.00964282,0.007902521,-0.007653533,-0.010644905,0.0
114220048,-0.029278282,0.033368643,0.0043434454,0.007979317,-0.0076487656,-0.010653449,0.0
114252095,0.10400586,0.08476268,0.0010133914,0.007852787,-0.00774286,-0.0106585575,0.0
114284036,-0.10451645,0.08497061,-0.004859329,0.0078002354,-0.0078815585,-0.010655037,0.0
114316062,-0.18979768,0.018485012,0.0063429107,0.008053503,-0.007935949,-0.010652368,0.0
114348024,-0.076219805,0.011937876,0.011904854,0.008235614,-0.0077456143,-0.010675406,0.0
114380099,0.0656484,0.18692179,-0.0136839105,0.0081946915,-0.0074982005,-0.010654541,0.0
114412015,0.028235776,0.36282682,-0.01270503,0.00789553,-0.0070966627,-0.01059843,0.0
114444045,-0.23659436,0.4447151,-0.010143116,0.007478646,-0.0064473054,-0.010526547,0.0
114472017,-0.47932026,0.78554755,-0.013057819,0.007150475,-0.0059020515,-0.010412584,0.0
114504042,-0.60858154,1.1705884,0.00049022917,0.0069522015,-0.0059599117,-0.010253473,0.0
114536042,-0.73458314,1.094713,0.018197646,0.0072577456,-0.0066163316,-0.0101724835,0.0
114568099,-0.501179,0.76913404,0.033370122,0.0077016153,-0.0072579877,-0.010139798,0.0
114600017,-0.3011856,0.47727653,0.019040357,0.007843088,-0.007546313,-0.010077842,0.0
114632813,-0.365014,0.39781892,0.025814194,0.008113732,-0.0075718947,-0.010022678,0.0
114664039,-0.22477022,0.45348552,0.021183148,0.008599628,-0.0076947873,-0.009985196,0.0
114696088,0.03311507,0.3900559,0.039998565,0.008814405,-0.007875855,-0.009962259,0.0
114724844,0.04201041,0.38488063,0.03482839,0.008866767,-0.007984606,-0.0099592535,0.0
114759246,0.005332715,0.34096873,0.024445757,0.009105161,-0.00811674,-0.009950676,0.0
114788813,0.05460384,0.2995833,0.04210978,0.009487085,-0.008558016,-0.009956296,0.0
114820813,0.22652653,0.14536734,0.0433451,0.009839392,-0.009623817,-0.0100354785,0.0
114852854,0.40982822,-0.41622567,0.0352308,0.009984154,-0.010611075,-0.010156747,0.0
114884879,0.46784344,-1.0531746,0.03462204,0.010077968,-0.011307359,-0.010278784,0.0
114916833,0.5294558,-1.3007257,0.014665634,0.009989156,-0.011478045,-0.010382399,0.0
114944961,0.47263843,-1.4790828,0.018407067,0.00974575,-0.010965009,-0.010455183,0.0
114976813,0.25493333,-1.1683925,0.01462276,0.009532466,-0.01007371,-0.010524565,0.0
115008829,0.109948084,-0.62990993,0.0068892813,0.009530583,-0.009503563,-0.010567866,0.0
115040823,0.12611409,-0.40419695,-0.010960729,0.009584817,-0.009318099,-0.010588894,0.0
115072860,0.18940797,-0.32028443,-0.0035393424,0.009579318,-0.009212507,-0.010585825,0.0
115104824,0.21669354,-0.31224534,-0.008089902,0.00938987,-0.009045871,-0.010590146,0.0
115136813,0.07243772,-0.33541068,-0.0070070373,0.009289969,-0.008769287,-0.010560049,0.0
115168854,-0.055153634,-0.1268022,-0.0006044602,0.009368105,-0.00863279,-0.01051984,0.0
115196879,0.100032106,0.019242011,0.0071774507,0.009419593,-0.008715984,-0.010539655,0.0
115228857,0.086257495,-0.12435625,-0.002115495,0.009363791,-0.008780879,-0.010549195,0.0
115260850,0.08727463,-0.1378748,0.0031583526,0.009218295,-0.008727009,-0.010518053,0.0
115292826,-0.053078566,-0.10792375,0.012644673,0.009180596,-0.008589378,-0.01052956,0.0
115324818,-0.029172935,-0.06492822,0.0055294693,0.009269537,-0.008407573,-0.010544791,0.0
115356869,0.104743205,0.010609463,0.010574012,0.009254388,-0.008385114,-0.010558701,0.0
115388850,-0.016323933,0.013567642,0.020906562,0.009186783,-0.008458372,-0.010594843,0.0
115420830,-0.18446527,0.02438278,0.017223047,0.009360696,-0.008539918,-0.01061655,0.0
115448889,-0.05860754,-0.007762999,0.02085211,0.009601596,-0.008569422,-0.010377859,0.0
115480813,0.09640333,0.02609922,0.095477834,0.009663311,-0.008683797,-0.010075893,0.0
115512813,0.020839011,0.0020833437,0.14096008,0.009531157,-0.008760584,-0.009777695,0.0
115544861,-0.075230494,-0.0021485079,0.15533812,0.009619969,-0.008728045,-0.009317779,0.0
115576815,0.07493914,-0.047021996,0.23565753,0.009741101,-0.00871025,-0.008727686,0.0
115608817,0.16785714,-0.069578916,0.30158865,0.009601724,-0.008690298,-0.008195648,0.0
115640813,0.044190552,-0.16741522,0.33722112,0.009453562,-0.008517743,-0.007760136,0.0
115672851,-0.08177991,-0.10379489,0.3551685,0.009530246,-0.008306802,-0.007447405,0.0
115700857,0.011091827,0.08482365,0.34434724,0.009596603,-0.008283657,-0.007369398,0.0
115732850,-0.02976064,0.11040106,0.3310397,0.009634154,-0.008403326,-0.007329992,0.0
115764817,0.022223461,0.07907037,0.30606863,0.009599483,-0.00853736,-0.007467998,0.0
115796814,0.04475256,-0.010073466,0.2659759,0.009507588,-0.008548528,-0.0075297547,0.0
115828827,-0.05986798,-0.059193917,0.27515185,0.009571823,-0.008470158,-0.007409557,0.0
115860863,-0.09788237,0.014830747,0.30965647,0.0097779045,-0.008473237,-0.007464207,0.0
115892841,-0.01884206,0.079548895,0.28213224,0.009844983,-0.008578891,-0.008007591,0.0
115924837,0.038107008,0.04149608,0.19737013,0.009797662,-0.008696379,-0.008591859,0.0
115956829,-0.01834283,0.065244354,0.14225177,0.009795968,-0.008827852,-0.009181323,0.0
115988848,-0.032597233,-0.0011232863,0.10424405,0.009862002,-0.008901155,-0.0096428525,0.0
116020820,-0.00096268434,-0.025124662,0.08898677,0.00995253,-0.00892319,-0.010070926,0.0
116052819,0.0032003827,-0.012454551,0.07124627,0.009981312,-0.008912547,-0.010469408,0.0
116084831,0.0589778,-0.028487457,0.046374254,0.00996285,-0.008890355,-0.010811447,0.0
116116876,-0.07005273,-0.020141125,0.042011783,0.010003944,-0.00884862,-0.011117196,0.0
116144859,-0.04507761,-0.030854216,0.027858838,0.010119655,-0.008800706,-0.01135422,0.0
116176871,-0.050558615,0.034285452,0.019677471,0.01028246,-0.008797013,-0.011604847,0.0
116208813,0.060603768,-0.009439238,0.0115855,0.010336951,-0.008837201,-0.011643796,0.0
116240824,0.03119398,-0.022463951,0.091011256,0.01030242,-0.008868859,-0.010991274,0.0
116400073,-0.01701436,0.047082763,0.37018892,0.010513711,-0.008305402,-0.008328301,0.0
116429661,0.049956683,0.1360586,0.3094901,0.010529771,-0.008397466,-0.008526675,0.0
116460859,0.054482106,0.03847242,0.22663411,0.010551525,-0.008502366,-0.009360624,0.0
116493713,-0.037872925,0.016808124,0.11427594,0.010638015,-0.008582998,-0.0098958025,0.0
116685613,-0.05601008,-0.028049355,0.016495433,0.011029717,-0.008500455,-0.0119444,0.0
116717656,-0.07840515,0.014589483,-0.061253782,0.011214087,-0.008429199,-0.012690684,0.0
116749692,0.011375028,0.10950851,-0.16067891,0.011352096,-0.00848618,-0.013859325,0.0
116781675,0.09075654,0.09673358,-0.30144703,0.011302116,-0.008665169,-0.0151701365,0.0
116813635,-0.07722141,-0.03593299,-0.4157489,0.011334925,-0.0087578185,-0.016712632,0.0
116845657,-0.028302966,-0.0347468,-0.5728791,0.0114882495,-0.008708749,-0.018193293,0.0
116877654,0.04187796,-0.026746882,-0.6660026,0.011627644,-0.00864305,-0.019580303,0.0
116909660,0.20875917,0.03647455,-0.7459184,0.01154316,-0.008683424,-0.020876441,0.0
116941613,0.15058146,0.075957835,-0.8279159,0.011252463,-0.0088267485,-0.02211797,0.0
116973654,-0.0017360201,-0.026663242,-0.89593655,0.011074041,-0.008843025,-0.023332683,0.0
117005658,-0.14414196,0.043449245,-0.97672313,0.011230782,-0.008814725,-0.024510724,0.0
117037718,-0.14334904,-0.049049754,-1.0178956,0.011543346,-0.008792666,-0.025499916,0.0
117069631,-0.03834782,-0.020792972,-1.0180405,0.011742046,-0.008798714,-0.025858112,0.0
117101657,0.120934814,0.06113214,-0.95548177,0.011761831,-0.008853474,-0.025869172,0.0
117133659,0.12913287,-0.014677233,-0.90292495,0.011611128,-0.008842378,-0.026210157,0.0
117165687,0.032910787,0.0038225322,-0.9547587,0.011531338,-0.0087878425,-0.026701374,0.0
117197614,-0.06936489,0.07899323,-1.0056005,0.011614252,-0.008859437,-0.027647475,0.0
117229620,-0.05787708,0.12300563,-1.1345608,0.011728882,-0.009050642,-0.028821168,0.0
117261632,0.0041786944,0.065921955,-1.2412608,0.011830025,-0.009273178,-0.029590517,0.0
117289689,0.0064274343,-0.00678699,-1.2134689,0.011895173,-0.009370822,-0.029556772,0.0
117321655,0.030308282,-0.11015713,-1.1075928,0.011972963,-0.009303582,-0.02904721,0.0
117353708,-0.01172347,-0.08420294,-1.0097107,0.012038317,-0.0091239745,-0.028786507,0.0
117385618,0.059837267,-0.008736377,-0.99306166,0.012100476,-0.009002591,-0.028558437,0.0
117417654,0.04267117,0.011648392,-0.97561127,0.012175565,-0.008995287,-0.028253632,0.0
117449681,-0.019279528,-0.081947684,-0.9355114,0.012234904,-0.008913531,-0.027982505,0.0
117481686,-0.019151062,-0.025061324,-0.9303592,0.012309425,-0.008801454,-0.027759604,0.0
117513634,-0.03551831,0.07814782,-0.928044,0.012416541,-0.008842315,-0.027487556,0.0
117541656,0.016239835,-0.0066877105,-0.9020993,0.012492604,-0.008878082,-0.027329946,0.0
117573634,0.006685042,-0.08937067,-0.9015442,0.012536778,-0.008808187,-0.027216371,0.0
117605662,0.030786142,-0.10410235,-0.9116531,0.012543243,-0.008625411,-0.027087718,0.0
117637640,-0.010202409,0.06905651,-0.91089535,0.012565104,-0.008470729,-0.02677806,0.0
117669682,0.069000654,0.10012007,-0.8624455,0.012573065,-0.00850011,-0.026469924,0.0
117701613,0.055317845,0.07187082,-0.8543962,0.012521257,-0.008565656,-0.026285004,0.0
117733680,-0.045264248,-0.044668857,-0.8584593,0.012546709,-0.008547886,-0.026174245,0.0
117765651,-0.0031387692,-0.050682142,-0.8575271,0.01261554,-0.008489078,-0.026058892,0.0
117797619,-0.0051596523,-0.060856923,-0.8655183,0.01263665,-0.008389965,-0.026011087,0.0
117828874,-0.058741335,0.060880594,-0.8749612,0.012620262,-0.008312501,-0.025978815,0.0
117861617,0.0045922617,0.1156424,-0.895275,0.012620137,-0.008411131,-0.025990097,0.0
117893648,0.029326528,-0.016432371,-0.8997902,0.012586672,-0.008484314,-0.026140973,0.0
117925679,-0.07864223,-0.07655258,-0.94988966,0.0126018645,-0.008340096,-0.026610833,0.0
117957632,-0.059404436,-0.0070612896,-1.0208652,0.012695094,-0.008176032,-0.027025245,0.0
117988885,0.029858146,0.14629842,-1.0476644,0.012717446,-0.008292815,-0.027351033,0.0
118018464,0.051218517,0.037635453,-1.0536755,0.012626807,-0.008448024,-0.027580539,0.0
118050418,-0.047052804,-0.107975535,-1.0529271,0.012598499,-0.00837147,-0.02771094,0.0
118082467,-0.0169617,-0.06769987,-1.0515229,0.012602071,-0.008184849,-0.02783797,0.0
118114489,0.036432847,0.011503405,-1.0494326,0.012539288,-0.008101666,-0.02789108,0.0
118146450,-0.011902894,0.004368622,-1.0434866,0.012529474,-0.008049385,-0.027868632,0.0
118178429,-0.07695212,0.007141082,-1.0217137,0.012638061,-0.0079755215,-0.027772566,0.0
118206420,0.047069225,-0.0026399437,-1.0059173,0.012684722,-0.007913725,-0.0279695,0.0
118238447,0.07314691,0.039216816,-1.0590734,0.012601362,-0.007901993,-0.028535904,0.0
118270497,0.027987251,-0.02504981,-1.1362758,0.012450817,-0.007859165,-0.02904778,0.0
118302420,-0.032356095,0.017279075,-1.1700375,0.012440727,-0.0078042336,-0.02931544,0.0
118334450,-0.030681867,-0.0116709685,-1.1588329,0.012514946,-0.0077178436,-0.029484257,0.0
118366418,0.0048087547,-0.008476077,-1.1552298,0.012548827,-0.007589738,-0.0294976,0.0
118398491,0.0039164973,-0.0054173996,-1.1323291,0.01252185,-0.007466992,-0.029373465,0.0
118430430,0.080756836,0.022712544,-1.0923232,0.012468552,-0.007382596,-0.02917278,0.0
118458467,0.053110633,-0.01838044,-1.0599943,0.012362044,-0.007320581,-0.028990882,0.0
118490422,-0.049035043,-0.09432046,-1.0405626,0.012321806,-0.007200035,-0.028744865,0.0
118522419,-0.106536984,-0.10237961,-1.0277909,0.012369009,-0.007003414,-0.028550552,0.0
118554414,-0.027022574,-0.006439524,-1.0203012,0.012400074,-0.006818953,-0.028456664,0.0
118586488,0.07578388,0.10705524,-1.0557282,0.012225889,-0.006805222,-0.028709568,0.0
118618450,-0.0012694888,0.04585882,-1.1473769,0.012048153,-0.0068098446,-0.029294714,0.0
118650439,-0.10011724,0.0042079515,-1.2225262,0.012075129,-0.0067397486,-0.02961068,0.0
118682416,-0.04055184,0.04062528,-1.2194417,0.012126443,-0.006712124,-0.02954749,0.0
118710439,0.07239633,0.073734775,-1.1784644,0.012011664,-0.006758513,-0.029407335,0.0
118742418,0.03515769,0.0070613893,-1.173272,0.01184467,-0.006787161,-0.029400857,0.0
118774488,-0.06424204,-0.013991397,-1.1838305,0.011822208,-0.006752511,-0.029349582,0.0
118806419,-0.07235154,0.027934385,-1.1835407,0.011819265,-0.0066871434,-0.029202197,0.0
118838463,0.014574349,0.014305775,-1.186645,0.011748986,-0.0066431793,-0.029052503,0.0
118870453,0.026354397,0.025030414,-1.1768069,0.0117008295,-0.006649929,-0.028928483,0.0
118902472,0.083051875,0.06043774,-1.1835004,0.011525512,-0.006684772,-0.02882532,0.0
118934422,0.06118582,0.012961444,-1.1923398,0.011319568,-0.006699522,-0.028678479,0.0
118962483,-0.059961792,-0.06669137,-1.1735524,0.011240557,-0.006659001,-0.028564379,0.0
118994422,-0.004865528,0.0016146036,-1.1799996,0.011160552,-0.006634029,-0.028427167,0.0
119026462,0.04186824,0.095298246,-1.1723602,0.0110130645,-0.006722625,-0.028152617,0.0
119058416,-0.016174544,-0.030298099,-1.1346626,0.010898267,-0.0067547983,-0.027544007,0.0
119090494,0.018843707,-0.11133022,-1.0394717,0.010859134,-0.006620016,-0.02667266,0.0
119122452,0.05905439,-0.07452522,-0.9332957,0.010669427,-0.0065282225,-0.025715908,0.0
119154453,0.10331883,0.04711334,-0.8760342,0.0103832055,-0.0065171095,-0.02489367,0.0
119186429,0.0030770388,-0.05662311,-0.82595694,0.010142766,-0.0064839004,-0.024264492,0.0
119214455,-0.09204993,-0.020156903,-0.8094432,0.010078842,-0.0064438884,-0.023811847,0.0
119246442,-0.051416487,0.03679482,-0.81008387,0.01002727,-0.006474467,-0.023343788,0.0
119278458,-0.030894645,0.018527256,-0.8060997,0.009944254,-0.0065289256,-0.022953123,0.0
119310423,-0.04623404,-0.033279415,-0.79355913,0.00991777,-0.006515113,-0.022389496,0.0
119342439,-0.03061993,-0.005979179,-0.7079982,0.009813544,-0.0064638276,-0.020975858,0.0
119374468,0.036508013,0.031613734,-0.5426803,0.009700574,-0.0064366614,-0.01914544,0.0
119406482,0.071894735,0.0037326668,-0.39701396,0.009513455,-0.0063978443,-0.017624551,0.0
119438442,0.023019426,-0.019628666,-0.29978395,0.009262912,-0.006396155,-0.01634832,0.0
119470481,0.0011620866,0.03657909,-0.25363824,0.009065663,-0.0064440356,-0.015180614,0.0
119502421,0.053854313,0.028982364,-0.21455549,0.008939642,-0.0064888084,-0.014088213,0.0
119533704,0.049711823,0.08021277,-0.17445256,0.008830306,-0.0065253186,-0.013106314,0.0
119566430,-0.028874997,0.05202391,-0.13842921,0.008723054,-0.00656846,-0.012154502,0.0
119598476,-0.028356345,-0.013191896,-0.098974004,0.00868632,-0.0065475,-0.011299811,0.0
119630467,0.03094106,-0.06443499,-0.054710027,0.008553022,-0.006507101,-0.01053288,0.0
119662450,-0.034831394,-0.0075041763,-0.03207865,0.008390452,-0.006529545,-0.0098560015,0.0
119690457,-0.023473736,0.0054755323,-0.008104755,0.0083245365,-0.006544532,-0.0093285795,0.0
119722460,-0.07461827,-0.067954786,0.013589229,0.008261385,-0.006478027,-0.008802724,0.0
119754427,-0.007307074,0.0031514466,0.028154882,0.0082140025,-0.0063593416,-0.008338212,0.0
119787221,-0.022496633,0.08024003,0.05219891,0.008158277,-0.0064191357,-0.007948864,0.0
119819254,-0.064349696,-0.029220622,0.07412514,0.008140992,-0.0065137343,-0.0076462124,0.0
119851265,0.029702669,-0.043597396,0.0750041,0.008074117,-0.006474255,-0.007381975,0.0
119883269,0.09004266,-0.014699906,0.07039481,0.007896234,-0.006411129,-0.0071482677,0.0
119912063,-0.03369741,-0.02108257,0.074903645,0.0077726482,-0.006389694,-0.0069600977,0.0
119944043,-0.09667991,0.0011906271,0.081543736,0.007810383,-0.006346288,-0.0067766653,0.0
119975216,0.016283615,-0.015962467,0.08007706,0.007819307,-0.0062720645,-0.0066371956,0.0
120007266,-0.022393245,-0.017308455,0.08268593,0.007687232,-0.006216711,-0.006503776,0.0
120039247,-0.006412476,0.039832924,0.07409726,0.0076014474,-0.006198332,-0.006386384,0.0
120071219,0.05083474,0.04756039,0.07556223,0.007491572,-0.0062564295,-0.006306424,0.0
120103282,-0.07486549,0.031602893,0.0726164,0.007506281,-0.006317596,-0.006232566,0.0
120135270,-0.05273648,0.008689949,0.08189553,0.0075096847,-0.006330914,-0.006180642,0.0
120163223,0.064857386,0.0058904914,0.070879824,0.0074280766,-0.006334332,-0.006157959,0.0
120195265,0.019072441,0.011220203,0.07151861,0.007327884,-0.0063289693,-0.006144019,0.0
120227255,-0.12813734,-0.045305356,0.07316523,0.0073299925,-0.006301889,-0.006140756,0.0
120259236,-0.052145343,-0.004959459,0.067018144,0.0074087633,-0.0062883226,-0.0061430708,0.0
120291220,0.10147117,0.07626684,0.06254069,0.007277884,-0.0063744877,-0.006165016,0.0
120323309,0.050362214,0.04511914,0.056539536,0.007114675,-0.0064377175,-0.006077507,0.0
120355257,-0.08207882,-0.051655542,0.096563555,0.007102682,-0.006401273,-0.0057202536,0.0
120387239,-0.08703519,-0.05409334,0.14680971,0.0071498444,-0.0063247345,-0.0053488794,0.0
120415224,-0.0012743007,-0.026827516,0.18392467,0.007154237,-0.006259787,-0.0048544416,0.0
120447229,-0.042158276,0.0031541944,0.24992041,0.0071210437,-0.0062429914,-0.0043792473,0.0
120479222,0.0012818539,0.039055593,0.2776602,0.007122588,-0.0062370584,-0.0039398517,0.0
120511252,0.07942866,-0.0099179745,0.315624,0.0070545743,-0.006204655,-0.0034744472,0.0
120543224,0.08347856,0.019736474,0.34072554,0.006868094,-0.0061833453,-0.0031267626,0.0
120575221,0.010443593,0.046445597,0.33639827,0.0067319875,-0.0061704265,-0.0028786827,0.0
120607227,-0.03748648,0.03760835,0.34882516,0.006739057,-0.0062113986,-0.002666718,0.0
120639318,-0.06689044,0.0667133,0.34332377,0.006757104,-0.00629065,-0.0027442647,0.0
120667216,0.047266312,-0.06737846,0.29957038,0.0067011085,-0.0062983395,-0.0030505115,0.0
120699326,-0.046528548,-0.08999866,0.24603808,0.0065933564,-0.0062128725,-0.0033052862,0.0
120731212,-0.031524993,-0.079430535,0.24202722,0.006538606,-0.0060393782,-0.0035431462,0.0
120763269,0.036841344,0.010990212,0.20285584,0.0064666877,-0.0058835167,-0.0040950254,0.0
120795254,-0.013802276,0.11250431,0.13191488,0.0064024148,-0.0059141046,-0.004680786,0.0
120827288,0.011412982,0.069747426,0.087128006,0.006399871,-0.0059761414,-0.005116465,0.0
120859216,-0.0048005753,-0.024207968,0.08299024,0.0064105364,-0.0059473095,-0.005516812,0.0
120891238,-0.003800407,-0.03970975,0.06425063,0.00641535,-0.005822567,-0.0058860877,0.0
120919229,0.027043005,0.046879,0.053083926,0.0063325167,-0.005814956,-0.0061818077,0.0
120951214,0.020657519,0.003476884,0.042413007,0.0061756214,-0.005886067,-0.0064984006,0.0
120983224,-0.021483343,-0.04052381,0.024329618,0.0061370814,-0.005880118,-0.0067763147,0.0
121015261,-0.041810438,-0.026477197,0.019514833,0.0061481437,-0.0058525926,-0.007030171,0.0
121047221,-0.027004328,0.0005011667,0.0017801161,0.0061011612,-0.005835394,-0.007252782,0.0
121079237,-0.020165347,0.043539513,-0.011235357,0.0060738996,-0.005861638,-0.007424975,0.0
121111243,-0.013207284,-0.0019029897,-0.0071887556,0.0060276715,-0.0059092143,-0.0075946534,0.0
121143296,-0.044821106,-0.049058866,-0.013453961,0.0060198833,-0.0058669243,-0.0077437502,0.0
121171269,0.02062224,-0.026621899,-0.020012327,0.006021965,-0.005791951,-0.007859683,0.0
121203304,0.05741883,0.03670126,-0.01816874,0.005943176,-0.005769486,-0.007976479,0.0
121235216,0.06872042,0.032001555,-0.029721225,0.005745533,-0.0058012106,-0.008071727,0.0
121267267,-0.05905501,-0.09592327,-0.02156864,0.0056763645,-0.005784714,-0.008148746,0.0
121299240,-0.06460982,-0.06803816,-0.027752137,0.005702769,-0.005659997,-0.008217177,0.0
121332116,-0.0049907677,0.029809369,-0.008995647,0.0056221336,-0.0055713006,-0.008308121,0.0
121360024,0.16916488,0.024454888,-0.026214547,0.0054322924,-0.0055683916,-0.0083873235,0.0
121392099,-0.002100672,0.016844647,-0.017866785,0.0052302345,-0.0055603036,-0.008472161,0.0
121423260,-0.18199135,-0.03089069,-0.016623445,0.005294451,-0.0055362973,-0.008539411,0.0
121455273,-0.15484785,0.0469878,-0.022925427,0.0055391723,-0.005537912,-0.008600455,0.0
121487257,0.11464692,0.058854286,-0.029021226,0.0055011665,-0.0055323187,-0.008653476,0.0
121519330,0.2351006,-0.03832814,-0.021108301,0.0051653553,-0.0054802033,-0.008720209,0.0
121552028,-0.016943453,0.03567316,-0.049583424,0.0050107953,-0.0054346058,-0.008729864,0.0
121583272,-0.1556374,0.08303964,-0.019225173,0.005146327,-0.005532559,-0.008726699,0.0
121612025,-0.12264887,0.06202556,-0.017334718,0.005311299,-0.005661872,-0.008765088,0.0
121644064,0.030043602,0.008738669,-0.025610067,0.005447857,-0.005685978,-0.008804467,0.0
121676019,0.115396895,-0.01927735,-0.023701496,0.0053682914,-0.0056281053,-0.008831479,0.0
121708098,0.0861154,0.010580947,-0.023327995,0.0052317115,-0.005619313,-0.0090526575,0.0
121740023,-0.03833596,-0.024490744,-0.085581675,0.0051575713,-0.0056989435,-0.010378288,0.0
121772055,-0.14967418,0.02632429,-0.31105125,0.005258656,-0.0057620457,-0.012360511,0.0
121804069,-0.12611671,0.08656067,-0.5057341,0.0055064852,-0.005899246,-0.01372571,0.0
121836104,0.011113294,0.08629318,-0.5547146,0.0056784265,-0.0061079673,-0.01457421,0.0
121868027,0.13228998,-0.03916098,-0.5582892,0.005573523,-0.006216286,-0.015267164,0.0
121900022,0.09288867,-0.1129549,-0.57344615,0.0054246667,-0.0061872355,-0.015901923,0.0
121932055,-0.03013856,-0.06257689,-0.587943,0.005407542,-0.0061288686,-0.016556937,0.0
121964057,0.053327404,0.011294569,-0.61869526,0.005414498,-0.006105129,-0.017220436,0.0
121996022,0.07658039,0.021214452,-0.6714038,0.005335127,-0.006109591,-0.018117804,0.0
122028025,0.022969453,0.044326257,-0.75095654,0.0052261436,-0.0062031373,-0.019179989,0.0
122060021,-0.005313684,0.06796791,-0.8519044,0.0051339124,-0.006370149,-0.020561973,0.0
122088044,-0.008935965,0.08325988,-0.95416003,0.0050521023,-0.0065221037,-0.021540495,0.0
122120036,-0.037366442,0.020710088,-1.0021094,0.005001445,-0.0066358102,-0.022148166,0.0
122152045,0.027556717,-0.11028695,-0.9680528,0.004975943,-0.0066483994,-0.022446144,0.0
122184017,0.07033475,-0.17919171,-0.93276376,0.0048373053,-0.0065295883,-0.02274854,0.0
122216030,0.046843078,-0.050559767,-0.934242,0.0046357824,-0.006439348,-0.022915281,0.0
122248067,-0.03493646,-0.035420477,-0.9054528,0.0045701843,-0.0064426744,-0.022868654,0.0
122280051,-0.03663268,-0.035414897,-0.8724007,0.0045983167,-0.006465496,-0.02282281,0.0
122312028,-0.047015134,-0.028629567,-0.854264,0.004533423,-0.0065065813,-0.022803135,0.0
122340057,0.028055286,-0.023179656,-0.86473626,0.0044811475,-0.0064974222,-0.022747772,0.0
122372015,0.016943322,0.031428326,-0.8497351,0.004409044,-0.006513022,-0.022503793,0.0
122404021,-0.011598152,0.05149155,-0.8067427,0.0044281376,-0.006568995,-0.022132672,0.0
122436063,0.01362,-0.010174818,-0.76676255,0.0044481093,-0.0066484455,-0.021839362,0.0
122468015,-0.016083691,-0.03706025,-0.73593086,0.0044045253,-0.006683902,-0.021211509,0.0
122500029,-0.09332027,-0.013620472,-0.6529437,0.004432872,-0.0066924053,-0.020425197,0.0
122532022,0.023062278,0.018220728,-0.59019846,0.0045022415,-0.0066651483,-0.018925352,0.0
122564062,0.08458625,-0.008400499,-0.3814497,0.0044026854,-0.006697422,-0.017256511,0.0
122596063,0.03532472,0.013231946,-0.2640033,0.004242025,-0.006739369,-0.01601651,0.0
122628022,-0.025043728,-0.03891412,-0.20707043,0.0042313044,-0.0067134383,-0.014973416,0.0
122660038,-0.05766763,-0.014822925,-0.15192346,0.0043016975,-0.0066898908,-0.014015063,0.0
122692073,0.016698115,0.10745388,-0.12189331,0.0043044956,-0.0068310485,-0.013147287,0.0
122724057,0.0009127598,0.036134463,-0.078004,0.004240333,-0.0069923643,-0.012379179,0.0
122756021,0.026662609,0.022816233,-0.053287186,0.004188615,-0.007034245,-0.011689257,0.0
122788033,0.0009991353,0.024434896,-0.023832647,0.0041260114,-0.0069122408,-0.011076538,0.0
122816033,-0.023742612,0.07652761,-0.0036352503,0.0040823347,-0.0066792523,-0.010590088,0.0
122848032,-0.059618905,0.26841083,0.014455412,0.003981135,-0.006202245,-0.010093846,0.0
122880054,-0.04915364,0.479804,0.020993054,0.0038187339,-0.005746332,-0.009657856,0.0
122912017,-0.19187035,0.702591,0.042075362,0.0037937677,-0.005562065,-0.009266775,0.0
122944038,-0.22554234,0.8507709,0.059644934,0.0039333873,-0.005803853,-0.008921659,0.0
122976071,-0.05290618,0.8564154,0.06001066,0.003981965,-0.006223193,-0.008649716,0.0
123008098,-0.04793471,0.5454864,0.07753908,0.003922351,-0.006426978,-0.008436645,0.0
123040015,-0.12779154,0.4870104,0.074167274,0.0039065764,-0.0063550607,-0.008253977,0.0
123068055,-0.15439817,0.5954677,0.08250768,0.0039541824,-0.006363344,-0.008116346,0.0
123100017,-0.14130871,0.6348463,0.09166697,0.0039656013,-0.0066690636,-0.007995015,0.0
123132030,-0.07360271,0.47576693,0.084378205,0.003821593,-0.0067369863,-0.00791273,0.0
123164041,-0.09160735,0.4286107,0.083978824,0.0036303818,-0.006527195,-0.007839254,0.0
123196070,-0.22338037,0.5106544,0.075597264,0.0036779079,-0.0066160234,-0.007769427,0.0
123228036,-0.2590524,0.54438066,0.09586754,0.0040072175,-0.0072199204,-0.007719272,0.0
123256865,0.01860592,0.3520771,0.0876082,0.0041779377,-0.0077896323,-0.0077546914,0.0
123288891,0.18342769,-0.09119245,0.093603805,0.00433185,-0.008322921,-0.007826485,0.0
123320856,0.21727861,-0.4415084,0.08131094,0.004432494,-0.009043111,-0.007913377,0.0
123352819,0.35726172,-0.79692566,0.061583523,0.00431465,-0.010309235,-0.007997718,0.0
123384893,0.30460727,-1.5187769,0.06399439,0.004055683,-0.010710667,-0.008092692,0.0
123416818,0.16311303,-1.8779247,0.040809814,0.003897837,-0.009580592,-0.008166818,0.0
123448867,0.06976629,-1.3611634,0.02797883,0.003934283,-0.008041263,-0.008192307,0.0
123480813,0.09318742,-0.55594647,0.036406156,0.0039095604,-0.0072880234,-0.008199526,0.0
123512946,0.068689786,-0.18316123,0.027985398,0.0037870172,-0.0073789954,-0.008240947,0.0
123540817,0.027811237,-0.23743695,0.015082275,0.0038052404,-0.007509181,-0.008257865,0.0
123572891,0.040892813,-0.38915345,0.0015968537,0.0039337967,-0.0073253876,-0.00824229,0.0
123604813,0.09390138,-0.349979,0.023581142,0.00389156,-0.0070151486,-0.008240566,0.0
123636868,-0.0035714377,-0.14075318,0.0057866103,0.0038000515,-0.006854774,-0.008216084,0.0
123668818,-0.0063654985,-0.03229892,-0.0018454224,0.0037779023,-0.0068801166,-0.008173439,0.0
123700891,0.08069313,-0.04960544,-0.0051740715,0.0037432185,-0.006891183,-0.008135441,0.0
123732813,0.02916234,-0.11791908,0.004861722,0.003931785,-0.006766522,-0.008114469,0.0
123764911,0.11757426,-0.11007284,0.014885511,0.0046367166,-0.006551587,-0.008124993,0.0
123796813,0.58205223,0.03690614,0.01198215,0.0052456446,-0.0064600995,-0.008132381,0.0
123828851,1.0078593,0.1170004,0.010169903,0.005248165,-0.0065380163,-0.0081641935,0.0
123860817,0.9418875,0.08333979,0.0052829636,0.0047978833,-0.006681288,-0.00818944,0.0
123892815,0.56681776,-0.021459633,-0.0048701405,0.0048812074,-0.0066536376,-0.0081827,0.0
123924818,0.7208397,0.004302628,-8.9172565e-05,0.0052833487,-0.0064954613,-0.008181855,0.0
123956851,1.1151466,0.07460918,-0.0064653046,0.005030726,-0.006483019,-0.008194504,0.0
123988809,0.9881208,0.081631444,0.0077143717,0.004411391,-0.006589603,-0.00821775,0.0
124020816,0.53165865,-0.048741326,-0.012946881,0.0042877123,-0.0065446314,-0.008225092,0.0
124052823,0.48684445,0.017807705,-0.0146225495,0.004561543,-0.0064821905,-0.00819482,0.0
124084854,0.72620887,0.0530697,-0.011269044,0.0045261616,-0.006574193,-0.008177342,0.0
124116851,0.63395494,-0.024136972,-0.004943583,0.0042392327,-0.0066095367,-0.008155139,0.0
124148820,0.4101299,-0.072717704,-0.006020148,0.004146849,-0.0065666107,-0.008120997,0.0
124180860,0.44628417,-0.041798957,0.005094631,0.0041308613,-0.006586205,-0.008087459,0.0
