timestamp,timestamp_sample,control[0],control[1],control[2],control[3],control[4],control[5],control[6],control[7]
133185342,133185271,0.0017547193,0.0055145267,0.6610581,-0.0,0.0,0.0,0.0,-1.0
133189357,133189285,0.0012926017,0.005362396,0.66098624,-0.0,0.0,0.0,0.0,-1.0
133193343,133193271,0.00062418956,0.0049250247,0.66092044,-0.0,0.0,0.0,0.0,-1.0
133197396,133197326,0.00012497154,0.005215226,0.66090053,-0.0,0.0,0.0,0.0,-1.0
133201355,133201284,0.00014708366,0.005277998,0.6608697,-0.0,0.0,0.0,0.0,-1.0
133205340,133205271,0.0004350124,0.005447878,0.66079,-0.0,0.0,0.0,0.0,-1.0
133209382,133209271,0.00035193237,0.0053299675,0.6607489,-0.0,0.0,0.0,0.0,-1.0
133213353,133213271,0.00059952127,0.0050710817,0.66078115,-0.0,0.0,0.0,0.0,-1.0
133217392,133217322,0.001005426,0.0052134283,0.6608275,-0.0,0.0,0.0,0.0,-1.0
133221386,133221314,0.00063729775,0.005573211,0.66080445,-0.0,0.0,0.0,0.0,-1.0
133225340,133225271,0.0003685447,0.005694956,0.66085124,-0.0,0.0,0.0,0.0,-1.0
133229381,133229270,0.00082318747,0.005395698,0.66099024,-0.0,0.0,0.0,0.0,-1.0
133233340,133233271,0.0008673483,0.005160026,0.6611256,-0.0,0.0,0.0,0.0,-1.0
133237371,133237301,0.00069378596,0.004923054,0.6611535,-0.0,0.0,0.0,0.0,-1.0
133241340,133241271,0.00051349256,0.0050668814,0.66118413,-0.0,0.0,0.0,0.0,-1.0
133245383,133245277,0.00015497349,0.0053090625,0.6611602,-0.0,0.0,0.0,0.0,-1.0
133249377,133249278,0.00028597674,0.005227616,0.6610661,-0.0,0.0,0.0,0.0,-1.0
133253341,133253271,0.0009185587,0.005971371,0.6609741,-0.0,0.0,0.0,0.0,-1.0
133257394,133257316,0.0010642715,0.005793106,0.6609985,-0.0,0.0,0.0,0.0,-1.0
133261340,133261271,0.0011314304,0.005316458,0.66104287,-0.0,0.0,0.0,0.0,-1.0
133265372,133265277,0.0009504602,0.0051382873,0.66104627,-0.0,0.0,0.0,0.0,-1.0
133269382,133269271,0.0013636991,0.0056617074,0.661078,-0.0,0.0,0.0,0.0,-1.0
133273340,133273270,0.0013231339,0.0051890537,0.66109365,-0.0,0.0,0.0,0.0,-1.0
133277406,133277326,0.00062078575,0.0048946324,0.661093,-0.0,0.0,0.0,0.0,-1.0
133281340,133281271,-0.00014755923,0.005317757,0.66108054,-0.0,0.0,0.0,0.0,-1.0
133285368,133285291,6.9377245e-05,0.005573992,0.66114545,-0.0,0.0,0.0,0.0,-1.0
133289383,133289287,0.0006386426,0.005427034,0.6612021,-0.0,0.0,0.0,0.0,-1.0
133293353,133293271,0.00088938844,0.005216877,0.66117513,-0.0,0.0,0.0,0.0,-1.0
133297400,133297317,0.0009024546,0.00535739,0.66112673,-0.0,0.0,0.0,0.0,-1.0
133301340,133301271,0.0003730162,0.0050956625,0.6611682,-0.0,0.0,0.0,0.0,-1.0
133305351,133305281,0.00040487727,0.0054137064,0.66116065,-0.0,0.0,0.0,0.0,-1.0
133309340,133309271,0.0009611001,0.0054761367,0.6610748,-0.0,0.0,0.0,0.0,-1.0
133313340,133313271,0.00090669916,0.0053367536,0.66099846,-0.0,0.0,0.0,0.0,-1.0
133317393,133317323,0.00095589826,0.0051084827,0.66103584,-0.0,0.0,0.0,0.0,-1.0
133321350,133321271,0.0010516389,0.00573143,0.66111773,-0.0,0.0,0.0,0.0,-1.0
133325347,133325278,0.0010258411,0.005263746,0.6610803,-0.0,0.0,0.0,0.0,-1.0
133329403,133329271,0.001434781,0.0049717664,0.66102064,-0.0,0.0,0.0,0.0,-1.0
133333343,133333271,0.00097197556,0.0047036577,0.66102713,-0.0,0.0,0.0,0.0,-1.0
133337416,133337345,0.00012961219,0.0048878454,0.6609506,-0.0,0.0,0.0,0.0,-1.0
133341340,133341271,-8.262158e-07,0.0051132804,0.6609139,-0.0,0.0,0.0,0.0,-1.0
133345356,133345287,0.00058060774,0.00542923,0.66090894,-0.0,0.0,0.0,0.0,-1.0
133349366,133349271,0.0008615502,0.0057969945,0.6608953,-0.0,0.0,0.0,0.0,-1.0
133353340,133353271,0.0010410037,0.0054358416,0.66093016,-0.0,0.0,0.0,0.0,-1.0
133357407,133357296,0.00068615045,0.0051038666,0.6609733,-0.0,0.0,0.0,0.0,-1.0
133361343,133361271,0.0005397654,0.0054145646,0.6610304,-0.0,0.0,0.0,0.0,-1.0
133365361,133365291,0.0010520773,0.0058916435,0.66113585,-0.0,0.0,0.0,0.0,-1.0
133369360,133369284,0.001018322,0.0053634364,0.6612204,-0.0,0.0,0.0,0.0,-1.0
133373340,133373271,0.0003289232,0.00558193,0.66124576,-0.0,0.0,0.0,0.0,-1.0
133377392,133377296,-0.00022546227,0.0054979627,0.6611831,-0.0,0.0,0.0,0.0,-1.0
133381341,133381270,0.0005815132,0.005455142,0.6611571,-0.0,0.0,0.0,0.0,-1.0
133385353,133385283,0.0014322589,0.0058244052,0.6611397,-0.0,0.0,0.0,0.0,-1.0
133389347,133389275,0.0020425762,0.0051028724,0.6610849,-0.0,0.0,0.0,0.0,-1.0
133393344,133393271,0.0013394431,0.0052830586,0.6610475,-0.0,0.0,0.0,0.0,-1.0
133397403,133397296,0.0008623922,0.005793079,0.66091686,-0.0,0.0,0.0,0.0,-1.0
133401340,133401271,0.0005794408,0.005761498,0.66080874,-0.0,0.0,0.0,0.0,-1.0
133405346,133405277,0.0006087688,0.005507174,0.6607267,-0.0,0.0,0.0,0.0,-1.0
133409340,133409271,0.00036158285,0.0052532307,0.6606592,-0.0,0.0,0.0,0.0,-1.0
133413401,133413295,0.0005596844,0.0054357946,0.6606843,-0.0,0.0,0.0,0.0,-1.0
133721354,133721284,0.00036432815,0.005767524,0.66097826,-0.0,0.0,0.0,0.0,-1.0
133725351,133725280,0.00034631515,0.0059017427,0.6609928,-0.0,0.0,0.0,0.0,-1.0
133729351,133729281,0.00065549713,0.0057783104,0.66100353,-0.0,0.0,0.0,0.0,-1.0
133733340,133733271,0.00070949574,0.00498094,0.6610249,-0.0,0.0,0.0,0.0,-1.0
133737375,133737304,0.0010408505,0.005338536,0.6610405,-0.0,0.0,0.0,0.0,-1.0
133741397,133741324,0.00087334245,0.006082035,0.6610545,-0.0,0.0,0.0,0.0,-1.0
133745350,133745277,0.0008166014,0.005999072,0.6609804,-0.0,0.0,0.0,0.0,-1.0
133749380,133749271,0.0009871209,0.0057037044,0.6609554,-0.0,0.0,0.0,0.0,-1.0
133753364,133753289,0.0008085555,0.005711034,0.660962,-0.0,0.0,0.0,0.0,-1.0
133757380,133757307,0.00080630236,0.005383574,0.6610188,-0.0,0.0,0.0,0.0,-1.0
133761365,133761292,0.00076613855,0.005718912,0.66108257,-0.0,0.0,0.0,0.0,-1.0
133813341,133813271,0.00058896624,0.006073591,0.66104674,-0.0,0.0,0.0,0.0,-1.0
133817382,133817301,0.0005321155,0.005432836,0.6610325,-0.0,0.0,0.0,0.0,-1.0
133821385,133821271,0.0009253263,0.0056862365,0.66103345,-0.0,0.0,0.0,0.0,-1.0
133825344,133825271,0.0016159092,0.0061309766,0.6610299,-0.0,0.0,0.0,0.0,-1.0
133829378,133829309,0.0016605867,0.005813708,0.6610231,-0.0,0.0,0.0,0.0,-1.0
133833377,133833271,0.00092064973,0.0055930493,0.66102225,-0.0,0.0,0.0,0.0,-1.0
133837402,133837330,0.00047184655,0.0057779416,0.66096085,-0.0,0.0,0.0,0.0,-1.0
133841380,133841277,0.00037497806,0.005456715,0.66094697,-0.0,0.0,0.0,0.0,-1.0
133845348,133845279,0.0005877628,0.005183101,0.660921,-0.0,0.0,0.0,0.0,-1.0
133849374,133849305,0.00079499837,0.0052769,0.6609659,-0.0,0.0,0.0,0.0,-1.0
133853381,133853271,0.0007735449,0.005692349,0.66106343,-0.0,0.0,0.0,0.0,-1.0
133857407,133857338,0.0014193157,0.005838011,0.6611108,-0.0,0.0,0.0,0.0,-1.0
133861387,133861271,0.0014987353,0.0059845643,0.6610296,-0.0,0.0,0.0,0.0,-1.0
133865368,133865296,0.0011011082,0.005995821,0.6609543,-0.0,0.0,0.0,0.0,-1.0
133869361,133869291,0.00067696156,0.006207473,0.6608997,-0.0,0.0,0.0,0.0,-1.0
133873357,133873288,0.00062232325,0.0062333453,0.6608938,-0.0,0.0,0.0,0.0,-1.0
133877369,133877299,0.0009479063,0.0060018436,0.6610057,-0.0,0.0,0.0,0.0,-1.0
133881340,133881271,0.001365754,0.0060777916,0.66102695,-0.0,0.0,0.0,0.0,-1.0
133885340,133885271,0.0015465645,0.0061062174,0.6610107,-0.0,0.0,0.0,0.0,-1.0
133889346,133889276,0.0010192195,0.005710687,0.6609885,-0.0,0.0,0.0,0.0,-1.0
133893345,133893273,0.001179714,0.0056702807,0.66095364,-0.0,0.0,0.0,0.0,-1.0
133897434,133897328,0.0009430866,0.005509318,0.6609706,-0.0,0.0,0.0,0.0,-1.0
133901340,133901271,0.00016277336,0.0057950015,0.661071,-0.0,0.0,0.0,0.0,-1.0
133905343,133905271,0.00028934202,0.0054962654,0.66108835,-0.0,0.0,0.0,0.0,-1.0
133909380,133909310,0.0007166761,0.005223541,0.66112214,-0.0,0.0,0.0,0.0,-1.0
133913356,133913277,0.00076522137,0.0052117705,0.6611535,-0.0,0.0,0.0,0.0,-1.0
133916568,133916499,0.0012101985,0.0051474944,0.66113037,-0.0,0.0,0.0,0.0,-1.0
133921342,133921270,0.0009010426,0.005693086,0.66109866,-0.0,0.0,0.0,0.0,-1.0
133925340,133925271,0.00084908004,0.005859763,0.66103745,-0.0,0.0,0.0,0.0,-1.0
133929375,133929277,0.0011320141,0.005983214,0.6610386,-0.0,0.0,0.0,0.0,-1.0
133933340,133933271,0.0013454206,0.0059044985,0.66110253,-0.0,0.0,0.0,0.0,-1.0
133937451,133937339,0.0009789382,0.005802432,0.6611964,-0.0,0.0,0.0,0.0,-1.0
133941340,133941271,0.0006479036,0.0057051764,0.6612383,-0.0,0.0,0.0,0.0,-1.0
133945340,133945270,-0.0005493177,0.005990677,0.00049185054,0.0,0.0,0.0,0.0,-1.0
133949406,133949289,-0.0006972434,0.0059797824,0.00036179752,0.0,0.0,0.0,0.0,-1.0
133953340,133953270,-0.00079711725,0.0057320045,0.00029767537,0.0,0.0,0.0,0.0,-1.0
133957418,133957349,-0.00058351905,0.0053723413,0.000315395,0.0,0.0,0.0,0.0,-1.0
133961350,133961281,-0.00026395917,0.005369089,0.00039568395,0.0,0.0,0.0,0.0,-1.0
133965340,133965271,-0.0003509141,0.0057391967,0.00031350486,0.0,0.0,0.0,0.0,-1.0
133969367,133969271,-0.0008275581,0.0058965026,0.00030903108,0.0,0.0,0.0,0.0,-1.0
133973365,133973296,-0.0004910891,0.006203199,0.00026393338,0.0,0.0,0.0,0.0,-1.0
133977442,133977367,-0.00011187605,0.0059894477,0.000107554195,0.0,0.0,0.0,0.0,-1.0
133981345,133981271,-0.0005653713,0.005907007,3.6153673e-05,0.0,0.0,0.0,0.0,-1.0
133985350,133985277,-0.0011875972,0.00589193,0.00012304157,0.0,0.0,0.0,0.0,-1.0
133989378,133989270,-0.0008542269,0.0059213014,0.00014967774,0.0,0.0,0.0,0.0,-1.0
133993353,133993270,-0.0009519628,0.0058777207,0.00017180822,0.0,0.0,0.0,0.0,-1.0
133997391,133997315,-0.0011365263,0.0062681474,0.00018361307,0.0,0.0,0.0,0.0,-1.0
134001387,134001271,-0.00048434624,0.005868727,0.00020694365,0.0,0.0,0.0,0.0,-1.0
134005370,134005294,-0.00025193873,0.0055059628,0.000107393134,0.0,0.0,0.0,0.0,-1.0
134009340,134009270,-0.00075271307,0.0052180127,-1.26801215e-05,0.0,0.0,0.0,0.0,-1.0
134013345,134013271,-0.00053832703,0.005516754,-1.2557654e-05,0.0,0.0,0.0,0.0,-1.0
134017434,134017360,-0.00037496575,0.005692535,0.00014286047,0.0,0.0,0.0,0.0,-1.0
134021380,134021271,-0.00036541247,0.0055342945,0.00034585487,0.0,0.0,0.0,0.0,-1.0
134025345,134025274,-0.0004500036,0.005829358,0.0004483144,0.0,0.0,0.0,0.0,-1.0
134029351,134029272,-0.00096325664,0.0060448316,0.00033759198,0.0,0.0,0.0,0.0,-1.0
134033371,134033293,-0.001123192,0.006061264,0.00017963392,0.0,0.0,0.0,0.0,-1.0
134037448,134037368,-0.00077587296,0.0057455497,0.00013915106,0.0,0.0,0.0,0.0,-1.0
134041343,134041273,-0.0005070146,0.0058891643,0.00015972926,0.0,0.0,0.0,0.0,-1.0
134045340,134045271,-0.00041148538,0.005680208,0.00025489903,0.0,0.0,0.0,0.0,-1.0
134049347,134049270,-0.00019670707,0.0057272445,0.0004044296,0.0,0.0,0.0,0.0,-1.0
134053340,134053271,-0.00030801105,0.005626353,0.00051621057,0.0,0.0,0.0,0.0,-1.0
134057403,134057330,-0.0006086376,0.006184517,0.0004691174,0.0,0.0,0.0,0.0,-1.0
134061345,134061270,-0.0006039058,0.0062420066,0.00044215165,0.0,0.0,0.0,0.0,-1.0
134065355,134065280,-0.00041461838,0.0060450644,0.00039416403,0.0,0.0,0.0,0.0,-1.0
134069340,134069271,-0.00064137176,0.006024437,0.00031925115,0.0,0.0,0.0,0.0,-1.0
134073357,134073271,-0.0010703887,0.0060001262,0.00017368817,0.0,0.0,0.0,0.0,-1.0
134077412,134077304,-0.0013999727,0.005782317,-3.320741e-05,0.0,0.0,0.0,0.0,-1.0
134081346,134081277,-0.0010801756,0.00593491,-0.0001682819,0.0,0.0,0.0,0.0,-1.0
134085380,134085273,-0.0010689035,0.0057768053,-4.4546592e-05,0.0,0.0,0.0,0.0,-1.0
134089364,134089292,-0.0010293687,0.0058032954,0.00017202356,0.0,0.0,0.0,0.0,-1.0
134093344,134093271,-0.00063116103,0.0062082554,0.0002898484,0.0,0.0,0.0,0.0,-1.0
134097400,134097303,-0.0006882189,0.006217237,0.00031272785,0.0,0.0,0.0,0.0,-1.0
134101340,134101271,-0.00032178278,0.0056998814,0.00028220756,0.0,0.0,0.0,0.0,-1.0
134105384,134105278,-0.000635354,0.0054257186,0.00038324113,0.0,0.0,0.0,0.0,-1.0
134109340,134109271,-0.0007913132,0.0062001864,0.0005107778,0.0,0.0,0.0,0.0,-1.0
134113351,134113271,-0.0008123389,0.0060657747,0.0005709537,0.0,0.0,0.0,0.0,-1.0
134117480,134117352,-0.001128514,0.0054779947,0.000517398,0.0,0.0,0.0,0.0,-1.0
134121350,134121281,-0.0009606346,0.005335262,0.0003741297,0.0,0.0,0.0,0.0,-1.0
134125370,134125301,-0.0005094003,0.0057069943,0.00027613153,0.0,0.0,0.0,0.0,-1.0
134129341,134129270,-0.00031736374,0.0057815155,0.00019823339,0.0,0.0,0.0,0.0,-1.0
134133340,134133271,-0.00024620086,0.0062232157,0.00014845836,0.0,0.0,0.0,0.0,-1.0
134137400,134137303,-0.00020897415,0.0062743686,0.00011336395,0.0,0.0,0.0,0.0,-1.0
134141340,134141271,-0.00035759303,0.005964602,0.00015016396,0.0,0.0,0.0,0.0,-1.0
134145386,134145314,-0.0009579553,0.00602723,0.00014851299,0.0,0.0,0.0,0.0,-1.0
134149341,134149271,-0.000971091,0.0061248117,0.00024234409,0.0,0.0,0.0,0.0,-1.0
134153343,134153270,-0.0005248787,0.0062224837,0.00032077366,0.0,0.0,0.0,0.0,-1.0
134157420,134157302,-8.903579e-05,0.0061426037,0.00043853946,0.0,0.0,0.0,0.0,-1.0
134161340,134161271,-0.00043038343,0.005845079,0.00043446198,0.0,0.0,0.0,0.0,-1.0
134165390,134165320,-0.00093150814,0.005802851,0.0003620897,0.0,0.0,0.0,0.0,-1.0
134173359,134173270,-0.00091529393,0.005851279,0.0002752448,0.0,0.0,0.0,0.0,-1.0
134177375,134177298,-0.0007452599,0.0064043123,0.00015684217,0.0,0.0,0.0,0.0,-1.0
134181340,134181271,-0.00052398315,0.0062405486,8.428396e-05,0.0,0.0,0.0,0.0,-1.0
134185368,134185286,-0.000119836586,0.006195459,5.4249314e-05,0.0,0.0,0.0,0.0,-1.0
134189385,134189271,-0.00025150983,0.00640974,0.000114074326,0.0,0.0,0.0,0.0,-1.0
134193364,134193282,-0.0003243331,0.00601762,0.0003136197,0.0,0.0,0.0,0.0,-1.0
134197368,134197298,-0.0006270482,0.005993315,0.00045454266,0.0,0.0,0.0,0.0,-1.0
134201343,134201271,-0.00078118185,0.006074226,0.00046087956,0.0,0.0,0.0,0.0,-1.0
134205388,134205277,-0.0007167552,0.005873555,0.00025275044,0.0,0.0,0.0,0.0,-1.0
134209343,134209273,-0.0005335932,0.0058110086,1.8737177e-05,0.0,0.0,0.0,0.0,-1.0
134213340,134213271,-0.0008915677,0.006032579,-4.0874347e-05,0.0,0.0,0.0,0.0,-1.0
134217370,134217301,-0.0006774757,0.006227012,6.569011e-05,0.0,0.0,0.0,0.0,-1.0
134221362,134221287,-0.00029983203,0.0059659802,7.735386e-05,0.0,0.0,0.0,0.0,-1.0
134225377,134225277,-3.3965996e-05,0.0060215676,-3.613443e-05,0.0,0.0,0.0,0.0,-1.0
134229377,134229302,-0.0005740175,0.0058729267,-9.1376096e-05,0.0,0.0,0.0,0.0,-1.0
134233347,134233278,-0.000662638,0.005872008,-9.462391e-05,0.0,0.0,0.0,0.0,-1.0
134237372,134237303,-0.0008621166,0.005630727,1.7561546e-05,0.0,0.0,0.0,0.0,-1.0
134241340,134241271,-0.00058048754,0.005597024,0.00012551197,0.0,0.0,0.0,0.0,-1.0
134245385,134245278,-0.0005227752,0.0061202277,0.0002251341,0.0,0.0,0.0,0.0,-1.0
134249346,134249277,-0.00047091546,0.0063438294,0.0003204061,0.0,0.0,0.0,0.0,-1.0
134253380,134253271,-0.0004270953,0.006111456,0.00023072309,0.0,0.0,0.0,0.0,-1.0
134257430,134257345,-0.00086756964,0.005579415,0.00015050493,0.0,0.0,0.0,0.0,-1.0
134261345,134261274,-0.00086932525,0.0066192565,6.24965e-05,0.0,0.0,0.0,0.0,-1.0
134265378,134265277,-0.0010155041,0.007009242,-3.5040325e-06,0.0,0.0,0.0,0.0,-1.0
134269340,134269270,-0.00089220854,0.0062791794,-4.070665e-05,0.0,0.0,0.0,0.0,-1.0
134273391,134273277,-0.00032512145,0.006039017,9.355105e-05,0.0,0.0,0.0,0.0,-1.0
134277369,134277296,-0.00014626016,0.005754389,0.00025270172,0.0,0.0,0.0,0.0,-1.0
134281352,134281279,-0.00040739795,0.005495519,0.00035916068,0.0,0.0,0.0,0.0,-1.0
134285405,134285295,-0.00034194696,0.0054920292,0.00031928334,0.0,0.0,0.0,0.0,-1.0
134289340,134289271,0.000106026084,0.005900296,0.00028509324,0.0,0.0,0.0,0.0,-1.0
134293402,134293333,-0.000713792,0.0058922153,0.0003118181,0.0,0.0,0.0,0.0,-1.0
134297372,134297296,-0.0010497385,0.0064188386,0.00030245003,0.0,0.0,0.0,0.0,-1.0
134301355,134301286,-0.0013698,0.0063482164,0.0002646792,0.0,0.0,0.0,0.0,-1.0
134305349,134305276,-0.0011141505,0.0064509506,0.00030844886,0.0,0.0,0.0,0.0,-1.0
134309340,134309271,-0.0008113985,0.0066688084,0.0002682325,0.0,0.0,0.0,0.0,-1.0
134313370,134313298,-0.00068175956,0.0064664157,0.00018456034,0.0,0.0,0.0,0.0,-1.0
134317366,134317296,-0.00051770284,0.0060439915,9.250477e-05,0.0,0.0,0.0,0.0,-1.0
134321341,134321272,-0.00081802305,0.005929442,5.9152826e-05,0.0,0.0,0.0,0.0,-1.0
134325347,134325277,-0.0009102027,0.005446696,-4.761113e-05,0.0,0.0,0.0,0.0,-1.0
134329340,134329271,-0.0008125964,0.005974737,-0.00022497105,0.0,0.0,0.0,0.0,-1.0
134333369,134333300,-0.0006377381,0.0067570275,-0.00023145508,0.0,0.0,0.0,0.0,-1.0
134337402,134337296,-0.00082864705,0.00653107,-7.64413e-05,0.0,0.0,0.0,0.0,-1.0
134341363,134341291,-0.00074797083,0.0059053944,0.00012590566,0.0,0.0,0.0,0.0,-1.0
134345350,134345271,-0.0013146161,0.005682305,0.00027872925,0.0,0.0,0.0,0.0,-1.0
134349340,134349270,-0.0012992996,0.006136291,0.00033861244,0.0,0.0,0.0,0.0,-1.0
134353373,134353277,-0.000462519,0.0062295026,0.00028071232,0.0,0.0,0.0,0.0,-1.0
134357413,134357296,2.5926043e-05,0.0065402,0.00014834035,0.0,0.0,0.0,0.0,-1.0
134361340,134361270,-0.00025830857,0.006348322,3.687962e-05,0.0,0.0,0.0,0.0,-1.0
134365348,134365271,-0.00025368985,0.006080012,1.5717862e-05,0.0,0.0,0.0,0.0,-1.0
134369343,134369271,0.00033314637,0.006020403,9.965797e-05,0.0,0.0,0.0,0.0,-1.0
134373388,134373277,-0.00064621103,0.005700415,0.00015354065,0.0,0.0,0.0,0.0,-1.0
134377406,134377332,-0.0011646651,0.005974947,0.00020926635,0.0,0.0,0.0,0.0,-1.0
134381340,134381271,-0.0011372262,0.005752904,0.00026656827,0.0,0.0,0.0,0.0,-1.0
134385353,134385271,-0.0011051043,0.0057147285,0.00017807595,0.0,0.0,0.0,0.0,-1.0
134389340,134389271,-0.0013207186,0.006161438,0.00013096788,0.0,0.0,0.0,0.0,-1.0
134393373,134393276,-0.00085578545,0.0063215485,0.00017940403,0.0,0.0,0.0,0.0,-1.0
134397396,134397311,-0.00027005238,0.0062926263,0.00018900093,0.0,0.0,0.0,0.0,-1.0
134401419,134401310,-0.0004956049,0.006932996,0.00012801788,0.0,0.0,0.0,0.0,-1.0
134405340,134405271,-0.00064988795,0.0065444354,0.00018415663,0.0,0.0,0.0,0.0,-1.0
134409342,134409271,-0.00083585724,0.0059996895,0.00039031394,0.0,0.0,0.0,0.0,-1.0
134413384,134413277,-0.00078696763,0.006343543,0.0005609519,0.0,0.0,0.0,0.0,-1.0
134417380,134417311,-0.0010292901,0.0062773996,0.0005385625,0.0,0.0,0.0,0.0,-1.0
134421428,134421320,-0.0006765843,0.006205492,0.00038960658,0.0,0.0,0.0,0.0,-1.0
134428565,134428485,-0.00023669649,0.006717289,9.795416e-05,0.0,0.0,0.0,0.0,-1.0
134433374,134433278,-0.00013242607,0.006690842,8.748933e-05,0.0,0.0,0.0,0.0,-1.0
134437371,134437302,-0.000854472,0.0062051173,2.9760535e-05,0.0,0.0,0.0,0.0,-1.0
134441408,134441302,-0.000978207,0.005883142,2.6321692e-05,0.0,0.0,0.0,0.0,-1.0
134445340,134445271,-0.00053975114,0.0059058038,6.626107e-05,0.0,0.0,0.0,0.0,-1.0
134449340,134449271,-0.00087190926,0.0057873856,0.0001279487,0.0,0.0,0.0,0.0,-1.0
134453349,134453277,-0.0008174038,0.0058325147,0.00012769228,0.0,0.0,0.0,0.0,-1.0
134457366,134457296,-0.0011381588,0.0058690566,0.00011121978,0.0,0.0,0.0,0.0,-1.0
134461390,134461321,-0.00089521427,0.006197148,0.00019511544,0.0,0.0,0.0,0.0,-1.0
134465344,134465271,-0.00028163096,0.0061342916,0.00014624793,0.0,0.0,0.0,0.0,-1.0
134469344,134469271,-0.00033037207,0.0067164847,0.00011917461,0.0,0.0,0.0,0.0,-1.0
134473346,134473277,-0.00061212265,0.0070882896,7.388417e-05,0.0,0.0,0.0,0.0,-1.0
134477366,134477296,-0.000912715,0.006753041,0.00012644369,0.0,0.0,0.0,0.0,-1.0
134481394,134481322,-0.0007340423,0.0063670576,0.00018040791,0.0,0.0,0.0,0.0,-1.0
134485341,134485271,-0.000876783,0.0056983586,0.00029518813,0.0,0.0,0.0,0.0,-1.0
134489340,134489271,-0.0011106068,0.0056137997,0.0003171131,0.0,0.0,0.0,0.0,-1.0
134493347,134493277,-0.0006738573,0.005603008,0.0002461332,0.0,0.0,0.0,0.0,-1.0
134497375,134497296,-0.00037485946,0.00569964,0.00017192539,0.0,0.0,0.0,0.0,-1.0
134501381,134501270,-0.0005012711,0.0062778345,0.00018200323,0.0,0.0,0.0,0.0,-1.0
134505377,134505271,-0.0008323217,0.006572925,0.0002543903,0.0,0.0,0.0,0.0,-1.0
134509362,134509287,-0.00074605213,0.0059691896,0.0002765046,0.0,0.0,0.0,0.0,-1.0
134513350,134513277,-0.00029616107,0.0062632007,0.00019022082,0.0,0.0,0.0,0.0,-1.0
134517370,134517296,-0.00029646262,0.0062753055,3.0447873e-05,0.0,0.0,0.0,0.0,-1.0
134521375,134521274,-0.0005605835,0.0062667863,-1.8357854e-05,0.0,0.0,0.0,0.0,-1.0
134525380,134525270,-0.0009145536,0.0064484156,3.461318e-05,0.0,0.0,0.0,0.0,-1.0
134529366,134529291,-0.0014032861,0.0065444587,7.556908e-05,0.0,0.0,0.0,0.0,-1.0
134533341,134533271,-0.0015218895,0.006422555,0.0001395271,0.0,0.0,0.0,0.0,-1.0
134537393,134537321,-0.00061623077,0.0061163595,0.00010314059,0.0,0.0,0.0,0.0,-1.0
134541384,134541277,-0.00034596192,0.0061062477,0.00012084207,0.0,0.0,0.0,0.0,-1.0
134545353,134545284,-0.00041891646,0.006371002,0.00019494761,0.0,0.0,0.0,0.0,-1.0
134549351,134549281,-0.0009314986,0.0065591005,0.00028520776,0.0,0.0,0.0,0.0,-1.0
134553353,134553271,-0.00064945745,0.0063095675,0.00030671468,0.0,0.0,0.0,0.0,-1.0
134557390,134557321,-0.000490234,0.005760966,0.0002694994,0.0,0.0,0.0,0.0,-1.0
134561383,134561277,-0.00069791387,0.006341018,0.00022386627,0.0,0.0,0.0,0.0,-1.0
134565392,134565320,-0.00083203363,0.0066874367,0.0001777277,0.0,0.0,0.0,0.0,-1.0
134569349,134569280,-0.0006100959,0.0066126585,0.0002453468,0.0,0.0,0.0,0.0,-1.0
134573351,134573282,-0.00043551088,0.006532888,0.00028594438,0.0,0.0,0.0,0.0,-1.0
134577368,134577298,-0.00041004008,0.0065317154,0.00034490833,0.0,0.0,0.0,0.0,-1.0
134581384,134581277,-0.0003203519,0.0063324682,0.00038211685,0.0,0.0,0.0,0.0,-1.0
134585353,134585284,-0.0005346174,0.005792482,0.00031836054,0.0,0.0,0.0,0.0,-1.0
134589390,134589295,-0.0006845259,0.0066392347,0.00023327999,0.0,0.0,0.0,0.0,-1.0
134593343,134593271,-0.0006708458,0.006801036,0.00017294553,0.0,0.0,0.0,0.0,-1.0
134597388,134597318,-0.0006150679,0.0062779454,0.0001525643,0.0,0.0,0.0,0.0,-1.0
134601346,134601276,-0.00012429681,0.006340856,0.00018695917,0.0,0.0,0.0,0.0,-1.0
134605340,134605271,-0.00066184375,0.006488143,0.0002716432,0.0,0.0,0.0,0.0,-1.0
134609386,134609280,-0.001208024,0.0066689076,0.00027949916,0.0,0.0,0.0,0.0,-1.0
134613340,134613271,-0.0011018167,0.006800547,0.00014231741,0.0,0.0,0.0,0.0,-1.0
134617408,134617338,-0.0012328184,0.0061781066,-2.3516597e-05,0.0,0.0,0.0,0.0,-1.0
134621431,134621312,-0.0008805397,0.0058471607,9.373581e-05,0.0,0.0,0.0,0.0,-1.0
134625350,134625281,-0.0006930622,0.0063731507,0.00021247119,0.0,0.0,0.0,0.0,-1.0
134629402,134629332,-0.00089597603,0.0066842143,0.0001341188,0.0,0.0,0.0,0.0,-1.0
134633360,134633280,-0.0009123801,0.0063403416,7.0390284e-05,0.0,0.0,0.0,0.0,-1.0
134637403,134637330,-0.00032869677,0.0067182244,4.609412e-05,0.0,0.0,0.0,0.0,-1.0
134641359,134641277,-0.00031063255,0.0072887605,1.4789271e-05,0.0,0.0,0.0,0.0,-1.0
134645339,134645270,-0.0003635717,0.0072754566,2.0139073e-06,0.0,0.0,0.0,0.0,-1.0
134649374,134649276,-0.00027083198,0.0067578456,2.5374557e-05,0.0,0.0,0.0,0.0,-1.0
134653342,134653271,-0.0007471884,0.005797147,0.000102283004,0.0,0.0,0.0,0.0,-1.0
134657417,134657344,-0.00095512485,0.005848609,0.00013582659,0.0,0.0,0.0,0.0,-1.0
134661350,134661277,-0.0006755037,0.0065870066,9.178337e-05,0.0,0.0,0.0,0.0,-1.0
134665344,134665270,-0.00075586204,0.0068525635,4.797344e-05,0.0,0.0,0.0,0.0,-1.0
134669404,134669289,-0.0007446742,0.006561858,4.3872442e-05,0.0,0.0,0.0,0.0,-1.0
134673369,134673270,-0.00038668734,0.0063977116,0.00013000723,0.0,0.0,0.0,0.0,-1.0
134677414,134677326,-0.0003277409,0.006444644,0.00025391387,0.0,0.0,0.0,0.0,-1.0
134681350,134681277,-0.0006425091,0.0064590317,0.0003097823,0.0,0.0,0.0,0.0,-1.0
134685345,134685271,-0.00078554824,0.0067805997,0.00026211212,0.0,0.0,0.0,0.0,-1.0
134689370,134689270,-0.0007228482,0.0067007663,0.00011068819,0.0,0.0,0.0,0.0,-1.0
134693377,134693270,-0.00030840875,0.0066147023,5.4136643e-05,0.0,0.0,0.0,0.0,-1.0
134697403,134697330,-0.00028785254,0.0067170653,7.766823e-05,0.0,0.0,0.0,0.0,-1.0
134701347,134701277,-0.0005465082,0.0068112873,0.00016629489,0.0,0.0,0.0,0.0,-1.0
134705363,134705291,-0.0009497347,0.0068353624,0.00027715057,0.0,0.0,0.0,0.0,-1.0
134709378,134709271,-0.0010366897,0.006191386,0.00024572414,0.0,0.0,0.0,0.0,-1.0
134713353,134713284,-0.00072906667,0.0062422226,0.00023533775,0.0,0.0,0.0,0.0,-1.0
134717425,134717341,-0.0008768148,0.006570011,0.000224269,0.0,0.0,0.0,0.0,-1.0
134721340,134721271,-0.0010485853,0.0065746964,0.00024486645,0.0,0.0,0.0,0.0,-1.0
134725370,134725287,-0.0009868916,0.006622091,0.00025877473,0.0,0.0,0.0,0.0,-1.0
134729374,134729277,-0.00052342704,0.0066151815,0.0002674221,0.0,0.0,0.0,0.0,-1.0
134733392,134733320,-0.00035698764,0.006662787,0.00023858997,0.0,0.0,0.0,0.0,-1.0
134737437,134737330,-0.00023305489,0.0063489457,0.00024270099,0.0,0.0,0.0,0.0,-1.0
134741340,134741271,-0.00047581052,0.0062222383,0.00039906995,0.0,0.0,0.0,0.0,-1.0
134745340,134745270,-0.00093494705,0.0066825924,0.00040394175,0.0,0.0,0.0,0.0,-1.0
134749348,134749277,-0.0010521577,0.006695315,0.00027617178,0.0,0.0,0.0,0.0,-1.0
134753359,134753277,-0.00039071002,0.0063229455,0.00017802387,0.0,0.0,0.0,0.0,-1.0
134757435,134757340,-0.0005251096,0.00668053,0.0001559892,0.0,0.0,0.0,0.0,-1.0
134761361,134761289,-0.0013050904,0.007021946,0.00011998527,0.0,0.0,0.0,0.0,-1.0
134765340,134765271,-0.0012165518,0.0066185673,0.00017093454,0.0,0.0,0.0,0.0,-1.0
134769346,134769277,-0.0007944612,0.0066219713,0.00021079919,0.0,0.0,0.0,0.0,-1.0
134773340,134773270,-0.0001697783,0.0063817175,0.0001669888,0.0,0.0,0.0,0.0,-1.0
134777442,134777297,-0.00015142365,0.0064115566,0.00022799439,0.0,0.0,0.0,0.0,-1.0
134781345,134781271,-0.0008107006,0.0063077617,0.00012123628,0.0,0.0,0.0,0.0,-1.0
134785351,134785282,-0.0011725309,0.006628991,-5.461125e-05,0.0,0.0,0.0,0.0,-1.0
134789368,134789296,-0.0007539098,0.006786834,-0.00023206578,0.0,0.0,0.0,0.0,-1.0
134793350,134793281,-0.00074984814,0.006833776,-0.0002239814,0.0,0.0,0.0,0.0,-1.0
134797443,134797332,-0.0006038922,0.006581517,-1.879691e-05,0.0,0.0,0.0,0.0,-1.0
134801340,134801271,-0.0005062125,0.0064815613,0.00017879235,0.0,0.0,0.0,0.0,-1.0
134805340,134805271,-0.00039668687,0.0064075487,0.00026533328,0.0,0.0,0.0,0.0,-1.0
134809347,134809277,-0.00033794594,0.0065930597,0.00032640054,0.0,0.0,0.0,0.0,-1.0
134813340,134813271,-0.00090378174,0.007035369,0.00040070454,0.0,0.0,0.0,0.0,-1.0
134817441,134817342,-0.0014113595,0.006965915,0.00034909637,0.0,0.0,0.0,0.0,-1.0
134821370,134821300,-0.0011373594,0.006777925,0.00031314263,0.0,0.0,0.0,0.0,-1.0
134825353,134825284,-0.0008534822,0.0063678417,0.00027905963,0.0,0.0,0.0,0.0,-1.0
134829347,134829277,-0.0006627299,0.006383199,0.00018470109,0.0,0.0,0.0,0.0,-1.0
134833341,134833272,-0.0006263826,0.0069404896,8.771402e-05,0.0,0.0,0.0,0.0,-1.0
134837440,134837333,-0.0003257508,0.006852357,0.00010257608,0.0,0.0,0.0,0.0,-1.0
134841377,134841271,-0.00029842652,0.006839178,0.00018117993,0.0,0.0,0.0,0.0,-1.0
134845344,134845274,-0.0009963334,0.006536526,0.0003011296,0.0,0.0,0.0,0.0,-1.0
134849346,134849277,-0.0013197631,0.0063109794,0.0003603083,0.0,0.0,0.0,0.0,-1.0
134853344,134853273,-0.0010878169,0.006568354,0.00031599434,0.0,0.0,0.0,0.0,-1.0
134857413,134857317,-0.00077348534,0.0066450643,0.00024534363,0.0,0.0,0.0,0.0,-1.0
134861380,134861271,-0.00086215645,0.006269126,0.00022827483,0.0,0.0,0.0,0.0,-1.0
134865342,134865272,-0.0008169828,0.00613345,0.00030166324,0.0,0.0,0.0,0.0,-1.0
134869346,134869277,-0.0009211463,0.0062135323,0.0002980647,0.0,0.0,0.0,0.0,-1.0
134873343,134873271,-0.0007451818,0.0065652886,0.00027225827,0.0,0.0,0.0,0.0,-1.0
134877442,134877331,-0.0002559431,0.006928741,0.00016837321,0.0,0.0,0.0,0.0,-1.0
134881353,134881284,-0.0003759697,0.0068475488,2.7694054e-05,0.0,0.0,0.0,0.0,-1.0
134885351,134885282,-0.00064993015,0.0064775404,3.4770899e-06,0.0,0.0,0.0,0.0,-1.0
134889346,134889277,-0.00021962797,0.0069940514,4.5166358e-05,0.0,0.0,0.0,0.0,-1.0
134893340,134893271,-0.00086319615,0.006967342,0.00012889226,0.0,0.0,0.0,0.0,-1.0
134897367,134897297,-0.0015791544,0.0062494646,0.00025266872,0.0,0.0,0.0,0.0,-1.0
134901356,134901284,-0.0010278033,0.00645329,0.00030642483,0.0,0.0,0.0,0.0,-1.0
134905355,134905286,-0.00036847367,0.0065641496,0.00038232724,0.0,0.0,0.0,0.0,-1.0
134909340,134909271,-0.0002885226,0.006553835,0.0004815162,0.0,0.0,0.0,0.0,-1.0
134913347,134913278,-0.0005413853,0.006006135,0.00048048105,0.0,0.0,0.0,0.0,-1.0
134917376,134917303,-0.00031944632,0.006328005,0.000405612,0.0,0.0,0.0,0.0,-1.0
134921364,134921291,3.8325976e-05,0.006433866,0.0002811516,0.0,0.0,0.0,0.0,-1.0
134925419,134925271,-0.00034343486,0.006953508,0.00021297087,0.0,0.0,0.0,0.0,-1.0
134929363,134929291,-0.0007520222,0.0070527573,0.00014855845,0.0,0.0,0.0,0.0,-1.0
134933351,134933276,-0.0010705121,0.0068711946,0.000121203906,0.0,0.0,0.0,0.0,-1.0
134937373,134937303,-0.001500266,0.006857784,6.313885e-05,0.0,0.0,0.0,0.0,-1.0
134941340,134941271,-0.0016252251,0.0069449754,0.00013817383,0.0,0.0,0.0,0.0,-1.0
134945406,134945271,-0.0011618357,0.006434459,0.00017040687,0.0,0.0,0.0,0.0,-1.0
134949340,134949271,-0.0006744005,0.006213933,0.00013111222,0.0,0.0,0.0,0.0,-1.0
134953355,134953286,-0.00025186487,0.0066505107,6.983479e-05,0.0,0.0,0.0,0.0,-1.0
134957372,134957301,-0.00015711877,0.0067525557,5.1137426e-06,0.0,0.0,0.0,0.0,-1.0
134961358,134961289,0.00012997328,0.006967829,-8.974428e-05,0.0,0.0,0.0,0.0,-1.0
134965391,134965284,-0.00048239794,0.0070080613,-0.00017656441,0.0,0.0,0.0,0.0,-1.0
134969359,134969281,-0.0009181401,0.0068718004,-0.000119552824,0.0,0.0,0.0,0.0,-1.0
134973389,134973319,-0.001312011,0.0067445734,5.589954e-05,0.0,0.0,0.0,0.0,-1.0
134977373,134977304,-0.0012989917,0.0069552003,0.0003716262,0.0,0.0,0.0,0.0,-1.0
134981344,134981271,-0.00065646705,0.006325268,0.0006141264,0.0,0.0,0.0,0.0,-1.0
134985379,134985277,-0.00037812217,0.0064344495,0.0006475467,0.0,0.0,0.0,0.0,-1.0
134989345,134989271,-0.00051627785,0.006516878,0.00053089735,0.0,0.0,0.0,0.0,-1.0
134993387,134993317,-0.0009897756,0.0067010215,0.00035137398,0.0,0.0,0.0,0.0,-1.0
134997381,134997311,-0.0011092371,0.00663379,0.0002854904,0.0,0.0,0.0,0.0,-1.0
135001360,135001291,-0.0009054204,0.006728386,0.00027938568,0.0,0.0,0.0,0.0,-1.0
135005406,135005285,-0.0004745757,0.0067391526,0.00024512454,0.0,0.0,0.0,0.0,-1.0
135009381,135009271,-0.00077877013,0.006802972,0.00015579474,0.0,0.0,0.0,0.0,-1.0
135013360,135013279,-0.00083175296,0.007097335,0.00012741986,0.0,0.0,0.0,0.0,-1.0
135017375,135017306,-0.0003837709,0.007304421,7.1057446e-05,0.0,0.0,0.0,0.0,-1.0
135021374,135021305,-0.00036501224,0.007230042,2.1366724e-05,0.0,0.0,0.0,0.0,-1.0
135025341,135025271,-0.00053430506,0.0066541424,-1.5669339e-05,0.0,0.0,0.0,0.0,-1.0
135029380,135029270,-0.00081994775,0.0065380796,3.7364185e-05,0.0,0.0,0.0,0.0,-1.0
135033340,135033270,-0.00094576087,0.006984376,0.00019290269,0.0,0.0,0.0,0.0,-1.0
135037374,135037303,-0.0011754322,0.006413599,0.00045427214,0.0,0.0,0.0,0.0,-1.0
135041344,135041274,-0.00033859807,0.0063222595,0.000623418,0.0,0.0,0.0,0.0,-1.0
135045340,135045271,-0.00035416154,0.0070078275,0.00061628094,0.0,0.0,0.0,0.0,-1.0
135049353,135049284,-0.00077260303,0.0073978645,0.0004544512,0.0,0.0,0.0,0.0,-1.0
135053372,135053301,-0.00054472615,0.0071525755,0.00021354023,0.0,0.0,0.0,0.0,-1.0
135057370,135057297,-0.00054162793,0.006676524,0.00012687803,0.0,0.0,0.0,0.0,-1.0
135061342,135061273,-0.0001061421,0.0069265547,0.00012781378,0.0,0.0,0.0,0.0,-1.0
135065340,135065271,-0.0005258678,0.006992733,0.00011213647,0.0,0.0,0.0,0.0,-1.0
135069345,135069273,-0.0010139253,0.00701719,0.0001682935,0.0,0.0,0.0,0.0,-1.0
135073366,135073270,-0.0010970074,0.007109517,0.000143234,0.0,0.0,0.0,0.0,-1.0
135077375,135077306,-0.0009268236,0.0071633556,5.7350193e-05,0.0,0.0,0.0,0.0,-1.0
135081369,135081289,-0.0010620658,0.006850754,3.671567e-05,0.0,0.0,0.0,0.0,-1.0
135085347,135085278,-0.0012190557,0.006628241,0.0002395822,0.0,0.0,0.0,0.0,-1.0
135089365,135089285,-0.0012535554,0.0069855386,0.00042773463,0.0,0.0,0.0,0.0,-1.0
135093418,135093271,-0.0009494251,0.0072706663,0.0005597837,0.0,0.0,0.0,0.0,-1.0
135097412,135097340,-0.0009547821,0.006921213,0.0005125409,0.0,0.0,0.0,0.0,-1.0
135101340,135101271,-0.000989315,0.0066858674,0.0003174521,0.0,0.0,0.0,0.0,-1.0
135105353,135105277,-0.00092515716,0.006249631,0.00012368543,0.0,0.0,0.0,0.0,-1.0
135109344,135109275,-0.00050859235,0.0065894364,3.6052126e-05,0.0,0.0,0.0,0.0,-1.0
135113403,135113271,-0.00081862765,0.007060474,2.806635e-05,0.0,0.0,0.0,0.0,-1.0
135116560,135116491,-0.00091318577,0.006842647,1.2324875e-05,0.0,0.0,0.0,0.0,-1.0
135121353,135121271,-0.0008988514,0.0070798425,0.0001343925,0.0,0.0,0.0,0.0,-1.0
135125349,135125277,-0.00052298687,0.006926938,0.00030814527,0.0,0.0,0.0,0.0,-1.0
135129351,135129279,-0.0004067387,0.0069010244,0.00035957946,0.0,0.0,0.0,0.0,-1.0
135133395,135133284,-0.00023729615,0.006817947,0.000355577,0.0,0.0,0.0,0.0,-1.0
135136584,135136515,-0.000633537,0.006671625,0.00028031334,0.0,0.0,0.0,0.0,-1.0
135141350,135141281,-0.00069077284,0.0064177075,0.00014503136,0.0,0.0,0.0,0.0,-1.0
135145347,135145277,-0.0005940805,0.006816487,-2.7752581e-05,0.0,0.0,0.0,0.0,-1.0
135149348,135149277,-0.0007104991,0.0067206584,-0.00021696427,0.0,0.0,0.0,0.0,-1.0
135153372,135153273,-0.0007895469,0.0068677883,-0.00022873678,0.0,0.0,0.0,0.0,-1.0
135157369,135157298,-0.0012351351,0.006895546,-5.6036002e-05,0.0,0.0,0.0,0.0,-1.0
135161390,135161319,-0.0012742998,0.0071454877,0.00017139291,0.0,0.0,0.0,0.0,-1.0
135165346,135165277,-0.0010616039,0.0075437543,0.00036544524,0.0,0.0,0.0,0.0,-1.0
135169340,135169271,-0.0006366496,0.0075500375,0.00028583204,0.0,0.0,0.0,0.0,-1.0
135173340,135173271,-0.000926551,0.0068847495,0.0002074365,0.0,0.0,0.0,0.0,-1.0
135177415,135177297,-0.0007048852,0.006654269,0.00012673652,0.0,0.0,0.0,0.0,-1.0
135182150,135182077,-0.0003145677,0.0068749115,3.9646344e-05,0.0,0.0,0.0,0.0,-1.0
135186143,135186071,-0.00015150463,0.0067099575,-1.7222923e-05,0.0,0.0,0.0,0.0,-1.0
135190150,135190078,-0.00053800107,0.0066974256,-1.6966998e-05,0.0,0.0,0.0,0.0,-1.0
135194232,135194077,-0.0008231887,0.0067208535,3.4107557e-05,0.0,0.0,0.0,0.0,-1.0
135197401,135197304,-0.0012576336,0.0069788294,5.8762347e-05,0.0,0.0,0.0,0.0,-1.0
135201365,135201296,-0.0011810358,0.0073023885,0.00010040418,0.0,0.0,0.0,0.0,-1.0
135205347,135205277,-0.0008772028,0.007307989,0.0002168503,0.0,0.0,0.0,0.0,-1.0
135208585,135208516,-0.0008195625,0.0074144555,0.0002418999,0.0,0.0,0.0,0.0,-1.0
135212551,135212471,-0.0007076244,0.007858464,0.0001806413,0.0,0.0,0.0,0.0,-1.0
135217447,135217375,-0.00063957134,0.00728632,4.2497904e-05,0.0,0.0,0.0,0.0,-1.0
135221382,135221271,-0.0004908779,0.006682028,7.997677e-05,0.0,0.0,0.0,0.0,-1.0
135225340,135225271,-0.00082934136,0.0068221265,6.322053e-05,0.0,0.0,0.0,0.0,-1.0
135229353,135229278,-0.0009484751,0.006991794,9.730416e-05,0.0,0.0,0.0,0.0,-1.0
135233341,135233271,-0.00061282667,0.007255036,0.00016739806,0.0,0.0,0.0,0.0,-1.0
135237418,135237335,-0.0008492149,0.007375131,0.00014917568,0.0,0.0,0.0,0.0,-1.0
135241367,135241271,-0.0011870712,0.0074555357,0.00018548073,0.0,0.0,0.0,0.0,-1.0
135245347,135245277,-0.0010252303,0.0077111004,0.00025575413,0.0,0.0,0.0,0.0,-1.0
135249357,135249278,-0.0006919108,0.0071980967,0.00034802008,0.0,0.0,0.0,0.0,-1.0
135253340,135253271,-0.00038277733,0.0067979437,0.00026269618,0.0,0.0,0.0,0.0,-1.0
135257369,135257296,-0.00060087064,0.006941731,0.00017712601,0.0,0.0,0.0,0.0,-1.0
135261415,135261271,-0.00045651104,0.0073673204,0.0001505117,0.0,0.0,0.0,0.0,-1.0
135265343,135265271,-0.00043525937,0.006979269,5.985578e-05,0.0,0.0,0.0,0.0,-1.0
135269348,135269278,-0.00051516347,0.0065179407,6.8600886e-05,0.0,0.0,0.0,0.0,-1.0
135273346,135273277,-0.0003907251,0.006787104,0.0001937452,0.0,0.0,0.0,0.0,-1.0
135277388,135277315,-0.00090922555,0.00686043,0.00035715854,0.0,0.0,0.0,0.0,-1.0
135281392,135281271,-0.0012107659,0.0069363094,0.00040742848,0.0,0.0,0.0,0.0,-1.0
135285340,135285271,-0.0013998981,0.007073863,0.0004559516,0.0,0.0,0.0,0.0,-1.0
135289389,135289319,-0.000837752,0.007316693,0.00046528244,0.0,0.0,0.0,0.0,-1.0
135293349,135293277,-0.00036262066,0.0077102925,0.000386677,0.0,0.0,0.0,0.0,-1.0
135297389,135297316,-0.0004303352,0.0077061094,0.00016029169,0.0,0.0,0.0,0.0,-1.0
135301391,135301284,-0.00056912977,0.007344285,4.133417e-05,0.0,0.0,0.0,0.0,-1.0
135305347,135305271,-0.0010164034,0.006913308,5.244394e-07,0.0,0.0,0.0,0.0,-1.0
135309347,135309278,-0.0009788873,0.007128978,0.00014764754,0.0,0.0,0.0,0.0,-1.0
135313353,135313277,-0.00037579882,0.007762926,0.00029609923,0.0,0.0,0.0,0.0,-1.0
135317376,135317297,-0.0005005569,0.007010215,0.00027057176,0.0,0.0,0.0,0.0,-1.0
135321347,135321275,-0.00021841361,0.0065335077,0.00027530023,0.0,0.0,0.0,0.0,-1.0
135325343,135325270,-7.274931e-05,0.0068786773,0.00029934171,0.0,0.0,0.0,0.0,-1.0
135329353,135329280,-0.0010574429,0.0074195587,0.0003549943,0.0,0.0,0.0,0.0,-1.0
135333367,135333277,-0.00151317,0.0069324155,0.00037648383,0.0,0.0,0.0,0.0,-1.0
135337432,135337338,-0.0009968771,0.0067369887,0.0002798136,0.0,0.0,0.0,0.0,-1.0
135341344,135341271,-0.00043086248,0.0068481998,0.00026380405,0.0,0.0,0.0,0.0,-1.0
135344580,135344510,-0.0005046881,0.0069894893,0.00020170359,0.0,0.0,0.0,0.0,-1.0
135348604,135348471,-0.00049980887,0.0077570593,0.0002083869,0.0,0.0,0.0,0.0,-1.0
135351754,135351684,-0.00067376887,0.008720393,0.00024623124,0.0,0.0,0.0,0.0,-1.0
135356545,135356475,-0.0008325125,0.008093719,0.00030087723,0.0,0.0,0.0,0.0,-1.0
135359774,135359702,-0.0007914432,0.0068067606,0.0003229887,0.0,0.0,0.0,0.0,-1.0
135364540,135364471,-0.00051758776,0.0068670423,0.00025645396,0.0,0.0,0.0,0.0,-1.0
135368595,135368488,-0.0005725976,0.007229335,0.00021328707,0.0,0.0,0.0,0.0,-1.0
135373348,135373277,-0.00030615085,0.00729717,0.00012939188,0.0,0.0,0.0,0.0,-1.0
135377398,135377326,-0.00014796328,0.007148385,8.728087e-05,0.0,0.0,0.0,0.0,-1.0
135381340,135381271,-0.0010224701,0.006967895,5.462218e-05,0.0,0.0,0.0,0.0,-1.0
135385354,135385284,-0.0013034943,0.006974196,0.00012266426,0.0,0.0,0.0,0.0,-1.0
135389381,135389270,-0.0010146912,0.006459677,0.00028923727,0.0,0.0,0.0,0.0,-1.0
135393340,135393271,-0.0010925345,0.006965963,0.0003337318,0.0,0.0,0.0,0.0,-1.0
135396560,135396490,-0.0014587408,0.0076627894,0.00033859359,0.0,0.0,0.0,0.0,-1.0
135400540,135400471,-0.0014497101,0.007497356,0.00036956192,0.0,0.0,0.0,0.0,-1.0
135404544,135404475,-0.0007584486,0.0074679297,0.00044283006,0.0,0.0,0.0,0.0,-1.0
135408543,135408474,-0.00034200217,0.007760678,0.00051123876,0.0,0.0,0.0,0.0,-1.0
135412583,135412477,-0.00031865516,0.007403518,0.00047344403,0.0,0.0,0.0,0.0,-1.0
135415840,135415704,-0.00055674126,0.0073430804,0.00038186397,0.0,0.0,0.0,0.0,-1.0
135420540,135420471,-0.0007502084,0.0072074383,0.00025892846,0.0,0.0,0.0,0.0,-1.0
135424541,135424471,-0.0007529476,0.007486809,0.00030115125,0.0,0.0,0.0,0.0,-1.0
135428540,135428471,-0.0005669442,0.007782127,0.00047551972,0.0,0.0,0.0,0.0,-1.0
135432587,135432477,-0.0005033745,0.0076246248,0.0005550285,0.0,0.0,0.0,0.0,-1.0
135436568,135436471,-0.00074465113,0.0077004666,0.00044884114,0.0,0.0,0.0,0.0,-1.0
135440540,135440471,-0.0010270557,0.0075833355,0.0003444469,0.0,0.0,0.0,0.0,-1.0
135444547,135444478,-0.0010286894,0.007505278,0.00029241169,0.0,0.0,0.0,0.0,-1.0
135448540,135448471,-0.0013336778,0.007304447,0.00032761967,0.0,0.0,0.0,0.0,-1.0
135452590,135452520,-0.0012287934,0.0067192414,0.00030111955,0.0,0.0,0.0,0.0,-1.0
135457391,135457321,-0.00060536934,0.006914993,0.00022363926,0.0,0.0,0.0,0.0,-1.0
135464592,135464516,-0.0003372247,0.007290825,0.00017649133,0.0,0.0,0.0,0.0,-1.0
135468543,135468473,-0.00043658505,0.0074628326,4.2695938e-05,0.0,0.0,0.0,0.0,-1.0
135471780,135471704,-0.00075794436,0.007897393,-0.00010442491,0.0,0.0,0.0,0.0,-1.0
135476567,135476470,-0.0012120177,0.0075967046,-0.00012912689,0.0,0.0,0.0,0.0,-1.0
135480548,135480478,-0.0009601336,0.007261168,3.8220182e-06,0.0,0.0,0.0,0.0,-1.0
135484547,135484474,-0.0006490632,0.007259703,0.00019193185,0.0,0.0,0.0,0.0,-1.0
135488544,135488470,-0.0004931654,0.0074748495,0.00025816922,0.0,0.0,0.0,0.0,-1.0
135492578,135492508,-0.00049286074,0.0072904103,0.00018018042,0.0,0.0,0.0,0.0,-1.0
135496621,135496471,-0.0005185085,0.0070299325,1.917972e-05,0.0,0.0,0.0,0.0,-1.0
135499814,135499702,-5.364575e-05,0.0072621307,-4.040181e-06,0.0,0.0,0.0,0.0,-1.0
135504585,135504516,-0.00054796087,0.007507972,2.484347e-05,0.0,0.0,0.0,0.0,-1.0
135508540,135508471,-0.0014827786,0.0076712035,5.2242023e-05,0.0,0.0,0.0,0.0,-1.0
135511766,135511697,-0.0014953552,0.007893669,9.811788e-05,0.0,0.0,0.0,0.0,-1.0
135516604,135516471,-0.0006901249,0.007713987,0.00016444994,0.0,0.0,0.0,0.0,-1.0
135520540,135520471,-0.00064425357,0.0077293445,0.00017822384,0.0,0.0,0.0,0.0,-1.0
135524553,135524479,-0.00091184827,0.007474201,0.00013903073,0.0,0.0,0.0,0.0,-1.0
135527774,135527702,-0.0010475783,0.007206438,0.00013937765,0.0,0.0,0.0,0.0,-1.0
135531792,135531723,-0.00056596904,0.0070321998,0.00012425921,0.0,0.0,0.0,0.0,-1.0
135536554,135536484,-0.0004536041,0.006954623,0.00020326956,0.0,0.0,0.0,0.0,-1.0
135539772,135539703,-0.0006886007,0.006993846,0.00023398052,0.0,0.0,0.0,0.0,-1.0
135543767,135543671,-0.0007480707,0.0074584424,0.00020368402,0.0,0.0,0.0,0.0,-1.0
135548551,135548471,-0.0007494445,0.0075431117,0.0001330886,0.0,0.0,0.0,0.0,-1.0
135552547,135552475,-0.00059569825,0.0076580094,0.00011941424,0.0,0.0,0.0,0.0,-1.0
135555774,135555702,-0.00052077626,0.008076515,0.00019093756,0.0,0.0,0.0,0.0,-1.0
135560547,135560477,-0.00056120293,0.007797052,0.00022696539,0.0,0.0,0.0,0.0,-1.0
135564567,135564471,-0.00091482286,0.0077970442,0.00022239318,0.0,0.0,0.0,0.0,-1.0
135568540,135568470,-0.0011816832,0.0076555978,0.00026915476,0.0,0.0,0.0,0.0,-1.0
135571796,135571717,-0.0009404762,0.007042754,0.00029621538,0.0,0.0,0.0,0.0,-1.0
135576545,135576471,-0.00048960076,0.0070746453,0.00024836435,0.0,0.0,0.0,0.0,-1.0
135580591,135580477,-0.0003759169,0.007116389,0.00025046815,0.0,0.0,0.0,0.0,-1.0
135583841,135583702,-0.000541803,0.0072788,0.0002753092,0.0,0.0,0.0,0.0,-1.0
135587751,135587679,-0.00093515473,0.007307704,0.00027350042,0.0,0.0,0.0,0.0,-1.0
135591766,135591696,-0.001161183,0.0071777184,0.0001963268,0.0,0.0,0.0,0.0,-1.0
135596547,135596471,-0.0005292121,0.007553158,0.0002823868,0.0,0.0,0.0,0.0,-1.0
135599771,135599698,-0.00109735,0.0074945474,0.00034197848,0.0,0.0,0.0,0.0,-1.0
135604571,135604470,-0.0014159915,0.0073322677,0.00032831877,0.0,0.0,0.0,0.0,-1.0
135608545,135608471,-0.0013574226,0.007946189,0.00023876324,0.0,0.0,0.0,0.0,-1.0
135611805,135611702,-0.00038200646,0.008054123,0.00011125341,0.0,0.0,0.0,0.0,-1.0
135616544,135616471,-0.0003452333,0.0078115324,3.6593232e-05,0.0,0.0,0.0,0.0,-1.0
135620586,135620516,-0.00043307224,0.007949253,0.00011169997,0.0,0.0,0.0,0.0,-1.0
135624578,135624470,-0.0005392786,0.0074543017,0.00030107494,0.0,0.0,0.0,0.0,-1.0
135628553,135628471,-0.0004530896,0.007028625,0.00037047188,0.0,0.0,0.0,0.0,-1.0
135632544,135632474,-0.0008847358,0.0076787537,0.000296834,0.0,0.0,0.0,0.0,-1.0
135636543,135636471,-0.0008577394,0.007723093,0.00016994635,0.0,0.0,0.0,0.0,-1.0
135640591,135640521,-0.00084645755,0.007337849,0.00014193557,0.0,0.0,0.0,0.0,-1.0
135644540,135644471,-0.0012002903,0.0072073485,0.0001815741,0.12,0.0,0.0,0.0,-1.0
135648540,135648471,-0.0009008604,0.007833992,0.00025337204,0.12,0.0,0.0,0.0,-1.0
135652559,135652490,-0.00045571933,0.0075169075,0.00029800308,0.12,0.0,0.0,0.0,-1.0
135656540,135656471,-0.00070727064,0.007324447,0.00033088206,0.12,0.0,0.0,0.0,-1.0
135660555,135660486,-0.0013270762,0.0073993527,0.00029836572,0.12,0.0,0.0,0.0,-1.0
135664617,135664470,-0.0012430802,0.0077735414,0.0002869243,0.12,0.0,0.0,0.0,-1.0
135668540,135668471,-0.00058644376,0.008346455,0.00015715136,0.12,0.0,0.0,0.0,-1.0
135672564,135672495,-0.0006144745,0.007906504,6.7937166e-05,0.12,0.0,0.0,0.0,-1.0
135676553,135676471,-0.001201436,0.0074251303,-1.5431635e-05,0.12,0.0,0.0,0.0,-1.0
135680559,135680477,-0.00088606554,0.0075915926,3.214948e-05,0.12,0.0,0.0,0.0,-1.0
135684566,135684471,-0.0005196998,0.0077795926,0.0001486357,0.12,0.0,0.0,0.0,-1.0
135687777,135687708,-0.00058317545,0.007549115,0.00032661925,0.12,0.0,0.0,0.0,-1.0
135692567,135692471,-0.0009112839,0.0073443865,0.00044520767,0.12,0.0,0.0,0.0,-1.0
135695775,135695702,-0.0008115464,0.0077747004,0.0005241541,0.12,0.0,0.0,0.0,-1.0
135699791,135699722,-0.0007836964,0.007964653,0.0004137545,0.12,0.0,0.0,0.0,-1.0
135704553,135704484,-0.0006035272,0.0077266735,0.00032143624,0.12,0.0,0.0,0.0,-1.0
135708540,135708471,-0.00085905014,0.0073524173,0.00032663133,0.12,0.0,0.0,0.0,-1.0
135712578,135712471,-0.001007913,0.007965958,0.00045014298,0.12,0.0,0.0,0.0,-1.0
135716540,135716471,-0.0010905472,0.00806087,0.0005166874,0.12,0.0,0.0,0.0,-1.0
135720540,135720471,-0.00092029537,0.0078087617,0.0004233311,0.12,0.0,0.0,0.0,-1.0
135723774,135723702,-0.0011159184,0.007373702,0.00033958058,0.12,0.0,0.0,0.0,-1.0
135727783,135727711,-0.0013395619,0.0072460314,0.00028964912,0.12,0.0,0.0,0.0,-1.0
135732567,135732471,-0.0006528781,0.00773257,0.00028899396,0.12,0.0,0.0,0.0,-1.0
135736545,135736472,-0.000516033,0.0076840916,0.00043022083,0.12,0.0,0.0,0.0,-1.0
135740574,135740505,-0.00067744724,0.0076040607,0.0006202832,0.12,0.0,0.0,0.0,-1.0
135744544,135744470,-0.00060892204,0.00780022,0.00077651284,0.12,0.0,0.0,0.0,-1.0
135748583,135748477,-0.0015159238,0.007917519,0.0008333566,0.12,0.0,0.0,0.0,-1.0
135751837,135751702,-0.0016170193,0.0077323047,0.000843367,0.12,0.0,0.0,0.0,-1.0
135756540,135756471,-0.0008794661,0.008201136,0.0007833397,0.12,0.0,0.0,0.0,-1.0
135760543,135760473,-0.0003730269,0.008340265,0.0008003736,0.12,0.0,0.0,0.0,-1.0
135764540,135764471,-0.00090607745,0.008038272,0.00088736316,0.12,0.0,0.0,0.0,-1.0
135767775,135767706,-0.00034303122,0.007818457,0.0010793227,0.12,0.0,0.0,0.0,-1.0
135772577,135772471,-0.000601896,0.007801602,0.0013211705,0.12,0.0,0.0,0.0,-1.0
135776540,135776471,-0.000876175,0.008077768,0.0013820395,0.12,0.0,0.0,0.0,-1.0
135779816,135779702,-0.00079698133,0.0076876665,0.0013499489,0.12,0.0,0.0,0.0,-1.0
135784540,135784471,-0.00042223264,0.007765525,0.0013342554,0.12,0.0,0.0,0.0,-1.0
135788560,135788490,-0.0007511903,0.0077769044,0.0013158493,0.12,0.0,0.0,0.0,-1.0
135792540,135792471,-0.0014187181,0.00744337,0.001170159,0.12,0.0,0.0,0.0,-1.0
135796540,135796471,-0.0010606884,0.0070254346,0.00076992525,0.12,0.0,0.0,0.0,-1.0
135800593,135800517,-0.00049838255,0.0065605724,0.00024330027,0.12,0.0,0.0,0.0,-1.0
135804540,135804471,-0.0007666231,0.008642866,-0.00036708938,0.12,0.0,0.0,0.0,-1.0
135808593,135808523,-0.0011678437,0.0081145335,-0.0009634211,0.12,0.0,0.0,0.0,-1.0
135812540,135812471,-0.0015370905,0.00855527,-0.0014980169,0.12,0.0,0.0,0.0,-1.0
135816554,135816482,-0.0016278297,0.0075759,-0.0019894643,0.12,0.0,0.0,0.0,-1.0
135820555,135820485,-5.3289266e-05,0.008245923,-0.002552311,0.12,0.0,0.0,0.0,-1.0
135824543,135824470,-0.0010075617,0.0073377215,-0.002966292,0.12,0.0,0.0,0.0,-1.0
135827792,135827723,-0.00041221784,0.009008868,-0.0033414494,0.12,0.0,0.0,0.0,-1.0
135832586,135832474,-0.0012724431,0.0068317344,-0.0035247733,0.12,0.0,0.0,0.0,-1.0
135836540,135836471,0.00012019983,0.0074974047,-0.0037103891,0.12,0.0,0.0,0.0,-1.0
135840578,135840471,-0.0018384241,0.007409307,-0.0039124335,0.12,0.0,0.0,0.0,-1.0
135844540,135844471,-0.0013650587,0.00778096,-0.0039235093,0.12,0.0,0.0,0.0,-1.0
135848560,135848477,0.00058203924,0.008242414,-0.003909339,0.12,0.0,0.0,0.0,-1.0
135852566,135852471,-0.0004568586,0.005979907,-0.003557212,0.12,0.0,0.0,0.0,-1.0
135856540,135856471,-0.002238162,0.009412524,-0.00330095,0.12,0.0,0.0,0.0,-1.0
135860567,135860471,-0.0032127667,0.008071863,-0.0030186847,0.12,0.0,0.0,0.0,-1.0
135864540,135864471,-0.00034118636,0.0061206985,-0.0026917593,0.129037,0.0,0.0,0.0,-1.0
135868552,135868482,0.0015210505,0.009291679,-0.0023471543,0.129037,0.0,0.0,0.0,-1.0
135872557,135872487,-0.002814609,0.007636795,-0.0019842335,0.129037,0.0,0.0,0.0,-1.0
135876544,135876470,-0.003006137,0.00752061,-0.001580951,0.129037,0.0,0.0,0.0,-1.0
135880594,135880470,0.00025067653,0.0075441063,-0.0010935536,0.129037,0.0,0.0,0.0,-1.0
135884554,135884470,0.0021558073,0.007939525,-0.00058605516,0.13941899,0.0,0.0,0.0,-1.0
135887795,135887713,-0.002072103,0.008657741,7.487759e-05,0.13941899,0.0,0.0,0.0,-1.0
135892553,135892484,-0.0020999408,0.0076945866,0.000645322,0.13941899,0.0,0.0,0.0,-1.0
135896544,135896470,-2.4824669e-05,0.0068851,0.0012645649,0.13941899,0.0,0.0,0.0,-1.0
135900570,135900470,-0.00070541527,0.009272121,0.0018074189,0.13941899,0.0,0.0,0.0,-1.0
135904545,135904471,-0.00023751294,0.008316938,0.0022542707,0.15040866,0.0,0.0,0.0,-1.0
135908551,135908481,-0.0009633802,0.007394845,0.0027988942,0.15040866,0.0,0.0,0.0,-1.0
135912571,135912496,-0.0010600475,0.009100884,0.0033175347,0.15040866,0.0,0.0,0.0,-1.0
135916592,135916477,-0.0007204085,0.007033494,0.0036839452,0.15040866,0.0,0.0,0.0,-1.0
135920585,135920470,-0.00038491742,0.00933904,0.004126276,0.15040866,0.0,0.0,0.0,-1.0
135924544,135924470,-0.0008324863,0.0077367453,0.0045167427,0.16046226,0.0,0.0,0.0,-1.0
135928543,135928470,-0.000569244,0.0068098987,0.004845638,0.16046226,0.0,0.0,0.0,-1.0
135932560,135932481,-0.001793272,0.009556616,0.004758197,0.16046226,0.0,0.0,0.0,-1.0
135936587,135936477,-0.00022804191,0.006265068,0.0047576064,0.16046226,0.0,0.0,0.0,-1.0
135940540,135940470,-6.988924e-05,0.0065706586,0.004459404,0.16046226,0.0,0.0,0.0,-1.0
135944540,135944470,0.0004244444,0.009451088,0.004259876,0.17112327,0.0,0.0,0.0,-1.0
135948544,135948470,-0.0037652228,0.00838373,0.0039826366,0.17112327,0.0,0.0,0.0,-1.0
135952568,135952494,-0.00016535538,0.006961705,0.003745138,0.17112327,0.0,0.0,0.0,-1.0
135956595,135956520,-0.00037567804,0.007046318,0.0033060703,0.17112327,0.0,0.0,0.0,-1.0
135960546,135960472,-0.0021588816,0.009030683,0.0027490351,0.17112327,0.0,0.0,0.0,-1.0
135964545,135964470,-0.00094870623,0.0052712606,0.0021581636,0.18180111,0.0,0.0,0.0,-1.0
135968575,135968501,-0.00056860386,0.009303352,0.001497431,0.18180111,0.0,0.0,0.0,-1.0
135972566,135972482,-0.0033379663,0.0053671137,0.0008708443,0.18180111,0.0,0.0,0.0,-1.0
135976587,135976513,0.00035538588,0.009065605,0.00016523976,0.18180111,0.0,0.0,0.0,-1.0
135980545,135980470,-0.0017125797,0.007944507,-0.00045983098,0.18180111,0.0,0.0,0.0,-1.0
135984545,135984470,-0.0030506912,0.004807412,-0.0011178717,0.19288722,0.0,0.0,0.0,-1.0
135988572,135988470,-0.000634109,0.009718857,-0.0019790656,0.19288722,0.0,0.0,0.0,-1.0
135992545,135992470,-0.0031599787,0.0068652485,-0.0027146628,0.19288722,0.0,0.0,0.0,-1.0
135995786,135995712,-0.0018202695,0.0038781909,-0.0035486636,0.19288722,0.0,0.0,0.0,-1.0
136000581,136000470,-0.0002846257,0.008970834,-0.004431358,0.19288722,0.0,0.0,0.0,-1.0
136004541,136004471,-0.00017338205,0.0069205957,-0.0053082006,0.20311415,0.0,0.0,0.0,-1.0
136008583,136008471,-0.0029859254,0.00517369,-0.00595346,0.20311415,0.0,0.0,0.0,-1.0
136012551,136012470,-0.004848326,0.0059019937,-0.0062716487,0.20311415,0.0,0.0,0.0,-1.0
136016592,136016507,0.00085508317,0.0070539536,-0.0064353887,0.20311415,0.0,0.0,0.0,-1.0
136020587,136020471,0.0040767235,0.007844324,-0.0061879847,0.20311415,0.0,0.0,0.0,-1.0
136024545,136024470,-0.001841262,0.007038061,-0.0054962686,0.21381122,0.0,0.0,0.0,-1.0
136028589,136028478,-0.0052619358,0.0040168427,-0.0047190976,0.21381122,0.0,0.0,0.0,-1.0
136032545,136032471,0.0053170267,0.008094162,-0.0036523975,0.21381122,0.0,0.0,0.0,-1.0
136036577,136036506,0.0057152053,0.007822058,-0.002464054,0.21381122,0.0,0.0,0.0,-1.0
136040555,136040484,-0.009190456,0.005730162,-0.0015204008,0.21381122,0.0,0.0,0.0,-1.0
136044541,136044471,-0.004996357,0.0064526494,-0.0007195795,0.22472394,0.0,0.0,0.0,-1.0
136048597,136048478,0.018133728,0.0076597487,0.00043773546,0.22472394,0.0,0.0,0.0,-1.0
136052554,136052471,0.0010617417,0.006341882,0.0016925432,0.22472394,0.0,0.0,0.0,-1.0
136056547,136056476,-0.015634615,0.00808465,0.002994303,0.22472394,0.0,0.0,0.0,-1.0
136060554,136060484,0.00037325465,0.00936666,0.0039478755,0.22472394,0.0,0.0,0.0,-1.0
136064549,136064479,0.016736796,0.020084932,0.0048508258,0.23543677,0.0,0.0,0.0,-1.0
136068541,136068471,-0.0029126757,-0.00039901133,0.0052474453,0.23543677,0.0,0.0,0.0,-1.0
136072545,136072471,0.00111435,0.008704843,0.005738547,0.23543677,0.0,0.0,0.0,-1.0
136076558,136076487,-0.0072064875,0.012787557,0.0048954114,0.23543677,0.0,0.0,0.0,-1.0
136080551,136080481,-0.00028253483,0.015996134,0.004501074,0.23543677,0.0,0.0,0.0,-1.0
136084578,136084471,0.0023523148,0.004246485,0.00429527,0.24582338,0.0,0.0,0.0,-1.0
136088541,136088470,0.0028915762,-0.0021151495,0.004373967,0.24582338,0.0,0.0,0.0,-1.0
136092556,136092483,-0.006005557,0.015620928,0.0037112653,0.24582338,0.0,0.0,0.0,-1.0
136096561,136096486,-0.009366335,0.015788745,0.003954884,0.24582338,0.0,0.0,0.0,-1.0
136100541,136100471,0.0041478537,0.013312652,0.0032296465,0.24582338,0.0,0.0,0.0,-1.0
136104588,136104477,0.018369878,-0.0035700893,0.0027168659,0.25735873,0.0,0.0,0.0,-1.0
136108541,136108471,-0.008291333,0.008279047,0.0015437418,0.25735873,0.0,0.0,0.0,-1.0
136112541,136112471,-0.021855714,0.014053529,0.0011407859,0.25735873,0.0,0.0,0.0,-1.0
136116569,136116495,-0.0040133656,0.009478275,0.00030429565,0.25735873,0.0,0.0,0.0,-1.0
136120545,136120470,0.02261857,-0.011941347,0.00037553464,0.25735873,0.0,0.0,0.0,-1.0
136124618,136124530,-0.0017155707,0.010711361,0.0003437905,0.26801914,0.0,0.0,0.0,-1.0
136128541,136128471,-0.027596543,0.024474049,-7.489499e-05,0.26801914,0.0,0.0,0.0,-1.0
136132541,136132470,0.014891019,0.009595939,-0.00063777977,0.26801914,0.0,0.0,0.0,-1.0
136136590,136136471,0.014188186,-0.021357577,-0.001369656,0.26801914,0.0,0.0,0.0,-1.0
136140554,136140480,-0.017529715,0.009321428,-0.0012363776,0.26801914,0.0,0.0,0.0,-1.0
136144577,136144506,-0.009058555,0.031696867,-0.0019993295,0.27856392,0.0,0.0,0.0,-1.0
136148541,136148471,0.016916782,-0.009580376,-0.0011251358,0.27856392,0.0,0.0,0.0,-1.0
136152541,136152471,0.0009346559,-0.008213224,-0.0005359758,0.27856392,0.0,0.0,0.0,-1.0
136156582,136156470,-0.014143029,0.026697578,-0.0015073055,0.27856392,0.0,0.0,0.0,-1.0
136160545,136160470,0.013842495,0.016341677,-0.0018585002,0.27856392,0.0,0.0,0.0,-1.0
136164599,136164518,0.0073898397,-0.023853756,-0.0021863393,0.28989774,0.0,0.0,0.0,-1.0
136168583,136168471,-0.016776094,0.016830603,-0.002190614,0.28989774,0.0,0.0,0.0,-1.0
136172552,136172477,-0.00017550278,0.029675886,-0.0019107364,0.28989774,0.0,0.0,0.0,-1.0
136176583,136176471,0.0103538195,-0.0017583114,-0.0016928191,0.28989774,0.0,0.0,0.0,-1.0
136180545,136180471,0.0008816664,-0.0035565323,-0.0011844956,0.28989774,0.0,0.0,0.0,-1.0
136184571,136184495,0.014903674,0.03650122,-0.0017800555,0.30122232,0.0,0.0,0.0,-1.0
136188582,136188471,-0.026433077,-0.017541377,-0.0023692616,0.30122232,0.0,0.0,0.0,-1.0
136191789,136191718,-0.017051456,0.032919433,-0.0009795695,0.30122232,0.0,0.0,0.0,-1.0
136196572,136196470,0.01297486,0.006996829,-0.0010189533,0.30122232,0.0,0.0,0.0,-1.0
136200542,136200471,0.02151041,-0.004776313,-0.0002654263,0.30122232,0.0,0.0,0.0,-1.0
136204574,136204499,-0.008234619,0.04306594,-0.0019042146,0.31228563,0.0,0.0,0.0,-1.0
136208562,136208487,-0.021054242,-0.008814777,-0.0015414677,0.31228563,0.0,0.0,0.0,-1.0
136212545,136212470,-0.0048277536,-0.017142018,-0.0010335078,0.31228563,0.0,0.0,0.0,-1.0
136216545,136216470,0.011913028,0.049608108,-0.0012106559,0.31228563,0.0,0.0,0.0,-1.0
136220545,136220474,-0.0028658228,0.0011836747,-0.0004602027,0.31228563,0.0,0.0,0.0,-1.0
136224573,136224489,0.010768227,0.00535868,-0.00025618123,0.32242712,0.0,0.0,0.0,-1.0
136228558,136228480,-0.00078050524,0.026275402,-0.0017126286,0.32242712,0.0,0.0,0.0,-1.0
136232550,136232475,-0.029845994,-0.033549815,-0.0013375443,0.32242712,0.0,0.0,0.0,-1.0
136236541,136236471,-0.007266595,0.03072269,-0.00025086838,0.32242712,0.0,0.0,0.0,-1.0
136240541,136240471,0.014964158,0.022353321,-0.00018008357,0.32242712,0.0,0.0,0.0,-1.0
136244557,136244487,0.0058961385,-0.005279392,-0.00036706083,0.33463836,0.0,0.0,0.0,-1.0
136248567,136248486,-0.0031471848,0.0129126115,-0.00095592684,0.33463836,0.0,0.0,0.0,-1.0
136252597,136252487,-0.02551468,-0.022227438,-0.00038199752,0.33463836,0.0,0.0,0.0,-1.0
136256552,136256471,-0.032757197,0.008394318,0.0002615658,0.33463836,0.0,0.0,0.0,-1.0
136260541,136260471,0.045851458,0.034995623,-0.00010482619,0.33463836,0.0,0.0,0.0,-1.0
136264588,136264480,0.0138888275,0.0014660625,-0.0005537323,0.3456849,0.0,0.0,0.0,-1.0
136268541,136268471,-0.0413893,-0.0038703077,-0.00084707566,0.3456849,0.0,0.0,0.0,-1.0
136272590,136272474,-0.014464202,-0.010103992,-0.0003351147,0.3456849,0.0,0.0,0.0,-1.0
136276541,136276471,-0.0003136665,0.007357468,0.00018989648,0.3456849,0.0,0.0,0.0,-1.0
136280541,136280471,0.022627916,0.02993369,-0.0010105611,0.3456849,0.0,0.0,0.0,-1.0
136284568,136284471,0.030065926,0.02250892,-0.0005461665,0.35601264,0.0,0.0,0.0,-1.0
136288553,136288479,-0.04982813,-0.032987505,-0.0017925571,0.35601264,0.0,0.0,0.0,-1.0
136292599,136292528,-0.005149921,0.018986352,8.636819e-05,0.35601264,0.0,0.0,0.0,-1.0
136296543,136296470,0.020735871,0.01223925,-0.00032325785,0.35601264,0.0,0.0,0.0,-1.0
136300541,136300471,0.0050587156,0.0281954,-0.0013847599,0.35601264,0.0,0.0,0.0,-1.0
136304579,136304471,0.008253629,-0.00322141,-0.0021345909,0.36827105,0.0,0.0,0.0,-1.0
136308541,136308471,-0.0056184065,-0.0129596,-0.0004946161,0.36827105,0.0,0.0,0.0,-1.0
136311823,136311750,-0.037364826,0.038048927,-0.0005066283,0.36827105,0.0,0.0,0.0,-1.0
136316541,136316471,0.0069023483,0.021225594,-0.0018343618,0.36827105,0.0,0.0,0.0,-1.0
136320541,136320471,0.009344645,-0.0052517,-0.0024414174,0.36827105,0.0,0.0,0.0,-1.0
136324568,136324471,-0.004326795,-0.019146543,-0.00065381825,0.37883538,0.0,0.0,0.0,-1.0
136328541,136328471,-0.004867622,0.03301316,-0.0010402582,0.37883538,0.0,0.0,0.0,-1.0
136332552,136332481,-0.0132628465,0.024976913,-0.0015176247,0.37883538,0.0,0.0,0.0,-1.0
136336579,136336471,-0.004069933,0.020073535,-0.0018694025,0.37883538,0.0,0.0,0.0,-1.0
136340547,136340477,-0.019518899,-0.048248574,-0.0013801177,0.37883538,0.0,0.0,0.0,-1.0
136344585,136344470,0.028232347,0.008845259,0.00023308245,0.38838136,0.0,0.0,0.0,-1.0
136348552,136348471,0.01853797,0.045919336,-0.002309471,0.38838136,0.0,0.0,0.0,-1.0
136352606,136352525,-0.04124656,0.03586332,-0.002028674,0.38838136,0.0,0.0,0.0,-1.0
136356578,136356471,-0.046883814,-0.05644691,-0.0011903693,0.38838136,0.0,0.0,0.0,-1.0
136360559,136360488,0.037736956,-0.021914262,-1.1866672e-05,0.38838136,0.0,0.0,0.0,-1.0
136364543,136364471,0.059427742,0.066477925,-0.0014516922,0.399064,0.0,0.0,0.0,-1.0
136368544,136368471,-0.05748524,0.040122773,-0.0030548994,0.399064,0.0,0.0,0.0,-1.0
136372596,136372526,-0.055639658,-0.042387005,7.85261e-05,0.399064,0.0,0.0,0.0,-1.0
136376543,136376473,0.014955974,-0.03344645,-0.0009291322,0.399064,0.0,0.0,0.0,-1.0
136380541,136380471,0.0878724,0.075609654,-0.0004617594,0.399064,0.0,0.0,0.0,-1.0
136384555,136384481,-0.047341146,0.027840432,-0.0035258736,0.41121444,0.0,0.0,0.0,-1.0
136388542,136388471,-0.052992422,-0.04224974,0.00052953034,0.41121444,0.0,0.0,0.0,-1.0
136392579,136392503,0.014558853,-0.0012187602,-0.001842184,0.41121444,0.0,0.0,0.0,-1.0
136396544,136396473,0.069920026,0.08065764,-0.0012104679,0.41121444,0.0,0.0,0.0,-1.0
136400541,136400471,-0.04829992,0.010571834,-0.0033953392,0.41121444,0.0,0.0,0.0,-1.0
136404541,136404471,-0.041777473,-0.06990894,-0.00070552906,0.42165947,0.0,0.0,0.0,-1.0
136408541,136408471,0.05383938,0.01363226,-0.0018384166,0.42165947,0.0,0.0,0.0,-1.0
136412575,136412477,-0.0077248057,0.08929811,-0.0028896602,0.42165947,0.0,0.0,0.0,-1.0
136416544,136416474,-0.078287475,0.0005149499,-0.0028347196,0.42165947,0.0,0.0,0.0,-1.0
136420586,136420478,-0.007861032,-0.09967298,-0.0012486654,0.42165947,0.0,0.0,0.0,-1.0
136424541,136424470,0.0807186,0.03972024,-0.00058987265,0.43078685,0.0,0.0,0.0,-1.0
136428541,136428471,-0.05489118,0.095359586,-0.0034448798,0.43078685,0.0,0.0,0.0,-1.0
136432592,136432477,-0.066209525,-0.05559148,-5.4739103e-05,0.43078685,0.0,0.0,0.0,-1.0
136436557,136436470,0.012302238,-0.0751684,-0.0008813725,0.43078685,0.0,0.0,0.0,-1.0
136440582,136440471,0.05075839,0.07648022,0.00070533704,0.43078685,0.0,0.0,0.0,-1.0
136444545,136444471,-0.022728624,0.062266145,-0.0018911688,0.44239098,0.0,0.0,0.0,-1.0
136448541,136448471,-0.04353985,-0.1033502,0.00036359567,0.44239098,0.0,0.0,0.0,-1.0
136452575,136452477,0.031806882,-0.017051809,0.0018118081,0.44239098,0.0,0.0,0.0,-1.0
136456544,136456470,0.009554309,0.12754454,-0.0015416044,0.44239098,0.0,0.0,0.0,-1.0
