timestamp,states[0],states[1],states[2],states[3],states[4],states[5],states[6],states[7],states[8],states[9],states[10],states[11],states[12],states[13],states[14],states[15],states[16],states[17],states[18],states[19],states[20],states[21],states[22],states[23],vibe[0],vibe[1],vibe[2],covariances[0],covariances[1],covariances[2],covariances[3],covariances[4],covariances[5],covariances[6],covariances[7],covariances[8],covariances[9],covariances[10],covariances[11],covariances[12],covariances[13],covariances[14],covariances[15],covariances[16],covariances[17],covariances[18],covariances[19],covariances[20],covariances[21],covariances[22],covariances[23],control_mode_flags,pos_horiz_accuracy,pos_vert_accuracy,mag_test_ratio,vel_test_ratio,pos_test_ratio,hgt_test_ratio,tas_test_ratio,hagl_test_ratio,beta_test_ratio,time_slip,gps_check_fail_flags,filter_fault_flags,innovation_check_flags,solution_status_flags,n_states,pre_flt_fail,health_flags,timeout_flags
133185271,0.8273785,-0.0015659266,-0.0031883311,-0.5616335,-0.16463841,0.33755407,-0.012259114,-1.2434077,0.022119638,0.21139137,2.2714437e-06,-2.512718e-05,7.831445e-06,0.0004982044,0.0012014471,0.0014976229,0.17068383,0.001886175,0.35385317,0.0,0.0,0.0,0.0,0.0,3.7695912e-11,8.252426e-06,0.00054988515,1.1832975e-05,4.761409e-06,7.5335006e-06,2.6009897e-05,0.011779636,0.011773115,0.010645487,0.046699695,0.04669163,0.0551083,1.044784e-11,1.0433086e-11,1.8385427e-11,5.1190188e-08,8.331191e-08,5.000007e-08,0.0,0.0,0.0,0.0,0.0,0.0,0.0,0.0,535,0.30559996,0.23475157,0.008242678,0.1546946,0.103459805,0.015687129,0.0,0.0,0.0,0.032013,0,0,0,831,24,0,0,0
133385283,0.8273448,-0.0016435742,-0.0032522834,-0.56168276,-0.1669305,0.33704537,-0.012803392,-1.2483451,0.025890732,0.20612723,2.2555062e-06,-2.4828787e-05,7.826114e-06,0.0004981637,0.0012012526,0.0014987501,0.17068383,0.001886175,0.35385317,0.0,0.0,0.0,0.0,0.0,3.7886166e-11,8.3398945e-06,0.00050742016,1.1837421e-05,4.7604995e-06,7.5322732e-06,2.6008442e-05,0.011769557,0.011763437,0.010566101,0.046472926,0.04646508,0.05437715,1.0447067e-11,1.04319765e-11,1.8386029e-11,5.1191016e-08,8.3312614e-08,5e-08,0.0,0.0,0.0,0.0,0.0,0.0,0.0,0.0,535,0.30485734,0.23318909,0.0024444906,0.13482982,0.101775736,0.010136991,0.0,0.0,0.0,0.032013,0,0,0,831,24,0,0,0
133993270,0.8274229,-0.0017306546,-0.00340933,-0.56156635,-0.16860327,0.33597663,-0.016914438,-1.2564329,0.038295243,0.19614646,2.1569117e-06,-2.3921e-05,7.617113e-06,0.0004981243,0.0012006677,0.0015007951,0.17068383,0.001886175,0.35385317,0.0,0.0,0.0,0.0,0.0,3.2922148e-11,7.977248e-06,0.0007025041,1.1841379e-05,4.761296e-06,7.531538e-06,2.59717e-05,0.011775191,0.011770148,0.0107001485,0.04606796,0.04606082,0.055454984,1.0446369e-11,1.0430336e-11,1.8379114e-11,5.119363e-08,8.331483e-08,5e-08,0.0,0.0,0.0,0.0,0.0,0.0,0.0,0.0,535,0.30352724,0.23548882,0.019039024,0.1360761,0.1074195,0.0058991485,0.0,0.0,0.0,0.032013,0,0,0,831,24,0,0,0
134193282,0.8273821,-0.0018139671,-0.0034412465,-0.56162596,-0.16892537,0.33434108,-0.01909477,-1.2592974,0.04048332,0.18885998,2.133798e-06,-2.361878e-05,7.5890803e-06,0.0004980989,0.0012004861,0.0015028699,0.17068383,0.001886175,0.35385317,0.0,0.0,0.0,0.0,0.0,3.367214e-11,7.749723e-06,0.00063809566,1.1848088e-05,4.7598533e-06,7.5294865e-06,2.5968693e-05,0.011760873,0.011756136,0.010766837,0.045866195,0.045859374,0.056108538,1.04450745e-11,1.0428746e-11,1.8379756e-11,5.11945e-08,8.331559e-08,5.0000036e-08,0.0,0.0,0.0,0.0,0.0,0.0,0.0,0.0,535,0.3028623,0.2368724,0.012989189,0.13095872,0.1072525,0.003331288,0.0,0.0,0.0,0.032013,0,0,0,831,24,0,0,0
134401310,0.82738936,-0.00186076,-0.0034813916,-0.56161493,-0.16989462,0.33493245,-0.016788945,-1.2629265,0.048495255,0.1914294,2.0989412e-06,-2.3334227e-05,7.529583e-06,0.00049809064,0.0012003316,0.0015008347,0.17068383,0.001886175,0.35385317,0.0,0.0,0.0,0.0,0.0,3.6516963e-11,8.117923e-06,0.000508162,1.1841052e-05,4.7647673e-06,7.533841e-06,2.5937085e-05,0.0117991585,0.011794715,0.010700421,0.0459435,0.045936897,0.055525348,1.0447683e-11,1.0431098e-11,1.8371938e-11,5.1195393e-08,8.331643e-08,5e-08,0.0,0.0,0.0,0.0,0.0,0.0,0.0,0.0,535,0.30311778,0.23563817,0.05300692,0.1160555,0.105931714,0.028366579,0.0,0.0,0.0,0.032013,0,0,0,831,24,0,0,0
134601276,0.8273937,-0.0019099093,-0.003558521,-0.5616079,-0.16987295,0.3324086,-0.018880626,-1.2662317,0.050600614,0.18510818,2.0801142e-06,-2.3032097e-05,7.4836616e-06,0.00049805886,0.001200146,0.0015017574,0.17068383,0.001886175,0.35385317,0.0,0.0,0.0,0.0,0.0,3.4421452e-11,8.095311e-06,0.0006443445,1.1846583e-05,4.764435e-06,7.5330736e-06,2.593625e-05,0.01179275,0.01178855,0.010688534,0.045781914,0.045775592,0.05543975,1.0447117e-11,1.0430267e-11,1.8372847e-11,5.1196263e-08,8.3317246e-08,5.0000036e-08,0.0,0.0,0.0,0.0,0.0,0.0,0.0,0.0,535,0.3025847,0.23545648,0.055069067,0.13532768,0.1047918,0.00053263677,0.0,0.0,0.0,0.032013,0,0,0,831,24,0,0,0
134809277,0.82750577,-0.0019325514,-0.0036093083,-0.5614424,-0.17076279,0.33267266,-0.023788702,-1.2714287,0.058312718,0.17077243,2.0478922e-06,-2.2752934e-05,7.354332e-06,0.00049805926,0.0011999552,0.0015060327,0.17068383,0.001886175,0.35385317,0.0,0.0,0.0,0.0,0.0,3.4620192e-11,8.287172e-06,0.0005908614,1.1838696e-05,4.768644e-06,7.5368653e-06,2.5906449e-05,0.011827013,0.011823054,0.010632686,0.045857813,0.0458517,0.054909665,1.0449268e-11,1.0432192e-11,1.8365262e-11,5.119717e-08,8.33181e-08,5e-08,0.0,0.0,0.0,0.0,0.0,0.0,0.0,0.0,535,0.3028358,0.23432812,0.07180749,0.11281355,0.10656878,0.022078933,0.0,0.0,0.0,0.032013,0,0,0,831,24,0,0,0
135009271,0.8273539,-0.0019925549,-0.0037205212,-0.5616653,-0.16971897,0.33047947,-0.022678372,-1.2720803,0.061702345,0.17195429,2.0186772e-06,-2.2453974e-05,7.432067e-06,0.00049798994,0.001199814,0.0015019632,0.17068383,0.001886175,0.35385317,0.0,0.0,0.0,0.0,0.0,3.425768e-11,8.028205e-06,0.0004872767,1.1844389e-05,4.766457e-06,7.53422e-06,2.5906009e-05,0.011807644,0.011803936,0.010627804,0.045674354,0.045668513,0.054860752,1.0447422e-11,1.04301125e-11,1.836628e-11,5.119803e-08,8.331891e-08,5e-08,0.0,0.0,0.0,0.0,0.0,0.0,0.0,0.0,535,0.30222982,0.23422372,0.0609395,0.12764852,0.10370933,0.013578553,0.0,0.0,0.0,0.032013,0,0,0,831,24,0,0,0
135208516,0.82737565,-0.0020309084,-0.003834747,-0.5616323,-0.16552947,0.3248027,-0.026577441,-1.269215,0.059818055,0.15970723,1.9723984e-06,-2.212491e-05,7.360402e-06,0.0004979703,0.0011996262,0.0015042685,0.17068383,0.001886175,0.35385317,0.0,0.0,0.0,0.0,0.0,3.7137432e-11,8.308098e-06,0.0012182001,1.1850996e-05,4.7642e-06,7.5314083e-06,2.5904774e-05,0.011786659,0.011783201,0.010626394,0.045488514,0.045482937,0.05483037,1.0445517e-11,1.042799e-11,1.8367318e-11,5.1198885e-08,8.3319726e-08,5e-08,0.0,0.0,0.0,0.0,0.0,0.0,0.0,0.0,535,0.30161473,0.23415886,0.12390329,0.14422563,0.107389495,0.006297939,0.0,0.0,0.0,0.032013,0,0,0,831,24,0,0,0
135415704,0.8273516,-0.0020752647,-0.003962241,-0.56166667,-0.16301255,0.32355744,-0.029532984,-1.2685176,0.06372741,0.14688073,1.9329866e-06,-2.1824377e-05,7.341243e-06,0.0004979521,0.0011994743,0.0015071952,0.17068383,0.001886175,0.35385317,0.0,0.0,0.0,0.0,0.0,4.039529e-11,8.454343e-06,0.0019721445,1.1862746e-05,4.7688864e-06,7.5356725e-06,2.591878e-05,0.011821747,0.011818455,0.01066666,0.045596454,0.04559108,0.055108447,1.0449227e-11,1.0431505e-11,1.8373775e-11,5.1199798e-08,8.332059e-08,5.0000036e-08,0.0,0.0,0.0,0.0,0.0,0.0,0.0,0.0,535,0.30197275,0.23475188,0.005310452,0.124574125,0.106831335,0.017710345,0.0,0.0,0.0,0.032013,0,0,0,831,24,0,0,0
135616471,0.8273481,-0.0021710945,-0.004058967,-0.5616707,-0.16055365,0.31826788,-0.027085649,-1.2676018,0.061928116,0.15008345,1.9069819e-06,-2.151525e-05,7.2809157e-06,0.0004978943,0.0011992893,0.0015021688,0.17068383,0.001886175,0.35385317,0.0,0.0,0.0,0.0,0.0,3.783374e-11,8.166214e-06,0.0040207314,1.1869774e-05,4.766502e-06,7.5326802e-06,2.5916488e-05,0.011796719,0.011793658,0.010667836,0.045411073,0.045405973,0.05507036,1.0447516e-11,1.0429614e-11,1.8374744e-11,5.1200654e-08,8.33214e-08,5.0000036e-08,0.0,0.0,0.0,0.0,0.0,0.0,0.0,0.0,535,0.30135867,0.23467074,0.007200475,0.1357361,0.107375845,0.015759356,0.0,0.0,0.0,0.032013,0,0,0,831,24,0,0,0
135816482,0.82731533,-0.0022213669,-0.0041550444,-0.561718,-0.15684873,0.31463715,-0.029044041,-1.2638499,0.061130162,0.14183572,1.8640565e-06,-2.1208989e-05,7.265325e-06,0.0004978568,0.0011991278,0.0015031283,0.17068383,0.001886175,0.35385317,0.0,0.0,0.0,0.0,0.0,8.428431e-11,9.519511e-06,0.0040236246,1.1875458e-05,4.7649387e-06,7.5308217e-06,2.5916524e-05,0.011777413,0.011774532,0.010674976,0.045249745,0.04524491,0.055086337,1.0448677e-11,1.0430614e-11,1.8378556e-11,5.1201543e-08,8.3322256e-08,5.0000036e-08,0.0,0.0,0.0,0.0,0.0,0.0,0.0,0.0,535,0.3008233,0.23470479,0.012368605,0.1277586,0.10702561,0.025739148,0.0,0.0,0.0,0.032013,0,0,0,831,24,0,0,0
136024470,0.8274465,-0.00224002,-0.0042805863,-0.56152385,-0.15459068,0.31217846,-0.029969499,-1.2620561,0.063191004,0.13800968,1.8260762e-06,-2.0912144e-05,7.2569205e-06,0.00049780123,0.0011989623,0.0015020631,0.17068383,0.001886175,0.35385317,0.0,0.0,0.0,0.0,0.0,1.4642846e-09,2.8002516e-05,0.0033871343,1.1876813e-05,4.767769e-06,7.534901e-06,2.5941365e-05,0.011803871,0.011801179,0.010638159,0.045343302,0.045338657,0.05466945,1.0451936e-11,1.0433725e-11,1.8385397e-11,5.1202424e-08,8.3323116e-08,5.0000036e-08,0.0,0.0,0.0,0.0,0.0,0.0,0.0,0.0,663,0.30113444,0.233815,0.011605233,0.12077974,0.10759323,0.05075923,0.0,0.0,0.0,0.032013,0,0,0,831,24,0,0,0
136224489,0.82749176,-0.002107893,-0.004152342,-0.56145865,-0.15164274,0.30808347,-0.028050173,-1.2604746,0.062174633,0.14068128,1.7943293e-06,-2.0620808e-05,7.1619206e-06,0.0004977433,0.0011987761,0.0014976793,0.17068383,0.001886175,0.35385317,0.0,0.0,0.0,0.0,0.0,2.4672167e-08,0.00021191785,0.004811741,1.1864091e-05,4.765998e-06,7.5328367e-06,2.5896894e-05,0.01178448,0.011781946,0.010651713,0.04518727,0.04518287,0.054732364,1.0450751e-11,1.04324405e-11,1.8374137e-11,5.1203244e-08,8.332393e-08,5e-08,0.0,0.0,0.0,0.0,0.0,0.0,0.0,0.0,663,0.30061626,0.23394948,0.09066067,0.121864416,0.10699184,0.0040426403,0.0,0.0,0.0,0.032013,0,0,0,831,24,0,0,0
136424470,0.82749623,-0.0021680729,-0.0042911577,-0.5614507,-0.15127906,0.3026042,-0.032040726,-1.260273,0.06263439,0.12922351,1.7698337e-06,-2.0342064e-05,7.0855426e-06,0.00049770955,0.00119861,0.0014988838,0.17068383,0.001886175,0.35385317,0.0,0.0,0.0,0.0,0.0,2.1086201e-07,0.0005802012,0.008545096,1.1872139e-05,4.7646868e-06,7.530848e-06,2.5894793e-05,0.01176643,0.01176413,0.010665324,0.045041278,0.045037095,0.054801133,1.0449613e-11,1.0431192e-11,1.8375591e-11,5.1204054e-08,8.332475e-08,5e-08,0.0,0.0,0.0,0.0,0.0,0.0,0.0,0.0,663,0.30013058,0.23409642,0.03384313,0.11621343,0.10442481,0.032987967,0.0,0.0,0.0,0.032013,0,0,0,831,24,0,0,0
136632471,0.8276394,-0.0006989479,-0.0036645138,-0.56124794,-0.15166149,0.309243,-0.05944021,-1.2585659,0.06491522,0.09955843,1.7373396e-06,-2.0046777e-05,7.049713e-06,0.0004976981,0.0011984603,0.0015049246,0.17068383,0.001886175,0.35385317,0.0,0.0,0.0,0.0,0.0,4.9407555e-07,0.0011218216,0.01467369,1.18750595e-05,4.768334e-06,7.5357234e-06,2.5919997e-05,0.011815522,0.011813054,0.010633838,0.045183256,0.045179177,0.054430958,1.0452514e-11,1.04339965e-11,1.8381076e-11,5.120489e-08,8.332561e-08,5.0000036e-08,0.0,0.0,0.0,0.0,0.0,0.0,0.0,0.0,663,0.30060345,0.23330443,0.020334288,0.12501349,0.104708225,0.012975864,0.0,0.0,0.0,0.032013,0,0,0,831,24,0,0,0
136832478,0.8284942,0.0011286346,0.004082857,-0.5599818,-0.20991124,0.32300633,-0.290352,-1.265129,0.0717968,0.05328205,1.7047132e-06,-1.978196e-05,6.914718e-06,0.0004977688,0.0011983694,0.0015129043,0.17068383,0.001886175,0.35385317,0.0,0.0,0.0,0.0,0.0,9.183893e-07,0.0017791846,0.021006662,1.1836371e-05,4.757424e-06,7.5373287e-06,2.5969888e-05,0.011929567,0.01192731,0.010650355,0.045042757,0.04503884,0.05452373,1.045066e-11,1.0432037e-11,1.8382042e-11,5.1205664e-08,8.33264e-08,5.0000036e-08,0.0,0.0,0.0,0.0,0.0,0.0,0.0,0.0,663,0.30013597,0.23350316,0.044662256,0.10516517,0.102875106,0.047954217,0.0,0.0,0.0,0.032013,0,0,0,831,24,0,0,0
137032487,0.8314529,-0.0011494056,0.008417401,-0.55553037,-0.24277432,0.28910697,-0.79775953,-1.2814298,0.07534756,-0.116587244,1.68068e-06,-1.9515719e-05,6.7933843e-06,0.0004982046,0.0011985876,0.001533316,0.17068383,0.001886175,0.35385317,0.0,0.0,0.0,0.0,0.0,8.6936654e-07,0.0018401787,0.025117721,1.1663872e-05,4.737211e-06,7.5426965e-06,2.6148355e-05,0.012200559,0.012194212,0.01065588,0.044946525,0.04494287,0.054568503,1.04468266e-11,1.0428135e-11,1.8382983e-11,5.1205948e-08,8.332629e-08,5e-08,0.0,0.0,0.0,0.0,0.0,0.0,0.0,0.0,663,0.2998156,0.23359902,0.0704409,0.10850138,0.100484215,0.06312469,0.0,0.0,0.0,0.032013,0,0,0,831,24,0,0,0
137232477,0.8336372,-0.0047260365,0.006104688,-0.5522585,-0.2827032,0.26314464,-1.3388519,-1.3033648,0.067548275,-0.3602291,1.6673122e-06,-1.9213201e-05,6.719505e-06,0.00049906113,0.0011991691,0.0015444673,0.17068383,0.001886175,0.35385317,0.0,0.0,0.0,0.0,0.0,7.034587e-07,0.0017968308,0.026003683,1.153577e-05,4.717552e-06,7.5366893e-06,2.6279813e-05,0.01249744,0.012480784,0.010663685,0.04492743,0.044923913,0.054624397,1.0440775e-11,1.0422068e-11,1.838393e-11,5.1204697e-08,8.332317e-08,5.0000036e-08,0.0,0.0,0.0,0.0,0.0,0.0,0.0,0.0,663,0.29975215,0.23371863,0.0657225,0.13500518,0.101011395,0.060805645,0.0,0.0,0.0,0.032013,0,0,0,831,24,0,0,0
137432470,0.83364516,-0.0032187975,0.0045635174,-0.5522722,-0.31667686,0.23798092,-1.5022662,-1.3332375,0.05670386,-0.631413,1.6419215e-06,-1.8940527e-05,6.5601776e-06,0.0005001358,0.0012000414,0.0015348573,0.17068383,0.001886175,0.35385317,0.0,0.0,0.0,0.0,0.0,1.0001885e-06,0.0020464563,0.027493747,1.153048e-05,4.7027484e-06,7.507678e-06,2.6228588e-05,0.01253759,0.012519929,0.010747507,0.044943586,0.04493983,0.055383,1.0432207e-11,1.04135945e-11,1.8372187e-11,5.1200786e-08,8.331475e-08,5e-08,0.0,0.0,0.0,0.0,0.0,0.0,0.0,0.0,663,0.29980564,0.23533593,0.042481937,0.10904404,0.10250796,0.014333564,0.0,0.0,0.0,0.032013,0,0,0,831,24,0,0,0
137640474,0.8327711,-0.0041380213,0.0043327175,-0.5535851,-0.34060442,0.21139506,-1.2840289,-1.3759756,0.047973946,-0.89868224,1.6293758e-06,-1.8704579e-05,6.4653495e-06,0.0005009957,0.0012007261,0.0015240287,0.17068383,0.001886175,0.35385317,0.0,0.0,0.0,0.0,0.0,1.1294269e-06,0.0020145376,0.026472315,1.1600657e-05,4.698346e-06,7.483646e-06,2.618427e-05,0.0123778125,0.012370167,0.01085622,0.045233585,0.045229558,0.05637755,1.04284e-11,1.04098995e-11,1.83772e-11,5.1197222e-08,8.330699e-08,5.0000036e-08,0.0,0.0,0.0,0.0,0.0,0.0,0.0,0.0,663,0.3007709,0.23743957,0.045593284,0.08697347,0.10084084,0.026174396,0.0,0.0,0.0,0.032013,0,0,0,831,24,0,0,0
137840478,0.83233905,-0.0020183688,0.004871692,-0.5542418,-0.37176552,0.19943434,-0.53309673,-1.4169732,0.025069226,-1.0547388,1.6109013e-06,-1.840069e-05,6.3620682e-06,0.0005020578,0.0012016582,0.0015151977,0.17068383,0.001886175,0.35385317,0.0,0.0,0.0,0.0,0.0,9.372425e-07,0.001806514,0.024286894,1.1637279e-05,4.6896403e-06,7.460147e-06,2.6155116e-05,0.011847493,0.011853381,0.010826087,0.04518109,0.045177937,0.056228038,1.0423107e-11,1.040471e-11,1.837805e-11,5.1195755e-08,8.330338e-08,5.0000036e-08,0.0,0.0,0.0,0.0,0.0,0.0,0.0,0.0,663,0.3005978,0.23712452,0.07032988,0.13788131,0.09951974,0.03502629,0.0,0.0,0.0,0.032013,0,0,0,831,24,0,0,0
138040471,0.8310439,-0.00020342013,0.005401508,-0.5561807,-0.38936317,0.17396884,-0.017561773,-1.4595879,0.0031476137,-1.0932542,1.5698321e-06,-1.8120676e-05,6.252583e-06,0.0005024178,0.0012020143,0.0015044332,0.17068383,0.001886175,0.35385317,0.0,0.0,0.0,0.0,0.0,1.0965607e-06,0.0019833143,0.024586909,1.1727914e-05,4.691949e-06,7.445287e-06,2.607126e-05,0.011505791,0.011510078,0.010879323,0.045044973,0.04504358,0.05682544,1.0421242e-11,1.04029545e-11,1.8378856e-11,5.1196096e-08,8.3303284e-08,5.000007e-08,0.0,0.0,0.0,0.0,0.0,0.0,0.0,0.0,663,0.30014756,0.23838088,0.054952864,0.11734921,0.099410795,0.026625184,0.0,0.0,0.0,0.032013,0,0,0,831,24,0,0,0
138248470,0.83005905,-0.0018438641,0.005391129,-0.5576464,-0.41340122,0.18035093,0.08613936,-1.5120627,-0.013784662,-1.0771259,1.526618e-06,-1.7874505e-05,6.1377464e-06,0.00050239026,0.0012020005,0.0015016597,0.17068383,0.001886175,0.35385317,0.0,0.0,0.0,0.0,0.0,1.1775957e-06,0.0021441507,0.026664613,1.1787059e-05,4.707633e-06,7.4506875e-06,2.5974363e-05,0.011488121,0.011491354,0.010876278,0.045195885,0.045196455,0.056888808,1.04275295e-11,1.0409358e-11,1.8371088e-11,5.119609e-08,8.3302446e-08,5e-08,0.0,0.0,0.0,0.0,0.0,0.0,0.0,0.0,663,0.3006532,0.23851375,0.08389937,0.09680824,0.09649987,0.00012650652,0.0,0.0,0.0,0.032013,0,0,0,831,24,0,0,0
139464470,0.8388523,9.6032185e-05,0.0034750449,-0.54434806,-0.6793793,0.17892091,-1.3384413,-2.0036492,-0.121956035,-2.0030081,1.438042e-06,-1.6411626e-05,5.583214e-06,0.00050212676,0.001202496,0.0014799018,0.18120305,0.0020023962,0.34318843,0.0,0.0,0.0,0.0,0.0,1.1046292e-06,0.0023201497,0.029862436,0.00024750928,4.9303603e-06,7.635446e-06,0.00059013924,0.011082756,0.01079036,0.010757274,0.04791707,0.047918838,0.0560074,1.0456655e-11,1.0438833e-11,1.861127e-11,5.118956e-08,8.328478e-08,5.0000036e-08,0.0,0.0,0.0,0.0,0.0,0.0,0.0,0.0,8389271,0.30957374,0.23665883,0.02953542,0.16174018,0.091493405,0.0029493687,0.0,0.0,0.0,0.032013,0,0,0,831,24,0,0,0
139664470,0.8399226,-0.0005377354,0.006128209,-0.5426713,-0.72329956,0.19064566,-1.4948317,-2.116319,-0.1354803,-2.2844696,1.4051917e-06,-1.6184593e-05,5.5711694e-06,0.0004991754,0.0011996521,0.0014777128,0.18120305,0.0020023962,0.34318843,0.0,0.0,0.0,0.0,0.0,8.570229e-07,0.0020878601,0.02798102,0.00019040806,5.0337253e-06,7.718685e-06,0.0004549941,0.011144687,0.010410162,0.010755379,0.048549328,0.04852992,0.055826213,1.0477564e-11,1.0459549e-11,1.8713206e-11,5.1160587e-08,8.32272e-08,5e-08,0.0,0.0,0.0,0.0,0.0,0.0,0.0,0.0,8389271,0.31157544,0.23627572,0.0024398223,0.10575733,0.09029651,0.0042614816,0.0,0.0,0.0,0.032013,0,0,0,831,24,0,0,0
139867702,0.83995473,-0.0007757066,0.00396125,-0.5426416,-0.76751214,0.1804926,-1.5182658,-2.242744,-0.14533646,-2.5676675,1.3886619e-06,-1.598992e-05,5.5625405e-06,0.00049526244,0.00119614,0.0014702608,0.18120305,0.0020023962,0.34318843,0.0,0.0,0.0,0.0,0.0,1.2339831e-06,0.0022961718,0.029490419,0.000154829,5.102499e-06,7.782817e-06,0.00037009522,0.011545496,0.010248005,0.010844788,0.0492139,0.049138,0.056413285,1.0506083e-11,1.0487702e-11,1.8815031e-11,5.10889e-08,8.3085936e-08,5.0000036e-08,0.0,0.0,0.0,0.0,0.0,0.0,0.0,0.0,8389271,0.31361106,0.23751481,0.030069407,0.09426853,0.08676322,0.007913571,0.0,0.0,0.0,0.032013,0,0,0,831,24,0,0,0
140067679,0.83937556,0.00018740451,0.0025305268,-0.54354596,-0.79894704,0.1912312,-1.4107021,-2.3806138,-0.15406686,-2.8602264,1.3792605e-06,-1.5801874e-05,5.552269e-06,0.0004900433,0.0011918655,0.0014669708,0.18120305,0.0020023962,0.34318843,0.0,0.0,0.0,0.0,0.0,1.3139503e-06,0.002345023,0.030257283,0.0001311167,5.1802604e-06,7.822482e-06,0.00031120083,0.012200892,0.010239155,0.010861493,0.050019253,0.049832243,0.05638636,1.0555266e-11,1.053622e-11,1.893142e-11,5.095299e-08,8.2818836e-08,5.000007e-08,0.0,0.0,0.0,0.0,0.0,0.0,0.0,0.0,8389271,0.31599286,0.23745812,0.045269236,0.099748455,0.08529183,0.030188126,0.0,0.0,0.0,0.032013,0,0,0,831,24,0,0,0
140267671,0.8397128,0.0013770503,0.0043364586,-0.54301184,-0.83682686,0.20132473,-1.4831051,-2.5172586,-0.1687021,-3.1328926,1.3648532e-06,-1.558986e-05,5.539125e-06,0.00048116493,0.0011841676,0.0014611101,0.18120305,0.0020023962,0.34318843,0.0,0.0,0.0,0.0,0.0,1.4144299e-06,0.0025636975,0.0308236,0.000113617076,5.2507094e-06,7.836589e-06,0.00026852993,0.013160391,0.010439081,0.010880043,0.050641518,0.05028004,0.056210916,1.0597341e-11,1.0577243e-11,1.9034775e-11,5.0749563e-08,8.241999e-08,5.0000075e-08,0.0,0.0,0.0,0.0,0.0,0.0,0.0,0.0,8389271,0.31768152,0.23708841,0.08457494,0.12931477,0.08817325,0.0029501633,0.0,0.0,0.0,0.032013,0,0,0,831,24,0,0,0
140475673,0.8383539,0.00047824564,0.0029922756,-0.5451181,-0.86018324,0.21429609,-1.4187489,-2.6643476,-0.18053308,-3.4222777,1.34352e-06,-1.5388769e-05,5.5320097e-06,0.00047025707,0.0011740014,0.0014556162,0.18120305,0.0020023962,0.34318843,0.0,0.0,0.0,0.0,0.0,1.4071042e-06,0.00263371,0.029195676,0.00010059567,5.3069975e-06,7.821362e-06,0.00023577844,0.014285113,0.010755379,0.010936979,0.051544335,0.05090528,0.05636926,1.0650105e-11,1.0628446e-11,1.914397e-11,5.0467698e-08,8.186823e-08,5e-08,0.0,0.0,0.0,0.0,0.0,0.0,0.0,0.0,8389271,0.3200775,0.23742211,0.048405636,0.11546532,0.09251807,0.020036297,0.0,0.0,0.0,0.032013,0,0,0,831,24,0,0,0
140676471,0.837947,-0.0006259463,0.0029659707,-0.5457432,-0.8972393,0.19678144,-1.4395839,-2.8148904,-0.1979157,-3.7063785,1.3534833e-06,-1.51931645e-05,5.519451e-06,0.00046017463,0.0011673039,0.0014567643,0.18120305,0.0020023962,0.34318843,0.0,0.0,0.0,0.0,0.0,1.171229e-06,0.0026362229,0.02967863,9.023545e-05,5.3471745e-06,7.775899e-06,0.00021015944,0.01545255,0.0111700995,0.0109525435,0.05213185,0.05115063,0.05618431,1.07029064e-11,1.0679137e-11,1.9248061e-11,5.010921e-08,8.116769e-08,5e-08,0.0,0.0,0.0,0.0,0.0,0.0,0.0,0.0,8389271,0.3213759,0.2370323,0.00012858244,0.13730784,0.09083878,0.029044183,0.0,0.0,0.0,0.032013,0,0,0,831,24,0,0,0
140875697,0.8370555,-2.449346e-05,0.0018118195,-0.54711515,-0.9107597,0.19238235,-1.4515486,-2.9654133,-0.21362714,-4.00086,1.3504487e-06,-1.5010955e-05,5.512972e-06,0.00044812914,0.0011575067,0.0014599179,0.18120305,0.0020023962,0.34318843,0.0,0.0,0.0,0.0,0.0,1.000634e-06,0.0023740001,0.024327448,8.175702e-05,5.3665754e-06,7.697093e-06,0.00018960927,0.016603602,0.011625032,0.011051732,0.052686095,0.0513003,0.056740977,1.0757874e-11,1.0731331e-11,1.9349775e-11,5.0000782e-08,8.030165e-08,5.000004e-08,0.0,0.0,0.0,0.0,0.0,0.0,0.0,0.0,8389271,0.3224692,0.23820364,0.01442052,0.11314642,0.09687348,0.0010181316,0.0,0.0,0.0,0.032013,0,0,0,831,24,0,0,0
141083708,0.8369911,-0.0011721249,0.0011298382,-0.54721427,-0.91844213,0.16439551,-1.517656,-3.100637,-0.2930553,-4.296913,1.3734123e-06,-1.4640903e-05,5.502307e-06,0.00041848252,0.0011356397,0.0014604172,0.18120305,0.0020023962,0.34318843,0.0,0.0,0.0,0.0,0.0,1.1707356e-06,0.0024689545,0.027848732,7.34872e-05,5.245152e-06,7.3640567e-06,0.00017110315,0.015961954,0.011126284,0.010892156,0.046645887,0.045461465,0.056203276,1.0784222e-11,1.0750283e-11,1.9455666e-11,5e-08,7.8197424e-08,5e-08,0.0,0.0,0.0,0.0,0.0,0.0,0.0,0.0,8389271,0.30349195,0.2370723,0.041755423,0.13846429,0.10115988,0.021741813,0.0,0.0,0.0,0.032013,0,0,0,831,24,0,0,0
141283670,0.837908,0.001209191,0.0009347303,-0.54580927,-0.93560815,0.19218315,-1.4373529,-3.2850893,-0.25789347,-4.5772367,1.3743502e-06,-1.4640848e-05,5.5052965e-06,0.0004184187,0.0011355891,0.0014537025,0.18120305,0.0020023962,0.34318843,0.0,0.0,0.0,0.0,0.0,1.0388933e-06,0.002297786,0.026279964,6.7253815e-05,5.356342e-06,7.479444e-06,0.00015790379,0.01884826,0.012739982,0.011114753,0.054366034,0.051948555,0.056639824,1.088648e-11,1.08525645e-11,1.9557278e-11,5.0000814e-08,7.819796e-08,5.0000036e-08,0.0,0.0,0.0,0.0,0.0,0.0,0.0,0.0,8389271,0.32605916,0.23799123,0.006568502,0.13846429,0.10115988,0.022449937,0.0,0.0,0.0,0.032013,0,0,0,831,24,0,0,0
141491702,0.838541,0.00029525274,0.0013561592,-0.54483694,-0.91612124,0.15262474,-1.4919723,-3.4244998,-0.3371875,-4.8809314,1.4027718e-06,-1.4330988e-05,5.4972006e-06,0.0003894102,0.0011146895,0.001458838,0.18120305,0.0020023962,0.34318843,0.0,0.0,0.0,0.0,0.0,8.465186e-07,0.002140631,0.025778713,6.191571e-05,5.1703037e-06,7.067957e-06,0.00014643448,0.017544104,0.012098256,0.010943925,0.047801655,0.04590062,0.056073602,1.0929227e-11,1.08857385e-11,1.9662737e-11,5.0000025e-08,7.572594e-08,5e-08,0.0,0.0,0.0,0.0,0.0,0.0,0.0,0.0,8389271,0.30610827,0.23679866,0.055072404,0.098266035,0.1038647,0.009135573,0.0,0.0,0.0,0.032013,0,0,0,831,24,0,0,0
141691671,0.83876115,-4.3266366e-05,0.0004058216,-0.54449934,-0.9244928,0.15003991,-1.5321977,-3.5853102,-0.37064976,-5.183366,1.4370827e-06,-1.4166173e-05,5.49344e-06,0.0003727976,0.0011059341,0.0014579281,0.18120305,0.0020023962,0.34318843,0.0,0.0,0.0,0.0,0.0,7.1683337e-07,0.001809325,0.0215779,5.7589863e-05,5.113998e-06,6.8985573e-06,0.0001364148,0.018099137,0.012565579,0.01103192,0.048279233,0.046052262,0.056621473,1.1005142e-11,1.0956286e-11,1.9764025e-11,5e-08,7.4431284e-08,5e-08,0.0,0.0,0.0,0.0,0.0,0.0,0.0,0.0,8389271,0.30713433,0.23795266,0.038719453,0.15371221,0.106239386,0.058917347,0.0,0.0,0.0,0.032013,0,0,0,831,24,0,0,0
141891688,0.838086,0.0028825263,-0.0010156666,-0.54552966,-0.9417088,0.16884185,-0.4276684,-3.772156,-0.33805984,-5.3360276,1.4420764e-06,-1.4163927e-05,5.510692e-06,0.0003725777,0.0011059518,0.0014376037,0.18120305,0.0020023962,0.34318843,0.0,0.0,0.0,0.0,0.0,7.224291e-07,0.0017271306,0.0209877,5.3450938e-05,5.2354653e-06,7.0171154e-06,0.00012672231,0.020056162,0.013629021,0.011140009,0.056887485,0.052964542,0.05626814,1.1107525e-11,1.1058698e-11,1.9865234e-11,5.0000764e-08,7.443146e-08,5e-08,0.0,0.0,0.0,0.0,0.0,0.0,0.0,0.0,8389271,0.33143935,0.23720907,0.01577194,0.15371221,0.106239386,0.026760606,0.0,0.0,0.0,0.032013,0,0,0,831,24,0,0,0
142099675,0.8389571,-0.0005412135,-0.0005161531,-0.5441972,-0.92857015,0.12157976,0.12546498,-3.9143717,-0.42918172,-5.375157,1.4881773e-06,-1.3902263e-05,5.4919365e-06,0.00034194303,0.0010877543,0.0014560433,0.18120305,0.0020023962,0.34318843,0.0,0.0,0.0,0.0,0.0,8.1341136e-07,0.0019136268,0.022890003,5.0140297e-05,5.0187678e-06,6.6278317e-06,0.000119169286,0.01753436,0.012368321,0.010963538,0.049393266,0.046567954,0.055781517,1.1171959e-11,1.1112278e-11,1.9970251e-11,5.0000036e-08,7.174139e-08,5.0000036e-08,0.0,0.0,0.0,0.0,0.0,0.0,0.0,0.0,8389271,0.30977607,0.23618111,0.028511552,0.120919235,0.10670284,0.0032492124,0.0,0.0,0.0,0.032013,0,0,0,831,24,0,0,0
142299671,0.839358,0.0013614984,0.00012109533,-0.5435775,-0.9262508,0.13711971,-0.015862554,-4.0806556,-0.45904595,-5.3671703,1.516495e-06,-1.3791504e-05,5.483019e-06,0.0003295071,0.0010823534,0.0014611197,0.18120305,0.0020023962,0.34318843,0.0,0.0,0.0,0.0,0.0,8.0529185e-07,0.0020068786,0.024600744,4.729238e-05,4.961312e-06,6.5009904e-06,0.00011248261,0.017855944,0.012824425,0.010977851,0.049755454,0.04672325,0.0556577,1.1257132e-11,1.1192006e-11,2.007109e-11,5.000002e-08,7.0458874e-08,5e-08,0.0,0.0,0.0,0.0,0.0,0.0,0.0,0.0,8389271,0.3106102,0.23591883,0.06361868,0.09792414,0.105409324,0.008739823,0.0,0.0,0.0,0.032013,0,0,0,831,24,0,0,0
142499702,0.8379164,0.0028071003,-0.0014874768,-0.5457894,-0.9125257,0.13739398,-0.0452172,-4.239805,-0.48738322,-5.3659344,1.543545e-06,-1.3683975e-05,5.4936568e-06,0.0003152869,0.0010742543,0.0014600076,0.18120305,0.0020023962,0.34318843,0.0,0.0,0.0,0.0,0.0,1.1611768e-06,0.0021196662,0.024693595,4.5035256e-05,4.9033915e-06,6.375551e-06,0.00010624022,0.017942838,0.013152642,0.010985721,0.050087444,0.046903886,0.05553631,1.134422e-11,1.1273593e-11,2.0171847e-11,5e-08,6.9228044e-08,5e-08,0.0,0.0,0.0,0.0,0.0,0.0,0.0,0.0,8389271,0.3114343,0.23566143,0.060947616,0.091377236,0.103604235,0.0050607175,0.0,0.0,0.0,0.032013,0,0,0,831,24,0,0,0
142699720,0.83273166,-0.00037868583,0.0018580859,-0.5536737,-0.90336406,0.13459568,0.54496044,-4.4053235,-0.51458067,-5.305287,1.5753359e-06,-1.3589058e-05,5.4971265e-06,0.0003038084,0.0010703544,0.0014547092,0.17837124,0.0019602966,0.3417093,0.00092806056,-0.0034066266,-0.0014914816,0.0,0.0,1.9663355e-06,0.0021075788,0.024719361,4.5444598e-05,4.856676e-06,6.260174e-06,0.00010295469,0.017512161,0.013050673,0.010987265,0.050428223,0.047129363,0.05546119,1.1433307e-11,1.1357427e-11,2.027349e-11,5.0000036e-08,6.805259e-08,5.0000036e-08,0.0013907162,1.3118091e-05,0.0013890006,0.0006472286,0.0012615322,0.0013889921,0.0,0.0,8389351,0.3123421,0.23550199,0.113104805,0.09116435,0.09930949,0.032343447,0.0,0.0,0.0,0.032013,0,0,0,831,24,0,0,0
142899677,0.8109103,0.00084414706,0.0005795328,-0.58516973,-0.9055598,0.13239542,0.77091986,-4.567468,-0.54063076,-5.1585445,1.6034018e-06,-1.3501515e-05,5.4969173e-06,0.00029133688,0.0010645239,0.0014533479,0.17839566,0.0019751347,0.33286488,-0.0015588088,-0.002042461,-0.010368263,0.0,0.0,2.762306e-06,0.0019744046,0.025496386,5.08057e-05,4.858712e-06,6.121238e-06,9.7711716e-05,0.017282628,0.013159941,0.011000963,0.050682284,0.04732322,0.055429935,1.1523797e-11,1.14428085e-11,2.0375798e-11,5.0000036e-08,6.694364e-08,5.0000036e-08,0.0012894743,1.2912064e-05,0.001296289,0.00033937383,0.0011526651,0.0012962855,0.0,0.0,8389351,0.31305832,0.23543563,0.05468383,0.08759551,0.09571551,0.0067815627,0.0,0.0,0.0,0.032013,0,0,0,831,24,0,0,0
143107677,0.7724618,-0.00057774293,0.0025597168,-0.6350558,-0.904734,0.12233959,0.65090525,-4.736632,-0.5661808,-5.0171685,1.6322889e-06,-1.3416581e-05,5.4966154e-06,0.00027871638,0.0010584939,0.0014576206,0.17967714,0.001982927,0.3319073,-0.0021968822,-0.00094135304,-0.011393393,0.0,0.0,3.981172e-06,0.0020091345,0.025532903,5.9900034e-05,4.9027344e-06,5.956301e-06,8.877052e-05,0.017301636,0.013530728,0.010980157,0.05125695,0.047821846,0.05498521,1.1619309e-11,1.1533373e-11,2.048224e-11,5.0000086e-08,6.593392e-08,5.0000036e-08,0.0012274105,1.2740889e-05,0.0012790103,0.00024658916,0.0011200428,0.0012790078,0.0,0.0,8389351,0.31476784,0.23448925,0.08634289,0.08906264,0.09440393,0.0048273457,0.0,0.0,0.0,0.032013,0,0,0,831,24,0,0,0
143307670,0.7251472,0.00020579938,0.002691796,-0.6885886,-0.9005008,0.14320901,0.66319627,-4.895688,-0.58812845,-4.908274,1.6541081e-06,-1.3340581e-05,5.4959646e-06,0.000266389,0.0010510583,0.0014674149,0.18140265,0.0020224769,0.33308044,-0.0039066323,-0.0027619295,-0.01039588,0.0,0.0,5.640922e-06,0.0021719267,0.02592223,7.049763e-05,4.964063e-06,5.7769203e-06,7.833467e-05,0.017041901,0.01369853,0.011005477,0.051452763,0.048051342,0.055038527,1.17113e-11,1.1620636e-11,2.0584584e-11,5.0000086e-08,6.501416e-08,5.0000036e-08,0.0010889315,1.2557036e-05,0.0012710706,0.00017600012,0.0010220318,0.0012710495,0.0,0.0,8389351,0.3154427,0.23460291,0.17251822,0.07237051,0.091133446,0.018620506,0.0,0.0,0.0,0.032013,0,0,0,831,24,0,0,0
143507711,0.6612154,0.0041449983,0.0029935387,-0.75017864,-0.8932623,0.16046478,0.6925955,-5.052707,-0.60526687,-4.781723,1.6751612e-06,-1.3267835e-05,5.4965244e-06,0.00025394265,0.0010432274,0.0014721492,0.18571025,0.0020320343,0.33223736,-0.006002783,-0.005517747,-0.01137786,0.0,0.0,7.141857e-06,0.0020722502,0.028130319,8.3769155e-05,5.0618314e-06,5.5741066e-06,6.5245185e-05,0.016672943,0.013809564,0.011100612,0.05154428,0.048233744,0.055789206,1.1803585e-11,1.1708453e-11,2.0687002e-11,5.000005e-08,6.41808e-08,5.0000036e-08,0.0008644809,1.2351441e-05,0.0012663201,0.00012201412,0.000833135,0.001266246,0.0,0.0,8389351,0.3158766,0.23619738,0.1420102,0.075554915,0.08400776,0.005292799,0.0,0.0,0.0,0.032013,0,0,0,831,24,0,0,0
143707689,0.55902743,0.004006388,0.0047843605,-0.82912564,-0.8802062,0.17249812,0.6244853,-5.2099137,-0.61525095,-4.6752906,1.6963099e-06,-1.3201725e-05,5.496933e-06,0.00024332503,0.0010368185,0.0014839531,0.19022565,0.001922048,0.3321125,-0.007902115,-0.0074879443,-0.011714901,0.0,0.0,7.913919e-06,0.0021867345,0.028186027,0.00010249439,5.2417786e-06,5.2914816e-06,4.676631e-05,0.016296027,0.013964186,0.011097414,0.051628143,0.048443083,0.055728044,1.1895833e-11,1.1796633e-11,2.0789322e-11,5.0000086e-08,6.3457094e-08,5.0000036e-08,0.0005856601,1.210645e-05,0.0012632994,8.7109074e-05,0.00057583256,0.0012631902,0.0,0.0,8389351,0.31634036,0.23606788,0.057223573,0.06511907,0.08197184,0.05385651,0.0,0.0,0.0,0.032013,0,0,0,831,24,0,0,0
143915671,0.48463172,0.0043566944,-0.0023172006,-0.8747044,-0.8909851,0.19993885,0.6458274,-5.3769264,-0.62519616,-4.5410876,1.7317451e-06,-1.3126088e-05,5.499881e-06,0.00023124076,0.0010307243,0.001483324,0.19001827,0.0017114196,0.33124894,-0.008689859,-0.0055719907,-0.012860573,0.0,0.0,5.4194347e-06,0.002178933,0.028440628,0.000114230716,5.347959e-06,5.086971e-06,3.522755e-05,0.015833097,0.014078126,0.011046138,0.051850438,0.0488188,0.055233806,1.1991487e-11,1.188864e-11,2.0895756e-11,5.0000015e-08,6.2820426e-08,5e-08,0.00037777977,1.1828684e-05,0.0012610978,7.096669e-05,0.0003736174,0.0012610109,0.0,0.0,8389351,0.31728417,0.23501873,0.15226595,0.092832826,0.0818694,0.01429162,0.0,0.0,0.0,0.032013,0,0,0,831,24,0,0,0
144115677,0.47753388,0.0048474777,0.0012945215,-0.87859905,-0.86408293,0.23391475,0.19947785,-5.5369825,-0.6334078,-4.4398046,1.7525222e-06,-1.304346e-05,5.495089e-06,0.0002197601,0.0010243199,0.0014791245,0.190431,0.0015902175,0.3286021,-0.009313558,-0.0050800145,-0.0158254,0.0,0.0,3.7758919e-06,0.0021453318,0.028074035,0.00011447478,5.2799337e-06,5.027946e-06,3.392332e-05,0.015681274,0.014421,0.01105541,0.05178607,0.048968207,0.05522906,1.2082076e-11,1.1976108e-11,2.0997315e-11,5.000009e-08,6.228865e-08,5e-08,0.00028123526,1.1580848e-05,0.001259097,6.410255e-05,0.00027625207,0.001259045,0.0,0.0,8389351,0.31741813,0.23500864,0.029704599,0.099011585,0.080706514,0.0382138,0.0,0.0,0.0,0.032013,0,0,0,831,24,0,0,0
144315670,0.48839384,0.0019107537,-0.0023654406,-0.872618,-0.8472823,0.2489439,-0.10897437,-5.701447,-0.63923424,-4.460264,1.7986849e-06,-1.2953224e-05,5.4806155e-06,0.00020892611,0.001017916,0.0014859786,0.1914725,0.0014559879,0.32936057,-0.010229209,-0.0049662823,-0.015431427,0.0,0.0,3.1672737e-06,0.002371778,0.029280087,0.00011098829,5.183215e-06,4.9993687e-06,3.4724777e-05,0.0154810725,0.01463599,0.011063629,0.05172213,0.04914321,0.055254057,1.2170673e-11,1.2062418e-11,2.109764e-11,5e-08,6.1826036e-08,5.0000036e-08,0.00023283207,1.13587685e-05,0.0012575693,6.0067967e-05,0.00022616387,0.0012575296,0.0,0.0,8389351,0.31759304,0.23506181,0.085997716,0.09913923,0.081141606,0.010693147,0.0,0.0,0.0,0.032013,0,0,0,831,24,0,0,0
144514896,0.49969056,0.0024976116,-0.000884477,-0.8662,-0.84249127,0.25163653,0.053246293,-5.865,-0.6359108,-4.4657755,1.8462287e-06,-1.2884776e-05,5.4819134e-06,0.00019837476,0.0010115672,0.0014852925,0.19218549,0.0014332675,0.32977128,-0.01064274,-0.0053462526,-0.015079395,0.0,0.0,2.7591093e-06,0.0025146871,0.029972173,0.00010820442,5.0776584e-06,4.998325e-06,3.5929286e-05,0.015022509,0.014551843,0.011149745,0.051631954,0.04931407,0.05605338,1.2258652e-11,1.2148918e-11,2.119842e-11,5.0000036e-08,6.13964e-08,5.0000107e-08,0.00021062547,1.1196437e-05,0.0012562948,5.780564e-05,0.00020268552,0.0012562698,0.0,0.0,8389351,0.31772003,0.23675595,0.09430161,0.07863725,0.07835571,0.007140386,0.0,0.0,0.0,0.032013,0,0,0,831,24,0,0,0
144714870,0.5086261,0.0012978883,0.0023368322,-0.8609834,-0.84381515,0.25738183,0.10326422,-6.0301456,-0.63078946,-4.4427257,1.8725808e-06,-1.2820836e-05,5.4779107e-06,0.00018838956,0.0010058861,0.001483849,0.19265404,0.0013814063,0.3291865,-0.011071749,-0.005235243,-0.01557987,0.0,0.0,2.0779062e-06,0.002373103,0.029170018,0.0001061417,4.978909e-06,5.0007193e-06,3.6898837e-05,0.014692869,0.014527861,0.011127073,0.051506545,0.04945881,0.0559824,1.2346664e-11,1.2236126e-11,2.1300229e-11,5.0000015e-08,6.0985265e-08,5e-08,0.00019714682,1.1054328e-05,0.001255375,5.6170164e-05,0.00018818762,0.0012553529,0.0,0.0,8389351,0.31775045,0.236606,0.12608321,0.07767592,0.07755497,0.004518975,0.0,0.0,0.0,0.032013,0,0,0,831,24,0,0,0
144922870,0.51324356,0.0011070031,0.0038405638,-0.85823375,-0.8503433,0.2806815,0.005669849,-6.2048154,-0.6225174,-4.4510903,1.921567e-06,-1.2744714e-05,5.4746315e-06,0.00017664685,0.0009977103,0.0014891698,0.19273132,0.0013480077,0.32921714,-0.01129475,-0.004912941,-0.015326965,0.0,0.0,1.8066303e-06,0.0024056642,0.027596531,0.000104908904,4.901292e-06,5.012349e-06,3.733262e-05,0.014573116,0.014648357,0.011145054,0.05174509,0.04995472,0.056220807,1.2441229e-11,1.2330399e-11,2.14099e-11,5.000006e-08,6.058669e-08,5.000006e-08,0.00018806527,1.0925544e-05,0.0012546343,5.4914875e-05,0.00017828862,0.001254605,0.0,0.0,8389351,0.31890407,0.23710927,0.0805625,0.088268116,0.07756137,0.013744646,0.0,0.0,0.0,0.032013,0,0,0,831,24,0,0,0
145122870,0.51585853,-0.0001814249,-0.0022563133,-0.85667086,-0.85030746,0.27678984,0.23319753,-6.3736057,-0.6101899,-4.439207,1.9878885e-06,-1.2672646e-05,5.473113e-06,0.00016554807,0.0009892688,0.0014890076,0.19293122,0.0013188169,0.3299845,-0.011529962,-0.0047153253,-0.014488489,0.0,0.0,1.4303741e-06,0.0021255591,0.02574682,0.00010410786,4.839506e-06,5.0196286e-06,3.7512687e-05,0.014171783,0.014477063,0.011114095,0.05155234,0.05003206,0.056088883,1.2523455e-11,1.24128485e-11,2.150827e-11,5.000005e-08,6.018691e-08,5.0000036e-08,0.00018139511,1.0805208e-05,0.0012540478,5.3909447e-05,0.00017094084,0.0012540156,0.0,0.0,8389351,0.31872308,0.23683092,0.26789314,0.072480194,0.07346491,0.023915187,0.0,0.0,0.0,0.032013,0,0,0,831,24,0,0,0
145322911,0.5161523,0.00094283995,0.0018716388,-0.8564942,-0.8556119,0.2852877,0.8476806,-6.53829,-0.5949675,-4.3174977,2.0371403e-06,-1.2607132e-05,5.4780317e-06,0.00015484108,0.0009802311,0.0014836572,0.1930266,0.0013190304,0.3305658,-0.01164183,-0.0046794084,-0.014135968,0.0,0.0,1.3497541e-06,0.0022116054,0.026091402,0.00010372442,4.7712138e-06,5.042563e-06,3.7435097e-05,0.013573013,0.0141065875,0.011162733,0.0513204,0.050058335,0.056743335,1.260671e-11,1.2496916e-11,2.1607986e-11,5.0000097e-08,5.976719e-08,5.0000097e-08,0.00017619514,1.0690959e-05,0.0012529903,5.307773e-05,0.00016516283,0.0012529652,0.0,0.0,8389351,0.3184003,0.23820859,0.20528582,0.06960636,0.07186541,0.0028218036,0.0,0.0,0.0,0.032013,0,0,0,831,24,0,0,0
145522871,0.5162405,0.0018933308,0.004070232,-0.8564319,-0.8579775,0.3006875,0.84044194,-6.7150984,-0.5757593,-4.1562448,2.0704774e-06,-1.2562834e-05,5.483152e-06,0.00014463706,0.000973684,0.0014893585,0.19338682,0.0013175273,0.3300542,-0.011840393,-0.0048711714,-0.01453763,0.0,0.0,1.0119043e-06,0.0019927926,0.025391845,0.00010338928,4.7169524e-06,5.074574e-06,3.732991e-05,0.013429145,0.014087027,0.011121048,0.05116313,0.05014432,0.056590013,1.2691028e-11,1.2582697e-11,2.170996e-11,5e-08,5.9342064e-08,5.0000036e-08,0.00017147447,1.0568617e-05,0.0012524416,5.230877e-05,0.00015989276,0.0012524085,0.0,0.0,8389351,0.31828833,0.23788655,0.1053934,0.06104585,0.071584225,0.0017635834,0.0,0.0,0.0,0.032013,0,0,0,831,24,0,0,0
145730890,0.5163033,0.0030929432,0.0036744168,-0.8563924,-0.8637658,0.3041612,0.727346,-6.89831,-0.5548413,-3.9866092,2.1441647e-06,-1.2486137e-05,5.485634e-06,0.00013238534,0.0009636671,0.001486044,0.19309218,0.0013290397,0.33033687,-0.011753203,-0.004662354,-0.014199819,0.0,0.0,1.3545952e-06,0.002313231,0.027199136,0.000103165126,4.6735945e-06,5.117923e-06,3.7272548e-05,0.013425109,0.014169433,0.011118067,0.051298358,0.050510064,0.05669721,1.2776189e-11,1.2669588e-11,2.1814715e-11,5.0000015e-08,5.8908235e-08,5e-08,0.00016802306,1.0464275e-05,0.00125203,5.1728355e-05,0.00015603159,0.0012519909,0.0,0.0,8389351,0.31907433,0.23811175,0.13871294,0.07069998,0.071354724,0.016003221,0.0,0.0,0.0,0.032013,0,0,0,831,24,0,0,0
145930871,0.51625246,0.00015106094,0.0006003938,-0.8564363,-0.86396444,0.30035615,0.79922754,-7.068673,-0.54157245,-3.8193023,2.1826252e-06,-1.2405189e-05,5.4923576e-06,0.00011964033,0.0009515925,0.0014825148,0.19340035,0.0013243859,0.33036602,-0.011941341,-0.0048011215,-0.01417679,0.0,0.0,1.1866514e-06,0.0022616985,0.027060334,0.000103021135,4.634701e-06,5.149415e-06,3.719638e-05,0.01325568,0.014075317,0.011156923,0.051130105,0.050554745,0.05725669,1.2854867e-11,1.2750511e-11,2.1914734e-11,5.0000036e-08,5.8462348e-08,5.0000036e-08,0.00016507847,1.0363523e-05,0.0012516388,5.122508e-05,0.00015272776,0.0012516021,0.0,0.0,8389351,0.31888062,0.23928371,0.11281692,0.094871804,0.07271848,0.022744372,0.0,0.0,0.0,0.032013,0,0,0,831,24,0,0,0
146138871,0.51698846,0.00043418846,0.0006764432,-0.8559921,-0.86570007,0.30507,0.74384826,-7.254121,-0.5258016,-3.6569414,2.228076e-06,-1.2318022e-05,5.4858688e-06,0.00010634583,0.00093990954,0.0014833303,0.1931204,0.0013152416,0.33031344,-0.0119127445,-0.0043812464,-0.014399337,0.0,0.0,1.0510552e-06,0.0021521526,0.026187146,0.00010281132,4.598139e-06,5.2010255e-06,3.7256246e-05,0.013238744,0.014096386,0.01105517,0.051257078,0.050882474,0.05651767,1.293522e-11,1.2833658e-11,2.2018658e-11,5.0000093e-08,5.8005337e-08,5e-08,0.00016256406,1.0265616e-05,0.0012512354,5.078077e-05,0.00014990038,0.0012511967,0.0,0.0,8389351,0.31959277,0.23773445,0.03580964,0.08436297,0.07424354,0.022647126,0.0,0.0,0.0,0.032013,0,0,0,831,24,0,0,0
146338921,0.5172655,-0.003648521,-0.0017646649,-0.85581535,-0.8810834,0.28845486,0.68438536,-7.434579,-0.50898075,-3.5086472,2.2662232e-06,-1.22483825e-05,5.4653656e-06,9.53493e-05,0.00092977966,0.0014812112,0.19298507,0.0013087958,0.33031794,-0.011884829,-0.0042069107,-0.014491913,0.0,0.0,9.1369805e-07,0.001989868,0.024336783,0.00010034899,4.5697525e-06,5.242232e-06,3.6339818e-05,0.013180176,0.014050536,0.011106956,0.051131543,0.050934,0.0571146,1.30104105e-11,1.291154e-11,2.211137e-11,5.0000097e-08,5.7542234e-08,5.000004e-08,0.0,0.0,0.0,0.0,0.0,0.0,0.0,0.0,8389271,0.319477,0.23898661,0.06419382,0.06312162,0.07279557,0.0045056273,0.0,0.0,0.0,0.032013,0,0,0,831,24,0,0,0
146538871,0.5159957,-0.0030352671,-0.0017119447,-0.8565842,-0.8962288,0.268951,0.68117136,-7.6244807,-0.4948094,-3.3609588,2.3352923e-06,-1.2178572e-05,5.489832e-06,8.305198e-05,0.00091982447,0.0014776193,0.19298507,0.0013087958,0.33031794,-0.011884829,-0.0042069107,-0.014491913,0.0,0.0,8.8486445e-07,0.0020000672,0.023756599,9.599288e-05,4.539766e-06,5.2929836e-06,3.4594246e-05,0.013081275,0.013954283,0.011056597,0.05097265,0.05093043,0.0568576,1.3084648e-11,1.298798e-11,2.2197693e-11,5.0000097e-08,5.7066412e-08,5e-08,0.0,0.0,0.0,0.0,0.0,0.0,0.0,0.0,8389271,0.31922263,0.23844832,0.12688097,0.07310516,0.073403455,0.030893786,0.0,0.0,0.0,0.032013,0,0,0,831,24,0,0,0
146738870,0.51423866,-0.00071940065,-0.0017519684,-0.85764515,-0.890122,0.2501272,0.6928761,-7.809273,-0.4856106,-3.2182593,2.378131e-06,-1.2098581e-05,5.5145033e-06,7.207889e-05,0.0009094008,0.0014763498,0.19298507,0.0013087958,0.33031794,-0.011884829,-0.0042069107,-0.014491913,0.0,0.0,7.450261e-07,0.0018309186,0.022883743,9.208283e-05,4.5174993e-06,5.349233e-06,3.2944517e-05,0.012995855,0.013862558,0.01100554,0.050863974,0.05095872,0.056586936,1.3156581e-11,1.3062816e-11,2.2284296e-11,5.0000082e-08,5.6590668e-08,5e-08,0.0,0.0,0.0,0.0,0.0,0.0,0.0,0.0,8389271,0.31909668,0.23788008,0.09136503,0.06790018,0.07190343,0.00037724682,0.0,0.0,0.0,0.032013,0,0,0,831,24,0,0,0
146946874,0.5132794,-0.002243663,0.00021645373,-0.8582187,-0.9081097,0.22242485,0.65188426,-8.003004,-0.48002014,-3.0912938,2.4176966e-06,-1.2008535e-05,5.50905e-06,6.0314975e-05,0.0008973703,0.0014819348,0.19298507,0.0013087958,0.33031794,-0.011884829,-0.0042069107,-0.014491913,0.0,0.0,8.0489195e-07,0.0019970455,0.0260695,8.8485875e-05,4.500514e-06,5.4094166e-06,3.147767e-05,0.013007239,0.013849033,0.011004576,0.05106586,0.051288605,0.056662057,1.3229347e-11,1.3139336e-11,2.2375104e-11,5.0000168e-08,5.6112835e-08,5.0000036e-08,0.0,0.0,0.0,0.0,0.0,0.0,0.0,0.0,8389271,0.31992885,0.23803793,0.015616545,0.078454465,0.0718387,0.038051527,0.0,0.0,0.0,0.032013,0,0,0,831,24,0,0,0
147146882,0.51350737,-0.0004128417,0.002118171,-0.85808253,-0.9052179,0.22996826,0.14041974,-8.19433,-0.483031,-3.0048997,2.471824e-06,-1.1899303e-05,5.497095e-06,4.628518e-05,0.00088303763,0.0014838001,0.19298507,0.0013087958,0.33031794,-0.011884829,-0.0042069107,-0.014491913,0.0,0.0,7.307502e-07,0.0018591642,0.025403613,8.504282e-05,4.4765425e-06,5.466642e-06,3.0258627e-05,0.013261751,0.013977037,0.010890697,0.050953817,0.05127154,0.05570106,1.329294e-11,1.3207736e-11,2.2461812e-11,5.0000136e-08,5.5633034e-08,5e-08,0.0,0.0,0.0,0.0,0.0,0.0,0.0,0.0,8389271,0.319727,0.23601072,0.041290432,0.092346735,0.07490625,0.013482406,0.0,0.0,0.0,0.032013,0,0,0,831,24,0,0,0
147346873,0.51338035,-0.0027715247,0.0016911385,-0.8581551,-0.9246056,0.21767937,-0.5243592,-8.391569,-0.4750874,-3.0353684,2.5432264e-06,-1.182752e-05,5.5060395e-06,3.5486544e-05,0.0008733633,0.0014850681,0.19298507,0.0013087958,0.33031794,-0.011884829,-0.0042069107,-0.014491913,0.0,0.0,6.809832e-07,0.0019710886,0.026429284,8.1881466e-05,4.4554936e-06,5.512544e-06,2.9126344e-05,0.0136095425,0.01416574,0.010962253,0.050895102,0.051279787,0.056331333,1.3349964e-11,1.3270749e-11,2.2548519e-11,5.000015e-08,5.5160374e-08,5.0000036e-08,0.0,0.0,0.0,0.0,0.0,0.0,0.0,0.0,8389271,0.3196481,0.23734222,0.061593838,0.07206538,0.0715186,0.0104742665,0.0,0.0,0.0,0.032013,0,0,0,831,24,0,0,0
147546871,0.5152316,-0.0019839345,-0.002934469,-0.85704374,-0.92235065,0.21066639,-1.6817029,-8.585806,-0.47774714,-3.2747242,2.5847282e-06,-1.1713314e-05,5.4948287e-06,2.4330471e-05,0.00086086226,0.0014854057,0.19298507,0.0013087958,0.33031794,-0.011884829,-0.0042069107,-0.014491913,0.0,0.0,9.2890224e-07,0.0021299624,0.026663592,7.876526e-05,4.431252e-06,5.5489713e-06,2.8263114e-05,0.014272324,0.014586214,0.010945947,0.050897907,0.051318344,0.056155786,1.3396069e-11,1.3324299e-11,2.2635093e-11,5.0000143e-08,5.469619e-08,5e-08,0.0,0.0,0.0,0.0,0.0,0.0,0.0,0.0,8389271,0.31971276,0.23697212,0.047194034,0.07733102,0.07139577,0.027882941,0.0,0.0,0.0,0.032013,0,0,0,831,24,0,0,0
147754870,0.5148949,-0.0013677181,-0.0019782968,-0.85725,-0.91767573,0.17907059,-1.450944,-8.788077,-0.47962487,-3.600783,2.6305565e-06,-1.1608483e-05,5.478262e-06,1.3884755e-05,0.0008494142,0.0014838077,0.19298507,0.0013087958,0.33031794,-0.011884829,-0.0042069107,-0.014491913,0.0,0.0,9.759276e-07,0.0022087053,0.027029406,7.5781274e-05,4.4116305e-06,5.5908754e-06,2.711231e-05,0.013992322,0.01433728,0.010945007,0.0512445,0.051687755,0.056261864,1.3442641e-11,1.3379441e-11,2.2723694e-11,5.000014e-08,5.424787e-08,5e-08,0.0,0.0,0.0,0.0,0.0,0.0,0.0,0.0,8389271,0.32083058,0.23719583,0.06679823,0.06469649,0.06975198,0.0212479,0.0,0.0,0.0,0.032013,0,0,0,831,24,0,0,0
147954925,0.5129878,0.001769387,-0.0005633294,-0.85839397,-0.8901941,0.17527358,-1.4045174,-8.980911,-0.48539835,-3.8719954,2.6791583e-06,-1.1499522e-05,5.48007e-06,3.5835517e-06,0.00083834433,0.0014800611,0.19298507,0.0013087958,0.33031794,-0.011884829,-0.0042069107,-0.014491913,0.0,0.0,1.036344e-06,0.002335041,0.028097438,7.347725e-05,4.392974e-06,5.6294766e-06,2.6031697e-05,0.013785933,0.014124063,0.0109939845,0.051205482,0.05165585,0.056836583,1.3481642e-11,1.3428268e-11,2.2810118e-11,5.0000168e-08,5.3814404e-08,5.0000075e-08,0.0,0.0,0.0,0.0,0.0,0.0,0.0,0.0,8389271,0.32072002,0.23840424,0.006546286,0.065402135,0.06632339,0.008643744,0.0,0.0,0.0,0.032013,0,0,0,831,24,0,0,0
148154871,0.5107808,-0.0001906389,-0.0020748815,-0.85970855,-0.8766558,0.14285627,-1.4092258,-9.169912,-0.4933148,-4.161569,2.7161957e-06,-1.13887545e-05,5.489485e-06,-5.663354e-06,0.0008281418,0.0014824604,0.19298507,0.0013087958,0.33031794,-0.011884829,-0.0042069107,-0.014491913,0.0,0.0,9.1433765e-07,0.0022012864,0.027416034,7.13574e-05,4.38825e-06,5.6636577e-06,2.4999625e-05,0.013631478,0.013952967,0.010949239,0.05117748,0.051628575,0.05658711,1.3517134e-11,1.34747396e-11,2.2896142e-11,5.0000196e-08,5.3402996e-08,5e-08,0.0,0.0,0.0,0.0,0.0,0.0,0.0,0.0,8389271,0.32063383,0.23788045,0.034455832,0.06631725,0.063770354,0.010001585,0.0,0.0,0.0,0.032013,0,0,0,831,24,0,0,0
148362894,0.509214,0.002255517,-0.0013017529,-0.8606361,-0.8708887,0.13093784,-1.4576731,-9.364788,-0.4924475,-4.4512897,2.7684478e-06,-1.1319132e-05,5.5052274e-06,-1.284465e-05,0.0008211612,0.001480072,0.19298507,0.0013087958,0.33031794,-0.011884829,-0.0042069107,-0.014491913,0.0,0.0,8.4707125e-07,0.0022123915,0.02728722,6.902725e-05,4.3901855e-06,5.712897e-06,2.4010718e-05,0.0135768,0.013874601,0.010862268,0.051434673,0.05188733,0.05588679,1.3552443e-11,1.3522359e-11,2.298403e-11,5.0000185e-08,5.3010204e-08,5e-08,0.0,0.0,0.0,0.0,0.0,0.0,0.0,0.0,8389271,0.3214374,0.23640387,0.060405392,0.04751208,0.058795523,0.030794555,0.0,0.0,0.0,0.032013,0,0,0,831,24,0,0,0
148562873,0.5086085,-5.7972902e-05,0.00015462864,-0.8609979,-0.858045,0.12041663,-1.4415963,-9.550875,-0.5013669,-4.7520204,2.806763e-06,-1.1216215e-05,5.4648635e-06,-2.1363092e-05,0.00081163616,0.0014850531,0.19298507,0.0013087958,0.33031794,-0.011884829,-0.0042069107,-0.014491913,0.0,0.0,1.4021747e-06,0.0024970493,0.030887466,6.7103894e-05,4.3896293e-06,5.7500224e-06,2.3209626e-05,0.013417975,0.013704735,0.010926143,0.051358636,0.051800273,0.05651723,1.3579451e-11,1.3562995e-11,2.3069586e-11,5.000019e-08,5.2637585e-08,5.000007e-08,0.0,0.0,0.0,0.0,0.0,0.0,0.0,0.0,8389271,0.3211836,0.23773353,0.030226042,0.056006636,0.058361422,0.027701989,0.0,0.0,0.0,0.032013,0,0,0,831,24,0,0,0
148770871,0.5060634,-0.002130287,-0.0020678989,-0.86249125,-0.85783404,0.111908205,-1.4507608,-9.738519,-0.5070099,-5.081776,2.8265895e-06,-1.1133556e-05,5.447958e-06,-2.7342117e-05,0.0008047525,0.0014987958,0.19298507,0.0013087958,0.33031794,-0.011884829,-0.0042069107,-0.014491913,0.0,0.0,1.057456e-06,0.002253378,0.02948601,6.545285e-05,4.4095577e-06,5.7965094e-06,2.2312397e-05,0.013344854,0.013617446,0.010842297,0.051586606,0.052021205,0.05583301,1.36066765e-11,1.3605188e-11,2.3158933e-11,5.0000228e-08,5.228576e-08,5e-08,0.0,0.0,0.0,0.0,0.0,0.0,0.0,0.0,8389271,0.32188168,0.2362901,0.02695987,0.03932927,0.055267338,0.032640267,0.0,0.0,0.0,0.032013,0,0,0,831,24,0,0,0
148974070,0.50429195,-0.001398678,-0.00049555703,-0.86353195,-0.84832674,0.102951586,-1.8340892,-9.92418,-0.5150147,-5.421443,2.877405e-06,-1.1049287e-05,5.4596308e-06,-3.4143926e-05,0.00079787185,0.0015022339,0.19298507,0.0013087958,0.33031794,-0.011884829,-0.0042069107,-0.014491913,0.0,0.0,9.724598e-07,0.0023420593,0.03165734,6.380254e-05,4.4180592e-06,5.8370056e-06,2.1563657e-05,0.0134837935,0.013686769,0.010901644,0.051538803,0.051954582,0.05641166,1.36241764e-11,1.3638944e-11,2.3243853e-11,5.000026e-08,5.195686e-08,5.0000036e-08,0.0,0.0,0.0,0.0,0.0,0.0,0.0,0.0,8389271,0.32170388,0.2375114,0.036414996,0.048837446,0.052662726,0.008414326,0.0,0.0,0.0,0.032013,0,0,0,831,24,0,0,0
149174871,0.5033344,-0.0061090915,-3.310189e-05,-0.8640702,-0.87903005,0.080553725,-2.0784354,-10.116698,-0.526296,-5.8217087,2.932e-06,-1.0954665e-05,5.4371603e-06,-4.137685e-05,0.00079027994,0.00150372,0.19298507,0.0013087958,0.33031794,-0.011884829,-0.0042069107,-0.014491913,0.0,0.0,9.104816e-07,0.0023889916,0.034495395,6.199066e-05,4.432265e-06,5.875676e-06,2.0819958e-05,0.013548176,0.0136968875,0.010884514,0.051606253,0.0519972,0.056383774,1.3648769e-11,1.3681349e-11,2.3340713e-11,5.000031e-08,5.1645756e-08,5.000009e-08,0.0,0.0,0.0,0.0,0.0,0.0,0.0,0.0,8389271,0.32187492,0.23745267,0.06644891,0.056100987,0.05003451,0.029461712,0.0,0.0,0.0,0.032013,0,0,0,831,24,0,0,0
149374078,0.50381756,-0.0048695025,0.0007573483,-0.86379606,-0.8837317,0.0817624,-2.4309936,-10.311276,-0.5477526,-6.2599244,2.979209e-06,-1.0810358e-05,5.453368e-06,-4.977058e-05,0.0007812478,0.0014984194,0.19298507,0.0013087958,0.33031794,-0.011884829,-0.0042069107,-0.014491913,0.0,0.0,8.3991125e-07,0.002182663,0.03298771,6.0357543e-05,4.442959e-06,5.9099284e-06,2.034485e-05,0.013656234,0.013755467,0.010868038,0.051552143,0.05191077,0.056247853,1.3654603e-11,1.3706126e-11,2.3426731e-11,5.000024e-08,5.13578e-08,5.000007e-08,0.0,0.0,0.0,0.0,0.0,0.0,0.0,0.0,8389271,0.32165653,0.2371663,0.052049603,0.07643182,0.050551858,0.022852676,0.0,0.0,0.0,0.032013,0,0,0,831,24,0,0,0
149574071,0.50408703,-0.0046386486,0.0024046279,-0.8636371,-0.9439478,0.06519411,-2.9068286,-10.507016,-0.5708307,-6.789429,2.9890298e-06,-1.0671255e-05,5.444216e-06,-5.6191628e-05,0.00077362265,0.0014944486,0.19298507,0.0013087958,0.33031794,-0.011884829,-0.0042069107,-0.014491913,0.0,0.0,8.066165e-07,0.0020959747,0.03270955,5.8854286e-05,4.4509297e-06,5.935758e-06,1.986206e-05,0.013822713,0.013859872,0.010843437,0.051461663,0.0517818,0.056071594,1.3651776e-11,1.3723594e-11,2.351285e-11,5.0000242e-08,5.1088353e-08,5.0000036e-08,0.0,0.0,0.0,0.0,0.0,0.0,0.0,0.0,8389271,0.3213152,0.23679441,0.0070530935,0.073439606,0.050390974,0.015342201,0.0,0.0,0.0,0.032013,0,0,0,831,24,0,0,0
149782070,0.50462866,-0.0010416214,0.0073074214,-0.863305,-1.005962,0.09260696,-3.3878517,-10.723196,-0.5838823,-7.443267,3.0285937e-06,-1.05658955e-05,5.4645793e-06,-6.16196e-05,0.00076771114,0.001496055,0.19298507,0.0013087958,0.33031794,-0.011884829,-0.0042069107,-0.014491913,0.0,0.0,7.584125e-07,0.0020257407,0.029233998,5.7397734e-05,4.467091e-06,5.9663944e-06,1.9454359e-05,0.014049126,0.014043544,0.010862731,0.051734485,0.052014798,0.0561976,1.3645561e-11,1.3738368e-11,2.3601145e-11,5.0000303e-08,5.0842353e-08,5.000008e-08,0.0,0.0,0.0,0.0,0.0,0.0,0.0,0.0,8389271,0.32210135,0.23706032,0.0032995157,0.043439303,0.050129876,0.028817557,0.0,0.0,0.0,0.032013,0,0,0,831,24,0,0,0
149982079,0.50613683,-0.002324075,0.0023926706,-0.8624467,-1.052939,0.150886,-3.967431,-10.946057,-0.59514236,-8.17126,3.0717804e-06,-1.0413205e-05,5.492338e-06,-6.794026e-05,0.0007605747,0.0014924519,0.19298507,0.0013087958,0.33031794,-0.011884829,-0.0042069107,-0.014491913,0.0,0.0,9.162311e-07,0.0024367399,0.03488258,5.594254e-05,4.4736425e-06,5.976316e-06,1.9137242e-05,0.014249608,0.014203689,0.010846586,0.051682238,0.05191698,0.05607028,1.362478e-11,1.373962e-11,2.3685727e-11,5.0000246e-08,5.0612737e-08,5.0000075e-08,0.0,0.0,0.0,0.0,0.0,0.0,0.0,0.0,8389271,0.32186833,0.23679164,0.048867904,0.067701004,0.049838345,0.022413762,0.0,0.0,0.0,0.032013,0,0,0,831,24,0,0,0
150182070,0.50761145,-0.0043584495,0.0041442714,-0.8615651,-1.1137325,0.17904212,-4.579318,-11.181727,-0.59414744,-9.019382,3.1302388e-06,-1.02679205e-05,5.473357e-06,-7.410062e-05,0.00075345713,0.0014939265,0.19298507,0.0013087958,0.33031794,-0.011884829,-0.0042069107,-0.014491913,0.0,0.0,9.3228124e-07,0.0024902627,0.033763748,5.4418302e-05,4.4786125e-06,5.980791e-06,1.8749459e-05,0.014472353,0.014396881,0.010747053,0.051705226,0.0518937,0.055197842,1.3598026e-11,1.373497e-11,2.3767328e-11,5.000025e-08,5.040465e-08,5e-08,0.0,0.0,0.0,0.0,0.0,0.0,0.0,0.0,8389271,0.32186785,0.23494221,0.058401283,0.06451682,0.047901478,0.0043777428,0.0,0.0,0.0,0.032013,0,0,0,831,24,0,0,0
150382072,0.5082029,-0.0019780686,0.0048383395,-0.8612216,-1.1719235,0.21085282,-5.403855,-11.423664,-0.5889643,-9.996601,3.1479367e-06,-1.0114524e-05,5.4769703e-06,-7.86955e-05,0.0007478196,0.0014888915,0.19298507,0.0013087958,0.33031794,-0.011884829,-0.0042069107,-0.014491913,0.0,0.0,9.783034e-07,0.0026719419,0.03673016,5.3195967e-05,4.480184e-06,5.9760564e-06,1.8394006e-05,0.01483156,0.014723421,0.0107397055,0.0517584,0.05190016,0.05511758,1.3560894e-11,1.3719858e-11,2.3849601e-11,5.000025e-08,5.0214148e-08,5e-08,0.0,0.0,0.0,0.0,0.0,0.0,0.0,0.0,8389271,0.32196048,0.23477134,0.08468874,0.06567894,0.049230658,0.030699061,0.0,0.0,0.0,0.032013,0,0,0,831,24,0,0,0
150582070,0.506965,-0.0035375266,0.0015055209,-0.861958,-1.2154843,0.23402588,-5.644799,-11.676035,-0.57550484,-11.077382,3.1823292e-06,-9.974357e-06,5.504883e-06,-8.2746774e-05,0.0007429865,0.0014748926,0.19298507,0.0013087958,0.33031794,-0.011884829,-0.0042069107,-0.014491913,0.0,0.0,8.6838395e-07,0.0024728219,0.036048204,5.2154064e-05,4.479512e-06,5.9602075e-06,1.7938073e-05,0.014728535,0.014646427,0.010727828,0.0518333,0.051930502,0.055049207,1.3515008e-11,1.3695514e-11,2.3930996e-11,5.000028e-08,5.003966e-08,5e-08,0.0,0.0,0.0,0.0,0.0,0.0,0.0,0.0,8389271,0.3221239,0.23462567,0.012437384,0.05104098,0.04960477,0.029375676,0.0,0.0,0.0,0.032013,0,0,0,831,24,0,0,0
150790072,0.5063968,-0.0033579466,0.00084611046,-0.8622937,-1.2530532,0.22924525,-5.629564,-11.94253,-0.56205225,-12.216454,3.1712252e-06,-9.816551e-06,5.50961e-06,-8.597458e-05,0.00073886174,0.0014614611,0.19298507,0.0013087958,0.33031794,-0.011884829,-0.0042069107,-0.014491913,0.0,0.0,7.988078e-07,0.0025537212,0.037690863,5.0983435e-05,4.4907833e-06,5.957121e-06,1.7490283e-05,0.014509483,0.014471367,0.010756881,0.052203387,0.052266616,0.0553035,1.3473461e-11,1.36754115e-11,2.4013236e-11,5.0000295e-08,5.000007e-08,5.0000036e-08,0.0,0.0,0.0,0.0,0.0,0.0,0.0,0.0,8389271,0.3232182,0.23516697,0.1577526,0.0703334,0.04753064,0.0041111475,0.0,0.0,0.0,0.032013,0,0,0,831,24,0,0,0
150990072,0.50691366,-0.00070317497,0.00051329914,-0.86199635,-1.2862502,0.23910111,-5.640084,-12.209067,-0.5473896,-13.296307,3.1846466e-06,-9.670671e-06,5.492975e-06,-8.944582e-05,0.0007346346,0.0014411474,0.19298507,0.0013087958,0.33031794,-0.011884829,-0.0042069107,-0.014491913,0.0,0.0,8.0974945e-07,0.0026159256,0.039570063,4.9952097e-05,4.4987914e-06,5.9500653e-06,1.7177454e-05,0.014269924,0.014267282,0.010748899,0.052235533,0.052276164,0.055273745,1.3427375e-11,1.365052e-11,2.4093479e-11,5.0000295e-08,5.0000036e-08,5.0000036e-08,0.0,0.0,0.0,0.0,0.0,0.0,0.0,0.0,8389271,0.3232827,0.2351037,0.13677916,0.057261422,0.048718236,0.04776101,0.0,0.0,0.0,0.032013,0,0,0,831,24,0,0,0
151190095,0.5079957,-0.0028410393,0.00033809006,-0.8613549,-1.3124259,0.24535657,-5.6596365,-12.477869,-0.53132606,-14.389194,3.1723596e-06,-9.532095e-06,5.4626034e-06,-9.21645e-05,0.00073121284,0.001425144,0.19298507,0.0013087958,0.33031794,-0.011884829,-0.0042069107,-0.014491913,0.0,0.0,7.3940487e-07,0.0024796426,0.037265126,4.8942617e-05,4.510931e-06,5.943418e-06,1.6910382e-05,0.014051801,0.014080088,0.010731214,0.05225687,0.05228346,0.055195466,1.3380727e-11,1.3624767e-11,2.4173058e-11,5.000029e-08,5.000007e-08,5e-08,0.0,0.0,0.0,0.0,0.0,0.0,0.0,0.0,8389271,0.32332698,0.23493715,0.06902724,0.05681018,0.048853498,0.053688355,0.0,0.0,0.0,0.032013,0,0,0,831,24,0,0,0
151398077,0.5081503,-0.0017300287,-0.0018059557,-0.8612649,-1.3515621,0.23803696,-5.7062926,-12.763056,-0.5089155,-15.550101,3.1662858e-06,-9.417477e-06,5.483193e-06,-9.424068e-05,0.0007288359,0.0014172915,0.19298507,0.0013087958,0.33031794,-0.011884829,-0.0042069107,-0.014491913,0.0,0.0,7.6098985e-07,0.002723837,0.040672883,4.788668e-05,4.5376737e-06,5.9507406e-06,1.6575086e-05,0.013936777,0.01399374,0.010755651,0.052616436,0.052636154,0.055427056,1.3339136e-11,1.360358e-11,2.4253209e-11,5.000034e-08,5.0000036e-08,5.0000036e-08,0.0,0.0,0.0,0.0,0.0,0.0,0.0,0.0,8389271,0.32442656,0.23542951,0.02773939,0.0422326,0.046757873,0.03480859,0.0,0.0,0.0,0.032013,0,0,0,831,24,0,0,0
151598070,0.5076664,-0.0029340645,-0.0010460992,-0.8615482,-1.3952018,0.22532044,-5.654021,-13.052284,-0.4927103,-16.662457,3.1931893e-06,-9.2718565e-06,5.495167e-06,-9.70999e-05,0.0007257313,0.0014078848,0.19298507,0.0013087958,0.33031794,-0.011884829,-0.0042069107,-0.014491913,0.0,0.0,6.6546437e-07,0.0027394744,0.043442618,4.6924273e-05,4.5562383e-06,5.951577e-06,1.621045e-05,0.013707694,0.013791646,0.010742952,0.052620698,0.052639883,0.055374634,1.3292592e-11,1.3577111e-11,2.4328522e-11,5.0000335e-08,5e-08,5.0000033e-08,0.0,0.0,0.0,0.0,0.0,0.0,0.0,0.0,8389271,0.32443887,0.23531815,0.045549534,0.052944023,0.046217415,0.04934773,0.0,0.0,0.0,0.032013,0,0,0,831,24,0,0,0
151806078,0.5083355,-0.0019723324,0.00063924276,-0.8611567,-1.4441828,0.2125159,-5.7334957,-13.357525,-0.48456544,-17.812284,3.1706384e-06,-9.096603e-06,5.4528527e-06,-9.9774705e-05,0.0007227381,0.0013934557,0.19298507,0.0013087958,0.33031794,-0.011884829,-0.0042069107,-0.014491913,0.0,0.0,6.8567283e-07,0.0023325242,0.037541896,4.6094447e-05,4.583852e-06,5.9623476e-06,1.5961745e-05,0.01363475,0.013737289,0.010771279,0.052865185,0.052888624,0.055630814,1.3248693e-11,1.3553211e-11,2.4410309e-11,5.0000367e-08,5.000007e-08,5.000007e-08,0.0,0.0,0.0,0.0,0.0,0.0,0.0,0.0,8389271,0.3251981,0.23586185,0.053416487,0.07879153,0.048986167,0.029149193,0.0,0.0,0.0,0.032013,0,0,0,831,24,0,0,0
152006076,0.5085535,-0.0016151231,-0.0073368647,-0.8609977,-1.4703627,0.2000898,-5.23009,-13.655673,-0.4743345,-18.881315,3.149345e-06,-8.966594e-06,5.404336e-06,-0.00010173368,0.000720544,0.0013743958,0.19298507,0.0013087958,0.33031794,-0.011884829,-0.0042069107,-0.014491913,0.0,0.0,6.569225e-07,0.0019129774,0.029487994,4.5195175e-05,4.61633e-06,5.9657386e-06,1.5645313e-05,0.013123739,0.013256238,0.010672449,0.052719895,0.052751575,0.05483975,1.31989255e-11,1.3523173e-11,2.448418e-11,5.0000345e-08,5e-08,5e-08,0.0,0.0,0.0,0.0,0.0,0.0,0.0,0.0,8389271,0.32476372,0.23417889,0.07203156,0.050842367,0.048847184,0.04439163,0.0,0.0,0.0,0.032013,0,0,0,831,24,0,0,0
