timestamp,gyro_rad[0],gyro_rad[1],gyro_rad[2],gyro_integral_dt,accelerometer_timestamp_relative,accelerometer_m_s2[0],accelerometer_m_s2[1],accelerometer_m_s2[2],accelerometer_integral_dt
133185271,-0.0025981409,-0.0014730771,0.0017507819,4000,0,-0.18283208,0.117030986,-9.607781,4000
133189285,-0.0009902581,0.00085780065,-6.28198e-05,4014,0,-0.17324929,0.12087641,-9.603487,4014
133193271,0.0009180713,0.0005458672,0.0013303987,3986,0,-0.18092242,0.114169404,-9.604916,3986
133197326,0.0005000644,-0.0010526367,-0.00057812344,4055,0,-0.17660183,0.119502306,-9.593535,4055
133201284,0.0003715285,-0.000105825995,0.002308924,3958,0,-0.18060505,0.11745681,-9.6065,3958
133205271,0.00028174554,-0.000731429,0.0010141553,3987,0,-0.17753895,0.11515305,-9.604886,3987
133209271,0.001342178,0.00033280972,0.0014403102,4000,0,-0.17319614,0.113171406,-9.614826,4000
133213271,-0.0002479116,0.00043082944,-5.4324722e-05,4000,0,-0.17222284,0.119821705,-9.61016,4000
133217322,-0.00067125575,-0.00063277566,0.0011209756,4051,0,-0.17035583,0.11313535,-9.611084,4051
133221314,0.0021016584,-0.0011563749,0.0008948623,3992,0,-0.17715974,0.11672566,-9.590477,3992
133225271,6.953125e-05,-0.00073705346,-0.0006898365,3957,0,-0.16271456,0.13676068,-9.591237,3957
133229270,-0.0010890848,-0.000107886786,-0.0017610786,3999,0,-0.17267376,0.13896039,-9.622053,3999
133233271,0.0007227918,0.00043057415,-0.00037986835,4001,0,-0.17610466,0.13142666,-9.611063,4001
133237301,7.9727375e-05,0.0008494941,-0.001126355,4030,0,-0.16302398,0.12410105,-9.629999,4030
133241271,0.001357732,-0.0006444273,-0.0010036406,3970,0,-0.17601313,0.13987541,-9.630684,3970
133245277,0.0020946742,0.0009651787,-4.8600967e-05,4006,0,-0.17598112,0.1360236,-9.633929,4006
133249278,-0.00046710848,-0.00094760716,0.000800975,4001,0,-0.16889974,0.13375038,-9.613013,4001
133253271,-3.330385e-05,-0.0020199989,-0.00035979846,3993,0,-0.17553869,0.108385004,-9.6214485,3993
133257316,-0.0008783455,-0.00010060377,-0.0010159411,4045,0,-0.17354856,0.1284445,-9.635295,4045
133261271,-0.0003562565,0.000108226115,0.00026440056,3955,0,-0.16551284,0.13757756,-9.6144,3955
133265277,-0.0013080635,-0.0010632434,-0.00080008886,4006,0,-0.17126589,0.122236215,-9.617716,4006
133269271,-0.0027983293,-0.0012760435,-0.0005923724,3994,0,-0.17022678,0.1173816,-9.632436,3994
133273270,-0.0011020945,0.001177182,-0.0006963974,3999,0,-0.18125318,0.12069094,-9.622962,3999
133277326,0.001357516,0.00042767733,-5.125813e-05,4056,0,-0.15870161,0.13560545,-9.621413,4056
133281271,0.0015676052,-0.0011720866,-0.0012258475,3945,0,-0.15753707,0.14200093,-9.590615,3945
133285291,-2.4947461e-05,-0.0006290399,-0.001327249,4020,0,-0.16175294,0.14148654,-9.596505,4020
133289287,-0.00024652595,0.0008699029,-0.0010192689,3996,0,-0.17133576,0.13082944,-9.60737,3996
133293271,-0.00086779596,-0.00052062835,5.5926426e-05,3984,0,-0.1817961,0.13952279,-9.605272,3984
133297317,0.00093312404,0.00064861064,-0.0009132281,4046,0,-0.18471591,0.12793973,-9.612716,4046
133301271,0.0014620165,0.00031438342,-0.0013170828,3954,0,-0.16966338,0.12409391,-9.634397,3954
133305281,-0.00023791207,-0.00052333524,0.00016114087,4010,0,-0.17159423,0.124520525,-9.639515,4010
133309271,-0.00024700354,-9.405455e-05,0.00079794804,3990,0,-0.16589183,0.12025346,-9.630444,3990
133313271,-0.0005684178,0.000855534,-0.00027142928,4000,0,-0.16211472,0.11699214,-9.617215,4000
133317323,-0.00088399893,-0.0005399811,-0.0014387468,4052,0,-0.17175846,0.12612075,-9.613021,4052
133321271,-0.00045475518,-0.0005148062,-0.00036419713,3948,0,-0.17659117,0.13469906,-9.6154,3948
133325278,-0.0018460061,0.00096843456,0.0008902292,4007,0,-0.17519188,0.13763542,-9.601227,4007
133329271,-0.002479014,0.0013883645,-0.00028606955,3993,0,-0.16803229,0.13051723,-9.58834,3993
133333271,0.00069773797,0.0023547385,0.00023917793,4000,0,-0.16365448,0.12889545,-9.602532,4000
133337345,0.0014500422,0.0013001416,0.0012193648,4074,0,-0.18184158,0.143262,-9.625459,4074
133341271,0.00048389193,0.00084087555,-6.246361e-05,3926,0,-0.18219459,0.12107074,-9.62587,3926
133345287,-0.00046679308,0.00011897483,0.00079303916,4016,0,-0.175012,0.12594038,-9.6377,4016
133349271,-0.0006791821,-0.00041547194,0.00047552996,3984,0,-0.17224534,0.1212868,-9.610086,3984
133353271,-0.00014335508,0.001921122,0.00014407764,4000,0,-0.17743988,0.120244466,-9.628092,4000
133357296,0.000931369,0.0010657596,-0.00059187115,4025,0,-0.17265552,0.12690216,-9.631586,4025
133361271,-0.0003524567,-0.0011713138,-0.00036868127,3975,0,-0.16405512,0.13419928,-9.618696,3975
133365291,-0.0015131381,-0.00021051693,-0.001974339,4020,0,-0.172607,0.12978277,-9.643888,4020
133369284,0.00029415332,0.0007400392,-0.0010164157,3993,0,-0.18020794,0.14071688,-9.655791,3993
133373271,0.0027307088,-0.001384781,-0.00077905983,3987,0,-0.18603,0.12540463,-9.652941,3987
133377296,0.0018768867,0.0010723885,5.12392e-05,4025,0,-0.18372184,0.13662471,-9.617832,4025
133381270,-0.0013038613,-0.0019159224,-0.0012206928,3974,0,-0.185164,0.13800663,-9.621189,3974
133385283,-0.0029141475,0.00022598101,0.0005718678,4013,0,-0.17226607,0.13088407,-9.6068535,4013
133389275,-0.0024945426,0.0014937728,-0.00059383595,3992,0,-0.18084681,0.108485,-9.606727,3992
133393271,-0.00025018744,-0.001693406,0.00091267994,3996,0,-0.17949475,0.10031607,-9.601513,3996
133397296,-0.000888723,-0.0007286663,0.0018569054,4025,0,-0.17123145,0.10939292,-9.61624,4025
133401271,-0.00036112184,-0.0008382216,0.0014384944,3975,0,-0.17550091,0.12068057,-9.641475,3975
133405277,-0.00015225312,0.00033818933,0.002282685,4006,0,-0.1792643,0.11872901,-9.65046,4006
133409271,0.0008059709,-9.338383e-05,0.0013418047,3994,0,-0.17112128,0.12397493,-9.648125,3994
133413295,-0.000253074,-0.00042198985,0.00016683499,4024,0,-0.17920281,0.123065434,-9.658057,4024
133417311,0.0010379177,-0.00043563588,-0.0019691524,4016,0,-0.17296997,0.12360339,-9.654579,4016
133721284,0.0008137568,-0.0005221431,-0.00080127444,3987,0,-0.17175737,0.13376589,-9.61681,3987
133725280,0.000278222,-0.0010531378,0.00048478483,3996,0,-0.17024407,0.11931048,-9.623897,3996
133729281,-0.0001379948,0.0010673137,-0.000597116,4001,0,-0.16831447,0.11785675,-9.637122,4001
133733271,0.00039136517,0.002241714,4.289981e-05,3990,0,-0.18570925,0.115119785,-9.607306,3990
133737304,-0.0015315544,-0.00095840136,-0.00037202923,4033,0,-0.18956427,0.121322244,-9.608252,4033
133741324,0.001025551,-0.0013740758,0.00029198726,4020,0,-0.18800113,0.121226124,-9.630666,4020
133745277,-0.0012178738,0.0003391018,0.0014337066,3953,0,-0.19485678,0.13331853,-9.614905,3953
133749271,0.0002896345,-0.00031600348,-0.0004770051,3994,0,-0.19006015,0.121851474,-9.597413,3994
133753289,-0.0003512395,0.00011350885,-5.802149e-05,4018,0,-0.178937,0.107906714,-9.614403,4018
133757307,-0.00014330531,0.00096827425,-0.00048183597,4018,0,-0.1827619,0.11836863,-9.628179,4018
133813271,0.0011412936,0.0006553576,-0.0006955214,3955,0,-0.18040389,0.11026453,-9.625253,3955
133817301,0.0003877931,0.00022044241,0.0007998251,4030,0,-0.19423589,0.11162912,-9.634419,4030
133821271,-0.002160585,-0.0013827622,-0.001446527,3970,0,-0.19943711,0.11731961,-9.645808,3970
133825271,-0.002587096,-0.0013814826,0.00025655222,4000,0,-0.18671963,0.11838468,-9.625465,4000
133829309,-0.00097651145,0.0004289272,-0.00070423656,4038,0,-0.16020629,0.11499817,-9.628075,4038
133833271,-0.00014729654,-0.0006386425,0.00049079704,3962,0,-0.18100736,0.124757655,-9.611492,3962
133837330,0.00060060265,-0.0001974856,0.0001520709,4059,0,-0.1934503,0.12758797,-9.601823,4059
133841277,0.0014593957,0.0022496704,0.00038065747,3947,0,-0.19770923,0.12657185,-9.606014,3947
133845279,-0.0009916425,0.00085472455,-5.5974557e-05,4002,0,-0.18856496,0.12841436,-9.61727,4002
133849305,0.00050374283,0.0011755845,-0.00069202937,4026,0,-0.18807904,0.124145575,-9.613071,4026
133853271,-0.0005593093,-0.000756382,-0.0013318924,3966,0,-0.19005294,0.10027007,-9.596253,3966
133857338,-0.002373796,0.00075452373,-0.00016937799,4067,0,-0.20298609,0.10799836,-9.621159,4067
133861271,-0.0013102237,-0.0012744046,0.0013289916,3933,0,-0.17957644,0.11412653,-9.601401,3933
133865296,-0.0001399289,-0.0005294485,-4.6984624e-05,4025,0,-0.16031355,0.115662545,-9.5986805,4025
133869291,-0.00015049311,-0.0016916859,0.00080884714,3995,0,-0.16840532,0.13232353,-9.618193,3995
133873288,-0.00046159973,-0.0011630127,-0.00080100895,3997,0,-0.18326814,0.1297759,-9.625442,3997
133877299,-0.0015185735,-0.0013911433,-0.0017613368,4011,0,-0.1832719,0.10790653,-9.616203,4011
133881271,-0.002491495,-0.0020105501,0.0011281531,3972,0,-0.18235956,0.12715563,-9.60117,3972
133885271,-0.0015345566,-0.001488091,-0.0005921123,4000,0,-0.17564876,0.1207835,-9.621926,4000
133889276,-0.0013132901,-0.00041946457,4.8303456e-05,4005,0,-0.1817821,0.11980757,-9.625334,4005
133893273,-0.001528475,-0.00042280127,4.093996e-05,3997,0,-0.17512213,0.11506361,-9.623895,3997
133897328,-0.00011872578,-0.0005415434,-0.0013425855,4055,0,-0.18219236,0.11924791,-9.638596,4055
133901271,0.0020007489,-0.00073412777,-0.0007748027,3943,0,-0.1782912,0.124023475,-9.641044,3943
133905271,-3.082245e-05,0.0013841398,-0.0011225074,4000,0,-0.17220986,0.11697142,-9.621935,4000
133909310,0.0004044255,0.00096165447,-0.00090970204,4039,0,-0.17314705,0.12607548,-9.6224985,4039
133913277,-0.00079318945,0.0020313626,-0.0006946274,3967,0,-0.17277735,0.13092422,-9.6134815,3967
133916499,-0.00053248525,0.0012205772,-0.00097243354,3222,0,-0.18180744,0.12492516,-9.624225,3222
133921270,0.00029455704,0.00026041106,-7.535165e-05,4771,0,-0.18651962,0.12714434,-9.625049,4771
133925271,0.00028530162,0.00033225925,-5.5711123e-05,4001,0,-0.17019509,0.12078504,-9.639865,4001
133929277,-0.0020420821,9.932073e-05,-0.0018686714,4006,0,-0.1740269,0.1192081,-9.640049,4006
133933271,-0.0011021306,-0.00031899306,-0.0013396993,3994,0,-0.16453785,0.12790681,-9.627761,3994
133937339,0.001046495,0.0006316092,-0.001964271,4068,0,-0.17141268,0.1443483,-9.614071,4068
133941271,-0.00036324852,0.00053949613,-0.0015589695,3932,0,-0.18419701,0.13934,-9.622126,3932
133945270,-0.0014301155,-0.0014946627,-0.00038171798,3999,0,-0.17948951,0.11798874,-9.611653,3999
133949289,0.0006003101,0.0005416933,0.0007964866,4019,0,-0.18662643,0.11890036,-9.616352,4019
133953270,-0.00055864645,0.0011705118,-0.0014442961,3981,0,-0.17368503,0.11556045,-9.6143875,3981
133957349,-0.0011962571,0.0010600865,-0.0017778407,4079,0,-0.17169043,0.10259971,-9.620506,4079
133961281,-0.0018514378,0.0007320203,-0.0005617543,3932,0,-0.17117818,0.11665126,-9.618663,3932
133965271,-0.00025241735,0.00032346408,0.0002778963,3990,0,-0.1759704,0.10400266,-9.628501,3990
133969271,-0.00034862413,-0.00063491927,-0.0010106671,4000,0,-0.17124587,0.11264397,-9.6224165,4000
133973296,-0.0021658295,-0.00020332944,0.0011067387,4025,0,-0.17265601,0.13463642,-9.622513,4025
133977367,-0.002040758,3.0294414e-05,0.0019584363,4071,0,-0.1732874,0.1258463,-9.6167755,4071
133981271,0.0002980846,-0.000320867,-0.00072570215,3904,0,-0.18070059,0.11942563,-9.622269,3904
133985277,0.00093364326,-0.00084404676,-0.0004779643,4006,0,-0.16638875,0.116936125,-9.625657,4006
133989270,-0.0011124772,0.00054771657,0.0006877209,3993,0,-0.18094966,0.13709244,-9.613639,3993
133993270,0.0013480162,-0.0017923904,-0.00036021607,4000,0,-0.16652592,0.13757336,-9.614838,4000
133997315,0.00027670607,-0.00051793986,-0.00016297115,4045,0,-0.17045756,0.12276228,-9.59736,4045
134001271,-0.0017391667,0.00022582199,0.00048124645,3956,0,-0.17360695,0.12803069,-9.622079,3956
134005294,-0.00025164874,0.001297366,0.0019602876,4023,0,-0.16978233,0.14134182,-9.625404,4023
134009270,-3.568025e-05,0.0013921527,0.0010041723,3976,0,-0.18371648,0.13414426,-9.629177,3976
134013271,-0.00068247993,9.435869e-06,-0.0006815593,4001,0,-0.17694977,0.14499056,-9.626559,4001
134017360,-0.0014088831,0.0013843848,-0.0012287353,4089,0,-0.17037968,0.1601187,-9.602303,4089
134021271,-0.0013245388,0.00126598,-0.0025300367,3911,0,-0.18343452,0.14423624,-9.597515,3911
134025274,-0.00025019777,0.00021200017,-5.979248e-05,4003,0,-0.18426675,0.1396278,-9.607352,4003
134029272,0.00091815955,-0.0007321235,0.0013396345,3998,0,-0.1956355,0.119249724,-9.6396265,3998
134033293,0.0001742168,0.0010743794,0.000685094,4021,0,-0.1937557,0.124560036,-9.632071,4021
134037368,-0.0006709795,-1.5334612e-05,-0.00035674323,4075,0,-0.20439212,0.11556531,-9.6105385,4075
134041273,-0.00067129167,0.0006747166,-0.0002905386,3905,0,-0.18695119,0.11119747,-9.59352,3905
134045271,-0.0011887947,0.00052632194,-0.0023994574,3998,0,-0.17653796,0.09973453,-9.618558,3998
134049270,-0.0017285412,0.00042340215,-0.0017696567,3999,0,-0.1736765,0.10836062,-9.616717,3999
134053271,-0.00077186245,0.00032834953,-0.0015531778,4001,0,-0.16893037,0.11753897,-9.59585,4001
134057330,-0.0007844653,-0.0016967703,-0.000171131,4059,0,-0.18056777,0.11806109,-9.589885,4059
134061270,-0.0012035769,4.013667e-06,-0.0015420575,3940,0,-0.2001481,0.11990892,-9.616082,3940
134065280,-0.0012029496,-0.0006324815,-0.00016265035,4010,0,-0.19568755,0.118876174,-9.6244545,4010
134069271,0.00028115796,-0.0006269535,0.00090657256,3991,0,-0.17745496,0.1255487,-9.624867,3991
134073271,0.0024052432,-0.00030669046,0.0017717885,4000,0,-0.17847699,0.13231184,-9.615423,4000
134077304,0.00048312568,-0.0003028251,0.0028252222,4033,0,-0.17372553,0.115545966,-9.610042,4033
134081277,0.00166582,-0.0005198635,0.0005929748,3973,0,-0.18521735,0.11175728,-9.614419,3973
134085273,0.00082393613,0.0004250727,-0.0014366932,3996,0,-0.17459728,0.1097851,-9.62099,3996
134089292,0.0014529078,-0.00074418593,-0.0012107338,4019,0,-0.17177366,0.12509774,-9.613512,4019
134093271,6.991627e-05,-0.0014878269,-0.00036215034,3979,0,-0.17359763,0.10973152,-9.629989,3979
134097303,0.00048952334,-0.00041487638,0.00027286066,4032,0,-0.17751075,0.11075045,-9.622375,4032
134101271,-0.00077096437,0.0017090956,-0.0011355283,3968,0,-0.17556627,0.12707976,-9.611605,3968
134105278,0.0013613289,-0.00032423434,-0.0024931203,4007,0,-0.17221293,0.13422841,-9.617345,4007
134109271,-0.00023586469,-0.002026784,-0.0022793214,3993,0,-0.16172609,0.12231077,-9.602974,3993
134113271,0.00082954305,0.0012769959,-0.0013336631,4000,0,-0.14536543,0.120376766,-9.618372,4000
134117352,0.0020934707,0.0017145635,-0.00026361618,4081,0,-0.14870127,0.12600832,-9.637991,4081
134121281,-0.00047967493,0.00083825254,0.0003737654,3929,0,-0.16544355,0.13514039,-9.634792,3929
134125301,-0.00013593039,0.0006447004,-0.0006977071,4020,0,-0.16553685,0.13083632,-9.610588,4020
134129270,-0.001215383,0.000541593,0.00079795835,3969,0,-0.178083,0.12422948,-9.600609,3969
134133271,-0.0012052762,-0.0011651717,0.00016156505,4001,0,-0.19093066,0.12842956,-9.621158,4001
134137303,-0.0015256534,0.00032722525,3.8031976e-05,4032,0,-0.17847376,0.13229991,-9.612034,4032
134141271,8.064945e-05,0.00043397656,0.00027074435,3968,0,-0.1728171,0.1347726,-9.601703,3968
134145314,0.0008266242,-0.00073409505,-0.00015451509,4043,0,-0.17321797,0.1447764,-9.603631,4043
134149271,-0.0009977702,-0.00042973238,-0.0014355558,3957,0,-0.17179388,0.119713694,-9.614493,3957
134153270,-0.0013037121,-0.0008540509,-0.0011129819,3999,0,-0.17505096,0.115007825,-9.624934,3999
134157302,-0.0019405074,-0.000108953216,-0.001765754,4032,0,-0.1870605,0.10831917,-9.62438,4032
134161271,-0.00024208409,0.00021966144,0.00015197818,3969,0,-0.19328289,0.115587175,-9.617749,3969
134165320,0.0006051189,0.000104201165,-0.0006949349,4049,0,-0.17847806,0.116114914,-9.613373,4049
134173270,0.00038523815,-0.00093783776,0.0013411744,3995,0,-0.15797916,0.13393089,-9.586492,3995
134177298,-0.00057012145,-0.0010520975,0.00069341453,4028,0,-0.16657946,0.122358136,-9.5944805,4028
134181271,-0.001318574,1.47136125e-05,0.00089768093,3973,0,-0.17757319,0.10793032,-9.604887,3973
134185286,-0.0019542966,-0.0012703774,0.00026321926,4015,0,-0.1737111,0.115152866,-9.601579,4015
134189271,-0.0007806839,-0.00096052577,-0.0016412834,3985,0,-0.1737479,0.11802529,-9.601526,3985
134193282,-0.0012038633,0.00021378914,-0.0017678059,4011,0,-0.17754798,0.11274988,-9.603405,4011
134197298,-0.0003451676,-0.00053078344,-0.0016471139,4016,0,-0.17026867,0.121787325,-9.617695,4016
134201271,-0.0003566996,-0.00031803656,0.00047884425,3973,0,-0.16985948,0.1203555,-9.609181,3973
134205277,-0.0014301554,0.0004450096,0.0023842223,4006,0,-0.16305846,0.12267849,-9.624807,4006
134209273,0.000159172,0.00012277601,0.0017550117,3996,0,-0.15674897,0.12681589,-9.6474905,3996
134213271,-3.0644016e-05,-0.0005284976,-0.0005850335,3998,0,-0.17701942,0.13659441,-9.618291,3998
134217301,-0.0008831075,-0.00020646388,-0.0010122461,4030,0,-0.17945796,0.13901596,-9.603128,4030
134221287,-0.001965776,0.00022745215,0.002927896,3986,0,-0.18375333,0.13034227,-9.62595,3986
134225277,-0.0013107565,0.00044346187,0.0013179833,3990,0,-0.17894669,0.13088171,-9.608303,3990
134229302,-0.00015227697,0.0006567539,0.0016445534,4025,0,-0.16215198,0.11895171,-9.610115,4025
134233278,-0.0006715792,0.00054042874,0.0002522515,3976,0,-0.16706151,0.12176129,-9.61337,3976
134237303,-0.00014846955,0.0019196874,-5.791851e-05,4025,0,-0.17229755,0.13149154,-9.597408,4025
134241271,-0.0009830946,0.00074756134,-0.00059980334,3968,0,-0.175498,0.14754643,-9.634141,3968
134245278,-0.00045448024,-0.00010613288,-0.0010122973,4007,0,-0.18232961,0.14048879,-9.606533,4007
134249277,-0.0016150541,-0.0003064105,-7.52775e-05,3999,0,-0.1731665,0.13139075,-9.622298,3999
134253271,0.00028265401,0.0017167737,0.0010013665,3994,0,-0.1678636,0.13177928,-9.623919,3994
134257345,0.0003867617,0.0008430214,0.0010185813,4074,0,-0.1721695,0.13987255,-9.630063,4074
134261274,-0.00016069817,-0.0036361597,0.00079727545,3929,0,-0.17615235,0.13422795,-9.607246,3929
134265277,0.0018702834,-0.0005172667,0.0016587226,4003,0,-0.178476,0.12991008,-9.615406,4003
134269270,-0.0006679305,-0.00041183765,0.00026783676,3993,0,-0.18180458,0.14376001,-9.619298,3993
134273277,-0.0014065751,0.000101122656,-0.0024025587,4007,0,-0.18089671,0.14140922,-9.610283,4007
134277296,-0.00046225128,0.00043225777,-6.208408e-05,4019,0,-0.16888428,0.13134302,-9.612502,4019
134281279,-0.00045782118,0.0019281127,-0.0012488627,3983,0,-0.16990934,0.11470829,-9.600026,3983
134285295,-0.0025992799,0.00022061456,0.00088765123,4016,0,-0.16510849,0.10557242,-9.603839,4016
134289271,-0.0014099298,0.0010615689,-0.0014486841,3976,0,-0.18327524,0.11125228,-9.614867,3976
134293333,0.00081298477,-1.3462513e-05,-0.00047075716,4062,0,-0.18796109,0.10351655,-9.625715,4062
134297296,0.0006006076,-0.00073460815,-0.00047921648,3963,0,-0.18607117,0.11805892,-9.625462,3963
134301286,0.0014569476,0.00011589063,-0.0004692619,3990,0,-0.17214826,0.11939325,-9.6181755,3990
134305276,0.0003955997,-0.0015963998,-0.0009956172,3990,0,-0.17992291,0.1261289,-9.608291,3990
134309271,0.0008144551,-0.0016900365,0.0011302711,3995,0,-0.17522834,0.12477785,-9.589745,3995
134313298,-0.00046908433,-0.0006233761,0.0009050115,4027,0,-0.1756845,0.12091147,-9.597337,4027
134317296,0.0008206605,0.00021818446,0.00036807577,3998,0,-0.19244623,0.12272544,-9.613209,3998
134321272,0.0011340196,0.00033661813,0.0008038633,3976,0,-0.19471481,0.12219195,-9.628754,3976
134325277,0.00080340775,0.0018419124,0.003667221,4005,0,-0.1722497,0.1212466,-9.619204,4005
134329271,0.0006960169,-0.002308806,0.0018873358,3994,0,-0.17359966,0.13469043,-9.615432,3994
134333300,0.0006014398,-0.0010623023,0.00069720356,4029,0,-0.16935508,0.121304475,-9.628087,4029
134337296,0.00070537074,-0.00042109747,-0.00111552,3996,0,-0.18187404,0.12885849,-9.628627,3996
134341291,0.0016924901,0.0017107052,-0.00048018637,3995,0,-0.18595055,0.119733386,-9.642594,3995
134345271,0.0025308211,0.00021397957,-0.0013229088,3980,0,-0.18411626,0.1326212,-9.644345,3980
134349270,0.0011474612,-0.0003201141,0.00037335357,3999,0,-0.18851222,0.14281441,-9.625953,3999
134353277,-0.0014183131,-0.0005185786,0.00036520744,4007,0,-0.18176737,0.13559192,-9.625917,4007
134357296,-0.0007870252,-0.00061597425,0.0015356907,4019,0,-0.1741631,0.13760424,-9.613045,4019
134361270,6.942242e-05,1.2142186e-05,0.0009042467,3974,0,-0.17126302,0.14473094,-9.615545,3974
134365271,-0.002584126,0.00021823749,-0.00038413226,4001,0,-0.16880429,0.14033975,-9.631579,4001
134369271,-0.002180156,0.00053586013,-0.0002799031,4000,0,-0.1693186,0.15468685,-9.624884,4000
134373277,0.0013477878,0.0011809678,0.0003703474,4006,0,-0.17978202,0.14558162,-9.638756,4006
134377332,-3.052506e-05,0.0006520357,-0.0011237218,4055,0,-0.17503375,0.13987567,-9.629475,4055
134381271,0.00093229854,0.0023697456,0.0008083764,3939,0,-0.16293901,0.13175428,-9.617866,3939
134385271,0.0011298415,0.001287278,0.0007967234,4000,0,-0.15680672,0.12840074,-9.631386,4000
134389271,0.0017775157,-0.0005268103,-0.00057469757,4000,0,-0.16111536,0.10208815,-9.631795,4000
134393276,-0.0008862713,0.0011769588,-6.3615415e-05,4005,0,-0.15404344,0.1175411,-9.602908,4005
134397311,0.00028377192,-0.0005233218,0.0005981352,4035,0,-0.16547635,0.13002005,-9.6045,4035
134401310,6.933568e-05,-0.0024352768,0.00047015454,3999,0,-0.17177175,0.12060927,-9.606435,3999
134405271,0.0006149036,0.0016057364,-0.0020910862,3961,0,-0.18519983,0.113577835,-9.629155,3961
134409271,0.0005127738,-0.00043512776,-0.0031317421,4000,0,-0.17981122,0.112561956,-9.63615,4000
134413277,0.00071287056,-0.00085325993,-0.0014324212,4006,0,-0.17597345,0.11879365,-9.638598,4006
134417311,0.0012401917,-0.000311558,-0.00015278831,4034,0,-0.17627141,0.12107937,-9.655638,4034
134421320,-0.0013318826,-0.0002080169,0.00080440525,4009,0,-0.16622595,0.11163863,-9.64394,4009
134428485,-0.0028049715,-0.001162266,-0.00016745787,3214,0,-0.17872891,0.12370111,-9.637211,3214
134433278,-0.00031316874,-0.0011608984,0.0004671278,4793,0,-0.1854225,0.1227833,-9.618989,4793
134437302,0.0005999123,-9.0210095e-05,0.0014412575,4024,0,-0.1871617,0.1342305,-9.609204,4024
134441302,-0.0007994015,0.0005345527,-6.451777e-05,4000,0,-0.16679545,0.15327439,-9.624586,4000
134445271,-0.00045607582,0.0006549456,0.0005820153,3969,0,-0.17704372,0.13841698,-9.616861,3969
134449271,0.0006197537,0.0009552938,-0.0006005125,4000,0,-0.18181948,0.11410814,-9.623386,4000
134453277,6.502111e-05,0.0012928246,0.0016430108,4006,0,-0.18609346,0.13367844,-9.628751,4006
134457296,0.002419441,0.0007413258,-0.00090500945,4019,0,-0.18510544,0.12358279,-9.623979,4019
134461321,-0.0017575537,0.0005492059,0.00017561809,4025,0,-0.17160454,0.12263245,-9.64052,4025
134465271,-3.2525462e-05,0.0004283585,0.0010026351,3950,0,-0.1682779,0.12355983,-9.643324,3950
134469271,-0.0007854795,-0.0019026404,0.0010158033,4000,0,-0.17313337,0.13080353,-9.625835,4000
134473277,0.00092568586,-0.0016964502,-0.00025492313,4006,0,-0.18036295,0.12987489,-9.620641,4006
134477296,0.00018016147,-0.00084737886,-0.00026013041,4019,0,-0.18600573,0.13263348,-9.638682,4019
134481322,-0.00034837404,1.3866781e-05,-0.00038019582,4026,0,-0.17155547,0.1234173,-9.64804,4026
134485271,0.0013596832,0.0019203351,-0.0016464794,3949,0,-0.18232803,0.107671715,-9.6398325,3949
134489271,0.00070808746,0.0010741231,0.000582462,4000,0,-0.1813046,0.10881148,-9.624806,4000
134493277,-0.00067486585,0.0016055119,0.0004665834,4006,0,-0.17694862,0.11262995,-9.623009,4006
134497296,-0.00067338225,0.0015013189,0.00015220238,4019,0,-0.17657746,0.12228599,-9.614381,4019
134501270,0.0005047255,-0.0008536168,-0.0012223709,3974,0,-0.17175335,0.12611265,-9.609672,3974
134505271,-0.00013492903,0.001066697,-0.00048577777,4001,0,-0.16255905,0.12313933,-9.62997,4001
134509287,6.9114445e-05,0.0015987997,4.586365e-05,4016,0,-0.17025802,0.12460367,-9.621976,4016
134513277,-0.0019628196,-0.0004089042,0.00217714,3990,0,-0.14534484,0.12320662,-9.608096,3990
134517296,-0.00014770828,0.000867214,0.001011975,4019,0,-0.16740155,0.13518055,-9.615437,4019
134521274,-0.00057496666,-9.830103e-05,0.0001597774,3978,0,-0.17603382,0.13511752,-9.625423,3978
134525270,0.0010237979,-9.929947e-05,0.00079481094,3996,0,-0.16985217,0.1294259,-9.615439,3996
134529291,0.0024171148,-0.00031250366,-0.0006812012,4021,0,-0.16510096,0.109858856,-9.600492,4021
134533271,0.0010202159,0.00022740505,0.0010189868,3980,0,-0.17372862,0.10652956,-9.603956,3980
134537321,-0.001096342,0.00042844133,0.0004640471,4050,0,-0.17563638,0.1237454,-9.603983,4050
134541277,-0.00013957312,9.944768e-05,-0.0003774635,3956,0,-0.1673604,0.11796578,-9.610176,3956
134545284,0.0007146356,-0.0001050726,-0.0010070491,4007,0,-0.17216721,0.10975536,-9.626651,4007
134549281,0.00081561645,-0.0010753688,-0.00068400556,3997,0,-0.17395848,0.11638204,-9.645662,3997
134553271,-0.0010946016,0.0016035496,-0.00017377581,3990,0,-0.17545776,0.10920177,-9.64422,3990
134557321,-3.706198e-05,0.001070681,0.00037189337,4050,0,-0.1885591,0.107886426,-9.62003,4050
134561277,0.00039072603,-0.0010544497,0.00017823296,3956,0,-0.17982979,0.107072614,-9.605338,3956
134565320,0.00017733747,-0.00030519345,-0.0005932234,4043,0,-0.17598763,0.113571435,-9.616678,4043
134569280,-0.0012073284,-0.00075149845,-0.0011110047,3960,0,-0.17464878,0.11081864,-9.612511,3960
134573282,-0.00024568662,-0.00042126057,-0.0003734363,4002,0,-0.17701666,0.12418046,-9.616336,4002
134577298,-0.0021566527,-0.0009617956,-0.0021889904,4016,0,-0.17698638,0.13030814,-9.627314,4016
134581277,-0.0005617977,0.0010784761,-5.7129255e-05,3979,0,-0.1673357,0.13465415,-9.626763,3979
134585284,-0.0009873408,0.00033992724,0.00015813284,4007,0,-0.17401224,0.14316417,-9.640011,4007
134589295,-0.0002548358,-0.0022179447,0.00037901438,4011,0,-0.17024139,0.12836765,-9.623342,4011
134593271,-0.0002438893,-9.5322626e-05,0.0003734791,3976,0,-0.17322914,0.11460006,-9.614815,3976
134597318,-0.002057885,0.00021355144,-0.0003819907,4047,0,-0.18044256,0.13713276,-9.602224,4047
134601276,-0.0013925541,-9.792521e-05,-0.00080546713,3958,0,-0.17895642,0.1355914,-9.60613,3958
134605271,0.00050552463,-0.0015837885,-0.0010035625,3995,0,-0.15684615,0.12260027,-9.630926,3995
134609280,0.0011295407,-0.0004134636,0.0011262265,4009,0,-0.16314568,0.11844816,-9.610058,4009
134613271,0.0005924513,-0.0014706342,0.0022964068,3991,0,-0.184631,0.120729305,-9.629159,3991
134617338,0.0011131404,0.0020326097,0.0006638044,4067,0,-0.19562516,0.13032156,-9.634906,4067
134621312,0.00030516586,-2.8015602e-05,-0.0024885563,3974,0,-0.18938324,0.12789355,-9.63769,3974
134625281,0.00059632485,-0.0011582165,0.0013556572,3969,0,-0.16718383,0.13602173,-9.632017,3969
134629332,0.001989002,3.0106556e-05,0.0015502924,4051,0,-0.16062365,0.14856254,-9.623595,4051
134633280,-0.00016545875,-0.00033506704,0.00048051352,3948,0,-0.16650046,0.1412188,-9.629154,3948
134637330,-0.00120978,-0.0019167784,0.0006976313,4050,0,-0.17280434,0.13898411,-9.603918,4050
134641277,6.826423e-05,-0.00306059,0.0014599051,3947,0,-0.17475797,0.12264569,-9.595435,3947
134645270,-0.0014166409,-0.002330938,0.00016421278,3993,0,-0.18089259,0.122733764,-9.6135025,3993
134649276,-0.0005708159,-0.00030925332,0.0007947721,4006,0,-0.17309715,0.1254746,-9.639544,4006
134653271,0.0003953469,0.001383407,-0.00080054824,3995,0,-0.17301689,0.123501845,-9.650888,3995
134657344,-0.0004895271,-0.00031058633,0.0014449474,4073,0,-0.16828775,0.11496262,-9.624362,4073
134661277,-1.8591858e-05,-0.0019104193,0.00079085265,3933,0,-0.16248672,0.118974105,-9.626277,3933
134665270,0.00017258333,-0.0011575797,0.0009108213,3993,0,-0.17322856,0.1141758,-9.6048765,3993
134669289,-0.0005666605,0.000644288,-0.00038223874,4019,0,-0.17705245,0.112723365,-9.611033,4019
134673270,-0.001206405,-0.0010499381,-0.0010146172,3981,0,-0.17709845,0.116086766,-9.60538,3981
134677326,-0.00023291794,0.00010975615,-0.0004701092,4056,0,-0.17892015,0.10925163,-9.629491,4056
134681277,-0.0005854694,-0.0008504381,-0.0005827109,3951,0,-0.17022984,0.11373512,-9.604329,3951
134685271,0.00027983307,-0.00148012,0.0016554993,3994,0,-0.17074762,0.11943605,-9.610559,3994
134689270,-0.00077907083,-0.0007299406,0.0015414798,3999,0,-0.18937647,0.1202564,-9.633299,3999
134693270,-0.0020527681,-0.0006352119,-0.0006911884,4000,0,-0.1850147,0.12580962,-9.660007,4000
134697330,-0.00057306903,-0.0015866738,0.0005859358,4060,0,-0.17930867,0.13087003,-9.64094,4060
134701277,-0.00044872102,-0.001496773,-0.0016594199,3947,0,-0.18713525,0.13017829,-9.619083,3947
134705291,0.00081764074,-0.0009490464,-0.00025473407,4014,0,-0.17685689,0.12448751,-9.644352,4014
134709271,0.00017493684,0.0011815912,0.00057510677,3980,0,-0.16728468,0.12735975,-9.651368,3980
134713284,0.00039627476,-0.0008478895,-0.0005757791,4013,0,-0.17413743,0.13994813,-9.615544,4013
134717341,0.001023861,-0.0007341204,-4.943476e-05,4057,0,-0.17366104,0.13272883,-9.613089,4057
134721271,0.00113483,-0.0006525234,-0.0006725316,3930,0,-0.17257448,0.13475004,-9.624935,3930
134725287,0.0007108094,0.00011318244,-0.0002634975,4016,0,-0.17605838,0.1260336,-9.620598,4016
134729277,-0.0010990798,-0.0010649445,-0.00069416635,3990,0,-0.1837282,0.12414566,-9.621549,3990
134733320,6.623881e-05,0.00011984878,0.0005810806,4043,0,-0.17843693,0.12267973,-9.624802,4043
134737330,-0.001400026,0.00062852196,-0.0019012013,4010,0,-0.17934176,0.11438941,-9.612628,4010
134741271,0.0006149101,9.8439334e-05,-0.0020635782,3941,0,-0.16742823,0.12675847,-9.607601,3941
134745270,0.0010210144,-0.0006291014,0.00080416177,3999,0,-0.1833436,0.1237746,-9.609691,3999
134749277,-0.00056435465,0.0003280573,0.00068633683,4007,0,-0.17804292,0.11415329,-9.6077585,4007
134753277,-0.0010992743,0.0007492423,-0.00017187935,4000,0,-0.1824063,0.12523514,-9.5931225,4000
134757340,0.0013751826,-0.0019204583,0.00029260933,4063,0,-0.20099129,0.13137151,-9.6143675,4063
134761289,0.0018588242,-6.887718e-05,0.0002575636,3949,0,-0.1763576,0.13561481,-9.624362,3949
134765271,0.0007126035,-0.00031584798,-0.0005780684,3982,0,-0.1924033,0.14233147,-9.617417,3982
134769277,-0.00035601374,0.00032823585,0.00036926742,4006,0,-0.18468285,0.1432698,-9.6207285,4006
134773270,-0.0015232561,0.00021884027,-0.00025827947,3993,0,-0.17420003,0.13614736,-9.614878,3993
134777297,-0.00045757697,0.00086111296,-4.8773396e-05,4027,0,-0.18132761,0.13086249,-9.621124,4027
134781271,0.0020895447,0.0005481946,0.0021841237,3974,0,-0.1740993,0.13654885,-9.625933,3974
134785282,-0.0002633909,-0.0008301767,0.0029221205,4011,0,-0.17073904,0.11982668,-9.618674,4011
134789296,0.0002767088,0.00012386756,0.002174633,4014,0,-0.1737093,0.10932149,-9.611023,4014
134793281,0.00018288285,-0.00031567103,-0.00037220903,3985,0,-0.18754733,0.11168869,-9.623856,3985
134797332,-0.00067361974,0.0007466227,-0.0017730239,4051,0,-0.19314535,0.12448826,-9.643023,4051
134801271,0.00028536186,6.8968366e-06,-5.1690306e-05,3939,0,-0.18895213,0.11883233,-9.631537,3939
134805271,-0.0018414651,0.00085711735,-0.0002798409,4000,0,-0.1668345,0.13072817,-9.640973,4000
134809277,0.0005025605,-0.0014888031,-0.0014241292,4006,0,-0.15532097,0.12073048,-9.636149,4006
134813271,0.0010283084,-0.00031743024,-0.000798726,3994,0,-0.16651902,0.11128742,-9.602514,3994
134817342,0.002300812,-0.00082885765,0.00017044728,4071,0,-0.16309164,0.118873864,-9.621171,4071
134821300,-0.00024959445,0.00022793682,-0.00090797665,3958,0,-0.16252746,0.10585159,-9.624579,3958
134825284,0.001135455,0.00042517224,0.00038061565,3984,0,-0.17032962,0.11554945,-9.627626,3984
134829277,-3.861352e-05,-0.00041812638,0.00090597605,3993,0,-0.17937723,0.123650715,-9.6248865,3993
134833272,-0.00013214184,-0.001483523,0.0007023577,3995,0,-0.18700457,0.12403327,-9.639706,3995
134837333,-0.0006595007,0.00010374942,-0.0011229436,4061,0,-0.1772859,0.12316569,-9.638309,4061
134841271,-0.00033861856,-0.000839623,-0.00026180857,3938,0,-0.16544485,0.1302996,-9.62511,3938
134845274,0.001891455,0.00095330545,-0.0021780431,4003,0,-0.17507969,0.113125056,-9.622429,4003
134849277,0.0014545193,0.0004339444,0.00027118565,4003,0,-0.16835101,0.12414125,-9.621025,4003
134853273,0.00017857463,-0.00084620126,-0.0001550172,3996,0,-0.16650802,0.11510607,-9.613346,3996
134857317,0.000927059,0.0010784444,0.00037207053,4044,0,-0.17026556,0.12232743,-9.616691,4044
134861271,0.0007131099,0.0011679728,-0.001120097,3954,0,-0.16507767,0.13319267,-9.61777,3954
134865272,0.0011407656,0.0017048408,-0.00090827164,4001,0,-0.16833004,0.116445884,-9.628101,4001
134869277,0.00071324693,0.0009669964,-0.00036986225,4005,0,-0.15837213,0.12127117,-9.611891,4005
134873271,-0.00045294943,0.00022588592,0.0004756632,3994,0,-0.16396083,0.1211893,-9.639385,3994
134877331,-0.0009940241,-0.00062413217,0.0014425248,4060,0,-0.17850056,0.116874866,-9.641835,4060
134881284,7.0756396e-05,0.0010926429,0.0012047385,3953,0,-0.18397954,0.1294481,-9.628076,3953
134885282,-0.00088909897,3.7203142e-07,-0.00016446174,3998,0,-0.1774351,0.13652723,-9.630169,3998
134889277,-0.0016298313,-0.0016939213,0.00037218316,3995,0,-0.17030883,0.13994607,-9.615922,3995
134893271,0.0026342617,0.0010686154,-0.0011118479,3994,0,-0.17604402,0.12794289,-9.622031,3994
134897297,0.0011406712,0.0010616432,-0.0012246496,4026,0,-0.17324935,0.12275616,-9.61107,4026
134901284,-0.0008922211,1.5521751e-05,0.00025692445,3987,0,-0.17614852,0.1295265,-9.600682,3987
134905286,-0.0012969188,-0.00054549455,-0.0025078384,4002,0,-0.1756693,0.11992124,-9.594478,4002
134909271,-0.0004516567,0.0023400914,-0.0015583615,3985,0,-0.17317607,0.108361594,-9.619079,3985
134913278,-0.00035007313,0.0014960975,-0.00059664814,4007,0,-0.17266233,0.10736641,-9.626174,4007
134917303,-0.0025899091,0.0011832108,3.7109854e-05,4025,0,-0.17556064,0.11552003,-9.621914,4025
134921291,-0.0016190957,0.00031487978,0.00014535303,3988,0,-0.1832629,0.12948848,-9.621662,3988
134925271,-0.0010980656,-0.000631368,5.175758e-05,3980,0,-0.17986561,0.13895026,-9.622583,3980
134929291,-0.00014903914,0.0001100594,0.00036872973,4020,0,-0.1717665,0.11843314,-9.622014,4020
134933276,0.0008212249,1.2412981e-05,0.0009139368,3985,0,-0.16114368,0.132841,-9.618146,3985
134937303,0.002201088,-0.0007337627,0.000272429,4027,0,-0.17121567,0.15078303,-9.643926,4027
134941271,0.001571456,-0.000113393464,-0.0006945689,3968,0,-0.18271133,0.14090717,-9.633854,3968
134945271,0.0009219366,0.0011794366,0.00037007293,4000,0,-0.17596866,0.13362001,-9.6367655,4000
134949271,-0.000571497,0.00022899143,0.0011138738,4000,0,-0.18318395,0.13510321,-9.629697,4000
134953286,-0.00025321287,0.00033322742,0.00090105244,4015,0,-0.18220058,0.14415126,-9.629247,4015
134957301,-0.0020724148,-0.00051808415,0.0016457109,4015,0,-0.18514587,0.13652647,-9.611553,4015
134961289,-0.0015274597,-0.0006186264,0.0024976947,3988,0,-0.17702952,0.13668755,-9.614109,3988
134965284,0.00048984576,-0.0012612216,0.0017539987,3995,0,-0.17981161,0.13741031,-9.6401415,3995
134969281,0.00040092648,0.00085355947,-0.00037489008,3997,0,-0.16212018,0.12651432,-9.638486,3997
134973319,0.0020024236,-0.001506937,-0.0020685217,4038,0,-0.16743556,0.1302877,-9.629157,4038
134977304,-0.00014829263,0.0001118274,-0.0033373244,3985,0,-0.1750024,0.12173098,-9.628164,3985
134981271,-0.00066284003,0.0011793551,-0.002081121,3967,0,-0.17505746,0.12173975,-9.62525,3967
134985277,-0.0009886813,0.000640816,-0.0006998579,4006,0,-0.18504994,0.118756615,-9.643345,4006
134989271,0.0008102455,1.47277815e-05,-0.00015651574,3994,0,-0.1755914,0.12416571,-9.62449,3994
134993317,0.00070600066,0.0004338826,0.00025561985,4046,0,-0.1674003,0.123290084,-9.6102085,4046
134997311,0.0013587065,0.00041592683,-0.0012202607,3994,0,-0.14902131,0.12262099,-9.625155,3994
135001291,-0.0007962246,0.00032850113,-0.0004761813,3980,0,-0.15986714,0.11547493,-9.625303,3980
135005285,-0.00024927876,0.00054840685,0.0009066127,3994,0,-0.16549635,0.12801003,-9.622886,3994
135009271,0.0013492681,-0.00052508275,0.00017003428,3986,0,-0.16157193,0.12933718,-9.637179,3986
135013279,-0.0007767903,-0.002125759,0.00048652806,4008,0,-0.1688207,0.13171156,-9.631498,4008
135017306,-0.0009919405,-0.0009459201,0.0009030334,4027,0,-0.15478285,0.13449708,-9.647653,4027
135021305,-0.0012147399,-0.0014718076,0.0016587828,3999,0,-0.17032115,0.13273408,-9.619946,3999
135025271,0.0005172161,0.0012994607,-7.093409e-05,3966,0,-0.17610751,0.12612651,-9.610229,3966
135029270,-0.00056704914,-0.0014745162,0.00037432814,3999,0,-0.18374228,0.11933155,-9.615868,3999
135033270,0.0015754749,-1.33495005e-05,-0.0033419004,4000,0,-0.1775356,0.12849532,-9.611127,4000
135037303,-0.00066877884,0.0014854146,-0.0021922395,4033,0,-0.17516497,0.122318946,-9.603984,4033
135041274,-0.0018295315,-0.00055410754,-0.0021775214,3971,0,-0.1731994,0.12656865,-9.614473,3971
135045271,6.378662e-05,-0.0014867688,0.00048320787,3997,0,-0.17361258,0.12706456,-9.612481,3997
135049284,-2.6482725e-05,-0.0021150173,0.0003868498,4013,0,-0.19336316,0.11798967,-9.6117325,4013
135053301,-0.0006817247,0.0010952081,0.001862872,4017,0,-0.18620838,0.1252265,-9.603545,4017
135057297,-0.0014256584,-0.0011861336,-0.0013337279,3996,0,-0.16887514,0.12706217,-9.611608,3996
135061273,-0.0020520838,-0.0006267898,0.00025836722,3976,0,-0.15881535,0.13711347,-9.608184,3976
135065271,0.00028263935,-0.0011624828,0.00037871118,3998,0,-0.16606459,0.13237873,-9.598786,3998
135069273,0.00039381,-0.0009624317,-0.00047503642,4002,0,-0.18516387,0.11700958,-9.612042,4002
135073270,0.00017767017,-0.0018964501,0.0013453674,3997,0,-0.18407331,0.12265924,-9.6334505,3997
135077306,0.0006033448,-0.0005128102,0.0013323241,4036,0,-0.19041388,0.12844376,-9.622545,4036
135081289,0.00093000307,-0.0008669694,-0.0013385182,3983,0,-0.17841175,0.12793545,-9.617925,3983
135085278,0.002105133,9.641224e-05,-0.0021683339,3989,0,-0.16889347,0.13233057,-9.611188,3989
135089285,0.0014670335,-0.0017096456,-0.0023795695,4007,0,-0.1698091,0.13129981,-9.621121,4007
135093271,0.00050268875,-0.0021352682,-0.0013122158,3986,0,-0.16406043,0.11934481,-9.61864,3986
135097340,0.0020931948,0.0005358236,0.00027550818,4069,0,-0.18481952,0.13382265,-9.609322,4069
135101271,0.0009045044,0.00046363744,0.001682569,3931,0,-0.1883866,0.13896343,-9.619431,3931
135105277,0.0011401314,0.001499564,0.00068903033,4006,0,-0.17799711,0.12709081,-9.614978,4006
135109275,-0.00024915574,-0.001055139,5.700752e-05,3998,0,-0.18286946,0.13237885,-9.597922,3998
135113271,0.0018792636,1.3862304e-05,0.0011263769,3996,0,-0.18388654,0.13145457,-9.591721,3996
135116491,0.00065335503,0.0004372621,0.00090479065,3220,0,-0.16260484,0.14350398,-9.621222,3220
135121271,0.00049030053,-0.0005513987,-0.0018370557,4780,0,-0.16978431,0.13631426,-9.62181,4780
135125277,-0.00035309108,0.00042673785,-0.0011221321,4006,0,-0.19562952,0.11687803,-9.6362705,4006
135129279,-0.0013130449,-0.00031522458,-0.0001616305,4002,0,-0.20149495,0.12991345,-9.616912,4002
135133284,-0.00087960786,0.0008592425,-0.0003776185,4005,0,-0.20148268,0.11407741,-9.6177845,4005
135136515,0.00038540375,0.00017700305,0.0013059075,3231,0,-0.19265664,0.12735514,-9.61649,3231
135141281,-0.00094643544,0.001587772,0.001256347,4766,0,-0.1929133,0.1290802,-9.631752,4766
135145277,-0.0010033287,2.3395076e-05,0.0021768308,3996,0,-0.19181348,0.12932289,-9.635915,3996
135149277,-0.00026378437,0.0014080686,0.0034490675,4000,0,-0.17542282,0.13212861,-9.647169,4000
135153273,0.00039335134,0.00032364708,-0.00068808603,3996,0,-0.18367927,0.12220922,-9.62825,3996
135157298,0.0010346448,0.0006450353,-0.00037317188,4025,0,-0.17948365,0.13805217,-9.609302,4025
135161319,0.0013602384,-0.0015095039,-0.0017350778,4021,0,-0.18034533,0.12603085,-9.605033,4021
135165277,-0.0002554362,-0.0012699758,-0.00069612573,3958,0,-0.15970786,0.13187222,-9.612949,3958
135169271,0.00027281014,-0.00094801077,0.0019863078,3994,0,-0.16545871,0.1365873,-9.624366,3994
135173271,0.0013521422,0.0012804751,-0.00058584363,4000,0,-0.16611785,0.12717514,-9.588805,4000
135177297,-0.0013112478,-0.0003049788,0.000799326,4026,0,-0.18480413,0.13152675,-9.582663,4026
135182077,-0.001568572,0.00026688512,0.0016967122,4780,0,-0.18979843,0.12196066,-9.623059,4780
135186071,-0.0012121572,0.00054637896,0.0009986705,3994,0,-0.1827906,0.12606011,-9.616366,3994
135190078,-0.00056216656,0.0008633919,5.4097236e-05,4007,0,-0.18369648,0.1360869,-9.622099,4007
135194077,0.0004897351,0.0009708757,0.0003733759,3999,0,-0.18617055,0.12229305,-9.612636,3999
135197304,0.0011806685,-0.0008921008,0.0014504432,3227,0,-0.1759244,0.121523075,-9.597438,3227
135201296,8.083968e-05,-0.00031545904,-0.0013517844,3992,0,-0.18287654,0.12421104,-9.604628,3992
135205277,7.3427414e-05,-0.00063414895,-0.0004770131,3981,0,-0.1883951,0.13262144,-9.646741,3981
135208516,-0.00028228704,-0.002234205,0.0005140754,3239,0,-0.19125783,0.14454804,-9.644403,3239
135212471,-0.00025131233,-0.0022158874,0.001346887,3955,0,-0.18320006,0.135068,-9.630099,3955
135217375,-0.00051443675,0.00017981623,0.0006153503,4904,0,-0.17373563,0.12516846,-9.610014,4904
135221271,-0.00042908904,-2.1291631e-05,7.57474e-05,3896,0,-0.17082651,0.12850134,-9.6266775,3896
135225271,0.0007053883,-0.0009310056,0.00081637484,4000,0,-0.17305386,0.13212761,-9.636321,4000
135229278,-0.000352687,-0.00010119871,-0.00026790609,4007,0,-0.1669203,0.13322656,-9.621067,4007
135233271,-0.001205992,-0.001910646,5.9075093e-05,3993,0,-0.17272595,0.12559521,-9.613952,3993
135237335,0.0013478011,-0.0011803076,5.100102e-05,4064,0,-0.16638903,0.12076417,-9.625597,4064
135241271,0.00059577404,-0.0017043991,-0.00035772703,3936,0,-0.16015048,0.12650757,-9.632468,3936
135245277,0.00059907336,-0.001294448,-0.0012149438,4006,0,-0.16359468,0.11994784,-9.609693,4006
135249278,-0.00087982847,-0.0007485516,-0.0010232757,4001,0,-0.16562146,0.12526445,-9.588698,4001
135253271,-0.0007896347,0.0009781686,0.002279509,3993,0,-0.16649719,0.13376454,-9.610653,3993
135257296,-0.0003450137,-0.0020082083,-0.001102917,4025,0,-0.16878895,0.14174554,-9.633879,4025
135261271,-0.0016399553,-0.0006174279,0.0014416159,3975,0,-0.1553668,0.13702418,-9.619519,3975
135265271,-0.00046693807,0.0013886833,0.0010009744,4000,0,-0.16500838,0.12181747,-9.615276,4000
135269278,-0.0016278545,0.00032036466,-0.0011285505,4007,0,-0.16501266,0.121272534,-9.619078,4007
135273277,-0.0017331043,0.00095983676,-0.0014512542,3999,0,-0.16929384,0.12885599,-9.629596,3999
135277315,0.00082042627,0.00064058916,-0.0013237266,4038,0,-0.17683858,0.14358982,-9.653441,4038
135281271,0.00050247554,0.0006382138,-0.0006992544,3956,0,-0.18028772,0.15232226,-9.633494,3956
135285271,0.00094457285,-0.00020488554,-0.0015508966,4000,0,-0.1746492,0.14708447,-9.616983,4000
135289319,-0.0018440897,-0.0010695984,-0.0009058503,4048,0,-0.17569795,0.14568356,-9.614144,4048
135293277,-0.0007801052,-0.0013664988,0.0013432734,3958,0,-0.18312858,0.14372222,-9.628316,3958
135297316,-0.000679909,-0.001151561,0.001535063,4039,0,-0.1799118,0.13178207,-9.613982,4039
135301284,-0.00024585842,-0.00019574455,0.000917653,3968,0,-0.1929601,0.12371577,-9.605517,3968
135305271,0.00093073834,0.00032657056,-5.253306e-05,3987,0,-0.1890497,0.13559934,-9.610234,3987
135309278,-0.00076718134,-0.0019244375,-0.002707848,4007,0,-0.19002722,0.13616712,-9.606023,4007
135313277,-0.0018460412,-0.0013645855,0.0009088874,3999,0,-0.1881497,0.117986076,-9.601176,3999
135317297,-0.00056476437,0.0012775973,-0.0008176559,4020,0,-0.17945467,0.12089049,-9.60824,4020
135321275,-0.0024769383,0.001388939,-7.270651e-05,3978,0,-0.17705654,0.13085335,-9.614009,3978
135325270,-0.0017536068,-0.00084886403,-0.0012283685,3995,0,-0.17853656,0.121323235,-9.616803,3995
135329280,0.0023118334,-0.0007412557,-0.0012097382,4010,0,-0.17172998,0.118408,-9.621021,4010
135333277,0.00050024834,0.0019283346,0.00024423472,3997,0,-0.17657053,0.12418896,-9.612521,3997
135337338,-0.0012030283,0.0013816922,-9.359624e-05,4061,0,-0.17890865,0.13569903,-9.624909,4061
135341271,-0.0012037394,0.0011828511,0.0002672069,3933,0,-0.16923116,0.1441708,-9.6297,3933
135344510,-0.00040614017,2.4495854e-05,-0.0005684236,3239,0,-0.15717304,0.13149881,-9.624106,3239
135348471,-0.00088015,-0.0023379081,-0.00046942904,3961,0,-0.17333835,0.12948734,-9.610961,3961
135351684,-9.128601e-06,-0.0035642078,-0.00054503075,3213,0,-0.17177232,0.114847004,-9.606171,3213
135359702,-0.00029059802,0.0014901473,0.00020888397,3227,0,-0.16019005,0.13213718,-9.623615,3227
135364471,-0.0013857314,-0.00062573544,1.7880384e-05,4769,0,-0.1617743,0.121506736,-9.624048,4769
135368488,-0.0008902577,-0.00094741315,0.0001583857,4017,0,-0.17018825,0.1312248,-9.638634,4017
135373277,-0.002091472,-0.0006301097,0.0005453813,4789,0,-0.17697124,0.13511018,-9.6281595,4789
135377326,-0.0018316781,0.00096369686,0.000785972,4049,0,-0.1711035,0.12633245,-9.643463,4049
135381271,0.001885815,0.00064999354,0.00036995983,3945,0,-0.16878372,0.109259464,-9.631149,3945
135385284,-0.00055934675,0.0015983507,-0.0015613976,4013,0,-0.17994688,0.11514935,-9.603914,4013
135389270,0.00050853955,0.0026697572,-0.0009106687,3986,0,-0.16457488,0.13191941,-9.601107,3986
135393271,0.0012357326,-0.00093251234,-0.00014957789,4001,0,-0.16445668,0.1359995,-9.63609,4001
135396490,0.003189473,-0.00010208791,-0.0010766754,3219,0,-0.1558388,0.11401589,-9.65246,3219
135400471,0.0005082417,0.00094982504,-0.0014409171,3981,0,-0.15574877,0.11114001,-9.635156,3981
135404475,8.286085e-05,-0.0010662896,-0.0022828148,4004,0,-0.1602601,0.108447164,-9.602899,4004
135408474,-0.0014152162,-0.00042357447,-0.0008034483,3999,0,-0.18043384,0.11654306,-9.608266,3999
135415704,0.00079160795,-8.603074e-05,0.0003831348,3227,0,-0.18183869,0.11917235,-9.602314,3227
135420471,-0.00031206102,-2.4431722e-06,-0.0001533517,4767,0,-0.17858279,0.13907515,-9.617895,4767
135424471,-0.00054103317,-0.0013860702,-0.0029163917,4000,0,-0.17506982,0.1383838,-9.624344,4000
135428471,-0.0008716797,-0.0011813991,-0.0029293934,4000,0,-0.1759887,0.13653447,-9.6302395,4000
135432477,-0.0007789453,-0.0011607695,-0.00016520504,4006,0,-0.17505702,0.122719765,-9.621058,4006
135436471,0.0003873425,-0.0015896299,0.00027417738,3994,0,-0.17023803,0.12837368,-9.63196,3994
135440471,0.00029964026,-0.0012654072,-0.0002525698,4000,0,-0.16785613,0.12464676,-9.625351,4000
135444478,0.000930663,-0.0007459123,-0.0015346841,4007,0,-0.18131395,0.12269701,-9.622499,4007
135448471,0.0016703091,0.00011211237,-0.00047092902,3993,0,-0.17033058,0.12610333,-9.612514,3993
135452520,0.00103068,0.0019185838,-6.024656e-05,4049,0,-0.160121,0.14266932,-9.63871,4049
135457321,-0.00095117505,-1.3195034e-05,0.00046641403,4801,0,-0.16946092,0.12978977,-9.629762,4801
135464516,-0.0010644827,0.00043665772,0.000780474,3219,0,-0.1494154,0.14168575,-9.620436,3219
135471704,0.00038974045,-0.0014174606,0.0015734534,3231,0,-0.18071948,0.12215246,-9.592714,3231
135476470,0.0012715227,0.0004385119,0.0004613275,4766,0,-0.18717901,0.12851672,-9.60097,4766
135480478,-0.00075458706,1.6883887e-05,-0.0014326175,4008,0,-0.21389604,0.14033495,-9.61742,4008
135484474,-0.00035060587,-0.00031793243,-0.0006922535,3996,0,-0.19191156,0.13326122,-9.615011,3996
135488470,-0.00068238395,-0.00020474658,0.0007897021,3996,0,-0.18722199,0.12859227,-9.594128,3996
135492508,-0.00089140615,0.0004411559,0.0016455867,4038,0,-0.19105792,0.13764542,-9.586175,4038
135499702,-0.002275404,-0.00062187365,9.8375e-05,3231,0,-0.18233427,0.13264374,-9.636598,3231
135504516,0.00040928897,-0.00027343753,0.0007417539,4814,0,-0.17379838,0.1202667,-9.625288,4814
135508471,0.0017708481,-0.00074563816,-4.6443183e-05,3955,0,-0.16936986,0.11609226,-9.604285,3955
135511697,-0.00014534753,-0.0010312572,0.000108333756,3226,0,-0.16449516,0.1196776,-9.602762,3226
135516471,-0.00093806576,-0.0013498681,-0.0004223891,4774,0,-0.17734322,0.120759614,-9.63018,4774
135520471,7.0955386e-05,-0.0005285559,0.0011016916,4000,0,-0.1774332,0.12025991,-9.631672,4000
135527702,0.00024394537,-9.595135e-05,0.00091438333,3223,0,-0.16553365,0.12483708,-9.643533,3223
135531723,-0.001315891,0.001388847,-0.00017859956,4021,0,-0.18290067,0.11698723,-9.621513,4021
135536484,-0.000202495,0.0015022531,-0.0015090147,4761,0,-0.19102176,0.12967138,-9.609115,4761
135539703,-0.0005430564,0.00031206172,0.0010138566,3219,0,-0.18355107,0.12908253,-9.621256,3219
135543671,0.00017858135,-0.00020474115,0.0003763158,3968,0,-0.17213793,0.12072865,-9.632446,3968
135548471,-0.0010236602,0.0008745369,0.000544839,4800,0,-0.1709762,0.11718199,-9.628493,4800
135555702,-0.0014607488,-0.0007712148,-0.0009668542,3227,0,-0.19317776,0.12858403,-9.617164,3227
135560477,-0.0004967462,-0.0006287792,0.00055198127,4775,0,-0.18145916,0.122803554,-9.611131,4775
135564471,0.00028792577,-0.0013818772,-0.0007922862,3994,0,-0.19826604,0.11950073,-9.594583,3994
135568470,0.0011364248,0.00020299983,-0.0008965893,3999,0,-0.19211687,0.10755449,-9.598766,3999
135571717,-0.0012120085,0.0012267646,-3.0611525e-05,3247,0,-0.1951726,0.11502971,-9.617672,3247
135576471,-0.0012962867,0.0010541235,-0.00017701786,4754,0,-0.19969267,0.13591787,-9.62745,4754
135583702,-0.0003926376,0.0012335175,-0.0012286577,3225,0,-0.16442221,0.1321912,-9.624005,3225
135587679,0.0012372476,0.0005462607,0.00069289905,3977,0,-0.17991668,0.13756675,-9.61261,3977
135591696,-0.00057614304,0.001922573,-7.456232e-05,4017,0,-0.18562569,0.1374906,-9.627386,4017
135596471,-0.00065735605,-0.0007325608,-0.0021097418,4775,0,-0.18382137,0.13636087,-9.617493,4775
135599698,0.0018565612,0.0024240164,-0.000433557,3227,0,-0.18899868,0.12855369,-9.618845,3227
135604470,0.0025221505,0.00016494321,0.00011784692,4772,0,-0.19214775,0.13786504,-9.630626,4772
135611702,-0.0010786267,-9.888782e-05,0.00062815595,3231,0,-0.16921332,0.11836214,-9.625227,3231
135616471,-0.00022761196,-0.0008049802,0.0009998203,4769,0,-0.16488063,0.12834112,-9.637252,4769
135620516,-0.0010821245,-0.0009583974,-0.0026019677,4045,0,-0.15536717,0.14456828,-9.645247,4045
135624470,-0.0006714149,0.0010682879,-0.0011196536,3954,0,-0.1602325,0.13224533,-9.615223,3954
135628471,-0.0002650773,0.0002318712,0.00015062044,4001,0,-0.16881326,0.120414354,-9.611512,4001
135632474,0.00059784495,-0.002007385,0.0015547882,4003,0,-0.18224382,0.11645955,-9.627216,4003
135636471,-0.0011002225,0.0008609152,0.00046868934,3997,0,-0.16977224,0.12361937,-9.627666,3997
135640521,0.0013620534,0.0014914841,-0.0010156214,4050,0,-0.17508654,0.11931675,-9.630208,4050
135644471,0.0008203193,0.00031771723,-0.00047677985,3950,0,-0.18027101,0.12358102,-9.640937,3950
135648471,-0.0010890849,-0.0008731684,-0.0008084558,4000,0,-0.18144281,0.1413662,-9.6093855,4000
135652490,-0.00077418477,0.0010640904,-0.0011284419,4019,0,-0.17329691,0.13621968,-9.591754,4019
135656471,0.0010327979,0.0008604977,-0.00026426002,3981,0,-0.17562382,0.12035018,-9.610653,3981
135660486,0.0018805302,0.00043007793,-0.00047011516,4015,0,-0.17837453,0.1189323,-9.617245,4015
135664470,0.00028152624,-0.0018051747,0.00027960326,3984,0,-0.2044111,0.118416555,-9.616432,3984
135668471,-0.0008960985,-0.001794339,0.0015501386,4001,0,-0.2053214,0.14035258,-9.627911,4001
135672495,0.0009198501,0.00075825496,0.0011203219,4024,0,-0.18851857,0.13894847,-9.621679,4024
135676471,0.0019851427,-0.00031227575,0.0005873525,3976,0,-0.18466893,0.12504347,-9.624441,3976
135680477,-0.00097219466,-0.0006335439,-0.00036571777,4006,0,-0.1829148,0.1208253,-9.61393,4006
135684471,-0.00045322854,-0.0011714807,-0.0013279361,3994,0,-0.19181266,0.11977662,-9.633467,3994
135687708,0.00065539445,0.0012072594,-0.0021561605,3237,0,-0.18167387,0.12660606,-9.64732,3237
135695702,0.00026430312,-0.00077620154,-0.0014741669,3231,0,-0.1713812,0.1343838,-9.65846,3231
135699722,-0.00047256323,-0.001157999,0.0009056588,4020,0,-0.1646246,0.14172423,-9.638177,4020
135704484,-0.0002133557,0.0002553672,-0.00079126935,4762,0,-0.18206389,0.1398222,-9.639303,4762
135708471,0.00039985054,0.00042556287,-0.0017548244,3987,0,-0.17606828,0.13513632,-9.621123,3987
135712471,0.00072357105,-0.0024537214,-0.0026974694,4000,0,-0.16445574,0.14698833,-9.638171,4000
135716471,0.0003954461,-0.0004199345,-0.00059614424,4000,0,-0.16205376,0.13326764,-9.634445,4000
135723702,0.002513331,0.0014645774,-0.0006738172,3231,0,-0.16200888,0.12736855,-9.6215925,3231
135727711,0.00036546803,8.186765e-05,-0.000488273,4009,0,-0.16742894,0.12740035,-9.621026,4009
135732471,-0.00039625043,-0.00018659861,-0.00096203055,4760,0,-0.18142262,0.12159616,-9.623733,4760
135736472,-0.00033180724,0.00041680108,-0.0037726194,4001,0,-0.17176665,0.12126098,-9.626632,4001
135740505,-0.00045324134,-8.205705e-06,-0.0029361811,4033,0,-0.16307178,0.1370066,-9.629133,4033
135744470,0.0010586248,-0.0004389186,-0.0033406192,3965,0,-0.17804551,0.13513763,-9.609401,3965
135751702,0.001333153,-0.00025453453,-0.0025405174,3225,0,-0.17098203,0.13926503,-9.6259575,3225
135756471,-0.00093126623,-0.0025976822,-0.0025359315,4769,0,-0.18419905,0.14267127,-9.619883,4769
135760473,0.00040218994,-0.00056320877,-0.0033481705,4002,0,-0.19332504,0.13996778,-9.622195,4002
135764471,0.00031346874,-0.0016084226,-0.0048271865,3998,0,-0.20192514,0.11504113,-9.622516,3998
135767706,-0.0018417411,1.1648248e-05,-0.006013324,3235,0,-0.18965396,0.12381774,-9.615807,3235
135772471,0.00024234461,-0.0017322598,-0.006170073,4765,0,-0.17303166,0.1379152,-9.630555,4765
135779702,-0.0014158278,-0.0011714732,-0.0045545273,3231,0,-0.15791234,0.11955346,-9.626233,3231
135784471,-0.0017948955,0.00074774335,-0.0056758444,4769,0,-0.1561951,0.14817987,-9.6388035,4769
135788490,0.000517718,-0.00023151624,-0.0040876237,4019,0,-0.1591674,0.1466015,-9.630622,4019
135792471,0.0025264889,0.001172062,7.666996e-05,3981,0,-0.21948156,0.09587702,-9.617817,3981
135796471,-0.00238946,0.0034079738,0.001280711,4000,0,-0.21409419,0.08665147,-9.667195,4000
135800517,-6.8030226e-05,0.0018267635,0.0060107396,4046,0,-0.13570523,0.105619065,-9.590196,4046
135804471,0.0006830343,-0.00420151,0.0071021863,3954,0,-0.20456286,0.10461629,-9.680507,3954
135808523,0.0013100891,0.00224193,0.011008963,4052,0,-0.17939995,0.10665014,-9.542932,4052
135812471,0.002685116,-0.0015921318,0.010705069,3948,0,-0.1780908,0.09568553,-9.6666355,3948
135816482,-0.00036653035,0.0011011006,0.015589406,4011,0,-0.1773293,0.055505436,-9.561641,4011
135820485,-0.0009784291,-0.0007620256,0.01728628,4003,0,-0.15138437,0.14430177,-9.66784,4003
135824470,0.0005220794,-0.00042893752,0.017825643,3985,0,-0.1499819,0.10110719,-9.54695,3985
135827723,-0.00020245826,-0.0029851887,0.019548265,3253,0,-0.250767,0.09860601,-9.756111,3253
135832474,0.0014556457,0.006384317,0.016910655,4751,0,-0.15203968,0.10615464,-9.52478,4751
135836471,-0.0049252734,-0.0024410354,0.021330038,3997,0,-0.16974817,0.15325674,-9.721666,3997
135840471,0.008528598,0.0027752786,0.02132952,4000,0,-0.20261016,0.1168121,-9.607198,4000
135844471,-0.0048986347,-0.001496464,0.016750835,4000,0,-0.16524112,0.10614078,-9.512848,4000
135848477,-0.004255606,0.0039872057,0.017282419,4006,0,-0.24455194,0.14483058,-9.720858,4006
135852471,0.0043652174,0.0029490006,0.014533632,3994,0,-0.06466368,0.16518493,-9.541087,3994
135856471,0.0051096096,-0.008764104,0.012729131,4000,0,-0.26352108,0.13718832,-9.667456,4000
135860471,0.0039085457,0.010121547,0.012793883,4000,0,-0.19466834,0.09723437,-9.552757,4000
135864471,-0.00957962,-0.002707185,0.009905418,4000,0,-0.11031258,0.13707161,-9.573126,4000
135868482,0.0038807793,-0.0010123902,0.0070978967,4011,0,-0.1842949,0.21221769,-9.6978445,4011
135872487,0.008436828,0.000984772,0.0062491256,4005,0,-0.19741145,0.18117218,-9.580662,4005
135876470,0.0022959406,0.0019507689,0.0033495245,3983,0,-0.18499951,0.06397735,-9.645877,3983
135880470,-0.010616925,4.4679723e-06,-0.0007149903,4000,0,-0.16581617,0.16803908,-9.673302,4000
135884470,-0.000611731,9.9818164e-05,-0.0017480672,4000,0,-0.17150612,0.21204525,-9.661336,4000
135887713,0.009620913,-0.004009845,-0.00753173,3243,0,-0.24332681,0.15796779,-9.569495,3243
135892484,-0.003956232,0.0065356945,-0.008509966,4771,0,-0.15947069,0.12494206,-9.578075,4771
135896470,-0.00072421005,-0.0036794974,-0.009589909,3986,0,-0.13787761,0.13777465,-9.720601,3986
135900470,0.0013033698,-0.004004166,-0.01383583,4000,0,-0.23464976,0.1479121,-9.569898,4000
135904471,-0.0056687263,0.0030028261,-0.015928274,4001,0,-0.17979711,0.14941369,-9.599216,4001
135908481,0.0053728335,-0.004751825,-0.017777212,4010,0,-0.14442296,0.12709773,-9.700873,4010
135912496,-0.0021988477,0.0011492502,-0.021123467,4015,0,-0.21254855,0.114247836,-9.679189,4015
135916477,-0.004363158,0.00050613645,-0.020419922,3981,0,-0.14569221,0.15960199,-9.47105,3981
135920470,0.0033213657,-0.008692725,-0.02225018,3993,0,-0.20747681,0.092249446,-9.723413,3993
135924470,-0.0038585996,0.0082853725,-0.027046314,4000,0,-0.17969002,0.1632239,-9.62891,4000
135928470,0.001654992,-0.006141531,-0.021621842,4000,0,-0.08442518,0.105945155,-9.580845,4000
135932481,-0.0006757893,-0.0012030987,-0.021341953,4011,0,-0.2715917,0.12644644,-9.588001,4011
135936477,-0.00035292344,0.009052718,-0.020961346,3996,0,-0.10225229,0.06876645,-9.683057,3996
135940470,-0.007683014,-0.004163633,-0.019298896,3993,0,-0.14679141,0.1646193,-9.45261,3993
135944470,0.004493971,-0.0034487224,-0.017165495,4000,0,-0.19403665,0.12945847,-9.716436,4000
135948470,0.0043319417,0.0021601333,-0.016330767,4000,0,-0.20259453,0.05687491,-9.55839,4000
135952494,-0.007609474,0.0053581377,-0.013944774,4024,0,-0.10316688,0.09132769,-9.664004,4024
135956520,0.004301848,-0.004628654,-0.008921948,4026,0,-0.15008064,0.14656024,-9.587865,4026
135960472,0.0030689836,0.00541723,-0.007288926,3952,0,-0.22066389,0.048751295,-9.698985,3952
135964470,-0.0045941225,0.003714715,-0.0030922354,3998,0,-0.0916903,0.10955375,-9.422672,3998
135968501,0.007004101,-0.0013126207,-0.00096883066,4031,0,-0.26290095,0.15696889,-9.838357,4031
135972482,0.0024102386,0.010444318,0.0031054418,3981,0,-0.09591944,0.0005557165,-9.367157,3981
135976513,-0.0061739264,-0.009778273,0.006884568,4031,0,-0.23481789,0.1833417,-9.738016,4031
135980470,0.015035675,0.014850952,0.00846372,3957,0,-0.19774571,0.013170639,-9.635295,3957
135984470,-0.0073793745,0.0006232849,0.014781395,4000,0,-0.07351774,0.19441442,-9.482578,4000
135988470,0.011766026,-0.0028882206,0.020124713,4000,0,-0.31007016,0.11147584,-9.773554,4000
135992470,0.0067600436,0.016203236,0.016190542,4000,0,-0.17951314,0.1051089,-9.568396,4000
135995712,-0.0020426149,0.002241091,0.029081935,3242,0,-0.07766376,0.016060663,-9.559775,3242
136000470,0.0012727227,0.00038704276,0.029727625,4758,0,-0.20584515,0.12063868,-9.786941,4758
136004471,0.0022273678,0.010351347,0.030035196,4001,0,-0.2300205,0.16455546,-9.517451,4001
136008471,0.012478767,0.008719528,0.03360418,4000,0,-0.118130736,0.08116031,-9.586408,4000
136012470,0.008568416,0.008750753,0.03232332,3999,0,-0.08805312,-0.009327363,-9.598731,3999
136016507,-0.022019772,0.0010876084,0.027269308,4037,0,-0.14589056,0.050415248,-9.773205,4037
136020471,0.008178934,0.011983926,0.028431691,3964,0,-0.17651163,0.30524942,-9.256357,3964
136024470,0.0027621668,0.0033133158,0.012379212,3999,0,-0.27466476,0.16470231,-9.90762,3999
136028478,0.0074798223,0.021795074,0.02155185,4008,0,0.027857197,-0.077409185,-9.540975,4008
136032471,-0.04142536,-0.013533469,0.003963819,3993,0,-0.3395258,0.4363495,-9.659583,3993
136036506,0.013364409,0.025483465,0.0026321225,4035,0,-0.14354518,0.23979129,-9.657705,4035
136040484,0.030305784,-0.0011259398,0.0041321293,3978,0,-0.09761484,0.19367965,-9.606868,3978
136044471,-0.039293222,0.007942489,-0.005935063,3987,0,-0.35366905,-0.32323498,-9.303591,3987
136048478,-0.0577515,0.009593218,-0.017934402,4007,0,-0.145173,0.8009925,-10.180104,4007
136052471,0.053989556,0.0048209997,-0.015926665,3993,0,-0.24627589,0.26639766,-8.891906,3993
136056476,0.011628677,0.001260388,-0.025440164,4005,0,-0.12164871,-0.24058639,-10.2904825,4005
136060484,-0.05798035,-0.017324584,-0.02624542,4008,0,-0.16664033,0.0600758,-9.135637,4008
136064479,-0.015993474,-0.013358981,-0.023951164,3995,0,-0.6723334,0.2993621,-10.017121,3995
136068471,0.0037786239,0.028558936,-0.035428204,3992,0,-0.09166136,0.38445368,-9.1382475,3992
136072471,-0.008458178,-0.018813983,-0.016330432,4000,0,0.040171474,0.04255803,-10.500079,4000
136076487,0.014666045,-0.02373378,-0.022611713,4016,0,-0.109242685,0.058324404,-9.448514,4016
136080481,-0.031448014,-0.016587565,-0.019724024,3994,0,-0.49071214,0.19053644,-9.13543,3994
136084471,0.001936096,0.034222748,-0.015393545,3990,0,-0.1720432,-0.012789133,-9.775994,3990
