timestamp,error_count,device_id,pressure,temperature
133186785,0,3998498,1002.27997,39.14
133273046,0,3998498,1002.33997,39.14
133392509,0,3998498,1002.27997,39.14
133888383,0,3998498,1002.3,39.14
133996099,0,3998498,1002.3,39.14
134106535,0,3998498,1002.31,39.14
134195042,0,3998498,1002.32996,39.14
134305048,0,3998498,1002.3,39.14
134404080,0,3998498,1002.32,39.14
134503042,0,3998498,1002.23,39.14
134612048,0,3998498,1002.25,39.149998
134711048,0,3998498,1002.29,39.149998
134811295,0,3998498,1002.29,39.149998
134899046,0,3998498,1002.26996,39.149998
135019055,0,3998498,1002.27997,39.149998
135118127,0,3998498,1002.32,39.149998
135207037,0,3998498,1002.32,39.149998
135317018,0,3998498,1002.31,39.16
135426018,0,3998498,1002.31,39.149998
135513412,0,3998498,1002.25995,39.149998
135620023,0,3998498,1002.26996,39.16
135729170,0,3998498,1002.31,39.16
135816359,0,3998498,1002.27997,39.16
135923018,0,3998498,1002.31,39.16
136034018,0,3998498,1002.31,39.16
136122014,0,3998498,1002.24,39.16
136231018,0,3998498,1002.29,39.16
136339018,0,3998498,1002.25,39.16
136445215,0,3998498,1002.3,39.17
136544057,0,3998498,1002.33997,39.17
136640075,0,3998498,1002.25995,39.17
136746770,0,3998498,1002.19995,39.17
136842324,0,3998498,1002.20996,39.17
136939149,0,3998498,1002.23,39.17
137048021,0,3998498,1002.18,39.18
137155074,0,3998498,1002.25995,39.17
137242018,0,3998498,1002.19,39.17
137359019,0,3998498,1002.19,39.17
137456021,0,3998498,1002.19995,39.18
137563019,0,3998498,1002.25995,39.18
137661167,0,3998498,1002.19,39.18
137758141,0,3998498,1002.13995,39.18
137849687,0,3998498,1002.20996,39.18
137968425,0,3998498,1002.11,39.18
138065982,0,3998498,1002.12,39.18
138152375,0,3998498,1002.12,39.18
138269212,0,3998498,1002.12,39.18
139290643,0,3998498,1002.04,39.19
139389305,0,3998498,1002.04,39.19
139483332,0,3998498,1001.95996,39.19
139589377,0,3998498,1002.05,39.19
139698219,0,3998498,1002.0,39.19
139786238,0,3998498,1002.0,39.19
139894005,0,3998498,1001.92,39.19
140005053,0,3998498,1001.91,39.19
140094416,0,3998498,1001.91,39.18
140204248,0,3998498,1001.88,39.19
140306129,0,3998498,1001.88995,39.19
140403350,0,3998498,1001.81,39.19
140510232,0,3998498,1001.88,39.19
140608398,0,3998498,1001.81,39.19
140707046,0,3998498,1001.8,39.19
140813054,0,3998498,1001.77997,39.2
140920573,0,3998498,1001.75995,39.2
141008421,0,3998498,1001.77997,39.19
141125199,0,3998498,1001.70996,39.2
141222134,0,3998498,1001.73,39.2
141328504,0,3998498,1001.72,39.2
141424554,0,3998498,1001.64996,39.2
141521452,0,3998498,1001.68,39.2
141630134,0,3998498,1001.69,39.21
141726443,0,3998498,1001.67,39.2
141825176,0,3998498,1001.61,39.21
141941147,0,3998498,1001.68,39.21
142037047,0,3998498,1001.57,39.21
142144826,0,3998498,1001.66,39.21
142241211,0,3998498,1001.62,39.2
142338124,0,3998498,1001.64996,39.21
142448716,0,3998498,1001.63,39.21
142544736,0,3998498,1001.63995,39.21
142641042,0,3998498,1001.67,39.21
142747023,0,3998498,1001.69,39.219997
142854373,0,3998498,1001.68,39.219997
142941421,0,3998498,1001.68,39.219997
143059047,0,3998498,1001.66,39.219997
143155348,0,3998498,1001.68,39.219997
143261047,0,3998498,1001.67,39.219997
143358394,0,3998498,1001.66,39.219997
143454532,0,3998498,1001.67,39.219997
143562125,0,3998498,1001.75,39.219997
143670123,0,3998498,1001.66,39.219997
143758135,0,3998498,1001.70996,39.219997
143867098,0,3998498,1001.75,39.219997
143966211,0,3998498,1001.79,39.219997
144062119,0,3998498,1001.73,39.219997
144171104,0,3998498,1001.72,39.219997
144278118,0,3998498,1001.75995,39.219997
144366546,0,3998498,1001.69,39.23
144486529,0,3998498,1001.77997,39.23
144582238,0,3998498,1001.69995,39.23
144690129,0,3998498,1001.77997,39.23
144787052,0,3998498,1001.72,39.23
144885505,0,3998498,1001.76996,39.23
144992054,0,3998498,1001.77997,39.23
145097051,0,3998498,1001.76996,39.23
145186146,0,3998498,1001.70996,39.23
145292399,0,3998498,1001.76996,39.23
145399708,0,3998498,1001.83997,39.23
145506052,0,3998498,1001.85,39.239998
145605584,0,3998498,1001.82996,39.239998
145701633,0,3998498,1001.8,39.239998
145807742,0,3998498,1001.85,39.239998
145904018,0,3998498,1001.81,39.239998
145999555,0,3998498,1001.81,39.239998
146117715,0,3998498,1001.82996,39.239998
146215580,0,3998498,1001.92,39.239998
146319602,0,3998498,1001.82996,39.25
146418019,0,3998498,1001.89996,39.25
146516605,0,3998498,1001.91,39.239998
146626018,0,3998498,1001.87,39.239998
146724028,0,3998498,1001.88995,39.25
146821064,0,3998498,1001.88,39.239998
146927807,0,3998498,1001.83997,39.25
147034018,0,3998498,1001.93,39.25
147120053,0,3998498,1001.87,39.25
147236319,0,3998498,1001.93,39.26
147332774,0,3998498,1001.87,39.26
147439938,0,3998498,1001.87,39.26
147536018,0,3998498,1001.85,39.26
147631631,0,3998498,1001.85,39.26
147738158,0,3998498,1001.86,39.26
147844392,0,3998498,1001.76996,39.26
147930018,0,3998498,1001.82,39.27
148047761,0,3998498,1001.82996,39.26
148144018,0,3998498,1001.76996,39.26
148250108,0,3998498,1001.73,39.27
148349018,0,3998498,1001.66,39.26
148444095,0,3998498,1001.66,39.26
148551592,0,3998498,1001.66,39.26
148658018,0,3998498,1001.68,39.27
148743572,0,3998498,1001.58997,39.27
148860694,0,3998498,1001.6,39.27
148957023,0,3998498,1001.61,39.27
149045359,0,3998498,1001.51996,39.27
149163576,0,3998498,1001.52997,39.27
149261037,0,3998498,1001.5,39.28
149369023,0,3998498,1001.49,39.27
149467018,0,3998498,1001.49,39.27
149565151,0,3998498,1001.42,39.27
149654018,0,3998498,1001.42,39.27
149775287,0,3998498,1001.3,39.27
149874933,0,3998498,1001.25,39.26
149963325,0,3998498,1001.20996,39.27
150073340,0,3998498,1001.06,39.27
150174019,0,3998498,1001.1,39.27
150274372,0,3998498,1001.02997,39.27
150384018,0,3998498,1001.00995,39.27
150481018,0,3998498,1000.92,39.27
150580024,0,3998498,1000.92,39.27
150691120,0,3998498,1000.86,39.27
150789339,0,3998498,1000.77997,39.27
150885018,0,3998498,1000.73,39.28
150993018,0,3998498,1000.56,39.28
151092018,0,3998498,1000.57,39.27
151191436,0,3998498,1000.41,39.28
151301020,0,3998498,1000.44995,39.27
151399709,0,3998498,1000.35,39.28
151499021,0,3998498,1000.32,39.28
151588018,0,3998498,1000.27997,39.28
151707055,0,3998498,1000.12,39.28
151806019,0,3998498,1000.12,39.28
151894021,0,3998498,999.99,39.28
152012019,0,3998498,999.94,39.28
152109023,0,3998498,999.97,39.28
152196018,0,3998498,999.87,39.28
152307055,0,3998498,999.89996,39.28
152415578,0,3998498,999.85,39.28
152503317,0,3998498,999.75995,39.28
152612019,0,3998498,999.77997,39.28
152722323,0,3998498,999.79,39.28
152808020,0,3998498,999.76996,39.29
152918018,0,3998498,999.82996,39.29
153026019,0,3998498,999.81,39.28
153114371,0,3998498,999.73,39.29
153232025,0,3998498,999.8,39.29
153330018,0,3998498,999.77997,39.29
153418126,0,3998498,999.8,39.29
153538532,0,3998498,999.75995,39.29
153636018,0,3998498,999.76996,39.29
153722773,0,3998498,999.76996,39.29
153843029,0,3998498,999.76996,39.3
153942183,0,3998498,999.75995,39.29
154029053,0,3998498,999.79,39.29
154137074,0,3998498,999.83997,39.29
154246188,0,3998498,999.76996,39.29
154333019,0,3998498,999.74,39.3
154442978,0,3998498,999.83997,39.29
154551018,0,3998498,999.76996,39.3
154638119,0,3998498,999.77997,39.3
154758021,0,3998498,999.74,39.3
154856064,0,3998498,999.76996,39.3
154944023,0,3998498,999.75995,39.3
155064018,0,3998498,999.82,39.3
155163118,0,3998498,999.68,39.3
155249018,0,3998498,999.72,39.3
155370463,0,3998498,999.70996,39.3
155467019,0,3998498,999.73,39.309998
155555063,0,3998498,999.72,39.3
155676004,0,3998498,999.72,39.3
155771852,0,3998498,999.75995,39.3
155879068,0,3998498,999.74,39.3
155982164,0,3998498,999.77997,39.3
156079037,0,3998498,999.63,39.3
156166134,0,3998498,999.72,39.309998
156279018,0,3998498,999.72,39.309998
156380222,0,3998498,999.70996,39.309998
156478099,0,3998498,999.79,39.309998
156591137,0,3998498,999.72,39.309998
156696116,0,3998498,999.73,39.3
156795010,0,3998498,999.72,39.3
156881074,0,3998498,999.69995,39.309998
157002578,0,3998498,999.74,39.309998
157105019,0,3998498,999.82,39.309998
157196018,0,3998498,999.63995,39.3
157308627,0,3998498,999.75995,39.3
157411021,0,3998498,999.72,39.309998
157507018,0,3998498,999.73,39.309998
157620585,0,3998498,999.73,39.309998
157719018,0,3998498,999.8,39.309998
157818550,0,3998498,999.76996,39.309998
157906835,0,3998498,999.75995,39.309998
158017031,0,3998498,999.70996,39.309998
158127033,0,3998498,999.63995,39.309998
158214018,0,3998498,999.67,39.32
158331699,0,3998498,999.69995,39.32
158427582,0,3998498,999.61,39.309998
158523936,0,3998498,999.69,39.309998
158632401,0,3998498,999.75,39.32
158728024,0,3998498,999.68,39.32
158827142,0,3998498,999.68,39.309998
158934018,0,3998498,999.75,39.32
159034007,0,3998498,999.82996,39.32
159134021,0,3998498,999.79,39.32
159250157,0,3998498,999.75995,39.32
159347124,0,3998498,999.89996,39.32
159438099,0,3998498,999.87,39.32
159546206,0,3998498,999.94995,39.32
159654018,0,3998498,999.87,39.32
159742144,0,3998498,999.89996,39.32
159856365,0,3998498,999.89996,39.32
159963707,0,3998498,999.89996,39.32
160048018,0,3998498,999.88,39.329998
160771553,0,3998498,999.94995,39.329998
160860021,0,3998498,999.95996,39.32
160979019,0,3998498,999.95996,39.32
161078107,0,3998498,999.99,39.329998
161163343,0,3998498,1000.00995,39.329998
161278025,0,3998498,1000.00995,39.329998
161376018,0,3998498,1000.01996,39.329998
161478111,0,3998498,1000.00995,39.329998
161589093,0,3998498,1000.11,39.329998
161686018,0,3998498,1000.02997,39.329998
161785759,0,3998498,1000.04,39.329998
161893018,0,3998498,1000.08997,39.34
161994018,0,3998498,1000.07996,39.329998
162094146,0,3998498,1000.1,39.329998
162179678,0,3998498,1000.1,39.329998
162293031,0,3998498,1000.06,39.329998
162398100,0,3998498,1000.07996,39.34
162484638,0,3998498,1000.08997,39.34
162602018,0,3998498,1000.14996,39.34
162700366,0,3998498,1000.12,39.34
162810019,0,3998498,1000.08997,39.35
162909019,0,3998498,1000.14996,39.34
163004530,0,3998498,1000.12,39.34
163111023,0,3998498,1000.19995,39.35
163207025,0,3998498,1000.23,39.34
163305087,0,3998498,1000.17,39.34
163413034,0,3998498,1000.19,39.34
163509018,0,3998498,1000.20996,39.35
163607021,0,3998498,1000.17,39.34
163724878,0,3998498,1000.20996,39.35
163822131,0,3998498,1000.20996,39.35
163909018,0,3998498,1000.24,39.35
164026779,0,3998498,1000.24,39.36
164124398,0,3998498,1000.25,39.35
164231018,0,3998498,1000.3,39.35
164329071,0,3998498,1000.3,39.36
164426019,0,3998498,1000.29,39.35
164535023,0,3998498,1000.3,39.35
164641022,0,3998498,1000.32,39.36
164729154,0,3998498,1000.31,39.36
164837022,0,3998498,1000.3,39.36
164945175,0,3998498,1000.33997,39.35
165033063,0,3998498,1000.29,39.35
165140347,0,3998498,1000.32996,39.36
165239018,0,3998498,1000.39996,39.36
165335030,0,3998498,1000.33997,39.36
165444679,0,3998498,1000.38,39.35
165554105,0,3998498,1000.44,39.36
165644640,0,3998498,1000.36,39.36
165754018,0,3998498,1000.44,39.35
165849651,0,3998498,1000.44,39.35
165947022,0,3998498,1000.41,39.36
166055022,0,3998498,1000.49,39.36
166155041,0,3998498,1000.52997,39.36
166250115,0,3998498,1000.49,39.36
166358368,0,3998498,1000.50995,39.36
166464094,0,3998498,1000.5,39.37
166550019,0,3998498,1000.44,39.37
166668018,0,3998498,1000.57,39.37
166764018,0,3998498,1000.55,39.37
166869024,0,3998498,1000.57996,39.37
166966019,0,3998498,1000.54,39.37
167062081,0,3998498,1000.62,39.37
167169315,0,3998498,1000.63995,39.37
167278019,0,3998498,1000.63,39.37
167363571,0,3998498,1000.6,39.379997
167480089,0,3998498,1000.72,39.379997
167577074,0,3998498,1000.67,39.37
167682140,0,3998498,1000.64996,39.37
167779626,0,3998498,1000.69995,39.379997
167875721,0,3998498,1000.68,39.379997
167981030,0,3998498,1000.77997,39.379997
168089018,0,3998498,1000.75,39.37
168174073,0,3998498,1000.76996,39.379997
168291598,0,3998498,1000.75,39.379997
168390468,0,3998498,1000.82,39.379997
168497410,0,3998498,1000.79,39.379997
168593018,0,3998498,1000.8,39.379997
168689207,0,3998498,1000.86,39.379997
168794018,0,3998498,1000.81,39.379997
168902420,0,3998498,1000.81,39.39
168987762,0,3998498,1000.81,39.379997
169097473,0,3998498,1000.93,39.39
169203749,0,3998498,1000.87,39.379997
169288064,0,3998498,1000.88995,39.39
169406079,0,3998498,1000.88995,39.379997
169504222,0,3998498,1000.88995,39.379997
169611869,0,3998498,1000.88995,39.39
169706116,0,3998498,1000.88995,39.39
169803608,0,3998498,1000.95996,39.39
169920188,0,3998498,1000.86,39.39
170018081,0,3998498,1000.92,39.39
170124618,0,3998498,1000.93,39.379997
170221018,0,3998498,1000.95996,39.39
170320018,0,3998498,1000.98,39.379997
170408019,0,3998498,1000.94995,39.39
170529019,0,3998498,1000.95996,39.39
170626018,0,3998498,1001.00995,39.39
170714029,0,3998498,1001.00995,39.39
170826339,0,3998498,1001.07996,39.39
170938129,0,3998498,1001.02997,39.379997
171023346,0,3998498,1001.05,39.379997
171131018,0,3998498,1001.1,39.39
171241018,0,3998498,1001.12,39.399998
171329019,0,3998498,1001.12,39.39
171440021,0,3998498,1001.16,39.39
171537325,0,3998498,1001.1,39.39
171635023,0,3998498,1001.12,39.39
171743577,0,3998498,1001.18,39.399998
171842019,0,3998498,1001.19,39.399998
171936018,0,3998498,1001.18,39.399998
172044023,0,3998498,1001.18,39.399998
172145018,0,3998498,1001.18,39.399998
172243025,0,3998498,1001.23,39.399998
172351356,0,3998498,1001.29,39.399998
172665395,0,3998498,1001.35,39.399998
172765019,0,3998498,1001.26996,39.399998
172852063,0,3998498,1001.25,39.399998
172962018,0,3998498,1001.3,39.399998
173072019,0,3998498,1001.32996,39.399998
173158306,0,3998498,1001.35,39.399998
173267025,0,3998498,1001.38,39.399998
173367746,0,3998498,1001.43,39.399998
173466291,0,3998498,1001.39996,39.399998
173573023,0,3998498,1001.41,39.399998
173681367,0,3998498,1001.44995,39.399998
173769471,0,3998498,1001.43,39.41
173879750,0,3998498,1001.38995,39.41
173978035,0,3998498,1001.44995,39.399998
174076097,0,3998498,1001.45996,39.41
174185019,0,3998498,1001.47,39.41
174283345,0,3998498,1001.47,39.399998
174384018,0,3998498,1001.51996,39.41
174493019,0,3998498,1001.51996,39.399998
174590472,0,3998498,1001.55,39.41
174688018,0,3998498,1001.52997,39.41
174799031,0,3998498,1001.56,39.41
174895570,0,3998498,1001.55,39.41
174996340,0,3998498,1001.58997,39.41
175106021,0,3998498,1001.55,39.41
175205026,0,3998498,1001.57,39.41
175301064,0,3998498,1001.56,39.41
175410129,0,3998498,1001.61,39.41
175507064,0,3998498,1001.58997,39.42
175606394,0,3998498,1001.62,39.42
175696092,0,3998498,1001.63,39.41
175816202,0,3998498,1001.6,39.41
175916018,0,3998498,1001.58997,39.41
176002171,0,3998498,1001.63995,39.42
176122019,0,3998498,1001.6,39.42
176220019,0,3998498,1001.66,39.42
176308369,0,3998498,1001.69,39.42
176426208,0,3998498,1001.64996,39.42
176525018,0,3998498,1001.69995,39.42
176613031,0,3998498,1001.68,39.42
176734472,0,3998498,1001.69995,39.42
176832018,0,3998498,1001.72,39.42
176920022,0,3998498,1001.75995,39.42
177040022,0,3998498,1001.74,39.42
177142642,0,3998498,1001.67,39.41
177230952,0,3998498,1001.75,39.42
177338172,0,3998498,1001.74,39.42
177445018,0,3998498,1001.72,39.42
177532023,0,3998498,1001.72,39.42
177640022,0,3998498,1001.72,39.42
177751374,0,3998498,1001.77997,39.43
177837018,0,3998498,1001.79,39.43
177958479,0,3998498,1001.81,39.43
178056019,0,3998498,1001.82996,39.42
178143018,0,3998498,1001.82,39.42
178261018,0,3998498,1001.8,39.43
178358125,0,3998498,1001.77997,39.42
178446368,0,3998498,1001.81,39.43
178563018,0,3998498,1001.83997,39.43
178660021,0,3998498,1001.88995,39.44
178766113,0,3998498,1001.87,39.44
178872373,0,3998498,1001.85,39.44
178958167,0,3998498,1001.88995,39.44
179076391,0,3998498,1001.93,39.44
179174119,0,3998498,1001.88995,39.43
179262343,0,3998498,1001.89996,39.44
179381849,0,3998498,1001.87,39.43
179478515,0,3998498,1001.88,39.44
179585405,0,3998498,1001.89996,39.44
179780084,0,3998498,1001.95996,39.44
180795048,0,3998498,1001.82,39.45
180905109,0,3998498,1001.82996,39.44
180992398,0,3998498,1001.8,39.44
181100387,0,3998498,1001.77997,39.45
181209196,0,3998498,1001.79,39.45
181295042,0,3998498,1001.73,39.45
181411065,0,3998498,1001.76996,39.45
181508043,0,3998498,1001.69995,39.45
181615048,0,3998498,1001.73,39.45
181715048,0,3998498,1001.69995,39.45
181812073,0,3998498,1001.62,39.45
181918164,0,3998498,1001.66,39.45
182025545,0,3998498,1001.63995,39.45
182113552,0,3998498,1001.61,39.46
182220541,0,3998498,1001.55,39.45
182327052,0,3998498,1001.58997,39.46
182412409,0,3998498,1001.54,39.46
182524672,0,3998498,1001.5,39.45
182633207,0,3998498,1001.47,39.46
182719099,0,3998498,1001.43,39.46
182836414,0,3998498,1001.37,39.46
182932649,0,3998498,1001.38995,39.46
183041343,0,3998498,1001.33997,39.46
183138131,0,3998498,1001.25995,39.46
183234167,0,3998498,1001.19995,39.46
183343364,0,3998498,1001.12,39.46
183439063,0,3998498,1001.12,39.469997
183538152,0,3998498,1001.08997,39.46
183644539,0,3998498,1000.94995,39.469997
183740420,0,3998498,1000.89996,39.46
183839353,0,3998498,1000.83997,39.469997
183946127,0,3998498,1000.75,39.46
184051042,0,3998498,1000.72,39.469997
184137964,0,3998498,1000.63,39.469997
184257147,0,3998498,1000.51996,39.469997
184356410,0,3998498,1000.47,39.469997
184444583,0,3998498,1000.49,39.46
184562056,0,3998498,1000.32996,39.469997
184658130,0,3998498,1000.27997,39.469997
184763048,0,3998498,1000.19995,39.469997
184860381,0,3998498,1000.19995,39.469997
184959348,0,3998498,1000.08997,39.469997
185066057,0,3998498,1000.04,39.469997
185172537,0,3998498,1000.0,39.469997
185257405,0,3998498,999.92,39.469997
185375047,0,3998498,999.87,39.469997
185470156,0,3998498,999.88995,39.48
185577059,0,3998498,999.85,39.48
185673511,0,3998498,999.83997,39.469997
185769392,0,3998498,999.87,39.48
185875103,0,3998498,999.87,39.469997
185984226,0,3998498,999.88995,39.469997
186070421,0,3998498,999.83997,39.48
186187758,0,3998498,999.86,39.48
186283602,0,3998498,999.87,39.48
186400202,0,3998498,999.82,39.48
186496971,0,3998498,999.8,39.48
186602192,0,3998498,999.83997,39.48
186699561,0,3998498,999.85,39.48
186795636,0,3998498,999.87,39.48
186902099,0,3998498,999.86,39.48
187009090,0,3998498,999.87,39.48
187094107,0,3998498,999.83997,39.48
187211704,0,3998498,999.88995,39.48
187308042,0,3998498,999.88,39.48
187414102,0,3998498,999.88995,39.48
187510099,0,3998498,999.85,39.48
187605155,0,3998498,999.86,39.48
187713191,0,3998498,999.88995,39.48
187819784,0,3998498,999.81,39.48
187905064,0,3998498,999.82996,39.489998
188022111,0,3998498,999.88995,39.48
188118098,0,3998498,999.85,39.489998
188225047,0,3998498,999.86,39.48
188321048,0,3998498,999.89996,39.489998
188416205,0,3998498,999.87,39.489998
188523564,0,3998498,999.82996,39.489998
188630099,0,3998498,999.86,39.489998
188715603,0,3998498,999.88995,39.489998
188833066,0,3998498,999.94,39.489998
188928545,0,3998498,999.81,39.489998
189035754,0,3998498,999.87,39.489998
189142148,0,3998498,999.88995,39.489998
189228042,0,3998498,999.88995,39.489998
189339577,0,3998498,999.88,39.489998
189448547,0,3998498,999.89996,39.489998
189536072,0,3998498,999.89996,39.489998
189645406,0,3998498,999.87,39.489998
189744629,0,3998498,999.85,39.489998
189842995,0,3998498,999.89996,39.489998
189950151,0,3998498,999.87,39.489998
190048052,0,3998498,999.85,39.489998
190146361,0,3998498,999.92,39.489998
190255329,0,3998498,999.91,39.489998
190354351,0,3998498,999.88,39.489998
190454348,0,3998498,999.88,39.489998
190563018,0,3998498,999.88,39.489998
190661023,0,3998498,999.91,39.489998
190760063,0,3998498,999.86,39.489998
190869018,0,3998498,999.86,39.489998
190967294,0,3998498,999.87,39.489998
191065030,0,3998498,999.82996,39.489998
191174339,0,3998498,999.87,39.489998
191272018,0,3998498,999.88995,39.5
191370365,0,3998498,999.87,39.489998
191458414,0,3998498,999.87,39.5
191576019,0,3998498,999.88995,39.5
191673340,0,3998498,999.89996,39.489998
191781052,0,3998498,999.85,39.489998
191879255,0,3998498,999.91,39.489998
191978046,0,3998498,999.87,39.489998
192066042,0,3998498,999.82996,39.489998
192184063,0,3998498,999.93,39.5
192280042,0,3998498,999.91,39.5
192388047,0,3998498,999.94,39.5
192485168,0,3998498,999.87,39.5
192581042,0,3998498,999.91,39.5
192688048,0,3998498,999.94,39.5
192798382,0,3998498,999.94995,39.5
192885042,0,3998498,999.92,39.5
192993047,0,3998498,999.89996,39.5
193103698,0,3998498,999.94995,39.5
193191368,0,3998498,999.92,39.5
193299087,0,3998498,1000.0,39.5
193397368,0,3998498,999.93,39.5
193495042,0,3998498,999.94,39.5
193607051,0,3998498,999.94,39.5
193707442,0,3998498,999.92,39.5
193804042,0,3998498,999.99,39.5
193913052,0,3998498,999.98,39.51
194012058,0,3998498,999.99,39.5
194110159,0,3998498,999.94995,39.5
194220052,0,3998498,999.99,39.5
194318464,0,3998498,1000.07,39.51
194418746,0,3998498,1000.04,39.5
194529047,0,3998498,1000.06,39.5
194626473,0,3998498,1000.00995,39.51
194724092,0,3998498,1000.04,39.5
194835075,0,3998498,1000.07,39.5
194928414,0,3998498,1000.07996,39.5
195036059,0,3998498,1000.11,39.5
195123044,0,3998498,1000.1,39.51
195232098,0,3998498,1000.11,39.51
195339722,0,3998498,1000.14996,39.5
195426605,0,3998498,1000.13995,39.51
195546537,0,3998498,1000.08997,39.51
195637051,0,3998498,1000.11,39.51
195736382,0,3998498,1000.14996,39.51
195844052,0,3998498,1000.16,39.51
195942359,0,3998498,1000.16,39.51
196041175,0,3998498,1000.16,39.51
196148050,0,3998498,1000.17,39.51
196254181,0,3998498,1000.13,39.51
196343090,0,3998498,1000.19,39.51
196438133,0,3998498,1000.19,39.52
196550131,0,3998498,1000.22,39.51
196660131,0,3998498,1000.20996,39.51
196744182,0,3998498,1000.24,39.51
196862128,0,3998498,1000.24,39.52
196959066,0,3998498,1000.23,39.52
198171073,0,3998498,1000.33997,39.52
198288052,0,3998498,1000.39996,39.52
198386122,0,3998498,1000.37,39.52
198473639,0,3998498,1000.36,39.52
198589529,0,3998498,1000.38,39.53
198685335,0,3998498,1000.43,39.53
198794363,0,3998498,1000.37,39.53
198893318,0,3998498,1000.38,39.53
198992046,0,3998498,1000.38,39.53
199099016,0,3998498,1000.43,39.53
199194268,0,3998498,1000.48,39.53
199290225,0,3998498,1000.49,39.53
199407047,0,3998498,1000.47,39.53
199505733,0,3998498,1000.45996,39.53
199613182,0,3998498,1000.44,39.53
199709159,0,3998498,1000.54,39.53
199808068,0,3998498,1000.44995,39.53
199915042,0,3998498,1000.54,39.53
200012050,0,3998498,1000.51996,39.53
200110118,0,3998498,1000.57996,39.53
200221392,0,3998498,1000.6,39.53
200317364,0,3998498,1000.6,39.53
200415044,0,3998498,1000.57996,39.53
200522053,0,3998498,1000.67,39.53
200620790,0,3998498,1000.61,39.53
200720048,0,3998498,1000.63,39.54
200829073,0,3998498,1000.63995,39.53
200924400,0,3998498,1000.62,39.53
201023600,0,3998498,1000.6,39.53
201129502,0,3998498,1000.62,39.54
201236415,0,3998498,1000.61,39.53
201322163,0,3998498,1000.66,39.53
201441150,0,3998498,1000.69,39.54
201539097,0,3998498,1000.68,39.54
201625218,0,3998498,1000.67,39.54
201743359,0,3998498,1000.69995,39.54
201839051,0,3998498,1000.73,39.54
201946146,0,3998498,1000.73,39.54
202052606,0,3998498,1000.74,39.54
202138362,0,3998498,1000.70996,39.54
202247047,0,3998498,1000.77997,39.54
202354487,0,3998498,1000.77997,39.54
202439046,0,3998498,1000.74,39.54
202562410,0,3998498,1000.85,39.54
202661042,0,3998498,1000.79,39.54
202770429,0,3998498,1000.82996,39.54
202863059,0,3998498,1000.86,39.54
202959071,0,3998498,1000.82,39.55
203069081,0,3998498,1000.86,39.55
203175369,0,3998498,1000.85,39.54
203261042,0,3998498,1000.86,39.54
203369398,0,3998498,1000.94,39.54
203476367,0,3998498,1000.88995,39.54
203586506,0,3998498,1000.95996,39.55
203679099,0,3998498,1000.93,39.54
203786119,0,3998498,1000.95996,39.54
203873046,0,3998498,1000.94,39.54
203983052,0,3998498,1000.95996,39.54
204090362,0,3998498,1000.94995,39.54
204175042,0,3998498,1001.0,39.54
204289046,0,3998498,1001.07,39.55
204390441,0,3998498,1000.99,39.54
204489076,0,3998498,1000.98,39.54
204596048,0,3998498,1001.04,39.55
204694168,0,3998498,1001.02997,39.54
204792390,0,3998498,1001.12,39.55
204900621,0,3998498,1001.08997,39.55
204998102,0,3998498,1001.12,39.55
205098396,0,3998498,1001.06,39.55
205206129,0,3998498,1001.16,39.55
205304220,0,3998498,1001.12,39.55
205401215,0,3998498,1001.11,39.55
205507994,0,3998498,1001.19,39.55
205617552,0,3998498,1001.18,39.55
205701043,0,3998498,1001.13,39.55
205818771,0,3998498,1001.18,39.559998
205914574,0,3998498,1001.18,39.559998
206019733,0,3998498,1001.18,39.559998
206126107,0,3998498,1001.22,39.559998
206214103,0,3998498,1001.23,39.559998
206321018,0,3998498,1001.22,39.55
206427777,0,3998498,1001.20996,39.55
206512096,0,3998498,1001.24,39.559998
206634210,0,3998498,1001.27997,39.559998
206731576,0,3998498,1001.3,39.559998
206816127,0,3998498,1001.37,39.559998
206936380,0,3998498,1001.3,39.559998
207035736,0,3998498,1001.32,39.55
207139603,0,3998498,1001.41,39.559998
207235575,0,3998498,1001.38,39.559998
207331747,0,3998498,1001.32,39.559998
207441047,0,3998498,1001.39996,39.559998
207547773,0,3998498,1001.37,39.559998
207632526,0,3998498,1001.42,39.559998
207749047,0,3998498,1001.41,39.559998
207846101,0,3998498,1001.44,39.559998
207953107,0,3998498,1001.47,39.559998
208051356,0,3998498,1001.47,39.559998
208151117,0,3998498,1001.44995,39.559998
208256498,0,3998498,1001.45996,39.559998
208357048,0,3998498,1001.48,39.559998
208455449,0,3998498,1001.47,39.559998
208562356,0,3998498,1001.50995,39.559998
208663758,0,3998498,1001.56,39.559998
208760043,0,3998498,1001.55,39.559998
208847046,0,3998498,1001.52997,39.559998
208966407,0,3998498,1001.57996,39.559998
209063110,0,3998498,1001.57,39.559998
209151236,0,3998498,1001.55,39.559998
209270363,0,3998498,1001.6,39.57
209369043,0,3998498,1001.61,39.559998
209455101,0,3998498,1001.57996,39.559998
209576047,0,3998498,1001.61,39.559998
209672372,0,3998498,1001.64996,39.559998
209780096,0,3998498,1001.62,39.57
209877047,0,3998498,1001.6,39.559998
209976042,0,3998498,1001.58997,39.559998
210063044,0,3998498,1001.69995,39.559998
210183083,0,3998498,1001.62,39.559998
210284222,0,3998498,1001.67,39.57
210377377,0,3998498,1001.69995,39.559998
210485383,0,3998498,1001.63,39.559998
210594308,0,3998498,1001.68,39.559998
210681047,0,3998498,1001.67,39.559998
210799049,0,3998498,1001.73,39.57
210898435,0,3998498,1001.70996,39.57
210984045,0,3998498,1001.70996,39.57
211094370,0,3998498,1001.75,39.57
211202382,0,3998498,1001.75,39.57
211287042,0,3998498,1001.73,39.57
211408047,0,3998498,1001.76996,39.57
211509070,0,3998498,1001.70996,39.57
211598516,0,3998498,1001.74,39.57
211707465,0,3998498,1001.75,39.57
211817043,0,3998498,1001.75995,39.57
211905225,0,3998498,1001.72,39.57
212014273,0,3998498,1001.79,39.57
212122543,0,3998498,1001.81,39.57
212209042,0,3998498,1001.77997,39.57
212326208,0,3998498,1001.82,39.57
212422209,0,3998498,1001.82996,39.579998
212531047,0,3998498,1001.82,39.579998
212629070,0,3998498,1001.83997,39.579998
212727098,0,3998498,1001.87,39.579998
212835067,0,3998498,1001.85,39.579998
212934210,0,3998498,1001.85,39.57
213033054,0,3998498,1001.82996,39.579998
213123083,0,3998498,1001.86,39.579998
213242537,0,3998498,1001.82,39.579998
213341042,0,3998498,1001.92,39.579998
213429163,0,3998498,1001.91,39.57
213548154,0,3998498,1001.87,39.579998
213645042,0,3998498,1001.93,39.579998
213732073,0,3998498,1001.88,39.579998
213854188,0,3998498,1001.83997,39.579998
213953042,0,3998498,1001.85,39.579998
214047098,0,3998498,1001.82,39.57
214161047,0,3998498,1001.81,39.57
214258741,0,3998498,1001.82996,39.57
214364853,0,3998498,1001.83997,39.579998
214458945,0,3998498,1001.82996,39.57
214572536,0,3998498,1001.81,39.57
214676385,0,3998498,1001.76996,39.57
214777042,0,3998498,1001.75995,39.57
214866965,0,3998498,1001.87,39.579998
214976052,0,3998498,1001.79,39.579998
215075059,0,3998498,1001.82996,39.579998
215171098,0,3998498,1001.72,39.579998
215276869,0,3998498,1001.74,39.579998
215384421,0,3998498,1001.85,39.59
215472043,0,3998498,1001.73,39.59
215582113,0,3998498,1001.79,39.59
215690118,0,3998498,1001.79,39.59
215774352,0,3998498,1001.72,39.579998
215887160,0,3998498,1001.82,39.579998
215986126,0,3998498,1001.73,39.59
216085692,0,3998498,1001.63995,39.59
216194136,0,3998498,1001.68,39.59
216303945,0,3998498,1001.75995,39.59
216388100,0,3998498,1001.79,39.59
216500047,0,3998498,1001.89996,39.579998
216599562,0,3998498,1001.74,39.579998
216694201,0,3998498,1001.72,39.59
216805720,0,3998498,1001.87,39.579998
216903149,0,3998498,1001.79,39.59
217002122,0,3998498,1001.88995,39.579998
217113355,0,3998498,1001.85,39.59
217212398,0,3998498,1001.89996,39.579998
217311027,0,3998498,1001.82996,39.579998
217422363,0,3998498,1001.85,39.579998
217518131,0,3998498,1001.82,39.59
217616042,0,3998498,1001.73,39.59
217724047,0,3998498,1001.75995,39.59
217824147,0,3998498,1001.77997,39.59
217924042,0,3998498,1001.82996,39.59
218031405,0,3998498,1001.76996,39.59
218129185,0,3998498,1001.83997,39.59
218225323,0,3998498,1001.83997,39.59
218333994,0,3998498,1001.88,39.59
218439781,0,3998498,1001.98,39.59
218537463,0,3998498,1001.88,39.59
218630119,0,3998498,1001.86,39.59
218740072,0,3998498,1001.89996,39.59
218845191,0,3998498,1001.93,39.59
218937075,0,3998498,1002.0,39.59
219045432,0,3998498,1001.93,39.59
220366293,0,3998498,1001.94,39.59
220463441,0,3998498,1001.95996,39.59
220573207,0,3998498,1001.88,39.59
220670123,0,3998498,1001.89996,39.59
220766154,0,3998498,1001.85,39.59
220886381,0,3998498,1001.92,39.59
220979121,0,3998498,1001.82,39.6
221065042,0,3998498,1001.88,39.6
221190206,0,3998498,1001.8,39.59
221289401,0,3998498,1001.76996,39.59
221375093,0,3998498,1001.77997,39.59
221486379,0,3998498,1001.82996,39.59
221592405,0,3998498,1001.77997,39.59
221681042,0,3998498,1001.82996,39.59
221790394,0,3998498,1001.77997,39.59
221899349,0,3998498,1001.75995,39.59
221985088,0,3998498,1001.81,39.59
222102531,0,3998498,1001.79,39.59
222198378,0,3998498,1001.73,39.6
222305047,0,3998498,1001.76996,39.59
222403856,0,3998498,1001.8,39.6
222502166,0,3998498,1001.75995,39.59
222612405,0,3998498,1001.73,39.59
222710144,0,3998498,1001.70996,39.59
222806101,0,3998498,1001.73,39.59
222913197,0,3998498,1001.69,39.6
223019754,0,3998498,1001.75,39.6
223126100,0,3998498,1001.69,39.6
223222143,0,3998498,1001.72,39.6
223321549,0,3998498,1001.79,39.6
223428047,0,3998498,1001.69,39.6
223534101,0,3998498,1001.67,39.59
223619620,0,3998498,1001.63,39.6
223728564,0,3998498,1001.6,39.6
223838100,0,3998498,1001.64996,39.6
223925042,0,3998498,1001.66,39.6
224043728,0,3998498,1001.62,39.6
224139762,0,3998498,1001.64996,39.6
224248552,0,3998498,1001.66,39.6
224344218,0,3998498,1001.63,39.6
224440138,0,3998498,1001.63,39.6
224549339,0,3998498,1001.62,39.6
224657825,0,3998498,1001.70996,39.6
224742422,0,3998498,1001.66,39.6
224858155,0,3998498,1001.62,39.6
224964055,0,3998498,1001.72,39.59
225051592,0,3998498,1001.8,39.59
225171547,0,3998498,1001.69995,39.579998
225267930,0,3998498,1001.73,39.579998
225358075,0,3998498,1001.72,39.579998
225475560,0,3998498,1001.75,39.579998
225572018,0,3998498,1001.68,39.579998
225678019,0,3998498,1001.66,39.579998
225776546,0,3998498,1001.64996,39.579998
225872054,0,3998498,1001.69995,39.579998
225981386,0,3998498,1001.68,39.579998
226078019,0,3998498,1001.72,39.579998
226176790,0,3998498,1001.63995,39.579998
226287716,0,3998498,1001.74,39.57
226393003,0,3998498,1001.74,39.57
226479586,0,3998498,1001.69,39.559998
226597030,0,3998498,1001.69,39.559998
226697532,0,3998498,1001.69,39.559998
226785377,0,3998498,1001.70996,39.54
226895590,0,3998498,1001.70996,39.54
226996068,0,3998498,1001.69995,39.53
227096382,0,3998498,1001.74,39.52
227201614,0,3998498,1001.67,39.52
227301047,0,3998498,1001.70996,39.52
227409514,0,3998498,1001.69995,39.51
227499097,0,3998498,1001.70996,39.5
227606324,0,3998498,1001.74,39.489998
227708047,0,3998498,1001.69,39.489998
227811347,0,3998498,1001.75995,39.48
227899055,0,3998498,1001.63995,39.48
228019051,0,3998498,1001.69,39.48
228120827,0,3998498,1001.64996,39.48
228208049,0,3998498,1001.68,39.469997
228326327,0,3998498,1001.69995,39.469997
228423302,0,3998498,1001.63995,39.46
228537180,0,3998498,1001.68,39.46
228635050,0,3998498,1001.67,39.45
228729047,0,3998498,1001.66,39.45
228827018,0,3998498,1001.68,39.45
228936773,0,3998498,1001.61,39.45
229034814,0,3998498,1001.63,39.44
229134314,0,3998498,1001.66,39.44
229244047,0,3998498,1001.69995,39.44
229348060,0,3998498,1001.64996,39.43
229447766,0,3998498,1001.70996,39.43
229536851,0,3998498,1001.75995,39.43
229652491,0,3998498,1001.74,39.43
229761042,0,3998498,1001.75,39.42
229847042,0,3998498,1001.64996,39.43
229964047,0,3998498,1001.73,39.42
230062019,0,3998498,1001.73,39.42
230150608,0,3998498,1001.92,39.43
230272206,0,3998498,1001.88,39.42
230368404,0,3998498,1001.74,39.43
230461031,0,3998498,1001.77997,39.42
230568932,0,3998498,1001.95996,39.42
230678936,0,3998498,1001.76996,39.43
230768025,0,3998498,1001.74,39.43
230864137,0,3998498,1001.83997,39.43
230974586,0,3998498,1001.82,39.43
231083046,0,3998498,1001.89996,39.43
231172043,0,3998498,1001.89996,39.44
231288098,0,3998498,1001.79,39.43
231384570,0,3998498,1001.69995,39.43
231491116,0,3998498,1001.54,39.44
231583914,0,3998498,1001.63995,39.44
231691061,0,3998498,1001.8,39.44
231792444,0,3998498,1001.8,39.44
231891046,0,3998498,1001.67,39.44
232000045,0,3998498,1001.77997,39.45
232093078,0,3998498,1001.66,39.45
232204042,0,3998498,1001.77997,39.45
232288043,0,3998498,1001.68,39.46
232399915,0,3998498,1001.69995,39.469997
232506148,0,3998498,1001.85,39.46
232597042,0,3998498,1001.92,39.469997
232705212,0,3998498,1001.91,39.469997
232808536,0,3998498,1001.86,39.48
232906183,0,3998498,1001.87,39.48
232995048,0,3998498,1001.89996,39.48
233118940,0,3998498,1001.85,39.489998
233211031,0,3998498,1001.86,39.48
233310982,0,3998498,1001.82,39.489998
233419018,0,3998498,1001.91,39.489998
233518534,0,3998498,1001.87,39.5
233615324,0,3998498,1001.88,39.489998
233724062,0,3998498,1001.8,39.5
233823153,0,3998498,1001.77997,39.5
233922133,0,3998498,1001.74,39.5
234016058,0,3998498,1001.79,39.5
234130146,0,3998498,1001.76996,39.5
234239429,0,3998498,1001.73,39.51
234324358,0,3998498,1001.75995,39.51
234442019,0,3998498,1001.66,39.51
234540018,0,3998498,1001.73,39.52
234626130,0,3998498,1001.66,39.52
234746107,0,3998498,1001.72,39.52
234843032,0,3998498,1001.69,39.52
234946102,0,3998498,1001.55,39.51
235038217,0,3998498,1001.61,39.52
235159316,0,3998498,1001.67,39.51
235257984,0,3998498,1001.57996,39.52
235346351,0,3998498,1001.67,39.52
235455019,0,3998498,1001.6,39.52
235564018,0,3998498,1001.69995,39.53
235652036,0,3998498,1001.63995,39.53
235761306,0,3998498,1001.63995,39.53
235871192,0,3998498,1001.6,39.53
235958301,0,3998498,1001.66,39.53
236065108,0,3998498,1001.62,39.54
236174812,0,3998498,1001.49,39.53
236260024,0,3998498,1001.57996,39.53
236370435,0,3998498,1001.57996,39.54
236471173,0,3998498,1001.50995,39.54
236570018,0,3998498,1001.55,39.54
236684108,0,3998498,1001.58997,39.54
236783195,0,3998498,1001.54,39.53
236881709,0,3998498,1001.51996,39.54
236990179,0,3998498,1001.61,39.54
237092239,0,3998498,1001.44,39.54
237189061,0,3998498,1001.54,39.54
237295023,0,3998498,1001.44995,39.54
237395327,0,3998498,1001.50995,39.54
237492353,0,3998498,1001.45996,39.55
237599561,0,3998498,1001.52997,39.54
237700826,0,3998498,1001.5,39.54
237796412,0,3998498,1001.48,39.54
237905783,0,3998498,1001.5,39.54
238002919,0,3998498,1001.49,39.54
238098544,0,3998498,1001.5,39.54
238206019,0,3998498,1001.61,39.54
238303329,0,3998498,1001.51996,39.53
238401496,0,3998498,1001.54,39.53
238507019,0,3998498,1001.57996,39.53
238615068,0,3998498,1001.48,39.53
238721408,0,3998498,1001.51996,39.52
238821153,0,3998498,1001.52997,39.52
238917039,0,3998498,1001.57996,39.52
239023018,0,3998498,1001.56,39.52
239127019,0,3998498,1001.58997,39.52
239215349,0,3998498,1001.54,39.51
239325159,0,3998498,1001.55,39.52
239426521,0,3998498,1001.56,39.52
239530018,0,3998498,1001.61,39.51
239614140,0,3998498,1001.63,39.52
239732415,0,3998498,1001.58997,39.52
239828515,0,3998498,1001.64996,39.52
239917023,0,3998498,1001.70996,39.52
240037064,0,3998498,1001.6,39.52
240135028,0,3998498,1001.61,39.52
240241445,0,3998498,1001.69,39.52
240340403,0,3998498,1001.69,39.52
240436504,0,3998498,1001.74,39.53
240530789,0,3998498,1001.72,39.52
240641359,0,3998498,1001.74,39.52
240750075,0,3998498,1001.72,39.52
240836018,0,3998498,1001.69,39.53
240955022,0,3998498,1001.68,39.52
241048544,0,3998498,1001.74,39.53
241155731,0,3998498,1001.70996,39.53
241255019,0,3998498,1001.67,39.53
242070019,0,3998498,1001.85,39.53
242168169,0,3998498,1001.77997,39.53
242274012,0,3998498,1001.81,39.53
242382019,0,3998498,1001.79,39.53
242470018,0,3998498,1001.75995,39.53
242577018,0,3998498,1001.82996,39.53
242684021,0,3998498,1001.8,39.53
242769729,0,3998498,1001.76996,39.53
242885022,0,3998498,1001.87,39.53
242984537,0,3998498,1001.74,39.53
243091612,0,3998498,1001.75995,39.53
243187580,0,3998498,1001.79,39.53
243283603,0,3998498,1001.77997,39.53
243390110,0,3998498,1001.76996,39.53
243496075,0,3998498,1001.75995,39.53
243582019,0,3998498,1001.82996,39.54
243700018,0,3998498,1001.77997,39.53
243796580,0,3998498,1001.8,39.53
243886018,0,3998498,1001.85,39.53
244003465,0,3998498,1001.85,39.53
244100054,0,3998498,1001.82996,39.53
244208389,0,3998498,1001.81,39.53
244304221,0,3998498,1001.83997,39.52
244404018,0,3998498,1001.86,39.53
244512667,0,3998498,1001.88995,39.53
244609419,0,3998498,1001.87,39.53
244709030,0,3998498,1001.79,39.52
244822365,0,3998498,1001.88,39.52
244924018,0,3998498,1001.8,39.52
245019030,0,3998498,1001.82996,39.51
245115023,0,3998498,1001.83997,39.52
245225580,0,3998498,1001.85,39.52
245329019,0,3998498,1001.82996,39.51
245427570,0,3998498,1001.81,39.52
245520408,0,3998498,1001.77997,39.52
245628026,0,3998498,1001.82996,39.51
245729162,0,3998498,1001.73,39.52
245826018,0,3998498,1001.75995,39.52
245935305,0,3998498,1001.75995,39.52
246036039,0,3998498,1001.63995,39.52
246137027,0,3998498,1001.67,39.52
246245069,0,3998498,1001.62,39.52
246340063,0,3998498,1001.63,39.52
246443118,0,3998498,1001.66,39.51
246541063,0,3998498,1001.69,39.51
246650789,0,3998498,1001.69995,39.51
246756031,0,3998498,1001.70996,39.52
246844018,0,3998498,1001.63995,39.52
246956018,0,3998498,1001.57,39.51
247058794,0,3998498,1001.64996,39.51
247158312,0,3998498,1001.63,39.51
247245029,0,3998498,1001.69,39.51
247362946,0,3998498,1001.64996,39.51
247464018,0,3998498,1001.68,39.51
247549018,0,3998498,1001.63995,39.52
247667018,0,3998498,1001.68,39.52
247768790,0,3998498,1001.6,39.51
247875022,0,3998498,1001.57996,39.51
247973149,0,3998498,1001.6,39.51
248069027,0,3998498,1001.56,39.51
248163066,0,3998498,1001.57996,39.51
248282211,0,3998498,1001.57996,39.51
248377054,0,3998498,1001.5,39.51
248471069,0,3998498,1001.63,39.51
248591133,0,3998498,1001.68,39.51
248689046,0,3998498,1001.54,39.5
248777048,0,3998498,1001.58997,39.5
248886153,0,3998498,1001.54,39.5
248995045,0,3998498,1001.62,39.5
249081043,0,3998498,1001.57,39.5
249195368,0,3998498,1001.54,39.5
249299953,0,3998498,1001.57,39.5
249396828,0,3998498,1001.52997,39.5
249503099,0,3998498,1001.56,39.5
249612849,0,3998498,1001.58997,39.5
249708930,0,3998498,1001.54,39.489998
249804570,0,3998498,1001.57,39.48
249915901,0,3998498,1001.64996,39.469997
250012075,0,3998498,1001.58997,39.469997
250110133,0,3998498,1001.52997,39.469997
250220387,0,3998498,1001.70996,39.46
250322550,0,3998498,1001.6,39.45
250421042,0,3998498,1001.56,39.45
250512050,0,3998498,1001.63995,39.44
250628068,0,3998498,1001.61,39.43
250734150,0,3998498,1001.64996,39.43
250822121,0,3998498,1001.57,39.42
250930540,0,3998498,1001.66,39.41
251029206,0,3998498,1001.61,39.41
251132073,0,3998498,1001.61,39.399998
251244142,0,3998498,1001.69995,39.39
251342063,0,3998498,1001.68,39.379997
251444042,0,3998498,1001.61,39.379997
251540403,0,3998498,1001.70996,39.379997
251636117,0,3998498,1001.67,39.36
251745048,0,3998498,1001.58997,39.36
251844377,0,3998498,1001.6,39.36
251941224,0,3998498,1001.67,39.36
252054168,0,3998498,1001.68,39.35
252164201,0,3998498,1001.68,39.34
252254289,0,3998498,1001.69,39.34
252350178,0,3998498,1001.67,39.34
252459728,0,3998498,1001.58997,39.34
252569842,0,3998498,1001.62,39.34
252675334,0,3998498,1001.77997,39.34
252768104,0,3998498,1001.64996,39.329998
252875722,0,3998498,1001.58997,39.329998
252971591,0,3998498,1001.63995,39.32
253064389,0,3998498,1001.74,39.32
253182199,0,3998498,1001.70996,39.32
253275257,0,3998498,1001.72,39.309998
253383043,0,3998498,1001.64996,39.309998
253470160,0,3998498,1001.66,39.32
253589369,0,3998498,1001.69,39.32
253685337,0,3998498,1001.70996,39.309998
253792047,0,3998498,1001.75,39.32
253894238,0,3998498,1001.63995,39.309998
253987679,0,3998498,1001.69,39.32
254094172,0,3998498,1001.87,39.309998
254195374,0,3998498,1001.67,39.309998
254293323,0,3998498,1001.66,39.309998
254403449,0,3998498,1001.77997,39.309998
254504095,0,3998498,1001.74,39.29
254598252,0,3998498,1001.69,39.29
254699348,0,3998498,1001.72,39.29
254811678,0,3998498,1001.66,39.29
254909228,0,3998498,1001.6,39.29
255006018,0,3998498,1001.75995,39.29
255116119,0,3998498,1001.63995,39.29
255224040,0,3998498,1001.73,39.29
255319042,0,3998498,1001.69,39.29
255406126,0,3998498,1001.8,39.29
255523048,0,3998498,1001.58997,39.29
255622456,0,3998498,1001.63,39.29
255720042,0,3998498,1001.51996,39.29
256421047,0,3998498,1001.67,39.309998
256542125,0,3998498,1001.74,39.32
256639047,0,3998498,1001.73,39.32
256745386,0,3998498,1001.75,39.32
256852994,0,3998498,1001.68,39.329998
256945190,0,3998498,1001.72,39.32
257054508,0,3998498,1001.69,39.329998
257160558,0,3998498,1001.69,39.329998
257256501,0,3998498,1001.76996,39.34
257364956,0,3998498,1001.81,39.34
257464416,0,3998498,1001.67,39.34
257561055,0,3998498,1001.68,39.35
257670289,0,3998498,1001.69995,39.35
257768581,0,3998498,1001.63995,39.35
257867042,0,3998498,1001.69,39.36
257977191,0,3998498,1001.58997,39.36
258072767,0,3998498,1001.64996,39.37
258171042,0,3998498,1001.62,39.37
258278123,0,3998498,1001.62,39.37
258379047,0,3998498,1001.62,39.37
258474123,0,3998498,1001.58997,39.379997
258584566,0,3998498,1001.58997,39.37
258686121,0,3998498,1001.58997,39.37
258785018,0,3998498,1001.52997,39.379997
258890019,0,3998498,1001.57996,39.379997
258989020,0,3998498,1001.56,39.379997
259086018,0,3998498,1001.54,39.39
259198386,0,3998498,1001.57996,39.379997
259297031,0,3998498,1001.62,39.39
259398018,0,3998498,1001.63,39.39
259484950,0,3998498,1001.62,39.39
259598744,0,3998498,1001.64996,39.39
259705340,0,3998498,1001.56,39.39
259810120,0,3998498,1001.6,39.399998
259912518,0,3998498,1001.52997,39.399998
260011034,0,3998498,1001.57996,39.39
260096030,0,3998498,1001.57996,39.399998
260218019,0,3998498,1001.51996,39.399998
260315031,0,3998498,1001.49,39.399998
260408018,0,3998498,1001.5,39.399998
260516378,0,3998498,1001.5,39.399998
260622018,0,3998498,1001.48,39.41
260710018,0,3998498,1001.49,39.41
260822019,0,3998498,1001.55,39.399998
260928560,0,3998498,1001.47,39.41
261011618,0,3998498,1001.44995,39.41
261940048,0,3998498,1001.51996,39.42
262036042,0,3998498,1001.58997,39.42
262142099,0,3998498,1001.54,39.41
262249561,0,3998498,1001.54,39.42
262334097,0,3998498,1001.5,39.42
262451640,0,3998498,1001.45996,39.41
262547791,0,3998498,1001.56,39.42
262656531,0,3998498,1001.61,39.42
262754162,0,3998498,1001.44995,39.41
262854104,0,3998498,1001.57,39.41
262961165,0,3998498,1001.42,39.41
263057423,0,3998498,1001.49,39.42
263152076,0,3998498,1001.49,39.42
263261330,0,3998498,1001.5,39.42
263369628,0,3998498,1001.61,39.42
263454018,0,3998498,1001.47,39.42
263563591,0,3998498,1001.61,39.42
263670100,0,3998498,1001.55,39.42
263757030,0,3998498,1001.51996,39.41
263875896,0,3998498,1001.47,39.41
263971589,0,3998498,1001.5,39.42
264078327,0,3998498,1001.57996,39.41
264179562,0,3998498,1001.51996,39.41
264275018,0,3998498,1001.57996,39.41
264383438,0,3998498,1001.62,39.41
264481051,0,3998498,1001.6,39.41
264578155,0,3998498,1001.58997,39.41
264684404,0,3998498,1001.56,39.41
264784095,0,3998498,1001.61,39.42
264880092,0,3998498,1001.66,39.41
264981042,0,3998498,1001.57,39.41
265090357,0,3998498,1001.61,39.41
265192073,0,3998498,1001.55,39.41
265288140,0,3998498,1001.6,39.399998
265397406,0,3998498,1001.61,39.399998
265483601,0,3998498,1001.63995,39.399998
265603959,0,3998498,1001.61,39.399998
265701047,0,3998498,1001.58997,39.41
265810357,0,3998498,1001.67,39.41
265908500,0,3998498,1001.63,39.41
266007060,0,3998498,1001.62,39.41
266116798,0,3998498,1001.63995,39.42
266213958,0,3998498,1001.63,39.41
266311047,0,3998498,1001.57,39.41
266418344,0,3998498,1001.57,39.41
266524827,0,3998498,1001.6,39.41
266624045,0,3998498,1001.58997,39.41
266720094,0,3998498,1001.57996,39.41
266829051,0,3998498,1001.57,39.41
266927108,0,3998498,1001.61,39.41
267026328,0,3998498,1001.61,39.41
267141208,0,3998498,1001.62,39.41
267237312,0,3998498,1001.62,39.41
267342406,0,3998498,1001.6,39.41
267429858,0,3998498,1001.55,39.399998
267549610,0,3998498,1001.62,39.41
267647053,0,3998498,1001.63,39.41
267734401,0,3998498,1001.58997,39.41
267848092,0,3998498,1001.58997,39.41
267951052,0,3998498,1001.57996,39.399998
268048043,0,3998498,1001.63,39.41
268157048,0,3998498,1001.67,39.41
268255060,0,3998498,1001.64996,39.41
268352113,0,3998498,1001.67,39.399998
268461050,0,3998498,1001.55,39.41
268560513,0,3998498,1001.64996,39.41
268660053,0,3998498,1001.6,39.399998
268749042,0,3998498,1001.57996,39.41
268866169,0,3998498,1001.63,39.41
268962196,0,3998498,1001.6,39.399998
269061019,0,3998498,1001.58997,39.399998
269169023,0,3998498,1001.64996,39.41
269269019,0,3998498,1001.63995,39.399998
269365018,0,3998498,1001.64996,39.41
269473052,0,3998498,1001.70996,39.41
269581044,0,3998498,1001.6,39.399998
269669051,0,3998498,1001.63995,39.41
269779061,0,3998498,1001.63995,39.41
269889051,0,3998498,1001.62,39.399998
269979055,0,3998498,1001.56,39.41
270094924,0,3998498,1001.6,39.399998
270192214,0,3998498,1001.58997,39.399998
270299151,0,3998498,1001.62,39.41
270386448,0,3998498,1001.6,39.399998
270505103,0,3998498,1001.57996,39.399998
270600852,0,3998498,1001.63995,39.399998
270690210,0,3998498,1001.61,39.399998
270800254,0,3998498,1001.67,39.41
270906007,0,3998498,1001.63995,39.399998
271000980,0,3998498,1001.64996,39.399998
271107100,0,3998498,1001.62,39.399998
271214612,0,3998498,1001.68,39.41
271304246,0,3998498,1001.66,39.399998
271415001,0,3998498,1001.66,39.399998
271515019,0,3998498,1001.66,39.399998
271616246,0,3998498,1001.69995,39.399998
271723051,0,3998498,1001.70996,39.399998
271826134,0,3998498,1001.69995,39.399998
271925046,0,3998498,1001.63,39.399998
272010153,0,3998498,1001.72,39.399998
272125145,0,3998498,1001.72,39.39
272227071,0,3998498,1001.70996,39.399998
272336217,0,3998498,1001.70996,39.39
272426141,0,3998498,1001.75,39.39
272535931,0,3998498,1001.75,39.399998
272643060,0,3998498,1001.81,39.399998
272744042,0,3998498,1001.74,39.39
272830517,0,3998498,1001.76996,39.39
272938123,0,3998498,1001.75,39.399998
273047367,0,3998498,1001.75,39.399998
273133720,0,3998498,1001.76996,39.399998
273254126,0,3998498,1001.72,39.39
273350318,0,3998498,1001.76996,39.399998
273436372,0,3998498,1001.79,39.399998
273556058,0,3998498,1001.81,39.39
273653707,0,3998498,1001.75995,39.399998
273738177,0,3998498,1001.82996,39.399998
273857215,0,3998498,1001.79,39.399998
273953338,0,3998498,1001.77997,39.399998
274062173,0,3998498,1001.83997,39.399998
274159417,0,3998498,1001.82,39.39
274257511,0,3998498,1001.77997,39.399998
274367597,0,3998498,1001.82,39.399998
274465221,0,3998498,1001.88,39.399998
274561377,0,3998498,1001.77997,39.399998
274667050,0,3998498,1001.82996,39.399998
274775042,0,3998498,1001.8,39.399998
274863382,0,3998498,1001.88995,39.399998
274980047,0,3998498,1001.81,39.399998
275076043,0,3998498,1001.83997,39.399998
275182172,0,3998498,1001.82,39.399998
275278129,0,3998498,1001.88995,39.399998
275374331,0,3998498,1001.88,39.39
275483047,0,3998498,1001.81,39.39
275580113,0,3998498,1001.88,39.399998
275676043,0,3998498,1001.82996,39.399998
275793418,0,3998498,1001.88995,39.39
275889194,0,3998498,1001.88,39.399998
275996047,0,3998498,1001.86,39.399998
276102339,0,3998498,1001.88,39.39
276188395,0,3998498,1001.93,39.39
276295078,0,3998498,1001.89996,39.399998
276404943,0,3998498,1001.92,39.399998
276491094,0,3998498,1001.88995,39.399998
276599047,0,3998498,1001.88,39.39
276709969,0,3998498,1001.94,39.39
276795097,0,3998498,1002.01996,39.39
276912416,0,3998498,1001.95996,39.39
277009168,0,3998498,1002.00995,39.399998
277099084,0,3998498,1001.95996,39.39
277215135,0,3998498,1002.0,39.399998
277313042,0,3998498,1002.01996,39.39
277421261,0,3998498,1002.07996,39.399998
277517370,0,3998498,1002.0,39.39
277613432,0,3998498,1002.07996,39.399998
277723353,0,3998498,1002.01996,39.39
277818473,0,3998498,1002.05,39.39
277915053,0,3998498,1002.06,39.399998
278021450,0,3998498,1002.07996,39.39
278128578,0,3998498,1002.07996,39.39
278214156,0,3998498,1002.07996,39.399998
278331109,0,3998498,1002.08997,39.399998
278427054,0,3998498,1002.1,39.39
278537178,0,3998498,1002.13,39.39
278635051,0,3998498,1002.1,39.39
278731084,0,3998498,1002.12,39.39
278837391,0,3998498,1002.13995,39.39
278944407,0,3998498,1002.14996,39.39
279032592,0,3998498,1002.13,39.39
279141616,0,3998498,1002.14996,39.39
279239104,0,3998498,1002.22,39.39
279336506,0,3998498,1002.25,39.39
279445052,0,3998498,1002.19,39.39
279552655,0,3998498,1002.22,39.39
279638118,0,3998498,1002.18,39.39
279755353,0,3998498,1002.22,39.39
279851043,0,3998498,1002.23,39.39
279937046,0,3998498,1002.22,39.39
280056505,0,3998498,1002.17,39.39
280154044,0,3998498,1002.25,39.39
280262379,0,3998498,1002.25,39.39
280357047,0,3998498,1002.24,39.39
280454098,0,3998498,1002.19,39.39
280565081,0,3998498,1002.22,39.39
280661047,0,3998498,1002.24,39.39
280757367,0,3998498,1002.16,39.39
280863873,0,3998498,1002.24,39.39
280972712,0,3998498,1002.24,39.39
281058443,0,3998498,1002.24,39.39
281175569,0,3998498,1002.25995,39.39
281271588,0,3998498,1002.22,39.39
281378117,0,3998498,1002.19995,39.379997
281474167,0,3998498,1002.24,39.39
281570094,0,3998498,1002.26996,39.39
281676119,0,3998498,1002.29,39.379997
281783855,0,3998498,1002.24,39.379997
281868181,0,3998498,1002.25995,39.379997
281986099,0,3998498,1002.25,39.39
282082098,0,3998498,1002.19,39.39
282189047,0,3998498,1002.22,39.39
282285298,0,3998498,1002.19995,39.379997
282381198,0,3998498,1002.19,39.379997
282487822,0,3998498,1002.31,39.379997
282594491,0,3998498,1002.19,39.39
283198000,0,3998498,1002.22,39.39
283597963,0,3998498,1002.20996,39.39
283711600,0,3998498,1002.23,39.379997
283816018,0,3998498,1002.19,39.39
283904018,0,3998498,1002.26996,39.379997
284020542,0,3998498,1002.25,39.39
284120082,0,3998498,1002.20996,39.39
284205052,0,3998498,1002.19995,39.39
284322099,0,3998498,1002.22,39.39
284418134,0,3998498,1002.23,39.39
284526109,0,3998498,1002.27997,39.39
284634452,0,3998498,1002.26996,39.39
284724996,0,3998498,1002.25,39.39
284832048,0,3998498,1002.22,39.379997
284932047,0,3998498,1002.22,39.379997
285031048,0,3998498,1002.25,39.379997
285138512,0,3998498,1002.32996,39.39
285237394,0,3998498,1002.26996,39.39
285336042,0,3998498,1002.26996,39.379997
285447109,0,3998498,1002.19,39.379997
285544047,0,3998498,1002.29,39.379997
285641043,0,3998498,1002.23,39.379997
285751047,0,3998498,1002.25,39.379997
285849508,0,3998498,1002.27997,39.379997
285948090,0,3998498,1002.23,39.379997
286036097,0,3998498,1002.24,39.379997
286157400,0,3998498,1002.25995,39.379997
286256064,0,3998498,1002.29,39.379997
286344043,0,3998498,1002.19995,39.379997
286454811,0,3998498,1002.29,39.379997
286563975,0,3998498,1002.22,39.37
286649374,0,3998498,1002.25,39.37
286759047,0,3998498,1002.24,39.37
286868045,0,3998498,1002.19995,39.37
286956042,0,3998498,1002.23,39.37
287065213,0,3998498,1002.24,39.37
287163704,0,3998498,1002.25995,39.379997
287262376,0,3998498,1002.20996,39.37
