timestamp,error_count,device_id,x,y,z,integral_dt,x_integral,y_integral,z_integral,temperature,scaling,x_raw,y_raw,z_raw
133189916,0,2360330,0.0007679006,0.00037468993,0.00028964906,4000,-6.6208377e-06,-5.135362e-06,-3.3974961e-06,47.986553,0.0010642195,-3,14,1
133289916,0,2360330,-0.00055878074,-0.0009788556,-4.9604594e-05,4000,1.4597786e-06,-3.4240875e-06,-1.7032672e-06,48.058437,0.0010642195,-4,14,0
133389916,0,2360330,-0.0006234969,-0.00091066916,0.000120883364,3955,-2.2063873e-07,-1.4388443e-05,2.0932591e-06,48.013508,0.0010642195,0,11,-1
133903516,0,2360330,-0.0005887247,0.0006162317,0.00059452764,3937,-5.291019e-06,-5.5671135e-06,-5.8450037e-06,48.03148,0.0010642195,-3,14,0
134003541,0,2360330,-0.0003856225,-0.00093772827,-0.0005980375,4025,-5.7602865e-06,-1.7204429e-06,-4.7176254e-06,48.040466,0.0010642195,-5,13,1
134106723,0,2360330,6.620881e-05,0.00023163862,0.0003370742,4007,5.3082185e-06,5.096435e-06,-3.816475e-06,48.028484,0.0010642195,-4,12,1
134206749,0,2360330,0.0017386547,0.000885905,-0.0018622037,4033,3.6223491e-06,2.9424928e-06,-1.3297663e-05,48.034477,0.0010642195,-3,12,2
134306716,0,2360330,0.00025115415,0.0009395309,0.0014485822,3983,-2.7940787e-06,-2.5751547e-06,-1.2726085e-06,48.00153,0.0010642195,-4,14,-1
134409934,0,2360330,-0.0008801196,-3.4256755e-05,0.00044831118,4018,2.7372705e-06,4.687381e-06,2.3678073e-08,48.05245,0.0010642195,-4,14,0
134509129,0,2360330,-0.0006064274,-0.0011608724,-0.0003035998,3213,2.9750577e-06,-4.46435e-06,5.22089e-06,48.022495,0.0010642195,-4,12,-2
134613118,0,2360330,0.0009741219,0.00074074435,-0.0004354619,3996,9.53563e-06,1.2113654e-06,-2.0864936e-06,48.022495,0.0010642195,-4,11,0
134713116,0,2360330,0.0012088527,-0.0007190353,0.0018175191,3993,3.1654936e-06,-5.547588e-06,2.1329113e-06,48.034477,0.0010642195,-4,14,-1
134816316,0,2360330,-0.00016896342,-0.00021778057,-2.1581232e-05,3951,2.358514e-06,1.3186134e-06,2.5145732e-06,48.040466,0.0010642195,-5,13,0
134916316,0,2360330,0.0005775753,-0.00023879742,0.0008064237,3988,4.438593e-06,3.8026817e-06,1.7306302e-06,48.022495,0.0010642195,-4,13,-1
135019516,0,2360330,-0.0012608751,0.00011767275,-0.00021868944,3998,6.211839e-07,-3.857107e-06,-4.1800712e-07,48.010513,0.0010642195,-3,13,0
135119516,0,2360330,0.0009847281,0.00088908034,-6.9684924e-05,3992,6.9825933e-06,-1.7352306e-06,9.786349e-06,48.004524,0.0010642195,-3,11,-4
135219550,0,2360330,8.596053e-05,0.00017415785,-0.00012751692,4034,4.862963e-06,-4.737775e-06,1.7284818e-06,48.016506,0.0010642195,-2,12,-2
135322716,0,2360330,0.0013488368,0.0012177542,-0.002167363,4000,4.0229534e-06,8.9650275e-06,-8.081125e-06,48.00153,0.0010642195,-5,13,1
135422716,0,2360330,0.0010405408,-0.0009538663,-0.00028356627,4000,1.8934462e-06,-5.986196e-06,-2.5466645e-06,48.073414,0.0010642195,-2,13,0
135525957,0,2360330,0.00019743246,0.0010713589,-6.161111e-05,4037,-1.5221024e-06,2.9784362e-06,-1.2473904e-06,48.02549,0.0010642195,-5,13,-1
135625923,0,2360330,0.00036112883,-0.00014508003,0.00018085122,3998,-3.2350204e-06,-5.1437437e-06,-1.6785826e-06,48.07042,0.0010642195,-2,15,-1
135729116,0,2360330,-0.0012819895,0.00016813313,-0.0012507136,3993,-4.0445957e-06,-8.67145e-07,-3.820328e-06,48.03148,0.0010642195,-3,15,-1
135829116,0,2360330,-0.00023597808,-0.001143536,0.01814641,3957,-4.0736863e-06,8.425052e-06,7.492238e-05,48.073414,0.0010642195,-6,15,-18
135932396,0,2360330,-0.0008154018,-0.002403231,-0.022274202,4080,1.767722e-06,-8.90991e-06,-8.293873e-05,48.07042,0.0010642195,-8,17,19
136032332,0,2360330,-0.0041480684,0.007750801,0.018258601,4009,-0.0001262219,-1.32527e-06,2.2943954e-05,48.07042,0.0010642195,-9,41,-2
136135557,0,2360330,-0.009467752,0.017618595,0.011128592,3996,5.005756e-05,0.00022504701,8.278707e-05,48.07042,0.0010642195,-8,-36,-6
136239532,0,2360330,0.009469464,-0.013609217,-0.0027479753,4016,-7.911748e-05,6.481537e-05,3.6775105e-05,48.046455,0.0010642195,-54,-7,-18
136339522,0,2360330,0.0273156,0.017657558,0.005794502,3989,-7.9374395e-06,0.00037977417,-5.3065352e-05,48.097374,0.0010642195,-61,86,24
136442733,0,2360330,0.0058208425,-0.018063385,0.0005558516,4017,0.00036803525,0.00017214281,-2.0162963e-05,48.079403,0.0010642195,-242,-97,53
136542716,0,2360330,0.045846403,0.102845296,0.007745647,4000,0.0002066214,0.0007234707,4.157116e-06,48.082397,0.0010642195,-48,0,15
136645916,0,2360330,-0.02730202,0.20360337,0.040170547,3991,-0.00011223339,0.00079666974,0.00017811503,48.10037,0.0010642195,-259,-297,-39
136745916,0,2360330,-0.032196555,-0.124994814,0.04733778,3974,-0.0011650848,-0.00110473,0.0003448498,48.055443,0.0010642195,120,196,-58
136849116,0,2360330,-0.025020542,0.014156828,0.06233061,3985,0.0009906635,0.00072547107,0.00016809664,48.07042,0.0010642195,-197,-242,-24
136949116,0,2360330,-0.055606786,-0.06311942,0.040050592,3957,4.43117e-05,-0.00011055574,0.00018424082,48.085392,0.0010642195,31,101,-39
137052354,0,2360330,0.021291627,0.025418855,0.02360915,3238,-0.00032239285,-0.00013244874,4.1643398e-05,48.07641,0.0010642195,-14,-34,-9
137152328,0,2360330,-0.019032106,-0.07014835,-0.004261992,3981,-0.00032959195,-0.00056539726,-3.3708995e-05,48.06742,0.0010642195,119,85,16
137255545,0,2360330,0.06091806,0.056232322,-0.008667844,3217,0.00060323894,0.0009837204,-5.1447287e-06,48.079403,0.0010642195,-242,-46,4
137359516,0,2360330,0.047960516,0.034768462,-0.016377807,3994,0.00072380586,0.0006102069,-0.00017418031,48.10636,0.0010642195,-78,-45,22
137459516,0,2360330,-0.06893742,-0.0713646,0.001333755,3994,0.00014766156,-0.0010364527,-6.2404164e-05,48.10636,0.0010642195,68,-60,35
137562716,0,2360330,0.060843043,0.004021594,-0.017879657,3950,-0.00024010238,0.0003541117,-2.9340921e-05,48.10037,0.0010642195,-12,175,-32
137662733,0,2360330,0.009953111,0.11604572,-0.018229898,4017,-9.7352444e-05,-9.0619586e-05,-3.9428873e-05,48.13032,0.0010642195,133,40,16
137766774,0,2360330,0.08802056,0.005890023,-0.036867682,4058,-0.00033977165,0.00046256543,-7.2185403e-06,48.11834,0.0010642195,-45,165,2
137865916,0,2360330,-0.07998056,-0.038690742,-0.02698274,4000,-7.6850454e-05,-5.984445e-05,-6.895627e-05,48.091385,0.0010642195,-172,-47,15
137969916,0,2360330,0.0691218,0.023850638,-0.014283515,4000,0.00026026418,0.00050888484,-7.5247e-05,48.11235,0.0010642195,-122,38,-39
138069154,0,2360330,-0.035430025,-0.020002631,-0.016548926,3995,0.00017875193,-0.00039030053,-0.00010104249,48.091385,0.0010642195,-99,-273,82
138172350,0,2360330,-0.074985236,-0.07892883,-0.02799823,3227,0.00021936717,-8.7996734e-05,-0.00012344017,48.11235,0.0010642195,70,9,61
138272332,0,2360330,0.0071317707,0.0012536402,-0.022186745,4016,-0.00027853734,0.00027717664,-2.7252232e-05,48.127327,0.0010642195,-60,177,8
139293116,0,2360330,-0.03084798,0.007762881,-0.003232555,4000,0.00044306213,0.00037759115,-0.0002183186,48.19921,0.0010642195,-43,195,17
139392327,0,2360330,0.03246662,-0.118504524,0.0038616746,3993,-0.00036243454,-9.537682e-05,1.4011177e-05,48.160275,0.0010642195,-14,182,-13
139496371,0,2360330,0.041712206,0.037101515,0.011190259,4043,3.9932565e-05,0.00028656173,7.1589246e-05,48.160275,0.0010642195,-40,51,-16
139595516,0,2360330,0.008566948,0.052568793,0.0011658573,4000,-0.00072724925,-0.00025707838,6.580316e-05,48.196217,0.0010642195,42,176,-28
139699516,0,2360330,0.03731989,-0.10314355,-0.004221814,3983,0.00096685515,-0.00019952626,-0.00011932687,48.208195,0.0010642195,-5,-266,66
139798722,0,2360330,-0.06518937,0.057764914,0.001880566,4006,-5.5681743e-05,-0.00077708677,2.1770771e-05,48.196217,0.0010642195,79,-124,44
139902716,0,2360330,0.16914536,0.008087536,-0.009599019,3994,0.0015177795,0.00019799355,-0.00011825149,48.196217,0.0010642195,-205,-482,54
140002716,0,2360330,-0.2277325,0.046580363,-0.013763785,4000,-0.0006267397,-8.869733e-05,-4.4656153e-05,48.18124,0.0010642195,-76,112,33
140101923,0,2360330,0.02867742,-0.09341651,-0.011278649,4007,0.0009587606,0.00033672637,-8.091811e-05,48.208195,0.0010642195,-13,-236,23
140205949,0,2360330,0.0486679,-0.029229611,-0.022996286,4027,0.0009847888,0.00062690873,-0.00024703392,48.172253,0.0010642195,-119,12,31
140309116,0,2360330,-0.025459984,-0.034874365,-0.022125458,3953,0.001095117,0.00055263087,-0.00030423116,48.16926,0.0010642195,-212,-93,82
140413148,0,2360330,0.028056439,0.007944373,-0.007612452,4032,0.0014372224,0.0005945387,-0.00021355062,48.16327,0.0010642195,-188,-222,48
140512362,0,2360330,-0.07361813,-0.005621721,-0.007814335,4043,0.0005202829,-0.00013644314,-0.000103943225,48.190224,0.0010642195,-28,-247,64
140616316,0,2360330,0.038497206,0.03088341,-0.008887824,3988,-0.00046748965,-6.259402e-05,6.548619e-05,48.208195,0.0010642195,155,266,-40
140714754,0,2360330,-0.03374547,-0.017180732,-0.004805422,3238,0.00047934183,0.00025979945,-0.00011997564,48.235153,0.0010642195,-184,-159,52
140819516,0,2360330,0.077658854,0.015958881,0.018793976,3979,0.0010171398,0.0003263939,1.8160714e-05,48.226166,0.0010642195,82,-140,16
140923516,0,2360330,-0.046478555,0.01605342,0.01262662,4000,-0.00079960073,-0.0004740748,6.425505e-05,48.19921,0.0010642195,79,398,-41
141022733,0,2360330,-0.018819008,-0.07668407,0.021644523,4017,0.0002727589,0.00040156033,-4.577488e-05,48.21119,0.0010642195,-27,42,-24
141126758,0,2360330,0.076396525,0.020036066,0.021641433,4042,0.00021710167,0.0004962065,6.6290726e-05,48.214188,0.0010642195,-95,209,-57
141229916,0,2360330,0.056897096,0.064190306,0.020908972,3954,6.2007115e-05,0.00013226691,9.618838e-05,48.262108,0.0010642195,55,-128,-20
141329916,0,2360330,0.03196003,-0.039757904,0.013286451,4000,0.00046364727,0.00010134482,0.00011486847,48.22916,0.0010642195,-93,-172,-27
141429135,0,2360330,-0.005462314,-0.020782545,0.005302263,3970,0.0003458739,-0.00030017295,-2.8530669e-05,48.265102,0.0010642195,172,128,17
141533123,0,2360330,-0.04069832,0.045062214,0.0042395373,3956,-0.00049167033,-0.00020062254,0.00011615475,48.24713,0.0010642195,99,43,-1
141632328,0,2360330,0.0858495,0.041794155,0.0035186936,4005,0.00035868603,0.00015988175,7.678713e-06,48.208195,0.0010642195,60,31,-4
141736326,0,2360330,0.056248333,-0.0725782,-0.012351622,3998,-0.0003838073,0.00015105985,-6.0670423e-05,48.2681,0.0010642195,-63,150,9
141835516,0,2360330,-0.051401265,0.076008536,0.01342876,3975,-0.00039503197,-0.00040356023,0.00011353574,48.238148,0.0010642195,88,31,-21
141939527,0,2360330,0.048477158,-0.05310132,0.008073231,4011,0.00036538288,0.0004012068,-1.3060465e-05,48.265102,0.0010642195,-84,257,-71
142043516,0,2360330,-0.046806876,-0.07942104,0.001223695,4000,-0.00020550404,-7.4428e-05,-3.7711423e-05,48.27409,0.0010642195,-49,-84,-8
142142716,0,2360330,0.09277974,0.07042402,-0.008878339,4000,-2.7881099e-05,0.00044798438,6.350356e-06,48.259113,0.0010642195,-78,133,-36
142246716,0,2360330,0.014169846,-0.010858482,-0.016637336,3994,3.2188527e-05,-9.235047e-05,2.1251535e-05,48.28008,0.0010642195,-193,-168,19
142346716,0,2360330,-0.041021988,-0.08505896,-0.053376444,3950,-0.0003682852,0.0005531529,-0.00025181804,48.25612,0.0010642195,-120,321,-9
142449916,0,2360330,-0.09585756,0.050371714,-0.04066179,3989,0.00030492063,0.0005393093,-0.00023228803,48.262108,0.0010642195,-188,12,24
142549116,0,2360330,0.21624155,-0.041098952,-0.33550677,3982,0.0003986598,-0.0003614323,-0.0013028844,48.27409,0.0010642195,159,-78,317
142653131,0,2360330,-0.10966891,0.059390485,-0.38266248,4015,-0.0011478893,-0.00016658424,-0.0015641181,48.24713,0.0010642195,47,205,346
142753215,0,2360330,0.048640262,-0.021097776,-0.45802173,4099,0.0003144741,0.000531564,-0.0019624017,48.25612,0.0010642195,-97,-126,429
142856316,0,2360330,0.040609013,0.053325474,-0.6566679,3988,0.0005278687,0.0005693252,-0.0024986018,48.29805,0.0010642195,-162,-86,571
142956322,0,2360330,-0.037864164,0.076155186,-0.6925223,3994,0.00034199003,6.800788e-05,-0.0026883627,48.27409,0.0010642195,-99,-92,644
143060316,0,2360330,0.019851716,-0.012269462,-0.72078913,3969,-6.704939e-05,-0.00041662098,-0.0027591144,48.28008,0.0010642195,55,-119,674
143163546,0,2360330,0.020561926,0.21013717,-0.7348844,4008,0.00026708955,0.0010114902,-0.0030517995,48.29805,0.0010642195,-106,86,715
143262716,0,2360330,0.030676054,-0.03333125,-0.89321965,3986,0.00026450495,-0.00011741956,-0.0036673879,48.295055,0.0010642195,206,-10,880
143366716,0,2360330,-0.090837486,-0.01693783,-1.1394073,4000,0.0003022235,-2.1040896e-05,-0.0046639545,48.262108,0.0010642195,-56,-253,1079
143465917,0,2360330,0.030626502,0.10410942,-1.388153,3990,-4.3089498e-05,0.00040396018,-0.0056102388,48.322014,0.0010642195,-12,147,1331
143569922,0,2360330,0.055235047,-0.102715276,-1.232965,3984,-0.0004305367,-0.00065221096,-0.0048134024,48.265102,0.0010642195,170,84,1126
143669916,0,2360330,0.11898152,0.018709699,-0.7851836,4000,0.0011392606,0.0011443809,-0.0030326538,48.29206,0.0010642195,-277,-217,684
143773165,0,2360330,0.026834289,-0.11746901,-0.24553171,4014,0.00086577114,-0.00029550245,-0.001023029,48.307037,0.0010642195,126,-50,225
143873116,0,2360330,-0.105096735,0.02747957,-0.0387434,3951,-0.0011070048,0.000450419,-2.3495735e-05,48.32501,0.0010642195,37,245,19
143976316,0,2360330,-0.14391212,-0.043986414,0.0783881,3980,-0.000850009,-0.0004576604,0.0002820555,48.32501,0.0010642195,30,21,-70
144076316,0,2360330,0.08146086,-0.10892851,0.12554416,3978,0.0005154875,-0.00070890714,0.0004637502,48.32501,0.0010642195,22,-158,-108
144179516,0,2360330,-0.00540668,-0.0055389833,0.13598077,4000,-0.0008720096,-0.00017203076,0.0006751855,48.357956,0.0010642195,103,130,-126
144279516,0,2360330,-0.05491168,0.043841336,0.12721208,4000,0.00088646635,-1.8711029e-05,0.00023374056,48.339985,0.0010642195,-57,-253,-42
144382741,0,2360330,-0.008739753,-0.06771313,0.12915966,4025,0.00053221063,-0.00087332685,0.00046816957,48.313026,0.0010642195,73,-222,-86
144486736,0,2360330,-0.14006583,0.012737484,0.103457056,3974,0.00020412692,0.00010468638,0.0002592246,48.328003,0.0010642195,-52,-2,-18
144589159,0,2360330,-0.07247463,-0.024235724,0.06918101,3235,-0.0005376554,-5.9612026e-05,0.00030098262,48.351963,0.0010642195,-8,-105,-69
144689916,0,2360330,0.05015628,0.05751107,0.04966452,3996,0.0005587264,0.00031969702,0.00019623907,48.351963,0.0010642195,81,118,-26
144792377,0,2360330,0.012890878,0.007886982,0.033906292,3242,-0.0004025518,-0.00052383344,0.00021368694,48.319016,0.0010642195,187,-204,-4
144897164,0,2360330,0.06843515,-0.051633455,0.026695991,4010,0.0008864046,-0.0004840884,2.6627724e-06,48.339985,0.0010642195,49,-277,15
144997122,0,2360330,-0.0005669565,-0.048812643,0.0060547595,4004,-0.00067183183,-0.0008012027,8.237744e-05,48.345974,0.0010642195,245,79,22
145100318,0,2360330,-0.014541884,0.07206288,0.0012326713,3995,0.00057319104,0.0008966025,-3.730621e-05,48.372932,0.0010642195,-245,-77,-31
145200316,0,2360330,-0.010005189,-0.029664569,-0.010045335,3973,-0.0014760636,0.0006023882,0.00022259064,48.339985,0.0010642195,-109,475,-98
145303541,0,2360330,-0.011975546,0.012223557,0.0006868227,4025,0.0006096885,0.00050033024,2.191701e-06,48.363945,0.0010642195,-186,-35,-21
145403516,0,2360330,0.06662994,-0.016081447,-0.0006397077,3994,-0.000107245796,-3.47735e-05,-5.4277007e-05,48.35496,0.0010642195,54,-96,19
145503525,0,2360330,-0.05771539,0.0210373,-0.0002527174,4009,0.0002169914,0.0005176102,-0.00013981877,48.34897,0.0010642195,-50,81,-1
145606731,0,2360330,0.10630429,-0.12672482,-0.0031207693,4015,-0.00024719574,-0.0009943823,0.00011653869,48.34897,0.0010642195,335,77,-59
145706716,0,2360330,-0.0060619484,0.1253488,0.002571626,3999,-0.00069040625,-0.00046072446,0.00010605065,48.381916,0.0010642195,174,9,-13
145809922,0,2360330,-0.0046249162,-0.05053714,0.0054766177,3999,0.0004724238,0.00032458198,-1.4124781e-05,48.37892,0.0010642195,-97,-40,-14
145909916,0,2360330,0.025590647,0.13032971,0.012678147,4000,-0.00033738214,0.0002191989,5.8749913e-05,48.387905,0.0010642195,-58,82,-30
146013116,0,2360330,-0.074004225,-0.12901466,-0.006061445,4000,0.0003136446,-0.0003938476,-4.2550655e-05,48.381916,0.0010642195,108,35,8
146117116,0,2360330,0.008281887,-0.08671002,-0.0007316628,3976,0.0005212502,-0.00028913625,6.158727e-06,48.381916,0.0010642195,-51,-217,-16
146220316,0,2360330,0.04443662,0.08250647,-0.007797593,4000,0.0005267291,-2.5007581e-05,-0.00011946181,48.399887,0.0010642195,-51,-220,49
146324322,0,2360330,-0.0053459154,-0.07860969,-0.0188423,4006,-0.00033545814,-0.00060876115,-0.0002149429,48.399887,0.0010642195,197,200,-4
146427561,0,2360330,0.09816229,0.030699609,-0.015064104,4038,0.00087726634,0.00041565433,-5.7793826e-05,48.37892,0.0010642195,-134,-114,7
146527516,0,2360330,-0.03136535,0.024402214,-0.01658449,4000,-5.651389e-05,-6.290049e-06,-0.00015970535,48.399887,0.0010642195,71,219,8
146626716,0,2360330,-0.02119394,-0.030098736,-0.015332523,4001,-0.0005722378,-0.00034696114,-7.1289185e-05,48.420853,0.0010642195,43,171,3
146730716,0,2360330,0.027168669,-0.009596936,-0.008197878,4000,0.00020325376,0.00011660163,-4.473421e-05,48.43583,0.0010642195,6,92,-15
146830716,0,2360330,0.024295108,0.10605568,-0.0067249704,3994,-0.0003765544,0.00033021613,-3.6809517e-05,48.426846,0.0010642195,-263,137,-7
146933916,0,2360330,-0.06744197,-0.0005930544,0.0024595414,4000,-0.0001423649,-0.00015140187,0.00012484954,48.432835,0.0010642195,-74,3,-56
147033916,0,2360330,-0.10720277,-0.13344923,-0.007669599,4000,-0.00045117663,-0.0007043343,-0.00010866241,48.423847,0.0010642195,200,31,13
147137160,0,2360330,-0.011058039,0.004423877,0.007382542,4043,0.00035723354,-0.00018035443,5.4210515e-05,48.423847,0.0010642195,145,139,-10
147237116,0,2360330,-0.043037508,-0.014913012,0.02042445,4000,-0.00019520622,-0.00035545905,0.0002090431,48.45979,0.0010642195,76,48,-108
147340327,0,2360330,0.108004354,-0.016596245,0.013887293,4001,0.0006527597,-0.00023361314,0.000108911845,48.489742,0.0010642195,79,-8,-9
147440334,0,2360330,-0.008979531,0.010186152,0.0033279643,4018,0.00072326197,0.00027772327,-5.0196004e-06,48.43583,0.0010642195,-110,-289,21
147540316,0,2360330,-0.07048875,0.01034062,0.004338597,3985,-0.00037238412,-0.0008242168,6.727836e-05,48.444817,0.0010642195,260,-358,44
147643516,0,2360330,-0.07668439,0.049522627,-0.011116416,3990,0.00023129776,0.00053760665,1.626002e-05,48.456795,0.0010642195,-227,-218,34
147743516,0,2360330,-0.09440739,-0.008770309,-0.02011245,3981,0.00047490245,0.0007216275,-0.00011966964,48.4538,0.0010642195,-39,-173,85
147846735,0,2360330,0.053286742,-0.021312078,-0.02724208,4019,-0.0009578932,-0.0008490881,-1.8493454e-06,48.47177,0.0010642195,315,254,-2
147946725,0,2360330,0.056596123,-0.03609319,-0.0270757,4003,-0.0006169378,0.00028841157,-2.9000694e-06,48.462788,0.0010642195,-87,207,-39
148049920,0,2360330,-0.0073289974,0.05993862,-0.014402737,4004,0.0008156584,9.304911e-05,-0.00019911185,48.4538,0.0010642195,-15,-2,44
148149916,0,2360330,0.024002295,0.07587618,-0.013957442,3994,-0.00056152354,0.0005789304,-6.842071e-05,48.47776,0.0010642195,-204,251,18
148253144,0,2360330,-0.11677038,-0.13225664,-0.0055966284,4028,-0.00062833267,-0.0008593179,6.7253077e-06,48.465782,0.0010642195,183,40,19
148353116,0,2360330,-0.016740277,0.054435886,-0.0150476815,4000,-0.0008564369,-0.00025815275,5.9976428e-05,48.4538,0.0010642195,-57,49,-15
148456316,0,2360330,-0.067769416,-0.025710348,-0.020381326,3988,-0.0005313562,-0.0010390792,2.4732606e-05,48.489742,0.0010642195,231,-10,-6
148556316,0,2360330,0.083936915,0.0027259612,-0.055473387,3951,0.00038273158,-0.00014451344,-0.00021448811,48.456795,0.0010642195,22,119,40
148660327,0,2360330,0.04575498,0.0023778237,-0.014752907,3998,0.0001455884,-4.9731017e-05,-7.427651e-05,48.483753,0.0010642195,-20,59,2
148759516,0,2360330,-0.11156742,4.3036343e-05,-0.020515807,3993,-8.625717e-05,0.00053964875,-0.000112473106,48.510708,0.0010642195,-114,-77,37
148859516,0,2360330,-0.025469894,-0.011943202,-0.012923047,4000,0.0008215862,0.00025080398,-0.00017395878,48.543655,0.0010642195,2,-48,41
148962716,0,2360330,-0.045111895,-0.11206866,-0.01572792,4000,-0.0009065121,-0.0011898329,-3.3637745e-05,48.510708,0.0010642195,117,157,23
149062716,0,2360330,0.02692898,0.11957774,0.0039568054,3989,0.00049537205,0.00066844915,3.3159227e-05,48.49573,0.0010642195,-14,26,-10
149165927,0,2360330,-0.08528924,-0.0443166,0.008686153,4011,0.00032085713,0.00014574602,1.3324013e-05,48.52868,0.0010642195,11,-69,-22
149269917,0,2360330,-0.032674685,-0.061238848,-0.00037848495,4001,-0.0010788528,-0.00046583315,-3.4076194e-05,48.543655,0.0010642195,123,196,1
149373129,0,2360330,0.06407134,-0.033639297,0.00033523844,4007,2.2270708e-05,1.4415762e-05,0.00010893556,48.513702,0.0010642195,-21,174,-10
149473141,0,2360330,-0.05956308,0.042643875,0.016704075,4001,-0.00049057475,-2.6028938e-05,5.581987e-05,48.53467,0.0010642195,52,136,18
149573119,0,2360330,-0.14169131,0.052780326,0.00949868,4003,0.00027942815,0.0005184772,3.1137347e-06,48.582592,0.0010642195,-164,-110,-46
149676316,0,2360330,0.0027530242,-0.069327496,0.015448694,3969,0.00038860863,8.439773e-05,0.00013584348,48.513702,0.0010642195,-26,-75,-56
149778778,0,2360330,0.03432585,-0.1608295,0.018496938,3244,0.00031899815,-0.00037627018,9.032018e-05,48.53467,0.0010642195,200,107,-4
149879569,0,2360330,-0.09239382,-0.10403641,0.009674508,4007,-6.113934e-05,-0.00025652224,7.0739305e-05,48.54066,0.0010642195,42,69,-17
149983537,0,2360330,-0.16297325,-0.08309886,0.0145436935,4016,-0.0010812371,-0.0004485704,-5.0310005e-06,48.552643,0.0010642195,75,248,-40
150082723,0,2360330,-0.08420538,0.04043582,0.008792965,4006,-0.0005991448,-0.00012830831,-2.2404889e-05,48.570614,0.0010642195,49,113,-30
150182741,0,2360330,-0.06645631,0.022582661,0.014353208,4007,-0.00060691696,-3.6307185e-05,3.6942445e-05,48.549644,0.0010642195,87,187,26
150285925,0,2360330,-0.03814006,-0.051107246,-0.014673151,4009,-0.00034742538,-0.00043853096,-6.2989544e-05,48.53467,0.0010642195,132,-2,6
150385916,0,2360330,-0.06860105,-0.02255684,-0.017255466,4000,-0.0007152443,-0.0003228641,3.8148864e-05,48.537666,0.0010642195,126,188,-6
150489116,0,2360330,0.12479628,0.04478628,-0.008604151,3975,0.0006964825,0.00037751955,5.3569776e-05,48.525684,0.0010642195,-31,-36,-11
150589116,0,2360330,-0.009228428,-0.04543565,0.0015797461,3972,-0.0002771275,-0.00029026525,-5.0898252e-05,48.567616,0.0010642195,120,-9,19
150692327,0,2360330,0.03707276,-0.0057467604,0.0046921032,3999,-0.00023370677,4.0633207e-05,8.993853e-06,48.55863,0.0010642195,-114,-11,-4
150792327,0,2360330,0.0010833831,-0.038681373,0.007624713,4011,-0.00013483322,-4.3419946e-05,-2.9467907e-05,48.54066,0.0010642195,-100,-46,-2
150895515,0,2360330,0.051463116,-0.06624304,0.010300739,3999,0.00015629399,-0.00031463898,-3.791599e-05,48.54665,0.0010642195,14,-159,22
150995516,0,2360330,-0.067712665,-0.045998715,0.01654255,3945,-0.00028248446,-0.00013325333,0.00012891756,48.54066,0.0010642195,28,105,-12
151095516,0,2360330,0.017395435,-0.0200276,0.006078155,3999,0.00036939204,0.00030295193,3.4415276e-05,48.54665,0.0010642195,-84,-75,-21
151198762,0,2360330,0.12872057,0.029767014,-0.00046171778,4041,0.0005724005,8.253219e-05,-2.5128204e-05,48.576603,0.0010642195,-44,1,0
151302716,0,2360330,-0.024638986,-0.07354992,-0.008963407,3989,0.0004424964,-0.00016654168,-2.9845954e-05,48.555637,0.0010642195,112,-60,-13
151405916,0,2360330,0.012180827,0.041701976,0.008571007,4000,-0.0001492232,3.2322016e-05,-3.874124e-05,48.579597,0.0010642195,-89,-122,-3
151505937,0,2360330,-0.041442774,-0.026810616,4.5740835e-06,4010,0.00012559192,-0.00013711653,7.751556e-05,48.561626,0.0010642195,34,62,-30
151609125,0,2360330,0.043579455,0.047842793,0.0070693954,4009,0.00044514574,0.00022986153,9.905251e-05,48.585587,0.0010642195,-33,-66,-52
151709116,0,2360330,-0.03781195,-0.07349892,-0.0048847343,4000,0.00020687007,-9.698401e-05,-9.3095245e-05,48.588585,0.0010642195,7,-77,-9
151813172,0,2360330,0.15346415,-0.036991645,0.0032480278,4798,0.0012965117,-0.00032159823,-0.00013763053,48.57361,0.0010642195,-46,-275,64
151912362,0,2360330,0.12745094,-0.005630123,-0.01005138,4046,0.00064910133,-0.00031270934,-5.259446e-05,48.55863,0.0010642195,222,-43,-7
152015549,0,2360330,0.020341024,-0.07507787,-0.009833099,3221,0.00039450367,-0.00032612993,-6.7667315e-05,48.567616,0.0010642195,105,-119,19
152115516,0,2360330,0.026440794,-0.06883381,-0.015958907,4000,2.5951276e-05,-0.00026758105,-8.813662e-05,48.594574,0.0010642195,86,44,19
152215516,0,2360330,-0.060913153,-0.036519695,-0.019993976,3979,-0.00023912515,-0.00024864014,-7.914948e-05,48.585587,0.0010642195,42,51,24
152318718,0,2360330,-0.09334019,0.009768556,-0.022703677,3995,-0.0003110955,0.0001995637,-8.592905e-05,48.579597,0.0010642195,-43,89,19
152422716,0,2360330,-0.09839518,0.27717027,-0.002021176,4000,-0.00035567387,0.0016431303,1.8343968e-05,48.582592,0.0010642195,-363,137,-10
152525922,0,2360330,-0.11724176,0.090326,0.014848117,4006,-0.0006314402,0.00039802562,0.00011695421,48.59757,0.0010642195,-151,117,-22
152625922,0,2360330,-0.006919672,-0.026954202,0.008982286,4006,-0.00021166488,0.00042617615,1.885674e-06,48.60955,0.0010642195,-48,189,-42
152729116,0,2360330,0.04047689,0.06375339,0.0146173425,4000,-0.00019411338,0.00017462224,0.00014346113,48.624527,0.0010642195,82,125,-67
152829122,0,2360330,-0.045420006,0.24638496,0.045851905,3998,-0.00012677595,0.0008774244,1.9434447e-06,48.579597,0.0010642195,-258,-32,-9
152932327,0,2360330,0.0763439,-0.42343262,0.022837799,3998,-9.471546e-05,-0.001772208,0.00010736884,48.63351,0.0010642195,457,-164,-5
153032327,0,2360330,-0.012088546,-0.19689077,0.009803589,4005,0.00040112194,-0.00035263732,-8.639396e-05,48.630516,0.0010642195,-27,-98,10
153135557,0,2360330,-0.03645095,0.46005225,-0.001147307,3230,1.1443055e-05,0.0010446976,4.8205315e-05,48.669453,0.0010642195,-379,-6,-11
153235516,0,2360330,-0.018046653,-0.055737857,-0.0072571826,3999,0.00028618446,0.0004543391,-7.100956e-05,48.612545,0.0010642195,-350,26,-13
153335516,0,2360330,0.12400297,0.043473605,0.015190991,4000,-1.8380568e-05,-9.889552e-06,0.00018763391,48.681435,0.0010642195,47,179,-63
153438716,0,2360330,-0.043632247,0.076450296,0.002153636,4000,0.00027073917,0.0006819834,-4.1179534e-05,48.642498,0.0010642195,-203,-187,3
153538736,0,2360330,0.013013271,-0.030615965,-0.00419719,4020,0.0003100971,0.00022972468,-3.40303e-05,48.6395,0.0010642195,-187,-34,21
153642766,0,2360330,0.0038779194,-0.024084853,-0.012197078,4050,-0.000738768,-0.0003507107,-4.0782186e-05,48.6395,0.0010642195,193,353,-41
153741923,0,2360330,-0.128119,-0.03761724,-0.020004565,4007,0.00042718614,-0.00013960511,-0.0003128704,48.681435,0.0010642195,-63,-19,91
153845116,0,2360330,0.10021748,-0.016135449,0.0043594963,3982,0.0009328407,0.00028815022,-4.3329772e-05,48.648487,0.0010642195,-225,-255,10
153945121,0,2360330,-0.106481686,-0.13440514,-0.0020815637,3955,-0.0006879409,-0.0010212621,6.258133e-05,48.648487,0.0010642195,245,104,33
154049116,0,2360330,0.01759803,0.114768185,-0.0020779946,3996,0.0010924818,0.001580441,-4.9747752e-05,48.681435,0.0010642195,-413,-99,34
154148316,0,2360330,0.026247062,-0.08373821,-0.015268187,3994,-0.00018716142,-8.185394e-06,-1.7654607e-05,48.66047,0.0010642195,192,109,-3
154252327,0,2360330,-0.05026978,0.066820204,-0.0037444076,4011,-0.000347845,0.0010794104,-9.075925e-05,48.70839,0.0010642195,-257,271,-23
154351516,0,2360330,-0.04233209,0.014450985,-0.0064598117,4000,-7.027683e-05,0.00016783342,-7.039552e-06,48.69641,0.0010642195,-286,-152,24
154455547,0,2360330,0.032675628,0.036510855,0.011866477,4031,0.0004354458,-0.00047218637,6.02659e-05,48.693413,0.0010642195,-5,-442,17
154554716,0,2360330,-0.057429247,-0.112847045,-0.018223276,4000,-1.8613111e-05,0.00017049728,-0.00013500836,48.68443,0.0010642195,43,267,13
154658762,0,2360330,0.052610967,0.11124031,-0.010935302,4046,0.00045385933,0.0008247295,-9.351554e-05,48.672447,0.0010642195,6,-22,-2
154757929,0,2360330,0.12150257,0.02454443,0.010196084,4013,-0.0005040957,-0.00029890775,0.00021240834,48.693413,0.0010642195,131,18,-6
154861916,0,2360330,-0.18390478,-0.23029298,0.0021127488,3993,-0.0015991689,-0.0015437885,0.00011491186,48.70839,0.0010642195,311,302,-13
154961127,0,2360330,0.024616076,-1.3878,0.0041878377,4011,0.0004572326,-0.005961061,-6.524194e-05,48.705395,0.0010642195,1420,-120,21
155061146,0,2360330,0.13088511,-1.4457893,-0.008035928,4018,0.0009741323,-0.005400107,-7.277138e-05,48.693413,0.0010642195,1061,-249,11
155165116,0,2360330,-0.11624356,-0.4999219,-0.0038599973,4000,-0.00041797652,-0.0021832734,6.1162216e-05,48.723366,0.0010642195,500,-218,11
155264316,0,2360330,-0.12987113,-0.36281875,-0.016738534,3994,-0.000279909,-0.0016292677,-8.197727e-05,48.72636,0.0010642195,253,22,42
155368316,0,2360330,0.2753312,1.7083589,-0.011152009,3958,0.0016898258,0.0072480976,-7.304484e-05,48.72037,0.0010642195,-1885,-521,-21
155467516,0,2360330,2.3497875,1.4539877,-0.042031385,4000,0.010747585,0.005604331,-0.00028045778,48.759308,0.0010642195,-1213,-2322,65
155571540,0,2360330,1.7058092,0.544143,-0.069041684,3982,0.006503973,0.0027070595,-0.00018644087,48.768295,0.0010642195,-604,-1295,51
155674716,0,2360330,1.0013793,0.1473359,-0.08451712,3985,0.0044002263,0.001038001,-0.00036279912,48.75332,0.0010642195,-276,-881,41
155778716,0,2360330,0.19139098,0.110436335,-0.06737867,3999,0.0005399782,0.0006298593,-0.0003265125,48.7653,0.0010642195,-12,26,30
155877924,0,2360330,0.114464626,0.16182141,-0.05493219,3983,0.00043692286,0.0009939377,-0.0003278238,48.77129,0.0010642195,-95,73,50
155981916,0,2360330,-0.068241864,-0.13192242,-0.02471219,3950,-0.00063986593,-0.0004586147,-0.00010192665,48.774284,0.0010642195,-104,-29,23
156081116,0,2360330,-0.07840532,0.0049951146,-0.017781865,4000,-0.0013219645,-0.0007751354,8.782246e-06,48.735348,0.0010642195,197,406,7
156181164,0,2360330,-3.3040018,-0.007993897,-0.044275984,4048,-0.013537012,-0.00019604967,-0.00037203098,48.756313,0.0010642195,-6,3231,-13
156284316,0,2360330,-2.1896842,0.09832443,-0.057286434,3978,-0.0069834827,0.00019422815,-0.0003598872,48.78327,0.0010642195,-180,1568,103
156384316,0,2360330,0.20730591,-0.08055667,-0.03849894,3994,0.0010775478,-0.0002533146,-0.00029305104,48.750324,0.0010642195,27,-464,34
156488364,0,2360330,-0.3288544,1.5076593,-0.0658924,4048,-0.00083519745,0.006412417,-0.0003813443,48.786266,0.0010642195,-1348,345,2
156591516,0,2360330,0.42117828,2.6284342,-0.06867397,3994,0.0022561054,0.009942966,-0.0004346321,48.780273,0.0010642195,-2478,-552,44
156695516,0,2360330,0.16648257,0.23750652,-0.032694202,4000,0.00033432533,0.00040706006,-6.1054765e-05,48.75332,0.0010642195,-76,-137,-21
156794716,0,2360330,-0.028745756,0.7641598,-0.058431543,3997,0.00017315734,0.002891864,-0.00039902248,48.741337,0.0010642195,-563,210,97
156898780,0,2360330,-0.1450039,-0.6759574,-0.016083552,4064,-0.00022566742,-0.001869304,-7.744875e-05,48.798244,0.0010642195,349,95,-73
157001918,0,2360330,-0.32377687,-0.42087424,0.020439586,4002,-0.00069238927,-0.0021781628,-3.1197098e-05,48.786266,0.0010642195,420,271,-50
157105916,0,2360330,-0.068576574,-3.9210637,0.08780204,4000,9.481424e-05,-0.015140673,0.00015796309,48.78327,0.0010642195,3461,93,-66
157209116,0,2360330,1.7661593,0.15052381,0.07157708,4000,0.00871832,0.00058567984,0.00028718245,48.768295,0.0010642195,-356,-1880,-152
157313116,0,2360330,2.6349375,-0.39473504,0.02803298,3959,0.008802228,-0.002299485,0.00010933108,48.816216,0.0010642195,571,-2335,50
157416316,0,2360330,0.9188368,-0.14595953,0.0046840096,3982,0.0034537653,-0.00028490953,0.00012278892,48.798244,0.0010642195,424,-639,-17
157516316,0,2360330,0.42088464,-0.036473077,-0.0053763757,3982,0.0020686502,3.2890264e-05,-9.174968e-05,48.79525,0.0010642195,-108,-775,8
157618745,0,2360330,0.11661653,0.11370513,-0.013176184,3229,0.0008606156,0.00078644685,-0.00011232018,48.780273,0.0010642195,-99,-363,19
157719516,0,2360330,0.047794532,0.019075807,-0.021524133,4000,0.0009550786,0.00071292074,-1.8311111e-05,48.7653,0.0010642195,113,-157,23
157819529,0,2360330,-0.15472938,0.06520361,-0.029312132,4013,-8.652869e-05,0.00025506443,-0.00010335776,48.798244,0.0010642195,135,65,89
157922716,0,2360330,-2.714838,-0.18922274,-0.044716783,4000,-0.011129594,-0.00039341213,-0.00036776855,48.792255,0.0010642195,-86,2588,60
158022716,0,2360330,-2.228871,0.09813567,-0.03381791,4000,-0.009538621,0.00020434719,1.720841e-05,48.792255,0.0010642195,-10,2139,9
158125975,0,2360330,-0.6934522,-0.15680553,0.01732045,4059,-0.0035730004,-0.0012826172,4.2602323e-06,48.834187,0.0010642195,110,581,53
158225940,0,2360330,-0.24190423,0.014182489,0.06272466,4024,-0.0002331472,0.00014898404,8.438951e-05,48.780273,0.0010642195,-126,-109,-112
158329116,0,2360330,-0.18816835,0.02802464,0.083384566,3996,-0.0013118056,4.2700536e-05,0.0005102008,48.78926,0.0010642195,32,450,-69
158429124,0,2360330,0.022402821,0.02221853,0.082585484,4008,0.00027001108,-0.0001573794,0.00017656416,48.828197,0.0010642195,199,-330,-79
158532327,0,2360330,-0.05046409,0.0848071,0.063526064,3987,-0.0008290578,0.00064463174,0.0003918896,48.82221,0.0010642195,-176,520,-74
158632353,0,2360330,-0.3969452,-0.036609717,0.05978476,4026,-0.0020138281,-0.00043999995,0.0001629836,48.81322,0.0010642195,193,267,-40
158735530,0,2360330,-1.3974295,0.032787126,0.066116974,4014,-0.0060638986,2.8263776e-05,0.00036940255,48.834187,0.0010642195,-126,1390,-79
158835516,0,2360330,-0.6800595,0.20700432,0.07681142,4000,-0.0027070108,0.00038389384,0.00034703058,48.84617,0.0010642195,-76,586,-11
158939525,0,2360330,-0.25255945,-0.003443175,0.09367279,4009,-0.00015613777,-0.0006238529,0.00020243938,48.804237,0.0010642195,10,22,-59
159042716,0,2360330,-0.10751458,0.014213177,0.074180424,3950,-0.0012386901,-0.00046507968,0.00036552694,48.825203,0.0010642195,-51,353,-138
159146716,0,2360330,-0.0928183,0.062788025,0.056968633,4000,-5.1838797e-05,-0.00049923797,0.00013288195,48.873127,0.0010642195,92,-169,-28
159249930,0,2360330,0.0207857,-0.05317836,0.014201446,4014,0.000100748955,-0.0004770752,-2.2365673e-05,48.831192,0.0010642195,155,62,38
159349916,0,2360330,0.23547755,-0.18132453,-0.016248224,4000,0.0017056102,-0.0011437392,-0.0001769334,48.84018,0.0010642195,217,-430,-51
159452410,0,2360330,0.054587167,-0.051396254,-0.058958653,3269,0.00044624272,0.0003157566,-0.00020633858,48.87013,0.0010642195,-22,-282,31
159553129,0,2360330,0.22588064,-0.062339284,-0.09344458,4013,0.0005989352,-1.2945788e-05,-0.00031675235,48.861145,0.0010642195,-83,-60,96
159656316,0,2360330,0.20630647,0.07826768,-0.09427147,3988,0.001170517,0.0005857628,-0.000377785,48.87013,0.0010642195,-14,-274,130
159756316,0,2360330,0.5259513,0.021204535,-0.09694441,3974,0.0020065713,-0.0001682686,-0.0003047665,48.861145,0.0010642195,343,-443,36
159856316,0,2360330,1.2627386,-0.049885433,-0.10257353,3988,0.0054271896,9.399583e-05,-0.00024850862,48.891098,0.0010642195,-192,-903,75
159963516,0,2360330,0.24090362,0.08890322,-0.09300154,3980,0.0010957395,0.00052780897,-0.00032321198,48.867134,0.0010642195,-109,67,74
160062716,0,2360330,0.2460335,-0.06171774,-0.083199106,4000,0.0008223683,-0.00041541175,-0.00033383834,48.86414,0.0010642195,23,-103,91
160776316,0,2360330,-0.091001794,0.095435485,-0.0055975313,3988,0.00021629343,0.00031198925,-0.00017566394,48.912064,0.0010642195,-82,-44,43
160876316,0,2360330,0.08638215,-0.021792332,0.03651854,3989,-0.0003223614,-0.00064648007,0.00018034031,48.91506,0.0010642195,167,-65,13
160976351,0,2360330,-0.063457355,-0.036394745,0.03995069,4023,0.00016730232,0.00032638005,6.168391e-05,48.897087,0.0010642195,-34,218,-64
161079516,0,2360330,-0.044821657,-0.048147332,0.035890214,4000,-2.625817e-05,-5.9658247e-05,2.0650332e-05,48.93902,0.0010642195,-96,-176,-20
161182760,0,2360330,0.04299912,-0.0043848064,0.029784674,3244,-0.0005903147,-0.00048302315,0.00020843193,48.90008,0.0010642195,100,100,-92
161282722,0,2360330,-0.0837032,0.05222311,0.022943353,4006,0.00044285046,0.0007247545,0.00013438317,48.918053,0.0010642195,-71,-55,-34
161385953,0,2360330,0.05797185,0.013253767,0.012405557,3230,0.000980921,-9.630564e-06,-3.042283e-05,48.921047,0.0010642195,-31,-185,-31
161485916,0,2360330,-0.0310073,-0.02564664,0.011849383,4000,0.00013123982,0.00018833055,-2.0546615e-05,48.90907,0.0010642195,-69,235,19
161585922,0,2360330,-0.025092177,-0.0480599,0.0024770834,3973,-0.0010370465,-0.0009317149,-4.2433014e-05,48.921047,0.0010642195,209,176,36
161689116,0,2360330,0.07217913,0.018834641,-0.010046425,3993,0.0012147733,0.00037752127,-0.0001933638,48.921047,0.0010642195,-117,-146,64
161789116,0,2360330,-0.059146173,0.117803216,-0.010889029,3994,8.983369e-05,0.00023707516,-0.0001545427,48.95699,0.0010642195,0,190,6
161891582,0,2360330,0.15386298,-0.06573288,-0.008128957,3245,0.0003980753,-0.00080366986,-9.744901e-05,48.959984,0.0010642195,49,-398,-6
161992365,0,2360330,-0.049011588,-0.0042994004,-0.0079599535,4049,5.5436733e-05,-0.0001803666,-8.59191e-05,48.95699,0.0010642195,26,-216,110
162096323,0,2360330,0.0796449,0.0045151794,-0.0075638173,3995,0.0005845341,-0.0005989319,-0.00012939215,48.96897,0.0010642195,218,5,22
162195527,0,2360330,0.025313146,0.41381854,-0.0044191717,4011,-0.000339836,0.0014695987,7.563312e-06,48.95699,0.0010642195,-518,-87,37
162294739,0,2360330,0.059566,0.026539363,-0.0045772223,4023,0.0008073321,0.00038367798,-1.6489232e-05,48.930035,0.0010642195,-181,-357,4
162398722,0,2360330,0.047640048,0.115918405,0.002835682,4006,-0.00024345308,0.00033954682,5.341984e-05,48.977955,0.0010642195,-148,-159,10
162498722,0,2360330,0.06832139,-0.13156514,0.0056129205,4006,0.00042496025,-0.0007348009,4.8505717e-05,48.942013,0.0010642195,146,-305,18
162601923,0,2360330,0.530698,-0.28348225,-0.0010589528,4007,0.003144761,-0.0010061997,-0.00019641439,48.948006,0.0010642195,259,-769,54
162705915,0,2360330,0.032657567,0.0056426316,0.003012617,3999,-0.0011311123,-0.0003579878,0.00010261881,48.962982,0.0010642195,76,26,38
162809116,0,2360330,0.01318531,-0.18498872,0.001251867,4000,0.0006540683,-0.0012201044,-8.773934e-05,48.980953,0.0010642195,204,-295,6
162913133,0,2360330,0.18529871,0.056418955,0.008669106,4017,0.0004778892,-0.00016899192,0.00010508063,48.953995,0.0010642195,89,-13,-12
163012334,0,2360330,0.14810255,-0.040528227,0.0049684183,4018,-1.7488506e-05,7.975673e-05,8.528346e-05,48.989937,0.0010642195,63,61,-39
163112335,0,2360330,0.36041778,-0.0049599577,0.0059220744,4019,0.0019998236,-0.0005002924,-9.3451454e-05,49.007908,0.0010642195,-56,-603,7
163215533,0,2360330,-0.11731449,0.04086244,-0.01176882,4017,-0.00022834443,0.0008705488,-5.1269522e-05,49.00192,0.0010642195,-103,439,-29
163315516,0,2360330,-0.0010414905,-0.013576509,-0.006607456,3997,-0.00027453672,-0.00033511285,-6.9242546e-05,48.983948,0.0010642195,243,207,7
163415516,0,2360330,-0.11764979,0.017133381,-0.0049239323,4000,-0.0009563806,0.00033490694,-3.4862504e-05,48.998924,0.0010642195,-90,282,-19
163522716,0,2360330,-0.4596154,-0.10183128,0.0027149818,4000,-0.0010532122,-0.0002815731,-9.178449e-05,49.016895,0.0010642195,-92,332,8
163622716,0,2360330,-0.16416559,0.28352118,-0.02087477,3989,-0.001618435,0.0010482514,4.1623252e-06,49.034866,0.0010642195,-171,332,-16
163725944,0,2360330,-0.18352062,0.1801377,-0.014461243,4000,-0.0003188729,0.00079240743,-0.00017649047,49.031868,0.0010642195,-377,-107,86
163825143,0,2360330,-0.24838023,0.03994394,0.0066560223,3223,-0.00082629814,9.758052e-05,6.5267463e-06,49.004913,0.0010642195,-123,146,-6
163929116,0,2360330,-0.1315791,-0.030229054,-0.019465934,4000,-0.0011722241,-0.00017206406,-2.8384984e-05,48.986942,0.0010642195,279,430,-44
164033116,0,2360330,-0.12591392,0.06542536,0.009017394,4000,-0.00030014743,6.845318e-05,-5.977433e-06,49.028873,0.0010642195,14,-230,81
164132365,0,2360330,-0.098166145,-0.15385067,0.00753671,4042,0.0001591505,-0.001117875,-0.00011204213,49.007908,0.0010642195,209,-286,1
164232328,0,2360330,0.043850586,-0.17389403,0.008058314,4006,0.0009459376,-0.00021021422,1.4873742e-05,49.00192,0.0010642195,-10,-90,-49
164335516,0,2360330,-0.06796557,-0.10186208,0.0041244626,4000,-0.001024549,-7.287902e-05,5.33786e-05,49.040855,0.0010642195,-31,160,-31
164435551,0,2360330,-0.13569875,-0.064918816,0.02339338,4035,8.8231565e-05,-0.00013646221,3.7010774e-05,49.055832,0.0010642195,9,-106,-12
164538716,0,2360330,0.07528885,-0.006405448,0.014675687,4000,-0.00086784083,-0.0008041999,0.00012553709,49.016895,0.0010642195,202,159,48
164638716,0,2360330,0.05853643,0.124256365,0.015116462,4000,0.00023528743,0.00092339324,1.0663059e-05,49.040855,0.0010642195,-314,-316,38
164741922,0,2360330,-0.056056555,0.006534256,0.011541825,4006,-0.00043628857,1.3434916e-05,5.0121977e-05,49.034866,0.0010642195,43,246,14
164841922,0,2360330,0.08279494,-0.0051439386,0.0057029263,4006,0.0007157454,-0.00020531929,-2.4250721e-06,49.073803,0.0010642195,-47,-290,9
164941930,0,2360330,-0.04008417,0.09537321,0.0059483196,4014,0.0008224488,0.00059731153,-0.00015075687,49.013897,0.0010642195,-271,-320,5
165045116,0,2360330,0.02227404,0.056504484,-0.0062332866,3996,-0.00041995101,0.00010598832,1.605355e-05,49.079792,0.0010642195,30,296,-93
165145136,0,2360330,-0.05534572,-0.007932285,0.0010452669,3972,-0.0011423753,-0.0003621529,0.00012343864,49.058826,0.0010642195,-104,209,-33
165249120,0,2360330,-0.008149806,0.020967733,-0.0031838708,3997,-0.00023822389,0.00030959048,-0.00011950637,49.06182,0.0010642195,80,176,42
165348316,0,2360330,0.00023407809,-0.0691575,0.016896037,3992,-0.00035179668,-0.00049940613,0.00023385046,49.055832,0.0010642195,285,335,-87
165451516,0,2360330,0.032457188,0.076393,0.017668517,4000,0.0006522552,0.0011072945,9.63828e-05,49.073803,0.0010642195,-261,-62,-35
165551516,0,2360330,0.03203104,-0.09579139,0.013395568,4000,-0.00066175906,2.553092e-05,0.0001621702,49.07081,0.0010642195,-81,319,-109
165654717,0,2360330,0.0970689,0.02593309,0.032723743,4001,0.00010497683,0.00073243777,0.00031013353,49.08578,0.0010642195,-124,295,-42
165754726,0,2360330,-0.0056333616,0.14002337,0.019601712,4010,-3.204416e-05,0.0006591418,-8.785238e-06,49.055832,0.0010642195,-256,-186,-77
165857923,0,2360330,0.028252674,0.07955298,0.033689033,4007,-0.00014985497,0.00023904217,0.00019826206,49.10675,0.0010642195,-105,-22,-69
165957935,0,2360330,-0.14449196,-0.071940556,0.022864427,4002,-3.515595e-05,0.000355016,5.999996e-05,49.079792,0.0010642195,10,64,-52
166061125,0,2360330,0.041403454,-0.023505365,0.0138908485,4006,0.0007080428,0.00034325712,0.00018059017,49.133705,0.0010642195,-280,-122,-60
166161117,0,2360330,-0.036350407,-0.0024566057,0.005843902,4001,-0.001305194,-0.00030691532,-4.094965e-05,49.079792,0.0010642195,170,367,83
166261162,0,2360330,0.017668806,-0.08108729,0.0125658065,4046,0.0008839643,-0.0004911743,1.8914729e-05,49.103752,0.0010642195,14,-256,-51
166364316,0,2360330,-0.16693917,0.0714122,-0.014440464,3960,-0.00025016343,9.400236e-05,0.00010709867,49.12472,0.0010642195,-57,-61,32
166464316,0,2360330,0.04083316,0.07189825,-0.029451095,3994,3.9723516e-05,0.00028519062,-9.113218e-05,49.064816,0.0010642195,-27,56,-23
166567516,0,2360330,-0.0176991,-0.04018505,-0.034564327,4000,0.0008458775,0.00013477454,-0.00022584375,49.082787,0.0010642195,-28,-65,15
166671523,0,2360330,0.028146334,-0.00032411967,-0.034933053,3996,0.0007228229,2.8826125e-06,-0.0001159949,49.097763,0.0010642195,-5,-167,105
166774716,0,2360330,-0.044895537,0.011054354,-0.026767027,3960,-0.0005676685,-0.00016440151,-4.8451435e-05,49.115734,0.0010642195,46,-60,-63
166874716,0,2360330,-0.0030560056,-0.024232654,-0.011428418,4000,0.00048679364,0.00040518466,6.800243e-05,49.10675,0.0010642195,-258,-191,17
166977916,0,2360330,-0.06259026,0.014229038,-0.0177473,3990,-0.0010077409,-0.0005415831,0.0001140661,49.082787,0.0010642195,28,372,-111
167077916,0,2360330,0.118427195,0.010708213,-0.0037326308,3994,0.0011016815,3.861057e-05,-0.0001276541,49.109745,0.0010642195,-77,-444,46
167181165,0,2360330,-0.10404492,0.00013542244,-0.011080144,4049,-0.0008462766,-0.00010922725,6.9821785e-05,49.142693,0.0010642195,26,240,16
167281123,0,2360330,0.049991228,-0.060536392,-0.019382305,4007,0.0007426959,-0.00024638005,-0.00014941423,49.11873,0.0010642195,-63,-262,4
167384316,0,2360330,0.021182222,0.020358881,-0.0257571,4000,-0.0007296346,0.00014789504,-6.270338e-05,49.12472,0.0010642195,-26,318,-6
167484322,0,2360330,-0.19617401,0.24667335,-0.012542711,4006,-0.00019751191,0.0010981846,-4.4228935e-05,49.097763,0.0010642195,-360,8,13
167583534,0,2360330,-0.050966077,-0.11863404,-0.011202793,3218,0.0001377754,0.00010076343,-0.00016591375,49.1367,0.0010642195,-10,-120,100
167687546,0,2360330,0.020690074,0.099077016,0.0037546274,4030,0.000866738,0.0002623095,-5.474397e-05,49.115734,0.0010642195,-241,-269,-73
167787523,0,2360330,-0.077341095,-0.011876728,0.007221142,4007,0.00018672868,0.00046537432,1.4447078e-05,49.1367,0.0010642195,-199,172,-98
167890716,0,2360330,0.05980115,-0.13606404,0.02050731,4000,0.0009764472,-0.0001669591,3.1533644e-05,49.142693,0.0010642195,76,-236,86
167990716,0,2360330,-0.009052642,-0.095278226,0.013089558,3983,-0.0005187428,-0.00080602133,0.00020373505,49.115734,0.0010642195,169,73,-80
168093925,0,2360330,0.061955567,-0.15459381,0.020878218,3977,-2.7306594e-05,-0.0002430109,0.0002030286,49.13071,0.0010642195,126,190,-85
168197916,0,2360330,0.010821589,0.037455164,0.03226801,4000,-0.00013645366,3.8295027e-05,0.00010813061,49.18163,0.0010642195,-34,3,-56
168301122,0,2360330,-0.04343379,-0.1019155,0.019797886,4006,-0.00041151536,-0.0005217448,1.642422e-05,49.133705,0.0010642195,-34,74,-14
168401123,0,2360330,0.052499935,-0.072042525,0.007896025,4007,2.322704e-05,-0.00045424732,-2.6397652e-07,49.1367,0.0010642195,242,139,62
168504318,0,2360330,-0.06014962,-0.06184599,-0.016225254,3968,-0.00029539663,5.939885e-09,-0.0001639267,49.142693,0.0010642195,110,21,119
168604316,0,2360330,-0.08662035,-0.060815305,-0.020531032,3988,-0.00092819636,-0.00052967505,7.801355e-05,49.160664,0.0010642195,145,146,57
168704316,0,2360330,-0.0014288753,-0.10223747,-0.02741182,4000,0.0003006201,-0.0004238065,-0.00010863819,49.133705,0.0010642195,280,35,-34
168807516,0,2360330,0.02515469,0.052433398,-0.017551884,3993,0.0006506495,0.00021263807,-0.000198627,49.145687,0.0010642195,-56,-315,71
168910783,0,2360330,0.16820091,-0.04556656,-0.027896944,3267,0.00043212422,-0.000490993,-6.823563e-05,49.151676,0.0010642195,169,-17,-86
169015516,0,2360330,0.06176562,-0.17777121,-0.015901325,3965,0.0007204084,0.00011491236,-0.00015658552,49.166653,0.0010642195,120,-269,23
169114722,0,2360330,0.21310434,-0.0003955947,-0.01276709,4006,0.00013493681,-0.00010722449,0.00012603133,49.14868,0.0010642195,13,108,3
169217916,0,2360330,-0.18492727,0.014786363,-0.029437026,4000,-0.0002002789,-3.4443605e-05,-0.00016426822,49.18762,0.0010642195,-134,21,10
169317916,0,2360330,0.03892037,-0.014135396,-0.006181504,3983,-0.00012735289,0.0006218921,-2.8319526e-05,49.166653,0.0010642195,-31,125,59
169421116,0,2360330,0.2657314,-0.027548555,0.0045173327,3989,0.0016272764,-0.0003502149,-0.000103067236,49.17564,0.0010642195,31,-720,27
169521119,0,2360330,0.24536783,-0.01442723,0.0013715464,3992,0.0011845299,0.00050228875,-4.851126e-05,49.202595,0.0010642195,-96,-213,19
169624318,0,2360330,0.09116295,0.037840694,0.0035230485,4002,-0.00040757007,-0.0002907334,3.2552634e-05,49.166653,0.0010642195,184,-66,-58
169724351,0,2360330,-0.012305584,0.008219165,0.009567115,4016,0.00057705253,-0.00026336854,4.376011e-06,49.20559,0.0010642195,19,-251,29
169827516,0,2360330,-0.17969364,-0.061379943,0.0038143627,4000,-0.0008973479,-4.8168644e-05,0.00013521384,49.211582,0.0010642195,84,188,71
169927516,0,2360330,0.06729209,0.034383025,0.007898133,4000,0.000502505,0.00017491676,8.005108e-05,49.1996,0.0010642195,19,-38,-27
170027526,0,2360330,-0.042521495,0.0013907381,0.025643177,4010,-0.0010705256,0.00043110974,0.00020082292,49.220566,0.0010642195,-15,378,-21
170130722,0,2360330,-0.024771227,0.020206729,0.012447056,4006,0.00041816122,0.00049245736,3.6328005e-05,49.1996,0.0010642195,-68,-113,24
170230723,0,2360330,0.0650857,0.035460245,-0.0010842052,4007,-0.00075499224,-6.689221e-05,0.00021582749,49.211582,0.0010642195,-75,283,13
170333937,0,2360330,-0.16724598,0.011438503,-0.025473932,4021,-0.00057337765,-0.00015968036,-0.00021402971,49.211582,0.0010642195,111,62,24
170433916,0,2360330,-0.12686118,-0.05303879,-0.027751619,4000,-0.00048062723,-0.00042438513,-0.0001513135,49.211582,0.0010642195,95,-87,10
170537116,0,2360330,-0.15484098,0.1738384,-0.05183656,3986,-0.0007898421,0.00062718114,-0.00021799117,49.226555,0.0010642195,-144,262,-45
170637116,0,2360330,-0.39731446,-0.150783,-0.036760405,3979,-0.0016249599,-0.00033808887,-0.00012298588,49.25052,0.0010642195,213,539,2
170740316,0,2360330,-0.26091063,-0.025764916,-0.013954695,4000,-0.0013418033,0.00022943893,-3.7281286e-05,49.19361,0.0010642195,-86,268,47
170840316,0,2360330,-0.24646538,-0.0026355668,-0.023671592,4000,-0.0012675553,-6.910224e-05,-0.00010885842,49.229553,0.0010642195,80,126,39
170943540,0,2360330,0.021984532,-0.0086949775,0.0033497268,4024,0.0010853783,0.0004975015,-7.390797e-05,49.202595,0.0010642195,-210,-254,-37
171043544,0,2360330,0.020594932,0.12239103,0.0057351817,4026,-6.375141e-06,0.00093946705,8.125236e-05,49.24153,0.0010642195,-65,333,-34
171143519,0,2360330,-0.060163733,-0.15645346,-0.010600074,4003,-6.813518e-05,-0.0002714673,-0.0001749361,49.244526,0.0010642195,149,137,-25
171246723,0,2360330,-0.020998452,0.08130838,0.009241932,4007,0.0005396596,0.00039025737,-9.261841e-05,49.259502,0.0010642195,-174,-235,-3
171350716,0,2360330,0.08369941,-0.07019896,-0.02343145,3930,0.0007694781,0.0001306722,-0.00011543189,49.235542,0.0010642195,12,-3,45
171453950,0,2360330,-0.11220137,0.22861624,-0.02273304,4034,-0.0003812861,0.0014717925,-0.00014691333,49.25052,0.0010642195,-66,68,-1
171553916,0,2360330,0.19474219,-0.10835136,-0.025798718,4000,0.0012774081,9.9460776e-05,-0.00015123095,49.202595,0.0010642195,14,-33,12
171657121,0,2360330,-0.020000698,0.09773985,-0.020588033,4005,-0.0010402497,-0.0001870652,2.6714566e-05,49.24153,0.0010642195,134,453,-50
171757158,0,2360330,0.11995353,0.09302507,0.017060721,4035,0.0011813189,0.0012871105,7.680319e-06,49.247524,0.0010642195,-337,-258,3
171860322,0,2360330,-0.02004444,-0.078153275,0.03507833,4003,-0.00048458987,-0.0007932445,0.0002166613,49.25052,0.0010642195,-24,-131,-52
171960329,0,2360330,-0.092026986,-0.092088364,0.03201296,4013,-0.0007919197,-0.00014212813,0.00018040687,49.24153,0.0010642195,198,427,-46
172063529,0,2360330,0.10812555,-0.014919253,0.04455694,4013,2.641459e-05,-0.0003623732,0.00010351049,49.238537,0.0010642195,101,-23,-51
172163516,0,2360330,-0.000853349,0.10018391,0.05678449,4000,0.0005185968,0.00074296363,0.00028102286,49.289455,0.0010642195,-213,-390,-53
172266716,0,2360330,-0.069956236,-0.10651986,0.055324774,3993,-0.00066494994,-0.00075268594,0.00023164181,49.259502,0.0010642195,288,330,-10
172672343,0,2360330,-0.019774936,0.1468245,0.019558186,3227,-0.00017978587,0.00036922013,9.036463e-05,49.301437,0.0010642195,-98,-145,17
172773116,0,2360330,-0.008871282,-0.0014500775,0.011395331,4000,0.00038415584,-2.1529963e-06,5.623671e-05,49.29245,0.0010642195,-145,-214,-31
172873126,0,2360330,-0.067014165,0.07902903,0.002380961,3961,-0.00011683707,0.00049344846,-5.72278e-05,49.259502,0.0010642195,-215,87,73
172976339,0,2360330,0.032572374,0.054214306,-0.013714943,4012,-0.00024944136,0.0002588192,7.4755124e-05,49.26849,0.0010642195,7,118,25
173076322,0,2360330,0.016689714,-0.22752,-0.023129616,3994,-0.0008215237,-0.00095821556,9.562932e-05,49.295444,0.0010642195,246,174,8
173179516,0,2360330,0.16086717,0.09348659,-0.028442105,3996,7.843647e-05,0.00011225301,-3.5722175e-07,49.277473,0.0010642195,151,292,-25
173279524,0,2360330,0.031026589,-0.012622796,-0.052828006,4008,7.054092e-05,0.0003983188,-0.00024554817,49.31042,0.0010642195,-220,151,44
173382735,0,2360330,0.02740816,-0.0016482525,-0.07512539,4009,-0.00047161162,-0.00041360952,-0.00016634591,49.304432,0.0010642195,219,95,-29
173482716,0,2360330,-0.015801255,0.16273941,-0.06637405,3993,-0.0007717825,0.0009881242,-0.00018999177,49.27448,0.0010642195,-215,100,58
173585916,0,2360330,0.078687996,0.0019949295,-0.072132275,4000,0.00032199832,0.00020707864,-0.00024266772,49.31941,0.0010642195,-34,-359,62
173685916,0,2360330,-0.058430735,-0.11298346,-0.082470916,3937,-0.0006332613,-0.0006684194,-0.00021782405,49.331387,0.0010642195,360,146,35
173789129,0,2360330,-0.0029662552,-0.25352857,-0.058732335,4013,0.00055357296,-0.00038993094,-0.00028129146,49.301437,0.0010642195,-37,-137,100
173889116,0,2360330,0.053610016,-0.08145738,-0.011265912,4000,-0.00014897097,0.00036563797,2.0335929e-05,49.295444,0.0010642195,41,-9,-36
173991567,0,2360330,0.036174256,0.109349065,0.015551567,3251,-0.0004021564,0.000132769,0.0001169304,49.280468,0.0010642195,79,312,-80
174092337,0,2360330,0.16606523,-0.026542513,0.069013886,4001,0.0011439812,-0.00051858934,0.00014149019,49.31042,0.0010642195,246,-40,-57
174195516,0,2360330,0.014996462,0.019603666,0.0912908,4000,-0.00077528995,-0.0003333935,0.00046891716,49.33438,0.0010642195,182,-36,-76
174295516,0,2360330,-0.010128354,0.06710754,0.06840221,4000,-0.0007822132,1.2332944e-06,0.0003442434,49.313416,0.0010642195,-13,-18,-69
174395516,0,2360330,-0.015478798,-0.13852613,0.05197235,4000,0.00045636113,-0.0005850308,0.00012291541,49.301437,0.0010642195,-41,-312,-18
174498716,0,2360330,0.1584834,0.15769981,0.021903466,3993,0.00089031266,0.0009434402,-7.307443e-05,49.33438,0.0010642195,-101,-179,3
174598716,0,2360330,-0.23357166,-0.16698232,0.006586998,3993,-0.001210595,-0.0010255638,4.8452846e-05,49.349358,0.0010642195,208,150,13
174701916,0,2360330,0.09841437,0.081379525,0.021320764,3959,9.422546e-05,1.8316994e-05,0.00020296576,49.36733,0.0010642195,17,-64,-15
174801918,0,2360330,0.23276609,-0.0022269788,0.008203002,4002,0.00049835927,-0.00044418228,0.00012324179,49.322403,0.0010642195,-37,-453,15
174905116,0,2360330,-0.11684941,0.085628144,0.009153099,4000,-0.0008299009,0.00042780623,0.00018301298,49.33738,0.0010642195,-16,-105,6
175005116,0,2360330,0.12720014,-0.026971532,0.008025479,3999,0.0001478452,-0.000115712784,-2.4138833e-06,49.31941,0.0010642195,40,-169,12
175108322,0,2360330,0.030206768,0.029141314,0.011839982,3970,-0.00012350424,-0.00062708446,0.00013590443,49.352352,0.0010642195,308,277,-46
175208323,0,2360330,-0.04383587,-0.015725642,0.012276048,4007,-0.00048336916,-7.30265e-05,0.00011857361,49.325397,0.0010642195,151,259,-96
175311533,0,2360330,-0.015846679,0.04156274,0.011907413,4009,-0.00037380957,0.00082711957,0.00017225981,49.29844,0.0010642195,13,245,-44
175411518,0,2360330,-0.17521778,0.15584426,0.016895186,3991,0.00064728654,0.0007899858,-4.277277e-05,49.382305,0.0010642195,-273,-152,29
175514716,0,2360330,-0.070831746,-0.11583127,-0.0061594397,3969,-0.00040346239,-0.00026941183,3.982859e-05,49.382305,0.0010642195,-63,-135,11
175614717,0,2360330,0.086791925,0.066789195,-0.009176507,3968,8.913403e-06,-7.8523975e-05,-5.4632877e-05,49.340374,0.0010642195,-85,76,-29
175718716,0,2360330,-0.17087217,-0.09505657,-0.008035444,3982,-0.0009531863,-0.00051596476,-2.0375282e-07,49.352352,0.0010642195,-17,-19,4
175817918,0,2360330,0.16662441,0.040562525,-0.014986622,4002,0.00023625522,0.0001026349,7.343076e-05,49.382305,0.0010642195,60,159,-89
175921935,0,2360330,-0.011177887,0.04777522,0.012780022,4019,-0.0007479546,0.00016397458,0.00011356799,49.37332,0.0010642195,97,117,-49
176021116,0,2360330,0.011117871,-0.077329986,-0.00086184463,3959,-0.0008661125,-0.0006065919,4.6324185e-05,49.37931,0.0010642195,172,278,-17
176121134,0,2360330,0.07433945,0.16577502,0.022322778,3975,0.0010170909,0.0006633146,-4.300095e-05,49.358345,0.0010642195,-197,-460,10
176224324,0,2360330,-0.012856756,0.0105337165,-0.00133576,3993,-0.0005029834,0.00023776985,2.4040513e-05,49.3853,0.0010642195,-127,176,-34
176324322,0,2360330,-0.033389073,0.019965725,0.013261115,4006,-0.00084836787,-0.00019224752,0.00017486625,49.400276,0.0010642195,168,195,-68
176427544,0,2360330,-0.005551223,-0.0054017915,0.0060152067,4014,-0.0006826462,3.9384617e-05,0.00011515492,49.409264,0.0010642195,-67,2,-56
176527527,0,2360330,-0.23150241,-0.015424819,0.003521135,4011,-0.00046744992,0.00022169104,-4.7208556e-05,49.36134,0.0010642195,-103,149,41
176631516,0,2360330,-0.0554858,-0.06293855,-0.008702925,4000,-0.0010846566,-0.0001671872,4.961003e-05,49.41226,0.0010642195,173,474,-39
176734716,0,2360330,-0.11967735,0.0045922184,-0.008002487,4000,-0.00016021567,-0.00020762338,-1.1657309e-05,49.39728,0.0010642195,-51,-155,21
176837949,0,2360330,-0.02351825,-0.021065885,-0.011132389,3233,0.00073737965,1.8776425e-05,-0.00020735427,49.36733,0.0010642195,27,-111,61
176937925,0,2360330,0.03395789,0.016635813,-0.021437842,4009,0.00011936004,-0.00041438392,-3.8524133e-05,49.394287,0.0010642195,-2,-161,40
177041164,0,2360330,-0.056032397,-0.016281007,-0.025896536,3241,-0.00022223449,-0.0003375678,-0.000105339976,49.388294,0.0010642195,13,58,31
177141116,0,2360330,0.022234788,-0.016890123,-0.013683075,4000,0.0011674658,0.00070140103,-0.0001631705,49.442207,0.0010642195,-292,-237,50
177241116,0,2360330,-0.11704335,-0.0439797,-0.020052137,3999,0.00058443664,-3.681141e-05,-0.00024462503,49.418247,0.0010642195,-151,-161,92
177344336,0,2360330,0.06529698,-0.09495302,-0.013690322,4013,0.0007471332,-0.0008353976,-0.00019724849,49.415253,0.0010642195,-21,-262,45
177444316,0,2360330,-0.04939622,0.10269027,-0.01461853,3993,-0.0012750694,-4.8562837e-05,0.0001468369,49.394287,0.0010642195,131,304,-12
177547549,0,2360330,0.034748957,0.0156130195,-0.010444712,4033,-0.00089518476,-1.0504149e-05,8.234186e-05,49.415253,0.0010642195,96,200,13
177647520,0,2360330,0.004212132,0.015827203,-0.009993956,4004,-0.0008321138,-0.00038371695,7.208965e-05,49.43023,0.0010642195,230,244,7
177750754,0,2360330,0.016702985,0.043418437,-0.0165693,4037,-0.00060394953,-0.00042165286,1.8448221e-05,49.406265,0.0010642195,46,-134,42
177854722,0,2360330,-0.052393448,0.05205511,-0.008191476,3998,-0.0004988136,0.00042151514,3.4843382e-05,49.442207,0.0010642195,-70,-132,1
177958716,0,2360330,-0.07016357,-0.08527186,-0.006986911,3985,0.0006689691,0.00038759504,-8.818033e-05,49.409264,0.0010642195,-144,142,-5
178057916,0,2360330,0.03857716,0.024963144,0.010605832,3993,0.0016130863,8.439363e-05,-0.00010954391,49.41226,0.0010642195,-97,-331,31
178161161,0,2360330,-0.12177191,-0.023976663,0.007335052,3245,0.0010355547,-0.000120739445,-0.0001451968,49.433224,0.0010642195,-50,-257,21
178261116,0,2360330,0.07279127,-0.020142332,0.020687727,4000,-7.13433e-05,6.9061803e-06,0.000262415,49.433224,0.0010642195,-30,-264,-33
178361116,0,2360330,-0.076443605,0.0020434915,0.013970781,3957,-0.0010774259,0.00018839574,0.00020491221,49.439213,0.0010642195,-20,138,-46
178464341,0,2360330,0.047048427,0.0035689888,0.005736176,3999,-0.00016311552,-0.00044276618,-7.922385e-06,49.445206,0.0010642195,88,342,-44
178564316,0,2360330,0.10648357,0.057968248,0.016598918,3968,-0.00057693786,-0.00017850303,0.00020870338,49.46018,0.0010642195,-121,234,-56
178667522,0,2360330,0.0073405113,-0.012890865,0.013098007,4006,-0.0009280395,1.5317006e-05,0.00015421443,49.42124,0.0010642195,-10,283,-84
178771516,0,2360330,0.013792101,0.015612094,0.011178053,4000,-0.0006587298,-0.0006379069,0.00013910128,49.4482,0.0010642195,-19,86,-20
178874716,0,2360330,0.0730456,-0.08540313,0.0022093318,4000,-0.0001585807,-0.00057770434,0.00013280548,49.451195,0.0010642195,279,168,-16
178974716,0,2360330,-0.053552914,0.071863495,0.016444655,3967,0.0011202632,0.00050294964,-5.3875614e-05,49.442207,0.0010642195,-299,-169,6
179077939,0,2360330,-0.0148113845,-0.0143384505,0.018833242,4023,0.0008253827,-0.00011340631,-4.0229657e-05,49.47216,0.0010642195,-84,-349,23
179177916,0,2360330,-0.107405454,-0.0084606,0.0157904,4000,-0.0016616673,-0.00048748823,0.00028454768,49.45419,0.0010642195,-2,184,-38
179281171,0,2360330,0.075070865,-0.042988587,0.034422122,4055,-1.7503968e-05,-0.0005070861,0.00021681812,49.46018,0.0010642195,247,-300,4
179381116,0,2360330,-0.09827301,0.050033245,0.030488357,3979,-0.0003263204,6.5088614e-05,-2.0989132e-06,49.433224,0.0010642195,31,200,5
179484316,0,2360330,-0.018691625,-0.019016445,0.005525259,4000,-0.00014195436,-0.00021688393,1.4560329e-05,49.475155,0.0010642195,-121,-39,-12
