timestamp,x,y,z,r,flaps,aux1,aux2,aux3,aux4,aux5,aux6,mode_switch,return_switch,rattitude_switch,posctl_switch,loiter_switch,acro_switch,offboard_switch,kill_switch,arm_switch,transition_switch,gear_switch,mode_slot,data_source,stab_switch,man_switch
133174583,0.0,0.0,3e-45,0.18243264,0.0,0.0,0.0,0.0,0.0,0.0,0.0,0,0,0,0,0,0,0,3,1,0,0,3,1,0,0
133194563,0.0,0.0,0.0,0.18194957,0.0,0.0,0.0,0.0,0.0,0.0,0.0,0,0,0,0,0,0,0,3,1,0,0,3,1,0,0
133214578,0.0,0.0,0.0,0.18073261,0.0,0.0,0.0,0.0,0.0,0.0,0.0,0,0,0,0,0,0,0,3,1,0,0,3,1,0,0
133238613,0.0,0.0,0.0,0.17878442,0.0,0.0,0.0,0.0,0.0,0.0,0.0,0,0,0,0,0,0,0,3,1,0,0,3,1,0,0
133258636,0.0,0.0,0.0,0.17405452,0.0,0.0,0.0,0.0,0.0,0.0,0.0,0,0,0,0,0,0,0,3,1,0,0,3,1,0,0
133278631,0.0,0.0,0.0,0.16684683,0.0,0.0,0.0,0.0,0.0,0.0,0.0,0,0,0,0,0,0,0,3,1,0,0,3,1,0,0
133302558,0.0,0.0,0.0,0.16192338,0.0,0.0,0.0,0.0,0.0,0.0,0.0,0,0,0,0,0,0,0,3,1,0,0,3,1,0,0
133322594,0.0,0.0,0.0,0.16045333,0.0,0.0,0.0,0.0,0.0,0.0,0.0,0,0,0,0,0,0,0,3,1,0,0,3,1,0,0
133346574,0.0,0.0,0.0,0.16034317,0.0,0.0,0.0,0.0,0.0,0.0,0.0,0,0,0,0,0,0,0,3,1,0,0,3,1,0,0
133370660,0.0,0.0,0.0,0.16112134,0.0,0.0,0.0,0.0,0.0,0.0,0.0,0,0,0,0,0,0,0,3,1,0,0,3,1,0,0
133394773,0.0,0.0,0.0,0.16249254,0.0,0.0,0.0,0.0,0.0,0.0,0.0,0,0,0,0,0,0,0,3,1,0,0,3,1,0,0
133414762,0.0,0.0,0.0,0.16390893,0.0,0.0,0.0,0.0,0.0,0.0,0.0,0,0,0,0,0,0,0,3,1,0,0,3,1,0,0
133730764,0.0,0.0,0.0,0.15220542,0.0,0.0,0.0,0.0,0.0,0.0,0.0,0,0,0,0,0,0,0,3,1,0,0,3,1,0,0
133754777,0.0,0.0,0.0,0.15896466,0.0,0.0,0.0,0.0,0.0,0.0,0.0,0,0,0,0,0,0,0,3,1,0,0,3,1,0,0
133818573,0.0,0.0,0.0,0.18543817,0.0,0.0,0.0,0.0,0.0,0.0,0.0,0,0,0,0,0,0,0,3,1,0,0,3,1,0,0
133838733,0.0,0.0,0.0,0.18945554,0.0,0.0,0.0,0.0,0.0,0.0,0.0,0,0,0,0,0,0,0,3,1,0,0,3,1,0,0
133858742,0.0,0.0,0.0,0.18875912,0.0,0.0,0.0,0.0,0.0,0.0,0.0,0,0,0,0,0,0,0,3,1,0,0,3,1,0,0
133882572,0.0,0.0,0.0,0.18771511,0.0,0.0,0.0,0.0,0.0,0.0,0.0,0,0,0,0,0,0,0,3,1,0,0,3,1,0,0
133902916,0.0,0.0,0.0,0.18746568,0.0,0.0,0.0,0.0,0.0,0.0,0.0,0,0,0,0,0,0,0,3,1,0,0,3,1,0,0
133926534,0.0,0.0,0.0,0.188109,0.0,0.0,0.0,0.0,0.0,0.0,0.0,0,0,0,0,0,0,0,3,1,0,0,3,1,0,0
133946538,0.0,0.0,0.0,0.18945763,0.0,0.0,0.0,0.0,0.0,0.0,0.0,0,0,0,0,0,0,0,3,1,0,0,3,1,0,0
133966571,0.0,0.0,0.0,0.19036105,0.0,0.0,0.0,0.0,0.0,0.0,0.0,0,0,0,0,0,0,0,3,1,0,0,3,1,0,0
133986543,0.0,0.0,0.0,0.19043079,0.0,0.0,0.0,0.0,0.0,0.0,0.0,0,0,0,0,0,0,0,3,1,0,0,3,1,0,0
134006620,0.0,0.0,0.0,0.19027968,0.0,0.0,0.0,0.0,0.0,0.0,0.0,0,0,0,0,0,0,0,3,1,0,0,3,1,0,0
134030780,0.0,0.0,0.0,0.19021018,0.0,0.0,0.0,0.0,0.0,0.0,0.0,0,0,0,0,0,0,0,3,1,0,0,3,1,0,0
134054563,0.0,0.0,0.0,0.19021408,0.0,0.0,0.0,0.0,0.0,0.0,0.0,0,0,0,0,0,0,0,3,1,0,0,3,1,0,0
134074542,0.0,0.0,0.0,0.19022913,0.0,0.0,0.0,0.0,0.0,0.0,0.0,0,0,0,0,0,0,0,3,1,0,0,3,1,0,0
134098796,0.0,0.0,0.0,0.1897029,0.0,0.0,0.0,0.0,0.0,0.0,0.0,0,0,0,0,0,0,0,3,1,0,0,3,1,0,0
134119020,0.0,0.0,0.0,0.18897445,0.0,0.0,0.0,0.0,0.0,0.0,0.0,0,0,0,0,0,0,0,3,1,0,0,3,1,0,0
134142755,0.0,0.0,0.0,0.18933935,0.0,0.0,0.0,0.0,0.0,0.0,0.0,0,0,0,0,0,0,0,3,1,0,0,3,1,0,0
134162595,0.0,0.0,0.0,0.19174097,0.0,0.0,0.0,0.0,0.0,0.0,0.0,0,0,0,0,0,0,0,3,1,0,0,3,1,0,0
134186596,0.0,0.0,0.0,0.1962742,0.0,0.0,0.0,0.0,0.0,0.0,0.0,0,0,0,0,0,0,0,3,1,0,0,3,1,0,0
134206609,0.0,0.0,0.0,0.19960323,0.0,0.0,0.0,0.0,0.0,0.0,0.0,0,0,0,0,0,0,0,3,1,0,0,3,1,0,0
134230570,0.0,0.0,0.0,0.19941469,0.0,0.0,0.0,0.0,0.0,0.0,0.0,0,0,0,0,0,0,0,3,1,0,0,3,1,0,0
134254603,0.0,0.0,0.0,0.19869314,0.0,0.0,0.0,0.0,0.0,0.0,0.0,0,0,0,0,0,0,0,3,1,0,0,3,1,0,0
134274686,0.0,0.0,0.0,0.19899446,0.0,0.0,0.0,0.0,0.0,0.0,0.0,0,0,0,0,0,0,0,3,1,0,0,3,1,0,0
134294681,0.0,0.0,0.0,0.19871606,0.0,0.0,0.0,0.0,0.0,0.0,0.0,0,0,0,0,0,0,0,3,1,0,0,3,1,0,0
134318752,0.0,0.0,0.0,0.19802314,0.0,0.0,0.0,0.0,0.0,0.0,0.0,0,0,0,0,0,0,0,3,1,0,0,3,1,0,0
134342556,0.0,0.0,0.0,0.19729057,0.0,0.0,0.0,0.0,0.0,0.0,0.0,0,0,0,0,0,0,0,3,1,0,0,3,1,0,0
134366686,0.0,0.0,0.0,0.19715555,0.0,0.0,0.0,0.0,0.0,0.0,0.0,0,0,0,0,0,0,0,3,1,0,0,3,1,0,0
134386570,0.0,0.0,0.0,0.19831116,0.0,0.0,0.0,0.0,0.0,0.0,0.0,0,0,0,0,0,0,0,3,1,0,0,3,1,0,0
134410561,0.0,0.0,0.0,0.19876465,0.0,0.0,0.0,0.0,0.0,0.0,0.0,0,0,0,0,0,0,0,3,1,0,0,3,1,0,0
134434583,0.0,0.0,0.0,0.1981749,0.0,0.0,0.0,0.0,0.0,0.0,0.0,0,0,0,0,0,0,0,3,1,0,0,3,1,0,0
134454764,0.0,0.0,0.0,0.19786817,0.0,0.0,0.0,0.0,0.0,0.0,0.0,0,0,0,0,0,0,0,3,1,0,0,3,1,0,0
134478917,0.0,0.0,0.0,0.19680823,0.0,0.0,0.0,0.0,0.0,0.0,0.0,0,0,0,0,0,0,0,3,1,0,0,3,1,0,0
134498775,0.0,0.0,0.0,0.1943525,0.0,0.0,0.0,0.0,0.0,0.0,0.0,0,0,0,0,0,0,0,3,1,0,0,3,1,0,0
134522821,0.0,0.0,0.0,0.18940432,0.0,0.0,0.0,0.0,0.0,0.0,0.0,0,0,0,0,0,0,0,3,1,0,0,3,1,0,0
134542799,0.0,0.0,0.0,0.17743602,0.0,0.0,0.0,0.0,0.0,0.0,0.0,0,0,0,0,0,0,0,3,1,0,0,3,1,0,0
134562790,0.0,0.0,0.0,0.1622996,0.0,0.0,0.0,0.0,0.0,0.0,0.0,0,0,0,0,0,0,0,3,1,0,0,3,1,0,0
134582832,0.0,0.0,0.0,0.14683609,0.0,0.0,0.0,0.0,0.0,0.0,0.0,0,0,0,0,0,0,0,3,1,0,0,3,1,0,0
134606553,0.0,0.0,0.0,0.11859622,0.0,0.0,0.0,0.0,0.0,0.0,0.0,0,0,0,0,0,0,0,3,1,0,0,3,1,0,0
134626585,0.0,0.0,0.00052296737,0.072954394,0.0,0.0,0.0,0.0,0.0,0.0,0.0,0,0,0,0,0,0,0,3,1,0,0,3,1,0,0
134650784,0.0,0.0,0.0017621529,0.029756285,0.0,0.0,0.0,0.0,0.0,0.0,0.0,0,0,0,0,0,0,0,3,1,0,0,3,1,0,0
134670632,0.0,0.0,0.020421518,0.00786185,0.0,0.0,0.0,0.0,0.0,0.0,0.0,0,0,0,0,0,0,0,3,1,0,0,3,1,0,0
134694945,0.0,0.0,0.077278875,0.00079565594,0.0,0.0,0.0,0.0,0.0,0.0,0.0,0,0,0,0,0,0,0,3,1,0,0,3,1,0,0
134718764,0.0,0.0,0.14902404,-0.0012454571,0.0,0.0,0.0,0.0,0.0,0.0,0.0,0,0,0,0,0,0,0,3,1,0,0,3,1,0,0
134742542,0.0,0.0,0.19368842,-0.0006160323,0.0,0.0,0.0,0.0,0.0,0.0,0.0,0,0,0,0,0,0,0,3,1,0,0,3,1,0,0
134762547,0.0026415873,0.0,0.21915486,1.6239363e-05,0.0,0.0,0.0,0.0,0.0,0.0,0.0,0,0,0,0,0,0,0,3,1,0,0,3,1,0,0
134786585,0.0089009,0.0,0.290943,0.00012662969,0.0,0.0,0.0,0.0,0.0,0.0,0.0,0,0,0,0,0,0,0,3,1,0,0,3,1,0,0
134810576,0.010696622,0.0,0.4136781,4.3613196e-05,0.0,0.0,0.0,0.0,0.0,0.0,0.0,0,0,0,0,0,0,0,3,1,0,0,3,1,0,0
134830548,0.004851344,0.0,0.49674863,-8.679817e-06,0.0,0.0,0.0,0.0,0.0,0.0,0.0,0,0,0,0,0,0,0,3,1,0,0,3,1,0,0
134850541,0.0012830895,0.0,0.5096876,-1.1747578e-05,0.0,0.0,0.0,0.0,0.0,0.0,0.0,0,0,0,0,0,0,0,3,1,0,0,3,1,0,0
134870540,0.009562198,0.0,0.49872532,-2.6414057e-06,0.0,0.0,0.0,0.0,0.0,0.0,0.0,0,0,0,0,0,0,0,3,1,0,0,3,1,0,0
134890550,0.025471574,0.0,0.49240232,1.324289e-06,0.0,0.0,0.0,0.0,0.0,0.0,0.0,0,0,0,0,0,0,0,3,1,0,0,3,1,0,0
134914579,0.04293728,0.0,0.49221236,1.0065896e-06,0.0,0.0,0.0,0.0,0.0,0.0,0.0,0,0,0,0,0,0,0,3,1,0,0,3,1,0,0
134934577,0.06476714,0.0,0.49338034,1.12645665e-07,0.0,0.0,0.0,0.0,0.0,0.0,0.0,0,0,0,0,0,0,0,3,1,0,0,3,1,0,0
134954779,0.08526333,0.0,0.49384913,-1.5548041e-07,0.0,0.0,0.0,0.0,0.0,0.0,0.0,0,0,0,0,0,0,0,3,1,0,0,3,1,0,0
134974760,0.096487366,0.0,0.49379367,-7.951205e-08,0.0,0.0,0.0,0.0,0.0,0.0,0.0,0,0,0,0,0,0,0,3,1,0,0,3,1,0,0
134994580,0.09926306,0.0,0.49368134,1.0636422e-09,0.0,0.0,0.0,0.0,0.0,0.0,0.0,0,0,0,0,0,0,0,3,1,0,0,3,1,0,0
135018856,0.09227942,0.0,0.4936507,0.005841387,0.0,0.0,0.0,0.0,0.0,0.0,0.0,0,0,0,0,0,0,0,3,1,0,0,3,1,0,0
135042562,0.07753227,0.0,0.49366134,0.019682664,0.0,0.0,0.0,0.0,0.0,0.0,0.0,0,0,0,0,0,0,0,3,1,0,0,3,1,0,0
135066743,0.057600778,0.0,0.4936713,0.040115602,0.0,0.0,0.0,0.0,0.0,0.0,0.0,0,0,0,0,0,0,0,3,1,0,0,3,1,0,0
135086734,0.02882067,0.0,0.4939344,0.06991438,0.0,0.0,0.0,0.0,0.0,0.0,0.0,0,0,0,0,0,0,0,3,1,0,0,3,1,0,0
135106577,0.0035974246,0.0,0.4948141,0.10506953,0.0,0.0,0.0,0.0,0.0,0.0,0.0,0,0,0,0,0,0,0,3,1,0,0,3,1,0,0
135130551,-0.0043141935,0.0,0.4958721,0.13612178,0.0,0.0,0.0,0.0,0.0,0.0,0.0,0,0,0,0,0,0,0,3,1,0,0,3,1,0,0
135154557,-0.0022986443,0.0,0.49609083,0.14336766,0.0,0.0,0.0,0.0,0.0,0.0,0.0,0,0,0,0,0,0,0,3,1,0,0,3,1,0,0
135174576,-4.6247546e-06,0.0,0.4954415,0.102261305,0.0,0.0,0.0,0.0,0.0,0.0,0.0,0,0,0,0,0,0,0,3,1,0,0,3,1,0,0
135195602,0.00044840167,0.0,0.49463576,0.032549147,0.0,0.0,0.0,0.0,0.0,0.0,0.0,0,0,0,0,0,0,0,3,1,0,0,3,1,0,0
135218762,0.00016660221,0.0,0.4939422,-0.007996573,0.0,0.0,0.0,0.0,0.0,0.0,0.0,0,0,0,0,0,0,0,3,1,0,0,3,1,0,0
135242617,-2.6240034e-05,0.0,0.49358222,-0.009328586,0.0,0.0,0.0,0.0,0.0,0.0,0.0,0,0,0,0,0,0,0,3,1,0,0,3,1,0,0
135262810,-4.231974e-05,0.0,0.49332348,-0.0018813121,0.0,0.0,0.0,0.0,0.0,0.0,0.0,0,0,0,0,0,0,0,3,1,0,0,3,1,0,0
135286564,-1.0500087e-05,0.0,0.49303687,0.0011314878,0.0,0.0,0.0,0.0,0.0,0.0,0.0,0,0,0,0,0,0,0,3,1,0,0,3,1,0,0
135306907,4.406802e-06,0.0,0.49324313,0.00078650605,0.0,0.0,0.0,0.0,0.0,0.0,0.0,0,0,0,0,0,0,0,3,1,0,0,3,1,0,0
135326760,3.6845156e-06,0.0,0.49363697,6.907234e-05,0.0,0.0,0.0,0.0,0.0,0.0,0.0,0,0,0,0,0,0,0,3,1,0,0,3,1,0,0
135349940,4.986079e-07,0.0,0.49374214,-0.00012848612,0.0,0.0,0.0,0.0,0.0,0.0,0.0,0,0,0,0,0,0,0,3,1,0,0,3,1,0,0
135374793,-5.372369e-07,0.0,0.49370384,-6.1004575e-05,0.0,0.0,0.0,0.0,0.0,0.0,0.0,0,0,0,0,0,0,0,3,1,0,0,3,1,0,0
135397774,-2.9615893e-07,0.0,0.49393058,2.6167497e-06,0.0,0.0,0.0,0.0,0.0,0.0,0.0,0,0,0,0,0,0,0,3,1,0,0,3,1,0,0
135421739,-4.2393786e-09,0.0,0.49454483,1.2912616e-05,0.0,0.0,0.0,0.0,0.0,0.0,0.0,0,0,0,0,0,0,0,3,1,0,0,3,1,0,0
135445813,5.6426007e-08,0.0,0.4983882,4.259163e-06,0.0,0.0,0.0,0.0,0.0,0.0,0.0,0,0,0,0,0,0,0,3,1,0,0,3,1,0,0
135465824,2.1681085e-08,0.0,0.5148542,-9.546164e-07,0.0,0.0,0.0,0.0,0.0,0.0,0.0,0,0,0,0,0,0,0,3,1,0,0,3,1,0,0
135489795,-3.0373468e-09,0.0,0.54032046,-1.1867677e-06,0.0,0.0,0.0,0.0,0.0,0.0,0.0,0,0,0,0,0,0,0,3,1,0,0,3,1,0,0
135513123,-5.3678795e-09,0.0,0.56167275,-2.5161413e-07,0.0,0.0,0.0,0.0,0.0,0.0,0.0,0,0,0,0,0,0,0,3,1,0,0,3,1,0,0
135533121,-1.3888174e-09,0.0,0.5860179,1.3940948e-07,0.0,0.0,0.0,0.0,0.0,0.0,0.0,0,0,0,0,0,0,0,3,1,0,0,3,1,0,0
135553769,5.379093e-10,0.0,0.61332065,1.0078559e-07,0.0,0.0,0.0,0.0,0.0,0.0,0.0,0,0,0,0,0,0,0,3,1,0,0,3,1,0,0
135577746,4.707244e-10,0.0,0.6311938,9.944457e-09,0.0,0.0,0.0,0.0,0.0,0.0,0.0,0,0,0,0,0,0,0,3,1,0,0,3,1,0,0
135600967,6.861441e-11,0.0,0.64526486,-1.6060657e-08,0.0,0.0,0.0,0.0,0.0,0.0,0.0,0,0,0,0,0,0,0,3,1,0,0,3,1,0,0
135621789,-6.6820334e-11,0.0,0.6589929,-7.882131e-09,0.0,0.0,0.0,0.0,0.0,0.0,0.0,0,0,0,0,0,0,0,3,1,0,0,3,1,0,0
135641780,-3.8127716e-11,0.0,0.6657556,2.3226676e-10,0.0,0.0,0.0,0.0,0.0,0.0,0.0,0,0,0,0,0,0,0,3,1,0,0,3,1,0,0
135666128,-1.0047578e-12,0.0,0.665828,1.629274e-09,0.0,0.0,0.0,0.0,0.0,0.0,0.0,0,0,0,0,0,0,0,3,1,0,0,3,1,0,0
135688963,7.0947198e-12,0.0,0.6640075,5.565797e-10,0.0,0.0,0.0,0.0,0.0,0.0,0.0,0,0,0,0,0,0,0,3,1,0,0,3,1,0,0
135709747,2.8184395e-12,0.0,0.6648895,-1.1336611e-10,0.0,0.0,0.0,0.0,0.0,0.0,0.0,0,0,0,0,0,0,0,3,1,0,0,3,1,0,0
135733750,-3.4776736e-13,0.0,0.66923267,-1.5087892e-10,0.0,0.0,0.0,0.0,0.0,0.0,0.0,0,0,0,0,0,0,0,3,1,0,0,3,1,0,0
135757747,-6.804043e-13,0.0,0.6779864,-3.355501e-11,0.0,0.0,0.0,0.0,0.0,0.0,0.0,0,0,0,0,0,0,0,3,1,0,0,3,1,0,0
135777752,-1.8332962e-13,0.0,0.6939678,1.7144973e-11,0.0,0.0,0.0,0.0,0.0,0.0,0.0,0,0,0,0,0,0,0,3,1,0,0,3,1,0,0
135797994,6.548857e-14,0.0,0.7088801,1.2906133e-11,0.0,0.0,0.0,0.0,0.0,0.0,0.0,0,0,0,0,0,0,0,3,1,0,0,3,1,0,0
135817974,6.0098634e-14,0.0,0.713876,1.411913e-12,0.0,0.0,0.0,0.0,0.0,0.0,0.0,0,0,0,0,0,0,0,3,1,0,0,3,1,0,0
135841771,9.384392e-15,0.0,0.7117561,-2.0054832e-12,0.0,0.0,0.0,0.0,0.0,0.0,0.0,0,0,0,0,0,0,0,3,1,0,0,3,1,0,0
135865751,-8.300468e-15,0.0,0.70790267,-1.0175555e-12,0.0,0.0,0.0,0.0,0.0,0.0,0.0,0,0,0,0,0,0,0,3,1,0,0,3,1,0,0
135885773,-4.9048603e-15,0.0,0.70610934,1.6690693e-14,0.0,0.0,0.0,0.0,0.0,0.0,0.0,0,0,0,0,0,0,0,3,1,0,0,3,1,0,0
135909964,-1.8711741e-16,0.0,0.7067242,2.0542101e-13,0.0,0.0,0.0,0.0,0.0,0.0,0.0,0,0,0,0,0,0,0,3,1,0,0,3,1,0,0
135933750,8.913038e-16,0.0,0.7075641,7.264036e-14,0.0,0.0,0.0,0.0,0.0,0.0,0.0,0,0,0,0,0,0,0,3,1,0,0,3,1,0,0
135954134,3.6600159e-16,0.0,0.7077541,-1.3382068e-14,0.0,0.0,0.0,0.0,0.0,0.0,0.0,0,0,0,0,0,0,0,3,1,0,0,3,1,0,0
135977967,-3.928373e-17,0.0,0.70818275,-1.9169164e-14,0.0,0.0,0.0,0.0,0.0,0.0,0.0,0,0,0,0,0,0,0,3,1,0,0,3,1,0,0
136001965,-8.6185265e-17,0.0,0.7093499,-4.463108e-15,0.0,0.0,0.0,0.0,0.0,0.0,0.0,0,0,0,0,0,0,0,3,1,0,0,3,1,0,0
136026130,-2.4155434e-17,0.0,0.71152765,2.1043828e-15,0.0,0.0,0.0,0.0,0.0,0.0,0.0,0,0,0,0,0,0,0,3,1,0,0,3,1,0,0
136049783,7.950339e-18,0.0,0.7160261,1.6515736e-15,0.0,0.0,0.0,0.0,0.0,0.0,0.0,0,0,0,0,0,0,0,3,1,0,0,3,1,0,0
136073765,7.66788e-18,0.0,0.72458345,1.9823022e-16,0.0,0.0,0.0,0.0,0.0,0.0,0.0,0,0,0,0,0,0,0,3,1,0,0,3,1,0,0
136093862,1.2766896e-18,0.0,0.73497075,-2.501526e-16,0.0,0.0,0.0,0.0,0.0,0.0,0.0,0,0,0,0,0,0,0,3,1,0,0,3,1,0,0
136117975,-1.0297199e-18,0.0,0.7439321,-1.3125478e-16,0.0,0.0,0.0,0.0,0.0,0.0,0.0,0,0,0,0,0,0,0,3,1,0,0,3,1,0,0
136138003,-6.3050545e-19,0.0,0.754623,4.815835e-19,0.0,0.0,0.0,0.0,0.0,0.0,0.0,0,0,0,0,0,0,0,3,1,0,0,3,1,0,0
136161965,-3.1353593e-20,0.0,0.7672781,2.5879709e-17,0.0,0.0,0.0,0.0,0.0,0.0,0.0,0,0,0,0,0,0,0,3,1,0,0,3,1,0,0
136181863,1.1187686e-19,0.0,0.7761367,9.468955e-18,0.0,0.0,0.0,0.0,0.0,0.0,0.0,0,0,0,0,0,0,0,3,1,0,0,3,1,0,0
136201747,4.7481075e-20,0.0,0.77928543,-1.5686167e-18,0.0,0.0,0.0,0.0,0.0,0.0,0.0,0,0,0,0,0,0,0,3,1,0,0,3,1,0,0
136221771,-4.3616975e-21,0.0,0.78106767,-2.4338168e-18,0.0,0.0,0.0,0.0,0.0,0.0,0.0,0,0,0,0,0,0,0,3,1,0,0,3,1,0,0
136245998,-1.0909307e-20,0.0,0.7866009,-5.9220186e-19,0.0,0.0,0.0,0.0,0.0,0.0,0.0,0,0,0,0,0,0,0,3,1,0,0,3,1,0,0
136265806,-3.1771977e-21,0.0,0.7943107,2.5774485e-19,0.0,0.0,0.0,0.0,0.0,0.0,0.0,0,0,0,0,0,0,0,3,1,0,0,3,1,0,0
136289742,9.621526e-22,0.0,0.80052143,2.1120617e-19,0.0,0.0,0.0,0.0,0.0,0.0,0.0,0,0,0,0,0,0,0,3,1,0,0,3,1,0,0
136313334,9.776868e-22,0.0,0.8078438,2.7575946e-20,0.0,0.0,0.0,0.0,0.0,0.0,0.0,0,0,0,0,0,0,0,3,1,0,0,3,1,0,0
136333760,1.7287733e-22,0.0,0.81613207,-3.116743e-20,0.0,0.0,0.0,0.0,0.0,0.0,0.0,0,0,0,0,0,0,0,3,1,0,0,3,1,0,0
136353865,-1.2756358e-22,0.0,0.82299066,-1.6917018e-20,0.0,0.0,0.0,0.0,0.0,0.0,0.0,0,0,0,0,0,0,0,3,1,0,0,3,1,0,0
136377739,-8.099032e-23,0.0,0.8312236,-1.4822695e-22,0.0,0.0,0.0,0.0,0.0,0.0,0.0,0,0,0,0,0,0,0,3,1,0,0,3,1,0,0
136397743,-4.9491765e-24,0.0,0.8391985,3.2578436e-21,0.0,0.0,0.0,0.0,0.0,0.0,0.0,0,0,0,0,0,0,0,3,1,0,0,3,1,0,0
136417741,1.403032e-23,0.0,0.8426252,1.2328872e-21,0.0,0.0,0.0,0.0,0.0,0.0,0.0,0,0,0,0,0,0,0,3,1,0,0,3,1,0,0
136437743,6.153712e-24,0.0,0.8425913,-1.8235156e-22,0.0,0.0,0.0,0.0,0.0,0.0,0.0,0,0,0,0,0,0,0,3,1,0,0,3,1,0,0
136461817,-4.73393e-25,0.0,0.8408619,-3.0880254e-22,0.0,0.0,0.0,0.0,0.0,0.0,0.0,0,0,0,0,0,0,0,3,1,0,0,3,1,0,0
136481853,-1.3799251e-24,0.0,0.83813757,-7.840366e-23,0.0,0.0,0.0,0.0,0.0,0.0,0.0,0,0,0,0,0,0,0,3,1,0,0,3,1,0,0
136505863,-4.1722217e-25,0.0,0.8353776,3.14961e-23,0.0,0.0,0.0,0.0,0.0,0.0,0.0,0,0,0,0,0,0,0,3,1,0,0,3,1,0,0
136530128,1.1603605e-25,0.0,0.83175343,2.699134e-23,0.0,0.0,0.0,0.0,0.0,0.0,0.0,0,0,0,0,0,0,0,3,1,0,0,3,1,0,0
136553782,1.2457714e-25,0.0,0.8270323,3.8066025e-24,0.0,0.0,0.0,0.0,0.0,0.0,0.0,0,0,0,0,0,0,0,3,1,0,0,3,1,0,0
136573732,2.3312966e-26,0.0,0.8233826,-3.8786847e-24,0.0,0.0,0.0,0.0,0.0,0.0,0.0,0,0,0,0,0,0,0,3,1,0,0,3,1,0,0
136593744,-1.5779384e-26,0.0,0.82008207,-2.1786723e-24,0.0,0.0,0.0,0.0,0.0,0.0,0.0,0,0,0,0,0,0,0,3,1,0,0,3,1,0,0
136617733,-1.0395959e-26,0.0,0.814609,-4.5571382e-26,0.0,0.0,0.0,0.0,0.0,0.0,0.0,0,0,0,0,0,0,0,3,1,0,0,3,1,0,0
136638131,-7.517382e-28,0.0,0.8098335,4.097784e-25,0.0,0.0,0.0,0.0,0.0,0.0,0.0,0,0,0,0,0,0,0,3,1,0,0,3,1,0,0
136661758,1.7579043e-27,0.0,0.8088791,1.6034786e-25,0.0,0.0,0.0,0.0,0.0,0.0,0.0,0,0,0,0,0,0,0,3,1,0,0,3,1,0,0
136681767,7.967957e-28,0.0,0.809723,-2.0988142e-26,0.0,0.0,0.0,0.0,0.0,0.0,0.0,0,0,0,0,0,0,0,3,1,0,0,3,1,0,0
136705736,-4.9787558e-29,0.0,0.81022173,-3.9154325e-26,0.0,0.0,0.0,0.0,0.0,0.0,0.0,0,0,0,0,0,0,0,3,1,0,0,3,1,0,0
136725736,-1.7442296e-28,0.0,0.81024075,-1.0358782e-26,0.0,0.0,0.0,0.0,0.0,0.0,0.0,0,0,0,0,0,0,0,3,1,0,0,3,1,0,0
136749790,-5.4704854e-29,0.0,0.81015015,3.8391796e-27,0.0,0.0,0.0,0.0,0.0,0.0,0.0,0,0,0,0,0,0,0,3,1,0,0,3,1,0,0
136769994,1.3939822e-29,0.0,0.81011295,3.447094e-27,0.0,0.0,0.0,0.0,0.0,0.0,0.0,0,0,0,0,0,0,0,3,1,0,0,3,1,0,0
136793771,1.5863214e-29,0.0,0.81011695,5.2202346e-28,0.0,0.0,0.0,0.0,0.0,0.0,0.0,0,0,0,0,0,0,0,3,1,0,0,3,1,0,0
136813875,3.1322538e-30,0.0,0.8101257,-4.8209325e-28,0.0,0.0,0.0,0.0,0.0,0.0,0.0,0,0,0,0,0,0,0,3,1,0,0,3,1,0,0
136833815,-1.9488135e-30,0.0,0.8080363,-2.8036699e-28,0.0,0.0,0.0,0.0,0.0,0.0,0.0,0,0,0,0,0,0,0,3,1,0,0,3,1,0,0
136858002,-1.3334842e-30,0.0,0.80177134,-9.201813e-30,0.0,0.0,0.0,0.0,0.0,0.0,0.0,0,0,0,0,0,0,0,3,1,0,0,3,1,0,0
136881756,-1.1115046e-31,0.0,0.7943743,5.1499944e-29,0.0,0.0,0.0,0.0,0.0,0.0,0.0,0,0,0,0,0,0,0,3,1,0,0,3,1,0,0
136901761,2.2004403e-31,0.0,0.7899913,2.0832492e-29,0.0,0.0,0.0,0.0,0.0,0.0,0.0,0,0,0,0,0,0,0,3,1,0,0,3,1,0,0
136926149,1.0307728e-31,0.0,0.7887742,-2.3863246e-30,0.0,0.0,0.0,0.0,0.0,0.0,0.0,0,0,0,0,0,0,0,3,1,0,0,3,1,0,0
136949760,-4.998219e-33,0.0,0.7883982,-4.961141e-30,0.0,0.0,0.0,0.0,0.0,0.0,0.0,0,0,0,0,0,0,0,3,1,0,0,3,1,0,0
136973769,-2.2031128e-32,0.0,0.78692865,-1.3659969e-30,0.0,0.0,0.0,0.0,0.0,0.0,0.0,0,0,0,0,0,0,0,3,1,0,0,3,1,0,0
136998186,-7.162372e-33,0.0,0.7846289,4.6669622e-31,0.0,0.0,0.0,0.0,0.0,0.0,0.0,0,0,0,0,0,0,0,3,1,0,0,3,1,0,0
137021798,1.6673493e-33,0.0,0.7832824,4.3994066e-31,0.0,0.0,0.0,0.0,0.0,0.0,0.0,0,0,0,0,0,0,0,3,1,0,0,3,1,0,0
137041773,2.0186362e-33,0.0,0.78323513,7.118362e-32,0.0,0.0,0.0,0.0,0.0,0.0,0.0,0,0,0,0,0,0,0,3,1,0,0,3,1,0,0
137061778,4.194479e-34,0.0,0.7816509,-5.984301e-32,0.0,0.0,0.0,0.0,0.0,0.0,0.0,0,0,0,0,0,0,0,3,1,0,0,3,1,0,0
137081777,-2.4028324e-34,0.0,0.777414,-3.605249e-32,0.0,0.0,0.0,0.0,0.0,0.0,0.0,0,0,0,0,0,0,0,3,1,0,0,3,1,0,0
137106217,-1.709257e-34,0.0,0.77249783,-1.6041766e-33,0.0,0.0,0.0,0.0,0.0,0.0,0.0,0,0,0,0,0,0,0,3,1,0,0,3,1,0,0
137125952,-1.6110469e-35,0.0,0.76758856,6.466857e-33,0.0,0.0,0.0,0.0,0.0,0.0,0.0,0,0,0,0,0,0,0,3,1,0,0,3,1,0,0
137149736,2.751668e-35,0.0,0.76516813,2.7038029e-33,0.0,0.0,0.0,0.0,0.0,0.0,0.0,0,0,0,0,0,0,0,3,1,0,0,3,1,0,0
137169818,1.3322845e-35,0.0,0.7665425,-2.6718344e-34,0.0,0.0,0.0,0.0,0.0,0.0,0.0,0,0,0,0,0,0,0,3,1,0,0,3,1,0,0
137194002,-4.65044e-37,0.0,0.7680473,-6.2817863e-34,0.0,0.0,0.0,0.0,0.0,0.0,0.0,0,0,0,0,0,0,0,3,1,0,0,3,1,0,0
137217962,-2.7806689e-36,0.0,0.7662424,-1.7981039e-34,0.0,0.0,0.0,0.0,0.0,0.0,0.0,0,0,0,0,0,0,0,3,1,0,0,3,1,0,0
137237962,-9.364701e-37,0.0,0.76057404,5.656241e-35,0.0,0.0,0.0,0.0,0.0,0.0,0.0,0,0,0,0,0,0,0,3,1,0,0,3,1,0,0
137261793,1.9844747e-37,0.0,0.75464916,5.611106e-35,0.0,0.0,0.0,0.0,0.0,0.0,0.0,0,0,0,0,0,0,0,3,1,0,0,3,1,0,0
137281817,2.5670732e-37,0.0,0.74781704,9.6587545e-36,0.0,0.0,0.0,0.0,0.0,0.0,0.0,0,0,0,0,0,0,0,3,1,0,0,3,1,0,0
137305739,5.6001206e-38,0.0,0.7323324,-7.4182526e-36,0.0,0.0,0.0,0.0,0.0,0.0,0.0,0,0,0,0,0,0,0,3,1,0,0,3,1,0,0
137325765,-2.9573353e-38,0.0,0.7065066,-4.632582e-36,0.0,0.0,0.0,0.0,0.0,0.0,0.0,0,0,0,0,0,0,0,3,1,0,0,3,1,0,0
137345771,-2.1894079e-38,0.0,0.6816916,-2.5925504e-37,0.0,0.0,0.0,0.0,0.0,0.0,0.0,0,0,0,0,0,0,0,3,1,0,0,3,1,0,0
137365785,-2.299532e-39,0.0,0.66398174,8.113306e-37,0.0,0.0,0.0,0.0,0.0,0.0,0.0,0,0,0,0,0,0,0,3,1,0,0,3,1,0,0
137389787,3.437464e-39,0.0,0.64163935,3.5057494e-37,0.0,0.0,0.0,0.0,0.0,0.0,0.0,0,0,0,0,0,0,0,3,1,0,0,3,1,0,0
137409992,1.720521e-39,0.0,0.61671686,-2.9324275e-38,0.0,0.0,0.0,0.0,0.0,0.0,0.0,0,0,0,0,0,0,0,3,1,0,0,3,1,0,0
137433742,-3.733e-41,0.0,0.6029919,-7.9484205e-38,0.0,0.0,0.0,0.0,0.0,0.0,0.0,0,0,0,0,0,0,0,3,1,0,0,3,1,0,0
137453759,-3.507e-40,0.0,0.59783214,-2.3629426e-38,0.0,0.0,0.0,0.0,0.0,0.0,0.0,0,0,0,0,0,0,0,3,1,0,0,3,1,0,0
137477977,-1.22284e-40,0.0,0.5959982,6.83254e-39,0.0,0.0,0.0,0.0,0.0,0.0,0.0,0,0,0,0,0,0,0,3,1,0,0,3,1,0,0
137502183,2.3486e-41,0.0,0.59659237,7.151822e-39,0.0,0.0,0.0,0.0,0.0,0.0,0.0,0,0,0,0,0,0,0,3,1,0,0,3,1,0,0
137525782,3.2624e-41,0.0,0.59717107,1.304874e-39,0.0,0.0,0.0,0.0,0.0,0.0,0.0,0,0,0,0,0,0,0,3,1,0,0,3,1,0,0
137549764,7.458e-42,0.0,0.5970071,-9.18253e-40,0.0,0.0,0.0,0.0,0.0,0.0,0.0,0,0,0,0,0,0,0,3,1,0,0,3,1,0,0
137574141,-3.634e-42,0.0,0.5970947,-5.94836e-40,0.0,0.0,0.0,0.0,0.0,0.0,0.0,0,0,0,0,0,0,0,3,1,0,0,3,1,0,0
137597966,-2.801e-42,0.0,0.5958517,-4e-41,0.0,0.0,0.0,0.0,0.0,0.0,0.0,0,0,0,0,0,0,0,3,1,0,0,3,1,0,0
137618015,-3.24e-43,0.0,0.5922375,1.01696e-40,0.0,0.0,0.0,0.0,0.0,0.0,0.0,0,0,0,0,0,0,0,3,1,0,0,3,1,0,0
137641766,4.3e-43,0.0,0.5861771,4.5413e-41,0.0,0.0,0.0,0.0,0.0,0.0,0.0,0,0,0,0,0,0,0,3,1,0,0,3,1,0,0
137661770,2.21e-43,0.0,0.5726171,-3.132e-42,0.0,0.0,0.0,0.0,0.0,0.0,0.0,0,0,0,0,0,0,0,3,1,0,0,3,1,0,0
137682121,-1e-45,0.0,0.5549343,-1.005e-41,0.0,0.0,0.0,0.0,0.0,0.0,0.0,0,0,0,0,0,0,0,3,1,0,0,3,1,0,0
137705818,-4.3e-44,0.0,0.54138047,-3.1e-42,0.0,0.0,0.0,0.0,0.0,0.0,0.0,0,0,0,0,0,0,0,3,1,0,0,3,1,0,0
137729783,-1.7e-44,0.0,0.52649885,8.23e-43,0.0,0.0,0.0,0.0,0.0,0.0,0.0,0,0,0,0,0,0,0,3,1,0,0,3,1,0,0
137754125,3e-45,0.0,0.5087492,9.12e-43,0.0,0.0,0.0,0.0,0.0,0.0,0.0,0,0,0,0,0,0,0,3,1,0,0,3,1,0,0
137777753,3e-45,0.0,0.4975212,1.75e-43,0.0,0.0,0.0,0.0,0.0,0.0,0.0,0,0,0,0,0,0,0,3,1,0,0,3,1,0,0
137797740,1e-45,0.0,0.4952789,-1.15e-43,0.0,0.0,0.0,0.0,0.0,0.0,0.0,0,0,0,0,0,0,0,3,1,0,0,3,1,0,0
137817744,0.0,0.0,0.4974334,-7.6e-44,0.0,0.0,0.0,0.0,0.0,0.0,0.0,0,0,0,0,0,0,0,3,1,0,0,3,1,0,0
137841775,0.0,0.0,0.5023294,0.0031862024,0.0,0.0,0.0,0.0,0.0,0.0,0.0,0,0,0,0,0,0,0,3,1,0,0,3,1,0,0
137865727,0.0,0.0,0.5112998,0.008611861,0.0,0.0,0.0,0.0,0.0,0.0,0.0,0,0,0,0,0,0,0,3,1,0,0,3,1,0,0
137885728,0.0,0.0,0.5209774,0.0089308135,0.0,0.0,0.0,0.0,0.0,0.0,0.0,0,0,0,0,0,0,0,3,1,0,0,3,1,0,0
137905732,0.0,0.0,0.5254118,0.004800043,0.0,0.0,0.0,0.0,0.0,0.0,0.0,0,0,0,0,0,0,0,3,1,0,0,3,1,0,0
137929858,0.0,0.0,0.5214946,0.0010870207,0.0,0.0,0.0,0.0,0.0,0.0,0.0,0,0,0,0,0,0,0,3,1,0,0,3,1,0,0
137953971,0.0,0.0,0.5118573,-0.0005382401,0.0,0.0,0.0,0.0,0.0,0.0,0.0,0,0,0,0,0,0,0,3,1,0,0,3,1,0,0
137977977,0.0,0.0,0.50331044,-0.0004117501,0.0,0.0,0.0,0.0,0.0,0.0,0.0,0,0,0,0,0,0,0,3,1,0,0,3,1,0,0
137997969,0.0,0.0,0.49733254,-4.675701e-05,0.0,0.0,0.0,0.0,0.0,0.0,0.0,0,0,0,0,0,0,0,3,1,0,0,3,1,0,0
138021793,0.0,0.0,0.49365935,6.334915e-05,0.0,0.0,0.0,0.0,0.0,0.0,0.0,0,0,0,0,0,0,0,3,1,0,0,3,1,0,0
138042125,0.0,0.0,0.4929496,3.2564996e-05,0.0,0.0,0.0,0.0,0.0,0.0,0.0,0,0,0,0,0,0,0,3,1,0,0,3,1,0,0
138065793,0.0,0.0,0.49314514,-3.7110604e-07,0.0,0.0,0.0,0.0,0.0,0.0,0.0,0,0,0,0,0,0,0,3,1,0,0,3,1,0,0
138085771,0.0,0.0,0.49335638,-6.5138715e-06,0.0,0.0,0.0,0.0,0.0,0.0,0.0,0,0,0,0,0,0,0,3,1,0,0,3,1,0,0
138109799,0.0,0.0,0.4941806,-2.3343846e-06,0.0,0.0,0.0,0.0,0.0,0.0,0.0,0,0,0,0,0,0,0,3,1,0,0,3,1,0,0
138130036,0.0,0.0,0.49496675,4.1289962e-07,0.0,0.0,0.0,0.0,0.0,0.0,0.0,0,0,0,0,0,0,0,3,1,0,0,3,1,0,0
138153786,0.0,0.0,0.49509588,6.096869e-07,0.0,0.0,0.0,0.0,0.0,0.0,0.0,0,0,0,0,0,0,0,3,1,0,0,3,1,0,0
138173755,0.0,0.0,0.49498963,1.4444369e-07,0.0,0.0,0.0,0.0,0.0,0.0,0.0,0,0,0,0,0,0,0,3,1,0,0,3,1,0,0
138197962,0.0,0.0,0.49492508,-6.601039e-08,0.0,0.0,0.0,0.0,0.0,0.0,0.0,0,0,0,0,0,0,0,3,1,0,0,3,1,0,0
138222172,0.0,0.0,0.494922,-5.267698e-08,0.0,0.0,0.0,0.0,0.0,0.0,0.0,0,0,0,0,0,0,0,3,1,0,0,3,1,0,0
138241747,0.0,0.0,0.49493352,0.002655162,0.0,0.0,0.0,0.0,0.0,0.0,0.0,0,0,0,0,0,0,0,3,1,0,0,3,1,0,0
138265854,0.0,0.0,0.49519986,0.009477705,0.0,0.0,0.0,0.0,0.0,0.0,0.0,0,0,0,0,0,0,0,3,1,0,0,3,1,0,0
138289972,0.0,0.0,0.495819,0.0120099215,0.0,0.0,0.0,0.0,0.0,0.0,0.0,0,0,0,0,0,0,0,3,1,0,0,3,1,0,0
138313760,0.0,0.0,0.49625716,0.005768312,0.0,0.0,0.0,0.0,0.0,0.0,0.0,0,0,0,0,0,0,0,3,1,0,0,3,1,0,0
138333864,0.0,0.0,0.49655926,-0.00022018285,0.0,0.0,0.0,0.0,0.0,0.0,0.0,0,0,0,0,0,0,0,3,1,0,0,3,1,0,0
138357962,0.0,0.0,0.5005074,-0.0012108897,0.0,0.0,0.0,0.0,0.0,0.0,0.0,0,0,0,0,0,0,0,3,1,0,0,3,1,0,0
139302122,0.0,0.0,0.9999987,0.023062207,0.0,0.0,0.0,0.0,0.0,0.0,0.0,0,0,0,0,0,0,0,3,1,0,0,3,1,0,0
139325804,0.0,0.0,0.99999285,0.021166576,0.0,0.0,0.0,0.0,0.0,0.0,0.0,0,0,0,0,0,0,0,3,1,0,0,3,1,0,0
139349748,0.0,0.0,0.9999976,0.01711256,0.0,0.0,0.0,0.0,0.0,0.0,0.0,0,0,0,0,0,0,0,3,1,0,0,3,1,0,0
139374151,0.0,0.0,1.0,0.010144314,0.0,0.0,0.0,0.0,0.0,0.0,0.0,0,0,0,0,0,0,0,3,1,0,0,3,1,0,0
139397962,0.0,0.0,1.0,0.0025218271,0.0,0.0,0.0,0.0,0.0,0.0,0.0,0,0,0,0,0,0,0,3,1,0,0,3,1,0,0
139421989,0.0,0.0,1.0,-0.0010545322,0.0,0.0,0.0,0.0,0.0,0.0,0.0,0,0,0,0,0,0,0,3,1,0,0,3,1,0,0
139446119,0.0,0.0,0.99999994,-0.0008834917,0.0,0.0,0.0,0.0,0.0,0.0,0.0,0,0,0,0,0,0,0,3,1,0,0,3,1,0,0
139465785,0.0,0.0,0.99999994,-0.00011998029,0.0,0.0,0.0,0.0,0.0,0.0,0.0,0,0,0,0,0,0,0,3,1,0,0,3,1,0,0
139489863,0.0,0.0,0.9997385,0.00012866558,0.0,0.0,0.0,0.0,0.0,0.0,0.0,0,0,0,0,0,0,0,3,1,0,0,3,1,0,0
139509782,0.0,0.0,0.999119,7.103947e-05,0.0,0.0,0.0,0.0,0.0,0.0,0.0,0,0,0,0,0,0,0,3,1,0,0,3,1,0,0
139529967,0.0,0.0,0.9989412,1.0562777e-06,0.0,0.0,0.0,0.0,0.0,0.0,0.0,0,0,0,0,0,0,0,3,1,0,0,3,1,0,0
139554121,0.0,0.0,0.99951977,-1.352032e-05,0.0,0.0,0.0,0.0,0.0,0.0,0.0,0,0,0,0,0,0,0,3,1,0,0,3,1,0,0
139577799,0.0,0.0,1.0,-0.003167021,0.0,0.0,0.0,0.0,0.0,0.0,0.0,0,0,0,0,0,0,0,3,1,0,0,3,1,0,0
139601754,0.0,0.0,1.0,-0.010653107,0.0,0.0,0.0,0.0,0.0,0.0,0.0,0,0,0,0,0,0,0,3,1,0,0,3,1,0,0
139626135,0.0,0.0,1.0,-0.024395248,0.0,0.0,0.0,0.0,0.0,0.0,0.0,0,0,0,0,0,0,0,3,1,0,0,3,1,0,0
139645742,0.0,0.0,0.9999916,-0.050140176,0.0,0.0,0.0,0.0,0.0,0.0,0.0,0,0,0,0,0,0,0,3,1,0,0,3,1,0,0
139665757,0.0,0.0,0.9999904,-0.07487967,0.0,0.0,0.0,0.0,0.0,0.0,0.0,0,0,0,0,0,0,0,3,1,0,0,3,1,0,0
139689819,0.0,0.0,0.9999981,-0.082142144,0.0,0.0,0.0,0.0,0.0,0.0,0.0,0,0,0,0,0,0,0,3,1,0,0,3,1,0,0
139713753,0.0,0.0,1.0,-0.07365781,0.0,0.0,0.0,0.0,0.0,0.0,0.0,0,0,0,0,0,0,0,3,1,0,0,3,1,0,0
139737993,0.0,0.0,1.0,-0.06014203,0.0,0.0,0.0,0.0,0.0,0.0,0.0,0,0,0,0,0,0,0,3,1,0,0,3,1,0,0
139761779,0.0,0.0,1.0,-0.05680894,0.0,0.0,0.0,0.0,0.0,0.0,0.0,0,0,0,0,0,0,0,3,1,0,0,3,1,0,0
139785804,0.0,0.0,0.99999994,-0.06665539,0.0,0.0,0.0,0.0,0.0,0.0,0.0,0,0,0,0,0,0,0,3,1,0,0,3,1,0,0
139809855,0.0,0.0,0.99999994,-0.07832417,0.0,0.0,0.0,0.0,0.0,0.0,0.0,0,0,0,0,0,0,0,3,1,0,0,3,1,0,0
139833064,0.0,0.0,1.0,-0.08597771,0.0,0.0,0.0,0.0,0.0,0.0,0.0,0,0,0,0,0,0,0,3,1,0,0,3,1,0,0
139856934,0.0,0.0,1.0,-0.09231763,0.0,0.0,0.0,0.0,0.0,0.0,0.0,0,0,0,0,0,0,0,3,1,0,0,3,1,0,0
139878232,0.0,0.0,1.0,-0.09632355,0.0,0.0,0.0,0.0,0.0,0.0,0.0,0,0,0,0,0,0,0,3,1,0,0,3,1,0,0
139901748,0.0,0.0,1.0,-0.09603541,0.0,0.0,0.0,0.0,0.0,0.0,0.0,0,0,0,0,0,0,0,3,1,0,0,3,1,0,0
139921757,0.0,0.0,1.0,-0.08987483,0.0,0.0,0.0,0.0,0.0,0.0,0.0,0,0,0,0,0,0,0,3,1,0,0,3,1,0,0
139944970,0.0,0.0,1.0,-0.072899595,0.0,0.0,0.0,0.0,0.0,0.0,0.0,0,0,0,0,0,0,0,3,1,0,0,3,1,0,0
139965941,0.0,0.0,1.0,-0.047281306,0.0,0.0,0.0,0.0,0.0,0.0,0.0,0,0,0,0,0,0,0,3,1,0,0,3,1,0,0
139988209,0.0,0.0,1.0,-0.025329571,0.0,0.0,0.0,0.0,0.0,0.0,0.0,0,0,0,0,0,0,0,3,1,0,0,3,1,0,0
140008949,0.0,0.0,1.0,-0.012748817,0.0,0.0,0.0,0.0,0.0,0.0,0.0,0,0,0,0,0,0,0,3,1,0,0,3,1,0,0
140033171,0.0,0.0,1.0,-0.003966864,0.0,0.0,0.0,0.0,0.0,0.0,0.0,0,0,0,0,0,0,0,3,1,0,0,3,1,0,0
140054007,0.0,0.0,1.0,0.0010305543,0.0,0.0,0.0,0.0,0.0,0.0,0.0,0,0,0,0,0,0,0,3,1,0,0,3,1,0,0
140076936,0.0,0.0,1.0,0.0011575923,0.0,0.0,0.0,0.0,0.0,0.0,0.0,0,0,0,0,0,0,0,3,1,0,0,3,1,0,0
140096947,0.0,0.0,1.0,0.004474233,0.0,0.0,0.0,0.0,0.0,0.0,0.0,0,0,0,0,0,0,0,3,1,0,0,3,1,0,0
140116965,0.0,0.0,1.0,0.015764587,0.0,0.0,0.0,0.0,0.0,0.0,0.0,0,0,0,0,0,0,0,3,1,0,0,3,1,0,0
140140977,0.0,0.0,1.0,0.026721701,0.0,0.0,0.0,0.0,0.0,0.0,0.0,0,0,0,0,0,0,0,3,1,0,0,3,1,0,0
140161143,0.0,0.0,1.0,0.02909086,0.0,0.0,0.0,0.0,0.0,0.0,0.0,0,0,0,0,0,0,0,3,1,0,0,3,1,0,0
140185144,0.0,0.0,1.0,0.022510415,0.0,0.0,0.0,0.0,0.0,0.0,0.0,0,0,0,0,0,0,0,3,1,0,0,3,1,0,0
140209163,0.0,0.0,1.0,0.010587269,0.0,0.0,0.0,0.0,0.0,0.0,0.0,0,0,0,0,0,0,0,3,1,0,0,3,1,0,0
140229221,0.0,0.0,1.0,0.0010974932,0.0,0.0,0.0,0.0,0.0,0.0,0.0,0,0,0,0,0,0,0,3,1,0,0,3,1,0,0
140249992,0.0,0.0,1.0,-0.0016676002,0.0,0.0,0.0,0.0,0.0,0.0,0.0,0,0,0,0,0,0,0,3,1,0,0,3,1,0,0
140273316,0.0,0.0,1.0,-0.0008311302,0.0,0.0,0.0,0.0,0.0,0.0,0.0,0,0,0,0,0,0,0,3,1,0,0,3,1,0,0
140293748,0.0,0.0,1.0,1.9417103e-05,0.0,0.0,0.0,0.0,0.0,0.0,0.0,0,0,0,0,0,0,0,3,1,0,0,3,1,0,0
140313744,0.0,0.0,1.0,0.00016992349,0.0,0.0,0.0,0.0,0.0,0.0,0.0,0,0,0,0,0,0,0,3,1,0,0,3,1,0,0
140337048,0.0,0.0,1.0,5.898919e-05,0.0,0.0,0.0,0.0,0.0,0.0,0.0,0,0,0,0,0,0,0,3,1,0,0,3,1,0,0
140357018,0.0,0.0,1.0,-1.1475576e-05,0.0,0.0,0.0,0.0,0.0,0.0,0.0,0,0,0,0,0,0,0,3,1,0,0,3,1,0,0
140376994,0.0,0.0,1.0,-1.5791547e-05,0.0,0.0,0.0,0.0,0.0,0.0,0.0,0,0,0,0,0,0,0,3,1,0,0,3,1,0,0
140401181,0.0,0.0,1.0,-3.5883088e-06,0.0,0.0,0.0,0.0,0.0,0.0,0.0,0,0,0,0,0,0,0,3,1,0,0,3,1,0,0
140425088,0.0,0.0,1.0,1.7662552e-06,0.0,0.0,0.0,0.0,0.0,0.0,0.0,0,0,0,0,0,0,0,3,1,0,0,3,1,0,0
140448962,0.0,0.0,1.0,1.3553267e-06,0.0,0.0,0.0,0.0,0.0,0.0,0.0,0,0,0,0,0,0,0,3,1,0,0,3,1,0,0
140468951,0.0,0.0,1.0,1.5496965e-07,0.0,0.0,0.0,0.0,0.0,0.0,0.0,0,0,0,0,0,0,0,3,1,0,0,3,1,0,0
140489356,0.0,0.0,1.0,-2.0812878e-07,0.0,0.0,0.0,0.0,0.0,0.0,0.0,0,0,0,0,0,0,0,3,1,0,0,3,1,0,0
140509738,0.0,0.0,1.0,-1.07254735e-07,0.0,0.0,0.0,0.0,0.0,0.0,0.0,0,0,0,0,0,0,0,3,1,0,0,3,1,0,0
140533167,0.0,0.0,1.0,1.1213349e-09,0.0,0.0,0.0,0.0,0.0,0.0,0.0,0,0,0,0,0,0,0,3,1,0,0,3,1,0,0
140556953,0.0,0.0,1.0,2.1416529e-08,0.0,0.0,0.0,0.0,0.0,0.0,0.0,0,0,0,0,0,0,0,3,1,0,0,3,1,0,0
140576955,0.0,0.0,1.0,7.694416e-09,0.0,0.0,0.0,0.0,0.0,0.0,0.0,0,0,0,0,0,0,0,3,1,0,0,3,1,0,0
140597347,0.0,0.0,1.0,-1.3503965e-09,0.0,0.0,0.0,0.0,0.0,0.0,0.0,0,0,0,0,0,0,0,3,1,0,0,3,1,0,0
140620177,0.0,0.0,1.0,-2.0056956e-09,0.0,0.0,0.0,0.0,0.0,0.0,0.0,0,0,0,0,0,0,0,3,1,0,0,3,1,0,0
140640991,0.0,0.0,1.0,-4.767304e-10,0.0,0.0,0.0,0.0,0.0,0.0,0.0,0,0,0,0,0,0,0,3,1,0,0,3,1,0,0
140661155,0.0,0.0,1.0,2.1658189e-10,0.0,0.0,0.0,0.0,0.0,0.0,0.0,0,0,0,0,0,0,0,3,1,0,0,3,1,0,0
140681046,0.0,0.0,1.0,1.7338421e-10,0.0,0.0,0.0,0.0,0.0,0.0,0.0,0,0,0,0,0,0,0,3,1,0,0,3,1,0,0
140705361,0.0,0.0,1.0,2.1660052e-11,0.0,0.0,0.0,0.0,0.0,0.0,0.0,0,0,0,0,0,0,0,3,1,0,0,3,1,0,0
140728960,0.0,0.0,1.0,-2.5947371e-11,0.0,0.0,0.0,0.0,0.0,0.0,0.0,0,0,0,0,0,0,0,3,1,0,0,3,1,0,0
140753196,0.0,0.0,0.9997386,-1.382964e-11,0.0,0.0,0.0,0.0,0.0,0.0,0.0,0,0,0,0,0,0,0,3,1,0,0,3,1,0,0
140773789,0.0,0.0,0.999119,-2.9525458e-14,0.0,0.0,0.0,0.0,0.0,0.0,0.0,0,0,0,0,0,0,0,3,1,0,0,3,1,0,0
140796962,0.0,0.0,0.9989412,2.6971502e-12,0.0,0.0,0.0,0.0,0.0,0.0,0.0,0,0,0,0,0,0,0,3,1,0,0,3,1,0,0
140821226,0.0,0.0,0.99951977,1.002452e-12,0.0,0.0,0.0,0.0,0.0,0.0,0.0,0,0,0,0,0,0,0,3,1,0,0,3,1,0,0
140844965,0.0,0.0,1.0,-1.5771103e-13,0.0,0.0,0.0,0.0,0.0,0.0,0.0,0,0,0,0,0,0,0,3,1,0,0,3,1,0,0
140869002,0.0,0.0,1.0,-2.5457438e-13,0.0,0.0,0.0,0.0,0.0,0.0,0.0,0,0,0,0,0,0,0,3,1,0,0,3,1,0,0
140889002,0.0,0.0,1.0,-6.318987e-14,0.0,0.0,0.0,0.0,0.0,0.0,0.0,0,0,0,0,0,0,0,3,1,0,0,3,1,0,0
140909189,0.0,0.0,0.9999916,2.6499285e-14,0.0,0.0,0.0,0.0,0.0,0.0,0.0,0,0,0,0,0,0,0,3,1,0,0,3,1,0,0
140933146,0.0,0.0,0.9999904,2.2165776e-14,0.0,0.0,0.0,0.0,0.0,0.0,0.0,0,0,0,0,0,0,0,3,1,0,0,3,1,0,0
140957345,0.0,0.0,0.9999981,3.0018818e-15,0.0,0.0,0.0,0.0,0.0,0.0,0.0,0,0,0,0,0,0,0,3,1,0,0,3,1,0,0
140980940,0.0,0.0,1.0,-3.2311302e-15,0.0,0.0,0.0,0.0,0.0,0.0,0.0,0,0,0,0,0,0,0,3,1,0,0,3,1,0,0
141001162,0.0,0.0,1.0,-1.7818062e-15,0.0,0.0,0.0,0.0,0.0,0.0,0.0,0,0,0,0,0,0,0,3,1,0,0,3,1,0,0
141024959,0.0,0.0,1.0,0.0015931012,0.0,0.0,0.0,0.0,0.0,0.0,0.0,0,0,0,0,0,0,0,3,1,0,0,3,1,0,0
141045154,0.0,0.0,0.99999994,0.0053679976,0.0,0.0,0.0,0.0,0.0,0.0,0.0,0,0,0,0,0,0,0,3,1,0,0,3,1,0,0
141068939,0.0,0.0,0.99999994,0.00910614,0.0,0.0,0.0,0.0,0.0,0.0,0.0,0,0,0,0,0,0,0,3,1,0,0,3,1,0,0
141089077,0.0,0.0,1.0,0.013465537,0.0,0.0,0.0,0.0,0.0,0.0,0.0,0,0,0,0,0,0,0,3,1,0,0,3,1,0,0
141112947,0.0,0.0,1.0,0.018592734,0.0,0.0,0.0,0.0,0.0,0.0,0.0,0,0,0,0,0,0,0,3,1,0,0,3,1,0,0
141132961,0.0,0.0,1.0,0.021226838,0.0,0.0,0.0,0.0,0.0,0.0,0.0,0,0,0,0,0,0,0,3,1,0,0,3,1,0,0
141157188,0.0,0.0,1.0,0.018010022,0.0,0.0,0.0,0.0,0.0,0.0,0.0,0,0,0,0,0,0,0,3,1,0,0,3,1,0,0
141180937,0.0,0.0,1.0,0.008871051,0.0,0.0,0.0,0.0,0.0,0.0,0.0,0,0,0,0,0,0,0,3,1,0,0,3,1,0,0
141205001,0.0,0.0,1.0,0.00081351685,0.0,0.0,0.0,0.0,0.0,0.0,0.0,0,0,0,0,0,0,0,3,1,0,0,3,1,0,0
141228942,0.0,0.0,1.0,-0.0014364744,0.0,0.0,0.0,0.0,0.0,0.0,0.0,0,0,0,0,0,0,0,3,1,0,0,3,1,0,0
141248943,0.0,0.0,1.0,-0.0006901158,0.0,0.0,0.0,0.0,0.0,0.0,0.0,0,0,0,0,0,0,0,3,1,0,0,3,1,0,0
141269146,0.0,0.0,0.9945089,2.6267662e-05,0.0,0.0,0.0,0.0,0.0,0.0,0.0,0,0,0,0,0,0,0,3,1,0,0,3,1,0,0
141292974,0.0,0.0,0.9697307,0.00014484214,0.0,0.0,0.0,0.0,0.0,0.0,0.0,0,0,0,0,0,0,0,3,1,0,0,3,1,0,0
141317345,0.0,0.0,0.91353667,4.8379494e-05,0.0,0.0,0.0,0.0,0.0,0.0,0.0,0,0,0,0,0,0,0,3,1,0,0,3,1,0,0
141341074,0.0,0.0,0.84768003,-1.0484824e-05,0.0,0.0,0.0,0.0,0.0,0.0,0.0,0,0,0,0,0,0,0,3,1,0,0,3,1,0,0
141364938,0.0,0.0,0.79460233,-1.3347893e-05,0.0,0.0,0.0,0.0,0.0,0.0,0.0,0,0,0,0,0,0,0,3,1,0,0,3,1,0,0
141389307,0.0,0.0,0.73244995,-2.8793177e-06,0.0,0.0,0.0,0.0,0.0,0.0,0.0,0,0,0,0,0,0,0,3,1,0,0,3,1,0,0
141409182,0.0,0.0,0.6526751,1.5497411e-06,0.0,0.0,0.0,0.0,0.0,0.0,0.0,0,0,0,0,0,0,0,3,1,0,0,3,1,0,0
141433172,0.0,0.0,0.58463866,1.1364872e-06,0.0,0.0,0.0,0.0,0.0,0.0,0.0,0,0,0,0,0,0,0,3,1,0,0,3,1,0,0
141457059,0.0,0.0,0.54138714,1.1649933e-07,0.0,0.0,0.0,0.0,0.0,0.0,0.0,0,0,0,0,0,0,0,3,1,0,0,3,1,0,0
141480991,0.0,0.0,0.507872,-1.7949236e-07,0.0,0.0,0.0,0.0,0.0,0.0,0.0,0,0,0,0,0,0,0,3,1,0,0,3,1,0,0
141504942,0.0,0.0,0.48852906,-8.9139725e-08,0.0,0.0,0.0,0.0,0.0,0.0,0.0,0,0,0,0,0,0,0,3,1,0,0,3,1,0,0
141529088,0.0,0.0,0.48794407,2.207868e-09,0.0,0.0,0.0,0.0,0.0,0.0,0.0,0,0,0,0,0,0,0,3,1,0,0,3,1,0,0
141552949,0.0,0.0,0.49151555,1.8270827e-08,0.0,0.0,0.0,0.0,0.0,0.0,0.0,0,0,0,0,0,0,0,3,1,0,0,3,1,0,0
141577169,0.0,0.0,0.4926884,6.319233e-09,0.0,0.0,0.0,0.0,0.0,0.0,0.0,0,0,0,0,0,0,0,3,1,0,0,3,1,0,0
141596962,0.0,0.0,0.49189946,-1.242586e-09,0.0,0.0,0.0,0.0,0.0,0.0,0.0,0,0,0,0,0,0,0,3,1,0,0,3,1,0,0
141616967,0.0,0.0,0.49111682,-1.6965745e-09,0.0,0.0,0.0,0.0,0.0,0.0,0.0,0,0,0,0,0,0,0,3,1,0,0,3,1,0,0
141641364,0.0,0.0,0.4909821,-3.8361264e-10,0.0,0.0,0.0,0.0,0.0,0.0,0.0,0,0,0,0,0,0,0,3,1,0,0,3,1,0,0
141661162,0.0,0.0,0.49108556,1.9046063e-10,0.0,0.0,0.0,0.0,0.0,0.0,0.0,0,0,0,0,0,0,0,3,1,0,0,3,1,0,0
141684942,0.0,0.0,0.4911502,1.4549777e-10,0.0,0.0,0.0,0.0,0.0,0.0,0.0,0,0,0,0,0,0,0,3,1,0,0,3,1,0,0
141704944,0.0,0.0,0.4911538,1.6470212e-11,0.0,0.0,0.0,0.0,0.0,0.0,0.0,0,0,0,0,0,0,0,3,1,0,0,3,1,0,0
141725200,0.0,0.0,0.49114245,-2.2404559e-11,0.0,0.0,0.0,0.0,0.0,0.0,0.0,0,0,0,0,0,0,0,3,1,0,0,3,1,0,0
141745181,0.0,0.0,0.49113756,-1.150422e-11,0.0,0.0,0.0,0.0,0.0,0.0,0.0,0,0,0,0,0,0,0,3,1,0,0,3,1,0,0
141769153,0.0,0.0,0.49113795,1.3604137e-13,0.0,0.0,0.0,0.0,0.0,0.0,0.0,0,0,0,0,0,0,0,3,1,0,0,3,1,0,0
141788943,0.0,0.0,0.4911391,2.3029781e-12,0.0,0.0,0.0,0.0,0.0,0.0,0.0,0,0,0,0,0,0,0,3,1,0,0,3,1,0,0
141812980,0.0,0.0,0.49140093,8.243742e-13,0.0,0.0,0.0,0.0,0.0,0.0,0.0,0,0,0,0,0,0,0,3,1,0,0,3,1,0,0
141837206,0.0,0.0,0.49202046,-1.463306e-13,0.0,0.0,0.0,0.0,0.0,0.0,0.0,0,0,0,0,0,0,0,3,1,0,0,3,1,0,0
141857384,0.0,0.0,0.49245957,-2.1549857e-13,0.0,0.0,0.0,0.0,0.0,0.0,0.0,0,0,0,0,0,0,0,3,1,0,0,3,1,0,0
141880977,0.0,0.0,0.4925005,-5.0978763e-14,0.0,0.0,0.0,0.0,0.0,0.0,0.0,0,0,0,0,0,0,0,3,1,0,0,3,1,0,0
141901191,0.0,0.0,0.49242967,2.3359966e-14,0.0,0.0,0.0,0.0,0.0,0.0,0.0,0,0,0,0,0,0,0,3,1,0,0,3,1,0,0
141925094,0.0,0.0,0.49213398,1.8614586e-14,0.0,0.0,0.0,0.0,0.0,0.0,0.0,0,0,0,0,0,0,0,3,1,0,0,3,1,0,0
141945021,0.0,0.0,0.4915156,2.3043491e-15,0.0,0.0,0.0,0.0,0.0,0.0,0.0,0,0,0,0,0,0,0,3,1,0,0,3,1,0,0
141969153,0.0,0.0,0.49134502,-2.7935087e-15,0.0,0.0,0.0,0.0,0.0,0.0,0.0,0,0,0,0,0,0,0,3,1,0,0,3,1,0,0
141992989,0.0,0.0,0.49192604,-1.4835054e-15,0.0,0.0,0.0,0.0,0.0,0.0,0.0,0,0,0,0,0,0,0,3,1,0,0,3,1,0,0
142012989,0.0,0.0,0.49165118,-1.1827248e-18,0.0,0.0,0.0,0.0,0.0,0.0,0.0,0,0,0,0,0,0,0,3,1,0,0,3,1,0,0
142033215,0.0,0.0,0.4898669,2.900566e-16,0.0,0.0,0.0,0.0,0.0,0.0,0.0,0,0,0,0,0,0,0,3,1,0,0,3,1,0,0
142053194,0.0,0.0,0.48743102,1.0741541e-16,0.0,0.0,0.0,0.0,0.0,0.0,0.0,0,0,0,0,0,0,0,3,1,0,0,3,1,0,0
142076944,0.0,0.0,0.48504993,-1.7104714e-17,0.0,0.0,0.0,0.0,0.0,0.0,0.0,0,0,0,0,0,0,0,3,1,0,0,3,1,0,0
142097069,0.0,0.0,0.484124,-2.7354284e-17,0.0,0.0,0.0,0.0,0.0,0.0,0.0,0,0,0,0,0,0,0,3,1,0,0,3,1,0,0
142121016,0.0,0.0,0.48450962,-6.758781e-18,0.0,0.0,0.0,0.0,0.0,0.0,0.0,0,0,0,0,0,0,0,3,1,0,0,3,1,0,0
142145354,0.0,0.0,0.48483342,2.8588448e-18,0.0,0.0,0.0,0.0,0.0,0.0,0.0,0,0,0,0,0,0,0,3,1,0,0,3,1,0,0
142165166,0.0,0.0,0.48461607,2.3798964e-18,0.0,0.0,0.0,0.0,0.0,0.0,0.0,0,0,0,0,0,0,0,3,1,0,0,3,1,0,0
142188982,0.0,0.0,0.4842109,3.1962993e-19,0.0,0.0,0.0,0.0,0.0,0.0,0.0,0,0,0,0,0,0,0,3,1,0,0,3,1,0,0
142212986,0.0,0.0,0.4843652,-3.479092e-19,0.0,0.0,0.0,0.0,0.0,0.0,0.0,0,0,0,0,0,0,0,3,1,0,0,3,1,0,0
142232990,0.0,0.0,0.4837171,-1.9115047e-19,0.0,0.0,0.0,0.0,0.0,0.0,0.0,0,0,0,0,0,0,0,3,1,0,0,3,1,0,0
142253391,0.0,0.0,0.46775842,-2.5092233e-21,0.0,0.0,0.0,0.0,0.0,0.0,0.0,0,0,0,0,0,0,0,3,1,0,0,3,1,0,0
142272955,0.0,0.0,0.43374792,3.650304e-20,0.0,0.0,0.0,0.0,0.0,0.0,0.0,0,0,0,0,0,0,0,3,1,0,0,3,1,0,0
142296970,0.0,0.0,0.3879588,1.3980213e-20,0.0,0.0,0.0,0.0,0.0,0.0,0.0,0,0,0,0,0,0,0,3,1,0,0,3,1,0,0
142316969,0.0,0.0,0.30552876,-1.9817991e-21,0.0,0.0,0.0,0.0,0.0,0.0,0.0,0,0,0,0,0,0,0,3,1,0,0,3,1,0,0
142341147,0.0,0.0,0.18597847,-0.012120303,0.0,0.0,0.0,0.0,0.0,0.0,0.0,0,0,0,0,0,0,0,3,1,0,0,3,1,0,0
142361346,0.0,0.0,0.08734189,-0.04083969,0.0,0.0,0.0,0.0,0.0,0.0,0.0,0,0,0,0,0,0,0,3,1,0,0,3,1,0,0
142384975,0.0,0.0,0.03821806,-0.071211666,0.0,0.0,0.0,0.0,0.0,0.0,0.0,0,0,0,0,0,0,0,3,1,0,0,3,1,0,0
142408977,0.0,0.0,0.011139818,-0.11106426,0.0,0.0,0.0,0.0,0.0,0.0,0.0,0,0,0,0,0,0,0,3,1,0,0,3,1,0,0
142429195,0.0,0.0,0.0,-0.16832477,0.0,0.0,0.0,0.0,0.0,0.0,0.0,0,0,0,0,0,0,0,3,1,0,0,3,1,0,0
142448976,0.0,0.0,0.0,-0.21593335,0.0,0.0,0.0,0.0,0.0,0.0,0.0,0,0,0,0,0,0,0,3,1,0,0,3,1,0,0
142473143,0.0,0.0,0.0,-0.23601472,0.0,0.0,0.0,0.0,0.0,0.0,0.0,0,0,0,0,0,0,0,3,1,0,0,3,1,0,0
142497186,0.0,0.0,0.0004466716,-0.24043648,0.0,0.0,0.0,0.0,0.0,0.0,0.0,0,0,0,0,0,0,0,3,1,0,0,3,1,0,0
142520969,0.0,0.0,0.00028382125,-0.23813818,0.0,0.0,0.0,0.0,0.0,0.0,0.0,0,0,0,0,0,0,0,3,1,0,0,3,1,0,0
142541308,0.0,0.0,1.7414377e-05,-0.23220728,0.0,0.0,0.0,0.0,0.0,0.0,0.0,0,0,0,0,0,0,0,3,1,0,0,3,1,0,0
142560964,0.0,0.0,0.0,-0.23046571,0.0,0.0,0.0,0.0,0.0,0.0,0.0,0,0,0,0,0,0,0,3,1,0,0,3,1,0,0
142581053,0.0,0.0,0.0,-0.23467231,0.0,0.0,0.0,0.0,0.0,0.0,0.0,0,0,0,0,0,0,0,3,1,0,0,3,1,0,0
142601103,0.0,0.0,1.6522999e-06,-0.23920265,0.0,0.0,0.0,0.0,0.0,0.0,0.0,0,0,0,0,0,0,0,3,1,0,0,3,1,0,0
142621175,0.0,0.0,4.8341503e-06,-0.24005301,0.0,0.0,0.0,0.0,0.0,0.0,0.0,0,0,0,0,0,0,0,3,1,0,0,3,1,0,0
142641172,0.0,0.0,1.462804e-06,-0.23895317,0.0,0.0,0.0,0.0,0.0,0.0,0.0,0,0,0,0,0,0,0,3,1,0,0,3,1,0,0
142665025,0.0,0.0,0.0,-0.2389072,0.0,0.0,0.0,0.0,0.0,0.0,0.0,0,0,0,0,0,0,0,3,1,0,0,3,1,0,0
142688963,0.0,0.0,0.0,-0.2401595,0.0,0.0,0.0,0.0,0.0,0.0,0.0,0,0,0,0,0,0,0,3,1,0,0,3,1,0,0
142709001,0.0,0.0,0.0,-0.24958976,0.0,0.0,0.0,0.0,0.0,0.0,0.0,0,0,0,0,0,0,0,3,1,0,0,3,1,0,0
142728975,0.0,0.0,5.525061e-08,-0.27496198,0.0,0.0,0.0,0.0,0.0,0.0,0.0,0,0,0,0,0,0,0,3,1,0,0,3,1,0,0
142748936,0.0,0.0,3.643087e-08,-0.30198902,0.0,0.0,0.0,0.0,0.0,0.0,0.0,0,0,0,0,0,0,0,3,1,0,0,3,1,0,0
142769094,0.0,0.0,2.643261e-09,-0.3128046,0.0,0.0,0.0,0.0,0.0,0.0,0.0,0,0,0,0,0,0,0,3,1,0,0,3,1,0,0
142793344,0.0,0.0,0.0,-0.31150895,0.0,0.0,0.0,0.0,0.0,0.0,0.0,0,0,0,0,0,0,0,3,1,0,0,3,1,0,0
142816941,0.0,0.0,0.0,-0.30943927,0.0,0.0,0.0,0.0,0.0,0.0,0.0,0,0,0,0,0,0,0,3,1,0,0,3,1,0,0
142837179,0.0,0.0,1.7363101e-10,-0.30998212,0.0,0.0,0.0,0.0,0.0,0.0,0.0,0,0,0,0,0,0,0,3,1,0,0,3,1,0,0
142861071,0.0,0.0,6.110284e-10,-0.31058803,0.0,0.0,0.0,0.0,0.0,0.0,0.0,0,0,0,0,0,0,0,3,1,0,0,3,1,0,0
142885150,0.0,0.0,1.9179197e-10,-0.30965164,0.0,0.0,0.0,0.0,0.0,0.0,0.0,0,0,0,0,0,0,0,3,1,0,0,3,1,0,0
142904977,0.0,0.0,0.0,-0.30866006,0.0,0.0,0.0,0.0,0.0,0.0,0.0,0,0,0,0,0,0,0,3,1,0,0,3,1,0,0
142924964,0.0,0.0,0.0,-0.30847698,0.0,0.0,0.0,0.0,0.0,0.0,0.0,0,0,0,0,0,0,0,3,1,0,0,3,1,0,0
142944972,0.0,0.0,0.0,-0.30913046,0.0,0.0,0.0,0.0,0.0,0.0,0.0,0,0,0,0,0,0,0,3,1,0,0,3,1,0,0
142969047,0.0,0.0,6.823415e-12,-0.30993474,0.0,0.0,0.0,0.0,0.0,0.0,0.0,0,0,0,0,0,0,0,3,1,0,0,3,1,0,0
142989036,0.0,0.0,4.672896e-12,-0.30957702,0.0,0.0,0.0,0.0,0.0,0.0,0.0,0,0,0,0,0,0,0,3,1,0,0,3,1,0,0
143013168,0.0,0.0,3.906307e-13,-0.30876037,0.0,0.0,0.0,0.0,0.0,0.0,0.0,0,0,0,0,0,0,0,3,1,0,0,3,1,0,0
143032991,0.0,0.0,0.0,-0.30852866,0.0,0.0,0.0,0.0,0.0,0.0,0.0,0,0,0,0,0,0,0,3,1,0,0,3,1,0,0
143056995,0.0,0.0,0.0,-0.3096569,0.0,0.0,0.0,0.0,0.0,0.0,0.0,0,0,0,0,0,0,0,3,1,0,0,3,1,0,0
143081343,0.0,0.0,1.740872e-14,-0.31222704,0.0,0.0,0.0,0.0,0.0,0.0,0.0,0,0,0,0,0,0,0,3,1,0,0,3,1,0,0
143101165,0.0,0.0,7.7176926e-14,-0.3140098,0.0,0.0,0.0,0.0,0.0,0.0,0.0,0,0,0,0,0,0,0,3,1,0,0,3,1,0,0
143124978,0.0,0.0,2.5110075e-14,-0.3173271,0.0,0.0,0.0,0.0,0.0,0.0,0.0,0,0,0,0,0,0,0,3,1,0,0,3,1,0,0
143145167,0.0,0.0,0.0,-0.3245275,0.0,0.0,0.0,0.0,0.0,0.0,0.0,0,0,0,0,0,0,0,3,1,0,0,3,1,0,0
143169165,0.0,0.0,0.0,-0.337605,0.0,0.0,0.0,0.0,0.0,0.0,0.0,0,0,0,0,0,0,0,3,1,0,0,3,1,0,0
143189368,0.0,0.0,0.0,-0.3642142,0.0,0.0,0.0,0.0,0.0,0.0,0.0,0,0,0,0,0,0,0,3,1,0,0,3,1,0,0
143213002,0.0,0.0,8.4127577e-16,-0.39994264,0.0,0.0,0.0,0.0,0.0,0.0,0.0,0,0,0,0,0,0,0,3,1,0,0,3,1,0,0
143237366,0.0,0.0,5.9896146e-16,-0.43059447,0.0,0.0,0.0,0.0,0.0,0.0,0.0,0,0,0,0,0,0,0,3,1,0,0,3,1,0,0
143257395,0.0,0.0,5.6597583e-17,-0.4480992,0.0,0.0,0.0,0.0,0.0,0.0,0.0,0,0,0,0,0,0,0,3,1,0,0,3,1,0,0
143280968,0.0,0.0,0.0,-0.45225433,0.0,0.0,0.0,0.0,0.0,0.0,0.0,0,0,0,0,0,0,0,3,1,0,0,3,1,0,0
143300964,0.0,0.0,0.0,-0.45299694,0.0,0.0,0.0,0.0,0.0,0.0,0.0,0,0,0,0,0,0,0,3,1,0,0,3,1,0,0
143320950,0.0,0.0,1.6161428e-18,-0.4577274,0.0,0.0,0.0,0.0,0.0,0.0,0.0,0,0,0,0,0,0,0,3,1,0,0,3,1,0,0
143340965,0.0,0.0,9.740759e-18,-0.47250426,0.0,0.0,0.0,0.0,0.0,0.0,0.0,0,0,0,0,0,0,0,3,1,0,0,3,1,0,0
143365188,0.0,0.0,3.2830097e-18,-0.50602174,0.0,0.0,0.0,0.0,0.0,0.0,0.0,0,0,0,0,0,0,0,3,1,0,0,3,1,0,0
143385101,0.0,0.0,0.0,-0.5418623,0.0,0.0,0.0,0.0,0.0,0.0,0.0,0,0,0,0,0,0,0,3,1,0,0,3,1,0,0
143408955,0.0,0.0,0.0,-0.5564476,0.0,0.0,0.0,0.0,0.0,0.0,0.0,0,0,0,0,0,0,0,3,1,0,0,3,1,0,0
143428963,0.0,0.0,0.0,-0.5516574,0.0,0.0,0.0,0.0,0.0,0.0,0.0,0,0,0,0,0,0,0,3,1,0,0,3,1,0,0
143449056,0.0,0.0,1.035375e-19,-0.5270063,0.0,0.0,0.0,0.0,0.0,0.0,0.0,0,0,0,0,0,0,0,3,1,0,0,3,1,0,0
143468983,0.0,0.0,7.672052e-20,-0.4882709,0.0,0.0,0.0,0.0,0.0,0.0,0.0,0,0,0,0,0,0,0,3,1,0,0,3,1,0,0
143493172,0.0,0.0,8.076053e-21,-0.45296267,0.0,0.0,0.0,0.0,0.0,0.0,0.0,0,0,0,0,0,0,0,3,1,0,0,3,1,0,0
143513353,0.0,0.0,0.0,-0.41904396,0.0,0.0,0.0,0.0,0.0,0.0,0.0,0,0,0,0,0,0,0,3,1,0,0,3,1,0,0
143537132,0.0,0.0,0.0,-0.37759003,0.0,0.0,0.0,0.0,0.0,0.0,0.0,0,0,0,0,0,0,0,3,1,0,0,3,1,0,0
143560967,0.0,0.0,1.2910404e-22,-0.3341335,0.0,0.0,0.0,0.0,0.0,0.0,0.0,0,0,0,0,0,0,0,3,1,0,0,3,1,0,0
143585317,0.0,0.0,1.2284895e-21,-0.28087306,0.0,0.0,0.0,0.0,0.0,0.0,0.0,0,0,0,0,0,0,0,3,1,0,0,3,1,0,0
143609066,0.0,0.0,4.2867984e-22,-0.17431985,0.0,0.0,0.0,0.0,0.0,0.0,0.0,0,0,0,0,0,0,0,3,1,0,0,3,1,0,0
143633001,0.0,0.0,0.0,-0.044723548,0.0,0.0,0.0,0.0,0.0,0.0,0.0,0,0,0,0,0,0,0,3,1,0,0,3,1,0,0
143652965,0.0,0.0,0.0,0.017607996,0.0,0.0,0.0,0.0,0.0,0.0,0.0,0,0,0,0,0,0,0,3,1,0,0,3,1,0,0
143672958,0.0,0.0,0.0,0.015264207,0.0,0.0,0.0,0.0,0.0,0.0,0.0,0,0,0,0,0,0,0,3,1,0,0,3,1,0,0
143693365,0.0,0.0,0.008105994,0.0021926183,0.0,0.0,0.0,0.0,0.0,0.0,0.0,0,0,0,0,0,0,0,3,1,0,0,3,1,0,0
143716954,0.0,0.0,0.043525357,-0.0021787393,0.0,0.0,0.0,0.0,0.0,0.0,0.0,0,0,0,0,0,0,0,3,1,0,0,3,1,0,0
143736978,0.0,0.0,0.095556475,-0.0012344525,0.0,0.0,0.0,0.0,0.0,0.0,0.0,0,0,0,0,0,0,0,3,1,0,0,3,1,0,0
143757153,0.0,0.0,0.18446244,-2.9532483e-05,0.0,0.0,0.0,0.0,0.0,0.0,0.0,0,0,0,0,0,0,0,3,1,0,0,3,1,0,0
143777074,0.0,0.0,0.33734602,0.00023081216,0.0,0.0,0.0,0.0,0.0,0.0,0.0,0,0,0,0,0,0,0,3,1,0,0,3,1,0,0
143801333,0.0,0.0,0.455661,9.107431e-05,0.0,0.0,0.0,0.0,0.0,0.0,0.0,0,0,0,0,0,0,0,3,1,0,0,3,1,0,0
143820962,0.0,0.0,0.48644102,-1.1542206e-05,0.0,0.0,0.0,0.0,0.0,0.0,0.0,0,0,0,0,0,0,0,3,1,0,0,3,1,0,0
143840961,0.0,0.0,0.4900747,-2.209894e-05,0.0,0.0,0.0,0.0,0.0,0.0,0.0,0,0,0,0,0,0,0,3,1,0,0,3,1,0,0
143861073,0.0,0.0,0.49349618,-5.9060158e-06,0.0,0.0,0.0,0.0,0.0,0.0,0.0,0,0,0,0,0,0,0,3,1,0,0,3,1,0,0
143884962,0.0,0.0,0.4943105,2.144886e-06,0.0,0.0,0.0,0.0,0.0,0.0,0.0,0,0,0,0,0,0,0,3,1,0,0,3,1,0,0
143909361,0.0,0.0,0.49367997,1.9490844e-06,0.0,0.0,0.0,0.0,0.0,0.0,0.0,0,0,0,0,0,0,0,3,1,0,0,3,1,0,0
143929169,0.0,0.0,0.49302602,3.0023742e-07,0.0,0.0,0.0,0.0,0.0,0.0,0.0,0,0,0,0,0,0,0,3,1,0,0,3,1,0,0
143952956,0.0,0.0,0.49316934,-2.7071545e-07,0.0,0.0,0.0,0.0,0.0,0.0,0.0,0,0,0,0,0,0,0,3,1,0,0,3,1,0,0
143972961,0.0,0.0,0.4936118,-1.5882794e-07,0.0,0.0,0.0,0.0,0.0,0.0,0.0,0,0,0,0,0,0,0,3,1,0,0,3,1,0,0
143992955,0.0,0.0,0.49374723,-5.6809144e-09,0.0,0.0,0.0,0.0,0.0,0.0,0.0,0,0,0,0,0,0,0,3,1,0,0,3,1,0,0
144012963,0.0,0.0,0.49371067,2.9001752e-08,0.0,0.0,0.0,0.0,0.0,0.0,0.0,0,0,0,0,0,0,0,3,1,0,0,3,1,0,0
144037164,0.0,0.0,0.49340916,1.182935e-08,0.0,0.0,0.0,0.0,0.0,0.0,0.0,0,0,0,0,0,0,0,3,1,0,0,3,1,0,0
144060980,0.0,0.0,0.49304342,-1.3077318e-09,0.0,0.0,0.0,0.0,0.0,0.0,0.0,0,0,0,0,0,0,0,3,1,0,0,3,1,0,0
144080964,0.0,0.0,0.4932288,-2.799615e-09,0.0,0.0,0.0,0.0,0.0,0.0,0.0,0,0,0,0,0,0,0,3,1,0,0,3,1,0,0
144105203,0.0,0.0,0.49363038,-7.784596e-10,0.0,0.0,0.0,0.0,0.0,0.0,0.0,0,0,0,0,0,0,0,3,1,0,0,3,1,0,0
144125340,0.0,0.0,0.4937425,2.6054656e-10,0.0,0.0,0.0,0.0,0.0,0.0,0.0,0,0,0,0,0,0,0,3,1,0,0,3,1,0,0
144145165,0.0,0.0,0.4934438,2.487137e-10,0.0,0.0,0.0,0.0,0.0,0.0,0.0,0,0,0,0,0,0,0,3,1,0,0,3,1,0,0
144168973,0.0,0.0,0.49304998,4.0887366e-11,0.0,0.0,0.0,0.0,0.0,0.0,0.0,0,0,0,0,0,0,0,3,1,0,0,3,1,0,0
144188934,0.0,0.0,0.4932244,-3.359305e-11,0.0,0.0,0.0,0.0,0.0,0.0,0.0,0,0,0,0,0,0,0,3,1,0,0,3,1,0,0
144209165,0.0,0.0,0.4936275,-2.0419935e-11,0.0,0.0,0.0,0.0,0.0,0.0,0.0,0,0,0,0,0,0,0,3,1,0,0,3,1,0,0
144233338,0.0,0.0,0.4937423,-9.676761e-13,0.0,0.0,0.0,0.0,0.0,0.0,0.0,0,0,0,0,0,0,0,3,1,0,0,3,1,0,0
144256954,0.0,0.0,0.49265984,3.6409617e-12,0.0,0.0,0.0,0.0,0.0,0.0,0.0,0,0,0,0,0,0,0,3,1,0,0,3,1,0,0
144280966,0.0,0.0,0.4901455,1.5349206e-12,0.0,0.0,0.0,0.0,0.0,0.0,0.0,0,0,0,0,0,0,0,3,1,0,0,3,1,0,0
144305318,0.0,0.0,0.48158383,-1.4576247e-13,0.0,0.0,0.0,0.0,0.0,0.0,0.0,0,0,0,0,0,0,0,3,1,0,0,3,1,0,0
144328972,0.0,0.0,0.4611315,-3.544248e-13,0.0,0.0,0.0,0.0,0.0,0.0,0.0,0,0,0,0,0,0,0,3,1,0,0,3,1,0,0
144352980,0.0,0.0,0.44243762,-1.0242703e-13,0.0,0.0,0.0,0.0,0.0,0.0,0.0,0,0,0,0,0,0,0,3,1,0,0,3,1,0,0
144372964,0.0,0.0,0.44005755,3.155236e-14,0.0,0.0,0.0,0.0,0.0,0.0,0.0,0,0,0,0,0,0,0,3,1,0,0,3,1,0,0
144392951,0.0,0.0,0.45460537,3.1716278e-14,0.0,0.0,0.0,0.0,0.0,0.0,0.0,0,0,0,0,0,0,0,3,1,0,0,3,1,0,0
144413362,0.0,0.0,0.4795356,5.541581e-15,0.0,0.0,0.0,0.0,0.0,0.0,0.0,0,0,0,0,0,0,0,3,1,0,0,3,1,0,0
144432976,0.0,0.0,0.49583566,-4.162781e-15,0.0,0.0,0.0,0.0,0.0,0.0,0.0,0,0,0,0,0,0,0,3,1,0,0,3,1,0,0
144456965,0.0,0.0,0.49880764,0.005310337,0.0,0.0,0.0,0.0,0.0,0.0,0.0,0,0,0,0,0,0,0,3,1,0,0,3,1,0,0
144476999,0.0,0.0,0.50011337,0.0125829885,0.0,0.0,0.0,0.0,0.0,0.0,0.0,0,0,0,0,0,0,0,3,1,0,0,3,1,0,0
144497001,0.0,0.0,0.5002754,0.008920247,0.0,0.0,0.0,0.0,0.0,0.0,0.0,0,0,0,0,0,0,0,3,1,0,0,3,1,0,0
144521391,0.0,0.0,0.49668026,0.0008323276,0.0,0.0,0.0,0.0,0.0,0.0,0.0,0,0,0,0,0,0,0,3,1,0,0,3,1,0,0
144540949,0.0,0.0,0.49348965,-0.0014391568,0.0,0.0,0.0,0.0,0.0,0.0,0.0,0,0,0,0,0,0,0,3,1,0,0,3,1,0,0
144560935,0.0,0.0,0.49301463,-0.0006947905,0.0,0.0,0.0,0.0,0.0,0.0,0.0,0,0,0,0,0,0,0,3,1,0,0,3,1,0,0
144580940,0.0,0.0,0.49346387,2.5065503e-05,0.0,0.0,0.0,0.0,0.0,0.0,0.0,0,0,0,0,0,0,0,3,1,0,0,3,1,0,0
144600962,0.0,0.0,0.4937229,0.00014531329,0.0,0.0,0.0,0.0,0.0,0.0,0.0,0,0,0,0,0,0,0,3,1,0,0,3,1,0,0
144625020,0.0,0.0,0.49373063,4.8788996e-05,0.0,0.0,0.0,0.0,0.0,0.0,0.0,0,0,0,0,0,0,0,3,1,0,0,3,1,0,0
144648969,0.0,0.0,0.49368277,-1.0425758e-05,0.0,0.0,0.0,0.0,0.0,0.0,0.0,0,0,0,0,0,0,0,3,1,0,0,3,1,0,0
144672197,0.0,0.0,0.49366358,-1.3406255e-05,0.0,0.0,0.0,0.0,0.0,0.0,0.0,0,0,0,0,0,0,0,3,1,0,0,3,1,0,0
144692188,0.0,0.0,0.49366584,-2.912449e-06,0.0,0.0,0.0,0.0,0.0,0.0,0.0,0,0,0,0,0,0,0,3,1,0,0,3,1,0,0
144716175,0.0,0.0,0.49367043,1.548926e-06,0.0,0.0,0.0,0.0,0.0,0.0,0.0,0,0,0,0,0,0,0,3,1,0,0,3,1,0,0
144738687,0.0,0.0,0.49367172,1.1426737e-06,0.0,0.0,0.0,0.0,0.0,0.0,0.0,0,0,0,0,0,0,0,3,1,0,0,3,1,0,0
144761067,0.0,0.0,0.4936713,1.1894501e-07,0.0,0.0,0.0,0.0,0.0,0.0,0.0,0,0,0,0,0,0,0,3,1,0,0,3,1,0,0
144785093,0.0,0.0,0.48478043,-1.7980003e-07,0.0,0.0,0.0,0.0,0.0,0.0,0.0,0,0,0,0,0,0,0,3,1,0,0,3,1,0,0
144808333,0.0,0.0,0.42606053,-8.97323e-08,0.0,0.0,0.0,0.0,0.0,0.0,0.0,0,0,0,0,0,0,0,3,1,0,0,3,1,0,0
144832377,0.0,0.0,0.2805907,2.0491364e-09,0.0,0.0,0.0,0.0,0.0,0.0,0.0,0,0,0,0,0,0,0,3,1,0,0,3,1,0,0
144852396,0.0,0.0,0.11805147,1.8328208e-08,0.0,0.0,0.0,0.0,0.0,0.0,0.0,0,0,0,0,0,0,0,3,1,0,0,3,1,0,0
144876523,0.0,0.0,0.03103952,6.371519e-09,0.0,0.0,0.0,0.0,0.0,0.0,0.0,0,0,0,0,0,0,0,3,1,0,0,3,1,0,0
144900259,0.0,0.0,0.0024737332,-1.2345012e-09,0.0,0.0,0.0,0.0,0.0,0.0,0.0,0,0,0,0,0,0,0,3,1,0,0,3,1,0,0
144920171,0.0,0.0,0.0,-1.7038253e-09,0.0,0.0,0.0,0.0,0.0,0.0,0.0,0,0,0,0,0,0,0,3,1,0,0,3,1,0,0
144944156,0.0,0.0,0.0,-3.8787515e-10,0.0,0.0,0.0,0.0,0.0,0.0,0.0,0,0,0,0,0,0,0,3,1,0,0,3,1,0,0
144968204,0.0,0.0,0.00012704359,1.9030534e-10,0.0,0.0,0.0,0.0,0.0,0.0,0.0,0,0,0,0,0,0,0,3,1,0,0,3,1,0,0
144992170,0.0,0.0,0.0005154552,1.4627506e-10,0.0,0.0,0.0,0.0,0.0,0.0,0.0,0,0,0,0,0,0,0,3,1,0,0,3,1,0,0
145012152,0.0,0.0,0.00016559761,1.6787842e-11,0.0,0.0,0.0,0.0,0.0,0.0,0.0,0,0,0,0,0,0,0,3,1,0,0,3,1,0,0
145032177,0.0,0.0,0.0,-2.243939e-11,0.0,0.0,0.0,0.0,0.0,0.0,0.0,0,0,0,0,0,0,0,3,1,0,0,3,1,0,0
145056506,0.0,0.0,0.0,-1.1579289e-11,0.0,0.0,0.0,0.0,0.0,0.0,0.0,0,0,0,0,0,0,0,3,1,0,0,3,1,0,0
145080369,0.0,0.0,0.0,0.0026551685,0.0,0.0,0.0,0.0,0.0,0.0,0.0,0,0,0,0,0,0,0,3,1,0,0,3,1,0,0
145100380,0.0,0.0,5.667774e-06,0.012663899,0.0,0.0,0.0,0.0,0.0,0.0,0.0,0,0,0,0,0,0,0,3,1,0,0,3,1,0,0
145124296,0.0,0.0,3.97956e-06,0.025932115,0.0,0.0,0.0,0.0,0.0,0.0,0.0,0,0,0,0,0,0,0,3,1,0,0,3,1,0,0
145148204,0.0,0.0,3.6071685e-07,0.03524762,0.0,0.0,0.0,0.0,0.0,0.0,0.0,0,0,0,0,0,0,0,3,1,0,0,3,1,0,0
145172169,0.0,0.0,0.0,0.041402165,0.0,0.0,0.0,0.0,0.0,0.0,0.0,0,0,0,0,0,0,0,3,1,0,0,3,1,0,0
145192168,0.0,0.0,0.0,0.045038518,0.0,0.0,0.0,0.0,0.0,0.0,0.0,0,0,0,0,0,0,0,3,1,0,0,3,1,0,0
145216158,0.0,0.0,1.2182163e-08,0.046239156,0.0,0.0,0.0,0.0,0.0,0.0,0.0,0,0,0,0,0,0,0,3,1,0,0,3,1,0,0
145236532,0.0,0.0,6.507448e-08,0.046501808,0.0,0.0,0.0,0.0,0.0,0.0,0.0,0,0,0,0,0,0,0,3,1,0,0,3,1,0,0
145260168,0.0,0.0,2.1661334e-08,0.04636376,0.0,0.0,0.0,0.0,0.0,0.0,0.0,0,0,0,0,0,0,0,3,1,0,0,3,1,0,0
145284362,0.0,0.0,0.0,0.04679235,0.0,0.0,0.0,0.0,0.0,0.0,0.0,0,0,0,0,0,0,0,3,1,0,0,3,1,0,0
145308545,0.0,0.0,0.0,0.04750879,0.0,0.0,0.0,0.0,0.0,0.0,0.0,0,0,0,0,0,0,0,3,1,0,0,3,1,0,0
145328183,0.0,0.0,0.0,0.047158577,0.0,0.0,0.0,0.0,0.0,0.0,0.0,0,0,0,0,0,0,0,3,1,0,0,3,1,0,0
145352183,0.0,0.0,6.979969e-10,0.046357837,0.0,0.0,0.0,0.0,0.0,0.0,0.0,0,0,0,0,0,0,0,3,1,0,0,3,1,0,0
145372181,0.0,0.0,5.098633e-10,0.046130523,0.0,0.0,0.0,0.0,0.0,0.0,0.0,0,0,0,0,0,0,0,3,1,0,0,3,1,0,0
145396365,0.0,0.0,5.1729652e-11,0.046734355,0.0,0.0,0.0,0.0,0.0,0.0,0.0,0,0,0,0,0,0,0,3,1,0,0,3,1,0,0
145420149,0.0,0.0,0.0,0.048064064,0.0,0.0,0.0,0.0,0.0,0.0,0.0,0,0,0,0,0,0,0,3,1,0,0,3,1,0,0
145440173,0.0,0.0,0.0,0.04896822,0.0,0.0,0.0,0.0,0.0,0.0,0.0,0,0,0,0,0,0,0,3,1,0,0,3,1,0,0
145464170,0.0,0.0,1.0410006e-12,0.049041953,0.0,0.0,0.0,0.0,0.0,0.0,0.0,0,0,0,0,0,0,0,3,1,0,0,3,1,0,0
145484210,0.0,0.0,8.209298e-12,0.048892148,0.0,0.0,0.0,0.0,0.0,0.0,0.0,0,0,0,0,0,0,0,3,1,0,0,3,1,0,0
145508391,0.0,0.0,2.8297148e-12,0.048291326,0.0,0.0,0.0,0.0,0.0,0.0,0.0,0,0,0,0,0,0,0,3,1,0,0,3,1,0,0
145528285,0.0,0.0,0.0,0.047036573,0.0,0.0,0.0,0.0,0.0,0.0,0.0,0,0,0,0,0,0,0,3,1,0,0,3,1,0,0
145548371,0.0,0.0,0.0,0.046690553,0.0,0.0,0.0,0.0,0.0,0.0,0.0,0,0,0,0,0,0,0,3,1,0,0,3,1,0,0
145568171,0.0,0.0,0.0,0.047870457,0.0,0.0,0.0,0.0,0.0,0.0,0.0,0,0,0,0,0,0,0,3,1,0,0,3,1,0,0
145588173,0.0,0.0,8.5798956e-14,0.04837422,0.0,0.0,0.0,0.0,0.0,0.0,0.0,0,0,0,0,0,0,0,3,1,0,0,3,1,0,0
145608188,0.0,0.0,6.5279156e-14,0.0462052,0.0,0.0,0.0,0.0,0.0,0.0,0.0,0,0,0,0,0,0,0,3,1,0,0,3,1,0,0
145632459,0.0,0.0,7.3216435e-15,0.042649876,0.0,0.0,0.0,0.0,0.0,0.0,0.0,0,0,0,0,0,0,0,3,1,0,0,3,1,0,0
145652198,0.0,0.0,0.0,0.04176081,0.0,0.0,0.0,0.0,0.0,0.0,0.0,0,0,0,0,0,0,0,3,1,0,0,3,1,0,0
145672373,0.0,0.0,0.0,0.043721564,0.0,0.0,0.0,0.0,0.0,0.0,0.0,0,0,0,0,0,0,0,3,1,0,0,3,1,0,0
145696134,0.0,0.0,6.74362e-17,0.045151245,0.0,0.0,0.0,0.0,0.0,0.0,0.0,0,0,0,0,0,0,0,3,1,0,0,3,1,0,0
145716138,0.0,0.0,1.0348333e-15,0.04582664,0.0,0.0,0.0,0.0,0.0,0.0,0.0,0,0,0,0,0,0,0,3,1,0,0,3,1,0,0
145736180,0.0,0.0,3.69194e-16,0.04579626,0.0,0.0,0.0,0.0,0.0,0.0,0.0,0,0,0,0,0,0,0,3,1,0,0,3,1,0,0
145756261,0.0,0.0,0.0,0.045121748,0.0,0.0,0.0,0.0,0.0,0.0,0.0,0,0,0,0,0,0,0,3,1,0,0,3,1,0,0
145776517,0.0,0.0,0.0,0.045409482,0.0,0.0,0.0,0.0,0.0,0.0,0.0,0,0,0,0,0,0,0,3,1,0,0,3,1,0,0
145800361,0.0,0.0,0.0,0.046178922,0.0,0.0,0.0,0.0,0.0,0.0,0.0,0,0,0,0,0,0,0,3,1,0,0,3,1,0,0
145824395,0.0,0.0,1.05253795e-17,0.046406906,0.0,0.0,0.0,0.0,0.0,0.0,0.0,0,0,0,0,0,0,0,3,1,0,0,3,1,0,0
145848557,0.0,0.0,8.3521866e-18,0.046340484,0.0,0.0,0.0,0.0,0.0,0.0,0.0,0,0,0,0,0,0,0,3,1,0,0,3,1,0,0
145868219,0.0,0.0,1.025326e-18,0.046271294,0.0,0.0,0.0,0.0,0.0,0.0,0.0,0,0,0,0,0,0,0,3,1,0,0,3,1,0,0
145892169,0.0,0.0,0.0,0.04625874,0.0,0.0,0.0,0.0,0.0,0.0,0.0,0,0,0,0,0,0,0,3,1,0,0,3,1,0,0
145912161,0.0,0.0,0.0,0.046267644,0.0,0.0,0.0,0.0,0.0,0.0,0.0,0,0,0,0,0,0,0,3,1,0,0,3,1,0,0
145936176,0.0,0.0,2.8118979e-22,0.046273395,0.0,0.0,0.0,0.0,0.0,0.0,0.0,0,0,0,0,0,0,0,3,1,0,0,3,1,0,0
145956522,0.0,0.0,1.3034569e-19,0.046273775,0.0,0.0,0.0,0.0,0.0,0.0,0.0,0,0,0,0,0,0,0,3,1,0,0,3,1,0,0
145980146,0.0,0.0,4.811122e-20,0.046272792,0.0,0.0,0.0,0.0,0.0,0.0,0.0,0,0,0,0,0,0,0,3,1,0,0,3,1,0,0
146004215,0.0,0.0,0.0,0.046272352,0.0,0.0,0.0,0.0,0.0,0.0,0.0,0,0,0,0,0,0,0,3,1,0,0,3,1,0,0
146028545,0.0,0.0,0.0,0.046272382,0.0,0.0,0.0,0.0,0.0,0.0,0.0,0,0,0,0,0,0,0,3,1,0,0,3,1,0,0
146052147,0.0,0.0,0.0,0.04627248,0.0,0.0,0.0,0.0,0.0,0.0,0.0,0,0,0,0,0,0,0,3,1,0,0,3,1,0,0
146076377,0.0,0.0,1.2884043e-21,0.045741476,0.0,0.0,0.0,0.0,0.0,0.0,0.0,0,0,0,0,0,0,0,3,1,0,0,3,1,0,0
146096177,0.0,0.0,1.0679069e-21,0.045014206,0.0,0.0,0.0,0.0,0.0,0.0,0.0,0,0,0,0,0,0,0,3,1,0,0,3,1,0,0
146120140,0.0,0.0,1.423309e-22,0.04538047,0.0,0.0,0.0,0.0,0.0,0.0,0.0,0,0,0,0,0,0,0,3,1,0,0,3,1,0,0
146144389,0.0,0.0,0.0,0.04618926,0.0,0.0,0.0,0.0,0.0,0.0,0.0,0,0,0,0,0,0,0,3,1,0,0,3,1,0,0
146164392,0.0,0.0,0.0,0.046416413,0.0,0.0,0.0,0.0,0.0,0.0,0.0,0,0,0,0,0,0,0,3,1,0,0,3,1,0,0
146188371,0.0,0.0,0.0,0.045810945,0.0,0.0,0.0,0.0,0.0,0.0,0.0,0,0,0,0,0,0,0,3,1,0,0,3,1,0,0
146208542,0.0,0.0,1.6405036e-23,0.045011688,0.0,0.0,0.0,0.0,0.0,0.0,0.0,0,0,0,0,0,0,0,3,1,0,0,3,1,0,0
146228371,0.0,0.0,6.2624027e-24,0.045365937,0.0,0.0,0.0,0.0,0.0,0.0,0.0,0,0,0,0,0,0,0,3,1,0,0,3,1,0,0
146252199,0.0,0.0,0.0,0.04618438,0.0,0.0,0.0,0.0,0.0,0.0,0.0,0,0,0,0,0,0,0,3,1,0,0,3,1,0,0
146276137,0.0,0.0,0.0,0.046417452,0.0,0.0,0.0,0.0,0.0,0.0,0.0,0,0,0,0,0,0,0,3,1,0,0,3,1,0,0
146296127,0.0,0.0,0.0,0.045812283,0.0,0.0,0.0,0.0,0.0,0.0,0.0,0,0,0,0,0,0,0,3,1,0,0,3,1,0,0
146316516,0.0,0.0,1.5734281e-25,0.044480946,0.0,0.0,0.0,0.0,0.0,0.0,0.0,0,0,0,0,0,0,0,3,1,0,0,3,1,0,0
146340395,0.0,0.0,1.3645084e-25,0.044107478,0.0,0.0,0.0,0.0,0.0,0.0,0.0,0,0,0,0,0,0,0,3,1,0,0,3,1,0,0
146364200,0.0,0.0,1.9612102e-26,0.045823272,0.0,0.0,0.0,0.0,0.0,0.0,0.0,0,0,0,0,0,0,0,3,1,0,0,3,1,0,0
146388518,0.0,0.0,0.0,0.047592506,0.0,0.0,0.0,0.0,0.0,0.0,0.0,0,0,0,0,0,0,0,3,1,0,0,3,1,0,0
146412414,0.0,0.0,0.0,0.047379274,0.0,0.0,0.0,0.0,0.0,0.0,0.0,0,0,0,0,0,0,0,3,1,0,0,3,1,0,0
146436172,0.0,0.0,0.0,0.045891967,0.0,0.0,0.0,0.0,0.0,0.0,0.0,0,0,0,0,0,0,0,3,1,0,0,3,1,0,0
146460534,0.0,0.0,2.06302e-27,0.044853088,0.0,0.0,0.0,0.0,0.0,0.0,0.0,0,0,0,0,0,0,0,3,1,0,0,3,1,0,0
146480183,0.0,0.0,8.142533e-28,0.04529146,0.0,0.0,0.0,0.0,0.0,0.0,0.0,0,0,0,0,0,0,0,3,1,0,0,3,1,0,0
146504174,0.0,0.0,0.0,0.04618792,0.0,0.0,0.0,0.0,0.0,0.0,0.0,0,0,0,0,0,0,0,3,1,0,0,3,1,0,0
146524141,0.0,0.0,0.0,0.04643334,0.0,0.0,0.0,0.0,0.0,0.0,0.0,0,0,0,0,0,0,0,3,1,0,0,3,1,0,0
146548403,0.0,0.0,0.0,0.046348494,0.0,0.0,0.0,0.0,0.0,0.0,0.0,0,0,0,0,0,0,0,3,1,0,0,3,1,0,0
146572160,0.0,0.0,1.916601e-29,0.04626908,0.0,0.0,0.0,0.0,0.0,0.0,0.0,0,0,0,0,0,0,0,3,1,0,0,3,1,0,0
146596264,0.0,0.0,1.7423295e-29,0.04625635,0.0,0.0,0.0,0.0,0.0,0.0,0.0,0,0,0,0,0,0,0,3,1,0,0,3,1,0,0
146616185,0.0,0.0,2.6853764e-30,0.046267197,0.0,0.0,0.0,0.0,0.0,0.0,0.0,0,0,0,0,0,0,0,3,1,0,0,3,1,0,0
146636280,0.0,0.0,0.0,0.046273693,0.0,0.0,0.0,0.0,0.0,0.0,0.0,0,0,0,0,0,0,0,3,1,0,0,3,1,0,0
146660180,0.0,0.0,0.0,0.045742944,0.0,0.0,0.0,0.0,0.0,0.0,0.0,0,0,0,0,0,0,0,3,1,0,0,3,1,0,0
146684199,0.0,0.0,0.0,0.04448347,0.0,0.0,0.0,0.0,0.0,0.0,0.0,0,0,0,0,0,0,0,3,1,0,0,3,1,0,0
146708172,0.0,0.0,2.5921849e-31,0.04359096,0.0,0.0,0.0,0.0,0.0,0.0,0.0,0,0,0,0,0,0,0,3,1,0,0,3,1,0,0
146728183,0.0,0.0,0.0036607715,0.046162944,0.0,0.0,0.0,0.0,0.0,0.0,0.0,0,0,0,0,0,0,0,3,1,0,0,3,1,0,0
146748557,0.0,0.0,0.06437032,0.050474335,0.0,0.0,0.0,0.0,0.0,0.0,0.0,0,0,0,0,0,0,0,3,1,0,0,3,1,0,0
146768384,0.0,0.0,0.1938186,0.049970772,0.0,0.0,0.0,0.0,0.0,0.0,0.0,0,0,0,0,0,0,0,3,1,0,0,3,1,0,0
146788274,0.0,0.0,0.32756028,0.037257716,0.0,0.0,0.0,0.0,0.0,0.0,0.0,0,0,0,0,0,0,0,3,1,0,0,3,1,0,0
146812179,0.0,0.0,0.44341424,0.013541285,0.0,0.0,0.0,0.0,0.0,0.0,0.0,0,0,0,0,0,0,0,3,1,0,0,3,1,0,0
146836161,0.0,0.0,0.5063193,-0.002291772,0.0,0.0,0.0,0.0,0.0,0.0,0.0,0,0,0,0,0,0,0,3,1,0,0,3,1,0,0
146856594,0.0,0.0,0.5071399,-0.0034984688,0.0,0.0,0.0,0.0,0.0,0.0,0.0,0,0,0,0,0,0,0,3,1,0,0,3,1,0,0
146876142,0.0,0.0,0.49512535,-0.00084401446,0.0,0.0,0.0,0.0,0.0,0.0,0.0,0,0,0,0,0,0,0,3,1,0,0,3,1,0,0
146896198,0.0,0.0,0.49052495,0.0003731688,0.0,0.0,0.0,0.0,0.0,0.0,0.0,0,0,0,0,0,0,0,3,1,0,0,3,1,0,0
146920169,0.0,0.0,0.49117762,0.00030316733,0.0,0.0,0.0,0.0,0.0,0.0,0.0,0,0,0,0,0,0,0,3,1,0,0,3,1,0,0
146940199,0.0,0.0,0.49231964,3.8956274e-05,0.0,0.0,0.0,0.0,0.0,0.0,0.0,0,0,0,0,0,0,0,3,1,0,0,3,1,0,0
146960185,0.0,0.0,0.49261385,-4.496952e-05,0.0,0.0,0.0,0.0,0.0,0.0,0.0,0,0,0,0,0,0,0,3,1,0,0,3,1,0,0
146980199,0.0,0.0,0.49249893,-2.4245715e-05,0.0,0.0,0.0,0.0,0.0,0.0,0.0,0,0,0,0,0,0,0,3,1,0,0,3,1,0,0
147000520,0.0,0.0,0.5031197,-1.537134e-07,0.0,0.0,0.0,0.0,0.0,0.0,0.0,0,0,0,0,0,0,0,3,1,0,0,3,1,0,0
147024164,0.0,0.0,0.5538724,4.6908904e-06,0.0,0.0,0.0,0.0,0.0,0.0,0.0,0,0,0,0,0,0,0,3,1,0,0,3,1,0,0
147044135,0.0,0.0,0.6319959,1.7635114e-06,0.0,0.0,0.0,0.0,0.0,0.0,0.0,0,0,0,0,0,0,0,3,1,0,0,3,1,0,0
147064158,0.0,0.0,0.69825506,-2.6688454e-07,0.0,0.0,0.0,0.0,0.0,0.0,0.0,0,0,0,0,0,0,0,3,1,0,0,3,1,0,0
147084137,0.0,0.0,0.77699643,-4.4394434e-07,0.0,0.0,0.0,0.0,0.0,0.0,0.0,0,0,0,0,0,0,0,3,1,0,0,3,1,0,0
147108555,0.0,0.0,0.88620716,-0.0084316265,0.0,0.0,0.0,0.0,0.0,0.0,0.0,0,0,0,0,0,0,0,3,1,0,0,3,1,0,0
147132342,0.0,0.0,0.9765156,-0.028410172,0.0,0.0,0.0,0.0,0.0,0.0,0.0,0,0,0,0,0,0,0,3,1,0,0,3,1,0,0
147152176,0.0,0.0,1.0,-0.04204638,0.0,0.0,0.0,0.0,0.0,0.0,0.0,0,0,0,0,0,0,0,3,1,0,0,3,1,0,0
147172157,0.0,0.0,1.0,-0.03632261,0.0,0.0,0.0,0.0,0.0,0.0,0.0,0,0,0,0,0,0,0,3,1,0,0,3,1,0,0
147196136,0.0,0.0,1.0,-0.017309155,0.0,0.0,0.0,0.0,0.0,0.0,0.0,0,0,0,0,0,0,0,3,1,0,0,3,1,0,0
147220166,0.0,0.0,0.9988513,-0.0013915459,0.0,0.0,0.0,0.0,0.0,0.0,0.0,0,0,0,0,0,0,0,3,1,0,0,3,1,0,0
147240178,0.0,0.0,0.9995358,0.0023482204,0.0,0.0,0.0,0.0,0.0,0.0,0.0,0,0,0,0,0,0,0,3,1,0,0,3,1,0,0
147264158,0.0,0.0,1.0,-0.00254857,0.0,0.0,0.0,0.0,0.0,0.0,0.0,0,0,0,0,0,0,0,3,1,0,0,3,1,0,0
147288535,0.0,0.0,1.0,-0.01036007,0.0,0.0,0.0,0.0,0.0,0.0,0.0,0,0,0,0,0,0,0,3,1,0,0,3,1,0,0
147312144,0.0,0.0,1.0,-0.015449582,0.0,0.0,0.0,0.0,0.0,0.0,0.0,0,0,0,0,0,0,0,3,1,0,0,3,1,0,0
147332198,0.0,0.0,0.9999896,-0.020016437,0.0,0.0,0.0,0.0,0.0,0.0,0.0,0,0,0,0,0,0,0,3,1,0,0,3,1,0,0
147352166,0.0,0.0,0.99999017,-0.026504077,0.0,0.0,0.0,0.0,0.0,0.0,0.0,0,0,0,0,0,0,0,3,1,0,0,3,1,0,0
147372382,0.0,0.0,0.99999845,-0.02853414,0.0,0.0,0.0,0.0,0.0,0.0,0.0,0,0,0,0,0,0,0,3,1,0,0,3,1,0,0
147392278,0.0,0.0,1.0,-0.024325136,0.0,0.0,0.0,0.0,0.0,0.0,0.0,0,0,0,0,0,0,0,3,1,0,0,3,1,0,0
147412386,0.0,0.0,1.0,-0.017629549,0.0,0.0,0.0,0.0,0.0,0.0,0.0,0,0,0,0,0,0,0,3,1,0,0,3,1,0,0
147436395,0.0,0.0,1.0,-0.01018287,0.0,0.0,0.0,0.0,0.0,0.0,0.0,0,0,0,0,0,0,0,3,1,0,0,3,1,0,0
147456430,0.0,0.0,0.9999999,-0.002945554,0.0,0.0,0.0,0.0,0.0,0.0,0.0,0,0,0,0,0,0,0,3,1,0,0,3,1,0,0
147480165,0.0,0.0,0.99999994,0.0009055036,0.0,0.0,0.0,0.0,0.0,0.0,0.0,0,0,0,0,0,0,0,3,1,0,0,3,1,0,0
147500255,0.0,0.0,1.0,0.000911394,0.0,0.0,0.0,0.0,0.0,0.0,0.0,0,0,0,0,0,0,0,3,1,0,0,3,1,0,0
147524169,0.0,0.0,1.0,0.00015947309,0.0,0.0,0.0,0.0,0.0,0.0,0.0,0,0,0,0,0,0,0,3,1,0,0,3,1,0,0
147544262,0.0,0.0,1.0,-0.00011953561,0.0,0.0,0.0,0.0,0.0,0.0,0.0,0,0,0,0,0,0,0,3,1,0,0,3,1,0,0
147568208,0.0,0.0,1.0,-0.0011293384,0.0,0.0,0.0,0.0,0.0,0.0,0.0,0,0,0,0,0,0,0,3,1,0,0,3,1,0,0
147588402,0.0,0.0,1.0,-0.004609672,0.0,0.0,0.0,0.0,0.0,0.0,0.0,0,0,0,0,0,0,0,3,1,0,0,3,1,0,0
147608384,0.0,0.0,1.0,-0.008859833,0.0,0.0,0.0,0.0,0.0,0.0,0.0,0,0,0,0,0,0,0,3,1,0,0,3,1,0,0
147628375,0.0,0.0,1.0,-0.012383727,0.0,0.0,0.0,0.0,0.0,0.0,0.0,0,0,0,0,0,0,0,3,1,0,0,3,1,0,0
