timestamp,rollspeed,pitchspeed,yawspeed,rollspeed_integ,pitchspeed_integ,yawspeed_integ,additional_integ1
133185407,-0.0017174487,0.0023824766,-0.0011839179,0.0,0.0,0.0,0.0
133189421,-0.002155337,0.00239912,-0.0008304966,0.0,0.0,0.0,0.0
133193407,-0.0017637477,0.002904458,-0.00052978727,0.0,0.0,0.0,0.0
133197460,-0.00086763734,0.0030043235,-0.00043722132,0.0,0.0,0.0,0.0
133201449,-0.00016471269,0.0030186495,-0.0003065425,0.0,0.0,0.0,0.0
133205434,0.00010629202,0.0028504753,9.227812e-05,0.0,0.0,0.0,0.0
133209446,0.0004275979,0.0028445942,0.0002658032,0.0,0.0,0.0,0.0
133213417,0.00041801442,0.003131683,8.79562e-05,0.0,0.0,0.0,0.0
133217456,-4.9925962e-05,0.0032179514,-0.0001652175,0.0,0.0,0.0,0.0
133221495,-2.5775778e-05,0.0028900576,-5.422643e-05,0.0,0.0,0.0,0.0
133225445,0.00029423277,0.0024892506,-0.00030659075,0.0,0.0,0.0,0.0
133229446,4.9989554e-05,0.0024930749,-0.001015301,0.0,0.0,0.0,0.0
133233405,-0.00019720297,0.0027609717,-0.0016901502,0.0,0.0,0.0,0.0
133237435,-0.00020725878,0.003253953,-0.0018130167,0.0,0.0,0.0,0.0
133241404,-1.934293e-05,0.0035008895,-0.0019656196,0.0,0.0,0.0,0.0
133245448,0.00054107106,0.0034364962,-0.0018364361,0.0,0.0,0.0,0.0
133249441,0.0008527825,0.0034794142,-0.0013580035,0.0,0.0,0.0,0.0
133253409,0.00040411725,0.0026941404,-0.00089907274,0.0,0.0,0.0,0.0
133257458,-0.00013699263,0.0022317662,-0.00103271,0.0,0.0,0.0,0.0
133261405,-0.000648862,0.0023883171,-0.0012497641,0.0,0.0,0.0,0.0
133265440,-0.000876975,0.0027208417,-0.0012545616,0.0,0.0,0.0,0.0
133269446,-0.0015237416,0.0024135348,-0.0014158101,0.0,0.0,0.0,0.0
133273408,-0.0020059184,0.0026844372,-0.0014851752,0.0,0.0,0.0,0.0
133277470,-0.0016127406,0.003249237,-0.001474122,0.0,0.0,0.0,0.0
133281404,-0.00044799503,0.003236894,-0.0014030295,0.0,0.0,0.0,0.0
133285433,0.00029475897,0.0029399034,-0.0017249968,0.0,0.0,0.0,0.0
133289490,0.00027234675,0.0028635447,-0.001993198,0.0,0.0,0.0,0.0
133293417,-2.2025954e-05,0.0030347821,-0.0018412021,0.0,0.0,0.0,0.0
133297464,-0.0002853038,0.0030179357,-0.0015861497,0.0,0.0,0.0,0.0
133301405,8.808574e-05,0.003302123,-0.0017915091,0.0,0.0,0.0,0.0
133305415,0.00036561865,0.003195133,-0.0017421815,0.0,0.0,0.0,0.0
133309482,-2.524347e-05,0.0030457932,-0.001298131,0.0,0.0,0.0,0.0
133313405,-0.000287787,0.0030861048,-0.0009163122,0.0,0.0,0.0,0.0
133317457,-0.0005611168,0.0033845105,-0.0011110415,0.0,0.0,0.0,0.0
133321415,-0.0008859668,0.0029453358,-0.0015164117,0.0,0.0,0.0,0.0
133325412,-0.0011246307,0.0031035373,-0.0013122128,0.0,0.0,0.0,0.0
133329468,-0.0017813115,0.0035742838,-0.0010085156,0.0,0.0,0.0,0.0
133333407,-0.0017980929,0.0042512435,-0.0010504769,0.0,0.0,0.0,0.0
133337481,-0.0008515981,0.0046232254,-0.00066382857,0.0,0.0,0.0,0.0
133341404,4.9556664e-05,0.0046737124,-0.0004821889,0.0,0.0,0.0,0.0
133345427,0.00016344321,0.004367005,-0.00046937558,0.0,0.0,0.0,0.0
133349475,-5.5943412e-05,0.0037056035,-0.00040032994,0.0,0.0,0.0,0.0
133353405,-0.00043220294,0.0035629454,-0.0005818034,0.0,0.0,0.0,0.0
133357472,-0.00034755698,0.0038223295,-0.0008017658,0.0,0.0,0.0,0.0
133361407,-0.000118641154,0.003688933,-0.0010876806,0.0,0.0,0.0,0.0
133365425,-0.00049913797,0.0030451994,-0.001606971,0.0,0.0,0.0,0.0
133369454,-0.0007730747,0.0031077415,-0.0020242208,0.0,0.0,0.0,0.0
133373434,-0.00022978664,0.0029218907,-0.002127031,0.0,0.0,0.0,0.0
133377456,0.0008520533,0.0028609082,-0.001802538,0.0,0.0,0.0,0.0
133381405,0.0008369024,0.0028714212,-0.0016607892,0.0,0.0,0.0,0.0
133385418,-0.00013141488,0.0024709697,-0.0015725023,0.0,0.0,0.0,0.0
133389452,-0.0016035306,0.0029499696,-0.0012828863,0.0,0.0,0.0,0.0
133393452,-0.0020374032,0.003149276,-0.0010995957,0.0,0.0,0.0,0.0
133397468,-0.0018571026,0.002738504,-0.00043660356,0.0,0.0,0.0,0.0
133401405,-0.001396742,0.0024505802,9.722973e-05,0.0,0.0,0.0,0.0
133405411,-0.0010334733,0.0024947934,0.00049184414,0.0,0.0,0.0,0.0
133409405,-0.00045378786,0.0028197146,0.00081791566,0.0,0.0,0.0,0.0
133413466,-0.0001854664,0.0028902495,0.00067286636,0.0,0.0,0.0,0.0
133417474,0.00010512333,0.0029215044,-0.00026002224,0.0,0.0,0.0,0.0
133721419,-0.00083391723,0.0031152042,-0.0007396324,0.0,0.0,0.0,0.0
133725416,-0.0002385453,0.0027987463,-0.00083168165,0.0,0.0,0.0,0.0
133729459,-8.7512104e-05,0.0026816274,-0.00088334613,0.0,0.0,0.0,0.0
133733446,-2.0972424e-05,0.0034790367,-0.0010014381,0.0,0.0,0.0,0.0
133737439,-0.00033560093,0.0037515513,-0.0010774841,0.0,0.0,0.0,0.0
133741462,-0.00041309965,0.0031446007,-0.0011529737,0.0,0.0,0.0,0.0
133745421,-0.00040607946,0.0027457748,-0.0007828408,0.0,0.0,0.0,0.0
133749445,-0.0005929059,0.0027499194,-0.0006655593,0.0,0.0,0.0,0.0
133753459,-0.000543811,0.0027478272,-0.00071833207,0.0,0.0,0.0,0.0
133757444,-0.00050036574,0.003117726,-0.0010033335,0.0,0.0,0.0,0.0
133761429,-0.00041799288,0.003056393,-0.0013286246,0.0,0.0,0.0,0.0
133813490,-0.00015376709,0.0022615602,-0.001266828,0.0,0.0,0.0,0.0
133817446,0.00013722703,0.0026932743,-0.0012017468,0.0,0.0,0.0,0.0
133821450,-6.51577e-05,0.0027684798,-0.0012094327,0.0,0.0,0.0,0.0
133825421,-0.0009947787,0.0023421769,-0.0012085668,0.0,0.0,0.0,0.0
133829443,-0.0018224714,0.0023408798,-0.0011692814,0.0,0.0,0.0,0.0
133833472,-0.0016719103,0.0025895997,-0.0011774122,0.0,0.0,0.0,0.0
133837467,-0.0010408952,0.0025899503,-0.0008722687,0.0,0.0,0.0,0.0
133841444,-0.00041231816,0.0029493866,-0.0008169216,0.0,0.0,0.0,0.0
133845413,-0.00012640267,0.0035530794,-0.0006968833,0.0,0.0,0.0,0.0
133849439,-0.00012505548,0.0039514974,-0.00093526876,0.0,0.0,0.0,0.0
133853475,-9.7011274e-05,0.0038156607,-0.0014313967,0.0,0.0,0.0,0.0
133857516,-0.00079873763,0.0035356097,-0.0016700516,0.0,0.0,0.0,0.0
133861452,-0.0014620023,0.003145733,-0.0012590933,0.0,0.0,0.0,0.0
133865439,-0.0015663673,0.002802578,-0.00088998256,0.0,0.0,0.0,0.0
133869426,-0.0011764951,0.0022849292,-0.00063955487,0.0,0.0,0.0,0.0
133873421,-0.00078972586,0.0018267564,-0.0006185253,0.0,0.0,0.0,0.0
133877476,-0.00082679227,0.0017081288,-0.0011986244,0.0,0.0,0.0,0.0
133881435,-0.0013160426,0.0015303552,-0.0013072296,0.0,0.0,0.0,0.0
133885405,-0.0019201862,0.0013529356,-0.0012176197,0.0,0.0,0.0,0.0
133889411,-0.001825422,0.0016498087,-0.0011298839,0.0,0.0,0.0,0.0
133893410,-0.0019173345,0.001944956,-0.0009593062,0.0,0.0,0.0,0.0
133897499,-0.001722026,0.0023766998,-0.0010554551,0.0,0.0,0.0,0.0
133901447,-0.00070982607,0.0024089492,-0.0015697854,0.0,0.0,0.0,0.0
133905408,1.4270452e-05,0.002769037,-0.0016533887,0.0,0.0,0.0,0.0
133909444,0.0001369355,0.0033902135,-0.0018255387,0.0,0.0,0.0,0.0
133913421,0.00018366546,0.003915896,-0.0019822642,0.0,0.0,0.0,0.0
133916633,-0.00019583764,0.004344448,-0.0018672247,0.0,0.0,0.0,0.0
133921437,-0.0002516949,0.004155864,-0.0017134881,0.0,0.0,0.0,0.0
133925405,-0.00023129843,0.0038422695,-0.0014107841,0.0,0.0,0.0,0.0
133929439,-0.0005317823,0.0034470113,-0.0014267669,0.0,0.0,0.0,0.0
133933405,-0.0010143275,0.0032154594,-0.0017586851,0.0,0.0,0.0,0.0
133937515,-0.0010033068,0.003136663,-0.0022215666,0.0,0.0,0.0,0.0
133941454,-0.00062975736,0.0031862338,-0.0024284422,0.0,0.0,0.0,0.0
133945409,-0.0007723581,0.0029257953,-0.0024569316,0.0,0.0,0.0,0.0
133949471,-0.0007255627,0.0027218664,-0.001802131,0.0,0.0,0.0,0.0
133953420,-0.00057305326,0.0028408654,-0.0014902039,0.0,0.0,0.0,0.0
133957483,-0.00068638974,0.0033526889,-0.0015990252,0.0,0.0,0.0,0.0
133961482,-0.0011262025,0.0037691928,-0.0019853206,0.0,0.0,0.0,0.0
133965405,-0.0013974038,0.0037116082,-0.0015648226,0.0,0.0,0.0,0.0
133969444,-0.0010855367,0.0034895376,-0.0015467599,0.0,0.0,0.0,0.0
133973430,-0.0012008463,0.0029685597,-0.0013348779,0.0,0.0,0.0,0.0
133977506,-0.0017258547,0.0027762107,-0.00055144634,0.0,0.0,0.0,0.0
133981483,-0.0016441277,0.0027170558,-0.00018799194,0.0,0.0,0.0,0.0
133985421,-0.00087382173,0.0026874791,-0.0006530564,0.0,0.0,0.0,0.0
133989446,-0.0006034995,0.002635411,-0.0007862373,0.0,0.0,0.0,0.0
133993422,-0.00027853687,0.002648426,-0.00090027694,0.0,0.0,0.0,0.0
133997456,0.00020924714,0.002222416,-0.00097426213,0.0,0.0,0.0,0.0
134001492,-0.00012020519,0.002327042,-0.0010410283,0.0,0.0,0.0,0.0
134005434,-0.00065271615,0.0028207838,-0.00054799306,0.0,0.0,0.0,0.0
134009437,-0.00053616415,0.0035527225,4.11488e-05,0.0,0.0,0.0,0.0
134013410,-0.0006760523,0.0038321014,1.2705044e-05,0.0,0.0,0.0,0.0
134017498,-0.0009802491,0.0038671987,-0.0007816815,0.0,0.0,0.0,0.0
134021444,-0.0012332624,0.004071877,-0.0017358789,0.0,0.0,0.0,0.0
134025416,-0.0013464718,0.003914535,-0.0022395402,0.0,0.0,0.0,0.0
134029461,-0.0008657082,0.0035393955,-0.0016647135,0.0,0.0,0.0,0.0
134033436,-0.00028533582,0.0032092927,-0.00088025787,0.0,0.0,0.0,0.0
134037513,-0.0001925391,0.0032927003,-0.0006971831,0.0,0.0,0.0,0.0
134041407,-0.00041173064,0.0032006442,-0.00080525817,0.0,0.0,0.0,0.0
134045445,-0.00070274447,0.0033556365,-0.0012820017,0.0,0.0,0.0,0.0
134049441,-0.0011823741,0.00343159,-0.0020313482,0.0,0.0,0.0,0.0
134053405,-0.0014526028,0.0036057057,-0.0025683735,0.0,0.0,0.0,0.0
134057467,-0.0013355943,0.0031241798,-0.0023187308,0.0,0.0,0.0,0.0
134061413,-0.0012430697,0.0026704625,-0.0022169354,0.0,0.0,0.0,0.0
134065448,-0.0013722028,0.002513959,-0.001980179,0.0,0.0,0.0,0.0
134069446,-0.0012232789,0.002407665,-0.0015926007,0.0,0.0,0.0,0.0
134073422,-0.0006160353,0.0023493343,-0.0008672404,0.0,0.0,0.0,0.0
134077477,0.0002646361,0.0025486425,0.00015234837,0.0,0.0,0.0,0.0
134081411,0.0006163997,0.002544578,0.0008344625,0.0,0.0,0.0,0.0
134085444,0.00090162584,0.00271936,0.0001800069,0.0,0.0,0.0,0.0
134089462,0.0010853523,0.0028362148,-0.0009134753,0.0,0.0,0.0,0.0
134093411,0.0007940298,0.0024831921,-0.0014904081,0.0,0.0,0.0,0.0
134097464,0.0006046987,0.0021767723,-0.0015944997,0.0,0.0,0.0,0.0
134101405,4.784178e-05,0.0025111882,-0.0014180446,0.0,0.0,0.0,0.0
134105450,-7.9006495e-05,0.0031150714,-0.0019289588,0.0,0.0,0.0,0.0
134109405,-8.458417e-06,0.0027568883,-0.0025565901,0.0,0.0,0.0,0.0
134113415,6.7737245e-05,0.0026141044,-0.0028318143,0.0,0.0,0.0,0.0
134117544,0.00049365277,0.003180158,-0.002541381,0.0,0.0,0.0,0.0
134121414,0.0006423673,0.0037814747,-0.0018779561,0.0,0.0,0.0,0.0
134125435,0.00025750438,0.0038868282,-0.0013868411,0.0,0.0,0.0,0.0
134129487,-0.0002704615,0.0038954231,-0.0010043406,0.0,0.0,0.0,0.0
134133405,-0.00079271465,0.003416351,-0.000750169,0.0,0.0,0.0,0.0
134137464,-0.001270728,0.002959454,-0.0005863088,0.0,0.0,0.0,0.0
134141405,-0.0014906661,0.0029405865,-0.0007577448,0.0,0.0,0.0,0.0
134145450,-0.0009989854,0.0028595948,-0.0007516667,0.0,0.0,0.0,0.0
134149435,-0.00058418955,0.002690571,-0.0012255637,0.0,0.0,0.0,0.0
134153420,-0.00073467044,0.002449065,-0.0016178931,0.0,0.0,0.0,0.0
134157484,-0.0013502806,0.0023428313,-0.0021912158,0.0,0.0,0.0,0.0
134161405,-0.0014672818,0.0025920104,-0.0021798504,0.0,0.0,0.0,0.0
134165454,-0.0009972062,0.0028595591,-0.0017973918,0.0,0.0,0.0,0.0
134173424,-0.00024146082,0.003162426,-0.001355656,0.0,0.0,0.0,0.0
134177470,-0.00018979551,0.0026738339,-0.0007513181,0.0,0.0,0.0,0.0
134181404,-0.0003933605,0.002460638,-0.00042847946,0.0,0.0,0.0,0.0
134185433,-0.0010150748,0.002340137,-0.0002851287,0.0,0.0,0.0,0.0
134189450,-0.0013792483,0.0020054835,-0.0005924782,0.0,0.0,0.0,0.0
134193428,-0.0015914805,0.00217265,-0.0015911718,0.0,0.0,0.0,0.0
134197478,-0.001429816,0.002348015,-0.0022756248,0.0,0.0,0.0,0.0
134201407,-0.0011207724,0.0024068789,-0.0023113643,0.0,0.0,0.0,0.0
134205453,-0.0009302909,0.0026877448,-0.0012498779,0.0,0.0,0.0,0.0
134209408,-0.0009751851,0.0029908365,-8.247193e-05,0.0,0.0,0.0,0.0
134213445,-0.00060952595,0.003001446,0.00019100838,0.0,0.0,0.0,0.0
134217465,-0.0005429819,0.0027957323,-0.00035849254,0.0,0.0,0.0,0.0
134221427,-0.0009070592,0.00292063,-0.00039324223,0.0,0.0,0.0,0.0
134225441,-0.0015047473,0.0029671146,0.00018856686,0.0,0.0,0.0,0.0
134229441,-0.0013925926,0.0031724935,0.00042782514,0.0,0.0,0.0,0.0
134233441,-0.0011964467,0.0033442797,0.00042546226,0.0,0.0,0.0,0.0
134237478,-0.0008076077,0.0037581364,-0.00015686115,0.0,0.0,0.0,0.0
134241405,-0.0007958608,0.004135726,-0.0006342004,0.0,0.0,0.0,0.0
134245450,-0.00085015385,0.003862591,-0.0011349714,0.0,0.0,0.0,0.0
134249411,-0.0009476852,0.0033916475,-0.0016091304,0.0,0.0,0.0,0.0
134253444,-0.0010775601,0.00325462,-0.001153701,0.0,0.0,0.0,0.0
134257536,-0.00068456936,0.003740474,-0.00075527054,0.0,0.0,0.0,0.0
134261409,-0.00036623888,0.002992386,-0.00031904486,0.0,0.0,0.0,0.0
134265443,6.847465e-05,0.001912074,-3.5203411e-06,0.0,0.0,0.0,0.0
134269404,0.00028947994,0.0018476404,0.00016842614,0.0,0.0,0.0,0.0
134273459,-0.00016759732,0.0020658476,-0.0005263401,0.0,0.0,0.0,0.0
134277437,-0.000736963,0.0025616263,-0.0013294234,0.0,0.0,0.0,0.0
134281420,-0.0009172396,0.003262229,-0.0018023818,0.0,0.0,0.0,0.0
134285469,-0.0011412669,0.0038569777,-0.0016064304,0.0,0.0,0.0,0.0
134289404,-0.0018120843,0.003883758,-0.0014254896,0.0,0.0,0.0,0.0
134293467,-0.001453493,0.003914295,-0.0015721042,0.0,0.0,0.0,0.0
134297477,-0.00078409025,0.0033526372,-0.001513374,0.0,0.0,0.0,0.0
134301420,0.0001257814,0.0029694694,-0.0013291684,0.0,0.0,0.0,0.0
134305450,0.00059904665,0.0025467384,-0.0015470978,0.0,0.0,0.0,0.0
134309417,0.0006503098,0.001960417,-0.0013434755,0.0,0.0,0.0,0.0
134313435,0.0005457795,0.0017088845,-0.0009171437,0.0,0.0,0.0,0.0
134317473,0.0002728949,0.0019847588,-0.00046916684,0.0,0.0,0.0,0.0
134321413,0.00037960027,0.0023504216,-0.00030258275,0.0,0.0,0.0,0.0
134325456,0.0005673601,0.0032005887,0.00022844283,0.0,0.0,0.0,0.0
134329405,0.00060938136,0.0033267015,0.0011065584,0.0,0.0,0.0,0.0
134333434,0.00044499486,0.002556726,0.0010983858,0.0,0.0,0.0,0.0
134337467,0.00051785115,0.0021847836,0.0003034079,0.0,0.0,0.0,0.0
134341427,0.00048538268,0.0025800725,-0.00063602824,0.0,0.0,0.0,0.0
134345445,0.0010822167,0.003166941,-0.001384797,0.0,0.0,0.0,0.0
134349404,0.001555144,0.0031515025,-0.0016764713,0.0,0.0,0.0,0.0
134353437,0.0010050732,0.0030390676,-0.0013697699,0.0,0.0,0.0,0.0
134357477,-6.2701292e-06,0.0026040026,-0.00070935016,0.0,0.0,0.0,0.0
134361408,-0.00051160133,0.0024678744,-0.0001910383,0.0,0.0,0.0,0.0
134365458,-0.0009435669,0.0026583169,-9.865535e-05,0.0,0.0,0.0,0.0
134369411,-0.0019547252,0.00288753,-0.0005243796,0.0,0.0,0.0,0.0
134373452,-0.0016972652,0.0034429943,-0.0007847934,0.0,0.0,0.0,0.0
134377471,-0.00089722214,0.003598427,-0.001056527,0.0,0.0,0.0,0.0
134381445,-0.00027904997,0.003967879,-0.0013394924,0.0,0.0,0.0,0.0
134385459,0.00020990073,0.004325478,-0.00087983,0.0,0.0,0.0,0.0
134389405,0.00084935594,0.004120365,-0.0006507728,0.0,0.0,0.0,0.0
134393437,0.00086203153,0.0037667388,-0.00089969044,0.0,0.0,0.0,0.0
134397460,0.00021035032,0.0035109841,-0.0009381438,0.0,0.0,0.0,0.0
134401484,-7.7055505e-05,0.0025813337,-0.0006472083,0.0,0.0,0.0,0.0
134405405,-0.0001443525,0.002253514,-0.0009315909,0.0,0.0,0.0,0.0
134409407,4.350295e-06,0.00259373,-0.0019642771,0.0,0.0,0.0,0.0
134413449,7.130459e-05,0.0024898697,-0.00279307,0.0,0.0,0.0,0.0
134417445,0.00039279583,0.002482215,-0.0026448127,0.0,0.0,0.0,0.0
134421492,0.00026415574,0.0025624342,-0.0019548517,0.0,0.0,0.0,0.0
134428640,-0.0007892469,0.0020229062,-0.0005006181,0.0,0.0,0.0,0.0
134433439,-0.0014102372,0.0015963365,-0.0004603653,0.0,0.0,0.0,0.0
134437436,-0.0010293152,0.0018463116,-0.0001701233,0.0,0.0,0.0,0.0
134441472,-0.0005693813,0.002424437,-0.00013911736,0.0,0.0,0.0,0.0
134445405,-0.00067817455,0.0028718112,-0.0003538857,0.0,0.0,0.0,0.0
134449405,-0.00039825024,0.0033815936,-0.0006616828,0.0,0.0,0.0,0.0
134453465,-0.00022358702,0.0037551112,-0.00066539587,0.0,0.0,0.0,0.0
134457430,0.00027675193,0.0040228437,-0.00057549763,0.0,0.0,0.0,0.0
134461455,0.00042216684,0.0038747424,-0.000982924,0.0,0.0,0.0,0.0
134465464,-0.00014452489,0.0038198163,-0.000729395,0.0,0.0,0.0,0.0
134469412,-0.0005607399,0.0031245481,-0.00059622945,0.0,0.0,0.0,0.0
134473442,-0.00059468776,0.0021301494,-0.00038203044,0.0,0.0,0.0,0.0
134477431,-0.0002845138,0.0016805986,-0.0006561247,0.0,0.0,0.0,0.0
134481459,-0.00022979971,0.0017442547,-0.0009089075,0.0,0.0,0.0,0.0
134485446,-2.9168761e-05,0.0025340915,-0.0014808854,0.0,0.0,0.0,0.0
134489405,0.00040128172,0.0032941587,-0.0015877159,0.0,0.0,0.0,0.0
134493453,0.00026802448,0.0039414815,-0.0012160512,0.0,0.0,0.0,0.0
134497443,-0.00018142775,0.0043793856,-0.00085275376,0.0,0.0,0.0,0.0
134501446,-0.00041078738,0.004100554,-0.0009167428,0.0,0.0,0.0,0.0
134505442,-0.00023171297,0.0035424195,-0.0012812666,0.0,0.0,0.0,0.0
134509427,-0.00018128863,0.0037589388,-0.0013786182,0.0,0.0,0.0,0.0
134513457,-0.0006378978,0.0036170357,-0.0009414292,0.0,0.0,0.0,0.0
134517435,-0.0010216893,0.00348493,-0.00014345918,0.0,0.0,0.0,0.0
134521439,-0.0010385164,0.0033939993,8.4643485e-05,0.0,0.0,0.0,0.0
134525448,-0.00065870275,0.0031194638,-0.00019169005,0.0,0.0,0.0,0.0
134529431,0.00019987335,0.0027926685,-0.00039875653,0.0,0.0,0.0,0.0
134533406,0.0010403268,0.0026625458,-0.0007274844,0.0,0.0,0.0,0.0
134537457,0.0007243956,0.0029041765,-0.000538174,0.0,0.0,0.0,0.0
134541448,0.00016043312,0.003119004,-0.000611561,0.0,0.0,0.0,0.0
134545418,-0.0002226829,0.0030092588,-0.0009877728,0.0,0.0,0.0,0.0
134549456,2.5154644e-05,0.0027136025,-0.0014335329,0.0,0.0,0.0,0.0
134553417,-8.5188076e-05,0.0027506344,-0.0015295891,0.0,0.0,0.0,0.0
134557467,-0.00036004224,0.0034060809,-0.0013345131,0.0,0.0,0.0,0.0
134561448,-0.00035193414,0.0033016047,-0.001126885,0.0,0.0,0.0,0.0
134565456,-0.00019568461,0.0028276443,-0.0008997613,0.0,0.0,0.0,0.0
134569454,-0.0003136392,0.0025298274,-0.0012383882,0.0,0.0,0.0,0.0
134573416,-0.00060820405,0.0023734276,-0.0014330551,0.0,0.0,0.0,0.0
134577432,-0.00087795797,0.0022518553,-0.0017128517,0.0,0.0,0.0,0.0
134581449,-0.0012017601,0.0023788367,-0.0019179955,0.0,0.0,0.0,0.0
134585418,-0.0012232471,0.003087997,-0.0015720952,0.0,0.0,0.0,0.0
134589455,-0.0010713844,0.002739311,-0.0011432094,0.0,0.0,0.0,0.0
134593420,-0.00095826015,0.0022785855,-0.00084133126,0.0,0.0,0.0,0.0
134597465,-0.0009236078,0.0024863677,-0.00074034394,0.0,0.0,0.0,0.0
134601440,-0.0014349896,0.0025907014,-0.0009415434,0.0,0.0,0.0,0.0
134605405,-0.00125977,0.0025172022,-0.0013601742,0.0,0.0,0.0,0.0
134609451,-0.0004936345,0.002256114,-0.0013903583,0.0,0.0,0.0,0.0
134613405,1.2286153e-05,0.0019077973,-0.0006925841,0.0,0.0,0.0,0.0
134617472,0.00058733835,0.002316055,0.00012570102,0.0,0.0,0.0,0.0
134621508,0.0006648755,0.0030305635,-0.0004757596,0.0,0.0,0.0,0.0
134625415,0.00051834085,0.0030316305,-0.0010759196,0.0,0.0,0.0,0.0
134629466,0.0006187842,0.0026855073,-0.0006554312,0.0,0.0,0.0,0.0
134633467,0.00071616255,0.002789125,-0.00035119476,0.0,0.0,0.0,0.0
134637471,0.00013575488,0.002455241,-0.00024515885,0.0,0.0,0.0,0.0
134641454,-0.0003575958,0.0015576371,-8.086336e-05,0.0,0.0,0.0,0.0
134645404,-0.0007076944,0.0008290566,-2.3263856e-05,0.0,0.0,0.0,0.0
134649439,-0.0011071146,0.0008084527,-0.00015493284,0.0,0.0,0.0,0.0
134653446,-0.0009030221,0.0018631059,-0.0005401161,0.0,0.0,0.0,0.0
134657485,-0.000491718,0.0027074134,-0.0007160587,0.0,0.0,0.0,0.0
134661463,-0.00046797952,0.0025744657,-0.00046683964,0.0,0.0,0.0,0.0
134665408,-0.00035647376,0.0021695138,-0.00026329688,0.0,0.0,0.0,0.0
134669472,-0.00027465957,0.0021630968,-0.00024914125,0.0,0.0,0.0,0.0
134673437,-0.0006034786,0.002344373,-0.000688997,0.0,0.0,0.0,0.0
134677482,-0.00094601663,0.0024426524,-0.0013059652,0.0,0.0,0.0,0.0
134681463,-0.0008742202,0.002511189,-0.0015562566,0.0,0.0,0.0,0.0
134685413,-0.0006535505,0.0022111721,-0.0013137574,0.0,0.0,0.0,0.0
134689438,-0.00053584424,0.0020518058,-0.0005506618,0.0,0.0,0.0,0.0
134693445,-0.00090036704,0.0020207844,-0.000287014,0.0,0.0,0.0,0.0
134697497,-0.0012243224,0.0018827484,-0.00042276736,0.0,0.0,0.0,0.0
134701411,-0.0011974794,0.0016765944,-0.00083845493,0.0,0.0,0.0,0.0
134705427,-0.0007233238,0.0014898827,-0.0014049867,0.0,0.0,0.0,0.0
134709442,-0.00023035792,0.0020660057,-0.001235735,0.0,0.0,0.0,0.0
134713419,-0.00016740113,0.0024970635,-0.0011863915,0.0,0.0,0.0,0.0
134717529,5.1461626e-05,0.0024961221,-0.0011424306,0.0,0.0,0.0,0.0
134721417,0.00041263519,0.002500637,-0.0012312452,0.0,0.0,0.0,0.0
134725435,0.0006480084,0.0024612132,-0.0013065811,0.0,0.0,0.0,0.0
134729438,0.0003220597,0.0024455024,-0.0013490907,0.0,0.0,0.0,0.0
134733456,-0.00013956454,0.002384807,-0.0012086191,0.0,0.0,0.0,0.0
134737501,-0.000660848,0.0026966655,-0.0012284133,0.0,0.0,0.0,0.0
134741405,-0.0008181783,0.003091318,-0.0020019258,0.0,0.0,0.0,0.0
134745411,-0.00043684163,0.0029196988,-0.0020113708,0.0,0.0,0.0,0.0
134749453,8.77236e-06,0.0027671086,-0.0013576548,0.0,0.0,0.0,0.0
134753423,-0.00036128133,0.0030625868,-0.0008841162,0.0,0.0,0.0,0.0
134757499,-0.0005199098,0.0029118517,-0.0007890627,0.0,0.0,0.0,0.0
134761426,0.0002098793,0.0024185185,-0.0006075144,0.0,0.0,0.0,0.0
134765405,0.000722426,0.002460494,-0.00087323214,0.0,0.0,0.0,0.0
134769441,0.0006744048,0.002496621,-0.0010823403,0.0,0.0,0.0,0.0
134773408,-6.219125e-05,0.0027986458,-0.00086582906,0.0,0.0,0.0,0.0
134777506,-0.0007095776,0.0030248452,-0.0011827708,0.0,0.0,0.0,0.0
134781413,-0.00050118,0.003320573,-0.00061322935,0.0,0.0,0.0,0.0
134785416,8.120679e-05,0.003215963,0.00025855814,0.0,0.0,0.0,0.0
134789477,9.143524e-05,0.0029535657,0.0011130741,0.0,0.0,0.0,0.0
134793414,9.628426e-05,0.00269157,0.0010319474,0.0,0.0,0.0,0.0
134797508,-6.636437e-05,0.0027561618,-2.872746e-05,0.0,0.0,0.0,0.0
134801445,-0.00030317367,0.002920515,-0.00090080843,0.0,0.0,0.0,0.0
134805405,-0.0006247879,0.0031426027,-0.001322747,0.0,0.0,0.0,0.0
134809456,-0.0009600539,0.0031240915,-0.0016375429,0.0,0.0,0.0,0.0
134813405,-0.0006030492,0.0026165044,-0.0020144223,0.0,0.0,0.0,0.0
134817505,0.00027449435,0.0022715547,-0.0017501274,0.0,0.0,0.0,0.0
134821488,0.00067261746,0.0022043467,-0.0015733589,0.0,0.0,0.0,0.0
134825418,0.0006845392,0.002607062,-0.001416964,0.0,0.0,0.0,0.0
134829411,0.00048364687,0.0029272595,-0.00094750617,0.0,0.0,0.0,0.0
134833406,0.00027075136,0.0025755083,-0.00047858624,0.0,0.0,0.0,0.0
134837505,-0.0002514809,0.0023789902,-0.00057450094,0.0,0.0,0.0,0.0
134841455,-0.0007001043,0.0022433277,-0.00091374456,0.0,0.0,0.0,0.0
134845408,-0.00030453023,0.0024636686,-0.001513287,0.0,0.0,0.0,0.0
134849411,0.00038877275,0.0029041383,-0.0018186646,0.0,0.0,0.0,0.0
134853408,0.0006999775,0.0029815182,-0.0015842473,0.0,0.0,0.0,0.0
134857478,0.0006023521,0.002959249,-0.0012464065,0.0,0.0,0.0,0.0
134861445,0.00061987934,0.0033599718,-0.0011495497,0.0,0.0,0.0,0.0
134865406,0.0005805439,0.003839224,-0.0015321679,0.0,0.0,0.0,0.0
134869411,0.00066007243,0.004148825,-0.0015087442,0.0,0.0,0.0,0.0
134873407,0.0005257819,0.004008543,-0.0013769176,0.0,0.0,0.0,0.0
134877506,-0.00014650178,0.0034723433,-0.00086085586,0.0,0.0,0.0,0.0
134881418,-0.0005502609,0.0031316157,-0.00014668482,0.0,0.0,0.0,0.0
134885456,-0.00058557536,0.003254133,-4.8693095e-05,0.0,0.0,0.0,0.0
134889411,-0.0010928959,0.0027773408,-0.0002767492,0.0,0.0,0.0,0.0
134893405,-0.0007976139,0.0024083294,-0.0006984747,0.0,0.0,0.0,0.0
134897462,0.00025731514,0.0029067958,-0.0013253533,0.0,0.0,0.0,0.0
134901421,0.0005049285,0.003096134,-0.0015401645,0.0,0.0,0.0,0.0
134905464,-2.6642258e-05,0.0031346167,-0.0019098525,0.0,0.0,0.0,0.0
134909405,-0.00055401865,0.0031856112,-0.002412052,0.0,0.0,0.0,0.0
134913412,-0.00070983,0.0038478249,-0.0023830696,0.0,0.0,0.0,0.0
134917486,-0.0010873317,0.0040393695,-0.0019947516,0.0,0.0,0.0,0.0
134921432,-0.001794858,0.004080865,-0.0014127251,0.0,0.0,0.0,0.0
134925488,-0.0019534542,0.0035336262,-0.0010752094,0.0,0.0,0.0,0.0
134929431,-0.0016275935,0.0029854411,-0.0007575497,0.0,0.0,0.0,0.0
134933419,-0.0009960231,0.0027336478,-0.0006238009,0.0,0.0,0.0,0.0
134937478,1.3769808e-05,0.0025431511,-0.00034060056,0.0,0.0,0.0,0.0
134941404,0.0009784813,0.0022960824,-0.0006986243,0.0,0.0,0.0,0.0
134945471,0.0012677064,0.0026699856,-0.0008645795,0.0,0.0,0.0,0.0
134949405,0.0009599532,0.003219984,-0.00066004833,0.0,0.0,0.0,0.0
134953420,0.00022262515,0.003201396,-0.00035954214,0.0,0.0,0.0,0.0
134957467,-0.0004955843,0.0030763904,-4.8359216e-05,0.0,0.0,0.0,0.0
134961423,-0.0014075047,0.0027382418,0.00044009276,0.0,0.0,0.0,0.0
134965455,-0.0014818637,0.0024156822,0.00085868454,0.0,0.0,0.0,0.0
134969464,-0.0010560827,0.0023087522,0.00054949406,0.0,0.0,0.0,0.0
134973453,-0.0002585849,0.0023706444,-0.00034417148,0.0,0.0,0.0,0.0
134977479,0.0003820077,0.0021892288,-0.0019148326,0.0,0.0,0.0,0.0
134981409,0.00019574331,0.0027447017,-0.003078659,0.0,0.0,0.0,0.0
134985448,-0.00027337112,0.003095851,-0.0032053203,0.0,0.0,0.0,0.0
134989457,-0.0005035872,0.0032917052,-0.0025939844,0.0,0.0,0.0,0.0
134993455,-0.00016438575,0.0032524078,-0.0016827586,0.0,0.0,0.0,0.0
134997475,0.00024346376,0.003298057,-0.0013458282,0.0,0.0,0.0,0.0
135001425,0.0003531668,0.0032328716,-0.0014046391,0.0,0.0,0.0,0.0
135005471,-4.388664e-05,0.0031670176,-0.0012132409,0.0,0.0,0.0,0.0
135009458,-3.0228883e-05,0.0030442362,-0.0007560072,0.0,0.0,0.0,0.0
135013425,4.0214916e-05,0.0026173317,-0.0006174824,0.0,0.0,0.0,0.0
135017440,-0.00040697932,0.0020309663,-0.00033088052,0.0,0.0,0.0,0.0
135021439,-0.000795315,0.0016396779,-0.00011521205,0.0,0.0,0.0,0.0
135025436,-0.00092614396,0.0019578007,6.950874e-05,0.0,0.0,0.0,0.0
135029445,-0.0007121392,0.002365917,-0.00020363065,0.0,0.0,0.0,0.0
135033404,-0.00040104738,0.002204826,-0.0009700974,0.0,0.0,0.0,0.0
135037438,0.00012169845,0.0027152786,-0.0022700257,0.0,0.0,0.0,0.0
135041408,-0.0003803943,0.0032371946,-0.0031244392,0.0,0.0,0.0,0.0
135045446,-0.0007818879,0.002909006,-0.0030528281,0.0,0.0,0.0,0.0
135049417,-0.0006440949,0.002203921,-0.0022074867,0.0,0.0,0.0,0.0
135053480,-0.0007840431,0.0018973254,-0.0009970173,0.0,0.0,0.0,0.0
135057435,-0.0009037734,0.002182347,-0.000555443,0.0,0.0,0.0,0.0
135061407,-0.0014814807,0.0021386754,-0.0006472139,0.0,0.0,0.0,0.0
135065446,-0.0014941592,0.0020346881,-0.0005415871,0.0,0.0,0.0,0.0
135069410,-0.00095337984,0.0019241745,-0.00081233354,0.0,0.0,0.0,0.0
135073470,-0.0004101742,0.0017345926,-0.0006773951,0.0,0.0,0.0,0.0
135077440,-0.00015043511,0.0015216117,-0.00022955437,0.0,0.0,0.0,0.0
135081434,0.00021413976,0.001700128,-0.00019183819,0.0,0.0,0.0,0.0
135085443,0.0006878837,0.0020965817,-0.0012069698,0.0,0.0,0.0,0.0
135089430,0.0011205069,0.0020350837,-0.002119258,0.0,0.0,0.0,0.0
135093483,0.0011322551,0.0016621059,-0.0027429145,0.0,0.0,0.0,0.0
135097476,0.0011412211,0.0017502712,-0.0024666144,0.0,0.0,0.0,0.0
135101405,0.0011825744,0.0020991634,-0.0015953081,0.0,0.0,0.0,0.0
135105459,0.0011354804,0.0028894308,-0.000616738,0.0,0.0,0.0,0.0
135109409,0.00062913273,0.003175166,-0.00018326519,0.0,0.0,0.0,0.0
135113468,0.00054321636,0.0028898513,-0.00013705902,0.0,0.0,0.0,0.0
135116625,0.00057111535,0.002907166,-4.758645e-05,0.0,0.0,0.0,0.0
135121418,0.00057568867,0.0026329015,-0.00065938826,0.0,0.0,0.0,0.0
135125413,0.00015783517,0.0026194542,-0.0015490295,0.0,0.0,0.0,0.0
135129415,-0.0003241147,0.00264824,-0.0017703259,0.0,0.0,0.0,0.0
135133459,-0.00091910886,0.0027719026,-0.0017251426,0.0,0.0,0.0,0.0
135136649,-0.0009569727,0.0029979942,-0.0013348057,0.0,0.0,0.0,0.0
135141415,-0.0009264336,0.003601193,-0.0006443773,0.0,0.0,0.0,0.0
135145411,-0.0010152482,0.0035875207,0.00013037497,0.0,0.0,0.0,0.0
135149412,-0.00095627026,0.0036809444,0.0010691516,0.0,0.0,0.0,0.0
135153437,-0.0008154514,0.0036013639,0.0011142015,0.0,0.0,0.0,0.0
135157473,-0.00020415775,0.0035054937,0.00022261275,0.0,0.0,0.0,0.0
135161454,0.000348533,0.0031518296,-0.00089627906,0.0,0.0,0.0,0.0
135165411,0.0005626669,0.002426384,-0.0018222551,0.0,0.0,0.0,0.0
135169405,0.00026407797,0.0018222455,-0.0013964918,0.0,0.0,0.0,0.0
135173446,0.00033677538,0.0020687282,-0.0009875201,0.0,0.0,0.0,0.0
135177479,0.00014576712,0.0025478455,-0.0005972395,0.0,0.0,0.0,0.0
135182214,-0.0005399247,0.002716626,-0.00014636834,0.0,0.0,0.0,0.0
135186238,-0.0011983422,0.0030253301,7.7758334e-05,0.0,0.0,0.0,0.0
135190218,-0.00131164,0.0033008999,6.602937e-05,0.0,0.0,0.0,0.0
135194297,-0.0010809986,0.0035102707,-0.00018959702,0.0,0.0,0.0,0.0
135197466,-0.00052921916,0.00341652,-0.0003036796,0.0,0.0,0.0,0.0
135201430,-4.08887e-05,0.0029628677,-0.0005045354,0.0,0.0,0.0,0.0
135205411,2.66688e-05,0.0025849233,-0.0010957445,0.0,0.0,0.0,0.0
135208650,1.9140949e-05,0.00222697,-0.0011953629,0.0,0.0,0.0,0.0
135212626,-0.000113411545,0.0013781661,-0.000878439,0.0,0.0,0.0,0.0
135217511,-0.00033418287,0.001301239,-0.00018776982,0.0,0.0,0.0,0.0
135221476,-0.00064529484,0.0019250028,-0.000384441,0.0,0.0,0.0,0.0
135225405,-0.0005319586,0.0022966324,-0.00032751303,0.0,0.0,0.0,0.0
135229417,-0.0003027268,0.002425346,-0.0004931899,0.0,0.0,0.0,0.0
135233451,-0.00048885186,0.0022480765,-0.0008478075,0.0,0.0,0.0,0.0
135237482,-0.0003794984,0.0019658615,-0.0007486531,0.0,0.0,0.0,0.0
135241471,8.4553205e-05,0.0016607419,-0.00092555676,0.0,0.0,0.0,0.0
135245411,0.00028870822,0.0011296963,-0.0012812365,0.0,0.0,0.0,0.0
135249422,8.542865e-05,0.0012655824,-0.0017321892,0.0,0.0,0.0,0.0
135253405,-0.0004287365,0.0018295372,-0.0012857579,0.0,0.0,0.0,0.0
135257434,-0.0006149447,0.0021496816,-0.00084015256,0.0,0.0,0.0,0.0
135261479,-0.0009297841,0.0019379428,-0.0007267107,0.0,0.0,0.0,0.0
135265407,-0.0012079529,0.0022018752,-0.00029021583,0.0,0.0,0.0,0.0
135269412,-0.0013491242,0.002944111,-0.00034342374,0.0,0.0,0.0,0.0
135273411,-0.0016035781,0.003258891,-0.00097406824,0.0,0.0,0.0,0.0
135277453,-0.0012301158,0.0034417552,-0.0017683238,0.0,0.0,0.0,0.0
135281457,-0.0005798446,0.0035058386,-0.0019931258,0.0,0.0,0.0,0.0
135285405,0.0001591767,0.0034058029,-0.0022630482,0.0,0.0,0.0,0.0
135289453,0.00015561408,0.0030463631,-0.0022915609,0.0,0.0,0.0,0.0
135293413,-0.00037555653,0.002320796,-0.0018713456,0.0,0.0,0.0,0.0
135297454,-0.0007430492,0.0017150389,-0.0007196559,0.0,0.0,0.0,0.0
135301456,-0.0008906121,0.001633445,-0.00013143668,0.0,0.0,0.0,0.0
135305441,-0.0005188959,0.0020556343,-2.0447245e-05,0.0,0.0,0.0,0.0
135309412,-0.0002480987,0.0021822792,-0.00075740693,0.0,0.0,0.0,0.0
135313417,-0.0006986437,0.0015913522,-0.001490437,0.0,0.0,0.0,0.0
135317440,-0.0009349396,0.0019549862,-0.0013236137,0.0,0.0,0.0,0.0
135321442,-0.0014347428,0.0027955992,-0.0013486958,0.0,0.0,0.0,0.0
135325448,-0.0020149227,0.0031206075,-0.0014855455,0.0,0.0,0.0,0.0
135329418,-0.0013945093,0.0027928178,-0.0017527669,0.0,0.0,0.0,0.0
135333432,-0.00036350178,0.0030743936,-0.0018350463,0.0,0.0,0.0,0.0
135337500,-8.903205e-05,0.0035431145,-0.0013264312,0.0,0.0,0.0,0.0
135341456,-0.0004891099,0.0037986278,-0.0012389827,0.0,0.0,0.0,0.0
135344644,-0.0007023666,0.0038508275,-0.0010053508,0.0,0.0,0.0,0.0
135348668,-0.00092497084,0.0030502079,-0.0010318737,0.0,0.0,0.0,0.0
135351818,-0.00091784686,0.0016412976,-0.0012063899,0.0,0.0,0.0,0.0
135359839,-0.00061581837,0.0014249466,-0.0015612494,0.0,0.0,0.0,0.0
135364604,-0.00086327223,0.0021763775,-0.001290995,0.0,0.0,0.0,0.0
135368659,-0.0009768389,0.0023018124,-0.0010680137,0.0,0.0,0.0,0.0
135373413,-0.0014187526,0.0023439103,-0.00064361526,0.0,0.0,0.0,0.0
135377487,-0.0019069021,0.002550553,-0.00043026655,0.0,0.0,0.0,0.0
135381435,-0.0013344772,0.002925235,-0.00026930752,0.0,0.0,0.0,0.0
135385422,-0.0005291361,0.0032372044,-0.0006261069,0.0,0.0,0.0,0.0
135389474,-0.00018896171,0.004074918,-0.0014581252,0.0,0.0,0.0,0.0
135393405,0.00017742283,0.0042039584,-0.0016581526,0.0,0.0,0.0,0.0
135396624,0.00076951296,0.0036448066,-0.0016696553,0.0,0.0,0.0,0.0
135400605,0.0013632477,0.003260654,-0.0018202637,0.0,0.0,0.0,0.0
135404609,0.0010797412,0.0029769102,-0.0022239373,0.0,0.0,0.0,0.0
135408656,0.00037763448,0.0024165593,-0.0025483004,0.0,0.0,0.0,0.0
135415905,-0.00044213282,0.0023731098,-0.0018618465,0.0,0.0,0.0,0.0
135420605,-0.00043162482,0.00257015,-0.0012387882,0.0,0.0,0.0,0.0
135424607,-0.0004250952,0.0024040584,-0.0015154486,0.0,0.0,0.0,0.0
135428635,-0.0006256903,0.0019406178,-0.0023813164,0.0,0.0,0.0,0.0
135432652,-0.0008645874,0.0017362975,-0.0027432228,0.0,0.0,0.0,0.0
135436643,-0.00079092896,0.0014931024,-0.0021762853,0.0,0.0,0.0,0.0
135440605,-0.00041536492,0.0014283176,-0.0016494778,0.0,0.0,0.0,0.0
135444612,-0.000100657984,0.0014705561,-0.0014708729,0.0,0.0,0.0,0.0
135448605,0.0004968167,0.0017368771,-0.0016406848,0.0,0.0,0.0,0.0
135452654,0.0008778993,0.0026243993,-0.0014898159,0.0,0.0,0.0,0.0
135457468,0.0004280911,0.0032226737,-0.0010957272,0.0,0.0,0.0,0.0
135464657,-0.00055111607,0.0032598614,-0.0008957625,0.0,0.0,0.0,0.0
135471844,-0.0008207616,0.0025137214,0.0005096653,0.0,0.0,0.0,0.0
135476675,-0.00015782058,0.0022551396,0.0006042498,0.0,0.0,0.0,0.0
135480616,2.1027095e-05,0.0024539353,-7.281685e-05,0.0,0.0,0.0,0.0
135484615,-0.00018202694,0.0026201075,-0.0009684501,0.0,0.0,0.0,0.0
135488612,-0.00052174734,0.0025199312,-0.0012818614,0.0,0.0,0.0,0.0
135492653,-0.0008066142,0.002644008,-0.000882896,0.0,0.0,0.0,0.0
135499879,-0.001578255,0.0031048928,1.4069723e-05,0.0,0.0,0.0,0.0
135504650,-0.001618821,0.0028714233,-0.00013396982,0.0,0.0,0.0,0.0
135508605,-0.00061145733,0.0025424229,-0.00027013983,0.0,0.0,0.0,0.0
135511831,0.00010486148,0.002114551,-0.0005076081,0.0,0.0,0.0,0.0
135516669,-8.61626e-05,0.0018459267,-0.0008372736,0.0,0.0,0.0,0.0
135520615,-0.00026713664,0.0016597889,-0.00090657844,0.0,0.0,0.0,0.0
135527839,0.00010769343,0.00215471,-0.00072207744,0.0,0.0,0.0,0.0
135531857,-0.00019872816,0.0027251933,-0.000645385,0.0,0.0,0.0,0.0
135536660,-0.00063849834,0.0033811752,-0.0010530605,0.0,0.0,0.0,0.0
135539837,-0.00067351677,0.0037280556,-0.0012086962,0.0,0.0,0.0,0.0
135543871,-0.0006437893,0.0035704453,-0.0010278049,0.0,0.0,0.0,0.0
135548625,-0.000612414,0.003317205,-0.00068969023,0.0,0.0,0.0,0.0
135555839,-0.0009337775,0.002431114,-0.001001657,0.0,0.0,0.0,0.0
135560651,-0.0010855196,0.0020982104,-0.0011798013,0.0,0.0,0.0,0.0
135564632,-0.00079332304,0.0018747898,-0.0011216389,0.0,0.0,0.0,0.0
135568604,-0.00025599936,0.0018568372,-0.0013679989,0.0,0.0,0.0,0.0
135571861,-0.00010430894,0.002426633,-0.0014976908,0.0,0.0,0.0,0.0
135576620,-0.00050910516,0.0030638776,-0.0012522554,0.0,0.0,0.0,0.0
135583905,-0.001044654,0.0036006216,-0.0013861046,0.0,0.0,0.0,0.0
135587819,-0.00073865266,0.003703026,-0.0013777018,0.0,0.0,0.0,0.0
135591834,-0.00022457923,0.0039371597,-0.0009846151,0.0,0.0,0.0,0.0
135596611,-0.00055039383,0.0036821063,-0.0014268742,0.0,0.0,0.0,0.0
135599836,-0.00021270044,0.003585314,-0.0017274444,0.0,0.0,0.0,0.0
135604649,0.0006080172,0.0036876388,-0.0016504152,0.0,0.0,0.0,0.0
135611869,0.0005283591,0.0025462357,-0.0005695992,0.0,0.0,0.0,0.0
135616612,-0.0001922723,0.0022446713,-0.00021457148,0.0,0.0,0.0,0.0
135620654,-0.00060201145,0.0018812413,-0.00059938047,0.0,0.0,0.0,0.0
135624675,-0.00082095375,0.0021392137,-0.0015150642,0.0,0.0,0.0,0.0
135628619,-0.001093361,0.0028301028,-0.0018359399,0.0,0.0,0.0,0.0
135632619,-0.0008404958,0.0026879422,-0.001459939,0.0,0.0,0.0,0.0
135636607,-0.00065938744,0.0025227678,-0.00083049486,0.0,0.0,0.0,0.0
135640655,-0.0005227361,0.0028283112,-0.0007110104,0.0,0.0,0.0,0.0
135644671,-1.8234743e-05,0.0032199398,-0.0009170147,0.0,0.0,0.0,0.0
135648605,6.838811e-05,0.0028506562,-0.0012697044,0.0,0.0,0.0,0.0
135652624,-0.0003597082,0.00289664,-0.0014908507,0.0,0.0,0.0,0.0
135656605,-0.0004307606,0.0031539865,-0.0016504092,0.0,0.0,0.0,0.0
135660630,0.00020329707,0.0032843365,-0.001479241,0.0,0.0,0.0,0.0
135664682,0.00063699443,0.0029714364,-0.0014235217,0.0,0.0,0.0,0.0
135668605,0.000260857,0.0020926204,-0.00077330304,0.0,0.0,0.0,0.0
135672629,-3.0652765e-05,0.0018433224,-0.00033481413,0.0,0.0,0.0,0.0
135676618,0.00038268638,0.0021801826,6.148417e-05,0.0,0.0,0.0,0.0
135680624,0.00037334394,0.002275017,-0.00019304932,0.0,0.0,0.0,0.0
135684660,-5.0944218e-05,0.0021472047,-0.0007859901,0.0,0.0,0.0,0.0
135687842,-0.00028211562,0.0022746222,-0.0016753146,0.0,0.0,0.0,0.0
135695844,-0.00014528629,0.002543035,-0.0026363488,0.0,0.0,0.0,0.0
135699855,-0.0001875892,0.0021807188,-0.002067613,0.0,0.0,0.0,0.0
135704659,-0.00046193344,0.0021532322,-0.0015947133,0.0,0.0,0.0,0.0
135708634,-0.00036967016,0.0025629976,-0.0016334847,0.0,0.0,0.0,0.0
135712643,-0.00012554723,0.0022286742,-0.0022422748,0.0,0.0,0.0,0.0
135716616,0.00016222418,0.0018577853,-0.0025571587,0.0,0.0,0.0,0.0
135723839,0.000422946,0.00225022,-0.0016364704,0.0,0.0,0.0,0.0
135727849,0.0008896397,0.0028218024,-0.0013887121,0.0,0.0,0.0,0.0
135732632,0.00044356126,0.0027503984,-0.0013791842,0.0,0.0,0.0,0.0
135736612,-2.0160136e-05,0.0027628313,-0.0020790426,0.0,0.0,0.0,0.0
135740639,-0.00022986993,0.0028710186,-0.0030146497,0.0,0.0,0.0,0.0
135744619,-0.00047765084,0.0027489013,-0.0037515745,0.0,0.0,0.0,0.0
135751902,0.0009777842,0.0025447744,-0.004016433,0.0,0.0,0.0,0.0
135756605,0.00078707514,0.001984579,-0.0036849892,0.0,0.0,0.0,0.0
135760607,8.2761224e-05,0.001441018,-0.0037481268,0.0,0.0,0.0,0.0
135764605,9.216933e-05,0.0013432357,-0.0041470747,0.0,0.0,0.0,0.0
135767840,-0.0004263533,0.001486071,-0.005068721,0.0,0.0,0.0,0.0
135772652,-0.00071596727,0.0016940535,-0.0062244646,0.0,0.0,0.0,0.0
135779880,-0.00060766994,0.0018073535,-0.0062321182,0.0,0.0,0.0,0.0
135784605,-0.0010886245,0.0020283947,-0.0060989233,0.0,0.0,0.0,0.0
135788625,-0.0010586395,0.0021824175,-0.005966156,0.0,0.0,0.0,0.0
135792675,-0.00028731444,0.0026802043,-0.0051606223,0.0,0.0,0.0,0.0
135796605,-4.254983e-05,0.0035676288,-0.0031132898,0.0,0.0,0.0,0.0
135800658,-0.00048008328,0.0048376396,-0.00048039484,0.0,0.0,0.0,0.0
135804605,-0.0005319237,0.0035726284,0.0025586397,0.0,0.0,0.0,0.0
135808657,-0.00012602036,0.0030827504,0.0054738447,0.0,0.0,0.0,0.0
135812671,0.0006061888,0.0022222095,0.008070588,0.0,0.0,0.0,0.0
135816619,0.0013210479,0.0025792718,0.0104047805,0.0,0.0,0.0,0.0
135820619,0.00015282848,0.0021421225,0.013101261,0.0,0.0,0.0,0.0
135824611,0.00024073309,0.0027847404,0.014997001,0.0,0.0,0.0,0.0
135827857,-0.0002490972,0.0016840686,0.01668114,0.0,0.0,0.0,0.0
135832691,0.00027366576,0.0031868555,0.01740088,0.0,0.0,0.0,0.0
135836605,-0.00089860446,0.0035033782,0.01815211,0.0,0.0,0.0,0.0
135840643,0.00029093947,0.0038411869,0.018940086,0.0,0.0,0.0,0.0
135844605,0.0007642366,0.0037217205,0.018758172,0.0,0.0,0.0,0.0
135848625,-0.0010408337,0.0030986627,0.01844906,0.0,0.0,0.0,0.0
135852661,-0.0013685031,0.005111423,0.01650357,0.0,0.0,0.0,0.0
135856616,0.00034774517,0.0029639397,0.015030117,0.0,0.0,0.0,0.0
135860632,0.0028650085,0.002640152,0.0134586,0.0,0.0,0.0,0.0
135864605,0.0017418091,0.0045695817,0.01168352,0.0,0.0,0.0,0.0
135868617,-0.0012945798,0.0026183748,0.0098204855,0.0,0.0,0.0,0.0
135872663,0.0010435416,0.0028500175,0.007899356,0.0,0.0,0.0,0.0
135876638,0.0031774142,0.0031766659,0.0058065774,0.0,0.0,0.0,0.0
135880659,0.0012864466,0.0034239157,0.0033036175,0.0,0.0,0.0,0.0
135884629,-0.0023649011,0.0031825877,0.0007320793,0.0,0.0,0.0,0.0
135887864,-0.000968016,0.0023458144,-0.0025589983,0.0,0.0,0.0,0.0
135892618,0.0007265879,0.0025876155,-0.005386611,0.0,0.0,0.0,0.0
135896649,-0.00042433263,0.0036694861,-0.008409942,0.0,0.0,0.0,0.0
135900635,-0.00061069365,0.0018769836,-0.011004329,0.0,0.0,0.0,0.0
135904609,-0.0012789993,0.0014718082,-0.013126996,0.0,0.0,0.0,0.0
135908616,-0.0010403703,0.0021843342,-0.015688753,0.0,0.0,0.0,0.0
135912649,-0.0007106201,0.0008725305,-0.018096697,0.0,0.0,0.0,0.0
135916657,-0.00084065413,0.0021169356,-0.019724872,0.0,0.0,0.0,0.0
135920650,-0.0013132337,0.0005929908,-0.02169367,0.0,0.0,0.0,0.0
135924608,-0.0011948419,0.001103071,-0.02341262,0.0,0.0,0.0,0.0
135928611,-0.0014042291,0.002608174,-0.024803476,0.0,0.0,0.0,0.0
135932628,-0.00020008432,0.00077637006,-0.024056988,0.0,0.0,0.0,0.0
135936652,-0.00095357024,0.0029603506,-0.023806494,0.0,0.0,0.0,0.0
135940645,-0.0017443425,0.0044269017,-0.02206961,0.0,0.0,0.0,0.0
135944620,-0.002960999,0.0024315098,-0.020830588,0.0,0.0,0.0,0.0
135948608,0.000711541,0.0019797347,-0.019222306,0.0,0.0,0.0,0.0
135952632,-0.00025487534,0.0032124815,-0.017836764,0.0,0.0,0.0,0.0
135956662,-0.0008448857,0.0041412604,-0.015452223,0.0,0.0,0.0,0.0
135960680,0.00066351466,0.0027038038,-0.01250335,-1.334127e-06,1.0452943e-05,5.429344e-06,0.0
135964613,0.00056995294,0.0057054874,-0.009411696,-2.6905357e-06,2.0467282e-05,9.733736e-06,0.0
135968650,5.01927e-05,0.0037094117,-0.005996649,-3.970506e-06,3.0941213e-05,1.2731446e-05,0.0
135972631,0.002709434,0.006428469,-0.002803962,-5.74659e-06,4.0759158e-05,1.444381e-05,0.0
135976652,0.00078447524,0.0046047554,0.0007522189,-7.1875106e-06,5.1031744e-05,1.47469855e-05,0.0
135980683,0.0014672489,0.004313237,0.0038539781,-8.754718e-06,6.115435e-05,1.3807796e-05,0.0
135984609,0.0035532203,0.007613019,0.007071001,-1.0724662e-05,7.078248e-05,1.1544436e-05,0.0
135988640,0.0025333047,0.0048431596,0.01127682,-1.2581159e-05,8.096034e-05,7.537338e-06,0.0
135992609,0.0045136907,0.0057296613,0.014774884,-1.4770026e-05,9.083376e-05,2.1283263e-06,0.0
135995851,0.0046128677,0.009152649,0.018697087,-1.662139e-05,9.8348355e-05,-3.625732e-06,0.0
136000694,0.0027141941,0.0066058896,0.022906,-1.8948424e-05,0.000109982786,-1.424122e-05,0.0
136004606,0.0012867934,0.007119301,0.02697828,-2.0579677e-05,0.000119486205,-2.4723258e-05,0.0
136008647,0.0032185628,0.009526464,0.029762704,-2.2643217e-05,0.00012870306,-3.6705234e-05,0.0
136012619,0.0068444167,0.010664439,0.030963339,-2.5400132e-05,0.00013747717,-4.9075363e-05,0.0
136016656,0.0034673698,0.010313819,0.031348426,-2.7591168e-05,0.00014644304,-6.1978906e-05,0.0
136020682,-0.0029308987,0.0091237,0.0296919,-2.8523858e-05,0.00015550393,-7.4215604e-05,0.0
136024620,-0.0016106096,0.009036598,0.025872108,-2.9595176e-05,0.00016449722,-8.4945845e-05,0.0
136028654,0.0033101467,0.012312025,0.021622911,-3.1727614e-05,0.0001729656,-9.43161e-05,0.0
136032610,-0.0043324074,0.01049697,0.016111985,-3.2316944e-05,0.00018159597,-0.00010135398,0.0
136036641,-0.011293983,0.009179431,0.009899252,-3.155385e-05,0.00019054722,-0.000106117186,0.0
136040619,-0.00036092626,0.010479967,0.0051223403,-3.2762444e-05,0.00019919143,-0.00010892949,0.0
136044635,0.0040698866,0.010667783,0.0010788625,-3.492825e-05,0.0002076901,-0.00011014682,0.0
136048662,-0.018317234,0.009487141,-0.004755574,-3.2751344e-05,0.00021658464,-0.00010903572,0.0
136052629,-0.017582301,0.00995505,-0.010950936,-3.0572774e-05,0.00022513182,-0.00010547129,0.0
136056612,0.0018116889,0.0083854785,-0.017231602,-3.1947762e-05,0.00023402327,-9.9282595e-05,0.0
136060618,-2.3884772e-05,0.005637947,-0.021787291,-3.3242122e-05,0.0002434739,-9.1174115e-05,0.0
136064658,-0.019765439,-0.008534891,-0.025971118,-3.0651576e-05,0.00025572328,-8.130247e-05,0.0
136068636,-0.014160875,0.0024718181,-0.027602855,-2.8882027e-05,0.00026585875,-7.066628e-05,0.0
136072613,-0.013885608,0.0016172489,-0.029732158,-2.7080925e-05,0.0002762674,-5.9036236e-05,0.0
136076626,-0.004401597,-0.0037553732,-0.025058031,-2.7200567e-05,0.0002876307,-4.9095135e-05,0.0
136080626,-0.004182202,-0.01167577,-0.022848899,-2.7321023e-05,0.00030061833,-4.0010724e-05,0.0
136084643,-0.007007772,-0.0050768363,-0.021516075,-2.6952328e-05,0.00031251393,-3.1281637e-05,0.0
136088647,-0.009788992,0.007442598,-0.021638716,-2.5878171e-05,0.00032182643,-2.2552636e-05,0.0
136092620,-0.0022273804,-0.0018998904,-0.018106703,-2.6319363e-05,0.00033295923,-1.5056997e-05,0.0
136096629,0.007852399,-0.009828311,-0.019004289,-2.8708506e-05,0.00034566427,-7.1071895e-06,0.0
136100606,0.0011034717,-0.013471541,-0.015289198,-2.9916526e-05,0.00035922392,-6.660497e-07,0.0
136104652,-0.020554036,0.0025252833,-0.012409922,-2.6752714e-05,0.0003699201,4.832876e-06,0.0
136108643,-0.008709086,0.0024673182,-0.006420658,-2.5797726e-05,0.00038028372,7.87453e-06,0.0
136112606,0.01653246,-0.004063888,-0.004378026,-2.9662739e-05,0.0003919835,1.0140352e-05,0.0
136116634,0.01737222,-0.0042393934,-0.00020820525,-3.4171764e-05,0.00040400788,1.07327805e-05,0.0
136120609,-0.011517851,0.019346008,-0.000534609,-3.3039403e-05,0.00041123157,1.1458006e-05,0.0
136124686,-0.008349253,0.013772106,-0.00035890582,-3.2155123e-05,0.00041964182,1.2134801e-05,0.0
136128700,0.022581633,-0.0059785033,0.0016479557,-3.7269267e-05,0.00043134636,1.1964093e-05,0.0
136132606,0.0013379622,-0.0059265224,0.0046201344,-3.8608552e-05,0.00044361778,1.0664605e-05,0.0
136136655,-0.015862994,0.028970975,0.008039881,-3.660808e-05,0.00044909093,7.870146e-06,0.0
136140620,0.005545766,0.023426577,0.0073508793,-3.8313545e-05,0.00045526985,5.404047e-06,0.0
136144641,0.013930382,-0.006557378,0.01094326,-4.2025073e-05,0.0004671809,1.3715253e-06,0.0
136148676,-0.008111113,0.0147137,0.006425568,-4.165833e-05,0.0004751758,-8.6121213e-07,0.0
136152606,-0.008583203,0.031102616,0.003481408,-4.082867e-05,0.00047998017,-1.9314414e-06,0.0
136156647,0.0079745995,0.005232275,0.008267263,-4.326653e-05,0.0004894249,-4.9730497e-06,0.0
136160609,-0.009480488,-0.0043269843,0.010118323,-4.2378524e-05,0.0005008065,-8.645814e-06,0.0
136164663,-0.017065233,0.032997917,0.011308309,-3.9919865e-05,0.00050522026,-1.3059999e-05,0.0
136168677,0.0037726099,0.018198546,0.011211945,-4.1307663e-05,0.000512101,-1.7397686e-05,0.0
136172616,0.002583859,-0.00858989,0.00981118,-4.2673953e-05,0.00052389625,-2.1155018e-05,0.0
136176648,-0.010265261,0.00450952,0.0083479555,-4.1553652e-05,0.00053392915,-2.4524257e-05,0.0
136180609,-0.010255611,0.017065376,0.0058393376,-4.0324736e-05,0.0005410829,-2.6822161e-05,0.0
136184651,-0.025789542,-0.01733678,0.008936959,-3.5803823e-05,0.0005549392,-3.0351419e-05,0.0
136188687,0.007441343,0.014682263,0.01141056,-3.786609e-05,0.0005627635,-3.5042103e-05,0.0
136191854,0.021693526,-0.009825465,0.004476305,-4.1801435e-05,0.00057284505,-3.6556652e-05,0.0
136196637,-0.00021127047,-0.006152359,0.0046818787,-4.2970692e-05,0.00058675156,-3.8904087e-05,0.0
136200611,-0.02473155,0.009895355,0.00084430486,-3.893993e-05,0.000595695,-3.9354185e-05,0.0
136204638,-0.0118044,-0.030543095,0.0090595,-3.701684e-05,0.0006122799,-4.3110012e-05,0.0
136208627,0.013034738,-0.006195278,0.007102675,-4.0116603e-05,0.000624096,-4.609774e-05,0.0
136212653,0.015705146,0.02389398,0.00434315,-4.380258e-05,0.0006305978,-4.8064165e-05,0.0
136216651,-0.0010939399,-0.026077164,0.005135001,-4.4659228e-05,0.00064593,-5.038935e-05,0.0
136220633,0.001730342,-0.013216842,0.0015534783,-4.560026e-05,0.00065950805,-5.1209798e-05,0.0
136224638,-0.011178941,-0.006850037,0.00035864365,-4.3990178e-05,0.0006721843,-5.162261e-05,0.0
136228628,-0.009130637,-0.025184123,0.0076581747,-4.2920212e-05,0.0006878598,-5.4932163e-05,0.0
136232658,0.025099503,0.026501358,0.005664747,-4.8348033e-05,0.0006939863,-5.7492256e-05,0.0
136236637,0.028224733,-0.0021651417,7.777009e-06,-5.4825476e-05,0.000705268,-5.7878136e-05,0.0
136240606,0.0058787265,-0.016927421,-9.107741e-05,-5.7146168e-05,0.0007193698,-5.8122547e-05,0.0
136244622,-0.0024619543,0.0022468613,0.00066783326,-5.7517387e-05,0.0007305137,-5.8742895e-05,0.0
136248642,0.0006209013,-0.0025249524,0.0035950728,-5.8563357e-05,0.00074202125,-6.05413e-05,0.0
136252662,0.0283342,0.03299059,0.00092355243,-6.50546e-05,0.0007466735,-6.1189196e-05,0.0
136256658,0.058808558,0.028241228,-0.0028599366,-7.767938e-05,0.0007520063,-6.055095e-05,0.0
136260606,-0.0034172009,-0.00564215,-0.0005594075,-7.88347e-05,0.0007636555,-6.0639257e-05,0.0
136264653,-0.019750308,0.003783285,0.0016236401,-7.6325436e-05,0.0007740285,-6.163703e-05,0.0
136268606,0.028346654,0.017427867,0.0029272095,-8.266521e-05,0.0007815534,-6.318945e-05,0.0
136272657,0.03844188,0.03574945,0.00055686734,-9.198026e-05,0.0007851831,-6.3739964e-05,0.0
136276617,0.030893672,0.031383052,-0.00249739,-9.9820434e-05,0.0007894724,-6.3238906e-05,0.0
136280606,-0.001139063,0.0024193565,0.0037449917,-0.00010154952,0.00079936767,-6.513355e-05,0.0
136284633,-0.03618439,-0.013516798,0.0015847324,-9.610004e-05,0.00081257295,-6.610211e-05,0.0
136288621,0.023975722,0.035287347,0.007348393,-0.00010200064,0.0008164793,-6.9542075e-05,0.0
136292667,0.024158033,0.017678263,-0.0019523448,-0.000108624605,0.0008233693,-6.922675e-05,0.0
136296688,-0.004487462,0.010551631,0.0001412821,-0.00010985959,0.0008312546,-6.972782e-05,0.0
136300606,-0.010923116,-0.012857763,0.005250996,-0.00010940726,0.0008443125,-7.2356575e-05,0.0
136304655,-0.019836448,0.0025493929,0.009116448,-0.00010706394,0.0008542472,-7.652023e-05,0.0
136311888,0.023866313,-0.005368594,0.0006917419,-0.000111400645,0.00086877076,-7.805293e-05,0.0
136316635,0.008665889,-0.020275977,0.007372641,-0.00011557078,0.0008858779,-8.2196064e-05,0.0
136320606,-0.0050543747,-0.0012491578,0.010285194,-0.000116677424,0.00089672126,-8.691451e-05,0.0
136324633,-0.00056556275,0.03046024,0.0012120942,-0.00011783999,0.0009015259,-8.805597e-05,0.0
136328606,0.0032743101,-0.0016577747,0.0027228263,-0.00012029041,0.0009119344,-8.994752e-05,0.0
136332627,0.016097698,-0.019435754,0.0056659025,-0.00012503863,0.0009263313,-9.2810726e-05,0.0
136336674,0.016199121,-0.0286032,0.00690689,-0.00013023257,0.0009428658,-9.638789e-05,0.0
136340613,0.033501383,0.039594743,0.0044763377,-0.00013857505,0.00094599987,-9.893481e-05,0.0
136344652,-0.0058942945,0.03300638,-0.004091023,-0.00013978347,0.0009500439,-9.826447e-05,0.0
136348616,-0.027064089,-0.0138622895,0.009413822,-0.00013626127,0.0009626246,-0.00010264929,0.0
136352670,0.022232683,-0.041800506,0.007307147,-0.0001425319,0.0009818606,-0.000106554304,0.0
136356643,0.0689315,0.037800938,0.0034393927,-0.00015771855,0.0009854264,-0.00010870676,0.0
136360637,0.01295842,0.06592786,-0.0034049721,-0.00016340539,0.0009831655,-0.000108513996,0.0
136364641,-0.05724864,-0.009682467,0.0050029685,-0.00015449527,0.0009945104,-0.000111188936,0.0
136368614,0.014615361,-0.0429015,0.012017821,-0.00015911048,0.0010134884,-0.000117079304,0.0
136372661,0.07307055,0.022352036,-0.0032405285,-0.00017559102,0.0010201223,-0.000116683004,0.0
136376608,0.04174817,0.065465465,0.0011317579,-0.00018700531,0.0010178892,-0.00011828637,0.0
136380646,-0.0657749,-0.02034555,-0.00037066825,-0.00017717453,0.0010314842,-0.000118972974,0.0
136384661,-0.0038751834,-0.03828136,0.014290853,-0.0001783802,0.0010494188,-0.00012581062,0.0
136388617,0.0537729,0.02527942,-0.005986057,-0.00019092197,0.001055435,-0.0001245042,0.0
136392646,0.025606222,0.0322861,0.005807312,-0.00019924037,0.0010593814,-0.00012797133,0.0
136396608,-0.058776323,-0.052739233,0.00291711,-0.000190972,0.0010795319,-0.00013011684,0.0
136400635,0.0027348406,-0.045566726,0.013410975,-0.00019357403,0.0010993545,-0.00013664401,0.0
136404636,0.04666258,0.0506513,-0.0004003502,-0.00020509149,0.0011008948,-0.00013778178,0.0
136408606,-0.023877023,0.036741156,0.0056244223,-0.00020357179,0.0011036932,-0.00014118305,0.0
136412640,-0.013878034,-0.05988686,0.010584207,-0.00020368636,0.0011256572,-0.00014672673,0.0
136416620,0.073066354,-0.040300064,0.010390824,-0.00022004683,0.0011444361,-0.00015206105,0.0
136420651,0.06652095,0.08962913,0.0017499847,-0.00023688718,0.0011385306,-0.0001542773,0.0
136424647,-0.03695953,0.04051177,-0.00091446494,-0.00023364135,0.0011402768,-0.00015513868,0.0
136428606,0.027590267,-0.062840275,0.0128781125,-0.00024196827,0.0011625505,-0.00016171817,0.0
136432660,0.09468938,0.020817015,-0.0039401585,-0.00026394735,0.001169571,-0.00016150148,0.0
136436625,0.061585806,0.11096012,-0.00034892873,-0.00028044262,0.0011588207,-0.00016292863,0.0
136440663,-0.009833732,0.015804546,-0.0076364735,-0.00028338504,0.0011647213,-0.00016118125,0.0
136444623,0.013655905,-0.046327684,0.00541242,-0.00028954557,0.0011833041,-0.00016460921,0.0
136448606,0.055962373,0.08684766,-0.006679435,-0.0003048485,0.0011772409,-0.00016355386,0.0
136452639,0.0067529986,0.10084291,-0.012937568,-0.0003108783,0.0011667241,-0.00015956956,0.0
136456611,-0.009196508,-0.048674144,0.0033293641,-0.00031377617,0.001184405,-0.00016231221,0.0
136460639,0.0045418614,0.021339554,-0.0070943916,-0.00031898014,0.0011901415,-0.00016073641,0.0
136464672,-0.029886907,0.15490855,-0.01689985,-0.0003173686,0.0011696906,-0.00015542861,0.0
136468606,-0.043609187,0.0290999,-0.008783571,-0.00031311196,0.0011716363,-0.00015327925,0.0
136472655,-0.031418823,-0.043618787,-0.0055851988,-0.00031050033,0.0011880823,-0.00015210002,0.0
136476606,-0.06035837,0.1148425,-0.009598471,-0.00030222395,0.0011755355,-0.00014968409,0.0
136480662,-0.09409774,0.10279623,-0.025792908,-0.00028714325,0.0011626853,-0.00014049397,0.0
136484635,-0.059546668,-0.08966148,-0.0049179327,-0.00027769885,0.0011865424,-0.00013943904,0.0
136488606,-0.035865605,-0.0017999015,-0.00086334714,-0.0002732587,0.0011957167,-0.00014021082,0.0
136492633,-0.09718216,0.11825854,-0.023609264,-0.0002564437,0.0011813246,-0.00013180988,0.0
136496606,-0.09385035,-0.030387016,-0.014698016,-0.00023982774,0.001193675,-0.0001270316,0.0
136500652,-0.029308092,-0.05038411,0.0033363467,-0.00023487271,0.0012112899,-0.00012914542,0.0
136504664,-0.037681542,0.0992137,-0.011777931,-0.00022883591,0.0012007076,-0.00012550327,0.0
136508609,-0.07931271,0.04819545,-0.010402999,-0.00021478557,0.0011984017,-0.00012238066,0.0
136512657,-0.02582921,-0.0389743,0.0033810611,-0.0002100846,0.0012121905,-0.00012446422,0.0
136516613,0.033878885,0.053631548,-0.0040868605,-0.00021722431,0.0012100281,-0.0001237852,0.0
136520630,0.010044036,0.11603659,-0.011240493,-0.00022061515,0.0011943873,-0.00012026786,0.0
136524646,-0.0044462066,0.015808634,-0.00011329487,-0.00022091145,0.0011967453,-0.00012097226,0.0
136528620,0.04562104,0.06185037,0.0058639664,-0.00023072031,0.0011912521,-0.00012419235,0.0
136532641,0.06083787,0.13293105,-0.007922181,-0.00024410455,0.0011713835,-0.000122047946,0.0
136536610,0.057921104,0.050634224,0.0045945025,-0.000257482,0.0011661536,-0.00012472714,0.0
136540635,0.047229797,0.04875691,0.011068134,-0.00026910022,0.0011614371,-0.00013013811,0.0
136544609,0.04144689,0.14949289,-0.0011634749,-0.00027939602,0.0011375609,-0.00013074728,0.0
136548650,0.03480293,0.06431418,0.0015437382,-0.00028893148,0.0011283769,-0.00013239973,0.0
136552647,0.040688742,0.0046102973,0.01113326,-0.00029945135,0.0011308654,-0.00013774306,0.0
136556625,0.024976103,0.11127373,-0.00026966812,-0.0003073208,0.0011134424,-0.00013884419,0.0
136560656,-0.017631201,0.060605418,0.0012889812,-0.00030679558,0.0011047309,-0.00014047549,0.0
136564610,-0.025649106,-0.022872975,0.015636565,-0.0003044191,0.0011113022,-0.00014764216,0.0
136568647,-0.021963226,0.09935391,0.00600904,-0.00030221595,0.0010958773,-0.00015131672,0.0
136572654,-0.05021604,0.089031175,0.0034728888,-0.000294992,0.0010809231,-0.00015411328,0.0
136576609,-0.075085655,-0.021319112,0.013226597,-0.00028204435,0.0010865254,-0.00016040329,0.0
136580673,-0.07447936,0.0657998,0.009645299,-0.0002683881,0.0010764503,-0.00016583846,0.0
136584627,-0.09692763,0.060238414,0.0063315146,-0.0002508136,0.0010670278,-0.00016981403,0.0
136588671,-0.10631535,-0.02647891,0.015129919,-0.00022992973,0.0010736395,-0.00017716737,0.0
136592657,-0.073342144,0.0437056,0.012273263,-0.0002153297,0.0010674756,-0.000183669,0.0
136596625,-0.08365883,0.019789506,0.014116094,-0.0001986927,0.001065672,-0.00019101253,0.0
136600673,-0.104372695,-0.052804396,0.027638251,-0.00017716028,0.0010776606,-0.00020366804,0.0
136604613,-0.074789524,0.016207414,0.021768432,-0.00016105406,0.0010770427,-0.00021417071,0.0
136608658,-0.08250442,0.0098478,0.020279225,-0.00014276829,0.0010774642,-0.0002244164,0.0
136612620,-0.08680708,-0.0148008345,0.03434677,-0.00012408454,0.0010818873,-0.00023990199,0.0
136616611,-0.037090406,0.049185667,0.025802948,-0.000113939124,0.0010745998,-0.00025246278,0.0
136620639,-0.06986337,0.05828557,0.029105406,-9.738548e-05,0.0010647906,-0.00026663495,0.0
136624606,-0.089553535,0.031479504,0.037437223,-7.7292534e-05,0.001059552,-0.0002838397,0.0
136628631,0.01817224,0.1003474,0.030172123,-7.667602e-05,0.0010410196,-0.0002986779,0.0
136632646,-0.014789052,0.15058343,0.029690666,-7.0931885e-05,0.0010121566,-0.00031342934,0.0
136636622,-0.05799913,0.12873743,0.035046164,-5.6895937e-05,0.0009855413,-0.00033020874,0.0
136640654,0.04013314,0.1978956,0.026255835,-6.0058486e-05,0.0009455258,-0.00034379936,0.0
136644619,-0.014993169,0.21236947,0.027179608,-5.427973e-05,0.0009013291,-0.00035820267,0.0
136648652,-0.0059827766,0.1968628,0.03731219,-5.0527466e-05,0.00085780106,-0.0003762956,0.0
136652635,0.07569036,0.2804241,0.02295413,-6.06892e-05,0.0007988587,-0.00038887822,0.0
136656606,-0.045485727,0.26205093,0.030508846,-4.9577404e-05,0.0007409173,-0.00040497875,0.0
136660636,-0.011369578,0.24876976,0.04861303,-4.4635406e-05,0.00068352907,-0.00042792098,0.0
136664606,0.039925165,0.3195937,0.027873369,-4.8034086e-05,0.0006119741,-0.00044323795,0.0
136668665,-0.094569705,0.25433424,0.043095253,-2.6534191e-05,0.0005501963,-0.000465053,0.0
136672646,-0.016164243,0.24531801,0.04906378,-1.9671048e-05,0.00048967736,-0.00048878655,0.0
136676610,-0.00039239955,0.30298898,0.027773034,-1.5137208e-05,0.00041808622,-0.0005045172,0.0
136680647,-0.15079862,0.19462049,0.047330454,1.759339e-05,0.00036487266,-0.0005280214,0.0
136684606,-0.090664215,0.19932443,0.043260735,4.108748e-05,0.00030983269,-0.0005502193,0.0
136688647,-0.11203778,0.23466212,0.036036495,6.9590766e-05,0.00024723492,-0.0005702244,0.0
136692642,-0.18724464,0.07888917,0.053801797,0.00011162619,0.00021371928,-0.0005968354,0.0
136696617,-0.07631828,0.11250551,0.041785743,0.00013454886,0.00017449829,-0.0006188995,0.0
136700647,-0.16931422,0.11484527,0.043208953,0.00017584415,0.00013463624,-0.0006421439,0.0
136704609,-0.23639755,-0.026363183,0.059085153,0.00023007742,0.00012060711,-0.000671612,0.0
136708639,-0.09832065,0.043711457,0.045753617,0.0002606848,9.415286e-05,-0.0006964761,0.0
136712646,-0.17106238,0.015779741,0.048166107,0.00030467534,7.3318224e-05,-0.0007222849,0.0
136716658,-0.17643528,-0.10060193,0.05669487,0.00034958305,7.422196e-05,-0.00075124064,0.0
136720636,-0.05243171,-0.04899741,0.039070487,0.0003729973,6.732058e-05,-0.0007739328,0.0
136724617,-0.13591732,-0.08958234,0.05007214,0.00041134882,6.8179885e-05,-0.0008012178,0.0
136728668,-0.12209584,-0.10860932,0.05084766,0.00044825685,7.256915e-05,-0.00082915835,0.0
136732620,-0.039198726,-0.06704993,0.033202205,0.00047023364,7.0733055e-05,-0.0008498668,0.0
136736646,-0.09173446,-0.16719711,0.05815624,0.00050112425,8.7963475e-05,-0.0008808283,0.0
136740609,-0.009984953,-0.11550847,0.055293564,0.00051664206,9.604968e-05,-0.0009109398,0.0
136744616,0.016119786,-0.06294909,0.040839914,0.00052784267,9.537286e-05,-0.00093571906,0.0
136748647,-0.096018896,-0.16668198,0.06263554,0.00055993366,0.00011414508,-0.0009694336,0.0
136752630,-0.030582057,-0.09136376,0.05344593,0.0005802847,0.00011951336,-0.0009994372,0.0
136756701,-0.0002191558,-0.062290035,0.049481217,0.0005955857,0.000120093515,-0.0010289495,0.0
136760619,-0.0640413,-0.14478691,0.061746158,0.0006213671,0.0001355399,-0.0010619421,0.0
136764618,0.014688894,-0.011720971,0.047757067,0.00063343195,0.00012708297,-0.0010908069,0.0
136768655,-0.032241788,-0.031164397,0.04886161,0.0006545337,0.00012212667,-0.0011204866,0.0
136772624,-0.06465611,-0.06311597,0.05940215,0.00068136165,0.00012224323,-0.0011538352,0.0
136776648,0.023678996,0.046193324,0.03818667,0.0006927284,0.00010303203,-0.0011796929,0.0
136780616,-0.03024347,-0.035663545,0.05171717,0.0007129583,9.852881e-05,-0.0012105068,0.0
136784613,-0.038333103,0.023598922,0.057473224,0.00073521386,8.230876e-05,-0.0012441038,0.0
136788639,0.013120588,0.08514856,0.038829047,0.00074864243,5.4889995e-05,-0.0012709902,0.0
136792611,0.004278649,-0.0023816081,0.060541645,0.000762565,4.2747302e-05,-0.0013059998,0.0
136796639,0.0310619,0.13361359,0.05174735,0.000771369,4.455253e-06,-0.0013383377,0.0
136800649,-0.0031740894,0.12747552,0.03424051,0.0007867282,-3.2618318e-05,-0.0013637271,0.0
136804625,-0.012024312,0.030583415,0.06161986,0.0008038651,-5.3462205e-05,-0.0014001701,0.0
136808661,0.029139828,0.15374728,0.041828148,0.0008135419,-9.629901e-05,-0.0014289044,0.0
136812608,-0.018142415,0.070631996,0.036365982,0.000831764,-0.00012436429,-0.0014559396,0.0
136816681,0.001100537,0.052496523,0.064838685,0.0008464442,-0.00015078342,-0.001494813,0.0
136820656,-0.00032334152,0.1732527,0.04002519,0.00086148677,-0.00019802766,-0.0015232001,0.0
136824606,-0.06872091,0.06230948,0.04678189,0.00088983827,-0.0002266455,-0.001554779,0.0
136828636,-0.013540431,0.086872004,0.059103213,0.0009082551,-0.00026029817,-0.0015914772,0.0
136832614,-0.017140947,0.11848102,0.045919385,0.0009271716,-0.00029946433,-0.0016235559,0.0
