timestamp,timestamp_last_signal,channel_count,rssi,rc_lost_frame_count,rc_total_frame_count,rc_ppm_frame_length,values[0],values[1],values[2],values[3],values[4],values[5],values[6],values[7],values[8],values[9],values[10],values[11],values[12],values[13],values[14],values[15],values[16],values[17],rc_failsafe,rc_lost,input_source
133174583,133174583,12,45,0,0,30003,1098,1508,1506,1423,1505,1106,1905,1105,1505,1105,1505,1257,0,0,0,0,0,0,0,0,2
133370660,133370660,12,45,0,0,30003,1098,1508,1506,1431,1505,1105,1906,1105,1505,1105,1505,1257,0,0,0,0,0,0,0,0,2
133986543,133986543,12,45,0,0,30003,1098,1508,1506,1420,1506,1105,1905,1105,1505,1105,1505,1258,0,0,0,0,0,0,0,0,2
134186596,134186596,12,45,0,0,30003,1098,1508,1506,1416,1505,1106,1905,1105,1505,1105,1505,1257,0,0,0,0,0,0,0,0,2
134386570,134386570,12,45,0,0,30003,1098,1508,1505,1417,1505,1105,1906,1105,1505,1105,1505,1257,0,0,0,0,0,0,0,0,2
134606553,134606553,12,45,0,0,30003,1098,1507,1506,1466,1505,1105,1906,1105,1505,1105,1505,1257,0,0,0,0,0,0,0,0,2
134810576,134810576,12,45,0,0,30003,1497,1509,1514,1504,1505,1257,1905,1106,1505,1105,1505,1257,0,0,0,0,0,0,0,0,2
134994580,134994580,12,45,0,0,30003,1498,1509,1553,1504,1505,1257,1905,1105,1505,1105,1506,1257,0,0,0,0,0,0,0,0,2
135195602,135195602,12,45,0,0,30003,1498,1508,1507,1505,1506,1257,1905,1105,1505,1105,1506,1257,0,0,0,0,0,0,0,0,2
135397774,135397774,12,45,0,0,30003,1499,1508,1506,1505,1505,1257,1906,1105,1505,1105,1505,1257,0,0,0,0,0,0,0,0,2
135600967,135600967,12,45,0,0,30004,1631,1509,1506,1505,1505,1257,1905,1106,1505,1105,1505,1257,0,0,0,0,0,0,0,0,2
135817974,135817974,12,45,0,0,30004,1670,1508,1507,1505,1505,1257,1905,1105,1506,1105,1505,1257,0,0,0,0,0,0,0,0,2
136001965,136001965,12,45,0,0,30003,1669,1508,1506,1504,1506,1257,1905,1105,1505,1105,1506,1257,0,0,0,0,0,0,0,0,2
136221771,136221771,12,45,0,0,30003,1729,1508,1506,1504,1505,1257,1905,1105,1505,1105,1506,1257,0,0,0,0,0,0,0,0,2
136417741,136417741,12,45,0,0,30003,1773,1508,1506,1503,1505,1258,1905,1105,1505,1105,1505,1257,0,0,0,0,0,0,0,0,2
136617733,136617733,12,45,0,0,30003,1747,1508,1506,1504,1505,1257,1906,1105,1505,1105,1505,1257,0,0,0,0,0,0,0,0,2
136813875,136813875,12,45,0,0,30004,1748,1508,1508,1504,1505,1257,1905,1105,1505,1106,1505,1257,0,0,0,0,0,0,0,0,2
137021798,137021798,12,45,0,0,30003,1727,1508,1506,1505,1505,1257,1905,1105,1505,1105,1506,1257,0,0,0,0,0,0,0,0,2
137217962,137217962,12,45,0,0,30003,1708,1508,1506,1504,1506,1257,1905,1105,1505,1105,1506,1257,0,0,0,0,0,0,0,0,2
137433742,137433742,12,45,0,0,30003,1580,1508,1506,1505,1505,1258,1905,1105,1505,1105,1505,1258,0,0,0,0,0,0,0,0,2
137641766,137641766,12,45,0,0,30003,1561,1508,1506,1504,1505,1258,1905,1105,1505,1105,1505,1257,0,0,0,0,0,0,0,0,2
137841775,137841775,12,45,0,0,30004,1512,1508,1507,1488,1505,1257,1906,1105,1505,1105,1505,1257,0,0,0,0,0,0,0,0,2
138042125,138042125,12,45,0,0,30003,1498,1508,1507,1505,1505,1257,1905,1105,1505,1106,1505,1257,0,0,0,0,0,0,0,0,2
138241747,138241747,12,45,0,0,30003,1499,1508,1507,1489,1505,1257,1905,1105,1505,1105,1506,1257,0,0,0,0,0,0,0,0,2
139465785,139465785,12,45,0,0,30003,1898,1508,1507,1502,1505,1257,1905,1105,1505,1106,1505,1257,0,0,0,0,0,0,0,0,2
139665757,139665757,12,45,0,0,30003,1898,1508,1506,1544,1505,1257,1905,1105,1505,1106,1505,1257,0,0,0,0,0,0,0,0,2
139856934,139856934,12,45,0,0,30004,1898,1508,1506,1552,1505,1258,1905,1105,1505,1105,1505,1257,0,0,0,0,0,0,0,0,2
140054007,140054007,12,45,0,0,30003,1898,1509,1506,1503,1505,1257,1905,1105,1506,1105,1505,1257,0,0,0,0,0,0,0,0,2
140273316,140273316,12,45,0,0,30004,1898,1509,1506,1502,1505,1257,1905,1106,1505,1105,1505,1257,0,0,0,0,0,0,0,0,2
140468951,140468951,12,45,0,0,30003,1898,1508,1507,1501,1506,1257,1905,1105,1505,1105,1505,1258,0,0,0,0,0,0,0,0,2
140661155,140661155,12,45,0,0,30003,1898,1508,1507,1502,1505,1258,1905,1105,1505,1105,1505,1257,0,0,0,0,0,0,0,0,2
140869002,140869002,12,45,0,0,30003,1898,1508,1507,1494,1505,1257,1905,1106,1505,1105,1505,1257,0,0,0,0,0,0,0,0,2
141068939,141068939,12,45,0,0,30003,1898,1508,1507,1489,1505,1257,1905,1105,1505,1105,1506,1257,0,0,0,0,0,0,0,0,2
141269146,141269146,12,45,0,0,30003,1877,1508,1507,1503,1505,1258,1905,1105,1505,1105,1505,1258,0,0,0,0,0,0,0,0,2
141480991,141480991,12,45,0,0,30003,1497,1508,1506,1504,1505,1257,1906,1105,1505,1105,1505,1257,0,0,0,0,0,0,0,0,2
141684942,141684942,12,45,0,0,30004,1496,1509,1506,1504,1505,1257,1905,1105,1506,1105,1505,1257,0,0,0,0,0,0,0,0,2
141880977,141880977,12,45,0,0,30003,1497,1508,1506,1504,1506,1257,1905,1105,1505,1105,1505,1258,0,0,0,0,0,0,0,0,2
142097069,142097069,12,45,0,0,30003,1491,1508,1506,1504,1506,1257,1905,1105,1505,1105,1506,1257,0,0,0,0,0,0,0,0,2
142296970,142296970,12,45,0,0,30003,1348,1508,1506,1505,1505,1257,1905,1106,1505,1105,1505,1257,0,0,0,0,0,0,0,0,2
142497186,142497186,12,45,0,0,30004,1098,1508,1507,1607,1505,1105,1905,1105,1506,1105,1505,1257,0,0,0,0,0,0,0,0,2
142688963,142688963,12,45,0,0,30003,1098,1508,1506,1609,1505,1106,1905,1105,1505,1105,1505,1258,0,0,0,0,0,0,0,0,2
142904977,142904977,12,45,0,0,30003,1098,1508,1506,1635,1506,1105,1905,1105,1505,1105,1505,1258,0,0,0,0,0,0,0,0,2
143101165,143101165,12,45,0,0,30004,1097,1509,1506,1637,1505,1105,1905,1106,1505,1105,1505,1257,0,0,0,0,0,0,0,0,2
143300964,143300964,12,45,0,0,30003,1098,1508,1507,1695,1505,1105,1905,1105,1506,1105,1505,1257,0,0,0,0,0,0,0,0,2
143493172,143493172,12,45,0,0,30003,1098,1508,1506,1675,1505,1106,1905,1105,1505,1105,1505,1257,0,0,0,0,0,0,0,0,2
143693365,143693365,12,45,0,0,30003,1139,1508,1506,1514,1505,1164,1906,1105,1505,1105,1505,1257,0,0,0,0,0,0,0,0,2
143909361,143909361,12,45,0,0,30003,1497,1509,1506,1504,1505,1257,1905,1106,1505,1105,1505,1257,0,0,0,0,0,0,0,0,2
144105203,144105203,12,45,0,0,30003,1498,1508,1506,1504,1506,1257,1905,1105,1505,1105,1506,1257,0,0,0,0,0,0,0,0,2
144305318,144305318,12,45,0,0,30003,1468,1508,1506,1504,1505,1258,1905,1105,1505,1105,1505,1257,0,0,0,0,0,0,0,0,2
144497001,144497001,12,45,0,0,30004,1498,1508,1506,1504,1505,1257,1906,1105,1505,1105,1505,1257,0,0,0,0,0,0,0,0,2
144716175,144716175,12,45,0,0,30004,1498,1509,1506,1504,1505,1257,1905,1106,1505,1105,1505,1257,0,0,0,0,0,0,0,0,2
144920171,144920171,12,45,0,0,30004,1098,1508,1506,1497,1505,1105,1905,1105,1505,1106,1505,1257,0,0,0,0,0,0,0,0,2
145124296,145124296,12,45,0,0,30003,1098,1508,1506,1482,1505,1105,1906,1105,1505,1105,1505,1257,0,0,0,0,0,0,0,0,2
145308545,145308545,12,45,0,0,30003,1098,1508,1506,1476,1505,1105,1906,1105,1505,1105,1505,1257,0,0,0,0,0,0,0,0,2
145528285,145528285,12,45,0,0,30004,1098,1509,1506,1476,1505,1105,1905,1105,1506,1105,1505,1257,0,0,0,0,0,0,0,0,2
145716138,145716138,12,45,0,0,30003,1098,1508,1506,1476,1506,1105,1905,1105,1505,1105,1505,1258,0,0,0,0,0,0,0,0,2
145936176,145936176,12,45,0,0,30003,1098,1508,1506,1476,1506,1105,1905,1105,1505,1105,1506,1257,0,0,0,0,0,0,0,0,2
146120140,146120140,12,45,0,0,30004,1098,1508,1507,1476,1505,1105,1906,1105,1505,1105,1505,1257,0,0,0,0,0,0,0,0,2
146340395,146340395,12,45,0,0,30004,1098,1509,1506,1476,1505,1105,1905,1105,1506,1105,1505,1257,0,0,0,0,0,0,0,0,2
146524141,146524141,12,45,0,0,30003,1098,1508,1506,1476,1506,1105,1905,1105,1505,1105,1505,1258,0,0,0,0,0,0,0,0,2
146728183,146728183,12,45,0,0,30003,1122,1508,1506,1472,1505,1186,1905,1105,1505,1105,1505,1257,0,0,0,0,0,0,0,0,2
146940199,146940199,12,45,0,0,30003,1497,1508,1506,1504,1505,1257,1906,1105,1505,1105,1505,1257,0,0,0,0,0,0,0,0,2
147132342,147132342,12,45,0,0,30004,1893,1508,1508,1530,1505,1257,1905,1105,1505,1106,1505,1257,0,0,0,0,0,0,0,0,2
147332198,147332198,12,45,0,0,30003,1898,1508,1506,1527,1505,1257,1905,1105,1505,1105,1506,1257,0,0,0,0,0,0,0,0,2
147544262,147544262,12,45,0,0,30003,1898,1508,1506,1506,1506,1257,1905,1105,1505,1105,1505,1258,0,0,0,0,0,0,0,0,2
147736140,147736140,12,45,0,0,30004,1898,1508,1506,1520,1505,1257,1906,1105,1505,1105,1505,1257,0,0,0,0,0,0,0,0,2
147944379,147944379,12,45,0,0,30003,1898,1508,1508,1519,1505,1257,1905,1105,1506,1105,1505,1257,0,0,0,0,0,0,0,0,2
148152520,148152520,12,45,0,0,30003,1898,1508,1506,1516,1505,1257,1905,1105,1505,1105,1506,1257,0,0,0,0,0,0,0,0,2
148356148,148356148,12,45,0,0,30003,1898,1508,1506,1515,1506,1257,1905,1105,1505,1105,1505,1258,0,0,0,0,0,0,0,0,2
148568196,148568196,12,45,0,0,30003,1898,1508,1507,1515,1505,1258,1905,1105,1505,1105,1505,1257,0,0,0,0,0,0,0,0,2
148760169,148760169,12,45,0,0,30004,1898,1508,1507,1515,1505,1257,1906,1105,1505,1105,1505,1257,0,0,0,0,0,0,0,0,2
148975342,148975342,12,45,0,0,30004,1898,1509,1506,1515,1505,1257,1905,1106,1505,1105,1505,1257,0,0,0,0,0,0,0,0,2
149168178,149168178,12,45,0,0,30003,1898,1508,1506,1515,1506,1257,1905,1105,1505,1105,1506,1257,0,0,0,0,0,0,0,0,2
149358575,149358575,12,45,0,0,30003,1898,1508,1507,1515,1505,1258,1905,1105,1505,1105,1505,1258,0,0,0,0,0,0,0,0,2
149567342,149567342,12,45,0,0,30003,1898,1508,1506,1515,1505,1257,1906,1105,1505,1105,1505,1257,0,0,0,0,0,0,0,0,2
149771752,149771752,12,45,0,0,30004,1898,1508,1507,1515,1505,1257,1905,1105,1506,1105,1505,1257,0,0,0,0,0,0,0,0,2
149979595,149979595,12,45,0,0,30003,1898,1508,1507,1516,1505,1257,1905,1105,1505,1105,1506,1257,0,0,0,0,0,0,0,0,2
150179371,150179371,12,45,0,0,30003,1898,1508,1507,1515,1506,1257,1905,1105,1505,1105,1505,1258,0,0,0,0,0,0,0,0,2
150379469,150379469,12,45,0,0,30003,1898,1508,1506,1515,1505,1258,1905,1105,1505,1105,1505,1257,0,0,0,0,0,0,0,0,2
150583361,150583361,12,45,0,0,30004,1898,1508,1508,1510,1505,1257,1905,1105,1506,1105,1505,1257,0,0,0,0,0,0,0,0,2
150779744,150779744,12,45,0,0,30003,1898,1508,1506,1509,1505,1257,1905,1105,1505,1106,1505,1257,0,0,0,0,0,0,0,0,2
150979407,150979407,12,45,0,0,30003,1898,1508,1507,1510,1506,1257,1905,1105,1505,1105,1506,1257,0,0,0,0,0,0,0,0,2
151183599,151183599,12,45,0,0,30003,1898,1508,1506,1506,1505,1257,1906,1105,1505,1105,1505,1257,0,0,0,0,0,0,0,0,2
151399595,151399595,12,45,0,0,30003,1898,1508,1507,1503,1505,1257,1906,1105,1505,1105,1505,1257,0,0,0,0,0,0,0,0,2
151579389,151579389,12,45,0,0,30004,1898,1508,1507,1505,1505,1257,1905,1105,1506,1105,1505,1257,0,0,0,0,0,0,0,0,2
151803541,151803541,12,45,0,0,30003,1498,1508,1507,1505,1505,1257,1905,1105,1505,1105,1506,1257,0,0,0,0,0,0,0,0,2
152003716,152003716,12,45,0,0,30003,1498,1509,1506,1504,1506,1257,1905,1105,1505,1105,1505,1258,0,0,0,0,0,0,0,0,2
152211375,152211375,12,45,0,0,30003,1497,1508,1506,1504,1505,1258,1905,1105,1505,1105,1505,1257,0,0,0,0,0,0,0,0,2
152411342,152411342,12,45,0,0,30004,1497,1509,1507,1504,1505,1257,1905,1105,1506,1105,1505,1257,0,0,0,0,0,0,0,0,2
152607375,152607375,12,45,0,0,30003,1527,1508,1507,1503,1505,1257,1905,1105,1505,1106,1505,1257,0,0,0,0,0,0,0,0,2
152799619,152799619,12,45,0,0,30003,1577,1508,1506,1503,1505,1258,1905,1105,1505,1105,1505,1258,0,0,0,0,0,0,0,0,2
153007546,153007546,12,45,0,0,30004,1498,1508,1506,1504,1505,1257,1906,1105,1505,1105,1505,1257,0,0,0,0,0,0,0,0,2
153207337,153207337,12,45,0,0,30004,1497,1508,1506,1503,1505,1257,1906,1105,1505,1105,1505,1257,0,0,0,0,0,0,0,0,2
153426593,153426593,12,45,0,0,30004,1498,1509,1506,1504,1505,1257,1905,1105,1506,1105,1505,1257,0,0,0,0,0,0,0,0,2
153606769,153606769,12,45,0,0,30003,1498,1508,1507,1503,1506,1257,1905,1105,1505,1105,1506,1257,0,0,0,0,0,0,0,0,2
153822799,153822799,12,45,0,0,30003,1498,1508,1507,1504,1505,1258,1905,1105,1505,1105,1505,1258,0,0,0,0,0,0,0,0,2
154022799,154022799,12,45,0,0,30003,1498,1508,1506,1504,1505,1257,1906,1105,1505,1105,1505,1257,0,0,0,0,0,0,0,0,2
154226809,154226809,12,45,0,0,30003,1498,1508,1506,1503,1505,1257,1906,1105,1505,1105,1505,1257,0,0,0,0,0,0,0,0,2
154422543,154422543,12,45,0,0,30003,1498,1508,1507,1504,1505,1257,1905,1105,1505,1106,1505,1257,0,0,0,0,0,0,0,0,2
154622816,154622816,12,45,0,0,30003,1498,1508,1507,1503,1506,1257,1905,1105,1505,1105,1506,1257,0,0,0,0,0,0,0,0,2
154834574,154834574,12,45,0,0,30003,1497,1509,1592,1504,1506,1257,1905,1105,1505,1105,1505,1258,0,0,0,0,0,0,0,0,2
155034602,155034602,12,45,0,0,30003,1498,1508,1745,1503,1505,1257,1906,1105,1505,1105,1505,1257,0,0,0,0,0,0,0,0,2
155222591,155222591,12,45,0,0,30004,1498,1508,1692,1503,1505,1257,1905,1105,1505,1106,1505,1257,0,0,0,0,0,0,0,0,2
155446579,155446579,12,45,0,0,30003,1500,1105,1506,1503,1506,1257,1905,1105,1505,1105,1505,1258,0,0,0,0,0,0,0,0,2
155646595,155646595,12,45,0,0,30003,1500,1105,1496,1504,1505,1257,1906,1105,1505,1105,1505,1257,0,0,0,0,0,0,0,0,2
155846763,155846763,12,45,0,0,30003,1499,1113,1505,1504,1505,1257,1905,1106,1505,1105,1505,1257,0,0,0,0,0,0,0,0,2
156058785,156058785,12,45,0,0,30004,1500,1394,1507,1504,1505,1257,1905,1105,1505,1106,1505,1257,0,0,0,0,0,0,0,0,2
156258805,156258805,12,45,0,0,30003,1499,1511,1504,1505,1506,1257,1905,1105,1505,1105,1506,1257,0,0,0,0,0,0,0,0,2
156442578,156442578,12,45,0,0,30003,1498,1439,1177,1504,1505,1257,1905,1106,1505,1105,1505,1257,0,0,0,0,0,0,0,0,2
156650558,156650558,12,45,0,0,30004,1499,1435,1139,1504,1505,1257,1905,1105,1505,1106,1505,1257,0,0,0,0,0,0,0,0,2
156850811,156850811,12,45,0,0,30003,1499,1477,1194,1504,1505,1258,1905,1105,1505,1105,1505,1257,0,0,0,0,0,0,0,0,2
157054551,157054551,12,45,0,0,30003,1499,1481,1505,1504,1505,1257,1906,1105,1505,1105,1505,1257,0,0,0,0,0,0,0,0,2
157262765,157262765,12,45,0,0,30004,1499,1105,1537,1504,1505,1257,1905,1105,1506,1105,1505,1257,0,0,0,0,0,0,0,0,2
157458763,157458763,12,45,0,0,30003,1499,1105,1507,1505,1505,1257,1905,1105,1505,1105,1506,1257,0,0,0,0,0,0,0,0,2
157661014,157661014,12,45,0,0,30003,1498,1105,1507,1504,1505,1257,1906,1105,1505,1105,1505,1257,0,0,0,0,0,0,0,0,2
157877738,157877738,12,45,0,0,30004,1498,1508,1506,1504,1505,1257,1906,1105,1505,1105,1505,1257,0,0,0,0,0,0,0,0,2
158080516,158080516,12,45,0,0,30003,1498,1509,1506,1505,1505,1257,1905,1105,1505,1106,1505,1257,0,0,0,0,0,0,0,0,2
158265754,158265754,12,45,0,0,30003,1498,1508,1506,1503,1505,1257,1906,1105,1505,1105,1505,1257,0,0,0,0,0,0,0,0,2
158481763,158481763,12,45,0,0,30003,1498,1511,1506,1504,1505,1258,1905,1105,1505,1105,1505,1257,0,0,0,0,0,0,0,0,2
158677969,158677969,12,45,0,0,30004,1498,1658,1507,1504,1505,1257,1905,1105,1506,1105,1505,1257,0,0,0,0,0,0,0,0,2
158897749,158897749,12,45,0,0,30004,1498,1668,1507,1504,1505,1257,1905,1105,1506,1105,1505,1257,0,0,0,0,0,0,0,0,2
159093937,159093937,12,45,0,0,30003,1498,1668,1506,1504,1505,1258,1905,1105,1505,1105,1505,1258,0,0,0,0,0,0,0,0,2
159293792,159293792,12,45,0,0,30004,1498,1658,1507,1504,1505,1257,1906,1105,1505,1105,1505,1257,0,0,0,0,0,0,0,0,2
159489835,159489835,12,45,0,0,30003,1498,1643,1506,1505,1505,1257,1905,1105,1505,1106,1505,1257,0,0,0,0,0,0,0,0,2
159713761,159713761,12,45,0,0,30004,1499,1551,1506,1505,1505,1257,1905,1105,1505,1106,1505,1257,0,0,0,0,0,0,0,0,2
159909767,159909767,12,45,0,0,30003,1499,1509,1506,1504,1505,1257,1906,1105,1505,1105,1505,1257,0,0,0,0,0,0,0,0,2
160113802,160113802,12,45,0,0,30004,1455,1510,1506,1503,1505,1257,1905,1106,1505,1105,1505,1257,0,0,0,0,0,0,0,0,2
160913782,160913782,12,45,0,0,30004,1099,1510,1506,1503,1505,1106,1905,1105,1506,1105,1505,1257,0,0,0,0,0,0,0,0,2
161125748,161125748,12,45,0,0,30004,1098,1509,1506,1505,1505,1105,1905,1105,1505,1106,1505,1257,0,0,0,0,0,0,0,0,2
161337761,161337761,12,45,0,0,30003,1098,1509,1506,1504,1506,1105,1905,1105,1505,1105,1505,1258,0,0,0,0,0,0,0,0,2
161537970,161537970,12,45,0,0,30003,1098,1509,1506,1504,1505,1106,1905,1105,1505,1105,1505,1257,0,0,0,0,0,0,0,0,2
161742016,161742016,12,45,0,0,30004,1098,1503,1506,1503,1505,1105,1905,1105,1506,1105,1505,1257,0,0,0,0,0,0,0,0,2
161948961,161948961,12,45,0,0,30003,1098,1491,1505,1504,1505,1105,1905,1105,1505,1105,1506,1257,0,0,0,0,0,0,0,0,2
162152357,162152357,12,45,0,0,30003,1098,1480,1470,1503,1506,1105,1905,1105,1505,1105,1505,1258,0,0,0,0,0,0,0,0,2
162341211,162341211,12,45,0,0,30003,1097,1481,1461,1503,1505,1105,1905,1106,1505,1105,1505,1257,0,0,0,0,0,0,0,0,2
162557780,162557780,12,45,0,0,30003,1097,1420,1495,1503,1505,1105,1905,1106,1505,1105,1505,1257,0,0,0,0,0,0,0,0,2
162753318,162753318,12,45,0,0,30003,1098,1431,1496,1504,1506,1105,1905,1105,1505,1105,1506,1257,0,0,0,0,0,0,0,0,2
162944935,162944935,12,45,0,0,30004,1098,1401,1505,1504,1505,1105,1906,1105,1505,1105,1505,1257,0,0,0,0,0,0,0,0,2
163160943,163160943,12,45,0,0,30003,1098,1406,1505,1503,1505,1105,1906,1105,1505,1105,1505,1257,0,0,0,0,0,0,0,0,2
163357165,163357165,12,45,0,0,30004,1098,1412,1504,1505,1505,1105,1905,1105,1505,1106,1505,1257,0,0,0,0,0,0,0,0,2
163553191,163553191,12,45,0,0,30003,1098,1443,1472,1503,1506,1105,1905,1105,1505,1105,1506,1257,0,0,0,0,0,0,0,0,2
163752974,163752974,12,45,0,0,30003,1098,1463,1461,1504,1505,1105,1906,1105,1505,1105,1505,1257,0,0,0,0,0,0,0,0,2
163968941,163968941,12,45,0,0,30004,1098,1478,1463,1503,1505,1105,1906,1105,1505,1105,1505,1257,0,0,0,0,0,0,0,0,2
164172993,164172993,12,45,0,0,30003,1098,1473,1491,1505,1505,1105,1905,1105,1505,1106,1505,1257,0,0,0,0,0,0,0,0,2
164369003,164369003,12,45,0,0,30003,1098,1476,1486,1504,1506,1105,1905,1105,1505,1105,1506,1257,0,0,0,0,0,0,0,0,2
164568955,164568955,12,45,0,0,30003,1098,1472,1479,1504,1505,1106,1905,1105,1505,1105,1505,1257,0,0,0,0,0,0,0,0,2
164780953,164780953,12,45,0,0,30004,1098,1470,1475,1504,1505,1105,1906,1105,1505,1105,1505,1257,0,0,0,0,0,0,0,0,2
164981016,164981016,12,45,0,0,30003,1098,1471,1474,1505,1505,1105,1905,1105,1505,1106,1505,1257,0,0,0,0,0,0,0,0,2
165189182,165189182,12,45,0,0,30003,1099,1473,1475,1504,1506,1106,1905,1105,1505,1105,1506,1257,0,0,0,0,0,0,0,0,2
165385013,165385013,12,45,0,0,30003,1099,1471,1475,1504,1505,1107,1905,1105,1505,1105,1505,1257,0,0,0,0,0,0,0,0,2
165580934,165580934,12,45,0,0,30003,1100,1472,1473,1504,1505,1108,1905,1105,1506,1105,1505,1257,0,0,0,0,0,0,0,0,2
165784960,165784960,12,45,0,0,30004,1102,1472,1470,1504,1505,1109,1905,1105,1505,1106,1505,1257,0,0,0,0,0,0,0,0,2
165993339,165993339,12,45,0,0,30003,1102,1475,1472,1505,1505,1109,1905,1105,1505,1105,1506,1257,0,0,0,0,0,0,0,0,2
166189195,166189195,12,45,0,0,30003,1102,1477,1473,1503,1505,1110,1905,1105,1505,1105,1505,1258,0,0,0,0,0,0,0,0,2
166400198,166400198,12,45,0,0,30003,1102,1478,1468,1504,1505,1109,1906,1105,1505,1105,1505,1257,0,0,0,0,0,0,0,0,2
166596220,166596220,12,45,0,0,30003,1102,1477,1464,1504,1505,1109,1905,1105,1506,1105,1505,1257,0,0,0,0,0,0,0,0,2
166788200,166788200,12,45,0,0,30003,1102,1475,1464,1505,1505,1109,1905,1105,1505,1105,1506,1257,0,0,0,0,0,0,0,0,2
166992218,166992218,12,45,0,0,30003,1102,1476,1462,1504,1505,1110,1906,1105,1505,1105,1505,1257,0,0,0,0,0,0,0,0,2
167196201,167196201,12,45,0,0,30003,1101,1477,1464,1504,1505,1108,1905,1106,1505,1105,1505,1257,0,0,0,0,0,0,0,0,2
167416199,167416199,12,45,0,0,30004,1102,1484,1446,1504,1505,1109,1905,1105,1506,1105,1505,1257,0,0,0,0,0,0,0,0,2
167616183,167616183,12,45,0,0,30003,1102,1484,1445,1505,1505,1109,1905,1105,1505,1106,1505,1257,0,0,0,0,0,0,0,0,2
167808360,167808360,12,45,0,0,30003,1102,1483,1452,1504,1506,1109,1905,1105,1505,1105,1506,1257,0,0,0,0,0,0,0,0,2
168008532,168008532,12,45,0,0,30003,1102,1481,1466,1504,1505,1110,1906,1105,1505,1105,1505,1257,0,0,0,0,0,0,0,0,2
168204356,168204356,12,45,0,0,30003,1101,1479,1468,1504,1505,1108,1905,1106,1505,1105,1505,1257,0,0,0,0,0,0,0,0,2
168432213,168432213,12,45,0,0,30004,1102,1481,1477,1504,1505,1109,1905,1105,1506,1105,1505,1257,0,0,0,0,0,0,0,0,2
168628262,168628262,12,45,0,0,30003,1102,1488,1485,1505,1505,1109,1905,1105,1505,1105,1506,1257,0,0,0,0,0,0,0,0,2
168824198,168824198,12,45,0,0,30003,1102,1471,1488,1504,1505,1109,1906,1105,1505,1105,1505,1257,0,0,0,0,0,0,0,0,2
169032230,169032230,12,45,0,0,30003,1102,1461,1506,1504,1505,1109,1905,1106,1505,1105,1505,1257,0,0,0,0,0,0,0,0,2
169224136,169224136,12,45,0,0,30004,1102,1467,1508,1504,1505,1109,1905,1105,1506,1105,1505,1257,0,0,0,0,0,0,0,0,2
169428426,169428426,12,45,0,0,30003,1102,1428,1506,1505,1505,1109,1905,1105,1505,1105,1506,1257,0,0,0,0,0,0,0,0,2
169632191,169632191,12,45,0,0,30004,1102,1424,1506,1504,1505,1109,1906,1105,1505,1105,1505,1257,0,0,0,0,0,0,0,0,2
169828203,169828203,12,45,0,0,30004,1102,1436,1506,1504,1505,1109,1905,1105,1506,1105,1505,1257,0,0,0,0,0,0,0,0,2
170044957,170044957,12,45,0,0,30003,1102,1436,1505,1505,1505,1109,1905,1105,1505,1105,1506,1257,0,0,0,0,0,0,0,0,2
170251462,170251462,12,45,0,0,30003,1102,1439,1505,1504,1505,1110,1905,1105,1505,1105,1505,1257,0,0,0,0,0,0,0,0,2
170436150,170436150,12,45,0,0,30004,1102,1457,1506,1504,1505,1109,1905,1105,1506,1105,1505,1257,0,0,0,0,0,0,0,0,2
170655375,170655375,12,45,0,0,30003,1102,1508,1504,1505,1505,1109,1905,1105,1505,1105,1506,1257,0,0,0,0,0,0,0,0,2
170855378,170855378,12,45,0,0,30003,1102,1509,1505,1504,1505,1110,1905,1105,1505,1105,1505,1258,0,0,0,0,0,0,0,0,2
171063766,171063766,12,45,0,0,30004,1102,1509,1505,1504,1505,1109,1906,1105,1505,1105,1505,1257,0,0,0,0,0,0,0,0,2
171263360,171263360,12,45,0,0,30003,1102,1510,1505,1504,1505,1109,1905,1105,1506,1105,1505,1257,0,0,0,0,0,0,0,0,2
171451354,171451354,12,45,0,0,30003,1102,1509,1505,1504,1506,1109,1905,1105,1505,1105,1505,1258,0,0,0,0,0,0,0,0,2
171671367,171671367,12,45,0,0,30003,1102,1509,1505,1504,1505,1109,1906,1105,1505,1105,1505,1257,0,0,0,0,0,0,0,0,2
171863540,171863540,12,45,0,0,30004,1101,1510,1505,1504,1505,1109,1905,1106,1505,1105,1505,1257,0,0,0,0,0,0,0,0,2
172079709,172079709,12,45,0,0,30004,1102,1509,1504,1505,1505,1109,1905,1105,1505,1106,1505,1257,0,0,0,0,0,0,0,0,2
172267646,172267646,12,45,0,0,30003,1102,1509,1489,1504,1505,1109,1906,1105,1505,1105,1505,1257,0,0,0,0,0,0,0,0,2
172675337,172675337,12,45,0,0,30004,1102,1509,1472,1504,1505,1109,1905,1105,1505,1106,1505,1257,0,0,0,0,0,0,0,0,2
172871335,172871335,12,45,0,0,30003,1102,1509,1470,1504,1505,1111,1905,1105,1505,1105,1505,1257,0,0,0,0,0,0,0,0,2
173087338,173087338,12,45,0,0,30003,1102,1509,1478,1504,1505,1110,1905,1105,1505,1105,1505,1257,0,0,0,0,0,0,0,0,2
173291486,173291486,12,45,0,0,30004,1102,1509,1470,1504,1505,1109,1905,1105,1506,1105,1505,1257,0,0,0,0,0,0,0,0,2
173495343,173495343,12,45,0,0,30003,1102,1509,1470,1505,1505,1109,1905,1105,1505,1105,1506,1257,0,0,0,0,0,0,0,0,2
173691738,173691738,12,45,0,0,30003,1102,1502,1497,1504,1506,1109,1905,1105,1505,1105,1505,1258,0,0,0,0,0,0,0,0,2
173887358,173887358,12,45,0,0,30003,1101,1488,1505,1505,1505,1109,1905,1105,1506,1105,1505,1257,0,0,0,0,0,0,0,0,2
174102666,174102666,12,45,0,0,30004,1102,1479,1505,1505,1505,1109,1905,1105,1505,1106,1505,1257,0,0,0,0,0,0,0,0,2
174287382,174287382,12,45,0,0,30003,1102,1483,1505,1504,1505,1109,1906,1105,1505,1105,1505,1257,0,0,0,0,0,0,0,0,2
174490755,174490755,12,45,0,0,30003,1101,1485,1505,1504,1505,1108,1905,1106,1505,1105,1505,1257,0,0,0,0,0,0,0,0,2
174710791,174710791,12,45,0,0,30003,1102,1468,1505,1504,1505,1108,1906,1105,1505,1105,1505,1257,0,0,0,0,0,0,0,0,2
174890752,174890752,12,45,0,0,30003,1102,1467,1505,1505,1505,1109,1905,1105,1505,1105,1506,1257,0,0,0,0,0,0,0,0,2
175114616,175114616,12,45,0,0,30003,1102,1470,1505,1504,1506,1109,1905,1105,1505,1105,1505,1258,0,0,0,0,0,0,0,0,2
175318735,175318735,12,45,0,0,30003,1102,1477,1505,1504,1505,1109,1906,1105,1505,1105,1505,1257,0,0,0,0,0,0,0,0,2
175518769,175518769,12,45,0,0,30004,1102,1475,1506,1504,1505,1109,1905,1105,1505,1105,1505,1257,0,0,0,0,0,0,0,0,2
175714601,175714601,12,45,0,0,30003,1102,1476,1505,1504,1506,1109,1905,1105,1505,1105,1506,1257,0,0,0,0,0,0,0,0,2
175906556,175906556,12,45,0,0,30004,1102,1475,1505,1504,1505,1109,1905,1106,1505,1105,1505,1257,0,0,0,0,0,0,0,0,2
176126558,176126558,12,45,0,0,30003,1102,1478,1505,1504,1505,1108,1906,1105,1505,1105,1505,1257,0,0,0,0,0,0,0,0,2
176310554,176310554,12,45,0,0,30003,1102,1480,1505,1505,1505,1109,1905,1105,1505,1105,1506,1257,0,0,0,0,0,0,0,0,2
176510722,176510722,12,45,0,0,30003,1098,1503,1505,1504,1506,1105,1905,1105,1505,1105,1505,1258,0,0,0,0,0,0,0,0,2
176730553,176730553,12,45,0,0,30003,1098,1508,1505,1504,1505,1105,1906,1105,1505,1105,1505,1257,0,0,0,0,0,0,0,0,2
176930921,176930921,12,45,0,0,30003,1098,1508,1505,1505,1505,1105,1905,1106,1505,1105,1505,1257,0,0,0,0,0,0,0,0,2
177130537,177130537,12,45,0,0,30003,1098,1508,1505,1506,1505,1105,1905,1105,1505,1105,1506,1257,0,0,0,0,0,0,0,0,2
177334568,177334568,12,45,0,0,30003,1098,1508,1505,1505,1506,1105,1905,1105,1505,1105,1505,1258,0,0,0,0,0,0,0,0,2
177538731,177538731,12,45,0,0,30003,1098,1508,1505,1505,1505,1105,1906,1105,1505,1105,1505,1257,0,0,0,0,0,0,0,0,2
177738807,177738807,12,45,0,0,30003,1097,1509,1505,1506,1505,1105,1905,1106,1505,1105,1505,1257,0,0,0,0,0,0,0,0,2
177938923,177938923,12,45,0,0,30003,1098,1508,1505,1507,1505,1105,1905,1105,1505,1105,1506,1257,0,0,0,0,0,0,0,0,2
178138569,178138569,12,45,0,0,30003,1098,1509,1505,1507,1506,1105,1905,1105,1505,1105,1505,1258,0,0,0,0,0,0,0,0,2
178333747,178333747,12,45,0,0,30003,1097,1509,1505,1507,1505,1105,1905,1106,1505,1105,1505,1257,0,0,0,0,0,0,0,0,2
178557753,178557753,12,45,0,0,30004,1097,1509,1505,1507,1505,1105,1905,1106,1505,1105,1505,1257,0,0,0,0,0,0,0,0,2
178741862,178741862,12,45,0,0,30003,1098,1508,1505,1508,1505,1105,1905,1105,1505,1105,1506,1257,0,0,0,0,0,0,0,0,2
178945824,178945824,12,45,0,0,30003,1098,1508,1505,1507,1506,1105,1905,1105,1505,1105,1505,1258,0,0,0,0,0,0,0,0,2
179165822,179165822,12,45,0,0,30003,1155,1510,1505,1505,1505,1175,1906,1105,1505,1105,1505,1257,0,0,0,0,0,0,0,0,2
179361797,179361797,12,45,0,0,30004,1498,1508,1505,1503,1505,1257,1906,1105,1505,1105,1505,1257,0,0,0,0,0,0,0,0,2
179565864,179565864,12,45,0,0,30003,1498,1508,1505,1505,1505,1257,1905,1105,1505,1106,1505,1257,0,0,0,0,0,0,0,0,2
180774124,180774124,12,45,0,0,30003,1898,1508,1505,1566,1506,1257,1905,1105,1505,1105,1505,1258,0,0,0,0,0,0,0,0,2
180969971,180969971,12,45,0,0,30004,1898,1509,1505,1562,1505,1257,1905,1106,1505,1105,1505,1257,0,0,0,0,0,0,0,0,2
181173923,181173923,12,45,0,0,30004,1898,1508,1506,1562,1505,1257,1905,1105,1506,1105,1505,1257,0,0,0,0,0,0,0,0,2
181393770,181393770,12,45,0,0,30003,1898,1508,1505,1562,1506,1257,1905,1105,1505,1105,1506,1257,0,0,0,0,0,0,0,0,2
181593962,181593962,12,45,0,0,30004,1898,1508,1505,1562,1505,1257,1906,1105,1505,1105,1505,1257,0,0,0,0,0,0,0,0,2
181793776,181793776,12,45,0,0,30003,1898,1509,1505,1562,1505,1257,1905,1106,1505,1105,1505,1257,0,0,0,0,0,0,0,0,2
181988937,181988937,12,45,0,0,30003,1898,1508,1505,1561,1506,1257,1905,1105,1505,1105,1505,1258,0,0,0,0,0,0,0,0,2
182188940,182188940,12,45,0,0,30003,1898,1508,1506,1562,1505,1257,1906,1105,1505,1105,1505,1257,0,0,0,0,0,0,0,0,2
182398013,182398013,12,45,0,0,30004,1898,1509,1505,1561,1505,1257,1905,1105,1506,1105,1505,1257,0,0,0,0,0,0,0,0,2
182597012,182597012,12,45,0,0,30003,1898,1508,1505,1561,1505,1258,1905,1105,1505,1105,1505,1258,0,0,0,0,0,0,0,0,2
182796949,182796949,12,45,0,0,30003,1898,1508,1505,1561,1505,1257,1906,1105,1505,1105,1505,1257,0,0,0,0,0,0,0,0,2
183016942,183016942,12,45,0,0,30004,1898,1508,1506,1562,1505,1257,1905,1105,1506,1105,1505,1257,0,0,0,0,0,0,0,0,2
183213165,183213165,12,45,0,0,30003,1898,1508,1506,1563,1505,1257,1905,1105,1505,1105,1506,1257,0,0,0,0,0,0,0,0,2
183405180,183405180,12,45,0,0,30003,1898,1508,1505,1562,1505,1257,1906,1105,1505,1105,1505,1257,0,0,0,0,0,0,0,0,2
183621075,183621075,12,45,0,0,30003,1898,1509,1505,1562,1505,1257,1906,1105,1505,1105,1505,1257,0,0,0,0,0,0,0,0,2
183824942,183824942,12,45,0,0,30003,1898,1508,1505,1563,1505,1257,1905,1105,1505,1105,1506,1257,0,0,0,0,0,0,0,0,2
184028952,184028952,12,45,0,0,30003,1898,1508,1505,1562,1505,1258,1905,1105,1505,1105,1505,1257,0,0,0,0,0,0,0,0,2
184229328,184229328,12,45,0,0,30004,1898,1508,1505,1562,1505,1257,1906,1105,1505,1105,1505,1257,0,0,0,0,0,0,0,0,2
184432977,184432977,12,45,0,0,30003,1898,1508,1506,1562,1505,1257,1905,1105,1506,1105,1505,1257,0,0,0,0,0,0,0,0,2
184629093,184629093,12,45,0,0,30003,1898,1508,1505,1544,1505,1258,1905,1105,1505,1105,1505,1257,0,0,0,0,0,0,0,0,2
184841197,184841197,12,45,0,0,30004,1497,1509,1505,1504,1505,1257,1905,1106,1505,1105,1505,1257,0,0,0,0,0,0,0,0,2
185044941,185044941,12,45,0,0,30004,1497,1508,1506,1504,1505,1257,1905,1105,1505,1106,1505,1257,0,0,0,0,0,0,0,0,2
185249212,185249212,12,45,0,0,30003,1498,1508,1505,1504,1506,1257,1905,1105,1505,1105,1506,1257,0,0,0,0,0,0,0,0,2
185448941,185448941,12,45,0,0,30003,1497,1509,1505,1504,1505,1257,1905,1106,1505,1105,1505,1257,0,0,0,0,0,0,0,0,2
185649125,185649125,12,45,0,0,30004,1497,1508,1506,1504,1505,1257,1905,1105,1505,1106,1505,1257,0,0,0,0,0,0,0,0,2
185848996,185848996,12,45,0,0,30003,1498,1508,1505,1504,1506,1257,1905,1105,1505,1105,1506,1257,0,0,0,0,0,0,0,0,2
186044198,186044198,12,45,0,0,30003,1497,1509,1505,1504,1505,1257,1905,1106,1505,1105,1505,1257,0,0,0,0,0,0,0,0,2
186264364,186264364,12,45,0,0,30004,1497,1509,1505,1504,1505,1257,1905,1106,1505,1105,1505,1257,0,0,0,0,0,0,0,0,2
186460413,186460413,12,45,0,0,30003,1498,1508,1505,1504,1506,1257,1905,1105,1505,1105,1506,1257,0,0,0,0,0,0,0,0,2
186660152,186660152,12,45,0,0,30003,1498,1508,1505,1504,1505,1258,1905,1105,1505,1105,1505,1257,0,0,0,0,0,0,0,0,2
186852204,186852204,12,45,0,0,30004,1498,1508,1506,1504,1505,1257,1905,1105,1506,1105,1505,1257,0,0,0,0,0,0,0,0,2
187072414,187072414,12,45,0,0,30004,1498,1508,1506,1504,1505,1257,1905,1105,1506,1105,1505,1257,0,0,0,0,0,0,0,0,2
187268289,187268289,12,45,0,0,30003,1498,1508,1505,1505,1505,1258,1905,1105,1505,1105,1505,1257,0,0,0,0,0,0,0,0,2
187464142,187464142,12,45,0,0,30003,1498,1508,1351,1504,1505,1257,1906,1105,1505,1105,1505,1257,0,0,0,0,0,0,0,0,2
187672377,187672377,12,45,0,0,30004,1498,1509,1349,1504,1505,1257,1905,1105,1506,1105,1505,1257,0,0,0,0,0,0,0,0,2
187864169,187864169,12,45,0,0,30003,1498,1509,1350,1504,1505,1258,1905,1105,1505,1105,1505,1258,0,0,0,0,0,0,0,0,2
188084165,188084165,12,45,0,0,30003,1498,1509,1505,1504,1505,1257,1906,1105,1505,1105,1505,1257,0,0,0,0,0,0,0,0,2
188284252,188284252,12,45,0,0,30003,1498,1510,1505,1504,1505,1257,1905,1106,1505,1105,1505,1257,0,0,0,0,0,0,0,0,2
188476147,188476147,12,45,0,0,30003,1498,1465,1505,1504,1506,1257,1905,1105,1505,1105,1505,1258,0,0,0,0,0,0,0,0,2
188680365,188680365,12,45,0,0,30003,1498,1432,1504,1504,1505,1257,1906,1105,1505,1105,1505,1257,0,0,0,0,0,0,0,0,2
188888344,188888344,12,45,0,0,30003,1497,1435,1505,1504,1505,1257,1905,1106,1505,1105,1505,1257,0,0,0,0,0,0,0,0,2
189080518,189080518,12,45,0,0,30004,1498,1409,1506,1504,1505,1257,1905,1105,1506,1105,1505,1257,0,0,0,0,0,0,0,0,2
189280196,189280196,12,45,0,0,30003,1498,1412,1518,1504,1505,1258,1905,1105,1505,1105,1505,1257,0,0,0,0,0,0,0,0,2
189496349,189496349,12,45,0,0,30004,1498,1402,1507,1504,1505,1257,1906,1105,1505,1105,1505,1257,0,0,0,0,0,0,0,0,2
189691725,189691725,12,45,0,0,30004,1498,1407,1506,1504,1505,1257,1905,1105,1506,1105,1505,1257,0,0,0,0,0,0,0,0,2
189891565,189891565,12,45,0,0,30003,1498,1409,1507,1505,1505,1257,1905,1105,1505,1106,1505,1257,0,0,0,0,0,0,0,0,2
190095390,190095390,12,45,0,0,30003,1498,1431,1506,1504,1505,1257,1906,1105,1505,1105,1505,1257,0,0,0,0,0,0,0,0,2
190298916,190298916,12,45,0,0,30003,1497,1417,1507,1504,1505,1257,1905,1106,1505,1105,1505,1257,0,0,0,0,0,0,0,0,2
190498673,190498673,12,45,0,0,30003,1498,1437,1507,1505,1505,1257,1905,1105,1506,1105,1505,1257,0,0,0,0,0,0,0,0,2
190703340,190703340,12,45,0,0,30003,1498,1438,1506,1505,1505,1257,1905,1105,1505,1105,1506,1257,0,0,0,0,0,0,0,0,2
190903363,190903363,12,45,0,0,30004,1498,1443,1506,1504,1505,1257,1906,1105,1505,1105,1505,1257,0,0,0,0,0,0,0,0,2
191119457,191119457,12,45,0,0,30004,1498,1428,1507,1504,1505,1257,1905,1106,1505,1105,1505,1257,0,0,0,0,0,0,0,0,2
191323334,191323334,12,45,0,0,30004,1498,1417,1507,1504,1505,1257,1905,1105,1505,1106,1505,1257,0,0,0,0,0,0,0,0,2
191527357,191527357,12,45,0,0,30003,1484,1435,1481,1504,1506,1257,1905,1105,1505,1105,1506,1257,0,0,0,0,0,0,0,0,2
191723462,191723462,12,45,0,0,30003,1497,1467,1440,1504,1505,1258,1905,1105,1505,1105,1505,1257,0,0,0,0,0,0,0,0,2
191927363,191927363,12,45,0,0,30003,1497,1513,1432,1504,1505,1257,1905,1105,1506,1105,1505,1257,0,0,0,0,0,0,0,0,2
192127543,192127543,12,45,0,0,30003,1497,1511,1387,1505,1505,1257,1905,1105,1505,1106,1505,1257,0,0,0,0,0,0,0,0,2
192343358,192343358,12,45,0,0,30003,1497,1510,1358,1504,1506,1257,1905,1105,1505,1105,1505,1258,0,0,0,0,0,0,0,0,2
192543571,192543571,12,45,0,0,30003,1454,1509,1367,1504,1505,1258,1905,1105,1505,1105,1505,1257,0,0,0,0,0,0,0,0,2
192743362,192743362,12,45,0,0,30004,1409,1509,1464,1503,1505,1257,1906,1105,1505,1105,1505,1257,0,0,0,0,0,0,0,0,2
192947588,192947588,12,45,0,0,30003,1409,1509,1505,1505,1505,1257,1905,1105,1505,1106,1505,1257,0,0,0,0,0,0,0,0,2
193135601,193135601,12,45,0,0,30003,1398,1508,1505,1503,1506,1257,1905,1105,1505,1105,1505,1258,0,0,0,0,0,0,0,0,2
193351413,193351413,12,45,0,0,30003,1334,1508,1505,1504,1505,1258,1905,1105,1505,1105,1505,1257,0,0,0,0,0,0,0,0,2
193550548,193550548,12,45,0,0,30003,1294,1508,1505,1503,1505,1257,1906,1105,1505,1105,1505,1257,0,0,0,0,0,0,0,0,2
193750134,193750134,12,45,0,0,30003,1248,1508,1505,1503,1505,1249,1905,1105,1505,1106,1505,1257,0,0,0,0,0,0,0,0,2
193950562,193950562,12,45,0,0,30003,1191,1508,1505,1502,1506,1194,1905,1105,1505,1105,1505,1258,0,0,0,0,0,0,0,0,2
194146919,194146919,12,45,0,0,30003,1175,1509,1506,1502,1505,1183,1905,1106,1505,1105,1505,1257,0,0,0,0,0,0,0,0,2
194362918,194362918,12,45,0,0,30004,1175,1509,1505,1502,1505,1184,1905,1106,1505,1105,1505,1257,0,0,0,0,0,0,0,0,2
194566579,194566579,12,45,0,0,30003,1177,1508,1505,1502,1506,1184,1905,1105,1505,1105,1505,1258,0,0,0,0,0,0,0,0,2
194762536,194762536,12,45,0,0,30003,1172,1507,1505,1502,1505,1179,1906,1105,1505,1105,1505,1257,0,0,0,0,0,0,0,0,2
194970541,194970541,12,45,0,0,30003,1170,1449,1476,1502,1505,1178,1905,1105,1506,1105,1505,1257,0,0,0,0,0,0,0,0,2
195178562,195178562,12,45,0,0,30003,1173,1467,1458,1504,1505,1181,1905,1105,1505,1105,1506,1257,0,0,0,0,0,0,0,0,2
195382771,195382771,12,45,0,0,30003,1174,1511,1402,1502,1505,1182,1905,1105,1505,1105,1505,1257,0,0,0,0,0,0,0,0,2
195582534,195582534,12,45,0,0,30004,1174,1507,1360,1502,1505,1181,1905,1105,1506,1105,1505,1257,0,0,0,0,0,0,0,0,2
195782551,195782551,12,45,0,0,30003,1176,1508,1369,1502,1506,1184,1905,1105,1505,1105,1506,1257,0,0,0,0,0,0,0,0,2
195994749,195994749,12,45,0,0,30003,1206,1399,1506,1502,1505,1214,1905,1105,1505,1105,1505,1257,0,0,0,0,0,0,0,0,2
196194561,196194561,12,45,0,0,30003,1204,1387,1505,1503,1505,1212,1905,1106,1505,1105,1505,1257,0,0,0,0,0,0,0,0,2
196378857,196378857,12,45,0,0,30003,1205,1384,1505,1503,1506,1212,1905,1105,1505,1105,1506,1257,0,0,0,0,0,0,0,0,2
196582748,196582748,12,45,0,0,30003,1205,1413,1505,1503,1505,1212,1906,1105,1505,1105,1505,1257,0,0,0,0,0,0,0,0,2
196794539,196794539,12,45,0,0,30004,1204,1416,1505,1503,1505,1212,1905,1106,1505,1105,1505,1257,0,0,0,0,0,0,0,0,2
196990971,196990971,12,45,0,0,30003,1205,1479,1500,1503,1506,1212,1905,1105,1505,1105,1505,1258,0,0,0,0,0,0,0,0,2
198217813,198217813,12,45,0,0,30003,1117,1508,1505,1504,1505,1121,1905,1105,1505,1105,1506,1257,0,0,0,0,0,0,0,0,2
198421756,198421756,12,45,0,0,30003,1098,1508,1505,1504,1505,1106,1905,1105,1505,1105,1505,1258,0,0,0,0,0,0,0,0,2
198613766,198613766,12,45,0,0,30004,1098,1510,1505,1504,1505,1105,1905,1105,1506,1105,1505,1257,0,0,0,0,0,0,0,0,2
198821871,198821871,12,45,0,0,30003,1098,1509,1505,1505,1505,1105,1905,1105,1505,1105,1506,1257,0,0,0,0,0,0,0,0,2
199021799,199021799,12,45,0,0,30003,1098,1509,1505,1504,1505,1106,1905,1105,1505,1105,1505,1258,0,0,0,0,0,0,0,0,2
199222166,199222166,12,45,0,0,30004,1098,1508,1505,1504,1505,1105,1906,1105,1505,1105,1505,1257,0,0,0,0,0,0,0,0,2
199425745,199425745,12,45,0,0,30003,1098,1508,1505,1505,1505,1105,1905,1105,1505,1105,1506,1257,0,0,0,0,0,0,0,0,2
199625741,199625741,12,45,0,0,30003,1098,1509,1505,1504,1505,1106,1905,1105,1505,1105,1505,1258,0,0,0,0,0,0,0,0,2
199829759,199829759,12,45,0,0,30004,1098,1508,1505,1504,1505,1105,1906,1105,1505,1105,1505,1257,0,0,0,0,0,0,0,0,2
200025790,200025790,12,45,0,0,30003,1098,1508,1505,1505,1505,1105,1905,1105,1505,1105,1506,1257,0,0,0,0,0,0,0,0,2
200221817,200221817,12,45,0,0,30003,1098,1508,1427,1504,1506,1105,1905,1105,1505,1105,1505,1258,0,0,0,0,0,0,0,0,2
200441927,200441927,12,45,0,0,30003,1098,1481,1290,1503,1505,1105,1906,1105,1505,1105,1505,1257,0,0,0,0,0,0,0,0,2
200641739,200641739,12,45,0,0,30003,1097,1489,1280,1504,1505,1105,1905,1105,1506,1105,1505,1257,0,0,0,0,0,0,0,0,2
200841019,200841019,12,45,0,0,30004,1098,1509,1505,1505,1505,1105,1905,1105,1505,1106,1505,1257,0,0,0,0,0,0,0,0,2
201037982,201037982,12,45,0,0,30003,1098,1508,1505,1504,1505,1105,1906,1105,1505,1105,1505,1257,0,0,0,0,0,0,0,0,2
201240942,201240942,12,45,0,0,30004,1097,1372,1521,1504,1505,1105,1905,1106,1505,1105,1505,1257,0,0,0,0,0,0,0,0,2
201449328,201449328,12,45,0,0,30004,1098,1302,1554,1504,1505,1105,1905,1105,1505,1106,1505,1257,0,0,0,0,0,0,0,0,2
201656948,201656948,12,45,0,0,30003,1098,1289,1558,1504,1506,1105,1905,1105,1505,1105,1506,1257,0,0,0,0,0,0,0,0,2
201857190,201857190,12,45,0,0,30003,1097,1319,1537,1504,1505,1105,1905,1106,1505,1105,1505,1257,0,0,0,0,0,0,0,0,2
202053187,202053187,12,45,0,0,30003,1098,1336,1528,1504,1505,1105,1905,1105,1506,1105,1505,1257,0,0,0,0,0,0,0,0,2
202248978,202248978,12,45,0,0,30003,1098,1433,1506,1504,1505,1106,1905,1105,1505,1105,1505,1257,0,0,0,0,0,0,0,0,2
202445147,202445147,12,45,0,0,30004,1098,1508,1505,1504,1505,1105,1906,1105,1505,1105,1505,1257,0,0,0,0,0,0,0,0,2
202661086,202661086,12,45,0,0,30004,1098,1511,1505,1504,1505,1105,1905,1105,1506,1105,1505,1257,0,0,0,0,0,0,0,0,2
202853316,202853316,12,45,0,0,30004,1098,1511,1500,1505,1505,1105,1905,1105,1505,1106,1505,1257,0,0,0,0,0,0,0,0,2
203072941,203072941,12,45,0,0,30003,1098,1533,1504,1504,1506,1105,1905,1105,1505,1105,1505,1258,0,0,0,0,0,0,0,0,2
203272994,203272994,12,45,0,0,30003,1098,1552,1492,1503,1505,1105,1906,1105,1505,1105,1505,1257,0,0,0,0,0,0,0,0,2
203465256,203465256,12,45,0,0,30003,1098,1583,1460,1503,1505,1105,1905,1105,1505,1106,1505,1257,0,0,0,0,0,0,0,0,2
203664956,203664956,12,45,0,0,30003,1098,1575,1418,1505,1505,1105,1905,1105,1505,1105,1506,1257,0,0,0,0,0,0,0,0,2
203885055,203885055,12,45,0,0,30003,1098,1511,1302,1504,1505,1106,1905,1105,1505,1105,1505,1257,0,0,0,0,0,0,0,0,2
204081139,204081139,12,45,0,0,30003,1098,1512,1319,1504,1505,1105,1906,1105,1505,1105,1505,1257,0,0,0,0,0,0,0,0,2
204281039,204281039,12,45,0,0,30004,1098,1512,1360,1505,1505,1106,1905,1105,1505,1106,1505,1257,0,0,0,0,0,0,0,0,2
204484138,204484138,12,45,0,0,30003,1098,1510,1505,1504,1506,1105,1905,1105,1505,1105,1505,1258,0,0,0,0,0,0,0,0,2
204684532,204684532,12,45,0,0,30003,1098,1509,1505,1504,1505,1106,1905,1105,1505,1105,1505,1257,0,0,0,0,0,0,0,0,2
204884180,204884180,12,45,0,0,30004,1098,1509,1506,1504,1505,1105,1905,1105,1506,1105,1505,1257,0,0,0,0,0,0,0,0,2
205080526,205080526,12,45,0,0,30003,1098,1509,1505,1505,1505,1105,1905,1105,1505,1105,1506,1257,0,0,0,0,0,0,0,0,2
205292133,205292133,12,45,0,0,30003,1098,1509,1505,1504,1506,1105,1905,1105,1505,1105,1505,1258,0,0,0,0,0,0,0,0,2
205488350,205488350,12,45,0,0,30004,1097,1510,1505,1504,1505,1105,1905,1106,1505,1105,1505,1257,0,0,0,0,0,0,0,0,2
205688177,205688177,12,45,0,0,30004,1098,1509,1507,1504,1505,1105,1905,1105,1505,1106,1505,1257,0,0,0,0,0,0,0,0,2
205888402,205888402,12,45,0,0,30003,1098,1509,1506,1505,1505,1105,1905,1105,1505,1105,1506,1257,0,0,0,0,0,0,0,0,2
206104375,206104375,12,45,0,0,30003,1098,1509,1505,1504,1505,1106,1905,1105,1505,1105,1505,1258,0,0,0,0,0,0,0,0,2
206312391,206312391,12,45,0,0,30003,1098,1508,1505,1504,1505,1105,1906,1105,1505,1105,1505,1257,0,0,0,0,0,0,0,0,2
206508229,206508229,12,45,0,0,30004,1098,1508,1507,1504,1505,1105,1905,1105,1505,1106,1505,1257,0,0,0,0,0,0,0,0,2
206700526,206700526,12,45,0,0,30003,1098,1428,1507,1505,1505,1105,1905,1105,1505,1105,1506,1257,0,0,0,0,0,0,0,0,2
206904401,206904401,12,45,0,0,30003,1098,1430,1506,1504,1505,1106,1905,1105,1505,1105,1505,1258,0,0,0,0,0,0,0,0,2
207120163,207120163,12,45,0,0,30003,1098,1447,1506,1503,1505,1105,1906,1105,1505,1105,1505,1257,0,0,0,0,0,0,0,0,2
207312521,207312521,12,45,0,0,30004,1098,1416,1505,1505,1505,1105,1905,1105,1505,1106,1505,1257,0,0,0,0,0,0,0,0,2
207508337,207508337,12,45,0,0,30003,1098,1424,1505,1504,1506,1105,1905,1105,1505,1105,1505,1258,0,0,0,0,0,0,0,0,2
207724369,207724369,12,45,0,0,30003,1098,1481,1505,1504,1505,1105,1906,1105,1505,1105,1505,1257,0,0,0,0,0,0,0,0,2
207920206,207920206,12,45,0,0,30003,1098,1509,1505,1505,1505,1105,1905,1105,1505,1105,1506,1257,0,0,0,0,0,0,0,0,2
208135627,208135627,12,45,0,0,30003,1098,1509,1505,1505,1505,1105,1905,1105,1505,1105,1506,1257,0,0,0,0,0,0,0,0,2
208327375,208327375,12,45,0,0,30003,1097,1510,1505,1504,1505,1105,1905,1106,1505,1105,1505,1257,0,0,0,0,0,0,0,0,2
208527467,208527467,12,45,0,0,30004,1098,1509,1506,1504,1505,1105,1905,1105,1505,1106,1505,1257,0,0,0,0,0,0,0,0,2
208740406,208740406,12,45,0,0,30003,1098,1509,1505,1504,1506,1105,1905,1105,1505,1105,1505,1258,0,0,0,0,0,0,0,0,2
208939368,208939368,12,45,0,0,30003,1097,1510,1505,1504,1505,1105,1905,1105,1506,1105,1505,1257,0,0,0,0,0,0,0,0,2
209143585,209143585,12,45,0,0,30003,1098,1509,1505,1505,1505,1105,1905,1105,1505,1106,1505,1257,0,0,0,0,0,0,0,0,2
209347572,209347572,12,45,0,0,30003,1098,1509,1505,1506,1506,1105,1905,1105,1505,1105,1505,1258,0,0,0,0,0,0,0,0,2
209547376,209547376,12,45,0,0,30004,1098,1509,1505,1504,1505,1105,1906,1105,1505,1105,1505,1257,0,0,0,0,0,0,0,0,2
209751377,209751377,12,45,0,0,30003,1098,1509,1494,1505,1505,1105,1905,1105,1505,1105,1506,1257,0,0,0,0,0,0,0,0,2
209951459,209951459,12,45,0,0,30003,1098,1509,1487,1504,1505,1106,1905,1105,1505,1105,1505,1257,0,0,0,0,0,0,0,0,2
210147586,210147586,12,45,0,0,30004,1098,1489,1422,1504,1505,1105,1905,1106,1505,1105,1505,1257,0,0,0,0,0,0,0,0,2
210351377,210351377,12,45,0,0,30004,1098,1444,1330,1504,1505,1105,1905,1105,1505,1106,1505,1257,0,0,0,0,0,0,0,0,2
210555375,210555375,12,45,0,0,30003,1098,1456,1357,1504,1505,1105,1906,1105,1505,1105,1505,1257,0,0,0,0,0,0,0,0,2
210747368,210747368,12,45,0,0,30003,1097,1466,1456,1504,1505,1105,1905,1106,1505,1105,1505,1257,0,0,0,0,0,0,0,0,2
210955600,210955600,12,45,0,0,30004,1098,1457,1503,1504,1505,1105,1905,1105,1505,1106,1505,1257,0,0,0,0,0,0,0,0,2
211155364,211155364,12,45,0,0,30003,1098,1455,1504,1504,1505,1105,1906,1105,1505,1105,1505,1257,0,0,0,0,0,0,0,0,2
211355568,211355568,12,45,0,0,30004,1097,1444,1469,1504,1505,1105,1905,1106,1505,1105,1505,1257,0,0,0,0,0,0,0,0,2
211561948,211561948,12,45,0,0,30003,1098,1392,1506,1504,1505,1105,1905,1105,1505,1106,1505,1257,0,0,0,0,0,0,0,0,2
211778765,211778765,12,45,0,0,30003,1098,1370,1505,1504,1506,1105,1905,1105,1505,1105,1505,1258,0,0,0,0,0,0,0,0,2
211982536,211982536,12,45,0,0,30003,1098,1461,1504,1504,1505,1105,1906,1105,1505,1105,1505,1257,0,0,0,0,0,0,0,0,2
212170919,212170919,12,45,0,0,30004,1098,1509,1506,1505,1505,1105,1905,1105,1505,1106,1505,1257,0,0,0,0,0,0,0,0,2
212370538,212370538,12,45,0,0,30003,1098,1509,1505,1504,1506,1105,1905,1105,1505,1105,1505,1258,0,0,0,0,0,0,0,0,2
212590828,212590828,12,45,0,0,30003,1100,1509,1505,1504,1505,1107,1906,1105,1505,1105,1505,1257,0,0,0,0,0,0,0,0,2
212790543,212790543,12,45,0,0,30003,1108,1510,1505,1504,1505,1116,1905,1106,1505,1105,1505,1257,0,0,0,0,0,0,0,0,2
212990798,212990798,12,45,0,0,30003,1335,1510,1656,1505,1506,1257,1905,1105,1505,1105,1505,1257,0,0,0,0,0,0,0,0,2
213186538,213186538,12,45,0,0,30003,1498,1586,1905,1504,1505,1258,1905,1105,1505,1105,1505,1257,0,0,0,0,0,0,0,0,2
213386538,213386538,12,45,0,0,30003,1497,1582,1905,1504,1505,1257,1906,1105,1505,1105,1505,1257,0,0,0,0,0,0,0,0,2
213586556,213586556,12,45,0,0,30003,1498,1522,1845,1505,1505,1257,1905,1105,1505,1105,1506,1257,0,0,0,0,0,0,0,0,2
213806546,213806546,12,45,0,0,30003,1498,1516,1905,1505,1505,1257,1905,1105,1505,1105,1506,1257,0,0,0,0,0,0,0,0,2
214006923,214006923,12,45,0,0,30003,1498,1515,1905,1504,1505,1257,1906,1105,1505,1105,1505,1257,0,0,0,0,0,0,0,0,2
214210551,214210551,12,45,0,0,30004,1498,1515,1906,1504,1505,1257,1905,1105,1506,1105,1505,1257,0,0,0,0,0,0,0,0,2
214410765,214410765,12,45,0,0,30003,1498,1515,1905,1505,1505,1257,1905,1105,1505,1105,1506,1257,0,0,0,0,0,0,0,0,2
214610582,214610582,12,45,0,0,30004,1498,1513,1905,1504,1505,1257,1906,1105,1505,1105,1505,1257,0,0,0,0,0,0,0,0,2
214802546,214802546,12,45,0,0,30003,1498,1513,1906,1504,1505,1257,1905,1105,1506,1105,1505,1257,0,0,0,0,0,0,0,0,2
215002562,215002562,12,45,0,0,30003,1498,1513,1905,1505,1505,1257,1905,1105,1505,1106,1505,1257,0,0,0,0,0,0,0,0,2
215225765,215225765,12,45,0,0,30003,1498,1513,1905,1504,1506,1257,1905,1105,1505,1105,1505,1258,0,0,0,0,0,0,0,0,2
215425001,215425001,12,45,0,0,30003,1498,1513,1905,1504,1505,1257,1906,1105,1505,1105,1505,1257,0,0,0,0,0,0,0,0,2
215626265,215626265,12,45,0,0,30003,1498,1511,1906,1504,1505,1257,1905,1105,1505,1106,1505,1257,0,0,0,0,0,0,0,0,2
215825763,215825763,12,45,0,0,30003,1499,1511,1850,1504,1506,1257,1905,1105,1505,1105,1506,1257,0,0,0,0,0,0,0,0,2
216025959,216025959,12,45,0,0,30003,1498,1509,1507,1504,1505,1257,1906,1105,1505,1105,1505,1257,0,0,0,0,0,0,0,0,2
216233777,216233777,12,45,0,0,30003,1498,1510,1507,1504,1505,1257,1905,1106,1505,1105,1505,1257,0,0,0,0,0,0,0,0,2
216437785,216437785,12,45,0,0,30003,1498,1509,1507,1504,1506,1257,1905,1105,1505,1105,1506,1257,0,0,0,0,0,0,0,0,2
216637943,216637943,12,45,0,0,30003,1498,1509,1507,1504,1505,1258,1905,1105,1505,1105,1505,1257,0,0,0,0,0,0,0,0,2
216841743,216841743,12,45,0,0,30004,1498,1509,1507,1504,1505,1257,1906,1105,1505,1105,1505,1257,0,0,0,0,0,0,0,0,2
217030172,217030172,12,45,0,0,30003,1498,1509,1507,1505,1505,1257,1905,1105,1505,1105,1506,1257,0,0,0,0,0,0,0,0,2
217241963,217241963,12,45,0,0,30003,1508,1509,1507,1503,1506,1257,1905,1105,1505,1105,1505,1258,0,0,0,0,0,0,0,0,2
217441775,217441775,12,45,0,0,30003,1541,1509,1507,1504,1505,1257,1906,1105,1505,1105,1505,1257,0,0,0,0,0,0,0,0,2
217637774,217637774,12,45,0,0,30004,1558,1509,1151,1505,1505,1257,1905,1105,1505,1106,1505,1257,0,0,0,0,0,0,0,0,2
217846049,217846049,12,45,0,0,30003,1575,1508,1174,1505,1506,1257,1905,1105,1505,1105,1506,1257,0,0,0,0,0,0,0,0,2
218049778,218049778,12,45,0,0,30003,1570,1509,1321,1504,1505,1258,1905,1105,1505,1105,1505,1257,0,0,0,0,0,0,0,0,2
218254127,218254127,12,45,0,0,30004,1566,1509,1346,1504,1505,1257,1906,1105,1505,1105,1505,1257,0,0,0,0,0,0,0,0,2
218461964,218461964,12,45,0,0,30003,1563,1510,1347,1504,1505,1257,1905,1105,1506,1105,1505,1257,0,0,0,0,0,0,0,0,2
218661093,218661093,12,45,0,0,30003,1566,1509,1329,1504,1506,1257,1905,1105,1505,1105,1505,1258,0,0,0,0,0,0,0,0,2
218856987,218856987,12,45,0,0,30003,1570,1509,1283,1504,1505,1257,1906,1105,1505,1105,1505,1257,0,0,0,0,0,0,0,0,2
219052987,219052987,12,45,0,0,30003,1569,1510,1290,1504,1505,1257,1905,1106,1505,1105,1505,1257,0,0,0,0,0,0,0,0,2
220480943,220480943,12,45,0,0,30004,1569,1510,1487,1504,1505,1257,1905,1105,1506,1105,1505,1257,0,0,0,0,0,0,0,0,2
220677158,220677158,12,45,0,0,30003,1568,1508,1505,1505,1505,1257,1905,1105,1505,1105,1506,1257,0,0,0,0,0,0,0,0,2
220896940,220896940,12,45,0,0,30003,1559,1342,1506,1504,1505,1258,1905,1105,1505,1105,1505,1257,0,0,0,0,0,0,0,0,2
221100962,221100962,12,45,0,0,30003,1558,1333,1506,1504,1505,1257,1905,1106,1505,1105,1505,1257,0,0,0,0,0,0,0,0,2
221296940,221296940,12,45,0,0,30003,1559,1362,1498,1504,1506,1257,1905,1105,1505,1105,1505,1258,0,0,0,0,0,0,0,0,2
221489004,221489004,12,45,0,0,30003,1559,1400,1386,1504,1505,1257,1906,1105,1505,1105,1505,1257,0,0,0,0,0,0,0,0,2
221689000,221689000,12,45,0,0,30003,1559,1384,1377,1505,1505,1257,1905,1105,1505,1105,1506,1257,0,0,0,0,0,0,0,0,2
221897102,221897102,12,45,0,0,30003,1553,1411,1359,1504,1505,1258,1905,1105,1505,1105,1505,1257,0,0,0,0,0,0,0,0,2
222116955,222116955,12,45,0,0,30003,1544,1435,1291,1504,1505,1258,1905,1105,1505,1105,1505,1257,0,0,0,0,0,0,0,0,2
222315470,222315470,12,45,0,0,30004,1515,1418,1257,1504,1505,1257,1905,1105,1505,1106,1505,1257,0,0,0,0,0,0,0,0,2
222520172,222520172,12,45,0,0,30003,1514,1415,1243,1503,1506,1257,1905,1105,1505,1105,1505,1258,0,0,0,0,0,0,0,0,2
222712291,222712291,12,45,0,0,30004,1520,1406,1241,1504,1505,1257,1906,1105,1505,1105,1505,1257,0,0,0,0,0,0,0,0,2
222920205,222920205,12,45,0,0,30003,1522,1404,1243,1505,1505,1257,1905,1105,1505,1105,1506,1257,0,0,0,0,0,0,0,0,2
223116352,223116352,12,45,0,0,30003,1531,1430,1266,1504,1505,1258,1905,1105,1505,1105,1505,1258,0,0,0,0,0,0,0,0,2
223312183,223312183,12,45,0,0,30004,1532,1469,1270,1504,1505,1257,1905,1105,1506,1105,1505,1257,0,0,0,0,0,0,0,0,2
223528174,223528174,12,45,0,0,30003,1533,1511,1292,1504,1505,1257,1905,1105,1506,1105,1505,1257,0,0,0,0,0,0,0,0,2
223724351,223724351,12,45,0,0,30003,1534,1519,1297,1504,1505,1258,1905,1105,1505,1105,1505,1257,0,0,0,0,0,0,0,0,2
223924204,223924204,12,45,0,0,30003,1534,1540,1285,1504,1505,1257,1905,1106,1505,1105,1505,1257,0,0,0,0,0,0,0,0,2
224140348,224140348,12,45,0,0,30003,1534,1631,1242,1504,1505,1257,1905,1105,1506,1105,1505,1257,0,0,0,0,0,0,0,0,2
224336362,224336362,12,45,0,0,30003,1534,1652,1234,1504,1506,1257,1905,1105,1505,1105,1506,1257,0,0,0,0,0,0,0,0,2
224536221,224536221,12,45,0,0,30004,1533,1626,1240,1504,1505,1257,1905,1106,1505,1105,1505,1257,0,0,0,0,0,0,0,0,2
224740173,224740173,12,45,0,0,30004,1534,1482,1243,1504,1505,1257,1905,1105,1505,1106,1505,1257,0,0,0,0,0,0,0,0,2
224936184,224936184,12,45,0,0,30003,1534,1308,1333,1504,1506,1257,1905,1105,1505,1105,1505,1258,0,0,0,0,0,0,0,0,2
225136264,225136264,12,45,0,0,30003,1533,1287,1394,1505,1505,1257,1905,1106,1505,1105,1505,1257,0,0,0,0,0,0,0,0,2
225348364,225348364,12,45,0,0,30003,1535,1310,1390,1505,1505,1257,1905,1105,1505,1106,1505,1257,0,0,0,0,0,0,0,0,2
225548213,225548213,12,45,0,0,30003,1534,1444,1286,1504,1506,1257,1905,1105,1505,1105,1505,1258,0,0,0,0,0,0,0,0,2
225751339,225751339,12,45,0,0,30003,1535,1454,1265,1504,1505,1257,1906,1105,1505,1105,1505,1257,0,0,0,0,0,0,0,0,2
225947722,225947722,12,45,0,0,30004,1535,1456,1264,1505,1505,1257,1905,1105,1505,1106,1505,1257,0,0,0,0,0,0,0,0,2
226147383,226147383,12,45,0,0,30003,1535,1455,1356,1504,1506,1257,1905,1105,1505,1105,1505,1258,0,0,0,0,0,0,0,0,2
226363347,226363347,12,45,0,0,30003,1535,1452,1328,1504,1505,1257,1906,1105,1505,1105,1505,1257,0,0,0,0,0,0,0,0,2
226559748,226559748,12,45,0,0,30003,1534,1448,1272,1504,1505,1257,1905,1106,1505,1105,1505,1257,0,0,0,0,0,0,0,0,2
226755562,226755562,12,45,0,0,30003,1535,1442,1266,1504,1506,1257,1905,1105,1505,1105,1506,1257,0,0,0,0,0,0,0,0,2
226959379,226959379,12,45,0,0,30003,1535,1451,1260,1504,1505,1257,1906,1105,1505,1105,1505,1257,0,0,0,0,0,0,0,0,2
227155455,227155455,12,45,0,0,30003,1535,1453,1259,1504,1505,1257,1905,1106,1505,1105,1505,1257,0,0,0,0,0,0,0,0,2
227359364,227359364,12,45,0,0,30003,1535,1451,1259,1504,1506,1257,1905,1105,1505,1105,1506,1257,0,0,0,0,0,0,0,0,2
227579348,227579348,12,45,0,0,30003,1556,1450,1255,1505,1505,1257,1905,1105,1505,1105,1506,1257,0,0,0,0,0,0,0,0,2
227783721,227783721,12,45,0,0,30003,1554,1451,1254,1504,1505,1258,1905,1105,1505,1105,1505,1257,0,0,0,0,0,0,0,0,2
227983354,227983354,12,45,0,0,30003,1549,1453,1255,1504,1505,1257,1905,1105,1506,1105,1505,1257,0,0,0,0,0,0,0,0,2
228183578,228183578,12,45,0,0,30003,1554,1454,1253,1505,1505,1257,1905,1105,1505,1105,1506,1257,0,0,0,0,0,0,0,0,2
228383375,228383375,12,45,0,0,30003,1557,1455,1254,1504,1506,1257,1905,1105,1505,1105,1505,1258,0,0,0,0,0,0,0,0,2
228579591,228579591,12,45,0,0,30004,1556,1458,1253,1504,1505,1257,1905,1105,1506,1105,1505,1257,0,0,0,0,0,0,0,0,2
228779344,228779344,12,45,0,0,30003,1557,1458,1249,1505,1505,1257,1905,1105,1505,1106,1505,1257,0,0,0,0,0,0,0,0,2
228983568,228983568,12,45,0,0,30003,1557,1459,1252,1503,1506,1257,1905,1105,1505,1105,1506,1257,0,0,0,0,0,0,0,0,2
229183374,229183374,12,45,0,0,30003,1557,1463,1251,1504,1505,1257,1905,1106,1505,1105,1505,1257,0,0,0,0,0,0,0,0,2
229387415,229387415,12,45,0,0,30004,1560,1468,1281,1504,1505,1257,1905,1105,1506,1105,1505,1257,0,0,0,0,0,0,0,0,2
229584263,229584263,12,45,0,0,30003,1565,1485,1315,1505,1505,1257,1905,1105,1505,1105,1506,1257,0,0,0,0,0,0,0,0,2
229790838,229790838,12,45,0,0,30003,1580,1501,1329,1504,1505,1257,1906,1105,1505,1105,1505,1257,0,0,0,0,0,0,0,0,2
229990560,229990560,12,45,0,0,30003,1590,1510,1505,1504,1505,1257,1905,1106,1505,1105,1505,1257,0,0,0,0,0,0,0,0,2
230198664,230198664,12,45,0,0,30003,1604,1509,1506,1504,1505,1257,1905,1105,1505,1106,1505,1257,0,0,0,0,0,0,0,0,2
230402986,230402986,12,45,0,0,30003,1611,1509,1505,1504,1506,1257,1905,1105,1505,1105,1506,1257,0,0,0,0,0,0,0,0,2
230606662,230606662,12,45,0,0,30003,1607,1509,1505,1504,1505,1258,1905,1105,1505,1105,1505,1257,0,0,0,0,0,0,0,0,2
230806806,230806806,12,45,0,0,30003,1596,1510,1505,1504,1505,1257,1905,1105,1506,1105,1505,1257,0,0,0,0,0,0,0,0,2
231022616,231022616,12,45,0,0,30003,1556,1509,1505,1505,1505,1257,1905,1105,1505,1106,1505,1257,0,0,0,0,0,0,0,0,2
231206535,231206535,12,45,0,0,30003,1522,1509,1505,1504,1506,1257,1905,1105,1505,1105,1506,1257,0,0,0,0,0,0,0,0,2
231422723,231422723,12,45,0,0,30003,1500,1509,1718,1504,1505,1258,1905,1105,1505,1105,1505,1257,0,0,0,0,0,0,0,0,2
231622594,231622594,12,45,0,0,30003,1517,1509,1793,1504,1505,1257,1905,1105,1506,1105,1505,1257,0,0,0,0,0,0,0,0,2
231814548,231814548,12,45,0,0,30003,1558,1509,1779,1505,1505,1257,1905,1105,1505,1106,1505,1257,0,0,0,0,0,0,0,0,2
232014539,232014539,12,45,0,0,30003,1558,1510,1755,1504,1506,1257,1905,1105,1505,1105,1505,1258,0,0,0,0,0,0,0,0,2
232230553,232230553,12,45,0,0,30003,1557,1510,1752,1504,1505,1258,1905,1105,1505,1105,1505,1257,0,0,0,0,0,0,0,0,2
232430583,232430583,12,45,0,0,30004,1551,1511,1738,1504,1505,1257,1905,1105,1506,1105,1505,1257,0,0,0,0,0,0,0,0,2
232622659,232622659,12,45,0,0,30003,1522,1510,1728,1505,1505,1257,1905,1105,1505,1105,1506,1257,0,0,0,0,0,0,0,0,2
232826576,232826576,12,45,0,0,30003,1503,1510,1739,1504,1506,1257,1905,1105,1505,1105,1505,1258,0,0,0,0,0,0,0,0,2
233042645,233042645,12,45,0,0,30003,1524,1510,1761,1504,1505,1257,1906,1105,1505,1105,1505,1257,0,0,0,0,0,0,0,0,2
233238765,233238765,12,45,0,0,30003,1529,1509,1753,1505,1505,1257,1905,1105,1505,1105,1506,1257,0,0,0,0,0,0,0,0,2
233442579,233442579,12,45,0,0,30003,1529,1510,1736,1504,1505,1258,1905,1105,1505,1105,1505,1258,0,0,0,0,0,0,0,0,2
233649961,233649961,12,45,0,0,30003,1496,1510,1730,1505,1505,1257,1906,1105,1505,1105,1505,1257,0,0,0,0,0,0,0,0,2
233829810,233829810,12,45,0,0,30003,1498,1510,1727,1504,1506,1257,1905,1105,1505,1105,1506,1257,0,0,0,0,0,0,0,0,2
234053865,234053865,12,45,0,0,30003,1498,1509,1724,1504,1505,1257,1906,1105,1505,1105,1506,1257,0,0,0,0,0,0,0,0,2
234233791,234233791,12,45,0,0,30003,1497,1509,1703,1505,1505,1257,1905,1105,1505,1105,1505,1257,0,0,0,0,0,0,0,0,2
234453815,234453815,12,45,0,0,30003,1478,1509,1650,1505,1505,1257,1905,1105,1505,1106,1505,1257,0,0,0,0,0,0,0,0,2
234646143,234646143,12,45,0,0,30003,1433,1509,1624,1505,1505,1257,1906,1105,1505,1105,1505,1257,0,0,0,0,0,0,0,0,2
234849769,234849769,12,45,0,0,30004,1398,1509,1527,1504,1505,1257,1905,1105,1506,1105,1505,1257,0,0,0,0,0,0,0,0,2
235053774,235053774,12,45,0,0,30003,1418,1509,1581,1505,1505,1257,1905,1105,1505,1105,1506,1257,0,0,0,0,0,0,0,0,2
235253795,235253795,12,45,0,0,30003,1497,1509,1600,1504,1505,1258,1905,1105,1505,1105,1505,1257,0,0,0,0,0,0,0,0,2
235457988,235457988,12,45,0,0,30004,1498,1509,1821,1504,1505,1257,1905,1105,1506,1105,1505,1257,0,0,0,0,0,0,0,0,2
235661743,235661743,12,45,0,0,30003,1498,1509,1905,1504,1506,1257,1905,1105,1505,1105,1506,1257,0,0,0,0,0,0,0,0,2
235861777,235861777,12,45,0,0,30003,1498,1509,1905,1504,1505,1258,1905,1105,1505,1105,1505,1257,0,0,0,0,0,0,0,0,2
236077942,236077942,12,45,0,0,30003,1497,1511,1905,1504,1505,1257,1905,1106,1505,1105,1505,1257,0,0,0,0,0,0,0,0,2
236281750,236281750,12,45,0,0,30003,1498,1510,1906,1504,1505,1257,1905,1105,1505,1106,1505,1257,0,0,0,0,0,0,0,0,2
236477793,236477793,12,45,0,0,30003,1498,1510,1905,1504,1505,1257,1906,1105,1505,1105,1505,1257,0,0,0,0,0,0,0,0,2
236677739,236677739,12,45,0,0,30004,1498,1511,1905,1504,1505,1257,1905,1106,1505,1105,1505,1257,0,0,0,0,0,0,0,0,2
236878313,236878313,12,45,0,0,30003,1498,1510,1905,1505,1505,1257,1905,1105,1505,1106,1505,1257,0,0,0,0,0,0,0,0,2
237085329,237085329,12,45,0,0,30003,1498,1510,1905,1504,1506,1257,1905,1105,1505,1105,1505,1258,0,0,0,0,0,0,0,0,2
237288986,237288986,12,45,0,0,30004,1498,1511,1905,1504,1505,1257,1905,1106,1505,1105,1505,1257,0,0,0,0,0,0,0,0,2
237477069,237477069,12,45,0,0,30003,1498,1510,1905,1506,1505,1257,1905,1105,1505,1106,1505,1257,0,0,0,0,0,0,0,0,2
237697437,237697437,12,45,0,0,30003,1498,1510,1905,1502,1506,1257,1905,1105,1505,1105,1505,1258,0,0,0,0,0,0,0,0,2
237900967,237900967,12,45,0,0,30004,1498,1510,1905,1504,1505,1257,1906,1105,1505,1105,1505,1257,0,0,0,0,0,0,0,0,2
238093317,238093317,12,45,0,0,30003,1498,1510,1905,1505,1505,1257,1905,1105,1505,1105,1506,1257,0,0,0,0,0,0,0,0,2
238297016,238297016,12,45,0,0,30003,1498,1510,1905,1504,1505,1258,1905,1105,1505,1105,1505,1258,0,0,0,0,0,0,0,0,2
238512966,238512966,12,45,0,0,30003,1498,1510,1730,1504,1505,1257,1906,1105,1505,1105,1505,1257,0,0,0,0,0,0,0,0,2
238708985,238708985,12,45,0,0,30004,1498,1509,1508,1504,1505,1257,1905,1105,1506,1105,1505,1257,0,0,0,0,0,0,0,0,2
238900938,238900938,12,45,0,0,30003,1498,1509,1507,1504,1505,1258,1905,1105,1505,1105,1505,1257,0,0,0,0,0,0,0,0,2
239120935,239120935,12,45,0,0,30003,1497,1509,1507,1504,1505,1257,1906,1105,1505,1105,1505,1257,0,0,0,0,0,0,0,0,2
239313085,239313085,12,45,0,0,30003,1498,1508,1508,1504,1505,1257,1905,1105,1506,1105,1505,1257,0,0,0,0,0,0,0,0,2
239508952,239508952,12,45,0,0,30003,1498,1509,1507,1504,1505,1258,1905,1105,1505,1105,1505,1257,0,0,0,0,0,0,0,0,2
239729055,239729055,12,45,0,0,30003,1498,1509,1507,1504,1505,1258,1905,1105,1505,1105,1505,1257,0,0,0,0,0,0,0,0,2
239920949,239920949,12,45,0,0,30004,1498,1509,1508,1504,1505,1257,1905,1105,1506,1105,1505,1257,0,0,0,0,0,0,0,0,2
240112986,240112986,12,45,0,0,30003,1498,1509,1507,1504,1505,1258,1905,1105,1505,1105,1505,1257,0,0,0,0,0,0,0,0,2
240321159,240321159,12,45,0,0,30003,1499,1509,1507,1504,1505,1257,1906,1105,1505,1105,1505,1257,0,0,0,0,0,0,0,0,2
240524971,240524971,12,45,0,0,30003,1500,1509,1508,1504,1505,1257,1905,1105,1506,1105,1505,1257,0,0,0,0,0,0,0,0,2
240724141,240724141,12,45,0,0,30003,1501,1509,1507,1505,1505,1257,1905,1105,1505,1105,1506,1257,0,0,0,0,0,0,0,0,2
240944382,240944382,12,45,0,0,30003,1503,1509,1507,1504,1505,1258,1905,1105,1505,1105,1505,1257,0,0,0,0,0,0,0,0,2
241144186,241144186,12,45,0,0,30003,1507,1509,1507,1504,1505,1257,1906,1105,1505,1105,1505,1257,0,0,0,0,0,0,0,0,2
242132423,242132423,12,45,0,0,30003,1509,1509,1507,1504,1506,1257,1905,1105,1505,1105,1505,1258,0,0,0,0,0,0,0,0,2
242348176,242348176,12,45,0,0,30004,1509,1509,1507,1504,1505,1257,1906,1105,1505,1105,1505,1257,0,0,0,0,0,0,0,0,2
242548265,242548265,12,45,0,0,30003,1508,1510,1507,1504,1505,1257,1905,1106,1505,1105,1505,1257,0,0,0,0,0,0,0,0,2
242752174,242752174,12,45,0,0,30003,1509,1509,1506,1504,1506,1257,1905,1105,1505,1105,1506,1257,0,0,0,0,0,0,0,0,2
242948519,242948519,12,45,0,0,30003,1511,1509,1506,1504,1505,1258,1905,1105,1505,1105,1505,1257,0,0,0,0,0,0,0,0,2
243160137,243160137,12,45,0,0,30003,1513,1510,1446,1504,1505,1257,1905,1106,1505,1105,1505,1257,0,0,0,0,0,0,0,0,2
243372202,243372202,12,45,0,0,30003,1514,1509,1381,1504,1505,1257,1905,1105,1506,1105,1505,1257,0,0,0,0,0,0,0,0,2
243564351,243564351,12,45,0,0,30003,1515,1509,1349,1505,1505,1257,1905,1105,1505,1105,1506,1257,0,0,0,0,0,0,0,0,2
243760364,243760364,12,45,0,0,30003,1514,1509,1343,1504,1505,1257,1906,1105,1505,1105,1505,1257,0,0,0,0,0,0,0,0,2
243972167,243972167,12,45,0,0,30004,1514,1510,1308,1504,1505,1257,1905,1105,1506,1105,1505,1257,0,0,0,0,0,0,0,0,2
244164204,244164204,12,45,0,0,30003,1515,1509,1274,1505,1505,1257,1905,1105,1505,1106,1505,1257,0,0,0,0,0,0,0,0,2
244380169,244380169,12,45,0,0,30003,1514,1509,1264,1506,1506,1257,1905,1105,1505,1105,1505,1258,0,0,0,0,0,0,0,0,2
244576176,244576176,12,45,0,0,30004,1514,1510,1241,1504,1505,1257,1905,1106,1505,1105,1505,1257,0,0,0,0,0,0,0,0,2
244776400,244776400,12,45,0,0,30004,1515,1509,1230,1504,1505,1257,1905,1105,1505,1106,1505,1257,0,0,0,0,0,0,0,0,2
244987427,244987427,12,45,0,0,30003,1514,1509,1213,1504,1506,1257,1905,1105,1505,1105,1506,1257,0,0,0,0,0,0,0,0,2
245187560,245187560,12,45,0,0,30003,1514,1509,1211,1504,1505,1258,1905,1105,1505,1105,1505,1258,0,0,0,0,0,0,0,0,2
