timestamp,error_count,device_id,x,y,z,temperature,scaling,x_raw,y_raw,z_raw,is_external
133170950,0,73225,-0.024174122,0.5440918,0.28738394,39.75,0.0012195122,131,218,390,1
133284082,0,73225,-0.024174122,0.54760337,0.28971523,40.25,0.0012195122,131,219,393,1
133378816,0,73225,-0.024174122,0.5440918,0.28738394,40.25,0.0012195122,131,218,390,1
133896022,0,73225,-0.02331384,0.5721842,0.29126942,40.0,0.0012195122,132,226,395,1
133985195,0,73225,-0.021593278,0.55462646,0.29049233,40.0,0.0012195122,134,221,394,1
134104019,0,73225,-0.024174122,0.56164956,0.28893813,39.5,0.0012195122,131,223,392,1
134192018,0,73225,-0.02245356,0.5511149,0.28738394,39.5,0.0012195122,133,220,390,1
134305131,0,73225,-0.025034402,0.5511149,0.28893813,40.0,0.0012195122,130,220,392,1
134396030,0,73225,-0.02245356,0.5511149,0.28816104,40.0,0.0012195122,133,220,391,1
134506744,0,73225,-0.026754964,0.54760337,0.28816104,40.0,0.0012195122,128,219,391,1
134596019,0,73225,-0.02331384,0.5405802,0.28816104,39.5,0.0012195122,132,217,391,1
134708019,0,73225,-0.02331384,0.55462646,0.28738394,39.5,0.0012195122,132,221,390,1
134800089,0,73225,-0.025034402,0.5335571,0.28816104,39.25,0.0012195122,130,215,391,1
134910149,0,73225,-0.025034402,0.5440918,0.28816104,39.25,0.0012195122,130,218,391,1
135000023,0,73225,-0.02331384,0.5511149,0.28893813,39.25,0.0012195122,132,220,392,1
135115020,0,73225,-0.02331384,0.558138,0.28893813,40.5,0.0012195122,132,222,392,1
135204054,0,73225,-0.02331384,0.5511149,0.28893813,40.5,0.0012195122,132,220,392,1
135313048,0,73225,-0.024174122,0.5511149,0.28971523,39.75,0.0012195122,131,220,393,1
135423066,0,73225,-0.02245356,0.558138,0.28816104,39.75,0.0012195122,133,222,391,1
135513442,0,73225,-0.025034402,0.56164956,0.28660685,39.75,0.0012195122,130,223,389,1
135623018,0,73225,-0.02331384,0.5440918,0.28816104,39.75,0.0012195122,132,218,391,1
135714267,0,73225,-0.025894685,0.56164956,0.28738394,39.75,0.0012195122,129,223,390,1
135824052,0,73225,-0.024174122,0.56164956,0.28893813,39.75,0.0012195122,131,223,392,1
135912047,0,73225,-0.025894685,0.54760337,0.28816104,39.75,0.0012195122,129,219,391,1
136026021,0,73225,-0.024174122,0.5335571,0.28505266,40.0,0.0012195122,131,215,387,1
136118365,0,73225,-0.029335808,0.53004557,0.28349844,40.0,0.0012195122,125,214,385,1
136228035,0,73225,-0.02331384,0.5335571,0.27883583,40.0,0.0012195122,132,215,379,1
136322206,0,73225,-0.025034402,0.54760337,0.27883583,40.0,0.0012195122,130,219,379,1
136434141,0,73225,-0.025894685,0.54760337,0.27650455,40.0,0.0012195122,129,219,376,1
136525220,0,73225,-0.03105637,0.54760337,0.27261907,39.75,0.0012195122,123,219,371,1
136635023,0,73225,-0.028475527,0.526534,0.25940838,39.75,0.0012195122,126,213,354,1
136744018,0,73225,-0.037078336,0.5230225,0.27106488,40.25,0.0012195122,116,212,369,1
136840060,0,73225,-0.03105637,0.5195109,0.2695107,40.25,0.0012195122,123,211,367,1
136952018,0,73225,-0.030196087,0.51248777,0.26717937,40.25,0.0012195122,124,209,364,1
137040078,0,73225,-0.03363721,0.5019531,0.26717937,39.5,0.0012195122,120,206,364,1
137133322,0,73225,-0.031916652,0.4879069,0.27339616,39.5,0.0012195122,122,202,372,1
137244066,0,73225,-0.030196087,0.526534,0.27572745,39.25,0.0012195122,124,213,375,1
137359048,0,73225,-0.027615245,0.53004557,0.27339616,39.25,0.0012195122,127,214,372,1
137447090,0,73225,-0.026754964,0.53004557,0.28816104,39.25,0.0012195122,128,214,391,1
137560067,0,73225,-0.03105637,0.5195109,0.28116715,40.0,0.0012195122,123,211,382,1
137648101,0,73225,-0.026754964,0.5195109,0.27184197,40.0,0.0012195122,128,211,370,1
137760030,0,73225,-0.027615245,0.53706867,0.28427556,40.0,0.0012195122,127,216,386,1
137860131,0,73225,-0.030196087,0.51248777,0.27650455,40.0,0.0012195122,124,209,376,1
137952019,0,73225,-0.030196087,0.5195109,0.27261907,40.0,0.0012195122,124,211,371,1
138071018,0,73225,-0.029335808,0.51248777,0.27883583,40.0,0.0012195122,125,209,379,1
138160174,0,73225,-0.030196087,0.526534,0.26173967,40.0,0.0012195122,124,213,357,1
138272068,0,73225,-0.035357773,0.53004557,0.27106488,40.0,0.0012195122,118,214,369,1
139288018,0,73225,-0.028475527,0.5195109,0.27650455,39.75,0.0012195122,126,211,376,1
139378158,0,73225,-0.031916652,0.5440918,0.2695107,39.75,0.0012195122,122,218,367,1
139493435,0,73225,-0.030196087,0.526534,0.27184197,39.75,0.0012195122,124,213,370,1
139586018,0,73225,-0.035357773,0.5195109,0.27417326,40.25,0.0012195122,118,211,373,1
139693198,0,73225,-0.037938617,0.5335571,0.27417326,40.25,0.0012195122,115,215,373,1
139786267,0,73225,-0.037078336,0.51248777,0.26717937,39.75,0.0012195122,116,209,364,1
139879020,0,73225,-0.027615245,0.5230225,0.27261907,39.75,0.0012195122,127,212,371,1
139997383,0,73225,-0.026754964,0.5335571,0.26018548,39.75,0.0012195122,128,215,355,1
140091029,0,73225,-0.034497492,0.5335571,0.27417326,40.0,0.0012195122,119,215,373,1
140186115,0,73225,-0.035357773,0.5230225,0.27650455,40.0,0.0012195122,118,212,376,1
140300018,0,73225,-0.036218055,0.5335571,0.27495036,39.75,0.0012195122,117,215,374,1
140411018,0,73225,-0.024174122,0.526534,0.27028778,39.75,0.0012195122,131,213,368,1
140502144,0,73225,-0.030196087,0.5230225,0.26484808,39.75,0.0012195122,124,212,361,1
140614018,0,73225,-0.03363721,0.5335571,0.28194425,40.25,0.0012195122,120,215,383,1
140707075,0,73225,-0.03363721,0.5440918,0.27495036,40.25,0.0012195122,120,218,374,1
140800497,0,73225,-0.0387989,0.5159994,0.27339616,40.0,0.0012195122,114,210,372,1
140914018,0,73225,-0.03105637,0.5405802,0.27728164,40.0,0.0012195122,123,217,377,1
141024511,0,73225,-0.036218055,0.53004557,0.27495036,40.0,0.0012195122,117,214,374,1
141114174,0,73225,-0.031916652,0.5511149,0.27339616,40.0,0.0012195122,122,220,372,1
141227018,0,73225,-0.03363721,0.526534,0.27106488,40.0,0.0012195122,120,213,369,1
141323019,0,73225,-0.029335808,0.5405802,0.27417326,40.0,0.0012195122,125,217,373,1
141416392,0,73225,-0.025894685,0.5511149,0.264071,40.0,0.0012195122,129,220,360,1
141528398,0,73225,-0.030196087,0.526534,0.28971523,40.0,0.0012195122,124,213,393,1
141619198,0,73225,-0.027615245,0.56164956,0.29049233,40.0,0.0012195122,127,223,394,1
141734106,0,73225,-0.03105637,0.56164956,0.27805874,40.0,0.0012195122,123,223,378,1
141827035,0,73225,-0.03363721,0.5335571,0.2695107,40.5,0.0012195122,120,215,367,1
141920377,0,73225,-0.030196087,0.53004557,0.27495036,40.5,0.0012195122,124,214,374,1
142031028,0,73225,-0.030196087,0.526534,0.26251677,40.0,0.0012195122,124,213,358,1
142144855,0,73225,-0.03363721,0.5335571,0.27572745,40.0,0.0012195122,120,215,375,1
142235024,0,73225,-0.027615245,0.53706867,0.28116715,40.0,0.0012195122,127,216,382,1
142327076,0,73225,-0.027615245,0.526534,0.28349844,40.25,0.0012195122,127,213,385,1
142442019,0,73225,-0.030196087,0.5159994,0.28194425,40.25,0.0012195122,124,210,383,1
142533171,0,73225,-0.037938617,0.558138,0.27728164,40.0,0.0012195122,115,222,377,1
142643023,0,73225,-0.0387989,0.53706867,0.26717937,40.0,0.0012195122,114,216,364,1
142739030,0,73225,-0.045681145,0.558138,0.2695107,40.0,0.0012195122,106,222,367,1
142854402,0,73225,-0.057725083,0.5651611,0.27106488,40.5,0.0012195122,92,224,369,1
142950591,0,73225,-0.062026482,0.5721842,0.27106488,40.5,0.0012195122,87,226,369,1
143046651,0,73225,-0.08095267,0.589742,0.27961296,40.0,0.0012195122,65,231,380,1
143163019,0,73225,-0.09557744,0.5651611,0.27417326,40.0,0.0012195122,48,224,373,1
143259018,0,73225,-0.10590081,0.5651611,0.27883583,40.0,0.0012195122,36,224,379,1
143355022,0,73225,-0.12740783,0.56164956,0.2695107,40.0,0.0012195122,11,223,367,1
143454562,0,73225,-0.14461346,0.5405802,0.27339616,40.0,0.0012195122,-9,217,372,1
143550506,0,73225,-0.1609588,0.4984416,0.27417326,40.0,0.0012195122,-28,205,373,1
143664324,0,73225,-0.18676722,0.46683758,0.26562518,40.0,0.0012195122,-58,196,362,1
143752400,0,73225,-0.19106862,0.48439535,0.28039005,40.0,0.0012195122,-63,201,381,1
143870484,0,73225,-0.1833261,0.47386068,0.24153513,40.0,0.0012195122,-54,198,331,1
143963029,0,73225,-0.1927892,0.45630294,0.27184197,40.0,0.0012195122,-65,193,370,1
144051077,0,73225,-0.19450976,0.4598145,0.28116715,40.0,0.0012195122,-67,194,382,1
144174404,0,73225,-0.18504666,0.4598145,0.28272134,40.0,0.0012195122,-56,194,384,1
144270436,0,73225,-0.18590693,0.4879069,0.27261907,40.0,0.0012195122,-57,202,371,1
144366576,0,73225,-0.18246582,0.46683758,0.27883583,40.0,0.0012195122,-53,196,379,1
144462366,0,73225,-0.18676722,0.47034913,0.26717937,40.0,0.0012195122,-58,197,364,1
144579053,0,73225,-0.18074526,0.46332604,0.27650455,40.0,0.0012195122,-51,195,376,1
144670083,0,73225,-0.18074526,0.4598145,0.27572745,40.75,0.0012195122,-51,194,375,1
144784552,0,73225,-0.17816442,0.4879069,0.28660685,40.75,0.0012195122,-48,202,389,1
144874172,0,73225,-0.1790247,0.47737223,0.28582975,40.0,0.0012195122,-49,199,388,1
144994018,0,73225,-0.17816442,0.49141845,0.28738394,40.0,0.0012195122,-48,203,390,1
145086214,0,73225,-0.17816442,0.49141845,0.27961296,40.0,0.0012195122,-48,203,380,1
145181528,0,73225,-0.1790247,0.46683758,0.27572745,40.25,0.0012195122,-49,196,375,1
145302503,0,73225,-0.17816442,0.47386068,0.27106488,40.25,0.0012195122,-48,198,369,1
145394082,0,73225,-0.18160553,0.48439535,0.27961296,39.75,0.0012195122,-52,201,380,1
145486019,0,73225,-0.1833261,0.47386068,0.28349844,39.75,0.0012195122,-54,198,385,1
145602018,0,73225,-0.17816442,0.5019531,0.27572745,39.75,0.0012195122,-48,206,375,1
145701663,0,73225,-0.17730413,0.4808838,0.28116715,39.75,0.0012195122,-47,200,382,1
145797607,0,73225,-0.18246582,0.46332604,0.27106488,39.75,0.0012195122,-53,195,369,1
145890082,0,73225,-0.17816442,0.46683758,0.28116715,40.5,0.0012195122,-48,196,382,1
146010105,0,73225,-0.16956161,0.47386068,0.27572745,40.5,0.0012195122,-38,198,375,1
146105056,0,73225,-0.17730413,0.5054647,0.27495036,40.5,0.0012195122,-47,207,374,1
146197685,0,73225,-0.17128217,0.47034913,0.27495036,39.75,0.0012195122,-40,197,374,1
146314111,0,73225,-0.17988497,0.5089762,0.27805874,39.75,0.0012195122,-50,208,378,1
146410099,0,73225,-0.17558357,0.49493,0.27417326,40.25,0.0012195122,-45,204,373,1
146506098,0,73225,-0.17558357,0.48439535,0.27650455,40.25,0.0012195122,-45,201,376,1
146621020,0,73225,-0.17644386,0.4984416,0.27883583,40.25,0.0012195122,-46,205,379,1
146714129,0,73225,-0.17730413,0.4879069,0.27883583,40.25,0.0012195122,-47,202,379,1
146812698,0,73225,-0.17558357,0.47737223,0.28116715,40.25,0.0012195122,-45,199,382,1
146930123,0,73225,-0.18074526,0.45630294,0.2695107,40.25,0.0012195122,-51,193,367,1
147026023,0,73225,-0.17558357,0.48439535,0.28116715,40.25,0.0012195122,-45,201,382,1
147122019,0,73225,-0.17730413,0.4422567,0.2563,40.25,0.0012195122,-47,189,350,1
147236373,0,73225,-0.1790247,0.47386068,0.25241452,39.75,0.0012195122,-49,198,345,1
147330114,0,73225,-0.17816442,0.4879069,0.28505266,39.75,0.0012195122,-48,202,387,1
147425018,0,73225,-0.17128217,0.4984416,0.28893813,39.75,0.0012195122,-40,205,392,1
147538018,0,73225,-0.17730413,0.4984416,0.28349844,40.0,0.0012195122,-47,205,385,1
147634127,0,73225,-0.17558357,0.49141845,0.26640227,40.0,0.0012195122,-45,203,363,1
147727760,0,73225,-0.18160553,0.4808838,0.27728164,40.5,0.0012195122,-52,200,377,1
147841018,0,73225,-0.17644386,0.5054647,0.27961296,40.5,0.0012195122,-46,207,380,1
147930134,0,73225,-0.17816442,0.5089762,0.27184197,40.5,0.0012195122,-48,208,370,1
148050229,0,73225,-0.17816442,0.4808838,0.27261907,40.25,0.0012195122,-48,200,371,1
148146075,0,73225,-0.17988497,0.4808838,0.27417326,40.25,0.0012195122,-50,200,373,1
148242018,0,73225,-0.17386301,0.4984416,0.28194425,40.0,0.0012195122,-43,205,383,1
148354018,0,73225,-0.18418638,0.46332604,0.28116715,40.0,0.0012195122,-55,195,382,1
148444154,0,73225,-0.18160553,0.45630294,0.27650455,40.0,0.0012195122,-52,193,376,1
148538019,0,73225,-0.17816442,0.47737223,0.27572745,40.25,0.0012195122,-48,199,375,1
148658136,0,73225,-0.18160553,0.47386068,0.27261907,40.25,0.0012195122,-52,198,371,1
148754166,0,73225,-0.1833261,0.48439535,0.27961296,40.25,0.0012195122,-54,201,380,1
148844025,0,73225,-0.17730413,0.47737223,0.26717937,40.25,0.0012195122,-47,199,364,1
148960361,0,73225,-0.18074526,0.47737223,0.26562518,40.25,0.0012195122,-51,199,362,1
149053018,0,73225,-0.18246582,0.4598145,0.264071,39.5,0.0012195122,-53,194,360,1
149166023,0,73225,-0.17644386,0.47386068,0.26173967,39.5,0.0012195122,-46,198,357,1
149258088,0,73225,-0.18074526,0.49141845,0.26562518,40.0,0.0012195122,-51,203,362,1
149369208,0,73225,-0.18246582,0.4492798,0.27106488,40.0,0.0012195122,-53,191,369,1
149459030,0,73225,-0.17386301,0.45279133,0.26173967,40.0,0.0012195122,-43,192,357,1
149571024,0,73225,-0.18418638,0.46332604,0.2586313,40.25,0.0012195122,-55,195,353,1
149660037,0,73225,-0.18246582,0.44576824,0.26484808,40.25,0.0012195122,-53,190,361,1
149772018,0,73225,-0.17300272,0.47034913,0.26018548,39.5,0.0012195122,-42,197,355,1
149861019,0,73225,-0.17730413,0.46332604,0.27495036,39.5,0.0012195122,-47,195,374,1
149970019,0,73225,-0.17300272,0.45279133,0.25241452,39.75,0.0012195122,-42,192,345,1
150081055,0,73225,-0.17644386,0.4808838,0.24775192,39.75,0.0012195122,-46,200,339,1
150171023,0,73225,-0.19020835,0.4422567,0.24153513,39.75,0.0012195122,-62,189,331,1
150285131,0,73225,-0.17472328,0.4808838,0.26640227,40.5,0.0012195122,-44,200,363,1
150376018,0,73225,-0.17386301,0.49141845,0.26484808,40.5,0.0012195122,-43,203,361,1
150487337,0,73225,-0.1790247,0.47386068,0.27028778,40.25,0.0012195122,-49,198,368,1
150577019,0,73225,-0.17300272,0.47034913,0.26251677,40.25,0.0012195122,-42,197,358,1
150685024,0,73225,-0.18160553,0.47737223,0.27650455,40.25,0.0012195122,-52,199,376,1
150775567,0,73225,-0.17300272,0.47386068,0.26562518,40.25,0.0012195122,-42,198,362,1
150887387,0,73225,-0.1790247,0.47034913,0.25940838,40.25,0.0012195122,-49,197,354,1
150977152,0,73225,-0.17472328,0.47386068,0.26640227,39.75,0.0012195122,-44,198,363,1
151086018,0,73225,-0.17816442,0.47386068,0.26018548,39.75,0.0012195122,-48,198,355,1
151175885,0,73225,-0.17730413,0.4808838,0.26717937,39.75,0.0012195122,-47,200,364,1
151296020,0,73225,-0.17472328,0.48439535,0.2695107,40.75,0.0012195122,-44,201,367,1
151385024,0,73225,-0.17730413,0.46332604,0.2570771,40.75,0.0012195122,-47,195,351,1
151496018,0,73225,-0.18246582,0.4879069,0.27106488,40.0,0.0012195122,-53,202,369,1
151607426,0,73225,-0.17386301,0.47034913,0.26484808,40.0,0.0012195122,-43,197,361,1
151696532,0,73225,-0.17558357,0.49141845,0.27261907,40.0,0.0012195122,-45,203,371,1
151809019,0,73225,-0.17558357,0.4984416,0.29049233,40.0,0.0012195122,-45,205,394,1
151897075,0,73225,-0.17558357,0.53706867,0.29126942,40.0,0.0012195122,-45,216,395,1
152009040,0,73225,-0.17214245,0.53706867,0.29049233,39.75,0.0012195122,-41,216,394,1
152098420,0,73225,-0.16956161,0.5511149,0.28893813,39.75,0.0012195122,-38,220,392,1
152210018,0,73225,-0.16526021,0.51248777,0.29049233,41.0,0.0012195122,-33,209,394,1
152318402,0,73225,-0.16612048,0.51248777,0.29126942,41.0,0.0012195122,-34,209,395,1
152407595,0,73225,-0.16956161,0.4984416,0.28039005,41.0,0.0012195122,-38,205,381,1
152520023,0,73225,-0.18590693,0.47737223,0.27261907,39.75,0.0012195122,-57,199,371,1
152609019,0,73225,-0.17988497,0.4984416,0.27728164,39.75,0.0012195122,-50,205,377,1
152719257,0,73225,-0.18418638,0.48439535,0.27417326,40.0,0.0012195122,-55,201,373,1
152827091,0,73225,-0.18504666,0.41416427,0.24231222,40.0,0.0012195122,-56,181,332,1
152915160,0,73225,-0.17730413,0.5019531,0.29049233,40.5,0.0012195122,-47,206,394,1
153029023,0,73225,-0.16353963,0.5195109,0.28738394,40.5,0.0012195122,-31,211,390,1
153119597,0,73225,-0.17386301,0.47737223,0.28039005,40.5,0.0012195122,-43,199,381,1
153213021,0,73225,-0.1790247,0.48439535,0.27106488,40.25,0.0012195122,-49,201,369,1
153330205,0,73225,-0.17816442,0.47737223,0.2695107,40.25,0.0012195122,-48,199,367,1
153418185,0,73225,-0.1833261,0.46332604,0.26173967,40.25,0.0012195122,-54,195,357,1
153527076,0,73225,-0.17988497,0.4808838,0.28039005,40.25,0.0012195122,-50,200,381,1
153638109,0,73225,-0.17816442,0.4808838,0.27184197,40.25,0.0012195122,-48,200,370,1
153730631,0,73225,-0.17644386,0.4879069,0.27728164,40.25,0.0012195122,-46,202,377,1
153840057,0,73225,-0.18590693,0.5019531,0.27883583,40.25,0.0012195122,-57,206,379,1
153929019,0,73225,-0.17988497,0.5054647,0.27805874,40.75,0.0012195122,-50,207,378,1
154040112,0,73225,-0.17816442,0.48439535,0.27728164,40.75,0.0012195122,-48,201,377,1
154131021,0,73225,-0.17816442,0.4808838,0.2695107,40.75,0.0012195122,-48,200,367,1
154243021,0,73225,-0.1833261,0.4984416,0.27961296,40.25,0.0012195122,-54,205,380,1
154352030,0,73225,-0.1833261,0.5019531,0.27106488,40.25,0.0012195122,-54,206,369,1
154443038,0,73225,-0.18246582,0.47034913,0.28272134,40.5,0.0012195122,-53,197,384,1
154532026,0,73225,-0.1833261,0.4879069,0.27572745,40.5,0.0012195122,-54,202,375,1
154644018,0,73225,-0.18246582,0.47737223,0.27572745,40.5,0.0012195122,-53,199,375,1
154758126,0,73225,-0.18848778,0.47737223,0.2679565,40.5,0.0012195122,-60,199,365,1
154848084,0,73225,-0.18590693,0.48439535,0.27184197,40.5,0.0012195122,-57,201,370,1
154960047,0,73225,-0.15235598,0.49141845,0.27417326,40.75,0.0012195122,-18,203,373,1
155048052,0,73225,-0.09987885,0.5019531,0.28582975,40.75,0.0012195122,43,206,388,1
155157578,0,73225,-0.056004517,0.5089762,0.26717937,40.25,0.0012195122,94,208,364,1
155267072,0,73225,-0.037078336,0.5335571,0.27805874,40.25,0.0012195122,116,215,378,1
155356018,0,73225,-0.062026482,0.5159994,0.28349844,40.25,0.0012195122,87,210,385,1
155467048,0,73225,-0.13687092,0.6669962,0.23842673,40.25,0.0012195122,0,253,327,1
155558394,0,73225,-0.16353963,1.0251747,0.20268022,40.25,0.0012195122,-31,355,281,1
155652044,0,73225,-0.17730413,1.1270099,0.17237338,40.0,0.0012195122,-47,384,242,1
155771882,0,73225,-0.1833261,1.1586138,0.15061463,40.0,0.0012195122,-54,393,214,1
155860022,0,73225,-0.19020835,1.197241,0.14128946,40.0,0.0012195122,-62,404,202,1
155976030,0,73225,-0.19106862,1.2112871,0.13662685,40.5,0.0012195122,-63,408,196,1
156068087,0,73225,-0.19106862,1.2077756,0.14284365,40.5,0.0012195122,-63,407,204,1
156163986,0,73225,-0.1876275,1.0954058,0.18713826,40.25,0.0012195122,-59,375,261,1
156260719,0,73225,-0.18418638,0.6459269,0.24775192,40.25,0.0012195122,-55,247,339,1
156380394,0,73225,-0.18848778,0.55462646,0.26717937,40.25,0.0012195122,-60,221,364,1
156475979,0,73225,-0.20483312,0.49141845,0.2570771,40.25,0.0012195122,-79,203,351,1
156570778,0,73225,-0.29344207,0.47737223,0.22677027,40.25,0.0012195122,-182,199,312,1
156689018,0,73225,-0.32613274,0.51248777,0.20734282,40.75,0.0012195122,-220,209,287,1
156780038,0,73225,-0.34936035,0.5054647,0.19801763,40.75,0.0012195122,-247,207,275,1
156876252,0,73225,-0.34333834,0.5195109,0.19568633,40.75,0.0012195122,-240,211,272,1
156996178,0,73225,-0.3373164,0.4598145,0.20656572,40.5,0.0012195122,-233,194,286,1
157084081,0,73225,-0.2693542,0.47034913,0.22832447,40.5,0.0012195122,-154,197,314,1
157202469,0,73225,-0.17214245,0.5054647,0.2687336,40.5,0.0012195122,-41,207,366,1
157291577,0,73225,-0.1927892,0.8671548,0.23065576,40.5,0.0012195122,-65,310,317,1
157408019,0,73225,-0.18074526,1.0778481,0.18014435,40.5,0.0012195122,-51,370,252,1
157499178,0,73225,-0.17730413,1.1445676,0.15061463,40.25,0.0012195122,-47,389,214,1
157596254,0,73225,-0.18246582,1.1761715,0.14517494,40.25,0.0012195122,-53,398,207,1
157713660,0,73225,-0.18590693,1.1761715,0.14595203,40.25,0.0012195122,-57,398,208,1
157820018,0,73225,-0.19106862,1.1902177,0.14750624,40.25,0.0012195122,-63,402,210,1
157915255,0,73225,-0.1790247,1.0883827,0.18247566,40.25,0.0012195122,-49,373,255,1
158006191,0,73225,-0.18074526,0.73020416,0.23764963,40.75,0.0012195122,-51,271,326,1
158106451,0,73225,-0.17730413,0.57569575,0.2578542,40.75,0.0012195122,-47,227,352,1
158218141,0,73225,-0.17988497,0.49493,0.27495036,40.5,0.0012195122,-50,204,374,1
158315018,0,73225,-0.17472328,0.4879069,0.28660685,40.5,0.0012195122,-44,202,389,1
158412022,0,73225,-0.17214245,0.46332604,0.27883583,40.5,0.0012195122,-41,195,379,1
158526129,0,73225,-0.17042188,0.45279133,0.28116715,39.75,0.0012195122,-39,192,382,1
158616018,0,73225,-0.17558357,0.4598145,0.28039005,39.75,0.0012195122,-45,194,381,1
158731063,0,73225,-0.16612048,0.27019054,0.29126942,40.0,0.0012195122,-34,140,395,1
158827267,0,73225,-0.17644386,0.15430923,0.3021488,40.0,0.0012195122,-46,107,409,1
158923625,0,73225,-0.17300272,0.08056659,0.3060343,40.0,0.0012195122,-42,86,414,1
159019234,0,73225,-0.17214245,0.045451052,0.3068114,40.25,0.0012195122,-41,76,415,1
159136031,0,73225,-0.17730413,0.041939497,0.2998175,40.25,0.0012195122,-47,75,406,1
159248018,0,73225,-0.17988497,0.07354348,0.29204652,40.5,0.0012195122,-50,84,396,1
159339021,0,73225,-0.17300272,0.07705504,0.2928236,40.5,0.0012195122,-42,85,397,1
159451018,0,73225,-0.17042188,0.0875897,0.2943778,40.5,0.0012195122,-39,88,399,1
159544018,0,73225,-0.16698076,0.1262168,0.3060343,40.5,0.0012195122,-35,99,414,1
159656019,0,73225,-0.17214245,0.12972835,0.2982633,40.5,0.0012195122,-41,100,404,1
159748023,0,73225,-0.16784105,0.1648439,0.2998175,40.75,0.0012195122,-36,110,406,1
159842118,0,73225,-0.17730413,0.32286385,0.28816104,40.75,0.0012195122,-47,155,391,1
159950032,0,73225,-0.16612048,0.4282105,0.2695107,40.75,0.0012195122,-34,185,367,1
160064018,0,73225,-0.1790247,0.4808838,0.27650455,40.25,0.0012195122,-49,200,376,1
160755019,0,73225,-0.17816442,0.5159994,0.27883583,40.75,0.0012195122,-48,210,379,1
160875246,0,73225,-0.18246582,0.5195109,0.28816104,40.75,0.0012195122,-53,211,391,1
160971104,0,73225,-0.17644386,0.48439535,0.27650455,40.75,0.0012195122,-46,201,376,1
161067328,0,73225,-0.17816442,0.48439535,0.264071,40.5,0.0012195122,-48,201,360,1
161163402,0,73225,-0.17816442,0.49141845,0.27184197,40.5,0.0012195122,-48,203,370,1
161259298,0,73225,-0.17472328,0.49493,0.27028778,40.25,0.0012195122,-44,204,368,1
161374032,0,73225,-0.17988497,0.5159994,0.27805874,40.25,0.0012195122,-50,210,378,1
161467108,0,73225,-0.17644386,0.4984416,0.27495036,40.25,0.0012195122,-46,205,374,1
161586021,0,73225,-0.17644386,0.4984416,0.2679565,40.25,0.0012195122,-46,205,365,1
161675077,0,73225,-0.17558357,0.49493,0.27028778,40.25,0.0012195122,-45,204,368,1
161787019,0,73225,-0.17644386,0.49141845,0.27184197,40.25,0.0012195122,-46,203,370,1
161874018,0,73225,-0.1833261,0.526534,0.27417326,40.25,0.0012195122,-54,213,373,1
161984125,0,73225,-0.17386301,0.5159994,0.264071,40.25,0.0012195122,-43,210,360,1
162075018,0,73225,-0.18160553,0.5089762,0.27339616,40.5,0.0012195122,-52,208,372,1
162189148,0,73225,-0.18504666,0.53004557,0.27106488,40.5,0.0012195122,-56,214,369,1
162282476,0,73225,-0.1927892,0.53706867,0.2695107,40.75,0.0012195122,-65,216,367,1
162398158,0,73225,-0.201392,0.5230225,0.2695107,40.75,0.0012195122,-75,212,367,1
162487018,0,73225,-0.20053172,0.5159994,0.26484808,40.75,0.0012195122,-74,210,361,1
162602149,0,73225,-0.18934806,0.5967651,0.2586313,40.25,0.0012195122,-61,233,353,1
162692511,0,73225,-0.18848778,0.6599731,0.2563,40.25,0.0012195122,-60,251,350,1
162807038,0,73225,-0.1876275,0.65295,0.25319162,40.75,0.0012195122,-59,249,346,1
162895019,0,73225,-0.18504666,0.65295,0.25940838,40.75,0.0012195122,-56,249,354,1
162991021,0,73225,-0.18676722,0.6705077,0.25396872,40.75,0.0012195122,-58,254,347,1
163106784,0,73225,-0.18676722,0.74425036,0.25241452,40.5,0.0012195122,-58,275,345,1
163202957,0,73225,-0.17816442,0.71966946,0.24075803,40.5,0.0012195122,-48,268,330,1
163298384,0,73225,-0.1833261,0.7407388,0.25396872,40.75,0.0012195122,-54,274,347,1
163413175,0,73225,-0.18160553,0.7161579,0.24153513,40.75,0.0012195122,-52,267,331,1
163506019,0,73225,-0.17988497,0.6775309,0.25396872,40.75,0.0012195122,-50,256,347,1
163618762,0,73225,-0.18418638,0.6459269,0.264071,40.75,0.0012195122,-55,247,360,1
163710124,0,73225,-0.19450976,0.60729975,0.26018548,40.75,0.0012195122,-67,236,355,1
163821020,0,73225,-0.20311256,0.58271885,0.26018548,40.75,0.0012195122,-77,229,355,1
163913982,0,73225,-0.19623032,0.58271885,0.26640227,40.75,0.0012195122,-69,229,363,1
164026887,0,73225,-0.19364949,0.53004557,0.2586313,40.5,0.0012195122,-66,214,353,1
164121024,0,73225,-0.19795088,0.5159994,0.264071,40.5,0.0012195122,-71,210,360,1
164233020,0,73225,-0.1927892,0.53004557,0.2578542,40.5,0.0012195122,-65,214,352,1
164323022,0,73225,-0.18160553,0.5405802,0.26640227,39.75,0.0012195122,-52,217,363,1
164415077,0,73225,-0.1833261,0.51248777,0.26562518,39.75,0.0012195122,-54,209,362,1
164527022,0,73225,-0.18848778,0.5230225,0.27028778,40.5,0.0012195122,-60,212,368,1
164619076,0,73225,-0.1790247,0.5335571,0.2687336,40.5,0.0012195122,-49,215,366,1
164729216,0,73225,-0.18074526,0.558138,0.26562518,40.5,0.0012195122,-51,222,362,1
164841159,0,73225,-0.19364949,0.53706867,0.26640227,40.5,0.0012195122,-66,216,363,1
164935020,0,73225,-0.18848778,0.5440918,0.27417326,40.5,0.0012195122,-60,218,373,1
165025018,0,73225,-0.19450976,0.5511149,0.2695107,40.75,0.0012195122,-67,220,367,1
165142099,0,73225,-0.19364949,0.56164956,0.2695107,40.75,0.0012195122,-66,223,367,1
165231018,0,73225,-0.19192892,0.55462646,0.2679565,40.75,0.0012195122,-64,221,365,1
165348546,0,73225,-0.19450976,0.5511149,0.26640227,40.75,0.0012195122,-67,220,363,1
165436538,0,73225,-0.19106862,0.5230225,0.27028778,40.75,0.0012195122,-63,212,368,1
165548539,0,73225,-0.1876275,0.56164956,0.264071,40.5,0.0012195122,-59,223,360,1
165638144,0,73225,-0.18934806,0.5651611,0.27339616,40.5,0.0012195122,-61,224,372,1
165751018,0,73225,-0.18848778,0.54760337,0.26717937,40.5,0.0012195122,-60,219,364,1
165843023,0,73225,-0.19020835,0.55462646,0.2679565,40.75,0.0012195122,-62,221,365,1
165958171,0,73225,-0.18676722,0.5440918,0.27339616,40.75,0.0012195122,-58,218,372,1
166049054,0,73225,-0.19192892,0.5230225,0.26640227,40.75,0.0012195122,-64,212,363,1
166160975,0,73225,-0.19192892,0.5511149,0.26562518,40.75,0.0012195122,-64,220,362,1
166249051,0,73225,-0.18934806,0.5335571,0.27106488,40.75,0.0012195122,-61,215,369,1
166342074,0,73225,-0.18504666,0.55462646,0.2679565,40.75,0.0012195122,-56,221,365,1
166457031,0,73225,-0.19537003,0.49493,0.27106488,40.75,0.0012195122,-68,204,369,1
166550100,0,73225,-0.19364949,0.53706867,0.2687336,39.75,0.0012195122,-66,216,366,1
166670124,0,73225,-0.19537003,0.53004557,0.27650455,39.75,0.0012195122,-68,214,376,1
166761063,0,73225,-0.18934806,0.5230225,0.25940838,39.75,0.0012195122,-61,212,354,1
166874099,0,73225,-0.19106862,0.53004557,0.2695107,40.75,0.0012195122,-63,214,367,1
166966140,0,73225,-0.20397285,0.5440918,0.26484808,40.75,0.0012195122,-78,218,361,1
167062111,0,73225,-0.20225228,0.5195109,0.26640227,40.25,0.0012195122,-76,211,363,1
167158095,0,73225,-0.19537003,0.54760337,0.27495036,40.25,0.0012195122,-68,219,374,1
167278100,0,73225,-0.19967145,0.5440918,0.26717937,40.25,0.0012195122,-73,218,364,1
167374147,0,73225,-0.19967145,0.5335571,0.27184197,40.75,0.0012195122,-73,215,370,1
167470139,0,73225,-0.20225228,0.526534,0.2687336,40.75,0.0012195122,-76,213,366,1
167582102,0,73225,-0.20311256,0.53004557,0.25940838,40.0,0.0012195122,-77,214,354,1
167678149,0,73225,-0.20999481,0.5054647,0.26484808,40.0,0.0012195122,-85,207,361,1
167768212,0,73225,-0.20741396,0.5019531,0.264071,40.0,0.0012195122,-82,206,360,1
167886141,0,73225,-0.20827425,0.5089762,0.27106488,40.0,0.0012195122,-83,208,369,1
167981060,0,73225,-0.20311256,0.5230225,0.27417326,40.0,0.0012195122,-77,212,373,1
168094019,0,73225,-0.19795088,0.5230225,0.27106488,40.25,0.0012195122,-71,212,369,1
168190026,0,73225,-0.19364949,0.526534,0.2695107,40.25,0.0012195122,-66,213,367,1
168285018,0,73225,-0.19364949,0.53706867,0.27106488,40.25,0.0012195122,-66,216,369,1
168398018,0,73225,-0.19020835,0.5230225,0.26562518,40.75,0.0012195122,-62,212,362,1
168493018,0,73225,-0.1927892,0.53706867,0.27261907,40.75,0.0012195122,-65,216,371,1
168582129,0,73225,-0.19364949,0.53004557,0.27339616,40.5,0.0012195122,-66,214,372,1
168702165,0,73225,-0.18504666,0.51248777,0.26640227,40.5,0.0012195122,-56,209,363,1
168794191,0,73225,-0.18504666,0.51248777,0.27028778,40.5,0.0012195122,-56,209,368,1
168910075,0,73225,-0.18504666,0.5511149,0.27339616,40.75,0.0012195122,-56,220,372,1
169006018,0,73225,-0.18074526,0.55462646,0.27417326,40.75,0.0012195122,-51,221,373,1
169102075,0,73225,-0.18418638,0.57569575,0.27339616,40.5,0.0012195122,-55,227,372,1
169216115,0,73225,-0.17644386,0.54760337,0.26562518,40.5,0.0012195122,-46,219,362,1
169307750,0,73225,-0.17988497,0.558138,0.26717937,40.5,0.0012195122,-50,222,364,1
169398019,0,73225,-0.17558357,0.589742,0.27339616,40.5,0.0012195122,-45,231,372,1
169518115,0,73225,-0.18160553,0.64241534,0.2695107,40.5,0.0012195122,-52,246,367,1
169611929,0,73225,-0.17988497,0.62485754,0.26096258,40.75,0.0012195122,-50,241,356,1
169725018,0,73225,-0.18160553,0.6459269,0.26329386,40.75,0.0012195122,-52,247,359,1
169814122,0,73225,-0.18160553,0.6459269,0.26640227,40.75,0.0012195122,-52,247,363,1
169910145,0,73225,-0.17988497,0.6353922,0.26640227,40.75,0.0012195122,-50,244,363,1
170030028,0,73225,-0.18246582,0.6459269,0.26562518,40.75,0.0012195122,-53,247,362,1
170122021,0,73225,-0.18160553,0.6283691,0.2555229,40.25,0.0012195122,-52,242,349,1
170218018,0,73225,-0.17988497,0.63890374,0.26251677,40.25,0.0012195122,-50,245,358,1
170331089,0,73225,-0.17386301,0.6283691,0.2586313,40.25,0.0012195122,-43,242,353,1
170421019,0,73225,-0.18160553,0.62485754,0.264071,40.75,0.0012195122,-52,241,360,1
170529155,0,73225,-0.18160553,0.60729975,0.27028778,40.75,0.0012195122,-52,236,368,1
170618943,0,73225,-0.17988497,0.57569575,0.2679565,40.5,0.0012195122,-50,227,365,1
170733023,0,73225,-0.18504666,0.526534,0.27184197,40.5,0.0012195122,-56,213,370,1
170823335,0,73225,-0.18074526,0.49493,0.27339616,40.5,0.0012195122,-51,204,372,1
170935761,0,73225,-0.18074526,0.46683758,0.27261907,40.5,0.0012195122,-51,196,371,1
171026018,0,73225,-0.17730413,0.4808838,0.27028778,40.5,0.0012195122,-47,200,368,1
171142401,0,73225,-0.17472328,0.48439535,0.2695107,40.5,0.0012195122,-44,201,367,1
171230405,0,73225,-0.18848778,0.47386068,0.28039005,40.5,0.0012195122,-60,198,381,1
171343732,0,73225,-0.18074526,0.46332604,0.27728164,40.5,0.0012195122,-51,195,377,1
171432032,0,73225,-0.17730413,0.47386068,0.27650455,40.0,0.0012195122,-47,198,376,1
171545018,0,73225,-0.18504666,0.48439535,0.27417326,40.0,0.0012195122,-56,201,373,1
171654367,0,73225,-0.18934806,0.46683758,0.27728164,40.75,0.0012195122,-61,196,377,1
171743745,0,73225,-0.18504666,0.4598145,0.27650455,40.75,0.0012195122,-56,194,376,1
171856049,0,73225,-0.18418638,0.49493,0.27572745,41.0,0.0012195122,-55,204,375,1
171951745,0,73225,-0.18934806,0.45279133,0.27417326,41.0,0.0012195122,-61,192,373,1
172041019,0,73225,-0.18590693,0.48439535,0.27572745,41.0,0.0012195122,-57,201,375,1
172156101,0,73225,-0.18246582,0.49141845,0.28660685,40.5,0.0012195122,-53,203,389,1
172246019,0,73225,-0.18074526,0.48439535,0.27028778,40.5,0.0012195122,-51,201,368,1
172651018,0,73225,-0.18676722,0.47737223,0.2687336,41.0,0.0012195122,-58,199,366,1
172765175,0,73225,-0.19020835,0.51248777,0.27261907,41.0,0.0012195122,-62,209,371,1
172856094,0,73225,-0.19623032,0.5054647,0.28039005,41.0,0.0012195122,-69,207,381,1
172967587,0,73225,-0.19537003,0.47386068,0.27572745,41.0,0.0012195122,-68,198,375,1
173061151,0,73225,-0.19364949,0.5159994,0.27883583,41.0,0.0012195122,-66,210,379,1
173175745,0,73225,-0.18676722,0.49493,0.28272134,40.75,0.0012195122,-58,204,384,1
173264019,0,73225,-0.18934806,0.47386068,0.27184197,40.75,0.0012195122,-61,198,370,1
173375890,0,73225,-0.19020835,0.4808838,0.27261907,40.75,0.0012195122,-62,200,371,1
173463340,0,73225,-0.19537003,0.47034913,0.26640227,40.75,0.0012195122,-68,197,363,1
173576099,0,73225,-0.20053172,0.49493,0.27495036,40.75,0.0012195122,-74,204,374,1
173667030,0,73225,-0.19537003,0.4879069,0.27417326,40.5,0.0012195122,-68,202,373,1
173776361,0,73225,-0.18590693,0.49493,0.27261907,40.5,0.0012195122,-57,204,371,1
173887439,0,73225,-0.18590693,0.49493,0.27728164,41.0,0.0012195122,-57,204,377,1
173975361,0,73225,-0.18246582,0.51248777,0.27184197,41.0,0.0012195122,-53,209,370,1
174087082,0,73225,-0.18848778,0.51248777,0.27261907,40.5,0.0012195122,-60,209,371,1
174179031,0,73225,-0.18418638,0.5230225,0.27106488,40.5,0.0012195122,-55,212,369,1
174291030,0,73225,-0.18074526,0.56867266,0.27028778,40.5,0.0012195122,-51,225,368,1
174378246,0,73225,-0.1790247,0.5405802,0.2687336,40.75,0.0012195122,-49,217,366,1
174490137,0,73225,-0.18848778,0.53706867,0.2679565,40.75,0.0012195122,-60,216,365,1
174601153,0,73225,-0.17558357,0.53706867,0.27417326,40.75,0.0012195122,-45,216,373,1
174690119,0,73225,-0.18590693,0.5159994,0.26640227,40.75,0.0012195122,-57,210,363,1
174802100,0,73225,-0.18074526,0.53706867,0.27495036,40.75,0.0012195122,-51,216,374,1
174892018,0,73225,-0.1833261,0.57569575,0.27261907,40.5,0.0012195122,-54,227,371,1
175004019,0,73225,-0.18590693,0.56867266,0.264071,40.5,0.0012195122,-57,225,360,1
175095930,0,73225,-0.17988497,0.56867266,0.2695107,40.75,0.0012195122,-50,225,367,1
175207020,0,73225,-0.1790247,0.558138,0.264071,40.75,0.0012195122,-49,222,360,1
175296033,0,73225,-0.18160553,0.56164956,0.27106488,40.75,0.0012195122,-52,223,369,1
175410228,0,73225,-0.17816442,0.5195109,0.27184197,40.75,0.0012195122,-48,211,370,1
175502752,0,73225,-0.18074526,0.5230225,0.2679565,40.75,0.0012195122,-51,212,365,1
175612018,0,73225,-0.18160553,0.5230225,0.2679565,40.25,0.0012195122,-52,212,365,1
175699019,0,73225,-0.17730413,0.55462646,0.27184197,40.25,0.0012195122,-47,221,370,1
175814591,0,73225,-0.17730413,0.5405802,0.27184197,40.25,0.0012195122,-47,217,370,1
175908021,0,73225,-0.18074526,0.5440918,0.27106488,40.25,0.0012195122,-51,218,369,1
176000022,0,73225,-0.18246582,0.55462646,0.27572745,40.25,0.0012195122,-53,221,375,1
176111079,0,73225,-0.18160553,0.5405802,0.27028778,40.5,0.0012195122,-52,217,368,1
176204023,0,73225,-0.17644386,0.55462646,0.26717937,40.5,0.0012195122,-46,221,364,1
176316023,0,73225,-0.17988497,0.5440918,0.27339616,40.5,0.0012195122,-50,218,372,1
176407019,0,73225,-0.18246582,0.5405802,0.26562518,40.5,0.0012195122,-53,217,362,1
176519104,0,73225,-0.18160553,0.5405802,0.27184197,40.5,0.0012195122,-52,217,370,1
176610018,0,73225,-0.18074526,0.5159994,0.27961296,40.5,0.0012195122,-51,210,380,1
176720018,0,73225,-0.17988497,0.5019531,0.27028778,40.5,0.0012195122,-50,206,368,1
176832077,0,73225,-0.18848778,0.47737223,0.28039005,40.5,0.0012195122,-60,199,381,1
176920150,0,73225,-0.18160553,0.4984416,0.28505266,40.5,0.0012195122,-52,205,387,1
177031021,0,73225,-0.17730413,0.4808838,0.26640227,40.5,0.0012195122,-47,200,363,1
177127019,0,73225,-0.18504666,0.4808838,0.27106488,40.0,0.0012195122,-56,200,369,1
177238477,0,73225,-0.18246582,0.4879069,0.27495036,40.0,0.0012195122,-53,202,374,1
177327073,0,73225,-0.18418638,0.5019531,0.27417326,40.0,0.0012195122,-55,206,373,1
177442247,0,73225,-0.18504666,0.49141845,0.27805874,40.0,0.0012195122,-56,203,378,1
177532125,0,73225,-0.1833261,0.4984416,0.27495036,40.0,0.0012195122,-54,205,374,1
177646908,0,73225,-0.18676722,0.49141845,0.27572745,40.75,0.0012195122,-58,203,375,1
177736030,0,73225,-0.18676722,0.47737223,0.28194425,40.75,0.0012195122,-58,199,383,1
177848048,0,73225,-0.18504666,0.47034913,0.27650455,40.0,0.0012195122,-56,197,376,1
177936122,0,73225,-0.1833261,0.49141845,0.27805874,40.0,0.0012195122,-54,203,378,1
178047045,0,73225,-0.18160553,0.4808838,0.28505266,40.75,0.0012195122,-52,200,387,1
178140108,0,73225,-0.18246582,0.49141845,0.28505266,40.75,0.0012195122,-53,203,387,1
178250183,0,73225,-0.18418638,0.4879069,0.27805874,40.75,0.0012195122,-55,202,378,1
178362124,0,73225,-0.17816442,0.47737223,0.27261907,40.75,0.0012195122,-48,199,371,1
178450151,0,73225,-0.17988497,0.49141845,0.27805874,40.75,0.0012195122,-50,203,378,1
178563048,0,73225,-0.19106862,0.48439535,0.27261907,40.25,0.0012195122,-63,201,371,1
178652018,0,73225,-0.18246582,0.4984416,0.27805874,40.25,0.0012195122,-53,205,378,1
178769106,0,73225,-0.17988497,0.4984416,0.28194425,40.25,0.0012195122,-50,205,383,1
178858141,0,73225,-0.1790247,0.5054647,0.27106488,40.75,0.0012195122,-49,207,369,1
178969385,0,73225,-0.18074526,0.47737223,0.28116715,40.75,0.0012195122,-51,199,382,1
179060023,0,73225,-0.18848778,0.5230225,0.27417326,40.5,0.0012195122,-60,212,373,1
179171071,0,73225,-0.17472328,0.5019531,0.27339616,40.5,0.0012195122,-44,206,372,1
179260018,0,73225,-0.17988497,0.49493,0.27106488,40.5,0.0012195122,-50,204,369,1
179373812,0,73225,-0.18160553,0.47386068,0.2563,40.5,0.0012195122,-52,198,350,1
179462304,0,73225,-0.17730413,0.51248777,0.2687336,40.5,0.0012195122,-47,209,366,1
179577340,0,73225,-0.17214245,0.5054647,0.28039005,40.5,0.0012195122,-41,207,381,1
179775076,0,73225,-0.18418638,0.4879069,0.264071,40.75,0.0012195122,-55,202,360,1
180798257,0,73225,-0.17730413,0.49493,0.26173967,40.25,0.0012195122,-47,204,357,1
180887020,0,73225,-0.18074526,0.47386068,0.27650455,40.25,0.0012195122,-51,198,376,1
181000020,0,73225,-0.18504666,0.5019531,0.2679565,40.25,0.0012195122,-56,206,365,1
181108018,0,73225,-0.18590693,0.49141845,0.2687336,40.75,0.0012195122,-57,203,366,1
181196022,0,73225,-0.18418638,0.47737223,0.27184197,40.75,0.0012195122,-55,199,370,1
181310018,0,73225,-0.18848778,0.46332604,0.28194425,40.5,0.0012195122,-60,195,383,1
181400076,0,73225,-0.1927892,0.47034913,0.27495036,40.5,0.0012195122,-65,197,374,1
181511028,0,73225,-0.19450976,0.4492798,0.26562518,40.5,0.0012195122,-67,191,362,1
181604105,0,73225,-0.19020835,0.45630294,0.27805874,40.5,0.0012195122,-62,193,378,1
181718142,0,73225,-0.19623032,0.45279133,0.26717937,40.5,0.0012195122,-69,192,364,1
181809314,0,73225,-0.19450976,0.45630294,0.2679565,40.75,0.0012195122,-67,193,365,1
181920031,0,73225,-0.19623032,0.43874514,0.27028778,40.75,0.0012195122,-69,188,368,1
182010106,0,73225,-0.19967145,0.43874514,0.2687336,40.75,0.0012195122,-73,188,366,1
182120433,0,73225,-0.19967145,0.4282105,0.26484808,40.75,0.0012195122,-73,185,361,1
182208609,0,73225,-0.1970906,0.4352336,0.2695107,40.75,0.0012195122,-70,187,367,1
182327097,0,73225,-0.19364949,0.4352336,0.2687336,40.75,0.0012195122,-66,187,366,1
182423077,0,73225,-0.19967145,0.44576824,0.2679565,40.75,0.0012195122,-73,190,365,1
182513161,0,73225,-0.20397285,0.43874514,0.27495036,40.75,0.0012195122,-78,188,374,1
182625230,0,73225,-0.201392,0.4282105,0.2547458,40.75,0.0012195122,-75,185,348,1
182716526,0,73225,-0.20311256,0.41767582,0.27339616,40.75,0.0012195122,-77,182,372,1
182831019,0,73225,-0.20311256,0.38958338,0.25940838,40.25,0.0012195122,-77,174,354,1
182929464,0,73225,-0.20655368,0.41416427,0.26717937,40.25,0.0012195122,-81,181,364,1
183023021,0,73225,-0.20655368,0.40362957,0.2570771,40.5,0.0012195122,-81,178,351,1
183119030,0,73225,-0.20569341,0.40714115,0.2586313,40.5,0.0012195122,-80,179,353,1
183234197,0,73225,-0.201392,0.39309493,0.24542063,40.5,0.0012195122,-75,175,336,1
183329028,0,73225,-0.20655368,0.41416427,0.24386641,41.0,0.0012195122,-81,181,334,1
183439092,0,73225,-0.20483312,0.37202564,0.2547458,41.0,0.0012195122,-79,169,348,1
183529018,0,73225,-0.21257564,0.38607183,0.28349844,40.25,0.0012195122,-88,173,385,1
183644569,0,73225,-0.21429622,0.38256028,0.26251677,40.25,0.0012195122,-90,172,358,1
183733084,0,73225,-0.20999481,0.38256028,0.2586313,40.25,0.0012195122,-85,172,353,1
183847019,0,73225,-0.20569341,0.39309493,0.2586313,40.5,0.0012195122,-80,175,353,1
183938018,0,73225,-0.21257564,0.37202564,0.27184197,40.5,0.0012195122,-88,169,370,1
184053018,0,73225,-0.21687706,0.37904873,0.26018548,40.5,0.0012195122,-93,171,355,1
184145021,0,73225,-0.22203875,0.3650025,0.2695107,40.5,0.0012195122,-99,167,367,1
184257177,0,73225,-0.21773735,0.3755372,0.27106488,40.5,0.0012195122,-94,170,369,1
184350018,0,73225,-0.21687706,0.36149094,0.26640227,40.5,0.0012195122,-93,166,363,1
184461018,0,73225,-0.21945791,0.36149094,0.26640227,40.5,0.0012195122,-96,166,363,1
184551087,0,73225,-0.21687706,0.3650025,0.26251677,40.25,0.0012195122,-93,167,358,1
184647159,0,73225,-0.21343592,0.36149094,0.264071,40.25,0.0012195122,-89,166,360,1
184763077,0,73225,-0.21515651,0.3755372,0.28660685,40.25,0.0012195122,-91,170,389,1
184853018,0,73225,-0.21773735,0.36149094,0.29126942,40.5,0.0012195122,-94,166,395,1
184967040,0,73225,-0.21429622,0.37904873,0.2943778,40.5,0.0012195122,-90,171,399,1
185055071,0,73225,-0.21085508,0.38256028,0.2928236,40.0,0.0012195122,-86,172,397,1
185169186,0,73225,-0.20483312,0.40011802,0.2928236,40.0,0.0012195122,-79,177,397,1
185260499,0,73225,-0.20569341,0.41065273,0.29593202,40.0,0.0012195122,-80,180,401,1
185375077,0,73225,-0.21171537,0.38958338,0.28971523,40.5,0.0012195122,-87,174,393,1
185467018,0,73225,-0.21687706,0.3755372,0.27184197,40.5,0.0012195122,-93,170,370,1
185559019,0,73225,-0.22461958,0.34042162,0.28039005,40.25,0.0012195122,-102,160,381,1
185673543,0,73225,-0.22117847,0.34393317,0.2679565,40.25,0.0012195122,-98,161,365,1
185763019,0,73225,-0.2280607,0.3579794,0.27106488,40.25,0.0012195122,-106,165,369,1
185875139,0,73225,-0.22117847,0.3193523,0.27417326,40.5,0.0012195122,-98,154,373,1
185984256,0,73225,-0.21945791,0.34042162,0.28039005,40.5,0.0012195122,-96,160,381,1
186078019,0,73225,-0.21773735,0.34393317,0.2695107,41.5,0.0012195122,-94,161,367,1
186174077,0,73225,-0.21515651,0.36851406,0.28194425,41.5,0.0012195122,-91,168,383,1
186270018,0,73225,-0.21859762,0.3650025,0.28039005,41.5,0.0012195122,-95,167,381,1
186390150,0,73225,-0.22031818,0.32988697,0.27417326,40.75,0.0012195122,-97,157,373,1
186485164,0,73225,-0.22461958,0.35095626,0.28039005,40.75,0.0012195122,-102,163,381,1
186598081,0,73225,-0.21773735,0.3579794,0.28039005,41.0,0.0012195122,-94,165,381,1
186688786,0,73225,-0.21601678,0.3755372,0.27339616,41.0,0.0012195122,-92,170,372,1
186782119,0,73225,-0.22117847,0.3579794,0.27805874,41.0,0.0012195122,-98,165,378,1
186902135,0,73225,-0.21601678,0.3579794,0.28349844,40.5,0.0012195122,-92,165,385,1
186998231,0,73225,-0.21859762,0.3650025,0.27728164,40.5,0.0012195122,-95,167,377,1
187094146,0,73225,-0.21515651,0.35446784,0.27805874,40.75,0.0012195122,-91,164,378,1
187208766,0,73225,-0.21515651,0.36149094,0.26717937,40.75,0.0012195122,-91,166,364,1
187297426,0,73225,-0.21515651,0.35446784,0.27184197,40.75,0.0012195122,-91,164,370,1
187414164,0,73225,-0.2280607,0.3650025,0.26329386,40.75,0.0012195122,-106,167,359,1
187510135,0,73225,-0.27623644,0.35446784,0.25940838,40.75,0.0012195122,-162,164,354,1
187605185,0,73225,-0.2874201,0.34042162,0.2578542,41.25,0.0012195122,-175,160,352,1
187718120,0,73225,-0.30892712,0.35446784,0.23920383,41.25,0.0012195122,-200,164,328,1
187814082,0,73225,-0.3063463,0.33691007,0.23531835,41.25,0.0012195122,-197,159,323,1
187910018,0,73225,-0.30720657,0.34393317,0.24697483,40.75,0.0012195122,-198,161,338,1
188022151,0,73225,-0.3106477,0.3263754,0.24075803,40.75,0.0012195122,-202,156,330,1
188115737,0,73225,-0.29860374,0.31584075,0.24075803,40.75,0.0012195122,-188,153,330,1
188206018,0,73225,-0.23752381,0.37202564,0.2679565,40.75,0.0012195122,-117,169,365,1
188326018,0,73225,-0.23150183,0.34393317,0.27339616,40.75,0.0012195122,-110,161,372,1
188418029,0,73225,-0.21687706,0.37904873,0.28505266,41.0,0.0012195122,-93,171,387,1
188510091,0,73225,-0.21257564,0.37202564,0.28272134,41.0,0.0012195122,-88,169,384,1
188630141,0,73225,-0.21859762,0.4598145,0.27184197,40.75,0.0012195122,-95,194,370,1
188726159,0,73225,-0.21515651,0.49493,0.26018548,40.75,0.0012195122,-91,204,355,1
188822184,0,73225,-0.21773735,0.53004557,0.264071,40.75,0.0012195122,-94,214,360,1
188918140,0,73225,-0.21687706,0.5230225,0.26173967,40.75,0.0012195122,-93,212,357,1
189030089,0,73225,-0.21601678,0.5195109,0.264071,40.75,0.0012195122,-92,211,360,1
189120731,0,73225,-0.21687706,0.5440918,0.26173967,40.75,0.0012195122,-93,218,357,1
189236096,0,73225,-0.21859762,0.5440918,0.25319162,40.75,0.0012195122,-95,218,346,1
189328220,0,73225,-0.21773735,0.558138,0.2500832,40.75,0.0012195122,-94,222,342,1
189424380,0,73225,-0.22117847,0.5862304,0.26484808,40.5,0.0012195122,-98,230,361,1
189541018,0,73225,-0.21601678,0.589742,0.25319162,40.5,0.0012195122,-92,231,346,1
189631100,0,73225,-0.21429622,0.59325355,0.2516374,41.25,0.0012195122,-90,232,344,1
189741018,0,73225,-0.22289902,0.589742,0.2508603,41.25,0.0012195122,-100,231,343,1
189850362,0,73225,-0.22461958,0.5651611,0.25396872,41.25,0.0012195122,-102,224,347,1
189939848,0,73225,-0.21343592,0.5651611,0.2555229,40.75,0.0012195122,-89,224,349,1
190050018,0,73225,-0.22289902,0.5651611,0.2679565,40.75,0.0012195122,-100,224,365,1
190143324,0,73225,-0.21429622,0.5230225,0.2578542,40.75,0.0012195122,-90,212,352,1
190252365,0,73225,-0.22547987,0.526534,0.26717937,40.75,0.0012195122,-103,213,364,1
190341019,0,73225,-0.21429622,0.4984416,0.2555229,40.75,0.0012195122,-90,205,349,1
190456019,0,73225,-0.22720043,0.5230225,0.26640227,40.5,0.0012195122,-105,212,363,1
190545019,0,73225,-0.21687706,0.49493,0.25940838,40.5,0.0012195122,-93,204,354,1
190661053,0,73225,-0.21515651,0.49493,0.26717937,41.5,0.0012195122,-91,204,364,1
190751276,0,73225,-0.21515651,0.4984416,0.26329386,41.5,0.0012195122,-91,205,359,1
190861018,0,73225,-0.22031818,0.49493,0.2679565,41.25,0.0012195122,-97,204,365,1
190951710,0,73225,-0.22461958,0.4984416,0.2695107,41.25,0.0012195122,-102,205,367,1
191062018,0,73225,-0.21859762,0.47737223,0.27417326,41.25,0.0012195122,-95,199,373,1
191171066,0,73225,-0.21515651,0.5054647,0.25940838,40.75,0.0012195122,-91,207,354,1
191261048,0,73225,-0.22289902,0.526534,0.264071,40.75,0.0012195122,-100,213,360,1
191370397,0,73225,-0.21687706,0.526534,0.2578542,40.5,0.0012195122,-93,213,352,1
191458488,0,73225,-0.21601678,0.558138,0.2547458,40.5,0.0012195122,-92,222,348,1
191568018,0,73225,-0.21601678,0.51248777,0.26484808,40.5,0.0012195122,-92,209,361,1
191657019,0,73225,-0.22289902,0.51248777,0.26096258,41.0,0.0012195122,-100,209,356,1
191773022,0,73225,-0.24182521,0.47034913,0.25319162,41.0,0.0012195122,-122,197,346,1
191863425,0,73225,-0.24526633,0.43874514,0.26173967,40.5,0.0012195122,-126,188,357,1
191975387,0,73225,-0.25042802,0.3650025,0.26096258,40.5,0.0012195122,-132,167,356,1
192085023,0,73225,-0.25042802,0.34393317,0.26484808,41.0,0.0012195122,-132,161,361,1
192175959,0,73225,-0.26333225,0.32988697,0.2578542,41.0,0.0012195122,-147,157,352,1
192269160,0,73225,-0.27537617,0.3193523,0.2586313,41.0,0.0012195122,-161,154,353,1
192388077,0,73225,-0.28828037,0.33339852,0.25940838,41.0,0.0012195122,-176,158,354,1
192480082,0,73225,-0.29774347,0.30530608,0.25241452,41.0,0.0012195122,-187,150,345,1
192592071,0,73225,-0.29430234,0.32988697,0.24231222,40.75,0.0012195122,-183,157,332,1
192683022,0,73225,-0.29774347,0.3123292,0.24542063,40.75,0.0012195122,-187,152,336,1
192793019,0,73225,-0.28483927,0.31584075,0.2555229,40.75,0.0012195122,-172,153,349,1
192885147,0,73225,-0.2469869,0.3650025,0.25319162,40.75,0.0012195122,-128,167,346,1
192999902,0,73225,-0.23494294,0.36149094,0.27106488,40.75,0.0012195122,-114,166,369,1
193087461,0,73225,-0.22203875,0.3579794,0.27883583,40.75,0.0012195122,-99,165,379,1
193199426,0,73225,-0.20999481,0.36851406,0.27572745,40.75,0.0012195122,-85,168,375,1
193288139,0,73225,-0.21343592,0.3650025,0.27961296,40.75,0.0012195122,-89,167,380,1
193405018,0,73225,-0.21515651,0.35446784,0.28116715,41.25,0.0012195122,-91,164,382,1
193492019,0,73225,-0.21257564,0.35095626,0.28272134,41.25,0.0012195122,-88,163,384,1
193604018,0,73225,-0.20827425,0.3650025,0.27495036,41.25,0.0012195122,-83,167,374,1
193694141,0,73225,-0.21945791,0.35095626,0.28582975,41.25,0.0012195122,-96,163,388,1
193810620,0,73225,-0.21171537,0.36149094,0.27728164,41.25,0.0012195122,-87,166,377,1
193902196,0,73225,-0.21601678,0.3474447,0.27961296,40.75,0.0012195122,-92,162,380,1
194012095,0,73225,-0.20913452,0.3579794,0.28582975,40.75,0.0012195122,-84,165,388,1
194104025,0,73225,-0.21601678,0.35095626,0.28194425,41.5,0.0012195122,-92,163,383,1
194214105,0,73225,-0.21429622,0.35095626,0.28272134,41.5,0.0012195122,-90,163,384,1
194326179,0,73225,-0.21257564,0.3650025,0.27339616,40.5,0.0012195122,-88,167,372,1
194415075,0,73225,-0.21343592,0.3474447,0.27805874,40.5,0.0012195122,-89,162,378,1
194526018,0,73225,-0.21515651,0.3755372,0.28505266,40.5,0.0012195122,-91,170,387,1
194615135,0,73225,-0.21687706,0.3474447,0.27572745,41.0,0.0012195122,-93,162,375,1
194730642,0,73225,-0.21773735,0.35095626,0.27728164,41.0,0.0012195122,-94,163,377,1
194819018,0,73225,-0.21687706,0.3579794,0.27728164,40.5,0.0012195122,-93,165,377,1
194936034,0,73225,-0.21343592,0.35446784,0.28116715,40.5,0.0012195122,-89,164,382,1
195027019,0,73225,-0.22289902,0.42469895,0.27339616,40.5,0.0012195122,-100,184,372,1
195142018,0,73225,-0.2280607,0.4282105,0.264071,41.0,0.0012195122,-106,185,360,1
195232128,0,73225,-0.23494294,0.47737223,0.2586313,41.0,0.0012195122,-114,199,353,1
195347050,0,73225,-0.23924437,0.42118737,0.26096258,41.0,0.0012195122,-119,183,356,1
195435066,0,73225,-0.2555897,0.40362957,0.2679565,41.0,0.0012195122,-138,178,365,1
195544019,0,73225,-0.27021447,0.3579794,0.2555229,41.0,0.0012195122,-155,165,349,1
195634810,0,73225,-0.27537617,0.3579794,0.25319162,41.0,0.0012195122,-161,165,346,1
195744018,0,73225,-0.29344207,0.3650025,0.2508603,41.0,0.0012195122,-182,167,343,1
195835066,0,73225,-0.28828037,0.36149094,0.24075803,40.5,0.0012195122,-176,166,330,1
195950126,0,73225,-0.28655982,0.36851406,0.2508603,40.5,0.0012195122,-174,168,343,1
196062286,0,73225,-0.24526633,0.45279133,0.2508603,41.0,0.0012195122,-126,192,343,1
196155021,0,73225,-0.22634014,0.5405802,0.2570771,41.0,0.0012195122,-104,217,351,1
196251021,0,73225,-0.21945791,0.60729975,0.2500832,41.0,0.0012195122,-96,236,342,1
196363021,0,73225,-0.21859762,0.63188064,0.24542063,41.0,0.0012195122,-95,243,336,1
196459018,0,73225,-0.22117847,0.64241534,0.25396872,41.0,0.0012195122,-98,246,347,1
196547027,0,73225,-0.21601678,0.64241534,0.2508603,41.0,0.0012195122,-92,246,343,1
196667323,0,73225,-0.21945791,0.5967651,0.2586313,41.5,0.0012195122,-96,233,353,1
196762483,0,73225,-0.21859762,0.59325355,0.2586313,41.5,0.0012195122,-95,232,353,1
196874002,0,73225,-0.21687706,0.5792073,0.2570771,40.75,0.0012195122,-93,228,351,1
196962741,0,73225,-0.21945791,0.56164956,0.264071,40.75,0.0012195122,-96,223,360,1
198186099,0,73225,-0.21773735,0.36149094,0.28039005,40.75,0.0012195122,-94,166,381,1
198277233,0,73225,-0.20999481,0.36149094,0.27184197,40.75,0.0012195122,-85,166,370,1
198389160,0,73225,-0.21515651,0.3579794,0.27339616,40.75,0.0012195122,-91,165,372,1
198482290,0,73225,-0.21515651,0.3650025,0.27184197,40.75,0.0012195122,-91,167,370,1
198597145,0,73225,-0.21171537,0.3579794,0.28582975,41.25,0.0012195122,-87,165,388,1
198685405,0,73225,-0.21257564,0.3474447,0.27650455,41.25,0.0012195122,-88,162,376,1
198802379,0,73225,-0.21171537,0.3579794,0.27495036,41.25,0.0012195122,-87,165,374,1
198895018,0,73225,-0.22031818,0.3579794,0.27572745,41.25,0.0012195122,-97,165,375,1
199005347,0,73225,-0.21601678,0.33691007,0.27495036,41.25,0.0012195122,-92,159,374,1
199096022,0,73225,-0.21515651,0.3474447,0.27805874,41.25,0.0012195122,-91,162,378,1
199192023,0,73225,-0.21601678,0.33691007,0.27883583,41.25,0.0012195122,-92,159,379,1
199309150,0,73225,-0.21257564,0.36149094,0.27106488,41.25,0.0012195122,-88,166,369,1
199400032,0,73225,-0.21601678,0.38607183,0.27417326,41.0,0.0012195122,-92,173,373,1
199496033,0,73225,-0.22117847,0.37202564,0.28272134,41.0,0.0012195122,-98,169,384,1
199610140,0,73225,-0.21601678,0.3650025,0.27650455,41.0,0.0012195122,-92,167,376,1
199720096,0,73225,-0.21429622,0.3755372,0.27495036,41.0,0.0012195122,-90,170,374,1
199811019,0,73225,-0.21859762,0.36851406,0.27650455,41.0,0.0012195122,-95,168,376,1
199904076,0,73225,-0.21601678,0.36149094,0.27883583,40.75,0.0012195122,-92,166,379,1
200018264,0,73225,-0.22375931,0.3579794,0.2695107,40.75,0.0012195122,-101,165,367,1
200107018,0,73225,-0.21515651,0.36851406,0.2679565,41.0,0.0012195122,-91,168,365,1
200218110,0,73225,-0.21687706,0.3650025,0.26717937,41.0,0.0012195122,-93,167,364,1
200309341,0,73225,-0.22375931,0.37904873,0.27572745,41.0,0.0012195122,-101,171,375,1
200420021,0,73225,-0.25989112,0.36851406,0.24697483,41.0,0.0012195122,-143,168,338,1
200512134,0,73225,-0.32527247,0.3579794,0.22677027,41.0,0.0012195122,-219,165,312,1
200628517,0,73225,-0.32011077,0.40362957,0.23531835,41.5,0.0012195122,-213,178,323,1
200717018,0,73225,-0.33559582,0.3650025,0.22288476,41.5,0.0012195122,-231,167,307,1
200827663,0,73225,-0.31839022,0.37202564,0.23531835,40.5,0.0012195122,-211,169,323,1
200919061,0,73225,-0.24784717,0.40011802,0.26562518,40.5,0.0012195122,-129,177,362,1
201031039,0,73225,-0.22978127,0.37904873,0.27495036,40.5,0.0012195122,-108,171,374,1
201121022,0,73225,-0.22117847,0.40011802,0.27339616,41.0,0.0012195122,-98,177,372,1
201231029,0,73225,-0.21515651,0.41416427,0.27650455,41.0,0.0012195122,-91,181,376,1
201322193,0,73225,-0.20999481,0.5651611,0.26484808,41.0,0.0012195122,-85,224,361,1
201434170,0,73225,-0.20827425,0.65295,0.25319162,41.0,0.0012195122,-83,249,346,1
201528226,0,73225,-0.19537003,0.723181,0.23764963,41.0,0.0012195122,-68,269,326,1
201639072,0,73225,-0.20397285,0.7969237,0.23065576,41.0,0.0012195122,-78,290,317,1
201729023,0,73225,-0.19106862,0.8636432,0.22288476,41.0,0.0012195122,-63,309,307,1
201841018,0,73225,-0.1970906,0.7828775,0.23531835,41.25,0.0012195122,-70,286,323,1
201933019,0,73225,-0.20053172,0.8039468,0.22910157,41.25,0.0012195122,-74,292,315,1
202047019,0,73225,-0.20569341,0.7899006,0.23609544,41.25,0.0012195122,-80,288,324,1
202146656,0,73225,-0.20827425,0.76180816,0.23998094,41.5,0.0012195122,-83,280,329,1
202242641,0,73225,-0.21515651,0.74776196,0.24386641,41.5,0.0012195122,-91,276,334,1
202338986,0,73225,-0.21773735,0.62134594,0.24930613,41.75,0.0012195122,-94,240,341,1
202452645,0,73225,-0.20827425,0.45279133,0.2578542,41.75,0.0012195122,-83,192,352,1
202541023,0,73225,-0.21515651,0.40714115,0.27650455,41.75,0.0012195122,-91,179,376,1
202655022,0,73225,-0.21515651,0.36851406,0.28039005,41.25,0.0012195122,-91,168,381,1
202767018,0,73225,-0.20827425,0.34042162,0.27805874,41.25,0.0012195122,-83,160,378,1
202863095,0,73225,-0.21945791,0.33691007,0.27572745,40.75,0.0012195122,-96,159,375,1
202956528,0,73225,-0.21515651,0.34042162,0.28427556,40.75,0.0012195122,-91,160,386,1
203066535,0,73225,-0.22031818,0.33339852,0.27495036,40.75,0.0012195122,-97,158,374,1
203161018,0,73225,-0.21773735,0.34393317,0.28116715,41.0,0.0012195122,-94,161,382,1
203258447,0,73225,-0.21429622,0.29828298,0.27961296,41.0,0.0012195122,-90,148,380,1
203377183,0,73225,-0.21687706,0.266679,0.28272134,40.75,0.0012195122,-93,139,384,1
203468504,0,73225,-0.22031818,0.23858653,0.28660685,40.75,0.0012195122,-97,131,389,1
203562415,0,73225,-0.22634014,0.22805189,0.28349844,40.75,0.0012195122,-104,128,385,1
203681206,0,73225,-0.23666354,0.18240167,0.28039005,40.5,0.0012195122,-116,115,381,1
203775078,0,73225,-0.24440604,0.14377457,0.27417326,40.5,0.0012195122,-125,104,373,1
203867153,0,73225,-0.2650528,0.24560966,0.26096258,40.75,0.0012195122,-149,133,356,1
203986792,0,73225,-0.29946402,0.29125986,0.23842673,40.75,0.0012195122,-189,146,327,1
204078157,0,73225,-0.31752992,0.32286385,0.23998094,40.75,0.0012195122,-210,155,329,1
204170098,0,73225,-0.31839022,0.32286385,0.22987866,40.75,0.0012195122,-211,155,316,1
204285019,0,73225,-0.32011077,0.32286385,0.22987866,40.75,0.0012195122,-213,155,316,1
204376024,0,73225,-0.30892712,0.34042162,0.23998094,41.0,0.0012195122,-200,160,329,1
204486018,0,73225,-0.28828037,0.3579794,0.25241452,41.0,0.0012195122,-176,165,345,1
204598128,0,73225,-0.25817055,0.37202564,0.26562518,41.0,0.0012195122,-141,169,362,1
204688564,0,73225,-0.23064154,0.37202564,0.27261907,41.5,0.0012195122,-109,169,371,1
204779602,0,73225,-0.21773735,0.37202564,0.27728164,41.5,0.0012195122,-94,169,377,1
204899140,0,73225,-0.21429622,0.35095626,0.27728164,41.0,0.0012195122,-90,163,377,1
204992185,0,73225,-0.21687706,0.36851406,0.28505266,41.0,0.0012195122,-93,168,387,1
205086183,0,73225,-0.21859762,0.37202564,0.27417326,41.0,0.0012195122,-95,169,373,1
205201018,0,73225,-0.21515651,0.3474447,0.27961296,40.75,0.0012195122,-91,162,380,1
205297793,0,73225,-0.21601678,0.35095626,0.28116715,40.75,0.0012195122,-92,163,382,1
205393596,0,73225,-0.21687706,0.38256028,0.28349844,40.75,0.0012195122,-93,172,385,1
205513022,0,73225,-0.21343592,0.38607183,0.27417326,40.75,0.0012195122,-89,173,373,1
205606172,0,73225,-0.21601678,0.3650025,0.27261907,40.75,0.0012195122,-92,167,371,1
205701151,0,73225,-0.21859762,0.37202564,0.27572745,40.75,0.0012195122,-95,169,375,1
205817740,0,73225,-0.21257564,0.3755372,0.28349844,40.75,0.0012195122,-88,170,385,1
205914603,0,73225,-0.21429622,0.37202564,0.27728164,40.75,0.0012195122,-90,169,377,1
206009787,0,73225,-0.22203875,0.36149094,0.27339616,40.75,0.0012195122,-99,166,372,1
206123873,0,73225,-0.20741396,0.3755372,0.27728164,40.75,0.0012195122,-82,170,377,1
206214132,0,73225,-0.21515651,0.3650025,0.27417326,40.75,0.0012195122,-91,167,373,1
206334018,0,73225,-0.21515651,0.38607183,0.27650455,40.75,0.0012195122,-91,173,376,1
206433637,0,73225,-0.21429622,0.3650025,0.27106488,41.0,0.0012195122,-90,167,369,1
206530374,0,73225,-0.21859762,0.35095626,0.27728164,41.0,0.0012195122,-95,163,377,1
206624118,0,73225,-0.21601678,0.3650025,0.27339616,41.0,0.0012195122,-92,167,372,1
206742206,0,73225,-0.21343592,0.40362957,0.27417326,41.75,0.0012195122,-89,178,373,1
206838148,0,73225,-0.21773735,0.49141845,0.26484808,41.75,0.0012195122,-94,203,361,1
206934082,0,73225,-0.22117847,0.5195109,0.264071,41.75,0.0012195122,-98,211,360,1
207049759,0,73225,-0.21773735,0.5230225,0.2586313,41.0,0.0012195122,-94,212,353,1
207145827,0,73225,-0.21687706,0.4808838,0.27028778,41.0,0.0012195122,-93,200,368,1
207241739,0,73225,-0.21515651,0.5159994,0.26329386,40.25,0.0012195122,-91,210,359,1
207334104,0,73225,-0.21601678,0.5054647,0.26251677,40.25,0.0012195122,-92,207,358,1
207446027,0,73225,-0.21859762,0.558138,0.2547458,40.25,0.0012195122,-95,222,348,1
207542018,0,73225,-0.22289902,0.5405802,0.26018548,41.25,0.0012195122,-100,217,355,1
207661018,0,73225,-0.22289902,0.5440918,0.25319162,41.25,0.0012195122,-100,218,346,1
207752095,0,73225,-0.22203875,0.526534,0.2563,41.25,0.0012195122,-99,213,350,1
207846136,0,73225,-0.21515651,0.46332604,0.264071,41.25,0.0012195122,-91,195,360,1
207944589,0,73225,-0.21945791,0.39309493,0.27728164,41.25,0.0012195122,-96,175,377,1
208059056,0,73225,-0.21945791,0.38256028,0.27728164,41.0,0.0012195122,-96,172,377,1
208148019,0,73225,-0.22289902,0.36851406,0.27650455,41.0,0.0012195122,-100,168,376,1
208264021,0,73225,-0.21859762,0.36149094,0.27883583,41.0,0.0012195122,-95,166,379,1
208352034,0,73225,-0.22289902,0.3579794,0.27495036,41.0,0.0012195122,-100,165,374,1
208463450,0,73225,-0.22117847,0.37202564,0.27261907,41.0,0.0012195122,-98,169,371,1
208557022,0,73225,-0.22203875,0.35446784,0.28039005,41.25,0.0012195122,-99,164,381,1
208671535,0,73225,-0.22461958,0.3579794,0.27805874,41.25,0.0012195122,-102,165,378,1
208760073,0,73225,-0.22289902,0.35095626,0.27261907,40.75,0.0012195122,-100,163,371,1
208872046,0,73225,-0.22031818,0.37202564,0.27650455,40.75,0.0012195122,-97,169,376,1
208963478,0,73225,-0.22031818,0.3650025,0.27805874,40.75,0.0012195122,-97,167,378,1
209077018,0,73225,-0.21687706,0.38256028,0.27495036,41.75,0.0012195122,-93,172,374,1
209165018,0,73225,-0.21945791,0.38607183,0.27261907,41.75,0.0012195122,-96,173,371,1
209276030,0,73225,-0.21773735,0.37202564,0.27184197,40.5,0.0012195122,-94,169,370,1
209387335,0,73225,-0.22031818,0.38607183,0.2679565,40.5,0.0012195122,-97,173,365,1
209475650,0,73225,-0.22461958,0.40714115,0.27650455,41.25,0.0012195122,-102,179,376,1
209589026,0,73225,-0.21773735,0.36851406,0.27417326,41.25,0.0012195122,-94,168,373,1
209680019,0,73225,-0.22203875,0.37202564,0.27417326,41.25,0.0012195122,-99,169,373,1
209793030,0,73225,-0.22117847,0.37202564,0.28194425,41.25,0.0012195122,-98,169,383,1
209883881,0,73225,-0.22375931,0.36149094,0.27650455,41.25,0.0012195122,-101,166,376,1
209995310,0,73225,-0.21773735,0.3579794,0.26484808,41.25,0.0012195122,-94,165,361,1
210087037,0,73225,-0.22375931,0.38256028,0.27184197,41.25,0.0012195122,-101,172,370,1
