timestamp,x,y,z,yaw,yawspeed,vx,vy,vz,acc_x,acc_y,acc_z,jerk_x,jerk_y,jerk_z,thrust[0],thrust[1],thrust[2]
134456541,nan,nan,nan,-1.1929452,0.0,nan,nan,nan,0.0,0.0,0.0,0.0,0.0,0.0,0.0,0.0,0.0
134476578,nan,nan,nan,-1.1929402,0.0,nan,nan,nan,0.0,0.0,0.0,0.0,0.0,0.0,0.0,0.0,0.0
134576610,nan,nan,nan,-1.192948,0.0,nan,nan,nan,0.0,0.0,0.0,0.0,0.0,0.0,0.0,0.0,0.0
134676764,nan,nan,nan,-1.1929368,0.0,nan,nan,nan,0.0,0.0,0.0,0.0,0.0,0.0,0.0,0.0,0.0
134776779,nan,nan,nan,-1.1928986,0.0,nan,nan,nan,0.0,0.0,0.0,0.0,0.0,0.0,0.0,0.0,0.0
134876837,nan,nan,nan,-1.1928129,0.0,nan,nan,nan,0.0,0.0,0.0,0.0,0.0,0.0,0.0,0.0,0.0
134976965,nan,nan,nan,-1.1927853,0.0,nan,nan,nan,0.0,0.0,0.0,0.0,0.0,0.0,0.0,0.0,0.0
135077041,nan,nan,nan,-1.1929023,0.0,nan,nan,nan,0.0,0.0,0.0,0.0,0.0,0.0,0.0,0.0,0.0
135177599,nan,nan,nan,-1.1930004,0.0,nan,nan,nan,0.0,0.0,0.0,0.0,0.0,0.0,0.0,0.0,0.0
135277704,nan,nan,nan,-1.1930469,0.0,nan,nan,nan,0.0,0.0,0.0,0.0,0.0,0.0,0.0,0.0,0.0
135377754,nan,nan,nan,-1.1931586,0.0,nan,nan,nan,0.0,0.0,0.0,0.0,0.0,0.0,0.0,0.0,0.0
135477580,nan,nan,nan,-1.193223,0.0,nan,nan,nan,0.0,0.0,0.0,0.0,0.0,0.0,0.0,0.0,0.0
135597655,nan,nan,nan,-1.1932057,0.0,nan,nan,nan,0.0,0.0,0.0,0.0,0.0,0.0,0.0,0.0,0.0
135697678,nan,nan,nan,-1.1931877,-0.0,nan,nan,2.2738318,0.0,0.0,0.0,0.0,0.0,0.0,6.6720995e-14,-1.6821445e-13,-0.12
135797754,nan,nan,nan,-1.1931877,-0.0,nan,nan,1.9902831,0.0,0.0,0.0,0.0,0.0,0.0,-1.7240899e-15,4.34671e-15,-0.12
135898945,nan,nan,nan,-1.1931877,-0.0,nan,nan,1.7041107,0.0,0.0,0.0,0.0,0.0,0.0,-5.781567e-17,1.4576267e-16,-0.15040866
135998126,nan,nan,nan,-1.1931877,0.0,nan,nan,1.4230242,0.0,0.0,0.0,0.0,0.0,0.0,-6.2531515e-19,1.5765208e-18,-0.20311415
136098266,nan,nan,nan,-1.1931877,0.0,nan,nan,1.1391836,0.0,0.0,0.0,0.0,0.0,0.0,2.5749586e-20,-6.4918886e-20,-0.25735873
136198341,nan,nan,nan,-1.1931877,-0.0,nan,nan,0.8553148,0.0,0.0,0.0,0.0,0.0,0.0,2.7380308e-21,-6.903019e-21,-0.31228563
136298414,nan,nan,nan,-1.1931877,-0.0,nan,nan,0.5717435,0.0,0.0,0.0,0.0,0.0,0.0,2.7768828e-23,-7.0009727e-23,-0.36827105
136398439,nan,nan,nan,-1.1931877,0.0,nan,nan,0.28849795,0.0,0.0,0.0,0.0,0.0,0.0,-2.6763384e-24,6.747483e-24,-0.42165947
136498471,nan,nan,nan,-1.1931877,0.0,nan,nan,0.0049181357,0.0,0.0,0.0,0.0,0.0,0.0,-5.0968864e-26,1.2850077e-25,-0.47130644
136598595,nan,nan,nan,-1.1931877,0.0,nan,nan,-0.278724,0.0,0.0,0.0,0.0,0.0,0.0,-6.392402e-28,1.6116283e-27,-0.5169255
136698743,nan,nan,nan,-1.1931877,0.0,nan,nan,-0.5622954,0.0,0.0,0.0,0.0,0.0,0.0,3.2691295e-29,-8.242006e-29,-0.523527
136818966,nan,nan,nan,-1.1931877,0.0,nan,nan,-0.9029442,0.0,0.0,0.0,0.0,0.0,0.0,1.3076682e-31,-3.2968436e-31,-0.53271455
136919095,nan,nan,nan,-1.1931877,-0.0,nan,nan,-1.1868243,0.0,0.0,0.0,0.0,0.0,0.0,9.3360715e-33,-2.353775e-32,-0.54138786
137019175,nan,nan,nan,-1.1931877,-0.0,nan,nan,-1.4702625,0.0,0.0,0.0,0.0,0.0,0.0,-3.0490572e-34,7.6871673e-34,-0.5432036
137119186,nan,nan,nan,-1.1931877,0.0,nan,nan,-1.5,0.0,0.0,0.0,0.0,0.0,0.0,-6.620249e-36,1.669072e-35,-0.49422064
137219196,nan,nan,nan,-1.1931877,0.0,nan,nan,-1.5,0.0,0.0,0.0,0.0,0.0,0.0,-1.7287134e-38,4.358367e-38,-0.4743325
137319289,nan,nan,nan,-1.1931877,0.0,nan,nan,-1.5,0.0,0.0,0.0,0.0,0.0,0.0,2.111087e-39,-5.322394e-39,-0.48101965
137419409,nan,nan,nan,-1.1931877,0.0,nan,nan,-1.0997,0.0,0.0,0.0,0.0,0.0,0.0,5.6477e-41,-1.42387e-40,-0.4188571
137519547,nan,nan,nan,-1.1931877,-0.0,nan,nan,-0.62123156,0.0,0.0,0.0,0.0,0.0,0.0,6.75e-43,-1.703e-42,-0.36696672
137619743,nan,nan,nan,-1.1931877,0.0,nan,nan,-0.61135626,0.0,0.0,0.0,0.0,0.0,0.0,-1e-43,2.52e-43,-0.455135
137719798,nan,nan,-1.1181777,-1.1931877,0.0,nan,nan,0.0,0.0,0.0,0.0,0.0,0.0,0.0,-1e-45,3e-45,-0.39306453
137819909,nan,nan,-1.1181777,-1.1931877,0.0,nan,nan,0.026737452,0.0,0.0,0.0,0.0,0.0,0.0,0.0,-0.0,-0.4439837
137919967,nan,nan,-1.1181777,-1.1931877,-0.0,nan,nan,0.024217606,0.0,0.0,0.0,0.0,0.0,0.0,0.0,0.0,-0.48676485
138020014,nan,nan,-1.1181777,-1.1931877,0.0,nan,nan,0.0056141615,0.0,0.0,0.0,0.0,0.0,0.0,0.0,0.0,-0.50264484
138120089,nan,nan,-1.1181777,-1.1931877,0.0,nan,nan,-0.012950659,0.0,0.0,0.0,0.0,0.0,0.0,0.0,0.0,-0.50679344
138240365,nan,nan,-1.1181777,-1.1931877,0.0,nan,nan,-0.035225034,0.0,0.0,0.0,0.0,0.0,0.0,0.0,0.0,-0.50036985
138340416,nan,nan,-1.1181777,-1.1931877,0.0,nan,nan,-0.04229641,0.0,0.0,0.0,0.0,0.0,0.0,0.0,0.0,-0.4879681
139341460,nan,nan,nan,-1.1561252,-0.0,nan,nan,-1.5,0.0,0.0,0.0,0.0,0.0,0.0,0.0,0.0,-0.526292
139461590,nan,nan,nan,-1.1561252,0.0,nan,nan,-1.5,0.0,0.0,0.0,0.0,0.0,0.0,0.0,0.0,-0.50478905
139561982,nan,nan,nan,-1.1561252,0.0,nan,nan,-1.5,0.0,0.0,0.0,0.0,0.0,0.0,0.0,0.0,-0.49467665
139661629,nan,nan,nan,-1.1561252,0.0,nan,nan,-1.5,0.0,0.0,0.0,0.0,0.0,0.0,0.0,0.0,-0.49257624
139762461,nan,nan,nan,-1.1561252,0.0,nan,nan,-1.5,0.0,0.0,0.0,0.0,0.0,0.0,0.0,0.0,-0.5007667
139861826,nan,nan,nan,-1.1561252,0.0,nan,nan,-1.5,0.0,0.0,0.0,0.0,0.0,0.0,0.0,0.0,-0.51246095
139961977,nan,nan,nan,-1.1561252,0.0,nan,nan,-1.5,0.0,0.0,0.0,0.0,0.0,0.0,0.0,0.0,-0.5195476
140062203,nan,nan,nan,-1.1561252,-0.0,nan,nan,-1.5,0.0,0.0,0.0,0.0,0.0,0.0,0.0,0.0,-0.51479095
140162293,nan,nan,nan,-1.1561252,-0.0,nan,nan,-1.5,0.0,0.0,0.0,0.0,0.0,0.0,0.0,0.0,-0.5067238
140262356,nan,nan,nan,-1.1561252,0.0,nan,nan,-1.5,0.0,0.0,0.0,0.0,0.0,0.0,0.0,0.0,-0.51439255
140362395,nan,nan,nan,-1.1561252,0.0,nan,nan,-1.5,0.0,0.0,0.0,0.0,0.0,0.0,0.0,0.0,-0.5211226
140462491,nan,nan,nan,-1.1561252,-0.0,nan,nan,-1.5,0.0,0.0,0.0,0.0,0.0,0.0,0.0,0.0,-0.51858926
140562566,nan,nan,nan,-1.1561252,-0.0,nan,nan,-1.5,0.0,0.0,0.0,0.0,0.0,0.0,0.0,0.0,-0.50816137
140682721,nan,nan,nan,-1.1561252,-0.0,nan,nan,-1.5,0.0,0.0,0.0,0.0,0.0,0.0,0.0,0.0,-0.50826526
140782784,nan,nan,nan,-1.1561252,0.0,nan,nan,-1.5,0.0,0.0,0.0,0.0,0.0,0.0,0.0,0.0,-0.5106887
140882954,nan,nan,nan,-1.1561252,0.0,nan,nan,-1.5,0.0,0.0,0.0,0.0,0.0,0.0,0.0,0.0,-0.5004556
140983067,nan,nan,nan,-1.1561252,0.0,nan,nan,-1.5,0.0,0.0,0.0,0.0,0.0,0.0,0.0,0.0,-0.50085706
141083115,nan,nan,nan,-1.1561252,-0.0,nan,nan,-1.5,0.0,0.0,0.0,0.0,0.0,0.0,0.0,0.0,-0.50751406
141183160,nan,nan,nan,-1.1561252,-0.0,nan,nan,-1.5,0.0,0.0,0.0,0.0,0.0,0.0,0.0,0.0,-0.5124977
141283230,nan,nan,nan,-1.1561252,-0.0,nan,nan,-1.5142542,0.0,0.0,0.0,0.0,0.0,0.0,0.0,0.0,-0.50872934
141383342,nan,nan,nan,-1.1561252,0.0,nan,nan,-1.6509422,0.0,0.0,0.0,0.0,0.0,0.0,0.0,0.0,-0.5246955
141483441,nan,nan,nan,-1.1561252,-0.0,nan,nan,-0.87205875,0.0,0.0,0.0,0.0,0.0,0.0,0.0,0.0,-0.35270438
141583592,nan,nan,nan,-1.1561252,-0.0,nan,nan,0.0,0.0,0.0,0.0,0.0,0.0,0.0,0.0,0.0,-0.23056436
141683965,nan,nan,nan,-1.1561252,-0.0,nan,nan,0.0,0.0,0.0,0.0,0.0,0.0,0.0,0.0,0.0,-0.34139436
141784141,nan,nan,-5.3812695,-1.1561252,-0.0,nan,nan,0.020210743,0.0,0.0,0.0,0.0,0.0,0.0,0.0,0.0,-0.45616832
141904149,nan,nan,-5.3812695,-1.1561252,0.0,nan,nan,-0.0026168823,0.0,0.0,0.0,0.0,0.0,0.0,0.0,0.0,-0.5128146
142004115,nan,nan,-5.3812695,-1.1561252,0.0,nan,nan,-0.024434566,0.0,0.0,0.0,0.0,0.0,0.0,0.0,0.0,-0.52378064
142104138,nan,nan,-5.3812695,-1.1561252,0.0,nan,nan,-0.036774635,0.0,0.0,0.0,0.0,0.0,0.0,0.0,0.0,-0.50304234
142204198,nan,nan,-5.3812695,-1.1561252,-0.0,nan,nan,-0.03618002,0.0,0.0,0.0,0.0,0.0,0.0,0.0,0.0,-0.4834148
142304262,nan,nan,nan,-1.1561252,-0.0,nan,nan,0.13786934,0.0,0.0,0.0,0.0,0.0,0.0,0.0,0.0,-0.4526704
142404992,nan,nan,nan,-1.1561252,0.0,nan,nan,0.73319787,0.0,0.0,0.0,0.0,0.0,0.0,0.0,0.0,-0.37094444
142504690,nan,nan,nan,-1.16543,-0.5446842,nan,nan,0.7313924,0.0,0.0,0.0,0.0,0.0,0.0,0.0,0.0,-0.43883884
142605216,nan,nan,nan,-1.1983215,-0.52232784,nan,nan,0.7276436,0.0,0.0,0.0,0.0,0.0,0.0,0.0,0.0,-0.48938942
142704788,nan,nan,nan,-1.2379375,-0.5436099,nan,nan,0.7231235,0.0,0.0,0.0,0.0,0.0,0.0,0.0,0.0,-0.50076795
142806503,nan,nan,nan,-1.2858675,-0.82033956,nan,nan,0.7181122,0.0,0.0,0.0,0.0,0.0,0.0,0.0,0.0,-0.49707216
142904866,nan,nan,nan,-1.3513217,-0.8131359,nan,nan,0.7138214,0.0,0.0,0.0,0.0,0.0,0.0,0.0,0.0,-0.48716688
143005020,nan,nan,nan,-1.4209678,-0.8128465,nan,nan,0.709736,0.0,0.0,0.0,0.0,0.0,0.0,0.0,0.0,-0.47941026
143105073,nan,nan,nan,-1.4927379,-0.830039,nan,nan,0.70597696,0.0,0.0,0.0,0.0,0.0,0.0,0.0,0.0,-0.48566908
143205324,nan,nan,nan,-1.5673274,-1.0247574,nan,nan,0.70185596,0.0,0.0,0.0,0.0,0.0,0.0,0.0,0.0,-0.49394882
143326530,nan,nan,nan,-1.6794242,-1.369102,nan,nan,0.7,0.0,0.0,0.0,0.0,0.0,0.0,0.0,0.0,-0.49250048
143425533,nan,nan,nan,-1.7959551,-1.7703366,nan,nan,0.7,0.0,0.0,0.0,0.0,0.0,0.0,0.0,0.0,-0.48379046
143525556,nan,nan,nan,-1.9341033,-1.2374151,nan,nan,0.7,0.0,0.0,0.0,0.0,0.0,0.0,0.0,0.0,-0.47641736
143625582,nan,nan,nan,-2.0518875,-0.28825024,nan,nan,0.7,0.0,0.0,0.0,0.0,0.0,0.0,0.0,0.0,-0.4779803
143726369,nan,nan,nan,-2.071082,0.0,nan,nan,0.7,0.0,0.0,0.0,0.0,0.0,0.0,0.0,0.0,-0.475955
143825788,nan,nan,nan,-2.071082,0.0,nan,nan,0.0,0.0,0.0,0.0,0.0,0.0,0.0,0.0,0.0,-0.619048
143926475,nan,nan,-4.455764,-2.071082,-0.0,nan,nan,-0.029889107,0.0,0.0,0.0,0.0,0.0,0.0,0.0,0.0,-0.5535714
144026153,nan,nan,-4.455764,-2.071082,-0.0,nan,nan,-0.03700924,0.0,0.0,0.0,0.0,0.0,0.0,0.0,0.0,-0.496146
144127023,nan,nan,-4.455764,-2.071082,0.0,nan,nan,-0.024416924,0.0,0.0,0.0,0.0,0.0,0.0,0.0,0.0,-0.4713997
144226348,nan,nan,-4.455764,-2.071082,0.0,nan,nan,-0.014647961,0.0,0.0,0.0,0.0,0.0,0.0,0.0,0.0,-0.48353338
144326389,nan,nan,-4.455764,-2.071082,0.0,nan,nan,-0.008705139,0.0,0.0,0.0,0.0,0.0,0.0,0.0,0.0,-0.49684438
144426426,nan,nan,-4.4472413,-2.071082,-0.0,nan,nan,-0.00079631805,0.0,0.0,0.0,0.0,0.0,0.0,0.0,0.0,-0.51272327
144546530,nan,nan,-4.4472413,-2.071082,0.0,nan,nan,-0.011075497,0.0,0.0,0.0,0.0,0.0,0.0,0.0,0.0,-0.5147493
144646609,nan,nan,-4.4472413,-2.071082,-0.0,nan,nan,-0.0137553215,0.0,0.0,0.0,0.0,0.0,0.0,0.0,0.0,-0.49854225
144746781,nan,nan,-4.4472413,-2.071082,-0.0,nan,nan,-0.013879776,0.0,0.0,0.0,0.0,0.0,0.0,0.0,0.0,-0.49331245
144847185,nan,nan,nan,-2.071082,-0.0,nan,nan,0.25657883,0.0,0.0,0.0,0.0,0.0,0.0,0.0,0.0,-0.4411855
144947371,nan,nan,nan,-2.071082,0.0,nan,nan,0.7,0.0,0.0,0.0,0.0,0.0,0.0,0.0,0.0,-0.3764481
145047455,nan,nan,nan,-2.071082,0.0,nan,nan,0.7,0.0,0.0,0.0,0.0,0.0,0.0,0.0,0.0,-0.44925934
145147421,nan,nan,nan,-2.071082,-0.0,nan,nan,0.7,0.0,0.0,0.0,0.0,0.0,0.0,0.0,0.0,-0.50569254
145247413,nan,nan,nan,-2.071082,-0.0,nan,nan,0.7,0.0,0.0,0.0,0.0,0.0,0.0,0.0,0.0,-0.5202886
145347429,nan,nan,nan,-2.071082,-0.0,nan,nan,0.7,0.0,0.0,0.0,0.0,0.0,0.0,0.0,0.0,-0.511341
145447601,nan,nan,nan,-2.071082,-0.0,nan,nan,0.7,0.0,0.0,0.0,0.0,0.0,0.0,0.0,0.0,-0.49287528
145547617,nan,nan,nan,-2.071082,-0.0,nan,nan,0.7,0.0,0.0,0.0,0.0,0.0,0.0,0.0,0.0,-0.48853052
145647795,nan,nan,nan,-2.071082,-0.0,nan,nan,0.7,0.0,0.0,0.0,0.0,0.0,0.0,0.0,0.0,-0.49787906
145749670,nan,nan,nan,-2.071082,-0.0,nan,nan,0.7,0.0,0.0,0.0,0.0,0.0,0.0,0.0,0.0,-0.50502056
145848004,nan,nan,nan,-2.071082,-0.0,nan,nan,0.7,0.0,0.0,0.0,0.0,0.0,0.0,0.0,0.0,-0.5019573
145967994,nan,nan,nan,-2.071082,-0.0,nan,nan,0.7,0.0,0.0,0.0,0.0,0.0,0.0,0.0,0.0,-0.49619853
146069696,nan,nan,nan,-2.071082,-0.0,nan,nan,0.7,0.0,0.0,0.0,0.0,0.0,0.0,0.0,0.0,-0.49302173
146168132,nan,nan,nan,-2.071082,-0.0,nan,nan,0.7,0.0,0.0,0.0,0.0,0.0,0.0,0.0,0.0,-0.48658356
146268637,nan,nan,nan,-2.071082,-0.0,nan,nan,0.7,0.0,0.0,0.0,0.0,0.0,0.0,0.0,0.0,-0.48589253
146368432,nan,nan,nan,-2.071082,-0.0,nan,nan,0.7,0.0,0.0,0.0,0.0,0.0,0.0,0.0,0.0,-0.48630062
146468827,nan,nan,nan,-2.071082,-0.0,nan,nan,0.7,0.0,0.0,0.0,0.0,0.0,0.0,0.0,0.0,-0.48912415
146568698,nan,nan,nan,-2.071082,-0.0,nan,nan,0.7,0.0,0.0,0.0,0.0,0.0,0.0,0.0,0.0,-0.48891166
146668785,nan,nan,nan,-2.071082,-0.0,nan,nan,0.7,0.0,0.0,0.0,0.0,0.0,0.0,0.0,0.0,-0.4852882
146768796,nan,nan,nan,-2.071082,-0.0,nan,nan,0.7,0.0,0.0,0.0,0.0,0.0,0.0,0.0,0.0,-0.48481578
146868827,nan,nan,nan,-2.071082,0.0,nan,nan,0.0,0.0,0.0,0.0,0.0,0.0,0.0,0.0,0.0,-0.6116769
146968960,nan,nan,-3.015751,-2.071082,0.0,nan,nan,-0.030892134,0.0,0.0,0.0,0.0,0.0,0.0,0.0,0.0,-0.54058385
147069040,nan,nan,nan,-2.071082,0.0,nan,nan,-0.4521021,0.0,0.0,0.0,0.0,0.0,0.0,0.0,0.0,-0.56070864
147189295,nan,nan,nan,-2.071082,0.0,nan,nan,-1.5,0.0,0.0,0.0,0.0,0.0,0.0,0.0,0.0,-0.6765799
147289513,nan,nan,nan,-2.071082,0.0,nan,nan,-1.5,0.0,0.0,0.0,0.0,0.0,0.0,0.0,0.0,-0.5262299
147389501,nan,nan,nan,-2.071082,0.0,nan,nan,-1.5,0.0,0.0,0.0,0.0,0.0,0.0,0.0,0.0,-0.4565435
147489558,nan,nan,nan,-2.071082,-0.0,nan,nan,-1.5,0.0,0.0,0.0,0.0,0.0,0.0,0.0,0.0,-0.47308648
147589621,nan,nan,nan,-2.071082,0.0,nan,nan,-1.5,0.0,0.0,0.0,0.0,0.0,0.0,0.0,0.0,-0.50131565
147689642,nan,nan,nan,-2.071082,0.0,nan,nan,-1.5,0.0,0.0,0.0,0.0,0.0,0.0,0.0,0.0,-0.5176065
147789778,nan,nan,nan,-2.071082,0.0,nan,nan,-1.5,0.0,0.0,0.0,0.0,0.0,0.0,0.0,0.0,-0.51118636
147889927,nan,nan,nan,-2.071082,0.0,nan,nan,-1.5,0.0,0.0,0.0,0.0,0.0,0.0,0.0,0.0,-0.50699544
147990078,nan,nan,nan,-2.071082,0.0,nan,nan,-1.5,0.0,0.0,0.0,0.0,0.0,0.0,0.0,0.0,-0.5123442
148090178,nan,nan,nan,-2.071082,0.0,nan,nan,-1.5,0.0,0.0,0.0,0.0,0.0,0.0,0.0,0.0,-0.50779927
148190267,nan,nan,nan,-2.071082,0.0,nan,nan,-1.5,0.0,0.0,0.0,0.0,0.0,0.0,0.0,0.0,-0.49867874
148290317,nan,nan,nan,-2.071082,0.0,nan,nan,-1.5,0.0,0.0,0.0,0.0,0.0,0.0,0.0,0.0,-0.5041912
148410406,nan,nan,nan,-2.071082,0.0,nan,nan,-1.5,0.0,0.0,0.0,0.0,0.0,0.0,0.0,0.0,-0.5069459
148510456,nan,nan,nan,-2.071082,0.0,nan,nan,-1.5934068,0.0,0.0,0.0,0.0,0.0,0.0,0.0,0.0,-0.5297524
148610563,nan,nan,nan,-2.071082,0.0,nan,nan,-1.7163752,0.0,0.0,0.0,0.0,0.0,0.0,0.0,0.0,-0.55141145
148710720,nan,nan,nan,-2.071082,0.0,nan,nan,-1.865655,0.0,0.0,0.0,0.0,0.0,0.0,0.0,0.0,-0.53386426
148810808,nan,nan,nan,-2.071082,0.0,nan,nan,-2.0258994,0.0,0.0,0.0,0.0,0.0,0.0,0.0,0.0,-0.534128
148911346,nan,nan,nan,-2.071082,0.0,nan,nan,-2.208324,0.0,0.0,0.0,0.0,0.0,0.0,0.0,0.0,-0.5514102
149011175,nan,nan,nan,-2.071082,0.0,nan,nan,-2.3949547,0.0,0.0,0.0,0.0,0.0,0.0,0.0,0.0,-0.55646855
149111638,nan,nan,nan,-2.071082,0.0,nan,nan,-2.6018956,0.0,0.0,0.0,0.0,0.0,0.0,0.0,0.0,-0.55798113
149211342,nan,nan,nan,-2.071082,0.0,nan,nan,-2.8128717,0.0,0.0,0.0,0.0,0.0,0.0,0.0,0.0,-0.5675064
149311704,nan,nan,nan,-2.071082,0.0,nan,nan,-3.0564892,0.0,0.0,0.0,0.0,0.0,0.0,0.0,0.0,-0.56284225
149411429,nan,nan,nan,-2.071082,0.0,nan,nan,-3.2997952,0.0,0.0,0.0,0.0,0.0,0.0,0.0,0.0,-0.57085073
149511562,nan,nan,nan,-2.071082,0.0,nan,nan,-3.578044,0.0,0.0,0.0,0.0,0.0,0.0,0.0,0.0,-0.58971703
149631744,nan,nan,nan,-2.071082,0.0,nan,nan,-3.9256737,0.0,0.0,0.0,0.0,0.0,0.0,0.0,0.0,-0.59386927
149731828,nan,nan,nan,-2.071082,0.0,nan,nan,-4.2361193,0.0,0.0,0.0,0.0,0.0,0.0,0.0,0.0,-0.6028516
149831913,nan,nan,nan,-2.071082,0.0,nan,nan,-4.5984645,0.0,0.0,0.0,0.0,0.0,0.0,0.0,0.0,-0.6142584
149932017,nan,nan,nan,-2.071082,0.0,nan,nan,-4.9547253,0.0,0.0,0.0,0.0,0.0,0.0,0.0,0.0,-0.6425971
150031999,nan,nan,nan,-2.071082,0.0,nan,nan,-5.3692865,0.0,0.0,0.0,0.0,0.0,0.0,0.0,0.0,-0.65519273
150132076,nan,nan,nan,-2.071082,0.0,nan,nan,-5.7816944,0.0,0.0,0.0,0.0,0.0,0.0,0.0,0.0,-0.666794
150232215,nan,nan,nan,-2.071082,0.0,nan,nan,-6.0,0.0,0.0,0.0,0.0,0.0,0.0,0.0,0.0,-0.6127209
150332550,nan,nan,nan,-2.071082,0.0,nan,nan,-6.0,0.0,0.0,0.0,0.0,0.0,0.0,0.0,0.0,-0.56915426
150432571,nan,nan,nan,-2.071082,0.0,nan,nan,-5.999453,0.0,0.0,0.0,0.0,0.0,0.0,0.0,0.0,-0.58095115
150532658,nan,nan,nan,-2.071082,0.0,nan,nan,-5.9999046,0.0,0.0,0.0,0.0,0.0,0.0,0.0,0.0,-0.5846472
150632719,nan,nan,nan,-2.071082,-0.0,nan,nan,-5.999999,0.0,0.0,0.0,0.0,0.0,0.0,0.0,0.0,-0.5842263
150732730,nan,nan,nan,-2.071082,-0.0,nan,nan,-6.0,0.0,0.0,0.0,0.0,0.0,0.0,0.0,0.0,-0.586656
150832839,nan,nan,nan,-2.071082,-0.0,nan,nan,-6.0,0.0,0.0,0.0,0.0,0.0,0.0,0.0,0.0,-0.58902407
150932911,nan,nan,nan,-2.071082,0.0,nan,nan,-6.0,0.0,0.0,0.0,0.0,0.0,0.0,0.0,0.0,-0.58627367
151052990,nan,nan,nan,-2.071082,0.0,nan,nan,-6.0,0.0,0.0,0.0,0.0,0.0,0.0,0.0,0.0,-0.5935711
151153214,nan,nan,nan,-2.071082,0.0,nan,nan,-6.0,0.0,0.0,0.0,0.0,0.0,0.0,0.0,0.0,-0.5818544
151253366,nan,nan,nan,-2.071082,-0.0,nan,nan,-6.0,0.0,0.0,0.0,0.0,0.0,0.0,0.0,0.0,-0.59237313
151353398,nan,nan,nan,-2.071082,-0.0,nan,nan,-6.0,0.0,0.0,0.0,0.0,0.0,0.0,0.0,0.0,-0.596394
151453543,nan,nan,nan,-2.071082,-0.0,nan,nan,-6.0,0.0,0.0,0.0,0.0,0.0,0.0,0.0,0.0,-0.6040499
151553546,nan,nan,nan,-2.071082,0.0,nan,nan,-5.9858823,0.0,0.0,0.0,0.0,0.0,0.0,0.0,0.0,-0.593595
151653602,nan,nan,nan,-2.071082,0.0,nan,nan,-5.9202514,0.0,0.0,0.0,0.0,0.0,0.0,0.0,0.0,-0.577694
151753783,nan,nan,nan,-2.071082,-0.0,nan,nan,-4.9184413,0.0,0.0,0.0,0.0,0.0,0.0,0.0,0.0,-0.39584184
151853792,nan,nan,nan,-2.071082,-0.0,nan,nan,-3.9183512,0.0,0.0,0.0,0.0,0.0,0.0,0.0,0.0,-0.2904988
151953975,nan,nan,nan,-2.071082,-0.0,nan,nan,-2.917251,0.0,0.0,0.0,0.0,0.0,0.0,0.0,0.0,-0.24045056
152054389,nan,nan,nan,-2.071082,0.0,nan,nan,-1.912401,0.0,0.0,0.0,0.0,0.0,0.0,0.0,0.0,-0.20026565
152154486,nan,nan,nan,-2.071082,0.0,nan,nan,-0.911921,0.0,0.0,0.0,0.0,0.0,0.0,0.0,0.0,-0.18074971
152254606,nan,nan,nan,-2.071082,-0.0,nan,nan,0.0,0.0,0.0,0.0,0.0,0.0,0.0,0.0,0.0,-0.13296008
152354557,nan,nan,nan,-2.071082,-0.0,nan,nan,0.0,0.0,0.0,0.0,0.0,0.0,0.0,0.0,0.0,-0.31722307
152474523,nan,nan,-20.486557,-2.071082,-0.0,nan,nan,0.010480881,0.0,0.0,0.0,0.0,0.0,0.0,0.0,0.0,-0.47898245
152574585,nan,nan,-20.486557,-2.071082,-0.0,nan,nan,-0.0060329437,0.0,0.0,0.0,0.0,0.0,0.0,0.0,0.0,-0.52172005
152674756,nan,nan,-20.486557,-2.071082,0.0,nan,nan,-0.020816803,0.0,0.0,0.0,0.0,0.0,0.0,0.0,0.0,-0.52499086
152774785,nan,nan,nan,-2.071082,-0.0,nan,nan,-0.98027045,0.0,0.0,0.0,0.0,0.0,0.0,0.0,0.0,-0.7267384
152874958,nan,nan,nan,-2.071082,0.0,nan,nan,-0.13654862,0.0,0.0,0.0,0.0,0.0,0.0,0.0,0.0,-0.41043133
152975758,nan,nan,nan,-2.071082,0.0,nan,nan,0.0,0.0,0.0,0.0,0.0,0.0,0.0,0.0,0.0,-0.35361683
153075167,nan,nan,-20.661455,-2.071082,-0.0,nan,nan,0.026439667,0.0,0.0,0.0,0.0,0.0,0.0,0.0,0.0,-0.41364837
153175759,nan,nan,-20.661455,-2.071082,-0.0,nan,nan,0.067352295,0.0,0.0,0.0,0.0,0.0,0.0,0.0,0.0,-0.48260504
153275384,nan,nan,-20.661455,-2.071082,-0.0,nan,nan,0.07593346,0.0,0.0,0.0,0.0,0.0,0.0,0.0,0.0,-0.5115324
153375344,nan,nan,-20.661455,-2.071082,0.0,nan,nan,0.07375145,0.0,0.0,0.0,0.0,0.0,0.0,0.0,0.0,-0.52344185
153475417,nan,nan,-20.661455,-2.071082,0.0,nan,nan,0.07063103,0.0,0.0,0.0,0.0,0.0,0.0,0.0,0.0,-0.5112569
153575707,nan,nan,-20.661455,-2.071082,0.0,nan,nan,0.077430725,0.0,0.0,0.0,0.0,0.0,0.0,0.0,0.0,-0.49567762
153675761,nan,nan,-20.661455,-2.071082,-0.0,nan,nan,0.08603287,0.0,0.0,0.0,0.0,0.0,0.0,0.0,0.0,-0.48832768
153775843,nan,nan,-20.661455,-2.071082,-0.0,nan,nan,0.09460449,0.0,0.0,0.0,0.0,0.0,0.0,0.0,0.0,-0.50066143
153895994,nan,nan,-20.661455,-2.071082,-0.0,nan,nan,0.09385109,0.0,0.0,0.0,0.0,0.0,0.0,0.0,0.0,-0.5104312
153996004,nan,nan,-20.661455,-2.071082,0.0,nan,nan,0.09293175,0.0,0.0,0.0,0.0,0.0,0.0,0.0,0.0,-0.5040338
154096038,nan,nan,-20.661455,-2.071082,0.0,nan,nan,0.09386635,0.0,0.0,0.0,0.0,0.0,0.0,0.0,0.0,-0.5042535
154196139,nan,nan,-20.661455,-2.071082,0.0,nan,nan,0.09362793,0.0,0.0,0.0,0.0,0.0,0.0,0.0,0.0,-0.51402414
154296241,nan,nan,-20.661455,-2.071082,-0.0,nan,nan,0.090501785,0.0,0.0,0.0,0.0,0.0,0.0,0.0,0.0,-0.5201384
154396482,nan,nan,-20.661455,-2.071082,-0.0,nan,nan,0.083566666,0.0,0.0,0.0,0.0,0.0,0.0,0.0,0.0,-0.5211205
154496591,nan,nan,-20.661455,-2.071082,-0.0,nan,nan,0.08164978,0.0,0.0,0.0,0.0,0.0,0.0,0.0,0.0,-0.5203319
154596622,nan,nan,-20.661455,-2.071082,0.0,nan,nan,0.0822773,0.0,0.0,0.0,0.0,0.0,0.0,0.0,0.0,-0.5200619
154696704,nan,nan,-20.661455,-2.071082,0.0,nan,nan,0.078125,0.0,0.0,0.0,0.0,0.0,0.0,0.0014119777,-0.000771891,-0.52127457
154796817,nan,nan,-20.661455,-2.071082,0.0,nan,nan,0.069633484,0.0,0.0,0.0,0.0,0.0,0.0,-0.0068729375,-0.012554783,-0.51949936
154896844,nan,nan,-20.661455,-2.071082,-0.0,nan,nan,0.06754112,0.0,0.0,0.0,0.0,0.0,0.0,-0.053533558,-0.097923614,-0.5086803
154996945,nan,nan,-20.661455,-2.071082,-0.0,nan,nan,0.075078964,0.0,0.0,0.0,0.0,0.0,0.0,-0.097122826,-0.17766142,-0.48970792
155097151,nan,nan,-20.661455,-2.071082,-0.0,nan,nan,0.090400696,0.0,0.0,0.0,0.0,0.0,0.0,-0.09465642,-0.17314978,-0.47629467
155197549,nan,nan,-20.661455,-2.071082,0.0,nan,nan,0.10681915,0.0,0.0,0.0,0.0,0.0,0.0,-0.0966538,-0.17680348,-0.47401568
155297763,nan,nan,-20.661455,-2.071082,0.0,nan,nan,0.121608734,0.0,0.0,0.0,0.0,0.0,0.0,-0.037044946,-0.07833585,-0.4763078
155417737,nan,nan,-20.661455,-2.071082,0.0,nan,nan,0.13370895,0.0,0.0,0.0,0.0,0.0,0.0,0.19766045,-0.10601382,-0.49569368
155517744,nan,nan,-20.661455,-2.071082,0.0,nan,nan,0.14504623,0.0,0.0,0.0,0.0,0.0,0.0,0.29064113,-0.15536468,-0.47125322
155617799,nan,nan,-20.661455,-2.071082,0.0,nan,nan,0.17571259,0.0,0.0,0.0,0.0,0.0,0.0,0.25694615,-0.13810925,-0.41668832
155717773,nan,nan,-20.661455,-2.071082,0.0,nan,nan,0.22775269,0.0,0.0,0.0,0.0,0.0,0.0,0.24980737,-0.13421974,-0.4049968
155817811,nan,nan,-20.661455,-2.071082,0.0,nan,nan,0.2648697,0.0,0.0,0.0,0.0,0.0,0.0,0.26895502,-0.136891,-0.43099782
155917863,nan,nan,-20.661455,-2.071082,0.0,nan,nan,0.29006577,0.0,0.0,0.0,0.0,0.0,0.0,0.2694114,-0.14751118,-0.45389006
156020725,nan,nan,-20.661455,-2.071082,0.0,nan,nan,0.30550957,0.0,0.0,0.0,0.0,0.0,0.0,0.26909345,-0.14711319,-0.4602705
156118216,nan,nan,-20.661455,-2.071082,0.0,nan,nan,0.31798744,0.0,0.0,0.0,0.0,0.0,0.0,0.01721069,-0.009408756,-0.45260373
156220055,nan,nan,-20.661455,-2.071082,0.0,nan,nan,0.32641792,0.0,0.0,0.0,0.0,0.0,0.0,-0.019052347,0.010415413,-0.46713117
156338599,nan,nan,-20.661455,-2.071082,0.0,nan,nan,0.329525,0.0,0.0,0.0,0.0,0.0,0.0,0.0132387085,0.02240735,-0.45813864
156438401,nan,nan,-20.661455,-2.071082,0.0,nan,nan,0.33367538,0.0,0.0,0.0,0.0,0.0,0.0,0.07396787,0.09697237,-0.4751651
156539010,nan,nan,-20.661455,-2.071082,0.0,nan,nan,0.33364677,0.0,0.0,0.0,0.0,0.0,0.0,0.19319871,0.23521413,-0.48489267
156638577,nan,nan,-20.661455,-2.071082,0.0,nan,nan,0.34545708,0.0,0.0,0.0,0.0,0.0,0.0,0.16162361,0.19339447,-0.43177405
156738929,nan,nan,-20.661455,-2.071082,0.0,nan,nan,0.37645912,0.0,0.0,0.0,0.0,0.0,0.0,0.167122,0.20828386,-0.40954518
156838978,nan,nan,-20.661455,-2.071082,0.0,nan,nan,0.4024105,0.0,0.0,0.0,0.0,0.0,0.0,0.118252136,0.17879613,-0.41893184
156939127,nan,nan,-20.661455,-2.071082,0.0,nan,nan,0.41918182,0.0,0.0,0.0,0.0,0.0,0.0,0.097006656,0.1711948,-0.4452241
157039155,nan,nan,-20.661455,-2.071082,0.0,nan,nan,0.41669655,0.0,0.0,0.0,0.0,0.0,0.0,-0.0014293742,-0.0027783443,-0.4570367
157140148,nan,nan,-20.661455,-2.071082,0.0,nan,nan,0.4182186,0.0,0.0,0.0,0.0,0.0,0.0,0.10202758,-0.057236165,-0.4456498
157239280,nan,nan,-20.661455,-2.071082,0.0,nan,nan,0.42321396,0.0,0.0,0.0,0.0,0.0,0.0,0.23522216,-0.12880097,-0.43297642
157339338,nan,nan,-20.661455,-2.071082,0.0,nan,nan,0.43442917,0.0,0.0,0.0,0.0,0.0,0.0,0.24963741,-0.157915,-0.42186242
157439491,nan,nan,-20.661455,-2.071082,0.0,nan,nan,0.45129204,0.0,0.0,0.0,0.0,0.0,0.0,0.2557845,-0.15399648,-0.426394
157559560,nan,nan,-20.661455,-2.071082,0.0,nan,nan,0.4610138,0.0,0.0,0.0,0.0,0.0,0.0,0.2724943,-0.14887986,-0.44345862
157660006,nan,nan,-20.661455,-2.071082,0.0,nan,nan,0.4575615,0.0,0.0,0.0,0.0,0.0,0.0,0.27283266,-0.14913984,-0.44406068
157760160,nan,nan,-20.661455,-2.071082,0.0,nan,nan,0.45028687,0.0,0.0,0.0,0.0,0.0,0.0,0.26497865,-0.14485672,-0.4491354
157860128,nan,nan,-20.661455,-2.071082,0.0,nan,nan,0.44013405,0.0,0.0,0.0,0.0,0.0,0.0,0.06505501,-0.03556386,-0.45939907
157960152,nan,nan,-20.661455,-2.071082,0.0,nan,nan,0.42211533,0.0,0.0,0.0,0.0,0.0,0.0,-0.00074468815,0.0004071012,-0.481917
158060164,nan,nan,-20.661455,-2.071082,0.0,nan,nan,0.38962173,0.0,0.0,0.0,0.0,0.0,0.0,-9.362278e-05,5.1181105e-05,-0.49212423
158160112,nan,nan,-20.661455,-2.071082,0.0,nan,nan,0.36358833,0.0,0.0,0.0,0.0,0.0,0.0,-9.137681e-07,4.995329e-07,-0.4905397
158260215,nan,nan,-20.661455,-2.071082,0.0,nan,nan,0.34420776,0.0,0.0,0.0,0.0,0.0,0.0,6.0976994e-08,-3.3334512e-08,-0.48392078
158360380,nan,nan,-20.661455,-2.071082,0.0,nan,nan,0.33942604,0.0,0.0,0.0,0.0,0.0,0.0,6.0741184e-10,-3.3205613e-10,-0.47662672
158460732,nan,nan,-20.661455,-2.071082,0.0,nan,nan,0.34432602,0.0,0.0,0.0,0.0,0.0,0.0,-1.4184197e-11,7.754124e-12,-0.48210913
158560925,nan,nan,-20.661455,-2.071082,0.0,nan,nan,0.35091972,0.0,0.0,0.0,0.0,0.0,0.0,-0.017946778,0.009811031,-0.47826988
158660949,nan,nan,-20.661455,-2.071082,0.0,nan,nan,0.36249733,0.0,0.0,0.0,0.0,0.0,0.0,-0.09622404,0.05260314,-0.4713815
158780920,nan,nan,-20.661455,-2.071082,0.0,nan,nan,0.3766861,0.0,0.0,0.0,0.0,0.0,0.0,-0.10851087,0.05932002,-0.45659113
158880903,nan,nan,-20.661455,-2.071082,0.0,nan,nan,0.3912182,0.0,0.0,0.0,0.0,0.0,0.0,-0.10916904,0.059679836,-0.44793326
158981029,nan,nan,-20.661455,-2.071082,0.0,nan,nan,0.40902328,0.0,0.0,0.0,0.0,0.0,0.0,-0.108698085,0.059422377,-0.44938365
159081054,nan,nan,-20.661455,-2.071082,0.0,nan,nan,0.41781616,0.0,0.0,0.0,0.0,0.0,0.0,-0.11155197,0.06098252,-0.4606186
159181438,nan,nan,-20.661455,-2.071082,0.0,nan,nan,0.40491104,0.0,0.0,0.0,0.0,0.0,0.0,-0.116392486,0.0636287,-0.48059943
159281678,nan,nan,-20.661455,-2.071082,0.0,nan,nan,0.37357903,0.0,0.0,0.0,0.0,0.0,0.0,-0.11656824,0.06372477,-0.49279064
159381427,nan,nan,-20.661455,-2.071082,0.0,nan,nan,0.33657265,0.0,0.0,0.0,0.0,0.0,0.0,-0.107972376,0.05902565,-0.49588895
159482177,nan,nan,-20.661455,-2.071082,0.0,nan,nan,0.2946186,0.0,0.0,0.0,0.0,0.0,0.0,-0.101743385,0.055620424,-0.49653125
159581588,nan,nan,-20.661455,-2.071082,0.0,nan,nan,0.24931908,0.0,0.0,0.0,0.0,0.0,0.0,-0.09885149,0.0540395,-0.49909338
159681979,nan,nan,-20.661455,-2.071082,0.0,nan,nan,0.19782257,0.0,0.0,0.0,0.0,0.0,0.0,-0.07727188,0.042242497,-0.5021198
159781771,nan,nan,-20.661455,-2.071082,0.0,nan,nan,0.15016747,0.0,0.0,0.0,0.0,0.0,0.0,-0.0054556117,0.002982439,-0.5045833
159901865,nan,nan,-20.661455,-2.071082,0.0,nan,nan,0.085739136,0.0,0.0,0.0,0.0,0.0,0.0,1.4698249e-05,-8.035146e-06,-0.5134049
160002019,nan,nan,-20.661455,-2.071082,0.0,nan,nan,0.027812958,0.0,0.0,0.0,0.0,0.0,0.0,-7.5657874e-07,4.1360164e-07,-0.51918685
160102183,nan,nan,-20.661455,-2.071082,0.0,nan,nan,-0.022514343,0.0,0.0,0.0,0.0,0.0,0.0,-5.6142415e-08,3.0691574e-08,-0.51621044
160923342,nan,nan,nan,-2.071082,0.0,nan,nan,1.0,0.0,0.0,0.0,0.0,0.0,0.0,-7.2831213e-22,3.98149e-22,-0.50556856
161023110,nan,nan,nan,-2.071082,0.0,nan,nan,0.99999845,0.0,0.0,0.0,0.0,0.0,0.0,8.990052e-23,-4.914624e-23,-0.5168995
161123191,nan,nan,nan,-2.071082,0.0,nan,nan,0.99999994,0.0,0.0,0.0,0.0,0.0,0.0,1.3980174e-24,-7.6425924e-25,-0.5108446
161223189,nan,nan,nan,-2.071082,0.0,nan,nan,1.0,0.0,0.0,0.0,0.0,0.0,0.0,1.3890429e-26,-7.593531e-27,-0.50576484
161323326,nan,nan,nan,-2.071082,0.0,nan,nan,1.0,0.0,0.0,0.0,0.0,0.0,0.0,-4.846169e-30,2.6492726e-30,-0.49643576
161443413,nan,nan,nan,-2.071082,0.0,nan,nan,1.0,0.0,0.0,0.0,0.0,0.0,0.0,-4.047882e-30,2.2128704e-30,-0.49464267
161543563,nan,nan,nan,-2.071082,0.0,nan,nan,1.0,0.0,0.0,0.0,0.0,0.0,0.0,-1.1361594e-31,6.2110835e-32,-0.49604315
161643759,nan,nan,nan,-2.071082,0.0,nan,nan,1.0,0.0,0.0,0.0,0.0,0.0,0.0,-1.1271593e-33,6.161882e-34,-0.49532384
161743810,nan,nan,nan,-2.071082,0.0,nan,nan,1.0,0.0,0.0,0.0,0.0,0.0,0.0,1.8077053e-34,-9.882247e-35,-0.49772012
161844119,nan,nan,nan,-2.071082,0.0,nan,nan,1.0,0.0,0.0,0.0,0.0,0.0,0.0,0.006940667,-0.0037942796,-0.50164425
161944175,nan,nan,nan,-2.071082,0.0,nan,nan,1.0,0.0,0.0,0.0,0.0,0.0,0.0,0.0069381716,-0.003792915,-0.50166607
162044157,nan,nan,nan,-2.071082,0.0,nan,nan,1.0,0.0,0.0,0.0,0.0,0.0,0.0,0.0054189805,0.0037145673,-0.50634897
162144134,nan,nan,nan,-2.071082,0.0,nan,nan,1.0,0.0,0.0,0.0,0.0,0.0,0.0,0.026362048,0.01207015,-0.5126856
162244243,nan,nan,nan,-2.071082,0.0,nan,nan,1.0,0.0,0.0,0.0,0.0,0.0,0.0,0.030311918,0.020804994,-0.50529903
162344364,nan,nan,nan,-2.071082,0.0,nan,nan,1.0,0.0,0.0,0.0,0.0,0.0,0.0,0.028368885,0.018864632,-0.49661314
162465151,nan,nan,nan,-2.071082,0.0,nan,nan,1.0,0.0,0.0,0.0,0.0,0.0,0.0,0.0348124,-0.004525332,-0.48588654
162564878,nan,nan,nan,-2.071082,0.0,nan,nan,1.0,0.0,0.0,0.0,0.0,0.0,0.0,0.06100184,-0.033427853,-0.48959368
162665167,nan,nan,nan,-2.071082,0.0,nan,nan,1.0,0.0,0.0,0.0,0.0,0.0,0.0,0.05709084,-0.030106073,-0.49792084
162764786,nan,nan,nan,-2.071082,0.0,nan,nan,1.0,0.0,0.0,0.0,0.0,0.0,0.0,0.05300247,-0.02899525,-0.49712864
162865006,nan,nan,nan,-2.071082,0.0,nan,nan,1.0,0.0,0.0,0.0,0.0,0.0,0.0,0.06574506,-0.035941668,-0.49616078
162964905,nan,nan,nan,-2.071082,0.0,nan,nan,1.0,0.0,0.0,0.0,0.0,0.0,0.0,0.07451652,-0.04073622,-0.49725595
163065004,nan,nan,nan,-2.071082,0.0,nan,nan,1.0,0.0,0.0,0.0,0.0,0.0,0.0,0.089164734,-0.048744004,-0.49876896
163165296,nan,nan,nan,-2.071082,0.0,nan,nan,1.0,0.0,0.0,0.0,0.0,0.0,0.0,0.0728374,-0.03981828,-0.49385673
163265448,nan,nan,nan,-2.071082,0.0,nan,nan,1.0,0.0,0.0,0.0,0.0,0.0,0.0,0.070678875,-0.038638275,-0.49465835
163365447,nan,nan,nan,-2.071082,0.0,nan,nan,1.0,0.0,0.0,0.0,0.0,0.0,0.0,0.070579045,-0.0385837,-0.50206846
163465528,nan,nan,nan,-2.071082,0.0,nan,nan,1.0,0.0,0.0,0.0,0.0,0.0,0.0,0.05254866,-0.024742203,-0.50018656
163565571,nan,nan,nan,-2.071082,0.0,nan,nan,1.0,0.0,0.0,0.0,0.0,0.0,0.0,0.052474096,-0.009632626,-0.49498752
163685700,nan,nan,nan,-2.071082,0.0,nan,nan,1.0,0.0,0.0,0.0,0.0,0.0,0.0,0.047605712,0.016739357,-0.4938
163785765,nan,nan,nan,-2.071082,0.0,nan,nan,1.0,0.0,0.0,0.0,0.0,0.0,0.0,0.042148445,0.010986516,-0.5025795
163885827,nan,nan,nan,-2.071082,0.0,nan,nan,1.0,0.0,0.0,0.0,0.0,0.0,0.0,0.03136493,0.012625581,-0.49111143
163985990,nan,nan,nan,-2.071082,0.0,nan,nan,1.0,0.0,0.0,0.0,0.0,0.0,0.0,0.029534506,0.015711082,-0.4937272
164086291,nan,nan,nan,-2.071082,0.0,nan,nan,1.0,0.0,0.0,0.0,0.0,0.0,0.0,0.029755898,0.0111808535,-0.49370867
164186251,nan,nan,nan,-2.071082,0.0,nan,nan,1.0,0.0,0.0,0.0,0.0,0.0,0.0,0.023478722,-0.0060175993,-0.49999282
164286334,nan,nan,nan,-2.071082,0.0,nan,nan,1.0,0.0,0.0,0.0,0.0,0.0,0.0,0.020069165,-0.0067798216,-0.4974711
164386389,nan,nan,nan,-2.071082,0.0,nan,nan,1.0,0.0,0.0,0.0,0.0,0.0,0.0,0.020769399,-0.0019512264,-0.49532157
164486424,nan,nan,nan,-2.071082,0.0,nan,nan,1.0,0.0,0.0,0.0,0.0,0.0,0.0,0.022397878,-0.0031203455,-0.49394745
164586525,nan,nan,nan,-2.071082,0.0,nan,nan,1.0,0.0,0.0,0.0,0.0,0.0,0.0,0.026674692,-3.6466863e-05,-0.49311432
164686753,nan,nan,nan,-2.071082,0.0,nan,nan,1.0,0.0,0.0,0.0,0.0,0.0,0.0,0.030176166,0.0012214371,-0.49691117
164786801,nan,nan,nan,-2.071082,0.0,nan,nan,1.0,0.0,0.0,0.0,0.0,0.0,0.0,0.03072677,0.0028355585,-0.491714
164906962,nan,nan,nan,-2.071082,0.0,nan,nan,1.0,0.0,0.0,0.0,0.0,0.0,0.0,0.029655913,0.0038954779,-0.49215445
165007105,nan,nan,nan,-2.071082,0.0,nan,nan,1.0,0.0,0.0,0.0,0.0,0.0,0.0,0.030697139,0.0045588943,-0.4957394
165107127,nan,nan,nan,-2.071082,0.0,nan,nan,1.0,0.0,0.0,0.0,0.0,0.0,0.0,0.028771916,0.0053586983,-0.49432355
165207255,nan,nan,nan,-2.071082,0.0,nan,nan,1.0,0.0,0.0,0.0,0.0,0.0,0.0,0.028618814,0.0052310866,-0.48939323
165307330,nan,nan,nan,-2.071082,0.0,nan,nan,1.0,0.0,0.0,0.0,0.0,0.0,0.0,0.02781901,0.004583574,-0.48997915
165407418,nan,nan,nan,-2.071082,0.0,nan,nan,1.0,0.0,0.0,0.0,0.0,0.0,0.0,0.02838137,0.0040791575,-0.48834077
165507559,nan,nan,nan,-2.071082,0.0,nan,nan,1.0,0.0,0.0,0.0,0.0,0.0,0.0,0.029607598,0.0034673945,-0.48890868
165607914,nan,nan,nan,-2.071082,0.0,nan,nan,1.0,0.0,0.0,0.0,0.0,0.0,0.0,0.029812291,0.005093566,-0.48871693
165707976,nan,nan,nan,-2.071082,0.0,nan,nan,1.0,0.0,0.0,0.0,0.0,0.0,0.0,0.03152812,0.010053763,-0.48954394
165808122,nan,nan,nan,-2.071082,0.0,nan,nan,1.0,0.0,0.0,0.0,0.0,0.0,0.0,0.032146547,0.00926715,-0.49364886
165908192,nan,nan,nan,-2.071082,0.0,nan,nan,1.0,0.0,0.0,0.0,0.0,0.0,0.0,0.030587088,0.008946382,-0.4856856
166008123,nan,nan,nan,-2.071082,0.0,nan,nan,1.0,0.0,0.0,0.0,0.0,0.0,0.0,0.028813474,0.007932237,-0.48718172
166108130,nan,nan,nan,-2.071082,0.0,nan,nan,1.0,0.0,0.0,0.0,0.0,0.0,0.0,0.027302945,0.008446605,-0.48722738
166208392,nan,nan,nan,-2.071082,0.0,nan,nan,1.0,0.0,0.0,0.0,0.0,0.0,0.0,0.026011111,0.007326164,-0.487169
166328607,nan,nan,nan,-2.071082,0.0,nan,nan,1.0,0.0,0.0,0.0,0.0,0.0,0.0,0.026021672,0.008149262,-0.49247682
166428570,nan,nan,nan,-2.071082,0.0,nan,nan,1.0,0.0,0.0,0.0,0.0,0.0,0.0,0.027431933,0.012016714,-0.49168608
166528619,nan,nan,nan,-2.071082,0.0,nan,nan,1.0,0.0,0.0,0.0,0.0,0.0,0.0,0.02891483,0.013143007,-0.49044335
166628712,nan,nan,nan,-2.071082,0.0,nan,nan,1.0,0.0,0.0,0.0,0.0,0.0,0.0,0.030056033,0.014872939,-0.486863
166729003,nan,nan,nan,-2.071082,0.0,nan,nan,1.0,0.0,0.0,0.0,0.0,0.0,0.0,0.031238906,0.013972905,-0.48478022
166828835,nan,nan,nan,-2.071082,0.0,nan,nan,1.0,0.0,0.0,0.0,0.0,0.0,0.0,0.031264886,0.014065224,-0.48512623
166928910,nan,nan,nan,-2.071082,0.0,nan,nan,1.0,0.0,0.0,0.0,0.0,0.0,0.0,0.031732142,0.014435201,-0.49045467
167028970,nan,nan,nan,-2.071082,0.0,nan,nan,1.0,0.0,0.0,0.0,0.0,0.0,0.0,0.031641398,0.01587754,-0.49079734
167129093,nan,nan,nan,-2.071082,0.0,nan,nan,1.0,0.0,0.0,0.0,0.0,0.0,0.0,0.030894006,0.015255719,-0.4921895
167229332,nan,nan,nan,-2.071082,0.0,nan,nan,1.0,0.0,0.0,0.0,0.0,0.0,0.0,0.03025801,0.015037154,-0.49248752
167329441,nan,nan,nan,-2.071082,0.0,nan,nan,1.0,0.0,0.0,0.0,0.0,0.0,0.0,0.029511996,0.019046823,-0.4915805
167429493,nan,nan,nan,-2.071082,0.0,nan,nan,1.0,0.0,0.0,0.0,0.0,0.0,0.0,0.03243274,0.031975128,-0.49331522
167529526,nan,nan,nan,-2.071082,0.0,nan,nan,1.0,0.0,0.0,0.0,0.0,0.0,0.0,0.032922268,0.033313703,-0.49081257
167629598,nan,nan,nan,-2.071082,0.0,nan,nan,1.0,0.0,0.0,0.0,0.0,0.0,0.0,0.032533057,0.0321902,-0.48890004
167749685,nan,nan,nan,-2.071082,0.0,nan,nan,1.0,0.0,0.0,0.0,0.0,0.0,0.0,0.032176957,0.031432062,-0.49262017
167849785,nan,nan,nan,-2.071082,0.0,nan,nan,1.0,0.0,0.0,0.0,0.0,0.0,0.0,0.030360863,0.02720201,-0.48825082
167949961,nan,nan,nan,-2.071082,0.0,nan,nan,1.0,0.0,0.0,0.0,0.0,0.0,0.0,0.025778249,0.017865293,-0.48805165
168050128,nan,nan,nan,-2.071082,0.0,nan,nan,1.0,0.0,0.0,0.0,0.0,0.0,0.0,0.026006209,0.014121477,-0.4887104
168150228,nan,nan,nan,-2.071082,0.0,nan,nan,1.0,0.0,0.0,0.0,0.0,0.0,0.0,0.02909669,0.015149782,-0.49485067
168250369,nan,nan,nan,-2.071082,0.0,nan,nan,1.0,0.0,0.0,0.0,0.0,0.0,0.0,0.027491039,0.012860435,-0.4928485
168350368,nan,nan,nan,-2.071082,0.0,nan,nan,1.0,0.0,0.0,0.0,0.0,0.0,0.0,0.023923956,0.008326444,-0.48781925
168450414,nan,nan,nan,-2.071082,0.0,nan,nan,1.0,0.0,0.0,0.0,0.0,0.0,0.0,0.022166101,0.008145314,-0.48660454
168550497,nan,nan,nan,-2.071082,0.0,nan,nan,1.0,0.0,0.0,0.0,0.0,0.0,0.0,0.017155865,0.0050419183,-0.48585957
168650586,nan,nan,nan,-2.071082,0.0,nan,nan,1.0,0.0,0.0,0.0,0.0,0.0,0.0,0.013679294,0.003431348,-0.48496628
168750740,nan,nan,nan,-2.071082,0.0,nan,nan,1.0,0.0,0.0,0.0,0.0,0.0,0.0,0.018610746,0.00087368605,-0.48942184
168851159,nan,nan,nan,-2.071082,0.0,nan,nan,1.0,0.0,0.0,0.0,0.0,0.0,0.0,0.024958372,-0.007322356,-0.4964293
168951284,nan,nan,nan,-2.071082,0.0,nan,nan,1.0,0.0,0.0,0.0,0.0,0.0,0.0,0.029288003,-0.016335763,-0.49298912
169071293,nan,nan,nan,-2.071082,0.0,nan,nan,1.0,0.0,0.0,0.0,0.0,0.0,0.0,0.028197467,-0.015417381,-0.4888594
169171348,nan,nan,nan,-2.071082,0.0,nan,nan,1.0,0.0,0.0,0.0,0.0,0.0,0.0,0.02163859,-0.011829289,-0.491827
169271364,nan,nan,nan,-2.071082,0.0,nan,nan,1.0,0.0,0.0,0.0,0.0,0.0,0.0,0.024960583,-0.013645291,-0.49334645
169371378,nan,nan,nan,-2.071082,0.0,nan,nan,1.0,0.0,0.0,0.0,0.0,0.0,0.0,0.04743932,-0.025933826,-0.48939168
169471442,nan,nan,nan,-2.071082,0.0,nan,nan,1.0,0.0,0.0,0.0,0.0,0.0,0.0,0.05283846,-0.02888539,-0.48983234
169571548,nan,nan,nan,-2.071082,0.0,nan,nan,1.0,0.0,0.0,0.0,0.0,0.0,0.0,0.05611599,-0.03067713,-0.4901956
169672211,nan,nan,nan,-2.071082,0.0,nan,nan,1.0,0.0,0.0,0.0,0.0,0.0,0.0,0.057121113,-0.031226605,-0.4908469
169771873,nan,nan,nan,-2.071082,0.0,nan,nan,1.0,0.0,0.0,0.0,0.0,0.0,0.0,0.050963033,-0.027860144,-0.48653233
169872750,nan,nan,nan,-2.071082,0.0,nan,nan,1.0,0.0,0.0,0.0,0.0,0.0,0.0,0.048001487,-0.026241146,-0.4889909
169971966,nan,nan,nan,-2.071082,0.0,nan,nan,1.0,0.0,0.0,0.0,0.0,0.0,0.0,0.04882112,-0.02668922,-0.48862636
170072078,nan,nan,nan,-2.071082,0.0,nan,nan,1.0,0.0,0.0,0.0,0.0,0.0,0.0,0.048843864,-0.026701652,-0.49614587
170172517,nan,nan,nan,-2.071082,0.0,nan,nan,1.0,0.0,0.0,0.0,0.0,0.0,0.0,0.049294587,-0.02694805,-0.4937765
170272213,nan,nan,nan,-2.071082,0.0,nan,nan,1.0,0.0,0.0,0.0,0.0,0.0,0.0,0.04674475,-0.025554124,-0.4918422
170372550,nan,nan,nan,-2.071082,0.0,nan,nan,1.0,0.0,0.0,0.0,0.0,0.0,0.0,0.035646804,-0.019487167,-0.4905613
170492625,nan,nan,nan,-2.071082,0.0,nan,nan,1.0,0.0,0.0,0.0,0.0,0.0,0.0,0.028372372,-0.015510427,-0.48089916
170592684,nan,nan,nan,-2.071082,0.0,nan,nan,1.0,0.0,0.0,0.0,0.0,0.0,0.0,0.013180979,-0.0072056926,-0.48808393
170692788,nan,nan,nan,-2.071082,0.0,nan,nan,1.0,0.0,0.0,0.0,0.0,0.0,0.0,-0.00038739605,0.00021177919,-0.48957026
170792798,nan,nan,nan,-2.071082,0.0,nan,nan,1.0,0.0,0.0,0.0,0.0,0.0,0.0,-6.8307318e-06,3.7341808e-06,-0.4919398
170892819,nan,nan,nan,-2.071082,0.0,nan,nan,1.0,0.0,0.0,0.0,0.0,0.0,0.0,1.0315351e-07,-5.6391304e-08,-0.49845845
170992982,nan,nan,nan,-2.071082,0.0,nan,nan,1.0,0.0,0.0,0.0,0.0,0.0,0.0,3.796641e-09,-2.0755233e-09,-0.4952773
171093027,nan,nan,nan,-2.071082,0.0,nan,nan,1.0,0.0,0.0,0.0,0.0,0.0,0.0,7.93512e-11,-4.3379206e-11,-0.5034761
171193189,nan,nan,nan,-2.071082,0.0,nan,nan,1.0,0.0,0.0,0.0,0.0,0.0,0.0,-4.0701562e-13,2.2250469e-13,-0.50166106
171293376,nan,nan,nan,-2.071082,0.0,nan,nan,0.9955974,0.0,0.0,0.0,0.0,0.0,0.0,-3.345688e-14,1.8289994e-14,-0.4961736
171393401,nan,nan,nan,-2.071082,0.0,nan,nan,0.9891088,0.0,0.0,0.0,0.0,0.0,0.0,-1.2609807e-15,6.893448e-16,-0.49707526
171493482,nan,nan,nan,-2.071082,0.0,nan,nan,0.9830139,0.0,0.0,0.0,0.0,0.0,0.0,6.453089e-17,-3.527733e-17,-0.5017205
171593583,nan,nan,nan,-2.071082,0.0,nan,nan,0.97673374,0.0,0.0,0.0,0.0,0.0,0.0,1.2666418e-18,-6.9243966e-19,-0.4953797
171713643,nan,nan,nan,-2.071082,0.0,nan,nan,0.9697033,0.0,0.0,0.0,0.0,0.0,0.0,1.760795e-20,-9.625802e-21,-0.49720684
171813760,nan,nan,nan,-2.071082,0.0,nan,nan,0.96393096,0.0,0.0,0.0,0.0,0.0,0.0,1.363244e-22,-7.452495e-23,-0.51015747
171913840,nan,nan,nan,-2.071082,0.0,nan,nan,0.9575808,0.0,0.0,0.0,0.0,0.0,0.0,-1.3462774e-24,7.359743e-25,-0.5129481
172014014,nan,nan,nan,-2.071082,0.0,nan,nan,0.95158935,0.0,0.0,0.0,0.0,0.0,0.0,-2.2857447e-25,1.2495563e-25,-0.5103809
172114404,nan,nan,nan,-2.071082,0.0,nan,nan,0.9450124,0.0,0.0,0.0,0.0,0.0,0.0,-2.3974411e-27,1.3106177e-27,-0.504488
172214499,nan,nan,nan,-2.071082,0.0,nan,nan,0.93901145,0.0,0.0,0.0,0.0,0.0,0.0,1.3869048e-28,-7.581843e-29,-0.49949065
172314510,nan,nan,nan,-2.071082,0.0,nan,nan,0.932551,0.0,0.0,0.0,0.0,0.0,0.0,0.0026335027,0.0048173214,-0.49420846
172714644,nan,nan,nan,-2.071082,0.0,nan,nan,0.90792924,0.0,0.0,0.0,0.0,0.0,0.0,0.009318114,0.017045114,-0.5047275
172815757,nan,nan,nan,-2.071082,0.0,nan,nan,0.90143234,0.0,0.0,0.0,0.0,0.0,0.0,0.011154271,0.020403896,-0.4990631
172914982,nan,nan,nan,-2.071082,0.0,nan,nan,0.89544094,0.0,0.0,0.0,0.0,0.0,0.0,0.010898704,0.019936401,-0.50202733
173015407,nan,nan,nan,-2.071082,0.0,nan,nan,0.8889658,0.0,0.0,0.0,0.0,0.0,0.0,0.0071628885,0.013102679,-0.4997652
173135823,nan,nan,nan,-2.071082,0.0,nan,nan,0.8818373,0.0,0.0,0.0,0.0,0.0,0.0,0.0072643342,0.013288248,-0.496919
173235209,nan,nan,nan,-2.071082,0.0,nan,nan,0.87633514,0.0,0.0,0.0,0.0,0.0,0.0,0.0074301558,0.013591576,-0.4923937
173335906,nan,nan,nan,-2.071082,0.0,nan,nan,0.8700816,0.0,0.0,0.0,0.0,0.0,0.0,0.010434387,0.01908705,-0.5090468
173435382,nan,nan,nan,-2.071082,0.0,nan,nan,0.86423945,0.0,0.0,0.0,0.0,0.0,0.0,0.011548827,0.021125637,-0.50739056
173535699,nan,nan,nan,-2.071082,0.0,nan,nan,0.8578853,0.0,0.0,0.0,0.0,0.0,0.0,0.010623142,0.01943233,-0.50561404
173635623,nan,nan,nan,-2.071082,0.0,nan,nan,0.8523918,0.0,0.0,0.0,0.0,0.0,0.0,0.0043201605,0.007902632,-0.4961188
173735854,nan,nan,nan,-2.071082,0.0,nan,nan,0.8469697,0.0,0.0,0.0,0.0,0.0,0.0,0.00056875753,0.001040397,-0.50055754
173835925,nan,nan,nan,-2.071082,0.0,nan,nan,0.84164435,0.0,0.0,0.0,0.0,0.0,0.0,0.0074784206,-0.004053173,-0.51726204
173935947,nan,nan,nan,-2.071082,0.0,nan,nan,0.83551645,0.0,0.0,0.0,0.0,0.0,0.0,0.011534398,-0.006304961,-0.5149062
174036063,nan,nan,nan,-2.071082,0.0,nan,nan,0.83017933,0.0,0.0,0.0,0.0,0.0,0.0,0.01521151,-0.008315742,-0.50990105
174136066,nan,nan,nan,-2.071082,0.0,nan,nan,0.8245064,0.0,0.0,0.0,0.0,0.0,0.0,0.015501228,-0.0084741125,-0.5025685
174236165,nan,nan,nan,-2.071082,0.0,nan,nan,0.8194744,0.0,0.0,0.0,0.0,0.0,0.0,0.013919741,-0.007609555,-0.49777958
174336400,nan,nan,nan,-2.071082,0.0,nan,nan,0.8140119,0.0,0.0,0.0,0.0,0.0,0.0,0.012181003,-0.006659033,-0.49918842
174436498,nan,nan,nan,-2.071082,0.0,nan,nan,0.8093405,0.0,0.0,0.0,0.0,0.0,0.0,0.011373847,-0.006217782,-0.4939338
174536600,nan,nan,nan,-2.071082,0.0,nan,nan,0.8040355,0.0,0.0,0.0,0.0,0.0,0.0,0.01132157,-0.0061892034,-0.49863505
174656762,nan,nan,nan,-2.071082,0.0,nan,nan,0.7978112,0.0,0.0,0.0,0.0,0.0,0.0,0.01440459,-0.007874609,-0.50877035
174756782,nan,nan,nan,-2.071082,0.0,nan,nan,0.79271275,0.0,0.0,0.0,0.0,0.0,0.0,0.024380725,-0.013328299,-0.5057177
174856795,nan,nan,nan,-2.071082,0.0,nan,nan,0.78732634,0.0,0.0,0.0,0.0,0.0,0.0,0.025123987,-0.01373462,-0.50312716
174956883,nan,nan,nan,-2.071082,0.0,nan,nan,0.78232014,0.0,0.0,0.0,0.0,0.0,0.0,0.02539819,-0.013884519,-0.511889
175056975,nan,nan,nan,-2.071082,0.0,nan,nan,0.77655065,0.0,0.0,0.0,0.0,0.0,0.0,0.024073934,-0.013160585,-0.5107996
175157201,nan,nan,nan,-2.071082,0.0,nan,nan,0.77155143,0.0,0.0,0.0,0.0,0.0,0.0,0.022483204,-0.012290974,-0.49628225
175257584,nan,nan,nan,-2.071082,0.0,nan,nan,0.76640534,0.0,0.0,0.0,0.0,0.0,0.0,0.020731108,-0.01133315,-0.50519484
175357817,nan,nan,nan,-2.071082,0.0,nan,nan,0.76144314,0.0,0.0,0.0,0.0,0.0,0.0,0.017661111,-0.009654863,-0.52514875
175457779,nan,nan,nan,-2.071082,0.0,nan,nan,0.75580984,0.0,0.0,0.0,0.0,0.0,0.0,0.019110547,-0.010447233,-0.52405024
175557770,nan,nan,nan,-2.071082,0.0,nan,nan,0.7509748,0.0,0.0,0.0,0.0,0.0,0.0,0.01882971,-0.010293706,-0.5078199
175657751,nan,nan,nan,-2.071082,0.0,nan,nan,0.7463735,0.0,0.0,0.0,0.0,0.0,0.0,0.017387556,-0.009505318,-0.494724
175757794,nan,nan,nan,-2.071082,0.0,nan,nan,0.74242437,0.0,0.0,0.0,0.0,0.0,0.0,0.018169062,-0.009932547,-0.4996372
175857822,nan,nan,nan,-2.071082,0.0,nan,nan,0.7378498,0.0,0.0,0.0,0.0,0.0,0.0,0.019005993,-0.010390075,-0.5137949
175978151,nan,nan,nan,-2.071082,0.0,nan,nan,0.7322582,0.0,0.0,0.0,0.0,0.0,0.0,0.019972662,-0.010918527,-0.5108977
176079262,nan,nan,nan,-2.071082,0.0,nan,nan,0.7277439,0.0,0.0,0.0,0.0,0.0,0.0,0.018088162,-0.009888321,-0.5032687
176178249,nan,nan,nan,-2.071082,0.0,nan,nan,0.7237016,0.0,0.0,0.0,0.0,0.0,0.0,0.016376123,-0.008952393,-0.50152355
176278667,nan,nan,nan,-2.071082,0.0,nan,nan,0.7193561,0.0,0.0,0.0,0.0,0.0,0.0,0.01483711,-0.008111057,-0.5030437
176378393,nan,nan,nan,-2.071082,0.0,nan,nan,0.7151562,0.0,0.0,0.0,0.0,0.0,0.0,0.013791709,-0.007539564,-0.5078707
176478620,nan,nan,nan,-2.071082,0.0,nan,nan,0.710273,0.0,0.0,0.0,0.0,0.0,0.0,0.005213715,-0.0028502005,-0.5132537
176578508,nan,nan,nan,-2.071082,0.0,nan,nan,0.7059243,0.0,0.0,0.0,0.0,0.0,0.0,-0.00023063635,0.0001260828,-0.5034376
176678781,nan,nan,nan,-2.071082,0.0,nan,nan,0.70153743,0.0,0.0,0.0,0.0,0.0,0.0,-3.902224e-06,2.1332426e-06,-0.5050706
176778778,nan,nan,nan,-2.071082,0.0,nan,nan,0.7,0.0,0.0,0.0,0.0,0.0,0.0,-4.384067e-08,2.3966535e-08,-0.50388867
176879211,nan,nan,nan,-2.071082,0.0,nan,nan,0.7,0.0,0.0,0.0,0.0,0.0,0.0,2.3020252e-09,-1.2584565e-09,-0.5081063
176979091,nan,nan,nan,-2.071082,0.0,nan,nan,0.7,0.0,0.0,0.0,0.0,0.0,0.0,4.5989674e-11,-2.5141339e-11,-0.5154973
177079130,nan,nan,nan,-2.071082,0.0,nan,nan,0.7,0.0,0.0,0.0,0.0,0.0,0.0,-3.550129e-13,1.9407619e-13,-0.5198776
177199243,nan,nan,nan,-2.071082,0.0,nan,nan,0.7,0.0,0.0,0.0,0.0,0.0,0.0,-2.0853585e-14,1.1400106e-14,-0.508418
177299279,nan,nan,nan,-2.071082,0.0,nan,nan,0.7,0.0,0.0,0.0,0.0,0.0,0.0,-4.9908235e-16,2.7283514e-16,-0.51692057
177399367,nan,nan,nan,-2.071082,0.0,nan,nan,0.7,0.0,0.0,0.0,0.0,0.0,0.0,-1.0379149e-18,5.674007e-19,-0.5259324
177499445,nan,nan,nan,-2.071082,0.0,nan,nan,0.7,0.0,0.0,0.0,0.0,0.0,0.0,1.6970428e-19,-9.2772855e-20,-0.5227319
177599713,nan,nan,nan,-2.071082,0.0,nan,nan,0.7,0.0,0.0,0.0,0.0,0.0,0.0,9.955193e-21,-5.4422414e-21,-0.5216656
177699763,nan,nan,nan,-2.071082,0.0,nan,nan,0.7,0.0,0.0,0.0,0.0,0.0,0.0,6.3967645e-23,-3.496942e-23,-0.51010704
177799868,nan,nan,nan,-2.071082,0.0,nan,nan,0.7,0.0,0.0,0.0,0.0,0.0,0.0,-8.04242e-24,4.3965786e-24,-0.50849956
177899974,nan,nan,nan,-2.071082,0.0,nan,nan,0.7,0.0,0.0,0.0,0.0,0.0,0.0,-1.2471466e-25,6.817821e-26,-0.50525373
178000002,nan,nan,nan,-2.071082,0.0,nan,nan,0.7,0.0,0.0,0.0,0.0,0.0,0.0,2.853879e-27,-1.5601404e-27,-0.4987029
178100021,nan,nan,nan,-2.071082,0.0,nan,nan,0.7,0.0,0.0,0.0,0.0,0.0,0.0,8.223099e-29,-4.4953513e-29,-0.5066687
178200220,nan,nan,nan,-2.071082,0.0,nan,nan,0.7,0.0,0.0,0.0,0.0,0.0,0.0,8.841459e-31,-4.833392e-31,-0.51968133
178300229,nan,nan,nan,-2.071082,0.0,nan,nan,0.7,0.0,0.0,0.0,0.0,0.0,0.0,-1.9608107e-32,1.0719235e-32,-0.52806246
178400756,nan,nan,nan,-2.071082,0.0,nan,nan,0.7,0.0,0.0,0.0,0.0,0.0,0.0,-2.0103422e-33,1.099001e-33,-0.5145809
178520824,nan,nan,nan,-2.071082,0.0,nan,nan,0.7,0.0,0.0,0.0,0.0,0.0,0.0,-1.6247128e-35,8.881877e-36,-0.4924345
178620896,nan,nan,nan,-2.071082,0.0,nan,nan,0.7,0.0,0.0,0.0,0.0,0.0,0.0,4.7054313e-38,-2.572335e-38,-0.48833054
178720956,nan,nan,nan,-2.071082,0.0,nan,nan,0.7,0.0,0.0,0.0,0.0,0.0,0.0,2.3511804e-38,-1.2853284e-38,-0.49614736
178820972,nan,nan,nan,-2.071082,0.0,nan,nan,0.7,0.0,0.0,0.0,0.0,0.0,0.0,2.83829e-40,-1.55162e-40,-0.49921265
178920953,nan,nan,nan,-2.071082,0.0,nan,nan,0.7,0.0,0.0,0.0,0.0,0.0,0.0,-1.3146e-41,7.186e-42,-0.5058876
179020980,nan,nan,nan,-2.071082,0.0,nan,nan,0.7,0.0,0.0,0.0,0.0,0.0,0.0,-2.7e-43,1.47e-43,-0.5037482
179121133,nan,nan,nan,-2.071082,0.0,nan,nan,0.7,0.0,0.0,0.0,0.0,0.0,0.0,1e-45,-0.0,-0.5115859
179221842,nan,nan,nan,-2.071082,0.0,nan,nan,0.7,0.0,0.0,0.0,0.0,0.0,0.0,0.0,0.0,-0.5124117
179321447,nan,nan,nan,-2.071082,0.0,nan,nan,0.17622748,0.0,0.0,0.0,0.0,0.0,0.0,0.0,0.0,-0.61550444
179422004,nan,nan,-2.849206,-2.071082,0.0,nan,nan,-0.019656658,0.0,0.0,0.0,0.0,0.0,0.0,0.0,0.0,-0.5739784
179521539,nan,nan,-2.849206,-2.071082,0.0,nan,nan,-0.030242443,0.0,0.0,0.0,0.0,0.0,0.0,0.0,0.0,-0.4932969
180742658,nan,nan,nan,-2.0806804,-0.07219849,nan,nan,-1.5,0.0,0.0,0.0,0.0,0.0,0.0,0.0,0.0,-0.52761537
180842935,nan,nan,nan,-2.0853388,-0.13375932,nan,nan,-1.5,0.0,0.0,0.0,0.0,0.0,0.0,0.0,0.0,-0.52527416
180942998,nan,nan,nan,-2.0936303,-0.118114576,nan,nan,-1.5,0.0,0.0,0.0,0.0,0.0,0.0,0.0,0.0,-0.52546555
181063172,nan,nan,nan,-2.1036758,-0.08622776,nan,nan,-1.5,0.0,0.0,0.0,0.0,0.0,0.0,0.0,0.0,-0.5277637
181163176,nan,nan,nan,-2.111223,-0.08704783,nan,nan,-1.5,0.0,0.0,0.0,0.0,0.0,0.0,0.0,0.0,-0.5172208
181263205,nan,nan,nan,-2.1188674,-0.08222527,nan,nan,-1.5,0.0,0.0,0.0,0.0,0.0,0.0,0.0,0.0,-0.5089179
181363312,nan,nan,nan,-2.1255403,-0.08044917,nan,nan,-1.5,0.0,0.0,0.0,0.0,0.0,0.0,0.0,0.0,-0.51562876
181463382,nan,nan,nan,-2.133339,-0.08789391,nan,nan,-1.5,0.0,0.0,0.0,0.0,0.0,0.0,0.0,0.0,-0.53520894
181563554,nan,nan,nan,-2.139738,-0.083878025,nan,nan,-1.5,0.0,0.0,0.0,0.0,0.0,0.0,0.0,0.0,-0.5286114
181663699,nan,nan,nan,-2.1457825,-0.08904177,nan,nan,-1.5647424,0.0,0.0,0.0,0.0,0.0,0.0,0.0,0.0,-0.5368211
181763822,nan,nan,nan,-2.1515613,-0.08651477,nan,nan,-1.6856302,0.0,0.0,0.0,0.0,0.0,0.0,0.0,0.0,-0.55274445
181864129,nan,nan,nan,-2.157693,-0.086510666,nan,nan,-1.8298438,0.0,0.0,0.0,0.0,0.0,0.0,0.0,0.0,-0.54585356
181964122,nan,nan,nan,-2.164362,-0.087087795,nan,nan,-1.9823241,0.0,0.0,0.0,0.0,0.0,0.0,0.0,0.0,-0.549221
182064179,nan,nan,nan,-2.1713753,-0.08730259,nan,nan,-2.1401465,0.0,0.0,0.0,0.0,0.0,0.0,0.0,0.0,-0.55114615
182164189,nan,nan,nan,-2.1788082,-0.093880706,nan,nan,-2.3277853,0.0,0.0,0.0,0.0,0.0,0.0,0.0,0.0,-0.55285805
182284213,nan,nan,nan,-2.1883717,-0.085089795,nan,nan,-2.5700274,0.0,0.0,0.0,0.0,0.0,0.0,0.0,0.0,-0.5569827
182384498,nan,nan,nan,-2.1955097,-0.07901966,nan,nan,-2.7770927,0.0,0.0,0.0,0.0,0.0,0.0,0.0,0.0,-0.56333995
182484643,nan,nan,nan,-2.2027316,-0.0766112,nan,nan,-3.0193295,0.0,0.0,0.0,0.0,0.0,0.0,0.0,0.0,-0.57386744
182584959,nan,nan,nan,-2.2098866,-0.07670326,nan,nan,-3.2855463,0.0,0.0,0.0,0.0,0.0,0.0,0.0,0.0,-0.58225536
182684716,nan,nan,nan,-2.2170463,-0.07591455,nan,nan,-3.5445666,0.0,0.0,0.0,0.0,0.0,0.0,0.0,0.0,-0.5899054
182785029,nan,nan,nan,-2.2238326,-0.080656044,nan,nan,-3.8473022,0.0,0.0,0.0,0.0,0.0,0.0,0.0,0.0,-0.59902036
182884810,nan,nan,nan,-2.2298062,-0.08407492,nan,nan,-4.1469116,0.0,0.0,0.0,0.0,0.0,0.0,0.0,0.0,-0.6074594
182985359,nan,nan,nan,-2.2364373,-0.078959405,nan,nan,-4.4989157,0.0,0.0,0.0,0.0,0.0,0.0,0.0,0.0,-0.6213492
183085025,nan,nan,nan,-2.243227,-0.08520783,nan,nan,-4.8469462,0.0,0.0,0.0,0.0,0.0,0.0,0.0,0.0,-0.63410234
183185192,nan,nan,nan,-2.250159,-0.08249826,nan,nan,-5.254125,0.0,0.0,0.0,0.0,0.0,0.0,0.0,0.0,-0.6534777
183285383,nan,nan,nan,-2.2566385,-0.07910828,nan,nan,-5.658823,0.0,0.0,0.0,0.0,0.0,0.0,0.0,0.0,-0.66278446
183385420,nan,nan,nan,-2.2625415,-0.09077654,nan,nan,-6.0,0.0,0.0,0.0,0.0,0.0,0.0,0.0,0.0,-0.64748466
183485489,nan,nan,nan,-2.269956,-0.09198404,nan,nan,-6.0,0.0,0.0,0.0,0.0,0.0,0.0,0.0,0.0,-0.59123325
183585573,nan,nan,nan,-2.2772303,-0.08880134,nan,nan,-6.0,0.0,0.0,0.0,0.0,0.0,0.0,0.0,0.0,-0.5818942
183705858,nan,nan,nan,-2.285508,-0.08882512,nan,nan,-6.0,0.0,0.0,0.0,0.0,0.0,0.0,0.0,0.0,-0.58959717
183805712,nan,nan,nan,-2.2935069,-0.0888394,nan,nan,-6.0,0.0,0.0,0.0,0.0,0.0,0.0,0.0,0.0,-0.5851452
183906132,nan,nan,nan,-2.3009675,-0.08683104,nan,nan,-6.0,0.0,0.0,0.0,0.0,0.0,0.0,0.0,0.0,-0.59090155
184006142,nan,nan,nan,-2.3087754,-0.090576954,nan,nan,-6.0,0.0,0.0,0.0,0.0,0.0,0.0,0.0,0.0,-0.59609056
184106160,nan,nan,nan,-2.31586,-0.090558834,nan,nan,-6.0,0.0,0.0,0.0,0.0,0.0,0.0,0.0,0.0,-0.59640396
184206253,nan,nan,nan,-2.3233619,-0.093963906,nan,nan,-6.0,0.0,0.0,0.0,0.0,0.0,0.0,0.0,0.0,-0.59550214
184306335,nan,nan,nan,-2.3318372,-0.086809665,nan,nan,-6.0,0.0,0.0,0.0,0.0,0.0,0.0,0.0,0.0,-0.58561736
184406342,nan,nan,nan,-2.3396041,-0.087059356,nan,nan,-6.0,0.0,0.0,0.0,0.0,0.0,0.0,0.0,0.0,-0.59403616
184506441,nan,nan,nan,-2.3475757,-0.093200125,nan,nan,-5.9917393,0.0,0.0,0.0,0.0,0.0,0.0,0.0,0.0,-0.59604716
184606516,nan,nan,nan,-2.3559895,-0.114730604,nan,nan,-5.9969687,0.0,0.0,0.0,0.0,0.0,0.0,0.0,0.0,-0.5955572
184706660,nan,nan,nan,-2.362326,0.0,nan,nan,-5.7194657,0.0,0.0,0.0,0.0,0.0,0.0,0.0,0.0,-0.5450202
184806894,nan,nan,nan,-2.362326,0.0,nan,nan,-4.717526,0.0,0.0,0.0,0.0,0.0,0.0,0.0,0.0,-0.37195262
184926972,nan,nan,nan,-2.362326,0.0,nan,nan,-3.5162256,0.0,0.0,0.0,0.0,0.0,0.0,0.0,0.0,-0.26490945
185027076,nan,nan,nan,-2.362326,0.0,nan,nan,-2.5152054,0.0,0.0,0.0,0.0,0.0,0.0,0.0,0.0,-0.22203717
185127128,nan,nan,nan,-2.362326,-0.0,nan,nan,-1.5147353,0.0,0.0,0.0,0.0,0.0,0.0,0.0,0.0,-0.18107659
185227154,nan,nan,nan,-2.362326,-0.0,nan,nan,-0.51446545,0.0,0.0,0.0,0.0,0.0,0.0,0.0,0.0,-0.15014473
185327330,nan,nan,nan,-2.362326,0.0,nan,nan,0.0,0.0,0.0,0.0,0.0,0.0,0.0,0.0,0.0,-0.1885131
185427575,nan,nan,nan,-2.362326,0.0,nan,nan,0.0,0.0,0.0,0.0,0.0,0.0,0.0,0.0,0.0,-0.367159
185527589,nan,nan,-19.801764,-2.362326,0.0,nan,nan,0.021486282,0.0,0.0,0.0,0.0,0.0,0.0,0.0,0.0,-0.4781555
185627615,nan,nan,-19.801764,-2.362326,-0.0,nan,nan,0.022024155,0.0,0.0,0.0,0.0,0.0,0.0,0.0,0.0,-0.5235071
185727954,nan,nan,-19.801764,-2.362326,-0.0,nan,nan,0.020196915,0.0,0.0,0.0,0.0,0.0,0.0,0.0,0.0,-0.521184
185827891,nan,nan,-19.801764,-2.362326,0.0,nan,nan,0.033807755,0.0,0.0,0.0,0.0,0.0,0.0,0.0,0.0,-0.51217985
185928567,nan,nan,-19.801764,-2.362326,0.0,nan,nan,0.056930542,0.0,0.0,0.0,0.0,0.0,0.0,0.0,0.0,-0.5090607
186028019,nan,nan,-19.801764,-2.362326,0.0,nan,nan,0.07969475,0.0,0.0,0.0,0.0,0.0,0.0,0.0,0.0,-0.51257616
186148070,nan,nan,-19.801764,-2.362326,0.0,nan,nan,0.104969025,0.0,0.0,0.0,0.0,0.0,0.0,0.0,0.0,-0.50717473
186248579,nan,nan,-19.801764,-2.362326,-0.0,nan,nan,0.123535156,0.0,0.0,0.0,0.0,0.0,0.0,0.0,0.0,-0.5089558
186348554,nan,nan,-19.801764,-2.362326,-0.0,nan,nan,0.13928032,0.0,0.0,0.0,0.0,0.0,0.0,0.0,0.0,-0.50778913
186448583,nan,nan,-19.801764,-2.362326,-0.0,nan,nan,0.15522194,0.0,0.0,0.0,0.0,0.0,0.0,0.0,0.0,-0.501051
186548701,nan,nan,-19.801764,-2.362326,0.0,nan,nan,0.17181778,0.0,0.0,0.0,0.0,0.0,0.0,0.0,0.0,-0.49790192
186648736,nan,nan,-19.801764,-2.362326,0.0,nan,nan,0.18631363,0.0,0.0,0.0,0.0,0.0,0.0,0.0,0.0,-0.5092048
186748785,nan,nan,-19.801764,-2.362326,0.0,nan,nan,0.19329643,0.0,0.0,0.0,0.0,0.0,0.0,0.0,0.0,-0.5087893
186848806,nan,nan,-19.801764,-2.362326,0.0,nan,nan,0.19792747,0.0,0.0,0.0,0.0,0.0,0.0,0.0,0.0,-0.5097363
186948881,nan,nan,-19.801764,-2.362326,-0.0,nan,nan,0.20017052,0.0,0.0,0.0,0.0,0.0,0.0,0.0,0.0,-0.5099767
187049161,nan,nan,-19.801764,-2.362326,-0.0,nan,nan,0.19594193,0.0,0.0,0.0,0.0,0.0,0.0,0.0,0.0,-0.5193369
187149073,nan,nan,-19.801764,-2.362326,-0.0,nan,nan,0.19346237,0.0,0.0,0.0,0.0,0.0,0.0,0.0,0.0,-0.5126728
187249328,nan,nan,-19.801764,-2.362326,0.0,nan,nan,0.19172668,0.0,0.0,0.0,0.0,0.0,0.0,0.0,0.0,-0.5125095
187349411,nan,nan,-19.801764,-2.362326,0.0,nan,nan,0.19234848,0.0,0.0,0.0,0.0,0.0,0.0,0.042213935,0.04169942,-0.5078922
187449535,nan,nan,-19.801764,-2.362326,0.0,nan,nan,0.19677353,0.0,0.0,0.0,0.0,0.0,0.0,0.08876074,0.0876789,-0.4989874
187569581,nan,nan,-19.801764,-2.362326,0.0,nan,nan,0.20832634,0.0,0.0,0.0,0.0,0.0,0.0,0.09461501,0.093461834,-0.47981513
187669636,nan,nan,-19.801764,-2.362326,0.0,nan,nan,0.2176609,0.0,0.0,0.0,0.0,0.0,0.0,0.0922637,0.09113917,-0.48764285
187769675,nan,nan,-19.801764,-2.362326,0.0,nan,nan,0.22301102,0.0,0.0,0.0,0.0,0.0,0.0,0.091753006,0.090634696,-0.4955658
187869795,nan,nan,-19.801764,-2.362326,0.0,nan,nan,0.22465134,0.0,0.0,0.0,0.0,0.0,0.0,0.092460655,0.091333725,-0.49337244
187969956,nan,nan,-19.801764,-2.362326,0.0,nan,nan,0.22585106,0.0,0.0,0.0,0.0,0.0,0.0,0.088967666,0.0878833,-0.4988651
188070148,nan,nan,-19.801764,-2.362326,0.0,nan,nan,0.21992874,0.0,0.0,0.0,0.0,0.0,0.0,0.018732525,0.018504208,-0.5159151
188170199,nan,nan,-19.801764,-2.362326,0.0,nan,nan,0.21007729,0.0,0.0,0.0,0.0,0.0,0.0,0.00055010454,0.0005433998,-0.50228506
188270275,nan,nan,-19.801764,-2.362326,0.0,nan,nan,0.20409012,0.0,0.0,0.0,0.0,0.0,0.0,3.9382945e-07,3.8902937e-07,-0.49696884
188370335,nan,nan,-19.801764,-2.362326,0.0,nan,nan,0.20427132,0.0,0.0,0.0,0.0,0.0,0.0,-6.114794e-07,-6.040265e-07,-0.49366477
188470346,nan,nan,-19.801764,-2.362326,0.0,nan,nan,0.20775223,0.0,0.0,0.0,0.0,0.0,0.0,0.010737603,-0.010870106,-0.49865174
188570483,nan,nan,-19.801764,-2.362326,0.0,nan,nan,0.20458221,0.0,0.0,0.0,0.0,0.0,0.0,0.044482604,-0.045031454,-0.50704503
188670586,nan,nan,-19.801764,-2.362326,0.0,nan,nan,0.1967907,0.0,0.0,0.0,0.0,0.0,0.0,0.042379286,-0.042902187,-0.5028352
188770755,nan,nan,-19.801764,-2.362326,0.0,nan,nan,0.19651413,0.0,0.0,0.0,0.0,0.0,0.0,0.039848175,-0.04033985,-0.4904307
188871153,nan,nan,-19.801764,-2.362326,0.0,nan,nan,0.20057106,0.0,0.0,0.0,0.0,0.0,0.0,0.037362862,-0.037823867,-0.49547032
188971344,nan,nan,-19.801764,-2.362326,0.0,nan,nan,0.19934845,0.0,0.0,0.0,0.0,0.0,0.0,0.04149224,-0.042004194,-0.50702935
189091298,nan,nan,-19.801764,-2.362326,0.0,nan,nan,0.18753052,0.0,0.0,0.0,0.0,0.0,0.0,0.058275886,-0.058994927,-0.5096354
189191335,nan,nan,-19.801764,-2.362326,0.0,nan,nan,0.18559456,0.0,0.0,0.0,0.0,0.0,0.0,0.05261271,-0.053261876,-0.49301597
189291385,nan,nan,-19.801764,-2.362326,0.0,nan,nan,0.18899155,0.0,0.0,0.0,0.0,0.0,0.0,0.052499972,-0.055782076,-0.49506637
189391385,nan,nan,-19.801764,-2.362326,0.0,nan,nan,0.18630981,0.0,0.0,0.0,0.0,0.0,0.0,0.062358085,-0.062848724,-0.5049358
189491395,nan,nan,-19.801764,-2.362326,0.0,nan,nan,0.18087387,0.0,0.0,0.0,0.0,0.0,0.0,0.061295126,-0.062050276,-0.5077478
189591752,nan,nan,-19.801764,-2.362326,0.0,nan,nan,0.17668724,0.0,0.0,0.0,0.0,0.0,0.0,0.05871781,-0.05944236,-0.508427
189691817,nan,nan,-19.801764,-2.362326,0.0,nan,nan,0.17048264,0.0,0.0,0.0,0.0,0.0,0.0,0.05844426,-0.05916538,-0.50845504
189791954,nan,nan,-19.801764,-2.362326,0.0,nan,nan,0.16197968,0.0,0.0,0.0,0.0,0.0,0.0,0.056608956,-0.05730743,-0.5011993
189891976,nan,nan,-19.801764,-2.362326,0.0,nan,nan,0.16070557,0.0,0.0,0.0,0.0,0.0,0.0,0.056350492,-0.05704578,-0.49394473
189992023,nan,nan,-19.801764,-2.362326,0.0,nan,nan,0.16341591,0.0,0.0,0.0,0.0,0.0,0.0,0.05019564,-0.050814983,-0.48915184
190092033,nan,nan,-19.801764,-2.362326,0.0,nan,nan,0.16579056,0.0,0.0,0.0,0.0,0.0,0.0,0.04173914,-0.042254142,-0.49179146
190192150,nan,nan,-19.801764,-2.362326,0.0,nan,nan,0.16662788,0.0,0.0,0.0,0.0,0.0,0.0,0.043942723,-0.044484913,-0.49577639
190292222,nan,nan,-19.801764,-2.362326,0.0,nan,nan,0.16834831,0.0,0.0,0.0,0.0,0.0,0.0,0.04663275,-0.047208134,-0.496337
190392419,nan,nan,-19.801764,-2.362326,0.0,nan,nan,0.1686554,0.0,0.0,0.0,0.0,0.0,0.0,0.046613846,-0.047188997,-0.4945936
190512640,nan,nan,-19.801764,-2.362326,0.0,nan,nan,0.1718769,0.0,0.0,0.0,0.0,0.0,0.0,0.03897707,-0.039457995,-0.4919333
190612706,nan,nan,-19.801764,-2.362326,0.0,nan,nan,0.1738472,0.0,0.0,0.0,0.0,0.0,0.0,0.03620518,-0.036651902,-0.49309534
190712725,nan,nan,-19.801764,-2.362326,0.0,nan,nan,0.17461205,0.0,0.0,0.0,0.0,0.0,0.0,0.03951742,-0.040005013,-0.5029881
190812818,nan,nan,-19.801764,-2.362326,0.0,nan,nan,0.16937065,0.0,0.0,0.0,0.0,0.0,0.0,0.038847454,-0.039326776,-0.50420314
190912833,nan,nan,-19.801764,-2.362326,0.0,nan,nan,0.16138077,0.0,0.0,0.0,0.0,0.0,0.0,0.034816545,-0.035246126,-0.5041979
191012912,nan,nan,-19.801764,-2.362326,0.0,nan,nan,0.15325737,0.0,0.0,0.0,0.0,0.0,0.0,0.03653112,-0.036981862,-0.49983385
191113059,nan,nan,-19.801764,-2.362326,0.0,nan,nan,0.14162254,0.0,0.0,0.0,0.0,0.0,0.0,0.04066001,-0.041161697,-0.49896303
191213279,nan,nan,-19.801764,-2.362326,0.0,nan,nan,0.13540268,0.0,0.0,0.0,0.0,0.0,0.0,0.053083673,-0.05373865,-0.49736762
191313366,nan,nan,-19.801764,-2.362326,0.0,nan,nan,0.13204956,0.0,0.0,0.0,0.0,0.0,0.0,0.050758988,-0.051385287,-0.4947146
191413443,nan,nan,-19.801764,-2.362326,0.0,nan,nan,0.13309288,0.0,0.0,0.0,0.0,0.0,0.0,0.043845925,-0.044386923,-0.495354
191513513,nan,nan,-19.801764,-2.362326,0.0,nan,nan,0.1365757,0.0,0.0,0.0,0.0,0.0,0.0,0.042131133,-0.042388085,-0.49812913
191613562,nan,nan,-19.801764,-2.362326,0.0,nan,nan,0.13360596,0.0,0.0,0.0,0.0,0.0,0.0,0.055114456,-0.022545652,-0.50377697
191733672,nan,nan,-19.801764,-2.362326,0.0,nan,nan,0.123477936,0.0,0.0,0.0,0.0,0.0,0.0,0.0590956,0.011078015,-0.5049331
191833749,nan,nan,-19.801764,-2.362326,0.0,nan,nan,0.11515427,0.0,0.0,0.0,0.0,0.0,0.0,0.043110415,0.032047067,-0.49641752
191933856,nan,nan,-19.801764,-2.362326,0.0,nan,nan,0.112400055,0.0,0.0,0.0,0.0,0.0,0.0,0.040080097,0.039524294,-0.4973943
192034016,nan,nan,-19.801764,-2.362326,0.0,nan,nan,0.110874176,0.0,0.0,0.0,0.0,0.0,0.0,0.04365711,0.043126382,-0.4987144
192134391,nan,nan,-19.801764,-2.362326,0.0,nan,nan,0.108903885,0.0,0.0,0.0,0.0,0.0,0.0,0.06361822,0.06284287,-0.4993736
192234538,nan,nan,-19.801764,-2.362326,0.0,nan,nan,0.10590172,0.0,0.0,0.0,0.0,0.0,0.0,0.08202397,0.08102425,-0.4949504
192334551,nan,nan,-19.801764,-2.362326,0.0,nan,nan,0.10389137,0.0,0.0,0.0,0.0,0.0,0.0,0.085286036,0.084246546,-0.49850264
192434522,nan,nan,-19.801764,-2.362326,0.0,nan,nan,0.099048615,0.0,0.0,0.0,0.0,0.0,0.0,0.09082055,0.08971361,-0.50003135
192534519,nan,nan,nan,-2.362326,0.0,nan,nan,0.010411897,0.0,0.0,0.0,0.0,0.0,0.0,0.08660944,0.085553825,-0.51205564
192634589,nan,nan,nan,-2.362326,0.0,nan,nan,0.07730129,0.0,0.0,0.0,0.0,0.0,0.0,0.074845,0.07393278,-0.48349237
192734635,nan,nan,nan,-2.362326,0.0,nan,nan,0.15401891,0.0,0.0,0.0,0.0,0.0,0.0,0.04797734,0.04739258,-0.46337658
192835030,nan,nan,nan,-2.362326,0.0,nan,nan,0.15323702,0.0,0.0,0.0,0.0,0.0,0.0,0.0041946974,0.0041435715,-0.47976065
192935734,nan,nan,nan,-2.362326,0.0,nan,nan,0.15330417,0.0,0.0,0.0,0.0,0.0,0.0,0.00010515539,0.000103873725,-0.49653515
193035124,nan,nan,nan,-2.362326,0.0,nan,nan,0.15330523,0.0,0.0,0.0,0.0,0.0,0.0,1.7443722e-06,1.7231115e-06,-0.50082976
193155173,nan,nan,nan,-2.362326,0.0,nan,nan,0.16458516,0.0,0.0,0.0,0.0,0.0,0.0,1.8787574e-08,1.8558588e-08,-0.49821803
193255806,nan,nan,nan,-2.362326,0.0,nan,nan,0.28512177,0.0,0.0,0.0,0.0,0.0,0.0,3.109982e-11,3.072077e-11,-0.47366926
193355312,nan,nan,nan,-2.362326,0.0,nan,nan,0.34589022,0.0,0.0,0.0,0.0,0.0,0.0,-4.285868e-12,-4.233631e-12,-0.47640517
193455367,nan,nan,nan,-2.362326,0.0,nan,nan,0.4087969,0.0,0.0,0.0,0.0,0.0,0.0,-2.6161332e-13,-2.5842474e-13,-0.48300624
193555534,nan,nan,nan,-2.362326,0.0,nan,nan,0.47246614,0.0,0.0,0.0,0.0,0.0,0.0,-1.7526515e-15,-1.7312898e-15,-0.48174012
