timestamp,error_count,device_id,x,y,z,integral_dt,x_integral,y_integral,z_integral,temperature,scaling,x_raw,y_raw,z_raw
133185916,0,1442826,0.015240413,0.09897709,-9.857557,3993,7.4724085e-05,0.00036438793,-0.039272193,48.03148,0.0047884034,23,18,2106
133289916,0,1442826,0.021740224,0.10992974,-9.861876,4000,6.907593e-05,0.0004315792,-0.03942892,48.058437,0.0047884034,20,19,2116
133389916,0,1442826,0.011643275,0.10056072,-9.855714,3955,1.855619e-05,0.00040581427,-0.039085563,48.013508,0.0047884034,19,22,2117
133903516,0,1442826,0.012061951,0.11407151,-9.853363,3937,3.628347e-05,0.00045699225,-0.038773388,48.03148,0.0047884034,16,19,2109
134003541,0,1442826,0.016495546,0.09431487,-9.853078,4025,8.306621e-05,0.0003033692,-0.039673373,48.040466,0.0047884034,26,17,2113
134106723,0,1442826,0.016745504,0.09108788,-9.8649435,4007,4.4246408e-05,0.00030215684,-0.039518688,48.028484,0.0047884034,24,21,2118
134206749,0,1442826,0.0074167717,0.11017893,-9.821563,4033,2.5149708e-05,0.00047183782,-0.039681096,48.034477,0.0047884034,14,21,2106
134306716,0,1442826,0.012638054,0.10833899,-9.85791,3983,2.8703515e-05,0.0004069655,-0.039209723,48.00153,0.0047884034,21,19,2106
134409934,0,1442826,0.01867583,0.120176524,-9.846571,4018,5.012151e-05,0.00049116916,-0.039592482,48.05245,0.0047884034,14,22,2111
134509129,0,1442826,0.011664219,0.10531412,-9.848204,3213,5.9348848e-05,0.00034055108,-0.03161647,48.022495,0.0047884034,18,18,2111
134613118,0,1442826,0.0053004613,0.10548726,-9.822461,3996,4.2321182e-05,0.00038358354,-0.039295528,48.022495,0.0047884034,21,21,2112
134713116,0,1442826,0.012448641,0.09523506,-9.841965,3993,5.7452933e-05,0.0003869512,-0.039403476,48.034477,0.0047884034,19,21,2108
134816316,0,1442826,0.008505659,0.11284016,-9.834957,3951,2.3894234e-05,0.00043371864,-0.03883197,48.040466,0.0047884034,16,23,2102
134916316,0,1442826,0.015088906,0.11025917,-9.841749,3988,4.1905e-05,0.00042295986,-0.03926306,48.022495,0.0047884034,20,18,2111
135019516,0,1442826,0.0036372682,0.100003295,-9.843537,3998,-7.5882526e-06,0.0004123151,-0.03930816,48.010513,0.0047884034,15,20,2109
135119516,0,1442826,0.017597524,0.10191263,-9.850414,3992,6.314718e-05,0.00032758794,-0.039317638,48.004524,0.0047884034,24,19,2112
135219550,0,1442826,0.01817236,0.10134561,-9.858945,4034,2.1595783e-05,0.00038918632,-0.03980927,48.016506,0.0047884034,20,20,2106
135322716,0,1442826,0.017437156,0.110256754,-9.845882,4000,5.541672e-05,0.00040449132,-0.039344124,48.00153,0.0047884034,17,18,2101
135422716,0,1442826,0.025115132,0.09506089,-9.8455105,4000,0.00012472903,0.00035324116,-0.039316356,48.073414,0.0047884034,23,18,2107
135525957,0,1442826,0.017035738,0.11728202,-9.865322,4037,1.185677e-05,0.00043172197,-0.039814495,48.02549,0.0047884034,19,20,2114
135625923,0,1442826,0.008002162,0.111697465,-9.84053,3998,2.1105921e-05,0.00041796308,-0.0393732,48.07042,0.0047884034,19,22,2114
135729116,0,1442826,0.0032720328,0.11331641,-9.839996,3993,5.355578e-05,0.0004403836,-0.039294876,48.03148,0.0047884034,17,18,2111
135829116,0,1442826,0.022986857,0.091375306,-9.852693,3957,3.5660545e-05,0.00030725935,-0.03897611,48.073414,0.0047884034,25,14,2099
135932396,0,1442826,0.02881125,0.10871736,-9.852883,4080,1.0192973e-05,0.00036697887,-0.04044053,48.07042,0.0047884034,29,19,2131
136032332,0,1442826,0.042797573,0.12795594,-9.856213,4009,-3.8896695e-05,0.00094898103,-0.039380014,48.07042,0.0047884034,2,9,2100
136135557,0,1442826,-0.037662394,0.11645645,-9.958197,3996,0.0023094488,0.0015741163,-0.03968949,48.07042,0.0047884034,-25,-66,2054
136239532,0,1442826,0.031754255,0.06960836,-10.055158,4016,-0.0015859556,0.00069996377,-0.03920243,48.046455,0.0047884034,-14,20,2001
136339522,0,1442826,-0.20089719,-0.018635185,-10.133921,3989,0.0013156733,-1.23072605e-05,-0.038100623,48.097374,0.0047884034,90,-191,1960
136442733,0,1442826,0.055682547,0.017295161,-10.328139,4017,-0.006873811,0.0010432466,-0.05077552,48.079403,0.0047884034,82,491,2124
136542716,0,1442826,-0.26296765,-0.14684924,-10.484535,4000,0.0037914454,0.001704475,-0.033483014,48.082397,0.0047884034,48,-218,1861
136645916,0,1442826,0.094632395,0.09863032,-12.505395,3991,-0.004372908,-0.0021523768,-0.047496438,48.10037,0.0047884034,-103,441,2372
136745916,0,1442826,0.38017577,-0.05079275,-11.90715,3974,-0.0001829624,-0.0013341974,-0.054589394,48.055443,0.0047884034,173,209,3160
136849116,0,1442826,0.2484865,0.17313187,-12.148869,3985,0.00065776403,9.969076e-05,-0.04543774,48.07042,0.0047884034,-47,-401,2123
136949116,0,1442826,0.3828189,-0.025756652,-11.968753,3957,0.005202501,0.0035407483,-0.050266035,48.085392,0.0047884034,-238,-258,3016
137052354,0,1442826,0.3932004,0.12036217,-13.100251,3238,-0.0010995438,-0.0018082404,-0.04565137,48.07641,0.0047884034,194,-50,2577
137152328,0,1442826,0.32767126,0.01417875,-10.961758,3981,0.004503575,-0.0015371058,-0.043479268,48.06742,0.0047884034,58,-192,2509
137255545,0,1442826,-0.095993795,-0.042014103,-9.649338,3217,0.0019029779,0.0018334638,-0.027037207,48.079403,0.0047884034,-175,-367,1725
137359516,0,1442826,0.04782796,0.11791898,-8.609018,3994,0.00055090355,0.0023062355,-0.03511837,48.10636,0.0047884034,-89,-66,1919
137459516,0,1442826,0.41486585,0.08031156,-7.835709,3994,-0.0037822356,0.00086446153,-0.038485497,48.10636,0.0047884034,-16,519,2244
137562716,0,1442826,-0.09938972,0.003402746,-5.261411,3950,0.0038908562,-0.0022437274,-0.013787163,48.10037,0.0047884034,75,-221,753
137662733,0,1442826,0.24153708,-0.073095925,-6.780188,4017,0.004021971,0.0012346664,-0.028618999,48.13032,0.0047884034,24,23,2356
137766774,0,1442826,-0.016622324,0.07260742,-6.9460287,4058,0.0024611424,-0.0013331505,-0.02080303,48.11834,0.0047884034,67,-302,1173
137865916,0,1442826,0.09980642,-0.038107097,-8.2024355,4000,-0.006636532,-2.0458276e-05,-0.041982647,48.091385,0.0047884034,34,336,1837
137969916,0,1442826,0.14091155,0.041314095,-9.437788,4000,-2.152921e-05,-0.0012454287,-0.03930032,48.11235,0.0047884034,-25,-248,2010
138069154,0,1442826,0.13415995,-0.015213457,-10.029043,3995,-0.0042870147,0.0010127227,-0.043294534,48.091385,0.0047884034,-273,127,1987
138172350,0,1442826,0.07494671,-0.23821898,-10.283466,3227,0.0021736196,0.002399939,-0.02808299,48.11235,0.0047884034,-175,-302,2149
138272332,0,1442826,0.14981423,-0.031153107,-10.659199,4016,0.003219713,0.0010109331,-0.043880485,48.127327,0.0047884034,188,-255,2313
139293116,0,1442826,-0.089352205,-0.14307386,-9.768466,4000,0.0037001306,0.0006880284,-0.034651004,48.19921,0.0047884034,174,-181,2116
139392327,0,1442826,0.03142555,0.08615757,-10.840194,3993,0.0010918598,-0.0009767739,-0.046155564,48.160275,0.0047884034,200,-142,2285
139496371,0,1442826,0.03592325,0.036761783,-10.54825,4043,0.004735153,0.00042717607,-0.039950445,48.160275,0.0047884034,151,-293,2154
139595516,0,1442826,0.30384612,0.016301425,-9.927837,4000,0.0022755652,-0.001020752,-0.042529806,48.196217,0.0047884034,142,117,2458
139699516,0,1442826,0.15560582,-0.020254077,-9.713227,3983,-0.0013807935,0.0005837836,-0.03749796,48.208195,0.0047884034,-9,17,1842
139798722,0,1442826,0.559134,-0.24927033,-9.248344,4006,-0.0026269828,0.0013680292,-0.042388745,48.196217,0.0047884034,-83,351,2547
139902716,0,1442826,-0.025642721,0.051574852,-9.676472,3994,-0.0051819636,0.00085553195,-0.037889175,48.196217,0.0047884034,-199,201,1661
140002716,0,1442826,0.16370061,-0.033027187,-9.91427,4000,-0.0012549979,0.0023921959,-0.042881746,48.18124,0.0047884034,-174,221,2213
140101923,0,1442826,0.02339896,-0.0930083,-10.702146,4007,0.0018067355,-0.0003657494,-0.03293631,48.208195,0.0047884034,-6,-268,1661
140205949,0,1442826,-0.036645938,0.12641136,-9.571214,4027,0.0024223495,0.0014889967,-0.038273163,48.172253,0.0047884034,-74,-167,2073
140309116,0,1442826,0.040457837,-0.021754025,-9.377698,3953,-0.0019153106,0.00089251716,-0.039951947,48.16926,0.0047884034,-131,34,1833
140413148,0,1442826,0.008488647,0.22037761,-9.926769,4032,-0.0021691164,0.002780172,-0.042655528,48.16327,0.0047884034,-123,76,2115
140512362,0,1442826,0.12936023,0.03008119,-10.372674,4043,0.0014016745,0.0008922926,-0.041062042,48.190224,0.0047884034,-160,148,2129
140616316,0,1442826,0.096070014,0.08401971,-9.80144,3988,0.0035875149,0.0012180785,-0.03864494,48.208195,0.0047884034,89,5,2383
140714754,0,1442826,0.03375272,-0.050753023,-9.609807,3238,-0.00067049,-0.00019087226,-0.03277055,48.235153,0.0047884034,-32,-124,2012
140819516,0,1442826,0.20009844,0.035425026,-10.499074,3979,-0.0005626832,0.0030871895,-0.035052143,48.226166,0.0047884034,-83,37,1815
140923516,0,1442826,0.19952671,0.10451573,-9.743037,4000,0.0026379763,0.0009704733,-0.042991105,48.19921,0.0047884034,165,153,2452
141022733,0,1442826,-0.068174355,0.020939894,-10.106207,4017,0.0012405051,-0.00031996693,-0.036843196,48.21119,0.0047884034,38,-457,1359
141126758,0,1442826,0.09708761,-0.031687398,-9.665528,4042,0.0005824568,0.0020707136,-0.04335347,48.214188,0.0047884034,15,-285,2363
141229916,0,1442826,0.2291307,0.19844648,-10.109949,3954,0.0037013711,-0.0012739456,-0.036848295,48.262108,0.0047884034,73,-161,2016
141329916,0,1442826,0.075653836,0.14570196,-10.495667,4000,-0.004532823,-0.0007567499,-0.03853324,48.22916,0.0047884034,-117,116,1906
141429135,0,1442826,0.07289601,0.14980417,-10.847722,3970,0.004416224,0.003767938,-0.041235447,48.265102,0.0047884034,-69,0,2455
141533123,0,1442826,0.19179928,0.022080366,-6.741278,3956,0.0015810542,0.0009917574,-0.0249026,48.24713,0.0047884034,-40,136,1349
141632328,0,1442826,-0.012134469,0.13159041,-3.797323,4005,0.0042317016,-0.0021103485,-0.017301623,48.208195,0.0047884034,151,-139,1041
141736326,0,1442826,-0.041614946,-0.1706933,-4.1471996,3998,-0.0019388918,-0.0007648638,-0.017476559,48.2681,0.0047884034,-27,104,1042
141835516,0,1442826,0.28232378,0.0958598,-7.2506995,3975,-0.0007826056,0.00024033248,-0.03613676,48.238148,0.0047884034,6,314,1986
141939527,0,1442826,-0.102827616,0.13342369,-9.163105,4011,-0.0012960276,0.0025019953,-0.039479673,48.265102,0.0047884034,20,-267,2529
142039516,0,1442826,0.18408921,0.23746885,-10.837468,4000,0.0016099139,0.0017968484,-0.04649395,48.22317,0.0047884034,212,-126,2707
142142716,0,1442826,0.17824359,0.06699525,-11.093445,4000,0.00030307774,0.00082712236,-0.047812343,48.259113,0.0047884034,-76,-232,2716
142242722,0,1442826,0.19948651,0.24001889,-9.5182705,4006,0.0042552142,-0.00028254822,-0.038105257,48.259113,0.0047884034,124,197,2350
142342766,0,1442826,0.29394582,0.17930117,-8.732418,4050,-0.007624601,0.0023549458,-0.041767903,48.2681,0.0047884034,271,227,2160
142445927,0,1442826,0.12099455,0.19522846,-6.3326716,4011,-0.0012875956,0.0030969796,-0.028424634,48.277084,0.0047884034,30,158,1020
142549116,0,1442826,0.1411014,0.17212135,-7.395425,3982,0.0044355863,-0.00012386493,-0.02818118,48.27409,0.0047884034,59,-215,1315
142649116,0,1442826,0.040102668,0.06620852,-8.75456,3958,0.002430781,0.003196836,-0.027980963,48.271095,0.0047884034,-110,-329,1602
142749116,0,1442826,0.1832454,-0.06892723,-10.094895,4000,-0.00084433454,0.00014180601,-0.050558887,48.301044,0.0047884034,189,192,3097
142852328,0,1442826,0.20947872,0.1699027,-10.400008,4012,-0.00068168354,-0.00046386928,-0.049042836,48.29805,0.0047884034,165,37,2500
142952328,0,1442826,0.17848648,0.20082428,-10.293709,4008,0.0037845394,-0.0026447466,-0.038721282,48.29206,0.0047884034,173,137,2026
143056347,0,1442826,-0.14598298,0.06392397,-9.780271,4019,0.004473692,-0.00052780786,-0.031945504,48.283073,0.0047884034,254,-307,1563
143155516,0,1442826,0.020968132,0.2038732,-9.007885,4000,0.0010198186,-0.0008709072,-0.03548679,48.28008,0.0047884034,297,137,1949
143258730,0,1442826,-0.09722996,-0.028121669,-10.011894,4014,-0.0025751793,0.0004898943,-0.041940883,48.262108,0.0047884034,-155,-37,1942
143358750,0,1442826,0.14651746,-0.13430569,-10.663843,4034,0.00044541497,-0.0009764532,-0.034625355,48.301044,0.0047884034,-44,-64,2092
143461927,0,1442826,0.116138235,-0.047175072,-10.736531,4005,-0.002680745,-0.0020950774,-0.042918723,48.307037,0.0047884034,82,38,1496
143561916,0,1442826,0.05465173,-0.026312178,-9.308887,4000,-0.001028879,-0.0027683708,-0.03719715,48.301044,0.0047884034,141,36,2318
143661962,0,1442826,0.18578193,-0.03377354,-9.30266,4046,0.0067044953,0.002785186,-0.035221145,48.307037,0.0047884034,183,18,1984
143765117,0,1442826,0.28813565,-0.36283284,-10.5151005,3982,-0.0042703375,0.0007490468,-0.053556167,48.304043,0.0047884034,-173,158,2382
143869165,0,1442826,0.22614284,-0.10328991,-13.81007,4020,-0.003805697,-0.00044449267,-0.06282865,48.328003,0.0047884034,23,466,3112
143972336,0,1442826,0.010084121,-0.10451496,-13.295326,4020,0.0028553116,0.0041279253,-0.05580634,48.319016,0.0047884034,-93,-147,3083
144076316,0,1442826,0.24932124,-0.14538103,-10.725776,3978,-0.0036728499,0.00092454697,-0.04883232,48.32501,0.0047884034,-5,59,2863
144179516,0,1442826,0.09708104,0.036323078,-8.976942,4000,0.004172353,0.000255698,-0.037254356,48.357956,0.0047884034,-16,254,2078
144279516,0,1442826,0.13021427,0.006622292,-9.182831,4000,0.00071141135,-0.0010579432,-0.032343905,48.339985,0.0047884034,159,4,1702
144382741,0,1442826,0.27391595,0.12725908,-8.735594,4025,-0.005215558,0.0013706763,-0.038292833,48.313026,0.0047884034,22,584,2237
144486736,0,1442826,0.12766261,0.1707382,-9.968798,3974,-0.0021415916,0.0023515031,-0.041293018,48.328003,0.0047884034,110,158,2084
144589159,0,1442826,0.111226685,-0.1783174,-10.961819,3235,-0.0020861172,-0.0024753723,-0.032561164,48.351963,0.0047884034,52,2,1894
144689916,0,1442826,-0.07959968,0.14792192,-10.309041,3996,0.0041132723,0.003370774,-0.035582945,48.351963,0.0047884034,107,-434,2055
144792377,0,1442826,0.14981979,0.028065639,-9.54509,3242,0.0032027415,-0.0005362184,-0.027230596,48.319016,0.0047884034,70,105,2336
144893154,0,1442826,0.07673914,0.16899757,-8.725103,4038,0.0028593228,-0.00034774735,-0.02458795,48.36095,0.0047884034,190,-150,1513
144993118,0,1442826,-0.20098121,-0.1410286,-6.2037473,4002,0.0015484256,-0.0011521623,-0.013181722,48.36694,0.0047884034,-45,-215,975
145096323,0,1442826,0.21838196,-0.08908099,-6.9370522,3995,0.0003148745,0.0019800272,-0.035410333,48.363945,0.0047884034,92,153,1799
145196343,0,1442826,0.14696278,0.15667465,-9.042108,3978,-0.0027843493,-0.0006818,-0.042626463,48.36095,0.0047884034,127,-10,2218
145299516,0,1442826,0.20435113,0.1443122,-10.418456,4000,-0.00053232495,-0.0008159402,-0.044070475,48.36095,0.0047884034,412,36,2367
145403516,0,1442826,0.13782291,0.175829,-10.971394,3994,0.0053920243,-0.003915498,-0.040222738,48.35496,0.0047884034,393,-116,1954
145503525,0,1442826,0.13897145,-0.060358156,-9.993289,4009,-0.000860578,0.0031294988,-0.04054339,48.34897,0.0047884034,-304,123,2273
145606731,0,1442826,0.34854028,-0.09494303,-8.982409,4015,0.0052945414,-0.0015174424,-0.03379796,48.34897,0.0047884034,218,308,2221
145706716,0,1442826,0.34522852,0.041726585,-9.732897,3999,0.004662967,-0.00035310473,-0.035515808,48.381916,0.0047884034,31,143,2272
145809922,0,1442826,0.06605844,-0.15753579,-10.405494,3999,0.0024014073,0.0021749905,-0.041220237,48.37892,0.0047884034,-323,-282,1516
145909916,0,1442826,0.28198877,0.072854176,-9.65553,4000,0.0017966704,0.000877144,-0.043172028,48.387905,0.0047884034,-53,165,2487
146013116,0,1442826,-0.047664378,-0.086246446,-9.857862,4000,-0.0053194417,0.0036327455,-0.045182094,48.381916,0.0047884034,-220,-175,2966
146117116,0,1442826,0.25232968,-0.2669768,-10.452766,3976,-0.0038851523,-0.0006015205,-0.040041886,48.381916,0.0047884034,-367,90,2068
146220316,0,1442826,0.1772155,0.24499294,-9.858904,4000,0.0030949933,-0.0032789386,-0.032334596,48.399887,0.0047884034,334,17,1776
146324322,0,1442826,0.20504043,0.14158377,-9.861883,4006,0.0037885916,0.0010385696,-0.042943448,48.399887,0.0047884034,1,10,2247
146423523,0,1442826,0.4471331,0.028469913,-9.587933,4007,0.0011389058,-0.0018941481,-0.03596002,48.387905,0.0047884034,195,431,2252
146527516,0,1442826,0.0402075,0.13135202,-9.718014,4000,0.0014305178,0.004054291,-0.044055928,48.399887,0.0047884034,-127,-166,2847
146626716,0,1442826,0.150359,0.09611222,-9.889724,4001,-0.001681719,-0.00041418168,-0.04404363,48.420853,0.0047884034,29,300,2469
146730716,0,1442826,0.144061,0.052033663,-10.197826,4000,0.0017586097,0.0026160935,-0.042657234,48.43583,0.0047884034,-280,-245,1901
146830716,0,1442826,0.1044812,0.20475332,-9.6748,3994,-0.0009306597,-0.00055581494,-0.049947277,48.426846,0.0047884034,215,297,2300
146933916,0,1442826,-0.081199154,0.378997,-14.672898,4000,-0.0021191787,0.00091192103,-0.053472802,48.432835,0.0047884034,-53,92,2246
147033916,0,1442826,0.29400855,-0.050047543,-12.576907,4000,0.0025697066,-0.0022197317,-0.04622671,48.423847,0.0047884034,-19,105,2665
147137160,0,1442826,0.3745405,-0.0159548,-13.472093,4043,0.0015738803,0.003690064,-0.061516523,48.423847,0.0047884034,-73,36,3572
147237116,0,1442826,0.4181809,0.020558484,-18.65464,4000,-0.00094140385,0.00060753204,-0.074487336,48.45979,0.0047884034,-75,-339,3501
147340327,0,1442826,0.15691131,-0.07269621,-13.128852,4001,0.0008736638,0.0027007759,-0.04789561,48.489742,0.0047884034,-247,-81,2972
147440334,0,1442826,-0.010513424,0.15564811,-9.011425,4018,-0.0026980818,-0.00021089031,-0.033631418,48.43583,0.0047884034,-60,115,1454
147540316,0,1442826,0.45484662,0.06530613,-8.243894,3985,0.003941915,0.0014744536,-0.029399663,48.444817,0.0047884034,-55,256,2474
147643516,0,1442826,0.012669861,0.1673888,-9.327647,3990,-0.0045718886,0.0013007349,-0.039323427,48.456795,0.0047884034,-120,36,1783
147743516,0,1442826,-0.0061620725,0.06118467,-10.704667,3981,-0.0014237758,0.0031783194,-0.040238816,48.4538,0.0047884034,-110,-259,1556
147846735,0,1442826,0.19143514,0.16283903,-10.148227,4019,-0.00027709757,0.0006662504,-0.043482635,48.47177,0.0047884034,218,186,2498
147946725,0,1442826,-0.026889957,0.1774338,-9.925213,4003,0.00040025884,-0.0022181731,-0.040181294,48.462788,0.0047884034,222,-170,2027
148049920,0,1442826,0.17869492,0.16480315,-9.686331,4004,7.575055e-05,0.0043872823,-0.039669015,48.4538,0.0047884034,-261,88,2525
148149916,0,1442826,-0.046477865,0.2026204,-10.2072315,3994,4.7765658e-05,0.0011609822,-0.041580074,48.47776,0.0047884034,226,-83,1886
148253144,0,1442826,0.21495436,-0.0017972414,-9.25462,4028,0.00073380856,0.00081454916,-0.04295837,48.465782,0.0047884034,-147,191,2450
148353116,0,1442826,0.3868451,0.16523133,-9.873675,4000,-0.0020712046,-0.0019237633,-0.0463072,48.4538,0.0047884034,51,109,2433
148456316,0,1442826,0.4451869,0.13777229,-9.349417,3988,-0.00020679389,5.0376784e-05,-0.03574996,48.489742,0.0047884034,81,460,2522
148556316,0,1442826,-0.08076678,0.051049445,-9.633348,3951,0.001400752,0.00014145498,-0.04218639,48.456795,0.0047884034,250,-75,2312
148660327,0,1442826,0.1723736,0.21964069,-12.046405,3998,0.00019122422,0.001983983,-0.04997143,48.483753,0.0047884034,-71,-188,2559
148759516,0,1442826,0.081073746,-0.010765069,-11.715093,3993,-0.00017738529,-0.00046844527,-0.04001693,48.510708,0.0047884034,-97,-247,1818
148859516,0,1442826,-0.116212755,0.11757372,-10.6045,4000,0.002231285,0.0008009858,-0.03754303,48.543655,0.0047884034,-81,-247,2450
148962716,0,1442826,0.5313212,0.054865353,-11.095951,4000,-0.0012309343,-0.0016851256,-0.052212287,48.510708,0.0047884034,162,327,2826
149062716,0,1442826,0.15079123,-0.031676225,-11.813382,3989,0.0048592887,0.0019196846,-0.043858975,48.49573,0.0047884034,-135,-341,2297
149165927,0,1442826,-0.040129762,0.004786305,-11.619576,4011,0.00033353677,-0.0010802298,-0.04001253,48.52868,0.0047884034,5,-381,2347
149265916,0,1442826,0.378473,-0.3483322,-12.146511,4000,0.0013345724,0.0018829306,-0.0510813,48.5167,0.0047884034,-122,-16,3179
149369122,0,1442826,0.39137504,0.001381186,-12.171648,4006,0.0005720179,-0.002230951,-0.048301093,48.501724,0.0047884034,132,36,2367
149469140,0,1442826,0.037576266,-0.023197949,-11.748166,4024,0.003918901,0.0012603379,-0.04042151,48.54665,0.0047884034,-142,-255,2410
149573119,0,1442826,0.15046892,-0.105637476,-12.410497,4003,-0.0013364842,-0.00032436434,-0.052361306,48.582592,0.0047884034,-179,-204,2655
149672347,0,1442826,0.026705435,-0.13021573,-12.88402,4031,0.0008397809,-0.0042864634,-0.04785148,48.53467,0.0047884034,393,61,2761
149775534,0,1442826,0.08457225,-0.08805175,-12.701773,4012,0.0003697187,-0.0026387246,-0.052423052,48.52269,0.0047884034,-100,-105,2469
149875562,0,1442826,0.41391826,-0.09594533,-12.218279,4039,-0.00042470486,-0.0012607774,-0.052707903,48.55863,0.0047884034,137,214,2593
149975516,0,1442826,0.44681183,-0.28010723,-13.567779,4000,-0.00029545656,-0.003579083,-0.06296566,48.50472,0.0047884034,422,1,2975
150078717,0,1442826,0.24090934,-0.45119265,-13.569927,3968,0.0038354895,-0.00017879797,-0.053655174,48.57361,0.0047884034,-26,-352,2885
150182741,0,1442826,0.52037054,-0.38463748,-14.756423,4007,0.0020876254,-0.002077458,-0.05496563,48.549644,0.0047884034,186,190,3346
150285925,0,1442826,0.27179116,-0.2228442,-12.638999,4009,-0.0014404365,-0.003892717,-0.05813898,48.53467,0.0047884034,240,44,2722
150385916,0,1442826,0.28485966,-0.35360232,-9.411157,4000,0.0049861725,-0.00033093983,-0.034618177,48.537666,0.0047884034,80,-124,1948
150489116,0,1442826,0.17359327,-0.19040462,-9.844869,3975,0.003189723,0.0006046361,-0.037911303,48.525684,0.0047884034,86,11,2768
150589116,0,1442826,0.14516774,0.021000162,-10.173773,3972,0.001237209,-0.0013142913,-0.041070834,48.567616,0.0047884034,76,5,1834
150692327,0,1442826,0.1450792,0.03949748,-10.280472,3999,-0.0030790102,-0.0008791779,-0.047797423,48.55863,0.0047884034,133,30,1838
150792327,0,1442826,0.09438652,-0.038558565,-9.982921,4011,-0.0030250219,-0.0013240445,-0.039249063,48.54066,0.0047884034,40,-34,1834
150895515,0,1442826,-0.032347076,-0.020987745,-10.618308,3999,-0.0009336916,-0.0033336529,-0.036367938,48.54665,0.0047884034,121,25,1726
150995516,0,1442826,0.15811834,0.11718066,-9.003306,3945,0.003270192,0.0013722072,-0.038720675,48.54066,0.0047884034,33,-19,2355
151095516,0,1442826,0.15578759,-0.26590496,-10.732903,3999,0.0016048417,-0.0019719645,-0.03658208,48.54665,0.0047884034,53,-274,1945
151198762,0,1442826,0.20534764,-0.05184976,-9.735508,4041,0.00046626548,0.0012707156,-0.03312234,48.576603,0.0047884034,33,-54,1895
151302716,0,1442826,0.2339593,0.048643615,-9.828944,3989,0.002536427,0.00049161614,-0.026477303,48.555637,0.0047884034,-88,-65,1833
151405916,0,1442826,0.3022062,0.029892907,-9.862006,4000,-0.0003546736,-0.0016832135,-0.037846506,48.579597,0.0047884034,112,-56,1304
151505937,0,1442826,0.3322433,-0.28935197,-10.028197,4010,0.003005953,0.0013287499,-0.039369293,48.561626,0.0047884034,-267,-180,2874
151609125,0,1442826,0.13272564,-0.08571612,-10.143948,4009,0.0029942086,0.00094855076,-0.032480903,48.585587,0.0047884034,-87,-479,1980
151709116,0,1442826,0.25804347,-0.18360147,-9.40895,4000,0.0015215975,-0.00056871935,-0.03401519,48.588585,0.0047884034,-209,-22,1954
151813172,0,1442826,0.14214581,-0.04622512,-4.3622484,4798,-0.0033758078,0.00023652655,-0.024390765,48.57361,0.0047884034,25,208,1057
151912362,0,1442826,0.12326916,0.015114494,-1.8525773,4046,0.005574474,-0.002131898,-0.007050243,48.55863,0.0047884034,193,-288,750
152015549,0,1442826,0.09762467,0.009532807,-1.3722581,3221,0.0007200259,0.0011856789,-0.003816126,48.567616,0.0047884034,-56,-84,412
152115516,0,1442826,-0.03274976,-0.041123375,-1.1241659,4000,0.0010709466,-0.0018384508,-0.0035438496,48.594574,0.0047884034,124,-64,208
152215516,0,1442826,0.09262275,-0.09188376,-1.0496377,3979,-0.00033190264,0.0003633845,-0.0040062293,48.585587,0.0047884034,35,33,233
152318718,0,1442826,-0.058315292,0.046887722,-1.0077437,3995,0.00010238383,6.705396e-05,-0.0025823845,48.579597,0.0047884034,32,-11,192
152422716,0,1442826,-0.3596551,-0.0017157552,-2.8777735,4000,0.0015838369,5.683528e-05,-0.01466895,48.582592,0.0047884034,40,-123,822
152525922,0,1442826,0.23271045,-0.09745149,-8.018556,4006,-0.004707926,0.00030584424,-0.035495274,48.59757,0.0047884034,-97,265,2026
152625922,0,1442826,-0.048152674,-0.21755104,-10.5018835,4006,0.0032597957,-0.0017032789,-0.040994503,48.60955,0.0047884034,-85,-405,1718
152729116,0,1442826,0.17304301,0.041915312,-10.178419,4000,0.005453052,-0.0009506722,-0.03849735,48.624527,0.0047884034,57,-341,2087
152829122,0,1442826,0.2461939,0.04468317,-17.628483,3998,-0.0028112552,0.00048302364,-0.08412692,48.579597,0.0047884034,-47,41,3937
152932327,0,1442826,0.265623,-0.13197358,-10.39478,3998,0.001572178,-0.0034432816,-0.036870375,48.63351,0.0047884034,225,-87,1959
153032327,0,1442826,-0.19815986,-0.06955117,-6.3851967,4005,-0.0047674268,-0.0013054683,-0.028021842,48.630516,0.0047884034,201,424,1183
153135557,0,1442826,0.24905308,0.05998319,-5.655501,3230,-0.0013318022,-0.0006975294,-0.026692007,48.669453,0.0047884034,-62,-110,2092
153235516,0,1442826,-0.099370934,-0.09809661,-8.873402,3999,-0.008075546,-0.0014507003,-0.041289035,48.612545,0.0047884034,33,181,1475
153335516,0,1442826,0.39375833,0.0047728727,-9.084201,4000,0.0036556802,0.0016383916,-0.03670688,48.681435,0.0047884034,-85,-1,2275
153438716,0,1442826,0.17379752,0.04201886,-10.854222,4000,0.0008834805,-0.003843551,-0.04025177,48.642498,0.0047884034,308,-168,1946
153538736,0,1442826,0.004463278,-0.0066354056,-10.378415,4020,-0.005441433,0.00046915733,-0.046245836,48.6395,0.0047884034,-38,149,2241
153642766,0,1442826,0.26761422,-0.030834997,-10.021888,4050,0.005593504,0.0018423435,-0.039078996,48.6395,0.0047884034,-32,4,1911
153741923,0,1442826,0.082002446,0.01120213,-8.956612,4007,-0.00429691,0.0018337605,-0.04000679,48.681435,0.0047884034,93,88,1956
153845116,0,1442826,-0.09893304,0.020320173,-9.676023,3982,-0.0043736333,0.00020579057,-0.04103071,48.648487,0.0047884034,-45,39,1861
153945121,0,1442826,0.38767347,-0.0659247,-9.85651,3955,0.0041834014,0.00029304333,-0.039972745,48.648487,0.0047884034,18,51,2493
154049116,0,1442826,-0.09699015,-0.019000929,-10.40032,3996,-0.0018304149,0.0002321993,-0.043446746,48.681435,0.0047884034,4,-299,1701
154148316,0,1442826,-0.037520397,-0.08972095,-9.007539,3994,0.0040732385,0.00010441884,-0.026704397,48.66047,0.0047884034,-284,-343,1653
154252327,0,1442826,0.028986135,-0.049561378,-10.004404,4011,0.0006939515,-0.0018323085,-0.039334647,48.70839,0.0047884034,244,-388,1455
154351516,0,1442826,0.07580073,-0.23033059,-10.189419,4000,-0.005734089,-0.00014528999,-0.04745838,48.69641,0.0047884034,-127,233,2013
154455547,0,1442826,0.3121089,0.15469855,-9.719021,4031,-0.0013161986,-0.00097145786,-0.037247885,48.693413,0.0047884034,220,400,2137
154554716,0,1442826,0.040434416,-0.16785201,-10.127799,4000,0.004050484,0.0007185702,-0.0386233,48.68443,0.0047884034,-127,-479,1953
154658762,0,1442826,-0.1300466,-0.11864456,-9.560118,4046,0.005129494,-0.0030380045,-0.027706495,48.672447,0.0047884034,132,-473,1717
154757929,0,1442826,0.16092867,0.13305485,-9.977839,4013,0.002295654,0.0016114194,-0.040679343,48.693413,0.0047884034,198,35,2394
154861916,0,1442826,0.480625,0.12335969,-10.124471,3993,0.0024285836,-0.00130239,-0.043829024,48.70839,0.0047884034,149,43,2219
154961127,0,1442826,0.9800276,-0.36039925,-11.107884,4011,-0.00091359345,-0.0004415625,-0.04243403,48.705395,0.0047884034,210,-417,2308
155061146,0,1442826,-0.2806765,0.10820756,-10.458757,4018,-0.0055209133,-0.000439647,-0.043507203,48.693413,0.0047884034,-14,357,1697
155165116,0,1442826,-0.08008764,0.07207973,-10.236154,4000,-0.0025245212,-0.0034963253,-0.040076897,48.723366,0.0047884034,108,-83,2439
155264316,0,1442826,-0.2971258,-0.22875115,-9.791869,3994,-0.004976687,0.0010439925,-0.043542895,48.72636,0.0047884034,-25,393,2489
155368316,0,1442826,-0.6910948,0.04403863,-9.043973,3958,-0.007569889,0.00059135427,-0.041988958,48.72037,0.0047884034,-128,-169,1968
155467516,0,1442826,0.5939947,0.57348806,-10.224386,4000,0.0034144686,0.007667589,-0.04676249,48.759308,0.0047884034,-195,-479,2851
155571540,0,1442826,-0.3590856,-1.5659235,-13.509601,3982,-0.00038753264,-0.002670706,-0.053557634,48.768295,0.0047884034,37,-628,3100
155674716,0,1442826,-0.16183788,-0.27645898,-11.011839,3985,-0.0034603125,-0.0024417224,-0.037410773,48.75332,0.0047884034,-195,-423,2228
155778716,0,1442826,-0.26223075,-0.13684262,-9.015752,3999,0.0009276335,-1.2545148e-05,-0.03491999,48.7653,0.0047884034,50,206,1836
155877924,0,1442826,-0.23192742,-0.5034512,-10.070879,3983,0.0050407816,-0.0012861427,-0.0363714,48.77129,0.0047884034,95,-430,2263
155981916,0,1442826,-0.31338292,-0.6887875,-11.294613,3950,-0.0062353117,-0.0051011266,-0.050013542,48.774284,0.0047884034,94,406,2247
156081116,0,1442826,0.20646997,-1.0549037,-11.4189415,4000,-0.0008046297,-0.0033934591,-0.049890578,48.735348,0.0047884034,461,-137,2734
156181164,0,1442826,-0.25908035,-2.1148221,-8.921553,4048,-0.0042809006,-0.0077314214,-0.036811728,48.756313,0.0047884034,354,-142,2688
156284316,0,1442826,-0.010345204,0.72560155,-9.963271,3978,-0.003540165,0.0016551715,-0.04574503,48.78327,0.0047884034,-251,590,2345
156384316,0,1442826,-0.39042312,-0.9547026,-9.149919,3994,-0.005515127,-0.006258414,-0.03176319,48.750324,0.0047884034,-2,-755,2342
156488364,0,1442826,-0.1922379,-0.48213497,-9.084622,4048,0.008883957,-0.0012170034,-0.034556072,48.786266,0.0047884034,-398,391,2121
156591516,0,1442826,0.77982444,-1.0197276,-13.065919,3994,-0.0035902348,-0.005620524,-0.05873609,48.780273,0.0047884034,36,57,3227
156695516,0,1442826,0.14052458,-0.6570452,-11.499799,4000,-3.5145436e-05,-0.00077256095,-0.042448565,48.75332,0.0047884034,72,-8,1699
156794716,0,1442826,0.42899612,-0.90530425,-10.090888,3997,0.0033303888,-0.0016445381,-0.042161927,48.741337,0.0047884034,46,84,2474
156898780,0,1442826,0.06520339,-0.9838087,-9.666896,4064,-0.002424041,-0.0020713662,-0.040546026,48.798244,0.0047884034,-153,-783,2132
157001918,0,1442826,1.1375133,-0.6867929,-9.869154,4002,0.0018159149,-0.0037339837,-0.041850764,48.786266,0.0047884034,-55,-242,2498
157105916,0,1442826,0.5409153,-0.60415703,-9.888451,4000,0.005071411,-0.007613912,-0.041563444,48.78327,0.0047884034,-67,38,1958
157209116,0,1442826,-0.5371281,0.7333291,-10.211455,4000,-0.0055832425,0.0040263548,-0.056860078,48.768295,0.0047884034,424,-40,3086
157313116,0,1442826,1.1111763,-1.349123,-9.923627,3959,0.009647328,-0.010355148,-0.041902423,48.816216,0.0047884034,697,-36,2529
157416316,0,1442826,0.35783553,-1.0341582,-9.752416,3982,0.0027639852,-0.0027676472,-0.03648555,48.798244,0.0047884034,29,-792,2462
157516316,0,1442826,0.43289438,-1.0758065,-10.368924,3982,0.0011943043,-0.0072572976,-0.03913164,48.79525,0.0047884034,69,-114,2464
157618745,0,1442826,0.5985415,-1.2199188,-10.940822,3229,0.001985929,-0.0040636426,-0.033346377,48.780273,0.0047884034,-88,-77,2497
157719516,0,1442826,0.4226234,-1.1544467,-11.091873,4000,0.004176667,-0.0016103275,-0.031605355,48.7653,0.0047884034,356,1,1572
157819529,0,1442826,0.3517408,-1.3514955,-10.141775,4013,0.0014466209,-0.003745629,-0.038920626,48.798244,0.0047884034,513,-174,2709
157922716,0,1442826,0.40102717,-1.9964463,-8.891117,4000,-0.004548736,-0.009950032,-0.039687112,48.792255,0.0047884034,564,-56,1654
158022716,0,1442826,0.7278385,-0.37319213,-9.830292,4000,0.0034686595,-0.0021918432,-0.04087198,48.792255,0.0047884034,88,126,2028
158125975,0,1442826,0.5738507,-1.360429,-10.070099,4059,0.00022282684,-0.012101379,-0.05086182,48.834187,0.0047884034,246,-349,2740
158225940,0,1442826,0.6196262,-1.1875924,-10.495133,4024,-0.004700966,-0.007720477,-0.045162916,48.780273,0.0047884034,46,452,1790
158329116,0,1442826,0.34226787,-0.9380897,-10.282545,3996,0.008360495,-0.003006531,-0.03884284,48.78926,0.0047884034,873,-455,1741
158429124,0,1442826,0.49539265,-1.4122816,-9.73068,4008,5.1861047e-05,-0.007417507,-0.033413388,48.828197,0.0047884034,-106,27,2375
158532327,0,1442826,0.26207933,-1.0244256,-9.771362,3987,0.008905519,-0.0008357946,-0.03855531,48.82221,0.0047884034,758,-263,1807
158632353,0,1442826,0.5165045,-1.6019728,-10.173506,4026,0.0019470472,-0.012983631,-0.034280576,48.81322,0.0047884034,654,-190,2137
158735530,0,1442826,0.43407622,-0.93343234,-10.948658,4014,0.0034693475,-0.0030622003,-0.051779293,48.834187,0.0047884034,462,-19,1852
158835516,0,1442826,0.7744323,-0.58862233,-10.946156,4000,0.003885389,-0.0019371291,-0.044574693,48.84617,0.0047884034,531,491,1200
158935516,0,1442826,0.46255037,-0.6576923,-10.114029,3983,0.0044352557,0.0041414713,-0.03291792,48.852158,0.0047884034,-145,-632,1853
159042716,0,1442826,0.5830901,-0.62196076,-9.001435,3950,0.004178023,-0.003893184,-0.03663308,48.825203,0.0047884034,791,682,2024
159146716,0,1442826,0.59161454,-0.35652792,-9.606389,4000,0.0046090637,0.000670451,-0.03578074,48.873127,0.0047884034,493,378,1578
159249930,0,1442826,0.6073894,-0.46850556,-10.38941,4014,-0.0013505165,-0.009095977,-0.03460995,48.831192,0.0047884034,1135,376,1467
159349916,0,1442826,0.3008525,-0.5685781,-10.26665,4000,2.9169954e-05,-0.0013085533,-0.048963062,48.84018,0.0047884034,-102,-155,2856
159452410,0,1442826,0.09972587,-0.5742748,-10.8371935,3269,-4.4792192e-05,-0.00077950425,-0.028255604,48.87013,0.0047884034,94,-673,1225
159553129,0,1442826,0.49589783,-0.552003,-10.97504,4013,0.005031799,0.000136544,-0.04721111,48.861145,0.0047884034,657,61,1896
159656316,0,1442826,0.42151108,-0.38542825,-10.817585,3988,0.0039244965,-0.003166309,-0.03480347,48.87013,0.0047884034,33,-388,1797
159756316,0,1442826,0.44565964,-0.35946357,-9.993333,3974,0.0050087464,0.0014957195,-0.033201043,48.861145,0.0047884034,-571,31,2715
159856316,0,1442826,0.38411075,-0.6774837,-10.2513,3988,0.0014350107,0.004842667,-0.044064432,48.891098,0.0047884034,255,282,1169
159963516,0,1442826,0.40332523,-0.50189644,-10.60666,3980,0.0039536855,0.0029817498,-0.04302145,48.867134,0.0047884034,100,-228,2196
160062716,0,1442826,0.6155778,-0.34341297,-10.812604,4000,0.0053480202,-0.0045352876,-0.042689405,48.86414,0.0047884034,543,-273,1744
160776316,0,1442826,0.35210368,-0.29334173,-8.764836,3988,0.002903677,-0.00062545534,-0.03475005,48.912064,0.0047884034,172,-147,1666
160876316,0,1442826,0.57874584,-0.23295797,-8.558953,3989,-0.000910033,-0.001051384,-0.036779594,48.91506,0.0047884034,153,615,2218
160976351,0,1442826,0.19186151,-0.16039039,-9.178522,4023,-0.0025563722,-0.00094769406,-0.038245957,48.897087,0.0047884034,-32,-419,2206
161079516,0,1442826,0.37693593,-0.24958535,-10.841688,4000,-0.0010794174,-0.0050941803,-0.048686944,48.93902,0.0047884034,-18,134,2253
161182760,0,1442826,0.3849992,-0.2860652,-10.329977,3244,-0.0010279539,0.0002436238,-0.03865259,48.90008,0.0047884034,-2,220,2731
161282722,0,1442826,0.13831833,-0.19507115,-10.597638,4006,0.0013602951,0.0008313795,-0.03412807,48.918053,0.0047884034,-178,-431,1766
161385953,0,1442826,0.4123834,-0.5040588,-9.779644,3230,-0.0023310438,0.003332964,-0.03402651,48.921047,0.0047884034,-463,181,2451
161485916,0,1442826,0.30453238,-0.11134855,-9.47174,4000,0.0013707997,0.0008673633,-0.03946525,48.90907,0.0047884034,489,-49,2412
161585922,0,1442826,0.4381754,-0.3352752,-10.067308,3973,0.0029897182,-0.0054045212,-0.04251447,48.921047,0.0047884034,412,211,2435
161689116,0,1442826,0.18305984,-0.32391518,-9.853534,3993,0.00028170948,-0.0029612111,-0.034863092,48.921047,0.0047884034,29,-241,1930
161789116,0,1442826,0.23333703,-0.3006704,-9.506879,3994,0.0073331385,0.003291952,-0.036273904,48.95699,0.0047884034,-17,-354,2261
161891582,0,1442826,0.50513613,-0.24518734,-10.100398,3245,-0.00073239766,-0.0024122298,-0.039200433,48.959984,0.0047884034,51,431,3026
161992365,0,1442826,0.15605049,-0.33824182,-9.750425,4049,-0.001714433,-0.006263677,-0.036801595,48.95699,0.0047884034,564,192,2039
162096323,0,1442826,0.3528683,-0.18157174,-9.195081,3995,0.0040461314,0.0047083735,-0.0322437,48.96897,0.0047884034,-139,-165,2583
162195527,0,1442826,0.11154037,-0.19510782,-10.33607,4011,-0.0063491864,-0.0058277017,-0.045864657,48.95699,0.0047884034,-39,264,2262
162294739,0,1442826,0.11737557,-0.5331915,-10.690002,4023,-0.0032224548,-0.0018715309,-0.03965187,48.930035,0.0047884034,-92,10,1826
162398722,0,1442826,0.5005353,-0.28013483,-10.574529,4006,0.0013624164,-0.0048232824,-0.04301831,48.977955,0.0047884034,203,71,2001
162498722,0,1442826,0.28930923,-0.16462906,-9.545358,4006,0.000115950126,-0.00091673865,-0.03483049,48.942013,0.0047884034,83,-310,2123
162601923,0,1442826,0.2280902,-0.24518108,-9.104224,4007,0.0015761371,-0.0017789247,-0.027869202,48.948006,0.0047884034,-118,-236,1496
162705915,0,1442826,0.1968937,-0.40966597,-10.216291,3999,0.002509202,-0.003630281,-0.041582808,48.962982,0.0047884034,314,-121,1785
162809116,0,1442826,0.3614243,-0.41376135,-9.545877,4000,-0.0010992651,0.00035746978,-0.038664125,48.980953,0.0047884034,-231,26,2274
162909116,0,1442826,0.10968604,-0.2133083,-9.804512,4000,0.0014438656,-0.0005397529,-0.040713947,48.94501,0.0047884034,206,-299,1725
163012334,0,1442826,0.2577365,-0.3556019,-9.853744,4018,0.0063516493,-0.0019604973,-0.037174795,48.989937,0.0047884034,184,-241,1913
163112335,0,1442826,0.45043367,-0.3443272,-9.809475,4019,-0.002462428,-0.0008743046,-0.04497902,49.007908,0.0047884034,-86,229,2675
163215533,0,1442826,0.16006619,-0.32317224,-9.998996,4017,0.005442685,0.0035277782,-0.041309334,49.00192,0.0047884034,77,-393,2115
163315516,0,1442826,0.30852583,-0.5707287,-9.262694,3997,0.0025441651,0.0002116207,-0.029076464,48.983948,0.0047884034,-32,-380,2129
163415516,0,1442826,0.0070728376,-0.27297926,-9.536628,4000,0.00031500158,-0.0035977382,-0.040896773,48.998924,0.0047884034,122,-306,2384
163518716,0,1442826,0.45177695,-0.5058903,-9.952551,3994,-0.00042360788,-0.0016180886,-0.038405403,49.00192,0.0047884034,205,435,2076
163622716,0,1442826,0.34420964,-0.56109554,-10.0587845,3989,0.006006962,-0.0038703112,-0.03897416,49.034866,0.0047884034,326,-25,1671
163725944,0,1442826,0.117567964,-0.6293578,-9.362933,4000,-0.0046442756,-0.004760318,-0.04380049,49.031868,0.0047884034,-31,349,2548
163825143,0,1442826,0.61889356,-0.5342929,-10.399773,3223,0.00079784053,-0.0011575677,-0.04102131,49.004913,0.0047884034,86,-53,2445
163929116,0,1442826,0.23699148,-0.5871261,-9.682257,4000,0.00463824,0.001129095,-0.035370022,48.986942,0.0047884034,-283,-465,2442
164033116,0,1442826,0.2698544,-0.4931475,-9.646382,4000,0.0013605368,-0.004718815,-0.03574077,49.028873,0.0047884034,-80,-287,2221
164132365,0,1442826,0.5071457,-0.49355197,-9.029929,4042,0.0030142546,-0.0017263046,-0.034736745,49.007908,0.0047884034,-443,395,2210
164232328,0,1442826,0.48839894,-0.65388894,-9.83852,4006,0.0006271006,0.00056370103,-0.037526317,49.00192,0.0047884034,-220,77,1576
164335516,0,1442826,-0.059226032,-0.5344995,-9.793587,4000,-0.0019058371,-0.005039366,-0.042951953,49.040855,0.0047884034,406,-473,1700
164435551,0,1442826,0.25573984,-0.61116064,-9.780754,4035,0.0012757345,-0.00237081,-0.035205714,49.055832,0.0047884034,-115,-605,2185
164538716,0,1442826,0.6332454,-0.5586097,-9.910189,4000,-0.0006322657,-0.0035686544,-0.038245257,49.016895,0.0047884034,519,106,1996
164638716,0,1442826,0.23710117,-0.4236018,-9.710887,4000,-0.0023159059,-0.005323979,-0.04372359,49.040855,0.0047884034,-41,325,1847
164741922,0,1442826,0.18891892,-0.4408619,-9.859517,4006,0.0021823456,-0.0031321454,-0.038878635,49.034866,0.0047884034,385,-81,2367
164841922,0,1442826,0.46190923,-0.5604815,-9.4822445,4006,-0.004346246,-0.0033499054,-0.043516964,49.073803,0.0047884034,135,-148,2537
164941930,0,1442826,0.23287435,-0.38638863,-9.486359,4014,-0.005323529,-0.0024150456,-0.0377112,49.013897,0.0047884034,-221,135,1778
165045116,0,1442826,0.40119794,-0.42095315,-9.600593,3996,0.0054940702,0.0011055724,-0.038601287,49.079792,0.0047884034,-220,-111,2336
165145136,0,1442826,0.40243578,-0.3661129,-10.143428,3972,-0.00086265954,-0.0020505209,-0.043630313,49.058826,0.0047884034,190,290,2129
165249120,0,1442826,0.373344,-0.4899761,-9.38064,3997,0.0019609798,-0.0020200904,-0.03129917,49.06182,0.0047884034,133,-143,2284
165348316,0,1442826,0.545534,-0.45225108,-9.732048,3992,0.005039015,0.0050412007,-0.036792696,49.055832,0.0047884034,47,133,2242
165451516,0,1442826,0.250797,-0.39457098,-10.248738,4000,-9.293639e-05,0.0002072945,-0.03718222,49.073803,0.0047884034,25,-38,1339
165551516,0,1442826,0.20886928,-0.41418594,-9.807486,4000,0.004897137,0.0014871171,-0.04217242,49.07081,0.0047884034,-159,85,1826
165654717,0,1442826,0.25488392,-0.4631828,-10.045566,4001,0.0057276506,0.0029034656,-0.041593727,49.08578,0.0047884034,567,-230,1873
165754726,0,1442826,0.12817779,-0.4360126,-9.552886,4010,-0.00140082,-0.0075770207,-0.041620173,49.055832,0.0047884034,102,-316,2271
165857923,0,1442826,0.22341385,-0.24669406,-10.057724,4007,0.0017218514,-0.0028472145,-0.038807664,49.10675,0.0047884034,130,2,1674
165957935,0,1442826,-0.13211559,-0.5249831,-10.120026,4002,0.0008831364,-0.0012491104,-0.04017116,49.079792,0.0047884034,-84,-767,2055
166061125,0,1442826,0.14786685,-0.6251925,-10.0821085,4006,-0.004672219,0.0007818958,-0.043008097,49.133705,0.0047884034,-286,11,1680
166161117,0,1442826,0.22872849,-0.43564373,-9.345857,4001,0.00034836528,-0.0047196746,-0.038271837,49.079792,0.0047884034,699,-51,2751
166261162,0,1442826,0.15076846,-0.59415084,-9.358732,4046,-0.0064881966,0.0008100921,-0.03978822,49.103752,0.0047884034,-252,324,1869
166364316,0,1442826,0.2822261,-0.42054433,-9.843439,3960,-0.0056793755,0.00079226465,-0.041833527,49.12472,0.0047884034,103,595,2378
166464316,0,1442826,0.083182104,-0.3739457,-10.045801,3994,0.0051062885,-0.0014133747,-0.037648343,49.064816,0.0047884034,163,107,1693
166567516,0,1442826,0.13460514,-0.5660797,-9.879031,4000,0.0050090957,0.0016414413,-0.038185596,49.082787,0.0047884034,-398,-154,2246
166667527,0,1442826,0.56431717,-0.5229981,-9.879475,4011,0.0017150438,-0.0072982246,-0.04008783,49.11873,0.0047884034,208,539,2360
166770756,0,1442826,0.25179738,-0.30494443,-9.7093525,3240,0.0015787298,0.002828585,-0.029057294,49.109745,0.0047884034,409,-466,2158
166870716,0,1442826,0.45141298,-0.30473414,-9.445989,3995,-0.00050546415,-0.007387475,-0.04195661,49.06781,0.0047884034,554,586,2776
166973926,0,1442826,0.32453626,-0.45945302,-10.0824375,4010,0.0018308057,-0.0003449691,-0.032792233,49.100758,0.0047884034,589,-373,1835
167073922,0,1442826,0.54997355,-0.32919532,-9.983102,4006,0.003623389,-0.0018050859,-0.036803782,49.079792,0.0047884034,-5,556,2062
167177116,0,1442826,0.20251335,-0.28358874,-9.847433,4000,0.00042986227,-0.00042805495,-0.038685553,49.11873,0.0047884034,235,116,1881
167277116,0,1442826,0.47510216,-0.27518559,-9.852495,4000,0.0033754972,-0.0011224779,-0.03716124,49.121723,0.0047884034,727,222,1903
167380316,0,1442826,0.38712892,-0.29808584,-9.288242,3953,0.00084901555,0.0018052612,-0.037762187,49.103752,0.0047884034,-47,-700,2028
167480316,0,1442826,0.31989917,-0.0952977,-9.908061,3994,-3.058248e-05,-0.002371692,-0.04260384,49.1367,0.0047884034,279,-286,2241
167583534,0,1442826,0.33572695,-0.5029282,-9.98988,3218,0.0032496704,-0.005742617,-0.02916055,49.1367,0.0047884034,503,-151,1998
167683516,0,1442826,0.6163099,-0.09782791,-9.851143,3995,0.004859625,0.0001854347,-0.037311617,49.100758,0.0047884034,726,9,1862
167787523,0,1442826,0.22579911,-0.2737448,-9.948939,4007,0.00075761497,0.0031480882,-0.042801544,49.1367,0.0047884034,-413,-41,2148
167886716,0,1442826,0.6065286,-0.5448787,-10.130003,4000,-0.0013383096,-0.0061404156,-0.044004884,49.12472,0.0047884034,-475,367,2647
167986733,0,1442826,0.27007648,-0.2798934,-10.142846,4017,-0.00083491195,-0.00047755614,-0.03472517,49.13071,0.0047884034,305,-110,1523
168089948,0,1442826,0.14847091,-0.54281753,-9.825456,4032,-0.0028349736,-0.0038585374,-0.03760975,49.127716,0.0047884034,403,109,2018
168189924,0,1442826,0.3807264,-0.2814183,-9.853315,4008,0.0021935753,-0.0058374708,-0.032546606,49.139694,0.0047884034,85,-182,1694
168293116,0,1442826,0.2398645,-0.33283067,-10.024109,3979,0.0047960044,-0.0036843873,-0.03603792,49.121723,0.0047884034,102,-770,1846
168393115,0,1442826,0.40019736,-0.16699442,-9.913465,3951,0.003194215,-0.0015726867,-0.040726777,49.17564,0.0047884034,746,11,1701
168496316,0,1442826,0.4138404,-0.1870452,-10.03074,3982,0.0013337848,-0.0021456415,-0.037034176,49.139694,0.0047884034,1012,378,1734
168600328,0,1442826,0.47653493,-0.5260075,-9.843904,4012,0.006221449,-0.0056081633,-0.04027226,49.121723,0.0047884034,15,-31,2518
168700316,0,1442826,0.32211262,-0.3765524,-9.500801,4000,-0.0013959543,-0.0027700483,-0.038133293,49.151676,0.0047884034,245,345,2203
168799516,0,1442826,0.3629546,-0.30314064,-8.960784,4000,0.0038041053,0.0024822387,-0.030322805,49.151676,0.0047884034,29,-260,2042
168903541,0,1442826,0.4126003,-0.31957877,-10.410477,4025,-0.0016000754,-0.008870376,-0.049569294,49.15767,0.0047884034,-100,178,1972
169003523,0,1442826,0.32533824,-0.59742546,-10.328937,4007,0.0004388392,-0.0017586563,-0.03637711,49.15767,0.0047884034,-235,-289,1335
169106716,0,1442826,0.44534037,-0.38726345,-9.795931,4000,0.00083934877,-0.0030627588,-0.038012497,49.1996,0.0047884034,-175,153,2307
169205923,0,1442826,0.3100604,-0.36210057,-9.677653,4007,-0.0023565013,0.00037875283,-0.047594115,49.208584,0.0047884034,-238,-267,2283
169305922,0,1442826,0.12290031,-0.35866418,-10.419458,4006,0.0026842656,-0.0019121828,-0.03686368,49.166653,0.0047884034,360,-429,1398
169409119,0,1442826,0.57423383,-0.414711,-9.9019575,4003,0.00022211132,-0.0043473262,-0.04012254,49.1996,0.0047884034,-24,-8,2368
169509139,0,1442826,0.25553772,-0.5572702,-10.533988,4001,-0.0034546917,-0.0040769796,-0.040840346,49.19361,0.0047884034,-36,-255,1294
169612331,0,1442826,0.37034085,-0.4987892,-9.869228,4015,0.0068033584,0.0025783267,-0.03946203,49.184624,0.0047884034,-463,-307,2026
169712332,0,1442826,0.41714114,-0.52194744,-10.097793,4010,-0.0033759077,-0.0025076466,-0.042471197,49.21757,0.0047884034,90,-177,2442
169815516,0,1442826,0.34060425,-0.4207019,-9.628635,3999,0.0058349315,-0.0069418256,-0.038168825,49.208584,0.0047884034,1028,-333,2241
169919523,0,1442826,0.23407309,-0.29124796,-9.899421,4007,-5.769066e-05,-0.00309443,-0.041726418,49.20559,0.0047884034,41,106,2041
170019540,0,1442826,0.4857387,-0.6880875,-9.459877,4024,0.006559456,-0.005138452,-0.034376167,49.190613,0.0047884034,190,617,2005
170118716,0,1442826,0.27460432,-0.5218788,-9.719091,4000,-0.0028717415,-0.0019898494,-0.03781454,49.19361,0.0047884034,-391,-93,1878
170222761,0,1442826,0.101423144,-0.2731003,-10.065869,4045,0.00025850558,-0.003867576,-0.039873663,49.202595,0.0047884034,212,26,1928
170321939,0,1442826,0.0747638,-0.43200478,-9.652053,4023,0.0044076648,-0.0003462562,-0.030155832,49.22356,0.0047884034,-384,-557,2273
170425935,0,1442826,0.31998822,-0.31629616,-10.461002,4013,-0.00040192925,-0.00015986653,-0.042999823,49.20559,0.0047884034,367,-215,1566
170525116,0,1442826,0.0009032898,-0.45237282,-9.311543,4000,0.004240412,0.0030576591,-0.037487514,49.208584,0.0047884034,-285,-451,2219
170629159,0,1442826,0.5023193,-0.49344763,-9.763584,4043,0.003482127,-5.1031588e-05,-0.037870318,49.211582,0.0047884034,443,422,2414
170728315,0,1442826,0.23667043,-0.39058992,-9.636946,3993,0.0030140313,-0.005141447,-0.03911753,49.220566,0.0047884034,359,-108,1826
170832338,0,1442826,0.15965371,-0.4582633,-9.321985,3999,-4.0260813e-05,0.0009275356,-0.03949569,49.247524,0.0047884034,370,217,2102
170931516,0,1442826,0.040857185,-0.2802719,-10.14789,4000,-0.0022897904,-0.0028188154,-0.046190485,49.232548,0.0047884034,-224,267,2044
171031516,0,1442826,-0.11075446,-0.39917728,-9.33427,3983,0.0043607713,0.0047571426,-0.034216896,49.1996,0.0047884034,-79,-649,1428
171135523,0,1442826,0.2125037,-0.5159274,-10.093065,4002,0.004112914,-0.004143156,-0.043090686,49.211582,0.0047884034,175,-240,1950
171238735,0,1442826,0.17452978,-0.6038886,-10.067368,4019,0.0036526169,-0.0013199699,-0.034884293,49.220566,0.0047884034,-45,125,1984
171342716,0,1442826,0.2304115,-0.18529682,-9.5795765,4000,0.008667739,-0.0015488592,-0.042271618,49.259502,0.0047884034,-233,-46,1858
171441916,0,1442826,-0.14329642,-0.30534992,-9.536919,3994,-0.00017918472,-0.0011277366,-0.027210418,49.247524,0.0047884034,-166,-493,1803
171545916,0,1442826,-0.015256878,-0.36893848,-10.528931,3965,0.0035288136,0.00013247947,-0.039818007,49.247524,0.0047884034,-301,-438,1871
171645116,0,1442826,0.27851102,-0.21129733,-9.691267,4000,0.0039725313,0.002679247,-0.037614867,49.244526,0.0047884034,294,-82,2288
171749128,0,1442826,-0.08515786,-0.38127536,-9.21143,4012,0.004672805,-0.0004670052,-0.032763157,49.253513,0.0047884034,-155,-627,1978
171848323,0,1442826,0.19345559,-0.10478181,-9.607693,3982,0.0010595268,-0.0015024067,-0.044241488,49.24153,0.0047884034,61,241,1658
171952348,0,1442826,0.41740447,-0.42699558,-10.06929,4032,0.0037329032,-0.002872238,-0.03534972,49.26849,0.0047884034,192,322,1564
172051522,0,1442826,0.28124422,-0.2197835,-9.911498,4006,0.0011940626,-0.002150199,-0.03885418,49.25052,0.0047884034,-208,418,1738
172151524,0,1442826,0.03182217,-0.22797096,-10.50744,3972,-0.004953828,-0.0036119372,-0.037306774,49.235542,0.0047884034,-177,81,1917
172254755,0,1442826,0.12326023,-0.34578446,-10.234562,4034,0.0014882967,0.002474733,-0.04238399,49.24153,0.0047884034,437,-316,2719
172358716,0,1442826,0.20251153,-0.4200425,-9.924774,3994,-0.00035598536,-0.0030497042,-0.039024908,49.28646,0.0047884034,78,151,1992
172665123,0,1442826,-0.037949454,-0.41930723,-10.128042,4007,-0.0034742367,0.00077044516,-0.045495816,49.28646,0.0047884034,-182,-158,1713
172765122,0,1442826,0.12938407,-0.3013442,-10.746616,3987,-0.00027367627,-0.0009874819,-0.0424789,49.29245,0.0047884034,-19,-122,1441
172869165,0,1442826,0.34194797,-0.33798373,-9.707717,4043,-0.00021845847,-0.0034390187,-0.037738547,49.265495,0.0047884034,-300,501,2245
172968350,0,1442826,0.22672328,-0.37675938,-10.180745,4034,-0.00077655865,-0.00084287557,-0.043312497,49.289455,0.0047884034,-227,315,2397
173072328,0,1442826,0.26780248,-0.27310425,-9.638049,4012,0.0038170824,-0.006803128,-0.03657479,49.262497,0.0047884034,278,-17,2303
173171516,0,1442826,0.31651136,0.005164532,-10.265756,3987,-0.0028455632,-0.0046131294,-0.043763805,49.31941,0.0047884034,7,496,2424
173271530,0,1442826,0.059162866,-0.14009605,-9.133096,4008,0.0049010525,-0.0024474757,-0.033557557,49.280468,0.0047884034,243,-193,1656
173374716,0,1442826,0.34643048,-0.2133716,-10.176998,3996,-0.0015582084,-0.00028920348,-0.041471157,49.26849,0.0047884034,-103,173,2572
173478723,0,1442826,0.3715118,-0.17711252,-9.731033,4007,-0.0031930977,0.0006627772,-0.04274304,49.295444,0.0047884034,186,232,2665
173577916,0,1442826,0.25091484,-0.14730498,-10.616124,3950,0.0017128787,-0.00017063116,-0.036605176,49.280468,0.0047884034,-125,203,1593
173677916,0,1442826,0.6022945,-0.14669816,-9.579825,4000,-0.0017188833,-0.00048988895,-0.037079133,49.26849,0.0047884034,110,494,2228
173781123,0,1442826,0.0022898428,-0.27042958,-8.877028,4007,0.004285163,0.0019070794,-0.031345733,49.31042,0.0047884034,-278,-789,2014
173881122,0,1442826,0.6791992,-0.0342032,-10.094098,3988,0.0055991374,0.0003657461,-0.03880094,49.307426,0.0047884034,412,336,1927
173984397,0,1442826,0.3778761,-0.21142663,-9.9986,4864,-0.0011517322,-0.0021108119,-0.05409506,49.322403,0.0047884034,-11,546,2318
174084316,0,1442826,0.34062153,-0.1977309,-10.27567,4000,0.00036438723,-0.00093537976,-0.04352026,49.29844,0.0047884034,74,-170,2329
174187557,0,1442826,0.45316568,-0.2771606,-9.970439,3241,-0.0018466623,-0.00013931608,-0.03713744,49.307426,0.0047884034,-157,48,2826
174287551,0,1442826,0.29632753,-0.20706755,-10.023642,4029,-0.00056535983,-0.0024729685,-0.033911526,49.29844,0.0047884034,285,148,1696
174391516,0,1442826,0.4388948,-0.037168555,-10.308106,3982,0.0033269967,-0.00015481297,-0.040124282,49.29245,0.0047884034,140,100,2174
174494723,0,1442826,0.47251052,-0.13576066,-9.514139,4007,-0.002586546,0.0017348554,-0.04654809,49.33438,0.0047884034,-179,177,2542
174598716,0,1442826,0.2942098,-0.093094215,-9.158488,3993,-0.00040247838,0.0004060082,-0.04452468,49.349358,0.0047884034,-119,300,2752
174697957,0,1442826,0.08781575,-0.120191954,-9.965914,4041,0.002728597,-0.0028582434,-0.03984604,49.33738,0.0047884034,207,-305,1703
174801918,0,1442826,0.45372292,0.051339187,-10.325865,4002,-0.002142448,-0.0041583385,-0.041394785,49.322403,0.0047884034,390,327,1695
174901116,0,1442826,0.19534288,-0.12024952,-9.176205,3994,0.0020056113,-0.0009405285,-0.043695636,49.325397,0.0047884034,218,39,2425
175001117,0,1442826,0.3043149,-0.34140316,-10.178392,3946,0.005782296,-0.002814665,-0.036106996,49.331387,0.0047884034,238,-420,2396
175104352,0,1442826,0.37002718,-0.37506908,-11.058371,4036,0.0029418115,-0.0019519737,-0.04504427,49.31641,0.0047884034,77,-209,1822
175204316,0,1442826,0.007786892,-0.101126835,-9.764379,4000,-0.0016498901,0.00046464737,-0.03459093,49.33738,0.0047884034,199,-219,1816
175307524,0,1442826,0.5171526,-0.13493122,-8.711607,3962,-0.0041752793,-0.0015772644,-0.04204268,49.33738,0.0047884034,58,17,2474
175407527,0,1442826,0.20859614,-0.085428365,-10.102177,4011,0.0016781266,-0.0021660754,-0.040340595,49.346363,0.0047884034,143,-68,1869
175510747,0,1442826,0.33903202,-0.071312346,-10.857616,3231,0.0019197145,-0.0010470491,-0.038020056,49.31641,0.0047884034,235,-43,2605
175614717,0,1442826,0.43320456,-0.058648657,-10.214658,3968,0.0025813729,5.6940364e-05,-0.040295117,49.340374,0.0047884034,48,-273,2006
175714734,0,1442826,0.38908663,-0.15173054,-9.450488,4012,0.0037450907,0.00029783242,-0.035053864,49.391293,0.0047884034,154,116,2011
175813916,0,1442826,0.0592747,0.02187597,-9.283776,3993,-0.0018633957,-0.0009925155,-0.033271693,49.36134,0.0047884034,451,-218,1363
175917916,0,1442826,0.25232348,-0.011290325,-10.139141,4000,-0.0007980936,0.002920664,-0.045659095,49.418247,0.0047884034,-24,-252,2395
176021116,0,1442826,0.5365484,-0.39576226,-9.972211,3959,0.0012144189,-0.0015608056,-0.043326244,49.37931,0.0047884034,320,70,2820
176121134,0,1442826,0.4141308,-0.32125974,-9.687387,3975,0.0018191758,-0.0016964662,-0.037013378,49.358345,0.0047884034,-291,110,2481
176224324,0,1442826,0.09632552,0.01428776,-9.711786,3993,0.0011130305,0.0010867543,-0.044249877,49.3853,0.0047884034,-102,-68,2329
176324322,0,1442826,0.38662076,-0.38619953,-9.275812,4006,0.0057902476,-0.00018522015,-0.03513107,49.400276,0.0047884034,-205,93,2381
176427544,0,1442826,0.2795408,-0.06979868,-9.956637,4014,-0.0009974383,-0.0027735292,-0.0433743,49.409264,0.0047884034,-2,19,1843
176527527,0,1442826,0.2334732,-0.25315687,-10.479103,4011,-0.0021531116,0.0011568349,-0.049328722,49.36134,0.0047884034,136,232,2176
176631516,0,1442826,0.3853526,-0.088925496,-9.564947,4000,0.0054307547,-4.4484274e-05,-0.04122305,49.41226,0.0047884034,306,59,2237
176734716,0,1442826,0.386696,-0.25407803,-10.266303,4000,0.00054598594,-0.0015730908,-0.043768898,49.39728,0.0047884034,-65,90,1996
176837949,0,1442826,0.339942,-0.084269255,-9.456547,3233,0.003649757,-0.00026363577,-0.026139505,49.36733,0.0047884034,224,-223,1844
176937925,0,1442826,0.35329428,-0.016553557,-9.322546,4009,-0.0031065445,-0.0009365746,-0.0388287,49.394287,0.0047884034,198,247,2410
177041164,0,1442826,0.52205676,-0.22911148,-9.683916,3241,-0.0036538513,0.0012492645,-0.033520244,49.388294,0.0047884034,-181,401,1910
177141116,0,1442826,0.22740828,-0.22424614,-10.681166,4000,0.0015388832,-0.00075950095,-0.042528488,49.442207,0.0047884034,123,-220,1920
177241116,0,1442826,0.11826158,-0.22426891,-9.559813,3999,-0.0042715063,0.0006210404,-0.039235186,49.418247,0.0047884034,35,-268,1828
177344336,0,1442826,0.4753658,-0.10557915,-9.545402,4013,-0.0054530827,-0.00047356752,-0.04066076,49.415253,0.0047884034,-80,296,2085
177444316,0,1442826,0.60335964,-0.22460912,-9.891361,3993,0.0025236732,0.0002692876,-0.040808935,49.394287,0.0047884034,114,302,2250
177547549,0,1442826,0.22197756,-0.014453833,-9.682931,4033,0.0012339818,-0.00055685133,-0.041586414,49.415253,0.0047884034,17,76,2339
177647520,0,1442826,0.43756673,0.06330108,-10.19529,4004,0.0027164202,0.0017263226,-0.042216986,49.43023,0.0047884034,212,10,2741
177750754,0,1442826,0.44036114,-0.022947256,-9.641581,4037,0.0003347285,-0.004894828,-0.036126453,49.406265,0.0047884034,434,369,1677
177854722,0,1442826,0.31982848,-0.086965084,-9.869798,3998,0.0024637734,-0.0034086932,-0.039632525,49.442207,0.0047884034,-139,120,2024
177958716,0,1442826,0.077075146,-0.47845757,-9.985171,3985,-0.0021587447,0.000816438,-0.041764285,49.409264,0.0047884034,-483,-27,2013
178057916,0,1442826,0.24186762,-0.13365498,-9.229995,3993,-0.002845021,0.000193624,-0.034291573,49.41226,0.0047884034,91,61,2008
178161161,0,1442826,0.14814116,-0.21838649,-8.779299,3245,0.00020034758,-0.002661143,-0.027384032,49.433224,0.0047884034,166,-30,2206
178261116,0,1442826,0.208952,0.09866,-9.402148,4000,-0.0027631773,-0.002585209,-0.0396445,49.433224,0.0047884034,-19,-95,1728
178361116,0,1442826,0.37255377,-0.1263478,-10.301049,3957,0.0030760185,-0.004779611,-0.04769502,49.439213,0.0047884034,25,-184,2652
178464341,0,1442826,0.3705588,-0.22448792,-11.085329,3999,0.0039621405,0.0015002242,-0.045850992,49.445206,0.0047884034,-106,-226,2671
178564316,0,1442826,0.34937605,-0.10052376,-10.078252,3968,2.8516399e-05,0.0010092752,-0.04397914,49.46018,0.0047884034,90,147,1956
178667522,0,1442826,0.0190648,-0.12459718,-9.58753,4006,0.0011059854,-0.0014144094,-0.038612574,49.42124,0.0047884034,-8,-444,1915
178771516,0,1442826,0.3290232,-0.15363932,-9.752797,4000,-0.0018428857,-0.0011268472,-0.042968087,49.4482,0.0047884034,186,162,2194
178874716,0,1442826,0.17667603,-0.07704225,-9.296625,4000,0.0036313508,0.0034609733,-0.034815863,49.451195,0.0047884034,94,-328,2011
178974716,0,1442826,0.2858841,-0.20094594,-10.201547,3967,-0.0023894839,0.0015478411,-0.043231245,49.442207,0.0047884034,6,-106,2421
179077939,0,1442826,0.24981758,-0.22872572,-9.4581785,4023,-0.0008071349,-0.0032015783,-0.03614614,49.47216,0.0047884034,145,35,2270
179177916,0,1442826,0.17147341,-0.15574832,-10.114477,4000,-0.0028586118,-0.0008195708,-0.04439653,49.45419,0.0047884034,396,256,2081
179281171,0,1442826,0.33357936,0.0011166437,-10.120229,4055,0.0011960231,-0.0045352946,-0.03753698,49.46018,0.0047884034,72,362,2034
179381116,0,1442826,0.33255696,-0.16720523,-14.283003,3979,0.0012399685,-0.00017747434,-0.0612988,49.433224,0.0047884034,182,382,3656
179484316,0,1442826,0.17140743,-0.2867205,-14.289562,4000,-0.0018407023,-0.0026423868,-0.06031125,49.475155,0.0047884034,-10,560,3254
179584316,0,1442826,0.20373863,-0.0022696496,-10.067526,4000,-0.0021924814,-0.001088038,-0.042695034,49.42124,0.0047884034,244,188,2403
179787516,0,1442826,0.19471772,-0.08984035,-9.598501,3978,-0.0017783323,-0.002243121,-0.044130906,49.469166,0.0047884034,-29,305,2464
180803516,0,1442826,0.4775064,-0.032629546,-10.274093,4000,0.000525635,-0.0013889612,-0.04453287,49.51709,0.0047884034,139,100,2385
180903516,0,1442826,0.20073612,0.19519594,-9.451078,4000,0.00025785796,-0.0015330387,-0.03778535,49.484142,0.0047884034,70,261,2417
181006749,0,1442826,0.37703702,0.15566847,-9.394227,4033,-0.0019409743,-2.9349685e-06,-0.04497124,49.505108,0.0047884034,-15,422,2705
181106716,0,1442826,0.2258617,-0.24013825,-10.956241,3994,-0.004677848,-0.0028388095,-0.045383595,49.53506,0.0047884034,33,154,1979
181208386,0,1442826,0.16436863,0.33298656,-10.232097,3214,0.0011978624,-0.00043484062,-0.032769457,49.49912,0.0047884034,180,-99,2011
181307516,0,1442826,0.16644362,-0.0064587244,-9.598838,4000,0.005203989,0.0015865056,-0.03363482,49.52308,0.0047884034,52,-147,1810
181413124,0,1442826,0.1485758,-0.12480622,-8.720969,3957,0.005781209,0.0008357968,-0.035101786,49.51709,0.0047884034,54,-306,1964
181517116,0,1442826,0.328866,0.09327374,-10.181056,4000,0.0028274152,-0.00062335643,-0.040573623,49.52308,0.0047884034,185,65,2448
181617116,0,1442826,0.5940953,-0.0046443543,-10.01021,4000,0.0033210856,-0.0015447004,-0.037047803,49.520084,0.0047884034,102,275,2493
181720316,0,1442826,0.26509583,-0.19918779,-10.596948,3960,6.247469e-05,-0.0030036138,-0.03445448,49.49912,0.0047884034,119,-91,1868
181820316,0,1442826,0.19966885,0.14708087,-11.496966,3986,0.0023405827,-0.00041743997,-0.049805768,49.51709,0.0047884034,106,-75,2770
181923516,0,1442826,0.4428012,-0.05291139,-11.261955,4000,-0.0013940465,-0.0009776333,-0.05199837,49.52308,0.0047884034,104,315,2418
