timestamp,error_count,device_id,x,y,z,temperature,scaling,x_raw,y_raw,z_raw,is_external
133186868,0,263202,0.065817855,0.17511994,0.3463885,42.493397,0.0015,18,-188,320,0
133285283,0,263202,0.0781682,0.17331223,0.35080573,42.526344,0.0015,11,-187,323,0
133385274,0,263202,0.076403864,0.16427371,0.35227814,42.511368,0.0015,12,-182,324,0
133898069,0,263202,0.076403864,0.17873535,0.355223,42.535328,0.0015,12,-190,326,0
133997306,0,263202,0.07463953,0.18777384,0.3478609,42.526344,0.0015,13,-195,321,0
134106069,0,263202,0.07111086,0.162466,0.35375056,42.52335,0.0015,15,-181,325,0
134205268,0,263202,0.076403864,0.17511994,0.355223,42.54132,0.0015,12,-188,326,0
134305268,0,263202,0.076403864,0.17150451,0.35227814,42.556293,0.0015,12,-186,324,0
134402880,0,263202,0.07463953,0.18054304,0.35080573,42.535328,0.0015,13,-191,323,0
134502069,0,263202,0.076403864,0.17873535,0.34933332,42.54132,0.0015,12,-190,322,0
134610876,0,263202,0.072875194,0.16427371,0.34933332,42.50238,0.0015,14,-182,322,0
134710089,0,263202,0.065817855,0.16788912,0.355223,42.568275,0.0015,18,-184,326,0
134818077,0,263202,0.07463953,0.16608141,0.3478609,42.52934,0.0015,13,-183,321,0
134917294,0,263202,0.0834612,0.17150451,0.3463885,42.550304,0.0015,8,-186,320,0
135017297,0,263202,0.06758219,0.17692764,0.3390264,42.511368,0.0015,17,-189,315,0
135116482,0,263202,0.07111086,0.15885061,0.35080573,42.556293,0.0015,15,-179,323,0
135214104,0,263202,0.0834612,0.17150451,0.34344363,42.55929,0.0015,8,-186,318,0
135323692,0,263202,0.06405352,0.16969682,0.34491608,42.52335,0.0015,19,-185,319,0
135422101,0,263202,0.06405352,0.17692764,0.3566954,42.544315,0.0015,19,-189,327,0
135521269,0,263202,0.072875194,0.18596615,0.35227814,42.52335,0.0015,14,-194,324,0
135620507,0,263202,0.072875194,0.18958154,0.35227814,42.556293,0.0015,14,-196,324,0
135729268,0,263202,0.06758219,0.16608141,0.35375056,42.538322,0.0015,17,-183,325,0
135827714,0,263202,0.07463953,0.162466,0.3566954,42.556293,0.0015,13,-181,327,0
135926083,0,263202,0.0781682,0.15885061,0.34491608,42.54132,0.0015,11,-179,319,0
136034869,0,263202,0.07111086,0.17331223,0.34491608,42.544315,0.0015,15,-187,319,0
136134069,0,263202,0.0781682,0.162466,0.33608156,42.54132,0.0015,11,-181,313,0
136233269,0,263202,0.076403864,0.16788912,0.3228298,42.526344,0.0015,12,-184,304,0
136342083,0,263202,0.072875194,0.17511994,0.30810565,42.526344,0.0015,14,-188,294,0
136441269,0,263202,0.072875194,0.16065831,0.31105047,42.544315,0.0015,14,-180,296,0
136540487,0,263202,0.06758219,0.162466,0.2889642,42.550304,0.0015,17,-181,281,0
136638869,0,263202,0.065817855,0.16788912,0.2816021,42.574265,0.0015,18,-184,276,0
136748468,0,263202,0.065817855,0.16065831,0.29338148,42.562286,0.0015,18,-180,284,0
136846068,0,263202,0.0781682,0.16969682,0.2712952,42.568275,0.0015,11,-185,269,0
136945315,0,263202,0.065817855,0.1570429,0.29338148,42.5533,0.0015,18,-178,284,0
137044468,0,263202,0.069346525,0.14258128,0.2786573,42.526344,0.0015,16,-170,274,0
137153273,0,263202,0.076403864,0.1570429,0.2963263,42.562286,0.0015,12,-178,286,0
137252468,0,263202,0.06758219,0.162466,0.31841257,42.586246,0.0015,17,-181,301,0
137361269,0,263202,0.06052485,0.162466,0.3125229,42.52335,0.0015,21,-181,297,0
137460469,0,263202,0.0781682,0.16969682,0.33608156,42.550304,0.0015,11,-185,313,0
137549273,0,263202,0.076403864,0.14981209,0.3404988,42.562286,0.0015,12,-174,316,0
137657296,0,263202,0.076403864,0.1570429,0.2874918,42.550304,0.0015,12,-178,280,0
137766069,0,263202,0.065817855,0.17511994,0.3404988,42.556293,0.0015,18,-188,316,0
137865269,0,263202,0.076403864,0.17150451,0.3228298,42.562286,0.0015,12,-186,304,0
137964468,0,263202,0.07111086,0.17331223,0.2948539,42.556293,0.0015,15,-187,285,0
138064468,0,263202,0.072875194,0.16788912,0.31694016,42.514362,0.0015,14,-184,300,0
138172483,0,263202,0.076403864,0.14619668,0.26982278,42.562286,0.0015,12,-172,268,0
138272468,0,263202,0.058760513,0.17150451,0.29338148,42.54731,0.0015,22,-186,284,0
139289286,0,263202,0.062289182,0.14619668,0.29927114,42.586246,0.0015,20,-172,288,0
139378070,0,263202,0.072875194,0.1570429,0.2816021,42.556293,0.0015,14,-178,276,0
139497333,0,263202,0.072875194,0.1534275,0.29338148,42.508373,0.0015,14,-176,284,0
139596468,0,263202,0.06405352,0.14077358,0.30663323,42.568275,0.0015,19,-169,293,0
139696468,0,263202,0.053467505,0.162466,0.30074355,42.532333,0.0015,25,-181,289,0
139794878,0,263202,0.062289182,0.1570429,0.30810565,42.58924,0.0015,20,-178,294,0
139903669,0,263202,0.072875194,0.18596615,0.29338148,42.568275,0.0015,14,-194,284,0
140001287,0,263202,0.0781682,0.1552352,0.2624607,42.556293,0.0015,11,-177,263,0
140100473,0,263202,0.08698988,0.1534275,0.30221596,42.54132,0.0015,6,-176,290,0
140199668,0,263202,0.06758219,0.14800438,0.30663323,42.568275,0.0015,17,-173,293,0
140308468,0,263202,0.085225545,0.17331223,0.28601938,42.55929,0.0015,7,-187,279,0
140407668,0,263202,0.072875194,0.13896587,0.29338148,42.568275,0.0015,14,-168,284,0
140506905,0,263202,0.07463953,0.18415844,0.30074355,42.556293,0.0015,13,-193,289,0
140615668,0,263202,0.058760513,0.16427371,0.31105047,42.55929,0.0015,22,-182,296,0
140713285,0,263202,0.072875194,0.16788912,0.29043663,42.556293,0.0015,14,-184,282,0
140812468,0,263202,0.0481745,0.16788912,0.30516082,42.562286,0.0015,28,-184,292,0
140921330,0,263202,0.09404721,0.17511994,0.29043663,42.538322,0.0015,2,-188,282,0
141020469,0,263202,0.058760513,0.16065831,0.30516082,42.550304,0.0015,22,-180,292,0
141128469,0,263202,0.055231843,0.16788912,0.29927114,42.544315,0.0015,24,-184,288,0
141227668,0,263202,0.056996178,0.162466,0.29190904,42.586246,0.0015,23,-181,283,0
141327668,0,263202,0.07111086,0.162466,0.30074355,42.574265,0.0015,15,-181,289,0
141425302,0,263202,0.088754214,0.14800438,0.28307456,42.5533,0.0015,5,-173,277,0
141524469,0,263202,0.06405352,0.16608141,0.35080573,42.574265,0.0015,19,-183,323,0
141633279,0,263202,0.06052485,0.17692764,0.34491608,42.586246,0.0015,21,-189,319,0
141732469,0,263202,0.065817855,0.16065831,0.31399533,42.56528,0.0015,18,-180,298,0
141831669,0,263202,0.0834612,0.17150451,0.2816021,42.592236,0.0015,8,-186,276,0
141939668,0,263202,0.051703174,0.16427371,0.30516082,42.607212,0.0015,26,-182,292,0
142039668,0,263202,0.0834612,0.16788912,0.26687795,42.586246,0.0015,8,-184,266,0
142137296,0,263202,0.058760513,0.16427371,0.2963263,42.601223,0.0015,22,-182,286,0
142247674,0,263202,0.069346525,0.16427371,0.30516082,42.56528,0.0015,16,-182,292,0
142345268,0,263202,0.069346525,0.18596615,0.31694016,42.595234,0.0015,16,-194,300,0
142444514,0,263202,0.06758219,0.17692764,0.3301919,42.601223,0.0015,17,-189,309,0
142552469,0,263202,0.058760513,0.16427371,0.30810565,42.59823,0.0015,22,-182,294,0
142651675,0,263202,0.053467505,0.17692764,0.28601938,42.619194,0.0015,25,-189,279,0
142751718,0,263202,0.051703174,0.18596615,0.30810565,42.586246,0.0015,26,-194,294,0
142849268,0,263202,0.046410166,0.17331223,0.2948539,42.601223,0.0015,29,-187,285,0
142948487,0,263202,0.034059823,0.17150451,0.29927114,42.601223,0.0015,36,-186,288,0
143057307,0,263202,0.011123465,0.16608141,0.30957806,42.58924,0.0015,49,-183,295,0
143156498,0,263202,-0.010048556,0.2130817,0.30957806,42.56528,0.0015,61,-209,295,0
143264499,0,263202,-0.013577226,0.18415844,0.30074355,42.610207,0.0015,63,-193,289,0
143363668,0,263202,-0.032984912,0.18235074,0.2963263,42.619194,0.0015,74,-192,286,0
143463668,0,263202,-0.061214272,0.16788912,0.2874918,42.55929,0.0015,90,-184,280,0
143561268,0,263202,-0.07885762,0.17150451,0.2874918,42.58924,0.0015,100,-186,280,0
143671668,0,263202,-0.105322644,0.18415844,0.25951585,42.59823,0.0015,115,-193,261,0
143769281,0,263202,-0.11590866,0.1552352,0.3036884,42.62219,0.0015,121,-177,291,0
143868469,0,263202,-0.10002965,0.1534275,0.21387093,42.610207,0.0015,112,-176,230,0
143967668,0,263202,-0.13002335,0.1552352,0.2889642,42.607212,0.0015,129,-177,281,0
144076469,0,263202,-0.11590866,0.16969682,0.3125229,42.568275,0.0015,121,-185,297,0
144175669,0,263202,-0.13884501,0.16065831,0.30516082,42.625183,0.0015,134,-180,292,0
144273269,0,263202,-0.128259,0.14619668,0.30810565,42.562286,0.0015,128,-172,294,0
144382869,0,263202,-0.0929723,0.16788912,0.2963263,42.628178,0.0015,108,-184,286,0
144481278,0,263202,-0.11237999,0.16969682,0.27718487,42.601223,0.0015,119,-185,273,0
144590868,0,263202,-0.11237999,0.15885061,0.30663323,42.613205,0.0015,119,-179,293,0
144690874,0,263202,-0.09826531,0.16608141,0.30074355,42.595234,0.0015,111,-183,289,0
144788469,0,263202,-0.10708699,0.1570429,0.29927114,42.625183,0.0015,116,-178,288,0
144897334,0,263202,-0.110615656,0.17511994,0.34344363,42.607212,0.0015,118,-188,318,0
144996469,0,263202,-0.08238629,0.17150451,0.32577467,42.577263,0.0015,102,-186,306,0
145095682,0,263202,-0.09650098,0.16065831,0.319885,42.613205,0.0015,110,-180,302,0
145193268,0,263202,-0.09650098,0.16427371,0.28454697,42.619194,0.0015,110,-182,278,0
145302891,0,263202,-0.091207966,0.16969682,0.2801297,42.613205,0.0015,107,-185,275,0
145402869,0,263202,-0.094736636,0.14438899,0.30074355,42.62219,0.0015,109,-171,289,0
145500468,0,263202,-0.10002965,0.1534275,0.31399533,42.604218,0.0015,112,-176,298,0
145599717,0,263202,-0.105322644,0.17692764,0.2948539,42.625183,0.0015,115,-189,285,0
145708469,0,263202,-0.084150635,0.162466,0.30074355,42.6162,0.0015,103,-181,289,0
145807708,0,263202,-0.094736636,0.15885061,0.27718487,42.595234,0.0015,109,-179,273,0
145906868,0,263202,-0.105322644,0.162466,0.28307456,42.64016,0.0015,115,-181,277,0
146005277,0,263202,-0.09826531,0.16969682,0.3036884,42.619194,0.0015,111,-185,291,0
146114868,0,263202,-0.09650098,0.16788912,0.30221596,42.643154,0.0015,110,-184,290,0
146212472,0,263202,-0.10002965,0.16065831,0.29043663,42.619194,0.0015,112,-180,282,0
146322868,0,263202,-0.09826531,0.16969682,0.3036884,42.607212,0.0015,111,-185,291,0
146420475,0,263202,-0.11590866,0.162466,0.31546775,42.64615,0.0015,121,-181,299,0
146519676,0,263202,-0.11590866,0.162466,0.2948539,42.649147,0.0015,121,-181,285,0
146628509,0,263202,-0.110615656,0.16065831,0.2963263,42.670113,0.0015,118,-180,286,0
146727700,0,263202,-0.10002965,0.16065831,0.28454697,42.649147,0.0015,112,-180,278,0
146826869,0,263202,-0.08944363,0.14619668,0.31399533,42.64016,0.0015,106,-172,298,0
146924491,0,263202,-0.10355832,0.17873535,0.25215375,42.6162,0.0015,114,-190,256,0
147034868,0,263202,-0.087679304,0.15885061,0.29779872,42.6162,0.0015,105,-179,287,0
147132469,0,263202,-0.10179398,0.162466,0.203564,42.625183,0.0015,113,-181,223,0
147231714,0,263202,-0.091207966,0.16608141,0.23595719,42.607212,0.0015,107,-183,245,0
147340510,0,263202,-0.10885132,0.16969682,0.31841257,42.625183,0.0015,117,-185,301,0
147439669,0,263202,-0.10179398,0.17331223,0.3125229,42.643154,0.0015,113,-187,297,0
147538868,0,263202,-0.110615656,0.17873535,0.3228298,42.63417,0.0015,118,-190,304,0
147638868,0,263202,-0.0929723,0.18596615,0.2816021,42.63417,0.0015,108,-194,276,0
147736475,0,263202,-0.087679304,0.16608141,0.27424005,42.607212,0.0015,105,-183,271,0
147844468,0,263202,-0.10708699,0.16065831,0.29927114,42.643154,0.0015,116,-180,288,0
147943669,0,263202,-0.11237999,0.17692764,0.3036884,42.65214,0.0015,119,-189,291,0
148042876,0,263202,-0.110615656,0.16788912,0.30516082,42.610207,0.0015,118,-184,292,0
148151669,0,263202,-0.11943734,0.1552352,0.27424005,42.631176,0.0015,123,-177,271,0
148250876,0,263202,-0.08062196,0.1552352,0.29190904,42.643154,0.0015,101,-177,283,0
148350874,0,263202,-0.084150635,0.18054304,0.28307456,42.625183,0.0015,103,-191,277,0
148448468,0,263202,-0.110615656,0.16065831,0.2963263,42.65214,0.0015,118,-180,286,0
148547697,0,263202,-0.10355832,0.14619668,0.2786573,42.64016,0.0015,114,-172,274,0
148656480,0,263202,-0.11237999,0.1552352,0.28307456,42.661125,0.0015,119,-177,277,0
148755690,0,263202,-0.10355832,0.17511994,0.29338148,42.64016,0.0015,114,-188,284,0
148854869,0,263202,-0.087679304,0.16608141,0.2801297,42.649147,0.0015,105,-183,275,0
148962880,0,263202,-0.091207966,0.16969682,0.2536262,42.667118,0.0015,107,-185,257,0
149062069,0,263202,-0.09826531,0.17331223,0.25951585,42.64016,0.0015,111,-187,261,0
149162068,0,263202,-0.09826531,0.14438899,0.2712952,42.63417,0.0015,111,-171,269,0
149270068,0,263202,-0.10002965,0.17150451,0.26393312,42.661125,0.0015,112,-186,264,0
149370069,0,263202,-0.10885132,0.162466,0.26540554,42.63417,0.0015,117,-181,265,0
149467700,0,263202,-0.117673,0.1570429,0.24331929,42.65813,0.0015,122,-178,250,0
149576476,0,263202,-0.09650098,0.14258128,0.2374296,42.667118,0.0015,110,-170,246,0
149675668,0,263202,-0.10885132,0.15161979,0.23890202,42.667118,0.0015,117,-175,247,0
149774869,0,263202,-0.117673,0.16065831,0.25804344,42.65813,0.0015,122,-180,260,0
149874069,0,263202,-0.11590866,0.16969682,0.28601938,42.679096,0.0015,121,-185,279,0
149982070,0,263202,-0.09826531,0.17331223,0.24773653,42.6761,0.0015,111,-187,253,0
150082069,0,263202,-0.10002965,0.16788912,0.2109261,42.65214,0.0015,112,-184,228,0
150179668,0,263202,-0.10179398,0.13354276,0.20650885,42.667118,0.0015,113,-165,225,0
150278869,0,263202,-0.10708699,0.16788912,0.2786573,42.649147,0.0015,116,-184,274,0
150387688,0,263202,-0.114144325,0.14258128,0.27276763,42.66412,0.0015,120,-170,270,0
150486869,0,263202,-0.12649468,0.16608141,0.26540554,42.66412,0.0015,127,-183,265,0
150586068,0,263202,-0.091207966,0.15885061,0.2536262,42.667118,0.0015,107,-179,257,0
150686105,0,263202,-0.10002965,0.17150451,0.29927114,42.64615,0.0015,112,-186,288,0
150794098,0,263202,-0.10708699,0.1534275,0.24331929,42.667118,0.0015,116,-176,250,0
150882878,0,263202,-0.11237999,0.15885061,0.25068134,42.65813,0.0015,119,-179,255,0
150990869,0,263202,-0.09650098,0.13896587,0.24920894,42.637165,0.0015,110,-168,254,0
151090076,0,263202,-0.10002965,0.17150451,0.25804344,42.655136,0.0015,112,-186,260,0
151198889,0,263202,-0.094736636,0.15885061,0.26835036,42.6761,0.0015,109,-179,267,0
151298138,0,263202,-0.10355832,0.18235074,0.29338148,42.649147,0.0015,114,-192,284,0
151406877,0,263202,-0.10708699,0.14981209,0.25804344,42.62219,0.0015,116,-174,260,0
151506068,0,263202,-0.07356462,0.17331223,0.23301236,42.670113,0.0015,97,-187,243,0
151606088,0,263202,-0.09826531,0.14800438,0.26835036,42.667118,0.0015,111,-173,267,0
151703668,0,263202,-0.084150635,0.16969682,0.2801297,42.64615,0.0015,103,-185,275,0
151802884,0,263202,-0.094736636,0.17692764,0.35080573,42.65214,0.0015,109,-189,323,0
151912489,0,263202,-0.08238629,0.17150451,0.34933332,42.643154,0.0015,102,-186,322,0
152010068,0,263202,-0.0929723,0.16788912,0.34933332,42.655136,0.0015,108,-184,322,0
152110068,0,263202,-0.08944363,0.17873535,0.34933332,42.673107,0.0015,106,-190,322,0
152218069,0,263202,-0.091207966,0.18777384,0.35964024,42.643154,0.0015,107,-195,329,0
152318075,0,263202,-0.10002965,0.18958154,0.3404988,42.64016,0.0015,112,-196,316,0
152415677,0,263202,-0.10002965,0.14981209,0.2816021,42.66412,0.0015,112,-174,276,0
152526068,0,263202,-0.10355832,0.14981209,0.26687795,42.688084,0.0015,114,-174,266,0
152623670,0,263202,-0.11237999,0.17692764,0.2801297,42.697067,0.0015,119,-189,275,0
152722882,0,263202,-0.10002965,0.1534275,0.2816021,42.637165,0.0015,112,-176,276,0
152831707,0,263202,-0.11237999,0.18415844,0.20945369,42.679096,0.0015,119,-193,227,0
152930882,0,263202,-0.10708699,0.17150451,0.3463885,42.66412,0.0015,116,-186,320,0
153030069,0,263202,-0.08591497,0.18596615,0.33755398,42.71504,0.0015,104,-194,314,0
153128488,0,263202,-0.09826531,0.1552352,0.29779872,42.6761,0.0015,111,-177,287,0
153226882,0,263202,-0.11590866,0.15885061,0.28307456,42.70006,0.0015,121,-179,277,0
153335706,0,263202,-0.13178767,0.1534275,0.2786573,42.724026,0.0015,130,-176,274,0
153434868,0,263202,-0.11237999,0.1552352,0.2712952,42.655136,0.0015,119,-177,269,0
153534068,0,263202,-0.11237999,0.162466,0.2948539,42.65813,0.0015,119,-181,285,0
153642892,0,263202,-0.121201664,0.17511994,0.29927114,42.673107,0.0015,124,-188,288,0
153742075,0,263202,-0.09650098,0.17511994,0.31105047,42.670113,0.0015,110,-188,296,0
153841268,0,263202,-0.11237999,0.17692764,0.30957806,42.655136,0.0015,119,-189,295,0
153939676,0,263202,-0.10179398,0.19500467,0.3036884,42.679096,0.0015,113,-199,291,0
154049269,0,263202,-0.11590866,0.17331223,0.28601938,42.661125,0.0015,121,-187,279,0
154146868,0,263202,-0.117673,0.18958154,0.2874918,42.65813,0.0015,122,-196,280,0
154246126,0,263202,-0.11237999,0.15161979,0.29779872,42.70006,0.0015,119,-175,287,0
154354870,0,263202,-0.12473034,0.20404318,0.30221596,42.712044,0.0015,126,-204,290,0
154454069,0,263202,-0.121201664,0.16065831,0.30810565,42.694073,0.0015,124,-180,294,0
154553268,0,263202,-0.10355832,0.17511994,0.28454697,42.694073,0.0015,114,-188,278,0
154653268,0,263202,-0.10179398,0.17331223,0.30074355,42.68509,0.0015,113,-187,289,0
154750913,0,263202,-0.09650098,0.18596615,0.2963263,42.718033,0.0015,110,-194,286,0
154861268,0,263202,-0.10179398,0.162466,0.27718487,42.73301,0.0015,113,-181,273,0
154958889,0,263202,-0.08062196,0.1552352,0.28307456,42.70905,0.0015,101,-177,277,0
155058083,0,263202,-0.011812891,0.1534275,0.33460915,42.70006,0.0015,62,-176,312,0
155166069,0,263202,0.04111716,0.14258128,0.30221596,42.70006,0.0015,32,-170,290,0
155265268,0,263202,0.056996178,0.15161979,0.32430226,42.694073,0.0015,23,-175,305,0
155365268,0,263202,0.030531153,0.1534275,0.26687795,42.68509,0.0015,38,-176,266,0
155462868,0,263202,-0.055921268,0.20585087,0.2300675,42.688084,0.0015,87,-205,241,0
155562082,0,263202,-0.08591497,0.30888993,0.18442258,42.70905,0.0015,104,-262,210,0
155670868,0,263202,-0.10355832,0.3522748,0.18736741,42.706055,0.0015,114,-286,212,0
155770069,0,263202,-0.11237999,0.36492872,0.1593915,42.72702,0.0015,119,-293,193,0
155879669,0,263202,-0.11237999,0.37215954,0.14466731,42.712044,0.0015,119,-297,183,0
155977294,0,263202,-0.10355832,0.345044,0.12847072,42.69108,0.0015,114,-282,172,0
156077343,0,263202,-0.10708699,0.37758264,0.16380875,42.718033,0.0015,116,-300,196,0
156174868,0,263202,-0.091207966,0.32154387,0.203564,42.70905,0.0015,107,-269,223,0
156274069,0,263202,-0.12649468,0.20223548,0.27424005,42.72103,0.0015,127,-203,271,0
156382869,0,263202,-0.11943734,0.18777384,0.2801297,42.70306,0.0015,123,-195,275,0
156482068,0,263202,-0.13708068,0.14800438,0.21828818,42.68209,0.0015,133,-173,233,0
156590869,0,263202,-0.24646945,0.17692764,0.18883984,42.688084,0.0015,195,-189,213,0
156690068,0,263202,-0.27646315,0.18958154,0.22565027,42.697067,0.0015,212,-196,238,0
156789288,0,263202,-0.29939952,0.17692764,0.19178466,42.70006,0.0015,225,-189,215,0
156897321,0,263202,-0.27822748,0.18054304,0.20061918,42.697067,0.0015,213,-191,221,0
156997295,0,263202,-0.30116385,0.1534275,0.19325708,42.70306,0.0015,226,-176,216,0
157105268,0,263202,-0.17589606,0.16969682,0.21239851,42.68209,0.0015,155,-185,229,0
157205268,0,263202,-0.10708699,0.18235074,0.2963263,42.6761,0.0015,116,-192,286,0
157313268,0,263202,-0.10708699,0.31973615,0.22565027,42.70905,0.0015,116,-268,238,0
157413274,0,263202,-0.10708699,0.33058238,0.19031225,42.75098,0.0015,116,-274,214,0
157510882,0,263202,-0.10179398,0.36854413,0.15055698,42.718033,0.0015,113,-295,187,0
157610069,0,263202,-0.10355832,0.36673644,0.14025006,42.72702,0.0015,114,-294,180,0
157718090,0,263202,-0.08238629,0.37758264,0.119636215,42.73301,0.0015,102,-300,166,0
157817297,0,263202,-0.105322644,0.36492872,0.16528116,42.71504,0.0015,115,-293,197,0
157916468,0,263202,-0.10355832,0.3341978,0.19031225,42.739002,0.0015,114,-276,214,0
158025269,0,263202,-0.09650098,0.20042777,0.2874918,42.68509,0.0015,110,-202,280,0
158125268,0,263202,-0.10179398,0.19138925,0.30957806,42.70006,0.0015,113,-197,295,0
158222913,0,263202,-0.10002965,0.17150451,0.30221596,42.70905,0.0015,112,-186,290,0
158322068,0,263202,-0.07885762,0.1534275,0.31105047,42.712044,0.0015,100,-176,296,0
158430877,0,263202,-0.10885132,0.17692764,0.30221596,42.68209,0.0015,117,-189,290,0
158530069,0,263202,-0.10885132,0.14438899,0.31841257,42.70006,0.0015,117,-171,301,0
158629269,0,263202,-0.10179398,0.15885061,0.31841257,42.68509,0.0015,113,-179,301,0
158737331,0,263202,-0.091207966,0.08292709,0.2948539,42.736008,0.0015,107,-137,285,0
158836514,0,263202,-0.07709329,0.057619248,0.30663323,42.70905,0.0015,99,-123,293,0
158936472,0,263202,-0.10002965,0.07388858,0.3463885,42.71504,0.0015,112,-132,320,0
159034069,0,263202,-0.105322644,0.028696004,0.3213574,42.706055,0.0015,115,-107,303,0
159144492,0,263202,-0.091207966,0.043157626,0.3036884,42.736008,0.0015,107,-115,291,0
159242068,0,263202,-0.094736636,0.03231141,0.30074355,42.72103,0.0015,109,-109,289,0
159341303,0,263202,-0.08238629,0.04496533,0.30810565,42.739002,0.0015,102,-116,294,0
159450069,0,263202,-0.08591497,0.04496533,0.30810565,42.718033,0.0015,104,-116,294,0
159549271,0,263202,-0.10002965,0.055811547,0.33460915,42.71504,0.0015,112,-122,312,0
159657299,0,263202,-0.094736636,0.054003842,0.3125229,42.688084,0.0015,109,-121,297,0
159756468,0,263202,-0.07532895,0.06665777,0.29927114,42.673107,0.0015,98,-128,288,0
159856468,0,263202,-0.10002965,0.12088885,0.30516082,42.69108,0.0015,112,-158,292,0
159954068,0,263202,-0.087679304,0.14438899,0.2712952,42.712044,0.0015,105,-171,269,0
160064485,0,263202,-0.094736636,0.162466,0.2948539,42.74499,0.0015,109,-181,285,0
160776478,0,263202,-0.07885762,0.17150451,0.29927114,42.730015,0.0015,100,-186,288,0
160874109,0,263202,-0.128259,0.19319697,0.31399533,42.759968,0.0015,128,-198,298,0
160973269,0,263202,-0.06297861,0.14438899,0.2801297,42.706055,0.0015,91,-171,275,0
161082069,0,263202,-0.10355832,0.17511994,0.2786573,42.72103,0.0015,114,-188,274,0
161181268,0,263202,-0.110615656,0.17873535,0.319885,42.68209,0.0015,118,-190,302,0
161280472,0,263202,-0.091207966,0.162466,0.26540554,42.706055,0.0015,107,-181,265,0
161369268,0,263202,-0.121201664,0.18596615,0.30516082,42.72702,0.0015,124,-194,292,0
161477296,0,263202,-0.10179398,0.17331223,0.2889642,42.70006,0.0015,113,-187,281,0
161586069,0,263202,-0.091207966,0.16608141,0.3036884,42.730015,0.0015,107,-183,291,0
161685268,0,263202,-0.11237999,0.162466,0.30074355,42.70905,0.0015,119,-181,289,0
161784468,0,263202,-0.09650098,0.1570429,0.28454697,42.736008,0.0015,110,-178,278,0
161893286,0,263202,-0.09826531,0.18415844,0.30957806,42.712044,0.0015,111,-193,295,0
161992516,0,263202,-0.091207966,0.16969682,0.28307456,42.74499,0.0015,107,-185,277,0
162091689,0,263202,-0.11943734,0.18054304,0.27424005,42.72702,0.0015,123,-191,271,0
162191669,0,263202,-0.11237999,0.18054304,0.28307456,42.70905,0.0015,119,-191,277,0
162289269,0,263202,-0.128259,0.18235074,0.27276763,42.73301,0.0015,128,-192,270,0
162397310,0,263202,-0.13355201,0.18415844,0.2801297,42.712044,0.0015,131,-193,275,0
162496481,0,263202,-0.128259,0.17150451,0.30221596,42.71504,0.0015,128,-186,290,0
162595668,0,263202,-0.13002335,0.2130817,0.28307456,42.706055,0.0015,129,-209,277,0
162704484,0,263202,-0.12473034,0.2185048,0.2786573,42.70306,0.0015,126,-212,274,0
162803668,0,263202,-0.11590866,0.23477413,0.2712952,42.697067,0.0015,121,-221,269,0
162912469,0,263202,-0.091207966,0.2130817,0.2447917,42.724026,0.0015,107,-209,251,0
163011668,0,263202,-0.11590866,0.23477413,0.28601938,42.72702,0.0015,121,-221,279,0
163111672,0,263202,-0.12473034,0.24742803,0.2786573,42.70306,0.0015,126,-228,274,0
163209305,0,263202,-0.110615656,0.2221202,0.25215375,42.718033,0.0015,118,-214,256,0
163317341,0,263202,-0.110615656,0.24381264,0.26687795,42.73301,0.0015,118,-226,266,0
163416469,0,263202,-0.122966,0.23838954,0.26835036,42.76895,0.0015,125,-223,267,0
163515668,0,263202,-0.10708699,0.2221202,0.2786573,42.70006,0.0015,116,-214,274,0
163624468,0,263202,-0.122966,0.2166971,0.27718487,42.70006,0.0015,125,-211,273,0
163723699,0,263202,-0.10002965,0.18958154,0.2874918,42.71504,0.0015,112,-196,280,0
163823668,0,263202,-0.13531634,0.19319697,0.2816021,42.739002,0.0015,132,-198,276,0
163921270,0,263202,-0.13531634,0.18235074,0.2874918,42.72702,0.0015,132,-192,280,0
164031668,0,263202,-0.16001704,0.18235074,0.2874918,42.73301,0.0015,146,-192,280,0
164130071,0,263202,-0.12473034,0.16427371,0.30221596,42.730015,0.0015,126,-182,290,0
164227675,0,263202,-0.121201664,0.18958154,0.28454697,42.736008,0.0015,124,-196,278,0
164336469,0,263202,-0.11590866,0.16608141,0.28601938,42.747986,0.0015,121,-183,279,0
164435713,0,263202,-0.10179398,0.19138925,0.27424005,42.712044,0.0015,113,-197,271,0
164535688,0,263202,-0.114144325,0.18596615,0.30516082,42.76895,0.0015,120,-194,292,0
164633281,0,263202,-0.128259,0.18958154,0.2786573,42.72702,0.0015,128,-196,274,0
164732469,0,263202,-0.12649468,0.19500467,0.2889642,42.72702,0.0015,127,-199,281,0
164841269,0,263202,-0.09650098,0.18958154,0.29043663,42.741997,0.0015,110,-196,282,0
164940475,0,263202,-0.10355832,0.18235074,0.28454697,42.741997,0.0015,114,-192,278,0
165039686,0,263202,-0.13355201,0.16969682,0.28307456,42.747986,0.0015,131,-185,277,0
165147682,0,263202,-0.091207966,0.16608141,0.29779872,42.76895,0.0015,107,-183,287,0
165247668,0,263202,-0.11943734,0.17331223,0.25657102,42.73301,0.0015,123,-187,259,0
165345269,0,263202,-0.121201664,0.19681236,0.2786573,42.741997,0.0015,124,-200,274,0
165444480,0,263202,-0.117673,0.17873535,0.29338148,42.73301,0.0015,122,-190,284,0
165553268,0,263202,-0.12649468,0.17692764,0.30074355,42.70905,0.0015,127,-189,289,0
165652484,0,263202,-0.105322644,0.18777384,0.27718487,42.747986,0.0015,115,-195,273,0
165751668,0,263202,-0.10708699,0.16427371,0.29043663,42.74499,0.0015,116,-182,282,0
165851699,0,263202,-0.117673,0.17511994,0.2816021,42.741997,0.0015,122,-188,276,0
165959669,0,263202,-0.128259,0.19319697,0.2816021,42.74499,0.0015,128,-198,276,0
166057306,0,263202,-0.13708068,0.16969682,0.30074355,42.75398,0.0015,133,-185,289,0
166156469,0,263202,-0.110615656,0.20042777,0.30221596,42.741997,0.0015,118,-202,290,0
166255676,0,263202,-0.114144325,0.16788912,0.26982278,42.75398,0.0015,120,-184,268,0
166364482,0,263202,-0.10355832,0.17511994,0.27276763,42.756973,0.0015,114,-188,270,0
166463668,0,263202,-0.09826531,0.18415844,0.2889642,42.762962,0.0015,111,-193,281,0
166562868,0,263202,-0.122966,0.18415844,0.27718487,42.74499,0.0015,125,-193,273,0
166671669,0,263202,-0.122966,0.18054304,0.30074355,42.747986,0.0015,125,-191,289,0
166770875,0,263202,-0.10002965,0.17873535,0.2786573,42.756973,0.0015,112,-190,274,0
166869269,0,263202,-0.13708068,0.19138925,0.2948539,42.730015,0.0015,133,-197,285,0
166978894,0,263202,-0.13355201,0.18054304,0.29779872,42.75398,0.0015,131,-191,287,0
167076468,0,263202,-0.122966,0.18777384,0.30074355,42.76895,0.0015,125,-195,289,0
167175669,0,263202,-0.121201664,0.17511994,0.2786573,42.759968,0.0015,124,-188,274,0
167274898,0,263202,-0.11590866,0.17692764,0.26540554,42.75098,0.0015,121,-189,265,0
167383669,0,263202,-0.128259,0.19319697,0.27571246,42.72702,0.0015,128,-198,272,0
167482893,0,263202,-0.13355201,0.16608141,0.27424005,42.741997,0.0015,131,-183,271,0
167582868,0,263202,-0.13531634,0.16788912,0.26098827,42.736008,0.0015,132,-184,262,0
167680469,0,263202,-0.14943103,0.18596615,0.2786573,42.739002,0.0015,140,-194,274,0
167789296,0,263202,-0.1476667,0.17692764,0.27424005,42.774944,0.0015,139,-189,271,0
167887669,0,263202,-0.13002335,0.18415844,0.2948539,42.756973,0.0015,129,-193,285,0
167986871,0,263202,-0.12649468,0.18415844,0.28307456,42.765957,0.0015,127,-193,277,0
168095669,0,263202,-0.13355201,0.19138925,0.29190904,42.756973,0.0015,131,-197,283,0
168194868,0,263202,-0.121201664,0.17511994,0.29043663,42.79591,0.0015,124,-188,282,0
168294869,0,263202,-0.121201664,0.16788912,0.2786573,42.77794,0.0015,124,-184,274,0
168402868,0,263202,-0.114144325,0.18235074,0.28454697,42.74499,0.0015,120,-192,278,0
168502868,0,263202,-0.11590866,0.15885061,0.28601938,42.77794,0.0015,121,-179,279,0
168600496,0,263202,-0.122966,0.16608141,0.2801297,42.765957,0.0015,125,-183,275,0
168699685,0,263202,-0.11943734,0.18054304,0.29190904,42.76895,0.0015,123,-191,283,0
168807669,0,263202,-0.110615656,0.17873535,0.27276763,42.759968,0.0015,118,-190,270,0
168906868,0,263202,-0.08238629,0.18235074,0.27276763,42.762962,0.0015,102,-192,270,0
169015702,0,263202,-0.07885762,0.19681236,0.26982278,42.75398,0.0015,100,-200,268,0
169114868,0,263202,-0.10708699,0.19319697,0.29043663,42.765957,0.0015,116,-198,282,0
169214868,0,263202,-0.117673,0.17511994,0.2816021,42.76895,0.0015,122,-188,276,0
169312469,0,263202,-0.10355832,0.20042777,0.28454697,42.76895,0.0015,114,-202,278,0
169411676,0,263202,-0.10002965,0.20765857,0.2874918,42.75098,0.0015,112,-206,280,0
169520473,0,263202,-0.105322644,0.17692764,0.27718487,42.783928,0.0015,115,-189,273,0
169619676,0,263202,-0.087679304,0.2130817,0.27424005,42.759968,0.0015,105,-209,271,0
169718869,0,263202,-0.10708699,0.2185048,0.27571246,42.736008,0.0015,116,-212,272,0
169826868,0,263202,-0.10708699,0.22935101,0.2816021,42.756973,0.0015,116,-218,276,0
169926123,0,263202,-0.110615656,0.19681236,0.27571246,42.783928,0.0015,118,-200,272,0
170026099,0,263202,-0.09826531,0.23838954,0.2801297,42.741997,0.0015,111,-223,275,0
170123669,0,263202,-0.11943734,0.2203125,0.27424005,42.77195,0.0015,123,-213,271,0
170232493,0,263202,-0.11590866,0.19500467,0.28307456,42.79591,0.0015,121,-199,277,0
170331702,0,263202,-0.07885762,0.2185048,0.2816021,42.765957,0.0015,100,-212,276,0
170430890,0,263202,-0.10179398,0.19862007,0.2948539,42.786922,0.0015,113,-201,285,0
170530069,0,263202,-0.094736636,0.19138925,0.28601938,42.76895,0.0015,109,-197,279,0
170638072,0,263202,-0.105322644,0.2130817,0.2712952,42.756973,0.0015,115,-209,269,0
170738068,0,263202,-0.10708699,0.18596615,0.27276763,42.774944,0.0015,116,-194,270,0
170835692,0,263202,-0.114144325,0.17511994,0.31105047,42.816875,0.0015,120,-188,296,0
170944469,0,263202,-0.10355832,0.162466,0.2801297,42.77195,0.0015,114,-181,275,0
171043670,0,263202,-0.10355832,0.17873535,0.28454697,42.77794,0.0015,114,-190,278,0
171142868,0,263202,-0.08944363,0.16427371,0.2786573,42.77794,0.0015,106,-182,274,0
171242068,0,263202,-0.122966,0.16969682,0.27718487,42.79591,0.0015,125,-185,273,0
171350068,0,263202,-0.0929723,0.16788912,0.29927114,42.78992,0.0015,108,-184,288,0
171450069,0,263202,-0.105322644,0.16608141,0.29190904,42.765957,0.0015,115,-183,283,0
171547680,0,263202,-0.10885132,0.15885061,0.2948539,42.756973,0.0015,117,-179,285,0
171658069,0,263202,-0.114144325,0.16065831,0.29927114,42.77195,0.0015,120,-180,288,0
171755668,0,263202,-0.10708699,0.14258128,0.31105047,42.77195,0.0015,116,-170,296,0
171854869,0,263202,-0.121201664,0.18235074,0.28454697,42.774944,0.0015,124,-192,278,0
171954076,0,263202,-0.105322644,0.17331223,0.30957806,42.828857,0.0015,115,-187,295,0
172062907,0,263202,-0.121201664,0.16427371,0.30221596,42.774944,0.0015,124,-182,290,0
172162069,0,263202,-0.10002965,0.16427371,0.30221596,42.78992,0.0015,112,-182,290,0
172259668,0,263202,-0.091207966,0.18054304,0.28307456,42.79591,0.0015,107,-191,277,0
172666068,0,263202,-0.0929723,0.17150451,0.2963263,42.77195,0.0015,108,-186,286,0
172774869,0,263202,-0.105322644,0.18054304,0.28601938,42.765957,0.0015,115,-191,279,0
172874068,0,263202,-0.10002965,0.16788912,0.30221596,42.783928,0.0015,112,-184,290,0
172974113,0,263202,-0.110615656,0.18235074,0.29338148,42.762962,0.0015,118,-192,284,0
173072469,0,263202,-0.13355201,0.18777384,0.2948539,42.810886,0.0015,131,-195,285,0
173179669,0,263202,-0.121201664,0.17873535,0.31399533,42.822865,0.0015,124,-190,298,0
173278869,0,263202,-0.12473034,0.19319697,0.30810565,42.792915,0.0015,126,-198,294,0
173378106,0,263202,-0.114144325,0.19319697,0.30516082,42.77794,0.0015,120,-198,292,0
173478068,0,263202,-0.11943734,0.17331223,0.2801297,42.81987,0.0015,123,-187,275,0
173586079,0,263202,-0.13531634,0.18596615,0.29338148,42.816875,0.0015,132,-194,284,0
173686068,0,263202,-0.11943734,0.16608141,0.2948539,42.786922,0.0015,123,-183,285,0
173783672,0,263202,-0.11590866,0.162466,0.28601938,42.8019,0.0015,121,-181,279,0
173882877,0,263202,-0.08944363,0.1534275,0.26098827,42.810886,0.0015,106,-176,262,0
173991737,0,263202,-0.11943734,0.18415844,0.2948539,42.804893,0.0015,123,-193,285,0
174090874,0,263202,-0.110615656,0.17511994,0.30221596,42.810886,0.0015,118,-188,290,0
174189268,0,263202,-0.09826531,0.17692764,0.28307456,42.798904,0.0015,111,-189,277,0
174298069,0,263202,-0.10179398,0.19138925,0.28601938,42.78992,0.0015,113,-197,279,0
174397294,0,263202,-0.114144325,0.19681236,0.2816021,42.774944,0.0015,120,-200,276,0
174495714,0,263202,-0.12473034,0.17511994,0.2816021,42.822865,0.0015,126,-188,276,0
174594869,0,263202,-0.09826531,0.17331223,0.27718487,42.76895,0.0015,111,-187,273,0
174694069,0,263202,-0.10885132,0.20585087,0.28307456,42.83784,0.0015,117,-205,277,0
174802868,0,263202,-0.110615656,0.19319697,0.28454697,42.8019,0.0015,118,-198,278,0
174902076,0,263202,-0.114144325,0.18596615,0.2874918,42.816875,0.0015,120,-194,280,0
175001269,0,263202,-0.10708699,0.17873535,0.2816021,42.825863,0.0015,116,-190,276,0
175109286,0,263202,-0.114144325,0.20404318,0.2963263,42.798904,0.0015,120,-204,286,0
175209268,0,263202,-0.10355832,0.19681236,0.30221596,42.798904,0.0015,114,-200,290,0
175306868,0,263202,-0.10885132,0.19500467,0.30074355,42.786922,0.0015,117,-199,289,0
175406072,0,263202,-0.11590866,0.19500467,0.28307456,42.774944,0.0015,121,-199,277,0
175514869,0,263202,-0.09826531,0.18054304,0.2624607,42.81388,0.0015,111,-191,263,0
175614069,0,263202,-0.122966,0.19138925,0.2889642,42.759968,0.0015,125,-197,281,0
175713282,0,263202,-0.114144325,0.18596615,0.2963263,42.831852,0.0015,120,-194,286,0
175813293,0,263202,-0.0929723,0.20765857,0.29043663,42.81388,0.0015,108,-206,282,0
175921291,0,263202,-0.091207966,0.16969682,0.29190904,42.81388,0.0015,107,-185,283,0
176019698,0,263202,-0.10179398,0.20223548,0.29190904,42.792915,0.0015,113,-203,283,0
176118091,0,263202,-0.10708699,0.18596615,0.2963263,42.816875,0.0015,116,-194,286,0
176217336,0,263202,-0.10355832,0.19319697,0.29927114,42.81388,0.0015,114,-198,288,0
176326074,0,263202,-0.09826531,0.18054304,0.29190904,42.798904,0.0015,111,-191,283,0
176425296,0,263202,-0.094736636,0.2130817,0.2712952,42.816875,0.0015,109,-209,269,0
176525268,0,263202,-0.105322644,0.15885061,0.2889642,42.78992,0.0015,115,-179,281,0
176622880,0,263202,-0.11237999,0.16969682,0.3036884,42.83784,0.0015,119,-185,291,0
176733271,0,263202,-0.10885132,0.17692764,0.29190904,42.810886,0.0015,117,-189,283,0
176830914,0,263202,-0.11237999,0.16969682,0.3213574,42.80789,0.0015,119,-185,303,0
176938903,0,263202,-0.0929723,0.16065831,0.31399533,42.810886,0.0015,108,-180,298,0
177038099,0,263202,-0.09650098,0.16065831,0.29927114,42.828857,0.0015,110,-180,288,0
177137302,0,263202,-0.10708699,0.16788912,0.30810565,42.83784,0.0015,116,-184,294,0
177237328,0,263202,-0.11590866,0.15161979,0.2889642,42.810886,0.0015,121,-175,281,0
177345268,0,263202,-0.09826531,0.17692764,0.29779872,42.810886,0.0015,111,-189,287,0
177445278,0,263202,-0.10885132,0.17331223,0.30663323,42.825863,0.0015,117,-187,293,0
177542889,0,263202,-0.114144325,0.1570429,0.31399533,42.80789,0.0015,120,-178,298,0
177642068,0,263202,-0.11237999,0.18415844,0.29779872,42.816875,0.0015,119,-193,287,0
177750882,0,263202,-0.114144325,0.16427371,0.30221596,42.816875,0.0015,120,-182,290,0
177850080,0,263202,-0.11237999,0.16969682,0.28307456,42.81388,0.0015,119,-185,277,0
177958068,0,263202,-0.08591497,0.17511994,0.27571246,42.81388,0.0015,104,-188,272,0
178057334,0,263202,-0.09826531,0.15885061,0.3036884,42.810886,0.0015,111,-179,291,0
178156468,0,263202,-0.114144325,0.14981209,0.29927114,42.798904,0.0015,120,-174,288,0
178255700,0,263202,-0.10179398,0.15885061,0.3125229,42.80789,0.0015,113,-179,297,0
178354080,0,263202,-0.121201664,0.16065831,0.28454697,42.84683,0.0015,124,-180,278,0
178463702,0,263202,-0.117673,0.17873535,0.29043663,42.84683,0.0015,122,-190,282,0
178562070,0,263202,-0.105322644,0.15885061,0.30663323,42.855812,0.0015,115,-179,293,0
178661273,0,263202,-0.10708699,0.17873535,0.30221596,42.840836,0.0015,116,-190,290,0
178770069,0,263202,-0.10885132,0.18054304,0.30663323,42.810886,0.0015,117,-191,293,0
178869269,0,263202,-0.10179398,0.19138925,0.29779872,42.83784,0.0015,113,-197,287,0
178977299,0,263202,-0.110615656,0.16427371,0.2816021,42.84683,0.0015,118,-182,276,0
179076468,0,263202,-0.11237999,0.17692764,0.28307456,42.822865,0.0015,119,-189,277,0
179176468,0,263202,-0.10179398,0.17692764,0.29190904,42.83784,0.0015,113,-189,283,0
179274069,0,263202,-0.094736636,0.18415844,0.27718487,42.858807,0.0015,109,-193,273,0
179382869,0,263202,-0.09650098,0.18596615,0.2197606,42.834846,0.0015,110,-194,234,0
179482070,0,263202,-0.10885132,0.15161979,0.2948539,42.849823,0.0015,117,-175,285,0
179581269,0,263202,-0.09650098,0.17873535,0.32577467,42.83784,0.0015,110,-190,306,0
179789269,0,263202,-0.11590866,0.17331223,0.26540554,42.843834,0.0015,121,-187,265,0
180798089,0,263202,-0.07885762,0.1570429,0.2786573,42.828857,0.0015,100,-178,274,0
180897297,0,263202,-0.0929723,0.17873535,0.29043663,42.834846,0.0015,108,-190,282,0
181005269,0,263202,-0.105322644,0.14800438,0.27718487,42.855812,0.0015,115,-173,273,0
181104516,0,263202,-0.105322644,0.16608141,0.27718487,42.852818,0.0015,115,-183,273,0
181213295,0,263202,-0.10179398,0.14800438,0.29779872,42.8648,0.0015,113,-173,287,0
181312468,0,263202,-0.10355832,0.13896587,0.2963263,42.84683,0.0015,114,-168,286,0
181412472,0,263202,-0.128259,0.17511994,0.2963263,42.840836,0.0015,128,-188,286,0
181510068,0,263202,-0.11943734,0.162466,0.27718487,42.855812,0.0015,123,-181,273,0
181609278,0,263202,-0.128259,0.16065831,0.2874918,42.834846,0.0015,128,-180,280,0
181718077,0,263202,-0.13355201,0.14438899,0.25951585,42.843834,0.0015,131,-171,261,0
181817333,0,263202,-0.105322644,0.15885061,0.26835036,42.834846,0.0015,115,-179,267,0
181916469,0,263202,-0.13531634,0.16788912,0.27276763,42.861805,0.0015,132,-184,270,0
182024473,0,263202,-0.12649468,0.1552352,0.26540554,42.831852,0.0015,127,-177,265,0
182123668,0,263202,-0.12473034,0.1570429,0.26687795,42.858807,0.0015,126,-178,266,0
182223686,0,263202,-0.110615656,0.14619668,0.25804344,42.858807,0.0015,118,-172,260,0
182321295,0,263202,-0.13178767,0.16788912,0.26687795,42.858807,0.0015,130,-184,266,0
182430082,0,263202,-0.122966,0.162466,0.26687795,42.858807,0.0015,125,-181,266,0
182529299,0,263202,-0.11590866,0.162466,0.26540554,42.843834,0.0015,121,-181,265,0
182628468,0,263202,-0.14413802,0.14800438,0.23890202,42.831852,0.0015,137,-173,247,0
182737302,0,263202,-0.13355201,0.15885061,0.2536262,42.867794,0.0015,131,-179,257,0
182836472,0,263202,-0.122966,0.14077358,0.23301236,42.8648,0.0015,125,-169,243,0
182935669,0,263202,-0.13355201,0.14800438,0.26540554,42.87079,0.0015,131,-173,265,0
183033268,0,263202,-0.14060935,0.13715817,0.23890202,42.876778,0.0015,135,-167,247,0
183132473,0,263202,-0.12473034,0.1534275,0.2550986,42.88277,0.0015,126,-176,258,0
183241270,0,263202,-0.11590866,0.15161979,0.21534336,42.861805,0.0015,121,-175,231,0
183340482,0,263202,-0.13355201,0.15161979,0.25068134,42.843834,0.0015,131,-175,255,0
183439692,0,263202,-0.13708068,0.14077358,0.2447917,42.867794,0.0015,133,-169,251,0
183548469,0,263202,-0.13531634,0.14258128,0.2874918,42.849823,0.0015,132,-170,280,0
183647695,0,263202,-0.121201664,0.12450425,0.24920894,42.88277,0.0015,124,-160,254,0
183747713,0,263202,-0.13531634,0.14258128,0.26393312,42.843834,0.0015,132,-170,264,0
183845269,0,263202,-0.15648837,0.13896587,0.2374296,42.84683,0.0015,144,-168,246,0
183944469,0,263202,-0.15472403,0.14438899,0.2712952,42.891754,0.0015,143,-171,269,0
184052469,0,263202,-0.14943103,0.12811966,0.2374296,42.873783,0.0015,140,-162,246,0
184151686,0,263202,-0.1582527,0.12631196,0.26835036,42.852818,0.0015,145,-161,267,0
184251668,0,263202,-0.14590237,0.11365803,0.24037443,42.873783,0.0015,138,-154,248,0
184359726,0,263202,-0.13178767,0.13535048,0.2550986,42.876778,0.0015,130,-166,258,0
184459668,0,263202,-0.16531004,0.12631196,0.2712952,42.83784,0.0015,149,-161,269,0
184557295,0,263202,-0.1723674,0.12992735,0.26835036,42.88876,0.0015,153,-163,267,0
184667699,0,263202,-0.14060935,0.12992735,0.25951585,42.852818,0.0015,135,-163,261,0
184765286,0,263202,-0.13884501,0.12088885,0.33755398,42.879776,0.0015,134,-158,314,0
184864547,0,263202,-0.14943103,0.13535048,0.3287195,42.885765,0.0015,140,-166,308,0
184972484,0,263202,-0.1476667,0.13354276,0.3478609,42.90673,0.0015,139,-165,321,0
185071668,0,263202,-0.14943103,0.14981209,0.355223,42.90074,0.0015,140,-174,326,0
185171707,0,263202,-0.13178767,0.14619668,0.35816783,42.891754,0.0015,130,-172,328,0
185269311,0,263202,-0.128259,0.1534275,0.34933332,42.861805,0.0015,128,-176,322,0
185368476,0,263202,-0.14943103,0.1534275,0.3404988,42.90673,0.0015,140,-176,316,0
185477333,0,263202,-0.15472403,0.14438899,0.28307456,42.88277,0.0015,143,-171,277,0
185576468,0,263202,-0.16707437,0.14981209,0.2874918,42.83784,0.0015,150,-174,280,0
185675699,0,263202,-0.1582527,0.12992735,0.2801297,42.885765,0.0015,145,-163,275,0
185784470,0,263202,-0.15119536,0.13715817,0.29779872,42.873783,0.0015,141,-167,287,0
185883668,0,263202,-0.1723674,0.12631196,0.27718487,42.88277,0.0015,153,-161,273,0
185982891,0,263202,-0.15119536,0.12992735,0.29779872,42.89475,0.0015,141,-163,287,0
186080468,0,263202,-0.14237368,0.13535048,0.2786573,42.852818,0.0015,136,-166,274,0
186189268,0,263202,-0.16178137,0.13715817,0.3036884,42.903736,0.0015,147,-167,291,0
186288470,0,263202,-0.1476667,0.14800438,0.28307456,42.918713,0.0015,139,-173,277,0
186398868,0,263202,-0.13884501,0.12088885,0.29043663,42.90074,0.0015,134,-158,282,0
186496469,0,263202,-0.14060935,0.13354276,0.3125229,42.90673,0.0015,135,-165,297,0
186595680,0,263202,-0.13178767,0.12811966,0.31399533,42.915718,0.0015,130,-162,298,0
186704469,0,263202,-0.15119536,0.12269655,0.29190904,42.84683,0.0015,141,-159,283,0
186802890,0,263202,-0.16178137,0.13715817,0.30074355,42.873783,0.0015,147,-167,289,0
186902868,0,263202,-0.13884501,0.16427371,0.31105047,42.885765,0.0015,134,-182,296,0
187000468,0,263202,-0.13884501,0.12088885,0.29043663,42.88277,0.0015,134,-158,282,0
187110869,0,263202,-0.14590237,0.16065831,0.30810565,42.891754,0.0015,138,-180,294,0
187208469,0,263202,-0.15119536,0.1552352,0.28601938,42.849823,0.0015,141,-177,279,0
187307701,0,263202,-0.14943103,0.13896587,0.27571246,42.867794,0.0015,140,-168,272,0
187416469,0,263202,-0.17766039,0.13535048,0.2786573,42.88277,0.0015,156,-166,274,0
187515671,0,263202,-0.22000444,0.13535048,0.27571246,42.8648,0.0015,180,-166,272,0
187614869,0,263202,-0.24646945,0.14077358,0.27718487,42.897747,0.0015,195,-169,273,0
187703675,0,263202,-0.25176248,0.13535048,0.25215375,42.891754,0.0015,198,-166,256,0
187821306,0,263202,-0.25529113,0.12450425,0.24331929,42.903736,0.0015,200,-160,250,0
187920482,0,263202,-0.26587716,0.12088885,0.2786573,42.879776,0.0015,206,-158,274,0
188019685,0,263202,-0.24470513,0.12088885,0.24626411,42.879776,0.0015,194,-158,252,0
188118876,0,263202,-0.26058415,0.13715817,0.26540554,42.8648,0.0015,203,-167,265,0
188227669,0,263202,-0.15119536,0.14438899,0.2948539,42.9247,0.0015,141,-171,285,0
188326868,0,263202,-0.1529597,0.13173506,0.29338148,42.918713,0.0015,142,-164,284,0
188426868,0,263202,-0.16178137,0.12992735,0.29190904,42.885765,0.0015,147,-163,283,0
188524469,0,263202,-0.1635457,0.13173506,0.29338148,42.87079,0.0015,148,-164,284,0
188623669,0,263202,-0.15119536,0.15885061,0.29190904,42.91272,0.0015,141,-179,283,0
188733269,0,263202,-0.13884501,0.17511994,0.26098827,42.91272,0.0015,134,-188,262,0
188830868,0,263202,-0.14060935,0.17331223,0.2948539,42.903736,0.0015,135,-187,285,0
188939669,0,263202,-0.11943734,0.17692764,0.26835036,42.873783,0.0015,123,-189,267,0
189038868,0,263202,-0.1635457,0.17511994,0.26687795,42.876778,0.0015,148,-188,266,0
189138868,0,263202,-0.14943103,0.18958154,0.28454697,42.873783,0.0015,140,-196,278,0
189236469,0,263202,-0.15119536,0.20946628,0.26540554,42.903736,0.0015,141,-207,265,0
189346898,0,263202,-0.14590237,0.20042777,0.25804344,42.90074,0.0015,138,-202,260,0
189445281,0,263202,-0.1529597,0.20404318,0.2786573,42.88876,0.0015,142,-204,274,0
189543684,0,263202,-0.16707437,0.20765857,0.2786573,42.89475,0.0015,150,-206,274,0
189642891,0,263202,-0.14237368,0.18596615,0.27276763,42.903736,0.0015,136,-194,270,0
189750881,0,263202,-0.16178137,0.20223548,0.26835036,42.927696,0.0015,147,-203,267,0
189850076,0,263202,-0.14590237,0.19681236,0.2786573,42.885765,0.0015,138,-200,274,0
189950075,0,263202,-0.14943103,0.18958154,0.2786573,42.915718,0.0015,140,-196,274,0
190047686,0,263202,-0.122966,0.19862007,0.28601938,42.90074,0.0015,125,-201,279,0
190156491,0,263202,-0.14413802,0.19138925,0.28601938,42.93069,0.0015,137,-197,279,0
190255669,0,263202,-0.1476667,0.19138925,0.2889642,42.909725,0.0015,139,-197,281,0
190354871,0,263202,-0.1476667,0.18415844,0.2712952,42.921707,0.0015,139,-193,269,0
190463693,0,263202,-0.14943103,0.16427371,0.27571246,42.885765,0.0015,140,-182,272,0
190562868,0,263202,-0.13355201,0.19138925,0.27424005,42.879776,0.0015,131,-197,271,0
190662069,0,263202,-0.14060935,0.17692764,0.29779872,42.903736,0.0015,135,-189,287,0
190760469,0,263202,-0.14943103,0.18235074,0.2874918,42.909725,0.0015,140,-192,280,0
190868490,0,263202,-0.15648837,0.18054304,0.26835036,42.9247,0.0015,144,-191,267,0
190967700,0,263202,-0.13355201,0.18054304,0.2889642,42.93069,0.0015,131,-191,281,0
191066872,0,263202,-0.1476667,0.162466,0.30074355,42.89475,0.0015,139,-181,289,0
191175671,0,263202,-0.15119536,0.162466,0.27718487,42.90074,0.0015,141,-181,273,0
191274880,0,263202,-0.16531004,0.17331223,0.28307456,42.88876,0.0015,149,-187,277,0
191374068,0,263202,-0.16178137,0.19138925,0.2712952,42.909725,0.0015,147,-197,269,0
191474069,0,263202,-0.15119536,0.20223548,0.28307456,42.915718,0.0015,141,-203,277,0
191571668,0,263202,-0.13708068,0.18054304,0.26540554,42.90673,0.0015,133,-191,265,0
191670869,0,263202,-0.15119536,0.17692764,0.29190904,42.915718,0.0015,141,-189,283,0
191780469,0,263202,-0.17060305,0.16788912,0.27276763,42.867794,0.0015,152,-184,270,0
191878869,0,263202,-0.19177508,0.1534275,0.28454697,42.89475,0.0015,164,-176,278,0
191986869,0,263202,-0.17766039,0.13173506,0.27276763,42.90673,0.0015,156,-164,270,0
192086075,0,263202,-0.19706808,0.14077358,0.2801297,42.88876,0.0015,167,-169,275,0
192186125,0,263202,-0.20941842,0.13535048,0.26687795,42.903736,0.0015,174,-166,266,0
192283700,0,263202,-0.22706176,0.12088885,0.29043663,42.88876,0.0015,184,-158,282,0
192382869,0,263202,-0.2482338,0.13173506,0.26098827,42.88876,0.0015,196,-164,262,0
192491703,0,263202,-0.24470513,0.13535048,0.24920894,42.915718,0.0015,194,-166,254,0
192590877,0,263202,-0.24117646,0.11365803,0.25215375,42.909725,0.0015,192,-154,256,0
192690070,0,263202,-0.23941213,0.12992735,0.2712952,42.90673,0.0015,191,-163,269,0
192798892,0,263202,-0.22000444,0.13896587,0.27276763,42.909725,0.0015,180,-168,270,0
192898069,0,263202,-0.19001073,0.15885061,0.2712952,42.921707,0.0015,163,-179,269,0
192995682,0,263202,-0.16707437,0.14619668,0.29043663,42.942673,0.0015,150,-172,282,0
193094869,0,263202,-0.15119536,0.12269655,0.29779872,42.89475,0.0015,141,-159,287,0
193203682,0,263202,-0.13708068,0.13354276,0.30074355,42.918713,0.0015,133,-165,289,0
193302869,0,263202,-0.128259,0.12088885,0.31105047,42.879776,0.0015,128,-158,296,0
193402079,0,263202,-0.1476667,0.14438899,0.30663323,42.90673,0.0015,139,-171,293,0
193501268,0,263202,-0.15119536,0.15885061,0.30957806,42.90074,0.0015,141,-179,295,0
193610069,0,263202,-0.12473034,0.12088885,0.2816021,42.90673,0.0015,126,-158,276,0
193709268,0,263202,-0.16001704,0.12450425,0.29338148,42.9247,0.0015,146,-160,284,0
193807669,0,263202,-0.13531634,0.12811966,0.26098827,42.903736,0.0015,132,-162,262,0
193915675,0,263202,-0.15648837,0.1570429,0.30221596,42.885765,0.0015,144,-178,290,0
194014869,0,263202,-0.14590237,0.12450425,0.29338148,42.91272,0.0015,138,-160,284,0
194114068,0,263202,-0.1582527,0.14077358,0.3036884,42.94866,0.0015,145,-169,291,0
194222899,0,263202,-0.15119536,0.14438899,0.30074355,42.93069,0.0015,141,-171,289,0
194322069,0,263202,-0.1476667,0.12631196,0.27718487,42.90673,0.0015,139,-161,273,0
194421290,0,263202,-0.1635457,0.13896587,0.28454697,42.921707,0.0015,148,-168,278,0
194530068,0,263202,-0.1582527,0.12992735,0.2948539,42.936684,0.0015,145,-163,285,0
194629281,0,263202,-0.1476667,0.12631196,0.29779872,42.921707,0.0015,139,-161,287,0
194718069,0,263202,-0.14060935,0.12269655,0.27718487,42.93369,0.0015,135,-159,273,0
194826068,0,263202,-0.1476667,0.14438899,0.27718487,42.909725,0.0015,139,-171,273,0
194934868,0,263202,-0.15648837,0.12450425,0.3228298,42.927696,0.0015,144,-160,304,0
195034069,0,263202,-0.1582527,0.17331223,0.30074355,42.9247,0.0015,145,-187,289,0
195142885,0,263202,-0.16001704,0.1534275,0.27571246,42.915718,0.0015,146,-176,272,0
195242069,0,263202,-0.17413172,0.17873535,0.26982278,42.93069,0.0015,154,-190,268,0
195341274,0,263202,-0.16178137,0.162466,0.25068134,42.879776,0.0015,147,-181,255,0
195450070,0,263202,-0.2129471,0.13896587,0.28454697,42.915718,0.0015,176,-168,278,0
195549288,0,263202,-0.22706176,0.13535048,0.27571246,42.885765,0.0015,184,-166,272,0
195646877,0,263202,-0.23764779,0.11365803,0.26687795,42.909725,0.0015,190,-154,266,0
195746115,0,263202,-0.2341191,0.12811966,0.2816021,42.918713,0.0015,188,-162,276,0
195854902,0,263202,-0.23941213,0.11546574,0.25657102,42.90673,0.0015,191,-155,259,0
195954069,0,263202,-0.22353311,0.13896587,0.26393312,42.93369,0.0015,182,-168,264,0
196062868,0,263202,-0.16178137,0.17692764,0.2536262,42.91272,0.0015,147,-189,257,0
196162068,0,263202,-0.16178137,0.20223548,0.26540554,42.945667,0.0015,147,-203,265,0
196261268,0,263202,-0.14590237,0.20765857,0.27571246,42.897747,0.0015,138,-206,272,0
196361287,0,263202,-0.15472403,0.19862007,0.2712952,42.90074,0.0015,143,-201,269,0
196469268,0,263202,-0.14237368,0.20765857,0.2550986,42.915718,0.0015,136,-206,258,0
196566894,0,263202,-0.13355201,0.2239279,0.2536262,42.915718,0.0015,131,-215,257,0
196666068,0,263202,-0.15472403,0.19500467,0.2712952,42.93968,0.0015,143,-199,269,0
196765271,0,263202,-0.1476667,0.19500467,0.2712952,42.9247,0.0015,139,-199,269,0
196874074,0,263202,-0.1582527,0.20223548,0.2712952,42.921707,0.0015,145,-203,269,0
196973274,0,263202,-0.16001704,0.18958154,0.27571246,42.9247,0.0015,146,-196,272,0
198190104,0,263202,-0.13002335,0.13354276,0.30663323,42.936684,0.0015,129,-165,293,0
198298071,0,263202,-0.14060935,0.111850336,0.30663323,42.9247,0.0015,135,-153,293,0
198397333,0,263202,-0.14590237,0.12811966,0.29927114,42.98161,0.0015,138,-162,288,0
198496468,0,263202,-0.14060935,0.12631196,0.2801297,42.9247,0.0015,135,-161,275,0
198605269,0,263202,-0.114144325,0.14619668,0.28454697,42.918713,0.0015,120,-172,278,0
198704482,0,263202,-0.13178767,0.11727344,0.30516082,42.936684,0.0015,130,-156,292,0
198804468,0,263202,-0.13355201,0.12992735,0.2712952,42.95765,0.0015,131,-163,269,0
198902102,0,263202,-0.13355201,0.13715817,0.2801297,42.90673,0.0015,131,-167,275,0
199001269,0,263202,-0.14237368,0.13535048,0.2963263,42.918713,0.0015,136,-166,286,0
199110900,0,263202,-0.14413802,0.13715817,0.29190904,42.96364,0.0015,137,-167,283,0
199209269,0,263202,-0.1635457,0.13173506,0.30810565,42.91272,0.0015,148,-164,294,0
199308468,0,263202,-0.13884501,0.10281182,0.28454697,42.93369,0.0015,134,-148,278,0
199416472,0,263202,-0.15119536,0.11908114,0.29190904,42.918713,0.0015,141,-157,283,0
199516468,0,263202,-0.13884501,0.11727344,0.30221596,42.909725,0.0015,134,-156,290,0
199614086,0,263202,-0.13884501,0.14258128,0.2874918,42.945667,0.0015,134,-170,280,0
199713269,0,263202,-0.14943103,0.13896587,0.2874918,42.96364,0.0015,140,-168,280,0
199822069,0,263202,-0.1635457,0.13173506,0.28454697,42.954655,0.0015,148,-164,278,0
199921269,0,263202,-0.13708068,0.12631196,0.3036884,42.95166,0.0015,133,-161,291,0
200020468,0,263202,-0.15472403,0.12269655,0.27718487,42.960644,0.0015,143,-159,273,0
200109269,0,263202,-0.1582527,0.13354276,0.2624607,42.96364,0.0015,145,-165,263,0
200228479,0,263202,-0.14590237,0.13535048,0.29043663,42.954655,0.0015,138,-166,282,0
200326069,0,263202,-0.14237368,0.14981209,0.27276763,42.897747,0.0015,136,-174,270,0
200425269,0,263202,-0.19883241,0.13896587,0.25215375,42.936684,0.0015,168,-168,256,0
200524472,0,263202,-0.27646315,0.1534275,0.23448478,42.972626,0.0015,212,-176,244,0
200633283,0,263202,-0.26058415,0.14077358,0.23595719,42.91272,0.0015,203,-169,245,0
200732494,0,263202,-0.2923422,0.12631196,0.20945369,42.95166,0.0015,221,-161,227,0
200831668,0,263202,-0.2799918,0.1534275,0.2550986,42.97562,0.0015,214,-176,258,0
200930069,0,263202,-0.18648206,0.14077358,0.27718487,42.936684,0.0015,161,-169,273,0
201039682,0,263202,-0.15472403,0.14800438,0.29779872,42.936684,0.0015,143,-173,287,0
201137332,0,263202,-0.1582527,0.15885061,0.28307456,42.954655,0.0015,145,-179,277,0
201236472,0,263202,-0.15119536,0.17331223,0.29190904,42.95765,0.0015,141,-187,283,0
201345294,0,263202,-0.14237368,0.19319697,0.29043663,42.942673,0.0015,136,-198,282,0
201444471,0,263202,-0.10885132,0.2203125,0.26540554,42.936684,0.0015,117,-213,265,0
201543670,0,263202,-0.121201664,0.2185048,0.23153992,42.96364,0.0015,124,-212,242,0
201643668,0,263202,-0.121201664,0.24019723,0.22565027,42.960644,0.0015,124,-224,238,0
201741269,0,263202,-0.117673,0.2871975,0.25215375,42.96963,0.0015,122,-250,256,0
201850091,0,263202,-0.13002335,0.24923573,0.25068134,42.93968,0.0015,129,-229,255,0
201948468,0,263202,-0.13531634,0.26912045,0.25804344,42.954655,0.0015,132,-240,260,0
202047681,0,263202,-0.13355201,0.26731277,0.2536262,42.936684,0.0015,131,-239,257,0
202156468,0,263202,-0.13178767,0.24019723,0.2550986,42.93968,0.0015,130,-224,258,0
202255668,0,263202,-0.15648837,0.23296642,0.2786573,42.936684,0.0015,144,-220,274,0
202355668,0,263202,-0.15472403,0.23115872,0.26835036,42.95166,0.0015,143,-219,267,0
202453269,0,263202,-0.13531634,0.17511994,0.27571246,42.942673,0.0015,132,-188,272,0
202552469,0,263202,-0.14590237,0.14981209,0.29338148,42.94866,0.0015,138,-174,284,0
202661283,0,263202,-0.15119536,0.12992735,0.30957806,42.960644,0.0015,141,-163,295,0
202760469,0,263202,-0.12649468,0.11908114,0.29190904,42.95166,0.0015,127,-157,283,0
202870069,0,263202,-0.15472403,0.13354276,0.2801297,42.954655,0.0015,143,-165,275,0
202967691,0,263202,-0.14413802,0.11908114,0.29779872,42.96364,0.0015,137,-157,287,0
203067714,0,263202,-0.12649468,0.11908114,0.30074355,42.96364,0.0015,127,-157,289,0
203175685,0,263202,-0.16001704,0.12088885,0.27571246,42.96963,0.0015,146,-158,272,0
203275668,0,263202,-0.14943103,0.12450425,0.29927114,42.942673,0.0015,140,-160,288,0
203373269,0,263202,-0.13884501,0.09919641,0.31399533,42.94866,0.0015,134,-146,298,0
203472474,0,263202,-0.15648837,0.09919641,0.29338148,42.93369,0.0015,144,-146,284,0
203581268,0,263202,-0.16531004,0.0901579,0.2948539,42.945667,0.0015,149,-141,285,0
203680498,0,263202,-0.17413172,0.07388858,0.2874918,42.95765,0.0015,154,-132,280,0
203779669,0,263202,-0.16883872,0.0901579,0.28307456,42.93369,0.0015,151,-141,277,0
203887668,0,263202,-0.21647577,0.09919641,0.29043663,42.960644,0.0015,178,-146,282,0
203987721,0,263202,-0.23764779,0.11727344,0.2285951,42.954655,0.0015,190,-156,240,0
204085268,0,263202,-0.2482338,0.11727344,0.24920894,42.94866,0.0015,196,-156,254,0
204184551,0,263202,-0.27822748,0.13715817,0.23595719,42.95166,0.0015,213,-167,245,0
204293289,0,263202,-0.25881982,0.12088885,0.23448478,42.978615,0.0015,202,-158,244,0
204392488,0,263202,-0.26587716,0.14258128,0.27276763,42.978615,0.0015,206,-170,270,0
204491674,0,263202,-0.22529744,0.12269655,0.2536262,42.966633,0.0015,183,-159,257,0
204600469,0,263202,-0.17942472,0.14438899,0.2801297,42.95166,0.0015,157,-171,275,0
204699669,0,263202,-0.16707437,0.13173506,0.28454697,42.978615,0.0015,150,-164,278,0
204798887,0,263202,-0.1476667,0.13715817,0.29190904,42.97562,0.0015,139,-167,283,0
204896469,0,263202,-0.15472403,0.13715817,0.29190904,42.95166,0.0015,143,-167,283,0
205005268,0,263202,-0.15648837,0.12631196,0.3036884,42.95166,0.0015,144,-161,291,0
205104487,0,263202,-0.1476667,0.15885061,0.30663323,42.960644,0.0015,139,-179,293,0
205203668,0,263202,-0.1582527,0.14800438,0.30074355,42.96364,0.0015,145,-173,289,0
205312469,0,263202,-0.14943103,0.13173506,0.29043663,42.97562,0.0015,140,-164,282,0
205411668,0,263202,-0.12649468,0.14077358,0.27718487,42.996586,0.0015,127,-169,273,0
205520468,0,263202,-0.1582527,0.14800438,0.30074355,42.972626,0.0015,145,-173,289,0
205619696,0,263202,-0.15648837,0.14981209,0.29338148,42.93968,0.0015,144,-174,284,0
205718883,0,263202,-0.1476667,0.12992735,0.2948539,42.97562,0.0015,139,-163,285,0
205816468,0,263202,-0.16531004,0.12992735,0.30663323,42.96963,0.0015,149,-163,293,0
205915709,0,263202,-0.13002335,0.12631196,0.28307456,42.942673,0.0015,129,-161,277,0
206024468,0,263202,-0.14413802,0.13354276,0.28601938,42.996586,0.0015,137,-165,279,0
206123674,0,263202,-0.14590237,0.14981209,0.30810565,42.927696,0.0015,138,-174,294,0
206232469,0,263202,-0.14413802,0.13354276,0.26540554,42.996586,0.0015,137,-165,265,0
206331717,0,263202,-0.14413802,0.14077358,0.27718487,42.95765,0.0015,137,-169,273,0
206440468,0,263202,-0.1476667,0.1552352,0.2889642,42.987602,0.0015,139,-177,281,0
206539669,0,263202,-0.13178767,0.13535048,0.29338148,42.94866,0.0015,130,-166,284,0
206638869,0,263202,-0.13002335,0.14438899,0.2889642,42.98161,0.0015,129,-171,281,0
206736470,0,263202,-0.16531004,0.13715817,0.30663323,42.93968,0.0015,149,-167,293,0
206846868,0,263202,-0.13884501,0.1570429,0.31105047,42.945667,0.0015,134,-178,296,0
206944476,0,263202,-0.1476667,0.17331223,0.26540554,42.942673,0.0015,139,-187,265,0
207043676,0,263202,-0.1582527,0.19138925,0.26835036,42.972626,0.0015,145,-197,267,0
207152473,0,263202,-0.128259,0.17511994,0.2786573,42.99359,0.0015,128,-188,274,0
207251676,0,263202,-0.13884501,0.18235074,0.26393312,42.93369,0.0015,134,-192,264,0
207350868,0,263202,-0.14237368,0.20042777,0.2963263,42.95765,0.0015,136,-202,286,0
207459703,0,263202,-0.1529597,0.18235074,0.26982278,42.96963,0.0015,142,-192,268,0
207558869,0,263202,-0.14590237,0.18596615,0.26982278,42.95166,0.0015,138,-194,268,0
207656469,0,263202,-0.15472403,0.19500467,0.2536262,42.98161,0.0015,143,-199,257,0
207755682,0,263202,-0.1582527,0.18415844,0.27718487,42.960644,0.0015,145,-193,273,0
207864481,0,263202,-0.13708068,0.1552352,0.2801297,42.990597,0.0015,133,-177,275,0
207963678,0,263202,-0.15119536,0.13354276,0.28601938,42.960644,0.0015,141,-165,279,0
208062868,0,263202,-0.1476667,0.13354276,0.27424005,42.96963,0.0015,139,-165,271,0
208162112,0,263202,-0.1529597,0.12088885,0.2874918,42.990597,0.0015,142,-158,280,0
208270884,0,263202,-0.14060935,0.10823493,0.2889642,43.020546,0.0015,135,-151,281,0
208370068,0,263202,-0.13884501,0.13535048,0.2874918,42.96963,0.0015,134,-166,280,0
208470073,0,263202,-0.15472403,0.12631196,0.30074355,42.97562,0.0015,143,-161,289,0
208567679,0,263202,-0.1582527,0.13715817,0.30074355,42.954655,0.0015,145,-167,289,0
208676518,0,263202,-0.1582527,0.12992735,0.2948539,42.95765,0.0015,145,-163,285,0
208774877,0,263202,-0.1476667,0.12631196,0.29779872,42.966633,0.0015,139,-161,287,0
208874068,0,263202,-0.14060935,0.14077358,0.27718487,42.978615,0.0015,135,-169,273,0
208982873,0,263202,-0.1582527,0.12992735,0.27424005,42.94866,0.0015,145,-163,271,0
209082068,0,263202,-0.16531004,0.12269655,0.29779872,42.945667,0.0015,149,-159,287,0
209182070,0,263202,-0.14237368,0.13535048,0.29927114,42.954655,0.0015,136,-166,288,0
209279675,0,263202,-0.16178137,0.12992735,0.2948539,42.987602,0.0015,147,-163,285,0
209378872,0,263202,-0.1635457,0.13535048,0.28454697,42.945667,0.0015,148,-166,278,0
209487715,0,263202,-0.1582527,0.15161979,0.3036884,42.936684,0.0015,145,-175,291,0
209586869,0,263202,-0.14943103,0.14258128,0.27276763,42.987602,0.0015,140,-170,270,0
209686069,0,263202,-0.12473034,0.14981209,0.27571246,42.96963,0.0015,126,-174,272,0
209794074,0,263202,-0.1582527,0.13354276,0.30957806,42.984604,0.0015,145,-165,295,0
209894068,0,263202,-0.16001704,0.12088885,0.2963263,42.95765,0.0015,146,-158,286,0
209991668,0,263202,-0.15472403,0.11908114,0.2801297,42.96963,0.0015,143,-157,275,0
210102068,0,263202,-0.14413802,0.12269655,0.28601938,42.966633,0.0015,137,-159,279,0
