timestamp,error_count,device_id,x,y,z,integral_dt,x_integral,y_integral,z_integral,temperature,scaling,x_raw,y_raw,z_raw
50803504,0,2360330,-7.583334e-05,-0.0008251587,-0.0014039511,3954,-2.7345886e-06,-1.3540102e-06,-8.365594e-06,49.307426,0.0010642195,-1,14,4
50906715,0,2360330,0.0006302275,0.0015268697,-0.002251533,4011,3.1604668e-06,4.170018e-06,-8.497341e-06,49.307426,0.0010642195,-4,12,2
51006704,0,2360330,0.0007991756,-0.0009031928,-0.002121465,4000,2.2659808e-06,7.1383984e-06,-2.5296433e-06,49.313416,0.0010642195,-3,13,2
51105904,0,2360330,0.00087851525,-0.0021368174,-0.0023959705,3930,3.090113e-06,-5.093616e-06,-1.050782e-05,49.280468,0.0010642195,-2,12,4
51209912,0,2360330,-0.0004997721,-0.00030388514,-0.0034330494,3995,-1.5313532e-06,-4.6000176e-07,-3.2980647e-06,49.283466,0.0010642195,-2,14,1
51309113,0,2360330,-0.00032998333,-0.0004672837,-0.0015640355,4009,1.4127348e-06,4.1248322e-06,-9.752186e-06,49.28646,0.0010642195,-6,11,3
51413160,0,2360330,-0.0016854844,-0.0015843988,-0.0022683628,4056,-5.481337e-06,-2.6718774e-06,-1.8101415e-05,49.28646,0.0010642195,-2,16,5
51513117,0,2360330,-0.00073689304,-0.0006376626,-0.0019543113,4013,1.7402235e-07,-1.8152131e-06,-1.7060984e-05,49.262497,0.0010642195,-2,12,6
51616304,0,2360330,-9.9902856e-05,1.2584613e-05,-0.0021848313,4000,-3.2158182e-06,2.037605e-06,-9.72589e-06,49.271484,0.0010642195,-4,15,3
51716336,0,2360330,-0.002269111,0.0010555121,-0.0031221071,4032,-6.268661e-06,6.737995e-06,-9.844079e-06,49.247524,0.0010642195,-2,14,4
51819504,0,2360330,0.0004749862,-0.0010646662,-0.0025391474,3946,-2.7948151e-06,-3.897124e-08,-1.59673e-05,49.259502,0.0010642195,-3,13,5
51919504,0,2360330,-0.000121884936,0.00055781595,-0.0008556599,3993,-3.666473e-06,5.843416e-06,-4.6327227e-06,49.27448,0.0010642195,-3,14,2
52022704,0,2360330,0.00041885837,0.00077909575,-0.003211144,4000,6.9969547e-06,2.517563e-06,-8.017831e-06,49.26849,0.0010642195,-2,12,3
52122704,0,2360330,0.0010054808,-0.0003035392,-0.0024668984,4000,1.1229369e-05,-5.239646e-07,-8.465324e-06,49.25052,0.0010642195,-3,12,4
52225915,0,2360330,3.1981933e-06,-0.0006799966,-0.002944838,4011,-3.6829886e-06,-9.4462155e-07,-1.2773377e-05,49.271484,0.0010642195,-4,14,5
52325904,0,2360330,-0.0006693015,0.00030463564,-0.003277901,3996,-2.3942985e-06,-6.0535676e-06,-1.1432625e-05,49.262497,0.0010642195,-2,14,3
52425104,0,2360330,0.0005999728,0.00011808207,-0.0026902696,3957,4.43071e-06,3.0556413e-07,-1.2647555e-05,49.301437,0.0010642195,-4,12,3
52529110,0,2360330,0.0014281493,-0.0014508943,-0.0012439991,4006,8.682503e-06,-3.9360107e-06,-5.073805e-06,49.27448,0.0010642195,-2,12,2
52632304,0,2360330,-5.5589768e-05,0.0007632648,-0.0029776765,3958,-1.5106913e-06,-4.7399144e-06,-7.977963e-06,49.301437,0.0010642195,-2,14,2
52736304,0,2360330,0.0009182343,-0.00075485586,-0.0027470584,4000,6.06862e-07,-4.803734e-06,-5.4945604e-06,49.28646,0.0010642195,-3,14,2
52836304,0,2360330,0.0004105628,-0.0004887675,-0.0016214609,3965,-1.0855614e-06,3.4635175e-07,-1.3107849e-05,49.280468,0.0010642195,-4,15,2
52935504,0,2360330,-0.00043217387,-0.0003497981,-0.002386158,3993,4.832393e-06,2.426218e-06,-1.6002843e-05,49.301437,0.0010642195,-5,12,7
53038704,0,2360330,-0.0006782146,0.0012490068,-0.003174852,4748,-7.7386285e-06,7.0136034e-06,-1.3994633e-05,49.31641,0.0010642195,-4,14,1
53138704,0,2360330,0.0011400633,-0.0012039136,-0.002547569,3966,1.3399371e-06,-1.0685363e-05,-1.0110155e-05,49.283466,0.0010642195,-2,14,3
53242722,0,2360330,-0.00072903535,-0.0008584768,-0.0020507006,3981,-3.2749865e-06,1.6437741e-06,-1.0990082e-05,49.331387,0.0010642195,-3,15,4
53341904,0,2360330,0.00019144914,-0.00075508805,-0.002223901,4000,-1.4859273e-06,-3.0866088e-06,-1.5293359e-05,49.27448,0.0010642195,-1,15,3
53445904,0,2360330,-0.0021651173,-0.00016755643,-0.002974955,3960,-6.993249e-06,-9.7306526e-08,-5.40189e-06,49.265495,0.0010642195,-3,13,1
53545110,0,2360330,-0.001447205,-0.0010407633,-0.002737712,3969,-4.0929904e-06,-8.866415e-07,-1.6821186e-05,49.27448,0.0010642195,-4,14,4
53649104,0,2360330,-0.00028950578,-0.0003064998,-0.004053645,3951,-4.042415e-06,1.1762503e-06,-1.2536732e-05,49.289455,0.0010642195,-3,14,2
53748348,0,2360330,0.00023398185,-0.0016798254,-0.002332409,4044,-7.6104425e-06,-1.0038666e-05,-1.3723461e-05,49.313416,0.0010642195,-3,14,4
53852304,0,2360330,-0.0018745891,0.0010688236,-0.001563609,3973,-2.3566759e-06,3.2791345e-06,-1.0079626e-05,49.322403,0.0010642195,-3,13,2
53952304,0,2360330,0.00053294835,0.00026159344,-0.003180451,3955,-1.5909385e-06,5.7826323e-06,-7.1105446e-06,49.28646,0.0010642195,-3,15,2
54055504,0,2360330,9.256158e-05,-0.00060789345,-0.0036963655,3998,-1.121184e-06,-1.7988568e-06,-9.738796e-06,49.31042,0.0010642195,-5,15,2
54158710,0,2360330,-0.00021150302,-0.0005704584,-0.0024436023,4006,3.1613395e-06,-1.162394e-05,-7.60238e-06,49.322403,0.0010642195,-1,13,3
54258719,0,2360330,0.0008885099,-0.00050991634,-0.0027746991,4015,-1.9839167e-06,-3.5121407e-06,-1.0214201e-05,49.262497,0.0010642195,-3,14,3
54358720,0,2360330,-0.00069185614,3.938648e-05,-0.0027749266,4016,-4.1398866e-06,-8.220813e-06,-5.0907092e-06,49.283466,0.0010642195,-1,12,1
54461942,0,2360330,-0.0015042252,0.00033353263,-0.0020410388,4038,-5.852725e-06,-9.922822e-08,-7.662048e-06,49.28646,0.0010642195,-3,15,3
54561139,0,2360330,0.00086803065,0.00017652355,-0.0008603339,3235,5.192105e-06,-8.260683e-06,-1.5033423e-06,49.358345,0.0010642195,-1,12,1
54661126,0,2360330,0.0008856496,-0.00048668685,-0.0029275347,4017,1.0095084e-06,5.4964257e-06,-1.704902e-05,49.364334,0.0010642195,-6,13,3
54765104,0,2360330,-0.0003801147,0.00080318685,-0.0036737358,4000,-3.2509615e-06,-2.5875047e-06,-1.4456874e-05,49.289455,0.0010642195,0,13,3
54868334,0,2360330,0.00034867888,-0.00032738032,-0.003420946,4030,6.170199e-06,-2.2274733e-06,-1.8800682e-05,49.313416,0.0010642195,-3,12,4
54968346,0,2360330,-0.0006048366,-0.00046127805,-0.0034889576,4019,1.0214948e-06,-4.3540476e-06,-1.4927902e-05,49.34337,0.0010642195,-3,13,4
55068346,0,2360330,-0.0004760466,0.00040960885,-0.0016038893,4042,5.9010887e-07,6.6989096e-06,-5.5035525e-06,49.325397,0.0010642195,-2,13,1
55171504,0,2360330,-0.00029056624,-0.0006634882,-0.0023680807,3962,-1.1221887e-06,-2.185355e-06,-4.6137075e-06,49.346363,0.0010642195,-3,14,2
55270704,0,2360330,-0.0017993913,-0.0002766964,-0.0017252155,4000,-6.6963416e-06,-4.032717e-06,-5.503071e-06,49.325397,0.0010642195,-2,13,2
55374732,0,2360330,-0.0008639902,-0.0012784979,-0.003403131,4028,-5.3960393e-06,-6.083086e-06,-6.3829693e-06,49.340374,0.0010642195,-2,14,3
55473153,0,2360330,0.0016700529,0.0013833159,-0.004712026,3995,3.5055732e-06,-1.0852289e-06,-2.1501544e-05,49.325397,0.0010642195,-2,13,4
55577913,0,2360330,0.00043925465,-0.00068763044,-0.0017636997,3982,6.340349e-07,-8.573304e-06,-1.0564587e-05,49.307426,0.0010642195,-1,12,4
55678704,0,2360330,-0.00019124366,-0.0009739225,-0.0036509999,3964,-3.1886127e-06,-9.740446e-08,-1.0928124e-05,49.352352,0.0010642195,-3,16,2
55781141,0,2360330,-0.0010006704,0.00038469338,-0.0018449923,4037,-4.136289e-06,8.483721e-06,-1.2871205e-05,49.352352,0.0010642195,-5,14,6
55881104,0,2360330,-2.112161e-06,0.00077898114,-0.004593166,4764,-5.2385626e-06,2.4014016e-06,-2.3791878e-05,49.391293,0.0010642195,-4,14,7
55984304,0,2360330,-9.7769705e-05,-0.0011083009,-0.0025107688,3958,-1.9539282e-06,-9.798686e-06,-1.1776161e-05,49.35535,0.0010642195,-1,13,3
56084304,0,2360330,0.0010920498,-0.0010485998,-0.0021656456,3994,4.83413e-06,-9.761195e-08,-3.7613283e-06,49.370323,0.0010642195,-4,11,2
56183504,0,2360330,-0.00067278306,-0.0017015426,-0.0030362278,4000,3.5600722e-06,-2.64923e-06,-7.6208644e-06,49.340374,0.0010642195,-2,12,2
56287504,0,2360330,-0.00047763847,-0.0006485568,-0.0031736698,3968,-2.3802424e-07,-5.5724985e-07,-1.3459645e-05,49.36733,0.0010642195,-2,14,3
56386704,0,2360330,-0.0003929322,0.00045474202,-0.0027870878,3994,-1.5442648e-06,7.5759417e-06,-6.8294753e-06,49.31641,0.0010642195,-4,14,1
56490704,0,2360330,-0.0012663316,0.00023043186,-0.0024818568,4000,1.0070167e-06,1.1324726e-06,-1.6089925e-05,49.31941,0.0010642195,-4,12,4
56593928,0,2360330,-0.00092918886,-0.00054662034,-0.0021071467,4015,9.65577e-07,-9.485585e-06,-1.8348574e-05,49.36733,0.0010642195,-2,15,5
56693943,0,2360330,-0.00033303536,-0.0006313513,-0.0033139302,4039,2.2623999e-07,-9.714108e-07,-2.3645229e-05,49.36733,0.0010642195,-2,11,7
56793104,0,2360330,0.00045563755,0.000737761,-0.00048344562,3979,-6.1944447e-06,6.697795e-06,7.239334e-06,49.35535,0.0010642195,-5,15,-1
56897110,0,2360330,0.0005259521,-0.0004987068,-0.0024183379,4006,5.848704e-07,-7.359608e-06,-2.075614e-05,49.382305,0.0010642195,-2,13,7
56997143,0,2360330,-5.9044873e-05,0.0007889755,-0.0020696118,4039,-7.044153e-07,-3.0561835e-06,-6.3798657e-06,49.36733,0.0010642195,-5,13,1
57100304,0,2360330,-0.00021048938,-0.00052602845,-0.0015885555,3994,-4.099464e-06,1.5928938e-06,-5.90786e-06,49.35535,0.0010642195,-3,13,3
57200339,0,2360330,-0.00030621706,-0.00032191965,-0.00298683,4028,6.1415085e-07,7.2292273e-06,-1.23724e-05,49.352352,0.0010642195,-5,13,3
57303504,0,2360330,-0.0010492513,-0.0011694281,-0.0016343583,3953,1.8493918e-06,-9.485193e-07,-7.95833e-06,49.391293,0.0010642195,-2,12,3
57404304,0,2360330,0.0003948933,0.0006070449,-0.0029175917,3979,-3.638716e-06,-3.0738634e-06,-4.618198e-06,49.349358,0.0010642195,-2,14,2
57506704,0,2360330,-0.0008447828,6.092989e-05,-0.0019692397,3966,-6.799594e-07,4.123237e-06,-6.3332263e-06,49.388294,0.0010642195,-4,14,3
57606749,0,2360330,0.000118064934,-0.00064740964,-0.003453831,4027,-2.1555658e-07,-1.3754963e-06,-2.0058522e-05,49.35535,0.0010642195,-3,12,4
57705904,0,2360330,-0.0008420158,-0.0015519669,-0.00142642,4000,-2.8023608e-06,-6.5708696e-06,-1.2807346e-05,49.3853,0.0010642195,-4,14,2
57809909,0,2360330,-0.00045137064,-0.00011233801,-0.002738575,4005,-5.3355525e-06,-1.8064712e-06,-1.23390255e-05,49.382305,0.0010642195,-2,17,2
57913112,0,2360330,-0.00070660317,0.00090229604,-0.0023559018,3970,-6.605477e-06,3.279743e-06,-1.5616688e-05,49.3853,0.0010642195,-4,14,4
58013148,0,2360330,0.00034750876,0.0018582455,-0.0018162102,4803,3.150504e-06,4.8864786e-06,-6.107082e-06,49.427235,0.0010642195,-2,14,1
58116304,0,2360330,-0.00021649576,-0.0006273459,-0.003657393,3993,2.28252e-06,-1.3746534e-06,-7.1756745e-06,49.406265,0.0010642195,-3,13,3
58216304,0,2360330,0.00075255154,-0.0003304601,-0.0019124424,3994,7.814478e-06,7.463204e-07,-1.1854185e-05,49.3853,0.0010642195,-4,12,4
58316304,0,2360330,0.00025638612,1.3403518e-05,-0.0038776894,3954,5.708768e-07,-9.730162e-07,-7.047028e-06,49.391293,0.0010642195,-3,12,3
58419504,0,2360330,-0.0004954881,-0.0012133532,-0.0041086706,4000,-2.4770702e-07,1.1984578e-06,-1.783099e-05,49.382305,0.0010642195,-4,13,5
58518704,0,2360330,-0.0002722205,-0.00041720102,-0.0029134902,3992,-4.5126676e-06,-1.3666493e-06,-7.5985026e-06,49.388294,0.0010642195,-3,13,3
58622704,0,2360330,-0.0004853978,0.0003098066,-0.0024119937,3967,-1.5141453e-06,1.0952838e-05,-1.1353889e-05,49.41226,0.0010642195,-6,13,3
58721927,0,2360330,-0.00094279856,7.214629e-05,-0.0018942772,4021,-4.9926466e-06,4.570449e-06,-9.356593e-06,49.370323,0.0010642195,-6,14,3
58825910,0,2360330,0.0008324414,0.0004956111,-0.002952258,4006,-5.3822414e-06,-8.628672e-06,-1.5306277e-05,49.406265,0.0010642195,0,16,4
58925911,0,2360330,0.00088957243,0.0010741404,-0.003238494,3986,4.024684e-06,7.956588e-06,-9.724143e-06,49.409264,0.0010642195,-4,11,2
59025907,0,2360330,0.0010112823,0.00067762233,-0.0015616673,4003,3.5674302e-06,1.1828869e-05,-1.1029639e-05,49.40327,0.0010642195,-5,12,3
59129104,0,2360330,0.00037630825,-0.00030369815,-0.0024914744,4000,3.978311e-06,-1.3790841e-06,-4.6373243e-06,49.442207,0.0010642195,-3,11,3
59232304,0,2360330,-0.0008570502,0.0016413006,-0.0025308926,3952,1.1239808e-06,1.5800885e-06,-6.3240213e-06,49.39728,0.0010642195,-3,12,3
59332304,0,2360330,-0.00012107809,-0.00052646664,-0.0020042418,3949,-3.146097e-06,-9.752182e-06,-1.180946e-05,49.457184,0.0010642195,0,12,4
59431504,0,2360330,-0.0006340026,0.00021296518,-0.0025613534,4000,5.2255727e-06,-9.787482e-06,-4.6852106e-06,49.445206,0.0010642195,1,9,3
59535541,0,2360330,0.0006736816,0.0006755061,-0.0031612215,4037,4.454094e-06,2.4804622e-06,-1.758463e-05,49.445206,0.0010642195,-3,12,4
59634704,0,2360330,0.0004964842,8.111837e-05,-0.0036319308,3993,7.812207e-06,-6.0535e-06,-1.2272217e-05,49.45419,0.0010642195,-3,11,3
59738713,0,2360330,-0.001279351,-0.0011182869,-0.002609242,4009,1.851191e-06,-8.64633e-06,-1.0589719e-05,49.457184,0.0010642195,-2,12,4
59837950,0,2360330,-0.000558261,-0.00014001872,-0.0029573296,4026,-7.1192967e-06,5.9373224e-06,-8.493981e-06,49.43622,0.0010642195,-4,14,2
59941956,0,2360330,-5.115391e-05,0.00011154501,-0.0020896797,4052,-1.095215e-06,3.3336003e-06,-1.02253825e-05,49.463177,0.0010642195,-3,13,1
60041104,0,2360330,0.001401947,-0.00042134526,-0.00088348845,3973,4.37027e-06,6.297278e-06,-1.2724733e-05,49.45419,0.0010642195,-5,13,2
60145105,0,2360330,0.0016710364,0.00067223166,-0.0028438866,4001,1.5871634e-05,2.0529894e-06,-1.3564742e-05,49.463177,0.0010642195,-3,8,4
60245104,0,2360330,-0.0007715907,0.00027431166,-0.0019978012,3965,4.8298925e-06,-1.3723717e-06,-8.8818315e-06,49.47815,0.0010642195,-2,11,2
60348326,0,2360330,0.00046902726,0.00019116767,-0.0024722659,4015,9.809911e-07,2.0069015e-06,-6.7852834e-06,49.469166,0.0010642195,-2,15,1
60448346,0,2360330,-0.00096681947,0.0008049847,-0.0021039492,4026,3.1865889e-06,4.5751162e-06,-1.5855188e-05,49.484142,0.0010642195,-3,12,4
60551504,0,2360330,0.00085938314,-0.0017813728,-0.0017368187,4000,9.974368e-07,-6.101019e-06,-1.4015764e-05,49.493126,0.0010642195,-3,13,3
60655510,0,2360330,-0.000120985045,0.0017260223,-0.002799921,4006,-1.5361369e-06,-1.7937402e-06,-1.1468697e-05,49.481148,0.0010642195,-3,13,4
60755504,0,2360330,-0.0010516068,-0.0011673603,-0.0032326658,3984,-4.910253e-06,-1.7894926e-06,-1.6059565e-05,49.49612,0.0010642195,-5,13,4
60858704,0,2360330,-0.0005429364,-0.0007274781,-0.0032427078,4000,-2.6366067e-07,2.4446615e-06,-8.4722415e-06,49.493126,0.0010642195,-4,14,2
60957910,0,2360330,2.813662e-05,-0.0010580329,-0.00244377,3990,1.2490081e-07,-6.0704424e-06,-8.859202e-06,49.493126,0.0010642195,-1,14,2
61061936,0,2360330,-0.0004613263,-0.0006158155,-0.0033738867,4026,-6.311561e-06,-6.968458e-06,-9.8061655e-06,49.49912,0.0010642195,-1,15,2
61161104,0,2360330,-4.9522955e-06,-0.00027660036,-0.0021448014,3979,5.252314e-06,4.5885154e-06,-1.2669012e-05,49.49912,0.0010642195,-5,12,4
61265104,0,2360330,-0.0009937636,1.8592767e-05,-0.0024493763,3993,-6.9144147e-07,-1.8061968e-06,-1.0153894e-05,49.49912,0.0010642195,-3,13,3
61364329,0,2360330,0.0021388705,-4.470895e-05,-0.0035254033,4018,5.284619e-06,4.2283805e-06,-9.766762e-06,49.505108,0.0010642195,-6,12,2
61468356,0,2360330,-0.0025397365,-0.0011838534,-0.0025999178,4052,-7.155414e-06,3.3256163e-06,-1.1625362e-05,49.56501,0.0010642195,-3,14,4
61567504,0,2360330,0.0005259573,-0.00039487384,-0.0032527274,4000,-1.5444595e-06,-2.652949e-06,-1.3576771e-05,49.54105,0.0010642195,-3,13,4
61671510,0,2360330,0.00089448073,3.887317e-05,-0.002599821,4006,3.552427e-06,-2.214644e-06,-1.61204e-05,49.493126,0.0010642195,-2,12,4
61774747,0,2360330,-3.1500276e-05,0.0003926759,-0.003992892,3243,3.0611113e-06,-7.9693066e-08,-1.9418135e-06,49.505108,0.0010642195,-3,11,1
61874704,0,2360330,-0.0008335507,7.531807e-05,-0.003056256,3936,-5.678183e-06,7.546483e-07,-1.4241249e-05,49.538055,0.0010642195,-4,14,4
61978704,0,2360330,-0.00066548976,-0.00085677626,-0.0038351067,3964,-1.4980944e-06,-6.3928037e-06,-1.5563863e-05,49.526073,0.0010642195,-1,14,4
62077918,0,2360330,-7.0109876e-05,-0.000997981,-0.0040102913,4008,-2.821416e-06,3.282726e-07,-2.1258857e-05,49.502113,0.0010642195,-3,15,4
62181904,0,2360330,0.00015581043,0.0006098083,-0.0033056505,3989,-6.188731e-06,-6.8792137e-06,-7.609079e-06,49.54105,0.0010642195,-2,16,1
62281104,0,2360330,0.00028735242,6.918917e-05,-0.0021502147,3952,8.6118325e-06,-9.463613e-07,-6.265484e-06,49.49612,0.0010642195,-4,12,1
62385104,0,2360330,0.00016743127,0.0006682493,-0.0014432315,4000,-1.9701472e-06,6.2870245e-06,-3.360263e-06,49.532063,0.0010642195,-5,14,2
62484304,0,2360330,-0.0006655202,-0.00086245773,-0.0032878534,4000,-4.4689373e-06,-8.179967e-06,-1.0195751e-05,49.576992,0.0010642195,-1,15,3
62588352,0,2360330,0.0012943537,0.0011679622,-0.0030614159,4048,5.3379413e-06,3.8094022e-06,-1.886125e-05,49.51409,0.0010642195,-4,12,4
62688346,0,2360330,0.0008073842,0.00075855304,-0.002365048,4030,6.1861538e-06,1.1684526e-06,-3.3790832e-06,49.520084,0.0010642195,-3,12,1
62791532,0,2360330,-0.00066468964,-0.0003730622,-0.002694718,4028,-5.81533e-06,-6.141084e-06,-1.9650066e-05,49.56501,0.0010642195,-2,14,5
62894704,0,2360330,-0.0013730897,0.0006946638,-0.0021766734,4000,-6.877652e-07,7.132546e-06,-8.450958e-06,49.538055,0.0010642195,-5,14,3
62994704,0,2360330,0.0008647246,0.0014029571,-0.0039228974,4786,-5.6471845e-06,8.8069955e-06,-2.179556e-05,49.56501,0.0010642195,-5,16,3
63098704,0,2360330,0.0002443173,-1.4248519e-05,-0.0012308166,4000,6.11792e-06,-9.889112e-06,1.3223033e-06,49.54704,0.0010642195,-3,14,0
63197949,0,2360330,0.00037746533,5.340485e-05,-0.0037065449,4005,3.6784006e-06,7.864694e-07,-1.18947155e-05,49.544044,0.0010642195,-3,11,2
63301118,0,2360330,-0.0010258034,-0.000721366,-0.0021446773,3214,-2.9437288e-06,-3.0609256e-06,-1.5553187e-05,49.556026,0.0010642195,-1,13,4
63401109,0,2360330,-0.00045602187,-0.0001990902,-0.0023229253,3974,3.1561337e-06,-4.712e-07,-8.851183e-06,49.550034,0.0010642195,-3,12,2
63503540,0,2360330,0.00040089668,-0.0008984507,-0.0022939655,3213,-3.8872995e-06,-8.102632e-06,-5.721201e-06,49.556026,0.0010642195,-3,15,1
63604350,0,2360330,-8.004207e-05,0.00057892123,-0.002118172,4046,-1.0769353e-06,5.047138e-06,-1.4137309e-05,49.550034,0.0010642195,-4,13,5
63708347,0,2360330,-0.0006625767,0.0001729091,-0.0017266439,4037,-2.0482912e-06,1.10447745e-05,-1.1109916e-05,49.553032,0.0010642195,-5,15,3
63807504,0,2360330,-2.8853214e-05,-0.00031694918,-0.0024346625,4000,4.017157e-06,2.8496045e-06,-1.0162218e-05,49.576992,0.0010642195,-5,13,3
63911504,0,2360330,-0.0006464342,-0.0010669007,-0.0028084267,3974,-4.5083816e-06,-5.1649295e-06,-5.4228067e-06,49.556026,0.0010642195,-2,15,2
64014704,0,2360330,-0.0017268896,-0.0007906957,-0.0040412713,4000,-7.504088e-06,-2.6625275e-06,-1.8672787e-05,49.594963,0.0010642195,-3,15,5
64114704,0,2360330,-0.00034981343,1.4351643e-05,-0.0019174153,4000,-2.673966e-07,-2.2267177e-06,-1.400246e-05,49.576992,0.0010642195,-3,15,4
64217915,0,2360330,-2.3408973e-05,-0.0002409686,-0.0019755417,4011,-1.1192918e-06,-9.499389e-07,-8.91611e-06,49.58598,0.0010642195,-3,14,3
64317910,0,2360330,-0.0007150276,-0.0011168867,-0.0036219237,4006,-2.8270388e-06,-6.495992e-06,-2.0846068e-05,49.60395,0.0010642195,-1,14,6
64421109,0,2360330,0.0012132393,-0.00027831495,-0.0026366184,4005,-3.248077e-06,1.5979596e-06,-1.4444585e-05,49.612934,0.0010642195,-4,14,4
64521104,0,2360330,0.0010111501,4.0679064e-05,-0.0029696573,3972,6.898168e-06,6.26855e-06,-1.8139825e-05,49.630905,0.0010642195,-4,10,4
64624304,0,2360330,0.00030204054,0.00030153772,-0.0036265377,3983,-3.6535669e-06,-9.492524e-07,-1.7321525e-05,49.618923,0.0010642195,-2,13,4
64724308,0,2360330,0.0025697178,0.00018815976,-0.002665723,3997,7.808004e-06,3.7090238e-06,-4.637245e-06,49.6339,0.0010642195,-5,12,1
64827542,0,2360330,9.429697e-05,-0.0009553279,-0.003184417,3238,-4.699379e-06,-1.3715269e-06,-8.3958275e-06,49.60994,0.0010642195,-2,15,2
64927504,0,2360330,-0.00014573077,-3.5051104e-05,-0.0015430509,4000,1.8642395e-06,-4.355182e-06,-1.52507855e-05,49.61593,0.0010642195,-2,11,4
65030704,0,2360330,0.0002123512,0.00015230029,-0.0019112463,3986,-3.2109272e-06,-3.949883e-06,-1.3528726e-05,49.60395,0.0010642195,-3,14,4
65130704,0,2360330,0.0006005838,0.00041952194,-0.002262315,4000,-1.1411073e-06,-1.8457455e-06,-1.1381288e-05,49.594963,0.0010642195,-4,13,5
65234704,0,2360330,-0.0011431451,0.00115002,-0.002158003,3965,-1.960892e-06,7.0876445e-06,-1.093471e-05,49.65187,0.0010642195,-3,14,4
65333924,0,2360330,-0.001153098,-0.00089263974,-0.0032910553,4020,-1.0536845e-05,7.3663887e-07,-1.1931269e-05,49.61593,0.0010642195,-4,17,3
65433911,0,2360330,-0.0008111605,-0.0003956154,-0.0023272196,4007,-1.5593963e-06,2.4631124e-06,-9.765616e-06,49.630905,0.0010642195,-4,13,3
65537104,0,2360330,-0.00024089731,-2.0096553e-05,-0.0044992967,3963,-2.7598862e-06,7.3641434e-07,-1.9763605e-05,49.636894,0.0010642195,-2,12,4
65637138,0,2360330,0.0005470066,0.00043171906,-0.0013462952,4032,-2.648562e-07,4.5983834e-06,-1.153992e-05,49.65187,0.0010642195,-3,13,3
65740304,0,2360330,0.00039229295,0.0008933558,-0.002308053,4000,-1.0415796e-05,-7.278572e-06,-1.3616683e-05,49.65187,0.0010642195,-2,16,3
65844304,0,2360330,-0.001138906,-0.0008393451,-0.004017108,4000,-2.4611222e-07,1.6151112e-06,-1.4023742e-05,49.62791,0.0010642195,-3,14,1
65943504,0,2360330,1.8677432e-05,-0.00031745675,-0.0020719734,3964,1.5835784e-07,-9.740747e-08,-5.8565847e-06,49.657864,0.0010642195,-3,13,1
66043504,0,2360330,-0.00056992046,-5.8999216e-05,-0.0029053555,4000,-1.5838348e-06,-5.186863e-06,-1.31313955e-05,49.666847,0.0010642195,-2,13,3
66146704,0,2360330,-0.0008166782,0.00031348228,-0.0035357669,4000,-2.8220538e-06,6.712711e-06,-9.319361e-06,49.648876,0.0010642195,-5,13,3
66246704,0,2360330,-0.00081193936,0.00016628797,-0.0018075425,3973,-5.365223e-06,7.5360176e-06,-4.603151e-06,49.636894,0.0010642195,-5,14,1
66349910,0,2360330,0.00033067906,0.00056346046,-0.002755315,4006,-4.510099e-06,-1.016245e-07,-7.650807e-06,49.66984,0.0010642195,-3,15,1
66449910,0,2360330,0.0003132845,-0.0007393283,-0.0027155804,4006,2.231745e-06,-4.358516e-06,-1.0169813e-05,49.65187,0.0010642195,-2,11,4
66553911,0,2360330,-0.0019879695,-0.00039878767,-0.0031291104,4001,-5.384018e-06,-4.7856693e-06,-4.2065208e-06,49.67883,0.0010642195,-1,15,1
66653130,0,2360330,-0.0005901537,-0.0019546887,-0.0032632798,4026,3.5777264e-06,-5.0439485e-07,-2.183237e-05,49.687813,0.0010642195,-4,13,7
66757125,0,2360330,-0.0005831791,-6.666458e-06,-0.0031358644,4021,8.70439e-06,3.098468e-07,-9.787053e-06,49.65187,0.0010642195,-4,11,3
66856304,0,2360330,0.000579273,-0.00086212007,-0.0028710878,3993,-1.5449465e-06,-3.496703e-06,-7.1778063e-06,49.68482,0.0010642195,-3,14,3
66960304,0,2360330,-3.4059644e-06,0.000837713,-0.0025402112,3963,-4.9553632e-06,-2.651505e-06,-7.085558e-06,49.66086,0.0010642195,-4,14,2
67059504,0,2360330,-0.00061856105,0.00043828753,-0.0036958985,4000,3.1296008e-06,4.5672423e-06,-1.1874019e-05,49.6968,0.0010642195,-5,13,3
67159504,0,2360330,0.000712228,-0.00012533144,-0.0032611585,4000,3.5494252e-06,2.8958889e-06,-1.5236423e-05,49.657864,0.0010642195,-3,12,6
67262704,0,2360330,-0.0003806133,0.00059942127,-0.0032345213,4000,-6.8243065e-07,5.8448477e-06,-1.06134485e-05,49.681824,0.0010642195,-5,14,2
67362704,0,2360330,0.00042411347,-0.0005922854,-0.0034029218,4000,4.0192795e-06,-3.927334e-06,-2.4189172e-05,49.687813,0.0010642195,-2,13,6
67465910,0,2360330,0.00020758632,-0.00011924216,-0.0023264966,4006,6.979219e-06,2.036916e-06,-8.048827e-06,49.6968,0.0010642195,-3,11,4
67573904,0,2360330,-0.0014701562,0.00057729665,-0.0017790246,4000,-4.09859e-06,3.3071901e-06,-1.1874024e-05,49.732742,0.0010642195,-4,13,4
67673104,0,2360330,-0.0012448133,0.00087393087,-0.0034044608,3999,-1.1755795e-05,1.1777352e-06,-8.4757585e-06,49.732742,0.0010642195,-2,16,3
67773133,0,2360330,0.0013285324,-0.0007740783,-0.0016172242,4029,-2.8438685e-06,-3.508746e-06,-1.625222e-05,49.72076,0.0010642195,-5,15,5
67876304,0,2360330,-0.0002615099,-0.0010493591,-0.0027452682,4000,1.861039e-06,-4.3551713e-06,-8.468518e-06,49.711777,0.0010642195,-2,12,1
67976304,0,2360330,-0.0013871898,-0.00021362213,-0.0019316578,3986,-7.900429e-06,4.9938003e-06,-1.2259641e-05,49.71477,0.0010642195,-4,13,4
68080332,0,2360330,-0.000624044,-0.0003870216,-0.0028186045,4028,-7.121145e-06,-6.9626617e-06,-8.524176e-06,49.732742,0.0010642195,-1,14,2
68179510,0,2360330,-0.00073240226,-0.001016317,-0.0026715985,4006,-1.5483689e-06,1.6027108e-06,-9.337066e-06,49.735737,0.0010642195,-3,13,4
68996329,0,2360330,0.0002858058,9.701255e-05,-0.0035230413,4025,2.7346935e-06,2.065184e-06,-8.563484e-06,49.774673,0.0010642195,-4,13,2
69096351,0,2360330,-0.0013815062,-0.00081402017,-0.0023543157,4047,-6.7421684e-06,1.1813457e-06,-1.632022e-05,49.750713,0.0010642195,-3,15,4
69199504,0,2360330,-0.0008117999,9.924729e-05,-0.002552625,3959,-4.8936968e-06,-6.0159477e-06,-1.8911951e-05,49.76569,0.0010642195,-2,14,4
69299528,0,2360330,0.00033228565,-0.0012306643,-0.0038842352,4018,-1.9637978e-06,-6.9251673e-06,-1.4922914e-05,49.80762,0.0010642195,-1,14,3
69402704,0,2360330,0.0004376899,0.0009469927,-0.002619398,3964,-2.381939e-06,5.379057e-06,-1.5970398e-05,49.768684,0.0010642195,-4,13,4
69502704,0,2360330,-0.0007929299,0.0006014678,-0.0033173785,4000,-1.3852151e-05,3.7329194e-06,-6.8514364e-06,49.780663,0.0010642195,-4,17,0
69605904,0,2360330,-0.00076718576,0.0014077857,-0.0033761107,3953,2.3048735e-06,1.5305837e-06,-7.1069567e-06,49.837574,0.0010642195,-2,13,2
69705904,0,2360330,-0.0012297671,-0.0010257734,-0.0029880516,3983,-5.767636e-06,-3.8987387e-06,-8.842354e-06,49.819603,0.0010642195,-2,14,3
69809132,0,2360330,0.00078191335,0.0013424649,-0.0035746857,3228,-1.2548908e-06,1.3670396e-05,-7.5211524e-06,49.819603,0.0010642195,-7,14,3
69909111,0,2360330,-0.00047007762,-0.00090744,-0.0029996084,4007,-6.666586e-06,-3.937103e-06,-4.2167812e-06,49.819603,0.0010642195,-4,15,2
70009111,0,2360330,-0.0013632023,4.6849946e-06,-0.0028519654,3960,-9.583021e-06,5.4770735e-06,-9.252773e-06,49.801632,0.0010642195,-4,14,1
70112351,0,2360330,9.726606e-05,-2.7617582e-05,-0.0038380434,4043,3.5892372e-06,3.803146e-06,-1.9776533e-05,49.825592,0.0010642195,-5,13,6
70212304,0,2360330,-0.0021863172,0.0005130987,-0.0034694313,3959,2.9897781e-05,7.114342e-06,-4.5902516e-06,49.819603,0.0010642195,-1,-2,-4
70315504,0,2360330,0.006913781,-0.0027308592,-0.011735454,3994,8.491554e-05,3.0154257e-05,-6.406039e-05,49.801632,0.0010642195,-9,-21,18
70415522,0,2360330,0.0017650223,-0.0044555524,0.010571063,4011,4.3906643e-06,-2.6943113e-05,6.326719e-05,49.873516,0.0010642195,-3,10,-18
70518704,0,2360330,0.008145084,-0.0012953859,-0.022930311,4000,8.55307e-05,-1.1613705e-05,-0.000113539885,49.81361,0.0010642195,1,-1,26
70618704,0,2360330,0.014236912,-0.013504492,0.01466973,4000,-9.506273e-05,4.244316e-05,5.62047e-05,49.843563,0.0010642195,-4,54,-15
70721904,0,2360330,-0.019075321,-0.0020358583,-0.001609711,3988,0.0002508417,3.0063205e-05,-3.325913e-05,49.822598,0.0010642195,-4,-86,18
70821906,0,2360330,-0.007003361,0.0016145725,0.00038261004,4002,-0.00014076603,-7.039675e-05,2.2619695e-05,49.849552,0.0010642195,39,-1,-8
70925111,0,2360330,0.016029667,0.018464366,0.0058637504,3996,-6.392254e-05,-0.00020140142,8.3748586e-05,49.79564,0.0010642195,126,-12,-8
71025111,0,2360330,0.04418578,-0.04123773,0.005229463,3979,0.0003075642,-0.00022880854,-5.047684e-05,49.86453,0.0010642195,-10,3,14
71125127,0,2360330,0.08814547,-0.06425446,-0.008709999,4023,0.0013056035,-0.00010663062,-0.0001864778,49.85854,0.0010642195,-3,-170,19
71228383,0,2360330,0.13146055,-0.046254832,-0.008057881,4079,-0.00029331582,0.00011446833,9.426376e-05,49.84057,0.0010642195,-113,244,-25
71331504,0,2360330,0.0028099136,-0.062136933,-0.0019139026,3993,0.00014223426,-0.00025376724,0.00015454083,49.810616,0.0010642195,38,-82,-1
71435504,0,2360330,0.006087176,-0.058293432,0.0028534727,3967,0.001162509,-0.0005231035,-0.00027026786,49.822598,0.0010642195,104,-387,78
71536304,0,2360330,0.29760346,-0.17992812,0.0077305413,3952,0.0014443966,-0.000874836,-8.878213e-05,49.85854,0.0010642195,187,-247,-66
71638723,0,2360330,0.014492579,0.08066484,0.026482573,3983,-0.00028195654,0.00037417214,8.783485e-05,49.834576,0.0010642195,-142,-19,-52
71737904,0,2360330,0.003637056,-0.105580695,0.012623444,3956,-0.00017668969,-0.00061553484,0.00010312939,49.867523,0.0010642195,161,84,-4
71841931,0,2360330,0.069002986,0.014428614,0.025838751,4027,-0.00038061343,0.00016535891,7.46235e-05,49.885494,0.0010642195,84,291,-71
71941904,0,2360330,-0.85789853,0.4963159,0.060964804,4000,-0.003872323,0.0016414997,0.0003172113,49.87651,0.0010642195,-228,1061,-92
72045104,0,2360330,0.72311896,-0.07118257,-0.009681413,3994,0.0026847522,0.00019783716,-3.316697e-05,49.873516,0.0010642195,-22,-508,-4
72144340,0,2360330,-0.18745926,0.028471418,0.010930211,3223,-0.0003810224,0.00011366126,0.0001319955,49.873516,0.0010642195,80,78,-31
72248346,0,2360330,0.12189953,0.038607366,0.003014727,4042,5.5130407e-05,0.00049126026,6.5508975e-05,49.912453,0.0010642195,-132,-98,-21
72346746,0,2360330,-0.13998146,0.030597428,-0.0065219947,3242,-0.00045407502,0.00028215142,9.286554e-05,49.88849,0.0010642195,44,129,11
72451504,0,2360330,-0.005331788,0.06946903,-0.015356479,3952,0.000103854996,0.00074151525,1.1131744e-05,49.915447,0.0010642195,-198,55,23
72551504,0,2360330,-0.1893843,0.201578,-0.027772931,3987,-0.0007798182,0.00038624153,-6.802287e-05,49.87651,0.0010642195,-64,255,9
72654711,0,2360330,-0.17574482,0.030702388,-0.028328046,4007,-5.615227e-05,-0.00024830573,-8.946141e-05,49.8825,0.0010642195,170,50,41
72758704,0,2360330,-0.2668816,0.03873981,0.02335813,3994,-0.0006869628,-0.00036637695,0.00012065301,49.92443,0.0010642195,302,324,-61
72857938,0,2360330,-0.030316232,0.0925429,0.00981586,4034,-7.919369e-05,0.0013861975,4.291144e-05,49.91844,0.0010642195,-443,-252,11
72961927,0,2360330,0.11127818,0.033768643,-0.0207106,4023,-0.0007635538,-0.00047791278,7.539998e-05,49.90047,0.0010642195,16,188,-37
73061104,0,2360330,-0.06040571,-0.024578124,-0.0011003128,3972,-0.00036320253,6.91491e-05,2.7530945e-05,49.92443,0.0010642195,-87,-126,14
73165104,0,2360330,0.006587435,0.01688385,-0.021066481,3995,-0.0012827979,-0.000995855,4.860802e-05,49.90047,0.0010642195,138,406,-30
73264329,0,2360330,-0.05825217,-0.032958306,0.009492203,4025,0.000104064595,-0.00081812975,6.462441e-05,49.91844,0.0010642195,307,112,-12
73368355,0,2360330,0.17025888,-0.042951837,0.036121827,4051,0.00020419912,0.00015535168,0.00018788702,49.939407,0.0010642195,-64,-57,-77
73467510,0,2360330,0.12550037,-0.09007471,0.018742602,4005,0.00012755838,0.00021873396,0.00010454922,49.936413,0.0010642195,-154,19,-79
73571521,0,2360330,0.15955478,0.003146157,-0.03894415,4017,0.00072614814,0.00054599665,-0.00016321632,49.915447,0.0010642195,-171,30,93
73670704,0,2360330,0.018084338,0.015153511,-0.07435385,4000,0.00048630362,-0.0005642626,-0.0003703572,49.92743,0.0010642195,35,-258,78
73774704,0,2360330,-0.0359293,0.05721217,-0.037517644,3994,-0.0005097642,-0.00059094786,-0.00016422074,49.912453,0.0010642195,364,57,50
73873947,0,2360330,-0.122762844,0.08196337,0.021028064,4800,-0.0007654656,-0.00035805677,0.00020853731,49.9424,0.0010642195,-38,172,-58
73973904,0,2360330,0.011412825,-0.009056013,0.0064394963,3961,0.00092663825,0.0005273625,-0.0001889806,49.91844,0.0010642195,-176,-256,19
74077116,0,2360330,0.03012145,-0.105530895,0.013654655,4001,-0.0010899304,-0.00020125111,0.00023094051,49.915447,0.0010642195,46,258,-47
74181104,0,2360330,-0.117090136,-0.057758145,0.03654906,3954,0.0005091347,-0.0004793249,-3.046356e-05,49.930424,0.0010642195,6,-86,-4
74280304,0,2360330,0.12768054,0.05281311,-0.05855879,4000,-0.00021385537,0.0009938367,-0.00017259426,49.984337,0.0010642195,-210,237,-11
74384304,0,2360330,-0.077636264,-0.07889849,-0.023167524,4000,-0.00040635528,-0.0014155254,-7.597149e-05,49.96936,0.0010642195,240,-106,25
74483520,0,2360330,-0.089736335,0.0029702343,0.030857394,3216,-0.0008023147,-0.0010029298,0.00012975695,49.948395,0.0010642195,351,218,-16
74583511,0,2360330,-0.100551695,0.032899234,0.00010186626,4007,0.00041864932,0.00040068378,-9.812693e-05,49.99332,0.0010642195,43,70,-9
74687504,0,2360330,0.01635564,-0.03332213,0.014483281,4000,0.0006162327,-0.00086438487,-7.168095e-05,49.9454,0.0010642195,31,-102,-3
74786704,0,2360330,-0.06961676,0.015129307,0.031614047,3973,0.0008163838,-0.0005078391,-7.4901263e-06,49.972355,0.0010642195,146,-298,16
74890745,0,2360330,-0.00396196,-0.022933152,-0.022965938,4035,0.0012374859,0.00015375525,-0.00041398453,49.96337,0.0010642195,-209,-249,124
74989904,0,2360330,0.007274008,0.06309721,-0.0014506861,3994,-0.00051350694,-0.0007022575,5.8868052e-05,49.96337,0.0010642195,342,-18,38
75093904,0,2360330,-0.020094719,0.043454584,0.0079643065,4000,-0.0006643894,-1.4735474e-05,0.00020321104,49.981342,0.0010642195,232,134,-87
75193150,0,2360330,-0.017991148,0.06290791,-0.025459703,4046,-0.00023396232,0.00037772759,-8.7921435e-06,49.990326,0.0010642195,98,241,-6
75297131,0,2360330,-0.058582883,-0.011183239,0.003928787,4022,0.00013537957,0.00087627623,-0.00010804837,50.008297,0.0010642195,-249,81,-24
75396304,0,2360330,-0.012522625,-0.061282527,0.0052611264,4000,0.0005811004,-5.4466753e-05,-6.4913824e-05,49.97535,0.0010642195,87,-116,-29
75500311,0,2360330,0.064187445,0.025835184,0.0073565138,3995,0.00027176747,0.0010891798,4.513556e-05,49.96936,0.0010642195,-150,46,-49
75600304,0,2360330,0.052846055,-0.07706449,-0.023506057,3962,-3.5867633e-05,-0.00038979735,-2.9969926e-05,49.95139,0.0010642195,118,210,34
75703504,0,2360330,0.007897535,0.025112215,-0.004946302,4000,0.00030709192,0.0010735617,-0.00020069687,49.98733,0.0010642195,-136,20,52
75802704,0,2360330,-0.030764112,-0.035384957,-0.013779063,4762,9.2401e-05,0.0011693732,-3.8526437e-06,50.01429,0.0010642195,-128,13,38
75902710,0,2360330,0.061880544,-0.054895986,0.022985855,3968,0.0005427902,-0.00072612613,6.3091604e-05,50.002308,0.0010642195,114,-220,-1
76006710,0,2360330,0.12459513,-0.09888127,-0.016243814,3970,-0.00026451406,0.00010634081,0.00013692633,49.97535,0.0010642195,139,30,-39
76105904,0,2360330,0.056513194,-0.120331384,-0.040781777,3971,0.00017127566,-0.00060327764,-0.00015878728,50.029263,0.0010642195,114,-209,80
76209904,0,2360330,-0.016542237,-0.040490735,-0.052102488,4000,-0.000374358,-0.0007038121,-0.00015511886,50.01429,0.0010642195,186,102,11
76309104,0,2360330,-0.058959477,-0.043703906,-0.064074695,3957,-0.0006508031,-0.00044509233,-0.00021983711,50.041245,0.0010642195,77,44,62
76413104,0,2360330,0.12256472,0.067719996,-0.07025658,4000,0.0006395798,0.00044165135,-0.00033765446,50.04424,0.0010642195,19,-41,73
76512316,0,2360330,-0.07492829,0.020721244,-0.04998795,3966,0.00013047938,0.00033745778,-0.00032718215,50.03226,0.0010642195,-71,-77,80
76616310,0,2360330,0.018359087,0.087275855,-0.058187522,4006,0.0004335419,-0.00021139249,-0.0002293106,50.035255,0.0010642195,142,-145,85
76715510,0,2360330,0.008494669,0.013692155,-0.06607048,4006,0.0006057897,0.00015332663,-0.00033587334,50.035255,0.0010642195,-10,-56,19
76819504,0,2360330,-0.062829085,-0.04229774,-0.09612085,3982,-0.0003342508,-0.00053711736,-0.00054221996,50.029263,0.0010642195,54,45,138
76918704,0,2360330,-0.010505394,0.06499009,-0.05401514,4000,-0.00019979251,0.00054348767,-0.00015069047,50.035255,0.0010642195,86,171,8
77022704,0,2360330,0.08186048,0.09279445,0.01964812,4000,-0.00021144586,0.0005727603,0.00021231102,50.029263,0.0010642195,-76,70,-5
77121904,0,2360330,-0.03712515,-0.38351977,0.054876193,3977,-0.00022624632,-0.00097640726,0.000121728815,50.053226,0.0010642195,174,20,-33
77221904,0,2360330,0.10046239,-0.29470336,0.034569558,4000,-0.00011628008,-0.0009876485,0.00025452382,50.053226,0.0010642195,179,83,-135
77325109,0,2360330,-0.14319858,-0.24702543,0.03990111,4005,-0.0003583765,-0.0011074753,3.4333258e-05,50.06221,0.0010642195,171,164,-59
77425125,0,2360330,0.0057775136,-0.029233115,0.050916463,4021,-0.00043624092,-0.0008611663,0.00022896005,50.03226,0.0010642195,160,-100,-22
77528358,0,2360330,0.03199471,0.030673524,0.038367752,4054,-0.0005055571,0.00061861606,0.00029696673,50.03825,0.0010642195,-170,246,-121
77628346,0,2360330,0.040904276,0.532183,0.03425961,4042,0.0011732721,0.0027595456,4.516274e-05,50.071198,0.0010642195,-621,-295,3
77731510,0,2360330,0.08131143,0.27626806,0.02816119,4006,-7.1688446e-05,0.0008013605,0.00017423453,50.03825,0.0010642195,-219,20,10
77835512,0,2360330,0.20678043,0.06783353,0.033707246,4002,0.0005122842,0.0006728395,0.00019758532,50.068203,0.0010642195,-83,99,-85
77935504,0,2360330,-0.22380581,-0.11448275,0.016647808,3961,-0.0015997296,-0.00017678081,0.00034563086,50.08018,0.0010642195,198,316,64
78034704,0,2360330,-0.7163316,0.019218696,-0.012145287,4000,-0.002651117,0.00021660734,0.00016989552,50.05622,0.0010642195,-25,675,37
78137941,0,2360330,-0.5259307,0.003440129,-0.022509487,3231,-0.0021136687,-0.00033503817,-2.9575709e-05,50.101147,0.0010642195,38,554,-48
78237904,0,2360330,-0.54009247,-0.09257619,-0.007627918,3970,-0.0012846024,-0.00072882214,-0.00021954351,50.074192,0.0010642195,97,127,45
78341904,0,2360330,0.24402198,-0.02591982,0.025717922,3964,0.00094888854,-0.00035055552,9.01435e-05,50.050232,0.0010642195,17,-409,-32
78441104,0,2360330,1.1595778,0.15821393,0.0180267,3992,0.004429634,0.00063507626,0.00010189073,50.08917,0.0010642195,-219,-890,-54
78544353,0,2360330,0.27924713,0.049244307,0.02308003,3249,0.001331196,0.0005752576,7.344735e-05,50.08018,0.0010642195,-149,-318,-31
78644304,0,2360330,0.10186249,-0.02155793,0.011358711,3964,8.997515e-05,0.00028528878,0.00021961465,50.086174,0.0010642195,-42,182,-89
78748346,0,2360330,0.0765031,-0.1476055,0.03563781,4042,0.00058797066,-0.0003020491,4.3864613e-05,50.08917,0.0010642195,210,2,-39
78847541,0,2360330,0.11839178,-0.2550161,0.04259916,4037,0.0003452094,-0.0014940955,0.00012298039,50.08018,0.0010642195,290,-120,27
78951504,0,2360330,-0.12688595,-0.40396366,0.03455884,3994,5.9578735e-05,-0.0013016103,8.211786e-05,50.098152,0.0010642195,110,-107,-15
79050704,0,2360330,-0.05014933,-0.09484346,0.029700382,4000,0.00091304816,-0.0007790932,-3.0499727e-05,50.098152,0.0010642195,-9,-282,69
79150704,0,2360330,0.112529896,-0.10364621,-0.0055052917,4000,0.00017630642,-0.0007436447,-8.7069006e-05,50.134094,0.0010642195,179,-299,25
79253904,0,2360330,-0.078284904,-0.10609592,-0.020181866,3994,8.2099745e-05,-0.00058941764,-8.633147e-05,50.119118,0.0010642195,87,-27,-15
79353904,0,2360330,0.032392222,0.32853556,-0.024797993,3994,0.0007541262,0.0012740912,-0.00010648647,50.101147,0.0010642195,-84,-189,84
79457104,0,2360330,-0.14090878,0.3622396,-0.026981387,3966,-0.0012350876,0.0012301587,4.289361e-05,50.1311,0.0010642195,-308,369,-16
79557104,0,2360330,-0.8185089,0.24637513,-0.0449435,3980,-0.0030537082,0.0013144341,-0.0002596376,50.086174,0.0010642195,-423,601,72
79661135,0,2360330,-0.9418765,0.15888712,-0.044829726,4031,-0.0040509677,0.0006279557,6.0758473e-05,50.128105,0.0010642195,51,776,8
79764304,0,2360330,-0.2341982,0.06320608,-0.018522667,3998,-0.0013897582,1.8150575e-05,6.3431624e-05,50.146076,0.0010642195,-7,289,-10
79863583,0,2360330,-0.07489021,0.015231323,0.02199152,3279,0.000121574296,0.00024259034,-4.547481e-05,50.1311,0.0010642195,-61,20,8
79963512,0,2360330,-0.028819239,-0.06798614,-0.006548719,4008,-0.0010772967,-0.00090686115,0.00012609761,50.101147,0.0010642195,232,45,13
80066704,0,2360330,0.015596274,-0.21614413,-0.040585484,4000,-5.731036e-05,-0.000691624,-0.00020886229,50.134094,0.0010642195,200,35,37
80166704,0,2360330,-0.068126425,-0.09699021,-0.022243574,4000,1.6348665e-06,4.789094e-05,-2.3141369e-05,50.12511,0.0010642195,-199,-198,-11
80269940,0,2360330,0.18846823,0.12347161,-0.015304039,4029,0.00029976704,0.00022869359,6.1649797e-07,50.134094,0.0010642195,68,-148,26
80369904,0,2360330,0.073188394,-0.026851533,-0.01144039,3994,0.00048806338,9.07205e-05,-0.00016008905,50.110134,0.0010642195,-8,-25,-19
80469904,0,2360330,0.029605674,-0.06682218,-0.0057413005,3994,0.0005400681,-0.0002442779,-5.963079e-05,50.13709,0.0010642195,-55,-243,-16
80573109,0,2360330,0.14288524,-0.0033687772,-0.0066716727,3982,0.0017431871,-0.00010727595,-0.0001706802,50.11313,0.0010642195,21,-420,71
80673119,0,2360330,1.026188,0.041936304,-0.008124223,4015,0.004949616,0.00021886665,4.07142e-06,50.14308,0.0010642195,-21,-1171,51
80776311,0,2360330,0.30899116,-0.025398035,-0.010682918,4007,0.0017404926,-2.2027969e-05,-0.00019821069,50.15506,0.0010642195,-157,-335,44
81079511,0,2360330,0.033958364,0.007826036,0.004145364,4007,-0.00029998072,-0.00040184922,-1.0488411e-05,50.146076,0.0010642195,206,94,-11
81182704,0,2360330,0.0038379957,0.043158874,0.0020061666,4000,0.00070538674,0.00052364747,-7.904032e-05,50.15806,0.0010642195,-173,-228,62
81282704,0,2360330,0.017234784,0.0019308258,-0.01005862,3998,-8.44846e-05,0.00015774826,1.5265117e-05,50.15806,0.0010642195,-55,-81,-47
81386704,0,2360330,-0.025047533,-0.015751205,-0.009758442,4000,0.0005096155,0.0005178315,5.4111748e-05,50.14308,0.0010642195,71,-159,57
81485904,0,2360330,-0.12961788,-0.052874945,-0.012158818,3993,-0.00014020417,-0.00014214816,-0.00011036813,50.170036,0.0010642195,-75,27,32
81589109,0,2360330,0.019851161,0.011509462,-0.011677177,4005,0.00061674346,0.0003313382,-0.00012796362,50.146076,0.0010642195,-2,-222,60
81689104,0,2360330,0.0020822966,0.008055051,-0.0013370167,4000,0.00083976815,2.2969021e-05,-5.717651e-05,50.15506,0.0010642195,-6,-348,78
81792304,0,2360330,-0.007940808,0.02046781,0.0010546744,3948,0.0009386999,0.0003618478,-0.00016988012,50.188007,0.0010642195,-164,-283,122
81892304,0,2360330,-0.0031860531,0.02380589,-0.0044190334,3959,-0.0002857883,-5.247826e-05,4.6811697e-06,50.196995,0.0010642195,24,15,30
81996315,0,2360330,-0.00581542,-0.015421488,-0.013306721,4011,0.00010922386,0.00042264527,-3.2407454e-05,50.188007,0.0010642195,-208,-213,-29
82095511,0,2360330,-0.038075875,-0.009601272,-0.004429771,4006,-0.0006358288,-0.000503444,5.0879346e-05,50.18202,0.0010642195,199,15,46
82198736,0,2360330,0.00017371667,0.02401366,-0.015070718,3225,-0.00092911953,4.0099607e-05,0.00010698096,50.17303,0.0010642195,-5,388,-3
82298704,0,2360330,0.05989981,0.031021962,-0.007487008,4000,0.0010669546,0.000662216,-0.00025298068,50.179024,0.0010642195,-297,-186,97
82398704,0,2360330,-0.055752475,-0.028473305,-0.31474632,4000,0.0003895416,0.00013705749,-0.0014045227,50.191,0.0010642195,40,-53,409
82501923,0,2360330,-0.00018692616,0.046033524,-0.87297374,4013,0.00036848002,0.0001483026,-0.0038014415,50.17603,0.0010642195,-12,-54,884
82601945,0,2360330,0.0050989357,0.01496245,-1.1633797,4034,-0.00052854704,-0.0002381899,-0.0046012616,50.185013,0.0010642195,-6,335,1045
82705104,0,2360330,-0.09907607,-0.069982,-0.827915,4000,-0.000114589835,-0.00033264267,-0.0033102913,50.208973,0.0010642195,207,-11,783
82813104,0,2360330,0.041474625,-0.06448032,-0.5190206,4749,-6.362476e-05,-0.00039325058,-0.0023713333,50.19999,0.0010642195,-22,-62,464
82912304,0,2360330,0.013373514,0.030922184,-0.26909956,3958,-8.1213126e-05,-0.00012952302,-0.0009950785,50.214966,0.0010642195,95,70,239
83012344,0,2360330,-0.016243722,0.03325996,-0.1467002,4010,1.2154421e-05,0.00047526325,-0.0005590118,50.20598,0.0010642195,-150,-14,128
83115504,0,2360330,-0.03515807,0.069236346,-0.22741508,3993,0.0002987161,0.00017111532,-0.0010969085,50.21197,0.0010642195,-91,16,324
83215504,0,2360330,0.111336,-0.023780655,-0.5303348,3994,0.00065500446,0.00012815972,-0.0022622442,50.21796,0.0010642195,-40,9,567
83318704,0,2360330,0.01498736,0.11552142,-0.9273258,3992,0.00033196274,-1.9886174e-05,-0.0037616007,50.229942,0.0010642195,-7,-178,932
83418704,0,2360330,-0.003929027,-0.11197263,-1.1993444,4000,8.9011766e-05,-0.0004604917,-0.0048149345,50.21796,0.0010642195,106,-50,1099
84438711,0,2360330,-0.1053527,-0.050148398,0.16276655,4007,-0.001228688,-0.0004670392,0.0007764908,50.256897,0.0010642195,192,387,-204
84641912,0,2360330,0.047404464,0.03403471,-0.21694538,3972,0.00067457306,-0.0003759072,-0.0009165337,50.277863,0.0010642195,135,-124,228
84740358,0,2360330,-0.042048916,0.08595239,-0.38849849,3230,-3.9727314e-05,0.00031336042,-0.0011538935,50.253902,0.0010642195,-141,-158,344
84845129,0,2360330,-0.018188275,0.011971363,-0.6011727,4019,-0.00084779324,0.00041628923,-0.0023570054,50.232937,0.0010642195,33,310,552
84948353,0,2360330,-0.046876796,-0.07645179,-0.4572689,4042,0.00047644746,0.00047765518,-0.001869992,50.226944,0.0010642195,-99,98,406
85052310,0,2360330,0.1356103,0.08083701,-0.34518993,3964,0.0014841506,0.00036634368,-0.0015668431,50.262886,0.0010642195,-23,-174,370
85152331,0,2360330,-0.06645058,-0.038828656,-0.27064314,3997,-6.057047e-05,-0.0005332817,-0.0011227499,50.24192,0.0010642195,35,-160,293
85251504,0,2360330,-0.022294981,-0.06911263,-0.12225404,4000,-8.2387414e-05,-0.0002575352,-0.0004243375,50.280857,0.0010642195,183,23,42
85354730,0,2360330,-0.019985737,-0.046063438,-0.0391176,3226,0.00031001747,1.9204435e-05,-4.2190524e-05,50.265884,0.0010642195,-39,-27,18
85454711,0,2360330,0.05248125,0.05943265,0.0017572021,4007,-0.0007758407,8.159574e-05,8.831372e-05,50.280857,0.0010642195,-51,277,-16
85558738,0,2360330,0.06579725,0.02265527,0.028399428,4027,-0.0010284233,-0.00033522685,0.00022117572,50.23593,0.0010642195,135,193,-87
85657904,0,2360330,0.0017352989,0.0038497492,0.04014719,4000,0.00072963495,0.00016312912,-4.5621236e-05,50.277863,0.0010642195,-175,-79,28
85761904,0,2360330,0.01719245,0.032272063,0.05328815,3974,0.0009631158,0.00044462286,0.00013911758,50.289845,0.0010642195,-189,-291,-7
85861138,0,2360330,1.2272062,-0.07199075,0.057769556,4028,0.0047902563,0.00043471975,0.00029741574,50.26888,0.0010642195,-242,-1126,-54
85965117,0,2360330,1.2698765,0.115874894,0.033935007,4012,0.0050151446,0.00064173643,8.8474495e-05,50.31081,0.0010642195,-386,-1121,-45
86068314,0,2360330,0.3874401,0.016382813,0.013145164,4010,0.0009772006,-0.00039468534,0.00013797841,50.277863,0.0010642195,138,-90,-48
86172304,0,2360330,0.051349062,-0.048410777,0.009864034,3951,0.00048883125,0.0002372808,3.5089546e-05,50.283855,0.0010642195,-192,-52,-28
86271504,0,2360330,-0.035113186,0.058075603,0.011042572,3961,-0.00087131315,-3.1367494e-05,7.063643e-05,50.307816,0.0010642195,42,147,-1
86371540,0,2360330,-0.61390024,-0.08305121,-0.008469594,4036,-0.0033162453,0.00021784348,0.00015113254,50.28685,0.0010642195,-9,932,-65
86474704,0,2360330,-1.7132877,-0.02394155,-0.00491373,3994,-0.006325502,0.00028746028,-1.1165451e-05,50.29284,0.0010642195,28,1692,27
86574704,0,2360330,-0.17306885,-0.05151183,0.0100163985,3994,-0.0012443705,-0.0006516612,6.094605e-05,50.32878,0.0010642195,126,234,2
86677904,0,2360330,-0.12724319,0.10822952,-0.004941258,3973,0.0002471279,0.00036247986,4.239502e-06,50.30482,0.0010642195,-130,-71,-37
86777904,0,2360330,-0.14457753,-0.026194012,-0.0034049356,4000,-0.0006148452,-0.0001589587,-5.42037e-05,50.29284,0.0010642195,-13,-3,46
86881110,0,2360330,-0.042635225,-0.05947721,-0.015664028,4001,9.156768e-05,-9.364048e-05,-0.0001476352,50.319798,0.0010642195,-56,-118,80
86981104,0,2360330,0.0854839,0.09084224,-0.017524935,3993,0.00046151085,-0.0003285239,-7.767207e-05,50.25989,0.0010642195,2,-304,59
87084317,0,2360330,-0.049804877,-0.0030908855,-0.01067342,3987,-0.00057287584,-0.000245007,4.7819118e-05,50.29883,0.0010642195,102,100,30
87184310,0,2360330,0.05166624,-0.0067537054,-0.009444407,3993,0.0003140357,0.00014539697,-2.5959802e-05,50.322792,0.0010642195,128,161,-69
87288346,0,2360330,-0.000951128,0.0055094087,0.008925262,4032,0.00017704365,0.0004263494,1.3716681e-05,50.313805,0.0010642195,42,69,-18
87387504,0,2360330,0.04250316,0.082465865,0.021683805,4000,0.00037136528,-2.5979694e-05,6.2858744e-05,50.301826,0.0010642195,22,-246,42
87491504,0,2360330,-0.019798856,-0.030599419,0.009659657,3964,-5.6948315e-06,-0.00016965292,-1.2673921e-05,50.29883,0.0010642195,-57,-91,34
87590704,0,2360330,-0.070960686,-0.07094838,0.0044951765,4000,-0.0007344057,-0.00083473837,8.448532e-05,50.319798,0.0010642195,207,154,28
87693904,0,2360330,-0.03661572,-0.015118816,0.009345711,3978,-3.1848422e-06,-0.0001743534,-2.0941048e-05,50.340763,0.0010642195,13,36,-10
87793914,0,2360330,0.048026666,-0.01930798,0.011835302,4010,0.0001284256,0.00010231655,4.5605666e-05,50.33777,0.0010642195,105,109,-41
87893939,0,2360330,0.10551649,0.060675822,0.008248656,4035,-0.00027481077,0.00027859063,0.00011313884,50.32878,0.0010642195,-6,55,-45
87997116,0,2360330,-0.04652441,0.0076399725,0.017052561,3992,0.00013136314,-3.1653093e-05,0.00013308928,50.29883,0.0010642195,-146,-248,-13
88097112,0,2360330,-0.030485472,0.023093654,0.028045705,3941,0.00024792415,-9.7849326e-05,0.00010008019,50.331776,0.0010642195,62,-221,-25
88200304,0,2360330,0.05872282,-0.006790693,0.030210892,3972,0.00068233017,-9.169294e-05,2.252763e-05,50.33477,0.0010642195,-30,-42,-60
88300351,0,2360330,-0.11080458,-0.087702006,0.04007114,4047,5.507485e-05,0.00019778362,5.0570277e-05,50.322792,0.0010642195,-84,13,-7
88403504,0,2360330,0.0041763787,0.04823853,0.026028132,3993,0.00017194153,-0.00014584431,0.00012688493,50.32878,0.0010642195,194,5,7
88503530,0,2360330,0.0037730455,0.043688636,0.007945015,4026,3.8937404e-05,-0.00017688489,1.02609665e-05,50.346752,0.0010642195,169,62,-14
88606742,0,2360330,0.024418857,0.056962017,0.007245342,4003,-0.00016780234,0.0003681453,9.8323806e-05,50.32878,0.0010642195,98,144,-41
88706704,0,2360330,-0.02582208,-0.11203807,0.0016169581,3994,0.0004728386,-0.0005851747,-0.00010651545,50.30482,0.0010642195,69,-123,50
88809904,0,2360330,0.026769988,-0.0065704333,0.013107747,4000,3.2833774e-05,-0.00065424206,3.5410372e-05,50.340763,0.0010642195,108,-3,9
88909904,0,2360330,-0.010905292,-0.043845646,0.01938199,4000,-0.00038296133,-0.0006562894,7.4233394e-05,50.319798,0.0010642195,97,-49,4
89013110,0,2360330,-0.007043045,0.06587377,0.009740986,3979,0.00036238926,0.00057634804,-3.6752826e-05,50.340763,0.0010642195,2,-85,14
89117126,0,2360330,0.06367425,0.016456336,-0.008694406,4022,-0.0005976818,-0.0004921533,6.515938e-05,50.331776,0.0010642195,131,212,-44
89220304,0,2360330,0.0410552,0.023934828,-0.0056986474,4000,-0.00021540352,0.00012727357,0.000111898866,50.358734,0.0010642195,-26,174,-43
89320304,0,2360330,-0.06464952,-0.01867569,0.0034473033,4000,-0.00041168203,-6.0239137e-05,-4.3355947e-05,50.349747,0.0010642195,-54,59,27
89420325,0,2360330,0.058303196,0.09082682,0.0027178323,4021,0.00016784282,0.0005194589,8.473089e-05,50.331776,0.0010642195,-142,101,-37
89523538,0,2360330,-0.019939372,0.0021177852,0.005528557,4034,-0.00039468578,-0.00041854207,-1.8911442e-05,50.331776,0.0010642195,50,-2,1
89622704,0,2360330,0.29773667,0.011220814,0.008372887,4000,0.0010231289,-0.0002896342,-2.9766901e-05,50.35574,0.0010642195,64,-356,6
89726717,0,2360330,0.9316403,-0.054906357,-0.0027714355,4013,0.0033506204,0.000712252,1.9963216e-05,50.349747,0.0010642195,-75,-601,-8
89826704,0,2360330,0.96712905,-0.026094524,-0.0025968272,3984,0.004149292,0.0005220135,-9.564307e-06,50.37371,0.0010642195,61,-836,21
89929944,0,2360330,0.54596394,-0.026722543,-0.019552909,4040,0.0016210522,-0.0001290838,-0.00011146626,50.349747,0.0010642195,64,-237,1
90032339,0,2360330,0.32562083,-0.028179819,0.0026999086,3993,0.000853906,-0.00043062045,0.0001109381,50.33777,0.0010642195,-77,-482,-12
90133109,0,2360330,0.08657408,-0.062226675,-0.0024304064,3991,0.0003644544,-0.0004144945,1.4762425e-05,50.37371,0.0010642195,127,-209,15
90236304,0,2360330,-0.57386565,0.012480282,-0.00059558277,3964,-0.0025733232,-1.6893787e-06,-3.174803e-05,50.35274,0.0010642195,97,751,-34
90340310,0,2360330,-0.84557796,0.04158445,0.0074327737,4006,-0.0038810477,0.00013803445,5.6792436e-05,50.394676,0.0010642195,-16,983,-27
90439504,0,2360330,-1.4859442,0.022471156,-0.008325909,3979,-0.0050918884,0.00049832725,-1.8540126e-05,50.37371,0.0010642195,-21,1361,12
90543504,0,2360330,-0.4005529,-0.1255476,-0.001907544,4000,-0.0009759789,-0.0005944633,-0.00018728446,50.37371,0.0010642195,-19,109,62
90643537,0,2360330,-0.14609985,-0.10186929,0.0021857703,4033,-0.00061601313,-0.0004993859,2.7254819e-05,50.358734,0.0010642195,106,-112,30
90742711,0,2360330,-0.8928584,0.0074531734,-0.0035273207,4007,-0.004136412,-0.00010086546,3.4704317e-05,50.35574,0.0010642195,101,808,15
90845932,0,2360330,-0.8464182,-0.07494388,-0.0060553486,3228,-0.002722447,-0.0005635469,4.4446602e-05,50.370716,0.0010642195,252,850,-39
90945904,0,2360330,0.4677228,0.0682066,0.015898218,4000,0.0017097783,0.00013509949,0.00018239356,50.35274,0.0010642195,-32,-339,-31
91049904,0,2360330,0.49574256,0.060578953,0.004666885,3994,0.0027069547,0.0001501619,-0.000102943115,50.37371,0.0010642195,-241,-814,-23
91149104,0,2360330,0.5218138,-0.028922573,0.011278739,3973,0.0007558064,-0.00024732412,0.00022405709,50.412647,0.0010642195,138,-83,-71
91253104,0,2360330,0.096616626,0.047988787,0.005635209,3960,0.00010563131,0.00027863448,5.6030414e-05,50.37371,0.0010642195,58,171,-71
91353904,0,2360330,0.052607384,0.0055431346,0.018401476,4000,0.0004581535,2.3420675e-05,3.998291e-05,50.37371,0.0010642195,-37,-214,17
91456304,0,2360330,0.028182069,-0.037623916,0.005693791,4000,0.00048134744,-0.0003024548,1.4317493e-05,50.370716,0.0010642195,-8,-162,-10
91555504,0,2360330,0.008333471,0.039241876,-0.004000933,3997,0.00027201956,0.00047435664,-0.00010194839,50.400665,0.0010642195,-21,-51,14
91659510,0,2360330,-0.020169795,-0.028948855,0.0035521167,4006,0.00084607286,-0.00033568346,-0.000120328856,50.364723,0.0010642195,136,-134,63
91762704,0,2360330,-0.027572818,0.08753095,0.0045385924,3994,1.2887583e-05,0.00018279793,4.9408864e-05,50.400665,0.0010642195,136,38,-40
91862704,0,2360330,0.04040571,-0.02734619,-0.003755157,3977,0.00025938087,0.00015519904,1.8640003e-05,50.42463,0.0010642195,32,134,-47
91966704,0,2360330,0.017676337,0.028050698,-0.0014502417,3985,-0.0005556187,0.00034142478,0.00020168716,50.35274,0.0010642195,23,124,4
92065904,0,2360330,-0.0081300195,-0.005062221,-0.007193094,3994,-0.00038999153,-0.00042194704,9.19709e-05,50.427624,0.0010642195,156,95,-58
92173104,0,2360330,0.075031675,-0.3818733,0.013199708,4000,0.0007898893,-0.0015142801,-5.6607464e-06,50.3797,0.0010642195,241,-256,0
92273110,0,2360330,-0.013183089,-0.5386824,0.0052960957,4006,-0.00028907342,-0.0024537959,8.330086e-05,50.38569,0.0010642195,525,-59,36
92376309,0,2360330,-0.054385994,-0.4706904,0.0047161216,3974,-0.00011028423,-0.0018261957,-6.453017e-06,50.40366,0.0010642195,280,-168,-6
92476304,0,2360330,-0.027063152,-0.12558521,0.0023511476,4000,0.00039331408,-2.3404886e-05,3.0441606e-05,50.39168,0.0010642195,-33,-57,-12
92580312,0,2360330,-0.05067377,-0.06613495,0.0021392982,4008,-8.667084e-05,0.00017773306,1.0231103e-06,50.39168,0.0010642195,96,209,-17
92679508,0,2360330,-0.008564708,0.74106103,0.0073238113,3997,9.7128286e-05,0.003256868,1.8216155e-05,50.42463,0.0010642195,-600,119,53
92782739,0,2360330,-0.04190796,0.4877172,0.015985427,3235,-0.00065519556,0.0016533023,0.00010666234,50.41564,0.0010642195,-284,178,-48
92882704,0,2360330,0.014608959,0.29797396,0.012294319,4000,0.0007570252,0.0013975716,-5.4505705e-05,50.436607,0.0010642195,-372,-218,13
92985933,0,2360330,0.026206544,0.06401446,0.019383488,3229,0.0008634677,0.0002805191,-2.3645503e-05,50.427624,0.0010642195,-133,-244,2
93085904,0,2360330,-0.03420008,-0.02311211,0.01139787,4000,0.000249635,-6.7424735e-05,3.931908e-05,50.41564,0.0010642195,93,36,9
93185942,0,2360330,-0.07663112,0.42349052,0.01715286,4014,-0.00041664572,0.0015695408,6.1014824e-05,50.445595,0.0010642195,-392,139,-26
93289104,0,2360330,0.042640578,0.22443423,0.013354378,4000,-0.00015298382,0.0007468012,9.8491e-05,50.427624,0.0010642195,-119,-39,-4
93389147,0,2360330,0.053519107,0.1746488,0.035614055,4018,-0.0006501578,0.00013742657,0.000310635,50.409653,0.0010642195,77,107,-62
93492345,0,2360330,0.074616306,-0.46228153,0.007820621,3968,-0.0004077236,-0.0012306347,0.00012335667,50.44859,0.0010642195,428,102,-4
93596309,0,2360330,-0.0055081956,-0.1214893,-0.0016977934,3959,-0.00021310292,-0.00032295182,-0.00010544226,50.436607,0.0010642195,-62,-25,-26
93699522,0,2360330,-0.029688621,-0.14726867,-0.017599816,4018,-3.9934213e-05,-0.00043133466,1.3563477e-05,50.433613,0.0010642195,174,131,-37
93799504,0,2360330,-0.04479126,-0.10141466,-0.015366435,4000,-0.0009103964,-0.00046323196,4.429469e-05,50.41564,0.0010642195,144,302,-34
93902704,0,2360330,0.059882637,-0.0070541655,-0.015198903,4000,0.00011824984,0.00014437211,-0.00010413442,50.40666,0.0010642195,-172,-76,-1
94002718,0,2360330,0.047957573,0.082323946,-0.012793816,4014,-0.0001281027,0.0003074889,-4.3685995e-05,50.4426,0.0010642195,-60,13,-6
94105904,0,2360330,-0.069088235,0.011544155,-0.012311063,3935,-0.00056087476,-0.0002510231,8.026797e-06,50.46057,0.0010642195,-41,21,49
94205904,0,2360330,0.054849822,-0.013079077,-0.016859028,3994,0.00046346424,9.1408e-05,-0.00018758477,50.46656,0.0010642195,-14,-28,6
94309136,0,2360330,0.03599947,-0.049954444,-0.009657316,4032,0.0004064072,3.8458482e-05,-0.00016512124,50.436607,0.0010642195,-45,52,-24
94409104,0,2360330,-0.069833905,-0.05515559,-0.006781259,3994,0.0002877109,0.00038549452,-0.0001461537,50.4426,0.0010642195,22,32,24
94516329,0,2360330,-0.04178406,0.031859547,-0.0013858634,4024,-0.00030917357,-0.0004725055,4.288934e-05,50.427624,0.0010642195,20,-146,-2
94616310,0,2360330,-0.04415343,0.06628358,-0.0114874095,3971,-0.0012150268,0.00057168934,0.00016631116,50.463566,0.0010642195,-21,291,-43
94716305,0,2360330,0.17637056,-0.054276302,-0.0118637765,4001,0.0005608244,0.00044944836,-9.047377e-05,50.4426,0.0010642195,59,199,-20
94819504,0,2360330,0.070850134,-0.0007123835,-0.0024359198,3965,0.00022836223,-0.00023921803,-7.980036e-05,50.496513,0.0010642195,116,159,-26
94919536,0,2360330,-0.089640155,-0.023662794,0.001872308,4032,0.00031573555,0.00018315268,-0.00016354395,50.46057,0.0010642195,18,34,34
95022704,0,2360330,0.070550464,0.078018345,0.0032178313,3994,0.00056230114,0.0002952766,-1.6401269e-05,50.4396,0.0010642195,52,-57,2
95121904,0,2360330,-0.013664303,0.03119947,0.0042900783,3970,0.00048378413,0.00018280042,4.184772e-05,50.436607,0.0010642195,29,-186,1
95225904,0,2360330,-0.011440079,-0.046892874,-0.01282111,3961,-7.126514e-05,6.112138e-05,-9.524718e-05,50.44859,0.0010642195,-40,210,-21
95325104,0,2360330,0.051899076,0.02065556,-0.0046218913,3996,0.0007481638,-6.0073293e-05,-9.135518e-05,50.487526,0.0010642195,163,-128,46
95429148,0,2360330,-0.025075046,-0.0148250405,-0.010477108,4039,-0.0001618052,-0.0005464363,-0.00016393799,50.493515,0.0010642195,30,246,14
95528345,0,2360330,0.0071817734,0.028449789,-0.006452526,3241,0.00047085708,-0.0003473063,-0.0001776736,50.505497,0.0010642195,87,-67,44
95632311,0,2360330,-0.023534372,-0.05920989,-0.0010125259,3962,-0.00015300822,-0.00027409283,-1.6124393e-05,50.496513,0.0010642195,32,207,-38
95732326,0,2360330,-0.018026814,0.0234038,0.0032562562,3980,-0.00013509423,-0.00022003411,-4.0788058e-05,50.44859,0.0010642195,-103,183,-18
95831504,0,2360330,0.063569374,0.0504681,0.001472078,3997,-0.00020440292,-6.4522897e-06,-3.8805734e-05,50.475544,0.0010642195,50,37,30
95935529,0,2360330,0.045795396,-0.02291856,-0.007066743,4025,-0.0002674555,-0.000157484,2.1565907e-05,50.499508,0.0010642195,72,278,9
96038704,0,2360330,0.017629132,0.06369697,-0.0060797175,3994,-7.3416886e-06,0.0004602594,2.0764128e-06,50.463566,0.0010642195,-147,119,-8
96138704,0,2360330,-0.001226963,-0.0811444,-0.00021876239,3979,-0.00074681046,-0.000760416,3.9325503e-05,50.478542,0.0010642195,60,46,-6
96237904,0,2360330,-0.02692373,-0.023388242,4.614635e-05,4000,0.00018076193,-0.00026288212,3.8889677e-05,50.502502,0.0010642195,25,-251,6
96341904,0,2360330,0.108545296,0.07434673,-0.00012069712,4000,0.0012061225,0.00033664037,-0.000121312725,50.487526,0.0010642195,7,-41,61
96441108,0,2360330,-0.13460293,-0.03842778,-0.000890117,3977,1.6047697e-05,-0.000269893,-6.7557696e-05,50.487526,0.0010642195,-28,76,14
96545104,0,2360330,-0.042681176,-0.030093329,0.0043693883,4000,0.0002296025,0.0004753976,2.512453e-05,50.496513,0.0010642195,-20,-170,9
96644304,0,2360330,-0.004772032,-0.024665818,0.0011917853,4000,0.00023386022,-2.2246713e-06,1.5806441e-05,50.478542,0.0010642195,-35,-78,13
96747589,0,2360330,0.06983711,0.003871571,-0.013178374,3285,-0.00031655675,0.00022879406,3.4625377e-06,50.475544,0.0010642195,-134,241,-33
96847504,0,2360330,-0.040700633,0.011871916,-0.025634088,4000,-0.00075118174,0.0001003693,-3.4389683e-05,50.478542,0.0010642195,79,200,0
