timestamp,error_count,device_id,x,y,z,temperature,scaling,x_raw,y_raw,z_raw,is_external
50799541,0,263178,0.17384127,-0.08943354,0.35150898,49.27448,0.0015,252,-138,-250,0
50899508,0,263178,0.15041569,-0.09465784,0.35908195,49.27448,0.0015,255,-125,-255,0
51001155,0,263178,0.17023733,-0.08943354,0.35150898,49.31941,0.0015,252,-136,-250,0
51101965,0,263178,0.16843536,-0.08072637,0.3409068,49.265495,0.0015,247,-135,-243,0
51201902,0,263178,0.15221764,-0.08595067,0.3727133,49.295444,0.0015,250,-126,-264,0
51311502,0,263178,0.15762354,0.34592468,0.34393597,49.277473,0.0015,2,-129,-245,0
51413151,0,263178,0.16302946,-0.0929164,0.36059654,49.262497,0.0015,254,-132,-256,0
51513108,0,263178,0.15401962,-0.101623565,0.38028628,49.277473,0.0015,259,-127,-269,0
51614703,0,263178,0.16122748,-0.09465784,0.35605276,49.283466,0.0015,255,-131,-253,0
51713918,0,263178,0.1666334,-0.08943354,0.35453814,49.271484,0.0015,252,-134,-252,0
51815549,0,263178,0.15582158,-0.08943354,0.36665493,49.280468,0.0015,252,-128,-260,0
51915502,0,263178,0.1720393,-0.105106436,0.35605276,49.27448,0.0015,261,-137,-253,0
52015502,0,263178,0.1486137,-0.103365,0.36665493,49.280468,0.0015,260,-124,-260,0
52116313,0,263178,0.17023733,-0.09639927,0.36059654,49.280468,0.0015,256,-136,-256,0
52217902,0,263178,0.1666334,-0.09988214,0.36968413,49.283466,0.0015,258,-134,-262,0
52317901,0,263178,0.1774452,-0.08943354,0.36968413,49.31941,0.0015,252,-140,-262,0
52427502,0,263178,0.17023733,0.34244183,0.36362574,49.271484,0.0015,4,-136,-258,0
52529102,0,263178,0.15942553,-0.0929164,0.35756737,49.283466,0.0015,254,-130,-254,0
52629118,0,263178,0.18285112,-0.07724351,0.36514032,49.280468,0.0015,245,-143,-259,0
52729902,0,263178,0.1666334,-0.08943354,0.36059654,49.289455,0.0015,252,-134,-256,0
52831514,0,263178,0.16302946,-0.0824678,0.36665493,49.307426,0.0015,248,-132,-260,0
52931502,0,263178,0.17023733,-0.075502075,0.36362574,49.283466,0.0015,244,-136,-258,0
53041102,0,263178,0.17384127,-0.0929164,0.35908195,49.325397,0.0015,254,-138,-255,0
53132302,0,263178,0.18285112,-0.08072637,0.35605276,49.28646,0.0015,247,-143,-253,0
53242713,0,263178,0.16483141,-0.0981407,0.35908195,49.307426,0.0015,257,-133,-255,0
53343502,0,263178,0.17023733,-0.09639927,0.35453814,49.27448,0.0015,256,-136,-252,0
53443528,0,263178,0.15762354,-0.08420924,0.36816952,49.265495,0.0015,249,-129,-261,0
53545101,0,263178,0.1720393,-0.105106436,0.35302356,49.289455,0.0015,261,-137,-251,0
53645144,0,263178,0.16483141,-0.087692104,0.35908195,49.265495,0.0015,251,-133,-255,0
53745944,0,263178,0.16483141,-0.09117497,0.3772571,49.313416,0.0015,253,-133,-267,0
53845902,0,263178,0.14140584,-0.10684787,0.3757425,49.277473,0.0015,262,-120,-266,0
53947502,0,263178,0.1666334,-0.0824678,0.36362574,49.331387,0.0015,248,-134,-258,0
54047501,0,263178,0.15221764,-0.08943354,0.3727133,49.29844,0.0015,252,-126,-264,0
54158701,0,263178,0.16843536,-0.0981407,0.34999436,49.34337,0.0015,257,-135,-249,0
54259502,0,263178,0.16483141,-0.09117497,0.36211112,49.262497,0.0015,253,-133,-257,0
54359502,0,263178,0.18104914,-0.09639927,0.35756737,49.283466,0.0015,256,-142,-254,0
54459529,0,263178,0.16843536,-0.08072637,0.36816952,49.31042,0.0015,247,-135,-261,0
54561130,0,263178,0.16843536,-0.105106436,0.35908195,49.352352,0.0015,261,-135,-255,0
54661118,0,263178,0.17924717,-0.087692104,0.36211112,49.358345,0.0015,251,-141,-257,0
54772302,0,263178,0.1666334,-0.09639927,0.35756737,49.307426,0.0015,256,-134,-254,0
54873102,0,263178,0.17384127,-0.0929164,0.35150898,49.31641,0.0015,254,-138,-250,0
54973102,0,263178,0.15401962,-0.08420924,0.36514032,49.325397,0.0015,249,-127,-259,0
55073102,0,263178,0.18645506,-0.0981407,0.34999436,49.283466,0.0015,257,-145,-249,0
55175501,0,263178,0.17023733,-0.0824678,0.35453814,49.322403,0.0015,248,-136,-252,0
55274704,0,263178,0.18645506,-0.087692104,0.35302356,49.31641,0.0015,251,-145,-251,0
55375510,0,263178,0.1720393,-0.0981407,0.35302356,49.340374,0.0015,257,-137,-251,0
55475547,0,263178,0.1666334,-0.0929164,0.36362574,49.304432,0.0015,254,-134,-258,0
55577904,0,263178,0.18465307,-0.0824678,0.34847978,49.33738,0.0015,248,-144,-248,0
55687503,0,263178,0.16302946,-0.103365,0.35756737,49.27448,0.0015,260,-132,-254,0
55777902,0,263178,0.15582158,-0.08595067,0.3757425,49.322403,0.0015,250,-128,-266,0
55889121,0,263178,0.16483141,-0.0981407,0.36211112,49.35535,0.0015,257,-133,-257,0
55989104,0,263178,0.19366291,-0.0981407,0.36211112,49.36134,0.0015,257,-149,-257,0
56089129,0,263178,0.15401962,-0.09117497,0.3711987,49.36733,0.0015,253,-127,-263,0
56191501,0,263178,0.16843536,-0.1085893,0.37422788,49.358345,0.0015,263,-135,-265,0
56291501,0,263178,0.17023733,-0.08595067,0.36665493,49.358345,0.0015,250,-136,-260,0
56391510,0,263178,0.15401962,-0.087692104,0.36514032,49.358345,0.0015,251,-127,-259,0
56491502,0,263178,0.15582158,-0.09988214,0.36665493,49.31941,0.0015,258,-128,-260,0
56602702,0,263178,0.16302946,-0.10684787,0.36665493,49.391293,0.0015,262,-132,-260,0
56702702,0,263178,0.16843536,-0.105106436,0.36211112,49.382305,0.0015,261,-135,-257,0
56805118,0,263178,0.16302946,-0.09988214,0.35150898,49.382305,0.0015,258,-132,-250,0
56905102,0,263178,0.17023733,-0.08943354,0.36362574,49.37931,0.0015,252,-136,-258,0
57005102,0,263178,0.1666334,-0.0929164,0.35756737,49.394287,0.0015,254,-134,-254,0
57105102,0,263178,0.16122748,-0.09117497,0.36816952,49.37931,0.0015,253,-131,-261,0
57207502,0,263178,0.16302946,-0.08943354,0.35756737,49.364334,0.0015,252,-132,-254,0
57307519,0,263178,0.15041569,-0.087692104,0.3711987,49.40327,0.0015,251,-125,-263,0
57417102,0,263178,0.16483141,-0.087692104,0.35908195,49.39728,0.0015,251,-133,-255,0
57507502,0,263178,0.1720393,-0.0981407,0.36816952,49.388294,0.0015,257,-137,-261,0
57618702,0,263178,0.16843536,-0.08072637,0.36211112,49.40327,0.0015,247,-135,-257,0
57718702,0,263178,0.17564324,-0.087692104,0.36816952,49.3853,0.0015,251,-139,-261,0
57820302,0,263178,0.14500977,-0.103365,0.35453814,49.382305,0.0015,260,-122,-252,0
57921104,0,263178,0.1486137,-0.08595067,0.36059654,49.382305,0.0015,250,-124,-256,0
58021121,0,263178,0.16122748,-0.101623565,0.3772571,49.409264,0.0015,259,-131,-267,0
58121102,0,263178,0.15762354,-0.08420924,0.3772571,49.388294,0.0015,249,-129,-267,0
58221911,0,263178,0.15762354,-0.08072637,0.36816952,49.433224,0.0015,247,-129,-261,0
58323502,0,263178,0.15942553,-0.09988214,0.36665493,49.40327,0.0015,258,-130,-260,0
58423542,0,263178,0.1666334,-0.08595067,0.38483006,49.439213,0.0015,250,-134,-272,0
58523502,0,263178,0.18645506,-0.087692104,0.36514032,49.43023,0.0015,251,-145,-259,0
58624302,0,263178,0.17564324,-0.08072637,0.38028628,49.427235,0.0015,247,-139,-269,0
58734701,0,263178,0.1486137,-0.09988214,0.36362574,49.427235,0.0015,258,-124,-258,0
58835530,0,263178,0.15582158,-0.078984946,0.36362574,49.442207,0.0015,246,-128,-258,0
58937102,0,263178,0.1774452,-0.09988214,0.36059654,49.406265,0.0015,258,-140,-256,0
59037101,0,263178,0.15221764,-0.09639927,0.36968413,49.433224,0.0015,256,-126,-262,0
59137152,0,263178,0.18825701,-0.0929164,0.35756737,49.43023,0.0015,254,-146,-254,0
59237912,0,263178,0.1720393,-0.101623565,0.36211112,49.427235,0.0015,259,-137,-257,0
59348349,0,263178,0.1666334,-0.08943354,0.36362574,49.445206,0.0015,252,-134,-258,0
59449130,0,263178,0.17564324,-0.09465784,0.35908195,49.463177,0.0015,255,-139,-255,0
59549902,0,263178,0.14500977,-0.0824678,0.36665493,49.442207,0.0015,248,-122,-260,0
59650702,0,263178,0.18104914,-0.078984946,0.36362574,49.43622,0.0015,246,-142,-258,0
59750701,0,263178,0.17023733,-0.0824678,0.35453814,49.45419,0.0015,248,-136,-252,0
59851502,0,263178,0.19005898,-0.09465784,0.35302356,49.439213,0.0015,255,-147,-251,0
59951502,0,263178,0.18104914,-0.103365,0.36665493,49.463177,0.0015,260,-142,-260,0
60051508,0,263178,0.1774452,-0.08943354,0.34847978,49.442207,0.0015,252,-140,-248,0
60153125,0,263178,0.1720393,-0.105106436,0.36211112,49.481148,0.0015,261,-137,-257,0
60253102,0,263178,0.17924717,-0.0981407,0.35302356,49.463177,0.0015,257,-141,-251,0
60353902,0,263178,0.1666334,-0.078984946,0.35453814,49.47815,0.0015,246,-134,-252,0
60464302,0,263178,0.17384127,-0.08595067,0.36665493,49.475155,0.0015,250,-138,-260,0
60565102,0,263178,0.1720393,-0.09465784,0.36211112,49.47216,0.0015,255,-137,-257,0
60665910,0,263178,0.18825701,-0.09639927,0.36665493,49.484142,0.0015,256,-146,-260,0
60766701,0,263178,0.16122748,-0.09465784,0.35605276,49.49013,0.0015,255,-131,-253,0
60866714,0,263178,0.17384127,-0.103365,0.36665493,49.475155,0.0015,260,-138,-260,0
60968335,0,263178,0.15401962,-0.09117497,0.35605276,49.47216,0.0015,253,-127,-253,0
61067538,0,263178,0.15041569,-0.0981407,0.36816952,49.511097,0.0015,257,-125,-261,0
61169140,0,263178,0.16843536,-0.0981407,0.35908195,49.505108,0.0015,257,-135,-255,0
61278702,0,263178,0.16302946,-0.09639927,0.36362574,49.502113,0.0015,256,-132,-258,0
61380309,0,263178,0.16843536,-0.0981407,0.3711987,49.487137,0.0015,257,-135,-263,0
61480302,0,263178,0.15762354,-0.0981407,0.3711987,49.481148,0.0015,257,-129,-263,0
61581102,0,263178,0.16483141,-0.101623565,0.36514032,49.526073,0.0015,259,-133,-259,0
61681102,0,263178,0.1666334,-0.0824678,0.36362574,49.53506,0.0015,248,-134,-258,0
61782701,0,263178,0.16122748,-0.09117497,0.3772571,49.502113,0.0015,253,-131,-267,0
61892315,0,263178,0.1666334,-0.09988214,0.35150898,49.526073,0.0015,258,-134,-250,0
61993901,0,263178,0.16122748,-0.08420924,0.36211112,49.529068,0.0015,249,-131,-257,0
62093901,0,263178,0.16843536,-0.09117497,0.3772571,49.51409,0.0015,253,-135,-267,0
62194702,0,263178,0.15942553,-0.08943354,0.36362574,49.52308,0.0015,252,-130,-258,0
62294702,0,263178,0.17564324,-0.101623565,0.3711987,49.526073,0.0015,259,-139,-263,0
62397101,0,263178,0.17924717,-0.105106436,0.35908195,49.56501,0.0015,261,-141,-255,0
62496302,0,263178,0.1774452,-0.078984946,0.36665493,49.54704,0.0015,246,-140,-260,0
62597102,0,263178,0.1720393,-0.105106436,0.35908195,49.562016,0.0015,261,-137,-255,0
62697143,0,263178,0.17384127,-0.09639927,0.36968413,49.51409,0.0015,256,-138,-262,0
62799501,0,263178,0.16843536,-0.09465784,0.36816952,49.53506,0.0015,255,-135,-261,0
62898744,0,263178,0.16302946,-0.08595067,0.3727133,49.556026,0.0015,250,-132,-264,0
62999524,0,263178,0.1666334,-0.09988214,0.35756737,49.532063,0.0015,258,-134,-254,0
63109901,0,263178,0.15942553,-0.08595067,0.36059654,49.511097,0.0015,250,-130,-256,0
63210702,0,263178,0.1774452,-0.09988214,0.3727133,49.54105,0.0015,258,-140,-264,0
63310701,0,263178,0.15942553,-0.103365,0.35453814,49.550034,0.0015,260,-130,-252,0
63413101,0,263178,0.1720393,-0.09465784,0.36514032,49.573997,0.0015,255,-137,-259,0
63512302,0,263178,0.15221764,-0.08943354,0.36059654,49.54105,0.0015,252,-126,-256,0
63613102,0,263178,0.1720393,-0.087692104,0.36514032,49.54105,0.0015,251,-137,-259,0
63713102,0,263178,0.17384127,-0.09639927,0.3727133,49.579987,0.0015,256,-138,-264,0
63815501,0,263178,0.17924717,-0.09117497,0.36816952,49.59197,0.0015,253,-141,-261,0
63915502,0,263178,0.1666334,-0.103365,0.36968413,49.576992,0.0015,260,-134,-262,0
64015504,0,263178,0.15942553,-0.08943354,0.3757425,49.594963,0.0015,252,-130,-266,0
64115502,0,263178,0.15582158,-0.10684787,0.36665493,49.576992,0.0015,262,-128,-260,0
64226702,0,263178,0.17924717,-0.09117497,0.36816952,49.58298,0.0015,253,-141,-261,0
64326742,0,263178,0.18285112,-0.09117497,0.36514032,49.60994,0.0015,253,-143,-259,0
64429129,0,263178,0.16302946,-0.0929164,0.36665493,49.579987,0.0015,254,-132,-260,0
64529109,0,263178,0.17564324,-0.0981407,0.35908195,49.58298,0.0015,257,-139,-255,0
64629153,0,263178,0.15762354,-0.087692104,0.36211112,49.60395,0.0015,251,-129,-257,0
64729118,0,263178,0.17384127,-0.0824678,0.36968413,49.62192,0.0015,248,-138,-262,0
64831502,0,263178,0.17924717,-0.09117497,0.35908195,49.630905,0.0015,253,-141,-255,0
64931546,0,263178,0.17023733,-0.08943354,0.36968413,49.612934,0.0015,252,-136,-262,0
65031522,0,263178,0.17384127,-0.11033074,0.36362574,49.60395,0.0015,264,-138,-258,0
65131502,0,263178,0.17564324,-0.08420924,0.36816952,49.594963,0.0015,249,-139,-261,0
65232303,0,263178,0.16843536,-0.09465784,0.37422788,49.630905,0.0015,255,-135,-265,0
65342702,0,263178,0.16843536,-0.08072637,0.36816952,49.654865,0.0015,247,-135,-261,0
65443513,0,263178,0.15942553,-0.08943354,0.35756737,49.654865,0.0015,252,-130,-254,0
65545101,0,263178,0.16302946,-0.09988214,0.36362574,49.639893,0.0015,258,-132,-258,0
65645102,0,263178,0.16302946,-0.0824678,0.35756737,49.639893,0.0015,248,-132,-254,0
65745134,0,263178,0.1666334,-0.08943354,0.36362574,49.642887,0.0015,252,-134,-258,0
65845108,0,263178,0.16122748,-0.08420924,0.3711987,49.62791,0.0015,249,-131,-263,0
65947501,0,263178,0.17924717,-0.0981407,0.36816952,49.654865,0.0015,257,-141,-261,0
66047522,0,263178,0.17564324,-0.087692104,0.35302356,49.65187,0.0015,251,-139,-251,0
66147502,0,263178,0.17924717,-0.09465784,0.35302356,49.648876,0.0015,255,-141,-251,0
66247502,0,263178,0.17023733,-0.103365,0.35453814,49.636894,0.0015,260,-136,-252,0
66349901,0,263178,0.16302946,-0.09639927,0.36968413,49.675835,0.0015,256,-132,-262,0
66458713,0,263178,0.16483141,-0.087692104,0.36514032,49.67883,0.0015,251,-133,-259,0
66561163,0,263178,0.16843536,-0.087692104,0.36211112,49.675835,0.0015,251,-135,-257,0
66661101,0,263178,0.16483141,-0.087692104,0.34999436,49.690807,0.0015,251,-133,-249,0
66761100,0,263178,0.17564324,-0.101623565,0.35605276,49.690807,0.0015,259,-139,-253,0
66861102,0,263178,0.16302946,-0.08943354,0.35756737,49.66086,0.0015,252,-132,-254,0
66962734,0,263178,0.16843536,-0.0981407,0.3711987,49.672836,0.0015,257,-135,-263,0
67063501,0,263178,0.17384127,-0.08595067,0.3727133,49.68482,0.0015,250,-138,-264,0
67163515,0,263178,0.15762354,-0.101623565,0.36816952,49.618923,0.0015,259,-129,-261,0
67263525,0,263178,0.17564324,-0.09465784,0.35302356,49.681824,0.0015,255,-139,-251,0
67365103,0,263178,0.17023733,-0.09639927,0.35756737,49.741726,0.0015,256,-136,-254,0
67474728,0,263178,0.15582158,-0.103365,0.36968413,49.67883,0.0015,260,-128,-262,0
67574702,0,263178,0.1720393,-0.09117497,0.35908195,49.732742,0.0015,253,-137,-255,0
67677117,0,263178,0.1666334,-0.09639927,0.35453814,49.723755,0.0015,256,-134,-252,0
67777122,0,263178,0.17924717,-0.09117497,0.35908195,49.68482,0.0015,253,-141,-255,0
67877119,0,263178,0.17384127,-0.08943354,0.35756737,49.711777,0.0015,252,-138,-254,0
67977102,0,263178,0.1486137,-0.08595067,0.36968413,49.71477,0.0015,250,-124,-262,0
68079502,0,263178,0.15582158,-0.09988214,0.36362574,49.723755,0.0015,258,-128,-258,0
68188342,0,263178,0.1720393,-0.09465784,0.35605276,49.723755,0.0015,255,-137,-253,0
68993102,0,263178,0.14681174,-0.07724351,0.36211112,49.76569,0.0015,245,-123,-257,0
69093102,0,263178,0.16302946,-0.103365,0.36665493,49.768684,0.0015,260,-132,-260,0
69204310,0,263178,0.15942553,-0.078984946,0.38483006,49.756702,0.0015,246,-130,-272,0
69304302,0,263178,0.15401962,-0.101623565,0.37422788,49.792645,0.0015,259,-127,-265,0
69406702,0,263178,0.16483141,-0.08420924,0.3711987,49.78366,0.0015,249,-133,-263,0
69506743,0,263178,0.15401962,-0.09117497,0.36816952,49.756702,0.0015,253,-127,-261,0
69606706,0,263178,0.16843536,-0.09465784,0.36816952,49.837574,0.0015,255,-135,-261,0
69706702,0,263178,0.17384127,-0.08943354,0.35453814,49.819603,0.0015,252,-138,-252,0
69809123,0,263178,0.16122748,-0.0981407,0.3711987,49.828587,0.0015,257,-131,-263,0
69909102,0,263178,0.17023733,-0.09639927,0.35150898,49.84057,0.0015,256,-136,-250,0
70018735,0,263178,0.14500977,-0.09639927,0.36362574,49.78366,0.0015,256,-122,-258,0
70120302,0,263178,0.1666334,-0.0929164,0.35756737,49.80762,0.0015,254,-134,-254,0
70220369,0,263178,0.16843536,-0.08072637,0.35605276,49.798634,0.0015,247,-135,-253,0
70320302,0,263178,0.16302946,-0.078984946,0.35453814,49.777668,0.0015,246,-132,-252,0
70421947,0,263178,0.16843536,-0.105106436,0.36514032,49.80762,0.0015,261,-135,-259,0
70522744,0,263178,0.17023733,-0.09639927,0.36362574,49.801632,0.0015,256,-136,-258,0
70632302,0,263178,0.1720393,-0.08420924,0.34999436,49.819603,0.0015,249,-137,-249,0
70722702,0,263178,0.17564324,-0.09117497,0.34999436,49.822598,0.0015,253,-139,-249,0
70833902,0,263178,0.17023733,-0.08943354,0.33636302,49.84057,0.0015,252,-136,-240,0
70933938,0,263178,0.17384127,-0.08595067,0.33636302,49.834576,0.0015,250,-138,-240,0
71035503,0,263178,0.16302946,-0.0824678,0.33636302,49.855545,0.0015,248,-132,-240,0
71136302,0,263178,0.15582158,-0.08595067,0.33636302,49.855545,0.0015,250,-128,-240,0
71236343,0,263178,0.15221764,-0.06853635,0.34847978,49.85854,0.0015,240,-126,-248,0
71336302,0,263178,0.17384127,-0.078984946,0.32121703,49.86453,0.0015,246,-138,-230,0
71436302,0,263178,0.17924717,-0.063312046,0.32273164,49.822598,0.0015,237,-141,-231,0
71538733,0,263178,0.16483141,-0.05982918,0.31061488,49.828587,0.0015,235,-133,-223,0
71638714,0,263178,0.18465307,-0.04763915,0.30910027,49.828587,0.0015,228,-144,-222,0
71748306,0,263178,0.1774452,-0.05286345,0.33030462,49.85854,0.0015,231,-140,-236,0
71838702,0,263178,0.1666334,-0.051122013,0.34242138,49.861534,0.0015,230,-134,-244,0
71949911,0,263178,0.2008708,-0.045897715,0.1591553,49.87651,0.0015,227,-153,-123,0
72049901,0,263178,0.14681174,-0.06679491,0.3469652,49.8825,0.0015,239,-123,-247,0
72151540,0,263178,0.17023733,-0.06853635,0.33030462,49.88849,0.0015,240,-136,-236,0
72252344,0,263178,0.17023733,-0.058087748,0.30910027,49.87651,0.0015,234,-136,-222,0
72352303,0,263178,0.1774452,-0.04763915,0.31515867,49.90646,0.0015,228,-140,-226,0
72452302,0,263178,0.1666334,-0.05460488,0.3030419,49.915447,0.0015,232,-134,-218,0
72552301,0,263178,0.17924717,-0.06679491,0.3015273,49.87651,0.0015,239,-141,-217,0
72654702,0,263178,0.1486137,-0.061570607,0.33636302,49.89448,0.0015,236,-124,-240,0
72754701,0,263178,0.19005898,-0.08420924,0.3318192,49.897476,0.0015,249,-147,-237,0
72854702,0,263178,0.1774452,-0.0929164,0.34847978,49.903465,0.0015,254,-140,-248,0
72965922,0,263178,0.16302946,-0.08595067,0.3333338,49.930424,0.0015,250,-132,-238,0
73065902,0,263178,0.16122748,-0.09465784,0.34393597,49.915447,0.0015,255,-131,-245,0
73165902,0,263178,0.1954649,-0.08943354,0.3030419,49.90047,0.0015,252,-150,-218,0
73266702,0,263178,0.16302946,-0.09988214,0.3060711,49.921436,0.0015,258,-132,-220,0
73368346,0,263178,0.19366291,-0.08420924,0.2984981,49.91844,0.0015,249,-149,-215,0
73467501,0,263178,0.1666334,-0.072019204,0.3060711,49.92443,0.0015,242,-134,-220,0
73568345,0,263178,0.16483141,-0.06679491,0.33484843,49.939407,0.0015,239,-133,-239,0
73668344,0,263178,0.18645506,-0.07027777,0.2924397,49.936413,0.0015,241,-145,-211,0
73770701,0,263178,0.18645506,-0.063312046,0.31970245,49.92443,0.0015,237,-145,-229,0
73879516,0,263178,0.17023733,-0.061570607,0.31515867,49.954384,0.0015,236,-136,-226,0
73970702,0,263178,0.17384127,-0.06505348,0.32727543,49.95139,0.0015,238,-138,-234,0
74081104,0,263178,0.1666334,-0.0824678,0.33030462,49.9454,0.0015,248,-134,-236,0
74181902,0,263178,0.17564324,-0.045897715,0.31970245,49.930424,0.0015,227,-139,-229,0
74281902,0,263178,0.16302946,-0.04763915,0.3030419,49.97535,0.0015,228,-132,-218,0
74372318,0,263178,0.15401962,-0.05982918,0.3378776,49.948395,0.0015,235,-127,-241,0
74483511,0,263178,0.15942553,-0.051122013,0.30910027,49.960373,0.0015,230,-130,-222,0
74583502,0,263178,0.18285112,-0.06679491,0.31364408,49.999313,0.0015,239,-143,-225,0
74684302,0,263178,0.15401962,-0.05982918,0.32879004,49.939407,0.0015,235,-127,-235,0
74784301,0,263178,0.16843536,-0.07724351,0.3045565,49.984337,0.0015,245,-135,-219,0
74886701,0,263178,0.15942553,-0.078984946,0.33636302,49.999313,0.0015,246,-130,-240,0
74995502,0,263178,0.15762354,-0.07376064,0.3469652,49.95738,0.0015,243,-129,-247,0
75086702,0,263178,0.18825701,-0.072019204,0.31212947,49.966366,0.0015,242,-146,-224,0
75197102,0,263178,0.16122748,-0.07376064,0.31970245,50.01429,0.0015,243,-131,-229,0
75297902,0,263178,0.1774452,-0.075502075,0.3333338,50.008297,0.0015,244,-140,-238,0
75397941,0,263178,0.15401962,-0.063312046,0.32273164,49.99332,0.0015,237,-127,-231,0
75500302,0,263178,0.17564324,-0.07376064,0.32576084,49.96936,0.0015,243,-139,-233,0
75609102,0,263178,0.16483141,-0.06679491,0.3378776,49.990326,0.0015,239,-133,-241,0
75700338,0,263178,0.16122748,-0.06679491,0.31970245,49.978348,0.0015,239,-131,-229,0
75810701,0,263178,0.17564324,-0.056346312,0.3045565,49.99332,0.0015,233,-139,-219,0
75911502,0,263178,0.15762354,-0.05982918,0.32273164,50.01129,0.0015,235,-129,-231,0
76011502,0,263178,0.1666334,-0.037190553,0.32121703,50.005302,0.0015,222,-134,-230,0
76111502,0,263178,0.1774452,-0.03022482,0.31212947,49.972355,0.0015,218,-140,-224,0
76213107,0,263178,0.20447473,-0.038931984,0.31970245,50.026268,0.0015,223,-155,-229,0
76313102,0,263178,0.18825701,-0.044156283,0.3000127,50.041245,0.0015,226,-146,-216,0
76413902,0,263178,0.18285112,-0.04241485,0.31667328,50.04424,0.0015,225,-143,-227,0
76513916,0,263178,0.18645506,-0.04241485,0.31061488,50.029263,0.0015,225,-145,-223,0
76625114,0,263178,0.18104914,-0.033707686,0.31515867,50.03226,0.0015,220,-142,-226,0
76725133,0,263178,0.2062767,-0.040673416,0.29395434,50.041245,0.0015,224,-156,-212,0
76827502,0,263178,0.19005898,-0.028483387,0.31364408,50.05622,0.0015,217,-147,-225,0
76926739,0,263178,0.18285112,-0.031966254,0.3318192,50.03226,0.0015,219,-143,-237,0
77027538,0,263178,0.18465307,-0.05460488,0.31818786,50.03825,0.0015,232,-144,-228,0
77127502,0,263178,0.18285112,-0.031966254,0.2924397,50.047234,0.0015,219,-143,-211,0
77218734,0,263178,0.20447473,-0.04241485,0.2984981,50.068203,0.0015,225,-155,-215,0
77329101,0,263178,0.23871213,-0.04763915,0.28183755,50.026268,0.0015,228,-174,-204,0
77429902,0,263178,0.22249441,-0.031966254,0.31061488,50.041245,0.0015,219,-165,-223,0
77529902,0,263178,0.20807867,-0.031966254,0.28638133,50.06221,0.0015,219,-157,-207,0
77629902,0,263178,0.22249441,-0.038931984,0.31061488,50.08917,0.0015,223,-165,-223,0
77741103,0,263178,0.16122748,-0.05982918,0.3075857,50.065205,0.0015,235,-131,-221,0
77841102,0,263178,0.19726686,-0.045897715,0.3075857,50.065205,0.0015,227,-151,-221,0
77943502,0,263178,0.18645506,-0.035449117,0.32273164,50.06221,0.0015,221,-145,-231,0
78042701,0,263178,0.18825701,-0.058087748,0.29395434,50.068203,0.0015,234,-146,-212,0
78143513,0,263178,0.1720393,-0.105106436,0.3075857,50.092163,0.0015,261,-137,-221,0
78243502,0,263178,0.19005898,-0.0981407,0.3015273,50.068203,0.0015,257,-147,-217,0
78345101,0,263178,0.19726686,-0.11555503,0.3075857,50.071198,0.0015,267,-151,-221,0
78445101,0,263178,0.1269901,-0.06853635,0.29092512,50.05622,0.0015,240,-112,-210,0
78545902,0,263178,0.19366291,-0.063312046,0.29546893,50.059216,0.0015,237,-149,-213,0
78645901,0,263178,0.18645506,-0.05286345,0.31970245,50.065205,0.0015,231,-145,-229,0
78737102,0,263178,0.16843536,-0.05286345,0.31061488,50.071198,0.0015,231,-135,-223,0
78847532,0,263178,0.17924717,-0.038931984,0.2984981,50.086174,0.0015,223,-141,-215,0
78947501,0,263178,0.2062767,-0.033707686,0.3060711,50.098152,0.0015,220,-156,-220,0
79058701,0,263178,0.20447473,-0.05982918,0.2924397,50.128105,0.0015,235,-155,-211,0
79158701,0,263178,0.20267276,-0.040673416,0.28183755,50.10714,0.0015,224,-154,-204,0
79259502,0,263178,0.20807867,-0.038931984,0.28335217,50.077187,0.0015,223,-157,-205,0
79359540,0,263178,0.21889049,-0.045897715,0.2924397,50.116123,0.0015,227,-163,-211,0
79461107,0,263178,0.18645506,-0.04241485,0.28941053,50.071198,0.0015,225,-145,-209,0
79561136,0,263178,0.1774452,-0.06853635,0.30910027,50.10714,0.0015,240,-140,-222,0
79661955,0,263178,0.16302946,-0.1242622,0.29092512,50.128105,0.0015,272,-132,-210,0
79772324,0,263178,0.17924717,-0.1294865,0.27426457,50.140087,0.0015,275,-141,-199,0
79873116,0,263178,0.16122748,-0.12252076,0.29546893,50.110134,0.0015,271,-131,-213,0
79973123,0,263178,0.18825701,-0.14167652,0.29395434,50.12511,0.0015,282,-146,-212,0
80074702,0,263178,0.18104914,-0.120779335,0.27880836,50.134094,0.0015,270,-142,-202,0
80174701,0,263178,0.20267276,-0.14864226,0.28486675,50.134094,0.0015,286,-154,-206,0
80275502,0,263178,0.15942553,-0.1451594,0.28789595,50.116123,0.0015,284,-130,-208,0
80375502,0,263178,0.18104914,-0.15212512,0.28486675,50.10714,0.0015,288,-142,-206,0
80477133,0,263178,0.19366291,-0.12252076,0.3015273,50.128105,0.0015,271,-149,-217,0
80577102,0,263178,0.17564324,-0.11555503,0.28335217,50.140087,0.0015,267,-139,-205,0
80686736,0,263178,0.15582158,-0.0929164,0.3030419,50.13709,0.0015,254,-128,-218,0
80788345,0,263178,0.18104914,-0.051122013,0.28486675,50.146076,0.0015,230,-142,-206,0
81089101,0,263178,0.17564324,-0.038931984,0.29546893,50.140087,0.0015,223,-139,-213,0
81190736,0,263178,0.17564324,-0.05286345,0.2924397,50.188007,0.0015,231,-139,-211,0
81290701,0,263178,0.16843536,-0.028483387,0.28335217,50.17303,0.0015,217,-135,-205,0
81391503,0,263178,0.15762354,-0.045897715,0.3075857,50.14308,0.0015,227,-129,-221,0
81491534,0,263178,0.17023733,-0.044156283,0.3000127,50.202984,0.0015,226,-136,-216,0
81602702,0,263178,0.20447473,-0.04241485,0.28941053,50.179024,0.0015,225,-155,-209,0
81702702,0,263178,0.17564324,-0.05286345,0.32576084,50.17303,0.0015,231,-139,-233,0
81804302,0,263178,0.17564324,-0.06679491,0.31061488,50.17303,0.0015,239,-139,-223,0
81904304,0,263178,0.1954649,-0.044156283,0.28183755,50.17603,0.0015,226,-150,-204,0
82004302,0,263178,0.15401962,-0.038931984,0.3045565,50.20598,0.0015,223,-127,-219,0
82105102,0,263178,0.20988064,-0.040673416,0.31212947,50.188007,0.0015,224,-158,-224,0
82206713,0,263178,0.1774452,-0.058087748,0.31212947,50.17603,0.0015,234,-140,-224,0
82306701,0,263178,0.18825701,-0.026741955,0.3000127,50.21197,0.0015,216,-146,-216,0
82416302,0,263178,0.2008708,-0.026741955,0.24700184,50.20598,0.0015,216,-153,-181,0
82507502,0,263178,0.19726686,-0.0110690575,0.2984981,50.208973,0.0015,207,-151,-215,0
82617909,0,263178,0.17023733,0.0011209719,0.31818786,50.164047,0.0015,200,-136,-228,0
82718702,0,263178,0.1954649,0.008086704,0.29395434,50.244915,0.0015,196,-150,-212,0
82820336,0,263178,0.20807867,0.034208197,0.3015273,50.194,0.0015,181,-157,-217,0
82920302,0,263178,0.1954649,0.039432496,0.3030419,50.244915,0.0015,178,-150,-218,0
83020302,0,263178,0.18285112,0.051622525,0.31364408,50.196995,0.0015,171,-143,-225,0
83121902,0,263178,0.22069246,0.046398226,0.3060711,50.191,0.0015,174,-164,-220,0
83231502,0,263178,0.16122748,0.06555399,0.3075857,50.214966,0.0015,163,-131,-221,0
83332303,0,263178,0.19005898,0.07251972,0.2984981,50.22395,0.0015,159,-147,-215,0
84449102,0,263178,0.121584184,0.16655709,0.29546893,50.214966,0.0015,105,-109,-213,0
84549902,0,263178,0.121584184,0.15959138,0.2984981,50.23593,0.0015,109,-109,-215,0
84649902,0,263178,0.12338615,0.17178139,0.3030419,50.24192,0.0015,102,-110,-218,0
84749901,0,263178,0.13599993,0.16655709,0.31970245,50.274868,0.0015,105,-117,-229,0
84849940,0,263178,0.11077237,0.17352283,0.2924397,50.250908,0.0015,101,-103,-211,0
84952333,0,263178,0.121584184,0.16655709,0.29546893,50.253902,0.0015,105,-109,-213,0
85052302,0,263178,0.094554655,0.15784994,0.2969835,50.244915,0.0015,110,-94,-214,0
85152322,0,263178,0.107168436,0.19442002,0.28335217,50.253902,0.0015,89,-101,-205,0
85252302,0,263178,0.10356449,0.1770057,0.28941053,50.280857,0.0015,99,-99,-209,0
85363502,0,263178,0.09635662,0.1770057,0.2984981,50.226944,0.0015,99,-95,-215,0
85463502,0,263178,0.094554655,0.19616146,0.2969835,50.26888,0.0015,88,-94,-214,0
85565143,0,263178,0.09635662,0.19442002,0.2924397,50.283855,0.0015,89,-95,-211,0
85665901,0,263178,0.09095072,0.18222998,0.29395434,50.271873,0.0015,96,-92,-212,0
85765901,0,263178,0.08194087,0.18745428,0.27426457,50.289845,0.0015,93,-87,-199,0
85865940,0,263178,0.07653497,0.21705866,0.27880836,50.253902,0.0015,76,-84,-202,0
85965901,0,263178,0.11798024,0.298906,0.2318559,50.31081,0.0015,29,-107,-171,0
86068305,0,263178,0.094554655,0.29368168,0.24548726,50.31081,0.0015,32,-94,-180,0
86168344,0,263178,0.11257434,0.31109604,0.24245808,50.256897,0.0015,22,-104,-178,0
86268348,0,263178,0.11978221,0.30064744,0.2303413,50.30482,0.0015,28,-108,-170,0
86368332,0,263178,0.114376314,0.28149167,0.2621478,50.307816,0.0015,39,-105,-191,0
86479504,0,263178,0.13239598,0.246663,0.22882669,50.28685,0.0015,59,-115,-169,0
86579514,0,263178,0.08554481,0.20835148,0.3075857,50.28685,0.0015,81,-89,-221,0
86680330,0,263178,0.09095072,0.19267859,0.29092512,50.29284,0.0015,90,-92,-210,0
86781901,0,263178,0.107168436,0.18048857,0.3015273,50.301826,0.0015,97,-101,-217,0
86881101,0,263178,0.12518811,0.1770057,0.2984981,50.29883,0.0015,99,-111,-215,0
86981902,0,263178,0.067525126,0.19093716,0.28638133,50.25989,0.0015,91,-79,-207,0
87092302,0,263178,0.10356449,0.18397142,0.29546893,50.301826,0.0015,95,-99,-213,0
87193102,0,263178,0.0981586,0.18571286,0.2969835,50.3168,0.0015,94,-96,-214,0
87293102,0,263178,0.09996056,0.20138577,0.28941053,50.31081,0.0015,85,-97,-209,0
87395501,0,263178,0.08194087,0.18745428,0.29546893,50.343758,0.0015,93,-87,-213,0
87494715,0,263178,0.094554655,0.19616146,0.3030419,50.30482,0.0015,88,-94,-218,0
87595531,0,263178,0.11798024,0.18745428,0.28335217,50.331776,0.0015,93,-107,-205,0
87695539,0,263178,0.11257434,0.19267859,0.28789595,50.33777,0.0015,90,-104,-208,0
87796343,0,263178,0.0981586,0.19267859,0.27880836,50.343758,0.0015,90,-96,-202,0
87897106,0,263178,0.09996056,0.19093716,0.28638133,50.319798,0.0015,91,-97,-207,0
87997107,0,263178,0.10536646,0.17178139,0.3030419,50.29883,0.0015,102,-100,-218,0
88108343,0,263178,0.094554655,0.16481566,0.2697208,50.3168,0.0015,106,-94,-196,0
88208351,0,263178,0.107168436,0.18048857,0.3015273,50.32878,0.0015,97,-101,-217,0
88309117,0,263178,0.114376314,0.18745428,0.32576084,50.289845,0.0015,93,-105,-233,0
88409101,0,263178,0.11798024,0.18397142,0.31364408,50.343758,0.0015,95,-107,-225,0
88511502,0,263178,0.11257434,0.18919572,0.3030419,50.319798,0.0015,92,-104,-218,0
88610701,0,263178,0.1089704,0.18222998,0.27880836,50.32878,0.0015,96,-102,-202,0
88711510,0,263178,0.07653497,0.18222998,0.27880836,50.307816,0.0015,96,-84,-202,0
88811502,0,263178,0.09996056,0.19093716,0.3075857,50.331776,0.0015,91,-97,-221,0
88902702,0,263178,0.10356449,0.18048857,0.2984981,50.349747,0.0015,97,-99,-215,0
89013101,0,263178,0.11798024,0.18048857,0.3045565,50.340763,0.0015,97,-107,-219,0
89113902,0,263178,0.11798024,0.18397142,0.31667328,50.331776,0.0015,95,-107,-227,0
89213902,0,263178,0.12879205,0.19442002,0.27123538,50.38569,0.0015,89,-113,-197,0
89325125,0,263178,0.1089704,0.18919572,0.27275,50.346752,0.0015,92,-102,-198,0
89425102,0,263178,0.13059403,0.19964433,0.27880836,50.358734,0.0015,86,-114,-202,0
89516327,0,263178,0.114376314,0.18397142,0.3015273,50.33477,0.0015,95,-105,-217,0
89626701,0,263178,0.08554481,0.19093716,0.29546893,50.35574,0.0015,91,-89,-213,0
89727502,0,263178,0.0981586,0.23447298,0.28486675,50.349747,0.0015,66,-96,-206,0
89827502,0,263178,0.12338615,0.26581877,0.25457484,50.37371,0.0015,48,-110,-186,0
89927502,0,263178,0.09635662,0.3093546,0.24397266,50.325787,0.0015,23,-95,-179,0
90038750,0,263178,0.074733004,0.33025178,0.2318559,50.30482,0.0015,11,-83,-171,0
90129109,0,263178,0.121584184,0.3267689,0.20762236,50.39767,0.0015,13,-109,-155,0
90240325,0,263178,0.11798024,0.3198032,0.19550559,50.343758,0.0015,17,-107,-147,0
90340302,0,263178,0.089148745,0.298906,0.25608942,50.39168,0.0015,29,-91,-187,0
90441101,0,263178,0.11257434,0.21357578,0.257604,50.37371,0.0015,78,-104,-188,0
90541103,0,263178,0.13960387,0.19442002,0.27426457,50.364723,0.0015,89,-119,-199,0
90642701,0,263178,0.09996056,0.18745428,0.3045565,50.400665,0.0015,93,-97,-219,0
90742702,0,263178,0.116178274,0.15784994,0.27880836,50.38569,0.0015,110,-106,-202,0
90843502,0,263178,0.094554655,0.11605554,0.3030419,50.40666,0.0015,134,-94,-218,0
90954741,0,263178,0.10356449,0.13172844,0.32273164,50.394676,0.0015,125,-99,-231,0
91054713,0,263178,0.121584184,0.1456599,0.32576084,50.364723,0.0015,117,-109,-233,0
91155525,0,263178,0.08554481,0.16655709,0.33484843,50.409653,0.0015,105,-89,-239,0
91257113,0,263178,0.094554655,0.16133279,0.3060711,50.38569,0.0015,108,-94,-220,0
91356302,0,263178,0.1089704,0.18571286,0.3000127,50.3797,0.0015,94,-102,-216,0
91457102,0,263178,0.114376314,0.1770057,0.32576084,50.370716,0.0015,99,-105,-233,0
91557110,0,263178,0.13059403,0.17526427,0.3000127,50.364723,0.0015,100,-114,-216,0
91659501,0,263178,0.11978221,0.17874713,0.2666916,50.37371,0.0015,98,-108,-194,0
91768351,0,263178,0.1269901,0.20661005,0.29395434,50.39168,0.0015,82,-112,-212,0
91859502,0,263178,0.07653497,0.18919572,0.30910027,50.41564,0.0015,92,-84,-222,0
91969928,0,263178,0.10536646,0.18571286,0.27275,50.40666,0.0015,94,-100,-198,0
92070740,0,263178,0.07833694,0.16655709,0.28335217,50.42463,0.0015,105,-85,-205,0
92170704,0,263178,0.11798024,0.19093716,0.29546893,50.400665,0.0015,91,-107,-213,0
92273101,0,263178,0.13960387,0.19442002,0.26820618,50.394676,0.0015,89,-119,-195,0
92372326,0,263178,0.1720393,0.19790289,0.27729377,50.41564,0.0015,87,-137,-201,0
92473102,0,263178,0.1720393,0.20138577,0.265177,50.394676,0.0015,85,-137,-193,0
92583502,0,263178,0.17023733,0.18919572,0.2636624,50.36173,0.0015,92,-136,-192,0
92684302,0,263178,0.15762354,0.20486861,0.27426457,50.40666,0.0015,83,-129,-199,0
92784302,0,263178,0.11978221,0.18222998,0.3030419,50.445595,0.0015,96,-108,-218,0
92886727,0,263178,0.10356449,0.17352283,0.3045565,50.445595,0.0015,101,-99,-219,0
92985924,0,263178,0.101762526,0.19616146,0.2969835,50.42463,0.0015,88,-98,-214,0
93086743,0,263178,0.121584184,0.19442002,0.2924397,50.41564,0.0015,89,-109,-211,0
93186702,0,263178,0.11978221,0.18571286,0.29092512,50.445595,0.0015,94,-108,-210,0
93277101,0,263178,0.07653497,0.16829853,0.31515867,50.44859,0.0015,104,-84,-226,0
93397902,0,263178,0.05130741,0.16133279,0.31515867,50.42463,0.0015,108,-70,-226,0
93488368,0,263178,0.089148745,0.19790289,0.28941053,50.418636,0.0015,87,-91,-209,0
93599502,0,263178,0.09996056,0.18048857,0.27426457,50.42163,0.0015,97,-97,-199,0
93700303,0,263178,0.10536646,0.19616146,0.27880836,50.433613,0.0015,88,-100,-202,0
93800302,0,263178,0.11978221,0.19616146,0.27880836,50.41564,0.0015,88,-108,-202,0
93900302,0,263178,0.09996056,0.18397142,0.28941053,50.418636,0.0015,95,-97,-209,0
94002710,0,263178,0.11257434,0.18919572,0.3000127,50.44859,0.0015,92,-104,-216,0
94101960,0,263178,0.074733004,0.18048857,0.3045565,50.4426,0.0015,97,-83,-219,0
94202702,0,263178,0.101762526,0.17526427,0.3000127,50.418636,0.0015,100,-98,-216,0
94313106,0,263178,0.11978221,0.18919572,0.28486675,50.427624,0.0015,92,-108,-206,0
94413902,0,263178,0.1378019,0.19267859,0.2969835,50.469555,0.0015,90,-118,-214,0
94513901,0,263178,0.1269901,0.17874713,0.28183755,50.457573,0.0015,98,-112,-204,0
94616301,0,263178,0.1089704,0.17526427,0.2969835,50.475544,0.0015,100,-102,-214,0
94715501,0,263178,0.11077237,0.18745428,0.29546893,50.46656,0.0015,93,-103,-213,0
94816315,0,263178,0.10536646,0.18222998,0.28183755,50.46057,0.0015,96,-100,-204,0
94916337,0,263178,0.107168436,0.18397142,0.2984981,50.475544,0.0015,95,-101,-215,0
95018701,0,263178,0.074733004,0.18397142,0.28941053,50.427624,0.0015,95,-83,-209,0
95127502,0,263178,0.0981586,0.17526427,0.28789595,50.475544,0.0015,100,-96,-208,0
95229902,0,263178,0.13059403,0.19267859,0.28486675,50.457573,0.0015,90,-114,-206,0
95329111,0,263178,0.094554655,0.17874713,0.31515867,50.475544,0.0015,98,-94,-226,0
95429902,0,263178,0.116178274,0.17874713,0.28789595,50.493515,0.0015,98,-106,-208,0
95529902,0,263178,0.09635662,0.18397142,0.29546893,50.487526,0.0015,95,-95,-213,0
95632302,0,263178,0.11077237,0.19442002,0.27123538,50.478542,0.0015,89,-103,-197,0
95731513,0,263178,0.08554481,0.19093716,0.28638133,50.46656,0.0015,91,-89,-207,0
95832346,0,263178,0.10536646,0.18222998,0.2606332,50.475544,0.0015,96,-100,-190,0
95932302,0,263178,0.0981586,0.18222998,0.2757792,50.481537,0.0015,96,-96,-200,0
96034702,0,263178,0.09635662,0.19442002,0.2621478,50.445595,0.0015,89,-95,-191,0
96143502,0,263178,0.09095072,0.19267859,0.29092512,50.49052,0.0015,90,-92,-210,0
96234702,0,263178,0.101762526,0.16829853,0.32121703,50.487526,0.0015,104,-98,-230,0
96345901,0,263178,0.13419797,0.19267859,0.2697208,50.46656,0.0015,90,-116,-196,0
96445902,0,263178,0.10536646,0.21705866,0.2636624,50.48453,0.0015,76,-100,-192,0
96545937,0,263178,0.116178274,0.18919572,0.28183755,50.496513,0.0015,92,-106,-204,0
96648343,0,263178,0.11077237,0.18048857,0.28941053,50.487526,0.0015,97,-103,-209,0
96747580,0,263178,0.12338615,0.18571286,0.3060711,50.502502,0.0015,94,-110,-220,0
96848369,0,263178,0.09275269,0.18745428,0.27426457,50.478542,0.0015,93,-93,-199,0
96948328,0,263178,0.10536646,0.18222998,0.2757792,50.511486,0.0015,96,-100,-200,0
97039544,0,263178,0.116178274,0.19964433,0.27275,50.481537,0.0015,86,-106,-198,0
97150725,0,263178,0.10536646,0.19964433,0.28183755,50.51748,0.0015,86,-100,-204,0
97250702,0,263178,0.114376314,0.19093716,0.29546893,50.487526,0.0015,91,-105,-213,0
97350702,0,263178,0.116178274,0.19964433,0.3030419,50.481537,0.0015,86,-106,-218,0
97461902,0,263178,0.1089704,0.18919572,0.2969835,50.514484,0.0015,92,-102,-214,0
97561915,0,263178,0.107168436,0.19442002,0.28335217,50.50849,0.0015,89,-101,-205,0
97661902,0,263178,0.08374284,0.16829853,0.3030419,50.50849,0.0015,104,-88,-218,0
97764317,0,263178,0.08013891,0.16829853,0.3030419,50.499508,0.0015,104,-86,-218,0
97863501,0,263178,0.11257434,0.18919572,0.27880836,50.505497,0.0015,92,-104,-202,0
97964302,0,263178,0.09095072,0.19964433,0.28789595,50.502502,0.0015,86,-92,-208,0
98074739,0,263178,0.094554655,0.19267859,0.3060711,50.493515,0.0015,90,-94,-220,0
98175536,0,263178,0.10536646,0.19616146,0.3060711,50.514484,0.0015,88,-100,-220,0
98275511,0,263178,0.11798024,0.20138577,0.3045565,50.53545,0.0015,85,-107,-219,0
98377901,0,263178,0.11077237,0.19442002,0.3045565,50.529457,0.0015,89,-103,-219,0
98477131,0,263178,0.08194087,0.19790289,0.28335217,50.532455,0.0015,87,-87,-205,0
98577929,0,263178,0.09095072,0.19267859,0.3000127,50.550426,0.0015,90,-92,-216,0
98677902,0,263178,0.10536646,0.18919572,0.28789595,50.526463,0.0015,92,-100,-208,0
98780324,0,263178,0.09996056,0.20138577,0.28335217,50.538445,0.0015,85,-97,-205,0
98879501,0,263178,0.1089704,0.18571286,0.2969835,50.544434,0.0015,94,-102,-214,0
98980301,0,263178,0.11798024,0.20138577,0.2924397,50.550426,0.0015,85,-107,-211,0
99090702,0,263178,0.121584184,0.20835148,0.27426457,50.53545,0.0015,81,-109,-199,0
99191502,0,263178,0.101762526,0.18919572,0.3000127,50.58337,0.0015,92,-98,-216,0
99291511,0,263178,0.08194087,0.18397142,0.29546893,50.556416,0.0015,95,-87,-213,0
99393902,0,263178,0.08374284,0.19267859,0.29395434,50.538445,0.0015,90,-88,-212,0
99493901,0,263178,0.11978221,0.18919572,0.28183755,50.568398,0.0015,92,-108,-204,0
99593904,0,263178,0.0981586,0.18919572,0.29092512,50.514484,0.0015,92,-96,-210,0
99693902,0,263178,0.11077237,0.18048857,0.27729377,50.57738,0.0015,97,-103,-201,0
99796304,0,263178,0.094554655,0.18919572,0.3060711,50.55941,0.0015,92,-94,-220,0
99905102,0,263178,0.09996056,0.19790289,0.29546893,50.574387,0.0015,87,-97,-213,0
99996329,0,263178,0.11978221,0.18222998,0.27275,50.568398,0.0015,96,-108,-198,0
100107539,0,263178,0.08554481,0.18745428,0.28032294,50.589363,0.0015,93,-89,-203,0
100207504,0,263178,0.107168436,0.19093716,0.27123538,50.568398,0.0015,91,-101,-197,0
100307520,0,263178,0.11257434,0.20661005,0.2666916,50.571392,0.0015,82,-104,-194,0
100409936,0,263178,0.094554655,0.18571286,0.28183755,50.550426,0.0015,94,-94,-204,0
100518702,0,263178,0.1089704,0.18919572,0.27880836,50.574387,0.0015,92,-102,-202,0
100619505,0,263178,0.10536646,0.18919572,0.2757792,50.580376,0.0015,92,-100,-200,0
100721123,0,263178,0.09275269,0.20486861,0.3045565,50.54743,0.0015,83,-93,-219,0
100821102,0,263178,0.116178274,0.20312718,0.27880836,50.613323,0.0015,84,-106,-202,0
100921114,0,263178,0.116178274,0.18919572,0.25457484,50.55941,0.0015,92,-106,-186,0
101023506,0,263178,0.11798024,0.20486861,0.28638133,50.58637,0.0015,83,-107,-207,0
101123502,0,263178,0.1089704,0.17874713,0.2606332,50.592358,0.0015,98,-102,-190,0
101223502,0,263178,0.11798024,0.1770057,0.25911862,50.556416,0.0015,99,-107,-189,0
101323516,0,263178,0.101762526,0.19616146,0.2666916,50.574387,0.0015,88,-98,-194,0
101434737,0,263178,0.11978221,0.18571286,0.2697208,50.556416,0.0015,94,-108,-196,0
101536302,0,263178,0.10536646,0.20312718,0.28789595,50.58637,0.0015,84,-100,-208,0
101637107,0,263178,0.09275269,0.18397142,0.31364408,50.595352,0.0015,95,-93,-225,0
101737136,0,263178,0.0981586,0.18571286,0.34242138,50.58637,0.0015,94,-96,-244,0
101837102,0,263178,0.11257434,0.17526427,0.31818786,50.5654,0.0015,100,-104,-228,0
101938726,0,263178,0.089148745,0.1770057,0.32273164,50.619312,0.0015,99,-91,-231,0
102039536,0,263178,0.09275269,0.16655709,0.3075857,50.60134,0.0015,105,-93,-221,0
102139502,0,263178,0.101762526,0.17178139,0.3030419,50.57738,0.0015,102,-98,-218,0
102239502,0,263178,0.11798024,0.19442002,0.28638133,50.58337,0.0015,89,-107,-207,0
102341104,0,263178,0.11798024,0.17352283,0.31364408,50.613323,0.0015,101,-107,-225,0
102450702,0,263178,0.08554481,0.18745428,0.32576084,50.60134,0.0015,93,-89,-233,0
102551502,0,263178,0.10356449,0.16655709,0.36211112,50.556416,0.0015,105,-99,-257,0
102653123,0,263178,0.114376314,0.18397142,0.31667328,50.592358,0.0015,95,-105,-227,0
102753101,0,263178,0.114376314,0.19442002,0.24397266,50.607334,0.0015,89,-105,-179,0
102853102,0,263178,0.0981586,0.18919572,0.29092512,50.574387,0.0015,92,-96,-210,0
102953902,0,263178,0.09635662,0.18048857,0.29546893,50.60134,0.0015,97,-95,-213,0
103053917,0,263178,0.11978221,0.18222998,0.30910027,50.598347,0.0015,96,-108,-222,0
103155501,0,263178,0.114376314,0.18048857,0.28941053,50.613323,0.0015,97,-105,-209,0
103265120,0,263178,0.114376314,0.19790289,0.2924397,50.60434,0.0015,87,-105,-211,0
103366736,0,263178,0.1089704,0.19616146,0.27880836,50.595352,0.0015,88,-102,-202,0
103466702,0,263178,0.09635662,0.1770057,0.2924397,50.607334,0.0015,99,-95,-211,0
103567502,0,263178,0.0981586,0.18919572,0.31212947,50.637283,0.0015,92,-96,-224,0
103667502,0,263178,0.11077237,0.18397142,0.3075857,50.655254,0.0015,95,-103,-221,0
103769107,0,263178,0.12518811,0.19093716,0.27426457,50.625305,0.0015,91,-111,-199,0
103878702,0,263178,0.107168436,0.19442002,0.27729377,50.62231,0.0015,89,-101,-201,0
103980302,0,263178,0.10536646,0.20312718,0.28183755,50.616318,0.0015,84,-100,-204,0
104080301,0,263178,0.10536646,0.21009292,0.3060711,50.63429,0.0015,80,-100,-220,0
104181102,0,263178,0.11077237,0.19093716,0.3075857,50.64627,0.0015,91,-103,-221,0
104281107,0,263178,0.114376314,0.18397142,0.29546893,50.64028,0.0015,95,-105,-213,0
104382701,0,263178,0.09996056,0.19442002,0.3075857,50.643276,0.0015,89,-97,-221,0
104482702,0,263178,0.09635662,0.18745428,0.3075857,50.619312,0.0015,93,-95,-221,0
104583502,0,263178,0.11978221,0.18919572,0.29395434,50.625305,0.0015,92,-108,-212,0
104673901,0,263178,0.10536646,0.20312718,0.28183755,50.667236,0.0015,84,-100,-204,0
104785102,0,263178,0.089148745,0.18745428,0.28335217,50.6283,0.0015,93,-91,-205,0
104885902,0,263178,0.10536646,0.18919572,0.3060711,50.63429,0.0015,92,-100,-220,0
104985902,0,263178,0.116178274,0.18571286,0.2969835,50.631294,0.0015,94,-106,-214,0
105077102,0,263178,0.09275269,0.19442002,0.3045565,50.67023,0.0015,89,-93,-219,0
105197114,0,263178,0.089148745,0.18048857,0.28941053,50.64028,0.0015,97,-91,-209,0
105288302,0,263178,0.094554655,0.19616146,0.31515867,50.649265,0.0015,88,-94,-226,0
105398703,0,263178,0.10536646,0.17874713,0.28789595,50.676224,0.0015,98,-100,-208,0
105499502,0,263178,0.101762526,0.19616146,0.3000127,50.637283,0.0015,88,-98,-216,0
105599502,0,263178,0.11257434,0.19964433,0.3000127,50.667236,0.0015,86,-104,-216,0
105701936,0,263178,0.101762526,0.18919572,0.30910027,50.658253,0.0015,92,-98,-222,0
105801102,0,263178,0.114376314,0.17352283,0.3015273,50.718155,0.0015,101,-105,-217,0
105901902,0,263178,0.107168436,0.20835148,0.31970245,50.691196,0.0015,81,-101,-229,0
106001901,0,263178,0.0981586,0.18222998,0.2969835,50.682213,0.0015,96,-96,-214,0
106104302,0,263178,0.11257434,0.18571286,0.3030419,50.6882,0.0015,94,-104,-218,0
106203505,0,263178,0.11257434,0.18571286,0.29092512,50.685207,0.0015,94,-104,-210,0
106315502,0,263178,0.11257434,0.19964433,0.30910027,50.655254,0.0015,86,-104,-222,0
106414702,0,263178,0.107168436,0.19790289,0.3075857,50.71516,0.0015,87,-101,-221,0
106515502,0,263178,0.11798024,0.18745428,0.2924397,50.6882,0.0015,93,-107,-211,0
106615556,0,263178,0.10536646,0.19964433,0.31515867,50.67922,0.0015,86,-100,-226,0
106717901,0,263178,0.08374284,0.17526427,0.3030419,50.718155,0.0015,100,-88,-218,0
106817107,0,263178,0.094554655,0.17874713,0.28789595,50.67023,0.0015,98,-94,-208,0
106917902,0,263178,0.08374284,0.18222998,0.29092512,50.65226,0.0015,96,-88,-210,0
107028322,0,263178,0.09996056,0.19093716,0.2984981,50.709167,0.0015,91,-97,-215,0
107129107,0,263178,0.094554655,0.19267859,0.31212947,50.718155,0.0015,90,-94,-224,0
107229102,0,263178,0.11077237,0.18397142,0.31061488,50.730137,0.0015,95,-103,-223,0
107331552,0,263178,0.11077237,0.18048857,0.31364408,50.706173,0.0015,97,-103,-225,0
107431501,0,263178,0.10356449,0.18745428,0.3045565,50.694195,0.0015,93,-99,-219,0
107531505,0,263178,0.11798024,0.18397142,0.29546893,50.71516,0.0015,95,-107,-213,0
107631502,0,263178,0.0981586,0.19964433,0.29092512,50.709167,0.0015,86,-96,-210,0
107733901,0,263178,0.11077237,0.19790289,0.27123538,50.709167,0.0015,87,-103,-197,0
107833902,0,263178,0.114376314,0.18397142,0.27729377,50.69719,0.0015,95,-105,-201,0
107933902,0,263178,0.101762526,0.18222998,0.30910027,50.700184,0.0015,96,-98,-222,0
108033902,0,263178,0.1089704,0.17526427,0.29092512,50.71516,0.0015,100,-102,-210,0
108136302,0,263178,0.09635662,0.20486861,0.3045565,50.67922,0.0015,83,-95,-219,0
108245906,0,263178,0.12879205,0.18397142,0.28638133,50.730137,0.0015,95,-113,-207,0
108347502,0,263178,0.114376314,0.19790289,0.2924397,50.73313,0.0015,87,-105,-211,0
108447502,0,263178,0.116178274,0.18222998,0.30910027,50.709167,0.0015,96,-106,-222,0
108547502,0,263178,0.09635662,0.18745428,0.31061488,50.72714,0.0015,93,-95,-223,0
108649102,0,263178,0.11798024,0.1770057,0.28638133,50.685207,0.0015,99,-107,-207,0
108749902,0,263178,0.114376314,0.19790289,0.27729377,50.736126,0.0015,87,-105,-201,0
108849902,0,263178,0.0981586,0.17874713,0.28789595,50.72115,0.0015,98,-96,-208,0
108949902,0,263178,0.1089704,0.18919572,0.28789595,50.73313,0.0015,92,-102,-208,0
109051502,0,263178,0.09275269,0.19790289,0.31061488,50.72115,0.0015,87,-93,-223,0
109161105,0,263178,0.10536646,0.18571286,0.29092512,50.694195,0.0015,94,-100,-210,0
109262702,0,263178,0.0981586,0.18919572,0.31212947,50.73912,0.0015,92,-96,-224,0
109363502,0,263178,0.11077237,0.17352283,0.29546893,50.718155,0.0015,101,-103,-213,0
109463502,0,263178,0.08554481,0.1770057,0.3015273,50.72115,0.0015,99,-89,-217,0
109563502,0,263178,0.1089704,0.19616146,0.2666916,50.72714,0.0015,88,-102,-194,0
109674740,0,263178,0.09095072,0.18919572,0.28486675,50.73912,0.0015,92,-92,-206,0
110891502,0,263178,0.11077237,0.18397142,0.31364408,50.781055,0.0015,95,-103,-225,0
111093101,0,263178,0.11257434,0.18571286,0.3030419,50.76308,0.0015,94,-104,-218,0
111193124,0,263178,0.1089704,0.17874713,0.29092512,50.75709,0.0015,98,-102,-210,0
111293902,0,263178,0.11077237,0.18048857,0.31364408,50.736126,0.0015,97,-103,-225,0
111393902,0,263178,0.101762526,0.18919572,0.3000127,50.772068,0.0015,92,-98,-216,0
111495501,0,263178,0.11978221,0.19267859,0.3000127,50.778057,0.0015,90,-108,-216,0
111605107,0,263178,0.089148745,0.18397142,0.2984981,50.754097,0.0015,95,-91,-215,0
111706719,0,263178,0.10356449,0.19093716,0.2984981,50.74511,0.0015,91,-99,-215,0
111806701,0,263178,0.09996056,0.18048857,0.29546893,50.760086,0.0015,97,-97,-213,0
111907530,0,263178,0.11077237,0.18048857,0.3075857,50.748108,0.0015,97,-103,-221,0
112007501,0,263178,0.13239598,0.18397142,0.31061488,50.793034,0.0015,95,-115,-223,0
112109102,0,263178,0.10356449,0.19093716,0.29546893,50.778057,0.0015,91,-99,-213,0
112209102,0,263178,0.09095072,0.17874713,0.2757792,50.793034,0.0015,98,-92,-200,0
112309902,0,263178,0.0981586,0.18919572,0.30910027,50.78405,0.0015,92,-96,-222,0
112409902,0,263178,0.0981586,0.18222998,0.3030419,50.787045,0.0015,96,-96,-218,0
112511501,0,263178,0.114376314,0.18048857,0.3015273,50.805016,0.0015,97,-105,-217,0
112621133,0,263178,0.10536646,0.17874713,0.3060711,50.805016,0.0015,98,-100,-220,0
112722762,0,263178,0.114376314,0.18048857,0.28941053,50.787045,0.0015,97,-105,-209,0
112822701,0,263178,0.10356449,0.17352283,0.32576084,50.83497,0.0015,101,-99,-233,0
112923502,0,263178,0.09996056,0.18048857,0.29546893,50.822987,0.0015,97,-97,-213,0
113023501,0,263178,0.09996056,0.18048857,0.27729377,50.82598,0.0015,97,-97,-201,0
113125123,0,263178,0.11798024,0.1770057,0.32576084,50.822987,0.0015,99,-107,-233,0
113225902,0,263178,0.1089704,0.19616146,0.3060711,50.819992,0.0015,88,-102,-220,0
113325910,0,263178,0.089148745,0.1770057,0.3015273,50.811005,0.0015,99,-91,-217,0
113417102,0,263178,0.09996056,0.18048857,0.2984981,50.822987,0.0015,97,-97,-215,0
113537129,0,263178,0.10356449,0.1770057,0.3015273,50.772068,0.0015,99,-99,-217,0
113628343,0,263178,0.121584184,0.1770057,0.29546893,50.840958,0.0015,99,-109,-213,0
113738702,0,263178,0.101762526,0.17526427,0.31818786,50.814,0.0015,100,-98,-228,0
113839545,0,263178,0.09996056,0.1770057,0.3075857,50.811005,0.0015,99,-97,-221,0
113939501,0,263178,0.11077237,0.17352283,0.3045565,50.828976,0.0015,101,-103,-219,0
114041949,0,263178,0.12879205,0.19790289,0.3045565,50.814,0.0015,87,-113,-219,0
114141101,0,263178,0.089148745,0.19790289,0.29546893,50.828976,0.0015,87,-91,-213,0
114241902,0,263178,0.11077237,0.18745428,0.3015273,50.819992,0.0015,93,-103,-217,0
114341902,0,263178,0.0981586,0.17874713,0.3060711,50.84994,0.0015,98,-96,-220,0
114444301,0,263178,0.12338615,0.18919572,0.3030419,50.814,0.0015,92,-110,-218,0
114553168,0,263178,0.11257434,0.19616146,0.28789595,50.83497,0.0015,88,-104,-208,0
114655501,0,263178,0.1269901,0.18919572,0.3000127,50.805016,0.0015,92,-112,-216,0
114754701,0,263178,0.09635662,0.18397142,0.31667328,50.843952,0.0015,95,-95,-227,0
114855501,0,263178,0.11257434,0.16481566,0.29092512,50.83197,0.0015,106,-104,-210,0
114955501,0,263178,0.11257434,0.18919572,0.3000127,50.822987,0.0015,92,-104,-216,0
115066747,0,263178,0.13960387,0.19093716,0.29546893,50.840958,0.0015,91,-119,-213,0
115168349,0,263178,0.1089704,0.19267859,0.30910027,50.822987,0.0015,90,-102,-222,0
115269101,0,263178,0.0981586,0.19267859,0.27275,50.83497,0.0015,90,-96,-198,0
115369101,0,263178,0.08734678,0.20312718,0.2969835,50.816998,0.0015,84,-90,-214,0
115469114,0,263178,0.12338615,0.18571286,0.2757792,50.846947,0.0015,94,-110,-200,0
115569918,0,263178,0.11257434,0.16829853,0.3060711,50.83197,0.0015,104,-104,-220,0
115671501,0,263178,0.121584184,0.17352283,0.3045565,50.83197,0.0015,101,-109,-219,0
115781940,0,263178,0.10536646,0.19964433,0.28183755,50.879894,0.0015,86,-100,-204,0
115882732,0,263178,0.11978221,0.18919572,0.28486675,50.843952,0.0015,92,-108,-206,0
115982702,0,263178,0.121584184,0.1770057,0.29546893,50.855934,0.0015,99,-109,-213,0
116082702,0,263178,0.11978221,0.17874713,0.29092512,50.88888,0.0015,98,-108,-210,0
116183502,0,263178,0.11077237,0.16307423,0.2984981,50.840958,0.0015,107,-103,-215,0
116285102,0,263178,0.101762526,0.18571286,0.2969835,50.80801,0.0015,94,-98,-214,0
116385102,0,263178,0.0981586,0.17874713,0.2969835,50.84994,0.0015,98,-96,-214,0
116485903,0,263178,0.11257434,0.18571286,0.29395434,50.83497,0.0015,94,-104,-212,0
116585931,0,263178,0.114376314,0.20486861,0.27729377,50.867912,0.0015,83,-105,-201,0
116697102,0,263178,0.11257434,0.18571286,0.29395434,50.84994,0.0015,94,-104,-212,0
116797107,0,263178,0.11978221,0.17874713,0.29092512,50.88289,0.0015,98,-108,-210,0
116898702,0,263178,0.0981586,0.17526427,0.3000127,50.855934,0.0015,100,-96,-216,0
116998701,0,263178,0.1089704,0.16481566,0.3030419,50.861923,0.0015,106,-102,-218,0
117099501,0,263178,0.10536646,0.19616146,0.28183755,50.864918,0.0015,88,-100,-204,0
117190702,0,263178,0.08374284,0.17874713,0.27275,50.88888,0.0015,98,-88,-198,0
117301101,0,263178,0.11798024,0.20835148,0.28032294,50.909847,0.0015,81,-107,-203,0
117401902,0,263178,0.101762526,0.21705866,0.28486675,50.885883,0.0015,76,-98,-206,0
117512336,0,263178,0.121584184,0.25362873,0.27123538,50.87091,0.0015,55,-109,-197,0
117613136,0,263178,0.1089704,0.27975023,0.2333705,50.90086,0.0015,40,-102,-172,0
117713102,0,263178,0.114376314,0.28497452,0.23488508,50.89487,0.0015,37,-105,-173,0
117815501,0,263178,0.0981586,0.30761316,0.2303413,50.891876,0.0015,24,-96,-170,0
117924302,0,263178,0.116178274,0.29368168,0.24245808,50.873905,0.0015,32,-106,-178,0
118015501,0,263178,0.114376314,0.298906,0.24397266,50.87091,0.0015,29,-105,-179,0
118126731,0,263178,0.09996056,0.30587173,0.25608942,50.906853,0.0015,25,-97,-187,0
118226702,0,263178,0.09996056,0.2884574,0.24094348,50.897865,0.0015,35,-97,-177,0
118328368,0,263178,0.12518811,0.28149167,0.24094348,50.91883,0.0015,39,-111,-177,0
118429101,0,263178,0.094554655,0.29368168,0.2333705,50.855934,0.0015,32,-94,-172,0
118529118,0,263178,0.107168436,0.298906,0.21973912,50.909847,0.0015,29,-101,-163,0
118629102,0,263178,0.114376314,0.30238888,0.2318559,50.88888,0.0015,27,-105,-171,0
118731502,0,263178,0.107168436,0.29542312,0.22276832,50.91284,0.0015,31,-101,-165,0
118840330,0,263178,0.114376314,0.2780088,0.23488508,50.92782,0.0015,41,-105,-173,0
118942702,0,263178,0.10536646,0.26930165,0.2697208,50.909847,0.0015,46,-100,-196,0
119042747,0,263178,0.10356449,0.24318014,0.27426457,50.903854,0.0015,61,-99,-199,0
119142708,0,263178,0.12879205,0.20138577,0.27426457,50.87091,0.0015,85,-113,-199,0
119242736,0,263178,0.11257434,0.18919572,0.29395434,50.897865,0.0015,92,-104,-212,0
119345111,0,263178,0.13239598,0.18745428,0.2924397,50.90086,0.0015,93,-115,-211,0
119445102,0,263178,0.13059403,0.17874713,0.27880836,50.94579,0.0015,98,-114,-202,0
119554705,0,263178,0.1486137,0.18571286,0.29546893,50.933807,0.0015,94,-124,-213,0
119646702,0,263178,0.13419797,0.18222998,0.28789595,50.972744,0.0015,96,-116,-208,0
119756308,0,263178,0.11257434,0.19616146,0.30910027,50.936802,0.0015,88,-104,-222,0
119857102,0,263178,0.11077237,0.17352283,0.31061488,50.921825,0.0015,101,-103,-223,0
119958702,0,263178,0.10356449,0.17003997,0.3015273,50.92782,0.0015,103,-99,-217,0
120058702,0,263178,0.13960387,0.21183436,0.27426457,50.933807,0.0015,79,-119,-199,0
120158722,0,263178,0.1774452,0.24143872,0.24548726,50.91883,0.0015,62,-140,-180,0
120269913,0,263178,0.17023733,0.24840444,0.24851644,50.903854,0.0015,58,-136,-182,0
120369901,0,263178,0.1666334,0.23795585,0.24548726,50.930813,0.0015,64,-134,-180,0
120470702,0,263178,0.13059403,0.21705866,0.2666916,50.930813,0.0015,76,-114,-194,0
120572302,0,263178,0.13059403,0.20312718,0.29092512,50.91284,0.0015,84,-114,-210,0
120672301,0,263178,0.11077237,0.18745428,0.29546893,50.88289,0.0015,93,-103,-213,0
120773102,0,263178,0.11798024,0.17352283,0.28032294,50.924824,0.0015,101,-107,-203,0
120883501,0,263178,0.116178274,0.17178139,0.3060711,50.909847,0.0015,102,-106,-220,0
120984302,0,263178,0.09996056,0.1770057,0.28335217,50.921825,0.0015,99,-97,-205,0
121084302,0,263178,0.1378019,0.19267859,0.29092512,50.936802,0.0015,90,-118,-210,0
121185901,0,263178,0.116178274,0.21357578,0.2697208,50.91284,0.0015,78,-106,-196,0
121285901,0,263178,0.1666334,0.19964433,0.27880836,50.930813,0.0015,86,-134,-202,0
121386701,0,263178,0.15221764,0.22402439,0.27275,50.915836,0.0015,72,-126,-198,0
121497153,0,263178,0.1432078,0.19790289,0.3075857,50.91883,0.0015,87,-121,-221,0
121597951,0,263178,0.13059403,0.19964433,0.28486675,50.89487,0.0015,86,-114,-206,0
121698728,0,263178,0.12879205,0.19442002,0.27729377,50.948784,0.0015,89,-113,-201,0
121799526,0,263178,0.121584184,0.19093716,0.28032294,50.942795,0.0015,91,-109,-203,0
121900337,0,263178,0.11257434,0.17874713,0.3000127,50.948784,0.0015,98,-104,-216,0
122000302,0,263178,0.0981586,0.18919572,0.29092512,50.930813,0.0015,92,-96,-210,0
122102703,0,263178,0.10356449,0.21183436,0.28941053,50.924824,0.0015,79,-99,-209,0
122202720,0,263178,0.10536646,0.21705866,0.2636624,50.94579,0.0015,76,-100,-192,0
122302702,0,263178,0.12518811,0.2710431,0.25003102,50.94579,0.0015,45,-111,-183,0
122413902,0,263178,0.11978221,0.28323308,0.27880836,50.95178,0.0015,38,-108,-202,0
122513901,0,263178,0.12338615,0.25885305,0.257604,50.942795,0.0015,52,-110,-188,0
122613902,0,263178,0.114376314,0.21183436,0.28032294,50.91284,0.0015,79,-105,-203,0
122716339,0,263178,0.14500977,0.19964433,0.2757792,50.942795,0.0015,86,-122,-200,0
122816301,0,263178,0.13599993,0.18745428,0.28032294,50.92782,0.0015,93,-117,-203,0
122916302,0,263178,0.114376314,0.19093716,0.27426457,50.95178,0.0015,91,-105,-199,0
123017902,0,263178,0.11798024,0.17352283,0.29546893,50.96975,0.0015,101,-107,-213,0
123118701,0,263178,0.12338615,0.16133279,0.28486675,50.92782,0.0015,108,-110,-206,0
123228325,0,263178,0.13239598,0.21880008,0.27426457,50.942795,0.0015,75,-115,-199,0
123329902,0,263178,0.15582158,0.22750725,0.2606332,50.957767,0.0015,70,-128,-190,0
123429902,0,263178,0.16302946,0.24492158,0.24548726,50.930813,0.0015,60,-132,-180,0
123529940,0,263178,0.1720393,0.23273155,0.2621478,50.936802,0.0015,67,-137,-191,0
123630701,0,263178,0.16843536,0.22228296,0.23791426,50.921825,0.0015,73,-135,-175,0
123732303,0,263178,0.11077237,0.19093716,0.2984981,50.960766,0.0015,91,-103,-215,0
123832341,0,263178,0.0981586,0.18571286,0.28789595,50.909847,0.0015,94,-96,-208,0
123932302,0,263178,0.09996056,0.18048857,0.28941053,50.957767,0.0015,97,-97,-209,0
124033103,0,263178,0.0981586,0.14391847,0.2969835,50.96376,0.0015,118,-96,-214,0
124134738,0,263178,0.07112906,0.107348375,0.32576084,50.96376,0.0015,139,-81,-233,0
124244302,0,263178,0.024277883,0.055105392,0.32576084,50.936802,0.0015,169,-55,-233,0
124345901,0,263178,0.031485755,0.107348375,0.36816952,50.94579,0.0015,139,-59,-261,0
124445914,0,263178,0.089148745,0.15959138,0.31970245,50.966755,0.0015,109,-91,-229,0
124546706,0,263178,0.08374284,0.15436707,0.3060711,50.933807,0.0015,112,-88,-220,0
124646701,0,263178,0.09275269,0.18397142,0.2984981,50.942795,0.0015,95,-93,-215,0
124748328,0,263178,0.11077237,0.19442002,0.28941053,50.94579,0.0015,89,-103,-209,0
124848342,0,263178,0.11077237,0.19093716,0.28335217,50.942795,0.0015,91,-103,-205,0
124949102,0,263178,0.13059403,0.19267859,0.27275,50.94579,0.0015,90,-114,-198,0
125049102,0,263178,0.11978221,0.19616146,0.2697208,50.924824,0.0015,88,-108,-196,0
125150701,0,263178,0.14681174,0.22228296,0.2621478,50.954773,0.0015,73,-123,-191,0
125250701,0,263178,0.15582158,0.25885305,0.2636624,50.957767,0.0015,52,-128,-192,0
125351502,0,263178,0.15041569,0.26407734,0.23791426,50.96975,0.0015,49,-125,-175,0
125461912,0,263178,0.14681174,0.22228296,0.24094348,50.94579,0.0015,73,-123,-177,0
125562732,0,263178,0.13239598,0.20138577,0.28638133,50.99371,0.0015,85,-115,-207,0
125653102,0,263178,0.11798024,0.19442002,0.27426457,50.996708,0.0015,89,-107,-199,0
125764369,0,263178,0.08734678,0.19267859,0.3000127,50.98772,0.0015,90,-90,-216,0
125865152,0,263178,0.12879205,0.1770057,0.29546893,50.966755,0.0015,99,-113,-213,0
125965102,0,263178,0.11077237,0.18397142,0.3045565,51.01168,0.0015,95,-103,-219,0
126056302,0,263178,0.107168436,0.19442002,0.27123538,50.96376,0.0015,89,-101,-197,0
126166701,0,263178,0.116178274,0.18571286,0.31212947,50.957767,0.0015,94,-106,-224,0
126267501,0,263178,0.1089704,0.18919572,0.32727543,50.942795,0.0015,92,-102,-234,0
126367502,0,263178,0.09635662,0.19790289,0.28638133,50.954773,0.0015,87,-95,-207,0
126469904,0,263178,0.10356449,0.19093716,0.3045565,50.966755,0.0015,91,-99,-219,0
126578722,0,263178,0.12879205,0.16307423,0.28638133,50.990715,0.0015,107,-113,-207,0
126681128,0,263178,0.0981586,0.18919572,0.3030419,50.97574,0.0015,92,-96,-218,0
126780302,0,263178,0.121584184,0.17003997,0.28638133,50.97574,0.0015,103,-109,-207,0
126881102,0,263178,0.0981586,0.19616146,0.31818786,50.990715,0.0015,88,-96,-228,0
126981104,0,263178,0.094554655,0.18571286,0.29092512,50.984726,0.0015,94,-94,-210,0
