timestamp,error_count,device_id,x,y,z,temperature,scaling,x_raw,y_raw,z_raw,is_external
50799675,0,263202,0.15579894,-0.101458594,0.33608156,40.974842,0.0015,-33,-35,313,0
50898867,0,263202,0.15227027,-0.09422778,0.33313674,40.965855,0.0015,-31,-39,311,0
51007668,0,263202,0.16285628,-0.090612374,0.34491608,40.983826,0.0015,-37,-41,319,0
51106883,0,263202,0.15932761,-0.112304814,0.32724708,40.983826,0.0015,-35,-29,307,0
51205268,0,263202,0.15932761,-0.08338157,0.35080573,41.00479,0.0015,-35,-45,323,0
51304468,0,263202,0.15756328,-0.12857413,0.32577467,41.001797,0.0015,-34,-20,306,0
51412468,0,263202,0.15579894,-0.08338157,0.34197122,40.998802,0.0015,-33,-45,317,0
51511668,0,263202,0.15756328,-0.07795846,0.33755398,40.98682,0.0015,-34,-48,314,0
51610867,0,263202,0.15579894,-0.08338157,0.34491608,40.974842,0.0015,-33,-45,319,0
51709268,0,263202,0.14344859,-0.09603549,0.34344363,41.001797,0.0015,-26,-38,318,0
51819667,0,263202,0.16109195,-0.085189275,0.34933332,41.001797,0.0015,-36,-44,322,0
51918913,0,263202,0.15403461,-0.1068817,0.34344363,40.965855,0.0015,-32,-32,318,0
52016508,0,263202,0.16991363,-0.08699697,0.3478609,40.995808,0.0015,-41,-43,321,0
52115668,0,263202,0.15932761,-0.09784319,0.33313674,41.019768,0.0015,-35,-37,311,0
52224478,0,263202,0.14344859,-0.1032663,0.33755398,40.977837,0.0015,-26,-34,314,0
52323668,0,263202,0.16285628,-0.105074,0.34197122,40.977837,0.0015,-37,-33,317,0
52422901,0,263202,0.16814928,-0.09603549,0.3463885,41.00779,0.0015,-40,-38,320,0
52521291,0,263202,0.15756328,-0.09242008,0.33755398,41.010784,0.0015,-34,-40,314,0
52630868,0,263202,0.18049963,-0.09422778,0.3478609,41.01378,0.0015,-47,-39,321,0
52728511,0,263202,0.15756328,-0.09965089,0.34933332,40.98982,0.0015,-34,-36,322,0
52837268,0,263202,0.16814928,-0.085189275,0.3463885,41.022762,0.0015,-40,-44,320,0
52936468,0,263202,0.15579894,-0.101458594,0.3390264,41.01378,0.0015,-33,-35,315,0
53035667,0,263202,0.15403461,-0.09242008,0.3404988,41.001797,0.0015,-32,-40,316,0
53135667,0,263202,0.16285628,-0.08699697,0.34197122,40.992813,0.0015,-37,-43,317,0
53243668,0,263202,0.16814928,-0.1032663,0.34344363,40.971848,0.0015,-40,-34,318,0
53341310,0,263202,0.14697728,-0.085189275,0.33460915,40.992813,0.0015,-28,-44,312,0
53440468,0,263202,0.17520663,-0.08157386,0.33460915,41.010784,0.0015,-44,-46,312,0
53539667,0,263202,0.15756328,-0.08880468,0.3404988,41.05571,0.0015,-34,-42,316,0
53648467,0,263202,0.16814928,-0.08157386,0.3404988,41.00479,0.0015,-40,-46,316,0
53747667,0,263202,0.15756328,-0.08880468,0.34344363,41.02576,0.0015,-34,-42,318,0
53846867,0,263202,0.15756328,-0.09965089,0.3463885,40.998802,0.0015,-34,-36,320,0
53945267,0,263202,0.15227027,-0.090612374,0.33313674,40.998802,0.0015,-31,-41,311,0
54054890,0,263202,0.15932761,-0.090612374,0.34491608,41.03774,0.0015,-35,-41,319,0
54154868,0,263202,0.15227027,-0.09784319,0.3390264,41.046726,0.0015,-31,-37,315,0
54242887,0,263202,0.17167796,-0.09965089,0.34933332,41.028755,0.0015,-42,-36,322,0
54360472,0,263202,0.16109195,-0.09242008,0.33460915,41.034744,0.0015,-36,-40,312,0
54469288,0,263202,0.14697728,-0.09965089,0.34344363,41.034744,0.0015,-28,-36,318,0
54568469,0,263202,0.16462061,-0.09965089,0.34344363,41.019768,0.0015,-38,-36,318,0
54667667,0,263202,0.15756328,-0.09603549,0.34344363,41.02576,0.0015,-34,-38,318,0
54766869,0,263202,0.16462061,-0.1068817,0.34344363,41.028755,0.0015,-38,-32,318,0
54866068,0,263202,0.15050595,-0.09965089,0.34344363,41.022762,0.0015,-30,-36,318,0
54975667,0,263202,0.15403461,-0.09965089,0.35227814,41.03774,0.0015,-32,-36,324,0
55074089,0,263202,0.15050595,-0.09965089,0.34933332,41.022762,0.0015,-30,-36,322,0
55172468,0,263202,0.16462061,-0.09603549,0.3463885,41.028755,0.0015,-38,-38,320,0
55280479,0,263202,0.16109195,-0.09603549,0.3404988,41.034744,0.0015,-36,-38,316,0
55379712,0,263202,0.15403461,-0.085189275,0.3287195,41.052715,0.0015,-32,-44,308,0
55479667,0,263202,0.16638495,-0.09784319,0.35080573,41.04373,0.0015,-39,-37,323,0
55577268,0,263202,0.16285628,-0.090612374,0.34197122,41.022762,0.0015,-37,-41,317,0
55687667,0,263202,0.16462061,-0.11049711,0.33755398,41.06769,0.0015,-38,-30,314,0
55785268,0,263202,0.16462061,-0.085189275,0.3463885,41.06769,0.0015,-38,-44,320,0
55884468,0,263202,0.16814928,-0.09965089,0.33755398,41.079674,0.0015,-40,-36,314,0
55983667,0,263202,0.15932761,-0.09422778,0.34197122,41.061703,0.0015,-35,-39,317,0
56092468,0,263202,0.15227027,-0.101458594,0.3390264,41.010784,0.0015,-31,-35,315,0
56191668,0,263202,0.15579894,-0.09422778,0.3301919,41.052715,0.0015,-33,-39,309,0
56280468,0,263202,0.16638495,-0.08699697,0.3478609,41.07368,0.0015,-39,-43,321,0
56399667,0,263202,0.16638495,-0.090612374,0.34491608,41.058704,0.0015,-39,-41,319,0
56497268,0,263202,0.16638495,-0.101458594,0.34197122,41.046726,0.0015,-39,-35,317,0
56596467,0,263202,0.1787353,-0.08880468,0.34344363,41.052715,0.0015,-46,-42,318,0
56705268,0,263202,0.15756328,-0.1032663,0.34344363,41.04972,0.0015,-34,-34,318,0
56804487,0,263202,0.15932761,-0.08338157,0.34197122,41.04373,0.0015,-35,-45,317,0
56903667,0,263202,0.15756328,-0.09603549,0.34933332,41.07368,0.0015,-34,-38,322,0
57003667,0,263202,0.16462061,-0.08157386,0.33755398,41.097645,0.0015,-38,-46,314,0
57101268,0,263202,0.15579894,-0.090612374,0.3390264,41.088657,0.0015,-33,-41,315,0
57200468,0,263202,0.16462061,-0.09242008,0.3463885,41.07368,0.0015,-38,-40,320,0
57308513,0,263202,0.14697728,-0.085189275,0.35816783,41.085663,0.0015,-28,-44,328,0
57417268,0,263202,0.15932761,-0.09422778,0.33608156,41.08267,0.0015,-35,-39,313,0
57516467,0,263202,0.16109195,-0.09242008,0.34344363,41.076675,0.0015,-36,-40,318,0
57615667,0,263202,0.16638495,-0.09784319,0.34197122,41.064697,0.0015,-39,-37,317,0
57715715,0,263202,0.16109195,-0.1032663,0.3463885,41.1246,0.0015,-36,-34,320,0
57813268,0,263202,0.1487416,-0.09784319,0.34197122,41.094646,0.0015,-29,-37,317,0
57912468,0,263202,0.15227027,-0.08699697,0.34197122,41.091652,0.0015,-31,-43,317,0
58021268,0,263202,0.15932761,-0.09422778,0.34197122,41.04972,0.0015,-35,-39,317,0
58120469,0,263202,0.1487416,-0.08338157,0.3478609,41.11861,0.0015,-29,-45,321,0
58228492,0,263202,0.17697097,-0.115920216,0.34197122,41.05571,0.0015,-45,-27,317,0
58327680,0,263202,0.16638495,-0.090612374,0.34197122,41.058704,0.0015,-39,-41,317,0
58427667,0,263202,0.16285628,-0.07976616,0.3478609,41.07368,0.0015,-37,-47,321,0
58525308,0,263202,0.15227027,-0.101458594,0.34197122,41.11861,0.0015,-31,-35,317,0
58624468,0,263202,0.15227027,-0.090612374,0.3390264,41.08267,0.0015,-31,-41,315,0
58733278,0,263202,0.17167796,-0.08157386,0.34344363,41.109623,0.0015,-42,-46,318,0
58832510,0,263202,0.15050595,-0.09603549,0.34344363,41.07368,0.0015,-30,-38,318,0
58931667,0,263202,0.14344859,-0.1032663,0.33755398,41.079674,0.0015,-26,-34,314,0
59040468,0,263202,0.15932761,-0.101458594,0.34197122,41.094646,0.0015,-35,-35,317,0
59139691,0,263202,0.16285628,-0.090612374,0.3390264,41.10663,0.0015,-37,-41,315,0
59237267,0,263202,0.16285628,-0.09422778,0.33608156,41.091652,0.0015,-37,-39,313,0
59347667,0,263202,0.16991363,-0.101458594,0.3301919,41.10064,0.0015,-41,-35,309,0
59445278,0,263202,0.16285628,-0.09784319,0.3478609,41.115616,0.0015,-37,-37,321,0
59544468,0,263202,0.15227027,-0.09422778,0.33313674,41.154552,0.0015,-31,-39,311,0
59643675,0,263202,0.15050595,-0.09603549,0.3463885,41.094646,0.0015,-30,-38,320,0
59752468,0,263202,0.16462061,-0.09603549,0.35227814,41.10663,0.0015,-38,-38,324,0
59851679,0,263202,0.16462061,-0.1032663,0.34933332,41.130592,0.0015,-38,-34,322,0
59940468,0,263202,0.15579894,-0.090612374,0.33608156,41.088657,0.0015,-33,-41,313,0
60049268,0,263202,0.1734423,-0.09422778,0.34197122,41.11262,0.0015,-43,-39,317,0
60157268,0,263202,0.16109195,-0.09603549,0.33755398,41.10663,0.0015,-36,-38,314,0
60256468,0,263202,0.1487416,-0.09784319,0.34197122,41.103634,0.0015,-29,-37,317,0
60355667,0,263202,0.16285628,-0.09422778,0.35375056,41.11262,0.0015,-37,-39,325,0
60464477,0,263202,0.16991363,-0.09784319,0.35375056,41.10663,0.0015,-41,-37,325,0
60563667,0,263202,0.16109195,-0.09603549,0.3463885,41.139576,0.0015,-36,-38,320,0
60663669,0,263202,0.16991363,-0.09422778,0.33608156,41.10663,0.0015,-41,-39,313,0
60761268,0,263202,0.15403461,-0.08880468,0.33755398,41.130592,0.0015,-32,-42,314,0
60869267,0,263202,0.16109195,-0.11411252,0.3463885,41.109623,0.0015,-36,-28,320,0
60968468,0,263202,0.15756328,-0.085189275,0.3463885,41.127594,0.0015,-34,-44,320,0
61067706,0,263202,0.16991363,-0.090612374,0.35080573,41.13658,0.0015,-41,-41,323,0
61176468,0,263202,0.15932761,-0.101458594,0.3301919,41.10064,0.0015,-35,-35,309,0
61275701,0,263202,0.16462061,-0.085189275,0.3404988,41.154552,0.0015,-38,-44,316,0
61375667,0,263202,0.15932761,-0.105074,0.33313674,41.14257,0.0015,-35,-33,311,0
61473268,0,263202,0.15050595,-0.1032663,0.35227814,41.148563,0.0015,-30,-34,324,0
61583667,0,263202,0.16638495,-0.09422778,0.34491608,41.115616,0.0015,-39,-39,319,0
61682071,0,263202,0.15756328,-0.085189275,0.33755398,41.127594,0.0015,-34,-44,314,0
61789268,0,263202,0.18226397,-0.1068817,0.34933332,41.16953,0.0015,-48,-32,322,0
61888492,0,263202,0.16814928,-0.08880468,0.33460915,41.13658,0.0015,-40,-42,312,0
61987667,0,263202,0.16285628,-0.101458594,0.33608156,41.14257,0.0015,-37,-35,313,0
62087667,0,263202,0.16638495,-0.08338157,0.33608156,41.139576,0.0015,-39,-45,313,0
62195667,0,263202,0.15756328,-0.08880468,0.3404988,41.16953,0.0015,-34,-42,316,0
62295667,0,263202,0.14168426,-0.07976616,0.3390264,41.145565,0.0015,-25,-47,315,0
62393275,0,263202,0.16109195,-0.085189275,0.34344363,41.196484,0.0015,-36,-44,318,0
62492470,0,263202,0.15932761,-0.09422778,0.34491608,41.16054,0.0015,-35,-39,319,0
62600491,0,263202,0.15579894,-0.09422778,0.33313674,41.157547,0.0015,-33,-39,311,0
62699667,0,263202,0.15932761,-0.09422778,0.35375056,41.154552,0.0015,-35,-39,325,0
62798867,0,263202,0.17167796,-0.09603549,0.34933332,41.163536,0.0015,-42,-38,322,0
62897315,0,263202,0.17167796,-0.1032663,0.34344363,41.151558,0.0015,-42,-34,318,0
63007667,0,263202,0.15756328,-0.09965089,0.33755398,41.14257,0.0015,-34,-36,314,0
63105271,0,263202,0.16285628,-0.108689405,0.34197122,41.148563,0.0015,-37,-31,317,0
63204468,0,263202,0.16462061,-0.09965089,0.3463885,41.14257,0.0015,-38,-36,320,0
63313268,0,263202,0.15932761,-0.101458594,0.33313674,41.133587,0.0015,-35,-35,311,0
63412477,0,263202,0.16109195,-0.09603549,0.3463885,41.175518,0.0015,-36,-38,320,0
63511675,0,263202,0.15403461,-0.09965089,0.3463885,41.16054,0.0015,-32,-36,320,0
63609268,0,263202,0.16109195,-0.08880468,0.33755398,41.184505,0.0015,-36,-42,314,0
63708485,0,263202,0.15403461,-0.09242008,0.3404988,41.184505,0.0015,-32,-40,316,0
63817268,0,263202,0.16109195,-0.08880468,0.33755398,41.184505,0.0015,-36,-42,314,0
63916468,0,263202,0.16109195,-0.09242008,0.35227814,41.178513,0.0015,-36,-40,324,0
64025268,0,263202,0.15227027,-0.08338157,0.3478609,41.181507,0.0015,-31,-45,321,0
64124468,0,263202,0.16462061,-0.085189275,0.3463885,41.163536,0.0015,-38,-44,320,0
64223668,0,263202,0.15227027,-0.09784319,0.34491608,41.175518,0.0015,-31,-37,319,0
64312468,0,263202,0.16285628,-0.08338157,0.33608156,41.19349,0.0015,-37,-45,313,0
64420467,0,263202,0.15579894,-0.08699697,0.3390264,41.184505,0.0015,-33,-43,315,0
64529269,0,263202,0.15932761,-0.08699697,0.3390264,41.190495,0.0015,-35,-43,315,0
64628468,0,263202,0.14697728,-0.11049711,0.34933332,41.16953,0.0015,-28,-30,322,0
64727684,0,263202,0.15756328,-0.08880468,0.3404988,41.184505,0.0015,-34,-42,316,0
64836468,0,263202,0.15050595,-0.085189275,0.3463885,41.157547,0.0015,-30,-44,320,0
64935687,0,263202,0.16285628,-0.08699697,0.3390264,41.148563,0.0015,-37,-43,315,0
65035667,0,263202,0.16285628,-0.06891994,0.33313674,41.214455,0.0015,-37,-53,311,0
65134068,0,263202,0.16109195,-0.08880468,0.34344363,41.181507,0.0015,-36,-42,318,0
65241295,0,263202,0.15756328,-0.074343055,0.34344363,41.21745,0.0015,-34,-50,318,0
65340471,0,263202,0.16109195,-0.09603549,0.34933332,41.223442,0.0015,-36,-38,322,0
65439691,0,263202,0.16109195,-0.09242008,0.3287195,41.19948,0.0015,-36,-40,308,0
65539667,0,263202,0.15756328,-0.09603549,0.3463885,41.19948,0.0015,-34,-38,320,0
65647672,0,263202,0.16109195,-0.085189275,0.34344363,41.19948,0.0015,-36,-44,318,0
65747667,0,263202,0.15579894,-0.101458594,0.33608156,41.21146,0.0015,-33,-35,313,0
65846085,0,263202,0.16109195,-0.09965089,0.35227814,41.178513,0.0015,-36,-36,324,0
65944468,0,263202,0.1487416,-0.09784319,0.34197122,41.22943,0.0015,-29,-37,317,0
66053310,0,263202,0.1487416,-0.108689405,0.34197122,41.208466,0.0015,-29,-31,317,0
66152468,0,263202,0.15050595,-0.09242008,0.33166432,41.202477,0.0015,-30,-40,310,0
66251667,0,263202,0.16638495,-0.08699697,0.34197122,41.21745,0.0015,-39,-43,317,0
66349305,0,263202,0.16285628,-0.07615076,0.33313674,41.20547,0.0015,-37,-49,311,0
66459667,0,263202,0.15756328,-0.1032663,0.3404988,41.247402,0.0015,-34,-34,316,0
66557268,0,263202,0.15227027,-0.090612374,0.34491608,41.220448,0.0015,-31,-41,319,0
66656468,0,263202,0.16285628,-0.090612374,0.34197122,41.22943,0.0015,-37,-41,317,0
66765268,0,263202,0.14344859,-0.09603549,0.33755398,41.202477,0.0015,-26,-38,314,0
66864468,0,263202,0.1487416,-0.09422778,0.3390264,41.21745,0.0015,-29,-39,315,0
66963667,0,263202,0.17167796,-0.1068817,0.34344363,41.244408,0.0015,-42,-32,318,0
67063667,0,263202,0.15756328,-0.1068817,0.3463885,41.202477,0.0015,-34,-32,320,0
67161268,0,263202,0.15756328,-0.085189275,0.33755398,41.226437,0.0015,-34,-44,314,0
67269268,0,263202,0.16991363,-0.105074,0.33608156,41.241413,0.0015,-41,-33,313,0
67368477,0,263202,0.16638495,-0.101458594,0.3390264,41.220448,0.0015,-39,-35,315,0
67467668,0,263202,0.1734423,-0.09422778,0.3390264,41.223442,0.0015,-43,-39,315,0
67567701,0,263202,0.16109195,-0.074343055,0.34344363,41.214455,0.0015,-36,-50,318,0
67675667,0,263202,0.15579894,-0.08699697,0.34491608,41.23842,0.0015,-33,-43,319,0
67775689,0,263202,0.16462061,-0.09965089,0.33755398,41.21745,0.0015,-38,-36,314,0
67873267,0,263202,0.15579894,-0.08338157,0.34491608,41.277355,0.0015,-33,-45,319,0
67972468,0,263202,0.17167796,-0.07795846,0.33166432,41.244408,0.0015,-42,-48,310,0
68080507,0,263202,0.15403461,-0.1032663,0.34933332,41.259384,0.0015,-32,-34,322,0
68189268,0,263202,0.15403461,-0.08157386,0.33166432,41.232426,0.0015,-32,-46,310,0
69000473,0,263202,0.16462061,-0.11049711,0.34933332,41.27436,0.0015,-38,-30,322,0
69099667,0,263202,0.16814928,-0.1068817,0.3404988,41.250397,0.0015,-40,-32,316,0
69199667,0,263202,0.15932761,-0.09784319,0.3390264,41.295326,0.0015,-35,-37,315,0
69307667,0,263202,0.15579894,-0.08699697,0.3390264,41.283344,0.0015,-33,-43,315,0
69407702,0,263202,0.1734423,-0.09784319,0.3566954,41.247402,0.0015,-43,-37,327,0
69505300,0,263202,0.16285628,-0.105074,0.34491608,41.283344,0.0015,-37,-33,319,0
69604468,0,263202,0.15050595,-0.1032663,0.3463885,41.250397,0.0015,-30,-34,320,0
69714068,0,263202,0.16462061,-0.085189275,0.35227814,41.265373,0.0015,-38,-44,324,0
69812468,0,263202,0.16462061,-0.09603549,0.3463885,41.250397,0.0015,-38,-38,320,0
69911710,0,263202,0.16638495,-0.105074,0.33313674,41.28035,0.0015,-39,-33,311,0
70009276,0,263202,0.1487416,-0.101458594,0.33608156,41.283344,0.0015,-29,-35,313,0
70119667,0,263202,0.16109195,-0.085189275,0.35227814,41.244408,0.0015,-36,-44,324,0
70217267,0,263202,0.16109195,-0.085189275,0.3404988,41.283344,0.0015,-36,-44,316,0
70316468,0,263202,0.16109195,-0.09603549,0.33166432,41.244408,0.0015,-36,-38,310,0
70425281,0,263202,0.14521293,-0.08699697,0.3390264,41.28035,0.0015,-27,-43,315,0
70524468,0,263202,0.16285628,-0.090612374,0.3390264,41.27436,0.0015,-37,-41,315,0
70632468,0,263202,0.15756328,-0.09603549,0.33460915,41.22943,0.0015,-34,-38,312,0
70731697,0,263202,0.16638495,-0.105074,0.32430226,41.283344,0.0015,-39,-33,305,0
70831667,0,263202,0.15756328,-0.08880468,0.3228298,41.29233,0.0015,-34,-42,304,0
70929270,0,263202,0.1487416,-0.08338157,0.31841257,41.268368,0.0015,-29,-45,301,0
71028473,0,263202,0.15403461,-0.09965089,0.31694016,41.29233,0.0015,-32,-36,300,0
71137268,0,263202,0.14697728,-0.09242008,0.33460915,41.319286,0.0015,-28,-40,312,0
71236479,0,263202,0.15932761,-0.112304814,0.3301919,41.28634,0.0015,-35,-29,309,0
71335715,0,263202,0.14697728,-0.11411252,0.2816021,41.259384,0.0015,-28,-28,276,0
71443668,0,263202,0.15403461,-0.09603549,0.29338148,41.277355,0.0015,-32,-38,284,0
71543667,0,263202,0.16991363,-0.08338157,0.30074355,41.265373,0.0015,-41,-45,289,0
71642090,0,263202,0.15227027,-0.08699697,0.2889642,41.310303,0.0015,-31,-43,281,0
71740473,0,263202,0.17520663,-0.05626603,0.31399533,41.319286,0.0015,-44,-60,298,0
71849267,0,263202,0.18049963,-0.07253535,0.33166432,41.295326,0.0015,-47,-51,310,0
71948492,0,263202,0.18932131,-0.12857413,0.17264324,41.310303,0.0015,-52,-20,202,0
72047670,0,263202,0.15579894,-0.06891994,0.31546775,41.313297,0.0015,-33,-53,299,0
72147667,0,263202,0.16638495,-0.07615076,0.32430226,41.29233,0.0015,-39,-49,305,0
72255667,0,263202,0.14521293,-0.061689135,0.31546775,41.265373,0.0015,-27,-57,299,0
72354867,0,263202,0.18579264,-0.09242008,0.28454697,41.28634,0.0015,-50,-40,278,0
72452504,0,263202,0.16285628,-0.08338157,0.29779872,41.28035,0.0015,-37,-45,287,0
72551667,0,263202,0.16638495,-0.09422778,0.30074355,41.310303,0.0015,-39,-39,289,0
72660484,0,263202,0.17167796,-0.074343055,0.33460915,41.310303,0.0015,-42,-50,312,0
72759668,0,263202,0.15227027,-0.11953562,0.31841257,41.31629,0.0015,-31,-25,301,0
72858867,0,263202,0.16991363,-0.09422778,0.32430226,41.295326,0.0015,-41,-39,305,0
72957283,0,263202,0.15227027,-0.101458594,0.3301919,41.337257,0.0015,-31,-35,309,0
73066902,0,263202,0.16109195,-0.085189275,0.319885,41.271362,0.0015,-36,-44,302,0
73164467,0,263202,0.16462061,-0.11411252,0.29338148,41.31629,0.0015,-38,-28,284,0
73263668,0,263202,0.16462061,-0.1032663,0.28454697,41.28035,0.0015,-38,-34,278,0
73363667,0,263202,0.15579894,-0.090612374,0.30074355,41.325275,0.0015,-33,-41,289,0
73471667,0,263202,0.14521293,-0.09422778,0.29779872,41.30431,0.0015,-27,-39,287,0
73571667,0,263202,0.17167796,-0.05988143,0.319885,41.328274,0.0015,-42,-58,302,0
73670083,0,263202,0.15579894,-0.08338157,0.30957806,41.32228,0.0015,-33,-45,295,0
73768471,0,263202,0.15403461,-0.08880468,0.31694016,41.31629,0.0015,-32,-42,300,0
73877270,0,263202,0.15579894,-0.07976616,0.30957806,41.30431,0.0015,-33,-47,295,0
73975667,0,263202,0.15227027,-0.07976616,0.32430226,41.319286,0.0015,-31,-47,305,0
74084476,0,263202,0.15050595,-0.074343055,0.32577467,41.328274,0.0015,-30,-50,306,0
74183667,0,263202,0.14697728,-0.09965089,0.33166432,41.319286,0.0015,-28,-36,310,0
74283694,0,263202,0.15050595,-0.08157386,0.30516082,41.325275,0.0015,-30,-46,292,0
74382868,0,263202,0.15932761,-0.08338157,0.3036884,41.301315,0.0015,-35,-45,291,0
74480468,0,263202,0.17167796,-0.074343055,0.30221596,41.313297,0.0015,-42,-50,290,0
74589268,0,263202,0.16814928,-0.1032663,0.30221596,41.328274,0.0015,-40,-34,290,0
74688468,0,263202,0.15579894,-0.07976616,0.2948539,41.34924,0.0015,-33,-47,285,0
74787684,0,263202,0.16109195,-0.09603549,0.30516082,41.29233,0.0015,-36,-38,292,0
74886868,0,263202,0.16991363,-0.07976616,0.31546775,41.334263,0.0015,-41,-47,299,0
74994866,0,263202,0.15756328,-0.085189275,0.31694016,41.307304,0.0015,-34,-44,300,0
75094867,0,263202,0.14697728,-0.1032663,0.30810565,41.34924,0.0015,-28,-34,294,0
75192479,0,263202,0.16638495,-0.07976616,0.3036884,41.28035,0.0015,-39,-47,291,0
75291668,0,263202,0.15932761,-0.07615076,0.31546775,41.346245,0.0015,-35,-49,299,0
75400509,0,263202,0.16285628,-0.090612374,0.2948539,41.301315,0.0015,-37,-41,285,0
75499668,0,263202,0.1381556,-0.09422778,0.30957806,41.334263,0.0015,-23,-39,295,0
75608467,0,263202,0.17167796,-0.08157386,0.30810565,41.325275,0.0015,-42,-46,294,0
75707707,0,263202,0.16638495,-0.07976616,0.30957806,41.310303,0.0015,-39,-47,295,0
75806868,0,263202,0.14521293,-0.09784319,0.31546775,41.31629,0.0015,-27,-37,299,0
75904468,0,263202,0.15227027,-0.08338157,0.30074355,41.337257,0.0015,-31,-45,289,0
76013272,0,263202,0.1787353,-0.05988143,0.30810565,41.33127,0.0015,-46,-58,294,0
76112468,0,263202,0.16462061,-0.07072765,0.2963263,41.33127,0.0015,-38,-52,286,0
76211712,0,263202,0.16285628,-0.06891994,0.3125229,41.33127,0.0015,-37,-53,297,0
76310878,0,263202,0.1787353,-0.05626603,0.28454697,41.340252,0.0015,-46,-60,278,0
76419668,0,263202,0.18049963,-0.06530454,0.29190904,41.346245,0.0015,-47,-55,283,0
76518867,0,263202,0.16991363,-0.05807373,0.28601938,41.343246,0.0015,-41,-59,279,0
76618112,0,263202,0.18226397,-0.07072765,0.31399533,41.31629,0.0015,-48,-52,298,0
76725270,0,263202,0.1787353,-0.06349684,0.31105047,41.310303,0.0015,-46,-56,296,0
76824467,0,263202,0.19637865,-0.05988143,0.31399533,41.334263,0.0015,-56,-58,298,0
76923667,0,263202,0.18755697,-0.06891994,0.2948539,41.337257,0.0015,-51,-53,285,0
77023670,0,263202,0.17520663,-0.074343055,0.29043663,41.364216,0.0015,-44,-50,282,0
77131668,0,263202,0.1840283,-0.047227513,0.29190904,41.33127,0.0015,-49,-65,283,0
77230901,0,263202,0.18932131,-0.05265062,0.29043663,41.376194,0.0015,-52,-62,282,0
77330867,0,263202,0.21225765,-0.07615076,0.27424005,41.319286,0.0015,-65,-49,271,0
77428467,0,263202,0.19990732,-0.06349684,0.2874918,41.346245,0.0015,-58,-56,280,0
77537269,0,263202,0.20696466,-0.085189275,0.26098827,41.36721,0.0015,-62,-44,262,0
77635668,0,263202,0.19814299,-0.05807373,0.2801297,41.36721,0.0015,-57,-59,275,0
77734867,0,263202,0.18755697,-0.06530454,0.29190904,41.358223,0.0015,-51,-55,283,0
77834114,0,263202,0.1734423,-0.07253535,0.2948539,41.340252,0.0015,-43,-51,285,0
77932468,0,263202,0.16462061,-0.07795846,0.29043663,41.361217,0.0015,-38,-48,282,0
78042873,0,263202,0.1787353,-0.1068817,0.26687795,41.35523,0.0015,-46,-32,266,0
78140487,0,263202,0.17520663,-0.1068817,0.29338148,41.364216,0.0015,-44,-32,284,0
78239671,0,263202,0.18226397,-0.12495873,0.2550986,41.370205,0.0015,-48,-22,258,0
78348470,0,263202,0.17167796,-0.12495873,0.27276763,41.376194,0.0015,-42,-22,270,0
78447667,0,263202,0.1487416,-0.101458594,0.29190904,41.33127,0.0015,-29,-35,283,0
78546900,0,263202,0.1734423,-0.09422778,0.30074355,41.382187,0.0015,-43,-39,289,0
78645268,0,263202,0.18049963,-0.07253535,0.29190904,41.346245,0.0015,-47,-51,283,0
78754868,0,263202,0.1734423,-0.07976616,0.30074355,41.352234,0.0015,-43,-47,289,0
78852494,0,263202,0.17167796,-0.074343055,0.2874918,41.36721,0.0015,-42,-50,280,0
78951668,0,263202,0.18755697,-0.07615076,0.2889642,41.3732,0.0015,-51,-49,281,0
79060468,0,263202,0.19637865,-0.08880468,0.29927114,41.352234,0.0015,-56,-42,288,0
79159667,0,263202,0.20167166,-0.09422778,0.26835036,41.3732,0.0015,-59,-39,267,0
79258867,0,263202,0.19461432,-0.07976616,0.26835036,41.358223,0.0015,-55,-47,267,0
79357314,0,263202,0.20520033,-0.07615076,0.2801297,41.36721,0.0015,-61,-49,275,0
79456467,0,263202,0.17697097,-0.05807373,0.30074355,41.376194,0.0015,-45,-59,289,0
79565268,0,263202,0.15579894,-0.123151034,0.28307456,41.37919,0.0015,-33,-23,277,0
79664468,0,263202,0.13991992,-0.12857413,0.2816021,41.35523,0.0015,-24,-20,276,0
79772468,0,263202,0.1487416,-0.18461293,0.2712952,41.343246,0.0015,-29,11,269,0
79871668,0,263202,0.14697728,-0.16111279,0.29338148,41.382187,0.0015,-28,-2,284,0
79970867,0,263202,0.14697728,-0.14303575,0.27571246,41.3732,0.0015,-28,-12,272,0
80070908,0,263202,0.16638495,-0.16292049,0.2536262,41.382187,0.0015,-39,-1,257,0
80178867,0,263202,0.17520663,-0.15388197,0.26687795,41.382187,0.0015,-44,-6,266,0
80278897,0,263202,0.14521293,-0.16292049,0.26540554,41.37919,0.0015,-27,-1,265,0
80376468,0,263202,0.1787353,-0.16111279,0.26982278,41.382187,0.0015,-46,-2,268,0
80475687,0,263202,0.15756328,-0.16834359,0.27571246,41.406147,0.0015,-34,2,272,0
80584467,0,263202,0.1787353,-0.1647282,0.2786573,41.427113,0.0015,-46,0,274,0
80683673,0,263202,0.16462061,-0.12857413,0.29043663,41.39117,0.0015,-38,-20,282,0
80782868,0,263202,0.17520663,-0.09603549,0.29043663,41.37919,0.0015,-44,-38,282,0
81088467,0,263202,0.15932761,-0.07253535,0.28307456,41.400158,0.0015,-35,-51,277,0
81187704,0,263202,0.15756328,-0.074343055,0.2963263,41.3732,0.0015,-34,-50,286,0
81296468,0,263202,0.18049963,-0.08699697,0.2889642,41.39117,0.0015,-47,-43,281,0
81395668,0,263202,0.16285628,-0.07615076,0.28307456,41.388176,0.0015,-37,-49,277,0
81494867,0,263202,0.16285628,-0.07253535,0.29779872,41.382187,0.0015,-37,-51,287,0
81602867,0,263202,0.16814928,-0.085189275,0.29927114,41.412136,0.0015,-40,-44,288,0
81702867,0,263202,0.17697097,-0.07976616,0.29779872,41.41813,0.0015,-45,-47,287,0
81800467,0,263202,0.16638495,-0.08338157,0.28307456,41.39117,0.0015,-39,-45,277,0
81899668,0,263202,0.16109195,-0.07795846,0.29043663,41.412136,0.0015,-36,-48,282,0
82008498,0,263202,0.17520663,-0.08157386,0.30810565,41.400158,0.0015,-44,-46,294,0
82107667,0,263202,0.15579894,-0.07615076,0.29779872,41.388176,0.0015,-33,-49,287,0
82206867,0,263202,0.16814928,-0.07072765,0.31105047,41.41813,0.0015,-40,-52,296,0
82306876,0,263202,0.15579894,-0.08699697,0.29190904,41.4361,0.0015,-33,-43,283,0
82414875,0,263202,0.15756328,-0.08157386,0.25804344,41.412136,0.0015,-34,-46,260,0
82513301,0,263202,0.17520663,-0.074343055,0.28454697,41.412136,0.0015,-44,-50,278,0
82621304,0,263202,0.16991363,-0.047227513,0.31546775,41.41813,0.0015,-41,-65,299,0
82720467,0,263202,0.1840283,-0.029150484,0.29190904,41.44209,0.0015,-49,-75,283,0
82819669,0,263202,0.16638495,-0.0038426449,0.2889642,41.424118,0.0015,-39,-89,281,0
82918867,0,263202,0.1734423,0.01784979,0.29779872,41.445084,0.0015,-43,-101,287,0
83027668,0,263202,0.15932761,0.0033881664,0.29779872,41.439095,0.0015,-35,-93,287,0
83126867,0,263202,0.16462061,0.01242668,0.29043663,41.44209,0.0015,-38,-98,282,0
83226884,0,263202,0.16285628,0.03231141,0.2948539,41.463055,0.0015,-37,-109,285,0
83324467,0,263202,0.15932761,0.014234383,0.27424005,41.457066,0.0015,-35,-99,271,0
84442867,0,263202,0.12051225,0.11908114,0.2889642,41.445084,0.0015,-13,-157,281,0
84550867,0,263202,0.11698357,0.111850336,0.28601938,41.44808,0.0015,-11,-153,279,0
84650867,0,263202,0.11874791,0.12811966,0.30810565,41.48402,0.0015,-12,-162,294,0
84748510,0,263202,0.09757589,0.11365803,0.31694016,41.44808,0.0015,0,-154,300,0
84847667,0,263202,0.12756959,0.10823493,0.2948539,41.47803,0.0015,-17,-151,285,0
84956474,0,263202,0.11874791,0.12811966,0.2816021,41.487015,0.0015,-12,-162,276,0
85055671,0,263202,0.076403864,0.14258128,0.29927114,41.46605,0.0015,12,-170,288,0
85154867,0,263202,0.09228288,0.13354276,0.2801297,41.44808,0.0015,3,-165,275,0
85254870,0,263202,0.08698988,0.12450425,0.28454697,41.46605,0.0015,6,-160,278,0
85362868,0,263202,0.069346525,0.13896587,0.30516082,41.45407,0.0015,16,-168,292,0
85460492,0,263202,0.09404721,0.14619668,0.29927114,41.46605,0.0015,2,-172,288,0
85559670,0,263202,0.088754214,0.14077358,0.2948539,41.45407,0.0015,5,-169,285,0
85658867,0,263202,0.08169687,0.14438899,0.30663323,41.498997,0.0015,9,-171,293,0
85767687,0,263202,0.0834612,0.14981209,0.29927114,41.487015,0.0015,8,-174,288,0
85866867,0,263202,0.07993253,0.16427371,0.26982278,41.493008,0.0015,10,-182,268,0
85966867,0,263202,0.08169687,0.23838954,0.25068134,41.475037,0.0015,9,-223,255,0
86064467,0,263202,0.09228288,0.26369736,0.25657102,41.46006,0.0015,3,-237,259,0
86174877,0,263202,0.0781682,0.26369736,0.23890202,41.50199,0.0015,11,-237,247,0
86273268,0,263202,0.111690566,0.24381264,0.24037443,41.493008,0.0015,-8,-226,248,0
86371668,0,263202,0.088754214,0.24562034,0.26540554,41.507984,0.0015,5,-227,265,0
86479676,0,263202,0.095811546,0.18054304,0.2447917,41.47803,0.0015,1,-191,251,0
86578870,0,263202,0.09051854,0.16788912,0.29043663,41.513973,0.0015,4,-184,282,0
86678900,0,263202,0.088754214,0.14800438,0.2889642,41.51098,0.0015,5,-173,281,0
86776467,0,263202,0.09051854,0.1534275,0.30221596,41.496002,0.0015,4,-176,290,0
86875668,0,263202,0.09404721,0.14981209,0.29043663,41.50199,0.0015,2,-174,282,0
86984467,0,263202,0.09228288,0.162466,0.30663323,41.51098,0.0015,3,-181,293,0
87083668,0,263202,0.08698988,0.13896587,0.29927114,41.493008,0.0015,6,-168,288,0
87193268,0,263202,0.10463323,0.14258128,0.2963263,41.498997,0.0015,-4,-170,286,0
87291672,0,263202,0.09404721,0.14981209,0.29927114,41.525955,0.0015,2,-174,288,0
87390867,0,263202,0.0834612,0.13535048,0.29338148,41.504986,0.0015,8,-166,284,0
87488516,0,263202,0.088754214,0.14077358,0.29779872,41.54093,0.0015,5,-169,287,0
87598901,0,263202,0.08698988,0.16065831,0.2874918,41.513973,0.0015,6,-180,280,0
87696492,0,263202,0.08698988,0.14619668,0.28454697,41.549915,0.0015,6,-172,278,0
87795689,0,263202,0.088754214,0.13354276,0.3036884,41.531944,0.0015,5,-165,291,0
87894867,0,263202,0.088754214,0.14438899,0.2948539,41.50199,0.0015,5,-171,285,0
88003668,0,263202,0.0834612,0.14619668,0.31105047,41.513973,0.0015,8,-172,296,0
88102886,0,263202,0.0781682,0.14800438,0.30074355,41.52895,0.0015,11,-173,289,0
88202867,0,263202,0.09404721,0.14981209,0.29927114,41.504986,0.0015,2,-174,288,0
88300521,0,263202,0.09051854,0.1534275,0.3228298,41.531944,0.0015,4,-176,304,0
88408477,0,263202,0.10286889,0.14077358,0.30074355,41.555904,0.0015,-3,-169,289,0
88507668,0,263202,0.10110456,0.12811966,0.29043663,41.52296,0.0015,-2,-162,282,0
88606907,0,263202,0.08698988,0.14981209,0.2874918,41.55291,0.0015,6,-174,280,0
88715675,0,263202,0.1134549,0.14438899,0.2712952,41.555904,0.0015,-9,-171,269,0
88814879,0,263202,0.09757589,0.14258128,0.27571246,41.531944,0.0015,0,-170,272,0
88914867,0,263202,0.10110456,0.13896587,0.30221596,41.525955,0.0015,-2,-168,290,0
89012516,0,263202,0.088754214,0.14438899,0.2889642,41.496002,0.0015,5,-171,281,0
89111668,0,263202,0.1134549,0.14800438,0.2948539,41.504986,0.0015,-9,-173,285,0
89220468,0,263202,0.085225545,0.12269655,0.27718487,41.55291,0.0015,7,-159,273,0
89319668,0,263202,0.07993253,0.13896587,0.28454697,41.56489,0.0015,10,-168,278,0
89418868,0,263202,0.09404721,0.14258128,0.29043663,41.52296,0.0015,2,-170,282,0
89526889,0,263202,0.088754214,0.13715817,0.29779872,41.537933,0.0015,5,-167,287,0
89626867,0,263202,0.09757589,0.16065831,0.28454697,41.54692,0.0015,0,-180,278,0
89724468,0,263202,0.09404721,0.18596615,0.26687795,41.53494,0.0015,2,-194,266,0
89834909,0,263202,0.09228288,0.2239279,0.23890202,41.52296,0.0015,3,-215,247,0
89932468,0,263202,0.10286889,0.24923573,0.23301236,41.519962,0.0015,-3,-229,243,0
90031667,0,263202,0.08169687,0.26731277,0.20650885,41.525955,0.0015,9,-239,225,0
90140478,0,263202,0.088754214,0.27815896,0.22712268,41.52895,0.0015,5,-245,239,0
90239676,0,263202,0.0834612,0.2908129,0.23448478,41.54093,0.0015,8,-252,244,0
90338867,0,263202,0.08698988,0.23296642,0.2550986,41.53494,0.0015,6,-220,258,0
90436468,0,263202,0.10286889,0.20223548,0.2536262,41.516968,0.0015,-3,-203,257,0
90535667,0,263202,0.10286889,0.17331223,0.2889642,41.52895,0.0015,-3,-187,281,0
90644468,0,263202,0.07463953,0.14800438,0.28601938,41.519962,0.0015,13,-173,279,0
90743705,0,263202,0.106397554,0.11908114,0.2948539,41.537933,0.0015,-5,-157,285,0
90852469,0,263202,0.095811546,0.079311684,0.30663323,41.561897,0.0015,1,-135,293,0
90951703,0,263202,0.08169687,0.09738871,0.33313674,41.558903,0.0015,9,-145,311,0
91050867,0,263202,0.1134549,0.10823493,0.31546775,41.52895,0.0015,-9,-151,299,0
91139668,0,263202,0.09228288,0.12992735,0.30957806,41.555904,0.0015,3,-163,295,0
91249273,0,263202,0.10463323,0.12088885,0.30810565,41.55291,0.0015,-4,-158,294,0
91356468,0,263202,0.106397554,0.15161979,0.2889642,41.525955,0.0015,-5,-175,281,0
91455676,0,263202,0.09228288,0.13354276,0.31841257,41.59784,0.0015,3,-165,301,0
91554867,0,263202,0.09757589,0.13535048,0.31399533,41.56489,0.0015,0,-166,298,0
91663668,0,263202,0.088754214,0.15161979,0.30074355,41.561897,0.0015,5,-175,289,0
91762867,0,263202,0.09934022,0.14800438,0.29779872,41.537933,0.0015,-1,-173,287,0
91862867,0,263202,0.0834612,0.1534275,0.31399533,41.555904,0.0015,8,-176,298,0
91960468,0,263202,0.12756959,0.12631196,0.2889642,41.567886,0.0015,-17,-161,281,0
92068470,0,263202,0.09228288,0.13354276,0.29190904,41.537933,0.0015,3,-165,283,0
92167667,0,263202,0.095811546,0.14438899,0.30074355,41.573875,0.0015,1,-171,289,0
92276468,0,263202,0.12756959,0.1552352,0.2801297,41.54093,0.0015,-17,-177,275,0
92375677,0,263202,0.1787353,0.13173506,0.2786573,41.576874,0.0015,-46,-164,274,0
92474867,0,263202,0.16109195,0.13896587,0.26393312,41.57088,0.0015,-36,-168,264,0
92574882,0,263202,0.15756328,0.13535048,0.2786573,41.573875,0.0015,-34,-166,274,0
92672487,0,263202,0.15756328,0.14258128,0.2816021,41.54093,0.0015,-34,-170,276,0
92782896,0,263202,0.11698357,0.14077358,0.3125229,41.543926,0.0015,-11,-169,297,0
92881270,0,263202,0.10463323,0.13535048,0.29043663,41.576874,0.0015,-4,-166,282,0
92978867,0,263202,0.09404721,0.14981209,0.2963263,41.558903,0.0015,2,-174,286,0
93087668,0,263202,0.095811546,0.14077358,0.2801297,41.57987,0.0015,1,-169,275,0
93186870,0,263202,0.08698988,0.14258128,0.2816021,41.594845,0.0015,6,-170,276,0
93286884,0,263202,0.06758219,0.14077358,0.30957806,41.558903,0.0015,17,-169,295,0
93384467,0,263202,0.058760513,0.14258128,0.30516082,41.57088,0.0015,22,-170,292,0
93483668,0,263202,0.08169687,0.14077358,0.2801297,41.567886,0.0015,9,-169,275,0
93592476,0,263202,0.07993253,0.1534275,0.2874918,41.567886,0.0015,10,-176,280,0
93691668,0,263202,0.07993253,0.16065831,0.30221596,41.59784,0.0015,10,-180,290,0
93799680,0,263202,0.088754214,0.13715817,0.28601938,41.54692,0.0015,5,-167,279,0
93898887,0,263202,0.1081619,0.13535048,0.2816021,41.573875,0.0015,-6,-166,276,0
93998867,0,263202,0.09934022,0.14077358,0.29779872,41.609818,0.0015,-1,-169,287,0
94096468,0,263202,0.10463323,0.14258128,0.29043663,41.594845,0.0015,-4,-170,282,0
94206867,0,263202,0.0781682,0.14800438,0.29779872,41.606823,0.0015,11,-173,287,0
94304467,0,263202,0.0834612,0.14258128,0.2963263,41.555904,0.0015,8,-170,286,0
94403668,0,263202,0.10286889,0.13354276,0.29779872,41.60383,0.0015,-3,-165,287,0
94512473,0,263202,0.10463323,0.12450425,0.2874918,41.59784,0.0015,-4,-160,280,0
94611668,0,263202,0.10286889,0.14077358,0.30074355,41.588852,0.0015,-3,-169,289,0
94710868,0,263202,0.10110456,0.1534275,0.2963263,41.591846,0.0015,-2,-176,286,0
94818867,0,263202,0.08169687,0.16608141,0.29190904,41.561897,0.0015,9,-183,283,0
94918867,0,263202,0.09934022,0.15161979,0.28601938,41.582863,0.0015,-1,-175,279,0
95016478,0,263202,0.10110456,0.13896587,0.2874918,41.56489,0.0015,-2,-168,280,0
95115668,0,263202,0.115219235,0.14258128,0.2816021,41.57987,0.0015,-10,-170,276,0
95225309,0,263202,0.09404721,0.14619668,0.29338148,41.573875,0.0015,2,-172,284,0
95323668,0,263202,0.1134549,0.15885061,0.2889642,41.582863,0.0015,-9,-179,281,0
95422867,0,263202,0.111690566,0.13173506,0.29338148,41.600834,0.0015,-8,-164,284,0
95530868,0,263202,0.09404721,0.12450425,0.30516082,41.594845,0.0015,2,-160,292,0
95630867,0,263202,0.09934022,0.12992735,0.28307456,41.585857,0.0015,-1,-163,277,0
95730099,0,263202,0.10992623,0.12992735,0.2801297,41.612816,0.0015,-7,-163,275,0
95827667,0,263202,0.10463323,0.13896587,0.26982278,41.585857,0.0015,-4,-168,268,0
95936468,0,263202,0.1081619,0.14258128,0.2948539,41.630787,0.0015,-6,-170,285,0
96035712,0,263202,0.09051854,0.1534275,0.2816021,41.63378,0.0015,4,-176,276,0
96134867,0,263202,0.09934022,0.14800438,0.29779872,41.62779,0.0015,-1,-173,287,0
96234102,0,263202,0.09404721,0.14619668,0.29338148,41.561897,0.0015,2,-172,284,0
96342869,0,263202,0.09757589,0.13535048,0.2963263,41.57987,0.0015,0,-166,286,0
96442068,0,263202,0.07993253,0.16065831,0.28454697,41.594845,0.0015,10,-180,278,0
96539690,0,263202,0.09757589,0.13173506,0.29927114,41.585857,0.0015,0,-164,288,0
96638867,0,263202,0.10110456,0.14619668,0.30221596,41.6218,0.0015,-2,-172,290,0
96747714,0,263202,0.09934022,0.14800438,0.29779872,41.62779,0.0015,-1,-173,287,0
96846878,0,263202,0.09934022,0.13354276,0.27718487,41.63977,0.0015,-1,-165,273,0
96946067,0,263202,0.088754214,0.12631196,0.25657102,41.594845,0.0015,5,-161,259,0
97046076,0,263202,0.1134549,0.13354276,0.28307456,41.61581,0.0015,-9,-165,277,0
97154067,0,263202,0.1081619,0.12811966,0.28454697,41.61581,0.0015,-6,-162,278,0
97252475,0,263202,0.09404721,0.1534275,0.29927114,41.624794,0.0015,2,-176,288,0
97351716,0,263202,0.09757589,0.13173506,0.27276763,41.63977,0.0015,0,-164,270,0
97459702,0,263202,0.088754214,0.15161979,0.2948539,41.624794,0.0015,5,-175,285,0
97558868,0,263202,0.09228288,0.14077358,0.28601938,41.594845,0.0015,3,-169,279,0
97658075,0,263202,0.09934022,0.15885061,0.28307456,41.63977,0.0015,-1,-179,277,0
97758067,0,263202,0.10286889,0.15885061,0.2889642,41.59784,0.0015,-3,-179,281,0
97855667,0,263202,0.09757589,0.14619668,0.29043663,41.63378,0.0015,0,-172,282,0
97964513,0,263202,0.085225545,0.14800438,0.28601938,41.630787,0.0015,7,-173,279,0
98063667,0,263202,0.08698988,0.14981209,0.30221596,41.648758,0.0015,6,-174,290,0
98162868,0,263202,0.111690566,0.16788912,0.29338148,41.63977,0.0015,-8,-184,284,0
98262077,0,263202,0.088754214,0.14800438,0.3036884,41.636776,0.0015,5,-173,291,0
98370067,0,263202,0.09051854,0.1570429,0.2874918,41.630787,0.0015,4,-178,280,0
98470068,0,263202,0.10286889,0.17331223,0.29190904,41.636776,0.0015,-3,-187,283,0
98567668,0,263202,0.09404721,0.13896587,0.26687795,41.63378,0.0015,2,-168,266,0
98676467,0,263202,0.08698988,0.14981209,0.29927114,41.62779,0.0015,6,-174,288,0
98775667,0,263202,0.115219235,0.14619668,0.28454697,41.62779,0.0015,-10,-172,278,0
98874890,0,263202,0.10286889,0.162466,0.2889642,41.62779,0.0015,-3,-181,281,0
98974067,0,263202,0.088754214,0.1552352,0.2712952,41.66673,0.0015,5,-177,269,0
99082868,0,263202,0.09404721,0.13173506,0.2874918,41.66673,0.0015,2,-164,280,0
99182104,0,263202,0.08169687,0.13715817,0.2889642,41.65774,0.0015,9,-167,281,0
99280468,0,263202,0.1081619,0.14258128,0.30221596,41.69069,0.0015,-6,-170,290,0
99379668,0,263202,0.10286889,0.14438899,0.2889642,41.64576,0.0015,-3,-171,281,0
99487668,0,263202,0.085225545,0.14800438,0.27718487,41.64576,0.0015,7,-173,273,0
99586874,0,263202,0.0781682,0.13715817,0.2712952,41.6847,0.0015,11,-167,269,0
99686067,0,263202,0.09404721,0.13535048,0.29043663,41.654747,0.0015,2,-166,282,0
99786067,0,263202,0.09051854,0.13896587,0.2786573,41.612816,0.0015,4,-168,274,0
99894067,0,263202,0.09051854,0.14981209,0.2963263,41.675713,0.0015,4,-174,286,0
99994067,0,263202,0.09934022,0.12992735,0.3036884,41.687695,0.0015,-1,-163,291,0
100091668,0,263202,0.09404721,0.13896587,0.2816021,41.63378,0.0015,2,-168,276,0
100190868,0,263202,0.09228288,0.13715817,0.27718487,41.672718,0.0015,3,-167,273,0
100298894,0,263202,0.09934022,0.14800438,0.27718487,41.678707,0.0015,-1,-173,273,0
100398075,0,263202,0.10463323,0.14981209,0.28454697,41.654747,0.0015,-4,-174,278,0
100498067,0,263202,0.106397554,0.15161979,0.28307456,41.6847,0.0015,-5,-175,277,0
100595716,0,263202,0.085225545,0.14800438,0.29190904,41.6817,0.0015,7,-173,283,0
100706108,0,263202,0.10286889,0.13715817,0.27718487,41.66373,0.0015,-3,-167,273,0
100803721,0,263202,0.10110456,0.14258128,0.2786573,41.66373,0.0015,-2,-170,274,0
100902868,0,263202,0.111690566,0.13535048,0.2786573,41.675713,0.0015,-8,-166,274,0
101011679,0,263202,0.09757589,0.13535048,0.26982278,41.699673,0.0015,0,-166,268,0
101110868,0,263202,0.10286889,0.12992735,0.26835036,41.693684,0.0015,-3,-163,267,0
101210109,0,263202,0.08169687,0.14438899,0.27718487,41.672718,0.0015,9,-171,273,0
101308515,0,263202,0.08698988,0.14258128,0.28454697,41.66673,0.0015,6,-170,278,0
101416512,0,263202,0.10110456,0.14981209,0.2786573,41.6817,0.0015,-2,-174,274,0
101515673,0,263202,0.09404721,0.12088885,0.2786573,41.6817,0.0015,2,-158,274,0
101614868,0,263202,0.10286889,0.13354276,0.3125229,41.660736,0.0015,-3,-165,297,0
101723668,0,263202,0.09228288,0.162466,0.31546775,41.678707,0.0015,3,-181,299,0
101822867,0,263202,0.0781682,0.13354276,0.32430226,41.70267,0.0015,11,-165,305,0
101922100,0,263202,0.088754214,0.14438899,0.3125229,41.675713,0.0015,5,-171,297,0
102030868,0,263202,0.09934022,0.14077358,0.30957806,41.687695,0.0015,-1,-169,295,0
102130068,0,263202,0.10110456,0.14258128,0.2963263,41.693684,0.0015,-2,-170,286,0
102218868,0,263202,0.08169687,0.14077358,0.30663323,41.687695,0.0015,9,-169,293,0
102326867,0,263202,0.0834612,0.14981209,0.2963263,41.6817,0.0015,8,-174,286,0
102435667,0,263202,0.085225545,0.15161979,0.3301919,41.73262,0.0015,7,-175,309,0
102534870,0,263202,0.085225545,0.162466,0.3301919,41.678707,0.0015,7,-181,309,0
102634073,0,263202,0.095811546,0.15161979,0.31546775,41.69668,0.0015,1,-175,299,0
102734067,0,263202,0.10286889,0.12269655,0.25951585,41.693684,0.0015,-3,-159,261,0
102842079,0,263202,0.1081619,0.12811966,0.29043663,41.6847,0.0015,-6,-162,282,0
102942068,0,263202,0.106397554,0.13715817,0.28307456,41.723637,0.0015,-5,-167,277,0
103039668,0,263202,0.07993253,0.13896587,0.30810565,41.705666,0.0015,10,-168,294,0
103138900,0,263202,0.095811546,0.15161979,0.3036884,41.705666,0.0015,1,-175,291,0
103246890,0,263202,0.085225545,0.15161979,0.3036884,41.699673,0.0015,7,-175,291,0
103346070,0,263202,0.072875194,0.1534275,0.30221596,41.70866,0.0015,14,-176,290,0
103454907,0,263202,0.09051854,0.14619668,0.2874918,41.720642,0.0015,4,-172,280,0
103554067,0,263202,0.09051854,0.14619668,0.30516082,41.672718,0.0015,4,-172,292,0
103654071,0,263202,0.10110456,0.16065831,0.29338148,41.693684,0.0015,-2,-180,284,0
103751701,0,263202,0.085225545,0.14800438,0.28601938,41.70866,0.0015,7,-173,279,0
103850868,0,263202,0.1081619,0.1534275,0.2816021,41.70866,0.0015,-6,-176,276,0
103959683,0,263202,0.08698988,0.14981209,0.30810565,41.6817,0.0015,6,-174,294,0
104058868,0,263202,0.10463323,0.13896587,0.2786573,41.73262,0.0015,-4,-168,274,0
104158078,0,263202,0.085225545,0.14077358,0.30074355,41.72663,0.0015,7,-169,289,0
104266067,0,263202,0.09934022,0.15885061,0.28307456,41.71465,0.0015,-1,-179,277,0
104366075,0,263202,0.085225545,0.14438899,0.29779872,41.723637,0.0015,7,-171,287,0
104463667,0,263202,0.10286889,0.1552352,0.3213574,41.705666,0.0015,-3,-177,303,0
104562868,0,263202,0.1081619,0.1534275,0.29338148,41.717644,0.0015,-6,-176,284,0
104671676,0,263202,0.085225545,0.14800438,0.29779872,41.735615,0.0015,7,-173,287,0
104770881,0,263202,0.1134549,0.15161979,0.28307456,41.699673,0.0015,-9,-175,277,0
104879669,0,263202,0.095811546,0.13715817,0.29779872,41.756584,0.0015,1,-167,287,0
104978875,0,263202,0.08698988,0.14981209,0.29927114,41.741608,0.0015,6,-174,288,0
105078068,0,263202,0.111690566,0.14981209,0.30810565,41.747597,0.0015,-8,-174,294,0
105186067,0,263202,0.09404721,0.16065831,0.2963263,41.723637,0.0015,2,-180,286,0
105286101,0,263202,0.08169687,0.15161979,0.3036884,41.720642,0.0015,9,-175,291,0
105383667,0,263202,0.09757589,0.13173506,0.30516082,41.69668,0.0015,0,-164,292,0
105482868,0,263202,0.12404091,0.1552352,0.2948539,41.687695,0.0015,-15,-177,285,0
105591687,0,263202,0.088754214,0.15161979,0.30074355,41.756584,0.0015,5,-175,289,0
105690878,0,263202,0.09404721,0.1534275,0.31105047,41.75059,0.0015,2,-176,296,0
105790082,0,263202,0.10286889,0.15161979,0.30074355,41.738613,0.0015,-3,-175,289,0
105890067,0,263202,0.095811546,0.17331223,0.30957806,41.71465,0.0015,1,-187,295,0
105998100,0,263202,0.07111086,0.16608141,0.31841257,41.720642,0.0015,15,-183,301,0
106095691,0,263202,0.085225545,0.15161979,0.29190904,41.768562,0.0015,7,-175,283,0
106194890,0,263202,0.088754214,0.14438899,0.30074355,41.73262,0.0015,5,-171,289,0
106303691,0,263202,0.09404721,0.1570429,0.28454697,41.73262,0.0015,2,-178,278,0
106402902,0,263202,0.12051225,0.14438899,0.27718487,41.747597,0.0015,-13,-171,273,0
106502115,0,263202,0.09051854,0.13535048,0.2963263,41.756584,0.0015,4,-166,286,0
106602068,0,263202,0.09228288,0.13354276,0.29779872,41.75059,0.0015,3,-165,287,0
106699668,0,263202,0.09404721,0.13535048,0.319885,41.768562,0.0015,2,-166,302,0
106810070,0,263202,0.111690566,0.1534275,0.2816021,41.705666,0.0015,-8,-176,276,0
106908519,0,263202,0.076403864,0.14981209,0.2963263,41.741608,0.0015,12,-174,286,0
107006868,0,263202,0.076403864,0.14258128,0.29338148,41.744602,0.0015,12,-170,284,0
107114868,0,263202,0.07993253,0.14981209,0.29338148,41.753586,0.0015,10,-174,284,0
107214067,0,263202,0.09404721,0.13173506,0.2963263,41.747597,0.0015,2,-164,286,0
107314067,0,263202,0.076403864,0.1570429,0.31399533,41.762573,0.0015,12,-178,298,0
107412497,0,263202,0.085225545,0.14800438,0.30663323,41.735615,0.0015,7,-173,293,0
107522067,0,263202,0.09404721,0.14258128,0.2963263,41.73262,0.0015,2,-170,286,0
107620483,0,263202,0.085225545,0.14438899,0.2948539,41.804504,0.0015,7,-171,285,0
107718868,0,263202,0.09934022,0.15885061,0.2948539,41.738613,0.0015,-1,-179,285,0
107818067,0,263202,0.095811546,0.14800438,0.2889642,41.780544,0.0015,1,-173,281,0
107926888,0,263202,0.10110456,0.1570429,0.31399533,41.75958,0.0015,-2,-178,298,0
108025267,0,263202,0.088754214,0.1552352,0.30957806,41.789528,0.0015,5,-177,295,0
108125287,0,263202,0.09228288,0.1552352,0.3036884,41.80151,0.0015,3,-177,291,0
108222867,0,263202,0.09934022,0.14438899,0.27424005,41.765568,0.0015,-1,-171,271,0
108332496,0,263202,0.09228288,0.13354276,0.30074355,41.75958,0.0015,3,-165,289,0
108430887,0,263202,0.095811546,0.1552352,0.30074355,41.735615,0.0015,1,-177,289,0
108530068,0,263202,0.088754214,0.12992735,0.2948539,41.774555,0.0015,5,-163,285,0
108629267,0,263202,0.085225545,0.18415844,0.30074355,41.771557,0.0015,7,-193,289,0
108738104,0,263202,0.0834612,0.12450425,0.2874918,41.798515,0.0015,8,-160,280,0
108837283,0,263202,0.088754214,0.14077358,0.29190904,41.765568,0.0015,5,-169,283,0
108946094,0,263202,0.10110456,0.13896587,0.2963263,41.771557,0.0015,-2,-168,286,0
109045278,0,263202,0.088754214,0.15885061,0.3036884,41.735615,0.0015,5,-179,291,0
109142876,0,263202,0.095811546,0.13715817,0.29779872,41.81349,0.0015,1,-167,287,0
109242067,0,263202,0.09228288,0.14438899,0.3036884,41.765568,0.0015,3,-171,291,0
109350886,0,263202,0.088754214,0.1552352,0.29190904,41.756584,0.0015,5,-177,283,0
109450067,0,263202,0.10110456,0.13535048,0.2786573,41.816486,0.0015,-2,-166,274,0
109549267,0,263202,0.0834612,0.14258128,0.26982278,41.798515,0.0015,8,-170,268,0
109649267,0,263202,0.09757589,0.16065831,0.29043663,41.762573,0.0015,0,-180,282,0
111182068,0,263202,0.1081619,0.14981209,0.30516082,41.804504,0.0015,-6,-174,292,0
111281294,0,263202,0.09228288,0.17692764,0.30957806,41.780544,0.0015,3,-189,295,0
111378868,0,263202,0.09934022,0.14077358,0.2889642,41.786533,0.0015,-1,-169,281,0
111489267,0,263202,0.07993253,0.14981209,0.31399533,41.8075,0.0015,10,-174,298,0
111586868,0,263202,0.0834612,0.1534275,0.29927114,41.789528,0.0015,8,-176,288,0
111686077,0,263202,0.09228288,0.14438899,0.28601938,41.789528,0.0015,3,-171,279,0
111794867,0,263202,0.09051854,0.1534275,0.30221596,41.774555,0.0015,4,-176,290,0
111894077,0,263202,0.09228288,0.1552352,0.30074355,41.792526,0.0015,3,-177,289,0
111993267,0,263202,0.09757589,0.14981209,0.30221596,41.834457,0.0015,0,-174,290,0
112093290,0,263202,0.10110456,0.16065831,0.29927114,41.831463,0.0015,-2,-180,288,0
112201268,0,263202,0.07463953,0.12631196,0.28601938,41.774555,0.0015,13,-161,279,0
112298867,0,263202,0.09051854,0.1570429,0.2963263,41.849434,0.0015,4,-178,286,0
112398068,0,263202,0.09934022,0.14077358,0.2948539,41.82847,0.0015,-1,-169,285,0
112506889,0,263202,0.09934022,0.15161979,0.29779872,41.81948,0.0015,-1,-175,287,0
112606067,0,263202,0.0834612,0.14981209,0.29927114,41.82547,0.0015,8,-174,288,0
112705267,0,263202,0.10463323,0.13535048,0.2963263,41.79552,0.0015,-4,-166,286,0
112814073,0,263202,0.09228288,0.12631196,0.29190904,41.82847,0.0015,3,-161,283,0
112913278,0,263202,0.095811546,0.16608141,0.30957806,41.789528,0.0015,1,-183,295,0
113013267,0,263202,0.09051854,0.1534275,0.30221596,41.81948,0.0015,4,-176,290,0
113111695,0,263202,0.09051854,0.14981209,0.29338148,41.831463,0.0015,4,-174,284,0
113218892,0,263202,0.10110456,0.14981209,0.30516082,41.855423,0.0015,-2,-174,292,0
113318068,0,263202,0.0781682,0.16969682,0.29190904,41.786533,0.0015,11,-185,283,0
113417270,0,263202,0.10286889,0.13715817,0.30663323,41.831463,0.0015,-3,-167,293,0
113526068,0,263202,0.085225545,0.15161979,0.3036884,41.82547,0.0015,7,-175,291,0
113625280,0,263202,0.09404721,0.1534275,0.29927114,41.855423,0.0015,2,-176,288,0
113725267,0,263202,0.106397554,0.14438899,0.29190904,41.804504,0.0015,-5,-171,283,0
113822868,0,263202,0.10992623,0.14800438,0.28307456,41.816486,0.0015,-7,-173,277,0
113922068,0,263202,0.085225545,0.162466,0.30074355,41.831463,0.0015,7,-181,289,0
114031673,0,263202,0.09757589,0.13173506,0.30516082,41.840446,0.0015,0,-164,292,0
114129281,0,263202,0.09228288,0.15161979,0.29779872,41.831463,0.0015,3,-175,287,0
114238072,0,263202,0.10286889,0.14077358,0.31841257,41.8075,0.0015,-3,-169,301,0
114337308,0,263202,0.10110456,0.13535048,0.31105047,41.84344,0.0015,-2,-166,296,0
114437304,0,263202,0.085225545,0.14077358,0.2948539,41.831463,0.0015,7,-169,285,0
114545309,0,263202,0.09228288,0.14800438,0.30074355,41.837452,0.0015,3,-173,289,0
114645267,0,263202,0.106397554,0.14077358,0.2801297,41.837452,0.0015,-5,-169,275,0
114742868,0,263202,0.10463323,0.13896587,0.29338148,41.837452,0.0015,-4,-168,284,0
114842091,0,263202,0.09757589,0.14981209,0.29338148,41.85243,0.0015,0,-174,284,0
114950072,0,263202,0.10110456,0.14981209,0.2874918,41.840446,0.0015,-2,-174,280,0
115049267,0,263202,0.106397554,0.13715817,0.29190904,41.879383,0.0015,-5,-167,283,0
115149267,0,263202,0.10110456,0.1570429,0.2963263,41.858418,0.0015,-2,-178,286,0
115246867,0,263202,0.09228288,0.12992735,0.3036884,41.834457,0.0015,3,-163,291,0
115357267,0,263202,0.09228288,0.13715817,0.29779872,41.840446,0.0015,3,-167,287,0
115454867,0,263202,0.09404721,0.12088885,0.29927114,41.831463,0.0015,2,-158,288,0
115554094,0,263202,0.09051854,0.14258128,0.31105047,41.840446,0.0015,4,-170,296,0
115663668,0,263202,0.106397554,0.14800438,0.29779872,41.84344,0.0015,-5,-173,287,0
115762068,0,263202,0.085225545,0.13715817,0.3036884,41.87639,0.0015,7,-167,291,0
115870068,0,263202,0.115219235,0.16427371,0.2816021,41.858418,0.0015,-10,-182,276,0
115969267,0,263202,0.1134549,0.12992735,0.2948539,41.855423,0.0015,-9,-163,285,0
116069267,0,263202,0.095811546,0.14800438,0.29190904,41.873394,0.0015,1,-173,283,0
116166884,0,263202,0.076403864,0.14258128,0.29338148,41.849434,0.0015,12,-170,284,0
116266068,0,263202,0.076403864,0.14619668,0.29338148,41.849434,0.0015,12,-172,284,0
116374868,0,263202,0.09934022,0.13354276,0.29190904,41.885376,0.0015,-1,-165,283,0
116474068,0,263202,0.09228288,0.14077358,0.28601938,41.85243,0.0015,3,-169,279,0
116573273,0,263202,0.106397554,0.14800438,0.30074355,41.86441,0.0015,-5,-173,289,0
116682068,0,263202,0.088754214,0.162466,0.2889642,41.84644,0.0015,5,-181,281,0
116781267,0,263202,0.09404721,0.14258128,0.27571246,41.855423,0.0015,2,-170,272,0
116878868,0,263202,0.10463323,0.1534275,0.31399533,41.8704,0.0015,-4,-176,298,0
116978068,0,263202,0.106397554,0.14077358,0.2801297,41.897354,0.0015,-5,-169,275,0
117087694,0,263202,0.09757589,0.13535048,0.2786573,41.88238,0.0015,0,-166,274,0
117186074,0,263202,0.09757589,0.11365803,0.29927114,41.855423,0.0015,0,-154,288,0
117285271,0,263202,0.10992623,0.14438899,0.28601938,41.897354,0.0015,-7,-171,279,0
117394068,0,263202,0.076403864,0.17150451,0.29927114,41.84644,0.0015,12,-186,288,0
117493284,0,263202,0.10286889,0.20946628,0.2624607,41.867405,0.0015,-3,-207,263,0
117592468,0,263202,0.106397554,0.23838954,0.25657102,41.885376,0.0015,-5,-223,259,0
117690890,0,263202,0.10286889,0.24562034,0.25657102,41.867405,0.0015,-3,-227,259,0
117800468,0,263202,0.1081619,0.25465885,0.24331929,41.8704,0.0015,-6,-232,250,0
117898075,0,263202,0.09757589,0.23658183,0.21681577,41.8704,0.0015,0,-222,232,0
117997278,0,263202,0.088754214,0.26008195,0.24184684,41.85243,0.0015,5,-235,249,0
118106067,0,263202,0.07463953,0.24562034,0.24184684,41.840446,0.0015,13,-227,249,0
118205274,0,263202,0.11874791,0.22935101,0.24037443,41.87639,0.0015,-12,-218,248,0
118304467,0,263202,0.09404721,0.25827426,0.25215375,41.891365,0.0015,2,-234,256,0
118413270,0,263202,0.095811546,0.23115872,0.26540554,41.88837,0.0015,1,-219,265,0
118512468,0,263202,0.1134549,0.2239279,0.25068134,41.89436,0.0015,-9,-215,255,0
118610074,0,263202,0.09757589,0.24742803,0.23448478,41.891365,0.0015,0,-228,244,0
118718868,0,263202,0.09051854,0.2257356,0.23153992,41.897354,0.0015,4,-216,242,0
118818067,0,263202,0.09757589,0.24019723,0.27571246,41.9303,0.0015,0,-224,272,0
118917267,0,263202,0.09757589,0.24019723,0.26982278,41.885376,0.0015,0,-224,268,0
119026083,0,263202,0.09757589,0.21488939,0.27276763,41.891365,0.0015,0,-210,270,0
119125268,0,263202,0.09404721,0.16065831,0.29338148,41.90634,0.0015,2,-180,284,0
119224467,0,263202,0.09051854,0.1534275,0.29338148,41.90634,0.0015,4,-176,284,0
119322889,0,263202,0.106397554,0.14800438,0.33313674,41.897354,0.0015,-5,-173,311,0
119430904,0,263202,0.1081619,0.13896587,0.29338148,41.903347,0.0015,-6,-168,284,0
119530072,0,263202,0.15579894,0.14800438,0.28307456,41.88238,0.0015,-33,-173,277,0
119638868,0,263202,0.11698357,0.14800438,0.2948539,41.858418,0.0015,-11,-173,285,0
119738101,0,263202,0.09934022,0.14800438,0.3036884,41.891365,0.0015,-1,-173,291,0
119837268,0,263202,0.09934022,0.13354276,0.3036884,41.89436,0.0015,-1,-165,291,0
119936467,0,263202,0.11874791,0.13896587,0.2786573,41.87639,0.0015,-12,-168,274,0
120045268,0,263202,0.11698357,0.13354276,0.2801297,41.89436,0.0015,-11,-165,275,0
120144502,0,263202,0.115219235,0.17150451,0.27571246,41.915325,0.0015,-10,-186,272,0
120242068,0,263202,0.1487416,0.17692764,0.27424005,41.91233,0.0015,-29,-189,271,0
120350868,0,263202,0.14521293,0.19319697,0.26098827,41.879383,0.0015,-27,-198,262,0
120450067,0,263202,0.14344859,0.1534275,0.2550986,41.909336,0.0015,-26,-176,258,0
120549310,0,263202,0.095811546,0.15161979,0.30957806,41.891365,0.0015,1,-175,295,0
120648470,0,263202,0.095811546,0.1552352,0.2948539,41.9303,0.0015,1,-177,285,0
120757268,0,263202,0.09757589,0.13173506,0.29043663,41.88837,0.0015,0,-164,282,0
120856467,0,263202,0.10110456,0.12811966,0.2963263,41.88238,0.0015,-2,-162,286,0
120956469,0,263202,0.09934022,0.14438899,0.2889642,41.897354,0.0015,-1,-171,281,0
121054068,0,263202,0.088754214,0.15885061,0.28601938,41.885376,0.0015,5,-179,279,0
121162070,0,263202,0.10463323,0.13173506,0.30221596,41.88238,0.0015,-4,-164,290,0
121261305,0,263202,0.13639125,0.14258128,0.27276763,41.927307,0.0015,-22,-170,270,0
121370121,0,263202,0.11874791,0.17150451,0.2786573,41.909336,0.0015,-12,-186,274,0
121469268,0,263202,0.14521293,0.15885061,0.26835036,41.87639,0.0015,-27,-179,267,0
121568487,0,263202,0.13286258,0.16788912,0.29338148,41.903347,0.0015,-20,-184,284,0
121668481,0,263202,0.10992623,0.15885061,0.28307456,41.88837,0.0015,-7,-179,277,0
121776469,0,263202,0.1134549,0.15161979,0.28307456,41.885376,0.0015,-9,-175,277,0
121876467,0,263202,0.088754214,0.15161979,0.2889642,41.924313,0.0015,5,-175,281,0
121974079,0,263202,0.09051854,0.12088885,0.2874918,41.873394,0.0015,4,-158,280,0
122073267,0,263202,0.10463323,0.13896587,0.27571246,41.921318,0.0015,-4,-168,272,0
122181268,0,263202,0.10992623,0.17331223,0.2712952,41.900352,0.0015,-7,-187,269,0
122280467,0,263202,0.08169687,0.2239279,0.2712952,41.873394,0.0015,9,-215,269,0
122389273,0,263202,0.122276574,0.21488939,0.26098827,41.918324,0.0015,-14,-210,262,0
122488467,0,263202,0.08698988,0.2221202,0.26687795,41.88837,0.0015,6,-214,266,0
122588467,0,263202,0.09228288,0.19138925,0.26835036,41.89436,0.0015,3,-197,267,0
122686068,0,263202,0.09228288,0.14800438,0.28601938,41.915325,0.0015,3,-173,279,0
122785274,0,263202,0.10110456,0.13535048,0.29043663,41.915325,0.0015,-2,-166,282,0
122894077,0,263202,0.09757589,0.13896587,0.29043663,41.90634,0.0015,0,-168,282,0
122993267,0,263202,0.1081619,0.13535048,0.2963263,41.8704,0.0015,-6,-166,286,0
123092468,0,263202,0.10992623,0.13354276,0.28307456,41.903347,0.0015,-7,-165,277,0
123200467,0,263202,0.12051225,0.162466,0.29779872,41.9303,0.0015,-13,-181,287,0
123300515,0,263202,0.14697728,0.17873535,0.26687795,41.915325,0.0015,-28,-190,266,0
123398068,0,263202,0.1734423,0.18777384,0.2624607,41.921318,0.0015,-43,-195,263,0
123508467,0,263202,0.15403461,0.19319697,0.2550986,41.93929,0.0015,-32,-198,258,0
123606067,0,263202,0.16109195,0.17511994,0.25215375,41.936295,0.0015,-36,-188,256,0
123705310,0,263202,0.12933393,0.13173506,0.28454697,41.927307,0.0015,-18,-164,278,0
123813268,0,263202,0.106397554,0.16608141,0.30074355,41.93929,0.0015,-5,-183,289,0
123912485,0,263202,0.115219235,0.14981209,0.29338148,41.924313,0.0015,-10,-174,284,0
124012477,0,263202,0.0781682,0.12631196,0.29190904,41.91233,0.0015,11,-161,283,0
124110067,0,263202,0.04111716,0.055811547,0.319885,41.924313,0.0015,32,-122,302,0
124209278,0,263202,0.025238147,0.028696004,0.30957806,41.942284,0.0015,41,-107,295,0
124318076,0,263202,0.009359131,0.04496533,0.34933332,41.897354,0.0015,50,-116,322,0
124417272,0,263202,0.08169687,0.12631196,0.32430226,41.927307,0.0015,9,-161,305,0
124525306,0,263202,0.09934022,0.11908114,0.30074355,41.9333,0.0015,-1,-157,289,0
124624467,0,263202,0.088754214,0.14438899,0.30074355,41.924313,0.0015,5,-171,289,0
124724467,0,263202,0.09404721,0.11365803,0.2874918,41.921318,0.0015,2,-154,280,0
124822079,0,263202,0.09404721,0.14619668,0.2874918,41.909336,0.0015,2,-172,280,0
124921272,0,263202,0.1134549,0.15161979,0.27718487,41.93929,0.0015,-9,-175,273,0
125030126,0,263202,0.13462692,0.15885061,0.27718487,41.909336,0.0015,-21,-179,273,0
125129267,0,263202,0.10110456,0.17873535,0.2874918,41.93929,0.0015,-2,-190,280,0
125228473,0,263202,0.1381556,0.20223548,0.25657102,41.921318,0.0015,-23,-203,259,0
125336467,0,263202,0.15403461,0.211274,0.24037443,41.960255,0.0015,-32,-208,248,0
125436467,0,263202,0.1134549,0.2166971,0.24773653,41.95726,0.0015,-9,-211,253,0
125534104,0,263202,0.10110456,0.18958154,0.29043663,41.921318,0.0015,-2,-196,282,0
125633267,0,263202,0.11698357,0.14800438,0.29190904,41.942284,0.0015,-11,-173,283,0
125742069,0,263202,0.095811546,0.14077358,0.27424005,41.960255,0.0015,1,-169,271,0
125841268,0,263202,0.10992623,0.14077358,0.28601938,41.936295,0.0015,-7,-169,279,0
125939685,0,263202,0.10463323,0.13173506,0.29927114,41.94528,0.0015,-4,-164,288,0
126038068,0,263202,0.09228288,0.1552352,0.27424005,41.97523,0.0015,3,-177,271,0
126148467,0,263202,0.09051854,0.1534275,0.31399533,41.95127,0.0015,4,-176,298,0
126247714,0,263202,0.10992623,0.14438899,0.32430226,41.969242,0.0015,-7,-171,305,0
126345268,0,263202,0.09757589,0.13896587,0.30810565,41.918324,0.0015,0,-168,294,0
126454068,0,263202,0.09404721,0.14619668,0.29338148,41.948273,0.0015,2,-172,284,0
126552468,0,263202,0.09228288,0.14077358,0.30663323,41.93929,0.0015,3,-169,293,0
126651698,0,263202,0.11874791,0.14258128,0.2874918,41.9333,0.0015,-12,-170,280,0
126760467,0,263202,0.095811546,0.14077358,0.28601938,41.954266,0.0015,1,-169,279,0
126859667,0,263202,0.09228288,0.15161979,0.29779872,41.95726,0.0015,3,-175,287,0
126959667,0,263202,0.10463323,0.1534275,0.2963263,41.960255,0.0015,-4,-176,286,0
127057267,0,263202,0.07993253,0.14981209,0.29927114,41.94528,0.0015,10,-174,288,0
127165267,0,263202,0.1081619,0.13896587,0.30810565,42.005184,0.0015,-6,-168,294,0
127571667,0,263202,0.09228288,0.15161979,0.2948539,41.948273,0.0015,3,-175,285,0
127671667,0,263202,0.10286889,0.13354276,0.30957806,41.954266,0.0015,-3,-165,295,0
127769292,0,263202,0.088754214,0.13354276,0.29190904,41.960255,0.0015,5,-165,283,0
127878084,0,263202,0.10110456,0.14258128,0.29338148,41.954266,0.0015,-2,-170,284,0
127976468,0,263202,0.09404721,0.16065831,0.29927114,41.97523,0.0015,2,-180,288,0
128075667,0,263202,0.08698988,0.13535048,0.29043663,41.984215,0.0015,6,-166,282,0
128184468,0,263202,0.10992623,0.14438899,0.30957806,41.97523,0.0015,-7,-171,295,0
128283667,0,263202,0.09051854,0.14619668,0.30810565,41.960255,0.0015,4,-172,294,0
128383667,0,263202,0.095811546,0.14077358,0.3036884,41.984215,0.0015,1,-169,291,0
128481268,0,263202,0.09757589,0.13535048,0.29927114,41.96325,0.0015,0,-166,288,0
128589288,0,263202,0.076403864,0.13896587,0.29338148,42.002186,0.0015,12,-168,284,0
128688468,0,263202,0.10110456,0.14619668,0.2874918,41.996197,0.0015,-2,-172,280,0
128797273,0,263202,0.09228288,0.12631196,0.3036884,41.93929,0.0015,3,-161,291,0
