timestamp,voltage_v,voltage_filtered_v,current_a,current_filtered_a,average_current_a,discharged_mah,remaining,scale,temperature,cell_count,voltage_cell_v[0],voltage_cell_v[1],voltage_cell_v[2],voltage_cell_v[3],max_cell_voltage_delta,capacity,cycle_count,run_time_to_empty,average_time_to_empty,serial_number,connected,system_source,priority,is_powering_off,warning
50803354,16.520123,16.551989,38.936,38.937325,0.0,514.5098,0.8759945,1.0149838,0.0,4,0.0,0.0,0.0,0.0,0.0,0,0,0,0,0,1,1,0,0,0
51302526,16.510393,16.545626,38.936,38.93667,0.0,519.90857,0.87281305,1.0153741,0.0,4,0.0,0.0,0.0,0.0,0.0,0,0,0,0,0,1,1,0,0,0
51811294,16.481205,16.537706,38.9484,38.936245,0.0,525.41113,0.8688534,1.0158603,0.0,4,0.0,0.0,0.0,0.0,0.0,0,0,0,0,0,1,1,0,0,0
52312124,16.500664,16.532396,38.936,38.937653,0.0,530.82825,0.86619836,1.0161866,0.0,4,0.0,0.0,0.0,0.0,0.0,0,0,0,0,0,1,1,0,0,0
52816034,16.510393,16.528395,38.936,38.937923,0.0,536.2785,0.86419755,1.0164326,0.0,4,0.0,0.0,0.0,0.0,0.0,0,0,0,0,0,1,1,0,0,0
53312113,16.52985,16.52628,38.936,38.937634,0.0,541.64386,0.8631399,1.0165627,0.0,4,0.0,0.0,0.0,0.0,0.0,0,0,0,0,0,1,1,0,0,0
53816076,16.500664,16.524681,38.936,38.93754,0.0,547.09503,0.86234075,1.016661,0.0,4,0.0,0.0,0.0,0.0,0.0,0,0,0,0,0,1,1,0,0,0
54316128,16.520123,16.524817,38.9484,38.938618,0.0,552.50385,0.86240846,1.0166527,0.0,4,0.0,0.0,0.0,0.0,0.0,0,0,0,0,0,1,1,0,0,0
54820131,16.510393,16.524061,38.9484,38.93784,0.0,557.9551,0.8620308,1.0166992,0.0,4,0.0,0.0,0.0,0.0,0.0,0,0,0,0,0,1,1,0,0,0
55312164,16.52985,16.52361,38.998,38.937798,0.0,563.27686,0.8618048,1.016727,0.0,4,0.0,0.0,0.0,0.0,0.0,0,0,0,0,0,1,1,0,0,0
55820103,16.471476,16.523476,38.9484,38.93582,0.0,568.77045,0.861738,1.0167352,0.0,4,0.0,0.0,0.0,0.0,0.0,0,0,0,0,0,1,1,0,0,0
56312180,16.520123,16.523594,38.936,38.938423,0.0,574.0931,0.86179715,1.0167279,0.0,4,0.0,0.0,0.0,0.0,0.0,0,0,0,0,0,1,1,0,0,0
56816106,16.510393,16.521706,38.9608,38.938026,0.0,579.5435,0.860853,1.0168442,0.0,4,0.0,0.0,0.0,0.0,0.0,0,0,0,0,0,1,1,0,0,0
57320099,16.52985,16.52239,38.936,38.940617,0.0,584.9953,0.8611954,1.016802,0.0,4,0.0,0.0,0.0,0.0,0.0,0,0,0,0,0,1,1,0,0,0
57824093,16.52985,16.522755,38.936,38.93981,0.0,590.44653,0.86137754,1.0167795,0.0,4,0.0,0.0,0.0,0.0,0.0,0,0,0,0,0,1,1,0,0,0
58328141,16.520123,16.521305,38.9484,38.94172,0.0,595.89905,0.86065274,1.0168688,0.0,4,0.0,0.0,0.0,0.0,0.0,0,0,0,0,0,1,1,0,0,0
58832209,16.520123,16.520771,38.936,38.93999,0.0,601.3512,0.8603857,1.0169016,0.0,4,0.0,0.0,0.0,0.0,0.0,0,0,0,0,0,1,1,0,0,0
59336108,16.520123,16.522661,38.936,38.93933,0.0,606.8016,0.8613308,1.0167853,0.0,4,0.0,0.0,0.0,0.0,0.0,0,0,0,0,0,1,1,0,0,0
59840130,16.520123,16.5228,38.9608,38.937374,0.0,612.25275,0.8614004,1.0167768,0.0,4,0.0,0.0,0.0,0.0,0.0,0,0,0,0,0,1,1,0,0,0
60344119,16.53958,16.522165,38.936,38.938618,0.0,617.7043,0.86108285,1.0168158,0.0,4,0.0,0.0,0.0,0.0,0.0,0,0,0,0,0,1,1,0,0,0
60848130,16.53958,16.522623,38.936,38.93914,0.0,623.1559,0.86131173,1.0167876,0.0,4,0.0,0.0,0.0,0.0,0.0,0,0,0,0,0,1,1,0,0,0
61352184,16.52985,16.523315,38.936,38.937283,0.0,628.60754,0.8616579,1.0167451,0.0,4,0.0,0.0,0.0,0.0,0.0,0,0,0,0,0,1,1,0,0,0
61856887,16.500664,16.521996,38.911198,38.935207,0.0,634.0658,0.860998,1.0168263,0.0,4,0.0,0.0,0.0,0.0,0.0,0,0,0,0,0,1,1,0,0,0
62360093,16.52985,16.52147,38.936,38.938145,0.0,639.5088,0.86073476,1.0168587,0.0,4,0.0,0.0,0.0,0.0,0.0,0,0,0,0,0,1,1,0,0,0
62864135,16.520123,16.521824,38.9484,38.93838,0.0,644.9607,0.86091214,1.0168369,0.0,4,0.0,0.0,0.0,0.0,0.0,0,0,0,0,0,1,1,0,0,0
63355983,16.52985,16.521246,38.936,38.93608,0.0,650.28015,0.8606232,1.0168724,0.0,4,0.0,0.0,0.0,0.0,0.0,0,0,0,0,0,1,1,0,0,0
63860102,16.510393,16.52224,38.936,38.93819,0.0,655.7331,0.86112005,1.0168113,0.0,4,0.0,0.0,0.0,0.0,0.0,0,0,0,0,0,1,1,0,0,0
64364107,16.53958,16.522848,38.936,38.94001,0.0,661.18506,0.86142427,1.0167738,0.0,4,0.0,0.0,0.0,0.0,0.0,0,0,0,0,0,1,1,0,0,0
64856168,16.53958,16.523111,38.936,38.93989,0.0,666.5075,0.8615559,1.0167576,0.0,4,0.0,0.0,0.0,0.0,0.0,0,0,0,0,0,1,1,0,0,0
65360058,16.500664,16.522251,38.9856,38.94318,0.0,671.9588,0.86112577,1.0168105,0.0,4,0.0,0.0,0.0,0.0,0.0,0,0,0,0,0,1,1,0,0,0
65860111,16.520123,16.521994,38.9484,38.941536,0.0,677.36755,0.860997,1.0168264,0.0,4,0.0,0.0,0.0,0.0,0.0,0,0,0,0,0,1,1,0,0,0
66364089,16.520123,16.522642,38.9236,38.94139,0.0,682.8191,0.8613213,1.0167865,0.0,4,0.0,0.0,0.0,0.0,0.0,0,0,0,0,0,1,1,0,0,0
66868120,16.500664,16.522186,38.936,38.9423,0.0,688.2716,0.86109334,1.0168146,0.0,4,0.0,0.0,0.0,0.0,0.0,0,0,0,0,0,1,1,0,0,0
67372162,16.520123,16.522049,38.936,38.942257,0.0,693.72406,0.8610247,1.0168229,0.0,4,0.0,0.0,0.0,0.0,0.0,0,0,0,0,0,1,1,0,0,0
67876114,16.520123,16.522263,38.9484,38.942444,0.0,699.1754,0.8611315,1.0168098,0.0,4,0.0,0.0,0.0,0.0,0.0,0,0,0,0,0,1,1,0,0,0
69388119,16.549309,16.520794,38.911198,38.938198,0.0,715.5296,0.86039716,1.0169002,0.0,4,0.0,0.0,0.0,0.0,0.0,0,0,0,0,0,1,1,0,0,0
69892196,16.53958,16.520884,38.9484,38.940224,0.0,720.9822,0.860442,1.0168947,0.0,4,0.0,0.0,0.0,0.0,0.0,0,0,0,0,0,1,1,0,0,0
70396126,16.500664,16.513231,38.9484,38.94254,0.0,726.43365,0.87546617,1.0150485,0.0,4,0.0,0.0,0.0,0.0,0.0,0,0,0,0,0,1,1,0,0,0
70900342,16.29635,16.467234,38.9484,38.938248,0.0,731.8867,0.8925789,1.0129539,0.0,4,0.0,0.0,0.0,0.0,0.0,0,0,0,0,0,1,1,0,0,0
71404097,15.809893,16.347477,38.9236,38.937157,0.0,737.3352,0.8873928,1.0135877,0.0,4,0.0,0.0,0.0,0.0,0.0,0,0,0,0,0,1,1,0,0,0
71908032,15.566664,16.234875,38.936,38.937733,0.0,742.78595,0.88040715,1.0144428,0.0,4,0.0,0.0,0.0,0.0,0.0,0,0,0,0,0,1,1,0,0,0
72412147,15.819622,16.102985,38.9236,38.934784,0.0,748.2377,0.8486088,1.0183536,0.0,4,0.0,0.0,0.0,0.0,0.0,0,0,0,0,0,1,1,0,0,0
72920137,16.30608,16.11801,38.936,38.938618,0.0,753.73267,0.8655594,1.0162652,0.0,4,0.0,0.0,0.0,0.0,0.0,0,0,0,0,0,1,1,0,0,0
73420087,15.936372,16.09249,38.9484,38.93857,0.0,759.1404,0.86289865,1.0165924,0.0,4,0.0,0.0,0.0,0.0,0.0,0,0,0,0,0,1,1,0,0,0
73920096,15.985018,16.045145,38.9236,38.93683,0.0,764.54834,0.8537968,1.0177134,0.0,4,0.0,0.0,0.0,0.0,0.0,0,0,0,0,0,1,1,0,0,0
74417623,16.004477,16.032703,38.936,38.93589,0.0,769.9292,0.8552416,1.0175353,0.0,4,0.0,0.0,0.0,0.0,0.0,0,0,0,0,0,1,1,0,0,0
74915349,16.053122,16.029139,38.936,38.936756,0.0,775.31274,0.85787755,1.0172105,0.0,4,0.0,0.0,0.0,0.0,0.0,0,0,0,0,0,1,1,0,0,0
75414453,15.95583,16.023836,38.936,38.936153,0.0,780.7109,0.85696584,1.0173228,0.0,4,0.0,0.0,0.0,0.0,0.0,0,0,0,0,0,1,1,0,0,0
75923329,15.82935,16.003098,38.911198,38.939754,0.0,786.21564,0.850787,1.0180846,0.0,4,0.0,0.0,0.0,0.0,0.0,0,0,0,0,0,1,1,0,0,0
76424132,15.95583,15.961882,38.911198,38.93783,0.0,791.6319,0.8372238,1.0197611,0.0,4,0.0,0.0,0.0,0.0,0.0,0,0,0,0,0,1,1,0,0,0
76924131,15.916913,15.925666,38.936,38.936317,0.0,797.0395,0.824436,1.0213466,0.0,4,0.0,0.0,0.0,0.0,0.0,0,0,0,0,0,1,1,0,0,0
77426808,15.790434,15.899373,38.936,38.93677,0.0,802.4766,0.8160332,1.0223912,0.0,4,0.0,0.0,0.0,0.0,0.0,0,0,0,0,0,1,1,0,0,0
77927336,15.907185,15.859806,38.9484,38.93695,0.0,807.8902,0.8020809,1.0241303,0.0,4,0.0,0.0,0.0,0.0,0.0,0,0,0,0,0,1,1,0,0,0
78431364,15.518018,15.824451,38.9484,38.936924,0.0,813.3414,0.78737336,1.0259701,0.0,4,0.0,0.0,0.0,0.0,0.0,0,0,0,0,0,1,1,0,0,0
78923345,15.6834135,15.797449,38.936,38.935696,0.0,818.6622,0.77667123,1.0273129,0.0,4,0.0,0.0,0.0,0.0,0.0,0,0,0,0,0,1,1,0,0,0
79427366,15.819622,15.772939,38.936,38.934757,0.0,824.11334,0.7686117,1.0283265,0.0,4,0.0,0.0,0.0,0.0,0.0,0,0,0,0,0,1,1,0,0,0
79931296,15.83908,15.755787,38.9484,38.938164,0.0,829.56433,0.76189405,1.0291729,0.0,4,0.0,0.0,0.0,0.0,0.0,0,0,0,0,0,1,1,0,0,0
80435345,15.625038,15.731111,38.911198,38.93833,0.0,835.01605,0.7530201,1.030293,0.0,4,0.0,0.0,0.0,0.0,0.0,0,0,0,0,0,1,1,0,0,0
81443307,15.566664,15.699754,38.936,38.933685,0.0,845.91644,0.7410086,1.0318131,0.0,4,0.0,0.0,0.0,0.0,0.0,0,0,0,0,0,1,1,0,0,0
81947338,15.576392,15.685488,38.9484,38.934174,0.0,851.3675,0.7349356,1.0325835,0.0,4,0.0,0.0,0.0,0.0,0.0,0,0,0,0,0,1,1,0,0,0
82451582,15.537476,15.664151,38.9236,38.932922,0.0,856.821,0.72441465,1.0339206,0.0,4,0.0,0.0,0.0,0.0,0.0,0,0,0,0,0,1,1,0,0,0
82955334,15.790434,15.661291,38.936,38.93361,0.0,862.26917,0.7199877,1.0344843,0.0,4,0.0,0.0,0.0,0.0,0.0,0,0,0,0,0,1,1,0,0,0
84971298,15.790434,15.639574,38.936,38.93238,0.0,884.0711,0.7084072,1.0359617,0.0,4,0.0,0.0,0.0,0.0,0.0,0,0,0,0,0,1,1,0,0,0
85475332,15.809893,15.627752,38.9236,38.934124,0.0,889.5225,0.7057274,1.0363042,0.0,4,0.0,0.0,0.0,0.0,0.0,0,0,0,0,0,1,1,0,0,0
85979331,15.381809,15.608466,38.9484,38.933865,0.0,894.9731,0.69999295,1.037038,0.0,4,0.0,0.0,0.0,0.0,0.0,0,0,0,0,0,1,1,0,0,0
86483311,15.226143,15.602402,38.911198,38.933506,0.0,900.4239,0.6968668,1.0374383,0.0,4,0.0,0.0,0.0,0.0,0.0,0,0,0,0,0,1,1,0,0,0
86987299,15.634768,15.604541,38.936,38.93529,0.0,905.875,0.69756395,1.037349,0.0,4,0.0,0.0,0.0,0.0,0.0,0,0,0,0,0,1,1,0,0,0
87491317,15.479101,15.602473,38.9236,38.933674,0.0,911.32574,0.6975916,1.0373454,0.0,4,0.0,0.0,0.0,0.0,0.0,0,0,0,0,0,1,1,0,0,0
87995325,15.82935,15.58305,38.9236,38.936485,0.0,916.7774,0.69105417,1.0381836,0.0,4,0.0,0.0,0.0,0.0,0.0,0,0,0,0,0,1,1,0,0,0
88499397,15.586122,15.630559,38.911198,38.934948,0.0,922.22925,0.70771486,1.0360502,0.0,4,0.0,0.0,0.0,0.0,0.0,0,0,0,0,0,1,1,0,0,0
89003332,15.449913,15.606092,38.936,38.936104,0.0,927.6799,0.6981886,1.037269,0.0,4,0.0,0.0,0.0,0.0,0.0,0,0,0,0,0,1,1,0,0,0
89507273,15.644497,15.575763,38.8988,38.933887,0.0,933.1297,0.68624383,1.0388012,0.0,4,0.0,0.0,0.0,0.0,0.0,0,0,0,0,0,1,1,0,0,0
90011331,15.6834135,15.566685,38.936,38.934525,0.0,938.5813,0.68283826,1.0392389,0.0,4,0.0,0.0,0.0,0.0,0.0,0,0,0,0,0,1,1,0,0,0
90515363,15.770976,15.550977,38.9484,38.932606,0.0,944.03204,0.6746262,1.0402958,0.0,4,0.0,0.0,0.0,0.0,0.0,0,0,0,0,0,1,1,0,0,0
91019317,15.420726,15.562344,38.936,38.935287,0.0,949.483,0.6786297,1.0397803,0.0,4,0.0,0.0,0.0,0.0,0.0,0,0,0,0,0,1,1,0,0,0
91523257,15.625038,15.607597,38.936,38.9367,0.0,954.9334,0.6966904,1.0374609,0.0,4,0.0,0.0,0.0,0.0,0.0,0,0,0,0,0,1,1,0,0,0
92027236,15.518018,15.598664,38.9484,38.936195,0.0,960.3843,0.69342595,1.0378793,0.0,4,0.0,0.0,0.0,0.0,0.0,0,0,0,0,0,1,1,0,0,0
92531318,15.819622,15.598025,38.911198,38.933838,0.0,965.8356,0.6940363,1.0378011,0.0,4,0.0,0.0,0.0,0.0,0.0,0,0,0,0,0,1,1,0,0,0
93035340,15.537476,15.588278,38.936,38.93403,0.0,971.28644,0.6898754,1.0383348,0.0,4,0.0,0.0,0.0,0.0,0.0,0,0,0,0,0,1,1,0,0,0
93539196,15.644497,15.595126,38.9484,38.935394,0.0,976.73596,0.6925419,1.0379927,0.0,4,0.0,0.0,0.0,0.0,0.0,0,0,0,0,0,1,1,0,0,0
94043447,15.673684,15.583509,38.936,38.934216,0.0,982.18933,0.6870144,1.0387022,0.0,4,0.0,0.0,0.0,0.0,0.0,0,0,0,0,0,1,1,0,0,0
94547256,15.566664,15.582613,38.9484,38.935745,0.0,987.6387,0.6869114,1.0387155,0.0,4,0.0,0.0,0.0,0.0,0.0,0,0,0,0,0,1,1,0,0,0
95051354,15.537476,15.567439,38.9608,38.934914,0.0,993.09033,0.68171674,1.039383,0.0,4,0.0,0.0,0.0,0.0,0.0,0,0,0,0,0,1,1,0,0,0
95555290,15.547205,15.566644,38.936,38.933353,0.0,998.54016,0.6807583,1.0395064,0.0,4,0.0,0.0,0.0,0.0,0.0,0,0,0,0,0,1,1,0,0,0
96055256,15.323434,15.505398,38.936,38.932682,0.0,1003.9472,0.6550692,1.0428215,0.0,4,0.0,0.0,0.0,0.0,0.0,0,0,0,0,0,1,1,0,0,0
96553625,15.410996,15.482591,38.936,38.931065,0.0,1009.33624,0.6460379,1.043992,0.0,4,0.0,0.0,0.0,0.0,0.0,0,0,0,0,0,1,1,0,0,0
97054468,15.547205,15.449305,38.9236,38.931923,0.0,1014.7526,0.6328333,1.0457082,0.0,4,0.0,0.0,0.0,0.0,0.0,0,0,0,0,0,1,1,0,0,0
97546933,15.527747,15.471029,38.9236,38.930275,0.0,1020.0783,0.6409386,1.0446541,0.0,4,0.0,0.0,0.0,0.0,0.0,0,0,0,0,0,1,1,0,0,0
98050566,15.488831,15.467065,38.9236,38.930378,0.0,1025.5243,0.63781625,1.0450599,0.0,4,0.0,0.0,0.0,0.0,0.0,0,0,0,0,0,1,1,0,0,0
98554590,15.430455,15.463478,38.9484,38.932697,0.0,1030.9753,0.6354292,1.0453703,0.0,4,0.0,0.0,0.0,0.0,0.0,0,0,0,0,0,1,1,0,0,0
99058650,15.2164135,15.459011,38.911198,38.93329,0.0,1036.4268,0.6338213,1.0455797,0.0,4,0.0,0.0,0.0,0.0,0.0,0,0,0,0,0,1,1,0,0,0
99562503,15.342893,15.436188,38.936,38.934566,0.0,1041.8763,0.62396604,1.0468638,0.0,4,0.0,0.0,0.0,0.0,0.0,0,0,0,0,0,1,1,0,0,0
100066395,15.362351,15.426286,38.9484,38.933422,0.0,1047.3258,0.6197241,1.0474175,0.0,4,0.0,0.0,0.0,0.0,0.0,0,0,0,0,0,1,1,0,0,0
100570499,15.303976,15.396229,38.936,38.933342,0.0,1052.7773,0.6076849,1.0489923,0.0,4,0.0,0.0,0.0,0.0,0.0,0,0,0,0,0,1,1,0,0,0
101074568,15.333163,15.364055,38.9236,38.931213,0.0,1058.2279,0.59552604,1.0505875,0.0,4,0.0,0.0,0.0,0.0,0.0,0,0,0,0,0,1,1,0,0,0
101578635,15.362351,15.326328,38.936,38.929897,0.0,1063.6783,0.5802143,1.0526032,0.0,4,0.0,0.0,0.0,0.0,0.0,0,0,0,0,0,1,1,0,0,0
102082578,15.537476,15.448518,38.936,38.93327,0.0,1069.1287,0.6251305,1.0467119,0.0,4,0.0,0.0,0.0,0.0,0.0,0,0,0,0,0,1,1,0,0,0
102586461,16.014206,15.544646,38.936,38.93593,0.0,1074.5786,0.65927106,1.0422778,0.0,4,0.0,0.0,0.0,0.0,0.0,0,0,0,0,0,1,1,0,0,0
103090449,15.663955,15.517715,38.911198,38.93408,0.0,1080.0288,0.64805776,1.04373,0.0,4,0.0,0.0,0.0,0.0,0.0,0,0,0,0,0,1,1,0,0,0
103594638,15.556934,15.509601,38.936,38.936348,0.0,1085.4823,0.6457775,1.0440259,0.0,4,0.0,0.0,0.0,0.0,0.0,0,0,0,0,0,1,1,0,0,0
104098644,15.420726,15.498753,38.936,38.93365,0.0,1090.9329,0.64287835,1.0444022,0.0,4,0.0,0.0,0.0,0.0,0.0,0,0,0,0,0,1,1,0,0,0
104602562,15.556934,15.503386,38.936,38.93355,0.0,1096.3829,0.645686,1.0440377,0.0,4,0.0,0.0,0.0,0.0,0.0,0,0,0,0,0,1,1,0,0,0
105106747,15.586122,15.498089,38.911198,38.932114,0.0,1101.835,0.64364034,1.0443033,0.0,4,0.0,0.0,0.0,0.0,0.0,0,0,0,0,0,1,1,0,0,0
105610485,15.508288,15.506236,38.936,38.933567,0.0,1107.2825,0.64802533,1.0437343,0.0,4,0.0,0.0,0.0,0.0,0.0,0,0,0,0,0,1,1,0,0,0
106114593,15.634768,15.513182,38.936,38.93354,0.0,1112.7344,0.64979154,1.0435053,0.0,4,0.0,0.0,0.0,0.0,0.0,0,0,0,0,0,1,1,0,0,0
106618959,15.479101,15.508359,38.936,38.934547,0.0,1118.1895,0.6482323,1.0437074,0.0,4,0.0,0.0,0.0,0.0,0.0,0,0,0,0,0,1,1,0,0,0
107122501,15.362351,15.5025835,38.911198,38.93584,0.0,1123.6356,0.64585096,1.0440164,0.0,4,0.0,0.0,0.0,0.0,0.0,0,0,0,0,0,1,1,0,0,0
107622575,15.576392,15.515587,38.911198,38.93488,0.0,1129.0441,0.65303975,1.0430844,0.0,4,0.0,0.0,0.0,0.0,0.0,0,0,0,0,0,1,1,0,0,0
108121587,15.498559,15.520664,38.936,38.93443,0.0,1134.4408,0.65505964,1.0428228,0.0,4,0.0,0.0,0.0,0.0,0.0,0,0,0,0,0,1,1,0,0,0
108625689,15.586122,15.523267,38.9484,38.937366,0.0,1139.8932,0.6564892,1.0426377,0.0,4,0.0,0.0,0.0,0.0,0.0,0,0,0,0,0,1,1,0,0,0
109128831,15.430455,15.514513,38.9236,38.937065,0.0,1145.3352,0.6532896,1.043052,0.0,4,0.0,0.0,0.0,0.0,0.0,0,0,0,0,0,1,1,0,0,0
109622375,15.313705,15.491406,38.936,38.934692,0.0,1150.6729,0.6442221,1.0442277,0.0,4,0.0,0.0,0.0,0.0,0.0,0,0,0,0,0,1,1,0,0,0
111625664,15.469372,15.520325,38.936,38.935944,0.0,1172.3391,0.65401727,1.0429578,0.0,4,0.0,0.0,0.0,0.0,0.0,0,0,0,0,0,1,1,0,0,0
112129677,15.625038,15.538582,38.936,38.935863,0.0,1177.7902,0.6615904,1.041978,0.0,4,0.0,0.0,0.0,0.0,0.0,0,0,0,0,0,1,1,0,0,0
112633709,15.556934,15.531933,38.9484,38.937126,0.0,1183.2418,0.65924436,1.0422813,0.0,4,0.0,0.0,0.0,0.0,0.0,0,0,0,0,0,1,1,0,0,0
113137631,15.430455,15.531345,38.9236,38.936504,0.0,1188.6917,0.6597956,1.04221,0.0,4,0.0,0.0,0.0,0.0,0.0,0,0,0,0,0,1,1,0,0,0
113641743,15.673684,15.510355,38.9484,38.936516,0.0,1194.1436,0.6507576,1.04338,0.0,4,0.0,0.0,0.0,0.0,0.0,0,0,0,0,0,1,1,0,0,0
114145721,15.391539,15.514123,38.936,38.936314,0.0,1199.595,0.6524828,1.0431565,0.0,4,0.0,0.0,0.0,0.0,0.0,0,0,0,0,0,1,1,0,0,0
114649705,15.479101,15.517346,38.936,38.936684,0.0,1205.0457,0.65362245,1.0430089,0.0,4,0.0,0.0,0.0,0.0,0.0,0,0,0,0,0,1,1,0,0,0
115153711,15.459642,15.505843,38.911198,38.935837,0.0,1210.4963,0.64843065,1.0436817,0.0,4,0.0,0.0,0.0,0.0,0.0,0,0,0,0,0,1,1,0,0,0
115657606,15.547205,15.507847,38.9608,38.936726,0.0,1215.9469,0.6509617,1.0433536,0.0,4,0.0,0.0,0.0,0.0,0.0,0,0,0,0,0,1,1,0,0,0
116149767,15.547205,15.49483,38.936,38.938396,0.0,1221.2705,0.6456831,1.044038,0.0,4,0.0,0.0,0.0,0.0,0.0,0,0,0,0,0,1,1,0,0,0
116653766,15.430455,15.489797,38.936,38.93968,0.0,1226.7223,0.643091,1.0443746,0.0,4,0.0,0.0,0.0,0.0,0.0,0,0,0,0,0,1,1,0,0,0
117157706,15.459642,15.479059,38.936,38.937782,0.0,1232.1726,0.6388176,1.0449297,0.0,4,0.0,0.0,0.0,0.0,0.0,0,0,0,0,0,1,1,0,0,0
117652901,15.391539,15.458735,38.936,38.936626,0.0,1237.5283,0.6307085,1.0459849,0.0,4,0.0,0.0,0.0,0.0,0.0,0,0,0,0,0,1,1,0,0,0
118164846,15.449913,15.4459095,38.9484,38.937386,0.0,1243.065,0.62639695,1.0465468,0.0,4,0.0,0.0,0.0,0.0,0.0,0,0,0,0,0,1,1,0,0,0
118664014,15.401268,15.416821,38.936,38.935677,0.0,1248.4635,0.6135023,1.0482308,0.0,4,0.0,0.0,0.0,0.0,0.0,0,0,0,0,0,1,1,0,0,0
119169179,15.352622,15.427231,38.936,38.937157,0.0,1253.9276,0.61772996,1.0476781,0.0,4,0.0,0.0,0.0,0.0,0.0,0,0,0,0,0,1,1,0,0,0
119660938,15.420726,15.443411,38.9484,38.937088,0.0,1259.2467,0.6219652,1.047125,0.0,4,0.0,0.0,0.0,0.0,0.0,0,0,0,0,0,1,1,0,0,0
120164949,15.37208,15.444724,38.9484,38.93933,0.0,1264.6984,0.62128145,1.0472142,0.0,4,0.0,0.0,0.0,0.0,0.0,0,0,0,0,0,1,1,0,0,0
120668904,15.488831,15.451196,38.936,38.937374,0.0,1270.149,0.6236637,1.0469033,0.0,4,0.0,0.0,0.0,0.0,0.0,0,0,0,0,0,1,1,0,0,0
121160849,15.430455,15.443675,38.9236,38.937973,0.0,1275.47,0.6200922,1.0473695,0.0,4,0.0,0.0,0.0,0.0,0.0,0,0,0,0,0,1,1,0,0,0
121664922,15.459642,15.444323,38.9484,38.937824,0.0,1280.9219,0.62167627,1.0471627,0.0,4,0.0,0.0,0.0,0.0,0.0,0,0,0,0,0,1,1,0,0,0
122168942,15.420726,15.437114,38.936,38.936306,0.0,1286.3729,0.6184681,1.0475817,0.0,4,0.0,0.0,0.0,0.0,0.0,0,0,0,0,0,1,1,0,0,0
122672937,15.440185,15.431155,38.936,38.937008,0.0,1291.824,0.61549836,1.0479697,0.0,4,0.0,0.0,0.0,0.0,0.0,0,0,0,0,0,1,1,0,0,0
123176869,15.265059,15.427299,38.911198,38.93899,0.0,1297.2754,0.6139572,1.0481713,0.0,4,0.0,0.0,0.0,0.0,0.0,0,0,0,0,0,1,1,0,0,0
123680867,15.459642,15.416806,38.9236,38.93729,0.0,1302.7263,0.61001474,1.0486872,0.0,4,0.0,0.0,0.0,0.0,0.0,0,0,0,0,0,1,1,0,0,0
124184908,15.566664,15.422087,38.936,38.933212,0.0,1308.1769,0.6124247,1.0483718,0.0,4,0.0,0.0,0.0,0.0,0.0,0,0,0,0,0,1,1,0,0,0
124688874,15.479101,15.413495,38.936,38.933376,0.0,1313.6272,0.60370237,1.0495143,0.0,4,0.0,0.0,0.0,0.0,0.0,0,0,0,0,0,1,1,0,0,0
125192856,15.284517,15.407964,38.936,38.93614,0.0,1319.0782,0.6041973,1.0494493,0.0,4,0.0,0.0,0.0,0.0,0.0,0,0,0,0,0,1,1,0,0,0
125696140,15.265059,15.402591,38.911198,38.937668,0.0,1324.522,0.6020153,1.0497355,0.0,4,0.0,0.0,0.0,0.0,0.0,0,0,0,0,0,1,1,0,0,0
126200820,15.848809,15.420427,38.936,38.938316,0.0,1329.9808,0.61039525,1.0486374,0.0,4,0.0,0.0,0.0,0.0,0.0,0,0,0,0,0,1,1,0,0,0
126700133,15.401268,15.449474,38.936,38.937527,0.0,1335.3813,0.6206692,1.0472941,0.0,4,0.0,0.0,0.0,0.0,0.0,0,0,0,0,0,1,1,0,0,0
127200155,15.566664,15.457944,38.936,38.93697,0.0,1340.7897,0.6246889,1.0467695,0.0,4,0.0,0.0,0.0,0.0,0.0,0,0,0,0,0,1,1,0,0,0
127704135,15.401268,15.4553795,38.936,38.936317,0.0,1346.2404,0.6240061,1.0468585,0.0,4,0.0,0.0,0.0,0.0,0.0,0,0,0,0,0,1,1,0,0,0
128208026,15.537476,15.4557295,38.936,38.937992,0.0,1351.6907,0.6242121,1.0468317,0.0,4,0.0,0.0,0.0,0.0,0.0,0,0,0,0,0,1,1,0,0,0
128700164,15.469372,15.460551,38.936,38.938374,0.0,1357.0138,0.62733155,1.046425,0.0,4,0.0,0.0,0.0,0.0,0.0,0,0,0,0,0,1,1,0,0,0
129204180,15.274789,15.434887,38.9484,38.93586,0.0,1362.4645,0.6176012,1.0476949,0.0,4,0.0,0.0,0.0,0.0,0.0,0,0,0,0,0,1,1,0,0,0
129708122,15.644497,15.393417,38.936,38.93632,0.0,1367.9148,0.60031205,1.0499591,0.0,4,0.0,0.0,0.0,0.0,0.0,0,0,0,0,0,1,1,0,0,0
130212192,15.25533,15.380426,38.936,38.93605,0.0,1373.3666,0.59303886,1.0509144,0.0,4,0.0,0.0,0.0,0.0,0.0,0,0,0,0,0,1,1,0,0,0
130704040,15.303976,15.376541,38.9236,38.937,0.0,1378.6868,0.5921572,1.0510304,0.0,4,0.0,0.0,0.0,0.0,0.0,0,0,0,0,0,1,1,0,0,0
131208044,15.381809,15.374744,38.9484,38.937405,0.0,1384.1382,0.5902484,1.0512815,0.0,4,0.0,0.0,0.0,0.0,0.0,0,0,0,0,0,1,1,0,0,0
131712139,15.469372,15.384298,38.9484,38.936977,0.0,1389.5908,0.59327966,1.0508828,0.0,4,0.0,0.0,0.0,0.0,0.0,0,0,0,0,0,1,1,0,0,0
133212212,15.381809,15.397767,38.936,38.93646,0.0,1405.8142,0.59826213,1.0502281,0.0,4,0.0,0.0,0.0,0.0,0.0,0,0,0,0,0,1,1,0,0,0
133715350,15.2164135,15.35879,38.936,38.93503,0.0,1411.2557,0.5826953,1.0522761,0.0,4,0.0,0.0,0.0,0.0,0.0,0,0,0,0,0,1,1,0,0,0
134207351,15.391539,15.344347,38.936,38.93557,0.0,1416.5773,0.5771459,1.0530082,0.0,4,0.0,0.0,0.0,0.0,0.0,0,0,0,0,0,1,1,0,0,0
134707384,15.449913,15.385457,38.936,38.93583,0.0,1421.9852,0.59162074,1.0511009,0.0,4,0.0,0.0,0.0,0.0,0.0,0,0,0,0,0,1,1,0,0,0
135211376,15.858539,15.444553,38.936,38.937923,0.0,1427.4368,0.6131876,1.0482719,0.0,4,0.0,0.0,0.0,0.0,0.0,0,0,0,0,0,1,1,0,0,0
135715380,15.712601,15.466558,38.9608,38.936596,0.0,1432.8877,0.62150365,1.0471852,0.0,4,0.0,0.0,0.0,0.0,0.0,0,0,0,0,0,1,1,0,0,0
136207339,15.362351,15.438314,38.9236,38.93285,0.0,1438.2079,0.6115635,1.0484844,0.0,4,0.0,0.0,0.0,0.0,0.0,0,0,0,0,0,1,1,0,0,0
136711256,15.586122,15.417572,38.936,38.936058,0.0,1443.6582,0.6041067,1.0494612,0.0,4,0.0,0.0,0.0,0.0,0.0,0,0,0,0,0,1,1,0,0,0
137215322,15.323434,15.389499,38.9608,38.935886,0.0,1449.11,0.59389955,1.0508013,0.0,4,0.0,0.0,0.0,0.0,0.0,0,0,0,0,0,1,1,0,0,0
137719330,14.992642,15.380162,38.936,38.937275,0.0,1454.5612,0.5902942,1.0512754,0.0,4,0.0,0.0,0.0,0.0,0.0,0,0,0,0,0,1,1,0,0,0
138223351,15.479101,15.370264,38.936,38.933887,0.0,1460.0118,0.58281976,1.0522597,0.0,4,0.0,0.0,0.0,0.0,0.0,0,0,0,0,0,1,1,0,0,0
138727698,15.518018,15.357446,38.936,38.936543,0.0,1465.4667,0.57911664,1.0527481,0.0,4,0.0,0.0,0.0,0.0,0.0,0,0,0,0,0,1,1,0,0,0
139231339,15.508288,15.348802,38.936,38.93524,0.0,1470.9137,0.5772913,1.052989,0.0,4,0.0,0.0,0.0,0.0,0.0,0,0,0,0,0,1,1,0,0,0
139735259,15.25533,15.329975,38.9236,38.934826,0.0,1476.3638,0.57040864,1.0538982,0.0,4,0.0,0.0,0.0,0.0,0.0,0,0,0,0,0,1,1,0,0,0
140239279,15.430455,15.343,38.9608,38.936913,0.0,1481.8154,0.57422,1.0533946,0.0,4,0.0,0.0,0.0,0.0,0.0,0,0,0,0,0,1,1,0,0,0
140743318,15.342893,15.358653,38.9608,38.937744,0.0,1487.2672,0.5795954,1.0526849,0.0,4,0.0,0.0,0.0,0.0,0.0,0,0,0,0,0,1,1,0,0,0
141241635,15.177497,15.366102,38.911198,38.934315,0.0,1492.6564,0.58211833,1.0523522,0.0,4,0.0,0.0,0.0,0.0,0.0,0,0,0,0,0,1,1,0,0,0
141754395,15.469372,15.362943,38.9484,38.938065,0.0,1498.2028,0.5810054,1.0524989,0.0,4,0.0,0.0,0.0,0.0,0.0,0,0,0,0,0,1,1,0,0,0
142258552,15.527747,15.364393,38.9484,38.936665,0.0,1503.6552,0.580108,1.0526173,0.0,4,0.0,0.0,0.0,0.0,0.0,0,0,0,0,0,1,1,0,0,0
142762411,15.391539,15.359473,38.936,38.933308,0.0,1509.1039,0.57957584,1.0526875,0.0,4,0.0,0.0,0.0,0.0,0.0,0,0,0,0,0,1,1,0,0,0
143254510,15.2164135,15.347303,38.8988,38.934193,0.0,1514.426,0.57529527,1.0532526,0.0,4,0.0,0.0,0.0,0.0,0.0,0,0,0,0,0,1,1,0,0,0
143758632,15.381809,15.352646,38.936,38.933846,0.0,1519.8783,0.5770605,1.0530194,0.0,4,0.0,0.0,0.0,0.0,0.0,0,0,0,0,0,1,1,0,0,0
144262609,15.498559,15.347634,38.9608,38.933895,0.0,1525.329,0.57432777,1.0533803,0.0,4,0.0,0.0,0.0,0.0,0.0,0,0,0,0,0,1,1,0,0,0
145762572,15.459642,15.25163,38.9484,38.932472,0.0,1541.5505,0.5365837,1.0583899,0.0,4,0.0,0.0,0.0,0.0,0.0,0,0,0,0,0,1,1,0,0,0
146266731,15.187226,15.243663,38.936,38.93349,0.0,1547.0024,0.53265506,1.0589141,0.0,4,0.0,0.0,0.0,0.0,0.0,0,0,0,0,0,1,1,0,0,0
146770555,15.119122,15.2411175,38.936,38.93484,0.0,1552.452,0.5303691,1.0592192,0.0,4,0.0,0.0,0.0,0.0,0.0,0,0,0,0,0,1,1,0,0,0
147274477,15.284517,15.231073,38.9236,38.9329,0.0,1557.9016,0.5258935,1.0598174,0.0,4,0.0,0.0,0.0,0.0,0.0,0,0,0,0,0,1,1,0,0,0
147765683,15.274789,15.218049,38.9236,38.93362,0.0,1563.2136,0.5210865,1.0604606,0.0,4,0.0,0.0,0.0,0.0,0.0,0,0,0,0,0,1,1,0,0,0
148269716,15.13858,15.184668,38.911198,38.930435,0.0,1568.6641,0.50697213,1.0623535,0.0,4,0.0,0.0,0.0,0.0,0.0,0,0,0,0,0,1,1,0,0,0
148773710,15.060747,15.165503,38.936,38.93216,0.0,1574.1145,0.4995473,1.0633521,0.0,4,0.0,0.0,0.0,0.0,0.0,0,0,0,0,0,1,1,0,0,0
149277606,15.206684,15.156269,38.936,38.933594,0.0,1579.564,0.4963172,1.063787,0.0,4,0.0,0.0,0.0,0.0,0.0,0,0,0,0,0,1,1,0,0,0
149769633,15.556934,15.171279,38.936,38.93304,0.0,1584.8845,0.50141174,1.0631012,0.0,4,0.0,0.0,0.0,0.0,0.0,0,0,0,0,0,1,1,0,0,0
150273697,15.265059,15.333121,38.936,38.936394,0.0,1590.3367,0.55243474,1.0562803,0.0,4,0.0,0.0,0.0,0.0,0.0,0,0,0,0,0,1,1,0,0,0
150777722,15.206684,15.304662,38.936,38.933292,0.0,1595.7877,0.542682,1.0575773,0.0,4,0.0,0.0,0.0,0.0,0.0,0,0,0,0,0,1,1,0,0,0
151281768,15.2164135,15.297877,38.936,38.93431,0.0,1601.2389,0.54197437,1.0576714,0.0,4,0.0,0.0,0.0,0.0,0.0,0,0,0,0,0,1,1,0,0,0
151785721,15.206684,15.300768,38.936,38.933437,0.0,1606.6895,0.54450923,1.0573341,0.0,4,0.0,0.0,0.0,0.0,0.0,0,0,0,0,0,1,1,0,0,0
152289730,15.420726,15.302591,38.9484,38.934116,0.0,1612.1404,0.54571134,1.0571741,0.0,4,0.0,0.0,0.0,0.0,0.0,0,0,0,0,0,1,1,0,0,0
152793736,15.362351,15.318503,38.9484,38.936012,0.0,1617.5916,0.5522192,1.0563089,0.0,4,0.0,0.0,0.0,0.0,0.0,0,0,0,0,0,1,1,0,0,0
153297723,15.333163,15.311063,38.9608,38.934547,0.0,1623.0422,0.55038625,1.0565524,0.0,4,0.0,0.0,0.0,0.0,0.0,0,0,0,0,0,1,1,0,0,0
153800904,15.323434,15.306651,38.936,38.933155,0.0,1628.4835,0.5494283,1.0566797,0.0,4,0.0,0.0,0.0,0.0,0.0,0,0,0,0,0,1,1,0,0,0
154304904,15.196955,15.321482,38.9608,38.933914,0.0,1633.9342,0.5550006,1.0559396,0.0,4,0.0,0.0,0.0,0.0,0.0,0,0,0,0,0,1,1,0,0,0
154796919,15.303976,15.317406,38.936,38.934143,0.0,1639.2551,0.5555995,1.05586,0.0,4,0.0,0.0,0.0,0.0,0.0,0,0,0,0,0,1,1,0,0,0
155300867,15.303976,15.3117485,38.936,38.932915,0.0,1644.7047,0.55283815,1.0562267,0.0,4,0.0,0.0,0.0,0.0,0.0,0,0,0,0,0,1,1,0,0,0
155805212,15.313705,15.312712,38.9484,38.93471,0.0,1650.1594,0.55316144,1.0561837,0.0,4,0.0,0.0,0.0,0.0,0.0,0,0,0,0,0,1,1,0,0,0
156296794,15.333163,15.312836,38.936,38.934895,0.0,1655.4761,0.55415803,1.0560514,0.0,4,0.0,0.0,0.0,0.0,0.0,0,0,0,0,0,1,1,0,0,0
156800894,15.313705,15.294874,38.936,38.935036,0.0,1660.9282,0.5459612,1.0571408,0.0,4,0.0,0.0,0.0,0.0,0.0,0,0,0,0,0,1,1,0,0,0
157304894,15.206684,15.290444,38.8988,38.933117,0.0,1666.3787,0.543917,1.0574129,0.0,4,0.0,0.0,0.0,0.0,0.0,0,0,0,0,0,1,1,0,0,0
157808898,15.206684,15.294369,38.936,38.933704,0.0,1671.8291,0.54524213,1.0572364,0.0,4,0.0,0.0,0.0,0.0,0.0,0,0,0,0,0,1,1,0,0,0
158312964,15.391539,15.292607,38.936,38.93499,0.0,1677.2805,0.5445898,1.0573233,0.0,4,0.0,0.0,0.0,0.0,0.0,0,0,0,0,0,1,1,0,0,0
158816832,15.449913,15.287008,38.936,38.934975,0.0,1682.7297,0.542898,1.0575485,0.0,4,0.0,0.0,0.0,0.0,0.0,0,0,0,0,0,1,1,0,0,0
159320930,15.25533,15.287782,38.936,38.93564,0.0,1688.1819,0.5436018,1.0574548,0.0,4,0.0,0.0,0.0,0.0,0.0,0,0,0,0,0,1,1,0,0,0
159824213,15.342893,15.29331,38.9236,38.93479,0.0,1693.6252,0.54630834,1.0570946,0.0,4,0.0,0.0,0.0,0.0,0.0,0,0,0,0,0,1,1,0,0,0
160327995,15.401268,15.288654,38.9484,38.933834,0.0,1699.0734,0.543825,1.0574251,0.0,4,0.0,0.0,0.0,0.0,0.0,0,0,0,0,0,1,1,0,0,0
160832118,14.934268,15.219401,38.911198,38.932518,0.0,1704.525,0.5160621,1.0611336,0.0,4,0.0,0.0,0.0,0.0,0.0,0,0,0,0,0,1,1,0,0,0
161335982,15.080205,15.209995,38.936,38.93371,0.0,1709.974,0.511772,1.061709,0.0,4,0.0,0.0,0.0,0.0,0.0,0,0,0,0,0,1,1,0,0,0
161828000,15.206684,15.199407,38.911198,38.93136,0.0,1715.2944,0.50758153,1.0622717,0.0,4,0.0,0.0,0.0,0.0,0.0,0,0,0,0,0,1,1,0,0,0
162332154,15.440185,15.19798,38.936,38.93268,0.0,1720.7467,0.5069836,1.0623521,0.0,4,0.0,0.0,0.0,0.0,0.0,0,0,0,0,0,1,1,0,0,0
162836039,15.13858,15.203921,38.911198,38.9315,0.0,1726.1957,0.5080951,1.0622027,0.0,4,0.0,0.0,0.0,0.0,0.0,0,0,0,0,0,1,1,0,0,0
163328103,15.119122,15.222943,38.9236,38.930794,0.0,1731.5167,0.51437646,1.0613596,0.0,4,0.0,0.0,0.0,0.0,0.0,0,0,0,0,0,1,1,0,0,0
163832185,15.274789,15.247395,38.936,38.93255,0.0,1736.968,0.5228694,1.0602219,0.0,4,0.0,0.0,0.0,0.0,0.0,0,0,0,0,0,1,1,0,0,0
164840120,15.352622,15.288505,38.936,38.934765,0.0,1747.8699,0.5364688,1.0584052,0.0,4,0.0,0.0,0.0,0.0,0.0,0,0,0,0,0,1,1,0,0,0
165332067,15.031559,15.252061,38.936,38.931404,0.0,1753.19,0.5223692,1.0602889,0.0,4,0.0,0.0,0.0,0.0,0.0,0,0,0,0,0,1,1,0,0,0
165830549,15.245601,15.232059,38.9484,38.93471,0.0,1758.5817,0.5158542,1.0611615,0.0,4,0.0,0.0,0.0,0.0,0.0,0,0,0,0,0,1,1,0,0,0
166331326,15.187226,15.228849,38.9484,38.935127,0.0,1763.9978,0.51437026,1.0613605,0.0,4,0.0,0.0,0.0,0.0,0.0,0,0,0,0,0,1,1,0,0,0
166835708,15.14831,15.234048,38.936,38.934055,0.0,1769.4525,0.516239,1.0611099,0.0,4,0.0,0.0,0.0,0.0,0.0,0,0,0,0,0,1,1,0,0,0
167339313,15.420726,15.2333555,38.911198,38.932384,0.0,1774.8983,0.5153988,1.0612226,0.0,4,0.0,0.0,0.0,0.0,0.0,0,0,0,0,0,1,1,0,0,0
167843314,15.352622,15.223577,38.9484,38.933712,0.0,1780.3489,0.51158744,1.0617338,0.0,4,0.0,0.0,0.0,0.0,0.0,0,0,0,0,0,1,1,0,0,0
168347332,15.284517,15.221148,38.911198,38.932526,0.0,1785.7994,0.5109871,1.0618144,0.0,4,0.0,0.0,0.0,0.0,0.0,0,0,0,0,0,1,1,0,0,0
168851349,14.992642,15.18283,38.936,38.930695,0.0,1791.2495,0.4947179,1.0640025,0.0,4,0.0,0.0,0.0,0.0,0.0,0,0,0,0,0,1,1,0,0,0
169355335,15.109393,15.168553,38.936,38.93127,0.0,1796.7001,0.48938257,1.0647221,0.0,4,0.0,0.0,0.0,0.0,0.0,0,0,0,0,0,1,1,0,0,0
169859364,15.128851,15.158443,38.9236,38.931496,0.0,1802.1506,0.48714572,1.065024,0.0,4,0.0,0.0,0.0,0.0,0.0,0,0,0,0,0,1,1,0,0,0
170363360,15.14831,15.181878,38.936,38.93164,0.0,1807.6012,0.49323207,1.0642028,0.0,4,0.0,0.0,0.0,0.0,0.0,0,0,0,0,0,1,1,0,0,0
170867336,15.031559,15.179346,38.911198,38.93016,0.0,1813.0508,0.49156553,1.0644276,0.0,4,0.0,0.0,0.0,0.0,0.0,0,0,0,0,0,1,1,0,0,0
171379319,15.158038,15.181027,38.936,38.928,0.0,1818.5868,0.4921916,1.0643431,0.0,4,0.0,0.0,0.0,0.0,0.0,0,0,0,0,0,1,1,0,0,0
171878626,15.284517,15.175979,38.9236,38.928005,0.0,1823.986,0.49098665,1.0645057,0.0,4,0.0,0.0,0.0,0.0,0.0,0,0,0,0,0,1,1,0,0,0
172382532,15.187226,15.171422,38.936,38.931988,0.0,1829.4358,0.48931962,1.0647305,0.0,4,0.0,0.0,0.0,0.0,0.0,0,0,0,0,0,1,1,0,0,0
172874540,14.924539,15.176494,38.9484,38.93326,0.0,1834.757,0.4909342,1.0645127,0.0,4,0.0,0.0,0.0,0.0,0.0,0,0,0,0,0,1,1,0,0,0
173378600,14.914809,15.170775,38.936,38.933304,0.0,1840.2084,0.4882415,1.0648761,0.0,4,0.0,0.0,0.0,0.0,0.0,0,0,0,0,0,1,1,0,0,0
174374549,15.109393,15.170209,38.936,38.93321,0.0,1850.9789,0.48732787,1.0649995,0.0,4,0.0,0.0,0.0,0.0,0.0,0,0,0,0,0,1,1,0,0,0
174878619,15.177497,15.173255,38.911198,38.929817,0.0,1856.4293,0.4872964,1.0650038,0.0,4,0.0,0.0,0.0,0.0,0.0,0,0,0,0,0,1,1,0,0,0
175382620,14.759143,15.161783,38.9484,38.929363,0.0,1861.8793,0.48205262,1.0657122,0.0,4,0.0,0.0,0.0,0.0,0.0,0,0,0,0,0,1,1,0,0,0
175886542,15.196955,15.114028,38.936,38.927563,0.0,1867.3284,0.46437627,1.0681076,0.0,4,0.0,0.0,0.0,0.0,0.0,0,0,0,0,0,1,1,0,0,0
177398492,15.089934,15.115468,38.936,38.927155,0.0,1883.6765,0.46448547,1.0680927,0.0,4,0.0,0.0,0.0,0.0,0.0,0,0,0,0,0,1,1,0,0,0
177901632,15.14831,15.101717,38.936,38.930676,0.0,1889.1182,0.45733672,1.0690645,0.0,4,0.0,0.0,0.0,0.0,0.0,0,0,0,0,0,1,1,0,0,0
178405718,15.128851,15.116954,38.9236,38.92726,0.0,1894.5684,0.46362954,1.068209,0.0,4,0.0,0.0,0.0,0.0,0.0,0,0,0,0,0,1,1,0,0,0
178897756,15.089934,15.119063,38.8988,38.930573,0.0,1899.8896,0.46399862,1.0681589,0.0,4,0.0,0.0,0.0,0.0,0.0,0,0,0,0,0,1,1,0,0,0
179401760,15.002372,15.121796,38.936,38.930176,0.0,1905.3397,0.4652756,1.0679854,0.0,4,0.0,0.0,0.0,0.0,0.0,0,0,0,0,0,1,1,0,0,0
179905719,15.109393,15.12327,38.936,38.93183,0.0,1910.7897,0.46567756,1.0679308,0.0,4,0.0,0.0,0.0,0.0,0.0,0,0,0,0,0,1,1,0,0,0
180409726,15.109393,15.12642,38.936,38.93097,0.0,1916.2401,0.46666843,1.0677963,0.0,4,0.0,0.0,0.0,0.0,0.0,0,0,0,0,0,1,1,0,0,0
180901678,15.051018,15.127733,38.911198,38.932484,0.0,1921.5607,0.4674104,1.0676956,0.0,4,0.0,0.0,0.0,0.0,0.0,0,0,0,0,0,1,1,0,0,0
181405664,15.070476,15.121883,38.936,38.930965,0.0,1927.0105,0.4644001,1.0681044,0.0,4,0.0,0.0,0.0,0.0,0.0,0,0,0,0,0,1,1,0,0,0
181909586,15.021831,15.115032,38.936,38.927826,0.0,1932.4596,0.4614604,1.0685037,0.0,4,0.0,0.0,0.0,0.0,0.0,0,0,0,0,0,1,1,0,0,0
182420799,14.992642,15.088676,38.936,38.927467,0.0,1937.987,0.45213872,1.0697722,0.0,4,0.0,0.0,0.0,0.0,0.0,0,0,0,0,0,1,1,0,0,0
182912956,15.420726,15.131426,38.936,38.928497,0.0,1943.309,0.46774656,1.0676501,0.0,4,0.0,0.0,0.0,0.0,0.0,0,0,0,0,0,1,1,0,0,0
183416840,15.119122,15.091812,38.936,38.928318,0.0,1948.7577,0.4498523,1.0700839,0.0,4,0.0,0.0,0.0,0.0,0.0,0,0,0,0,0,1,1,0,0,0
183920840,15.051018,15.0924,38.936,38.93071,0.0,1954.2083,0.45037776,1.0700122,0.0,4,0.0,0.0,0.0,0.0,0.0,0,0,0,0,0,1,1,0,0,0
184412921,14.934268,15.083486,38.911198,38.930008,0.0,1959.5297,0.44671184,1.070512,0.0,4,0.0,0.0,0.0,0.0,0.0,0,0,0,0,0,1,1,0,0,0
184916802,15.089934,15.075777,38.936,38.929096,0.0,1964.9783,0.4439481,1.0708892,0.0,4,0.0,0.0,0.0,0.0,0.0,0,0,0,0,0,1,1,0,0,0
185420880,15.051018,15.077335,38.936,38.93052,0.0,1970.4297,0.44417173,1.0708587,0.0,4,0.0,0.0,0.0,0.0,0.0,0,0,0,0,0,1,1,0,0,0
185924911,15.012101,15.081672,38.911198,38.931046,0.0,1975.88,0.44488794,1.070761,0.0,4,0.0,0.0,0.0,0.0,0.0,0,0,0,0,0,1,1,0,0,0
186428842,15.070476,15.076005,38.9484,38.93052,0.0,1981.3297,0.44277364,1.0710497,0.0,4,0.0,0.0,0.0,0.0,0.0,0,0,0,0,0,1,1,0,0,0
186932208,15.109393,15.072767,38.936,38.93204,0.0,1986.7738,0.44103462,1.0712872,0.0,4,0.0,0.0,0.0,0.0,0.0,0,0,0,0,0,1,1,0,0,0
187432167,14.973185,15.013251,38.936,38.92952,0.0,1992.1796,0.4196661,1.0742147,0.0,4,0.0,0.0,0.0,0.0,0.0,0,0,0,0,0,1,1,0,0,0
187936139,14.798059,14.935288,38.936,38.92732,0.0,1997.6285,0.38894016,1.0784522,0.0,4,0.0,0.0,0.0,0.0,0.0,0,0,0,0,0,1,1,0,0,0
188428072,14.632664,14.886396,38.936,38.926807,0.0,2002.948,0.37103873,1.0809366,0.0,4,0.0,0.0,0.0,0.0,0.0,0,0,0,0,0,1,1,0,0,0
188932124,14.836976,14.828778,38.911198,38.926098,0.0,2008.3983,0.3475731,1.0842105,0.0,4,0.0,0.0,0.0,0.0,0.0,0,0,0,0,0,1,1,0,0,0
189436115,14.691039,14.766011,38.8988,38.926266,0.0,2013.8478,0.32207233,1.0877908,0.0,4,0.0,0.0,0.0,0.0,0.0,0,0,0,0,0,1,1,0,0,0
189940129,15.051018,14.780001,38.8988,38.926956,0.0,2019.2977,0.3252018,1.0873502,0.0,4,0.0,0.0,0.0,0.0,0.0,0,0,0,0,0,1,1,0,0,0
190432171,15.352622,14.975688,38.936,38.93071,0.0,2024.6194,0.39757997,1.0772573,0.0,4,0.0,0.0,0.0,0.0,0.0,0,0,0,0,0,1,1,0,0,0
190936106,15.469372,15.08327,38.936,38.932922,0.0,2030.0692,0.435386,1.0720595,0.0,4,0.0,0.0,0.0,0.0,0.0,0,0,0,0,0,1,1,0,0,0
191440359,15.265059,15.166998,38.936,38.932972,0.0,2035.5228,0.46362764,1.0682093,0.0,4,0.0,0.0,0.0,0.0,0.0,0,0,0,0,0,1,1,0,0,0
191944165,15.089934,15.065579,38.9484,38.928047,0.0,2040.9698,0.4293459,1.0728866,0.0,4,0.0,0.0,0.0,0.0,0.0,0,0,0,0,0,1,1,0,0,0
192447250,14.943996,15.046669,38.936,38.92735,0.0,2046.4097,0.42439395,1.0735656,0.0,4,0.0,0.0,0.0,0.0,0.0,0,0,0,0,0,1,1,0,0,0
192939354,15.187226,15.04602,38.911198,38.92764,0.0,2051.7302,0.42785913,1.0730903,0.0,4,0.0,0.0,0.0,0.0,0.0,0,0,0,0,0,1,1,0,0,0
193443403,15.430455,15.138727,38.9608,38.931076,0.0,2057.182,0.4624594,1.068368,0.0,4,0.0,0.0,0.0,0.0,0.0,0,0,0,0,0,1,1,0,0,0
193947327,15.031559,15.113078,38.936,38.928455,0.0,2062.63,0.4518326,1.069814,0.0,4,0.0,0.0,0.0,0.0,0.0,0,0,0,0,0,1,1,0,0,0
194451326,15.080205,15.125679,38.936,38.931892,0.0,2068.081,0.4581049,1.06896,0.0,4,0.0,0.0,0.0,0.0,0.0,0,0,0,0,0,1,1,0,0,0
194955367,15.041288,15.091672,38.8988,38.932133,0.0,2073.5322,0.44715482,1.0704516,0.0,4,0.0,0.0,0.0,0.0,0.0,0,0,0,0,0,1,1,0,0,0
195459396,14.943996,15.0669985,38.936,38.92926,0.0,2078.982,0.43847638,1.0716368,0.0,4,0.0,0.0,0.0,0.0,0.0,0,0,0,0,0,1,1,0,0,0
196467391,14.885622,15.006151,38.911198,38.927402,0.0,2089.8818,0.41403514,1.0749887,0.0,4,0.0,0.0,0.0,0.0,0.0,0,0,0,0,0,1,1,0,0,0
196971391,15.089934,15.00993,38.9236,38.9266,0.0,2095.3315,0.41523153,1.0748242,0.0,4,0.0,0.0,0.0,0.0,0.0,0,0,0,0,0,1,1,0,0,0
197472181,15.012101,14.960362,38.936,38.928787,0.0,2100.748,0.39484292,1.0776355,0.0,4,0.0,0.0,0.0,0.0,0.0,0,0,0,0,0,1,1,0,0,0
197970544,14.778601,14.936704,38.9236,38.928116,0.0,2106.1377,0.38605863,1.0788513,0.0,4,0.0,0.0,0.0,0.0,0.0,0,0,0,0,0,1,1,0,0,0
198474519,14.836976,14.9221525,38.9236,38.927914,0.0,2111.5867,0.38142902,1.0794932,0.0,4,0.0,0.0,0.0,0.0,0.0,0,0,0,0,0,1,1,0,0,0
198966465,15.089934,14.908746,38.911198,38.928368,0.0,2116.9065,0.3761981,1.0802194,0.0,4,0.0,0.0,0.0,0.0,0.0,0,0,0,0,0,1,1,0,0,0
199470468,14.817518,14.91244,38.936,38.927395,0.0,2122.3562,0.37946063,1.0797664,0.0,4,0.0,0.0,0.0,0.0,0.0,0,0,0,0,0,1,1,0,0,0
199974605,14.798059,14.908761,38.936,38.931377,0.0,2127.8083,0.37755042,1.0800315,0.0,4,0.0,0.0,0.0,0.0,0.0,0,0,0,0,0,1,1,0,0,0
200478540,15.099664,14.897573,38.936,38.930367,0.0,2133.258,0.37385207,1.0805454,0.0,4,0.0,0.0,0.0,0.0,0.0,0,0,0,0,0,1,1,0,0,0
200970529,15.002372,14.883917,38.911198,38.929775,0.0,2138.578,0.36874038,1.0812564,0.0,4,0.0,0.0,0.0,0.0,0.0,0,0,0,0,0,1,1,0,0,0
201474586,14.827247,14.870776,38.9236,38.927685,0.0,2144.0273,0.36294252,1.0820639,0.0,4,0.0,0.0,0.0,0.0,0.0,0,0,0,0,0,1,1,0,0,0
201978767,15.031559,14.912531,38.9236,38.927174,0.0,2149.4788,0.37912065,1.0798136,0.0,4,0.0,0.0,0.0,0.0,0.0,0,0,0,0,0,1,1,0,0,0
202482590,15.381809,14.977972,38.9236,38.926765,0.0,2154.9265,0.40327197,1.0764714,0.0,4,0.0,0.0,0.0,0.0,0.0,0,0,0,0,0,1,1,0,0,0
202994597,15.177497,15.039,38.911198,38.92594,0.0,2160.4626,0.42468578,1.0735255,0.0,4,0.0,0.0,0.0,0.0,0.0,0,0,0,0,0,1,1,0,0,0
203485730,15.089934,15.092682,38.936,38.92741,0.0,2165.774,0.4446538,1.0707929,0.0,4,0.0,0.0,0.0,0.0,0.0,0,0,0,0,0,1,1,0,0,0
203989728,15.099664,15.12567,38.936,38.930183,0.0,2171.2246,0.45545036,1.0693213,0.0,4,0.0,0.0,0.0,0.0,0.0,0,0,0,0,0,1,1,0,0,0
204493993,15.196955,15.151574,38.9236,38.929382,0.0,2176.6765,0.46624452,1.0678539,0.0,4,0.0,0.0,0.0,0.0,0.0,0,0,0,0,0,1,1,0,0,0
204997610,15.012101,15.141194,38.9484,38.92815,0.0,2182.122,0.46228772,1.0683913,0.0,4,0.0,0.0,0.0,0.0,0.0,0,0,0,0,0,1,1,0,0,0
205501693,14.992642,15.145592,38.8988,38.927944,0.0,2187.5728,0.46200687,1.0684295,0.0,4,0.0,0.0,0.0,0.0,0.0,0,0,0,0,0,1,1,0,0,0
205993746,15.265059,15.01952,38.936,38.925404,0.0,2192.893,0.41182452,1.075293,0.0,4,0.0,0.0,0.0,0.0,0.0,0,0,0,0,0,1,1,0,0,0
206497708,15.080205,15.059374,38.936,38.928284,0.0,2198.3428,0.42721206,1.073179,0.0,4,0.0,0.0,0.0,0.0,0.0,0,0,0,0,0,1,1,0,0,0
207001810,14.914809,15.0556135,38.936,38.928146,0.0,2203.7937,0.42891628,1.0729455,0.0,4,0.0,0.0,0.0,0.0,0.0,0,0,0,0,0,1,1,0,0,0
207505748,15.002372,15.038591,38.936,38.928288,0.0,2209.2432,0.4258874,1.0733607,0.0,4,0.0,0.0,0.0,0.0,0.0,0,0,0,0,0,1,1,0,0,0
208513711,15.099664,15.006341,38.8988,38.925632,0.0,2220.1426,0.41330653,1.075089,0.0,4,0.0,0.0,0.0,0.0,0.0,0,0,0,0,0,1,1,0,0,0
209017997,14.895351,14.987484,38.911198,38.923096,0.0,2225.595,0.4063638,1.0760452,0.0,4,0.0,0.0,0.0,0.0,0.0,0,0,0,0,0,1,1,0,0,0
209521788,15.060747,14.985251,38.911198,38.92291,0.0,2231.0413,0.40609103,1.0760827,0.0,4,0.0,0.0,0.0,0.0,0.0,0,0,0,0,0,1,1,0,0,0
210028938,14.603477,15.000335,38.936,38.924202,0.0,2236.5247,0.4122885,1.075229,0.0,4,0.0,0.0,0.0,0.0,0.0,0,0,0,0,0,1,1,0,0,0
210520900,14.992642,14.950978,38.911198,38.920204,0.0,2241.8433,0.394337,1.0777055,0.0,4,0.0,0.0,0.0,0.0,0.0,0,0,0,0,0,1,1,0,0,0
211024925,15.2164135,14.952042,38.9236,38.92144,0.0,2247.2935,0.3946274,1.0776653,0.0,4,0.0,0.0,0.0,0.0,0.0,0,0,0,0,0,1,1,0,0,0
211528897,14.642393,14.979401,38.8988,38.92211,0.0,2252.7422,0.39657813,1.0773957,0.0,4,0.0,0.0,0.0,0.0,0.0,0,0,0,0,0,1,1,0,0,0
212032900,14.895351,14.957912,38.911198,38.92203,0.0,2258.1912,0.39027625,1.0782672,0.0,4,0.0,0.0,0.0,0.0,0.0,0,0,0,0,0,1,1,0,0,0
212524937,14.885622,14.948478,38.911198,38.9196,0.0,2263.5103,0.3872226,1.07869,0.0,4,0.0,0.0,0.0,0.0,0.0,0,0,0,0,0,1,1,0,0,0
213028928,14.798059,14.931842,38.936,38.92031,0.0,2268.9597,0.38061506,1.0796062,0.0,4,0.0,0.0,0.0,0.0,0.0,0,0,0,0,0,1,1,0,0,0
213532962,14.90508,14.931526,38.936,38.91974,0.0,2274.4084,0.38033372,1.0796452,0.0,4,0.0,0.0,0.0,0.0,0.0,0,0,0,0,0,1,1,0,0,0
214036927,14.934268,14.934024,38.936,38.921547,0.0,2279.858,0.38097316,1.0795565,0.0,4,0.0,0.0,0.0,0.0,0.0,0,0,0,0,0,1,1,0,0,0
214540959,15.119122,14.995869,38.9236,38.92409,0.0,2285.3079,0.40339643,1.0764543,0.0,4,0.0,0.0,0.0,0.0,0.0,0,0,0,0,0,1,1,0,0,0
215044386,15.060747,14.992719,38.911198,38.923187,0.0,2290.7515,0.40205652,1.0766392,0.0,4,0.0,0.0,0.0,0.0,0.0,0,0,0,0,0,1,1,0,0,0
215542582,15.021831,15.001729,38.9236,38.922565,0.0,2296.1377,0.4077552,1.0758533,0.0,4,0.0,0.0,0.0,0.0,0.0,0,0,0,0,0,1,1,0,0,0
216040007,15.109393,15.004943,38.911198,38.92535,0.0,2301.5164,0.40853578,1.0757458,0.0,4,0.0,0.0,0.0,0.0,0.0,0,0,0,0,0,1,1,0,0,0
216544129,15.060747,15.016303,38.936,38.926113,0.0,2306.968,0.41504794,1.0748495,0.0,4,0.0,0.0,0.0,0.0,0.0,0,0,0,0,0,1,1,0,0,0
217036101,14.953726,15.015785,38.936,38.925358,0.0,2312.2876,0.41610605,1.0747039,0.0,4,0.0,0.0,0.0,0.0,0.0,0,0,0,0,0,1,1,0,0,0
217540066,14.973185,15.01335,38.936,38.921535,0.0,2317.7363,0.41412956,1.0749757,0.0,4,0.0,0.0,0.0,0.0,0.0,0,0,0,0,0,1,1,0,0,0
218044127,15.051018,15.021383,38.936,38.92433,0.0,2323.1863,0.4172514,1.0745465,0.0,4,0.0,0.0,0.0,0.0,0.0,0,0,0,0,0,1,1,0,0,0
218548033,15.13858,15.020493,38.911198,38.923244,0.0,2328.6338,0.41775733,1.074477,0.0,4,0.0,0.0,0.0,0.0,0.0,0,0,0,0,0,1,1,0,0,0
219052135,14.963455,15.024211,38.9236,38.922577,0.0,2334.0847,0.4184106,1.0743872,0.0,4,0.0,0.0,0.0,0.0,0.0,0,0,0,0,0,1,1,0,0,0
219544142,15.13858,15.019943,38.936,38.92246,0.0,2339.4038,0.41632444,1.0746739,0.0,4,0.0,0.0,0.0,0.0,0.0,0,0,0,0,0,1,1,0,0,0
220048121,15.187226,14.960851,38.936,38.92148,0.0,2344.8518,0.39435464,1.077703,0.0,4,0.0,0.0,0.0,0.0,0.0,0,0,0,0,0,1,1,0,0,0
220551341,15.041288,14.979473,38.9236,38.923492,0.0,2350.2917,0.40108043,1.0767739,0.0,4,0.0,0.0,0.0,0.0,0.0,0,0,0,0,0,1,1,0,0,0
221051248,14.973185,14.968987,38.936,38.921516,0.0,2355.6956,0.39532548,1.0775689,0.0,4,0.0,0.0,0.0,0.0,0.0,0,0,0,0,0,1,1,0,0,0
221555310,15.041288,14.981695,38.911198,38.92044,0.0,2361.144,0.39990312,1.0769365,0.0,4,0.0,0.0,0.0,0.0,0.0,0,0,0,0,0,1,1,0,0,0
222059312,14.68131,14.978813,38.911198,38.91945,0.0,2366.5935,0.39987165,1.0769408,0.0,4,0.0,0.0,0.0,0.0,0.0,0,0,0,0,0,1,1,0,0,0
222563337,14.895351,14.965407,38.911198,38.920933,0.0,2372.043,0.39680606,1.0773642,0.0,4,0.0,0.0,0.0,0.0,0.0,0,0,0,0,0,1,1,0,0,0
223067315,15.109393,14.9684925,38.9236,38.921505,0.0,2377.492,0.39796716,1.0772038,0.0,4,0.0,0.0,0.0,0.0,0.0,0,0,0,0,0,1,1,0,0,0
223571303,15.060747,14.99749,38.8988,38.920544,0.0,2382.9412,0.4091671,1.0756589,0.0,4,0.0,0.0,0.0,0.0,0.0,0,0,0,0,0,1,1,0,0,0
224075397,15.031559,14.999713,38.9236,38.919666,0.0,2388.3909,0.4083727,1.0757684,0.0,4,0.0,0.0,0.0,0.0,0.0,0,0,0,0,0,1,1,0,0,0
224579343,14.943996,14.98193,38.8988,38.918953,0.0,2393.8384,0.3999775,1.0769261,0.0,4,0.0,0.0,0.0,0.0,0.0,0,0,0,0,0,1,1,0,0,0
225083324,14.895351,14.970859,38.9608,38.920467,0.0,2399.2874,0.3968814,1.0773538,0.0,4,0.0,0.0,0.0,0.0,0.0,0,0,0,0,0,1,1,0,0,0
225584117,15.002372,14.979015,38.9236,38.921974,0.0,2404.702,0.39932376,1.0770165,0.0,4,0.0,0.0,0.0,0.0,0.0,0,0,0,0,0,1,1,0,0,0
226086519,14.973185,14.957213,38.8864,38.918636,0.0,2410.1328,0.39090377,1.0781804,0.0,4,0.0,0.0,0.0,0.0,0.0,0,0,0,0,0,1,1,0,0,0
226578588,14.7007675,14.941951,38.8864,38.91873,0.0,2415.4524,0.38466913,1.0790439,0.0,4,0.0,0.0,0.0,0.0,0.0,0,0,0,0,0,1,1,0,0,0
227082534,14.807789,14.944079,38.9608,38.921238,0.0,2420.9004,0.3843177,1.0790926,0.0,4,0.0,0.0,0.0,0.0,0.0,0,0,0,0,0,1,1,0,0,0
227586522,14.875893,14.92517,38.911198,38.923523,0.0,2426.3499,0.37549096,1.0803176,0.0,4,0.0,0.0,0.0,0.0,0.0,0,0,0,0,0,1,1,0,0,0
228078580,14.817518,14.919631,38.9236,38.9211,0.0,2431.6694,0.37340575,1.0806074,0.0,4,0.0,0.0,0.0,0.0,0.0,0,0,0,0,0,1,1,0,0,0
228582633,14.963455,14.924378,38.911198,38.921284,0.0,2437.1191,0.37339813,1.0806085,0.0,4,0.0,0.0,0.0,0.0,0.0,0,0,0,0,0,1,1,0,0,0
229086525,14.827247,14.925183,38.9236,38.921112,0.0,2442.5664,0.37281018,1.0806903,0.0,4,0.0,0.0,0.0,0.0,0.0,0,0,0,0,0,1,1,0,0,0
229590526,14.963455,14.931172,38.8988,38.917732,0.0,2448.0142,0.3758996,1.0802609,0.0,4,0.0,0.0,0.0,0.0,0.0,0,0,0,0,0,1,1,0,0,0
230094530,14.934268,14.926583,38.936,38.91868,0.0,2453.4626,0.37360793,1.0805793,0.0,4,0.0,0.0,0.0,0.0,0.0,0,0,0,0,0,1,1,0,0,0
230597758,14.953726,14.939696,38.911198,38.918495,0.0,2458.9026,0.37976533,1.0797241,0.0,4,0.0,0.0,0.0,0.0,0.0,0,0,0,0,0,1,1,0,0,0
231101801,14.759143,14.934918,38.911198,38.920128,0.0,2464.352,0.3786896,1.0798733,0.0,4,0.0,0.0,0.0,0.0,0.0,0,0,0,0,0,1,1,0,0,0
231593766,15.109393,14.947801,38.9236,38.92214,0.0,2469.672,0.38379222,1.0791655,0.0,4,0.0,0.0,0.0,0.0,0.0,0,0,0,0,0,1,1,0,0,0
232097606,15.012101,14.948007,38.911198,38.920807,0.0,2475.1191,0.3845299,1.0790632,0.0,4,0.0,0.0,0.0,0.0,0.0,0,0,0,0,0,1,1,0,0,0
232601959,15.089934,14.946817,38.936,38.92157,0.0,2480.572,0.3844636,1.0790724,0.0,4,0.0,0.0,0.0,0.0,0.0,0,0,0,0,0,1,1,0,0,0
233093604,14.943996,14.942904,38.9236,38.922295,0.0,2485.8877,0.38192254,1.0794247,0.0,4,0.0,0.0,0.0,0.0,0.0,0,0,0,0,0,1,1,0,0,0
233597679,14.846705,14.944547,38.911198,38.92061,0.0,2491.3376,0.38274413,1.0793108,0.0,4,0.0,0.0,0.0,0.0,0.0,0,0,0,0,0,1,1,0,0,0
234101609,14.68131,14.915522,38.911198,38.918335,0.0,2496.785,0.3703273,1.0810355,0.0,4,0.0,0.0,0.0,0.0,0.0,0,0,0,0,0,1,1,0,0,0
234605714,14.934268,14.90831,38.911198,38.918804,0.0,2502.234,0.3669694,1.0815029,0.0,4,0.0,0.0,0.0,0.0,0.0,0,0,0,0,0,1,1,0,0,0
235116946,14.943996,14.938961,38.911198,38.91975,0.0,2507.7612,0.3783434,1.0799215,0.0,4,0.0,0.0,0.0,0.0,0.0,0,0,0,0,0,1,1,0,0,0
235608868,14.515914,14.93108,38.9236,38.91923,0.0,2513.0793,0.37307292,1.0806537,0.0,4,0.0,0.0,0.0,0.0,0.0,0,0,0,0,0,1,1,0,0,0
236112892,15.070476,14.835263,38.911198,38.918148,0.0,2518.5273,0.3380292,1.0855477,0.0,4,0.0,0.0,0.0,0.0,0.0,0,0,0,0,0,1,1,0,0,0
236616945,15.333163,14.919727,38.936,38.92067,0.0,2523.977,0.36948854,1.0811522,0.0,4,0.0,0.0,0.0,0.0,0.0,0,0,0,0,0,1,1,0,0,0
237120834,15.021831,14.912656,38.936,38.92006,0.0,2529.4246,0.36427575,1.0818781,0.0,4,0.0,0.0,0.0,0.0,0.0,0,0,0,0,0,1,1,0,0,0
237612880,14.982914,14.921714,38.911198,38.921272,0.0,2534.7446,0.36917192,1.0811963,0.0,4,0.0,0.0,0.0,0.0,0.0,0,0,0,0,0,1,1,0,0,0
238116829,14.710497,14.897286,38.911198,38.920025,0.0,2540.1924,0.35871965,1.0826528,0.0,4,0.0,0.0,0.0,0.0,0.0,0,0,0,0,0,1,1,0,0,0
238620828,14.7007675,14.834579,38.9236,38.917774,0.0,2545.6416,0.33526832,1.0859351,0.0,4,0.0,0.0,0.0,0.0,0.0,0,0,0,0,0,1,1,0,0,0
239124923,14.545101,14.780125,38.9236,38.919697,0.0,2551.0918,0.3149398,1.0887965,0.0,4,0.0,0.0,0.0,0.0,0.0,0,0,0,0,0,1,1,0,0,0
239628935,14.350518,14.733189,38.9236,38.919872,0.0,2556.5403,0.2988146,1.0910771,0.0,4,0.0,0.0,0.0,0.0,0.0,0,0,0,0,0,1,1,0,0,0
240628155,14.408893,14.628747,38.9236,38.91875,0.0,2567.3423,0.25984508,1.096628,0.0,4,0.0,0.0,0.0,0.0,0.0,0,0,0,0,0,1,1,0,0,0
241132190,14.418622,14.565205,38.936,38.916397,0.0,2572.791,0.23456125,1.1002597,0.0,4,0.0,0.0,0.0,0.0,0.0,0,0,0,0,0,1,1,0,0,0
241636139,15.381809,14.684481,38.911198,38.919117,0.0,2578.239,0.27758247,1.0940944,0.0,4,0.0,0.0,0.0,0.0,0.0,0,0,0,0,0,1,1,0,0,0
242128113,15.284517,14.867326,38.9236,38.92099,0.0,2583.5583,0.34305412,1.0848433,0.0,4,0.0,0.0,0.0,0.0,0.0,0,0,0,0,0,1,1,0,0,0
242632148,15.323434,14.899105,38.911198,38.92122,0.0,2589.008,0.3500455,1.0838646,0.0,4,0.0,0.0,0.0,0.0,0.0,0,0,0,0,0,1,1,0,0,0
243136111,15.041288,15.026662,38.936,38.924065,0.0,2594.4578,0.39021474,1.0782758,0.0,4,0.0,0.0,0.0,0.0,0.0,0,0,0,0,0,1,1,0,0,0
243640137,14.875893,14.839089,38.936,38.91836,0.0,2599.9062,0.32154256,1.0878655,0.0,4,0.0,0.0,0.0,0.0,0.0,0,0,0,0,0,1,1,0,0,0
244132182,14.642393,14.865048,38.936,38.917187,0.0,2605.224,0.33836395,1.0855007,0.0,4,0.0,0.0,0.0,0.0,0.0,0,0,0,0,0,1,1,0,0,0
244636178,14.642393,14.849047,38.911198,38.91865,0.0,2610.6726,0.33644944,1.0857694,0.0,4,0.0,0.0,0.0,0.0,0.0,0,0,0,0,0,1,1,0,0,0
245138603,15.196955,14.853975,38.9484,38.91899,0.0,2616.104,0.33943206,1.085351,0.0,4,0.0,0.0,0.0,0.0,0.0,0,0,0,0,0,1,1,0,0,0
245635307,14.807789,14.960802,38.911198,38.91773,0.0,2621.4736,0.37481576,1.0804114,0.0,4,0.0,0.0,0.0,0.0,0.0,0,0,0,0,0,1,1,0,0,0
246139291,14.866163,14.895776,38.911198,38.915627,0.0,2626.9214,0.3527444,1.0834873,0.0,4,0.0,0.0,0.0,0.0,0.0,0,0,0,0,0,1,1,0,0,0
246643342,14.836976,14.882494,38.8988,38.91587,0.0,2632.3706,0.34967452,1.0839164,0.0,4,0.0,0.0,0.0,0.0,0.0,0,0,0,0,0,1,1,0,0,0
247147328,15.012101,14.891786,38.911198,38.919773,0.0,2637.819,0.35669023,1.082936,0.0,4,0.0,0.0,0.0,0.0,0.0,0,0,0,0,0,1,1,0,0,0
247651301,14.661851,14.9032345,38.911198,38.91916,0.0,2643.2673,0.3616274,1.0822473,0.0,4,0.0,0.0,0.0,0.0,0.0,0,0,0,0,0,1,1,0,0,0
248155404,14.934268,14.892027,38.936,38.920044,0.0,2648.7166,0.36064035,1.082385,0.0,4,0.0,0.0,0.0,0.0,0.0,0,0,0,0,0,1,1,0,0,0
248659328,14.807789,14.877259,38.911198,38.91623,0.0,2654.164,0.3528455,1.0834731,0.0,4,0.0,0.0,0.0,0.0,0.0,0,0,0,0,0,1,1,0,0,0
249163348,14.7007675,14.867697,38.911198,38.917152,0.0,2659.612,0.3473776,1.0842378,0.0,4,0.0,0.0,0.0,0.0,0.0,0,0,0,0,0,1,1,0,0,0
249667305,14.720226,14.845001,38.911198,38.918285,0.0,2665.06,0.33807594,1.0855411,0.0,4,0.0,0.0,0.0,0.0,0.0,0,0,0,0,0,1,1,0,0,0
250162510,14.982914,14.839479,38.8988,38.916534,0.0,2670.413,0.33667308,1.085738,0.0,4,0.0,0.0,0.0,0.0,0.0,0,0,0,0,0,1,1,0,0,0
250662498,14.827247,14.816702,38.911198,38.914413,0.0,2675.8176,0.3275693,1.087017,0.0,4,0.0,0.0,0.0,0.0,0.0,0,0,0,0,0,1,1,0,0,0
251166495,14.934268,14.793281,38.9236,38.91489,0.0,2681.2646,0.3187521,1.0882587,0.0,4,0.0,0.0,0.0,0.0,0.0,0,0,0,0,0,1,1,0,0,0
251670423,14.574288,14.764899,38.9236,38.915077,0.0,2686.7126,0.30674344,1.0899545,0.0,4,0.0,0.0,0.0,0.0,0.0,0,0,0,0,0,1,1,0,0,0
252162538,14.7007675,14.740709,38.936,38.918945,0.0,2692.033,0.29595166,1.0914829,0.0,4,0.0,0.0,0.0,0.0,0.0,0,0,0,0,0,1,1,0,0,0
253170599,14.924539,14.670217,38.936,38.914825,0.0,2702.9302,0.26848203,1.0953928,0.0,4,0.0,0.0,0.0,0.0,0.0,0,0,0,0,0,1,1,0,0,0
253674582,14.574288,14.615711,38.9236,38.914467,0.0,2708.3787,0.24734525,1.0984204,0.0,4,0.0,0.0,0.0,0.0,0.0,0,0,0,0,0,1,1,0,0,0
254178620,14.369976,14.563677,38.911198,38.914894,0.0,2713.8267,0.22698955,1.101352,0.0,4,0.0,0.0,0.0,0.0,0.0,0,0,0,0,0,1,1,0,0,0
254682598,14.418622,14.526312,38.8988,38.913822,0.0,2719.2747,0.21213798,1.1035007,0.0,4,0.0,0.0,0.0,0.0,0.0,0,0,0,0,0,1,1,0,0,0
255186760,14.710497,14.574397,38.911198,38.915985,0.0,2724.7244,0.23115186,1.1007513,0.0,4,0.0,0.0,0.0,0.0,0.0,0,0,0,0,0,1,1,0,0,0
255681759,15.080205,14.69863,38.911198,38.914776,0.0,2730.0752,0.27734405,1.0941284,0.0,4,0.0,0.0,0.0,0.0,0.0,0,0,0,0,0,1,1,0,0,0
256181756,14.963455,14.800233,38.911198,38.915672,0.0,2735.4805,0.3138011,1.0889573,0.0,4,0.0,0.0,0.0,0.0,0.0,0,0,0,0,0,1,1,0,0,0
256685962,15.070476,14.884262,38.911198,38.91815,0.0,2740.9314,0.34366685,1.0847574,0.0,4,0.0,0.0,0.0,0.0,0.0,0,0,0,0,0,1,1,0,0,0
257189782,15.060747,14.946815,38.936,38.91885,0.0,2746.3777,0.36384803,1.0819377,0.0,4,0.0,0.0,0.0,0.0,0.0,0,0,0,0,0,1,1,0,0,0
257681688,15.167768,14.985623,38.9236,38.91733,0.0,2751.695,0.37642747,1.0801876,0.0,4,0.0,0.0,0.0,0.0,0.0,0,0,0,0,0,1,1,0,0,0
258185676,15.031559,14.995845,38.911198,38.920433,0.0,2757.1436,0.3795274,1.0797571,0.0,4,0.0,0.0,0.0,0.0,0.0,0,0,0,0,0,1,1,0,0,0
258689663,15.128851,15.009287,38.911198,38.914974,0.0,2762.5913,0.38427335,1.0790988,0.0,4,0.0,0.0,0.0,0.0,0.0,0,0,0,0,0,1,1,0,0,0
259193741,15.012101,15.02815,38.874,38.9131,0.0,2768.0393,0.39413863,1.0777329,0.0,4,0.0,0.0,0.0,0.0,0.0,0,0,0,0,0,1,1,0,0,0
259697714,15.070476,15.022482,38.911198,38.91409,0.0,2773.4873,0.3928011,1.0779179,0.0,4,0.0,0.0,0.0,0.0,0.0,0,0,0,0,0,1,1,0,0,0
260201681,14.953726,14.995316,38.911198,38.91247,0.0,2778.9343,0.3821519,1.0793929,0.0,4,0.0,0.0,0.0,0.0,0.0,0,0,0,0,0,1,1,0,0,0
260705718,14.778601,14.968737,38.8988,38.914425,0.0,2784.383,0.372783,1.080694,0.0,4,0.0,0.0,0.0,0.0,0.0,0,0,0,0,0,1,1,0,0,0
261209972,14.661851,14.901963,38.9236,38.91157,0.0,2789.8333,0.35023814,1.0838376,0.0,4,0.0,0.0,0.0,0.0,0.0,0,0,0,0,0,1,1,0,0,0
261713711,14.846705,14.856157,38.911198,38.911903,0.0,2795.2778,0.33484966,1.0859939,0.0,4,0.0,0.0,0.0,0.0,0.0,0,0,0,0,0,1,1,0,0,0
263217771,14.7494135,14.767138,38.8988,38.909492,0.0,2811.533,0.30362827,1.0903953,0.0,4,0.0,0.0,0.0,0.0,0.0,0,0,0,0,0,1,1,0,0,0
263720919,14.56456,14.746228,38.8988,38.909595,0.0,2816.9712,0.2950409,1.0916121,0.0,4,0.0,0.0,0.0,0.0,0.0,0,0,0,0,0,1,1,0,0,0
264213202,14.476997,14.72918,38.911198,38.90936,0.0,2822.2922,0.28686458,1.0927732,0.0,4,0.0,0.0,0.0,0.0,0.0,0,0,0,0,0,1,1,0,0,0
264716936,14.924539,14.705907,38.8988,38.9093,0.0,2827.7358,0.27858716,1.0939512,0.0,4,0.0,0.0,0.0,0.0,0.0,0,0,0,0,0,1,1,0,0,0
265220879,15.158038,14.82308,38.8988,38.91239,0.0,2833.1826,0.31909257,1.0882108,0.0,4,0.0,0.0,0.0,0.0,0.0,0,0,0,0,0,1,1,0,0,0
265724929,14.729956,14.673194,38.911198,38.908806,0.0,2838.63,0.26056033,1.0965255,0.0,4,0.0,0.0,0.0,0.0,0.0,0,0,0,0,0,1,1,0,0,0
266228799,14.963455,14.740079,38.911198,38.911606,0.0,2844.077,0.2899521,1.0923345,0.0,4,0.0,0.0,0.0,0.0,0.0,0,0,0,0,0,1,1,0,0,0
266732800,14.7494135,14.7866125,38.9236,38.911156,0.0,2849.5251,0.3043564,1.0902922,0.0,4,0.0,0.0,0.0,0.0,0.0,0,0,0,0,0,1,1,0,0,0
267236793,14.827247,14.744241,38.911198,38.90583,0.0,2854.9714,0.29107362,1.0921752,0.0,4,0.0,0.0,0.0,0.0,0.0,0,0,0,0,0,1,1,0,0,0
267740819,14.768872,14.73652,38.911198,38.906036,0.0,2860.4185,0.28855973,1.0925323,0.0,4,0.0,0.0,0.0,0.0,0.0,0,0,0,0,0,1,1,0,0,0
268244919,14.729956,14.736438,38.911198,38.90622,0.0,2865.8657,0.28907472,1.0924591,0.0,4,0.0,0.0,0.0,0.0,0.0,0,0,0,0,0,1,1,0,0,0
268748892,14.817518,14.77399,38.911198,38.909164,0.0,2871.3135,0.30284578,1.0905061,0.0,4,0.0,0.0,0.0,0.0,0.0,0,0,0,0,0,1,1,0,0,0
269254546,14.807789,14.797651,38.911198,38.908474,0.0,2876.7786,0.31053573,1.0894184,0.0,4,0.0,0.0,0.0,0.0,0.0,0,0,0,0,0,1,1,0,0,0
269756904,14.817518,14.808288,38.8988,38.910774,0.0,2882.2085,0.31408578,1.0889171,0.0,4,0.0,0.0,0.0,0.0,0.0,0,0,0,0,0,1,1,0,0,0
270260134,14.807789,14.815288,38.9236,38.912888,0.0,2887.6482,0.3170274,1.088502,0.0,4,0.0,0.0,0.0,0.0,0.0,0,0,0,0,0,1,1,0,0,0
270764111,14.963455,14.812595,38.936,38.912827,0.0,2893.0955,0.3163193,1.088602,0.0,4,0.0,0.0,0.0,0.0,0.0,0,0,0,0,0,1,1,0,0,0
271256109,14.729956,14.800485,38.874,38.910027,0.0,2898.4128,0.31190854,1.0892245,0.0,4,0.0,0.0,0.0,0.0,0.0,0,0,0,0,0,1,1,0,0,0
271759991,14.7007675,14.7909565,38.9236,38.910446,0.0,2903.8594,0.30836803,1.0897248,0.0,4,0.0,0.0,0.0,0.0,0.0,0,0,0,0,0,1,1,0,0,0
272264162,14.817518,14.780258,38.911198,38.908848,0.0,2909.3088,0.30446368,1.0902771,0.0,4,0.0,0.0,0.0,0.0,0.0,0,0,0,0,0,1,1,0,0,0
272756110,14.68131,14.783969,38.911198,38.91,0.0,2914.6262,0.30573255,1.0900975,0.0,4,0.0,0.0,0.0,0.0,0.0,0,0,0,0,0,1,1,0,0,0
273260108,14.613205,14.764069,38.9236,38.910004,0.0,2920.0735,0.2984603,1.0911273,0.0,4,0.0,0.0,0.0,0.0,0.0,0,0,0,0,0,1,1,0,0,0
273764149,14.807789,14.768052,38.9236,38.90988,0.0,2925.5217,0.2982872,1.0911518,0.0,4,0.0,0.0,0.0,0.0,0.0,0,0,0,0,0,1,1,0,0,0
274268166,14.759143,14.783844,38.8988,38.908882,0.0,2930.969,0.30442888,1.090282,0.0,4,0.0,0.0,0.0,0.0,0.0,0,0,0,0,0,1,1,0,0,0
274766510,14.807789,14.762291,38.9236,38.909744,0.0,2936.3545,0.29754955,1.0912564,0.0,4,0.0,0.0,0.0,0.0,0.0,0,0,0,0,0,1,1,0,0,0
275271324,14.739684,14.763273,38.936,38.91038,0.0,2941.8105,0.29871875,1.0910907,0.0,4,0.0,0.0,0.0,0.0,0.0,0,0,0,0,0,1,1,0,0,0
275763341,14.856435,14.785911,38.911198,38.910023,0.0,2947.128,0.30667812,1.0899638,0.0,4,0.0,0.0,0.0,0.0,0.0,0,0,0,0,0,1,1,0,0,0
276267352,14.90508,14.796757,38.9236,38.91029,0.0,2952.5757,0.30997926,1.0894971,0.0,4,0.0,0.0,0.0,0.0,0.0,0,0,0,0,0,1,1,0,0,0
276771348,14.798059,14.785632,38.8988,38.908855,0.0,2958.0227,0.305013,1.0901994,0.0,4,0.0,0.0,0.0,0.0,0.0,0,0,0,0,0,1,1,0,0,0
277275348,14.622934,14.780374,38.911198,38.90856,0.0,2963.4707,0.30233413,1.0905784,0.0,4,0.0,0.0,0.0,0.0,0.0,0,0,0,0,0,1,1,0,0,0
277779305,14.622934,14.793394,38.911198,38.910114,0.0,2968.9177,0.3070982,1.0899043,0.0,4,0.0,0.0,0.0,0.0,0.0,0,0,0,0,0,1,1,0,0,0
278283350,14.817518,14.792342,38.8988,38.910107,0.0,2974.3655,0.30707055,1.0899082,0.0,4,0.0,0.0,0.0,0.0,0.0,0,0,0,0,0,1,1,0,0,0
278787607,14.535372,14.779331,38.8988,38.908787,0.0,2979.8147,0.30136234,1.0907161,0.0,4,0.0,0.0,0.0,0.0,0.0,0,0,0,0,0,1,1,0,0,0
279291346,15.012101,14.78,38.936,38.910423,0.0,2985.259,0.3028081,1.0905113,0.0,4,0.0,0.0,0.0,0.0,0.0,0,0,0,0,0,1,1,0,0,0
279794492,14.584018,14.766958,38.911198,38.907463,0.0,2990.6953,0.29725677,1.0912979,0.0,4,0.0,0.0,0.0,0.0,0.0,0,0,0,0,0,1,1,0,0,0
280298483,14.846705,14.750562,38.911198,38.90993,0.0,2996.143,0.28901845,1.0924671,0.0,4,0.0,0.0,0.0,0.0,0.0,0,0,0,0,0,1,1,0,0,0
280802504,14.496455,14.758284,38.911198,38.910522,0.0,3001.5913,0.2927888,1.0919317,0.0,4,0.0,0.0,0.0,0.0,0.0,0,0,0,0,0,1,1,0,0,0
281306452,14.68131,14.746763,38.936,38.910255,0.0,3007.0386,0.2885793,1.0925295,0.0,4,0.0,0.0,0.0,0.0,0.0,0,0,0,0,0,1,1,0,0,0
281810964,14.798059,14.747231,38.9236,38.909107,0.0,3012.4917,0.28767043,1.0926586,0.0,4,0.0,0.0,0.0,0.0,0.0,0,0,0,0,0,1,1,0,0,0
282314759,14.827247,14.749407,38.911198,38.910427,0.0,3017.9373,0.28861362,1.0925246,0.0,4,0.0,0.0,0.0,0.0,0.0,0,0,0,0,0,1,1,0,0,0
282818613,14.856435,14.754811,38.911198,38.909195,0.0,3023.3828,0.2907799,1.092217,0.0,4,0.0,0.0,0.0,0.0,0.0,0,0,0,0,0,1,1,0,0,0
283322540,14.914809,14.752098,38.936,38.910076,0.0,3028.8303,0.28975612,1.0923623,0.0,4,0.0,0.0,0.0,0.0,0.0,0,0,0,0,0,1,1,0,0,0
283814546,14.817518,14.752295,38.911198,38.9107,0.0,3034.1487,0.29011613,1.0923111,0.0,4,0.0,0.0,0.0,0.0,0.0,0,0,0,0,0,1,1,0,0,0
284318589,14.866163,14.758574,38.911198,38.90986,0.0,3039.5967,0.29154855,1.0921078,0.0,4,0.0,0.0,0.0,0.0,0.0,0,0,0,0,0,1,1,0,0,0
284822527,14.691039,14.747682,38.911198,38.91109,0.0,3045.044,0.2867282,1.0927926,0.0,4,0.0,0.0,0.0,0.0,0.0,0,0,0,0,0,1,1,0,0,0
285314556,14.67158,14.743999,38.8864,38.91065,0.0,3050.3623,0.28472883,1.093077,0.0,4,0.0,0.0,0.0,0.0,0.0,0,0,0,0,0,1,1,0,0,0
285825745,14.545101,14.745825,38.8988,38.90846,0.0,3055.8875,0.28596622,1.092901,0.0,4,0.0,0.0,0.0,0.0,0.0,0,0,0,0,0,1,1,0,0,0
286317719,14.856435,14.729502,38.8864,38.9103,0.0,3061.205,0.27899915,1.0938926,0.0,4,0.0,0.0,0.0,0.0,0.0,0,0,0,0,0,1,1,0,0,0
286821708,14.836976,14.71925,38.911198,38.909157,0.0,3066.652,0.2741173,1.0945884,0.0,4,0.0,0.0,0.0,0.0,0.0,0,0,0,0,0,1,1,0,0,0
287325576,14.584018,14.72374,38.936,38.91131,0.0,3072.099,0.275379,1.0944085,0.0,4,0.0,0.0,0.0,0.0,0.0,0,0,0,0,0,1,1,0,0,0
287829768,14.798059,14.726365,38.911198,38.910717,0.0,3077.5488,0.2768529,1.0941983,0.0,4,0.0,0.0,0.0,0.0,0.0,0,0,0,0,0,1,1,0,0,0
288321760,14.68131,14.718108,38.8864,38.91046,0.0,3082.8665,0.27302676,1.094744,0.0,4,0.0,0.0,0.0,0.0,0.0,0,0,0,0,0,1,1,0,0,0
288825788,14.613205,14.670068,38.911198,38.907963,0.0,3088.314,0.2556203,1.097233,0.0,4,0.0,0.0,0.0,0.0,0.0,0,0,0,0,0,1,1,0,0,0
289329733,15.021831,14.737628,38.9236,38.909763,0.0,3093.7615,0.2776993,1.0940777,0.0,4,0.0,0.0,0.0,0.0,0.0,0,0,0,0,0,1,1,0,0,0
289833763,14.875893,14.703121,38.8988,38.909454,0.0,3099.2087,0.2638257,1.0960582,0.0,4,0.0,0.0,0.0,0.0,0.0,0,0,0,0,0,1,1,0,0,0
290325740,14.652122,14.699794,38.9236,38.910213,0.0,3104.5256,0.26333028,1.0961292,0.0,4,0.0,0.0,0.0,0.0,0.0,0,0,0,0,0,1,1,0,0,0
290828876,14.7494135,14.698088,38.911198,38.907097,0.0,3109.963,0.26335746,1.0961252,0.0,4,0.0,0.0,0.0,0.0,0.0,0,0,0,0,0,1,1,0,0,0
291332925,14.68131,14.712081,38.911198,38.905487,0.0,3115.4111,0.2689231,1.0953298,0.0,4,0.0,0.0,0.0,0.0,0.0,0,0,0,0,0,1,1,0,0,0
292328950,14.739684,14.712192,38.911198,38.907585,0.0,3126.175,0.27003175,1.0951715,0.0,4,0.0,0.0,0.0,0.0,0.0,0,0,0,0,0,1,1,0,0,0
292832959,14.856435,14.705702,38.911198,38.907825,0.0,3131.6218,0.26705724,1.0955963,0.0,4,0.0,0.0,0.0,0.0,0.0,0,0,0,0,0,1,1,0,0,0
293336945,14.720226,14.693113,38.911198,38.909145,0.0,3137.0688,0.2610863,1.0964502,0.0,4,0.0,0.0,0.0,0.0,0.0,0,0,0,0,0,1,1,0,0,0
293840950,14.535372,14.687563,38.8864,38.91154,0.0,3142.5168,0.25803643,1.0968869,0.0,4,0.0,0.0,0.0,0.0,0.0,0,0,0,0,0,1,1,0,0,0
294344979,14.447809,14.657369,38.911198,38.90903,0.0,3147.9639,0.24771146,1.0983678,0.0,4,0.0,0.0,0.0,0.0,0.0,0,0,0,0,0,1,1,0,0,0
294848969,14.710497,14.674615,38.9484,38.90999,0.0,3153.4106,0.2537716,1.097498,0.0,4,0.0,0.0,0.0,0.0,0.0,0,0,0,0,0,1,1,0,0,0
295352920,14.1364765,14.636853,38.911198,38.905956,0.0,3158.8572,0.23943357,1.099558,0.0,4,0.0,0.0,0.0,0.0,0.0,0,0,0,0,0,1,1,0,0,0
295853687,15.274789,14.686999,38.936,38.908524,0.0,3164.2698,0.2598589,1.0966259,0.0,4,0.0,0.0,0.0,0.0,0.0,0,0,0,0,0,1,1,0,0,0
296356110,14.506185,14.689313,38.8864,38.90972,0.0,3169.7,0.2568329,1.0970594,0.0,4,0.0,0.0,0.0,0.0,0.0,0,0,0,0,0,1,1,0,0,0
296848166,14.934268,14.702623,38.911198,38.911682,0.0,3175.0193,0.26394445,1.0960413,0.0,4,0.0,0.0,0.0,0.0,0.0,0,0,0,0,0,1,1,0,0,0
