timestamp,rollspeed,pitchspeed,yawspeed,q[0],q[1],q[2],q[3],delta_q_reset[0],delta_q_reset[1],delta_q_reset[2],delta_q_reset[3],quat_reset_counter
29551101,0.0005714573,0.0010846192,-0.0007076089,0.4978463,-0.0010705137,0.0034346855,0.86725783,0.9993385,0.00019271954,-0.0001437921,-0.03636836,2
29583070,0.0015526622,-0.0015645772,-0.0016622888,0.49777928,-0.0010711179,0.0034306156,0.86729634,0.9993385,0.00019271954,-0.0001437921,-0.03636836,2
29615075,0.0017471713,0.0001416828,0.0005450825,0.49770573,-0.0010679283,0.003436738,0.8673385,0.9993385,0.00019271954,-0.0001437921,-0.03636836,2
29647069,0.0007922882,-0.0010307503,0.0005407629,0.49764028,-0.001067209,0.0034440919,0.86737597,0.9993385,0.00019271954,-0.0001437921,-0.03636836,2
29679069,0.00046096265,-0.0011267257,0.0026934857,0.49756768,-0.0010524929,0.00344766,0.8674177,0.9993385,0.00019271954,-0.0001437921,-0.03636836,2
29711069,-0.0008927997,0.0013983537,-0.0017596148,0.49752378,-0.0010670233,0.0034482258,0.86744285,0.9993385,0.00019271954,-0.0001437921,-0.03636836,2
29743076,0.00036725588,-0.001986911,0.00018807082,0.49747184,-0.0010658412,0.003447101,0.86747265,0.9993385,0.00019271954,-0.0001437921,-0.03636836,2
29775101,3.5016332e-05,-0.0016851274,-0.00022825203,0.4974077,-0.0010671847,0.0034518477,0.8675094,0.9993385,0.00019271954,-0.0001437921,-0.03636836,2
29807069,-6.783311e-05,0.00035998016,0.002766232,0.49732688,-0.0010711597,0.0034582897,0.8675557,0.9993385,0.00019271954,-0.0001437921,-0.03636836,2
29839069,0.0011132912,-0.0010302576,-0.0002000567,0.49725154,-0.0010625516,0.0034622194,0.8675989,0.9993385,0.00019271954,-0.0001437921,-0.03636836,2
29871089,-0.0004737588,-0.001468553,-0.0011762278,0.49720109,-0.0010487747,0.0034433806,0.86762786,0.9993385,0.00019271954,-0.0001437921,-0.03636836,2
29903069,-0.0021761856,-0.0007265636,-0.0022452127,0.4971667,-0.0010522273,0.0034362022,0.8676477,0.9993385,0.00019271954,-0.0001437921,-0.03636836,2
29935110,0.000998312,0.005045887,-0.0013478284,0.49715447,-0.0010466463,0.0034385198,0.86765456,0.9993385,0.00019271954,-0.0001437921,-0.03636836,2
29965503,0.00056959386,0.0012649994,0.015575537,0.49700168,-0.0010382929,0.0034454537,0.8677422,0.9993385,0.00019271954,-0.0001437921,-0.03636836,2
29998269,0.0021284963,-0.0050188038,0.006825096,0.4968345,-0.0010396631,0.0034102942,0.8678381,0.9993385,0.00019271954,-0.0001437921,-0.03636836,2
30030298,0.0045844167,-0.009069783,-0.008779669,0.49691033,-0.0010337927,0.003410175,0.8677946,0.9993385,0.00019271954,-0.0001437921,-0.03636836,2
30062270,0.0051695392,-0.0017057442,-0.0071478393,0.49708465,-0.0010489951,0.0034066364,0.8676948,0.9993385,0.00019271954,-0.0001437921,-0.03636836,2
30094269,0.009910249,0.0059385384,0.009024035,0.49708247,-0.001059289,0.0034089147,0.8676959,0.9993385,0.00019271954,-0.0001437921,-0.03636836,2
30126310,0.00091410463,-0.010675542,0.014643599,0.4968997,-0.0010117432,0.003393274,0.8678008,0.9993385,0.00019271954,-0.0001437921,-0.03636836,2
30158268,-0.0011030445,0.00032309536,-0.0045621796,0.49681807,-0.0010238884,0.0034220242,0.8678474,0.9993385,0.00019271954,-0.0001437921,-0.03636836,2
30190275,-0.011485714,-0.0067802304,-0.016971115,0.4969481,-0.0010514008,0.0034081307,0.867773,0.9993385,0.00019271954,-0.0001437921,-0.03636836,2
30222268,-0.011885877,0.0016063455,-0.0049282084,0.4970649,-0.0010840391,0.0033659874,0.8677062,0.9993385,0.00019271954,-0.0001437921,-0.03636836,2
30254269,-0.0061689205,-0.004483217,0.012383895,0.49692968,-0.0010360193,0.0033737964,0.8677836,0.9993385,0.00019271954,-0.0001437921,-0.03636836,2
30282269,0.0030730816,-0.0027365107,0.009447741,0.4967309,-0.0010045982,0.0034145832,0.8678974,0.9993385,0.00019271954,-0.0001437921,-0.03636836,2
30314317,-0.00965048,-0.01295643,-0.004486244,0.49663925,-0.0010184695,0.0034360355,0.8679498,0.9993385,0.00019271954,-0.0001437921,-0.03636836,2
30346269,-0.005547862,-0.0070494385,-0.009460602,0.4967019,-0.0010427653,0.003385024,0.8679141,0.9993385,0.00019271954,-0.0001437921,-0.03636836,2
30378276,-0.01353805,-0.0061430736,-0.0021399816,0.49669287,-0.0010236866,0.0033690978,0.86791927,0.9993385,0.00019271954,-0.0001437921,-0.03636836,2
30410269,-0.009302272,0.0008554488,0.0064112516,0.49654254,-0.0009959311,0.0034513604,0.86800504,0.9993385,0.00019271954,-0.0001437921,-0.03636836,2
30442311,-0.011309823,-0.0030459098,0.005939686,0.49636722,-0.001032653,0.0034584408,0.8681052,0.9993385,0.00019271954,-0.0001437921,-0.03636836,2
30474269,-0.0047117453,0.0028634747,-0.0060876347,0.49628815,-0.0010278325,0.0033998438,0.86815065,0.9993385,0.00019271954,-0.0001437921,-0.03636836,2
30506271,-0.0014953713,0.0035171444,-0.010215074,0.49629015,-0.0009946644,0.0034193913,0.86814946,0.9993385,0.00019271954,-0.0001437921,-0.03636836,2
30538269,-0.0032117306,0.013373615,-0.003840203,0.4962906,-0.0010287338,0.0034789718,0.8681489,0.9993385,0.00019271954,-0.0001437921,-0.03636836,2
30569477,-0.003857714,0.003797011,0.007669323,0.4961719,-0.0010323891,0.0034290545,0.86821705,0.9993385,0.00019271954,-0.0001437921,-0.03636836,2
30597528,0.0027296268,-0.0075838515,0.0015406255,0.49603254,-0.0009976696,0.0033764017,0.8682968,0.9993385,0.00019271954,-0.0001437921,-0.03636836,2
30629475,0.008641746,0.011288916,0.0044318396,0.49589816,-0.0010083109,0.0034496288,0.8683733,0.9993385,0.00019271954,-0.0001437921,-0.03636836,2
30661469,-0.0017653592,-0.000854118,0.00020069466,0.49586597,-0.0010358411,0.0034684623,0.8683915,0.9993385,0.00019271954,-0.0001437921,-0.03636836,2
30693469,-0.012118198,-0.011193032,0.00032685976,0.49583355,-0.0009888177,0.003410621,0.86841035,0.9993385,0.00019271954,-0.0001437921,-0.03636836,2
30725475,0.0046162433,0.002208074,0.0043063257,0.49570078,-0.0009654027,0.0034120188,0.86848617,0.9993385,0.00019271954,-0.0001437921,-0.03636836,2
30757468,-0.0016738693,0.0025759023,0.008655379,0.4955483,-0.00101099,0.003460562,0.86857295,0.9993385,0.00019271954,-0.0001437921,-0.03636836,2
30789468,-0.00026103994,-0.013378503,-0.003728674,0.49548253,-0.00096970494,0.0034635025,0.8686105,0.9993385,0.00019271954,-0.0001437921,-0.03636836,2
30821474,-0.0073191174,-0.008665996,-0.00496496,0.49544725,-0.0009260276,0.003417897,0.8686309,0.9993385,0.00019271954,-0.0001437921,-0.03636836,2
30853500,0.0084593035,0.006132339,0.0049573653,0.49535683,-0.0009926176,0.0034508044,0.8686822,0.9993385,0.00019271954,-0.0001437921,-0.03636836,2
30885469,0.0021532509,-0.008133448,0.0015863231,0.49525505,-0.0009908312,0.003461944,0.86874026,0.9993385,0.00019271954,-0.0001437921,-0.03636836,2
30917468,-0.0015982109,-0.011115083,-0.0020522173,0.49517372,-0.0009178289,0.0034311647,0.8687867,0.9993385,0.00019271954,-0.0001437921,-0.03636836,2
30949469,0.0024569586,0.014797426,-0.0035478035,0.49512392,-0.00096628617,0.0034463701,0.86881495,0.9993385,0.00019271954,-0.0001437921,-0.03636836,2
30981469,0.0024792016,0.0043256255,0.000810268,0.4950747,-0.0010368604,0.0034490286,0.86884296,0.9993385,0.00019271954,-0.0001437921,-0.03636836,2
31013469,-0.0076024137,-0.0041491925,-0.0034841886,0.495025,-0.0009645364,0.0034207955,0.8688715,0.9993385,0.00019271954,-0.0001437921,-0.03636836,2
31045469,-0.0019929323,0.0049678246,-0.0013102004,0.49497262,-0.0009484901,0.0034344394,0.8689013,0.9993385,0.00019271954,-0.0001437921,-0.03636836,2
31073469,0.0026052385,0.00068855775,0.0017360371,0.49491355,-0.001007432,0.003459578,0.86893487,0.9993385,0.00019271954,-0.0001437921,-0.03636836,2
31105469,0.012740701,0.0056326007,0.008706694,0.4948554,-0.0010200929,0.0034665312,0.86896795,0.9993385,0.00019271954,-0.0001437921,-0.03636836,2
31136669,0.009740379,0.0034213052,0.004770109,0.494824,-0.00093809864,0.003447097,0.868986,0.9993385,0.00019271954,-0.0001437921,-0.03636836,2
31168724,-0.008046961,0.006855212,-0.00092129735,0.49479643,-0.001008899,0.0034651277,0.8690015,0.9993385,0.00019271954,-0.0001437921,-0.03636836,2
31200668,0.0059748506,0.0025697388,0.0016080948,0.49471724,-0.001054444,0.0034714073,0.86904645,0.9993385,0.00019271954,-0.0001437921,-0.03636836,2
31232669,-0.00071367633,-0.007306942,-0.0009049354,0.49465156,-0.0009768388,0.0034390248,0.8690841,0.9993385,0.00019271954,-0.0001437921,-0.03636836,2
31264715,-0.009074505,0.0063982517,-0.004718257,0.49460414,-0.0009837815,0.0034414227,0.86911106,0.9993385,0.00019271954,-0.0001437921,-0.03636836,2
31296717,-0.0037741943,-0.003796745,-0.001137296,0.49456602,-0.0010397286,0.0034590014,0.8691326,0.9993385,0.00019271954,-0.0001437921,-0.03636836,2
31328668,0.011749214,0.0029026475,0.002199327,0.4945154,-0.0009968167,0.003442572,0.86916155,0.9993385,0.00019271954,-0.0001437921,-0.03636836,2
31356692,-0.0032800727,0.0003543524,0.002252277,0.4944514,-0.00096764934,0.0034439007,0.86919796,0.9993385,0.00019271954,-0.0001437921,-0.03636836,2
31388669,-0.0032504234,0.002565061,-0.0017112214,0.49440628,-0.0010258872,0.00343898,0.86922354,0.9993385,0.00019271954,-0.0001437921,-0.03636836,2
31420693,0.00045979908,-0.0074323197,0.000102351885,0.49435276,-0.0010068543,0.0034173292,0.8692542,0.9993385,0.00019271954,-0.0001437921,-0.03636836,2
31452669,0.00011466234,-0.0029419484,0.004333916,0.49427816,-0.0009366837,0.0034124807,0.86929667,0.9993385,0.00019271954,-0.0001437921,-0.03636836,2
31484669,-0.003547335,0.011119591,-0.0040593147,0.49424624,-0.0009819244,0.0034361035,0.86931455,0.9993385,0.00019271954,-0.0001437921,-0.03636836,2
31516669,-0.0002874938,-0.0066765533,0.0039416794,0.49418512,-0.00101172,0.0034137203,0.8693495,0.9993385,0.00019271954,-0.0001437921,-0.03636836,2
31548675,-0.003659307,-0.008356696,0.002399975,0.49412796,-0.00096412253,0.0033964606,0.8693821,0.9993385,0.00019271954,-0.0001437921,-0.03636836,2
31579108,-0.001827047,0.0011619808,-0.002029973,0.49407953,-0.0009585241,0.0034141254,0.86940956,0.9993385,0.00019271954,-0.0001437921,-0.03636836,2
31611892,-0.007979079,0.00059000775,-0.0034675032,0.49403226,-0.000990305,0.0033851152,0.8694364,0.9993385,0.00019271954,-0.0001437921,-0.03636836,2
31644669,0.001640795,-0.003715349,-0.0013939508,0.4939798,-0.0009417465,0.0033536253,0.8694664,0.9993385,0.00019271954,-0.0001437921,-0.03636836,2
31675889,-0.00064210495,0.0066003986,-0.0032303096,0.4939216,-0.0009402477,0.0033555517,0.8694995,0.9993385,0.00019271954,-0.0001437921,-0.03636836,2
31707875,0.00079739303,0.0047492357,0.0009096592,0.49387974,-0.000970547,0.0033679795,0.86952317,0.9993385,0.00019271954,-0.0001437921,-0.03636836,2
31739891,-0.011335636,-0.0040170914,-0.0031437334,0.4938473,-0.00096078514,0.0033496816,0.86954165,0.9993385,0.00019271954,-0.0001437921,-0.03636836,2
31771869,-0.0024462806,0.015111249,0.0012732169,0.4937778,-0.0009584262,0.0033547475,0.86958116,0.9993385,0.00019271954,-0.0001437921,-0.03636836,2
31803869,-0.0034975032,0.009776799,0.002146423,0.49371788,-0.0009837385,0.0033530805,0.86961514,0.9993385,0.00019271954,-0.0001437921,-0.03636836,2
31835875,-0.0033155559,-0.0060469685,-0.0012556443,0.4936758,-0.00097402063,0.0033484239,0.8696391,0.9993385,0.00019271954,-0.0001437921,-0.03636836,2
31867869,0.010893674,0.0025953604,0.004719594,0.4936252,-0.00095570966,0.0033519398,0.86966777,0.9993385,0.00019271954,-0.0001437921,-0.03636836,2
31895874,0.006077075,0.007320011,-0.0026820924,0.49357346,-0.000978463,0.003340829,0.8696972,0.9993385,0.00019271954,-0.0001437921,-0.03636836,2
31927910,0.0024829907,0.004842521,0.0018324848,0.49350557,-0.0009979244,0.003329272,0.86973566,0.9993385,0.00019271954,-0.0001437921,-0.03636836,2
31959869,-0.0011824805,-0.0037368804,0.00061817677,0.49344134,-0.0009578236,0.0033198034,0.86977226,0.9993385,0.00019271954,-0.0001437921,-0.03636836,2
31991887,-0.0048034573,0.0069135455,-0.004778588,0.49336702,-0.0009829046,0.0033396226,0.86981434,0.9993385,0.00019271954,-0.0001437921,-0.03636836,2
32023911,-0.0020384018,0.001323089,0.0025997106,0.49327362,-0.0009796281,0.0033342408,0.8698673,0.9993385,0.00019271954,-0.0001437921,-0.03636836,2
32055869,-0.0057822643,-0.0021140997,-0.0019654226,0.49321634,-0.00094532326,0.003327396,0.8698998,0.9993385,0.00019271954,-0.0001437921,-0.03636836,2
32087869,-0.0012458395,0.004644416,-0.0021803624,0.4931403,-0.0009477297,0.0033498232,0.8699428,0.9993385,0.00019271954,-0.0001437921,-0.03636836,2
32119107,0.0055330745,0.0048384676,0.005610069,0.49304008,-0.0009768548,0.0033548973,0.8699997,0.9993385,0.00019271954,-0.0001437921,-0.03636836,2
32151090,-0.0027362306,-0.0053567914,0.0035632493,0.49294657,-0.00093285326,0.0033126597,0.8700528,0.9993385,0.00019271954,-0.0001437921,-0.03636836,2
32179903,0.0018292386,0.009056793,0.005211707,0.49287963,-0.00093093526,0.003320643,0.87009066,0.9993385,0.00019271954,-0.0001437921,-0.03636836,2
32211102,-0.0037221378,-0.0006044422,-0.0074223178,0.49281228,-0.0009642768,0.0033252884,0.87012887,0.9993385,0.00019271954,-0.0001437921,-0.03636836,2
32243075,0.0018434458,0.00021623878,0.0016269047,0.49274284,-0.00095067866,0.0032997297,0.8701683,0.9993385,0.00019271954,-0.0001437921,-0.03636836,2
32275068,0.010098498,0.011964021,0.0054915342,0.4926563,-0.00091184897,0.0033141107,0.87021714,0.9993385,0.00019271954,-0.0001437921,-0.03636836,2
32307086,-0.003211827,0.0044642333,-0.0031289228,0.4926137,-0.00094656134,0.0033149393,0.87024134,0.9993385,0.00019271954,-0.0001437921,-0.03636836,2
32339069,-0.0023695473,-0.008089967,-0.0032577976,0.49257022,-0.0009466842,0.0032895897,0.8702661,0.9993385,0.00019271954,-0.0001437921,-0.03636836,2
32371068,0.0012911081,-0.0017515047,0.00403407,0.49250105,-0.0009046221,0.0032927452,0.8703052,0.9993385,0.00019271954,-0.0001437921,-0.03636836,2
32403069,-0.002069569,-0.0010571476,-0.0002571165,0.4924427,-0.0009160881,0.003309201,0.87033814,0.9993385,0.00019271954,-0.0001437921,-0.03636836,2
32435106,0.00026663474,-0.0055223703,0.0012979727,0.49238506,-0.0009369158,0.0032842692,0.87037086,0.9993385,0.00019271954,-0.0001437921,-0.03636836,2
32463093,0.00080773514,-0.0060153725,-0.0015211611,0.4923422,-0.000899005,0.0032760939,0.8703952,0.9993385,0.00019271954,-0.0001437921,-0.03636836,2
32495116,-4.6429806e-05,-0.009337531,-0.00090599456,0.4922908,-0.0008709079,0.0033057283,0.8704241,0.9993385,0.00019271954,-0.0001437921,-0.03636836,2
32527075,-0.005030348,0.00053538,-0.0024036393,0.49223483,-0.00090615085,0.0033195736,0.8704557,0.9993385,0.00019271954,-0.0001437921,-0.03636836,2
32559070,0.00090568315,-0.0127912,-0.003075003,0.49218798,-0.00088111986,0.0033158208,0.8704822,0.9993385,0.00019271954,-0.0001437921,-0.03636836,2
32591082,0.013215772,0.0044270763,0.0087272525,0.49214295,-0.0008412732,0.003396843,0.8705074,0.9993385,0.00019271954,-0.0001437921,-0.03636836,2
32623069,0.014614405,0.00469461,0.0022740935,0.4921086,-0.00087498216,0.0034371791,0.8705266,0.9993385,0.00019271954,-0.0001437921,-0.03636836,2
32655068,-0.001348067,-0.0126254335,0.0044241394,0.49206874,-0.00086685736,0.0034060716,0.8705493,0.9993385,0.00019271954,-0.0001437921,-0.03636836,2
32687105,-0.0035456105,-0.0065331287,0.002599136,0.49200293,-0.0008713252,0.0033623646,0.8705867,0.9993385,0.00019271954,-0.0001437921,-0.03636836,2
32714287,-0.0048698094,-0.00060516834,-0.0061872327,0.49194658,-0.00087370974,0.0033591625,0.87061846,0.9993385,0.00019271954,-0.0001437921,-0.03636836,2
32750312,0.008055779,-0.0006745419,0.0020488875,0.4918351,-0.00091152824,0.003346946,0.87068146,0.9993385,0.00019271954,-0.0001437921,-0.03636836,2
32782308,-0.00430719,-0.0076445714,0.0069143698,0.49172744,-0.000878856,0.003310915,0.87074256,0.9993385,0.00019271954,-0.0001437921,-0.03636836,2
32814269,-0.0042842245,-0.0036310114,0.0027616047,0.49163094,-0.00088739966,0.0032820343,0.87079716,0.9993385,0.00019271954,-0.0001437921,-0.03636836,2
32846269,0.015706636,0.0028384477,0.007339715,0.49155152,-0.00090769515,0.0033129056,0.87084174,0.9993385,0.00019271954,-0.0001437921,-0.03636836,2
32878281,0.0040120906,-0.011275707,-0.0035074782,0.49154192,-0.0008772263,0.0032937482,0.8708472,0.9993385,0.00019271954,-0.0001437921,-0.03636836,2
32910277,0.0033500262,-0.007188796,0.0030862493,0.4914707,-0.0008753183,0.0032809505,0.87088746,0.9993385,0.00019271954,-0.0001437921,-0.03636836,2
32942284,0.008015657,-0.0056516803,0.002735241,0.4913583,-0.00088695466,0.003301802,0.87095076,0.9993385,0.00019271954,-0.0001437921,-0.03636836,2
32974275,-0.0041227196,-0.0054048817,0.0066031916,0.49123684,-0.0009054028,0.003292677,0.8710194,0.9993385,0.00019271954,-0.0001437921,-0.03636836,2
33002269,0.0056579886,-0.011637502,0.0011293862,0.49117678,-0.000875348,0.0033068268,0.8710533,0.9993385,0.00019271954,-0.0001437921,-0.03636836,2
33034269,-0.008007516,-0.012306129,-0.0026918824,0.4911173,-0.00088386977,0.0032672423,0.87108684,0.9993385,0.00019271954,-0.0001437921,-0.03636836,2
33066311,0.020783817,0.0055220304,0.0077770967,0.49105293,-0.0008978137,0.0032902842,0.8711232,0.9993385,0.00019271954,-0.0001437921,-0.03636836,2
33098269,0.01888819,-0.001218459,0.0054425932,0.49094552,-0.00090564636,0.003304578,0.8711836,0.9993385,0.00019271954,-0.0001437921,-0.03636836,2
33130269,-0.0006635232,-0.0065166345,0.0015145439,0.49086273,-0.0008851472,0.0032806373,0.87123036,0.9993385,0.00019271954,-0.0001437921,-0.03636836,2
33162269,-0.0025444292,0.009616173,0.0023875537,0.49078095,-0.0009166619,0.0032672042,0.8712764,0.9993385,0.00019271954,-0.0001437921,-0.03636836,2
33194307,-0.0060368846,-0.005341894,0.0019874643,0.490749,-0.00091374776,0.0032671073,0.87129444,0.9993385,0.00019271954,-0.0001437921,-0.03636836,2
33226268,-0.006742579,-0.0022897366,0.0023130535,0.49067917,-0.0009289643,0.0032493,0.8713337,0.9993385,0.00019271954,-0.0001437921,-0.03636836,2
33257486,0.0038072728,0.002173971,0.008534969,0.49061212,-0.00092080317,0.003273051,0.8713715,0.9993385,0.00019271954,-0.0001437921,-0.03636836,2
33285497,-0.012828344,0.0001262239,0.0047468552,0.49054298,-0.000944888,0.003255167,0.8714105,0.9993385,0.00019271954,-0.0001437921,-0.03636836,2
33317469,0.0028070018,0.002222935,0.004184316,0.4904809,-0.0009284967,0.0032809824,0.8714453,0.9993385,0.00019271954,-0.0001437921,-0.03636836,2
33349495,-0.0035572841,0.0027879607,-0.0057344055,0.49043193,-0.0009369188,0.0032800802,0.8714729,0.9993385,0.00019271954,-0.0001437921,-0.03636836,2
33381469,0.005139506,0.0147273205,0.004783011,0.49036032,-0.00094839104,0.0032987366,0.8715131,0.9993385,0.00019271954,-0.0001437921,-0.03636836,2
33413475,-0.008498659,-0.01415278,0.0018769699,0.49029005,-0.00093311106,0.0032663743,0.8715527,0.9993385,0.00019271954,-0.0001437921,-0.03636836,2
33445469,-0.0022723447,-0.019621748,-0.0030997351,0.49020115,-0.0009319589,0.0032531263,0.8716028,0.9993385,0.00019271954,-0.0001437921,-0.03636836,2
33477501,0.012364938,0.013245402,0.0046290816,0.49013186,-0.00092667586,0.003286127,0.8716417,0.9993385,0.00019271954,-0.0001437921,-0.03636836,2
33509469,-0.005223967,0.0027788826,-0.0011829699,0.4900585,-0.00095696613,0.0032617582,0.87168294,0.9993385,0.00019271954,-0.0001437921,-0.03636836,2
33541476,-0.0036452045,-0.018816786,-0.00020103622,0.4900094,-0.0009195518,0.003262791,0.8717106,0.9993385,0.00019271954,-0.0001437921,-0.03636836,2
33573475,0.012481845,-0.005919218,0.0010406084,0.4899208,-0.0009354621,0.00326104,0.87176037,0.9993385,0.00019271954,-0.0001437921,-0.03636836,2
33605500,0.016858693,-0.0051915036,0.008004826,0.48981857,-0.00090365415,0.0033128855,0.87181765,0.9993385,0.00019271954,-0.0001437921,-0.03636836,2
33637469,-0.013047008,-0.022420246,0.0035718891,0.48972613,-0.00090951385,0.0032611627,0.87186974,0.9993385,0.00019271954,-0.0001437921,-0.03636836,2
33669469,-0.009943412,0.010351906,-0.0019692448,0.48966038,-0.0009119077,0.00328306,0.87190664,0.9993385,0.00019271954,-0.0001437921,-0.03636836,2
33701476,-0.00077948306,0.017212572,-0.006147692,0.48961154,-0.0009273082,0.0032946337,0.87193406,0.9993385,0.00019271954,-0.0001437921,-0.03636836,2
33733468,-0.00834531,-0.009046774,0.0018180027,0.48954168,-0.0009076812,0.0032963648,0.8719733,0.9993385,0.00019271954,-0.0001437921,-0.03636836,2
33761475,-0.015100419,0.0069945753,-0.0014234632,0.48951343,-0.0009309057,0.0032894625,0.8719891,0.9993385,0.00019271954,-0.0001437921,-0.03636836,2
33792710,-0.0005343617,-0.008579684,-5.8458885e-05,0.4894635,-0.00091963314,0.003278126,0.8720172,0.9993385,0.00019271954,-0.0001437921,-0.03636836,2
33824669,0.022677593,-0.00985142,-0.00017438922,0.48943767,-0.0008900056,0.00330639,0.8720315,0.9993385,0.00019271954,-0.0001437921,-0.03636836,2
33856687,-0.0053359964,0.00088744715,0.0030386215,0.48940524,-0.00089774554,0.0033243368,0.8720497,0.9993385,0.00019271954,-0.0001437921,-0.03636836,2
33888669,-0.008584562,-0.0031534757,0.0054249363,0.48938403,-0.0008866644,0.0033153016,0.8720616,0.9993385,0.00019271954,-0.0001437921,-0.03636836,2
33920675,0.003418766,0.014334342,0.005219018,0.48932102,-0.00092735514,0.0033309383,0.8720969,0.9993385,0.00019271954,-0.0001437921,-0.03636836,2
33952675,0.014283558,0.015273638,-0.0033257608,0.48929206,-0.0009098375,0.0033581767,0.87211305,0.9993385,0.00019271954,-0.0001437921,-0.03636836,2
33984668,0.0047532525,0.0003235842,-0.001816184,0.48923594,-0.00090758444,0.0033308195,0.87214464,0.9993385,0.00019271954,-0.0001437921,-0.03636836,2
34016691,-0.0016122046,-0.013348889,0.0076344972,0.48917997,-0.00087594806,0.0033280058,0.8721762,0.9993385,0.00019271954,-0.0001437921,-0.03636836,2
34044689,0.011255153,-0.0012991265,0.0030229222,0.48913306,-0.0009028027,0.0033364089,0.8722023,0.9993385,0.00019271954,-0.0001437921,-0.03636836,2
34076669,0.0021291254,-0.004623621,0.0020960574,0.4890709,-0.0008848084,0.0033252176,0.8722372,0.9993385,0.00019271954,-0.0001437921,-0.03636836,2
34108693,-0.01015079,-0.0023784908,-0.0011609541,0.48900953,-0.000902417,0.0033041586,0.8722717,0.9993385,0.00019271954,-0.0001437921,-0.03636836,2
34140669,-0.0035628784,0.003206017,0.0018913089,0.48894486,-0.00091761135,0.0033170348,0.872308,0.9993385,0.00019271954,-0.0001437921,-0.03636836,2
34172669,0.01144057,0.0019310602,0.00216811,0.4888958,-0.00090849854,0.0033394652,0.8723353,0.9993385,0.00019271954,-0.0001437921,-0.03636836,2
34204709,0.0070620757,0.0067276047,0.00781483,0.48884073,-0.0009136591,0.003388018,0.8723661,0.9993385,0.00019271954,-0.0001437921,-0.03636836,2
34236675,0.0019782833,0.007759011,0.0035134163,0.48882243,-0.0009343984,0.0033679726,0.8723764,0.9993385,0.00019271954,-0.0001437921,-0.03636836,2
34268669,0.0022800323,-0.0095161125,0.005717471,0.48877433,-0.0009214213,0.0033605837,0.8724034,0.9993385,0.00019271954,-0.0001437921,-0.03636836,2
34300669,0.00013340614,-0.009978881,0.0003757386,0.48877093,-0.00088892493,0.0033471913,0.87240535,0.9993385,0.00019271954,-0.0001437921,-0.03636836,2
34328669,0.007523044,-0.008109134,0.0018685757,0.4887315,-0.00089467474,0.0033877462,0.87242717,0.9993385,0.00019271954,-0.0001437921,-0.03636836,2
34359093,0.0015520358,-0.006456184,0.0006241766,0.4887271,-0.00087093934,0.0034060813,0.87242967,0.9993385,0.00019271954,-0.0001437921,-0.03636836,2
34395101,-0.015284134,0.007841937,0.0021105367,0.48870093,-0.0008851613,0.0033942189,0.8724443,0.9993385,0.00019271954,-0.0001437921,-0.03636836,2
34423868,0.0077909324,0.002725868,0.007818357,0.48868105,-0.000862404,0.0034161704,0.8724554,0.9993385,0.00019271954,-0.0001437921,-0.03636836,2
34455875,-0.0035077347,-0.011282089,0.0017849393,0.48866796,-0.00086433766,0.0033953444,0.8724628,0.9993385,0.00019271954,-0.0001437921,-0.03636836,2
34487886,-0.0028314097,-0.016912077,0.0014941618,0.48864776,-0.00084462506,0.0033991316,0.87247413,0.9993385,0.00019271954,-0.0001437921,-0.03636836,2
34519886,0.011141045,-0.0002598731,0.0013108535,0.4886068,-0.0008589435,0.0033752746,0.8724972,0.9993385,0.00019271954,-0.0001437921,-0.03636836,2
34551916,0.0013725447,0.010150346,0.00664014,0.48855618,-0.00086178497,0.0033865809,0.8725255,0.9993385,0.00019271954,-0.0001437921,-0.03636836,2
34583875,-0.020154154,0.0096343905,-0.006319505,0.48853004,-0.0008793271,0.0033565932,0.8725402,0.9993385,0.00019271954,-0.0001437921,-0.03636836,2
34611869,-0.018290494,0.014501114,0.00082320836,0.48847422,-0.00086776615,0.0033670987,0.87257147,0.9993385,0.00019271954,-0.0001437921,-0.03636836,2
34643876,-0.006716424,0.002498832,-0.0007233301,0.48843968,-0.0008789808,0.0033524414,0.8725908,0.9993385,0.00019271954,-0.0001437921,-0.03636836,2
34675901,0.02007643,-0.00368814,0.006776111,0.4883579,-0.00087450433,0.0033798488,0.87263644,0.9993385,0.00019271954,-0.0001437921,-0.03636836,2
34707869,-0.0018472475,-0.013492404,-0.0016593055,0.4883078,-0.00085035316,0.0033568623,0.8726647,0.9993385,0.00019271954,-0.0001437921,-0.03636836,2
34739869,0.0030981982,0.008579824,0.0044619404,0.48822966,-0.0008579787,0.003387635,0.8727082,0.9993385,0.00019271954,-0.0001437921,-0.03636836,2
34771875,-0.010640941,0.00996707,-0.0023983605,0.48818308,-0.000887132,0.0033763032,0.8727343,0.9993385,0.00019271954,-0.0001437921,-0.03636836,2
34803907,-0.018248245,0.013899878,-0.005427012,0.4881139,-0.0009270701,0.0033603273,0.872773,0.9993385,0.00019271954,-0.0001437921,-0.03636836,2
34835869,-0.013163467,0.0075328294,0.0068480037,0.4880355,-0.0009001028,0.0033624026,0.8728169,0.9993385,0.00019271954,-0.0001437921,-0.03636836,2
34863901,-0.010669038,0.008765826,0.0009911121,0.48796496,-0.00090790575,0.00337743,0.87285626,0.9993385,0.00019271954,-0.0001437921,-0.03636836,2
34895869,0.012183151,0.0062512616,0.0071738954,0.48789245,-0.0009044683,0.0033752227,0.87289685,0.9993385,0.00019271954,-0.0001437921,-0.03636836,2
34927113,0.0081622405,-0.024427122,0.0026197315,0.48784065,-0.00088837417,0.0033535764,0.8729259,0.9993385,0.00019271954,-0.0001437921,-0.03636836,2
34958306,0.005506199,-0.021940326,0.0059030154,0.4877852,-0.00087281055,0.003368664,0.87295675,0.9993385,0.00019271954,-0.0001437921,-0.03636836,2
34991091,0.0028222706,-0.011148974,0.002939033,0.48773503,-0.0008740848,0.0033568584,0.8729849,0.9993385,0.00019271954,-0.0001437921,-0.03636836,2
35023068,-0.0074040545,0.019641524,0.0025376019,0.4876806,-0.00089653395,0.0033606605,0.8730152,0.9993385,0.00019271954,-0.0001437921,-0.03636836,2
35055069,-0.0076757623,0.019790646,0.0015942598,0.4876405,-0.0009365531,0.0033428574,0.87303764,0.9993385,0.00019271954,-0.0001437921,-0.03636836,2
35087069,0.001465374,-0.0036032805,-0.005196877,0.48760012,-0.00092648447,0.0033698536,0.87306017,0.9993385,0.00019271954,-0.0001437921,-0.03636836,2
35119080,0.0068450198,-0.008681772,0.005644176,0.4875455,-0.0009010424,0.003366595,0.8730906,0.9993385,0.00019271954,-0.0001437921,-0.03636836,2
35151084,0.00038051105,0.0012992955,0.00055915606,0.4874987,-0.00091632135,0.0033528516,0.87311685,0.9993385,0.00019271954,-0.0001437921,-0.03636836,2
35183069,-0.005821136,0.018603884,0.005628917,0.48746625,-0.000946901,0.003349136,0.8731349,0.9993385,0.00019271954,-0.0001437921,-0.03636836,2
35215068,0.003354963,-0.009526755,-0.00041391607,0.48741594,-0.00094261277,0.0033481382,0.873163,0.9993385,0.00019271954,-0.0001437921,-0.03636836,2
35247092,0.0025661564,-0.0030526738,0.005182975,0.48735926,-0.00094448845,0.0033684594,0.8731945,0.9993385,0.00019271954,-0.0001437921,-0.03636836,2
35279075,0.0012203876,-0.022721699,0.004014498,0.48729524,-0.0009308376,0.0033453256,0.87323034,0.9993385,0.00019271954,-0.0001437921,-0.03636836,2
35311077,0.0014485588,0.0006652884,0.00017868239,0.48723406,-0.00093906635,0.0033630843,0.87326443,0.9993385,0.00019271954,-0.0001437921,-0.03636836,2
35343069,-0.0047048656,0.00046469027,-0.0014769738,0.4871935,-0.0009538639,0.0033599627,0.87328714,0.9993385,0.00019271954,-0.0001437921,-0.03636836,2
35375109,-0.023261016,0.002666609,-0.0041712755,0.4871537,-0.0009636316,0.0033775114,0.8733092,0.9993385,0.00019271954,-0.0001437921,-0.03636836,2
35403113,-0.00047694956,0.016013565,0.005205482,0.48710203,-0.0009677893,0.0033724608,0.87333804,0.9993385,0.00019271954,-0.0001437921,-0.03636836,2
35435090,-0.009320679,0.009382176,-0.0046810396,0.48705533,-0.0009850649,0.0033688052,0.8733641,0.9993385,0.00019271954,-0.0001437921,-0.03636836,2
35466268,0.00018605252,0.0040718494,-0.0019035935,0.48700264,-0.0009632726,0.0033568086,0.87339354,0.9993385,0.00019271954,-0.0001437921,-0.03636836,2
35498269,0.008254154,-0.017183624,-6.9107395e-05,0.48693267,-0.0009400086,0.0033683511,0.87343264,0.9993385,0.00019271954,-0.0001437921,-0.03636836,2
35529510,0.0051297643,-0.0022170178,0.004195732,0.48688328,-0.00094745186,0.0033611194,0.87346005,0.9993385,0.00019271954,-0.0001437921,-0.03636836,2
35562268,-0.01769662,0.0059816753,-0.0011966357,0.48683453,-0.000981602,0.0033266218,0.8734874,0.9993385,0.00019271954,-0.0001437921,-0.03636836,2
35594284,-0.0122852065,-0.0036402089,0.004307174,0.4867785,-0.00097311917,0.0033308927,0.8735186,0.9993385,0.00019271954,-0.0001437921,-0.03636836,2
35626275,0.010826426,-0.009109061,0.0059436103,0.486711,-0.0009602782,0.003354307,0.87355614,0.9993385,0.00019271954,-0.0001437921,-0.03636836,2
35658269,0.013819527,-0.006348476,0.001159929,0.48665026,-0.0009407082,0.0033658822,0.87359,0.9993385,0.00019271954,-0.0001437921,-0.03636836,2
35690269,-0.0005420588,-0.006020963,0.0011812644,0.48661324,-0.00092678686,0.003342786,0.8736106,0.9993385,0.00019271954,-0.0001437921,-0.03636836,2
35718271,0.011967516,0.010673507,0.00540769,0.48656148,-0.0009302088,0.0033811617,0.8736393,0.9993385,0.00019271954,-0.0001437921,-0.03636836,2
35750268,-0.022057181,-0.009337781,-0.0030286598,0.48654166,-0.0009249884,0.0033411984,0.8736505,0.9993385,0.00019271954,-0.0001437921,-0.03636836,2
35782268,-0.025249707,-0.0005194186,0.0059297225,0.48649016,-0.00094896386,0.0033273923,0.8736792,0.9993385,0.00019271954,-0.0001437921,-0.03636836,2
35814275,0.0012065308,-0.010644295,0.004312852,0.48646516,-0.000941123,0.0033170423,0.87369317,0.9993385,0.00019271954,-0.0001437921,-0.03636836,2
35846317,0.004583662,-0.0031417417,0.0008570801,0.4864415,-0.00094196957,0.0033281117,0.8737064,0.9993385,0.00019271954,-0.0001437921,-0.03636836,2
35878276,0.021327984,0.008773045,0.0042933105,0.48642308,-0.0009274384,0.003361238,0.8737164,0.9993385,0.00019271954,-0.0001437921,-0.03636836,2
35910268,-0.00930567,0.006398244,-0.0013000723,0.48638377,-0.00095775916,0.0033368077,0.8737384,0.9993385,0.00019271954,-0.0001437921,-0.03636836,2
35938269,0.0044217585,0.006439683,0.004432115,0.48636776,-0.00095306616,0.003344505,0.8737474,0.9993385,0.00019271954,-0.0001437921,-0.03636836,2
35973534,0.009713993,0.0058628013,0.0013499085,0.48635784,-0.0009799775,0.0033151438,0.8737529,0.9993385,0.00019271954,-0.0001437921,-0.03636836,2
36005469,0.02696376,-0.008582803,0.004477569,0.48634398,-0.00093298807,0.003362866,0.8737606,0.9993385,0.00019271954,-0.0001437921,-0.03636836,2
36037469,0.0072861896,-0.0088582095,0.00668477,0.4863421,-0.0009382438,0.003342323,0.87376165,0.9993385,0.00019271954,-0.0001437921,-0.03636836,2
36069469,-0.0046065967,0.009806279,0.0011705705,0.48632395,-0.00095646916,0.0033462245,0.8737717,0.9993385,0.00019271954,-0.0001437921,-0.03636836,2
36101486,-0.008874854,0.012432575,-0.0006670302,0.48631588,-0.00095322693,0.0033248318,0.87377626,0.9993385,0.00019271954,-0.0001437921,-0.03636836,2
36133469,-0.018639222,-0.010371589,5.5034412e-05,0.4862975,-0.00096036855,0.00329878,0.8737866,0.9993385,0.00019271954,-0.0001437921,-0.03636836,2
36165469,-0.0012756689,-0.011299074,-0.004539904,0.48629472,-0.000948317,0.0032889089,0.87378824,0.9993385,0.00019271954,-0.0001437921,-0.03636836,2
36197468,0.021491032,0.011285789,0.006790123,0.48625234,-0.0009715049,0.0033266842,0.8738116,0.9993385,0.00019271954,-0.0001437921,-0.03636836,2
36225487,0.008200784,-0.002208644,0.005948893,0.4862403,-0.00095873396,0.003299274,0.8738185,0.9993385,0.00019271954,-0.0001437921,-0.03636836,2
36257468,0.010157595,-0.0066496115,0.0051796027,0.48620707,-0.0009595942,0.0033137477,0.8738368,0.9993385,0.00019271954,-0.0001437921,-0.03636836,2
36289469,-0.0016161603,0.008733135,-0.0034711647,0.48619753,-0.0009621267,0.0033351467,0.8738422,0.9993385,0.00019271954,-0.0001437921,-0.03636836,2
36321469,-0.01846777,-0.0038375645,0.0041772695,0.4861478,-0.0009812273,0.0033073386,0.8738699,0.9993385,0.00019271954,-0.0001437921,-0.03636836,2
36353469,-0.019796437,-0.0042155576,-0.000531886,0.48612684,-0.0009784455,0.003311187,0.8738814,0.9993385,0.00019271954,-0.0001437921,-0.03636836,2
36385469,0.0050272355,-0.0086324485,0.0027112314,0.4860938,-0.000958016,0.003325113,0.8738999,0.9993385,0.00019271954,-0.0001437921,-0.03636836,2
36417469,0.010882699,-0.010572813,0.005747362,0.4860525,-0.00092358957,0.003353164,0.8739227,0.9993385,0.00019271954,-0.0001437921,-0.03636836,2
36449475,-0.0026006803,0.009398354,0.0019424754,0.48602346,-0.00094025827,0.0033578747,0.8739389,0.9993385,0.00019271954,-0.0001437921,-0.03636836,2
36477491,0.0012406925,-0.0020872327,0.00073954486,0.48600227,-0.0009453828,0.00334865,0.87395066,0.9993385,0.00019271954,-0.0001437921,-0.03636836,2
36509481,-0.008180113,-0.0019822703,0.0014524404,0.4859873,-0.0009681677,0.0033062533,0.87395906,0.9993385,0.00019271954,-0.0001437921,-0.03636836,2
36541469,-0.015043777,-0.0054988875,0.0008118318,0.48595807,-0.0009607737,0.0032867154,0.8739754,0.9993385,0.00019271954,-0.0001437921,-0.03636836,2
36572702,0.002963721,-0.013766248,0.00022751698,0.4859433,-0.00092103146,0.003275983,0.8739838,0.9993385,0.00019271954,-0.0001437921,-0.03636836,2
36604669,0.008324178,0.0092608975,0.005698708,0.48592365,-0.00093829015,0.0033065772,0.87399447,0.9993385,0.00019271954,-0.0001437921,-0.03636836,2
36636669,0.005635326,0.0017375696,0.0008569048,0.4859175,-0.0009242992,0.0032930935,0.873998,0.9993385,0.00019271954,-0.0001437921,-0.03636836,2
36668687,-0.010312246,-0.0058370894,0.0015684013,0.4858891,-0.0009404375,0.0032762715,0.87401384,0.9993385,0.00019271954,-0.0001437921,-0.03636836,2
36700714,0.0048375586,0.006674015,7.660943e-05,0.48589054,-0.0009289155,0.0033158588,0.87401295,0.9993385,0.00019271954,-0.0001437921,-0.03636836,2
36732718,0.01101914,-0.0012856836,0.00477833,0.4858692,-0.00093119533,0.0033138918,0.87402475,0.9993385,0.00019271954,-0.0001437921,-0.03636836,2
36764669,0.009316419,-0.0145255895,0.0010809996,0.48585126,-0.0008960138,0.003305939,0.87403476,0.9993385,0.00019271954,-0.0001437921,-0.03636836,2
36792682,0.0019091209,-0.007605519,0.0020526298,0.48582408,-0.0009306226,0.0032863803,0.87405,0.9993385,0.00019271954,-0.0001437921,-0.03636836,2
36824669,-0.011411876,0.0023411475,-0.0007946305,0.4857939,-0.0009451819,0.0032932335,0.8740667,0.9993385,0.00019271954,-0.0001437921,-0.03636836,2
36856675,-0.00704607,-0.002112789,-0.0018223044,0.4857542,-0.00094685407,0.0032911308,0.8740887,0.9993385,0.00019271954,-0.0001437921,-0.03636836,2
36888695,-0.003899632,-0.0016431503,0.0058521223,0.4856971,-0.0009662448,0.0032716289,0.8741206,0.9993385,0.00019271954,-0.0001437921,-0.03636836,2
36920713,0.0022031334,-0.0049899677,0.0010194792,0.4856502,-0.0009676731,0.0032470443,0.8741467,0.9993385,0.00019271954,-0.0001437921,-0.03636836,2
36952669,0.006346349,-0.0101701915,0.0017099858,0.48559505,-0.00097500783,0.0032702507,0.8741773,0.9993385,0.00019271954,-0.0001437921,-0.03636836,2
36984705,0.006432738,-0.0069040423,0.0036884502,0.48555088,-0.0009569292,0.0032850658,0.8742017,0.9993385,0.00019271954,-0.0001437921,-0.03636836,2
37016680,0.0014442323,0.006094386,0.0037258293,0.48548746,-0.0009855876,0.0032920386,0.8742369,0.9993385,0.00019271954,-0.0001437921,-0.03636836,2
37044716,0.006880763,0.0013071002,0.0032425153,0.48544085,-0.0009704756,0.0032840092,0.8742629,0.9993385,0.00019271954,-0.0001437921,-0.03636836,2
37076669,0.01313466,-0.0012193819,0.005302639,0.4853674,-0.0009850813,0.0033135323,0.8743035,0.9993385,0.00019271954,-0.0001437921,-0.03636836,2
37107869,0.00117592,-0.0020009782,0.000335305,0.48531538,-0.00096611783,0.003311396,0.8743324,0.9993385,0.00019271954,-0.0001437921,-0.03636836,2
37140669,-0.007409638,0.0026622368,-0.0006708109,0.4852629,-0.0010033882,0.003292008,0.8743615,0.9993385,0.00019271954,-0.0001437921,-0.03636836,2
37171900,0.00556974,0.0061076907,0.005096095,0.4852133,-0.0010014129,0.0033072364,0.8743891,0.9993385,0.00019271954,-0.0001437921,-0.03636836,2
37203875,0.016222926,-0.0027369303,-0.0011927215,0.48517886,-0.0009793143,0.00332102,0.87440807,0.9993385,0.00019271954,-0.0001437921,-0.03636836,2
37235869,0.009930667,-0.008364614,0.0066180965,0.48511916,-0.0009650376,0.0033397682,0.87444115,0.9993385,0.00019271954,-0.0001437921,-0.03636836,2
37267869,0.005476973,-0.010385815,0.005327165,0.485072,-0.0009533831,0.003335564,0.8744674,0.9993385,0.00019271954,-0.0001437921,-0.03636836,2
37299900,-0.00056383485,0.009995799,0.0022266065,0.48502803,-0.0009914968,0.003325303,0.8744918,0.9993385,0.00019271954,-0.0001437921,-0.03636836,2
37327868,0.0092383465,0.00587255,0.0035911184,0.4849893,-0.00097048166,0.0033520025,0.8745131,0.9993385,0.00019271954,-0.0001437921,-0.03636836,2
37359876,-0.0039797784,-0.0075199343,0.0013600746,0.4849356,-0.0009879937,0.00333061,0.87454295,0.9993385,0.00019271954,-0.0001437921,-0.03636836,2
37391875,0.0023495592,-0.006258271,0.0018507259,0.48488727,-0.000996825,0.0033448758,0.8745697,0.9993385,0.00019271954,-0.0001437921,-0.03636836,2
37423869,0.025393164,0.008621173,0.005772372,0.48480928,-0.0009996749,0.0033693598,0.8746129,0.9993385,0.00019271954,-0.0001437921,-0.03636836,2
37455869,0.014210768,0.00024549663,0.004170688,0.48476073,-0.0009828456,0.0033829317,0.87463975,0.9993385,0.00019271954,-0.0001437921,-0.03636836,2
37487902,-0.009172531,0.0050033275,-0.004070614,0.48470747,-0.001019777,0.0033677705,0.87466925,0.9993385,0.00019271954,-0.0001437921,-0.03636836,2
37519875,-0.0022824078,-0.009871682,0.0020226617,0.48463604,-0.0009926736,0.003359762,0.8747089,0.9993385,0.00019271954,-0.0001437921,-0.03636836,2
37551869,0.002852614,-0.009780342,0.0031740884,0.48456705,-0.0010007136,0.0033473198,0.87474716,0.9993385,0.00019271954,-0.0001437921,-0.03636836,2
37579876,0.0022324198,-0.002295364,0.002232954,0.4845407,-0.0010129088,0.00333183,0.8747618,0.9993385,0.00019271954,-0.0001437921,-0.03636836,2
37611869,-0.005528703,-0.00806661,0.003318997,0.48449498,-0.001017234,0.0033099526,0.87478715,0.9993385,0.00019271954,-0.0001437921,-0.03636836,2
37643869,-0.0033073658,0.019032959,-0.00033076596,0.48446858,-0.0010200258,0.0033361856,0.8748017,0.9993385,0.00019271954,-0.0001437921,-0.03636836,2
37675069,-0.0063178698,0.03183895,-0.00017456361,0.48444825,-0.0010562623,0.003349105,0.8748129,0.9993385,0.00019271954,-0.0001437921,-0.03636836,2
37707078,-0.008216359,0.007054687,-0.0018222884,0.48441482,-0.0010600506,0.0033483647,0.87483144,0.9993385,0.00019271954,-0.0001437921,-0.03636836,2
37739075,-0.010223247,-0.015061685,-0.00016156095,0.48439172,-0.0010148374,0.0033284815,0.8748443,0.9993385,0.00019271954,-0.0001437921,-0.03636836,2
37771116,0.0070045227,-0.0041560507,0.0008639877,0.4843382,-0.0010165517,0.0033382312,0.87487394,0.9993385,0.00019271954,-0.0001437921,-0.03636836,2
37803070,0.02166708,0.0035667797,0.0029267226,0.4842935,-0.0010032547,0.0033494963,0.8748987,0.9993385,0.00019271954,-0.0001437921,-0.03636836,2
37835069,0.0013325303,0.010893332,0.001576952,0.48425284,-0.0010552293,0.003331657,0.8749212,0.9993385,0.00019271954,-0.0001437921,-0.03636836,2
37867119,-0.0043340777,0.0072224527,0.0019361046,0.48422134,-0.0010360067,0.0033288926,0.87493867,0.9993385,0.00019271954,-0.0001437921,-0.03636836,2
37899070,-0.0043928046,-0.003808742,0.00048754318,0.48419183,-0.0010378646,0.0033083498,0.8749551,0.9993385,0.00019271954,-0.0001437921,-0.03636836,2
37931069,0.0058101527,-0.0027746204,0.005131964,0.48416433,-0.0010189592,0.003320762,0.87497026,0.9993385,0.00019271954,-0.0001437921,-0.03636836,2
37963068,0.0069680363,0.0029723123,-0.001238445,0.48413548,-0.0010286653,0.0033082718,0.8749863,0.9993385,0.00019271954,-0.0001437921,-0.03636836,2
37995072,0.0043302504,0.019067617,0.0015718307,0.48409507,-0.001037331,0.0033494167,0.87500846,0.9993385,0.00019271954,-0.0001437921,-0.03636836,2
38027075,-0.017937947,0.004803143,0.0027233935,0.48407137,-0.0010535883,0.0033412436,0.87502164,0.9993385,0.00019271954,-0.0001437921,-0.03636836,2
38059069,-0.01081478,-0.012593144,0.002955494,0.4840523,-0.0010447,0.003322913,0.8750322,0.9993385,0.00019271954,-0.0001437921,-0.03636836,2
38091086,0.007944139,-0.007575437,0.0030695226,0.48403007,-0.0010357966,0.003322395,0.8750445,0.9993385,0.00019271954,-0.0001437921,-0.03636836,2
38123068,0.012138013,-0.0022708396,0.005870374,0.48399594,-0.0010330455,0.0033491345,0.8750632,0.9993385,0.00019271954,-0.0001437921,-0.03636836,2
38155077,-0.012785682,0.005662971,-0.0017383718,0.48398405,-0.0010552652,0.0033376606,0.87506986,0.9993385,0.00019271954,-0.0001437921,-0.03636836,2
38187069,-0.005886621,-0.0034669656,-0.0007072103,0.48397195,-0.0010811278,0.0033179615,0.87507665,0.9993385,0.00019271954,-0.0001437921,-0.03636836,2
38218268,0.0056044073,-0.0057496843,0.0034416367,0.48396042,-0.0010629952,0.0033031278,0.8750831,0.9993385,0.00019271954,-0.0001437921,-0.03636836,2
38249512,0.0007641609,-0.010136647,0.0011860172,0.48395175,-0.0010488135,0.0033060368,0.8750878,0.9993385,0.00019271954,-0.0001437921,-0.03636836,2
38282276,-0.0094758235,0.0031181015,0.0028315578,0.4839292,-0.0010488098,0.003298981,0.8751003,0.9993385,0.00019271954,-0.0001437921,-0.03636836,2
38314275,0.0019618073,-0.0031557234,0.0052001188,0.4838907,-0.0010312131,0.0032997397,0.8751217,0.9993385,0.00019271954,-0.0001437921,-0.03636836,2
38346269,-0.009725569,0.004096729,0.0019151459,0.4838601,-0.0010380563,0.0033081262,0.8751385,0.9993385,0.00019271954,-0.0001437921,-0.03636836,2
38374278,0.010058057,0.009417993,0.0024080917,0.48382673,-0.001024318,0.003353097,0.8751569,0.9993385,0.00019271954,-0.0001437921,-0.03636836,2
38406269,-0.008972325,0.00079577137,0.0008626033,0.48381162,-0.001037955,0.0033182087,0.8751653,0.9993385,0.00019271954,-0.0001437921,-0.03636836,2
38438269,0.0008142416,-0.00850209,-0.002488713,0.4837955,-0.0010115537,0.003327152,0.8751742,0.9993385,0.00019271954,-0.0001437921,-0.03636836,2
38470312,0.006028643,0.0021205256,0.0042507728,0.4837654,-0.0010376398,0.0033399533,0.87519085,0.9993385,0.00019271954,-0.0001437921,-0.03636836,2
38502276,-0.006440153,0.008415734,0.0031706393,0.4837541,-0.0010506939,0.0033416855,0.875197,0.9993385,0.00019271954,-0.0001437921,-0.03636836,2
38534269,-0.010410061,0.0016917998,-0.000115751754,0.48374206,-0.001056178,0.0033391353,0.8752036,0.9993385,0.00019271954,-0.0001437921,-0.03636836,2
38566269,-0.0041010026,0.00283584,0.0030075863,0.4837187,-0.0010577135,0.0033276589,0.87521666,0.9993385,0.00019271954,-0.0001437921,-0.03636836,2
38598305,-0.0015205746,-0.007397089,0.0032089814,0.48367545,-0.0010484763,0.0033243555,0.8752405,0.9993385,0.00019271954,-0.0001437921,-0.03636836,2
38630277,0.0023642592,-0.0047374833,-0.00077967974,0.48364916,-0.0010297577,0.0033445337,0.87525505,0.9993385,0.00019271954,-0.0001437921,-0.03636836,2
38662269,0.01743487,0.00504526,0.0074053714,0.48361033,-0.0010186131,0.0033978934,0.87527627,0.9993385,0.00019271954,-0.0001437921,-0.03636836,2
38694269,0.0015137501,0.006337476,0.0052588265,0.4835856,-0.0010373986,0.0033750313,0.8752899,0.9993385,0.00019271954,-0.0001437921,-0.03636836,2
38726284,-0.0066857347,-0.0065883715,-0.0027174666,0.48357743,-0.0010302027,0.0033510313,0.87529457,0.9993385,0.00019271954,-0.0001437921,-0.03636836,2
38757469,-0.0012799498,-0.0016374404,0.003967216,0.4835435,-0.0010210887,0.0033544023,0.87531334,0.9993385,0.00019271954,-0.0001437921,-0.03636836,2
38789475,0.0014920825,-0.0066102026,0.0024364535,0.483515,-0.0010184073,0.0033777386,0.8753291,0.9993385,0.00019271954,-0.0001437921,-0.03636836,2
38820712,-0.008529792,0.011751429,0.005501356,0.4834682,-0.0010531269,0.0033733041,0.8753549,0.9993385,0.00019271954,-0.0001437921,-0.03636836,2
38850269,-0.0022832705,0.00794848,0.001601648,0.48346505,-0.0010527598,0.003362051,0.8753567,0.9993385,0.00019271954,-0.0001437921,-0.03636836,2
38881469,0.017816596,0.0031774594,0.005751213,0.48343465,-0.0010152693,0.0033705656,0.8753734,0.9993385,0.00019271954,-0.0001437921,-0.03636836,2
38913491,0.010352479,-0.005387651,0.0055832993,0.48338833,-0.0010087831,0.0033731104,0.875399,0.9993385,0.00019271954,-0.0001437921,-0.03636836,2
38941497,0.01695035,-0.0025732443,0.0045856675,0.48335814,-0.0010236854,0.0033943641,0.8754156,0.9993385,0.00019271954,-0.0001437921,-0.03636836,2
38973469,-0.01582599,-0.024804214,0.00094740745,0.48333088,-0.0010351324,0.0033489682,0.8754308,0.9993385,0.00019271954,-0.0001437921,-0.03636836,2
39005468,0.0020194657,-0.015029809,0.0067892885,0.4832996,-0.001016295,0.003366297,0.87544805,0.9993385,0.00019271954,-0.0001437921,-0.03636836,2
39037475,0.009199015,-0.00967226,0.0019468772,0.4832805,-0.000996792,0.0033704832,0.87545854,0.9993385,0.00019271954,-0.0001437921,-0.03636836,2
39069509,0.008762172,0.0025886009,-5.0620874e-05,0.48325986,-0.001010428,0.0033952463,0.87546974,0.9993385,0.00019271954,-0.0001437921,-0.03636836,2
39101468,-0.0034294287,0.007953045,0.0014707353,0.48323897,-0.0010237539,0.003378249,0.87548137,0.9993385,0.00019271954,-0.0001437921,-0.03636836,2
39133469,-0.004297827,0.0045310557,0.0019226616,0.48322597,-0.0010337252,0.0034069854,0.87548846,0.9993385,0.00019271954,-0.0001437921,-0.03636836,2
39165476,0.004533166,0.0062754853,0.0026073498,0.48319983,-0.0010348106,0.0033892344,0.87550294,0.9993385,0.00019271954,-0.0001437921,-0.03636836,2
39193469,0.01694066,0.007165551,0.008139788,0.48317727,-0.0010307654,0.0034069028,0.8755153,0.9993385,0.00019271954,-0.0001437921,-0.03636836,2
39225475,0.000186246,-0.0026791827,0.004007064,0.48317233,-0.0010303919,0.0033824388,0.87551814,0.9993385,0.00019271954,-0.0001437921,-0.03636836,2
39257486,0.001793627,-0.017523153,-0.00093367393,0.483168,-0.001005987,0.003367182,0.8755206,0.9993385,0.00019271954,-0.0001437921,-0.03636836,2
39289512,0.018267184,0.014245732,0.0015842725,0.48316577,-0.0010217724,0.003410007,0.87552166,0.9993385,0.00019271954,-0.0001437921,-0.03636836,2
39320669,0.003930211,0.009223301,0.0012762942,0.48315206,-0.0010257539,0.0033978573,0.8755292,0.9993385,0.00019271954,-0.0001437921,-0.03636836,2
39351907,0.0046233437,-0.0031965913,-0.00058552227,0.4831311,-0.0010109732,0.0034329158,0.87554073,0.9993385,0.00019271954,-0.0001437921,-0.03636836,2
39384689,0.011541887,-0.0047661974,0.0034191785,0.48311365,-0.0010191033,0.0034194016,0.87555045,0.9993385,0.00019271954,-0.0001437921,-0.03636836,2
39416687,0.004897311,-0.019147132,0.0030262163,0.4831042,-0.0010008746,0.0034267947,0.8755557,0.9993385,0.00019271954,-0.0001437921,-0.03636836,2
39448668,-0.005677198,-0.007839432,0.000799726,0.4830814,-0.0010133731,0.0034052094,0.8755682,0.9993385,0.00019271954,-0.0001437921,-0.03636836,2
39480710,0.00402023,-0.00086137064,0.0056327637,0.4830518,-0.0010207364,0.0034451273,0.8755845,0.9993385,0.00019271954,-0.0001437921,-0.03636836,2
39512668,-0.0012133342,0.004211545,0.0049119405,0.48302233,-0.001020226,0.0034134176,0.8756008,0.9993385,0.00019271954,-0.0001437921,-0.03636836,2
39544669,-0.01565928,0.0036481856,-0.0022592403,0.4830058,-0.0010184766,0.0034325363,0.87560993,0.9993385,0.00019271954,-0.0001437921,-0.03636836,2
39576680,-0.006265793,0.004390861,-0.0014888253,0.4829849,-0.0010332623,0.0034293188,0.8756214,0.9993385,0.00019271954,-0.0001437921,-0.03636836,2
39608687,-2.3358967e-05,-0.014175237,0.0032269089,0.4829686,-0.0010022986,0.0034274682,0.8756305,0.9993385,0.00019271954,-0.0001437921,-0.03636836,2
39640669,0.0080916025,0.006072594,0.0051217726,0.48292783,-0.0010011696,0.003448936,0.8756528,0.9993385,0.00019271954,-0.0001437921,-0.03636836,2
39672720,0.008237098,0.015487598,-0.0013019426,0.48290446,-0.0010135183,0.0034495026,0.87566566,0.9993385,0.00019271954,-0.0001437921,-0.03636836,2
39704669,0.0059303455,0.0125989355,-0.0012273688,0.48286697,-0.0010341172,0.0034604704,0.87568635,0.9993385,0.00019271954,-0.0001437921,-0.03636836,2
39736694,0.0009092926,-0.014190854,-0.00051135826,0.48283058,-0.0010110369,0.0034140644,0.8757066,0.9993385,0.00019271954,-0.0001437921,-0.03636836,2
39768668,-0.0033225506,-0.0039098663,0.003990927,0.48278418,-0.0009944949,0.003437401,0.8757322,0.9993385,0.00019271954,-0.0001437921,-0.03636836,2
39800675,0.0036931257,0.0075125857,0.0015955002,0.48275396,-0.000997847,0.00343497,0.87574875,0.9993385,0.00019271954,-0.0001437921,-0.03636836,2
39832689,0.0050825593,0.014454054,0.0011646503,0.48272336,-0.0009994776,0.0034884373,0.8757654,0.9993385,0.00019271954,-0.0001437921,-0.03636836,2
39864669,-0.0045131524,-0.0045021335,0.0025029774,0.4826983,-0.0010179176,0.003418931,0.8757795,0.9993385,0.00019271954,-0.0001437921,-0.03636836,2
39895868,-0.007048423,-0.003058354,-0.0012464987,0.48269156,-0.0010206188,0.003413968,0.8757832,0.9993385,0.00019271954,-0.0001437921,-0.03636836,2
39927869,0.012437395,0.0042932127,0.00044769072,0.48266605,-0.0010341045,0.0034535588,0.8757971,0.9993385,0.00019271954,-0.0001437921,-0.03636836,2
39959875,0.015123534,-0.005729277,0.007189649,0.48263022,-0.0009992876,0.0034756386,0.8758169,0.9993385,0.00019271954,-0.0001437921,-0.03636836,2
39987869,0.008245444,-0.009817596,0.007913971,0.48259333,-0.0009957809,0.0034702877,0.87583715,0.9993385,0.00019271954,-0.0001437921,-0.03636836,2
40019875,-0.0003544349,0.003028371,0.0029291126,0.4825605,-0.0010190983,0.003455915,0.8758553,0.9993385,0.00019271954,-0.0001437921,-0.03636836,2
40051897,0.0053920443,0.01024869,-0.0012293826,0.48252642,-0.0010216102,0.0034987668,0.8758738,0.9993385,0.00019271954,-0.0001437921,-0.03636836,2
40083869,-0.011101391,0.005686512,0.0015799953,0.48249176,-0.0010162492,0.0034733326,0.8758931,0.9993385,0.00019271954,-0.0001437921,-0.03636836,2
40115869,-0.004611198,0.0055810846,0.0035160012,0.48245937,-0.0010218474,0.003482152,0.8759108,0.9993385,0.00019271954,-0.0001437921,-0.03636836,2
40147886,0.0004985664,0.0014251233,0.0019763473,0.48241267,-0.0010339186,0.0034405175,0.8759368,0.9993385,0.00019271954,-0.0001437921,-0.03636836,2
40179875,0.0071861353,-0.0015788218,0.0011520181,0.48237923,-0.0010315626,0.003464444,0.87595505,0.9993385,0.00019271954,-0.0001437921,-0.03636836,2
40211869,0.009608633,0.0031859989,-0.0017865938,0.4823648,-0.0010047456,0.00346261,0.875963,0.9993385,0.00019271954,-0.0001437921,-0.03636836,2
40239885,0.010167088,-0.012806602,0.004944037,0.4823305,-0.0009949963,0.003471594,0.875982,0.9993385,0.00019271954,-0.0001437921,-0.03636836,2
40271869,0.012712313,-0.0039846767,0.005133316,0.4823049,-0.0010091112,0.0034492249,0.87599605,0.9993385,0.00019271954,-0.0001437921,-0.03636836,2
40303869,-0.0013617575,-0.009916,0.003273432,0.4822708,-0.0009936867,0.0034558703,0.8760149,0.9993385,0.00019271954,-0.0001437921,-0.03636836,2
40335873,0.002588476,0.003305864,0.0030322238,0.48225784,-0.0010009708,0.0034582862,0.876022,0.9993385,0.00019271954,-0.0001437921,-0.03636836,2
40367880,0.00616665,0.00459695,-0.0028286017,0.482248,-0.0010083889,0.0034577877,0.87602735,0.9993385,0.00019271954,-0.0001437921,-0.03636836,2
40399075,0.008987637,-0.004237391,-0.0008840801,0.48222947,-0.0010021568,0.0034512046,0.87603754,0.9993385,0.00019271954,-0.0001437921,-0.03636836,2
40431069,-0.017761625,0.004498615,0.0013043827,0.4822021,-0.0010110165,0.0034304443,0.8760527,0.9993385,0.00019271954,-0.0001437921,-0.03636836,2
40463069,-0.02249181,0.01079035,0.00096706,0.4821691,-0.0010179328,0.003448946,0.8760708,0.9993385,0.00019271954,-0.0001437921,-0.03636836,2
40495075,-0.0080233365,0.010593977,0.0049657817,0.48213276,-0.0010364508,0.0034164956,0.8760909,0.9993385,0.00019271954,-0.0001437921,-0.03636836,2
40527101,0.00945728,0.0036104755,-0.0002685974,0.48209757,-0.0010405355,0.00343105,0.8761102,0.9993385,0.00019271954,-0.0001437921,-0.03636836,2
40555107,0.0038234931,0.0044704173,0.0012988972,0.482071,-0.0010297104,0.0033968787,0.8761251,0.9993385,0.00019271954,-0.0001437921,-0.03636836,2
40587069,0.01711119,-0.009168877,0.0021363352,0.48202437,-0.0010228383,0.0034320315,0.87615055,0.9993385,0.00019271954,-0.0001437921,-0.03636836,2
40619075,0.02612533,-0.011649921,0.0052664066,0.48196557,-0.0010035915,0.0034204212,0.876183,0.9993385,0.00019271954,-0.0001437921,-0.03636836,2
40651108,0.010243171,-0.0034161662,0.007108351,0.4819109,-0.0010003278,0.0034283851,0.876213,0.9993385,0.00019271954,-0.0001437921,-0.03636836,2
40683069,-0.01839568,-0.0072349273,-0.00027269102,0.48187822,-0.0010101661,0.0034099217,0.87623096,0.9993385,0.00019271954,-0.0001437921,-0.03636836,2
40715068,-0.020272445,0.0032183605,-0.00038923533,0.48184484,-0.0010401126,0.0034043293,0.8762494,0.9993385,0.00019271954,-0.0001437921,-0.03636836,2
40747106,0.0009985437,0.003578607,0.00047324598,0.4818164,-0.0010221547,0.0034186644,0.8762649,0.9993385,0.00019271954,-0.0001437921,-0.03636836,2
40779073,0.002216144,-0.004534805,0.00093235145,0.48179436,-0.0010132086,0.0034059954,0.87627715,0.9993385,0.00019271954,-0.0001437921,-0.03636836,2
40811069,0.007814243,0.0021391276,0.006695578,0.48174986,-0.0010330583,0.0034320515,0.8763015,0.9993385,0.00019271954,-0.0001437921,-0.03636836,2
40843084,-0.006831978,0.0010854849,0.0076274048,0.48172686,-0.0010356508,0.0034174647,0.87631416,0.9993385,0.00019271954,-0.0001437921,-0.03636836,2
40875069,-0.00929947,0.0017594437,-0.00033532688,0.48171714,-0.0010582943,0.003404387,0.87631947,0.9993385,0.00019271954,-0.0001437921,-0.03636836,2
40907068,0.01393315,-0.0044291783,0.0012977433,0.48171794,-0.0010471394,0.0033805287,0.8763192,0.9993385,0.00019271954,-0.0001437921,-0.03636836,2
40939115,0.01552442,0.010674086,0.0023542428,0.48171014,-0.001046873,0.0034150397,0.8763233,0.9993385,0.00019271954,-0.0001437921,-0.03636836,2
40970268,0.013764464,0.005343917,0.0018617668,0.48171616,-0.0010270859,0.0034143487,0.87632006,0.9993385,0.00019271954,-0.0001437921,-0.03636836,2
41002275,-0.012362687,-0.013925726,-0.00028531253,0.4817176,-0.0010279128,0.003394377,0.87631947,0.9993385,0.00019271954,-0.0001437921,-0.03636836,2
41033512,-0.0013616107,-0.00495377,0.003980804,0.4817181,-0.0010061766,0.0033950375,0.8763191,0.9993385,0.00019271954,-0.0001437921,-0.03636836,2
41066268,0.009159961,0.015189746,0.0019005807,0.4817116,-0.001059946,0.0034287048,0.8763225,0.9993385,0.00019271954,-0.0001437921,-0.03636836,2
41098268,0.0048701786,-0.003115981,0.0019482982,0.48170915,-0.0010462493,0.0034501592,0.8763238,0.9993385,0.00019271954,-0.0001437921,-0.03636836,2
41130275,-0.0016133081,-0.013467445,0.001790452,0.48169553,-0.0010398533,0.003409868,0.8763315,0.9993385,0.00019271954,-0.0001437921,-0.03636836,2
41162304,0.004081882,0.0018973331,0.0026167894,0.48168325,-0.0010531096,0.0034312368,0.87633806,0.9993385,0.00019271954,-0.0001437921,-0.03636836,2
41194269,-0.0068836226,-0.0059159966,0.006327671,0.4816773,-0.0010711389,0.0033764765,0.8763416,0.9993385,0.00019271954,-0.0001437921,-0.03636836,2
41226269,-0.0070430236,-0.02791567,-5.3127296e-05,0.4816627,-0.0010154147,0.0033805126,0.87634957,0.9993385,0.00019271954,-0.0001437921,-0.03636836,2
41258271,0.02819674,0.01332139,0.0066276086,0.4816276,-0.0010142442,0.0033990585,0.8763688,0.9993385,0.00019271954,-0.0001437921,-0.03636836,2
41286269,0.02289091,-0.0043887636,0.0005912683,0.4816114,-0.0010168458,0.0033937842,0.8763778,0.9993385,0.00019271954,-0.0001437921,-0.03636836,2
41318276,0.012658092,0.022862414,0.004136737,0.48158786,-0.0010475327,0.0034115198,0.8763906,0.9993385,0.00019271954,-0.0001437921,-0.03636836,2
41350291,-0.0052050725,-0.005465597,-0.00036666892,0.48156384,-0.0010292724,0.0034074935,0.8764038,0.9993385,0.00019271954,-0.0001437921,-0.03636836,2
41382269,0.00984555,0.0044354075,0.0057238555,0.48154286,-0.0010265408,0.0034321726,0.87641525,0.9993385,0.00019271954,-0.0001437921,-0.03636836,2
41414268,0.0041762944,0.0023906713,-0.0006167779,0.4815025,-0.0010339549,0.0034109277,0.8764374,0.9993385,0.00019271954,-0.0001437921,-0.03636836,2
41446294,-0.0008382384,0.0052339975,0.0029215373,0.48144042,-0.0010276507,0.0034246407,0.87647164,0.9993385,0.00019271954,-0.0001437921,-0.03636836,2
41478277,-0.0043406216,-0.018115396,-0.00061086053,0.4814164,-0.0010030782,0.0033862342,0.876485,0.9993385,0.00019271954,-0.0001437921,-0.03636836,2
41509469,-0.0040663783,0.0073328577,-0.0057624113,0.4813836,-0.001020184,0.0034537944,0.87650263,0.9993385,0.00019271954,-0.0001437921,-0.03636836,2
41537495,0.002041025,0.01773862,0.0031196761,0.48133093,-0.0010246136,0.003432468,0.8765316,0.9993385,0.00019271954,-0.0001437921,-0.03636836,2
41573469,-0.006330165,-0.0105850855,0.0035768733,0.48126358,-0.0009775585,0.0034488246,0.8765687,0.9993385,0.00019271954,-0.0001437921,-0.03636836,2
41601487,0.001293859,-0.007439719,0.0025122077,0.48123282,-0.0009855924,0.0034299549,0.8765856,0.9993385,0.00019271954,-0.0001437921,-0.03636836,2
41633507,0.0017660816,-0.011041649,0.006332619,0.48118716,-0.000979821,0.0034570352,0.8766106,0.9993385,0.00019271954,-0.0001437921,-0.03636836,2
41665475,-0.015241597,-0.008204422,-0.005332955,0.48117098,-0.0009667969,0.0034203643,0.8766195,0.9993385,0.00019271954,-0.0001437921,-0.03636836,2
41697468,0.00021126901,0.0072907624,0.00013233162,0.48112237,-0.0010014649,0.0034393722,0.8766462,0.9993385,0.00019271954,-0.0001437921,-0.03636836,2
41729472,-0.006227203,-0.008004868,0.005837417,0.4810761,-0.00099005,0.0034136293,0.87667173,0.9993385,0.00019271954,-0.0001437921,-0.03636836,2
41761468,-0.012483866,-0.024971617,0.00011257781,0.48103744,-0.0009766351,0.0033848947,0.876693,0.9993385,0.00019271954,-0.0001437921,-0.03636836,2
41793468,0.0059077153,-0.0085211685,0.008867784,0.4810211,-0.0009516409,0.003430744,0.8767018,0.9993385,0.00019271954,-0.0001437921,-0.03636836,2
41825475,0.003339923,0.00096647313,0.0019382943,0.48100388,-0.00097345194,0.003422478,0.87671137,0.9993385,0.00019271954,-0.0001437921,-0.03636836,2
41857506,0.012564391,0.00864736,0.0032736065,0.48097682,-0.00097169186,0.0034667563,0.8767259,0.9993385,0.00019271954,-0.0001437921,-0.03636836,2
41889477,0.0029593848,0.0031516934,0.0008854463,0.48096412,-0.0009791082,0.00343303,0.876733,0.9993385,0.00019271954,-0.0001437921,-0.03636836,2
41921468,0.0027435457,-0.003039761,0.001970926,0.48095948,-0.00095851975,0.003479121,0.87673545,0.9993385,0.00019271954,-0.0001437921,-0.03636836,2
41953475,-0.013815515,-0.0019841809,0.0006974421,0.48096365,-0.0009699328,0.003432733,0.87673336,0.9993385,0.00019271954,-0.0001437921,-0.03636836,2
41985477,-0.018935774,-0.008707911,-0.0027865805,0.48097187,-0.0009682107,0.0034500365,0.8767287,0.9993385,0.00019271954,-0.0001437921,-0.03636836,2
42017486,-0.004298248,0.0067999014,0.0007179631,0.48097318,-0.0009771745,0.0034596322,0.87672806,0.9993385,0.00019271954,-0.0001437921,-0.03636836,2
42048669,0.007893002,0.010380664,0.0037352515,0.48096004,-0.0009726619,0.00349406,0.8767351,0.9993385,0.00019271954,-0.0001437921,-0.03636836,2
42080669,0.007801616,0.0044697043,-0.0011113281,0.48096868,-0.0009618249,0.0034872426,0.8767304,0.9993385,0.00019271954,-0.0001437921,-0.03636836,2
42112675,-0.00063168554,0.0001482612,0.0006245896,0.4809667,-0.0009794675,0.0034670478,0.87673146,0.9993385,0.00019271954,-0.0001437921,-0.03636836,2
42140669,-0.025067698,-0.0004907996,7.380033e-05,0.48096445,-0.0009829274,0.003454836,0.8767328,0.9993385,0.00019271954,-0.0001437921,-0.03636836,2
42172702,-0.011698256,-0.0066871094,0.0017099484,0.4809527,-0.00097319746,0.0034356243,0.8767394,0.9993385,0.00019271954,-0.0001437921,-0.03636836,2
42204669,0.004198066,-0.00696309,0.0049690474,0.48093924,-0.0009556711,0.0034664932,0.8767466,0.9993385,0.00019271954,-0.0001437921,-0.03636836,2
42236669,0.009067821,0.0075267795,0.004115865,0.48093164,-0.0009710608,0.0034430306,0.8767509,0.9993385,0.00019271954,-0.0001437921,-0.03636836,2
42268680,0.014112676,0.0036538127,0.0007252521,0.48091784,-0.00097541045,0.0034994492,0.87675816,0.9993385,0.00019271954,-0.0001437921,-0.03636836,2
42300675,0.01784059,-0.0039928406,0.0029851268,0.4809072,-0.0009785659,0.0034656823,0.8767641,0.9993385,0.00019271954,-0.0001437921,-0.03636836,2
42332690,-0.00050205505,-0.015719468,0.005026768,0.48087937,-0.00095411384,0.0034739645,0.8767793,0.9993385,0.00019271954,-0.0001437921,-0.03636836,2
