timestamp,timestamp_last_signal,channel_count,rssi,rc_lost_frame_count,rc_total_frame_count,rc_ppm_frame_length,values[0],values[1],values[2],values[3],values[4],values[5],values[6],values[7],values[8],values[9],values[10],values[11],values[12],values[13],values[14],values[15],values[16],values[17],rc_failsafe,rc_lost,input_source
29488349,29488349,12,46,0,0,30003,1098,1508,1504,1504,1105,1257,1906,1105,1905,1105,1505,1257,0,0,0,0,0,0,0,0,2
29692452,29692452,12,46,0,0,30004,1097,1509,1504,1504,1105,1257,1905,1106,1905,1105,1505,1257,0,0,0,0,0,0,0,0,2
29896757,29896757,12,46,0,0,30004,1098,1508,1505,1504,1105,1257,1905,1105,1906,1105,1505,1257,0,0,0,0,0,0,0,0,2
30091753,30091753,12,46,0,0,30003,1098,1508,1504,1504,1105,1257,1906,1105,1905,1105,1505,1257,0,0,0,0,0,0,0,0,2
30291940,30291940,12,46,0,0,30003,1098,1508,1504,1504,1105,1257,1905,1106,1905,1105,1505,1257,0,0,0,0,0,0,0,0,2
30491570,30491570,12,46,0,0,30004,1098,1508,1505,1499,1105,1257,1905,1105,1906,1105,1505,1257,0,0,0,0,0,0,0,0,2
30687119,30687119,12,46,0,0,30003,1098,1508,1504,1501,1105,1258,1905,1105,1905,1105,1505,1257,0,0,0,0,0,0,0,0,2
30886978,30886978,12,46,0,0,30003,1098,1508,1504,1503,1105,1257,1906,1105,1905,1105,1505,1257,0,0,0,0,0,0,0,0,2
31106730,31106730,12,46,0,0,30003,1098,1508,1505,1502,1105,1257,1905,1105,1906,1105,1505,1257,0,0,0,0,0,0,0,0,2
31301941,31301941,12,46,0,0,30003,1098,1508,1504,1504,1105,1257,1905,1105,1905,1105,1506,1257,0,0,0,0,0,0,0,0,2
31509974,31509974,12,46,0,0,30003,1098,1508,1504,1503,1105,1257,1906,1105,1905,1105,1505,1257,0,0,0,0,0,0,0,0,2
31701376,31701376,12,46,0,0,30003,1098,1508,1504,1504,1105,1257,1905,1105,1905,1106,1505,1257,0,0,0,0,0,0,0,0,2
31921172,31921172,12,46,0,0,30003,1098,1508,1504,1503,1105,1258,1905,1105,1905,1105,1505,1257,0,0,0,0,0,0,0,0,2
32120549,32120549,12,46,0,0,30004,1097,1510,1504,1503,1105,1257,1905,1106,1905,1105,1505,1257,0,0,0,0,0,0,0,0,2
32320424,32320424,12,46,0,0,30004,1098,1508,1504,1504,1105,1257,1905,1105,1905,1106,1505,1257,0,0,0,0,0,0,0,0,2
32524365,32524365,12,46,0,0,30003,1098,1508,1504,1503,1105,1258,1905,1105,1905,1105,1505,1258,0,0,0,0,0,0,0,0,2
32724390,32724390,12,46,0,0,30004,1098,1508,1505,1503,1105,1257,1905,1105,1906,1105,1505,1257,0,0,0,0,0,0,0,0,2
32927744,32927744,12,46,0,0,30003,1098,1508,1504,1503,1106,1257,1905,1105,1905,1105,1506,1257,0,0,0,0,0,0,0,0,2
33127780,33127780,12,46,0,0,30003,1098,1508,1505,1503,1105,1257,1906,1105,1905,1105,1505,1257,0,0,0,0,0,0,0,0,2
33330948,33330948,12,46,0,0,30003,1098,1509,1504,1504,1105,1257,1905,1105,1905,1105,1506,1257,0,0,0,0,0,0,0,0,2
33530764,33530764,12,46,0,0,30003,1098,1508,1504,1503,1105,1258,1905,1105,1905,1105,1505,1257,0,0,0,0,0,0,0,0,2
33726992,33726992,12,46,0,0,30003,1097,1509,1504,1503,1105,1257,1905,1106,1905,1105,1505,1257,0,0,0,0,0,0,0,0,2
33930188,33930188,12,46,0,0,30003,1098,1508,1504,1503,1106,1257,1905,1105,1905,1105,1506,1257,0,0,0,0,0,0,0,0,2
34134086,34134086,12,46,0,0,30003,1098,1508,1504,1504,1105,1257,1906,1105,1905,1105,1505,1257,0,0,0,0,0,0,0,0,2
34353546,34353546,12,46,0,0,30003,1098,1508,1504,1503,1105,1257,1906,1105,1905,1105,1505,1257,0,0,0,0,0,0,0,0,2
34553349,34553349,12,46,0,0,30003,1098,1508,1504,1504,1105,1257,1905,1105,1905,1105,1506,1257,0,0,0,0,0,0,0,0,2
34749516,34749516,12,46,0,0,30003,1098,1508,1504,1503,1105,1258,1905,1105,1905,1105,1505,1257,0,0,0,0,0,0,0,0,2
34941389,34941389,12,46,0,0,30004,1098,1508,1505,1504,1105,1257,1905,1105,1906,1105,1505,1257,0,0,0,0,0,0,0,0,2
35160587,35160587,12,46,0,0,30003,1098,1508,1504,1504,1106,1257,1905,1105,1905,1105,1506,1257,0,0,0,0,0,0,0,0,2
35348583,35348583,12,46,0,0,30003,1098,1508,1504,1504,1105,1257,1906,1105,1905,1105,1505,1257,0,0,0,0,0,0,0,0,2
35543787,35543787,12,46,0,0,30003,1098,1508,1505,1504,1105,1257,1905,1105,1905,1106,1505,1257,0,0,0,0,0,0,0,0,2
35763564,35763564,12,46,0,0,30004,1098,1509,1504,1505,1105,1257,1905,1105,1905,1106,1505,1257,0,0,0,0,0,0,0,0,2
35963576,35963576,12,46,0,0,30003,1098,1508,1504,1503,1105,1257,1906,1105,1905,1105,1505,1257,0,0,0,0,0,0,0,0,2
36162988,36162988,12,46,0,0,30003,1097,1509,1504,1504,1105,1257,1905,1105,1906,1105,1505,1257,0,0,0,0,0,0,0,0,2
36367119,36367119,12,46,0,0,30003,1098,1508,1504,1505,1105,1257,1905,1105,1905,1106,1505,1257,0,0,0,0,0,0,0,0,2
36569993,36569993,12,46,0,0,30003,1098,1508,1504,1504,1105,1257,1906,1105,1905,1105,1505,1257,0,0,0,0,0,0,0,0,2
36774151,36774151,12,46,0,0,30004,1097,1509,1504,1504,1105,1257,1905,1105,1906,1105,1505,1257,0,0,0,0,0,0,0,0,2
36970187,36970187,12,46,0,0,30004,1098,1508,1504,1505,1105,1257,1905,1105,1905,1106,1505,1257,0,0,0,0,0,0,0,0,2
37173226,37173226,12,46,0,0,30003,1098,1508,1505,1504,1105,1257,1906,1105,1905,1105,1505,1258,0,0,0,0,0,0,0,0,2
37385152,37385152,12,46,0,0,30003,1098,1509,1504,1504,1105,1257,1906,1105,1905,1105,1505,1257,0,0,0,0,0,0,0,0,2
37589545,37589545,12,46,0,0,30004,1098,1508,1504,1505,1105,1257,1905,1105,1905,1106,1505,1257,0,0,0,0,0,0,0,0,2
37796375,37796375,12,46,0,0,30003,1098,1508,1504,1504,1106,1257,1905,1105,1905,1105,1505,1258,0,0,0,0,0,0,0,0,2
37996540,37996540,12,46,0,0,30003,1098,1508,1504,1504,1105,1257,1906,1105,1905,1105,1505,1257,0,0,0,0,0,0,0,0,2
38195758,38195758,12,46,0,0,30004,1097,1509,1504,1504,1105,1257,1905,1106,1905,1105,1505,1257,0,0,0,0,0,0,0,0,2
38399576,38399576,12,46,0,0,30003,1098,1508,1504,1504,1106,1257,1905,1105,1905,1105,1506,1257,0,0,0,0,0,0,0,0,2
38599768,38599768,12,46,0,0,30003,1098,1508,1504,1504,1105,1257,1906,1105,1905,1105,1505,1257,0,0,0,0,0,0,0,0,2
38790933,38790933,12,46,0,0,30003,1098,1508,1504,1505,1105,1257,1905,1105,1905,1105,1506,1257,0,0,0,0,0,0,0,0,2
38991119,38991119,12,46,0,0,30003,1098,1508,1504,1504,1105,1257,1906,1105,1905,1105,1505,1257,0,0,0,0,0,0,0,0,2
39194750,39194750,12,46,0,0,30003,1097,1509,1504,1504,1105,1257,1905,1105,1906,1105,1505,1257,0,0,0,0,0,0,0,0,2
39406196,39406196,12,46,0,0,30003,1098,1508,1504,1505,1105,1257,1905,1105,1905,1105,1506,1257,0,0,0,0,0,0,0,0,2
39605929,39605929,12,46,0,0,30003,1098,1508,1504,1503,1105,1257,1906,1105,1905,1105,1505,1257,0,0,0,0,0,0,0,0,2
39805967,39805967,12,46,0,0,30004,1098,1508,1504,1504,1105,1257,1905,1105,1905,1106,1505,1257,0,0,0,0,0,0,0,0,2
40009167,40009167,12,46,0,0,30003,1098,1508,1504,1503,1105,1258,1905,1105,1905,1105,1505,1258,0,0,0,0,0,0,0,0,2
40209142,40209142,12,46,0,0,30003,1098,1508,1504,1503,1105,1257,1905,1106,1905,1105,1505,1257,0,0,0,0,0,0,0,0,2
40400554,40400554,12,46,0,0,30003,1098,1508,1504,1505,1106,1257,1905,1105,1905,1105,1506,1257,0,0,0,0,0,0,0,0,2
40608714,40608714,12,46,0,0,30003,1098,1508,1504,1504,1105,1257,1906,1105,1905,1105,1505,1257,0,0,0,0,0,0,0,0,2
40808519,40808519,12,46,0,0,30004,1097,1509,1504,1503,1105,1257,1905,1105,1906,1105,1505,1257,0,0,0,0,0,0,0,0,2
41019534,41019534,12,46,0,0,30003,1098,1508,1504,1504,1105,1257,1905,1105,1905,1105,1506,1257,0,0,0,0,0,0,0,0,2
41219916,41219916,12,46,0,0,30003,1098,1508,1504,1498,1105,1257,1905,1106,1905,1105,1505,1257,0,0,0,0,0,0,0,0,2
41431778,41431778,12,46,0,0,30004,1098,1508,1505,1498,1105,1257,1905,1105,1906,1105,1505,1257,0,0,0,0,0,0,0,0,2
41630742,41630742,12,46,0,0,30003,1098,1508,1504,1498,1106,1257,1905,1105,1905,1105,1506,1257,0,0,0,0,0,0,0,0,2
41826749,41826749,12,46,0,0,30003,1098,1508,1504,1501,1105,1257,1906,1105,1905,1105,1505,1257,0,0,0,0,0,0,0,0,2
42034772,42034772,12,46,0,0,30004,1097,1509,1504,1501,1105,1257,1905,1105,1906,1105,1505,1257,0,0,0,0,0,0,0,0,2
42238131,42238131,12,46,0,0,30003,1098,1508,1504,1500,1105,1258,1905,1105,1905,1105,1505,1258,0,0,0,0,0,0,0,0,2
42434222,42434222,12,46,0,0,30003,1098,1508,1504,1501,1105,1257,1906,1105,1905,1105,1505,1257,0,0,0,0,0,0,0,0,2
42650210,42650210,12,46,0,0,30004,1098,1508,1505,1501,1105,1257,1905,1105,1906,1105,1505,1257,0,0,0,0,0,0,0,0,2
42853340,42853340,12,46,0,0,30003,1098,1508,1504,1503,1105,1257,1905,1105,1905,1105,1506,1257,0,0,0,0,0,0,0,0,2
43053560,43053560,12,46,0,0,30003,1098,1508,1504,1502,1105,1258,1905,1105,1905,1105,1505,1257,0,0,0,0,0,0,0,0,2
43256568,43256568,12,46,0,0,30004,1098,1508,1506,1502,1105,1257,1905,1105,1906,1105,1505,1257,0,0,0,0,0,0,0,0,2
43460527,43460527,12,46,0,0,30003,1098,1508,1504,1502,1106,1257,1905,1105,1905,1105,1506,1257,0,0,0,0,0,0,0,0,2
43660601,43660601,12,46,0,0,30003,1098,1508,1504,1502,1105,1257,1906,1105,1905,1105,1505,1257,0,0,0,0,0,0,0,0,2
43863564,43863564,12,46,0,0,30004,1098,1508,1505,1502,1105,1257,1905,1105,1906,1105,1505,1257,0,0,0,0,0,0,0,0,2
44063559,44063559,12,46,0,0,30003,1098,1508,1504,1502,1106,1257,1905,1105,1905,1105,1506,1257,0,0,0,0,0,0,0,0,2
44254816,44254816,12,46,0,0,30003,1098,1508,1504,1503,1105,1257,1906,1105,1905,1105,1505,1257,0,0,0,0,0,0,0,0,2
44462772,44462772,12,46,0,0,30004,1098,1508,1505,1502,1105,1257,1905,1105,1906,1105,1505,1257,0,0,0,0,0,0,0,0,2
44658758,44658758,12,46,0,0,30003,1098,1508,1504,1503,1105,1257,1905,1105,1905,1105,1506,1257,0,0,0,0,0,0,0,0,2
44873973,44873973,12,46,0,0,30003,1098,1508,1504,1502,1105,1258,1905,1105,1905,1105,1505,1257,0,0,0,0,0,0,0,0,2
45078144,45078144,12,46,0,0,30003,1098,1508,1504,1502,1105,1257,1905,1106,1905,1105,1505,1257,0,0,0,0,0,0,0,0,2
45277948,45277948,12,46,0,0,30004,1098,1508,1505,1502,1105,1257,1905,1105,1906,1105,1505,1257,0,0,0,0,0,0,0,0,2
45477357,45477357,12,46,0,0,30003,1098,1509,1504,1501,1105,1257,1906,1105,1905,1105,1505,1257,0,0,0,0,0,0,0,0,2
45673180,45673180,12,46,0,0,30003,1098,1509,1504,1501,1105,1257,1905,1105,1906,1105,1505,1257,0,0,0,0,0,0,0,0,2
45896336,45896336,12,46,0,0,30003,1098,1508,1504,1504,1105,1257,1905,1105,1905,1105,1506,1257,0,0,0,0,0,0,0,0,2
46096570,46096570,12,46,0,0,30003,1098,1508,1504,1502,1105,1257,1906,1105,1905,1105,1505,1257,0,0,0,0,0,0,0,0,2
46292385,46292385,12,46,0,0,30004,1098,1509,1504,1503,1105,1257,1905,1105,1905,1106,1505,1257,0,0,0,0,0,0,0,0,2
46499561,46499561,12,46,0,0,30003,1098,1508,1504,1502,1105,1258,1905,1105,1905,1105,1505,1258,0,0,0,0,0,0,0,0,2
46695609,46695609,12,46,0,0,30004,1098,1508,1504,1502,1105,1257,1905,1106,1905,1105,1505,1257,0,0,0,0,0,0,0,0,2
46899937,46899937,12,46,0,0,30004,1098,1508,1505,1502,1105,1257,1905,1105,1905,1106,1505,1257,0,0,0,0,0,0,0,0,2
47098788,47098788,12,46,0,0,30003,1098,1508,1504,1502,1105,1257,1906,1105,1905,1105,1505,1257,0,0,0,0,0,0,0,0,2
47302757,47302757,12,46,0,0,30004,1098,1508,1505,1502,1105,1257,1905,1105,1906,1105,1505,1257,0,0,0,0,0,0,0,0,2
47507145,47507145,12,46,0,0,30003,1098,1508,1504,1504,1105,1257,1905,1105,1905,1105,1506,1257,0,0,0,0,0,0,0,0,2
47713968,47713968,12,46,0,0,30003,1098,1508,1504,1503,1105,1257,1906,1105,1905,1105,1505,1257,0,0,0,0,0,0,0,0,2
47909968,47909968,12,46,0,0,30003,1098,1508,1505,1503,1105,1257,1905,1105,1905,1106,1505,1257,0,0,0,0,0,0,0,0,2
48108549,48108549,12,46,0,0,30003,1098,1508,1504,1503,1106,1257,1905,1105,1905,1105,1505,1258,0,0,0,0,0,0,0,0,2
48309296,48309296,12,46,0,0,30004,1098,1508,1504,1502,1105,1257,1906,1105,1905,1105,1505,1257,0,0,0,0,0,0,0,0,2
48517354,48517354,12,46,0,0,30004,1098,1508,1505,1500,1105,1257,1905,1105,1906,1105,1505,1257,0,0,0,0,0,0,0,0,2
48724338,48724338,12,46,0,0,30003,1098,1508,1504,1503,1105,1257,1905,1105,1905,1105,1506,1257,0,0,0,0,0,0,0,0,2
48928575,48928575,12,46,0,0,30004,1098,1508,1504,1501,1105,1257,1905,1106,1905,1105,1505,1257,0,0,0,0,0,0,0,0,2
49128335,49128335,12,46,0,0,30003,1098,1508,1505,1501,1105,1257,1905,1105,1906,1105,1505,1257,0,0,0,0,0,0,0,0,2
50554152,50554152,12,46,0,0,30004,1098,1508,1504,1503,1105,1257,1905,1105,1905,1106,1505,1257,0,0,0,0,0,0,0,0,2
50758130,50758130,12,46,0,0,30003,1098,1508,1504,1502,1105,1257,1906,1105,1905,1105,1505,1257,0,0,0,0,0,0,0,0,2
50961180,50961180,12,46,0,0,30003,1097,1509,1504,1503,1105,1257,1905,1105,1906,1105,1505,1257,0,0,0,0,0,0,0,0,2
51153171,51153171,12,46,0,0,30003,1098,1508,1504,1503,1105,1258,1905,1105,1905,1105,1505,1258,0,0,0,0,0,0,0,0,2
51356333,51356333,12,46,0,0,30003,1098,1508,1504,1503,1105,1257,1906,1105,1905,1105,1505,1257,0,0,0,0,0,0,0,0,2
51556380,51556380,12,46,0,0,30003,1097,1509,1504,1503,1105,1257,1905,1105,1906,1105,1505,1257,0,0,0,0,0,0,0,0,2
51768624,51768624,12,46,0,0,30003,1098,1508,1504,1504,1105,1257,1905,1105,1905,1106,1505,1257,0,0,0,0,0,0,0,0,2
51975750,51975750,12,46,0,0,30003,1098,1508,1504,1503,1105,1258,1905,1105,1905,1105,1505,1257,0,0,0,0,0,0,0,0,2
52171753,52171753,12,46,0,0,30003,1098,1508,1505,1503,1105,1257,1905,1105,1905,1106,1505,1257,0,0,0,0,0,0,0,0,2
52367574,52367574,12,46,0,0,30003,1098,1508,1504,1503,1106,1257,1905,1105,1905,1105,1505,1258,0,0,0,0,0,0,0,0,2
52566946,52566946,12,46,0,0,30003,1098,1508,1504,1503,1105,1257,1906,1105,1905,1105,1505,1257,0,0,0,0,0,0,0,0,2
52778749,52778749,12,46,0,0,30004,1098,1508,1505,1503,1105,1257,1905,1105,1906,1105,1505,1257,0,0,0,0,0,0,0,0,2
52990797,52990797,12,46,0,0,30003,1098,1508,1504,1503,1106,1257,1905,1105,1905,1105,1506,1257,0,0,0,0,0,0,0,0,2
53186313,53186313,12,46,0,0,30003,1097,1510,1504,1503,1105,1257,1905,1105,1906,1105,1505,1257,0,0,0,0,0,0,0,0,2
53381985,53381985,12,46,0,0,30003,1098,1508,1504,1503,1105,1257,1905,1105,1905,1105,1506,1257,0,0,0,0,0,0,0,0,2
53597143,53597143,12,46,0,0,30003,1098,1508,1504,1503,1105,1258,1905,1105,1905,1105,1505,1257,0,0,0,0,0,0,0,0,2
53777142,53777142,12,46,0,0,30004,1098,1508,1505,1503,1105,1257,1905,1105,1906,1105,1505,1257,0,0,0,0,0,0,0,0,2
53997202,53997202,12,46,0,0,30003,1098,1508,1504,1502,1106,1257,1905,1105,1905,1105,1505,1258,0,0,0,0,0,0,0,0,2
54204574,54204574,12,46,0,0,30003,1098,1508,1504,1503,1105,1257,1906,1105,1905,1105,1505,1257,0,0,0,0,0,0,0,0,2
54408340,54408340,12,46,0,0,30003,1098,1509,1504,1502,1105,1257,1905,1105,1906,1105,1505,1257,0,0,0,0,0,0,0,0,2
54608427,54608427,12,46,0,0,30003,1098,1508,1504,1504,1105,1257,1905,1105,1905,1105,1506,1257,0,0,0,0,0,0,0,0,2
54807538,54807538,12,46,0,0,30003,1098,1508,1504,1503,1105,1257,1905,1106,1905,1105,1505,1257,0,0,0,0,0,0,0,0,2
55007557,55007557,12,46,0,0,30004,1098,1508,1505,1503,1105,1257,1905,1105,1906,1105,1505,1257,0,0,0,0,0,0,0,0,2
55214957,55214957,12,46,0,0,30003,1098,1508,1504,1494,1106,1257,1905,1105,1905,1105,1506,1257,0,0,0,0,0,0,0,0,2
55410755,55410755,12,46,0,0,30004,1097,1509,1504,1501,1105,1257,1905,1106,1905,1105,1505,1257,0,0,0,0,0,0,0,0,2
55614768,55614768,12,46,0,0,30004,1098,1508,1505,1494,1105,1257,1905,1105,1905,1106,1505,1257,0,0,0,0,0,0,0,0,2
55814008,55814008,12,46,0,0,30003,1098,1508,1504,1502,1106,1257,1905,1105,1905,1105,1505,1258,0,0,0,0,0,0,0,0,2
56025933,56025933,12,46,0,0,30003,1098,1508,1504,1502,1105,1257,1906,1105,1905,1105,1505,1257,0,0,0,0,0,0,0,0,2
56221133,56221133,12,46,0,0,30003,1098,1508,1504,1503,1905,1257,1905,1105,1906,1105,1505,1257,0,0,0,0,0,0,0,0,2
56421132,56421132,12,46,0,0,30003,1098,1508,1504,1502,1906,1257,1905,1105,1905,1105,1506,1257,0,0,0,0,0,0,0,0,2
56617158,56617158,12,46,0,0,30003,1098,1508,1504,1502,1905,1257,1906,1105,1905,1105,1505,1257,0,0,0,0,0,0,0,0,2
56836379,56836379,12,46,0,0,30004,1097,1509,1504,1502,1905,1257,1905,1106,1905,1105,1505,1257,0,0,0,0,0,0,0,0,2
57028373,57028373,12,46,0,0,30003,1098,1508,1504,1502,1906,1257,1905,1105,1905,1105,1506,1257,0,0,0,0,0,0,0,0,2
57232590,57232590,12,46,0,0,30003,1098,1508,1504,1502,1505,1257,1906,1105,1905,1105,1505,1257,0,0,0,0,0,0,0,0,2
57428362,57428362,12,46,0,0,30003,1097,1509,1504,1503,1505,1257,1905,1106,1905,1105,1505,1257,0,0,0,0,0,0,0,0,2
57643757,57643757,12,46,0,0,30003,1098,1508,1504,1503,1505,1257,1905,1105,1905,1106,1505,1257,0,0,0,0,0,0,0,0,2
57847534,57847534,12,46,0,0,30003,1098,1508,1504,1503,1505,1258,1905,1105,1905,1105,1505,1257,0,0,0,0,0,0,0,0,2
58046989,58046989,12,46,0,0,30003,1098,1508,1504,1504,1505,1257,1905,1105,1905,1106,1505,1257,0,0,0,0,0,0,0,0,2
58242793,58242793,12,46,0,0,30003,1098,1508,1504,1503,1505,1258,1905,1105,1905,1105,1505,1258,0,0,0,0,0,0,0,0,2
58441940,58441940,12,46,0,0,30004,1098,1508,1505,1503,1505,1257,1905,1105,1906,1105,1505,1257,0,0,0,0,0,0,0,0,2
58646233,58646233,12,46,0,0,30003,1098,1508,1505,1503,1506,1257,1905,1105,1905,1105,1506,1257,0,0,0,0,0,0,0,0,2
58857951,58857951,12,46,0,0,30004,1098,1508,1504,1503,1505,1257,1906,1105,1905,1105,1505,1257,0,0,0,0,0,0,0,0,2
59057360,59057360,12,46,0,0,30003,1098,1508,1505,1503,1505,1257,1905,1105,1906,1105,1505,1257,0,0,0,0,0,0,0,0,2
59257208,59257208,12,46,0,0,30003,1098,1508,1504,1502,1506,1257,1905,1105,1905,1105,1506,1257,0,0,0,0,0,0,0,0,2
59473380,59473380,12,46,0,0,30003,1098,1508,1504,1502,1505,1257,1906,1105,1905,1105,1505,1257,0,0,0,0,0,0,0,0,2
59656458,59656458,12,46,0,0,30003,1187,1508,1504,1504,1505,1257,1905,1105,1905,1105,1506,1257,0,0,0,0,0,0,0,0,2
59876547,59876547,12,46,0,0,30003,1366,1508,1504,1503,1505,1258,1905,1105,1905,1105,1505,1257,0,0,0,0,0,0,0,0,2
60071750,60071750,12,46,0,0,30003,1471,1509,1504,1503,1505,1257,1905,1106,1905,1105,1505,1257,0,0,0,0,0,0,0,0,2
60283912,60283912,12,46,0,0,30003,1497,1508,1504,1505,1505,1257,1905,1105,1905,1106,1505,1257,0,0,0,0,0,0,0,0,2
60483607,60483607,12,46,0,0,30003,1497,1507,1504,1504,1505,1257,1906,1105,1905,1105,1505,1257,0,0,0,0,0,0,0,0,2
60670929,60670929,12,46,0,0,30004,1497,1508,1505,1505,1505,1257,1905,1105,1906,1105,1505,1257,0,0,0,0,0,0,0,0,2
60890731,60890731,12,46,0,0,30003,1524,1508,1504,1506,1505,1257,1905,1105,1905,1105,1506,1257,0,0,0,0,0,0,0,0,2
61082834,61082834,12,46,0,0,30004,1551,1509,1504,1505,1505,1257,1905,1106,1905,1105,1505,1257,0,0,0,0,0,0,0,0,2
61293979,61293979,12,46,0,0,30004,1566,1508,1505,1505,1505,1257,1905,1105,1906,1105,1505,1257,0,0,0,0,0,0,0,0,2
61482190,61482190,12,46,0,0,30003,1589,1508,1504,1505,1506,1257,1905,1105,1905,1105,1506,1257,0,0,0,0,0,0,0,0,2
61701390,61701390,12,46,0,0,30003,1605,1508,1504,1505,1505,1257,1906,1105,1905,1105,1505,1257,0,0,0,0,0,0,0,0,2
61881166,61881166,12,46,0,0,30003,1622,1508,1504,1506,1505,1257,1905,1105,1905,1106,1505,1257,0,0,0,0,0,0,0,0,2
62105185,62105185,12,46,0,0,30003,1628,1508,1505,1505,1505,1258,1905,1105,1905,1105,1505,1258,0,0,0,0,0,0,0,0,2
62309972,62309972,12,46,0,0,30003,1608,1508,1504,1505,1505,1257,1906,1105,1905,1105,1505,1257,0,0,0,0,0,0,0,0,2
62512546,62512546,12,46,0,0,30004,1558,1508,1505,1503,1505,1257,1905,1105,1906,1105,1505,1257,0,0,0,0,0,0,0,0,2
62712350,62712350,12,46,0,0,30003,1500,1508,1504,1507,1505,1257,1905,1105,1905,1105,1506,1257,0,0,0,0,0,0,0,0,2
62915572,62915572,12,46,0,0,30003,1494,1508,1504,1503,1505,1257,1905,1106,1905,1105,1505,1257,0,0,0,0,0,0,0,0,2
63107608,63107608,12,46,0,0,30004,1399,1508,1505,1504,1505,1257,1905,1105,1906,1105,1505,1257,0,0,0,0,0,0,0,0,2
63310925,63310925,12,46,0,0,30003,1354,1508,1504,1504,1506,1257,1905,1105,1905,1105,1506,1257,0,0,0,0,0,0,0,0,2
63515171,63515171,12,46,0,0,30003,1340,1508,1504,1503,1505,1258,1905,1105,1905,1105,1505,1257,0,0,0,0,0,0,0,0,2
63710947,63710947,12,46,0,0,30003,1361,1508,1505,1504,1505,1257,1905,1105,1906,1105,1505,1257,0,0,0,0,0,0,0,0,2
63929967,63929967,12,46,0,0,30003,1354,1508,1504,1504,1506,1257,1905,1105,1905,1105,1506,1257,0,0,0,0,0,0,0,0,2
64126313,64126313,12,46,0,0,30003,1335,1508,1504,1504,1505,1258,1905,1105,1905,1105,1505,1257,0,0,0,0,0,0,0,0,2
64321984,64321984,12,46,0,0,30003,1333,1508,1504,1505,1505,1257,1905,1105,1905,1106,1505,1257,0,0,0,0,0,0,0,0,2
64537187,64537187,12,46,0,0,30003,1328,1509,1504,1504,1505,1257,1905,1105,1905,1105,1506,1257,0,0,0,0,0,0,0,0,2
64737516,64737516,12,46,0,0,30003,1328,1509,1504,1504,1505,1257,1905,1106,1905,1105,1505,1257,0,0,0,0,0,0,0,0,2
64948528,64948528,12,46,0,0,30003,1327,1508,1504,1505,1505,1257,1905,1105,1905,1106,1505,1257,0,0,0,0,0,0,0,0,2
65152549,65152549,12,46,0,0,30003,1330,1508,1504,1504,1505,1258,1905,1105,1905,1105,1505,1257,0,0,0,0,0,0,0,0,2
65348727,65348727,12,46,0,0,30004,1329,1509,1504,1504,1505,1257,1905,1106,1905,1105,1505,1257,0,0,0,0,0,0,0,0,2
65555758,65555758,12,46,0,0,30003,1330,1508,1504,1505,1505,1257,1905,1105,1905,1106,1505,1257,0,0,0,0,0,0,0,0,2
65755539,65755539,12,46,0,0,30003,1312,1508,1504,1504,1505,1257,1906,1105,1905,1105,1505,1257,0,0,0,0,0,0,0,0,2
65943747,65943747,12,46,0,0,30003,1308,1508,1504,1504,1506,1257,1905,1105,1905,1105,1506,1257,0,0,0,0,0,0,0,0,2
66158773,66158773,12,46,0,0,30003,1281,1508,1504,1504,1506,1257,1905,1105,1905,1105,1505,1258,0,0,0,0,0,0,0,0,2
66358754,66358754,12,46,0,0,30004,1234,1508,1505,1504,1505,1257,1905,1105,1906,1105,1505,1257,0,0,0,0,0,0,0,0,2
66562761,66562761,12,46,0,0,30003,1159,1508,1504,1504,1506,1257,1905,1105,1905,1105,1506,1257,0,0,0,0,0,0,0,0,2
66757964,66757964,12,46,0,0,30003,1150,1508,1504,1503,1505,1257,1906,1105,1905,1105,1505,1257,0,0,0,0,0,0,0,0,2
66961965,66961965,12,46,0,0,30003,1235,1508,1504,1504,1505,1257,1905,1105,1905,1106,1505,1257,0,0,0,0,0,0,0,0,2
67161168,67161168,12,46,0,0,30003,1296,1508,1504,1504,1505,1258,1905,1105,1905,1105,1505,1258,0,0,0,0,0,0,0,0,2
67361534,67361534,12,46,0,0,30004,1404,1508,1504,1503,1505,1257,1906,1105,1905,1105,1505,1257,0,0,0,0,0,0,0,0,2
67565129,67565129,12,46,0,0,30003,1412,1508,1504,1504,1505,1257,1905,1105,1905,1105,1506,1257,0,0,0,0,0,0,0,0,2
67772390,67772390,12,46,0,0,30003,1459,1508,1504,1504,1505,1258,1905,1105,1905,1105,1505,1257,0,0,0,0,0,0,0,0,2
67968514,67968514,12,46,0,0,30003,1496,1509,1504,1505,1505,1257,1905,1106,1905,1105,1505,1257,0,0,0,0,0,0,0,0,2
68172349,68172349,12,46,0,0,30003,1498,1508,1504,1507,1505,1257,1905,1105,1905,1106,1505,1257,0,0,0,0,0,0,0,0,2
68391571,68391571,12,46,0,0,30003,1498,1508,1504,1505,1506,1257,1905,1105,1905,1105,1505,1258,0,0,0,0,0,0,0,0,2
68587538,68587538,12,46,0,0,30003,1497,1508,1504,1505,1505,1257,1906,1105,1905,1105,1505,1257,0,0,0,0,0,0,0,0,2
68786975,68786975,12,46,0,0,30003,1498,1508,1504,1506,1505,1257,1905,1105,1905,1106,1505,1257,0,0,0,0,0,0,0,0,2
68982776,68982776,12,46,0,0,30003,1498,1508,1504,1505,1505,1258,1905,1105,1905,1105,1505,1258,0,0,0,0,0,0,0,0,2
69210178,69210178,12,46,0,0,30003,1498,1508,1504,1505,1505,1257,1906,1105,1905,1105,1505,1257,0,0,0,0,0,0,0,0,2
69394156,69394156,12,46,0,0,30003,1498,1508,1504,1506,1505,1257,1905,1105,1905,1105,1506,1257,0,0,0,0,0,0,0,0,2
69605941,69605941,12,46,0,0,30003,1498,1508,1504,1506,1505,1257,1905,1105,1905,1105,1506,1257,0,0,0,0,0,0,0,0,2
69802359,69802359,12,46,0,0,30003,1498,1508,1504,1505,1505,1257,1906,1105,1905,1105,1505,1257,0,0,0,0,0,0,0,0,2
70001132,70001132,12,46,0,0,30004,1498,1508,1506,1505,1505,1257,1905,1105,1906,1105,1505,1257,0,0,0,0,0,0,0,0,2
70221259,70221259,12,46,0,0,30003,1498,1508,1504,1505,1506,1257,1905,1105,1905,1105,1506,1257,0,0,0,0,0,0,0,0,2
70416455,70416455,12,46,0,0,30003,1498,1508,1504,1505,1505,1258,1905,1105,1905,1105,1505,1258,0,0,0,0,0,0,0,0,2
70620555,70620555,12,46,0,0,30003,1498,1508,1505,1505,1505,1257,1905,1105,1906,1105,1505,1257,0,0,0,0,0,0,0,0,2
70816332,70816332,12,46,0,0,30003,1498,1508,1504,1505,1506,1257,1905,1105,1905,1105,1505,1258,0,0,0,0,0,0,0,0,2
71035563,71035563,12,46,0,0,30003,1498,1508,1504,1505,1505,1257,1905,1106,1905,1105,1505,1257,0,0,0,0,0,0,0,0,2
71231742,71231742,12,46,0,0,30003,1498,1508,1504,1506,1505,1257,1905,1105,1905,1106,1505,1257,0,0,0,0,0,0,0,0,2
71426041,71426041,12,46,0,0,30004,1498,1508,1504,1505,1505,1257,1906,1105,1905,1105,1505,1257,0,0,0,0,0,0,0,0,2
71638732,71638732,12,46,0,0,30003,1498,1508,1505,1505,1505,1257,1905,1105,1906,1105,1505,1257,0,0,0,0,0,0,0,0,2
71826754,71826754,12,46,0,0,30003,1498,1508,1504,1505,1506,1257,1905,1105,1905,1105,1505,1258,0,0,0,0,0,0,0,0,2
72045937,72045937,12,46,0,0,30003,1498,1508,1504,1505,1505,1257,1906,1105,1905,1105,1505,1257,0,0,0,0,0,0,0,0,2
72249965,72249965,12,46,0,0,30004,1499,1508,1505,1505,1505,1257,1905,1105,1906,1105,1505,1257,0,0,0,0,0,0,0,0,2
72438145,72438145,12,46,0,0,30003,1515,1508,1504,1481,1505,1257,1906,1105,1905,1105,1505,1257,0,0,0,0,0,0,0,0,2
72641144,72641144,12,46,0,0,30004,1564,1509,1504,1503,1505,1257,1905,1105,1906,1105,1505,1257,0,0,0,0,0,0,0,0,2
72857170,72857170,12,46,0,0,30003,1574,1508,1504,1505,1505,1257,1905,1105,1905,1105,1506,1257,0,0,0,0,0,0,0,0,2
73060631,73060631,12,46,0,0,30003,1607,1508,1504,1505,1505,1258,1905,1105,1905,1105,1505,1257,0,0,0,0,0,0,0,0,2
73260548,73260548,12,46,0,0,30003,1619,1508,1504,1506,1505,1257,1905,1105,1905,1106,1505,1257,0,0,0,0,0,0,0,0,2
73464718,73464718,12,46,0,0,30003,1632,1508,1504,1505,1506,1257,1905,1105,1905,1105,1505,1258,0,0,0,0,0,0,0,0,2
73667740,73667740,12,46,0,0,30004,1653,1508,1504,1506,1505,1257,1906,1105,1905,1105,1505,1257,0,0,0,0,0,0,0,0,2
73863537,73863537,12,46,0,0,30003,1635,1508,1504,1506,1505,1257,1905,1105,1905,1105,1506,1257,0,0,0,0,0,0,0,0,2
74067742,74067742,12,46,0,0,30003,1635,1508,1504,1505,1505,1258,1905,1105,1905,1105,1505,1257,0,0,0,0,0,0,0,0,2
74266729,74266729,12,46,0,0,30003,1632,1509,1504,1505,1505,1257,1905,1106,1905,1105,1505,1257,0,0,0,0,0,0,0,0,2
74474776,74474776,12,46,0,0,30003,1617,1508,1504,1506,1505,1257,1905,1105,1905,1106,1505,1257,0,0,0,0,0,0,0,0,2
74677947,74677947,12,46,0,0,30003,1604,1508,1504,1505,1505,1258,1905,1105,1905,1105,1505,1258,0,0,0,0,0,0,0,0,2
74878174,74878174,12,46,0,0,30004,1606,1508,1505,1505,1505,1257,1905,1105,1906,1105,1505,1257,0,0,0,0,0,0,0,0,2
75069948,75069948,12,46,0,0,30003,1614,1508,1504,1506,1505,1257,1905,1105,1905,1105,1506,1257,0,0,0,0,0,0,0,0,2
75289205,75289205,12,46,0,0,30003,1578,1508,1504,1505,1505,1258,1905,1105,1905,1105,1505,1257,0,0,0,0,0,0,0,0,2
75481136,75481136,12,46,0,0,30004,1595,1508,1505,1505,1505,1257,1905,1105,1906,1105,1505,1257,0,0,0,0,0,0,0,0,2
75685210,75685210,12,46,0,0,30003,1601,1508,1504,1505,1506,1257,1905,1105,1905,1105,1506,1257,0,0,0,0,0,0,0,0,2
75892547,75892547,12,46,0,0,30003,1589,1508,1504,1505,1505,1257,1906,1105,1905,1105,1505,1257,0,0,0,0,0,0,0,0,2
76096409,76096409,12,46,0,0,30003,1584,1509,1504,1505,1505,1257,1905,1106,1905,1105,1505,1257,0,0,0,0,0,0,0,0,2
76292333,76292333,12,46,0,0,30003,1584,1508,1504,1505,1506,1257,1905,1105,1905,1105,1506,1257,0,0,0,0,0,0,0,0,2
76503712,76503712,12,46,0,0,30003,1584,1508,1504,1505,1505,1257,1906,1105,1905,1105,1505,1257,0,0,0,0,0,0,0,0,2
76703565,76703565,12,46,0,0,30004,1576,1509,1504,1505,1505,1257,1905,1106,1905,1105,1505,1257,0,0,0,0,0,0,0,0,2
76898738,76898738,12,46,0,0,30003,1562,1508,1504,1506,1505,1257,1905,1105,1905,1106,1505,1257,0,0,0,0,0,0,0,0,2
77090985,77090985,12,46,0,0,30003,1554,1508,1504,1505,1505,1257,1906,1105,1905,1105,1505,1257,0,0,0,0,0,0,0,0,2
77292554,77292554,12,46,0,0,30004,1535,1508,1505,1505,1505,1257,1905,1105,1905,1106,1505,1257,0,0,0,0,0,0,0,0,2
77505932,77505932,12,46,0,0,30003,1528,1508,1504,1505,1505,1258,1905,1105,1905,1105,1505,1258,0,0,0,0,0,0,0,0,2
77718044,77718044,12,46,0,0,30004,1603,1509,1504,1507,1505,1257,1905,1106,1905,1105,1505,1257,0,0,0,0,0,0,0,0,2
77911748,77911748,12,46,0,0,30003,1567,1508,1504,1506,1506,1257,1905,1105,1905,1105,1506,1257,0,0,0,0,0,0,0,0,2
78113349,78113349,12,46,0,0,30003,1500,1508,1504,1505,1505,1257,1906,1105,1905,1105,1505,1257,0,0,0,0,0,0,0,0,2
78309257,78309257,12,46,0,0,30004,1501,1508,1505,1505,1505,1257,1905,1105,1906,1105,1505,1257,0,0,0,0,0,0,0,0,2
78516561,78516561,12,46,0,0,30003,1513,1508,1504,1505,1505,1257,1906,1105,1905,1105,1505,1257,0,0,0,0,0,0,0,0,2
78720569,78720569,12,46,0,0,30004,1514,1508,1505,1505,1505,1257,1905,1105,1906,1105,1505,1257,0,0,0,0,0,0,0,0,2
78920591,78920591,12,46,0,0,30003,1514,1508,1504,1506,1506,1257,1905,1105,1905,1105,1506,1257,0,0,0,0,0,0,0,0,2
79127573,79127573,12,46,0,0,30003,1515,1508,1504,1505,1505,1257,1906,1105,1905,1105,1505,1257,0,0,0,0,0,0,0,0,2
79319914,79319914,12,46,0,0,30003,1516,1508,1504,1506,1505,1257,1905,1105,1905,1106,1505,1257,0,0,0,0,0,0,0,0,2
79538737,79538737,12,46,0,0,30003,1535,1508,1504,1506,1505,1257,1905,1105,1905,1105,1506,1257,0,0,0,0,0,0,0,0,2
79734953,79734953,12,46,0,0,30003,1532,1509,1504,1505,1505,1257,1905,1106,1905,1105,1505,1257,0,0,0,0,0,0,0,0,2
79938807,79938807,12,46,0,0,30004,1533,1480,1502,1506,1505,1257,1905,1105,1905,1106,1505,1257,0,0,0,0,0,0,0,0,2
80146315,80146315,12,46,0,0,30003,1533,1445,1502,1505,1506,1257,1905,1105,1905,1105,1505,1258,0,0,0,0,0,0,0,0,2
80342067,80342067,12,46,0,0,30004,1533,1458,1504,1505,1505,1257,1905,1105,1906,1105,1505,1257,0,0,0,0,0,0,0,0,2
80548534,80548534,12,46,0,0,30003,1533,1463,1503,1506,1505,1257,1905,1105,1905,1105,1506,1257,0,0,0,0,0,0,0,0,2
80741139,80741139,12,46,0,0,30003,1532,1508,1502,1505,1505,1258,1905,1105,1905,1105,1505,1257,0,0,0,0,0,0,0,0,2
80945326,80945326,12,46,0,0,30004,1531,1509,1504,1505,1505,1257,1905,1105,1906,1105,1505,1257,0,0,0,0,0,0,0,0,2
81160549,81160549,12,46,0,0,30003,1530,1535,1504,1506,1505,1257,1905,1105,1905,1106,1505,1257,0,0,0,0,0,0,0,0,2
81364398,81364398,12,46,0,0,30003,1529,1553,1504,1505,1505,1257,1906,1105,1905,1105,1505,1257,0,0,0,0,0,0,0,0,2
81560562,81560562,12,46,0,0,30004,1528,1538,1504,1504,1505,1257,1905,1105,1906,1105,1505,1257,0,0,0,0,0,0,0,0,2
81764720,81764720,12,46,0,0,30003,1528,1509,1503,1506,1505,1257,1905,1105,1905,1106,1505,1257,0,0,0,0,0,0,0,0,2
81967572,81967572,12,46,0,0,30003,1515,1491,1492,1505,1505,1258,1905,1105,1905,1105,1505,1258,0,0,0,0,0,0,0,0,2
82159933,82159933,12,46,0,0,30003,1510,1489,1485,1505,1505,1257,1905,1105,1906,1105,1505,1257,0,0,0,0,0,0,0,0,2
82358751,82358751,12,46,0,0,30003,1510,1498,1474,1506,1505,1257,1905,1105,1905,1105,1506,1257,0,0,0,0,0,0,0,0,2
82558791,82558791,12,46,0,0,30003,1512,1508,1454,1505,1505,1257,1906,1105,1905,1105,1505,1257,0,0,0,0,0,0,0,0,2
82774159,82774159,12,46,0,0,30004,1512,1508,1470,1505,1505,1257,1905,1105,1906,1105,1505,1257,0,0,0,0,0,0,0,0,2
82978150,82978150,12,46,0,0,30003,1512,1508,1481,1505,1506,1257,1905,1105,1905,1105,1506,1257,0,0,0,0,0,0,0,0,2
83177960,83177960,12,46,0,0,30003,1512,1509,1503,1505,1505,1258,1905,1105,1905,1105,1505,1257,0,0,0,0,0,0,0,0,2
83381541,83381541,12,46,0,0,30003,1512,1510,1493,1505,1505,1257,1905,1106,1905,1105,1505,1257,0,0,0,0,0,0,0,0,2
83573319,83573319,12,46,0,0,30003,1513,1509,1505,1505,1505,1258,1905,1105,1905,1105,1505,1258,0,0,0,0,0,0,0,0,2
83768348,83768348,12,46,0,0,30003,1511,1509,1540,1505,1505,1257,1905,1106,1905,1105,1505,1257,0,0,0,0,0,0,0,0,2
83976559,83976559,12,46,0,0,30003,1514,1508,1541,1505,1506,1257,1905,1105,1905,1105,1505,1258,0,0,0,0,0,0,0,0,2
84180547,84180547,12,46,0,0,30003,1512,1508,1505,1505,1505,1257,1905,1106,1905,1105,1505,1257,0,0,0,0,0,0,0,0,2
84375588,84375588,12,46,0,0,30003,1512,1508,1505,1506,1505,1257,1905,1105,1905,1106,1505,1257,0,0,0,0,0,0,0,0,2
84583536,84583536,12,46,0,0,30003,1512,1508,1505,1505,1505,1258,1905,1105,1905,1105,1505,1258,0,0,0,0,0,0,0,0,2
84783918,84783918,12,46,0,0,30004,1512,1508,1506,1505,1505,1257,1905,1105,1906,1105,1505,1257,0,0,0,0,0,0,0,0,2
84990928,84990928,12,46,0,0,30003,1512,1489,1491,1505,1506,1257,1905,1105,1905,1105,1506,1257,0,0,0,0,0,0,0,0,2
85187150,85187150,12,46,0,0,30004,1512,1478,1498,1505,1505,1257,1906,1105,1905,1105,1505,1257,0,0,0,0,0,0,0,0,2
85405961,85405961,12,46,0,0,30004,1512,1481,1503,1505,1505,1257,1905,1105,1906,1105,1505,1257,0,0,0,0,0,0,0,0,2
85605944,85605944,12,46,0,0,30003,1511,1483,1502,1505,1506,1257,1905,1105,1905,1105,1506,1257,0,0,0,0,0,0,0,0,2
85806015,85806015,12,46,0,0,30004,1512,1484,1502,1505,1505,1257,1905,1105,1906,1105,1505,1257,0,0,0,0,0,0,0,0,2
86009198,86009198,12,46,0,0,30003,1512,1485,1502,1506,1505,1257,1905,1105,1905,1105,1506,1257,0,0,0,0,0,0,0,0,2
86217369,86217369,12,46,0,0,30003,1512,1499,1502,1505,1505,1258,1905,1105,1905,1105,1505,1257,0,0,0,0,0,0,0,0,2
86405285,86405285,12,46,0,0,30003,1512,1507,1505,1505,1505,1257,1905,1105,1906,1105,1505,1257,0,0,0,0,0,0,0,0,2
86600487,86600487,12,46,0,0,30003,1512,1508,1496,1505,1506,1257,1905,1105,1905,1105,1505,1258,0,0,0,0,0,0,0,0,2
86824345,86824345,12,46,0,0,30003,1512,1508,1493,1505,1505,1257,1906,1105,1905,1105,1505,1257,0,0,0,0,0,0,0,0,2
87020549,87020549,12,46,0,0,30004,1512,1508,1491,1505,1505,1257,1905,1105,1906,1105,1505,1257,0,0,0,0,0,0,0,0,2
87219807,87219807,12,46,0,0,30003,1512,1508,1497,1505,1506,1257,1905,1105,1905,1105,1506,1257,0,0,0,0,0,0,0,0,2
87435600,87435600,12,46,0,0,30003,1512,1509,1491,1505,1505,1257,1906,1105,1905,1105,1505,1257,0,0,0,0,0,0,0,0,2
87634956,87634956,12,46,0,0,30003,1512,1508,1487,1506,1505,1257,1905,1105,1905,1106,1505,1257,0,0,0,0,0,0,0,0,2
87838841,87838841,12,46,0,0,30003,1512,1508,1486,1505,1506,1257,1905,1105,1905,1105,1505,1258,0,0,0,0,0,0,0,0,2
88042768,88042768,12,46,0,0,30003,1512,1508,1487,1505,1505,1257,1906,1105,1905,1105,1505,1257,0,0,0,0,0,0,0,0,2
88242174,88242174,12,46,0,0,30004,1512,1509,1483,1505,1505,1257,1905,1105,1906,1105,1505,1257,0,0,0,0,0,0,0,0,2
88433962,88433962,12,46,0,0,30003,1511,1508,1483,1505,1505,1258,1905,1105,1905,1105,1505,1258,0,0,0,0,0,0,0,0,2
88649965,88649965,12,46,0,0,30004,1512,1509,1488,1505,1505,1257,1906,1105,1905,1105,1505,1257,0,0,0,0,0,0,0,0,2
88845172,88845172,12,46,0,0,30004,1516,1509,1500,1505,1505,1257,1905,1105,1906,1105,1505,1257,0,0,0,0,0,0,0,0,2
89037378,89037378,12,46,0,0,30003,1517,1509,1502,1505,1505,1258,1905,1105,1905,1105,1505,1258,0,0,0,0,0,0,0,0,2
89244575,89244575,12,46,0,0,30003,1517,1509,1502,1505,1505,1257,1906,1105,1905,1105,1505,1257,0,0,0,0,0,0,0,0,2
89460566,89460566,12,46,0,0,30003,1517,1490,1503,1505,1505,1257,1905,1105,1906,1105,1505,1257,0,0,0,0,0,0,0,0,2
89655690,89655690,12,46,0,0,30003,1517,1480,1502,1505,1506,1257,1905,1105,1905,1105,1505,1258,0,0,0,0,0,0,0,0,2
89867536,89867536,12,46,0,0,30003,1516,1480,1502,1505,1505,1257,1906,1105,1905,1105,1505,1257,0,0,0,0,0,0,0,0,2
90067750,90067750,12,46,0,0,30003,1517,1473,1502,1505,1506,1257,1905,1105,1905,1105,1506,1257,0,0,0,0,0,0,0,0,2
90270765,90270765,12,46,0,0,30003,1517,1478,1502,1505,1505,1257,1906,1105,1905,1105,1505,1257,0,0,0,0,0,0,0,0,2
90466736,90466736,12,46,0,0,30003,1517,1504,1503,1505,1505,1257,1905,1105,1906,1105,1505,1257,0,0,0,0,0,0,0,0,2
90670766,90670766,12,46,0,0,30003,1516,1506,1502,1505,1506,1257,1905,1105,1905,1105,1506,1257,0,0,0,0,0,0,0,0,2
90869969,90869969,12,46,0,0,30003,1517,1507,1502,1505,1505,1257,1905,1105,1906,1105,1505,1257,0,0,0,0,0,0,0,0,2
91078151,91078151,12,46,0,0,30003,1517,1507,1503,1506,1505,1257,1905,1105,1905,1105,1506,1257,0,0,0,0,0,0,0,0,2
91269431,91269431,12,46,0,0,30003,1517,1499,1500,1505,1505,1257,1906,1105,1905,1105,1505,1257,0,0,0,0,0,0,0,0,2
91489351,91489351,12,46,0,0,30004,1518,1496,1501,1505,1505,1257,1905,1105,1906,1105,1505,1257,0,0,0,0,0,0,0,0,2
91685133,91685133,12,46,0,0,30003,1518,1496,1502,1505,1505,1258,1905,1105,1905,1105,1505,1258,0,0,0,0,0,0,0,0,2
91884349,91884349,12,46,0,0,30004,1517,1499,1501,1505,1505,1257,1905,1106,1905,1105,1505,1257,0,0,0,0,0,0,0,0,2
92084402,92084402,12,46,0,0,30003,1519,1498,1502,1506,1505,1257,1905,1105,1905,1106,1505,1257,0,0,0,0,0,0,0,0,2
92284326,92284326,12,46,0,0,30003,1523,1497,1502,1505,1505,1257,1906,1105,1905,1105,1505,1257,0,0,0,0,0,0,0,0,2
92495577,92495577,12,46,0,0,30004,1523,1497,1503,1505,1505,1257,1905,1105,1906,1105,1505,1257,0,0,0,0,0,0,0,0,2
92699573,92699573,12,46,0,0,30003,1523,1498,1502,1505,1506,1257,1905,1105,1905,1105,1506,1257,0,0,0,0,0,0,0,0,2
92894774,92894774,12,46,0,0,30003,1523,1499,1502,1505,1505,1257,1906,1105,1905,1105,1505,1257,0,0,0,0,0,0,0,0,2
93094821,93094821,12,46,0,0,30003,1523,1499,1502,1506,1505,1257,1905,1105,1905,1106,1505,1257,0,0,0,0,0,0,0,0,2
93310762,93310762,12,46,0,0,30003,1523,1500,1502,1506,1505,1257,1905,1105,1905,1106,1505,1257,0,0,0,0,0,0,0,0,2
93518153,93518153,12,46,0,0,30003,1523,1500,1502,1505,1505,1258,1905,1105,1905,1105,1505,1258,0,0,0,0,0,0,0,0,2
93714138,93714138,12,46,0,0,30004,1523,1500,1501,1506,1505,1257,1905,1105,1906,1105,1505,1257,0,0,0,0,0,0,0,0,2
93904444,93904444,12,46,0,0,30003,1523,1508,1488,1506,1505,1258,1905,1105,1905,1105,1505,1257,0,0,0,0,0,0,0,0,2
94125515,94125515,12,46,0,0,30003,1525,1508,1490,1506,1505,1258,1905,1105,1905,1105,1505,1257,0,0,0,0,0,0,0,0,2
94305514,94305514,12,46,0,0,30004,1525,1508,1491,1506,1505,1257,1905,1105,1906,1105,1505,1257,0,0,0,0,0,0,0,0,2
94532528,94532528,12,46,0,0,30003,1526,1508,1490,1506,1506,1257,1905,1105,1905,1105,1506,1257,0,0,0,0,0,0,0,0,2
94720554,94720554,12,46,0,0,30003,1527,1508,1492,1506,1505,1257,1906,1105,1905,1105,1505,1257,0,0,0,0,0,0,0,0,2
94916713,94916713,12,46,0,0,30003,1527,1508,1493,1506,1505,1257,1905,1105,1905,1106,1505,1257,0,0,0,0,0,0,0,0,2
95135569,95135569,12,46,0,0,30003,1534,1508,1493,1506,1506,1257,1905,1105,1905,1105,1505,1258,0,0,0,0,0,0,0,0,2
95331591,95331591,12,46,0,0,30003,1534,1508,1495,1506,1505,1257,1906,1105,1905,1105,1505,1257,0,0,0,0,0,0,0,0,2
95527952,95527952,12,46,0,0,30003,1534,1508,1496,1507,1505,1257,1905,1105,1905,1106,1505,1257,0,0,0,0,0,0,0,0,2
95743173,95743173,12,46,0,0,30003,1534,1508,1495,1506,1506,1257,1905,1105,1905,1105,1506,1257,0,0,0,0,0,0,0,0,2
95942772,95942772,12,46,0,0,30004,1534,1509,1492,1506,1505,1257,1905,1105,1906,1105,1505,1257,0,0,0,0,0,0,0,0,2
96146144,96146144,12,46,0,0,30003,1534,1508,1489,1505,1506,1257,1905,1105,1905,1105,1506,1257,0,0,0,0,0,0,0,0,2
96345964,96345964,12,46,0,0,30003,1534,1508,1488,1505,1505,1257,1906,1105,1905,1105,1505,1257,0,0,0,0,0,0,0,0,2
96546016,96546016,12,46,0,0,30003,1534,1508,1476,1506,1505,1257,1905,1105,1905,1105,1506,1257,0,0,0,0,0,0,0,0,2
96761213,96761213,12,46,0,0,30003,1534,1508,1474,1506,1506,1257,1905,1105,1905,1105,1506,1257,0,0,0,0,0,0,0,0,2
96953157,96953157,12,46,0,0,30003,1534,1509,1477,1506,1505,1257,1905,1105,1906,1105,1505,1257,0,0,0,0,0,0,0,0,2
97148338,97148338,12,46,0,0,30003,1534,1508,1502,1507,1505,1257,1905,1105,1905,1105,1506,1257,0,0,0,0,0,0,0,0,2
97352554,97352554,12,46,0,0,30004,1533,1510,1503,1506,1505,1257,1905,1106,1905,1105,1505,1257,0,0,0,0,0,0,0,0,2
97552353,97552353,12,46,0,0,30003,1534,1508,1503,1507,1505,1257,1905,1105,1905,1106,1505,1257,0,0,0,0,0,0,0,0,2
97755950,97755950,12,46,0,0,30003,1534,1508,1503,1506,1505,1258,1905,1105,1905,1105,1505,1258,0,0,0,0,0,0,0,0,2
97959748,97959748,12,46,0,0,30003,1533,1509,1503,1505,1505,1257,1905,1106,1905,1105,1505,1257,0,0,0,0,0,0,0,0,2
98163545,98163545,12,46,0,0,30003,1534,1508,1506,1506,1506,1257,1905,1105,1905,1105,1506,1257,0,0,0,0,0,0,0,0,2
98378756,98378756,12,46,0,0,30003,1534,1508,1515,1506,1505,1257,1906,1105,1905,1105,1505,1258,0,0,0,0,0,0,0,0,2
98578957,98578957,12,46,0,0,30004,1534,1508,1521,1504,1505,1257,1905,1105,1906,1105,1505,1257,0,0,0,0,0,0,0,0,2
98769979,98769979,12,46,0,0,30003,1534,1508,1525,1506,1506,1257,1905,1105,1905,1105,1506,1257,0,0,0,0,0,0,0,0,2
98985947,98985947,12,46,0,0,30003,1534,1508,1530,1506,1505,1257,1906,1105,1905,1105,1505,1257,0,0,0,0,0,0,0,0,2
99170189,99170189,12,46,0,0,30003,1534,1508,1535,1507,1505,1257,1905,1105,1905,1106,1505,1257,0,0,0,0,0,0,0,0,2
99393177,99393177,12,46,0,0,30003,1535,1508,1537,1506,1505,1258,1905,1105,1905,1105,1505,1258,0,0,0,0,0,0,0,0,2
99585158,99585158,12,46,0,0,30003,1537,1507,1506,1506,1505,1257,1906,1105,1905,1105,1505,1257,0,0,0,0,0,0,0,0,2
99781354,99781354,12,46,0,0,30003,1537,1508,1506,1506,1506,1257,1905,1105,1905,1105,1506,1257,0,0,0,0,0,0,0,0,2
100000552,100000552,12,46,0,0,30003,1537,1508,1506,1508,1506,1257,1905,1105,1905,1105,1506,1257,0,0,0,0,0,0,0,0,2
100196372,100196372,12,46,0,0,30003,1537,1509,1505,1505,1505,1257,1905,1106,1905,1105,1505,1257,0,0,0,0,0,0,0,0,2
100399741,100399741,12,46,0,0,30003,1537,1508,1506,1506,1505,1257,1905,1105,1905,1106,1505,1257,0,0,0,0,0,0,0,0,2
100603599,100603599,12,46,0,0,30003,1545,1508,1506,1505,1506,1257,1905,1105,1905,1105,1505,1258,0,0,0,0,0,0,0,0,2
100799794,100799794,12,46,0,0,30004,1540,1509,1506,1505,1505,1257,1905,1105,1906,1105,1505,1257,0,0,0,0,0,0,0,0,2
101006955,101006955,12,46,0,0,30003,1540,1508,1505,1507,1505,1257,1905,1105,1905,1106,1505,1257,0,0,0,0,0,0,0,0,2
101210938,101210938,12,46,0,0,30003,1540,1508,1505,1505,1505,1258,1905,1105,1905,1105,1505,1258,0,0,0,0,0,0,0,0,2
101406733,101406733,12,46,0,0,30004,1539,1508,1506,1505,1505,1257,1905,1105,1906,1105,1505,1257,0,0,0,0,0,0,0,0,2
101614055,101614055,12,46,0,0,30003,1541,1508,1505,1506,1505,1257,1905,1105,1905,1105,1506,1257,0,0,0,0,0,0,0,0,2
101818317,101818317,12,46,0,0,30003,1557,1508,1504,1506,1505,1258,1905,1105,1905,1105,1505,1257,0,0,0,0,0,0,0,0,2
102013213,102013213,12,46,0,0,30003,1556,1500,1462,1505,1505,1257,1905,1105,1906,1105,1505,1257,0,0,0,0,0,0,0,0,2
102229174,102229174,12,46,0,0,30003,1555,1498,1438,1505,1506,1257,1905,1105,1905,1105,1506,1257,0,0,0,0,0,0,0,0,2
102425138,102425138,12,46,0,0,30004,1555,1500,1441,1505,1505,1257,1905,1106,1905,1105,1505,1257,0,0,0,0,0,0,0,0,2
102628369,102628369,12,46,0,0,30003,1554,1499,1495,1507,1505,1257,1905,1105,1905,1105,1506,1257,0,0,0,0,0,0,0,0,2
102832393,102832393,12,46,0,0,30003,1554,1508,1516,1505,1505,1257,1906,1105,1905,1105,1505,1257,0,0,0,0,0,0,0,0,2
103032527,103032527,12,46,0,0,30004,1547,1509,1547,1505,1505,1257,1905,1105,1906,1105,1505,1257,0,0,0,0,0,0,0,0,2
103231571,103231571,12,46,0,0,30003,1548,1508,1535,1505,1505,1258,1905,1105,1905,1105,1505,1258,0,0,0,0,0,0,0,0,2
103447533,103447533,12,46,0,0,30004,1547,1509,1531,1506,1505,1257,1905,1106,1905,1105,1505,1257,0,0,0,0,0,0,0,0,2
103647148,103647148,12,46,0,0,30003,1548,1507,1515,1506,1505,1257,1905,1105,1905,1106,1505,1257,0,0,0,0,0,0,0,0,2
103834991,103834991,12,46,0,0,30003,1548,1505,1507,1505,1505,1257,1906,1105,1905,1105,1505,1257,0,0,0,0,0,0,0,0,2
104049977,104049977,12,46,0,0,30004,1547,1476,1507,1506,1505,1257,1905,1106,1905,1105,1505,1257,0,0,0,0,0,0,0,0,2
104246130,104246130,12,46,0,0,30003,1547,1476,1507,1506,1506,1257,1905,1105,1905,1105,1505,1258,0,0,0,0,0,0,0,0,2
104449944,104449944,12,46,0,0,30003,1546,1481,1506,1505,1505,1257,1906,1105,1905,1105,1505,1257,0,0,0,0,0,0,0,0,2
104657162,104657162,12,46,0,0,30004,1541,1488,1507,1506,1505,1257,1905,1105,1906,1105,1505,1257,0,0,0,0,0,0,0,0,2
104861174,104861174,12,46,0,0,30003,1541,1497,1506,1505,1506,1257,1905,1105,1905,1105,1505,1258,0,0,0,0,0,0,0,0,2
105061398,105061398,12,46,0,0,30004,1541,1509,1505,1505,1505,1257,1905,1105,1906,1105,1505,1257,0,0,0,0,0,0,0,0,2
105260588,105260588,12,46,0,0,30003,1542,1508,1505,1506,1505,1257,1905,1105,1905,1105,1506,1257,0,0,0,0,0,0,0,0,2
105456545,105456545,12,46,0,0,30003,1541,1509,1505,1505,1505,1257,1905,1106,1905,1105,1505,1257,0,0,0,0,0,0,0,0,2
105656555,105656555,12,46,0,0,30003,1542,1508,1506,1505,1505,1257,1905,1105,1906,1105,1505,1257,0,0,0,0,0,0,0,0,2
105879775,105879775,12,46,0,0,30003,1542,1508,1505,1506,1505,1257,1905,1105,1905,1106,1505,1257,0,0,0,0,0,0,0,0,2
106079533,106079533,12,46,0,0,30004,1542,1508,1505,1505,1505,1257,1906,1105,1905,1105,1505,1257,0,0,0,0,0,0,0,0,2
106278755,106278755,12,46,0,0,30004,1543,1508,1506,1505,1505,1257,1905,1105,1906,1105,1505,1257,0,0,0,0,0,0,0,0,2
106462767,106462767,12,46,0,0,30003,1547,1509,1505,1505,1505,1258,1905,1105,1905,1105,1505,1258,0,0,0,0,0,0,0,0,2
106667118,106667118,12,46,0,0,30004,1549,1514,1505,1505,1505,1257,1905,1106,1905,1105,1505,1257,0,0,0,0,0,0,0,0,2
106890128,106890128,12,46,0,0,30004,1549,1515,1506,1505,1505,1257,1905,1105,1906,1105,1505,1257,0,0,0,0,0,0,0,0,2
107086133,107086133,12,46,0,0,30003,1549,1512,1505,1505,1506,1257,1905,1105,1905,1105,1506,1257,0,0,0,0,0,0,0,0,2
107289158,107289158,12,46,0,0,30003,1548,1518,1505,1505,1505,1257,1905,1106,1905,1105,1505,1257,0,0,0,0,0,0,0,0,2
107481181,107481181,12,46,0,0,30003,1550,1510,1505,1506,1505,1257,1905,1105,1905,1106,1505,1257,0,0,0,0,0,0,0,0,2
107693326,107693326,12,46,0,0,30003,1550,1510,1505,1505,1506,1257,1905,1105,1905,1105,1505,1258,0,0,0,0,0,0,0,0,2
107888717,107888717,12,46,0,0,30003,1551,1511,1505,1505,1505,1257,1905,1106,1905,1105,1505,1257,0,0,0,0,0,0,0,0,2
108092560,108092560,12,46,0,0,30003,1551,1509,1505,1506,1505,1257,1905,1105,1905,1106,1505,1257,0,0,0,0,0,0,0,0,2
108296428,108296428,12,46,0,0,30003,1552,1509,1505,1505,1505,1258,1905,1105,1905,1105,1505,1257,0,0,0,0,0,0,0,0,2
108515548,108515548,12,46,0,0,30004,1552,1510,1505,1505,1505,1257,1905,1105,1906,1105,1505,1257,0,0,0,0,0,0,0,0,2
108715919,108715919,12,46,0,0,30003,1553,1508,1503,1504,1506,1257,1905,1105,1905,1105,1506,1257,0,0,0,0,0,0,0,0,2
108910949,108910949,12,46,0,0,30003,1552,1478,1504,1505,1505,1257,1906,1105,1905,1105,1505,1257,0,0,0,0,0,0,0,0,2
109118780,109118780,12,46,0,0,30003,1553,1476,1504,1506,1505,1257,1905,1105,1906,1105,1505,1257,0,0,0,0,0,0,0,0,2
109322757,109322757,12,46,0,0,30003,1553,1476,1503,1505,1505,1257,1906,1105,1905,1105,1505,1257,0,0,0,0,0,0,0,0,2
109526160,109526160,12,46,0,0,30003,1554,1502,1504,1505,1505,1257,1905,1105,1906,1105,1505,1257,0,0,0,0,0,0,0,0,2
109722357,109722357,12,46,0,0,30003,1554,1508,1505,1505,1506,1257,1905,1105,1905,1105,1506,1257,0,0,0,0,0,0,0,0,2
109925932,109925932,12,46,0,0,30004,1553,1509,1505,1505,1505,1257,1905,1106,1905,1105,1505,1257,0,0,0,0,0,0,0,0,2
110137333,110137333,12,46,0,0,30003,1554,1508,1505,1506,1505,1257,1905,1105,1905,1106,1505,1257,0,0,0,0,0,0,0,0,2
110325326,110325326,12,46,0,0,30003,1554,1508,1505,1505,1505,1258,1905,1105,1905,1105,1505,1257,0,0,0,0,0,0,0,0,2
110544385,110544385,12,46,0,0,30004,1555,1509,1505,1506,1505,1257,1905,1106,1905,1105,1505,1257,0,0,0,0,0,0,0,0,2
110732436,110732436,12,46,0,0,30003,1556,1508,1505,1505,1506,1257,1905,1105,1905,1105,1505,1258,0,0,0,0,0,0,0,0,2
110947762,110947762,12,46,0,0,30004,1557,1509,1505,1505,1505,1257,1906,1105,1905,1105,1505,1257,0,0,0,0,0,0,0,0,2
111151749,111151749,12,46,0,0,30003,1557,1509,1506,1505,1505,1257,1905,1105,1906,1105,1505,1257,0,0,0,0,0,0,0,0,2
111351618,111351618,12,46,0,0,30003,1557,1509,1505,1505,1506,1257,1905,1105,1905,1105,1506,1257,0,0,0,0,0,0,0,0,2
111546811,111546811,12,46,0,0,30003,1557,1510,1505,1505,1505,1257,1905,1105,1906,1105,1505,1257,0,0,0,0,0,0,0,0,2
111750985,111750985,12,46,0,0,30003,1557,1509,1505,1506,1505,1257,1905,1105,1905,1105,1506,1257,0,0,0,0,0,0,0,0,2
111951118,111951118,12,46,0,0,30003,1557,1509,1505,1505,1505,1258,1905,1105,1905,1105,1505,1257,0,0,0,0,0,0,0,0,2
112153975,112153975,12,46,0,0,30003,1556,1510,1505,1505,1505,1257,1905,1106,1905,1105,1505,1257,0,0,0,0,0,0,0,0,2
112370005,112370005,12,46,0,0,30003,1557,1509,1505,1506,1505,1257,1905,1105,1905,1106,1505,1257,0,0,0,0,0,0,0,0,2
112554165,112554165,12,46,0,0,30003,1558,1509,1505,1505,1505,1257,1906,1105,1905,1105,1505,1257,0,0,0,0,0,0,0,0,2
112761304,112761304,12,46,0,0,30004,1556,1509,1506,1505,1505,1257,1905,1105,1906,1105,1505,1257,0,0,0,0,0,0,0,0,2
112961344,112961344,12,46,0,0,30003,1556,1509,1505,1506,1505,1257,1905,1105,1905,1105,1506,1257,0,0,0,0,0,0,0,0,2
113184374,113184374,12,46,0,0,30003,1556,1509,1505,1505,1505,1258,1905,1105,1905,1105,1505,1258,0,0,0,0,0,0,0,0,2
113368549,113368549,12,46,0,0,30004,1555,1509,1506,1505,1505,1257,1905,1105,1906,1105,1505,1257,0,0,0,0,0,0,0,0,2
113571614,113571614,12,46,0,0,30003,1555,1509,1505,1505,1506,1257,1905,1105,1905,1105,1506,1257,0,0,0,0,0,0,0,0,2
113787633,113787633,12,46,0,0,30003,1555,1509,1505,1505,1505,1257,1906,1105,1905,1105,1505,1257,0,0,0,0,0,0,0,0,2
113987725,113987725,12,46,0,0,30004,1555,1510,1505,1505,1505,1257,1905,1106,1905,1105,1505,1257,0,0,0,0,0,0,0,0,2
114190802,114190802,12,46,0,0,30003,1554,1509,1506,1505,1505,1257,1905,1105,1906,1105,1505,1257,0,0,0,0,0,0,0,0,2
114390950,114390950,12,46,0,0,30004,1554,1509,1505,1505,1505,1257,1906,1105,1905,1105,1505,1257,0,0,0,0,0,0,0,0,2
114587047,114587047,12,46,0,0,30004,1554,1509,1506,1505,1505,1257,1905,1105,1906,1105,1505,1257,0,0,0,0,0,0,0,0,2
114790328,114790328,12,46,0,0,30003,1554,1508,1505,1505,1506,1257,1905,1105,1905,1105,1505,1258,0,0,0,0,0,0,0,0,2
115006316,115006316,12,46,0,0,30003,1553,1510,1505,1505,1505,1257,1905,1106,1905,1105,1505,1257,0,0,0,0,0,0,0,0,2
115194172,115194172,12,46,0,0,30003,1552,1509,1505,1506,1506,1257,1905,1105,1905,1105,1505,1258,0,0,0,0,0,0,0,0,2
115409377,115409377,12,46,0,0,30004,1551,1509,1505,1506,1505,1257,1906,1105,1905,1105,1505,1257,0,0,0,0,0,0,0,0,2
115609406,115609406,12,46,0,0,30003,1551,1509,1506,1506,1505,1257,1905,1105,1906,1105,1505,1257,0,0,0,0,0,0,0,0,2
115811754,115811754,12,46,0,0,30003,1551,1508,1505,1506,1505,1258,1905,1105,1905,1105,1505,1258,0,0,0,0,0,0,0,0,2
116008357,116008357,12,46,0,0,30004,1549,1509,1506,1506,1505,1257,1905,1105,1906,1105,1505,1257,0,0,0,0,0,0,0,0,2
116212511,116212511,12,46,0,0,30003,1549,1508,1505,1505,1506,1257,1905,1105,1905,1105,1506,1257,0,0,0,0,0,0,0,0,2
116415725,116415725,12,46,0,0,30003,1546,1509,1505,1506,1505,1257,1906,1105,1905,1105,1505,1257,0,0,0,0,0,0,0,0,2
116619604,116619604,12,46,0,0,30003,1546,1509,1505,1505,1506,1257,1905,1105,1905,1105,1506,1257,0,0,0,0,0,0,0,0,2
116815569,116815569,12,46,0,0,30003,1544,1509,1534,1506,1505,1257,1906,1105,1905,1105,1505,1257,0,0,0,0,0,0,0,0,2
117018737,117018737,12,46,0,0,30004,1544,1509,1522,1505,1505,1257,1905,1105,1906,1105,1505,1257,0,0,0,0,0,0,0,0,2
117214947,117214947,12,46,0,0,30003,1544,1509,1522,1505,1505,1258,1905,1105,1905,1105,1505,1258,0,0,0,0,0,0,0,0,2
117422005,117422005,12,46,0,0,30004,1543,1509,1522,1506,1505,1257,1905,1106,1905,1105,1505,1257,0,0,0,0,0,0,0,0,2
117633976,117633976,12,46,0,0,30003,1542,1508,1521,1506,1505,1257,1905,1105,1905,1106,1505,1257,0,0,0,0,0,0,0,0,2
117838200,117838200,12,46,0,0,30003,1542,1509,1505,1506,1505,1258,1905,1105,1905,1105,1505,1258,0,0,0,0,0,0,0,0,2
118037150,118037150,12,46,0,0,30003,1542,1508,1505,1505,1505,1257,1906,1105,1905,1105,1505,1257,0,0,0,0,0,0,0,0,2
118249402,118249402,12,46,0,0,30004,1542,1508,1506,1505,1505,1257,1905,1105,1906,1105,1505,1257,0,0,0,0,0,0,0,0,2
118444409,118444409,12,46,0,0,30003,1542,1473,1503,1505,1505,1257,1906,1105,1905,1105,1505,1257,0,0,0,0,0,0,0,0,2
118648535,118648535,12,46,0,0,30004,1542,1474,1503,1505,1505,1257,1905,1105,1906,1105,1505,1257,0,0,0,0,0,0,0,0,2
118852549,118852549,12,46,0,0,30003,1542,1475,1504,1506,1505,1257,1905,1105,1905,1106,1505,1257,0,0,0,0,0,0,0,0,2
119047759,119047759,12,46,0,0,30004,1542,1477,1504,1505,1505,1257,1906,1105,1905,1105,1505,1257,0,0,0,0,0,0,0,0,2
119243926,119243926,12,46,0,0,30004,1542,1487,1505,1506,1505,1257,1905,1105,1906,1105,1505,1257,0,0,0,0,0,0,0,0,2
119446776,119446776,12,46,0,0,30003,1542,1507,1504,1506,1506,1257,1905,1105,1905,1105,1506,1257,0,0,0,0,0,0,0,0,2
119654976,119654976,12,46,0,0,30003,1542,1507,1504,1506,1505,1258,1905,1105,1905,1105,1505,1257,0,0,0,0,0,0,0,0,2
119850938,119850938,12,46,0,0,30004,1542,1507,1505,1506,1505,1257,1905,1105,1906,1105,1505,1257,0,0,0,0,0,0,0,0,2
120070343,120070343,12,46,0,0,30003,1542,1507,1504,1506,1506,1257,1905,1105,1905,1105,1506,1257,0,0,0,0,0,0,0,0,2
120274180,120274180,12,46,0,0,30003,1542,1507,1504,1505,1505,1257,1906,1105,1905,1105,1505,1257,0,0,0,0,0,0,0,0,2
120474152,120474152,12,46,0,0,30004,1542,1508,1503,1506,1505,1257,1905,1106,1905,1105,1505,1257,0,0,0,0,0,0,0,0,2
120669151,120669151,12,46,0,0,30003,1543,1507,1503,1505,1505,1258,1905,1105,1905,1105,1505,1258,0,0,0,0,0,0,0,0,2
120869355,120869355,12,46,0,0,30003,1542,1509,1497,1505,1505,1257,1905,1106,1905,1105,1505,1257,0,0,0,0,0,0,0,0,2
121072356,121072356,12,46,0,0,30003,1543,1509,1481,1506,1505,1257,1905,1105,1905,1105,1506,1257,0,0,0,0,0,0,0,0,2
121272336,121272336,12,46,0,0,30003,1543,1508,1483,1505,1505,1257,1906,1105,1905,1105,1505,1257,0,0,0,0,0,0,0,0,2
121492402,121492402,12,46,0,0,30004,1543,1510,1486,1505,1505,1257,1905,1105,1906,1105,1505,1257,0,0,0,0,0,0,0,0,2
121695745,121695745,12,46,0,0,30003,1543,1508,1487,1505,1506,1257,1905,1105,1905,1105,1506,1257,0,0,0,0,0,0,0,0,2
121895597,121895597,12,46,0,0,30004,1543,1509,1488,1506,1505,1257,1905,1106,1905,1105,1505,1257,0,0,0,0,0,0,0,0,2
122083151,122083151,12,46,0,0,30003,1543,1508,1491,1506,1505,1257,1905,1105,1905,1105,1506,1257,0,0,0,0,0,0,0,0,2
122286960,122286960,12,46,0,0,30003,1542,1510,1492,1506,1505,1257,1905,1106,1905,1105,1505,1257,0,0,0,0,0,0,0,0,2
122502798,122502798,12,46,0,0,30004,1543,1509,1494,1505,1505,1257,1905,1105,1906,1105,1505,1257,0,0,0,0,0,0,0,0,2
122694309,122694309,12,46,0,0,30003,1543,1508,1494,1505,1505,1258,1905,1105,1905,1105,1505,1258,0,0,0,0,0,0,0,0,2
122886189,122886189,12,46,0,0,30003,1543,1509,1495,1505,1505,1257,1905,1105,1906,1105,1505,1257,0,0,0,0,0,0,0,0,2
123106155,123106155,12,46,0,0,30003,1543,1508,1494,1507,1505,1257,1905,1105,1905,1106,1505,1257,0,0,0,0,0,0,0,0,2
123305527,123305527,12,46,0,0,30003,1543,1508,1495,1506,1505,1257,1906,1105,1905,1105,1505,1257,0,0,0,0,0,0,0,0,2
123497280,123497280,12,46,0,0,30004,1543,1508,1495,1506,1505,1257,1905,1105,1906,1105,1505,1257,0,0,0,0,0,0,0,0,2
123720555,123720555,12,46,0,0,30003,1543,1508,1493,1506,1506,1257,1905,1105,1905,1105,1506,1257,0,0,0,0,0,0,0,0,2
123916714,123916714,12,46,0,0,30004,1543,1508,1489,1506,1505,1257,1906,1105,1905,1105,1505,1257,0,0,0,0,0,0,0,0,2
124112585,124112585,12,46,0,0,30003,1543,1509,1490,1507,1505,1257,1905,1105,1905,1105,1506,1257,0,0,0,0,0,0,0,0,2
124323614,124323614,12,46,0,0,30003,1543,1508,1487,1506,1505,1258,1905,1105,1905,1105,1505,1257,0,0,0,0,0,0,0,0,2
124523545,124523545,12,46,0,0,30003,1542,1509,1487,1506,1505,1257,1905,1106,1905,1105,1505,1257,0,0,0,0,0,0,0,0,2
124719570,124719570,12,46,0,0,30003,1543,1508,1488,1506,1506,1257,1905,1105,1905,1105,1505,1258,0,0,0,0,0,0,0,0,2
124926785,124926785,12,46,0,0,30003,1543,1508,1488,1506,1505,1257,1906,1105,1905,1105,1505,1257,0,0,0,0,0,0,0,0,2
125134775,125134775,12,46,0,0,30004,1543,1508,1493,1506,1505,1257,1905,1105,1906,1105,1505,1257,0,0,0,0,0,0,0,0,2
125334187,125334187,12,46,0,0,30003,1544,1508,1492,1505,1506,1257,1905,1105,1905,1105,1506,1257,0,0,0,0,0,0,0,0,2
125546136,125546136,12,46,0,0,30003,1544,1508,1492,1506,1505,1257,1906,1105,1905,1105,1505,1257,0,0,0,0,0,0,0,0,2
125745998,125745998,12,46,0,0,30003,1543,1509,1493,1506,1505,1257,1905,1106,1905,1105,1505,1257,0,0,0,0,0,0,0,0,2
125925348,125925348,12,46,0,0,30003,1544,1508,1502,1506,1506,1257,1905,1105,1905,1105,1506,1257,0,0,0,0,0,0,0,0,2
126133130,126133130,12,46,0,0,30004,1544,1509,1503,1505,1505,1257,1906,1105,1905,1105,1505,1257,0,0,0,0,0,0,0,0,2
126333164,126333164,12,46,0,0,30003,1545,1508,1504,1507,1505,1257,1905,1105,1905,1106,1505,1257,0,0,0,0,0,0,0,0,2
126536364,126536364,12,46,0,0,30003,1545,1508,1504,1506,1505,1258,1905,1105,1905,1105,1505,1258,0,0,0,0,0,0,0,0,2
126756723,126756723,12,46,0,0,30003,1545,1508,1504,1506,1505,1257,1906,1105,1905,1105,1505,1257,0,0,0,0,0,0,0,0,2
126943753,126943753,12,46,0,0,30004,1545,1508,1505,1506,1505,1257,1905,1105,1906,1105,1505,1257,0,0,0,0,0,0,0,0,2
127163726,127163726,12,46,0,0,30003,1544,1508,1503,1506,1505,1258,1905,1105,1905,1105,1505,1258,0,0,0,0,0,0,0,0,2
127359791,127359791,12,46,0,0,30004,1545,1508,1499,1506,1505,1257,1905,1105,1906,1105,1505,1257,0,0,0,0,0,0,0,0,2
127558769,127558769,12,46,0,0,30003,1544,1509,1491,1506,1505,1258,1905,1105,1905,1105,1505,1258,0,0,0,0,0,0,0,0,2
127758779,127758779,12,46,0,0,30004,1543,1510,1490,1506,1505,1257,1905,1106,1905,1105,1505,1257,0,0,0,0,0,0,0,0,2
127962134,127962134,12,46,0,0,30003,1545,1508,1491,1507,1505,1257,1905,1105,1905,1106,1505,1257,0,0,0,0,0,0,0,0,2
128154015,128154015,12,46,0,0,30003,1545,1508,1491,1506,1505,1257,1906,1105,1905,1105,1505,1257,0,0,0,0,0,0,0,0,2
128378114,128378114,12,46,0,0,30004,1545,1509,1491,1506,1505,1257,1905,1105,1906,1105,1505,1257,0,0,0,0,0,0,0,0,2
128577187,128577187,12,46,0,0,30003,1545,1509,1490,1506,1505,1258,1905,1105,1905,1105,1505,1258,0,0,0,0,0,0,0,0,2
128769439,128769439,12,46,0,0,30004,1545,1508,1491,1506,1505,1257,1905,1105,1906,1105,1505,1257,0,0,0,0,0,0,0,0,2
128979569,128979569,12,46,0,0,30003,1544,1508,1492,1506,1506,1257,1905,1105,1905,1105,1506,1257,0,0,0,0,0,0,0,0,2
129176577,129176577,12,46,0,0,30003,1545,1509,1488,1506,1505,1257,1906,1105,1905,1105,1505,1257,0,0,0,0,0,0,0,0,2
129388376,129388376,12,46,0,0,30004,1545,1509,1485,1506,1505,1257,1905,1105,1906,1105,1505,1257,0,0,0,0,0,0,0,0,2
129592354,129592354,12,46,0,0,30003,1545,1509,1486,1506,1506,1257,1905,1105,1905,1105,1506,1257,0,0,0,0,0,0,0,0,2
129771585,129771585,12,46,0,0,30004,1545,1510,1489,1506,1505,1257,1905,1105,1906,1105,1505,1257,0,0,0,0,0,0,0,0,2
129991922,129991922,12,46,0,0,30003,1545,1509,1490,1507,1505,1257,1905,1105,1905,1105,1506,1257,0,0,0,0,0,0,0,0,2
130186814,130186814,12,46,0,0,30003,1545,1509,1491,1506,1505,1258,1905,1105,1905,1105,1505,1257,0,0,0,0,0,0,0,0,2
130402757,130402757,12,46,0,0,30004,1545,1510,1493,1506,1505,1257,1905,1106,1905,1105,1505,1257,0,0,0,0,0,0,0,0,2
130606781,130606781,12,46,0,0,30003,1542,1509,1502,1507,1505,1257,1905,1105,1905,1106,1505,1257,0,0,0,0,0,0,0,0,2
130805987,130805987,12,46,0,0,30003,1542,1509,1491,1506,1505,1257,1906,1105,1905,1105,1505,1257,0,0,0,0,0,0,0,0,2
131001975,131001975,12,46,0,0,30004,1542,1509,1485,1506,1505,1257,1905,1105,1906,1105,1505,1257,0,0,0,0,0,0,0,0,2
131201360,131201360,12,46,0,0,30003,1540,1509,1490,1506,1505,1257,1906,1105,1905,1105,1505,1257,0,0,0,0,0,0,0,0,2
131413146,131413146,12,46,0,0,30003,1539,1509,1492,1505,1505,1257,1906,1105,1905,1105,1505,1257,0,0,0,0,0,0,0,0,2
131601174,131601174,12,46,0,0,30003,1536,1509,1492,1507,1505,1257,1905,1105,1905,1106,1505,1257,0,0,0,0,0,0,0,0,2
131805935,131805935,12,46,0,0,30003,1536,1509,1492,1505,1505,1258,1905,1105,1905,1105,1505,1258,0,0,0,0,0,0,0,0,2
132004352,132004352,12,46,0,0,30004,1536,1509,1492,1506,1505,1257,1905,1105,1906,1105,1505,1257,0,0,0,0,0,0,0,0,2
132207571,132207571,12,46,0,0,30003,1536,1509,1491,1507,1505,1257,1905,1105,1905,1105,1506,1257,0,0,0,0,0,0,0,0,2
132427695,132427695,12,46,0,0,30003,1538,1509,1492,1506,1505,1258,1905,1105,1905,1105,1505,1257,0,0,0,0,0,0,0,0,2
132611917,132611917,12,46,0,0,30003,1537,1510,1492,1506,1505,1257,1905,1106,1905,1105,1505,1257,0,0,0,0,0,0,0,0,2
132830816,132830816,12,46,0,0,30004,1538,1509,1492,1505,1505,1257,1905,1105,1906,1105,1505,1257,0,0,0,0,0,0,0,0,2
133018947,133018947,12,46,0,0,30003,1538,1509,1491,1505,1505,1257,1906,1105,1905,1105,1505,1257,0,0,0,0,0,0,0,0,2
133238185,133238185,12,46,0,0,30003,1538,1509,1493,1506,1505,1257,1905,1105,1906,1105,1505,1257,0,0,0,0,0,0,0,0,2
133438316,133438316,12,46,0,0,30003,1538,1509,1493,1506,1506,1257,1905,1105,1905,1105,1506,1257,0,0,0,0,0,0,0,0,2
133634166,133634166,12,46,0,0,30003,1538,1509,1494,1505,1505,1257,1906,1105,1905,1105,1505,1257,0,0,0,0,0,0,0,0,2
133834315,133834315,12,46,0,0,30003,1538,1509,1495,1506,1506,1257,1905,1105,1905,1105,1506,1257,0,0,0,0,0,0,0,0,2
134045164,134045164,12,46,0,0,30004,1538,1509,1496,1506,1505,1257,1906,1105,1905,1105,1505,1257,0,0,0,0,0,0,0,0,2
134245203,134245203,12,46,0,0,30003,1538,1509,1498,1506,1505,1257,1905,1105,1906,1105,1505,1257,0,0,0,0,0,0,0,0,2
134444747,134444747,12,46,0,0,30003,1537,1509,1497,1506,1506,1257,1905,1105,1905,1105,1505,1258,0,0,0,0,0,0,0,0,2
134652336,134652336,12,46,0,0,30004,1538,1509,1502,1506,1505,1257,1906,1105,1905,1105,1505,1257,0,0,0,0,0,0,0,0,2
134853967,134853967,12,46,0,0,30003,1538,1509,1502,1505,1506,1257,1905,1105,1905,1105,1506,1257,0,0,0,0,0,0,0,0,2
135051915,135051915,12,46,0,0,30004,1538,1509,1503,1505,1505,1257,1906,1105,1905,1105,1505,1257,0,0,0,0,0,0,0,0,2
135263555,135263555,12,46,0,0,30004,1538,1509,1504,1505,1505,1257,1905,1105,1906,1105,1505,1257,0,0,0,0,0,0,0,0,2
135454999,135454999,12,46,0,0,30003,1538,1509,1503,1505,1505,1257,1906,1105,1905,1105,1505,1257,0,0,0,0,0,0,0,0,2
135670800,135670800,12,46,0,0,30004,1538,1509,1504,1506,1505,1257,1905,1105,1906,1105,1505,1257,0,0,0,0,0,0,0,0,2
135862759,135862759,12,46,0,0,30003,1538,1508,1504,1506,1505,1257,1905,1105,1905,1105,1506,1257,0,0,0,0,0,0,0,0,2
136061964,136061964,12,46,0,0,30003,1538,1508,1504,1505,1505,1257,1906,1105,1905,1105,1505,1257,0,0,0,0,0,0,0,0,2
136278133,136278133,12,46,0,0,30004,1538,1509,1504,1505,1505,1257,1905,1106,1905,1105,1505,1257,0,0,0,0,0,0,0,0,2
136465365,136465365,12,46,0,0,30003,1538,1508,1504,1505,1505,1258,1905,1105,1905,1105,1505,1258,0,0,0,0,0,0,0,0,2
136689148,136689148,12,46,0,0,30003,1538,1508,1503,1506,1505,1257,1906,1105,1905,1105,1505,1257,0,0,0,0,0,0,0,0,2
136881325,136881325,12,46,0,0,30003,1538,1508,1504,1505,1505,1257,1905,1105,1906,1105,1505,1257,0,0,0,0,0,0,0,0,2
137088338,137088338,12,46,0,0,30003,1538,1508,1502,1505,1506,1257,1905,1105,1905,1105,1505,1258,0,0,0,0,0,0,0,0,2
137288350,137288350,12,46,0,0,30003,1537,1510,1493,1505,1505,1257,1905,1105,1906,1105,1505,1257,0,0,0,0,0,0,0,0,2
137487614,137487614,12,46,0,0,30003,1536,1509,1495,1506,1505,1257,1905,1105,1905,1105,1506,1257,0,0,0,0,0,0,0,0,2
137691727,137691727,12,46,0,0,30003,1535,1509,1491,1506,1505,1258,1905,1105,1905,1105,1505,1257,0,0,0,0,0,0,0,0,2
