timestamp,noutputs,output[0],output[1],output[2],output[3],output[4],output[5],output[6],output[7],output[8],output[9],output[10],output[11],output[12],output[13],output[14],output[15]
29489118,8,1075.0,1075.0,1075.0,1075.0,1075.0,1075.0,0.0,0.0,0.0,0.0,0.0,0.0,0.0,0.0,0.0,0.0
29576959,8,1075.0,1075.0,1075.0,1075.0,1075.0,1075.0,0.0,0.0,0.0,0.0,0.0,0.0,0.0,0.0,0.0,0.0
29693093,8,1075.0,1075.0,1075.0,1075.0,1075.0,1075.0,0.0,0.0,0.0,0.0,0.0,0.0,0.0,0.0,0.0,0.0
29785163,8,1148.0,1140.0,1138.0,1150.0,1142.0,1146.0,0.0,0.0,0.0,0.0,0.0,0.0,0.0,0.0,0.0,0.0
29897347,8,1148.0,1141.0,1138.0,1150.0,1142.0,1146.0,0.0,0.0,0.0,0.0,0.0,0.0,0.0,0.0,0.0,0.0
29984127,8,1150.0,1138.0,1142.0,1146.0,1140.0,1148.0,0.0,0.0,0.0,0.0,0.0,0.0,0.0,0.0,0.0,0.0
30092335,8,1149.0,1139.0,1139.0,1149.0,1144.0,1144.0,0.0,0.0,0.0,0.0,0.0,0.0,0.0,0.0,0.0,0.0
30184555,8,1145.0,1143.0,1137.0,1153.0,1143.0,1145.0,0.0,0.0,0.0,0.0,0.0,0.0,0.0,0.0,0.0,0.0
30292547,8,1150.0,1138.0,1139.0,1149.0,1139.0,1149.0,0.0,0.0,0.0,0.0,0.0,0.0,0.0,0.0,0.0,0.0
30400549,8,1150.0,1138.0,1138.0,1150.0,1141.0,1147.0,0.0,0.0,0.0,0.0,0.0,0.0,0.0,0.0,0.0,0.0
30492151,8,1150.0,1138.0,1136.0,1152.0,1143.0,1145.0,0.0,0.0,0.0,0.0,0.0,0.0,0.0,0.0,0.0,0.0
30599534,8,1151.0,1137.0,1138.0,1150.0,1141.0,1147.0,0.0,0.0,0.0,0.0,0.0,0.0,0.0,0.0,0.0,0.0
30707355,8,1148.0,1140.0,1140.0,1148.0,1143.0,1145.0,0.0,0.0,0.0,0.0,0.0,0.0,0.0,0.0,0.0,0.0
30791519,8,1148.0,1140.0,1140.0,1148.0,1145.0,1143.0,0.0,0.0,0.0,0.0,0.0,0.0,0.0,0.0,0.0,0.0
30911393,8,1148.0,1140.0,1140.0,1148.0,1143.0,1145.0,0.0,0.0,0.0,0.0,0.0,0.0,0.0,0.0,0.0,0.0
31003503,8,1150.0,1138.0,1139.0,1149.0,1144.0,1144.0,0.0,0.0,0.0,0.0,0.0,0.0,0.0,0.0,0.0,0.0
31107318,8,1146.0,1142.0,1141.0,1147.0,1143.0,1145.0,0.0,0.0,0.0,0.0,0.0,0.0,0.0,0.0,0.0,0.0
31218543,8,1149.0,1139.0,1138.0,1150.0,1141.0,1147.0,0.0,0.0,0.0,0.0,0.0,0.0,0.0,0.0,0.0,0.0
31302526,8,1147.0,1141.0,1139.0,1149.0,1143.0,1145.0,0.0,0.0,0.0,0.0,0.0,0.0,0.0,0.0,0.0,0.0
31414547,8,1149.0,1139.0,1140.0,1148.0,1144.0,1144.0,0.0,0.0,0.0,0.0,0.0,0.0,0.0,0.0,0.0,0.0
31510559,8,1147.0,1141.0,1139.0,1149.0,1142.0,1146.0,0.0,0.0,0.0,0.0,0.0,0.0,0.0,0.0,0.0,0.0
31613939,8,1148.0,1140.0,1140.0,1148.0,1144.0,1144.0,0.0,0.0,0.0,0.0,0.0,0.0,0.0,0.0,0.0,0.0
31725851,8,1149.0,1139.0,1137.0,1151.0,1142.0,1146.0,0.0,0.0,0.0,0.0,0.0,0.0,0.0,0.0,0.0,0.0
31809785,8,1150.0,1138.0,1135.0,1153.0,1140.0,1148.0,0.0,0.0,0.0,0.0,0.0,0.0,0.0,0.0,0.0,0.0
31921758,8,1148.0,1141.0,1139.0,1149.0,1141.0,1147.0,0.0,0.0,0.0,0.0,0.0,0.0,0.0,0.0,0.0,0.0
32029926,8,1150.0,1138.0,1138.0,1150.0,1143.0,1145.0,0.0,0.0,0.0,0.0,0.0,0.0,0.0,0.0,0.0,0.0
32121146,8,1146.0,1142.0,1141.0,1147.0,1142.0,1146.0,0.0,0.0,0.0,0.0,0.0,0.0,0.0,0.0,0.0,0.0
32232535,8,1148.0,1140.0,1140.0,1148.0,1143.0,1145.0,0.0,0.0,0.0,0.0,0.0,0.0,0.0,0.0,0.0,0.0
32341378,8,1149.0,1139.0,1138.0,1150.0,1142.0,1146.0,0.0,0.0,0.0,0.0,0.0,0.0,0.0,0.0,0.0,0.0
32433055,8,1149.0,1139.0,1139.0,1149.0,1143.0,1145.0,0.0,0.0,0.0,0.0,0.0,0.0,0.0,0.0,0.0,0.0
32544957,8,1147.0,1141.0,1140.0,1148.0,1143.0,1145.0,0.0,0.0,0.0,0.0,0.0,0.0,0.0,0.0,0.0,0.0
32633172,8,1150.0,1138.0,1138.0,1150.0,1145.0,1143.0,0.0,0.0,0.0,0.0,0.0,0.0,0.0,0.0,0.0,0.0
32745169,8,1150.0,1138.0,1138.0,1150.0,1142.0,1146.0,0.0,0.0,0.0,0.0,0.0,0.0,0.0,0.0,0.0,0.0
32836131,8,1147.0,1141.0,1138.0,1150.0,1142.0,1146.0,0.0,0.0,0.0,0.0,0.0,0.0,0.0,0.0,0.0,0.0
32952547,8,1146.0,1142.0,1141.0,1147.0,1141.0,1147.0,0.0,0.0,0.0,0.0,0.0,0.0,0.0,0.0,0.0,0.0
33040402,8,1145.0,1143.0,1141.0,1147.0,1142.0,1146.0,0.0,0.0,0.0,0.0,0.0,0.0,0.0,0.0,0.0,0.0
33148358,8,1152.0,1136.0,1136.0,1152.0,1142.0,1146.0,0.0,0.0,0.0,0.0,0.0,0.0,0.0,0.0,0.0,0.0
33259632,8,1147.0,1141.0,1140.0,1148.0,1141.0,1147.0,0.0,0.0,0.0,0.0,0.0,0.0,0.0,0.0,0.0,0.0
33355344,8,1149.0,1139.0,1137.0,1151.0,1142.0,1146.0,0.0,0.0,0.0,0.0,0.0,0.0,0.0,0.0,0.0,0.0
33443397,8,1148.0,1140.0,1140.0,1148.0,1142.0,1146.0,0.0,0.0,0.0,0.0,0.0,0.0,0.0,0.0,0.0,0.0
33551558,8,1149.0,1139.0,1139.0,1149.0,1144.0,1144.0,0.0,0.0,0.0,0.0,0.0,0.0,0.0,0.0,0.0,0.0
33663350,8,1148.0,1140.0,1142.0,1146.0,1144.0,1144.0,0.0,0.0,0.0,0.0,0.0,0.0,0.0,0.0,0.0,0.0
33751365,8,1147.0,1141.0,1138.0,1150.0,1140.0,1148.0,0.0,0.0,0.0,0.0,0.0,0.0,0.0,0.0,0.0,0.0
33866559,8,1145.0,1143.0,1141.0,1147.0,1140.0,1148.0,0.0,0.0,0.0,0.0,0.0,0.0,0.0,0.0,0.0,0.0
33954763,8,1146.0,1142.0,1143.0,1145.0,1144.0,1144.0,0.0,0.0,0.0,0.0,0.0,0.0,0.0,0.0,0.0,0.0
34066947,8,1150.0,1138.0,1138.0,1150.0,1144.0,1144.0,0.0,0.0,0.0,0.0,0.0,0.0,0.0,0.0,0.0,0.0
34158568,8,1145.0,1143.0,1142.0,1146.0,1142.0,1146.0,0.0,0.0,0.0,0.0,0.0,0.0,0.0,0.0,0.0,0.0
34266561,8,1149.0,1139.0,1140.0,1148.0,1143.0,1145.0,0.0,0.0,0.0,0.0,0.0,0.0,0.0,0.0,0.0,0.0
34377727,8,1145.0,1143.0,1142.0,1146.0,1140.0,1148.0,0.0,0.0,0.0,0.0,0.0,0.0,0.0,0.0,0.0,0.0
34462146,8,1150.0,1138.0,1137.0,1151.0,1143.0,1145.0,0.0,0.0,0.0,0.0,0.0,0.0,0.0,0.0,0.0,0.0
34577780,8,1146.0,1142.0,1136.0,1152.0,1138.0,1150.0,0.0,0.0,0.0,0.0,0.0,0.0,0.0,0.0,0.0,0.0
34665854,8,1146.0,1142.0,1139.0,1149.0,1140.0,1148.0,0.0,0.0,0.0,0.0,0.0,0.0,0.0,0.0,0.0,0.0
34769987,8,1151.0,1137.0,1141.0,1147.0,1147.0,1141.0,0.0,0.0,0.0,0.0,0.0,0.0,0.0,0.0,0.0,0.0
34873939,8,1145.0,1143.0,1140.0,1148.0,1140.0,1148.0,0.0,0.0,0.0,0.0,0.0,0.0,0.0,0.0,0.0,0.0
34985133,8,1150.0,1138.0,1140.0,1148.0,1145.0,1143.0,0.0,0.0,0.0,0.0,0.0,0.0,0.0,0.0,0.0,0.0
35073376,8,1144.0,1144.0,1137.0,1151.0,1137.0,1151.0,0.0,0.0,0.0,0.0,0.0,0.0,0.0,0.0,0.0,0.0
35181373,8,1150.0,1138.0,1139.0,1149.0,1145.0,1143.0,0.0,0.0,0.0,0.0,0.0,0.0,0.0,0.0,0.0,0.0
35289394,8,1149.0,1139.0,1141.0,1147.0,1146.0,1142.0,0.0,0.0,0.0,0.0,0.0,0.0,0.0,0.0,0.0,0.0
35392935,8,1153.0,1135.0,1137.0,1151.0,1144.0,1144.0,0.0,0.0,0.0,0.0,0.0,0.0,0.0,0.0,0.0,0.0
35480335,8,1147.0,1141.0,1140.0,1148.0,1141.0,1147.0,0.0,0.0,0.0,0.0,0.0,0.0,0.0,0.0,0.0,0.0
35592324,8,1153.0,1135.0,1138.0,1150.0,1145.0,1143.0,0.0,0.0,0.0,0.0,0.0,0.0,0.0,0.0,0.0,0.0
35700261,8,1147.0,1141.0,1141.0,1147.0,1143.0,1145.0,0.0,0.0,0.0,0.0,0.0,0.0,0.0,0.0,0.0,0.0
35784155,8,1153.0,1135.0,1135.0,1153.0,1142.0,1146.0,0.0,0.0,0.0,0.0,0.0,0.0,0.0,0.0,0.0,0.0
35892144,8,1145.0,1143.0,1141.0,1147.0,1140.0,1148.0,0.0,0.0,0.0,0.0,0.0,0.0,0.0,0.0,0.0,0.0
35987541,8,1146.0,1142.0,1137.0,1151.0,1139.0,1149.0,0.0,0.0,0.0,0.0,0.0,0.0,0.0,0.0,0.0,0.0
36099348,8,1149.0,1139.0,1139.0,1149.0,1143.0,1145.0,0.0,0.0,0.0,0.0,0.0,0.0,0.0,0.0,0.0,0.0
36187617,8,1150.0,1138.0,1136.0,1152.0,1141.0,1147.0,0.0,0.0,0.0,0.0,0.0,0.0,0.0,0.0,0.0,0.0
36303345,8,1145.0,1143.0,1141.0,1147.0,1142.0,1146.0,0.0,0.0,0.0,0.0,0.0,0.0,0.0,0.0,0.0,0.0
36391544,8,1146.0,1142.0,1140.0,1148.0,1142.0,1146.0,0.0,0.0,0.0,0.0,0.0,0.0,0.0,0.0,0.0,0.0
36503363,8,1146.0,1142.0,1140.0,1148.0,1141.0,1147.0,0.0,0.0,0.0,0.0,0.0,0.0,0.0,0.0,0.0,0.0
36594774,8,1148.0,1140.0,1139.0,1149.0,1143.0,1145.0,0.0,0.0,0.0,0.0,0.0,0.0,0.0,0.0,0.0,0.0
36702805,8,1150.0,1138.0,1136.0,1152.0,1141.0,1147.0,0.0,0.0,0.0,0.0,0.0,0.0,0.0,0.0,0.0,0.0
36794795,8,1147.0,1141.0,1140.0,1148.0,1142.0,1146.0,0.0,0.0,0.0,0.0,0.0,0.0,0.0,0.0,0.0,0.0
36906960,8,1147.0,1141.0,1139.0,1149.0,1141.0,1147.0,0.0,0.0,0.0,0.0,0.0,0.0,0.0,0.0,0.0,0.0
37014947,8,1146.0,1142.0,1139.0,1149.0,1140.0,1148.0,0.0,0.0,0.0,0.0,0.0,0.0,0.0,0.0,0.0,0.0
37106019,8,1147.0,1141.0,1138.0,1150.0,1140.0,1148.0,0.0,0.0,0.0,0.0,0.0,0.0,0.0,0.0,0.0,0.0
37213902,8,1153.0,1135.0,1138.0,1150.0,1147.0,1141.0,0.0,0.0,0.0,0.0,0.0,0.0,0.0,0.0,0.0,0.0
37325717,8,1145.0,1143.0,1139.0,1149.0,1140.0,1148.0,0.0,0.0,0.0,0.0,0.0,0.0,0.0,0.0,0.0,0.0
37405768,8,1149.0,1139.0,1137.0,1151.0,1141.0,1147.0,0.0,0.0,0.0,0.0,0.0,0.0,0.0,0.0,0.0,0.0
37518150,8,1148.0,1141.0,1138.0,1150.0,1140.0,1148.0,0.0,0.0,0.0,0.0,0.0,0.0,0.0,0.0,0.0,0.0
37613764,8,1147.0,1141.0,1139.0,1149.0,1141.0,1147.0,0.0,0.0,0.0,0.0,0.0,0.0,0.0,0.0,0.0,0.0
37728952,8,1149.0,1139.0,1137.0,1151.0,1141.0,1147.0,0.0,0.0,0.0,0.0,0.0,0.0,0.0,0.0,0.0,0.0
37821119,8,1146.0,1142.0,1143.0,1145.0,1143.0,1145.0,0.0,0.0,0.0,0.0,0.0,0.0,0.0,0.0,0.0,0.0
37929186,8,1150.0,1138.0,1136.0,1152.0,1140.0,1148.0,0.0,0.0,0.0,0.0,0.0,0.0,0.0,0.0,0.0,0.0
38021396,8,1144.0,1144.0,1137.0,1151.0,1137.0,1151.0,0.0,0.0,0.0,0.0,0.0,0.0,0.0,0.0,0.0,0.0
38132948,8,1149.0,1139.0,1138.0,1150.0,1141.0,1147.0,0.0,0.0,0.0,0.0,0.0,0.0,0.0,0.0,0.0,0.0
38220352,8,1146.0,1142.0,1136.0,1152.0,1138.0,1150.0,0.0,0.0,0.0,0.0,0.0,0.0,0.0,0.0,0.0,0.0
38336363,8,1150.0,1138.0,1138.0,1150.0,1143.0,1145.0,0.0,0.0,0.0,0.0,0.0,0.0,0.0,0.0,0.0,0.0
38444324,8,1148.0,1140.0,1138.0,1150.0,1142.0,1146.0,0.0,0.0,0.0,0.0,0.0,0.0,0.0,0.0,0.0,0.0
38532295,8,1149.0,1139.0,1140.0,1148.0,1144.0,1144.0,0.0,0.0,0.0,0.0,0.0,0.0,0.0,0.0,0.0,0.0
38644120,8,1148.0,1140.0,1139.0,1149.0,1141.0,1147.0,0.0,0.0,0.0,0.0,0.0,0.0,0.0,0.0,0.0,0.0
38728281,8,1149.0,1139.0,1138.0,1150.0,1143.0,1145.0,0.0,0.0,0.0,0.0,0.0,0.0,0.0,0.0,0.0,0.0
38836374,8,1150.0,1138.0,1139.0,1149.0,1144.0,1144.0,0.0,0.0,0.0,0.0,0.0,0.0,0.0,0.0,0.0,0.0
38943357,8,1144.0,1144.0,1139.0,1149.0,1138.0,1150.0,0.0,0.0,0.0,0.0,0.0,0.0,0.0,0.0,0.0,0.0
39055346,8,1147.0,1141.0,1138.0,1150.0,1139.0,1149.0,0.0,0.0,0.0,0.0,0.0,0.0,0.0,0.0,0.0,0.0
39151462,8,1146.0,1142.0,1137.0,1151.0,1139.0,1149.0,0.0,0.0,0.0,0.0,0.0,0.0,0.0,0.0,0.0,0.0
39243759,8,1148.0,1140.0,1138.0,1150.0,1141.0,1147.0,0.0,0.0,0.0,0.0,0.0,0.0,0.0,0.0,0.0,0.0
39338778,8,1147.0,1141.0,1139.0,1149.0,1140.0,1148.0,0.0,0.0,0.0,0.0,0.0,0.0,0.0,0.0,0.0,0.0
39450681,8,1149.0,1139.0,1136.0,1152.0,1140.0,1148.0,0.0,0.0,0.0,0.0,0.0,0.0,0.0,0.0,0.0,0.0
39562690,8,1151.0,1137.0,1139.0,1149.0,1145.0,1143.0,0.0,0.0,0.0,0.0,0.0,0.0,0.0,0.0,0.0,0.0
39654762,8,1150.0,1138.0,1135.0,1153.0,1140.0,1148.0,0.0,0.0,0.0,0.0,0.0,0.0,0.0,0.0,0.0,0.0
39762758,8,1148.0,1140.0,1139.0,1149.0,1142.0,1146.0,0.0,0.0,0.0,0.0,0.0,0.0,0.0,0.0,0.0,0.0
39854954,8,1149.0,1139.0,1136.0,1152.0,1140.0,1148.0,0.0,0.0,0.0,0.0,0.0,0.0,0.0,0.0,0.0,0.0
39962151,8,1144.0,1144.0,1143.0,1145.0,1142.0,1146.0,0.0,0.0,0.0,0.0,0.0,0.0,0.0,0.0,0.0,0.0
40053767,8,1149.0,1139.0,1139.0,1149.0,1144.0,1144.0,0.0,0.0,0.0,0.0,0.0,0.0,0.0,0.0,0.0,0.0
40165756,8,1148.0,1140.0,1139.0,1149.0,1142.0,1146.0,0.0,0.0,0.0,0.0,0.0,0.0,0.0,0.0,0.0,0.0
40269960,8,1145.0,1143.0,1137.0,1151.0,1137.0,1151.0,0.0,0.0,0.0,0.0,0.0,0.0,0.0,0.0,0.0,0.0
40353968,8,1146.0,1142.0,1140.0,1148.0,1141.0,1147.0,0.0,0.0,0.0,0.0,0.0,0.0,0.0,0.0,0.0,0.0
40472962,8,1142.0,1146.0,1140.0,1148.0,1138.0,1150.0,0.0,0.0,0.0,0.0,0.0,0.0,0.0,0.0,0.0,0.0
40564957,8,1152.0,1136.0,1136.0,1152.0,1143.0,1145.0,0.0,0.0,0.0,0.0,0.0,0.0,0.0,0.0,0.0,0.0
40673185,8,1154.0,1134.0,1138.0,1150.0,1147.0,1141.0,0.0,0.0,0.0,0.0,0.0,0.0,0.0,0.0,0.0,0.0
40768972,8,1144.0,1144.0,1140.0,1148.0,1140.0,1148.0,0.0,0.0,0.0,0.0,0.0,0.0,0.0,0.0,0.0,0.0
40881225,8,1143.0,1145.0,1139.0,1149.0,1137.0,1151.0,0.0,0.0,0.0,0.0,0.0,0.0,0.0,0.0,0.0,0.0
40972304,8,1153.0,1135.0,1136.0,1152.0,1144.0,1144.0,0.0,0.0,0.0,0.0,0.0,0.0,0.0,0.0,0.0,0.0
41084154,8,1148.0,1140.0,1139.0,1149.0,1141.0,1147.0,0.0,0.0,0.0,0.0,0.0,0.0,0.0,0.0,0.0,0.0
41172142,8,1146.0,1142.0,1141.0,1147.0,1142.0,1146.0,0.0,0.0,0.0,0.0,0.0,0.0,0.0,0.0,0.0,0.0
41288177,8,1143.0,1145.0,1141.0,1147.0,1139.0,1149.0,0.0,0.0,0.0,0.0,0.0,0.0,0.0,0.0,0.0,0.0
41392267,8,1149.0,1139.0,1138.0,1150.0,1142.0,1146.0,0.0,0.0,0.0,0.0,0.0,0.0,0.0,0.0,0.0,0.0
41476158,8,1147.0,1141.0,1141.0,1147.0,1143.0,1145.0,0.0,0.0,0.0,0.0,0.0,0.0,0.0,0.0,0.0,0.0
41587457,8,1149.0,1139.0,1139.0,1149.0,1141.0,1147.0,0.0,0.0,0.0,0.0,0.0,0.0,0.0,0.0,0.0,0.0
41695610,8,1149.0,1139.0,1139.0,1149.0,1142.0,1146.0,0.0,0.0,0.0,0.0,0.0,0.0,0.0,0.0,0.0,0.0
41783567,8,1149.0,1139.0,1140.0,1148.0,1145.0,1143.0,0.0,0.0,0.0,0.0,0.0,0.0,0.0,0.0,0.0,0.0
41895314,8,1149.0,1139.0,1137.0,1151.0,1142.0,1146.0,0.0,0.0,0.0,0.0,0.0,0.0,0.0,0.0,0.0,0.0
41987493,8,1150.0,1138.0,1138.0,1150.0,1143.0,1145.0,0.0,0.0,0.0,0.0,0.0,0.0,0.0,0.0,0.0,0.0
42102557,8,1148.0,1140.0,1136.0,1152.0,1139.0,1149.0,0.0,0.0,0.0,0.0,0.0,0.0,0.0,0.0,0.0,0.0
42190954,8,1149.0,1139.0,1137.0,1151.0,1142.0,1146.0,0.0,0.0,0.0,0.0,0.0,0.0,0.0,0.0,0.0,0.0
42306595,8,1150.0,1138.0,1136.0,1152.0,1142.0,1146.0,0.0,0.0,0.0,0.0,0.0,0.0,0.0,0.0,0.0,0.0
42390662,8,1152.0,1136.0,1135.0,1153.0,1141.0,1144.0,0.0,0.0,0.0,0.0,0.0,0.0,0.0,0.0,0.0,0.0
42502554,8,1147.0,1141.0,1139.0,1149.0,1140.0,1148.0,0.0,0.0,0.0,0.0,0.0,0.0,0.0,0.0,0.0,0.0
42606555,8,1149.0,1139.0,1137.0,1151.0,1142.0,1146.0,0.0,0.0,0.0,0.0,0.0,0.0,0.0,0.0,0.0,0.0
42698010,8,1153.0,1135.0,1137.0,1151.0,1146.0,1142.0,0.0,0.0,0.0,0.0,0.0,0.0,0.0,0.0,0.0,0.0
42813873,8,1150.0,1138.0,1138.0,1150.0,1144.0,1144.0,0.0,0.0,0.0,0.0,0.0,0.0,0.0,0.0,0.0,0.0
42917748,8,1155.0,1134.0,1136.0,1152.0,1145.0,1143.0,0.0,0.0,0.0,0.0,0.0,0.0,0.0,0.0,0.0,0.0
43009783,8,1152.0,1136.0,1137.0,1151.0,1144.0,1144.0,0.0,0.0,0.0,0.0,0.0,0.0,0.0,0.0,0.0,0.0
43121187,8,1152.0,1136.0,1137.0,1151.0,1144.0,1144.0,0.0,0.0,0.0,0.0,0.0,0.0,0.0,0.0,0.0,0.0
43209972,8,1152.0,1136.0,1132.0,1156.0,1140.0,1148.0,0.0,0.0,0.0,0.0,0.0,0.0,0.0,0.0,0.0,0.0
43325085,8,1148.0,1140.0,1138.0,1150.0,1140.0,1148.0,0.0,0.0,0.0,0.0,0.0,0.0,0.0,0.0,0.0,0.0
43413403,8,1153.0,1135.0,1134.0,1154.0,1143.0,1145.0,0.0,0.0,0.0,0.0,0.0,0.0,0.0,0.0,0.0,0.0
43528966,8,1155.0,1133.0,1134.0,1154.0,1145.0,1143.0,0.0,0.0,0.0,0.0,0.0,0.0,0.0,0.0,0.0,0.0
43613176,8,1149.0,1139.0,1137.0,1151.0,1141.0,1147.0,0.0,0.0,0.0,0.0,0.0,0.0,0.0,0.0,0.0,0.0
43732133,8,1153.0,1135.0,1138.0,1150.0,1145.0,1143.0,0.0,0.0,0.0,0.0,0.0,0.0,0.0,0.0,0.0,0.0
43824124,8,1148.0,1140.0,1137.0,1151.0,1140.0,1148.0,0.0,0.0,0.0,0.0,0.0,0.0,0.0,0.0,0.0,0.0
43936270,8,1150.0,1138.0,1139.0,1149.0,1144.0,1144.0,0.0,0.0,0.0,0.0,0.0,0.0,0.0,0.0,0.0,0.0
44020257,8,1145.0,1143.0,1142.0,1146.0,1142.0,1146.0,0.0,0.0,0.0,0.0,0.0,0.0,0.0,0.0,0.0,0.0
44128147,8,1153.0,1135.0,1136.0,1152.0,1144.0,1144.0,0.0,0.0,0.0,0.0,0.0,0.0,0.0,0.0,0.0,0.0
44232422,8,1153.0,1135.0,1135.0,1153.0,1143.0,1145.0,0.0,0.0,0.0,0.0,0.0,0.0,0.0,0.0,0.0,0.0
44323356,8,1148.0,1140.0,1138.0,1150.0,1141.0,1147.0,0.0,0.0,0.0,0.0,0.0,0.0,0.0,0.0,0.0,0.0
44439532,8,1147.0,1141.0,1139.0,1149.0,1141.0,1147.0,0.0,0.0,0.0,0.0,0.0,0.0,0.0,0.0,0.0,0.0
44527835,8,1147.0,1141.0,1137.0,1151.0,1139.0,1149.0,0.0,0.0,0.0,0.0,0.0,0.0,0.0,0.0,0.0,0.0
44639346,8,1150.0,1138.0,1137.0,1151.0,1143.0,1145.0,0.0,0.0,0.0,0.0,0.0,0.0,0.0,0.0,0.0,0.0
44747349,8,1146.0,1142.0,1141.0,1147.0,1143.0,1145.0,0.0,0.0,0.0,0.0,0.0,0.0,0.0,0.0,0.0,0.0
44831576,8,1153.0,1135.0,1137.0,1151.0,1144.0,1144.0,0.0,0.0,0.0,0.0,0.0,0.0,0.0,0.0,0.0,0.0
44942563,8,1150.0,1138.0,1136.0,1152.0,1142.0,1146.0,0.0,0.0,0.0,0.0,0.0,0.0,0.0,0.0,0.0,0.0
45034741,8,1148.0,1140.0,1137.0,1151.0,1140.0,1148.0,0.0,0.0,0.0,0.0,0.0,0.0,0.0,0.0,0.0,0.0
45146699,8,1149.0,1139.0,1141.0,1147.0,1145.0,1143.0,0.0,0.0,0.0,0.0,0.0,0.0,0.0,0.0,0.0,0.0
45238534,8,1151.0,1137.0,1135.0,1153.0,1140.0,1148.0,0.0,0.0,0.0,0.0,0.0,0.0,0.0,0.0,0.0,0.0
45346560,8,1151.0,1137.0,1137.0,1151.0,1143.0,1145.0,0.0,0.0,0.0,0.0,0.0,0.0,0.0,0.0,0.0,0.0
45453917,8,1149.0,1139.0,1136.0,1152.0,1141.0,1147.0,0.0,0.0,0.0,0.0,0.0,0.0,0.0,0.0,0.0,0.0
45561941,8,1148.0,1140.0,1138.0,1150.0,1141.0,1147.0,0.0,0.0,0.0,0.0,0.0,0.0,0.0,0.0,0.0,0.0
45649723,8,1150.0,1138.0,1141.0,1147.0,1145.0,1143.0,0.0,0.0,0.0,0.0,0.0,0.0,0.0,0.0,0.0,0.0
45757760,8,1145.0,1143.0,1139.0,1149.0,1140.0,1148.0,0.0,0.0,0.0,0.0,0.0,0.0,0.0,0.0,0.0,0.0
45849803,8,1148.0,1140.0,1139.0,1150.0,1142.0,1146.0,0.0,0.0,0.0,0.0,0.0,0.0,0.0,0.0,0.0,0.0
45965398,8,1151.0,1137.0,1140.0,1148.0,1146.0,1142.0,0.0,0.0,0.0,0.0,0.0,0.0,0.0,0.0,0.0,0.0
46049172,8,1148.0,1140.0,1140.0,1148.0,1144.0,1144.0,0.0,0.0,0.0,0.0,0.0,0.0,0.0,0.0,0.0,0.0
46161180,8,1152.0,1136.0,1137.0,1151.0,1144.0,1144.0,0.0,0.0,0.0,0.0,0.0,0.0,0.0,0.0,0.0,0.0
46268949,8,1152.0,1136.0,1138.0,1150.0,1145.0,1143.0,0.0,0.0,0.0,0.0,0.0,0.0,0.0,0.0,0.0,0.0
46365158,8,1151.0,1137.0,1136.0,1152.0,1141.0,1147.0,0.0,0.0,0.0,0.0,0.0,0.0,0.0,0.0,0.0,0.0
46480201,8,1153.0,1135.0,1136.0,1152.0,1144.0,1144.0,0.0,0.0,0.0,0.0,0.0,0.0,0.0,0.0,0.0,0.0
46564151,8,1149.0,1139.0,1137.0,1151.0,1143.0,1145.0,0.0,0.0,0.0,0.0,0.0,0.0,0.0,0.0,0.0,0.0
46676146,8,1142.0,1146.0,1140.0,1148.0,1138.0,1150.0,0.0,0.0,0.0,0.0,0.0,0.0,0.0,0.0,0.0,0.0
46784155,8,1150.0,1138.0,1137.0,1151.0,1142.0,1146.0,0.0,0.0,0.0,0.0,0.0,0.0,0.0,0.0,0.0,0.0
46876331,8,1146.0,1142.0,1140.0,1148.0,1141.0,1147.0,0.0,0.0,0.0,0.0,0.0,0.0,0.0,0.0,0.0,0.0
46965879,8,1148.0,1140.0,1137.0,1151.0,1140.0,1148.0,0.0,0.0,0.0,0.0,0.0,0.0,0.0,0.0,0.0,0.0
47079345,8,1150.0,1138.0,1137.0,1151.0,1142.0,1146.0,0.0,0.0,0.0,0.0,0.0,0.0,0.0,0.0,0.0,0.0
47167370,8,1150.0,1138.0,1136.0,1152.0,1141.0,1147.0,0.0,0.0,0.0,0.0,0.0,0.0,0.0,0.0,0.0,0.0
47283537,8,1148.0,1140.0,1138.0,1150.0,1140.0,1148.0,0.0,0.0,0.0,0.0,0.0,0.0,0.0,0.0,0.0,0.0
47371324,8,1153.0,1135.0,1134.0,1154.0,1142.0,1146.0,0.0,0.0,0.0,0.0,0.0,0.0,0.0,0.0,0.0,0.0
47483536,8,1150.0,1138.0,1139.0,1149.0,1144.0,1144.0,0.0,0.0,0.0,0.0,0.0,0.0,0.0,0.0,0.0,0.0
47574750,8,1154.0,1134.0,1136.0,1152.0,1146.0,1142.0,0.0,0.0,0.0,0.0,0.0,0.0,0.0,0.0,0.0,0.0
47694711,8,1149.0,1139.0,1138.0,1150.0,1142.0,1146.0,0.0,0.0,0.0,0.0,0.0,0.0,0.0,0.0,0.0,0.0
47798673,8,1147.0,1140.0,1140.0,1148.0,1143.0,1145.0,0.0,0.0,0.0,0.0,0.0,0.0,0.0,0.0,0.0,0.0
47890656,8,1152.0,1142.0,1141.0,1147.0,1144.0,1144.0,0.0,0.0,0.0,0.0,0.0,0.0,0.0,0.0,0.0,0.0
47998546,8,1153.0,1135.0,1139.0,1149.0,1147.0,1141.0,0.0,0.0,0.0,0.0,0.0,0.0,0.0,0.0,0.0,0.0
48089079,8,1145.0,1143.0,1139.0,1149.0,1139.0,1146.0,0.0,0.0,0.0,0.0,0.0,0.0,0.0,0.0,0.0,0.0
48197737,8,1147.0,1141.0,1137.0,1151.0,1138.0,1150.0,0.0,0.0,0.0,0.0,0.0,0.0,0.0,0.0,0.0,0.0
48285799,8,1144.0,1144.0,1138.0,1150.0,1138.0,1150.0,0.0,0.0,0.0,0.0,0.0,0.0,0.0,0.0,0.0,0.0
48401746,8,1146.0,1142.0,1139.0,1149.0,1142.0,1146.0,0.0,0.0,0.0,0.0,0.0,0.0,0.0,0.0,0.0,0.0
48493772,8,1147.0,1141.0,1141.0,1147.0,1141.0,1147.0,0.0,0.0,0.0,0.0,0.0,0.0,0.0,0.0,0.0,0.0
48606016,8,1147.0,1141.0,1138.0,1150.0,1140.0,1148.0,0.0,0.0,0.0,0.0,0.0,0.0,0.0,0.0,0.0,0.0
48701197,8,1145.0,1143.0,1140.0,1153.0,1142.0,1146.0,0.0,0.0,0.0,0.0,0.0,0.0,0.0,0.0,0.0,0.0
48816987,8,1154.0,1134.0,1135.0,1153.0,1144.0,1144.0,0.0,0.0,0.0,0.0,0.0,0.0,0.0,0.0,0.0,0.0
48905134,8,1148.0,1140.0,1139.0,1149.0,1143.0,1145.0,0.0,0.0,0.0,0.0,0.0,0.0,0.0,0.0,0.0,0.0
49013153,8,1149.0,1139.0,1141.0,1147.0,1144.0,1144.0,0.0,0.0,0.0,0.0,0.0,0.0,0.0,0.0,0.0,0.0
49105094,8,1151.0,1137.0,1136.0,1152.0,1143.0,1145.0,0.0,0.0,0.0,0.0,0.0,0.0,0.0,0.0,0.0,0.0
49216167,8,1144.0,1144.0,1143.0,1145.0,1142.0,1146.0,0.0,0.0,0.0,0.0,0.0,0.0,0.0,0.0,0.0,0.0
50027366,8,1148.0,1140.0,1137.0,1151.0,1141.0,1147.0,0.0,0.0,0.0,0.0,0.0,0.0,0.0,0.0,0.0,0.0
50534777,8,1148.0,1140.0,1140.0,1148.0,1143.0,1145.0,0.0,0.0,0.0,0.0,0.0,0.0,0.0,0.0,0.0,0.0
50642552,8,1155.0,1133.0,1137.0,1151.0,1147.0,1141.0,0.0,0.0,0.0,0.0,0.0,0.0,0.0,0.0,0.0,0.0
50734551,8,1149.0,1139.0,1139.0,1149.0,1144.0,1144.0,0.0,0.0,0.0,0.0,0.0,0.0,0.0,0.0,0.0,0.0
50845901,8,1147.0,1141.0,1140.0,1148.0,1143.0,1145.0,0.0,0.0,0.0,0.0,0.0,0.0,0.0,0.0,0.0,0.0
50937891,8,1152.0,1136.0,1136.0,1152.0,1142.0,1146.0,0.0,0.0,0.0,0.0,0.0,0.0,0.0,0.0,0.0,0.0
51045773,8,1152.0,1136.0,1139.0,1149.0,1147.0,1141.0,0.0,0.0,0.0,0.0,0.0,0.0,0.0,0.0,0.0,0.0
51153758,8,1148.0,1140.0,1139.0,1149.0,1142.0,1146.0,0.0,0.0,0.0,0.0,0.0,0.0,0.0,0.0,0.0,0.0
51241752,8,1147.0,1141.0,1142.0,1146.0,1144.0,1144.0,0.0,0.0,0.0,0.0,0.0,0.0,0.0,0.0,0.0,0.0
51356914,8,1149.0,1139.0,1139.0,1149.0,1143.0,1145.0,0.0,0.0,0.0,0.0,0.0,0.0,0.0,0.0,0.0,0.0
51445133,8,1149.0,1139.0,1140.0,1148.0,1144.0,1144.0,0.0,0.0,0.0,0.0,0.0,0.0,0.0,0.0,0.0,0.0
51556961,8,1148.0,1140.0,1139.0,1149.0,1143.0,1145.0,0.0,0.0,0.0,0.0,0.0,0.0,0.0,0.0,0.0,0.0
51661229,8,1150.0,1138.0,1137.0,1151.0,1142.0,1146.0,0.0,0.0,0.0,0.0,0.0,0.0,0.0,0.0,0.0,0.0
51749336,8,1147.0,1141.0,1141.0,1147.0,1142.0,1146.0,0.0,0.0,0.0,0.0,0.0,0.0,0.0,0.0,0.0,0.0
51861160,8,1150.0,1138.0,1135.0,1153.0,1140.0,1148.0,0.0,0.0,0.0,0.0,0.0,0.0,0.0,0.0,0.0,0.0
51952158,8,1145.0,1143.0,1139.0,1149.0,1140.0,1148.0,0.0,0.0,0.0,0.0,0.0,0.0,0.0,0.0,0.0,0.0
52060323,8,1148.0,1140.0,1141.0,1147.0,1144.0,1144.0,0.0,0.0,0.0,0.0,0.0,0.0,0.0,0.0,0.0,0.0
52152336,8,1149.0,1139.0,1136.0,1152.0,1140.0,1148.0,0.0,0.0,0.0,0.0,0.0,0.0,0.0,0.0,0.0,0.0
52260377,8,1149.0,1139.0,1140.0,1148.0,1145.0,1143.0,0.0,0.0,0.0,0.0,0.0,0.0,0.0,0.0,0.0,0.0
52368186,8,1150.0,1138.0,1140.0,1148.0,1144.0,1144.0,0.0,0.0,0.0,0.0,0.0,0.0,0.0,0.0,0.0,0.0
52456404,8,1149.0,1139.0,1138.0,1150.0,1142.0,1146.0,0.0,0.0,0.0,0.0,0.0,0.0,0.0,0.0,0.0,0.0
52567576,8,1152.0,1136.0,1138.0,1150.0,1145.0,1143.0,0.0,0.0,0.0,0.0,0.0,0.0,0.0,0.0,0.0,0.0
52675344,8,1152.0,1136.0,1136.0,1152.0,1144.0,1144.0,0.0,0.0,0.0,0.0,0.0,0.0,0.0,0.0,0.0,0.0
52779331,8,1152.0,1136.0,1137.0,1151.0,1144.0,1144.0,0.0,0.0,0.0,0.0,0.0,0.0,0.0,0.0,0.0,0.0
52863725,8,1150.0,1138.0,1137.0,1151.0,1142.0,1146.0,0.0,0.0,0.0,0.0,0.0,0.0,0.0,0.0,0.0,0.0
52967588,8,1147.0,1141.0,1137.0,1151.0,1138.0,1150.0,0.0,0.0,0.0,0.0,0.0,0.0,0.0,0.0,0.0,0.0
53078928,8,1148.0,1140.0,1135.0,1153.0,1139.0,1149.0,0.0,0.0,0.0,0.0,0.0,0.0,0.0,0.0,0.0,0.0
53162802,8,1148.0,1140.0,1139.0,1149.0,1141.0,1147.0,0.0,0.0,0.0,0.0,0.0,0.0,0.0,0.0,0.0,0.0
53274549,8,1152.0,1136.0,1135.0,1153.0,1142.0,1146.0,0.0,0.0,0.0,0.0,0.0,0.0,0.0,0.0,0.0,0.0
53382569,8,1145.0,1143.0,1143.0,1145.0,1143.0,1145.0,0.0,0.0,0.0,0.0,0.0,0.0,0.0,0.0,0.0,0.0
53489758,8,1152.0,1136.0,1136.0,1152.0,1144.0,1144.0,0.0,0.0,0.0,0.0,0.0,0.0,0.0,0.0,0.0,0.0
53574740,8,1144.0,1144.0,1143.0,1145.0,1142.0,1146.0,0.0,0.0,0.0,0.0,0.0,0.0,0.0,0.0,0.0,0.0
53690211,8,1149.0,1139.0,1142.0,1146.0,1147.0,1141.0,0.0,0.0,0.0,0.0,0.0,0.0,0.0,0.0,0.0,0.0
53777752,8,1146.0,1142.0,1140.0,1148.0,1141.0,1147.0,0.0,0.0,0.0,0.0,0.0,0.0,0.0,0.0,0.0,0.0
53885728,8,1148.0,1140.0,1138.0,1150.0,1142.0,1146.0,0.0,0.0,0.0,0.0,0.0,0.0,0.0,0.0,0.0,0.0
53997888,8,1151.0,1137.0,1140.0,1148.0,1146.0,1142.0,0.0,0.0,0.0,0.0,0.0,0.0,0.0,0.0,0.0,0.0
54091348,8,1149.0,1139.0,1134.0,1154.0,1139.0,1149.0,0.0,0.0,0.0,0.0,0.0,0.0,0.0,0.0,0.0,0.0
54181167,8,1148.0,1140.0,1139.0,1149.0,1143.0,1145.0,0.0,0.0,0.0,0.0,0.0,0.0,0.0,0.0,0.0,0.0
54297328,8,1148.0,1140.0,1142.0,1146.0,1146.0,1142.0,0.0,0.0,0.0,0.0,0.0,0.0,0.0,0.0,0.0,0.0
54385123,8,1150.0,1138.0,1137.0,1151.0,1142.0,1146.0,0.0,0.0,0.0,0.0,0.0,0.0,0.0,0.0,0.0,0.0
54496963,8,1149.0,1139.0,1141.0,1147.0,1144.0,1144.0,0.0,0.0,0.0,0.0,0.0,0.0,0.0,0.0,0.0,0.0
54585347,8,1149.0,1139.0,1138.0,1150.0,1142.0,1146.0,0.0,0.0,0.0,0.0,0.0,0.0,0.0,0.0,0.0,0.0
54696382,8,1150.0,1138.0,1135.0,1153.0,1141.0,1147.0,0.0,0.0,0.0,0.0,0.0,0.0,0.0,0.0,0.0,0.0
54808154,8,1152.0,1136.0,1137.0,1151.0,1143.0,1145.0,0.0,0.0,0.0,0.0,0.0,0.0,0.0,0.0,0.0,0.0
54892408,8,1146.0,1142.0,1140.0,1148.0,1142.0,1146.0,0.0,0.0,0.0,0.0,0.0,0.0,0.0,0.0,0.0,0.0
55008211,8,1147.0,1141.0,1143.0,1145.0,1145.0,1143.0,0.0,0.0,0.0,0.0,0.0,0.0,0.0,0.0,0.0,0.0
55096164,8,1148.0,1140.0,1141.0,1147.0,1144.0,1144.0,0.0,0.0,0.0,0.0,0.0,0.0,0.0,0.0,0.0,0.0
55215539,8,1149.0,1139.0,1142.0,1146.0,1145.0,1143.0,0.0,0.0,0.0,0.0,0.0,0.0,0.0,0.0,0.0,0.0
55303482,8,1151.0,1137.0,1138.0,1150.0,1144.0,1144.0,0.0,0.0,0.0,0.0,0.0,0.0,0.0,0.0,0.0,0.0
55411337,8,1152.0,1136.0,1136.0,1152.0,1144.0,1144.0,0.0,0.0,0.0,0.0,0.0,0.0,0.0,0.0,0.0,0.0
55503350,8,1148.0,1140.0,1141.0,1147.0,1144.0,1144.0,0.0,0.0,0.0,0.0,0.0,0.0,0.0,0.0,0.0,0.0
55615352,8,1149.0,1139.0,1137.0,1151.0,1142.0,1146.0,0.0,0.0,0.0,0.0,0.0,0.0,0.0,0.0,0.0,0.0
55706679,8,1151.0,1137.0,1135.0,1153.0,1141.0,1147.0,0.0,0.0,0.0,0.0,0.0,0.0,0.0,0.0,0.0,0.0
55814710,8,1151.0,1137.0,1141.0,1147.0,1147.0,1141.0,0.0,0.0,0.0,0.0,0.0,0.0,0.0,0.0,0.0,0.0
55918525,8,1152.0,1136.0,1136.0,1152.0,1143.0,1145.0,0.0,0.0,0.0,0.0,0.0,0.0,0.0,0.0,0.0,0.0
56026527,8,1150.0,1138.0,1137.0,1151.0,1142.0,1146.0,0.0,0.0,0.0,0.0,0.0,0.0,0.0,0.0,0.0,0.0
56110716,8,1155.0,1134.0,1134.0,1154.0,1144.0,1144.0,0.0,0.0,0.0,0.0,0.0,0.0,0.0,0.0,0.0,0.0
56221728,8,1148.0,1140.0,1139.0,1149.0,1142.0,1146.0,0.0,0.0,0.0,0.0,0.0,0.0,0.0,0.0,0.0,0.0
56329799,8,1153.0,1135.0,1134.0,1154.0,1144.0,1144.0,0.0,0.0,0.0,0.0,0.0,0.0,0.0,0.0,0.0,0.0
56421783,8,1151.0,1137.0,1136.0,1152.0,1140.0,1148.0,0.0,0.0,0.0,0.0,0.0,0.0,0.0,0.0,0.0,0.0
56525938,8,1155.0,1133.0,1134.0,1154.0,1144.0,1144.0,0.0,0.0,0.0,0.0,0.0,0.0,0.0,0.0,0.0,0.0
56637731,8,1146.0,1142.0,1140.0,1148.0,1140.0,1148.0,0.0,0.0,0.0,0.0,0.0,0.0,0.0,0.0,0.0,0.0
56721949,8,1147.0,1141.0,1141.0,1147.0,1143.0,1145.0,0.0,0.0,0.0,0.0,0.0,0.0,0.0,0.0,0.0,0.0
56836968,8,1149.0,1139.0,1137.0,1151.0,1141.0,1147.0,0.0,0.0,0.0,0.0,0.0,0.0,0.0,0.0,0.0,0.0
56932981,8,1156.0,1138.0,1141.0,1147.0,1145.0,1143.0,0.0,0.0,0.0,0.0,0.0,0.0,0.0,0.0,0.0,0.0
57028954,8,1147.0,1141.0,1137.0,1151.0,1140.0,1148.0,0.0,0.0,0.0,0.0,0.0,0.0,0.0,0.0,0.0,0.0
57141138,8,1075.0,1075.0,1075.0,1075.0,1075.0,1075.0,0.0,0.0,0.0,0.0,0.0,0.0,0.0,0.0,0.0,0.0
57233210,8,1075.0,1075.0,1075.0,1075.0,1075.0,1075.0,0.0,0.0,0.0,0.0,0.0,0.0,0.0,0.0,0.0,0.0
57337172,8,1075.0,1075.0,1075.0,1075.0,1075.0,1075.0,0.0,0.0,0.0,0.0,0.0,0.0,0.0,0.0,0.0,0.0
57448945,8,1075.0,1075.0,1075.0,1075.0,1075.0,1075.0,0.0,0.0,0.0,0.0,0.0,0.0,0.0,0.0,0.0,0.0
57536432,8,1075.0,1075.0,1075.0,1075.0,1075.0,1075.0,0.0,0.0,0.0,0.0,0.0,0.0,0.0,0.0,0.0,0.0
57644338,8,1075.0,1075.0,1075.0,1075.0,1075.0,1075.0,0.0,0.0,0.0,0.0,0.0,0.0,0.0,0.0,0.0,0.0
57752371,8,1075.0,1075.0,1075.0,1075.0,1075.0,1075.0,0.0,0.0,0.0,0.0,0.0,0.0,0.0,0.0,0.0,0.0
57848122,8,1075.0,1075.0,1075.0,1075.0,1075.0,1075.0,0.0,0.0,0.0,0.0,0.0,0.0,0.0,0.0,0.0,0.0
57955352,8,1075.0,1075.0,1075.0,1075.0,1075.0,1075.0,0.0,0.0,0.0,0.0,0.0,0.0,0.0,0.0,0.0,0.0
58047638,8,1075.0,1075.0,1075.0,1075.0,1075.0,1075.0,0.0,0.0,0.0,0.0,0.0,0.0,0.0,0.0,0.0,0.0
58155529,8,1075.0,1075.0,1075.0,1075.0,1075.0,1075.0,0.0,0.0,0.0,0.0,0.0,0.0,0.0,0.0,0.0,0.0
58263596,8,1075.0,1075.0,1075.0,1075.0,1075.0,1075.0,0.0,0.0,0.0,0.0,0.0,0.0,0.0,0.0,0.0,0.0
58347462,8,1075.0,1075.0,1075.0,1075.0,1075.0,1075.0,0.0,0.0,0.0,0.0,0.0,0.0,0.0,0.0,0.0,0.0
58465102,8,1075.0,1075.0,1075.0,1075.0,1075.0,1075.0,0.0,0.0,0.0,0.0,0.0,0.0,0.0,0.0,0.0,0.0
58558775,8,1075.0,1075.0,1075.0,1075.0,1075.0,1075.0,0.0,0.0,0.0,0.0,0.0,0.0,0.0,0.0,0.0,0.0
58666790,8,1075.0,1075.0,1075.0,1075.0,1075.0,1075.0,0.0,0.0,0.0,0.0,0.0,0.0,0.0,0.0,0.0,0.0
58754780,8,1075.0,1075.0,1075.0,1075.0,1075.0,1075.0,0.0,0.0,0.0,0.0,0.0,0.0,0.0,0.0,0.0,0.0
58858579,8,1075.0,1075.0,1075.0,1075.0,1075.0,1075.0,0.0,0.0,0.0,0.0,0.0,0.0,0.0,0.0,0.0,0.0
58970739,8,1075.0,1075.0,1075.0,1075.0,1075.0,1075.0,0.0,0.0,0.0,0.0,0.0,0.0,0.0,0.0,0.0,0.0
59057960,8,1075.0,1075.0,1075.0,1075.0,1075.0,1075.0,0.0,0.0,0.0,0.0,0.0,0.0,0.0,0.0,0.0,0.0
59169925,8,1075.0,1075.0,1075.0,1075.0,1075.0,1075.0,0.0,0.0,0.0,0.0,0.0,0.0,0.0,0.0,0.0,0.0
59257808,8,1075.0,1075.0,1075.0,1075.0,1075.0,1075.0,0.0,0.0,0.0,0.0,0.0,0.0,0.0,0.0,0.0,0.0
59365913,8,1075.0,1075.0,1075.0,1075.0,1075.0,1075.0,0.0,0.0,0.0,0.0,0.0,0.0,0.0,0.0,0.0,0.0
59473963,8,1075.0,1075.0,1075.0,1075.0,1075.0,1075.0,0.0,0.0,0.0,0.0,0.0,0.0,0.0,0.0,0.0,0.0
59565354,8,1075.0,1075.0,1075.0,1075.0,1075.0,1075.0,0.0,0.0,0.0,0.0,0.0,0.0,0.0,0.0,0.0,0.0
59677216,8,1075.0,1075.0,1075.0,1075.0,1075.0,1075.0,0.0,0.0,0.0,0.0,0.0,0.0,0.0,0.0,0.0,0.0
59788942,8,1075.0,1075.0,1075.0,1075.0,1075.0,1075.0,0.0,0.0,0.0,0.0,0.0,0.0,0.0,0.0,0.0,0.0
59877150,8,1075.0,1075.0,1075.0,1075.0,1075.0,1075.0,0.0,0.0,0.0,0.0,0.0,0.0,0.0,0.0,0.0,0.0
59985012,8,1075.0,1075.0,1075.0,1075.0,1075.0,1075.0,0.0,0.0,0.0,0.0,0.0,0.0,0.0,0.0,0.0,0.0
60072383,8,1075.0,1075.0,1075.0,1075.0,1075.0,1075.0,0.0,0.0,0.0,0.0,0.0,0.0,0.0,0.0,0.0,0.0
60192155,8,1075.0,1075.0,1075.0,1075.0,1075.0,1075.0,0.0,0.0,0.0,0.0,0.0,0.0,0.0,0.0,0.0,0.0
60284563,8,1075.0,1075.0,1075.0,1075.0,1075.0,1075.0,0.0,0.0,0.0,0.0,0.0,0.0,0.0,0.0,0.0,0.0
60396267,8,1075.0,1075.0,1075.0,1075.0,1075.0,1075.0,0.0,0.0,0.0,0.0,0.0,0.0,0.0,0.0,0.0,0.0
60484261,8,1075.0,1075.0,1075.0,1075.0,1075.0,1075.0,0.0,0.0,0.0,0.0,0.0,0.0,0.0,0.0,0.0,0.0
60580127,8,1075.0,1075.0,1075.0,1075.0,1075.0,1075.0,0.0,0.0,0.0,0.0,0.0,0.0,0.0,0.0,0.0,0.0
60695494,8,1075.0,1075.0,1075.0,1075.0,1075.0,1075.0,0.0,0.0,0.0,0.0,0.0,0.0,0.0,0.0,0.0,0.0
60803346,8,1075.0,1075.0,1075.0,1075.0,1075.0,1075.0,0.0,0.0,0.0,0.0,0.0,0.0,0.0,0.0,0.0,0.0
60891326,8,1075.0,1075.0,1075.0,1075.0,1075.0,1075.0,0.0,0.0,0.0,0.0,0.0,0.0,0.0,0.0,0.0,0.0
60995599,8,1075.0,1075.0,1075.0,1075.0,1075.0,1075.0,0.0,0.0,0.0,0.0,0.0,0.0,0.0,0.0,0.0,0.0
61103529,8,1075.0,1075.0,1075.0,1075.0,1075.0,1075.0,0.0,0.0,0.0,0.0,0.0,0.0,0.0,0.0,0.0,0.0
61206522,8,1075.0,1075.0,1075.0,1075.0,1075.0,1075.0,0.0,0.0,0.0,0.0,0.0,0.0,0.0,0.0,0.0,0.0
61294649,8,1075.0,1075.0,1075.0,1075.0,1075.0,1075.0,0.0,0.0,0.0,0.0,0.0,0.0,0.0,0.0,0.0,0.0
61414731,8,1075.0,1075.0,1075.0,1075.0,1075.0,1075.0,0.0,0.0,0.0,0.0,0.0,0.0,0.0,0.0,0.0,0.0
61506946,8,1075.0,1075.0,1075.0,1075.0,1075.0,1075.0,0.0,0.0,0.0,0.0,0.0,0.0,0.0,0.0,0.0,0.0
61614952,8,1075.0,1075.0,1075.0,1075.0,1075.0,1075.0,0.0,0.0,0.0,0.0,0.0,0.0,0.0,0.0,0.0,0.0
61702023,8,1075.0,1075.0,1075.0,1075.0,1075.0,1075.0,0.0,0.0,0.0,0.0,0.0,0.0,0.0,0.0,0.0,0.0
61817741,8,1075.0,1075.0,1075.0,1075.0,1075.0,1075.0,0.0,0.0,0.0,0.0,0.0,0.0,0.0,0.0,0.0,0.0
61905783,8,1075.0,1075.0,1075.0,1075.0,1075.0,1075.0,0.0,0.0,0.0,0.0,0.0,0.0,0.0,0.0,0.0,0.0
62018026,8,1184.0,1174.0,1173.0,1185.0,1177.0,1181.0,0.0,0.0,0.0,0.0,0.0,0.0,0.0,0.0,0.0,0.0
62105767,8,1185.0,1173.0,1173.0,1185.0,1176.0,1182.0,0.0,0.0,0.0,0.0,0.0,0.0,0.0,0.0,0.0,0.0
62219742,8,1182.0,1176.0,1175.0,1183.0,1178.0,1180.0,0.0,0.0,0.0,0.0,0.0,0.0,0.0,0.0,0.0,0.0
62310582,8,1194.0,1187.0,1185.0,1197.0,1189.0,1192.0,0.0,0.0,0.0,0.0,0.0,0.0,0.0,0.0,0.0,0.0
62424951,8,1230.0,1220.0,1222.0,1228.0,1221.0,1229.0,0.0,0.0,0.0,0.0,0.0,0.0,0.0,0.0,0.0,0.0
62513162,8,1249.0,1245.0,1238.0,1257.0,1244.0,1251.0,0.0,0.0,0.0,0.0,0.0,0.0,0.0,0.0,0.0,0.0
62624964,8,1269.0,1296.0,1291.0,1273.0,1276.0,1288.0,0.0,0.0,0.0,0.0,0.0,0.0,0.0,0.0,0.0,0.0
62712932,8,1335.0,1277.0,1293.0,1320.0,1320.0,1292.0,0.0,0.0,0.0,0.0,0.0,0.0,0.0,0.0,0.0,0.0
62824332,8,1348.0,1335.0,1332.0,1351.0,1335.0,1348.0,0.0,0.0,0.0,0.0,0.0,0.0,0.0,0.0,0.0,0.0
62936285,8,1498.0,1239.0,1274.0,1463.0,1395.0,1342.0,0.0,0.0,0.0,0.0,0.0,0.0,0.0,0.0,0.0,0.0
63024168,8,1474.0,1337.0,1355.0,1456.0,1422.0,1389.0,0.0,0.0,0.0,0.0,0.0,0.0,0.0,0.0,0.0,0.0
63132392,8,1294.0,1572.0,1547.0,1319.0,1405.0,1461.0,0.0,0.0,0.0,0.0,0.0,0.0,0.0,0.0,0.0,0.0
63224289,8,1478.0,1440.0,1518.0,1400.0,1535.0,1383.0,0.0,0.0,0.0,0.0,0.0,0.0,0.0,0.0,0.0,0.0
63335827,8,1476.0,1409.0,1458.0,1428.0,1491.0,1394.0,0.0,0.0,0.0,0.0,0.0,0.0,0.0,0.0,0.0,0.0
63427532,8,1373.0,1504.0,1438.0,1439.0,1372.0,1505.0,0.0,0.0,0.0,0.0,0.0,0.0,0.0,0.0,0.0,0.0
63539532,8,1392.0,1477.0,1480.0,1389.0,1435.0,1434.0,0.0,0.0,0.0,0.0,0.0,0.0,0.0,0.0,0.0,0.0
63647479,8,1390.0,1491.0,1417.0,1464.0,1366.0,1515.0,0.0,0.0,0.0,0.0,0.0,0.0,0.0,0.0,0.0,0.0
63735358,8,1392.0,1487.0,1464.0,1415.0,1417.0,1462.0,0.0,0.0,0.0,0.0,0.0,0.0,0.0,0.0,0.0,0.0
63846529,8,1407.0,1452.0,1516.0,1343.0,1486.0,1373.0,0.0,0.0,0.0,0.0,0.0,0.0,0.0,0.0,0.0,0.0
63950739,8,1321.0,1527.0,1538.0,1311.0,1433.0,1416.0,0.0,0.0,0.0,0.0,0.0,0.0,0.0,0.0,0.0,0.0
64038747,8,1443.0,1411.0,1344.0,1510.0,1368.0,1486.0,0.0,0.0,0.0,0.0,0.0,0.0,0.0,0.0,0.0,0.0
64150709,8,1376.0,1453.0,1487.0,1342.0,1458.0,1371.0,0.0,0.0,0.0,0.0,0.0,0.0,0.0,0.0,0.0,0.0
64234954,8,1313.0,1513.0,1464.0,1363.0,1365.0,1462.0,0.0,0.0,0.0,0.0,0.0,0.0,0.0,0.0,0.0,0.0
64346577,8,1323.0,1498.0,1445.0,1376.0,1358.0,1463.0,0.0,0.0,0.0,0.0,0.0,0.0,0.0,0.0,0.0,0.0
64450163,8,1537.0,1279.0,1268.0,1548.0,1397.0,1419.0,0.0,0.0,0.0,0.0,0.0,0.0,0.0,0.0,0.0,0.0
64537770,8,1322.0,1488.0,1468.0,1342.0,1377.0,1433.0,0.0,0.0,0.0,0.0,0.0,0.0,0.0,0.0,0.0,0.0
64650026,8,1335.0,1481.0,1501.0,1316.0,1423.0,1394.0,0.0,0.0,0.0,0.0,0.0,0.0,0.0,0.0,0.0,0.0
64757929,8,1423.0,1389.0,1408.0,1404.0,1435.0,1377.0,0.0,0.0,0.0,0.0,0.0,0.0,0.0,0.0,0.0,0.0
64861972,8,1343.0,1465.0,1419.0,1389.0,1348.0,1460.0,0.0,0.0,0.0,0.0,0.0,0.0,0.0,0.0,0.0,0.0
64949109,8,1291.0,1514.0,1504.0,1448.0,1433.0,1372.0,0.0,0.0,0.0,0.0,0.0,0.0,0.0,0.0,0.0,0.0
65064960,8,1285.0,1523.0,1521.0,1287.0,1403.0,1406.0,0.0,0.0,0.0,0.0,0.0,0.0,0.0,0.0,0.0,0.0
65153143,8,1439.0,1370.0,1303.0,1507.0,1339.0,1471.0,0.0,0.0,0.0,0.0,0.0,0.0,0.0,0.0,0.0,0.0
65264955,8,1365.0,1443.0,1402.0,1405.0,1363.0,1445.0,0.0,0.0,0.0,0.0,0.0,0.0,0.0,0.0,0.0,0.0
65369147,8,1319.0,1492.0,1437.0,1374.0,1353.0,1458.0,0.0,0.0,0.0,0.0,0.0,0.0,0.0,0.0,0.0,0.0
65464967,8,1354.0,1452.0,1398.0,1408.0,1344.0,1461.0,0.0,0.0,0.0,0.0,0.0,0.0,0.0,0.0,0.0,0.0
65556346,8,1487.0,1317.0,1342.0,1462.0,1427.0,1377.0,0.0,0.0,0.0,0.0,0.0,0.0,0.0,0.0,0.0,0.0
65664329,8,1363.0,1442.0,1397.0,1408.0,1360.0,1444.0,0.0,0.0,0.0,0.0,0.0,0.0,0.0,0.0,0.0,0.0
65776265,8,1349.0,1444.0,1360.0,1432.0,1316.0,1476.0,0.0,0.0,0.0,0.0,0.0,0.0,0.0,0.0,0.0,0.0
65860401,8,1334.0,1448.0,1426.0,1355.0,1369.0,1412.0,0.0,0.0,0.0,0.0,0.0,0.0,0.0,0.0,0.0,0.0
65967538,8,1503.0,1279.0,1296.0,1487.0,1415.0,1367.0,0.0,0.0,0.0,0.0,0.0,0.0,0.0,0.0,0.0,0.0
66071370,8,1344.0,1434.0,1380.0,1399.0,1344.0,1434.0,0.0,0.0,0.0,0.0,0.0,0.0,0.0,0.0,0.0,0.0
66179366,8,1355.0,1414.0,1421.0,1348.0,1396.0,1373.0,0.0,0.0,0.0,0.0,0.0,0.0,0.0,0.0,0.0,0.0
66267475,8,1503.0,1247.0,1296.0,1454.0,1421.0,1328.0,0.0,0.0,0.0,0.0,0.0,0.0,0.0,0.0,0.0,0.0
66383338,8,1426.0,1288.0,1310.0,1404.0,1379.0,1335.0,0.0,0.0,0.0,0.0,0.0,0.0,0.0,0.0,0.0,0.0
66475373,8,1314.0,1370.0,1366.0,1319.0,1344.0,1341.0,0.0,0.0,0.0,0.0,0.0,0.0,0.0,0.0,0.0,0.0
66583465,8,1327.0,1320.0,1297.0,1350.0,1309.0,1338.0,0.0,0.0,0.0,0.0,0.0,0.0,0.0,0.0,0.0,0.0
66670580,8,1291.0,1325.0,1330.0,1286.0,1318.0,1298.0,0.0,0.0,0.0,0.0,0.0,0.0,0.0,0.0,0.0,0.0
66782700,8,1075.0,1075.0,1075.0,1075.0,1075.0,1075.0,0.0,0.0,0.0,0.0,0.0,0.0,0.0,0.0,0.0,0.0
66890566,8,1075.0,1075.0,1075.0,1075.0,1075.0,1075.0,0.0,0.0,0.0,0.0,0.0,0.0,0.0,0.0,0.0,0.0
66982559,8,1075.0,1075.0,1075.0,1075.0,1075.0,1075.0,0.0,0.0,0.0,0.0,0.0,0.0,0.0,0.0,0.0,0.0
67093977,8,1075.0,1075.0,1075.0,1075.0,1075.0,1075.0,0.0,0.0,0.0,0.0,0.0,0.0,0.0,0.0,0.0,0.0
67185968,8,1075.0,1075.0,1075.0,1075.0,1075.0,1075.0,0.0,0.0,0.0,0.0,0.0,0.0,0.0,0.0,0.0,0.0
67293965,8,1075.0,1075.0,1075.0,1075.0,1075.0,1075.0,0.0,0.0,0.0,0.0,0.0,0.0,0.0,0.0,0.0,0.0
67385748,8,1075.0,1075.0,1075.0,1075.0,1075.0,1075.0,0.0,0.0,0.0,0.0,0.0,0.0,0.0,0.0,0.0,0.0
67497728,8,1075.0,1075.0,1075.0,1075.0,1075.0,1075.0,0.0,0.0,0.0,0.0,0.0,0.0,0.0,0.0,0.0,0.0
67590051,8,1075.0,1075.0,1075.0,1075.0,1075.0,1075.0,0.0,0.0,0.0,0.0,0.0,0.0,0.0,0.0,0.0,0.0
67704957,8,1075.0,1075.0,1075.0,1075.0,1075.0,1075.0,0.0,0.0,0.0,0.0,0.0,0.0,0.0,0.0,0.0,0.0
67793353,8,1075.0,1075.0,1075.0,1075.0,1075.0,1075.0,0.0,0.0,0.0,0.0,0.0,0.0,0.0,0.0,0.0,0.0
67905076,8,1075.0,1075.0,1075.0,1075.0,1075.0,1075.0,0.0,0.0,0.0,0.0,0.0,0.0,0.0,0.0,0.0,0.0
67993212,8,1075.0,1075.0,1075.0,1075.0,1075.0,1075.0,0.0,0.0,0.0,0.0,0.0,0.0,0.0,0.0,0.0,0.0
68104953,8,1075.0,1075.0,1075.0,1075.0,1075.0,1075.0,0.0,0.0,0.0,0.0,0.0,0.0,0.0,0.0,0.0,0.0
68216197,8,1075.0,1075.0,1075.0,1075.0,1075.0,1075.0,0.0,0.0,0.0,0.0,0.0,0.0,0.0,0.0,0.0,0.0
68304268,8,1075.0,1075.0,1075.0,1075.0,1075.0,1075.0,0.0,0.0,0.0,0.0,0.0,0.0,0.0,0.0,0.0,0.0
68412291,8,1075.0,1075.0,1075.0,1075.0,1075.0,1075.0,0.0,0.0,0.0,0.0,0.0,0.0,0.0,0.0,0.0,0.0
68500272,8,1075.0,1075.0,1075.0,1075.0,1075.0,1075.0,0.0,0.0,0.0,0.0,0.0,0.0,0.0,0.0,0.0,0.0
68608313,8,1075.0,1075.0,1075.0,1075.0,1075.0,1075.0,0.0,0.0,0.0,0.0,0.0,0.0,0.0,0.0,0.0,0.0
68719531,8,1075.0,1075.0,1075.0,1075.0,1075.0,1075.0,0.0,0.0,0.0,0.0,0.0,0.0,0.0,0.0,0.0,0.0
68807626,8,1075.0,1075.0,1075.0,1075.0,1075.0,1075.0,0.0,0.0,0.0,0.0,0.0,0.0,0.0,0.0,0.0,0.0
68919340,8,1075.0,1075.0,1075.0,1075.0,1075.0,1075.0,0.0,0.0,0.0,0.0,0.0,0.0,0.0,0.0,0.0,0.0
69007532,8,1075.0,1075.0,1075.0,1075.0,1075.0,1075.0,0.0,0.0,0.0,0.0,0.0,0.0,0.0,0.0,0.0,0.0
69119321,8,1075.0,1075.0,1075.0,1075.0,1075.0,1075.0,0.0,0.0,0.0,0.0,0.0,0.0,0.0,0.0,0.0,0.0
69210777,8,1075.0,1075.0,1075.0,1075.0,1075.0,1075.0,0.0,0.0,0.0,0.0,0.0,0.0,0.0,0.0,0.0,0.0
69323348,8,1075.0,1075.0,1075.0,1075.0,1075.0,1075.0,0.0,0.0,0.0,0.0,0.0,0.0,0.0,0.0,0.0,0.0
69414743,8,1075.0,1075.0,1075.0,1075.0,1075.0,1075.0,0.0,0.0,0.0,0.0,0.0,0.0,0.0,0.0,0.0,0.0
69522701,8,1075.0,1075.0,1075.0,1075.0,1075.0,1075.0,0.0,0.0,0.0,0.0,0.0,0.0,0.0,0.0,0.0,0.0
69626947,8,1075.0,1075.0,1075.0,1075.0,1075.0,1075.0,0.0,0.0,0.0,0.0,0.0,0.0,0.0,0.0,0.0,0.0
69737187,8,1075.0,1075.0,1075.0,1075.0,1075.0,1075.0,0.0,0.0,0.0,0.0,0.0,0.0,0.0,0.0,0.0,0.0
69826517,8,1075.0,1075.0,1075.0,1075.0,1075.0,1075.0,0.0,0.0,0.0,0.0,0.0,0.0,0.0,0.0,0.0,0.0
69933748,8,1075.0,1075.0,1075.0,1075.0,1075.0,1075.0,0.0,0.0,0.0,0.0,0.0,0.0,0.0,0.0,0.0,0.0
70025873,8,1075.0,1075.0,1075.0,1075.0,1075.0,1075.0,0.0,0.0,0.0,0.0,0.0,0.0,0.0,0.0,0.0,0.0
70133875,8,1075.0,1075.0,1075.0,1075.0,1075.0,1075.0,0.0,0.0,0.0,0.0,0.0,0.0,0.0,0.0,0.0,0.0
70241963,8,1075.0,1075.0,1075.0,1075.0,1075.0,1075.0,0.0,0.0,0.0,0.0,0.0,0.0,0.0,0.0,0.0,0.0
70329078,8,1075.0,1075.0,1075.0,1075.0,1075.0,1075.0,0.0,0.0,0.0,0.0,0.0,0.0,0.0,0.0,0.0,0.0
70441193,8,1075.0,1075.0,1075.0,1075.0,1075.0,1075.0,0.0,0.0,0.0,0.0,0.0,0.0,0.0,0.0,0.0,0.0
70548918,8,1075.0,1075.0,1075.0,1075.0,1075.0,1075.0,0.0,0.0,0.0,0.0,0.0,0.0,0.0,0.0,0.0,0.0
70641150,8,1075.0,1075.0,1075.0,1075.0,1075.0,1075.0,0.0,0.0,0.0,0.0,0.0,0.0,0.0,0.0,0.0,0.0
70749061,8,1075.0,1075.0,1075.0,1075.0,1075.0,1075.0,0.0,0.0,0.0,0.0,0.0,0.0,0.0,0.0,0.0,0.0
70836928,8,1075.0,1075.0,1075.0,1075.0,1075.0,1075.0,0.0,0.0,0.0,0.0,0.0,0.0,0.0,0.0,0.0,0.0
70944372,8,1075.0,1075.0,1075.0,1075.0,1075.0,1075.0,0.0,0.0,0.0,0.0,0.0,0.0,0.0,0.0,0.0,0.0
71056278,8,1075.0,1075.0,1075.0,1075.0,1075.0,1075.0,0.0,0.0,0.0,0.0,0.0,0.0,0.0,0.0,0.0,0.0
71144341,8,1075.0,1075.0,1075.0,1075.0,1075.0,1075.0,0.0,0.0,0.0,0.0,0.0,0.0,0.0,0.0,0.0,0.0
71252323,8,1075.0,1075.0,1075.0,1075.0,1075.0,1075.0,0.0,0.0,0.0,0.0,0.0,0.0,0.0,0.0,0.0,0.0
71360327,8,1075.0,1075.0,1075.0,1075.0,1075.0,1075.0,0.0,0.0,0.0,0.0,0.0,0.0,0.0,0.0,0.0,0.0
71447504,8,1075.0,1075.0,1075.0,1075.0,1075.0,1075.0,0.0,0.0,0.0,0.0,0.0,0.0,0.0,0.0,0.0,0.0
71551564,8,1075.0,1075.0,1075.0,1075.0,1075.0,1075.0,0.0,0.0,0.0,0.0,0.0,0.0,0.0,0.0,0.0,0.0
71659347,8,1075.0,1075.0,1075.0,1075.0,1075.0,1075.0,0.0,0.0,0.0,0.0,0.0,0.0,0.0,0.0,0.0,0.0
71763497,8,1075.0,1075.0,1075.0,1075.0,1075.0,1075.0,0.0,0.0,0.0,0.0,0.0,0.0,0.0,0.0,0.0,0.0
71851750,8,1075.0,1075.0,1075.0,1075.0,1075.0,1075.0,0.0,0.0,0.0,0.0,0.0,0.0,0.0,0.0,0.0,0.0
71958197,8,1075.0,1075.0,1075.0,1075.0,1075.0,1075.0,0.0,0.0,0.0,0.0,0.0,0.0,0.0,0.0,0.0,0.0
72070773,8,1075.0,1075.0,1075.0,1075.0,1075.0,1075.0,0.0,0.0,0.0,0.0,0.0,0.0,0.0,0.0,0.0,0.0
72166771,8,1075.0,1075.0,1075.0,1075.0,1075.0,1075.0,0.0,0.0,0.0,0.0,0.0,0.0,0.0,0.0,0.0,0.0
72270562,8,1075.0,1075.0,1075.0,1075.0,1075.0,1075.0,0.0,0.0,0.0,0.0,0.0,0.0,0.0,0.0,0.0,0.0
72374805,8,1075.0,1075.0,1075.0,1075.0,1075.0,1075.0,0.0,0.0,0.0,0.0,0.0,0.0,0.0,0.0,0.0,0.0
72462663,8,1075.0,1075.0,1075.0,1075.0,1075.0,1075.0,0.0,0.0,0.0,0.0,0.0,0.0,0.0,0.0,0.0,0.0
72573764,8,1075.0,1075.0,1075.0,1075.0,1075.0,1075.0,0.0,0.0,0.0,0.0,0.0,0.0,0.0,0.0,0.0,0.0
72665743,8,1075.0,1075.0,1075.0,1075.0,1075.0,1075.0,0.0,0.0,0.0,0.0,0.0,0.0,0.0,0.0,0.0,0.0
72765927,8,1075.0,1075.0,1075.0,1075.0,1075.0,1075.0,0.0,0.0,0.0,0.0,0.0,0.0,0.0,0.0,0.0,0.0
72881757,8,1075.0,1075.0,1075.0,1075.0,1075.0,1075.0,0.0,0.0,0.0,0.0,0.0,0.0,0.0,0.0,0.0,0.0
72973992,8,1075.0,1075.0,1075.0,1075.0,1075.0,1075.0,0.0,0.0,0.0,0.0,0.0,0.0,0.0,0.0,0.0,0.0
73084918,8,1075.0,1075.0,1075.0,1075.0,1075.0,1075.0,0.0,0.0,0.0,0.0,0.0,0.0,0.0,0.0,0.0,0.0
73168977,8,1075.0,1075.0,1075.0,1075.0,1075.0,1075.0,0.0,0.0,0.0,0.0,0.0,0.0,0.0,0.0,0.0,0.0
73285367,8,1075.0,1075.0,1075.0,1075.0,1075.0,1075.0,0.0,0.0,0.0,0.0,0.0,0.0,0.0,0.0,0.0,0.0
73373140,8,1182.0,1176.0,1168.0,1190.0,1173.0,1185.0,0.0,0.0,0.0,0.0,0.0,0.0,0.0,0.0,0.0,0.0
73485162,8,1182.0,1176.0,1169.0,1189.0,1173.0,1185.0,0.0,0.0,0.0,0.0,0.0,0.0,0.0,0.0,0.0,0.0
73577117,8,1185.0,1173.0,1168.0,1190.0,1171.0,1187.0,0.0,0.0,0.0,0.0,0.0,0.0,0.0,0.0,0.0,0.0
73692372,8,1189.0,1179.0,1173.0,1195.0,1178.0,1189.0,0.0,0.0,0.0,0.0,0.0,0.0,0.0,0.0,0.0,0.0
73780401,8,1210.0,1203.0,1195.0,1217.0,1201.0,1212.0,0.0,0.0,0.0,0.0,0.0,0.0,0.0,0.0,0.0,0.0
73888361,8,1235.0,1237.0,1226.0,1246.0,1226.0,1245.0,0.0,0.0,0.0,0.0,0.0,0.0,0.0,0.0,0.0,0.0
73980350,8,1252.0,1280.0,1263.0,1269.0,1252.0,1281.0,0.0,0.0,0.0,0.0,0.0,0.0,0.0,0.0,0.0,0.0
74091543,8,1333.0,1272.0,1285.0,1321.0,1292.0,1314.0,0.0,0.0,0.0,0.0,0.0,0.0,0.0,0.0,0.0,0.0
74203553,8,1325.0,1342.0,1325.0,1342.0,1315.0,1352.0,0.0,0.0,0.0,0.0,0.0,0.0,0.0,0.0,0.0,0.0
74287371,8,1345.0,1371.0,1363.0,1353.0,1347.0,1369.0,0.0,0.0,0.0,0.0,0.0,0.0,0.0,0.0,0.0,0.0
74391344,8,1396.0,1388.0,1341.0,1443.0,1351.0,1433.0,0.0,0.0,0.0,0.0,0.0,0.0,0.0,0.0,0.0,0.0
74495514,8,1495.0,1349.0,1412.0,1431.0,1488.0,1356.0,0.0,0.0,0.0,0.0,0.0,0.0,0.0,0.0,0.0,0.0
74587536,8,1469.0,1424.0,1414.0,1479.0,1433.0,1459.0,0.0,0.0,0.0,0.0,0.0,0.0,0.0,0.0,0.0,0.0
74698551,8,1520.0,1447.0,1432.0,1535.0,1457.0,1511.0,0.0,0.0,0.0,0.0,0.0,0.0,0.0,0.0,0.0,0.0
74794947,8,1441.0,1582.0,1549.0,1474.0,1456.0,1567.0,0.0,0.0,0.0,0.0,0.0,0.0,0.0,0.0,0.0,0.0
74902925,8,1548.0,1498.0,1587.0,1459.0,1579.0,1468.0,0.0,0.0,0.0,0.0,0.0,0.0,0.0,0.0,0.0,0.0
75006792,8,1537.0,1508.0,1504.0,1541.0,1470.0,1574.0,0.0,0.0,0.0,0.0,0.0,0.0,0.0,0.0,0.0,0.0
75114570,8,1562.0,1444.0,1461.0,1545.0,1492.0,1514.0,0.0,0.0,0.0,0.0,0.0,0.0,0.0,0.0,0.0,0.0
75201932,8,1547.0,1413.0,1466.0,1494.0,1498.0,1462.0,0.0,0.0,0.0,0.0,0.0,0.0,0.0,0.0,0.0,0.0
75309897,8,1488.0,1446.0,1567.0,1367.0,1542.0,1392.0,0.0,0.0,0.0,0.0,0.0,0.0,0.0,0.0,0.0,0.0
75413765,8,1487.0,1516.0,1580.0,1422.0,1529.0,1473.0,0.0,0.0,0.0,0.0,0.0,0.0,0.0,0.0,0.0,0.0
75521918,8,1460.0,1611.0,1556.0,1515.0,1441.0,1630.0,0.0,0.0,0.0,0.0,0.0,0.0,0.0,0.0,0.0,0.0
75622150,8,1566.0,1503.0,1566.0,1503.0,1556.0,1513.0,0.0,0.0,0.0,0.0,0.0,0.0,0.0,0.0,0.0,0.0
75709899,8,1554.0,1461.0,1463.0,1553.0,1469.0,1546.0,0.0,0.0,0.0,0.0,0.0,0.0,0.0,0.0,0.0,0.0
75825179,8,1402.0,1574.0,1472.0,1504.0,1341.0,1635.0,0.0,0.0,0.0,0.0,0.0,0.0,0.0,0.0,0.0,0.0
75916957,8,1573.0,1436.0,1477.0,1532.0,1510.0,1500.0,0.0,0.0,0.0,0.0,0.0,0.0,0.0,0.0,0.0,0.0
76028974,8,1607.0,1403.0,1494.0,1516.0,1559.0,1452.0,0.0,0.0,0.0,0.0,0.0,0.0,0.0,0.0,0.0,0.0
76117065,8,1475.0,1554.0,1519.0,1511.0,1450.0,1579.0,0.0,0.0,0.0,0.0,0.0,0.0,0.0,0.0,0.0,0.0
76228165,8,1501.0,1533.0,1571.0,1463.0,1522.0,1512.0,0.0,0.0,0.0,0.0,0.0,0.0,0.0,0.0,0.0,0.0
76336163,8,1529.0,1511.0,1482.0,1558.0,1465.0,1575.0,0.0,0.0,0.0,0.0,0.0,0.0,0.0,0.0,0.0,0.0
76440311,8,1436.0,1602.0,1492.0,1546.0,1387.0,1650.0,0.0,0.0,0.0,0.0,0.0,0.0,0.0,0.0,0.0,0.0
76528137,8,1466.0,1573.0,1516.0,1522.0,1437.0,1602.0,0.0,0.0,0.0,0.0,0.0,0.0,0.0,0.0,0.0,0.0
76636155,8,1478.0,1534.0,1572.0,1440.0,1513.0,1498.0,0.0,0.0,0.0,0.0,0.0,0.0,0.0,0.0,0.0,0.0
76728383,8,1488.0,1522.0,1563.0,1447.0,1508.0,1502.0,0.0,0.0,0.0,0.0,0.0,0.0,0.0,0.0,0.0,0.0
76839342,8,1525.0,1498.0,1481.0,1542.0,1467.0,1556.0,0.0,0.0,0.0,0.0,0.0,0.0,0.0,0.0,0.0,0.0
76939380,8,1500.0,1408.0,1437.0,1568.0,1495.0,1510.0,0.0,0.0,0.0,0.0,0.0,0.0,0.0,0.0,0.0,0.0
77031644,8,1540.0,1463.0,1482.0,1478.0,1490.0,1509.0,0.0,0.0,0.0,0.0,0.0,0.0,0.0,0.0,0.0,0.0
77139349,8,1545.0,1475.0,1565.0,1455.0,1566.0,1455.0,0.0,0.0,0.0,0.0,0.0,0.0,0.0,0.0,0.0,0.0
77247485,8,1549.0,1487.0,1476.0,1561.0,1467.0,1569.0,0.0,0.0,0.0,0.0,0.0,0.0,0.0,0.0,0.0,0.0
77338518,8,1450.0,1558.0,1528.0,1480.0,1439.0,1569.0,0.0,0.0,0.0,0.0,0.0,0.0,0.0,0.0,0.0,0.0
77442788,8,1486.0,1549.0,1607.0,1428.0,1537.0,1497.0,0.0,0.0,0.0,0.0,0.0,0.0,0.0,0.0,0.0,0.0
77550724,8,1476.0,1579.0,1627.0,1429.0,1536.0,1519.0,0.0,0.0,0.0,0.0,0.0,0.0,0.0,0.0,0.0,0.0
77654730,8,1539.0,1516.0,1517.0,1538.0,1505.0,1550.0,0.0,0.0,0.0,0.0,0.0,0.0,0.0,0.0,0.0,0.0
77762564,8,1528.0,1674.0,1682.0,1519.0,1570.0,1631.0,0.0,0.0,0.0,0.0,0.0,0.0,0.0,0.0,0.0,0.0
77850156,8,1569.0,1539.0,1546.0,1562.0,1518.0,1590.0,0.0,0.0,0.0,0.0,0.0,0.0,0.0,0.0,0.0,0.0
77955747,8,1498.0,1433.0,1394.0,1538.0,1394.0,1538.0,0.0,0.0,0.0,0.0,0.0,0.0,0.0,0.0,0.0,0.0
78049895,8,1508.0,1455.0,1419.0,1544.0,1405.0,1558.0,0.0,0.0,0.0,0.0,0.0,0.0,0.0,0.0,0.0,0.0
78162011,8,1428.0,1546.0,1526.0,1448.0,1433.0,1541.0,0.0,0.0,0.0,0.0,0.0,0.0,0.0,0.0,0.0,0.0
78266000,8,1571.0,1464.0,1435.0,1600.0,1439.0,1596.0,0.0,0.0,0.0,0.0,0.0,0.0,0.0,0.0,0.0,0.0
78357949,8,1527.0,1547.0,1561.0,1513.0,1516.0,1558.0,0.0,0.0,0.0,0.0,0.0,0.0,0.0,0.0,0.0,0.0
78472947,8,1599.0,1459.0,1479.0,1580.0,1514.0,1545.0,0.0,0.0,0.0,0.0,0.0,0.0,0.0,0.0,0.0,0.0
78565366,8,1446.0,1587.0,1521.0,1513.0,1424.0,1609.0,0.0,0.0,0.0,0.0,0.0,0.0,0.0,0.0,0.0,0.0
78676944,8,1451.0,1586.0,1480.0,1557.0,1379.0,1659.0,0.0,0.0,0.0,0.0,0.0,0.0,0.0,0.0,0.0,0.0
78764954,8,1553.0,1484.0,1516.0,1522.0,1515.0,1523.0,0.0,0.0,0.0,0.0,0.0,0.0,0.0,0.0,0.0,0.0
78873140,8,1569.0,1456.0,1441.0,1584.0,1468.0,1558.0,0.0,0.0,0.0,0.0,0.0,0.0,0.0,0.0,0.0,0.0
78968330,8,1486.0,1540.0,1509.0,1517.0,1445.0,1581.0,0.0,0.0,0.0,0.0,0.0,0.0,0.0,0.0,0.0,0.0
79060127,8,1504.0,1531.0,1454.0,1581.0,1412.0,1623.0,0.0,0.0,0.0,0.0,0.0,0.0,0.0,0.0,0.0,0.0
79172354,8,1518.0,1541.0,1594.0,1465.0,1570.0,1489.0,0.0,0.0,0.0,0.0,0.0,0.0,0.0,0.0,0.0,0.0
79280170,8,1608.0,1466.0,1466.0,1608.0,1509.0,1565.0,0.0,0.0,0.0,0.0,0.0,0.0,0.0,0.0,0.0,0.0
79368156,8,1584.0,1464.0,1447.0,1602.0,1481.0,1568.0,0.0,0.0,0.0,0.0,0.0,0.0,0.0,0.0,0.0,0.0
79474772,8,1467.0,1559.0,1608.0,1418.0,1542.0,1484.0,0.0,0.0,0.0,0.0,0.0,0.0,0.0,0.0,0.0,0.0
79583370,8,1606.0,1442.0,1502.0,1546.0,1543.0,1505.0,0.0,0.0,0.0,0.0,0.0,0.0,0.0,0.0,0.0,0.0
79671533,8,1544.0,1519.0,1492.0,1571.0,1483.0,1580.0,0.0,0.0,0.0,0.0,0.0,0.0,0.0,0.0,0.0,0.0
79783407,8,1602.0,1446.0,1411.0,1637.0,1462.0,1586.0,0.0,0.0,0.0,0.0,0.0,0.0,0.0,0.0,0.0,0.0
79875368,8,1602.0,1447.0,1484.0,1566.0,1540.0,1509.0,0.0,0.0,0.0,0.0,0.0,0.0,0.0,0.0,0.0,0.0
79987460,8,1535.0,1498.0,1459.0,1574.0,1465.0,1568.0,0.0,0.0,0.0,0.0,0.0,0.0,0.0,0.0,0.0,0.0
80078735,8,1596.0,1445.0,1485.0,1555.0,1539.0,1501.0,0.0,0.0,0.0,0.0,0.0,0.0,0.0,0.0,0.0,0.0
80190675,8,1496.0,1549.0,1486.0,1559.0,1437.0,1608.0,0.0,0.0,0.0,0.0,0.0,0.0,0.0,0.0,0.0,0.0
80302678,8,1571.0,1498.0,1580.0,1490.0,1599.0,1471.0,0.0,0.0,0.0,0.0,0.0,0.0,0.0,0.0,0.0,0.0
80390751,8,1593.0,1467.0,1511.0,1550.0,1551.0,1509.0,0.0,0.0,0.0,0.0,0.0,0.0,0.0,0.0,0.0,0.0
80502759,8,1486.0,1538.0,1547.0,1478.0,1503.0,1522.0,0.0,0.0,0.0,0.0,0.0,0.0,0.0,0.0,0.0,0.0
80589968,8,1527.0,1500.0,1554.0,1473.0,1541.0,1486.0,0.0,0.0,0.0,0.0,0.0,0.0,0.0,0.0,0.0,0.0
80697961,8,1552.0,1479.0,1476.0,1555.0,1482.0,1548.0,0.0,0.0,0.0,0.0,0.0,0.0,0.0,0.0,0.0,0.0
80809767,8,1492.0,1545.0,1551.0,1486.0,1499.0,1538.0,0.0,0.0,0.0,0.0,0.0,0.0,0.0,0.0,0.0,0.0
80897731,8,1489.0,1554.0,1516.0,1527.0,1459.0,1584.0,0.0,0.0,0.0,0.0,0.0,0.0,0.0,0.0,0.0,0.0
81010153,8,1620.0,1451.0,1517.0,1555.0,1564.0,1508.0,0.0,0.0,0.0,0.0,0.0,0.0,0.0,0.0,0.0,0.0
81096201,8,1554.0,1511.0,1502.0,1563.0,1506.0,1559.0,0.0,0.0,0.0,0.0,0.0,0.0,0.0,0.0,0.0,0.0
81208951,8,1506.0,1533.0,1559.0,1480.0,1520.0,1520.0,0.0,0.0,0.0,0.0,0.0,0.0,0.0,0.0,0.0,0.0
81317146,8,1534.0,1505.0,1455.0,1584.0,1458.0,1581.0,0.0,0.0,0.0,0.0,0.0,0.0,0.0,0.0,0.0,0.0
81409119,8,1585.0,1458.0,1479.0,1564.0,1527.0,1517.0,0.0,0.0,0.0,0.0,0.0,0.0,0.0,0.0,0.0,0.0
81521147,8,1520.0,1516.0,1495.0,1540.0,1474.0,1562.0,0.0,0.0,0.0,0.0,0.0,0.0,0.0,0.0,0.0,0.0
81624320,8,1524.0,1516.0,1481.0,1559.0,1468.0,1572.0,0.0,0.0,0.0,0.0,0.0,0.0,0.0,0.0,0.0,0.0
81716945,8,1582.0,1461.0,1506.0,1536.0,1539.0,1503.0,0.0,0.0,0.0,0.0,0.0,0.0,0.0,0.0,0.0,0.0
81808200,8,1527.0,1513.0,1462.0,1578.0,1450.0,1590.0,0.0,0.0,0.0,0.0,0.0,0.0,0.0,0.0,0.0,0.0
81924149,8,1598.0,1445.0,1494.0,1549.0,1543.0,1500.0,0.0,0.0,0.0,0.0,0.0,0.0,0.0,0.0,0.0,0.0
82012181,8,1516.0,1532.0,1542.0,1506.0,1504.0,1544.0,0.0,0.0,0.0,0.0,0.0,0.0,0.0,0.0,0.0,0.0
82116164,8,1507.0,1552.0,1579.0,1480.0,1522.0,1536.0,0.0,0.0,0.0,0.0,0.0,0.0,0.0,0.0,0.0,0.0
82227325,8,1509.0,1540.0,1543.0,1506.0,1489.0,1560.0,0.0,0.0,0.0,0.0,0.0,0.0,0.0,0.0,0.0,0.0
82311464,8,1597.0,1433.0,1479.0,1551.0,1533.0,1497.0,0.0,0.0,0.0,0.0,0.0,0.0,0.0,0.0,0.0,0.0
82423371,8,1572.0,1466.0,1518.0,1520.0,1535.0,1504.0,0.0,0.0,0.0,0.0,0.0,0.0,0.0,0.0,0.0,0.0
82535513,8,1557.0,1486.0,1483.0,1560.0,1484.0,1559.0,0.0,0.0,0.0,0.0,0.0,0.0,0.0,0.0,0.0,0.0
82619544,8,1496.0,1547.0,1580.0,1463.0,1505.0,1538.0,0.0,0.0,0.0,0.0,0.0,0.0,0.0,0.0,0.0,0.0
82731592,8,1489.0,1568.0,1590.0,1468.0,1499.0,1559.0,0.0,0.0,0.0,0.0,0.0,0.0,0.0,0.0,0.0,0.0
82822555,8,1540.0,1530.0,1504.0,1565.0,1465.0,1605.0,0.0,0.0,0.0,0.0,0.0,0.0,0.0,0.0,0.0,0.0
82934741,8,1606.0,1461.0,1448.0,1619.0,1477.0,1590.0,0.0,0.0,0.0,0.0,0.0,0.0,0.0,0.0,0.0,0.0
83022982,8,1597.0,1472.0,1451.0,1618.0,1465.0,1604.0,0.0,0.0,0.0,0.0,0.0,0.0,0.0,0.0,0.0,0.0
83134843,8,1517.0,1526.0,1564.0,1479.0,1523.0,1520.0,0.0,0.0,0.0,0.0,0.0,0.0,0.0,0.0,0.0,0.0
83226519,8,1555.0,1475.0,1501.0,1530.0,1498.0,1533.0,0.0,0.0,0.0,0.0,0.0,0.0,0.0,0.0,0.0,0.0
83337952,8,1496.0,1552.0,1556.0,1491.0,1498.0,1550.0,0.0,0.0,0.0,0.0,0.0,0.0,0.0,0.0,0.0,0.0
83449923,8,1484.0,1565.0,1604.0,1522.0,1488.0,1561.0,0.0,0.0,0.0,0.0,0.0,0.0,0.0,0.0,0.0,0.0
83553762,8,1462.0,1594.0,1517.0,1539.0,1427.0,1630.0,0.0,0.0,0.0,0.0,0.0,0.0,0.0,0.0,0.0,0.0
83657722,8,1438.0,1638.0,1556.0,1521.0,1436.0,1641.0,0.0,0.0,0.0,0.0,0.0,0.0,0.0,0.0,0.0,0.0
83745134,8,1507.0,1555.0,1578.0,1485.0,1518.0,1544.0,0.0,0.0,0.0,0.0,0.0,0.0,0.0,0.0,0.0,0.0
83864932,8,1436.0,1606.0,1547.0,1495.0,1441.0,1600.0,0.0,0.0,0.0,0.0,0.0,0.0,0.0,0.0,0.0,0.0
83957352,8,1480.0,1568.0,1613.0,1435.0,1545.0,1503.0,0.0,0.0,0.0,0.0,0.0,0.0,0.0,0.0,0.0,0.0
84049177,8,1490.0,1578.0,1498.0,1571.0,1454.0,1615.0,0.0,0.0,0.0,0.0,0.0,0.0,0.0,0.0,0.0,0.0
84161138,8,1551.0,1506.0,1486.0,1572.0,1500.0,1557.0,0.0,0.0,0.0,0.0,0.0,0.0,0.0,0.0,0.0,0.0
84269110,8,1481.0,1556.0,1514.0,1523.0,1453.0,1584.0,0.0,0.0,0.0,0.0,0.0,0.0,0.0,0.0,0.0,0.0
84353379,8,1437.0,1592.0,1565.0,1464.0,1451.0,1579.0,0.0,0.0,0.0,0.0,0.0,0.0,0.0,0.0,0.0,0.0
84468273,8,1486.0,1555.0,1578.0,1587.0,1443.0,1598.0,0.0,0.0,0.0,0.0,0.0,0.0,0.0,0.0,0.0,0.0
84560327,8,1499.0,1420.0,1471.0,1579.0,1548.0,1502.0,0.0,0.0,0.0,0.0,0.0,0.0,0.0,0.0,0.0,0.0
84672285,8,1474.0,1594.0,1643.0,1424.0,1554.0,1513.0,0.0,0.0,0.0,0.0,0.0,0.0,0.0,0.0,0.0,0.0
84760125,8,1525.0,1536.0,1496.0,1566.0,1474.0,1588.0,0.0,0.0,0.0,0.0,0.0,0.0,0.0,0.0,0.0,0.0
84875346,8,1585.0,1462.0,1516.0,1531.0,1558.0,1489.0,0.0,0.0,0.0,0.0,0.0,0.0,0.0,0.0,0.0,0.0
84967387,8,1490.0,1555.0,1605.0,1441.0,1552.0,1493.0,0.0,0.0,0.0,0.0,0.0,0.0,0.0,0.0,0.0,0.0
85075541,8,1481.0,1553.0,1540.0,1494.0,1504.0,1529.0,0.0,0.0,0.0,0.0,0.0,0.0,0.0,0.0,0.0,0.0
85167500,8,1604.0,1427.0,1482.0,1548.0,1545.0,1485.0,0.0,0.0,0.0,0.0,0.0,0.0,0.0,0.0,0.0,0.0
85275504,8,1478.0,1546.0,1559.0,1465.0,1499.0,1526.0,0.0,0.0,0.0,0.0,0.0,0.0,0.0,0.0,0.0,0.0
85386584,8,1544.0,1491.0,1555.0,1480.0,1557.0,1478.0,0.0,0.0,0.0,0.0,0.0,0.0,0.0,0.0,0.0,0.0
85474725,8,1553.0,1481.0,1475.0,1560.0,1500.0,1534.0,0.0,0.0,0.0,0.0,0.0,0.0,0.0,0.0,0.0,0.0
85586606,8,1471.0,1566.0,1608.0,1429.0,1534.0,1504.0,0.0,0.0,0.0,0.0,0.0,0.0,0.0,0.0,0.0,0.0
85670743,8,1599.0,1439.0,1452.0,1586.0,1501.0,1537.0,0.0,0.0,0.0,0.0,0.0,0.0,0.0,0.0,0.0,0.0
85782585,8,1452.0,1608.0,1536.0,1524.0,1419.0,1641.0,0.0,0.0,0.0,0.0,0.0,0.0,0.0,0.0,0.0,0.0
85870576,8,1476.0,1585.0,1612.0,1449.0,1523.0,1538.0,0.0,0.0,0.0,0.0,0.0,0.0,0.0,0.0,0.0,0.0
85985756,8,1454.0,1601.0,1615.0,1440.0,1495.0,1560.0,0.0,0.0,0.0,0.0,0.0,0.0,0.0,0.0,0.0,0.0
86093716,8,1543.0,1513.0,1522.0,1534.0,1500.0,1556.0,0.0,0.0,0.0,0.0,0.0,0.0,0.0,0.0,0.0,0.0
86197928,8,1445.0,1601.0,1514.0,1531.0,1390.0,1655.0,0.0,0.0,0.0,0.0,0.0,0.0,0.0,0.0,0.0,0.0
86289887,8,1515.0,1536.0,1483.0,1568.0,1424.0,1626.0,0.0,0.0,0.0,0.0,0.0,0.0,0.0,0.0,0.0,0.0
86381867,8,1520.0,1524.0,1514.0,1530.0,1462.0,1582.0,0.0,0.0,0.0,0.0,0.0,0.0,0.0,0.0,0.0,0.0
86493222,8,1538.0,1507.0,1462.0,1583.0,1425.0,1621.0,0.0,0.0,0.0,0.0,0.0,0.0,0.0,0.0,0.0,0.0
86601197,8,1592.0,1457.0,1464.0,1586.0,1485.0,1564.0,0.0,0.0,0.0,0.0,0.0,0.0,0.0,0.0,0.0,0.0
86689380,8,1551.0,1505.0,1586.0,1470.0,1571.0,1485.0,0.0,0.0,0.0,0.0,0.0,0.0,0.0,0.0,0.0,0.0
86804963,8,1502.0,1549.0,1569.0,1483.0,1490.0,1562.0,0.0,0.0,0.0,0.0,0.0,0.0,0.0,0.0,0.0,0.0
86909136,8,1599.0,1446.0,1569.0,1475.0,1604.0,1440.0,0.0,0.0,0.0,0.0,0.0,0.0,0.0,0.0,0.0,0.0
86998717,8,1584.0,1466.0,1464.0,1586.0,1476.0,1574.0,0.0,0.0,0.0,0.0,0.0,0.0,0.0,0.0,0.0,0.0
87108331,8,1524.0,1535.0,1632.0,1427.0,1586.0,1473.0,0.0,0.0,0.0,0.0,0.0,0.0,0.0,0.0,0.0,0.0
87196282,8,1499.0,1580.0,1512.0,1567.0,1417.0,1662.0,0.0,0.0,0.0,0.0,0.0,0.0,0.0,0.0,0.0,0.0
87308343,8,1556.0,1506.0,1581.0,1480.0,1546.0,1516.0,0.0,0.0,0.0,0.0,0.0,0.0,0.0,0.0,0.0,0.0
87416142,8,1479.0,1581.0,1596.0,1464.0,1498.0,1562.0,0.0,0.0,0.0,0.0,0.0,0.0,0.0,0.0,0.0,0.0
87504135,8,1511.0,1545.0,1516.0,1540.0,1455.0,1601.0,0.0,0.0,0.0,0.0,0.0,0.0,0.0,0.0,0.0,0.0
87611350,8,1484.0,1552.0,1597.0,1440.0,1514.0,1522.0,0.0,0.0,0.0,0.0,0.0,0.0,0.0,0.0,0.0,0.0
87703504,8,1458.0,1580.0,1574.0,1463.0,1462.0,1576.0,0.0,0.0,0.0,0.0,0.0,0.0,0.0,0.0,0.0,0.0
87815346,8,1563.0,1488.0,1505.0,1546.0,1495.0,1556.0,0.0,0.0,0.0,0.0,0.0,0.0,0.0,0.0,0.0,0.0
87907750,8,1498.0,1545.0,1555.0,1488.0,1480.0,1563.0,0.0,0.0,0.0,0.0,0.0,0.0,0.0,0.0,0.0,0.0
88019394,8,1471.0,1575.0,1628.0,1418.0,1530.0,1515.0,0.0,0.0,0.0,0.0,0.0,0.0,0.0,0.0,0.0,0.0
88114661,8,1510.0,1541.0,1451.0,1600.0,1398.0,1653.0,0.0,0.0,0.0,0.0,0.0,0.0,0.0,0.0,0.0,0.0
88218545,8,1568.0,1486.0,1511.0,1543.0,1497.0,1557.0,0.0,0.0,0.0,0.0,0.0,0.0,0.0,0.0,0.0,0.0
88330694,8,1578.0,1487.0,1484.0,1582.0,1468.0,1597.0,0.0,0.0,0.0,0.0,0.0,0.0,0.0,0.0,0.0,0.0
88434596,8,1480.0,1580.0,1509.0,1551.0,1401.0,1658.0,0.0,0.0,0.0,0.0,0.0,0.0,0.0,0.0,0.0,0.0
88522693,8,1560.0,1493.0,1534.0,1518.0,1504.0,1549.0,0.0,0.0,0.0,0.0,0.0,0.0,0.0,0.0,0.0,0.0
88629902,8,1589.0,1480.0,1512.0,1557.0,1502.0,1567.0,0.0,0.0,0.0,0.0,0.0,0.0,0.0,0.0,0.0,0.0
88737958,8,1577.0,1491.0,1590.0,1478.0,1555.0,1514.0,0.0,0.0,0.0,0.0,0.0,0.0,0.0,0.0,0.0,0.0
88825721,8,1556.0,1498.0,1552.0,1502.0,1509.0,1546.0,0.0,0.0,0.0,0.0,0.0,0.0,0.0,0.0,0.0,0.0
88937787,8,1508.0,1518.0,1549.0,1476.0,1480.0,1546.0,0.0,0.0,0.0,0.0,0.0,0.0,0.0,0.0,0.0,0.0
89037965,8,1507.0,1515.0,1456.0,1566.0,1376.0,1647.0,0.0,0.0,0.0,0.0,0.0,0.0,0.0,0.0,0.0,0.0
89129365,8,1627.0,1424.0,1556.0,1495.0,1589.0,1462.0,0.0,0.0,0.0,0.0,0.0,0.0,0.0,0.0,0.0,0.0
89245192,8,1557.0,1510.0,1599.0,1468.0,1558.0,1509.0,0.0,0.0,0.0,0.0,0.0,0.0,0.0,0.0,0.0,0.0
89329113,8,1510.0,1548.0,1551.0,1507.0,1469.0,1589.0,0.0,0.0,0.0,0.0,0.0,0.0,0.0,0.0,0.0,0.0
89437136,8,1477.0,1564.0,1622.0,1419.0,1523.0,1518.0,0.0,0.0,0.0,0.0,0.0,0.0,0.0,0.0,0.0,0.0
89552966,8,1609.0,1433.0,1496.0,1546.0,1529.0,1513.0,0.0,0.0,0.0,0.0,0.0,0.0,0.0,0.0,0.0,0.0
89656382,8,1598.0,1466.0,1514.0,1549.0,1523.0,1540.0,0.0,0.0,0.0,0.0,0.0,0.0,0.0,0.0,0.0,0.0
89744302,8,1605.0,1470.0,1559.0,1515.0,1607.0,1467.0,0.0,0.0,0.0,0.0,0.0,0.0,0.0,0.0,0.0,0.0
89848558,8,1500.0,1565.0,1556.0,1510.0,1501.0,1565.0,0.0,0.0,0.0,0.0,0.0,0.0,0.0,0.0,0.0,0.0
89956550,8,1528.0,1519.0,1528.0,1519.0,1506.0,1542.0,0.0,0.0,0.0,0.0,0.0,0.0,0.0,0.0,0.0,0.0
90048255,8,1492.0,1546.0,1501.0,1537.0,1455.0,1583.0,0.0,0.0,0.0,0.0,0.0,0.0,0.0,0.0,0.0,0.0
90160383,8,1491.0,1538.0,1483.0,1546.0,1441.0,1588.0,0.0,0.0,0.0,0.0,0.0,0.0,0.0,0.0,0.0,0.0
90251352,8,1399.0,1635.0,1533.0,1501.0,1387.0,1647.0,0.0,0.0,0.0,0.0,0.0,0.0,0.0,0.0,0.0,0.0
90363341,8,1482.0,1570.0,1565.0,1486.0,1497.0,1554.0,0.0,0.0,0.0,0.0,0.0,0.0,0.0,0.0,0.0,0.0
90467322,8,1470.0,1583.0,1499.0,1554.0,1429.0,1625.0,0.0,0.0,0.0,0.0,0.0,0.0,0.0,0.0,0.0,0.0
90555367,8,1480.0,1569.0,1500.0,1549.0,1437.0,1612.0,0.0,0.0,0.0,0.0,0.0,0.0,0.0,0.0,0.0,0.0
90671346,8,1525.0,1505.0,1536.0,1495.0,1525.0,1506.0,0.0,0.0,0.0,0.0,0.0,0.0,0.0,0.0,0.0,0.0
90762757,8,1513.0,1513.0,1482.0,1544.0,1451.0,1575.0,0.0,0.0,0.0,0.0,0.0,0.0,0.0,0.0,0.0,0.0
90870581,8,1550.0,1499.0,1466.0,1582.0,1469.0,1579.0,0.0,0.0,0.0,0.0,0.0,0.0,0.0,0.0,0.0,0.0
90974779,8,1582.0,1477.0,1442.0,1618.0,1469.0,1590.0,0.0,0.0,0.0,0.0,0.0,0.0,0.0,0.0,0.0,0.0
91058777,8,1571.0,1495.0,1530.0,1536.0,1534.0,1532.0,0.0,0.0,0.0,0.0,0.0,0.0,0.0,0.0,0.0,0.0
91178960,8,1508.0,1544.0,1592.0,1460.0,1540.0,1512.0,0.0,0.0,0.0,0.0,0.0,0.0,0.0,0.0,0.0,0.0
91270028,8,1558.0,1478.0,1430.0,1606.0,1440.0,1596.0,0.0,0.0,0.0,0.0,0.0,0.0,0.0,0.0,0.0,0.0
91381755,8,1558.0,1490.0,1496.0,1552.0,1503.0,1546.0,0.0,0.0,0.0,0.0,0.0,0.0,0.0,0.0,0.0,0.0
91469761,8,1457.0,1592.0,1577.0,1472.0,1479.0,1569.0,0.0,0.0,0.0,0.0,0.0,0.0,0.0,0.0,0.0,0.0
91577750,8,1608.0,1440.0,1521.0,1526.0,1568.0,1479.0,0.0,0.0,0.0,0.0,0.0,0.0,0.0,0.0,0.0,0.0
91685787,8,1566.0,1492.0,1611.0,1447.0,1602.0,1456.0,0.0,0.0,0.0,0.0,0.0,0.0,0.0,0.0,0.0,0.0
91773744,8,1438.0,1626.0,1570.0,1494.0,1432.0,1632.0,0.0,0.0,0.0,0.0,0.0,0.0,0.0,0.0,0.0,0.0
91884930,8,1507.0,1557.0,1588.0,1476.0,1511.0,1553.0,0.0,0.0,0.0,0.0,0.0,0.0,0.0,0.0,0.0,0.0
91972982,8,1539.0,1515.0,1611.0,1443.0,1574.0,1480.0,0.0,0.0,0.0,0.0,0.0,0.0,0.0,0.0,0.0,0.0
92085061,8,1597.0,1455.0,1571.0,1481.0,1582.0,1470.0,0.0,0.0,0.0,0.0,0.0,0.0,0.0,0.0,0.0,0.0
92173130,8,1572.0,1488.0,1505.0,1556.0,1488.0,1573.0,0.0,0.0,0.0,0.0,0.0,0.0,0.0,0.0,0.0,0.0
92284954,8,1526.0,1527.0,1518.0,1536.0,1462.0,1592.0,0.0,0.0,0.0,0.0,0.0,0.0,0.0,0.0,0.0,0.0
92388174,8,1555.0,1478.0,1467.0,1566.0,1462.0,1571.0,0.0,0.0,0.0,0.0,0.0,0.0,0.0,0.0,0.0,0.0
92496162,8,1508.0,1526.0,1602.0,1432.0,1553.0,1481.0,0.0,0.0,0.0,0.0,0.0,0.0,0.0,0.0,0.0,0.0
92588328,8,1421.0,1629.0,1587.0,1462.0,1443.0,1606.0,0.0,0.0,0.0,0.0,0.0,0.0,0.0,0.0,0.0,0.0
92700160,8,1501.0,1562.0,1587.0,1475.0,1548.0,1515.0,0.0,0.0,0.0,0.0,0.0,0.0,0.0,0.0,0.0,0.0
92788144,8,1483.0,1575.0,1539.0,1519.0,1458.0,1601.0,0.0,0.0,0.0,0.0,0.0,0.0,0.0,0.0,0.0,0.0
92895483,8,1489.0,1561.0,1519.0,1532.0,1442.0,1608.0,0.0,0.0,0.0,0.0,0.0,0.0,0.0,0.0,0.0,0.0
93007365,8,1483.0,1559.0,1497.0,1545.0,1399.0,1644.0,0.0,0.0,0.0,0.0,0.0,0.0,0.0,0.0,0.0,0.0
93095511,8,1518.0,1530.0,1645.0,1403.0,1576.0,1471.0,0.0,0.0,0.0,0.0,0.0,0.0,0.0,0.0,0.0,0.0
93191741,8,1630.0,1436.0,1464.0,1602.0,1491.0,1575.0,0.0,0.0,0.0,0.0,0.0,0.0,0.0,0.0,0.0,0.0
93311503,8,1493.0,1575.0,1583.0,1484.0,1484.0,1583.0,0.0,0.0,0.0,0.0,0.0,0.0,0.0,0.0,0.0,0.0
93402925,8,1576.0,1466.0,1482.0,1560.0,1489.0,1553.0,0.0,0.0,0.0,0.0,0.0,0.0,0.0,0.0,0.0,0.0
93518739,8,1565.0,1472.0,1480.0,1557.0,1471.0,1566.0,0.0,0.0,0.0,0.0,0.0,0.0,0.0,0.0,0.0,0.0
93610562,8,1574.0,1487.0,1520.0,1541.0,1498.0,1563.0,0.0,0.0,0.0,0.0,0.0,0.0,0.0,0.0,0.0,0.0
93714723,8,1571.0,1488.0,1594.0,1464.0,1575.0,1484.0,0.0,0.0,0.0,0.0,0.0,0.0,0.0,0.0,0.0,0.0
93822560,8,1521.0,1531.0,1514.0,1538.0,1464.0,1588.0,0.0,0.0,0.0,0.0,0.0,0.0,0.0,0.0,0.0,0.0
93925930,8,1518.0,1517.0,1491.0,1543.0,1458.0,1577.0,0.0,0.0,0.0,0.0,0.0,0.0,0.0,0.0,0.0,0.0
94013773,8,1555.0,1493.0,1596.0,1452.0,1587.0,1461.0,0.0,0.0,0.0,0.0,0.0,0.0,0.0,0.0,0.0,0.0
94126176,8,1464.0,1602.0,1532.0,1534.0,1421.0,1645.0,0.0,0.0,0.0,0.0,0.0,0.0,0.0,0.0,0.0,0.0
94213723,8,1527.0,1530.0,1606.0,1451.0,1568.0,1490.0,0.0,0.0,0.0,0.0,0.0,0.0,0.0,0.0,0.0,0.0
94329921,8,1550.0,1498.0,1475.0,1573.0,1473.0,1575.0,0.0,0.0,0.0,0.0,0.0,0.0,0.0,0.0,0.0,0.0
94417772,8,1548.0,1489.0,1499.0,1537.0,1497.0,1539.0,0.0,0.0,0.0,0.0,0.0,0.0,0.0,0.0,0.0,0.0
94533151,8,1628.0,1423.0,1505.0,1545.0,1571.0,1479.0,0.0,0.0,0.0,0.0,0.0,0.0,0.0,0.0,0.0,0.0
94625078,8,1567.0,1486.0,1523.0,1529.0,1522.0,1530.0,0.0,0.0,0.0,0.0,0.0,0.0,0.0,0.0,0.0,0.0
94721138,8,1479.0,1579.0,1488.0,1571.0,1401.0,1658.0,0.0,0.0,0.0,0.0,0.0,0.0,0.0,0.0,0.0,0.0
94833166,8,1592.0,1484.0,1516.0,1560.0,1520.0,1556.0,0.0,0.0,0.0,0.0,0.0,0.0,0.0,0.0,0.0,0.0
94941131,8,1531.0,1537.0,1494.0,1575.0,1450.0,1619.0,0.0,0.0,0.0,0.0,0.0,0.0,0.0,0.0,0.0,0.0
95027349,8,1617.0,1439.0,1398.0,1658.0,1446.0,1610.0,0.0,0.0,0.0,0.0,0.0,0.0,0.0,0.0,0.0,0.0
95136151,8,1484.0,1583.0,1545.0,1522.0,1473.0,1594.0,0.0,0.0,0.0,0.0,0.0,0.0,0.0,0.0,0.0,0.0
95244153,8,1532.0,1546.0,1592.0,1486.0,1534.0,1543.0,0.0,0.0,0.0,0.0,0.0,0.0,0.0,0.0,0.0,0.0
95332173,8,1522.0,1532.0,1531.0,1523.0,1480.0,1574.0,0.0,0.0,0.0,0.0,0.0,0.0,0.0,0.0,0.0,0.0
95448155,8,1524.0,1507.0,1553.0,1478.0,1511.0,1519.0,0.0,0.0,0.0,0.0,0.0,0.0,0.0,0.0,0.0,0.0
95528568,8,1520.0,1506.0,1479.0,1548.0,1441.0,1586.0,0.0,0.0,0.0,0.0,0.0,0.0,0.0,0.0,0.0,0.0
95639607,8,1493.0,1555.0,1520.0,1529.0,1449.0,1600.0,0.0,0.0,0.0,0.0,0.0,0.0,0.0,0.0,0.0,0.0
95743779,8,1472.0,1589.0,1523.0,1538.0,1429.0,1632.0,0.0,0.0,0.0,0.0,0.0,0.0,0.0,0.0,0.0,0.0
95851764,8,1587.0,1486.0,1570.0,1502.0,1575.0,1498.0,0.0,0.0,0.0,0.0,0.0,0.0,0.0,0.0,0.0,0.0
