timestamp,roll_body,pitch_body,yaw_body,yaw_sp_move_rate,q_d[0],q_d[1],q_d[2],q_d[3],thrust_body[0],thrust_body[1],thrust_body[2],q_d_valid,roll_reset_integral,pitch_reset_integral,yaw_reset_integral,fw_control_yaw,apply_flaps
29591254,0.0,-0.0,2.0995426,0.0,0.49776942,0.0,0.0,0.86730945,0.0,0.0,-0.08,1,0,0,0,0,0
29691337,0.0,-0.0,2.1000412,0.0,0.4975532,0.0,0.0,0.8674334,0.0,0.0,-0.08,1,0,0,0,0,0
29795312,0.0,-0.0,2.1004667,0.0,0.4973686,0.0,0.0,0.86753935,0.0,0.0,-0.08,1,0,0,0,0,0
29895316,0.0,-0.0,2.1009202,0.0,0.49717188,0.0,0.0,0.86765206,0.0,0.0,-0.08,1,0,0,0,0,0
29998452,0.0,-0.0,2.1016703,0.0,0.49684647,0.0,0.0,0.86783844,0.0,0.0,-0.08,1,0,0,0,0,0
30098483,0.0,-0.0,2.1011317,0.0,0.49708015,0.0,0.0,0.86770463,0.0,0.0,-0.08,1,0,0,0,0,0
30198555,0.0,-0.0,2.1014094,0.0,0.49695963,0.0,0.0,0.86777365,0.0,0.0,-0.08,1,0,0,0,0,0
30302509,0.0,-0.0,2.1021137,0.0,0.49665403,0.0,0.0,0.86794865,0.0,0.0,-0.08,1,0,0,0,0,0
30402485,0.0,-0.0,2.102231,0.0,0.49660313,0.0,0.0,0.86797774,0.0,0.0,-0.08,1,0,0,0,0,0
30506456,0.0,-0.0,2.1029837,0.0,0.49627644,0.0,0.0,0.86816454,0.0,0.0,-0.08,1,0,0,0,0,0
30605654,0.0,-0.0,2.1036046,0.0,0.4960069,0.0,0.0,0.86831856,0.0,0.0,-0.08,1,0,0,0,0,0
30709699,0.0,-0.0,2.1041224,0.0,0.49578205,0.0,0.0,0.86844695,0.0,0.0,-0.08,1,0,0,0,0,0
30813654,0.0,-0.0,2.1048875,0.0,0.4954498,0.0,0.0,0.8686366,0.0,0.0,-0.08,1,0,0,0,0,0
30913721,0.0,-0.0,2.1054807,0.0,0.49519214,0.0,0.0,0.8687835,0.0,0.0,-0.08,1,0,0,0,0,0
31017679,0.0,-0.0,2.1058707,0.0,0.4950227,0.0,0.0,0.86888003,0.0,0.0,-0.08,1,0,0,0,0,0
31117652,0.0,-0.0,2.1062908,0.0,0.4948402,0.0,0.0,0.868984,0.0,0.0,-0.08,1,0,0,0,0,0
31220888,0.0,-0.0,2.106668,0.0,0.4946763,0.0,0.0,0.8690773,0.0,0.0,-0.08,1,0,0,0,0,0
31320912,0.0,-0.0,2.1069915,0.0,0.4945357,0.0,0.0,0.8691573,0.0,0.0,-0.08,1,0,0,0,0,0
31420889,0.0,-0.0,2.107407,0.0,0.4943551,0.0,0.0,0.8692601,0.0,0.0,-0.08,1,0,0,0,0,0
31524898,0.0,-0.0,2.1078026,0.0,0.49418318,0.0,0.0,0.86935776,0.0,0.0,-0.08,1,0,0,0,0,0
31624898,0.0,-0.0,2.1081681,0.0,0.4940243,0.0,0.0,0.8694481,0.0,0.0,-0.08,1,0,0,0,0,0
31728145,0.0,-0.0,2.1085472,0.0,0.4938595,0.0,0.0,0.86954176,0.0,0.0,-0.08,1,0,0,0,0,0
31832056,0.0,-0.0,2.1089606,0.0,0.49367973,0.0,0.0,0.8696438,0.0,0.0,-0.08,1,0,0,0,0,0
31932104,0.0,-0.0,2.1093664,0.0,0.49350327,0.0,0.0,0.86974394,0.0,0.0,-0.08,1,0,0,0,0,0
32036146,0.0,-0.0,2.109938,0.0,0.49325472,0.0,0.0,0.8698849,0.0,0.0,-0.08,1,0,0,0,0,0
32136084,0.0,-0.0,2.1105123,0.0,0.49300492,0.0,0.0,0.8700265,0.0,0.0,-0.08,1,0,0,0,0,0
32239332,0.0,-0.0,2.1110725,0.0,0.49276116,0.0,0.0,0.87016463,0.0,0.0,-0.08,1,0,0,0,0,0
32343263,0.0,-0.0,2.1115165,0.0,0.492568,0.0,0.0,0.870274,0.0,0.0,-0.08,1,0,0,0,0,0
32443249,0.0,-0.0,2.1119537,0.0,0.49237773,0.0,0.0,0.87038165,0.0,0.0,-0.08,1,0,0,0,0,0
32547366,0.0,-0.0,2.1123447,0.0,0.49220756,0.0,0.0,0.8704779,0.0,0.0,-0.08,1,0,0,0,0,0
32647318,0.0,-0.0,2.1126142,0.0,0.49209028,0.0,0.0,0.8705442,0.0,0.0,-0.08,1,0,0,0,0,0
32750508,0.0,-0.0,2.1131837,0.0,0.49184233,0.0,0.0,0.87068427,0.0,0.0,-0.08,1,0,0,0,0,0
32854455,0.0,-0.0,2.1138597,0.0,0.49154806,0.0,0.0,0.87085044,0.0,0.0,-0.08,1,0,0,0,0,0
32954460,0.0,-0.0,2.1143694,0.0,0.4913261,0.0,0.0,0.87097573,0.0,0.0,-0.08,1,0,0,0,0,0
33054496,0.0,-0.0,2.1148992,0.0,0.49109536,0.0,0.0,0.87110585,0.0,0.0,-0.08,1,0,0,0,0,0
33158565,0.0,-0.0,2.1156008,0.0,0.4907897,0.0,0.0,0.87127805,0.0,0.0,-0.08,1,0,0,0,0,0
33257685,0.0,-0.0,2.1159687,0.0,0.49062943,0.0,0.0,0.87136835,0.0,0.0,-0.08,1,0,0,0,0,0
33361685,0.0,-0.0,2.1164446,0.0,0.4904221,0.0,0.0,0.87148505,0.0,0.0,-0.08,1,0,0,0,0,0
33461696,0.0,-0.0,2.1170316,0.0,0.4901663,0.0,0.0,0.87162894,0.0,0.0,-0.08,1,0,0,0,0,0
33565661,0.0,-0.0,2.1175346,0.0,0.48994705,0.0,0.0,0.8717522,0.0,0.0,-0.08,1,0,0,0,0,0
33665699,0.0,-0.0,2.118144,0.0,0.4896814,0.0,0.0,0.87190145,0.0,0.0,-0.08,1,0,0,0,0,0
33765686,0.0,-0.0,2.1185343,0.0,0.48951125,0.0,0.0,0.871997,0.0,0.0,-0.08,1,0,0,0,0,0
33868115,0.0,-0.0,2.1187863,0.0,0.48940137,0.0,0.0,0.8720587,0.0,0.0,-0.08,1,0,0,0,0,0
33968879,0.0,-0.0,2.1191063,0.0,0.48926184,0.0,0.0,0.87213695,0.0,0.0,-0.08,1,0,0,0,0,0
34072883,0.0,-0.0,2.1194952,0.0,0.48909226,0.0,0.0,0.872232,0.0,0.0,-0.08,1,0,0,0,0,0
34176906,0.0,-0.0,2.1199508,0.0,0.48889357,0.0,0.0,0.8723435,0.0,0.0,-0.08,1,0,0,0,0,0
34276923,0.0,-0.0,2.1202068,0.0,0.48878187,0.0,0.0,0.87240607,0.0,0.0,-0.08,1,0,0,0,0,0
34380076,0.0,-0.0,2.1203952,0.0,0.4886997,0.0,0.0,0.8724521,0.0,0.0,-0.08,1,0,0,0,0,0
34480105,0.0,-0.0,2.1204958,0.0,0.4886558,0.0,0.0,0.87247664,0.0,0.0,-0.08,1,0,0,0,0,0
34584073,0.0,-0.0,2.1208072,0.0,0.48851997,0.0,0.0,0.87255275,0.0,0.0,-0.08,1,0,0,0,0,0
34684102,0.0,-0.0,2.1211877,0.0,0.48835394,0.0,0.0,0.8726457,0.0,0.0,-0.08,1,0,0,0,0,0
34784090,0.0,-0.0,2.1216404,0.0,0.48815638,0.0,0.0,0.8727562,0.0,0.0,-0.08,1,0,0,0,0,0
34888106,0.0,-0.0,2.1221752,0.0,0.48792303,0.0,0.0,0.87288666,0.0,0.0,-0.08,1,0,0,0,0,0
34987260,0.0,-0.0,2.1225624,0.0,0.48775402,0.0,0.0,0.87298113,0.0,0.0,-0.08,1,0,0,0,0,0
35091290,0.0,-0.0,2.1229205,0.0,0.4875977,0.0,0.0,0.87306845,0.0,0.0,-0.08,1,0,0,0,0,0
35191336,0.0,-0.0,2.1232285,0.0,0.48746324,0.0,0.0,0.87314355,0.0,0.0,-0.08,1,0,0,0,0,0
35291270,0.0,-0.0,2.123642,0.0,0.48728272,0.0,0.0,0.8732443,0.0,0.0,-0.08,1,0,0,0,0,0
35395292,0.0,-0.0,2.1239898,0.0,0.48713085,0.0,0.0,0.873329,0.0,0.0,-0.08,1,0,0,0,0,0
35494487,0.0,-0.0,2.1244063,0.0,0.48694894,0.0,0.0,0.87343043,0.0,0.0,-0.08,1,0,0,0,0,0
35598453,0.0,-0.0,2.124802,0.0,0.4867761,0.0,0.0,0.8735268,0.0,0.0,-0.08,1,0,0,0,0,0
35698500,0.0,-0.0,2.1251988,0.0,0.4866028,0.0,0.0,0.8736233,0.0,0.0,-0.08,1,0,0,0,0,0
35798509,0.0,-0.0,2.125484,0.0,0.48647824,0.0,0.0,0.8736927,0.0,0.0,-0.08,1,0,0,0,0,0
35902461,0.0,-0.0,2.1256776,0.0,0.4863937,0.0,0.0,0.8737398,0.0,0.0,-0.08,1,0,0,0,0,0
36000935,0.0,-0.0,2.1257806,0.0,0.4863487,0.0,0.0,0.8737648,0.0,0.0,-0.08,1,0,0,0,0,0
36105661,0.0,-0.0,2.125861,0.0,0.48631358,0.0,0.0,0.87378436,0.0,0.0,-0.08,1,0,0,0,0,0
36205670,0.0,-0.0,2.1260014,0.0,0.48625222,0.0,0.0,0.8738185,0.0,0.0,-0.08,1,0,0,0,0,0
36309726,0.0,-0.0,2.1261725,0.0,0.48617744,0.0,0.0,0.8738601,0.0,0.0,-0.08,1,0,0,0,0,0
36409705,0.0,-0.0,2.126415,0.0,0.4860715,0.0,0.0,0.87391907,0.0,0.0,-0.08,1,0,0,0,0,0
36509696,0.0,-0.0,2.1266098,0.0,0.48598638,0.0,0.0,0.8739664,0.0,0.0,-0.08,1,0,0,0,0,0
36612989,0.0,-0.0,2.1267583,0.0,0.48592147,0.0,0.0,0.87400246,0.0,0.0,-0.08,1,0,0,0,0,0
36712946,0.0,-0.0,2.1268423,0.0,0.4858848,0.0,0.0,0.87402284,0.0,0.0,-0.08,1,0,0,0,0,0
36816875,0.0,-0.0,2.1270292,0.0,0.4858031,0.0,0.0,0.87406826,0.0,0.0,-0.08,1,0,0,0,0,0
36916851,0.0,-0.0,2.1273503,0.0,0.48566273,0.0,0.0,0.8741463,0.0,0.0,-0.08,1,0,0,0,0,0
37016877,0.0,-0.0,2.1277342,0.0,0.48549497,0.0,0.0,0.8742395,0.0,0.0,-0.08,1,0,0,0,0,0
37120089,0.0,-0.0,2.1281745,0.0,0.48530245,0.0,0.0,0.8743463,0.0,0.0,-0.08,1,0,0,0,0,0
37220087,0.0,-0.0,2.1285062,0.0,0.48515746,0.0,0.0,0.87442684,0.0,0.0,-0.08,1,0,0,0,0,0
37324095,0.0,-0.0,2.1288588,0.0,0.4850033,0.0,0.0,0.8745123,0.0,0.0,-0.08,1,0,0,0,0,0
37428097,0.0,-0.0,2.129308,0.0,0.48480687,0.0,0.0,0.8746212,0.0,0.0,-0.08,1,0,0,0,0,0
37528095,0.0,-0.0,2.1297362,0.0,0.4846196,0.0,0.0,0.874725,0.0,0.0,-0.08,1,0,0,0,0,0
37632055,0.0,-0.0,2.1300476,0.0,0.48448342,0.0,0.0,0.87480044,0.0,0.0,-0.08,1,0,0,0,0,0
37731287,0.0,-0.0,2.1302388,0.0,0.48439977,0.0,0.0,0.87484676,0.0,0.0,-0.08,1,0,0,0,0,0
37835303,0.0,-0.0,2.130571,0.0,0.48425448,0.0,0.0,0.8749272,0.0,0.0,-0.08,1,0,0,0,0,0
37935258,0.0,-0.0,2.1307824,0.0,0.48416197,0.0,0.0,0.87497836,0.0,0.0,-0.08,1,0,0,0,0,0
38035298,0.0,-0.0,2.130993,0.0,0.48406988,0.0,0.0,0.8750294,0.0,0.0,-0.08,1,0,0,0,0,0
38139356,0.0,-0.0,2.1311948,0.0,0.48398152,0.0,0.0,0.8750782,0.0,0.0,-0.08,1,0,0,0,0,0
38241699,0.0,-0.0,2.1312714,0.0,0.48394802,0.0,0.0,0.87509674,0.0,0.0,-0.08,1,0,0,0,0,0
38342501,0.0,-0.0,2.1314504,0.0,0.48386967,0.0,0.0,0.8751401,0.0,0.0,-0.08,1,0,0,0,0,0
38442504,0.0,-0.0,2.1316254,0.0,0.4837931,0.0,0.0,0.8751824,0.0,0.0,-0.08,1,0,0,0,0,0
38546459,0.0,-0.0,2.1317515,0.0,0.48373792,0.0,0.0,0.8752129,0.0,0.0,-0.08,1,0,0,0,0,0
38646461,0.0,-0.0,2.1319904,0.0,0.48363337,0.0,0.0,0.8752707,0.0,0.0,-0.08,1,0,0,0,0,0
38748896,0.0,-0.0,2.1321712,0.0,0.48355427,0.0,0.0,0.8753144,0.0,0.0,-0.08,1,0,0,0,0,0
38850518,0.0,-0.0,2.1323729,0.0,0.483466,0.0,0.0,0.8753632,0.0,0.0,-0.08,1,0,0,0,0,0
38953698,0.0,-0.0,2.13264,0.0,0.4833491,0.0,0.0,0.8754277,0.0,0.0,-0.08,1,0,0,0,0,0
39053705,0.0,-0.0,2.1328242,0.0,0.48326844,0.0,0.0,0.8754722,0.0,0.0,-0.08,1,0,0,0,0,0
39157662,0.0,-0.0,2.1329646,0.0,0.483207,0.0,0.0,0.87550616,0.0,0.0,-0.08,1,0,0,0,0,0
39257672,0.0,-0.0,2.133066,0.0,0.4831626,0.0,0.0,0.8755306,0.0,0.0,-0.08,1,0,0,0,0,0
39360888,0.0,-0.0,2.133163,0.0,0.48312014,0.0,0.0,0.8755541,0.0,0.0,-0.08,1,0,0,0,0,0
39460887,0.0,-0.0,2.1332684,0.0,0.483074,0.0,0.0,0.87557954,0.0,0.0,-0.08,1,0,0,0,0,0
39564895,0.0,-0.0,2.1334457,0.0,0.48299634,0.0,0.0,0.8756224,0.0,0.0,-0.08,1,0,0,0,0,0
39664879,0.0,-0.0,2.1336262,0.0,0.48291734,0.0,0.0,0.87566596,0.0,0.0,-0.08,1,0,0,0,0,0
39764860,0.0,-0.0,2.1339037,0.0,0.4827958,0.0,0.0,0.87573296,0.0,0.0,-0.08,1,0,0,0,0,0
39868898,0.0,-0.0,2.1341321,0.0,0.4826958,0.0,0.0,0.8757881,0.0,0.0,-0.08,1,0,0,0,0,0
39968060,0.0,-0.0,2.1342921,0.0,0.48262575,0.0,0.0,0.8758267,0.0,0.0,-0.08,1,0,0,0,0,0
40072123,0.0,-0.0,2.1345644,0.0,0.4825065,0.0,0.0,0.8758924,0.0,0.0,-0.08,1,0,0,0,0,0
40176052,0.0,-0.0,2.1348498,0.0,0.48238152,0.0,0.0,0.87596124,0.0,0.0,-0.08,1,0,0,0,0,0
40276060,0.0,-0.0,2.1350305,0.0,0.48230237,0.0,0.0,0.8760048,0.0,0.0,-0.08,1,0,0,0,0,0
40380103,0.0,-0.0,2.1351657,0.0,0.48224315,0.0,0.0,0.8760374,0.0,0.0,-0.08,1,0,0,0,0,0
40479400,0.0,-0.0,2.1353743,0.0,0.48215178,0.0,0.0,0.8760877,0.0,0.0,-0.08,1,0,0,0,0,0
40583303,0.0,-0.0,2.1356578,0.0,0.4820276,0.0,0.0,0.87615603,0.0,0.0,-0.08,1,0,0,0,0,0
40683287,0.0,-0.0,2.1360025,0.0,0.48187655,0.0,0.0,0.8762391,0.0,0.0,-0.08,1,0,0,0,0,0
40783298,0.0,-0.0,2.1361957,0.0,0.48179194,0.0,0.0,0.8762857,0.0,0.0,-0.08,1,0,0,0,0,0
40887269,0.0,-0.0,2.1363807,0.0,0.48171088,0.0,0.0,0.8763302,0.0,0.0,-0.08,1,0,0,0,0,0
40986489,0.0,-0.0,2.1363811,0.0,0.48171067,0.0,0.0,0.8763303,0.0,0.0,-0.08,1,0,0,0,0,0
41090461,0.0,-0.0,2.1363783,0.0,0.48171192,0.0,0.0,0.87632966,0.0,0.0,-0.08,1,0,0,0,0,0
41190465,0.0,-0.0,2.1364374,0.0,0.48168603,0.0,0.0,0.8763439,0.0,0.0,-0.08,1,0,0,0,0,0
41290472,0.0,-0.0,2.1366134,0.0,0.48160893,0.0,0.0,0.8763863,0.0,0.0,-0.08,1,0,0,0,0,0
41394455,0.0,-0.0,2.1367822,0.0,0.48153496,0.0,0.0,0.87642694,0.0,0.0,-0.08,1,0,0,0,0,0
41493688,0.0,-0.0,2.1370916,0.0,0.48139933,0.0,0.0,0.8765014,0.0,0.0,-0.08,1,0,0,0,0,0
41597691,0.0,-0.0,2.1374516,0.0,0.48124155,0.0,0.0,0.87658805,0.0,0.0,-0.08,1,0,0,0,0,0
41697662,0.0,-0.0,2.137727,0.0,0.48112085,0.0,0.0,0.87665427,0.0,0.0,-0.08,1,0,0,0,0,0
41797664,0.0,-0.0,2.1379602,0.0,0.48101863,0.0,0.0,0.87671036,0.0,0.0,-0.08,1,0,0,0,0,0
41901683,0.0,-0.0,2.1380842,0.0,0.4809643,0.0,0.0,0.87674016,0.0,0.0,-0.08,1,0,0,0,0,0
42001735,0.0,-0.0,2.1380806,0.0,0.48096585,0.0,0.0,0.8767393,0.0,0.0,-0.08,1,0,0,0,0,0
42104118,0.0,-0.0,2.1380954,0.0,0.4809594,0.0,0.0,0.8767429,0.0,0.0,-0.08,1,0,0,0,0,0
42204883,0.0,-0.0,2.138132,0.0,0.4809433,0.0,0.0,0.8767517,0.0,0.0,-0.08,1,0,0,0,0,0
42308867,0.0,-0.0,2.1382165,0.0,0.48090628,0.0,0.0,0.876772,0.0,0.0,-0.08,1,0,0,0,0,0
42408934,0.0,-0.0,2.1383977,0.0,0.48082685,0.0,0.0,0.87681556,0.0,0.0,-0.08,1,0,0,0,0,0
42508909,0.0,-0.0,2.1386704,0.0,0.48070726,0.0,0.0,0.8768811,0.0,0.0,-0.08,1,0,0,0,0,0
42612976,0.0,-0.0,2.1388028,0.0,0.48064926,0.0,0.0,0.87691295,0.0,0.0,-0.08,1,0,0,0,0,0
42712053,0.0,-0.0,2.13873,0.0,0.48068112,0.0,0.0,0.8768955,0.0,0.0,-0.08,1,0,0,0,0,0
42816121,0.0,-0.0,2.1387672,0.0,0.48066482,0.0,0.0,0.8769044,0.0,0.0,-0.08,1,0,0,0,0,0
42920064,0.0,-0.0,2.1387973,0.0,0.48065165,0.0,0.0,0.87691164,0.0,0.0,-0.08,1,0,0,0,0,0
43020104,0.0,-0.0,2.138856,0.0,0.48062593,0.0,0.0,0.8769257,0.0,0.0,-0.08,1,0,0,0,0,0
43123260,0.0,-0.0,2.1389422,0.0,0.48058808,0.0,0.0,0.87694645,0.0,0.0,-0.08,1,0,0,0,0,0
43224061,0.0,-0.0,2.1390553,0.0,0.48053855,0.0,0.0,0.8769736,0.0,0.0,-0.08,1,0,0,0,0,0
43327316,0.0,-0.0,2.1392727,0.0,0.4804432,0.0,0.0,0.87702584,0.0,0.0,-0.08,1,0,0,0,0,0
43427262,0.0,-0.0,2.139338,0.0,0.48041454,0.0,0.0,0.8770416,0.0,0.0,-0.08,1,0,0,0,0,0
43527291,0.0,-0.0,2.1394231,0.0,0.48037723,0.0,0.0,0.87706196,0.0,0.0,-0.08,1,0,0,0,0,0
43631340,0.0,-0.0,2.139459,0.0,0.48036155,0.0,0.0,0.87707055,0.0,0.0,-0.08,1,0,0,0,0,0
43730502,0.0,-0.0,2.139442,0.0,0.48036897,0.0,0.0,0.8770665,0.0,0.0,-0.08,1,0,0,0,0,0
43834504,0.0,-0.0,2.139481,0.0,0.4803518,0.0,0.0,0.8770759,0.0,0.0,-0.08,1,0,0,0,0,0
43934473,0.0,-0.0,2.1395125,0.0,0.480338,0.0,0.0,0.8770835,0.0,0.0,-0.08,1,0,0,0,0,0
44034516,0.0,-0.0,2.1394935,0.0,0.48034638,0.0,0.0,0.8770789,0.0,0.0,-0.08,1,0,0,0,0,0
44138474,0.0,-0.0,2.1394577,0.0,0.48036206,0.0,0.0,0.8770703,0.0,0.0,-0.08,1,0,0,0,0,0
44237702,0.0,-0.0,2.1393578,0.0,0.48040587,0.0,0.0,0.8770463,0.0,0.0,-0.08,1,0,0,0,0,0
44341654,0.0,-0.0,2.1392155,0.0,0.48046827,0.0,0.0,0.87701213,0.0,0.0,-0.08,1,0,0,0,0,0
44441710,0.0,-0.0,2.1391401,0.0,0.48050132,0.0,0.0,0.876994,0.0,0.0,-0.08,1,0,0,0,0,0
44541671,0.0,-0.0,2.1390479,0.0,0.4805418,0.0,0.0,0.87697184,0.0,0.0,-0.08,1,0,0,0,0,0
44645705,0.0,-0.0,2.1389265,0.0,0.480595,0.0,0.0,0.8769427,0.0,0.0,-0.08,1,0,0,0,0,0
44745654,0.0,-0.0,2.138979,0.0,0.480572,0.0,0.0,0.8769553,0.0,0.0,-0.08,1,0,0,0,0,0
44848899,0.0,-0.0,2.1391287,0.0,0.48050633,0.0,0.0,0.8769913,0.0,0.0,-0.08,1,0,0,0,0,0
44948945,0.0,-0.0,2.1391282,0.0,0.48050654,0.0,0.0,0.87699115,0.0,0.0,-0.08,1,0,0,0,0,0
45052940,0.0,-0.0,2.1392446,0.0,0.48045552,0.0,0.0,0.8770191,0.0,0.0,-0.08,1,0,0,0,0,0
45152890,0.0,-0.0,2.1391625,0.0,0.4804915,0.0,0.0,0.8769994,0.0,0.0,-0.08,1,0,0,0,0,0
45252928,0.0,-0.0,2.1391444,0.0,0.48049945,0.0,0.0,0.876995,0.0,0.0,-0.08,1,0,0,0,0,0
45356864,0.0,-0.0,2.1391325,0.0,0.48050466,0.0,0.0,0.87699217,0.0,0.0,-0.08,1,0,0,0,0,0
45456149,0.0,-0.0,2.1390982,0.0,0.4805197,0.0,0.0,0.87698394,0.0,0.0,-0.08,1,0,0,0,0,0
45560112,0.0,-0.0,2.1392097,0.0,0.4804708,0.0,0.0,0.87701076,0.0,0.0,-0.08,1,0,0,0,0,0
45664128,0.0,-0.0,2.1393704,0.0,0.48040032,0.0,0.0,0.8770493,0.0,0.0,-0.08,1,0,0,0,0,0
45764094,0.0,-0.0,2.13959,0.0,0.48030403,0.0,0.0,0.877102,0.0,0.0,-0.08,1,0,0,0,0,0
45868066,0.0,-0.0,2.1396728,0.0,0.48026776,0.0,0.0,0.8771219,0.0,0.0,-0.08,1,0,0,0,0,0
45967353,0.0,-0.0,2.1397862,0.0,0.480218,0.0,0.0,0.8771492,0.0,0.0,-0.08,1,0,0,0,0,0
46071337,0.0,-0.0,2.1397383,0.0,0.480239,0.0,0.0,0.87713766,0.0,0.0,-0.08,1,0,0,0,0,0
46175324,0.0,-0.0,2.1397328,0.0,0.4802414,0.0,0.0,0.87713635,0.0,0.0,-0.08,1,0,0,0,0,0
46275312,0.0,-0.0,2.1396503,0.0,0.48027757,0.0,0.0,0.87711656,0.0,0.0,-0.08,1,0,0,0,0,0
46379331,0.0,-0.0,2.1395693,0.0,0.48031312,0.0,0.0,0.87709713,0.0,0.0,-0.08,1,0,0,0,0,0
46478454,0.0,-0.0,2.139481,0.0,0.4803518,0.0,0.0,0.8770759,0.0,0.0,-0.08,1,0,0,0,0,0
46582460,0.0,-0.0,2.139444,0.0,0.48036802,0.0,0.0,0.877067,0.0,0.0,-0.08,1,0,0,0,0,0
46682501,0.0,-0.0,2.1394935,0.0,0.48034638,0.0,0.0,0.8770789,0.0,0.0,-0.08,1,0,0,0,0,0
46782496,0.0,-0.0,2.139576,0.0,0.4803102,0.0,0.0,0.8770987,0.0,0.0,-0.08,1,0,0,0,0,0
46886488,0.0,-0.0,2.1397052,0.0,0.48025352,0.0,0.0,0.87712973,0.0,0.0,-0.08,1,0,0,0,0,0
46987255,0.0,-0.0,2.1399522,0.0,0.48014522,0.0,0.0,0.87718904,0.0,0.0,-0.08,1,0,0,0,0,0
47089705,0.0,-0.0,2.1402252,0.0,0.48002547,0.0,0.0,0.87725455,0.0,0.0,-0.08,1,0,0,0,0,0
47189742,0.0,-0.0,2.1405065,0.0,0.47990206,0.0,0.0,0.8773221,0.0,0.0,-0.08,1,0,0,0,0,0
47289698,0.0,-0.0,2.140675,0.0,0.47982812,0.0,0.0,0.87736255,0.0,0.0,-0.08,1,0,0,0,0,0
47393671,0.0,-0.0,2.1406085,0.0,0.4798573,0.0,0.0,0.8773465,0.0,0.0,-0.08,1,0,0,0,0,0
47493679,0.0,-0.0,2.1406054,0.0,0.47985867,0.0,0.0,0.8773458,0.0,0.0,-0.08,1,0,0,0,0,0
47596853,0.0,-0.0,2.1405494,0.0,0.47988322,0.0,0.0,0.8773323,0.0,0.0,-0.08,1,0,0,0,0,0
47696919,0.0,-0.0,2.140575,0.0,0.47987205,0.0,0.0,0.87733847,0.0,0.0,-0.08,1,0,0,0,0,0
47796917,0.0,-0.0,2.1405969,0.0,0.47986242,0.0,0.0,0.8773438,0.0,0.0,-0.08,1,0,0,0,0,0
47900854,0.0,-0.0,2.1405425,0.0,0.47988626,0.0,0.0,0.8773307,0.0,0.0,-0.08,1,0,0,0,0,0
48000858,0.0,-0.0,2.140502,0.0,0.47990406,0.0,0.0,0.877321,0.0,0.0,-0.08,1,0,0,0,0,0
48104105,0.0,-0.0,2.1405785,0.0,0.47987047,0.0,0.0,0.8773393,0.0,0.0,-0.08,1,0,0,0,0,0
48204094,0.0,-0.0,2.140656,0.0,0.4798365,0.0,0.0,0.87735796,0.0,0.0,-0.08,1,0,0,0,0,0
48304086,0.0,-0.0,2.1407058,0.0,0.47981462,0.0,0.0,0.8773699,0.0,0.0,-0.08,1,0,0,0,0,0
48408096,0.0,-0.0,2.1407228,0.0,0.4798072,0.0,0.0,0.877374,0.0,0.0,-0.08,1,0,0,0,0,0
48508062,0.0,-0.0,2.140849,0.0,0.47975177,0.0,0.0,0.8774043,0.0,0.0,-0.08,1,0,0,0,0,0
48610543,0.0,-0.0,2.1409729,0.0,0.47969747,0.0,0.0,0.87743396,0.0,0.0,-0.08,1,0,0,0,0,0
48711335,0.0,-0.0,2.1411173,0.0,0.47963408,0.0,0.0,0.8774686,0.0,0.0,-0.08,1,0,0,0,0,0
48815265,0.0,-0.0,2.1413374,0.0,0.47953755,0.0,0.0,0.8775214,0.0,0.0,-0.08,1,0,0,0,0,0
48919385,0.0,-0.0,2.1413803,0.0,0.4795187,0.0,0.0,0.87753165,0.0,0.0,-0.08,1,0,0,0,0,0
49019353,0.0,-0.0,2.1414897,0.0,0.4794707,0.0,0.0,0.8775579,0.0,0.0,-0.08,1,0,0,0,0,0
49123269,0.0,-0.0,2.1414866,0.0,0.47947204,0.0,0.0,0.87755716,0.0,0.0,-0.08,1,0,0,0,0,0
49222543,0.0,-0.0,2.1414702,0.0,0.47947928,0.0,0.0,0.87755316,0.0,0.0,-0.08,1,0,0,0,0,0
50037699,0.0,-0.0,2.1416917,0.0,0.4793821,0.0,0.0,0.87760633,0.0,0.0,-0.08,1,0,0,0,0,0
50544873,0.0,-0.0,2.142041,0.0,0.4792288,0.0,0.0,0.87769,0.0,0.0,-0.08,1,0,0,0,0,0
50648900,0.0,-0.0,2.142126,0.0,0.47919145,0.0,0.0,0.8777104,0.0,0.0,-0.08,1,0,0,0,0,0
50748852,0.0,-0.0,2.1421056,0.0,0.47920045,0.0,0.0,0.8777055,0.0,0.0,-0.08,1,0,0,0,0,0
50852160,0.0,-0.0,2.1421416,0.0,0.47918466,0.0,0.0,0.8777141,0.0,0.0,-0.08,1,0,0,0,0,0
50952102,0.0,-0.0,2.142091,0.0,0.47920683,0.0,0.0,0.877702,0.0,0.0,-0.08,1,0,0,0,0,0
51052102,0.0,-0.0,2.1418874,0.0,0.47929618,0.0,0.0,0.8776532,0.0,0.0,-0.08,1,0,0,0,0,0
51156091,0.0,-0.0,2.141671,0.0,0.4793912,0.0,0.0,0.8776013,0.0,0.0,-0.08,1,0,0,0,0,0
51256104,0.0,-0.0,2.1415105,0.0,0.47946158,0.0,0.0,0.8775629,0.0,0.0,-0.08,1,0,0,0,0,0
51359357,0.0,-0.0,2.1413877,0.0,0.47951546,0.0,0.0,0.87753344,0.0,0.0,-0.08,1,0,0,0,0,0
51459318,0.0,-0.0,2.1414094,0.0,0.47950596,0.0,0.0,0.8775386,0.0,0.0,-0.08,1,0,0,0,0,0
51559342,0.0,-0.0,2.1414237,0.0,0.47949967,0.0,0.0,0.8775421,0.0,0.0,-0.08,1,0,0,0,0,0
51663260,0.0,-0.0,2.1414583,0.0,0.4794845,0.0,0.0,0.87755036,0.0,0.0,-0.08,1,0,0,0,0,0
51763266,0.0,-0.0,2.1415825,0.0,0.47943,0.0,0.0,0.87758017,0.0,0.0,-0.08,1,0,0,0,0,0
51866494,0.0,-0.0,2.141639,0.0,0.4794052,0.0,0.0,0.87759364,0.0,0.0,-0.08,1,0,0,0,0,0
51966460,0.0,-0.0,2.1416883,0.0,0.47938356,0.0,0.0,0.8776055,0.0,0.0,-0.08,1,0,0,0,0,0
52070460,0.0,-0.0,2.1417267,0.0,0.47936672,0.0,0.0,0.8776147,0.0,0.0,-0.08,1,0,0,0,0,0
52174458,0.0,-0.0,2.1418,0.0,0.4793346,0.0,0.0,0.87763226,0.0,0.0,-0.08,1,0,0,0,0,0
52274453,0.0,-0.0,2.141773,0.0,0.4793464,0.0,0.0,0.87762576,0.0,0.0,-0.08,1,0,0,0,0,0
52374510,0.0,-0.0,2.141894,0.0,0.47929326,0.0,0.0,0.8776548,0.0,0.0,-0.08,1,0,0,0,0,0
52478541,0.0,-0.0,2.1419091,0.0,0.47928667,0.0,0.0,0.8776584,0.0,0.0,-0.08,1,0,0,0,0,0
52577670,0.0,-0.0,2.1419923,0.0,0.47925016,0.0,0.0,0.87767833,0.0,0.0,-0.08,1,0,0,0,0,0
52681686,0.0,-0.0,2.1420636,0.0,0.47921887,0.0,0.0,0.87769544,0.0,0.0,-0.08,1,0,0,0,0,0
52781715,0.0,-0.0,2.1420693,0.0,0.47921637,0.0,0.0,0.8776968,0.0,0.0,-0.08,1,0,0,0,0,0
52885669,0.0,-0.0,2.1421041,0.0,0.47920108,0.0,0.0,0.87770516,0.0,0.0,-0.08,1,0,0,0,0,0
52985723,0.0,-0.0,2.1421285,0.0,0.4791904,0.0,0.0,0.877711,0.0,0.0,-0.08,1,0,0,0,0,0
53088862,0.0,-0.0,2.1419475,0.0,0.47926983,0.0,0.0,0.8776676,0.0,0.0,-0.08,1,0,0,0,0,0
53188858,0.0,-0.0,2.1419706,0.0,0.47925967,0.0,0.0,0.87767315,0.0,0.0,-0.08,1,0,0,0,0,0
53288900,0.0,-0.0,2.1418962,0.0,0.47929233,0.0,0.0,0.8776553,0.0,0.0,-0.08,1,0,0,0,0,0
53392886,0.0,-0.0,2.1418486,0.0,0.47931325,0.0,0.0,0.87764394,0.0,0.0,-0.08,1,0,0,0,0,0
53491264,0.0,-0.0,2.1419108,0.0,0.47928593,0.0,0.0,0.8776588,0.0,0.0,-0.08,1,0,0,0,0,0
53596103,0.0,-0.0,2.1418576,0.0,0.47930926,0.0,0.0,0.8776461,0.0,0.0,-0.08,1,0,0,0,0,0
53700062,0.0,-0.0,2.1418114,0.0,0.47932956,0.0,0.0,0.877635,0.0,0.0,-0.08,1,0,0,0,0,0
53800108,0.0,-0.0,2.1417656,0.0,0.47934964,0.0,0.0,0.87762403,0.0,0.0,-0.08,1,0,0,0,0,0
53904066,0.0,-0.0,2.1417396,0.0,0.47936106,0.0,0.0,0.8776178,0.0,0.0,-0.08,1,0,0,0,0,0
54004160,0.0,-0.0,2.1417081,0.0,0.47937486,0.0,0.0,0.87761027,0.0,0.0,-0.08,1,0,0,0,0,0
54104122,0.0,-0.0,2.1416507,0.0,0.47940007,0.0,0.0,0.8775965,0.0,0.0,-0.08,1,0,0,0,0,0
54207270,0.0,-0.0,2.1415508,0.0,0.4794439,0.0,0.0,0.87757254,0.0,0.0,-0.08,1,0,0,0,0,0
54307256,0.0,-0.0,2.1419508,0.0,0.47926837,0.0,0.0,0.8776684,0.0,0.0,-0.08,1,0,0,0,0,0
54411295,0.0,-0.0,2.1425095,0.0,0.4790232,0.0,0.0,0.87780225,0.0,0.0,-0.08,1,0,0,0,0,0
54511346,0.0,-0.0,2.1430104,0.0,0.47880334,0.0,0.0,0.8779222,0.0,0.0,-0.08,1,0,0,0,0,0
54614475,0.0,-0.0,2.1434183,0.0,0.47862425,0.0,0.0,0.87801987,0.0,0.0,-0.08,1,0,0,0,0,0
54714485,0.0,-0.0,2.1436121,0.0,0.47853917,0.0,0.0,0.8780662,0.0,0.0,-0.08,1,0,0,0,0,0
54814484,0.0,-0.0,2.1438878,0.0,0.47841814,0.0,0.0,0.87813216,0.0,0.0,-0.08,1,0,0,0,0,0
54918457,0.0,-0.0,2.144394,0.0,0.4781959,0.0,0.0,0.8782532,0.0,0.0,-0.08,1,0,0,0,0,0
55018505,0.0,-0.0,2.144793,0.0,0.47802064,0.0,0.0,0.87834865,0.0,0.0,-0.08,1,0,0,0,0,0
55118500,0.0,-0.0,2.1450543,0.0,0.47790587,0.0,0.0,0.87841105,0.0,0.0,-0.08,1,0,0,0,0,0
55221653,0.0,-0.0,2.1452026,0.0,0.47784072,0.0,0.0,0.8784465,0.0,0.0,-0.08,1,0,0,0,0,0
55321666,0.0,-0.0,2.1452336,0.0,0.4778271,0.0,0.0,0.8784539,0.0,0.0,-0.08,1,0,0,0,0,0
55425656,0.0,-0.0,2.145174,0.0,0.4778533,0.0,0.0,0.87843966,0.0,0.0,-0.08,1,0,0,0,0,0
55525692,0.0,-0.0,2.1452,0.0,0.47784188,0.0,0.0,0.87844586,0.0,0.0,-0.08,1,0,0,0,0,0
55629730,0.0,-0.0,2.145156,0.0,0.47786126,0.0,0.0,0.8784354,0.0,0.0,-0.08,1,0,0,0,0,0
55728885,0.0,-0.0,2.1450238,0.0,0.47791928,0.0,0.0,0.8784038,0.0,0.0,-0.08,1,0,0,0,0,0
55832893,0.0,-0.0,2.1448598,0.0,0.4779913,0.0,0.0,0.87836456,0.0,0.0,-0.08,1,0,0,0,0,0
55936854,0.0,-0.0,2.144609,0.0,0.47810146,0.0,0.0,0.87830466,0.0,0.0,-0.08,1,0,0,0,0,0
56036910,0.0,-0.0,2.1444178,0.0,0.47818542,0.0,0.0,0.87825894,0.0,0.0,-0.08,1,0,0,0,0,0
56124383,0.0,-0.0,2.144219,0.0,0.47827274,0.0,0.0,0.8782114,0.0,0.0,-0.0,1,0,0,0,0,0
56240062,0.0,-0.0,2.1441064,0.0,0.47832215,0.0,0.0,0.87818444,0.0,0.0,-0.08,1,0,0,0,0,0
56340069,0.0,-0.0,2.1440268,0.0,0.4783571,0.0,0.0,0.8781654,0.0,0.0,-0.08,1,0,0,0,0,0
56444101,0.0,-0.0,2.1439328,0.0,0.47839835,0.0,0.0,0.87814295,0.0,0.0,-0.08,1,0,0,0,0,0
56544130,0.0,-0.0,2.1437738,0.0,0.47846818,0.0,0.0,0.87810487,0.0,0.0,-0.08,1,0,0,0,0,0
56648118,0.0,-0.0,2.1437001,0.0,0.47850055,0.0,0.0,0.8780873,0.0,0.0,-0.08,1,0,0,0,0,0
56747296,0.0,-0.0,2.1436124,0.0,0.47853905,0.0,0.0,0.8780663,0.0,0.0,-0.08,1,0,0,0,0,0
56851301,0.0,-0.0,2.1434774,0.0,0.4785983,0.0,0.0,0.878034,0.0,0.0,-0.08,1,0,0,0,0,0
56951259,0.0,-0.0,2.1435392,0.0,0.47857118,0.0,0.0,0.8780487,0.0,0.0,-0.08,1,0,0,0,0,0
57051299,0.0,-0.0,2.143405,0.0,0.47863013,0.0,0.0,0.87801665,0.0,0.0,-0.08,1,0,0,0,0,0
57144306,0.0,-0.0,2.14317,0.0,0.47873327,0.0,0.0,0.87796044,0.0,0.0,-0.0,1,0,0,0,0,0
57244174,0.0,-0.0,2.1429641,0.0,0.47882366,0.0,0.0,0.8779111,0.0,0.0,-0.0,1,0,0,0,0,0
57344885,0.0,-0.0,2.1426392,0.0,0.4789663,0.0,0.0,0.87783337,0.0,0.0,-0.0,1,0,0,0,0,0
57444364,0.0,-0.0,2.1424127,0.0,0.47906572,0.0,0.0,0.87777907,0.0,0.0,-0.0,1,0,0,0,0,0
57544541,0.0,-0.0,2.1421738,0.0,0.47917056,0.0,0.0,0.87772185,0.0,0.0,-0.0,1,0,0,0,0,0
57644788,0.0,-0.0,2.1420403,0.0,0.47922915,0.0,0.0,0.87768984,0.0,0.0,-0.0,1,0,0,0,0,0
57764807,0.0,-0.0,2.141787,0.0,0.47934023,0.0,0.0,0.87762916,0.0,0.0,-0.0,1,0,0,0,0,0
57864911,0.0,-0.0,2.1417313,0.0,0.47936472,0.0,0.0,0.87761575,0.0,0.0,-0.0,1,0,0,0,0,0
57964932,0.0,-0.0,2.1416304,0.0,0.47940895,0.0,0.0,0.87759167,0.0,0.0,-0.0,1,0,0,0,0,0
58064978,0.0,-0.0,2.1415405,0.0,0.4794484,0.0,0.0,0.87757003,0.0,0.0,-0.0,1,0,0,0,0,0
58165071,0.0,-0.0,2.141511,0.0,0.47946137,0.0,0.0,0.877563,0.0,0.0,-0.0,1,0,0,0,0,0
58265231,0.0,-0.0,2.141397,0.0,0.47951138,0.0,0.0,0.8775357,0.0,0.0,-0.0,1,0,0,0,0,0
58365382,0.0,-0.0,2.141424,0.0,0.47949958,0.0,0.0,0.87754214,0.0,0.0,-0.0,1,0,0,0,0,0
58465580,0.0,-0.0,2.1411414,0.0,0.47962356,0.0,0.0,0.8774744,0.0,0.0,-0.0,1,0,0,0,0,0
58565671,0.0,-0.0,2.1410837,0.0,0.47964883,0.0,0.0,0.87746054,0.0,0.0,-0.0,1,0,0,0,0,0
58667180,0.0,-0.0,2.1413088,0.0,0.4795501,0.0,0.0,0.8775145,0.0,0.0,-0.0,1,0,0,0,0,0
58765719,0.0,-0.0,2.1408226,0.0,0.47976342,0.0,0.0,0.87739795,0.0,0.0,-0.0,1,0,0,0,0,0
58865920,0.0,-0.0,2.1407766,0.0,0.47978356,0.0,0.0,0.87738687,0.0,0.0,-0.0,1,0,0,0,0,0
58986192,0.0,-0.0,2.1407557,0.0,0.47979277,0.0,0.0,0.8773819,0.0,0.0,-0.0,1,0,0,0,0,0
59085993,0.0,-0.0,2.1405108,0.0,0.47990018,0.0,0.0,0.8773231,0.0,0.0,-0.0,1,0,0,0,0,0
59186111,0.0,-0.0,2.140456,0.0,0.4799243,0.0,0.0,0.87731,0.0,0.0,-0.0,1,0,0,0,0,0
59286310,0.0,-0.0,2.1404371,0.0,0.47993258,0.0,0.0,0.8773054,0.0,0.0,-0.0,1,0,0,0,0,0
59386459,0.0,-0.0,2.1402957,0.0,0.4799946,0.0,0.0,0.8772715,0.0,0.0,-0.0,1,0,0,0,0,0
59486566,0.0,-0.0,2.1403103,0.0,0.4799881,0.0,0.0,0.877275,0.0,0.0,-0.0,1,0,0,0,0,0
59586569,0.0,-0.0,2.140266,0.0,0.48000762,0.0,0.0,0.8772644,0.0,0.0,-0.0,1,0,0,0,0,0
59686587,0.0,-0.0,2.1401463,0.0,0.48006007,0.0,0.0,0.87723565,0.0,0.0,-0.0,1,0,0,0,0,0
59786698,0.0,-0.0,2.140061,0.0,0.48009753,0.0,0.0,0.8772151,0.0,0.0,-0.0,1,0,0,0,0,0
59886798,0.0,-0.0,2.139958,0.0,0.48014274,0.0,0.0,0.8771904,0.0,0.0,-0.0,1,0,0,0,0,0
59987009,0.0,-0.0,2.1398973,0.0,0.4801693,0.0,0.0,0.87717587,0.0,0.0,-0.0,1,0,0,0,0,0
60088250,0.0,-0.0,2.1398215,0.0,0.4802025,0.0,0.0,0.8771577,0.0,0.0,-0.0,1,0,0,0,0,0
60187230,0.0,-0.0,2.1398826,0.0,0.48017573,0.0,0.0,0.8771723,0.0,0.0,-0.0,1,0,0,0,0,0
60287515,0.0,-0.0,2.13982,0.0,0.48020312,0.0,0.0,0.8771573,0.0,0.0,-0.0,1,0,0,0,0,0
60407740,0.0,-0.0,2.1397307,0.0,0.4802424,0.0,0.0,0.8771359,0.0,0.0,-0.0,1,0,0,0,0,0
60507406,0.0,-0.0,2.1396315,0.0,0.48028582,0.0,0.0,0.87711203,0.0,0.0,-0.0,1,0,0,0,0,0
60607546,0.0,-0.0,2.1395078,0.0,0.48034006,0.0,0.0,0.87708235,0.0,0.0,-0.0,1,0,0,0,0,0
60707623,0.0,-0.0,2.1393352,0.0,0.4804158,0.0,0.0,0.87704086,0.0,0.0,-0.0,1,0,0,0,0,0
60807795,0.0,-0.0,2.1391788,0.0,0.4804844,0.0,0.0,0.8770033,0.0,0.0,-0.0,1,0,0,0,0,0
60908017,0.0,-0.0,2.1391904,0.0,0.48047924,0.0,0.0,0.87700605,0.0,0.0,-0.0,1,0,0,0,0,0
61008101,0.0,-0.0,2.1391807,0.0,0.48048356,0.0,0.0,0.8770038,0.0,0.0,-0.0,1,0,0,0,0,0
61108138,0.0,-0.0,2.139288,0.0,0.48043653,0.0,0.0,0.87702954,0.0,0.0,-0.0,1,0,0,0,0,0
61208188,0.0,-0.0,2.1393864,0.0,0.48039335,0.0,0.0,0.87705314,0.0,0.0,-0.0,1,0,0,0,0,0
61308228,0.0,-0.0,2.1394255,0.0,0.48037618,0.0,0.0,0.87706256,0.0,0.0,-0.0,1,0,0,0,0,0
61408304,0.0,-0.0,2.139481,0.0,0.48035184,0.0,0.0,0.87707585,0.0,0.0,-0.0,1,0,0,0,0,0
61508401,0.0,-0.0,2.1394587,0.0,0.48036167,0.0,0.0,0.87707055,0.0,0.0,-0.0,1,0,0,0,0,0
61628876,0.0,-0.0,2.1393209,0.0,0.4804221,0.0,0.0,0.8770374,0.0,0.0,-0.0,1,0,0,0,0,0
61728825,0.0,-0.0,2.1392207,0.0,0.480466,0.0,0.0,0.8770133,0.0,0.0,-0.0,1,0,0,0,0,0
61829184,0.0,-0.0,2.1390896,0.0,0.48052347,0.0,0.0,0.87698185,0.0,0.0,-0.0,1,0,0,0,0,0
61928965,0.0,-0.0,2.1391182,0.0,0.4805109,0.0,0.0,0.87698877,0.0,0.0,-0.0,1,0,0,0,0,0
62029045,-0.0,-0.0,2.1391187,0.0,0.48051077,0.0,-0.0,0.8769889,0.0,0.0,-0.12,1,0,0,0,0,0
62129089,-0.0,-0.0,2.1391187,0.0,0.48051077,0.0,-0.0,0.8769889,0.0,0.0,-0.12,1,0,0,0,0,0
62229151,-0.0,-0.0,2.1391187,0.0,0.48051077,0.0,-0.0,0.8769889,0.0,0.0,-0.12,1,0,0,0,0,0
62329676,-0.0,-0.0,2.1391187,0.0,0.48051077,0.0,-0.0,0.8769889,0.0,0.0,-0.14605391,1,0,0,0,0,0
62429595,-0.0,-0.0,2.1391187,0.0,0.48051077,0.0,-0.0,0.8769889,0.0,0.0,-0.1789869,1,0,0,0,0,0
62529648,-0.0,-0.0,2.1391187,0.0,0.48051077,0.0,-0.0,0.8769889,0.0,0.0,-0.21039164,1,0,0,0,0,0
62629729,-0.0,-0.0,2.1391187,0.0,0.48051077,0.0,-0.0,0.8769889,0.0,0.0,-0.24509272,1,0,0,0,0,0
62729796,-0.0,-0.0,2.1391187,0.0,0.48051077,0.0,-0.0,0.8769889,0.0,0.0,-0.2783228,1,0,0,0,0,0
62829815,-0.0,-0.0,2.1391187,0.0,0.48051077,0.0,-0.0,0.8769889,0.0,0.0,-0.31099135,1,0,0,0,0,0
62929841,-0.0,-0.0,2.1391187,0.0,0.48051077,0.0,-0.0,0.8769889,0.0,0.0,-0.34496045,1,0,0,0,0,0
63029967,-0.0,-0.0,2.1391187,-0.0,0.48051077,0.0,-0.0,0.8769889,0.0,0.0,-0.38401508,1,0,0,0,0,0
63150139,-0.0,-0.0,2.1391187,0.0,0.48051077,0.0,-0.0,0.8769889,0.0,0.0,-0.43062523,1,0,0,0,0,0
63250727,-0.0,-0.0,2.1391187,0.0,0.48051077,0.0,-0.0,0.8769889,0.0,0.0,-0.42350614,1,0,0,0,0,0
63350412,-0.0,-0.0,2.1391187,0.0,0.48051077,0.0,-0.0,0.8769889,0.0,0.0,-0.42084655,1,0,0,0,0,0
63450716,-0.0,-0.0,2.1391187,-0.0,0.48051077,0.0,-0.0,0.8769889,0.0,0.0,-0.41595712,1,0,0,0,0,0
63550543,-0.0,-0.0,2.1391187,-0.0,0.48051077,0.0,-0.0,0.8769889,0.0,0.0,-0.405135,1,0,0,0,0,0
63650741,-0.0,-0.0,2.1391187,0.0,0.48051077,0.0,-0.0,0.8769889,0.0,0.0,-0.41985142,1,0,0,0,0,0
63750666,-0.0,-0.0,2.1391187,0.0,0.48051077,0.0,-0.0,0.8769889,0.0,0.0,-0.41014946,1,0,0,0,0,0
63850754,-0.0,-0.0,2.1391187,0.0,0.48051074,0.0,-0.0,0.8769888,0.0,0.0,-0.40662637,1,0,0,0,0,0
63951104,-0.0,-0.0,2.1391187,-0.0,0.48051077,0.0,-0.0,0.8769889,0.0,0.0,-0.3999204,1,0,0,0,0,0
64051019,-0.0,-0.0,2.1391187,-0.0,0.48051077,0.0,-0.0,0.8769889,0.0,0.0,-0.39932546,1,0,0,0,0,0
64151245,-0.0,-0.0,2.1391187,-0.0,0.48051074,0.0,-0.0,0.8769888,0.0,0.0,-0.389255,1,0,0,0,0,0
64251300,-0.0,-0.0,2.1391187,0.0,0.48051077,0.0,-0.0,0.8769889,0.0,0.0,-0.38417637,1,0,0,0,0,0
64351339,-0.0,-0.0,2.1391187,0.0,0.48051077,0.0,-0.0,0.8769889,0.0,0.0,-0.38529027,1,0,0,0,0,0
64471391,-0.0,-0.0,2.1391187,0.0,0.48051074,0.0,-0.0,0.8769888,0.0,0.0,-0.3770718,1,0,0,0,0,0
64571511,-0.0,-0.0,2.1391187,0.0,0.48051077,0.0,-0.0,0.8769889,0.0,0.0,-0.383145,1,0,0,0,0,0
64671582,-0.0,-0.0,2.1391187,-0.0,0.48051077,0.0,-0.0,0.8769889,0.0,0.0,-0.38173124,1,0,0,0,0,0
64771737,-0.0,-0.0,2.1391187,-0.0,0.48051077,0.0,-0.0,0.8769889,0.0,0.0,-0.3807205,1,0,0,0,0,0
64873230,-0.0,-0.0,2.1391187,-0.0,0.48051077,0.0,-0.0,0.8769889,0.0,0.0,-0.3760083,1,0,0,0,0,0
64972125,-0.0,-0.0,2.1391187,0.0,0.48051077,0.0,-0.0,0.8769889,0.0,0.0,-0.3776495,1,0,0,0,0,0
65072578,-0.0,-0.0,2.1391187,0.0,0.48051077,0.0,-0.0,0.8769889,0.0,0.0,-0.37684038,1,0,0,0,0,0
65172176,-0.0,-0.0,2.1391187,0.0,0.48051077,0.0,-0.0,0.8769889,0.0,0.0,-0.37705606,1,0,0,0,0,0
65272913,-0.0,-0.0,2.1391187,0.0,0.48051077,0.0,-0.0,0.8769889,0.0,0.0,-0.37773663,1,0,0,0,0,0
65372284,-0.0,-0.0,2.1391187,-0.0,0.48051074,0.0,-0.0,0.8769888,0.0,0.0,-0.37737775,1,0,0,0,0,0
65472547,-0.0,-0.0,2.1391187,-0.0,0.48051077,0.0,-0.0,0.8769889,0.0,0.0,-0.37573755,1,0,0,0,0,0
65572562,-0.0,-0.0,2.1391187,0.0,0.48051077,0.0,-0.0,0.8769889,0.0,0.0,-0.37431303,1,0,0,0,0,0
65672781,-0.0,-0.0,2.1391187,0.0,0.48051077,0.0,-0.0,0.8769889,0.0,0.0,-0.3758292,1,0,0,0,0,0
65792885,-0.0,-0.0,2.1391187,0.0,0.48051077,0.0,-0.0,0.8769889,0.0,0.0,-0.3644538,1,0,0,0,0,0
65892962,-0.0,-0.0,2.1391187,0.0,0.48051077,0.0,-0.0,0.8769889,0.0,0.0,-0.3619891,1,0,0,0,0,0
65993034,-0.0,-0.0,2.1391187,0.0,0.48051077,0.0,-0.0,0.8769889,0.0,0.0,-0.36137652,1,0,0,0,0,0
66093054,-0.0,-0.0,2.1391187,0.0,0.48051077,0.0,-0.0,0.8769889,0.0,0.0,-0.36001334,1,0,0,0,0,0
66193113,-0.0,-0.0,2.1391187,0.0,0.48051077,0.0,-0.0,0.8769889,0.0,0.0,-0.34908706,1,0,0,0,0,0
66293199,-0.0,-0.0,2.1391187,0.0,0.48051077,0.0,-0.0,0.8769889,0.0,0.0,-0.34244025,1,0,0,0,0,0
66393378,-0.0,-0.0,2.1391187,0.0,0.48051077,0.0,-0.0,0.8769889,0.0,0.0,-0.31992888,1,0,0,0,0,0
66493748,-0.0,-0.0,2.1391187,0.0,0.48051074,0.0,-0.0,0.8769888,0.0,0.0,-0.30184233,1,0,0,0,0,0
66593860,-0.0,-0.0,2.1391187,0.0,0.48051077,0.0,-0.0,0.8769889,0.0,0.0,-0.27610248,1,0,0,0,0,0
66693702,-0.0,-0.0,2.1391187,0.0,0.48051077,0.0,-0.0,0.8769889,0.0,0.0,-0.2680533,1,0,0,0,0,0
66794307,0.0,-0.0,2.1352673,0.0,0.4821987,0.0,0.0,0.87606186,0.0,0.0,-0.0,1,0,0,0,0,0
66893832,0.0,-0.0,2.1350431,0.0,0.48229685,0.0,0.0,0.87600785,0.0,0.0,-0.0,1,0,0,0,0,0
66994572,0.0,-0.0,2.1354327,0.0,0.48212618,0.0,0.0,0.87610185,0.0,0.0,-0.0,1,0,0,0,0,0
67114153,0.0,-0.0,2.1355805,0.0,0.4820615,0.0,0.0,0.8761374,0.0,0.0,-0.0,1,0,0,0,0,0
67214320,0.0,-0.0,2.1353729,0.0,0.48215243,0.0,0.0,0.8760873,0.0,0.0,-0.0,1,0,0,0,0,0
67314422,0.0,-0.0,2.1356573,0.0,0.48202777,0.0,0.0,0.8761559,0.0,0.0,-0.0,1,0,0,0,0,0
67414487,0.0,-0.0,2.135611,0.0,0.4820481,0.0,0.0,0.87614477,0.0,0.0,-0.0,1,0,0,0,0,0
67514558,0.0,-0.0,2.1357682,0.0,0.48197925,0.0,0.0,0.8761826,0.0,0.0,-0.0,1,0,0,0,0,0
67614572,0.0,-0.0,2.1357267,0.0,0.48199737,0.0,0.0,0.87617266,0.0,0.0,-0.0,1,0,0,0,0,0
67714608,0.0,-0.0,2.135698,0.0,0.48200995,0.0,0.0,0.87616575,0.0,0.0,-0.0,1,0,0,0,0,0
67814753,0.0,-0.0,2.1357436,0.0,0.48198998,0.0,0.0,0.8761767,0.0,0.0,-0.0,1,0,0,0,0,0
67914823,0.0,-0.0,2.1357875,0.0,0.48197076,0.0,0.0,0.8761873,0.0,0.0,-0.0,1,0,0,0,0,0
68014994,0.0,-0.0,2.1358962,0.0,0.48192316,0.0,0.0,0.87621343,0.0,0.0,-0.0,1,0,0,0,0,0
68115387,0.0,-0.0,2.1360657,0.0,0.48184887,0.0,0.0,0.8762543,0.0,0.0,-0.0,1,0,0,0,0,0
68216275,0.0,-0.0,2.136231,0.0,0.48177648,0.0,0.0,0.87629414,0.0,0.0,-0.0,1,0,0,0,0,0
68335546,0.0,-0.0,2.1360683,0.0,0.48184776,0.0,0.0,0.876255,0.0,0.0,-0.0,1,0,0,0,0,0
68435419,0.0,-0.0,2.1361065,0.0,0.481831,0.0,0.0,0.8762642,0.0,0.0,-0.0,1,0,0,0,0,0
68535456,0.0,-0.0,2.1358771,0.0,0.48193145,0.0,0.0,0.8762089,0.0,0.0,-0.0,1,0,0,0,0,0
68635545,0.0,-0.0,2.1358848,0.0,0.48192814,0.0,0.0,0.87621075,0.0,0.0,-0.0,1,0,0,0,0,0
68735756,0.0,-0.0,2.135774,0.0,0.48197678,0.0,0.0,0.876184,0.0,0.0,-0.0,1,0,0,0,0,0
68835909,0.0,-0.0,2.1355243,0.0,0.48208612,0.0,0.0,0.87612385,0.0,0.0,-0.0,1,0,0,0,0,0
68935968,0.0,-0.0,2.135737,0.0,0.48199296,0.0,0.0,0.8761751,0.0,0.0,-0.0,1,0,0,0,0,0
69036058,0.0,-0.0,2.1354663,0.0,0.4821115,0.0,0.0,0.8761099,0.0,0.0,-0.0,1,0,0,0,0,0
69136125,0.0,-0.0,2.1355302,0.0,0.48208347,0.0,0.0,0.8761253,0.0,0.0,-0.0,1,0,0,0,0,0
69236163,0.0,-0.0,2.135498,0.0,0.48209757,0.0,0.0,0.8761175,0.0,0.0,-0.0,1,0,0,0,0,0
69336254,0.0,-0.0,2.135352,0.0,0.48216158,0.0,0.0,0.8760823,0.0,0.0,-0.0,1,0,0,0,0,0
69436357,0.0,-0.0,2.1354818,0.0,0.4821047,0.0,0.0,0.87611365,0.0,0.0,-0.0,1,0,0,0,0,0
69536437,0.0,-0.0,2.1354594,0.0,0.48211458,0.0,0.0,0.8761082,0.0,0.0,-0.0,1,0,0,0,0,0
69636892,0.0,-0.0,2.1355598,0.0,0.48207057,0.0,0.0,0.8761324,0.0,0.0,-0.0,1,0,0,0,0,0
69736841,0.0,-0.0,2.1357145,0.0,0.4820027,0.0,0.0,0.87616974,0.0,0.0,-0.0,1,0,0,0,0,0
69857179,0.0,-0.0,2.1358008,0.0,0.48196492,0.0,0.0,0.87619054,0.0,0.0,-0.0,1,0,0,0,0,0
69957890,0.0,-0.0,2.1359262,0.0,0.48190996,0.0,0.0,0.87622076,0.0,0.0,-0.0,1,0,0,0,0,0
70057008,0.0,-0.0,2.1359897,0.0,0.48188224,0.0,0.0,0.876236,0.0,0.0,-0.0,1,0,0,0,0,0
70157115,0.0,-0.0,2.1359825,0.0,0.48188537,0.0,0.0,0.8762343,0.0,0.0,-0.0,1,0,0,0,0,0
70257156,0.0,-0.0,2.1360335,0.0,0.481863,0.0,0.0,0.8762466,0.0,0.0,-0.0,1,0,0,0,0,0
70357251,0.0,-0.0,2.1360168,0.0,0.48187035,0.0,0.0,0.8762426,0.0,0.0,-0.0,1,0,0,0,0,0
70457595,0.0,-0.0,2.136107,0.0,0.48183084,0.0,0.0,0.8762643,0.0,0.0,-0.0,1,0,0,0,0,0
70557608,0.0,-0.0,2.1361933,0.0,0.48179296,0.0,0.0,0.8762851,0.0,0.0,-0.0,1,0,0,0,0,0
70657720,0.0,-0.0,2.1363213,0.0,0.48173696,0.0,0.0,0.8763159,0.0,0.0,-0.0,1,0,0,0,0,0
70777738,0.0,-0.0,2.1364222,0.0,0.48169276,0.0,0.0,0.87634015,0.0,0.0,-0.0,1,0,0,0,0,0
70877829,0.0,-0.0,2.1365633,0.0,0.48163092,0.0,0.0,0.8763742,0.0,0.0,-0.0,1,0,0,0,0,0
70977866,0.0,-0.0,2.1366944,0.0,0.4815734,0.0,0.0,0.87640584,0.0,0.0,-0.0,1,0,0,0,0,0
71077966,0.0,-0.0,2.1367729,0.0,0.48153898,0.0,0.0,0.8764247,0.0,0.0,-0.0,1,0,0,0,0,0
71178212,0.0,-0.0,2.1368992,0.0,0.48148373,0.0,0.0,0.87645507,0.0,0.0,-0.0,1,0,0,0,0,0
71278535,0.0,-0.0,2.1369765,0.0,0.48144984,0.0,0.0,0.87647367,0.0,0.0,-0.0,1,0,0,0,0,0
71378640,0.0,-0.0,2.1370592,0.0,0.48141357,0.0,0.0,0.87649363,0.0,0.0,-0.0,1,0,0,0,0,0
71478512,0.0,-0.0,2.137185,0.0,0.4813584,0.0,0.0,0.87652385,0.0,0.0,-0.0,1,0,0,0,0,0
71579485,0.0,-0.0,2.1373534,0.0,0.4812846,0.0,0.0,0.8765644,0.0,0.0,-0.0,1,0,0,0,0,0
71678567,0.0,-0.0,2.1375146,0.0,0.481214,0.0,0.0,0.8766032,0.0,0.0,-0.0,1,0,0,0,0,0
71779124,0.0,-0.0,2.137607,0.0,0.48117346,0.0,0.0,0.8766255,0.0,0.0,-0.0,1,0,0,0,0,0
71878781,0.0,-0.0,2.137714,0.0,0.4811266,0.0,0.0,0.87665117,0.0,0.0,-0.0,1,0,0,0,0,0
71978946,0.0,-0.0,2.1376967,0.0,0.48113412,0.0,0.0,0.876647,0.0,0.0,-0.0,1,0,0,0,0,0
72079108,0.0,-0.0,2.1376238,0.0,0.48116606,0.0,0.0,0.8766295,0.0,0.0,-0.0,1,0,0,0,0,0
72179284,0.0,-0.0,2.1375911,0.0,0.48118046,0.0,0.0,0.8766216,0.0,0.0,-0.0,1,0,0,0,0,0
72299392,0.0,-0.0,2.137607,0.0,0.48117346,0.0,0.0,0.8766255,0.0,0.0,-0.0,1,0,0,0,0,0
72399442,0.0,-0.0,2.13757,0.0,0.48118976,0.0,0.0,0.8766165,0.0,0.0,-0.0,1,0,0,0,0,0
72499479,0.0,-0.0,2.137486,0.0,0.48122656,0.0,0.0,0.8765963,0.0,0.0,-0.0,1,0,0,0,0,0
72599563,0.0,-0.0,2.1373692,0.0,0.48127773,0.0,0.0,0.8765682,0.0,0.0,-0.0,1,0,0,0,0,0
72699607,0.0,-0.0,2.1373777,0.0,0.48127395,0.0,0.0,0.8765702,0.0,0.0,-0.0,1,0,0,0,0,0
72799768,0.0,-0.0,2.1373801,0.0,0.48127294,0.0,0.0,0.87657076,0.0,0.0,-0.0,1,0,0,0,0,0
72900181,0.0,-0.0,2.1373897,0.0,0.48126873,0.0,0.0,0.8765731,0.0,0.0,-0.0,1,0,0,0,0,0
73000283,0.0,-0.0,2.1374838,0.0,0.4812275,0.0,0.0,0.8765958,0.0,0.0,-0.0,1,0,0,0,0,0
73100122,0.0,-0.0,2.1374748,0.0,0.48123142,0.0,0.0,0.87659365,0.0,0.0,-0.0,1,0,0,0,0,0
73201206,0.0,-0.0,2.1374485,0.0,0.48124292,0.0,0.0,0.87658733,0.0,0.0,-0.0,1,0,0,0,0,0
73300215,0.0,-0.0,2.1374075,0.0,0.48126087,0.0,0.0,0.87657744,0.0,0.0,-0.0,1,0,0,0,0,0
73400401,-0.0,-0.0,2.1373632,0.0,0.48128036,0.0,-0.0,0.8765667,0.0,0.0,-0.12,1,0,0,0,0,0
73500444,-0.0,-0.0,2.1373632,0.0,0.48128036,0.0,-0.0,0.8765667,0.0,0.0,-0.12,1,0,0,0,0,0
73600698,-0.0,-0.0,2.1373632,0.0,0.48128036,0.0,-0.0,0.8765667,0.0,0.0,-0.12,1,0,0,0,0,0
73720728,-0.0,-0.0,2.1373632,0.0,0.48128036,0.0,-0.0,0.8765667,0.0,0.0,-0.13835913,1,0,0,0,0,0
73820852,-0.0,-0.0,2.1373632,-0.0,0.48128036,0.0,-0.0,0.8765667,0.0,0.0,-0.17127728,1,0,0,0,0,0
73920902,-0.0,-0.0,2.1373632,-0.0,0.48128036,0.0,-0.0,0.8765667,0.0,0.0,-0.20517868,1,0,0,0,0,0
74020951,-0.0,-0.0,2.1373632,0.0,0.48128036,0.0,-0.0,0.8765667,0.0,0.0,-0.24025965,1,0,0,0,0,0
74121065,-0.0,-0.0,2.1373632,0.0,0.48128036,0.0,-0.0,0.8765667,0.0,0.0,-0.2759443,1,0,0,0,0,0
74221130,-0.0,-0.0,2.1373632,0.0,0.48128036,0.0,-0.0,0.8765667,0.0,0.0,-0.31113732,1,0,0,0,0,0
74321215,-0.0,-0.0,2.1373632,0.0,0.48128036,0.0,-0.0,0.8765667,0.0,0.0,-0.34459466,1,0,0,0,0,0
74421434,-0.0,-0.0,2.1373632,-0.0,0.48128036,0.0,-0.0,0.8765667,0.0,0.0,-0.3767864,1,0,0,0,0,0
74521765,-0.0,-0.0,2.1373632,-0.0,0.48128036,0.0,-0.0,0.8765667,0.0,0.0,-0.4136555,1,0,0,0,0,0
74622795,-0.0,-0.0,2.1373632,-0.0,0.48128036,0.0,-0.0,0.8765667,0.0,0.0,-0.44771984,1,0,0,0,0,0
74721830,-0.0,-0.0,2.1373632,0.0,0.48128036,0.0,-0.0,0.8765667,0.0,0.0,-0.48321995,1,0,0,0,0,0
74822691,-0.0,-0.0,2.1373632,0.0,0.48128036,0.0,-0.0,0.8765667,0.0,0.0,-0.5115516,1,0,0,0,0,0
74942047,-0.0,-0.0,2.1373632,0.0,0.48128036,0.0,-0.0,0.8765667,0.0,0.0,-0.5099376,1,0,0,0,0,0
75041986,-0.0,-0.0,2.1373632,0.0,0.48128036,0.0,-0.0,0.8765667,0.0,0.0,-0.50407887,1,0,0,0,0,0
75142114,-0.0,-0.0,2.1373632,-0.0,0.48128036,0.0,-0.0,0.8765667,0.0,0.0,-0.47595456,1,0,0,0,0,0
75242299,-0.0,-0.0,2.1373632,0.0,0.48128036,0.0,-0.0,0.8765667,0.0,0.0,-0.44954237,1,0,0,0,0,0
75342408,-0.0,-0.0,2.1373632,0.0,0.4812804,0.0,-0.0,0.8765667,0.0,0.0,-0.46548903,1,0,0,0,0,0
75442476,-0.0,-0.0,2.1373632,0.0,0.48128036,0.0,-0.0,0.8765667,0.0,0.0,-0.5077787,1,0,0,0,0,0
75542533,-0.0,-0.0,2.1373632,0.0,0.48128036,0.0,-0.0,0.8765667,0.0,0.0,-0.52810776,1,0,0,0,0,0
75642602,-0.0,-0.0,2.1373632,0.0,0.48128036,0.0,-0.0,0.8765667,0.0,0.0,-0.51327443,1,0,0,0,0,0
75742778,-0.0,-0.0,2.1373632,0.0,0.48128036,0.0,-0.0,0.8765667,0.0,0.0,-0.4767513,1,0,0,0,0,0
75842763,-0.0,-0.0,2.1373632,0.0,0.4812804,0.0,-0.0,0.8765667,0.0,0.0,-0.485053,1,0,0,0,0,0
75942978,-0.0,-0.0,2.1373632,0.0,0.4812804,0.0,-0.0,0.8765667,0.0,0.0,-0.49847922,1,0,0,0,0,0
76042974,-0.0,-0.0,2.1373632,0.0,0.4812804,0.0,-0.0,0.8765667,0.0,0.0,-0.49508163,1,0,0,0,0,0
76143438,-0.0,-0.0,2.1373632,0.0,0.48128036,0.0,-0.0,0.8765667,0.0,0.0,-0.50653315,1,0,0,0,0,0
76243268,-0.0,-0.0,2.1373632,0.0,0.48128036,0.0,-0.0,0.8765667,0.0,0.0,-0.50964516,1,0,0,0,0,0
76363352,-0.0,-0.0,2.1373632,0.0,0.48128036,0.0,-0.0,0.8765667,0.0,0.0,-0.5082321,1,0,0,0,0,0
76464344,-0.0,-0.0,2.1373632,0.0,0.48128036,0.0,-0.0,0.8765667,0.0,0.0,-0.51022124,1,0,0,0,0,0
76563467,-0.0,-0.0,2.1373632,0.0,0.48128036,0.0,-0.0,0.8765667,0.0,0.0,-0.5053348,1,0,0,0,0,0
76663800,-0.0,-0.0,2.1373632,0.0,0.48128036,0.0,-0.0,0.8765667,0.0,0.0,-0.49464202,1,0,0,0,0,0
76763746,-0.0,-0.0,2.1373632,0.0,0.48128036,0.0,-0.0,0.8765667,0.0,0.0,-0.49808422,1,0,0,0,0,0
76863901,-0.0,-0.0,2.1373632,0.0,0.48128036,0.0,-0.0,0.8765667,0.0,0.0,-0.49958265,1,0,0,0,0,0
76963999,-0.0,-0.0,2.1373632,0.0,0.48128036,0.0,-0.0,0.8765667,0.0,0.0,-0.49163705,1,0,0,0,0,0
77064065,-0.0,-0.0,2.1373632,0.0,0.48128036,0.0,-0.0,0.8765667,0.0,0.0,-0.49407354,1,0,0,0,0,0
77164183,-0.0,-0.0,2.1373632,0.0,0.48128036,0.0,-0.0,0.8765667,0.0,0.0,-0.4998349,1,0,0,0,0,0
77264190,-0.0,-0.0,2.1373632,0.0,0.48128036,0.0,-0.0,0.8765667,0.0,0.0,-0.5008476,1,0,0,0,0,0
77364304,-0.0,-0.0,2.1373632,0.0,0.48128036,0.0,-0.0,0.8765667,0.0,0.0,-0.49502578,1,0,0,0,0,0
77464404,-0.0,-0.0,2.1373632,0.0,0.48128036,0.0,-0.0,0.8765667,0.0,0.0,-0.509885,1,0,0,0,0,0
77564533,-0.0,-0.0,2.1373632,0.0,0.48128036,0.0,-0.0,0.8765667,0.0,0.0,-0.51828593,1,0,0,0,0,0
77664925,-0.0,-0.0,2.1373632,0.0,0.48128036,0.0,-0.0,0.8765667,0.0,0.0,-0.51783776,1,0,0,0,0,0
77785077,-0.0,-0.0,2.1373632,0.0,0.48128036,0.0,-0.0,0.8765667,0.0,0.0,-0.5875716,1,0,0,0,0,0
77885131,-0.0,-0.0,2.1373632,0.0,0.48128036,0.0,-0.0,0.8765667,0.0,0.0,-0.4768854,1,0,0,0,0,0
77985125,-0.0,-0.0,2.1373632,0.0,0.48128036,0.0,-0.0,0.8765667,0.0,0.0,-0.4536582,1,0,0,0,0,0
78085016,-0.0,-0.0,2.1373632,0.0,0.4812804,0.0,-0.0,0.8765667,0.0,0.0,-0.44861215,1,0,0,0,0,0
78185731,-0.0,-0.0,2.1373632,0.0,0.48128036,0.0,-0.0,0.8765667,0.0,0.0,-0.4896037,1,0,0,0,0,0
78285192,-0.0,-0.0,2.1373632,0.0,0.48128036,0.0,-0.0,0.8765667,0.0,0.0,-0.51762867,1,0,0,0,0,0
78385398,-0.0,-0.0,2.1373632,0.0,0.48128036,0.0,-0.0,0.8765667,0.0,0.0,-0.5260287,1,0,0,0,0,0
78485579,-0.0,-0.0,2.1373632,0.0,0.48128036,0.0,-0.0,0.8765667,0.0,0.0,-0.51522386,1,0,0,0,0,0
78585713,-0.0,-0.0,2.1373632,0.0,0.48128036,0.0,-0.0,0.8765667,0.0,0.0,-0.50408983,1,0,0,0,0,0
78685749,-0.0,-0.0,2.1373632,0.0,0.48128036,0.0,-0.0,0.8765667,0.0,0.0,-0.508569,1,0,0,0,0,0
78785767,-0.0,-0.0,2.1373632,0.0,0.48128036,0.0,-0.0,0.8765667,0.0,0.0,-0.50392044,1,0,0,0,0,0
78885780,-0.0,-0.0,2.1373632,0.0,0.48128036,0.0,-0.0,0.8765667,0.0,0.0,-0.50297505,1,0,0,0,0,0
78985899,-0.0,-0.0,2.1373632,0.0,0.48128036,0.0,-0.0,0.8765667,0.0,0.0,-0.5066123,1,0,0,0,0,0
79085981,-0.0,-0.0,2.1373632,0.0,0.48128036,0.0,-0.0,0.8765667,0.0,0.0,-0.51351196,1,0,0,0,0,0
79186155,-0.0,-0.0,2.1373632,0.0,0.48128036,0.0,-0.0,0.8765667,0.0,0.0,-0.53191036,1,0,0,0,0,0
79306529,-0.0,-0.0,2.1373632,0.0,0.48128036,0.0,-0.0,0.8765667,0.0,0.0,-0.5198681,1,0,0,0,0,0
79406620,-0.0,-0.0,2.1373632,0.0,0.48128036,0.0,-0.0,0.8765667,0.0,0.0,-0.5068702,1,0,0,0,0,0
79506586,-0.0,-0.0,2.1373632,0.0,0.48128036,0.0,-0.0,0.8765667,0.0,0.0,-0.50520694,1,0,0,0,0,0
79607612,-0.0,-0.0,2.1373632,0.0,0.48128036,0.0,-0.0,0.8765667,0.0,0.0,-0.51492274,1,0,0,0,0,0
79706605,-0.0,-0.0,2.1373632,0.0,0.48128036,0.0,-0.0,0.8765667,0.0,0.0,-0.51761,1,0,0,0,0,0
79807978,-0.0,-0.0,2.1373632,0.0,0.48128036,0.0,-0.0,0.8765667,0.0,0.0,-0.51253676,1,0,0,0,0,0
79906804,-0.0,-0.0,2.1373632,0.0,0.48128036,0.0,-0.0,0.8765667,0.0,0.0,-0.51174617,1,0,0,0,0,0
80006970,0.06387173,3.098848e-09,2.1373632,0.0,0.48103487,0.01536749,0.02798916,0.8761198,0.0,0.0,-0.50631386,1,0,0,0,0,0
80107237,0.09823638,-1.1601922e-09,2.1373632,0.0,0.4806999,0.023630116,0.043038066,0.87550956,0.0,0.0,-0.5104628,1,0,0,0,0,0
80207303,0.0910866,2.8138598e-09,2.1373632,0.0,0.48078126,0.021911524,0.03990795,0.8756578,0.0,0.0,-0.5171622,1,0,0,0,0,0
80307327,0.07464261,4.862164e-09,2.1373632,0.0,0.48094514,0.017957838,0.03270702,0.87595636,0.0,0.0,-0.5233341,1,0,0,0,0,0
80427382,0.07449033,-2.2636504e-09,2.1373632,0.0,0.48094654,0.017921219,0.032640323,0.87595886,0.0,0.0,-0.5121862,1,0,0,0,0,0
80527433,0.06773587,-3.2744002e-10,2.1373632,0.0,0.4810043,0.016296854,0.02968183,0.87606406,0.0,0.0,-0.504428,1,0,0,0,0,0
80627511,0.0593613,2.2557277e-12,2.1373632,0.0,0.48106834,0.014282616,0.026013251,0.87618065,0.0,0.0,-0.5017507,1,0,0,0,0,0
80727734,0.021259166,1.3259648e-10,2.1373632,0.0,0.48125315,0.005115713,0.009317364,0.87651724,0.0,0.0,-0.50404346,1,0,0,0,0,0
80827816,-0.00046017545,-3.1558756e-11,2.1373632,0.0,0.48128036,-0.00011073668,-0.00020168726,0.8765667,0.0,0.0,-0.5060649,1,0,0,0,0,0
80928201,-1.3562977e-05,6.43357e-13,2.1373632,0.0,0.48128036,-3.2637975e-06,-5.9444274e-06,0.8765667,0.0,0.0,-0.5193654,1,0,0,0,0,0
81028313,-1.6327232e-07,-1.31961e-15,2.1373632,0.0,0.48128036,-3.928988e-08,-7.155955e-08,0.8765667,0.0,0.0,-0.5277624,1,0,0,0,0,0
81128344,-0.007788387,1.1374564e-10,2.1373632,0.0,0.48127672,-0.0018741941,-0.0034135121,0.8765601,0.0,0.0,-0.5175075,1,0,0,0,0,0
81228232,-0.03263842,6.707761e-10,2.1373632,0.0,0.4812162,-0.007853766,-0.014304242,0.87645006,0.0,0.0,-0.50806034,1,0,0,0,0,0
81328410,-0.06263751,-1.5572104e-09,2.1373632,0.0,0.4810443,-0.015070638,-0.02744849,0.87613684,0.0,0.0,-0.50963074,1,0,0,0,0,0
81428331,-0.060845196,-2.2926223e-09,2.1373632,0.0,0.4810576,-0.014639539,-0.026663328,0.87616116,0.0,0.0,-0.50841534,1,0,0,0,0,0
81528434,-0.04650138,3.860085e-10,2.1373632,0.0,0.48115027,-0.011189091,-0.020378945,0.8763298,0.0,0.0,-0.50913316,1,0,0,0,0,0
81628610,-0.0024664758,4.6818903e-11,2.1373632,0.0,0.48127994,-0.0005935329,-0.001081015,0.8765661,0.0,0.0,-0.5096179,1,0,0,0,0,0
81729522,-9.594275e-05,-3.0771826e-15,2.1373632,0.0,0.48128036,-2.308768e-05,-4.2050113e-05,0.8765667,0.0,0.0,-0.5087755,1,0,0,0,0,0
81828875,4.7413105e-06,8.528635e-14,2.1373632,0.0,0.4812804,1.1409497e-06,2.0780376e-06,0.8765667,0.0,0.0,-0.5072442,1,0,0,0,0,0
81948983,1.832295e-08,7.0073283e-16,2.1373632,0.0,0.48128036,4.409238e-09,8.030645e-09,0.8765667,0.0,0.0,-0.5176046,1,0,0,0,0,0
82049028,0.017394686,0.0050506657,2.1373632,0.0,0.48127982,0.0019722574,0.008839027,0.8765202,0.0,0.0,-0.52431333,1,0,0,0,0,0
82149045,0.017846327,0.019537475,2.1373632,0.0,0.4813146,-0.004268193,0.012522509,0.87644804,0.0,0.0,-0.52198607,1,0,0,0,0,0
82249183,0.01590155,0.015790366,2.1373632,0.0,0.48130518,-0.0030939719,0.010768733,0.87648153,0.0,0.0,-0.5073534,1,0,0,0,0,0
82349694,0.0148899155,0.022383891,2.1373632,0.0,0.4813099,-0.006227157,0.011911736,0.87644744,0.0,0.0,-0.503454,1,0,0,0,0,0
82449781,0.00040740293,0.050137423,2.1373632,0.0,0.48113355,-0.02187409,0.012242315,0.87628883,0.0,0.0,-0.5101439,1,0,0,0,0,0
82549815,2.26789e-06,0.06056868,2.1373632,0.0,0.48105964,-0.026541641,0.014574021,0.8761648,0.0,0.0,-0.5153824,1,0,0,0,0,0
82649888,-1.1808749e-07,0.08617531,2.1373632,0.0,0.48083362,-0.037757553,0.020730775,0.87575316,0.0,0.0,-0.5174515,1,0,0,0,0,0
82749757,-9.141557e-09,0.061463017,2.1373632,0.0,0.4810531,-0.026933981,0.014788138,0.8761529,0.0,0.0,-0.5197594,1,0,0,0,0,0
82849797,-1.540272e-09,0.03451171,2.1373632,0.0,0.48120868,-0.015125158,0.008304491,0.87643623,0.0,0.0,-0.5253247,1,0,0,0,0,0
82950626,1.1341542e-09,0.027568258,2.1373632,0.0,0.4812346,-0.012082325,0.0066338205,0.8764835,0.0,0.0,-0.52666897,1,0,0,0,0,0
83049946,-4.677053e-10,0.008732329,2.1373632,0.0,0.48127574,-0.0038272222,0.002101342,0.8765584,0.0,0.0,-0.5206067,1,0,0,0,0,0
83150502,9.070466e-12,-0.00042090192,2.1373632,0.0,0.48128033,0.00018447432,-0.0001012859,0.87656677,0.0,0.0,-0.50976914,1,0,0,0,0,0
83250361,-1.316822e-13,3.191156e-06,2.1373632,0.0,0.48128036,-1.3986308e-06,7.679203e-07,0.8765667,0.0,0.0,-0.5087306,1,0,0,0,0,0
83370452,-3.1117975e-10,0.005990035,2.1373632,0.0,0.4812782,-0.0026253287,0.0014414405,0.87656283,0.0,0.0,-0.5120517,1,0,0,0,0,0
83470481,1.8190768e-11,0.0008904292,2.1373632,0.0,0.4812803,-0.00039026028,0.00021427301,0.87656665,0.0,0.0,-0.5185452,1,0,0,0,0,0
83570530,-7.2520044e-13,2.099261e-05,2.1373632,0.0,0.48128036,-9.200712e-06,5.0516655e-06,0.8765667,0.0,0.0,-0.52733237,1,0,0,0,0,0
83670573,1.2531745e-10,-0.0034657344,2.1373632,0.0,0.48127958,0.0015189731,-0.0008339944,0.8765654,0.0,0.0,-0.52763087,1,0,0,0,0,0
83770651,1.0631288e-09,-0.045625076,2.1373632,0.0,0.4811551,0.019994978,-0.010978272,0.87633866,0.0,0.0,-0.5183488,1,0,0,0,0,0
83870765,1.3340719e-09,-0.044950232,2.1373632,0.0,0.4811588,0.01969928,-0.010815919,0.87634534,0.0,0.0,-0.5067448,1,0,0,0,0,0
83970927,-8.669484e-10,-0.04656281,2.1373632,0.0,0.4811499,0.02040586,-0.011203869,0.8763292,0.0,0.0,-0.51878136,1,0,0,0,0,0
84070986,-9.952643e-10,-0.036245417,2.1373632,0.0,0.48120132,0.015884895,-0.008721626,0.8764228,0.0,0.0,-0.52426386,1,0,0,0,0,0
84171384,3.1014696e-12,0.00013956042,2.1373632,0.0,0.48128036,-6.116702e-05,3.3583845e-05,0.8765667,0.0,0.0,-0.5206178,1,0,0,0,0,0
84291346,-2.4640823e-13,8.954671e-06,2.1373632,0.0,0.48128036,-3.924684e-06,2.1548535e-06,0.8765667,0.0,0.0,-0.50515693,1,0,0,0,0,0
84391386,1.0789174e-14,2.1352626e-07,2.1373632,0.0,0.48128036,-9.358502e-08,5.1383005e-08,0.8765667,0.0,0.0,-0.5013667,1,0,0,0,0,0
84491596,-6.316667e-18,5.725497e-10,2.1373632,0.0,0.48128036,-2.5093905e-10,1.3777846e-10,0.8765667,0.0,0.0,-0.5095136,1,0,0,0,0,0
84591470,-1.3570053e-18,-7.0065606e-11,2.1373632,0.0,0.48128036,3.0708592e-11,-1.68606e-11,0.8765667,0.0,0.0,-0.52086866,1,0,0,0,0,0
84691630,1.77324e-19,-4.289913e-12,2.1373632,0.0,0.48128036,1.8801978e-12,-1.0323254e-12,0.8765667,0.0,0.0,-0.5184087,1,0,0,0,0,0
84791738,-1.3494629e-21,-2.9245578e-14,2.1373632,0.0,0.48128036,1.2817851e-14,-7.0376613e-15,0.8765667,0.0,0.0,-0.5182321,1,0,0,0,0,0
84891935,1.5018283e-23,3.500822e-15,2.1373632,0.0,0.48128036,-1.5343521e-15,8.4243843e-16,0.8765667,0.0,0.0,-0.515787,1,0,0,0,0,0
84992051,-6.4562355e-26,2.31428e-18,2.1373632,0.0,0.48128036,-1.0143105e-18,5.569087e-19,0.8765667,0.0,0.0,-0.50684685,1,0,0,0,0,0
85092126,0.05801285,0.008880951,2.1373632,0.0,0.481186,0.010067402,0.027558457,0.8761274,0.0,0.0,-0.50603044,1,0,0,0,0,0
85192199,0.035726596,0.0009402476,2.1373632,0.0,0.4812108,0.008184765,0.015883762,0.87642276,0.0,0.0,-0.50252473,1,0,0,0,0,0
85292233,0.032293122,2.6269969e-05,2.1373632,0.0,0.48121774,0.0077591725,0.0141592445,0.8764524,0.0,0.0,-0.50571513,1,0,0,0,0,0
85392307,0.030752,-3.7668175e-09,2.1373632,0.0,0.48122343,0.007399876,0.013477558,0.8764631,0.0,0.0,-0.50570154,1,0,0,0,0,0
85492373,0.03150972,-3.0705593e-08,2.1373632,0.0,0.4812206,0.0075822026,0.0138096055,0.876458,0.0,0.0,-0.50360155,1,0,0,0,0,0
85592599,0.027131716,2.3657623e-10,2.1373632,0.0,0.48123598,0.0065287794,0.011891015,0.8764861,0.0,0.0,-0.5098713,1,0,0,0,0,0
85692957,0.028007332,1.1062701e-09,2.1373632,0.0,0.48123312,0.006739468,0.012274747,0.8764808,0.0,0.0,-0.5166279,1,0,0,0,0,0
85813163,0.027188526,2.8211794e-10,2.1373632,0.0,0.4812359,0.0065424503,0.011915913,0.8764857,0.0,0.0,-0.5230723,1,0,0,0,0,0
85913069,0.02857552,8.3377877e-10,2.1373632,0.0,0.48123118,0.006876184,0.01252375,0.87647724,0.0,0.0,-0.5209124,1,0,0,0,0,0
86012976,0.026209688,-8.9004865e-10,2.1373632,0.0,0.481239,0.006306923,0.011486941,0.8764915,0.0,0.0,-0.52398074,1,0,0,0,0,0
86113346,0.002210626,1.3780183e-10,2.1373632,0.0,0.48128003,0.00053196517,0.0009688804,0.8765662,0.0,0.0,-0.5180245,1,0,0,0,0,0
86213114,0.0025209829,4.4041232e-11,2.1373632,0.0,0.48127997,0.0006066495,0.0011049046,0.8765661,0.0,0.0,-0.51462847,1,0,0,0,0,0
86313208,3.8199396e-05,-3.1138948e-13,2.1373632,0.0,0.48128036,9.192309e-06,1.6742162e-05,0.8765667,0.0,0.0,-0.5112424,1,0,0,0,0,0
86413430,-9.713265e-07,2.7269904e-14,2.1373632,0.0,0.48128036,-2.337402e-07,-4.2571628e-07,0.8765667,0.0,0.0,-0.5133477,1,0,0,0,0,0
86513610,-4.4874497e-08,-1.7618817e-16,2.1373632,0.0,0.4812804,-1.0798606e-08,-1.9667747e-08,0.8765667,0.0,0.0,-0.51522464,1,0,0,0,0,0
86613625,-2.1955165e-10,1.4966022e-17,2.1373632,0.0,0.48128036,-5.2832957e-11,-9.622585e-11,0.8765667,0.0,0.0,-0.51995206,1,0,0,0,0,0
86713755,1.12266044e-10,0.005792405,2.1373632,0.0,0.48127833,-0.002538711,0.0013938831,0.8765631,0.0,0.0,-0.5211339,1,0,0,0,0,0
86813757,1.8406925e-10,0.0041839434,2.1373632,0.0,0.48127925,-0.0018337514,0.0010068242,0.8765648,0.0,0.0,-0.516788,1,0,0,0,0,0
86913801,3.021386e-12,0.0016691983,2.1373632,0.0,0.4812802,-0.00073158176,0.00040167605,0.8765664,0.0,0.0,-0.5138681,1,0,0,0,0,0
87033970,-4.709799e-10,0.008743946,2.1373632,0.0,0.4812758,-0.0038323142,0.0021041378,0.87655836,0.0,0.0,-0.5199652,1,0,0,0,0,0
87134023,-2.6967475e-10,0.0045934846,2.1373632,0.0,0.48127905,-0.002013246,0.0011053757,0.87656444,0.0,0.0,-0.52610886,1,0,0,0,0,0
87234209,4.1691477e-13,6.3604195e-05,2.1373632,0.0,0.48128036,-2.7876664e-05,1.5305724e-05,0.8765667,0.0,0.0,-0.5306596,1,0,0,0,0,0
87334589,4.3931673e-12,0.0018731697,2.1373632,0.0,0.48128012,-0.000820979,0.00045075978,0.87656635,0.0,0.0,-0.52434427,1,0,0,0,0,0
87434624,-1.4785775e-10,0.0043397825,2.1373632,0.0,0.48127925,-0.0019020531,0.0010443251,0.8765647,0.0,0.0,-0.52152056,1,0,0,0,0,0
87534678,2.515745e-11,0.009003233,2.1373632,0.0,0.48127547,-0.003945954,0.002166532,0.8765579,0.0,0.0,-0.51141095,1,0,0,0,0,0
87635254,4.3729645e-10,0.015083974,2.1373632,0.0,0.4812667,-0.006610993,0.0036297755,0.8765418,0.0,0.0,-0.50827295,1,0,0,0,0,0
87734625,9.911568e-10,0.016309312,2.1373632,0.0,0.4812643,-0.0071480204,0.0039246324,0.8765376,0.0,0.0,-0.5133289,1,0,0,0,0,0
87835158,4.01084e-10,0.016155532,2.1373632,0.0,0.48126462,-0.007080624,0.0038876273,0.87653816,0.0,0.0,-0.5160564,1,0,0,0,0,0
87934927,1.7092837e-10,0.016157154,2.1373632,0.0,0.48126462,-0.0070813345,0.0038880177,0.87653816,0.0,0.0,-0.51258117,1,0,0,0,0,0
88035100,9.4594665e-11,0.012725313,2.1373632,0.0,0.48127058,-0.0055772555,0.0030622003,0.876549,0.0,0.0,-0.5137421,1,0,0,0,0,0
88155215,5.065978e-10,0.014347731,2.1373632,0.0,0.48126796,-0.0062883175,0.0034526107,0.87654424,0.0,0.0,-0.51420844,1,0,0,0,0,0
88255297,-1.1492629e-09,0.019982424,2.1373632,0.0,0.4812563,-0.0087578185,0.0048084934,0.87652296,0.0,0.0,-0.52729297,1,0,0,0,0,0
88355338,-2.8249328e-10,0.022185026,2.1373632,0.0,0.48125073,-0.009723129,0.0053384984,0.8765128,0.0,0.0,-0.5221512,1,0,0,0,0,0
88455383,6.696769e-11,0.021495197,2.1373632,0.0,0.48125246,-0.009420805,0.005172508,0.87651616,0.0,0.0,-0.5135365,1,0,0,0,0,0
88555491,2.3890796e-11,0.020486478,2.1373632,0.0,0.48125508,-0.0089787245,0.004929783,0.87652075,0.0,0.0,-0.5195622,1,0,0,0,0,0
88655552,-3.6258954e-10,0.012822818,2.1373632,0.0,0.48127046,-0.0056199892,0.0030856635,0.8765487,0.0,0.0,-0.52988034,1,0,0,0,0,0
88755630,-7.4111994e-11,0.004257216,2.1373632,0.0,0.48127925,-0.0018658654,0.0010244563,0.8765648,0.0,0.0,-0.5223812,1,0,0,0,0,0
88856139,9.0092105e-14,-7.216498e-06,2.1373632,0.0,0.48128036,3.1628715e-06,-1.7365793e-06,0.8765667,0.0,0.0,-0.51112187,1,0,0,0,0,0
88956208,6.079602e-14,-3.1340621e-06,2.1373632,0.0,0.4812804,1.3736073e-06,-7.541812e-07,0.8765667,0.0,0.0,-0.49888518,1,0,0,0,0,0
89056262,-1.1860745e-15,-3.7295678e-08,2.1373632,0.0,0.48128036,1.6346076e-08,-8.9748395e-09,0.8765667,0.0,0.0,-0.5053541,1,0,0,0,0,0
89156107,-1.1680405e-17,-1.5437968e-10,2.1373632,0.0,0.48128036,6.766204e-11,-3.714996e-11,0.8765667,0.0,0.0,-0.52057433,1,0,0,0,0,0
89256393,1.2562785e-18,3.5596998e-11,2.1373632,0.0,0.48128036,-1.5601574e-11,8.566068e-12,0.8765667,0.0,0.0,-0.524703,1,0,0,0,0,0
89356236,8.237714e-12,0.0003708804,2.1373632,0.0,0.48128033,-0.00016255073,8.924872e-05,0.87656677,0.0,0.0,-0.51583457,1,0,0,0,0,0
89456616,0.0055646356,-4.238176e-05,2.1373632,0.0,0.4812784,0.0013576483,0.0024286855,0.8765634,0.0,0.0,-0.50716996,1,0,0,0,0,0
89577096,0.021186681,2.6797918e-06,2.1373632,0.0,0.48125333,0.0050970963,0.009286241,0.8765176,0.0,0.0,-0.5159989,1,0,0,0,0,0
89676693,0.032566756,8.8661544e-08,2.1373632,0.0,0.48121652,0.007836483,0.0142728565,0.87645054,0.0,0.0,-0.52559745,1,0,0,0,0,0
89776803,0.03310822,-2.5935945e-10,2.1373632,0.0,0.48121434,0.007966802,0.0145101175,0.87644666,0.0,0.0,-0.5291237,1,0,0,0,0,0
89876890,0.033743005,-3.770141e-10,2.1373632,0.0,0.4812118,0.008119537,0.014788296,0.876442,0.0,0.0,-0.5151753,1,0,0,0,0,0
89976931,0.04200952,1.4042013e-09,2.1373632,0.0,0.48117423,0.010108434,0.01841072,0.87637335,0.0,0.0,-0.51498646,1,0,0,0,0,0
90077002,0.046156883,2.753697e-10,2.1373632,0.0,0.48115218,0.011106213,0.020227998,0.87633336,0.0,0.0,-0.50609696,1,0,0,0,0,0
90177054,0.04369682,-1.0025526e-09,2.1373632,0.0,0.48116544,0.010514372,0.019150063,0.8763576,0.0,0.0,-0.50806874,1,0,0,0,0,0
90277163,0.03754769,8.511773e-11,2.1373632,0.0,0.48119548,0.00903495,0.016455559,0.8764123,0.0,0.0,-0.5104062,1,0,0,0,0,0
90377304,0.032346573,-1.2131175e-09,2.1373632,0.0,0.48121735,0.007783546,0.014176347,0.8764521,0.0,0.0,-0.51448786,1,0,0,0,0,0
90477706,-0.00075370516,3.7997158e-11,2.1373632,0.0,0.48128033,-0.00018137175,-0.00033033645,0.8765667,0.0,0.0,-0.51765394,1,0,0,0,0,0
90577825,4.4260898e-05,-3.9461294e-13,2.1373632,0.0,0.48128036,1.06509515e-05,1.9398818e-05,0.8765667,0.0,0.0,-0.50916874,1,0,0,0,0,0
90677890,8.366851e-07,-5.787228e-14,2.1373632,0.0,0.48128036,2.0134007e-07,3.667052e-07,0.8765667,0.0,0.0,-0.5036092,1,0,0,0,0,0
90778739,-8.4737195e-09,-7.927331e-17,2.1373632,0.0,0.48128036,-2.0391175e-09,-3.7138908e-09,0.8765667,0.0,0.0,-0.50526166,1,0,0,0,0,0
90877769,-4.1102244e-10,1.5341155e-17,2.1373632,0.0,0.48128036,-9.890852e-11,-1.801443e-10,0.8765667,0.0,0.0,-0.513777,1,0,0,0,0,0
90978133,-1.1341003e-11,9.143047e-20,2.1373632,0.0,0.48128036,-2.729101e-12,-4.9705734e-12,0.8765667,0.0,0.0,-0.52296674,1,0,0,0,0,0
91098161,-1.424824e-13,7.008872e-21,2.1373632,0.0,0.48128036,-3.4286996e-14,-6.244767e-14,0.8765667,0.0,0.0,-0.5240742,1,0,0,0,0,0
91198347,-1.3865689e-15,2.599191e-23,2.1373632,0.0,0.48128036,-3.336642e-16,-6.0771014e-16,0.8765667,0.0,0.0,-0.5142383,1,0,0,0,0,0
91298386,1.7357943e-18,-2.6765157e-26,2.1373632,0.0,0.48128036,4.1770186e-19,7.607698e-19,0.8765667,0.0,0.0,-0.5123671,1,0,0,0,0,0
91398473,0.0050018635,-4.247017e-11,2.1373632,0.0,0.4812788,0.0012036478,0.0021922311,0.8765641,0.0,0.0,-0.515171,1,0,0,0,0,0
91498554,0.0067642634,-8.0514186e-11,2.1373632,0.0,0.4812776,0.0016277502,0.0029646584,0.87656176,0.0,0.0,-0.50805664,1,0,0,0,0,0
91598582,0.0072095203,1.387339e-11,2.1373632,0.0,0.4812772,0.0017348961,0.0031598057,0.87656105,0.0,0.0,-0.5193382,1,0,0,0,0,0
91698599,0.0058723656,-2.6826627e-10,2.1373632,0.0,0.48127824,0.0014131251,0.0025737563,0.876563,0.0,0.0,-0.52124,1,0,0,0,0,0
91798686,0.005344878,-3.2928688e-11,2.1373632,0.0,0.48127857,0.0012861907,0.0023425685,0.8765636,0.0,0.0,-0.52387136,1,0,0,0,0,0
91898800,0.0011994871,-3.313657e-11,2.1373632,0.0,0.48128024,0.00028864478,0.00052571524,0.8765666,0.0,0.0,-0.52293515,1,0,0,0,0,0
91998958,0.001458118,-5.245678e-11,2.1373632,0.0,0.48128018,0.00035088172,0.0006390688,0.8765665,0.0,0.0,-0.5140582,1,0,0,0,0,0
92099418,0.0018200941,7.227772e-11,2.1373632,0.0,0.48128012,0.00043798762,0.00079771684,0.8765664,0.0,0.0,-0.51971084,1,0,0,0,0,0
92199483,0.0030006708,2.213522e-11,2.1373632,0.0,0.48127976,0.00072208163,0.0013151438,0.87656575,0.0,0.0,-0.52399546,1,0,0,0,0,0
92319645,0.0034950094,-4.3292103e-11,2.1373632,0.0,0.48127967,0.0008410392,0.0015318037,0.8765654,0.0,0.0,-0.51031506,1,0,0,0,0,0
92419459,0.0035508932,1.15677724e-10,2.1373632,0.0,0.4812796,0.00085448695,0.0015562966,0.87656534,0.0,0.0,-0.5062529,1,0,0,0,0,0
92520061,0.0035542294,-1.5235117e-10,2.1373632,0.0,0.4812796,0.0008552899,0.0015577589,0.87656534,0.0,0.0,-0.5140543,1,0,0,0,0,0
92619541,0.001700671,-9.996423e-11,2.1373632,0.0,0.4812802,0.0004092497,0.0007453757,0.8765664,0.0,0.0,-0.522343,1,0,0,0,0,0
92719947,0.0017889219,3.518818e-11,2.1373632,0.0,0.48128012,0.00043048634,0.0007840546,0.8765664,0.0,0.0,-0.5219407,1,0,0,0,0,0
92819784,-0.00013386716,3.914473e-12,2.1373632,0.0,0.48128036,-3.221382e-05,-5.8671754e-05,0.8765667,0.0,0.0,-0.5164963,1,0,0,0,0,0
92919956,1.6967319e-06,5.713546e-14,2.1373632,0.0,0.48128036,4.0830184e-07,7.436495e-07,0.8765667,0.0,0.0,-0.5116725,1,0,0,0,0,0
93020107,7.0104285e-08,-6.9683707e-17,2.1373632,0.0,0.48128036,1.6869908e-08,3.0725545e-08,0.8765667,0.0,0.0,-0.51218987,1,0,0,0,0,0
93120180,1.6405441e-09,1.9306743e-17,2.1373632,0.0,0.48128036,3.9478082e-10,7.190233e-10,0.8765667,0.0,0.0,-0.5186835,1,0,0,0,0,0
93220158,-4.5063033e-12,-1.8073043e-19,2.1373632,0.0,0.48128036,-1.0843977e-12,-1.975038e-12,0.8765667,0.0,0.0,-0.5276163,1,0,0,0,0,0
