timestamp,voltage_v,voltage_filtered_v,current_a,current_filtered_a,average_current_a,discharged_mah,remaining,scale,temperature,cell_count,voltage_cell_v[0],voltage_cell_v[1],voltage_cell_v[2],voltage_cell_v[3],max_cell_voltage_delta,capacity,cycle_count,run_time_to_empty,average_time_to_empty,serial_number,connected,system_source,priority,is_powering_off,warning
29487477,16.101767,16.131569,38.9856,38.969563,0.0,284.1863,0.6764496,1.040061,0.0,4,0.0,0.0,0.0,0.0,0.0,0,0,0,0,0,1,1,0,0,0
29990771,16.101767,16.120258,38.9484,38.968952,0.0,289.63425,0.68364984,1.0391345,0.0,4,0.0,0.0,0.0,0.0,0.0,0,0,0,0,0,1,1,0,0,0
30494787,16.111496,16.113592,38.9608,38.967903,0.0,295.08975,0.6887463,1.0384798,0.0,4,0.0,0.0,0.0,0.0,0.0,0,0,0,0,0,1,1,0,0,0
30998036,16.08231,16.10077,38.973198,38.969494,0.0,300.53748,0.6878622,1.0385933,0.0,4,0.0,0.0,0.0,0.0,0.0,0,0,0,0,0,1,1,0,0,0
31489185,16.08231,16.099104,38.9608,38.967262,0.0,305.85358,0.69058305,1.038244,0.0,4,0.0,0.0,0.0,0.0,0.0,0,0,0,0,0,1,1,0,0,0
31992349,16.101767,16.097933,38.936,38.967278,0.0,311.29996,0.69239694,1.0380113,0.0,4,0.0,0.0,0.0,0.0,0.0,0,0,0,0,0,1,1,0,0,0
32495555,16.08231,16.096853,38.973198,38.969467,0.0,316.74728,0.6934307,1.0378788,0.0,4,0.0,0.0,0.0,0.0,0.0,0,0,0,0,0,1,1,0,0,0
32998744,16.101767,16.093443,38.9608,38.968346,0.0,322.1941,0.6927574,1.037965,0.0,4,0.0,0.0,0.0,0.0,0.0,0,0,0,0,0,1,1,0,0,0
33501928,16.101767,16.092745,38.936,38.96402,0.0,327.6399,0.69308454,1.0379231,0.0,4,0.0,0.0,0.0,0.0,0.0,0,0,0,0,0,1,1,0,0,0
33993249,16.09204,16.091274,38.973198,38.965244,0.0,332.9579,0.69278413,1.0379617,0.0,4,0.0,0.0,0.0,0.0,0.0,0,0,0,0,0,1,1,0,0,0
34496398,16.08231,16.089542,38.973198,38.96884,0.0,338.4047,0.6922119,1.038035,0.0,4,0.0,0.0,0.0,0.0,0.0,0,0,0,0,0,1,1,0,0,0
34999624,16.08231,16.08863,38.9608,38.96749,0.0,343.8517,0.6919487,1.0380689,0.0,4,0.0,0.0,0.0,0.0,0.0,0,0,0,0,0,1,1,0,0,0
35502846,16.09204,16.088402,38.9484,38.969135,0.0,349.29907,0.6919611,1.0380672,0.0,4,0.0,0.0,0.0,0.0,0.0,0,0,0,0,0,1,1,0,0,0
35994019,16.08231,16.088518,38.9608,38.965553,0.0,354.61523,0.69210035,1.0380493,0.0,4,0.0,0.0,0.0,0.0,0.0,0,0,0,0,0,1,1,0,0,0
36497929,16.07258,16.0878,38.9856,38.96294,0.0,360.06888,0.6917952,1.0380886,0.0,4,0.0,0.0,0.0,0.0,0.0,0,0,0,0,0,1,1,0,0,0
37001111,16.09204,16.087017,38.9608,38.963825,0.0,365.5149,0.6914404,1.0381341,0.0,4,0.0,0.0,0.0,0.0,0.0,0,0,0,0,0,1,1,0,0,0
37504439,16.101767,16.087389,38.973198,38.9649,0.0,370.96283,0.6916502,1.0381072,0.0,4,0.0,0.0,0.0,0.0,0.0,0,0,0,0,0,1,1,0,0,0
38007546,16.09204,16.086699,38.973198,38.965004,0.0,376.4082,0.69132024,1.0381495,0.0,4,0.0,0.0,0.0,0.0,0.0,0,0,0,0,0,1,1,0,0,0
38510726,16.08231,16.086143,38.9856,38.965324,0.0,381.85446,0.69105226,1.0381838,0.0,4,0.0,0.0,0.0,0.0,0.0,0,0,0,0,0,1,1,0,0,0
39013988,16.07258,16.08477,38.9608,38.96773,0.0,387.302,0.6903723,1.0382711,0.0,4,0.0,0.0,0.0,0.0,0.0,0,0,0,0,0,1,1,0,0,0
39505225,16.09204,16.08317,38.9608,38.967346,0.0,392.6191,0.6895769,1.0383732,0.0,4,0.0,0.0,0.0,0.0,0.0,0,0,0,0,0,1,1,0,0,0
40008358,16.09204,16.082752,38.936,38.966007,0.0,398.0649,0.68937093,1.0383996,0.0,4,0.0,0.0,0.0,0.0,0.0,0,0,0,0,0,1,1,0,0,0
40511472,16.09204,16.082819,38.9856,38.968697,0.0,403.51123,0.6894062,1.038395,0.0,4,0.0,0.0,0.0,0.0,0.0,0,0,0,0,0,1,1,0,0,0
41014795,16.08231,16.082638,38.973198,38.96688,0.0,408.959,0.6893166,1.0384066,0.0,4,0.0,0.0,0.0,0.0,0.0,0,0,0,0,0,1,1,0,0,0
41517943,16.08231,16.082827,38.9608,38.96812,0.0,414.40524,0.68941194,1.0383943,0.0,4,0.0,0.0,0.0,0.0,0.0,0,0,0,0,0,1,1,0,0,0
42021959,16.08231,16.083086,38.9608,38.96812,0.0,419.861,0.6895426,1.0383776,0.0,4,0.0,0.0,0.0,0.0,0.0,0,0,0,0,0,1,1,0,0,0
42525152,16.08231,16.08319,38.9856,38.97,0.0,425.3082,0.68959504,1.0383708,0.0,4,0.0,0.0,0.0,0.0,0.0,0,0,0,0,0,1,1,0,0,0
43016431,16.09204,16.080597,38.9608,38.968746,0.0,430.62592,0.68829805,1.0385374,0.0,4,0.0,0.0,0.0,0.0,0.0,0,0,0,0,0,1,1,0,0,0
43519633,16.08231,16.080418,38.973198,38.971027,0.0,436.0734,0.6882084,1.0385488,0.0,4,0.0,0.0,0.0,0.0,0.0,0,0,0,0,0,1,1,0,0,0
44022810,16.07258,16.08016,38.973198,38.96903,0.0,441.5198,0.68807966,1.0385654,0.0,4,0.0,0.0,0.0,0.0,0.0,0,0,0,0,0,1,1,0,0,0
44525991,16.07258,16.081282,38.9856,38.96871,0.0,446.96634,0.6886404,1.0384934,0.0,4,0.0,0.0,0.0,0.0,0.0,0,0,0,0,0,1,1,0,0,0
45017184,16.08231,16.080057,38.973198,38.967968,0.0,452.28326,0.68802816,1.0385721,0.0,4,0.0,0.0,0.0,0.0,0.0,0,0,0,0,0,1,1,0,0,0
45520370,16.07258,16.07994,38.9856,38.96952,0.0,457.73022,0.68797,1.0385795,0.0,4,0.0,0.0,0.0,0.0,0.0,0,0,0,0,0,1,1,0,0,0
46023586,16.09204,16.080011,38.9856,38.969795,0.0,463.17767,0.68800527,1.0385749,0.0,4,0.0,0.0,0.0,0.0,0.0,0,0,0,0,0,1,1,0,0,0
46526697,16.07258,16.079906,38.9608,38.97174,0.0,468.62427,0.6879528,1.0385817,0.0,4,0.0,0.0,0.0,0.0,0.0,0,0,0,0,0,1,1,0,0,0
47026741,16.07258,16.080227,38.9856,38.971684,0.0,474.03754,0.68811303,1.0385611,0.0,4,0.0,0.0,0.0,0.0,0.0,0,0,0,0,0,1,1,0,0,0
47529948,16.09204,16.078674,38.973198,38.9732,0.0,479.48538,0.68733674,1.0386608,0.0,4,0.0,0.0,0.0,0.0,0.0,0,0,0,0,0,1,1,0,0,0
48033221,16.08231,16.079456,38.9608,38.970924,0.0,484.93326,0.68772775,1.0386106,0.0,4,0.0,0.0,0.0,0.0,0.0,0,0,0,0,0,1,1,0,0,0
48536349,16.09204,16.079275,38.9856,38.97074,0.0,490.3797,0.68763715,1.0386223,0.0,4,0.0,0.0,0.0,0.0,0.0,0,0,0,0,0,1,1,0,0,0
49027561,16.06285,16.07802,38.9608,38.972527,0.0,495.69754,0.68700963,1.0387028,0.0,4,0.0,0.0,0.0,0.0,0.0,0,0,0,0,0,1,1,0,0,0
50033913,16.111496,16.073711,38.9608,38.969215,0.0,506.59088,0.6848553,1.0389796,0.0,4,0.0,0.0,0.0,0.0,0.0,0,0,0,0,0,1,1,0,0,0
50537193,16.07258,16.074236,38.9856,38.9679,0.0,512.03845,0.68511754,1.0389459,0.0,4,0.0,0.0,0.0,0.0,0.0,0,0,0,0,0,1,1,0,0,0
51040369,16.08231,16.07486,38.9484,38.96828,0.0,517.48517,0.6854294,1.0389059,0.0,4,0.0,0.0,0.0,0.0,0.0,0,0,0,0,0,1,1,0,0,0
51543630,16.08231,16.075676,38.973198,38.9721,0.0,522.9336,0.68583757,1.0388534,0.0,4,0.0,0.0,0.0,0.0,0.0,0,0,0,0,0,1,1,0,0,0
52034790,16.08231,16.076853,38.9608,38.969543,0.0,528.25006,0.686426,1.0387778,0.0,4,0.0,0.0,0.0,0.0,0.0,0,0,0,0,0,1,1,0,0,0
52537954,16.08231,16.077023,38.9856,38.970287,0.0,533.6969,0.68651086,1.0387669,0.0,4,0.0,0.0,0.0,0.0,0.0,0,0,0,0,0,1,1,0,0,0
53041110,16.08231,16.076061,38.9608,38.970436,0.0,539.1436,0.6860302,1.0388286,0.0,4,0.0,0.0,0.0,0.0,0.0,0,0,0,0,0,1,1,0,0,0
53544382,16.09204,16.076687,38.9608,38.968643,0.0,544.59125,0.686343,1.0387884,0.0,4,0.0,0.0,0.0,0.0,0.0,0,0,0,0,0,1,1,0,0,0
54047589,16.07258,16.076647,38.936,38.970516,0.0,550.039,0.686323,1.0387911,0.0,4,0.0,0.0,0.0,0.0,0.0,0,0,0,0,0,1,1,0,0,0
54547525,16.07258,16.075607,38.9856,38.97338,0.0,555.45135,0.68580323,1.0388578,0.0,4,0.0,0.0,0.0,0.0,0.0,0,0,0,0,0,1,1,0,0,0
55046741,16.07258,16.08722,38.9484,38.971714,0.0,560.8556,0.6916092,1.0381124,0.0,4,0.0,0.0,0.0,0.0,0.0,0,0,0,0,0,1,1,0,0,0
55549988,16.08231,16.083666,38.9608,38.96985,0.0,566.30316,0.6898325,1.0383403,0.0,4,0.0,0.0,0.0,0.0,0.0,0,0,0,0,0,1,1,0,0,0
56053196,16.07258,16.080185,38.9856,38.973297,0.0,571.7513,0.68809205,1.0385638,0.0,4,0.0,0.0,0.0,0.0,0.0,0,0,0,0,0,1,1,0,0,0
56556361,16.101767,16.079082,38.973198,38.971313,0.0,577.198,0.68510514,1.0389475,0.0,4,0.0,0.0,0.0,0.0,0.0,0,0,0,0,0,1,1,0,0,0
57059633,16.053122,16.08107,39.0104,38.968536,0.0,582.6455,0.6869381,1.038712,0.0,4,0.0,0.0,0.0,0.0,0.0,0,0,0,0,0,1,1,0,0,0
57562775,16.07258,16.086205,38.973198,38.969402,0.0,588.09204,0.67416555,1.0403552,0.0,4,0.0,0.0,0.0,0.0,0.0,0,0,0,0,0,1,1,0,0,0
58065931,16.101767,16.094095,38.936,38.968407,0.0,593.53864,0.6674145,1.0412258,0.0,4,0.0,0.0,0.0,0.0,0.0,0,0,0,0,0,1,1,0,0,0
58565161,16.08231,16.090273,38.9608,38.971767,0.0,598.94324,0.65849,1.0423789,0.0,4,0.0,0.0,0.0,0.0,0.0,0,0,0,0,0,1,1,0,0,0
59064392,16.07258,16.088072,38.9856,38.969337,0.0,604.34686,0.6527918,1.0431165,0.0,4,0.0,0.0,0.0,0.0,0.0,0,0,0,0,0,1,1,0,0,0
59567465,16.09204,16.088114,38.9856,38.970306,0.0,609.793,0.64979726,1.0435045,0.0,4,0.0,0.0,0.0,0.0,0.0,0,0,0,0,0,1,1,0,0,0
60070643,16.09204,16.0891,38.9856,38.970394,0.0,615.24,0.6483143,1.0436968,0.0,4,0.0,0.0,0.0,0.0,0.0,0,0,0,0,0,1,1,0,0,0
60574678,16.121225,16.094622,38.936,38.968838,0.0,620.69604,0.64977914,1.0435069,0.0,4,0.0,0.0,0.0,0.0,0.0,0,0,0,0,0,1,1,0,0,0
61077966,16.111496,16.096193,38.936,38.9724,0.0,626.14496,0.64971524,1.0435152,0.0,4,0.0,0.0,0.0,0.0,0.0,0,0,0,0,0,1,1,0,0,0
61569124,16.09204,16.096634,38.9856,38.973995,0.0,631.4626,0.6493891,1.0435574,0.0,4,0.0,0.0,0.0,0.0,0.0,0,0,0,0,0,1,1,0,0,0
62072295,16.06285,16.097086,38.9856,38.97358,0.0,636.90967,0.6561306,1.0426842,0.0,4,0.0,0.0,0.0,0.0,0.0,0,0,0,0,0,1,1,0,0,0
62571558,15.965559,16.079185,38.998,38.974148,0.0,642.315,0.6767824,1.0400181,0.0,4,0.0,0.0,0.0,0.0,0.0,0,0,0,0,0,1,1,0,0,0
63074690,15.819622,15.986045,38.9856,38.972412,0.0,647.7616,0.6822756,1.0393113,0.0,4,0.0,0.0,0.0,0.0,0.0,0,0,0,0,0,1,1,0,0,0
63577808,15.6834135,15.864207,38.9608,38.968315,0.0,653.2075,0.67727643,1.0399544,0.0,4,0.0,0.0,0.0,0.0,0.0,0,0,0,0,0,1,1,0,0,0
64081144,15.741789,15.801018,38.9608,38.96772,0.0,658.6556,0.6798094,1.0396285,0.0,4,0.0,0.0,0.0,0.0,0.0,0,0,0,0,0,1,1,0,0,0
64584363,15.61531,15.785189,38.9608,38.962845,0.0,664.10156,0.6895054,1.0383824,0.0,4,0.0,0.0,0.0,0.0,0.0,0,0,0,0,0,1,1,0,0,0
65075574,15.693143,15.76361,38.9856,38.966732,0.0,669.4187,0.68889314,1.038461,0.0,4,0.0,0.0,0.0,0.0,0.0,0,0,0,0,0,1,1,0,0,0
65578685,15.741789,15.758558,38.9856,38.96864,0.0,674.8648,0.6928738,1.0379502,0.0,4,0.0,0.0,0.0,0.0,0.0,0,0,0,0,0,1,1,0,0,0
66081909,15.634768,15.750239,38.9608,38.96709,0.0,680.31165,0.69077474,1.0382195,0.0,4,0.0,0.0,0.0,0.0,0.0,0,0,0,0,0,1,1,0,0,0
66585924,15.907185,15.782572,38.9856,38.969364,0.0,685.76794,0.70010835,1.0370232,0.0,4,0.0,0.0,0.0,0.0,0.0,0,0,0,0,0,1,1,0,0,0
67088330,16.033663,15.862139,38.973198,38.972992,0.0,691.20746,0.6840151,1.0390877,0.0,4,0.0,0.0,0.0,0.0,0.0,0,0,0,0,0,1,1,0,0,0
67591532,16.023933,15.92309,38.998,38.973194,0.0,696.65533,0.661825,1.0419477,0.0,4,0.0,0.0,0.0,0.0,0.0,0,0,0,0,0,1,1,0,0,0
68095585,16.043392,15.963599,38.9484,38.9712,0.0,702.11163,0.64754945,1.043796,0.0,4,0.0,0.0,0.0,0.0,0.0,0,0,0,0,0,1,1,0,0,0
68586754,16.053122,15.990332,38.9856,38.971752,0.0,707.429,0.6387108,1.0449437,0.0,4,0.0,0.0,0.0,0.0,0.0,0,0,0,0,0,1,1,0,0,0
69089802,16.043392,16.009235,38.973198,38.972954,0.0,712.8749,0.63316804,1.0456647,0.0,4,0.0,0.0,0.0,0.0,0.0,0,0,0,0,0,1,1,0,0,0
69593191,16.06285,16.024033,38.9856,38.973736,0.0,718.32477,0.6307362,1.0459813,0.0,4,0.0,0.0,0.0,0.0,0.0,0,0,0,0,0,1,1,0,0,0
70096301,16.07258,16.037458,38.9856,38.97559,0.0,723.77167,0.6310032,1.0459465,0.0,4,0.0,0.0,0.0,0.0,0.0,0,0,0,0,0,1,1,0,0,0
70599645,16.08231,16.047564,38.9856,38.974957,0.0,729.2211,0.6318291,1.045839,0.0,4,0.0,0.0,0.0,0.0,0.0,0,0,0,0,0,1,1,0,0,0
71102774,16.09204,16.053978,38.9608,38.973785,0.0,734.6679,0.63226587,1.0457821,0.0,4,0.0,0.0,0.0,0.0,0.0,0,0,0,0,0,1,1,0,0,0
71593943,16.053122,16.063278,38.9608,38.97462,0.0,739.9856,0.63513356,1.0454088,0.0,4,0.0,0.0,0.0,0.0,0.0,0,0,0,0,0,1,1,0,0,0
72104348,16.06285,16.067003,38.973198,38.97532,0.0,745.5117,0.63576967,1.0453261,0.0,4,0.0,0.0,0.0,0.0,0.0,0,0,0,0,0,1,1,0,0,0
72596342,16.07258,16.069492,38.973198,38.974754,0.0,750.8381,0.6362484,1.0452639,0.0,4,0.0,0.0,0.0,0.0,0.0,0,0,0,0,0,1,1,0,0,0
73099732,16.07258,16.069414,38.9856,38.97409,0.0,756.28766,0.6356924,1.0453361,0.0,4,0.0,0.0,0.0,0.0,0.0,0,0,0,0,0,1,1,0,0,0
73602822,16.07258,16.066378,38.9484,38.971985,0.0,761.73376,0.64811784,1.0437223,0.0,4,0.0,0.0,0.0,0.0,0.0,0,0,0,0,0,1,1,0,0,0
74105896,15.877996,16.038292,38.973198,38.972755,0.0,767.18,0.6678484,1.0411698,0.0,4,0.0,0.0,0.0,0.0,0.0,0,0,0,0,0,1,1,0,0,0
74597964,15.508288,15.922595,38.9608,38.973503,0.0,772.5073,0.6660088,1.0414072,0.0,4,0.0,0.0,0.0,0.0,0.0,0,0,0,0,0,1,1,0,0,0
75101018,15.177497,15.712564,38.9608,38.965984,0.0,777.95154,0.6273201,1.0464264,0.0,4,0.0,0.0,0.0,0.0,0.0,0,0,0,0,0,1,1,0,0,0
75604335,15.25533,15.585318,38.9856,38.96481,0.0,783.3992,0.6058033,1.0492388,0.0,4,0.0,0.0,0.0,0.0,0.0,0,0,0,0,0,1,1,0,0,0
76107502,15.362351,15.50567,38.9856,38.96376,0.0,788.84485,0.59430057,1.0507486,0.0,4,0.0,0.0,0.0,0.0,0.0,0,0,0,0,0,1,1,0,0,0
76598642,15.333163,15.422423,38.973198,38.959496,0.0,794.1594,0.5739458,1.0534308,0.0,4,0.0,0.0,0.0,0.0,0.0,0,0,0,0,0,1,1,0,0,0
77101959,15.274789,15.379839,38.9484,38.963196,0.0,799.60724,0.56433374,1.0547022,0.0,4,0.0,0.0,0.0,0.0,0.0,0,0,0,0,0,1,1,0,0,0
77605154,15.274789,15.325892,38.9608,38.9577,0.0,805.0518,0.54730827,1.0569617,0.0,4,0.0,0.0,0.0,0.0,0.0,0,0,0,0,0,1,1,0,0,0
78104352,15.391539,15.296583,38.9856,38.95859,0.0,810.4539,0.53867465,1.0581111,0.0,4,0.0,0.0,0.0,0.0,0.0,0,0,0,0,0,1,1,0,0,0
78607526,15.177497,15.25346,38.9484,38.959297,0.0,815.89935,0.52206403,1.0603297,0.0,4,0.0,0.0,0.0,0.0,0.0,0,0,0,0,0,1,1,0,0,0
79110728,15.37208,15.242175,38.973198,38.959812,0.0,821.3453,0.5192674,1.0607041,0.0,4,0.0,0.0,0.0,0.0,0.0,0,0,0,0,0,1,1,0,0,0
79613948,14.973185,15.223688,38.9484,38.95785,0.0,826.7906,0.51390916,1.0614223,0.0,4,0.0,0.0,0.0,0.0,0.0,0,0,0,0,0,1,1,0,0,0
80105168,15.206684,15.20065,38.9608,38.95743,0.0,832.106,0.5041607,1.0627314,0.0,4,0.0,0.0,0.0,0.0,0.0,0,0,0,0,0,1,1,0,0,0
80608347,15.265059,15.1854315,38.9608,38.957664,0.0,837.5513,0.49791032,1.0635724,0.0,4,0.0,0.0,0.0,0.0,0.0,0,0,0,0,0,1,1,0,0,0
81111511,14.963455,15.169419,38.973198,38.95863,0.0,842.99664,0.49107105,1.0644943,0.0,4,0.0,0.0,0.0,0.0,0.0,0,0,0,0,0,1,1,0,0,0
81614603,15.119122,15.160142,38.973198,38.959362,0.0,848.44104,0.48633176,1.0651339,0.0,4,0.0,0.0,0.0,0.0,0.0,0,0,0,0,0,1,1,0,0,0
82118677,15.14831,15.1614485,38.9608,38.957455,0.0,853.8955,0.48771554,1.0649471,0.0,4,0.0,0.0,0.0,0.0,0.0,0,0,0,0,0,1,1,0,0,0
82621991,15.070476,15.138908,38.9484,38.958908,0.0,859.3426,0.4762872,1.0664923,0.0,4,0.0,0.0,0.0,0.0,0.0,0,0,0,0,0,1,1,0,0,0
83125144,15.070476,15.115038,38.9608,38.956177,0.0,864.78723,0.46651822,1.0678167,0.0,4,0.0,0.0,0.0,0.0,0.0,0,0,0,0,0,1,1,0,0,0
83628309,14.953726,15.121215,38.9484,38.9572,0.0,870.2324,0.46974546,1.0673789,0.0,4,0.0,0.0,0.0,0.0,0.0,0,0,0,0,0,1,1,0,0,0
84131510,14.934268,15.104042,38.9856,38.95917,0.0,875.6783,0.46217185,1.068407,0.0,4,0.0,0.0,0.0,0.0,0.0,0,0,0,0,0,1,1,0,0,0
84634788,14.856435,15.105017,38.9608,38.957726,0.0,881.1244,0.4616273,1.0684811,0.0,4,0.0,0.0,0.0,0.0,0.0,0,0,0,0,0,1,1,0,0,0
85137955,15.13858,15.104577,38.9484,38.957718,0.0,886.56946,0.46099836,1.0685666,0.0,4,0.0,0.0,0.0,0.0,0.0,0,0,0,0,0,1,1,0,0,0
85641094,15.099664,15.105307,38.9856,38.957508,0.0,892.01434,0.4596241,1.0687534,0.0,4,0.0,0.0,0.0,0.0,0.0,0,0,0,0,0,1,1,0,0,0
86132345,14.963455,15.0850525,38.9608,38.959026,0.0,897.3307,0.45099908,1.0699275,0.0,4,0.0,0.0,0.0,0.0,0.0,0,0,0,0,0,1,1,0,0,0
86635522,14.992642,15.091495,38.973198,38.95946,0.0,902.77625,0.45421344,1.0694896,0.0,4,0.0,0.0,0.0,0.0,0.0,0,0,0,0,0,1,1,0,0,0
87134783,15.070476,15.085547,38.9484,38.960136,0.0,908.17944,0.45201284,1.0697894,0.0,4,0.0,0.0,0.0,0.0,0.0,0,0,0,0,0,1,1,0,0,0
87637992,15.284517,15.074644,38.973198,38.9585,0.0,913.62494,0.44759208,1.070392,0.0,4,0.0,0.0,0.0,0.0,0.0,0,0,0,0,0,1,1,0,0,0
88141101,15.041288,15.067073,38.936,38.956394,0.0,919.06885,0.4429415,1.0710267,0.0,4,0.0,0.0,0.0,0.0,0.0,0,0,0,0,0,1,1,0,0,0
88645105,14.90508,15.058283,38.936,38.95758,0.0,924.5233,0.43961078,1.0714817,0.0,4,0.0,0.0,0.0,0.0,0.0,0,0,0,0,0,1,1,0,0,0
89147545,15.051018,15.065404,38.9484,38.955807,0.0,929.9599,0.4420622,1.0711468,0.0,4,0.0,0.0,0.0,0.0,0.0,0,0,0,0,0,1,1,0,0,0
89649958,15.119122,15.059641,38.973198,38.95647,0.0,935.3967,0.43937427,1.0715141,0.0,4,0.0,0.0,0.0,0.0,0.0,0,0,0,0,0,1,1,0,0,0
90142764,14.992642,15.048553,38.936,38.955563,0.0,940.7294,0.43412477,1.0722321,0.0,4,0.0,0.0,0.0,0.0,0.0,0,0,0,0,0,1,1,0,0,0
90645795,14.963455,15.050999,38.9608,38.955055,0.0,946.1726,0.43447477,1.0721842,0.0,4,0.0,0.0,0.0,0.0,0.0,0,0,0,0,0,1,1,0,0,0
91149154,14.973185,15.049931,38.9484,38.95575,0.0,951.61957,0.43403083,1.0722449,0.0,4,0.0,0.0,0.0,0.0,0.0,0,0,0,0,0,1,1,0,0,0
91652392,15.041288,15.052397,38.9484,38.956852,0.0,957.0653,0.43500453,1.0721117,0.0,4,0.0,0.0,0.0,0.0,0.0,0,0,0,0,0,1,1,0,0,0
92155544,14.846705,15.050722,38.9608,38.958458,0.0,962.5106,0.43528444,1.0720733,0.0,4,0.0,0.0,0.0,0.0,0.0,0,0,0,0,0,1,1,0,0,0
92646726,14.90508,15.056083,38.849197,38.955845,0.0,967.8258,0.43746787,1.0717747,0.0,4,0.0,0.0,0.0,0.0,0.0,0,0,0,0,0,1,1,0,0,0
93149957,15.235872,15.054458,38.9608,38.958233,0.0,973.27155,0.43679553,1.0718666,0.0,4,0.0,0.0,0.0,0.0,0.0,0,0,0,0,0,1,1,0,0,0
93653165,14.982914,15.030843,38.936,38.95739,0.0,978.71704,0.4255002,1.0734137,0.0,4,0.0,0.0,0.0,0.0,0.0,0,0,0,0,0,1,1,0,0,0
94156332,14.875893,15.032162,38.9484,38.9592,0.0,984.16235,0.42626888,1.0733083,0.0,4,0.0,0.0,0.0,0.0,0.0,0,0,0,0,0,1,1,0,0,0
94647598,15.226143,15.032243,38.973198,38.959698,0.0,989.47894,0.4260605,1.073337,0.0,4,0.0,0.0,0.0,0.0,0.0,0,0,0,0,0,1,1,0,0,0
95150637,14.613205,15.029543,38.9608,38.958412,0.0,994.92255,0.42621785,1.0733154,0.0,4,0.0,0.0,0.0,0.0,0.0,0,0,0,0,0,1,1,0,0,0
95653896,15.167768,15.02874,38.9608,38.957016,0.0,1000.36847,0.4244669,1.0735556,0.0,4,0.0,0.0,0.0,0.0,0.0,0,0,0,0,0,1,1,0,0,0
96157003,15.080205,15.021232,38.9608,38.957153,0.0,1005.8127,0.4215644,1.073954,0.0,4,0.0,0.0,0.0,0.0,0.0,0,0,0,0,0,1,1,0,0,0
96660225,14.934268,15.006255,38.9484,38.957203,0.0,1011.25824,0.4155267,1.0747836,0.0,4,0.0,0.0,0.0,0.0,0.0,0,0,0,0,0,1,1,0,0,0
97164549,14.827247,15.015856,38.973198,38.95901,0.0,1016.71625,0.41973048,1.0742058,0.0,4,0.0,0.0,0.0,0.0,0.0,0,0,0,0,0,1,1,0,0,0
97666723,15.099664,15.020137,38.9484,38.96124,0.0,1022.1513,0.42147237,1.0739666,0.0,4,0.0,0.0,0.0,0.0,0.0,0,0,0,0,0,1,1,0,0,0
98158768,15.119122,15.0201845,38.9484,38.957893,0.0,1027.4755,0.41924173,1.074273,0.0,4,0.0,0.0,0.0,0.0,0.0,0,0,0,0,0,1,1,0,0,0
98661924,15.060747,15.025347,38.9856,38.959343,0.0,1032.9205,0.42091972,1.0740424,0.0,4,0.0,0.0,0.0,0.0,0.0,0,0,0,0,0,1,1,0,0,0
99165028,15.012101,15.019654,38.973198,38.95697,0.0,1038.3643,0.41972762,1.0742062,0.0,4,0.0,0.0,0.0,0.0,0.0,0,0,0,0,0,1,1,0,0,0
99668296,15.167768,15.018365,38.9608,38.957733,0.0,1043.8103,0.41991264,1.0741807,0.0,4,0.0,0.0,0.0,0.0,0.0,0,0,0,0,0,1,1,0,0,0
100171438,14.836976,15.011732,38.9608,38.957188,0.0,1049.2549,0.41678363,1.0746107,0.0,4,0.0,0.0,0.0,0.0,0.0,0,0,0,0,0,1,1,0,0,0
100674737,14.856435,15.015133,38.9856,38.95566,0.0,1054.7012,0.41808778,1.0744315,0.0,4,0.0,0.0,0.0,0.0,0.0,0,0,0,0,0,1,1,0,0,0
101177925,14.963455,15.021761,38.9608,38.955612,0.0,1060.1459,0.42222816,1.0738628,0.0,4,0.0,0.0,0.0,0.0,0.0,0,0,0,0,0,1,1,0,0,0
101669269,15.080205,15.015423,38.9856,38.956825,0.0,1065.463,0.41970617,1.0742091,0.0,4,0.0,0.0,0.0,0.0,0.0,0,0,0,0,0,1,1,0,0,0
102172343,14.68131,14.995233,38.9608,38.95847,0.0,1070.9073,0.41046983,1.0754795,0.0,4,0.0,0.0,0.0,0.0,0.0,0,0,0,0,0,1,1,0,0,0
102675495,14.914809,14.999333,38.9484,38.95814,0.0,1076.3524,0.41159946,1.0753239,0.0,4,0.0,0.0,0.0,0.0,0.0,0,0,0,0,0,1,1,0,0,0
103174708,14.934268,14.994381,38.9608,38.95972,0.0,1081.7551,0.40824538,1.0757859,0.0,4,0.0,0.0,0.0,0.0,0.0,0,0,0,0,0,1,1,0,0,0
103685963,15.109393,14.99684,38.9608,38.956707,0.0,1087.2871,0.4101022,1.07553,0.0,4,0.0,0.0,0.0,0.0,0.0,0,0,0,0,0,1,1,0,0,0
104177055,15.060747,14.987141,38.9484,38.955948,0.0,1092.6014,0.40477735,1.0762639,0.0,4,0.0,0.0,0.0,0.0,0.0,0,0,0,0,0,1,1,0,0,0
104680339,15.14831,14.982418,38.9608,38.954712,0.0,1098.047,0.40270883,1.0765492,0.0,4,0.0,0.0,0.0,0.0,0.0,0,0,0,0,0,1,1,0,0,0
105183552,14.603477,14.978047,38.9608,38.95551,0.0,1103.4927,0.4017542,1.0766809,0.0,4,0.0,0.0,0.0,0.0,0.0,0,0,0,0,0,1,1,0,0,0
105686711,15.060747,14.987535,38.9484,38.955364,0.0,1108.9371,0.40402585,1.0763675,0.0,4,0.0,0.0,0.0,0.0,0.0,0,0,0,0,0,1,1,0,0,0
106189149,14.953726,14.985402,38.9856,38.95555,0.0,1114.3739,0.40182382,1.0766714,0.0,4,0.0,0.0,0.0,0.0,0.0,0,0,0,0,0,1,1,0,0,0
106681845,15.021831,14.973249,38.9608,38.95682,0.0,1119.7054,0.3959449,1.0774832,0.0,4,0.0,0.0,0.0,0.0,0.0,0,0,0,0,0,1,1,0,0,0
107185097,15.012101,14.981455,38.973198,38.956963,0.0,1125.1514,0.40041333,1.076866,0.0,4,0.0,0.0,0.0,0.0,0.0,0,0,0,0,0,1,1,0,0,0
107688314,15.041288,14.966041,38.9608,38.955845,0.0,1130.5966,0.39433604,1.0777056,0.0,4,0.0,0.0,0.0,0.0,0.0,0,0,0,0,0,1,1,0,0,0
108191547,15.099664,14.9706135,38.9608,38.95664,0.0,1136.0421,0.39652902,1.0774025,0.0,4,0.0,0.0,0.0,0.0,0.0,0,0,0,0,0,1,1,0,0,0
108694743,14.914809,14.965142,38.9856,38.954556,0.0,1141.4869,0.39504033,1.0776082,0.0,4,0.0,0.0,0.0,0.0,0.0,0,0,0,0,0,1,1,0,0,0
109185914,14.846705,14.9637375,38.9608,38.958027,0.0,1146.8029,0.39447004,1.0776871,0.0,4,0.0,0.0,0.0,0.0,0.0,0,0,0,0,0,1,1,0,0,0
109689027,14.90508,14.951872,38.9608,38.958263,0.0,1152.2477,0.3898123,1.0783315,0.0,4,0.0,0.0,0.0,0.0,0.0,0,0,0,0,0,1,1,0,0,0
110192308,14.934268,14.962059,38.9484,38.956535,0.0,1157.6936,0.39474136,1.0776496,0.0,4,0.0,0.0,0.0,0.0,0.0,0,0,0,0,0,1,1,0,0,0
110695671,14.924539,14.95494,38.9608,38.95503,0.0,1163.1405,0.3905242,1.0782329,0.0,4,0.0,0.0,0.0,0.0,0.0,0,0,0,0,0,1,1,0,0,0
111198739,14.875893,14.974323,38.9856,38.95647,0.0,1168.5842,0.39907438,1.0770509,0.0,4,0.0,0.0,0.0,0.0,0.0,0,0,0,0,0,1,1,0,0,0
111701961,15.099664,14.973984,38.973198,38.955303,0.0,1174.0294,0.39932948,1.0770156,0.0,4,0.0,0.0,0.0,0.0,0.0,0,0,0,0,0,1,1,0,0,0
112205104,14.914809,14.9673195,38.9608,38.956913,0.0,1179.474,0.39721948,1.0773071,0.0,4,0.0,0.0,0.0,0.0,0.0,0,0,0,0,0,1,1,0,0,0
112696369,15.070476,14.959794,38.936,38.954304,0.0,1184.7892,0.39307243,1.0778804,0.0,4,0.0,0.0,0.0,0.0,0.0,0,0,0,0,0,1,1,0,0,0
113199498,14.953726,14.958305,38.973198,38.95315,0.0,1190.2328,0.39186412,1.0780475,0.0,4,0.0,0.0,0.0,0.0,0.0,0,0,0,0,0,1,1,0,0,0
113702759,14.846705,14.955057,38.9608,38.954952,0.0,1195.6785,0.39251786,1.077957,0.0,4,0.0,0.0,0.0,0.0,0.0,0,0,0,0,0,1,1,0,0,0
114205917,15.099664,14.94731,38.9856,38.956318,0.0,1201.1235,0.3880685,1.0785729,0.0,4,0.0,0.0,0.0,0.0,0.0,0,0,0,0,0,1,1,0,0,0
114709964,15.031559,14.9499855,38.9856,38.9575,0.0,1206.5781,0.38990575,1.0783186,0.0,4,0.0,0.0,0.0,0.0,0.0,0,0,0,0,0,1,1,0,0,0
115213205,14.973185,14.953667,38.9484,38.954098,0.0,1212.0237,0.3916629,1.0780754,0.0,4,0.0,0.0,0.0,0.0,0.0,0,0,0,0,0,1,1,0,0,0
115704365,14.866163,14.952215,38.936,38.953026,0.0,1217.3384,0.38972312,1.0783439,0.0,4,0.0,0.0,0.0,0.0,0.0,0,0,0,0,0,1,1,0,0,0
116207746,15.070476,14.952167,38.936,38.956013,0.0,1222.7859,0.3890713,1.0784341,0.0,4,0.0,0.0,0.0,0.0,0.0,0,0,0,0,0,1,1,0,0,0
116710685,14.846705,14.94357,38.9608,38.955013,0.0,1228.2286,0.38632184,1.0788149,0.0,4,0.0,0.0,0.0,0.0,0.0,0,0,0,0,0,1,1,0,0,0
117209940,14.807789,14.941555,38.936,38.955215,0.0,1233.631,0.3861459,1.0788393,0.0,4,0.0,0.0,0.0,0.0,0.0,0,0,0,0,0,1,1,0,0,0
117713213,14.885622,14.927393,38.9608,38.95499,0.0,1239.0771,0.3796528,1.0797397,0.0,4,0.0,0.0,0.0,0.0,0.0,0,0,0,0,0,1,1,0,0,0
118216347,15.089934,14.944244,38.9608,38.954098,0.0,1244.521,0.38605052,1.0788524,0.0,4,0.0,0.0,0.0,0.0,0.0,0,0,0,0,0,1,1,0,0,0
118707437,14.895351,14.936463,38.9484,38.95675,0.0,1249.8352,0.38243324,1.0793539,0.0,4,0.0,0.0,0.0,0.0,0.0,0,0,0,0,0,1,1,0,0,0
119210627,15.060747,14.942041,38.9484,38.957207,0.0,1255.2805,0.38420993,1.0791075,0.0,4,0.0,0.0,0.0,0.0,0.0,0,0,0,0,0,1,1,0,0,0
119713842,14.807789,14.927003,38.9608,38.95595,0.0,1260.7253,0.37944347,1.0797688,0.0,4,0.0,0.0,0.0,0.0,0.0,0,0,0,0,0,1,1,0,0,0
120217179,14.856435,14.930384,38.9608,38.95221,0.0,1266.1711,0.38009197,1.0796788,0.0,4,0.0,0.0,0.0,0.0,0.0,0,0,0,0,0,1,1,0,0,0
120720339,14.992642,14.937043,38.9484,38.952526,0.0,1271.6154,0.3822878,1.0793741,0.0,4,0.0,0.0,0.0,0.0,0.0,0,0,0,0,0,1,1,0,0,0
121223444,15.070476,14.928906,38.9484,38.956627,0.0,1277.0596,0.37765676,1.0800167,0.0,4,0.0,0.0,0.0,0.0,0.0,0,0,0,0,0,1,1,0,0,0
121726645,14.924539,14.926685,38.973198,38.957863,0.0,1282.5056,0.37486488,1.0804046,0.0,4,0.0,0.0,0.0,0.0,0.0,0,0,0,0,0,1,1,0,0,0
122217896,14.992642,14.922683,38.936,38.954998,0.0,1287.8208,0.37352973,1.0805901,0.0,4,0.0,0.0,0.0,0.0,0.0,0,0,0,0,0,1,1,0,0,0
122721134,14.992642,14.922812,38.973198,38.95501,0.0,1293.2659,0.37431222,1.0804814,0.0,4,0.0,0.0,0.0,0.0,0.0,0,0,0,0,0,1,1,0,0,0
123224366,14.836976,14.918248,38.9856,38.95452,0.0,1298.7109,0.3724721,1.0807372,0.0,4,0.0,0.0,0.0,0.0,0.0,0,0,0,0,0,1,1,0,0,0
123727499,14.934268,14.914945,38.9484,38.954918,0.0,1304.1552,0.3712409,1.0809084,0.0,4,0.0,0.0,0.0,0.0,0.0,0,0,0,0,0,1,1,0,0,0
124231763,15.051018,14.915891,38.9608,38.958855,0.0,1309.6125,0.37167865,1.0808475,0.0,4,0.0,0.0,0.0,0.0,0.0,0,0,0,0,0,1,1,0,0,0
124733960,14.90508,14.923178,38.973198,38.959126,0.0,1315.0471,0.3753422,1.0803382,0.0,4,0.0,0.0,0.0,0.0,0.0,0,0,0,0,0,1,1,0,0,0
125237935,15.060747,14.92598,38.9608,38.95851,0.0,1320.5007,0.376715,1.0801476,0.0,4,0.0,0.0,0.0,0.0,0.0,0,0,0,0,0,1,1,0,0,0
125741139,15.021831,14.917216,38.9608,38.95379,0.0,1325.9453,0.3734377,1.080603,0.0,4,0.0,0.0,0.0,0.0,0.0,0,0,0,0,0,1,1,0,0,0
126232360,15.031559,14.913445,38.936,38.954147,0.0,1331.2609,0.3718441,1.0808245,0.0,4,0.0,0.0,0.0,0.0,0.0,0,0,0,0,0,1,1,0,0,0
126735521,15.041288,14.902711,38.9484,38.955975,0.0,1336.7057,0.3667119,1.0815388,0.0,4,0.0,0.0,0.0,0.0,0.0,0,0,0,0,0,1,1,0,0,0
127238737,14.895351,14.904269,38.9484,38.95696,0.0,1342.1514,0.36819535,1.0813322,0.0,4,0.0,0.0,0.0,0.0,0.0,0,0,0,0,0,1,1,0,0,0
127741836,14.778601,14.911073,38.936,38.95967,0.0,1347.5961,0.37090665,1.0809549,0.0,4,0.0,0.0,0.0,0.0,0.0,0,0,0,0,0,1,1,0,0,0
128245130,14.992642,14.904674,38.9608,38.957943,0.0,1353.0422,0.36701518,1.0814965,0.0,4,0.0,0.0,0.0,0.0,0.0,0,0,0,0,0,1,1,0,0,0
128748368,14.982914,14.905191,38.9856,38.955933,0.0,1358.4878,0.36719638,1.0814713,0.0,4,0.0,0.0,0.0,0.0,0.0,0,0,0,0,0,1,1,0,0,0
129251507,14.943996,14.896743,38.9484,38.95625,0.0,1363.9323,0.36308032,1.0820447,0.0,4,0.0,0.0,0.0,0.0,0.0,0,0,0,0,0,1,1,0,0,0
129742580,14.759143,14.892697,38.9484,38.95553,0.0,1369.2463,0.36089975,1.0823487,0.0,4,0.0,0.0,0.0,0.0,0.0,0,0,0,0,0,1,1,0,0,0
130245938,14.856435,14.891941,38.9608,38.95807,0.0,1374.6941,0.35969716,1.0825164,0.0,4,0.0,0.0,0.0,0.0,0.0,0,0,0,0,0,1,1,0,0,0
130749121,15.060747,14.8963,38.936,38.957912,0.0,1380.139,0.36164027,1.0822455,0.0,4,0.0,0.0,0.0,0.0,0.0,0,0,0,0,0,1,1,0,0,0
131252330,15.196955,14.910883,38.9608,38.95628,0.0,1385.5845,0.3676656,1.081406,0.0,4,0.0,0.0,0.0,0.0,0.0,0,0,0,0,0,1,1,0,0,0
131753811,14.827247,14.908698,38.9608,38.95553,0.0,1391.0111,0.3672927,1.0814579,0.0,4,0.0,0.0,0.0,0.0,0.0,0,0,0,0,0,1,1,0,0,0
132254708,15.021831,14.896438,38.9608,38.953915,0.0,1396.4307,0.36228162,1.0821561,0.0,4,0.0,0.0,0.0,0.0,0.0,0,0,0,0,0,1,1,0,0,0
132757802,14.652122,14.91017,38.9484,38.956673,0.0,1401.8751,0.3694728,1.0811545,0.0,4,0.0,0.0,0.0,0.0,0.0,0,0,0,0,0,1,1,0,0,0
133249108,14.613205,14.906349,38.9608,38.954025,0.0,1407.1909,0.36849815,1.08129,0.0,4,0.0,0.0,0.0,0.0,0.0,0,0,0,0,0,1,1,0,0,0
133753122,14.924539,14.884307,38.9484,38.953564,0.0,1412.6444,0.35786515,1.0827721,0.0,4,0.0,0.0,0.0,0.0,0.0,0,0,0,0,0,1,1,0,0,0
134256306,15.021831,14.887734,38.9856,38.953217,0.0,1418.0894,0.35856944,1.0826738,0.0,4,0.0,0.0,0.0,0.0,0.0,0,0,0,0,0,1,1,0,0,0
134759641,14.798059,14.877967,38.9484,38.95574,0.0,1423.536,0.3535884,1.0833694,0.0,4,0.0,0.0,0.0,0.0,0.0,0,0,0,0,0,1,1,0,0,0
135258736,14.895351,14.889642,38.9856,38.955585,0.0,1428.9364,0.35860187,1.0826693,0.0,4,0.0,0.0,0.0,0.0,0.0,0,0,0,0,0,1,1,0,0,0
135761939,14.895351,14.882698,38.9608,38.954422,0.0,1434.3815,0.35737497,1.0828406,0.0,4,0.0,0.0,0.0,0.0,0.0,0,0,0,0,0,1,1,0,0,0
136265098,15.002372,14.872989,38.936,38.954247,0.0,1439.8256,0.3521865,1.0835652,0.0,4,0.0,0.0,0.0,0.0,0.0,0,0,0,0,0,1,1,0,0,0
136768279,14.934268,14.869533,38.9608,38.952858,0.0,1445.2695,0.35008222,1.0838594,0.0,4,0.0,0.0,0.0,0.0,0.0,0,0,0,0,0,1,1,0,0,0
137259532,14.924539,14.863438,38.9608,38.9535,0.0,1450.5854,0.34612495,1.0844132,0.0,4,0.0,0.0,0.0,0.0,0.0,0,0,0,0,0,1,1,0,0,0
137762770,14.584018,14.860667,38.9484,38.95507,0.0,1456.0312,0.34597427,1.0844343,0.0,4,0.0,0.0,0.0,0.0,0.0,0,0,0,0,0,1,1,0,0,0
138265920,14.963455,14.873019,38.973198,38.955383,0.0,1461.4756,0.351929,1.0836012,0.0,4,0.0,0.0,0.0,0.0,0.0,0,0,0,0,0,1,1,0,0,0
138769165,14.982914,14.878767,38.9484,38.955944,0.0,1466.921,0.3544281,1.083252,0.0,4,0.0,0.0,0.0,0.0,0.0,0,0,0,0,0,1,1,0,0,0
139272305,15.089934,14.887671,38.9608,38.955975,0.0,1472.3658,0.35931808,1.0825694,0.0,4,0.0,0.0,0.0,0.0,0.0,0,0,0,0,0,1,1,0,0,0
139763423,14.992642,14.855199,38.9608,38.954945,0.0,1477.6797,0.34599286,1.0844316,0.0,4,0.0,0.0,0.0,0.0,0.0,0,0,0,0,0,1,1,0,0,0
140262772,14.710497,14.867624,38.936,38.952118,0.0,1483.0828,0.3500083,1.0838698,0.0,4,0.0,0.0,0.0,0.0,0.0,0,0,0,0,0,1,1,0,0,0
140765896,15.13858,14.858602,38.936,38.952423,0.0,1488.5267,0.34614784,1.08441,0.0,4,0.0,0.0,0.0,0.0,0.0,0,0,0,0,0,1,1,0,0,0
141269074,15.012101,14.857783,38.9484,38.9536,0.0,1493.9714,0.34788543,1.0841668,0.0,4,0.0,0.0,0.0,0.0,0.0,0,0,0,0,0,1,1,0,0,0
141772325,15.021831,14.8665695,38.9484,38.953285,0.0,1499.4166,0.3514431,1.0836692,0.0,4,0.0,0.0,0.0,0.0,0.0,0,0,0,0,0,1,1,0,0,0
142273117,14.895351,14.8651,38.9484,38.952778,0.0,1504.8352,0.35119754,1.0837035,0.0,4,0.0,0.0,0.0,0.0,0.0,0,0,0,0,0,1,1,0,0,0
142775566,14.992642,14.85483,38.9484,38.954845,0.0,1510.2719,0.34472495,1.0846092,0.0,4,0.0,0.0,0.0,0.0,0.0,0,0,0,0,0,1,1,0,0,0
143278780,15.041288,14.86465,38.9608,38.955585,0.0,1515.7174,0.34716588,1.0842675,0.0,4,0.0,0.0,0.0,0.0,0.0,0,0,0,0,0,1,1,0,0,0
143777828,14.817518,14.856958,38.936,38.955505,0.0,1521.1177,0.34248573,1.0849229,0.0,4,0.0,0.0,0.0,0.0,0.0,0,0,0,0,0,1,1,0,0,0
144281202,14.90508,14.861187,38.973198,38.956615,0.0,1526.5648,0.34563905,1.0844812,0.0,4,0.0,0.0,0.0,0.0,0.0,0,0,0,0,0,1,1,0,0,0
144784385,15.070476,14.854507,38.9608,38.95628,0.0,1532.0095,0.34250194,1.0849206,0.0,4,0.0,0.0,0.0,0.0,0.0,0,0,0,0,0,1,1,0,0,0
145275577,14.973185,14.852439,38.9608,38.95396,0.0,1537.3248,0.34076148,1.0851645,0.0,4,0.0,0.0,0.0,0.0,0.0,0,0,0,0,0,1,1,0,0,0
145778617,14.924539,14.840902,38.9608,38.953808,0.0,1542.7684,0.3359807,1.0858351,0.0,4,0.0,0.0,0.0,0.0,0.0,0,0,0,0,0,1,1,0,0,0
146281902,14.729956,14.837194,38.9608,38.953266,0.0,1548.214,0.33562356,1.0858853,0.0,4,0.0,0.0,0.0,0.0,0.0,0,0,0,0,0,1,1,0,0,0
146785116,14.759143,14.856318,38.936,38.954952,0.0,1553.659,0.34308082,1.0848395,0.0,4,0.0,0.0,0.0,0.0,0.0,0,0,0,0,0,1,1,0,0,0
147288370,14.934268,14.851882,38.9484,38.953743,0.0,1559.1045,0.3415454,1.0850546,0.0,4,0.0,0.0,0.0,0.0,0.0,0,0,0,0,0,1,1,0,0,0
147791540,14.992642,14.851489,38.9484,38.95336,0.0,1564.5488,0.34191924,1.0850023,0.0,4,0.0,0.0,0.0,0.0,0.0,0,0,0,0,0,1,1,0,0,0
148294726,14.574288,14.8578615,38.936,38.9537,0.0,1569.9935,0.34437162,1.0846586,0.0,4,0.0,0.0,0.0,0.0,0.0,0,0,0,0,0,1,1,0,0,0
148797851,14.924539,14.851857,38.9608,38.952652,0.0,1575.4371,0.34085208,1.0851518,0.0,4,0.0,0.0,0.0,0.0,0.0,0,0,0,0,0,1,1,0,0,0
149289034,14.350518,14.835488,38.936,38.95233,0.0,1580.752,0.33248836,1.0863255,0.0,4,0.0,0.0,0.0,0.0,0.0,0,0,0,0,0,1,1,0,0,0
149792310,14.934268,14.854134,38.936,38.953068,0.0,1586.1974,0.34113008,1.0851128,0.0,4,0.0,0.0,0.0,0.0,0.0,0,0,0,0,0,1,1,0,0,0
150292342,14.7494135,14.836013,38.936,38.95259,0.0,1591.6082,0.33277732,1.086285,0.0,4,0.0,0.0,0.0,0.0,0.0,0,0,0,0,0,1,1,0,0,0
150795570,14.817518,14.854677,38.9856,38.954086,0.0,1597.0537,0.3405488,1.0851943,0.0,4,0.0,0.0,0.0,0.0,0.0,0,0,0,0,0,1,1,0,0,0
151298763,15.012101,14.8372135,38.9484,38.954933,0.0,1602.4983,0.33341533,1.0861953,0.0,4,0.0,0.0,0.0,0.0,0.0,0,0,0,0,0,1,1,0,0,0
151801161,15.021831,14.829818,38.9484,38.95321,0.0,1607.934,0.3300026,1.0866749,0.0,4,0.0,0.0,0.0,0.0,0.0,0,0,0,0,0,1,1,0,0,0
152293160,14.817518,14.839969,38.9608,38.952568,0.0,1613.2572,0.33337146,1.0862015,0.0,4,0.0,0.0,0.0,0.0,0.0,0,0,0,0,0,1,1,0,0,0
152796348,14.584018,14.837116,38.9484,38.95327,0.0,1618.7017,0.33338434,1.0861998,0.0,4,0.0,0.0,0.0,0.0,0.0,0,0,0,0,0,1,1,0,0,0
153299598,14.7007675,14.82415,38.9484,38.952663,0.0,1624.1466,0.32737237,1.0870448,0.0,4,0.0,0.0,0.0,0.0,0.0,0,0,0,0,0,1,1,0,0,0
153802782,14.866163,14.839594,38.9608,38.95281,0.0,1629.5911,0.3332904,1.0862129,0.0,4,0.0,0.0,0.0,0.0,0.0,0,0,0,0,0,1,1,0,0,0
154293964,14.914809,14.838839,38.9484,38.95145,0.0,1634.9055,0.33203536,1.0863892,0.0,4,0.0,0.0,0.0,0.0,0.0,0,0,0,0,0,1,1,0,0,0
154797132,14.885622,14.827213,38.936,38.951756,0.0,1640.35,0.32689887,1.0871114,0.0,4,0.0,0.0,0.0,0.0,0.0,0,0,0,0,0,1,1,0,0,0
155300300,15.012101,14.825422,38.9608,38.95251,0.0,1645.7948,0.3261569,1.0872158,0.0,4,0.0,0.0,0.0,0.0,0.0,0,0,0,0,0,1,1,0,0,0
155803548,14.798059,14.822419,38.9608,38.952755,0.0,1651.2397,0.32704574,1.0870907,0.0,4,0.0,0.0,0.0,0.0,0.0,0,0,0,0,0,1,1,0,0,0
156306769,14.691039,14.820168,38.936,38.95298,0.0,1656.6847,0.3251403,1.0873588,0.0,4,0.0,0.0,0.0,0.0,0.0,0,0,0,0,0,1,1,0,0,0
156809823,14.924539,14.824212,38.9484,38.95246,0.0,1662.1278,0.3264926,1.0871686,0.0,4,0.0,0.0,0.0,0.0,0.0,0,0,0,0,0,1,1,0,0,0
157313160,14.67158,14.8214,38.936,38.95146,0.0,1667.5741,0.32445318,1.0874556,0.0,4,0.0,0.0,0.0,0.0,0.0,0,0,0,0,0,1,1,0,0,0
157804364,15.031559,14.821944,38.936,38.952755,0.0,1672.8893,0.32487613,1.087396,0.0,4,0.0,0.0,0.0,0.0,0.0,0,0,0,0,0,1,1,0,0,0
158307525,14.846705,14.827058,38.9236,38.952957,0.0,1678.3339,0.3286813,1.0868607,0.0,4,0.0,0.0,0.0,0.0,0.0,0,0,0,0,0,1,1,0,0,0
158810681,14.807789,14.812974,38.9608,38.955475,0.0,1683.7783,0.32182866,1.0878252,0.0,4,0.0,0.0,0.0,0.0,0.0,0,0,0,0,0,1,1,0,0,0
159313975,14.827247,14.804016,38.9608,38.953983,0.0,1689.2239,0.31660253,1.0885619,0.0,4,0.0,0.0,0.0,0.0,0.0,0,0,0,0,0,1,1,0,0,0
159816237,14.720226,14.809232,38.936,38.95231,0.0,1694.6581,0.31823808,1.0883312,0.0,4,0.0,0.0,0.0,0.0,0.0,0,0,0,0,0,1,1,0,0,0
160321034,14.827247,14.806276,38.936,38.95065,0.0,1700.1195,0.31725436,1.08847,0.0,4,0.0,0.0,0.0,0.0,0.0,0,0,0,0,0,1,1,0,0,0
160824306,14.661851,14.802852,38.936,38.952316,0.0,1705.5652,0.31799203,1.0883659,0.0,4,0.0,0.0,0.0,0.0,0.0,0,0,0,0,0,1,1,0,0,0
161327487,14.924539,14.809453,38.973198,38.952904,0.0,1711.0096,0.32159454,1.0878582,0.0,4,0.0,0.0,0.0,0.0,0.0,0,0,0,0,0,1,1,0,0,0
162829119,14.963455,14.790959,38.9608,38.9493,0.0,1727.2566,0.3128937,1.0890853,0.0,4,0.0,0.0,0.0,0.0,0.0,0,0,0,0,0,1,1,0,0,0
163320239,14.943996,14.796702,38.936,38.94882,0.0,1732.5697,0.31677228,1.088538,0.0,4,0.0,0.0,0.0,0.0,0.0,0,0,0,0,0,1,1,0,0,0
163823636,14.622934,14.782824,38.936,38.94848,0.0,1738.0157,0.31051904,1.0894208,0.0,4,0.0,0.0,0.0,0.0,0.0,0,0,0,0,0,1,1,0,0,0
164326748,14.584018,14.793667,38.936,38.948936,0.0,1743.4594,0.31376535,1.0889623,0.0,4,0.0,0.0,0.0,0.0,0.0,0,0,0,0,0,1,1,0,0,0
164829907,14.78833,14.78389,38.9608,38.95251,0.0,1748.9038,0.30878574,1.0896658,0.0,4,0.0,0.0,0.0,0.0,0.0,0,0,0,0,0,1,1,0,0,0
165333160,14.973185,14.776745,38.9484,38.9535,0.0,1754.3494,0.3048728,1.0902191,0.0,4,0.0,0.0,0.0,0.0,0.0,0,0,0,0,0,1,1,0,0,0
165836337,14.768872,14.7756405,38.9484,38.95172,0.0,1759.7938,0.3047722,1.0902333,0.0,4,0.0,0.0,0.0,0.0,0.0,0,0,0,0,0,1,1,0,0,0
166339590,14.759143,14.773145,38.9608,38.952522,0.0,1765.2391,0.30355054,1.0904063,0.0,4,0.0,0.0,0.0,0.0,0.0,0,0,0,0,0,1,1,0,0,0
166842792,14.827247,14.781338,38.9484,38.953503,0.0,1770.6838,0.3063391,1.0900117,0.0,4,0.0,0.0,0.0,0.0,0.0,0,0,0,0,0,1,1,0,0,0
167345949,14.963455,14.757645,38.9484,38.952938,0.0,1776.1278,0.296552,1.0913978,0.0,4,0.0,0.0,0.0,0.0,0.0,0,0,0,0,0,1,1,0,0,0
167837062,14.739684,14.762774,38.9484,38.95049,0.0,1781.4413,0.30014306,1.0908889,0.0,4,0.0,0.0,0.0,0.0,0.0,0,0,0,0,0,1,1,0,0,0
168341069,14.934268,14.771187,38.9856,38.95099,0.0,1786.8942,0.30276328,1.0905178,0.0,4,0.0,0.0,0.0,0.0,0.0,0,0,0,0,0,1,1,0,0,0
168844332,14.68131,14.776288,38.9608,38.94999,0.0,1792.3391,0.3042429,1.0903083,0.0,4,0.0,0.0,0.0,0.0,0.0,0,0,0,0,0,1,1,0,0,0
169347488,14.535372,14.762713,38.9484,38.950024,0.0,1797.7827,0.29896528,1.0910556,0.0,4,0.0,0.0,0.0,0.0,0.0,0,0,0,0,0,1,1,0,0,0
169838664,14.652122,14.772542,38.973198,38.94986,0.0,1803.0967,0.30490142,1.0902151,0.0,4,0.0,0.0,0.0,0.0,0.0,0,0,0,0,0,1,1,0,0,0
170341895,14.768872,14.768726,38.936,38.949734,0.0,1808.5413,0.3017648,1.0906591,0.0,4,0.0,0.0,0.0,0.0,0.0,0,0,0,0,0,1,1,0,0,0
170841193,14.691039,14.775178,38.9484,38.95044,0.0,1813.9434,0.3048933,1.0902163,0.0,4,0.0,0.0,0.0,0.0,0.0,0,0,0,0,0,1,1,0,0,0
171344311,15.021831,14.775034,38.9484,38.949627,0.0,1819.3871,0.30350763,1.0904124,0.0,4,0.0,0.0,0.0,0.0,0.0,0,0,0,0,0,1,1,0,0,0
171847485,14.924539,14.771497,39.0352,38.9526,0.0,1824.8312,0.30189782,1.0906403,0.0,4,0.0,0.0,0.0,0.0,0.0,0,0,0,0,0,1,1,0,0,0
172350760,14.739684,14.772448,38.936,38.95239,0.0,1830.2765,0.30236226,1.0905745,0.0,4,0.0,0.0,0.0,0.0,0.0,0,0,0,0,0,1,1,0,0,0
172853927,14.729956,14.754197,38.9608,38.950386,0.0,1835.7201,0.29323894,1.0918678,0.0,4,0.0,0.0,0.0,0.0,0.0,0,0,0,0,0,1,1,0,0,0
173345185,14.807789,14.756327,38.9484,38.949017,0.0,1841.0349,0.2939332,1.0917692,0.0,4,0.0,0.0,0.0,0.0,0.0,0,0,0,0,0,1,1,0,0,0
173848243,14.914809,14.753904,38.9856,38.950478,0.0,1846.4778,0.2941473,1.0917389,0.0,4,0.0,0.0,0.0,0.0,0.0,0,0,0,0,0,1,1,0,0,0
174351610,14.67158,14.751334,38.9484,38.951763,0.0,1851.9244,0.2926591,1.09195,0.0,4,0.0,0.0,0.0,0.0,0.0,0,0,0,0,0,1,1,0,0,0
174854748,14.525642,14.74412,38.973198,38.953114,0.0,1857.3689,0.28975898,1.0923619,0.0,4,0.0,0.0,0.0,0.0,0.0,0,0,0,0,0,1,1,0,0,0
175357992,14.691039,14.753866,38.9484,38.950405,0.0,1862.8136,0.2935689,1.091821,0.0,4,0.0,0.0,0.0,0.0,0.0,0,0,0,0,0,1,1,0,0,0
175861154,14.895351,14.730615,38.9484,38.948463,0.0,1868.2571,0.2841671,1.0931568,0.0,4,0.0,0.0,0.0,0.0,0.0,0,0,0,0,0,1,1,0,0,0
176363933,14.982914,14.736738,38.9608,38.95066,0.0,1873.697,0.28649122,1.0928264,0.0,4,0.0,0.0,0.0,0.0,0.0,0,0,0,0,0,1,1,0,0,0
176856376,14.56456,14.733663,38.9484,38.94861,0.0,1879.0245,0.28492767,1.0930487,0.0,4,0.0,0.0,0.0,0.0,0.0,0,0,0,0,0,1,1,0,0,0
177359606,14.506185,14.735943,38.936,38.949688,0.0,1884.4691,0.28604203,1.0928901,0.0,4,0.0,0.0,0.0,0.0,0.0,0,0,0,0,0,1,1,0,0,0
177862735,14.56456,14.738431,38.9608,38.950752,0.0,1889.9131,0.2865427,1.092819,0.0,4,0.0,0.0,0.0,0.0,0.0,0,0,0,0,0,1,1,0,0,0
178361935,14.875893,14.722537,38.9608,38.951153,0.0,1895.3142,0.2788027,1.0939205,0.0,4,0.0,0.0,0.0,0.0,0.0,0,0,0,0,0,1,1,0,0,0
178865142,14.827247,14.72223,38.936,38.949677,0.0,1900.7588,0.27783138,1.0940589,0.0,4,0.0,0.0,0.0,0.0,0.0,0,0,0,0,0,1,1,0,0,0
179368303,14.914809,14.735472,38.936,38.95131,0.0,1906.2031,0.2844289,1.0931196,0.0,4,0.0,0.0,0.0,0.0,0.0,0,0,0,0,0,1,1,0,0,0
179871639,14.982914,14.734048,38.9484,38.94847,0.0,1911.6482,0.28388196,1.0931975,0.0,4,0.0,0.0,0.0,0.0,0.0,0,0,0,0,0,1,1,0,0,0
180362606,14.759143,14.721327,38.936,38.949234,0.0,1916.9603,0.27711755,1.0941607,0.0,4,0.0,0.0,0.0,0.0,0.0,0,0,0,0,0,1,1,0,0,0
180865879,14.778601,14.717504,38.9856,38.95194,0.0,1922.4058,0.27479106,1.0944923,0.0,4,0.0,0.0,0.0,0.0,0.0,0,0,0,0,0,1,1,0,0,0
181377031,14.691039,14.712277,38.9484,38.949215,0.0,1927.936,0.274288,1.0945641,0.0,4,0.0,0.0,0.0,0.0,0.0,0,0,0,0,0,1,1,0,0,0
181868212,14.90508,14.71675,38.936,38.95004,0.0,1933.2507,0.27576858,1.094353,0.0,4,0.0,0.0,0.0,0.0,0.0,0,0,0,0,0,1,1,0,0,0
182371450,14.78833,14.7220955,38.936,38.95082,0.0,1938.6954,0.27780324,1.0940629,0.0,4,0.0,0.0,0.0,0.0,0.0,0,0,0,0,0,1,1,0,0,0
182874756,14.778601,14.708429,38.9484,38.951702,0.0,1944.1414,0.27171165,1.0949316,0.0,4,0.0,0.0,0.0,0.0,0.0,0,0,0,0,0,1,1,0,0,0
183377929,14.496455,14.709392,38.9608,38.950775,0.0,1949.5854,0.27194244,1.0948987,0.0,4,0.0,0.0,0.0,0.0,0.0,0,0,0,0,0,1,1,0,0,0
183880254,14.768872,14.691757,38.936,38.94698,0.0,1955.0194,0.26362067,1.0960876,0.0,4,0.0,0.0,0.0,0.0,0.0,0,0,0,0,0,1,1,0,0,0
184384349,14.836976,14.703131,38.936,38.94595,0.0,1960.4728,0.26992017,1.0951874,0.0,4,0.0,0.0,0.0,0.0,0.0,0,0,0,0,0,1,1,0,0,0
184887540,14.720226,14.697789,38.936,38.946075,0.0,1965.9163,0.26789457,1.0954767,0.0,4,0.0,0.0,0.0,0.0,0.0,0,0,0,0,0,1,1,0,0,0
185379552,14.476997,14.685496,38.9608,38.947693,0.0,1971.2394,0.26373273,1.0960716,0.0,4,0.0,0.0,0.0,0.0,0.0,0,0,0,0,0,1,1,0,0,0
185882790,14.496455,14.685102,38.936,38.947735,0.0,1976.6841,0.26201755,1.0963169,0.0,4,0.0,0.0,0.0,0.0,0.0,0,0,0,0,0,1,1,0,0,0
186385975,14.593747,14.681379,38.936,38.94751,0.0,1982.1282,0.26107103,1.0964525,0.0,4,0.0,0.0,0.0,0.0,0.0,0,0,0,0,0,1,1,0,0,0
186885172,14.399163,14.682051,38.9484,38.94776,0.0,1987.5286,0.26093227,1.0964723,0.0,4,0.0,0.0,0.0,0.0,0.0,0,0,0,0,0,1,1,0,0,0
187388335,14.817518,14.684745,38.936,38.947567,0.0,1992.9719,0.2621048,1.0963045,0.0,4,0.0,0.0,0.0,0.0,0.0,0,0,0,0,0,1,1,0,0,0
187891513,14.885622,14.68003,38.9484,38.9481,0.0,1998.4154,0.25856143,1.0968117,0.0,4,0.0,0.0,0.0,0.0,0.0,0,0,0,0,0,1,1,0,0,0
188390655,14.408893,14.676859,38.936,38.94816,0.0,2003.8154,0.25706464,1.0970261,0.0,4,0.0,0.0,0.0,0.0,0.0,0,0,0,0,0,1,1,0,0,0
188893939,14.720226,14.683982,38.9236,38.948246,0.0,2009.2606,0.25935155,1.0966985,0.0,4,0.0,0.0,0.0,0.0,0.0,0,0,0,0,0,1,1,0,0,0
189397037,14.720226,14.678151,38.936,38.94659,0.0,2014.7032,0.2558301,1.097203,0.0,4,0.0,0.0,0.0,0.0,0.0,0,0,0,0,0,1,1,0,0,0
189900389,14.846705,14.679228,38.9484,38.94518,0.0,2020.1481,0.25656062,1.0970984,0.0,4,0.0,0.0,0.0,0.0,0.0,0,0,0,0,0,1,1,0,0,0
190403563,14.554831,14.671532,38.9856,38.947693,0.0,2025.592,0.25245792,1.0976865,0.0,4,0.0,0.0,0.0,0.0,0.0,0,0,0,0,0,1,1,0,0,0
190894738,14.584018,14.681065,38.936,38.94697,0.0,2030.9061,0.25733548,1.0969874,0.0,4,0.0,0.0,0.0,0.0,0.0,0,0,0,0,0,1,1,0,0,0
191398816,14.856435,14.671867,38.9608,38.946148,0.0,2036.3591,0.2532962,1.0975662,0.0,4,0.0,0.0,0.0,0.0,0.0,0,0,0,0,0,1,1,0,0,0
191901164,14.885622,14.676544,38.9608,38.948654,0.0,2041.7942,0.2549513,1.097329,0.0,4,0.0,0.0,0.0,0.0,0.0,0,0,0,0,0,1,1,0,0,0
192405045,14.515914,14.660317,38.9484,38.94542,0.0,2047.245,0.24885397,1.0982037,0.0,4,0.0,0.0,0.0,0.0,0.0,0,0,0,0,0,1,1,0,0,0
192896343,14.691039,14.655859,38.9608,38.948067,0.0,2052.56,0.2486823,1.0982283,0.0,4,0.0,0.0,0.0,0.0,0.0,0,0,0,0,0,1,1,0,0,0
193399507,14.476997,14.645593,38.9484,38.94711,0.0,2058.004,0.2439311,1.0989109,0.0,4,0.0,0.0,0.0,0.0,0.0,0,0,0,0,0,1,1,0,0,0
193902683,14.476997,14.644288,38.936,38.948784,0.0,2063.4482,0.2433794,1.0989903,0.0,4,0.0,0.0,0.0,0.0,0.0,0,0,0,0,0,1,1,0,0,0
194405799,14.350518,14.644828,38.936,38.94657,0.0,2068.8909,0.2426279,1.0990983,0.0,4,0.0,0.0,0.0,0.0,0.0,0,0,0,0,0,1,1,0,0,0
194909155,14.836976,14.640686,38.9608,38.94774,0.0,2074.3367,0.2399991,1.0994766,0.0,4,0.0,0.0,0.0,0.0,0.0,0,0,0,0,0,1,1,0,0,0
195412317,14.525642,14.641029,38.936,38.9461,0.0,2079.7798,0.24008493,1.0994642,0.0,4,0.0,0.0,0.0,0.0,0.0,0,0,0,0,0,1,1,0,0,0
195915602,14.389435,14.648142,38.9484,38.947254,0.0,2085.224,0.24283437,1.0990686,0.0,4,0.0,0.0,0.0,0.0,0.0,0,0,0,0,0,1,1,0,0,0
196406743,14.525642,14.643315,38.9484,38.94737,0.0,2090.5376,0.24094753,1.0993401,0.0,4,0.0,0.0,0.0,0.0,0.0,0,0,0,0,0,1,1,0,0,0
196909807,14.895351,14.6472845,38.9608,38.946156,0.0,2095.9792,0.24357776,1.0989618,0.0,4,0.0,0.0,0.0,0.0,0.0,0,0,0,0,0,1,1,0,0,0
197420997,14.574288,14.640625,38.936,38.943916,0.0,2101.5093,0.23883466,1.0996442,0.0,4,0.0,0.0,0.0,0.0,0.0,0,0,0,0,0,1,1,0,0,0
197912366,14.486726,14.642262,38.936,38.94261,0.0,2106.8247,0.23937063,1.099567,0.0,4,0.0,0.0,0.0,0.0,0.0,0,0,0,0,0,1,1,0,0,0
198415528,14.428351,14.647621,38.936,38.94609,0.0,2112.268,0.24117641,1.0993072,0.0,4,0.0,0.0,0.0,0.0,0.0,0,0,0,0,0,1,1,0,0,0
198918633,14.438081,14.640082,38.936,38.945965,0.0,2117.7114,0.23733406,1.0998602,0.0,4,0.0,0.0,0.0,0.0,0.0,0,0,0,0,0,1,1,0,0,0
199421926,14.622934,14.63949,38.9608,38.94521,0.0,2123.1562,0.2378314,1.0997885,0.0,4,0.0,0.0,0.0,0.0,0.0,0,0,0,0,0,1,1,0,0,0
199922788,14.545101,14.620478,38.936,38.943626,0.0,2128.5742,0.23062257,1.1008276,0.0,4,0.0,0.0,0.0,0.0,0.0,0,0,0,0,0,1,1,0,0,0
200412279,14.807789,14.647117,38.936,38.943882,0.0,2133.8691,0.24034624,1.0994266,0.0,4,0.0,0.0,0.0,0.0,0.0,0,0,0,0,0,1,1,0,0,0
200916357,14.515914,14.633495,38.9484,38.945408,0.0,2139.3223,0.23312835,1.1004663,0.0,4,0.0,0.0,0.0,0.0,0.0,0,0,0,0,0,1,1,0,0,0
201419599,14.68131,14.625188,38.936,38.947266,0.0,2144.7664,0.23100786,1.100772,0.0,4,0.0,0.0,0.0,0.0,0.0,0,0,0,0,0,1,1,0,0,0
201922607,14.593747,14.632037,38.936,38.94565,0.0,2150.2085,0.23300533,1.1004839,0.0,4,0.0,0.0,0.0,0.0,0.0,0,0,0,0,0,1,1,0,0,0
202425927,14.2824135,14.629999,38.936,38.943825,0.0,2155.6533,0.23279934,1.1005137,0.0,4,0.0,0.0,0.0,0.0,0.0,0,0,0,0,0,1,1,0,0,0
202925017,14.525642,14.620683,38.9484,38.944588,0.0,2161.0525,0.22932462,1.1010149,0.0,4,0.0,0.0,0.0,0.0,0.0,0,0,0,0,0,1,1,0,0,0
203416360,14.613205,14.624188,38.9608,38.94514,0.0,2166.368,0.23080902,1.1008006,0.0,4,0.0,0.0,0.0,0.0,0.0,0,0,0,0,0,1,1,0,0,0
203919594,14.545101,14.608252,38.9608,38.94452,0.0,2171.8125,0.2240055,1.101783,0.0,4,0.0,0.0,0.0,0.0,0.0,0,0,0,0,0,1,1,0,0,0
204422694,14.632664,14.621394,38.936,38.944527,0.0,2177.255,0.228195,1.1011779,0.0,4,0.0,0.0,0.0,0.0,0.0,0,0,0,0,0,1,1,0,0,0
204925941,14.574288,14.612082,38.936,38.944622,0.0,2182.6985,0.22585277,1.1015161,0.0,4,0.0,0.0,0.0,0.0,0.0,0,0,0,0,0,1,1,0,0,0
205425095,14.622934,14.620873,38.9484,38.943684,0.0,2188.0977,0.22946672,1.1009943,0.0,4,0.0,0.0,0.0,0.0,0.0,0,0,0,0,0,1,1,0,0,0
205928298,14.778601,14.609649,38.9608,38.943157,0.0,2193.541,0.22480802,1.101667,0.0,4,0.0,0.0,0.0,0.0,0.0,0,0,0,0,0,1,1,0,0,0
206431596,14.613205,14.609869,38.936,38.945126,0.0,2198.9863,0.22391395,1.1017963,0.0,4,0.0,0.0,0.0,0.0,0.0,0,0,0,0,0,1,1,0,0,0
206933065,14.311602,14.60872,38.9608,38.945786,0.0,2204.4111,0.22392826,1.1017942,0.0,4,0.0,0.0,0.0,0.0,0.0,0,0,0,0,0,1,1,0,0,0
207435044,14.447809,14.603225,38.9484,38.943573,0.0,2209.841,0.22125177,1.1021811,0.0,4,0.0,0.0,0.0,0.0,0.0,0,0,0,0,0,1,1,0,0,0
207937848,14.389435,14.599121,38.9608,38.946136,0.0,2215.2803,0.22055034,1.1022825,0.0,4,0.0,0.0,0.0,0.0,0.0,0,0,0,0,0,1,1,0,0,0
208437194,14.496455,14.5964365,38.936,38.94443,0.0,2220.6826,0.21890716,1.1025203,0.0,4,0.0,0.0,0.0,0.0,0.0,0,0,0,0,0,1,1,0,0,0
208940392,14.603477,14.600797,38.9484,38.943214,0.0,2226.1265,0.22101621,1.1022152,0.0,4,0.0,0.0,0.0,0.0,0.0,0,0,0,0,0,1,1,0,0,0
209443605,14.545101,14.608491,38.9608,38.944855,0.0,2231.5708,0.22305946,1.1019198,0.0,4,0.0,0.0,0.0,0.0,0.0,0,0,0,0,0,1,1,0,0,0
209934760,14.68131,14.587181,38.936,38.944004,0.0,2236.8838,0.21439962,1.103173,0.0,4,0.0,0.0,0.0,0.0,0.0,0,0,0,0,0,1,1,0,0,0
210437909,14.486726,14.585357,38.9484,38.944466,0.0,2242.3262,0.2119339,1.1035303,0.0,4,0.0,0.0,0.0,0.0,0.0,0,0,0,0,0,1,1,0,0,0
210941137,14.720226,14.586151,38.973198,38.94468,0.0,2247.77,0.21192007,1.1035323,0.0,4,0.0,0.0,0.0,0.0,0.0,0,0,0,0,0,1,1,0,0,0
211444311,14.622934,14.589994,38.936,38.944542,0.0,2253.213,0.21321087,1.1033453,0.0,4,0.0,0.0,0.0,0.0,0.0,0,0,0,0,0,1,1,0,0,0
211935504,14.467268,14.589884,38.9608,38.943127,0.0,2258.5264,0.21404533,1.1032243,0.0,4,0.0,0.0,0.0,0.0,0.0,0,0,0,0,0,1,1,0,0,0
212438749,14.418622,14.567058,38.9484,38.94351,0.0,2263.9695,0.20553426,1.1044589,0.0,4,0.0,0.0,0.0,0.0,0.0,0,0,0,0,0,1,1,0,0,0
212941957,14.447809,14.567752,38.936,38.942787,0.0,2269.4128,0.20499592,1.104537,0.0,4,0.0,0.0,0.0,0.0,0.0,0,0,0,0,0,1,1,0,0,0
213445112,14.447809,14.5675955,38.9608,38.944138,0.0,2274.8562,0.20343427,1.1047639,0.0,4,0.0,0.0,0.0,0.0,0.0,0,0,0,0,0,1,1,0,0,0
213949125,14.486726,14.558428,38.936,38.943134,0.0,2280.3076,0.19922094,1.1053765,0.0,4,0.0,0.0,0.0,0.0,0.0,0,0,0,0,0,1,1,0,0,0
214451593,14.496455,14.5654545,38.9484,38.94247,0.0,2285.7434,0.20222072,1.1049403,0.0,4,0.0,0.0,0.0,0.0,0.0,0,0,0,0,0,1,1,0,0,0
214943410,14.7494135,14.569662,38.936,38.940693,0.0,2291.0627,0.20306759,1.1048172,0.0,4,0.0,0.0,0.0,0.0,0.0,0,0,0,0,0,1,1,0,0,0
215446634,14.622934,14.566764,38.936,38.940388,0.0,2296.5063,0.20222597,1.1049395,0.0,4,0.0,0.0,0.0,0.0,0.0,0,0,0,0,0,1,1,0,0,0
215946001,14.360247,14.570911,38.9484,38.941475,0.0,2301.9082,0.20447187,1.1046132,0.0,4,0.0,0.0,0.0,0.0,0.0,0,0,0,0,0,1,1,0,0,0
216449035,14.759143,14.56682,38.936,38.941906,0.0,2307.3496,0.20332126,1.1047803,0.0,4,0.0,0.0,0.0,0.0,0.0,0,0,0,0,0,1,1,0,0,0
216952322,14.545101,14.561722,38.9856,38.942913,0.0,2312.7932,0.2017415,1.1050099,0.0,4,0.0,0.0,0.0,0.0,0.0,0,0,0,0,0,1,1,0,0,0
217455558,14.369976,14.567675,38.936,38.943356,0.0,2318.2373,0.20395975,1.1046876,0.0,4,0.0,0.0,0.0,0.0,0.0,0,0,0,0,0,1,1,0,0,0
217958635,14.428351,14.569319,38.9484,38.9434,0.0,2323.6794,0.20492677,1.1045471,0.0,4,0.0,0.0,0.0,0.0,0.0,0,0,0,0,0,1,1,0,0,0
218461845,14.2337675,14.570711,38.936,38.943287,0.0,2329.1228,0.20581512,1.104418,0.0,4,0.0,0.0,0.0,0.0,0.0,0,0,0,0,0,1,1,0,0,0
218953186,14.622934,14.558271,38.936,38.940517,0.0,2334.4363,0.20019989,1.105234,0.0,4,0.0,0.0,0.0,0.0,0.0,0,0,0,0,0,1,1,0,0,0
219456330,14.447809,14.5653105,38.936,38.940067,0.0,2339.8792,0.2026742,1.1048744,0.0,4,0.0,0.0,0.0,0.0,0.0,0,0,0,0,0,1,1,0,0,0
219959574,14.389435,14.574206,38.911198,38.939762,0.0,2345.323,0.20697622,1.1042495,0.0,4,0.0,0.0,0.0,0.0,0.0,0,0,0,0,0,1,1,0,0,0
220463407,14.67158,14.569188,38.9484,38.942635,0.0,2350.7734,0.20423965,1.1046469,0.0,4,0.0,0.0,0.0,0.0,0.0,0,0,0,0,0,1,1,0,0,0
220965820,14.78833,14.575778,38.936,38.94105,0.0,2356.2075,0.20738105,1.1041907,0.0,4,0.0,0.0,0.0,0.0,0.0,0,0,0,0,0,1,1,0,0,0
221457874,14.525642,14.5622,38.9236,38.942535,0.0,2361.531,0.20113258,1.1050985,0.0,4,0.0,0.0,0.0,0.0,0.0,0,0,0,0,0,1,1,0,0,0
221961135,14.554831,14.568358,38.936,38.943127,0.0,2366.9749,0.20323448,1.104793,0.0,4,0.0,0.0,0.0,0.0,0.0,0,0,0,0,0,1,1,0,0,0
222464360,14.476997,14.5858,38.936,38.9434,0.0,2372.4192,0.21147613,1.1035967,0.0,4,0.0,0.0,0.0,0.0,0.0,0,0,0,0,0,1,1,0,0,0
222967485,14.642393,14.580235,38.936,38.94282,0.0,2377.8618,0.20913438,1.1039363,0.0,4,0.0,0.0,0.0,0.0,0.0,0,0,0,0,0,1,1,0,0,0
223470817,14.729956,14.584692,38.9608,38.94245,0.0,2383.3054,0.21167068,1.1035684,0.0,4,0.0,0.0,0.0,0.0,0.0,0,0,0,0,0,1,1,0,0,0
223961798,14.603477,14.579824,38.936,38.944237,0.0,2388.6172,0.21031646,1.1037649,0.0,4,0.0,0.0,0.0,0.0,0.0,0,0,0,0,0,1,1,0,0,0
224465044,14.691039,14.581288,38.936,38.943916,0.0,2394.062,0.20930652,1.1039114,0.0,4,0.0,0.0,0.0,0.0,0.0,0,0,0,0,0,1,1,0,0,0
224976311,14.593747,14.584561,38.936,38.94352,0.0,2399.593,0.20988588,1.1038274,0.0,4,0.0,0.0,0.0,0.0,0.0,0,0,0,0,0,1,1,0,0,0
225475552,14.506185,14.584224,38.9236,38.943424,0.0,2404.9937,0.20900087,1.1039557,0.0,4,0.0,0.0,0.0,0.0,0.0,0,0,0,0,0,1,1,0,0,0
225966666,14.652122,14.594452,38.936,38.944084,0.0,2410.3064,0.21320514,1.1033461,0.0,4,0.0,0.0,0.0,0.0,0.0,0,0,0,0,0,1,1,0,0,0
226469933,14.720226,14.607555,38.9484,38.94341,0.0,2415.7505,0.2186449,1.1025583,0.0,4,0.0,0.0,0.0,0.0,0.0,0,0,0,0,0,1,1,0,0,0
226973186,14.7007675,14.602406,38.936,38.94297,0.0,2421.194,0.21623306,1.1029074,0.0,4,0.0,0.0,0.0,0.0,0.0,0,0,0,0,0,1,1,0,0,0
227474851,14.710497,14.599653,38.9608,38.942085,0.0,2426.62,0.21511488,1.1030693,0.0,4,0.0,0.0,0.0,0.0,0.0,0,0,0,0,0,1,1,0,0,0
227976313,14.720226,14.612168,38.9608,38.94083,0.0,2432.044,0.22090559,1.1022311,0.0,4,0.0,0.0,0.0,0.0,0.0,0,0,0,0,0,1,1,0,0,0
228479622,14.574288,14.624679,38.936,38.94248,0.0,2437.4883,0.22572546,1.1015345,0.0,4,0.0,0.0,0.0,0.0,0.0,0,0,0,0,0,1,1,0,0,0
228982799,14.710497,14.639447,38.936,38.9438,0.0,2442.931,0.22969942,1.1009607,0.0,4,0.0,0.0,0.0,0.0,0.0,0,0,0,0,0,1,1,0,0,0
229473921,14.846705,14.647721,38.9484,38.94473,0.0,2448.2441,0.23381548,1.1003672,0.0,4,0.0,0.0,0.0,0.0,0.0,0,0,0,0,0,1,1,0,0,0
229977381,14.817518,14.673487,38.936,38.944798,0.0,2453.6907,0.2433136,1.0989997,0.0,4,0.0,0.0,0.0,0.0,0.0,0,0,0,0,0,1,1,0,0,0
230480292,14.7007675,14.706056,38.936,38.94101,0.0,2459.131,0.25610667,1.0971633,0.0,4,0.0,0.0,0.0,0.0,0.0,0,0,0,0,0,1,1,0,0,0
230983572,14.759143,14.725323,38.936,38.94326,0.0,2464.5762,0.2602499,1.0965699,0.0,4,0.0,0.0,0.0,0.0,0.0,0,0,0,0,0,1,1,0,0,0
231486723,15.051018,14.802975,38.936,38.945988,0.0,2470.02,0.28603154,1.0928917,0.0,4,0.0,0.0,0.0,0.0,0.0,0,0,0,0,0,1,1,0,0,0
231977913,15.313705,14.907886,38.936,38.948074,0.0,2475.334,0.30440265,1.0902857,0.0,4,0.0,0.0,0.0,0.0,0.0,0,0,0,0,0,1,1,0,0,0
232481192,15.294247,15.040826,38.9484,38.948517,0.0,2480.7788,0.28462917,1.0930911,0.0,4,0.0,0.0,0.0,0.0,0.0,0,0,0,0,0,1,1,0,0,0
232984349,15.294247,15.12907,38.9484,38.947445,0.0,2486.2224,0.27220517,1.0948613,0.0,4,0.0,0.0,0.0,0.0,0.0,0,0,0,0,0,1,1,0,0,0
233487517,15.313705,15.191024,38.9484,38.946987,0.0,2491.6665,0.2661069,1.0957322,0.0,4,0.0,0.0,0.0,0.0,0.0,0,0,0,0,0,1,1,0,0,0
233979575,15.323434,15.23305,38.936,38.9506,0.0,2496.991,0.26327926,1.0961365,0.0,4,0.0,0.0,0.0,0.0,0.0,0,0,0,0,0,1,1,0,0,0
234482745,15.323434,15.264187,38.9608,38.94846,0.0,2502.4353,0.26274806,1.0962125,0.0,4,0.0,0.0,0.0,0.0,0.0,0,0,0,0,0,1,1,0,0,0
234985902,15.362351,15.290707,38.936,38.94944,0.0,2507.879,0.2654522,1.0958258,0.0,4,0.0,0.0,0.0,0.0,0.0,0,0,0,0,0,1,1,0,0,0
235489059,15.342893,15.311842,38.9608,38.94923,0.0,2513.3223,0.26909906,1.0953046,0.0,4,0.0,0.0,0.0,0.0,0.0,0,0,0,0,0,1,1,0,0,0
235980270,15.342893,15.323851,38.9608,38.949177,0.0,2518.6367,0.27065307,1.0950828,0.0,4,0.0,0.0,0.0,0.0,0.0,0,0,0,0,0,1,1,0,0,0
