timestamp,x,y,z,r,flaps,aux1,aux2,aux3,aux4,aux5,aux6,mode_switch,return_switch,rattitude_switch,posctl_switch,loiter_switch,acro_switch,offboard_switch,kill_switch,arm_switch,transition_switch,gear_switch,mode_slot,data_source,stab_switch,man_switch
29668529,0.0,0.0,2.3737574e-22,0.0,0.0,0.0,0.0,0.0,0.0,0.0,0.0,0,0,0,0,0,0,0,3,1,0,0,0,1,0,0
29896757,0.0,0.0,0.0,0.0,0.0,0.0,0.0,0.0,0.0,0.0,0.0,0,0,0,0,0,0,0,3,1,0,0,0,1,0,0
30091753,0.0,0.0,0.0,0.0,0.0,0.0,0.0,0.0,0.0,0.0,0.0,0,0,0,0,0,0,0,3,1,0,0,0,1,0,0
30291940,0.0,0.0,4.3573657e-32,0.0,0.0,0.0,0.0,0.0,0.0,0.0,0.0,0,0,0,0,0,0,0,3,1,0,0,0,1,0,0
30491570,0.0,0.0,0.0,0.0,0.0,0.0,0.0,0.0,0.0,0.0,0.0,0,0,0,0,0,0,0,3,1,0,0,0,1,0,0
30687119,0.0,0.0,6.128328e-39,0.0,0.0,0.0,0.0,0.0,0.0,0.0,0.0,0,0,0,0,0,0,0,3,1,0,0,0,1,0,0
30886978,0.0,0.0,6.573e-42,0.0,0.0,0.0,0.0,0.0,0.0,0.0,0.0,0,0,0,0,0,0,0,3,1,0,0,0,1,0,0
31106730,0.0,0.0,0.0,0.0,0.0,0.0,0.0,0.0,0.0,0.0,0.0,0,0,0,0,0,0,0,3,1,0,0,0,1,0,0
31301941,0.0,0.0,0.0,0.0,0.0,0.0,0.0,0.0,0.0,0.0,0.0,0,0,0,0,0,0,0,3,1,0,0,0,1,0,0
31509974,0.0,0.0,0.0,0.0,0.0,0.0,0.0,0.0,0.0,0.0,0.0,0,0,0,0,0,0,0,3,1,0,0,0,1,0,0
31701376,0.0,0.0,0.0,0.0,0.0,0.0,0.0,0.0,0.0,0.0,0.0,0,0,0,0,0,0,0,3,1,0,0,0,1,0,0
31921172,0.0,0.0,0.0,0.0,0.0,0.0,0.0,0.0,0.0,0.0,0.0,0,0,0,0,0,0,0,3,1,0,0,0,1,0,0
32120549,0.0,0.0,0.0,0.0,0.0,0.0,0.0,0.0,0.0,0.0,0.0,0,0,0,0,0,0,0,3,1,0,0,0,1,0,0
32320424,0.0,0.0,0.0,0.0,0.0,0.0,0.0,0.0,0.0,0.0,0.0,0,0,0,0,0,0,0,3,1,0,0,0,1,0,0
32524365,0.0,0.0,0.0,0.0,0.0,0.0,0.0,0.0,0.0,0.0,0.0,0,0,0,0,0,0,0,3,1,0,0,0,1,0,0
32724390,0.0,0.0,0.0,0.0,0.0,0.0,0.0,0.0,0.0,0.0,0.0,0,0,0,0,0,0,0,3,1,0,0,0,1,0,0
32927744,0.0,0.0,0.0,0.0,0.0,0.0,0.0,0.0,0.0,0.0,0.0,0,0,0,0,0,0,0,3,1,0,0,0,1,0,0
33127780,0.0,0.0,0.0,0.0,0.0,0.0,0.0,0.0,0.0,0.0,0.0,0,0,0,0,0,0,0,3,1,0,0,0,1,0,0
33330948,0.0,0.0,0.0,0.0,0.0,0.0,0.0,0.0,0.0,0.0,0.0,0,0,0,0,0,0,0,3,1,0,0,0,1,0,0
33530764,0.0,0.0,0.0,0.0,0.0,0.0,0.0,0.0,0.0,0.0,0.0,0,0,0,0,0,0,0,3,1,0,0,0,1,0,0
33726992,0.0,0.0,0.0,0.0,0.0,0.0,0.0,0.0,0.0,0.0,0.0,0,0,0,0,0,0,0,3,1,0,0,0,1,0,0
33930188,0.0,0.0,0.0,0.0,0.0,0.0,0.0,0.0,0.0,0.0,0.0,0,0,0,0,0,0,0,3,1,0,0,0,1,0,0
34134086,0.0,0.0,0.0,0.0,0.0,0.0,0.0,0.0,0.0,0.0,0.0,0,0,0,0,0,0,0,3,1,0,0,0,1,0,0
34353546,0.0,0.0,0.0,0.0,0.0,0.0,0.0,0.0,0.0,0.0,0.0,0,0,0,0,0,0,0,3,1,0,0,0,1,0,0
34553349,0.0,0.0,0.0,0.0,0.0,0.0,0.0,0.0,0.0,0.0,0.0,0,0,0,0,0,0,0,3,1,0,0,0,1,0,0
34749516,0.0,0.0,0.0,0.0,0.0,0.0,0.0,0.0,0.0,0.0,0.0,0,0,0,0,0,0,0,3,1,0,0,0,1,0,0
34941389,0.0,0.0,0.0,0.0,0.0,0.0,0.0,0.0,0.0,0.0,0.0,0,0,0,0,0,0,0,3,1,0,0,0,1,0,0
35140576,0.0,0.0,0.0,0.0,0.0,0.0,0.0,0.0,0.0,0.0,0.0,0,0,0,0,0,0,0,3,1,0,0,0,1,0,0
35348583,0.0,0.0,0.0,0.0,0.0,0.0,0.0,0.0,0.0,0.0,0.0,0,0,0,0,0,0,0,3,1,0,0,0,1,0,0
35543787,0.0,0.0,0.0,0.0,0.0,0.0,0.0,0.0,0.0,0.0,0.0,0,0,0,0,0,0,0,3,1,0,0,0,1,0,0
35763564,0.0,0.0,0.0,0.0,0.0,0.0,0.0,0.0,0.0,0.0,0.0,0,0,0,0,0,0,0,3,1,0,0,0,1,0,0
35963576,0.0,0.0,0.0,0.0,0.0,0.0,0.0,0.0,0.0,0.0,0.0,0,0,0,0,0,0,0,3,1,0,0,0,1,0,0
36162988,0.0,0.0,0.0,0.0,0.0,0.0,0.0,0.0,0.0,0.0,0.0,0,0,0,0,0,0,0,3,1,0,0,0,1,0,0
36367119,0.0,0.0,0.0,0.0,0.0,0.0,0.0,0.0,0.0,0.0,0.0,0,0,0,0,0,0,0,3,1,0,0,0,1,0,0
36569993,0.0,0.0,0.0,0.0,0.0,0.0,0.0,0.0,0.0,0.0,0.0,0,0,0,0,0,0,0,3,1,0,0,0,1,0,0
36774151,0.0,0.0,0.0,0.0,0.0,0.0,0.0,0.0,0.0,0.0,0.0,0,0,0,0,0,0,0,3,1,0,0,0,1,0,0
36970187,0.0,0.0,0.0,0.0,0.0,0.0,0.0,0.0,0.0,0.0,0.0,0,0,0,0,0,0,0,3,1,0,0,0,1,0,0
37173226,0.0,0.0,0.0,0.0,0.0,0.0,0.0,0.0,0.0,0.0,0.0,0,0,0,0,0,0,0,3,1,0,0,0,1,0,0
37385152,0.0,0.0,0.0,0.0,0.0,0.0,0.0,0.0,0.0,0.0,0.0,0,0,0,0,0,0,0,3,1,0,0,0,1,0,0
37589545,0.0,0.0,0.0,0.0,0.0,0.0,0.0,0.0,0.0,0.0,0.0,0,0,0,0,0,0,0,3,1,0,0,0,1,0,0
37772540,0.0,0.0,0.0,0.0,0.0,0.0,0.0,0.0,0.0,0.0,0.0,0,0,0,0,0,0,0,3,1,0,0,0,1,0,0
37996540,0.0,0.0,0.0,0.0,0.0,0.0,0.0,0.0,0.0,0.0,0.0,0,0,0,0,0,0,0,3,1,0,0,0,1,0,0
38195758,0.0,0.0,0.0,0.0,0.0,0.0,0.0,0.0,0.0,0.0,0.0,0,0,0,0,0,0,0,3,1,0,0,0,1,0,0
38379914,0.0,0.0,0.0,0.0,0.0,0.0,0.0,0.0,0.0,0.0,0.0,0,0,0,0,0,0,0,3,1,0,0,0,1,0,0
38579576,0.0,0.0,0.0,0.0,0.0,0.0,0.0,0.0,0.0,0.0,0.0,0,0,0,0,0,0,0,3,1,0,0,0,1,0,0
38790933,0.0,0.0,0.0,0.0,0.0,0.0,0.0,0.0,0.0,0.0,0.0,0,0,0,0,0,0,0,3,1,0,0,0,1,0,0
38991119,0.0,0.0,0.0,0.0,0.0,0.0,0.0,0.0,0.0,0.0,0.0,0,0,0,0,0,0,0,3,1,0,0,0,1,0,0
39194750,0.0,0.0,0.0,0.0,0.0,0.0,0.0,0.0,0.0,0.0,0.0,0,0,0,0,0,0,0,3,1,0,0,0,1,0,0
39406196,0.0,0.0,0.0,0.0,0.0,0.0,0.0,0.0,0.0,0.0,0.0,0,0,0,0,0,0,0,3,1,0,0,0,1,0,0
39605929,0.0,0.0,0.0,0.0,0.0,0.0,0.0,0.0,0.0,0.0,0.0,0,0,0,0,0,0,0,3,1,0,0,0,1,0,0
39805967,0.0,0.0,0.0,0.0,0.0,0.0,0.0,0.0,0.0,0.0,0.0,0,0,0,0,0,0,0,3,1,0,0,0,1,0,0
40009167,0.0,0.0,0.0,0.0,0.0,0.0,0.0,0.0,0.0,0.0,0.0,0,0,0,0,0,0,0,3,1,0,0,0,1,0,0
40209142,0.0,0.0,0.0,0.0,0.0,0.0,0.0,0.0,0.0,0.0,0.0,0,0,0,0,0,0,0,3,1,0,0,0,1,0,0
40400554,0.0,0.0,0.0,0.0,0.0,0.0,0.0,0.0,0.0,0.0,0.0,0,0,0,0,0,0,0,3,1,0,0,0,1,0,0
40608714,0.0,0.0,0.0,0.0,0.0,0.0,0.0,0.0,0.0,0.0,0.0,0,0,0,0,0,0,0,3,1,0,0,0,1,0,0
40808519,0.0,0.0,0.0,0.0,0.0,0.0,0.0,0.0,0.0,0.0,0.0,0,0,0,0,0,0,0,3,1,0,0,0,1,0,0
41019534,0.0,0.0,0.0,0.0,0.0,0.0,0.0,0.0,0.0,0.0,0.0,0,0,0,0,0,0,0,3,1,0,0,0,1,0,0
41219916,0.0,0.0,0.0,0.0,0.0,0.0,0.0,0.0,0.0,0.0,0.0,0,0,0,0,0,0,0,3,1,0,0,0,1,0,0
41411618,0.0,0.0,0.0,0.0,0.0,0.0,0.0,0.0,0.0,0.0,0.0,0,0,0,0,0,0,0,3,1,0,0,0,1,0,0
41630742,0.0,0.0,0.0,0.0,0.0,0.0,0.0,0.0,0.0,0.0,0.0,0,0,0,0,0,0,0,3,1,0,0,0,1,0,0
41826749,0.0,0.0,0.0,0.0,0.0,0.0,0.0,0.0,0.0,0.0,0.0,0,0,0,0,0,0,0,3,1,0,0,0,1,0,0
42034772,0.0,0.0,0.0,0.0,0.0,0.0,0.0,0.0,0.0,0.0,0.0,0,0,0,0,0,0,0,3,1,0,0,0,1,0,0
42238131,0.0,0.0,0.0,0.0,0.0,0.0,0.0,0.0,0.0,0.0,0.0,0,0,0,0,0,0,0,3,1,0,0,0,1,0,0
42434222,0.0,0.0,0.0,0.0,0.0,0.0,0.0,0.0,0.0,0.0,0.0,0,0,0,0,0,0,0,3,1,0,0,0,1,0,0
42650210,0.0,0.0,0.0,0.0,0.0,0.0,0.0,0.0,0.0,0.0,0.0,0,0,0,0,0,0,0,3,1,0,0,0,1,0,0
42833151,0.0,0.0,0.0,0.0,0.0,0.0,0.0,0.0,0.0,0.0,0.0,0,0,0,0,0,0,0,3,1,0,0,0,1,0,0
43053560,0.0,0.0,0.0,0.0,0.0,0.0,0.0,0.0,0.0,0.0,0.0,0,0,0,0,0,0,0,3,1,0,0,0,1,0,0
43256568,0.0,0.0,0.0,0.0,0.0,0.0,0.0,0.0,0.0,0.0,0.0,0,0,0,0,0,0,0,3,1,0,0,0,1,0,0
43460527,0.0,0.0,0.0,0.0,0.0,0.0,0.0,0.0,0.0,0.0,0.0,0,0,0,0,0,0,0,3,1,0,0,0,1,0,0
43660601,0.0,0.0,0.0,0.0,0.0,0.0,0.0,0.0,0.0,0.0,0.0,0,0,0,0,0,0,0,3,1,0,0,0,1,0,0
43863564,0.0,0.0,0.0,0.0,0.0,0.0,0.0,0.0,0.0,0.0,0.0,0,0,0,0,0,0,0,3,1,0,0,0,1,0,0
44063559,0.0,0.0,0.0,0.0,0.0,0.0,0.0,0.0,0.0,0.0,0.0,0,0,0,0,0,0,0,3,1,0,0,0,1,0,0
44254816,0.0,0.0,0.0,0.0,0.0,0.0,0.0,0.0,0.0,0.0,0.0,0,0,0,0,0,0,0,3,1,0,0,0,1,0,0
44462772,0.0,0.0,0.0,0.0,0.0,0.0,0.0,0.0,0.0,0.0,0.0,0,0,0,0,0,0,0,3,1,0,0,0,1,0,0
44658758,0.0,0.0,0.0,0.0,0.0,0.0,0.0,0.0,0.0,0.0,0.0,0,0,0,0,0,0,0,3,1,0,0,0,1,0,0
44873973,0.0,0.0,0.0,0.0,0.0,0.0,0.0,0.0,0.0,0.0,0.0,0,0,0,0,0,0,0,3,1,0,0,0,1,0,0
45078144,0.0,0.0,0.0,0.0,0.0,0.0,0.0,0.0,0.0,0.0,0.0,0,0,0,0,0,0,0,3,1,0,0,0,1,0,0
45277948,0.0,0.0,0.0,0.0,0.0,0.0,0.0,0.0,0.0,0.0,0.0,0,0,0,0,0,0,0,3,1,0,0,0,1,0,0
45477357,0.0,0.0,0.0,0.0,0.0,0.0,0.0,0.0,0.0,0.0,0.0,0,0,0,0,0,0,0,3,1,0,0,0,1,0,0
45673180,0.0,0.0,0.0,0.0,0.0,0.0,0.0,0.0,0.0,0.0,0.0,0,0,0,0,0,0,0,3,1,0,0,0,1,0,0
45896336,0.0,0.0,0.0,0.0,0.0,0.0,0.0,0.0,0.0,0.0,0.0,0,0,0,0,0,0,0,3,1,0,0,0,1,0,0
46072716,0.0,0.0,0.0,0.0,0.0,0.0,0.0,0.0,0.0,0.0,0.0,0,0,0,0,0,0,0,3,1,0,0,0,1,0,0
46292385,0.0,0.0,0.0,0.0,0.0,0.0,0.0,0.0,0.0,0.0,0.0,0,0,0,0,0,0,0,3,1,0,0,0,1,0,0
46479569,0.0,0.0,0.0,0.0,0.0,0.0,0.0,0.0,0.0,0.0,0.0,0,0,0,0,0,0,0,3,1,0,0,0,1,0,0
46695609,0.0,0.0,0.0,0.0,0.0,0.0,0.0,0.0,0.0,0.0,0.0,0,0,0,0,0,0,0,3,1,0,0,0,1,0,0
46899937,0.0,0.0,0.0,0.0,0.0,0.0,0.0,0.0,0.0,0.0,0.0,0,0,0,0,0,0,0,3,1,0,0,0,1,0,0
47098788,0.0,0.0,0.0,0.0,0.0,0.0,0.0,0.0,0.0,0.0,0.0,0,0,0,0,0,0,0,3,1,0,0,0,1,0,0
47302757,0.0,0.0,0.0,0.0,0.0,0.0,0.0,0.0,0.0,0.0,0.0,0,0,0,0,0,0,0,3,1,0,0,0,1,0,0
47507145,0.0,0.0,0.0,0.0,0.0,0.0,0.0,0.0,0.0,0.0,0.0,0,0,0,0,0,0,0,3,1,0,0,0,1,0,0
47713968,0.0,0.0,0.0,0.0,0.0,0.0,0.0,0.0,0.0,0.0,0.0,0,0,0,0,0,0,0,3,1,0,0,0,1,0,0
47909968,0.0,0.0,0.0,0.0,0.0,0.0,0.0,0.0,0.0,0.0,0.0,0,0,0,0,0,0,0,3,1,0,0,0,1,0,0
48108549,0.0,0.0,0.0,0.0,0.0,0.0,0.0,0.0,0.0,0.0,0.0,0,0,0,0,0,0,0,3,1,0,0,0,1,0,0
48309296,0.0,0.0,0.0,0.0,0.0,0.0,0.0,0.0,0.0,0.0,0.0,0,0,0,0,0,0,0,3,1,0,0,0,1,0,0
48517354,0.0,0.0,0.0,0.0,0.0,0.0,0.0,0.0,0.0,0.0,0.0,0,0,0,0,0,0,0,3,1,0,0,0,1,0,0
48724338,0.0,0.0,0.0,0.0,0.0,0.0,0.0,0.0,0.0,0.0,0.0,0,0,0,0,0,0,0,3,1,0,0,0,1,0,0
48928575,0.0,0.0,0.0,0.0,0.0,0.0,0.0,0.0,0.0,0.0,0.0,0,0,0,0,0,0,0,3,1,0,0,0,1,0,0
49128335,0.0,0.0,0.0,0.0,0.0,0.0,0.0,0.0,0.0,0.0,0.0,0,0,0,0,0,0,0,3,1,0,0,0,1,0,0
50554152,0.0,0.0,0.0,0.0,0.0,0.0,0.0,0.0,0.0,0.0,0.0,0,0,0,0,0,0,0,3,1,0,0,0,1,0,0
50758130,0.0,0.0,0.0,0.0,0.0,0.0,0.0,0.0,0.0,0.0,0.0,0,0,0,0,0,0,0,3,1,0,0,0,1,0,0
50961180,0.0,0.0,0.0,0.0,0.0,0.0,0.0,0.0,0.0,0.0,0.0,0,0,0,0,0,0,0,3,1,0,0,0,1,0,0
51153171,0.0,0.0,0.0,0.0,0.0,0.0,0.0,0.0,0.0,0.0,0.0,0,0,0,0,0,0,0,3,1,0,0,0,1,0,0
51356333,0.0,0.0,0.0,0.0,0.0,0.0,0.0,0.0,0.0,0.0,0.0,0,0,0,0,0,0,0,3,1,0,0,0,1,0,0
51556380,0.0,0.0,0.0,0.0,0.0,0.0,0.0,0.0,0.0,0.0,0.0,0,0,0,0,0,0,0,3,1,0,0,0,1,0,0
51768624,0.0,0.0,0.0,0.0,0.0,0.0,0.0,0.0,0.0,0.0,0.0,0,0,0,0,0,0,0,3,1,0,0,0,1,0,0
51975750,0.0,0.0,0.0,0.0,0.0,0.0,0.0,0.0,0.0,0.0,0.0,0,0,0,0,0,0,0,3,1,0,0,0,1,0,0
52171753,0.0,0.0,0.0,0.0,0.0,0.0,0.0,0.0,0.0,0.0,0.0,0,0,0,0,0,0,0,3,1,0,0,0,1,0,0
52367574,0.0,0.0,0.0,0.0,0.0,0.0,0.0,0.0,0.0,0.0,0.0,0,0,0,0,0,0,0,3,1,0,0,0,1,0,0
52566946,0.0,0.0,0.0,0.0,0.0,0.0,0.0,0.0,0.0,0.0,0.0,0,0,0,0,0,0,0,3,1,0,0,0,1,0,0
52778749,0.0,0.0,0.0,0.0,0.0,0.0,0.0,0.0,0.0,0.0,0.0,0,0,0,0,0,0,0,3,1,0,0,0,1,0,0
52966972,0.0,0.0,0.0,0.0,0.0,0.0,0.0,0.0,0.0,0.0,0.0,0,0,0,0,0,0,0,3,1,0,0,0,1,0,0
53186313,0.0,0.0,0.0,0.0,0.0,0.0,0.0,0.0,0.0,0.0,0.0,0,0,0,0,0,0,0,3,1,0,0,0,1,0,0
53381985,0.0,0.0,0.0,0.0,0.0,0.0,0.0,0.0,0.0,0.0,0.0,0,0,0,0,0,0,0,3,1,0,0,0,1,0,0
53597143,0.0,0.0,0.0,0.0,0.0,0.0,0.0,0.0,0.0,0.0,0.0,0,0,0,0,0,0,0,3,1,0,0,0,1,0,0
53777142,0.0,0.0,0.0,0.0,0.0,0.0,0.0,0.0,0.0,0.0,0.0,0,0,0,0,0,0,0,3,1,0,0,0,1,0,0
53997202,0.0,0.0,0.0,0.0,0.0,0.0,0.0,0.0,0.0,0.0,0.0,0,0,0,0,0,0,0,3,1,0,0,0,1,0,0
54204574,0.0,0.0,0.0,0.0,0.0,0.0,0.0,0.0,0.0,0.0,0.0,0,0,0,0,0,0,0,3,1,0,0,0,1,0,0
54408340,0.0,0.0,0.0,0.0,0.0,0.0,0.0,0.0,0.0,0.0,0.0,0,0,0,0,0,0,0,3,1,0,0,0,1,0,0
54608427,0.0,0.0,0.0,0.0,0.0,0.0,0.0,0.0,0.0,0.0,0.0,0,0,0,0,0,0,0,3,1,0,0,0,1,0,0
54807538,0.0,0.0,0.0,0.0,0.0,0.0,0.0,0.0,0.0,0.0,0.0,0,0,0,0,0,0,0,3,1,0,0,0,1,0,0
55007557,0.0,0.0,0.0,0.0,0.0,0.0,0.0,0.0,0.0,0.0,0.0,0,0,0,0,0,0,0,3,1,0,0,0,1,0,0
55214957,0.0,0.0,0.0,0.0,0.0,0.0,0.0,0.0,0.0,0.0,0.0,0,0,0,0,0,0,0,3,1,0,0,0,1,0,0
55410755,0.0,0.0,0.0,0.0,0.0,0.0,0.0,0.0,0.0,0.0,0.0,0,0,0,0,0,0,0,3,1,0,0,0,1,0,0
55614768,0.0,0.0,0.0,0.003961275,0.0,0.0,0.0,0.0,0.0,0.0,0.0,0,0,0,0,0,0,0,3,1,0,0,0,1,0,0
55814008,0.0,0.0,0.0,-2.5014374e-06,0.0,0.0,0.0,0.0,0.0,0.0,0.0,0,0,0,0,0,0,0,3,1,0,0,0,1,0,0
56025933,0.0,0.0,0.0,-6.0474936e-10,0.0,0.0,0.0,0.0,0.0,0.0,0.0,0,0,0,0,0,0,0,3,1,0,0,0,1,0,0
56221133,0.0,0.0,0.0,5.16866e-13,0.0,0.0,0.0,0.0,0.0,0.0,0.0,0,0,0,0,0,0,0,3,1,0,0,5,1,0,0
56421132,0.0,0.0,0.0,-1.9501386e-16,0.0,0.0,0.0,0.0,0.0,0.0,0.0,0,0,0,0,0,0,0,3,1,0,0,5,1,0,0
56617158,0.0,0.0,0.0,-4.8619466e-20,0.0,0.0,0.0,0.0,0.0,0.0,0.0,0,0,0,0,0,0,0,3,1,0,0,5,1,0,0
56816356,0.0,0.0,0.0,1.2496848e-22,0.0,0.0,0.0,0.0,0.0,0.0,0.0,0,0,0,0,0,0,0,3,1,0,0,5,1,0,0
57028373,0.0,0.0,0.0,-8.846177e-26,0.0,0.0,0.0,0.0,0.0,0.0,0.0,0,0,0,0,0,0,0,3,1,0,0,5,1,0,0
57232590,0.0,0.0,0.0,2.4290788e-29,0.0,0.0,0.0,0.0,0.0,0.0,0.0,0,0,0,0,0,0,0,3,1,0,0,3,1,0,0
57428362,0.0,0.0,0.0,1.6249142e-32,0.0,0.0,0.0,0.0,0.0,0.0,0.0,0,0,0,0,0,0,0,3,1,0,0,3,1,0,0
57643757,0.0,0.0,0.0,-7.679606e-36,0.0,0.0,0.0,0.0,0.0,0.0,0.0,0,0,0,0,0,0,0,3,1,0,0,3,1,0,0
57847534,0.0,0.0,0.0,-6.95571e-40,0.0,0.0,0.0,0.0,0.0,0.0,0.0,0,0,0,0,0,0,0,3,1,0,0,3,1,0,0
58046989,0.0,0.0,0.0,3.858e-42,0.0,0.0,0.0,0.0,0.0,0.0,0.0,0,0,0,0,0,0,0,3,1,0,0,3,1,0,0
58242793,0.0,0.0,0.0,-3e-45,0.0,0.0,0.0,0.0,0.0,0.0,0.0,0,0,0,0,0,0,0,3,1,0,0,3,1,0,0
58441940,0.0,0.0,0.0,0.0,0.0,0.0,0.0,0.0,0.0,0.0,0.0,0,0,0,0,0,0,0,3,1,0,0,3,1,0,0
58646233,0.0,0.0,0.0,0.0,0.0,0.0,0.0,0.0,0.0,0.0,0.0,0,0,0,0,0,0,0,3,1,0,0,3,1,0,0
58857951,0.0,0.0,0.0,0.0,0.0,0.0,0.0,0.0,0.0,0.0,0.0,0,0,0,0,0,0,0,3,1,0,0,3,1,0,0
59057360,0.0,0.0,0.0,0.0,0.0,0.0,0.0,0.0,0.0,0.0,0.0,0,0,0,0,0,0,0,3,1,0,0,3,1,0,0
59257208,0.0,0.0,0.0,0.0,0.0,0.0,0.0,0.0,0.0,0.0,0.0,0,0,0,0,0,0,0,3,1,0,0,3,1,0,0
59452364,0.0,0.0,0.0,0.0,0.0,0.0,0.0,0.0,0.0,0.0,0.0,0,0,0,0,0,0,0,3,1,0,0,3,1,0,0
59656458,0.0,0.0,0.05675769,0.0,0.0,0.0,0.0,0.0,0.0,0.0,0.0,0,0,0,0,0,0,0,3,1,0,0,3,1,0,0
59856552,0.0,0.0,0.30330977,0.0,0.0,0.0,0.0,0.0,0.0,0.0,0.0,0,0,0,0,0,0,0,3,1,0,0,3,1,0,0
60071750,0.0,0.0,0.42946857,0.0,0.0,0.0,0.0,0.0,0.0,0.0,0.0,0,0,0,0,0,0,0,3,1,0,0,3,1,0,0
60259747,0.0,0.0,0.49174386,0.0,0.0,0.0,0.0,0.0,0.0,0.0,0.0,0,0,0,0,0,0,0,3,1,0,0,3,1,0,0
60483607,0.0,0.0,0.49240488,0.0,0.0,0.0,0.0,0.0,0.0,0.0,0.0,0,0,0,0,0,0,0,3,1,0,0,3,1,0,0
60670929,0.0,0.0,0.4923721,0.0,0.0,0.0,0.0,0.0,0.0,0.0,0.0,0,0,0,0,0,0,0,3,1,0,0,3,1,0,0
60890731,0.0,0.0,0.5198462,0.0,0.0,0.0,0.0,0.0,0.0,0.0,0.0,0,0,0,0,0,0,0,3,1,0,0,3,1,0,0
61082834,0.0,0.0,0.5587572,0.0,0.0,0.0,0.0,0.0,0.0,0.0,0.0,0,0,0,0,0,0,0,3,1,0,0,3,1,0,0
61274142,0.0,0.0,0.5730301,0.0,0.0,0.0,0.0,0.0,0.0,0.0,0.0,0,0,0,0,0,0,0,3,1,0,0,3,1,0,0
61482190,0.0,0.0,0.60783505,0.0,0.0,0.0,0.0,0.0,0.0,0.0,0.0,0,0,0,0,0,0,0,3,1,0,0,3,1,0,0
61681191,0.0,0.0,0.62778056,0.0,0.0,0.0,0.0,0.0,0.0,0.0,0.0,0,0,0,0,0,0,0,3,1,0,0,3,1,0,0
61881166,0.0,0.0,0.63996935,0.0,0.0,0.0,0.0,0.0,0.0,0.0,0.0,0,0,0,0,0,0,0,3,1,0,0,3,1,0,0
62105185,0.0,0.0,0.65896577,0.0,0.0,0.0,0.0,0.0,0.0,0.0,0.0,0,0,0,0,0,0,0,3,1,0,0,3,1,0,0
62309972,0.0,0.0,0.6318339,0.0,0.0,0.0,0.0,0.0,0.0,0.0,0.0,0,0,0,0,0,0,0,3,1,0,0,3,1,0,0
62488573,0.0,0.0,0.57108927,0.0,0.0,0.0,0.0,0.0,0.0,0.0,0.0,0,0,0,0,0,0,0,3,1,0,0,3,1,0,0
62712350,0.0,0.0,0.4991631,0.0,0.0,0.0,0.0,0.0,0.0,0.0,0.0,0,0,0,0,0,0,0,3,1,0,0,3,1,0,0
62915572,0.0,0.0,0.49054146,0.0,0.0,0.0,0.0,0.0,0.0,0.0,0.0,0,0,0,0,0,0,0,3,1,0,0,3,1,0,0
63107608,0.0,0.0,0.3457717,-0.0031998346,0.0,0.0,0.0,0.0,0.0,0.0,0.0,0,0,0,0,0,0,0,3,1,0,0,3,1,0,0
63310925,0.0,0.0,0.3153641,1.6232307e-06,0.0,0.0,0.0,0.0,0.0,0.0,0.0,0,0,0,0,0,0,0,3,1,0,0,3,1,0,0
63515171,0.0,0.0,0.29599014,-6.1926304e-11,0.0,0.0,0.0,0.0,0.0,0.0,0.0,0,0,0,0,0,0,0,3,1,0,0,3,1,0,0
63710947,0.0,0.0,0.32316044,-6.3304743e-13,0.0,0.0,0.0,0.0,0.0,0.0,0.0,0,0,0,0,0,0,0,3,1,0,0,3,1,0,0
63929967,0.0,0.0,0.3113988,9.39567e-17,0.0,0.0,0.0,0.0,0.0,0.0,0.0,0,0,0,0,0,0,0,3,1,0,0,3,1,0,0
64126313,0.0,0.0,0.2894819,7.416238e-20,0.0,0.0,0.0,0.0,0.0,0.0,0.0,0,0,0,0,0,0,0,3,1,0,0,3,1,0,0
64321984,0.0,0.0,0.28492242,-1.0448049e-22,0.0,0.0,0.0,0.0,0.0,0.0,0.0,0,0,0,0,0,0,0,3,1,0,0,3,1,0,0
64537187,0.0,0.0,0.27072358,-4.0744177e-27,0.0,0.0,0.0,0.0,0.0,0.0,0.0,0,0,0,0,0,0,0,3,1,0,0,3,1,0,0
64737516,0.0,0.0,0.27948764,1.673044e-29,0.0,0.0,0.0,0.0,0.0,0.0,0.0,0,0,0,0,0,0,0,3,1,0,0,3,1,0,0
64928374,0.0,0.0,0.27735463,-1.2873554e-32,0.0,0.0,0.0,0.0,0.0,0.0,0.0,0,0,0,0,0,0,0,3,1,0,0,3,1,0,0
65152549,0.0,0.0,0.2811572,-2.2639044e-36,0.0,0.0,0.0,0.0,0.0,0.0,0.0,0,0,0,0,0,0,0,3,1,0,0,3,1,0,0
65348727,0.0,0.0,0.28078535,2.465471e-39,0.0,0.0,0.0,0.0,0.0,0.0,0.0,0,0,0,0,0,0,0,3,1,0,0,3,1,0,0
65555758,0.0,0.0,0.27995196,-1.193e-42,0.0,0.0,0.0,0.0,0.0,0.0,0.0,0,0,0,0,0,0,0,3,1,0,0,3,1,0,0
65755539,0.0,0.0,0.26458126,0.0,0.0,0.0,0.0,0.0,0.0,0.0,0.0,0,0,0,0,0,0,0,3,1,0,0,3,1,0,0
65943747,0.0,0.0,0.25318816,0.0,0.0,0.0,0.0,0.0,0.0,0.0,0.0,0,0,0,0,0,0,0,3,1,0,0,3,1,0,0
66158773,0.0,0.0,0.22769935,0.0,0.0,0.0,0.0,0.0,0.0,0.0,0.0,0,0,0,0,0,0,0,3,1,0,0,3,1,0,0
66358754,0.0,0.0,0.16443303,0.0,0.0,0.0,0.0,0.0,0.0,0.0,0.0,0,0,0,0,0,0,0,3,1,0,0,3,1,0,0
66562761,0.0,0.0,0.0806196,0.0,0.0,0.0,0.0,0.0,0.0,0.0,0.0,0,0,0,0,0,0,0,3,1,0,0,3,1,0,0
66757964,0.0,0.0,0.053703953,0.0,0.0,0.0,0.0,0.0,0.0,0.0,0.0,0,0,0,0,0,0,0,3,1,0,0,3,1,0,0
66961965,0.0,0.0,0.15849105,0.0,0.0,0.0,0.0,0.0,0.0,0.0,0.0,0,0,0,0,0,0,0,3,1,0,0,3,1,0,0
67161168,0.0,0.0,0.21593066,0.0,0.0,0.0,0.0,0.0,0.0,0.0,0.0,0,0,0,0,0,0,0,3,1,0,0,3,1,0,0
67361534,0.0,0.0,0.3740227,0.0,0.0,0.0,0.0,0.0,0.0,0.0,0.0,0,0,0,0,0,0,0,3,1,0,0,3,1,0,0
67565129,0.0,0.0,0.38409176,0.0,0.0,0.0,0.0,0.0,0.0,0.0,0.0,0,0,0,0,0,0,0,3,1,0,0,3,1,0,0
67772390,0.0,0.0,0.4447928,0.0,0.0,0.0,0.0,0.0,0.0,0.0,0.0,0,0,0,0,0,0,0,3,1,0,0,3,1,0,0
67968514,0.0,0.0,0.4883216,0.0,0.0,0.0,0.0,0.0,0.0,0.0,0.0,0,0,0,0,0,0,0,3,1,0,0,3,1,0,0
68172349,0.0,0.0,0.49370283,0.0,0.0,0.0,0.0,0.0,0.0,0.0,0.0,0,0,0,0,0,0,0,3,1,0,0,3,1,0,0
68391571,0.0,0.0,0.49367082,0.0,0.0,0.0,0.0,0.0,0.0,0.0,0.0,0,0,0,0,0,0,0,3,1,0,0,3,1,0,0
68587538,0.0,0.0,0.4929702,0.0,0.0,0.0,0.0,0.0,0.0,0.0,0.0,0,0,0,0,0,0,0,3,1,0,0,3,1,0,0
68786975,0.0,0.0,0.49366915,0.0,0.0,0.0,0.0,0.0,0.0,0.0,0.0,0,0,0,0,0,0,0,3,1,0,0,3,1,0,0
68982776,0.0,0.0,0.4936709,0.0,0.0,0.0,0.0,0.0,0.0,0.0,0.0,0,0,0,0,0,0,0,3,1,0,0,3,1,0,0
69210178,0.0,0.0,0.4936709,0.0,0.0,0.0,0.0,0.0,0.0,0.0,0.0,0,0,0,0,0,0,0,3,1,0,0,3,1,0,0
69394156,0.0,0.0,0.4936709,0.0,0.0,0.0,0.0,0.0,0.0,0.0,0.0,0,0,0,0,0,0,0,3,1,0,0,3,1,0,0
69605941,0.0,0.0,0.4936709,0.0,0.0,0.0,0.0,0.0,0.0,0.0,0.0,0,0,0,0,0,0,0,3,1,0,0,3,1,0,0
69802359,0.0,0.0,0.4936709,0.0,0.0,0.0,0.0,0.0,0.0,0.0,0.0,0,0,0,0,0,0,0,3,1,0,0,3,1,0,0
70001132,0.0,0.0,0.4936709,0.0,0.0,0.0,0.0,0.0,0.0,0.0,0.0,0,0,0,0,0,0,0,3,1,0,0,3,1,0,0
70221259,0.0,0.0,0.4936709,0.0,0.0,0.0,0.0,0.0,0.0,0.0,0.0,0,0,0,0,0,0,0,3,1,0,0,3,1,0,0
70416455,0.0,0.0,0.4936709,0.0,0.0,0.0,0.0,0.0,0.0,0.0,0.0,0,0,0,0,0,0,0,3,1,0,0,3,1,0,0
70620555,0.0,0.0,0.4936709,0.0,0.0,0.0,0.0,0.0,0.0,0.0,0.0,0,0,0,0,0,0,0,3,1,0,0,3,1,0,0
70816332,0.0,0.0,0.49318823,0.0,0.0,0.0,0.0,0.0,0.0,0.0,0.0,0,0,0,0,0,0,0,3,1,0,0,3,1,0,0
71035563,0.0,0.0,0.49367076,0.0,0.0,0.0,0.0,0.0,0.0,0.0,0.0,0,0,0,0,0,0,0,3,1,0,0,3,1,0,0
71231742,0.0,0.0,0.49374175,0.0,0.0,0.0,0.0,0.0,0.0,0.0,0.0,0,0,0,0,0,0,0,3,1,0,0,3,1,0,0
71426041,0.0,0.0,0.49367085,0.0,0.0,0.0,0.0,0.0,0.0,0.0,0.0,0,0,0,0,0,0,0,3,1,0,0,3,1,0,0
71638732,0.0,0.0,0.49356577,0.0,0.0,0.0,0.0,0.0,0.0,0.0,0.0,0,0,0,0,0,0,0,3,1,0,0,3,1,0,0
71826754,0.0,0.0,0.4932293,0.0,0.0,0.0,0.0,0.0,0.0,0.0,0.0,0,0,0,0,0,0,0,3,1,0,0,3,1,0,0
72045937,0.0,0.0,0.49367082,0.0,0.0,0.0,0.0,0.0,0.0,0.0,0.0,0,0,0,0,0,0,0,3,1,0,0,3,1,0,0
72249965,0.0,0.0,0.4949175,0.0,0.0,0.0,0.0,0.0,0.0,0.0,0.0,0,0,0,0,0,0,0,3,1,0,0,3,1,0,0
72438145,0.0,0.0,0.50872475,0.042942308,0.0,0.0,0.0,0.0,0.0,0.0,0.0,0,0,0,0,0,0,0,3,1,0,0,3,1,0,0
72641144,0.0,0.0,0.5702055,-0.0002333918,0.0,0.0,0.0,0.0,0.0,0.0,0.0,0,0,0,0,0,0,0,3,1,0,0,3,1,0,0
72857170,0.0,0.0,0.58987993,-1.2661917e-07,0.0,0.0,0.0,0.0,0.0,0.0,0.0,0,0,0,0,0,0,0,3,1,0,0,3,1,0,0
73060631,0.0,0.0,0.6216003,6.4322124e-11,0.0,0.0,0.0,0.0,0.0,0.0,0.0,0,0,0,0,0,0,0,3,1,0,0,3,1,0,0
73260548,0.0,0.0,0.6409884,-2.5289975e-15,0.0,0.0,0.0,0.0,0.0,0.0,0.0,0,0,0,0,0,0,0,3,1,0,0,3,1,0,0
73464718,0.0,0.0,0.6634176,-2.5019601e-17,0.0,0.0,0.0,0.0,0.0,0.0,0.0,0,0,0,0,0,0,0,3,1,0,0,3,1,0,0
73667740,0.0,0.0,0.68722945,2.2901361e-20,0.0,0.0,0.0,0.0,0.0,0.0,0.0,0,0,0,0,0,0,0,3,1,0,0,3,1,0,0
73863537,0.0,0.0,0.6668283,-9.3923176e-24,0.0,0.0,0.0,0.0,0.0,0.0,0.0,0,0,0,0,0,0,0,3,1,0,0,3,1,0,0
74067742,0.0,0.0,0.66653997,-1.4984091e-27,0.0,0.0,0.0,0.0,0.0,0.0,0.0,0,0,0,0,0,0,0,3,1,0,0,3,1,0,0
74266729,0.0,0.0,0.6657214,5.2830196e-30,0.0,0.0,0.0,0.0,0.0,0.0,0.0,0,0,0,0,0,0,0,3,1,0,0,3,1,0,0
74474776,0.0,0.0,0.64664435,-3.164677e-34,0.0,0.0,0.0,0.0,0.0,0.0,0.0,0,0,0,0,0,0,0,3,1,0,0,3,1,0,0
74677947,0.0,0.0,0.6276684,-7.261516e-37,0.0,0.0,0.0,0.0,0.0,0.0,0.0,0,0,0,0,0,0,0,3,1,0,0,3,1,0,0
74878174,0.0,0.0,0.629471,7.6756e-40,0.0,0.0,0.0,0.0,0.0,0.0,0.0,0,0,0,0,0,0,0,3,1,0,0,3,1,0,0
75069948,0.0,0.0,0.64164263,-3.62e-43,0.0,0.0,0.0,0.0,0.0,0.0,0.0,0,0,0,0,0,0,0,3,1,0,0,3,1,0,0
75289205,0.0,0.0,0.59869707,0.0,0.0,0.0,0.0,0.0,0.0,0.0,0.0,0,0,0,0,0,0,0,3,1,0,0,3,1,0,0
75481136,0.0,0.0,0.6137711,0.0,0.0,0.0,0.0,0.0,0.0,0.0,0.0,0,0,0,0,0,0,0,3,1,0,0,3,1,0,0
75685210,0.0,0.0,0.62764895,0.0,0.0,0.0,0.0,0.0,0.0,0.0,0.0,0,0,0,0,0,0,0,3,1,0,0,3,1,0,0
75892547,0.0,0.0,0.6137083,0.0,0.0,0.0,0.0,0.0,0.0,0.0,0.0,0,0,0,0,0,0,0,3,1,0,0,3,1,0,0
76096409,0.0,0.0,0.60258275,0.0,0.0,0.0,0.0,0.0,0.0,0.0,0.0,0,0,0,0,0,0,0,3,1,0,0,3,1,0,0
76292333,0.0,0.0,0.6028742,0.0,0.0,0.0,0.0,0.0,0.0,0.0,0.0,0,0,0,0,0,0,0,3,1,0,0,3,1,0,0
76503712,0.0,0.0,0.6020829,0.0,0.0,0.0,0.0,0.0,0.0,0.0,0.0,0,0,0,0,0,0,0,3,1,0,0,3,1,0,0
76703565,0.0,0.0,0.59313744,0.0,0.0,0.0,0.0,0.0,0.0,0.0,0.0,0,0,0,0,0,0,0,3,1,0,0,3,1,0,0
76898738,0.0,0.0,0.58183694,0.0,0.0,0.0,0.0,0.0,0.0,0.0,0.0,0,0,0,0,0,0,0,3,1,0,0,3,1,0,0
77090985,0.0,0.0,0.56441724,0.0,0.0,0.0,0.0,0.0,0.0,0.0,0.0,0,0,0,0,0,0,0,3,1,0,0,3,1,0,0
77292554,0.0,0.0,0.5492405,0.0,0.0,0.0,0.0,0.0,0.0,0.0,0.0,0,0,0,0,0,0,0,3,1,0,0,3,1,0,0
77505932,0.0,0.0,0.5326463,0.0,0.0,0.0,0.0,0.0,0.0,0.0,0.0,0,0,0,0,0,0,0,3,1,0,0,3,1,0,0
77718044,0.0,0.0,0.6112165,0.0,0.0,0.0,0.0,0.0,0.0,0.0,0.0,0,0,0,0,0,0,0,3,1,0,0,3,1,0,0
77911748,0.0,0.0,0.5815654,0.0,0.0,0.0,0.0,0.0,0.0,0.0,0.0,0,0,0,0,0,0,0,3,1,0,0,3,1,0,0
78113349,0.0,0.0,0.5069708,0.0,0.0,0.0,0.0,0.0,0.0,0.0,0.0,0,0,0,0,0,0,0,3,1,0,0,3,1,0,0
78309257,0.0,0.0,0.4974637,0.0,0.0,0.0,0.0,0.0,0.0,0.0,0.0,0,0,0,0,0,0,0,3,1,0,0,3,1,0,0
78516561,0.0,0.0,0.51303685,0.0,0.0,0.0,0.0,0.0,0.0,0.0,0.0,0,0,0,0,0,0,0,3,1,0,0,3,1,0,0
78720569,0.0,0.0,0.51281357,0.0,0.0,0.0,0.0,0.0,0.0,0.0,0.0,0,0,0,0,0,0,0,3,1,0,0,3,1,0,0
78920591,0.0,0.0,0.5139248,0.0,0.0,0.0,0.0,0.0,0.0,0.0,0.0,0,0,0,0,0,0,0,3,1,0,0,3,1,0,0
79127573,0.0,0.0,0.5146574,0.0,0.0,0.0,0.0,0.0,0.0,0.0,0.0,0,0,0,0,0,0,0,3,1,0,0,3,1,0,0
79319914,0.0,0.0,0.51608115,0.0,0.0,0.0,0.0,0.0,0.0,0.0,0.0,0,0,0,0,0,0,0,3,1,0,0,3,1,0,0
79538737,0.0,0.0,0.5409881,0.0,0.0,0.0,0.0,0.0,0.0,0.0,0.0,0,0,0,0,0,0,0,3,1,0,0,3,1,0,0
79734953,0.0,0.0,0.53772205,0.0,0.0,0.0,0.0,0.0,0.0,0.0,0.0,0,0,0,0,0,0,0,3,1,0,0,3,1,0,0
79938807,0.0,0.016173253,0.53804606,0.0,0.0,0.0,0.0,0.0,0.0,0.0,0.0,0,0,0,0,0,0,0,3,1,0,0,3,1,0,0
80146315,0.0,0.13430735,0.53796506,0.0,0.0,0.0,0.0,0.0,0.0,0.0,0.0,0,0,0,0,0,0,0,3,1,0,0,3,1,0,0
80342067,0.0,0.105838574,0.53791493,0.0,0.0,0.0,0.0,0.0,0.0,0.0,0.0,0,0,0,0,0,0,0,3,1,0,0,3,1,0,0
80548534,0.0,0.09471657,0.53797495,0.0,0.0,0.0,0.0,0.0,0.0,0.0,0.0,0,0,0,0,0,0,0,3,1,0,0,3,1,0,0
80741139,0.0,0.01071083,0.53609645,0.0,0.0,0.0,0.0,0.0,0.0,0.0,0.0,0,0,0,0,0,0,0,3,1,0,0,3,1,0,0
80945326,0.0,8.8981416e-08,0.53555,0.0,0.0,0.0,0.0,0.0,0.0,0.0,0.0,0,0,0,0,0,0,0,3,1,0,0,3,1,0,0
81160549,0.0,-0.021158842,0.53420883,0.0,0.0,0.0,0.0,0.0,0.0,0.0,0.0,0,0,0,0,0,0,0,3,1,0,0,3,1,0,0
81340542,0.0,-0.09000043,0.53350645,0.0,0.0,0.0,0.0,0.0,0.0,0.0,0.0,0,0,0,0,0,0,0,3,1,0,0,3,1,0,0
81560562,0.0,-0.060329463,0.5316442,0.0,0.0,0.0,0.0,0.0,0.0,0.0,0.0,0,0,0,0,0,0,0,3,1,0,0,3,1,0,0
81764720,0.0,-5.948731e-06,0.5316456,0.0,0.0,0.0,0.0,0.0,0.0,0.0,0.0,0,0,0,0,0,0,0,3,1,0,0,3,1,0,0
81967572,-0.0015890163,0.00419434,0.519178,0.0,0.0,0.0,0.0,0.0,0.0,0.0,0.0,0,0,0,0,0,0,0,3,1,0,0,3,1,0,0
82159933,-0.02964268,0.025594926,0.50888634,0.0,0.0,0.0,0.0,0.0,0.0,0.0,0.0,0,0,0,0,0,0,0,3,1,0,0,3,1,0,0
82358751,-0.04419879,0.014918789,0.50886077,0.0,0.0,0.0,0.0,0.0,0.0,0.0,0.0,0,0,0,0,0,0,0,3,1,0,0,3,1,0,0
82558791,-0.09093091,9.886084e-06,0.5114086,0.0,0.0,0.0,0.0,0.0,0.0,0.0,0.0,0,0,0,0,0,0,0,3,1,0,0,3,1,0,0
82754167,-0.07522144,-5.7431655e-09,0.5113924,0.0,0.0,0.0,0.0,0.0,0.0,0.0,0.0,0,0,0,0,0,0,0,3,1,0,0,3,1,0,0
82958156,-0.04255885,8.26625e-13,0.5113924,0.0,0.0,0.0,0.0,0.0,0.0,0.0,0.0,0,0,0,0,0,0,0,3,1,0,0,3,1,0,0
83177960,-7.249226e-05,1.2288006e-15,0.5113924,0.0,0.0,0.0,0.0,0.0,0.0,0.0,0.0,0,0,0,0,0,0,0,3,1,0,0,3,1,0,0
83381541,-0.00826238,-4.0676356e-19,0.51142544,0.0,0.0,0.0,0.0,0.0,0.0,0.0,0.0,0,0,0,0,0,0,0,3,1,0,0,3,1,0,0
83573319,-3.0163933e-06,-1.652046e-22,0.51264983,0.0,0.0,0.0,0.0,0.0,0.0,0.0,0.0,0,0,0,0,0,0,0,3,1,0,0,3,1,0,0
83768348,0.06520461,3.1632445e-25,0.5111405,0.0,0.0,0.0,0.0,0.0,0.0,0.0,0.0,0,0,0,0,0,0,0,3,1,0,0,3,1,0,0
83976559,0.0664734,-2.0608158e-28,0.5131228,0.0,0.0,0.0,0.0,0.0,0.0,0.0,0.0,0,0,0,0,0,0,0,3,1,0,0,3,1,0,0
84180547,0.00039221795,4.5922976e-32,0.5113902,0.0,0.0,0.0,0.0,0.0,0.0,0.0,0.0,0,0,0,0,0,0,0,3,1,0,0,3,1,0,0
84375588,-3.0494712e-07,4.7160073e-35,0.5114633,0.0,0.0,0.0,0.0,0.0,0.0,0.0,0.0,0,0,0,0,0,0,0,3,1,0,0,3,1,0,0
84583536,1.0006405e-10,-6.0587874e-38,0.5114019,0.0,0.0,0.0,0.0,0.0,0.0,0.0,0.0,0,0,0,0,0,0,0,3,1,0,0,3,1,0,0
84783918,4.176701e-14,3.2905e-41,0.5113924,0.0,0.0,0.0,0.0,0.0,0.0,0.0,0.0,0,0,0,0,0,0,0,3,1,0,0,3,1,0,0
84990928,-0.0021186885,0.005242947,0.511349,0.0,0.0,0.0,0.0,0.0,0.0,0.0,0.0,0,0,0,0,0,0,0,3,1,0,0,3,1,0,0
85187150,-0.0013428134,0.051044606,0.5113923,0.0,0.0,0.0,0.0,0.0,0.0,0.0,0.0,0,0,0,0,0,0,0,3,1,0,0,3,1,0,0
85385976,8.7124015e-09,0.043932255,0.5113924,0.0,0.0,0.0,0.0,0.0,0.0,0.0,0.0,0,0,0,0,0,0,0,3,1,0,0,3,1,0,0
85605944,3.1050962e-10,0.04085529,0.5106483,0.0,0.0,0.0,0.0,0.0,0.0,0.0,0.0,0,0,0,0,0,0,0,3,1,0,0,3,1,0,0
85806015,-7.252328e-14,0.03883881,0.51139057,0.0,0.0,0.0,0.0,0.0,0.0,0.0,0.0,0,0,0,0,0,0,0,3,1,0,0,3,1,0,0
86009198,-6.815223e-17,0.037439886,0.5113852,0.0,0.0,0.0,0.0,0.0,0.0,0.0,0.0,0,0,0,0,0,0,0,3,1,0,0,3,1,0,0
86217369,2.5397375e-20,0.0005123002,0.5109532,0.0,0.0,0.0,0.0,0.0,0.0,0.0,0.0,0,0,0,0,0,0,0,3,1,0,0,3,1,0,0
86405285,-4.9825247e-23,-1.387198e-06,0.51149815,0.0,0.0,0.0,0.0,0.0,0.0,0.0,0.0,0,0,0,0,0,0,0,3,1,0,0,3,1,0,0
86600487,5.3104668e-27,-3.1355227e-10,0.51139,0.0,0.0,0.0,0.0,0.0,0.0,0.0,0.0,0,0,0,0,0,0,0,3,1,0,0,3,1,0,0
86804345,-0.0059753256,8.6076377e-13,0.5113924,0.0,0.0,0.0,0.0,0.0,0.0,0.0,0.0,0,0,0,0,0,0,0,3,1,0,0,3,1,0,0
87020549,-0.012487967,-3.545388e-17,0.5113924,0.0,0.0,0.0,0.0,0.0,0.0,0.0,0.0,0,0,0,0,0,0,0,3,1,0,0,3,1,0,0
87219807,-9.0836205e-05,-1.2200601e-19,0.5107728,0.0,0.0,0.0,0.0,0.0,0.0,0.0,0.0,0,0,0,0,0,0,0,3,1,0,0,3,1,0,0
87415561,-0.0061978903,1.2146346e-22,0.51113033,0.0,0.0,0.0,0.0,0.0,0.0,0.0,0.0,0,0,0,0,0,0,0,3,1,0,0,3,1,0,0
87634956,-0.020305049,1.3041621e-26,0.5114273,0.0,0.0,0.0,0.0,0.0,0.0,0.0,0.0,0,0,0,0,0,0,0,3,1,0,0,3,1,0,0
87814765,-0.023074498,-3.9982573e-30,0.51139235,0.0,0.0,0.0,0.0,0.0,0.0,0.0,0.0,0,0,0,0,0,0,0,3,1,0,0,3,1,0,0
88018804,-0.01817461,2.64899e-32,0.5116539,0.0,0.0,0.0,0.0,0.0,0.0,0.0,0.0,0,0,0,0,0,0,0,3,1,0,0,3,1,0,0
88242174,-0.02854166,-2.402489e-36,0.51233006,0.0,0.0,0.0,0.0,0.0,0.0,0.0,0.0,0,0,0,0,0,0,0,3,1,0,0,3,1,0,0
88433962,-0.030703053,-3.45399e-39,0.5111304,0.0,0.0,0.0,0.0,0.0,0.0,0.0,0.0,0,0,0,0,0,0,0,3,1,0,0,3,1,0,0
88649965,-0.018313885,9.92e-43,0.5113931,0.0,0.0,0.0,0.0,0.0,0.0,0.0,0.0,0,0,0,0,0,0,0,3,1,0,0,3,1,0,0
88845172,1.03062275e-05,0.0,0.51515245,0.0,0.0,0.0,0.0,0.0,0.0,0.0,0.0,0,0,0,0,0,0,0,3,1,0,0,3,1,0,0
89037378,5.326375e-08,0.0,0.5177043,0.0,0.0,0.0,0.0,0.0,0.0,0.0,0.0,0,0,0,0,0,0,0,3,1,0,0,3,1,0,0
89244575,-5.0837785e-11,0.0,0.51772153,0.0,0.0,0.0,0.0,0.0,0.0,0.0,0.0,0,0,0,0,0,0,0,3,1,0,0,3,1,0,0
89460566,0.00021284756,0.013292969,0.51772153,0.0,0.0,0.0,0.0,0.0,0.0,0.0,0.0,0,0,0,0,0,0,0,3,1,0,0,3,1,0,0
89655690,-1.2583835e-07,0.046526592,0.51724136,0.0,0.0,0.0,0.0,0.0,0.0,0.0,0.0,0,0,0,0,0,0,0,3,1,0,0,3,1,0,0
89867536,-3.3571736e-11,0.048208307,0.5174599,0.0,0.0,0.0,0.0,0.0,0.0,0.0,0.0,0,0,0,0,0,0,0,3,1,0,0,3,1,0,0
90047597,3.607009e-14,0.06506306,0.5172389,0.0,0.0,0.0,0.0,0.0,0.0,0.0,0.0,0,0,0,0,0,0,0,3,1,0,0,3,1,0,0
90250767,-3.98143e-17,0.05676143,0.5177204,0.0,0.0,0.0,0.0,0.0,0.0,0.0,0.0,0,0,0,0,0,0,0,3,1,0,0,3,1,0,0
90466736,-3.3647633e-21,-0.0010764027,0.51675856,0.0,0.0,0.0,0.0,0.0,0.0,0.0,0.0,0,0,0,0,0,0,0,3,1,0,0,3,1,0,0
90670766,6.7910124e-24,1.1949102e-06,0.51702154,0.0,0.0,0.0,0.0,0.0,0.0,0.0,0.0,0,0,0,0,0,0,0,3,1,0,0,3,1,0,0
90869969,-4.5012708e-27,-5.8700084e-10,0.51674294,0.0,0.0,0.0,0.0,0.0,0.0,0.0,0.0,0,0,0,0,0,0,0,3,1,0,0,3,1,0,0
91078151,-1.0099823e-30,-2.0348595e-13,0.5177217,0.0,0.0,0.0,0.0,0.0,0.0,0.0,0.0,0,0,0,0,0,0,0,3,1,0,0,3,1,0,0
91269431,9.12143e-34,1.3541034e-16,0.51666147,0.0,0.0,0.0,0.0,0.0,0.0,0.0,0.0,0,0,0,0,0,0,0,3,1,0,0,3,1,0,0
91489351,1.1969596e-37,0.009660516,0.5190829,0.0,0.0,0.0,0.0,0.0,0.0,0.0,0.0,0,0,0,0,0,0,0,3,1,0,0,3,1,0,0
91685133,-1.65352e-40,0.008386703,0.5189873,0.0,0.0,0.0,0.0,0.0,0.0,0.0,0.0,0,0,0,0,0,0,0,3,1,0,0,3,1,0,0
91884349,9.4e-44,0.001713046,0.5187259,0.0,0.0,0.0,0.0,0.0,0.0,0.0,0.0,0,0,0,0,0,0,0,3,1,0,0,3,1,0,0
92084402,0.0,0.0025993665,0.51927924,0.0,0.0,0.0,0.0,0.0,0.0,0.0,0.0,0,0,0,0,0,0,0,3,1,0,0,3,1,0,0
92284326,0.0,0.004178393,0.5245924,0.0,0.0,0.0,0.0,0.0,0.0,0.0,0.0,0,0,0,0,0,0,0,3,1,0,0,3,1,0,0
92495577,0.0,0.0050759865,0.5253257,0.0,0.0,0.0,0.0,0.0,0.0,0.0,0.0,0,0,0,0,0,0,0,3,1,0,0,3,1,0,0
92699573,0.0,0.0025548476,0.5253165,0.0,0.0,0.0,0.0,0.0,0.0,0.0,0.0,0,0,0,0,0,0,0,3,1,0,0,3,1,0,0
92894774,0.0,2.4231845e-06,0.52465427,0.0,0.0,0.0,0.0,0.0,0.0,0.0,0.0,0,0,0,0,0,0,0,3,1,0,0,3,1,0,0
93094821,0.0,2.3429398e-09,0.5254222,0.0,0.0,0.0,0.0,0.0,0.0,0.0,0.0,0,0,0,0,0,0,0,3,1,0,0,3,1,0,0
93310762,0.0,-3.0700212e-12,0.5253164,0.0,0.0,0.0,0.0,0.0,0.0,0.0,0.0,0,0,0,0,0,0,0,3,1,0,0,3,1,0,0
93518153,0.0,1.6870316e-15,0.5253165,0.0,0.0,0.0,0.0,0.0,0.0,0.0,0.0,0,0,0,0,0,0,0,3,1,0,0,3,1,0,0
93714138,0.0,-1.7254337e-19,0.5253165,0.0,0.0,0.0,0.0,0.0,0.0,0.0,0.0,0,0,0,0,0,0,0,3,1,0,0,3,1,0,0
93904444,-0.018579986,-5.6353406e-22,0.5253165,0.0,0.0,0.0,0.0,0.0,0.0,0.0,0.0,0,0,0,0,0,0,0,3,1,0,0,3,1,0,0
94101147,-0.0117565775,5.6474666e-25,0.52761,0.0,0.0,0.0,0.0,0.0,0.0,0.0,0.0,0,0,0,0,0,0,0,3,1,0,0,3,1,0,0
94305514,-0.012361384,-2.542378e-28,0.5278785,0.0,0.0,0.0,0.0,0.0,0.0,0.0,0.0,0,0,0,0,0,0,0,3,1,0,0,3,1,0,0
94532528,-0.012965415,-9.908894e-32,0.5291255,0.0,0.0,0.0,0.0,0.0,0.0,0.0,0.0,0,0,0,0,0,0,0,3,1,0,0,3,1,0,0
94720554,-0.007731049,1.226308e-34,0.53036195,0.0,0.0,0.0,0.0,0.0,0.0,0.0,0.0,0,0,0,0,0,0,0,3,1,0,0,3,1,0,0
94916713,-0.0049347575,-9.971685e-38,0.5303798,0.0,0.0,0.0,0.0,0.0,0.0,0.0,0.0,0,0,0,0,0,0,0,3,1,0,0,3,1,0,0
95135569,-0.0051281927,-1.5922e-41,0.53865623,0.0,0.0,0.0,0.0,0.0,0.0,0.0,0.0,0,0,0,0,0,0,0,3,1,0,0,3,1,0,0
95331591,-0.0020513793,1.8e-44,0.53924024,0.0,0.0,0.0,0.0,0.0,0.0,0.0,0.0,0,0,0,0,0,0,0,3,1,0,0,3,1,0,0
95527952,1.3784498e-06,0.0,0.5392405,0.0,0.0,0.0,0.0,0.0,0.0,0.0,0.0,0,0,0,0,0,0,0,3,1,0,0,3,1,0,0
95743173,3.0273223e-10,0.0,0.53876024,0.0,0.0,0.0,0.0,0.0,0.0,0.0,0.0,0,0,0,0,0,0,0,3,1,0,0,3,1,0,0
95942772,-0.005751308,0.0,0.53927356,0.0,0.0,0.0,0.0,0.0,0.0,0.0,0.0,0,0,0,0,0,0,0,3,1,0,0,3,1,0,0
96146144,-0.014945737,0.0,0.5392405,0.0,0.0,0.0,0.0,0.0,0.0,0.0,0.0,0,0,0,0,0,0,0,3,1,0,0,3,1,0,0
96345964,-0.017034482,0.0,0.53923213,0.0,0.0,0.0,0.0,0.0,0.0,0.0,0.0,0,0,0,0,0,0,0,3,1,0,0,3,1,0,0
96546016,-0.050061353,0.0,0.5392405,0.0,0.0,0.0,0.0,0.0,0.0,0.0,0.0,0,0,0,0,0,0,0,3,1,0,0,3,1,0,0
96741206,-0.052086327,0.0,0.5392405,0.0,0.0,0.0,0.0,0.0,0.0,0.0,0.0,0,0,0,0,0,0,0,3,1,0,0,3,1,0,0
96953157,-0.047996804,0.0,0.5392392,0.0,0.0,0.0,0.0,0.0,0.0,0.0,0.0,0,0,0,0,0,0,0,3,1,0,0,3,1,0,0
97148338,-0.002431469,0.0,0.5392704,0.0,0.0,0.0,0.0,0.0,0.0,0.0,0.0,0,0,0,0,0,0,0,3,1,0,0,3,1,0,0
97352554,-7.375851e-07,0.0,0.5383521,0.0,0.0,0.0,0.0,0.0,0.0,0.0,0.0,0,0,0,0,0,0,0,3,1,0,0,3,1,0,0
97552353,1.6727734e-09,0.0,0.5392417,0.0,0.0,0.0,0.0,0.0,0.0,0.0,0.0,0,0,0,0,0,0,0,3,1,0,0,3,1,0,0
97755950,-1.1473757e-12,0.0,0.5392704,0.0,0.0,0.0,0.0,0.0,0.0,0.0,0.0,0,0,0,0,0,0,0,3,1,0,0,3,1,0,0
97959748,2.9309286e-16,0.0,0.5389789,0.0,0.0,0.0,0.0,0.0,0.0,0.0,0.0,0,0,0,0,0,0,0,3,1,0,0,3,1,0,0
98163545,2.2992266e-19,0.0,0.5391976,0.0,0.0,0.0,0.0,0.0,0.0,0.0,0.0,0,0,0,0,0,0,0,3,1,0,0,3,1,0,0
98378756,-9.69191e-23,0.0,0.5392404,0.0,0.0,0.0,0.0,0.0,0.0,0.0,0.0,0,0,0,0,0,0,0,3,1,0,0,3,1,0,0
98578957,0.011257814,0.0,0.5392262,0.0,0.0,0.0,0.0,0.0,0.0,0.0,0.0,0,0,0,0,0,0,0,3,1,0,0,3,1,0,0
98769979,0.023818884,0.0,0.53883547,0.0,0.0,0.0,0.0,0.0,0.0,0.0,0.0,0,0,0,0,0,0,0,3,1,0,0,3,1,0,0
98985947,0.03547741,0.0,0.5386124,0.0,0.0,0.0,0.0,0.0,0.0,0.0,0.0,0,0,0,0,0,0,0,3,1,0,0,3,1,0,0
99170189,0.04985581,0.0,0.53924096,0.0,0.0,0.0,0.0,0.0,0.0,0.0,0.0,0,0,0,0,0,0,0,3,1,0,0,3,1,0,0
99393177,0.05631146,0.0,0.54012156,0.0,0.0,0.0,0.0,0.0,0.0,0.0,0.0,0,0,0,0,0,0,0,3,1,0,0,3,1,0,0
99585158,-0.0017892475,0.0,0.5420582,0.0,0.0,0.0,0.0,0.0,0.0,0.0,0.0,0,0,0,0,0,0,0,3,1,0,0,3,1,0,0
99781354,6.0246845e-07,0.0,0.5440975,0.0,0.0,0.0,0.0,0.0,0.0,0.0,0.0,0,0,0,0,0,0,0,3,1,0,0,3,1,0,0
100000552,3.3945965e-10,0.0,0.5430056,0.0,0.0,0.0,0.0,0.0,0.0,0.0,0.0,0,0,0,0,0,0,0,3,1,0,0,3,1,0,0
100196372,-1.6893033e-13,0.0,0.54307103,0.0,0.0,0.0,0.0,0.0,0.0,0.0,0.0,0,0,0,0,0,0,0,3,1,0,0,3,1,0,0
100399741,3.7139272e-18,0.0,0.5434924,0.0,0.0,0.0,0.0,0.0,0.0,0.0,0.0,0,0,0,0,0,0,0,3,1,0,0,3,1,0,0
100603599,6.826425e-20,0.0,0.55325997,0.0,0.0,0.0,0.0,0.0,0.0,0.0,0.0,0,0,0,0,0,0,0,3,1,0,0,3,1,0,0
100799794,-6.1136114e-23,0.0,0.5466105,0.0,0.0,0.0,0.0,0.0,0.0,0.0,0.0,0,0,0,0,0,0,0,3,1,0,0,3,1,0,0
101006955,2.4449517e-26,0.0,0.5468332,0.0,0.0,0.0,0.0,0.0,0.0,0.0,0.0,0,0,0,0,0,0,0,3,1,0,0,3,1,0,0
101210938,4.5442366e-30,0.0,0.5468438,0.0,0.0,0.0,0.0,0.0,0.0,0.0,0.0,0,0,0,0,0,0,0,3,1,0,0,3,1,0,0
101406733,-1.4314074e-32,0.0,0.54595554,0.0,0.0,0.0,0.0,0.0,0.0,0.0,0.0,0,0,0,0,0,0,0,3,1,0,0,3,1,0,0
101614055,1.0566283e-35,0.0,0.5481012,0.0,0.0,0.0,0.0,0.0,0.0,0.0,0.0,0,0,0,0,0,0,0,3,1,0,0,3,1,0,0
101818317,-3.160763e-39,0.0,0.5693496,0.0,0.0,0.0,0.0,0.0,0.0,0.0,0.0,0,0,0,0,0,0,0,3,1,0,0,3,1,0,0
102013213,-0.03585689,0.0012423305,0.5671229,0.0,0.0,0.0,0.0,0.0,0.0,0.0,0.0,0,0,0,0,0,0,0,3,1,0,0,3,1,0,0
102229174,-0.1499163,0.002729219,0.565824,0.0,0.0,0.0,0.0,0.0,0.0,0.0,0.0,0,0,0,0,0,0,0,3,1,0,0,3,1,0,0
102425138,-0.1367577,-0.00019401048,0.5658215,0.0,0.0,0.0,0.0,0.0,0.0,0.0,0.0,0,0,0,0,0,0,0,3,1,0,0,3,1,0,0
102628369,-0.013663401,0.0012434174,0.56459117,0.0,0.0,0.0,0.0,0.0,0.0,0.0,0.0,0,0,0,0,0,0,0,3,1,0,0,3,1,0,0
102832393,0.00053540454,-0.00029165676,0.56393737,0.0,0.0,0.0,0.0,0.0,0.0,0.0,0.0,0,0,0,0,0,0,0,3,1,0,0,3,1,0,0
103032527,0.068260394,-8.86867e-08,0.5563775,0.0,0.0,0.0,0.0,0.0,0.0,0.0,0.0,0,0,0,0,0,0,0,3,1,0,0,3,1,0,0
103231571,0.07029418,2.008362e-10,0.5569601,0.0,0.0,0.0,0.0,0.0,0.0,0.0,0.0,0,0,0,0,0,0,0,3,1,0,0,3,1,0,0
103447533,0.039633214,-4.6689655e-15,0.5560797,0.0,0.0,0.0,0.0,0.0,0.0,0.0,0.0,0,0,0,0,0,0,0,3,1,0,0,3,1,0,0
103647148,0.0062228832,-2.9293142e-17,0.5569632,0.0,0.0,0.0,0.0,0.0,0.0,0.0,0.0,0,0,0,0,0,0,0,3,1,0,0,3,1,0,0
103834991,-3.3732038e-06,2.7536054e-20,0.55703044,0.0,0.0,0.0,0.0,0.0,0.0,0.0,0.0,0,0,0,0,0,0,0,3,1,0,0,3,1,0,0
104049977,-1.0199659e-09,0.056365423,0.55673474,0.0,0.0,0.0,0.0,0.0,0.0,0.0,0.0,0,0,0,0,0,0,0,3,1,0,0,3,1,0,0
104246130,7.4388336e-13,0.058101293,0.5556697,0.0,0.0,0.0,0.0,0.0,0.0,0.0,0.0,0,0,0,0,0,0,0,3,1,0,0,3,1,0,0
104449944,-2.173452e-16,0.04505919,0.5544058,0.0,0.0,0.0,0.0,0.0,0.0,0.0,0.0,0,0,0,0,0,0,0,3,1,0,0,3,1,0,0
104657162,-1.252261e-19,0.03272153,0.5509257,0.0,0.0,0.0,0.0,0.0,0.0,0.0,0.0,0,0,0,0,0,0,0,3,1,0,0,3,1,0,0
104861174,2.0126411e-22,0.013577023,0.54765344,0.0,0.0,0.0,0.0,0.0,0.0,0.0,0.0,0,0,0,0,0,0,0,3,1,0,0,3,1,0,0
105061398,-1.2260758e-25,1.379733e-07,0.5481014,0.0,0.0,0.0,0.0,0.0,0.0,0.0,0.0,0,0,0,0,0,0,0,3,1,0,0,3,1,0,0
105260588,2.1790349e-29,5.2101456e-09,0.5489823,0.0,0.0,0.0,0.0,0.0,0.0,0.0,0.0,0,0,0,0,0,0,0,3,1,0,0,3,1,0,0
105456545,3.2884152e-32,-4.604522e-12,0.548486,0.0,0.0,0.0,0.0,0.0,0.0,0.0,0.0,0,0,0,0,0,0,0,3,1,0,0,3,1,0,0
105656555,-3.791654e-35,1.8123316e-15,0.54943913,0.0,0.0,0.0,0.0,0.0,0.0,0.0,0.0,0,0,0,0,0,0,0,3,1,0,0,3,1,0,0
105879775,-2.86404e-39,8.4065135e-19,0.54936755,0.0,0.0,0.0,0.0,0.0,0.0,0.0,0.0,0,0,0,0,0,0,0,3,1,0,0,3,1,0,0
106079533,6.389e-42,-4.6677927e-22,0.5493671,0.0,0.0,0.0,0.0,0.0,0.0,0.0,0.0,0,0,0,0,0,0,0,3,1,0,0,3,1,0,0
106278755,-4e-45,5.1458035e-26,0.5506575,0.0,0.0,0.0,0.0,0.0,0.0,0.0,0.0,0,0,0,0,0,0,0,3,1,0,0,3,1,0,0
106462767,0.0,-2.3200253e-28,0.55487436,0.0,0.0,0.0,0.0,0.0,0.0,0.0,0.0,0,0,0,0,0,0,0,3,1,0,0,3,1,0,0
106667118,0.0,-1.3350005e-31,0.55834854,0.0,0.0,0.0,0.0,0.0,0.0,0.0,0.0,0,0,0,0,0,0,0,3,1,0,0,3,1,0,0
106865958,0.0,6.2448824e-05,0.55825764,0.0,0.0,0.0,0.0,0.0,0.0,0.0,0.0,0,0,0,0,0,0,0,3,1,0,0,3,1,0,0
107086133,0.0,-1.2983324e-07,0.55774516,0.0,0.0,0.0,0.0,0.0,0.0,0.0,0.0,0,0,0,0,0,0,0,3,1,0,0,3,1,0,0
107289158,0.0,0.00021960463,0.55734557,0.0,0.0,0.0,0.0,0.0,0.0,0.0,0.0,0,0,0,0,0,0,0,3,1,0,0,3,1,0,0
107481181,0.0,-1.298332e-07,0.5584905,0.0,0.0,0.0,0.0,0.0,0.0,0.0,0.0,0,0,0,0,0,0,0,3,1,0,0,3,1,0,0
107693326,0.0,-3.463751e-11,0.5595574,0.0,0.0,0.0,0.0,0.0,0.0,0.0,0.0,0,0,0,0,0,0,0,3,1,0,0,3,1,0,0
107888717,0.0,2.757217e-14,0.5603747,0.0,0.0,0.0,0.0,0.0,0.0,0.0,0.0,0,0,0,0,0,0,0,3,1,0,0,3,1,0,0
108092560,0.0,-9.396769e-18,0.5612,0.0,0.0,0.0,0.0,0.0,0.0,0.0,0.0,0,0,0,0,0,0,0,3,1,0,0,3,1,0,0
108296428,0.0,-3.4715866e-21,0.56096756,0.0,0.0,0.0,0.0,0.0,0.0,0.0,0.0,0,0,0,0,0,0,0,3,1,0,0,3,1,0,0
108515548,0.0,2.6170023e-24,0.5620241,0.0,0.0,0.0,0.0,0.0,0.0,0.0,0.0,0,0,0,0,0,0,0,3,1,0,0,3,1,0,0
108691747,0.0,-4.644168e-27,0.5624031,0.0,0.0,0.0,0.0,0.0,0.0,0.0,0.0,0,0,0,0,0,0,0,3,1,0,0,3,1,0,0
108910949,0.0,0.05101295,0.5625878,0.0,0.0,0.0,0.0,0.0,0.0,0.0,0.0,0,0,0,0,0,0,0,3,1,0,0,3,1,0,0
109118780,0.0,0.057647955,0.5633122,0.0,0.0,0.0,0.0,0.0,0.0,0.0,0.0,0,0,0,0,0,0,0,3,1,0,0,3,1,0,0
109322757,0.0,0.056254856,0.5612362,0.0,0.0,0.0,0.0,0.0,0.0,0.0,0.0,0,0,0,0,0,0,0,3,1,0,0,3,1,0,0
109526160,0.0,-0.00040254236,0.5645501,0.0,0.0,0.0,0.0,0.0,0.0,0.0,0.0,0,0,0,0,0,0,0,3,1,0,0,3,1,0,0
109722357,0.0,7.3698607e-07,0.56454855,0.0,0.0,0.0,0.0,0.0,0.0,0.0,0.0,0,0,0,0,0,0,0,3,1,0,0,3,1,0,0
109925932,0.0,-4.726701e-10,0.5636747,0.0,0.0,0.0,0.0,0.0,0.0,0.0,0.0,0,0,0,0,0,0,0,3,1,0,0,3,1,0,0
110137333,0.0,-1.11596537e-13,0.5645578,0.0,0.0,0.0,0.0,0.0,0.0,0.0,0.0,0,0,0,0,0,0,0,3,1,0,0,3,1,0,0
110325326,0.0,9.7052916e-17,0.5640768,0.0,0.0,0.0,0.0,0.0,0.0,0.0,0.0,0,0,0,0,0,0,0,3,1,0,0,3,1,0,0
110524362,0.0,-3.744709e-20,0.56727964,0.0,0.0,0.0,0.0,0.0,0.0,0.0,0.0,0,0,0,0,0,0,0,3,1,0,0,3,1,0,0
110732436,0.0,-8.406056e-24,0.56708604,0.0,0.0,0.0,0.0,0.0,0.0,0.0,0.0,0,0,0,0,0,0,0,3,1,0,0,3,1,0,0
110947762,0.0,9.746545e-27,0.5683557,0.0,0.0,0.0,0.0,0.0,0.0,0.0,0.0,0,0,0,0,0,0,0,3,1,0,0,3,1,0,0
111151749,0.0,-9.641925e-31,0.5683544,0.0,0.0,0.0,0.0,0.0,0.0,0.0,0.0,0,0,0,0,0,0,0,3,1,0,0,3,1,0,0
111351618,0.0,-3.284211e-33,0.5678718,0.0,0.0,0.0,0.0,0.0,0.0,0.0,0.0,0,0,0,0,0,0,0,3,1,0,0,3,1,0,0
111546811,0.0,3.273767e-36,0.5683545,0.0,0.0,0.0,0.0,0.0,0.0,0.0,0.0,0,0,0,0,0,0,0,3,1,0,0,3,1,0,0
111750985,0.0,-1.46639e-39,0.5683544,0.0,0.0,0.0,0.0,0.0,0.0,0.0,0.0,0,0,0,0,0,0,0,3,1,0,0,3,1,0,0
111951118,0.0,-1.06e-43,0.5683544,0.0,0.0,0.0,0.0,0.0,0.0,0.0,0.0,0,0,0,0,0,0,0,3,1,0,0,3,1,0,0
112153975,0.0,0.0,0.56812716,0.0,0.0,0.0,0.0,0.0,0.0,0.0,0.0,0,0,0,0,0,0,0,3,1,0,0,3,1,0,0
112350002,0.0,0.0,0.5683115,0.0,0.0,0.0,0.0,0.0,0.0,0.0,0.0,0,0,0,0,0,0,0,3,1,0,0,3,1,0,0
112554165,0.0,0.0,0.56861585,0.0,0.0,0.0,0.0,0.0,0.0,0.0,0.0,0,0,0,0,0,0,0,3,1,0,0,3,1,0,0
112761304,0.0,0.0,0.5680924,0.0,0.0,0.0,0.0,0.0,0.0,0.0,0.0,0,0,0,0,0,0,0,3,1,0,0,3,1,0,0
112961344,0.0,0.0,0.5680934,0.0,0.0,0.0,0.0,0.0,0.0,0.0,0.0,0,0,0,0,0,0,0,3,1,0,0,3,1,0,0
113184374,0.0,0.0,0.56708854,0.0,0.0,0.0,0.0,0.0,0.0,0.0,0.0,0,0,0,0,0,0,0,3,1,0,0,3,1,0,0
113368549,0.0,0.0,0.5668271,0.0,0.0,0.0,0.0,0.0,0.0,0.0,0.0,0,0,0,0,0,0,0,3,1,0,0,3,1,0,0
113571614,0.0,0.0,0.5653395,0.0,0.0,0.0,0.0,0.0,0.0,0.0,0.0,0,0,0,0,0,0,0,3,1,0,0,3,1,0,0
113787633,0.0,0.0,0.5647567,0.0,0.0,0.0,0.0,0.0,0.0,0.0,0.0,0,0,0,0,0,0,0,3,1,0,0,3,1,0,0
113987725,0.0,0.0,0.5668525,0.0,0.0,0.0,0.0,0.0,0.0,0.0,0.0,0,0,0,0,0,0,0,3,1,0,0,3,1,0,0
114190802,0.0,0.0,0.5655304,0.0,0.0,0.0,0.0,0.0,0.0,0.0,0.0,0,0,0,0,0,0,0,3,1,0,0,3,1,0,0
114390950,0.0,0.0,0.56449336,0.0,0.0,0.0,0.0,0.0,0.0,0.0,0.0,0,0,0,0,0,0,0,3,1,0,0,3,1,0,0
114587047,0.0,0.0,0.56455714,0.0,0.0,0.0,0.0,0.0,0.0,0.0,0.0,0,0,0,0,0,0,0,3,1,0,0,3,1,0,0
114790328,0.0,0.0,0.56454736,0.0,0.0,0.0,0.0,0.0,0.0,0.0,0.0,0,0,0,0,0,0,0,3,1,0,0,3,1,0,0
115006316,0.0,0.0,0.5642955,0.0,0.0,0.0,0.0,0.0,0.0,0.0,0.0,0,0,0,0,0,0,0,3,1,0,0,3,1,0,0
115194172,0.0,0.0,0.5618953,0.0,0.0,0.0,0.0,0.0,0.0,0.0,0.0,0,0,0,0,0,0,0,3,1,0,0,3,1,0,0
115409377,0.0,0.0,0.56075877,0.0,0.0,0.0,0.0,0.0,0.0,0.0,0.0,0,0,0,0,0,0,0,3,1,0,0,3,1,0,0
115609406,0.0,0.0,0.56079614,0.0,0.0,0.0,0.0,0.0,0.0,0.0,0.0,0,0,0,0,0,0,0,3,1,0,0,3,1,0,0
115811754,0.0,0.0,0.5607499,0.0,0.0,0.0,0.0,0.0,0.0,0.0,0.0,0,0,0,0,0,0,0,3,1,0,0,3,1,0,0
116008357,0.0,0.0,0.5570422,0.0,0.0,0.0,0.0,0.0,0.0,0.0,0.0,0,0,0,0,0,0,0,3,1,0,0,3,1,0,0
116212511,0.0,0.0,0.5567404,0.0,0.0,0.0,0.0,0.0,0.0,0.0,0.0,0,0,0,0,0,0,0,3,1,0,0,3,1,0,0
116415725,0.0,0.0,0.55435085,0.0,0.0,0.0,0.0,0.0,0.0,0.0,0.0,0,0,0,0,0,0,0,3,1,0,0,3,1,0,0
116619604,0.0,0.0,0.5544305,0.0,0.0,0.0,0.0,0.0,0.0,0.0,0.0,0,0,0,0,0,0,0,3,1,0,0,3,1,0,0
116815569,0.032133855,0.0,0.55156124,0.0,0.0,0.0,0.0,0.0,0.0,0.0,0.0,0,0,0,0,0,0,0,3,1,0,0,3,1,0,0
117018737,0.024394296,0.0,0.55189943,0.0,0.0,0.0,0.0,0.0,0.0,0.0,0.0,0,0,0,0,0,0,0,3,1,0,0,3,1,0,0
117214947,0.018740924,0.0,0.5518987,0.0,0.0,0.0,0.0,0.0,0.0,0.0,0.0,0,0,0,0,0,0,0,3,1,0,0,3,1,0,0
117422005,0.020056738,0.0,0.55167025,0.0,0.0,0.0,0.0,0.0,0.0,0.0,0.0,0,0,0,0,0,0,0,3,1,0,0,3,1,0,0
117633976,0.016127486,0.0,0.5494991,0.0,0.0,0.0,0.0,0.0,0.0,0.0,0.0,0,0,0,0,0,0,0,3,1,0,0,3,1,0,0
117838200,1.9368492e-05,0.0,0.54936725,0.0,0.0,0.0,0.0,0.0,0.0,0.0,0.0,0,0,0,0,0,0,0,3,1,0,0,3,1,0,0
118037150,4.569564e-09,0.0,0.5493671,0.0,0.0,0.0,0.0,0.0,0.0,0.0,0.0,0,0,0,0,0,0,0,3,1,0,0,3,1,0,0
118229138,-1.2185477e-11,0.0,0.5493261,0.0,0.0,0.0,0.0,0.0,0.0,0.0,0.0,0,0,0,0,0,0,0,3,1,0,0,3,1,0,0
118444409,4.715682e-16,0.06042493,0.5489182,0.0,0.0,0.0,0.0,0.0,0.0,0.0,0.0,0,0,0,0,0,0,0,3,1,0,0,3,1,0,0
118648535,1.7341458e-18,0.065537095,0.5493672,0.0,0.0,0.0,0.0,0.0,0.0,0.0,0.0,0,0,0,0,0,0,0,3,1,0,0,3,1,0,0
118852549,-1.7127366e-21,0.06287916,0.5493671,0.0,0.0,0.0,0.0,0.0,0.0,0.0,0.0,0,0,0,0,0,0,0,3,1,0,0,3,1,0,0
119047759,7.6042173e-25,0.05492292,0.5493671,0.0,0.0,0.0,0.0,0.0,0.0,0.0,0.0,0,0,0,0,0,0,0,3,1,0,0,3,1,0,0
119243926,6.146021e-29,0.033002585,0.5493814,0.0,0.0,0.0,0.0,0.0,0.0,0.0,0.0,0,0,0,0,0,0,0,3,1,0,0,3,1,0,0
119446776,-3.7549858e-31,-0.00018189964,0.5493671,0.0,0.0,0.0,0.0,0.0,0.0,0.0,0.0,0,0,0,0,0,0,0,3,1,0,0,3,1,0,0
119654976,3.0162703e-34,-2.2065602e-07,0.5487462,0.0,0.0,0.0,0.0,0.0,0.0,0.0,0.0,0,0,0,0,0,0,0,3,1,0,0,3,1,0,0
119850938,-1.0424402e-37,2.695282e-10,0.54947287,0.0,0.0,0.0,0.0,0.0,0.0,0.0,0.0,0,0,0,0,0,0,0,3,1,0,0,3,1,0,0
120070343,-5.6887e-41,1.7319083e-14,0.5498367,0.0,0.0,0.0,0.0,0.0,0.0,0.0,0.0,0,0,0,0,0,0,0,3,1,0,0,3,1,0,0
120254172,7.6e-44,9.6226376e-18,0.5493653,0.0,0.0,0.0,0.0,0.0,0.0,0.0,0.0,0,0,0,0,0,0,0,3,1,0,0,3,1,0,0
120474152,0.0,3.1690356e-20,0.5493671,0.0,0.0,0.0,0.0,0.0,0.0,0.0,0.0,0,0,0,0,0,0,0,3,1,0,0,3,1,0,0
120669151,0.0,-8.722052e-24,0.5506575,0.0,0.0,0.0,0.0,0.0,0.0,0.0,0.0,0,0,0,0,0,0,0,3,1,0,0,3,1,0,0
120869355,0.0,-5.803456e-27,0.5503714,0.0,0.0,0.0,0.0,0.0,0.0,0.0,0.0,0,0,0,0,0,0,0,3,1,0,0,3,1,0,0
121072356,-0.035377298,8.755685e-30,0.5506334,0.0,0.0,0.0,0.0,0.0,0.0,0.0,0.0,0,0,0,0,0,0,0,3,1,0,0,3,1,0,0
121272336,-0.029746877,-5.1832986e-33,0.5506329,0.0,0.0,0.0,0.0,0.0,0.0,0.0,0.0,0,0,0,0,0,0,0,3,1,0,0,3,1,0,0
121492402,-0.02184129,-1.38014805e-36,0.5506329,0.0,0.0,0.0,0.0,0.0,0.0,0.0,0.0,0,0,0,0,0,0,0,3,1,0,0,3,1,0,0
121671571,-0.017772514,1.481474e-39,0.55060303,0.0,0.0,0.0,0.0,0.0,0.0,0.0,0.0,0,0,0,0,0,0,0,3,1,0,0,3,1,0,0
121895597,-0.017825302,-3.77e-43,0.55063176,0.0,0.0,0.0,0.0,0.0,0.0,0.0,0.0,0,0,0,0,0,0,0,3,1,0,0,3,1,0,0
122083151,-0.010048808,0.0,0.5506329,0.0,0.0,0.0,0.0,0.0,0.0,0.0,0.0,0,0,0,0,0,0,0,3,1,0,0,3,1,0,0
122286960,-0.0059010056,0.0,0.5497518,0.0,0.0,0.0,0.0,0.0,0.0,0.0,0.0,0,0,0,0,0,0,0,3,1,0,0,3,1,0,0
122482767,-0.0036907578,0.0,0.5506341,0.0,0.0,0.0,0.0,0.0,0.0,0.0,0.0,0,0,0,0,0,0,0,3,1,0,0,3,1,0,0
122694309,-0.0015910702,0.0,0.5506329,0.0,0.0,0.0,0.0,0.0,0.0,0.0,0.0,0,0,0,0,0,0,0,3,1,0,0,3,1,0,0
122886189,-0.0007769938,0.0,0.5506671,0.0,0.0,0.0,0.0,0.0,0.0,0.0,0.0,0,0,0,0,0,0,0,3,1,0,0,3,1,0,0
123106155,-0.0025657397,0.0,0.55063343,0.0,0.0,0.0,0.0,0.0,0.0,0.0,0.0,0,0,0,0,0,0,0,3,1,0,0,3,1,0,0
123305527,5.235272e-05,0.0,0.5506329,0.0,0.0,0.0,0.0,0.0,0.0,0.0,0.0,0,0,0,0,0,0,0,3,1,0,0,3,1,0,0
123497280,-0.0021061485,0.0,0.5506329,0.0,0.0,0.0,0.0,0.0,0.0,0.0,0.0,0,0,0,0,0,0,0,3,1,0,0,3,1,0,0
123697137,-0.005300138,0.0,0.55018413,0.0,0.0,0.0,0.0,0.0,0.0,0.0,0.0,0,0,0,0,0,0,0,3,1,0,0,3,1,0,0
123916714,-0.01134593,0.0,0.5506328,0.0,0.0,0.0,0.0,0.0,0.0,0.0,0.0,0,0,0,0,0,0,0,3,1,0,0,3,1,0,0
124112585,-0.0140258465,0.0,0.5506329,0.0,0.0,0.0,0.0,0.0,0.0,0.0,0.0,0,0,0,0,0,0,0,3,1,0,0,3,1,0,0
124323614,-0.020618021,0.0,0.5495741,0.0,0.0,0.0,0.0,0.0,0.0,0.0,0.0,0,0,0,0,0,0,0,3,1,0,0,3,1,0,0
124523545,-0.019242993,0.0,0.5504052,0.0,0.0,0.0,0.0,0.0,0.0,0.0,0.0,0,0,0,0,0,0,0,3,1,0,0,3,1,0,0
124719570,-0.017839685,0.0,0.55063343,0.0,0.0,0.0,0.0,0.0,0.0,0.0,0.0,0,0,0,0,0,0,0,3,1,0,0,3,1,0,0
124926785,-0.017059235,0.0,0.5506329,0.0,0.0,0.0,0.0,0.0,0.0,0.0,0.0,0,0,0,0,0,0,0,3,1,0,0,3,1,0,0
125134775,-0.0068262443,0.0,0.5516918,0.0,0.0,0.0,0.0,0.0,0.0,0.0,0.0,0,0,0,0,0,0,0,3,1,0,0,3,1,0,0
125334187,-0.007837232,0.0,0.55089355,0.0,0.0,0.0,0.0,0.0,0.0,0.0,0.0,0,0,0,0,0,0,0,3,1,0,0,3,1,0,0
125525963,-0.0067830943,0.0,0.549274,0.0,0.0,0.0,0.0,0.0,0.0,0.0,0.0,0,0,0,0,0,0,0,3,1,0,0,3,1,0,0
125745998,-0.0036770774,0.0,0.55166423,0.0,0.0,0.0,0.0,0.0,0.0,0.0,0.0,0,0,0,0,0,0,0,3,1,0,0,3,1,0,0
125925348,-4.01816e-05,0.0,0.5514499,0.0,0.0,0.0,0.0,0.0,0.0,0.0,0.0,0,0,0,0,0,0,0,3,1,0,0,3,1,0,0
126153153,1.3820387e-08,0.0,0.5523379,0.0,0.0,0.0,0.0,0.0,0.0,0.0,0.0,0,0,0,0,0,0,0,3,1,0,0,3,1,0,0
126333164,-2.7540295e-11,0.0,0.5527564,0.0,0.0,0.0,0.0,0.0,0.0,0.0,0.0,0,0,0,0,0,0,0,3,1,0,0,3,1,0,0
126536364,2.4196386e-15,0.0,0.55316466,0.0,0.0,0.0,0.0,0.0,0.0,0.0,0.0,0,0,0,0,0,0,0,3,1,0,0,3,1,0,0
126756723,6.086634e-18,0.0,0.5536038,0.0,0.0,0.0,0.0,0.0,0.0,0.0,0.0,0,0,0,0,0,0,0,3,1,0,0,3,1,0,0
126963742,-1.761606e-21,0.0,0.5527937,0.0,0.0,0.0,0.0,0.0,0.0,0.0,0.0,0,0,0,0,0,0,0,3,1,0,0,3,1,0,0
127163726,-1.0392591e-24,0.0,0.55296445,0.0,0.0,0.0,0.0,0.0,0.0,0.0,0.0,0,0,0,0,0,0,0,3,1,0,0,3,1,0,0
127359791,1.6524596e-27,0.0,0.553165,0.0,0.0,0.0,0.0,0.0,0.0,0.0,0.0,0,0,0,0,0,0,0,3,1,0,0,3,1,0,0
127558769,-0.012298034,0.0,0.55180085,0.0,0.0,0.0,0.0,0.0,0.0,0.0,0.0,0,0,0,0,0,0,0,3,1,0,0,3,1,0,0
127758779,-0.011596915,0.0,0.55264044,0.0,0.0,0.0,0.0,0.0,0.0,0.0,0.0,0,0,0,0,0,0,0,3,1,0,0,3,1,0,0
127962134,-0.010468223,0.0,0.5531656,0.0,0.0,0.0,0.0,0.0,0.0,0.0,0.0,0,0,0,0,0,0,0,3,1,0,0,3,1,0,0
128177939,-0.009366679,0.0,0.5532286,0.0,0.0,0.0,0.0,0.0,0.0,0.0,0.0,0,0,0,0,0,0,0,3,1,0,0,3,1,0,0
128378114,-0.010886782,0.0,0.55326825,0.0,0.0,0.0,0.0,0.0,0.0,0.0,0.0,0,0,0,0,0,0,0,3,1,0,0,3,1,0,0
128577187,-0.012823195,0.0,0.55275035,0.0,0.0,0.0,0.0,0.0,0.0,0.0,0.0,0,0,0,0,0,0,0,3,1,0,0,3,1,0,0
128789130,-0.010131537,0.0,0.5526486,0.0,0.0,0.0,0.0,0.0,0.0,0.0,0.0,0,0,0,0,0,0,0,3,1,0,0,3,1,0,0
128979569,-0.007922369,0.0,0.5519093,0.0,0.0,0.0,0.0,0.0,0.0,0.0,0.0,0,0,0,0,0,0,0,3,1,0,0,3,1,0,0
129176577,-0.01833534,0.0,0.5532366,0.0,0.0,0.0,0.0,0.0,0.0,0.0,0.0,0,0,0,0,0,0,0,3,1,0,0,3,1,0,0
129388376,-0.023706093,0.0,0.55315614,0.0,0.0,0.0,0.0,0.0,0.0,0.0,0.0,0,0,0,0,0,0,0,3,1,0,0,3,1,0,0
129592354,-0.027883923,0.0,0.5522726,0.0,0.0,0.0,0.0,0.0,0.0,0.0,0.0,0,0,0,0,0,0,0,3,1,0,0,3,1,0,0
129795619,-0.015667902,0.0,0.5525184,0.0,0.0,0.0,0.0,0.0,0.0,0.0,0.0,0,0,0,0,0,0,0,3,1,0,0,3,1,0,0
129991922,-0.013029424,0.0,0.5532665,0.0,0.0,0.0,0.0,0.0,0.0,0.0,0.0,0,0,0,0,0,0,0,3,1,0,0,3,1,0,0
130210738,-0.010334942,0.0,0.5523489,0.0,0.0,0.0,0.0,0.0,0.0,0.0,0.0,0,0,0,0,0,0,0,3,1,0,0,3,1,0,0
130402757,-0.007927223,0.0,0.5525781,0.0,0.0,0.0,0.0,0.0,0.0,0.0,0.0,0,0,0,0,0,0,0,3,1,0,0,3,1,0,0
130606781,-1.3139527e-05,0.0,0.5507322,0.0,0.0,0.0,0.0,0.0,0.0,0.0,0.0,0,0,0,0,0,0,0,3,1,0,0,3,1,0,0
130805987,-0.007138974,0.0,0.54936635,0.0,0.0,0.0,0.0,0.0,0.0,0.0,0.0,0,0,0,0,0,0,0,3,1,0,0,3,1,0,0
131022136,-0.027665464,0.0,0.5491056,0.0,0.0,0.0,0.0,0.0,0.0,0.0,0.0,0,0,0,0,0,0,0,3,1,0,0,3,1,0,0
131225131,-0.012942207,0.0,0.5470636,0.0,0.0,0.0,0.0,0.0,0.0,0.0,0.0,0,0,0,0,0,0,0,3,1,0,0,3,1,0,0
131413146,-0.008486356,0.0,0.5444704,0.0,0.0,0.0,0.0,0.0,0.0,0.0,0.0,0,0,0,0,0,0,0,3,1,0,0,3,1,0,0
131621185,-0.0076922486,0.0,0.54166913,0.0,0.0,0.0,0.0,0.0,0.0,0.0,0.0,0,0,0,0,0,0,0,3,1,0,0,3,1,0,0
131825961,-0.0076923077,0.0,0.54177225,0.0,0.0,0.0,0.0,0.0,0.0,0.0,0.0,0,0,0,0,0,0,0,3,1,0,0,3,1,0,0
132028365,-0.009180243,0.0,0.5417721,0.0,0.0,0.0,0.0,0.0,0.0,0.0,0.0,0,0,0,0,0,0,0,3,1,0,0,3,1,0,0
132227555,-0.009797284,0.0,0.5417721,0.0,0.0,0.0,0.0,0.0,0.0,0.0,0.0,0,0,0,0,0,0,0,3,1,0,0,3,1,0,0
132427695,-0.008525854,0.0,0.5442846,0.0,0.0,0.0,0.0,0.0,0.0,0.0,0.0,0,0,0,0,0,0,0,3,1,0,0,3,1,0,0
132635788,-0.007569559,0.0,0.5434557,0.0,0.0,0.0,0.0,0.0,0.0,0.0,0.0,0,0,0,0,0,0,0,3,1,0,0,3,1,0,0
132830816,-0.009028938,0.0,0.5443758,0.0,0.0,0.0,0.0,0.0,0.0,0.0,0.0,0,0,0,0,0,0,0,3,1,0,0,3,1,0,0
133043120,-0.008508685,0.0,0.5437552,0.0,0.0,0.0,0.0,0.0,0.0,0.0,0.0,0,0,0,0,0,0,0,3,1,0,0,3,1,0,0
133238185,-0.0059071365,0.0,0.54430383,0.0,0.0,0.0,0.0,0.0,0.0,0.0,0.0,0,0,0,0,0,0,0,3,1,0,0,3,1,0,0
133438316,-0.0073085586,0.0,0.5442628,0.0,0.0,0.0,0.0,0.0,0.0,0.0,0.0,0,0,0,0,0,0,0,3,1,0,0,3,1,0,0
133657973,-0.001693767,0.0,0.5443037,0.0,0.0,0.0,0.0,0.0,0.0,0.0,0.0,0,0,0,0,0,0,0,3,1,0,0,3,1,0,0
133854019,-2.7202825e-06,0.0,0.54433674,0.0,0.0,0.0,0.0,0.0,0.0,0.0,0.0,0,0,0,0,0,0,0,3,1,0,0,3,1,0,0
134065163,-2.3325788e-09,0.0,0.5443019,0.0,0.0,0.0,0.0,0.0,0.0,0.0,0.0,0,0,0,0,0,0,0,3,1,0,0,3,1,0,0
134265524,9.461788e-13,0.0,0.5440423,0.0,0.0,0.0,0.0,0.0,0.0,0.0,0.0,0,0,0,0,0,0,0,3,1,0,0,3,1,0,0
134468516,1.6174436e-16,0.0,0.54337984,0.0,0.0,0.0,0.0,0.0,0.0,0.0,0.0,0,0,0,0,0,0,0,3,1,0,0,3,1,0,0
134676348,-5.416291e-19,0.0,0.54430485,0.0,0.0,0.0,0.0,0.0,0.0,0.0,0.0,0,0,0,0,0,0,0,3,1,0,0,3,1,0,0
134874316,4.0413607e-22,0.0,0.54437464,0.0,0.0,0.0,0.0,0.0,0.0,0.0,0.0,0,0,0,0,0,0,0,3,1,0,0,3,1,0,0
135071614,-1.2336875e-25,0.0,0.5442942,0.0,0.0,0.0,0.0,0.0,0.0,0.0,0.0,0,0,0,0,0,0,0,3,1,0,0,3,1,0,0
135263555,-6.341714e-29,0.0,0.5443038,0.0,0.0,0.0,0.0,0.0,0.0,0.0,0.0,0,0,0,0,0,0,0,3,1,0,0,3,1,0,0
135478802,3.660098e-32,0.0,0.5442628,0.0,0.0,0.0,0.0,0.0,0.0,0.0,0.0,0,0,0,0,0,0,0,3,1,0,0,3,1,0,0
135670800,1.1945082e-36,0.0,0.5443037,0.0,0.0,0.0,0.0,0.0,0.0,0.0,0.0,0,0,0,0,0,0,0,3,1,0,0,3,1,0,0
135886966,-8.64357e-39,0.0,0.544743,0.0,0.0,0.0,0.0,0.0,0.0,0.0,0.0,0,0,0,0,0,0,0,3,1,0,0,3,1,0,0
136082173,1.802e-42,0.0,0.5438644,0.0,0.0,0.0,0.0,0.0,0.0,0.0,0.0,0,0,0,0,0,0,0,3,1,0,0,3,1,0,0
136278133,3e-45,0.0,0.54481834,0.0,0.0,0.0,0.0,0.0,0.0,0.0,0.0,0,0,0,0,0,0,0,3,1,0,0,3,1,0,0
136489515,0.0,0.0,0.5443037,0.0,0.0,0.0,0.0,0.0,0.0,0.0,0.0,0,0,0,0,0,0,0,3,1,0,0,3,1,0,0
136689148,0.0,0.0,0.5443038,0.0,0.0,0.0,0.0,0.0,0.0,0.0,0.0,0,0,0,0,0,0,0,3,1,0,0,3,1,0,0
136905327,0.0,0.0,0.5441474,0.0,0.0,0.0,0.0,0.0,0.0,0.0,0.0,0,0,0,0,0,0,0,3,1,0,0,3,1,0,0
137088338,0.0,0.0,0.54429406,0.0,0.0,0.0,0.0,0.0,0.0,0.0,0.0,0,0,0,0,0,0,0,3,1,0,0,3,1,0,0
137308334,-0.0052279094,0.0,0.54324496,0.0,0.0,0.0,0.0,0.0,0.0,0.0,0.0,0,0,0,0,0,0,0,3,1,0,0,3,1,0,0
137507607,-6.815191e-08,0.0,0.5415199,0.0,0.0,0.0,0.0,0.0,0.0,0.0,0.0,0,0,0,0,0,0,0,3,1,0,0,3,1,0,0
137715597,-0.0097811725,0.0,0.54050565,0.0,0.0,0.0,0.0,0.0,0.0,0.0,0.0,0,0,0,0,0,0,0,3,1,0,0,3,1,0,0
137915539,-0.024695566,0.0,0.53962404,0.0,0.0,0.0,0.0,0.0,0.0,0.0,0.0,0,0,0,0,0,0,0,3,1,0,0,3,1,0,0
138114792,-0.017878752,0.0,0.54057837,0.0,0.0,0.0,0.0,0.0,0.0,0.0,0.0,0,0,0,0,0,0,0,3,1,0,0,3,1,0,0
138318753,-0.007663161,0.0,0.54050386,0.0,0.0,0.0,0.0,0.0,0.0,0.0,0.0,0,0,0,0,0,0,0,3,1,0,0,3,1,0,0
138517969,-3.881731e-05,0.0,0.5405063,0.0,0.0,0.0,0.0,0.0,0.0,0.0,0.0,0,0,0,0,0,0,0,3,1,0,0,3,1,0,0
138726188,2.0382669e-09,0.0,0.5405063,0.0,0.0,0.0,0.0,0.0,0.0,0.0,0.0,0,0,0,0,0,0,0,3,1,0,0,3,1,0,0
138925963,5.401259e-12,0.0,0.5405473,0.0,0.0,0.0,0.0,0.0,0.0,0.0,0.0,0,0,0,0,0,0,0,3,1,0,0,3,1,0,0
139133175,-5.575634e-15,0.0,0.54050636,0.0,0.0,0.0,0.0,0.0,0.0,0.0,0.0,0,0,0,0,0,0,0,3,1,0,0,3,1,0,0
139329516,2.5787831e-18,0.0,0.5405063,0.0,0.0,0.0,0.0,0.0,0.0,0.0,0.0,0,0,0,0,0,0,0,3,1,0,0,3,1,0,0
139521198,1.0993383e-22,0.038863767,0.5400177,0.0,0.0,0.0,0.0,0.0,0.0,0.0,0.0,0,0,0,0,0,0,0,3,1,0,0,3,1,0,0
139716386,-1.1874705e-24,0.048397023,0.5405064,0.0,0.0,0.0,0.0,0.0,0.0,0.0,0.0,0,0,0,0,0,0,0,3,1,0,0,3,1,0,0
139940721,1.2377778e-28,0.041759077,0.5405063,0.0,0.0,0.0,0.0,0.0,0.0,0.0,0.0,0,0,0,0,0,0,0,3,1,0,0,3,1,0,0
140134770,1.5114538e-31,0.024250979,0.54050505,0.0,0.0,0.0,0.0,0.0,0.0,0.0,0.0,0,0,0,0,0,0,0,3,1,0,0,3,1,0,0
140327824,-1.8427482e-34,0.013750674,0.54002607,0.0,0.0,0.0,0.0,0.0,0.0,0.0,0.0,0,0,0,0,0,0,0,3,1,0,0,3,1,0,0
140535728,9.681243e-38,7.1932586e-06,0.5405064,0.0,0.0,0.0,0.0,0.0,0.0,0.0,0.0,0,0,0,0,0,0,0,3,1,0,0,3,1,0,0
140738774,-6.475e-42,-0.07581358,0.5409046,0.0,0.0,0.0,0.0,0.0,0.0,0.0,0.0,0,0,0,0,0,0,0,3,1,0,0,3,1,0,0
140934850,-3.4e-44,-0.08224743,0.54046595,0.0,0.0,0.0,0.0,0.0,0.0,0.0,0.0,0,0,0,0,0,0,0,3,1,0,0,3,1,0,0
141134799,0.0,-0.07787587,0.5405063,0.0,0.0,0.0,0.0,0.0,0.0,0.0,0.0,0,0,0,0,0,0,0,3,1,0,0,3,1,0,0
141350177,0.0,-0.0037317225,0.54090476,0.0,0.0,0.0,0.0,0.0,0.0,0.0,0.0,0,0,0,0,0,0,0,3,1,0,0,3,1,0,0
141549965,0.0,-1.0546565e-06,0.54177225,0.0,0.0,0.0,0.0,0.0,0.0,0.0,0.0,0,0,0,0,0,0,0,3,1,0,0,3,1,0,0
141741991,0.0,2.4998057e-09,0.5417721,0.0,0.0,0.0,0.0,0.0,0.0,0.0,0.0,0,0,0,0,0,0,0,3,1,0,0,3,1,0,0
141957203,0.0,0.041798156,0.54070616,0.0,0.0,0.0,0.0,0.0,0.0,0.0,0.0,0,0,0,0,0,0,0,3,1,0,0,3,1,0,0
142165514,0.0,0.033865742,0.54177094,0.0,0.0,0.0,0.0,0.0,0.0,0.0,0.0,0,0,0,0,0,0,0,3,1,0,0,3,1,0,0
142364374,0.0,0.007718696,0.5417721,0.0,0.0,0.0,0.0,0.0,0.0,0.0,0.0,0,0,0,0,0,0,0,3,1,0,0,3,1,0,0
142552336,0.0,0.0020960646,0.54154485,0.0,0.0,0.0,0.0,0.0,0.0,0.0,0.0,0,0,0,0,0,0,0,3,1,0,0,3,1,0,0
142768332,0.0,-2.49762e-08,0.54177284,0.0,0.0,0.0,0.0,0.0,0.0,0.0,0.0,0,0,0,0,0,0,0,3,1,0,0,3,1,0,0
142967716,0.0,-3.111702e-10,0.5415094,0.0,0.0,0.0,0.0,0.0,0.0,0.0,0.0,0,0,0,0,0,0,0,3,1,0,0,3,1,0,0
143167600,0.0,2.8208395e-13,0.53138787,0.0,0.0,0.0,0.0,0.0,0.0,0.0,0.0,0,0,0,0,0,0,0,3,1,0,0,3,1,0,0
143370954,0.0,-1.1442064e-16,0.52779,0.0,0.0,0.0,0.0,0.0,0.0,0.0,0.0,0,0,0,0,0,0,0,3,1,0,0,3,1,0,0
143574737,0.0,-1.9562624e-20,0.52529293,0.0,0.0,0.0,0.0,0.0,0.0,0.0,0.0,0,0,0,0,0,0,0,3,1,0,0,3,1,0,0
143770929,0.0,6.5501374e-23,0.5253165,0.0,0.0,0.0,0.0,0.0,0.0,0.0,0.0,0,0,0,0,0,0,0,3,1,0,0,3,1,0,0
143989970,0.0,-3.6952244e-27,0.5253165,0.0,0.0,0.0,0.0,0.0,0.0,0.0,0.0,0,0,0,0,0,0,0,3,1,0,0,3,1,0,0
144177992,0.0,1.491865e-29,0.5253248,0.0,0.0,0.0,0.0,0.0,0.0,0.0,0.0,0,0,0,0,0,0,0,3,1,0,0,3,1,0,0
144398163,0.0,9.465565e-33,0.52542156,0.0,0.0,0.0,0.0,0.0,0.0,0.0,0.0,0,0,0,0,0,0,0,3,1,0,0,3,1,0,0
144601212,0.0,-4.4261516e-36,0.525273,0.0,0.0,0.0,0.0,0.0,0.0,0.0,0.0,0,0,0,0,0,0,0,3,1,0,0,3,1,0,0
144793367,0.0,-1.4454e-40,0.5252395,0.0,0.0,0.0,0.0,0.0,0.0,0.0,0.0,0,0,0,0,0,0,0,3,1,0,0,3,1,0,0
144992413,0.0,2e-42,0.5187636,0.0,0.0,0.0,0.0,0.0,0.0,0.0,0.0,0,0,0,0,0,0,0,3,1,0,0,3,1,0,0
145216722,0.0,0.0,0.5088548,0.0,0.0,0.0,0.0,0.0,0.0,0.0,0.0,0,0,0,0,0,0,0,3,1,0,0,3,1,0,0
145416363,0.0,0.0,0.5083378,0.0,0.0,0.0,0.0,0.0,0.0,0.0,0.0,0,0,0,0,0,0,0,3,1,0,0,3,1,0,0
145615728,0.0,0.0,0.505095,0.0,0.0,0.0,0.0,0.0,0.0,0.0,0.0,0,0,0,0,0,0,0,3,1,0,0,3,1,0,0
145815579,0.0,0.0,0.5037892,0.0,0.0,0.0,0.0,0.0,0.0,0.0,0.0,0,0,0,0,0,0,0,3,1,0,0,3,1,0,0
146019785,0.0,0.0,0.49759418,0.0,0.0,0.0,0.0,0.0,0.0,0.0,0.0,0,0,0,0,0,0,0,3,1,0,0,3,1,0,0
146223120,0.0,0.0,0.4837673,0.0,0.0,0.0,0.0,0.0,0.0,0.0,0.0,0,0,0,0,0,0,0,3,1,0,0,3,1,0,0
146422758,0.0,0.0,0.48988375,0.0,0.0,0.0,0.0,0.0,0.0,0.0,0.0,0,0,0,0,0,0,0,3,1,0,0,3,1,0,0
146614164,0.0,0.0,0.4923556,0.0,0.0,0.0,0.0,0.0,0.0,0.0,0.0,0,0,0,0,0,0,0,3,1,0,0,3,1,0,0
146829993,0.0,0.0,0.492405,0.0,0.0,0.0,0.0,0.0,0.0,0.0,0.0,0,0,0,0,0,0,0,3,1,0,0,3,1,0,0
147010012,0.0,0.0,0.49236408,0.0,0.0,0.0,0.0,0.0,0.0,0.0,0.0,0,0,0,0,0,0,0,3,1,0,0,3,1,0,0
147225390,0.0,0.0,0.4924026,0.0,0.0,0.0,0.0,0.0,0.0,0.0,0.0,0,0,0,0,0,0,0,3,1,0,0,3,1,0,0
147441280,0.0,0.0,0.49214357,0.0,0.0,0.0,0.0,0.0,0.0,0.0,0.0,0,0,0,0,0,0,0,3,1,0,0,3,1,0,0
147636428,-0.048502237,0.0,0.49243543,0.0,0.0,0.0,0.0,0.0,0.0,0.0,0.0,0,0,0,0,0,0,0,3,1,0,0,3,1,0,0
147840716,-5.397199e-05,0.0,0.49372765,0.0,0.0,0.0,0.0,0.0,0.0,0.0,0.0,0,0,0,0,0,0,0,3,1,0,0,3,1,0,0
148024546,8.616437e-08,0.0,0.42043838,0.0,0.0,0.0,0.0,0.0,0.0,0.0,0.0,0,0,0,0,0,0,0,3,1,0,0,3,1,0,0
148231531,-3.2992154e-11,0.0,0.4907205,0.0,0.0,0.0,0.0,0.0,0.0,0.0,0.0,0,0,0,0,0,0,0,3,1,0,0,3,1,0,0
148431532,-7.684307e-15,0.0,0.49377608,0.0,0.0,0.0,0.0,0.0,0.0,0.0,0.0,0,0,0,0,0,0,0,3,1,0,0,3,1,0,0
148650773,8.622024e-18,0.0,0.49367088,0.0,0.0,0.0,0.0,0.0,0.0,0.0,0.0,0,0,0,0,0,0,0,3,1,0,0,3,1,0,0
148854752,-8.154369e-22,0.0,0.34726396,0.0,0.0,0.0,0.0,0.0,0.0,0.0,0.0,0,0,0,0,0,0,0,3,1,0,0,3,1,0,0
149042954,-2.9380207e-24,0.0,0.32773352,0.0,0.0,0.0,0.0,0.0,0.0,0.0,0.0,0,0,0,0,0,0,0,3,1,0,0,3,1,0,0
149261939,5.5859205e-28,0.0,0.48392698,0.0,0.0,0.0,0.0,0.0,0.0,0.0,0.0,0,0,0,0,0,0,0,3,1,0,0,3,1,0,0
149461953,3.160942e-31,0.0,0.49340695,0.0,0.0,0.0,0.0,0.0,0.0,0.0,0.0,0,0,0,0,0,0,0,3,1,0,0,3,1,0,0
149658011,-5.122493e-34,0.0,0.49076933,0.0,0.0,0.0,0.0,0.0,0.0,0.0,0.0,0,0,0,0,0,0,0,3,1,0,0,3,1,0,0
149857233,3.1316756e-37,0.0,0.39530772,0.0,0.0,0.0,0.0,0.0,0.0,0.0,0.0,0,0,0,0,0,0,0,3,1,0,0,3,1,0,0
150061342,-5.6429e-41,0.0,0.44249433,0.0,0.0,0.0,0.0,0.0,0.0,0.0,0.0,0,0,0,0,0,0,0,3,1,0,0,3,1,0,0
150257930,-8.4e-44,0.0,0.48788363,0.0,0.0,0.0,0.0,0.0,0.0,0.0,0.0,0,0,0,0,0,0,0,3,1,0,0,3,1,0,0
150476414,0.0,0.0,0.4917844,0.0,0.0,0.0,0.0,0.0,0.0,0.0,0.0,0,0,0,0,0,0,0,3,1,0,0,3,1,0,0
150676730,0.0,0.0,0.32473037,0.0,0.0,0.0,0.0,0.0,0.0,0.0,0.0,0,0,0,0,0,0,0,3,1,0,0,3,1,0,0
150879554,0.0,0.0,0.49586836,0.0,0.0,0.0,0.0,0.0,0.0,0.0,0.0,0,0,0,0,0,0,0,3,1,0,0,3,1,0,0
151075536,0.0,0.0,0.49365923,0.0,0.0,0.0,0.0,0.0,0.0,0.0,0.0,0,0,0,0,0,0,0,3,1,0,0,3,1,0,0
151275602,0.0,0.0,0.49367088,0.0,0.0,0.0,0.0,0.0,0.0,0.0,0.0,0,0,0,0,0,0,0,3,1,0,0,3,1,0,0
151490927,0.0,0.0,0.4936709,0.0,0.0,0.0,0.0,0.0,0.0,0.0,0.0,0,0,0,0,0,0,0,3,1,0,0,3,1,0,0
151686983,0.0,0.0,0.4936709,0.0,0.0,0.0,0.0,0.0,0.0,0.0,0.0,0,0,0,0,0,0,0,3,1,0,0,3,1,0,0
151889384,0.0,0.0,0.4936709,0.0,0.0,0.0,0.0,0.0,0.0,0.0,0.0,0,0,0,0,0,0,0,3,1,0,0,3,1,0,0
152105934,0.0,0.0,0.42164758,0.0,0.0,0.0,0.0,0.0,0.0,0.0,0.0,0,0,0,0,0,0,0,3,1,0,0,3,1,0,0
152289995,0.0,0.0,0.41011387,0.0,0.0,0.0,0.0,0.0,0.0,0.0,0.0,0,0,0,0,0,0,0,3,1,0,0,3,1,0,0
152509531,0.0,0.0,0.40004316,0.0,0.0,0.0,0.0,0.0,0.0,0.0,0.0,0,0,0,0,0,0,0,3,1,0,0,3,1,0,0
152713169,0.0,0.0,0.4169882,0.0,0.0,0.0,0.0,0.0,0.0,0.0,0.0,0,0,0,0,0,0,0,3,1,0,0,3,1,0,0
152908357,0.0,0.0,0.4180954,0.0,0.0,0.0,0.0,0.0,0.0,0.0,0.0,0,0,0,0,0,0,0,3,1,0,0,3,1,0,0
153116552,0.0,0.0,0.49380103,0.0,0.0,0.0,0.0,0.0,0.0,0.0,0.0,0,0,0,0,0,0,0,3,1,0,0,3,1,0,0
153304344,0.0,0.0,0.48215577,0.0,0.0,0.0,0.0,0.0,0.0,0.0,0.0,0,0,0,0,0,0,0,3,1,0,0,3,1,0,0
153507577,0.0,0.0,0.48165885,0.0,0.0,0.0,0.0,0.0,0.0,0.0,0.0,0,0,0,0,0,0,0,3,1,0,0,3,1,0,0
153727750,0.0,0.0,0.4797174,0.0,0.0,0.0,0.0,0.0,0.0,0.0,0.0,0,0,0,0,0,0,0,3,1,0,0,3,1,0,0
153923534,0.0,0.0,0.44513437,0.0,0.0,0.0,0.0,0.0,0.0,0.0,0.0,0,0,0,0,0,0,0,3,1,0,0,3,1,0,0
154114925,0.0,0.0,0.48600367,0.0,0.0,0.0,0.0,0.0,0.0,0.0,0.0,0,0,0,0,0,0,0,3,1,0,0,3,1,0,0
154334741,0.0,0.0,0.49350476,0.0,0.0,0.0,0.0,0.0,0.0,0.0,0.0,0,0,0,0,0,0,0,3,1,0,0,3,1,0,0
154530024,0.0,0.0,0.4936689,0.0,0.0,0.0,0.0,0.0,0.0,0.0,0.0,0,0,0,0,0,0,0,3,1,0,0,3,1,0,0
154741987,0.0,0.0,0.4936709,0.0,0.0,0.0,0.0,0.0,0.0,0.0,0.0,0,0,0,0,0,0,0,3,1,0,0,3,1,0,0
154938021,0.0,0.0,0.49370077,0.0,0.0,0.0,0.0,0.0,0.0,0.0,0.0,0,0,0,0,0,0,0,3,1,0,0,3,1,0,0
155141131,0.0,0.0,0.4936636,0.0,0.0,0.0,0.0,0.0,0.0,0.0,0.0,0,0,0,0,0,0,0,3,1,0,0,3,1,0,0
155337176,0.0,0.0,0.4936709,0.0,0.0,0.0,0.0,0.0,0.0,0.0,0.0,0,0,0,0,0,0,0,3,1,0,0,3,1,0,0
155552555,0.0,0.0,0.4936709,0.0,0.0,0.0,0.0,0.0,0.0,0.0,0.0,0,0,0,0,0,0,0,3,1,0,0,3,1,0,0
155732536,0.0,0.0,0.49450123,0.0,0.0,0.0,0.0,0.0,0.0,0.0,0.0,0,0,0,0,0,0,0,3,1,0,0,3,1,0,0
155940569,0.0,0.0,0.4936706,0.0,0.0,0.0,0.0,0.0,0.0,0.0,0.0,0,0,0,0,0,0,0,3,1,0,0,3,1,0,0
156136360,0.0,0.0,0.49455196,0.0,0.0,0.0,0.0,0.0,0.0,0.0,0.0,0,0,0,0,0,0,0,3,1,0,0,3,1,0,0
156355978,0.0,0.0,0.49366957,0.0,0.0,0.0,0.0,0.0,0.0,0.0,0.0,0,0,0,0,0,0,0,3,1,0,0,3,1,0,0
156555749,0.0,0.0,0.4937103,0.0,0.0,0.0,0.0,0.0,0.0,0.0,0.0,0,0,0,0,0,0,0,3,1,0,0,3,1,0,0
156758746,0.0,0.0,0.49326536,0.0,0.0,0.0,0.0,0.0,0.0,0.0,0.0,0,0,0,0,0,0,0,3,1,0,0,3,1,0,0
156950753,0.0,0.0,0.4936086,0.0,0.0,0.0,0.0,0.0,0.0,0.0,0.0,0,0,0,0,0,0,0,3,1,0,0,3,1,0,0
157158204,0.0,0.0,0.49466693,0.0,0.0,0.0,0.0,0.0,0.0,0.0,0.0,0,0,0,0,0,0,0,3,1,0,0,3,1,0,0
157362316,0.0,0.0,0.4936786,0.0,0.0,0.0,0.0,0.0,0.0,0.0,0.0,0,0,0,0,0,0,0,3,1,0,0,3,1,0,0
157578334,0.0,0.0,0.49429047,0.0,0.0,0.0,0.0,0.0,0.0,0.0,0.0,0,0,0,0,0,0,0,3,1,0,0,3,1,0,0
157773162,0.0,0.0,0.4936061,0.0,0.0,0.0,0.0,0.0,0.0,0.0,0.0,0,0,0,0,0,0,0,3,1,0,0,3,1,0,0
157961133,0.0,0.0,0.49280077,0.0,0.0,0.0,0.0,0.0,0.0,0.0,0.0,0,0,0,0,0,0,0,3,1,0,0,3,1,0,0
