timestamp,roll,pitch,yaw,thrust_body[0],thrust_body[1],thrust_body[2]
29551373,-0.031780005,-0.03427112,3.608181e-05,0.0,0.0,-0.08
29583335,-0.031707358,-0.034317907,3.629563e-05,0.0,0.0,-0.08
29615300,-0.031794287,-0.034274716,3.5927078e-05,0.0,0.0,-0.08
29647372,-0.031909462,-0.03434235,3.6062807e-05,0.0,0.0,-0.08
29679402,-0.03205631,-0.034199584,3.5982936e-05,0.0,0.0,-0.08
29711328,-0.03200579,-0.034299687,3.6050304e-05,0.0,0.0,-0.08
29743309,-0.031969715,-0.034365088,3.5962883e-05,0.0,0.0,-0.08
29775410,-0.03202566,-0.03440088,3.6386275e-05,0.0,0.0,-0.08
29807333,-0.03207835,-0.034431737,3.624186e-05,0.0,0.0,-0.08
29839411,-0.03215083,-0.034392994,3.6529298e-05,0.0,0.0,-0.08
29871306,-0.032070715,-0.03412527,3.6004123e-05,0.0,0.0,-0.08
29903331,-0.032013204,-0.03409715,3.600312e-05,0.0,0.0,-0.08
29935377,-0.031994104,-0.03389999,3.5815738e-05,0.0,0.0,-0.08
29965733,-0.032148473,-0.033955205,3.5746227e-05,0.0,0.0,-0.08
29998490,-0.031701967,-0.033888735,3.585274e-05,0.0,0.0,-0.08
30030620,-0.03167354,-0.033928476,3.5692072e-05,0.0,0.0,-0.08
30062494,-0.031514015,-0.033891596,3.4950288e-05,0.0,0.0,-0.08
30094526,-0.03134777,-0.033826046,3.5713532e-05,0.0,0.0,-0.08
30126534,-0.03171774,-0.033617094,3.571589e-05,0.0,0.0,-0.08
30158582,-0.03202247,-0.033645913,3.601446e-05,0.0,0.0,-0.08
30190530,-0.031954844,-0.03405469,3.6042795e-05,0.0,0.0,-0.08
30222502,-0.031272445,-0.03393809,3.5494446e-05,0.0,0.0,-0.08
30254502,-0.031524815,-0.033602465,3.4568042e-05,0.0,0.0,-0.08
30282553,-0.031956714,-0.03345822,3.5924124e-05,0.0,0.0,-0.08
30314547,-0.0324473,-0.034017973,3.7184862e-05,0.0,0.0,-0.08
30346570,-0.031603765,-0.033807073,3.5177283e-05,0.0,0.0,-0.08
30378509,-0.031754874,-0.033466384,3.473207e-05,0.0,0.0,-0.08
30410556,-0.032756254,-0.033497658,3.6273213e-05,0.0,0.0,-0.08
30442535,-0.032660488,-0.034053102,3.6694626e-05,0.0,0.0,-0.08
30474528,-0.03186103,-0.0334619,3.5545414e-05,0.0,0.0,-0.08
30506505,-0.032212358,-0.033196215,3.5637815e-05,0.0,0.0,-0.08
30538516,-0.032719314,-0.033638764,3.6190148e-05,0.0,0.0,-0.08
30569738,-0.03214167,-0.03367475,3.6364672e-05,0.0,0.0,-0.08
30597753,-0.031604648,-0.033236045,3.441175e-05,0.0,0.0,-0.08
30629745,-0.03221494,-0.033330157,3.5277302e-05,0.0,0.0,-0.08
30661759,-0.03252258,-0.034076847,3.685928e-05,0.0,0.0,-0.08
30693692,-0.032442816,-0.033440214,3.568135e-05,0.0,0.0,-0.08
30725752,-0.03217958,-0.032832507,3.4669145e-05,0.0,0.0,-0.08
30757749,-0.032602694,-0.033645272,3.589518e-05,0.0,0.0,-0.08
30789775,-0.032869358,-0.03360707,3.6711197e-05,0.0,0.0,-0.08
30821716,-0.03282085,-0.032698035,3.5700516e-05,0.0,0.0,-0.08
30849793,-0.03248935,-0.03329984,3.5719582e-05,0.0,0.0,-0.08
30881700,-0.03265689,-0.033721417,3.5586243e-05,0.0,0.0,-0.08
30913760,-0.032856606,-0.032654703,3.5161876e-05,0.0,0.0,-0.08
30945735,-0.032656543,-0.032855704,3.5242298e-05,0.0,0.0,-0.08
30977786,-0.032272153,-0.03389161,3.626226e-05,0.0,0.0,-0.08
31009700,-0.03229866,-0.033195063,3.5704972e-05,0.0,0.0,-0.08
31041765,-0.03276916,-0.03266671,3.610417e-05,0.0,0.0,-0.08
31073737,-0.032528356,-0.03362286,3.5858502e-05,0.0,0.0,-0.08
31101750,-0.032429747,-0.03388348,3.5870973e-05,0.0,0.0,-0.08
31136896,-0.032650508,-0.032684598,3.53219e-05,0.0,0.0,-0.08
31164894,-0.032804072,-0.033379167,3.668431e-05,0.0,0.0,-0.08
31196902,-0.032494076,-0.03441253,3.663586e-05,0.0,0.0,-0.08
31228921,-0.032248747,-0.033333994,3.4851895e-05,0.0,0.0,-0.08
31260953,-0.03271801,-0.03308316,3.6170626e-05,0.0,0.0,-0.08
31292925,-0.03244662,-0.03395167,3.6436133e-05,0.0,0.0,-0.08
31324912,-0.032135997,-0.033669356,3.6237227e-05,0.0,0.0,-0.08
31356941,-0.032778308,-0.0330638,3.566731e-05,0.0,0.0,-0.08
31384936,-0.032551505,-0.033588625,3.6257912e-05,0.0,0.0,-0.08
31416939,-0.0320682,-0.033647865,3.5336412e-05,0.0,0.0,-0.08
31448926,-0.032667134,-0.032549154,3.5780427e-05,0.0,0.0,-0.08
31480895,-0.032665852,-0.033034116,3.566749e-05,0.0,0.0,-0.08
31512939,-0.032282904,-0.033464924,3.5366582e-05,0.0,0.0,-0.08
31544938,-0.032125488,-0.032899886,3.5121066e-05,0.0,0.0,-0.08
31575335,-0.03252886,-0.032740016,3.4638262e-05,0.0,0.0,-0.08
31608122,-0.032093227,-0.033129893,3.5162644e-05,0.0,0.0,-0.08
31640899,-0.0318918,-0.03239365,3.415331e-05,0.0,0.0,-0.08
31672151,-0.031799357,-0.032318655,3.4011857e-05,0.0,0.0,-0.08
31700186,-0.032019865,-0.032407578,3.416691e-05,0.0,0.0,-0.08
31732155,-0.03188601,-0.0327492,3.470468e-05,0.0,0.0,-0.08
31764153,-0.031777777,-0.032136578,3.380704e-05,0.0,0.0,-0.08
31796107,-0.031786498,-0.03240787,3.3995788e-05,0.0,0.0,-0.08
31828171,-0.03168968,-0.032664604,3.4385754e-05,0.0,0.0,-0.08
31860165,-0.031666182,-0.03231795,3.4325545e-05,0.0,0.0,-0.08
31892143,-0.031434506,-0.032340657,3.393869e-05,0.0,0.0,-0.08
31924126,-0.031286933,-0.03271792,3.341042e-05,0.0,0.0,-0.08
31952157,-0.031308066,-0.03229902,3.370041e-05,0.0,0.0,-0.08
31984104,-0.031571526,-0.032362748,3.363294e-05,0.0,0.0,-0.08
32016189,-0.031532135,-0.032564614,3.359052e-05,0.0,0.0,-0.08
32048136,-0.03143511,-0.03208444,3.3192337e-05,0.0,0.0,-0.08
32080149,-0.031879716,-0.03206587,3.4381792e-05,0.0,0.0,-0.08
32112142,-0.03181773,-0.03248932,3.426556e-05,0.0,0.0,-0.08
32143352,-0.031559646,-0.032027483,3.3333825e-05,0.0,0.0,-0.08
32176144,-0.031764448,-0.031772286,3.3260327e-05,0.0,0.0,-0.08
32204164,-0.031581372,-0.032158602,3.3168988e-05,0.0,0.0,-0.08
32239372,-0.03127634,-0.03198354,3.3279903e-05,0.0,0.0,-0.08
32271357,-0.03158842,-0.03147763,3.3132554e-05,0.0,0.0,-0.08
32303308,-0.031626113,-0.031794265,3.27332e-05,0.0,0.0,-0.08
32335330,-0.031146485,-0.0318722,3.2738644e-05,0.0,0.0,-0.08
32367358,-0.031308018,-0.03136959,3.2642325e-05,0.0,0.0,-0.08
32399431,-0.03166062,-0.03145971,3.325407e-05,0.0,0.0,-0.08
32431371,-0.03119498,-0.031664584,3.2751715e-05,0.0,0.0,-0.08
32463356,-0.031293605,-0.031298604,3.2249853e-05,0.0,0.0,-0.08
32495343,-0.031833015,-0.03125469,3.3049222e-05,0.0,0.0,-0.08
32527362,-0.031896077,-0.031482488,3.3293007e-05,0.0,0.0,-0.08
32559424,-0.031861734,-0.03151641,3.3112472e-05,0.0,0.0,-0.08
32591315,-0.0327118,-0.031139078,3.345671e-05,0.0,0.0,-0.08
32623308,-0.032919504,-0.03177002,3.5008623e-05,0.0,0.0,-0.08
32655322,-0.033035647,-0.031928007,3.4997836e-05,0.0,0.0,-0.08
32687364,-0.032571975,-0.031537615,3.3565342e-05,0.0,0.0,-0.08
32719362,-0.032431774,-0.03137166,3.3260814e-05,0.0,0.0,-0.08
32750547,-0.031890023,-0.031737626,3.351488e-05,0.0,0.0,-0.08
32782613,-0.031971183,-0.031314477,3.3225657e-05,0.0,0.0,-0.08
32814495,-0.03159242,-0.031116849,3.2551794e-05,0.0,0.0,-0.08
32846495,-0.031294577,-0.03137333,3.1934862e-05,0.0,0.0,-0.08
32878503,-0.031577747,-0.031271957,3.2497446e-05,0.0,0.0,-0.08
32910538,-0.031464167,-0.031060085,3.2434808e-05,0.0,0.0,-0.08
32942519,-0.031508315,-0.031280857,3.265294e-05,0.0,0.0,-0.08
32974512,-0.031607125,-0.031420942,3.3404325e-05,0.0,0.0,-0.08
33002493,-0.031707633,-0.031329993,3.298117e-05,0.0,0.0,-0.08
33034546,-0.031562798,-0.031188373,3.2829772e-05,0.0,0.0,-0.08
33066538,-0.030981246,-0.031027071,3.1336953e-05,0.0,0.0,-0.08
33098569,-0.03115237,-0.031379826,3.2484928e-05,0.0,0.0,-0.08
33130505,-0.031523895,-0.03112889,3.281993e-05,0.0,0.0,-0.08
33162492,-0.03122216,-0.030979577,3.1616273e-05,0.0,0.0,-0.08
33194561,-0.031332705,-0.03133293,3.2351865e-05,0.0,0.0,-0.08
33226536,-0.031081228,-0.03131427,3.2147796e-05,0.0,0.0,-0.08
33257725,-0.031101022,-0.031249436,3.2692566e-05,0.0,0.0,-0.08
33285764,-0.031183487,-0.031459186,3.237852e-05,0.0,0.0,-0.08
33317691,-0.031174082,-0.031381465,3.290812e-05,0.0,0.0,-0.08
33349753,-0.03127901,-0.031452745,3.23308e-05,0.0,0.0,-0.08
33381745,-0.031191971,-0.031390525,3.233442e-05,0.0,0.0,-0.08
33413772,-0.031277005,-0.03175355,3.2647764e-05,0.0,0.0,-0.08
33445697,-0.030979447,-0.031800136,3.272357e-05,0.0,0.0,-0.08
33477755,-0.031007148,-0.031093601,3.183908e-05,0.0,0.0,-0.08
33509745,-0.030999606,-0.031551447,3.2744607e-05,0.0,0.0,-0.08
33541800,-0.031209782,-0.031689778,3.3296055e-05,0.0,0.0,-0.08
33573696,-0.030673193,-0.031524494,3.173334e-05,0.0,0.0,-0.08
33605765,-0.03134912,-0.03147319,3.2726173e-05,0.0,0.0,-0.08
33637741,-0.031509936,-0.031653598,3.284088e-05,0.0,0.0,-0.08
33669760,-0.031665064,-0.030965101,3.2779033e-05,0.0,0.0,-0.08
33701698,-0.03146243,-0.031031588,3.2304222e-05,0.0,0.0,-0.08
33733693,-0.03180506,-0.031502135,3.370436e-05,0.0,0.0,-0.08
33761706,-0.031756688,-0.03130271,3.3215358e-05,0.0,0.0,-0.08
33796944,-0.03131018,-0.031284064,3.258138e-05,0.0,0.0,-0.08
33824938,-0.031236134,-0.031379353,3.203195e-05,0.0,0.0,-0.08
33856926,-0.03211231,-0.031304125,3.285557e-05,0.0,0.0,-0.08
33888894,-0.03216495,-0.03122582,3.3058852e-05,0.0,0.0,-0.08
33920970,-0.03177331,-0.031328857,3.3494227e-05,0.0,0.0,-0.08
33952967,-0.031914327,-0.031278536,3.2022373e-05,0.0,0.0,-0.08
33984937,-0.03186715,-0.031464428,3.3399385e-05,0.0,0.0,-0.08
34016921,-0.032202438,-0.03144415,3.3758268e-05,0.0,0.0,-0.08
34044920,-0.031793017,-0.031484667,3.2815282e-05,0.0,0.0,-0.08
34076896,-0.032021638,-0.031293374,3.373366e-05,0.0,0.0,-0.08
34108956,-0.031994257,-0.031298347,3.337399e-05,0.0,0.0,-0.08
34140930,-0.03187219,-0.031406377,3.3118944e-05,0.0,0.0,-0.08
34172964,-0.03179682,-0.031475734,3.3091725e-05,0.0,0.0,-0.08
34204936,-0.03242788,-0.03171495,3.4157703e-05,0.0,0.0,-0.08
34236979,-0.032204546,-0.031797335,3.411996e-05,0.0,0.0,-0.08
34268929,-0.03219679,-0.032050237,3.3962988e-05,0.0,0.0,-0.08
34300937,-0.032308362,-0.031606093,3.3466575e-05,0.0,0.0,-0.08
34328893,-0.03249544,-0.031917024,3.396554e-05,0.0,0.0,-0.08
34359378,-0.03306783,-0.03165714,3.5270674e-05,0.0,0.0,-0.08
34395384,-0.03319734,-0.031442944,3.398775e-05,0.0,0.0,-0.08
34424155,-0.033062477,-0.03141293,3.450932e-05,0.0,0.0,-0.08
34456123,-0.03310897,-0.031665742,3.4503035e-05,0.0,0.0,-0.08
34488124,-0.03326031,-0.03161303,3.459067e-05,0.0,0.0,-0.08
34520121,-0.032535464,-0.031187538,3.343082e-05,0.0,0.0,-0.08
34552198,-0.032901425,-0.03101643,3.313956e-05,0.0,0.0,-0.08
34584119,-0.033013508,-0.031038586,3.3798296e-05,0.0,0.0,-0.08
34612160,-0.033154573,-0.030850083,3.3761615e-05,0.0,0.0,-0.08
34644119,-0.032621145,-0.031191293,3.354319e-05,0.0,0.0,-0.08
34676153,-0.03226127,-0.031474054,3.3307148e-05,0.0,0.0,-0.08
34708147,-0.03273092,-0.031304915,3.361411e-05,0.0,0.0,-0.08
34740151,-0.032906022,-0.031013282,3.354256e-05,0.0,0.0,-0.08
34772119,-0.032951485,-0.031230796,3.3447264e-05,0.0,0.0,-0.08
34804142,-0.03272136,-0.031474054,3.43892e-05,0.0,0.0,-0.08
34836170,-0.032780413,-0.031349506,3.3816646e-05,0.0,0.0,-0.08
34864142,-0.032842316,-0.031495553,3.4378474e-05,0.0,0.0,-0.08
34896194,-0.032245312,-0.03150835,3.31404e-05,0.0,0.0,-0.08
34927340,-0.03225342,-0.031867836,3.4158198e-05,0.0,0.0,-0.08
34958550,-0.0325806,-0.031731647,3.454457e-05,0.0,0.0,-0.08
34991324,-0.032478023,-0.031494185,3.3565022e-05,0.0,0.0,-0.08
35023372,-0.032646086,-0.030972607,3.3549295e-05,0.0,0.0,-0.08
35055310,-0.032199882,-0.031305514,3.3251003e-05,0.0,0.0,-0.08
35087332,-0.032335386,-0.031967163,3.3613993e-05,0.0,0.0,-0.08
35119370,-0.032319427,-0.03178983,3.4140434e-05,0.0,0.0,-0.08
35151395,-0.032237537,-0.031613547,3.3874236e-05,0.0,0.0,-0.08
35183311,-0.032162335,-0.031492043,3.2714146e-05,0.0,0.0,-0.08
35215294,-0.031943373,-0.03216047,3.3723216e-05,0.0,0.0,-0.08
35247313,-0.032183513,-0.032141197,3.4042023e-05,0.0,0.0,-0.08
35279451,-0.03204528,-0.03234881,3.4675635e-05,0.0,0.0,-0.08
35311307,-0.03219155,-0.031943176,3.3412027e-05,0.0,0.0,-0.08
35343300,-0.03222397,-0.03209516,3.4184297e-05,0.0,0.0,-0.08
35375370,-0.032851633,-0.0322569,3.5474215e-05,0.0,0.0,-0.08
35403373,-0.032170426,-0.031920552,3.354686e-05,0.0,0.0,-0.08
35435359,-0.032252,-0.032268476,3.3920733e-05,0.0,0.0,-0.08
35466582,-0.032008264,-0.032081455,3.3649027e-05,0.0,0.0,-0.08
35498494,-0.032079533,-0.032439787,3.4556895e-05,0.0,0.0,-0.08
35529729,-0.032063633,-0.032082334,3.3663844e-05,0.0,0.0,-0.08
35562537,-0.03202108,-0.032042094,3.415869e-05,0.0,0.0,-0.08
35594589,-0.03198126,-0.032221038,3.3690525e-05,0.0,0.0,-0.08
35626502,-0.031733602,-0.032363024,3.4474942e-05,0.0,0.0,-0.08
35658547,-0.031913564,-0.03214008,3.3806806e-05,0.0,0.0,-0.08
35690523,-0.032113392,-0.031825952,3.3828608e-05,0.0,0.0,-0.08
35718534,-0.032203533,-0.031672236,3.350253e-05,0.0,0.0,-0.08
35750532,-0.03266823,-0.031878434,3.4713892e-05,0.0,0.0,-0.08
35782565,-0.03244146,-0.031833872,3.3876244e-05,0.0,0.0,-0.08
35814498,-0.03168988,-0.03194185,3.337921e-05,0.0,0.0,-0.08
35846567,-0.03172203,-0.031825338,3.3468612e-05,0.0,0.0,-0.08
35878543,-0.031756785,-0.031559117,3.3578977e-05,0.0,0.0,-0.08
35910569,-0.032084964,-0.031810116,3.4363453e-05,0.0,0.0,-0.08
35938547,-0.03184664,-0.031803437,3.3126125e-05,0.0,0.0,-0.08
35973772,-0.031257343,-0.031970445,3.3065888e-05,0.0,0.0,-0.08
36005725,-0.031457968,-0.032116875,3.3276858e-05,0.0,0.0,-0.08
36037716,-0.031842,-0.032017898,3.359125e-05,0.0,0.0,-0.08
36069694,-0.032081716,-0.031763654,3.442608e-05,0.0,0.0,-0.08
36101764,-0.03197142,-0.03152108,3.297324e-05,0.0,0.0,-0.08
36133725,-0.031880952,-0.032029685,3.325781e-05,0.0,0.0,-0.08
36165738,-0.031397276,-0.03185243,3.2995908e-05,0.0,0.0,-0.08
36197716,-0.031088162,-0.03177046,3.209816e-05,0.0,0.0,-0.08
36225721,-0.031202823,-0.03180253,3.2028274e-05,0.0,0.0,-0.08
36257707,-0.031312887,-0.032017767,3.369149e-05,0.0,0.0,-0.08
36289771,-0.031847622,-0.031780515,3.2967753e-05,0.0,0.0,-0.08
36321743,-0.03184742,-0.03214731,3.3888056e-05,0.0,0.0,-0.08
36353749,-0.03194167,-0.032148045,3.4751254e-05,0.0,0.0,-0.08
36385694,-0.031589866,-0.032118827,3.2589367e-05,0.0,0.0,-0.08
36417780,-0.031976573,-0.031953264,3.3189568e-05,0.0,0.0,-0.08
36449747,-0.03227514,-0.031653687,3.4155273e-05,0.0,0.0,-0.08
36477750,-0.03203878,-0.03195042,3.355039e-05,0.0,0.0,-0.08
36509738,-0.031657677,-0.031938,3.3898283e-05,0.0,0.0,-0.08
36541732,-0.031663135,-0.03182094,3.3401106e-05,0.0,0.0,-0.08
36573008,-0.031323753,-0.031517982,3.2866134e-05,0.0,0.0,-0.08
36604932,-0.031423893,-0.03130661,3.238404e-05,0.0,0.0,-0.08
36636891,-0.031396434,-0.031242816,3.230747e-05,0.0,0.0,-0.08
36668912,-0.031553403,-0.03153097,3.3316763e-05,0.0,0.0,-0.08
36700944,-0.03167963,-0.031322204,3.3275297e-05,0.0,0.0,-0.08
36733036,-0.031479906,-0.03154451,3.327197e-05,0.0,0.0,-0.08
36764896,-0.03166114,-0.03143767,3.37545e-05,0.0,0.0,-0.08
36792975,-0.031413533,-0.03152727,3.240612e-05,0.0,0.0,-0.08
36824898,-0.03174749,-0.03147533,3.348734e-05,0.0,0.0,-0.08
36856907,-0.03160142,-0.031595454,3.36427e-05,0.0,0.0,-0.08
36888926,-0.031176915,-0.031679492,3.2152166e-05,0.0,0.0,-0.08
36920989,-0.03073079,-0.031626344,3.1644682e-05,0.0,0.0,-0.08
36952928,-0.030843241,-0.031987827,3.267151e-05,0.0,0.0,-0.08
36984929,-0.03112309,-0.031791076,3.246268e-05,0.0,0.0,-0.08
37016921,-0.031155042,-0.031818695,3.361718e-05,0.0,0.0,-0.08
37044943,-0.031017333,-0.03171887,3.273065e-05,0.0,0.0,-0.08
37076935,-0.031102857,-0.032135125,3.316068e-05,0.0,0.0,-0.08
37108107,-0.031511497,-0.031923667,3.3117296e-05,0.0,0.0,-0.08
37140892,-0.03131286,-0.032083936,3.3140663e-05,0.0,0.0,-0.08
37172141,-0.031129116,-0.03208342,3.3400738e-05,0.0,0.0,-0.08
37204186,-0.031153668,-0.03214851,3.318532e-05,0.0,0.0,-0.08
37236123,-0.0316213,-0.03224879,3.347643e-05,0.0,0.0,-0.08
37268141,-0.031763006,-0.032141417,3.3262295e-05,0.0,0.0,-0.08
37300144,-0.031565104,-0.03197593,3.331057e-05,0.0,0.0,-0.08
37328168,-0.031747628,-0.03201364,3.3514774e-05,0.0,0.0,-0.08
37360113,-0.031740066,-0.032424167,3.389812e-05,0.0,0.0,-0.08
37392178,-0.03168373,-0.03257925,3.3902248e-05,0.0,0.0,-0.08
37424109,-0.03134718,-0.032377176,3.328816e-05,0.0,0.0,-0.08
37456140,-0.031902615,-0.032487303,3.3964876e-05,0.0,0.0,-0.08
37488138,-0.032107886,-0.0326835,3.4670455e-05,0.0,0.0,-0.08
37520188,-0.03200862,-0.032711443,3.4314064e-05,0.0,0.0,-0.08
37552113,-0.031685226,-0.032719303,3.395521e-05,0.0,0.0,-0.08
37580200,-0.03144952,-0.032564733,3.3499953e-05,0.0,0.0,-0.08
37612110,-0.03137675,-0.0326247,3.37883e-05,0.0,0.0,-0.08
37644150,-0.03160081,-0.032118663,3.3766923e-05,0.0,0.0,-0.08
37675331,-0.03159664,-0.032281194,3.4151468e-05,0.0,0.0,-0.08
37707347,-0.03161728,-0.03295685,3.4322213e-05,0.0,0.0,-0.08
37739354,-0.031729117,-0.032892413,3.4602905e-05,0.0,0.0,-0.08
37771351,-0.03138084,-0.03268821,3.402816e-05,0.0,0.0,-0.08
37803339,-0.031215716,-0.03240518,3.3327247e-05,0.0,0.0,-0.08
37835376,-0.031215714,-0.032695197,3.3534227e-05,0.0,0.0,-0.08
37867359,-0.031454153,-0.032547392,3.433384e-05,0.0,0.0,-0.08
37899393,-0.0312103,-0.032727294,3.3852935e-05,0.0,0.0,-0.08
37931336,-0.031206958,-0.032563046,3.336075e-05,0.0,0.0,-0.08
37963372,-0.030976485,-0.032444917,3.286745e-05,0.0,0.0,-0.08
37995315,-0.031457547,-0.032381326,3.434942e-05,0.0,0.0,-0.08
38027356,-0.031841934,-0.032885537,3.4725424e-05,0.0,0.0,-0.08
38059402,-0.03150463,-0.033120293,3.548635e-05,0.0,0.0,-0.08
38091388,-0.031069925,-0.032883838,3.3698107e-05,0.0,0.0,-0.08
38123294,-0.031285528,-0.032882854,3.4202876e-05,0.0,0.0,-0.08
38155348,-0.031661246,-0.032855686,3.4184923e-05,0.0,0.0,-0.08
38187325,-0.031094981,-0.0332636,3.441847e-05,0.0,0.0,-0.08
38218567,-0.030742291,-0.033022158,3.374482e-05,0.0,0.0,-0.08
38249746,-0.030999085,-0.032949213,3.3600038e-05,0.0,0.0,-0.08
38282548,-0.031174101,-0.032604616,3.350399e-05,0.0,0.0,-0.08
38314532,-0.030999731,-0.03257092,3.420261e-05,0.0,0.0,-0.08
38346564,-0.03135497,-0.032512996,3.428301e-05,0.0,0.0,-0.08
38374555,-0.031441804,-0.032497868,3.381368e-05,0.0,0.0,-0.08
38406521,-0.03145509,-0.03265779,3.4017565e-05,0.0,0.0,-0.08
38438491,-0.031469688,-0.032654297,3.4230623e-05,0.0,0.0,-0.08
38470578,-0.03131352,-0.032753874,3.381609e-05,0.0,0.0,-0.08
38502542,-0.031578057,-0.032749515,3.4115903e-05,0.0,0.0,-0.08
38534534,-0.03161576,-0.032971162,3.497985e-05,0.0,0.0,-0.08
38566508,-0.03131415,-0.03288588,3.4256445e-05,0.0,0.0,-0.08
38598583,-0.03126968,-0.033024825,3.4875186e-05,0.0,0.0,-0.08
38630551,-0.031517576,-0.032867238,3.4931752e-05,0.0,0.0,-0.08
38662548,-0.03180312,-0.032821313,3.453379e-05,0.0,0.0,-0.08
38694505,-0.031840224,-0.03285691,3.445806e-05,0.0,0.0,-0.08
38726548,-0.031827465,-0.032959238,3.467932e-05,0.0,0.0,-0.08
38757743,-0.03178232,-0.032748863,3.428312e-05,0.0,0.0,-0.08
38789749,-0.031993967,-0.03299159,3.5132878e-05,0.0,0.0,-0.08
38820939,-0.031950504,-0.03294271,3.465523e-05,0.0,0.0,-0.08
38850557,-0.031700335,-0.03290528,3.4930254e-05,0.0,0.0,-0.08
38881691,-0.03151001,-0.03265323,3.459872e-05,0.0,0.0,-0.08
38913747,-0.031776402,-0.032816704,3.482861e-05,0.0,0.0,-0.08
38941736,-0.03175038,-0.033045642,3.4932793e-05,0.0,0.0,-0.08
38973744,-0.03201724,-0.03346451,3.5190897e-05,0.0,0.0,-0.08
39005700,-0.03187074,-0.03310692,3.5157438e-05,0.0,0.0,-0.08
39037712,-0.031855363,-0.0327707,3.5030826e-05,0.0,0.0,-0.08
39069744,-0.03206152,-0.03276068,3.4698103e-05,0.0,0.0,-0.08
39101737,-0.03210429,-0.032666832,3.4913814e-05,0.0,0.0,-0.08
39133696,-0.03239083,-0.03305106,3.570558e-05,0.0,0.0,-0.08
39165708,-0.031954072,-0.03290336,3.4771758e-05,0.0,0.0,-0.08
39193697,-0.031859905,-0.03294607,3.450202e-05,0.0,0.0,-0.08
39225699,-0.032018654,-0.033042807,3.5130102e-05,0.0,0.0,-0.08
39257711,-0.031956974,-0.03305618,3.4795783e-05,0.0,0.0,-0.08
39289785,-0.031912453,-0.03267355,3.3999375e-05,0.0,0.0,-0.08
39320925,-0.032127295,-0.032777183,3.55024e-05,0.0,0.0,-0.08
39352144,-0.03262991,-0.03313939,3.583183e-05,0.0,0.0,-0.08
39384997,-0.032215714,-0.033199005,3.505598e-05,0.0,0.0,-0.08
39416967,-0.03258867,-0.03341282,3.6401623e-05,0.0,0.0,-0.08
39448898,-0.03254091,-0.033122145,3.5693487e-05,0.0,0.0,-0.08
39480945,-0.032696344,-0.033275057,3.6063717e-05,0.0,0.0,-0.08
39512994,-0.032477252,-0.03293711,3.4988898e-05,0.0,0.0,-0.08
39544944,-0.033078793,-0.033051793,3.725282e-05,0.0,0.0,-0.08
39576913,-0.032710206,-0.033178188,3.6029858e-05,0.0,0.0,-0.08
39608932,-0.032721046,-0.033298556,3.6316702e-05,0.0,0.0,-0.08
39640934,-0.032762866,-0.032891158,3.5722085e-05,0.0,0.0,-0.08
39673033,-0.032689594,-0.032788336,3.5178295e-05,0.0,0.0,-0.08
39704894,-0.032746706,-0.033165764,3.6091824e-05,0.0,0.0,-0.08
39736919,-0.032494996,-0.03330837,3.585152e-05,0.0,0.0,-0.08
39768929,-0.032975785,-0.032996584,3.6268637e-05,0.0,0.0,-0.08
39800989,-0.03274704,-0.03272263,3.605757e-05,0.0,0.0,-0.08
39832949,-0.033308882,-0.03289141,3.54702e-05,0.0,0.0,-0.08
39864917,-0.032652784,-0.03315913,3.5837147e-05,0.0,0.0,-0.08
39896151,-0.032645337,-0.033119738,3.5682257e-05,0.0,0.0,-0.08
39928145,-0.032510012,-0.033331703,3.577581e-05,0.0,0.0,-0.08
39960126,-0.032906145,-0.03333292,3.6202488e-05,0.0,0.0,-0.08
39988128,-0.0330481,-0.03336432,3.619218e-05,0.0,0.0,-0.08
40020112,-0.032963585,-0.033203468,3.6061658e-05,0.0,0.0,-0.08
40052132,-0.033287153,-0.033309504,3.711002e-05,0.0,0.0,-0.08
40084146,-0.03346165,-0.033208825,3.6357338e-05,0.0,0.0,-0.08
40116101,-0.033359762,-0.03332953,3.654955e-05,0.0,0.0,-0.08
40148125,-0.032678913,-0.033311646,3.5890884e-05,0.0,0.0,-0.08
40180127,-0.032793537,-0.033511925,3.5944708e-05,0.0,0.0,-0.08
40212146,-0.032879498,-0.033070344,3.6863952e-05,0.0,0.0,-0.08
40240141,-0.033027284,-0.03343213,3.631952e-05,0.0,0.0,-0.08
40272176,-0.032620583,-0.03322101,3.5674908e-05,0.0,0.0,-0.08
40304099,-0.033159867,-0.03323978,3.5649813e-05,0.0,0.0,-0.08
40336115,-0.033039436,-0.032993473,3.6219168e-05,0.0,0.0,-0.08
40368108,-0.03289497,-0.03303983,3.6119374e-05,0.0,0.0,-0.08
40399419,-0.03278906,-0.03315591,3.5492172e-05,0.0,0.0,-0.08
40431334,-0.033191137,-0.03290031,3.620115e-05,0.0,0.0,-0.08
40463335,-0.03348038,-0.03293169,3.6862806e-05,0.0,0.0,-0.08
40495339,-0.03262204,-0.032941483,3.5541783e-05,0.0,0.0,-0.08
40527417,-0.032310784,-0.03325992,3.5804023e-05,0.0,0.0,-0.08
40555366,-0.032134272,-0.03289737,3.5017452e-05,0.0,0.0,-0.08
40587373,-0.03224109,-0.033391364,3.572074e-05,0.0,0.0,-0.08
40619355,-0.03199076,-0.033164337,3.527739e-05,0.0,0.0,-0.08
40651370,-0.03251683,-0.03296119,3.5322486e-05,0.0,0.0,-0.08
40683330,-0.032991625,-0.03305475,3.6544563e-05,0.0,0.0,-0.08
40715375,-0.032784257,-0.033089243,3.5583536e-05,0.0,0.0,-0.08
40747341,-0.0325137,-0.032961983,3.493808e-05,0.0,0.0,-0.08
40779404,-0.032394834,-0.03299176,3.4982306e-05,0.0,0.0,-0.08
40811335,-0.032425597,-0.033207636,3.5532634e-05,0.0,0.0,-0.08
40843391,-0.032620806,-0.033172037,3.5416924e-05,0.0,0.0,-0.08
40875304,-0.032396816,-0.03332866,3.504778e-05,0.0,0.0,-0.08
40907305,-0.031591296,-0.03321327,3.4803776e-05,0.0,0.0,-0.08
40939428,-0.031941388,-0.033031777,3.458791e-05,0.0,0.0,-0.08
40970551,-0.032107994,-0.032943096,3.5204255e-05,0.0,0.0,-0.08
41002505,-0.03255303,-0.033328265,3.6177786e-05,0.0,0.0,-0.08
41033800,-0.032408852,-0.0328508,3.5554174e-05,0.0,0.0,-0.08
41066543,-0.03218385,-0.03315126,3.564281e-05,0.0,0.0,-0.08
41098537,-0.032625567,-0.033605266,3.5953053e-05,0.0,0.0,-0.08
41130498,-0.032375693,-0.033549204,3.642407e-05,0.0,0.0,-0.08
41162566,-0.032387342,-0.033433206,3.5588244e-05,0.0,0.0,-0.08
41194548,-0.03193625,-0.033499487,3.5234007e-05,0.0,0.0,-0.08
41226491,-0.03233711,-0.033460923,3.5642264e-05,0.0,0.0,-0.08
41258507,-0.031639576,-0.032490976,3.4242494e-05,0.0,0.0,-0.08
41290512,-0.03229895,-0.032833256,3.4689132e-05,0.0,0.0,-0.08
41322537,-0.03230978,-0.033293054,3.557718e-05,0.0,0.0,-0.08
41354538,-0.03237913,-0.03305891,3.5696874e-05,0.0,0.0,-0.08
41386516,-0.0326782,-0.033181507,3.5114223e-05,0.0,0.0,-0.08
41418525,-0.03239127,-0.0331315,3.5667344e-05,0.0,0.0,-0.08
41450552,-0.032589316,-0.033143193,3.5508878e-05,0.0,0.0,-0.08
41482542,-0.03230639,-0.032621946,3.4335397e-05,0.0,0.0,-0.08
41513690,-0.032970387,-0.033238444,3.62653e-05,0.0,0.0,-0.08
41545721,-0.03250619,-0.032976955,3.4921322e-05,0.0,0.0,-0.08
41573702,-0.033348296,-0.032992397,3.6790443e-05,0.0,0.0,-0.08
41605751,-0.032920845,-0.032689434,3.6031943e-05,0.0,0.0,-0.08
41637744,-0.033267252,-0.032791343,3.5913206e-05,0.0,0.0,-0.08
41669736,-0.03293143,-0.03241293,3.5437206e-05,0.0,0.0,-0.08
41701704,-0.03293301,-0.03292508,3.604027e-05,0.0,0.0,-0.08
41733769,-0.03271275,-0.032632247,3.580123e-05,0.0,0.0,-0.08
41765750,-0.03247058,-0.032298226,3.4185083e-05,0.0,0.0,-0.08
41797704,-0.033150036,-0.032299466,3.5379606e-05,0.0,0.0,-0.08
41825737,-0.032833382,-0.03247129,3.554349e-05,0.0,0.0,-0.08
41857780,-0.03310715,-0.032525808,3.577641e-05,0.0,0.0,-0.08
41889699,-0.032928433,-0.0325426,3.524318e-05,0.0,0.0,-0.08
41921762,-0.03358834,-0.03275731,3.637057e-05,0.0,0.0,-0.08
41953743,-0.0334172,-0.032569855,3.6513844e-05,0.0,0.0,-0.08
41985761,-0.033761125,-0.03283366,3.6728536e-05,0.0,0.0,-0.08
42017709,-0.03343259,-0.03259217,3.6011155e-05,0.0,0.0,-0.08
42048979,-0.033536427,-0.03266399,3.635959e-05,0.0,0.0,-0.08
42080891,-0.033528823,-0.032650612,3.703334e-05,0.0,0.0,-0.08
42112976,-0.03340777,-0.032838456,3.6354064e-05,0.0,0.0,-0.08
42140895,-0.03388207,-0.032817498,3.6869897e-05,0.0,0.0,-0.08
42172966,-0.033378366,-0.032748286,3.6743924e-05,0.0,0.0,-0.08
42204923,-0.033424765,-0.032747667,3.581628e-05,0.0,0.0,-0.08
42236971,-0.032936063,-0.032400247,3.5771158e-05,0.0,0.0,-0.08
42268908,-0.033419505,-0.032900944,3.6997262e-05,0.0,0.0,-0.08
42300939,-0.032918397,-0.03292494,3.5653942e-05,0.0,0.0,-0.08
42332946,-0.033644043,-0.033004,3.7040783e-05,0.0,0.0,-0.08
42364962,-0.033453505,-0.0327317,3.708373e-05,0.0,0.0,-0.08
42392964,-0.034004427,-0.03306927,3.7148846e-05,0.0,0.0,-0.08
42424942,-0.033470318,-0.032410014,3.5691053e-05,0.0,0.0,-0.08
42456898,-0.03352136,-0.032273863,3.582797e-05,0.0,0.0,-0.08
42488939,-0.03374919,-0.032470655,3.6123995e-05,0.0,0.0,-0.08
42520936,-0.033568252,-0.032760512,3.703049e-05,0.0,0.0,-0.08
42552991,-0.033166606,-0.032774575,3.5782483e-05,0.0,0.0,-0.08
42584896,-0.03253904,-0.032598335,3.513791e-05,0.0,0.0,-0.08
42616981,-0.032960333,-0.03254784,3.579266e-05,0.0,0.0,-0.08
42648958,-0.033089817,-0.03254403,3.5669196e-05,0.0,0.0,-0.08
42680125,-0.033606865,-0.03268241,3.6976133e-05,0.0,0.0,-0.08
42712099,-0.033406597,-0.032743897,3.661254e-05,0.0,0.0,-0.08
42744169,-0.03338514,-0.032643374,3.6410973e-05,0.0,0.0,-0.08
42776141,-0.033105478,-0.032337725,3.5487246e-05,0.0,0.0,-0.08
42808179,-0.03344145,-0.032892637,3.6050606e-05,0.0,0.0,-0.08
42840115,-0.033401936,-0.032537367,3.6018486e-05,0.0,0.0,-0.08
42872190,-0.033585712,-0.032286823,3.5482502e-05,0.0,0.0,-0.08
42904127,-0.033533238,-0.03250226,3.6187008e-05,0.0,0.0,-0.08
42936196,-0.03331652,-0.032643445,3.5860907e-05,0.0,0.0,-0.08
42968102,-0.033519384,-0.032824162,3.6922655e-05,0.0,0.0,-0.08
43000155,-0.033190504,-0.032963872,3.575936e-05,0.0,0.0,-0.08
43032150,-0.03351504,-0.032915108,3.6281064e-05,0.0,0.0,-0.08
43064200,-0.03369014,-0.03270776,3.6460842e-05,0.0,0.0,-0.08
43096110,-0.033687428,-0.032906413,3.6089354e-05,0.0,0.0,-0.08
43127377,-0.03332711,-0.032651678,3.621147e-05,0.0,0.0,-0.08
43159406,-0.033756766,-0.03251436,3.625485e-05,0.0,0.0,-0.08
43188182,-0.033673953,-0.032264307,3.571674e-05,0.0,0.0,-0.08
43220150,-0.03387132,-0.03265264,3.700903e-05,0.0,0.0,-0.08
43251349,-0.033818524,-0.03299887,3.659981e-05,0.0,0.0,-0.08
43283309,-0.033684455,-0.033001862,3.694503e-05,0.0,0.0,-0.08
43315355,-0.033340357,-0.032550585,3.5759258e-05,0.0,0.0,-0.08
43347330,-0.033469018,-0.032587778,3.6283604e-05,0.0,0.0,-0.08
43379431,-0.03399121,-0.03284662,3.7399892e-05,0.0,0.0,-0.08
43411338,-0.03394433,-0.03305589,3.713745e-05,0.0,0.0,-0.08
43439361,-0.03388442,-0.03309659,3.698997e-05,0.0,0.0,-0.08
43471303,-0.033459194,-0.032910492,3.6115976e-05,0.0,0.0,-0.08
43503377,-0.033327628,-0.032662217,3.6536992e-05,0.0,0.0,-0.08
43535349,-0.03320383,-0.032377657,3.550248e-05,0.0,0.0,-0.08
43567327,-0.033595726,-0.03262823,3.672503e-05,0.0,0.0,-0.08
43599358,-0.03348666,-0.03249501,3.5694775e-05,0.0,0.0,-0.08
43631379,-0.033365704,-0.03238825,3.5394867e-05,0.0,0.0,-0.08
43663341,-0.033241436,-0.032310203,3.523613e-05,0.0,0.0,-0.08
43691377,-0.03335765,-0.032378178,3.5948236e-05,0.0,0.0,-0.08
43721724,-0.03313219,-0.032411102,3.5567307e-05,0.0,0.0,-0.08
43754504,-0.033050492,-0.032050937,3.441417e-05,0.0,0.0,-0.08
43786573,-0.033297673,-0.032149434,3.574198e-05,0.0,0.0,-0.08
43818530,-0.033218514,-0.03226486,3.567666e-05,0.0,0.0,-0.08
43850545,-0.03328122,-0.032408897,3.5651912e-05,0.0,0.0,-0.08
43882512,-0.033252705,-0.032495853,3.5564306e-05,0.0,0.0,-0.08
43914510,-0.03311249,-0.03232392,3.5184472e-05,0.0,0.0,-0.08
43946532,-0.03292662,-0.032179568,3.4829707e-05,0.0,0.0,-0.08
43974594,-0.032800138,-0.03205466,3.5212182e-05,0.0,0.0,-0.08
44006544,-0.03303133,-0.03211752,3.4938657e-05,0.0,0.0,-0.08
44038526,-0.032984763,-0.032175355,3.5389356e-05,0.0,0.0,-0.08
44070503,-0.032721825,-0.032461915,3.5393376e-05,0.0,0.0,-0.08
44102574,-0.032544196,-0.03228072,3.4762532e-05,0.0,0.0,-0.08
44134531,-0.03268925,-0.032322403,3.4787943e-05,0.0,0.0,-0.08
44166510,-0.0328357,-0.032573022,3.572001e-05,0.0,0.0,-0.08
44198538,-0.03331129,-0.032726035,3.604579e-05,0.0,0.0,-0.08
44230578,-0.03305051,-0.032659307,3.5832298e-05,0.0,0.0,-0.08
44261735,-0.03291544,-0.032477904,3.4939534e-05,0.0,0.0,-0.08
44294499,-0.032405883,-0.032213487,3.4467375e-05,0.0,0.0,-0.08
44325707,-0.032474022,-0.03218548,3.466822e-05,0.0,0.0,-0.08
44357774,-0.032830954,-0.03193266,3.4275094e-05,0.0,0.0,-0.08
44389742,-0.032763377,-0.032126248,3.5147743e-05,0.0,0.0,-0.08
44421738,-0.03298651,-0.031867143,3.4620025e-05,0.0,0.0,-0.08
44453726,-0.03250729,-0.03231834,3.5198238e-05,0.0,0.0,-0.08
44485744,-0.03259858,-0.032058712,3.3782788e-05,0.0,0.0,-0.08
44513735,-0.0323108,-0.03235573,3.4737055e-05,0.0,0.0,-0.08
44545764,-0.03284158,-0.03244706,3.5607234e-05,0.0,0.0,-0.08
44577701,-0.032351702,-0.032410596,3.4275694e-05,0.0,0.0,-0.08
44609746,-0.03244891,-0.03215138,3.4997865e-05,0.0,0.0,-0.08
44641739,-0.032418303,-0.03237374,3.468111e-05,0.0,0.0,-0.08
44673770,-0.03283872,-0.032220833,3.5386114e-05,0.0,0.0,-0.08
44705752,-0.03266305,-0.032158297,3.372758e-05,0.0,0.0,-0.08
44737698,-0.0327696,-0.03208302,3.4327288e-05,0.0,0.0,-0.08
44769720,-0.032847572,-0.03221178,3.5287863e-05,0.0,0.0,-0.08
44801724,-0.03297931,-0.032176867,3.510051e-05,0.0,0.0,-0.08
44833738,-0.033016596,-0.031829376,3.518257e-05,0.0,0.0,-0.08
44864940,-0.032808643,-0.031917278,3.4827845e-05,0.0,0.0,-0.08
44896923,-0.033343926,-0.032042217,3.5905356e-05,0.0,0.0,-0.08
44928999,-0.033454977,-0.03208544,3.5299632e-05,0.0,0.0,-0.08
44960900,-0.033431925,-0.032034088,3.5411973e-05,0.0,0.0,-0.08
44992965,-0.032893702,-0.03216543,3.4977187e-05,0.0,0.0,-0.08
45024924,-0.03336753,-0.032074112,3.5591027e-05,0.0,0.0,-0.08
45056951,-0.0333058,-0.032209016,3.5058278e-05,0.0,0.0,-0.08
45088901,-0.033504967,-0.032550108,3.6309466e-05,0.0,0.0,-0.08
45120896,-0.032867085,-0.032254186,3.504e-05,0.0,0.0,-0.08
45152929,-0.03286083,-0.03186396,3.5109515e-05,0.0,0.0,-0.08
45184936,-0.032954995,-0.031496514,3.3478278e-05,0.0,0.0,-0.08
45216981,-0.03277988,-0.032196216,3.4977795e-05,0.0,0.0,-0.08
45248904,-0.03319101,-0.03240405,3.5561014e-05,0.0,0.0,-0.08
45276907,-0.032913767,-0.032169715,3.549936e-05,0.0,0.0,-0.08
45308897,-0.032988027,-0.031885754,3.4642784e-05,0.0,0.0,-0.08
45340938,-0.03276485,-0.03194906,3.4340872e-05,0.0,0.0,-0.08
45372976,-0.033574957,-0.0321365,3.5680336e-05,0.0,0.0,-0.08
45404962,-0.032784246,-0.032029264,3.5278463e-05,0.0,0.0,-0.08
45436164,-0.03333085,-0.03199738,3.5233417e-05,0.0,0.0,-0.08
45468133,-0.03332236,-0.032215048,3.5486406e-05,0.0,0.0,-0.08
45500183,-0.033511057,-0.03198321,3.5430283e-05,0.0,0.0,-0.08
45532114,-0.03288355,-0.03188338,3.4567034e-05,0.0,0.0,-0.08
45560184,-0.032698244,-0.03215573,3.5064433e-05,0.0,0.0,-0.08
45592103,-0.032778658,-0.03213995,3.502066e-05,0.0,0.0,-0.08
45624165,-0.032614477,-0.032529727,3.5465782e-05,0.0,0.0,-0.08
45656149,-0.033093687,-0.03221175,3.5745885e-05,0.0,0.0,-0.08
45688143,-0.032965444,-0.03247427,3.5464836e-05,0.0,0.0,-0.08
45720107,-0.03290008,-0.032085348,3.4962843e-05,0.0,0.0,-0.08
45752174,-0.03223081,-0.03222274,3.3888176e-05,0.0,0.0,-0.08
45784176,-0.032223795,-0.032310896,3.412369e-05,0.0,0.0,-0.08
45812174,-0.03178651,-0.03245505,3.4306042e-05,0.0,0.0,-0.08
45844138,-0.03189084,-0.03215743,3.4443587e-05,0.0,0.0,-0.08
45876200,-0.03182106,-0.032046363,3.3823937e-05,0.0,0.0,-0.08
45907299,-0.031803086,-0.032278687,3.410055e-05,0.0,0.0,-0.08
45939432,-0.031796306,-0.032171927,3.3797995e-05,0.0,0.0,-0.08
45971365,-0.03175957,-0.032132886,3.3659446e-05,0.0,0.0,-0.08
46003322,-0.031777587,-0.031973757,3.3858218e-05,0.0,0.0,-0.08
46035302,-0.03163404,-0.031950686,3.3377844e-05,0.0,0.0,-0.08
46067359,-0.03180489,-0.031735867,3.346329e-05,0.0,0.0,-0.08
46099439,-0.03173501,-0.03182801,3.3899378e-05,0.0,0.0,-0.08
46127323,-0.03210722,-0.031800505,3.4034478e-05,0.0,0.0,-0.08
46159399,-0.03168458,-0.03162902,3.346711e-05,0.0,0.0,-0.08
46191342,-0.03175248,-0.031306595,3.3581266e-05,0.0,0.0,-0.08
46223318,-0.031945974,-0.031494025,3.2727854e-05,0.0,0.0,-0.08
46255364,-0.031988602,-0.031741522,3.3501547e-05,0.0,0.0,-0.08
46287327,-0.03161201,-0.031660147,3.3369186e-05,0.0,0.0,-0.08
46319398,-0.03130244,-0.0317269,3.3235225e-05,0.0,0.0,-0.08
46351336,-0.03155932,-0.031655043,3.2825385e-05,0.0,0.0,-0.08
46383349,-0.03194493,-0.031792272,3.332104e-05,0.0,0.0,-0.08
46415324,-0.031857386,-0.031662002,3.288628e-05,0.0,0.0,-0.08
46447346,-0.032247443,-0.03210859,3.4291585e-05,0.0,0.0,-0.08
46478494,-0.03251638,-0.032051705,3.4587898e-05,0.0,0.0,-0.08
46510558,-0.032347545,-0.03210275,3.5125333e-05,0.0,0.0,-0.08
46542498,-0.031770848,-0.031876393,3.3415658e-05,0.0,0.0,-0.08
46574516,-0.03155534,-0.031975016,3.393003e-05,0.0,0.0,-0.08
46606527,-0.032414004,-0.032081638,3.4288452e-05,0.0,0.0,-0.08
46634527,-0.032078348,-0.03210878,3.4297827e-05,0.0,0.0,-0.08
46666538,-0.032423012,-0.031891275,3.5408513e-05,0.0,0.0,-0.08
46698557,-0.031977147,-0.031837977,3.383937e-05,0.0,0.0,-0.08
46730493,-0.031937283,-0.03199047,3.446312e-05,0.0,0.0,-0.08
46762508,-0.032088406,-0.031879663,3.399971e-05,0.0,0.0,-0.08
46794525,-0.03193321,-0.03189828,3.4092493e-05,0.0,0.0,-0.08
46826543,-0.032158926,-0.03198405,3.4399964e-05,0.0,0.0,-0.08
46858516,-0.031889033,-0.031613853,3.3853594e-05,0.0,0.0,-0.08
46886541,-0.03222006,-0.031791143,3.435071e-05,0.0,0.0,-0.08
46918491,-0.031779002,-0.031523492,3.275234e-05,0.0,0.0,-0.08
46949727,-0.032143652,-0.031708147,3.3533302e-05,0.0,0.0,-0.08
46983344,-0.03218932,-0.031258184,3.3608645e-05,0.0,0.0,-0.08
47014579,-0.03214332,-0.031604264,3.3497145e-05,0.0,0.0,-0.08
47045741,-0.03189798,-0.031375226,3.3311942e-05,0.0,0.0,-0.08
47077725,-0.031928778,-0.03162403,3.363065e-05,0.0,0.0,-0.08
47109785,-0.032213397,-0.031476147,3.4296303e-05,0.0,0.0,-0.08
47141760,-0.032177515,-0.03137491,3.330015e-05,0.0,0.0,-0.08
47173708,-0.031754673,-0.030993083,3.2720396e-05,0.0,0.0,-0.08
47201707,-0.031871468,-0.030937612,3.261136e-05,0.0,0.0,-0.08
47233743,-0.03204834,-0.030895099,3.287911e-05,0.0,0.0,-0.08
47265713,-0.032095354,-0.031096116,3.2960215e-05,0.0,0.0,-0.08
47297760,-0.032268487,-0.031297114,3.326514e-05,0.0,0.0,-0.08
47329704,-0.032075323,-0.031348065,3.301042e-05,0.0,0.0,-0.08
47361693,-0.032075077,-0.03094039,3.294334e-05,0.0,0.0,-0.08
47393710,-0.032218896,-0.030576514,3.258927e-05,0.0,0.0,-0.08
47425798,-0.032681182,-0.031076526,3.376787e-05,0.0,0.0,-0.08
47453725,-0.032565854,-0.030689405,3.3684497e-05,0.0,0.0,-0.08
47485778,-0.032815926,-0.031034693,3.3868793e-05,0.0,0.0,-0.08
47517691,-0.03242643,-0.030699924,3.257241e-05,0.0,0.0,-0.08
47548914,-0.032327075,-0.030821733,3.2601652e-05,0.0,0.0,-0.08
47580939,-0.032609694,-0.030527389,3.272911e-05,0.0,0.0,-0.08
47612996,-0.032871798,-0.0308289,3.3529057e-05,0.0,0.0,-0.08
47644937,-0.032862213,-0.030696182,3.288737e-05,0.0,0.0,-0.08
47676957,-0.032548472,-0.030596262,3.265612e-05,0.0,0.0,-0.08
47708932,-0.032058857,-0.030868016,3.3227916e-05,0.0,0.0,-0.08
47736911,-0.032372136,-0.030952897,3.346248e-05,0.0,0.0,-0.08
47768927,-0.03176804,-0.030792665,3.213582e-05,0.0,0.0,-0.08
47800902,-0.032254502,-0.030789552,3.2592852e-05,0.0,0.0,-0.08
47832944,-0.0326143,-0.03124179,3.3847187e-05,0.0,0.0,-0.08
47864977,-0.03246138,-0.031120155,3.3674987e-05,0.0,0.0,-0.08
47896931,-0.032115694,-0.031108841,3.300797e-05,0.0,0.0,-0.08
47928977,-0.032032702,-0.03093838,3.3179724e-05,0.0,0.0,-0.08
47960891,-0.031921614,-0.03121831,3.3224886e-05,0.0,0.0,-0.08
47992974,-0.0317391,-0.030983794,3.256352e-05,0.0,0.0,-0.08
48020899,-0.031659838,-0.03110924,3.234985e-05,0.0,0.0,-0.08
48052974,-0.031673994,-0.030866874,3.2119682e-05,0.0,0.0,-0.08
48087353,-0.03195465,-0.031524517,3.328403e-05,0.0,0.0,-0.08
48120155,-0.031531557,-0.031307552,3.249982e-05,0.0,0.0,-0.08
48152142,-0.03142057,-0.031216312,3.2380307e-05,0.0,0.0,-0.08
48184136,-0.031969763,-0.03146914,3.4004734e-05,0.0,0.0,-0.08
48216107,-0.031863783,-0.031006819,3.2907934e-05,0.0,0.0,-0.08
48248172,-0.03154191,-0.031312045,3.256429e-05,0.0,0.0,-0.08
48276117,-0.031759076,-0.03126879,3.2810516e-05,0.0,0.0,-0.08
48308190,-0.031427853,-0.031710956,3.3288776e-05,0.0,0.0,-0.08
48340138,-0.031386618,-0.031651564,3.3237982e-05,0.0,0.0,-0.08
48372141,-0.031394184,-0.031655274,3.2422253e-05,0.0,0.0,-0.08
48404109,-0.03134992,-0.03163109,3.2272812e-05,0.0,0.0,-0.08
48436188,-0.03171987,-0.03166707,3.3491408e-05,0.0,0.0,-0.08
48468147,-0.031773683,-0.03177629,3.3544893e-05,0.0,0.0,-0.08
48500142,-0.031475108,-0.031597525,3.2663294e-05,0.0,0.0,-0.08
48528123,-0.03146859,-0.03195417,3.291979e-05,0.0,0.0,-0.08
48560138,-0.031536836,-0.03167861,3.3576034e-05,0.0,0.0,-0.08
48592150,-0.031579632,-0.031563465,3.3740598e-05,0.0,0.0,-0.08
48623343,-0.031508036,-0.031530175,3.355117e-05,0.0,0.0,-0.08
48655289,-0.03176194,-0.03172087,3.2974203e-05,0.0,0.0,-0.08
48687294,-0.031376455,-0.0312442,3.235001e-05,0.0,0.0,-0.08
48719415,-0.031235699,-0.03169196,3.2341854e-05,0.0,0.0,-0.08
48751358,-0.031441536,-0.03149387,3.2849144e-05,0.0,0.0,-0.08
48783307,-0.031513035,-0.031569984,3.2501674e-05,0.0,0.0,-0.08
48815305,-0.03194692,-0.031639557,3.346738e-05,0.0,0.0,-0.08
48847333,-0.03149858,-0.031689875,3.272372e-05,0.0,0.0,-0.08
48879434,-0.031169143,-0.031513806,3.205981e-05,0.0,0.0,-0.08
48911296,-0.031206176,-0.031507317,3.269247e-05,0.0,0.0,-0.08
48943319,-0.031031774,-0.031667024,3.2165743e-05,0.0,0.0,-0.08
48975341,-0.031018997,-0.031179398,3.2020052e-05,0.0,0.0,-0.08
49007389,-0.03111214,-0.031269,3.2588454e-05,0.0,0.0,-0.08
49039436,-0.031012587,-0.030933803,3.1492284e-05,0.0,0.0,-0.08
49071382,-0.03147245,-0.031225722,3.2434848e-05,0.0,0.0,-0.08
49103326,-0.031179277,-0.031141939,3.2327516e-05,0.0,0.0,-0.08
49134565,-0.031146191,-0.03139322,3.2329466e-05,0.0,0.0,-0.08
49166496,-0.03108426,-0.031187568,3.2184656e-05,0.0,0.0,-0.08
49198525,-0.030964378,-0.031322084,3.216116e-05,0.0,0.0,-0.08
49230561,-0.031007307,-0.031246353,3.2272535e-05,0.0,0.0,-0.08
49262565,-0.031622346,-0.031609356,3.274804e-05,0.0,0.0,-0.08
50021720,-0.03224944,-0.031471513,3.434487e-05,0.0,0.0,-0.08
50053693,-0.03265955,-0.031486765,3.4551915e-05,0.0,0.0,-0.08
50085762,-0.03255547,-0.031544384,3.4194545e-05,0.0,0.0,-0.08
50113700,-0.032886285,-0.03165349,3.506625e-05,0.0,0.0,-0.08
50524913,-0.033616938,-0.0321143,3.5719342e-05,0.0,0.0,-0.08
50556988,-0.0328729,-0.031947006,3.4993845e-05,0.0,0.0,-0.08
50588928,-0.033366274,-0.03190238,3.5448367e-05,0.0,0.0,-0.08
50620982,-0.03355315,-0.031922534,3.6051053e-05,0.0,0.0,-0.08
50652947,-0.034213725,-0.03180446,3.6219233e-05,0.0,0.0,-0.08
50680939,-0.033609048,-0.032043554,3.596924e-05,0.0,0.0,-0.08
50712935,-0.033938073,-0.03194882,3.591071e-05,0.0,0.0,-0.08
50744984,-0.033815034,-0.031724554,3.617102e-05,0.0,0.0,-0.08
50776935,-0.033945754,-0.032027327,3.6050686e-05,0.0,0.0,-0.08
50808132,-0.033850573,-0.03223988,3.6213172e-05,0.0,0.0,-0.08
50839441,-0.03359092,-0.032164596,3.5942016e-05,0.0,0.0,-0.08
50872199,-0.033951033,-0.03215677,3.7000475e-05,0.0,0.0,-0.08
50904133,-0.03374513,-0.03236968,3.624281e-05,0.0,0.0,-0.08
50936150,-0.034399018,-0.03277657,3.7152065e-05,0.0,0.0,-0.08
50968114,-0.03408239,-0.032441974,3.7039186e-05,0.0,0.0,-0.08
51000172,-0.03413604,-0.03246125,3.6616213e-05,0.0,0.0,-0.08
51032156,-0.03406901,-0.03246966,3.7178368e-05,0.0,0.0,-0.08
51064140,-0.034092695,-0.032660816,3.709607e-05,0.0,0.0,-0.08
51096104,-0.034159526,-0.03227858,3.6897316e-05,0.0,0.0,-0.08
51128182,-0.034087263,-0.032784287,3.723251e-05,0.0,0.0,-0.08
51160152,-0.03455058,-0.032254983,3.6808855e-05,0.0,0.0,-0.08
51192110,-0.03390477,-0.03215746,3.6820173e-05,0.0,0.0,-0.08
51224108,-0.034109637,-0.032113403,3.693866e-05,0.0,0.0,-0.08
51256143,-0.034109905,-0.03233163,3.7284666e-05,0.0,0.0,-0.08
51288147,-0.034914345,-0.032576665,3.7551916e-05,0.0,0.0,-0.08
51320117,-0.034270123,-0.032059357,3.6285866e-05,0.0,0.0,-0.08
51351323,-0.034357265,-0.032049734,3.5935347e-05,0.0,0.0,-0.08
51382570,-0.034286696,-0.032106034,3.587876e-05,0.0,0.0,-0.08
51415331,-0.034581102,-0.032344926,3.66795e-05,0.0,0.0,-0.08
51447398,-0.03441267,-0.032381896,3.6788613e-05,0.0,0.0,-0.08
51479380,-0.034174792,-0.032592006,3.7274243e-05,0.0,0.0,-0.08
51511372,-0.034385856,-0.032315172,3.6629892e-05,0.0,0.0,-0.08
51543326,-0.033821832,-0.03245095,3.690039e-05,0.0,0.0,-0.08
51575305,-0.034369987,-0.03219155,3.656656e-05,0.0,0.0,-0.08
51607337,-0.03421708,-0.032213636,3.664524e-05,0.0,0.0,-0.08
51639395,-0.034546625,-0.032351397,3.6726567e-05,0.0,0.0,-0.08
51671336,-0.034295887,-0.032023277,3.685095e-05,0.0,0.0,-0.08
51703305,-0.03411946,-0.03180913,3.618624e-05,0.0,0.0,-0.08
51735323,-0.034045774,-0.031680953,3.5619953e-05,0.0,0.0,-0.08
51767359,-0.03389299,-0.03203296,3.6005447e-05,0.0,0.0,-0.08
51799423,-0.034567714,-0.03235768,3.697472e-05,0.0,0.0,-0.08
51831297,-0.03426173,-0.03212253,3.6062902e-05,0.0,0.0,-0.08
51862521,-0.03493123,-0.032196876,3.7652324e-05,0.0,0.0,-0.08
51895363,-0.034113217,-0.031917587,3.628278e-05,0.0,0.0,-0.08
51926543,-0.034952033,-0.031933106,3.7363454e-05,0.0,0.0,-0.08
51958499,-0.03449332,-0.03187991,3.6931342e-05,0.0,0.0,-0.08
51986506,-0.03476139,-0.032097045,3.6937687e-05,0.0,0.0,-0.08
52018539,-0.034432165,-0.032204837,3.6839003e-05,0.0,0.0,-0.08
52050545,-0.034646526,-0.031815555,3.7221846e-05,0.0,0.0,-0.08
52082577,-0.034610957,-0.03139234,3.6768084e-05,0.0,0.0,-0.08
52114508,-0.03418872,-0.031564582,3.6076617e-05,0.0,0.0,-0.08
52146496,-0.034486953,-0.031582236,3.615581e-05,0.0,0.0,-0.08
52178539,-0.034657188,-0.03175407,3.6773636e-05,0.0,0.0,-0.08
52206535,-0.03519759,-0.031547744,3.7494978e-05,0.0,0.0,-0.08
52238518,-0.034819182,-0.03195182,3.668884e-05,0.0,0.0,-0.08
52270581,-0.034807283,-0.031514056,3.6247297e-05,0.0,0.0,-0.08
52302501,-0.034351796,-0.03152256,3.6043588e-05,0.0,0.0,-0.08
52334498,-0.034907438,-0.031583346,3.6726033e-05,0.0,0.0,-0.08
52366507,-0.034210954,-0.03161717,3.564922e-05,0.0,0.0,-0.08
52398537,-0.034760445,-0.03159962,3.707053e-05,0.0,0.0,-0.08
52430502,-0.034406707,-0.031273495,3.56403e-05,0.0,0.0,-0.08
52462496,-0.034599405,-0.031289402,3.5688634e-05,0.0,0.0,-0.08
52493745,-0.034603104,-0.031100193,3.5562465e-05,0.0,0.0,-0.08
52525773,-0.03443714,-0.031301543,3.5968777e-05,0.0,0.0,-0.08
52557698,-0.035012376,-0.031244764,3.6638077e-05,0.0,0.0,-0.08
52589740,-0.03445197,-0.031306047,3.5975634e-05,0.0,0.0,-0.08
52621726,-0.03499006,-0.03101664,3.5777313e-05,0.0,0.0,-0.08
52653795,-0.035103675,-0.031187626,3.644241e-05,0.0,0.0,-0.08
52685705,-0.035488475,-0.031202631,3.6896672e-05,0.0,0.0,-0.08
52717702,-0.034918997,-0.03092922,3.578289e-05,0.0,0.0,-0.08
52749728,-0.035048112,-0.030999891,3.5635385e-05,0.0,0.0,-0.08
52781756,-0.034517005,-0.030812198,3.510592e-05,0.0,0.0,-0.08
52813691,-0.034918927,-0.031023173,3.580806e-05,0.0,0.0,-0.08
52845707,-0.035094135,-0.030914463,3.561125e-05,0.0,0.0,-0.08
52877738,-0.034773145,-0.031199032,3.6893463e-05,0.0,0.0,-0.08
52909733,-0.034778148,-0.031189475,3.5905134e-05,0.0,0.0,-0.08
52941731,-0.03468721,-0.03105099,3.6118563e-05,0.0,0.0,-0.08
52969743,-0.03443682,-0.031110862,3.5952027e-05,0.0,0.0,-0.08
53004945,-0.03445434,-0.030982913,3.5776004e-05,0.0,0.0,-0.08
53036929,-0.035031736,-0.031029643,3.681414e-05,0.0,0.0,-0.08
53068893,-0.0348546,-0.030408641,3.509628e-05,0.0,0.0,-0.08
53100900,-0.034798484,-0.03068192,3.510814e-05,0.0,0.0,-0.08
53132974,-0.034881093,-0.030696865,3.5312805e-05,0.0,0.0,-0.08
53164936,-0.035192706,-0.030865148,3.618297e-05,0.0,0.0,-0.08
53196938,-0.035475895,-0.030668033,3.621522e-05,0.0,0.0,-0.08
53228917,-0.035179704,-0.03070028,3.587505e-05,0.0,0.0,-0.08
53260983,-0.0348703,-0.030630784,3.5763103e-05,0.0,0.0,-0.08
53292952,-0.034398425,-0.03038999,3.4319397e-05,0.0,0.0,-0.08
53324932,-0.034712426,-0.030415712,3.505866e-05,0.0,0.0,-0.08
53356900,-0.035126537,-0.030842967,3.56865e-05,0.0,0.0,-0.08
53388975,-0.035401523,-0.030653074,3.6555095e-05,0.0,0.0,-0.08
53420966,-0.034862228,-0.030514022,3.544604e-05,0.0,0.0,-0.08
53448972,-0.034850728,-0.030688956,3.5237565e-05,0.0,0.0,-0.08
53484161,-0.035014883,-0.030747836,3.5767825e-05,0.0,0.0,-0.08
53511339,-0.034622815,-0.030617936,3.5202673e-05,0.0,0.0,-0.08
53544130,-0.034820758,-0.030375078,3.5281886e-05,0.0,0.0,-0.08
53576966,-0.034823187,-0.030545084,3.5245077e-05,0.0,0.0,-0.08
53608111,-0.035128593,-0.030537674,3.6013236e-05,0.0,0.0,-0.08
53640106,-0.03528828,-0.03061483,3.6110265e-05,0.0,0.0,-0.08
53672114,-0.035483174,-0.030478097,3.650475e-05,0.0,0.0,-0.08
53704147,-0.03500528,-0.030455956,3.5463476e-05,0.0,0.0,-0.08
53736122,-0.03518386,-0.03075204,3.5314715e-05,0.0,0.0,-0.08
53764155,-0.0347252,-0.030920746,3.5733854e-05,0.0,0.0,-0.08
53796106,-0.03503469,-0.031202305,3.6964415e-05,0.0,0.0,-0.08
53828113,-0.03499612,-0.030724492,3.5406738e-05,0.0,0.0,-0.08
53860204,-0.035048764,-0.030775875,3.610241e-05,0.0,0.0,-0.08
53892133,-0.035201665,-0.031227233,3.6308247e-05,0.0,0.0,-0.08
53924099,-0.034574963,-0.031125076,3.6030448e-05,0.0,0.0,-0.08
53956148,-0.03516464,-0.031022228,3.651687e-05,0.0,0.0,-0.08
53988148,-0.03519139,-0.031445324,3.7171725e-05,0.0,0.0,-0.08
54020135,-0.03554277,-0.031306602,3.66851e-05,0.0,0.0,-0.08
54050519,-0.0353598,-0.030928928,3.609051e-05,0.0,0.0,-0.08
54081783,-0.035454527,-0.030959189,3.7007852e-05,0.0,0.0,-0.08
54112099,-0.03557543,-0.031284157,3.6793215e-05,0.0,0.0,-0.08
54143338,-0.035336412,-0.031049645,3.684996e-05,0.0,0.0,-0.08
54175363,-0.035216454,-0.031466223,3.7203372e-05,0.0,0.0,-0.08
54207309,-0.035194214,-0.03149468,3.6931982e-05,0.0,0.0,-0.08
54239397,-0.035637766,-0.031764798,3.810342e-05,0.0,0.0,-0.08
54271328,-0.035160046,-0.031967115,3.7253787e-05,0.0,0.0,-0.08
54303423,-0.034486074,-0.031260855,3.542525e-05,0.0,0.0,-0.08
54331372,-0.03492104,-0.031756997,3.7209196e-05,0.0,0.0,-0.08
54363367,-0.035385445,-0.031009603,3.6520672e-05,0.0,0.0,-0.08
54395315,-0.035028733,-0.031217963,3.6190213e-05,0.0,0.0,-0.08
54427344,-0.035541385,-0.03164288,3.724393e-05,0.0,0.0,-0.08
54459391,-0.035310294,-0.03190968,3.7491172e-05,0.0,0.0,-0.08
54491372,-0.035289403,-0.031584177,3.6700963e-05,0.0,0.0,-0.08
54523307,-0.03523919,-0.03176059,3.723718e-05,0.0,0.0,-0.08
54555352,-0.035419382,-0.031712182,3.743537e-05,0.0,0.0,-0.08
54583325,-0.035814263,-0.031581663,3.8504884e-05,0.0,0.0,-0.08
54618580,-0.03553459,-0.032322153,3.8443115e-05,0.0,0.0,-0.08
54648150,-0.03534244,-0.032240495,3.7991234e-05,0.0,0.0,-0.08
54678497,-0.03531149,-0.032340627,3.8536316e-05,0.0,0.0,-0.08
54710499,-0.03560845,-0.032145076,3.8202477e-05,0.0,0.0,-0.08
54742537,-0.035494763,-0.03220118,3.7671307e-05,0.0,0.0,-0.08
54774535,-0.035361476,-0.03197897,3.7440484e-05,0.0,0.0,-0.08
54806498,-0.035408486,-0.03211129,3.8003647e-05,0.0,0.0,-0.08
54838537,-0.035645198,-0.031933296,3.8047732e-05,0.0,0.0,-0.08
54870546,-0.035645545,-0.03208088,3.8555052e-05,0.0,0.0,-0.08
54898494,-0.035592847,-0.031820167,3.754761e-05,0.0,0.0,-0.08
54930502,-0.035708264,-0.031852014,3.7102956e-05,0.0,0.0,-0.08
54962538,-0.035877947,-0.032144837,3.867082e-05,0.0,0.0,-0.08
54994520,-0.036058348,-0.032436963,3.8542566e-05,0.0,0.0,-0.08
55026503,-0.035728227,-0.03246577,3.8321683e-05,0.0,0.0,-0.08
55058546,-0.035954718,-0.03194258,3.8368686e-05,0.0,0.0,-0.08
55090535,-0.036307734,-0.032045387,3.8512884e-05,0.0,0.0,-0.08
55122530,-0.03585834,-0.031706184,3.7873247e-05,0.0,0.0,-0.08
55153015,-0.03582571,-0.031789206,3.7527265e-05,0.0,0.0,-0.08
55181700,-0.03588274,-0.031645566,3.723272e-05,0.0,0.0,-0.08
55213781,-0.036370814,-0.031810157,3.83837e-05,0.0,0.0,-0.08
55245723,-0.036495592,-0.031992406,3.893296e-05,0.0,0.0,-0.08
55277725,-0.036176626,-0.03257528,3.9038576e-05,0.0,0.0,-0.08
55309694,-0.036250927,-0.032207754,3.885899e-05,0.0,0.0,-0.08
55341747,-0.036386043,-0.0322763,3.9241313e-05,0.0,0.0,-0.08
55373730,-0.03641312,-0.031779196,3.886338e-05,0.0,0.0,-0.08
55405737,-0.03707713,-0.03211498,3.9786853e-05,0.0,0.0,-0.08
55437695,-0.037001826,-0.032262284,3.9731633e-05,0.0,0.0,-0.08
55469744,-0.036648322,-0.031854864,3.858066e-05,0.0,0.0,-0.08
55501725,-0.037076853,-0.03199593,3.9525406e-05,0.0,0.0,-0.08
55533728,-0.036933962,-0.032108605,3.8972332e-05,0.0,0.0,-0.08
55565737,-0.037311368,-0.032174297,4.0662788e-05,0.0,0.0,-0.08
55597693,-0.037300628,-0.0318535,3.916703e-05,0.0,0.0,-0.08
55629769,-0.037474196,-0.03165349,3.8929342e-05,0.0,0.0,-0.08
55657733,-0.03719005,-0.03131767,3.8549173e-05,0.0,0.0,-0.08
55689773,-0.037544746,-0.032029714,3.9926847e-05,0.0,0.0,-0.08
55720943,-0.037253074,-0.03161373,3.842016e-05,0.0,0.0,-0.08
55752163,-0.037189607,-0.03136898,3.832889e-05,0.0,0.0,-0.08
55784960,-0.037618212,-0.031736024,3.9669747e-05,0.0,0.0,-0.08
55816937,-0.037535127,-0.031920705,4.0227813e-05,0.0,0.0,-0.08
55848966,-0.03781862,-0.031847786,4.0325016e-05,0.0,0.0,-0.08
55880895,-0.037413035,-0.031674765,3.9071536e-05,0.0,0.0,-0.08
55913004,-0.03759676,-0.031739388,4.0408027e-05,0.0,0.0,-0.08
55944943,-0.037838873,-0.03190808,3.9507635e-05,0.0,0.0,-0.08
55976904,-0.038029183,-0.032050785,4.0589897e-05,0.0,0.0,-0.08
56008945,-0.037797846,-0.03212288,4.035496e-05,0.0,0.0,-0.08
56040904,-0.037575677,-0.032138053,4.0138995e-05,0.0,0.0,-0.08
56072992,-0.037285216,-0.031614732,3.929729e-05,0.0,0.0,-0.08
56104921,-0.03776586,-0.03196492,4.0885236e-05,0.0,0.0,-0.08
56136921,-0.038305096,-0.03240338,5.2091822e-05,0.0,0.0,-0.0
56164869,-0.038005337,-0.032359093,4.053033e-05,0.0,0.0,-0.0
56200113,-0.037920345,-0.031839848,0.00015844568,0.0,0.0,-0.0
56235434,-0.037331857,-0.031666435,3.8946386e-05,0.0,0.0,-0.08
56263377,-0.03789081,-0.03215168,4.0713825e-05,0.0,0.0,-0.08
56296151,-0.037668757,-0.03209368,3.9906674e-05,0.0,0.0,-0.08
56328142,-0.037941936,-0.0321484,4.0310577e-05,0.0,0.0,-0.08
56360105,-0.037595246,-0.0322221,4.0538762e-05,0.0,0.0,-0.08
56392140,-0.037637603,-0.032108016,4.0166266e-05,0.0,0.0,-0.08
56424158,-0.03780757,-0.031879306,3.9893548e-05,0.0,0.0,-0.08
56456136,-0.037872013,-0.032267977,4.0373478e-05,0.0,0.0,-0.08
56488110,-0.037594665,-0.03192107,3.975885e-05,0.0,0.0,-0.08
56520114,-0.03811139,-0.03224899,4.0568033e-05,0.0,0.0,-0.08
56552147,-0.03842098,-0.032211352,4.0402596e-05,0.0,0.0,-0.08
56584211,-0.03804962,-0.032229945,4.0532963e-05,0.0,0.0,-0.08
56616099,-0.038012262,-0.03248574,4.097262e-05,0.0,0.0,-0.08
56648158,-0.03794849,-0.032682408,4.0963052e-05,0.0,0.0,-0.08
56676116,-0.0381535,-0.032548815,4.112357e-05,0.0,0.0,-0.08
56708133,-0.03776612,-0.032286845,4.0746516e-05,0.0,0.0,-0.08
56740134,-0.037984688,-0.03261474,4.1385843e-05,0.0,0.0,-0.08
56774544,-0.038232803,-0.032678824,4.210631e-05,0.0,0.0,-0.08
56803296,-0.038357772,-0.032916933,4.2109794e-05,0.0,0.0,-0.08
56835321,-0.037876945,-0.03279366,4.093856e-05,0.0,0.0,-0.08
56867336,-0.037733562,-0.033101495,4.0985524e-05,0.0,0.0,-0.08
56899388,-0.037786428,-0.032633618,4.0859526e-05,0.0,0.0,-0.08
56931305,-0.038415436,-0.03291908,4.2058564e-05,0.0,0.0,-0.08
56963312,-0.038324945,-0.032809243,4.1993375e-05,0.0,0.0,-0.08
56991336,-0.03827145,-0.032852843,4.189001e-05,0.0,0.0,-0.08
57023310,-0.03792227,-0.03302256,4.2022926e-05,0.0,0.0,-0.08
57055374,-0.037955,-0.033175875,4.2100884e-05,0.0,0.0,-0.08
57087270,-0.037778463,-0.033114042,4.096369e-05,0.0,0.0,-0.0
57119410,-0.037635654,-0.033363283,0.00011821498,0.0,0.0,-0.0
57151286,-0.037930146,-0.033210527,0.00011323482,0.0,0.0,-0.0
57183309,-0.03768298,-0.03304963,8.261342e-05,0.0,0.0,-0.0
57215268,-0.03795651,-0.03295462,0.00012347462,0.0,0.0,-0.0
57247274,-0.038042124,-0.032883283,4.1287327e-05,0.0,0.0,-0.0
57279349,-0.0383335,-0.032849126,0.00023332037,0.0,0.0,-0.0
57311301,-0.037987,-0.03299761,6.7304034e-05,0.0,0.0,-0.0
57343292,-0.037900623,-0.033065304,0.00012129433,0.0,0.0,-0.0
57375273,-0.03849803,-0.032975502,0.00011746416,0.0,0.0,-0.0
57407341,-0.03802308,-0.03294123,4.179341e-05,0.0,0.0,-0.0
57439378,-0.038567923,-0.032840174,0.00014069068,0.0,0.0,-0.0
57467317,-0.03858784,-0.032925054,4.1889067e-05,0.0,0.0,-0.0
57502465,-0.038169645,-0.0331295,9.1890586e-05,0.0,0.0,-0.0
57530467,-0.038506314,-0.0326634,6.816217e-05,0.0,0.0,-0.0
57562540,-0.038430322,-0.032423686,0.00019680474,0.0,0.0,-0.0
57594508,-0.03861521,-0.032690655,7.703531e-05,0.0,0.0,-0.0
57626505,-0.03811041,-0.032937117,4.2400305e-05,0.0,0.0,-0.0
57658472,-0.038540825,-0.032728773,3.0785657e-05,0.0,0.0,-0.0
57690470,-0.038730387,-0.03282213,0.00014431153,0.0,0.0,-0.0
57722514,-0.039011925,-0.033198953,0.00015406973,0.0,0.0,-0.0
57750552,-0.038658842,-0.032765463,4.501702e-05,0.0,0.0,-0.0
57782526,-0.038574155,-0.03288032,8.9586916e-05,0.0,0.0,-0.0
57813702,-0.03886025,-0.03317814,0.000109207984,0.0,0.0,-0.0
57846467,-0.038907625,-0.033155877,4.3464657e-05,0.0,0.0,-0.0
57877725,-0.038715973,-0.03282563,0.00013407812,0.0,0.0,-0.0
57909720,-0.038458053,-0.03302188,7.7926685e-05,0.0,0.0,-0.0
57941712,-0.038793795,-0.0330456,3.0842395e-05,0.0,0.0,-0.0
57973691,-0.038719952,-0.032658502,2.860095e-05,0.0,0.0,-0.0
58005741,-0.038344797,-0.032599688,4.2214022e-05,0.0,0.0,-0.0
58037704,-0.038650025,-0.032854,8.93714e-05,0.0,0.0,-0.0
58065726,-0.03862336,-0.03286774,4.271955e-05,0.0,0.0,-0.0
58097705,-0.039024763,-0.03274648,-1.9154822e-05,0.0,0.0,-0.0
58129708,-0.03897988,-0.03288389,3.9824066e-05,0.0,0.0,-0.0
58161666,-0.03876169,-0.033178158,0.00015739832,0.0,0.0,-0.0
58193746,-0.03887998,-0.033012364,4.984855e-05,0.0,0.0,-0.0
58225694,-0.03882153,-0.032862205,4.199714e-05,0.0,0.0,-0.0
58257704,-0.038861863,-0.033323105,8.199151e-05,0.0,0.0,-0.0
58289717,-0.03872409,-0.033109505,4.3404605e-05,0.0,0.0,-0.0
58317692,-0.03887037,-0.03307144,0.00011188543,0.0,0.0,-0.0
58349691,-0.038919467,-0.03335852,-9.648118e-06,0.0,0.0,-0.0
58381746,-0.03898014,-0.03358039,0.00015353473,0.0,0.0,-0.0
58413661,-0.039004114,-0.033557076,0.0002784582,0.0,0.0,-0.0
58444877,-0.038840927,-0.033427,7.8455334e-05,0.0,0.0,-0.0
58478482,-0.03899793,-0.033547323,-0.00030791716,0.0,0.0,-0.0
58508904,-0.0390146,-0.033500936,4.2739037e-05,0.0,0.0,-0.0
58540870,-0.039218903,-0.03323977,0.00022039126,0.0,0.0,-0.0
58572919,-0.03906607,-0.033358924,0.00014643786,0.0,0.0,-0.0
58604882,-0.038948733,-0.03358401,7.71211e-05,0.0,0.0,-0.0
58632925,-0.038869124,-0.033429913,-3.4472123e-05,0.0,0.0,-0.0
58664907,-0.039072096,-0.03337571,-0.00013885756,0.0,0.0,-0.0
58696905,-0.039081484,-0.03329926,0.00019844054,0.0,0.0,-0.0
58728864,-0.038735706,-0.033150364,4.226356e-05,0.0,0.0,-0.0
58760898,-0.038721953,-0.033108555,0.00011506858,0.0,0.0,-0.0
58792916,-0.038774624,-0.033137288,-2.8342736e-05,0.0,0.0,-0.0
58824924,-0.038871203,-0.033158235,4.8288737e-05,0.0,0.0,-0.0
58856883,-0.03868788,-0.03314877,0.0001596085,0.0,0.0,-0.0
58888889,-0.038511112,-0.033093665,4.2690473e-05,0.0,0.0,-0.0
58920881,-0.038643815,-0.033036,1.4699762e-05,0.0,0.0,-0.0
58954509,-0.038672738,-0.03298155,-2.5598249e-05,0.0,0.0,-0.0
58984871,-0.03859372,-0.03314508,4.202819e-05,0.0,0.0,-0.0
59016102,-0.03846211,-0.033104487,0.00011832523,0.0,0.0,-0.0
59048112,-0.038523644,-0.033192057,4.2782216e-05,0.0,0.0,-0.0
59080112,-0.03862861,-0.03312266,5.8714788e-05,0.0,0.0,-0.0
59112096,-0.03852205,-0.03313394,2.9582876e-05,0.0,0.0,-0.0
59144111,-0.038608253,-0.03307843,7.6913835e-05,0.0,0.0,-0.0
59176113,-0.038640384,-0.033043735,8.396978e-05,0.0,0.0,-0.0
59208152,-0.03855446,-0.033182494,4.2294265e-05,0.0,0.0,-0.0
59240073,-0.03865337,-0.03331479,4.1545478e-05,0.0,0.0,-0.0
59272112,-0.03851441,-0.03340516,3.607805e-05,0.0,0.0,-0.0
59304110,-0.0383208,-0.033342153,9.241674e-05,0.0,0.0,-0.0
59336188,-0.03821885,-0.03329114,0.00010675777,0.0,0.0,-0.0
59364111,-0.03820321,-0.03352368,9.526235e-05,0.0,0.0,-0.0
59396117,-0.038105257,-0.033427317,2.5396499e-05,0.0,0.0,-0.0
59428096,-0.038138077,-0.0335844,4.2212887e-05,0.0,0.0,-0.0
59459352,-0.037956424,-0.033560377,0.00010862046,0.0,0.0,-0.0
59492926,-0.03804312,-0.0337023,5.515491e-05,0.0,0.0,-0.0
59523273,-0.037979566,-0.033639163,0.00014684124,0.0,0.0,-0.0
59555270,-0.038185354,-0.033534206,3.0258552e-05,0.0,0.0,-0.0
59587293,-0.038198706,-0.03337982,4.195173e-05,0.0,0.0,-0.0
59619356,-0.03827063,-0.033349246,0.00013097624,0.0,0.0,-0.0
59651265,-0.03815227,-0.03322478,6.531579e-05,0.0,0.0,-0.0
59679444,-0.038275857,-0.033249866,8.7656124e-05,0.0,0.0,-0.0
59711264,-0.038231064,-0.033405248,2.894417e-05,0.0,0.0,-0.0
59743262,-0.03821095,-0.033533085,8.5020794e-05,0.0,0.0,-0.0
59775303,-0.038271476,-0.033573948,6.649776e-05,0.0,0.0,-0.0
59807310,-0.03823198,-0.033572815,4.2786894e-05,0.0,0.0,-0.0
59839336,-0.03807067,-0.0336295,0.000106724365,0.0,0.0,-0.0
59871269,-0.038022693,-0.033718705,6.2505664e-05,0.0,0.0,-0.0
59903346,-0.03787777,-0.0339007,3.3731496e-05,0.0,0.0,-0.0
59931310,-0.03794008,-0.03392352,7.6584285e-05,0.0,0.0,-0.0
59963302,-0.03781449,-0.03388131,2.897764e-05,0.0,0.0,-0.0
59995351,-0.037816472,-0.03391687,0.00011164482,0.0,0.0,-0.0
60026466,-0.03765777,-0.033992425,6.579139e-05,0.0,0.0,-0.0
60058535,-0.037694197,-0.03381708,4.3191874e-05,0.0,0.0,-0.0
60090511,-0.037656415,-0.033777628,4.2346917e-05,0.0,0.0,-0.0
60122524,-0.037571657,-0.033837356,3.9979324e-05,0.0,0.0,-0.0
60154463,-0.037525386,-0.034084514,3.401295e-05,0.0,0.0,-0.0
60186518,-0.03744562,-0.0340962,4.1599338e-05,0.0,0.0,-0.0
60218513,-0.03736873,-0.03405482,4.0304643e-05,0.0,0.0,-0.0
60246540,-0.037210442,-0.034114562,0.00010166134,0.0,0.0,-0.0
60278494,-0.037131477,-0.034221992,5.207949e-05,0.0,0.0,-0.0
60310504,-0.036837652,-0.03420673,4.1966287e-05,0.0,0.0,-0.0
60342470,-0.036755398,-0.034049872,5.6586905e-05,0.0,0.0,-0.0
60374570,-0.03674465,-0.0340106,5.490547e-05,0.0,0.0,-0.0
60406491,-0.036671236,-0.034127325,7.223019e-05,0.0,0.0,-0.0
60438514,-0.03669125,-0.03421078,5.5020013e-05,0.0,0.0,-0.0
60470481,-0.036575895,-0.034148734,4.134037e-05,0.0,0.0,-0.0
60498502,-0.03644449,-0.034084976,7.2890565e-05,0.0,0.0,-0.0
60529711,-0.036458448,-0.03416234,4.1710817e-05,0.0,0.0,-0.0
60562529,-0.03647701,-0.03412719,9.680179e-05,0.0,0.0,-0.0
60593661,-0.036564186,-0.034092,5.8420497e-05,0.0,0.0,-0.0
60625664,-0.036651276,-0.034145184,0.00014092655,0.0,0.0,-0.0
60657693,-0.03667181,-0.034236178,7.9581e-05,0.0,0.0,-0.0
60689725,-0.036701605,-0.03412544,4.102882e-05,0.0,0.0,-0.0
60721673,-0.03687495,-0.034079466,9.940537e-05,0.0,0.0,-0.0
60753683,-0.036864765,-0.03422758,5.7157245e-05,0.0,0.0,-0.0
60781683,-0.03666128,-0.034241706,0.00013286174,0.0,0.0,-0.0
60813669,-0.036624115,-0.034286026,4.456703e-05,0.0,0.0,-0.0
60845683,-0.036528338,-0.034270115,6.1364415e-05,0.0,0.0,-0.0
60877707,-0.036538634,-0.034393124,2.4264211e-06,0.0,0.0,-0.0
60909666,-0.03660464,-0.03444236,4.1861753e-05,0.0,0.0,-0.0
60941695,-0.036745142,-0.034623537,2.7973869e-05,0.0,0.0,-0.0
60973667,-0.0366971,-0.034492195,6.526473e-05,0.0,0.0,-0.0
61005726,-0.036601752,-0.034443807,2.9495808e-05,0.0,0.0,-0.0
61033711,-0.036555864,-0.03432752,1.4831229e-05,0.0,0.0,-0.0
61065710,-0.036454253,-0.034250494,-3.0936568e-05,0.0,0.0,-0.0
61097666,-0.036555618,-0.034164496,1.7950053e-05,0.0,0.0,-0.0
61128900,-0.036621183,-0.03438779,4.211851e-05,0.0,0.0,-0.0
61160938,-0.0365247,-0.034560814,2.9967575e-06,0.0,0.0,-0.0
61192927,-0.036481097,-0.034415964,2.3258517e-05,0.0,0.0,-0.0
61224938,-0.03648748,-0.034364227,-3.6615415e-07,0.0,0.0,-0.0
61256899,-0.036341347,-0.034311816,2.8634313e-05,0.0,0.0,-0.0
61288950,-0.036261674,-0.034231223,4.111654e-05,0.0,0.0,-0.0
61320923,-0.036357045,-0.034313742,-2.3810705e-06,0.0,0.0,-0.0
61352896,-0.03635527,-0.03429841,2.8131777e-05,0.0,0.0,-0.0
