timestamp,rollspeed,pitchspeed,yawspeed,rollspeed_integ,pitchspeed_integ,yawspeed_integ,additional_integ1
29491205,0.00092625315,0.001240801,0.0026438076,0.0,0.0,0.0,0.0
29551247,-0.00016323244,0.00073637674,-0.0002942658,0.0,0.0,0.0,0.0
29583252,0.00044530176,0.000521149,-0.00064798095,0.0,0.0,0.0,0.0
29615219,0.000934356,0.00055699854,0.0006780486,0.0,0.0,0.0,0.0
29647284,-0.0005018636,-0.00023170013,0.0014411628,0.0,0.0,0.0,0.0
29679220,0.0011944849,-0.001062319,0.001320852,0.0,0.0,0.0,0.0
29711246,-0.001210623,0.001346625,-0.0010342402,0.0,0.0,0.0,0.0
29743221,-0.00016013184,6.0098595e-05,-0.0011434888,0.0,0.0,0.0,0.0
29775329,0.00069189037,0.0002598234,0.00041497592,0.0,0.0,0.0,0.0
29807205,0.0001000053,0.00030000508,0.0017506265,0.0,0.0,0.0,0.0
29839281,0.00035723334,-0.0009557877,0.00080170133,0.0,0.0,0.0,0.0
29871226,-0.0010520145,-0.0009156808,-0.00025377958,0.0,0.0,0.0,0.0
29903245,-0.0009752891,0.0001221149,-0.0014991758,0.0,0.0,0.0,0.0
29935292,0.00016335864,-0.0006996611,-0.0008803441,0.0,0.0,0.0,0.0
29965648,0.0003614109,0.00014053995,0.012916879,0.0,0.0,0.0,0.0
29998410,-0.0031173918,0.00093098625,0.0070156297,0.0,0.0,0.0,0.0
30030521,-0.003587064,0.00018799829,-0.010235922,0.0,0.0,0.0,0.0
30062414,-0.002782479,-0.00089716364,-0.011843405,0.0,0.0,0.0,0.0
30094410,-0.0011580101,0.0013174306,0.0043190764,0.0,0.0,0.0,0.0
30126451,0.00055454555,-0.002176825,0.013634219,0.0,0.0,0.0,0.0
30158458,0.00033602014,0.0023337686,0.0005458448,0.0,0.0,0.0,0.0
30190416,-0.0019603437,0.003966515,-0.013482885,0.0,0.0,0.0,0.0
30222413,-0.0026780781,-0.00059894565,-0.008060992,0.0,0.0,0.0,0.0
30254411,0.002047969,-0.0017389219,0.011199171,0.0,0.0,0.0,0.0
30282454,0.0030891022,-0.0001475924,0.01293357,0.0,0.0,0.0,0.0
30314458,-0.00068393373,0.0018626087,-0.0016951971,0.0,0.0,0.0,0.0
30346440,-0.003889055,-0.0013113617,-0.010045273,0.0,0.0,0.0,0.0
30378417,0.001593458,-0.001033759,-0.0009307794,0.0,0.0,0.0,0.0
30410430,0.0059774136,0.0008147898,0.007599167,0.0,0.0,0.0,0.0
30442452,-0.0016939068,0.0010564646,0.007005878,0.0,0.0,0.0,0.0
30474440,-0.0026395754,-0.004496024,-0.000768217,0.0,0.0,0.0,0.0
30506412,0.0038351535,0.0018311325,-0.005126194,0.0,0.0,0.0,0.0
30538421,0.0016487419,0.0045918724,-0.0026857432,0.0,0.0,0.0,0.0
30569651,-0.0035236897,-0.0024931023,0.0050051827,0.0,0.0,0.0,0.0
30597672,-0.002477761,-0.0050793,0.006364194,0.0,0.0,0.0,0.0
30629661,0.004024828,0.004307405,0.0017542215,0.0,0.0,0.0,0.0
30661643,-0.0005339089,0.0012439,-0.004153317,0.0,0.0,0.0,0.0
30693610,-0.0040517403,-0.0057258834,-0.001451331,0.0,0.0,0.0,0.0
30725663,0.00094883447,-0.0008373116,0.0055240868,0.0,0.0,0.0,0.0
30757665,0.0012988681,0.004994258,0.0039992533,0.0,0.0,0.0,0.0
30789657,0.0009881759,-0.0044685276,-0.0015700308,0.0,0.0,0.0,0.0
30821625,-0.0025535175,-0.0034727268,-0.0032384899,0.0,0.0,0.0,0.0
30849660,-0.0015523728,0.0062644132,0.0020944895,0.0,0.0,0.0,0.0
30881614,0.0017743555,-0.0020434556,0.0041950634,0.0,0.0,0.0,0.0
30913674,0.0011340934,-0.0056489534,0.0014873138,0.0,0.0,0.0,0.0
30945651,-0.0014317407,0.0036423132,4.485948e-05,0.0,0.0,0.0,0.0
30977653,-0.0015048821,0.002868297,0.000659697,0.0,0.0,0.0,0.0
31009614,0.0018057359,-0.005795625,2.0961976e-05,0.0,0.0,0.0,0.0
31041682,0.0017869775,0.0010910025,0.00061700423,0.0,0.0,0.0,0.0
31073651,-0.0011847137,0.0053631794,0.0029962237,0.0,0.0,0.0,0.0
31101669,-0.0022828353,-0.0025323248,0.0008234328,0.0,0.0,0.0,0.0
31132846,0.0017940449,-0.0051945727,-0.0012749287,0.0,0.0,0.0,0.0
31164812,-0.0011398293,0.0054091327,-0.00019615772,0.0,0.0,0.0,0.0
31196817,-0.00077093206,0.0024788976,0.003514255,0.0,0.0,0.0,0.0
31228837,0.0023841064,-0.0064087487,0.0011148826,0.0,0.0,0.0,0.0
31260820,0.000822403,0.0019463502,0.00017944677,0.0,0.0,0.0,0.0
31292845,-0.00072593923,0.004664543,0.00083006744,0.0,0.0,0.0,0.0
31324810,-0.0029631085,-0.004699906,0.00055063795,0.0,0.0,0.0,0.0
31356860,0.0027290331,-0.0009070829,0.0021361008,0.0,0.0,0.0,0.0
31384820,-0.0021635236,0.005136264,0.0003385055,0.0,0.0,0.0,0.0
31416850,-0.001356027,-0.0037725354,0.0008247838,0.0,0.0,0.0,0.0
31448810,0.0048188255,-0.003670039,0.0018594764,0.0,0.0,0.0,0.0
31480810,-0.0013727258,0.004218265,-0.0002903419,0.0,0.0,0.0,0.0
31512850,-0.002869373,0.00096960657,0.0010991858,0.0,0.0,0.0,0.0
31544854,0.0024838252,-0.0026898733,0.0019073552,0.0,0.0,0.0,0.0
31575247,0.0023751091,0.0010347067,0.00023260294,0.0,0.0,0.0,0.0
31608025,-0.0020761932,8.590333e-05,0.0011052989,0.0,0.0,0.0,0.0
31636820,-0.00013015151,-0.0037201075,0.001995923,0.0,0.0,0.0,0.0
31672060,0.00034959638,0.0027353982,0.0016695388,0.0,0.0,0.0,0.0
31700096,0.00069809915,0.003517037,-0.0002541074,0.0,0.0,0.0,0.0
31732017,-0.00042496243,-0.0011298049,-0.00034806225,0.0,0.0,0.0,0.0
31764058,0.001049562,-0.00087900134,0.0025118245,0.0,0.0,0.0,0.0
31796017,-0.0012159463,0.0037192,0.0017162436,0.0,0.0,0.0,0.0
31828068,0.00016921747,-0.0012960564,0.00060091587,0.0,0.0,0.0,0.0
31860071,0.00032208837,-0.0016907074,1.9649044e-05,0.0,0.0,0.0,0.0
31892014,-0.000997882,0.0012870157,0.0018604222,0.0,0.0,0.0,0.0
31924025,-0.002029323,-2.7408474e-05,0.0008068762,0.0,0.0,0.0,0.0
31952070,0.0009909781,-0.0019492091,0.001357325,0.0,0.0,0.0,0.0
31984013,0.00048230938,0.0016580104,0.0021881,0.0,0.0,0.0,0.0
32016107,0.00029668317,0.00077076606,0.0016422386,0.0,0.0,0.0,0.0
32048019,0.0004022509,-0.0028186326,-0.00036212243,0.0,0.0,0.0,0.0
32080055,0.0007033759,0.00030837953,0.00036079716,0.0,0.0,0.0,0.0
32112054,7.939804e-05,0.0026744676,0.0023224317,0.0,0.0,0.0,0.0
32143268,0.00046210818,-0.0045888713,0.0019258745,0.0,0.0,0.0,0.0
32176023,-3.4060446e-05,0.00056411675,-0.00033704634,0.0,0.0,0.0,0.0
32204074,-0.00050643476,0.0041317954,0.0007701388,0.0,0.0,0.0,0.0
32239289,-0.001103343,-0.003826126,0.00057561183,0.0,0.0,0.0,0.0
32271273,0.0021791304,-0.0018056773,0.0015487174,0.0,0.0,0.0,0.0
32303224,0.00019571465,0.0026566237,-0.00012067822,0.0,0.0,0.0,0.0
32335246,-0.0021950484,-0.00035581336,0.0011757561,0.0,0.0,0.0,0.0
32367270,0.000990106,-0.002402992,0.00231784,0.0,0.0,0.0,0.0
32399337,0.00022803992,0.0021923329,0.0012931605,0.0,0.0,0.0,0.0
32431248,-0.002042599,-0.00020866329,0.0025301669,0.0,0.0,0.0,0.0
32463229,0.0014001259,-0.0033089612,0.00027900585,0.0,0.0,0.0,0.0
32495263,0.0024362444,0.0027095522,0.00022327527,0.0,0.0,0.0,0.0
32527246,-0.001832254,0.0015205772,0.0009908848,0.0,0.0,0.0,0.0
32559279,0.0028518434,-0.0018481617,0.00086441403,0.0,0.0,0.0,0.0
32591225,0.0048564975,0.0007651467,0.00024437555,0.0,0.0,0.0,0.0
32623213,0.00029466103,0.002863096,2.441043e-05,0.0,0.0,0.0,0.0
32655239,-0.001292455,-0.0017864534,-0.001070387,0.0,0.0,0.0,0.0
32687251,-0.003581526,-0.0004783892,0.0019847248,0.0,0.0,0.0,0.0
32714428,0.00071106246,0.0011776974,0.00087760855,0.0,0.0,0.0,0.0
32747215,-0.0053947764,0.0013883892,0.0034790442,0.0,0.0,0.0,0.0
32778442,0.0024935834,-0.0019689593,0.0057971636,0.0,0.0,0.0,0.0
32810451,-0.001710826,0.00047542353,0.004139281,0.0,0.0,0.0,0.0
32842480,-0.0007507521,0.003014823,0.0021501374,0.0,0.0,0.0,0.0
32874410,-0.0016156466,-0.0003863366,-0.0032695904,0.0,0.0,0.0,0.0
32906450,-0.0024259759,0.00083417306,0.003188796,0.0,0.0,0.0,0.0
32938458,-0.001603781,0.00070725824,0.003445459,0.0,0.0,0.0,0.0
32970480,-0.0022946922,0.0025731015,0.0045992234,0.0,0.0,0.0,0.0
32998440,-0.00080725405,-0.0023606715,-0.0005761089,0.0,0.0,0.0,0.0
33030457,-0.00016639684,0.0047386154,0.00015484565,0.0,0.0,0.0,0.0
33062410,-0.001557089,0.0034598012,-0.0002486005,0.0,0.0,0.0,0.0
33094453,-0.0075497604,0.0009004816,0.0038502717,0.0,0.0,0.0,0.0
33126447,-0.0014707122,0.00055511727,0.0013111252,0.0,0.0,0.0,0.0
33158476,-0.0008090696,0.0005051122,0.001422872,0.0,0.0,0.0,0.0
33190425,0.0021420536,-0.0002176204,-9.642914e-05,0.0,0.0,0.0,0.0
33221647,-0.000100129866,-0.00058070384,0.0028467851,0.0,0.0,0.0,0.0
33253658,0.00044559746,0.00051572104,0.0026264968,0.0,0.0,0.0,0.0
33285647,-0.0010578397,-0.0004488011,0.0022917718,0.0,0.0,0.0,0.0
33313647,0.0034033232,-0.0012572824,0.001536652,0.0,0.0,0.0,0.0
33345610,8.410611e-05,-0.0019024569,0.0006479169,0.0,0.0,0.0,0.0
33377613,0.004513122,0.00021677138,0.0038968625,0.0,0.0,0.0,0.0
33409683,0.000579647,0.00065339997,0.0016451684,0.0,0.0,0.0,0.0
33441614,-0.0021773982,0.001298858,0.0041538435,0.0,0.0,0.0,0.0
33473631,0.00047885254,-0.0010828471,-0.0008391449,0.0,0.0,0.0,0.0
33505614,-0.003745996,-0.0029759032,0.00083169853,0.0,0.0,0.0,0.0
33537663,0.00050168904,-0.00014803489,0.00028572,0.0,0.0,0.0,0.0
33565616,-0.0021544707,-0.0010768345,0.004247042,0.0,0.0,0.0,0.0
33597651,0.0006449424,-0.002126437,0.0031191248,0.0,0.0,0.0,0.0
33629615,-0.0057181763,-0.002806073,0.0012349943,0.0,0.0,0.0,0.0
33661616,0.0024049217,0.0019194315,0.0005461031,0.0,0.0,0.0,0.0
33693610,0.001571675,0.0024506412,0.00044967164,0.0,0.0,0.0,0.0
33725692,0.0034562368,-0.0014698757,0.0038343188,0.0,0.0,0.0,0.0
33757610,0.0014566466,-0.00066464616,-0.00050840364,0.0,0.0,0.0,0.0
33789642,0.00028527412,0.0024066912,0.0028268937,0.0,0.0,0.0,0.0
33820872,-0.004858733,0.001763484,-0.00054299226,0.0,0.0,0.0,0.0
33852890,-0.0015920135,0.0002348778,0.001718417,0.0,0.0,0.0,0.0
33880889,-0.0029757603,-0.00076666474,-0.000810005,0.0,0.0,0.0,0.0
33912869,-0.0008689889,0.0031207001,0.0029037276,0.0,0.0,0.0,0.0
33944839,0.0040750923,-0.0009059106,0.0009697287,0.0,0.0,0.0,0.0
33976810,-0.005121751,-0.006030597,0.0027112402,0.0,0.0,0.0,0.0
34008911,-0.0011686757,-0.001100733,0.0011509913,0.0,0.0,0.0,0.0
34040842,-0.005104864,-0.0003301163,0.00082580093,0.0,0.0,0.0,0.0
34072839,-0.00028824515,0.00020132284,0.0019027985,0.0,0.0,0.0,0.0
34104813,0.00067565206,0.0020724302,0.00057805283,0.0,0.0,0.0,0.0
34136855,0.0033968808,0.0016113007,0.0020613417,0.0,0.0,0.0,0.0
34168844,-0.0008671966,0.00028817914,0.00026749587,0.0,0.0,0.0,0.0
34200819,-0.00018881774,0.0025518024,0.0026301204,0.0,0.0,0.0,0.0
34232860,-0.0015176956,-0.0012726345,0.0010116659,0.0,0.0,0.0,0.0
34264812,0.0015469427,0.0013635481,0.0026632324,0.0,0.0,0.0,0.0
34296870,-0.00045042206,-5.788263e-05,0.00010164804,0.0,0.0,0.0,0.0
34324077,0.0009947884,0.0022745912,0.0031793148,0.0,0.0,0.0,0.0
34359297,0.003966313,-0.0014247796,0.0028328998,0.0,0.0,0.0,0.0
34388059,-0.0021506813,-0.0017421427,0.0017989896,0.0,0.0,0.0,0.0
34420012,0.0023464146,-0.00010670477,0.0013077061,0.0,0.0,0.0,0.0
34452094,-0.0006212736,0.001359893,-0.00013531465,0.0,0.0,0.0,0.0
34484013,0.0020377005,0.003260694,0.00141958,0.0,0.0,0.0,0.0
34516053,-0.0039106063,0.0022142902,0.0014403823,0.0,0.0,0.0,0.0
34548011,0.00032829633,-0.0006117767,0.0027502074,0.0,0.0,0.0,0.0
34580095,0.0020591707,-0.0058131944,0.00081282365,0.0,0.0,0.0,0.0
34612034,0.0030431172,-0.0023080702,0.003870983,0.0,0.0,0.0,0.0
34640097,0.0015224987,-0.001242322,0.0010183116,0.0,0.0,0.0,0.0
34672012,-0.0034432546,0.00024196331,0.0033671728,0.0,0.0,0.0,0.0
34704049,-0.0012919138,0.00017809228,0.0011732299,0.0,0.0,0.0,0.0
34736047,-4.2801257e-05,-0.00018443342,0.001249809,0.0,0.0,0.0,0.0
34768090,0.00020573579,-0.004220264,0.001780004,0.0,0.0,0.0,0.0
34800012,0.0039398572,-0.0032967746,0.003421563,0.0,0.0,0.0,0.0
34832018,0.0068761166,-0.000480577,0.0022760266,0.0,0.0,0.0,0.0
34864054,0.00041246775,0.002216609,0.000897028,0.0,0.0,0.0,0.0
34892076,0.00010264199,0.0005420601,0.0022844705,0.0,0.0,0.0,0.0
34927259,-0.0020790088,0.003260116,-0.0003891103,0.0,0.0,0.0,0.0
34958458,0.0013125435,0.0012940099,0.0027346287,0.0,0.0,0.0,0.0
34987212,-0.0029402347,0.0015835025,0.0004961847,0.0,0.0,0.0,0.0
35019300,0.00080856855,-0.00096317934,0.0029527587,0.0,0.0,0.0,0.0
35051248,0.002479991,-0.004092274,0.0023501953,0.0,0.0,0.0,0.0
35083275,-0.0001363093,-2.2735912e-06,0.0027367254,0.0,0.0,0.0,0.0
35115205,-0.0027980413,0.00041087577,0.0017123501,0.0,0.0,0.0,0.0
35147254,-0.0012971164,0.0010232471,0.0029653055,0.0,0.0,0.0,0.0
35179354,0.002169198,-0.0013675997,0.0005680497,0.0,0.0,0.0,0.0
35207222,0.0014392586,-0.0006847095,0.0028979466,0.0,0.0,0.0,0.0
35239321,0.0017082171,-0.0008568008,0.0019968348,0.0,0.0,0.0,0.0
35271228,-0.0015069613,0.00082619046,0.0015530823,0.0,0.0,0.0,0.0
35303220,-0.00020140037,0.0033504106,0.0037132497,0.0,0.0,0.0,0.0
35335241,-0.0016530224,0.0030267122,0.00018011127,0.0,0.0,0.0,0.0
35367260,-0.0005134405,0.0012565157,0.0007578521,0.0,0.0,0.0,0.0
35399338,-0.002961061,-0.0065502636,0.0018248239,0.0,0.0,0.0,0.0
35431255,0.002873898,-0.0029395598,0.003511619,0.0,0.0,0.0,0.0
35466452,-0.0022167251,0.0006104993,0.0013875489,0.0,0.0,0.0,0.0
35494443,-0.0042472836,0.003182793,0.0020413026,0.0,0.0,0.0,0.0
35526416,-0.0032955208,0.00063371705,0.00037856726,0.0,0.0,0.0,0.0
35558413,0.000565919,-0.0019524421,0.0008260689,0.0,0.0,0.0,0.0
35590463,0.0066252123,0.0016950903,0.0027391175,0.0,0.0,0.0,0.0
35622462,-0.0011060826,0.0017899448,0.00020563719,0.0,0.0,0.0,0.0
35654421,-0.005682306,0.0010642088,0.0024075743,0.0,0.0,0.0,0.0
35686416,-0.0016673888,-0.0014182021,0.00063780136,0.0,0.0,0.0,0.0
35718453,0.0039398633,0.002118444,0.0037126737,0.0,0.0,0.0,0.0
35750450,0.0057640797,-0.003725557,0.0007641935,0.0,0.0,0.0,0.0
35782448,0.0007937816,0.0021758443,0.0038066034,0.0,0.0,0.0,0.0
35814417,-0.0022510285,0.0007355518,0.0005722004,0.0,0.0,0.0,0.0
35846485,-0.0046141064,-0.0018862686,0.0018653049,0.0,0.0,0.0,0.0
35878459,0.0023115897,-0.003284813,0.0013761274,0.0,0.0,0.0,0.0
35910449,0.00085116376,0.00048440078,0.00460226,0.0,0.0,0.0,0.0
35942410,0.00011847506,0.002204335,0.0032907,0.0,0.0,0.0,0.0
35973686,-0.0054803444,-0.00073044904,-0.00023079081,0.0,0.0,0.0,0.0
36005645,0.00034720066,0.00059936556,0.0012524563,0.0,0.0,0.0,0.0
36037636,0.0028412128,-0.0025298754,0.0014866737,0.0,0.0,0.0,0.0
36069610,0.0030601714,-0.00086015835,0.0033668228,0.0,0.0,0.0,0.0
36101676,0.0019175626,-0.0016777853,0.0013093676,0.0,0.0,0.0,0.0
36133643,-0.0035567777,0.003761474,0.0024794,0.0,0.0,0.0,0.0
36165650,-0.0035822182,-0.0034336704,9.382423e-05,0.0,0.0,0.0,0.0
36197626,-0.0051908996,-0.0006170535,0.002350695,0.0,0.0,0.0,0.0
36225635,-0.0009405486,-0.0006237604,0.0002122242,0.0,0.0,0.0,0.0
36257613,-0.0012959887,0.0010799917,0.0039632353,0.0,0.0,0.0,0.0
36289688,0.007752426,-0.0015916884,0.0014479298,0.0,0.0,0.0,0.0
36321655,0.0039909007,0.002555429,0.0038089945,0.0,0.0,0.0,0.0
36353655,0.001221888,0.0014958063,0.0019386229,0.0,0.0,0.0,0.0
36385610,-0.0025108508,-0.00088530383,0.000885664,0.0,0.0,0.0,0.0
36417691,0.0032196282,-0.0013561824,0.0024582036,0.0,0.0,0.0,0.0
36449664,0.0045060283,-0.0018821665,0.0013739257,0.0,0.0,0.0,0.0
36477666,0.0002095789,-0.00037520652,0.002408463,0.0,0.0,0.0,0.0
36509622,-0.00031239341,-0.0023577046,0.00061941193,0.0,0.0,0.0,0.0
36541651,-0.0015220947,0.0012195148,0.0028214508,0.0,0.0,0.0,0.0
36572873,-0.0022762637,-0.0035113073,-0.00014294055,0.0,0.0,0.0,0.0
36604851,-0.002460748,-6.3981744e-05,0.00025981176,0.0,0.0,0.0,0.0
36636810,0.004351628,-0.0003754003,0.002001431,0.0,0.0,0.0,0.0
36668828,0.0017738637,0.0018543494,0.003007673,0.0,0.0,0.0,0.0
36700858,0.0014339613,0.0028340314,-0.0005331945,0.0,0.0,0.0,0.0
36732937,-0.00435742,0.001010504,0.0019260191,0.0,0.0,0.0,0.0
36760851,-0.003166172,0.00047207298,0.0002498699,0.0,0.0,0.0,0.0
36792892,0.00041516707,-0.001117499,0.0020551062,0.0,0.0,0.0,0.0
36824810,0.004524764,0.0011849965,0.0020221963,0.0,0.0,0.0,0.0
36856823,-0.00013926055,-0.00056953693,0.0014533256,0.0,0.0,0.0,0.0
36888837,-0.0050973566,0.0009258576,0.0028137802,0.0,0.0,0.0,0.0
36920903,-0.0028846103,0.00034350145,0.0018205781,0.0,0.0,0.0,0.0
36952839,-0.0025809277,0.0028570972,0.0017965455,0.0,0.0,0.0,0.0
36984846,0.00026913884,-0.0015547418,0.0008716986,0.0,0.0,0.0,0.0
37016827,0.0008733474,-0.0010193695,0.0034336818,0.0,0.0,0.0,0.0
37044860,0.002037072,-0.0016412828,0.0015706114,0.0,0.0,0.0,0.0
37076843,0.0027497006,0.00418798,0.0029101162,0.0,0.0,0.0,0.0
37108016,0.0051372964,0.000982237,0.0026362936,0.0,0.0,0.0,0.0
37140810,-0.0009767251,0.00090239116,0.0012996211,0.0,0.0,0.0,0.0
37172047,0.00075117196,0.000735207,0.0009059375,0.0,0.0,0.0,0.0
37204098,-0.002189957,0.00074831245,0.0003396552,0.0,0.0,0.0,0.0
37236024,3.2508746e-05,0.0031277207,0.0029370496,0.0,0.0,0.0,0.0
37268012,0.0007151703,-0.0022363162,0.0012642588,0.0,0.0,0.0,0.0
37300057,-2.101052e-05,-0.0012426118,0.0024958807,0.0,0.0,0.0,0.0
37328063,0.004020534,-0.0008646177,0.001152961,0.0,0.0,0.0,0.0
37360024,-0.0020746975,0.0018145243,0.0026594927,0.0,0.0,0.0,0.0
37392093,0.00026923174,-0.0022275767,0.0009903526,0.0,0.0,0.0,0.0
37424015,-0.0021254972,-0.002037647,0.0025832597,0.0,0.0,0.0,0.0
37456046,0.0039050074,-0.00060375454,0.001903789,0.0,0.0,0.0,0.0
37488048,0.0014087628,0.0016256486,0.002286463,0.0,0.0,0.0,0.0
37520051,0.0022501573,0.00023972732,0.0028432189,0.0,0.0,0.0,0.0
37552024,-4.30285e-05,-0.0019546752,0.0019947602,0.0,0.0,0.0,0.0
37580111,-0.0018594891,0.0011534399,-0.00033722515,0.0,0.0,0.0,0.0
37612022,-0.0020078598,-5.5503915e-05,0.0012963549,0.0,0.0,0.0,0.0
37644059,-0.0016634305,-0.003836771,0.0028077099,0.0,0.0,0.0,0.0
37675247,-0.00039693608,-0.00250325,0.0010506473,0.0,0.0,0.0,0.0
37707229,-0.00057620055,0.0030140718,0.0014007671,0.0,0.0,0.0,0.0
37739273,5.246105e-05,-0.0014894183,0.0016514712,0.0,0.0,0.0,0.0
37771267,-0.0027089007,-0.002352334,0.0023738835,0.0,0.0,0.0,0.0
37803256,-0.0022543755,-0.0039416,0.0020471537,0.0,0.0,0.0,0.0
37835262,0.002059882,0.0028440696,0.0030750392,0.0,0.0,0.0,0.0
37867272,0.0009800144,0.00067405903,0.0018760461,0.0,0.0,0.0,0.0
37899312,-0.0020313428,-0.00028252276,0.0018255222,0.0,0.0,0.0,0.0
37931252,-0.0006038023,-0.0012436833,0.001965087,0.0,0.0,0.0,0.0
37963257,0.0017617783,-0.0035311398,0.0021829524,0.0,0.0,0.0,0.0
37995229,0.0037587357,-0.0015315604,0.0035219695,0.0,0.0,0.0,0.0
38027263,0.002423767,0.0019733906,0.0025230632,0.0,0.0,0.0,0.0
38059318,-0.0012170678,0.0009429909,0.0022271918,0.0,0.0,0.0,0.0
38091226,-0.0024910076,-0.0033012195,0.0011921441,0.0,0.0,0.0,0.0
38123212,0.003197529,-0.0016490251,0.0032904844,0.0,0.0,0.0,0.0
38155229,0.001055246,0.0012992611,0.0014162508,0.0,0.0,0.0,0.0
38187244,-0.0012444806,0.005195399,0.0011144904,0.0,0.0,0.0,0.0
38218453,-0.0041641244,0.00395628,0.0008928904,0.0,0.0,0.0,0.0
38249656,0.0006978046,0.00018408068,0.00017344533,0.0,0.0,0.0,0.0
38282467,-0.00096288254,-0.0008148304,0.0026580654,0.0,0.0,0.0,0.0
38314443,0.0013069396,-0.0027493695,0.0015659812,0.0,0.0,0.0,0.0
38346439,0.004006291,0.00073804136,0.0026683805,0.0,0.0,0.0,0.0
38374463,0.0051394785,-0.0018923688,0.0022868142,0.0,0.0,0.0,0.0
38406435,-0.0014602125,0.001958427,0.0017281801,0.0,0.0,0.0,0.0
38438410,-0.001292452,-0.0007025708,0.0010546455,0.0,0.0,0.0,0.0
38470496,0.00046156242,0.0022768602,0.0010673187,0.0,0.0,0.0,0.0
38502459,0.0012789115,0.00048038654,-0.00026634266,0.0,0.0,0.0,0.0
38534450,0.0019892592,0.003148853,0.0002471474,0.0,0.0,0.0,0.0
38566419,-0.0011664769,0.00091746426,0.001497617,0.0,0.0,0.0,0.0
38598487,0.002545178,0.0015050987,0.003601991,0.0,0.0,0.0,0.0
38630468,-0.0002951317,0.00151769,0.0021007792,0.0,0.0,0.0,0.0
38658491,0.001369651,0.00055932335,0.0023595116,0.0,0.0,0.0,0.0
38690446,-0.0034691026,-0.00057843514,0.002148193,0.0,0.0,0.0,0.0
38722447,-0.00085491186,-0.00063328544,0.0007759114,0.0,0.0,0.0,0.0
38752884,0.0019926715,0.0008569668,0.0013941715,0.0,0.0,0.0,0.0
38785662,0.00023091189,0.0010304305,0.0019253376,0.0,0.0,0.0,0.0
38817614,0.0001766351,-0.0006992817,0.0032233514,0.0,0.0,0.0,0.0
38850457,-0.0015423298,-0.0017809446,-0.0001451727,0.0,0.0,0.0,0.0
38881610,-0.00029150874,-0.00014131668,0.0011794053,0.0,0.0,0.0,0.0
38913666,0.0010610181,0.0010652202,0.0028209034,0.0,0.0,0.0,0.0
38941649,0.0012444563,0.004810585,0.003319579,0.0,0.0,0.0,0.0
38973658,8.8550034e-05,0.0019291417,0.0019607753,0.0,0.0,0.0,0.0
39005614,0.00032378326,0.0010457751,0.000596415,0.0,0.0,0.0,0.0
39037625,-0.0038232622,-0.0013567383,0.001399833,0.0,0.0,0.0,0.0
39069655,0.0014525559,-0.0018498071,0.0011355998,0.0,0.0,0.0,0.0
39101650,-0.000469024,0.0009926442,0.0024220482,0.0,0.0,0.0,0.0
39133610,0.00038933288,0.0028414854,0.0008769112,0.0,0.0,0.0,0.0
39165624,-0.0004515787,0.0029545822,0.0034563518,0.0,0.0,0.0,0.0
39193617,0.00077321136,-0.0007234014,0.0022887413,0.0,0.0,0.0,0.0
39225616,0.0005074397,0.0029050107,0.0011787505,0.0,0.0,0.0,0.0
39257628,-0.0035573752,-0.0048262794,0.00031729718,0.0,0.0,0.0,0.0
39289704,-0.0012204811,-0.0023030094,0.0017508786,0.0,0.0,0.0,0.0
39320839,-0.0028917799,0.00021041022,0.0017668143,0.0,0.0,0.0,0.0
39352053,0.002283447,0.003610466,0.002379736,0.0,0.0,0.0,0.0
39384910,-0.0033977837,0.000719127,0.001242494,0.0,0.0,0.0,0.0
39416839,0.0019374312,0.0015415987,-0.00010472792,0.0,0.0,0.0,0.0
39448813,-0.0015611671,0.0007214375,0.0030583132,0.0,0.0,0.0,0.0
39480860,0.0016653193,0.0004543193,0.0019503202,0.0,0.0,0.0,0.0
39512882,0.000509077,-0.0032192278,0.0023319698,0.0,0.0,0.0,0.0
39544810,0.0016096834,-0.001079902,0.0013850478,0.0,0.0,0.0,0.0
39576831,0.0011919858,0.002798998,0.0025331727,0.0,0.0,0.0,0.0
39608840,-0.0011738128,-0.0012601175,-0.00012389384,0.0,0.0,0.0,0.0
39640842,0.00022988894,-0.0028920586,0.004544084,0.0,0.0,0.0,0.0
39672935,-0.0023025312,-0.0036914651,0.0022898908,0.0,0.0,0.0,0.0
39704813,-0.00048687245,0.0039856373,0.0016218218,0.0,0.0,0.0,0.0
39736835,-0.004049356,0.00023238908,0.001552484,0.0,0.0,0.0,0.0
39768840,0.0026094192,-0.0017952017,0.002090605,0.0,0.0,0.0,0.0
39800908,0.0008465145,-0.0024168626,0.0020933484,0.0,0.0,0.0,0.0
39832861,0.0028640572,0.0008789572,0.00088607427,0.0,0.0,0.0,0.0
39864835,-0.0034455415,0.0021551305,0.0020182373,0.0,0.0,0.0,0.0
39896063,-0.0040983083,-9.898702e-05,0.0006895028,0.0,0.0,0.0,0.0
39928022,-0.00066725956,0.0034190936,0.00035769213,0.0,0.0,0.0,0.0
39960023,-0.0016775969,-0.00156689,0.0020906278,0.0,0.0,0.0,0.0
39988023,0.0010593544,0.0004487076,0.0024082796,0.0,0.0,0.0,0.0
40020021,-0.0028873896,-0.0016633398,0.001456921,0.0,0.0,0.0,0.0
40052042,0.004846979,0.0006739581,0.0019065016,0.0,0.0,0.0,0.0
40084054,0.0007566677,-0.001605761,0.0013858918,0.0,0.0,0.0,0.0
40116012,0.0015212343,0.0027538147,0.0017589489,0.0,0.0,0.0,0.0
40148032,-0.0018206199,0.0014239901,0.001973577,0.0,0.0,0.0,0.0
40180031,-0.0013823082,0.00027910713,0.002083261,0.0,0.0,0.0,0.0
40212050,0.0026367581,-0.0022176486,0.0014635704,0.0,0.0,0.0,0.0
40240050,-0.0014472224,3.9097853e-05,0.0028113367,0.0,0.0,0.0,0.0
40272055,0.0020396404,-0.001528099,0.0026822072,0.0,0.0,0.0,0.0
40304012,0.00027541525,-0.002691125,0.0034628178,0.0,0.0,0.0,0.0
40336020,0.0012760045,-0.0009282405,0.002531258,0.0,0.0,0.0,0.0
40368024,-0.0040192455,-0.0014253428,0.001277636,0.0,0.0,0.0,0.0
40399339,0.0016157341,0.0008518838,0.0030752013,0.0,0.0,0.0,0.0
40431238,0.0038364334,-0.0024707678,0.0019846533,0.0,0.0,0.0,0.0
40463245,0.004301451,0.00074243534,0.002206056,0.0,0.0,0.0,0.0
40495257,-0.0050567486,0.00041182246,0.0017494672,0.0,0.0,0.0,0.0
40527314,-0.0043334486,0.002265885,0.0028397348,0.0,0.0,0.0,0.0
40555284,-0.0052532307,-0.0016799471,0.002145233,0.0,0.0,0.0,0.0
40587243,-0.008292952,0.004239958,0.001889834,0.0,0.0,0.0,0.0
40619272,-0.0025940887,-0.0006013617,0.0024755504,0.0,0.0,0.0,0.0
40651290,0.00057722954,-0.0027536722,0.0037673474,0.0,0.0,0.0,0.0
40683238,0.007476552,-0.00024175784,0.0027940804,0.0,0.0,0.0,0.0
40715252,-0.0020670164,-0.0008026827,0.0010676475,0.0,0.0,0.0,0.0
40747257,0.00025196688,0.0008519663,0.0017530151,0.0,0.0,0.0,0.0
40779275,-0.0021405977,-0.00091976667,0.0018999269,0.0,0.0,0.0,0.0
40811242,0.0034606198,0.002116998,0.0026842311,0.0,0.0,0.0,0.0
40843223,0.001256808,-0.0020553507,0.00056962087,0.0,0.0,0.0,0.0
40875216,-0.004699205,0.0031144216,0.0021285391,0.0,0.0,0.0,0.0
40907219,-0.0064472854,-0.00013629021,0.0010293983,0.0,0.0,0.0,0.0
40939347,-0.0040993122,-0.0019847043,0.0015151068,0.0,0.0,0.0,0.0
40970454,0.0039683483,-0.00046041037,0.0015023937,0.0,0.0,0.0,0.0
41002423,-0.00091882306,-0.0008389087,0.0014824474,0.0,0.0,0.0,0.0
41033706,0.0006573652,-0.0025510567,0.00282151,0.0,0.0,0.0,0.0
41066457,-0.004149201,0.00057431764,0.0028625715,0.0,0.0,0.0,0.0
41098409,0.0019619958,0.0039140997,0.0021277852,0.0,0.0,0.0,0.0
41130417,-0.003358942,0.0005208114,0.001954691,0.0,0.0,0.0,0.0
41162452,0.002534602,0.0020996681,0.00039624143,0.0,0.0,0.0,0.0
41194466,-0.0009136938,0.0020125038,0.0019301309,0.0,0.0,0.0,0.0
41226411,-0.0028379625,-0.0023736013,0.0014598286,0.0,0.0,0.0,0.0
41258412,-0.0015414346,-0.004221273,0.002374351,0.0,0.0,0.0,0.0
41286450,-0.0038551325,-0.004028095,0.0018434469,0.0,0.0,0.0,0.0
41318420,0.0042941724,-6.485358e-05,0.0029721553,0.0,0.0,0.0,0.0
41350432,0.0015725207,-0.0011046741,0.0012015118,0.0,0.0,0.0,0.0
41382448,0.0037932983,0.0020397413,0.0009266841,0.0,0.0,0.0,0.0
41414410,-0.0036816197,-0.0008177452,0.0024859281,0.0,0.0,0.0,0.0
41446441,0.0036647795,0.0049725,0.003934226,0.0,0.0,0.0,0.0
41478411,-0.0011579527,0.0007313017,0.00047587464,0.0,0.0,0.0,0.0
41509609,0.004801416,0.0013663354,0.0016259433,0.0,0.0,0.0,0.0
41537678,0.00035570364,-0.003070211,0.0028676358,0.0,0.0,0.0,0.0
41573616,0.002897907,0.0014610821,0.0029808127,0.0,0.0,0.0,0.0
41601628,-0.0013618778,0.0031817309,0.0020729334,0.0,0.0,0.0,0.0
41633656,0.00027294783,0.0027017575,0.0009823828,0.0,0.0,0.0,0.0
41665679,0.0019699384,-0.00056835695,0.0031511297,0.0,0.0,0.0,0.0
41697613,-0.0031133795,-0.00014173717,0.002702075,0.0,0.0,0.0,0.0
41729659,0.0025778697,0.0033557212,0.0036328696,0.0,0.0,0.0,0.0
41761602,-0.0017596409,7.189519e-05,0.0011863492,0.0,0.0,0.0,0.0
41793694,0.004202826,-0.001457156,0.0016859047,0.0,0.0,0.0,0.0
41825623,-0.0019365819,-0.005244646,0.001995157,0.0,0.0,0.0,0.0
41857692,0.0009787958,-0.00043430377,0.0046336376,0.0,0.0,0.0,0.0
41889618,-0.0020075967,-0.0011500623,0.0012266992,0.0,0.0,0.0,0.0
41921648,0.005026466,0.001531751,0.0025290349,0.0,0.0,0.0,0.0
41953621,0.0012413736,-0.0011471515,0.0018447278,0.0,0.0,0.0,0.0
41985622,-0.000712209,-0.00023954606,0.0004436667,0.0,0.0,0.0,0.0
42017627,-0.002475759,-0.0020193048,0.0018672914,0.0,0.0,0.0,0.0
42048882,-0.0043080403,-0.0006587234,0.002144268,0.0,0.0,0.0,0.0
42080810,0.00029112387,0.0020076013,0.0011419752,0.0,0.0,0.0,0.0
42112890,-0.0052822176,0.002067534,0.00036783353,0.0,0.0,0.0,0.0
42144853,-0.0054735634,0.0019282135,0.002885243,0.0,0.0,0.0,0.0
42176843,-0.004118871,-0.0025073546,0.00095324754,0.0,0.0,0.0,0.0
42208810,0.0006701463,-0.00037548272,0.0049379873,0.0,0.0,0.0,0.0
42240830,-0.00059931626,0.00062371267,4.036259e-05,0.0,0.0,0.0,0.0
42272889,0.0037160194,0.003499132,0.0021220683,0.0,0.0,0.0,0.0
42304841,0.0032819537,-0.0012704437,0.0005053135,0.0,0.0,0.0,0.0
42332861,0.0026069263,0.0030801494,0.0013083185,0.0,0.0,0.0,0.0
42364879,0.0030205164,-0.0019143588,0.0009017312,0.0,0.0,0.0,0.0
42396810,0.00030936277,-0.0022829308,0.0021250178,0.0,0.0,0.0,0.0
42428850,0.000558867,0.00048014813,0.002169294,0.0,0.0,0.0,0.0
42460816,-0.002352621,1.9631581e-05,0.0024442873,0.0,0.0,0.0,0.0
42492888,-0.0014998585,-0.0006092178,0.003580793,0.0,0.0,0.0,0.0
42524813,-0.006396317,-0.0008048366,0.0010348845,0.0,0.0,0.0,0.0
42556810,-0.0021425448,-0.00025751814,0.0034454474,0.0,0.0,0.0,0.0
42584814,-0.0045227823,-0.004082675,0.00012538466,0.0,0.0,0.0,0.0
42616900,0.00019583863,0.0020541467,0.0019155161,0.0,0.0,0.0,0.0
42648874,0.0004361224,0.0002727186,0.0014061788,0.0,0.0,0.0,0.0
42680038,0.0043786047,0.0032906956,0.0015720705,0.0,0.0,0.0,0.0
42712012,0.0016923911,0.0011111399,0.0005222333,0.0,0.0,0.0,0.0
42744074,-0.002784798,-0.00050969556,0.003067917,0.0,0.0,0.0,0.0
42776055,0.00015657814,0.0033939225,0.0008132984,0.0,0.0,0.0,0.0
42808049,-0.00060803536,0.0020886967,-5.0475122e-05,0.0,0.0,0.0,0.0
42840022,0.003376924,-0.0027868752,0.0022866558,0.0,0.0,0.0,0.0
42872109,-0.0017312671,-0.0019609241,0.0015531557,0.0,0.0,0.0,0.0
42904039,-0.0032825195,0.001760301,0.003407657,0.0,0.0,0.0,0.0
42936065,-0.0065241843,-0.00097274384,0.0010680435,0.0,0.0,0.0,0.0
42968015,-0.0016587337,0.0012830643,0.0016911264,0.0,0.0,0.0,0.0
43000061,-0.001835721,0.000106115825,0.00021955161,0.0,0.0,0.0,0.0
43032051,0.0015049406,6.8853726e-05,0.003721429,0.0,0.0,0.0,0.0
43064043,0.004266623,-0.0019133277,0.0019897681,0.0,0.0,0.0,0.0
43096022,-0.0029985202,0.00083994376,0.0013505062,0.0,0.0,0.0,0.0
43127290,0.001397511,-0.00011163857,0.0018215459,0.0,0.0,0.0,0.0
43159325,0.00026489352,-0.00161527,0.0007561606,0.0,0.0,0.0,0.0
43188092,0.006785361,-0.0023627449,0.0010564832,0.0,0.0,0.0,0.0
43220059,0.0020747546,0.0026539941,0.000722077,0.0,0.0,0.0,0.0
43251263,0.0038798158,0.0020094723,0.002200499,0.0,0.0,0.0,0.0
43283219,-0.0027542808,-0.0032210322,0.00042211148,0.0,0.0,0.0,0.0
43315272,0.0023650294,-0.0034103282,0.0037707612,0.0,0.0,0.0,0.0
43347244,-7.092848e-05,-0.001966306,0.00085725496,0.0,0.0,0.0,0.0
43379310,0.0039576697,0.0015781964,0.001645417,0.0,0.0,0.0,0.0
43411254,0.001306405,0.0020861602,0.00085202,0.0,0.0,0.0,0.0
43439273,2.5950256e-05,0.0062393043,0.003934506,0.0,0.0,0.0,0.0
43471222,-0.0039644577,0.0009720207,0.00094745005,0.0,0.0,0.0,0.0
43503291,-0.005307237,0.0018764795,0.003341169,0.0,0.0,0.0,0.0
43535215,-0.0006791113,-0.0010604095,0.0010840958,0.0,0.0,0.0,0.0
43567241,0.0017508869,0.0037084618,0.0015707307,0.0,0.0,0.0,0.0
43599270,0.005946592,0.0010630185,0.0020221104,0.0,0.0,0.0,0.0
43631296,-0.0031278231,-0.0017626479,0.0015948049,0.0,0.0,0.0,0.0
43663212,0.000398456,-0.0013248506,0.002440826,0.0,0.0,0.0,0.0
43691289,-0.00478814,-2.7491129e-05,0.001583702,0.0,0.0,0.0,0.0
43721641,-0.00219691,-0.00074296456,0.0032226462,0.0,0.0,0.0,0.0
43754420,-0.0027130719,-0.004059096,0.0007807375,0.0,0.0,0.0,0.0
43786437,0.0013509549,0.00030838093,0.0038285367,0.0,0.0,0.0,0.0
43818446,-0.0004148665,0.0018807002,0.00088117947,0.0,0.0,0.0,0.0
43850414,0.0015431353,0.003767904,0.0035596038,0.0,0.0,0.0,0.0
43882426,-0.0012083167,0.0013440247,0.001082665,0.0,0.0,0.0,0.0
43914422,-0.0016789653,-0.0003222747,0.0017231153,0.0,0.0,0.0,0.0
43946438,0.00086996856,-0.003819588,0.00039321603,0.0,0.0,0.0,0.0
43974510,0.0008039023,-0.0036966437,0.0021626414,0.0,0.0,0.0,0.0
44006418,0.004406562,-0.0027145855,0.0025634489,0.0,0.0,0.0,0.0
44038410,-0.0009333098,0.00031040562,0.0019525693,0.0,0.0,0.0,0.0
44070420,-0.0007948014,0.0015667052,0.0027003665,0.0,0.0,0.0,0.0
44102451,-0.005751888,-0.000457666,0.0010122864,0.0,0.0,0.0,0.0
44134401,0.0021026472,-0.00024413574,0.0022415114,0.0,0.0,0.0,0.0
44166429,0.0019916133,-0.0006082581,0.00079159485,0.0,0.0,0.0,0.0
44198443,0.0037405905,0.0020371173,0.0026054098,0.0,0.0,0.0,0.0
44226450,0.0022964985,0.0018882066,0.0009144873,0.0,0.0,0.0,0.0
44261617,-0.00075837737,-0.00026556628,0.0021513822,0.0,0.0,0.0,0.0
44289717,-0.00054873026,-0.0011067939,0.00041104085,0.0,0.0,0.0,0.0
44321610,-0.0019307046,-0.0018259767,0.0018420403,0.0,0.0,0.0,0.0
44353661,0.00074771454,-0.0044251145,0.001963503,0.0,0.0,0.0,0.0
44385648,-0.000935478,-0.0025643196,0.0007473661,0.0,0.0,0.0,0.0
44417693,0.0037489235,-0.0021752608,0.0030342066,0.0,0.0,0.0,0.0
44449614,-0.0037882943,0.00081777654,0.0012405976,0.0,0.0,0.0,0.0
44481648,9.960553e-05,-0.00033647794,0.0025404214,0.0,0.0,0.0,0.0
44513655,-0.003202762,0.0019047156,-0.00069950754,0.0,0.0,0.0,0.0
44541624,-0.0023339828,-0.00029910903,0.0018523867,0.0,0.0,0.0,0.0
44573648,-0.0055615837,0.0014008576,0.00024231174,0.0,0.0,0.0,0.0
44605676,0.0032770722,0.00010243198,0.0019033086,0.0,0.0,0.0,0.0
44637610,0.0022852416,0.0013960381,0.00054165116,0.0,0.0,0.0,0.0
44669651,0.0019806018,-0.00035186112,0.0021429858,0.0,0.0,0.0,0.0
44701648,-0.0037606845,-0.0006270904,0.001951985,0.0,0.0,0.0,0.0
44733691,-0.00094198005,-0.00024306437,0.0015615687,0.0,0.0,0.0,0.0
44765616,0.0018562857,0.00022942363,0.0027885123,0.0,0.0,0.0,0.0
44793639,0.0018133974,8.7763765e-05,0.0017679359,0.0,0.0,0.0,0.0
44825620,0.004145214,-0.0009843125,0.0037431153,0.0,0.0,0.0,0.0
44856846,-0.00012635661,0.0015546933,-1.0309974e-05,0.0,0.0,0.0,0.0
44888858,0.0008103878,0.000773808,0.0036211745,0.0,0.0,0.0,0.0
44920816,-0.0035658178,0.0007127676,-0.0009400316,0.0,0.0,0.0,0.0
44952840,0.0016782304,0.0022446057,0.0026459133,0.0,0.0,0.0,0.0
44984829,-0.002774899,0.0034530428,0.0008145538,0.0,0.0,0.0,0.0
45016851,0.003397773,0.0016755448,0.0033781615,0.0,0.0,0.0,0.0
45048841,-0.0011655651,-0.0011423432,0.0033017986,0.0,0.0,0.0,0.0
45076851,0.0015620614,0.0007478598,0.0015167635,0.0,0.0,0.0,0.0
45108819,-0.005471956,-0.003921412,0.00046573812,0.0,0.0,0.0,0.0
45140810,0.0013534218,-0.0029147337,0.0016785526,0.0,0.0,0.0,0.0
45172855,0.00014357618,-0.0018185686,0.002356587,0.0,0.0,0.0,0.0
45204841,-0.0005205482,0.004454051,0.0010505733,0.0,0.0,0.0,0.0
45236818,0.004089277,0.0016336493,0.0039185,0.0,0.0,0.0,0.0
45268815,-0.0022074766,-0.0034554992,0.0005171022,0.0,0.0,0.0,0.0
45300853,0.0039490554,-0.0049885754,0.0027746318,0.0,0.0,0.0,0.0
45328811,-0.0017810998,0.0012941406,0.0015843326,0.0,0.0,0.0,0.0
45360847,0.0026469748,-0.00059193606,0.0031935673,0.0,0.0,0.0,0.0
45392844,-0.002396967,0.0011666598,0.00029518292,0.0,0.0,0.0,0.0
45424816,0.0013991222,0.00091451465,0.0010310023,0.0,0.0,0.0,0.0
45456091,-0.0007573588,0.0012373327,0.00021868106,0.0,0.0,0.0,0.0
45488057,-0.000530531,-0.00091846427,0.0020373692,0.0,0.0,0.0,0.0
45520054,-0.0056057135,0.0006533243,0.0020402607,0.0,0.0,0.0,0.0
45552012,0.0008518677,0.00052923977,0.00079657556,0.0,0.0,0.0,0.0
45584021,0.006794073,-0.0009481637,0.002682952,0.0,0.0,0.0,0.0
45616061,-0.0011067569,-0.0008973873,0.0011440681,0.0,0.0,0.0,0.0
45644072,0.004333319,-0.0037230407,0.0029196818,0.0,0.0,0.0,0.0
45676058,-0.005499208,0.002030466,-0.00033537624,0.0,0.0,0.0,0.0
45708054,-0.0047917846,-0.0015699783,0.0033663274,0.0,0.0,0.0,0.0
45740014,-0.004633582,0.0027676844,0.0008939698,0.0,0.0,0.0,0.0
45772105,0.004412129,-0.00057932,0.0014978793,0.0,0.0,0.0,0.0
45804049,-0.00019577798,-0.0016177378,0.0007725826,0.0,0.0,0.0,0.0
45836012,0.0034129536,-1.7583603e-05,0.00095368084,0.0,0.0,0.0,0.0
45868022,-0.005044303,0.0005628712,0.0017773092,0.0,0.0,0.0,0.0
45899326,-0.00079398486,0.0011815606,0.0023920126,0.0,0.0,0.0,0.0
45931291,-0.0009920876,-0.0040035667,0.003181914,0.0,0.0,0.0,0.0
45959346,0.002372163,-0.0021556579,0.001194512,0.0,0.0,0.0,0.0
45991212,0.0019284784,-0.001845106,0.0037822188,0.0,0.0,0.0,0.0
46023256,-0.0012429927,0.0021444228,0.00038920622,0.0,0.0,0.0,0.0
46055209,0.0005985872,-0.0016578892,0.0022005842,0.0,0.0,0.0,0.0
46087276,-0.002443885,0.0007918023,0.00042804936,0.0,0.0,0.0,0.0
46119292,0.002132562,-0.0015849334,0.0028306749,0.0,0.0,0.0,0.0
46151261,-0.0037649653,0.0012890258,0.00057598064,0.0,0.0,0.0,0.0
46183227,0.0035053159,0.000623552,0.001898692,0.0,0.0,0.0,0.0
46215285,-0.0028105394,0.00069235347,0.0021883224,0.0,0.0,0.0,0.0
46247222,-0.0007571501,0.0006313564,-0.00026145065,0.0,0.0,0.0,0.0
46279320,0.000661931,-0.0049229506,0.001707271,0.0,0.0,0.0,0.0
46311208,0.003859025,5.0556846e-06,0.0009601598,0.0,0.0,0.0,0.0
46343290,0.004601846,0.0007601484,0.002658975,0.0,0.0,0.0,0.0
46375212,0.0016675567,0.00031110574,-0.00021334714,0.0,0.0,0.0,0.0
46407252,-0.0019136706,-0.0014915208,0.0032822585,0.0,0.0,0.0,0.0
46439273,-0.0005737052,0.0010528503,0.0010139511,0.0,0.0,0.0,0.0
46470484,-0.00042426813,-0.000493132,0.00078881835,0.0,0.0,0.0,0.0
46502410,-0.00068862905,0.0009923562,0.002013404,0.0,0.0,0.0,0.0
46534447,0.0038230265,0.0010780381,0.0019533676,0.0,0.0,0.0,0.0
46566421,-0.001676409,-0.00024452363,0.0011216963,0.0,0.0,0.0,0.0
46598474,-0.0011813164,-0.0006692655,0.0013392941,0.0,0.0,0.0,0.0
46630416,-0.003197879,-0.0012421744,0.001819191,0.0,0.0,0.0,0.0
46662450,0.00092770404,0.0009803429,0.001708071,0.0,0.0,0.0,0.0
46690411,-0.0009437384,-0.0022335188,0.0023354704,0.0,0.0,0.0,0.0
46722449,-0.00020860205,0.0011814756,0.002019503,0.0,0.0,0.0,0.0
46754450,-0.002114381,-0.0018420282,0.0018345703,0.0,0.0,0.0,0.0
46786488,-0.003163304,0.0024569286,0.00063670217,0.0,0.0,0.0,0.0
46818410,8.468609e-05,0.00079461397,0.0019992278,0.0,0.0,0.0,0.0
46850462,0.0029484895,-0.0012531119,-0.00034875795,0.0,0.0,0.0,0.0
46882448,0.001562939,0.0025264537,0.00043989648,0.0,0.0,0.0,0.0
46914489,-0.00092433917,-0.00029912253,0.001789954,0.0,0.0,0.0,0.0
46942448,0.00037725747,0.0025165672,0.0022148043,0.0,0.0,0.0,0.0
46976042,-0.001686146,0.0016586222,0.0023379459,0.0,0.0,0.0,0.0
47006413,-0.00385124,0.0038552545,0.0015415417,0.0,0.0,0.0,0.0
47037618,-0.0039321054,-0.0035212934,0.0011473557,0.0,0.0,0.0,0.0
47069643,-0.0013971175,-0.0006049806,0.0023873344,0.0,0.0,0.0,0.0
47101616,-0.0003896365,0.00027032034,0.0019955782,0.0,0.0,0.0,0.0
47133615,-0.0018536014,0.0039132973,0.00036013266,0.0,0.0,0.0,0.0
47165646,0.0009606363,-0.0022802805,0.002519486,0.0,0.0,0.0,0.0
47197651,0.00034892466,-0.0026462718,0.0011345702,0.0,0.0,0.0,0.0
47229646,-0.00013124663,-0.0011566642,0.0016950143,0.0,0.0,0.0,0.0
47257658,0.0019254826,-0.00068760366,0.0015537733,0.0,0.0,0.0,0.0
47289653,0.0016778965,0.00023859227,0.0013425507,0.0,0.0,0.0,0.0
47321610,0.00240355,0.0018203874,-0.000515193,0.0,0.0,0.0,0.0
47353641,0.003713065,0.0020632686,0.0005581684,0.0,0.0,0.0,0.0
47385653,0.0006146396,-0.00088886375,0.0018897938,0.0,0.0,0.0,0.0
47417624,-0.0031363782,0.0028503123,0.0024512662,0.0,0.0,0.0,0.0
47449617,0.00021192338,-0.0032462073,0.0015369157,0.0,0.0,0.0,0.0
47481674,0.0024815826,-0.00042236294,0.0021803877,0.0,0.0,0.0,0.0
47509629,0.0010089972,-0.0028175637,0.0019803103,0.0,0.0,0.0,0.0
47541658,0.004575713,0.0046907235,0.0002570951,0.0,0.0,0.0,0.0
47572886,0.004394633,-0.00040842593,0.0017412298,0.0,0.0,0.0,0.0
47604810,-0.0025460282,0.0010495448,0.0017722042,0.0,0.0,0.0,0.0
47636866,-0.0005383682,-0.0008490261,0.00060076104,0.0,0.0,0.0,0.0
47668862,0.0005675021,0.00018493214,0.0025658857,0.0,0.0,0.0,0.0
47700925,0.0031720083,0.00045638043,0.0014456501,0.0,0.0,0.0,0.0
47732839,0.0038467199,0.00082267576,0.0013385476,0.0,0.0,0.0,0.0
47764816,-0.0032034346,0.001648929,0.0026176258,0.0,0.0,0.0,0.0
47792853,0.0005653462,-0.00042969873,0.002484001,0.0,0.0,0.0,0.0
47824852,-0.004261821,0.001796967,0.0016059357,0.0,0.0,0.0,0.0
47856850,-0.0027670364,-0.004596978,0.0013512803,0.0,0.0,0.0,0.0
47888851,0.001458994,0.00022446166,0.0015725164,0.0,0.0,0.0,0.0
47920813,0.0014701092,-0.002113568,0.0013262442,0.0,0.0,0.0,0.0
47952849,0.00073199207,0.0020421909,0.0004250107,0.0,0.0,0.0,0.0
47984852,-0.0016926865,-8.801348e-06,0.0012372222,0.0,0.0,0.0,0.0
48016858,-0.002017321,0.0020092889,0.0032340754,0.0,0.0,0.0,0.0
48044866,-0.00096520555,0.0007862544,0.0027820976,0.0,0.0,0.0,0.0
48080115,-0.0020333317,-0.004469607,0.0020048346,0.0,0.0,0.0,0.0
48115258,-0.00083380623,0.0020372258,0.001301878,0.0,0.0,0.0,0.0
48144064,-0.002107438,-0.0020500429,0.0019772905,0.0,0.0,0.0,0.0
48176013,-0.0033638007,0.003515834,0.0017284944,0.0,0.0,0.0,0.0
48208084,-0.0019214128,-0.001174366,0.0008415594,0.0,0.0,0.0,0.0
48240045,-0.0001452316,0.0008522691,0.0010391972,0.0,0.0,0.0,0.0
48272018,0.0036693828,-0.0003468257,0.0012605549,0.0,0.0,0.0,0.0
48304033,0.0037401032,-0.00026948634,0.004294566,0.0,0.0,0.0,0.0
48336049,0.0011716229,-0.0011130236,0.0014642094,0.0,0.0,0.0,0.0
48368048,0.00018038158,0.0010175051,0.001544679,0.0,0.0,0.0,0.0
48400022,-0.0021664987,0.0025887934,-0.00045955856,0.0,0.0,0.0,0.0
48432032,-0.0017428016,-0.001569699,0.0009464575,0.0,0.0,0.0,0.0
48464061,0.0029958556,0.0011944948,0.0030680227,0.0,0.0,0.0,0.0
48496053,-0.00044310332,-0.00043943175,0.0026447983,0.0,0.0,0.0,0.0
48528032,0.0005288274,0.0031149308,0.00044797058,0.0,0.0,0.0,0.0
48556060,0.0010105853,-0.002430264,0.0016422315,0.0,0.0,0.0,0.0
48588014,-6.6005625e-05,0.0006618578,0.0015695763,0.0,0.0,0.0,0.0
48618448,-0.0024941391,-0.00026372762,0.002644727,0.0,0.0,0.0,0.0
48651293,0.0032688132,0.0005171639,0.0021524285,0.0,0.0,0.0,0.0
48683205,0.0010093887,-0.0012161375,0.002379145,0.0,0.0,0.0,0.0
48715242,-0.0041512707,0.0026867932,1.5252503e-05,0.0,0.0,0.0,0.0
48747219,-0.006378901,0.00041990506,0.00057894574,0.0,0.0,0.0,0.0
48779357,-0.0036642915,1.9744504e-05,0.0027181548,0.0,0.0,0.0,0.0
48811213,0.0033169836,0.0020857062,0.0021735276,0.0,0.0,0.0,0.0
48843249,0.0015355472,0.0033551757,0.0014530312,0.0,0.0,0.0,0.0
48871246,0.003017886,0.0011618473,0.0025745146,0.0,0.0,0.0,0.0
48903274,-0.0012129223,-0.0020096654,0.00078623835,0.0,0.0,0.0,0.0
48935215,0.0005213879,-0.0011149457,0.0022669109,0.0,0.0,0.0,0.0
48967308,-0.0023281944,-0.003316981,0.0012811912,0.0,0.0,0.0,0.0
48999281,0.0012300495,-0.002311288,0.0021015662,0.0,0.0,0.0,0.0
49031260,-0.003553215,-0.00039855967,7.4166106e-05,0.0,0.0,0.0,0.0
49063216,-0.002399241,0.0019628268,0.0018100123,0.0,0.0,0.0,0.0
49095329,-0.0024033643,-0.001145373,0.0022194728,0.0,0.0,0.0,0.0
49123225,-0.0032917631,0.0010184558,0.0024160056,0.0,0.0,0.0,0.0
49154410,-0.0022554807,-0.0017423407,-0.0007639362,0.0,0.0,0.0,0.0
49186408,0.0015181586,0.002895081,0.0013853364,0.0,0.0,0.0,0.0
49218436,0.003558335,0.0022564854,0.0009708279,0.0,0.0,0.0,0.0
49250437,0.004500321,0.0019222434,0.0013076873,0.0,0.0,0.0,0.0
50041630,0.0032394452,-0.0009838543,0.0005008413,0.0,0.0,0.0,0.0
50073615,-0.0038903388,-0.00070076005,0.00082210195,0.0,0.0,0.0,0.0
50105659,0.00077285257,-0.0010859988,0.001693208,0.0,0.0,0.0,0.0
50137662,-0.004130467,-0.0015044532,0.0005751946,0.0,0.0,0.0,0.0
50512885,0.0023267274,0.0011569147,0.002399393,0.0,0.0,0.0,0.0
50544829,-0.0032779626,-0.0007390528,0.00014784653,0.0,0.0,0.0,0.0
50576882,0.0030361265,-0.0021130694,0.0023165406,0.0,0.0,0.0,0.0
50608852,0.0012145584,-0.0025954144,0.0025934689,0.0,0.0,0.0,0.0
50640817,0.0065132296,-0.0009940512,0.0024260785,0.0,0.0,0.0,0.0
50672847,-0.0043993145,5.156803e-05,-0.0012835304,0.0,0.0,0.0,0.0
50704845,-0.0017337495,0.0013357918,0.0010386214,0.0,0.0,0.0,0.0
50732846,-0.0042760144,0.00037713093,0.00022896775,0.0,0.0,0.0,0.0
50764880,-0.0018267621,0.0015042254,0.0035195197,0.0,0.0,0.0,0.0
50796847,-0.0022628498,0.00039869512,0.0022955425,0.0,0.0,0.0,0.0
50828063,-0.0033754776,-0.002041601,0.0012372648,0.0,0.0,0.0,0.0
50860019,0.0035523768,0.0003173434,0.0020883079,0.0,0.0,0.0,0.0
50892053,-0.0020738195,0.0011869483,0.0009678458,0.0,0.0,0.0,0.0
50924014,0.0028127178,0.002059573,0.0026215347,0.0,0.0,0.0,0.0
50956051,-0.0029490744,-0.004321837,0.0012715426,0.0,0.0,0.0,0.0
50988016,0.0012555887,-0.00027775904,0.0012945365,0.0,0.0,0.0,0.0
51020094,-0.0015054203,0.0012110781,0.00014623767,0.0,0.0,0.0,0.0
51048043,0.0002150567,0.002123829,0.0007454271,0.0,0.0,0.0,0.0
51080110,-0.0033927567,-0.00087156973,0.0015401632,0.0,0.0,0.0,0.0
51112012,-0.00097199006,0.004586958,0.002249977,0.0,0.0,0.0,0.0
51144030,0.0015521244,-0.0041315714,0.0011684018,0.0,0.0,0.0,0.0
51176036,-0.0030209585,-0.0021868455,0.0015407741,0.0,0.0,0.0,0.0
51208141,-0.003533558,-5.3797383e-05,0.0021284635,0.0,0.0,0.0,0.0
51240025,-0.0009324595,0.00014995097,0.0014162685,0.0,0.0,0.0,0.0
51272061,0.0076480904,0.0025727735,0.0021560404,0.0,0.0,0.0,0.0
51303242,-0.0033451668,0.0026625171,0.0012206775,0.0,0.0,0.0,0.0
51332062,0.0044042487,0.0013412174,0.001963742,0.0,0.0,0.0,0.0
51363333,-0.0040518683,-0.0011492555,0.0021789658,0.0,0.0,0.0,0.0
51395212,0.0018268736,-0.00039640127,0.0018405902,0.0,0.0,0.0,0.0
51427222,0.0005287507,-0.0001693964,0.00059387553,0.0,0.0,0.0,0.0
51459274,0.002037411,0.0013464404,0.002339558,0.0,0.0,0.0,0.0
51491248,0.0021787656,-0.0030053414,0.0015952702,0.0,0.0,0.0,0.0
51523212,-0.0003731682,0.0006912912,0.002476362,0.0,0.0,0.0,0.0
51555219,-0.003935798,4.7813286e-05,-0.0002797821,0.0,0.0,0.0,0.0
51587251,-0.0060229916,0.0008222511,0.0011257727,0.0,0.0,0.0,0.0
51615282,-0.003993802,0.0005937455,0.0015222528,0.0,0.0,0.0,0.0
51647205,-0.0045072073,-0.0009623361,0.00064839446,0.0,0.0,0.0,0.0
51679301,0.0039648735,-0.00011107873,0.001778921,0.0,0.0,0.0,0.0
51711220,0.0011179305,0.0019782651,0.0010512434,0.0,0.0,0.0,0.0
51743211,0.002963887,0.00085360836,0.0032771195,0.0,0.0,0.0,0.0
51775242,-0.00097388105,-0.0046246788,0.0009215574,0.0,0.0,0.0,0.0
51807239,-0.00044186896,-0.0014185468,0.002418831,0.0,0.0,0.0,0.0
51839296,0.0006305821,0.0031311193,0.0011426269,0.0,0.0,0.0,0.0
51869631,-0.0004379474,0.0051364,0.0029044955,0.0,0.0,0.0,0.0
51899273,0.0017341931,0.002335092,0.0010869651,0.0,0.0,0.0,0.0
51930446,-0.00150474,0.0026179925,0.0010045017,0.0,0.0,0.0,0.0
51962454,-0.0026723389,0.000941967,-0.00029099034,0.0,0.0,0.0,0.0
51994477,-0.002213037,0.000846084,0.0023056446,0.0,0.0,0.0,0.0
52026410,0.0006745283,-0.0036753246,0.0015678315,0.0,0.0,0.0,0.0
52058490,-0.002196237,-0.0015498974,0.0009200296,0.0,0.0,0.0,0.0
52090448,0.0027256845,0.0052853012,0.0023569535,0.0,0.0,0.0,0.0
52122498,0.00019941968,0.0026204088,-0.00013926043,0.0,0.0,0.0,0.0
52154412,0.0024547912,-0.00018416531,0.003974187,0.0,0.0,0.0,0.0
52182435,-0.006335913,0.0003342718,0.00063476735,0.0,0.0,0.0,0.0
52214410,-0.0025421598,0.0026626824,0.0018300678,0.0,0.0,0.0,0.0
52246447,-0.0013064498,0.00026048766,-0.000770411,0.0,0.0,0.0,0.0
52278438,-0.001332553,0.0049366755,0.0024363312,0.0,0.0,0.0,0.0
52310451,0.0009768748,0.00028115907,0.00091288704,0.0,0.0,0.0,0.0
52342413,-0.002967654,0.001931413,0.0027482982,0.0,0.0,0.0,0.0
52374421,-0.0015633084,-0.0027685417,0.00061883335,0.0,0.0,0.0,0.0
52402417,-0.004462979,-0.0001880565,0.0007850395,0.0,0.0,0.0,0.0
52434467,0.0030207704,-0.0021957466,-0.00072839507,0.0,0.0,0.0,0.0
52466451,-0.0038477131,-0.00014222215,0.0016450147,0.0,0.0,0.0,0.0
52497622,0.0033498427,0.0015621306,0.0011257206,0.0,0.0,0.0,0.0
52529610,-1.8813647e-05,0.0020042,0.00090452936,0.0,0.0,0.0,0.0
52561670,-0.0027579265,0.0026154239,0.0013332854,0.0,0.0,0.0,0.0
52593625,-0.00058622746,-0.0038765077,-0.00038129906,0.0,0.0,0.0,0.0
52625655,0.0051292377,7.8374986e-05,0.0033761787,0.0,0.0,0.0,0.0
52657610,0.00313786,-0.0015816942,0.0016147378,0.0,0.0,0.0,0.0
52689672,-0.0028946395,-0.0026221941,0.0031500845,0.0,0.0,0.0,0.0
52717617,0.0021392275,-0.0013782727,0.0011890476,0.0,0.0,0.0,0.0
52749647,-0.002932641,0.00017278746,0.001574287,0.0,0.0,0.0,0.0
52781618,0.0005727643,-0.0023228507,0.0014320622,0.0,0.0,0.0,0.0
52813610,-0.0016054541,0.0003151329,0.003660497,0.0,0.0,0.0,0.0
52845619,0.004148914,0.0015189821,0.0011826941,0.0,0.0,0.0,0.0
52877649,5.292287e-05,0.0024125203,0.00094687846,0.0,0.0,0.0,0.0
52909651,0.0011901936,0.0025912523,0.00085422513,0.0,0.0,0.0,0.0
52941650,-0.00040722342,-0.00010437798,0.0021123006,0.0,0.0,0.0,0.0
52969623,-9.476289e-05,0.004215974,0.0031087003,0.0,0.0,0.0,0.0
53000059,-0.0010065455,0.0013016217,1.2361212e-05,0.0,0.0,0.0,0.0
53032934,0.0019388563,0.0024741641,0.00061494415,0.0,0.0,0.0,0.0
53064840,0.004873018,-0.004619761,-3.271876e-05,0.0,0.0,0.0,0.0
53096842,-0.0010584051,-0.0020077454,0.0018961007,0.0,0.0,0.0,0.0
53128810,-0.0023130607,-0.0034679384,0.0014747434,0.0,0.0,0.0,0.0
53160900,-0.0033204593,-0.00050716405,0.0034204903,0.0,0.0,0.0,0.0
53192888,0.004020943,0.0015916323,0.0013399196,0.0,0.0,0.0,0.0
53224810,0.0010258845,-8.538645e-05,-0.0005091294,0.0,0.0,0.0,0.0
53252881,0.0038377843,-0.00078553695,0.0014217026,0.0,0.0,0.0,0.0
53284856,0.00021744566,0.0034579157,0.0021842637,0.0,0.0,0.0,0.0
53316810,0.0005117584,0.0040000146,0.0025207147,0.0,0.0,0.0,0.0
53348887,-0.0021880893,-0.0015362803,0.0017560354,0.0,0.0,0.0,0.0
53380857,-0.0035426016,-5.714968e-05,0.001959798,0.0,0.0,0.0,0.0
53412914,0.0016440176,0.002925598,-0.0006413183,0.0,0.0,0.0,0.0
53444813,0.0007072438,0.0017369294,0.0027434167,0.0,0.0,0.0,0.0
53476822,-0.0006151545,-0.0036058032,0.001527762,0.0,0.0,0.0,0.0
53508015,-0.003942472,-0.0017200799,0.0009208529,0.0,0.0,0.0,0.0
53539321,-0.0009312278,-0.0034231257,4.030764e-06,0.0,0.0,0.0,0.0
53568810,-0.0063854354,-0.0022630198,0.0019422476,0.0,0.0,0.0,0.0
53600034,0.001538088,-0.0048084576,0.0013480646,0.0,0.0,0.0,0.0
53632063,-0.0019939207,0.0019591772,0.0007284207,0.0,0.0,0.0,0.0
53664073,0.0035323165,0.0024432149,0.0004330373,0.0,0.0,0.0,0.0
53696011,-0.0014309613,0.0017289312,6.497139e-06,0.0,0.0,0.0,0.0
53728054,-0.0006378962,0.0013850128,0.0025292507,0.0,0.0,0.0,0.0
53760046,-0.0034639458,-1.2308359e-05,0.0009892614,0.0,0.0,0.0,0.0
53792105,-0.002094908,0.0009188652,0.0012926463,0.0,0.0,0.0,0.0
53820047,-0.002020314,-0.0013595091,0.00032632123,0.0,0.0,0.0,0.0
53852094,-0.0009370168,0.0026134483,0.0015906396,0.0,0.0,0.0,0.0
53884022,0.0029899012,-0.0006166638,0.00016565155,0.0,0.0,0.0,0.0
53916043,0.00088047097,-0.0025562227,0.0026935318,0.0,0.0,0.0,0.0
53948022,0.0042627733,-0.0015684131,0.0022094098,0.0,0.0,0.0,0.0
53980113,-0.0022135545,0.0005363594,0.00086339377,0.0,0.0,0.0,0.0
54012016,-0.00048157416,0.0004193317,0.00024055829,0.0,0.0,0.0,0.0
54042445,-0.0017520261,0.0017842163,-0.00058291457,0.0,0.0,0.0,0.0
54073622,0.00010925892,0.0036810955,0.0014290409,0.0,0.0,0.0,0.0
54104074,-0.0015014479,0.0028352113,0.0014244576,0.0,0.0,0.0,0.0
54135324,-0.0033281585,0.0010539455,-0.00014222832,0.0,0.0,0.0,0.0
54167217,0.0028769532,0.0022449435,0.00080481987,0.0,0.0,0.0,0.0
54199274,0.0009424406,0.00037845224,0.00032862253,0.0,0.0,0.0,0.0
54231234,-0.002312249,-0.0033298777,0.0034212177,0.0,0.0,0.0,0.0
54263263,-0.006214433,-0.003675457,0.002217457,0.0,0.0,0.0,0.0
54295215,0.005293558,0.0022376878,0.0008622005,0.0,0.0,0.0,0.0
54327209,0.0022015204,0.0076523903,9.467616e-05,0.0,0.0,0.0,0.0
54359315,-0.001405201,-0.0015204413,0.0013816779,0.0,0.0,0.0,0.0
54391266,-0.0039596995,-0.00069665944,0.0009686926,0.0,0.0,0.0,0.0
54423264,0.00033840328,-0.0005024069,-0.00015677582,0.0,0.0,0.0,0.0
54455217,0.0044935383,0.004848845,0.0019622366,0.0,0.0,0.0,0.0
54487234,0.0005196461,-0.00019846414,0.0016798982,0.0,0.0,0.0,0.0
54519318,0.0004750488,0.0014059313,0.0025245477,0.0,0.0,0.0,0.0
54551305,0.0021422321,-0.004224537,0.0013543573,0.0,0.0,0.0,0.0
54583245,0.0028496468,-0.0012776658,0.0019088567,0.0,0.0,0.0,0.0
54614432,0.002386629,0.003567712,0.0017930903,0.0,0.0,0.0,0.0
54644813,-0.0014818443,0.0008203717,0.0013728456,0.0,0.0,0.0,0.0
54674436,0.003952588,0.004081727,-0.00010784436,0.0,0.0,0.0,0.0
54706451,-0.000665067,0.0014980083,0.0012947746,0.0,0.0,0.0,0.0
54738416,-0.0025853617,0.00059608114,0.0015280161,0.0,0.0,0.0,0.0
54770410,-0.006851967,-0.002059021,0.0019704557,0.0,0.0,0.0,0.0
54802426,0.00082353293,0.00027797895,0.0024105671,0.0,0.0,0.0,0.0
54834455,0.0050264485,0.0006936224,-0.0007759996,0.0,0.0,0.0,0.0
54866411,0.0028779479,0.0010106288,0.0018409021,0.0,0.0,0.0,0.0
54894450,0.0014182794,0.00045968674,-0.00067216414,0.0,0.0,0.0,0.0
54926416,0.0037125526,-0.0004319786,0.0025067395,0.0,0.0,0.0,0.0
54958410,0.0008627807,-0.0036189798,0.0017995674,0.0,0.0,0.0,0.0
54990454,-0.00161991,-0.0014414492,0.0027772475,0.0,0.0,0.0,0.0
55022410,0.00078549574,0.0009415044,-0.00022935448,0.0,0.0,0.0,0.0
55054428,-0.00027864246,-0.0008422045,0.001174767,0.0,0.0,0.0,0.0
55086421,0.0036275168,0.0019475446,0.0022891094,0.0,0.0,0.0,0.0
55118448,-0.005340186,-0.0013047936,0.0020703461,0.0,0.0,0.0,0.0
55149650,-0.003215759,-0.00071143295,0.0023599563,0.0,0.0,0.0,0.0
55181617,-0.0010482419,-0.0039005657,0.0022709265,0.0,0.0,0.0,0.0
55213701,0.0064742505,-0.0012982554,0.0016690263,0.0,0.0,0.0,0.0
55245640,0.00030199415,0.0025133742,0.0018900922,0.0,0.0,0.0,0.0
55277610,-0.0064230287,0.004185709,0.0015656527,0.0,0.0,0.0,0.0
55309608,0.0006026705,0.0011284335,-0.00044720853,0.0,0.0,0.0,0.0
55341618,-0.0028557435,0.00018029101,0.0019077003,0.0,0.0,0.0,0.0
55373643,0.0005181992,-0.0005560827,0.0006075299,0.0,0.0,0.0,0.0
55405621,0.002717048,-0.0011288588,0.0011195537,0.0,0.0,0.0,0.0
55437612,0.00016583805,0.0017499892,0.0014889005,0.0,0.0,0.0,0.0
55469656,-0.0066087763,-0.003149793,0.0027262734,0.0,0.0,0.0,0.0
55501644,0.0015596371,0.00212147,0.0024655145,0.0,0.0,0.0,0.0
55533614,-0.0026617972,0.000103884144,0.0008157715,0.0,0.0,0.0,0.0
55565654,-0.0006167131,0.0021143393,0.0004948317,0.0,0.0,0.0,0.0
55597610,0.0005364078,0.0013327204,0.0007672999,0.0,0.0,0.0,0.0
55629689,0.00015677232,0.0014815931,0.0016343934,0.0,0.0,0.0,0.0
55657649,0.0024661014,0.001995467,-0.0006379853,0.0,0.0,0.0,0.0
55689687,0.0022048242,0.0025604023,0.001955549,0.0,0.0,0.0,0.0
55720859,-0.0002840957,-0.0028383492,0.0006926004,0.0,0.0,0.0,0.0
55752073,-0.003990366,-0.0030750078,0.0038790926,0.0,0.0,0.0,0.0
55784879,0.0025067935,0.004446891,0.0008458339,0.0,0.0,0.0,0.0
55816844,-0.0024938174,0.0014186655,-0.00065885996,0.0,0.0,0.0,0.0
55848838,0.00023724907,0.00078201806,0.00065939757,0.0,0.0,0.0,0.0
55880810,-0.0062250644,-0.0039891675,0.00013482291,0.0,0.0,0.0,0.0
55912867,0.0023352653,0.0013037414,0.0016072867,0.0,0.0,0.0,0.0
55940810,-0.0053450777,-0.0017854194,0.0017919827,0.0,0.0,0.0,0.0
55972912,0.00039683678,-5.0680712e-05,0.0029888179,0.0,0.0,0.0,0.0
56004823,0.0014094032,0.0011513516,0.0013460001,0.0,0.0,0.0,0.0
56036866,0.0022606547,0.0033124373,0.0010202624,0.0,0.0,0.0,0.0
56068810,-0.003905437,0.0014379217,-0.0007021527,0.0,0.0,0.0,0.0
56100920,-0.006178018,-0.00077062694,0.0011462083,0.0,0.0,0.0,0.0
56132880,0.003042236,0.0034278433,0.00075392216,0.0,0.0,0.0,0.0
56164810,0.0027896527,0.0008694113,0.0012377661,0.0,0.0,0.0,0.0
56196068,0.0013042359,0.0017122092,-0.0010066454,0.0,0.0,0.0,0.0
56228090,-0.0007044146,0.0009787831,0.0024772242,0.0,0.0,0.0,0.0
56256065,0.0027339705,-0.0009127797,0.002506121,0.0,0.0,0.0,0.0
56288073,-0.004061807,-0.0013942736,0.0042205597,0.0,0.0,0.0,0.0
56320014,-0.00020215823,0.00087486627,-0.0012980134,0.0,0.0,0.0,0.0
56352041,-0.0065836087,-0.0018365833,-0.00041643647,0.0,0.0,0.0,0.0
56384028,0.0058625215,0.00034329924,0.0008082476,0.0,0.0,0.0,0.0
56416090,-0.00022095023,0.0016177915,0.0058139483,0.0,0.0,0.0,0.0
56448012,0.0017321473,0.0045995265,0.0009076103,0.0,0.0,0.0,0.0
56480108,4.9454276e-05,-0.0028265691,0.00045373803,0.0,0.0,0.0,0.0
56512025,-0.0001330272,0.0001983865,0.00042628008,0.0,0.0,0.0,0.0
56544088,-0.00388941,-0.0029350857,0.0005852983,0.0,0.0,0.0,0.0
56576012,-0.002926404,0.0024566953,0.0034933067,0.0,0.0,0.0,0.0
56608051,0.004939446,0.0012270274,-0.0004927332,0.0,0.0,0.0,0.0
56640013,0.0040113237,0.0026157927,0.00217521,0.0,0.0,0.0,0.0
56672102,0.0012865246,0.00069995446,-0.0026495266,0.0,0.0,0.0,0.0
56704028,-0.005752854,-0.0022733407,0.0033936715,0.0,0.0,0.0,0.0
56736016,0.003368661,0.00042535923,0.0022907655,0.0,0.0,0.0,0.0
56767274,0.0006956855,-0.0011538891,0.0022432527,0.0,0.0,0.0,0.0
56799347,0.003509217,0.002384739,0.0010442254,0.0,0.0,0.0,0.0
56831233,-0.00044834008,-0.0012660102,0.0015368105,0.0,0.0,0.0,0.0
56863259,-0.0012578216,0.003650338,0.002152987,0.0,0.0,0.0,0.0
56895233,-0.004298024,-0.0027513066,0.001815533,0.0,0.0,0.0,0.0
56927261,-0.0041755587,-0.00074658974,0.0040770173,0.0,0.0,0.0,0.0
56959279,0.006804957,-0.0034445853,7.753959e-05,0.0,0.0,0.0,0.0
56991209,0.0028701648,0.00042179576,0.0017078427,0.0,0.0,0.0,0.0
57023229,0.0020604949,0.0034704003,-0.00027791597,0.0,0.0,0.0,0.0
57055236,0.00031961687,-0.000104798935,0.0027044523,0.0,0.0,0.0,0.0
57087213,0.0004950933,0.0022773193,-0.0018106299,0.0,0.0,0.0,0.0
57119302,-0.003972362,-0.0016146915,0.00026404834,0.0,0.0,0.0,0.0
57151235,0.004078878,0.0011281117,-0.00067738676,0.0,0.0,0.0,0.0
57183255,-0.0023466821,-0.0020118437,0.0015699813,0.0,0.0,0.0,0.0
57215217,0.0013097544,-0.0005248998,0.0010692708,0.0,0.0,0.0,0.0
57247221,-0.0021689225,-0.001984186,0.0020986567,0.0,0.0,0.0,0.0
57279292,0.004830473,0.00095610355,-0.0017723381,0.0,0.0,0.0,0.0
57311250,-0.0013271675,0.0011779097,0.001599229,0.0,0.0,0.0,0.0
57343239,0.0019520932,0.0003765889,0.0014435089,0.0,0.0,0.0,0.0
57375219,0.0022903867,0.00038985943,0.002114366,0.0,0.0,0.0,0.0
57407283,-6.8170484e-05,-0.00061208894,0.0013270682,0.0,0.0,0.0,0.0
57439327,0.004703789,-0.00069006585,-0.00026687467,0.0,0.0,0.0,0.0
57467262,-0.0035025221,0.0007811674,-0.00080515957,0.0,0.0,0.0,0.0
57502415,-0.0014190748,-0.00039039506,0.0017844862,0.0,0.0,0.0,0.0
57530411,-0.00017709634,-0.0016806378,0.0016434389,0.0,0.0,0.0,0.0
57562443,-8.887809e-05,-0.0012517222,-0.0005957212,0.0,0.0,0.0,0.0
57594454,0.00042111415,-0.0014224914,0.0018159035,0.0,0.0,0.0,0.0
57626409,-0.001749363,-0.0020984828,0.0016109057,0.0,0.0,0.0,0.0
57658418,0.0027437834,-0.00058083585,0.0022951728,0.0,0.0,0.0,0.0
57690414,-0.0013106203,0.0022255261,-0.0009771991,0.0,0.0,0.0,0.0
57722447,-0.00020211865,0.0014456963,0.00077282754,0.0,0.0,0.0,0.0
57750490,-0.0019304767,-0.0016660683,0.0013331197,0.0,0.0,0.0,0.0
57782470,0.0030540172,0.0011874351,0.0010689709,0.0,0.0,0.0,0.0
57813652,0.0020108686,0.0010232704,0.00041910703,0.0,0.0,0.0,0.0
57846413,0.00092340575,0.0009302618,0.0013955759,0.0,0.0,0.0,0.0
57877673,0.0019233259,-0.0014693472,0.00027236342,0.0,0.0,0.0,0.0
57909670,-0.0014723776,0.0019842554,-0.0006232322,0.0,0.0,0.0,0.0
57941659,0.0030803294,-0.000246219,0.0025424839,0.0,0.0,0.0,0.0
57973637,-0.0021279883,-0.0016281024,0.00033768103,0.0,0.0,0.0,0.0
58005672,-0.0023647402,0.00060281996,0.00010500103,0.0,0.0,0.0,0.0
58037654,0.00013975438,0.0011591869,0.00017675757,0.0,0.0,0.0,0.0
58065665,-8.2709594e-05,-0.00024469494,0.0024256923,0.0,0.0,0.0,0.0
58097615,0.0020267924,0.00020104833,0.0029321215,0.0,0.0,0.0,0.0
58129652,-0.00051594333,0.0019257456,0.0013537096,0.0,0.0,0.0,0.0
58161610,-0.0024576096,-0.0013211094,0.00012801704,0.0,0.0,0.0,0.0
58193688,0.0006484651,-0.002771594,0.0016469193,0.0,0.0,0.0,0.0
58225602,0.0011946438,-0.0006303399,0.002488765,0.0,0.0,0.0,0.0
58257650,-2.4999375e-05,0.0006295431,0.0009231329,0.0,0.0,0.0,0.0
58289660,-0.00024537928,-0.0017763975,0.0012721918,0.0,0.0,0.0,0.0
58317641,8.375966e-06,-0.00130261,-0.00029121246,0.0,0.0,0.0,0.0
58349636,-0.0012440835,0.0012011299,0.0056311367,0.0,0.0,0.0,0.0
58381692,0.0016202432,0.00039922877,-0.002519783,0.0,0.0,0.0,0.0
58413610,-0.00010960642,-0.0012454793,-0.0094806785,0.0,0.0,0.0,0.0
58444822,-0.0009944573,-0.00015764718,0.0025488592,0.0,0.0,0.0,0.0
58478431,0.0009928702,-0.0004651865,0.01232101,0.0,0.0,0.0,0.0
58508814,0.0015350508,-0.0004705264,0.0032373448,0.0,0.0,0.0,0.0
58540814,0.00030037295,-0.0008497096,-0.0051890872,0.0,0.0,0.0,0.0
58572865,-0.0014524563,0.0010348572,-0.008839045,0.0,0.0,0.0,0.0
58600813,0.00017394638,-8.828845e-05,0.0008032535,0.0,0.0,0.0,0.0
58632865,0.00014446606,-0.0018811224,0.009039627,0.0,0.0,0.0,0.0
58664853,0.0007612216,0.00024077552,0.004986489,0.0,0.0,0.0,0.0
58696810,-0.00057358,-0.0011414792,-0.005296513,0.0,0.0,0.0,0.0
58728810,-0.0010573574,0.00038385938,-0.004177088,0.0,0.0,0.0,0.0
58760845,0.0007870218,-0.0004344866,0.0011787852,0.0,0.0,0.0,0.0
58792866,-0.00015905977,0.0012172607,0.007928062,0.0,0.0,0.0,0.0
58824873,0.0020519595,-0.0002583259,0.0008815391,0.0,0.0,0.0,0.0
58852884,-0.002135947,0.00016703247,-0.0031855775,0.0,0.0,0.0,0.0
58884829,-0.0012439784,-0.0003039576,-0.0025312053,0.0,0.0,0.0,0.0
58916810,0.0002977848,8.4633706e-05,0.002191902,0.0,0.0,0.0,0.0
58950410,0.00040731172,0.00065333827,0.004667178,0.0,0.0,0.0,0.0
58980851,-0.0010513982,0.0002404463,0.0013521668,0.0,0.0,0.0,0.0
59012846,0.00011137745,-0.00061025063,-0.0021717963,0.0,0.0,0.0,0.0
59044055,0.00014917913,0.0001307443,-0.00093118777,0.0,0.0,0.0,0.0
59076061,0.0010650057,-0.0003238162,0.0017505161,0.0,0.0,0.0,0.0
59108046,-0.0007863998,-0.00065345457,0.004379291,0.0,0.0,0.0,0.0
59140028,0.00040111132,-0.00050838274,0.0010573365,0.0,0.0,0.0,0.0
59168094,0.00048781896,0.00063729833,-0.00055654044,0.0,0.0,0.0,0.0
59200011,-0.00049937615,0.00065899675,-0.0006947075,0.0,0.0,0.0,0.0
59232064,0.0007081212,0.0010896686,0.00062738545,0.0,0.0,0.0,0.0
59264033,-1.8587569e-05,0.0004934657,0.0020977308,0.0,0.0,0.0,0.0
59296091,-0.00045536744,0.00018355495,0.00073113455,0.0,0.0,0.0,0.0
59328021,-0.00016691606,-0.0005091212,-0.0014554944,0.0,0.0,0.0,0.0
59360107,-0.00018703169,0.00090355496,-2.6895897e-05,0.0,0.0,0.0,0.0
59392029,0.00021013233,-0.00057523407,0.0004624566,0.0,0.0,0.0,0.0
59420073,-1.8940074e-05,0.0010503245,0.0019956809,0.0,0.0,0.0,0.0
59455245,0.000101101,-0.0005406684,-0.00033540162,0.0,0.0,0.0,0.0
59484852,0.0010887476,0.001037753,-0.0007999011,0.0,0.0,0.0,0.0
59515217,-0.0003611592,-0.00041631458,-0.0007949271,0.0,0.0,0.0,0.0
59547235,0.0012472091,-0.00023553241,0.0019015104,0.0,0.0,0.0,0.0
59579300,0.00020952302,-0.0008349724,0.002085416,0.0,0.0,0.0,0.0
59611236,0.0012951131,0.0002290887,0.0007614235,0.0,0.0,0.0,0.0
59643213,-0.0007090769,-0.00037028152,-0.0007777638,0.0,0.0,0.0,0.0
59675297,0.00049163564,0.00010681327,0.00060463743,0.0,0.0,0.0,0.0
