timestamp,states[0],states[1],states[2],states[3],states[4],states[5],states[6],states[7],states[8],states[9],states[10],states[11],states[12],states[13],states[14],states[15],states[16],states[17],states[18],states[19],states[20],states[21],states[22],states[23],vibe[0],vibe[1],vibe[2],covariances[0],covariances[1],covariances[2],covariances[3],covariances[4],covariances[5],covariances[6],covariances[7],covariances[8],covariances[9],covariances[10],covariances[11],covariances[12],covariances[13],covariances[14],covariances[15],covariances[16],covariances[17],covariances[18],covariances[19],covariances[20],covariances[21],covariances[22],covariances[23],control_mode_flags,pos_horiz_accuracy,pos_vert_accuracy,mag_test_ratio,vel_test_ratio,pos_test_ratio,hgt_test_ratio,tas_test_ratio,hagl_test_ratio,beta_test_ratio,time_slip,gps_check_fail_flags,filter_fault_flags,innovation_check_flags,solution_status_flags,n_states,pre_flt_fail,health_flags,timeout_flags
29487069,0.49738178,-0.0010599942,0.003426956,0.86752445,0.004994236,-0.00060118013,0.01973181,0.0020570473,-0.0001439902,0.15739572,1.04789e-05,1.0240911e-05,-1.8805922e-05,-6.567416e-06,8.09975e-06,0.0003496553,0.18936811,3.2675114e-08,0.33045304,0.0,0.0,0.0,0.0,0.0,8.482877e-11,9.033541e-06,0.0018850487,8.5558786e-05,7.220824e-05,7.220392e-05,2.725182e-05,0.005336731,0.005336523,0.010996172,0.007394029,0.0073939227,0.059660867,1.3972082e-11,1.3972719e-11,2.285641e-10,1.6942591e-06,1.694089e-06,5e-08,0.0,0.0,0.0,0.0,0.0,0.0,0.0,0.0,531,0.121605724,0.24425574,0.04076518,0.0,4.1764153e-05,0.021024067,0.0,0.0,0.0,0.015979,0,0,0,165,24,0,0,0
29687069,0.4974711,-0.0010533037,0.003427153,0.8674731,0.0057806163,-0.00046553556,0.020451618,0.0025524185,-0.00023985637,0.16493101,1.0472081e-05,1.0245868e-05,-1.8572247e-05,-6.570229e-06,8.182432e-06,0.0003481201,0.18936811,3.2675114e-08,0.33045304,0.0,0.0,0.0,0.0,0.0,7.9444895e-11,8.593551e-06,0.0012705002,8.479957e-05,7.219445e-05,7.219003e-05,2.700544e-05,0.005357913,0.005357713,0.0110057965,0.007432104,0.0074319993,0.059822462,1.3850663e-11,1.3851328e-11,2.2223215e-10,1.6942175e-06,1.6940473e-06,5.0000036e-08,0.0,0.0,0.0,0.0,0.0,0.0,0.0,0.0,531,0.12191843,0.2445863,0.038617533,0.0,5.087281e-05,0.022047913,0.0,0.0,0.0,0.015979,0,0,0,165,24,0,0,0
29895076,0.49700508,-0.0010582408,0.0034516368,0.8677401,0.0055492558,-0.00020706985,0.02527435,0.0028922677,-0.0002281799,0.18203531,1.0467865e-05,1.0247855e-05,-1.917392e-05,-6.3566577e-06,8.073834e-06,0.00034450708,0.18936811,3.2675114e-08,0.33045304,0.0,0.0,0.0,0.0,0.0,8.2660566e-11,8.600797e-06,0.0009150087,8.415325e-05,7.215977e-05,7.215524e-05,2.680133e-05,0.00529849,0.0052983062,0.010945679,0.007305285,0.007305185,0.05929827,1.37039425e-11,1.37046355e-11,2.1614627e-10,1.6941701e-06,1.6940004e-06,5e-08,0.0,0.0,0.0,0.0,0.0,0.0,0.0,0.0,531,0.12087377,0.24351236,0.03385815,0.0,5.8710408e-05,0.026793486,0.0,0.0,0.0,0.015979,0,0,0,165,24,0,0,0
30094269,0.49714202,-0.001030343,0.0034370471,0.86766183,0.0063541853,-0.00037088545,0.023303246,0.003250841,-0.00023398326,0.17785649,1.045969e-05,1.025384e-05,-1.8997378e-05,-6.2375343e-06,8.132788e-06,0.0003475909,0.18936811,3.2675114e-08,0.33045304,0.0,0.0,0.0,0.0,0.0,7.408062e-10,2.487235e-05,0.0016662166,8.300806e-05,7.213899e-05,7.2134346e-05,2.6444306e-05,0.0053041186,0.0053039514,0.010953346,0.007321798,0.0073216995,0.059350275,1.3584935e-11,1.3585655e-11,2.0955397e-10,1.6941264e-06,1.6939576e-06,5e-08,0.0,0.0,0.0,0.0,0.0,0.0,0.0,0.0,531,0.12101032,0.24361911,0.0066924547,0.0,6.5989916e-05,0.014847184,0.0,0.0,0.0,0.015979,0,0,0,165,24,0,0,0
30302282,0.4962398,-0.0010036313,0.0033997272,0.8681783,0.006527731,-8.843849e-05,0.023390692,0.0036848155,-0.00027454528,0.18353356,1.04564515e-05,1.0254796e-05,-1.9914714e-05,-5.8644837e-06,7.942411e-06,0.00034861395,0.18936811,3.2675114e-08,0.33045304,0.0,0.0,0.0,0.0,0.0,1.3447741e-09,3.96547e-05,0.0014116237,8.2412495e-05,7.212548e-05,7.212078e-05,2.6228525e-05,0.005346346,0.0053461897,0.01100044,0.007418774,0.007418678,0.059714694,1.3473732e-11,1.3474474e-11,2.0394697e-10,1.6940854e-06,1.6939168e-06,5.0000075e-08,0.0,0.0,0.0,0.0,0.0,0.0,0.0,0.0,531,0.12180908,0.2443659,0.114239775,0.0,7.259123e-05,0.040671125,0.0,0.0,0.0,0.015979,0,0,0,165,24,0,0,0
30502269,0.49613968,-0.0010316212,0.003425511,0.8682354,0.00554114,-0.00083536684,0.021786021,0.0037827806,-0.00028796864,0.18096517,1.0447973e-05,1.02605045e-05,-2.0096295e-05,-5.637705e-06,7.932716e-06,0.0003514301,0.18936811,3.2675114e-08,0.33045304,0.0,0.0,0.0,0.0,0.0,1.5325525e-09,5.3009197e-05,0.0012406589,8.170201e-05,7.20831e-05,7.207829e-05,2.601099e-05,0.005262935,0.005262791,0.010914885,0.0072379797,0.0072378935,0.058933135,1.3341016e-11,1.3341778e-11,1.985394e-10,1.6940437e-06,1.693875e-06,5e-08,0.0,0.0,0.0,0.0,0.0,0.0,0.0,0.0,531,0.12031572,0.24276148,0.022618013,0.0,7.67748e-05,0.023678068,0.0,0.0,0.0,0.015979,0,0,0,165,24,0,0,0
30701482,0.49553713,-0.0009832553,0.003471909,0.8685793,0.0061512897,-0.00040900937,0.02211744,0.0041211285,-0.00033374137,0.18615563,1.044422e-05,1.0261984e-05,-2.089097e-05,-5.315151e-06,7.789781e-06,0.0003523098,0.18936811,3.2675114e-08,0.33045304,0.0,0.0,0.0,0.0,0.0,1.5030976e-09,5.839502e-05,0.0015614711,8.100423e-05,7.2085975e-05,7.2081006e-05,2.5791693e-05,0.0053712255,0.0053710905,0.01103186,0.0074834866,0.0074833985,0.05989427,1.3257201e-11,1.3257982e-11,1.933205e-10,1.694013e-06,1.6938443e-06,5.000004e-08,0.0,0.0,0.0,0.0,0.0,0.0,0.0,0.0,531,0.12233922,0.24473307,0.02200432,0.0,8.156986e-05,0.007128922,0.0,0.0,0.0,0.015979,0,0,0,165,24,0,0,0
30901469,0.4951201,-0.00095781276,0.0034322278,0.8688172,0.004991845,-8.7404034e-05,0.021674594,0.0041031344,-0.00039097463,0.1843628,1.0436672e-05,1.0266976e-05,-2.1237413e-05,-5.072088e-06,7.745415e-06,0.00035505637,0.18936811,3.2675114e-08,0.33045304,0.0,0.0,0.0,0.0,0.0,1.3812501e-09,6.22289e-05,0.0013223193,8.0334474e-05,7.205878e-05,7.205378e-05,2.5559775e-05,0.005351841,0.0053517097,0.011032476,0.0074732117,0.00747313,0.05991185,1.3147003e-11,1.3147799e-11,1.8829086e-10,1.6939815e-06,1.6938128e-06,5e-08,0.0,0.0,0.0,0.0,0.0,0.0,0.0,0.0,531,0.12225523,0.24476898,0.0018412776,0.0,8.331735e-05,0.02402344,0.0,0.0,0.0,0.015979,0,0,0,165,24,0,0,0
31109507,0.49479195,-0.00093582814,0.0034403042,0.8690042,0.0042247116,-0.00028064518,0.024014749,0.0039882823,-0.0003829722,0.1928946,1.0428666e-05,1.0272231e-05,-2.150211e-05,-4.974149e-06,7.830954e-06,0.00035408325,0.18936811,3.2675114e-08,0.33045304,0.0,0.0,0.0,0.0,0.0,1.201085e-09,6.0170976e-05,0.0012236815,7.976325e-05,7.2035924e-05,7.203085e-05,2.536302e-05,0.0053491076,0.0053489837,0.011057737,0.007510896,0.0075108176,0.06018345,1.3039457e-11,1.3040257e-11,1.8344187e-10,1.6939547e-06,1.6937857e-06,5e-08,0.0,0.0,0.0,0.0,0.0,0.0,0.0,0.0,531,0.1225631,0.24532315,0.029069997,0.0,8.099164e-05,0.033403672,0.0,0.0,0.0,0.015979,0,0,0,165,24,0,0,0
31308688,0.49450368,-0.00092088967,0.0034502833,0.86916816,0.0035557174,-0.00017210291,0.018151328,0.0037917928,-0.00036325157,0.18187177,1.0422506e-05,1.0276576e-05,-2.1772152e-05,-4.8284774e-06,7.812456e-06,0.0003599883,0.18936811,3.2675114e-08,0.33045304,0.0,0.0,0.0,0.0,0.0,1.145425e-09,6.1112034e-05,0.0012098247,7.9103134e-05,7.203232e-05,7.202723e-05,2.5143814e-05,0.0054172985,0.005417182,0.011150409,0.0076943357,0.007694257,0.061013352,1.2955808e-11,1.2956611e-11,1.7875545e-10,1.6939345e-06,1.6937655e-06,5.0000036e-08,0.0,0.0,0.0,0.0,0.0,0.0,0.0,0.0,531,0.124050766,0.24700882,0.02126086,0.0,7.5848875e-05,0.023746,0.0,0.0,0.0,0.015979,0,0,0,165,24,0,0,0
31516669,0.49404076,-0.0009547953,0.003441448,0.8694315,0.0029937858,0.0008983817,0.011515069,0.003434873,-0.00021212218,0.16620095,1.0416802e-05,1.0280286e-05,-2.220196e-05,-4.658105e-06,7.75156e-06,0.00036745236,0.18936811,3.2675114e-08,0.33045304,0.0,0.0,0.0,0.0,0.0,1.0351102e-09,5.8563317e-05,0.0011260565,7.8548415e-05,7.201065e-05,7.200549e-05,2.49511e-05,0.0054027615,0.005402654,0.011163953,0.007703021,0.007702947,0.061209805,1.2853588e-11,1.285439e-11,1.7424003e-10,1.693915e-06,1.6937461e-06,5.0000036e-08,0.0,0.0,0.0,0.0,0.0,0.0,0.0,0.0,531,0.12412078,0.24740615,0.018321706,0.0,6.927301e-05,0.022186765,0.0,0.0,0.0,0.015979,0,0,0,165,24,0,0,0
31719869,0.4938147,-0.0009524052,0.0034020555,0.86956006,0.002262314,0.0007214501,0.01310082,0.003096489,-3.5791174e-05,0.16885522,1.0410946e-05,1.0283564e-05,-2.2393308e-05,-4.651657e-06,7.843871e-06,0.00036775955,0.18936811,3.2675114e-08,0.33045304,0.0,0.0,0.0,0.0,0.0,8.8645463e-10,5.4666158e-05,0.0018237499,7.79095e-05,7.2001756e-05,7.199657e-05,2.47389e-05,0.0054347618,0.005434655,0.011231123,0.007826554,0.007826484,0.061916135,1.27684365e-11,1.2769232e-11,1.6987989e-10,1.6939006e-06,1.6937316e-06,5e-08,0.0,0.0,0.0,0.0,0.0,0.0,0.0,0.0,531,0.1251121,0.24882953,0.038714956,0.0,6.292278e-05,0.013945289,0.0,0.0,0.0,0.015979,0,0,0,165,24,0,0,0
31919869,0.4932581,-0.0009353024,0.0033705977,0.8698761,0.0014664037,0.00030730042,0.017927751,0.0026510644,6.365753e-05,0.18385285,1.0407065e-05,1.0284326e-05,-2.2980614e-05,-4.517301e-06,7.83139e-06,0.00036431258,0.18936811,3.2675114e-08,0.33045304,0.0,0.0,0.0,0.0,0.0,8.4073903e-10,5.7851736e-05,0.0015728325,7.693826e-05,7.197625e-05,7.197095e-05,2.4420933e-05,0.005382407,0.0053823004,0.011193286,0.007734507,0.0077344426,0.061763506,1.2678381e-11,1.2679165e-11,1.651552e-10,1.6938872e-06,1.6937182e-06,5e-08,0.0,0.0,0.0,0.0,0.0,0.0,0.0,0.0,531,0.12437423,0.24852265,0.03793808,0.0,5.3624284e-05,0.0029260302,0.0,0.0,0.0,0.015979,0,0,0,165,24,0,0,0
32119107,0.49278295,-0.00095740636,0.0033253895,0.87014544,0.00081123423,0.0015210554,0.020121073,0.0021703928,0.00017619877,0.19382675,1.0403132e-05,1.028515e-05,-2.3447947e-05,-4.451804e-06,7.8627245e-06,0.00036284604,0.18936811,3.2675114e-08,0.33045304,0.0,0.0,0.0,0.0,0.0,7.625526e-10,5.5046356e-05,0.0013557714,7.633008e-05,7.193252e-05,7.192734e-05,2.4214776e-05,0.0052452185,0.0052451035,0.011056466,0.0074281357,0.0074280794,0.060611933,1.2567261e-11,1.2568029e-11,1.6111232e-10,1.6938693e-06,1.6937003e-06,5e-08,0.0,0.0,0.0,0.0,0.0,0.0,0.0,0.0,531,0.121886075,0.24619491,0.024730222,0.0,4.4067023e-05,0.021482626,0.0,0.0,0.0,0.015979,0,0,0,165,24,0,0,0
32319069,0.4925459,-0.00092603534,0.0033158304,0.8702796,0.0015558477,0.0018637339,0.014231953,0.0018809414,0.0004167543,0.18244211,1.0399646e-05,1.0286367e-05,-2.3586683e-05,-4.380217e-06,7.784279e-06,0.0003684205,0.18936811,3.2675114e-08,0.33045304,0.0,0.0,0.0,0.0,0.0,7.883828e-10,5.6560442e-05,0.0021286954,7.57351e-05,7.1933275e-05,7.192804e-05,2.400887e-05,0.005318456,0.0053183143,0.011137077,0.0075897994,0.007589741,0.061323326,1.2502778e-11,1.2503533e-11,1.57208e-10,1.6938513e-06,1.6936823e-06,5.0000036e-08,0.0,0.0,0.0,0.0,0.0,0.0,0.0,0.0,531,0.12320528,0.24763547,0.009885946,0.0,3.7937705e-05,0.015301376,0.0,0.0,0.0,0.015979,0,0,0,165,24,0,0,0
32527075,0.49225655,-0.00091226934,0.0032918523,0.87044346,0.0025696384,0.00228851,0.0120459795,0.0018269306,0.00073783105,0.17921974,1.0396149e-05,1.0286275e-05,-2.3833954e-05,-4.333993e-06,7.753908e-06,0.00037094654,0.18936811,3.2675114e-08,0.33045304,0.0,0.0,0.0,0.0,0.0,7.2235473e-10,5.4018485e-05,0.0016687522,7.490269e-05,7.191837e-05,7.1913135e-05,2.3733492e-05,0.005330108,0.0053299395,0.011149831,0.007611341,0.0076112812,0.061451927,1.24259205e-11,1.2426652e-11,1.5297247e-10,1.6938283e-06,1.6936592e-06,5e-08,0.0,0.0,0.0,0.0,0.0,0.0,0.0,0.0,531,0.12337999,0.24789499,0.05292549,0.0,3.6280588e-05,0.010238905,0.0,0.0,0.0,0.015979,0,0,0,165,24,0,0,0
32727087,0.4916859,-0.0008776541,0.0033203976,0.87076586,0.0029497447,0.0025822208,0.011250497,0.001827809,0.0009904375,0.18198997,1.0393631e-05,1.0283961e-05,-2.4365474e-05,-4.2912175e-06,7.735588e-06,0.00037150623,0.18936811,3.2675114e-08,0.33045304,0.0,0.0,0.0,0.0,0.0,9.319961e-10,6.233132e-05,0.0016605357,7.433808e-05,7.189202e-05,7.1886614e-05,2.3536792e-05,0.0052916147,0.005291426,0.0111167645,0.0075318497,0.007531786,0.061197627,1.2343138e-11,1.2343845e-11,1.4935556e-10,1.6938014e-06,1.6936324e-06,5e-08,0.0,0.0,0.0,0.0,0.0,0.0,0.0,0.0,531,0.122734,0.24738154,0.034812484,0.0,3.71193e-05,0.009895802,0.0,0.0,0.0,0.015979,0,0,0,165,24,0,0,0
32934269,0.4912002,-0.00090213027,0.0033174292,0.87104,0.0031451879,0.002738988,0.0078070518,0.0020081718,0.001321778,0.17608297,1.0390887e-05,1.02816275e-05,-2.4810945e-05,-4.4354165e-06,7.852981e-06,0.0003748823,0.18936811,3.2675114e-08,0.33045304,0.0,0.0,0.0,0.0,0.0,1.0091648e-09,6.0269183e-05,0.0016287101,7.354525e-05,7.189571e-05,7.189041e-05,2.3270552e-05,0.0053917,0.0053914753,0.011229626,0.007764141,0.007764068,0.06219429,1.2287872e-11,1.2288552e-11,1.4542473e-10,1.6937754e-06,1.6936064e-06,5e-08,0.0,0.0,0.0,0.0,0.0,0.0,0.0,0.0,531,0.124612235,0.24938783,0.04645016,0.0,3.976118e-05,0.010635777,0.0,0.0,0.0,0.015979,0,0,0,165,24,0,0,0
33134296,0.49069062,-0.0009149344,0.003293412,0.8713273,0.0031320201,0.0038123075,0.003404642,0.002022948,0.0015781485,0.16644311,1.03863895e-05,1.02794e-05,-2.5144134e-05,-4.5680545e-06,7.923901e-06,0.00037919777,0.18936811,3.2675114e-08,0.33045304,0.0,0.0,0.0,0.0,0.0,1.5587184e-09,7.413186e-05,0.001633681,7.301499e-05,7.186809e-05,7.1862785e-05,2.3071943e-05,0.0053459075,0.0053456486,0.011191335,0.0076709636,0.0076708817,0.06189338,1.22086525e-11,1.2209309e-11,1.4206283e-10,1.6937431e-06,1.6935741e-06,5.000004e-08,0.0,0.0,0.0,0.0,0.0,0.0,0.0,0.0,531,0.1238622,0.2487838,0.015010392,0.0,4.0571336e-05,0.0030777701,0.0,0.0,0.0,0.015979,0,0,0,165,24,0,0,0
33341469,0.49031812,-0.00091199396,0.0032882707,0.87153685,0.0021185318,0.0039000057,0.0042710043,0.0019686501,0.0018332846,0.17257138,1.0380721e-05,1.02763815e-05,-2.5464647e-05,-4.7460435e-06,8.088828e-06,0.0003777955,0.18936811,3.2675114e-08,0.33045304,0.0,0.0,0.0,0.0,0.0,1.3900635e-09,7.0056005e-05,0.001877965,7.2557414e-05,7.1831935e-05,7.18266e-05,2.2912058e-05,0.005255042,0.0052547497,0.011094273,0.007458526,0.0074584372,0.061028868,1.2121541e-11,1.2122167e-11,1.3881506e-10,1.6937053e-06,1.6935362e-06,5e-08,0.0,0.0,0.0,0.0,0.0,0.0,0.0,0.0,531,0.12213502,0.24704021,0.055757307,0.0,3.9972863e-05,0.019365404,0.0,0.0,0.0,0.015979,0,0,0,165,24,0,0,0
33541476,0.4898348,-0.00091425056,0.003323855,0.8718086,0.0015540759,0.00428404,0.0032430422,0.0018952253,0.002129798,0.16841944,1.03760885e-05,1.0272651e-05,-2.5845738e-05,-4.764187e-06,8.0213995e-06,0.00038008255,0.18936811,3.2675114e-08,0.33045304,0.0,0.0,0.0,0.0,0.0,1.7011151e-09,8.228534e-05,0.0018378352,7.203645e-05,7.181525e-05,7.180988e-05,2.2725391e-05,0.0052422034,0.00524188,0.011076593,0.0074155717,0.0074154697,0.060805794,1.2055256e-11,1.20558685e-11,1.3566917e-10,1.6936687e-06,1.6934996e-06,5.0000036e-08,0.0,0.0,0.0,0.0,0.0,0.0,0.0,0.0,531,0.121782765,0.2465883,0.013581523,0.0,4.2538388e-05,0.0053761415,0.0,0.0,0.0,0.015979,0,0,0,165,24,0,0,0
33741475,0.48966074,-0.0009348257,0.0032726675,0.8719064,0.0014988207,0.0042608674,0.00092804234,0.0018091352,0.0024351468,0.16527739,1.0369662e-05,1.02700005e-05,-2.5881682e-05,-4.870703e-06,8.026069e-06,0.00038141588,0.18936811,3.2675114e-08,0.33045304,0.0,0.0,0.0,0.0,0.0,1.7437304e-09,8.331802e-05,0.0016760314,7.152268e-05,7.18042e-05,7.179876e-05,2.2542321e-05,0.005249859,0.0052495054,0.011071882,0.0074085705,0.007408453,0.060681704,1.1994792e-11,1.1995388e-11,1.3262433e-10,1.6936299e-06,1.6934608e-06,5.000007e-08,0.0,0.0,0.0,0.0,0.0,0.0,0.0,0.0,531,0.121725194,0.24633656,0.057260823,0.0,4.801707e-05,0.011580503,0.0,0.0,0.0,0.015979,0,0,0,165,24,0,0,0
33944669,0.48925886,-0.0009176369,0.0033155815,0.8721319,0.0024198035,0.0044275927,0.0017685893,0.0016741585,0.002535909,0.1702977,1.036365e-05,1.026507e-05,-2.6163232e-05,-5.0735e-06,8.115749e-06,0.00038020549,0.18936811,3.2675114e-08,0.33045304,0.0,0.0,0.0,0.0,0.0,1.8600803e-09,8.592615e-05,0.001994243,7.1014605e-05,7.177534e-05,7.176978e-05,2.2360238e-05,0.0051680384,0.005167667,0.01097165,0.0072027543,0.0072026276,0.059696313,1.1919558e-11,1.1920132e-11,1.2967176e-10,1.6935829e-06,1.6934139e-06,5e-08,0.0,0.0,0.0,0.0,0.0,0.0,0.0,0.0,531,0.12002242,0.24432829,0.0112877805,0.0,5.146676e-05,0.014086277,0.0,0.0,0.0,0.015979,0,0,0,165,24,0,0,0
34152668,0.48888877,-0.0009105484,0.0033481857,0.87233925,0.0011820904,0.004820643,0.002128243,0.001637201,0.0027531846,0.17472649,1.035836e-05,1.02601325e-05,-2.6436e-05,-5.2845066e-06,8.20571e-06,0.00037910265,0.18936811,3.2675114e-08,0.33045304,0.0,0.0,0.0,0.0,0.0,2.0665654e-09,8.57194e-05,0.0016787489,7.0299175e-05,7.177697e-05,7.177131e-05,2.2116503e-05,0.005240418,0.005240016,0.01102657,0.0073346356,0.0073344875,0.060114723,1.1880471e-11,1.1881026e-11,1.2646621e-10,1.6935347e-06,1.6933657e-06,5e-08,0.0,0.0,0.0,0.0,0.0,0.0,0.0,0.0,531,0.121116154,0.24518304,0.03350367,0.0,5.441982e-05,0.0060106446,0.0,0.0,0.0,0.015979,0,0,0,165,24,0,0,0
34351914,0.48895395,-0.00089903286,0.003345344,0.8723028,0.0016358749,0.005911418,-0.005719193,0.0015728389,0.0030472928,0.15212488,1.0350548e-05,1.025757e-05,-2.6205773e-05,-5.3542176e-06,8.014831e-06,0.00038688263,0.18936811,3.2675114e-08,0.33045304,0.0,0.0,0.0,0.0,0.0,1.9954403e-09,8.4823994e-05,0.0018467703,6.980885e-05,7.1761424e-05,7.17558e-05,2.1942145e-05,0.0052439654,0.005243534,0.0110327,0.007344104,0.007343943,0.06006781,1.1824008e-11,1.1824543e-11,1.2370958e-10,1.693476e-06,1.6933069e-06,5e-08,0.0,0.0,0.0,0.0,0.0,0.0,0.0,0.0,531,0.12119425,0.24508736,0.0010252518,0.0,6.186296e-05,0.012256244,0.0,0.0,0.0,0.015979,0,0,0,165,24,0,0,0
34551916,0.48847547,-0.00088792876,0.0033855252,0.87257063,0.0017442226,0.0058321366,-0.006741305,0.0015932873,0.0033502048,0.15030552,1.0345058e-05,1.0250977e-05,-2.6548943e-05,-5.6189338e-06,8.075814e-06,0.0003875128,0.18936811,3.2675114e-08,0.33045304,0.0,0.0,0.0,0.0,0.0,1.6965052e-09,7.951268e-05,0.0019723182,6.93276e-05,7.1740535e-05,7.1734874e-05,2.1767688e-05,0.0052318205,0.005231378,0.011033076,0.007331053,0.0073308805,0.059969697,1.17664715e-11,1.17669876e-11,1.2103817e-10,1.6934083e-06,1.6932394e-06,5e-08,0.0,0.0,0.0,0.0,0.0,0.0,0.0,0.0,531,0.12108647,0.24488711,0.013556035,0.0,6.8011024e-05,0.01633202,0.0,0.0,0.0,0.015979,0,0,0,165,24,0,0,0
34751868,0.48807597,-0.00088421523,0.0033724885,0.8727943,0.0022690545,0.0057595666,-0.0067526666,0.0016140261,0.0035967159,0.15011342,1.03389975e-05,1.0244209e-05,-2.6843563e-05,-5.8935293e-06,8.125017e-06,0.0003874851,0.18936811,3.2675114e-08,0.33045304,0.0,0.0,0.0,0.0,0.0,1.8099847e-09,8.713542e-05,0.0018223567,6.885125e-05,7.172142e-05,7.171573e-05,2.1599053e-05,0.005230108,0.0052296584,0.011039808,0.007336155,0.0073359692,0.05993859,1.17132085e-11,1.1713707e-11,1.1845107e-10,1.6933357e-06,1.693167e-06,5e-08,0.0,0.0,0.0,0.0,0.0,0.0,0.0,0.0,531,0.121128544,0.24482359,0.020814387,0.0,7.3011484e-05,0.013239293,0.0,0.0,0.0,0.015979,0,0,0,165,24,0,0,0
34958306,0.48788434,-0.00089718215,0.003372865,0.8729014,9.170186e-05,0.0072926306,-0.0045950706,0.001514962,0.003992536,0.15587558,1.033195e-05,1.0238796e-05,-2.685914e-05,-6.0953107e-06,8.127165e-06,0.00038506932,0.18936811,3.2675114e-08,0.33045304,0.0,0.0,0.0,0.0,0.0,2.2773337e-09,9.318146e-05,0.002188483,6.845437e-05,7.1724484e-05,7.171889e-05,2.1449578e-05,0.0053387224,0.0053382525,0.011176,0.0076102917,0.007610081,0.061087776,1.16778314e-11,1.1678318e-11,1.15947967e-10,1.6932648e-06,1.6930962e-06,5.0000036e-08,0.0,0.0,0.0,0.0,0.0,0.0,0.0,0.0,531,0.12337088,0.24715942,0.02049677,0.0,7.996517e-05,0.02115893,0.0,0.0,0.0,0.015979,0,0,0,165,24,0,0,0
35159079,0.48749235,-0.0008794664,0.003373662,0.8731203,0.0006361074,0.005122279,-0.0024536015,0.0013377465,0.0042472715,0.17023776,1.032594e-05,1.0231379e-05,-2.7100983e-05,-6.3680836e-06,8.195401e-06,0.0003799216,0.18936811,3.2675114e-08,0.33045304,0.0,0.0,0.0,0.0,0.0,2.3850446e-09,9.504909e-05,0.0020996006,6.799213e-05,7.171635e-05,7.171084e-05,2.1281536e-05,0.005392602,0.0053921356,0.011263028,0.0077721765,0.0077719484,0.061830364,1.1636178e-11,1.1636655e-11,1.1351366e-10,1.6931892e-06,1.6930206e-06,5.0000036e-08,0.0,0.0,0.0,0.0,0.0,0.0,0.0,0.0,531,0.12467608,0.24865712,0.0023611733,0.0,8.3404455e-05,0.016798498,0.0,0.0,0.0,0.015979,0,0,0,165,24,0,0,0
35359069,0.48714203,-0.00092894735,0.00337329,0.87331575,0.00031240113,0.0053187306,-0.0029863475,0.0010718057,0.0040702736,0.16883978,1.03186085e-05,1.0222279e-05,-2.731783e-05,-6.677781e-06,8.144751e-06,0.00038049955,0.18936811,3.2675114e-08,0.33045304,0.0,0.0,0.0,0.0,0.0,2.0030941e-09,8.5124666e-05,0.0016988858,6.753534e-05,7.166533e-05,7.165998e-05,2.1117505e-05,0.005239038,0.0052385987,0.011131157,0.0074617164,0.0074615,0.060690913,1.1560861e-11,1.1561326e-11,1.111536e-10,1.6930916e-06,1.6929231e-06,5e-08,0.0,0.0,0.0,0.0,0.0,0.0,0.0,0.0,531,0.12216062,0.24635527,0.042940166,0.0,8.264761e-05,0.0029664328,0.0,0.0,0.0,0.015979,0,0,0,165,24,0,0,0
35566283,0.48681575,-0.00094768865,0.00337555,0.8734977,0.00013907428,0.003936309,-0.0041304138,0.0008506378,0.004026707,0.16920765,1.0312721e-05,1.0214078e-05,-2.7517359e-05,-6.9501016e-06,8.103433e-06,0.00038023814,0.18936811,3.2675114e-08,0.33045304,0.0,0.0,0.0,0.0,0.0,2.1351714e-09,8.797115e-05,0.0018816455,6.68927e-05,7.1649454e-05,7.16442e-05,2.0897087e-05,0.005243117,0.0052426998,0.011151502,0.00748677,0.007486549,0.06086027,1.1513543e-11,1.1513999e-11,1.0858019e-10,1.6930042e-06,1.6928357e-06,5.0000036e-08,0.0,0.0,0.0,0.0,0.0,0.0,0.0,0.0,531,0.12236551,0.24669874,0.006114237,0.0,8.103152e-05,0.0027927277,0.0,0.0,0.0,0.015979,0,0,0,165,24,0,0,0
35766269,0.48666465,-0.00096392084,0.0033751454,0.8735818,-0.0007484678,0.004166433,-0.00643308,0.00065733225,0.003874869,0.16322127,1.0306651e-05,1.0207059e-05,-2.7534299e-05,-7.224031e-06,8.053654e-06,0.0003819381,0.18936811,3.2675114e-08,0.33045304,0.0,0.0,0.0,0.0,0.0,2.4185343e-09,9.522776e-05,0.0016792582,6.6452296e-05,7.16322e-05,7.162694e-05,2.0740068e-05,0.0052266624,0.0052262754,0.011142119,0.007450459,0.00745024,0.060721442,1.1466142e-11,1.1466593e-11,1.0636986e-10,1.6929176e-06,1.6927494e-06,5.0000036e-08,0.0,0.0,0.0,0.0,0.0,0.0,0.0,0.0,531,0.12206842,0.24641721,0.008294691,0.0,7.727127e-05,0.026164291,0.0,0.0,0.0,0.015979,0,0,0,165,24,0,0,0
35973534,0.48657328,-0.00095087197,0.0033618747,0.8736329,0.00022958066,0.0038608408,-0.007587768,0.00045708832,0.0036104342,0.16438013,1.0300198e-05,1.01999385e-05,-2.7468244e-05,-7.411399e-06,7.928302e-06,0.0003810117,0.18936811,3.2675114e-08,0.33045304,0.0,0.0,0.0,0.0,0.0,2.5259983e-09,9.7002914e-05,0.0016739542,6.608325e-05,7.160623e-05,7.160089e-05,2.0603267e-05,0.00516209,0.00516174,0.011072399,0.0072961864,0.007295979,0.060060613,1.141127e-11,1.1411716e-11,1.0423073e-10,1.6928221e-06,1.6926541e-06,5e-08,0.0,0.0,0.0,0.0,0.0,0.0,0.0,0.0,531,0.12079804,0.24507266,0.0017657989,0.0,7.3284784e-05,0.0060336683,0.0,0.0,0.0,0.015979,0,0,0,165,24,0,0,0
36173469,0.48634064,-0.0009401889,0.0033750702,0.87376225,0.0002548264,0.0035466119,-0.0055581834,0.00040807956,0.0035524422,0.1715786,1.0295953e-05,1.0193569e-05,-2.754173e-05,-7.4639775e-06,7.753444e-06,0.0003780316,0.18936811,3.2675114e-08,0.33045304,0.0,0.0,0.0,0.0,0.0,2.4904714e-09,9.77587e-05,0.002128966,6.565576e-05,7.1610586e-05,7.160524e-05,2.0448297e-05,0.0052375924,0.005237273,0.011165339,0.00747545,0.0074752397,0.060833283,1.13814e-11,1.1381844e-11,1.02148325e-10,1.6927439e-06,1.6925761e-06,5.0000036e-08,0.0,0.0,0.0,0.0,0.0,0.0,0.0,0.0,531,0.12227301,0.24664403,0.016732564,0.0,7.155066e-05,0.0110729,0.0,0.0,0.0,0.015979,0,0,0,165,24,0,0,0
36373469,0.48621497,-0.00097300834,0.0032939601,0.8738325,0.0006993784,0.002708235,-0.011378875,0.000446077,0.0032651178,0.1561203,1.0291057e-05,1.0187685e-05,-2.7513215e-05,-7.5848766e-06,7.555763e-06,0.0003829816,0.18936811,3.2675114e-08,0.33045304,0.0,0.0,0.0,0.0,0.0,2.2708952e-09,9.489379e-05,0.0017211218,6.523214e-05,7.159793e-05,7.1592745e-05,2.0295874e-05,0.005222507,0.005222233,0.011155346,0.007444622,0.007444423,0.060725667,1.1338993e-11,1.133944e-11,1.0012617e-10,1.692657e-06,1.6924894e-06,5.0000036e-08,0.0,0.0,0.0,0.0,0.0,0.0,0.0,0.0,531,0.12202068,0.24642578,0.01880767,0.0,6.582726e-05,0.0041056867,0.0,0.0,0.0,0.015979,0,0,0,165,24,0,0,0
36579901,0.48607922,-0.00095945067,0.0033564528,0.8739078,0.0007474163,0.003557096,-0.013519741,0.0004977444,0.0029554856,0.14790149,1.0285902e-05,1.0181865e-05,-2.7477083e-05,-7.751593e-06,7.4344293e-06,0.0003849578,0.18936811,3.2675114e-08,0.33045304,0.0,0.0,0.0,0.0,0.0,1.9171666e-09,8.485997e-05,0.0016026887,6.487663e-05,7.1578055e-05,7.1572584e-05,2.0162648e-05,0.005160163,0.0051599387,0.011086485,0.0072961817,0.0072960025,0.060079936,1.1288733e-11,1.1289184e-11,9.8166836e-11,1.6925641e-06,1.6923966e-06,5.0000036e-08,0.0,0.0,0.0,0.0,0.0,0.0,0.0,0.0,531,0.12079811,0.24511209,0.025089722,0.0,5.947982e-05,0.003454813,0.0,0.0,0.0,0.015979,0,0,0,165,24,0,0,0
36780668,0.4858808,-0.00096199114,0.0032898828,0.8740185,0.0011491132,0.003491633,-0.016779607,0.0006003366,0.0028946188,0.13812678,1.0281827e-05,1.0176679e-05,-2.7533162e-05,-7.883008e-06,7.3144975e-06,0.00038752396,0.18936811,3.2675114e-08,0.33045304,0.0,0.0,0.0,0.0,0.0,2.1824564e-09,9.130168e-05,0.0018379923,6.4462736e-05,7.157383e-05,7.156842e-05,2.0015106e-05,0.0051661027,0.005165916,0.0110905785,0.0072985217,0.0072983573,0.060036108,1.12522075e-11,1.1252663e-11,9.625956e-11,1.6924834e-06,1.6923159e-06,5e-08,0.0,0.0,0.0,0.0,0.0,0.0,0.0,0.0,531,0.12081755,0.24502267,0.035723854,0.0,5.876244e-05,0.027884744,0.0,0.0,0.0,0.015979,0,0,0,165,24,0,0,0
36980669,0.48555526,-0.00095155084,0.0032697455,0.87419945,0.0023230123,0.0034531588,-0.015181771,0.0007372695,0.0029211266,0.13918701,1.02785825e-05,1.0171348e-05,-2.772053e-05,-7.88673e-06,7.118377e-06,0.00038622055,0.18936811,3.2675114e-08,0.33045304,0.0,0.0,0.0,0.0,0.0,1.837265e-09,8.3751154e-05,0.0016304248,6.3818305e-05,7.158498e-05,7.157956e-05,1.9797426e-05,0.0052473424,0.005247184,0.011187694,0.0074941437,0.0074939877,0.060870294,1.1228045e-11,1.12285094e-11,9.416751e-11,1.6924114e-06,1.6922439e-06,5e-08,0.0,0.0,0.0,0.0,0.0,0.0,0.0,0.0,531,0.122426026,0.24671906,0.035457388,0.0,5.8732527e-05,0.005806535,0.0,0.0,0.0,0.015979,0,0,0,165,24,0,0,0
37187869,0.48524636,-0.0010111465,0.0032904109,0.87437075,0.002206783,0.003451226,-0.018775547,0.0009286977,0.0028468333,0.13463882,1.027414e-05,1.0166058e-05,-2.783861e-05,-7.969123e-06,6.964133e-06,0.00038681776,0.18936811,3.2675114e-08,0.33045304,0.0,0.0,0.0,0.0,0.0,1.5350435e-09,7.483637e-05,0.0021740873,6.3481864e-05,7.158016e-05,7.157459e-05,1.9668714e-05,0.005243748,0.0052436185,0.011202682,0.007512395,0.0075122574,0.061038006,1.118915e-11,1.1189627e-11,9.237966e-11,1.6923308e-06,1.6921634e-06,5e-08,0.0,0.0,0.0,0.0,0.0,0.0,0.0,0.0,531,0.12257509,0.2470587,0.024457034,0.0,5.78202e-05,0.035791337,0.0,0.0,0.0,0.015979,0,0,0,165,24,0,0,0
37387886,0.48486146,-0.00097219425,0.0033509887,0.8745841,0.002533857,0.003671811,-0.016890174,0.0011420645,0.0028374926,0.13723858,1.0269665e-05,1.0160561e-05,-2.8050174e-05,-8.01322e-06,6.785986e-06,0.00038477458,0.18936811,3.2675114e-08,0.33045304,0.0,0.0,0.0,0.0,0.0,1.5762704e-09,7.574894e-05,0.0017165156,6.3089945e-05,7.156853e-05,7.156279e-05,1.952547e-05,0.0051949485,0.005194842,0.011172236,0.007429635,0.007429519,0.060804486,1.1146167e-11,1.1146654e-11,9.0638136e-11,1.6922535e-06,1.6920861e-06,5e-08,0.0,0.0,0.0,0.0,0.0,0.0,0.0,0.0,531,0.12189813,0.24658565,0.028528359,0.0,5.760902e-05,0.014537432,0.0,0.0,0.0,0.015979,0,0,0,165,24,0,0,0
37587869,0.48467007,-0.0010128374,0.003328021,0.8746902,0.0023865644,0.0035069005,-0.018196948,0.0013301525,0.0029427079,0.13285287,1.0264659e-05,1.0156779e-05,-2.8072633e-05,-8.124444e-06,6.696253e-06,0.0003851052,0.18936811,3.2675114e-08,0.33045304,0.0,0.0,0.0,0.0,0.0,1.4060245e-09,7.278307e-05,0.0014083189,6.2703926e-05,7.158162e-05,7.157586e-05,1.938455e-05,0.0052664313,0.0052663353,0.011257477,0.007601936,0.0076018316,0.061576225,1.1123828e-11,1.1124322e-11,8.894635e-11,1.6921891e-06,1.6920219e-06,5.0000036e-08,0.0,0.0,0.0,0.0,0.0,0.0,0.0,0.0,531,0.123303555,0.24814557,0.048807826,0.0,5.852745e-05,0.031728122,0.0,0.0,0.0,0.015979,0,0,0,165,24,0,0,0
37795070,0.48430756,-0.0010035704,0.0033349385,0.874891,0.0032917017,0.0025923653,-0.01078791,0.0015430178,0.002779499,0.14825416,1.0259388e-05,1.0151865e-05,-2.8256163e-05,-8.17041e-06,6.552991e-06,0.00037865195,0.18936811,3.2675114e-08,0.33045304,0.0,0.0,0.0,0.0,0.0,1.6472762e-09,8.042931e-05,0.0015872469,6.238e-05,7.158188e-05,7.157602e-05,1.926199e-05,0.0052648424,0.0052647525,0.0112669645,0.0076133995,0.0076133106,0.061705295,1.1089642e-11,1.10901436e-11,8.730623e-11,1.6921197e-06,1.6919527e-06,5.0000075e-08,0.0,0.0,0.0,0.0,0.0,0.0,0.0,0.0,531,0.12339656,0.2484055,0.01543874,0.0,5.5503497e-05,0.02184221,0.0,0.0,0.0,0.015979,0,0,0,165,24,0,0,0
37995072,0.48429963,-0.0010557167,0.0032946856,0.87489545,0.0026218656,0.0025428557,-0.007039658,0.0017065787,0.002627906,0.16053747,1.0252092e-05,1.01492815e-05,-2.8093358e-05,-8.355837e-06,6.565479e-06,0.00037350573,0.18936811,3.2675114e-08,0.33045304,0.0,0.0,0.0,0.0,0.0,1.7622122e-09,8.076104e-05,0.0014103133,6.1784085e-05,7.1575356e-05,7.156951e-05,1.9057326e-05,0.005222117,0.005222023,0.011233251,0.0075293155,0.007529241,0.061442748,1.1050957e-11,1.1051473e-11,8.54999e-11,1.6920532e-06,1.6918862e-06,5e-08,0.0,0.0,0.0,0.0,0.0,0.0,0.0,0.0,531,0.12271331,0.24787648,0.022399962,0.0,5.336836e-05,0.0019217895,0.0,0.0,0.0,0.015979,0,0,0,165,24,0,0,0
38194315,0.48416662,-0.0010538476,0.0033542542,0.87496877,0.002976387,0.0030270682,-0.007190202,0.0018346667,0.0025202555,0.15461175,1.024601e-05,1.0146984e-05,-2.8046541e-05,-8.501991e-06,6.526151e-06,0.00037507963,0.18936811,3.2675114e-08,0.33045304,0.0,0.0,0.0,0.0,0.0,1.995577e-09,8.275405e-05,0.0016402475,6.141994e-05,7.1585215e-05,7.1579176e-05,1.8923243e-05,0.0052631274,0.0052630184,0.01129589,0.007650901,0.0076508354,0.062083866,1.1026046e-11,1.10265755e-11,8.395547e-11,1.6919954e-06,1.6918285e-06,5e-08,0.0,0.0,0.0,0.0,0.0,0.0,0.0,0.0,531,0.12370019,0.24916634,0.0021596556,0.0,5.119972e-05,0.021031985,0.0,0.0,0.0,0.015979,0,0,0,165,24,0,0,0
38398269,0.48390245,-0.0010715456,0.0033354922,0.87511504,0.0027667764,0.0035385343,-0.013163717,0.0018583018,0.0024947242,0.13422774,1.0240777e-05,1.0144319e-05,-2.813745e-05,-8.610096e-06,6.4275764e-06,0.00038181123,0.18936811,3.2675114e-08,0.33045304,0.0,0.0,0.0,0.0,0.0,1.8519327e-09,8.141871e-05,0.0023992136,6.105917e-05,7.1593764e-05,7.1587674e-05,1.8791688e-05,0.005292726,0.005292587,0.011348924,0.0077477014,0.0077476376,0.062641196,1.099946e-11,1.0999994e-11,8.245187e-11,1.69194e-06,1.6917733e-06,5.000007e-08,0.0,0.0,0.0,0.0,0.0,0.0,0.0,0.0,531,0.12448028,0.25028223,0.0117488615,0.0,4.94181e-05,0.014737025,0.0,0.0,0.0,0.015979,0,0,0,165,24,0,0,0
38598305,0.48377517,-0.00101391,0.0033479088,0.8751853,0.0031324108,0.0029813084,-0.005475637,0.0018821628,0.0025064813,0.15803993,1.0234168e-05,1.0141585e-05,-2.8132352e-05,-8.708364e-06,6.3806942e-06,0.00037267423,0.18936811,3.2675114e-08,0.33045304,0.0,0.0,0.0,0.0,0.0,1.7444659e-09,7.743744e-05,0.0018507291,6.070444e-05,7.159395e-05,7.158778e-05,1.8665738e-05,0.0052722176,0.0052720443,0.011312933,0.00768805,0.007687988,0.062475212,1.0978393e-11,1.097893e-11,8.100491e-11,1.6918835e-06,1.6917168e-06,5.000007e-08,0.0,0.0,0.0,0.0,0.0,0.0,0.0,0.0,531,0.124000154,0.24995042,0.043386884,0.0,4.9270453e-05,0.029912347,0.0,0.0,0.0,0.015979,0,0,0,165,24,0,0,0
38801469,0.48367354,-0.001029599,0.0033580563,0.8752415,0.0032367923,0.004163768,-0.0022411197,0.0020503805,0.0026370902,0.1668881,1.0227955e-05,1.0139479e-05,-2.8083949e-05,-8.8320385e-06,6.364372e-06,0.00036921253,0.18936811,3.2675114e-08,0.33045304,0.0,0.0,0.0,0.0,0.0,1.4102405e-09,7.227683e-05,0.0017681445,6.0143535e-05,7.1604416e-05,7.159811e-05,1.8475846e-05,0.005325499,0.005325282,0.011374411,0.007817623,0.007817552,0.063088626,1.0958618e-11,1.0959155e-11,7.939671e-11,1.6918358e-06,1.691669e-06,5e-08,0.0,0.0,0.0,0.0,0.0,0.0,0.0,0.0,531,0.1250407,0.25117448,0.015559344,0.0,5.1637762e-05,0.022732217,0.0,0.0,0.0,0.015979,0,0,0,165,24,0,0,0
39001468,0.48340714,-0.0010572908,0.0033855834,0.87538844,0.0031269288,0.0044457563,-0.004429705,0.0021122908,0.0027583388,0.16087532,1.022133e-05,1.0136514e-05,-2.8154098e-05,-8.955202e-06,6.3074453e-06,0.00037113298,0.18936811,3.2675114e-08,0.33045304,0.0,0.0,0.0,0.0,0.0,1.388746e-09,7.4580974e-05,0.0018626793,5.980598e-05,7.159457e-05,7.158815e-05,1.8350192e-05,0.005290854,0.005290585,0.011326435,0.00773313,0.007733051,0.06283848,1.0934236e-11,1.0934772e-11,7.803145e-11,1.6917843e-06,1.6916176e-06,5.0000054e-08,0.0,0.0,0.0,0.0,0.0,0.0,0.0,0.0,531,0.1243631,0.25067604,0.011978139,0.0,5.4411725e-05,0.016279468,0.0,0.0,0.0,0.015979,0,0,0,165,24,0,0,0
39201469,0.4833308,-0.0010221297,0.0033795577,0.87543076,0.0026178246,0.0057919323,-0.0046202326,0.0020062097,0.002864373,0.15872644,1.0213018e-05,1.0133755e-05,-2.8070983e-05,-9.151849e-06,6.3329e-06,0.00037148365,0.18936811,3.2675114e-08,0.33045304,0.0,0.0,0.0,0.0,0.0,1.5382472e-09,7.831445e-05,0.0015474802,5.94669e-05,7.15604e-05,7.1553935e-05,1.8227083e-05,0.0051544206,0.005154102,0.011172134,0.0074087447,0.007408661,0.06148311,1.0887676e-11,1.0888209e-11,7.6689856e-11,1.6917287e-06,1.691562e-06,5e-08,0.0,0.0,0.0,0.0,0.0,0.0,0.0,0.0,531,0.121726766,0.24795789,0.021613324,0.0,5.8154706e-05,0.003852644,0.0,0.0,0.0,0.015979,0,0,0,165,24,0,0,0
39408668,0.4832149,-0.0010182502,0.0034115883,0.8754945,0.001098187,0.0054567624,-0.009661036,0.0018989723,0.003159054,0.14253795,1.0205944e-05,1.013074e-05,-2.8035993e-05,-9.345047e-06,6.3615967e-06,0.0003767222,0.18936811,3.2675114e-08,0.33045304,0.0,0.0,0.0,0.0,0.0,1.4208597e-09,7.546742e-05,0.001987901,5.9181548e-05,7.155388e-05,7.154742e-05,1.8121678e-05,0.005181798,0.0051814155,0.011183401,0.0074434737,0.0074433717,0.061553538,1.086659e-11,1.0867124e-11,7.5388064e-11,1.6916787e-06,1.691512e-06,5.0000036e-08,0.0,0.0,0.0,0.0,0.0,0.0,0.0,0.0,531,0.12201166,0.24809985,0.018952701,0.0,6.231066e-05,0.013988359,0.0,0.0,0.0,0.015979,0,0,0,165,24,0,0,0
39608687,0.48306543,-0.0010239594,0.0034182637,0.87557703,0.001496246,0.005058753,-0.013979554,0.0016334006,0.003277989,0.13203232,1.019853e-05,1.0126405e-05,-2.8047018e-05,-9.533647e-06,6.3712055e-06,0.00037972216,0.18936811,3.2675114e-08,0.33045304,0.0,0.0,0.0,0.0,0.0,1.5115825e-09,7.541362e-05,0.0016377382,5.8847632e-05,7.152059e-05,7.151417e-05,1.8003417e-05,0.0050925952,0.005092158,0.011062864,0.0072062593,0.0072061447,0.06040294,1.08294875e-11,1.083002e-11,7.4115804e-11,1.6916234e-06,1.6914569e-06,5e-08,0.0,0.0,0.0,0.0,0.0,0.0,0.0,0.0,531,0.120051675,0.2457701,0.015104397,0.0,6.6528104e-05,0.010232221,0.0,0.0,0.0,0.015979,0,0,0,165,24,0,0,0
39808669,0.48290107,-0.0010032163,0.0034636518,0.87566745,0.00016943815,0.003599751,-0.017158568,0.0014059112,0.0033192963,0.12156063,1.0192219e-05,1.0122141e-05,-2.8053188e-05,-9.700653e-06,6.379568e-06,0.0003823188,0.18936811,3.2675114e-08,0.33045304,0.0,0.0,0.0,0.0,0.0,1.5475415e-09,7.785428e-05,0.0015219739,5.8520174e-05,7.15082e-05,7.150173e-05,1.7885463e-05,0.005113243,0.005112752,0.011061728,0.007218862,0.0072187204,0.060292106,1.0809572e-11,1.0810095e-11,7.287803e-11,1.6915752e-06,1.6914087e-06,5e-08,0.0,0.0,0.0,0.0,0.0,0.0,0.0,0.0,531,0.12015649,0.24554451,0.002511979,0.0,6.66606e-05,0.005063388,0.0,0.0,0.0,0.015979,0,0,0,165,24,0,0,0
40015868,0.48254988,-0.0010182431,0.0034708653,0.87586105,0.0009106555,0.0037544344,-0.02356297,0.0011555289,0.0031895777,0.09968883,1.01867e-05,1.0116473e-05,-2.821178e-05,-9.952842e-06,6.4415653e-06,0.00038890503,0.18936811,3.2675114e-08,0.33045304,0.0,0.0,0.0,0.0,0.0,1.5558328e-09,7.555509e-05,0.0016024946,5.824665e-05,7.14831e-05,7.1476716e-05,1.7782113e-05,0.0050833863,0.0050828555,0.011005099,0.0071193767,0.00711921,0.059665617,1.078168e-11,1.078219e-11,7.167588e-11,1.6915242e-06,1.6913576e-06,5e-08,0.0,0.0,0.0,0.0,0.0,0.0,0.0,0.0,531,0.11932555,0.24426547,0.07137311,0.0,6.4723616e-05,0.015491368,0.0,0.0,0.0,0.015979,0,0,0,165,24,0,0,0
40215869,0.48260435,-0.0010119722,0.0034932073,0.87583095,-0.0003448738,0.0023098034,-0.025238268,0.00093792385,0.002980871,0.09533445,1.01805e-05,1.0113074e-05,-2.8028975e-05,-1.0113817e-05,6.4808964e-06,0.00038854638,0.18936811,3.2675114e-08,0.33045304,0.0,0.0,0.0,0.0,0.0,1.406473e-09,6.777224e-05,0.0013449366,5.792521e-05,7.1470924e-05,7.146463e-05,1.766743e-05,0.0051125223,0.005111957,0.011021555,0.007160247,0.0071600517,0.059648797,1.0763313e-11,1.07638135e-11,7.050011e-11,1.6914812e-06,1.6913148e-06,5.0000036e-08,0.0,0.0,0.0,0.0,0.0,0.0,0.0,0.0,531,0.119667456,0.24423103,0.0023588443,0.0,6.0056256e-05,0.0019654692,0.0,0.0,0.0,0.015979,0,0,0,165,24,0,0,0
40415136,0.48231623,-0.001050226,0.003451175,0.8759898,0.00081863353,0.0014782208,-0.025885267,0.00077017216,0.0026374648,0.09342396,1.0176465e-05,1.0108373e-05,-2.8138043e-05,-1.0297215e-05,6.5486397e-06,0.0003874934,0.18936811,3.2675114e-08,0.33045304,0.0,0.0,0.0,0.0,0.0,1.3772153e-09,6.833082e-05,0.0016288114,5.7609577e-05,7.145907e-05,7.1452894e-05,1.7553019e-05,0.0051429453,0.0051423623,0.011043139,0.0072132116,0.0072129886,0.059698805,1.0745613e-11,1.07461e-11,6.935553e-11,1.6914424e-06,1.691276e-06,5.0000036e-08,0.0,0.0,0.0,0.0,0.0,0.0,0.0,0.0,531,0.12010912,0.24433339,0.10104847,0.0,5.3248954e-05,0.014880451,0.0,0.0,0.0,0.015979,0,0,0,165,24,0,0,0
40619075,0.48201823,-0.0010220498,0.0034387235,0.8761539,-0.00046319448,0.0013011149,-0.022699477,0.00064542715,0.0022104636,0.099397995,1.0172933e-05,1.0104202e-05,-2.8236811e-05,-1.0271262e-05,6.436205e-06,0.00038365982,0.18936811,3.2675114e-08,0.33045304,0.0,0.0,0.0,0.0,0.0,1.7571072e-09,8.33377e-05,0.0018359008,5.7302226e-05,7.144495e-05,7.143884e-05,1.743928e-05,0.0051631653,0.0051625837,0.011059935,0.0072594327,0.0072591854,0.059816476,1.0738928e-11,1.0739404e-11,6.825581e-11,1.6914066e-06,1.6912402e-06,5e-08,0.0,0.0,0.0,0.0,0.0,0.0,0.0,0.0,531,0.12049323,0.24457407,0.01610758,0.0,4.4865013e-05,0.0015765183,0.0,0.0,0.0,0.015979,0,0,0,165,24,0,0,0
40827068,0.4819688,-0.0010602836,0.0034083934,0.8761812,0.0012592815,0.002072174,-0.024876993,0.00061014143,0.0019205833,0.08448822,1.0168763e-05,1.0101992e-05,-2.8085333e-05,-1.0406082e-05,6.4884875e-06,0.0003872245,0.18936811,3.2675114e-08,0.33045304,0.0,0.0,0.0,0.0,0.0,1.9443827e-09,8.9534675e-05,0.0017120359,5.6859004e-05,7.142734e-05,7.142129e-05,1.7282282e-05,0.0051759016,0.005175332,0.011094476,0.007321787,0.007321518,0.06007305,1.0717794e-11,1.0718262e-11,6.7027085e-11,1.6913705e-06,1.691204e-06,5e-08,0.0,0.0,0.0,0.0,0.0,0.0,0.0,0.0,531,0.12100952,0.24509804,0.028108612,0.0,3.8984825e-05,0.0072054085,0.0,0.0,0.0,0.015979,0,0,0,165,24,0,0,0
41026269,0.481945,-0.001040989,0.0034167336,0.8761942,0.00087948766,0.0007961726,-0.0216686,0.0006721693,0.0017203025,0.0931412,1.0164805e-05,1.0099969e-05,-2.7961209e-05,-1.04770215e-05,6.524288e-06,0.00038243612,0.18936811,3.2675114e-08,0.33045304,0.0,0.0,0.0,0.0,0.0,1.930465e-09,8.830916e-05,0.0019028338,5.6557215e-05,7.140526e-05,7.13992e-05,1.717327e-05,0.0051671225,0.0051665767,0.011097742,0.007320873,0.0073205936,0.060045872,1.06957e-11,1.06961705e-11,6.597236e-11,1.6913348e-06,1.6911683e-06,5.0000036e-08,0.0,0.0,0.0,0.0,0.0,0.0,0.0,0.0,531,0.12100193,0.24504259,0.0041896338,0.0,3.477866e-05,0.023368265,0.0,0.0,0.0,0.015979,0,0,0,165,24,0,0,0
41226269,0.48177543,-0.0010366397,0.003435292,0.87628746,0.0022737298,0.001991761,-0.022297304,0.0007970498,0.0015216176,0.0891915,1.0161872e-05,1.0097753e-05,-2.7990993e-05,-1.0526672e-05,6.5269082e-06,0.00038237168,0.18936811,3.2675114e-08,0.33045304,0.0,0.0,0.0,0.0,0.0,1.9037492e-09,8.657963e-05,0.0020485017,5.625784e-05,7.138432e-05,7.137834e-05,1.706792e-05,0.005162812,0.005162297,0.011104956,0.0073241796,0.0073238956,0.06002306,1.0674975e-11,1.0675449e-11,6.494445e-11,1.6913011e-06,1.6911347e-06,5.0000036e-08,0.0,0.0,0.0,0.0,0.0,0.0,0.0,0.0,531,0.121029235,0.24499604,0.019863203,0.0,3.063534e-05,0.0025870577,0.0,0.0,0.0,0.015979,0,0,0,165,24,0,0,0
41426274,0.48138532,-0.0010151918,0.0034037794,0.876502,0.0014960419,4.8154372e-05,-0.020875756,0.00091053796,0.0013525868,0.08513951,1.0160041e-05,1.0095314e-05,-2.8180026e-05,-1.05124245e-05,6.468633e-06,0.00038239866,0.18936811,3.2675114e-08,0.33045304,0.0,0.0,0.0,0.0,0.0,2.1496829e-09,8.726395e-05,0.0017289078,5.5787295e-05,7.1380295e-05,7.137437e-05,1.6908309e-05,0.0052390033,0.0052385107,0.01120665,0.0075255344,0.0075252373,0.060890928,1.066623e-11,1.0666709e-11,6.380874e-11,1.6912732e-06,1.6911066e-06,5e-08,0.0,0.0,0.0,0.0,0.0,0.0,0.0,0.0,531,0.12268159,0.24676087,0.09201373,0.0,2.7215581e-05,0.011230014,0.0,0.0,0.0,0.015979,0,0,0,165,24,0,0,0
41633507,0.48133558,-0.0010105358,0.0034153357,0.8765292,0.0022278605,0.00029428746,-0.02135648,0.0010011886,0.0010293172,0.081488535,1.0156401e-05,1.0094727e-05,-2.8079601e-05,-1.0583091e-05,6.528489e-06,0.0003819399,0.18936811,3.2675114e-08,0.33045304,0.0,0.0,0.0,0.0,0.0,2.1455675e-09,8.697872e-05,0.0024240545,5.554655e-05,7.1359114e-05,7.135312e-05,1.681802e-05,0.0052314266,0.0052309823,0.011226547,0.007548586,0.0075482978,0.061095968,1.0644911e-11,1.0645396e-11,6.2841385e-11,1.691245e-06,1.6910784e-06,5.0000036e-08,0.0,0.0,0.0,0.0,0.0,0.0,0.0,0.0,531,0.12286938,0.24717599,0.021805743,0.0,2.088491e-05,0.045433376,0.0,0.0,0.0,0.015979,0,0,0,165,24,0,0,0
41833469,0.48129287,-0.0009643794,0.0034251313,0.87655276,0.0019438798,-0.00010130643,-0.021725105,0.0011304403,0.00073477725,0.07902008,1.0152893e-05,1.009497e-05,-2.7962327e-05,-1.0574378e-05,6.524125e-06,0.00038127665,0.18936811,3.2675114e-08,0.33045304,0.0,0.0,0.0,0.0,0.0,1.880975e-09,8.3612846e-05,0.001973733,5.5264085e-05,7.1336195e-05,7.133025e-05,1.6714597e-05,0.0051963124,0.005195916,0.01120944,0.007492491,0.0074922205,0.060949586,1.06214195e-11,1.0621912e-11,6.189289e-11,1.6912212e-06,1.6910551e-06,5.0000036e-08,0.0,0.0,0.0,0.0,0.0,0.0,0.0,0.0,531,0.122412056,0.2468797,0.06694398,0.0,2.2274744e-05,0.0007965403,0.0,0.0,0.0,0.015979,0,0,0,165,24,0,0,0
42040669,0.4812707,-0.0009825889,0.0034692315,0.87656456,0.0017955868,0.0003619644,-0.014925046,0.0011130304,0.000594965,0.09533683,1.0148822e-05,1.0095876e-05,-2.7792225e-05,-1.0426734e-05,6.4031406e-06,0.00037377432,0.18936811,3.2675114e-08,0.33045304,0.0,0.0,0.0,0.0,0.0,1.7554258e-09,8.515745e-05,0.0017499485,5.5032448e-05,7.1307935e-05,7.13021e-05,1.662288e-05,0.0051198304,0.005119488,0.011132654,0.007323427,0.0073231845,0.06028434,1.0593137e-11,1.05936405e-11,6.097294e-11,1.6912006e-06,1.6910352e-06,5.000004e-08,0.0,0.0,0.0,0.0,0.0,0.0,0.0,0.0,531,0.121023186,0.2455287,0.0028348283,0.0,2.2299451e-05,0.022873117,0.0,0.0,0.0,0.015979,0,0,0,165,24,0,0,0
42240686,0.4810807,-0.0009326417,0.0034567364,0.876669,0.00060666504,-4.2950676e-05,-0.010585347,0.0010328637,0.00041319287,0.1061738,1.0146413e-05,1.0095888e-05,-2.7822936e-05,-1.0427026e-05,6.4100873e-06,0.00036900144,0.18936811,3.2675114e-08,0.33045304,0.0,0.0,0.0,0.0,0.0,1.8866033e-09,8.603384e-05,0.0019391176,5.475465e-05,7.129853e-05,7.129279e-05,1.6523723e-05,0.0051189777,0.005118683,0.011131861,0.007313818,0.007313593,0.060230866,1.057659e-11,1.0577113e-11,6.0070456e-11,1.691187e-06,1.6910216e-06,5.0000054e-08,0.0,0.0,0.0,0.0,0.0,0.0,0.0,0.0,531,0.12094384,0.24541977,0.021243563,0.0,2.0818676e-05,0.0008840402,0.0,0.0,0.0,0.015979,0,0,0,165,24,0,0,0
42440676,0.48088488,-0.00096981437,0.0034955933,0.8767763,0.000816587,0.000500951,-0.008558707,0.00085546955,0.0002890363,0.109732226,1.0144543e-05,1.0096071e-05,-2.7858261e-05,-1.0448874e-05,6.4324245e-06,0.0003671229,0.18936811,3.2675114e-08,0.33045304,0.0,0.0,0.0,0.0,0.0,1.784136e-09,8.26612e-05,0.0015773748,5.431109e-05,7.1292925e-05,7.128718e-05,1.637563e-05,0.0051240027,0.0051237526,0.011134021,0.0073168078,0.0073165996,0.06022586,1.0562015e-11,1.056256e-11,5.907048e-11,1.6911763e-06,1.6910109e-06,5e-08,0.0,0.0,0.0,0.0,0.0,0.0,0.0,0.0,531,0.120968625,0.24540958,0.024007231,0.0,1.7261222e-05,0.025553793,0.0,0.0,0.0,0.015979,0,0,0,165,24,0,0,0
42648691,0.4810621,-0.00094786903,0.0034533758,0.87667924,0.00022654053,-1.0905857e-06,-0.0032348866,0.0007662457,0.00016003105,0.12436415,1.014134e-05,1.0097961e-05,-2.7587957e-05,-1.0240977e-05,6.2513764e-06,0.0003611619,0.18936811,3.2675114e-08,0.33045304,0.0,0.0,0.0,0.0,0.0,1.8823365e-09,8.451862e-05,0.0013916853,5.4084692e-05,7.129184e-05,7.128623e-05,1.6293036e-05,0.005142273,0.0051420704,0.011161321,0.0073675346,0.007367345,0.060481325,1.0547803e-11,1.0548377e-11,5.821941e-11,1.6911684e-06,1.6910031e-06,5e-08,0.0,0.0,0.0,0.0,0.0,0.0,0.0,0.0,531,0.12138731,0.24592951,0.040496152,0.0,1.5555908e-05,0.001027452,0.0,0.0,0.0,0.015979,0,0,0,165,24,0,0,0
42847916,0.48083118,-0.00097410823,0.0034796293,0.87680584,0.0009614699,0.00046490095,-0.0029147,0.0007103244,0.00013292208,0.124084696,1.0140239e-05,1.0098205e-05,-2.7635386e-05,-1.0278514e-05,6.283678e-06,0.00036109364,0.18936811,3.2675114e-08,0.33045304,0.0,0.0,0.0,0.0,0.0,1.9720983e-09,8.7177155e-05,0.0014065126,5.3818803e-05,7.129969e-05,7.1294104e-05,1.6196713e-05,0.0051968214,0.005196658,0.011240998,0.0075193103,0.007519137,0.061222352,1.0538308e-11,1.0538911e-11,5.7382706e-11,1.6911627e-06,1.6909974e-06,5e-08,0.0,0.0,0.0,0.0,0.0,0.0,0.0,0.0,531,0.12263135,0.24743152,0.01595206,0.0,1.4425922e-05,0.012271862,0.0,0.0,0.0,0.015979,0,0,0,165,24,0,0,0
43055869,0.4808713,-0.00095847645,0.0034413498,0.87678397,0.00063102593,0.0003651799,-0.0017444057,0.00066681433,0.00015753847,0.12864102,1.0138051e-05,1.009945e-05,-2.7495102e-05,-1.018609e-05,6.1983724e-06,0.00035916813,0.18936811,3.2675114e-08,0.33045304,0.0,0.0,0.0,0.0,0.0,1.7560164e-09,8.124099e-05,0.0012303988,5.3595395e-05,7.129776e-05,7.129221e-05,1.6117008e-05,0.0051837945,0.0051836744,0.011244223,0.007515179,0.0075150314,0.061343014,1.05201e-11,1.05207345e-11,5.6571497e-11,1.6911578e-06,1.6909925e-06,5e-08,0.0,0.0,0.0,0.0,0.0,0.0,0.0,0.0,531,0.12259776,0.24767523,0.07241988,0.0,1.353969e-05,0.023660228,0.0,0.0,0.0,0.015979,0,0,0,165,24,0,0,0
43255101,0.4805994,-0.00095456594,0.003507047,0.87693274,0.0002449614,0.00046799326,-0.00023049764,0.0005702343,0.00021523517,0.13231996,1.0137283e-05,1.0099268e-05,-2.7581931e-05,-1.0236507e-05,6.2356107e-06,0.0003577735,0.18936811,3.2675114e-08,0.33045304,0.0,0.0,0.0,0.0,0.0,2.837799e-09,9.3282724e-05,0.0020036227,5.333535e-05,7.130933e-05,7.130356e-05,1.6023492e-05,0.0052300626,0.0052299844,0.011311326,0.0076468005,0.0076466715,0.062034957,1.0511225e-11,1.0511885e-11,5.57756e-11,1.6911537e-06,1.6909884e-06,5.0000036e-08,0.0,0.0,0.0,0.0,0.0,0.0,0.0,0.0,531,0.12366678,0.24906817,0.02202697,0.0,1.1571541e-05,0.040332783,0.0,0.0,0.0,0.015979,0,0,0,165,24,0,0,0
43463090,0.48068714,-0.00097608863,0.0034662068,0.8768848,-0.0009499363,0.001886273,0.0038806961,0.0003620533,0.00034553523,0.1467666,1.0135073e-05,1.0100214e-05,-2.7395803e-05,-1.0092107e-05,6.0936363e-06,0.00035253074,0.18936811,3.2675114e-08,0.33045304,0.0,0.0,0.0,0.0,0.0,2.6792237e-09,8.977493e-05,0.0017440256,5.295627e-05,7.131131e-05,7.130549e-05,1.5897467e-05,0.0052078045,0.0052077663,0.01130173,0.007613245,0.007613141,0.062041987,1.0493036e-11,1.0493726e-11,5.4894155e-11,1.6911496e-06,1.6909843e-06,5.0000036e-08,0.0,0.0,0.0,0.0,0.0,0.0,0.0,0.0,531,0.12339524,0.24908228,0.06560637,0.0,7.4569903e-06,0.0031883738,0.0,0.0,0.0,0.015979,0,0,0,165,24,0,0,0
43663070,0.48069322,-0.00095490774,0.0034983193,0.87688136,-0.00070575054,0.0011948529,0.002861867,5.4510005e-05,0.0004912516,0.14551194,1.013345e-05,1.0100565e-05,-2.7241033e-05,-1.0006916e-05,6.0120306e-06,0.00035310793,0.18936811,3.2675114e-08,0.33045304,0.0,0.0,0.0,0.0,0.0,2.3763718e-09,9.2149334e-05,0.0015702432,5.270631e-05,7.131484e-05,7.130892e-05,1.5806354e-05,0.0051788143,0.005178795,0.011266268,0.0075398465,0.0075397673,0.061798576,1.0475702e-11,1.0476423e-11,5.4139616e-11,1.6911455e-06,1.6909802e-06,5.0000075e-08,0.0,0.0,0.0,0.0,0.0,0.0,0.0,0.0,531,0.122799076,0.2485932,0.04915897,0.0,9.703279e-06,0.03688338,0.0,0.0,0.0,0.015979,0,0,0,165,24,0,0,0
43862297,0.48063028,-0.0009309735,0.0034449094,0.87691617,-0.001594673,0.000347563,0.0012196272,-0.00020603312,0.0004675938,0.14425175,1.013269e-05,1.0100028e-05,-2.717178e-05,-9.967902e-06,5.9759245e-06,0.00035360342,0.18936811,3.2675114e-08,0.33045304,0.0,0.0,0.0,0.0,0.0,2.1328912e-09,8.410745e-05,0.0017843636,5.2301075e-05,7.132286e-05,7.131689e-05,1.567269e-05,0.005164479,0.005164472,0.01123869,0.0074887695,0.007488711,0.06159208,1.0460849e-11,1.0461603e-11,5.3300427e-11,1.6911414e-06,1.6909761e-06,5.0000036e-08,0.0,0.0,0.0,0.0,0.0,0.0,0.0,0.0,531,0.122382514,0.24817751,0.045480553,0.0,9.271081e-06,0.003073473,0.0,0.0,0.0,0.015979,0,0,0,165,24,0,0,0
44062275,0.48065946,-0.00094921555,0.0034349565,0.87690014,-0.0019712385,0.00085701956,0.0025934668,-0.00044169297,0.00045230734,0.14844283,1.0131772e-05,1.0099851e-05,-2.6988599e-05,-9.845514e-06,5.871557e-06,0.00035211112,0.18936811,3.2675114e-08,0.33045304,0.0,0.0,0.0,0.0,0.0,2.0558235e-09,8.343585e-05,0.0015134474,5.206081e-05,7.1333496e-05,7.13274e-05,1.55839e-05,0.005155848,0.005155835,0.011216538,0.0074479487,0.007447909,0.06138927,1.0446746e-11,1.0447539e-11,5.258379e-11,1.6911363e-06,1.690971e-06,5.0000036e-08,0.0,0.0,0.0,0.0,0.0,0.0,0.0,0.0,531,0.12204859,0.24776858,0.019933749,0.0,8.976155e-06,0.021667046,0.0,0.0,0.0,0.015979,0,0,0,165,24,0,0,0
44265508,0.48077768,-0.0009718604,0.0034282529,0.8768353,-0.00089976715,0.0013762634,0.00011768491,-0.0006467275,0.00045402336,0.13770851,1.0131257e-05,1.0099606e-05,-2.6769803e-05,-9.738653e-06,5.7932543e-06,0.00035599605,0.18936811,3.2675114e-08,0.33045304,0.0,0.0,0.0,0.0,0.0,2.053083e-09,8.419416e-05,0.0019839976,5.1819963e-05,7.1332295e-05,7.132609e-05,1.5499023e-05,0.0050674765,0.0050674453,0.011098035,0.0072188657,0.007218839,0.060335744,1.0422487e-11,1.0423321e-11,5.1883945e-11,1.69113e-06,1.6909647e-06,5e-08,0.0,0.0,0.0,0.0,0.0,0.0,0.0,0.0,531,0.120157,0.24563335,0.05684108,0.0,1.3124762e-05,0.010803967,0.0,0.0,0.0,0.015979,0,0,0,165,24,0,0,0
44473517,0.48083353,-0.0009749479,0.0033815596,0.8768048,-0.0005303074,0.0008056459,-0.004337637,-0.00064754655,0.00050661404,0.12896834,1.0131134e-05,1.0098968e-05,-2.6611657e-05,-9.658968e-06,5.740014e-06,0.00035883172,0.18936811,3.2675114e-08,0.33045304,0.0,0.0,0.0,0.0,0.0,1.8563375e-09,8.0702186e-05,0.0018496497,5.162338e-05,7.13599e-05,7.13537e-05,1.5428415e-05,0.005138941,0.0051388787,0.0111416085,0.007339935,0.007339915,0.06075047,1.04339e-11,1.0434769e-11,5.1221787e-11,1.6911251e-06,1.6909598e-06,5.000004e-08,0.0,0.0,0.0,0.0,0.0,0.0,0.0,0.0,531,0.121160425,0.2464761,0.07235908,0.0,1.3009942e-05,0.015363374,0.0,0.0,0.0,0.015979,0,0,0,165,24,0,0,0
44673469,0.48069057,-0.0009865507,0.0033928705,0.8768832,0.0005960243,0.0017107953,-0.008831245,-0.00051240216,0.0006359893,0.11377883,1.0131592e-05,1.00975085e-05,-2.6605781e-05,-9.71803e-06,5.8115756e-06,0.00036374887,0.18936811,3.2675114e-08,0.33045304,0.0,0.0,0.0,0.0,0.0,1.8002168e-09,7.9401696e-05,0.0017114118,5.138665e-05,7.137287e-05,7.1366674e-05,1.5345664e-05,0.0051461756,0.005146075,0.011138045,0.007340747,0.007340726,0.060652003,1.0421777e-11,1.0422683e-11,5.0552493e-11,1.6911218e-06,1.6909565e-06,5.0000036e-08,0.0,0.0,0.0,0.0,0.0,0.0,0.0,0.0,531,0.12116713,0.24627627,0.070947744,0.0,1.2611016e-05,0.008399983,0.0,0.0,0.0,0.015979,0,0,0,165,24,0,0,0
44880717,0.48069715,-0.00094797567,0.0033635534,0.87687975,9.212514e-05,0.0007297884,-0.013588329,-0.0003620072,0.00068257534,0.10294652,1.0131091e-05,1.0096563e-05,-2.6490976e-05,-9.669388e-06,5.7810616e-06,0.0003667783,0.18936811,3.2675114e-08,0.33045304,0.0,0.0,0.0,0.0,0.0,1.6463892e-09,7.852388e-05,0.0016282414,5.1190455e-05,7.1385446e-05,7.1379276e-05,1.5275866e-05,0.005172247,0.0051721046,0.011164611,0.007402602,0.007402576,0.060870063,1.041202e-11,1.0412964e-11,4.990384e-11,1.6911204e-06,1.6909551e-06,5.000007e-08,0.0,0.0,0.0,0.0,0.0,0.0,0.0,0.0,531,0.121676534,0.24671859,0.010698445,0.0,1.3552738e-05,0.024362486,0.0,0.0,0.0,0.015979,0,0,0,165,24,0,0,0
45080669,0.48082158,-0.00092957786,0.003453931,0.8768112,0.0014221799,0.001914991,-0.020311847,-0.000121676196,0.00075864367,0.08344613,1.0129716e-05,1.0096401e-05,-2.6261772e-05,-9.578445e-06,5.7230363e-06,0.0003723213,0.18936811,3.2675114e-08,0.33045304,0.0,0.0,0.0,0.0,0.0,1.5622462e-09,7.771323e-05,0.0015156909,5.0958508e-05,7.138985e-05,7.1383656e-05,1.5193786e-05,0.0051654796,0.0051652947,0.01115668,0.007388203,0.00738817,0.060753986,1.0398003e-11,1.0398982e-11,4.9263902e-11,1.6911204e-06,1.6909551e-06,5.000007e-08,0.0,0.0,0.0,0.0,0.0,0.0,0.0,0.0,531,0.12155811,0.24648324,0.07533099,0.0,1.4878837e-05,0.02653445,0.0,0.0,0.0,0.015979,0,0,0,165,24,0,0,0
45280691,0.48083532,-0.0009558929,0.0034155762,0.8768038,0.0005465235,0.0007876667,-0.021428104,3.631128e-05,0.0008018906,0.0765411,1.0128243e-05,1.0095556e-05,-2.6141479e-05,-9.518325e-06,5.6771696e-06,0.00037299917,0.18936811,3.2675114e-08,0.33045304,0.0,0.0,0.0,0.0,0.0,1.8996504e-09,8.444068e-05,0.0015083594,5.0728268e-05,7.137848e-05,7.1372386e-05,1.5114449e-05,0.0050793374,0.0050791157,0.0110539375,0.007185535,0.007185491,0.059809215,1.0374752e-11,1.03757706e-11,4.8640047e-11,1.6911204e-06,1.6909551e-06,5e-08,0.0,0.0,0.0,0.0,0.0,0.0,0.0,0.0,531,0.119879216,0.24455923,0.1447686,0.0,1.6267923e-05,0.024778696,0.0,0.0,0.0,0.015979,0,0,0,165,24,0,0,0
45487868,0.4806415,-0.0009324813,0.0034147538,0.87691015,0.00059328723,0.0020336437,-0.025119612,7.190919e-05,0.0009020158,0.062274676,1.0127537e-05,1.0094009e-05,-2.6185067e-05,-9.558055e-06,5.726403e-06,0.00037648564,0.18936811,3.2675114e-08,0.33045304,0.0,0.0,0.0,0.0,0.0,1.7430329e-09,7.8897e-05,0.0019123299,5.0391853e-05,7.139046e-05,7.1384304e-05,1.5004485e-05,0.005128401,0.0051281387,0.011100315,0.0072877603,0.007287696,0.060144335,1.03696236e-11,1.03706765e-11,4.794613e-11,1.6911204e-06,1.6909551e-06,5.0000004e-08,0.0,0.0,0.0,0.0,0.0,0.0,0.0,0.0,531,0.12072886,0.24524342,0.034857996,0.0,1.7680684e-05,0.0032436554,0.0,0.0,0.0,0.015979,0,0,0,165,24,0,0,0
45687869,0.48044276,-0.0009421641,0.0034063212,0.877019,0.00013700215,0.0022901206,-0.028183155,0.00013453705,0.0010758556,0.0548588,1.0126381e-05,1.0092072e-05,-2.6225154e-05,-9.580316e-06,5.7546667e-06,0.000377213,0.18936811,3.2675114e-08,0.33045304,0.0,0.0,0.0,0.0,0.0,2.0238484e-09,8.691075e-05,0.0016675276,5.0167724e-05,7.137778e-05,7.137156e-05,1.4926702e-05,0.0050497097,0.00504943,0.011008718,0.0071025975,0.0071025197,0.05925524,1.03473315e-11,1.0348418e-11,4.7350738e-11,1.6911192e-06,1.6909539e-06,5e-08,0.0,0.0,0.0,0.0,0.0,0.0,0.0,0.0,531,0.119185224,0.24342398,0.0428771,0.0,2.1828126e-05,0.0060634394,0.0,0.0,0.0,0.015979,0,0,0,165,24,0,0,0
45895069,0.48045808,-0.00094455294,0.0034113014,0.8770106,0.00051916746,0.0030527788,-0.02885155,0.00017801324,0.0013131298,0.049255636,1.0124166e-05,1.0090841e-05,-2.6098856e-05,-9.588724e-06,5.7854268e-06,0.00037696635,0.18936811,3.2675114e-08,0.33045304,0.0,0.0,0.0,0.0,0.0,1.994984e-09,8.8269364e-05,0.0021846022,4.9982085e-05,7.138856e-05,7.138233e-05,1.48602685e-05,0.0051012295,0.0051009287,0.011061795,0.007214597,0.0072144996,0.059641734,1.0342894e-11,1.034401e-11,4.6772884e-11,1.6911181e-06,1.6909528e-06,5e-08,0.0,0.0,0.0,0.0,0.0,0.0,0.0,0.0,531,0.12012117,0.24421658,0.011039748,0.0,2.617982e-05,0.0061735716,0.0,0.0,0.0,0.015979,0,0,0,165,24,0,0,0
46095115,0.4805433,-0.0009969376,0.0033359698,0.87696415,0.0009640936,0.003374917,-0.025341155,0.00023553049,0.0015848742,0.058636874,1.0121298e-05,1.0089377e-05,-2.592792e-05,-9.611329e-06,5.823278e-06,0.00037141153,0.18936811,3.2675114e-08,0.33045304,0.0,0.0,0.0,0.0,0.0,1.6805758e-09,7.883563e-05,0.0018856134,4.976111e-05,7.139231e-05,7.138614e-05,1.4784564e-05,0.0051157065,0.0051153973,0.011078574,0.0072463616,0.0072462475,0.059695125,1.0334071e-11,1.0335219e-11,4.6203603e-11,1.691116e-06,1.6909507e-06,5e-08,0.0,0.0,0.0,0.0,0.0,0.0,0.0,0.0,531,0.12038525,0.24432586,0.0050649666,0.0,3.1634758e-05,0.02243409,0.0,0.0,0.0,0.015979,0,0,0,165,24,0,0,0
46295102,0.4805465,-0.0009529329,0.0033163738,0.8769625,0.0002564636,0.0034199962,-0.030528458,0.0002880658,0.0017573264,0.04209505,1.0118551e-05,1.0087372e-05,-2.5826215e-05,-9.598217e-06,5.8599826e-06,0.00037534832,0.18936811,3.2675114e-08,0.33045304,0.0,0.0,0.0,0.0,0.0,1.7574795e-09,8.034718e-05,0.0016266315,4.954343e-05,7.139226e-05,7.138607e-05,1.4710753e-05,0.005112886,0.005112579,0.011085275,0.0072562066,0.0072560804,0.059727415,1.0322493e-11,1.0323668e-11,4.5648228e-11,1.6911137e-06,1.6909484e-06,5.0000036e-08,0.0,0.0,0.0,0.0,0.0,0.0,0.0,0.0,531,0.120466955,0.24439193,0.0123423375,0.0,3.5189845e-05,0.026484545,0.0,0.0,0.0,0.015979,0,0,0,165,24,0,0,0
46493509,0.48060194,-0.00097461545,0.0033214302,0.8769321,0.0015246985,0.0043508206,-0.025667993,0.00033302602,0.0019435338,0.05104665,1.0115151e-05,1.0085147e-05,-2.5682988e-05,-9.6004715e-06,5.8897353e-06,0.00036992328,0.18936811,3.2675114e-08,0.33045304,0.0,0.0,0.0,0.0,0.0,1.7705125e-09,8.183904e-05,0.001673951,4.919044e-05,7.139263e-05,7.138646e-05,1.4597546e-05,0.0051095467,0.005109245,0.011091592,0.0072643077,0.007264171,0.0597624,1.0311333e-11,1.031253e-11,4.502614e-11,1.6911096e-06,1.6909443e-06,5e-08,0.0,0.0,0.0,0.0,0.0,0.0,0.0,0.0,531,0.12053414,0.24446349,0.0002255679,0.0,3.944276e-05,0.023220487,0.0,0.0,0.0,0.015979,0,0,0,165,24,0,0,0
46702269,0.48051715,-0.0009651258,0.003360403,0.8769784,0.0017972958,0.004425038,-0.025083587,0.00053279666,0.0022495645,0.046727527,1.0112114e-05,1.0082528e-05,-2.5634e-05,-9.554283e-06,5.882361e-06,0.00036943748,0.18936811,3.2675114e-08,0.33045304,0.0,0.0,0.0,0.0,0.0,1.7213352e-09,8.33444e-05,0.001743967,4.901571e-05,7.141077e-05,7.140456e-05,1.4535149e-05,0.0052050794,0.0052047884,0.011222237,0.007519182,0.007519028,0.06091351,1.0312165e-11,1.03133795e-11,4.450045e-11,1.6911051e-06,1.6909398e-06,5.0000036e-08,0.0,0.0,0.0,0.0,0.0,0.0,0.0,0.0,531,0.12263038,0.24680662,0.0036695455,0.0,4.5008463e-05,0.034820475,0.0,0.0,0.0,0.015979,0,0,0,165,24,0,0,0
46902318,0.48034212,-0.0009538026,0.003348353,0.87707436,0.0020919018,0.0039579053,-0.025538342,0.00065660675,0.0023819208,0.042832863,1.01086025e-05,1.0078948e-05,-2.5667681e-05,-9.474901e-06,5.8476544e-06,0.0003690752,0.18936811,3.2675114e-08,0.33045304,0.0,0.0,0.0,0.0,0.0,1.4236481e-09,7.325948e-05,0.0014525094,4.8807844e-05,7.1404334e-05,7.139806e-05,1.4464638e-05,0.00516137,0.0051611075,0.011199685,0.007456279,0.0074561257,0.060790837,1.0295617e-11,1.0296848e-11,4.3983813e-11,1.6910996e-06,1.6909343e-06,5.0000036e-08,0.0,0.0,0.0,0.0,0.0,0.0,0.0,0.0,531,0.12211636,0.24655798,0.0038963642,0.0,4.7726917e-05,0.007255782,0.0,0.0,0.0,0.015979,0,0,0,165,24,0,0,0
47109478,0.48000085,-0.0009693059,0.0033508951,0.87726116,0.0015339524,0.0038160544,-0.01750689,0.0007774625,0.0025123195,0.057748683,1.0105325e-05,1.0074548e-05,-2.58222e-05,-9.500349e-06,5.8824216e-06,0.00036227689,0.18936811,3.2675114e-08,0.33045304,0.0,0.0,0.0,0.0,0.0,1.6431884e-09,7.641106e-05,0.0018328069,4.8502603e-05,7.140917e-05,7.1402836e-05,1.4365529e-05,0.0051702885,0.0051700603,0.01122219,0.007493943,0.00749379,0.061033618,1.028691e-11,1.0288154e-11,4.3407392e-11,1.6910931e-06,1.6909277e-06,5e-08,0.0,0.0,0.0,0.0,0.0,0.0,0.0,0.0,531,0.1224244,0.24704982,0.07641628,0.0,4.9746348e-05,0.018258529,0.0,0.0,0.0,0.015979,0,0,0,165,24,0,0,0
47309469,0.48020867,-0.00094707904,0.003326476,0.8771475,0.0016392758,0.003693023,-0.013671248,0.0008169406,0.0025812294,0.06897799,1.0099219e-05,1.00720545e-05,-2.5547259e-05,-9.315646e-06,5.7772395e-06,0.00035688255,0.18936811,3.2675114e-08,0.33045304,0.0,0.0,0.0,0.0,0.0,1.5021726e-09,7.251269e-05,0.0015258314,4.830172e-05,7.1395916e-05,7.138959e-05,1.4295024e-05,0.005063883,0.005063687,0.011107723,0.0072460906,0.00724595,0.060030814,1.0268878e-11,1.0270137e-11,4.291872e-11,1.6910847e-06,1.6909192e-06,5e-08,0.0,0.0,0.0,0.0,0.0,0.0,0.0,0.0,531,0.12038289,0.24501187,0.024678515,0.0,5.2387386e-05,0.008767915,0.0,0.0,0.0,0.015979,0,0,0,165,24,0,0,0
