timestamp,baro_alt_meter,baro_temp_celcius,baro_pressure_pa,rho
29544558,54.25739,49.219997,100675.0,1.1961856
29554220,54.25739,49.219997,100675.0,1.1961856
29565023,54.423855,49.219997,100673.0,1.1961617
29587016,54.50841,49.23,100672.0,1.19615
29598016,54.175476,49.23,100675.99,1.1961973
29609016,54.25739,49.23,100675.0,1.1961856
29630024,54.50841,49.219997,100672.0,1.19615
29641027,54.00637,49.219997,100678.0,1.1962212
29652016,54.75943,49.219997,100669.0,1.1961143
29673016,54.592964,49.23,100671.0,1.196138
29684021,54.34194,49.23,100674.0,1.1961737
29695031,54.090923,49.23,100676.99,1.1962092
29716028,54.592964,49.23,100671.0,1.196138
29728511,54.090923,49.23,100676.99,1.1962092
29739472,54.423855,49.23,100673.0,1.1961617
29760261,54.50841,49.219997,100672.0,1.19615
29771899,54.175476,49.219997,100675.99,1.1961973
29782019,54.50841,49.219997,100672.0,1.19615
29804030,54.75943,49.23,100669.0,1.1961143
29816243,54.50841,49.23,100672.0,1.19615
29827019,54.175476,49.23,100675.99,1.1961973
29849021,54.00637,49.219997,100678.0,1.1962212
29860359,54.34194,49.219997,100674.0,1.1961737
29871028,54.423855,49.219997,100673.0,1.1961617
29893016,54.25739,49.219997,100675.0,1.1961856
29903428,54.75943,49.219997,100669.0,1.1961143
29913020,54.592964,49.219997,100671.0,1.196138
29935021,54.423855,49.23,100673.0,1.1961617
29945057,54.423855,49.23,100673.0,1.1961617
29956033,54.175476,49.23,100675.99,1.1961973
29978020,54.423855,49.23,100673.0,1.1961617
29989016,54.090923,49.23,100676.99,1.1962092
30000023,54.34194,49.23,100674.0,1.1961737
30021021,54.175476,49.23,100675.99,1.1961973
30032059,54.34194,49.23,100674.0,1.1961737
30043135,54.50841,49.23,100672.0,1.19615
30065016,54.423855,49.23,100673.0,1.1961617
30075134,54.175476,49.23,100675.99,1.1961973
30087410,54.175476,49.23,100675.99,1.1961973
30108016,54.50841,49.23,100672.0,1.19615
30118020,54.75943,49.23,100669.0,1.1961143
30129050,54.592964,49.23,100671.0,1.196138
30150016,54.090923,49.23,100676.99,1.1962092
30160297,54.34194,49.23,100674.0,1.1961737
30171097,54.25739,49.23,100675.0,1.1961856
30194149,54.423855,49.23,100673.0,1.1961617
30205343,54.843983,49.23,100668.0,1.1961024
30215757,54.592964,49.23,100671.0,1.196138
30238031,54.34194,49.23,100674.0,1.1961737
30248250,54.175476,49.23,100675.99,1.1961973
30259017,54.34194,49.23,100674.0,1.1961737
30281016,54.50841,49.23,100672.0,1.19615
30291152,54.25739,49.23,100675.0,1.1961856
30302016,54.175476,49.23,100675.99,1.1961973
30324016,54.34194,49.23,100674.0,1.1961737
30334020,54.592964,49.23,100671.0,1.196138
30345018,54.50841,49.23,100672.0,1.19615
30367374,54.34194,49.23,100674.0,1.1961737
30377131,54.34194,49.23,100674.0,1.1961737
30388016,54.175476,49.23,100675.99,1.1961973
30409019,54.090923,49.23,100676.99,1.1962092
30419016,54.00637,49.23,100678.0,1.1962212
30430046,54.50841,49.23,100672.0,1.19615
30451101,54.25739,49.23,100675.0,1.1961856
30463962,54.677517,49.23,100669.99,1.196126
30473016,54.090923,49.23,100676.99,1.1962092
30493019,54.50841,49.239998,100672.0,1.19615
30504066,54.592964,49.239998,100671.0,1.196138
30515152,54.423855,49.239998,100673.0,1.1961617
30538043,54.677517,49.239998,100669.99,1.196126
30549016,54.50841,49.239998,100672.0,1.19615
30560016,53.83726,49.239998,100680.0,1.196245
30582617,54.090923,49.239998,100676.99,1.1962092
30593016,54.592964,49.239998,100671.0,1.196138
30604016,54.34194,49.239998,100674.0,1.1961737
30626313,54.175476,49.239998,100675.99,1.1961973
30637019,54.00637,49.239998,100678.0,1.1962212
30647251,54.423855,49.239998,100673.0,1.1961617
30669028,54.175476,49.23,100675.99,1.1961973
30680028,54.592964,49.23,100671.0,1.196138
30690324,54.423855,49.23,100673.0,1.1961617
30711224,54.592964,49.23,100671.0,1.196138
30722326,54.25739,49.23,100675.0,1.1961856
30733020,54.592964,49.23,100671.0,1.196138
30755031,53.75535,49.23,100681.0,1.1962569
30765016,54.50841,49.23,100672.0,1.19615
30776016,54.925896,49.23,100667.0,1.1960905
30797350,54.25739,49.239998,100675.0,1.1961856
30807193,54.34194,49.239998,100674.0,1.1961737
30818434,55.010452,49.239998,100666.0,1.1960787
30839177,54.677517,49.239998,100669.99,1.196126
30850217,54.175476,49.239998,100675.99,1.1961973
30861019,54.423855,49.239998,100673.0,1.1961617
30883120,54.090923,49.239998,100676.99,1.1962092
30894979,53.921814,49.239998,100679.0,1.196233
30906212,54.592964,49.239998,100671.0,1.196138
30928016,54.090923,49.23,100676.99,1.1962092
30939017,54.677517,49.23,100669.99,1.196126
30951034,54.677517,49.23,100669.99,1.196126
30973016,54.25739,49.239998,100675.0,1.1961856
30984016,54.25739,49.239998,100675.0,1.1961856
30995016,54.75943,49.239998,100669.0,1.1961143
31016016,54.175476,49.239998,100675.99,1.1961973
31026210,54.677517,49.239998,100669.99,1.196126
31037016,54.50841,49.239998,100672.0,1.19615
31058296,54.25739,49.239998,100675.0,1.1961856
31069368,54.592964,49.239998,100671.0,1.196138
31079010,54.592964,49.239998,100671.0,1.196138
31100017,54.175476,49.239998,100675.99,1.1961973
31111176,54.34194,49.239998,100674.0,1.1961737
31122211,54.592964,49.239998,100671.0,1.196138
31145388,54.34194,49.239998,100674.0,1.1961737
31156053,54.34194,49.239998,100674.0,1.1961737
31167016,54.677517,49.239998,100669.99,1.196126
31189951,54.34194,49.239998,100674.0,1.1961737
31200016,54.34194,49.239998,100674.0,1.1961737
31211016,54.843983,49.239998,100668.0,1.1961024
31233417,54.090923,49.23,100676.99,1.1962092
31244016,54.592964,49.23,100671.0,1.196138
31254016,54.843983,49.23,100668.0,1.1961024
31276016,54.592964,49.239998,100671.0,1.196138
31287142,54.423855,49.239998,100673.0,1.1961617
31297584,54.423855,49.239998,100673.0,1.1961617
31318840,54.175476,49.239998,100675.99,1.1961973
31329620,55.095005,49.239998,100665.0,1.1960667
31340322,54.592964,49.239998,100671.0,1.196138
31361415,54.175476,49.239998,100675.99,1.1961973
31372019,54.50841,49.239998,100672.0,1.19615
31383016,54.592964,49.239998,100671.0,1.196138
31404020,54.423855,49.239998,100673.0,1.1961617
31415096,54.090923,49.239998,100676.99,1.1962092
31425521,54.50841,49.239998,100672.0,1.19615
31446058,54.50841,49.25,100672.0,1.19615
31457375,54.25739,49.25,100675.0,1.1961856
31468016,54.423855,49.25,100673.0,1.1961617
31489572,54.50841,49.239998,100672.0,1.19615
31500033,54.34194,49.239998,100674.0,1.1961737
31511034,54.175476,49.239998,100675.99,1.1961973
31534501,54.423855,49.239998,100673.0,1.1961617
31545372,54.50841,49.239998,100672.0,1.19615
31556016,54.423855,49.239998,100673.0,1.1961617
31578016,54.25739,49.239998,100675.0,1.1961856
31589019,54.175476,49.239998,100675.99,1.1961973
31600617,54.34194,49.239998,100674.0,1.1961737
31622021,54.25739,49.25,100675.0,1.1961856
31633633,54.25739,49.25,100675.0,1.1961856
31644020,54.592964,49.25,100671.0,1.196138
31666016,53.83726,49.239998,100680.0,1.196245
31676579,54.090923,49.239998,100676.99,1.1962092
31687363,54.423855,49.239998,100673.0,1.1961617
31708606,54.34194,49.239998,100674.0,1.1961737
31719113,54.34194,49.239998,100674.0,1.1961737
31730020,54.592964,49.239998,100671.0,1.196138
31751073,54.175476,49.25,100675.99,1.1961973
31761639,53.83726,49.25,100680.0,1.196245
31772616,54.592964,49.25,100671.0,1.196138
31793026,54.175476,49.25,100675.99,1.1961973
31804583,54.423855,49.25,100673.0,1.1961617
31815019,54.25739,49.25,100675.0,1.1961856
31836848,54.423855,49.25,100673.0,1.1961617
31847026,54.175476,49.25,100675.99,1.1961973
31857037,54.75943,49.25,100669.0,1.1961143
31879016,54.25739,49.25,100675.0,1.1961856
31889649,54.175476,49.25,100675.99,1.1961973
31900730,54.50841,49.25,100672.0,1.19615
31921612,54.34194,49.25,100674.0,1.1961737
31932618,54.677517,49.25,100669.99,1.196126
31943337,53.921814,49.25,100679.0,1.196233
31964755,54.34194,49.25,100674.0,1.1961737
31975108,54.34194,49.25,100674.0,1.1961737
31986016,54.677517,49.25,100669.99,1.196126
32007079,54.423855,49.25,100673.0,1.1961617
32018152,54.592964,49.25,100671.0,1.196138
32028774,54.175476,49.25,100675.99,1.1961973
32049049,54.00637,49.25,100678.0,1.1962212
32060592,54.34194,49.25,100674.0,1.1961737
32071090,54.75943,49.25,100669.0,1.1961143
32093069,54.50841,49.25,100672.0,1.19615
32103016,54.25739,49.25,100675.0,1.1961856
32114139,54.34194,49.25,100674.0,1.1961737
32135476,54.423855,49.25,100673.0,1.1961617
32145939,54.50841,49.25,100672.0,1.19615
32155395,53.921814,49.25,100679.0,1.196233
32177020,54.423855,49.25,100673.0,1.1961617
32188607,54.592964,49.25,100671.0,1.196138
32199016,53.921814,49.25,100679.0,1.196233
32220034,54.592964,49.25,100671.0,1.196138
32231535,54.75943,49.25,100669.0,1.1961143
32241072,54.423855,49.25,100673.0,1.1961617
32263373,54.175476,49.25,100675.99,1.1961973
32274045,54.25739,49.25,100675.0,1.1961856
32284063,54.423855,49.25,100673.0,1.1961617
32306016,54.423855,49.25,100673.0,1.1961617
32317016,54.592964,49.25,100671.0,1.196138
32327312,54.423855,49.25,100673.0,1.1961617
32348021,54.175476,49.25,100675.99,1.1961973
32361140,54.175476,49.25,100675.99,1.1961973
32372035,54.25739,49.25,100675.0,1.1961856
32395810,54.34194,49.26,100674.0,1.1961737
32406355,54.25739,49.26,100675.0,1.1961856
32416223,54.677517,49.26,100669.99,1.196126
32438021,54.175476,49.25,100675.99,1.1961973
32449019,54.25739,49.25,100675.0,1.1961856
32460035,54.75943,49.25,100669.0,1.1961143
32482016,54.75943,49.25,100669.0,1.1961143
32493016,54.175476,49.25,100675.99,1.1961973
32504562,54.175476,49.25,100675.99,1.1961973
32525078,54.50841,49.25,100672.0,1.19615
32536166,54.423855,49.25,100673.0,1.1961617
32547021,54.175476,49.25,100675.99,1.1961973
32569023,54.34194,49.25,100674.0,1.1961737
32580057,54.843983,49.25,100668.0,1.1961024
32591016,54.25739,49.25,100675.0,1.1961856
32613016,54.34194,49.25,100674.0,1.1961737
32623336,54.423855,49.25,100673.0,1.1961617
32634016,54.34194,49.25,100674.0,1.1961737
32654016,54.34194,49.25,100674.0,1.1961737
32664796,54.34194,49.25,100674.0,1.1961737
32675016,54.592964,49.25,100671.0,1.196138
32697016,54.34194,49.25,100674.0,1.1961737
32707379,54.592964,49.25,100671.0,1.196138
32718108,54.090923,49.25,100676.99,1.1962092
32739019,54.592964,49.25,100671.0,1.196138
32751964,54.25739,49.25,100675.0,1.1961856
32762026,54.25739,49.25,100675.0,1.1961856
32784018,54.175476,49.26,100675.99,1.1961973
32795467,54.592964,49.26,100671.0,1.196138
32806026,54.50841,49.26,100672.0,1.19615
32828016,54.175476,49.26,100675.99,1.1961973
32840728,54.423855,49.26,100673.0,1.1961617
32851204,54.00637,49.26,100678.0,1.1962212
32875019,54.677517,49.25,100669.99,1.196126
32888235,55.010452,49.25,100666.0,1.1960787
32899138,54.25739,49.25,100675.0,1.1961856
32921542,54.50841,49.25,100672.0,1.19615
32932020,54.34194,49.25,100674.0,1.1961737
32944035,54.677517,49.25,100669.99,1.196126
32966020,54.00637,49.25,100678.0,1.1962212
32976057,54.25739,49.25,100675.0,1.1961856
32987141,54.175476,49.25,100675.99,1.1961973
33008161,54.423855,49.25,100673.0,1.1961617
33018140,54.175476,49.25,100675.99,1.1961973
33029341,54.592964,49.25,100671.0,1.196138
33050981,54.50841,49.25,100672.0,1.19615
33061027,53.921814,49.25,100679.0,1.196233
33072353,54.50841,49.25,100672.0,1.19615
33095438,54.592964,49.26,100671.0,1.196138
33105650,54.25739,49.26,100675.0,1.1961856
33116020,54.25739,49.26,100675.0,1.1961856
33139019,54.34194,49.26,100674.0,1.1961737
33150016,54.843983,49.26,100668.0,1.1961024
33161016,54.090923,49.26,100676.99,1.1962092
33182021,54.25739,49.26,100675.0,1.1961856
33193052,54.34194,49.26,100674.0,1.1961737
33204058,54.50841,49.26,100672.0,1.19615
33226019,54.175476,49.26,100675.99,1.1961973
33237369,54.25739,49.26,100675.0,1.1961856
33248016,53.921814,49.26,100679.0,1.196233
33268019,54.592964,49.25,100671.0,1.196138
33279016,54.50841,49.25,100672.0,1.19615
33290300,54.677517,49.25,100669.99,1.196126
33311114,54.50841,49.26,100672.0,1.19615
33322179,54.592964,49.26,100671.0,1.196138
33333028,54.25739,49.26,100675.0,1.1961856
33354339,54.34194,49.26,100674.0,1.1961737
33365016,54.423855,49.26,100673.0,1.1961617
33376016,54.592964,49.26,100671.0,1.196138
33397370,54.175476,49.26,100675.99,1.1961973
33407135,54.34194,49.26,100674.0,1.1961737
33418327,54.34194,49.26,100674.0,1.1961737
33439016,54.34194,49.26,100674.0,1.1961737
33450170,54.423855,49.26,100673.0,1.1961617
33461016,54.090923,49.26,100676.99,1.1962092
33482186,54.423855,49.26,100673.0,1.1961617
33493020,54.50841,49.26,100672.0,1.19615
33504020,54.50841,49.26,100672.0,1.19615
33525016,54.423855,49.26,100673.0,1.1961617
33536070,54.592964,49.26,100671.0,1.196138
33547016,54.175476,49.26,100675.99,1.1961973
33570190,54.34194,49.27,100674.0,1.1961737
33580016,53.921814,49.27,100679.0,1.196233
33591030,54.677517,49.27,100669.99,1.196126
33613052,54.423855,49.26,100673.0,1.1961617
33624016,54.34194,49.26,100674.0,1.1961737
33635143,54.25739,49.26,100675.0,1.1961856
33657016,54.090923,49.27,100676.99,1.1962092
33668016,54.34194,49.27,100674.0,1.1961737
33679031,54.423855,49.27,100673.0,1.1961617
33700016,54.090923,49.26,100676.99,1.1962092
33711322,54.50841,49.26,100672.0,1.19615
33722142,54.34194,49.26,100674.0,1.1961737
33744105,54.00637,49.26,100678.0,1.1962212
33754321,54.592964,49.26,100671.0,1.196138
33764091,54.75943,49.26,100669.0,1.1961143
33786175,54.25739,49.27,100675.0,1.1961856
33797499,54.34194,49.27,100674.0,1.1961737
33808021,54.75943,49.27,100669.0,1.1961143
33829542,54.592964,49.27,100671.0,1.196138
33840016,54.423855,49.27,100673.0,1.1961617
33851016,54.25739,49.27,100675.0,1.1961856
33872322,54.090923,49.27,100676.99,1.1962092
33882646,54.090923,49.27,100676.99,1.1962092
33893554,54.175476,49.27,100675.99,1.1961973
33915016,54.175476,49.27,100675.99,1.1961973
33926019,54.34194,49.27,100674.0,1.1961737
33937716,54.592964,49.27,100671.0,1.196138
33959016,54.175476,49.27,100675.99,1.1961973
33970481,54.423855,49.27,100673.0,1.1961617
33981630,54.50841,49.27,100672.0,1.19615
34003104,54.090923,49.26,100676.99,1.1962092
34014028,54.423855,49.26,100673.0,1.1961617
34026015,54.50841,49.26,100672.0,1.19615
34048028,54.423855,49.27,100673.0,1.1961617
34059021,54.843983,49.27,100668.0,1.1961024
34069619,54.75943,49.27,100669.0,1.1961143
34090017,54.50841,49.27,100672.0,1.19615
34101988,54.090923,49.27,100676.99,1.1962092
34112020,54.50841,49.27,100672.0,1.19615
34133573,55.010452,49.26,100666.0,1.1960787
34144360,54.423855,49.26,100673.0,1.1961617
34154145,54.50841,49.26,100672.0,1.19615
34176028,54.090923,49.27,100676.99,1.1962092
34186393,54.50841,49.27,100672.0,1.19615
34197610,54.34194,49.27,100674.0,1.1961737
34219019,54.50841,49.27,100672.0,1.19615
34229611,54.34194,49.27,100674.0,1.1961737
34240323,54.592964,49.27,100671.0,1.196138
34261533,54.677517,49.27,100669.99,1.196126
34271114,54.50841,49.27,100672.0,1.19615
34282556,54.423855,49.27,100673.0,1.1961617
34303016,54.34194,49.27,100674.0,1.1961737
34314016,54.25739,49.27,100675.0,1.1961856
34325020,54.423855,49.27,100673.0,1.1961617
34347369,54.25739,49.27,100675.0,1.1961856
34357020,54.090923,49.27,100676.99,1.1962092
34369023,54.75943,49.27,100669.0,1.1961143
34391113,54.34194,49.27,100674.0,1.1961737
34401948,54.34194,49.27,100674.0,1.1961737
34412659,54.592964,49.27,100671.0,1.196138
34433713,53.83726,49.27,100680.0,1.196245
34444598,54.50841,49.27,100672.0,1.19615
34455016,54.423855,49.27,100673.0,1.1961617
34477016,54.090923,49.27,100676.99,1.1962092
34487079,54.843983,49.27,100668.0,1.1961024
34498027,54.090923,49.27,100676.99,1.1962092
34519322,54.25739,49.27,100675.0,1.1961856
34529920,54.423855,49.27,100673.0,1.1961617
34539016,54.090923,49.27,100676.99,1.1962092
34560970,54.592964,49.28,100671.0,1.196138
34570031,54.50841,49.28,100672.0,1.19615
34580662,54.25739,49.28,100675.0,1.1961856
34601451,54.25739,49.28,100675.0,1.1961856
34612568,54.34194,49.28,100674.0,1.1961737
34623016,54.00637,49.28,100678.0,1.1962212
34644730,54.50841,49.28,100672.0,1.19615
34655021,54.34194,49.28,100674.0,1.1961737
34665587,54.423855,49.28,100673.0,1.1961617
34686020,54.34194,49.28,100674.0,1.1961737
34697765,53.83726,49.28,100680.0,1.196245
34708731,54.34194,49.28,100674.0,1.1961737
34729965,54.25739,49.28,100675.0,1.1961856
34740583,54.423855,49.28,100673.0,1.1961617
34751326,54.25739,49.28,100675.0,1.1961856
34772702,54.34194,49.28,100674.0,1.1961737
34782025,54.592964,49.28,100671.0,1.196138
34794201,54.090923,49.28,100676.99,1.1962092
34815019,54.34194,49.28,100674.0,1.1961737
34825605,54.423855,49.28,100673.0,1.1961617
34836750,54.175476,49.28,100675.99,1.1961973
34858016,54.175476,49.28,100675.99,1.1961973
34869016,54.175476,49.28,100675.99,1.1961973
34879016,54.25739,49.28,100675.0,1.1961856
34900588,54.34194,49.28,100674.0,1.1961737
34911322,54.34194,49.28,100674.0,1.1961737
34921894,54.50841,49.28,100672.0,1.19615
34943134,54.00637,49.28,100678.0,1.1962212
34953030,54.592964,49.28,100671.0,1.196138
34964018,53.921814,49.28,100679.0,1.196233
34986042,54.090923,49.28,100676.99,1.1962092
34997019,54.175476,49.28,100675.99,1.1961973
35008149,54.50841,49.28,100672.0,1.19615
35030016,54.423855,49.28,100673.0,1.1961617
35041057,54.592964,49.28,100671.0,1.196138
35052059,54.090923,49.28,100676.99,1.1962092
35073090,54.592964,49.28,100671.0,1.196138
35084022,54.34194,49.28,100674.0,1.1961737
35095021,54.592964,49.28,100671.0,1.196138
35117016,54.50841,49.28,100672.0,1.19615
35128122,54.25739,49.28,100675.0,1.1961856
35140003,54.677517,49.28,100669.99,1.196126
35162047,54.00637,49.28,100678.0,1.1962212
35173016,54.34194,49.28,100674.0,1.1961737
35184820,54.25739,49.28,100675.0,1.1961856
35206016,54.423855,49.28,100673.0,1.1961617
35216316,54.677517,49.28,100669.99,1.196126
35227781,54.423855,49.28,100673.0,1.1961617
35249024,54.423855,49.28,100673.0,1.1961617
35260019,54.423855,49.28,100673.0,1.1961617
35271016,54.423855,49.28,100673.0,1.1961617
35293059,54.423855,49.28,100673.0,1.1961617
35304208,54.423855,49.28,100673.0,1.1961617
35315369,54.592964,49.28,100671.0,1.196138
35337016,54.34194,49.28,100674.0,1.1961737
35348029,53.921814,49.28,100679.0,1.196233
35359499,54.25739,49.28,100675.0,1.1961856
35380058,54.090923,49.28,100676.99,1.1962092
35390019,54.34194,49.28,100674.0,1.1961737
35401057,54.34194,49.28,100674.0,1.1961737
35422117,54.090923,49.28,100676.99,1.1962092
35433800,54.75943,49.28,100669.0,1.1961143
35444016,54.592964,49.28,100671.0,1.196138
35466019,54.677517,49.28,100669.99,1.196126
35477021,54.50841,49.28,100672.0,1.19615
35488016,54.50841,49.28,100672.0,1.19615
35510016,54.843983,49.28,100668.0,1.1961024
35521016,54.423855,49.28,100673.0,1.1961617
35532016,54.25739,49.28,100675.0,1.1961856
35553040,54.090923,49.28,100676.99,1.1962092
35563279,53.670795,49.28,100682.0,1.1962687
35576088,54.592964,49.28,100671.0,1.196138
35597322,54.677517,49.28,100669.99,1.196126
35607646,54.00637,49.28,100678.0,1.1962212
35619013,54.50841,49.28,100672.0,1.19615
35641355,54.50841,49.28,100672.0,1.19615
35651151,54.25739,49.28,100675.0,1.1961856
35663533,54.50841,49.28,100672.0,1.19615
35684016,54.34194,49.28,100674.0,1.1961737
35695426,54.34194,49.28,100674.0,1.1961737
35706053,54.00637,49.28,100678.0,1.1962212
35728016,54.090923,49.28,100676.99,1.1962092
35739099,54.34194,49.28,100674.0,1.1961737
35750133,54.34194,49.28,100674.0,1.1961737
35771165,54.592964,49.28,100671.0,1.196138
35782020,54.843983,49.28,100668.0,1.1961024
35792057,54.592964,49.28,100671.0,1.196138
35813057,54.175476,49.289997,100675.99,1.1961973
35824112,54.175476,49.289997,100675.99,1.1961973
35834184,54.175476,49.289997,100675.99,1.1961973
35855767,53.921814,49.28,100679.0,1.196233
35867220,54.592964,49.28,100671.0,1.196138
35878048,54.50841,49.28,100672.0,1.19615
35899262,54.423855,49.289997,100673.0,1.1961617
35910045,54.677517,49.289997,100669.99,1.196126
35921048,54.175476,49.289997,100675.99,1.1961973
35943521,54.34194,49.289997,100674.0,1.1961737
35954169,54.592964,49.289997,100671.0,1.196138
35965079,54.25739,49.289997,100675.0,1.1961856
35986452,53.75535,49.28,100681.0,1.1962569
35997089,54.25739,49.28,100675.0,1.1961856
36007165,54.423855,49.28,100673.0,1.1961617
36029045,54.677517,49.28,100669.99,1.196126
36040108,54.423855,49.28,100673.0,1.1961617
36051121,54.50841,49.28,100672.0,1.19615
36073045,54.592964,49.28,100671.0,1.196138
36084045,54.175476,49.28,100675.99,1.1961973
36095116,54.423855,49.28,100673.0,1.1961617
36117407,54.090923,49.28,100676.99,1.1962092
36128045,54.925896,49.28,100667.0,1.1960905
36139396,55.095005,49.28,100665.0,1.1960667
36161372,54.175476,49.289997,100675.99,1.1961973
36172045,54.423855,49.289997,100673.0,1.1961617
36183506,54.175476,49.289997,100675.99,1.1961973
36205755,54.50841,49.28,100672.0,1.19615
36216090,54.50841,49.28,100672.0,1.19615
36227444,54.677517,49.28,100669.99,1.196126
36248357,54.423855,49.289997,100673.0,1.1961617
36258376,54.34194,49.289997,100674.0,1.1961737
36269413,54.50841,49.289997,100672.0,1.19615
36290232,54.25739,49.28,100675.0,1.1961856
36300045,54.592964,49.28,100671.0,1.196138
36311116,54.677517,49.28,100669.99,1.196126
36333045,54.00637,49.289997,100678.0,1.1962212
36343518,54.25739,49.289997,100675.0,1.1961856
36354323,54.592964,49.289997,100671.0,1.196138
36375121,54.090923,49.289997,100676.99,1.1962092
36386314,54.50841,49.289997,100672.0,1.19615
36396045,54.50841,49.289997,100672.0,1.19615
36418348,54.34194,49.289997,100674.0,1.1961737
36429385,54.423855,49.289997,100673.0,1.1961617
36439162,54.34194,49.289997,100674.0,1.1961737
36461075,54.175476,49.289997,100675.99,1.1961973
36472045,54.843983,49.289997,100668.0,1.1961024
36483118,54.592964,49.289997,100671.0,1.196138
36504045,54.25739,49.289997,100675.0,1.1961856
36514339,54.175476,49.289997,100675.99,1.1961973
36525047,54.175476,49.289997,100675.99,1.1961973
36546175,54.25739,49.289997,100675.0,1.1961856
36556045,54.50841,49.289997,100672.0,1.19615
36566372,54.50841,49.289997,100672.0,1.19615
36587128,54.423855,49.289997,100673.0,1.1961617
36598464,54.50841,49.289997,100672.0,1.19615
36609571,54.677517,49.289997,100669.99,1.196126
36631124,54.34194,49.289997,100674.0,1.1961737
36642176,54.25739,49.289997,100675.0,1.1961856
36653948,54.592964,49.289997,100671.0,1.196138
36674175,54.175476,49.289997,100675.99,1.1961973
36686666,54.00637,49.289997,100678.0,1.1962212
36697511,54.592964,49.289997,100671.0,1.196138
36719136,54.677517,49.289997,100669.99,1.196126
36730053,54.592964,49.289997,100671.0,1.196138
36740052,54.423855,49.289997,100673.0,1.1961617
36761610,54.00637,49.289997,100678.0,1.1962212
36772350,54.25739,49.289997,100675.0,1.1961856
36782443,54.423855,49.289997,100673.0,1.1961617
36803128,54.34194,49.289997,100674.0,1.1961737
36814136,54.50841,49.289997,100672.0,1.19615
36825413,54.50841,49.289997,100672.0,1.19615
36847154,54.34194,49.3,100674.0,1.1961737
36857496,54.25739,49.3,100675.0,1.1961856
36868133,54.677517,49.3,100669.99,1.196126
36889627,54.175476,49.289997,100675.99,1.1961973
36900099,54.175476,49.289997,100675.99,1.1961973
36910694,54.175476,49.289997,100675.99,1.1961973
36932350,54.175476,49.3,100675.99,1.1961973
36943129,54.423855,49.3,100673.0,1.1961617
36953543,54.592964,49.3,100671.0,1.196138
36974494,54.34194,49.3,100674.0,1.1961737
36985534,54.25739,49.3,100675.0,1.1961856
36996057,54.592964,49.3,100671.0,1.196138
37017544,54.75943,49.3,100669.0,1.1961143
37028087,53.75535,49.3,100681.0,1.1962569
37039120,54.677517,49.3,100669.99,1.196126
37060048,54.592964,49.3,100671.0,1.196138
37071125,54.677517,49.3,100669.99,1.196126
37082045,54.34194,49.3,100674.0,1.1961737
37104901,54.423855,49.289997,100673.0,1.1961617
37115149,54.50841,49.289997,100672.0,1.19615
37125124,54.25739,49.289997,100675.0,1.1961856
37147097,54.34194,49.3,100674.0,1.1961737
37157895,54.175476,49.3,100675.99,1.1961973
37167164,54.25739,49.3,100675.0,1.1961856
37189676,54.25739,49.3,100675.0,1.1961856
37200703,54.34194,49.3,100674.0,1.1961737
37211095,54.50841,49.3,100672.0,1.19615
37233045,54.00637,49.3,100678.0,1.1962212
37243108,54.34194,49.3,100674.0,1.1961737
37254052,54.843983,49.3,100668.0,1.1961024
37275480,54.175476,49.3,100675.99,1.1961973
37285966,54.423855,49.3,100673.0,1.1961617
37296746,54.34194,49.3,100674.0,1.1961737
37318045,54.50841,49.3,100672.0,1.19615
37329092,54.34194,49.3,100674.0,1.1961737
37339133,54.34194,49.3,100674.0,1.1961737
37360629,54.677517,49.3,100669.99,1.196126
37371375,54.175476,49.3,100675.99,1.1961973
37381191,54.75943,49.3,100669.0,1.1961143
37403096,54.090923,49.3,100676.99,1.1962092
37413657,54.423855,49.3,100673.0,1.1961617
37424762,54.00637,49.3,100678.0,1.1962212
37445523,54.175476,49.3,100675.99,1.1961973
37456714,54.34194,49.3,100674.0,1.1961737
37467453,54.25739,49.3,100675.0,1.1961856
37488698,54.25739,49.3,100675.0,1.1961856
37498165,54.34194,49.3,100674.0,1.1961737
37509152,54.423855,49.3,100673.0,1.1961617
37531144,54.423855,49.3,100673.0,1.1961617
37541149,54.175476,49.3,100675.99,1.1961973
37552887,54.175476,49.3,100675.99,1.1961973
37573705,54.25739,49.3,100675.0,1.1961856
37584775,54.25739,49.3,100675.0,1.1961856
37594173,54.592964,49.3,100671.0,1.196138
37615175,53.921814,49.309998,100679.0,1.196233
37625184,54.00637,49.309998,100678.0,1.1962212
37637186,54.175476,49.309998,100675.99,1.1961973
37659131,54.175476,49.3,100675.99,1.1961973
37669996,54.175476,49.3,100675.99,1.1961973
37680051,54.34194,49.3,100674.0,1.1961737
37700616,54.090923,49.3,100676.99,1.1962092
37711390,54.25739,49.3,100675.0,1.1961856
37722045,54.25739,49.3,100675.0,1.1961856
37744046,54.175476,49.309998,100675.99,1.1961973
37755048,54.00637,49.309998,100678.0,1.1962212
37766040,54.925896,49.309998,100667.0,1.1960905
37787348,54.25739,49.309998,100675.0,1.1961856
37798045,54.50841,49.309998,100672.0,1.19615
37808042,54.25739,49.309998,100675.0,1.1961856
37829131,54.677517,49.3,100669.99,1.196126
37840102,54.25739,49.3,100675.0,1.1961856
37853198,54.423855,49.3,100673.0,1.1961617
37876910,54.50841,49.3,100672.0,1.19615
37886128,54.50841,49.3,100672.0,1.19615
37897386,54.592964,49.3,100671.0,1.196138
37919990,54.34194,49.3,100674.0,1.1961737
37930048,54.34194,49.3,100674.0,1.1961737
37940563,54.175476,49.3,100675.99,1.1961973
37961045,54.50841,49.3,100672.0,1.19615
37971387,54.25739,49.3,100675.0,1.1961856
37982045,54.50841,49.3,100672.0,1.19615
38003410,54.175476,49.3,100675.99,1.1961973
38014049,54.843983,49.3,100668.0,1.1961024
38024102,54.592964,49.3,100671.0,1.196138
38046299,54.34194,49.309998,100674.0,1.1961737
38057049,54.677517,49.309998,100669.99,1.196126
38069394,54.175476,49.309998,100675.99,1.1961973
38091494,54.50841,49.309998,100672.0,1.19615
38102045,54.34194,49.309998,100674.0,1.1961737
38113039,54.50841,49.309998,100672.0,1.19615
38135403,54.592964,49.3,100671.0,1.196138
38146136,54.50841,49.3,100672.0,1.19615
38157081,55.095005,49.3,100665.0,1.1960667
38179447,54.75943,49.3,100669.0,1.1961143
38190077,54.423855,49.3,100673.0,1.1961617
38201040,54.843983,49.3,100668.0,1.1961024
38223194,54.25739,49.3,100675.0,1.1961856
38233131,54.00637,49.3,100678.0,1.1962212
38243146,53.670795,49.3,100682.0,1.1962687
38265379,54.090923,49.3,100676.99,1.1962092
38276216,54.34194,49.3,100674.0,1.1961737
38288408,54.50841,49.3,100672.0,1.19615
38311992,54.090923,49.309998,100676.99,1.1962092
38322049,54.25739,49.309998,100675.0,1.1961856
38333381,54.423855,49.309998,100673.0,1.1961617
38355506,54.00637,49.309998,100678.0,1.1962212
38366048,54.00637,49.309998,100678.0,1.1962212
38377412,54.175476,49.309998,100675.99,1.1961973
38399543,54.175476,49.3,100675.99,1.1961973
38409131,54.677517,49.3,100669.99,1.196126
38419272,54.423855,49.3,100673.0,1.1961617
38440093,54.592964,49.309998,100671.0,1.196138
38451196,54.175476,49.309998,100675.99,1.1961973
38461088,54.175476,49.309998,100675.99,1.1961973
38483068,54.00637,49.309998,100678.0,1.1962212
38494016,54.50841,49.309998,100672.0,1.19615
38505016,54.25739,49.309998,100675.0,1.1961856
38526031,54.423855,49.309998,100673.0,1.1961617
38537343,54.50841,49.309998,100672.0,1.19615
38548052,54.175476,49.309998,100675.99,1.1961973
38571160,54.677517,49.309998,100669.99,1.196126
38583965,54.34194,49.309998,100674.0,1.1961737
38593016,54.34194,49.309998,100674.0,1.1961737
38614022,54.175476,49.309998,100675.99,1.1961973
38625364,53.921814,49.309998,100679.0,1.196233
38636016,54.34194,49.309998,100674.0,1.1961737
38657117,54.75943,49.309998,100669.0,1.1961143
38667185,54.090923,49.309998,100676.99,1.1962092
38678028,54.592964,49.309998,100671.0,1.196138
38699043,54.175476,49.309998,100675.99,1.1961973
38709100,54.677517,49.309998,100669.99,1.196126
38720016,54.175476,49.309998,100675.99,1.1961973
38741019,54.50841,49.309998,100672.0,1.19615
38752016,54.423855,49.309998,100673.0,1.1961617
38763019,54.50841,49.309998,100672.0,1.19615
38785021,54.175476,49.32,100675.99,1.1961973
38796016,54.34194,49.32,100674.0,1.1961737
38807116,54.090923,49.32,100676.99,1.1962092
38829019,54.34194,49.309998,100674.0,1.1961737
38840031,54.25739,49.309998,100675.0,1.1961856
38852098,54.925896,49.309998,100667.0,1.1960905
38873058,54.34194,49.309998,100674.0,1.1961737
38883903,54.090923,49.309998,100676.99,1.1962092
38894707,54.925896,49.309998,100667.0,1.1960905
38916380,54.34194,49.309998,100674.0,1.1961737
38927189,54.34194,49.309998,100674.0,1.1961737
38938975,54.50841,49.309998,100672.0,1.19615
38959048,54.25739,49.309998,100675.0,1.1961856
38969045,54.423855,49.309998,100673.0,1.1961617
38980064,54.423855,49.309998,100673.0,1.1961617
39001053,54.25739,49.309998,100675.0,1.1961856
39011896,54.423855,49.309998,100673.0,1.1961617
39022359,54.34194,49.309998,100674.0,1.1961737
39044056,54.34194,49.309998,100674.0,1.1961737
39054409,54.50841,49.309998,100672.0,1.19615
39064061,54.25739,49.309998,100675.0,1.1961856
39086378,54.423855,49.309998,100673.0,1.1961617
39097049,54.423855,49.309998,100673.0,1.1961617
39108044,54.75943,49.309998,100669.0,1.1961143
39129056,54.34194,49.32,100674.0,1.1961737
39139254,54.592964,49.32,100671.0,1.196138
39150413,54.75943,49.32,100669.0,1.1961143
39172045,54.50841,49.32,100672.0,1.19615
39183225,54.592964,49.32,100671.0,1.196138
39194690,54.592964,49.32,100671.0,1.196138
39216045,54.50841,49.32,100672.0,1.19615
39227237,54.25739,49.32,100675.0,1.1961856
39238333,54.34194,49.32,100674.0,1.1961737
39259122,54.423855,49.32,100673.0,1.1961617
39270348,54.25739,49.32,100675.0,1.1961856
39281379,54.34194,49.32,100674.0,1.1961737
39302327,54.592964,49.309998,100671.0,1.196138
39312050,54.677517,49.309998,100669.99,1.196126
39323123,54.592964,49.309998,100671.0,1.196138
39344057,54.175476,49.32,100675.99,1.1961973
39354178,54.423855,49.32,100673.0,1.1961617
39365606,54.25739,49.32,100675.0,1.1961856
39386195,54.592964,49.32,100671.0,1.196138
39397412,54.34194,49.32,100674.0,1.1961737
39408045,54.25739,49.32,100675.0,1.1961856
39429649,55.095005,49.309998,100665.0,1.1960667
39440045,54.50841,49.309998,100672.0,1.19615
39450568,54.34194,49.309998,100674.0,1.1961737
39472088,54.677517,49.32,100669.99,1.196126
39482688,54.34194,49.32,100674.0,1.1961737
39493652,54.843983,49.32,100668.0,1.1961024
39514193,54.592964,49.32,100671.0,1.196138
39525398,54.50841,49.32,100672.0,1.19615
39536043,54.25739,49.32,100675.0,1.1961856
39557514,54.925896,49.32,100667.0,1.1960905
39568053,54.423855,49.32,100673.0,1.1961617
39578374,54.25739,49.32,100675.0,1.1961856
39600351,54.34194,49.32,100674.0,1.1961737
39610500,54.34194,49.32,100674.0,1.1961737
39621451,54.34194,49.32,100674.0,1.1961737
39642049,54.592964,49.32,100671.0,1.196138
39653642,54.090923,49.32,100676.99,1.1962092
39664044,54.25739,49.32,100675.0,1.1961856
39685535,54.423855,49.32,100673.0,1.1961617
39696045,54.50841,49.32,100672.0,1.19615
39707116,54.592964,49.32,100671.0,1.196138
39728048,54.925896,49.32,100667.0,1.1960905
39738672,54.677517,49.32,100669.99,1.196126
39749562,54.677517,49.32,100669.99,1.196126
39771048,54.592964,49.32,100671.0,1.196138
39781615,54.423855,49.32,100673.0,1.1961617
39791125,54.50841,49.32,100672.0,1.19615
39813520,54.592964,49.32,100671.0,1.196138
39824104,54.843983,49.32,100668.0,1.1961024
39834192,54.50841,49.32,100672.0,1.19615
39856053,54.677517,49.32,100669.99,1.196126
39866429,54.50841,49.32,100672.0,1.19615
39877536,54.423855,49.32,100673.0,1.1961617
39897554,54.34194,49.32,100674.0,1.1961737
39908763,54.34194,49.32,100674.0,1.1961737
39919407,54.592964,49.32,100671.0,1.196138
39941046,54.25739,49.329998,100675.0,1.1961856
39951141,54.75943,49.329998,100669.0,1.1961143
39962040,54.423855,49.329998,100673.0,1.1961617
39983097,54.34194,49.329998,100674.0,1.1961737
39993978,54.423855,49.329998,100673.0,1.1961617
40004722,54.25739,49.329998,100675.0,1.1961856
40025219,54.34194,49.329998,100674.0,1.1961737
40036701,54.423855,49.329998,100673.0,1.1961617
40047092,54.34194,49.329998,100674.0,1.1961737
40069046,54.50841,49.329998,100672.0,1.19615
40079064,54.677517,49.329998,100669.99,1.196126
40090040,54.175476,49.329998,100675.99,1.1961973
40111351,54.090923,49.32,100676.99,1.1962092
40121915,54.25739,49.32,100675.0,1.1961856
40132770,54.50841,49.32,100672.0,1.19615
40154147,54.34194,49.329998,100674.0,1.1961737
40165084,54.75943,49.329998,100669.0,1.1961143
40175103,54.423855,49.329998,100673.0,1.1961617
40196706,54.423855,49.329998,100673.0,1.1961617
40207518,54.677517,49.329998,100669.99,1.196126
40217041,54.00637,49.329998,100678.0,1.1962212
40239097,54.592964,49.329998,100671.0,1.196138
40250458,54.34194,49.329998,100674.0,1.1961737
40261044,54.090923,49.329998,100676.99,1.1962092
40282075,54.423855,49.329998,100673.0,1.1961617
40292845,54.50841,49.329998,100672.0,1.19615
40303351,54.423855,49.329998,100673.0,1.1961617
40324742,54.25739,49.329998,100675.0,1.1961856
40334045,54.090923,49.329998,100676.99,1.1962092
40345070,54.25739,49.329998,100675.0,1.1961856
40367187,54.50841,49.329998,100672.0,1.19615
40378045,54.50841,49.329998,100672.0,1.19615
40388091,54.423855,49.329998,100673.0,1.1961617
40409254,54.677517,49.329998,100669.99,1.196126
40420065,54.50841,49.329998,100672.0,1.19615
40430224,54.175476,49.329998,100675.99,1.1961973
40451383,54.423855,49.329998,100673.0,1.1961617
40462045,54.25739,49.329998,100675.0,1.1961856
40473040,53.921814,49.329998,100679.0,1.196233
40496048,54.423855,49.329998,100673.0,1.1961617
40507530,54.50841,49.329998,100672.0,1.19615
40518040,54.75943,49.329998,100669.0,1.1961143
40539447,54.25739,49.329998,100675.0,1.1961856
40549393,54.843983,49.329998,100668.0,1.1961024
40560051,54.090923,49.329998,100676.99,1.1962092
40581095,54.423855,49.329998,100673.0,1.1961617
40592382,54.925896,49.329998,100667.0,1.1960905
40603363,54.175476,49.329998,100675.99,1.1961973
40625047,54.423855,49.329998,100673.0,1.1961617
40636755,54.75943,49.329998,100669.0,1.1961143
40647048,54.50841,49.329998,100672.0,1.19615
40669081,54.25739,49.329998,100675.0,1.1961856
40680351,54.25739,49.329998,100675.0,1.1961856
40691040,54.677517,49.329998,100669.99,1.196126
40711894,54.592964,49.329998,100671.0,1.196138
40722045,54.00637,49.329998,100678.0,1.1962212
40732246,54.00637,49.329998,100678.0,1.1962212
40754048,54.25739,49.329998,100675.0,1.1961856
40765048,54.00637,49.329998,100678.0,1.1962212
40776043,54.677517,49.329998,100669.99,1.196126
40798165,54.592964,49.329998,100671.0,1.196138
40808102,54.25739,49.329998,100675.0,1.1961856
40820356,54.592964,49.329998,100671.0,1.196138
40840093,54.50841,49.329998,100672.0,1.19615
40851377,54.677517,49.329998,100669.99,1.196126
40862040,54.423855,49.329998,100673.0,1.1961617
40883491,54.50841,49.329998,100672.0,1.19615
40894167,54.25739,49.329998,100675.0,1.1961856
40905044,54.843983,49.329998,100668.0,1.1961024
40926129,53.921814,49.329998,100679.0,1.196233
40937045,54.25739,49.329998,100675.0,1.1961856
40948881,54.423855,49.329998,100673.0,1.1961617
40970048,54.34194,49.329998,100674.0,1.1961737
40980384,54.592964,49.329998,100671.0,1.196138
40991122,54.925896,49.329998,100667.0,1.1960905
41014045,54.50841,49.329998,100672.0,1.19615
41025377,54.50841,49.329998,100672.0,1.19615
41036040,54.423855,49.329998,100673.0,1.1961617
41056062,54.423855,49.329998,100673.0,1.1961617
41066049,54.677517,49.329998,100669.99,1.196126
41077040,54.592964,49.329998,100671.0,1.196138
41098045,54.423855,49.34,100673.0,1.1961617
41108084,54.423855,49.34,100673.0,1.1961617
41119120,54.677517,49.34,100669.99,1.196126
41141045,54.423855,49.329998,100673.0,1.1961617
41151136,54.592964,49.329998,100671.0,1.196138
41163767,54.75943,49.329998,100669.0,1.1961143
41184046,54.090923,49.329998,100676.99,1.1962092
41196256,54.34194,49.329998,100674.0,1.1961737
41207119,54.592964,49.329998,100671.0,1.196138
41229107,54.090923,49.329998,100676.99,1.1962092
41240050,54.34194,49.329998,100674.0,1.1961737
41250183,54.843983,49.329998,100668.0,1.1961024
41271168,54.75943,49.329998,100669.0,1.1961143
41283488,54.25739,49.329998,100675.0,1.1961856
41293126,54.423855,49.329998,100673.0,1.1961617
41315462,54.50841,49.34,100672.0,1.19615
41326045,54.090923,49.34,100676.99,1.1962092
41337039,54.50841,49.34,100672.0,1.19615
41359121,54.175476,49.34,100675.99,1.1961973
41370114,54.592964,49.34,100671.0,1.196138
41381074,54.677517,49.34,100669.99,1.196126
41403642,54.25739,49.329998,100675.0,1.1961856
41414050,54.843983,49.329998,100668.0,1.1961024
41424045,54.50841,49.329998,100672.0,1.19615
41447174,54.175476,49.34,100675.99,1.1961973
41457098,54.00637,49.34,100678.0,1.1962212
41467372,54.925896,49.34,100667.0,1.1960905
41489396,53.670795,49.34,100682.0,1.1962687
41499314,54.090923,49.34,100676.99,1.1962092
41510297,54.50841,49.34,100672.0,1.19615
41533508,54.843983,49.34,100668.0,1.1961024
41544065,54.423855,49.34,100673.0,1.1961617
41555129,54.423855,49.34,100673.0,1.1961617
41577053,54.175476,49.329998,100675.99,1.1961973
41588056,54.423855,49.329998,100673.0,1.1961617
41599182,54.423855,49.329998,100673.0,1.1961617
41620045,54.677517,49.34,100669.99,1.196126
41630376,54.75943,49.34,100669.0,1.1961143
41641043,54.592964,49.34,100671.0,1.196138
41663163,54.34194,49.34,100674.0,1.1961737
41675211,54.677517,49.34,100669.99,1.196126
41686397,54.25739,49.34,100675.0,1.1961856
41708045,54.34194,49.34,100674.0,1.1961737
41718320,54.00637,49.34,100678.0,1.1962212
41729040,54.34194,49.34,100674.0,1.1961737
41750302,54.592964,49.34,100671.0,1.196138
41761405,54.25739,49.34,100675.0,1.1961856
41772040,54.592964,49.34,100671.0,1.196138
41792045,54.677517,49.34,100669.99,1.196126
41803407,54.090923,49.34,100676.99,1.1962092
41813045,54.50841,49.34,100672.0,1.19615
41835059,54.423855,49.35,100673.0,1.1961617
41846355,54.090923,49.35,100676.99,1.1962092
41857043,54.34194,49.35,100674.0,1.1961737
41879124,54.090923,49.34,100676.99,1.1962092
41889093,54.090923,49.34,100676.99,1.1962092
41900071,54.423855,49.34,100673.0,1.1961617
41921045,54.25739,49.34,100675.0,1.1961856
41931247,54.34194,49.34,100674.0,1.1961737
41942355,54.25739,49.34,100675.0,1.1961856
41963048,54.423855,49.34,100673.0,1.1961617
41973096,54.175476,49.34,100675.99,1.1961973
41984350,54.34194,49.34,100674.0,1.1961737
42006525,54.677517,49.34,100669.99,1.196126
42017050,54.175476,49.34,100675.99,1.1961973
42028352,54.34194,49.34,100674.0,1.1961737
42050692,54.925896,49.34,100667.0,1.1960905
42061529,54.423855,49.34,100673.0,1.1961617
42071128,54.423855,49.34,100673.0,1.1961617
42093581,54.25739,49.34,100675.0,1.1961856
42105115,54.423855,49.34,100673.0,1.1961617
42116100,54.423855,49.34,100673.0,1.1961617
42138372,54.00637,49.35,100678.0,1.1962212
42149661,54.50841,49.35,100672.0,1.19615
42160142,54.50841,49.35,100672.0,1.19615
42181551,54.175476,49.34,100675.99,1.1961973
42192050,53.921814,49.34,100679.0,1.196233
42202180,54.50841,49.34,100672.0,1.19615
42223195,54.592964,49.34,100671.0,1.196138
42234386,54.34194,49.34,100674.0,1.1961737
42245560,55.095005,49.34,100665.0,1.1960667
42267121,54.175476,49.34,100675.99,1.1961973
42277839,54.423855,49.34,100673.0,1.1961617
42288048,54.34194,49.34,100674.0,1.1961737
42308045,54.175476,49.34,100675.99,1.1961973
42319048,54.592964,49.34,100671.0,1.196138
42330048,54.175476,49.34,100675.99,1.1961973
42352045,54.34194,49.35,100674.0,1.1961737
42362573,54.00637,49.35,100678.0,1.1962212
42373588,54.423855,49.35,100673.0,1.1961617
42395132,53.83726,49.35,100680.0,1.196245
42406175,54.34194,49.35,100674.0,1.1961737
42418622,54.423855,49.35,100673.0,1.1961617
42440049,54.090923,49.34,100676.99,1.1962092
42451121,54.423855,49.34,100673.0,1.1961617
42461324,54.75943,49.34,100669.0,1.1961143
42482221,54.25739,49.34,100675.0,1.1961856
42493589,54.25739,49.34,100675.0,1.1961856
42504346,54.50841,49.34,100672.0,1.19615
42525595,54.50841,49.35,100672.0,1.19615
42536056,54.175476,49.35,100675.99,1.1961973
42547116,54.423855,49.35,100673.0,1.1961617
42568045,54.00637,49.35,100678.0,1.1962212
42579045,54.25739,49.35,100675.0,1.1961856
42589689,54.175476,49.35,100675.99,1.1961973
42610174,53.921814,49.34,100679.0,1.196233
42621622,54.677517,49.34,100669.99,1.196126
42631100,54.50841,49.34,100672.0,1.19615
42653601,54.50841,49.35,100672.0,1.19615
42663116,54.925896,49.35,100667.0,1.1960905
42674352,54.34194,49.35,100674.0,1.1961737
42695187,54.34194,49.35,100674.0,1.1961737
42705049,54.423855,49.35,100673.0,1.1961617
42716841,54.34194,49.35,100674.0,1.1961737
42737405,54.34194,49.35,100674.0,1.1961737
42748722,53.921814,49.35,100679.0,1.196233
42759404,54.423855,49.35,100673.0,1.1961617
42780667,54.34194,49.35,100674.0,1.1961737
42791045,54.592964,49.35,100671.0,1.196138
42802056,54.34194,49.35,100674.0,1.1961737
42823050,54.592964,49.35,100671.0,1.196138
42834178,54.677517,49.35,100669.99,1.196126
42844744,54.592964,49.35,100671.0,1.196138
42865058,54.423855,49.35,100673.0,1.1961617
42876781,54.175476,49.35,100675.99,1.1961973
42887104,54.175476,49.35,100675.99,1.1961973
42909058,54.423855,49.35,100673.0,1.1961617
42919101,54.25739,49.35,100675.0,1.1961856
42930040,54.34194,49.35,100674.0,1.1961737
42951350,54.50841,49.35,100672.0,1.19615
42962367,54.25739,49.35,100675.0,1.1961856
42972627,54.75943,49.35,100669.0,1.1961143
42994136,54.50841,49.35,100672.0,1.19615
43005096,54.34194,49.35,100674.0,1.1961737
43015092,54.592964,49.35,100671.0,1.196138
43036600,54.34194,49.35,100674.0,1.1961737
43047468,54.75943,49.35,100669.0,1.1961143
43057690,54.423855,49.35,100673.0,1.1961617
43079127,54.00637,49.35,100678.0,1.1962212
43089097,54.423855,49.35,100673.0,1.1961617
43100741,54.175476,49.35,100675.99,1.1961973
43120867,54.423855,49.35,100673.0,1.1961617
43131499,54.50841,49.35,100672.0,1.19615
43142491,54.423855,49.35,100673.0,1.1961617
43164405,54.00637,49.36,100678.0,1.1962212
43175097,54.00637,49.36,100678.0,1.1962212
43185532,54.677517,49.36,100669.99,1.196126
43207460,54.592964,49.36,100671.0,1.196138
43217746,54.090923,49.36,100676.99,1.1962092
43228712,54.25739,49.36,100675.0,1.1961856
43250292,54.50841,49.36,100672.0,1.19615
43261050,54.090923,49.36,100676.99,1.1962092
43272821,54.423855,49.36,100673.0,1.1961617
43294081,54.423855,49.36,100673.0,1.1961617
43304287,54.423855,49.36,100673.0,1.1961617
43315842,54.592964,49.36,100671.0,1.196138
43337130,54.423855,49.36,100673.0,1.1961617
43348059,54.34194,49.36,100674.0,1.1961737
43359475,54.677517,49.36,100669.99,1.196126
43381045,54.50841,49.35,100672.0,1.19615
43392698,54.175476,49.35,100675.99,1.1961973
43403064,54.090923,49.35,100676.99,1.1962092
43425048,54.34194,49.35,100674.0,1.1961737
43436058,54.423855,49.35,100673.0,1.1961617
43447475,54.25739,49.35,100675.0,1.1961856
43469045,54.175476,49.35,100675.99,1.1961973
43480740,54.75943,49.35,100669.0,1.1961143
43491349,54.592964,49.35,100671.0,1.196138
43513047,54.50841,49.35,100672.0,1.19615
43524048,54.423855,49.35,100673.0,1.1961617
43535400,54.25739,49.35,100675.0,1.1961856
43557045,54.34194,49.35,100674.0,1.1961737
43568589,54.423855,49.35,100673.0,1.1961617
43579054,54.175476,49.35,100675.99,1.1961973
43601077,54.50841,49.36,100672.0,1.19615
43612354,54.677517,49.36,100669.99,1.196126
43623464,54.423855,49.36,100673.0,1.1961617
43644109,54.25739,49.35,100675.0,1.1961856
43656233,54.175476,49.35,100675.99,1.1961973
43667340,54.50841,49.35,100672.0,1.19615
43689045,54.34194,49.35,100674.0,1.1961737
43700560,54.25739,49.35,100675.0,1.1961856
43711370,54.175476,49.35,100675.99,1.1961973
43733048,54.00637,49.36,100678.0,1.1962212
43744400,54.75943,49.36,100669.0,1.1961143
43755152,54.423855,49.36,100673.0,1.1961617
43778045,54.175476,49.35,100675.99,1.1961973
43789475,54.34194,49.35,100674.0,1.1961737
43800286,54.423855,49.35,100673.0,1.1961617
43822045,54.175476,49.35,100675.99,1.1961973
43833384,54.592964,49.35,100671.0,1.196138
43844049,54.592964,49.35,100671.0,1.196138
43866048,54.34194,49.35,100674.0,1.1961737
43877391,54.175476,49.35,100675.99,1.1961973
43888286,54.175476,49.35,100675.99,1.1961973
43910153,54.175476,49.35,100675.99,1.1961973
43921372,54.677517,49.35,100669.99,1.196126
43932040,54.175476,49.35,100675.99,1.1961973
43952044,54.75943,49.35,100669.0,1.1961143
43963138,54.25739,49.35,100675.0,1.1961856
43974040,54.423855,49.35,100673.0,1.1961617
43995150,54.423855,49.35,100673.0,1.1961617
44006054,54.34194,49.35,100674.0,1.1961737
44016040,54.34194,49.35,100674.0,1.1961737
44038050,54.50841,49.36,100672.0,1.19615
44048122,54.843983,49.36,100668.0,1.1961024
44059253,54.843983,49.36,100668.0,1.1961024
44080048,54.25739,49.36,100675.0,1.1961856
44091175,54.50841,49.36,100672.0,1.19615
44102040,54.25739,49.36,100675.0,1.1961856
44123173,54.677517,49.36,100669.99,1.196126
44134164,54.677517,49.36,100669.99,1.196126
44145363,54.50841,49.36,100672.0,1.19615
44168011,54.423855,49.36,100673.0,1.1961617
44179269,54.090923,49.36,100676.99,1.1962092
44191970,54.25739,49.36,100675.0,1.1961856
44213379,54.423855,49.35,100673.0,1.1961617
44224045,54.843983,49.35,100668.0,1.1961024
44235480,54.677517,49.35,100669.99,1.196126
44256351,54.592964,49.36,100671.0,1.196138
44267431,54.423855,49.36,100673.0,1.1961617
44278692,54.090923,49.36,100676.99,1.1962092
44300400,54.423855,49.36,100673.0,1.1961617
44311148,54.423855,49.36,100673.0,1.1961617
44323240,54.090923,49.36,100676.99,1.1962092
44345378,54.592964,49.36,100671.0,1.196138
44355229,54.75943,49.36,100669.0,1.1961143
44366414,54.677517,49.36,100669.99,1.196126
44388045,54.843983,49.36,100668.0,1.1961024
44398326,54.843983,49.36,100668.0,1.1961024
44409045,54.592964,49.36,100671.0,1.196138
44430344,54.50841,49.36,100672.0,1.19615
44441045,54.175476,49.36,100675.99,1.1961973
44451157,54.50841,49.36,100672.0,1.19615
44472058,54.175476,49.36,100675.99,1.1961973
44483506,54.25739,49.36,100675.0,1.1961856
44494348,54.50841,49.36,100672.0,1.19615
44516048,54.50841,49.36,100672.0,1.19615
44527168,54.592964,49.36,100671.0,1.196138
44538823,54.50841,49.36,100672.0,1.19615
44560045,54.34194,49.36,100674.0,1.1961737
44571529,54.423855,49.36,100673.0,1.1961617
44582205,54.50841,49.36,100672.0,1.19615
44604045,54.175476,49.36,100675.99,1.1961973
44614728,54.423855,49.36,100673.0,1.1961617
44625040,54.175476,49.36,100675.99,1.1961973
44645045,54.592964,49.36,100671.0,1.196138
44656044,54.677517,49.36,100669.99,1.196126
44667161,54.592964,49.36,100671.0,1.196138
44689050,54.423855,49.36,100673.0,1.1961617
44699132,54.677517,49.36,100669.99,1.196126
44710324,54.34194,49.36,100674.0,1.1961737
44732045,54.50841,49.36,100672.0,1.19615
44743157,54.843983,49.36,100668.0,1.1961024
44754696,54.50841,49.36,100672.0,1.19615
44776048,54.50841,49.36,100672.0,1.19615
44787409,55.010452,49.36,100666.0,1.1960787
44798206,54.75943,49.36,100669.0,1.1961143
44820045,54.175476,49.37,100675.99,1.1961973
44830383,54.50841,49.37,100672.0,1.19615
44842380,54.423855,49.37,100673.0,1.1961617
44864358,54.090923,49.37,100676.99,1.1962092
44874112,54.34194,49.37,100674.0,1.1961737
44885561,54.677517,49.37,100669.99,1.196126
44906050,54.75943,49.37,100669.0,1.1961143
44917569,54.592964,49.37,100671.0,1.196138
44928040,54.592964,49.37,100671.0,1.196138
44950140,54.75943,49.37,100669.0,1.1961143
44960093,54.50841,49.37,100672.0,1.19615
44971146,54.75943,49.37,100669.0,1.1961143
44992064,54.175476,49.37,100675.99,1.1961973
45002400,54.75943,49.37,100669.0,1.1961143
45013551,54.843983,49.37,100668.0,1.1961024
45035157,54.50841,49.37,100672.0,1.19615
45045784,54.34194,49.37,100674.0,1.1961737
45056054,54.592964,49.37,100671.0,1.196138
45076045,54.50841,49.37,100672.0,1.19615
45087126,54.00637,49.37,100678.0,1.1962212
45098047,54.25739,49.37,100675.0,1.1961856
45120060,54.175476,49.37,100675.99,1.1961973
45130538,53.83726,49.37,100680.0,1.196245
45141509,54.592964,49.37,100671.0,1.196138
45163196,54.843983,49.36,100668.0,1.1961024
45174158,54.843983,49.36,100668.0,1.1961024
45185832,54.925896,49.36,100667.0,1.1960905
45207121,54.34194,49.37,100674.0,1.1961737
45218727,54.34194,49.37,100674.0,1.1961737
45229569,54.34194,49.37,100674.0,1.1961737
45251124,54.50841,49.37,100672.0,1.19615
45261540,55.010452,49.37,100666.0,1.1960787
45272366,54.592964,49.37,100671.0,1.196138
45293584,54.423855,49.37,100673.0,1.1961617
45304045,54.50841,49.37,100672.0,1.19615
45314131,54.34194,49.37,100674.0,1.1961737
45336050,54.34194,49.37,100674.0,1.1961737
45347232,54.925896,49.37,100667.0,1.1960905
45358050,54.677517,49.37,100669.99,1.196126
45380059,54.50841,49.37,100672.0,1.19615
45391117,54.50841,49.37,100672.0,1.19615
45402159,54.090923,49.37,100676.99,1.1962092
45424058,54.423855,49.37,100673.0,1.1961617
45435147,54.75943,49.37,100669.0,1.1961143
45446128,54.00637,49.37,100678.0,1.1962212
45468577,54.34194,49.37,100674.0,1.1961737
45479476,54.423855,49.37,100673.0,1.1961617
45489291,54.423855,49.37,100673.0,1.1961617
45511145,54.677517,49.37,100669.99,1.196126
45521191,54.423855,49.37,100673.0,1.1961617
45532920,55.010452,49.37,100666.0,1.1960787
45553164,54.50841,49.37,100672.0,1.19615
45564739,54.423855,49.37,100673.0,1.1961617
45575091,54.175476,49.37,100675.99,1.1961973
45597061,54.592964,49.37,100671.0,1.196138
45609061,54.423855,49.37,100673.0,1.1961617
45620709,54.592964,49.37,100671.0,1.196138
45641718,54.843983,49.37,100668.0,1.1961024
45651145,54.00637,49.37,100678.0,1.1962212
45662040,54.50841,49.37,100672.0,1.19615
45685045,55.010452,49.37,100666.0,1.1960787
45695150,54.34194,49.37,100674.0,1.1961737
45705094,54.592964,49.37,100671.0,1.196138
45727097,54.50841,49.37,100672.0,1.19615
45737994,54.175476,49.37,100675.99,1.1961973
45748775,54.677517,49.37,100669.99,1.196126
45769346,54.592964,49.37,100671.0,1.196138
45780782,54.592964,49.37,100671.0,1.196138
45791143,54.090923,49.37,100676.99,1.1962092
45813048,54.423855,49.37,100673.0,1.1961617
45823097,54.423855,49.37,100673.0,1.1961617
45834056,54.423855,49.37,100673.0,1.1961617
45855367,54.50841,49.379997,100672.0,1.19615
45866048,54.25739,49.379997,100675.0,1.1961856
45876705,54.175476,49.379997,100675.99,1.1961973
45897068,54.25739,49.379997,100675.0,1.1961856
45908045,54.50841,49.379997,100672.0,1.19615
45920836,54.25739,49.379997,100675.0,1.1961856
45942045,54.34194,49.37,100674.0,1.1961737
45952828,54.592964,49.37,100671.0,1.196138
45962040,54.592964,49.37,100671.0,1.196138
45983378,54.423855,49.379997,100673.0,1.1961617
45993126,54.592964,49.379997,100671.0,1.196138
46004044,54.592964,49.379997,100671.0,1.196138
46025045,54.677517,49.379997,100669.99,1.196126
46036386,54.592964,49.379997,100671.0,1.196138
46047414,54.423855,49.379997,100673.0,1.1961617
46069093,54.592964,49.379997,100671.0,1.196138
46080589,54.34194,49.379997,100674.0,1.1961737
46091468,55.010452,49.379997,100666.0,1.1960787
46112831,54.592964,49.379997,100671.0,1.196138
46122046,54.75943,49.379997,100669.0,1.1961143
46133040,54.090923,49.379997,100676.99,1.1962092
46155049,54.25739,49.379997,100675.0,1.1961856
46166045,54.34194,49.379997,100674.0,1.1961737
46177040,54.75943,49.379997,100669.0,1.1961143
46199534,54.25739,49.37,100675.0,1.1961856
46210048,54.423855,49.37,100673.0,1.1961617
46221040,54.175476,49.37,100675.99,1.1961973
46242045,54.423855,49.379997,100673.0,1.1961617
46252046,54.592964,49.379997,100671.0,1.196138
46262046,54.175476,49.379997,100675.99,1.1961973
46283408,54.090923,49.379997,100676.99,1.1962092
46294050,54.50841,49.379997,100672.0,1.19615
46305043,54.592964,49.379997,100671.0,1.196138
46327382,54.25739,49.379997,100675.0,1.1961856
46338192,54.423855,49.379997,100673.0,1.1961617
46349040,54.592964,49.379997,100671.0,1.196138
46370045,53.921814,49.379997,100679.0,1.196233
46380096,54.677517,49.379997,100669.99,1.196126
46391048,54.677517,49.379997,100669.99,1.196126
46412056,54.677517,49.379997,100669.99,1.196126
46425521,54.843983,49.379997,100668.0,1.1961024
46435043,54.34194,49.379997,100674.0,1.1961737
46456366,54.25739,49.379997,100675.0,1.1961856
46467188,54.75943,49.379997,100669.0,1.1961143
46478040,54.423855,49.379997,100673.0,1.1961617
46500045,54.34194,49.379997,100674.0,1.1961737
46511453,54.175476,49.379997,100675.99,1.1961973
46522050,54.00637,49.379997,100678.0,1.1962212
46544114,54.25739,49.379997,100675.0,1.1961856
46555123,54.34194,49.379997,100674.0,1.1961737
46565092,54.677517,49.379997,100669.99,1.196126
46587186,54.677517,49.379997,100669.99,1.196126
46598045,54.50841,49.379997,100672.0,1.19615
46609084,54.50841,49.379997,100672.0,1.19615
46631466,54.34194,49.379997,100674.0,1.1961737
46642045,54.175476,49.379997,100675.99,1.1961973
46653346,54.75943,49.379997,100669.0,1.1961143
46675467,54.592964,49.37,100671.0,1.196138
46686045,54.592964,49.37,100671.0,1.196138
46696618,54.34194,49.37,100674.0,1.1961737
46718045,54.75943,49.379997,100669.0,1.1961143
46729048,54.423855,49.379997,100673.0,1.1961617
46740040,54.25739,49.379997,100675.0,1.1961856
46761045,54.34194,49.379997,100674.0,1.1961737
46771189,54.00637,49.379997,100678.0,1.1962212
46782040,54.34194,49.379997,100674.0,1.1961737
46803129,54.25739,49.379997,100675.0,1.1961856
46815636,54.423855,49.379997,100673.0,1.1961617
46826043,54.592964,49.379997,100671.0,1.196138
46848048,54.175476,49.39,100675.99,1.1961973
46859476,54.50841,49.39,100672.0,1.19615
46870084,54.423855,49.39,100673.0,1.1961617
46891144,54.34194,49.379997,100674.0,1.1961737
46903518,54.50841,49.379997,100672.0,1.19615
46914161,54.34194,49.379997,100674.0,1.1961737
46935937,54.25739,49.379997,100675.0,1.1961856
46947119,54.34194,49.379997,100674.0,1.1961737
46958584,54.423855,49.379997,100673.0,1.1961617
46979121,54.25739,49.379997,100675.0,1.1961856
46991179,54.25739,49.379997,100675.0,1.1961856
47002043,54.50841,49.379997,100672.0,1.19615
47023218,54.423855,49.379997,100673.0,1.1961617
47034045,54.175476,49.379997,100675.99,1.1961973
47045040,54.175476,49.379997,100675.99,1.1961973
47066310,54.090923,49.379997,100676.99,1.1962092
47077050,54.592964,49.379997,100671.0,1.196138
47088040,54.34194,49.379997,100674.0,1.1961737
47109418,54.50841,49.379997,100672.0,1.19615
47119202,54.677517,49.379997,100669.99,1.196126
47130211,54.75943,49.379997,100669.0,1.1961143
47152058,54.00637,49.379997,100678.0,1.1962212
47162372,54.34194,49.379997,100674.0,1.1961737
47173040,54.25739,49.379997,100675.0,1.1961856
47194465,54.34194,49.39,100674.0,1.1961737
47205433,54.677517,49.39,100669.99,1.196126
47215852,54.50841,49.39,100672.0,1.19615
47237048,54.50841,49.39,100672.0,1.19615
47248045,54.25739,49.39,100675.0,1.1961856
47259134,54.843983,49.39,100668.0,1.1961024
47282373,54.423855,49.39,100673.0,1.1961617
47293049,54.25739,49.39,100675.0,1.1961856
47304081,54.592964,49.39,100671.0,1.196138
47326721,54.677517,49.39,100669.99,1.196126
47337045,54.423855,49.39,100673.0,1.1961617
47348125,54.843983,49.39,100668.0,1.1961024
47370328,54.175476,49.39,100675.99,1.1961973
47381045,54.00637,49.39,100678.0,1.1962212
47392040,54.50841,49.39,100672.0,1.19615
47413351,54.677517,49.379997,100669.99,1.196126
47424049,54.592964,49.379997,100671.0,1.196138
47435451,54.50841,49.379997,100672.0,1.19615
47456381,54.677517,49.39,100669.99,1.196126
47467149,54.25739,49.39,100675.0,1.1961856
47479151,54.25739,49.39,100675.0,1.1961856
47501423,54.34194,49.39,100674.0,1.1961737
47511126,54.592964,49.39,100671.0,1.196138
47522182,55.010452,49.39,100666.0,1.1960787
47543121,54.677517,49.39,100669.99,1.196126
47553838,54.34194,49.39,100674.0,1.1961737
47564040,54.592964,49.39,100671.0,1.196138
47586050,54.423855,49.39,100673.0,1.1961617
47597575,54.175476,49.39,100675.99,1.1961973
47608040,54.175476,49.39,100675.99,1.1961973
47630045,54.34194,49.39,100674.0,1.1961737
47640045,54.25739,49.39,100675.0,1.1961856
47651126,54.423855,49.39,100673.0,1.1961617
47673918,54.423855,49.39,100673.0,1.1961617
47683176,54.423855,49.39,100673.0,1.1961617
47693611,54.75943,49.39,100669.0,1.1961143
47714995,54.00637,49.39,100678.0,1.1962212
47725509,54.25739,49.39,100675.0,1.1961856
47736040,54.25739,49.39,100675.0,1.1961856
47758049,54.592964,49.39,100671.0,1.196138
47770522,54.592964,49.39,100671.0,1.196138
47781549,54.592964,49.39,100671.0,1.196138
47803148,54.423855,49.39,100673.0,1.1961617
47813521,54.50841,49.39,100672.0,1.19615
47824040,54.34194,49.39,100674.0,1.1961737
47845616,54.592964,49.39,100671.0,1.196138
47856087,54.50841,49.39,100672.0,1.19615
47867120,54.423855,49.39,100673.0,1.1961617
47890044,54.175476,49.39,100675.99,1.1961973
47901590,54.50841,49.39,100672.0,1.19615
47912055,54.34194,49.39,100674.0,1.1961737
47934049,54.592964,49.39,100671.0,1.196138
47944104,54.677517,49.39,100669.99,1.196126
47955028,54.592964,49.39,100671.0,1.196138
47976350,54.25739,49.39,100675.0,1.1961856
47986496,54.34194,49.39,100674.0,1.1961737
47997617,54.34194,49.39,100674.0,1.1961737
48019195,54.423855,49.39,100673.0,1.1961617
48029573,54.677517,49.39,100669.99,1.196126
48040065,54.843983,49.39,100668.0,1.1961024
48061527,54.34194,49.399998,100674.0,1.1961737
48072063,54.677517,49.399998,100669.99,1.196126
48083146,54.677517,49.399998,100669.99,1.196126
48105072,54.423855,49.39,100673.0,1.1961617
48116050,54.50841,49.39,100672.0,1.19615
48127052,54.677517,49.39,100669.99,1.196126
48148707,55.010452,49.39,100666.0,1.1960787
48159351,54.175476,49.39,100675.99,1.1961973
48169063,54.592964,49.39,100671.0,1.196138
48190050,54.592964,49.39,100671.0,1.196138
48201638,54.50841,49.39,100672.0,1.19615
48212823,54.677517,49.39,100669.99,1.196126
48233417,54.090923,49.39,100676.99,1.1962092
48244726,54.423855,49.39,100673.0,1.1961617
48255109,54.25739,49.39,100675.0,1.1961856
48276719,54.175476,49.399998,100675.99,1.1961973
48287097,54.50841,49.399998,100672.0,1.19615
48298040,54.25739,49.399998,100675.0,1.1961856
48319415,54.423855,49.39,100673.0,1.1961617
48329623,54.50841,49.39,100672.0,1.19615
48340597,54.34194,49.39,100674.0,1.1961737
48361349,54.090923,49.399998,100676.99,1.1962092
48372753,54.423855,49.399998,100673.0,1.1961617
48382039,54.677517,49.399998,100669.99,1.196126
48404789,54.34194,49.399998,100674.0,1.1961737
48415353,54.75943,49.399998,100669.0,1.1961143
48425842,54.925896,49.399998,100667.0,1.1960905
48447097,54.34194,49.399998,100674.0,1.1961737
48458049,54.843983,49.399998,100668.0,1.1961024
48469040,54.34194,49.399998,100674.0,1.1961737
48490045,54.592964,49.399998,100671.0,1.196138
48500592,54.25739,49.399998,100675.0,1.1961856
48511349,54.175476,49.399998,100675.99,1.1961973
48532587,54.843983,49.399998,100668.0,1.1961024
48543163,54.25739,49.399998,100675.0,1.1961856
48554051,54.423855,49.399998,100673.0,1.1961617
48575121,54.00637,49.399998,100678.0,1.1962212
48586418,54.592964,49.399998,100671.0,1.196138
48596786,54.34194,49.399998,100674.0,1.1961737
48619180,54.090923,49.399998,100676.99,1.1962092
48630213,54.175476,49.399998,100675.99,1.1961973
48641045,54.843983,49.399998,100668.0,1.1961024
48663380,54.34194,49.399998,100674.0,1.1961737
48674050,54.50841,49.399998,100672.0,1.19615
48685040,54.423855,49.399998,100673.0,1.1961617
48707360,54.50841,49.399998,100672.0,1.19615
48717048,54.34194,49.399998,100674.0,1.1961737
48728256,54.34194,49.399998,100674.0,1.1961737
48750134,54.25739,49.399998,100675.0,1.1961856
48760290,54.50841,49.399998,100672.0,1.19615
48771371,54.34194,49.399998,100674.0,1.1961737
48793056,54.175476,49.399998,100675.99,1.1961973
48804365,54.423855,49.399998,100673.0,1.1961617
48815396,54.75943,49.399998,100669.0,1.1961143
48837072,54.090923,49.399998,100676.99,1.1962092
48847053,54.175476,49.399998,100675.99,1.1961973
48857081,54.34194,49.399998,100674.0,1.1961737
48878133,54.423855,49.399998,100673.0,1.1961617
