timestamp,heartbeat_time,data_rate,rate_multiplier,rate_rx,rate_tx,rate_txerr,remote_system_id,remote_component_id,remote_type,remote_system_status,type,mode,flow_control,forwarding,mavlink_v2,ftp,streams
30289141,29283558,1200.0,0.36675593,0.10020686,1.267964,0.0,255,0,6,4,0,0,0,1,1,1,36
30319637,30315194,1200.0,0.36675593,0.10020686,1.267964,0.0,255,0,6,4,0,0,0,1,1,1,36
31298396,31289603,1200.0,0.36675593,0.10099989,1.1329988,0.0,255,0,6,4,0,0,0,1,1,1,36
32300249,31289603,1200.0,0.36675593,0.10056515,1.3023685,0.0,255,0,6,4,0,0,0,1,1,1,36
32321149,32315945,1200.0,0.36675593,0.10056515,1.3023685,0.0,255,0,6,4,0,0,0,1,1,1,36
33322555,32315945,1200.0,0.36675593,0.1001679,1.1623443,0.0,255,0,6,4,0,0,0,1,1,1,36
33353141,33344041,1200.0,0.36675593,0.1001679,1.1623443,0.0,255,0,6,4,0,0,0,1,1,1,36
34361215,33344041,1200.0,0.36675593,0.12693818,1.248392,0.0,255,0,6,4,0,0,0,1,1,1,36
34442849,34436933,1200.0,0.36675593,0.12693818,1.248392,0.0,255,0,6,4,0,0,0,1,1,1,36
35446195,35440447,1200.0,0.36675593,0.084975354,1.2816283,0.0,255,0,6,4,0,0,0,1,1,1,36
36296141,36290403,1200.0,0.36675593,0.10028865,1.1786399,0.0,255,0,6,4,0,0,0,1,1,1,36
37297215,36290403,1200.0,0.36675593,0.116940476,1.1664063,0.0,255,0,6,4,0,0,0,1,1,1,36
37307421,37304887,1200.0,0.36675593,0.116940476,1.1664063,0.0,255,0,6,4,0,0,0,1,1,1,36
38312602,37304887,1200.0,0.36675593,0.08499073,1.1678727,0.0,255,0,6,4,0,0,0,1,1,1,36
38364397,38357375,1200.0,0.36675593,0.08499073,1.1678727,0.0,255,0,6,4,0,0,0,1,1,1,36
39368303,38357375,1200.0,0.36675593,0.099939436,1.3407717,0.0,255,0,6,4,0,0,0,1,1,1,36
39398210,39391117,1200.0,0.36675593,0.099939436,1.3407717,0.0,255,0,6,4,0,0,0,1,1,1,36
40327756,40321402,1200.0,0.36675593,0.10075596,1.3676873,0.0,255,0,6,4,0,0,0,1,1,1,36
41329186,40321402,1200.0,0.36675593,0.100613035,1.1894253,0.0,255,0,6,4,0,0,0,1,1,1,36
41372219,41372008,1200.0,0.36675593,0.100613035,1.1894253,0.0,255,0,6,4,0,0,0,1,1,1,36
42292141,42288191,1200.0,0.36675593,0.091099925,1.106072,0.0,255,0,6,4,0,0,0,1,1,1,36
43297377,42288191,1200.0,0.36675593,0.10975262,1.3419751,0.0,255,0,6,4,0,0,0,1,1,1,36
43308046,43302034,1200.0,0.36675593,0.10975262,1.3419751,0.0,255,0,6,4,0,0,0,1,1,1,36
44297141,44293201,1200.0,0.36675593,0.084315605,1.1080062,0.0,255,0,6,4,0,0,0,1,1,1,36
45300141,44293201,1200.0,0.36675593,0.13087045,1.2472351,0.0,255,0,6,4,0,0,0,1,1,1,36
45370377,45369526,1200.0,0.36675593,0.13087045,1.2472351,0.0,255,0,6,4,0,0,0,1,1,1,36
46378288,45369526,1200.0,0.36675593,0.09577273,1.2420526,0.0,255,0,6,4,0,0,0,1,1,1,36
46409181,46401418,1200.0,0.36675593,0.09577273,1.2420526,0.0,255,0,6,4,0,0,0,1,1,1,36
47395467,47388097,1200.0,0.36675593,0.1002994,1.1787663,0.0,255,0,6,4,0,0,0,1,1,1,36
48371275,48362192,1200.0,0.36675593,0.10044554,1.4470124,0.0,255,0,6,4,0,0,0,1,1,1,36
51321951,50313838,1200.0,0.36675593,0.089698695,1.3404971,0.0,255,0,6,4,0,0,0,1,1,1,36
51341141,51337172,1200.0,0.36675593,0.089698695,1.3404971,0.0,255,0,6,4,0,0,0,1,1,1,36
52309281,52306031,1200.0,0.36675593,0.09524527,1.1736995,0.0,255,0,6,4,0,0,0,1,1,1,36
53310381,53303341,1200.0,0.36675593,0.10049551,1.2954966,0.0,255,0,6,4,0,0,0,1,1,1,36
54314318,53303341,1200.0,0.36675593,0.12636954,1.1751372,0.0,255,0,6,4,0,0,0,1,1,1,36
54364279,54356179,1200.0,0.36675593,0.12636954,1.1751372,0.0,255,0,6,4,0,0,0,1,1,1,36
55365195,54356179,1200.0,0.36675593,0.10079488,1.1845893,0.0,255,0,6,4,0,0,0,1,1,1,36
55466507,55461077,1200.0,0.36675593,0.10079488,1.1845893,0.0,255,0,6,4,0,0,0,1,1,1,36
56295326,56287456,1200.0,0.36675593,0.10068114,1.2001989,0.0,255,0,6,4,0,0,0,1,1,1,36
57301350,56287456,1200.0,0.36675593,0.100202985,1.5089973,0.0,255,0,6,4,0,0,0,1,1,1,36
57322460,57321117,1200.0,0.36675593,0.100202985,1.5089973,0.0,255,0,6,4,0,0,0,1,1,1,36
58322498,58319773,1200.0,0.36675593,0.100986764,1.1848447,0.0,255,0,6,4,0,0,0,1,1,1,36
59313391,59310029,1200.0,0.36675593,0.08495437,1.3602694,0.0,255,0,6,4,0,0,0,1,1,1,36
60320140,59310029,1200.0,0.36675593,0.020854,1.0119156,0.0,255,0,6,4,0,0,0,1,1,1,36
60341139,60338044,1200.0,0.36675593,0.020854,1.0119156,0.0,255,0,6,4,0,0,0,1,1,1,36
61342678,60338044,1200.0,0.36675593,0.020954967,0.891085,0.0,255,0,6,4,0,0,0,1,1,1,36
61412140,61411249,1200.0,0.36675593,0.020954967,0.891085,0.0,255,0,6,4,0,0,0,1,1,1,36
62334348,62331119,1200.0,0.36675593,0.19585425,1.739822,0.0,255,0,6,4,0,0,0,1,1,1,36
63343337,62331119,1200.0,0.36675593,0.46805966,1.9351122,0.0,255,0,6,4,0,0,0,1,1,1,36
63353194,63344142,1200.0,0.36675593,0.46805966,1.9351122,0.0,255,0,6,4,0,0,0,1,1,1,36
64358796,63344142,1200.0,0.36675593,0.40178928,2.0287879,0.0,255,0,6,4,0,0,0,1,1,1,36
64389830,64384555,1200.0,0.36675593,0.40178928,2.0287879,0.0,255,0,6,4,0,0,0,1,1,1,36
65386306,65377346,1200.0,0.36675593,0.3653206,1.7808136,0.0,255,0,6,4,0,0,0,1,1,1,36
66391314,65377346,1200.0,0.36675593,0.35408643,1.7265453,0.0,255,0,6,4,0,0,0,1,1,1,36
66431219,66425037,1200.0,0.36675593,0.35408643,1.7265453,0.0,255,0,6,4,0,0,0,1,1,1,36
67437610,66425037,1200.0,0.36675593,0.1828277,1.7398441,0.0,255,0,6,4,0,0,0,1,1,1,36
67447286,67442469,1200.0,0.36675593,0.1828277,1.7398441,0.0,255,0,6,4,0,0,0,1,1,1,36
68275836,68273079,1200.0,0.36675593,0.14833486,1.4106745,0.0,255,0,6,4,0,0,0,1,1,1,36
69280565,68273079,1200.0,0.36675593,0.17991725,1.3707508,0.0,255,0,6,4,0,0,0,1,1,1,36
69312294,69307174,1200.0,0.36675593,0.17991725,1.3707508,0.0,255,0,6,4,0,0,0,1,1,1,36
70296130,70289055,1200.0,0.36675593,0.13206878,1.3703377,0.0,255,0,6,4,0,0,0,1,1,1,36
71293140,71290043,1200.0,0.36675593,0.18028767,1.4124194,0.0,255,0,6,4,0,0,0,1,1,1,36
72295353,71290043,1200.0,0.36675593,0.18011078,1.404068,0.0,255,0,6,4,0,0,0,1,1,1,36
72326398,72321665,1200.0,0.36675593,0.18011078,1.404068,0.0,255,0,6,4,0,0,0,1,1,1,36
73328324,72321665,1200.0,0.36675593,0.14899641,1.4909642,0.0,255,0,6,4,0,0,0,1,1,1,36
73400955,73393033,1200.0,0.36675593,0.14899641,1.4909642,0.0,255,0,6,4,0,0,0,1,1,1,36
74387418,74379411,1200.0,0.36675593,0.23896892,1.4958055,0.0,255,0,6,4,0,0,0,1,1,1,36
75287259,75287059,1200.0,0.36675593,0.18064718,1.37731,0.0,255,0,6,4,0,0,0,1,1,1,36
76290582,75287059,1200.0,0.36675593,0.1485684,1.3101939,0.0,255,0,6,4,0,0,0,1,1,1,36
76321527,76320132,1200.0,0.36675593,0.1485684,1.3101939,0.0,255,0,6,4,0,0,0,1,1,1,36
77282421,77279334,1200.0,0.36675593,0.13282122,1.4899944,0.0,255,0,6,4,0,0,0,1,1,1,36
78289875,77279334,1200.0,0.36675593,0.036757875,1.2775846,0.0,255,0,6,4,0,0,0,1,1,1,36
78309140,78303115,1200.0,0.36675593,0.036757875,1.2775846,0.0,255,0,6,4,0,0,0,1,1,1,36
79307899,79304666,1200.0,0.36675593,0.020997144,1.0088627,0.0,255,0,6,4,0,0,0,1,1,1,36
80316217,79304666,1200.0,0.36675593,0.020814976,1.0229074,0.0,255,0,6,4,0,0,0,1,1,1,36
80459274,80455374,1200.0,0.36675593,0.020814976,1.0229074,0.0,255,0,6,4,0,0,0,1,1,1,36
81466306,80455374,1200.0,0.36675593,0.35445252,1.886442,0.0,255,0,6,4,0,0,0,1,1,1,36
81497977,81489762,1200.0,0.36675593,0.35445252,1.886442,0.0,255,0,6,4,0,0,0,1,1,1,36
82322329,82314696,1200.0,0.36675593,0.32248044,1.7007122,0.0,255,0,6,4,0,0,0,1,1,1,36
83327257,82314696,1200.0,0.36675593,0.18926884,1.4374471,0.0,255,0,6,4,0,0,0,1,1,1,36
83348861,83348589,1200.0,0.36675593,0.18926884,1.4374471,0.0,255,0,6,4,0,0,0,1,1,1,36
84321178,84318045,1200.0,0.36675593,0.19002365,1.4694499,0.0,255,0,6,4,0,0,0,1,1,1,36
85315512,85312103,1200.0,0.36675593,0.18007673,1.3650016,0.0,255,0,6,4,0,0,0,1,1,1,36
86317140,85312103,1200.0,0.36675593,0.1790714,1.684854,0.0,255,0,6,4,0,0,0,1,1,1,36
86438406,86429691,1200.0,0.36675593,0.1790714,1.684854,0.0,255,0,6,4,0,0,0,1,1,1,36
87297249,87291959,1200.0,0.36675593,0.18709925,1.3760209,0.0,255,0,6,4,0,0,0,1,1,1,36
88302594,88296158,1200.0,0.36675593,0.17190632,1.2987374,0.0,255,0,6,4,0,0,0,1,1,1,36
89306281,88296158,1200.0,0.36675593,0.1803164,1.6238439,0.0,255,0,6,4,0,0,0,1,1,1,36
89316456,89314039,1200.0,0.36675593,0.1803164,1.6238439,0.0,255,0,6,4,0,0,0,1,1,1,36
90323586,90320049,1200.0,0.36675593,0.14832394,1.2881286,0.0,255,0,6,4,0,0,0,1,1,1,36
91325204,90320049,1200.0,0.36675593,0.18041688,1.5450064,0.0,255,0,6,4,0,0,0,1,1,1,36
91397025,91395189,1200.0,0.36675593,0.18041688,1.5450064,0.0,255,0,6,4,0,0,0,1,1,1,36
92400108,91395189,1200.0,0.36675593,0.18081917,1.3436563,0.0,255,0,6,4,0,0,0,1,1,1,36
92421144,92415747,1200.0,0.36675593,0.18081917,1.3436563,0.0,255,0,6,4,0,0,0,1,1,1,36
93424140,92415747,1200.0,0.36675593,0.05268384,1.1322056,0.0,255,0,6,4,0,0,0,1,1,1,36
93444186,93440216,1200.0,0.36675593,0.05268384,1.1322056,0.0,255,0,6,4,0,0,0,1,1,1,36
94450381,93440216,1200.0,0.36675593,0.046812795,1.0358576,0.0,255,0,6,4,0,0,0,1,1,1,36
94470216,94464090,1200.0,0.36675593,0.046812795,1.0358576,0.0,255,0,6,4,0,0,0,1,1,1,36
95299496,95291170,1200.0,0.36675593,0.046812795,1.0358576,0.0,255,0,6,4,0,0,0,1,1,1,36
96306336,95291170,1200.0,0.36675593,0.041812677,1.0891207,0.0,255,0,6,4,0,0,0,1,1,1,36
96336145,96334212,1200.0,0.36675593,0.14306279,1.5975345,0.0,255,0,6,4,0,0,0,1,1,1,36
97344608,96334212,1200.0,0.36675593,0.058649506,1.1769663,0.0,255,0,6,4,0,0,0,1,1,1,36
97354443,97354194,1200.0,0.36675593,0.058649506,1.1769663,0.0,255,0,6,4,0,0,0,1,1,1,36
98351209,98345065,1200.0,0.36675593,0.02081021,1.0117726,0.0,255,0,6,4,0,0,0,1,1,1,36
99355423,98345065,1200.0,0.36675593,0.020935664,0.89225805,0.0,255,0,6,4,0,0,0,1,1,1,36
99415499,99412778,1200.0,0.36675593,0.020935664,0.89225805,0.0,255,0,6,4,0,0,0,1,1,1,36
100416605,100411162,1200.0,0.36675593,0.0208052,1.3325236,0.0,255,0,6,4,0,0,0,1,1,1,36
101386029,101377522,1200.0,0.36675593,0.020783065,0.8649714,0.0,255,0,6,4,0,0,0,1,1,1,36
102297226,102293740,1200.0,0.36675593,0.020783065,0.8649714,0.0,255,0,6,4,0,0,0,1,1,1,36
103306209,102293740,1200.0,0.36675593,0.041785512,1.1699944,0.0,255,0,6,4,0,0,0,1,1,1,36
103336273,103330062,1200.0,0.36675593,0.041785512,1.1699944,0.0,255,0,6,4,0,0,0,1,1,1,36
104340272,103330062,1200.0,0.36675593,0.020826844,1.0006803,0.0,255,0,6,4,0,0,0,1,1,1,36
104370407,104361619,1200.0,0.36675593,0.046880357,1.0094239,0.0,255,0,6,4,0,0,0,1,1,1,36
105374385,104361619,1200.0,0.36675593,0.0,1.3782979,0.0,255,0,6,4,0,0,0,1,1,1,36
105394384,105388285,1200.0,0.36675593,0.0,1.3782979,0.0,255,0,6,4,0,0,0,1,1,1,36
106403531,105388285,1200.0,0.36675593,0.02080584,1.044255,0.0,255,0,6,4,0,0,0,1,1,1,36
106433396,106424097,1200.0,0.36675593,0.02080584,1.044255,0.0,255,0,6,4,0,0,0,1,1,1,36
107442341,106424097,1200.0,0.36675593,0.020838603,1.00323,0.0,255,0,6,4,0,0,0,1,1,1,36
107463231,107456792,1200.0,0.36675593,0.020838603,1.00323,0.0,255,0,6,4,0,0,0,1,1,1,36
108298293,108290032,1200.0,0.36675593,0.020838603,1.00323,0.0,255,0,6,4,0,0,0,1,1,1,36
109307342,108290032,1200.0,0.36675593,0.04192043,1.1208725,0.0,255,0,6,4,0,0,0,1,1,1,36
109317216,109308046,1200.0,0.36675593,0.04192043,1.1208725,0.0,255,0,6,4,0,0,0,1,1,1,36
110325861,109308046,1200.0,0.36675593,0.02089783,1.0448915,0.0,255,0,6,4,0,0,0,1,1,1,36
110346188,110337330,1200.0,0.36675593,0.02089783,1.0448915,0.0,255,0,6,4,0,0,0,1,1,1,36
111352600,110337330,1200.0,0.36675593,0.020812705,1.073341,0.0,255,0,6,4,0,0,0,1,1,1,36
111372585,111369040,1200.0,0.36675593,0.020812705,1.073341,0.0,255,0,6,4,0,0,0,1,1,1,36
112310593,112305747,1200.0,0.36675593,0.020874523,1.1500868,0.0,255,0,6,4,0,0,0,1,1,1,36
113314384,112305747,1200.0,0.36675593,0.020816049,0.99322283,0.0,255,0,6,4,0,0,0,1,1,1,36
113366483,113358174,1200.0,0.36675593,0.020816049,0.99322283,0.0,255,0,6,4,0,0,0,1,1,1,36
114374995,113358174,1200.0,0.36675593,0.020871783,1.1240946,0.0,255,0,6,4,0,0,0,1,1,1,36
114394445,114392140,1200.0,0.36675593,0.020871783,1.1240946,0.0,255,0,6,4,0,0,0,1,1,1,36
115285834,115281061,1200.0,0.36675593,0.04662453,1.1507331,0.0,255,0,6,4,0,0,0,1,1,1,36
116291429,115281061,1200.0,0.36675593,0.02095231,1.0176837,0.0,255,0,6,4,0,0,0,1,1,1,36
116321140,116314034,1200.0,0.36675593,0.02095231,1.0176837,0.0,255,0,6,4,0,0,0,1,1,1,36
117324538,116314034,1200.0,0.36675593,0.020891031,1.2534618,0.0,255,0,6,4,0,0,0,1,1,1,36
117354496,117345775,1200.0,0.36675593,0.020891031,1.2534618,0.0,255,0,6,4,0,0,0,1,1,1,36
118299388,118296756,1200.0,0.36675593,0.02098961,0.9685205,0.0,255,0,6,4,0,0,0,1,1,1,36
119300285,118296756,1200.0,0.36675593,0.02082792,1.0632157,0.0,255,0,6,4,0,0,0,1,1,1,36
119351763,119347368,1200.0,0.36675593,0.02082792,1.0632157,0.0,255,0,6,4,0,0,0,1,1,1,36
120350413,120343177,1200.0,0.36675593,0.020985164,1.0822349,0.0,255,0,6,4,0,0,0,1,1,1,36
121360281,120343177,1200.0,0.36675593,0.020817574,1.0022175,0.0,255,0,6,4,0,0,0,1,1,1,36
121412832,121404936,1200.0,0.36675593,0.020817574,1.0022175,0.0,255,0,6,4,0,0,0,1,1,1,36
122298710,122293157,1200.0,0.36675593,0.020952562,1.1104858,0.0,255,0,6,4,0,0,0,1,1,1,36
123306537,122293157,1200.0,0.36675593,0.02083819,1.0746552,0.0,255,0,6,4,0,0,0,1,1,1,36
123327268,123318131,1200.0,0.36675593,0.02083819,1.0746552,0.0,255,0,6,4,0,0,0,1,1,1,36
124287934,124285093,1200.0,0.36675593,0.020879399,0.9962456,0.0,255,0,6,4,0,0,0,1,1,1,36
125288140,124285093,1200.0,0.36675593,0.04687975,1.4343209,0.0,255,0,6,4,0,0,0,1,1,1,36
125389704,125385924,1200.0,0.36675593,0.04687975,1.4343209,0.0,255,0,6,4,0,0,0,1,1,1,36
126396441,125385924,1200.0,0.36675593,0.020784998,1.0501373,0.0,255,0,6,4,0,0,0,1,1,1,36
126416140,126410414,1200.0,0.36675593,0.020784998,1.0501373,0.0,255,0,6,4,0,0,0,1,1,1,36
127393190,127386814,1200.0,0.36675593,0.020881725,0.92973393,0.0,255,0,6,4,0,0,0,1,1,1,36
128403925,127386814,1200.0,0.36675593,0.020814953,1.126981,0.0,255,0,6,4,0,0,0,1,1,1,36
128484380,128479099,1200.0,0.36675593,0.020814953,1.126981,0.0,255,0,6,4,0,0,0,1,1,1,36
129308359,129305104,1200.0,0.36675593,0.02098143,0.99711746,0.0,255,0,6,4,0,0,0,1,1,1,36
130316333,129305104,1200.0,0.36675593,0.020831205,1.2101938,0.0,255,0,6,4,0,0,0,1,1,1,36
130338693,130336047,1200.0,0.36675593,0.020831205,1.2101938,0.0,255,0,6,4,0,0,0,1,1,1,36
131347216,130336047,1200.0,0.36675593,0.020993575,1.0086913,0.0,255,0,6,4,0,0,0,1,1,1,36
131377190,131368700,1200.0,0.36675593,0.020993575,1.0086913,0.0,255,0,6,4,0,0,0,1,1,1,36
132335473,132331204,1200.0,0.36675593,0.020902261,0.9863876,0.0,255,0,6,4,0,0,0,1,1,1,36
133342497,132331204,1200.0,0.36675593,0.020771513,1.1295747,0.0,255,0,6,4,0,0,0,1,1,1,36
133383243,133376097,1200.0,0.36675593,0.020771513,1.1295747,0.0,255,0,6,4,0,0,0,1,1,1,36
134388813,133376097,1200.0,0.36675593,0.020871721,1.2055904,0.0,255,0,6,4,0,0,0,1,1,1,36
134398608,134393147,1200.0,0.36675593,0.020871721,1.2055904,0.0,255,0,6,4,0,0,0,1,1,1,36
135287658,135285042,1200.0,0.36675593,0.04661755,1.0831141,0.0,255,0,6,4,0,0,0,1,1,1,36
136288140,135285042,1200.0,0.36675593,0.020983486,1.1450988,0.0,255,0,6,4,0,0,0,1,1,1,36
136320170,136311156,1200.0,0.36675593,0.020983486,1.1450988,0.0,255,0,6,4,0,0,0,1,1,1,36
137328842,136311156,1200.0,0.36675593,0.02081937,1.0409685,0.0,255,0,6,4,0,0,0,1,1,1,36
137348164,137348013,1200.0,0.36675593,0.02081937,1.0409685,0.0,255,0,6,4,0,0,0,1,1,1,36
138353222,138351122,1200.0,0.36675593,0.02080555,0.89761084,0.0,255,0,6,4,0,0,0,1,1,1,36
139339494,139335093,1200.0,0.36675593,0.020850355,1.2957007,0.0,255,0,6,4,0,0,0,1,1,1,36
140345240,139335093,1200.0,0.36675593,0.020900387,0.99227077,0.0,255,0,6,4,0,0,0,1,1,1,36
140440171,140433124,1200.0,0.36675593,0.020900387,0.99227077,0.0,255,0,6,4,0,0,0,1,1,1,36
141443275,140433124,1200.0,0.36675593,0.020991666,1.0525821,0.0,255,0,6,4,0,0,0,1,1,1,36
141473912,141471155,1200.0,0.36675593,0.020991666,1.0525821,0.0,255,0,6,4,0,0,0,1,1,1,36
142297714,142295167,1200.0,0.36675593,0.020822363,1.0004649,0.0,255,0,6,4,0,0,0,1,1,1,36
143301407,142295167,1200.0,0.36675593,0.02091525,1.2678626,0.0,255,0,6,4,0,0,0,1,1,1,36
143331209,143324776,1200.0,0.36675593,0.02091525,1.2678626,0.0,255,0,6,4,0,0,0,1,1,1,36
144299179,144292108,1200.0,0.36675593,0.020813346,1.135814,0.0,255,0,6,4,0,0,0,1,1,1,36
145306794,144292108,1200.0,0.36675593,0.04678055,1.0878966,0.0,255,0,6,4,0,0,0,1,1,1,36
145326219,145323968,1200.0,0.36675593,0.04678055,1.0878966,0.0,255,0,6,4,0,0,0,1,1,1,36
146336433,145323968,1200.0,0.36675593,0.020973552,1.0706499,0.0,255,0,6,4,0,0,0,1,1,1,36
146417140,146415214,1200.0,0.36675593,0.020973552,1.0706499,0.0,255,0,6,4,0,0,0,1,1,1,36
147378830,147371212,1200.0,0.36675593,0.020748157,0.9880075,0.0,255,0,6,4,0,0,0,1,1,1,36
148384381,147371212,1200.0,0.36675593,0.020949531,1.0873804,0.0,255,0,6,4,0,0,0,1,1,1,36
148479455,148478047,1200.0,0.36675593,0.020949531,1.0873804,0.0,255,0,6,4,0,0,0,1,1,1,36
149307445,149304050,1200.0,0.36675593,0.02082032,1.0340759,0.0,255,0,6,4,0,0,0,1,1,1,36
150313634,149304050,1200.0,0.36675593,0.020878486,1.1503052,0.0,255,0,6,4,0,0,0,1,1,1,36
150334396,150334049,1200.0,0.36675593,0.020878486,1.1503052,0.0,255,0,6,4,0,0,0,1,1,1,36
151334537,150334049,1200.0,0.36675593,0.02081419,1.0327803,0.0,255,0,6,4,0,0,0,1,1,1,36
151376215,151371206,1200.0,0.36675593,0.02081419,1.0327803,0.0,255,0,6,4,0,0,0,1,1,1,36
152335192,152330324,1200.0,0.36675593,0.020831823,1.0822629,0.0,255,0,6,4,0,0,0,1,1,1,36
153337208,153330162,1200.0,0.36675593,0.020958083,1.1367265,0.0,255,0,6,4,0,0,0,1,1,1,36
154347409,153330162,1200.0,0.36675593,0.020904569,1.055183,0.0,255,0,6,4,0,0,0,1,1,1,36
154460223,154459504,1200.0,0.36675593,0.020904569,1.055183,0.0,255,0,6,4,0,0,0,1,1,1,36
155295344,155294028,1200.0,0.36675593,0.046673518,1.2323794,0.0,255,0,6,4,0,0,0,1,1,1,36
156295558,155294028,1200.0,0.36675593,0.020799246,1.028077,0.0,255,0,6,4,0,0,0,1,1,1,36
156315400,156314944,1200.0,0.36675593,0.020799246,1.028077,0.0,255,0,6,4,0,0,0,1,1,1,36
157322421,156314944,1200.0,0.36675593,0.020816006,1.1696613,0.0,255,0,6,4,0,0,0,1,1,1,36
157342336,157340076,1200.0,0.36675593,0.020816006,1.1696613,0.0,255,0,6,4,0,0,0,1,1,1,36
158348705,158346191,1200.0,0.36675593,0.020889992,0.93209153,0.0,255,0,6,4,0,0,0,1,1,1,36
159357149,158346191,1200.0,0.36675593,0.020874772,1.0964226,0.0,255,0,6,4,0,0,0,1,1,1,36
159407753,159405103,1200.0,0.36675593,0.020874772,1.0964226,0.0,255,0,6,4,0,0,0,1,1,1,36
160408140,159405103,1200.0,0.36675593,0.020839803,0.98244786,0.0,255,0,6,4,0,0,0,1,1,1,36
160441166,160439275,1200.0,0.36675593,0.020839803,0.98244786,0.0,255,0,6,4,0,0,0,1,1,1,36
161383932,161378046,1200.0,0.36675593,0.020894814,1.117375,0.0,255,0,6,4,0,0,0,1,1,1,36
163307422,162294210,1200.0,0.36675593,0.020817904,1.1648114,0.0,255,0,6,4,0,0,0,1,1,1,36
163327279,163325336,1200.0,0.36675593,0.020817904,1.1648114,0.0,255,0,6,4,0,0,0,1,1,1,36
164329406,163325336,1200.0,0.36675593,0.020826617,1.05224,0.0,255,0,6,4,0,0,0,1,1,1,36
164359559,164357190,1200.0,0.36675593,0.020826617,1.05224,0.0,255,0,6,4,0,0,0,1,1,1,36
165368303,164357190,1200.0,0.36675593,0.046509784,0.90644604,0.0,255,0,6,4,0,0,0,1,1,1,36
165388322,165388089,1200.0,0.36675593,0.046509784,0.90644604,0.0,255,0,6,4,0,0,0,1,1,1,36
166388336,165388089,1200.0,0.36675593,0.020908149,1.2166551,0.0,255,0,6,4,0,0,0,1,1,1,36
166419979,166418075,1200.0,0.36675593,0.020908149,1.2166551,0.0,255,0,6,4,0,0,0,1,1,1,36
167425188,166418075,1200.0,0.36675593,0.02090147,0.99232215,0.0,255,0,6,4,0,0,0,1,1,1,36
167455388,167452042,1200.0,0.36675593,0.02090147,0.99232215,0.0,255,0,6,4,0,0,0,1,1,1,36
168419440,168412619,1200.0,0.36675593,0.020977784,1.1347982,0.0,255,0,6,4,0,0,0,1,1,1,36
169304363,169304218,1200.0,0.36675593,0.020952877,1.0466461,0.0,255,0,6,4,0,0,0,1,1,1,36
170307735,169304218,1200.0,0.36675593,0.02079636,0.9813902,0.0,255,0,6,4,0,0,0,1,1,1,36
170462503,170460025,1200.0,0.36675593,0.02079636,0.9813902,0.0,255,0,6,4,0,0,0,1,1,1,36
171373176,171365070,1200.0,0.36675593,0.020805323,1.3315407,0.0,255,0,6,4,0,0,0,1,1,1,36
172307249,172298201,1200.0,0.36675593,0.020973194,1.0926036,0.0,255,0,6,4,0,0,0,1,1,1,36
173312406,172298201,1200.0,0.36675593,0.020860257,1.0042723,0.0,255,0,6,4,0,0,0,1,1,1,36
173363209,173359445,1200.0,0.36675593,0.020860257,1.0042723,0.0,255,0,6,4,0,0,0,1,1,1,36
174364345,173359445,1200.0,0.36675593,0.02082259,1.0738508,0.0,255,0,6,4,0,0,0,1,1,1,36
174470215,174462322,1200.0,0.36675593,0.02082259,1.0738508,0.0,255,0,6,4,0,0,0,1,1,1,36
175292003,175285048,1200.0,0.36675593,0.046953,1.1098889,0.0,255,0,6,4,0,0,0,1,1,1,36
176296139,175285048,1200.0,0.36675593,0.020812705,1.0336977,0.0,255,0,6,4,0,0,0,1,1,1,36
176318296,176318047,1200.0,0.36675593,0.020812705,1.0336977,0.0,255,0,6,4,0,0,0,1,1,1,36
177320443,176318047,1200.0,0.36675593,0.020925108,1.1927311,0.0,255,0,6,4,0,0,0,1,1,1,36
177350295,177349198,1200.0,0.36675593,0.020925108,1.1927311,0.0,255,0,6,4,0,0,0,1,1,1,36
178286777,178282378,1200.0,0.36675593,0.020943034,0.99928194,0.0,255,0,6,4,0,0,0,1,1,1,36
179295559,178282378,1200.0,0.36675593,0.020810746,1.0008978,0.0,255,0,6,4,0,0,0,1,1,1,36
179355269,179347096,1200.0,0.36675593,0.020810746,1.0008978,0.0,255,0,6,4,0,0,0,1,1,1,36
180365411,179347096,1200.0,0.36675593,0.020800171,1.0083131,0.0,255,0,6,4,0,0,0,1,1,1,36
180376397,180373194,1200.0,0.36675593,0.020800171,1.0083131,0.0,255,0,6,4,0,0,0,1,1,1,36
181380204,180373194,1200.0,0.36675593,0.02089552,1.2268656,0.0,255,0,6,4,0,0,0,1,1,1,36
181400236,181398046,1200.0,0.36675593,0.02089552,1.2268656,0.0,255,0,6,4,0,0,0,1,1,1,36
182302209,182294312,1200.0,0.36675593,0.020858206,1.2405666,0.0,255,0,6,4,0,0,0,1,1,1,36
183305140,182294312,1200.0,0.36675593,0.020803984,1.1016204,0.0,255,0,6,4,0,0,0,1,1,1,36
183325140,183324075,1200.0,0.36675593,0.020803984,1.1016204,0.0,255,0,6,4,0,0,0,1,1,1,36
184314838,184312108,1200.0,0.36675593,0.020917647,1.0488706,0.0,255,0,6,4,0,0,0,1,1,1,36
185322503,185318040,1200.0,0.36675593,0.046816383,1.1186128,0.0,255,0,6,4,0,0,0,1,1,1,36
186330966,185318040,1200.0,0.36675593,0.020957854,1.0089709,0.0,255,0,6,4,0,0,0,1,1,1,36
186421376,186417037,1200.0,0.36675593,0.020957854,1.0089709,0.0,255,0,6,4,0,0,0,1,1,1,36
187429889,186417037,1200.0,0.36675593,0.020804664,1.0630193,0.0,255,0,6,4,0,0,0,1,1,1,36
187449288,187448765,1200.0,0.36675593,0.020804664,1.0630193,0.0,255,0,6,4,0,0,0,1,1,1,36
188453199,188449045,1200.0,0.36675593,0.02095689,1.1206946,0.0,255,0,6,4,0,0,0,1,1,1,36
189306334,189304042,1200.0,0.36675593,0.020987952,1.0014251,0.0,255,0,6,4,0,0,0,1,1,1,36
190314313,189304042,1200.0,0.36675593,0.020915333,1.3276258,0.0,255,0,6,4,0,0,0,1,1,1,36
190344982,190335051,1200.0,0.36675593,0.020915333,1.3276258,0.0,255,0,6,4,0,0,0,1,1,1,36
191353181,190335051,1200.0,0.36675593,0.020875933,1.013974,0.0,255,0,6,4,0,0,0,1,1,1,36
191373173,191367119,1200.0,0.36675593,0.020875933,1.013974,0.0,255,0,6,4,0,0,0,1,1,1,36
192381945,191367119,1200.0,0.36675593,0.020938752,0.9342672,0.0,255,0,6,4,0,0,0,1,1,1,36
192401668,192394191,1200.0,0.36675593,0.020938752,0.9342672,0.0,255,0,6,4,0,0,0,1,1,1,36
193369047,193363915,1200.0,0.36675593,0.02093771,1.2562625,0.0,255,0,6,4,0,0,0,1,1,1,36
194371373,193363915,1200.0,0.36675593,0.020914605,1.0148562,0.0,255,0,6,4,0,0,0,1,1,1,36
194403254,194399574,1200.0,0.36675593,0.020914605,1.0148562,0.0,255,0,6,4,0,0,0,1,1,1,36
195290639,195285570,1200.0,0.36675593,0.046708353,1.1726778,0.0,255,0,6,4,0,0,0,1,1,1,36
196291956,195285570,1200.0,0.36675593,0.020979166,0.97403276,0.0,255,0,6,4,0,0,0,1,1,1,36
196321229,196316044,1200.0,0.36675593,0.020979166,0.97403276,0.0,255,0,6,4,0,0,0,1,1,1,36
197317139,197312042,1200.0,0.36675593,0.020818586,1.0557997,0.0,255,0,6,4,0,0,0,1,1,1,36
198316214,198312196,1200.0,0.36675593,0.02079111,1.0088639,0.0,255,0,6,4,0,0,0,1,1,1,36
199325210,198312196,1200.0,0.36675593,0.020938879,1.0908158,0.0,255,0,6,4,0,0,0,1,1,1,36
199368586,199363170,1200.0,0.36675593,0.020938879,1.0908158,0.0,255,0,6,4,0,0,0,1,1,1,36
200377836,199363170,1200.0,0.36675593,0.020833354,1.2341282,0.0,255,0,6,4,0,0,0,1,1,1,36
200448838,200440044,1200.0,0.36675593,0.020833354,1.2341282,0.0,255,0,6,4,0,0,0,1,1,1,36
201402366,201402049,1200.0,0.36675593,0.020926693,1.2107587,0.0,255,0,6,4,0,0,0,1,1,1,36
202297244,202294700,1200.0,0.36675593,0.020882556,1.01529,0.0,255,0,6,4,0,0,0,1,1,1,36
203305623,202294700,1200.0,0.36675593,0.020917105,0.89146703,0.0,255,0,6,4,0,0,0,1,1,1,36
203325243,203324865,1200.0,0.36675593,0.020917105,0.89146703,0.0,255,0,6,4,0,0,0,1,1,1,36
204287588,204284156,1200.0,0.36675593,0.02095915,1.3633428,0.0,255,0,6,4,0,0,0,1,1,1,36
205290190,204284156,1200.0,0.36675593,0.046674907,0.8679547,0.0,255,0,6,4,0,0,0,1,1,1,36
205313056,205301178,1200.0,0.36675593,0.046674907,0.8679547,0.0,255,0,6,4,0,0,0,1,1,1,36
206317364,205301178,1200.0,0.36675593,0.020812768,1.1258717,0.0,255,0,6,4,0,0,0,1,1,1,36
206347334,206338164,1200.0,0.36675593,0.020812768,1.1258717,0.0,255,0,6,4,0,0,0,1,1,1,36
207352186,206338164,1200.0,0.36675593,0.020766214,1.0373218,0.0,255,0,6,4,0,0,0,1,1,1,36
207416030,207413046,1200.0,0.36675593,0.020766214,1.0373218,0.0,255,0,6,4,0,0,0,1,1,1,36
208416140,207413046,1200.0,0.36675593,0.020885589,0.9856008,0.0,255,0,6,4,0,0,0,1,1,1,36
208487976,208480091,1200.0,0.36675593,0.020885589,0.9856008,0.0,255,0,6,4,0,0,0,1,1,1,36
209305257,209304962,1200.0,0.36675593,0.020925503,1.3790903,0.0,255,0,6,4,0,0,0,1,1,1,36
210301216,210292125,1200.0,0.36675593,0.02092244,1.0501072,0.0,255,0,6,4,0,0,0,1,1,1,36
211307221,210292125,1200.0,0.36675593,0.020812746,1.0019851,0.0,255,0,6,4,0,0,0,1,1,1,36
211377193,211368783,1200.0,0.36675593,0.020812746,1.0019851,0.0,255,0,6,4,0,0,0,1,1,1,36
212384315,211368783,1200.0,0.36675593,0.020999977,1.1229988,0.0,255,0,6,4,0,0,0,1,1,1,36
212395292,212394173,1200.0,0.36675593,0.020999977,1.1229988,0.0,255,0,6,4,0,0,0,1,1,1,36
213347252,213340299,1200.0,0.36675593,0.020975396,1.0487697,0.0,255,0,6,4,0,0,0,1,1,1,36
214353633,213340299,1200.0,0.36675593,0.020999558,1.0639776,0.0,255,0,6,4,0,0,0,1,1,1,36
214464811,214464410,1200.0,0.36675593,0.020999558,1.0639776,0.0,255,0,6,4,0,0,0,1,1,1,36
215294991,215286044,1200.0,0.36675593,0.046706542,1.1895262,0.0,255,0,6,4,0,0,0,1,1,1,36
216302370,215286044,1200.0,0.36675593,0.020884465,0.9964874,0.0,255,0,6,4,0,0,0,1,1,1,36
216323363,216318525,1200.0,0.36675593,0.020884465,0.9964874,0.0,255,0,6,4,0,0,0,1,1,1,36
217326412,216318525,1200.0,0.36675593,0.020873899,1.0019472,0.0,255,0,6,4,0,0,0,1,1,1,36
217348591,217348147,1200.0,0.36675593,0.020873899,1.0019472,0.0,255,0,6,4,0,0,0,1,1,1,36
218351460,218347208,1200.0,0.36675593,0.020990785,1.0195524,0.0,255,0,6,4,0,0,0,1,1,1,36
219354209,218347208,1200.0,0.36675593,0.020905694,1.2274629,0.0,255,0,6,4,0,0,0,1,1,1,36
219415198,219411050,1200.0,0.36675593,0.020905694,1.2274629,0.0,255,0,6,4,0,0,0,1,1,1,36
220422525,219411050,1200.0,0.36675593,0.020906838,1.2832817,0.0,255,0,6,4,0,0,0,1,1,1,36
220442381,220438044,1200.0,0.36675593,0.020906838,1.2832817,0.0,255,0,6,4,0,0,0,1,1,1,36
221447209,220438044,1200.0,0.36675593,0.020944769,0.96645147,0.0,255,0,6,4,0,0,0,1,1,1,36
221478444,221470652,1200.0,0.36675593,0.020944769,0.96645147,0.0,255,0,6,4,0,0,0,1,1,1,36
222295420,222287195,1200.0,0.36675593,0.02085491,1.0248699,0.0,255,0,6,4,0,0,0,1,1,1,36
223298187,223294046,1200.0,0.36675593,0.020913959,1.1183988,0.0,255,0,6,4,0,0,0,1,1,1,36
224306215,223294046,1200.0,0.36675593,0.02098248,1.031139,0.0,255,0,6,4,0,0,0,1,1,1,36
224356243,224356084,1200.0,0.36675593,0.02098248,1.031139,0.0,255,0,6,4,0,0,0,1,1,1,36
225318563,225315610,1200.0,0.36675593,0.046771377,1.0677806,0.0,255,0,6,4,0,0,0,1,1,1,36
226321334,225315610,1200.0,0.36675593,0.020932639,1.1193978,0.0,255,0,6,4,0,0,0,1,1,1,36
226391485,226383181,1200.0,0.36675593,0.020932639,1.1193978,0.0,255,0,6,4,0,0,0,1,1,1,36
227356203,227355130,1200.0,0.36675593,0.020890055,0.99675405,0.0,255,0,6,4,0,0,0,1,1,1,36
228356298,227355130,1200.0,0.36675593,0.020903176,1.326854,0.0,255,0,6,4,0,0,0,1,1,1,36
228418347,228414446,1200.0,0.36675593,0.020903176,1.326854,0.0,255,0,6,4,0,0,0,1,1,1,36
229302770,229302543,1200.0,0.36675593,0.020937208,1.0169501,0.0,255,0,6,4,0,0,0,1,1,1,36
230310163,229302543,1200.0,0.36675593,0.020912752,0.933107,0.0,255,0,6,4,0,0,0,1,1,1,36
230341184,230331160,1200.0,0.36675593,0.020912752,0.933107,0.0,255,0,6,4,0,0,0,1,1,1,36
231343430,230331160,1200.0,0.36675593,0.020919917,1.255195,0.0,255,0,6,4,0,0,0,1,1,1,36
231383577,231375963,1200.0,0.36675593,0.020919917,1.255195,0.0,255,0,6,4,0,0,0,1,1,1,36
232300247,232295210,1200.0,0.36675593,0.02088939,0.9927434,0.0,255,0,6,4,0,0,0,1,1,1,36
233305232,232295210,1200.0,0.36675593,0.020833995,1.1974586,0.0,255,0,6,4,0,0,0,1,1,1,36
233355194,233353235,1200.0,0.36675593,0.020833995,1.1974586,0.0,255,0,6,4,0,0,0,1,1,1,36
234363350,233353235,1200.0,0.36675593,0.0469185,0.9922764,0.0,255,0,6,4,0,0,0,1,1,1,36
234395389,234395249,1200.0,0.36675593,0.0469185,0.9922764,0.0,255,0,6,4,0,0,0,1,1,1,36
235402463,234395249,1200.0,0.36675593,0.020868259,1.0563313,0.0,255,0,6,4,0,0,0,1,1,1,36
235482396,235480076,1200.0,0.36675593,0.020868259,1.0563313,0.0,255,0,6,4,0,0,0,1,1,1,36
236318300,236314034,1200.0,0.36675593,0.020998802,1.016942,0.0,255,0,6,4,0,0,0,1,1,1,36
