timestamp,timestamp_sample,control[0],control[1],control[2],control[3],control[4],control[5],control[6],control[7]
29491141,29491069,-0.0059755472,-0.0052486546,-0.00052168645,0.08,0.0,0.0,0.0,-1.0
29591148,29591068,-0.0051207757,-0.004887993,0.00021788155,0.08,0.0,0.0,0.0,-1.0
29691184,29691102,-0.0050712107,-0.0056679016,-0.000104212355,0.08,0.0,0.0,0.0,-1.0
29795175,29795068,-0.0054908823,-0.0055063292,-0.00019230947,0.08,0.0,0.0,0.0,-1.0
29895165,29895076,-0.0045022005,-0.005515542,5.6923524e-05,0.08,0.0,0.0,0.0,-1.0
29998345,29998269,-0.002580612,-0.0070326137,-0.0013959265,0.08,0.0,0.0,0.0,-1.0
30098372,30098269,-0.006218207,-0.0036695008,-0.0012692887,0.08,0.0,0.0,0.0,-1.0
30198348,30198268,-0.0043346463,-0.005925382,0.0027101561,0.08,0.0,0.0,0.0,-1.0
30302359,30302282,-0.0052949274,-0.0036195577,-0.0010033104,0.08,0.0,0.0,0.0,-1.0
30402371,30402293,-0.006756182,-0.0070094937,-0.0012376615,0.08,0.0,0.0,0.0,-1.0
30506347,30506271,-0.0052277856,-0.007205981,0.0010321456,0.08,0.0,0.0,0.0,-1.0
30605545,30605469,-0.0046671014,-0.005205477,-0.000866566,0.08,0.0,0.0,0.0,-1.0
30709559,30709476,-0.0029371146,-0.006352642,-0.00056162145,0.08,0.0,0.0,0.0,-1.0
30813548,30813468,-0.0035721294,-0.003733588,0.0006774418,0.08,0.0,0.0,0.0,-1.0
30913609,30913507,-0.0056956904,-0.0040384713,-0.0002902578,0.08,0.0,0.0,0.0,-1.0
31017571,31017487,-0.004961533,-0.006441398,-0.0002452842,0.08,0.0,0.0,0.0,-1.0
31117545,31117469,-0.004741015,-0.003059949,-0.00019601212,0.08,0.0,0.0,0.0,-1.0
31216745,31216669,-0.0060534175,-0.0019607255,-0.0004806027,0.08,0.0,0.0,0.0,-1.0
31320760,31320684,-0.0059482157,-0.005349951,-0.00040050416,0.08,0.0,0.0,0.0,-1.0
31420769,31420693,-0.0060114656,-0.003440815,-4.6458295e-05,0.08,0.0,0.0,0.0,-1.0
31524792,31524689,-0.0057779453,-0.004617194,-0.0001302901,0.08,0.0,0.0,0.0,-1.0
31624745,31624669,-0.0049415305,-0.004868666,7.955806e-05,0.08,0.0,0.0,0.0,-1.0
31728029,31727924,-0.004848284,-0.004957587,0.00013960538,0.08,0.0,0.0,0.0,-1.0
31831945,31831869,-0.0045749284,-0.006359693,2.5834455e-05,0.08,0.0,0.0,0.0,-1.0
31931945,31931869,-0.004922454,-0.0036978011,1.148825e-05,0.08,0.0,0.0,0.0,-1.0
32036014,32035869,-0.004676419,-0.0024397224,1.3143561e-05,0.08,0.0,0.0,0.0,-1.0
32135945,32135869,-0.005728535,-0.0045887684,-0.0006186926,0.08,0.0,0.0,0.0,-1.0
32239155,32239073,-0.0041692783,-0.00255646,-0.00010855777,0.08,0.0,0.0,0.0,-1.0
32343151,32343075,-0.004434331,-0.0040552607,-0.00025782193,0.08,0.0,0.0,0.0,-1.0
32443141,32443069,-0.0050429404,-0.003933043,-0.00023330018,0.08,0.0,0.0,0.0,-1.0
32547210,32547100,-0.004824265,-0.0055044014,-0.00021677483,0.08,0.0,0.0,0.0,-1.0
32647182,32647091,-0.0027191686,-0.0040659583,0.00034879937,0.08,0.0,0.0,0.0,-1.0
32747151,32747070,-0.0023791871,-0.0045342348,-0.0006889215,0.08,0.0,0.0,0.0,-1.0
32850427,32850309,-0.0070804027,-0.0032067492,-0.000543658,0.08,0.0,0.0,0.0,-1.0
32950345,32950269,-0.0014935178,-0.004388394,-0.00069083093,0.08,0.0,0.0,0.0,-1.0
33054350,33054274,-0.008322488,0.00051271974,0.00010603232,0.08,0.0,0.0,0.0,-1.0
33158368,33158291,-0.008364251,-0.004066076,-0.00027843926,0.08,0.0,0.0,0.0,-1.0
33257573,33257486,-0.0020026604,-0.0040886593,-0.0008719973,0.08,0.0,0.0,0.0,-1.0
33361572,33361469,-0.007585735,-0.005881504,0.00017384789,0.08,0.0,0.0,0.0,-1.0
33461545,33461468,-0.0071107782,-0.0043047415,-7.455364e-05,0.08,0.0,0.0,0.0,-1.0
33565552,33565469,-0.004824748,-0.0042724726,-0.0008430411,0.08,0.0,0.0,0.0,-1.0
33665584,33665471,-0.0068125646,-0.0034822423,-0.00038007673,0.08,0.0,0.0,0.0,-1.0
33765580,33765469,-0.0012796063,-0.0021390312,0.00047057946,0.08,0.0,0.0,0.0,-1.0
33867992,33867915,-0.009764907,-0.0058858492,2.2317623e-05,0.08,0.0,0.0,0.0,-1.0
33968773,33968696,-0.0058767563,-0.008391103,-0.0004740979,0.08,0.0,0.0,0.0,-1.0
34072775,34072669,-0.005231357,-0.007227374,-0.00037397628,0.08,0.0,0.0,0.0,-1.0
34176765,34176685,-0.0072701704,-0.007097532,-0.0004403459,0.08,0.0,0.0,0.0,-1.0
34276814,34276697,-0.0058301613,-0.0054415343,-1.94509e-05,0.08,0.0,0.0,0.0,-1.0
34379946,34379870,-0.0052976245,-0.004858748,-0.00078813155,0.08,0.0,0.0,0.0,-1.0
34479990,34479906,-0.0038612252,-0.0060659763,-0.00032730045,0.08,0.0,0.0,0.0,-1.0
34583952,34583875,-0.0020968777,-0.008074296,-0.00014806468,0.08,0.0,0.0,0.0,-1.0
34683951,34683875,-0.005596687,-0.005631563,-0.00049767905,0.08,0.0,0.0,0.0,-1.0
34783975,34783899,-0.00721141,-0.001586752,-0.0006295482,0.08,0.0,0.0,0.0,-1.0
34887949,34887869,-0.010183797,-0.004395325,-0.00037193697,0.08,0.0,0.0,0.0,-1.0
34987148,34987068,-0.004100438,-0.0040717456,-9.237634e-05,0.08,0.0,0.0,0.0,-1.0
35091181,35091075,-0.006829411,-0.0010551644,-0.00012563672,0.08,0.0,0.0,0.0,-1.0
35191148,35191068,-0.006376518,-0.0027021796,-0.00049786497,0.08,0.0,0.0,0.0,-1.0
35291155,35291084,-0.0012843881,-0.0061173337,-0.000106250045,0.08,0.0,0.0,0.0,-1.0
35395180,35395101,-0.0015990762,-0.003476285,-0.00014488996,0.08,0.0,0.0,0.0,-1.0
35494348,35494269,-0.0018399378,-0.008716619,-0.00040138155,0.08,0.0,0.0,0.0,-1.0
35598345,35598269,-0.0040604854,-0.0045194062,-0.000613886,0.08,0.0,0.0,0.0,-1.0
35698385,35698268,-0.0016817069,-0.004661144,-0.00039830894,0.08,0.0,0.0,0.0,-1.0
35798392,35798268,-8.887135e-05,-0.004674425,-0.0002957404,0.08,0.0,0.0,0.0,-1.0
35902352,35902275,0.0016633584,-0.0026850037,-0.00075786957,0.08,0.0,0.0,0.0,-1.0
36000826,36000713,0.002889396,-0.0063535543,-0.00017773877,0.08,0.0,0.0,0.0,-1.0
36105548,36105468,-0.00085842895,-0.0048011253,-0.00013804068,0.08,0.0,0.0,0.0,-1.0
36205564,36205469,-0.002089207,-0.0017122258,-0.0004964465,0.08,0.0,0.0,0.0,-1.0
36309615,36309505,0.0013655,-0.004545328,-0.00042307968,0.08,0.0,0.0,0.0,-1.0
36409552,36409475,-0.002048259,-0.0076067145,-0.00039587574,0.08,0.0,0.0,0.0,-1.0
36509557,36509481,-0.0057617775,-0.0043032817,-0.000117256444,0.08,0.0,0.0,0.0,-1.0
36612843,36612733,-0.0015393766,-0.0038220922,-0.0002559936,0.08,0.0,0.0,0.0,-1.0
36712834,36712687,-0.0016374062,-0.006404896,-0.00019992876,0.08,0.0,0.0,0.0,-1.0
36816766,36816690,-0.0029433374,-0.007022783,-0.00038235178,0.08,0.0,0.0,0.0,-1.0
36916745,36916669,-0.0038419166,-0.0055014263,-0.00029109072,0.08,0.0,0.0,0.0,-1.0
37016762,37016680,-0.0077000903,-0.0038895388,-0.0006802288,0.08,0.0,0.0,0.0,-1.0
37119946,37119869,-0.0037103354,-0.0059601143,-0.00031952705,0.08,0.0,0.0,0.0,-1.0
37219963,37219883,-0.005844347,-0.007060738,-0.0003103309,0.08,0.0,0.0,0.0,-1.0
37323945,37323869,-0.0046185567,-0.0029360708,-0.00012106625,0.08,0.0,0.0,0.0,-1.0
37427963,37427883,-0.010455075,-0.005820721,-0.00056379894,0.08,0.0,0.0,0.0,-1.0
37527978,37527901,-0.0024612865,-0.008021095,-0.0007231614,0.08,0.0,0.0,0.0,-1.0
37631945,37631869,-0.008348565,-0.0064179283,-0.00042342683,0.08,0.0,0.0,0.0,-1.0
37731178,37731069,-0.005600579,-0.003296925,-0.00018729521,0.08,0.0,0.0,0.0,-1.0
37835189,37835069,-0.01046165,-0.006413103,-0.0006084484,0.08,0.0,0.0,0.0,-1.0
37935148,37935068,-0.0044581983,-0.0052446043,-0.00048263228,0.08,0.0,0.0,0.0,-1.0
38035189,38035101,-0.0059017357,-0.0033918403,-0.00029321737,0.08,0.0,0.0,0.0,-1.0
38139149,38139069,-0.00893252,-0.004617164,-0.0005465099,0.08,0.0,0.0,0.0,-1.0
38241587,38241497,-0.009267751,-0.008322652,-0.00017186544,0.08,0.0,0.0,0.0,-1.0
38342393,38342316,-0.006762846,-0.0032099967,-0.00019623265,0.08,0.0,0.0,0.0,-1.0
38442393,38442275,-0.0053729657,-0.004495925,-0.00032944928,0.08,0.0,0.0,0.0,-1.0
38542352,38542275,-0.0052568386,-0.0038451562,-0.00020225979,0.08,0.0,0.0,0.0,-1.0
38646348,38646269,-0.0066524306,-0.00451105,-0.0003647039,0.08,0.0,0.0,0.0,-1.0
38748791,38748714,-0.0049391747,-0.008085287,-0.0003316869,0.08,0.0,0.0,0.0,-1.0
38850349,38850269,-0.0041476283,-0.004892467,3.607439e-05,0.08,0.0,0.0,0.0,-1.0
38953592,38953489,-0.0033132269,-0.005058983,-0.00030629832,0.08,0.0,0.0,0.0,-1.0
39053552,39053469,-0.0023075277,0.00023894719,-0.00027642443,0.08,0.0,0.0,0.0,-1.0
39157552,39157475,-0.0014001287,-0.0060402337,-0.00060922856,0.08,0.0,0.0,0.0,-1.0
39257563,39257486,-0.002608798,0.00079701585,-5.646697e-05,0.08,0.0,0.0,0.0,-1.0
39360782,39360669,-0.0031266168,-0.00423544,-0.0003924657,0.08,0.0,0.0,0.0,-1.0
39460772,39460683,-0.00580865,-0.006613847,-0.00037048387,0.08,0.0,0.0,0.0,-1.0
39560777,39560701,-0.0069846264,-0.0056812773,-0.00019004899,0.08,0.0,0.0,0.0,-1.0
39664770,39664693,-0.0011794925,-0.005403615,-0.00015944483,0.08,0.0,0.0,0.0,-1.0
39764745,39764669,-0.006517391,-0.0055187363,-0.00034824532,0.08,0.0,0.0,0.0,-1.0
39868746,39868669,-0.00589629,-0.0031467376,-0.00034698434,0.08,0.0,0.0,0.0,-1.0
39967945,39967869,-0.0036584393,-0.007421826,-0.00056029775,0.08,0.0,0.0,0.0,-1.0
40071995,40071911,-0.0015992323,-0.005226492,-5.5547775e-05,0.08,0.0,0.0,0.0,-1.0
40171972,40171869,-0.0031974628,-0.0049319924,-0.00054739945,0.08,0.0,0.0,0.0,-1.0
40271945,40271869,-0.01077583,-0.0026275087,-0.00052926823,0.08,0.0,0.0,0.0,-1.0
40375209,40375126,-0.0040393495,-0.0044785975,-0.00017870565,0.08,0.0,0.0,0.0,-1.0
40475174,40475068,-0.008298931,-0.0021346163,-0.0005593698,0.08,0.0,0.0,0.0,-1.0
40579149,40579069,-0.009510743,-0.0008614678,-0.00061888923,0.08,0.0,0.0,0.0,-1.0
40683168,40683069,-0.008833879,-0.003984116,-0.00055180275,0.08,0.0,0.0,0.0,-1.0
40783155,40783075,-0.0053195264,-0.0033560852,-0.00036069506,0.08,0.0,0.0,0.0,-1.0
40887152,40887069,0.00046086224,-0.0049203634,-0.00011301896,0.08,0.0,0.0,0.0,-1.0
40986383,40986269,-0.003446722,-0.0042788987,-0.00042796732,0.08,0.0,0.0,0.0,-1.0
41090353,41090275,-0.0084700305,-0.0027169397,-0.00026604533,0.08,0.0,0.0,0.0,-1.0
41190356,41190280,-0.0032005762,-0.00726081,-9.344811e-06,0.08,0.0,0.0,0.0,-1.0
41290362,41290283,-0.010926459,-0.007870726,-0.00040145285,0.08,0.0,0.0,0.0,-1.0
41394345,41394269,-0.0037744811,-0.0024273281,-0.00038792644,0.08,0.0,0.0,0.0,-1.0
41493579,41493503,-0.012384331,-0.006767663,-0.00020433115,0.08,0.0,0.0,0.0,-1.0
41597551,41597475,-0.0043673664,-0.007998535,-0.00048816713,0.08,0.0,0.0,0.0,-1.0
41697548,41697468,-0.00299996,-0.003794001,-0.00053313264,0.08,0.0,0.0,0.0,-1.0
41797552,41797469,-0.004959953,-0.0058128703,-0.0005004779,0.08,0.0,0.0,0.0,-1.0
41901572,41901469,-0.0041671963,-0.0047434573,1.2828136e-05,0.08,0.0,0.0,0.0,-1.0
42001582,42001469,-0.0016446627,-0.0049188854,-0.0003302225,0.08,0.0,0.0,0.0,-1.0
42103995,42103915,-0.0060686064,0.0021429781,-0.00037069523,0.08,0.0,0.0,0.0,-1.0
42204772,42204669,-0.00093917694,-0.0026766467,-0.0006491476,0.08,0.0,0.0,0.0,-1.0
42304745,42304669,-0.01021554,-0.0030622766,-9.3931914e-05,0.08,0.0,0.0,0.0,-1.0
42408784,42408707,-0.0033993423,-0.006732272,-0.0003634921,0.08,0.0,0.0,0.0,-1.0
42508798,42508722,-0.0013923706,-0.0066201966,-0.0005671984,0.08,0.0,0.0,0.0,-1.0
42612817,42612698,0.00044575235,-0.005072386,-0.0005701333,0.08,0.0,0.0,0.0,-1.0
42711945,42711869,-0.0044005616,-0.007232627,-9.722128e-05,0.08,0.0,0.0,0.0,-1.0
42815954,42815875,-0.0004956723,-0.007514331,-0.00012603188,0.08,0.0,0.0,0.0,-1.0
42919945,42919868,0.0013412335,-0.005191631,-0.00037352624,0.08,0.0,0.0,0.0,-1.0
43019945,43019869,-0.0039004234,-0.0066178422,-0.00061524764,0.08,0.0,0.0,0.0,-1.0
43123148,43123068,-0.0031342055,-0.005058644,-0.0003217201,0.08,0.0,0.0,0.0,-1.0
43223946,43223869,0.00067498675,-0.0037013371,1.7323371e-05,0.08,0.0,0.0,0.0,-1.0
43327165,43327088,-0.006951514,-0.0030721668,-0.0004244189,0.08,0.0,0.0,0.0,-1.0
43427150,43427070,-0.00094382203,-0.005828846,-0.00068855676,0.08,0.0,0.0,0.0,-1.0
43527185,43527069,-0.0046761385,-0.0035201663,-4.278924e-06,0.08,0.0,0.0,0.0,-1.0
43631232,43631076,-0.0018116831,-0.0039113006,-0.00031166963,0.08,0.0,0.0,0.0,-1.0
43730359,43730275,-0.006289157,-0.009143699,-0.00070830144,0.08,0.0,0.0,0.0,-1.0
43834379,43834302,-0.004661373,-0.0063681263,-0.00070505484,0.08,0.0,0.0,0.0,-1.0
43934366,43934290,-0.0065014376,-0.005992101,-1.3872488e-05,0.08,0.0,0.0,0.0,-1.0
44034408,44034269,-0.007065167,-0.001464824,-0.0004516566,0.08,0.0,0.0,0.0,-1.0
44138365,44138289,-0.009025203,-0.008500933,-0.00038184607,0.08,0.0,0.0,0.0,-1.0
44237594,44237518,-0.0052485913,-0.0040273485,-0.00029307883,0.08,0.0,0.0,0.0,-1.0
44341545,44341469,-0.009258145,-0.006792293,9.678025e-05,0.08,0.0,0.0,0.0,-1.0
44441551,44441469,-0.007928104,-0.0033645923,-0.0003695675,0.08,0.0,0.0,0.0,-1.0
44541560,44541476,-0.0022270826,-0.0049852477,-0.00036340725,0.08,0.0,0.0,0.0,-1.0
44645559,44645480,-0.005314143,-0.002278641,-0.00054501573,0.08,0.0,0.0,0.0,-1.0
44745545,44745469,-0.0049802004,-0.0035657126,-0.00026074942,0.08,0.0,0.0,0.0,-1.0
44848790,44848668,-0.0010414222,-0.0050040944,-0.0003289059,0.08,0.0,0.0,0.0,-1.0
44948755,44948675,-0.0025482352,-0.0023801932,-0.00037279617,0.08,0.0,0.0,0.0,-1.0
45048776,45048700,-0.0039241742,-0.002183381,-0.0006531673,0.08,0.0,0.0,0.0,-1.0
45152779,45152672,-0.0061939065,-0.0018746308,-5.5138098e-05,0.08,0.0,0.0,0.0,-1.0
45252816,45252668,-0.0055684946,-0.0019008638,-8.74556e-05,0.08,0.0,0.0,0.0,-1.0
45356749,45356669,-0.0043812343,-0.004525436,-0.0007079543,0.08,0.0,0.0,0.0,-1.0
45456020,45455913,-0.004317191,-0.0033768865,-3.663629e-05,0.08,0.0,0.0,0.0,-1.0
45559982,45559869,-0.001083391,-0.0042398046,-0.00026289254,0.08,0.0,0.0,0.0,-1.0
45664016,45663896,0.00049309357,-0.007947277,6.619498e-05,0.08,0.0,0.0,0.0,-1.0
45763972,45763869,0.00037705363,-0.0056997775,-0.00054801017,0.08,0.0,0.0,0.0,-1.0
45867945,45867869,-0.0008898615,-0.00681361,-0.00034863706,0.08,0.0,0.0,0.0,-1.0
45967201,45967115,-0.0022346973,-0.008171213,-3.7812173e-05,0.08,0.0,0.0,0.0,-1.0
46067211,46067069,-0.0033274475,-0.0073455367,-1.1924467e-05,0.08,0.0,0.0,0.0,-1.0
46171172,46171087,-0.0061833737,-0.0052321544,-0.00075508084,0.08,0.0,0.0,0.0,-1.0
46271150,46271070,-0.00020213987,-0.004237392,-0.00018498486,0.08,0.0,0.0,0.0,-1.0
46375148,46375068,-0.004667225,-0.00278264,4.932452e-05,0.08,0.0,0.0,0.0,-1.0
46478348,46478271,-0.0037188088,-0.005125152,-0.0003245926,0.08,0.0,0.0,0.0,-1.0
46578383,46578269,-0.006054658,-0.0051990617,-0.0002869521,0.08,0.0,0.0,0.0,-1.0
46682361,46682285,-0.0038782512,-0.004223935,-0.0005089468,0.08,0.0,0.0,0.0,-1.0
46782387,46782311,-0.0027320606,-0.0040338016,-0.00011448476,0.08,0.0,0.0,0.0,-1.0
46886348,46886268,-0.0016905237,-0.0037537625,-0.00024914008,0.08,0.0,0.0,0.0,-1.0
46987149,46987069,-0.0043905117,-0.009595144,-0.00041813395,0.08,0.0,0.0,0.0,-1.0
47089594,47089469,-0.005794477,-0.0058231456,-0.00013395793,0.08,0.0,0.0,0.0,-1.0
47189589,47189468,-0.0037822868,-0.0069196997,-0.00034280468,0.08,0.0,0.0,0.0,-1.0
47289584,47289507,-0.005565579,-0.0060175154,-0.00026195907,0.08,0.0,0.0,0.0,-1.0
47393563,47393486,-0.008349629,-0.005058698,-0.00035604238,0.08,0.0,0.0,0.0,-1.0
47493572,47493469,-0.0067226607,-0.0048638848,-0.00046668583,0.08,0.0,0.0,0.0,-1.0
47596745,47596669,-0.008499337,-0.0032149223,-6.6181376e-05,0.08,0.0,0.0,0.0,-1.0
47696810,47696696,-0.0072806175,-0.0045449897,-8.014767e-05,0.08,0.0,0.0,0.0,-1.0
47796806,47796686,-0.0032294544,-0.0025919292,-0.0004594399,0.08,0.0,0.0,0.0,-1.0
47900745,47900669,-0.0046712416,-0.0033106408,-0.00043014847,0.08,0.0,0.0,0.0,-1.0
48000745,48000669,0.00048710144,-0.005595138,-0.00023021868,0.08,0.0,0.0,0.0,-1.0
48103951,48103875,-0.000311702,-0.006628578,-0.00014725247,0.08,0.0,0.0,0.0,-1.0
48203970,48203894,0.00083410327,-0.006959203,-0.00013971444,0.08,0.0,0.0,0.0,-1.0
48303948,48303869,-0.006056619,-0.004156922,-0.0008523441,0.08,0.0,0.0,0.0,-1.0
48407945,48407869,-0.005591526,-0.0053645414,-0.00015940914,0.08,0.0,0.0,0.0,-1.0
48507948,48507868,-0.0054304716,-0.0037784758,-0.00056403806,0.08,0.0,0.0,0.0,-1.0
48610425,48610321,-0.008657172,-0.006246544,-0.0006743042,0.08,0.0,0.0,0.0,-1.0
48711229,48711111,-0.006044719,-0.0040670168,5.637506e-05,0.08,0.0,0.0,0.0,-1.0
48815157,48815085,-0.007216844,-0.0039462824,-0.00049327256,0.08,0.0,0.0,0.0,-1.0
48919171,48919086,-0.0053599197,-0.0068181474,-0.00022583998,0.08,0.0,0.0,0.0,-1.0
49019148,49019076,-0.0046623475,-0.005565328,-0.000258347,0.08,0.0,0.0,0.0,-1.0
49123161,49123080,-0.0025130352,-0.005868458,-0.00047673454,0.08,0.0,0.0,0.0,-1.0
49222388,49222268,-0.006578413,-0.001864745,-0.0002606633,0.08,0.0,0.0,0.0,-1.0
50037589,50037475,-0.008950738,-0.0058431095,-3.5772817e-05,0.08,0.0,0.0,0.0,-1.0
50544752,50544675,-0.0056183874,-0.0028828299,-2.2484484e-05,0.08,0.0,0.0,0.0,-1.0
50648745,50648669,-0.0063262954,-0.0041694995,-0.0002980488,0.08,0.0,0.0,0.0,-1.0
50748745,50748669,-0.0030375833,-0.009060006,-0.00063602504,0.08,0.0,0.0,0.0,-1.0
50852026,50851875,-0.004605903,-0.0041345255,-9.668183e-05,0.08,0.0,0.0,0.0,-1.0
50951945,50951869,-0.006853153,-0.0073907524,-0.00013723136,0.08,0.0,0.0,0.0,-1.0
51051945,51051869,-0.0065906537,-0.0040642284,-0.0003744666,0.08,0.0,0.0,0.0,-1.0
51155966,51155890,-0.009962128,-0.0055099903,-0.00033617418,0.08,0.0,0.0,0.0,-1.0
51255985,51255905,-0.010926231,-0.010741103,-0.00018159398,0.08,0.0,0.0,0.0,-1.0
51359188,51359075,-0.0040510097,-0.0053024353,-0.00038033092,0.08,0.0,0.0,0.0,-1.0
51459149,51459069,-0.0060327803,-0.0053405743,-0.00046051407,0.08,0.0,0.0,0.0,-1.0
51559169,51559090,-0.009324137,-0.0027106232,-3.3865344e-05,0.08,0.0,0.0,0.0,-1.0
51663148,51663068,-0.006995197,-0.006480571,-0.0001825657,0.08,0.0,0.0,0.0,-1.0
51763155,51763075,-0.00082224305,-0.0050385166,-0.00022326839,0.08,0.0,0.0,0.0,-1.0
51866352,51866276,-0.0026185021,-0.0045067235,-0.00051435264,0.08,0.0,0.0,0.0,-1.0
51966351,51966268,-0.008680546,-0.0033374934,-9.223307e-05,0.08,0.0,0.0,0.0,-1.0
52066345,52066269,-0.0033828611,-0.00029903091,-3.2429277e-06,0.08,0.0,0.0,0.0,-1.0
52170401,52170287,-0.008830178,-0.0011520588,-0.00046040883,0.08,0.0,0.0,0.0,-1.0
52270352,52270275,-0.0033068387,-0.0010803731,-0.0005229502,0.08,0.0,0.0,0.0,-1.0
52374351,52374268,-0.0046041175,-0.0033479307,-0.00011647324,0.08,0.0,0.0,0.0,-1.0
52474373,52474296,-0.0018961128,-0.0022814216,-4.6694007e-05,0.08,0.0,0.0,0.0,-1.0
52577559,52577475,-0.005957862,-0.003998114,-0.00012874948,0.08,0.0,0.0,0.0,-1.0
52677545,52677469,-0.0018312273,-0.00435564,-0.00038951985,0.08,0.0,0.0,0.0,-1.0
52777555,52777477,-0.0043767123,-0.0035404467,-0.0002810374,0.08,0.0,0.0,0.0,-1.0
52881548,52881468,-0.0053549316,-0.003742548,-0.0002017918,0.08,0.0,0.0,0.0,-1.0
52981537,52981468,-0.0005985923,-0.004630711,-0.0005404789,0.08,0.0,0.0,0.0,-1.0
53084749,53084668,-0.0014514351,-0.0067007258,7.726382e-05,0.08,0.0,0.0,0.0,-1.0
53184745,53184669,-0.002002951,-0.0026789133,-0.00020645205,0.08,0.0,0.0,0.0,-1.0
53284748,53284669,-0.006083856,-0.008994694,-0.00042976436,0.08,0.0,0.0,0.0,-1.0
53388827,53388669,-0.003406501,-0.00038427956,-0.00053350977,0.08,0.0,0.0,0.0,-1.0
53491155,53491083,-0.0007818111,-0.0061789467,-9.9053424e-05,0.08,0.0,0.0,0.0,-1.0
53591945,53591869,-0.008199679,-0.007054977,-0.00018915854,0.08,0.0,0.0,0.0,-1.0
53691986,53691868,-0.0029089544,-0.0060095917,6.762155e-06,0.08,0.0,0.0,0.0,-1.0
53792034,53791869,-0.0047699963,-0.0062497966,-0.0002512526,0.08,0.0,0.0,0.0,-1.0
53895988,53895875,-0.005604893,-0.0028975492,-0.00039070935,0.08,0.0,0.0,0.0,-1.0
53995980,53995904,-0.0033839208,-0.0055323415,-0.00028021436,0.08,0.0,0.0,0.0,-1.0
54096793,54096710,-0.0018660314,-0.0038616762,-0.00042985877,0.08,0.0,0.0,0.0,-1.0
54199148,54199068,-0.0040597254,-0.0008823579,-5.802907e-05,0.08,0.0,0.0,0.0,-1.0
54303239,54303119,0.0019407098,0.0032733495,-0.00017664015,0.08,0.0,0.0,0.0,-1.0
54403168,54403087,-0.003999193,-0.0023175804,-0.00041980436,0.08,0.0,0.0,0.0,-1.0
54503162,54503069,-0.004505384,-0.00330844,-0.00031587918,0.08,0.0,0.0,0.0,-1.0
54607183,54607069,-0.006986033,-0.0013961609,-0.0003026744,0.08,0.0,0.0,0.0,-1.0
54706345,54706269,-0.0028260692,-0.00643556,-0.00025131594,0.08,0.0,0.0,0.0,-1.0
54810345,54810269,-0.0038637512,-0.00168469,-0.00032902672,0.08,0.0,0.0,0.0,-1.0
54910348,54910278,-0.0069246376,-0.0016196456,-0.00025358592,0.08,0.0,0.0,0.0,-1.0
55010379,55010275,-0.007584323,-0.007955899,-0.00015870419,0.08,0.0,0.0,0.0,-1.0
55114348,55114268,-0.0055789263,-0.00614137,-0.00040093585,0.08,0.0,0.0,0.0,-1.0
55213595,55213518,-0.011297686,-0.0060041053,-0.0003261652,0.08,0.0,0.0,0.0,-1.0
55317548,55317468,-0.0069560036,-0.0046229586,4.281792e-05,0.08,0.0,0.0,0.0,-1.0
55417545,55417469,-0.009927299,-0.0046096067,0.00017307354,0.08,0.0,0.0,0.0,-1.0
55517552,55517469,-0.0010248389,-0.0064435173,2.7070351e-05,0.08,0.0,0.0,0.0,-1.0
55621544,55621475,-0.0068498454,-0.0069921613,-0.0005429717,0.08,0.0,0.0,0.0,-1.0
55720754,55720675,-0.004273523,-0.0009857304,-0.00013061623,0.08,0.0,0.0,0.0,-1.0
55824822,55824668,-0.007910468,-0.0031699545,8.333161e-06,0.08,0.0,0.0,0.0,-1.0
55924745,55924669,-0.0028916383,-0.0032779502,-0.00031230092,0.08,0.0,0.0,0.0,-1.0
56024745,56024669,-0.00087982044,-0.0043994016,-0.00011210093,0.08,0.0,0.0,0.0,-1.0
56128759,56128682,4.037633e-05,-0.0037177147,-1.3023013e-05,0.0,0.0,0.0,0.0,-1.0
56228014,56227869,-0.0074471184,-0.0060712043,-0.0004873199,0.08,0.0,0.0,0.0,-1.0
56331982,56331869,-0.0009277315,-0.0043810694,0.0003937731,0.08,0.0,0.0,0.0,-1.0
56431979,56431903,-0.009357209,-0.0052014785,-0.00040575032,0.08,0.0,0.0,0.0,-1.0
56535946,56535869,-0.009330517,-0.0021908407,-0.00048483023,0.08,0.0,0.0,0.0,-1.0
56635945,56635869,-0.008391334,-0.0057647782,-0.00036729703,0.08,0.0,0.0,0.0,-1.0
56735945,56735869,-0.007111942,-0.0048986366,-0.0004498884,0.08,0.0,0.0,0.0,-1.0
56839180,56839087,-0.0073142536,-0.003533477,-4.5066667e-05,0.08,0.0,0.0,0.0,-1.0
56939148,56939068,0.0011016071,-0.004577325,-0.00032218476,0.08,0.0,0.0,0.0,-1.0
57043191,57043069,-0.0052197278,-0.003962232,-0.00062576466,0.08,0.0,0.0,0.0,-1.0
57143148,57143069,-0.0015904709,-0.0033413712,0.00029114116,0.0,0.0,0.0,0.0,-1.0
57243183,57243101,-0.006230462,-0.005227076,-0.0004472917,0.0,0.0,0.0,0.0,-1.0
57347141,57347069,-0.0073667793,-0.0034534624,-0.00017574284,0.0,0.0,0.0,0.0,-1.0
57447175,57447091,-0.0021372563,-0.0044978876,0.0003480072,0.0,0.0,0.0,0.0,-1.0
57550345,57550269,-0.005946866,-0.0021339732,-0.0001494125,0.0,0.0,0.0,0.0,-1.0
57650353,57650276,-0.007151148,-0.0012530906,-0.00093093095,0.0,0.0,0.0,0.0,-1.0
57750385,57750309,-0.005056274,-0.004564058,-0.00025817697,0.0,0.0,0.0,0.0,-1.0
57853548,57853468,-0.0053375135,-0.0061293086,-9.578272e-05,0.0,0.0,0.0,0.0,-1.0
57953552,57953469,-0.0044474443,-0.0036077132,-0.00036122408,0.0,0.0,0.0,0.0,-1.0
58057549,58057468,-0.008543279,-0.003021414,-8.0038844e-05,0.0,0.0,0.0,0.0,-1.0
58157547,58157468,-0.0062845936,-0.0049707396,4.9618742e-05,0.0,0.0,0.0,0.0,-1.0
58261595,58261512,-0.0060141925,-0.005480749,-5.468927e-05,0.0,0.0,0.0,0.0,-1.0
58365545,58365469,-0.0058106524,-0.0048677297,-0.00071409286,0.0,0.0,0.0,0.0,-1.0
58467150,58467077,-0.00539354,-0.0056040613,-0.0024144163,0.0,0.0,0.0,0.0,-1.0
58568745,58568669,-0.0056212037,-0.005257001,0.002008526,0.0,0.0,0.0,0.0,-1.0
58668745,58668669,-0.00601376,-0.0049994495,-0.0007373589,0.0,0.0,0.0,0.0,-1.0
58768748,58768668,-0.0058807433,-0.004391949,-0.00072221074,0.0,0.0,0.0,0.0,-1.0
58872821,58872686,-0.005480038,-0.0046035615,0.00090740755,0.0,0.0,0.0,0.0,-1.0
58972803,58972694,-0.005415712,-0.004521948,-0.0005822831,0.0,0.0,0.0,0.0,-1.0
59075994,59075918,-0.0056080264,-0.00506438,-0.00034079066,0.0,0.0,0.0,0.0,-1.0
59175983,59175869,-0.0060039214,-0.005045207,7.1895505e-05,0.0,0.0,0.0,0.0,-1.0
59279952,59279875,-0.0056942883,-0.0050036763,-0.0004049794,0.0,0.0,0.0,0.0,-1.0
59383945,59383869,-0.0058612283,-0.0045294412,4.975091e-05,0.0,0.0,0.0,0.0,-1.0
59484745,59484669,-0.00611878,-0.005158317,0.00017681032,0.0,0.0,0.0,0.0,-1.0
59587172,59587093,-0.00584069,-0.0049318173,-0.00041849512,0.0,0.0,0.0,0.0,-1.0
59687185,59687075,-0.0058109043,-0.005011452,-0.00021657678,0.0,0.0,0.0,0.0,-1.0
59791161,59791084,-0.00580042,-0.0051013967,-2.1113668e-05,0.0,0.0,0.0,0.0,-1.0
59891154,59891070,-0.0049122386,-0.0043309694,-0.0004374011,0.0,0.0,0.0,0.0,-1.0
59991243,59991110,-0.005895393,-0.005350531,0.00030663537,0.0,0.0,0.0,0.0,-1.0
60094355,60094275,-0.0053215334,-0.0054306947,-8.186304e-05,0.0,0.0,0.0,0.0,-1.0
60194349,60194273,-0.0053653703,-0.0050791423,-0.00018924431,0.0,0.0,0.0,0.0,-1.0
60298337,60298268,-0.00515045,-0.005267442,-0.00017633609,0.0,0.0,0.0,0.0,-1.0
60398356,60398269,-0.005158497,-0.004796642,-0.00021066194,0.0,0.0,0.0,0.0,-1.0
60498383,60498269,-0.005048208,-0.0051202774,1.911289e-05,0.0,0.0,0.0,0.0,-1.0
60601545,60601469,-0.0051154527,-0.0052548535,-0.00017237687,0.0,0.0,0.0,0.0,-1.0
60701545,60701469,-0.005986995,-0.0046375818,-0.00012730816,0.0,0.0,0.0,0.0,-1.0
60805592,60805512,-0.0048881043,-0.0053268024,-0.00015066336,0.0,0.0,0.0,0.0,-1.0
60905589,60905475,-0.005331398,-0.0054211705,-6.0190807e-05,0.0,0.0,0.0,0.0,-1.0
61005578,61005494,-0.0055095446,-0.005228757,-0.00033225035,0.0,0.0,0.0,0.0,-1.0
61109577,61109501,-0.0049297255,-0.0050926623,-0.00019015517,0.0,0.0,0.0,0.0,-1.0
61208788,61208712,-0.0055574444,-0.004617319,-0.00015476481,0.0,0.0,0.0,0.0,-1.0
61312781,61312675,-0.005834758,-0.0046150205,-0.00027474572,0.0,0.0,0.0,0.0,-1.0
61412781,61412675,-0.0056043565,-0.004910993,-0.00031836054,0.0,0.0,0.0,0.0,-1.0
61512794,61512688,-0.005083595,-0.005553354,-1.4514807e-05,0.0,0.0,0.0,0.0,-1.0
61616746,61616670,-0.005933208,-0.0050892215,-0.00015609339,0.0,0.0,0.0,0.0,-1.0
61715948,61715868,-0.0056699216,-0.0057638194,-0.000117241056,0.0,0.0,0.0,0.0,-1.0
61819945,61819869,-0.0059117414,-0.0051940777,-0.00022210505,0.0,0.0,0.0,0.0,-1.0
61919945,61919868,-0.0048379814,-0.0057081073,-0.00016576154,0.0,0.0,0.0,0.0,-1.0
62023971,62023869,-0.0046984307,-0.0050005224,-7.12323e-05,0.12,0.0,0.0,0.0,-1.0
62123966,62123890,-0.0038244033,-0.003919454,-0.0004652924,0.12,0.0,0.0,0.0,-1.0
62225620,62225511,-0.003753647,-0.005240906,-4.2633505e-06,0.12,0.0,0.0,0.0,-1.0
62324749,62324669,-0.0053673554,-0.0046567298,0.0011124527,0.13961658,0.0,0.0,0.0,-1.0
62427237,62427116,-0.007811074,-0.0047935173,-0.0019462385,0.17251593,0.0,0.0,0.0,-1.0
62531187,62531069,-0.0015156849,-0.0030345828,-0.00071615045,0.20394623,0.0,0.0,0.0,-1.0
62631166,62631075,-0.009660896,-0.010299142,-2.6350519e-05,0.23789734,0.0,0.0,0.0,-1.0
62734346,62734269,-0.0003586988,-0.01711912,-0.00028098666,0.2783228,0.0,0.0,0.0,-1.0
62834346,62834269,0.003348535,0.039178442,-0.0016333701,0.31099135,0.0,0.0,0.0,-1.0
62934395,62934269,-0.03613177,0.024132881,-0.003148617,0.34496045,0.0,0.0,0.0,-1.0
63038415,63038293,-0.05051756,-0.022538722,0.0023144945,0.38401508,0.0,0.0,0.0,-1.0
63138345,63138268,-0.032851018,0.038838733,-0.0033044189,0.41933304,0.0,0.0,0.0,-1.0
63238348,63238269,0.05863071,-0.09381444,-0.0034084662,0.4318893,0.0,0.0,0.0,-1.0
63341597,63341469,0.010825429,-0.01663092,0.0033946235,0.4218068,0.0,0.0,0.0,-1.0
63441575,63441491,-0.012332064,0.0075079873,-0.0018985111,0.41860825,0.0,0.0,0.0,-1.0
63545590,63545513,0.07696961,0.027653156,-0.0006983633,0.40791768,0.0,0.0,0.0,-1.0
63645587,63645507,0.09301557,0.027924528,0.00074894127,0.418836,0.0,0.0,0.0,-1.0
63749563,63749475,-0.0089105,-0.05686676,0.0036395418,0.41196743,0.0,0.0,0.0,-1.0
63847993,63847916,-0.030605039,-0.12280934,0.0007638398,0.40598494,0.0,0.0,0.0,-1.0
63948784,63948707,-0.020295063,-0.039401226,-0.0011813315,0.40049163,0.0,0.0,0.0,-1.0
64052821,64052713,0.09901176,0.02965838,0.00021538779,0.40167946,0.0,0.0,0.0,-1.0
64152779,64152668,-0.033071972,-0.06792651,0.00020485627,0.38926518,0.0,0.0,0.0,-1.0
64256780,64256675,-0.1375971,-0.026638333,-0.0012478274,0.38417637,0.0,0.0,0.0,-1.0
64356747,64356669,0.10284518,0.014654968,-0.00097441406,0.38529027,0.0,0.0,0.0,-1.0
64459986,64459868,-0.12840492,-0.06830858,-0.0003654293,0.37850922,0.0,0.0,0.0,-1.0
64559988,64559869,0.07311704,0.058174822,-0.00036888797,0.37811396,0.0,0.0,0.0,-1.0
64659946,64659869,0.07284041,0.05834058,-0.0041060485,0.38290474,0.0,0.0,0.0,-1.0
64763953,64763875,0.01003429,-0.06944356,0.0027116998,0.37904924,0.0,0.0,0.0,-1.0
64863247,64863124,-0.07933092,0.0078670485,-0.0033740983,0.37660617,0.0,0.0,0.0,-1.0
64966394,64966316,0.033689518,-0.061801095,-0.0015622638,0.3768354,0.0,0.0,0.0,-1.0
65067152,65067070,-0.12684175,-0.06848338,0.0031329445,0.37726223,0.0,0.0,0.0,-1.0
65167147,65167070,0.0021211714,-0.0027338357,0.003687729,0.3770182,0.0,0.0,0.0,-1.0
65271149,65271068,0.09311899,-0.067257,-0.0014118237,0.37691504,0.0,0.0,0.0,-1.0
65371151,65371069,-0.09396448,-0.006095603,0.0035672018,0.37878558,0.0,0.0,0.0,-1.0
65474406,65474287,0.036939424,-0.04073462,-0.0028998118,0.3759157,0.0,0.0,0.0,-1.0
65574346,65574269,0.09654774,0.018865533,0.00033597092,0.37378868,0.0,0.0,0.0,-1.0
65674359,65674275,0.05664444,-0.023076355,0.0014846798,0.37529194,0.0,0.0,0.0,-1.0
65778356,65778279,-0.040202804,0.10217669,-0.0011144093,0.36687332,0.0,0.0,0.0,-1.0
65878373,65878269,-0.10102462,-0.026226927,-0.0037919048,0.36282974,0.0,0.0,0.0,-1.0
65981571,65981494,0.009520041,-0.021313522,-0.00020819837,0.3617475,0.0,0.0,0.0,-1.0
66081572,66081495,0.031228751,-0.033379294,0.00290927,0.360934,0.0,0.0,0.0,-1.0
66185553,66185469,0.04255915,-0.008209377,0.002199831,0.35135344,0.0,0.0,0.0,-1.0
66285546,66285469,0.092162855,-0.012336783,-0.0013022084,0.34039718,0.0,0.0,0.0,-1.0
66385546,66385469,0.015023676,-0.028341057,0.00089232577,0.32337353,0.0,0.0,0.0,-1.0
66489540,66489469,0.012788566,-0.016320948,0.0017403673,0.30829662,0.0,0.0,0.0,-1.0
66589586,66589508,-0.022579022,-0.017131845,0.004092456,0.28300732,0.0,0.0,0.0,-1.0
66692817,66692669,0.013733168,-0.00049075094,0.0034682425,0.2666155,0.0,0.0,0.0,-1.0
66792776,66792669,0.0093078185,-0.0009256166,0.00071355887,0.0,0.0,0.0,0.0,-1.0
66892779,66892669,-0.0060627414,-0.021923162,-0.00086323806,0.0,0.0,0.0,0.0,-1.0
66996797,66996679,0.010272661,-0.009130571,0.0019252612,0.0,0.0,0.0,0.0,-1.0
67095948,67095869,-0.009239608,-0.010341522,-0.00097153574,0.0,0.0,0.0,0.0,-1.0
67199949,67199869,5.377012e-05,-0.0122968955,0.0015322682,0.0,0.0,0.0,0.0,-1.0
67299945,67299868,-0.005735671,-0.012543539,-0.0004983636,0.0,0.0,0.0,0.0,-1.0
67399998,67399881,-0.0041731168,-0.010229509,0.000869674,0.0,0.0,0.0,0.0,-1.0
67503982,67503869,-0.004688096,-0.01145852,0.0004397869,0.0,0.0,0.0,0.0,-1.0
67603948,67603868,-0.0019488669,-0.008879906,0.0002630695,0.0,0.0,0.0,0.0,-1.0
67707154,67707075,-0.003686354,-0.0116445385,0.0011366939,0.0,0.0,0.0,0.0,-1.0
67807155,67807075,-0.004091302,-0.011368196,0.00016028224,0.0,0.0,0.0,0.0,-1.0
67907185,67907068,-0.0062430426,-0.010222942,0.00052181986,0.0,0.0,0.0,0.0,-1.0
68011217,68011091,-0.0021517396,-0.011813491,0.000247607,0.0,0.0,0.0,0.0,-1.0
68111158,68111078,-0.00474882,-0.011549588,0.00023319639,0.0,0.0,0.0,0.0,-1.0
68214373,68214290,-0.0031613687,-0.01066176,-0.00051448314,0.0,0.0,0.0,0.0,-1.0
68314372,68314269,-0.0043528806,-0.008805107,0.00063624897,0.0,0.0,0.0,0.0,-1.0
68418348,68418268,-0.0040063243,-0.012336472,0.0006465655,0.0,0.0,0.0,0.0,-1.0
68518363,68518284,-0.0039985017,-0.010895754,0.0008205934,0.0,0.0,0.0,0.0,-1.0
68618349,68618270,-0.0045153354,-0.01023234,0.00051729276,0.0,0.0,0.0,0.0,-1.0
68721545,68721469,-0.0033677532,-0.011015738,-0.0011437451,0.0,0.0,0.0,0.0,-1.0
68821555,68821474,-0.0033909061,-0.011230018,0.0013147782,0.0,0.0,0.0,0.0,-1.0
68925545,68925469,-0.0037565688,-0.010499157,-0.00015875814,0.0,0.0,0.0,0.0,-1.0
69025552,69025475,-0.0039989008,-0.010837509,0.0002942325,0.0,0.0,0.0,0.0,-1.0
69125563,69125475,-0.0035910734,-0.010187175,0.0006120188,0.0,0.0,0.0,0.0,-1.0
69228746,69228668,-0.0045618815,-0.010501534,-0.0001416136,0.0,0.0,0.0,0.0,-1.0
69329545,69329469,-0.0037391128,-0.010442679,0.0009777646,0.0,0.0,0.0,0.0,-1.0
69432849,69432703,-0.0037165163,-0.011113839,0.00031461177,0.0,0.0,0.0,0.0,-1.0
69532812,69532669,-0.003683786,-0.0105283465,0.0002833836,0.0,0.0,0.0,0.0,-1.0
69636746,69636669,-0.0038150004,-0.011180279,0.00069652434,0.0,0.0,0.0,0.0,-1.0
69735201,69735076,-0.0045704446,-0.010100728,4.9883354e-05,0.0,0.0,0.0,0.0,-1.0
69836747,69836670,-0.0038048287,-0.010633635,0.00039639545,0.0,0.0,0.0,0.0,-1.0
69939971,69939869,-0.0033968587,-0.011788594,0.00052943407,0.0,0.0,0.0,0.0,-1.0
70039945,70039869,-0.0042653955,-0.010381881,0.00023375495,0.0,0.0,0.0,0.0,-1.0
70143945,70143869,-0.0037232519,-0.010555425,0.0004406096,0.0,0.0,0.0,0.0,-1.0
70243948,70243868,-0.0032831458,-0.010543393,0.00046801643,0.0,0.0,0.0,0.0,-1.0
70343185,70343068,-0.0036542623,-0.010043735,0.0005031034,0.0,0.0,0.0,0.0,-1.0
70447215,70447103,-0.00380947,-0.0108083645,0.00045185484,0.0,0.0,0.0,0.0,-1.0
70547150,70547070,-0.0045795264,-0.010950674,0.00037778402,0.0,0.0,0.0,0.0,-1.0
70650382,70650306,-0.003586106,-0.011065872,0.00020374285,0.0,0.0,0.0,0.0,-1.0
70751181,70751098,-0.0033936186,-0.010996612,0.0005696793,0.0,0.0,0.0,0.0,-1.0
70854345,70854268,-0.0043097693,-0.010890913,0.00025769838,0.0,0.0,0.0,0.0,-1.0
70954352,70954271,-0.0035339533,-0.0109223025,0.00050516636,0.0,0.0,0.0,0.0,-1.0
71054349,71054270,-0.0038569584,-0.010927263,0.00039821304,0.0,0.0,0.0,0.0,-1.0
71158353,71158276,-0.0033465135,-0.010677488,0.0002573847,0.0,0.0,0.0,0.0,-1.0
71258355,71258285,-0.0041742283,-0.0107186865,0.00020952633,0.0,0.0,0.0,0.0,-1.0
71358389,71358318,-0.0045687677,-0.011055144,0.00028026666,0.0,0.0,0.0,0.0,-1.0
71461545,71461469,-0.004064813,-0.010543971,0.000445771,0.0,0.0,0.0,0.0,-1.0
71561552,71561469,-0.0039077452,-0.011275945,0.00022125267,0.0,0.0,0.0,0.0,-1.0
71665583,71665469,-0.00410104,-0.010884625,0.00026578925,0.0,0.0,0.0,0.0,-1.0
71765545,71765469,-0.0042897337,-0.010600902,0.0003656337,0.0,0.0,0.0,0.0,-1.0
71869601,71869512,-0.0039041082,-0.011030915,0.000428036,0.0,0.0,0.0,0.0,-1.0
71968775,71968668,-0.0040032575,-0.010608222,0.000292473,0.0,0.0,0.0,0.0,-1.0
72068745,72068669,-0.0037350117,-0.010775843,0.0004412611,0.0,0.0,0.0,0.0,-1.0
72172783,72172672,-0.004103059,-0.010987691,0.0003071091,0.0,0.0,0.0,0.0,-1.0
72272779,72272673,-0.004203759,-0.010876786,0.00029979902,0.0,0.0,0.0,0.0,-1.0
72376752,72376675,-0.003971506,-0.01043046,0.0005842543,0.0,0.0,0.0,0.0,-1.0
72476792,72476675,-0.003581183,-0.010617721,0.0005286782,0.0,0.0,0.0,0.0,-1.0
72579945,72579869,-0.0037581234,-0.010462198,0.0003124099,0.0,0.0,0.0,0.0,-1.0
72679945,72679869,-0.004050487,-0.010261324,0.00037919136,0.0,0.0,0.0,0.0,-1.0
72779948,72779869,-0.0040299613,-0.010750735,0.00047024112,0.0,0.0,0.0,0.0,-1.0
72883983,72883869,-0.004042089,-0.010303919,0.00054824306,0.0,0.0,0.0,0.0,-1.0
72983964,72983887,-0.0042979284,-0.010740852,0.00014870783,0.0,0.0,0.0,0.0,-1.0
73087148,73087068,-0.004075851,-0.010972484,0.00048083518,0.0,0.0,0.0,0.0,-1.0
73187179,73187096,-0.0036680147,-0.010090471,0.00026874922,0.0,0.0,0.0,0.0,-1.0
73287219,73287096,-0.003867996,-0.010933698,0.00037992402,0.0,0.0,0.0,0.0,-1.0
73391155,73391069,-0.0037219266,-0.010032167,0.0005450858,0.12,0.0,0.0,0.0,-1.0
73491185,73491105,-0.0036400387,-0.010332455,0.0010825146,0.12,0.0,0.0,0.0,-1.0
73595152,73595071,-0.0063369577,-0.0083543,0.0006337549,0.12,0.0,0.0,0.0,-1.0
73694351,73694269,-0.0040427516,-0.010673081,-0.0005761447,0.12546712,0.0,0.0,0.0,-1.0
73794351,73794275,-0.003381446,-0.011428106,0.0012674818,0.15782046,0.0,0.0,0.0,-1.0
73898357,73898279,0.0012778987,-0.010261743,-0.0013065335,0.1918419,0.0,0.0,0.0,-1.0
73998338,73998268,0.0014797783,-0.0038441129,0.00030342987,0.2262358,0.0,0.0,0.0,-1.0
74101600,74101495,-0.009564945,-0.038246814,0.0016359398,0.26159212,0.0,0.0,0.0,-1.0
74201553,74201476,0.012549777,-0.012152642,-0.0005994035,0.29666966,0.0,0.0,0.0,-1.0
74305553,74305469,0.014869814,-0.013424751,0.0006675023,0.33868724,0.0,0.0,0.0,-1.0
74405622,74405508,-0.025620578,-0.05063962,0.00091213523,0.37051952,0.0,0.0,0.0,-1.0
74505566,74505469,-0.085629515,0.054680545,-0.0030236114,0.39748895,0.0,0.0,0.0,-1.0
74608783,74608705,0.023789067,-0.102197446,-0.0022501133,0.44171172,0.0,0.0,0.0,-1.0
74708791,74708714,-0.081303336,-0.054240584,-0.0054204566,0.4746775,0.0,0.0,0.0,-1.0
74812776,74812669,0.05221451,-0.007546598,-0.01184429,0.50827944,0.0,0.0,0.0,-1.0
74912816,74912669,0.06798376,-0.09477976,-0.013749768,0.511667,0.0,0.0,0.0,-1.0
75012785,75012675,0.008115614,-0.064086854,-0.020641638,0.5113629,0.0,0.0,0.0,-1.0
75116746,75116669,0.028169699,-0.0488191,-0.013688419,0.4903415,0.0,0.0,0.0,-1.0
75219332,75219114,-0.1049089,0.011412492,-0.016119126,0.45656794,0.0,0.0,0.0,-1.0
75319991,75319869,-0.016940868,0.021573957,-0.021737115,0.45488727,0.0,0.0,0.0,-1.0
75419968,75419891,0.029788166,0.06539561,-0.0125915725,0.48821306,0.0,0.0,0.0,-1.0
75519953,75519875,-0.029966317,-0.03482211,-0.009012155,0.5276193,0.0,0.0,0.0,-1.0
75623970,75623893,0.024150347,0.005113131,-0.017841442,0.5261766,0.0,0.0,0.0,-1.0
75723225,75723101,-0.004767802,0.005302077,-0.015205051,0.48578256,0.0,0.0,0.0,-1.0
75827165,75827084,-0.11388873,0.0095097395,-0.018346816,0.4789552,0.0,0.0,0.0,-1.0
75927189,75927108,0.02546356,0.047693938,-0.013221454,0.49266338,0.0,0.0,0.0,-1.0
76031148,76031073,0.03779328,0.034776945,-0.0071240566,0.49229395,0.0,0.0,0.0,-1.0
76135183,76135101,-0.033408046,-0.04940769,-0.011763889,0.5052555,0.0,0.0,0.0,-1.0
76235204,76235069,-0.013862169,0.014414831,-0.011602112,0.50694746,0.0,0.0,0.0,-1.0
76338349,76338268,-0.08135732,0.0450969,-0.008859526,0.5095268,0.0,0.0,0.0,-1.0
76438383,76438269,0.015249006,0.049266707,-0.0061673746,0.50828373,0.0,0.0,0.0,-1.0
76538382,76538305,-0.05216629,-0.024160743,-0.007800351,0.5065201,0.0,0.0,0.0,-1.0
76642346,76642269,0.027532995,0.06905777,-0.011598101,0.49351454,0.0,0.0,0.0,-1.0
76742349,76742268,-0.023871036,-0.006316196,-0.011810154,0.49869573,0.0,0.0,0.0,-1.0
76845546,76845469,-0.008793566,-0.06101376,-0.008459368,0.499973,0.0,0.0,0.0,-1.0
76945587,76945469,-0.07808507,-0.04616334,-0.014880624,0.48964357,0.0,0.0,0.0,-1.0
77049609,77049487,-0.03799454,0.016962051,-0.009442331,0.49223217,0.0,0.0,0.0,-1.0
77149559,77149473,0.0859203,-0.07242608,-0.016150896,0.50203943,0.0,0.0,0.0,-1.0
77249552,77249475,0.03220002,0.09115407,-0.013852594,0.50188285,0.0,0.0,0.0,-1.0
77352825,77352715,0.07174911,0.050559603,-0.015807994,0.49417955,0.0,0.0,0.0,-1.0
77452838,77452693,-0.055643752,-0.10632979,-0.014157057,0.50604576,0.0,0.0,0.0,-1.0
77556791,77556713,0.0810549,0.04364685,-0.014235006,0.522039,0.0,0.0,0.0,-1.0
77660778,77660701,-0.0066702184,-0.0646448,-0.011908022,0.5167517,0.0,0.0,0.0,-1.0
77760752,77760675,-0.057315044,-0.08918953,-0.014553471,0.60185295,0.0,0.0,0.0,-1.0
77863977,77863873,-0.03413028,0.027926344,-0.014213854,0.5143058,0.0,0.0,0.0,-1.0
77964784,77964668,0.094610915,0.043529782,-0.01311015,0.4478816,0.0,0.0,0.0,-1.0
78067993,78067875,0.032435767,-0.016794685,-0.014434449,0.46551332,0.0,0.0,0.0,-1.0
78167952,78167875,0.07796629,0.014595168,-0.013657148,0.47224367,0.0,0.0,0.0,-1.0
78267963,78267886,0.0011457549,0.06652649,-0.017222855,0.5067008,0.0,0.0,0.0,-1.0
78371950,78371869,0.059068102,0.030274412,-0.0137902,0.5264018,0.0,0.0,0.0,-1.0
78471182,78471069,0.00046274107,-0.02330905,-0.014463414,0.5151046,0.0,0.0,0.0,-1.0
78575188,78575069,-0.03961821,0.030600281,-0.012905773,0.5045126,0.0,0.0,0.0,-1.0
78675148,78675075,0.03420878,0.040190462,-0.010397974,0.5080561,0.0,0.0,0.0,-1.0
78775184,78775101,-0.0112407,-0.04608656,-0.0103611965,0.5072354,0.0,0.0,0.0,-1.0
78879149,78879068,-0.061548956,-0.052294746,-0.011326517,0.5014975,0.0,0.0,0.0,-1.0
78978389,78978269,0.038399488,0.008506385,-0.011319129,0.50369173,0.0,0.0,0.0,-1.0
79082374,79082296,0.070530094,0.13247722,-0.0095094815,0.509088,0.0,0.0,0.0,-1.0
79182384,79182269,-0.0417801,-0.023361912,-0.008403098,0.52823776,0.0,0.0,0.0,-1.0
79286341,79286269,-0.02130136,-0.068041675,-0.010257541,0.52923226,0.0,0.0,0.0,-1.0
79386357,79386283,-0.019404149,-0.05053363,-0.012033283,0.5113861,0.0,0.0,0.0,-1.0
79488789,79488711,0.07740507,-0.072477594,-0.010605681,0.5052226,0.0,0.0,0.0,-1.0
79589565,79589484,-0.10257721,0.02104738,-0.012741866,0.51421976,0.0,0.0,0.0,-1.0
79689573,79689493,-0.035886906,-0.088524334,-0.010306738,0.5171504,0.0,0.0,0.0,-1.0
79793559,79793475,0.06313357,-0.03287231,-0.008824205,0.5130371,0.0,0.0,0.0,-1.0
79893556,79893475,-0.062352248,-0.043948714,-0.007834259,0.5119784,0.0,0.0,0.0,-1.0
79993546,79993469,-0.00015234061,-0.06908395,-0.006049573,0.5066957,0.0,0.0,0.0,-1.0
80096749,80096672,-0.119284466,0.027448732,-0.010012264,0.50975513,0.0,0.0,0.0,-1.0
80196746,80196669,0.03823658,-0.09276899,-0.008440314,0.51458085,0.0,0.0,0.0,-1.0
80300778,80300701,0.04008339,-0.0153977135,-0.009383393,0.52648014,0.0,0.0,0.0,-1.0
80404748,80404670,-0.056736022,-0.023671895,-0.0077470345,0.5201331,0.0,0.0,0.0,-1.0
80504749,80504668,-0.07176624,0.016870424,-0.0067158956,0.50090575,0.0,0.0,0.0,-1.0
80607990,80607875,0.018226791,0.021377971,-0.01271182,0.5024418,0.0,0.0,0.0,-1.0
80707950,80707869,-0.014353929,0.045421626,-0.013668738,0.5044878,0.0,0.0,0.0,-1.0
80811990,80811907,0.11944551,0.019408138,-0.01013988,0.5063069,0.0,0.0,0.0,-1.0
80911991,80911868,-0.1266483,0.0041987356,-0.00903996,0.5119681,0.0,0.0,0.0,-1.0
81011946,81011869,0.020145485,0.057414856,-0.009026197,0.52760446,0.0,0.0,0.0,-1.0
81114379,81114301,0.06643127,0.03387474,-0.009737259,0.5240388,0.0,0.0,0.0,-1.0
81215185,81215068,0.03287011,0.012499369,-0.010727875,0.50966245,0.0,0.0,0.0,-1.0
81319142,81319069,0.07032069,-0.009861729,-0.010230442,0.5095294,0.0,0.0,0.0,-1.0
81419153,81419069,0.074573524,-0.009497731,-0.010512798,0.51018745,0.0,0.0,0.0,-1.0
81519150,81519077,-0.06622706,-0.043701615,-0.008931969,0.5073166,0.0,0.0,0.0,-1.0
81622392,81622315,0.0042815683,0.026522916,-0.009560854,0.50963366,0.0,0.0,0.0,-1.0
81723174,81723089,-0.07344801,-0.0004081961,-0.010191606,0.5100799,0.0,0.0,0.0,-1.0
81826353,81826275,-0.05360445,-0.0842273,-0.01008948,0.5094007,0.0,0.0,0.0,-1.0
81926352,81926275,0.034786377,-0.066929534,-0.00859421,0.51139766,0.0,0.0,0.0,-1.0
82026346,82026269,0.050162043,0.07981975,-0.010436374,0.51831055,0.0,0.0,0.0,-1.0
82130422,82130285,-0.034481205,-0.0018483168,-0.011543826,0.5251477,0.0,0.0,0.0,-1.0
82229553,82229469,-0.03528914,-0.037113752,-0.012311755,0.51485676,0.0,0.0,0.0,-1.0
82333550,82333469,0.12177863,0.025044765,-0.015269066,0.50134206,0.0,0.0,0.0,-1.0
82433554,82433477,0.013942822,-0.08252942,-0.012063988,0.5087506,0.0,0.0,0.0,-1.0
82537553,82537469,0.058152273,-0.01431886,-0.017572112,0.510384,0.0,0.0,0.0,-1.0
82637585,82637469,0.0608754,0.07479499,-0.01935619,0.51684904,0.0,0.0,0.0,-1.0
82736770,82736693,0.025420448,0.032237794,-0.017807772,0.51914346,0.0,0.0,0.0,-1.0
82840772,82840691,0.045939256,-0.029413816,-0.017494243,0.527568,0.0,0.0,0.0,-1.0
82940746,82940669,0.0114532905,-0.08068748,-0.018060252,0.5240712,0.0,0.0,0.0,-1.0
83044759,83044669,0.058462508,0.00686208,-0.012414474,0.524307,0.0,0.0,0.0,-1.0
83144793,83144675,-0.041602302,-0.07296517,-0.014029443,0.5147566,0.0,0.0,0.0,-1.0
83247984,83247907,0.01466721,-0.102950804,-0.013694988,0.50501776,0.0,0.0,0.0,-1.0
83351946,83351869,0.049014166,-0.123406135,-0.011684591,0.51584524,0.0,0.0,0.0,-1.0
83451946,83451869,-0.06512625,-0.08677097,-0.010918339,0.5146175,0.0,0.0,0.0,-1.0
83555949,83555868,-0.09496514,-0.033276502,-0.01234826,0.5235797,0.0,0.0,0.0,-1.0
83655949,83655868,-0.037464947,0.014238698,-0.0067639346,0.53047705,0.0,0.0,0.0,-1.0
83759181,83759108,0.04016783,-0.01743103,-0.011230766,0.52151126,0.0,0.0,0.0,-1.0
83863154,83863069,0.022764632,0.095965214,-0.008183185,0.5107947,0.0,0.0,0.0,-1.0
83963159,83963069,0.032132875,-0.08007472,-0.0073915175,0.5142986,0.0,0.0,0.0,-1.0
84067180,84067107,0.01874865,-0.06490865,-0.0076199104,0.5246066,0.0,0.0,0.0,-1.0
84167152,84167075,-0.018877102,-0.05379214,-0.00236856,0.5223022,0.0,0.0,0.0,-1.0
84267187,84267069,-0.1073729,0.029592581,-0.0077332146,0.5080378,0.0,0.0,0.0,-1.0
84370350,84370269,-0.032284632,-0.05412947,-0.010615015,0.50465924,0.0,0.0,0.0,-1.0
84470345,84470268,-0.058138225,-0.008715387,-0.0112173585,0.51020586,0.0,0.0,0.0,-1.0
84574352,84574275,0.058749992,0.03211694,-0.008336379,0.51760286,0.0,0.0,0.0,-1.0
84674354,84674276,0.04184752,-0.04220821,-0.010165872,0.52543205,0.0,0.0,0.0,-1.0
84774437,84774269,-0.05059045,-0.050316524,-0.0055209086,0.51683044,0.0,0.0,0.0,-1.0
84876784,84876707,-0.0021550963,0.027580667,-0.0053739515,0.51471734,0.0,0.0,0.0,-1.0
84977577,84977500,-0.0786309,-0.07228543,-0.005062845,0.5090481,0.0,0.0,0.0,-1.0
85081546,85081468,0.023794867,0.020858936,-0.0014218614,0.50592005,0.0,0.0,0.0,-1.0
85181546,85181469,-0.060147185,-0.031956587,-0.0064212,0.5039606,0.0,0.0,0.0,-1.0
85281571,85281487,0.040138736,0.034514863,-0.010802859,0.505598,0.0,0.0,0.0,-1.0
85384746,85384669,0.043258138,-0.06106591,-0.009943395,0.5070376,0.0,0.0,0.0,-1.0
85484755,85484671,-0.027595062,0.03474662,-0.009693048,0.50358725,0.0,0.0,0.0,-1.0
85588773,85588669,0.013829959,-0.011624608,-0.009427326,0.5081195,0.0,0.0,0.0,-1.0
85688746,85688668,-0.088903606,-0.01970821,-0.010181509,0.5131616,0.0,0.0,0.0,-1.0
85788791,85788713,0.084639385,-0.038879126,-0.01511735,0.5220238,0.0,0.0,0.0,-1.0
85892803,85892695,-0.09731164,-0.09288498,-0.014519342,0.51747096,0.0,0.0,0.0,-1.0
85991953,85991875,0.094451204,-0.018659845,-0.016848601,0.5181876,0.0,0.0,0.0,-1.0
86095949,86095868,0.07229398,0.03761115,-0.016955225,0.5189095,0.0,0.0,0.0,-1.0
86195946,86195869,0.008183994,0.06612498,-0.01571746,0.51284313,0.0,0.0,0.0,-1.0
86299990,86299868,0.024971586,0.05329622,-0.021600526,0.51341766,0.0,0.0,0.0,-1.0
86399946,86399869,0.08107539,-0.038135253,-0.02148947,0.508896,0.0,0.0,0.0,-1.0
86503183,86503101,0.008657292,0.06220469,-0.0132527,0.51402,0.0,0.0,0.0,-1.0
86607178,86607093,-0.042698443,-0.08526163,-0.017697433,0.51428413,0.0,0.0,0.0,-1.0
86707170,86707089,-0.056452032,-0.013815864,-0.015082385,0.5212676,0.0,0.0,0.0,-1.0
86807233,86807087,-0.006074302,-0.10184268,-0.01862396,0.5162861,0.0,0.0,0.0,-1.0
86911179,86911091,0.11272314,-0.049231563,-0.016918516,0.51222724,0.0,0.0,0.0,-1.0
87011960,87011883,0.053656705,0.018345848,-0.024921227,0.51910657,0.0,0.0,0.0,-1.0
87114358,87114280,0.060514696,0.09853992,-0.01842327,0.52061087,0.0,0.0,0.0,-1.0
87214346,87214269,0.11769381,-0.0787136,-0.015821055,0.5326253,0.0,0.0,0.0,-1.0
87318390,87318269,0.0012388834,-0.13425438,-0.018119503,0.5221068,0.0,0.0,0.0,-1.0
87418361,87418284,-0.012952224,-0.0045037116,-0.0196594,0.52099884,0.0,0.0,0.0,-1.0
87518356,87518276,0.03370142,-0.031098302,-0.019833693,0.51785034,0.0,0.0,0.0,-1.0
87621590,87621469,-0.017322434,-0.036475934,-0.019346176,0.50574505,0.0,0.0,0.0,-1.0
87721546,87721469,0.13332148,0.028406749,-0.018404339,0.5110816,0.0,0.0,0.0,-1.0
87825554,87825475,0.039284907,-0.026593996,-0.01294606,0.5162905,0.0,0.0,0.0,-1.0
87925564,87925487,-0.017961271,-0.079928376,-0.019746386,0.5103261,0.0,0.0,0.0,-1.0
88025565,88025480,0.064555,0.025521543,-0.017317837,0.5127283,0.0,0.0,0.0,-1.0
88128746,88128669,-0.0152981365,0.012910015,-0.021398842,0.51469254,0.0,0.0,0.0,-1.0
88228760,88228680,0.079503834,0.023307769,-0.021369945,0.5212298,0.0,0.0,0.0,-1.0
88332828,88332668,-0.040828966,0.019641705,-0.020764675,0.52447003,0.0,0.0,0.0,-1.0
88432776,88432669,-0.030899813,-0.0071446886,-0.022356836,0.5209819,0.0,0.0,0.0,-1.0
88532779,88532668,0.09695674,-0.08643383,-0.021440815,0.51411366,0.0,0.0,0.0,-1.0
88636815,88636696,0.00046179767,-0.041315086,-0.026040312,0.5263051,0.0,0.0,0.0,-1.0
88735986,88735869,-0.048894394,-0.05046123,-0.030898798,0.52601486,0.0,0.0,0.0,-1.0
88840038,88839913,-0.040724535,-0.027799463,-0.0268556,0.5180106,0.0,0.0,0.0,-1.0
88939973,88939869,0.088717535,-0.050041493,-0.025538957,0.5015106,0.0,0.0,0.0,-1.0
89043946,89043869,0.02933865,-0.12067879,-0.027921889,0.504364,0.0,0.0,0.0,-1.0
89143171,89143090,-0.026125379,-0.049986012,-0.019808222,0.52026427,0.0,0.0,0.0,-1.0
89247199,89247113,0.06864023,-0.04815681,-0.02207324,0.5256556,0.0,0.0,0.0,-1.0
89347165,89347076,-0.0011624896,-0.081976786,-0.023005221,0.51715505,0.0,0.0,0.0,-1.0
89447146,89447069,-0.046112344,-0.09100368,-0.020185033,0.5061821,0.0,0.0,0.0,-1.0
89551155,89551075,0.061409954,-0.1096084,-0.018523742,0.51083905,0.0,0.0,0.0,-1.0
89654394,89654313,0.086050555,-0.07277199,-0.017003229,0.52322704,0.0,0.0,0.0,-1.0
89754384,89754269,0.033308595,-0.048151508,-0.014728775,0.529413,0.0,0.0,0.0,-1.0
89858356,89858275,-0.009469694,-0.027920065,-0.0056487685,0.52418697,0.0,0.0,0.0,-1.0
89958386,89958304,-0.04450993,-0.016193034,-0.0061828475,0.5139275,0.0,0.0,0.0,-1.0
90062346,90062269,-0.0017894588,-0.013122376,-0.011158118,0.5085103,0.0,0.0,0.0,-1.0
90162346,90162268,0.067688115,0.07297133,-0.009294527,0.50533986,0.0,0.0,0.0,-1.0
90265602,90265475,0.0031175471,0.029482538,-0.010754814,0.50903755,0.0,0.0,0.0,-1.0
90365586,90365469,-0.013099611,0.04648124,-0.006810179,0.5167978,0.0,0.0,0.0,-1.0
90465552,90465475,-0.042401016,0.011741208,-0.005275435,0.5166068,0.0,0.0,0.0,-1.0
90569575,90569497,0.010070352,0.008900541,-0.008841651,0.51346534,0.0,0.0,0.0,-1.0
90669574,90669470,0.035446912,-0.04874114,-0.0072675715,0.5044053,0.0,0.0,0.0,-1.0
90772779,90772668,0.07924048,-3.3919754e-05,-0.003009826,0.50255543,0.0,0.0,0.0,-1.0
90872868,90872711,-0.0037166448,-0.0035728528,-0.012472185,0.5143858,0.0,0.0,0.0,-1.0
90972808,90972669,0.043182503,0.08376848,-0.015781788,0.5210036,0.0,0.0,0.0,-1.0
91076753,91076675,0.043847337,-0.0011257882,-0.013592622,0.5241877,0.0,0.0,0.0,-1.0
91176756,91176675,0.033831693,0.05262516,-0.012794267,0.51661307,0.0,0.0,0.0,-1.0
91279949,91279868,0.10884102,0.07922569,-0.010434926,0.5075494,0.0,0.0,0.0,-1.0
91379968,91379891,-0.022102544,-0.0016603896,-0.013191492,0.51448494,0.0,0.0,0.0,-1.0
91479946,91479869,-0.052003656,-0.09663688,-0.010236505,0.5144623,0.0,0.0,0.0,-1.0
91583961,91583875,-0.07196475,0.024344362,-0.0154122505,0.515528,0.0,0.0,0.0,-1.0
91683949,91683868,-0.05737594,-0.094607666,-0.02027716,0.52089113,0.0,0.0,0.0,-1.0
91786408,91786304,-0.015151308,-0.046396565,-0.019303497,0.52517253,0.0,0.0,0.0,-1.0
91887235,91887116,0.016694833,0.05929509,-0.021950454,0.5238019,0.0,0.0,0.0,-1.0
91987145,91987072,0.09379536,0.037775893,-0.018180527,0.5149432,0.0,0.0,0.0,-1.0
92091161,92091068,-0.042442776,0.0175424,-0.02147445,0.51898426,0.0,0.0,0.0,-1.0
92191152,92191070,-0.03652391,-0.06420453,-0.020959973,0.52048177,0.0,0.0,0.0,-1.0
92295151,92295069,-0.018585261,0.009413504,-0.017725008,0.51690423,0.0,0.0,0.0,-1.0
92394354,92394277,-0.0435886,-0.0584523,-0.015115801,0.5074564,0.0,0.0,0.0,-1.0
92498347,92498269,0.061522376,-0.040950645,-0.011648697,0.5062501,0.0,0.0,0.0,-1.0
92598356,92598269,-0.01958609,-0.052533302,-0.010081267,0.519239,0.0,0.0,0.0,-1.0
92698349,92698269,-0.070803545,-0.026623787,-0.011967262,0.52273905,0.0,0.0,0.0,-1.0
92802353,92802275,0.049196783,0.007195297,-0.020511605,0.5230152,0.0,0.0,0.0,-1.0
92901554,92901475,0.076630816,-0.04465525,-0.016129633,0.51562417,0.0,0.0,0.0,-1.0
93005579,93005501,-0.059892014,-0.0029101048,-0.020070441,0.5105364,0.0,0.0,0.0,-1.0
93109553,93109475,0.03851449,-0.06276258,-0.022653487,0.5149963,0.0,0.0,0.0,-1.0
93209552,93209475,-0.08263091,-0.026061632,-0.024621097,0.5268511,0.0,0.0,0.0,-1.0
93313546,93313469,0.0026888875,-0.08169544,-0.023474414,0.5253319,0.0,0.0,0.0,-1.0
93412794,93412687,0.026401015,-0.015301485,-0.02152313,0.5095669,0.0,0.0,0.0,-1.0
93516787,93516706,0.11101288,0.016467528,-0.016473295,0.50805587,0.0,0.0,0.0,-1.0
93620746,93620669,0.04607556,-0.034472395,-0.019845467,0.5215783,0.0,0.0,0.0,-1.0
93720741,93720669,-0.023976618,0.020923153,-0.021654999,0.5202904,0.0,0.0,0.0,-1.0
93824753,93824675,0.084410146,-0.028137198,-0.020228209,0.5166098,0.0,0.0,0.0,-1.0
93923953,93923875,0.04867294,0.0972853,-0.01639942,0.5064016,0.0,0.0,0.0,-1.0
94028023,94027868,0.110250436,-0.009992774,-0.012249319,0.516251,0.0,0.0,0.0,-1.0
94127946,94127869,0.018227926,0.025079185,-0.017530462,0.5255724,0.0,0.0,0.0,-1.0
94227946,94227869,0.078361206,0.0057109203,-0.010232503,0.5184986,0.0,0.0,0.0,-1.0
94331951,94331868,-0.053675,-0.12199457,-0.012136562,0.50939256,0.0,0.0,0.0,-1.0
94431228,94431069,0.09516879,0.02353607,-0.010762593,0.51063263,0.0,0.0,0.0,-1.0
94535186,94535068,0.07314151,-0.054470655,-0.016690655,0.5155235,0.0,0.0,0.0,-1.0
94635179,94635089,0.082350254,-0.08015661,-0.014456006,0.5179808,0.0,0.0,0.0,-1.0
94735153,94735073,-0.06151521,-0.036120627,-0.022935905,0.5239681,0.0,0.0,0.0,-1.0
94839155,94839068,-0.020505372,-0.023726907,-0.018745473,0.53034306,0.0,0.0,0.0,-1.0
94939150,94939069,0.049197957,0.066297255,-0.015650634,0.52606285,0.0,0.0,0.0,-1.0
95042361,95042276,-0.047161918,0.006035248,-0.017007135,0.5164804,0.0,0.0,0.0,-1.0
95142355,95142274,0.037080254,-0.0019927742,-0.0099553745,0.5253132,0.0,0.0,0.0,-1.0
95242364,95242285,0.009365338,0.0030496838,-0.018004337,0.53112245,0.0,0.0,0.0,-1.0
95346416,95346293,-0.020895563,-0.02190375,-0.01915005,0.51421887,0.0,0.0,0.0,-1.0
95446346,95446269,-0.058830492,-0.07281738,-0.017811934,0.5044363,0.0,0.0,0.0,-1.0
95550346,95550269,0.03343698,-0.06686272,-0.01725225,0.5049617,0.0,0.0,0.0,-1.0
95649590,95649468,-0.049819637,0.07643767,-0.01618584,0.5124142,0.0,0.0,0.0,-1.0
95753553,95753469,-0.012755814,0.05873424,-0.011976002,0.52521676,0.0,0.0,0.0,-1.0
95853549,95853468,0.062263377,-0.059890363,-0.013040045,0.526113,0.0,0.0,0.0,-1.0
95953560,95953469,-0.026092522,-0.1057856,-0.01716027,0.5169269,0.0,0.0,0.0,-1.0
96056794,96056716,0.016038435,-0.010591815,-0.013144296,0.52083737,0.0,0.0,0.0,-1.0
96156746,96156669,-0.0049123284,0.014733935,-0.017774424,0.51643395,0.0,0.0,0.0,-1.0
96260747,96260670,-0.026426665,0.035678774,-0.012839197,0.51771224,0.0,0.0,0.0,-1.0
96360750,96360668,0.0006974301,-0.04651867,-0.014021025,0.5266335,0.0,0.0,0.0,-1.0
96460778,96460695,0.012423164,0.10664849,-0.015548279,0.52137357,0.0,0.0,0.0,-1.0
96564824,96564669,-0.02816172,-0.099838346,-0.017867295,0.5317598,0.0,0.0,0.0,-1.0
96663949,96663869,-0.018939795,0.015719395,-0.016179139,0.52945656,0.0,0.0,0.0,-1.0
96767950,96767868,0.06825819,-0.023038141,-0.016620941,0.50926036,0.0,0.0,0.0,-1.0
96867983,96867906,0.00015116761,-0.037752856,-0.01707944,0.50645435,0.0,0.0,0.0,-1.0
96968005,96967875,0.10851277,0.05991543,-0.01610552,0.5122603,0.0,0.0,0.0,-1.0
97071983,97071869,0.06406092,-0.09147643,-0.012600474,0.53046465,0.0,0.0,0.0,-1.0
97171982,97171904,-0.066642836,0.050070256,-0.01778096,0.53832066,0.0,0.0,0.0,-1.0
97275155,97275075,0.052001342,-0.07783434,-0.021455813,0.5316273,0.0,0.0,0.0,-1.0
97375149,97375068,-0.0062813126,-0.046630085,-0.01674978,0.5109918,0.0,0.0,0.0,-1.0
97479326,97479113,0.07172221,-0.035493296,-0.01667522,0.50274163,0.0,0.0,0.0,-1.0
97579173,97579087,0.012837914,-0.038733587,-0.013889195,0.5134911,0.0,0.0,0.0,-1.0
97678353,97678268,0.0097111575,0.07064467,-0.019803753,0.5191493,0.0,0.0,0.0,-1.0
97782387,97782268,-0.015629249,0.023388192,-0.009839211,0.5198242,0.0,0.0,0.0,-1.0
97882346,97882269,-0.016299484,0.011592119,-0.011901319,0.5160159,0.0,0.0,0.0,-1.0
97986366,97986278,0.05791355,0.004947272,-0.010765335,0.5040166,0.0,0.0,0.0,-1.0
98086383,98086302,0.017856948,0.0036134017,-0.008981345,0.49793074,0.0,0.0,0.0,-1.0
98189553,98189469,-0.028594153,0.04154656,-0.00876859,0.49917638,0.0,0.0,0.0,-1.0
98289546,98289469,0.074326225,-0.037955288,-0.006032666,0.5062717,0.0,0.0,0.0,-1.0
98389591,98389514,0.09382681,-0.09141586,-0.007754979,0.5126198,0.0,0.0,0.0,-1.0
98493553,98493475,0.07053766,-0.031821504,-0.0080427695,0.5169154,0.0,0.0,0.0,-1.0
98593562,98593485,0.04038694,0.09039182,-0.013524916,0.5097988,0.0,0.0,0.0,-1.0
98693563,98693475,-0.039353725,0.025219994,-0.013787253,0.51310915,0.0,0.0,0.0,-1.0
98796746,98796669,0.030146452,-0.005563282,-0.018447068,0.5151987,0.0,0.0,0.0,-1.0
98896749,98896669,0.045344345,-0.11473872,-0.016394123,0.5121348,0.0,0.0,0.0,-1.0
99000831,99000675,-0.0073892097,-0.09385119,-0.018074004,0.5260846,0.0,0.0,0.0,-1.0
99100746,99100669,0.025139544,0.02182921,-0.02158793,0.53725374,0.0,0.0,0.0,-1.0
99200749,99200668,0.044650577,-0.07747727,-0.0208629,0.52792895,0.0,0.0,0.0,-1.0
99303983,99303905,0.12630583,0.0023416467,-0.01235102,0.52710366,0.0,0.0,0.0,-1.0
99404023,99403869,0.059473544,-0.007313521,-0.015628453,0.5292815,0.0,0.0,0.0,-1.0
99507983,99507869,0.056509048,0.0077904407,-0.018523559,0.5159881,0.0,0.0,0.0,-1.0
99607978,99607901,0.068644695,0.005861308,-0.016653387,0.5087399,0.0,0.0,0.0,-1.0
99711946,99711869,0.00026447437,0.042294227,-0.02135291,0.5154803,0.0,0.0,0.0,-1.0
99811946,99811869,0.04759771,-0.105070546,-0.024803001,0.51409256,0.0,0.0,0.0,-1.0
99911189,99911069,0.09099217,0.09123515,-0.025479881,0.5150773,0.0,0.0,0.0,-1.0
100015161,100015076,0.02383283,0.08030064,-0.027941648,0.5211609,0.0,0.0,0.0,-1.0
100115198,100115117,0.061652917,-0.04720824,-0.033556715,0.52284163,0.0,0.0,0.0,-1.0
100219179,100219097,-0.025890384,-0.08859707,-0.032661043,0.5196017,0.0,0.0,0.0,-1.0
100317578,100317490,0.037735846,0.05875504,-0.031537913,0.5128256,0.0,0.0,0.0,-1.0
100422382,100422305,-0.060920037,0.014141722,-0.026646942,0.50964016,0.0,0.0,0.0,-1.0
100526352,100526274,0.07979489,-0.01003778,-0.026209012,0.51597947,0.0,0.0,0.0,-1.0
100626354,100626275,0.07982983,-0.016052293,-0.021250956,0.519262,0.0,0.0,0.0,-1.0
100730385,100730269,-0.008067901,0.026064398,-0.022694917,0.5166173,0.0,0.0,0.0,-1.0
100829552,100829475,-3.6959165e-05,-0.053523824,-0.019615863,0.5092083,0.0,0.0,0.0,-1.0
100933560,100933476,0.0014065828,-0.17317522,-0.02118299,0.5141596,0.0,0.0,0.0,-1.0
101037553,101037469,0.022625934,0.010376802,-0.015188748,0.53326815,0.0,0.0,0.0,-1.0
101137575,101137468,-0.041043326,0.06763332,-0.016262174,0.52823883,0.0,0.0,0.0,-1.0
101241616,101241493,-0.069134355,-0.038824044,-0.015236376,0.5324865,0.0,0.0,0.0,-1.0
101341547,101341469,-0.0012712285,-0.067346334,-0.014187774,0.5223393,0.0,0.0,0.0,-1.0
101441546,101441469,-0.07213807,-0.1039293,-0.012156398,0.51779306,0.0,0.0,0.0,-1.0
101544793,101544689,0.023889137,-0.01840812,-0.012958283,0.52469325,0.0,0.0,0.0,-1.0
101644754,101644676,0.022815263,0.017875556,-0.020060947,0.5214378,0.0,0.0,0.0,-1.0
101748774,101748700,-0.04194962,0.014047516,-0.017801763,0.51699317,0.0,0.0,0.0,-1.0
101848750,101848668,0.03648064,0.041155603,-0.012892743,0.5377988,0.0,0.0,0.0,-1.0
101948770,101948687,0.031352103,-0.025567831,-0.015875094,0.52504283,0.0,0.0,0.0,-1.0
102051953,102051868,0.03975507,-0.09968838,-0.011541987,0.51826596,0.0,0.0,0.0,-1.0
102151975,102151893,0.0035374742,-0.07303966,-0.013960179,0.52431643,0.0,0.0,0.0,-1.0
102255969,102255892,-0.040024325,0.060193036,-0.011164311,0.5106042,0.0,0.0,0.0,-1.0
102355946,102355869,0.012086484,-0.13200282,-0.008081194,0.5118667,0.0,0.0,0.0,-1.0
102459176,102459068,0.04837101,0.06507591,-0.010911283,0.51693285,0.0,0.0,0.0,-1.0
102559156,102559075,0.032241493,0.04805637,-0.0177543,0.52155405,0.0,0.0,0.0,-1.0
102659158,102659081,-0.03620129,0.022235744,-0.013330745,0.52572393,0.0,0.0,0.0,-1.0
102763186,102763105,0.033718564,0.066088624,-0.010951698,0.5258224,0.0,0.0,0.0,-1.0
102863180,102863069,0.019682227,-0.017822525,-0.014482556,0.53300446,0.0,0.0,0.0,-1.0
102967196,102967113,-0.019295422,-0.009372305,-0.016781362,0.5140347,0.0,0.0,0.0,-1.0
103070346,103070268,-0.005280826,-0.019028107,-0.015391699,0.50065196,0.0,0.0,0.0,-1.0
103170386,103170269,0.042809173,0.028131982,-0.016264282,0.5025499,0.0,0.0,0.0,-1.0
103274401,103274323,0.09237829,-0.06744793,-0.01912893,0.5106268,0.0,0.0,0.0,-1.0
103374388,103374269,0.081796065,-0.05775883,-0.013683596,0.527811,0.0,0.0,0.0,-1.0
103476781,103476702,-0.074768156,-0.05995403,-0.015962647,0.5259159,0.0,0.0,0.0,-1.0
103577574,103577497,-0.07554054,-0.013956443,-0.017821703,0.5225316,0.0,0.0,0.0,-1.0
103677599,103677487,0.0134729715,0.11319626,-0.014023497,0.52483934,0.0,0.0,0.0,-1.0
103781594,103781517,0.01171281,0.063011386,-0.012721337,0.52601314,0.0,0.0,0.0,-1.0
103881546,103881469,0.01785675,0.04347144,-0.0125289075,0.52356136,0.0,0.0,0.0,-1.0
103985553,103985469,0.040025152,0.029422494,-0.014509723,0.51624095,0.0,0.0,0.0,-1.0
104084746,104084669,0.025047941,0.013955055,-0.012394629,0.50475645,0.0,0.0,0.0,-1.0
104184776,104184689,0.03963788,0.064572036,-0.011271074,0.505947,0.0,0.0,0.0,-1.0
104288746,104288669,-1.798905e-05,-0.021417066,-0.01201598,0.51944673,0.0,0.0,0.0,-1.0
104388755,104388669,-0.059507117,-0.1346803,-0.006590426,0.5277562,0.0,0.0,0.0,-1.0
104492816,104492707,-0.05109377,0.005454834,-0.010484885,0.52749807,0.0,0.0,0.0,-1.0
104592813,104592669,-0.038246438,-0.0043172757,-0.010990955,0.5207869,0.0,0.0,0.0,-1.0
