timestamp,vel_pos_innov[0],vel_pos_innov[1],vel_pos_innov[2],vel_pos_innov[3],vel_pos_innov[4],vel_pos_innov[5],mag_innov[0],mag_innov[1],mag_innov[2],heading_innov,airspeed_innov,beta_innov,flow_innov[0],flow_innov[1],hagl_innov,vel_pos_innov_var[0],vel_pos_innov_var[1],vel_pos_innov_var[2],vel_pos_innov_var[3],vel_pos_innov_var[4],vel_pos_innov_var[5],mag_innov_var[0],mag_innov_var[1],mag_innov_var[2],heading_innov_var,airspeed_innov_var,beta_innov_var,flow_innov_var[0],flow_innov_var[1],hagl_innov_var,output_tracking_error[0],output_tracking_error[1],output_tracking_error[2],drag_innov[0],drag_innov[1],drag_innov_var[0],drag_innov_var[1],aux_vel_innov[0],aux_vel_innov[1]
29487069,0.0,0.0,0.0,0.0021197905,-0.00014842804,-0.21182632,0.0,0.0,0.0,-0.031876564,0.0,0.0,0.0,0.0,0.0,0.0,0.0,0.0,0.25761938,0.25761926,4.060564,0.0,0.0,0.0,0.09045188,0.0,0.0,0.0,0.0,0.0,0.0029174099,0.0047553075,0.014501704,0.0,0.0,0.0,0.0,0.0,0.0
29687069,0.0,0.0,0.0,0.0025818907,-0.00024311834,0.22213745,0.0,0.0,0.0,-0.030196428,0.0,0.0,0.0,0.0,0.0,0.0,0.0,0.0,0.2575753,0.25757518,4.060398,0.0,0.0,0.0,0.09044727,0.0,0.0,0.0,0.0,0.0,0.0010787201,0.0026897294,0.008502071,0.0,0.0,0.0,0.0,0.0,0.0
29895076,0.0,0.0,0.0,0.0029793736,-0.0002351208,-0.26994324,0.0,0.0,0.0,-0.026474237,0.0,0.0,0.0,0.0,0.0,0.0,0.0,0.0,0.25752518,0.2575251,4.0601907,0.0,0.0,0.0,0.09044276,0.0,0.0,0.0,0.0,0.0,0.0011204187,0.0036502245,0.011720827,0.0,0.0,0.0,0.0,0.0,0.0
30094269,0.0,0.0,0.0,0.0033489,-0.00024100083,0.14958572,0.0,0.0,0.0,-0.005232811,0.0,0.0,0.0,0.0,0.0,0.0,0.0,0.0,0.2575427,0.2575426,4.060244,0.0,0.0,0.0,0.09043833,0.0,0.0,0.0,0.0,0.0,5.380882e-05,0.0017558752,0.0037536407,0.0,0.0,0.0,0.0,0.0,0.0
30302282,0.0,0.0,0.0,0.0036834446,-0.00027894648,0.40974808,0.0,0.0,0.0,-0.08932161,0.0,0.0,0.0,0.0,0.0,0.0,0.0,0.0,0.25747785,0.25747773,4.059957,0.0,0.0,0.0,0.090434015,0.0,0.0,0.0,0.0,0.0,0.0014362446,0.0018183768,0.0044780364,0.0,0.0,0.0,0.0,0.0,0.0
30502269,0.0,0.0,0.0,0.0038955458,-0.0002964786,0.23854446,0.0,0.0,0.0,0.017684221,0.0,0.0,0.0,0.0,0.0,0.0,0.0,0.0,0.25745377,0.25745368,4.0598145,0.0,0.0,0.0,0.090430796,0.0,0.0,0.0,0.0,0.0,0.0012297495,0.002904745,0.008372187,0.0,0.0,0.0,0.0,0.0,0.0
30701482,0.0,0.0,0.0,0.0041395766,-0.00033316878,0.07182312,0.0,0.0,0.0,0.017204046,0.0,0.0,0.0,0.0,0.0,0.0,0.0,0.0,0.25754455,0.25754446,4.060138,0.0,0.0,0.0,0.09042711,0.0,0.0,0.0,0.0,0.0,0.0017311932,0.0019609414,0.0057244003,0.0,0.0,0.0,0.0,0.0,0.0
30901469,0.0,0.0,0.0,0.0042295638,-0.00040293217,0.24205399,0.0,0.0,0.0,-0.0014395714,0.0,0.0,0.0,0.0,0.0,0.0,0.0,0.0,0.25770348,0.2577034,4.060823,0.0,0.0,0.0,0.09042348,0.0,0.0,0.0,0.0,0.0,0.0012498731,0.002896748,0.008776309,0.0,0.0,0.0,0.0,0.0,0.0
31101521,0.0,0.0,0.0,0.0041256617,-0.00039343667,0.0004043579,0.0,0.0,0.0,-0.02272749,0.0,0.0,0.0,0.0,0.0,0.0,0.0,0.0,0.2577301,0.25773,4.0610356,0.0,0.0,0.0,0.09042038,0.0,0.0,0.0,0.0,0.0,0.000813056,0.0010637715,0.002149821,0.0,0.0,0.0,0.0,0.0,0.0
31308688,0.0,0.0,0.0,0.0038509557,-0.00036916495,0.23927307,0.0,0.0,0.0,-0.016621828,0.0,0.0,0.0,0.0,0.0,0.0,0.0,0.0,0.2577738,0.25777373,4.061315,0.0,0.0,0.0,0.090416834,0.0,0.0,0.0,0.0,0.0,0.0007474158,0.004381951,0.013352089,0.0,0.0,0.0,0.0,0.0,0.0
31508675,0.0,0.0,0.0,0.0035176838,-0.00022517264,0.22357559,0.0,0.0,0.0,0.014323711,0.0,0.0,0.0,0.0,0.0,0.0,0.0,0.0,0.2578609,0.25786084,4.061821,0.0,0.0,0.0,0.09041337,0.0,0.0,0.0,0.0,0.0,0.0010076293,0.0069624265,0.02151495,0.0,0.0,0.0,0.0,0.0,0.0
31711868,0.0,0.0,0.0,0.003226113,-5.4290584e-05,-0.055404663,0.0,0.0,0.0,0.030266285,0.0,0.0,0.0,0.0,0.0,0.0,0.0,0.0,0.2579901,0.25799,4.0625067,0.0,0.0,0.0,0.09040949,0.0,0.0,0.0,0.0,0.0,0.0007431561,0.0026260307,0.008984597,0.0,0.0,0.0,0.0,0.0,0.0
31919869,0.0,0.0,0.0,0.0027232189,6.28248e-05,0.02948761,0.0,0.0,0.0,-0.029658318,0.0,0.0,0.0,0.0,0.0,0.0,0.0,0.0,0.25789452,0.25789446,4.0623894,0.0,0.0,0.0,0.09040567,0.0,0.0,0.0,0.0,0.0,0.0012784397,0.0016472031,0.0038276443,0.0,0.0,0.0,0.0,0.0,0.0
32119107,0.0,0.0,0.0,0.0022368326,0.00018148564,-0.21647263,0.0,0.0,0.0,-0.019332647,0.0,0.0,0.0,0.0,0.0,0.0,0.0,0.0,0.2576556,0.25765553,4.0615444,0.0,0.0,0.0,0.090402395,0.0,0.0,0.0,0.0,0.0,0.0015497474,0.0017463634,0.005372825,0.0,0.0,0.0,0.0,0.0,0.0
32319069,0.0,0.0,0.0,0.0019260336,0.00041541134,0.15419388,0.0,0.0,0.0,0.0077281,0.0,0.0,0.0,0.0,0.0,0.0,0.0,0.0,0.25774226,0.2577422,4.0619383,0.0,0.0,0.0,0.09039872,0.0,0.0,0.0,0.0,0.0,0.00092092244,0.0026473016,0.0073793367,0.0,0.0,0.0,0.0,0.0,0.0
32527075,0.0,0.0,0.0,0.0018416838,0.0007231359,-0.10317612,0.0,0.0,0.0,0.0413723,0.0,0.0,0.0,0.0,0.0,0.0,0.0,0.0,0.25768048,0.25768042,4.061732,0.0,0.0,0.0,0.09039468,0.0,0.0,0.0,0.0,0.0,0.00062965474,0.0022342063,0.006668475,0.0,0.0,0.0,0.0,0.0,0.0
32727087,0.0,0.0,0.0,0.0018845705,0.0010211465,-0.099723816,0.0,0.0,0.0,0.02721262,0.0,0.0,0.0,0.0,0.0,0.0,0.0,0.0,0.2577658,0.25776574,4.0621486,0.0,0.0,0.0,0.090390764,0.0,0.0,0.0,0.0,0.0,0.0011533861,0.0005383838,0.0016466912,0.0,0.0,0.0,0.0,0.0,0.0
32934269,0.0,0.0,0.0,0.0020189916,0.001316985,-0.107185364,0.0,0.0,0.0,-0.036309004,0.0,0.0,0.0,0.0,0.0,0.0,0.0,0.0,0.2578401,0.25784004,4.0624914,0.0,0.0,0.0,0.09038734,0.0,0.0,0.0,0.0,0.0,0.0013659731,0.0009969331,0.0029768127,0.0,0.0,0.0,0.0,0.0,0.0
33134296,0.0,0.0,0.0,0.0020600788,0.0015946613,-0.031017303,0.0,0.0,0.0,0.011733055,0.0,0.0,0.0,0.0,0.0,0.0,0.0,0.0,0.2578274,0.2578273,4.062522,0.0,0.0,0.0,0.090383984,0.0,0.0,0.0,0.0,0.0,0.0013238989,0.002416933,0.0073614907,0.0,0.0,0.0,0.0,0.0,0.0
33341469,0.0,0.0,0.0,0.0020291412,0.0018895402,-0.19514847,0.0,0.0,0.0,-0.043582678,0.0,0.0,0.0,0.0,0.0,0.0,0.0,0.0,0.2576879,0.2576878,4.0619745,0.0,0.0,0.0,0.0903811,0.0,0.0,0.0,0.0,0.0,0.0010548313,0.00046019582,0.00088028796,0.0,0.0,0.0,0.0,0.0,0.0
33541476,0.0,0.0,0.0,0.0019385291,0.0021588348,0.054172516,0.0,0.0,0.0,0.010615826,0.0,0.0,0.0,0.0,0.0,0.0,0.0,0.0,0.25755915,0.25755903,4.061408,0.0,0.0,0.0,0.09037826,0.0,0.0,0.0,0.0,0.0,0.001250969,0.000969734,0.0024117338,0.0,0.0,0.0,0.0,0.0,0.0
33741475,0.0,0.0,0.0,0.0018309887,0.0024364572,-0.11668396,0.0,0.0,0.0,0.044756413,0.0,0.0,0.0,0.0,0.0,0.0,0.0,0.0,0.2574699,0.25746977,4.0609484,0.0,0.0,0.0,0.09037508,0.0,0.0,0.0,0.0,0.0,0.0005969175,0.00086772884,0.002265,0.0,0.0,0.0,0.0,0.0,0.0
33944669,0.0,0.0,0.0,0.0017238628,0.0026112283,0.14192581,0.0,0.0,0.0,-0.0088226795,0.0,0.0,0.0,0.0,0.0,0.0,0.0,0.0,0.25741643,0.2574163,4.0606008,0.0,0.0,0.0,0.0903727,0.0,0.0,0.0,0.0,0.0,0.00055751955,0.0006688648,0.0017845243,0.0,0.0,0.0,0.0,0.0,0.0
34152668,0.0,0.0,0.0,0.0016624857,0.0027609265,0.06055832,0.0,0.0,0.0,-0.026186466,0.0,0.0,0.0,0.0,0.0,0.0,0.0,0.0,0.25739244,0.2573923,4.0603695,0.0,0.0,0.0,0.0903696,0.0,0.0,0.0,0.0,0.0,0.0007967763,0.0019266272,0.0058883433,0.0,0.0,0.0,0.0,0.0,0.0
34351914,0.0,0.0,0.0,0.0016204786,0.0031396057,0.123493195,0.0,0.0,0.0,0.00080132484,0.0,0.0,0.0,0.0,0.0,0.0,0.0,0.0,0.25756636,0.2575662,4.0609837,0.0,0.0,0.0,0.090366915,0.0,0.0,0.0,0.0,0.0,0.00016639316,0.0042684954,0.012456819,0.0,0.0,0.0,0.0,0.0,0.0
34551916,0.0,0.0,0.0,0.0016414723,0.0034515334,0.16455841,0.0,0.0,0.0,-0.010595083,0.0,0.0,0.0,0.0,0.0,0.0,0.0,0.0,0.25755253,0.25755236,4.0608826,0.0,0.0,0.0,0.09036427,0.0,0.0,0.0,0.0,0.0,0.0005076272,0.0012923222,0.00375909,0.0,0.0,0.0,0.0,0.0,0.0
34751868,0.0,0.0,0.0,0.0016627744,0.0037053437,-0.13339615,0.0,0.0,0.0,-0.016267776,0.0,0.0,0.0,0.0,0.0,0.0,0.0,0.0,0.25755793,0.25755775,4.0608506,0.0,0.0,0.0,0.090361305,0.0,0.0,0.0,0.0,0.0,0.0010411781,0.00077171257,0.0017060293,0.0,0.0,0.0,0.0,0.0,0.0
34958306,0.0,0.0,0.0,0.0015565786,0.0040598647,0.21321487,0.0,0.0,0.0,0.016019344,0.0,0.0,0.0,0.0,0.0,0.0,0.0,0.0,0.2577637,0.2577635,4.061697,0.0,0.0,0.0,0.09035911,0.0,0.0,0.0,0.0,0.0,0.00056213135,0.002068159,0.006245644,0.0,0.0,0.0,0.0,0.0,0.0
35159079,0.0,0.0,0.0,0.0013683434,0.004234464,-0.16927719,0.0,0.0,0.0,-0.0018453598,0.0,0.0,0.0,0.0,0.0,0.0,0.0,0.0,0.2577619,0.2577617,4.061776,0.0,0.0,0.0,0.09035657,0.0,0.0,0.0,0.0,0.0,0.00055691414,0.0049855886,0.015687937,0.0,0.0,0.0,0.0,0.0,0.0
35359069,0.0,0.0,0.0,0.0011047665,0.004195464,-0.029891968,0.0,0.0,0.0,-0.033559084,0.0,0.0,0.0,0.0,0.0,0.0,0.0,0.0,0.25769126,0.25769106,4.061626,0.0,0.0,0.0,0.090353735,0.0,0.0,0.0,0.0,0.0,0.00070364086,0.0026128436,0.008798843,0.0,0.0,0.0,0.0,0.0,0.0
35566283,0.0,0.0,0.0,0.0008747949,0.004112969,-0.028141022,0.0,0.0,0.0,0.004778385,0.0,0.0,0.0,0.0,0.0,0.0,0.0,0.0,0.25763407,0.25763386,4.061463,0.0,0.0,0.0,0.09035061,0.0,0.0,0.0,0.0,0.0,0.00068576424,0.0026981055,0.008680233,0.0,0.0,0.0,0.0,0.0,0.0
35766269,0.0,0.0,0.0,0.00067656254,0.00392119,0.2636299,0.0,0.0,0.0,-0.0064823627,0.0,0.0,0.0,0.0,0.0,0.0,0.0,0.0,0.2575135,0.25751328,4.060985,0.0,0.0,0.0,0.09034821,0.0,0.0,0.0,0.0,0.0,0.00023367984,0.0013258433,0.00413299,0.0,0.0,0.0,0.0,0.0,0.0
35973534,0.0,0.0,0.0,0.00047080583,0.0037189072,-0.06079483,0.0,0.0,0.0,0.0013799667,0.0,0.0,0.0,0.0,0.0,0.0,0.0,0.0,0.25751552,0.2575153,4.060976,0.0,0.0,0.0,0.09034583,0.0,0.0,0.0,0.0,0.0,0.00023128687,0.00070833997,0.001983282,0.0,0.0,0.0,0.0,0.0,0.0
36173469,0.0,0.0,0.0,0.0004130137,0.003631659,-0.11157608,0.0,0.0,0.0,-0.013076305,0.0,0.0,0.0,0.0,0.0,0.0,0.0,0.0,0.25762218,0.25762194,4.0614347,0.0,0.0,0.0,0.090343826,0.0,0.0,0.0,0.0,0.0,2.9300065e-05,0.002278226,0.007176251,0.0,0.0,0.0,0.0,0.0,0.0
36373469,0.0,0.0,0.0,0.0004560327,0.0033409498,-0.04137039,0.0,0.0,0.0,-0.01469779,0.0,0.0,0.0,0.0,0.0,0.0,0.0,0.0,0.2575898,0.25758958,4.061324,0.0,0.0,0.0,0.090341516,0.0,0.0,0.0,0.0,0.0,7.9960155e-05,0.0021284146,0.006084694,0.0,0.0,0.0,0.0,0.0,0.0
36579901,0.0,0.0,0.0,0.00050163874,0.0030178817,0.034809113,0.0,0.0,0.0,-0.019606829,0.0,0.0,0.0,0.0,0.0,0.0,0.0,0.0,0.25743374,0.25743356,4.0606613,0.0,0.0,0.0,0.09033923,0.0,0.0,0.0,0.0,0.0,4.377789e-05,0.0018466078,0.0059240703,0.0,0.0,0.0,0.0,0.0,0.0
36780668,0.0,0.0,0.0,0.0006184807,0.0029819715,0.2809639,0.0,0.0,0.0,-0.02791667,0.0,0.0,0.0,0.0,0.0,0.0,0.0,0.0,0.257518,0.2575178,4.0609508,0.0,0.0,0.0,0.09033665,0.0,0.0,0.0,0.0,0.0,0.000101030215,0.0025710193,0.008162125,0.0,0.0,0.0,0.0,0.0,0.0
36980669,0.0,0.0,0.0,0.0007437775,0.0029811694,-0.058509827,0.0,0.0,0.0,-0.027708054,0.0,0.0,0.0,0.0,0.0,0.0,0.0,0.0,0.25764176,0.25764158,4.0614724,0.0,0.0,0.0,0.090334125,0.0,0.0,0.0,0.0,0.0,0.000572623,0.00018917606,0.00064106134,0.0,0.0,0.0,0.0,0.0,0.0
37187869,0.0,0.0,0.0,0.0009575885,0.0029354503,0.3606758,0.0,0.0,0.0,-0.019111633,0.0,0.0,0.0,0.0,0.0,0.0,0.0,0.0,0.25774515,0.257745,4.061984,0.0,0.0,0.0,0.09033195,0.0,0.0,0.0,0.0,0.0,0.00053871906,0.00092964614,0.0028972698,0.0,0.0,0.0,0.0,0.0,0.0
37387886,0.0,0.0,0.0,0.0011769959,0.00292423,-0.146492,0.0,0.0,0.0,0.022292852,0.0,0.0,0.0,0.0,0.0,0.0,0.0,0.0,0.2576572,0.25765708,4.0617433,0.0,0.0,0.0,0.090329796,0.0,0.0,0.0,0.0,0.0,0.0006662758,0.0019779524,0.005875591,0.0,0.0,0.0,0.0,0.0,0.0
37587869,0.0,0.0,0.0,0.0013233513,0.0029709318,-0.31972504,0.0,0.0,0.0,0.038139343,0.0,0.0,0.0,0.0,0.0,0.0,0.0,0.0,0.25767145,0.25767136,4.061856,0.0,0.0,0.0,0.09032767,0.0,0.0,0.0,0.0,0.0,0.00035152692,0.0011395648,0.0034346287,0.0,0.0,0.0,0.0,0.0,0.0
37795070,0.0,0.0,0.0,0.0015359916,0.0028174983,-0.22010803,0.0,0.0,0.0,0.01206398,0.0,0.0,0.0,0.0,0.0,0.0,0.0,0.0,0.25768358,0.2576835,4.061988,0.0,0.0,0.0,0.090325594,0.0,0.0,0.0,0.0,0.0,0.00040819086,0.0050134636,0.015354678,0.0,0.0,0.0,0.0,0.0,0.0
37995072,0.0,0.0,0.0,0.0017595781,0.0027095312,0.019367218,0.0,0.0,0.0,0.017503262,0.0,0.0,0.0,0.0,0.0,0.0,0.0,0.0,0.25776312,0.25776303,4.0624013,0.0,0.0,0.0,0.090322666,0.0,0.0,0.0,0.0,0.0,8.835777e-05,0.0046371603,0.014930191,0.0,0.0,0.0,0.0,0.0,0.0
38194315,0.0,0.0,0.0,0.0018926542,0.0026000808,0.21197128,0.0,0.0,0.0,0.0016875267,0.0,0.0,0.0,0.0,0.0,0.0,0.0,0.0,0.25789243,0.25789237,4.0630627,0.0,0.0,0.0,0.09032037,0.0,0.0,0.0,0.0,0.0,0.00021944434,0.00077712454,0.003400457,0.0,0.0,0.0,0.0,0.0,0.0
38398269,0.0,0.0,0.0,0.0018731838,0.0025092727,0.14852524,0.0,0.0,0.0,0.009180307,0.0,0.0,0.0,0.0,0.0,0.0,0.0,0.0,0.2578242,0.25782415,4.0629444,0.0,0.0,0.0,0.0903184,0.0,0.0,0.0,0.0,0.0,0.00011237459,0.0045992257,0.013265155,0.0,0.0,0.0,0.0,0.0,0.0
38598305,0.0,0.0,0.0,0.0018766952,0.0025010693,0.30144882,0.0,0.0,0.0,-0.033901215,0.0,0.0,0.0,0.0,0.0,0.0,0.0,0.0,0.25767866,0.2576786,4.062433,0.0,0.0,0.0,0.09031647,0.0,0.0,0.0,0.0,0.0,5.921207e-05,0.0027071184,0.007716945,0.0,0.0,0.0,0.0,0.0,0.0
38801469,0.0,0.0,0.0,0.002022664,0.0026219178,-0.2291069,0.0,0.0,0.0,0.01215744,0.0,0.0,0.0,0.0,0.0,0.0,0.0,0.0,0.25781217,0.25781208,4.063056,0.0,0.0,0.0,0.090314,0.0,0.0,0.0,0.0,0.0,6.197496e-05,0.0029221934,0.00901316,0.0,0.0,0.0,0.0,0.0,0.0
39001468,0.0,0.0,0.0,0.0021308714,0.0027627042,-0.16407394,0.0,0.0,0.0,0.009359121,0.0,0.0,0.0,0.0,0.0,0.0,0.0,0.0,0.25780055,0.2578005,4.063112,0.0,0.0,0.0,0.09031186,0.0,0.0,0.0,0.0,0.0,0.0001469298,0.00040474898,0.0011574095,0.0,0.0,0.0,0.0,0.0,0.0
39201469,0.0,0.0,0.0,0.0020674684,0.002951802,-0.03882599,0.0,0.0,0.0,-0.016887426,0.0,0.0,0.0,0.0,0.0,0.0,0.0,0.0,0.257635,0.2576349,4.062443,0.0,0.0,0.0,0.090310276,0.0,0.0,0.0,0.0,0.0,0.000111239504,0.0005736215,0.0017227212,0.0,0.0,0.0,0.0,0.0,0.0
39408668,0.0,0.0,0.0,0.0019366354,0.003161967,-0.1409607,0.0,0.0,0.0,-0.014808416,0.0,0.0,0.0,0.0,0.0,0.0,0.0,0.0,0.25750768,0.25750756,4.0618367,0.0,0.0,0.0,0.090308435,0.0,0.0,0.0,0.0,0.0,0.00012569537,0.003994443,0.012321,0.0,0.0,0.0,0.0,0.0,0.0
39608687,0.0,0.0,0.0,0.0016819077,0.0033754082,0.10310364,0.0,0.0,0.0,-0.011801481,0.0,0.0,0.0,0.0,0.0,0.0,0.0,0.0,0.25742015,0.25742003,4.061329,0.0,0.0,0.0,0.09030662,0.0,0.0,0.0,0.0,0.0,7.555025e-05,0.004398922,0.013959118,0.0,0.0,0.0,0.0,0.0,0.0
39808669,0.0,0.0,0.0,0.0014457903,0.0033816905,0.05101776,0.0,0.0,0.0,-0.0019626617,0.0,0.0,0.0,0.0,0.0,0.0,0.0,0.0,0.2573532,0.25735304,4.0608816,0.0,0.0,0.0,0.09030508,0.0,0.0,0.0,0.0,0.0,6.786281e-05,0.0033846574,0.01133826,0.0,0.0,0.0,0.0,0.0,0.0
40015868,0.0,0.0,0.0,0.0011894386,0.0032832671,0.15608215,0.0,0.0,0.0,-0.055764675,0.0,0.0,0.0,0.0,0.0,0.0,0.0,0.0,0.25732806,0.25732788,4.0605693,0.0,0.0,0.0,0.09030305,0.0,0.0,0.0,0.0,0.0,0.00036511858,0.0065038386,0.02055315,0.0,0.0,0.0,0.0,0.0,0.0
40215869,0.0,0.0,0.0,0.0009662863,0.0030462858,-0.019802094,0.0,0.0,0.0,-0.0018429756,0.0,0.0,0.0,0.0,0.0,0.0,0.0,0.0,0.25729132,0.2572911,4.060221,0.0,0.0,0.0,0.0903013,0.0,0.0,0.0,0.0,0.0,0.00018042007,0.0023058879,0.008269873,0.0,0.0,0.0,0.0,0.0,0.0
40415136,0.0,0.0,0.0,0.00078696536,0.0027012837,0.14992142,0.0,0.0,0.0,-0.078948975,0.0,0.0,0.0,0.0,0.0,0.0,0.0,0.0,0.25734672,0.25734648,4.060272,0.0,0.0,0.0,0.090299815,0.0,0.0,0.0,0.0,0.0,4.1796335e-05,0.00021905721,0.00046858008,0.0,0.0,0.0,0.0,0.0,0.0
40619075,0.0,0.0,0.0,0.0006647237,0.0022765459,-0.0158844,0.0,0.0,0.0,0.012584686,0.0,0.0,0.0,0.0,0.0,0.0,0.0,0.0,0.25747654,0.25747627,4.0607247,0.0,0.0,0.0,0.090297885,0.0,0.0,0.0,0.0,0.0,0.0003837153,0.0031350048,0.008756437,0.0,0.0,0.0,0.0,0.0,0.0
40827068,0.0,0.0,0.0,0.000628529,0.0019784267,-0.07260132,0.0,0.0,0.0,0.021960735,0.0,0.0,0.0,0.0,0.0,0.0,0.0,0.0,0.2575427,0.2575424,4.060989,0.0,0.0,0.0,0.09029596,0.0,0.0,0.0,0.0,0.0,0.00013673014,0.0011221361,0.0030426956,0.0,0.0,0.0,0.0,0.0,0.0
41026269,0.0,0.0,0.0,0.0006847817,0.001764685,0.23544693,0.0,0.0,0.0,0.0032732487,0.0,0.0,0.0,0.0,0.0,0.0,0.0,0.0,0.25745973,0.25745943,4.060627,0.0,0.0,0.0,0.09029407,0.0,0.0,0.0,0.0,0.0,0.00050330226,0.0020169881,0.0064425613,0.0,0.0,0.0,0.0,0.0,0.0
41226269,0.0,0.0,0.0,0.0008037441,0.0015544632,-0.026065826,0.0,0.0,0.0,0.015518427,0.0,0.0,0.0,0.0,0.0,0.0,0.0,0.0,0.2574637,0.25746343,4.0606055,0.0,0.0,0.0,0.09029219,0.0,0.0,0.0,0.0,0.0,0.00012773542,0.00064418034,0.0026663921,0.0,0.0,0.0,0.0,0.0,0.0
41426274,0.0,0.0,0.0,0.0009089134,0.0013812843,-0.113155365,0.0,0.0,0.0,-0.0718863,0.0,0.0,0.0,0.0,0.0,0.0,0.0,0.0,0.25759146,0.25759116,4.061156,0.0,0.0,0.0,0.09029014,0.0,0.0,0.0,0.0,0.0,0.00055299816,0.00097209297,0.003362063,0.0,0.0,0.0,0.0,0.0,0.0
41633507,0.0,0.0,0.0,0.0010157145,0.001060204,-0.4578247,0.0,0.0,0.0,-0.017035723,0.0,0.0,0.0,0.0,0.0,0.0,0.0,0.0,0.25769985,0.25769955,4.0617056,0.0,0.0,0.0,0.090288565,0.0,0.0,0.0,0.0,0.0,0.00019754801,0.0014746963,0.0045575667,0.0,0.0,0.0,0.0,0.0,0.0
41833469,0.0,0.0,0.0,0.0011304468,0.0007579938,0.008026123,0.0,0.0,0.0,0.0522995,0.0,0.0,0.0,0.0,0.0,0.0,0.0,0.0,0.25755787,0.2575576,4.0612164,0.0,0.0,0.0,0.09028702,0.0,0.0,0.0,0.0,0.0,0.0002781779,0.00049558026,0.0015739616,0.0,0.0,0.0,0.0,0.0,0.0
42040669,0.0,0.0,0.0,0.0011314912,0.0006055507,-0.23046494,0.0,0.0,0.0,-0.0022146702,0.0,0.0,0.0,0.0,0.0,0.0,0.0,0.0,0.25746247,0.2574622,4.060869,0.0,0.0,0.0,0.09028549,0.0,0.0,0.0,0.0,0.0,0.0007108607,0.005465471,0.016638905,0.0,0.0,0.0,0.0,0.0,0.0
42240686,0.0,0.0,0.0,0.0010563197,0.000428747,-0.008907318,0.0,0.0,0.0,-0.016596079,0.0,0.0,0.0,0.0,0.0,0.0,0.0,0.0,0.25744507,0.25744483,4.0607843,0.0,0.0,0.0,0.09028375,0.0,0.0,0.0,0.0,0.0,0.0002608755,0.0046863686,0.0151326945,0.0,0.0,0.0,0.0,0.0,0.0
42440676,0.0,0.0,0.0,0.00087583554,0.0002968195,-0.257473,0.0,0.0,0.0,-0.01875496,0.0,0.0,0.0,0.0,0.0,0.0,0.0,0.0,0.25745547,0.25745523,4.060809,0.0,0.0,0.0,0.09028205,0.0,0.0,0.0,0.0,0.0,5.7252968e-05,0.0023284028,0.008282196,0.0,0.0,0.0,0.0,0.0,0.0
42648691,0.0,0.0,0.0,0.000789516,0.00016490267,0.010353088,0.0,0.0,0.0,0.031636238,0.0,0.0,0.0,0.0,0.0,0.0,0.0,0.0,0.25759125,0.25759104,4.06141,0.0,0.0,0.0,0.09028081,0.0,0.0,0.0,0.0,0.0,0.00071862194,0.003963787,0.01284634,0.0,0.0,0.0,0.0,0.0,0.0
42847916,0.0,0.0,0.0,0.0007323944,0.00013720554,0.12366867,0.0,0.0,0.0,0.012461901,0.0,0.0,0.0,0.0,0.0,0.0,0.0,0.0,0.25775248,0.2577523,4.062174,0.0,0.0,0.0,0.09027935,0.0,0.0,0.0,0.0,0.0,0.0003882276,0.00084410544,0.003305881,0.0,0.0,0.0,0.0,0.0,0.0
43055869,0.0,0.0,0.0,0.00068739516,0.00016211082,-0.23843765,0.0,0.0,0.0,0.056574583,0.0,0.0,0.0,0.0,0.0,0.0,0.0,0.0,0.2577481,0.25774795,4.0622983,0.0,0.0,0.0,0.090277694,0.0,0.0,0.0,0.0,0.0,0.00044898852,0.0006453423,0.0021227896,0.0,0.0,0.0,0.0,0.0,0.0
43255101,0.0,0.0,0.0,0.00058753777,0.0002154734,-0.40647507,0.0,0.0,0.0,0.017207384,0.0,0.0,0.0,0.0,0.0,0.0,0.0,0.0,0.25780368,0.25780353,4.062669,0.0,0.0,0.0,0.09027627,0.0,0.0,0.0,0.0,0.0,8.991062e-06,0.00083798426,0.0023397396,0.0,0.0,0.0,0.0,0.0,0.0
43463090,0.0,0.0,0.0,0.00037853644,0.00032945038,0.032131195,0.0,0.0,0.0,0.051250935,0.0,0.0,0.0,0.0,0.0,0.0,0.0,0.0,0.25768447,0.25768435,4.0623307,0.0,0.0,0.0,0.09027446,0.0,0.0,0.0,0.0,0.0,0.00046773162,0.0028232548,0.008378319,0.0,0.0,0.0,0.0,0.0,0.0
43663070,0.0,0.0,0.0,8.0193066e-05,0.0004924907,0.37168503,0.0,0.0,0.0,0.03840208,0.0,0.0,0.0,0.0,0.0,0.0,0.0,0.0,0.2576079,0.25760785,4.062082,0.0,0.0,0.0,0.09027288,0.0,0.0,0.0,0.0,0.0,0.00072553713,0.00043213295,0.00092532823,0.0,0.0,0.0,0.0,0.0,0.0
43862297,0.0,0.0,0.0,-0.00019211032,0.0004705064,0.030971527,0.0,0.0,0.0,0.035528183,0.0,0.0,0.0,0.0,0.0,0.0,0.0,0.0,0.25755528,0.25755522,4.061874,0.0,0.0,0.0,0.09027092,0.0,0.0,0.0,0.0,0.0,0.00056650455,0.0012542116,0.0038977906,0.0,0.0,0.0,0.0,0.0,0.0
44062275,0.0,0.0,0.0,-0.00042662956,0.00045550082,-0.2183342,0.0,0.0,0.0,-0.015571594,0.0,0.0,0.0,0.0,0.0,0.0,0.0,0.0,0.25751212,0.2575121,4.061665,0.0,0.0,0.0,0.0902696,0.0,0.0,0.0,0.0,0.0,0.0007344629,0.00076384447,0.0025586295,0.0,0.0,0.0,0.0,0.0,0.0
44265508,0.0,0.0,0.0,-0.0006659229,0.0004676502,0.10886383,0.0,0.0,0.0,0.044402122,0.0,0.0,0.0,0.0,0.0,0.0,0.0,0.0,0.2574335,0.25743347,4.0612597,0.0,0.0,0.0,0.09026849,0.0,0.0,0.0,0.0,0.0,0.0009793192,0.004457024,0.013828276,0.0,0.0,0.0,0.0,0.0,0.0
44473517,0.0,0.0,0.0,-0.00066004373,0.00050518685,-0.15480042,0.0,0.0,0.0,0.0565238,0.0,0.0,0.0,0.0,0.0,0.0,0.0,0.0,0.25739178,0.25739178,4.0609818,0.0,0.0,0.0,0.09026721,0.0,0.0,0.0,0.0,0.0,0.0008996449,0.0042704707,0.014292644,0.0,0.0,0.0,0.0,0.0,0.0
44673469,0.0,0.0,0.0,-0.000529079,0.00063991564,0.0846405,0.0,0.0,0.0,-0.055420876,0.0,0.0,0.0,0.0,0.0,0.0,0.0,0.0,0.25748107,0.25748104,4.061249,0.0,0.0,0.0,0.090265736,0.0,0.0,0.0,0.0,0.0,0.00037726306,0.005116616,0.016951831,0.0,0.0,0.0,0.0,0.0,0.0
44880717,0.0,0.0,0.0,-0.00037491665,0.0006876787,0.24547958,0.0,0.0,0.0,0.008357048,0.0,0.0,0.0,0.0,0.0,0.0,0.0,0.0,0.25746435,0.25746432,4.0611362,0.0,0.0,0.0,0.09026467,0.0,0.0,0.0,0.0,0.0,0.00027878882,0.0048992056,0.016236074,0.0,0.0,0.0,0.0,0.0,0.0
45080669,0.0,0.0,0.0,-0.00014436356,0.0007549443,0.2673607,0.0,0.0,0.0,0.05884409,0.0,0.0,0.0,0.0,0.0,0.0,0.0,0.0,0.25744942,0.2574494,4.061018,0.0,0.0,0.0,0.090263404,0.0,0.0,0.0,0.0,0.0,0.00074556086,0.00547511,0.017855335,0.0,0.0,0.0,0.0,0.0,0.0
45280691,0.0,0.0,0.0,3.7308248e-05,0.00082534365,-0.24966049,0.0,0.0,0.0,0.11308384,0.0,0.0,0.0,0.0,0.0,0.0,0.0,0.0,0.2573982,0.25739813,4.060717,0.0,0.0,0.0,0.09026216,0.0,0.0,0.0,0.0,0.0,0.0007947946,0.0013429555,0.0057377424,0.0,0.0,0.0,0.0,0.0,0.0
45487868,0.0,0.0,0.0,6.6109125e-05,0.0008969258,0.03268051,0.0,0.0,0.0,-0.027228594,0.0,0.0,0.0,0.0,0.0,0.0,0.0,0.0,0.25734457,0.2573445,4.0603943,0.0,0.0,0.0,0.09026076,0.0,0.0,0.0,0.0,0.0,0.0002802977,0.002920926,0.009717123,0.0,0.0,0.0,0.0,0.0,0.0
45687869,0.0,0.0,0.0,0.0001384522,0.0011072481,-0.061088562,0.0,0.0,0.0,0.033492327,0.0,0.0,0.0,0.0,0.0,0.0,0.0,0.0,0.25731027,0.2573102,4.0601463,0.0,0.0,0.0,0.090259545,0.0,0.0,0.0,0.0,0.0,0.00012461345,0.00079340825,0.003062483,0.0,0.0,0.0,0.0,0.0,0.0
45895069,0.0,0.0,0.0,0.00017866744,0.0013280893,0.06219864,0.0,0.0,0.0,0.008623362,0.0,0.0,0.0,0.0,0.0,0.0,0.0,0.0,0.25734836,0.25734827,4.0602126,0.0,0.0,0.0,0.09025853,0.0,0.0,0.0,0.0,0.0,0.00027563784,0.0004842169,0.0011318624,0.0,0.0,0.0,0.0,0.0,0.0
46095115,0.0,0.0,0.0,0.00023448822,0.0016049198,-0.22602463,0.0,0.0,0.0,0.003956318,0.0,0.0,0.0,0.0,0.0,0.0,0.0,0.0,0.2573818,0.25738168,4.0602674,0.0,0.0,0.0,0.09025734,0.0,0.0,0.0,0.0,0.0,0.00073226227,0.0045074797,0.013787603,0.0,0.0,0.0,0.0,0.0,0.0
46295102,0.0,0.0,0.0,0.00029402977,0.0017853145,0.26683426,0.0,0.0,0.0,0.009640694,0.0,0.0,0.0,0.0,0.0,0.0,0.0,0.0,0.257392,0.25739187,4.0603,0.0,0.0,0.0,0.09025579,0.0,0.0,0.0,0.0,0.0,0.0006825437,0.0008431453,0.0015137182,0.0,0.0,0.0,0.0,0.0,0.0
46493509,0.0,0.0,0.0,0.00034292403,0.0020014297,-0.2339592,0.0,0.0,0.0,0.00017619133,0.0,0.0,0.0,0.0,0.0,0.0,0.0,0.0,0.2574817,0.25748158,4.060669,0.0,0.0,0.0,0.09025429,0.0,0.0,0.0,0.0,0.0,0.0006953664,0.0032401884,0.010446586,0.0,0.0,0.0,0.0,0.0,0.0
46702269,0.0,0.0,0.0,0.0005349195,0.0022846763,-0.35087204,0.0,0.0,0.0,-0.0028662682,0.0,0.0,0.0,0.0,0.0,0.0,0.0,0.0,0.25766844,0.2576683,4.061516,0.0,0.0,0.0,0.09025316,0.0,0.0,0.0,0.0,0.0,0.00038993292,0.0027305677,0.00900361,0.0,0.0,0.0,0.0,0.0,0.0
46902318,0.0,0.0,0.0,0.0006629923,0.0024223572,-0.07311249,0.0,0.0,0.0,0.0030434132,0.0,0.0,0.0,0.0,0.0,0.0,0.0,0.0,0.2576024,0.2576022,4.0613894,0.0,0.0,0.0,0.09025185,0.0,0.0,0.0,0.0,0.0,4.051917e-05,0.0015584797,0.0054095304,0.0,0.0,0.0,0.0,0.0,0.0
47109478,0.0,0.0,0.0,0.0007754809,0.0025246434,-0.18397903,0.0,0.0,0.0,-0.059687614,0.0,0.0,0.0,0.0,0.0,0.0,0.0,0.0,0.25755975,0.25755957,4.0613008,0.0,0.0,0.0,0.09025059,0.0,0.0,0.0,0.0,0.0,0.00046700722,0.00460014,0.014638488,0.0,0.0,0.0,0.0,0.0,0.0
47309469,0.0,0.0,0.0,0.00084130175,0.0026581746,-0.088344574,0.0,0.0,0.0,0.019275904,0.0,0.0,0.0,0.0,0.0,0.0,0.0,0.0,0.25746238,0.25746223,4.0609455,0.0,0.0,0.0,0.09024949,0.0,0.0,0.0,0.0,0.0,0.0005514606,0.004561858,0.015031188,0.0,0.0,0.0,0.0,0.0,0.0
47509475,0.0,0.0,0.0,0.00083130505,0.0027781327,-0.046424866,0.0,0.0,0.0,0.012227535,0.0,0.0,0.0,0.0,0.0,0.0,0.0,0.0,0.25738,0.25737986,4.060598,0.0,0.0,0.0,0.09024842,0.0,0.0,0.0,0.0,0.0,0.0004945847,0.002096073,0.0076151085,0.0,0.0,0.0,0.0,0.0,0.0
47712669,0.0,0.0,0.0,0.000754682,0.003035466,0.37647247,0.0,0.0,0.0,0.033230305,0.0,0.0,0.0,0.0,0.0,0.0,0.0,0.0,0.25738552,0.25738537,4.0606,0.0,0.0,0.0,0.09024735,0.0,0.0,0.0,0.0,0.0,0.00051437336,0.00069169496,0.00095805374,0.0,0.0,0.0,0.0,0.0,0.0
47912671,0.0,0.0,0.0,0.0006222007,0.0033716182,-0.20296097,0.0,0.0,0.0,0.024212837,0.0,0.0,0.0,0.0,0.0,0.0,0.0,0.0,0.25743303,0.2574329,4.060756,0.0,0.0,0.0,0.09024614,0.0,0.0,0.0,0.0,0.0,0.00052085496,0.0033995467,0.010496935,0.0,0.0,0.0,0.0,0.0,0.0
48119887,0.0,0.0,0.0,0.00049689726,0.0037859664,0.21537018,0.0,0.0,0.0,-0.0099720955,0.0,0.0,0.0,0.0,0.0,0.0,0.0,0.0,0.2574946,0.25749448,4.061039,0.0,0.0,0.0,0.09024526,0.0,0.0,0.0,0.0,0.0,0.0004103017,0.0008854799,0.001976671,0.0,0.0,0.0,0.0,0.0,0.0
48319868,0.0,0.0,0.0,0.00047074875,0.00407639,0.37052536,0.0,0.0,0.0,-0.017317772,0.0,0.0,0.0,0.0,0.0,0.0,0.0,0.0,0.25739267,0.2573926,4.0606155,0.0,0.0,0.0,0.09024423,0.0,0.0,0.0,0.0,0.0,0.00022900927,0.004613975,0.01352001,0.0,0.0,0.0,0.0,0.0,0.0
48527875,0.0,0.0,0.0,0.000388987,0.0045614066,-0.2552986,0.0,0.0,0.0,-0.040500164,0.0,0.0,0.0,0.0,0.0,0.0,0.0,0.0,0.2575411,0.257541,4.0612597,0.0,0.0,0.0,0.090243205,0.0,0.0,0.0,0.0,0.0,6.986503e-05,0.00078818237,0.0015625596,0.0,0.0,0.0,0.0,0.0,0.0
48727068,0.0,0.0,0.0,0.00029633896,0.0048234523,-0.22171783,0.0,0.0,0.0,0.037195206,0.0,0.0,0.0,0.0,0.0,0.0,0.0,0.0,0.2574436,0.25744352,4.0608726,0.0,0.0,0.0,0.09024236,0.0,0.0,0.0,0.0,0.0,6.220381e-05,0.001092507,0.0035378397,0.0,0.0,0.0,0.0,0.0,0.0
48927107,0.0,0.0,0.0,0.00019050553,0.0050141714,0.042922974,0.0,0.0,0.0,-0.018065453,0.0,0.0,0.0,0.0,0.0,0.0,0.0,0.0,0.2573789,0.25737882,4.060575,0.0,0.0,0.0,0.09024088,0.0,0.0,0.0,0.0,0.0,0.00023006262,0.0016521547,0.0043588793,0.0,0.0,0.0,0.0,0.0,0.0
49134298,0.0,0.0,0.0,0.00010309381,0.005254829,-0.16851425,0.0,0.0,0.0,0.012252331,0.0,0.0,0.0,0.0,0.0,0.0,0.0,0.0,0.25744584,0.25744575,4.0608325,0.0,0.0,0.0,0.09023973,0.0,0.0,0.0,0.0,0.0,0.00052627496,0.0037649078,0.011318974,0.0,0.0,0.0,0.0,0.0,0.0
50556716,0.0,0.0,0.0,0.0015554879,0.006047234,0.15789032,0.0,0.0,0.0,0.021091461,0.0,0.0,0.0,0.0,0.0,0.0,0.0,0.0,0.25728276,0.25728267,4.0599756,0.0,0.0,0.0,0.09023258,0.0,0.0,0.0,0.0,0.0,0.00029755084,0.0021367355,0.005660802,0.0,0.0,0.0,0.0,0.0,0.0
50756669,0.0,0.0,0.0,0.001660637,0.005777965,0.24497604,0.0,0.0,0.0,0.007118702,0.0,0.0,0.0,0.0,0.0,0.0,0.0,0.0,0.25732,0.25731987,4.060069,0.0,0.0,0.0,0.090231694,0.0,0.0,0.0,0.0,0.0,0.00054458267,0.0006509423,0.0012826578,0.0,0.0,0.0,0.0,0.0,0.0
50959898,0.0,0.0,0.0,0.0016939328,0.0053723888,-0.09512329,0.0,0.0,0.0,0.032206297,0.0,0.0,0.0,0.0,0.0,0.0,0.0,0.0,0.25728858,0.2572885,4.059865,0.0,0.0,0.0,0.09023096,0.0,0.0,0.0,0.0,0.0,0.0009082797,0.00047636632,0.00090753357,0.0,0.0,0.0,0.0,0.0,0.0
51159875,0.0,0.0,0.0,0.001614209,0.0050202757,-0.17752075,0.0,0.0,0.0,-0.011023521,0.0,0.0,0.0,0.0,0.0,0.0,0.0,0.0,0.25743404,0.25743392,4.06043,0.0,0.0,0.0,0.09022995,0.0,0.0,0.0,0.0,0.0,0.0011194359,0.00034686204,0.0006339412,0.0,0.0,0.0,0.0,0.0,0.0
51359075,0.0,0.0,0.0,0.0014467731,0.004660886,-0.43655014,0.0,0.0,0.0,0.0031132698,0.0,0.0,0.0,0.0,0.0,0.0,0.0,0.0,0.25758,0.2575799,4.0610566,0.0,0.0,0.0,0.09022908,0.0,0.0,0.0,0.0,0.0,0.000686821,0.00121024,0.0039843335,0.0,0.0,0.0,0.0,0.0,0.0
51567082,0.0,0.0,0.0,0.0011052218,0.004096918,-0.011161804,0.0,0.0,0.0,0.0016307831,0.0,0.0,0.0,0.0,0.0,0.0,0.0,0.0,0.25748765,0.25748754,4.0607543,0.0,0.0,0.0,0.090228215,0.0,0.0,0.0,0.0,0.0,0.0003695261,0.0018185419,0.0056212274,0.0,0.0,0.0,0.0,0.0,0.0
51767087,0.0,0.0,0.0,0.00085355045,0.003808095,-0.13019943,0.0,0.0,0.0,0.019477844,0.0,0.0,0.0,0.0,0.0,0.0,0.0,0.0,0.25747624,0.25747612,4.060758,0.0,0.0,0.0,0.090226956,0.0,0.0,0.0,0.0,0.0,0.00019128405,0.00039974425,0.0013920419,0.0,0.0,0.0,0.0,0.0,0.0
51974269,0.0,0.0,0.0,0.00061373645,0.0036417395,0.0031852722,0.0,0.0,0.0,0.0105826855,0.0,0.0,0.0,0.0,0.0,0.0,0.0,0.0,0.2574658,0.25746566,4.060759,0.0,0.0,0.0,0.09022585,0.0,0.0,0.0,0.0,0.0,0.00031902027,0.00029063024,0.00070366665,0.0,0.0,0.0,0.0,0.0,0.0
52174269,0.0,0.0,0.0,0.0002428676,0.0036018188,0.08226395,0.0,0.0,0.0,-0.01021719,0.0,0.0,0.0,0.0,0.0,0.0,0.0,0.0,0.25744954,0.25744942,4.060729,0.0,0.0,0.0,0.090225026,0.0,0.0,0.0,0.0,0.0,0.00055511907,0.0033789945,0.009980062,0.0,0.0,0.0,0.0,0.0,0.0
52374268,0.0,0.0,0.0,-0.00034463414,0.003525056,0.08165741,0.0,0.0,0.0,0.04835081,0.0,0.0,0.0,0.0,0.0,0.0,0.0,0.0,0.25744614,0.25744602,4.0607386,0.0,0.0,0.0,0.09022449,0.0,0.0,0.0,0.0,0.0,0.00018622715,0.0019950848,0.006395755,0.0,0.0,0.0,0.0,0.0,0.0
52581468,0.0,0.0,0.0,-0.0009483239,0.0035565777,-0.4543991,0.0,0.0,0.0,0.0004169941,0.0,0.0,0.0,0.0,0.0,0.0,0.0,0.0,0.25744277,0.25744268,4.060745,0.0,0.0,0.0,0.090223566,0.0,0.0,0.0,0.0,0.0,0.00012521239,0.0015249681,0.0041619986,0.0,0.0,0.0,0.0,0.0,0.0
52781469,0.0,0.0,0.0,-0.001523419,0.0034982688,0.0713768,0.0,0.0,0.0,0.034667492,0.0,0.0,0.0,0.0,0.0,0.0,0.0,0.0,0.25737247,0.25737235,4.0604644,0.0,0.0,0.0,0.09022277,0.0,0.0,0.0,0.0,0.0,0.00054964,0.0025481223,0.007814482,0.0,0.0,0.0,0.0,0.0,0.0
52989475,0.0,0.0,0.0,-0.0019570056,0.0034586075,0.37007523,0.0,0.0,0.0,0.04819393,0.0,0.0,0.0,0.0,0.0,0.0,0.0,0.0,0.25730953,0.25730944,4.0601788,0.0,0.0,0.0,0.09022183,0.0,0.0,0.0,0.0,0.0,0.00057330646,0.00070486724,0.0012378312,0.0,0.0,0.0,0.0,0.0,0.0
53188669,0.0,0.0,0.0,-0.0024343012,0.0035195844,0.29347992,0.0,0.0,0.0,0.0030708313,0.0,0.0,0.0,0.0,0.0,0.0,0.0,0.0,0.257275,0.2572749,4.0599785,0.0,0.0,0.0,0.090221055,0.0,0.0,0.0,0.0,0.0,0.00068197225,0.0008599353,0.0017512782,0.0,0.0,0.0,0.0,0.0,0.0
53388669,0.0,0.0,0.0,-0.002793535,0.0035656663,-0.11626816,0.0,0.0,0.0,0.042630672,0.0,0.0,0.0,0.0,0.0,0.0,0.0,0.0,0.25731096,0.25731087,4.0600758,0.0,0.0,0.0,0.09022029,0.0,0.0,0.0,0.0,0.0,0.0005795927,0.0023998641,0.007095305,0.0,0.0,0.0,0.0,0.0,0.0
53595869,0.0,0.0,0.0,-0.003068091,0.0035185576,-0.0943985,0.0,0.0,0.0,0.02306652,0.0,0.0,0.0,0.0,0.0,0.0,0.0,0.0,0.25735027,0.2573502,4.0601864,0.0,0.0,0.0,0.09021953,0.0,0.0,0.0,0.0,0.0,0.0004403512,0.0040401653,0.012354788,0.0,0.0,0.0,0.0,0.0,0.0
53795875,0.0,0.0,0.0,-0.0033295706,0.0035632215,0.10794449,0.0,0.0,0.0,0.046340942,0.0,0.0,0.0,0.0,0.0,0.0,0.0,0.0,0.2574998,0.25749975,4.060801,0.0,0.0,0.0,0.09021842,0.0,0.0,0.0,0.0,0.0,0.00063361065,0.0020442053,0.0059497776,0.0,0.0,0.0,0.0,0.0,0.0
53995904,0.0,0.0,0.0,-0.0035505027,0.0033992287,-0.060531616,0.0,0.0,0.0,0.023718119,0.0,0.0,0.0,0.0,0.0,0.0,0.0,0.0,0.25743502,0.25743493,4.06056,0.0,0.0,0.0,0.09021767,0.0,0.0,0.0,0.0,0.0,0.000532078,0.0024021082,0.0073569394,0.0,0.0,0.0,0.0,0.0,0.0
54199068,0.0,0.0,0.0,-0.0038286082,0.0032366565,0.07569885,0.0,0.0,0.0,0.020554304,0.0,0.0,0.0,0.0,0.0,0.0,0.0,0.0,0.25744176,0.25744167,4.0605803,0.0,0.0,0.0,0.090217076,0.0,0.0,0.0,0.0,0.0,0.00041024256,0.001423835,0.004194439,0.0,0.0,0.0,0.0,0.0,0.0
54407069,0.0,0.0,0.0,-0.0039578145,0.0030992562,0.16120148,0.0,0.0,0.0,0.03316617,0.0,0.0,0.0,0.0,0.0,0.0,0.0,0.0,0.2574641,0.25746402,4.0607343,0.0,0.0,0.0,0.09021609,0.0,0.0,0.0,0.0,0.0,0.001410167,0.0044837366,0.0130495755,0.0,0.0,0.0,0.0,0.0,0.0
54607069,0.0,0.0,0.0,-0.0040097567,0.0031601782,0.0065956116,0.0,0.0,0.0,-0.0063893795,0.0,0.0,0.0,0.0,0.0,0.0,0.0,0.0,0.25745648,0.25745633,4.060739,0.0,0.0,0.0,0.09021524,0.0,0.0,0.0,0.0,0.0,0.00053131534,0.0009871664,0.0026908477,0.0,0.0,0.0,0.0,0.0,0.0
54806276,0.0,0.0,0.0,-0.003958549,0.0032596753,-0.06609726,0.0,0.0,0.0,0.015547276,0.0,0.0,0.0,0.0,0.0,0.0,0.0,0.0,0.2574717,0.25747156,4.060822,0.0,0.0,0.0,0.09021417,0.0,0.0,0.0,0.0,0.0,0.0012785915,0.0008602369,0.0014814049,0.0,0.0,0.0,0.0,0.0,0.0
55014301,0.0,0.0,0.0,-0.0038104628,0.0032183651,0.106967926,0.0,0.0,0.0,0.044395447,0.0,0.0,0.0,0.0,0.0,0.0,0.0,0.0,0.25739345,0.25739327,4.060499,0.0,0.0,0.0,0.09021348,0.0,0.0,0.0,0.0,0.0,0.0005427004,0.0009058461,0.0024138573,0.0,0.0,0.0,0.0,0.0,0.0
55213518,0.0,0.0,0.0,-0.0037070464,0.0031745643,0.016174316,0.0,0.0,0.0,0.017932892,0.0,0.0,0.0,0.0,0.0,0.0,0.0,0.0,0.25733274,0.25733253,4.0602255,0.0,0.0,0.0,0.090212665,0.0,0.0,0.0,0.0,0.0,0.00037293456,0.003953305,0.012042716,0.0,0.0,0.0,0.0,0.0,0.0
55421501,0.0,0.0,0.0,-0.0036032775,0.003145529,0.016578674,0.0,0.0,0.0,-0.0018677711,0.0,0.0,0.0,0.0,0.0,0.0,0.0,0.0,0.25729612,0.25729588,4.0600286,0.0,0.0,0.0,0.09021188,0.0,0.0,0.0,0.0,0.0,0.0004011976,0.0031105047,0.009973344,0.0,0.0,0.0,0.0,0.0,0.0
55621475,0.0,0.0,0.0,-0.0036534653,0.002991692,0.093429565,0.0,0.0,0.0,0.06868172,0.0,0.0,0.0,0.0,0.0,0.0,0.0,0.0,0.2572541,0.25725383,4.059802,0.0,0.0,0.0,0.09021122,0.0,0.0,0.0,0.0,0.0,0.00067360024,0.0038069573,0.012261027,0.0,0.0,0.0,0.0,0.0,0.0
55824668,0.0,0.0,0.0,-0.0038958634,0.0027301963,0.31665802,0.0,0.0,0.0,0.06236267,0.0,0.0,0.0,0.0,0.0,0.0,0.0,0.0,0.25749525,0.25749496,4.060792,0.0,0.0,0.0,0.090210564,0.0,0.0,0.0,0.0,0.0,0.0012549151,0.0009999798,0.003710835,0.0,0.0,0.0,0.0,0.0,0.0
56024669,0.0,0.0,0.0,-0.0040360386,0.0023808728,-0.25647354,0.0,0.0,0.0,0.034808874,0.0,0.0,0.0,0.0,0.0,0.0,0.0,0.0,0.25744757,0.25744727,4.060621,0.0,0.0,0.0,0.09020992,0.0,0.0,0.0,0.0,0.0,0.0009926915,0.005260052,0.016635451,0.0,0.0,0.0,0.0,0.0,0.0
56223869,0.0,0.0,0.0,-0.0042182053,0.0019661912,-0.17208481,0.0,0.0,0.0,0.039443016,0.0,0.0,0.0,0.0,0.0,0.0,0.0,0.0,0.25739092,0.2573906,4.060401,0.0,0.0,0.0,0.09020938,0.0,0.0,0.0,0.0,0.0,0.000557919,0.003357227,0.011027416,0.0,0.0,0.0,0.0,0.0,0.0
56423875,0.0,0.0,0.0,-0.004526998,0.0015506778,-0.12408447,0.0,0.0,0.0,0.033313513,0.0,0.0,0.0,0.0,0.0,0.0,0.0,0.0,0.25739902,0.25739866,4.060427,0.0,0.0,0.0,0.09020886,0.0,0.0,0.0,0.0,0.0,0.00082437776,0.0028332614,0.0091925515,0.0,0.0,0.0,0.0,0.0,0.0
56631875,0.0,0.0,0.0,-0.0050234934,0.0011974275,0.19424438,0.0,0.0,0.0,0.0065619946,0.0,0.0,0.0,0.0,0.0,0.0,0.0,0.0,0.25760415,0.2576038,4.0613346,0.0,0.0,0.0,0.09020812,0.0,0.0,0.0,0.0,0.0,0.0008590087,0.006114899,0.01885191,0.0,0.0,0.0,0.0,0.0,0.0
56831076,0.0,0.0,0.0,-0.005454015,0.00084765017,0.29339218,0.0,0.0,0.0,0.014863968,0.0,0.0,0.0,0.0,0.0,0.0,0.0,0.0,0.2577546,0.2577542,4.062121,0.0,0.0,0.0,0.09020771,0.0,0.0,0.0,0.0,0.0,0.0006531698,0.0057104654,0.017954139,0.0,0.0,0.0,0.0,0.0,0.0
57039075,0.0,0.0,0.0,-0.005726144,0.0004558413,0.122592926,0.0,0.0,0.0,0.006524563,0.0,0.0,0.0,0.0,0.0,0.0,0.0,0.0,0.2575943,0.25759393,4.0616293,0.0,0.0,0.0,0.09020699,0.0,0.0,0.0,0.0,0.0,0.000715686,0.0014512101,0.004655249,0.0,0.0,0.0,0.0,0.0,0.0
57239093,0.0,0.0,0.0,-0.006113896,9.953227e-05,0.07600403,0.0,0.0,0.0,0.020728827,0.0,0.0,0.0,0.0,0.0,0.0,0.0,0.0,0.2576759,0.2576755,4.0620737,0.0,0.0,0.0,0.090206236,0.0,0.0,0.0,0.0,0.0,0.001343364,0.00093568134,0.0021592265,0.0,0.0,0.0,0.0,0.0,0.0
57439088,0.0,0.0,0.0,-0.0064007915,-0.0001786145,0.044452667,0.0,0.0,0.0,0.008158922,0.0,0.0,0.0,0.0,0.0,0.0,0.0,0.0,0.2576053,0.25760496,4.061882,0.0,0.0,0.0,0.0902055,0.0,0.0,0.0,0.0,0.0,0.0009868772,0.0045792726,0.013696444,0.0,0.0,0.0,0.0,0.0,0.0
57646273,0.0,0.0,0.0,-0.0067380867,-0.00040559462,0.37791824,0.0,0.0,0.0,0.040882587,0.0,0.0,0.0,0.0,0.0,0.0,0.0,0.0,0.2577002,0.2576998,4.062342,0.0,0.0,0.0,0.0902048,0.0,0.0,0.0,0.0,0.0,0.0010026505,0.0012835246,0.0041557313,0.0,0.0,0.0,0.0,0.0,0.0
57846268,0.0,0.0,0.0,-0.006783147,-0.0005909424,0.04499054,0.0,0.0,0.0,0.10058141,0.0,0.0,0.0,0.0,0.0,0.0,0.0,0.0,0.2576152,0.25761482,4.0620894,0.0,0.0,0.0,0.09020442,0.0,0.0,0.0,0.0,0.0,0.0005975394,0.0032936067,0.010624424,0.0,0.0,0.0,0.0,0.0,0.0
58053469,0.0,0.0,0.0,-0.0068900934,-0.00074146263,-0.38233948,0.0,0.0,0.0,0.07354236,0.0,0.0,0.0,0.0,0.0,0.0,0.0,0.0,0.25760967,0.25760928,4.062114,0.0,0.0,0.0,0.090203606,0.0,0.0,0.0,0.0,0.0,0.0004821155,0.008476564,0.026657,0.0,0.0,0.0,0.0,0.0,0.0
58253499,0.0,0.0,0.0,-0.0070532174,-0.00093395833,0.060100555,0.0,0.0,0.0,-0.03695059,0.0,0.0,0.0,0.0,0.0,0.0,0.0,0.0,0.25760782,0.25760746,4.0621777,0.0,0.0,0.0,0.09020302,0.0,0.0,0.0,0.0,0.0,0.0006589224,0.0016825745,0.0064038155,0.0,0.0,0.0,0.0,0.0,0.0
58451891,0.0,0.0,0.0,-0.0072969226,-0.0011566281,-0.25486374,0.0,0.0,0.0,0.020770073,0.0,0.0,0.0,0.0,0.0,0.0,0.0,0.0,0.25749108,0.25749072,4.0616794,0.0,0.0,0.0,0.09020232,0.0,0.0,0.0,0.0,0.0,0.00039973875,0.0018172978,0.0041204486,0.0,0.0,0.0,0.0,0.0,0.0
58656687,0.0,0.0,0.0,-0.007600476,-0.0013974445,-0.043483734,0.0,0.0,0.0,0.048154354,0.0,0.0,0.0,0.0,0.0,0.0,0.0,0.0,0.25740093,0.25740057,4.0612307,0.0,0.0,0.0,0.09020175,0.0,0.0,0.0,0.0,0.0,0.0005181883,0.0010427975,0.0021802473,0.0,0.0,0.0,0.0,0.0,0.0
58864669,0.0,0.0,0.0,-0.007895414,-0.0016426172,0.4533043,0.0,0.0,0.0,0.021253586,0.0,0.0,0.0,0.0,0.0,0.0,0.0,0.0,0.25729606,0.25729573,4.06065,0.0,0.0,0.0,0.09020099,0.0,0.0,0.0,0.0,0.0,0.0007801483,0.002371142,0.00699569,0.0,0.0,0.0,0.0,0.0,0.0
59063868,0.0,0.0,0.0,-0.008115515,-0.0019815094,0.14940262,0.0,0.0,0.0,0.010234594,0.0,0.0,0.0,0.0,0.0,0.0,0.0,0.0,0.2573217,0.25732136,4.060616,0.0,0.0,0.0,0.09020055,0.0,0.0,0.0,0.0,0.0,0.00070900633,0.002304661,0.006702096,0.0,0.0,0.0,0.0,0.0,0.0
59271869,0.0,0.0,0.0,-0.008140395,-0.0023060092,0.11074066,0.0,0.0,0.0,0.008133888,0.0,0.0,0.0,0.0,0.0,0.0,0.0,0.0,0.25727028,0.25726995,4.0602546,0.0,0.0,0.0,0.0902,0.0,0.0,0.0,0.0,0.0,0.0004653936,0.0013296588,0.0033788085,0.0,0.0,0.0,0.0,0.0,0.0
59471869,0.0,0.0,0.0,-0.008287448,-0.0028556467,0.0141716,0.0,0.0,0.0,0.033353806,0.0,0.0,0.0,0.0,0.0,0.0,0.0,0.0,0.2574345,0.25743416,4.0608687,0.0,0.0,0.0,0.09019957,0.0,0.0,0.0,0.0,0.0,0.00042962382,0.0010582772,0.0021756296,0.0,0.0,0.0,0.0,0.0,0.0
59671069,0.0,0.0,0.0,-0.008224678,-0.0031457276,-0.18294525,0.0,0.0,0.0,0.029292583,0.0,0.0,0.0,0.0,0.0,0.0,0.0,0.0,0.2573751,0.2573748,4.0605483,0.0,0.0,0.0,0.09019902,0.0,0.0,0.0,0.0,0.0,0.00064986496,0.0037517764,0.011211752,0.0,0.0,0.0,0.0,0.0,0.0
59871069,0.0,0.0,0.0,-0.00810421,-0.003440534,0.230896,0.0,0.0,0.0,0.021165848,0.0,0.0,0.0,0.0,0.0,0.0,0.0,0.0,0.25732505,0.25732476,4.060247,0.0,0.0,0.0,0.09019836,0.0,0.0,0.0,0.0,0.0,0.0006272895,0.0012528416,0.0021510439,0.0,0.0,0.0,0.0,0.0,0.0
60078290,0.0,0.0,0.0,-0.00796314,-0.0036223417,0.1710434,0.0,0.0,0.0,0.012936115,0.0,0.0,0.0,0.0,0.0,0.0,0.0,0.0,0.2572792,0.25727892,4.0599704,0.0,0.0,0.0,0.09019783,0.0,0.0,0.0,0.0,0.0,0.0003517073,0.003204789,0.00908992,0.0,0.0,0.0,0.0,0.0,0.0
60278269,0.0,0.0,0.0,-0.007736333,-0.0037687027,-0.33000946,0.0,0.0,0.0,0.02225566,0.0,0.0,0.0,0.0,0.0,0.0,0.0,0.0,0.25738433,0.2573841,4.060335,0.0,0.0,0.0,0.0901971,0.0,0.0,0.0,0.0,0.0,0.00042961625,0.0021764685,0.006019837,0.0,0.0,0.0,0.0,0.0,0.0
60486269,0.0,0.0,0.0,-0.007436375,-0.0039644637,0.100666046,0.0,0.0,0.0,0.039553642,0.0,0.0,0.0,0.0,0.0,0.0,0.0,0.0,0.2575373,0.25753707,4.060988,0.0,0.0,0.0,0.09019658,0.0,0.0,0.0,0.0,0.0,0.00068123784,0.0036351124,0.010929554,0.0,0.0,0.0,0.0,0.0,0.0
60689494,0.0,0.0,0.0,-0.0071515725,-0.0040536965,-0.19267654,0.0,0.0,0.0,-0.020823002,0.0,0.0,0.0,0.0,0.0,0.0,0.0,0.0,0.25771016,0.25770995,4.0618114,0.0,0.0,0.0,0.090196066,0.0,0.0,0.0,0.0,0.0,0.000743576,0.0031118854,0.009841909,0.0,0.0,0.0,0.0,0.0,0.0
60889469,0.0,0.0,0.0,-0.0065900562,-0.0039154743,0.1049881,0.0,0.0,0.0,0.00061893463,0.0,0.0,0.0,0.0,0.0,0.0,0.0,0.0,0.2576674,0.25766718,4.0617805,0.0,0.0,0.0,0.09019546,0.0,0.0,0.0,0.0,0.0,0.0003599896,0.0021486804,0.0067806705,0.0,0.0,0.0,0.0,0.0,0.0
61089487,0.0,0.0,0.0,-0.0059871487,-0.0037552095,-0.19593048,0.0,0.0,0.0,-0.0666368,0.0,0.0,0.0,0.0,0.0,0.0,0.0,0.0,0.2575341,0.25753394,4.061314,0.0,0.0,0.0,0.090195075,0.0,0.0,0.0,0.0,0.0,0.00012140343,0.0013466034,0.004245104,0.0,0.0,0.0,0.0,0.0,0.0
61288669,0.0,0.0,0.0,-0.0054716202,-0.003645895,0.18989182,0.0,0.0,0.0,-0.030099392,0.0,0.0,0.0,0.0,0.0,0.0,0.0,0.0,0.25743088,0.25743076,4.060905,0.0,0.0,0.0,0.090194575,0.0,0.0,0.0,0.0,0.0,0.00015187921,0.00096073165,0.0031029687,0.0,0.0,0.0,0.0,0.0,0.0
61496669,0.0,0.0,0.0,-0.0049245316,-0.0036187551,-0.31931305,0.0,0.0,0.0,0.021389484,0.0,0.0,0.0,0.0,0.0,0.0,0.0,0.0,0.25743175,0.25743163,4.0608974,0.0,0.0,0.0,0.09019408,0.0,0.0,0.0,0.0,0.0,0.00056158076,0.0014923897,0.0047052763,0.0,0.0,0.0,0.0,0.0,0.0
61699875,0.0,0.0,0.0,-0.0043982095,-0.0035142314,-0.40163422,0.0,0.0,0.0,0.020546913,0.0,0.0,0.0,0.0,0.0,0.0,0.0,0.0,0.2573616,0.25736147,4.060561,0.0,0.0,0.0,0.0901937,0.0,0.0,0.0,0.0,0.0,0.00058514596,0.0026166728,0.0078865085,0.0,0.0,0.0,0.0,0.0,0.0
61899868,0.0,0.0,0.0,-0.003877909,-0.0034758584,0.03236389,0.0,0.0,0.0,-0.007314205,0.0,0.0,0.0,0.0,0.0,0.0,0.0,0.0,0.25732675,0.25732666,4.0603685,0.0,0.0,0.0,0.090193115,0.0,0.0,0.0,0.0,0.0,0.00023585335,0.0042681815,0.01271353,0.0,0.0,0.0,0.0,0.0,0.0
62107868,0.0,0.0,0.0,-0.0032969643,-0.0034794826,-0.2192421,0.0,0.0,0.0,0.012475967,0.0,0.0,0.0,0.0,0.0,0.0,0.0,0.0,0.25729665,0.2572966,4.060161,0.0,0.0,0.0,0.09019256,0.0,0.0,0.0,0.0,0.0,0.00050419185,0.0027834256,0.008672204,0.0,0.0,0.0,0.0,0.0,0.0
62308669,0.0,0.0,0.0,-0.002817606,-0.0035214443,0.20049286,0.0,0.0,0.0,0.029906511,0.0,0.0,0.0,0.0,0.0,0.0,0.0,0.0,0.2573314,0.25733134,4.0602293,0.0,0.0,0.0,0.090192266,0.0,0.0,0.0,0.0,0.0,0.0005110711,0.0007164607,0.001306633,0.0,0.0,0.0,0.0,0.0,0.0
62507081,0.0,0.0,0.0,-0.0028161947,-0.0038420276,0.029773712,0.0,0.0,0.0,-0.017340422,0.0,0.0,0.0,0.0,0.0,0.0,0.0,0.0,100.00812,100.00812,4.0597506,0.0,0.0,0.0,0.09019163,0.0,0.0,0.0,0.0,0.0,0.00014252515,0.0012016328,0.002690431,0.0,0.0,0.0,0.0,0.0,0.0
62715069,0.0,0.0,0.0,-0.0032732007,-0.0048239646,-0.043468475,0.0,0.0,0.0,-0.014261961,0.0,0.0,0.0,0.0,0.0,0.0,0.0,0.0,100.01053,100.01053,4.0598493,0.0,0.0,0.0,0.09019105,0.0,0.0,0.0,0.0,0.0,6.159588e-05,0.0023311982,0.0064860038,0.0,0.0,0.0,0.0,0.0,0.0
62914269,0.0,0.0,0.0,-0.0037143733,-0.005915756,0.204113,0.0,0.0,0.0,0.030975342,0.0,0.0,0.0,0.0,0.0,0.0,0.0,0.0,100.01372,100.01372,4.0602174,0.0,0.0,0.0,0.0901904,0.0,0.0,0.0,0.0,0.0,0.0006291199,0.0018075469,0.0042951186,0.0,0.0,0.0,0.0,0.0,0.0
63122287,0.0,0.0,0.0,-0.002973385,-0.008722147,-0.20220566,0.0,0.0,0.0,0.0009868145,0.0,0.0,0.0,0.0,0.0,0.0,0.0,0.0,100.01774,100.01774,4.0606055,0.0,0.0,0.0,0.09018995,0.0,0.0,0.0,0.0,0.0,0.0008225977,0.0040429737,0.0117322095,0.0,0.0,0.0,0.0,0.0,0.0
63321469,0.0,0.0,0.0,-0.0035579572,-0.009967007,0.37067413,0.0,0.0,0.0,-0.068255424,0.0,0.0,0.0,0.0,0.0,0.0,0.0,0.0,100.022095,100.022095,4.0608587,0.0,0.0,0.0,0.0901895,0.0,0.0,0.0,0.0,0.0,0.00040220463,0.00477176,0.0133023,0.0,0.0,0.0,0.0,0.0,0.0
63521468,0.0,0.0,0.0,-0.0030629216,-0.011963846,-0.18025589,0.0,0.0,0.0,-0.039910078,0.0,0.0,0.0,0.0,0.0,0.0,0.0,0.0,100.02776,100.02776,4.0608287,0.0,0.0,0.0,0.09018906,0.0,0.0,0.0,0.0,0.0,0.00043587756,0.010350547,0.03152313,0.0,0.0,0.0,0.0,0.0,0.0
63729469,0.0,0.0,0.0,-0.002423531,-0.0142719755,0.17356873,0.0,0.0,0.0,0.07962322,0.0,0.0,0.0,0.0,0.0,0.0,0.0,0.0,100.03489,100.03489,4.061156,0.0,0.0,0.0,0.090188615,0.0,0.0,0.0,0.0,0.0,0.0005406406,0.012551552,0.039857112,0.0,0.0,0.0,0.0,0.0,0.0
63928703,0.0,0.0,0.0,-0.00187791,-0.016156837,0.6081085,0.0,0.0,0.0,0.07183409,0.0,0.0,0.0,0.0,0.0,0.0,0.0,0.0,100.04305,100.04305,4.0610895,0.0,0.0,0.0,0.09018808,0.0,0.0,0.0,0.0,0.0,0.00064123713,0.008468591,0.028141161,0.0,0.0,0.0,0.0,0.0,0.0
64136696,0.0,0.0,0.0,-0.0013004425,-0.018597517,-0.33213043,0.0,0.0,0.0,0.032832146,0.0,0.0,0.0,0.0,0.0,0.0,0.0,0.0,100.053444,100.053444,4.0607514,0.0,0.0,0.0,0.090187594,0.0,0.0,0.0,0.0,0.0,0.0006167152,0.0019483443,0.007779626,0.0,0.0,0.0,0.0,0.0,0.0
64336676,0.0,0.0,0.0,-0.0008987945,-0.021604791,0.0848999,0.0,0.0,0.0,0.011977911,0.0,0.0,0.0,0.0,0.0,0.0,0.0,0.0,100.06476,100.06476,4.0607495,0.0,0.0,0.0,0.09018718,0.0,0.0,0.0,0.0,0.0,0.0007645314,0.0012340918,0.0018877939,0.0,0.0,0.0,0.0,0.0,0.0
64543869,0.0,0.0,0.0,-0.00047977598,-0.024531405,-0.17605972,0.0,0.0,0.0,-0.0024809837,0.0,0.0,0.0,0.0,0.0,0.0,0.0,0.0,100.078926,100.078926,4.0605245,0.0,0.0,0.0,0.09018676,0.0,0.0,0.0,0.0,0.0,0.0004954039,0.0016423214,0.0046002655,0.0,0.0,0.0,0.0,0.0,0.0
64743875,0.0,0.0,0.0,-0.00023725924,-0.027588272,-0.20746613,0.0,0.0,0.0,0.0043833256,0.0,0.0,0.0,0.0,0.0,0.0,0.0,0.0,100.093376,100.09337,4.061053,0.0,0.0,0.0,0.09018634,0.0,0.0,0.0,0.0,0.0,0.0005265953,0.0035331121,0.010328921,0.0,0.0,0.0,0.0,0.0,0.0
64943103,0.0,0.0,0.0,0.00037546275,-0.030946366,0.03645706,0.0,0.0,0.0,0.0091784,0.0,0.0,0.0,0.0,0.0,0.0,0.0,0.0,100.11119,100.11119,4.0613236,0.0,0.0,0.0,0.09018594,0.0,0.0,0.0,0.0,0.0,0.00062410027,0.0012892139,0.004031918,0.0,0.0,0.0,0.0,0.0,0.0
65151069,0.0,0.0,0.0,0.0010206157,-0.034381937,0.22026443,0.0,0.0,0.0,0.04175234,0.0,0.0,0.0,0.0,0.0,0.0,0.0,0.0,100.131256,100.13125,4.061502,0.0,0.0,0.0,0.09018536,0.0,0.0,0.0,0.0,0.0,0.00074496854,0.0056603225,0.016867388,0.0,0.0,0.0,0.0,0.0,0.0
65351069,0.0,0.0,0.0,0.0018899369,-0.03720274,0.12207031,0.0,0.0,0.0,0.0024490356,0.0,0.0,0.0,0.0,0.0,0.0,0.0,0.0,100.153076,100.153076,4.0623107,0.0,0.0,0.0,0.09018475,0.0,0.0,0.0,0.0,0.0,0.0007905472,0.0020022267,0.00722786,0.0,0.0,0.0,0.0,0.0,0.0
65554269,0.0,0.0,0.0,0.0027683158,-0.040012915,0.19403458,0.0,0.0,0.0,-0.009533167,0.0,0.0,0.0,0.0,0.0,0.0,0.0,0.0,100.175896,100.175896,4.0617867,0.0,0.0,0.0,0.09018431,0.0,0.0,0.0,0.0,0.0,0.0008705163,0.000823378,0.0036160788,0.0,0.0,0.0,0.0,0.0,0.0
65754275,0.0,0.0,0.0,0.00369355,-0.043023895,-0.5612869,0.0,0.0,0.0,0.03566122,0.0,0.0,0.0,0.0,0.0,0.0,0.0,0.0,100.20128,100.20127,4.0614424,0.0,0.0,0.0,0.090183936,0.0,0.0,0.0,0.0,0.0,0.000595035,0.0054216036,0.01705848,0.0,0.0,0.0,0.0,0.0,0.0
65961493,0.0,0.0,0.0,0.0046329955,-0.046323586,-0.13111877,0.0,0.0,0.0,-0.011627436,0.0,0.0,0.0,0.0,0.0,0.0,0.0,0.0,100.23183,100.23182,4.061069,0.0,0.0,0.0,0.090183556,0.0,0.0,0.0,0.0,0.0,0.00034798242,0.0061415047,0.020065943,0.0,0.0,0.0,0.0,0.0,0.0
66161478,0.0,0.0,0.0,0.005101658,-0.04918068,0.12649536,0.0,0.0,0.0,0.064496756,0.0,0.0,0.0,0.0,0.0,0.0,0.0,0.0,100.26084,100.26084,4.060646,0.0,0.0,0.0,0.090183176,0.0,0.0,0.0,0.0,0.0,0.00057460123,0.004225398,0.01479515,0.0,0.0,0.0,0.0,0.0,0.0
66361469,0.0,0.0,0.0,0.0058692787,-0.051968005,0.122612,0.0,0.0,0.0,0.07702041,0.0,0.0,0.0,0.0,0.0,0.0,0.0,0.0,100.293465,100.29346,4.060632,0.0,0.0,0.0,0.0901827,0.0,0.0,0.0,0.0,0.0,0.0012130867,0.0018662933,0.0076065236,0.0,0.0,0.0,0.0,0.0,0.0
66569505,0.0,0.0,0.0,0.00626964,-0.054385368,-0.05607605,0.0,0.0,0.0,0.068698406,0.0,0.0,0.0,0.0,0.0,0.0,0.0,0.0,100.3287,100.3287,4.0600686,0.0,0.0,0.0,0.090182446,0.0,0.0,0.0,0.0,0.0,0.00061553286,0.0011925666,0.0046384325,0.0,0.0,0.0,0.0,0.0,0.0
66768668,0.0,0.0,0.0,0.006625285,-0.05675014,-0.08177185,0.0,0.0,0.0,0.031564474,0.0,0.0,0.0,0.0,0.0,0.0,0.0,0.0,100.364815,100.364815,4.060135,0.0,0.0,0.0,0.09018217,0.0,0.0,0.0,0.0,0.0,0.00038073733,0.004517239,0.01431272,0.0,0.0,0.0,0.0,0.0,0.0
66968668,0.0,0.0,0.0,0.0069594323,-0.059054095,0.0911026,0.0,0.0,0.0,0.056922436,0.0,0.0,0.0,0.0,0.0,0.0,0.0,0.0,100.40462,100.40462,4.0599246,0.0,0.0,0.0,0.09018181,0.0,0.0,0.0,0.0,0.0,6.9741174e-05,0.0040643574,0.013164878,0.0,0.0,0.0,0.0,0.0,0.0
67175868,0.0,0.0,0.0,0.0074722623,-0.060725287,-0.433712,0.0,0.0,0.0,0.10038543,0.0,0.0,0.0,0.0,0.0,0.0,0.0,0.0,100.443054,100.44305,4.060022,0.0,0.0,0.0,0.09018155,0.0,0.0,0.0,0.0,0.0,0.000100885016,0.008146536,0.025350802,0.0,0.0,0.0,0.0,0.0,0.0
67375875,0.0,0.0,0.0,0.0026526616,-0.021468554,-0.40130234,0.0,0.0,0.0,0.08275509,0.0,0.0,0.0,0.0,0.0,0.0,0.0,0.0,0.41678035,0.41678,4.0604124,0.0,0.0,0.0,0.090181194,0.0,0.0,0.0,0.0,0.0,0.00027677228,0.018636724,0.059417076,0.0,0.0,0.0,0.0,0.0,0.0
67575869,0.0,0.0,0.0,0.00053333177,-0.0035348856,-0.1667366,0.0,0.0,0.0,-0.009774685,0.0,0.0,0.0,0.0,0.0,0.0,0.0,0.0,0.2783909,0.2783909,4.0610013,0.0,0.0,0.0,0.09018082,0.0,0.0,0.0,0.0,0.0,0.000330238,0.012490141,0.04091343,0.0,0.0,0.0,0.0,0.0,0.0
67783069,0.0,0.0,0.0,0.00016291736,-0.001793983,0.17431259,0.0,0.0,0.0,0.022860527,0.0,0.0,0.0,0.0,0.0,0.0,0.0,0.0,0.26489845,0.26489848,4.0606856,0.0,0.0,0.0,0.09018057,0.0,0.0,0.0,0.0,0.0,0.00016809936,0.0034294422,0.012730373,0.0,0.0,0.0,0.0,0.0,0.0
67983069,0.0,0.0,0.0,4.5780704e-05,-0.0013284719,0.06600189,0.0,0.0,0.0,0.0054461956,0.0,0.0,0.0,0.0,0.0,0.0,0.0,0.0,0.2611696,0.26116964,4.0607023,0.0,0.0,0.0,0.09017996,0.0,0.0,0.0,0.0,0.0,0.00022825036,0.0018713531,0.006947705,0.0,0.0,0.0,0.0,0.0,0.0
68190269,0.0,0.0,0.0,3.9571012e-05,-0.000990647,-0.020729065,0.0,0.0,0.0,0.034435272,0.0,0.0,0.0,0.0,0.0,0.0,0.0,0.0,0.2594191,0.25941914,4.060408,0.0,0.0,0.0,0.09017962,0.0,0.0,0.0,0.0,0.0,0.0001185652,0.0020058115,0.0057855183,0.0,0.0,0.0,0.0,0.0,0.0
68390269,0.0,0.0,0.0,2.6333393e-05,-0.000697625,-0.1894455,0.0,0.0,0.0,0.0056123734,0.0,0.0,0.0,0.0,0.0,0.0,0.0,0.0,0.2586464,0.2586464,4.060425,0.0,0.0,0.0,0.09017928,0.0,0.0,0.0,0.0,0.0,0.0002981551,0.0022362904,0.0077264644,0.0,0.0,0.0,0.0,0.0,0.0
68590277,0.0,0.0,0.0,6.567014e-06,-0.0004461613,-0.11116791,0.0,0.0,0.0,-0.0014870167,0.0,0.0,0.0,0.0,0.0,0.0,0.0,0.0,0.2585165,0.2585165,4.0610304,0.0,0.0,0.0,0.09017884,0.0,0.0,0.0,0.0,0.0,0.00060851313,0.0038861893,0.013331208,0.0,0.0,0.0,0.0,0.0,0.0
68793501,0.0,0.0,0.0,9.554816e-05,-0.00018324729,-0.051059723,0.0,0.0,0.0,-0.027602434,0.0,0.0,0.0,0.0,0.0,0.0,0.0,0.0,0.2584055,0.2584055,4.0610332,0.0,0.0,0.0,0.09017861,0.0,0.0,0.0,0.0,0.0,0.0005586599,0.0016576813,0.0059608626,0.0,0.0,0.0,0.0,0.0,0.0
68993468,0.0,0.0,0.0,8.0850994e-05,1.1161552e-05,-0.14445877,0.0,0.0,0.0,0.024320126,0.0,0.0,0.0,0.0,0.0,0.0,0.0,0.0,0.25844562,0.25844562,4.0610576,0.0,0.0,0.0,0.09017819,0.0,0.0,0.0,0.0,0.0,0.00048568702,0.001720032,0.0064809006,0.0,0.0,0.0,0.0,0.0,0.0
69200669,0.0,0.0,0.0,-3.2309174e-05,0.00031190796,0.32950974,0.0,0.0,0.0,0.008630514,0.0,0.0,0.0,0.0,0.0,0.0,0.0,0.0,0.2585929,0.2585929,4.0613446,0.0,0.0,0.0,0.09017797,0.0,0.0,0.0,0.0,0.0,0.00028387998,0.0051581007,0.016425032,0.0,0.0,0.0,0.0,0.0,0.0
69400669,0.0,0.0,0.0,8.545987e-06,0.0006272021,-0.26151276,0.0,0.0,0.0,0.01178503,0.0,0.0,0.0,0.0,0.0,0.0,0.0,0.0,0.2586094,0.25860938,4.0612316,0.0,0.0,0.0,0.09017765,0.0,0.0,0.0,0.0,0.0,0.00017731206,0.0032150003,0.011055758,0.0,0.0,0.0,0.0,0.0,0.0
69600703,0.0,0.0,0.0,0.00014205619,0.0009521919,-0.5908966,0.0,0.0,0.0,-0.044958115,0.0,0.0,0.0,0.0,0.0,0.0,0.0,0.0,0.25877056,0.25877053,4.0617194,0.0,0.0,0.0,0.09017733,0.0,0.0,0.0,0.0,0.0,0.00020117781,0.0018358935,0.0052988334,0.0,0.0,0.0,0.0,0.0,0.0
69804669,0.0,0.0,0.0,0.00026912655,0.0012953115,0.03388214,0.0,0.0,0.0,-0.0068564415,0.0,0.0,0.0,0.0,0.0,0.0,0.0,0.0,0.2588599,0.25885987,4.0621524,0.0,0.0,0.0,0.09017686,0.0,0.0,0.0,0.0,0.0,0.0001779111,0.0018602696,0.0064198254,0.0,0.0,0.0,0.0,0.0,0.0
70003868,0.0,0.0,0.0,0.00028934967,0.0015208643,-0.11559677,0.0,0.0,0.0,0.0056164265,0.0,0.0,0.0,0.0,0.0,0.0,0.0,0.0,0.25882688,0.25882685,4.062396,0.0,0.0,0.0,0.09017672,0.0,0.0,0.0,0.0,0.0,4.421588e-05,0.0016545857,0.005570559,0.0,0.0,0.0,0.0,0.0,0.0
70211887,0.0,0.0,0.0,0.00012352777,0.001697878,-0.36528015,0.0,0.0,0.0,-0.020907164,0.0,0.0,0.0,0.0,0.0,0.0,0.0,0.0,0.25854227,0.25854224,4.061846,0.0,0.0,0.0,0.09017635,0.0,0.0,0.0,0.0,0.0,2.0145219e-05,0.0014252492,0.004315912,0.0,0.0,0.0,0.0,0.0,0.0
70411079,0.0,0.0,0.0,-3.0850857e-05,0.0017810377,-0.40208817,0.0,0.0,0.0,0.013399363,0.0,0.0,0.0,0.0,0.0,0.0,0.0,0.0,0.25830758,0.25830758,4.0613546,0.0,0.0,0.0,0.09017595,0.0,0.0,0.0,0.0,0.0,8.2044935e-05,0.0014327258,0.0040012985,0.0,0.0,0.0,0.0,0.0,0.0
70619069,0.0,0.0,0.0,-0.00011211577,0.0017572183,-0.07859802,0.0,0.0,0.0,0.024727821,0.0,0.0,0.0,0.0,0.0,0.0,0.0,0.0,0.25833374,0.2583337,4.061826,0.0,0.0,0.0,0.09017564,0.0,0.0,0.0,0.0,0.0,9.990765e-05,0.004994592,0.015572063,0.0,0.0,0.0,0.0,0.0,0.0
70818301,0.0,0.0,0.0,-7.3570016e-05,0.0016812712,0.27523804,0.0,0.0,0.0,-0.016866922,0.0,0.0,0.0,0.0,0.0,0.0,0.0,0.0,0.2581708,0.2581708,4.061626,0.0,0.0,0.0,0.09017511,0.0,0.0,0.0,0.0,0.0,0.00021883556,0.0014462487,0.0049169045,0.0,0.0,0.0,0.0,0.0,0.0
71018293,0.0,0.0,0.0,-8.28193e-05,0.0017051374,0.4356346,0.0,0.0,0.0,-0.024294853,0.0,0.0,0.0,0.0,0.0,0.0,0.0,0.0,0.25796932,0.25796932,4.061205,0.0,0.0,0.0,0.09017457,0.0,0.0,0.0,0.0,0.0,0.00015712598,0.0046588397,0.014446696,0.0,0.0,0.0,0.0,0.0,0.0
71218269,0.0,0.0,0.0,-4.1895004e-05,0.0017641535,0.056167603,0.0,0.0,0.0,0.010098696,0.0,0.0,0.0,0.0,0.0,0.0,0.0,0.0,0.2577826,0.2577826,4.060765,0.0,0.0,0.0,0.090174295,0.0,0.0,0.0,0.0,0.0,0.00015365319,0.0026502255,0.008620908,0.0,0.0,0.0,0.0,0.0,0.0
71424713,0.0,0.0,0.0,8.301729e-05,0.0018359615,0.19583511,0.0,0.0,0.0,0.0056922436,0.0,0.0,0.0,0.0,0.0,0.0,0.0,0.0,0.25764862,0.25764865,4.06048,0.0,0.0,0.0,0.09017411,0.0,0.0,0.0,0.0,0.0,0.00021426492,0.000915451,0.002917308,0.0,0.0,0.0,0.0,0.0,0.0
71625469,0.0,0.0,0.0,0.00012220866,0.0019816926,-0.22445679,0.0,0.0,0.0,0.023111582,0.0,0.0,0.0,0.0,0.0,0.0,0.0,0.0,0.2575901,0.25759014,4.0604377,0.0,0.0,0.0,0.09017383,0.0,0.0,0.0,0.0,0.0,0.00023305554,0.00079776655,0.0023260373,0.0,0.0,0.0,0.0,0.0,0.0
71825469,0.0,0.0,0.0,7.2691975e-05,0.0020776035,0.064712524,0.0,0.0,0.0,0.017296553,0.0,0.0,0.0,0.0,0.0,0.0,0.0,0.0,0.25747788,0.2574779,4.06013,0.0,0.0,0.0,0.09017356,0.0,0.0,0.0,0.0,0.0,6.947339e-05,0.003175493,0.009537276,0.0,0.0,0.0,0.0,0.0,0.0
72028669,0.0,0.0,0.0,-3.184007e-05,0.002129223,0.24366379,0.0,0.0,0.0,0.032935143,0.0,0.0,0.0,0.0,0.0,0.0,0.0,0.0,0.25753957,0.25753963,4.0604997,0.0,0.0,0.0,0.09017338,0.0,0.0,0.0,0.0,0.0,0.00040304984,0.004052701,0.012461249,0.0,0.0,0.0,0.0,0.0,0.0
72236669,0.0,0.0,0.0,-0.00021141341,0.0021358482,-0.14992523,0.0,0.0,0.0,0.018561363,0.0,0.0,0.0,0.0,0.0,0.0,0.0,0.0,0.2575284,0.25752845,4.0606127,0.0,0.0,0.0,0.09017309,0.0,0.0,0.0,0.0,0.0,0.00024292973,0.0014870455,0.004665911,0.0,0.0,0.0,0.0,0.0,0.0
72436676,0.0,0.0,0.0,-0.00044517603,0.0022330345,0.17017365,0.0,0.0,0.0,-0.006497383,0.0,0.0,0.0,0.0,0.0,0.0,0.0,0.0,0.2575001,0.25750017,4.0606146,0.0,0.0,0.0,0.09017283,0.0,0.0,0.0,0.0,0.0,0.00040484848,0.0055225664,0.01708205,0.0,0.0,0.0,0.0,0.0,0.0
72635931,0.0,0.0,0.0,-0.000723497,0.0023888764,0.111312866,0.0,0.0,0.0,-0.007764578,0.0,0.0,0.0,0.0,0.0,0.0,0.0,0.0,0.25742623,0.25742632,4.0603876,0.0,0.0,0.0,0.09017265,0.0,0.0,0.0,0.0,0.0,0.00034425652,0.006586482,0.020713678,0.0,0.0,0.0,0.0,0.0,0.0
72843900,0.0,0.0,0.0,-0.000992275,0.0025375197,0.07044983,0.0,0.0,0.0,0.0294621,0.0,0.0,0.0,0.0,0.0,0.0,0.0,0.0,0.257541,0.25754106,4.060939,0.0,0.0,0.0,0.09017239,0.0,0.0,0.0,0.0,0.0,0.000113352966,0.0018114577,0.0065934216,0.0,0.0,0.0,0.0,0.0,0.0
73043069,0.0,0.0,0.0,-0.0012403787,0.002706531,0.15816116,0.0,0.0,0.0,0.005841255,0.0,0.0,0.0,0.0,0.0,0.0,0.0,0.0,0.25778532,0.25778538,4.062097,0.0,0.0,0.0,0.09017213,0.0,0.0,0.0,0.0,0.0,0.00024438975,0.0005387931,0.0016262756,0.0,0.0,0.0,0.0,0.0,0.0
73247069,0.0,0.0,0.0,-0.0015449153,0.0028031878,0.070381165,0.0,0.0,0.0,-0.0018064976,0.0,0.0,0.0,0.0,0.0,0.0,0.0,0.0,0.25768793,0.257688,4.0618978,0.0,0.0,0.0,0.09017198,0.0,0.0,0.0,0.0,0.0,0.00036620448,0.0005989116,0.0013082441,0.0,0.0,0.0,0.0,0.0,0.0
73455113,0.0,0.0,0.0,-0.00186465,0.002889097,0.2739601,0.0,0.0,0.0,0.048331738,0.0,0.0,0.0,0.0,0.0,0.0,0.0,0.0,0.2575149,0.25751495,4.0612803,0.0,0.0,0.0,0.09017162,0.0,0.0,0.0,0.0,0.0,0.00080188614,0.002196952,0.006382469,0.0,0.0,0.0,0.0,0.0,0.0
73654269,0.0,0.0,0.0,-0.0021371655,0.0030205215,0.468544,0.0,0.0,0.0,-0.0037107468,0.0,0.0,0.0,0.0,0.0,0.0,0.0,0.0,0.2574855,0.25748557,4.061182,0.0,0.0,0.0,0.09017123,0.0,0.0,0.0,0.0,0.0,0.00036044247,0.0047220867,0.013968412,0.0,0.0,0.0,0.0,0.0,0.0
73854275,0.0,0.0,0.0,-0.0023169029,0.0030751647,-0.028884888,0.0,0.0,0.0,0.0035905838,0.0,0.0,0.0,0.0,0.0,0.0,0.0,0.0,100.00747,100.00747,4.061086,0.0,0.0,0.0,0.09017089,0.0,0.0,0.0,0.0,0.0,0.00016612752,0.002362536,0.006722702,0.0,0.0,0.0,0.0,0.0,0.0
74062282,0.0,0.0,0.0,-0.0031305775,0.0037870104,0.063812256,0.0,0.0,0.0,-0.017587423,0.0,0.0,0.0,0.0,0.0,0.0,0.0,0.0,100.0099,100.0099,4.060795,0.0,0.0,0.0,0.09017051,0.0,0.0,0.0,0.0,0.0,0.00011271638,0.0036722738,0.011271233,0.0,0.0,0.0,0.0,0.0,0.0
74261475,0.0,0.0,0.0,-0.0037740225,0.00452167,0.21146011,0.0,0.0,0.0,0.040890694,0.0,0.0,0.0,0.0,0.0,0.0,0.0,0.0,100.01267,100.01267,4.060476,0.0,0.0,0.0,0.090170264,0.0,0.0,0.0,0.0,0.0,0.00034517542,0.003325722,0.009170705,0.0,0.0,0.0,0.0,0.0,0.0
74469475,0.0,0.0,0.0,-0.0042863283,0.0055238204,-0.14134216,0.0,0.0,0.0,-0.0058283806,0.0,0.0,0.0,0.0,0.0,0.0,0.0,0.0,100.01658,100.01658,4.0602274,0.0,0.0,0.0,0.09017003,0.0,0.0,0.0,0.0,0.0,0.00040432205,0.002837751,0.008409869,0.0,0.0,0.0,0.0,0.0,0.0
74667902,0.0,0.0,0.0,-0.0041098725,0.005414618,0.043605804,0.0,0.0,0.0,0.0043087006,0.0,0.0,0.0,0.0,0.0,0.0,0.0,0.0,100.0209,100.0209,4.0599737,0.0,0.0,0.0,0.090169884,0.0,0.0,0.0,0.0,0.0,0.00060293893,0.0061054784,0.018688524,0.0,0.0,0.0,0.0,0.0,0.0
74868718,0.0,0.0,0.0,-0.0032058198,0.005154522,0.061767578,0.0,0.0,0.0,0.051136255,0.0,0.0,0.0,0.0,0.0,0.0,0.0,0.0,100.02632,100.02632,4.0600166,0.0,0.0,0.0,0.09016966,0.0,0.0,0.0,0.0,0.0,0.00042479145,0.0063722567,0.01975412,0.0,0.0,0.0,0.0,0.0,0.0
75076669,0.0,0.0,0.0,-2.058155e-05,0.006499984,0.5213852,0.0,0.0,0.0,0.0900681,0.0,0.0,0.0,0.0,0.0,0.0,0.0,0.0,100.03346,100.03347,4.05987,0.0,0.0,0.0,0.09016953,0.0,0.0,0.0,0.0,0.0,0.00076423865,0.010319035,0.03153852,0.0,0.0,0.0,0.0,0.0,0.0
75275869,0.0,0.0,0.0,0.0068806848,0.011497388,0.6503792,0.0,0.0,0.0,0.07845354,0.0,0.0,0.0,0.0,0.0,0.0,0.0,0.0,100.041466,100.041466,4.059989,0.0,0.0,0.0,0.09016943,0.0,0.0,0.0,0.0,0.0,0.00063452206,0.014013812,0.042979494,0.0,0.0,0.0,0.0,0.0,0.0
75483868,0.0,0.0,0.0,0.015757797,0.01926977,-0.07946777,0.0,0.0,0.0,0.06276512,0.0,0.0,0.0,0.0,0.0,0.0,0.0,0.0,100.050476,100.050476,4.0597577,0.0,0.0,0.0,0.09016916,0.0,0.0,0.0,0.0,0.0,0.00095692766,0.00960307,0.030818963,0.0,0.0,0.0,0.0,0.0,0.0
75683917,0.0,0.0,0.0,0.02621615,0.03040724,-0.1351242,0.0,0.0,0.0,0.06698394,0.0,0.0,0.0,0.0,0.0,0.0,0.0,0.0,100.06187,100.06187,4.060216,0.0,0.0,0.0,0.09016894,0.0,0.0,0.0,0.0,0.0,0.001427253,0.010308583,0.033449855,0.0,0.0,0.0,0.0,0.0,0.0
75887075,0.0,0.0,0.0,0.041391026,0.045248732,-0.3620491,0.0,0.0,0.0,0.08921838,0.0,0.0,0.0,0.0,0.0,0.0,0.0,0.0,100.07458,100.07458,4.0602837,0.0,0.0,0.0,0.09016872,0.0,0.0,0.0,0.0,0.0,0.0016944255,0.00042678262,0.004107137,0.0,0.0,0.0,0.0,0.0,0.0
76087101,0.0,0.0,0.0,0.06167064,0.06413688,-0.35840988,0.0,0.0,0.0,0.098349094,0.0,0.0,0.0,0.0,0.0,0.0,0.0,0.0,100.08882,100.08882,4.06017,0.0,0.0,0.0,0.090168506,0.0,0.0,0.0,0.0,0.0,0.002228977,0.010984012,0.03259162,0.0,0.0,0.0,0.0,0.0,0.0
76287069,0.0,0.0,0.0,0.08482215,0.08498447,-0.16923523,0.0,0.0,0.0,0.112154484,0.0,0.0,0.0,0.0,0.0,0.0,0.0,0.0,100.105354,100.105354,4.060256,0.0,0.0,0.0,0.09016819,0.0,0.0,0.0,0.0,0.0,0.0022917083,0.012931016,0.04107471,0.0,0.0,0.0,0.0,0.0,0.0
76494269,0.0,0.0,0.0,0.112643294,0.108027056,0.09953308,0.0,0.0,0.0,0.1358099,0.0,0.0,0.0,0.0,0.0,0.0,0.0,0.0,100.125595,100.1256,4.0609155,0.0,0.0,0.0,0.09016776,0.0,0.0,0.0,0.0,0.0,0.0027066905,0.010025714,0.034102,0.0,0.0,0.0,0.0,0.0,0.0
76694269,0.0,0.0,0.0,0.13971311,0.12924616,0.16628647,0.0,0.0,0.0,0.10978818,0.0,0.0,0.0,0.0,0.0,0.0,0.0,0.0,100.14569,100.1457,4.060595,0.0,0.0,0.0,0.090167545,0.0,0.0,0.0,0.0,0.0,0.0019602876,0.009247474,0.03191597,0.0,0.0,0.0,0.0,0.0,0.0
76901492,0.0,0.0,0.0,0.1745898,0.1542915,-0.54755783,0.0,0.0,0.0,0.07526159,0.0,0.0,0.0,0.0,0.0,0.0,0.0,0.0,100.17193,100.171936,4.060693,0.0,0.0,0.0,0.090167336,0.0,0.0,0.0,0.0,0.0,0.00183926,0.011202037,0.036805157,0.0,0.0,0.0,0.0,0.0,0.0
77101468,0.0,0.0,0.0,0.20601693,0.17538564,-0.14756012,0.0,0.0,0.0,0.20251,0.0,0.0,0.0,0.0,0.0,0.0,0.0,0.0,100.19643,100.196434,4.0603633,0.0,0.0,0.0,0.09016713,0.0,0.0,0.0,0.0,0.0,0.0022051062,0.008199023,0.027662832,0.0,0.0,0.0,0.0,0.0,0.0
77303069,0.0,0.0,0.0,0.2389689,0.19698615,-0.23661804,0.0,0.0,0.0,0.070883274,0.0,0.0,0.0,0.0,0.0,0.0,0.0,0.0,100.22438,100.22439,4.060426,0.0,0.0,0.0,0.09016693,0.0,0.0,0.0,0.0,0.0,0.0019966478,0.006828411,0.022834957,0.0,0.0,0.0,0.0,0.0,0.0
77508700,0.0,0.0,0.0,0.27337325,0.21941385,0.024787903,0.0,0.0,0.0,0.12954926,0.0,0.0,0.0,0.0,0.0,0.0,0.0,0.0,100.25666,100.25667,4.06022,0.0,0.0,0.0,0.09016669,0.0,0.0,0.0,0.0,0.0,0.0022708054,0.0038129608,0.012565591,0.0,0.0,0.0,0.0,0.0,0.0
77708669,0.0,0.0,0.0,0.30221224,0.23847544,-0.2376442,0.0,0.0,0.0,0.09973335,0.0,0.0,0.0,0.0,0.0,0.0,0.0,0.0,100.28731,100.287315,4.059981,0.0,0.0,0.0,0.090166494,0.0,0.0,0.0,0.0,0.0,0.0023026802,0.005656781,0.018526698,0.0,0.0,0.0,0.0,0.0,0.0
77910269,0.0,0.0,0.0,0.3296848,0.25737923,0.43970108,0.0,0.0,0.0,0.12391567,0.0,0.0,0.0,0.0,0.0,0.0,0.0,0.0,100.32058,100.32059,4.060637,0.0,0.0,0.0,0.09016621,0.0,0.0,0.0,0.0,0.0,0.0020049228,0.0056009167,0.018290078,0.0,0.0,0.0,0.0,0.0,0.0
78119870,0.0,0.0,0.0,0.35810506,0.27657598,-0.27923965,0.0,0.0,0.0,0.031269073,0.0,0.0,0.0,0.0,0.0,0.0,0.0,0.0,100.36065,100.360664,4.0613136,0.0,0.0,0.0,0.090165906,0.0,0.0,0.0,0.0,0.0,0.0020824266,0.0047973813,0.015262478,0.0,0.0,0.0,0.0,0.0,0.0
78319869,0.0,0.0,0.0,0.38158503,0.2910607,0.11767197,0.0,0.0,0.0,0.052765846,0.0,0.0,0.0,0.0,0.0,0.0,0.0,0.0,100.39809,100.3981,4.061883,0.0,0.0,0.0,0.09016571,0.0,0.0,0.0,0.0,0.0,0.0020431294,0.0059850556,0.019302819,0.0,0.0,0.0,0.0,0.0,0.0
