timestamp,x,y,z,yaw,yawspeed,vx,vy,vz,acc_x,acc_y,acc_z,jerk_x,jerk_y,jerk_z,thrust[0],thrust[1],thrust[2]
56203264,nan,nan,nan,2.144083,-0.0,nan,nan,0.79304004,nan,nan,nan,nan,nan,nan,0.0,0.0,nan
57084442,nan,nan,nan,2.143326,-0.0,nan,nan,0.00027,nan,nan,nan,nan,nan,nan,0.0,0.0,nan
57284167,nan,nan,nan,2.1427996,0.0,nan,nan,1.0,nan,nan,nan,nan,nan,nan,0.0,0.0,nan
57484369,nan,nan,nan,2.142272,-0.0,nan,nan,1.0,nan,nan,nan,nan,nan,nan,0.0,0.0,nan
57684745,nan,nan,nan,2.1419837,-0.0,nan,nan,1.0,nan,nan,nan,nan,nan,nan,0.0,0.0,nan
57884876,nan,nan,nan,2.141704,0.0,nan,nan,1.0,nan,nan,nan,nan,nan,nan,0.0,0.0,nan
58084950,nan,nan,nan,2.1415567,-0.0,nan,nan,1.0,nan,nan,nan,nan,nan,nan,0.0,0.0,nan
58285224,nan,nan,nan,2.1413822,0.0,nan,nan,1.0,nan,nan,nan,nan,nan,nan,0.0,0.0,nan
58505755,nan,nan,nan,2.1414685,0.0,nan,nan,1.0,nan,nan,nan,nan,nan,nan,0.0,0.0,nan
58705869,nan,nan,nan,2.141057,0.0,nan,nan,1.0,nan,nan,nan,nan,nan,nan,0.0,0.0,nan
58907014,nan,nan,nan,2.1406283,0.0,nan,nan,1.0,nan,nan,nan,nan,nan,nan,0.0,0.0,nan
59106031,nan,nan,nan,2.1405628,0.0,nan,nan,1.0,nan,nan,nan,nan,nan,nan,0.0,0.0,nan
59306246,nan,nan,nan,2.1404176,0.0,nan,nan,1.0,nan,nan,nan,nan,nan,nan,0.0,0.0,nan
59506519,nan,nan,nan,2.1402922,0.0,nan,nan,1.0,nan,nan,nan,nan,nan,nan,0.0,0.0,nan
59706625,nan,nan,nan,2.1401455,0.0,nan,nan,0.7134772,nan,nan,nan,nan,nan,nan,0.0,0.0,nan
59906774,nan,nan,nan,2.1399622,0.0,nan,nan,0.25410464,nan,nan,nan,nan,nan,nan,0.0,0.0,nan
60127415,nan,nan,0.12053272,2.1398416,0.0,nan,nan,-0.0,nan,nan,nan,nan,nan,nan,0.0,0.0,nan
60328697,nan,nan,0.11534919,2.1397846,0.0,nan,nan,-0.0,nan,nan,nan,nan,nan,nan,0.0,0.0,nan
60527409,nan,nan,0.11748395,2.1396194,0.0,nan,nan,-0.0,nan,nan,nan,nan,nan,nan,0.0,0.0,nan
60727594,nan,nan,0.12183306,2.1392994,0.0,nan,nan,-0.0,nan,nan,nan,nan,nan,nan,0.0,0.0,nan
60927932,nan,nan,0.12592478,2.1391792,0.0,nan,nan,0.0,nan,nan,nan,nan,nan,nan,0.0,0.0,nan
61128107,nan,nan,nan,2.13931,0.0,nan,nan,-0.11710214,nan,nan,nan,nan,nan,nan,0.0,0.0,nan
61328191,nan,nan,nan,2.1394424,0.0,nan,nan,-0.21221486,nan,nan,nan,nan,nan,nan,0.0,0.0,nan
61528381,nan,nan,nan,2.139441,0.0,nan,nan,-0.40463537,nan,nan,nan,nan,nan,nan,0.0,0.0,nan
61728787,nan,nan,nan,2.1392207,0.0,nan,nan,-0.5269278,nan,nan,nan,nan,nan,nan,0.0,0.0,nan
61928927,nan,nan,nan,2.1391182,0.0,nan,nan,-0.6491078,nan,nan,nan,nan,nan,nan,0.0,0.0,nan
62149015,nan,nan,nan,2.1391187,0.0,nan,nan,-0.7186855,nan,nan,nan,nan,nan,nan,0.0,0.0,nan
62349364,nan,nan,nan,2.1391187,0.0,nan,nan,-0.5446054,nan,nan,nan,nan,nan,nan,0.0,0.0,nan
62549592,nan,nan,nan,2.1391187,0.0,nan,nan,-0.116983324,nan,nan,nan,nan,nan,nan,0.0,0.0,nan
62749755,nan,nan,0.14645877,2.1391187,0.0,nan,nan,-0.0,nan,nan,nan,nan,nan,nan,0.0,0.0,nan
62949809,nan,nan,0.14645877,2.1391187,0.0,nan,nan,-0.0,nan,nan,nan,nan,nan,nan,0.0,0.0,nan
63150022,nan,nan,nan,2.1391187,0.0,nan,nan,0.18588057,nan,nan,nan,nan,nan,nan,0.0,0.0,nan
63350371,nan,nan,nan,2.1391187,0.0,nan,nan,0.30351067,nan,nan,nan,nan,nan,nan,0.0,0.0,nan
63550502,nan,nan,nan,2.1391187,-0.0,nan,nan,0.35215032,nan,nan,nan,nan,nan,nan,0.0,0.0,nan
63770654,nan,nan,nan,2.1391187,0.0,nan,nan,0.3043038,nan,nan,nan,nan,nan,nan,0.0,0.0,nan
63970928,nan,nan,nan,2.1391187,0.0,nan,nan,0.30782273,nan,nan,nan,nan,nan,nan,0.0,0.0,nan
64171221,nan,nan,nan,2.1391187,-0.0,nan,nan,0.36296365,nan,nan,nan,nan,nan,nan,0.0,0.0,nan
64371302,nan,nan,nan,2.1391187,-0.0,nan,nan,0.37313485,nan,nan,nan,nan,nan,nan,0.0,0.0,nan
64571470,nan,nan,nan,2.1391187,0.0,nan,nan,0.3868746,nan,nan,nan,nan,nan,nan,0.0,0.0,nan
64771645,nan,nan,nan,2.1391187,-0.0,nan,nan,0.380893,nan,nan,nan,nan,nan,nan,0.0,0.0,nan
64972075,nan,nan,nan,2.1391187,0.0,nan,nan,0.3833152,nan,nan,nan,nan,nan,nan,0.0,0.0,nan
65192708,nan,nan,nan,2.1391187,0.0,nan,nan,0.3755154,nan,nan,nan,nan,nan,nan,0.0,0.0,nan
65393186,nan,nan,nan,2.1391187,-0.0,nan,nan,0.37748805,nan,nan,nan,nan,nan,nan,0.0,0.0,nan
65592454,nan,nan,nan,2.1391187,-0.0,nan,nan,0.37659198,nan,nan,nan,nan,nan,nan,0.0,0.0,nan
65792844,nan,nan,nan,2.1391187,0.0,nan,nan,0.4231794,nan,nan,nan,nan,nan,nan,0.0,0.0,nan
65992980,nan,nan,nan,2.1391187,0.0,nan,nan,0.43791974,nan,nan,nan,nan,nan,nan,0.0,0.0,nan
66193065,nan,nan,nan,2.1391187,0.0,nan,nan,0.508209,nan,nan,nan,nan,nan,nan,0.0,0.0,nan
66393337,nan,nan,nan,2.1391187,0.0,nan,nan,0.6525995,nan,nan,nan,nan,nan,nan,0.0,0.0,nan
66593818,nan,nan,nan,2.1391187,0.0,nan,nan,0.8497695,nan,nan,nan,nan,nan,nan,0.0,0.0,nan
66794161,nan,nan,nan,2.1391187,0.0,nan,nan,0.8818736,nan,nan,nan,nan,nan,nan,0.0,0.0,nan
66994531,nan,nan,nan,2.1391187,0.0,nan,nan,0.6316486,nan,nan,nan,nan,nan,nan,0.0,0.0,nan
67214201,nan,nan,nan,2.1391187,0.0,nan,nan,0.4348252,nan,nan,nan,nan,nan,nan,0.0,0.0,nan
67414449,nan,nan,nan,2.135611,0.0,nan,nan,0.16664402,nan,nan,nan,nan,nan,nan,0.0,0.0,nan
67614534,nan,nan,nan,2.1357267,0.0,nan,nan,0.14174902,nan,nan,nan,nan,nan,nan,0.0,0.0,nan
67814715,nan,nan,nan,2.1357436,0.0,nan,nan,0.0061151967,nan,nan,nan,nan,nan,nan,0.0,0.0,nan
68014953,nan,nan,0.090840325,2.1358962,0.0,nan,nan,-0.0,nan,nan,nan,nan,nan,nan,0.0,0.0,nan
68216237,nan,nan,0.100020304,2.136231,0.0,nan,nan,-0.0,nan,nan,nan,nan,nan,nan,0.0,0.0,nan
68415478,nan,nan,0.10237825,2.136177,0.0,nan,nan,-0.0,nan,nan,nan,nan,nan,nan,0.0,0.0,nan
68635508,nan,nan,0.10105575,2.1358848,0.0,nan,nan,-0.0,nan,nan,nan,nan,nan,nan,0.0,0.0,nan
68835794,nan,nan,0.10701161,2.1355243,0.0,nan,nan,-0.0,nan,nan,nan,nan,nan,nan,0.0,0.0,nan
69036021,nan,nan,0.11625862,2.1354663,0.0,nan,nan,-0.0,nan,nan,nan,nan,nan,nan,0.0,0.0,nan
69236126,nan,nan,0.120781295,2.135498,0.0,nan,nan,-0.0,nan,nan,nan,nan,nan,nan,0.0,0.0,nan
69436316,nan,nan,0.11721668,2.1354818,0.0,nan,nan,-0.0,nan,nan,nan,nan,nan,nan,0.0,0.0,nan
69636584,nan,nan,0.120516464,2.1355598,0.0,nan,nan,-0.0,nan,nan,nan,nan,nan,nan,0.0,0.0,nan
69837107,nan,nan,0.1262495,2.1357775,0.0,nan,nan,-0.0,nan,nan,nan,nan,nan,nan,0.0,0.0,nan
70037875,nan,nan,0.13158688,2.135971,0.0,nan,nan,-0.0,nan,nan,nan,nan,nan,nan,0.0,0.0,nan
70237898,nan,nan,0.13445403,2.136028,0.0,nan,nan,-0.0,nan,nan,nan,nan,nan,nan,0.0,0.0,nan
70437413,nan,nan,0.13900106,2.136106,0.0,nan,nan,-0.0,nan,nan,nan,nan,nan,nan,0.0,0.0,nan
70657682,nan,nan,0.13704623,2.1363213,0.0,nan,nan,-0.0,nan,nan,nan,nan,nan,nan,0.0,0.0,nan
70857758,nan,nan,0.14045063,2.1365259,0.0,nan,nan,-0.0,nan,nan,nan,nan,nan,nan,0.0,0.0,nan
71057927,nan,nan,0.14014089,2.1367483,0.0,nan,nan,-0.0,nan,nan,nan,nan,nan,nan,0.0,0.0,nan
71258213,nan,nan,0.13880627,2.136963,0.0,nan,nan,-0.0,nan,nan,nan,nan,nan,nan,0.0,0.0,nan
71458616,nan,nan,0.14297421,2.137167,0.0,nan,nan,-0.0,nan,nan,nan,nan,nan,nan,0.0,0.0,nan
71658805,nan,nan,0.14570057,2.1374912,0.0,nan,nan,-0.0,nan,nan,nan,nan,nan,nan,0.0,0.0,nan
71859278,nan,nan,0.14780685,2.1377058,0.0,nan,nan,-0.0,nan,nan,nan,nan,nan,nan,0.0,0.0,nan
72078992,nan,nan,0.14372654,2.1376238,0.0,nan,nan,-0.0,nan,nan,nan,nan,nan,nan,0.0,0.0,nan
72279342,nan,nan,0.13949162,2.1375883,0.0,nan,nan,-0.0,nan,nan,nan,nan,nan,nan,0.0,0.0,nan
72479442,nan,nan,0.13065961,2.1374898,-0.0,nan,nan,0.0,nan,nan,nan,nan,nan,nan,0.0,0.0,nan
72679560,nan,nan,nan,2.137355,-0.0,nan,nan,-0.17135468,nan,nan,nan,nan,nan,nan,0.0,0.0,nan
72879810,nan,nan,nan,2.1373978,0.0,nan,nan,-0.26586622,nan,nan,nan,nan,nan,nan,0.0,0.0,nan
73080284,nan,nan,nan,2.1374774,-0.0,nan,nan,-0.47733516,nan,nan,nan,nan,nan,nan,0.0,0.0,nan
73280866,nan,nan,nan,2.1374214,0.0,nan,nan,-0.60658944,nan,nan,nan,nan,nan,nan,0.0,0.0,nan
73480352,nan,nan,nan,2.1373632,0.0,nan,nan,-0.7561172,nan,nan,nan,nan,nan,nan,0.0,0.0,nan
73680606,nan,nan,nan,2.1373632,-0.0,nan,nan,-0.91486305,nan,nan,nan,nan,nan,nan,0.0,0.0,nan
73880815,nan,nan,nan,2.1373632,0.0,nan,nan,-0.7788552,nan,nan,nan,nan,nan,nan,0.0,0.0,nan
74100961,nan,nan,nan,2.1373632,0.0,nan,nan,-0.7818223,nan,nan,nan,nan,nan,nan,0.0,0.0,nan
74301166,nan,nan,nan,2.1373632,-0.0,nan,nan,-0.76002884,nan,nan,nan,nan,nan,nan,0.0,0.0,nan
74501720,nan,nan,nan,2.1373632,-0.0,nan,nan,-0.633733,nan,nan,nan,nan,nan,nan,0.0,0.0,nan
74701862,nan,nan,nan,2.1373632,0.0,nan,nan,-0.51778924,nan,nan,nan,nan,nan,nan,0.0,0.0,nan
74901989,nan,nan,nan,2.1373632,-0.0,nan,nan,-0.52980673,nan,nan,nan,nan,nan,nan,0.0,0.0,nan
75102611,nan,nan,nan,2.1373632,-0.0,nan,nan,-0.60622585,nan,nan,nan,nan,nan,nan,0.0,0.0,nan
75302348,nan,nan,nan,2.1373632,0.0,nan,nan,-0.32464713,nan,nan,nan,nan,nan,nan,0.0,0.0,nan
75502481,nan,nan,nan,2.1373632,0.0,nan,nan,-0.4251406,nan,nan,nan,nan,nan,nan,0.0,0.0,nan
75702569,nan,nan,nan,2.1373632,0.0,nan,nan,-0.51765966,nan,nan,nan,nan,nan,nan,0.0,0.0,nan
75902782,nan,nan,nan,2.1373632,0.0,nan,nan,-0.42472216,nan,nan,nan,nan,nan,nan,0.0,0.0,nan
76103322,nan,nan,nan,2.1373632,0.0,nan,nan,-0.3505517,nan,nan,nan,nan,nan,nan,0.0,0.0,nan
76323304,nan,nan,nan,2.1373632,0.0,nan,nan,-0.3503284,nan,nan,nan,nan,nan,nan,0.0,0.0,nan
76523432,nan,nan,nan,2.1373632,0.0,nan,nan,-0.3472194,nan,nan,nan,nan,nan,nan,0.0,0.0,nan
76723570,nan,nan,nan,2.1373632,0.0,nan,nan,-0.28758296,nan,nan,nan,nan,nan,nan,0.0,0.0,nan
76923930,nan,nan,nan,2.1373632,0.0,nan,nan,-0.17908542,nan,nan,nan,nan,nan,nan,0.0,0.0,nan
77124098,nan,nan,nan,2.1373632,0.0,nan,nan,-0.096215874,nan,nan,nan,nan,nan,nan,0.0,0.0,nan
77324172,nan,nan,-0.6400316,2.1373632,0.0,nan,nan,0.0,nan,nan,nan,nan,nan,nan,0.0,0.0,nan
77524417,nan,nan,-0.6400316,2.1373632,0.0,nan,nan,0.0,nan,nan,nan,nan,nan,nan,0.0,0.0,nan
77744925,nan,nan,nan,2.1373632,0.0,nan,nan,-0.48644516,nan,nan,nan,nan,nan,nan,0.0,0.0,nan
77944861,nan,nan,nan,2.1373632,0.0,nan,nan,-0.1998775,nan,nan,nan,nan,nan,nan,0.0,0.0,nan
78145339,nan,nan,-0.63172317,2.1373632,0.0,nan,nan,-0.0,nan,nan,nan,nan,nan,nan,0.0,0.0,nan
78345868,nan,nan,-0.63172317,2.1373632,0.0,nan,nan,-0.0,nan,nan,nan,nan,nan,nan,0.0,0.0,nan
78545580,nan,nan,-0.63172317,2.1373632,0.0,nan,nan,0.0,nan,nan,nan,nan,nan,nan,0.0,0.0,nan
78745718,nan,nan,-0.63172317,2.1373632,0.0,nan,nan,0.0,nan,nan,nan,nan,nan,nan,0.0,0.0,nan
78945821,nan,nan,-0.63172317,2.1373632,0.0,nan,nan,0.0,nan,nan,nan,nan,nan,nan,0.0,0.0,nan
79146004,nan,nan,-0.63172317,2.1373632,0.0,nan,nan,0.0,nan,nan,nan,nan,nan,nan,0.0,0.0,nan
79346522,nan,nan,-0.63172317,2.1373632,0.0,nan,nan,0.0,nan,nan,nan,nan,nan,nan,0.0,0.0,nan
79567234,nan,nan,-0.63172317,2.1373632,0.0,nan,nan,0.0,nan,nan,nan,nan,nan,nan,0.0,0.0,nan
79767277,nan,nan,-0.63172317,2.1373632,0.0,nan,nan,0.0,nan,nan,nan,nan,nan,nan,0.0,0.0,nan
79966813,nan,nan,-0.63172317,2.1373632,0.0,nan,nan,0.0,nan,nan,nan,nan,nan,nan,-0.042211212,-0.026852055,nan
80167216,nan,nan,-0.63172317,2.1373632,0.0,nan,nan,0.0,nan,nan,nan,nan,nan,nan,-0.11332165,-0.07208793,nan
80367293,nan,nan,-0.63172317,2.1373632,0.0,nan,nan,0.0,nan,nan,nan,nan,nan,nan,-0.08823217,-0.05612762,nan
80567422,nan,nan,-0.63172317,2.1373632,0.0,nan,nan,0.0,nan,nan,nan,nan,nan,nan,-0.07991698,-0.05083803,nan
80767644,nan,nan,-0.63172317,2.1373632,0.0,nan,nan,0.0,nan,nan,nan,nan,nan,nan,0.0016775068,0.0010671217,nan
80968194,nan,nan,-0.63172317,2.1373632,0.0,nan,nan,0.0,nan,nan,nan,nan,nan,nan,-7.507795e-08,-4.775975e-08,nan
81188115,nan,nan,-0.63172317,2.1373632,0.0,nan,nan,0.0,nan,nan,nan,nan,nan,nan,0.029830825,0.01897645,nan
81388282,nan,nan,-0.63172317,2.1373632,0.0,nan,nan,0.0,nan,nan,nan,nan,nan,nan,0.0759712,0.048327982,nan
81588430,nan,nan,-0.63172317,2.1373632,0.0,nan,nan,0.0,nan,nan,nan,nan,nan,nan,0.038223844,0.024315545,nan
81788795,nan,nan,-0.63172317,2.1373632,0.0,nan,nan,0.0,nan,nan,nan,nan,nan,nan,-1.2801284e-05,-8.143352e-06,nan
81988966,nan,nan,-0.63172317,2.1373632,0.0,nan,nan,0.0,nan,nan,nan,nan,nan,nan,-0.0026860824,-0.0035919943,nan
82189034,nan,nan,-0.63172317,2.1373632,0.0,nan,nan,0.0,nan,nan,nan,nan,nan,nan,-0.006418054,-0.036326844,nan
82389397,nan,nan,-0.63172317,2.1373632,0.0,nan,nan,0.0,nan,nan,nan,nan,nan,nan,0.02331556,-0.0479538,nan
82589793,nan,nan,-0.63172317,2.1373632,0.0,nan,nan,0.0,nan,nan,nan,nan,nan,nan,0.054417357,-0.08554927,nan
82809762,nan,nan,-0.63172317,2.1373632,0.0,nan,nan,0.0,nan,nan,nan,nan,nan,nan,0.03326473,-0.052291892,nan
83009852,nan,nan,-0.63172317,2.1373632,0.0,nan,nan,0.0,nan,nan,nan,nan,nan,nan,0.017529717,-0.027556572,nan
83210141,nan,nan,-0.63172317,2.1373632,0.0,nan,nan,0.0,nan,nan,nan,nan,nan,nan,2.7238115e-05,-4.2818097e-05,nan
83410417,nan,nan,-0.63172317,2.1373632,0.0,nan,nan,0.0,nan,nan,nan,nan,nan,nan,0.0032982945,-0.005184892,nan
83610494,nan,nan,-0.63172317,2.1373632,0.0,nan,nan,0.0,nan,nan,nan,nan,nan,nan,-2.5527418e-06,4.0128893e-06,nan
83810664,nan,nan,-0.63172317,2.1373632,0.0,nan,nan,0.0,nan,nan,nan,nan,nan,nan,-0.03570076,0.056121312,nan
84010850,nan,nan,-0.63172317,2.1373632,0.0,nan,nan,0.0,nan,nan,nan,nan,nan,nan,-0.035681225,0.0560906,nan
84211377,nan,nan,-0.63172317,2.1373632,0.0,nan,nan,0.0,nan,nan,nan,nan,nan,nan,-9.8740464e-05,0.00015521921,nan
84411452,nan,nan,-0.63172317,2.1373632,0.0,nan,nan,0.0,nan,nan,nan,nan,nan,nan,1.5495534e-08,-2.4358853e-08,nan
84611464,nan,nan,-0.63172317,2.1373632,0.0,nan,nan,0.0,nan,nan,nan,nan,nan,nan,2.8274218e-11,-4.4446846e-11,nan
84831742,nan,nan,-0.63172317,2.1373632,0.0,nan,nan,0.0,nan,nan,nan,nan,nan,nan,-3.1229668e-14,4.9092786e-14,nan
85032066,nan,nan,-0.63172317,2.1373632,0.0,nan,nan,0.0,nan,nan,nan,nan,nan,nan,-0.01875253,-0.021017937,nan
85232161,nan,nan,-0.63172317,2.1373632,0.0,nan,nan,0.0,nan,nan,nan,nan,nan,nan,-0.043426313,-0.027349224,nan
85432314,nan,nan,-0.63172317,2.1373632,0.0,nan,nan,0.0,nan,nan,nan,nan,nan,nan,-0.036755156,-0.023381818,nan
85632555,nan,nan,-0.63172317,2.1373632,0.0,nan,nan,0.0,nan,nan,nan,nan,nan,nan,-0.03508893,-0.022321315,nan
85833050,nan,nan,-0.63172317,2.1373632,0.0,nan,nan,0.0,nan,nan,nan,nan,nan,nan,-0.03246,-0.02064896,nan
86033059,nan,nan,-0.63172317,2.1373632,0.0,nan,nan,0.0,nan,nan,nan,nan,nan,nan,-0.031589855,-0.020095428,nan
86233111,nan,nan,-0.63172317,2.1373632,0.0,nan,nan,0.0,nan,nan,nan,nan,nan,nan,-0.00043225256,-0.00027497124,nan
86453415,nan,nan,-0.63172317,2.1373632,0.0,nan,nan,0.0,nan,nan,nan,nan,nan,nan,-3.8792783e-07,-2.4677468e-07,nan
86653652,nan,nan,-0.63172317,2.1373632,0.0,nan,nan,0.0,nan,nan,nan,nan,nan,nan,0.0028738235,-0.004517627,nan
86853729,nan,nan,-0.63172317,2.1373632,0.0,nan,nan,0.0,nan,nan,nan,nan,nan,nan,0.0024003156,-0.003773277,nan
87053935,nan,nan,-0.63172317,2.1373632,0.0,nan,nan,0.0,nan,nan,nan,nan,nan,nan,0.006165183,-0.009691618,nan
87254193,nan,nan,-0.63172317,2.1373632,0.0,nan,nan,0.0,nan,nan,nan,nan,nan,nan,2.2917005e-05,-3.6025347e-05,nan
87454586,nan,nan,-0.63172317,2.1373632,0.0,nan,nan,0.0,nan,nan,nan,nan,nan,nan,0.004847918,-0.0076208883,nan
87654581,nan,nan,-0.63172317,2.1373632,0.0,nan,nan,0.0,nan,nan,nan,nan,nan,nan,0.010898502,-0.017132357,nan
87854717,nan,nan,-0.63172317,2.1373632,0.0,nan,nan,0.0,nan,nan,nan,nan,nan,nan,0.012387772,-0.019473478,nan
88054967,nan,nan,-0.63172317,2.1373632,0.0,nan,nan,0.0,nan,nan,nan,nan,nan,nan,0.010461146,-0.016444836,nan
88255255,nan,nan,-0.63172317,2.1373632,0.0,nan,nan,0.0,nan,nan,nan,nan,nan,nan,0.015319408,-0.024081986,nan
88475343,nan,nan,-0.63172317,2.1373632,0.0,nan,nan,0.0,nan,nan,nan,nan,nan,nan,0.016602002,-0.026098214,nan
88675510,nan,nan,-0.63172317,2.1373632,0.0,nan,nan,0.0,nan,nan,nan,nan,nan,nan,0.009829767,-0.015452315,nan
88875818,nan,nan,-0.63172317,2.1373632,0.0,nan,nan,0.0,nan,nan,nan,nan,nan,nan,2.4805951e-05,-3.8994756e-05,nan
89076275,nan,nan,-0.63172317,2.1373632,0.0,nan,nan,0.0,nan,nan,nan,nan,nan,nan,-1.7623819e-08,2.7704502e-08,nan
89276133,nan,nan,-0.63172317,2.1373632,0.0,nan,nan,0.0,nan,nan,nan,nan,nan,nan,4.8778256e-12,-7.667903e-12,nan
89476356,nan,nan,-0.63172317,2.1373632,0.0,nan,nan,0.0,nan,nan,nan,nan,nan,nan,-0.011330168,-0.006955259,nan
89676575,nan,nan,-0.63172317,2.1373632,0.0,nan,nan,0.0,nan,nan,nan,nan,nan,nan,-0.03925668,-0.02497272,nan
89896838,nan,nan,-0.63172317,2.1373632,0.0,nan,nan,0.0,nan,nan,nan,nan,nan,nan,-0.04156888,-0.026443442,nan
90096964,nan,nan,-0.63172317,2.1373632,0.0,nan,nan,0.0,nan,nan,nan,nan,nan,nan,-0.055824433,-0.035511907,nan
90297155,nan,nan,-0.63172317,2.1373632,0.0,nan,nan,0.0,nan,nan,nan,nan,nan,nan,-0.04526616,-0.028795414,nan
90497409,nan,nan,-0.63172317,2.1373632,0.0,nan,nan,0.0,nan,nan,nan,nan,nan,nan,0.00067764265,0.0004310726,nan
90697796,nan,nan,-0.63172317,2.1373632,0.0,nan,nan,0.0,nan,nan,nan,nan,nan,nan,-2.3245538e-07,-1.4787314e-07,nan
90897819,nan,nan,-0.63172317,2.1373632,0.0,nan,nan,0.0,nan,nan,nan,nan,nan,nan,4.9528115e-10,3.1506595e-10,nan
91098036,nan,nan,-0.63172317,2.1373632,0.0,nan,nan,0.0,nan,nan,nan,nan,nan,nan,1.7169099e-13,1.09218746e-13,nan
91318351,nan,nan,-0.63172317,2.1373632,0.0,nan,nan,0.0,nan,nan,nan,nan,nan,nan,-0.00044237293,-0.00028140916,nan
91518534,nan,nan,-0.63172317,2.1373632,0.0,nan,nan,0.0,nan,nan,nan,nan,nan,nan,-0.0075026285,-0.0047726887,nan
91718559,nan,nan,-0.63172317,2.1373632,0.0,nan,nan,0.0,nan,nan,nan,nan,nan,nan,-0.006333428,-0.004028919,nan
91918762,nan,nan,-0.63172317,2.1373632,0.0,nan,nan,0.0,nan,nan,nan,nan,nan,nan,-0.0008903334,-0.0005663727,nan
92119421,nan,nan,-0.63172317,2.1373632,0.0,nan,nan,0.0,nan,nan,nan,nan,nan,nan,-0.0023204514,-0.0014761216,nan
92319508,nan,nan,-0.63172317,2.1373632,0.0,nan,nan,0.0,nan,nan,nan,nan,nan,nan,-0.004211496,-0.0026790823,nan
92520019,nan,nan,-0.63172317,2.1373632,0.0,nan,nan,0.0,nan,nan,nan,nan,nan,nan,-0.004282857,-0.0027244776,nan
92719906,nan,nan,-0.63172317,2.1373632,0.0,nan,nan,0.0,nan,nan,nan,nan,nan,nan,-0.0021556492,-0.0013712851,nan
92919912,nan,nan,-0.63172317,2.1373632,0.0,nan,nan,0.0,nan,nan,nan,nan,nan,nan,-2.0445586e-06,-1.3006164e-06,nan
93120140,nan,nan,-0.63172317,2.1373632,0.0,nan,nan,0.0,nan,nan,nan,nan,nan,nan,-1.9768522e-09,-1.2575461e-09,nan
93340224,nan,nan,-0.63172317,2.1373632,0.0,nan,nan,0.0,nan,nan,nan,nan,nan,nan,7.229767e-13,4.599112e-13,nan
93540403,nan,nan,-0.63172317,2.1373632,0.0,nan,nan,0.0,nan,nan,nan,nan,nan,nan,-1.4234306e-15,-9.054948e-16,nan
93740597,nan,nan,-0.63172317,2.1373632,0.0,nan,nan,0.0,nan,nan,nan,nan,nan,nan,-4.221419e-19,-2.6853948e-19,nan
93941075,nan,nan,-0.63172317,2.1373632,0.0,nan,nan,0.0,nan,nan,nan,nan,nan,nan,0.008956496,-0.014079539,nan
94141056,nan,nan,-0.63172317,2.1373632,0.0,nan,nan,0.0,nan,nan,nan,nan,nan,nan,0.0064278482,-0.010104526,nan
94341907,nan,nan,-0.63172317,2.1373632,0.0,nan,nan,0.0,nan,nan,nan,nan,nan,nan,0.0062064393,-0.009756473,nan
94541556,nan,nan,-0.63172317,2.1373632,0.0,nan,nan,0.0,nan,nan,nan,nan,nan,nan,0.0069590374,-0.010939551,nan
94761693,nan,nan,-0.63172317,2.1373632,0.0,nan,nan,0.0,nan,nan,nan,nan,nan,nan,0.0041468902,-0.006518878,nan
94961872,nan,nan,-0.63172317,2.1373632,0.0,nan,nan,0.0,nan,nan,nan,nan,nan,nan,0.0027257407,-0.0042848424,nan
95162037,nan,nan,-0.63172317,2.1373632,0.0,nan,nan,0.0,nan,nan,nan,nan,nan,nan,0.0027524985,-0.0043269056,nan
95362598,nan,nan,-0.63172317,2.1373632,0.0,nan,nan,0.0,nan,nan,nan,nan,nan,nan,0.00041962898,-0.0006596534,nan
95562623,nan,nan,-0.63172317,2.1373632,0.0,nan,nan,0.0,nan,nan,nan,nan,nan,nan,-1.7342888e-08,2.726288e-08,nan
95762638,nan,nan,-0.63172317,2.1373632,0.0,nan,nan,0.0,nan,nan,nan,nan,nan,nan,-1.6248805e-10,2.554299e-10,nan
95962960,nan,nan,-0.63172317,2.1373632,0.0,nan,nan,0.0,nan,nan,nan,nan,nan,nan,0.0030869485,-0.004852658,nan
96163131,nan,nan,-0.63172317,2.1373632,0.0,nan,nan,0.0,nan,nan,nan,nan,nan,nan,0.008021953,-0.012610445,nan
96363302,nan,nan,-0.63172317,2.1373632,0.0,nan,nan,0.0,nan,nan,nan,nan,nan,nan,0.009143063,-0.014372821,nan
96563389,nan,nan,-0.63172317,2.1373632,0.0,nan,nan,0.0,nan,nan,nan,nan,nan,nan,0.026869856,-0.042239197,nan
96783557,nan,nan,-0.63172317,2.1373632,0.0,nan,nan,0.0,nan,nan,nan,nan,nan,nan,0.02899503,-0.045579955,nan
96984157,nan,nan,-0.63172317,2.1373632,0.0,nan,nan,0.0,nan,nan,nan,nan,nan,nan,0.02487839,-0.039108627,nan
97184162,nan,nan,-0.63172317,2.1373632,0.0,nan,nan,0.0,nan,nan,nan,nan,nan,nan,-0.00056303374,0.0008850845,nan
97384257,nan,nan,-0.63172317,2.1373632,0.0,nan,nan,0.0,nan,nan,nan,nan,nan,nan,6.772517e-07,-1.0646343e-06,nan
97584413,nan,nan,-0.63172317,2.1373632,0.0,nan,nan,0.0,nan,nan,nan,nan,nan,nan,-3.5261596e-10,5.543095e-10,nan
97784716,nan,nan,-0.63172317,2.1373632,0.0,nan,nan,0.0,nan,nan,nan,nan,nan,nan,2.1008479e-14,-3.3025157e-14,nan
97984890,nan,nan,-0.63172317,2.1373632,0.0,nan,nan,0.0,nan,nan,nan,nan,nan,nan,1.3092436e-16,-2.0581204e-16,nan
98205068,nan,nan,-0.63172317,2.1373632,0.0,nan,nan,0.0,nan,nan,nan,nan,nan,nan,-1.2313071e-19,1.9356048e-19,nan
98405247,nan,nan,-0.63172317,2.1373632,0.0,nan,nan,0.0,nan,nan,nan,nan,nan,nan,5.202021e-23,-8.1775354e-23,nan
98605780,nan,nan,-0.63172317,2.1373632,0.0,nan,nan,0.0,nan,nan,nan,nan,nan,nan,-0.0060425024,0.009498766,nan
98805748,nan,nan,-0.63172317,2.1373632,0.0,nan,nan,0.0,nan,nan,nan,nan,nan,nan,-0.013506786,0.02123256,nan
99005848,nan,nan,-0.63172317,2.1373632,0.0,nan,nan,0.0,nan,nan,nan,nan,nan,nan,-0.019042093,0.029934017,nan
99206048,nan,nan,-0.63172317,2.1373632,0.0,nan,nan,0.0,nan,nan,nan,nan,nan,nan,-0.026681818,0.041943602,nan
99406403,nan,nan,-0.63172317,2.1373632,0.0,nan,nan,0.0,nan,nan,nan,nan,nan,nan,-0.030224528,0.047512718,nan
99606491,nan,nan,-0.63172317,2.1373632,0.0,nan,nan,0.0,nan,nan,nan,nan,nan,nan,0.00096035807,-0.0015096752,nan
99806653,nan,nan,-0.63172317,2.1373632,0.0,nan,nan,0.0,nan,nan,nan,nan,nan,nan,-3.2336803e-07,5.0833194e-07,nan
100006918,nan,nan,-0.63172317,2.1373632,0.0,nan,nan,0.0,nan,nan,nan,nan,nan,nan,-1.8220107e-10,2.864186e-10,nan
100207420,nan,nan,-0.63172317,2.1373632,0.0,nan,nan,0.0,nan,nan,nan,nan,nan,nan,9.0671414e-14,-1.4253473e-13,nan
100427319,nan,nan,-0.63172317,2.1373632,0.0,nan,nan,0.0,nan,nan,nan,nan,nan,nan,3.0881273e-17,-4.8545116e-17,nan
100627463,nan,nan,nan,2.1373632,0.0,nan,nan,-0.02173312,nan,nan,nan,nan,nan,nan,-3.6640052e-20,5.7597866e-20,nan
100827774,nan,nan,-0.6568484,2.1373632,0.0,nan,nan,0.0,nan,nan,nan,nan,nan,nan,5.0689547e-24,-7.968356e-24,nan
101027968,nan,nan,-0.6568484,2.1373632,0.0,nan,nan,0.0,nan,nan,nan,nan,nan,nan,-1.3122997e-26,2.0629247e-26,nan
101228131,nan,nan,-0.6568484,2.1373632,0.0,nan,nan,0.0,nan,nan,nan,nan,nan,nan,-2.4390669e-30,3.8341932e-30,nan
101428272,nan,nan,-0.6568484,2.1373632,0.0,nan,nan,0.0,nan,nan,nan,nan,nan,nan,7.682915e-33,-1.207748e-32,nan
101628539,nan,nan,-0.6568484,2.1373632,0.0,nan,nan,0.0,nan,nan,nan,nan,nan,nan,-5.6713312e-36,8.915287e-36,nan
101828975,nan,nan,nan,2.1373632,0.0,nan,nan,-0.12899724,nan,nan,nan,nan,nan,nan,1.696503e-39,-2.66689e-39,nan
102029717,nan,nan,nan,2.1373632,0.0,nan,nan,-0.11415251,nan,nan,nan,nan,nan,nan,0.01819756,-0.03092101,nan
102249092,nan,nan,nan,2.1373632,0.0,nan,nan,-0.10549314,nan,nan,nan,nan,nan,nan,0.07816308,-0.12795655,nan
102449528,nan,nan,nan,2.1373632,0.0,nan,nan,-0.10543752,nan,nan,nan,nan,nan,nan,0.07164023,-0.11347604,nan
102649617,nan,nan,nan,2.1373632,0.0,nan,nan,-0.09727445,nan,nan,nan,nan,nan,nan,0.006284542,-0.012195866,nan
102849728,nan,nan,nan,2.1373632,0.0,nan,nan,-0.09291577,nan,nan,nan,nan,nan,nan,-4.1287247e-05,0.00060829025,nan
103049873,nan,nan,nan,2.1373632,0.0,nan,nan,-0.042516466,nan,nan,nan,nan,nan,nan,-0.036637906,0.05759466,nan
103250205,nan,nan,nan,2.1373632,0.0,nan,nan,-0.046400703,nan,nan,nan,nan,nan,nan,-0.037729595,0.05931062,nan
103450565,nan,nan,nan,2.1373632,0.0,nan,nan,-0.040531233,nan,nan,nan,nan,nan,nan,-0.021272672,0.03344047,nan
103650539,nan,nan,nan,2.1373632,0.0,nan,nan,-0.046421364,nan,nan,nan,nan,nan,nan,-0.003340061,0.0052505494,nan
103850732,nan,nan,nan,2.1373632,0.0,nan,nan,-0.04686959,nan,nan,nan,nan,nan,nan,1.8105284e-06,-2.846136e-06,nan
104050969,nan,nan,nan,2.1373632,0.0,nan,nan,-0.046885885,nan,nan,nan,nan,nan,nan,-0.048349336,-0.03075673,nan
104271203,nan,nan,nan,2.1373632,0.0,nan,nan,-0.037798163,nan,nan,nan,nan,nan,nan,-0.049022887,-0.031185202,nan
104471352,nan,nan,nan,2.1373632,0.0,nan,nan,-0.029372051,nan,nan,nan,nan,nan,nan,-0.03801863,-0.024185002,nan
104671510,nan,nan,nan,2.1373632,0.0,nan,nan,-0.0061711418,nan,nan,nan,nan,nan,nan,-0.027608747,-0.017562905,nan
104871749,nan,nan,-0.83043754,2.1373632,0.0,nan,nan,0.0,nan,nan,nan,nan,nan,nan,-0.011455595,-0.007287311,nan
105072016,nan,nan,-0.83043754,2.1373632,0.0,nan,nan,0.0,nan,nan,nan,nan,nan,nan,-1.1641478e-07,-7.4055585e-08,nan
105272137,nan,nan,-0.83043754,2.1373632,0.0,nan,nan,0.0,nan,nan,nan,nan,nan,nan,-4.3960533e-09,-2.796486e-09,nan
105472331,nan,nan,-0.83043754,2.1373632,0.0,nan,nan,0.0,nan,nan,nan,nan,nan,nan,3.8850594e-12,2.4714243e-12,nan
105672707,nan,nan,-0.83043754,2.1373632,0.0,nan,nan,0.0,nan,nan,nan,nan,nan,nan,-1.5291523e-15,-9.727482e-16,nan
105892952,nan,nan,-0.83043754,2.1373632,0.0,nan,nan,0.0,nan,nan,nan,nan,nan,nan,-7.0929843e-19,-4.5120996e-19,nan
106092977,nan,nan,-0.83043754,2.1373632,0.0,nan,nan,0.0,nan,nan,nan,nan,nan,nan,3.9384437e-22,2.505384e-22,nan
106293115,nan,nan,nan,2.1373632,0.0,nan,nan,-0.0043834,nan,nan,nan,nan,nan,nan,-4.3417647e-26,-2.761951e-26,nan
106493401,nan,nan,nan,2.1373632,0.0,nan,nan,-0.03572988,nan,nan,nan,nan,nan,nan,-1.2882236e-28,-8.194849e-29,nan
106693824,nan,nan,nan,2.1373632,0.0,nan,nan,-0.055656902,nan,nan,nan,nan,nan,nan,1.1264048e-31,7.1654615e-32,nan
106894187,nan,nan,nan,2.1373632,0.0,nan,nan,-0.055050924,nan,nan,nan,nan,nan,nan,-5.269111e-05,-3.351869e-05,nan
107094701,nan,nan,nan,2.1373632,0.0,nan,nan,-0.05163439,nan,nan,nan,nan,nan,nan,1.0954662e-07,6.96865e-08,nan
107294191,nan,nan,nan,2.1373632,0.0,nan,nan,-0.04897046,nan,nan,nan,nan,nan,nan,-0.00018529111,-0.00011787026,nan
107494471,nan,nan,nan,2.1373632,0.0,nan,nan,-0.056603428,nan,nan,nan,nan,nan,nan,1.0954658e-07,6.968648e-08,nan
107714542,nan,nan,nan,2.1373632,0.0,nan,nan,-0.06371585,nan,nan,nan,nan,nan,nan,2.922535e-11,1.8591286e-11,nan
107914726,nan,nan,nan,2.1373632,0.0,nan,nan,-0.06916451,nan,nan,nan,nan,nan,nan,-2.326398e-14,-1.4799045e-14,nan
108115340,nan,nan,nan,2.1373632,0.0,nan,nan,-0.07466681,nan,nan,nan,nan,nan,nan,7.928511e-18,5.043608e-18,nan
108315617,nan,nan,nan,2.1373632,0.0,nan,nan,-0.07311709,nan,nan,nan,nan,nan,nan,2.9291463e-21,1.8633342e-21,nan
108515631,nan,nan,nan,2.1373632,0.0,nan,nan,-0.08040197,nan,nan,nan,nan,nan,nan,-5.911811e-24,-3.7607133e-24,nan
108715594,nan,nan,nan,2.1373632,0.0,nan,nan,-0.082687214,nan,nan,nan,nan,nan,nan,3.91851e-27,2.4927038e-27,nan
108915779,nan,nan,nan,2.1373632,0.0,nan,nan,-0.083918646,nan,nan,nan,nan,nan,nan,-0.043042105,-0.027380614,nan
109116088,nan,nan,nan,2.1373632,0.0,nan,nan,-0.08533843,nan,nan,nan,nan,nan,nan,-0.046729553,-0.029726332,nan
109336161,nan,nan,nan,2.1373632,0.0,nan,nan,-0.07490801,nan,nan,nan,nan,nan,nan,-0.04746496,-0.030194148,nan
109536375,nan,nan,nan,2.1373632,0.0,nan,nan,-0.09700068,nan,nan,nan,nan,nan,nan,0.00033964455,0.00021605998,nan
109736908,nan,nan,nan,2.1373632,0.0,nan,nan,-0.09699035,nan,nan,nan,nan,nan,nan,-6.2183096e-07,-3.955688e-07,nan
109937031,nan,nan,nan,2.1373632,0.0,nan,nan,-0.09116459,nan,nan,nan,nan,nan,nan,3.9881476e-10,2.5370026e-10,nan
110137874,nan,nan,nan,2.1373632,0.0,nan,nan,-0.09705392,nan,nan,nan,nan,nan,nan,-8.477774e-14,-5.3930134e-14,nan
110337166,nan,nan,nan,2.1373632,0.0,nan,nan,-0.0938452,nan,nan,nan,nan,nan,nan,-8.188827e-17,-5.2092037e-17,nan
110537519,nan,nan,nan,2.1373632,0.0,nan,nan,-0.115197584,nan,nan,nan,nan,nan,nan,3.159593e-20,2.0099295e-20,nan
110757689,nan,nan,nan,2.1373632,0.0,nan,nan,-0.1139276,nan,nan,nan,nan,nan,nan,1.5030257e-23,9.561281e-24,nan
110957779,nan,nan,nan,2.1373632,0.0,nan,nan,-0.1223712,nan,nan,nan,nan,nan,nan,-8.223634e-27,-5.231346e-27,nan
111157932,nan,nan,nan,2.1373632,0.0,nan,nan,-0.12236285,nan,nan,nan,nan,nan,nan,8.13536e-31,5.1751924e-31,nan
111358538,nan,nan,nan,2.1373632,0.0,nan,nan,-0.11914539,nan,nan,nan,nan,nan,nan,2.7710487e-33,1.7627625e-33,nan
111558438,nan,nan,nan,2.1373632,0.0,nan,nan,-0.12236325,nan,nan,nan,nan,nan,nan,-2.7622363e-36,-1.7571567e-36,nan
111758612,nan,nan,nan,2.1373632,0.0,nan,nan,-0.12236285,nan,nan,nan,nan,nan,nan,1.237265e-39,7.87069e-40,nan
111958817,nan,nan,nan,2.1373632,0.0,nan,nan,-0.12236285,nan,nan,nan,nan,nan,nan,9e-44,5.7e-44,nan
112179168,nan,nan,nan,2.1373632,0.0,nan,nan,-0.11648067,nan,nan,nan,nan,nan,nan,0.0,0.0,nan
112379329,nan,nan,nan,2.1373632,0.0,nan,nan,-0.122843266,nan,nan,nan,nan,nan,nan,0.0,0.0,nan
112579461,nan,nan,nan,2.1373632,0.0,nan,nan,-0.12410569,nan,nan,nan,nan,nan,nan,0.0,0.0,nan
112779591,nan,nan,nan,2.1373632,0.0,nan,nan,-0.12061603,nan,nan,nan,nan,nan,nan,0.0,0.0,nan
112980174,nan,nan,nan,2.1373632,0.0,nan,nan,-0.1206228,nan,nan,nan,nan,nan,nan,0.0,0.0,nan
113180134,nan,nan,nan,2.1373632,0.0,nan,nan,-0.11391925,nan,nan,nan,nan,nan,nan,0.0,0.0,nan
113380194,nan,nan,nan,2.1373632,0.0,nan,nan,-0.112180784,nan,nan,nan,nan,nan,nan,0.0,0.0,nan
113600855,nan,nan,nan,2.1373632,0.0,nan,nan,-0.10568746,nan,nan,nan,nan,nan,nan,0.0,0.0,nan
113800714,nan,nan,nan,2.1373632,0.0,nan,nan,-0.09837794,nan,nan,nan,nan,nan,nan,0.0,0.0,nan
114000895,nan,nan,nan,2.1373632,0.0,nan,nan,-0.11235007,nan,nan,nan,nan,nan,nan,0.0,0.0,nan
114201012,nan,nan,nan,2.1373632,0.0,nan,nan,-0.10353613,nan,nan,nan,nan,nan,nan,0.0,0.0,nan
114401211,nan,nan,nan,2.1373632,0.0,nan,nan,-0.09662239,nan,nan,nan,nan,nan,nan,0.0,0.0,nan
114601805,nan,nan,nan,2.1373632,0.0,nan,nan,-0.09704757,nan,nan,nan,nan,nan,nan,0.0,0.0,nan
114801714,nan,nan,nan,2.1373632,0.0,nan,nan,-0.0969824,nan,nan,nan,nan,nan,nan,0.0,0.0,nan
115001846,nan,nan,nan,2.1373632,0.0,nan,nan,-0.09704597,nan,nan,nan,nan,nan,nan,0.0,0.0,nan
115222476,nan,nan,nan,2.1373632,0.0,nan,nan,-0.07874973,nan,nan,nan,nan,nan,nan,0.0,0.0,nan
115422383,nan,nan,nan,2.1331778,0.0,nan,nan,-0.07172512,nan,nan,nan,nan,nan,nan,0.0,0.0,nan
115622528,nan,nan,nan,2.1331778,0.0,nan,nan,-0.07197428,nan,nan,nan,nan,nan,nan,0.0,0.0,nan
115822646,nan,nan,nan,2.1331778,0.0,nan,nan,-0.07166592,nan,nan,nan,nan,nan,nan,0.0,0.0,nan
116022948,nan,nan,nan,2.1331778,0.0,nan,nan,-0.046947874,nan,nan,nan,nan,nan,nan,0.0,0.0,nan
116223378,nan,nan,nan,2.1331778,0.0,nan,nan,-0.044936016,nan,nan,nan,nan,nan,nan,0.0,0.0,nan
116423520,nan,nan,nan,2.1331778,0.0,nan,nan,-0.029005682,nan,nan,nan,nan,nan,nan,0.0,0.0,nan
116624124,nan,nan,nan,2.1331778,0.0,nan,nan,-0.029536165,nan,nan,nan,nan,nan,nan,0.0,0.0,nan
116843733,nan,nan,nan,2.1331778,0.0,nan,nan,-0.009186342,nan,nan,nan,nan,nan,nan,-0.02455654,0.038961813,nan
117043991,nan,nan,nan,2.1331778,0.0,nan,nan,-0.012660102,nan,nan,nan,nan,nan,nan,-0.010110169,0.016040962,nan
117244088,nan,nan,nan,2.1331778,0.0,nan,nan,-0.012658114,nan,nan,nan,nan,nan,nan,-0.009402203,0.014917693,nan
117444271,nan,nan,nan,2.1331778,0.0,nan,nan,-0.0111350175,nan,nan,nan,nan,nan,nan,-0.0106943,0.016967755,nan
117644449,nan,nan,-1.5366285,2.1331778,0.0,nan,nan,0.0,nan,nan,nan,nan,nan,nan,-0.008599213,0.013643655,nan
117844973,nan,nan,-1.5366285,2.1331778,0.0,nan,nan,0.0,nan,nan,nan,nan,nan,nan,-1.0327325e-05,1.6385507e-05,nan
118045138,nan,nan,-1.5366285,2.1331778,0.0,nan,nan,0.0,nan,nan,nan,nan,nan,nan,-2.4365021e-09,3.865795e-09,nan
118245089,nan,nan,-1.5366285,2.1331778,0.0,nan,nan,0.0,nan,nan,nan,nan,nan,nan,6.497325e-12,-1.0308763e-11,nan
118445544,nan,nan,-1.5366285,2.1331778,0.0,nan,nan,0.0,nan,nan,nan,nan,nan,nan,-0.03591584,-0.022636747,nan
118665675,nan,nan,-1.5366285,2.1331778,0.0,nan,nan,0.0,nan,nan,nan,nan,nan,nan,-0.055443577,-0.034944534,nan
118865755,nan,nan,-1.5366285,2.1331778,0.0,nan,nan,0.0,nan,nan,nan,nan,nan,nan,-0.053195,-0.033527315,nan
119065880,nan,nan,-1.5366285,2.1331778,0.0,nan,nan,0.0,nan,nan,nan,nan,nan,nan,-0.046464115,-0.02928503,nan
119266138,nan,nan,-1.5573852,2.1331778,0.0,nan,nan,0.0,nan,nan,nan,nan,nan,nan,-0.027919782,-0.017597055,nan
119466431,nan,nan,-1.5573852,2.1331778,0.0,nan,nan,0.0,nan,nan,nan,nan,nan,nan,0.00015388486,9.6989315e-05,nan
119666536,nan,nan,-1.5573852,2.1331778,0.0,nan,nan,0.0,nan,nan,nan,nan,nan,nan,1.8667228e-07,1.1765431e-07,nan
119887459,nan,nan,-1.5573852,2.1331778,0.0,nan,nan,0.0,nan,nan,nan,nan,nan,nan,-5.917793e-11,-3.7298192e-11,nan
120087015,nan,nan,-1.5573852,2.1331778,0.0,nan,nan,0.0,nan,nan,nan,nan,nan,nan,-1.4651732e-14,-9.234576e-15,nan
120287184,nan,nan,-1.5573852,2.1331778,0.0,nan,nan,0.0,nan,nan,nan,nan,nan,nan,3.783323e-17,2.3845225e-17,nan
120487327,nan,nan,-1.5573852,2.1331778,0.0,nan,nan,0.0,nan,nan,nan,nan,nan,nan,-2.6809652e-20,-1.6897373e-20,nan
120687536,nan,nan,nan,2.1331778,0.0,nan,nan,-0.0043834,nan,nan,nan,nan,nan,nan,7.3787485e-24,4.6506182e-24,nan
120887773,nan,nan,nan,2.1331778,0.0,nan,nan,-0.0024760514,nan,nan,nan,nan,nan,nan,4.9096526e-27,3.0944163e-27,nan
121088057,nan,nan,nan,2.1331778,0.0,nan,nan,-0.0042224675,nan,nan,nan,nan,nan,nan,0.018863259,-0.02992876,nan
121309070,nan,nan,nan,2.1331778,0.0,nan,nan,-0.004219289,nan,nan,nan,nan,nan,nan,0.016255835,-0.02579178,nan
121508853,nan,nan,nan,2.1331778,0.0,nan,nan,-0.004219289,nan,nan,nan,nan,nan,nan,0.0116458265,-0.018477462,nan
121708602,nan,nan,nan,2.1331778,0.0,nan,nan,-0.0035187355,nan,nan,nan,nan,nan,nan,0.00975035,-0.015470068,nan
121908864,nan,nan,nan,2.1331778,0.0,nan,nan,-0.0042117387,nan,nan,nan,nan,nan,nan,0.009504492,-0.015079986,nan
122108929,nan,nan,nan,2.1331778,0.0,nan,nan,-0.004219289,nan,nan,nan,nan,nan,nan,0.005394231,-0.008558577,nan
122309127,nan,nan,-1.5733368,2.1331778,0.0,nan,nan,0.0,nan,nan,nan,nan,nan,nan,0.00314643,-0.004992178,nan
122509742,nan,nan,nan,2.1331778,0.0,nan,nan,-0.0042248517,nan,nan,nan,nan,nan,nan,0.001805058,-0.0028639352,nan
122709898,nan,nan,nan,2.1331778,0.0,nan,nan,-0.004219289,nan,nan,nan,nan,nan,nan,0.0008483624,-0.0013460258,nan
122910145,nan,nan,nan,2.1331778,0.0,nan,nan,-0.004447376,nan,nan,nan,nan,nan,nan,0.00041429492,-0.00065732724,nan
123129962,nan,nan,nan,2.1331778,0.0,nan,nan,-0.004222865,nan,nan,nan,nan,nan,nan,0.0013680584,-0.0021705844,nan
123330203,nan,nan,nan,2.1331778,0.0,nan,nan,-0.004219289,nan,nan,nan,nan,nan,nan,0.00028506442,-0.000452288,nan
123530462,nan,nan,nan,2.1331778,0.0,nan,nan,-0.0024760514,nan,nan,nan,nan,nan,nan,0.00069736806,-0.0011064558,nan
123730577,nan,nan,nan,2.1331778,0.0,nan,nan,-0.003933584,nan,nan,nan,nan,nan,nan,0.0029517051,-0.0046832245,nan
123930740,nan,nan,nan,2.1331778,0.0,nan,nan,-0.004218494,nan,nan,nan,nan,nan,nan,0.006049677,-0.009598518,nan
124130987,nan,nan,nan,2.1331778,0.0,nan,nan,-0.004219289,nan,nan,nan,nan,nan,nan,0.0074786143,-0.011865694,nan
124331283,nan,nan,-1.5174351,2.1331778,0.0,nan,nan,0.0,nan,nan,nan,nan,nan,nan,0.010993578,-0.017442593,nan
124531356,nan,nan,nan,2.1331778,0.0,nan,nan,-0.002701357,nan,nan,nan,nan,nan,nan,0.010260409,-0.016279336,nan
124752221,nan,nan,nan,2.1331778,0.0,nan,nan,-0.0042236596,nan,nan,nan,nan,nan,nan,0.009467334,-0.015021029,nan
124951948,nan,nan,nan,2.1331778,0.0,nan,nan,-0.004219289,nan,nan,nan,nan,nan,nan,0.009526087,-0.015114249,nan
125152130,nan,nan,nan,2.1331778,0.0,nan,nan,-0.011278465,nan,nan,nan,nan,nan,nan,0.0036397695,-0.005774919,nan
125352254,nan,nan,nan,2.1331778,0.0,nan,nan,-0.0059569627,nan,nan,nan,nan,nan,nan,0.0041788304,-0.0066302023,nan
125552358,nan,nan,-1.4943517,2.1331778,0.0,nan,nan,0.0,nan,nan,nan,nan,nan,nan,0.004055244,-0.0064341174,nan
125752966,nan,nan,nan,2.1331778,0.0,nan,nan,-0.011094883,nan,nan,nan,nan,nan,nan,0.0019606263,-0.0031107625,nan
125953042,nan,nan,nan,2.1331778,0.0,nan,nan,-0.009665961,nan,nan,nan,nan,nan,nan,2.1424923e-05,-3.399314e-05,nan
126153908,nan,nan,nan,2.1331778,0.0,nan,nan,-0.01678991,nan,nan,nan,nan,nan,nan,-2.7222796e-08,4.319214e-08,nan
126353164,nan,nan,nan,2.1331778,0.0,nan,nan,-0.018376186,nan,nan,nan,nan,nan,nan,1.468455e-11,-2.3298752e-11,nan
126553500,nan,nan,nan,2.1331778,0.0,nan,nan,-0.021097735,nan,nan,nan,nan,nan,nan,-1.290157e-15,2.0469845e-15,nan
126773667,nan,nan,nan,2.1331778,0.0,nan,nan,-0.024025515,nan,nan,nan,nan,nan,nan,-3.2454076e-18,5.149218e-18,nan
126973825,nan,nan,nan,2.1331778,0.0,nan,nan,-0.01862454,nan,nan,nan,nan,nan,nan,9.392925e-22,-1.490297e-21,nan
127173984,nan,nan,nan,2.1331778,0.0,nan,nan,-0.01976299,nan,nan,nan,nan,nan,nan,5.541354e-25,-8.792005e-25,nan
127374511,nan,nan,nan,2.1331778,0.0,nan,nan,-0.021100119,nan,nan,nan,nan,nan,nan,-8.810953e-28,1.3979606e-27,nan
127574534,nan,nan,nan,2.1331778,0.0,nan,nan,-0.012005643,nan,nan,nan,nan,nan,nan,0.0065573403,-0.010403985,nan
127774570,nan,nan,nan,2.1331778,0.0,nan,nan,-0.017602917,nan,nan,nan,nan,nan,nan,0.0061835027,-0.009810848,nan
127974720,nan,nan,nan,2.1331778,0.0,nan,nan,-0.021104094,nan,nan,nan,nan,nan,nan,0.005581681,-0.008855988,nan
128175020,nan,nan,nan,2.1331778,0.0,nan,nan,-0.018367842,nan,nan,nan,nan,nan,nan,0.004799468,-0.0076149157,nan
128375285,nan,nan,nan,2.1331778,0.0,nan,nan,-0.021524504,nan,nan,nan,nan,nan,nan,0.007022936,-0.011142707,nan
128595389,nan,nan,nan,2.1331778,0.0,nan,nan,-0.018335655,nan,nan,nan,nan,nan,nan,0.0068373578,-0.010848266,nan
128795642,nan,nan,nan,2.1331778,0.0,nan,nan,-0.017657354,nan,nan,nan,nan,nan,nan,0.0054021594,-0.008571156,nan
128995965,nan,nan,nan,2.1331778,0.0,nan,nan,-0.012728845,nan,nan,nan,nan,nan,nan,0.004224226,-0.006702227,nan
129196077,nan,nan,nan,2.1331778,0.0,nan,nan,-0.021577355,nan,nan,nan,nan,nan,nan,0.009776447,-0.015511474,nan
129396250,nan,nan,nan,2.1331778,0.0,nan,nan,-0.021040913,nan,nan,nan,nan,nan,nan,0.012640145,-0.020055065,nan
129596389,nan,nan,nan,2.1331778,0.0,nan,nan,-0.01515078,nan,nan,nan,nan,nan,nan,0.014867773,-0.023589456,nan
129796770,nan,nan,nan,2.1331778,0.0,nan,nan,-0.014191543,nan,nan,nan,nan,nan,nan,0.009268411,-0.014705416,nan
129996934,nan,nan,nan,2.1331778,0.0,nan,nan,-0.02177683,nan,nan,nan,nan,nan,nan,0.006947319,-0.011022733,nan
130217022,nan,nan,nan,2.1331778,0.0,nan,nan,-0.015659407,nan,nan,nan,nan,nan,nan,0.005510615,-0.008743234,nan
130417342,nan,nan,nan,2.1331778,0.0,nan,nan,-0.017187273,nan,nan,nan,nan,nan,nan,0.004226814,-0.0067063337,nan
130617792,nan,nan,nan,2.1331778,0.0,nan,nan,-0.0048812977,nan,nan,nan,nan,nan,nan,7.006027e-06,-1.1115879e-05,nan
130817734,nan,nan,-1.4940686,2.1331778,0.0,nan,nan,0.0,nan,nan,nan,nan,nan,nan,0.0038065177,-0.0060394844,nan
131017809,nan,nan,-1.4940686,2.1331778,0.0,nan,nan,0.0,nan,nan,nan,nan,nan,nan,0.018425727,-0.029234564,nan
131218020,nan,nan,-1.4940686,2.1331778,0.0,nan,nan,0.0,nan,nan,nan,nan,nan,nan,0.0072606467,-0.011519862,nan
131418374,nan,nan,-1.4940686,2.1331778,0.0,nan,nan,0.0,nan,nan,nan,nan,nan,nan,0.004524945,-0.007179353,nan
131638493,nan,nan,-1.4940686,2.1331778,0.0,nan,nan,0.0,nan,nan,nan,nan,nan,nan,0.004101525,-0.006507548,nan
131838698,nan,nan,-1.4940686,2.1331778,0.0,nan,nan,0.0,nan,nan,nan,nan,nan,nan,0.0041015567,-0.006507598,nan
132038839,nan,nan,-1.4940686,2.1331778,0.0,nan,nan,0.0,nan,nan,nan,nan,nan,nan,0.004894927,-0.007766373,nan
132239474,nan,nan,-1.4940686,2.1331778,0.0,nan,nan,0.0,nan,nan,nan,nan,nan,nan,0.005223935,-0.008288383,nan
132439477,nan,nan,-1.4940686,2.1331778,0.0,nan,nan,0.0,nan,nan,nan,nan,nan,nan,0.0045460053,-0.007212768,nan
132639494,nan,nan,-1.4940686,2.1331778,0.0,nan,nan,0.0,nan,nan,nan,nan,nan,nan,0.00451381,-0.007161686,nan
132839650,nan,nan,-1.4940686,2.1331778,0.0,nan,nan,0.0,nan,nan,nan,nan,nan,nan,0.004814251,-0.0076383706,nan
133039992,nan,nan,-1.4940686,2.1331778,0.0,nan,nan,0.0,nan,nan,nan,nan,nan,nan,0.00422684,-0.006706375,nan
133240320,nan,nan,-1.4940686,2.1331778,0.0,nan,nan,0.0,nan,nan,nan,nan,nan,nan,0.0038159604,-0.006054466,nan
133440250,nan,nan,-1.4940686,2.1331778,0.0,nan,nan,0.0,nan,nan,nan,nan,nan,nan,0.0040552514,-0.006434129,nan
133660507,nan,nan,-1.4940686,2.1331778,0.0,nan,nan,0.0,nan,nan,nan,nan,nan,nan,0.0006706031,-0.0010639902,nan
133861628,nan,nan,-1.4940686,2.1331778,0.0,nan,nan,0.0,nan,nan,nan,nan,nan,nan,1.450461e-06,-2.3013256e-06,nan
134061065,nan,nan,-1.4940686,2.1331778,0.0,nan,nan,0.0,nan,nan,nan,nan,nan,nan,1.3356677e-09,-2.1191926e-09,nan
134261061,nan,nan,-1.4940686,2.1331778,0.0,nan,nan,0.0,nan,nan,nan,nan,nan,nan,-1.7793903e-12,2.8232104e-12,nan
134461201,nan,nan,-1.4940686,2.1331778,0.0,nan,nan,0.0,nan,nan,nan,nan,nan,nan,9.872482e-16,-1.5663846e-15,nan
134661586,nan,nan,-1.4940686,2.1331778,0.0,nan,nan,0.0,nan,nan,nan,nan,nan,nan,-1.08244487e-19,1.7174251e-19,nan
134861736,nan,nan,-1.4940686,2.1331778,0.0,nan,nan,0.0,nan,nan,nan,nan,nan,nan,-3.2343368e-22,5.1316525e-22,nan
135081928,nan,nan,-1.4940686,2.1331778,0.0,nan,nan,0.0,nan,nan,nan,nan,nan,nan,6.5780504e-26,-1.0436845e-25,nan
135282155,nan,nan,-1.4940686,2.1331778,0.0,nan,nan,0.0,nan,nan,nan,nan,nan,nan,3.381417e-29,-5.3650125e-29,nan
135482438,nan,nan,-1.4940686,2.1331778,0.0,nan,nan,0.0,nan,nan,nan,nan,nan,nan,-5.734819e-32,9.09896e-32,nan
135682561,nan,nan,-1.4940686,2.1331778,0.0,nan,nan,0.0,nan,nan,nan,nan,nan,nan,-6.369146e-37,1.0105393e-36,nan
135882669,nan,nan,-1.4940686,2.1331778,0.0,nan,nan,0.0,nan,nan,nan,nan,nan,nan,8.816359e-39,-1.3988182e-38,nan
136083131,nan,nan,-1.4940686,2.1331778,0.0,nan,nan,0.0,nan,nan,nan,nan,nan,nan,-7.423e-42,1.1778e-41,nan
136283291,nan,nan,-1.4940686,2.1331778,0.0,nan,nan,0.0,nan,nan,nan,nan,nan,nan,-1e-45,3e-45,nan
136483324,nan,nan,-1.4940686,2.1331778,0.0,nan,nan,0.0,nan,nan,nan,nan,nan,nan,0.0,0.0,nan
136703517,nan,nan,-1.4940686,2.1331778,0.0,nan,nan,0.0,nan,nan,nan,nan,nan,nan,0.0,0.0,nan
136903814,nan,nan,-1.4940686,2.1331778,0.0,nan,nan,0.0,nan,nan,nan,nan,nan,nan,0.0,0.0,nan
137104267,nan,nan,-1.4940686,2.1331778,0.0,nan,nan,0.0,nan,nan,nan,nan,nan,nan,0.0,0.0,nan
137304260,nan,nan,-1.4940686,2.1331778,0.0,nan,nan,0.0,nan,nan,nan,nan,nan,nan,0.0029406124,-0.004665625,nan
137504339,nan,nan,-1.4940686,2.1331778,0.0,nan,nan,0.0,nan,nan,nan,nan,nan,nan,1.0237836e-05,-1.6243523e-05,nan
137704578,nan,nan,-1.4940686,2.1331778,0.0,nan,nan,0.0,nan,nan,nan,nan,nan,nan,0.0027967487,-0.004437368,nan
137904868,nan,nan,-1.4940686,2.1331778,0.0,nan,nan,0.0,nan,nan,nan,nan,nan,nan,0.013040531,-0.020690324,nan
138104922,nan,nan,-1.4940686,2.1331778,0.0,nan,nan,0.0,nan,nan,nan,nan,nan,nan,0.010651585,-0.016899982,nan
138325116,nan,nan,-1.4940686,2.1331778,0.0,nan,nan,0.0,nan,nan,nan,nan,nan,nan,0.0040860153,-0.00648294,nan
138525381,nan,nan,-1.4940686,2.1331778,0.0,nan,nan,0.0,nan,nan,nan,nan,nan,nan,2.0697482e-05,-3.283897e-05,nan
138725657,nan,nan,-1.4940686,2.1331778,0.0,nan,nan,0.0,nan,nan,nan,nan,nan,nan,-1.5295676e-08,2.4268374e-08,nan
138925732,nan,nan,-1.4940686,2.1331778,0.0,nan,nan,0.0,nan,nan,nan,nan,nan,nan,4.585432e-12,-7.2753227e-12,nan
139125935,nan,nan,-1.4940686,2.1331778,0.0,nan,nan,0.0,nan,nan,nan,nan,nan,nan,2.4733292e-15,-3.9242253e-15,nan
139326311,nan,nan,-1.4940686,2.1331778,0.0,nan,nan,0.0,nan,nan,nan,nan,nan,nan,-4.0990294e-18,6.5035885e-18,nan
139526481,nan,nan,-1.4940686,2.1331778,0.0,nan,nan,0.0,nan,nan,nan,nan,nan,nan,-0.03287827,-0.020722251,nan
139726533,nan,nan,-1.4940686,2.1331778,0.0,nan,nan,0.0,nan,nan,nan,nan,nan,nan,-0.040943287,-0.025805406,nan
139926735,nan,nan,-1.4940686,2.1331778,0.0,nan,nan,0.0,nan,nan,nan,nan,nan,nan,-0.03541124,-0.022318712,nan
140147001,nan,nan,-1.4940686,2.1331778,0.0,nan,nan,0.0,nan,nan,nan,nan,nan,nan,-0.02051603,-0.012930679,nan
140347482,nan,nan,-1.4940686,2.1331778,0.0,nan,nan,0.0,nan,nan,nan,nan,nan,nan,-0.011632902,-0.007331892,nan
140548054,nan,nan,-1.4940686,2.1331778,0.0,nan,nan,0.0,nan,nan,nan,nan,nan,nan,-6.0854086e-06,-3.8354624e-06,nan
140747542,nan,nan,-1.4940686,2.1331778,0.0,nan,nan,0.0,nan,nan,nan,nan,nan,nan,0.064137354,0.040423978,nan
140947811,nan,nan,-1.4940686,2.1331778,0.0,nan,nan,0.0,nan,nan,nan,nan,nan,nan,0.06958032,0.043854523,nan
141148050,nan,nan,-1.4940686,2.1331778,0.0,nan,nan,0.0,nan,nan,nan,nan,nan,nan,0.06588203,0.041523594,nan
141348159,nan,nan,-1.4940686,2.1331778,0.0,nan,nan,0.0,nan,nan,nan,nan,nan,nan,0.012634681,0.007963285,nan
141548344,nan,nan,-1.4940686,2.1331778,0.0,nan,nan,0.0,nan,nan,nan,nan,nan,nan,-6.4995484e-06,-4.0964833e-06,nan
141769116,nan,nan,-1.4940686,2.1331778,0.0,nan,nan,0.0,nan,nan,nan,nan,nan,nan,-2.114805e-09,-1.3329022e-09,nan
141969042,nan,nan,-1.4940686,2.1331778,0.0,nan,nan,0.0,nan,nan,nan,nan,nan,nan,-0.035360727,-0.022286875,nan
142169053,nan,nan,-1.4940686,2.1331778,0.0,nan,nan,0.0,nan,nan,nan,nan,nan,nan,-0.03080097,-0.019412989,nan
142369156,nan,nan,-1.4940686,2.1331778,0.0,nan,nan,0.0,nan,nan,nan,nan,nan,nan,-0.006529922,-0.0041156267,nan
142569591,nan,nan,-1.4940686,2.1331778,0.0,nan,nan,0.0,nan,nan,nan,nan,nan,nan,-0.0017732449,-0.0011176266,nan
142769667,nan,nan,-1.4940686,2.1331778,0.0,nan,nan,0.0,nan,nan,nan,nan,nan,nan,1.1791483e-06,7.4318416e-07,nan
142969764,nan,nan,-1.4940686,2.1331778,0.0,nan,nan,0.0,nan,nan,nan,nan,nan,nan,-2.782884e-10,-1.7539738e-10,nan
143169961,nan,nan,-1.4940686,2.1331778,0.0,nan,nan,0.0,nan,nan,nan,nan,nan,nan,-2.56289e-13,-1.6153177e-13,nan
143390421,nan,nan,-1.4940686,2.1331778,0.0,nan,nan,0.0,nan,nan,nan,nan,nan,nan,9.6798455e-17,6.1009355e-17,nan
143591438,nan,nan,-1.4940686,2.1331778,0.0,nan,nan,0.0,nan,nan,nan,nan,nan,nan,1.654974e-20,1.0430837e-20,nan
143790962,nan,nan,-1.4940686,2.1331778,0.0,nan,nan,0.0,nan,nan,nan,nan,nan,nan,-5.541336e-23,-3.4925485e-23,nan
143990837,nan,nan,-1.4940686,2.1331778,0.0,nan,nan,0.0,nan,nan,nan,nan,nan,nan,4.1345836e-26,2.605912e-26,nan
144191187,nan,nan,-1.4940686,2.1331778,0.0,nan,nan,0.0,nan,nan,nan,nan,nan,nan,-1.2620995e-29,-7.9546594e-30,nan
144391316,nan,nan,-1.4940686,2.1331778,0.0,nan,nan,0.0,nan,nan,nan,nan,nan,nan,-6.4883975e-33,-4.0894552e-33,nan
144591418,nan,nan,-1.4940686,2.1331778,0.0,nan,nan,0.0,nan,nan,nan,nan,nan,nan,1.10036775e-35,6.935309e-36,nan
144791571,nan,nan,-1.4940686,2.1331778,0.0,nan,nan,0.0,nan,nan,nan,nan,nan,nan,-6.854868e-39,-4.320432e-39,nan
145011971,nan,nan,-1.4940686,2.1331778,0.0,nan,nan,0.0,nan,nan,nan,nan,nan,nan,-1.691e-42,-1.066e-42,nan
145212110,nan,nan,-1.4940686,2.1331778,0.0,nan,nan,0.0,nan,nan,nan,nan,nan,nan,1e-45,1e-45,nan
145412196,nan,nan,-1.4940686,2.1331778,0.0,nan,nan,0.0,nan,nan,nan,nan,nan,nan,0.0,0.0,nan
145612435,nan,nan,-1.4940686,2.1331778,0.0,nan,nan,0.0,nan,nan,nan,nan,nan,nan,0.0,0.0,nan
145812788,nan,nan,-1.4940686,2.1331778,0.0,nan,nan,0.0,nan,nan,nan,nan,nan,nan,0.0,0.0,nan
146012919,nan,nan,-1.4940686,2.1331778,0.0,nan,nan,-0.0,nan,nan,nan,nan,nan,nan,0.0,0.0,nan
146213059,nan,nan,-1.4940686,2.1331778,0.0,nan,nan,-0.0,nan,nan,nan,nan,nan,nan,0.0,0.0,nan
146433228,nan,nan,-1.4940686,2.1331778,0.0,nan,nan,-0.0,nan,nan,nan,nan,nan,nan,0.0,0.0,nan
146633654,nan,nan,-1.4940686,2.1331778,0.0,nan,nan,-0.0,nan,nan,nan,nan,nan,nan,0.0,0.0,nan
146833742,nan,nan,-1.4940686,2.1331778,0.0,nan,nan,-0.0,nan,nan,nan,nan,nan,nan,0.0,0.0,nan
147033820,nan,nan,-1.4940686,2.1331778,0.0,nan,nan,-0.0,nan,nan,nan,nan,nan,nan,0.0,0.0,nan
147234026,nan,nan,-1.4940686,2.1331778,0.0,nan,nan,-0.0,nan,nan,nan,nan,nan,nan,0.0,0.0,nan
147434406,nan,nan,-1.4940686,2.1331778,0.0,nan,nan,-0.0,nan,nan,nan,nan,nan,nan,0.0,0.0,nan
147634501,nan,nan,-1.4940686,2.1331778,0.0,nan,nan,-0.0,nan,nan,nan,nan,nan,nan,0.030814618,-0.048890986,nan
147854659,nan,nan,-1.4940686,2.1331778,0.0,nan,nan,-0.0,nan,nan,nan,nan,nan,nan,2.8777993e-05,-4.5659643e-05,nan
148054849,nan,nan,nan,2.1331778,0.0,nan,nan,0.09580694,nan,nan,nan,nan,nan,nan,-6.4455437e-09,1.0226607e-08,nan
148255984,nan,nan,-1.5246582,2.1331778,0.0,nan,nan,-0.0,nan,nan,nan,nan,nan,nan,1.7591494e-11,-2.7910958e-11,nan
148455430,nan,nan,-1.5246582,2.1331778,0.0,nan,nan,-0.0,nan,nan,nan,nan,nan,nan,4.0972902e-15,-6.5008292e-15,nan
148655459,nan,nan,-1.5246582,2.1331778,0.0,nan,nan,-0.0,nan,nan,nan,nan,nan,nan,-4.5972833e-18,7.294127e-18,nan
148855719,nan,nan,nan,2.1331778,0.0,nan,nan,0.21569864,nan,nan,nan,nan,nan,nan,7.882287e-21,-1.2506169e-20,nan
149055980,nan,nan,nan,2.1331778,0.0,nan,nan,0.2717033,nan,nan,nan,nan,nan,nan,1.5665595e-24,-2.4855295e-24,nan
149256163,nan,nan,-1.4243003,2.1331778,0.0,nan,nan,-0.0,nan,nan,nan,nan,nan,nan,-1.5509429e-27,2.4607518e-27,nan
149476273,nan,nan,-1.4243003,2.1331778,0.0,nan,nan,-0.0,nan,nan,nan,nan,nan,nan,-1.6854217e-31,2.674118e-31,nan
149676539,nan,nan,-1.4243003,2.1331778,0.0,nan,nan,-0.0,nan,nan,nan,nan,nan,nan,2.7313254e-34,-4.3335665e-34,nan
149877669,nan,nan,nan,2.1331778,0.0,nan,nan,0.1215384,nan,nan,nan,nan,nan,nan,-1.6698168e-37,2.6493592e-37,nan
150077118,nan,nan,nan,2.1331778,0.0,nan,nan,0.016679259,nan,nan,nan,nan,nan,nan,3.0089e-41,-4.7738e-41,nan
150277054,nan,nan,-1.4204443,2.1331778,0.0,nan,nan,-0.0,nan,nan,nan,nan,nan,nan,4.5e-44,-7.1e-44,nan
150477381,nan,nan,-1.4204443,2.1331778,0.0,nan,nan,-0.0,nan,nan,nan,nan,nan,nan,0.0,0.0,nan
150677665,nan,nan,nan,2.1331778,0.0,nan,nan,0.24710421,nan,nan,nan,nan,nan,nan,0.0,0.0,nan
150877689,nan,nan,-1.4419796,2.1331778,0.0,nan,nan,-0.0,nan,nan,nan,nan,nan,nan,0.0,0.0,nan
151097869,nan,nan,-1.4419796,2.1331778,0.0,nan,nan,-0.0,nan,nan,nan,nan,nan,nan,0.0,0.0,nan
151298189,nan,nan,-1.4419796,2.1331778,0.0,nan,nan,-0.0,nan,nan,nan,nan,nan,nan,0.0,0.0,nan
151499007,nan,nan,-1.4419796,2.1331778,0.0,nan,nan,-0.0,nan,nan,nan,nan,nan,nan,0.0,0.0,nan
151698807,nan,nan,-1.4419796,2.1331778,0.0,nan,nan,-0.0,nan,nan,nan,nan,nan,nan,0.0,0.0,nan
151898722,nan,nan,-1.4419796,2.1331778,0.0,nan,nan,-0.0,nan,nan,nan,nan,nan,nan,0.0,0.0,nan
152098947,nan,nan,nan,2.1331778,0.0,nan,nan,0.027232328,nan,nan,nan,nan,nan,nan,0.0,0.0,nan
152299295,nan,nan,nan,2.1331778,0.0,nan,nan,0.08863584,nan,nan,nan,nan,nan,nan,0.0,0.0,nan
152519486,nan,nan,nan,2.1331778,0.0,nan,nan,0.1110152,nan,nan,nan,nan,nan,nan,0.0,0.0,nan
152719526,nan,nan,nan,2.1331778,0.0,nan,nan,0.07335957,nan,nan,nan,nan,nan,nan,0.0,0.0,nan
152919770,nan,nan,nan,2.1331778,0.0,nan,nan,0.07089909,nan,nan,nan,nan,nan,nan,0.0,0.0,nan
153121196,nan,nan,-1.4404452,2.1331778,0.0,nan,nan,-0.0,nan,nan,nan,nan,nan,nan,0.0,0.0,nan
153320331,nan,nan,-1.4404452,2.1331778,0.0,nan,nan,-0.0,nan,nan,nan,nan,nan,nan,0.0,0.0,nan
153520303,nan,nan,-1.4404452,2.1331778,0.0,nan,nan,-0.0,nan,nan,nan,nan,nan,nan,0.0,0.0,nan
153720592,nan,nan,-1.4404452,2.1331778,0.0,nan,nan,-0.0,nan,nan,nan,nan,nan,nan,0.0,0.0,nan
153920810,nan,nan,nan,2.1331778,0.0,nan,nan,0.0149975475,nan,nan,nan,nan,nan,nan,0.0,0.0,nan
154120906,nan,nan,-1.4895924,2.1331778,0.0,nan,nan,-0.0,nan,nan,nan,nan,nan,nan,0.0,0.0,nan
154321143,nan,nan,-1.4895924,2.1331778,0.0,nan,nan,-0.0,nan,nan,nan,nan,nan,nan,0.0,0.0,nan
154542373,nan,nan,-1.4895924,2.1331778,0.0,nan,nan,-0.0,nan,nan,nan,nan,nan,nan,0.0,0.0,nan
154742662,nan,nan,-1.4895924,2.1331778,0.0,nan,nan,-0.0,nan,nan,nan,nan,nan,nan,0.0,0.0,nan
154941861,nan,nan,-1.4895924,2.1331778,0.0,nan,nan,-0.0,nan,nan,nan,nan,nan,nan,0.0,0.0,nan
155141960,nan,nan,-1.4895924,2.1331778,0.0,nan,nan,-0.0,nan,nan,nan,nan,nan,nan,0.0,0.0,nan
155342190,nan,nan,-1.4895924,2.1331778,0.0,nan,nan,-0.0,nan,nan,nan,nan,nan,nan,0.0,0.0,nan
155542611,nan,nan,-1.4895924,2.1331778,0.0,nan,nan,-0.0,nan,nan,nan,nan,nan,nan,0.0,0.0,nan
155742519,nan,nan,-1.4895924,2.1331778,0.0,nan,nan,-0.0,nan,nan,nan,nan,nan,nan,0.0,0.0,nan
155962764,nan,nan,-1.4895924,2.1331778,0.0,nan,nan,-0.0,nan,nan,nan,nan,nan,nan,0.0,0.0,nan
156163161,nan,nan,-1.4895924,2.1331778,0.0,nan,nan,-0.0,nan,nan,nan,nan,nan,nan,0.0,0.0,nan
156363338,nan,nan,-1.4895924,2.1331778,0.0,nan,nan,-0.0,nan,nan,nan,nan,nan,nan,0.0,0.0,nan
156563377,nan,nan,-1.4895924,2.1331778,0.0,nan,nan,-0.0,nan,nan,nan,nan,nan,nan,0.0,0.0,nan
156763582,nan,nan,-1.4895924,2.1331778,0.0,nan,nan,-0.0,nan,nan,nan,nan,nan,nan,0.0,0.0,nan
156963807,nan,nan,-1.4895924,2.1331778,0.0,nan,nan,-0.0,nan,nan,nan,nan,nan,nan,0.0,0.0,nan
157164231,nan,nan,-1.4895924,2.1331778,0.0,nan,nan,-0.0,nan,nan,nan,nan,nan,nan,0.0,0.0,nan
157364258,nan,nan,-1.4895924,2.1331778,0.0,nan,nan,-0.0,nan,nan,nan,nan,nan,nan,0.0,0.0,nan
157564329,nan,nan,-1.4895924,2.1331778,0.0,nan,nan,-0.0,nan,nan,nan,nan,nan,nan,0.0,0.0,nan
157785378,nan,nan,-1.4895924,2.1331778,0.0,nan,nan,-0.0,nan,nan,nan,nan,nan,nan,0.0,0.0,nan
157985930,nan,nan,-1.4895924,2.1331778,0.0,nan,nan,-0.0,nan,nan,nan,nan,nan,nan,0.0,0.0,nan
158185413,nan,nan,-1.4895924,2.1331778,0.0,nan,nan,-0.0,nan,nan,nan,nan,nan,nan,0.0,0.0,nan
158385106,nan,nan,-1.4895924,2.1331778,0.0,nan,nan,-0.0,nan,nan,nan,nan,nan,nan,0.0,0.0,nan
158585508,nan,nan,-1.4895924,2.1331778,0.0,nan,nan,-0.0,nan,nan,nan,nan,nan,nan,0.0,0.0,nan
158785859,nan,nan,-1.4895924,2.1331778,0.0,nan,nan,-0.0,nan,nan,nan,nan,nan,nan,0.0,0.0,nan
158985764,nan,nan,-1.4895924,2.1331778,0.0,nan,nan,-0.0,nan,nan,nan,nan,nan,nan,0.0,0.0,nan
159185960,nan,nan,-1.4895924,2.1331778,0.0,nan,nan,-0.0,nan,nan,nan,nan,nan,nan,0.0,0.0,nan
159406367,nan,nan,-1.4895924,2.1331778,0.0,nan,nan,-0.0,nan,nan,nan,nan,nan,nan,0.0,0.0,nan
159606488,nan,nan,-1.4895924,2.1331778,0.0,nan,nan,-0.0,nan,nan,nan,nan,nan,nan,0.0,0.0,nan
159806711,nan,nan,-1.4895924,2.1331778,0.0,nan,nan,-0.0,nan,nan,nan,nan,nan,nan,0.0,0.0,nan
160006816,nan,nan,-1.4895924,2.1331778,0.0,nan,nan,-0.0,nan,nan,nan,nan,nan,nan,0.0,0.0,nan
160207179,nan,nan,-1.4895924,2.1331778,0.0,nan,nan,-0.0,nan,nan,nan,nan,nan,nan,0.0,0.0,nan
160407334,nan,nan,-1.4895924,2.1331778,0.0,nan,nan,-0.0,nan,nan,nan,nan,nan,nan,0.0,0.0,nan
160607453,nan,nan,-1.4895924,2.1331778,0.0,nan,nan,-0.0,nan,nan,nan,nan,nan,nan,0.0,0.0,nan
160827589,nan,nan,-1.4895924,2.1331778,0.0,nan,nan,-0.0,nan,nan,nan,nan,nan,nan,0.0,0.0,nan
161028924,nan,nan,-1.4895924,2.1331778,0.0,nan,nan,-0.0,nan,nan,nan,nan,nan,nan,0.0,0.0,nan
161228351,nan,nan,-1.4895924,2.1331778,0.0,nan,nan,-0.0,nan,nan,nan,nan,nan,nan,0.0,0.0,nan
161428192,nan,nan,-1.4895924,2.1331778,0.0,nan,nan,-0.0,nan,nan,nan,nan,nan,nan,0.0,0.0,nan
161628405,nan,nan,-1.4895924,2.1331778,0.0,nan,nan,-0.0,nan,nan,nan,nan,nan,nan,0.0,0.0,nan
162649681,nan,nan,-1.4895924,2.1331778,0.0,nan,nan,-0.0,nan,nan,nan,nan,nan,nan,0.0,0.0,nan
162849720,nan,nan,-1.4895924,2.1331778,0.0,nan,nan,-0.0,nan,nan,nan,nan,nan,nan,0.0,0.0,nan
163049847,nan,nan,-1.4895924,2.1331778,0.0,nan,nan,-0.0,nan,nan,nan,nan,nan,nan,0.0,0.0,nan
163250016,nan,nan,-1.4895924,2.1331778,0.0,nan,nan,-0.0,nan,nan,nan,nan,nan,nan,0.0,0.0,nan
163450347,nan,nan,-1.4895924,2.1331778,0.0,nan,nan,-0.0,nan,nan,nan,nan,nan,nan,0.0,0.0,nan
163650504,nan,nan,-1.4895924,2.1331778,0.0,nan,nan,-0.0,nan,nan,nan,nan,nan,nan,0.0,0.0,nan
163850620,nan,nan,-1.4895924,2.1331778,0.0,nan,nan,-0.0,nan,nan,nan,nan,nan,nan,0.0,0.0,nan
164070847,nan,nan,-1.4895924,2.1331778,0.0,nan,nan,-0.0,nan,nan,nan,nan,nan,nan,0.0,0.0,nan
164271633,nan,nan,-1.4895924,2.1331778,0.0,nan,nan,-0.0,nan,nan,nan,nan,nan,nan,0.0,0.0,nan
164471841,nan,nan,-1.4895924,2.1331778,0.0,nan,nan,-0.0,nan,nan,nan,nan,nan,nan,0.0,0.0,nan
164671471,nan,nan,-1.4895924,2.1331778,0.0,nan,nan,-0.0,nan,nan,nan,nan,nan,nan,0.0,0.0,nan
164871632,nan,nan,-1.4895924,2.1331778,0.0,nan,nan,-0.0,nan,nan,nan,nan,nan,nan,0.0,0.0,nan
165072017,nan,nan,-1.4895924,2.1331778,0.0,nan,nan,-0.0,nan,nan,nan,nan,nan,nan,0.0,0.0,nan
165272075,nan,nan,-1.4895924,2.1331778,0.0,nan,nan,-0.0,nan,nan,nan,nan,nan,nan,0.0,0.0,nan
165472265,nan,nan,-1.4895924,2.1331778,0.0,nan,nan,-0.0,nan,nan,nan,nan,nan,nan,0.0,0.0,nan
165672440,nan,nan,-1.4895924,2.1331778,0.0,nan,nan,-0.0,nan,nan,nan,nan,nan,nan,0.0,0.0,nan
165892870,nan,nan,-1.4895924,2.1331778,0.0,nan,nan,-0.0,nan,nan,nan,nan,nan,nan,0.0,0.0,nan
166092945,nan,nan,-1.4895924,2.1331778,0.0,nan,nan,-0.0,nan,nan,nan,nan,nan,nan,0.0,0.0,nan
166293051,nan,nan,-1.4895924,2.1331778,0.0,nan,nan,-0.0,nan,nan,nan,nan,nan,nan,0.0,0.0,nan
166493337,nan,nan,-1.4895924,2.1331778,0.0,nan,nan,-0.0,nan,nan,nan,nan,nan,nan,0.0,0.0,nan
166693607,nan,nan,-1.4895924,2.1331778,0.0,nan,nan,-0.0,nan,nan,nan,nan,nan,nan,0.0,0.0,nan
166893767,nan,nan,-1.4895924,2.1331778,0.0,nan,nan,-0.0,nan,nan,nan,nan,nan,nan,0.0,0.0,nan
167093864,nan,nan,-1.4895924,2.1331778,0.0,nan,nan,-0.0,nan,nan,nan,nan,nan,nan,0.0,0.0,nan
167314340,nan,nan,-1.4895924,2.1331778,0.0,nan,nan,-0.0,nan,nan,nan,nan,nan,nan,0.0,0.0,nan
167514423,nan,nan,-1.4895924,2.1331778,0.0,nan,nan,-0.0,nan,nan,nan,nan,nan,nan,0.0,0.0,nan
167714523,nan,nan,-1.4895924,2.1331778,0.0,nan,nan,-0.0,nan,nan,nan,nan,nan,nan,0.0,0.0,nan
167914688,nan,nan,-1.4590672,2.1331778,0.0,nan,nan,-0.0,nan,nan,nan,nan,nan,nan,0.0,0.0,nan
168114875,nan,nan,nan,2.1331778,0.0,nan,nan,0.00055123534,nan,nan,nan,nan,nan,nan,0.0,0.0,nan
168315186,nan,nan,nan,2.1331778,0.0,nan,nan,0.05493491,nan,nan,nan,nan,nan,nan,0.0,0.0,nan
168515336,nan,nan,nan,2.1331778,0.0,nan,nan,0.09347766,nan,nan,nan,nan,nan,nan,0.0,0.0,nan
168735542,nan,nan,nan,2.1331778,0.0,nan,nan,0.08589562,nan,nan,nan,nan,nan,nan,0.0,0.0,nan
168936289,nan,nan,nan,2.1331778,0.0,nan,nan,0.08292724,nan,nan,nan,nan,nan,nan,0.029441534,-0.04671243,nan
169136229,nan,nan,nan,2.1331778,0.0,nan,nan,0.08298168,nan,nan,nan,nan,nan,nan,0.026119128,-0.041441046,nan
169336235,nan,nan,nan,2.1331778,0.0,nan,nan,0.08435861,nan,nan,nan,nan,nan,nan,0.034387898,-0.054560415,nan
169536316,nan,nan,nan,2.1331778,0.0,nan,nan,0.08348534,nan,nan,nan,nan,nan,nan,0.018492695,-0.029340819,nan
169736717,nan,nan,nan,2.1331778,0.0,nan,nan,0.07536275,nan,nan,nan,nan,nan,nan,0.009573634,-0.015189688,nan
169937013,nan,nan,nan,2.1331778,0.0,nan,nan,0.022524158,nan,nan,nan,nan,nan,nan,-5.7219554e-06,9.07855e-06,nan
170136909,nan,nan,nan,2.1331778,0.0,nan,nan,0.018284015,nan,nan,nan,nan,nan,nan,3.2152865e-09,-5.1014273e-09,nan
170337099,nan,nan,nan,2.1331778,0.0,nan,nan,0.018402562,nan,nan,nan,nan,nan,nan,1.2775536e-13,-2.0269878e-13,nan
170537415,nan,nan,nan,2.1331778,0.0,nan,nan,0.034845695,nan,nan,nan,nan,nan,nan,-7.6218084e-16,1.2092888e-15,nan
170757801,nan,nan,nan,2.1331778,0.0,nan,nan,0.051937062,nan,nan,nan,nan,nan,nan,1.5546848e-19,-2.4666888e-19,nan
170957790,nan,nan,nan,2.1331778,0.0,nan,nan,0.024596876,nan,nan,nan,nan,nan,nan,1.5732153e-22,-2.4960897e-22,nan
171157949,nan,nan,nan,2.1331778,0.0,nan,nan,0.02587003,nan,nan,nan,nan,nan,nan,-5.95818e-26,9.453348e-26,nan
171358198,nan,nan,nan,2.1331778,0.0,nan,nan,0.023907317,nan,nan,nan,nan,nan,nan,-1.4602881e-29,2.3169173e-29,nan
171558608,nan,nan,nan,2.1331778,0.0,nan,nan,0.030116929,nan,nan,nan,nan,nan,nan,3.7961553e-32,-6.023043e-32,nan
171758568,nan,nan,nan,2.1331778,0.0,nan,nan,0.029377235,nan,nan,nan,nan,nan,nan,-2.6942302e-35,4.2747107e-35,nan
171958721,nan,nan,nan,2.1331778,0.0,nan,nan,0.029535916,nan,nan,nan,nan,nan,nan,7.440179e-39,-1.1804712e-38,nan
172159766,nan,nan,nan,2.1331778,0.0,nan,nan,0.02937836,nan,nan,nan,nan,nan,nan,4.913e-42,-7.794e-42,nan
172379326,nan,nan,nan,2.1331778,0.0,nan,nan,0.029535783,nan,nan,nan,nan,nan,nan,-1e-45,3e-45,nan
172579433,nan,nan,nan,2.1331778,0.0,nan,nan,0.03011971,nan,nan,nan,nan,nan,nan,0.0,0.0,nan
172779581,nan,nan,nan,2.1331778,0.0,nan,nan,0.022246068,nan,nan,nan,nan,nan,nan,0.0,0.0,nan
172979902,nan,nan,nan,2.1331778,0.0,nan,nan,0.018282492,nan,nan,nan,nan,nan,nan,0.0,0.0,nan
173179988,nan,nan,nan,2.1331778,0.0,nan,nan,0.018126592,nan,nan,nan,nan,nan,nan,0.0,0.0,nan
173380149,nan,nan,nan,2.1331778,0.0,nan,nan,0.018284213,nan,nan,nan,nan,nan,nan,0.0,0.0,nan
173580360,nan,nan,nan,2.1331778,0.0,nan,nan,0.018865226,nan,nan,nan,nan,nan,nan,0.0,0.0,nan
173780607,nan,nan,nan,2.1331778,0.0,nan,nan,0.016654888,nan,nan,nan,nan,nan,nan,0.0,0.0,nan
173980843,nan,nan,-1.4963923,2.1331778,0.0,nan,nan,-0.0,nan,nan,nan,nan,nan,nan,0.0,0.0,nan
174180961,nan,nan,-1.4963923,2.1331778,0.0,nan,nan,-0.0,nan,nan,nan,nan,nan,nan,0.0,0.0,nan
174401170,nan,nan,-1.4963923,2.1331778,0.0,nan,nan,-0.0,nan,nan,nan,nan,nan,nan,0.0,0.0,nan
174601553,nan,nan,-1.4963923,2.1331778,0.0,nan,nan,-0.0,nan,nan,nan,nan,nan,nan,0.0,0.0,nan
174801823,nan,nan,-1.4963923,2.1331778,0.0,nan,nan,-0.0,nan,nan,nan,nan,nan,nan,0.0,0.0,nan
175001760,nan,nan,-1.4963923,2.1331778,0.0,nan,nan,-0.0,nan,nan,nan,nan,nan,nan,0.0,0.0,nan
175201950,nan,nan,-1.4963923,2.1331778,0.0,nan,nan,-0.0,nan,nan,nan,nan,nan,nan,0.0,0.0,nan
175402323,nan,nan,-1.4963923,2.1331778,0.0,nan,nan,-0.0,nan,nan,nan,nan,nan,nan,0.0,0.0,nan
175602533,nan,nan,-1.4963923,2.1331778,0.0,nan,nan,-0.0,nan,nan,nan,nan,nan,nan,0.0,0.0,nan
175802560,nan,nan,-1.4963923,2.1331778,0.0,nan,nan,-0.0,nan,nan,nan,nan,nan,nan,0.0,0.0,nan
176002798,nan,nan,-1.4963923,2.1331778,0.0,nan,nan,-0.0,nan,nan,nan,nan,nan,nan,0.0,0.0,nan
176223207,nan,nan,nan,2.1331778,0.0,nan,nan,0.004790715,nan,nan,nan,nan,nan,nan,0.0,0.0,nan
176423321,nan,nan,nan,2.1331778,0.0,nan,nan,0.02937048,nan,nan,nan,nan,nan,nan,0.0,0.0,nan
176623400,nan,nan,nan,2.1331778,0.0,nan,nan,0.033142064,nan,nan,nan,nan,nan,nan,0.0,0.0,nan
176823621,nan,nan,nan,2.1331778,0.0,nan,nan,0.043564662,nan,nan,nan,nan,nan,nan,0.0,0.0,nan
