timestamp,x,y,z,yaw,yawspeed,vx,vy,vz,acc_x,acc_y,acc_z,jerk_x,jerk_y,jerk_z,thrust[0],thrust[1],thrust[2]
56203285,nan,nan,nan,2.144083,0.0,nan,nan,nan,0.0,0.0,0.0,0.0,0.0,0.0,0.0,0.0,0.0
57084551,nan,nan,nan,2.143326,0.0,nan,nan,nan,0.0,0.0,0.0,0.0,0.0,0.0,0.0,0.0,0.0
57185533,nan,nan,nan,2.1431093,0.0,nan,nan,nan,0.0,0.0,0.0,0.0,0.0,0.0,0.0,0.0,0.0
57284188,nan,nan,nan,2.1427996,0.0,nan,nan,nan,0.0,0.0,0.0,0.0,0.0,0.0,0.0,0.0,0.0
57384977,nan,nan,nan,2.1425452,0.0,nan,nan,nan,0.0,0.0,0.0,0.0,0.0,0.0,0.0,0.0,0.0
57484390,nan,nan,nan,2.142272,0.0,nan,nan,nan,0.0,0.0,0.0,0.0,0.0,0.0,0.0,0.0,0.0
57584580,nan,nan,nan,2.1420429,0.0,nan,nan,nan,0.0,0.0,0.0,0.0,0.0,0.0,0.0,0.0,0.0
57684766,nan,nan,nan,2.1419837,0.0,nan,nan,nan,0.0,0.0,0.0,0.0,0.0,0.0,0.0,0.0,0.0
57784794,nan,nan,nan,2.1417775,0.0,nan,nan,nan,0.0,0.0,0.0,0.0,0.0,0.0,0.0,0.0,0.0
57884897,nan,nan,nan,2.141704,0.0,nan,nan,nan,0.0,0.0,0.0,0.0,0.0,0.0,0.0,0.0,0.0
57984918,nan,nan,nan,2.1416087,0.0,nan,nan,nan,0.0,0.0,0.0,0.0,0.0,0.0,0.0,0.0,0.0
58084974,nan,nan,nan,2.1415567,0.0,nan,nan,nan,0.0,0.0,0.0,0.0,0.0,0.0,0.0,0.0,0.0
58205138,nan,nan,nan,2.1414294,0.0,nan,nan,nan,0.0,0.0,0.0,0.0,0.0,0.0,0.0,0.0,0.0
58305249,nan,nan,nan,2.1413355,0.0,nan,nan,nan,0.0,0.0,0.0,0.0,0.0,0.0,0.0,0.0,0.0
58405409,nan,nan,nan,2.1411743,0.0,nan,nan,nan,0.0,0.0,0.0,0.0,0.0,0.0,0.0,0.0,0.0
58505776,nan,nan,nan,2.1414685,0.0,nan,nan,nan,0.0,0.0,0.0,0.0,0.0,0.0,0.0,0.0,0.0
58605566,nan,nan,nan,2.1409588,0.0,nan,nan,nan,0.0,0.0,0.0,0.0,0.0,0.0,0.0,0.0,0.0
58705890,nan,nan,nan,2.141057,0.0,nan,nan,nan,0.0,0.0,0.0,0.0,0.0,0.0,0.0,0.0,0.0
58805792,nan,nan,nan,2.1409788,0.0,nan,nan,nan,0.0,0.0,0.0,0.0,0.0,0.0,0.0,0.0,0.0
58907117,nan,nan,nan,2.1406283,0.0,nan,nan,nan,0.0,0.0,0.0,0.0,0.0,0.0,0.0,0.0,0.0
59005901,nan,nan,nan,2.1406884,0.0,nan,nan,nan,0.0,0.0,0.0,0.0,0.0,0.0,0.0,0.0,0.0
59106115,nan,nan,nan,2.1405628,0.0,nan,nan,nan,0.0,0.0,0.0,0.0,0.0,0.0,0.0,0.0,0.0
59206046,nan,nan,nan,2.140409,0.0,nan,nan,nan,0.0,0.0,0.0,0.0,0.0,0.0,0.0,0.0,0.0
59306267,nan,nan,nan,2.1404176,0.0,nan,nan,nan,0.0,0.0,0.0,0.0,0.0,0.0,0.0,0.0,0.0
59426487,nan,nan,nan,2.1403537,0.0,nan,nan,nan,0.0,0.0,0.0,0.0,0.0,0.0,0.0,0.0,0.0
59526543,nan,nan,nan,2.1402493,0.0,nan,nan,nan,0.0,0.0,0.0,0.0,0.0,0.0,0.0,0.0,0.0
59626569,nan,nan,nan,2.140246,0.0,nan,nan,nan,0.0,0.0,0.0,0.0,0.0,0.0,0.0,0.0,0.0
59726650,nan,nan,nan,2.140141,0.0,nan,nan,nan,0.0,0.0,0.0,0.0,0.0,0.0,0.0,0.0,0.0
59826710,nan,nan,nan,2.1399908,0.0,nan,nan,nan,0.0,0.0,0.0,0.0,0.0,0.0,0.0,0.0,0.0
59926822,nan,nan,nan,2.1399393,0.0,nan,nan,nan,0.0,0.0,0.0,0.0,0.0,0.0,0.0,0.0,0.0
60027137,nan,nan,nan,2.1398625,0.0,nan,nan,nan,0.0,0.0,0.0,0.0,0.0,0.0,0.0,0.0,0.0
60127435,nan,nan,nan,2.1398416,0.0,nan,nan,nan,0.0,0.0,0.0,0.0,0.0,0.0,0.0,0.0,0.0
60227209,nan,nan,nan,2.1398723,0.0,nan,nan,nan,0.0,0.0,0.0,0.0,0.0,0.0,0.0,0.0,0.0
60328718,nan,nan,nan,2.1397846,0.0,nan,nan,nan,0.0,0.0,0.0,0.0,0.0,0.0,0.0,0.0,0.0
60427351,nan,nan,nan,2.1397235,0.0,nan,nan,nan,0.0,0.0,0.0,0.0,0.0,0.0,0.0,0.0,0.0
60527429,nan,nan,nan,2.1396194,0.0,nan,nan,nan,0.0,0.0,0.0,0.0,0.0,0.0,0.0,0.0,0.0
60627631,nan,nan,nan,2.1394591,0.0,nan,nan,nan,0.0,0.0,0.0,0.0,0.0,0.0,0.0,0.0,0.0
60727615,nan,nan,nan,2.1392994,0.0,nan,nan,nan,0.0,0.0,0.0,0.0,0.0,0.0,0.0,0.0,0.0
60847926,nan,nan,nan,2.1391778,0.0,nan,nan,nan,0.0,0.0,0.0,0.0,0.0,0.0,0.0,0.0,0.0
60947999,nan,nan,nan,2.1391912,0.0,nan,nan,nan,0.0,0.0,0.0,0.0,0.0,0.0,0.0,0.0,0.0
61048093,nan,nan,nan,2.1392093,0.0,nan,nan,nan,0.0,0.0,0.0,0.0,0.0,0.0,0.0,0.0,0.0
61148127,nan,nan,nan,2.1393318,0.0,nan,nan,nan,0.0,0.0,0.0,0.0,0.0,0.0,0.0,0.0,0.0
61248175,nan,nan,nan,2.1394181,0.0,nan,nan,nan,0.0,0.0,0.0,0.0,0.0,0.0,0.0,0.0,0.0
61348233,nan,nan,nan,2.1394339,0.0,nan,nan,nan,0.0,0.0,0.0,0.0,0.0,0.0,0.0,0.0,0.0
61448293,nan,nan,nan,2.1395,0.0,nan,nan,nan,0.0,0.0,0.0,0.0,0.0,0.0,0.0,0.0,0.0
61548415,nan,nan,nan,2.1394053,0.0,nan,nan,nan,0.0,0.0,0.0,0.0,0.0,0.0,0.0,0.0,0.0
61648581,nan,nan,nan,2.139306,0.0,nan,nan,nan,0.0,0.0,0.0,0.0,0.0,0.0,0.0,0.0,0.0
61749096,nan,nan,nan,2.1392035,0.0,nan,nan,nan,0.0,0.0,0.0,0.0,0.0,0.0,0.0,0.0,0.0
61848913,nan,nan,nan,2.1390767,0.0,nan,nan,nan,0.0,0.0,0.0,0.0,0.0,0.0,0.0,0.0,0.0
61949923,nan,nan,nan,2.1391187,0.0,nan,nan,2.4615586,0.0,0.0,0.0,0.0,0.0,0.0,0.0,0.0,-0.12
62048966,nan,nan,nan,2.1391187,0.0,nan,nan,2.2799706,0.0,0.0,0.0,0.0,0.0,0.0,0.0,0.0,-0.12
62149038,nan,nan,nan,2.1391187,0.0,nan,nan,2.096509,0.0,0.0,0.0,0.0,0.0,0.0,0.0,0.0,-0.12
62269252,nan,nan,nan,2.1391187,0.0,nan,nan,1.8762432,0.0,0.0,0.0,0.0,0.0,0.0,0.0,0.0,-0.12665781
62369510,nan,nan,nan,2.1391187,0.0,nan,nan,1.6927468,0.0,0.0,0.0,0.0,0.0,0.0,0.0,0.0,-0.15926605
62469624,nan,nan,nan,2.1391187,0.0,nan,nan,1.5088543,0.0,0.0,0.0,0.0,0.0,0.0,0.0,0.0,-0.19165513
62569624,nan,nan,nan,2.1391187,0.0,nan,nan,1.3254311,0.0,0.0,0.0,0.0,0.0,0.0,0.0,0.0,-0.22442678
62669741,nan,nan,0.14645877,2.1391187,0.0,nan,nan,1.1419401,0.0,0.0,0.0,0.0,0.0,0.0,0.0,0.0,-0.25759143
62769783,nan,nan,0.14645877,2.1391187,0.0,nan,nan,0.95847106,0.0,0.0,0.0,0.0,0.0,0.0,0.0,0.0,-0.29286832
62869797,nan,nan,0.14645877,2.1391187,0.0,nan,nan,0.7751121,0.0,0.0,0.0,0.0,0.0,0.0,0.0,0.0,-0.32128757
62969869,nan,nan,nan,2.1391187,-0.0,nan,nan,0.5916486,0.0,0.0,0.0,0.0,0.0,0.0,0.0,0.0,-0.36300188
63069971,nan,nan,nan,2.1391187,-0.0,nan,nan,0.40812826,0.0,0.0,0.0,0.0,0.0,0.0,0.0,0.0,-0.39550704
63170135,nan,nan,nan,2.1391187,-0.0,nan,nan,0.22464642,0.0,0.0,0.0,0.0,0.0,0.0,0.0,0.0,-0.43736857
63290445,nan,nan,nan,2.1391187,0.0,nan,nan,0.30410963,0.0,0.0,0.0,0.0,0.0,0.0,0.0,0.0,-0.4193684
63390403,nan,nan,nan,2.1391187,0.0,nan,nan,0.31247216,0.0,0.0,0.0,0.0,0.0,0.0,0.0,0.0,-0.41753727
63490995,nan,nan,nan,2.1391187,0.0,nan,nan,0.30296052,0.0,0.0,0.0,0.0,0.0,0.0,0.0,0.0,-0.41583538
63590567,nan,nan,nan,2.1391187,0.0,nan,nan,0.31564426,0.0,0.0,0.0,0.0,0.0,0.0,0.0,0.0,-0.41146505
63691789,nan,nan,nan,2.1391187,-0.0,nan,nan,0.27961218,0.0,0.0,0.0,0.0,0.0,0.0,0.0,0.0,-0.4166095
63790691,nan,nan,nan,2.1391187,-0.0,nan,nan,0.31299967,0.0,0.0,0.0,0.0,0.0,0.0,0.0,0.0,-0.4029085
63890829,nan,nan,nan,2.1391187,0.0,nan,nan,0.30963,0.0,0.0,0.0,0.0,0.0,0.0,0.0,0.0,-0.40191042
63990950,nan,nan,nan,2.1391187,0.0,nan,nan,0.308529,0.0,0.0,0.0,0.0,0.0,0.0,0.0,0.0,-0.40383568
64091114,nan,nan,nan,2.1391187,0.0,nan,nan,0.33917695,0.0,0.0,0.0,0.0,0.0,0.0,0.0,0.0,-0.39441326
64191245,nan,nan,nan,2.1391187,-0.0,nan,nan,0.36469185,0.0,0.0,0.0,0.0,0.0,0.0,0.0,0.0,-0.38692087
64291311,nan,nan,nan,2.1391187,-0.0,nan,nan,0.3682086,0.0,0.0,0.0,0.0,0.0,0.0,0.0,0.0,-0.38625795
64391335,nan,nan,nan,2.1391187,-0.0,nan,nan,0.38375083,0.0,0.0,0.0,0.0,0.0,0.0,0.0,0.0,-0.38279128
64511435,nan,nan,nan,2.1391187,-0.0,nan,nan,0.4068228,0.0,0.0,0.0,0.0,0.0,0.0,0.0,0.0,-0.3784418
64611519,nan,nan,nan,2.1391187,-0.0,nan,nan,0.37818998,0.0,0.0,0.0,0.0,0.0,0.0,0.0,0.0,-0.3825309
64711603,nan,nan,nan,2.1391187,0.0,nan,nan,0.37821782,0.0,0.0,0.0,0.0,0.0,0.0,0.0,0.0,-0.38144168
64811789,nan,nan,nan,2.1391187,0.0,nan,nan,0.38821504,0.0,0.0,0.0,0.0,0.0,0.0,0.0,0.0,-0.37718946
64912029,nan,nan,nan,2.1391187,0.0,nan,nan,0.38670617,0.0,0.0,0.0,0.0,0.0,0.0,0.0,0.0,-0.37448865
65012070,nan,nan,nan,2.1391187,-0.0,nan,nan,0.38402727,0.0,0.0,0.0,0.0,0.0,0.0,0.0,0.0,-0.3751339
65112868,nan,nan,nan,2.1391187,-0.0,nan,nan,0.37946454,0.0,0.0,0.0,0.0,0.0,0.0,0.0,0.0,-0.37703925
65212160,nan,nan,nan,2.1391187,0.0,nan,nan,0.37558594,0.0,0.0,0.0,0.0,0.0,0.0,0.0,0.0,-0.37803873
65312411,nan,nan,nan,2.1391187,0.0,nan,nan,0.37650198,0.0,0.0,0.0,0.0,0.0,0.0,0.0,0.0,-0.3760087
65412374,nan,nan,nan,2.1391187,0.0,nan,nan,0.37789628,0.0,0.0,0.0,0.0,0.0,0.0,0.0,0.0,-0.37454113
65512536,nan,nan,nan,2.1391187,-0.0,nan,nan,0.3754538,0.0,0.0,0.0,0.0,0.0,0.0,0.0,0.0,-0.37672776
65612600,nan,nan,nan,2.1391187,-0.0,nan,nan,0.3760403,0.0,0.0,0.0,0.0,0.0,0.0,0.0,0.0,-0.37468404
65712789,nan,nan,nan,2.1391187,-0.0,nan,nan,0.39199442,0.0,0.0,0.0,0.0,0.0,0.0,0.0,0.0,-0.3720715
65832935,nan,nan,nan,2.1391187,0.0,nan,nan,0.43822193,0.0,0.0,0.0,0.0,0.0,0.0,0.0,0.0,-0.36188924
65932969,nan,nan,nan,2.1391187,0.0,nan,nan,0.4384701,0.0,0.0,0.0,0.0,0.0,0.0,0.0,0.0,-0.36203253
66032962,nan,nan,nan,2.1391187,0.0,nan,nan,0.43938726,0.0,0.0,0.0,0.0,0.0,0.0,0.0,0.0,-0.36267895
66133051,nan,nan,nan,2.1391187,0.0,nan,nan,0.4680193,0.0,0.0,0.0,0.0,0.0,0.0,0.0,0.0,-0.3569867
66233139,nan,nan,nan,2.1391187,0.0,nan,nan,0.5173921,0.0,0.0,0.0,0.0,0.0,0.0,0.0,0.0,-0.34669682
66333347,nan,nan,nan,2.1391187,0.0,nan,nan,0.5697065,0.0,0.0,0.0,0.0,0.0,0.0,0.0,0.0,-0.3347818
66433415,nan,nan,nan,2.1391187,0.0,nan,nan,0.68437344,0.0,0.0,0.0,0.0,0.0,0.0,0.0,0.0,-0.31123593
66533814,nan,nan,nan,2.1391187,0.0,nan,nan,0.77191854,0.0,0.0,0.0,0.0,0.0,0.0,0.0,0.0,-0.29298773
66633914,nan,nan,nan,2.1391187,0.0,nan,nan,0.8915332,0.0,0.0,0.0,0.0,0.0,0.0,0.0,0.0,-0.26667902
66733694,nan,nan,nan,2.1391187,0.0,nan,nan,0.8805777,0.0,0.0,0.0,0.0,0.0,0.0,0.0,0.0,-0.26862693
66833864,nan,nan,nan,2.1391187,0.0,nan,nan,0.87649786,0.0,0.0,0.0,0.0,0.0,0.0,0.0,0.0,-0.3248436
66933848,nan,nan,nan,2.1391187,0.0,nan,nan,0.7473283,0.0,0.0,0.0,0.0,0.0,0.0,0.0,0.0,-0.35085976
67034572,nan,nan,nan,2.1391187,0.0,nan,nan,0.5929017,0.0,0.0,0.0,0.0,0.0,0.0,0.0,0.0,-0.38124758
67154052,nan,nan,nan,2.1391187,0.0,nan,nan,0.56302094,0.0,0.0,0.0,0.0,0.0,0.0,0.0,0.0,-0.38925928
67254415,nan,nan,nan,2.1391187,0.0,nan,nan,0.406341,0.0,0.0,0.0,0.0,0.0,0.0,0.0,0.0,-0.42017514
67354455,nan,nan,nan,2.1356893,0.0,nan,nan,nan,0.0,0.0,0.0,0.0,0.0,0.0,0.0,0.0,0.0
67454498,nan,nan,nan,2.1357114,0.0,nan,nan,nan,0.0,0.0,0.0,0.0,0.0,0.0,0.0,0.0,0.0
67554547,nan,nan,nan,2.1357384,0.0,nan,nan,nan,0.0,0.0,0.0,0.0,0.0,0.0,0.0,0.0,0.0
67654561,nan,nan,nan,2.135799,0.0,nan,nan,nan,0.0,0.0,0.0,0.0,0.0,0.0,0.0,0.0,0.0
67754641,nan,nan,nan,2.1356902,0.0,nan,nan,nan,0.0,0.0,0.0,0.0,0.0,0.0,0.0,0.0,0.0
67854755,nan,nan,nan,2.1358,0.0,nan,nan,nan,0.0,0.0,0.0,0.0,0.0,0.0,0.0,0.0,0.0
67954840,nan,nan,nan,2.1358361,0.0,nan,nan,nan,0.0,0.0,0.0,0.0,0.0,0.0,0.0,0.0,0.0
68055343,nan,nan,nan,2.1359653,0.0,nan,nan,nan,0.0,0.0,0.0,0.0,0.0,0.0,0.0,0.0,0.0
68155392,nan,nan,nan,2.1360178,0.0,nan,nan,nan,0.0,0.0,0.0,0.0,0.0,0.0,0.0,0.0,0.0
68255446,nan,nan,nan,2.1362042,0.0,nan,nan,nan,0.0,0.0,0.0,0.0,0.0,0.0,0.0,0.0,0.0
68355326,nan,nan,nan,2.1361263,0.0,nan,nan,nan,0.0,0.0,0.0,0.0,0.0,0.0,0.0,0.0,0.0
68475431,nan,nan,nan,2.1360478,0.0,nan,nan,nan,0.0,0.0,0.0,0.0,0.0,0.0,0.0,0.0,0.0
68575765,nan,nan,nan,2.1359444,0.0,nan,nan,nan,0.0,0.0,0.0,0.0,0.0,0.0,0.0,0.0,0.0
68675557,nan,nan,nan,2.1355925,0.0,nan,nan,nan,0.0,0.0,0.0,0.0,0.0,0.0,0.0,0.0,0.0
68775729,nan,nan,nan,2.1358376,0.0,nan,nan,nan,0.0,0.0,0.0,0.0,0.0,0.0,0.0,0.0,0.0
68875907,nan,nan,nan,2.135544,0.0,nan,nan,nan,0.0,0.0,0.0,0.0,0.0,0.0,0.0,0.0,0.0
68976019,nan,nan,nan,2.1355658,0.0,nan,nan,nan,0.0,0.0,0.0,0.0,0.0,0.0,0.0,0.0,0.0
69076036,nan,nan,nan,2.1355605,0.0,nan,nan,nan,0.0,0.0,0.0,0.0,0.0,0.0,0.0,0.0,0.0
69176110,nan,nan,nan,2.1354184,0.0,nan,nan,nan,0.0,0.0,0.0,0.0,0.0,0.0,0.0,0.0,0.0
69276182,nan,nan,nan,2.1355047,0.0,nan,nan,nan,0.0,0.0,0.0,0.0,0.0,0.0,0.0,0.0,0.0
69376238,nan,nan,nan,2.1353936,0.0,nan,nan,nan,0.0,0.0,0.0,0.0,0.0,0.0,0.0,0.0,0.0
69476364,nan,nan,nan,2.1354375,0.0,nan,nan,nan,0.0,0.0,0.0,0.0,0.0,0.0,0.0,0.0,0.0
69576511,nan,nan,nan,2.1355588,0.0,nan,nan,nan,0.0,0.0,0.0,0.0,0.0,0.0,0.0,0.0,0.0
69676615,nan,nan,nan,2.1355848,0.0,nan,nan,nan,0.0,0.0,0.0,0.0,0.0,0.0,0.0,0.0,0.0
69777000,nan,nan,nan,2.135752,0.0,nan,nan,nan,0.0,0.0,0.0,0.0,0.0,0.0,0.0,0.0,0.0
69877046,nan,nan,nan,2.1358275,0.0,nan,nan,nan,0.0,0.0,0.0,0.0,0.0,0.0,0.0,0.0,0.0
69997664,nan,nan,nan,2.1359367,0.0,nan,nan,nan,0.0,0.0,0.0,0.0,0.0,0.0,0.0,0.0,0.0
70096994,nan,nan,nan,2.1359897,0.0,nan,nan,nan,0.0,0.0,0.0,0.0,0.0,0.0,0.0,0.0,0.0
70197197,nan,nan,nan,2.1359758,0.0,nan,nan,nan,0.0,0.0,0.0,0.0,0.0,0.0,0.0,0.0,0.0
70297176,nan,nan,nan,2.1360376,0.0,nan,nan,nan,0.0,0.0,0.0,0.0,0.0,0.0,0.0,0.0,0.0
70397497,nan,nan,nan,2.1360693,0.0,nan,nan,nan,0.0,0.0,0.0,0.0,0.0,0.0,0.0,0.0,0.0
70497570,nan,nan,nan,2.136127,0.0,nan,nan,nan,0.0,0.0,0.0,0.0,0.0,0.0,0.0,0.0,0.0
70597632,nan,nan,nan,2.13625,0.0,nan,nan,nan,0.0,0.0,0.0,0.0,0.0,0.0,0.0,0.0,0.0
70697707,nan,nan,nan,2.1363416,0.0,nan,nan,nan,0.0,0.0,0.0,0.0,0.0,0.0,0.0,0.0,0.0
70797764,nan,nan,nan,2.1364493,0.0,nan,nan,nan,0.0,0.0,0.0,0.0,0.0,0.0,0.0,0.0,0.0
70897803,nan,nan,nan,2.1365874,0.0,nan,nan,nan,0.0,0.0,0.0,0.0,0.0,0.0,0.0,0.0,0.0
70997884,nan,nan,nan,2.136701,0.0,nan,nan,nan,0.0,0.0,0.0,0.0,0.0,0.0,0.0,0.0,0.0
71097977,nan,nan,nan,2.136786,0.0,nan,nan,nan,0.0,0.0,0.0,0.0,0.0,0.0,0.0,0.0,0.0
71218178,nan,nan,nan,2.1369045,0.0,nan,nan,nan,0.0,0.0,0.0,0.0,0.0,0.0,0.0,0.0,0.0
71318589,nan,nan,nan,2.137004,0.0,nan,nan,nan,0.0,0.0,0.0,0.0,0.0,0.0,0.0,0.0,0.0
71419382,nan,nan,nan,2.137126,0.0,nan,nan,nan,0.0,0.0,0.0,0.0,0.0,0.0,0.0,0.0,0.0
71518498,nan,nan,nan,2.137272,0.0,nan,nan,nan,0.0,0.0,0.0,0.0,0.0,0.0,0.0,0.0,0.0
71619293,nan,nan,nan,2.1374073,0.0,nan,nan,nan,0.0,0.0,0.0,0.0,0.0,0.0,0.0,0.0,0.0
71718635,nan,nan,nan,2.1375537,0.0,nan,nan,nan,0.0,0.0,0.0,0.0,0.0,0.0,0.0,0.0,0.0
71818704,nan,nan,nan,2.1376777,0.0,nan,nan,nan,0.0,0.0,0.0,0.0,0.0,0.0,0.0,0.0,0.0
71918805,nan,nan,nan,2.137693,0.0,nan,nan,nan,0.0,0.0,0.0,0.0,0.0,0.0,0.0,0.0,0.0
72019013,nan,nan,nan,2.1376905,0.0,nan,nan,nan,0.0,0.0,0.0,0.0,0.0,0.0,0.0,0.0,0.0
72119181,nan,nan,nan,2.1376128,0.0,nan,nan,nan,0.0,0.0,0.0,0.0,0.0,0.0,0.0,0.0,0.0
72219268,nan,nan,nan,2.1375844,0.0,nan,nan,nan,0.0,0.0,0.0,0.0,0.0,0.0,0.0,0.0,0.0
72319382,nan,nan,nan,2.1376061,0.0,nan,nan,nan,0.0,0.0,0.0,0.0,0.0,0.0,0.0,0.0,0.0
72419428,nan,nan,nan,2.1375523,0.0,nan,nan,nan,0.0,0.0,0.0,0.0,0.0,0.0,0.0,0.0,0.0
72539463,nan,nan,nan,2.1374245,0.0,nan,nan,nan,0.0,0.0,0.0,0.0,0.0,0.0,0.0,0.0,0.0
72639557,nan,nan,nan,2.1373515,0.0,nan,nan,nan,0.0,0.0,0.0,0.0,0.0,0.0,0.0,0.0,0.0
72739627,nan,nan,nan,2.137358,0.0,nan,nan,nan,0.0,0.0,0.0,0.0,0.0,0.0,0.0,0.0,0.0
72839798,nan,nan,nan,2.1374006,0.0,nan,nan,nan,0.0,0.0,0.0,0.0,0.0,0.0,0.0,0.0,0.0
72940188,nan,nan,nan,2.1374226,0.0,nan,nan,nan,0.0,0.0,0.0,0.0,0.0,0.0,0.0,0.0,0.0
73040100,nan,nan,nan,2.1374674,0.0,nan,nan,nan,0.0,0.0,0.0,0.0,0.0,0.0,0.0,0.0,0.0
73140116,nan,nan,nan,2.137483,0.0,nan,nan,nan,0.0,0.0,0.0,0.0,0.0,0.0,0.0,0.0,0.0
73240925,nan,nan,nan,2.1374345,0.0,nan,nan,nan,0.0,0.0,0.0,0.0,0.0,0.0,0.0,0.0,0.0
73340219,nan,nan,nan,2.1373632,0.0,nan,nan,2.465238,0.0,0.0,0.0,0.0,0.0,0.0,0.0,0.0,-0.12
73440920,nan,nan,nan,2.1373632,-0.0,nan,nan,2.2806728,0.0,0.0,0.0,0.0,0.0,0.0,0.0,0.0,-0.12
73540528,nan,nan,nan,2.1373632,-0.0,nan,nan,2.098146,0.0,0.0,0.0,0.0,0.0,0.0,0.0,0.0,-0.12
73640597,nan,nan,nan,2.1373632,0.0,nan,nan,1.9146988,0.0,0.0,0.0,0.0,0.0,0.0,0.0,0.0,-0.12
73740753,nan,nan,nan,2.1373632,0.0,nan,nan,1.7310592,0.0,0.0,0.0,0.0,0.0,0.0,0.0,0.0,-0.14483887
73860827,nan,nan,nan,2.1373632,0.0,nan,nan,1.5107898,0.0,0.0,0.0,0.0,0.0,0.0,0.0,0.0,-0.18495813
73960889,nan,nan,nan,2.1373632,-0.0,nan,nan,1.3273355,0.0,0.0,0.0,0.0,0.0,0.0,0.0,0.0,-0.21961975
74060959,nan,nan,nan,2.1373632,-0.0,nan,nan,1.1438813,0.0,0.0,0.0,0.0,0.0,0.0,0.0,0.0,-0.25400332
74161074,nan,nan,nan,2.1373632,-0.0,nan,nan,0.9603482,0.0,0.0,0.0,0.0,0.0,0.0,0.0,0.0,-0.29023498
74261154,nan,nan,nan,2.1373632,0.0,nan,nan,0.7768682,0.0,0.0,0.0,0.0,0.0,0.0,0.0,0.0,-0.32451057
74361250,nan,nan,nan,2.1373632,0.0,nan,nan,0.59334785,0.0,0.0,0.0,0.0,0.0,0.0,0.0,0.0,-0.3570155
74461697,nan,nan,nan,2.1373632,0.0,nan,nan,0.409701,0.0,0.0,0.0,0.0,0.0,0.0,0.0,0.0,-0.3919288
74561791,nan,nan,nan,2.1373632,0.0,nan,nan,0.22568934,0.0,0.0,0.0,0.0,0.0,0.0,0.0,0.0,-0.42557615
74662501,nan,nan,nan,2.1373632,-0.0,nan,nan,0.041067176,0.0,0.0,0.0,0.0,0.0,0.0,0.0,0.0,-0.45946085
74761770,nan,nan,nan,2.1373632,-0.0,nan,nan,-0.14092599,0.0,0.0,0.0,0.0,0.0,0.0,0.0,0.0,-0.49629164
74862569,nan,nan,nan,2.1373632,-0.0,nan,nan,-0.32573697,0.0,0.0,0.0,0.0,0.0,0.0,0.0,0.0,-0.5094453
74981860,nan,nan,nan,2.1373632,0.0,nan,nan,-0.54443717,0.0,0.0,0.0,0.0,0.0,0.0,0.0,0.0,-0.5122676
75082011,nan,nan,nan,2.1373632,0.0,nan,nan,-0.6109509,0.0,0.0,0.0,0.0,0.0,0.0,0.0,0.0,-0.49839354
75182139,nan,nan,nan,2.1373632,0.0,nan,nan,-0.5246716,0.0,0.0,0.0,0.0,0.0,0.0,0.0,0.0,-0.46412373
75282375,nan,nan,nan,2.1373632,0.0,nan,nan,-0.35181212,0.0,0.0,0.0,0.0,0.0,0.0,0.0,0.0,-0.44928324
75382440,nan,nan,nan,2.1373632,0.0,nan,nan,-0.32458514,0.0,0.0,0.0,0.0,0.0,0.0,0.0,0.0,-0.48336294
75482522,nan,nan,nan,2.1373632,0.0,nan,nan,-0.3795382,0.0,0.0,0.0,0.0,0.0,0.0,0.0,0.0,-0.521836
75582521,nan,nan,nan,2.1373632,0.0,nan,nan,-0.56400627,0.0,0.0,0.0,0.0,0.0,0.0,0.0,0.0,-0.5315815
75682589,nan,nan,nan,2.1373632,0.0,nan,nan,-0.5311824,0.0,0.0,0.0,0.0,0.0,0.0,0.0,0.0,-0.4955928
75782675,nan,nan,nan,2.1373632,0.0,nan,nan,-0.4562061,0.0,0.0,0.0,0.0,0.0,0.0,0.0,0.0,-0.47161517
75882794,nan,nan,nan,2.1373632,0.0,nan,nan,-0.4426123,0.0,0.0,0.0,0.0,0.0,0.0,0.0,0.0,-0.4901285
75982945,nan,nan,nan,2.1373632,0.0,nan,nan,-0.33954072,0.0,0.0,0.0,0.0,0.0,0.0,0.0,0.0,-0.49232066
76083293,nan,nan,nan,2.1373632,0.0,nan,nan,-0.35137624,0.0,0.0,0.0,0.0,0.0,0.0,0.0,0.0,-0.5027567
76183443,nan,nan,nan,2.1373632,0.0,nan,nan,-0.3560667,0.0,0.0,0.0,0.0,0.0,0.0,0.0,0.0,-0.5056016
76283439,nan,nan,nan,2.1373632,0.0,nan,nan,-0.35392213,0.0,0.0,0.0,0.0,0.0,0.0,0.0,0.0,-0.5081043
76383510,nan,nan,nan,2.1373632,0.0,nan,nan,-0.34316784,0.0,0.0,0.0,0.0,0.0,0.0,0.0,0.0,-0.50841504
76503744,nan,nan,nan,2.1373632,0.0,nan,nan,-0.34602413,0.0,0.0,0.0,0.0,0.0,0.0,0.0,0.0,-0.5088335
76603485,nan,nan,nan,2.1373632,0.0,nan,nan,-0.3203051,0.0,0.0,0.0,0.0,0.0,0.0,0.0,0.0,-0.49442235
76704331,nan,nan,nan,2.1373632,0.0,nan,nan,-0.290198,0.0,0.0,0.0,0.0,0.0,0.0,0.0,0.0,-0.49277106
76803688,nan,nan,nan,2.1373632,0.0,nan,nan,-0.27054596,0.0,0.0,0.0,0.0,0.0,0.0,0.0,0.0,-0.49993616
76903916,nan,nan,nan,2.1373632,0.0,nan,nan,-0.21224627,0.0,0.0,0.0,0.0,0.0,0.0,0.0,0.0,-0.49860966
77004011,nan,nan,nan,2.1373632,0.0,nan,nan,-0.11385687,0.0,0.0,0.0,0.0,0.0,0.0,0.0,0.0,-0.48635447
77104141,nan,nan,nan,2.1373632,0.0,nan,nan,-0.09611495,0.0,0.0,0.0,0.0,0.0,0.0,0.0,0.0,-0.49123544
77204165,nan,nan,nan,2.1373632,0.0,nan,nan,-0.095370695,0.0,0.0,0.0,0.0,0.0,0.0,0.0,0.0,-0.5058361
77304212,nan,nan,-0.6400316,2.1373632,0.0,nan,nan,0.0,0.0,0.0,0.0,0.0,0.0,0.0,0.0,0.0,-0.4924261
77404291,nan,nan,-0.6400316,2.1373632,0.0,nan,nan,-0.012773216,0.0,0.0,0.0,0.0,0.0,0.0,0.0,0.0,-0.50303745
77504392,nan,nan,-0.6400316,2.1373632,0.0,nan,nan,-0.0278126,0.0,0.0,0.0,0.0,0.0,0.0,0.0,0.0,-0.5164244
77604561,nan,nan,-0.6400316,2.1373632,0.0,nan,nan,-0.045761883,0.0,0.0,0.0,0.0,0.0,0.0,0.0,0.0,-0.52222586
77704962,nan,nan,nan,2.1373632,0.0,nan,nan,-0.27118015,0.0,0.0,0.0,0.0,0.0,0.0,0.0,0.0,-0.5544275
77804990,nan,nan,nan,2.1373632,0.0,nan,nan,-0.49672735,0.0,0.0,0.0,0.0,0.0,0.0,0.0,0.0,-0.57796377
77904878,nan,nan,nan,2.1373632,0.0,nan,nan,-0.23990479,0.0,0.0,0.0,0.0,0.0,0.0,0.0,0.0,-0.46453097
78025632,nan,nan,nan,2.1373632,0.0,nan,nan,-0.16299415,0.0,0.0,0.0,0.0,0.0,0.0,0.0,0.0,-0.46564895
78125013,nan,nan,-0.63172317,2.1373632,0.0,nan,nan,0.003931403,0.0,0.0,0.0,0.0,0.0,0.0,0.0,0.0,-0.4637977
78225668,nan,nan,-0.63172317,2.1373632,0.0,nan,nan,-0.0038785338,0.0,0.0,0.0,0.0,0.0,0.0,0.0,0.0,-0.504295
78325237,nan,nan,-0.63172317,2.1373632,0.0,nan,nan,-0.025226712,0.0,0.0,0.0,0.0,0.0,0.0,0.0,0.0,-0.5270806
78425512,nan,nan,-0.63172317,2.1373632,0.0,nan,nan,-0.051505506,0.0,0.0,0.0,0.0,0.0,0.0,0.0,0.0,-0.52204216
78525607,nan,nan,-0.63172317,2.1373632,0.0,nan,nan,-0.06753039,0.0,0.0,0.0,0.0,0.0,0.0,0.0,0.0,-0.5059754
78625691,nan,nan,-0.63172317,2.1373632,0.0,nan,nan,-0.07675183,0.0,0.0,0.0,0.0,0.0,0.0,0.0,0.0,-0.5072829
78725737,nan,nan,-0.63172317,2.1373632,0.0,nan,nan,-0.08037102,0.0,0.0,0.0,0.0,0.0,0.0,0.0,0.0,-0.5080666
78825752,nan,nan,-0.63172317,2.1373632,0.0,nan,nan,-0.0845114,0.0,0.0,0.0,0.0,0.0,0.0,0.0,0.0,-0.5041458
78925834,nan,nan,-0.63172317,2.1373632,0.0,nan,nan,-0.08674085,0.0,0.0,0.0,0.0,0.0,0.0,0.0,0.0,-0.5007054
79025891,nan,nan,-0.63172317,2.1373632,0.0,nan,nan,-0.0875082,0.0,0.0,0.0,0.0,0.0,0.0,0.0,0.0,-0.5053536
79126002,nan,nan,-0.63172317,2.1373632,0.0,nan,nan,-0.09121263,0.0,0.0,0.0,0.0,0.0,0.0,0.0,0.0,-0.51501817
79226505,nan,nan,-0.63172317,2.1373632,0.0,nan,nan,-0.10254401,0.0,0.0,0.0,0.0,0.0,0.0,0.0,0.0,-0.531361
79326525,nan,nan,-0.63172317,2.1373632,0.0,nan,nan,-0.11288059,0.0,0.0,0.0,0.0,0.0,0.0,0.0,0.0,-0.5193454
79446657,nan,nan,-0.63172317,2.1373632,0.0,nan,nan,-0.111666024,0.0,0.0,0.0,0.0,0.0,0.0,0.0,0.0,-0.5017613
79546569,nan,nan,-0.63172317,2.1373632,0.0,nan,nan,-0.107530534,0.0,0.0,0.0,0.0,0.0,0.0,0.0,0.0,-0.51150495
79646663,nan,nan,-0.63172317,2.1373632,0.0,nan,nan,-0.109736085,0.0,0.0,0.0,0.0,0.0,0.0,0.0,0.0,-0.5226971
79746622,nan,nan,-0.63172317,2.1373632,0.0,nan,nan,-0.110750854,0.0,0.0,0.0,0.0,0.0,0.0,0.0,0.0,-0.511951
79847364,nan,nan,-0.63172317,2.1373632,0.0,nan,nan,-0.1115163,0.0,0.0,0.0,0.0,0.0,0.0,0.0,0.0,-0.51507515
79946825,nan,nan,-0.63172317,2.1373632,0.0,nan,nan,-0.11063266,0.0,0.0,0.0,0.0,0.0,0.0,-0.00485042,-0.0030855248,-0.507624
80047106,nan,nan,-0.63172317,2.1373632,0.0,nan,nan,-0.10549098,0.0,0.0,0.0,0.0,0.0,0.0,-0.04413232,-0.028074138,-0.5054633
80147299,nan,nan,-0.63172317,2.1373632,0.0,nan,nan,-0.10200149,0.0,0.0,0.0,0.0,0.0,0.0,-0.039918017,-0.025393272,-0.5080393
80247290,nan,nan,-0.63172317,2.1373632,0.0,nan,nan,-0.103192806,0.0,0.0,0.0,0.0,0.0,0.0,-0.03441138,-0.021890303,-0.5200783
80347318,nan,nan,-0.63172317,2.1373632,0.0,nan,nan,-0.10683155,0.0,0.0,0.0,0.0,0.0,0.0,-0.032716878,-0.02081237,-0.5232244
80447377,nan,nan,-0.63172317,2.1373632,0.0,nan,nan,-0.108639,0.0,0.0,0.0,0.0,0.0,0.0,-0.032018397,-0.020368041,-0.50738585
80547475,nan,nan,-0.63172317,2.1373632,0.0,nan,nan,-0.10820848,0.0,0.0,0.0,0.0,0.0,0.0,-0.028480848,-0.018117681,-0.4975723
80647541,nan,nan,-0.63172317,2.1373632,0.0,nan,nan,-0.10739976,0.0,0.0,0.0,0.0,0.0,0.0,-0.023951272,-0.015236255,-0.50267065
80747667,nan,nan,-0.63172317,2.1373632,0.0,nan,nan,-0.10846448,0.0,0.0,0.0,0.0,0.0,0.0,-0.0031875602,-0.0020277207,-0.50372726
80868112,nan,nan,-0.63172317,2.1373632,0.0,nan,nan,-0.1080457,0.0,0.0,0.0,0.0,0.0,0.0,-7.367281e-05,-4.6865895e-05,-0.5113339
80968220,nan,nan,-0.63172317,2.1373632,0.0,nan,nan,-0.11252922,0.0,0.0,0.0,0.0,0.0,0.0,-2.7733464e-08,-1.7642241e-08,-0.5275516
81068233,nan,nan,-0.63172317,2.1373632,0.0,nan,nan,-0.11884564,0.0,0.0,0.0,0.0,0.0,0.0,0.00016924209,0.00010766091,-0.5241062
81168433,nan,nan,-0.63172317,2.1373632,0.0,nan,nan,-0.122796535,0.0,0.0,0.0,0.0,0.0,0.0,0.006447587,0.0041015395,-0.51578116
81268198,nan,nan,-0.63172317,2.1373632,0.0,nan,nan,-0.12300128,0.0,0.0,0.0,0.0,0.0,0.0,0.019151121,0.012182711,-0.5061399
81368714,nan,nan,-0.63172317,2.1373632,0.0,nan,nan,-0.123425245,0.0,0.0,0.0,0.0,0.0,0.0,0.027084423,0.017229365,-0.5093721
81468346,nan,nan,-0.63172317,2.1373632,0.0,nan,nan,-0.12617987,0.0,0.0,0.0,0.0,0.0,0.0,0.023917528,0.0152147915,-0.50989056
81568527,nan,nan,-0.63172317,2.1373632,0.0,nan,nan,-0.12499851,0.0,0.0,0.0,0.0,0.0,0.0,0.018038468,0.011474912,-0.506093
81668712,nan,nan,-0.63172317,2.1373632,0.0,nan,nan,-0.122027576,0.0,0.0,0.0,0.0,0.0,0.0,-0.00030625158,-0.00019481752,-0.5082203
81768822,nan,nan,-0.63172317,2.1373632,0.0,nan,nan,-0.11829007,0.0,0.0,0.0,0.0,0.0,0.0,1.7987365e-06,1.1442403e-06,-0.5118036
81868900,nan,nan,-0.63172317,2.1373632,0.0,nan,nan,-0.11203402,0.0,0.0,0.0,0.0,0.0,0.0,4.5196202e-07,2.8750912e-07,-0.51029634
81968979,nan,nan,-0.63172317,2.1373632,0.0,nan,nan,-0.10775733,0.0,0.0,0.0,0.0,0.0,0.0,-0.00097302126,-0.0013011837,-0.5173402
82068999,nan,nan,-0.63172317,2.1373632,0.0,nan,nan,-0.102458954,0.0,0.0,0.0,0.0,0.0,0.0,-0.006609659,-0.0060487655,-0.5201249
82169046,nan,nan,-0.63172317,2.1373632,0.0,nan,nan,-0.098980665,0.0,0.0,0.0,0.0,0.0,0.0,-0.002067878,-0.014093801,-0.5194499
82289264,nan,nan,-0.63172317,2.1373632,0.0,nan,nan,-0.08792734,0.0,0.0,0.0,0.0,0.0,0.0,-0.0024207958,-0.011179854,-0.5039006
82389683,nan,nan,-0.63172317,2.1373632,0.0,nan,nan,-0.07744676,0.0,0.0,0.0,0.0,0.0,0.0,0.008233414,-0.016933905,-0.5043213
82489785,nan,nan,-0.63172317,2.1373632,0.0,nan,nan,-0.07208687,0.0,0.0,0.0,0.0,0.0,0.0,0.015659202,-0.024641044,-0.5116527
82589815,nan,nan,-0.63172317,2.1373632,0.0,nan,nan,-0.07284838,0.0,0.0,0.0,0.0,0.0,0.0,0.019440785,-0.030562766,-0.5102107
82689846,nan,nan,-0.63172317,2.1373632,0.0,nan,nan,-0.07459313,0.0,0.0,0.0,0.0,0.0,0.0,0.02263761,-0.035586216,-0.5143183
82790338,nan,nan,-0.63172317,2.1373632,0.0,nan,nan,-0.07907438,0.0,0.0,0.0,0.0,0.0,0.0,0.012911905,-0.02029741,-0.5231413
82889783,nan,nan,-0.63172317,2.1373632,0.0,nan,nan,-0.078706026,0.0,0.0,0.0,0.0,0.0,0.0,0.007425531,-0.011672874,-0.52781755
82990206,nan,nan,-0.63172317,2.1373632,0.0,nan,nan,-0.081876874,0.0,0.0,0.0,0.0,0.0,0.0,0.0077187247,-0.012133773,-0.52304816
83090020,nan,nan,-0.63172317,2.1373632,0.0,nan,nan,-0.08504313,0.0,0.0,0.0,0.0,0.0,0.0,0.0012759703,-0.0020058148,-0.5159292
83190490,nan,nan,-0.63172317,2.1373632,0.0,nan,nan,-0.08203101,0.0,0.0,0.0,0.0,0.0,0.0,1.3835118e-05,-2.1748694e-05,-0.50781053
83290326,nan,nan,-0.63172317,2.1373632,0.0,nan,nan,-0.0776366,0.0,0.0,0.0,0.0,0.0,0.0,-7.5663115e-07,1.1894181e-06,-0.5106954
83390420,nan,nan,-0.63172317,2.1373632,0.0,nan,nan,-0.07928991,0.0,0.0,0.0,0.0,0.0,0.0,0.0015996583,-0.00251465,-0.51514864
83510515,nan,nan,-0.63172317,2.1373632,0.0,nan,nan,-0.08309108,0.0,0.0,0.0,0.0,0.0,0.0,-6.8582754e-05,0.00010781154,-0.51758814
83610516,nan,nan,-0.63172317,2.1373632,0.0,nan,nan,-0.08644247,0.0,0.0,0.0,0.0,0.0,0.0,-9.4483954e-07,1.4852801e-06,-0.52859664
83710571,nan,nan,-0.63172317,2.1373632,0.0,nan,nan,-0.08915883,0.0,0.0,0.0,0.0,0.0,0.0,-0.004768695,0.0074963504,-0.5278183
83810686,nan,nan,-0.63172317,2.1373632,0.0,nan,nan,-0.08930713,0.0,0.0,0.0,0.0,0.0,0.0,-0.012720559,0.019996617,-0.5088642
83910778,nan,nan,-0.63172317,2.1373632,0.0,nan,nan,-0.08360243,0.0,0.0,0.0,0.0,0.0,0.0,-0.012661328,0.019903505,-0.5129098
84010988,nan,nan,-0.63172317,2.1373632,0.0,nan,nan,-0.08062774,0.0,0.0,0.0,0.0,0.0,0.0,-0.013143317,0.020661188,-0.5260638
84111289,nan,nan,-0.63172317,2.1373632,0.0,nan,nan,-0.081264436,0.0,0.0,0.0,0.0,0.0,0.0,-0.0010982367,0.0017264192,-0.5219975
84211399,nan,nan,-0.63172317,2.1373632,0.0,nan,nan,-0.07785553,0.0,0.0,0.0,0.0,0.0,0.0,-3.5503057e-05,5.581052e-05,-0.51350397
84311353,nan,nan,-0.63172317,2.1373632,0.0,nan,nan,-0.0682435,0.0,0.0,0.0,0.0,0.0,0.0,-5.6045616e-07,8.810326e-07,-0.50269085
84411474,nan,nan,-0.63172317,2.1373632,0.0,nan,nan,-0.05382538,0.0,0.0,0.0,0.0,0.0,0.0,5.462331e-09,-8.58674e-09,-0.5034365
84511384,nan,nan,-0.63172317,2.1373632,0.0,nan,nan,-0.04243219,0.0,0.0,0.0,0.0,0.0,0.0,9.534997e-10,-1.4988939e-09,-0.51170933
84611486,nan,nan,-0.63172317,2.1373632,0.0,nan,nan,-0.038934052,0.0,0.0,0.0,0.0,0.0,0.0,1.0349192e-11,-1.6268847e-11,-0.522744
84731611,nan,nan,-0.63172317,2.1373632,0.0,nan,nan,-0.03574586,0.0,0.0,0.0,0.0,0.0,0.0,1.2765291e-14,-2.0066936e-14,-0.52191705
84831764,nan,nan,-0.63172317,2.1373632,0.0,nan,nan,-0.03350538,0.0,0.0,0.0,0.0,0.0,0.0,-1.126082e-14,1.770192e-14,-0.51496285
84931968,nan,nan,-0.63172317,2.1373632,0.0,nan,nan,-0.028303504,0.0,0.0,0.0,0.0,0.0,0.0,-1.464646e-16,2.3024118e-16,-0.50975245
85032103,nan,nan,-0.63172317,2.1373632,0.0,nan,nan,-0.020600379,0.0,0.0,0.0,0.0,0.0,0.0,-0.006641936,-0.007444318,-0.50583404
85132113,nan,nan,-0.63172317,2.1373632,0.0,nan,nan,-0.007925153,0.0,0.0,0.0,0.0,0.0,0.0,-0.018054103,-0.014720903,-0.503518
85232183,nan,nan,-0.63172317,2.1373632,0.0,nan,nan,0.0024425983,0.0,0.0,0.0,0.0,0.0,0.0,-0.0151909,-0.009566995,-0.49957857
85332263,nan,nan,-0.63172317,2.1373632,0.0,nan,nan,0.00885725,0.0,0.0,0.0,0.0,0.0,0.0,-0.013590282,-0.00864686,-0.5054488
85432337,nan,nan,-0.63172317,2.1373632,0.0,nan,nan,0.013661325,0.0,0.0,0.0,0.0,0.0,0.0,-0.013035983,-0.008292849,-0.5065225
85532438,nan,nan,-0.63172317,2.1373632,0.0,nan,nan,0.015846908,0.0,0.0,0.0,0.0,0.0,0.0,-0.013145164,-0.008362108,-0.51125836
85652608,nan,nan,-0.63172317,2.1373632,0.0,nan,nan,0.015176594,0.0,0.0,0.0,0.0,0.0,0.0,-0.012489629,-0.007945096,-0.50833803
85753041,nan,nan,-0.63172317,2.1373632,0.0,nan,nan,0.009554863,0.0,0.0,0.0,0.0,0.0,0.0,-0.012475913,-0.007936372,-0.52092236
85853059,nan,nan,-0.63172317,2.1373632,0.0,nan,nan,0.0012965798,0.0,0.0,0.0,0.0,0.0,0.0,-0.0122108245,-0.0077677397,-0.5213813
85953068,nan,nan,-0.63172317,2.1373632,0.0,nan,nan,-0.0053212643,0.0,0.0,0.0,0.0,0.0,0.0,-0.0123600885,-0.007862692,-0.5153944
86052980,nan,nan,-0.63172317,2.1373632,0.0,nan,nan,-0.017989218,0.0,0.0,0.0,0.0,0.0,0.0,-0.0062638684,-0.0039846697,-0.5200635
86153696,nan,nan,-0.63172317,2.1373632,0.0,nan,nan,-0.026212454,0.0,0.0,0.0,0.0,0.0,0.0,-0.0020453383,-0.0013011125,-0.51325077
86253150,nan,nan,-0.63172317,2.1373632,0.0,nan,nan,-0.027574241,0.0,0.0,0.0,0.0,0.0,0.0,0.0001567603,9.9720804e-05,-0.5145212
86353228,nan,nan,-0.63172317,2.1373632,0.0,nan,nan,-0.026123226,0.0,0.0,0.0,0.0,0.0,0.0,-6.485718e-06,-4.1257963e-06,-0.5121837
86453510,nan,nan,-0.63172317,2.1373632,0.0,nan,nan,-0.02372384,0.0,0.0,0.0,0.0,0.0,0.0,-1.388632e-07,-8.833581e-08,-0.5112219
86553526,nan,nan,-0.63172317,2.1373632,0.0,nan,nan,-0.021797717,0.0,0.0,0.0,0.0,0.0,0.0,3.931141e-10,2.5007385e-10,-0.5191387
86653674,nan,nan,-0.63172317,2.1373632,0.0,nan,nan,-0.02424848,0.0,0.0,0.0,0.0,0.0,0.0,0.0010418438,-0.0016377699,-0.5177448
86753717,nan,nan,-0.63172317,2.1373632,0.0,nan,nan,-0.029317021,0.0,0.0,0.0,0.0,0.0,0.0,0.001149479,-0.0018069715,-0.52289414
86853751,nan,nan,-0.63172317,2.1373632,0.0,nan,nan,-0.031113505,0.0,0.0,0.0,0.0,0.0,0.0,0.0008583725,-0.0013493546,-0.5107174
86953822,nan,nan,-0.63172317,2.1373632,0.0,nan,nan,-0.032969713,0.0,0.0,0.0,0.0,0.0,0.0,0.0008967279,-0.001409649,-0.514464
87053957,nan,nan,-0.63172317,2.1373632,0.0,nan,nan,-0.04184848,0.0,0.0,0.0,0.0,0.0,0.0,0.002250409,-0.0035376248,-0.52130115
87174047,nan,nan,-0.63172317,2.1373632,0.0,nan,nan,-0.053004205,0.0,0.0,0.0,0.0,0.0,0.0,-0.00016058884,0.00025244436,-0.531896
87274215,nan,nan,-0.63172317,2.1373632,0.0,nan,nan,-0.06185901,0.0,0.0,0.0,0.0,0.0,0.0,-3.98239e-07,6.2602845e-07,-0.52730143
87374567,nan,nan,-0.63172317,2.1373632,0.0,nan,nan,-0.06374222,0.0,0.0,0.0,0.0,0.0,0.0,0.00043701087,-0.0006869776,-0.5217448
87474651,nan,nan,-0.63172317,2.1373632,0.0,nan,nan,-0.058006883,0.0,0.0,0.0,0.0,0.0,0.0,0.00206718,-0.00324959,-0.5189604
87574542,nan,nan,-0.63172317,2.1373632,0.0,nan,nan,-0.04742098,0.0,0.0,0.0,0.0,0.0,0.0,0.0045503015,-0.0071530375,-0.5124468
87674654,nan,nan,-0.63172317,2.1373632,0.0,nan,nan,-0.03916788,0.0,0.0,0.0,0.0,0.0,0.0,0.003967167,-0.0062363544,-0.5083739
87774646,nan,nan,-0.63172317,2.1373632,0.0,nan,nan,-0.035709262,0.0,0.0,0.0,0.0,0.0,0.0,0.00444739,-0.006991261,-0.51330274
87874736,nan,nan,-0.63172317,2.1373632,0.0,nan,nan,-0.036795735,0.0,0.0,0.0,0.0,0.0,0.0,0.0044781314,-0.0070395865,-0.5162987
87974879,nan,nan,-0.63172317,2.1373632,0.0,nan,nan,-0.032835007,0.0,0.0,0.0,0.0,0.0,0.0,0.0043312972,-0.0068087648,-0.51113373
88075109,nan,nan,-0.63172317,2.1373632,0.0,nan,nan,-0.02910155,0.0,0.0,0.0,0.0,0.0,0.0,0.0039908485,-0.006273582,-0.5156564
88175199,nan,nan,-0.63172317,2.1373632,0.0,nan,nan,-0.026946902,0.0,0.0,0.0,0.0,0.0,0.0,0.003977774,-0.0062530288,-0.5164929
88275304,nan,nan,-0.63172317,2.1373632,0.0,nan,nan,-0.026118338,0.0,0.0,0.0,0.0,0.0,0.0,0.006195425,-0.009739159,-0.5267782
88375348,nan,nan,-0.63172317,2.1373632,0.0,nan,nan,-0.02279514,0.0,0.0,0.0,0.0,0.0,0.0,0.005906399,-0.009284812,-0.52083385
88475365,nan,nan,-0.63172317,2.1373632,0.0,nan,nan,-0.017302334,0.0,0.0,0.0,0.0,0.0,0.0,0.0059893383,-0.009415192,-0.5152187
88595495,nan,nan,-0.63172317,2.1373632,0.0,nan,nan,-0.013538539,0.0,0.0,0.0,0.0,0.0,0.0,0.005486545,-0.008624805,-0.5255171
88695566,nan,nan,-0.63172317,2.1373632,0.0,nan,nan,-0.017078042,0.0,0.0,0.0,0.0,0.0,0.0,0.0032298397,-0.005077282,-0.5254468
88795740,nan,nan,-0.63172317,2.1373632,0.0,nan,nan,-0.022580206,0.0,0.0,0.0,0.0,0.0,0.0,9.647872e-05,-0.00015166377,-0.5194644
88896151,nan,nan,-0.63172317,2.1373632,0.0,nan,nan,-0.0188905,0.0,0.0,0.0,0.0,0.0,0.0,8.734307e-06,-1.37302595e-05,-0.50285846
88996197,nan,nan,-0.63172317,2.1373632,0.0,nan,nan,-0.01262635,0.0,0.0,0.0,0.0,0.0,0.0,7.703757e-08,-1.2110245e-07,-0.50056756
89096863,nan,nan,-0.63172317,2.1373632,0.0,nan,nan,-0.006772876,0.0,0.0,0.0,0.0,0.0,0.0,-3.2946987e-10,5.17924e-10,-0.51460016
89196108,nan,nan,-0.63172317,2.1373632,0.0,nan,nan,-0.010355592,0.0,0.0,0.0,0.0,0.0,0.0,-1.12136425e-10,1.7627756e-10,-0.52670753
89296304,nan,nan,-0.63172317,2.1373632,0.0,nan,nan,-0.01679045,0.0,0.0,0.0,0.0,0.0,0.0,-1.2999552e-12,2.043519e-12,-0.52434605
89396264,nan,nan,-0.63172317,2.1373632,0.0,nan,nan,-0.019290984,0.0,0.0,0.0,0.0,0.0,0.0,0.00025450214,-0.000750797,-0.5127706
89496384,nan,nan,-0.63172317,2.1373632,0.0,nan,nan,-0.017632961,0.0,0.0,0.0,0.0,0.0,0.0,-0.00624465,-0.0039441376,-0.5106165
89596513,nan,nan,-0.63172317,2.1373632,0.0,nan,nan,-0.017683268,0.0,0.0,0.0,0.0,0.0,0.0,-0.010339979,-0.0065769306,-0.5166553
89696611,nan,nan,-0.63172317,2.1373632,0.0,nan,nan,-0.025525331,0.0,0.0,0.0,0.0,0.0,0.0,-0.015202046,-0.009670559,-0.5285801
89796799,nan,nan,-0.63172317,2.1373632,0.0,nan,nan,-0.03476882,0.0,0.0,0.0,0.0,0.0,0.0,-0.014878731,-0.00946489,-0.5231645
89896860,nan,nan,-0.63172317,2.1373632,0.0,nan,nan,-0.03966844,0.0,0.0,0.0,0.0,0.0,0.0,-0.015162149,-0.009645183,-0.5209136
90016961,nan,nan,-0.63172317,2.1373632,0.0,nan,nan,-0.033854187,0.0,0.0,0.0,0.0,0.0,0.0,-0.01950446,-0.012407481,-0.5080794
90116985,nan,nan,-0.63172317,2.1373632,0.0,nan,nan,-0.02451706,0.0,0.0,0.0,0.0,0.0,0.0,-0.019800013,-0.012595492,-0.5065407
90217094,nan,nan,-0.63172317,2.1373632,0.0,nan,nan,-0.01982379,0.0,0.0,0.0,0.0,0.0,0.0,-0.018759912,-0.011933847,-0.5038485
90317185,nan,nan,-0.63172317,2.1373632,0.0,nan,nan,-0.017776787,0.0,0.0,0.0,0.0,0.0,0.0,-0.01578523,-0.010041546,-0.51158875
90417366,nan,nan,-0.63172317,2.1373632,0.0,nan,nan,-0.017496347,0.0,0.0,0.0,0.0,0.0,0.0,-0.010220166,-0.0065014116,-0.5187972
90517797,nan,nan,-0.63172317,2.1373632,0.0,nan,nan,-0.014074564,0.0,0.0,0.0,0.0,0.0,0.0,2.618814e-05,1.6659207e-05,-0.51540744
90617838,nan,nan,-0.63172317,2.1373632,0.0,nan,nan,-0.008651614,0.0,0.0,0.0,0.0,0.0,0.0,3.858134e-06,2.4542962e-06,-0.50913966
90717826,nan,nan,-0.63172317,2.1373632,0.0,nan,nan,-0.0021452904,0.0,0.0,0.0,0.0,0.0,0.0,3.9324515e-08,2.5015725e-08,-0.50358176
90818528,nan,nan,-0.63172317,2.1373632,0.0,nan,nan,0.0051982403,0.0,0.0,0.0,0.0,0.0,0.0,-2.4422566e-09,-1.5536062e-09,-0.5069023
90917779,nan,nan,-0.63172317,2.1373632,0.0,nan,nan,0.0070177317,0.0,0.0,0.0,0.0,0.0,0.0,-4.6556797e-11,-2.9616438e-11,-0.5193502
91018480,nan,nan,-0.63172317,2.1373632,0.0,nan,nan,0.0020577312,0.0,0.0,0.0,0.0,0.0,0.0,5.244138e-13,3.3359827e-13,-0.52628493
91138711,nan,nan,-0.63172317,2.1373632,0.0,nan,nan,-0.0026116967,0.0,0.0,0.0,0.0,0.0,0.0,-3.550419e-15,-2.258548e-15,-0.5182377
91238218,nan,nan,-0.63172317,2.1373632,0.0,nan,nan,-0.0026139617,0.0,0.0,0.0,0.0,0.0,0.0,6.99831e-17,4.451874e-17,-0.50798786
91338398,nan,nan,-0.63172317,2.1373632,0.0,nan,nan,-0.0028035045,0.0,0.0,0.0,0.0,0.0,0.0,-0.00069471373,-0.00044193212,-0.5132821
91438470,nan,nan,-0.63172317,2.1373632,0.0,nan,nan,-0.009795427,0.0,0.0,0.0,0.0,0.0,0.0,-0.0029139717,-0.0018536808,-0.5136497
91538553,nan,nan,-0.63172317,2.1373632,0.0,nan,nan,-0.00965029,0.0,0.0,0.0,0.0,0.0,0.0,-0.0028200236,-0.0017939173,-0.51554716
91638575,nan,nan,-0.63172317,2.1373632,0.0,nan,nan,-0.01108706,0.0,0.0,0.0,0.0,0.0,0.0,-0.0031226096,-0.001986403,-0.52074033
91738603,nan,nan,-0.63172317,2.1373632,0.0,nan,nan,-0.013484478,0.0,0.0,0.0,0.0,0.0,0.0,-0.0022807354,-0.0014508568,-0.5200577
91838724,nan,nan,-0.63172317,2.1373632,0.0,nan,nan,-0.017640054,0.0,0.0,0.0,0.0,0.0,0.0,-0.0022073886,-0.0014041985,-0.5268024
91938806,nan,nan,-0.63172317,2.1373632,0.0,nan,nan,-0.021132588,0.0,0.0,0.0,0.0,0.0,0.0,-0.00049665145,-0.00031593765,-0.51656497
92038975,nan,nan,-0.63172317,2.1373632,0.0,nan,nan,-0.02000606,0.0,0.0,0.0,0.0,0.0,0.0,-0.00023240388,-0.00014784037,-0.5140586
92159457,nan,nan,-0.63172317,2.1373632,0.0,nan,nan,-0.0223521,0.0,0.0,0.0,0.0,0.0,0.0,-0.00093828834,-0.0005968786,-0.52150416
92259460,nan,nan,-0.63172317,2.1373632,0.0,nan,nan,-0.024774432,0.0,0.0,0.0,0.0,0.0,0.0,-0.0014073034,-0.00089523575,-0.5175169
92359412,nan,nan,-0.63172317,2.1373632,0.0,nan,nan,-0.025258005,0.0,0.0,0.0,0.0,0.0,0.0,-0.0015385256,-0.0009787108,-0.5060397
92459494,nan,nan,-0.63172317,2.1373632,0.0,nan,nan,-0.02102983,0.0,0.0,0.0,0.0,0.0,0.0,-0.0015197045,-0.0009667381,-0.50660586
92559512,nan,nan,-0.63172317,2.1373632,0.0,nan,nan,-0.02066058,0.0,0.0,0.0,0.0,0.0,0.0,-0.001544628,-0.0009825928,-0.5150523
92659535,nan,nan,-0.63172317,2.1373632,0.0,nan,nan,-0.02060467,0.0,0.0,0.0,0.0,0.0,0.0,-0.00076869695,-0.0004889954,-0.5228035
92759665,nan,nan,-0.63172317,2.1373632,0.0,nan,nan,-0.02227348,0.0,0.0,0.0,0.0,0.0,0.0,-0.0006181523,-0.00039322866,-0.5201871
92859800,nan,nan,-0.63172317,2.1373632,0.0,nan,nan,-0.022018373,0.0,0.0,0.0,0.0,0.0,0.0,-5.8824935e-06,-3.7420634e-06,-0.51753867
92959959,nan,nan,-0.63172317,2.1373632,0.0,nan,nan,-0.021426797,0.0,0.0,0.0,0.0,0.0,0.0,4.0880667e-07,2.6005645e-07,-0.5103675
93060061,nan,nan,-0.63172317,2.1373632,0.0,nan,nan,-0.022409558,0.0,0.0,0.0,0.0,0.0,0.0,7.3559026e-09,4.6793516e-09,-0.51375115
93160129,nan,nan,-0.63172317,2.1373632,0.0,nan,nan,-0.02525121,0.0,0.0,0.0,0.0,0.0,0.0,-1.0195808e-10,-6.485916e-11,-0.5203998
93260156,nan,nan,-0.63172317,2.1373632,0.0,nan,nan,-0.028909028,0.0,0.0,0.0,0.0,0.0,0.0,-9.870915e-12,-6.2792393e-12,-0.5257712
93380231,nan,nan,-0.63172317,2.1373632,0.0,nan,nan,-0.02967745,0.0,0.0,0.0,0.0,0.0,0.0,-8.585776e-14,-5.461717e-14,-0.51076394
93480348,nan,nan,-0.63172317,2.1373632,0.0,nan,nan,-0.022208333,0.0,0.0,0.0,0.0,0.0,0.0,3.2727286e-16,2.081899e-16,-0.50938565
93580437,nan,nan,-0.63172317,2.1373632,0.0,nan,nan,-0.022759378,0.0,0.0,0.0,0.0,0.0,0.0,1.1965665e-16,7.611785e-17,-0.5211455
93680589,nan,nan,-0.63172317,2.1373632,0.0,nan,nan,-0.030157626,0.0,0.0,0.0,0.0,0.0,0.0,1.3981586e-18,8.894184e-19,-0.519554
93780915,nan,nan,-0.63172317,2.1373632,0.0,nan,nan,-0.036690533,0.0,0.0,0.0,0.0,0.0,0.0,0.00031007576,-0.00048743663,-0.51921827
93881037,nan,nan,-0.63172317,2.1373632,0.0,nan,nan,-0.033918977,0.0,0.0,0.0,0.0,0.0,0.0,0.004142616,-0.006512159,-0.5096139
93981202,nan,nan,-0.63172317,2.1373632,0.0,nan,nan,-0.031582892,0.0,0.0,0.0,0.0,0.0,0.0,0.0020770803,-0.0032651536,-0.512615
94080956,nan,nan,-0.63172317,2.1373632,0.0,nan,nan,-0.035290778,0.0,0.0,0.0,0.0,0.0,0.0,0.002436113,-0.00382955,-0.5218214
94181742,nan,nan,-0.63172317,2.1373632,0.0,nan,nan,-0.040090263,0.0,0.0,0.0,0.0,0.0,0.0,0.002546435,-0.0040029753,-0.5233051
94281181,nan,nan,-0.63172317,2.1373632,0.0,nan,nan,-0.03859657,0.0,0.0,0.0,0.0,0.0,0.0,0.0024630034,-0.0038718216,-0.5147039
94381642,nan,nan,-0.63172317,2.1373632,0.0,nan,nan,-0.034582436,0.0,0.0,0.0,0.0,0.0,0.0,0.0024502098,-0.00385171,-0.51203465
94481511,nan,nan,-0.63172317,2.1373632,0.0,nan,nan,-0.03357649,0.0,0.0,0.0,0.0,0.0,0.0,0.0022427065,-0.0035255167,-0.51661986
94581668,nan,nan,-0.63172317,2.1373632,0.0,nan,nan,-0.033946037,0.0,0.0,0.0,0.0,0.0,0.0,0.0025085853,-0.003943476,-0.52074355
94681703,nan,nan,-0.63172317,2.1373632,0.0,nan,nan,-0.03688836,0.0,0.0,0.0,0.0,0.0,0.0,0.0014211166,-0.002233984,-0.51749915
94801724,nan,nan,-0.63172317,2.1373632,0.0,nan,nan,-0.04220438,0.0,0.0,0.0,0.0,0.0,0.0,0.0015319127,-0.0024081543,-0.5302238
94901788,nan,nan,-0.63172317,2.1373632,0.0,nan,nan,-0.05283135,0.0,0.0,0.0,0.0,0.0,0.0,0.0009941638,-0.0015628176,-0.52717525
95001851,nan,nan,-0.63172317,2.1373632,0.0,nan,nan,-0.058764458,0.0,0.0,0.0,0.0,0.0,0.0,0.0010035714,-0.0015776062,-0.51899123
95101951,nan,nan,-0.63172317,2.1373632,0.0,nan,nan,-0.062233925,0.0,0.0,0.0,0.0,0.0,0.0,0.0010074191,-0.0015836545,-0.5226772
95202151,nan,nan,-0.63172317,2.1373632,0.0,nan,nan,-0.069033384,0.0,0.0,0.0,0.0,0.0,0.0,0.001022897,-0.0016079858,-0.5307347
95302533,nan,nan,-0.63172317,2.1373632,0.0,nan,nan,-0.07203692,0.0,0.0,0.0,0.0,0.0,0.0,0.0004891908,-0.00076900393,-0.51770246
95402642,nan,nan,-0.63172317,2.1373632,0.0,nan,nan,-0.06728262,0.0,0.0,0.0,0.0,0.0,0.0,-2.1313754e-05,3.350505e-05,-0.5027999
95502634,nan,nan,-0.63172317,2.1373632,0.0,nan,nan,-0.057840943,0.0,0.0,0.0,0.0,0.0,0.0,4.6079322e-07,-7.243632e-07,-0.50208443
95602537,nan,nan,-0.63172317,2.1373632,0.0,nan,nan,-0.050628066,0.0,0.0,0.0,0.0,0.0,0.0,1.9543805e-08,-3.0722703e-08,-0.5115354
95702836,nan,nan,-0.63172317,2.1373632,0.0,nan,nan,-0.04721719,0.0,0.0,0.0,0.0,0.0,0.0,4.7097615e-10,-7.403707e-10,-0.5220355
95802701,nan,nan,-0.63172317,2.1373632,0.0,nan,nan,-0.05162078,0.0,0.0,0.0,0.0,0.0,0.0,-1.2466518e-12,1.9597264e-12,-0.5299027
95902983,nan,nan,-0.63172317,2.1373632,0.0,nan,nan,-0.054225206,0.0,0.0,0.0,0.0,0.0,0.0,0.0006169501,-0.00096984056,-0.52219117
96003130,nan,nan,-0.63172317,2.1373632,0.0,nan,nan,-0.0537948,0.0,0.0,0.0,0.0,0.0,0.0,0.0018765328,-0.0029498944,-0.5179684
96103166,nan,nan,-0.63172317,2.1373632,0.0,nan,nan,-0.0569461,0.0,0.0,0.0,0.0,0.0,0.0,0.0021630134,-0.0034002396,-0.51694214
96203204,nan,nan,-0.63172317,2.1373632,0.0,nan,nan,-0.05776429,0.0,0.0,0.0,0.0,0.0,0.0,0.002783549,-0.0043757167,-0.51790434
96323335,nan,nan,-0.63172317,2.1373632,0.0,nan,nan,-0.062136233,0.0,0.0,0.0,0.0,0.0,0.0,0.0034713675,-0.0054569617,-0.5244275
96423348,nan,nan,-0.63172317,2.1373632,0.0,nan,nan,-0.0666644,0.0,0.0,0.0,0.0,0.0,0.0,0.0036616914,-0.0057561495,-0.5252166
96523372,nan,nan,-0.63172317,2.1373632,0.0,nan,nan,-0.07174665,0.0,0.0,0.0,0.0,0.0,0.0,0.009621345,-0.015124677,-0.52747476
96623471,nan,nan,-0.63172317,2.1373632,0.0,nan,nan,-0.08133906,0.0,0.0,0.0,0.0,0.0,0.0,0.009861238,-0.015501788,-0.52995914
96723533,nan,nan,-0.63172317,2.1373632,0.0,nan,nan,-0.08641684,0.0,0.0,0.0,0.0,0.0,0.0,0.009621995,-0.015125699,-0.5158239
96823630,nan,nan,-0.63172317,2.1373632,0.0,nan,nan,-0.08219612,0.0,0.0,0.0,0.0,0.0,0.0,0.0100723095,-0.01583359,-0.5015637
96923792,nan,nan,-0.63172317,2.1373632,0.0,nan,nan,-0.07756299,0.0,0.0,0.0,0.0,0.0,0.0,0.009468453,-0.014884333,-0.50875753
97024222,nan,nan,-0.63172317,2.1373632,0.0,nan,nan,-0.07594073,0.0,0.0,0.0,0.0,0.0,0.0,0.008708609,-0.013689863,-0.5233387
97124883,nan,nan,-0.63172317,2.1373632,0.0,nan,nan,-0.07683486,0.0,0.0,0.0,0.0,0.0,0.0,0.0034705815,-0.0054557263,-0.53779536
97224147,nan,nan,-0.63172317,2.1373632,0.0,nan,nan,-0.0830127,0.0,0.0,0.0,0.0,0.0,0.0,-2.285954e-05,3.5935012e-05,-0.53462386
97324312,nan,nan,-0.63172317,2.1373632,0.0,nan,nan,-0.085427225,0.0,0.0,0.0,0.0,0.0,0.0,-2.610689e-06,4.103982e-06,-0.5222857
97424286,nan,nan,-0.63172317,2.1373632,0.0,nan,nan,-0.0789451,0.0,0.0,0.0,0.0,0.0,0.0,-2.438845e-08,3.833845e-08,-0.5063733
97525118,nan,nan,-0.63172317,2.1373632,0.0,nan,nan,-0.06942451,0.0,0.0,0.0,0.0,0.0,0.0,1.7183219e-09,-2.7011884e-09,-0.51275295
97624546,nan,nan,-0.63172317,2.1373632,0.0,nan,nan,-0.058879495,0.0,0.0,0.0,0.0,0.0,0.0,3.1128492e-11,-4.893374e-11,-0.5177437
97744714,nan,nan,-0.63172317,2.1373632,0.0,nan,nan,-0.045289695,0.0,0.0,0.0,0.0,0.0,0.0,3.8287846e-13,-6.018819e-13,-0.5183611
97844831,nan,nan,-0.63172317,2.1373632,0.0,nan,nan,-0.037712693,0.0,0.0,0.0,0.0,0.0,0.0,-1.6632634e-14,2.6146367e-14,-0.51856583
97944908,nan,nan,-0.63172317,2.1373632,0.0,nan,nan,-0.025741696,0.0,0.0,0.0,0.0,0.0,0.0,-3.4007846e-16,5.3460066e-16,-0.50304735
98044932,nan,nan,-0.63172317,2.1373632,0.0,nan,nan,-0.0131908655,0.0,0.0,0.0,0.0,0.0,0.0,1.2652827e-18,-1.9890143e-18,-0.49864215
98145025,nan,nan,-0.63172317,2.1373632,0.0,nan,nan,-0.0039898753,0.0,0.0,0.0,0.0,0.0,0.0,1.3870158e-19,-2.1803778e-19,-0.5003154
98245112,nan,nan,-0.63172317,2.1373632,0.0,nan,nan,0.0009472966,0.0,0.0,0.0,0.0,0.0,0.0,5.7191857e-21,-8.990514e-21,-0.50334543
98345196,nan,nan,-0.63172317,2.1373632,0.0,nan,nan,0.0016201138,0.0,0.0,0.0,0.0,0.0,0.0,2.2691398e-23,-3.5670697e-23,-0.51272047
98445439,nan,nan,-0.63172317,2.1373632,0.0,nan,nan,0.0012734532,0.0,0.0,0.0,0.0,0.0,0.0,-0.0006891775,0.0010833815,-0.51504797
98545801,nan,nan,-0.63172317,2.1373632,0.0,nan,nan,0.0013791323,0.0,0.0,0.0,0.0,0.0,0.0,-0.0019979717,0.0031407955,-0.51634383
98645799,nan,nan,-0.63172317,2.1373632,0.0,nan,nan,0.002039075,0.0,0.0,0.0,0.0,0.0,0.0,-0.0029950275,0.0047081592,-0.51181513
98746475,nan,nan,-0.63172317,2.1373632,0.0,nan,nan,0.0040038824,0.0,0.0,0.0,0.0,0.0,0.0,-0.0036626605,0.0057576727,-0.5111842
98845777,nan,nan,-0.63172317,2.1373632,0.0,nan,nan,0.008415341,0.0,0.0,0.0,0.0,0.0,0.0,-0.0058918493,0.009261941,-0.5133405
98945991,nan,nan,-0.63172317,2.1373632,0.0,nan,nan,0.012243986,0.0,0.0,0.0,0.0,0.0,0.0,-0.006188329,0.009728003,-0.52042395
99065978,nan,nan,-0.63172317,2.1373632,0.0,nan,nan,0.007509291,0.0,0.0,0.0,0.0,0.0,0.0,-0.009548904,0.0150108,-0.53238416
99166037,nan,nan,-0.63172317,2.1373632,0.0,nan,nan,0.00074726343,0.0,0.0,0.0,0.0,0.0,0.0,-0.01010735,0.015888672,-0.5308205
99266166,nan,nan,-0.63172317,2.1373632,0.0,nan,nan,-0.005649328,0.0,0.0,0.0,0.0,0.0,0.0,-0.0096460525,0.015163517,-0.5221008
99366399,nan,nan,-0.63172317,2.1373632,0.0,nan,nan,-0.007883012,0.0,0.0,0.0,0.0,0.0,0.0,-0.011428147,0.017964955,-0.5279017
99466461,nan,nan,-0.63172317,2.1373632,0.0,nan,nan,-0.006593108,0.0,0.0,0.0,0.0,0.0,0.0,-0.010313289,0.016212407,-0.5206029
99566507,nan,nan,-0.63172317,2.1373632,0.0,nan,nan,0.0023658276,0.0,0.0,0.0,0.0,0.0,0.0,-0.0008657845,0.0013610063,-0.50952274
99666579,nan,nan,-0.63172317,2.1373632,0.0,nan,nan,0.011301875,0.0,0.0,0.0,0.0,0.0,0.0,6.929351e-07,-1.0892884e-06,-0.5132807
99766622,nan,nan,-0.63172317,2.1373632,0.0,nan,nan,0.01695317,0.0,0.0,0.0,0.0,0.0,0.0,-5.1738186e-07,8.133202e-07,-0.5151379
99866715,nan,nan,-0.63172317,2.1373632,0.0,nan,nan,0.018990755,0.0,0.0,0.0,0.0,0.0,0.0,4.9968887e-09,-7.855069e-09,-0.51583314
99966940,nan,nan,-0.63172317,2.1373632,0.0,nan,nan,0.015218914,0.0,0.0,0.0,0.0,0.0,0.0,2.5163305e-10,-3.9556514e-10,-0.5164701
100067002,nan,nan,-0.63172317,2.1373632,0.0,nan,nan,0.009325504,0.0,0.0,0.0,0.0,0.0,0.0,7.2699945e-12,-1.1428373e-11,-0.5244884
100167418,nan,nan,-0.63172317,2.1373632,0.0,nan,nan,0.006815374,0.0,0.0,0.0,0.0,0.0,0.0,9.865698e-19,-1.5508798e-18,-0.52224654
100267431,nan,nan,-0.63172317,2.1373632,0.0,nan,nan,0.0068848133,0.0,0.0,0.0,0.0,0.0,0.0,-2.0557888e-15,3.2316837e-15,-0.5151674
100367499,nan,nan,-0.63172317,2.1373632,0.0,nan,nan,0.012818217,0.0,0.0,0.0,0.0,0.0,0.0,-1.0486644e-16,1.6484921e-16,-0.5084903
100467353,nan,nan,-0.63172317,2.1373632,0.0,nan,nan,0.01907736,0.0,0.0,0.0,0.0,0.0,0.0,4.2402966e-18,-6.665712e-18,-0.5131221
100567771,nan,nan,nan,2.1373632,0.0,nan,nan,-0.009647682,0.0,0.0,0.0,0.0,0.0,0.0,1.0830476e-19,-1.702542e-19,-0.52276814
100688259,nan,nan,nan,2.1373632,0.0,nan,nan,-0.022820309,0.0,0.0,0.0,0.0,0.0,0.0,1.416524e-21,-2.2267644e-21,-0.5209402
100787635,nan,nan,-0.6568484,2.1373632,0.0,nan,nan,0.00052142143,0.0,0.0,0.0,0.0,0.0,0.0,1.2814441e-23,-2.0144199e-23,-0.50782675
100887802,nan,nan,-0.6568484,2.1373632,0.0,nan,nan,0.002335608,0.0,0.0,0.0,0.0,0.0,0.0,-9.601807e-25,1.5093962e-24,-0.51266307
100987984,nan,nan,-0.6568484,2.1373632,0.0,nan,nan,-8.136034e-05,0.0,0.0,0.0,0.0,0.0,0.0,-1.7530243e-26,2.75574e-26,-0.53134525
101088040,nan,nan,-0.6568484,2.1373632,0.0,nan,nan,-0.012617409,0.0,0.0,0.0,0.0,0.0,0.0,2.5846225e-28,-4.063006e-28,-0.5348352
101188161,nan,nan,-0.6568484,2.1373632,0.0,nan,nan,-0.022454381,0.0,0.0,0.0,0.0,0.0,0.0,2.2694641e-29,-3.567579e-29,-0.52912843
101288161,nan,nan,-0.6568484,2.1373632,0.0,nan,nan,-0.031293213,0.0,0.0,0.0,0.0,0.0,0.0,1.9587395e-31,-3.0791223e-31,-0.5278095
101388282,nan,nan,-0.6568484,2.1373632,0.0,nan,nan,-0.032103837,0.0,0.0,0.0,0.0,0.0,0.0,-1.5923512e-32,2.5031635e-32,-0.51476467
101488375,nan,nan,-0.6568484,2.1373632,0.0,nan,nan,-0.02784127,0.0,0.0,0.0,0.0,0.0,0.0,-2.7223026e-34,4.2794377e-34,-0.51523364
101588439,nan,nan,-0.6568484,2.1373632,0.0,nan,nan,-0.025392711,0.0,0.0,0.0,0.0,0.0,0.0,4.6416494e-36,-7.296636e-36,-0.5252875
101688934,nan,nan,-0.6568484,2.1373632,0.0,nan,nan,-0.015816987,0.0,0.0,0.0,0.0,0.0,0.0,1.5842406e-37,-2.4904132e-37,-0.5212322
101809050,nan,nan,nan,2.1373632,0.0,nan,nan,-0.10779666,0.0,0.0,0.0,0.0,0.0,0.0,3.223604e-39,-5.06748e-39,-0.53130394
101909047,nan,nan,nan,2.1373632,0.0,nan,nan,-0.11569469,0.0,0.0,0.0,0.0,0.0,0.0,-2.2056e-41,3.4672e-41,-0.5307332
102008937,nan,nan,nan,2.1373632,0.0,nan,nan,-0.114447355,0.0,0.0,0.0,0.0,0.0,0.0,0.0028111732,-0.004773363,-0.51788676
102109381,nan,nan,nan,2.1373632,0.0,nan,nan,-0.108054556,0.0,0.0,0.0,0.0,0.0,0.0,0.038286857,-0.060140155,-0.5192893
102209069,nan,nan,nan,2.1373632,0.0,nan,nan,-0.105540834,0.0,0.0,0.0,0.0,0.0,0.0,0.028287955,-0.0462398,-0.5131586
102309413,nan,nan,nan,2.1373632,0.0,nan,nan,-0.103741966,0.0,0.0,0.0,0.0,0.0,0.0,0.02810487,-0.045492522,-0.50356317
102409505,nan,nan,nan,2.1373632,0.0,nan,nan,-0.10571329,0.0,0.0,0.0,0.0,0.0,0.0,0.027316974,-0.04291452,-0.5160159
102509579,nan,nan,nan,2.1373632,0.0,nan,nan,-0.09787169,0.0,0.0,0.0,0.0,0.0,0.0,0.015440363,-0.032726623,-0.5165218
102609647,nan,nan,nan,2.1373632,0.0,nan,nan,-0.09780295,0.0,0.0,0.0,0.0,0.0,0.0,0.004271055,-0.01010843,-0.5196415
102709704,nan,nan,nan,2.1373632,0.0,nan,nan,-0.097033665,0.0,0.0,0.0,0.0,0.0,0.0,-0.004621755,-0.0024160747,-0.5288637
102809731,nan,nan,nan,2.1373632,0.0,nan,nan,-0.09704557,0.0,0.0,0.0,0.0,0.0,0.0,0.00024010378,0.00015187258,-0.5313954
102909757,nan,nan,nan,2.1373632,0.0,nan,nan,-0.08880305,0.0,0.0,0.0,0.0,0.0,0.0,-0.004587144,0.007201526,-0.5299822
103029885,nan,nan,nan,2.1373632,0.0,nan,nan,-0.039713457,0.0,0.0,0.0,0.0,0.0,0.0,-0.0106842555,0.016795168,-0.5002408
103129973,nan,nan,nan,2.1373632,0.0,nan,nan,-0.046538986,0.0,0.0,0.0,0.0,0.0,0.0,-0.018487697,0.029062502,-0.50009894
103230193,nan,nan,nan,2.1373632,0.0,nan,nan,-0.046353813,0.0,0.0,0.0,0.0,0.0,0.0,-0.015253753,0.02397878,-0.5065272
103330523,nan,nan,nan,2.1373632,0.0,nan,nan,-0.044669386,0.0,0.0,0.0,0.0,0.0,0.0,-0.0055774674,0.008767734,-0.5260484
103430577,nan,nan,nan,2.1373632,0.0,nan,nan,-0.046885885,0.0,0.0,0.0,0.0,0.0,0.0,-0.0059291716,0.009320611,-0.5303448
103530534,nan,nan,nan,2.1373632,0.0,nan,nan,-0.046616074,0.0,0.0,0.0,0.0,0.0,0.0,-0.009517817,0.014961931,-0.522802
103630680,nan,nan,nan,2.1373632,0.0,nan,nan,-0.046400703,0.0,0.0,0.0,0.0,0.0,0.0,-0.0027268478,0.0042865826,-0.52337706
103730609,nan,nan,nan,2.1373632,0.0,nan,nan,-0.046412624,0.0,0.0,0.0,0.0,0.0,0.0,0.00010949187,-0.00017212034,-0.5288075
103830698,nan,nan,nan,2.1373632,0.0,nan,nan,-0.047357954,0.0,0.0,0.0,0.0,0.0,0.0,1.608969e-06,-2.5292861e-06,-0.52670115
103930783,nan,nan,nan,2.1373632,0.0,nan,nan,-0.04642017,0.0,0.0,0.0,0.0,0.0,0.0,-0.0027235176,-0.0017325575,-0.521889
104030968,nan,nan,nan,2.1373632,0.0,nan,nan,-0.046885885,0.0,0.0,0.0,0.0,0.0,0.0,-0.017245127,-0.010970238,-0.50938845
104131142,nan,nan,nan,2.1373632,0.0,nan,nan,-0.04319596,0.0,0.0,0.0,0.0,0.0,0.0,-0.017970817,-0.011431876,-0.50402033
104231238,nan,nan,nan,2.1373632,0.0,nan,nan,-0.03727404,0.0,0.0,0.0,0.0,0.0,0.0,-0.0173742,-0.011052348,-0.5125932
104331306,nan,nan,nan,2.1373632,0.0,nan,nan,-0.037983336,0.0,0.0,0.0,0.0,0.0,0.0,-0.01725847,-0.010978728,-0.524054
104451365,nan,nan,nan,2.1373632,0.0,nan,nan,-0.028899983,0.0,0.0,0.0,0.0,0.0,0.0,-0.01403026,-0.008925148,-0.5257569
104551404,nan,nan,nan,2.1373632,0.0,nan,nan,-0.029527819,0.0,0.0,0.0,0.0,0.0,0.0,-0.012897805,-0.0082047535,-0.5243737
104651492,nan,nan,nan,2.1373632,0.0,nan,nan,-0.0167009,0.0,0.0,0.0,0.0,0.0,0.0,-0.0105822785,-0.0067317635,-0.5145993
104751631,nan,nan,-0.83043754,2.1373632,0.0,nan,nan,0.005451083,0.0,0.0,0.0,0.0,0.0,0.0,-0.00794329,-0.0050530094,-0.50869167
104851772,nan,nan,-0.83043754,2.1373632,0.0,nan,nan,0.008437157,0.0,0.0,0.0,0.0,0.0,0.0,-0.005941443,-0.0037795638,-0.51576054
104952205,nan,nan,-0.83043754,2.1373632,0.0,nan,nan,0.00065010786,0.0,0.0,0.0,0.0,0.0,0.0,-0.00024470367,-0.00015566472,-0.5278418
105052252,nan,nan,-0.83043754,2.1373632,0.0,nan,nan,-0.0106185675,0.0,0.0,0.0,0.0,0.0,0.0,-7.135519e-06,-4.5391575e-06,-0.53552544
105152110,nan,nan,-0.83043754,2.1373632,0.0,nan,nan,-0.021490335,0.0,0.0,0.0,0.0,0.0,0.0,-1.3168005e-07,-8.3766366e-08,-0.53958356
105252339,nan,nan,-0.83043754,2.1373632,0.0,nan,nan,-0.029058397,0.0,0.0,0.0,0.0,0.0,0.0,1.5479106e-09,9.84681e-10,-0.5236683
105352237,nan,nan,-0.83043754,2.1373632,0.0,nan,nan,-0.02740419,0.0,0.0,0.0,0.0,0.0,0.0,6.3959255e-11,4.0686756e-11,-0.5074015
105452541,nan,nan,-0.83043754,2.1373632,0.0,nan,nan,-0.018348277,0.0,0.0,0.0,0.0,0.0,0.0,1.5260769e-12,9.707918e-13,-0.49859574
105552406,nan,nan,-0.83043754,2.1373632,0.0,nan,nan,-0.0042788386,0.0,0.0,0.0,0.0,0.0,0.0,-3.3702232e-15,-2.1439187e-15,-0.50377077
105652598,nan,nan,-0.83043754,2.1373632,0.0,nan,nan,0.009616852,0.0,0.0,0.0,0.0,0.0,0.0,-1.9908372e-15,-1.2664425e-15,-0.5076289
105752806,nan,nan,-0.83043754,2.1373632,0.0,nan,nan,0.01980704,0.0,0.0,0.0,0.0,0.0,0.0,-2.4022159e-17,-1.528135e-17,-0.50553626
105852887,nan,nan,-0.83043754,2.1373632,0.0,nan,nan,0.02303058,0.0,0.0,0.0,0.0,0.0,0.0,1.0905229e-18,6.9372035e-19,-0.5128375
105972981,nan,nan,-0.83043754,2.1373632,0.0,nan,nan,0.026636958,0.0,0.0,0.0,0.0,0.0,0.0,3.868088e-21,2.4606287e-21,-0.51393574
106072996,nan,nan,-0.83043754,2.1373632,0.0,nan,nan,0.03066361,0.0,0.0,0.0,0.0,0.0,0.0,3.315378e-22,2.1090297e-22,-0.51581895
106173026,nan,nan,-0.83043754,2.1373632,0.0,nan,nan,0.032889783,0.0,0.0,0.0,0.0,0.0,0.0,2.7927855e-24,1.7765903e-24,-0.5116703
106273169,nan,nan,nan,2.1373632,0.0,nan,nan,-0.0048558665,0.0,0.0,0.0,0.0,0.0,0.0,-2.421977e-25,-1.5407059e-25,-0.5165399
106373204,nan,nan,nan,2.1373632,0.0,nan,nan,-0.013029252,0.0,0.0,0.0,0.0,0.0,0.0,-4.102346e-27,-2.6096482e-27,-0.5161277
106473399,nan,nan,nan,2.1373632,0.0,nan,nan,-0.032495733,0.0,0.0,0.0,0.0,0.0,0.0,7.12664e-29,4.5335094e-29,-0.5199388
106573767,nan,nan,nan,2.1373632,0.0,nan,nan,-0.03812281,0.0,0.0,0.0,0.0,0.0,0.0,5.1683176e-30,3.2877505e-30,-0.5120647
106673827,nan,nan,nan,2.1373632,0.0,nan,nan,-0.055656902,0.0,0.0,0.0,0.0,0.0,0.0,4.0177756e-32,2.55585e-32,-0.50940645
106774368,nan,nan,nan,2.1373632,0.0,nan,nan,-0.05485224,0.0,0.0,0.0,0.0,0.0,0.0,-3.944301e-33,-2.5091101e-33,-0.5111551
106873841,nan,nan,nan,2.1373632,0.0,nan,nan,-0.055050924,0.0,0.0,0.0,0.0,0.0,0.0,-1.8969578e-05,-1.2067224e-05,-0.51415443
106974687,nan,nan,nan,2.1373632,0.0,nan,nan,-0.05186049,0.0,0.0,0.0,0.0,0.0,0.0,6.055892e-06,3.852368e-06,-0.5131565
107073930,nan,nan,nan,2.1373632,0.0,nan,nan,-0.047744986,0.0,0.0,0.0,0.0,0.0,0.0,8.510608e-08,5.4139e-08,-0.5200588
107174521,nan,nan,nan,2.1373632,0.0,nan,nan,-0.053329546,0.0,0.0,0.0,0.0,0.0,0.0,-2.824548e-09,-1.7967953e-09,-0.52982813
107274210,nan,nan,nan,2.1373632,0.0,nan,nan,-0.05334226,0.0,0.0,0.0,0.0,0.0,0.0,-1.9651781e-05,-1.2501197e-05,-0.5326434
107394389,nan,nan,nan,2.1373632,0.0,nan,nan,-0.055557165,0.0,0.0,0.0,0.0,0.0,0.0,1.237092e-06,7.869582e-07,-0.5303828
107494494,nan,nan,nan,2.1373632,0.0,nan,nan,-0.056603428,0.0,0.0,0.0,0.0,0.0,0.0,4.042393e-08,2.5715101e-08,-0.5270028
107594508,nan,nan,nan,2.1373632,0.0,nan,nan,-0.060298912,0.0,0.0,0.0,0.0,0.0,0.0,7.774355e-10,4.945544e-10,-0.5176958
107694547,nan,nan,nan,2.1373632,0.0,nan,nan,-0.063014105,0.0,0.0,0.0,0.0,0.0,0.0,-6.1287863e-12,-3.8987394e-12,-0.5102196
107794631,nan,nan,nan,2.1373632,0.0,nan,nan,-0.06327597,0.0,0.0,0.0,0.0,0.0,0.0,-3.5353093e-13,-2.248936e-13,-0.5072096
107894747,nan,nan,nan,2.1373632,0.0,nan,nan,-0.06916451,0.0,0.0,0.0,0.0,0.0,0.0,-8.526116e-15,-5.4237654e-15,-0.5234081
107994832,nan,nan,nan,2.1373632,0.0,nan,nan,-0.07579652,0.0,0.0,0.0,0.0,0.0,0.0,-1.4443248e-17,-9.187863e-18,-0.52576435
108095318,nan,nan,nan,2.1373632,0.0,nan,nan,-0.07563718,0.0,0.0,0.0,0.0,0.0,0.0,1.2601081e-17,8.015996e-18,-0.5192255
108195416,nan,nan,nan,2.1373632,0.0,nan,nan,-0.08080927,0.0,0.0,0.0,0.0,0.0,0.0,1.6508293e-19,1.0501512e-19,-0.51749986
108295497,nan,nan,nan,2.1373632,0.0,nan,nan,-0.074282564,0.0,0.0,0.0,0.0,0.0,0.0,-6.189733e-21,-3.9375094e-21,-0.52148604
108396323,nan,nan,nan,2.1373632,0.0,nan,nan,-0.07864483,0.0,0.0,0.0,0.0,0.0,0.0,-1.3913026e-22,-8.850571e-23,-0.5216404
108495369,nan,nan,nan,2.1373632,0.0,nan,nan,-0.08040197,0.0,0.0,0.0,0.0,0.0,0.0,-2.1702565e-24,-1.3805774e-24,-0.52428055
108596277,nan,nan,nan,2.1373632,0.0,nan,nan,-0.081915535,0.0,0.0,0.0,0.0,0.0,0.0,5.19053e-26,3.301881e-26,-0.53128636
108695572,nan,nan,nan,2.1373632,0.0,nan,nan,-0.082687214,0.0,0.0,0.0,0.0,0.0,0.0,1.4351241e-27,9.1293355e-28,-0.5230482
108815741,nan,nan,nan,2.1373632,0.0,nan,nan,-0.08025097,0.0,0.0,0.0,0.0,0.0,0.0,-0.0026973626,-0.0017158883,-0.5089909
108915802,nan,nan,nan,2.1373632,0.0,nan,nan,-0.083918646,0.0,0.0,0.0,0.0,0.0,0.0,-0.015467141,-0.009839199,-0.5132037
109016022,nan,nan,nan,2.1373632,0.0,nan,nan,-0.085879244,0.0,0.0,0.0,0.0,0.0,0.0,-0.01717487,-0.010925545,-0.52806956
109116111,nan,nan,nan,2.1373632,0.0,nan,nan,-0.08533843,0.0,0.0,0.0,0.0,0.0,0.0,-0.01729853,-0.01100421,-0.52867746
109216145,nan,nan,nan,2.1373632,0.0,nan,nan,-0.08267013,0.0,0.0,0.0,0.0,0.0,0.0,-0.018474793,-0.011752473,-0.52485806
109316188,nan,nan,nan,2.1373632,0.0,nan,nan,-0.07435925,0.0,0.0,0.0,0.0,0.0,0.0,-0.017507812,-0.011137341,-0.5241087
109416272,nan,nan,nan,2.1373632,0.0,nan,nan,-0.091683544,0.0,0.0,0.0,0.0,0.0,0.0,-0.016531734,-0.010516425,-0.5284117
109516352,nan,nan,nan,2.1373632,0.0,nan,nan,-0.0969979,0.0,0.0,0.0,0.0,0.0,0.0,-0.0006355383,-0.00040428853,-0.5355777
109616518,nan,nan,nan,2.1373632,0.0,nan,nan,-0.09117611,0.0,0.0,0.0,0.0,0.0,0.0,-1.8969913e-05,-1.2067437e-05,-0.5242047
109716912,nan,nan,nan,2.1373632,0.0,nan,nan,-0.09726612,0.0,0.0,0.0,0.0,0.0,0.0,-1.5821573e-08,-1.00646655e-08,-0.51151466
109817043,nan,nan,nan,2.1373632,0.0,nan,nan,-0.09531069,0.0,0.0,0.0,0.0,0.0,0.0,2.0745196e-08,1.3196757e-08,-0.509928
109917031,nan,nan,nan,2.1373632,0.0,nan,nan,-0.095531225,0.0,0.0,0.0,0.0,0.0,0.0,2.6998634e-10,1.7174792e-10,-0.51011074
110036956,nan,nan,nan,2.1373632,0.0,nan,nan,-0.0972673,0.0,0.0,0.0,0.0,0.0,0.0,2.7405504e-12,1.7433615e-12,-0.53063047
110137897,nan,nan,nan,2.1373632,0.0,nan,nan,-0.09705392,0.0,0.0,0.0,0.0,0.0,0.0,-3.1989168e-14,-2.0349446e-14,-0.5388828
110237122,nan,nan,nan,2.1373632,0.0,nan,nan,-0.09704637,0.0,0.0,0.0,0.0,0.0,0.0,-1.3897667e-15,-8.8408e-16,-0.5290296
110337189,nan,nan,nan,2.1373632,0.0,nan,nan,-0.0938452,0.0,0.0,0.0,0.0,0.0,0.0,-2.9436324e-17,-1.8725491e-17,-0.51337546
110437392,nan,nan,nan,2.1373632,0.0,nan,nan,-0.09699035,0.0,0.0,0.0,0.0,0.0,0.0,5.499798e-20,3.4986173e-20,-0.5184298
110537542,nan,nan,nan,2.1373632,0.0,nan,nan,-0.115197584,0.0,0.0,0.0,0.0,0.0,0.0,1.16145125e-20,7.388404e-21,-0.52498037
110637598,nan,nan,nan,2.1373632,0.0,nan,nan,-0.11363475,0.0,0.0,0.0,0.0,0.0,0.0,5.249511e-22,3.3394004e-22,-0.5149626
110737745,nan,nan,nan,2.1373632,0.0,nan,nan,-0.113906935,0.0,0.0,0.0,0.0,0.0,0.0,2.5450887e-24,1.6190215e-24,-0.5124728
110837752,nan,nan,nan,2.1373632,0.0,nan,nan,-0.12272565,0.0,0.0,0.0,0.0,0.0,0.0,-4.8013817e-25,-3.0543294e-25,-0.51385754
110937786,nan,nan,nan,2.1373632,0.0,nan,nan,-0.122354895,0.0,0.0,0.0,0.0,0.0,0.0,-7.110406e-27,-4.5231824e-27,-0.5190885
111037868,nan,nan,nan,2.1373632,0.0,nan,nan,-0.12236205,0.0,0.0,0.0,0.0,0.0,0.0,1.9835829e-28,1.2618277e-28,-0.5168214
111137935,nan,nan,nan,2.1373632,0.0,nan,nan,-0.12236285,0.0,0.0,0.0,0.0,0.0,0.0,5.0696912e-30,3.2250107e-30,-0.5146913
111258046,nan,nan,nan,2.1373632,0.0,nan,nan,-0.12208986,0.0,0.0,0.0,0.0,0.0,0.0,8.962475e-32,5.701349e-32,-0.531662
111358566,nan,nan,nan,2.1373632,0.0,nan,nan,-0.11914539,0.0,0.0,0.0,0.0,0.0,0.0,1.0232989e-33,6.509567e-34,-0.5273896
111458468,nan,nan,nan,2.1373632,0.0,nan,nan,-0.12230643,0.0,0.0,0.0,0.0,0.0,0.0,-4.992301e-35,-3.17578e-35,-0.51635325
111558461,nan,nan,nan,2.1373632,0.0,nan,nan,-0.12236325,0.0,0.0,0.0,0.0,0.0,0.0,-9.97149e-37,-6.3432194e-37,-0.515552
111658592,nan,nan,nan,2.1373632,0.0,nan,nan,-0.12236285,0.0,0.0,0.0,0.0,0.0,0.0,6.801932e-39,4.32695e-39,-0.5229319
111758635,nan,nan,nan,2.1373632,0.0,nan,nan,-0.12236285,0.0,0.0,0.0,0.0,0.0,0.0,4.65415e-40,2.96066e-40,-0.5372171
111858696,nan,nan,nan,2.1373632,0.0,nan,nan,-0.12236285,0.0,0.0,0.0,0.0,0.0,0.0,1.5798e-41,1.005e-41,-0.5341649
111958840,nan,nan,nan,2.1373632,0.0,nan,nan,-0.12236285,0.0,0.0,0.0,0.0,0.0,0.0,3.4e-44,2.1e-44,-0.52455866
