timestamp,ref_timestamp,ref_lat,ref_lon,x,y,z,delta_xy[0],delta_xy[1],delta_z,vx,vy,vz,z_deriv,delta_vxy[0],delta_vxy[1],delta_vz,ax,ay,az,yaw,ref_alt,dist_bottom,dist_bottom_rate,eph,epv,evh,evv,vxy_max,vz_max,hagl_min,hagl_max,xy_valid,z_valid,v_xy_valid,v_z_valid,xy_reset_counter,z_reset_counter,vxy_reset_counter,vz_reset_counter,xy_global,z_global,dist_bottom_valid
29591068,0,0.0,0.0,0.0,0.0,0.15308349,2.0315123e-07,-2.1491606e-07,0.0,0.006936996,-0.00033185582,0.01714939,0.024934003,5.0749746e-05,-5.368875e-05,0.0,0.010552841,-0.023973037,0.030556478,2.0995626,0.0,0.10985412,-0.01714939,0.12131464,0.24397191,0.10319961,0.104746446,inf,inf,inf,inf,0,1,0,1,1,0,1,1,0,0,0
29687069,0,0.0,0.0,0.0,0.0,0.15971836,2.0315123e-07,-2.1491606e-07,0.0,0.0065666647,-1.5798261e-05,0.01886099,0.030517409,5.0749746e-05,-5.368875e-05,0.0,0.0052489927,-0.008131967,0.0147144515,2.1000412,0.0,0.10521266,-0.01886099,0.12191843,0.2445863,0.10351631,0.10490852,inf,inf,inf,inf,0,1,0,1,1,0,1,1,0,0,0
29791103,0,0.0,0.0,0.0,0.0,0.16699895,2.0315123e-07,-2.1491606e-07,0.0,0.0072078914,-2.386086e-05,0.020324407,0.035629094,5.0749746e-05,-5.368875e-05,0.0,-0.00061288616,0.008604334,-0.015391723,2.1004667,0.0,0.10732436,-0.020324407,0.121384814,0.24404317,0.103220254,0.10476257,inf,inf,inf,inf,0,1,0,1,1,0,1,1,0,0,0
29895076,0,0.0,0.0,0.0,0.0,0.17436767,2.0315123e-07,-2.1491606e-07,0.0,0.00740242,-0.00045493979,0.023012357,0.041380882,5.0749746e-05,-5.368875e-05,0.0,0.0042465096,-0.0063376045,0.025429618,2.1009321,0.0,0.107667655,-0.023012357,0.12087377,0.24351236,0.102940746,0.1046216,inf,inf,inf,inf,0,1,0,1,1,0,1,1,0,0,0
29998269,0,0.0,0.0,0.0,0.0,0.18079469,2.0315123e-07,-2.1491606e-07,0.0,0.0076992144,-0.00043350406,0.024745163,0.044688284,5.0749746e-05,-5.368875e-05,0.0,-0.11635142,-0.00023786348,0.11734098,2.1017032,0.0,0.1,-0.024745163,0.122181594,0.24481264,0.10363429,0.10497276,inf,inf,inf,inf,0,1,0,1,1,0,1,1,0,0,0
30094269,0,0.0,0.0,0.0,0.0,0.18530972,2.0315123e-07,-2.1491606e-07,0.0,0.008157413,-0.00015924979,0.024768103,0.044549104,5.0749746e-05,-5.368875e-05,0.0,-0.011445562,0.16111466,0.08433491,2.1011314,0.0,0.1,-0.024768103,0.12101032,0.24361911,0.102995485,0.10465824,inf,inf,inf,inf,0,1,0,1,1,0,1,1,0,0,0
30198268,0,0.0,0.0,0.0,0.0,0.18828748,2.0315123e-07,-2.1491606e-07,0.0,0.0069010267,-0.00076420826,0.02538176,0.043220595,5.0749746e-05,-5.368875e-05,0.0,-0.007983974,-0.012269951,-0.019083906,2.101347,0.0,0.1,-0.02538176,0.120479375,0.24305014,0.102700055,0.10452379,inf,inf,inf,inf,0,1,0,1,1,0,1,1,0,0,0
30302282,0,0.0,0.0,0.0,0.0,0.19191846,2.0315123e-07,-2.1491606e-07,0.0,0.0075963535,-0.00029890312,0.02575521,0.042435393,5.0749746e-05,-5.368875e-05,0.0,0.03913625,-0.015165632,0.040047735,2.1021414,0.0,0.1,-0.02575521,0.12180908,0.2443659,0.103404716,0.104882985,inf,inf,inf,inf,0,1,0,1,1,0,1,1,0,0,0
30398275,0,0.0,0.0,0.0,0.0,0.192918,2.0315123e-07,-2.1491606e-07,0.0,0.008319735,-0.0003772022,0.026070353,0.039478686,5.0749746e-05,-5.368875e-05,0.0,0.028362157,-0.0228285,0.023173375,2.102231,0.0,0.1,-0.026070353,0.12073141,0.2432291,0.102825366,0.10458893,inf,inf,inf,inf,0,1,0,1,1,0,1,1,0,0,0
30502269,0,0.0,0.0,0.0,0.0,0.19327107,2.0315123e-07,-2.1491606e-07,0.0,0.008147616,-0.0008564827,0.024972148,0.03463563,5.0749746e-05,-5.368875e-05,0.0,0.0780892,-0.022950895,0.005436998,2.1029837,0.0,0.1,-0.024972148,0.12031572,0.24276148,0.10259496,0.10447433,inf,inf,inf,inf,0,1,0,1,1,0,1,1,0,0,0
30605469,0,0.0,0.0,0.0,0.0,0.19437219,2.0315123e-07,-2.1491606e-07,0.0,0.0068685533,-0.0006586026,0.024771614,0.031990953,5.0749746e-05,-5.368875e-05,0.0,-0.064348,0.063838646,-0.08969015,2.103641,0.0,0.1,-0.024771614,0.119921245,0.24230775,0.10237566,0.104365826,inf,inf,inf,inf,0,1,0,1,1,0,1,1,0,0,0
30709476,0,0.0,0.0,0.0,0.0,0.1957006,2.0315123e-07,-2.1491606e-07,0.0,0.0066349595,-0.0005787386,0.024626631,0.029791243,5.0749746e-05,-5.368875e-05,0.0,-0.07659966,0.027222812,-0.20471053,2.1041193,0.0,0.1,-0.024626631,0.12124008,0.24363141,0.10305876,0.10472857,inf,inf,inf,inf,0,1,0,1,1,0,1,1,0,0,0
30813468,0,0.0,0.0,0.0,0.0,0.19588378,2.0315123e-07,-2.1491606e-07,0.0,0.0062260143,-0.0009112423,0.02426386,0.02658083,5.0749746e-05,-5.368875e-05,0.0,-0.011134947,-0.053935472,-0.14472851,2.104867,0.0,0.1,-0.02426386,0.122397475,0.24484266,0.103602886,0.105061464,inf,inf,inf,inf,0,1,0,1,1,0,1,1,0,0,0
30909506,0,0.0,0.0,0.0,0.0,0.19690621,2.0315123e-07,-2.1491606e-07,0.0,0.006284938,-0.0008437692,0.024288256,0.02510308,5.0749746e-05,-5.368875e-05,0.0,-0.011274029,0.008184741,-0.038251746,2.1054807,0.0,0.1,-0.024288256,0.12291498,0.24543318,0.10380584,0.10521277,inf,inf,inf,inf,0,1,0,1,1,0,1,1,0,0,0
31013469,0,0.0,0.0,0.0,0.0,0.19832711,2.0315123e-07,-2.1491606e-07,0.0,0.005488501,-0.0007908018,0.024252564,0.023895867,5.0749746e-05,-5.368875e-05,0.0,0.023281742,-0.03572588,-0.19839497,2.1058707,0.0,0.1,-0.024252564,0.12401294,0.24664666,0.10429486,0.105523035,inf,inf,inf,inf,0,1,0,1,1,0,1,1,0,0,0
31117469,0,0.0,0.0,0.0,0.0,0.2005016,2.0315123e-07,-2.1491606e-07,0.0,0.0052024843,-0.00034966166,0.024232468,0.023678763,5.0749746e-05,-5.368875e-05,0.0,-0.008929893,0.012144166,-0.08576369,2.1062741,0.0,0.1,-0.024232468,0.12322226,0.24598803,0.10377876,0.105332956,inf,inf,inf,inf,0,1,0,1,1,0,1,1,0,0,0
31220669,0,0.0,0.0,0.0,0.0,0.20081465,2.0315123e-07,-2.1491606e-07,0.0,0.0048220335,-9.8416225e-05,0.023473864,0.020917041,5.0749746e-05,-5.368875e-05,0.0,0.022092171,0.05618386,0.12408842,2.106684,0.0,0.1,-0.023473864,0.12246583,0.24533959,0.10330524,0.105147965,inf,inf,inf,inf,0,1,0,1,1,0,1,1,0,0,0
31316685,0,0.0,0.0,0.0,0.0,0.19848894,2.0315123e-07,-2.1491606e-07,0.0,0.004575071,0.0004342867,0.021910524,0.0152602745,5.0749746e-05,-5.368875e-05,0.0,0.055315252,-0.028571656,-0.08165931,2.1069915,0.0,0.1,-0.021910524,0.12282431,0.24580391,0.103426196,0.10527058,inf,inf,inf,inf,0,1,0,1,1,0,1,1,0,0,0
31420693,0,0.0,0.0,0.0,0.0,0.19545108,2.0315123e-07,-2.1491606e-07,0.0,0.0038976604,0.00043796937,0.021327531,0.010341357,5.0749746e-05,-5.368875e-05,0.0,0.029208496,-0.0155551685,-0.16156776,2.107418,0.0,0.1,-0.021327531,0.1238162,0.246948,0.10386694,0.10555729,inf,inf,inf,inf,0,1,0,1,1,0,1,1,0,0,0
31524689,0,0.0,0.0,0.0,0.0,0.1894368,2.0315123e-07,-2.1491606e-07,0.0,0.0032447644,0.00041650923,0.019387843,0.0017749345,5.0749746e-05,-5.368875e-05,0.0,-0.0069642286,-0.011352918,-0.14917178,2.1078281,0.0,0.1,-0.019387843,0.12478722,0.24807797,0.10429523,0.10583724,inf,inf,inf,inf,0,1,0,1,1,0,1,1,0,0,0
31619896,0,0.0,0.0,0.0,0.0,0.18535823,2.0315123e-07,-2.1491606e-07,0.0,0.00269921,1.22166375e-05,0.017657496,-0.0036380277,5.0749746e-05,-5.368875e-05,0.0,0.0114226,-0.08205158,-0.20577702,2.1081684,0.0,0.1,-0.017657496,0.12500693,0.24848673,0.10431306,0.10592025,inf,inf,inf,inf,0,1,0,1,1,0,1,1,0,0,0
31727924,0,0.0,0.0,0.0,0.0,0.18199682,2.0315123e-07,-2.1491606e-07,0.0,0.0026520663,0.00032501915,0.016419876,-0.0072921957,5.0749746e-05,-5.368875e-05,0.0,0.030053824,0.024822066,0.22239703,2.108547,0.0,0.1,-0.016419876,0.125779,0.24950194,0.10460283,0.10615444,inf,inf,inf,inf,0,1,0,1,1,0,1,1,0,0,0
31831869,0,0.0,0.0,0.0,0.0,0.18083118,2.0315123e-07,-2.1491606e-07,0.0,0.0024122386,0.00046058776,0.016489625,-0.0070433114,5.0749746e-05,-5.368875e-05,0.0,-0.02630088,0.021564553,0.19566521,2.1089687,0.0,0.1,-0.016489625,0.12485817,0.24884449,0.104065016,0.10590793,inf,inf,inf,inf,0,1,0,1,1,0,1,1,0,0,0
31927910,0,0.0,0.0,0.0,0.0,0.183314,2.0315123e-07,-2.1491606e-07,0.0,0.0016484573,0.0012293406,0.017428044,-0.0025276751,5.0749746e-05,-5.368875e-05,0.0,0.0027275612,-0.0071901926,0.14480923,2.1093664,0.0,0.10859394,-0.017428044,0.12312601,0.2472819,0.103091955,0.10546507,inf,inf,inf,inf,0,1,0,1,1,0,1,1,0,0,0
32031904,0,0.0,0.0,0.0,0.0,0.18825185,2.0315123e-07,-2.1491606e-07,0.0,0.0015123128,0.0013600033,0.018431297,0.0039323014,5.0749746e-05,-5.368875e-05,0.0,-0.0030330224,0.06799368,0.17837137,2.109938,0.0,0.10671669,-0.018431297,0.12405769,0.24833769,0.103562325,0.10572977,inf,inf,inf,inf,0,1,0,1,1,0,1,1,0,0,0
32135869,0,0.0,0.0,0.0,0.0,0.19212669,2.0315123e-07,-2.1491606e-07,0.0,0.002082035,0.0018446477,0.018011075,0.0071341894,5.0749746e-05,-5.368875e-05,0.0,0.011647478,0.02581264,0.10829318,2.1105564,0.0,0.10202259,-0.018011075,0.12318574,0.24752548,0.103110254,0.10550394,inf,inf,inf,inf,0,1,0,1,1,0,1,1,0,0,0
32239073,0,0.0,0.0,0.0,0.0,0.19365168,2.0315123e-07,-2.1491606e-07,0.0,0.0028664637,0.0023354958,0.017868722,0.007847254,5.0749746e-05,-5.368875e-05,0.0,0.035306245,-0.055244662,-0.23660818,2.1110964,0.0,0.1,-0.017868722,0.122369714,0.24673639,0.10269917,0.105288014,inf,inf,inf,inf,0,1,0,1,1,0,1,1,0,0,0
32343075,0,0.0,0.0,0.0,0.0,0.19232559,2.0315123e-07,-2.1491606e-07,0.0,0.0028414926,0.0025992673,0.016558457,0.0045461007,5.0749746e-05,-5.368875e-05,0.0,0.03173966,-0.013621686,0.07961533,2.111545,0.0,0.1,-0.016558457,0.12334612,0.24779674,0.1032155,0.10556295,inf,inf,inf,inf,0,1,0,1,1,0,1,1,0,0,0
32439068,0,0.0,0.0,0.0,0.0,0.1902779,2.0315123e-07,-2.1491606e-07,0.0,0.0024735436,0.002588545,0.014740749,0.00045662126,5.0749746e-05,-5.368875e-05,0.0,0.010085521,-0.021815082,-0.023058841,2.1119537,0.0,0.1,-0.014740749,0.1217824,0.24624544,0.10238892,0.10515486,inf,inf,inf,inf,0,1,0,1,1,0,1,1,0,0,0
32543070,0,0.0,0.0,0.0,0.0,0.18777445,2.0315123e-07,-2.1491606e-07,0.0,0.0032203833,0.002750531,0.012857076,-0.003597501,5.0749746e-05,-5.368875e-05,0.0,0.046408378,-0.07724208,-0.05067196,2.1123447,0.0,0.1,-0.012857076,0.1228006,0.24732038,0.10293902,0.105437696,inf,inf,inf,inf,0,1,0,1,1,0,1,1,0,0,0
32647091,0,0.0,0.0,0.0,0.0,0.18657123,2.0315123e-07,-2.1491606e-07,0.0,0.0034163625,0.0030854424,0.011662842,-0.005378863,5.0749746e-05,-5.368875e-05,0.0,0.0095948,-0.062090937,-0.18313284,2.1126442,0.0,0.1,-0.011662842,0.123746626,0.24835423,0.10342395,0.10570272,inf,inf,inf,inf,0,1,0,1,1,0,1,1,0,0,0
32750312,0,0.0,0.0,0.0,0.0,0.18512888,2.0315123e-07,-2.1491606e-07,0.0,0.0034325714,0.003496092,0.010692971,-0.006867845,5.0749746e-05,-5.368875e-05,0.0,-0.029616153,0.030765181,0.12931696,2.1132054,0.0,0.1,-0.010692971,0.122807056,0.24747147,0.102906406,0.105457865,inf,inf,inf,inf,0,1,0,1,1,0,1,1,0,0,0
32854268,0,0.0,0.0,0.0,0.0,0.18221626,2.0315123e-07,-2.1491606e-07,0.0,0.0027853723,0.0035053685,0.009090056,-0.010269227,5.0749746e-05,-5.368875e-05,0.0,0.08501608,-0.018458555,0.06302051,2.1138735,0.0,0.1,-0.009090056,0.12380736,0.24852453,0.103440434,0.10573413,inf,inf,inf,inf,0,1,0,1,1,0,1,1,0,0,0
32950269,0,0.0,0.0,0.0,0.0,0.18027873,2.0315123e-07,-2.1491606e-07,0.0,0.0036410454,0.0041129054,0.00791266,-0.012030084,5.0749746e-05,-5.368875e-05,0.0,-0.02567687,-0.07108428,0.013300314,2.1143694,0.0,0.1,-0.00791266,0.124012,0.24879974,0.10352081,0.10581065,inf,inf,inf,inf,0,1,0,1,1,0,1,1,0,0,0
33054274,0,0.0,0.0,0.0,0.0,0.17827365,2.0315123e-07,-2.1491606e-07,0.0,0.0030902394,0.003195469,0.006320933,-0.014048814,5.0749746e-05,-5.368875e-05,0.0,0.19743301,-0.22192793,-0.2889495,2.1149344,0.0,0.1,-0.006320933,0.12302415,0.24787423,0.102975585,0.10555483,inf,inf,inf,inf,0,1,0,1,1,0,1,1,0,0,0
33158291,0,0.0,0.0,0.0,0.0,0.17384897,2.0315123e-07,-2.1491606e-07,0.0,0.0022120948,0.0047831307,0.004278656,-0.018575402,5.0749746e-05,-5.368875e-05,0.0,0.048593078,-0.02927457,-0.17009364,2.115602,0.0,0.1,-0.004278656,0.123934895,0.24886718,0.103436455,0.105810985,inf,inf,inf,inf,0,1,0,1,1,0,1,1,0,0,0
33253468,0,0.0,0.0,0.0,0.0,0.1729095,2.0315123e-07,-2.1491606e-07,0.0,0.003209606,0.005377659,0.00424489,-0.01743224,5.0749746e-05,-5.368875e-05,0.0,-0.021118222,0.08043731,-0.0033423663,2.1159687,0.0,0.10103965,-0.00424489,0.122400366,0.24731976,0.1026389,0.10539943,inf,inf,inf,inf,0,1,0,1,1,0,1,1,0,0,0
33357468,0,0.0,0.0,0.0,0.0,0.17247027,2.0315123e-07,-2.1491606e-07,0.0,0.0022269762,0.0045660115,0.0036510048,-0.016368875,5.0749746e-05,-5.368875e-05,0.0,-0.0070873713,-0.11377855,-0.07829366,2.1164446,0.0,0.10053837,-0.0036510048,0.121596076,0.24647805,0.10223965,0.10518153,inf,inf,inf,inf,0,1,0,1,1,0,1,1,0,0,0
33461468,0,0.0,0.0,0.0,0.0,0.1726077,2.0315123e-07,-2.1491606e-07,0.0,0.0024164144,0.0047165095,0.0044359965,-0.013550176,5.0749746e-05,-5.368875e-05,0.0,0.11999122,-0.106731825,0.32073814,2.117045,0.0,0.10223149,-0.0044359965,0.12260213,0.24748187,0.1027925,0.105470605,inf,inf,inf,inf,0,1,0,1,1,0,1,1,0,0,0
33565469,0,0.0,0.0,0.0,0.0,0.17071044,2.0315123e-07,-2.1491606e-07,0.0,0.0025008803,0.004852926,0.003420851,-0.014756248,5.0749746e-05,-5.368875e-05,0.0,0.068925776,-0.15485698,0.14570978,2.1175785,0.0,0.1,-0.003420851,0.1219023,0.24669752,0.1024653,0.10527815,inf,inf,inf,inf,0,1,0,1,1,0,1,1,0,0,0
33661475,0,0.0,0.0,0.0,0.0,0.16945514,2.0315123e-07,-2.1491606e-07,0.0,0.0017819505,0.0049790465,0.0022537413,-0.015520053,5.0749746e-05,-5.368875e-05,0.0,-0.09791608,0.28516483,0.09509398,2.118144,0.0,0.1,-0.0022537413,0.12064953,0.24530447,0.101858795,0.104929045,inf,inf,inf,inf,0,1,0,1,1,0,1,1,0,0,0
33765469,0,0.0,0.0,0.0,0.0,0.16772509,2.0315123e-07,-2.1491606e-07,0.0,0.0020419017,0.005247391,0.00041331936,-0.017172491,5.0749746e-05,-5.368875e-05,0.0,-0.1265809,-0.032289922,-0.23271582,2.1185331,0.0,0.10438332,-0.00041331936,0.12186856,0.24646011,0.102550894,0.10526169,inf,inf,inf,inf,0,1,0,1,1,0,1,1,0,0,0
33864668,0,0.0,0.0,0.0,0.0,0.16814336,2.0315123e-07,-2.1491606e-07,0.0,0.0015462443,0.0050432296,0.00017352894,-0.015212974,5.0749746e-05,-5.368875e-05,0.0,-0.109047756,-0.094226934,-0.09969824,2.1187863,0.0,0.106796086,-0.00017352894,0.1206859,0.24511738,0.10197857,0.104932144,inf,inf,inf,inf,0,1,0,1,1,0,1,1,0,0,0
33968696,0,0.0,0.0,0.0,0.0,0.16866301,2.0315123e-07,-2.1491606e-07,0.0,0.001759571,0.0057971994,0.00011166316,-0.013137706,5.0749746e-05,-5.368875e-05,0.0,-0.09644885,0.2172431,-0.169811,2.1191082,0.0,0.10207029,-0.00011166316,0.12042778,0.24472184,0.101937644,0.104822725,inf,inf,inf,inf,0,1,0,1,1,0,1,1,0,0,0
34072669,0,0.0,0.0,0.0,0.0,0.16774927,2.0315123e-07,-2.1491606e-07,0.0,0.001847165,0.006145811,-0.0003958803,-0.013067977,5.0749746e-05,-5.368875e-05,0.0,-0.054116875,0.08990243,-0.21066815,2.1195302,0.0,0.10763569,0.0003958803,0.11996403,0.24409531,0.10173404,0.104691185,inf,inf,inf,inf,0,1,0,1,1,0,1,1,0,0,0
34176685,0,0.0,0.0,0.0,0.0,0.1693632,2.0315123e-07,-2.1491606e-07,0.0,0.0022347376,0.006461387,0.00024349988,-0.009494236,5.0749746e-05,-5.368875e-05,0.0,0.040640805,0.015042806,-0.02592651,2.11997,0.0,0.10642606,-0.00024349988,0.12128825,0.24532998,0.1024684,0.10505384,inf,inf,inf,inf,0,1,0,1,1,0,1,1,0,0,0
34272669,0,0.0,0.0,0.0,0.0,0.16831505,2.0315123e-07,-2.1491606e-07,0.0,0.002193001,0.006438249,-0.000575093,-0.010456361,5.0749746e-05,-5.368875e-05,0.0,0.07629514,-0.12525205,-0.078969695,2.1202068,0.0,0.1,0.000575093,0.12193241,0.24588856,0.10282028,0.10523183,inf,inf,inf,inf,0,1,0,1,1,0,1,1,0,0,0
34375875,0,0.0,0.0,0.0,0.0,0.16250226,2.0315123e-07,-2.1491606e-07,0.0,0.0026798681,0.0070853746,-0.00236117,-0.01681862,5.0749746e-05,-5.368875e-05,0.0,0.15109974,-0.025151681,0.06252074,2.1203952,0.0,0.1,0.00236117,0.121323526,0.24521306,0.102467746,0.10507451,inf,inf,inf,inf,0,1,0,1,1,0,1,1,0,0,0
34479906,0,0.0,0.0,0.0,0.0,0.15588665,2.0315123e-07,-2.1491606e-07,0.0,0.002753596,0.0064139944,-0.004663795,-0.02362211,5.0749746e-05,-5.368875e-05,0.0,-0.02354687,-0.017857298,-0.11544983,2.1204987,0.0,0.1,0.004663795,0.1207313,0.24455278,0.102124155,0.10492178,inf,inf,inf,inf,0,1,0,1,1,0,1,1,0,0,0
34583875,0,0.0,0.0,0.0,0.0,0.1519545,2.0315123e-07,-2.1491606e-07,0.0,0.002435224,0.006842421,-0.006250391,-0.0263624,5.0749746e-05,-5.368875e-05,0.0,-0.09876148,0.049426515,-0.23950517,2.1207895,0.0,0.1,0.006250391,0.12188807,0.24569018,0.10270991,0.105260566,inf,inf,inf,inf,0,1,0,1,1,0,1,1,0,0,0
34679876,0,0.0,0.0,0.0,0.0,0.14942817,2.0315123e-07,-2.1491606e-07,0.0,0.0014107836,0.007125741,-0.007364372,-0.027263207,5.0749746e-05,-5.368875e-05,0.0,0.12632349,-0.048163343,-0.20821281,2.1211877,0.0,0.1,0.007364372,0.12069344,0.24440664,0.102057524,0.104943044,inf,inf,inf,inf,0,1,0,1,1,0,1,1,0,0,0
34783899,0,0.0,0.0,0.0,0.0,0.14712879,2.0315123e-07,-2.1491606e-07,0.0,0.0013853688,0.007620302,-0.0074737417,-0.026586208,5.0749746e-05,-5.368875e-05,0.0,0.16910164,-0.16594271,0.040912457,2.1216724,0.0,0.1047492,0.0074737417,0.12193025,0.24563107,0.102690585,0.10529223,inf,inf,inf,inf,0,1,0,1,1,0,1,1,0,0,0
34887869,0,0.0,0.0,0.0,0.0,0.14741947,2.0315123e-07,-2.1491606e-07,0.0,0.0017264128,0.007109933,-0.008385629,-0.02421853,5.0749746e-05,-5.368875e-05,0.0,0.23678434,-0.010675789,0.19249143,2.1222,0.0,0.10948034,0.008385629,0.12306405,0.2468032,0.10322748,0.10561789,inf,inf,inf,inf,0,1,0,1,1,0,1,1,0,0,0
34983101,0,0.0,0.0,0.0,0.0,0.14855467,2.0315123e-07,-2.1491606e-07,0.0,0.00052417617,0.0069173747,-0.009547866,-0.021820849,5.0749746e-05,-5.368875e-05,0.0,-0.14083563,0.12663056,-0.15009554,2.1225624,0.0,0.10976051,0.009547866,0.123452574,0.24726732,0.10334795,0.10574499,inf,inf,inf,inf,0,1,0,1,1,0,1,1,0,0,0
35087069,0,0.0,0.0,0.0,0.0,0.15078641,2.0315123e-07,-2.1491606e-07,0.0,8.53738e-05,0.0073400657,-0.008376134,-0.016251422,5.0749746e-05,-5.368875e-05,0.0,-0.19457243,0.1569165,-0.025027903,2.1229205,0.0,0.111511394,0.008376134,0.12260349,0.24650055,0.102816895,0.105542116,inf,inf,inf,inf,0,1,0,1,1,0,1,1,0,0,0
35191068,0,0.0,0.0,0.0,0.0,0.15520407,2.0315123e-07,-2.1491606e-07,0.0,0.00039388155,0.006592873,-0.006921007,-0.00894753,5.0749746e-05,-5.368875e-05,0.0,0.04549376,-0.0637732,-0.059488676,2.1232672,0.0,0.11639671,0.006921007,0.123490766,0.2475169,0.1031902,0.105821036,inf,inf,inf,inf,0,1,0,1,1,0,1,1,0,0,0
35287080,0,0.0,0.0,0.0,0.0,0.15773338,2.0315123e-07,-2.1491606e-07,0.0,0.00071303354,0.0061944397,-0.006141257,-0.0050535146,5.0749746e-05,-5.368875e-05,0.0,0.0016445694,0.13952437,0.15805034,2.123642,0.0,0.10823551,0.006141257,0.12378852,0.24793072,0.10326586,0.105926275,inf,inf,inf,inf,0,1,0,1,1,0,1,1,0,0,0
35391068,0,0.0,0.0,0.0,0.0,0.15959746,2.0315123e-07,-2.1491606e-07,0.0,0.00032068073,0.0062361252,-0.0067457603,-0.0035558662,5.0749746e-05,-5.368875e-05,0.0,-0.07431321,0.1232109,-0.18948694,2.1239898,0.0,0.104459584,0.0067457603,0.122899905,0.24713112,0.1027362,0.1057116,inf,inf,inf,inf,0,1,0,1,1,0,1,1,0,0,0
35494269,0,0.0,0.0,0.0,0.0,0.15883127,2.0315123e-07,-2.1491606e-07,0.0,-0.000626228,0.006169044,-0.0070387516,-0.0045037405,5.0749746e-05,-5.368875e-05,0.0,-0.16724257,0.1321448,0.085474856,2.1244383,0.0,0.10032523,0.0070387516,0.12206425,0.24635485,0.102254376,0.10550572,inf,inf,inf,inf,0,1,0,1,1,0,1,1,0,0,0
35598269,0,0.0,0.0,0.0,0.0,0.16035934,2.0315123e-07,-2.1491606e-07,0.0,-0.00081301446,0.0053417594,-0.007082887,-0.0027503145,5.0749746e-05,-5.368875e-05,0.0,-0.13889964,-0.06475693,0.13599248,2.1248317,0.0,0.105081335,0.007082887,0.121312894,0.24562001,0.101846755,0.10531627,inf,inf,inf,inf,0,1,0,1,1,0,1,1,0,0,0
35694268,0,0.0,0.0,0.0,0.0,0.15837672,2.0315123e-07,-2.1491606e-07,0.0,0.00019912998,0.0051022195,-0.008343595,-0.005852999,5.0749746e-05,-5.368875e-05,0.0,0.06730598,-0.03946643,0.09260951,2.1251988,0.0,0.1,0.008343595,0.12170028,0.2460378,0.10204047,0.10544696,inf,inf,inf,inf,0,1,0,1,1,0,1,1,0,0,0
35798268,0,0.0,0.0,0.0,0.0,0.15848957,2.0315123e-07,-2.1491606e-07,0.0,-0.00055426045,0.0053553847,-0.00925816,-0.006079225,5.0749746e-05,-5.368875e-05,0.0,-0.13302402,-0.051078167,0.03504461,2.1254966,0.0,0.1080115,0.00925816,0.1210358,0.24534927,0.101702966,0.10527523,inf,inf,inf,inf,0,1,0,1,1,0,1,1,0,0,0
35902275,0,0.0,0.0,0.0,0.0,0.16032556,2.0315123e-07,-2.1491606e-07,0.0,-0.00042259472,0.0056843157,-0.009168258,-0.0037113843,5.0749746e-05,-5.368875e-05,0.0,-0.15487224,-0.09224735,-0.2691392,2.1256835,0.0,0.11186117,0.009168258,0.122195646,0.24653262,0.10232903,0.10560419,inf,inf,inf,inf,0,1,0,1,1,0,1,1,0,0,0
35997468,0,0.0,0.0,0.0,0.0,0.16109322,2.0315123e-07,-2.1491606e-07,0.0,0.0013654944,0.004438472,-0.008519111,-0.0022135926,5.0749746e-05,-5.368875e-05,0.0,0.08827925,0.104958184,0.16093117,2.1257806,0.0,0.106091544,0.008519111,0.12092482,0.24520168,0.10167508,0.105262905,inf,inf,inf,inf,0,1,0,1,1,0,1,1,0,0,0
36101486,0,0.0,0.0,0.0,0.0,0.1627144,2.0315123e-07,-2.1491606e-07,0.0,0.0011211727,0.0038909954,-0.008007757,-0.00013409343,5.0749746e-05,-5.368875e-05,0.0,0.028901475,0.15605272,0.09522104,2.125861,0.0,0.1054963,0.008007757,0.12200874,0.24634914,0.10223053,0.10557416,inf,inf,inf,inf,0,1,0,1,1,0,1,1,0,0,0
36205469,0,0.0,0.0,0.0,0.0,0.16351263,2.0315123e-07,-2.1491606e-07,0.0,0.0004916237,0.0035474757,-0.008709766,-0.00023235385,5.0749746e-05,-5.368875e-05,0.0,0.03162195,-0.07370027,-0.2943603,2.1260164,0.0,0.10431017,0.008709766,0.121206045,0.24555725,0.101779364,0.10537714,inf,inf,inf,inf,0,1,0,1,1,0,1,1,0,0,0
36309505,0,0.0,0.0,0.0,0.0,0.16296063,2.0315123e-07,-2.1491606e-07,0.0,0.00046925855,0.00408118,-0.008706458,-0.0010344897,5.0749746e-05,-5.368875e-05,0.0,-0.13136525,-0.040141497,-0.042231902,2.1261942,0.0,0.1,0.008706458,0.12231628,0.24671954,0.10235741,0.10569336,inf,inf,inf,inf,0,1,0,1,1,0,1,1,0,0,0
36405469,0,0.0,0.0,0.0,0.0,0.15912795,2.0315123e-07,-2.1491606e-07,0.0,0.0017076572,0.0033966373,-0.009337148,-0.0054826764,5.0749746e-05,-5.368875e-05,0.0,0.1865558,-0.056816705,0.15772034,2.126415,0.0,0.1,0.009337148,0.12098823,0.24535665,0.101657376,0.105336696,inf,inf,inf,inf,0,1,0,1,1,0,1,1,0,0,0
36509481,0,0.0,0.0,0.0,0.0,0.1543708,2.0315123e-07,-2.1491606e-07,0.0,0.0013377809,0.00423216,-0.011315089,-0.011569732,5.0749746e-05,-5.368875e-05,0.0,0.1051765,0.08268815,0.020624688,2.126613,0.0,0.1,0.011315089,0.12037142,0.24469599,0.101347156,0.10517138,inf,inf,inf,inf,0,1,0,1,1,0,1,1,0,0,0
36612733,0,0.0,0.0,0.0,0.0,0.15049975,2.0315123e-07,-2.1491606e-07,0.0,0.000991381,0.004119023,-0.012898454,-0.015742121,5.0749746e-05,-5.368875e-05,0.0,0.0049240235,-0.06706599,-0.2003673,2.1267588,0.0,0.1,0.012898454,0.12158747,0.24591702,0.10200875,0.10551147,inf,inf,inf,inf,0,1,0,1,1,0,1,1,0,0,0
36708669,0,0.0,0.0,0.0,0.0,0.14630978,2.0315123e-07,-2.1491606e-07,0.0,0.0011283511,0.0045511546,-0.013575319,-0.018975338,5.0749746e-05,-5.368875e-05,0.0,0.09779222,0.008183631,-0.031330682,2.1268423,0.0,0.10010998,0.013575319,0.120426066,0.24465024,0.10142868,0.105190925,inf,inf,inf,inf,0,1,0,1,1,0,1,1,0,0,0
36812669,0,0.0,0.0,0.0,0.0,0.14220682,2.0315123e-07,-2.1491606e-07,0.0,0.0022031306,0.003953815,-0.014432557,-0.021814687,5.0749746e-05,-5.368875e-05,0.0,0.012573972,-0.07140461,0.05178706,2.1270292,0.0,0.1,0.014432557,0.12160372,0.24582483,0.10206146,0.10553071,inf,inf,inf,inf,0,1,0,1,1,0,1,1,0,0,0
36916669,0,0.0,0.0,0.0,0.0,0.1388003,2.0315123e-07,-2.1491606e-07,0.0,0.0022183056,0.0035409674,-0.016542511,-0.024793772,5.0749746e-05,-5.368875e-05,0.0,0.044898294,0.036942687,-0.056107588,2.1273737,0.0,0.1,0.016542511,0.12275234,0.2470186,0.10264322,0.10585355,inf,inf,inf,inf,0,1,0,1,1,0,1,1,0,0,0
37012668,0,0.0,0.0,0.0,0.0,0.13602348,2.0315123e-07,-2.1491606e-07,0.0,0.0017682122,0.004152877,-0.018501254,-0.02692768,5.0749746e-05,-5.368875e-05,0.0,-0.03328258,-0.04755785,0.007963724,2.1277342,0.0,0.101844564,0.018501254,0.123178184,0.2475067,0.10282455,0.10598073,inf,inf,inf,inf,0,1,0,1,1,0,1,1,0,0,0
37115887,0,0.0,0.0,0.0,0.0,0.13494614,2.0315123e-07,-2.1491606e-07,0.0,0.00269642,0.0044547985,-0.017582865,-0.024239386,5.0749746e-05,-5.368875e-05,0.0,-0.0057510016,0.029746078,-0.069075525,2.1281745,0.0,0.10936102,0.017582865,0.122336686,0.2467389,0.102325514,0.10576641,inf,inf,inf,inf,0,1,0,1,1,0,1,1,0,0,0
37219883,0,0.0,0.0,0.0,0.0,0.1334194,2.0315123e-07,-2.1491606e-07,0.0,0.0025839468,0.004156622,-0.018160634,-0.02382593,5.0749746e-05,-5.368875e-05,0.0,-0.04730158,8.406279e-05,-0.012928187,2.1285226,0.0,0.10159156,0.018160634,0.123299934,0.24783152,0.1027676,0.10604504,inf,inf,inf,inf,0,1,0,1,1,0,1,1,0,0,0
37323869,0,0.0,0.0,0.0,0.0,0.12921306,2.0315123e-07,-2.1491606e-07,0.0,0.002260419,0.0040905373,-0.019894265,-0.027157629,5.0749746e-05,-5.368875e-05,0.0,0.012419305,-0.09553068,-0.10288634,2.1288738,0.0,0.10371065,0.019894265,0.122292206,0.24693239,0.10216332,0.105799414,inf,inf,inf,inf,0,1,0,1,1,0,1,1,0,0,0
37427883,0,0.0,0.0,0.0,0.0,0.1282528,2.0315123e-07,-2.1491606e-07,0.0,0.003114342,0.003928805,-0.019186199,-0.024575312,5.0749746e-05,-5.368875e-05,0.0,0.14592718,0.06477979,0.032193344,2.129317,0.0,0.10920879,0.019186199,0.123284526,0.24803318,0.10264773,0.106082365,inf,inf,inf,inf,0,1,0,1,1,0,1,1,0,0,0
37523869,0,0.0,0.0,0.0,0.0,0.12738125,2.0315123e-07,-2.1491606e-07,0.0,0.0034423198,0.0033244628,-0.018515468,-0.022423258,5.0749746e-05,-5.368875e-05,0.0,0.04215813,-0.116171174,0.011930532,2.1297362,0.0,0.107145324,0.018515468,0.12182786,0.24659052,0.101868674,0.10569114,inf,inf,inf,inf,0,1,0,1,1,0,1,1,0,0,0
37627869,0,0.0,0.0,0.0,0.0,0.1264527,2.0315123e-07,-2.1491606e-07,0.0,0.0034863788,0.0030203932,-0.017906053,-0.020446878,5.0749746e-05,-5.368875e-05,0.0,-0.05904127,-0.18747725,0.0041107945,2.1300476,0.0,0.10981019,0.017906053,0.12280488,0.24767643,0.102348864,0.105969794,inf,inf,inf,inf,0,1,0,1,1,0,1,1,0,0,0
37731069,0,0.0,0.0,0.0,0.0,0.12805066,2.0315123e-07,-2.1491606e-07,0.0,0.003162378,0.0028877042,-0.017384095,-0.016309423,5.0749746e-05,-5.368875e-05,0.0,0.08858252,-0.08731228,0.01221725,2.1302514,0.0,0.115544975,0.017384095,0.12193113,0.24685869,0.101858005,0.10573897,inf,inf,inf,inf,0,1,0,1,1,0,1,1,0,0,0
37835069,0,0.0,0.0,0.0,0.0,0.13271432,2.0315123e-07,-2.1491606e-07,0.0,0.003129605,0.0027470903,-0.01600397,-0.00884661,5.0749746e-05,-5.368875e-05,0.0,0.1278529,0.07849498,-0.047845464,2.13058,0.0,0.12170024,0.01600397,0.12290816,0.24793701,0.1023484,0.10601575,inf,inf,inf,inf,0,1,0,1,1,0,1,1,0,0,0
37931069,0,0.0,0.0,0.0,0.0,0.13974315,2.0315123e-07,-2.1491606e-07,0.0,0.0034939134,0.003428235,-0.011884183,0.00264166,5.0749746e-05,-5.368875e-05,0.0,0.031524185,-0.07123376,0.1692786,2.1307824,0.0,0.12685338,0.011884183,0.12314224,0.2482597,0.102438025,0.10609955,inf,inf,inf,inf,0,1,0,1,1,0,1,1,0,0,0
38035101,0,0.0,0.0,0.0,0.0,0.14583534,2.0315123e-07,-2.1491606e-07,0.0,0.0028936057,0.0021920255,-0.010136036,0.009570125,5.0749746e-05,-5.368875e-05,0.0,-0.01625437,-0.11773689,-0.035635576,2.130999,0.0,0.11373222,0.010136036,0.12407792,0.24931148,0.10289334,0.106362864,inf,inf,inf,inf,0,1,0,1,1,0,1,1,0,0,0
38139069,0,0.0,0.0,0.0,0.0,0.14872806,2.0315123e-07,-2.1491606e-07,0.0,0.0035177635,0.003029985,-0.008107955,0.012848599,5.0749746e-05,-5.368875e-05,0.0,0.21456884,0.06015051,0.009726069,2.1311884,0.0,0.10828845,0.008107955,0.12491588,0.2503037,0.1032743,0.10660327,inf,inf,inf,inf,0,1,0,1,1,0,1,1,0,0,0
38241497,0,0.0,0.0,0.0,0.0,0.15006912,2.0315123e-07,-2.1491606e-07,0.0,0.0024630136,0.0036266008,-0.00762605,0.01277209,5.0749746e-05,-5.368875e-05,0.0,0.01239113,0.10118253,-0.04243259,2.1312675,0.0,0.1,0.00762605,0.12567408,0.25124946,0.10359454,0.106823444,inf,inf,inf,inf,0,1,0,1,1,0,1,1,0,0,0
38342316,0,0.0,0.0,0.0,0.0,0.14865404,2.0315123e-07,-2.1491606e-07,0.0,0.003046044,0.0037640734,-0.009199535,0.008302392,5.0749746e-05,-5.368875e-05,0.0,0.008059775,-0.005338711,-0.11384522,2.1314688,0.0,0.1,0.009199535,0.123811156,0.24953333,0.10255748,0.10633362,inf,inf,inf,inf,0,1,0,1,1,0,1,1,0,0,0
38438269,0,0.0,0.0,0.0,0.0,0.14490898,2.0315123e-07,-2.1491606e-07,0.0,0.0035654763,0.003601032,-0.010294162,0.0025296377,5.0749746e-05,-5.368875e-05,0.0,0.029018465,0.061437134,-0.09810837,2.1316252,0.0,0.10312019,0.010294162,0.123972274,0.24981393,0.102621615,0.10638682,inf,inf,inf,inf,0,1,0,1,1,0,1,1,0,0,0
38542275,0,0.0,0.0,0.0,0.0,0.14687274,2.0315123e-07,-2.1491606e-07,0.0,0.0033092543,0.0040007164,-0.0081008,0.0060993982,5.0749746e-05,-5.368875e-05,0.0,0.05105275,-0.10562097,0.25230384,2.1317515,0.0,0.11295633,0.0081008,0.12321918,0.24911897,0.102274835,0.10614777,inf,inf,inf,inf,0,1,0,1,1,0,1,1,0,0,0
38646269,0,0.0,0.0,0.0,0.0,0.15068729,2.0315123e-07,-2.1491606e-07,0.0,0.0029904912,0.003928896,-0.006506347,0.010551655,5.0749746e-05,-5.368875e-05,0.0,0.0027239854,-0.03560592,0.17471963,2.1320074,0.0,0.110059515,0.006506347,0.12410618,0.25009456,0.102737784,0.10639244,inf,inf,inf,inf,0,1,0,1,1,0,1,1,0,0,0
38742269,0,0.0,0.0,0.0,0.0,0.15507977,2.0315123e-07,-2.1491606e-07,0.0,0.004198552,0.0049076965,-0.0057906313,0.014247089,5.0749746e-05,-5.368875e-05,0.0,0.10339586,-0.03425004,-0.041210152,2.132174,0.0,0.10787274,0.0057906313,0.12429897,0.25036862,0.10282625,0.10644762,inf,inf,inf,inf,0,1,0,1,1,0,1,1,0,0,0
38850269,0,0.0,0.0,0.0,0.0,0.15837482,2.0315123e-07,-2.1491606e-07,0.0,0.0039405064,0.0045587304,-0.0055841655,0.015843466,5.0749746e-05,-5.368875e-05,0.0,0.032370646,-0.061548647,0.090070486,2.1323805,0.0,0.10422698,0.0055841655,0.12319031,0.24933018,0.10222407,0.106147654,inf,inf,inf,inf,0,1,0,1,1,0,1,1,0,0,0
38953489,0,0.0,0.0,0.0,0.0,0.1587083,2.0315123e-07,-2.1491606e-07,0.0,0.0028730119,0.0048997723,-0.005066594,0.014627781,5.0749746e-05,-5.368875e-05,0.0,0.022806065,-0.06786426,-0.12517837,2.132636,0.0,0.1,0.005066594,0.124206215,0.25048444,0.1027742,0.10639317,inf,inf,inf,inf,0,1,0,1,1,0,1,1,0,0,0
39049484,0,0.0,0.0,0.0,0.0,0.15945223,2.0315123e-07,-2.1491606e-07,0.0,0.002624766,0.0063629183,-0.0040771067,0.0146002155,5.0749746e-05,-5.368875e-05,0.0,-0.13259391,0.09870857,0.16758555,2.1328242,0.0,0.10357332,0.0040771067,0.122513875,0.24878399,0.10189966,0.105927005,inf,inf,inf,inf,0,1,0,1,1,0,1,1,0,0,0
39153469,0,0.0,0.0,0.0,0.0,0.15978749,2.0315123e-07,-2.1491606e-07,0.0,0.003318597,0.00591986,-0.004117831,0.013096447,5.0749746e-05,-5.368875e-05,0.0,0.19145297,-0.03534403,0.038467735,2.1329646,0.0,0.1,0.004117831,0.1234146,0.24973227,0.10239,0.10617098,inf,inf,inf,inf,0,1,0,1,1,0,1,1,0,0,0
39257486,0,0.0,0.0,0.0,0.0,0.15946928,2.0315123e-07,-2.1491606e-07,0.0,0.002002997,0.0056072087,-0.0042563397,0.011040818,5.0749746e-05,-5.368875e-05,0.0,0.012491917,-0.22102213,-0.07450283,2.133059,0.0,0.1,0.0042563397,0.12254627,0.24879059,0.10198217,0.105921045,inf,inf,inf,inf,0,1,0,1,1,0,1,1,0,0,0
39360669,0,0.0,0.0,0.0,0.0,0.15634876,2.0315123e-07,-2.1491606e-07,0.0,0.0017307171,0.005865107,-0.0048850058,0.006007991,5.0749746e-05,-5.368875e-05,0.0,0.11590617,-0.07768801,0.060569428,2.1331463,0.0,0.1,0.0048850058,0.12177441,0.24790235,0.10164413,0.10569275,inf,inf,inf,inf,0,1,0,1,1,0,1,1,0,0,0
39456668,0,0.0,0.0,0.0,0.0,0.15173705,2.0315123e-07,-2.1491606e-07,0.0,0.0008080278,0.0056334883,-0.0075607873,-0.0016715926,5.0749746e-05,-5.368875e-05,0.0,-0.15162276,0.039118025,0.024074864,2.1332684,0.0,0.1,0.0075607873,0.12045437,0.24640374,0.10102274,0.10530706,inf,inf,inf,inf,0,1,0,1,1,0,1,1,0,0,0
39560701,0,0.0,0.0,0.0,0.0,0.14666681,2.0315123e-07,-2.1491606e-07,0.0,0.0019043392,0.0054155244,-0.009259177,-0.008037021,5.0749746e-05,-5.368875e-05,0.0,0.047024846,0.086950205,0.12112444,2.1334457,0.0,0.1,0.009259177,0.12154195,0.24742264,0.10165491,0.10560793,inf,inf,inf,inf,0,1,0,1,1,0,1,1,0,0,0
39664693,0,0.0,0.0,0.0,0.0,0.14070576,2.0315123e-07,-2.1491606e-07,0.0,0.0006432635,0.005209462,-0.011706671,-0.015251941,5.0749746e-05,-5.368875e-05,0.0,-0.06616405,0.1082894,-0.028158113,2.1336415,0.0,0.1,0.011706671,0.1209754,0.24666439,0.10144023,0.10543095,inf,inf,inf,inf,0,1,0,1,1,0,1,1,0,0,0
39760668,0,0.0,0.0,0.0,0.0,0.13334721,2.0315123e-07,-2.1491606e-07,0.0,0.00055081607,0.004465212,-0.01388047,-0.022944087,5.0749746e-05,-5.368875e-05,0.0,-0.03881296,0.04038927,-0.033926986,2.1339037,0.0,0.1,0.01388047,0.11983071,0.24528666,0.10091634,0.1050914,inf,inf,inf,inf,0,1,0,1,1,0,1,1,0,0,0
39864669,0,0.0,0.0,0.0,0.0,0.12821318,2.0315123e-07,-2.1491606e-07,0.0,-0.000116117095,0.0039925547,-0.014239923,-0.025580999,5.0749746e-05,-5.368875e-05,0.0,-0.13098386,0.021945152,0.06130508,2.1341321,0.0,0.1,0.014239923,0.119385205,0.2446184,0.10076075,0.104946844,inf,inf,inf,inf,0,1,0,1,1,0,1,1,0,0,0
39967869,0,0.0,0.0,0.0,0.0,0.121329315,2.0315123e-07,-2.1491606e-07,0.0,0.0009187947,0.0038672755,-0.017359553,-0.032381613,5.0749746e-05,-5.368875e-05,0.0,-0.06473614,0.108380966,0.025397101,2.1343036,0.0,0.1,0.017359553,0.118979275,0.24398619,0.10061999,0.104814276,inf,inf,inf,inf,0,1,0,1,1,0,1,1,0,0,0
40071911,0,0.0,0.0,0.0,0.0,0.11126263,2.0315123e-07,-2.1491606e-07,0.0,0.00045034185,0.0033333497,-0.020774385,-0.04181485,5.0749746e-05,-5.368875e-05,0.0,-0.1151984,0.07442221,-0.052064147,2.1345649,0.0,0.1,0.020774385,0.12026818,0.24515575,0.10134835,0.10517218,inf,inf,inf,inf,0,1,0,1,1,0,1,1,0,0,0
40175869,0,0.0,0.0,0.0,0.0,0.10229829,2.0315123e-07,-2.1491606e-07,0.0,0.00027225763,0.0021740259,-0.023252469,-0.04819836,5.0749746e-05,-5.368875e-05,0.0,-0.017603822,-0.06778755,0.056546114,2.134858,0.0,0.1,0.023252469,0.1199272,0.24458413,0.10123274,0.105061874,inf,inf,inf,inf,0,1,0,1,1,0,1,1,0,0,0
40271869,0,0.0,0.0,0.0,0.0,0.09580798,2.0315123e-07,-2.1491606e-07,0.0,-0.00023842278,0.0018288539,-0.024824446,-0.050987672,5.0749746e-05,-5.368875e-05,0.0,0.10320137,0.012646797,0.2783783,2.1350305,0.0,0.1,0.024824446,0.11897846,0.24338692,0.10078238,0.10478199,inf,inf,inf,inf,0,1,0,1,1,0,1,1,0,0,0
40375126,0,0.0,0.0,0.0,0.0,0.0907722,2.0315123e-07,-2.1491606e-07,0.0,0.00092919247,0.0016254579,-0.026447186,-0.051764466,5.0749746e-05,-5.368875e-05,0.0,-0.014278837,0.014145528,-0.1588952,2.1351657,0.0,0.1,0.026447186,0.120389596,0.24468586,0.10156037,0.10516695,inf,inf,inf,inf,0,1,0,1,1,0,1,1,0,0,0
40475068,0,0.0,0.0,0.0,0.0,0.08763073,2.0315123e-07,-2.1491606e-07,0.0,0.0009769414,0.0015381132,-0.026710302,-0.049677987,5.0749746e-05,-5.368875e-05,0.0,0.24581622,0.017715285,-0.04650091,2.1353743,0.0,0.10579976,0.026710302,0.12107159,0.24528435,0.10190798,0.10535321,inf,inf,inf,inf,0,1,0,1,1,0,1,1,0,0,0
40579069,0,0.0,0.0,0.0,0.0,0.08660629,2.0315123e-07,-2.1491606e-07,0.0,0.0015192751,0.0016770799,-0.02460879,-0.04321892,5.0749746e-05,-5.368875e-05,0.0,0.4150237,-0.105939716,0.016388008,2.135658,0.0,0.10957452,0.02460879,0.12051657,0.24462245,0.10158158,0.105212234,inf,inf,inf,inf,0,1,0,1,1,0,1,1,0,0,0
40683069,0,0.0,0.0,0.0,0.0,0.08713042,2.0315123e-07,-2.1491606e-07,0.0,0.0010150195,0.0013141906,-0.02336582,-0.036755443,5.0749746e-05,-5.368875e-05,0.0,0.141313,-0.11903318,0.0027074155,2.1360044,0.0,0.1134086,0.02336582,0.122046456,0.24616571,0.1023903,0.105599046,inf,inf,inf,inf,0,1,0,1,1,0,1,1,0,0,0
40779073,0,0.0,0.0,0.0,0.0,0.08539799,2.0315123e-07,-2.1491606e-07,0.0,0.0012916453,0.0020680018,-0.023467574,-0.034940112,5.0749746e-05,-5.368875e-05,0.0,-0.06358214,0.050490852,0.015253622,2.1361957,0.0,0.10379961,0.023467574,0.120748505,0.24483167,0.101630904,0.10525304,inf,inf,inf,inf,0,1,0,1,1,0,1,1,0,0,0
40883081,0,0.0,0.0,0.0,0.0,0.08120954,2.0315123e-07,-2.1491606e-07,0.0,0.002287305,0.0013400781,-0.024710987,-0.036519583,5.0749746e-05,-5.368875e-05,0.0,0.27635846,0.101774916,0.30902743,2.1363807,0.0,0.10215671,0.024710987,0.12192085,0.24603307,0.10219061,0.10558651,inf,inf,inf,inf,0,1,0,1,1,0,1,1,0,0,0
40986269,0,0.0,0.0,0.0,0.0,0.08247017,2.0315123e-07,-2.1491606e-07,0.0,0.001632756,0.0015051273,-0.024822617,-0.031535737,5.0749746e-05,-5.368875e-05,0.0,0.04906699,0.032797437,-0.2511675,2.1363735,0.0,0.116679095,0.024822617,0.121347226,0.24541543,0.10184772,0.10543771,inf,inf,inf,inf,0,1,0,1,1,0,1,1,0,0,0
41090275,0,0.0,0.0,0.0,0.0,0.08281475,2.0315123e-07,-2.1491606e-07,0.0,0.0013001955,0.0011524069,-0.02282322,-0.026034435,5.0749746e-05,-5.368875e-05,0.0,0.0654835,-0.09221886,0.12178942,2.1363935,0.0,0.1124289,0.02282322,0.12081292,0.2448222,0.10153564,0.105298504,inf,inf,inf,inf,0,1,0,1,1,0,1,1,0,0,0
41186269,0,0.0,0.0,0.0,0.0,0.08346843,2.0315123e-07,-2.1491606e-07,0.0,0.0022202176,0.00042154742,-0.02031241,-0.020573463,5.0749746e-05,-5.368875e-05,0.0,0.043720864,-0.0674833,0.25462148,2.1364374,0.0,0.10712404,0.02031241,0.12137526,0.24536277,0.10180594,0.105471075,inf,inf,inf,inf,0,1,0,1,1,0,1,1,0,0,0
41290283,0,0.0,0.0,0.0,0.0,0.08143373,2.0315123e-07,-2.1491606e-07,0.0,0.0022310761,-1.2276305e-06,-0.021444432,-0.021622527,5.0749746e-05,-5.368875e-05,0.0,0.20673147,0.122961804,0.092923746,2.1366153,0.0,0.10319041,0.021444432,0.120799996,0.2447623,0.10145969,0.10532415,inf,inf,inf,inf,0,1,0,1,1,0,1,1,0,0,0
41394269,0,0.0,0.0,0.0,0.0,0.07859311,2.0315123e-07,-2.1491606e-07,0.0,0.0019514369,-0.0005792129,-0.023692207,-0.024436597,5.0749746e-05,-5.368875e-05,0.0,0.10739163,-0.11623938,-0.2303068,2.136808,0.0,0.10555496,0.023692207,0.12191884,0.24596182,0.10197905,0.10564798,inf,inf,inf,inf,0,1,0,1,1,0,1,1,0,0,0
41489470,0,0.0,0.0,0.0,0.0,0.076715074,2.0315123e-07,-2.1491606e-07,0.0,0.0011896838,-0.001183618,-0.024055569,-0.024465809,5.0749746e-05,-5.368875e-05,0.0,-0.15271313,-0.23525862,-0.20561124,2.1370916,0.0,0.10426534,0.024055569,0.1223546,0.24647747,0.10214207,0.10578408,inf,inf,inf,inf,0,1,0,1,1,0,1,1,0,0,0
41593479,0,0.0,0.0,0.0,0.0,0.07420315,2.0315123e-07,-2.1491606e-07,0.0,0.0027876534,-0.0004838513,-0.022969715,-0.023535918,5.0749746e-05,-5.368875e-05,0.0,0.08638386,-0.1502431,0.14964375,2.1374516,0.0,0.1,0.022969715,0.123348065,0.24761336,0.10257126,0.10607675,inf,inf,inf,inf,0,1,0,1,1,0,1,1,0,0,0
41697468,0,0.0,0.0,0.0,0.0,0.07377694,2.0315123e-07,-2.1491606e-07,0.0,0.0019515712,-0.00036857402,-0.0238478,-0.022368995,5.0749746e-05,-5.368875e-05,0.0,-0.046375934,0.062139887,-0.1679825,2.1377294,0.0,0.11092525,0.0238478,0.12245476,0.24680951,0.10202853,0.10586474,inf,inf,inf,inf,0,1,0,1,1,0,1,1,0,0,0
41793468,0,0.0,0.0,0.0,0.0,0.07444012,2.0315123e-07,-2.1491606e-07,0.0,0.0011658543,-8.294983e-07,-0.02190465,-0.017819703,5.0749746e-05,-5.368875e-05,0.0,0.08250504,-0.17996792,-0.023444226,2.1379602,0.0,0.11014694,0.02190465,0.12284492,0.24729593,0.10218002,0.105987586,inf,inf,inf,inf,0,1,0,1,1,0,1,1,0,0,0
41897469,0,0.0,0.0,0.0,0.0,0.07272523,2.0315123e-07,-2.1491606e-07,0.0,0.0011763292,-0.000109102235,-0.022776581,-0.01863389,5.0749746e-05,-5.368875e-05,0.0,-0.082069665,-0.09858742,0.01928784,2.1380842,0.0,0.11097685,0.022776581,0.122089565,0.24658999,0.10175485,0.1057945,inf,inf,inf,inf,0,1,0,1,1,0,1,1,0,0,0
42001469,0,0.0,0.0,0.0,0.0,0.074019924,2.0315123e-07,-2.1491606e-07,0.0,0.0015483066,-0.00060429896,-0.021769447,-0.014619689,5.0749746e-05,-5.368875e-05,0.0,-0.08209634,-0.04509329,-0.0054905782,2.1380663,0.0,0.11308858,0.021769447,0.12140424,0.24591793,0.10138806,0.10561499,inf,inf,inf,inf,0,1,0,1,1,0,1,1,0,0,0
42103915,0,0.0,0.0,0.0,0.0,0.079586655,2.0315123e-07,-2.1491606e-07,0.0,0.0007325341,-0.0009256304,-0.018647788,-0.004886983,5.0749746e-05,-5.368875e-05,0.0,0.23390651,-0.18176743,-0.0051057995,2.1380997,0.0,0.12303339,0.018647788,0.120784074,0.24528106,0.10107546,0.105448216,inf,inf,inf,inf,0,1,0,1,1,0,1,1,0,0,0
42200669,0,0.0,0.0,0.0,0.0,0.086457655,2.0315123e-07,-2.1491606e-07,0.0,0.00037764912,-0.00017035186,-0.015846796,0.0047255335,5.0749746e-05,-5.368875e-05,0.0,-0.05468391,0.14880073,-0.025423305,2.138132,0.0,0.12306152,0.015846796,0.12136435,0.24586286,0.1013992,0.10561218,inf,inf,inf,inf,0,1,0,1,1,0,1,1,0,0,0
42304669,0,0.0,0.0,0.0,0.0,0.092262186,2.0315123e-07,-2.1491606e-07,0.0,0.00036295975,-0.0005625244,-0.013564759,0.011661129,5.0749746e-05,-5.368875e-05,0.0,0.038845558,0.046941433,0.20450209,2.1382165,0.0,0.11799037,0.013564759,0.12075163,0.24520002,0.10109756,0.105455294,inf,inf,inf,inf,0,1,0,1,1,0,1,1,0,0,0
42408707,0,0.0,0.0,0.0,0.0,0.09880244,2.0315123e-07,-2.1491606e-07,0.0,0.00087900425,-0.00045719737,-0.011242162,0.01859033,5.0749746e-05,-5.368875e-05,0.0,-0.07724354,0.037195127,0.10000593,2.138413,0.0,0.11746744,0.011242162,0.121986315,0.24646091,0.101764545,0.10579898,inf,inf,inf,inf,0,1,0,1,1,0,1,1,0,0,0
42504669,0,0.0,0.0,0.0,0.0,0.101771116,2.0315123e-07,-2.1491606e-07,0.0,0.0011254041,-0.00028556926,-0.00988535,0.020524675,5.0749746e-05,-5.368875e-05,0.0,0.178959,0.04376903,-0.07980975,2.1386704,0.0,0.10665187,0.00988535,0.122498095,0.24701147,0.102021776,0.10594487,inf,inf,inf,inf,0,1,0,1,1,0,1,1,0,0,0
42608691,0,0.0,0.0,0.0,0.0,0.10800181,2.0315123e-07,-2.1491606e-07,0.0,0.0008475347,-0.0002456362,-0.008118924,0.025649862,5.0749746e-05,-5.368875e-05,0.0,0.14606906,-0.026860345,0.10199265,2.1388028,0.0,0.116753474,0.008118924,0.12179488,0.2463339,0.101630956,0.10575768,inf,inf,inf,inf,0,1,0,1,1,0,1,1,0,0,0
42711869,0,0.0,0.0,0.0,0.0,0.11363901,2.0315123e-07,-2.1491606e-07,0.0,0.0005406738,4.064279e-06,-0.005869098,0.030057536,5.0749746e-05,-5.368875e-05,0.0,-0.09116907,0.036821026,0.061303213,2.13872,0.0,0.10769558,0.005869098,0.122878246,0.2475119,0.102168135,0.10606344,inf,inf,inf,inf,0,1,0,1,1,0,1,1,0,0,0
42815875,0,0.0,0.0,0.0,0.0,0.119083874,2.0315123e-07,-2.1491606e-07,0.0,0.0010540363,-3.5265974e-05,-0.004019591,0.03347828,5.0749746e-05,-5.368875e-05,0.0,-0.16001037,0.0452917,0.10743134,2.1387293,0.0,0.10845903,0.004019591,0.12386139,0.24863593,0.102626316,0.10634386,inf,inf,inf,inf,0,1,0,1,1,0,1,1,0,0,0
42919868,0,0.0,0.0,0.0,0.0,0.1223383,2.0315123e-07,-2.1491606e-07,0.0,0.00035144453,-0.00021217005,-0.0036675183,0.032990612,5.0749746e-05,-5.368875e-05,0.0,-0.14552084,-0.12354803,-0.22035281,2.138802,0.0,0.11007094,0.0036675183,0.122811176,0.24772654,0.101994134,0.10608351,inf,inf,inf,inf,0,1,0,1,1,0,1,1,0,0,0
43015921,0,0.0,0.0,0.0,0.0,0.12574778,2.0315123e-07,-2.1491606e-07,0.0,0.0003373321,1.809668e-06,-0.0022662454,0.03398198,5.0749746e-05,-5.368875e-05,0.0,0.10402904,-0.03281244,0.10027051,2.138856,0.0,0.1,0.0022662454,0.1231202,0.24815406,0.10211539,0.10617703,inf,inf,inf,inf,0,1,0,1,1,0,1,1,0,0,0
43119087,0,0.0,0.0,0.0,0.0,0.12787135,2.0315123e-07,-2.1491606e-07,0.0,-0.00030423532,0.0005964738,-0.0012068339,0.03311197,5.0749746e-05,-5.368875e-05,0.0,-0.05564059,0.13643835,0.015898632,2.1389422,0.0,0.10105543,0.0012068339,0.12401523,0.24921328,0.10253021,0.106433466,inf,inf,inf,inf,0,1,0,1,1,0,1,1,0,0,0
43223869,0,0.0,0.0,0.0,0.0,0.12950088,2.0315123e-07,-2.1491606e-07,0.0,-0.00023427334,0.0013350439,-0.0021066398,0.029984001,5.0749746e-05,-5.368875e-05,0.0,-0.13971259,-0.028180992,-0.14251941,2.1390574,0.0,0.1,0.0021066398,0.12297403,0.24831092,0.101928666,0.10616128,inf,inf,inf,inf,0,1,0,1,1,0,1,1,0,0,0
43327088,0,0.0,0.0,0.0,0.0,0.13195483,2.0315123e-07,-2.1491606e-07,0.0,-0.0012170334,0.0011103112,-0.0010842781,0.029886857,5.0749746e-05,-5.368875e-05,0.0,0.07597732,-0.017722119,-0.031929567,2.1392727,0.0,0.10277237,0.0010842781,0.123732455,0.24924935,0.10226876,0.10639174,inf,inf,inf,inf,0,1,0,1,1,0,1,1,0,0,0
43423121,0,0.0,0.0,0.0,0.0,0.13637115,2.0315123e-07,-2.1491606e-07,0.0,-0.0011663456,0.0015437644,-0.0001067909,0.031992257,5.0749746e-05,-5.368875e-05,0.0,-0.0008938539,0.15161729,-0.056914445,2.139338,0.0,0.1060005,0.0001067909,0.12392015,0.2495795,0.10233362,0.106451854,inf,inf,inf,inf,0,1,0,1,1,0,1,1,0,0,0
43527069,0,0.0,0.0,0.0,0.0,0.14164628,2.0315123e-07,-2.1491606e-07,0.0,-0.0011292332,0.0011035053,0.0016021638,0.035121962,5.0749746e-05,-5.368875e-05,0.0,0.0011871197,0.054479744,0.11715195,2.1394243,0.0,0.103881255,-0.0016021638,0.122948594,0.24867995,0.101821214,0.1061879,inf,inf,inf,inf,0,1,0,1,1,0,1,1,0,0,0
43631076,0,0.0,0.0,0.0,0.0,0.14576991,2.0315123e-07,-2.1491606e-07,0.0,-0.0013276455,0.0002996683,0.0017603223,0.0353527,5.0749746e-05,-5.368875e-05,0.0,-0.082700126,-0.030208284,-0.1362552,2.1394446,0.0,0.10530712,-0.0017603223,0.12206864,0.24782212,0.10138627,0.1059411,inf,inf,inf,inf,0,1,0,1,1,0,1,1,0,0,0
43726307,0,0.0,0.0,0.0,0.0,0.14749624,2.0315123e-07,-2.1491606e-07,0.0,-0.0016446633,-0.00022348519,0.0023760793,0.03389599,5.0749746e-05,-5.368875e-05,0.0,0.20082647,-0.08922493,0.024178207,2.139442,0.0,0.1,-0.0023760793,0.12242394,0.24821982,0.10159899,0.10603545,inf,inf,inf,inf,0,1,0,1,1,0,1,1,0,0,0
43830269,0,0.0,0.0,0.0,0.0,0.14822455,2.0315123e-07,-2.1491606e-07,0.0,-0.0017139082,1.6741717e-05,0.003015726,0.031436544,5.0749746e-05,-5.368875e-05,0.0,0.006611981,-0.010605356,-0.00062309287,2.139481,0.0,0.1,-0.003015726,0.121640496,0.24740256,0.10123657,0.105808355,inf,inf,inf,inf,0,1,0,1,1,0,1,1,0,0,0
43934290,0,0.0,0.0,0.0,0.0,0.15002927,2.0315123e-07,-2.1491606e-07,0.0,-0.0017209555,7.452196e-05,0.0037263604,0.030429099,5.0749746e-05,-5.368875e-05,0.0,0.067807816,0.06838553,-0.017760912,2.1395042,0.0,0.1,-0.0037263604,0.12084913,0.24654846,0.10086874,0.105585344,inf,inf,inf,inf,0,1,0,1,1,0,1,1,0,0,0
44030269,0,0.0,0.0,0.0,0.0,0.15127642,2.0315123e-07,-2.1491606e-07,0.0,-0.0024210114,0.0010156078,0.004622851,0.029427916,5.0749746e-05,-5.368875e-05,0.0,-0.13306396,0.038435422,0.076242,2.1394935,0.0,0.1,-0.004622851,0.1212955,0.24698873,0.101142086,0.105701044,inf,inf,inf,inf,0,1,0,1,1,0,1,1,0,0,0
44134268,0,0.0,0.0,0.0,0.0,0.15256621,2.0315123e-07,-2.1491606e-07,0.0,-0.0019182408,-4.3185333e-05,0.004345254,0.02723412,5.0749746e-05,-5.368875e-05,0.0,0.11045377,-0.1090427,-0.01155702,2.1394577,0.0,0.1,-0.004345254,0.12061525,0.2462236,0.100836396,0.10549676,inf,inf,inf,inf,0,1,0,1,1,0,1,1,0,0,0
44237518,0,0.0,0.0,0.0,0.0,0.15263063,2.0315123e-07,-2.1491606e-07,0.0,-0.0011504164,0.0005552655,0.0041008014,0.024091732,5.0749746e-05,-5.368875e-05,0.0,-0.028865008,-0.029566627,0.12883306,2.1393602,0.0,0.1,-0.0041008014,0.120022856,0.24551034,0.10059015,0.105312765,inf,inf,inf,inf,0,1,0,1,1,0,1,1,0,0,0
44337469,0,0.0,0.0,0.0,0.0,0.14891678,2.0315123e-07,-2.1491606e-07,0.0,-0.00065404223,0.0007477873,0.0012660638,0.015351784,5.0749746e-05,-5.368875e-05,0.0,-0.042810928,-0.18525083,-0.060428925,2.1392155,0.0,0.1,-0.0012660638,0.120593436,0.24602173,0.100946024,0.10545847,inf,inf,inf,inf,0,1,0,1,1,0,1,1,0,0,0
44441469,0,0.0,0.0,0.0,0.0,0.14455406,2.0315123e-07,-2.1491606e-07,0.0,-0.00043552017,0.0017108984,0.00015478788,0.008415873,5.0749746e-05,-5.368875e-05,0.0,0.10700409,0.0050336868,0.13630019,2.1391454,0.0,0.1,-0.00015478788,0.120309606,0.24561103,0.10091158,0.105330035,inf,inf,inf,inf,0,1,0,1,1,0,1,1,0,0,0
44537469,0,0.0,0.0,0.0,0.0,0.14016946,2.0315123e-07,-2.1491606e-07,0.0,-0.00040264218,0.0007144534,-0.0003954235,0.0029395018,5.0749746e-05,-5.368875e-05,0.0,-0.13447438,-0.087368175,0.2002009,2.1390479,0.0,0.1,0.0003954235,0.12089916,0.24613567,0.10126336,0.105481975,inf,inf,inf,inf,0,1,0,1,1,0,1,1,0,0,0
44641513,0,0.0,0.0,0.0,0.0,0.13184164,2.0315123e-07,-2.1491606e-07,0.0,-0.00029192425,0.0012252586,-0.0037708308,-0.00841433,5.0749746e-05,-5.368875e-05,0.0,-0.0568087,0.03995054,0.24833289,2.1389265,0.0,0.1,0.0037708308,0.1204026,0.245492,0.101052776,0.10532523,inf,inf,inf,inf,0,1,0,1,1,0,1,1,0,0,0
44745469,0,0.0,0.0,0.0,0.0,0.12511243,2.0315123e-07,-2.1491606e-07,0.0,1.6643837e-05,0.0009239269,-0.006878483,-0.016694287,5.0749746e-05,-5.368875e-05,0.0,0.047865216,-0.09840367,0.18741277,2.1390004,0.0,0.1,0.006878483,0.12157659,0.24665855,0.10167085,0.10564376,inf,inf,inf,inf,0,1,0,1,1,0,1,1,0,0,0
44848668,0,0.0,0.0,0.0,0.0,0.11951292,2.0315123e-07,-2.1491606e-07,0.0,0.0005354975,0.0014181078,-0.009021163,-0.021999057,5.0749746e-05,-5.368875e-05,0.0,-0.15316987,-0.06636711,0.08015182,2.139114,0.0,0.1,0.009021163,0.12090062,0.24592547,0.101298265,0.105449066,inf,inf,inf,inf,0,1,0,1,1,0,1,1,0,0,0
44944687,0,0.0,0.0,0.0,0.0,0.11209112,2.0315123e-07,-2.1491606e-07,0.0,0.00051921257,0.00090858474,-0.011325633,-0.028942848,5.0749746e-05,-5.368875e-05,0.0,-0.01785846,-0.04379767,0.19705664,2.1391282,0.0,0.1,0.011325633,0.121440224,0.24643598,0.101586565,0.10559182,inf,inf,inf,inf,0,1,0,1,1,0,1,1,0,0,0
45048700,0,0.0,0.0,0.0,0.0,0.10126646,2.0315123e-07,-2.1491606e-07,0.0,0.00056238926,0.0017141593,-0.015337899,-0.03977253,5.0749746e-05,-5.368875e-05,0.0,0.034874205,-0.12142564,0.019204738,2.1392446,0.0,0.1,0.015337899,0.12078149,0.24568973,0.101237796,0.10541041,inf,inf,inf,inf,0,1,0,1,1,0,1,1,0,0,0
45152672,0,0.0,0.0,0.0,0.0,0.091201566,2.0315123e-07,-2.1491606e-07,0.0,0.000113555914,0.0015259046,-0.018370144,-0.04786739,5.0749746e-05,-5.368875e-05,0.0,0.11229742,-0.11129311,-0.033106428,2.1391478,0.0,0.1,0.018370144,0.12022011,0.24503088,0.10094835,0.1052453,inf,inf,inf,inf,0,1,0,1,1,0,1,1,0,0,0
45248669,0,0.0,0.0,0.0,0.0,0.08091622,2.0315123e-07,-2.1491606e-07,0.0,-0.00023817312,0.0021174068,-0.02172377,-0.056049097,5.0749746e-05,-5.368875e-05,0.0,-0.14587305,0.30149397,-0.3652537,2.1391444,0.0,0.1,0.02172377,0.12083704,0.24559517,0.101286374,0.105409764,inf,inf,inf,inf,0,1,0,1,1,0,1,1,0,0,0
45352668,0,0.0,0.0,0.0,0.0,0.076497644,2.0315123e-07,-2.1491606e-07,0.0,4.233161e-05,0.0020686,-0.020962594,-0.0531632,5.0749746e-05,-5.368875e-05,0.0,-0.053620506,0.09345214,0.024774285,2.1391325,0.0,0.1,0.020962594,0.12036243,0.24499714,0.101055846,0.10526754,inf,inf,inf,inf,0,1,0,1,1,0,1,1,0,0,0
45455913,0,0.0,0.0,0.0,0.0,0.0702907,2.0315123e-07,-2.1491606e-07,0.0,0.0006644524,0.0027036974,-0.022939218,-0.055017736,5.0749746e-05,-5.368875e-05,0.0,0.04464031,-0.16191772,0.0260519,2.139093,0.0,0.1,0.022939218,0.119923085,0.24442698,0.100850455,0.105134964,inf,inf,inf,inf,0,1,0,1,1,0,1,1,0,0,0
45559869,0,0.0,0.0,0.0,0.0,0.061900057,2.0315123e-07,-2.1491606e-07,0.0,0.00013355388,0.0025834984,-0.026272247,-0.06015057,5.0749746e-05,-5.368875e-05,0.0,-0.072573885,-0.08016604,-0.13439734,2.1391988,0.0,0.1,0.026272247,0.11949939,0.24387436,0.10064672,0.105008245,inf,inf,inf,inf,0,1,0,1,1,0,1,1,0,0,0
45663896,0,0.0,0.0,0.0,0.0,0.054584492,2.0315123e-07,-2.1491606e-07,0.0,-7.094533e-05,0.0030018871,-0.027366178,-0.061544366,5.0749746e-05,-5.368875e-05,0.0,-0.22174345,0.014810333,-0.16261204,2.1393633,0.0,0.101045966,0.027366178,0.1207551,0.24509792,0.10131435,0.10536375,inf,inf,inf,inf,0,1,0,1,1,0,1,1,0,0,0
45759869,0,0.0,0.0,0.0,0.0,0.04896052,2.0315123e-07,-2.1491606e-07,0.0,0.00094339065,0.002847225,-0.02877632,-0.062014986,5.0749746e-05,-5.368875e-05,0.0,0.21223463,0.0055947546,0.16687152,2.13959,0.0,0.10225466,0.02877632,0.11970281,0.24390206,0.10077394,0.105064236,inf,inf,inf,inf,0,1,0,1,1,0,1,1,0,0,0
45863094,0,0.0,0.0,0.0,0.0,0.044321142,2.0315123e-07,-2.1491606e-07,0.0,0.0017182169,0.0038853183,-0.0304953,-0.06129529,5.0749746e-05,-5.368875e-05,0.0,0.18562369,0.017054128,0.100639835,2.1396728,0.0,0.10676394,0.0304953,0.119317636,0.24339615,0.10058374,0.1049504,inf,inf,inf,inf,0,1,0,1,1,0,1,1,0,0,0
45967115,0,0.0,0.0,0.0,0.0,0.041045364,2.0315123e-07,-2.1491606e-07,0.0,0.00043897761,0.0033900281,-0.031591035,-0.058771007,5.0749746e-05,-5.368875e-05,0.0,-0.12747191,0.06850961,-0.09142996,2.1397734,0.0,0.11052549,0.031591035,0.11893763,0.24290211,0.10039255,0.104839094,inf,inf,inf,inf,0,1,0,1,1,0,1,1,0,0,0
46071109,0,0.0,0.0,0.0,0.0,0.03969111,2.0315123e-07,-2.1491606e-07,0.0,0.00023772876,0.0036637725,-0.031806942,-0.053894296,5.0749746e-05,-5.368875e-05,0.0,-0.028608935,0.010347182,-0.0038611966,2.1397455,0.0,0.11622356,0.031806942,0.12022445,0.24416831,0.10107156,0.105209276,inf,inf,inf,inf,0,1,0,1,1,0,1,1,0,0,0
46175069,0,0.0,0.0,0.0,0.0,0.040706653,2.0315123e-07,-2.1491606e-07,0.0,0.0005230701,0.0028539028,-0.030127116,-0.045534305,5.0749746e-05,-5.368875e-05,0.0,-0.028659655,-0.12087362,0.06364467,2.1397407,0.0,0.11541179,0.030127116,0.12149194,0.24545957,0.10170446,0.105564296,inf,inf,inf,inf,0,1,0,1,1,0,1,1,0,0,0
46271070,0,0.0,0.0,0.0,0.0,0.039317302,2.0315123e-07,-2.1491606e-07,0.0,0.00090084213,0.003986899,-0.030493885,-0.04283066,5.0749746e-05,-5.368875e-05,0.0,-0.07511044,-0.027460705,-0.18535136,2.1396503,0.0,0.1074603,0.030493885,0.120307855,0.2442326,0.10104534,0.105241485,inf,inf,inf,inf,0,1,0,1,1,0,1,1,0,0,0
46375068,0,0.0,0.0,0.0,0.0,0.036642052,2.0315123e-07,-2.1491606e-07,0.0,0.0015186811,0.004651702,-0.029936837,-0.040498234,5.0749746e-05,-5.368875e-05,0.0,0.11187643,-0.04668015,-0.06965807,2.1395693,0.0,0.1109434,0.029936837,0.11980373,0.24369402,0.10074764,0.105105355,inf,inf,inf,inf,0,1,0,1,1,0,1,1,0,0,0
46478271,0,0.0,0.0,0.0,0.0,0.035980213,2.0315123e-07,-2.1491606e-07,0.0,0.0017958801,0.004818756,-0.028037924,-0.035164285,5.0749746e-05,-5.368875e-05,0.0,0.053986467,0.015330844,0.2571175,2.139481,0.0,0.11200306,0.028037924,0.12103511,0.24497686,0.10135973,0.10545436,inf,inf,inf,inf,0,1,0,1,1,0,1,1,0,0,0
46582269,0,0.0,0.0,0.0,0.0,0.036131915,2.0315123e-07,-2.1491606e-07,0.0,0.001320095,0.004187353,-0.027448302,-0.0308482,5.0749746e-05,-5.368875e-05,0.0,-0.14110419,-0.055188183,0.0951159,2.1394646,0.0,0.109602585,0.027448302,0.12218915,0.24622102,0.101905055,0.10578354,inf,inf,inf,inf,0,1,0,1,1,0,1,1,0,0,0
46678291,0,0.0,0.0,0.0,0.0,0.033356678,2.0315123e-07,-2.1491606e-07,0.0,0.0020877658,0.0043724556,-0.02880184,-0.032007646,5.0749746e-05,-5.368875e-05,0.0,0.27620074,-0.0054449835,-0.11083424,2.1394935,0.0,0.10868509,0.02880184,0.122542165,0.24668469,0.10200453,0.10590618,inf,inf,inf,inf,0,1,0,1,1,0,1,1,0,0,0
46782311,0,0.0,0.0,0.0,0.0,0.033176105,2.0315123e-07,-2.1491606e-07,0.0,0.001857235,0.004512976,-0.027389891,-0.027662465,5.0749746e-05,-5.368875e-05,0.0,0.07567737,-0.04703192,-0.015128292,2.1395826,0.0,0.110805854,0.027389891,0.12351744,0.24783294,0.10241621,0.10619222,inf,inf,inf,inf,0,1,0,1,1,0,1,1,0,0,0
46886268,0,0.0,0.0,0.0,0.0,0.033183947,2.0315123e-07,-2.1491606e-07,0.0,0.001238242,0.0040600356,-0.026002117,-0.023657048,5.0749746e-05,-5.368875e-05,0.0,-0.08369935,-0.055339437,-0.04161826,2.1397126,0.0,0.1089548,0.026002117,0.12265881,0.24709836,0.10189113,0.10597573,inf,inf,inf,inf,0,1,0,1,1,0,1,1,0,0,0
46987069,0,0.0,0.0,0.0,0.0,0.03522584,2.0315123e-07,-2.1491606e-07,0.0,0.0019402973,0.0043581584,-0.02438541,-0.017854596,5.0749746e-05,-5.368875e-05,0.0,0.0033206535,0.12851615,0.047219787,2.139959,0.0,0.119760156,0.02438541,0.121885456,0.24640265,0.101440065,0.10577479,inf,inf,inf,inf,0,1,0,1,1,0,1,1,0,0,0
47085469,0,0.0,0.0,0.0,0.0,0.03865024,2.0315123e-07,-2.1491606e-07,0.0,0.0020550264,0.004827144,-0.02363649,-0.012275002,5.0749746e-05,-5.368875e-05,0.0,0.019423323,-0.035475444,-0.24945454,2.1402252,0.0,0.116754144,0.02363649,0.12231523,0.24691975,0.101638034,0.105902724,inf,inf,inf,inf,0,1,0,1,1,0,1,1,0,0,0
47189468,0,0.0,0.0,0.0,0.0,0.043572698,2.0315123e-07,-2.1491606e-07,0.0,0.0010349812,0.0048650345,-0.021268038,-0.0042773257,5.0749746e-05,-5.368875e-05,0.0,-0.045864534,0.15540096,-0.12969516,2.1405127,0.0,0.12058848,0.021268038,0.121284656,0.24591424,0.101057366,0.105677515,inf,inf,inf,inf,0,1,0,1,1,0,1,1,0,0,0
47285468,0,0.0,0.0,0.0,0.0,0.049979545,2.0315123e-07,-2.1491606e-07,0.0,0.0011515961,0.005011499,-0.018467663,0.0046804114,5.0749746e-05,-5.368875e-05,0.0,-0.0022462201,-0.15193716,0.09129994,2.140675,0.0,0.11800919,0.018467663,0.12025208,0.2448708,0.10056271,0.10535633,inf,inf,inf,inf,0,1,0,1,1,0,1,1,0,0,0
47389475,0,0.0,0.0,0.0,0.0,0.05503321,2.0315123e-07,-2.1491606e-07,0.0,0.0008977044,0.005400146,-0.017409792,0.009612825,5.0749746e-05,-5.368875e-05,0.0,-0.09395322,-0.12690917,-0.21887472,2.1406085,0.0,0.11421488,0.017409792,0.12142287,0.24610378,0.10119154,0.10568429,inf,inf,inf,inf,0,1,0,1,1,0,1,1,0,0,0
47493469,0,0.0,0.0,0.0,0.0,0.058763076,2.0315123e-07,-2.1491606e-07,0.0,0.0010544185,0.0058417358,-0.014356277,0.0145841725,5.0749746e-05,-5.368875e-05,0.0,0.031236168,0.014786895,0.16876207,2.140616,0.0,0.109963164,0.014356277,0.12085021,0.24549745,0.100922085,0.105522454,inf,inf,inf,inf,0,1,0,1,1,0,1,1,0,0,0
47592669,0,0.0,0.0,0.0,0.0,0.06175907,2.0315123e-07,-2.1491606e-07,0.0,-0.00025217896,0.006322422,-0.014207574,0.015817046,5.0749746e-05,-5.368875e-05,0.0,-0.08333266,-0.09170668,-0.020513298,2.1405494,0.0,0.10898128,0.014207574,0.119677715,0.2442457,0.10033904,0.10518905,inf,inf,inf,inf,0,1,0,1,1,0,1,1,0,0,0
47696696,0,0.0,0.0,0.0,0.0,0.064103015,2.0315123e-07,-2.1491606e-07,0.0,-0.00035751425,0.006538244,-0.013171972,0.016937077,5.0749746e-05,-5.368875e-05,0.0,-0.0017292248,-0.04754376,0.17765966,2.1405869,0.0,0.10737049,0.013171972,0.12089701,0.24550352,0.10100065,0.10552787,inf,inf,inf,inf,0,1,0,1,1,0,1,1,0,0,0
47792669,0,0.0,0.0,0.0,0.0,0.06493675,2.0315123e-07,-2.1491606e-07,0.0,0.00053767697,0.0070510316,-0.013079958,0.015734106,5.0749746e-05,-5.368875e-05,0.0,0.012080535,0.0061733196,0.10010127,2.1405969,0.0,0.10862892,0.013079958,0.120020844,0.24453999,0.10062141,0.10523868,inf,inf,inf,inf,0,1,0,1,1,0,1,1,0,0,0
47896675,0,0.0,0.0,0.0,0.0,0.06866767,2.0315123e-07,-2.1491606e-07,0.0,0.0005541094,0.0076803872,-0.011479214,0.018755164,5.0749746e-05,-5.368875e-05,0.0,-0.051279347,0.007659717,-0.051013473,2.1405425,0.0,0.10995335,0.011479214,0.121283755,0.24581933,0.101305656,0.105586186,inf,inf,inf,inf,0,1,0,1,1,0,1,1,0,0,0
48000669,0,0.0,0.0,0.0,0.0,0.07199557,2.0315123e-07,-2.1491606e-07,0.0,0.00032685156,0.007830495,-0.00925251,0.021637194,5.0749746e-05,-5.368875e-05,0.0,-0.14603941,-0.02315162,-0.212648,2.1405127,0.0,0.10478242,0.00925251,0.12065857,0.24518606,0.100963965,0.10541105,inf,inf,inf,inf,0,1,0,1,1,0,1,1,0,0,0
48103875,0,0.0,0.0,0.0,0.0,0.07391747,2.0315123e-07,-2.1491606e-07,0.0,-3.1416315e-05,0.008079395,-0.0073426915,0.022598892,5.0749746e-05,-5.368875e-05,0.0,-0.19568373,0.035000682,0.44986296,2.140592,0.0,0.102901526,0.0073426915,0.12178568,0.24639155,0.101530366,0.10572558,inf,inf,inf,inf,0,1,0,1,1,0,1,1,0,0,0
48199869,0,0.0,0.0,0.0,0.0,0.074513815,2.0315123e-07,-2.1491606e-07,0.0,0.0013803651,0.007943389,-0.008050776,0.019987073,5.0749746e-05,-5.368875e-05,0.0,0.15984902,-0.037151054,0.20796147,2.140656,0.0,0.1,0.008050776,0.12052186,0.2450894,0.10086109,0.105371736,inf,inf,inf,inf,0,1,0,1,1,0,1,1,0,0,0
48303869,0,0.0,0.0,0.0,0.0,0.07225787,2.0315123e-07,-2.1491606e-07,0.0,0.00078056275,0.0086523285,-0.009229282,0.014169584,5.0749746e-05,-5.368875e-05,0.0,0.16386487,0.0129559785,-0.27894604,2.140706,0.0,0.1,0.009229282,0.11983571,0.24435744,0.10049282,0.10519622,inf,inf,inf,inf,0,1,0,1,1,0,1,1,0,0,0
48407869,0,0.0,0.0,0.0,0.0,0.0688197,2.0315123e-07,-2.1491606e-07,0.0,-0.000107915504,0.009052326,-0.009338357,0.008954563,5.0749746e-05,-5.368875e-05,0.0,0.07658608,0.014550867,-0.086695015,2.1407084,0.0,0.1,0.009338357,0.121063374,0.24564692,0.10113937,0.10552869,inf,inf,inf,inf,0,1,0,1,1,0,1,1,0,0,0
48503910,0,0.0,0.0,0.0,0.0,0.06809477,2.0315123e-07,-2.1491606e-07,0.0,0.000121569814,0.00909803,-0.00954357,0.007059768,5.0749746e-05,-5.368875e-05,0.0,-0.024371706,0.012197664,0.11813575,2.140849,0.0,0.1,0.00954357,0.121524036,0.24617161,0.10135273,0.10565805,inf,inf,inf,inf,0,1,0,1,1,0,1,1,0,0,0
48607090,0,0.0,0.0,0.0,0.0,0.06816899,2.0315123e-07,-2.1491606e-07,0.0,0.00016219576,0.008659732,-0.009507206,0.0062869363,5.0749746e-05,-5.368875e-05,0.0,0.062356994,-0.0036312789,0.12253042,2.1409729,0.0,0.1,0.009507206,0.1208396,0.2454981,0.10097469,0.10546805,inf,inf,inf,inf,0,1,0,1,1,0,1,1,0,0,0
48711111,0,0.0,0.0,0.0,0.0,0.06483718,2.0315123e-07,-2.1491606e-07,0.0,0.00013000218,0.008745365,-0.011677616,0.00025546976,5.0749746e-05,-5.368875e-05,0.0,0.16522537,0.02940385,-0.094472624,2.1411138,0.0,0.1,0.011677616,0.12023601,0.24486762,0.10066282,0.10529543,inf,inf,inf,inf,0,1,0,1,1,0,1,1,0,0,0
48815085,0,0.0,0.0,0.0,0.0,0.065244846,2.0315123e-07,-2.1491606e-07,0.0,-0.0007380065,0.0090488745,-0.011363485,0.00096251495,5.0749746e-05,-5.368875e-05,0.0,0.0770032,0.020302137,-0.001548863,2.1413298,0.0,0.107240535,0.011363485,0.12137901,0.24604645,0.101269126,0.10562145,inf,inf,inf,inf,0,1,0,1,1,0,1,1,0,0,0
48919086,0,0.0,0.0,0.0,0.0,0.06666921,2.0315123e-07,-2.1491606e-07,0.0,-0.00020021643,0.009087535,-0.011298553,0.002307067,5.0749746e-05,-5.368875e-05,0.0,-0.05586508,-0.004433501,-0.03518111,2.1413708,0.0,0.10680616,0.011298553,0.120839745,0.24545094,0.10101131,0.10546466,inf,inf,inf,inf,0,1,0,1,1,0,1,1,0,0,0
49015080,0,0.0,0.0,0.0,0.0,0.069239125,2.0315123e-07,-2.1491606e-07,0.0,0.0005340091,0.009572587,-0.009467218,0.0062947967,5.0749746e-05,-5.368875e-05,0.0,-0.0119244475,0.16876674,0.07239871,2.1414897,0.0,0.11132376,0.009467218,0.11969908,0.2442147,0.10043966,0.10513654,inf,inf,inf,inf,0,1,0,1,1,0,1,1,0,0,0
49119068,0,0.0,0.0,0.0,0.0,0.07408951,2.0315123e-07,-2.1491606e-07,0.0,2.9285029e-05,0.009635071,-0.008095188,0.011536337,5.0749746e-05,-5.368875e-05,0.0,0.018805405,-0.08471778,-0.24303398,2.1414866,0.0,0.11321303,0.008095188,0.12088676,0.24544941,0.10105882,0.10546677,inf,inf,inf,inf,0,1,0,1,1,0,1,1,0,0,0
49222268,0,0.0,0.0,0.0,0.0,0.08062887,2.0315123e-07,-2.1491606e-07,0.0,1.407813e-05,0.010089677,-0.0037964594,0.020593911,5.0749746e-05,-5.368875e-05,0.0,0.12193338,0.0114997495,0.19022025,2.1414876,0.0,0.11225033,0.0037964594,0.12198986,0.2466401,0.101602465,0.105774865,inf,inf,inf,inf,0,1,0,1,1,0,1,1,0,0,0
