timestamp,magnetometer_ga[0],magnetometer_ga[1],magnetometer_ga[2]
29495077,-0.10159817,-0.16299996,0.3320412
29535066,-0.11751155,-0.15392327,0.33928108
29544671,-0.099785164,-0.16124591,0.32173344
29555067,-0.099785164,-0.16124591,0.32173344
29564668,-0.099785164,-0.16124591,0.32173344
29575066,-0.09982749,-0.18650743,0.33069944
29583867,-0.09632567,-0.14670786,0.33639866
29595072,-0.09804157,-0.15579991,0.32613072
29603867,-0.11391359,-0.1612306,0.3246116
29615066,-0.11039877,-0.15759991,0.3275542
29623867,-0.105085194,-0.16666128,0.32320905
29635070,-0.10693981,-0.164754,0.34233227
29644666,-0.09979889,-0.1539999,0.3246406
29655098,-0.10328618,-0.16850728,0.31586492
29663867,-0.09451338,-0.1738767,0.32624143
29683867,-0.09451338,-0.1738767,0.32624143
29692667,-0.10689802,-0.16118462,0.3334792
29703098,-0.10508528,-0.17027664,0.32322788
29712666,-0.10336976,-0.17564605,0.3335711
29723066,-0.101597734,-0.14492318,0.33194712
29732666,-0.096298136,-0.1575846,0.33056557
29743067,-0.105141066,-0.17744605,0.33504456
29752667,-0.08922699,-0.15759991,0.32765415
29763074,-0.099799424,-0.17569202,0.3247535
29772667,-0.101528585,-0.15946123,0.3172986
29783098,-0.09091515,-0.17033795,0.31151545
29793467,-0.09091515,-0.17033795,0.31151545
29803074,-0.10514071,-0.16298462,0.33496928
29811867,-0.09979871,-0.14676917,0.32460296
29823099,-0.09628424,-0.15759991,0.32762083
29831867,-0.08745603,-0.17026132,0.32625595
29843078,-0.094485305,-0.16306126,0.32029545
29851867,-0.11741406,-0.14679982,0.31863016
29863087,-0.105057396,-0.16669193,0.31731954
29871867,-0.108655885,-0.18107675,0.33210197
29883066,-0.09981324,-0.17206132,0.32767943
29891889,-0.09454109,-0.17023067,0.33211213
29902266,-0.106856406,-0.16484596,0.32466373
29911884,-0.106856406,-0.16484596,0.32466373
29922267,-0.10682887,-0.17572267,0.31883064
29931112,-0.09806928,-0.15215388,0.33200142
29942285,-0.1033277,-0.1612306,0.32466158
29951099,-0.110343345,-0.16489193,0.3158128
29962268,-0.1015841,-0.15578458,0.32905883
29971890,-0.10866898,-0.14852321,0.33487737
29982272,-0.10331353,-0.15039983,0.32166034
29991073,-0.094568804,-0.16658466,0.33798283
30002266,-0.11039859,-0.15036918,0.3275166
30011067,-0.10684277,-0.17570734,0.3217754
30020667,-0.10684277,-0.17570734,0.3217754
30031067,-0.10684277,-0.17570734,0.3217754
30039867,-0.10154248,-0.15944591,0.32024333
30050266,-0.1139552,-0.15756927,0.33342704
30059888,-0.09806955,-0.16299996,0.33205786
30070266,-0.10684268,-0.17209198,0.32175657
30079865,-0.10862764,-0.16303061,0.32611838
30090266,-0.09627043,-0.1612306,0.3246949
30099869,-0.10687031,-0.16483063,0.3276085
30110284,-0.1139274,-0.15759991,0.32753754
30119912,-0.11038469,-0.15038452,0.32457182
30130308,-0.10155656,-0.16666128,0.3232257
30139895,-0.10509901,-0.16303061,0.32613504
30150267,-0.10509901,-0.16303061,0.32613504
30159067,-0.1051408,-0.16659997,0.33498812
30170266,-0.106856495,-0.16846131,0.32468253
30179067,-0.105127074,-0.17384605,0.332081
30190266,-0.09627034,-0.15761524,0.32467607
30199067,-0.1103715,-0.1793227,0.32177755
30210266,-0.11740043,-0.15766121,0.31574184
30219067,-0.10335559,-0.1648153,0.3305699
30230266,-0.09091515,-0.17033795,0.31151545
30239067,-0.115685254,-0.17749204,0.3261603
30250266,-0.11211457,-0.16307658,0.31726742
30259075,-0.11211457,-0.16307658,0.31726742
30278288,-0.089255236,-0.17564605,0.3336377
30287884,-0.106842235,-0.15401521,0.32166252
30298291,-0.11922726,-0.15578458,0.32897553
30307890,-0.09627052,-0.16484596,0.3247137
30318266,-0.1068425,-0.16486128,0.32171896
30327868,-0.105099455,-0.1811074,0.3262291
30338274,-0.10511273,-0.15578458,0.32904217
30347895,-0.09978534,-0.16847663,0.3217711
30358277,-0.10335541,-0.1575846,0.33053228
30367889,-0.11572642,-0.15575393,0.3348817
30378267,-0.11572642,-0.15575393,0.3348817
30388683,-0.11572642,-0.15575393,0.3348817
30398266,-0.10864136,-0.15578458,0.3290255
30407066,-0.09984059,-0.15395392,0.33347487
30418266,-0.110370785,-0.15039983,0.32162702
30427067,-0.10335506,-0.14312315,0.330457
30438266,-0.09981315,-0.16844597,0.32766062
30447094,-0.10332761,-0.15761524,0.32464275
30457466,-0.10682869,-0.16849196,0.318793
30467078,-0.098097,-0.1485079,0.33787212
30477466,-0.0945549,-0.16659997,0.33503807
30487067,-0.10334151,-0.15759991,0.32758752
30507067,-0.10334151,-0.15759991,0.32758752
30517466,-0.10514062,-0.15936927,0.33495048
30526267,-0.09628442,-0.16483063,0.32765844
30536713,-0.11041284,-0.1648153,0.33053657
30546267,-0.10685614,-0.1539999,0.32460728
30556712,-0.11039886,-0.16121526,0.327573
30566267,-0.10865544,-0.16299996,0.33200788
30577467,-0.10516878,-0.17380007,0.34091523
30586266,-0.094499476,-0.17389202,0.32329667
30597519,-0.103272006,-0.15767655,0.31286368
30606267,-0.105043225,-0.1558612,0.31431836
30615867,-0.105043225,-0.1558612,0.31431836
30626278,-0.105043225,-0.1558612,0.31431836
30635067,-0.1280144,-0.16847663,0.3216378
30645466,-0.09984095,-0.16841534,0.33355013
30655067,-0.10159817,-0.16299996,0.3320412
30665466,-0.09806982,-0.17384605,0.3321143
30675066,-0.09627052,-0.16484596,0.3247137
30685466,-0.10334178,-0.16844597,0.32764396
30695127,-0.101570554,-0.17026132,0.3261893
30705466,-0.11214228,-0.15943058,0.32313812
30715085,-0.09272781,-0.15763056,0.32174796
30725466,-0.096256435,-0.15763056,0.3217313
30735867,-0.096256435,-0.15763056,0.3217313
30745499,-0.096256435,-0.15763056,0.3217313
30754266,-0.11217035,-0.17024599,0.3290841
30765498,-0.106842324,-0.15763056,0.32168132
30774267,-0.09627043,-0.1612306,0.3246949
30785482,-0.1103715,-0.1793227,0.32177755
30794266,-0.09092905,-0.17032261,0.31446025
30805482,-0.1033555,-0.16119994,0.3305511
30814267,-0.10682842,-0.1576459,0.31873655
30825485,-0.09984086,-0.16479999,0.33353132
30834267,-0.11396901,-0.15393859,0.336353
30845472,-0.108599566,-0.15221518,0.3201724
30854267,-0.108599566,-0.15221518,0.3201724
30873467,-0.10865517,-0.15215388,0.33195144
30883074,-0.098028205,-0.17750736,0.3232988
30893509,-0.08740061,-0.17755333,0.31451452
30903090,-0.124485575,-0.16124591,0.32161686
30913498,-0.101570286,-0.15941526,0.32613286
30923099,-0.11039877,-0.15759991,0.3275542
30933494,-0.103272095,-0.1612919,0.3128825
30943067,-0.09981315,-0.16844597,0.32766062
30953483,-0.09981253,-0.14313847,0.32752892
30963067,-0.10505722,-0.15946123,0.31728193
30973498,-0.10505722,-0.15946123,0.31728193
30983889,-0.10505722,-0.15946123,0.31728193
30993466,-0.1086133,-0.14496915,0.32307953
31002267,-0.10864199,-0.18109207,0.3291572
31012666,-0.0927279,-0.16124591,0.32176676
31022267,-0.110399306,-0.17929205,0.3276671
31032672,-0.101598084,-0.15938461,0.33202237
31042277,-0.10682824,-0.15041517,0.31869894
31052666,-0.101528585,-0.15946123,0.3172986
31062267,-0.105057485,-0.1703073,0.31733838
31072666,-0.10511327,-0.1774767,0.32915506
31082267,-0.09098448,-0.16303061,0.32620165
31092667,-0.09098448,-0.16303061,0.32620165
31102280,-0.09098448,-0.16303061,0.32620165
31112667,-0.0909704,-0.15581523,0.32321924
31121487,-0.11568437,-0.14133847,0.32597217
31132666,-0.11218443,-0.17746139,0.33206648
31141467,-0.10155629,-0.15581523,0.32316926
31152666,-0.10336922,-0.15395392,0.33345821
31161471,-0.1033555,-0.16119994,0.3305511
31172666,-0.11748356,-0.1467232,0.33335397
31181467,-0.10688438,-0.172046,0.33059087
31192666,-0.10155638,-0.15943058,0.3231881
31201467,-0.10155647,-0.16304593,0.3232069
31211074,-0.10155647,-0.16304593,0.3232069
31221467,-0.10155647,-0.16304593,0.3232069
31230266,-0.1050712,-0.16306126,0.3202455
31240666,-0.119241245,-0.15938461,0.3319391
31250271,-0.101597995,-0.15576926,0.33200356
31260666,-0.11925506,-0.15575393,0.33486503
31270269,-0.108683154,-0.15935396,0.33787858
31280666,-0.10687031,-0.16483063,0.3276085
31290273,-0.115685344,-0.1811074,0.32617915
31300666,-0.09804184,-0.16664596,0.32618716
31310308,-0.09272799,-0.16486128,0.32178557
31320675,-0.09451302,-0.15941526,0.32616618
31331067,-0.09451302,-0.15941526,0.32616618
31340666,-0.09451302,-0.15941526,0.32616618
31349467,-0.09628451,-0.16844597,0.32767728
31360670,-0.10862782,-0.17026132,0.326156
31369475,-0.11041284,-0.1648153,0.33053657
31380666,-0.106898196,-0.16841534,0.3335168
31389470,-0.1139691,-0.15755394,0.3363718
31400666,-0.1050991,-0.16664596,0.32615384
31409473,-0.106884114,-0.16119994,0.33053443
31420684,-0.10330007,-0.16849196,0.31880966
31429473,-0.08567073,-0.16486128,0.3218189
31440690,-0.10509874,-0.15218453,0.3260786
31449473,-0.10509874,-0.15218453,0.3260786
31468666,-0.11742814,-0.15401521,0.32161254
31478274,-0.101570286,-0.15941526,0.32613286
31488666,-0.11568481,-0.15941526,0.32606626
31498267,-0.11569907,-0.17386137,0.32908624
31508666,-0.098028116,-0.17389202,0.32328
31518267,-0.112170085,-0.15939993,0.32902765
31528666,-0.096270606,-0.16846131,0.3247325
31538285,-0.11391386,-0.17207666,0.32466805
31548666,-0.117455944,-0.15398456,0.32750207
31558271,-0.11395565,-0.17564605,0.33352113
31568667,-0.11395565,-0.17564605,0.33352113
31579100,-0.11395565,-0.17564605,0.33352113
31587876,-0.09977135,-0.16487661,0.3188075
31597467,-0.10689811,-0.16479999,0.333498
31607866,-0.10687031,-0.16483063,0.3276085
31617466,-0.10684259,-0.16847663,0.32173777
31627866,-0.1016119,-0.15575393,0.33494833
31637467,-0.09629805,-0.15396924,0.33054677
31648666,-0.105043314,-0.15947655,0.31433716
31657467,-0.10864163,-0.16663063,0.32908195
31667866,-0.092714176,-0.16849196,0.31885964
31677466,-0.09806946,-0.15938461,0.33203903
31687867,-0.09806946,-0.15938461,0.33203903
31696667,-0.10163988,-0.16295397,0.34087545
31707866,-0.12097094,-0.16484596,0.3245971
31716666,-0.10514053,-0.15575393,0.33493167
31727915,-0.11391368,-0.16484596,0.3246304
31736667,-0.10158428,-0.16301528,0.32909644
31747904,-0.10335532,-0.15396924,0.33051345
31756685,-0.1068425,-0.16486128,0.32171896
31767915,-0.10865535,-0.15938461,0.33198908
31776709,-0.11218416,-0.1666153,0.33201003
31787868,-0.11214237,-0.16304593,0.32315692
31796713,-0.11394139,-0.16119994,0.3305011
31815867,-0.10862782,-0.17026132,0.326156
31825467,-0.101584636,-0.1774767,0.3291717
31835866,-0.1121838,-0.15215388,0.33193478
31845466,-0.115712784,-0.1666153,0.33199337
31855866,-0.11392749,-0.16121526,0.32755637
31865467,-0.10509874,-0.15218453,0.3260786
31875904,-0.113941655,-0.172046,0.33055755
31885467,-0.11048244,-0.16835403,0.3452792
31895865,-0.10507102,-0.15583056,0.32020786
31905466,-0.09984077,-0.16118462,0.33351249
31915905,-0.09984077,-0.16118462,0.33351249
31926267,-0.09984077,-0.16118462,0.33351249
31935887,-0.09978543,-0.17209198,0.3217899
31944691,-0.11039886,-0.16121526,0.327573
31955866,-0.10685632,-0.1612306,0.32464492
31964695,-0.10511291,-0.16301528,0.32907978
31975866,-0.10519631,-0.16292334,0.34674835
31984702,-0.11391386,-0.17207666,0.32466805
31995866,-0.11398327,-0.16838469,0.339373
32004674,-0.117414325,-0.1576459,0.3186866
32015866,-0.090970755,-0.17027664,0.3232945
32024672,-0.10155647,-0.16304593,0.3232069
32044667,-0.10155647,-0.16304593,0.3232069
32053467,-0.09806973,-0.17023067,0.33209547
32063872,-0.11391377,-0.16846131,0.32464924
32073467,-0.10509865,-0.1485692,0.32605976
32083878,-0.10512663,-0.15576926,0.3319869
32093467,-0.09802794,-0.16666128,0.32324237
32103866,-0.09808327,-0.15575393,0.334965
32115066,-0.10507129,-0.16667661,0.3202643
32123866,-0.09805601,-0.1774767,0.32918835
32135067,-0.09806964,-0.1666153,0.33207667
32143867,-0.10336958,-0.16841534,0.33353347
32153467,-0.10336958,-0.16841534,0.33353347
32163872,-0.10336958,-0.16841534,0.33353347
32172703,-0.106898285,-0.17203069,0.3335356
32183079,-0.1033555,-0.16119994,0.3305511
32192667,-0.09806937,-0.15576926,0.33202022
32203066,-0.11218407,-0.16299996,0.33199123
32212690,-0.11392731,-0.15398456,0.32751873
32223066,-0.10159826,-0.1666153,0.33206
32232677,-0.1085863,-0.17753801,0.31735933
32243066,-0.09981288,-0.15759991,0.32760417
32252688,-0.10865562,-0.17023067,0.33204553
32263073,-0.10866925,-0.15936927,0.33493382
32272690,-0.10518259,-0.17016937,0.3438412
32283067,-0.10518259,-0.17016937,0.3438412
32291873,-0.10509892,-0.15941526,0.3261162
32303066,-0.09449903,-0.15581523,0.32320258
32311867,-0.105085015,-0.15943058,0.32317144
32323099,-0.10330025,-0.17572267,0.3188473
32331867,-0.092783414,-0.15756927,0.333527
32343066,-0.10158419,-0.15939993,0.32907763
32351867,-0.09632639,-0.17563072,0.33654916
32363066,-0.092825204,-0.16113864,0.34238008
32371866,-0.10158446,-0.17024599,0.32913408
32383072,-0.105126806,-0.16299996,0.33202454
32391867,-0.10158419,-0.15939993,0.32907763
32401490,-0.10158419,-0.15939993,0.32907763
32411066,-0.10864154,-0.16301528,0.32906312
32420668,-0.1104263,-0.1467232,0.33338726
32431081,-0.105168514,-0.16295397,0.34085882
32440715,-0.11391323,-0.14676917,0.32453635
32451066,-0.12095695,-0.16124591,0.32163352
32460694,-0.10332761,-0.15761524,0.32464275
32471066,-0.10159817,-0.16299996,0.3320412
32480667,-0.11922762,-0.17024599,0.32905078
32491098,-0.101597995,-0.15576926,0.33200356
32500666,-0.09989646,-0.16473868,0.34531036
32511066,-0.113941476,-0.1648153,0.3305199
32521470,-0.113941476,-0.1648153,0.3305199
32531067,-0.11569898,-0.17024599,0.32906744
32539867,-0.09627043,-0.1612306,0.3246949
32551066,-0.0944993,-0.16666128,0.32325903
32559905,-0.08042621,-0.15576926,0.33210352
32571066,-0.09977126,-0.16126125,0.3187887
32579885,-0.10864145,-0.15939993,0.3290443
32591073,-0.10514089,-0.17021534,0.33500692
32599867,-0.110385135,-0.16846131,0.3246659
32611066,-0.09276987,-0.172046,0.3306575
32619867,-0.10161172,-0.14852321,0.3349107
32639878,-0.10161172,-0.14852321,0.3349107
32648667,-0.112169996,-0.15578458,0.32900885
32659098,-0.09977153,-0.17210731,0.31884512
32669475,-0.10864181,-0.17386137,0.32911956
32679066,-0.10868324,-0.1629693,0.3378974
32689483,-0.09808336,-0.15936927,0.3349838
32699066,-0.112169996,-0.15578458,0.32900885
32710292,-0.09986884,-0.17200004,0.33945844
32719067,-0.11214246,-0.16666128,0.32317576
32730300,-0.105126895,-0.1666153,0.33204335
32739066,-0.10514044,-0.15213855,0.33491284
32748678,-0.10514044,-0.15213855,0.33491284
32759074,-0.10514044,-0.15213855,0.33491284
32767871,-0.11039886,-0.16121526,0.327573
32778266,-0.103397205,-0.16115397,0.33938536
32787866,-0.10865535,-0.15938461,0.33198908
32798296,-0.110384956,-0.1612306,0.32462826
32807867,-0.12274189,-0.15218453,0.3259953
32818278,-0.098055564,-0.15939993,0.3290943
32827866,-0.11748392,-0.16118462,0.33342922
32838269,-0.10516887,-0.1774154,0.34093407
32847867,-0.11042675,-0.16479999,0.33348134
32858273,-0.1033416,-0.16121526,0.32760632
32867867,-0.1033416,-0.16121526,0.32760632
32878272,-0.1033416,-0.16121526,0.32760632
32887067,-0.096256256,-0.15039983,0.32169366
32898274,-0.106856406,-0.16484596,0.32466373
32907071,-0.1034111,-0.16113864,0.3423301
32918283,-0.13159837,-0.15756927,0.33334377
32927067,-0.103313975,-0.16847663,0.32175443
32938266,-0.105126984,-0.17023067,0.33206216
32947071,-0.094526924,-0.15939993,0.32911095
32958266,-0.096256524,-0.16124591,0.3217501
32967094,-0.09632585,-0.15393859,0.33643627
32978266,-0.101570465,-0.16664596,0.3261705
32987078,-0.101570465,-0.16664596,0.3261705
33006292,-0.110426836,-0.16841534,0.33350015
33015867,-0.08918537,-0.16126125,0.31883866
33026316,-0.110384956,-0.1612306,0.32462826
33035871,-0.10509883,-0.15579991,0.3260974
33046268,-0.0962846,-0.17206132,0.32769608
33055867,-0.09977162,-0.17572267,0.31886396
33066302,-0.10866934,-0.16298462,0.33495265
33075866,-0.113983095,-0.16115397,0.33933538
33086266,-0.11391368,-0.16484596,0.3246304
33095867,-0.10509883,-0.15579991,0.3260974
33106267,-0.10509883,-0.15579991,0.3260974
33116667,-0.10509883,-0.15579991,0.3260974
33126266,-0.11572624,-0.14852321,0.33484405
33135066,-0.089199096,-0.15401521,0.32174578
33146266,-0.11396946,-0.17201535,0.33644706
33155072,-0.110412754,-0.16119994,0.33051777
33166266,-0.101584546,-0.17386137,0.32915288
33175067,-0.10162616,-0.17020002,0.33796835
33186266,-0.11219815,-0.17021534,0.3349736
33195067,-0.09984086,-0.16479999,0.33353132
33206266,-0.10515452,-0.15935396,0.33789524
33215068,-0.10691201,-0.16478465,0.33644274
33235097,-0.10691201,-0.16478465,0.33644274
33245466,-0.10866881,-0.14129248,0.33483976
33254267,-0.10681506,-0.17935336,0.3159047
33265466,-0.11038478,-0.1539999,0.32459062
33274267,-0.12278377,-0.15936927,0.3348672
33285488,-0.1156988,-0.16301528,0.32902983
33294267,-0.11219815,-0.17021534,0.3349736
33305511,-0.11574023,-0.15212323,0.33780763
33314268,-0.09979898,-0.15761524,0.3246594
33325466,-0.10509919,-0.17026132,0.32617265
33334267,-0.10159826,-0.1666153,0.33206
33343867,-0.10159826,-0.1666153,0.33206
33354279,-0.10159826,-0.1666153,0.33206
33363099,-0.11569907,-0.17386137,0.32908624
33373466,-0.09456889,-0.17020002,0.33800164
33383114,-0.11921336,-0.15579991,0.32603076
33393466,-0.087455764,-0.15941526,0.3261995
33403089,-0.11039886,-0.16121526,0.327573
33413466,-0.10865517,-0.15215388,0.33195144
33423124,-0.09627034,-0.15761524,0.32467607
33433466,-0.10865526,-0.15576926,0.33197024
33443111,-0.11037105,-0.16124591,0.32168347
33453484,-0.103314064,-0.17209198,0.32177323
33463067,-0.103314064,-0.17209198,0.32177323
33473481,-0.103314064,-0.17209198,0.32177323
33482272,-0.103355676,-0.16843066,0.33058873
33493476,-0.11219788,-0.15936927,0.33491716
33502312,-0.09628442,-0.16483063,0.32765844
33513466,-0.10865562,-0.17023067,0.33204553
33522267,-0.09802785,-0.16304593,0.32322356
33533466,-0.115685076,-0.17026132,0.3261227
33542267,-0.11388578,-0.16126125,0.31872207
33553466,-0.09806982,-0.17384605,0.3321143
33562267,-0.11215618,-0.15941526,0.32608292
33573466,-0.10865535,-0.15938461,0.33198908
33582267,-0.10865535,-0.15938461,0.33198908
33601466,-0.108614005,-0.17389202,0.32323003
33611074,-0.09627043,-0.1612306,0.3246949
33621473,-0.10338357,-0.17201535,0.33649704
33631067,-0.115670905,-0.15943058,0.32312146
33641507,-0.11740061,-0.16489193,0.31577948
33651066,-0.108683154,-0.15935396,0.33787858
33661466,-0.092755795,-0.16483063,0.3276751
33671067,-0.10511273,-0.15578458,0.32904217
33681466,-0.1016119,-0.15575393,0.33494833
33691066,-0.10864136,-0.15578458,0.3290255
33701467,-0.10864136,-0.15578458,0.3290255
33710267,-0.11396892,-0.15032321,0.33633417
33721466,-0.1051408,-0.16659997,0.33498812
33730279,-0.094485395,-0.16667661,0.3203143
33741466,-0.09624271,-0.16487661,0.31882417
33750275,-0.119213626,-0.16664596,0.3260872
33761466,-0.10865562,-0.17023067,0.33204553
33770280,-0.110370874,-0.15401521,0.32164586
33780666,-0.09978525,-0.16486128,0.32175225
33790267,-0.105099276,-0.1738767,0.32619148
33800666,-0.10861365,-0.15943058,0.32315478
33810267,-0.10861365,-0.15943058,0.32315478
33820710,-0.10861365,-0.15943058,0.32315478
33829482,-0.105168425,-0.15933862,0.34083998
33840698,-0.11394183,-0.17927673,0.3305952
33849468,-0.10868324,-0.1629693,0.3378974
33859915,-0.10864136,-0.15578458,0.3290255
33869466,-0.11222542,-0.14849256,0.34075022
33880674,-0.09985449,-0.15393859,0.3364196
33889467,-0.105126984,-0.17023067,0.33206216
33900666,-0.08919945,-0.16847663,0.32182106
33909477,-0.099826865,-0.16119994,0.33056775
33920666,-0.105126806,-0.16299996,0.33202454
33929467,-0.105126806,-0.16299996,0.33202454
33939067,-0.105126806,-0.16299996,0.33202454
33948676,-0.09454082,-0.15938461,0.3320557
33958267,-0.09805565,-0.16301528,0.3291131
33968687,-0.12104036,-0.16115397,0.33930206
33978269,-0.11035742,-0.17210731,0.31879517
33988700,-0.09802767,-0.15581523,0.32318592
33998266,-0.108613916,-0.17027664,0.32321122
34008709,-0.09451347,-0.17749204,0.32626027
34018266,-0.103313886,-0.16486128,0.32173562
34028692,-0.10336958,-0.16841534,0.33353347
34038267,-0.09627052,-0.16484596,0.3247137
34048667,-0.09627052,-0.16484596,0.3247137
34058274,-0.09627052,-0.16484596,0.3247137
34068666,-0.11039895,-0.16483063,0.32759184
34077467,-0.1016536,-0.15570796,0.34378257
34088666,-0.099841036,-0.17203069,0.33356893
34097467,-0.1016119,-0.15575393,0.33494833
34108684,-0.10509883,-0.15579991,0.3260974
34117467,-0.10514044,-0.15213855,0.33491284
34128666,-0.09097049,-0.15943058,0.32323807
34137472,-0.09975772,-0.17573799,0.3159192
34148669,-0.1050712,-0.16306126,0.3202455
34157467,-0.10682905,-0.18295339,0.31886828
34177514,-0.10682905,-0.18295339,0.31886828
34186267,-0.10509883,-0.15579991,0.3260974
34196666,-0.10512716,-0.17746139,0.3320998
34206267,-0.097986326,-0.17032261,0.31442693
34216666,-0.11569862,-0.15578458,0.3289922
34226285,-0.11044065,-0.16478465,0.33642608
34236666,-0.10687031,-0.16483063,0.3276085
34246320,-0.09798615,-0.1630919,0.3143893
34256666,-0.11389995,-0.17209198,0.32172325
34266270,-0.1068425,-0.16486128,0.32171896
34276688,-0.09804148,-0.15218453,0.3261119
34287067,-0.09804148,-0.15218453,0.3261119
34296693,-0.11044056,-0.16116929,0.33640727
34305467,-0.10866934,-0.16298462,0.33495265
34316666,-0.10155647,-0.16304593,0.3232069
34325502,-0.10684241,-0.16124591,0.32170013
34335866,-0.105084665,-0.14496915,0.3230962
34345509,-0.117456034,-0.15759991,0.32752088
34355866,-0.11394183,-0.17927673,0.3305952
34365499,-0.11392722,-0.15036918,0.32749993
34375866,-0.106884025,-0.1575846,0.33051562
34385474,-0.09622864,-0.15766121,0.3158418
34396666,-0.10331344,-0.14678448,0.32164153
34405484,-0.10331344,-0.14678448,0.32164153
34415867,-0.09627043,-0.1612306,0.3246949
34424667,-0.07688386,-0.16301528,0.32921305
34435866,-0.10862764,-0.16303061,0.32611838
34444693,-0.09451293,-0.15579991,0.32614738
34455866,-0.10858594,-0.16307658,0.31728408
34464698,-0.10332761,-0.15761524,0.32464275
34475866,-0.12449957,-0.16484596,0.32458046
34484666,-0.10688447,-0.17566137,0.33060968
34495866,-0.11039913,-0.17206132,0.32762945
34504666,-0.10862755,-0.15941526,0.32609957
34514266,-0.10509892,-0.15941526,0.3261162
34524667,-0.10509892,-0.15941526,0.3261162
34533468,-0.11035706,-0.1576459,0.3187199
34543866,-0.10514071,-0.16298462,0.33496928
34553499,-0.11042675,-0.16479999,0.33348134
34563866,-0.1015423,-0.15221518,0.32020572
34573467,-0.11569916,-0.1774767,0.32910508
34583866,-0.11041284,-0.1648153,0.33053657
34593467,-0.11921354,-0.16303061,0.3260684
34603866,-0.09984077,-0.16118462,0.33351249
34613467,-0.10151531,-0.18478404,0.31448552
34623881,-0.10334151,-0.15759991,0.32758752
34634284,-0.10334151,-0.15759991,0.32758752
34643867,-0.10334151,-0.15759991,0.32758752
34652667,-0.112197615,-0.14852321,0.3348607
34663866,-0.099785164,-0.16124591,0.32173344
34672667,-0.098097265,-0.15935396,0.33792856
34683866,-0.12451347,-0.16483063,0.3275252
34692682,-0.113941565,-0.16843066,0.33053875
34703866,-0.10687013,-0.15759991,0.32757086
34712667,-0.108697236,-0.16656932,0.34086096
34723866,-0.094526924,-0.15939993,0.32911095
34732667,-0.105113,-0.16663063,0.3290986
34743868,-0.09624289,-0.17210731,0.31886178
34752667,-0.09624289,-0.17210731,0.31886178
34771866,-0.10684268,-0.17209198,0.32175657
34781466,-0.112142906,-0.18473807,0.3232698
34791866,-0.1015702,-0.15579991,0.32611406
34801466,-0.09628424,-0.15759991,0.32762083
34811866,-0.09272817,-0.17209198,0.3218232
34821467,-0.10155647,-0.16304593,0.3232069
34831866,-0.12101255,-0.16118462,0.33341256
34841467,-0.096256614,-0.16486128,0.3217689
34851866,-0.09804166,-0.15941526,0.32614952
34862267,-0.10864172,-0.17024599,0.32910076
34871867,-0.10864172,-0.17024599,0.32910076
34881486,-0.10864172,-0.17024599,0.32910076
34891866,-0.087455854,-0.16303061,0.3262183
34900666,-0.10511282,-0.15939993,0.32906097
34911866,-0.09988211,-0.14667721,0.3422715
34920667,-0.10512654,-0.15215388,0.3319681
34931109,-0.112170175,-0.16301528,0.32904646
34940671,-0.10155647,-0.16304593,0.3232069
34951098,-0.10162625,-0.1738154,0.33798715
34960674,-0.12631267,-0.17021534,0.334907
34971113,-0.115754224,-0.15572327,0.3407712
34980667,-0.1068704,-0.16844597,0.3276273
34991082,-0.09801421,-0.17390735,0.32033524
35000667,-0.09801421,-0.17390735,0.32033524
35011125,-0.10508449,-0.13773844,0.32305855
35019877,-0.11744222,-0.1612306,0.32459494
35031066,-0.12274243,-0.1738767,0.3261082
35039867,-0.1156988,-0.16301528,0.32902983
35051066,-0.10324411,-0.15409185,0.30695537
35059872,-0.106898375,-0.17564605,0.33355445
35071067,-0.09635356,-0.15029256,0.34230697
35079867,-0.112211876,-0.1629693,0.33788073
35091066,-0.11039895,-0.16483063,0.32759184
35099885,-0.11565736,-0.17390735,0.32025197
35111066,-0.08741424,-0.16669193,0.31740284
35119903,-0.08741424,-0.16669193,0.31740284
35128667,-0.115684986,-0.16664596,0.32610387
35139073,-0.10685632,-0.1612306,0.32464492
35148678,-0.10508528,-0.17027664,0.32322788
35159070,-0.10860037,-0.1847534,0.32034174
35168667,-0.1156014,-0.1595072,0.30839765
35179100,-0.10155638,-0.15943058,0.3231881
35188666,-0.10682887,-0.17572267,0.31883064
35199066,-0.106814615,-0.16127656,0.31581062
35208667,-0.110385045,-0.16484596,0.32464707
35219066,-0.10682869,-0.16849196,0.318793
35228667,-0.11742823,-0.15763056,0.32163134
35239067,-0.11742823,-0.15763056,0.32163134
35247907,-0.1051408,-0.16659997,0.33498812
35259066,-0.091012456,-0.17023067,0.3321288
35267911,-0.115670905,-0.15943058,0.32312146
35279067,-0.10857195,-0.15947655,0.3143205
35287897,-0.10336931,-0.15756927,0.33347702
35299073,-0.09975728,-0.15766121,0.31582513
35307897,-0.110370964,-0.15763056,0.32166466
35319098,-0.10505713,-0.15584588,0.3172631
35327882,-0.10866952,-0.17021534,0.33499026
35339074,-0.092672296,-0.16130722,0.30998772
35347907,-0.092672296,-0.16130722,0.30998772
35367066,-0.1051547,-0.16658466,0.33793285
35376667,-0.108614005,-0.17389202,0.32323003
35387066,-0.106898464,-0.17926142,0.33357325
35396666,-0.10508537,-0.17389202,0.3232467
35407068,-0.11212847,-0.16306126,0.3202122
35417467,-0.119199365,-0.15219985,0.3230672
35427079,-0.105085194,-0.16666128,0.32320905
35436707,-0.101570554,-0.17026132,0.3261893
35447067,-0.09629849,-0.172046,0.33064085
35458267,-0.10862782,-0.17026132,0.326156
35467067,-0.10862782,-0.17026132,0.326156
35476668,-0.10862782,-0.17026132,0.326156
35486285,-0.09978534,-0.16847663,0.3217711
35495884,-0.10151504,-0.17393799,0.31442907
35506310,-0.10329998,-0.16487661,0.31879085
35515898,-0.09805601,-0.1774767,0.32918835
35526266,-0.105126806,-0.16299996,0.33202454
35535867,-0.09981315,-0.16844597,0.32766062
35546266,-0.09449912,-0.15943058,0.32322142
35555867,-0.1068704,-0.16844597,0.3276273
35566275,-0.10861383,-0.16666128,0.32319242
35575867,-0.1050991,-0.16664596,0.32615384
35586266,-0.1050991,-0.16664596,0.32615384
35595867,-0.1050991,-0.16664596,0.32615384
35606266,-0.11039886,-0.16121526,0.327573
35615077,-0.11214255,-0.17027664,0.32319456
35626266,-0.11038531,-0.17569202,0.3247035
35635067,-0.110385224,-0.17207666,0.3246847
35646266,-0.10336976,-0.17564605,0.3335711
35655094,-0.10507129,-0.16667661,0.3202643
35666266,-0.10691228,-0.17563072,0.33649918
35675066,-0.10505731,-0.16307658,0.31730074
35686266,-0.11394139,-0.16119994,0.3305011
35695067,-0.101612255,-0.17021534,0.33502358
35704686,-0.101612255,-0.17021534,0.33502358
35715067,-0.101612255,-0.17021534,0.33502358
35723867,-0.09094269,-0.15946123,0.31734854
35734266,-0.11744204,-0.1539999,0.3245573
35743867,-0.097986326,-0.17032261,0.31442693
35754266,-0.09102636,-0.17021534,0.33507356
35763867,-0.10161181,-0.15213855,0.3349295
35774267,-0.10158428,-0.16301528,0.32909644
35783867,-0.11041284,-0.1648153,0.33053657
35794266,-0.10154275,-0.17029198,0.32029977
35803866,-0.1050712,-0.16306126,0.3202455
35814266,-0.10511291,-0.16301528,0.32907978
35824667,-0.10511291,-0.16301528,0.32907978
35834267,-0.10511291,-0.16301528,0.32907978
35843067,-0.112128824,-0.17752269,0.32028744
35854266,-0.101570554,-0.17026132,0.3261893
35863067,-0.10150123,-0.17756866,0.3115031
35874266,-0.10509892,-0.15941526,0.3261162
35883067,-0.10509901,-0.16303061,0.32613504
35894266,-0.091012366,-0.1666153,0.33211
35903067,-0.10152832,-0.14861517,0.31724215
35914268,-0.10332743,-0.15038452,0.32460514
35923085,-0.11219815,-0.17021534,0.3349736
35934266,-0.11215636,-0.16664596,0.32612053
35943112,-0.11215636,-0.16664596,0.32612053
35962266,-0.099799335,-0.17207666,0.3247347
35973526,-0.11037105,-0.16124591,0.32168347
35982267,-0.10865535,-0.15938461,0.33198908
35993515,-0.10331344,-0.14678448,0.32164153
36002272,-0.10162607,-0.16658466,0.3379495
36013467,-0.1050991,-0.16664596,0.32615384
36022267,-0.10162625,-0.1738154,0.33798715
36033466,-0.10865544,-0.16299996,0.33200788
36042266,-0.11214246,-0.16666128,0.32317576
36053467,-0.09978525,-0.16486128,0.32175225
36062269,-0.09978525,-0.16486128,0.32175225
36071867,-0.09978525,-0.16486128,0.32175225
36081503,-0.085698806,-0.17567669,0.32776487
36091074,-0.11747029,-0.172046,0.3305409
36101477,-0.112170175,-0.16301528,0.32904646
36111097,-0.10693972,-0.16113864,0.34231344
36121483,-0.105084665,-0.14496915,0.3230962
36131111,-0.115657,-0.15944591,0.32017672
36141484,-0.09449912,-0.15943058,0.32322142
36151066,-0.11926932,-0.17020002,0.33788505
36161507,-0.087455675,-0.15579991,0.3261807
36171067,-0.091026,-0.15575393,0.33499828
36181466,-0.10334142,-0.15398456,0.3275687
36191067,-0.10334142,-0.15398456,0.3275687
36201466,-0.09625688,-0.17570734,0.32182536
36210267,-0.11392722,-0.15036918,0.32749993
36221466,-0.115670815,-0.15581523,0.32310265
36230267,-0.10864154,-0.16301528,0.32906312
36241466,-0.103397116,-0.15753862,0.33936653
36250304,-0.11037105,-0.16124591,0.32168347
36261466,-0.09981315,-0.16844597,0.32766062
36270296,-0.09624298,-0.17572267,0.31888062
36281466,-0.099799156,-0.16484596,0.32469705
36290279,-0.090928786,-0.15947655,0.3144038
36310306,-0.090928786,-0.15947655,0.3144038
36319067,-0.09452719,-0.17024599,0.3291674
36329502,-0.10505704,-0.1522305,0.3172443
36339067,-0.10328573,-0.15043049,0.31577083
36349506,-0.11748392,-0.16118462,0.33342922
36359066,-0.11045455,-0.16476934,0.33937085
36369501,-0.09631186,-0.15033855,0.3334727
36379067,-0.11748374,-0.15395392,0.33339158
36389466,-0.09631204,-0.15756927,0.33351034
36399067,-0.108683065,-0.1557386,0.33785975
36409466,-0.094443515,-0.15949188,0.31144235
36419867,-0.094443515,-0.15949188,0.31144235
36429467,-0.094443515,-0.15949188,0.31144235
36438282,-0.11394183,-0.17927673,0.3305952
36449466,-0.10686995,-0.15036918,0.32753322
36458277,-0.10864217,-0.18832277,0.32919484
36469466,-0.105043314,-0.15947655,0.31433716
36478279,-0.09804148,-0.15218453,0.3261119
36489479,-0.0909982,-0.15578458,0.32910877
36498288,-0.112128645,-0.17029198,0.3202498
36509472,-0.09272746,-0.14316912,0.32167268
36518267,-0.108614005,-0.17389202,0.32323003
36529480,-0.10336949,-0.16479999,0.33351466
36538267,-0.10336949,-0.16479999,0.33351466
36548666,-0.097972244,-0.16310723,0.31144452
36557467,-0.12101255,-0.16118462,0.33341256
36568666,-0.09978481,-0.14678448,0.3216582
36577469,-0.10686986,-0.14675383,0.3275144
36588666,-0.09811108,-0.15572327,0.3408545
36597467,-0.10857168,-0.14863048,0.31426406
36607122,-0.1051408,-0.16659997,0.33498812
36617467,-0.10684259,-0.16847663,0.32173777
36628688,-0.11395502,-0.15033855,0.33338943
36637497,-0.11745621,-0.16483063,0.32755852
36648686,-0.0998405,-0.15033855,0.33345604
36657467,-0.0998405,-0.15033855,0.33345604
36666266,-0.106883675,-0.14312315,0.33044034
36676666,-0.087470025,-0.17386137,0.32921952
36686277,-0.09451338,-0.1738767,0.32624143
36696666,-0.105126984,-0.17023067,0.33206216
36706266,-0.11210085,-0.17032261,0.3143603
36716666,-0.103299715,-0.15403055,0.3187344
36726266,-0.10509892,-0.15941526,0.3261162
36736666,-0.10678708,-0.17215328,0.30997753
36746285,-0.11039886,-0.16121526,0.327573
36756666,-0.105085194,-0.16666128,0.32320905
36767067,-0.105085194,-0.16666128,0.32320905
36776667,-0.105085194,-0.16666128,0.32320905
36785467,-0.099826954,-0.1648153,0.33058655
36796674,-0.105126716,-0.15938461,0.33200574
36805467,-0.09275553,-0.15398456,0.32761866
36816681,-0.10689793,-0.15756927,0.33346036
36825470,-0.11396919,-0.16116929,0.3363906
36836709,-0.10159835,-0.17023067,0.3320788
36845467,-0.1191999,-0.17389202,0.32318005
36856666,-0.11569889,-0.16663063,0.32904863
36865467,-0.10512663,-0.15576926,0.3319869
36876666,-0.10685614,-0.1539999,0.32460728
36885470,-0.10685614,-0.1539999,0.32460728
36904666,-0.09632612,-0.16478465,0.33649272
36914289,-0.1033555,-0.16119994,0.3305511
36924666,-0.11395529,-0.16118462,0.33344588
36934311,-0.11221161,-0.15212323,0.33782429
36944666,-0.108557865,-0.15226115,0.3113381
36954267,-0.105085105,-0.16304593,0.32319024
36964676,-0.096256614,-0.16486128,0.3217689
36974298,-0.10507129,-0.16667661,0.3202643
36984696,-0.092714176,-0.16849196,0.31885964
36994266,-0.10157011,-0.15218453,0.32609525
37004680,-0.10157011,-0.15218453,0.32609525
37015086,-0.10157011,-0.15218453,0.32609525
37024670,-0.10327263,-0.18298404,0.31299537
37033467,-0.09458262,-0.16295397,0.34090877
37044707,-0.10861383,-0.16666128,0.32319242
37053467,-0.11214237,-0.16304593,0.32315692
37064666,-0.11388587,-0.16487661,0.31874087
37073467,-0.09804229,-0.18472275,0.32628122
37084666,-0.10681488,-0.17212263,0.31586707
37093467,-0.10859992,-0.16667661,0.32024765
37103866,-0.10682887,-0.17572267,0.31883064
37113466,-0.12802836,-0.17207666,0.3246014
37123867,-0.12802836,-0.17207666,0.3246014
37132674,-0.10331371,-0.15763056,0.32169798
37143867,-0.10509883,-0.15579991,0.3260974
37152678,-0.11215627,-0.16303061,0.32610172
37163866,-0.10508484,-0.15219985,0.3231338
37172709,-0.10505731,-0.16307658,0.31730074
37183866,-0.10682851,-0.16126125,0.3187554
37192672,-0.11391359,-0.1612306,0.3246116
37203866,-0.105043314,-0.15947655,0.31433716
37212713,-0.10158437,-0.16663063,0.32911527
37223866,-0.11218389,-0.15576926,0.3319536
37232667,-0.11218389,-0.15576926,0.3319536
37242283,-0.11218389,-0.15576926,0.3319536
37251866,-0.10334142,-0.15398456,0.3275687
37261481,-0.099785075,-0.15763056,0.32171464
37271866,-0.12095713,-0.16847663,0.32167113
37281467,-0.08392695,-0.15218453,0.32617852
37291866,-0.11385834,-0.17575333,0.3129078
37301466,-0.099826865,-0.16119994,0.33056775
37311866,-0.10511264,-0.1521692,0.32902333
37321466,-0.11394139,-0.16119994,0.3305011
37331866,-0.10158419,-0.15939993,0.32907763
37341467,-0.10341137,-0.1719847,0.34238654
37351867,-0.10341137,-0.1719847,0.34238654
37362267,-0.10341137,-0.1719847,0.34238654
37371866,-0.10509883,-0.15579991,0.3260974
37380680,-0.098096915,-0.14489253,0.33785328
37391866,-0.105126716,-0.15938461,0.33200574
37400677,-0.10511291,-0.16301528,0.32907978
37411866,-0.10325855,-0.17576864,0.310013
37420690,-0.106898196,-0.16841534,0.3335168
37431866,-0.10680071,-0.1612919,0.31286585
37440669,-0.08744213,-0.17027664,0.32331115
37451885,-0.110412754,-0.16119994,0.33051777
37460678,-0.10159844,-0.17384605,0.33209765
37479866,-0.106898196,-0.16841534,0.3335168
37489466,-0.10684241,-0.16124591,0.32170013
37499866,-0.10862782,-0.17026132,0.326156
37509467,-0.11214228,-0.15943058,0.32313812
37519866,-0.105126716,-0.15938461,0.33200574
37529466,-0.0998544,-0.15032321,0.3364008
37539866,-0.11571243,-0.15215388,0.33191812
37549506,-0.11219797,-0.16298462,0.334936
37559866,-0.10159826,-0.1666153,0.33206
37569478,-0.12449948,-0.1612306,0.32456163
37579867,-0.12449948,-0.1612306,0.32456163
37590267,-0.12449948,-0.1612306,0.32456163
37599866,-0.10685623,-0.15761524,0.32462612
37608698,-0.094499476,-0.17389202,0.32329667
37619885,-0.10685632,-0.1612306,0.32464492
37628667,-0.09801421,-0.17390735,0.32033524
37639066,-0.103328235,-0.18292274,0.32477447
37648667,-0.10511273,-0.15578458,0.32904217
37659066,-0.10331362,-0.15401521,0.32167917
37668667,-0.09276933,-0.15035386,0.33054462
37679066,-0.09982704,-0.16843066,0.33060536
37688667,-0.099799335,-0.17207666,0.3247347
37699099,-0.099799335,-0.17207666,0.3247347
37707917,-0.101570554,-0.17026132,0.3261893
37719067,-0.110426836,-0.16841534,0.33350015
37727875,-0.11044056,-0.16116929,0.33640727
37739067,-0.11571243,-0.15215388,0.33191812
37747867,-0.09981297,-0.16121526,0.32762298
37759068,-0.10865544,-0.16299996,0.33200788
37767867,-0.099799156,-0.16484596,0.32469705
37779066,-0.1050712,-0.16306126,0.3202455
37787885,-0.10154275,-0.17029198,0.32029977
37799067,-0.106926,-0.16838469,0.3394063
37807871,-0.106926,-0.16838469,0.3394063
37817516,-0.106926,-0.16838469,0.3394063
37827072,-0.098013945,-0.16306126,0.3202788
37836673,-0.094485305,-0.16306126,0.32029545
37847066,-0.099785164,-0.16124591,0.32173344
37856667,-0.09984077,-0.16118462,0.33351249
37867110,-0.11039886,-0.16121526,0.327573
37876667,-0.09981297,-0.16121526,0.32762298
37887066,-0.11041302,-0.172046,0.3305742
37896667,-0.098014034,-0.16667661,0.32029763
37907066,-0.10335541,-0.1575846,0.33053228
37916666,-0.11038531,-0.17569202,0.3247035
37927085,-0.11038531,-0.17569202,0.3247035
37935866,-0.10509892,-0.15941526,0.3261162
37947066,-0.10865544,-0.16299996,0.33200788
37955885,-0.101570286,-0.15941526,0.32613286
37967066,-0.106898285,-0.17203069,0.3335356
37975921,-0.11038487,-0.15761524,0.32460946
37987084,-0.10866943,-0.16659997,0.33497146
37995867,-0.09628433,-0.16121526,0.32763964
38007081,-0.108655706,-0.17384605,0.33206433
38015867,-0.1033833,-0.16116929,0.3364406
38027066,-0.10687022,-0.16121526,0.32758966
38035867,-0.10687022,-0.16121526,0.32758966
38055066,-0.10509901,-0.16303061,0.32613504
38064667,-0.105085105,-0.16304593,0.32319024
38075066,-0.098097086,-0.15212323,0.33789092
38084667,-0.09447159,-0.1703073,0.31738833
38095066,-0.13158481,-0.172046,0.33047426
38104666,-0.11211448,-0.15946123,0.3172486
38115066,-0.10865517,-0.15215388,0.33195144
38124673,-0.11568481,-0.15941526,0.32606626
38135067,-0.110385045,-0.16484596,0.32464707
38145467,-0.110385045,-0.16484596,0.32464707
38155068,-0.110385045,-0.16484596,0.32464707
38163867,-0.09984095,-0.16841534,0.33355013
38174292,-0.10865544,-0.16299996,0.33200788
38183867,-0.10159853,-0.17746139,0.33211645
38194306,-0.110412754,-0.16119994,0.33051777
38203868,-0.10509892,-0.15941526,0.3261162
38214288,-0.105085194,-0.16666128,0.32320905
38223867,-0.12275633,-0.17386137,0.32905295
38234268,-0.11392767,-0.16844597,0.32759398
38243867,-0.10857239,-0.17755333,0.3144146
38254266,-0.09805601,-0.1774767,0.32918835
38263867,-0.09805601,-0.1774767,0.32918835
38274267,-0.09805601,-0.1774767,0.32918835
38283067,-0.112128556,-0.16667661,0.320231
38294266,-0.11037123,-0.16847663,0.3217211
38303067,-0.11042666,-0.16118462,0.33346254
38314266,-0.106842056,-0.14678448,0.32162488
38323067,-0.10858585,-0.15946123,0.31726527
38334266,-0.10868324,-0.1629693,0.3378974
38343072,-0.092755884,-0.16844597,0.32769394
38354272,-0.11742841,-0.16486128,0.32166898
38363109,-0.10514089,-0.17021534,0.33500692
38374269,-0.110370874,-0.15401521,0.32164586
38383068,-0.110370874,-0.15401521,0.32164586
38391867,-0.09988265,-0.16836935,0.3423844
38402266,-0.10511345,-0.18470742,0.32919267
38411867,-0.10693954,-0.15390794,0.34227583
38422266,-0.09978534,-0.16847663,0.3217711
38431867,-0.10687031,-0.16483063,0.3276085
38442266,-0.11569871,-0.15939993,0.329011
38451867,-0.10509901,-0.16303061,0.32613504
38462266,-0.096298225,-0.16119994,0.3305844
38471867,-0.09278359,-0.16479999,0.33356464
38482266,-0.10689811,-0.16479999,0.333498
38492667,-0.10689811,-0.16479999,0.333498
38502267,-0.10689811,-0.16479999,0.333498
38511065,-0.101570465,-0.16664596,0.3261705
38522266,-0.10864154,-0.16301528,0.32906312
38531102,-0.0998405,-0.15033855,0.33345604
38542266,-0.110412486,-0.15035386,0.33046132
38551116,-0.091081515,-0.15207726,0.3467585
38562281,-0.11399708,-0.164754,0.34229895
38571073,-0.1068425,-0.16486128,0.32171896
38582266,-0.12451347,-0.16483063,0.3275252
38591067,-0.09274216,-0.17569202,0.3247868
38602266,-0.099784985,-0.15401521,0.3216958
38611085,-0.099784985,-0.15401521,0.3216958
38630269,-0.106884114,-0.16119994,0.33053443
38639867,-0.09451302,-0.15941526,0.32616618
38650266,-0.10334133,-0.15036918,0.32754987
38659867,-0.11574041,-0.15935396,0.33784527
38670266,-0.10336913,-0.15033855,0.3334394
38679867,-0.1122117,-0.1557386,0.33784312
38690266,-0.09808345,-0.16298462,0.3350026
38699900,-0.10515461,-0.1629693,0.33791405
38710266,-0.106856406,-0.16484596,0.32466373
38720667,-0.09981315,-0.16844597,0.32766062
38730266,-0.09981315,-0.16844597,0.32766062
38739070,-0.096256435,-0.15763056,0.3217313
38750266,-0.10864163,-0.16663063,0.32908195
38759067,-0.094596334,-0.15570796,0.3438159
38769466,-0.10857177,-0.15224582,0.3142829
38779085,-0.11388578,-0.16126125,0.31872207
38789466,-0.09975728,-0.15766121,0.31582513
38799119,-0.1156988,-0.16301528,0.32902983
38809466,-0.10691192,-0.16116929,0.33642393
38819067,-0.10689793,-0.15756927,0.33346036
38829498,-0.099785075,-0.15763056,0.32171464
38839067,-0.10155683,-0.17750736,0.32328215
38849481,-0.10155683,-0.17750736,0.32328215
38858266,-0.10869706,-0.15933862,0.34082332
38869509,-0.10507111,-0.15944591,0.32022667
38878266,-0.1015702,-0.15579991,0.32611406
38889484,-0.11218443,-0.17746139,0.33206648
38898267,-0.09282529,-0.164754,0.34239888
38909489,-0.09986884,-0.17200004,0.33945844
38918267,-0.11214246,-0.16666128,0.32317576
38929507,-0.0927835,-0.16118462,0.3335458
38938267,-0.10681497,-0.17573799,0.31588587
38949466,-0.1033833,-0.16116929,0.3364406
38958267,-0.1033833,-0.16116929,0.3364406
38977466,-0.10685588,-0.1431538,0.32455084
38987066,-0.10335559,-0.1648153,0.3305699
38997488,-0.098097354,-0.1629693,0.33794737
39007086,-0.11576812,-0.15570796,0.34371597
39017485,-0.106884114,-0.16119994,0.33053443
39027066,-0.11218398,-0.15938461,0.33197242
39037466,-0.11044065,-0.16478465,0.33642608
39047067,-0.11399717,-0.16836935,0.34231776
39057498,-0.10162607,-0.16658466,0.3379495
39067067,-0.096312396,-0.17203069,0.3335856
39077467,-0.096312396,-0.17203069,0.3335856
39087867,-0.096312396,-0.17203069,0.3335856
39097466,-0.09988247,-0.16113864,0.34234676
39106267,-0.1086411,-0.1449385,0.32896906
39117466,-0.112170264,-0.16663063,0.3290653
39126267,-0.09802776,-0.15943058,0.32320476
39137467,-0.10688429,-0.16843066,0.33057207
39146267,-0.11744249,-0.17207666,0.3246514
39157466,-0.108641274,-0.1521692,0.32900667
39166287,-0.10509874,-0.15218453,0.3260786
39177466,-0.1192278,-0.1774767,0.32908842
39186267,-0.10692582,-0.16115397,0.3393687
39205496,-0.10514044,-0.15213855,0.33491284
39215067,-0.103397295,-0.16476934,0.33940417
39225466,-0.09802767,-0.15581523,0.32318592
39235067,-0.106856495,-0.16846131,0.32468253
39245491,-0.1086411,-0.1449385,0.32896906
39255067,-0.10504358,-0.17032261,0.3143936
39265466,-0.11044038,-0.15393859,0.33636966
39276667,-0.108641185,-0.14855386,0.32898787
39285467,-0.103314064,-0.17209198,0.32177323
39295099,-0.10511282,-0.15939993,0.32906097
39305467,-0.10511282,-0.15939993,0.32906097
39315067,-0.10511282,-0.15939993,0.32906097
39324697,-0.101597995,-0.15576926,0.33200356
39334267,-0.105126806,-0.16299996,0.33202454
39344666,-0.10692582,-0.16115397,0.3393687
39354266,-0.11218389,-0.15576926,0.3319536
39364666,-0.09282556,-0.17560007,0.34245533
39374267,-0.09982651,-0.14673851,0.3304925
39384680,-0.09986902,-0.17923076,0.33949608
39394267,-0.09449903,-0.15581523,0.32320258
39404666,-0.1050991,-0.16664596,0.32615384
39414267,-0.10158392,-0.14855386,0.3290212
39424667,-0.10158392,-0.14855386,0.3290212
39434286,-0.10158392,-0.14855386,0.3290212
39444666,-0.09806937,-0.15576926,0.33202022
39453467,-0.10688438,-0.172046,0.33059087
39464666,-0.10865535,-0.15938461,0.33198908
39473510,-0.115628935,-0.14863048,0.31423074
39484685,-0.10689793,-0.15756927,0.33346036
39493515,-0.10689802,-0.16118462,0.3334792
39504708,-0.10338321,-0.15755394,0.3364218
39513510,-0.10332806,-0.17569202,0.32473683
39524666,-0.11391377,-0.16846131,0.32464924
39533518,-0.11215627,-0.16303061,0.32610172
39552666,-0.11219806,-0.16659997,0.3349548
39562266,-0.10335541,-0.1575846,0.33053228
39572666,-0.096298404,-0.16843066,0.33062202
39582266,-0.10155647,-0.16304593,0.3232069
39592666,-0.11046818,-0.15390794,0.34225917
39602274,-0.10158419,-0.15939993,0.32907763
39612666,-0.09985494,-0.17201535,0.3365137
39622273,-0.10862755,-0.15941526,0.32609957
39632666,-0.10341128,-0.16836935,0.34236774
39642271,-0.11748419,-0.17203069,0.33348566
39652684,-0.10158428,-0.16301528,0.32909644
39663067,-0.10158428,-0.16301528,0.32909644
39672711,-0.094582975,-0.1774154,0.34098405
39681483,-0.11048226,-0.16112332,0.34524158
39692666,-0.113983005,-0.15753862,0.33931655
39701495,-0.1068704,-0.16844597,0.3276273
39712666,-0.10866925,-0.15936927,0.33493382
39721467,-0.115712605,-0.15938461,0.33195576
39732669,-0.10861374,-0.16304593,0.32317358
39741470,-0.108655706,-0.17384605,0.33206433
39752666,-0.119199544,-0.15943058,0.3231048
39761480,-0.11222587,-0.16656932,0.3408443
39781477,-0.11222587,-0.16656932,0.3408443
39790305,-0.0927696,-0.16119994,0.33060107
39800666,-0.10515488,-0.1738154,0.3379705
39810298,-0.1263124,-0.15936927,0.33485055
39820685,-0.10512663,-0.15576926,0.3319869
39830315,-0.11576812,-0.15570796,0.34371597
39840712,-0.112197794,-0.15575393,0.33489835
39850295,-0.10693954,-0.15390794,0.34227583
39860667,-0.10518223,-0.15570796,0.3437659
39871087,-0.101612076,-0.16298462,0.33498594
39880666,-0.09808336,-0.15936927,0.3349838
39890286,-0.09808336,-0.15936927,0.3349838
39900667,-0.09808336,-0.15936927,0.3349838
39909466,-0.10864163,-0.16663063,0.32908195
39919866,-0.092797495,-0.16478465,0.33650938
39929473,-0.11219806,-0.16659997,0.3349548
39939866,-0.124610774,-0.16472335,0.3481385
39949473,-0.09808345,-0.16298462,0.3350026
39959866,-0.11399744,-0.17921543,0.3423742
39969474,-0.10328627,-0.17212263,0.31588373
39979866,-0.101584636,-0.1774767,0.3291717
39989473,-0.08921327,-0.16484596,0.32474703
39999869,-0.09452728,-0.17386137,0.3291862
40009480,-0.09452728,-0.17386137,0.3291862
40019866,-0.110426836,-0.16841534,0.33350015
40028698,-0.09979907,-0.1612306,0.32467824
40039866,-0.10339694,-0.1503079,0.3393289
40048667,-0.10161172,-0.14852321,0.3349107
40059866,-0.105113,-0.16663063,0.3290986
40068667,-0.11575449,-0.16656932,0.34082764
40079866,-0.106884114,-0.16119994,0.33053443
40088667,-0.11042639,-0.15033855,0.3334061
40099866,-0.11044092,-0.17563072,0.33648252
40108668,-0.108697236,-0.16656932,0.34086096
40128667,-0.108697236,-0.16656932,0.34086096
40137467,-0.094541,-0.1666153,0.33209333
40147877,-0.101639524,-0.14849256,0.3408002
40157467,-0.110343255,-0.16127656,0.31579396
40167866,-0.10155629,-0.15581523,0.32316926
40177467,-0.10689793,-0.15756927,0.33346036
40187866,-0.1033555,-0.16119994,0.3305511
40197466,-0.11045464,-0.16838469,0.33938965
40207866,-0.105113,-0.16663063,0.3290986
40217466,-0.10864163,-0.16663063,0.32908195
40227866,-0.121054165,-0.15752329,0.342228
40238267,-0.121054165,-0.15752329,0.342228
40247867,-0.121054165,-0.15752329,0.342228
40256667,-0.090970755,-0.17027664,0.3232945
40267866,-0.11569871,-0.15939993,0.329011
40276667,-0.105113,-0.16663063,0.3290986
40287866,-0.10332761,-0.15761524,0.32464275
40296667,-0.11571305,-0.17746139,0.33204982
40307889,-0.11569853,-0.1521692,0.32897338
40316669,-0.10512725,-0.18107675,0.3321186
40327890,-0.10332797,-0.17207666,0.32471803
40336676,-0.09805574,-0.16663063,0.3291319
40347904,-0.12455544,-0.17563072,0.33641592
40356667,-0.12455544,-0.17563072,0.33641592
40366269,-0.12098449,-0.15036918,0.3274666
40375872,-0.09270019,-0.16489193,0.31589606
40387099,-0.108724505,-0.14484656,0.3466376
40395866,-0.11398327,-0.16838469,0.339373
40407067,-0.11568463,-0.15218453,0.32602862
40415867,-0.105126716,-0.15938461,0.33200574
40425485,-0.10865535,-0.15938461,0.33198908
40435867,-0.099868484,-0.15753862,0.33938318
40447066,-0.09804193,-0.17026132,0.32620597
40455906,-0.105210125,-0.15929265,0.34967428
40465467,-0.105210125,-0.15929265,0.34967428
40475910,-0.105210125,-0.15929265,0.34967428
40484667,-0.09985485,-0.1684,0.3364949
40495066,-0.106884114,-0.16119994,0.33053443
40504667,-0.11042657,-0.15756927,0.3334437
40515067,-0.11046836,-0.16113864,0.34229678
40524667,-0.10336913,-0.15033855,0.3334394
40535066,-0.10336949,-0.16479999,0.33351466
40544670,-0.099799156,-0.16484596,0.32469705
40555098,-0.10336931,-0.15756927,0.33347702
40564668,-0.10688438,-0.172046,0.33059087
40575066,-0.10335559,-0.1648153,0.3305699
40584668,-0.10335559,-0.1648153,0.3305699
40595073,-0.10335559,-0.1648153,0.3305699
40603912,-0.10862755,-0.15941526,0.32609957
40615066,-0.10164006,-0.17018469,0.3409131
40623902,-0.0998266,-0.15035386,0.3305113
40635066,-0.099826775,-0.1575846,0.3305489
40643909,-0.09977153,-0.17210731,0.31884512
40655067,-0.09811117,-0.15933862,0.3408733
40663887,-0.09979889,-0.1539999,0.3246406
40675067,-0.1033833,-0.16116929,0.3364406
40683867,-0.09805574,-0.16663063,0.3291319
40695098,-0.09974346,-0.1612919,0.31289914
40703867,-0.09974346,-0.1612919,0.31289914
40712667,-0.11041293,-0.16843066,0.3305554
40723099,-0.11210049,-0.1558612,0.31428504
40732666,-0.10864172,-0.17024599,0.32910076
40743072,-0.11388596,-0.16849196,0.3187597
40752667,-0.09984095,-0.16841534,0.33355013
40763068,-0.09978525,-0.16486128,0.32175225
40772668,-0.09981342,-0.17929205,0.32771707
40783066,-0.096228816,-0.16489193,0.3158794
40792691,-0.09451338,-0.1738767,0.32624143
40803066,-0.105126895,-0.1666153,0.33204335
40812677,-0.09981297,-0.16121526,0.32762298
40823067,-0.09981297,-0.16121526,0.32762298
40831915,-0.11576803,-0.15209258,0.34369713
40843075,-0.09981306,-0.16483063,0.32764181
40851867,-0.099826775,-0.1575846,0.3305489
40863098,-0.117511906,-0.16838469,0.33935636
40871866,-0.105085194,-0.16666128,0.32320905
40883073,-0.099784985,-0.15401521,0.3216958
40891867,-0.094526924,-0.15939993,0.32911095
40903066,-0.09985521,-0.18286143,0.33657014
40911866,-0.10865544,-0.16299996,0.33200788
40922266,-0.11218407,-0.16299996,0.33199123
40931867,-0.11218407,-0.16299996,0.33199123
40942280,-0.11218407,-0.16299996,0.33199123
40951066,-0.113941655,-0.172046,0.33055755
40960708,-0.10336949,-0.16479999,0.33351466
40971067,-0.10869697,-0.15572327,0.34080452
40980709,-0.106884204,-0.1648153,0.33055323
40991073,-0.11044056,-0.16116929,0.33640727
41002266,-0.098097175,-0.1557386,0.33790973
41011067,-0.10329989,-0.16126125,0.31877205
41020720,-0.10515443,-0.1557386,0.3378764
41031098,-0.10871122,-0.17016937,0.34382454
41041513,-0.09632585,-0.15393859,0.33643627
41051067,-0.09632585,-0.15393859,0.33643627
41059867,-0.11569889,-0.16663063,0.32904863
41070266,-0.09628442,-0.16483063,0.32765844
41079867,-0.10866934,-0.16298462,0.33495265
41090266,-0.103355765,-0.172046,0.33060753
41099867,-0.115727045,-0.18106142,0.3350134
41110266,-0.11045473,-0.17200004,0.3394085
41119867,-0.10338348,-0.1684,0.33647823
41130266,-0.0927279,-0.16124591,0.32176676
41139867,-0.10866952,-0.17021534,0.33499026
41150267,-0.11565691,-0.15583056,0.3201579
41160667,-0.11565691,-0.15583056,0.3201579
41170273,-0.11565691,-0.15583056,0.3201579
41179067,-0.09981324,-0.17206132,0.32767943
41190271,-0.108655795,-0.17746139,0.33208314
41199105,-0.09811135,-0.16656932,0.34091094
41210266,-0.11216991,-0.1521692,0.32899004
41219067,-0.11038487,-0.15761524,0.32460946
41230266,-0.10334133,-0.15036918,0.32754987
41239066,-0.09272808,-0.16847663,0.3218044
41250266,-0.11391332,-0.15038452,0.32455516
41259067,-0.11569853,-0.1521692,0.32897338
41270266,-0.10334187,-0.17206132,0.32766277
41279067,-0.10334187,-0.17206132,0.32766277
41298266,-0.10868333,-0.16658466,0.3379162
41307868,-0.105113,-0.16663063,0.3290986
41318267,-0.10865562,-0.17023067,0.33204553
41327866,-0.11215645,-0.17026132,0.32613936
41338266,-0.11048226,-0.16112332,0.34524158
41347866,-0.09628397,-0.14675383,0.3275644
41358266,-0.0963402,-0.17200004,0.3394751
41367866,-0.10685632,-0.1612306,0.32464492
41378266,-0.10866952,-0.17021534,0.33499026
41387867,-0.106884114,-0.16119994,0.33053443
41398291,-0.106884114,-0.16119994,0.33053443
41408667,-0.106884114,-0.16119994,0.33053443
41418280,-0.101612344,-0.17383072,0.3350424
41427067,-0.11218407,-0.16299996,0.33199123
41438292,-0.10511282,-0.15939993,0.32906097
41447066,-0.098097086,-0.15212323,0.33789092
41458315,-0.113941565,-0.16843066,0.33053875
41467085,-0.09627052,-0.16484596,0.3247137
41477466,-0.11046854,-0.16836935,0.34233442
41487116,-0.101612076,-0.16298462,0.33498594
41497466,-0.11572678,-0.17021534,0.33495694
41507099,-0.10691183,-0.15755394,0.33640513
41517489,-0.10691183,-0.15755394,0.33640513
41526267,-0.10684295,-0.18293805,0.32181302
41537486,-0.09631186,-0.15033855,0.3334727
41546267,-0.10514053,-0.15575393,0.33493167
41557466,-0.09806937,-0.15576926,0.33202022
41566269,-0.10154266,-0.16667661,0.32028097
41577467,-0.09098448,-0.16303061,0.32620165
41586313,-0.105168514,-0.16295397,0.34085882
41597466,-0.10162589,-0.15935396,0.3379119
41606267,-0.112128556,-0.16667661,0.320231
41617466,-0.10871113,-0.166554,0.34380573
41626269,-0.10871113,-0.166554,0.34380573
41635867,-0.10871113,-0.166554,0.34380573
41645466,-0.09978534,-0.16847663,0.3217711
41655080,-0.09981324,-0.17206132,0.32767943
41665466,-0.11744213,-0.15761524,0.32457614
41675075,-0.11392758,-0.16483063,0.32757518
41685485,-0.10161199,-0.15936927,0.33496714
41695067,-0.119199455,-0.15581523,0.323086
41705513,-0.085726336,-0.16479999,0.33359793
41715101,-0.115712695,-0.16299996,0.33197457
41725466,-0.11399708,-0.164754,0.34229895
41735067,-0.09631213,-0.16118462,0.33352914
41745467,-0.09631213,-0.16118462,0.33352914
41755874,-0.09631213,-0.16118462,0.33352914
41765466,-0.11396955,-0.17563072,0.3364659
41774288,-0.10864136,-0.15578458,0.3290255
41785466,-0.10693936,-0.14667721,0.3422382
41794267,-0.09977099,-0.15041517,0.31873226
41805466,-0.10332797,-0.17207666,0.32471803
41814269,-0.11219797,-0.16298462,0.334936
41825466,-0.09977144,-0.16849196,0.31882632
41834267,-0.09454109,-0.17023067,0.33211213
41845466,-0.10859992,-0.16667661,0.32024765
41854270,-0.11041293,-0.16843066,0.3305554
41874267,-0.11041293,-0.16843066,0.3305554
41883097,-0.112197794,-0.15575393,0.33489835
41893466,-0.09631231,-0.16841534,0.33356678
41903093,-0.11748392,-0.16118462,0.33342922
41913466,-0.10512654,-0.15215388,0.3319681
41923066,-0.115754224,-0.15572327,0.3407712
41933466,-0.09454091,-0.16299996,0.33207452
41943098,-0.09981279,-0.15398456,0.32758537
41953466,-0.101570554,-0.17026132,0.3261893
41963096,-0.10862728,-0.1485692,0.32604313
41973466,-0.11392767,-0.16844597,0.32759398
41983877,-0.11392767,-0.16844597,0.32759398
41993475,-0.10155692,-0.18112272,0.323301
42002267,-0.09804184,-0.16664596,0.32618716
42013466,-0.11219788,-0.15936927,0.33491716
42022273,-0.112170175,-0.16301528,0.32904646
42032666,-0.101612344,-0.17383072,0.3350424
42042267,-0.101597905,-0.15215388,0.33198476
42052666,-0.10861365,-0.15943058,0.32315478
42062266,-0.11753979,-0.17196938,0.3452647
42072666,-0.11221152,-0.1485079,0.33780548
42082267,-0.113982916,-0.15392327,0.33929774
42092667,-0.113982916,-0.15392327,0.33929774
42102267,-0.113982916,-0.15392327,0.33929774
42112667,-0.099826954,-0.1648153,0.33058655
42121467,-0.1015423,-0.15221518,0.32020572
42132667,-0.096298136,-0.1575846,0.33056557
42141477,-0.110385045,-0.16484596,0.32464707
42151125,-0.101569936,-0.14495383,0.3260576
42161467,-0.110385135,-0.16846131,0.3246659
42172693,-0.09458235,-0.1521079,0.34085232
42181467,-0.10515488,-0.1738154,0.3379705
42192708,-0.1033555,-0.16119994,0.3305511
42201467,-0.105126984,-0.17023067,0.33206216
42211067,-0.105126984,-0.17023067,0.33206216
42221473,-0.105126984,-0.17023067,0.33206216
42230266,-0.108683065,-0.1557386,0.33785975
42240677,-0.10336967,-0.17203069,0.33355227
42250267,-0.117497824,-0.16116929,0.33637396
42260666,-0.087455675,-0.15579991,0.3261807
42270268,-0.10862755,-0.15941526,0.32609957
42280678,-0.10693945,-0.15029256,0.342257
42290285,-0.09802776,-0.15943058,0.32320476
42300666,-0.11219806,-0.16659997,0.3349548
42310278,-0.10161172,-0.14852321,0.3349107
42320666,-0.103355676,-0.16843066,0.33058873
42331074,-0.103355676,-0.16843066,0.33058873
42340674,-0.103355676,-0.16843066,0.33058873
42349475,-0.099784985,-0.15401521,0.3216958
42360694,-0.117512085,-0.1756154,0.33939397
42369477,-0.09452701,-0.16301528,0.32912976
42380683,-0.11565727,-0.17029198,0.32023314
42389467,-0.103313886,-0.16486128,0.32173562
42400681,-0.09628433,-0.16121526,0.32763964
42409467,-0.108697236,-0.16656932,0.34086096
42420695,-0.10158437,-0.16663063,0.32911527
42429478,-0.09804175,-0.16303061,0.32616836
42440667,-0.08924133,-0.17566137,0.33069298
42449474,-0.08924133,-0.17566137,0.33069298
42468666,-0.099799246,-0.16846131,0.32471585
42478322,-0.10687058,-0.17567669,0.32766494
42488666,-0.11746984,-0.15396924,0.33044684
42498274,-0.1034111,-0.16113864,0.3423301
42508713,-0.09451302,-0.15941526,0.32616618
42518266,-0.11749809,-0.17201535,0.3364304
42528672,-0.105127074,-0.17384605,0.332081
42538267,-0.108655706,-0.17384605,0.33206433
42548712,-0.105057396,-0.16669193,0.31731954
42559089,-0.10862755,-0.15941526,0.32609957
42568675,-0.10862755,-0.15941526,0.32609957
42577467,-0.13159864,-0.16841534,0.33340022
42587866,-0.1174563,-0.16844597,0.32757732
42597467,-0.10684286,-0.1793227,0.3217942
42607866,-0.09979907,-0.1612306,0.32467824
42617467,-0.11747011,-0.1648153,0.33050328
42628666,-0.106856406,-0.16484596,0.32466373
42637475,-0.11398363,-0.18284611,0.33944827
42647866,-0.10154284,-0.17390735,0.32031858
42657487,-0.105085015,-0.15943058,0.32317144
42667866,-0.117497824,-0.16116929,0.33637396
42677466,-0.10163979,-0.15933862,0.34085664
42687867,-0.10163979,-0.15933862,0.34085664
42696715,-0.106884204,-0.1648153,0.33055323
42707866,-0.10157011,-0.15218453,0.32609525
42716679,-0.101584546,-0.17386137,0.32915288
42727866,-0.09985467,-0.16116929,0.33645725
42736706,-0.101597905,-0.15215388,0.33198476
42747866,-0.10854414,-0.1595072,0.30843097
42756705,-0.0944993,-0.16666128,0.32325903
42767866,-0.1033277,-0.1612306,0.32466158
42776667,-0.11039886,-0.16121526,0.327573
42787866,-0.09632639,-0.17563072,0.33654916
42796668,-0.112211965,-0.16658466,0.33789954
42815866,-0.10515506,-0.1810461,0.33800814
42825467,-0.106856495,-0.16846131,0.32468253
42835866,-0.11391377,-0.16846131,0.32464924
42845467,-0.10332788,-0.16846131,0.3246992
42855866,-0.11568472,-0.15579991,0.32604742
42865467,-0.108683154,-0.15935396,0.33787858
42875874,-0.09809753,-0.17020002,0.33798498
42885466,-0.09627034,-0.15761524,0.32467607
42895866,-0.11048208,-0.15389262,0.34520394
42905501,-0.11044029,-0.15032321,0.33635083
42915867,-0.11044029,-0.15032321,0.33635083
42926267,-0.11044029,-0.15032321,0.33635083
42935866,-0.1122117,-0.1557386,0.33784312
42944666,-0.11041302,-0.172046,0.3305742
42955866,-0.105126716,-0.15938461,0.33200574
42964667,-0.10678681,-0.16130722,0.3099211
42975866,-0.11217044,-0.17386137,0.3291029
42984680,-0.10687004,-0.15398456,0.32755205
42995885,-0.110412665,-0.1575846,0.33049896
43004673,-0.09635383,-0.16113864,0.34236342
43015913,-0.08922681,-0.15036918,0.3276165
43024667,-0.11388587,-0.16487661,0.31874087
43044667,-0.11388587,-0.16487661,0.31874087
43053519,-0.09805574,-0.16663063,0.3291319
43063866,-0.11399708,-0.164754,0.34229895
43073499,-0.0927696,-0.16119994,0.33060107
43083866,-0.096339755,-0.15392327,0.33938104
43093510,-0.09458271,-0.16656932,0.3409276
43103866,-0.09804175,-0.16303061,0.32616836
43113504,-0.09984033,-0.14310783,0.33341843
43123867,-0.11214219,-0.15581523,0.3231193
43133551,-0.105085015,-0.15943058,0.32317144
43143867,-0.09806964,-0.1666153,0.33207667
43153476,-0.09806964,-0.1666153,0.33207667
43163886,-0.09806964,-0.1666153,0.33207667
43172666,-0.096270874,-0.17930739,0.32478896
43183066,-0.101598084,-0.15938461,0.33202237
43192674,-0.11748374,-0.15395392,0.33339158
43203066,-0.09979907,-0.1612306,0.32467824
43212667,-0.09274189,-0.16484596,0.32473037
43223066,-0.096298315,-0.1648153,0.3306032
43232667,-0.1033694,-0.16118462,0.33349583
43243068,-0.110454194,-0.1503079,0.3392956
43252666,-0.10862791,-0.1738767,0.32617483
43263066,-0.105126984,-0.17023067,0.33206216
43272667,-0.105126984,-0.17023067,0.33206216
43283073,-0.09802776,-0.15943058,0.32320476
43291867,-0.09631222,-0.16479999,0.33354798
43303066,-0.1050991,-0.16664596,0.32615384
43311867,-0.10336958,-0.16841534,0.33353347
43323067,-0.114024706,-0.15749264,0.34815085
43331885,-0.09811108,-0.15572327,0.3408545
43343067,-0.09631204,-0.15756927,0.33351034
43351867,-0.09458235,-0.1521079,0.34085232
43363109,-0.101570375,-0.16303061,0.3261517
43371871,-0.10686969,-0.13952313,0.3274768
43383111,-0.099757455,-0.16489193,0.31586275
43391874,-0.099757455,-0.16489193,0.31586275
43400667,-0.105057575,-0.17392267,0.31735718
43411098,-0.11041293,-0.16843066,0.3305554
43420667,-0.106870756,-0.1829074,0.32770255
