timestamp,x,y,z,yaw,yawspeed,vx,vy,vz,acc_x,acc_y,acc_z,jerk_x,jerk_y,jerk_z,thrust[0],thrust[1],thrust[2]
350294726,nan,nan,nan,2.3839223,0.0,nan,nan,nan,0.0,0.0,0.0,0.0,0.0,0.0,0.0,0.0,0.0
350393566,nan,nan,nan,2.3834949,0.0,nan,nan,nan,0.0,0.0,0.0,0.0,0.0,0.0,0.0,0.0,0.0
350493902,nan,nan,nan,2.3831282,0.0,nan,nan,nan,0.0,0.0,0.0,0.0,0.0,0.0,0.0,0.0,0.0
350593769,nan,nan,nan,2.382787,0.0,nan,nan,nan,0.0,0.0,0.0,0.0,0.0,0.0,0.0,0.0,0.0
350694666,nan,nan,nan,2.382465,0.0,nan,nan,nan,0.0,0.0,0.0,0.0,0.0,0.0,0.0,0.0,0.0
350793827,nan,nan,nan,2.3821952,0.0,nan,nan,nan,0.0,0.0,0.0,0.0,0.0,0.0,0.0,0.0,0.0
350894753,nan,nan,nan,2.3819196,0.0,nan,nan,nan,0.0,0.0,0.0,0.0,0.0,0.0,0.0,0.0,0.0
351014038,nan,nan,nan,2.3815436,0.0,nan,nan,nan,0.0,0.0,0.0,0.0,0.0,0.0,0.0,0.0,0.0
351114343,nan,nan,nan,2.3812416,0.0,nan,nan,nan,0.0,0.0,0.0,0.0,0.0,0.0,0.0,0.0,0.0
351214344,nan,nan,nan,2.3809571,0.0,nan,nan,nan,0.0,0.0,0.0,0.0,0.0,0.0,0.0,0.0,0.0
351314477,nan,nan,nan,2.3807216,0.0,nan,nan,nan,0.0,0.0,0.0,0.0,0.0,0.0,0.0,0.0,0.0
351414545,nan,nan,nan,2.3804703,0.0,nan,nan,nan,0.0,0.0,0.0,0.0,0.0,0.0,0.0,0.0,0.0
351514561,nan,nan,nan,2.3802357,0.0,nan,nan,nan,0.0,0.0,0.0,0.0,0.0,0.0,0.0,0.0,0.0
351614640,nan,nan,nan,2.379912,0.0,nan,nan,nan,0.0,0.0,0.0,0.0,0.0,0.0,0.0,0.0,0.0
351714775,nan,nan,nan,2.3795877,0.0,nan,nan,nan,0.0,0.0,0.0,0.0,0.0,0.0,0.0,0.0,0.0
351814852,nan,nan,nan,2.379298,0.0,nan,nan,nan,0.0,0.0,0.0,0.0,0.0,0.0,0.0,0.0,0.0
351915328,nan,nan,nan,2.3790054,0.0,nan,nan,nan,0.0,0.0,0.0,0.0,0.0,0.0,0.0,0.0,0.0
352015426,nan,nan,nan,2.3786893,0.0,nan,nan,nan,0.0,0.0,0.0,0.0,0.0,0.0,0.0,0.0,0.0
352115416,nan,nan,nan,2.3783498,0.0,nan,nan,nan,0.0,0.0,0.0,0.0,0.0,0.0,0.0,0.0,0.0
352215433,nan,nan,nan,2.3780122,0.0,nan,nan,nan,0.0,0.0,0.0,0.0,0.0,0.0,0.0,0.0,0.0
352315531,nan,nan,nan,2.3776937,0.0,nan,nan,nan,0.0,0.0,0.0,0.0,0.0,0.0,0.0,0.0,0.0
352435523,nan,nan,nan,2.3774786,0.0,nan,nan,nan,0.0,0.0,0.0,0.0,0.0,0.0,0.0,0.0,0.0
352535579,nan,nan,nan,2.3772478,0.0,nan,nan,nan,0.0,0.0,0.0,0.0,0.0,0.0,0.0,0.0,0.0
352636272,nan,nan,nan,2.3768926,0.0,nan,nan,nan,0.0,0.0,0.0,0.0,0.0,0.0,0.0,0.0,0.0
352736068,nan,nan,nan,2.3766396,0.0,nan,nan,nan,0.0,0.0,0.0,0.0,0.0,0.0,0.0,0.0,0.0
352836028,nan,nan,nan,2.376265,0.0,nan,nan,nan,0.0,0.0,0.0,0.0,0.0,0.0,0.0,0.0,0.0
352936089,nan,nan,nan,2.3759167,0.0,nan,nan,nan,0.0,0.0,0.0,0.0,0.0,0.0,0.0,0.0,0.0
353036199,nan,nan,nan,2.3755713,0.0,nan,nan,nan,0.0,0.0,0.0,0.0,0.0,0.0,0.0,0.0,0.0
353136178,nan,nan,nan,2.3753667,0.0,nan,nan,nan,0.0,0.0,0.0,0.0,0.0,0.0,0.0,0.0,0.0
353236298,nan,nan,nan,2.3751566,0.0,nan,nan,nan,0.0,0.0,0.0,0.0,0.0,0.0,0.0,0.0,0.0
353336375,nan,nan,nan,2.374901,0.0,nan,nan,nan,0.0,0.0,0.0,0.0,0.0,0.0,0.0,0.0,0.0
353436568,nan,nan,nan,2.37469,0.0,nan,nan,nan,0.0,0.0,0.0,0.0,0.0,0.0,0.0,0.0,0.0
353536679,nan,nan,nan,2.3745058,0.0,nan,nan,nan,0.0,0.0,0.0,0.0,0.0,0.0,0.0,0.0,0.0
353636748,nan,nan,nan,2.3743393,0.0,nan,nan,nan,0.0,0.0,0.0,0.0,0.0,0.0,0.0,0.0,0.0
353736829,nan,nan,nan,2.3741515,0.0,nan,nan,nan,0.0,0.0,0.0,0.0,0.0,0.0,0.0,0.0,0.0
353836909,nan,nan,nan,2.373938,0.0,nan,nan,nan,0.0,0.0,0.0,0.0,0.0,0.0,0.0,0.0,0.0
353956990,nan,nan,nan,2.3736372,0.0,nan,nan,nan,0.0,0.0,0.0,0.0,0.0,0.0,0.0,0.0,0.0
354057077,nan,nan,nan,2.3733206,0.0,nan,nan,nan,0.0,0.0,0.0,0.0,0.0,0.0,0.0,0.0,0.0
354157216,nan,nan,nan,2.3730783,0.0,nan,nan,nan,0.0,0.0,0.0,0.0,0.0,0.0,0.0,0.0,0.0
354257772,nan,nan,nan,2.372858,0.0,nan,nan,nan,0.0,0.0,0.0,0.0,0.0,0.0,0.0,0.0,0.0
354357522,nan,nan,nan,2.3726172,0.0,nan,nan,nan,0.0,0.0,0.0,0.0,0.0,0.0,0.0,0.0,0.0
354457878,nan,nan,nan,2.372345,0.0,nan,nan,nan,0.0,0.0,0.0,0.0,0.0,0.0,0.0,0.0,0.0
354557704,nan,nan,nan,2.3722298,0.0,nan,nan,nan,0.0,0.0,0.0,0.0,0.0,0.0,0.0,0.0,0.0
354658032,nan,nan,nan,2.3720717,0.0,nan,nan,nan,0.0,0.0,0.0,0.0,0.0,0.0,0.0,0.0,0.0
354757802,nan,nan,nan,2.3719323,0.0,nan,nan,nan,0.0,0.0,0.0,0.0,0.0,0.0,0.0,0.0,0.0
354858709,nan,nan,nan,2.3718016,0.0,nan,nan,nan,0.0,0.0,0.0,0.0,0.0,0.0,0.0,0.0,0.0
354957991,nan,nan,nan,2.3716185,0.0,nan,nan,nan,0.0,0.0,0.0,0.0,0.0,0.0,0.0,0.0,0.0
355058184,nan,nan,nan,2.3714557,0.0,nan,nan,nan,0.0,0.0,0.0,0.0,0.0,0.0,0.0,0.0,0.0
355158329,nan,nan,nan,2.3712916,0.0,nan,nan,nan,0.0,0.0,0.0,0.0,0.0,0.0,0.0,0.0,0.0
355278452,nan,nan,nan,2.370964,0.0,nan,nan,nan,0.0,0.0,0.0,0.0,0.0,0.0,0.0,0.0,0.0
355378535,nan,nan,nan,2.3707004,0.0,nan,nan,nan,0.0,0.0,0.0,0.0,0.0,0.0,0.0,0.0,0.0
355478596,nan,nan,nan,2.3704188,0.0,nan,nan,nan,0.0,0.0,0.0,0.0,0.0,0.0,0.0,0.0,0.0
355578614,nan,nan,nan,2.3700883,0.0,nan,nan,nan,0.0,0.0,0.0,0.0,0.0,0.0,0.0,0.0,0.0
355678719,nan,nan,nan,2.369729,0.0,nan,nan,nan,0.0,0.0,0.0,0.0,0.0,0.0,0.0,0.0,0.0
355778793,nan,nan,nan,2.3694117,0.0,nan,nan,nan,0.0,0.0,0.0,0.0,0.0,0.0,0.0,0.0,0.0
355878961,nan,nan,nan,2.369183,0.0,nan,nan,nan,0.0,0.0,0.0,0.0,0.0,0.0,0.0,0.0,0.0
355979416,nan,nan,nan,2.3688765,0.0,nan,nan,nan,0.0,0.0,0.0,0.0,0.0,0.0,0.0,0.0,0.0
356079460,nan,nan,nan,2.3686543,0.0,nan,nan,nan,0.0,0.0,0.0,0.0,0.0,0.0,0.0,0.0,0.0
356179572,nan,nan,nan,2.3684182,0.0,nan,nan,nan,0.0,0.0,0.0,0.0,0.0,0.0,0.0,0.0,0.0
356299560,nan,nan,nan,2.3681583,0.0,nan,nan,nan,0.0,0.0,0.0,0.0,0.0,0.0,0.0,0.0,0.0
356399571,nan,nan,nan,2.3680656,0.0,nan,nan,2.3898678,0.0,0.0,0.0,0.0,0.0,0.0,-3.3729845e-38,3.293838e-38,-0.12
356499623,nan,nan,nan,2.3680656,0.0,nan,nan,2.2066097,0.0,0.0,0.0,0.0,0.0,0.0,-1.8093e-39,1.766845e-39,-0.12
356599731,nan,nan,nan,2.3680656,0.0,nan,nan,2.0230014,0.0,0.0,0.0,0.0,0.0,0.0,7.0617e-41,-6.896e-41,-0.12
356699809,nan,nan,nan,2.3680656,0.0,nan,nan,1.8395782,0.0,0.0,0.0,0.0,0.0,0.0,1.694e-42,-1.655e-42,-0.13080874
356800106,nan,nan,nan,2.3680656,0.0,nan,nan,1.6555592,0.0,0.0,0.0,0.0,0.0,0.0,-3e-45,3e-45,-0.16369173
356900109,nan,nan,nan,2.3680656,0.0,nan,nan,1.4722644,0.0,0.0,0.0,0.0,0.0,0.0,-1e-45,1e-45,-0.19701916
357000127,nan,nan,nan,2.3680656,0.0,nan,nan,1.2888614,0.0,0.0,0.0,0.0,0.0,0.0,0.0,0.0,-0.23122817
357100202,nan,nan,nan,2.3680656,0.0,nan,nan,1.1054693,0.0,0.0,0.0,0.0,0.0,0.0,0.0,0.0,-0.26690882
357200303,nan,nan,nan,2.3680656,0.0,nan,nan,0.9218646,0.0,0.0,0.0,0.0,0.0,0.0,-0.0019241523,0.0018790024,-0.3026209
357300366,nan,nan,nan,2.3680656,0.0,nan,nan,0.7384396,0.0,0.0,0.0,0.0,0.0,0.0,-0.0033141482,0.0032363825,-0.33700335
357400433,nan,nan,nan,2.3680656,0.0,nan,nan,0.5549542,0.0,0.0,0.0,0.0,0.0,0.0,-0.004708222,0.004597745,-0.37236547
357500618,nan,nan,-0.12343576,2.3680656,0.0,nan,nan,0.3714247,0.0,0.0,0.0,0.0,0.0,0.0,-0.0065346104,0.006381277,-0.40590897
357620769,nan,nan,-0.12343576,2.3680656,0.0,nan,nan,0.1510984,0.0,0.0,0.0,0.0,0.0,0.0,-0.0021623853,0.0021116454,-0.45229277
357720844,nan,nan,-0.12343576,2.3680656,0.0,nan,nan,0.019225024,0.0,0.0,0.0,0.0,0.0,0.0,9.534244e-05,-9.310525e-05,-0.472552
357820884,nan,nan,-0.12343576,2.3680656,0.0,nan,nan,0.03334213,0.0,0.0,0.0,0.0,0.0,0.0,1.4019022e-06,-1.3690068e-06,-0.47305128
357920960,nan,nan,-0.12343576,2.3680656,0.0,nan,nan,0.050906844,0.0,0.0,0.0,0.0,0.0,0.0,-3.8919246e-08,3.8006014e-08,-0.4713039
358021101,nan,nan,-0.12343576,2.3680656,0.0,nan,nan,0.0716229,0.0,0.0,0.0,0.0,0.0,0.0,-0.00014968212,0.00014616987,-0.46575525
358121199,nan,nan,-0.12343576,2.3680656,0.0,nan,nan,0.090105526,0.0,0.0,0.0,0.0,0.0,0.0,-0.0034570722,0.0033759526,-0.45887235
358221512,nan,nan,nan,2.3680656,0.0,nan,nan,0.029089741,0.0,0.0,0.0,0.0,0.0,0.0,-0.009865935,0.009634433,-0.46755657
358322452,nan,nan,nan,2.3680656,0.0,nan,nan,0.024271633,0.0,0.0,0.0,0.0,0.0,0.0,-0.0029932347,0.002922999,-0.4678762
358421612,nan,nan,nan,2.3680656,0.0,nan,nan,0.022944435,0.0,0.0,0.0,0.0,0.0,0.0,3.9929168e-05,-3.899224e-05,-0.468821
358522760,nan,nan,nan,2.3680656,0.0,nan,nan,0.048365552,0.0,0.0,0.0,0.0,0.0,0.0,-5.6483627e-06,5.5158253e-06,-0.46063334
358621749,nan,nan,nan,2.3680656,0.0,nan,nan,0.061251745,0.0,0.0,0.0,0.0,0.0,0.0,-8.60127e-08,8.399443e-08,-0.45994774
358722140,nan,nan,nan,2.3680656,0.0,nan,nan,0.07189025,0.0,0.0,0.0,0.0,0.0,0.0,2.1316524e-09,-2.0816338e-09,-0.457198
358821841,nan,nan,nan,2.3680656,0.0,nan,nan,0.07173581,0.0,0.0,0.0,0.0,0.0,0.0,5.7689742e-11,-5.6336064e-11,-0.45381638
358942040,nan,nan,nan,2.3680656,0.0,nan,nan,0.060054556,0.0,0.0,0.0,0.0,0.0,0.0,2.828351e-13,-2.7619842e-13,-0.45978048
359042206,nan,nan,nan,2.3680656,0.0,nan,nan,0.045735862,0.0,0.0,0.0,0.0,0.0,0.0,-0.0009367817,0.00091480033,-0.46147096
359142365,nan,nan,nan,2.3680656,0.0,nan,nan,0.043540757,0.0,0.0,0.0,0.0,0.0,0.0,-0.0055380133,0.0054080654,-0.45911795
359242449,nan,nan,nan,2.3680656,0.0,nan,nan,0.0436895,0.0,0.0,0.0,0.0,0.0,0.0,-0.007328329,0.007156371,-0.45733473
359342514,nan,nan,nan,2.3680656,0.0,nan,nan,0.04360579,0.0,0.0,0.0,0.0,0.0,0.0,-0.0093862405,0.009165994,-0.4594561
359442526,nan,nan,nan,2.3680656,0.0,nan,nan,0.041642744,0.0,0.0,0.0,0.0,0.0,0.0,-0.030663947,0.029944424,-0.45495886
359542609,nan,nan,nan,2.3680656,0.0,nan,nan,0.016881319,0.0,0.0,0.0,0.0,0.0,0.0,-0.012158387,0.011873093,-0.45580518
359642669,nan,nan,nan,2.3680656,0.0,nan,nan,0.0075860405,0.0,0.0,0.0,0.0,0.0,0.0,0.0006351754,-0.00062027114,-0.46846053
359742786,nan,nan,-0.3614498,2.3680656,0.0,nan,nan,0.0059888363,0.0,0.0,0.0,0.0,0.0,0.0,-3.30785e-05,3.2302323e-05,-0.48383313
359843014,nan,nan,-0.3614498,2.3680656,0.0,nan,nan,0.022520155,0.0,0.0,0.0,0.0,0.0,0.0,-6.163149e-07,6.0185323e-07,-0.45256615
359943351,nan,nan,-0.3614498,2.3680656,0.0,nan,nan,0.032420754,0.0,0.0,0.0,0.0,0.0,0.0,4.423312e-09,-4.31952e-09,-0.46559143
360043520,nan,nan,-0.3614498,2.3680656,0.0,nan,nan,0.03685507,0.0,0.0,0.0,0.0,0.0,0.0,2.796183e-10,-2.7305713e-10,-0.45514917
360143469,nan,nan,-0.3614498,2.3680656,0.0,nan,nan,0.046246916,0.0,0.0,0.0,0.0,0.0,0.0,9.427222e-12,-9.206015e-12,-0.4565454
360243446,nan,nan,-0.3614498,2.3680656,0.0,nan,nan,0.04967621,0.0,0.0,0.0,0.0,0.0,0.0,1.8388953e-14,-1.7957461e-14,-0.45533693
360343499,nan,nan,-0.3614498,2.374731,-0.095652565,nan,nan,0.05930397,0.0,0.0,0.0,0.0,0.0,0.0,-1.0041671e-14,9.67613e-15,-0.45270187
360463929,nan,nan,-0.3614498,2.368616,-0.41950247,nan,nan,0.07600433,0.0,0.0,0.0,0.0,0.0,0.0,-6.6058875e-17,6.443781e-17,-0.4471972
360563601,nan,nan,-0.3614498,2.3586884,-0.46306196,nan,nan,0.0811626,0.0,0.0,0.0,0.0,0.0,0.0,-8.904317e-19,8.860015e-19,-0.44468287
360664097,nan,nan,-0.3614498,2.346694,-0.49067625,nan,nan,0.08273175,0.0,0.0,0.0,0.0,0.0,0.0,1.21248425e-20,-1.2357444e-20,-0.44633695
360763919,nan,nan,-0.3614498,2.3362665,-0.50125116,nan,nan,0.084750354,0.0,0.0,0.0,0.0,0.0,0.0,1.6302523e-21,-1.6965575e-21,-0.44352645
360864315,nan,nan,-0.3614498,2.3191583,-0.5138119,nan,nan,0.085336655,0.0,0.0,0.0,0.0,0.0,0.0,-3.5900725e-23,3.866356e-23,-0.44457582
360964108,nan,nan,-0.3614498,2.2989194,-0.44164085,nan,nan,0.084846556,0.0,0.0,0.0,0.0,0.0,0.0,-0.016057922,0.018011378,-0.4481619
361064142,nan,nan,-0.3614498,2.2809036,-0.18151283,nan,nan,0.08244458,0.0,0.0,0.0,0.0,0.0,0.0,-0.00869502,0.01011384,-0.44249544
361164194,nan,nan,-0.3614498,2.2753258,-0.18940644,nan,nan,0.07780093,0.0,0.0,0.0,0.0,0.0,0.0,-0.009732034,0.011448631,-0.4504392
361264274,nan,nan,-0.3614498,2.2707682,-0.1860857,nan,nan,0.08071378,0.0,0.0,0.0,0.0,0.0,0.0,-0.007954984,0.009445029,-0.44583246
361364402,nan,nan,nan,2.2649212,-0.20149349,nan,nan,-0.19359675,0.0,0.0,0.0,0.0,0.0,0.0,1.8775938e-05,-2.2559247e-05,-0.49759027
361464565,nan,nan,nan,2.2570422,-0.1746668,nan,nan,-0.34737834,0.0,0.0,0.0,0.0,0.0,0.0,-8.161639e-06,9.964834e-06,-0.525968
361564709,nan,nan,nan,2.243734,-0.18299747,nan,nan,-0.40305465,0.0,0.0,0.0,0.0,0.0,0.0,-1.0494753e-07,1.3167049e-07,-0.50529915
361664813,nan,nan,nan,2.225516,-0.18109354,nan,nan,-0.42974043,0.0,0.0,0.0,0.0,0.0,0.0,3.3553231e-09,-4.3707393e-09,-0.48369172
361764903,nan,nan,nan,2.2043414,-0.13675809,nan,nan,-0.36196002,0.0,0.0,0.0,0.0,0.0,0.0,7.459369e-11,-1.0154901e-10,-0.47406858
361884930,nan,nan,nan,2.1802826,-0.08995729,nan,nan,-0.20301509,0.0,0.0,0.0,0.0,0.0,0.0,1.1378695e-12,-1.6298249e-12,-0.46762756
361985047,nan,nan,nan,2.163379,-0.15781116,nan,nan,-0.13008602,0.0,0.0,0.0,0.0,0.0,0.0,-2.3988126e-14,3.5627558e-14,-0.47267804
362085174,nan,nan,nan,2.140125,-0.43303588,nan,nan,-0.18022864,0.0,0.0,0.0,0.0,0.0,0.0,-7.3075036e-16,1.1417584e-15,-0.50261533
362185221,nan,nan,nan,2.1015725,-0.6126924,nan,nan,-0.23477921,0.0,0.0,0.0,0.0,0.0,0.0,-8.599024e-18,1.4650098e-17,-0.5114035
362286699,nan,nan,nan,2.0471563,-0.60909736,nan,nan,-0.23256786,0.0,0.0,0.0,0.0,0.0,0.0,1.2754989e-19,-2.4719305e-19,-0.5020047
362385663,nan,nan,nan,1.9903737,-0.5965238,nan,nan,-0.22884853,0.0,0.0,0.0,0.0,0.0,0.0,1.3677832e-20,-3.0663262e-20,-0.49781746
362486481,nan,nan,nan,1.9309441,-0.5469445,nan,nan,-0.24107862,0.0,0.0,0.0,0.0,0.0,0.0,1.1622127e-22,-3.0863e-22,-0.5010966
362585725,nan,nan,nan,1.8730153,-0.5215316,nan,nan,-0.25691795,0.0,0.0,0.0,0.0,0.0,0.0,-6.755993e-24,2.1669853e-23,-0.50678253
362686158,nan,nan,nan,1.8171111,-0.5124286,nan,nan,-0.2894462,0.0,0.0,0.0,0.0,0.0,0.0,-1.027058e-25,4.0850267e-25,-0.52079564
362785812,nan,nan,nan,1.7634975,-0.46522853,nan,nan,-0.33786187,0.0,0.0,0.0,0.0,0.0,0.0,1.0755156e-27,-5.512007e-27,-0.53318304
362885930,nan,nan,nan,1.7136092,-0.44727644,nan,nan,-0.3255114,0.0,0.0,0.0,0.0,0.0,0.0,-0.0023608862,0.016418783,-0.5189203
362985997,nan,nan,nan,1.6659198,-0.42203096,nan,nan,-0.30140132,0.0,0.0,0.0,0.0,0.0,0.0,-0.0024273726,0.025441116,-0.50827354
363106306,nan,nan,nan,1.6114146,-0.41022214,nan,nan,-0.29097962,0.0,0.0,0.0,0.0,0.0,0.0,-0.001118253,0.027515674,-0.51230645
363206346,nan,nan,nan,1.5661918,-0.37599036,nan,nan,-0.2820568,0.0,0.0,0.0,0.0,0.0,0.0,0.00012494084,0.027134113,-0.5237426
363306435,nan,nan,nan,1.5222193,-0.35010356,nan,nan,-0.2530838,0.0,0.0,0.0,0.0,0.0,0.0,0.0016600963,0.03414763,-0.51995724
363406549,nan,nan,nan,1.4813244,-0.26140413,nan,nan,-0.18575041,0.0,0.0,0.0,0.0,0.0,0.0,0.0030684157,0.034203183,-0.50383115
363506561,nan,nan,nan,1.4432439,-0.2129093,nan,nan,-0.16175476,0.0,0.0,0.0,0.0,0.0,0.0,0.0042851297,0.033412647,-0.5152183
363606630,nan,nan,nan,1.4176545,0.0,nan,nan,-0.053540546,0.0,0.0,0.0,0.0,0.0,0.0,0.003677636,0.02382655,-0.49334258
363706731,nan,nan,-0.6041538,1.4176545,-0.0,nan,nan,-0.017282248,0.0,0.0,0.0,0.0,0.0,0.0,0.0033757645,0.021870796,-0.49161768
363806848,nan,nan,-0.6041538,1.4176545,-0.0,nan,nan,-0.036765456,0.0,0.0,0.0,0.0,0.0,0.0,0.0035285691,0.02286078,-0.5014802
363907013,nan,nan,-0.6041538,1.4176545,-0.0,nan,nan,-0.056853652,0.0,0.0,0.0,0.0,0.0,0.0,0.0012583858,0.008152789,-0.5098514
364007414,nan,nan,nan,1.4176545,0.0,nan,nan,-0.2560398,0.0,0.0,0.0,0.0,0.0,0.0,0.0016585045,0.010745065,-0.56226254
364107400,nan,nan,nan,1.4176545,0.0,nan,nan,-0.28784364,0.0,0.0,0.0,0.0,0.0,0.0,0.00096656865,0.0062621743,-0.5365174
364207425,nan,nan,nan,1.4176545,-0.0,nan,nan,-0.29988694,0.0,0.0,0.0,0.0,0.0,0.0,0.00058675074,0.003801422,-0.51031613
364307546,nan,nan,nan,1.4176545,-0.0,nan,nan,-0.29958615,0.0,0.0,0.0,0.0,0.0,0.0,0.00051154976,0.0033142124,-0.49296466
364407528,nan,nan,nan,1.4176545,-0.0,nan,nan,-0.2995782,0.0,0.0,0.0,0.0,0.0,0.0,0.00038239083,0.0024774214,-0.5046084
364527599,nan,nan,nan,1.4176545,0.0,nan,nan,-0.2995782,0.0,0.0,0.0,0.0,0.0,0.0,-1.2511128e-05,-8.10567e-05,-0.5215083
364627678,nan,nan,nan,1.4176545,0.0,nan,nan,-0.28923202,0.0,0.0,0.0,0.0,0.0,0.0,-2.1697078e-07,-1.4057034e-06,-0.52993804
364727804,nan,nan,nan,1.4176545,0.0,nan,nan,-0.26535517,0.0,0.0,0.0,0.0,0.0,0.0,9.5780786e-05,0.0006205415,-0.52142036
364827973,nan,nan,nan,1.4176545,0.0,nan,nan,-0.25999236,0.0,0.0,0.0,0.0,0.0,0.0,0.00019276673,0.001248891,-0.5238793
364928315,nan,nan,nan,1.4176545,-0.0,nan,nan,-0.25184798,0.0,0.0,0.0,0.0,0.0,0.0,4.3091695e-05,0.00027918108,-0.51649976
365028112,nan,nan,nan,1.4176545,-0.0,nan,nan,-0.18503873,0.0,0.0,0.0,0.0,0.0,0.0,9.021111e-07,5.8445685e-06,-0.50782233
365128336,nan,nan,nan,1.4176545,0.0,nan,nan,-0.13395238,0.0,0.0,0.0,0.0,0.0,0.0,-2.884789e-09,-1.868988e-08,-0.50856066
365228286,nan,nan,nan,1.4176545,0.0,nan,nan,-0.056314938,0.0,0.0,0.0,0.0,0.0,0.0,0.00046354547,0.0030032038,-0.50380635
365328359,nan,nan,nan,1.4176545,0.0,nan,nan,-0.01779246,0.0,0.0,0.0,0.0,0.0,0.0,0.00067708676,0.004386688,-0.511915
365428440,nan,nan,-0.5770724,1.4176545,-0.0,nan,nan,-0.010825515,0.0,0.0,0.0,0.0,0.0,0.0,0.00076429563,0.0049516945,-0.5151528
365528691,nan,nan,-0.5770724,1.4176545,-0.0,nan,nan,-0.030813575,0.0,0.0,0.0,0.0,0.0,0.0,0.0011853403,0.0076795453,-0.532506
365628727,nan,nan,-0.5770724,1.4176545,-0.0,nan,nan,-0.06094992,0.0,0.0,0.0,0.0,0.0,0.0,0.0018436187,0.011944378,-0.5436547
365728832,nan,nan,-0.5770724,1.4176545,0.0,nan,nan,-0.082282454,0.0,0.0,0.0,0.0,0.0,0.0,0.002394829,0.015515543,-0.5275123
365828912,nan,nan,nan,1.4176545,0.0,nan,nan,-0.108756706,0.0,0.0,0.0,0.0,0.0,0.0,0.0029612365,0.019185165,-0.5165559
365948983,nan,nan,nan,1.4176545,0.0,nan,nan,-0.37115622,0.0,0.0,0.0,0.0,0.0,0.0,0.0037286927,0.024157338,-0.5521073
366049133,nan,nan,nan,1.4176545,-0.0,nan,nan,-0.24911013,0.0,0.0,0.0,0.0,0.0,0.0,0.0035070067,0.022721084,-0.49305275
366149269,nan,nan,nan,1.4176545,-0.0,nan,nan,-0.086537674,0.0,0.0,0.0,0.0,0.0,0.0,0.0030836456,0.019978225,-0.4529078
366250037,nan,nan,nan,1.4176545,-0.0,nan,nan,-0.029571928,0.0,0.0,0.0,0.0,0.0,0.0,0.0031255188,0.02024951,-0.47820854
366349560,nan,nan,nan,1.4176545,0.0,nan,nan,-0.002323861,0.0,0.0,0.0,0.0,0.0,0.0,0.0031864864,0.020644506,-0.5081243
366450745,nan,nan,-0.53897345,1.4176545,0.0,nan,nan,-0.013803303,0.0,0.0,0.0,0.0,0.0,0.0,0.0033706126,0.021837417,-0.5251309
366549699,nan,nan,-0.53897345,1.4176545,0.0,nan,nan,-0.029634356,0.0,0.0,0.0,0.0,0.0,0.0,0.0037843843,0.024518149,-0.53011864
366650361,nan,nan,nan,1.4176545,0.0,nan,nan,-0.19106117,0.0,0.0,0.0,0.0,0.0,0.0,0.0046265777,0.029974524,-0.55547196
366749796,nan,nan,nan,1.4176545,0.0,nan,nan,-0.24076827,0.0,0.0,0.0,0.0,0.0,0.0,0.0053174994,0.034450848,-0.5582724
366850371,nan,nan,nan,1.4176545,0.0,nan,nan,-0.23755758,0.0,0.0,0.0,0.0,0.0,0.0,0.0051427255,0.033318523,-0.5318463
366949978,nan,nan,nan,1.4176545,0.0,nan,nan,-0.26162314,0.0,0.0,0.0,0.0,0.0,0.0,0.0047541787,0.030801222,-0.5271867
367050333,nan,nan,nan,1.4176545,0.0,nan,nan,-0.28164953,0.0,0.0,0.0,0.0,0.0,0.0,0.004923984,0.031901352,-0.5287056
367170411,nan,nan,nan,1.4176545,0.0,nan,nan,-0.28292865,0.0,0.0,0.0,0.0,0.0,0.0,0.004460142,0.028896227,-0.5206459
367270498,nan,nan,nan,1.4176545,0.0,nan,nan,-0.2827077,0.0,0.0,0.0,0.0,0.0,0.0,0.0043792566,0.028372187,-0.5163668
367370534,nan,nan,nan,1.4176545,0.0,nan,nan,-0.26482314,0.0,0.0,0.0,0.0,0.0,0.0,0.0043913904,0.0284508,-0.5185795
367470549,nan,nan,nan,1.4176545,0.0,nan,nan,-0.2658229,0.0,0.0,0.0,0.0,0.0,0.0,0.0042388635,0.027462613,-0.52949965
367570580,nan,nan,nan,1.4176545,0.0,nan,nan,-0.27903008,0.0,0.0,0.0,0.0,0.0,0.0,0.003298041,0.021367244,-0.52444524
367670662,nan,nan,nan,1.4176545,0.0,nan,nan,-0.27427763,0.0,0.0,0.0,0.0,0.0,0.0,0.0031793863,0.020598507,-0.5225215
367770777,nan,nan,nan,1.4176545,0.0,nan,nan,-0.26545495,0.0,0.0,0.0,0.0,0.0,0.0,0.0031690693,0.020531664,-0.51832193
367870956,nan,nan,nan,1.4176545,0.0,nan,nan,-0.27443376,0.0,0.0,0.0,0.0,0.0,0.0,0.0019651116,0.012731503,-0.5199677
367971331,nan,nan,nan,1.4176545,0.0,nan,nan,-0.27427047,0.0,0.0,0.0,0.0,0.0,0.0,0.0026925586,0.017444463,-0.5229798
368071392,nan,nan,nan,1.4176545,0.0,nan,nan,-0.2860098,0.0,0.0,0.0,0.0,0.0,0.0,0.0020724228,0.013426746,-0.5385902
368171553,nan,nan,nan,1.4176545,0.0,nan,nan,-0.3082336,0.0,0.0,0.0,0.0,0.0,0.0,0.0018548265,0.01201699,-0.552288
368271495,nan,nan,nan,1.4176545,0.0,nan,nan,-0.30802417,0.0,0.0,0.0,0.0,0.0,0.0,0.0018822575,0.01219471,-0.5435351
368391468,nan,nan,nan,1.4176545,0.0,nan,nan,-0.31507617,0.0,0.0,0.0,0.0,0.0,0.0,0.0007920833,0.0051317234,-0.5304903
368491510,nan,nan,nan,1.4176545,0.0,nan,nan,-0.34035057,0.0,0.0,0.0,0.0,0.0,0.0,0.00046633772,0.003021294,-0.5367214
368591643,nan,nan,nan,1.4176545,0.0,nan,nan,-0.31906813,0.0,0.0,0.0,0.0,0.0,0.0,0.0002058992,0.0013339731,-0.5252817
368691782,nan,nan,nan,1.4176545,0.0,nan,nan,-0.28158075,0.0,0.0,0.0,0.0,0.0,0.0,0.0001157237,0.0007497471,-0.51670665
368791992,nan,nan,nan,1.4176545,0.0,nan,nan,-0.30295062,0.0,0.0,0.0,0.0,0.0,0.0,5.5207215e-06,3.5767473e-05,-0.5235193
368892039,nan,nan,nan,1.4176545,0.0,nan,nan,-0.29589424,0.0,0.0,0.0,0.0,0.0,0.0,0.0025675078,0.016634287,-0.5227052
368992126,nan,nan,nan,1.4176545,0.0,nan,nan,-0.23562956,0.0,0.0,0.0,0.0,0.0,0.0,0.0033874235,0.021946333,-0.5161547
369092169,nan,nan,nan,1.4176545,0.0,nan,nan,-0.23895988,0.0,0.0,0.0,0.0,0.0,0.0,0.0034188712,0.022150073,-0.52593994
369192250,nan,nan,nan,1.4176545,0.0,nan,nan,-0.24592884,0.0,0.0,0.0,0.0,0.0,0.0,0.0040675174,0.026352502,-0.5285087
369292333,nan,nan,nan,1.4176545,0.0,nan,nan,-0.24420428,0.0,0.0,0.0,0.0,0.0,0.0,0.0033747752,0.021864386,-0.5283302
369392400,nan,nan,nan,1.4176545,0.0,nan,nan,-0.2375822,0.0,0.0,0.0,0.0,0.0,0.0,0.003285979,0.021289095,-0.52329
369492604,nan,nan,nan,1.4176545,0.0,nan,nan,-0.24045794,0.0,0.0,0.0,0.0,0.0,0.0,0.002768691,0.017937707,-0.5273104
369612734,nan,nan,nan,1.4176545,0.0,nan,nan,-0.23463178,0.0,0.0,0.0,0.0,0.0,0.0,0.0024802454,0.016068935,-0.54288745
369712899,nan,nan,nan,1.4176545,0.0,nan,nan,-0.129728,0.0,0.0,0.0,0.0,0.0,0.0,0.0032310223,0.020933045,-0.5238556
369812960,nan,nan,nan,1.4176545,0.0,nan,nan,-0.15073624,0.0,0.0,0.0,0.0,0.0,0.0,0.003088677,0.020010823,-0.53354764
369912974,nan,nan,nan,1.4176545,0.0,nan,nan,-0.19551721,0.0,0.0,0.0,0.0,0.0,0.0,0.0026535664,0.017191842,-0.54446256
370013146,nan,nan,nan,1.4176545,0.0,nan,nan,-0.2040216,0.0,0.0,0.0,0.0,0.0,0.0,0.0029016107,0.018798862,-0.5386876
370113191,nan,nan,nan,1.4176545,0.0,nan,nan,-0.2155134,0.0,0.0,0.0,0.0,0.0,0.0,0.002461821,0.015949568,-0.53091204
370213240,nan,nan,nan,1.4176545,0.0,nan,nan,-0.22841343,0.0,0.0,0.0,0.0,0.0,0.0,0.0023989822,0.01554245,-0.5263502
370313627,nan,nan,nan,1.4176545,0.0,nan,nan,-0.24359632,0.0,0.0,0.0,0.0,0.0,0.0,0.0014541422,0.00942105,-0.5244341
370414261,nan,nan,nan,1.4176545,0.0,nan,nan,-0.24960208,0.0,0.0,0.0,0.0,0.0,0.0,0.0015346501,0.009942642,-0.5239721
370513668,nan,nan,nan,1.4176545,0.0,nan,nan,-0.26187348,0.0,0.0,0.0,0.0,0.0,0.0,0.0010213921,0.0066173617,-0.5291081
370614659,nan,nan,nan,1.4176545,0.0,nan,nan,-0.21277156,0.0,0.0,0.0,0.0,0.0,0.0,0.0021379276,0.013851137,-0.5266203
370713750,nan,nan,nan,1.4176545,0.0,nan,nan,-0.25190958,0.0,0.0,0.0,0.0,0.0,0.0,0.00011766898,0.00076235,-0.5341212
370813843,nan,nan,nan,1.4176545,0.0,nan,nan,-0.09958713,0.0,0.0,0.0,0.0,0.0,0.0,4.161228e-06,2.6959631e-05,-0.5025435
370933977,nan,nan,-1.1261877,1.4176545,0.0,nan,nan,0.009450436,0.0,0.0,0.0,0.0,0.0,0.0,1.3034047e-08,8.4444565e-08,-0.5085019
371034129,nan,nan,-1.1261877,1.4176545,0.0,nan,nan,0.012266517,0.0,0.0,0.0,0.0,0.0,0.0,-8.6678653e-10,-5.615709e-09,-0.5228948
371134386,nan,nan,-1.1261877,1.4176545,0.0,nan,nan,0.0054261684,0.0,0.0,0.0,0.0,0.0,0.0,-6.1130136e-11,-3.9604797e-10,-0.5287356
371234423,nan,nan,-1.1261877,1.4176545,0.0,nan,nan,-0.000901103,0.0,0.0,0.0,0.0,0.0,0.0,6.0103e-05,0.00038939345,-0.53253675
371334490,nan,nan,-1.1261877,1.4176545,-0.0,nan,nan,-0.008953333,0.0,0.0,0.0,0.0,0.0,0.0,0.0018407906,0.011926056,-0.5331168
371434502,nan,nan,-1.1261877,1.4176545,0.0,nan,nan,-0.017219901,0.0,0.0,0.0,0.0,0.0,0.0,6.1169385e-06,3.9630228e-05,-0.5402349
371534567,nan,nan,-1.1261877,1.4176545,0.0,nan,nan,-0.029018044,0.0,0.0,0.0,0.0,0.0,0.0,-4.820411e-07,-3.1230327e-06,-0.53684086
371634647,nan,nan,-1.1261877,1.4176545,-0.0,nan,nan,-0.035270214,0.0,0.0,0.0,0.0,0.0,0.0,-3.1260264e-08,-2.02528e-07,-0.5242071
371734751,nan,nan,-1.1261877,1.4176545,-0.0,nan,nan,-0.03602004,0.0,0.0,0.0,0.0,0.0,0.0,-2.2521478e-10,-1.4591144e-09,-0.51882136
371834877,nan,nan,nan,1.4176545,-0.0,nan,nan,-0.0871977,0.0,0.0,0.0,0.0,0.0,0.0,2.5182821e-11,1.6315367e-10,-0.5330764
371935015,nan,nan,nan,1.4176545,-0.0,nan,nan,-0.11032987,0.0,0.0,0.0,0.0,0.0,0.0,4.091911e-13,2.6510543e-12,-0.5392339
372035447,nan,nan,nan,1.4176545,0.0,nan,nan,-0.12239981,0.0,0.0,0.0,0.0,0.0,0.0,-8.459422e-15,-5.4806633e-14,-0.5294362
372135486,nan,nan,nan,1.4176545,0.0,nan,nan,-0.11649378,0.0,0.0,0.0,0.0,0.0,0.0,-2.4724394e-16,-1.6018362e-15,-0.51683193
372255472,nan,nan,nan,1.4176545,0.0,nan,nan,-0.19340046,0.0,0.0,0.0,0.0,0.0,0.0,-1.1251452e-18,-7.289556e-18,-0.5299582
372355498,nan,nan,nan,1.4176545,0.0,nan,nan,-0.45186216,0.0,0.0,0.0,0.0,0.0,0.0,-3.5696556e-20,-2.3126972e-19,-0.5786776
372456403,nan,nan,nan,1.4176545,0.0,nan,nan,-0.49176067,0.0,0.0,0.0,0.0,0.0,0.0,-3.859458e-22,-2.5004535e-21,-0.5456024
372555571,nan,nan,nan,1.4176545,0.0,nan,nan,-0.48656076,0.0,0.0,0.0,0.0,0.0,0.0,-0.00011726789,-0.0007597514,-0.5181915
372655995,nan,nan,nan,1.4176545,-0.0,nan,nan,-0.45179495,0.0,0.0,0.0,0.0,0.0,0.0,-0.0013510102,-0.008752882,-0.5140188
372755925,nan,nan,nan,1.4176545,-0.0,nan,nan,-0.27748394,0.0,0.0,0.0,0.0,0.0,0.0,-0.0010484934,-0.006792946,-0.49397686
372855992,nan,nan,nan,1.4176545,0.0,nan,nan,-0.12639134,0.0,0.0,0.0,0.0,0.0,0.0,-0.0007452166,-0.0048280857,-0.49256432
372956065,nan,nan,-1.2646084,1.4176545,0.0,nan,nan,-0.00071918964,0.0,0.0,0.0,0.0,0.0,0.0,-0.0017494487,-0.011334273,-0.49335876
373056137,nan,nan,-1.2646084,1.4176545,0.0,nan,nan,-0.017433286,0.0,0.0,0.0,0.0,0.0,0.0,-0.003675233,-0.023810983,-0.53680634
373156248,nan,nan,nan,1.4176545,-0.0,nan,nan,-0.08896796,0.0,0.0,0.0,0.0,0.0,0.0,-0.0051135076,-0.03312923,-0.55617934
373256298,nan,nan,nan,1.4176545,-0.0,nan,nan,-0.20810056,0.0,0.0,0.0,0.0,0.0,0.0,-0.006416818,-0.041573077,-0.5692828
373356408,nan,nan,nan,1.4176545,0.0,nan,nan,-0.2655666,0.0,0.0,0.0,0.0,0.0,0.0,-0.0074144485,-0.04803649,-0.54456335
373456545,nan,nan,nan,1.4176545,0.0,nan,nan,-0.27382937,0.0,0.0,0.0,0.0,0.0,0.0,-0.0070435456,-0.045633502,-0.5296746
373556686,nan,nan,nan,1.4176545,0.0,nan,nan,-0.29406595,0.0,0.0,0.0,0.0,0.0,0.0,-0.006144299,-0.03980749,-0.52219486
373676780,nan,nan,nan,1.4176545,0.0,nan,nan,-0.31083393,0.0,0.0,0.0,0.0,0.0,0.0,-0.0059189308,-0.038347382,-0.5200733
373776865,nan,nan,nan,1.4176545,-0.0,nan,nan,-0.31710553,0.0,0.0,0.0,0.0,0.0,0.0,-0.0028755895,-0.01863028,-0.5154359
373876897,nan,nan,nan,1.4176545,-0.0,nan,nan,-0.31519222,0.0,0.0,0.0,0.0,0.0,0.0,9.348279e-05,0.0006056534,-0.51948005
373977135,nan,nan,nan,1.4176545,0.0,nan,nan,-0.27739733,0.0,0.0,0.0,0.0,0.0,0.0,-7.9645855e-07,-5.1600705e-06,-0.5282761
374077162,nan,nan,nan,1.4176545,0.0,nan,nan,-0.19691157,0.0,0.0,0.0,0.0,0.0,0.0,-0.0003843469,5.9027607e-05,-0.5296065
374177193,nan,nan,nan,1.4176545,0.0,nan,nan,-0.065101065,0.0,0.0,0.0,0.0,0.0,0.0,-0.0149918245,0.0023139862,-0.5135901
374278136,nan,nan,-1.3363876,1.4176545,0.0,nan,nan,-0.0046178102,0.0,0.0,0.0,0.0,0.0,0.0,-0.03806072,0.0058746845,-0.5141122
374377605,nan,nan,-1.3363876,1.4176545,-0.0,nan,nan,-0.017763972,0.0,0.0,0.0,0.0,0.0,0.0,-0.04075617,0.0062907278,-0.52771187
374477972,nan,nan,-1.3363876,1.4176545,-0.0,nan,nan,-0.03672433,0.0,0.0,0.0,0.0,0.0,0.0,-0.044622567,0.006887508,-0.5429654
374577693,nan,nan,-1.3363876,1.4176545,0.0,nan,nan,-0.0537467,0.0,0.0,0.0,0.0,0.0,0.0,-0.04531855,0.0069949334,-0.5378407
374677718,nan,nan,nan,1.4176545,0.0,nan,nan,-0.03599532,0.0,0.0,0.0,0.0,0.0,0.0,-0.03852188,0.0059458646,-0.5261772
374777791,nan,nan,nan,1.4176545,0.0,nan,nan,-0.31926242,0.0,0.0,0.0,0.0,0.0,0.0,-0.012789297,-0.007592776,-0.57226187
374877873,nan,nan,nan,1.4176545,0.0,nan,nan,-0.31921554,0.0,0.0,0.0,0.0,0.0,0.0,-0.010421249,-0.004489239,-0.54263794
374977992,nan,nan,nan,1.4176545,0.0,nan,nan,-0.27600098,0.0,0.0,0.0,0.0,0.0,0.0,-0.005100042,-0.0070768255,-0.51167685
375078203,nan,nan,nan,1.4176545,0.0,nan,nan,-0.19756603,0.0,0.0,0.0,0.0,0.0,0.0,-0.0020133608,-0.014243196,-0.49639407
375198436,nan,nan,nan,1.4176545,0.0,nan,nan,-0.12181608,0.0,0.0,0.0,0.0,0.0,0.0,-0.0055631334,-0.03606267,-0.50744647
375298467,nan,nan,nan,1.4176545,0.0,nan,nan,-0.12824622,0.0,0.0,0.0,0.0,0.0,0.0,-0.0058790585,-0.038089294,-0.53514224
375398562,nan,nan,nan,1.4176545,0.0,nan,nan,-0.14330831,0.0,0.0,0.0,0.0,0.0,0.0,-0.007025337,-0.04551553,-0.55400574
375498563,nan,nan,nan,1.4176545,0.0,nan,nan,-0.20882893,0.0,0.0,0.0,0.0,0.0,0.0,-0.008178311,-0.05298538,-0.5586848
375598601,nan,nan,nan,1.4176545,0.0,nan,nan,-0.33410597,0.0,0.0,0.0,0.0,0.0,0.0,-0.008851172,-0.057344697,-0.5562609
375698712,nan,nan,nan,1.4176545,0.0,nan,nan,-0.33306327,0.0,0.0,0.0,0.0,0.0,0.0,-0.007303905,-0.04732031,-0.5269152
375798846,nan,nan,nan,1.4176545,0.0,nan,nan,-0.32421,0.0,0.0,0.0,0.0,0.0,0.0,-0.0031293838,-0.016604254,-0.5083616
375898951,nan,nan,nan,1.4176545,0.0,nan,nan,-0.2905155,0.0,0.0,0.0,0.0,0.0,0.0,-0.020858156,0.0033060818,-0.50664085
375999414,nan,nan,nan,1.4176545,0.0,nan,nan,-0.24746943,0.0,0.0,0.0,0.0,0.0,0.0,-0.04026105,0.0062255575,-0.5235703
376099495,nan,nan,nan,1.4176545,0.0,nan,nan,-0.12317109,0.0,0.0,0.0,0.0,0.0,0.0,-0.03865078,0.0059658675,-0.50498044
376199493,nan,nan,nan,1.4176545,0.0,nan,nan,-0.104762,0.0,0.0,0.0,0.0,0.0,0.0,-0.035438962,0.0054700086,-0.5109034
376299531,nan,nan,nan,1.4176545,0.0,nan,nan,-0.16703613,0.0,0.0,0.0,0.0,0.0,0.0,-0.021767063,0.0033597534,-0.5386307
376399807,nan,nan,nan,1.4176545,0.0,nan,nan,-0.18407393,0.0,0.0,0.0,0.0,0.0,0.0,0.0012274091,-0.000189451,-0.5372383
376520397,nan,nan,nan,1.4176545,0.0,nan,nan,-0.22662726,0.0,0.0,0.0,0.0,0.0,0.0,7.589836e-06,-1.1714936e-06,-0.541888
376619628,nan,nan,nan,1.4176545,0.0,nan,nan,-0.2558884,0.0,0.0,0.0,0.0,0.0,0.0,1.5676912e-07,-2.4197364e-08,-0.53794885
376719917,nan,nan,nan,1.4176545,0.0,nan,nan,-0.2644822,0.0,0.0,0.0,0.0,0.0,0.0,-6.857665e-10,1.058483e-10,-0.5258556
376819987,nan,nan,nan,1.4176545,0.0,nan,nan,-0.26653218,0.0,0.0,0.0,0.0,0.0,0.0,-6.368708e-11,9.830123e-12,-0.52124393
376920115,nan,nan,nan,1.4176545,0.0,nan,nan,-0.2663033,0.0,0.0,0.0,0.0,0.0,0.0,-1.6266192e-12,2.510692e-13,-0.5270518
377020161,nan,nan,nan,1.4176545,0.0,nan,nan,-0.26580662,0.0,0.0,0.0,0.0,0.0,0.0,-8.933715e-15,1.3789215e-15,-0.53362757
377120188,nan,nan,nan,1.4176545,0.0,nan,nan,-0.26289433,0.0,0.0,0.0,0.0,0.0,0.0,4.836057e-16,-7.46447e-17,-0.5344276
377220311,nan,nan,nan,1.5802405,0.0,nan,nan,-0.2675578,0.0,0.0,0.0,0.0,0.0,0.0,3.586953e-17,3.3876781e-19,-0.5345061
377320374,nan,nan,nan,1.5802405,0.0,nan,nan,-0.34199524,0.0,0.0,0.0,0.0,0.0,0.0,2.830281e-19,2.6730455e-21,-0.54129344
377420414,nan,nan,nan,1.5802405,0.0,nan,nan,-0.45379448,0.0,0.0,0.0,0.0,0.0,0.0,-2.8513533e-20,-2.6929442e-22,-0.5548991
377520617,nan,nan,nan,1.5802405,0.0,nan,nan,-0.5227165,0.0,0.0,0.0,0.0,0.0,0.0,-4.5524963e-22,-4.2995807e-24,-0.5395357
377620767,nan,nan,nan,1.5802405,0.0,nan,nan,-0.5287688,0.0,0.0,0.0,0.0,0.0,0.0,-4.814387e-24,-4.546923e-26,-0.5283273
377720835,nan,nan,nan,1.5802405,0.0,nan,nan,-0.5467988,0.0,0.0,0.0,0.0,0.0,0.0,2.7299e-25,2.5782382e-27,-0.5301601
377840938,nan,nan,nan,1.5802405,0.0,nan,nan,-0.5526905,0.0,0.0,0.0,0.0,0.0,0.0,5.216919e-27,4.9270894e-29,-0.5291831
377941077,nan,nan,nan,1.5802405,0.0,nan,nan,-0.55274296,0.0,0.0,0.0,0.0,0.0,0.0,6.8339415e-29,6.4542793e-31,-0.52140844
378041111,nan,nan,nan,1.5802405,0.0,nan,nan,-0.55274296,0.0,0.0,0.0,0.0,0.0,0.0,-2.5003617e-30,-2.3614516e-32,-0.5269632
378141226,nan,nan,nan,1.5802405,0.0,nan,nan,-0.55274296,0.0,0.0,0.0,0.0,0.0,0.0,-5.7081453e-32,-5.3910256e-34,-0.5289949
378241340,nan,nan,nan,1.5802405,0.0,nan,nan,-0.5615446,0.0,0.0,0.0,0.0,0.0,0.0,-1.7231318e-35,-1.6274891e-37,-0.5260939
378342439,nan,nan,nan,1.5802405,0.0,nan,nan,-0.56117344,0.0,0.0,0.0,0.0,0.0,0.0,2.0454348e-35,1.9317982e-37,-0.5288767
378441624,nan,nan,nan,1.5802405,0.0,nan,nan,-0.561181,0.0,0.0,0.0,0.0,0.0,0.0,1.0611067e-36,1.0021565e-38,-0.52092147
378541904,nan,nan,nan,1.5802405,0.0,nan,nan,-0.5570508,0.0,0.0,0.0,0.0,0.0,0.0,6.251103e-39,5.9038e-41,-0.5240586
378641714,nan,nan,nan,1.5802405,0.0,nan,nan,-0.5684683,0.0,0.0,0.0,0.0,0.0,0.0,-9.37106e-40,-8.85e-42,-0.5313876
378741776,nan,nan,nan,1.5802405,0.0,nan,nan,-0.5698447,0.0,0.0,0.0,0.0,0.0,0.0,-1.4473e-41,-1.37e-43,-0.5404568
378841852,nan,nan,nan,1.5802405,0.0,nan,nan,-0.5693492,0.0,0.0,0.0,0.0,0.0,0.0,3.71e-43,4e-45,-0.54834336
378941957,nan,nan,nan,1.5802405,0.0,nan,nan,-0.5916978,0.0,0.0,0.0,0.0,0.0,0.0,1e-44,0.0,-0.5630941
379042170,nan,nan,nan,1.5802405,0.0,nan,nan,-0.6054355,0.0,0.0,0.0,0.0,0.0,0.0,0.0,0.0,-0.5474177
379142379,nan,nan,nan,1.5802405,0.0,nan,nan,-0.65334296,0.0,0.0,0.0,0.0,0.0,0.0,0.0,0.0,-0.53616536
379262415,nan,nan,nan,1.5802405,0.0,nan,nan,-0.6651343,0.0,0.0,0.0,0.0,0.0,0.0,0.0,0.0,-0.52925503
379362528,nan,nan,nan,1.5802405,0.0,nan,nan,-0.67797154,0.0,0.0,0.0,0.0,0.0,0.0,0.0,0.0,-0.52558607
379462546,nan,nan,nan,1.5802405,0.0,nan,nan,-0.6798133,0.0,0.0,0.0,0.0,0.0,0.0,0.0,0.0,-0.52168894
379562558,nan,nan,nan,1.5802405,0.0,nan,nan,-0.6798006,0.0,0.0,0.0,0.0,0.0,0.0,0.0,0.0,-0.52620625
379662682,nan,nan,nan,1.5802405,0.0,nan,nan,-0.6761071,0.0,0.0,0.0,0.0,0.0,0.0,0.0,0.0,-0.5399219
379762801,nan,nan,nan,1.5802405,0.0,nan,nan,-0.688344,0.0,0.0,0.0,0.0,0.0,0.0,0.0,0.0,-0.54033285
379862991,nan,nan,nan,1.5802405,0.0,nan,nan,-0.68777215,0.0,0.0,0.0,0.0,0.0,0.0,0.0,0.0,-0.5296751
379963378,nan,nan,nan,1.5802405,0.0,nan,nan,-0.6877638,0.0,0.0,0.0,0.0,0.0,0.0,0.0,0.0,-0.52369684
380063396,nan,nan,nan,1.5802405,0.0,nan,nan,-0.6909654,0.0,0.0,0.0,0.0,0.0,0.0,0.0,0.0,-0.52775586
380163555,nan,nan,nan,1.5802405,0.0,nan,nan,-0.68782777,0.0,0.0,0.0,0.0,0.0,0.0,0.0,0.0,-0.53218657
380264382,nan,nan,nan,1.5802405,0.0,nan,nan,-0.68363404,0.0,0.0,0.0,0.0,0.0,0.0,0.0,0.0,-0.53252935
380363453,nan,nan,nan,1.5802405,0.0,nan,nan,-0.68799186,0.0,0.0,0.0,0.0,0.0,0.0,0.0,0.0,-0.5344584
380464288,nan,nan,nan,1.5802405,0.0,nan,nan,-0.6895114,0.0,0.0,0.0,0.0,0.0,0.0,0.0,0.0,-0.54437315
380584042,nan,nan,nan,1.5802405,0.0,nan,nan,-0.68753576,0.0,0.0,0.0,0.0,0.0,0.0,0.0,0.0,-0.53941983
380683766,nan,nan,nan,1.5802405,0.0,nan,nan,-0.6877594,0.0,0.0,0.0,0.0,0.0,0.0,0.0,0.0,-0.5322464
380784354,nan,nan,nan,1.5802405,0.0,nan,nan,-0.6836332,0.0,0.0,0.0,0.0,0.0,0.0,0.0,0.0,-0.5366659
380884037,nan,nan,nan,1.5802405,0.0,nan,nan,-0.68362486,0.0,0.0,0.0,0.0,0.0,0.0,0.0,0.0,-0.5422387
380984752,nan,nan,nan,1.5802405,0.0,nan,nan,-0.68799627,0.0,0.0,0.0,0.0,0.0,0.0,0.0,0.0,-0.5474616
381084159,nan,nan,nan,1.5802405,0.0,nan,nan,-0.6877682,0.0,0.0,0.0,0.0,0.0,0.0,0.0,0.0,-0.53826463
381184217,nan,nan,nan,1.5802405,0.0,nan,nan,-0.6877638,0.0,0.0,0.0,0.0,0.0,0.0,0.0,0.0,-0.5425901
381284334,nan,nan,nan,1.5802405,0.0,nan,nan,-0.6877638,0.0,0.0,0.0,0.0,0.0,0.0,0.0,0.0,-0.54389715
381384388,nan,nan,nan,1.5802405,0.0,nan,nan,-0.6877638,0.0,0.0,0.0,0.0,0.0,0.0,0.0,0.0,-0.5447757
381484587,nan,nan,nan,1.5802405,0.0,nan,nan,-0.68602055,0.0,0.0,0.0,0.0,0.0,0.0,0.0,0.0,-0.5311573
381584698,nan,nan,nan,1.5802405,0.0,nan,nan,-0.6882363,0.0,0.0,0.0,0.0,0.0,0.0,0.0,0.0,-0.52696306
381684785,nan,nan,nan,1.5802405,0.0,nan,nan,-0.68796647,0.0,0.0,0.0,0.0,0.0,0.0,0.0,0.0,-0.5267976
381785044,nan,nan,nan,1.5802405,0.0,nan,nan,-0.68769985,0.0,0.0,0.0,0.0,0.0,0.0,0.0,0.0,-0.5356762
381904967,nan,nan,nan,1.5802405,0.0,nan,nan,-0.687763,0.0,0.0,0.0,0.0,0.0,0.0,0.0,0.0,-0.5410269
382005094,nan,nan,nan,1.5802405,0.0,nan,nan,-0.6877638,0.0,0.0,0.0,0.0,0.0,0.0,0.0,0.0,-0.52867216
382105143,nan,nan,nan,1.5802405,0.0,nan,nan,-0.6877638,0.0,0.0,0.0,0.0,0.0,0.0,0.0,0.0,-0.5177878
382205226,nan,nan,nan,1.5802405,0.0,nan,nan,-0.6877638,0.0,0.0,0.0,0.0,0.0,0.0,0.0,0.0,-0.5280397
382305543,nan,nan,nan,1.5802405,0.0,nan,nan,-0.6874904,0.0,0.0,0.0,0.0,0.0,0.0,0.0,0.0,-0.52892077
382405824,nan,nan,nan,1.5802405,0.0,nan,nan,-0.6806573,0.0,0.0,0.0,0.0,0.0,0.0,0.0,0.0,-0.5321825
382505656,nan,nan,nan,1.5802405,0.0,nan,nan,-0.6877074,0.0,0.0,0.0,0.0,0.0,0.0,0.0,0.0,-0.5356896
382605877,nan,nan,nan,1.5802405,0.0,nan,nan,-0.68776935,0.0,0.0,0.0,0.0,0.0,0.0,0.0,0.0,-0.5384582
382705782,nan,nan,nan,1.5802405,0.0,nan,nan,-0.67308795,0.0,0.0,0.0,0.0,0.0,0.0,0.0,0.0,-0.53037316
382805842,nan,nan,nan,1.5802405,0.0,nan,nan,-0.6710062,0.0,0.0,0.0,0.0,0.0,0.0,0.0,0.0,-0.5269674
382905912,nan,nan,nan,1.5802405,0.0,nan,nan,-0.5075345,0.0,0.0,0.0,0.0,0.0,0.0,0.0,0.0,-0.50184786
383006039,nan,nan,nan,1.5802405,0.0,nan,nan,-0.23921815,0.0,0.0,0.0,0.0,0.0,0.0,0.0,0.0,-0.4754234
383126208,nan,nan,-4.9999614,1.5802405,0.0,nan,nan,0.0,0.0,0.0,0.0,0.0,0.0,0.0,0.0,0.0,-0.48285756
383226372,nan,nan,-4.9999614,1.5802405,0.0,nan,nan,0.013794899,0.0,0.0,0.0,0.0,0.0,0.0,0.0,0.0,-0.5183156
383326488,nan,nan,-4.9999614,1.5802405,0.0,nan,nan,0.011620045,0.0,0.0,0.0,0.0,0.0,0.0,0.0,0.0,-0.53704625
383426519,nan,nan,-4.9999614,1.5802405,0.0,nan,nan,0.0032625198,0.0,0.0,0.0,0.0,0.0,0.0,0.0,0.0,-0.5325261
383526536,nan,nan,-4.9999614,1.5802405,0.0,nan,nan,0.0034003258,0.0,0.0,0.0,0.0,0.0,0.0,0.0,0.0,-0.52232337
383626648,nan,nan,-4.9999614,1.5802405,0.0,nan,nan,0.008136749,0.0,0.0,0.0,0.0,0.0,0.0,0.0,0.0,-0.52182
383726716,nan,nan,-4.9999614,1.5802405,0.0,nan,nan,0.01304388,0.0,0.0,0.0,0.0,0.0,0.0,0.0,0.0,-0.5236222
383826839,nan,nan,-4.9999614,1.5802405,0.0,nan,nan,0.017623901,0.0,0.0,0.0,0.0,0.0,0.0,0.0,0.0,-0.53788084
383927296,nan,nan,-4.9999614,1.5802405,0.0,nan,nan,0.0144581795,0.0,0.0,0.0,0.0,0.0,0.0,0.0,0.0,-0.55477005
384027382,nan,nan,-4.9999614,1.5802405,0.0,nan,nan,0.0067443848,0.0,0.0,0.0,0.0,0.0,0.0,0.0,0.0,-0.54028404
384127472,nan,nan,-4.9999614,1.5802405,0.0,nan,nan,0.0053315163,0.0,0.0,0.0,0.0,0.0,0.0,0.0,0.0,-0.52090675
384247425,nan,nan,-4.9999614,1.5802405,0.0,nan,nan,0.01704216,0.0,0.0,0.0,0.0,0.0,0.0,0.0,0.0,-0.5131622
384347381,nan,nan,-4.9999614,1.5802405,0.0,nan,nan,0.023567677,0.0,0.0,0.0,0.0,0.0,0.0,0.0,0.0,-0.52385694
384447538,nan,nan,nan,1.5802405,0.0,nan,nan,0.022809,0.0,0.0,0.0,0.0,0.0,0.0,0.0,0.0,-0.53797936
384547542,nan,nan,nan,1.5802405,0.0,nan,nan,0.051830836,0.0,0.0,0.0,0.0,0.0,0.0,0.0,0.0,-0.53284043
384647733,nan,nan,nan,1.5802405,0.0,nan,nan,0.088688694,0.0,0.0,0.0,0.0,0.0,0.0,0.0,0.0,-0.5293825
384747935,nan,nan,nan,1.5802405,0.0,nan,nan,0.09083572,0.0,0.0,0.0,0.0,0.0,0.0,0.0,0.0,-0.53110474
384847988,nan,nan,nan,1.5802405,0.0,nan,nan,0.1043271,0.0,0.0,0.0,0.0,0.0,0.0,0.0,0.0,-0.52378684
384948068,nan,nan,nan,1.5802405,0.0,nan,nan,0.12956026,0.0,0.0,0.0,0.0,0.0,0.0,0.0,0.0,-0.51106036
385048162,nan,nan,nan,1.5802405,0.0,nan,nan,0.13755211,0.0,0.0,0.0,0.0,0.0,0.0,0.0,0.0,-0.50590205
385148189,nan,nan,nan,1.5802405,0.0,nan,nan,0.1480181,0.0,0.0,0.0,0.0,0.0,0.0,0.0,0.0,-0.51224494
385248244,nan,nan,nan,1.5802405,0.0,nan,nan,0.1599081,0.0,0.0,0.0,0.0,0.0,0.0,0.0,0.0,-0.524014
385348392,nan,nan,nan,1.5802405,0.0,nan,nan,0.1843131,0.0,0.0,0.0,0.0,0.0,0.0,0.0,0.0,-0.5287689
385468556,nan,nan,nan,1.5802405,0.0,nan,nan,0.20301943,0.0,0.0,0.0,0.0,0.0,0.0,0.0,0.0,-0.5231758
385568612,nan,nan,nan,1.5802405,0.0,nan,nan,0.22747402,0.0,0.0,0.0,0.0,0.0,0.0,0.0,0.0,-0.5189703
385668787,nan,nan,nan,1.5802405,0.0,nan,nan,0.24183351,0.0,0.0,0.0,0.0,0.0,0.0,0.0,0.0,-0.51995087
385769023,nan,nan,nan,1.5802405,-0.0,nan,nan,0.26489508,0.0,0.0,0.0,0.0,0.0,0.0,0.0,0.0,-0.5374529
385869109,nan,nan,nan,1.5802405,-0.0,nan,nan,0.2972898,0.0,0.0,0.0,0.0,0.0,0.0,0.0,0.0,-0.54052263
385969148,nan,nan,nan,1.5802405,-0.0,nan,nan,0.30634215,0.0,0.0,0.0,0.0,0.0,0.0,0.0,0.0,-0.5386894
386069127,nan,nan,nan,1.5802405,-0.0,nan,nan,0.3270586,0.0,0.0,0.0,0.0,0.0,0.0,0.0,0.0,-0.52614486
386169179,nan,nan,nan,1.5802405,-0.0,nan,nan,0.3371894,0.0,0.0,0.0,0.0,0.0,0.0,0.0,0.0,-0.52138793
386269914,nan,nan,nan,1.5802405,-0.0,nan,nan,0.3436883,0.0,0.0,0.0,0.0,0.0,0.0,0.0,0.0,-0.5311436
386369617,nan,nan,nan,1.5802405,-0.0,nan,nan,0.35983267,0.0,0.0,0.0,0.0,0.0,0.0,0.0,0.0,-0.5437521
386470688,nan,nan,nan,1.5802405,-0.0,nan,nan,0.37437165,0.0,0.0,0.0,0.0,0.0,0.0,0.0,0.0,-0.5320512
386569756,nan,nan,nan,1.5802405,-0.0,nan,nan,0.39462942,0.0,0.0,0.0,0.0,0.0,0.0,0.0,0.0,-0.52099377
386669922,nan,nan,nan,1.5802405,-0.0,nan,nan,0.41647696,0.0,0.0,0.0,0.0,0.0,0.0,0.0,0.0,-0.5124619
386789793,nan,nan,nan,1.5802405,-0.0,nan,nan,0.42687672,0.0,0.0,0.0,0.0,0.0,0.0,0.0,0.0,-0.52572346
386889891,nan,nan,nan,1.5802405,-0.0,nan,nan,0.4381129,0.0,0.0,0.0,0.0,0.0,0.0,0.0,0.0,-0.5344249
386989996,nan,nan,nan,1.5802405,-0.0,nan,nan,0.45301136,0.0,0.0,0.0,0.0,0.0,0.0,0.0,0.0,-0.52582854
387090161,nan,nan,nan,1.5802405,-0.0,nan,nan,0.46505958,0.0,0.0,0.0,0.0,0.0,0.0,0.0,0.0,-0.526083
387190375,nan,nan,nan,1.5802405,-0.0,nan,nan,0.47535822,0.0,0.0,0.0,0.0,0.0,0.0,0.0,0.0,-0.52541435
387290392,nan,nan,nan,1.5802405,-0.0,nan,nan,0.48681077,0.0,0.0,0.0,0.0,0.0,0.0,0.0,0.0,-0.51798177
387390745,nan,nan,nan,1.5802405,-0.0,nan,nan,0.5022688,0.0,0.0,0.0,0.0,0.0,0.0,0.0,0.0,-0.5092199
387490549,nan,nan,nan,1.5802405,-0.0,nan,nan,0.5078896,0.0,0.0,0.0,0.0,0.0,0.0,0.0,0.0,-0.51375496
387590592,nan,nan,nan,1.5802405,-0.0,nan,nan,0.51271737,0.0,0.0,0.0,0.0,0.0,0.0,0.0,0.0,-0.52075094
387690675,nan,nan,nan,1.5802405,-0.0,nan,nan,0.53411996,0.0,0.0,0.0,0.0,0.0,0.0,0.0,0.0,-0.52612805
387790773,nan,nan,nan,1.5802405,-0.0,nan,nan,0.58513314,0.0,0.0,0.0,0.0,0.0,0.0,0.0,0.0,-0.5229723
387890935,nan,nan,nan,1.5802405,-0.0,nan,nan,0.61630106,0.0,0.0,0.0,0.0,0.0,0.0,0.0,0.0,-0.5175263
387991341,nan,nan,nan,1.5802405,-0.0,nan,nan,0.65415347,0.0,0.0,0.0,0.0,0.0,0.0,0.0,0.0,-0.51467603
388111538,nan,nan,nan,1.5802405,-0.0,nan,nan,0.67064273,0.0,0.0,0.0,0.0,0.0,0.0,0.0,0.0,-0.5285142
388211306,nan,nan,nan,1.5802405,-0.0,nan,nan,0.6933549,0.0,0.0,0.0,0.0,0.0,0.0,0.0,0.0,-0.5294277
388311496,nan,nan,nan,1.5802405,-0.0,nan,nan,0.7122038,0.0,0.0,0.0,0.0,0.0,0.0,0.0,0.0,-0.5207824
388411434,nan,nan,nan,1.5802405,-0.0,nan,nan,0.72721905,0.0,0.0,0.0,0.0,0.0,0.0,0.0,0.0,-0.5161306
388512026,nan,nan,nan,1.5802405,-0.0,nan,nan,0.73106587,0.0,0.0,0.0,0.0,0.0,0.0,0.0,0.0,-0.52324677
388611605,nan,nan,nan,1.5802405,-0.0,nan,nan,0.7299711,0.0,0.0,0.0,0.0,0.0,0.0,0.0,0.0,-0.53584987
388711801,nan,nan,nan,1.5802405,-0.0,nan,nan,0.72995716,0.0,0.0,0.0,0.0,0.0,0.0,0.0,0.0,-0.5415654
388812012,nan,nan,nan,1.5802405,-0.0,nan,nan,0.72995776,0.0,0.0,0.0,0.0,0.0,0.0,0.0,0.0,-0.5476284
388912054,nan,nan,nan,1.5802405,-0.0,nan,nan,0.73004884,0.0,0.0,0.0,0.0,0.0,0.0,0.0,0.0,-0.5364708
389012161,nan,nan,nan,1.5802405,-0.0,nan,nan,0.7323267,0.0,0.0,0.0,0.0,0.0,0.0,0.0,0.0,-0.52355784
389112169,nan,nan,nan,1.5802405,-0.0,nan,nan,0.73232955,0.0,0.0,0.0,0.0,0.0,0.0,0.0,0.0,-0.51894695
389212255,nan,nan,nan,1.5802405,-0.0,nan,nan,0.7298827,0.0,0.0,0.0,0.0,0.0,0.0,0.0,0.0,-0.5149639
389312328,nan,nan,nan,1.5802405,-0.0,nan,nan,0.729956,0.0,0.0,0.0,0.0,0.0,0.0,0.0,0.0,-0.51993924
389412419,nan,nan,nan,1.5802405,-0.0,nan,nan,0.7299578,0.0,0.0,0.0,0.0,0.0,0.0,0.0,0.0,-0.52615255
389512598,nan,nan,nan,1.5802405,-0.0,nan,nan,0.72995776,0.0,0.0,0.0,0.0,0.0,0.0,0.0,0.0,-0.53363013
389632785,nan,nan,nan,1.5802405,-0.0,nan,nan,0.7323108,0.0,0.0,0.0,0.0,0.0,0.0,0.0,0.0,-0.52800953
389733072,nan,nan,nan,1.5802405,-0.0,nan,nan,0.73135334,0.0,0.0,0.0,0.0,0.0,0.0,0.0,0.0,-0.52405715
389833164,nan,nan,nan,1.5802405,-0.0,nan,nan,0.73046106,0.0,0.0,0.0,0.0,0.0,0.0,0.0,0.0,-0.51505613
389933137,nan,nan,nan,1.5802405,-0.0,nan,nan,0.7297228,0.0,0.0,0.0,0.0,0.0,0.0,0.0,0.0,-0.5236353
390033140,nan,nan,nan,1.5802405,-0.0,nan,nan,0.7299552,0.0,0.0,0.0,0.0,0.0,0.0,0.0,0.0,-0.535653
390133219,nan,nan,nan,1.5802405,-0.0,nan,nan,0.729958,0.0,0.0,0.0,0.0,0.0,0.0,0.0,0.0,-0.5475094
390233221,nan,nan,nan,1.5802405,-0.0,nan,nan,0.72995776,0.0,0.0,0.0,0.0,0.0,0.0,0.0,0.0,-0.5397092
390334707,nan,nan,nan,1.5802405,-0.0,nan,nan,0.72995776,0.0,0.0,0.0,0.0,0.0,0.0,0.0,0.0,-0.53487927
390433695,nan,nan,nan,1.5802405,-0.0,nan,nan,0.7289153,0.0,0.0,0.0,0.0,0.0,0.0,0.0,0.0,-0.5153522
390533683,nan,nan,nan,1.5802405,-0.0,nan,nan,0.7321106,0.0,0.0,0.0,0.0,0.0,0.0,0.0,0.0,-0.5075727
390633708,nan,nan,nan,1.5802405,-0.0,nan,nan,0.73097694,0.0,0.0,0.0,0.0,0.0,0.0,0.0,0.0,-0.5219967
390754011,nan,nan,nan,1.5802405,-0.0,nan,nan,0.7280163,0.0,0.0,0.0,0.0,0.0,0.0,0.0,0.0,-0.53387314
390853852,nan,nan,nan,1.5802405,-0.0,nan,nan,0.7250482,0.0,0.0,0.0,0.0,0.0,0.0,0.0,0.0,-0.54136354
390953957,nan,nan,nan,1.5802405,-0.0,nan,nan,0.7237775,0.0,0.0,0.0,0.0,0.0,0.0,0.0,0.0,-0.53526294
391054167,nan,nan,nan,1.5802405,-0.0,nan,nan,0.70659316,0.0,0.0,0.0,0.0,0.0,0.0,0.0,0.0,-0.5275988
391154422,nan,nan,nan,1.5802405,-0.0,nan,nan,0.65538543,0.0,0.0,0.0,0.0,0.0,0.0,0.0,0.0,-0.5301277
391254408,nan,nan,nan,1.5802405,-0.0,nan,nan,0.65926737,0.0,0.0,0.0,0.0,0.0,0.0,0.0,0.0,-0.5338973
391354681,nan,nan,nan,1.5802405,-0.0,nan,nan,0.6582186,0.0,0.0,0.0,0.0,0.0,0.0,0.0,0.0,-0.5280893
391454527,nan,nan,nan,1.5802405,-0.0,nan,nan,0.64619243,0.0,0.0,0.0,0.0,0.0,0.0,0.0,0.0,-0.52528864
391554582,nan,nan,nan,1.5802405,-0.0,nan,nan,0.47908074,0.0,0.0,0.0,0.0,0.0,0.0,0.0,0.0,-0.55648875
391654700,nan,nan,-1.3375659,1.5802405,0.0,nan,nan,0.0,0.0,0.0,0.0,0.0,0.0,0.0,0.0,0.0,-0.64547384
391754744,nan,nan,-1.3375659,1.5802405,0.0,nan,nan,-0.04171896,0.0,0.0,0.0,0.0,0.0,0.0,0.0,0.0,-0.5834365
391854844,nan,nan,-1.3375659,1.5802405,-0.0,nan,nan,-0.04651475,0.0,0.0,0.0,0.0,0.0,0.0,0.0,0.0,-0.5210645
391955335,nan,nan,-1.3375659,1.5802405,-0.0,nan,nan,-0.035416245,0.0,0.0,0.0,0.0,0.0,0.0,0.0,0.0,-0.5088867
392055398,nan,nan,-1.3375659,1.5802405,-0.0,nan,nan,-0.026673317,0.0,0.0,0.0,0.0,0.0,0.0,0.0,0.0,-0.52069014
392175761,nan,nan,-1.3375659,1.5802405,-0.0,nan,nan,-0.03399992,0.0,0.0,0.0,0.0,0.0,0.0,0.0,0.0,-0.55546796
392275322,nan,nan,-1.3375659,1.5802405,-0.0,nan,nan,-0.04873717,0.0,0.0,0.0,0.0,0.0,0.0,0.0,0.0,-0.55469245
392376139,nan,nan,-1.3375659,1.5802405,0.0,nan,nan,-0.059716463,0.0,0.0,0.0,0.0,0.0,0.0,0.0,0.0,-0.5304055
392475487,nan,nan,-1.3375659,1.5802405,-0.0,nan,nan,-0.06006396,0.0,0.0,0.0,0.0,0.0,0.0,0.0,0.0,-0.5215911
392575996,nan,nan,-1.3375659,1.5802405,-0.0,nan,nan,-0.05898583,0.0,0.0,0.0,0.0,0.0,0.0,0.0,0.0,-0.5299133
392675893,nan,nan,-1.3375659,1.5802405,-0.0,nan,nan,-0.063183665,0.0,0.0,0.0,0.0,0.0,0.0,-0.00017364831,0.018386295,-0.5367187
392775914,nan,nan,-1.3375659,1.5802405,-0.0,nan,nan,-0.068321586,0.0,0.0,0.0,0.0,0.0,0.0,-0.00039881933,0.042227942,-0.53790134
392876232,nan,nan,-1.3375659,1.5802405,0.0,nan,nan,-0.07632363,0.0,0.0,0.0,0.0,0.0,0.0,-0.00051845616,0.054895375,-0.5464214
392976125,nan,nan,-1.3375659,1.5802405,0.0,nan,nan,-0.08724952,0.0,0.0,0.0,0.0,0.0,0.0,-0.0006628377,0.07018284,-0.5531904
393076147,nan,nan,-1.3375659,1.5802405,-0.0,nan,nan,-0.09783459,0.0,0.0,0.0,0.0,0.0,0.0,-0.0006384666,0.067602366,-0.5393874
393176204,nan,nan,-1.3375659,1.5802405,-0.0,nan,nan,-0.09637284,0.0,0.0,0.0,0.0,0.0,0.0,-0.0006010944,0.0636453,-0.5212469
393276284,nan,nan,-1.3375659,1.5802405,-0.0,nan,nan,-0.086271405,0.0,0.0,0.0,0.0,0.0,0.0,-0.00059873913,0.063395925,-0.5208214
393376361,nan,nan,-1.3375659,1.5802405,0.0,nan,nan,-0.08470869,0.0,0.0,0.0,0.0,0.0,0.0,-0.0005762552,0.061015278,-0.5376548
393496591,nan,nan,-1.3375659,1.5802405,0.0,nan,nan,-0.08632398,0.0,0.0,0.0,0.0,0.0,0.0,-0.0003742694,0.039628536,-0.53105533
393596699,nan,nan,-1.3375659,1.5802405,0.0,nan,nan,-0.07874894,0.0,0.0,0.0,0.0,0.0,0.0,-4.4113094e-05,0.0046707997,-0.52264315
393696789,nan,nan,-1.3375659,1.5802405,-0.0,nan,nan,-0.06903553,0.0,0.0,0.0,0.0,0.0,0.0,-9.174219e-07,9.7138814e-05,-0.52547187
393797052,nan,nan,-1.3375659,1.5802405,-0.0,nan,nan,-0.06662786,0.0,0.0,0.0,0.0,0.0,0.0,4.5184403e-09,-4.7842326e-07,-0.53869385
393896967,nan,nan,-1.3375659,1.5802405,-0.0,nan,nan,-0.06955266,0.0,0.0,0.0,0.0,0.0,0.0,3.9930634e-10,-4.2279503e-08,-0.5400994
393997042,nan,nan,-1.3375659,1.5802405,0.0,nan,nan,-0.07309508,0.0,0.0,0.0,0.0,0.0,0.0,1.5615257e-11,-1.6533808e-09,-0.54968375
394097145,nan,nan,-1.3375659,1.5802405,0.0,nan,nan,-0.07755911,0.0,0.0,0.0,0.0,0.0,0.0,-7.7124597e-13,8.1661365e-11,-0.5442363
394197203,nan,nan,-1.3375659,1.5802405,-0.0,nan,nan,-0.08198118,0.0,0.0,0.0,0.0,0.0,0.0,-1.535316e-14,1.625629e-12,-0.54179525
394297534,nan,nan,-1.3375659,1.5802405,0.0,nan,nan,-0.08506203,0.0,0.0,0.0,0.0,0.0,0.0,-2.1097333e-16,2.2338358e-14,-0.5342705
394397816,nan,nan,-1.3375659,1.5802405,0.0,nan,nan,-0.081082106,0.0,0.0,0.0,0.0,0.0,0.0,6.7657592e-18,-7.163748e-16,-0.5326711
394517914,nan,nan,-1.3375659,1.5802405,0.0,nan,nan,-0.07977605,0.0,0.0,0.0,0.0,0.0,0.0,-0.00012275162,0.012997234,-0.5328752
394617751,nan,nan,-1.3375659,1.5802405,0.0,nan,nan,-0.083046675,0.0,0.0,0.0,0.0,0.0,0.0,-0.00011629547,0.012313642,-0.53332955
394717816,nan,nan,-1.3375659,1.5802405,0.0,nan,nan,-0.089664936,0.0,0.0,0.0,0.0,0.0,0.0,-0.00014709821,0.015575109,-0.5446664
394817800,nan,nan,-1.3375659,1.5802405,0.0,nan,nan,-0.0985018,0.0,0.0,0.0,0.0,0.0,0.0,-0.00019871337,0.021040244,-0.5532975
394917911,nan,nan,-1.3375659,1.5802405,0.0,nan,nan,-0.10496926,0.0,0.0,0.0,0.0,0.0,0.0,-0.00015486854,0.01639785,-0.545177
395017988,nan,nan,-1.3375659,1.5802405,0.0,nan,nan,-0.09767759,0.0,0.0,0.0,0.0,0.0,0.0,-5.4210104e-05,0.005739895,-0.52429223
395118193,nan,nan,-1.3375659,1.5802405,0.0,nan,nan,-0.081418514,0.0,0.0,0.0,0.0,0.0,0.0,7.839068e-07,-8.300192e-05,-0.52225775
395218345,nan,nan,-1.3375659,1.5802405,0.0,nan,nan,-0.07342446,0.0,0.0,0.0,0.0,0.0,0.0,1.1689291e-08,-1.23769e-06,-0.5292001
395318506,nan,nan,-1.3375659,1.5802405,0.0,nan,nan,-0.07108295,0.0,0.0,0.0,0.0,0.0,0.0,-3.3014028e-10,3.4956038e-08,-0.53927404
395418521,nan,nan,-1.3375659,1.5802405,0.0,nan,nan,-0.0718081,0.0,0.0,0.0,0.0,0.0,0.0,-1.4006786e-11,1.4830719e-09,-0.5522912
395518538,nan,nan,-1.3375659,1.5802405,0.0,nan,nan,-0.07203889,0.0,0.0,0.0,0.0,0.0,0.0,-5.4916026e-14,5.81464e-12,-0.5428039
395618657,nan,nan,-1.3375659,1.5802405,0.0,nan,nan,-0.069658875,0.0,0.0,0.0,0.0,0.0,0.0,1.2981729e-14,-1.3745366e-12,-0.5319746
395718697,nan,nan,-1.3375659,1.5802405,0.0,nan,nan,-0.05674553,0.0,0.0,0.0,0.0,0.0,0.0,1.842924e-16,-1.951332e-14,-0.5304807
395838835,nan,nan,-1.3375659,1.5802405,0.0,nan,nan,-0.044415593,0.0,0.0,0.0,0.0,0.0,0.0,1.4974526e-18,-1.5855385e-16,-0.5315306
395939367,nan,nan,-1.3375659,1.5802405,0.0,nan,nan,-0.03982961,0.0,0.0,0.0,0.0,0.0,0.0,-1.0804433e-20,1.1439992e-18,-0.53490824
396039478,nan,nan,-1.3375659,1.5802405,0.0,nan,nan,-0.035492778,0.0,0.0,0.0,0.0,0.0,0.0,-7.3455123e-22,7.7776025e-20,-0.5309944
396140042,nan,nan,-1.3375659,1.5802405,0.0,nan,nan,-0.033810616,0.0,0.0,0.0,0.0,0.0,0.0,-2.5739862e-23,2.7253978e-21,-0.53746337
396239430,nan,nan,nan,1.5802405,0.0,nan,nan,-0.1318539,0.0,0.0,0.0,0.0,0.0,0.0,-6.0477146e-26,6.4034644e-24,-0.55636245
396339554,nan,nan,nan,1.5802405,0.0,nan,nan,-0.34243354,0.0,0.0,0.0,0.0,0.0,0.0,2.9041033e-26,-3.0749339e-24,-0.5769276
396439513,nan,nan,nan,1.5802405,0.0,nan,nan,-0.738845,0.0,0.0,0.0,0.0,0.0,0.0,4.189364e-28,-4.4357988e-26,-0.61572814
396539652,nan,nan,nan,1.5802405,0.0,nan,nan,-0.987934,0.0,0.0,0.0,0.0,0.0,0.0,-1.407069e-29,1.4898383e-27,-0.5949425
396639617,nan,nan,nan,1.5802405,0.0,nan,nan,-1.0958414,0.0,0.0,0.0,0.0,0.0,0.0,-3.0388513e-31,3.217608e-29,-0.55487305
396740233,nan,nan,nan,1.5802405,0.0,nan,nan,-1.0945933,0.0,0.0,0.0,0.0,0.0,0.0,-3.4859306e-34,3.690986e-32,-0.5198725
396839933,nan,nan,nan,1.5802405,0.0,nan,nan,-1.0889122,0.0,0.0,0.0,0.0,0.0,0.0,9.888023e-35,-1.0469675e-32,-0.52077746
396940074,nan,nan,nan,1.5802405,0.0,nan,nan,-1.0610054,0.0,0.0,0.0,0.0,0.0,0.0,5.6506058e-36,-5.9829962e-34,-0.533284
397060163,nan,nan,nan,1.5802405,0.0,nan,nan,-1.0674466,0.0,0.0,0.0,0.0,0.0,0.0,5.5842943e-38,-5.912784e-36,-0.5410218
397160172,nan,nan,nan,1.5802405,0.0,nan,nan,-1.0675161,0.0,0.0,0.0,0.0,0.0,0.0,-6.32426e-40,6.69627e-38,-0.5375449
397260295,nan,nan,nan,1.5802405,0.0,nan,nan,-1.0907894,0.0,0.0,0.0,0.0,0.0,0.0,-2.8004e-41,2.965138e-39,-0.53467584
397360388,nan,nan,nan,1.5802405,0.0,nan,nan,-1.2160473,0.0,0.0,0.0,0.0,0.0,0.0,-6.3e-43,6.6776e-41,-0.5506995
397460447,nan,nan,nan,1.5802405,0.0,nan,nan,-1.3544167,0.0,0.0,0.0,0.0,0.0,0.0,1e-45,-1.22e-43,-0.571782
397560615,nan,nan,nan,1.5802405,0.0,nan,nan,-1.420442,0.0,0.0,0.0,0.0,0.0,0.0,0.0,-2.5e-44,-0.5601065
397660774,nan,nan,nan,1.5802405,0.0,nan,nan,-1.4423506,0.0,0.0,0.0,0.0,0.0,0.0,0.0,-1e-45,-0.54670954
397761046,nan,nan,nan,1.5802405,0.0,nan,nan,-1.5104431,0.0,0.0,0.0,0.0,0.0,0.0,0.0,0.0,-0.5508679
397861098,nan,nan,nan,1.5802405,0.0,nan,nan,-1.5061122,0.0,0.0,0.0,0.0,0.0,0.0,0.0,0.0,-0.5468353
398482667,nan,nan,nan,1.5802405,0.0,nan,nan,-1.4032211,0.0,0.0,0.0,0.0,0.0,0.0,0.0,0.0,-0.5417435
398581693,nan,nan,nan,1.5802405,0.0,nan,nan,-1.377535,0.0,0.0,0.0,0.0,0.0,0.0,0.0,0.0,-0.5356315
398681710,nan,nan,nan,1.5802405,0.0,nan,nan,-1.3670565,0.0,0.0,0.0,0.0,0.0,0.0,0.0,0.0,-0.5392146
398781766,nan,nan,nan,1.5802405,0.0,nan,nan,-1.3566201,0.0,0.0,0.0,0.0,0.0,0.0,0.0,0.0,-0.54011005
398881897,nan,nan,nan,1.5802405,0.0,nan,nan,-1.3454788,0.0,0.0,0.0,0.0,0.0,0.0,0.0,0.0,-0.53359264
398981989,nan,nan,nan,1.5802405,0.0,nan,nan,-1.3319645,0.0,0.0,0.0,0.0,0.0,0.0,0.0,0.0,-0.52967674
399082137,nan,nan,nan,1.5802405,0.0,nan,nan,-1.1929351,0.0,0.0,0.0,0.0,0.0,0.0,0.0,0.0,-0.5001135
399182316,nan,nan,nan,1.5802405,0.0,nan,nan,-0.9001928,0.0,0.0,0.0,0.0,0.0,0.0,0.0,0.0,-0.46347582
399282608,nan,nan,nan,1.5802405,0.0,nan,nan,-0.9130086,0.0,0.0,0.0,0.0,0.0,0.0,0.0,0.0,-0.5175523
399382475,nan,nan,nan,1.5802405,0.0,nan,nan,-0.9722623,0.0,0.0,0.0,0.0,0.0,0.0,0.0,0.0,-0.55802834
399502516,nan,nan,nan,1.5802405,0.0,nan,nan,-1.0009159,0.0,0.0,0.0,0.0,0.0,0.0,0.0,0.0,-0.5516284
399602588,nan,nan,nan,1.5802405,0.0,nan,nan,-1.0000079,0.0,0.0,0.0,0.0,0.0,0.0,0.0,0.0,-0.5352785
399702680,nan,nan,nan,1.5802405,0.0,nan,nan,-0.9677884,0.0,0.0,0.0,0.0,0.0,0.0,0.0,0.0,-0.51666546
399802806,nan,nan,nan,1.5802405,0.0,nan,nan,-0.6660868,0.0,0.0,0.0,0.0,0.0,0.0,0.0,0.0,-0.4632872
399902964,nan,nan,nan,1.5802405,0.0,nan,nan,-0.18717058,0.0,0.0,0.0,0.0,0.0,0.0,0.0,0.0,-0.40565088
400003417,nan,nan,-5.411264,1.5802405,0.0,nan,nan,0.019046307,0.0,0.0,0.0,0.0,0.0,0.0,0.0,0.0,-0.4482854
400103303,nan,nan,-5.411264,1.5802405,0.0,nan,nan,0.033080578,0.0,0.0,0.0,0.0,0.0,0.0,0.0,0.0,-0.5218165
400204283,nan,nan,-5.411264,1.5802405,0.0,nan,nan,0.01979208,0.0,0.0,0.0,0.0,0.0,0.0,0.0,0.0,-0.5527518
400303335,nan,nan,-5.411264,1.5802405,0.0,nan,nan,0.0031819344,0.0,0.0,0.0,0.0,0.0,0.0,0.0,0.0,-0.5621778
400404361,nan,nan,-5.411264,1.5802405,0.0,nan,nan,-0.0070610046,0.0,0.0,0.0,0.0,0.0,0.0,0.0,0.0,-0.55395824
400503491,nan,nan,-5.411264,1.5802405,0.0,nan,nan,-0.0040454865,0.0,0.0,0.0,0.0,0.0,0.0,0.0,0.0,-0.5312858
400604021,nan,nan,-5.411264,1.5802405,0.0,nan,nan,0.01014328,0.0,0.0,0.0,0.0,0.0,0.0,0.0,0.0,-0.5123707
400703807,nan,nan,-5.411264,1.5802405,0.0,nan,nan,0.023405552,0.0,0.0,0.0,0.0,0.0,0.0,0.0,0.0,-0.5101969
400803925,nan,nan,-5.411264,1.5802405,0.0,nan,nan,0.032285213,0.0,0.0,0.0,0.0,0.0,0.0,0.0,0.0,-0.5194637
400924000,nan,nan,-5.411264,1.5802405,0.0,nan,nan,0.035146713,0.0,0.0,0.0,0.0,0.0,0.0,0.0,0.0,-0.52608526
401024099,nan,nan,-5.411264,1.5802405,0.0,nan,nan,0.03305292,0.0,0.0,0.0,0.0,0.0,0.0,0.0,0.0,-0.5301168
401124128,nan,nan,-5.411264,1.5802405,0.0,nan,nan,0.026401043,0.0,0.0,0.0,0.0,0.0,0.0,0.0,0.0,-0.54231614
401224213,nan,nan,nan,1.5802405,0.0,nan,nan,0.04690398,0.0,0.0,0.0,0.0,0.0,0.0,0.0,0.0,-0.5475654
401324282,nan,nan,nan,1.5802405,0.0,nan,nan,0.074932605,0.0,0.0,0.0,0.0,0.0,0.0,0.0,0.0,-0.5388928
401424416,nan,nan,nan,1.5802405,0.0,nan,nan,0.094380274,0.0,0.0,0.0,0.0,0.0,0.0,0.0,0.0,-0.5309809
401524594,nan,nan,nan,1.5802405,0.0,nan,nan,0.1548666,0.0,0.0,0.0,0.0,0.0,0.0,0.0,0.0,-0.518801
401624926,nan,nan,nan,1.5802405,0.0,nan,nan,0.17202586,0.0,0.0,0.0,0.0,0.0,0.0,0.0,0.0,-0.5209407
401724783,nan,nan,nan,1.5802405,0.0,nan,nan,0.22040623,0.0,0.0,0.0,0.0,0.0,0.0,0.0,0.0,-0.51789886
401825128,nan,nan,nan,1.5802405,0.0,nan,nan,0.30279833,0.0,0.0,0.0,0.0,0.0,0.0,0.0,0.0,-0.50936705
401925077,nan,nan,nan,1.5802405,0.0,nan,nan,0.50392884,0.0,0.0,0.0,0.0,0.0,0.0,0.0,0.0,-0.47660416
402025104,nan,nan,nan,1.5802405,0.0,nan,nan,0.5222801,0.0,0.0,0.0,0.0,0.0,0.0,0.0,0.0,-0.4997908
402145213,nan,nan,nan,1.5802405,0.0,nan,nan,0.5344305,0.0,0.0,0.0,0.0,0.0,0.0,0.0,0.0,-0.5267794
402245224,nan,nan,nan,1.5802405,0.0,nan,nan,0.5900648,0.0,0.0,0.0,0.0,0.0,0.0,0.0,0.0,-0.5224612
402346422,nan,nan,nan,1.5802405,0.0,nan,nan,0.6377673,0.0,0.0,0.0,0.0,0.0,0.0,0.0,0.0,-0.5178312
402446398,nan,nan,nan,1.5802405,0.0,nan,nan,0.66423637,0.0,0.0,0.0,0.0,0.0,0.0,0.0,0.0,-0.51355565
402545674,nan,nan,nan,1.5802405,0.0,nan,nan,0.7294175,0.0,0.0,0.0,0.0,0.0,0.0,0.0,0.0,-0.5109858
402645727,nan,nan,nan,1.5802405,0.0,nan,nan,0.77414376,0.0,0.0,0.0,0.0,0.0,0.0,0.0,0.0,-0.522407
402745835,nan,nan,nan,1.5802405,0.0,nan,nan,0.80752933,0.0,0.0,0.0,0.0,0.0,0.0,0.0,0.0,-0.5276692
402845856,nan,nan,nan,1.5802405,0.0,nan,nan,0.8220396,0.0,0.0,0.0,0.0,0.0,0.0,0.0,0.0,-0.52566266
402945926,nan,nan,nan,1.5802405,0.0,nan,nan,0.853467,0.0,0.0,0.0,0.0,0.0,0.0,0.0,0.0,-0.5275734
403046040,nan,nan,nan,1.5802405,0.0,nan,nan,0.92253834,0.0,0.0,0.0,0.0,0.0,0.0,0.0,0.0,-0.51709
403146322,nan,nan,nan,1.5802405,0.0,nan,nan,0.9412379,0.0,0.0,0.0,0.0,0.0,0.0,0.0,0.0,-0.52416176
403246377,nan,nan,nan,1.5802405,0.0,nan,nan,0.9513613,0.0,0.0,0.0,0.0,0.0,0.0,0.0,0.0,-0.54304475
403346432,nan,nan,nan,1.5802405,0.0,nan,nan,0.9513354,0.0,0.0,0.0,0.0,0.0,0.0,0.0,0.0,-0.5498823
403466481,nan,nan,nan,1.5802405,0.0,nan,nan,0.95161784,0.0,0.0,0.0,0.0,0.0,0.0,0.0,0.0,-0.5338888
403566548,nan,nan,nan,1.5802405,0.0,nan,nan,0.9743168,0.0,0.0,0.0,0.0,0.0,0.0,0.0,0.0,-0.52599317
403666697,nan,nan,nan,1.5802405,0.0,nan,nan,0.9988324,0.0,0.0,0.0,0.0,0.0,0.0,0.0,0.0,-0.51933193
403766737,nan,nan,nan,1.5802405,0.0,nan,nan,0.9999759,0.0,0.0,0.0,0.0,0.0,0.0,0.0,0.0,-0.5217887
403866852,nan,nan,nan,1.5802405,0.0,nan,nan,1.0,0.0,0.0,0.0,0.0,0.0,0.0,0.0,0.0,-0.5307142
403967330,nan,nan,nan,1.5802405,0.0,nan,nan,1.0,0.0,0.0,0.0,0.0,0.0,0.0,0.0,0.0,-0.53998685
404067496,nan,nan,nan,1.5802405,0.0,nan,nan,1.0,0.0,0.0,0.0,0.0,0.0,0.0,0.0,0.0,-0.5472038
404167254,nan,nan,nan,1.5802405,0.0,nan,nan,1.0,0.0,0.0,0.0,0.0,0.0,0.0,0.0,0.0,-0.5353329
404268025,nan,nan,nan,1.5802405,0.0,nan,nan,1.0,0.0,0.0,0.0,0.0,0.0,0.0,0.0,0.0,-0.52110565
404367379,nan,nan,nan,1.5802405,0.0,nan,nan,1.0,0.0,0.0,0.0,0.0,0.0,0.0,0.0,0.0,-0.51958233
404468078,nan,nan,nan,1.5802405,0.0,nan,nan,1.0,0.0,0.0,0.0,0.0,0.0,0.0,0.0,0.0,-0.52024347
404567581,nan,nan,nan,1.5802405,0.0,nan,nan,1.0,0.0,0.0,0.0,0.0,0.0,0.0,0.0,0.0,-0.5235878
404668040,nan,nan,nan,1.5802405,0.0,nan,nan,1.0,0.0,0.0,0.0,0.0,0.0,0.0,0.0,0.0,-0.5202614
404787927,nan,nan,nan,1.5802405,0.0,nan,nan,1.0,0.0,0.0,0.0,0.0,0.0,0.0,0.0,0.0,-0.5181745
404888036,nan,nan,nan,1.5802405,0.0,nan,nan,1.0,0.0,0.0,0.0,0.0,0.0,0.0,0.0,0.0,-0.5287973
404988118,nan,nan,nan,1.5802405,0.0,nan,nan,1.0,0.0,0.0,0.0,0.0,0.0,0.0,0.0,0.0,-0.5315234
405088124,nan,nan,nan,1.5802405,0.0,nan,nan,1.0,0.0,0.0,0.0,0.0,0.0,0.0,0.0,0.0,-0.5265586
405188214,nan,nan,nan,1.5802405,0.0,nan,nan,1.0,0.0,0.0,0.0,0.0,0.0,0.0,0.0,0.0,-0.52093333
405288308,nan,nan,nan,1.5802405,0.0,nan,nan,1.0,0.0,0.0,0.0,0.0,0.0,0.0,0.0,0.0,-0.521189
405388357,nan,nan,nan,1.5802405,0.0,nan,nan,1.0,0.0,0.0,0.0,0.0,0.0,0.0,0.0,0.0,-0.5193539
405488586,nan,nan,nan,1.5802405,0.0,nan,nan,1.0,0.0,0.0,0.0,0.0,0.0,0.0,0.0,0.0,-0.5259507
405588720,nan,nan,nan,1.5802405,0.0,nan,nan,1.0,0.0,0.0,0.0,0.0,0.0,0.0,0.0,0.0,-0.5336322
405689104,nan,nan,nan,1.5802405,0.0,nan,nan,1.0,0.0,0.0,0.0,0.0,0.0,0.0,0.0,0.0,-0.5380591
405789092,nan,nan,nan,1.5802405,0.0,nan,nan,1.0,0.0,0.0,0.0,0.0,0.0,0.0,0.0,0.0,-0.54090714
405889041,nan,nan,nan,1.5802405,0.0,nan,nan,1.0,0.0,0.0,0.0,0.0,0.0,0.0,0.0,0.0,-0.53595895
406009111,nan,nan,nan,1.5802405,0.0,nan,nan,1.0,0.0,0.0,0.0,0.0,0.0,0.0,0.0,0.0,-0.51910836
406109154,nan,nan,nan,1.5802405,0.0,nan,nan,1.0,0.0,0.0,0.0,0.0,0.0,0.0,0.0,0.0,-0.5218703
406209274,nan,nan,nan,1.5802405,0.0,nan,nan,1.0,0.0,0.0,0.0,0.0,0.0,0.0,0.0,0.0,-0.52462083
406309601,nan,nan,nan,1.5802405,0.0,nan,nan,1.0,0.0,0.0,0.0,0.0,0.0,0.0,0.0,0.0,-0.5304463
406409602,nan,nan,nan,1.5802405,0.0,nan,nan,1.0,0.0,0.0,0.0,0.0,0.0,0.0,0.0,0.0,-0.52780664
406509889,nan,nan,nan,1.5802405,0.0,nan,nan,1.0,0.0,0.0,0.0,0.0,0.0,0.0,0.0,0.0,-0.52964723
406609739,nan,nan,nan,1.5802405,0.0,nan,nan,1.0,0.0,0.0,0.0,0.0,0.0,0.0,0.0,0.0,-0.53055775
406709792,nan,nan,nan,1.5802405,0.0,nan,nan,1.0,0.0,0.0,0.0,0.0,0.0,0.0,0.0,0.0,-0.53376186
406809798,nan,nan,nan,1.5802405,0.0,nan,nan,1.0,0.0,0.0,0.0,0.0,0.0,0.0,0.0,0.0,-0.53357464
406909877,nan,nan,nan,1.5802405,0.0,nan,nan,0.83851844,0.0,0.0,0.0,0.0,0.0,0.0,0.0,0.0,-0.5765502
407009986,nan,nan,nan,1.5802405,0.0,nan,nan,0.098889664,0.0,0.0,0.0,0.0,0.0,0.0,0.0,0.0,-0.72516257
407110182,nan,nan,-0.6973663,1.5802405,0.0,nan,nan,0.0,0.0,0.0,0.0,0.0,0.0,0.0,0.0,0.0,-0.6207514
