timestamp,x,y,z,yaw,yawspeed,vx,vy,vz,acc_x,acc_y,acc_z,jerk_x,jerk_y,jerk_z,thrust[0],thrust[1],thrust[2]
350294706,nan,nan,-0.16579585,2.3839223,0.0,nan,nan,-0.0,nan,nan,nan,nan,nan,nan,0.0,0.0,nan
350493882,nan,nan,-0.18111819,2.3831282,0.0,nan,nan,-0.0,nan,nan,nan,nan,nan,nan,0.0,0.0,nan
350694646,nan,nan,-0.19381393,2.382465,0.0,nan,nan,-0.0,nan,nan,nan,nan,nan,nan,0.0,0.0,nan
350894733,nan,nan,-0.19162352,2.3819196,0.0,nan,nan,-0.0,nan,nan,nan,nan,nan,nan,0.0,0.0,nan
351094173,nan,nan,-0.18260975,2.3813024,0.0,nan,nan,-0.0,nan,nan,nan,nan,nan,nan,0.0,0.0,nan
351294412,nan,nan,-0.16636695,2.3807788,0.0,nan,nan,-0.0,nan,nan,nan,nan,nan,nan,0.0,0.0,nan
351494541,nan,nan,-0.15471673,2.3803115,0.0,nan,nan,-0.0,nan,nan,nan,nan,nan,nan,0.0,0.0,nan
351694702,nan,nan,-0.1440353,2.379655,0.0,nan,nan,-0.0,nan,nan,nan,nan,nan,nan,0.0,0.0,nan
351894982,nan,nan,-0.13862298,2.3790681,0.0,nan,nan,-0.0,nan,nan,nan,nan,nan,nan,0.0,0.0,nan
352095374,nan,nan,-0.14365745,2.3784,0.0,nan,nan,-0.0,nan,nan,nan,nan,nan,nan,0.0,0.0,nan
352315510,nan,nan,-0.15560544,2.3776937,0.0,nan,nan,-0.0,nan,nan,nan,nan,nan,nan,0.0,0.0,nan
352515555,nan,nan,-0.15833785,2.3772871,0.0,nan,nan,-0.0,nan,nan,nan,nan,nan,nan,0.0,0.0,nan
352715790,nan,nan,-0.1589053,2.3766916,0.0,nan,nan,-0.0,nan,nan,nan,nan,nan,nan,0.0,0.0,nan
352916042,nan,nan,-0.15303098,2.3759794,0.0,nan,nan,-0.0,nan,nan,nan,nan,nan,nan,0.0,0.0,nan
353116135,nan,nan,-0.13901828,2.375401,0.0,nan,nan,-0.0,nan,nan,nan,nan,nan,nan,0.0,0.0,nan
353316320,nan,nan,-0.13933037,2.3749685,0.0,nan,nan,-0.0,nan,nan,nan,nan,nan,nan,0.0,0.0,nan
353516637,nan,nan,-0.13957494,2.374557,0.0,nan,nan,0.0,nan,nan,nan,nan,nan,nan,0.0,0.0,nan
353716798,nan,nan,-0.14200945,2.3741822,0.0,nan,nan,-0.0,nan,nan,nan,nan,nan,nan,0.0,0.0,nan
353916947,nan,nan,-0.13901424,2.3737264,0.0,nan,nan,-0.0,nan,nan,nan,nan,nan,nan,0.0,0.0,nan
354117159,nan,nan,-0.1285646,2.3731833,0.0,nan,nan,0.0,nan,nan,nan,nan,nan,nan,0.0,0.0,nan
354317535,nan,nan,-0.11867187,2.3727188,0.0,nan,nan,-0.0,nan,nan,nan,nan,nan,nan,-0.00377235,0.0036496948,nan
354538454,nan,nan,-0.11160739,2.3722353,0.0,nan,nan,0.0,nan,nan,nan,nan,nan,nan,-1.1881881e-06,1.1506677e-06,nan
354738594,nan,nan,nan,2.3719487,0.0,nan,nan,-0.060568333,nan,nan,nan,nan,nan,nan,8.4230495e-10,-8.1617474e-10,nan
354938031,nan,nan,nan,2.3716638,0.0,nan,nan,-0.13964899,nan,nan,nan,nan,nan,nan,-2.3209361e-13,2.250218e-13,nan
355138609,nan,nan,nan,2.3713396,0.0,nan,nan,-0.16502824,nan,nan,nan,nan,nan,nan,-1.5387048e-16,1.4927892e-16,nan
355338516,nan,nan,nan,2.3707943,0.0,nan,nan,-0.10533301,nan,nan,nan,nan,nan,nan,7.314707e-20,-7.104179e-20,nan
355538582,nan,nan,nan,2.3702419,0.0,nan,nan,-0.23057747,nan,nan,nan,nan,nan,nan,6.473337e-24,-6.293978e-24,nan
355738746,nan,nan,nan,2.3695269,0.0,nan,nan,-0.36893734,nan,nan,nan,nan,nan,nan,-3.656795e-26,3.560565e-26,nan
355939412,nan,nan,nan,2.3689978,0.0,nan,nan,-0.5181222,nan,nan,nan,nan,nan,nan,2.915426e-29,-2.8417117e-29,nan
356139502,nan,nan,nan,2.3685174,0.0,nan,nan,-0.52154994,nan,nan,nan,nan,nan,nan,-4.3385666e-32,4.2329352e-32,nan
356339476,nan,nan,nan,2.368095,0.0,nan,nan,-0.66048235,nan,nan,nan,nan,nan,nan,2.1256772e-35,-2.0756768e-35,nan
356559618,nan,nan,nan,2.3680656,0.0,nan,nan,-0.6622157,nan,nan,nan,nan,nan,nan,7.391055e-39,-7.217625e-39,nan
356760163,nan,nan,nan,2.3680656,0.0,nan,nan,-0.64296854,nan,nan,nan,nan,nan,nan,-4.91e-42,4.794e-42,nan
356960095,nan,nan,nan,2.3680656,0.0,nan,nan,-0.54280174,nan,nan,nan,nan,nan,nan,1e-45,-1e-45,nan
357160198,nan,nan,nan,2.3680656,0.0,nan,nan,-0.39077526,nan,nan,nan,nan,nan,nan,-0.0034018664,0.0033220425,nan
357360371,nan,nan,nan,2.3680656,0.0,nan,nan,-0.16163793,nan,nan,nan,nan,nan,nan,-0.05039075,0.049208343,nan
357560682,nan,nan,-0.12343576,2.3680656,0.0,nan,nan,0.0,nan,nan,nan,nan,nan,nan,-0.0677476,0.066157915,nan
357760853,nan,nan,-0.12343576,2.3680656,0.0,nan,nan,-0.0,nan,nan,nan,nan,nan,nan,-0.00012894966,0.00012592388,nan
357980985,nan,nan,-0.12343576,2.3680656,0.0,nan,nan,-0.0,nan,nan,nan,nan,nan,nan,2.0896394e-08,-2.0406064e-08,nan
358181180,nan,nan,nan,2.3680656,0.0,nan,nan,0.01105821,nan,nan,nan,nan,nan,nan,-0.07019241,0.068545364,nan
358381522,nan,nan,nan,2.3680656,0.0,nan,nan,0.019105103,nan,nan,nan,nan,nan,nan,-0.009461545,0.009239532,nan
358581686,nan,nan,nan,2.3680656,0.0,nan,nan,0.052802257,nan,nan,nan,nan,nan,nan,4.646386e-06,-4.5373595e-06,nan
358781779,nan,nan,nan,2.3680656,0.0,nan,nan,0.071725674,nan,nan,nan,nan,nan,nan,-1.0942365e-09,1.0685605e-09,nan
358982028,nan,nan,nan,2.3680656,0.0,nan,nan,0.050537746,nan,nan,nan,nan,nan,nan,-0.00037798515,0.00036911582,nan
359182407,nan,nan,nan,2.3680656,0.0,nan,nan,0.044196803,nan,nan,nan,nan,nan,nan,-0.057254177,0.05591072,nan
359382496,nan,nan,nan,2.3680656,0.0,nan,nan,0.043599103,nan,nan,nan,nan,nan,nan,-0.09983355,0.09749098,nan
359582638,nan,nan,nan,2.3680656,0.0,nan,nan,0.017392727,nan,nan,nan,nan,nan,nan,-0.02776356,0.027112095,nan
359802846,nan,nan,-0.3614498,2.3680656,0.0,nan,nan,-0.0,nan,nan,nan,nan,nan,nan,6.7009278e-06,-6.5436925e-06,nan
360003382,nan,nan,-0.3614498,2.3680656,0.0,nan,nan,-0.0,nan,nan,nan,nan,nan,nan,6.179671e-10,-6.0346667e-10,nan
360203418,nan,nan,-0.3614498,2.3680656,0.0,nan,nan,-0.0,nan,nan,nan,nan,nan,nan,-3.375577e-12,3.2963697e-12,nan
360403535,nan,nan,-0.3614498,nan,-0.3038806,nan,nan,0.0,nan,nan,nan,nan,nan,nan,2.6966734e-15,-2.6075604e-15,nan
360603605,nan,nan,-0.3614498,nan,-0.4717246,nan,nan,0.0,nan,nan,nan,nan,nan,nan,-8.996879e-19,9.048745e-19,nan
360803844,nan,nan,-0.3614498,nan,-0.5059976,nan,nan,0.0,nan,nan,nan,nan,nan,nan,-3.2647073e-22,3.4420851e-22,nan
361004128,nan,nan,-0.3614498,nan,-0.27662185,nan,nan,0.0,nan,nan,nan,nan,nan,nan,-0.05607654,0.06413377,nan
361224309,nan,nan,-0.3614498,nan,-0.18579729,nan,nan,0.0,nan,nan,nan,nan,nan,nan,-0.031432208,0.03721534,nan
361424436,nan,nan,nan,nan,-0.17807801,nan,nan,-0.34181958,nan,nan,nan,nan,nan,nan,-1.8267296e-05,2.2136202e-05,nan
361624771,nan,nan,nan,nan,-0.18675166,nan,nan,-0.4188626,nan,nan,nan,nan,nan,nan,4.768212e-09,-6.1168346e-09,nan
361824875,nan,nan,nan,nan,-0.0887864,nan,nan,-0.31865168,nan,nan,nan,nan,nan,nan,-3.457441e-11,4.8354536e-11,nan
362025101,nan,nan,nan,nan,-0.26288757,nan,nan,-0.14535236,nan,nan,nan,nan,nan,nan,2.6825813e-14,-4.0507538e-14,nan
362225507,nan,nan,nan,nan,-0.6156139,nan,nan,-0.22775897,nan,nan,nan,nan,nan,nan,-8.404686e-18,1.5042728e-17,nan
362425568,nan,nan,nan,nan,-0.59517694,nan,nan,-0.23451614,nan,nan,nan,nan,nan,nan,-2.1334464e-21,5.101539e-21,nan
362625704,nan,nan,nan,nan,-0.52410084,nan,nan,-0.2687344,nan,nan,nan,nan,nan,nan,3.3394683e-24,-1.16494474e-23,nan
362845880,nan,nan,nan,nan,-0.4481958,nan,nan,-0.3333319,nan,nan,nan,nan,nan,nan,-0.0017274116,0.0105404705,nan
363046055,nan,nan,nan,nan,-0.42639142,nan,nan,-0.29359704,nan,nan,nan,nan,nan,nan,-0.0052847825,0.077541515,nan
363246373,nan,nan,nan,nan,-0.3708792,nan,nan,-0.27514744,nan,nan,nan,nan,nan,nan,0.0017920656,0.07984044,nan
363446502,nan,nan,nan,nan,-0.24221423,nan,nan,-0.17340073,nan,nan,nan,nan,nan,nan,0.010046185,0.094867006,nan
363646649,nan,nan,-0.6041538,1.4176545,-0.0,nan,nan,0.0,nan,nan,nan,nan,nan,nan,0.0100086555,0.06484376,nan
363846837,nan,nan,-0.6041538,1.4176545,0.0,nan,nan,-0.0,nan,nan,nan,nan,nan,nan,0.0077081565,0.049939357,nan
364047387,nan,nan,nan,1.4176545,-0.0,nan,nan,-0.26513147,nan,nan,nan,nan,nan,nan,0.003634008,0.023543896,nan
364247400,nan,nan,nan,1.4176545,0.0,nan,nan,-0.29947844,nan,nan,nan,nan,nan,nan,0.0015362238,0.009952838,nan
364447502,nan,nan,nan,1.4176545,-0.0,nan,nan,-0.29957858,nan,nan,nan,nan,nan,nan,0.00041392338,0.0026817136,nan
364648011,nan,nan,nan,1.4176545,-0.0,nan,nan,-0.28358626,nan,nan,nan,nan,nan,nan,8.041552e-05,0.00052099355,nan
364848029,nan,nan,nan,1.4176545,0.0,nan,nan,-0.25876766,nan,nan,nan,nan,nan,nan,0.00040077296,0.0025965152,nan
365068089,nan,nan,nan,1.4176545,-0.0,nan,nan,-0.17818101,nan,nan,nan,nan,nan,nan,3.9829735e-07,2.5804763e-06,nan
365268350,nan,nan,nan,1.4176545,0.0,nan,nan,-0.047990955,nan,nan,nan,nan,nan,nan,0.0015084075,0.009772623,nan
365468514,nan,nan,-0.5770724,1.4176545,0.0,nan,nan,0.0,nan,nan,nan,nan,nan,nan,0.002584098,0.016741771,nan
365668761,nan,nan,-0.5770724,1.4176545,-0.0,nan,nan,0.0,nan,nan,nan,nan,nan,nan,0.005371178,0.03479862,nan
365868929,nan,nan,nan,1.4176545,-0.0,nan,nan,-0.3677671,nan,nan,nan,nan,nan,nan,0.0091660675,0.059384823,nan
366069117,nan,nan,nan,1.4176545,0.0,nan,nan,-0.21751413,nan,nan,nan,nan,nan,nan,0.010172598,0.065905906,nan
366269585,nan,nan,nan,1.4176545,-0.0,nan,nan,-0.017013624,nan,nan,nan,nan,nan,nan,0.009355343,0.060611095,nan
366469656,nan,nan,-0.53897345,1.4176545,0.0,nan,nan,0.0,nan,nan,nan,nan,nan,nan,0.008985432,0.05821453,nan
366690481,nan,nan,nan,1.4176545,0.0,nan,nan,-0.23028502,nan,nan,nan,nan,nan,nan,0.012325329,0.079852946,nan
366890038,nan,nan,nan,1.4176545,0.0,nan,nan,-0.24859953,nan,nan,nan,nan,nan,nan,0.0135018425,0.08747531,nan
367090215,nan,nan,nan,1.4176545,0.0,nan,nan,-0.27569818,nan,nan,nan,nan,nan,nan,0.013261059,0.085915335,nan
367290478,nan,nan,nan,1.4176545,0.0,nan,nan,-0.2827061,nan,nan,nan,nan,nan,nan,0.012132197,0.07860169,nan
367490528,nan,nan,nan,1.4176545,0.0,nan,nan,-0.2658229,nan,nan,nan,nan,nan,nan,0.011432915,0.074071206,nan
367690653,nan,nan,nan,1.4176545,0.0,nan,nan,-0.27427763,nan,nan,nan,nan,nan,nan,0.0086898515,0.056299534,nan
367890964,nan,nan,nan,1.4176545,0.0,nan,nan,-0.2741894,nan,nan,nan,nan,nan,nan,0.0057155862,0.03702996,nan
368111427,nan,nan,nan,1.4176545,0.0,nan,nan,-0.3041602,nan,nan,nan,nan,nan,nan,0.005134805,0.033267215,nan
368311441,nan,nan,nan,1.4176545,0.0,nan,nan,-0.3080166,nan,nan,nan,nan,nan,nan,0.004513723,0.029243363,nan
368512000,nan,nan,nan,1.4176545,0.0,nan,nan,-0.34188557,nan,nan,nan,nan,nan,nan,0.001470093,0.009524392,nan
368711797,nan,nan,nan,1.4176545,0.0,nan,nan,-0.28928885,nan,nan,nan,nan,nan,nan,-0.000120396144,-0.0007800187,nan
368912052,nan,nan,nan,1.4176545,0.0,nan,nan,-0.29589424,nan,nan,nan,nan,nan,nan,0.007015008,0.045448612,nan
369112243,nan,nan,nan,1.4176545,0.0,nan,nan,-0.23895988,nan,nan,nan,nan,nan,nan,0.009283672,0.060146756,nan
369312328,nan,nan,nan,1.4176545,0.0,nan,nan,-0.24327365,nan,nan,nan,nan,nan,nan,0.008998574,0.05829967,nan
369512586,nan,nan,nan,1.4176545,0.0,nan,nan,-0.24049091,nan,nan,nan,nan,nan,nan,0.006760128,0.043797303,nan
369712876,nan,nan,nan,1.4176545,0.0,nan,nan,-0.129728,nan,nan,nan,nan,nan,nan,0.008808492,0.057068177,nan
369912951,nan,nan,nan,1.4176545,0.0,nan,nan,-0.19551721,nan,nan,nan,nan,nan,nan,0.0069604153,0.04509492,nan
370133177,nan,nan,nan,1.4176545,0.0,nan,nan,-0.22407222,nan,nan,nan,nan,nan,nan,0.0066083656,0.04281407,nan
370334443,nan,nan,nan,1.4176545,0.0,nan,nan,-0.24359632,nan,nan,nan,nan,nan,nan,0.003959945,0.025655566,nan
370533936,nan,nan,nan,1.4176545,0.0,nan,nan,-0.26187348,nan,nan,nan,nan,nan,nan,0.0027569016,0.017861325,nan
370733772,nan,nan,nan,1.4176545,0.0,nan,nan,-0.24028468,nan,nan,nan,nan,nan,nan,-8.672106e-05,-0.00056184566,nan
370933955,nan,nan,-1.1261877,1.4176545,0.0,nan,nan,0.0,nan,nan,nan,nan,nan,nan,3.6606647e-08,2.3716598e-07,nan
371134363,nan,nan,-1.1261877,1.4176545,0.0,nan,nan,-0.0,nan,nan,nan,nan,nan,nan,-1.6511634e-10,-1.0697505e-09,nan
371334468,nan,nan,-1.1261877,1.4176545,-0.0,nan,nan,0.0,nan,nan,nan,nan,nan,nan,0.0049312296,0.031948294,nan
371534545,nan,nan,-1.1261877,1.4176545,0.0,nan,nan,-0.0,nan,nan,nan,nan,nan,nan,-1.2823654e-06,-8.308148e-06,nan
371754741,nan,nan,-1.1261877,1.4176545,-0.0,nan,nan,0.0,nan,nan,nan,nan,nan,nan,-7.9208007e-10,-5.131703e-09,nan
371955333,nan,nan,nan,1.4176545,-0.0,nan,nan,-0.12049048,nan,nan,nan,nan,nan,nan,3.7551695e-13,2.4328872e-12,nan
372155450,nan,nan,nan,1.4176545,-0.0,nan,nan,-0.113559246,nan,nan,nan,nan,nan,nan,7.613863e-18,4.9328456e-17,nan
372355427,nan,nan,nan,1.4176545,0.0,nan,nan,-0.45186216,nan,nan,nan,nan,nan,nan,-8.809736e-20,-5.707624e-19,nan
372555548,nan,nan,nan,1.4176545,0.0,nan,nan,-0.48656076,nan,nan,nan,nan,nan,nan,-0.00032319306,-0.0020938928,nan
372755902,nan,nan,nan,1.4176545,-0.0,nan,nan,-0.27748394,nan,nan,nan,nan,nan,nan,-0.003031324,-0.019639244,nan
372956042,nan,nan,-1.2646084,1.4176545,0.0,nan,nan,0.0,nan,nan,nan,nan,nan,nan,-0.0050642085,-0.032809835,nan
373156225,nan,nan,nan,1.4176545,-0.0,nan,nan,-0.08896796,nan,nan,nan,nan,nan,nan,-0.01313038,-0.08506869,nan
373356385,nan,nan,nan,1.4176545,0.0,nan,nan,-0.2655666,nan,nan,nan,nan,nan,nan,-0.019444808,-0.1259784,nan
373556611,nan,nan,nan,1.4176545,0.0,nan,nan,-0.29406595,nan,nan,nan,nan,nan,nan,-0.016804012,-0.1088693,nan
373776837,nan,nan,nan,1.4176545,-0.0,nan,nan,-0.31710553,nan,nan,nan,nan,nan,nan,-0.007967562,-0.05161999,nan
373977112,nan,nan,nan,1.4176545,0.0,nan,nan,-0.27739733,nan,nan,nan,nan,nan,nan,-2.1531557e-06,-1.3949797e-05,nan
374177170,nan,nan,nan,1.4176545,0.0,nan,nan,-0.065101065,nan,nan,nan,nan,nan,nan,-0.041688003,0.006434538,nan
374377581,nan,nan,-1.3363876,1.4176545,-0.0,nan,nan,0.0,nan,nan,nan,nan,nan,nan,-0.11029853,0.017024614,nan
374577671,nan,nan,-1.3363876,1.4176545,0.0,nan,nan,0.0,nan,nan,nan,nan,nan,nan,-0.120336,0.0185739,nan
374777768,nan,nan,nan,1.4176545,0.0,nan,nan,-0.31926242,nan,nan,nan,nan,nan,nan,-0.03191722,-0.018948682,nan
374977969,nan,nan,nan,1.4176545,0.0,nan,nan,-0.27600098,nan,nan,nan,nan,nan,nan,-0.014234795,-0.019752221,nan
375178382,nan,nan,nan,1.4176545,0.0,nan,nan,-0.12181608,nan,nan,nan,nan,nan,nan,-0.01565678,-0.10149412,nan
375398539,nan,nan,nan,1.4176545,0.0,nan,nan,-0.14330831,nan,nan,nan,nan,nan,nan,-0.01811032,-0.11733257,nan
375598578,nan,nan,nan,1.4176545,0.0,nan,nan,-0.33410597,nan,nan,nan,nan,nan,nan,-0.022724561,-0.14722717,nan
375798823,nan,nan,nan,1.4176545,0.0,nan,nan,-0.32421,nan,nan,nan,nan,nan,nan,-0.008791426,-0.046646588,nan
375999389,nan,nan,nan,1.4176545,0.0,nan,nan,-0.24746943,nan,nan,nan,nan,nan,nan,-0.10982047,0.016981516,nan
376199470,nan,nan,nan,1.4176545,0.0,nan,nan,-0.104762,nan,nan,nan,nan,nan,nan,-0.099063896,0.015290525,nan
376399773,nan,nan,nan,1.4176545,0.0,nan,nan,-0.18407393,nan,nan,nan,nan,nan,nan,0.0032628388,-0.00050362025,nan
376599579,nan,nan,nan,1.4176545,0.0,nan,nan,-0.25732565,nan,nan,nan,nan,nan,nan,4.228179e-07,-6.526207e-08,nan
376800046,nan,nan,nan,1.4176545,0.0,nan,nan,-0.26603192,nan,nan,nan,nan,nan,nan,-5.902595e-10,9.110675e-11,nan
377000135,nan,nan,nan,1.4176545,0.0,nan,nan,-0.265774,nan,nan,nan,nan,nan,nan,3.3606137e-13,-5.1871183e-14,nan
377220248,nan,nan,nan,1.5802405,0.0,nan,nan,-0.2675578,nan,nan,nan,nan,nan,nan,9.583987e-17,9.051545e-19,nan
377420391,nan,nan,nan,1.5802405,0.0,nan,nan,-0.45379448,nan,nan,nan,nan,nan,nan,-7.33855e-20,-6.930851e-22,nan
377620744,nan,nan,nan,1.5802405,0.0,nan,nan,-0.5287688,nan,nan,nan,nan,nan,nan,-1.3014012e-23,-1.2291016e-25,nan
377820907,nan,nan,nan,1.5802405,0.0,nan,nan,-0.55290747,nan,nan,nan,nan,nan,nan,1.05877506e-26,9.9995535e-29,nan
378021072,nan,nan,nan,1.5802405,0.0,nan,nan,-0.5527426,nan,nan,nan,nan,nan,nan,-1.9170842e-29,-1.8105796e-31,nan
378222371,nan,nan,nan,1.5802405,0.0,nan,nan,-0.5586168,nan,nan,nan,nan,nan,nan,1.2245964e-32,1.1565629e-34,nan
378422154,nan,nan,nan,1.5802405,0.0,nan,nan,-0.5611814,nan,nan,nan,nan,nan,nan,-2.5705988e-36,-2.4277843e-38,nan
378641691,nan,nan,nan,1.5802405,0.0,nan,nan,-0.5684683,nan,nan,nan,nan,nan,nan,-2.51855e-39,-2.3786e-41,nan
378841829,nan,nan,nan,1.5802405,0.0,nan,nan,-0.5693492,nan,nan,nan,nan,nan,nan,9.65e-43,1e-44,nan
379042025,nan,nan,nan,1.5802405,0.0,nan,nan,-0.6054355,nan,nan,nan,nan,nan,nan,0.0,0.0,nan
379242367,nan,nan,nan,1.5802405,0.0,nan,nan,-0.6701848,nan,nan,nan,nan,nan,nan,0.0,0.0,nan
379442517,nan,nan,nan,1.5802405,0.0,nan,nan,-0.67903054,nan,nan,nan,nan,nan,nan,0.0,0.0,nan
379642666,nan,nan,nan,1.5802405,0.0,nan,nan,-0.6722177,nan,nan,nan,nan,nan,nan,0.0,0.0,nan
379842843,nan,nan,nan,1.5802405,0.0,nan,nan,-0.68776107,nan,nan,nan,nan,nan,nan,0.0,0.0,nan
380063373,nan,nan,nan,1.5802405,0.0,nan,nan,-0.6909654,nan,nan,nan,nan,nan,nan,0.0,0.0,nan
380264353,nan,nan,nan,1.5802405,0.0,nan,nan,-0.68363404,nan,nan,nan,nan,nan,nan,0.0,0.0,nan
380464265,nan,nan,nan,1.5802405,0.0,nan,nan,-0.6895114,nan,nan,nan,nan,nan,nan,0.0,0.0,nan
380664024,nan,nan,nan,1.5802405,0.0,nan,nan,-0.68776023,nan,nan,nan,nan,nan,nan,0.0,0.0,nan
380863977,nan,nan,nan,1.5802405,0.0,nan,nan,-0.68624866,nan,nan,nan,nan,nan,nan,0.0,0.0,nan
381064134,nan,nan,nan,1.5802405,0.0,nan,nan,-0.68776697,nan,nan,nan,nan,nan,nan,0.0,0.0,nan
381264267,nan,nan,nan,1.5802405,0.0,nan,nan,-0.6877638,nan,nan,nan,nan,nan,nan,0.0,0.0,nan
381464574,nan,nan,nan,1.5802405,0.0,nan,nan,-0.6877638,nan,nan,nan,nan,nan,nan,0.0,0.0,nan
381684752,nan,nan,nan,1.5802405,0.0,nan,nan,-0.68796647,nan,nan,nan,nan,nan,nan,0.0,0.0,nan
381884942,nan,nan,nan,1.5802405,0.0,nan,nan,-0.6877642,nan,nan,nan,nan,nan,nan,0.0,0.0,nan
382085098,nan,nan,nan,1.5802405,0.0,nan,nan,-0.6877638,nan,nan,nan,nan,nan,nan,0.0,0.0,nan
382286388,nan,nan,nan,1.5802405,0.0,nan,nan,-0.6848357,nan,nan,nan,nan,nan,nan,0.0,0.0,nan
382486415,nan,nan,nan,1.5802405,0.0,nan,nan,-0.6879847,nan,nan,nan,nan,nan,nan,0.0,0.0,nan
382685754,nan,nan,nan,1.5802405,0.0,nan,nan,-0.68014675,nan,nan,nan,nan,nan,nan,0.0,0.0,nan
382885857,nan,nan,nan,1.5802405,0.0,nan,nan,-0.5441253,nan,nan,nan,nan,nan,nan,0.0,0.0,nan
383086145,nan,nan,nan,1.5802405,0.0,nan,nan,-0.058628,nan,nan,nan,nan,nan,nan,0.0,0.0,nan
383286412,nan,nan,-4.9999614,1.5802405,0.0,nan,nan,-0.0,nan,nan,nan,nan,nan,nan,0.0,0.0,nan
383486506,nan,nan,-4.9999614,1.5802405,0.0,nan,nan,-0.0,nan,nan,nan,nan,nan,nan,0.0,0.0,nan
383706685,nan,nan,-4.9999614,1.5802405,0.0,nan,nan,-0.0,nan,nan,nan,nan,nan,nan,0.0,0.0,nan
383906996,nan,nan,-4.9999614,1.5802405,0.0,nan,nan,-0.0,nan,nan,nan,nan,nan,nan,0.0,0.0,nan
384107419,nan,nan,-4.9999614,1.5802405,0.0,nan,nan,-0.0,nan,nan,nan,nan,nan,nan,0.0,0.0,nan
384307344,nan,nan,-4.9999614,1.5802405,0.0,nan,nan,-0.0,nan,nan,nan,nan,nan,nan,0.0,0.0,nan
384507497,nan,nan,nan,1.5802405,0.0,nan,nan,0.037560355,nan,nan,nan,nan,nan,nan,0.0,0.0,nan
384707762,nan,nan,nan,1.5802405,0.0,nan,nan,0.090716906,nan,nan,nan,nan,nan,nan,0.0,0.0,nan
384908045,nan,nan,nan,1.5802405,0.0,nan,nan,0.115623236,nan,nan,nan,nan,nan,nan,0.0,0.0,nan
385108169,nan,nan,nan,1.5802405,0.0,nan,nan,0.14237414,nan,nan,nan,nan,nan,nan,0.0,0.0,nan
385308263,nan,nan,nan,1.5802405,0.0,nan,nan,0.16618454,nan,nan,nan,nan,nan,nan,0.0,0.0,nan
385508546,nan,nan,nan,1.5802405,0.0,nan,nan,0.20630568,nan,nan,nan,nan,nan,nan,0.0,0.0,nan
385728811,nan,nan,nan,1.5802405,-0.0,nan,nan,0.24709295,nan,nan,nan,nan,nan,nan,0.0,0.0,nan
385929119,nan,nan,nan,1.5802405,-0.0,nan,nan,0.30320364,nan,nan,nan,nan,nan,nan,0.0,0.0,nan
386129157,nan,nan,nan,1.5802405,-0.0,nan,nan,0.33459172,nan,nan,nan,nan,nan,nan,0.0,0.0,nan
386329619,nan,nan,nan,1.5802405,-0.0,nan,nan,0.35767314,nan,nan,nan,nan,nan,nan,0.0,0.0,nan
386529727,nan,nan,nan,1.5802405,-0.0,nan,nan,0.38542375,nan,nan,nan,nan,nan,nan,0.0,0.0,nan
386729751,nan,nan,nan,1.5802405,-0.0,nan,nan,0.42174742,nan,nan,nan,nan,nan,nan,0.0,0.0,nan
386929911,nan,nan,nan,1.5802405,-0.0,nan,nan,0.44096065,nan,nan,nan,nan,nan,nan,0.0,0.0,nan
387130152,nan,nan,nan,1.5802405,-0.0,nan,nan,0.46838182,nan,nan,nan,nan,nan,nan,0.0,0.0,nan
387350609,nan,nan,nan,1.5802405,-0.0,nan,nan,0.49807382,nan,nan,nan,nan,nan,nan,0.0,0.0,nan
387550540,nan,nan,nan,1.5802405,-0.0,nan,nan,0.5096718,nan,nan,nan,nan,nan,nan,0.0,0.0,nan
387750761,nan,nan,nan,1.5802405,-0.0,nan,nan,0.5634042,nan,nan,nan,nan,nan,nan,0.0,0.0,nan
387950967,nan,nan,nan,1.5802405,-0.0,nan,nan,0.6381729,nan,nan,nan,nan,nan,nan,0.0,0.0,nan
388151612,nan,nan,nan,1.5802405,-0.0,nan,nan,0.67487323,nan,nan,nan,nan,nan,nan,0.0,0.0,nan
388351950,nan,nan,nan,1.5802405,-0.0,nan,nan,0.7253726,nan,nan,nan,nan,nan,nan,0.0,0.0,nan
388551529,nan,nan,nan,1.5802405,-0.0,nan,nan,0.72985435,nan,nan,nan,nan,nan,nan,0.0,0.0,nan
388771900,nan,nan,nan,1.5802405,-0.0,nan,nan,0.7299578,nan,nan,nan,nan,nan,nan,0.0,0.0,nan
388972237,nan,nan,nan,1.5802405,-0.0,nan,nan,0.7304629,nan,nan,nan,nan,nan,nan,0.0,0.0,nan
389172142,nan,nan,nan,1.5802405,-0.0,nan,nan,0.7298956,nan,nan,nan,nan,nan,nan,0.0,0.0,nan
389372342,nan,nan,nan,1.5802405,-0.0,nan,nan,0.7299581,nan,nan,nan,nan,nan,nan,0.0,0.0,nan
389572699,nan,nan,nan,1.5802405,-0.0,nan,nan,0.72995776,nan,nan,nan,nan,nan,nan,0.0,0.0,nan
389773145,nan,nan,nan,1.5802405,-0.0,nan,nan,0.73095506,nan,nan,nan,nan,nan,nan,0.0,0.0,nan
389973061,nan,nan,nan,1.5802405,-0.0,nan,nan,0.72997665,nan,nan,nan,nan,nan,nan,0.0,0.0,nan
390173233,nan,nan,nan,1.5802405,-0.0,nan,nan,0.72995776,nan,nan,nan,nan,nan,nan,0.0,0.0,nan
390373969,nan,nan,nan,1.5802405,-0.0,nan,nan,0.7319158,nan,nan,nan,nan,nan,nan,0.0,0.0,nan
390573682,nan,nan,nan,1.5802405,-0.0,nan,nan,0.7294828,nan,nan,nan,nan,nan,nan,0.0,0.0,nan
390793794,nan,nan,nan,1.5802405,-0.0,nan,nan,0.7283084,nan,nan,nan,nan,nan,nan,0.0,0.0,nan
390993971,nan,nan,nan,1.5802405,-0.0,nan,nan,0.71944124,nan,nan,nan,nan,nan,nan,0.0,0.0,nan
391194308,nan,nan,nan,1.5802405,-0.0,nan,nan,0.65725356,nan,nan,nan,nan,nan,nan,0.0,0.0,nan
391394617,nan,nan,nan,1.5802405,-0.0,nan,nan,0.65633535,nan,nan,nan,nan,nan,nan,0.0,0.0,nan
391594565,nan,nan,nan,1.5802405,-0.0,nan,nan,0.3293308,nan,nan,nan,nan,nan,nan,0.0,0.0,nan
391794771,nan,nan,-1.3375659,1.5802405,-0.0,nan,nan,-0.0,nan,nan,nan,nan,nan,nan,0.0,0.0,nan
391995300,nan,nan,-1.3375659,1.5802405,0.0,nan,nan,-0.0,nan,nan,nan,nan,nan,nan,0.0,0.0,nan
392215441,nan,nan,-1.3375659,1.5802405,-0.0,nan,nan,-0.0,nan,nan,nan,nan,nan,nan,0.0,0.0,nan
392415609,nan,nan,-1.3375659,1.5802405,-0.0,nan,nan,-0.0,nan,nan,nan,nan,nan,nan,0.0,0.0,nan
392616319,nan,nan,-1.3375659,1.5802405,0.0,nan,nan,-0.0,nan,nan,nan,nan,nan,nan,-5.4883847e-05,0.0058112326,nan
392816236,nan,nan,-1.3375659,1.5802405,-0.0,nan,nan,-0.0,nan,nan,nan,nan,nan,nan,-0.0011277591,0.11940982,nan
393016105,nan,nan,-1.3375659,1.5802405,0.0,nan,nan,-0.0,nan,nan,nan,nan,nan,nan,-0.0017189644,0.18200804,nan
393216224,nan,nan,-1.3375659,1.5802405,-0.0,nan,nan,-0.0,nan,nan,nan,nan,nan,nan,-0.0016504321,0.17475168,nan
393416374,nan,nan,-1.3375659,1.5802405,-0.0,nan,nan,-0.0,nan,nan,nan,nan,nan,nan,-0.0014151228,0.14983657,nan
393636929,nan,nan,-1.3375659,1.5802405,0.0,nan,nan,-0.0,nan,nan,nan,nan,nan,nan,2.7875963e-05,-0.0029515736,nan
393836940,nan,nan,-1.3375659,1.5802405,0.0,nan,nan,-0.0,nan,nan,nan,nan,nan,nan,-1.5626519e-08,1.6545731e-06,nan
394037088,nan,nan,-1.3375659,1.5802405,-0.0,nan,nan,-0.0,nan,nan,nan,nan,nan,nan,1.8356037e-12,-1.9435811e-10,nan
394237199,nan,nan,-1.3375659,1.5802405,0.0,nan,nan,-0.0,nan,nan,nan,nan,nan,nan,5.012736e-15,-5.307604e-13,nan
394437807,nan,nan,-1.3375659,1.5802405,0.0,nan,nan,-0.0,nan,nan,nan,nan,nan,nan,-0.00016128739,0.017077493,nan
394637733,nan,nan,-1.3375659,1.5802405,0.0,nan,nan,-0.0,nan,nan,nan,nan,nan,nan,-0.0003151412,0.033367902,nan
394837824,nan,nan,-1.3375659,1.5802405,0.0,nan,nan,-0.0,nan,nan,nan,nan,nan,nan,-0.0005026605,0.053222895,nan
395037999,nan,nan,-1.3375659,1.5802405,0.0,nan,nan,-0.0,nan,nan,nan,nan,nan,nan,-6.268621e-05,0.006637365,nan
395238380,nan,nan,-1.3375659,1.5802405,0.0,nan,nan,-0.0,nan,nan,nan,nan,nan,nan,1.3159379e-08,-1.3933465e-06,nan
395458501,nan,nan,-1.3375659,1.5802405,0.0,nan,nan,-0.0,nan,nan,nan,nan,nan,nan,-1.2449454e-12,1.3181778e-10,nan
395658632,nan,nan,-1.3375659,1.5802405,0.0,nan,nan,-0.0,nan,nan,nan,nan,nan,nan,-4.4838235e-15,4.7475793e-13,nan
395858854,nan,nan,-1.3375659,1.5802405,0.0,nan,nan,-0.0,nan,nan,nan,nan,nan,nan,4.439328e-18,-4.700466e-16,nan
396059460,nan,nan,-1.3375659,1.5802405,0.0,nan,nan,0.0,nan,nan,nan,nan,nan,nan,4.8237787e-22,-5.1075317e-20,nan
396260112,nan,nan,nan,1.5802405,0.0,nan,nan,-0.18430996,nan,nan,nan,nan,nan,nan,-7.8178773e-25,8.277755e-23,nan
396460295,nan,nan,nan,1.5802405,0.0,nan,nan,-0.7957086,nan,nan,nan,nan,nan,nan,4.7796916e-28,-5.0608512e-26,nan
396659630,nan,nan,nan,1.5802405,0.0,nan,nan,-1.0929538,nan,nan,nan,nan,nan,nan,-8.6137493e-32,9.120443e-30,nan
396879957,nan,nan,nan,1.5802405,0.0,nan,nan,-1.0733078,nan,nan,nan,nan,nan,nan,-1.0008539e-34,1.0597279e-32,nan
397080107,nan,nan,nan,1.5802405,0.0,nan,nan,-1.0674438,nan,nan,nan,nan,nan,nan,3.597446e-38,-3.8090616e-36,nan
397280275,nan,nan,nan,1.5802405,0.0,nan,nan,-1.0989921,nan,nan,nan,nan,nan,nan,1.0975e-41,-1.162014e-39,nan
397480450,nan,nan,nan,1.5802405,0.0,nan,nan,-1.3697021,nan,nan,nan,nan,nan,nan,-2.5e-44,2.626e-42,nan
397680977,nan,nan,nan,1.5802405,0.0,nan,nan,-1.453792,nan,nan,nan,nan,nan,nan,0.0,-1e-45,nan
397881021,nan,nan,nan,1.5802405,0.0,nan,nan,-1.506362,nan,nan,nan,nan,nan,nan,0.0,0.0,nan
398501579,nan,nan,nan,1.5802405,0.0,nan,nan,-1.3975685,nan,nan,nan,nan,nan,nan,0.0,0.0,nan
398701693,nan,nan,nan,1.5802405,0.0,nan,nan,-1.3684473,nan,nan,nan,nan,nan,nan,0.0,0.0,nan
398901854,nan,nan,nan,1.5802405,0.0,nan,nan,-1.3458917,nan,nan,nan,nan,nan,nan,0.0,0.0,nan
399102114,nan,nan,nan,1.5802405,0.0,nan,nan,-1.0900654,nan,nan,nan,nan,nan,nan,0.0,0.0,nan
399302359,nan,nan,nan,1.5802405,0.0,nan,nan,-0.9434217,nan,nan,nan,nan,nan,nan,0.0,0.0,nan
399502494,nan,nan,nan,1.5802405,0.0,nan,nan,-1.0009159,nan,nan,nan,nan,nan,nan,0.0,0.0,nan
399702654,nan,nan,nan,1.5802405,0.0,nan,nan,-0.9677884,nan,nan,nan,nan,nan,nan,0.0,0.0,nan
399902941,nan,nan,nan,1.5802405,0.0,nan,nan,-0.18717058,nan,nan,nan,nan,nan,nan,0.0,0.0,nan
400103281,nan,nan,-5.411264,1.5802405,0.0,nan,nan,0.0,nan,nan,nan,nan,nan,nan,0.0,0.0,nan
400323583,nan,nan,-5.411264,1.5802405,0.0,nan,nan,0.0,nan,nan,nan,nan,nan,nan,0.0,0.0,nan
400523475,nan,nan,-5.411264,1.5802405,0.0,nan,nan,-0.0,nan,nan,nan,nan,nan,nan,0.0,0.0,nan
400724303,nan,nan,-5.411264,1.5802405,0.0,nan,nan,-0.0,nan,nan,nan,nan,nan,nan,0.0,0.0,nan
400923978,nan,nan,-5.411264,1.5802405,0.0,nan,nan,-0.0,nan,nan,nan,nan,nan,nan,0.0,0.0,nan
401124106,nan,nan,-5.411264,1.5802405,0.0,nan,nan,-0.0,nan,nan,nan,nan,nan,nan,0.0,0.0,nan
401324260,nan,nan,nan,1.5802405,0.0,nan,nan,0.074932605,nan,nan,nan,nan,nan,nan,0.0,0.0,nan
401524572,nan,nan,nan,1.5802405,0.0,nan,nan,0.1548666,nan,nan,nan,nan,nan,nan,0.0,0.0,nan
401724760,nan,nan,nan,1.5802405,0.0,nan,nan,0.22040623,nan,nan,nan,nan,nan,nan,0.0,0.0,nan
401945027,nan,nan,nan,1.5802405,0.0,nan,nan,0.50793046,nan,nan,nan,nan,nan,nan,0.0,0.0,nan
402145147,nan,nan,nan,1.5802405,0.0,nan,nan,0.5344305,nan,nan,nan,nan,nan,nan,0.0,0.0,nan
402346399,nan,nan,nan,1.5802405,0.0,nan,nan,0.6377673,nan,nan,nan,nan,nan,nan,0.0,0.0,nan
402545651,nan,nan,nan,1.5802405,0.0,nan,nan,0.7294175,nan,nan,nan,nan,nan,nan,0.0,0.0,nan
402745812,nan,nan,nan,1.5802405,0.0,nan,nan,0.80752933,nan,nan,nan,nan,nan,nan,0.0,0.0,nan
402945903,nan,nan,nan,1.5802405,0.0,nan,nan,0.853467,nan,nan,nan,nan,nan,nan,0.0,0.0,nan
403146299,nan,nan,nan,1.5802405,0.0,nan,nan,0.9412379,nan,nan,nan,nan,nan,nan,0.0,0.0,nan
403346409,nan,nan,nan,1.5802405,0.0,nan,nan,0.9513354,nan,nan,nan,nan,nan,nan,0.0,0.0,nan
403546514,nan,nan,nan,1.5802405,0.0,nan,nan,0.96698016,nan,nan,nan,nan,nan,nan,0.0,0.0,nan
403746705,nan,nan,nan,1.5802405,0.0,nan,nan,0.99997616,nan,nan,nan,nan,nan,nan,0.0,0.0,nan
403946967,nan,nan,nan,1.5802405,0.0,nan,nan,1.0,nan,nan,nan,nan,nan,nan,0.0,0.0,nan
404167232,nan,nan,nan,1.5802405,0.0,nan,nan,1.0,nan,nan,nan,nan,nan,nan,0.0,0.0,nan
404367356,nan,nan,nan,1.5802405,0.0,nan,nan,1.0,nan,nan,nan,nan,nan,nan,0.0,0.0,nan
404567558,nan,nan,nan,1.5802405,0.0,nan,nan,1.0,nan,nan,nan,nan,nan,nan,0.0,0.0,nan
404767799,nan,nan,nan,1.5802405,0.0,nan,nan,1.0,nan,nan,nan,nan,nan,nan,0.0,0.0,nan
404968077,nan,nan,nan,1.5802405,0.0,nan,nan,1.0,nan,nan,nan,nan,nan,nan,0.0,0.0,nan
405168184,nan,nan,nan,1.5802405,0.0,nan,nan,1.0,nan,nan,nan,nan,nan,nan,0.0,0.0,nan
405368329,nan,nan,nan,1.5802405,0.0,nan,nan,1.0,nan,nan,nan,nan,nan,nan,0.0,0.0,nan
405588617,nan,nan,nan,1.5802405,0.0,nan,nan,1.0,nan,nan,nan,nan,nan,nan,0.0,0.0,nan
405789062,nan,nan,nan,1.5802405,0.0,nan,nan,1.0,nan,nan,nan,nan,nan,nan,0.0,0.0,nan
405989024,nan,nan,nan,1.5802405,0.0,nan,nan,1.0,nan,nan,nan,nan,nan,nan,0.0,0.0,nan
406189168,nan,nan,nan,1.5802405,0.0,nan,nan,1.0,nan,nan,nan,nan,nan,nan,0.0,0.0,nan
406389530,nan,nan,nan,1.5802405,0.0,nan,nan,1.0,nan,nan,nan,nan,nan,nan,0.0,0.0,nan
406589710,nan,nan,nan,1.5802405,0.0,nan,nan,1.0,nan,nan,nan,nan,nan,nan,0.0,0.0,nan
406789772,nan,nan,nan,1.5802405,0.0,nan,nan,1.0,nan,nan,nan,nan,nan,nan,0.0,0.0,nan
406989993,nan,nan,nan,1.5802405,0.0,nan,nan,0.29857966,nan,nan,nan,nan,nan,nan,0.0,0.0,nan
407210293,nan,nan,-0.6973663,1.5802405,0.0,nan,nan,-0.0,nan,nan,nan,nan,nan,nan,0.0,0.0,nan
407410454,nan,nan,-0.6973663,1.5802405,0.0,nan,nan,-0.0,nan,nan,nan,nan,nan,nan,0.0,0.0,nan
407610597,nan,nan,-0.6973663,1.5802405,0.0,nan,nan,-0.0,nan,nan,nan,nan,nan,nan,0.0,0.0,nan
407810769,nan,nan,-0.6973663,1.5802405,0.0,nan,nan,-0.0,nan,nan,nan,nan,nan,nan,0.0,0.0,nan
408011104,nan,nan,-0.6973663,1.5802405,0.0,nan,nan,-0.0,nan,nan,nan,nan,nan,nan,0.0,0.0,nan
408212230,nan,nan,-0.6973663,1.5802405,0.0,nan,nan,-0.0,nan,nan,nan,nan,nan,nan,0.0,0.0,nan
408412285,nan,nan,-0.6973663,1.5802405,0.0,nan,nan,-0.0,nan,nan,nan,nan,nan,nan,0.0,0.0,nan
408612519,nan,nan,-0.6973663,1.5802405,0.0,nan,nan,-0.0,nan,nan,nan,nan,nan,nan,0.0,0.0,nan
408831809,nan,nan,-0.6973663,1.5802405,0.0,nan,nan,-0.0,nan,nan,nan,nan,nan,nan,0.0,0.0,nan
409032089,nan,nan,-0.6973663,1.5802405,0.0,nan,nan,-0.0,nan,nan,nan,nan,nan,nan,0.0,0.0,nan
409232185,nan,nan,nan,1.5802405,0.0,nan,nan,-0.5636117,nan,nan,nan,nan,nan,nan,0.0,0.0,nan
409432371,nan,nan,nan,1.5802405,0.0,nan,nan,-1.674252,nan,nan,nan,nan,nan,nan,0.0,0.0,nan
409632706,nan,nan,nan,1.5802405,0.0,nan,nan,-1.9778169,nan,nan,nan,nan,nan,nan,0.0,0.0,nan
409833032,nan,nan,nan,1.5802405,0.0,nan,nan,-2.0321462,nan,nan,nan,nan,nan,nan,0.0,0.0,nan
410033089,nan,nan,nan,1.5802405,0.0,nan,nan,-2.0446842,nan,nan,nan,nan,nan,nan,0.0,0.0,nan
410253209,nan,nan,nan,1.5802405,0.0,nan,nan,-2.0305614,nan,nan,nan,nan,nan,nan,0.0,0.0,nan
410453749,nan,nan,nan,1.5802405,0.0,nan,nan,-2.0222251,nan,nan,nan,nan,nan,nan,0.0,0.0,nan
410653681,nan,nan,nan,1.5802405,0.0,nan,nan,-2.0232372,nan,nan,nan,nan,nan,nan,0.0,0.0,nan
410853820,nan,nan,nan,1.5802405,0.0,nan,nan,-2.02114,nan,nan,nan,nan,nan,nan,0.0,0.0,nan
411054012,nan,nan,nan,1.5802405,0.0,nan,nan,-1.9933658,nan,nan,nan,nan,nan,nan,0.0,0.0,nan
411254562,nan,nan,nan,1.5802405,0.0,nan,nan,-1.9906116,nan,nan,nan,nan,nan,nan,0.0,0.0,nan
411454506,nan,nan,nan,1.5802405,0.0,nan,nan,-1.9524138,nan,nan,nan,nan,nan,nan,0.0,0.0,nan
411674614,nan,nan,nan,1.5802405,0.0,nan,nan,-1.5767496,nan,nan,nan,nan,nan,nan,0.0,0.0,nan
411874825,nan,nan,nan,1.5802405,0.0,nan,nan,-1.6910408,nan,nan,nan,nan,nan,nan,0.0,0.0,nan
412075222,nan,nan,nan,1.5802405,0.0,nan,nan,-1.6959432,nan,nan,nan,nan,nan,nan,0.0,0.0,nan
412275310,nan,nan,nan,1.5802405,0.0,nan,nan,-0.3428902,nan,nan,nan,nan,nan,nan,0.0,0.0,nan
412475425,nan,nan,-6.1638017,1.5802405,0.0,nan,nan,-0.0,nan,nan,nan,nan,nan,nan,0.0,0.0,nan
412675654,nan,nan,-6.1638017,1.5802405,0.0,nan,nan,-0.0,nan,nan,nan,nan,nan,nan,0.0,0.0,nan
412876039,nan,nan,-6.1638017,1.5802405,0.0,nan,nan,-0.0,nan,nan,nan,nan,nan,nan,0.0,0.0,nan
413076117,nan,nan,-6.1638017,1.5802405,0.0,nan,nan,-0.0,nan,nan,nan,nan,nan,nan,0.0,0.0,nan
413296282,nan,nan,-6.1638017,1.5802405,0.0,nan,nan,-0.0,nan,nan,nan,nan,nan,nan,0.0,0.0,nan
413496450,nan,nan,-6.1638017,1.5802405,0.0,nan,nan,-0.0,nan,nan,nan,nan,nan,nan,0.0,0.0,nan
413696972,nan,nan,-6.1638017,1.5802405,0.0,nan,nan,-0.0,nan,nan,nan,nan,nan,nan,0.0,0.0,nan
413897035,nan,nan,-6.1638017,1.5802405,0.0,nan,nan,-0.0,nan,nan,nan,nan,nan,nan,0.0,0.0,nan
414097106,nan,nan,-6.1638017,1.5802405,0.0,nan,nan,-0.0,nan,nan,nan,nan,nan,nan,0.0,0.0,nan
414298032,nan,nan,nan,1.5802405,0.0,nan,nan,0.30200875,nan,nan,nan,nan,nan,nan,0.0,0.0,nan
414497580,nan,nan,nan,1.5802405,0.0,nan,nan,0.3886236,nan,nan,nan,nan,nan,nan,0.0,0.0,nan
414717718,nan,nan,nan,1.5802405,0.0,nan,nan,0.67565894,nan,nan,nan,nan,nan,nan,0.0,0.0,nan
414917880,nan,nan,nan,1.5802405,0.0,nan,nan,1.0,nan,nan,nan,nan,nan,nan,0.0,0.0,nan
415118185,nan,nan,nan,1.5802405,0.0,nan,nan,1.0,nan,nan,nan,nan,nan,nan,0.0,0.0,nan
415318359,nan,nan,nan,1.5802405,0.0,nan,nan,1.0,nan,nan,nan,nan,nan,nan,0.0,0.0,nan
415518514,nan,nan,nan,1.5802405,0.0,nan,nan,1.0,nan,nan,nan,nan,nan,nan,0.0,0.0,nan
415718666,nan,nan,nan,1.5802405,0.0,nan,nan,1.0,nan,nan,nan,nan,nan,nan,0.0,0.0,nan
415918944,nan,nan,nan,1.5802405,0.0,nan,nan,1.0,nan,nan,nan,nan,nan,nan,0.0,0.0,nan
416120277,nan,nan,nan,1.5802405,0.0,nan,nan,1.0,nan,nan,nan,nan,nan,nan,0.0,0.0,nan
416319456,nan,nan,nan,1.5802405,0.0,nan,nan,1.0,nan,nan,nan,nan,nan,nan,0.0,0.0,nan
416520306,nan,nan,nan,1.5802405,0.0,nan,nan,1.0,nan,nan,nan,nan,nan,nan,0.0,0.0,nan
416739810,nan,nan,nan,1.5802405,0.0,nan,nan,1.0,nan,nan,nan,nan,nan,nan,0.0,0.0,nan
416940049,nan,nan,nan,1.5802405,0.0,nan,nan,1.0,nan,nan,nan,nan,nan,nan,0.0,0.0,nan
417140134,nan,nan,nan,1.5802405,0.0,nan,nan,1.0,nan,nan,nan,nan,nan,nan,0.0,0.0,nan
417340303,nan,nan,nan,1.5802405,0.0,nan,nan,1.0,nan,nan,nan,nan,nan,nan,0.0,0.0,nan
417540598,nan,nan,nan,1.5802405,0.0,nan,nan,1.0,nan,nan,nan,nan,nan,nan,0.0,0.0,nan
417741035,nan,nan,nan,1.5802405,0.0,nan,nan,1.0,nan,nan,nan,nan,nan,nan,0.0,0.0,nan
417941028,nan,nan,nan,1.5802405,0.0,nan,nan,1.0,nan,nan,nan,nan,nan,nan,0.0,0.0,nan
418161152,nan,nan,nan,1.5802405,0.0,nan,nan,1.0,nan,nan,nan,nan,nan,nan,0.0,0.0,nan
418361558,nan,nan,nan,1.5802405,0.0,nan,nan,1.0,nan,nan,nan,nan,nan,nan,0.0,0.0,nan
418561663,nan,nan,nan,1.5802405,0.0,nan,nan,1.0,nan,nan,nan,nan,nan,nan,0.0,0.0,nan
418761795,nan,nan,nan,1.5802405,0.0,nan,nan,1.0,nan,nan,nan,nan,nan,nan,0.0,0.0,nan
418961890,nan,nan,nan,1.5802405,0.0,nan,nan,1.0,nan,nan,nan,nan,nan,nan,0.0,0.0,nan
419162185,nan,nan,nan,1.5802405,0.0,nan,nan,1.0,nan,nan,nan,nan,nan,nan,0.0,0.0,nan
419362435,nan,nan,nan,1.5802405,0.0,nan,nan,1.0,nan,nan,nan,nan,nan,nan,0.0,0.0,nan
419582563,nan,nan,nan,1.5802405,0.0,nan,nan,1.0,nan,nan,nan,nan,nan,nan,0.0,0.0,nan
419782762,nan,nan,nan,1.5802405,0.0,nan,nan,1.0,nan,nan,nan,nan,nan,nan,0.0,0.0,nan
419983018,nan,nan,nan,1.5802405,0.0,nan,nan,1.0,nan,nan,nan,nan,nan,nan,0.0,0.0,nan
420183465,nan,nan,nan,1.5802405,0.0,nan,nan,1.0,nan,nan,nan,nan,nan,nan,0.0,0.0,nan
420384027,nan,nan,nan,1.5802405,0.0,nan,nan,0.62012887,nan,nan,nan,nan,nan,nan,0.0,0.0,nan
420583752,nan,nan,-0.43068781,1.5802405,0.0,nan,nan,-0.0,nan,nan,nan,nan,nan,nan,0.0,0.0,nan
420783905,nan,nan,-0.43068781,1.5802405,0.0,nan,nan,-0.0,nan,nan,nan,nan,nan,nan,0.0,0.0,nan
420984075,nan,nan,-0.43068781,1.5802405,0.0,nan,nan,-0.0,nan,nan,nan,nan,nan,nan,0.0,0.0,nan
421184185,nan,nan,-0.43068781,1.5802405,0.0,nan,nan,-0.0,nan,nan,nan,nan,nan,nan,0.0,0.0,nan
421404375,nan,nan,-0.43068781,1.5802405,0.0,nan,nan,-0.0,nan,nan,nan,nan,nan,nan,0.0,0.0,nan
421604600,nan,nan,-0.43068781,1.5802405,0.0,nan,nan,0.0,nan,nan,nan,nan,nan,nan,0.0,0.0,nan
421805022,nan,nan,nan,1.5802405,0.0,nan,nan,-1.3179288,nan,nan,nan,nan,nan,nan,0.0,0.0,nan
422005121,nan,nan,nan,1.5802405,0.0,nan,nan,-1.6778057,nan,nan,nan,nan,nan,nan,0.0,0.0,nan
422205150,nan,nan,nan,1.5802405,0.0,nan,nan,-1.7485301,nan,nan,nan,nan,nan,nan,0.0,0.0,nan
422405419,nan,nan,nan,1.5802405,0.0,nan,nan,-1.7546959,nan,nan,nan,nan,nan,nan,0.0,0.0,nan
422605693,nan,nan,nan,1.5802405,0.0,nan,nan,-1.7909317,nan,nan,nan,nan,nan,nan,0.0,0.0,nan
422805793,nan,nan,nan,1.5802405,0.0,nan,nan,-1.7915058,nan,nan,nan,nan,nan,nan,0.0,0.0,nan
423005966,nan,nan,nan,1.5802405,0.0,nan,nan,-1.8073773,nan,nan,nan,nan,nan,nan,0.0,0.0,nan
424427397,nan,nan,nan,1.5802405,0.0,nan,nan,-1.7006557,nan,nan,nan,nan,nan,nan,0.0,0.0,nan
424627565,nan,nan,nan,1.5802405,0.0,nan,nan,-1.7004216,nan,nan,nan,nan,nan,nan,0.0,0.0,nan
424827983,nan,nan,nan,1.5802405,0.0,nan,nan,-1.6654505,nan,nan,nan,nan,nan,nan,0.0,0.0,nan
425028140,nan,nan,nan,1.5802405,0.0,nan,nan,-1.6303675,nan,nan,nan,nan,nan,nan,0.0,0.0,nan
425228174,nan,nan,nan,1.5802405,0.0,nan,nan,-1.2203119,nan,nan,nan,nan,nan,nan,0.0,0.0,nan
425448387,nan,nan,nan,1.5802405,0.0,nan,nan,-1.3606236,nan,nan,nan,nan,nan,nan,0.0,0.0,nan
425648618,nan,nan,nan,1.5802405,0.0,nan,nan,-1.0740159,nan,nan,nan,nan,nan,nan,0.0,0.0,nan
425849106,nan,nan,nan,1.5802405,0.0,nan,nan,-0.0,nan,nan,nan,nan,nan,nan,0.0,0.0,nan
426049060,nan,nan,-6.7976613,1.5802405,0.0,nan,nan,-0.0,nan,nan,nan,nan,nan,nan,0.0,0.0,nan
426249180,nan,nan,-6.7976613,1.5802405,0.0,nan,nan,-0.0,nan,nan,nan,nan,nan,nan,0.0,0.0,nan
426449645,nan,nan,-6.7976613,1.5802405,0.0,nan,nan,-0.0,nan,nan,nan,nan,nan,nan,0.0,0.0,nan
426649674,nan,nan,-6.7976613,1.5802405,0.0,nan,nan,-0.0,nan,nan,nan,nan,nan,nan,0.0,0.0,nan
426869833,nan,nan,-6.7976613,1.5802405,0.0,nan,nan,-0.0,nan,nan,nan,nan,nan,nan,0.0,0.0,nan
427070016,nan,nan,-6.7976613,1.5802405,0.0,nan,nan,-0.0,nan,nan,nan,nan,nan,nan,0.0,0.0,nan
427270318,nan,nan,-6.7976613,1.5802405,0.0,nan,nan,-0.0,nan,nan,nan,nan,nan,nan,0.0,0.0,nan
427470458,nan,nan,nan,1.5802405,0.0,nan,nan,0.02507974,nan,nan,nan,nan,nan,nan,0.0,0.0,nan
427670605,nan,nan,nan,1.5802405,0.0,nan,nan,0.46576637,nan,nan,nan,nan,nan,nan,0.0,0.0,nan
427870802,nan,nan,nan,1.5802405,0.0,nan,nan,0.7041041,nan,nan,nan,nan,nan,nan,0.0,0.0,nan
428071617,nan,nan,nan,1.5802405,0.0,nan,nan,0.72318316,nan,nan,nan,nan,nan,nan,-0.20610353,-0.07276063,nan
428271981,nan,nan,nan,1.5802405,0.0,nan,nan,0.6681433,nan,nan,nan,nan,nan,nan,-0.80695665,-0.007603697,nan
428472365,nan,nan,nan,1.5802405,0.0,nan,nan,0.6568231,nan,nan,nan,nan,nan,nan,-0.37554902,-0.0035468496,nan
428671738,nan,nan,nan,1.5802405,0.0,nan,nan,0.65123266,nan,nan,nan,nan,nan,nan,0.00029753076,2.8100033e-06,nan
428872011,nan,nan,nan,1.5802405,0.0,nan,nan,0.65119547,nan,nan,nan,nan,nan,nan,-3.0404834e-08,-2.871559e-10,nan
429092088,nan,nan,nan,1.5802405,0.0,nan,nan,0.7364808,nan,nan,nan,nan,nan,nan,-3.8010345e-11,-3.5898533e-13,nan
429292262,nan,nan,nan,1.5802405,0.0,nan,nan,0.73555505,nan,nan,nan,nan,nan,nan,4.603574e-14,4.3478056e-16,nan
429492458,nan,nan,nan,1.5802405,0.0,nan,nan,0.786209,nan,nan,nan,nan,nan,nan,-2.4079534e-17,-2.2741708e-19,nan
429693040,nan,nan,nan,1.5802405,0.0,nan,nan,0.888462,nan,nan,nan,nan,nan,nan,1.524619e-21,1.4399149e-23,nan
429893031,nan,nan,nan,1.5802405,0.0,nan,nan,0.9622482,nan,nan,nan,nan,nan,nan,8.862077e-24,8.369711e-26,nan
430093128,nan,nan,nan,1.5802405,0.0,nan,nan,0.99979454,nan,nan,nan,nan,nan,nan,-8.37796e-27,-7.9124924e-29,nan
430293233,nan,nan,nan,1.5802405,0.0,nan,nan,0.99426484,nan,nan,nan,nan,nan,nan,3.559061e-30,3.3613246e-32,nan
430493545,nan,nan,nan,1.5802405,0.0,nan,nan,0.9944705,nan,nan,nan,nan,nan,nan,4.4075983e-34,4.162715e-36,nan
430693733,nan,nan,nan,1.5802405,0.0,nan,nan,0.99437433,nan,nan,nan,nan,nan,nan,-1.891065e-36,-1.7859999e-38,nan
430913866,nan,nan,nan,1.5802405,0.0,nan,nan,0.8714989,nan,nan,nan,nan,nan,nan,1.35465e-40,1.28e-42,nan
431114349,nan,nan,nan,1.5802405,0.0,nan,nan,0.8769677,nan,nan,nan,nan,nan,nan,-4.78e-43,-4e-45,nan
431314334,nan,nan,nan,1.5802405,0.0,nan,nan,0.87342054,nan,nan,nan,nan,nan,nan,0.0,0.0,nan
431514466,nan,nan,nan,1.5802405,0.0,nan,nan,0.848261,nan,nan,nan,nan,nan,nan,0.0016393883,1.5483107e-05,nan
431714634,nan,nan,nan,1.5802405,0.0,nan,nan,0.79475456,nan,nan,nan,nan,nan,nan,0.07316802,0.0006910311,nan
431914924,nan,nan,nan,1.5802405,0.0,nan,nan,0.7861099,nan,nan,nan,nan,nan,nan,0.026680134,0.00025197899,nan
432115206,nan,nan,nan,1.5802405,0.0,nan,nan,0.75144845,nan,nan,nan,nan,nan,nan,0.023733389,0.0002241486,nan
432315300,nan,nan,nan,1.5802405,0.0,nan,nan,0.7293736,nan,nan,nan,nan,nan,nan,-0.0002363249,-2.2319566e-06,nan
432515506,nan,nan,nan,1.5802405,0.0,nan,nan,0.7007236,nan,nan,nan,nan,nan,nan,8.169078e-08,7.7152384e-10,nan
432735724,nan,nan,nan,1.5802405,0.0,nan,nan,0.699744,nan,nan,nan,nan,nan,nan,4.4569962e-11,4.2093843e-13,nan
432935985,nan,nan,nan,1.5802405,0.0,nan,nan,0.73714,nan,nan,nan,nan,nan,nan,-2.257137e-14,-2.1317399e-16,nan
433136117,nan,nan,nan,1.5802405,0.0,nan,nan,0.74365354,nan,nan,nan,nan,nan,nan,8.2910505e-19,7.830434e-21,nan
433336303,nan,nan,nan,1.5802405,0.0,nan,nan,0.7718915,nan,nan,nan,nan,nan,nan,8.830575e-21,8.3399845e-23,nan
433536537,nan,nan,nan,1.5802405,0.0,nan,nan,0.8135291,nan,nan,nan,nan,nan,nan,-8.056073e-24,-7.608511e-26,nan
433737001,nan,nan,nan,1.5802405,0.0,nan,nan,0.8529594,nan,nan,nan,nan,nan,nan,3.291533e-27,3.108669e-29,nan
433936996,nan,nan,nan,1.5802405,0.0,nan,nan,0.9016638,nan,nan,nan,nan,nan,nan,1.4556323e-30,1.3747634e-32,nan
434137127,nan,nan,nan,1.5802405,0.0,nan,nan,0.92411727,nan,nan,nan,nan,nan,nan,-8.314428e-34,-7.852513e-36,nan
434337776,nan,nan,nan,1.5802405,0.0,nan,nan,0.92504996,nan,nan,nan,nan,nan,nan,1.093365e-37,1.032622e-39,nan
434537581,nan,nan,nan,1.5802405,0.0,nan,nan,0.92183983,nan,nan,nan,nan,nan,nan,2.56533e-40,2.423e-42,nan
434757767,nan,nan,nan,1.5802405,0.0,nan,nan,0.90307516,nan,nan,nan,nan,nan,nan,-5.6e-44,0.0,nan
434957857,nan,nan,nan,1.5802405,0.0,nan,nan,0.8811568,nan,nan,nan,nan,nan,nan,0.0,0.0,nan
435158322,nan,nan,nan,1.5802405,0.0,nan,nan,0.8774596,nan,nan,nan,nan,nan,nan,0.0,0.0,nan
435358357,nan,nan,nan,1.5802405,0.0,nan,nan,0.50743306,nan,nan,nan,nan,nan,nan,0.0,0.0,nan
435558518,nan,nan,nan,1.5802405,0.0,nan,nan,0.2587757,nan,nan,nan,nan,nan,nan,0.0,0.0,nan
435758689,nan,nan,-0.56972224,1.5802405,0.0,nan,nan,-0.0,nan,nan,nan,nan,nan,nan,0.0,0.0,nan
435958947,nan,nan,-0.56972224,1.5802405,0.0,nan,nan,-0.0,nan,nan,nan,nan,nan,nan,0.0,0.0,nan
436159824,nan,nan,-0.56972224,1.5802405,0.0,nan,nan,-0.0,nan,nan,nan,nan,nan,nan,0.0,0.0,nan
436379489,nan,nan,-0.56972224,1.5802405,0.0,nan,nan,-0.0,nan,nan,nan,nan,nan,nan,0.0,0.0,nan
436579531,nan,nan,-0.56972224,1.5802405,0.0,nan,nan,-0.0,nan,nan,nan,nan,nan,nan,0.0,0.0,nan
436779929,nan,nan,-0.56972224,1.5802405,0.0,nan,nan,0.0,nan,nan,nan,nan,nan,nan,0.0,0.0,nan
436980066,nan,nan,-0.56972224,1.5802405,0.0,nan,nan,0.0,nan,nan,nan,nan,nan,nan,0.0,0.0,nan
437180131,nan,nan,-0.56972224,1.5802405,0.0,nan,nan,0.0,nan,nan,nan,nan,nan,nan,0.0,0.0,nan
437380334,nan,nan,nan,1.5802405,0.0,nan,nan,-0.22799301,nan,nan,nan,nan,nan,nan,0.0,0.0,nan
437580567,nan,nan,nan,1.5802405,0.0,nan,nan,-0.21389732,nan,nan,nan,nan,nan,nan,0.0,0.0,nan
437780968,nan,nan,nan,1.5802405,0.0,nan,nan,-0.43344587,nan,nan,nan,nan,nan,nan,0.0,0.0,nan
438001015,nan,nan,nan,1.5802405,0.0,nan,nan,-0.5278299,nan,nan,nan,nan,nan,nan,0.0,0.0,nan
438201188,nan,nan,nan,1.5802405,0.0,nan,nan,-0.52329516,nan,nan,nan,nan,nan,nan,0.0,0.0,nan
438401515,nan,nan,nan,1.5802405,0.0,nan,nan,-0.07793236,nan,nan,nan,nan,nan,nan,-1.9957763e-05,0.0021131753,nan
438601675,nan,nan,-0.8941987,1.5802405,0.0,nan,nan,-0.0,nan,nan,nan,nan,nan,nan,0.05402089,0.0021878034,nan
438801771,nan,nan,-0.8941987,1.5802405,0.0,nan,nan,-0.0,nan,nan,nan,nan,nan,nan,0.076281935,0.0007214743,nan
439001922,nan,nan,-0.8941987,1.5802405,0.0,nan,nan,-0.0,nan,nan,nan,nan,nan,nan,0.107708365,0.0010172438,nan
439202216,nan,nan,-0.8941987,1.5802405,0.0,nan,nan,-0.0,nan,nan,nan,nan,nan,nan,0.11812394,0.0011156147,nan
439422504,nan,nan,-0.8941987,1.5802405,0.0,nan,nan,-0.0,nan,nan,nan,nan,nan,nan,0.031474315,0.08822457,nan
439622534,nan,nan,-0.8941987,1.5802405,0.0,nan,nan,-0.0,nan,nan,nan,nan,nan,nan,0.0071663866,0.102853894,nan
439822774,nan,nan,-0.8941987,1.5802405,0.0,nan,nan,-0.0,nan,nan,nan,nan,nan,nan,0.040632077,0.065998055,nan
440023148,nan,nan,-0.8941987,1.5802405,0.0,nan,nan,-0.0,nan,nan,nan,nan,nan,nan,0.1332638,0.0063177445,nan
440223797,nan,nan,-0.8941987,1.5802405,0.0,nan,nan,-0.0,nan,nan,nan,nan,nan,nan,0.1413585,0.0012622668,nan
440424272,nan,nan,-0.8941987,1.5802405,0.0,nan,nan,-0.0,nan,nan,nan,nan,nan,nan,-0.0053216666,-5.024729e-05,nan
440624299,nan,nan,-0.8941987,1.5802405,0.0,nan,nan,-0.0,nan,nan,nan,nan,nan,nan,3.7880973e-06,3.5735404e-08,nan
440823816,nan,nan,-0.8941987,1.5802405,0.0,nan,nan,-0.0,nan,nan,nan,nan,nan,nan,-8.435304e-09,-7.968141e-11,nan
441024068,nan,nan,-0.8941987,1.5802405,0.0,nan,nan,-0.0,nan,nan,nan,nan,nan,nan,0.028526884,0.0002694205,nan
441244194,nan,nan,-0.8941987,1.5802405,0.0,nan,nan,-0.0,nan,nan,nan,nan,nan,nan,0.058362324,0.0005511996,nan
441444366,nan,nan,-0.8941987,1.5802405,0.0,nan,nan,-0.0,nan,nan,nan,nan,nan,nan,0.0013043673,1.2319022e-05,nan
441644612,nan,nan,-0.8941987,1.5802405,0.0,nan,nan,-0.0,nan,nan,nan,nan,nan,nan,-8.8449845e-08,-8.353594e-10,nan
441845012,nan,nan,-0.8941987,1.5802405,0.0,nan,nan,-0.0,nan,nan,nan,nan,nan,nan,-3.6546106e-07,3.8665014e-05,nan
442045042,nan,nan,-0.8941987,1.5802405,0.0,nan,nan,-0.0,nan,nan,nan,nan,nan,nan,-1.4258102e-09,1.5101602e-07,nan
442245206,nan,nan,nan,1.5802405,0.0,nan,nan,-0.4862417,nan,nan,nan,nan,nan,nan,-1.8378235e-12,1.9459878e-10,nan
442445531,nan,nan,nan,1.5802405,0.0,nan,nan,-1.1740391,nan,nan,nan,nan,nan,nan,6.3701393e-16,-6.745708e-14,nan
442645678,nan,nan,nan,1.5802405,0.0,nan,nan,-1.4753125,nan,nan,nan,nan,nan,nan,2.2208647e-19,-2.3509995e-17,nan
442865785,nan,nan,nan,1.5802405,0.0,nan,nan,-1.4865583,nan,nan,nan,nan,nan,nan,-1.7574213e-22,1.860934e-20,nan
443066031,nan,nan,nan,1.5802405,0.0,nan,nan,-1.4978415,nan,nan,nan,nan,nan,nan,6.724577e-27,-7.1308603e-25,nan
443266313,nan,nan,nan,1.5802405,0.0,nan,nan,-1.5258937,nan,nan,nan,nan,nan,nan,6.85206e-29,-7.254758e-27,nan
443466452,nan,nan,nan,1.5802405,0.0,nan,nan,-1.5633025,nan,nan,nan,nan,nan,nan,-6.2634124e-32,6.631985e-30,nan
443666615,nan,nan,nan,1.5802405,0.0,nan,nan,-1.5740114,nan,nan,nan,nan,nan,nan,2.5648084e-35,-2.7159525e-33,nan
443866774,nan,nan,nan,1.5802405,0.0,nan,nan,-1.5742664,nan,nan,nan,nan,nan,nan,-4.9959973e-38,5.2902064e-36,nan
444087765,nan,nan,nan,1.5802405,0.0,nan,nan,-1.5655951,nan,nan,nan,nan,nan,nan,-1.4461e-41,1.531244e-39,nan
444287326,nan,nan,nan,1.5802405,0.0,nan,nan,-1.5621831,nan,nan,nan,nan,nan,nan,1.1e-44,-1.15e-42,nan
444487412,nan,nan,nan,1.5802405,0.0,nan,nan,-1.5565993,nan,nan,nan,nan,nan,nan,0.0,0.0,nan
444687594,nan,nan,nan,1.5802405,0.0,nan,nan,-1.5478396,nan,nan,nan,nan,nan,nan,0.0,0.0,nan
444887934,nan,nan,nan,1.5802405,0.0,nan,nan,-1.5426497,nan,nan,nan,nan,nan,nan,0.0,0.0,nan
445088135,nan,nan,nan,1.5802405,0.0,nan,nan,-1.5400844,nan,nan,nan,nan,nan,nan,0.0,0.0,nan
445288208,nan,nan,nan,1.5802405,0.0,nan,nan,-1.5317012,nan,nan,nan,nan,nan,nan,0.0,0.0,nan
445488408,nan,nan,nan,1.5802405,0.0,nan,nan,-1.5240288,nan,nan,nan,nan,nan,nan,0.0,0.0,nan
445709012,nan,nan,nan,1.5802405,0.0,nan,nan,-1.4495457,nan,nan,nan,nan,nan,nan,0.0,0.0,nan
445909014,nan,nan,nan,1.5802405,0.0,nan,nan,-0.22819678,nan,nan,nan,nan,nan,nan,0.0,0.0,nan
446109138,nan,nan,-6.1486473,1.5802405,0.0,nan,nan,-0.0,nan,nan,nan,nan,nan,nan,0.0,0.0,nan
446309568,nan,nan,-6.1486473,1.5802405,0.0,nan,nan,-0.0,nan,nan,nan,nan,nan,nan,0.0,0.0,nan
446509572,nan,nan,-6.1486473,1.5802405,0.0,nan,nan,-0.0,nan,nan,nan,nan,nan,nan,0.0,0.0,nan
446709783,nan,nan,-6.1486473,1.5802405,0.0,nan,nan,-0.0,nan,nan,nan,nan,nan,nan,0.0,0.0,nan
446909860,nan,nan,-6.1486473,1.5802405,0.0,nan,nan,-0.0,nan,nan,nan,nan,nan,nan,0.0,0.0,nan
447130339,nan,nan,-6.1486473,1.5802405,0.0,nan,nan,-0.0,nan,nan,nan,nan,nan,nan,0.0,0.0,nan
447330353,nan,nan,nan,1.5802405,0.0,nan,nan,0.112072855,nan,nan,nan,nan,nan,nan,0.0,0.0,nan
447530482,nan,nan,nan,1.5802405,0.0,nan,nan,0.25189397,nan,nan,nan,nan,nan,nan,0.0,0.0,nan
447730645,nan,nan,nan,1.5802405,0.0,nan,nan,0.304825,nan,nan,nan,nan,nan,nan,0.0,0.0,nan
447930834,nan,nan,nan,1.5802405,0.0,nan,nan,0.32873085,nan,nan,nan,nan,nan,nan,0.0,0.0,nan
448131232,nan,nan,nan,1.5802405,0.0,nan,nan,0.34399334,nan,nan,nan,nan,nan,nan,0.0,0.0,nan
448331315,nan,nan,nan,1.5802405,0.0,nan,nan,0.4512186,nan,nan,nan,nan,nan,nan,0.0,0.0,nan
448531452,nan,nan,nan,1.5802405,0.0,nan,nan,0.6512962,nan,nan,nan,nan,nan,nan,0.0,0.0,nan
448731920,nan,nan,nan,1.5802405,0.0,nan,nan,0.8976277,nan,nan,nan,nan,nan,nan,0.0,0.0,nan
448931973,nan,nan,nan,1.5802405,0.0,nan,nan,0.9590111,nan,nan,nan,nan,nan,nan,0.0,0.0,nan
449152105,nan,nan,nan,1.5802405,0.0,nan,nan,0.97010666,nan,nan,nan,nan,nan,nan,0.0,0.0,nan
449352303,nan,nan,nan,1.5802405,0.0,nan,nan,0.9866673,nan,nan,nan,nan,nan,nan,0.0,0.0,nan
449552547,nan,nan,nan,1.5802405,0.0,nan,nan,1.0,nan,nan,nan,nan,nan,nan,0.0,0.0,nan
449753361,nan,nan,nan,1.5802405,0.0,nan,nan,0.9999998,nan,nan,nan,nan,nan,nan,0.0,0.0,nan
449953112,nan,nan,nan,1.5802405,0.0,nan,nan,1.0,nan,nan,nan,nan,nan,nan,0.0,0.0,nan
450153123,nan,nan,nan,1.5802405,0.0,nan,nan,1.0,nan,nan,nan,nan,nan,nan,0.0,0.0,nan
450353892,nan,nan,nan,1.5802405,0.0,nan,nan,1.0,nan,nan,nan,nan,nan,nan,0.0,0.0,nan
450553616,nan,nan,nan,1.5802405,0.0,nan,nan,1.0,nan,nan,nan,nan,nan,nan,0.0,0.0,nan
450773692,nan,nan,nan,1.5802405,0.0,nan,nan,1.0,nan,nan,nan,nan,nan,nan,0.0,0.0,nan
450973875,nan,nan,nan,1.5802405,0.0,nan,nan,1.0,nan,nan,nan,nan,nan,nan,0.0,0.0,nan
451174196,nan,nan,nan,1.5802405,0.0,nan,nan,1.0,nan,nan,nan,nan,nan,nan,0.0,0.0,nan
451374462,nan,nan,nan,1.5802405,0.0,nan,nan,1.0,nan,nan,nan,nan,nan,nan,0.0,0.0,nan
451574535,nan,nan,nan,1.5802405,0.0,nan,nan,1.0,nan,nan,nan,nan,nan,nan,0.0,0.0,nan
451774712,nan,nan,nan,1.5802405,0.0,nan,nan,1.0,nan,nan,nan,nan,nan,nan,0.0,0.0,nan
451974947,nan,nan,nan,1.5802405,0.0,nan,nan,1.0,nan,nan,nan,nan,nan,nan,0.0,0.0,nan
452195215,nan,nan,nan,1.5802405,0.0,nan,nan,1.0,nan,nan,nan,nan,nan,nan,0.0,0.0,nan
452395385,nan,nan,nan,1.5802405,0.0,nan,nan,1.0,nan,nan,nan,nan,nan,nan,0.0,0.0,nan
452595511,nan,nan,nan,1.5802405,0.0,nan,nan,1.0,nan,nan,nan,nan,nan,nan,0.0,0.0,nan
452795756,nan,nan,nan,1.5802405,-0.0,nan,nan,1.0,nan,nan,nan,nan,nan,nan,0.0,0.0,nan
452996036,nan,nan,nan,1.5802405,-0.0,nan,nan,1.0,nan,nan,nan,nan,nan,nan,0.0,0.0,nan
453196117,nan,nan,nan,1.5802405,-0.0,nan,nan,1.0,nan,nan,nan,nan,nan,nan,0.0,0.0,nan
453396331,nan,nan,nan,1.5802405,-0.0,nan,nan,1.0,nan,nan,nan,nan,nan,nan,0.0,0.0,nan
453596573,nan,nan,nan,1.5802405,-0.0,nan,nan,1.0,nan,nan,nan,nan,nan,nan,0.0,0.0,nan
453797026,nan,nan,nan,1.5802405,0.0,nan,nan,-0.0,nan,nan,nan,nan,nan,nan,0.0,0.0,nan
453997009,nan,nan,-0.7306989,1.5802405,0.0,nan,nan,-0.0,nan,nan,nan,nan,nan,nan,0.0,0.0,nan
454217190,nan,nan,-0.7306989,1.5802405,-0.0,nan,nan,-0.0,nan,nan,nan,nan,nan,nan,0.0,0.0,nan
454417498,nan,nan,-0.7306989,1.5802405,-0.0,nan,nan,-0.0,nan,nan,nan,nan,nan,nan,0.0,0.0,nan
454617636,nan,nan,-0.7306989,1.5802405,0.0,nan,nan,-0.0,nan,nan,nan,nan,nan,nan,0.0,0.0,nan
454817765,nan,nan,-0.7306989,1.5802405,-0.0,nan,nan,-0.0,nan,nan,nan,nan,nan,nan,0.0,0.0,nan
455017965,nan,nan,-0.7306989,1.5802405,-0.0,nan,nan,-0.0,nan,nan,nan,nan,nan,nan,0.0,0.0,nan
455218208,nan,nan,-0.7306989,1.5802405,0.0,nan,nan,-0.0,nan,nan,nan,nan,nan,nan,0.0,0.0,nan
455418452,nan,nan,-0.7306989,1.5802405,0.0,nan,nan,-0.0,nan,nan,nan,nan,nan,nan,0.0,0.0,nan
455618555,nan,nan,-0.7306989,1.5802405,-0.0,nan,nan,-0.0,nan,nan,nan,nan,nan,nan,0.0,0.0,nan
455838746,nan,nan,-0.7306989,1.5802405,0.0,nan,nan,-0.0,nan,nan,nan,nan,nan,nan,0.0,0.0,nan
456039361,nan,nan,-0.7306989,1.5802405,-0.0,nan,nan,-0.0,nan,nan,nan,nan,nan,nan,0.0,0.0,nan
456239495,nan,nan,-0.7306989,1.5802405,0.0,nan,nan,-0.0,nan,nan,nan,nan,nan,nan,0.0,0.0,nan
456439642,nan,nan,-0.7306989,1.5802405,0.0,nan,nan,-0.0,nan,nan,nan,nan,nan,nan,0.0,0.0,nan
456639603,nan,nan,nan,1.5802405,0.0,nan,nan,0.24432518,nan,nan,nan,nan,nan,nan,0.0,0.0,nan
456839958,nan,nan,nan,1.5802405,0.0,nan,nan,0.4007248,nan,nan,nan,nan,nan,nan,0.0,0.0,nan
457040040,nan,nan,nan,1.5802405,0.0,nan,nan,0.60500395,nan,nan,nan,nan,nan,nan,0.0,0.0,nan
457240158,nan,nan,nan,1.5802405,0.0,nan,nan,0.83550197,nan,nan,nan,nan,nan,nan,0.0,0.0,nan
457440371,nan,nan,nan,1.5802405,0.0,nan,nan,1.0,nan,nan,nan,nan,nan,nan,0.0,0.0,nan
457640618,nan,nan,nan,1.5802405,0.0,nan,nan,0.99999994,nan,nan,nan,nan,nan,nan,0.0,0.0,nan
457861000,nan,nan,nan,1.5802405,0.0,nan,nan,1.0,nan,nan,nan,nan,nan,nan,0.0,0.0,nan
458061086,nan,nan,nan,1.5802405,0.0,nan,nan,1.0,nan,nan,nan,nan,nan,nan,0.0,0.0,nan
458261171,nan,nan,nan,1.5802405,0.0,nan,nan,1.0,nan,nan,nan,nan,nan,nan,0.0,0.0,nan
458461621,nan,nan,nan,1.5802405,0.0,nan,nan,1.0,nan,nan,nan,nan,nan,nan,0.0,0.0,nan
458661673,nan,nan,nan,nan,-0.7554102,nan,nan,1.0,nan,nan,nan,nan,nan,nan,0.0,0.0,nan
458861770,nan,nan,nan,nan,-2.6481047,nan,nan,1.0,nan,nan,nan,nan,nan,nan,0.0,0.0,nan
459061966,nan,nan,nan,nan,-3.483394,nan,nan,1.0,nan,nan,nan,nan,nan,nan,0.0,0.0,nan
459262314,nan,nan,nan,nan,-3.4825401,nan,nan,1.0,nan,nan,nan,nan,nan,nan,0.0,0.0,nan
459482493,nan,nan,nan,nan,-3.480759,nan,nan,1.0,nan,nan,nan,nan,nan,nan,0.0,0.0,nan
459682602,nan,nan,nan,nan,-3.4807644,nan,nan,1.0,nan,nan,nan,nan,nan,nan,0.0,0.0,nan
459882793,nan,nan,nan,nan,-3.4825504,nan,nan,1.0,nan,nan,nan,nan,nan,nan,0.0,0.0,nan
460083425,nan,nan,nan,nan,-3.481104,nan,nan,1.0,nan,nan,nan,nan,nan,nan,0.0,0.0,nan
460284074,nan,nan,nan,nan,-3.4856732,nan,nan,1.0,nan,nan,nan,nan,nan,nan,0.0,0.0,nan
460483438,nan,nan,nan,nan,-3.4825492,nan,nan,1.0,nan,nan,nan,nan,nan,nan,0.0,0.0,nan
460683577,nan,nan,nan,nan,-3.4810994,nan,nan,1.0,nan,nan,nan,nan,nan,nan,0.0,0.0,nan
460883924,nan,nan,nan,nan,-3.4890969,nan,nan,1.0,nan,nan,nan,nan,nan,nan,0.0,0.0,nan
461084142,nan,nan,nan,nan,-3.4825344,nan,nan,1.0,nan,nan,nan,nan,nan,nan,0.0,0.0,nan
461304208,nan,nan,nan,nan,-3.4799337,nan,nan,1.0,nan,nan,nan,nan,nan,nan,0.0,0.0,nan
461504394,nan,nan,nan,nan,-3.484217,nan,nan,1.0,nan,nan,nan,nan,nan,nan,0.0,0.0,nan
461704722,nan,nan,nan,nan,-3.4825492,nan,nan,1.0,nan,nan,nan,nan,nan,nan,0.0,0.0,nan
461905111,nan,nan,nan,nan,-3.4805267,nan,nan,1.0,nan,nan,nan,nan,nan,nan,0.0,0.0,nan
462105063,nan,nan,nan,nan,-3.4842546,nan,nan,1.0,nan,nan,nan,nan,nan,nan,0.0,0.0,nan
462305209,nan,nan,nan,nan,-3.4825492,nan,nan,1.0,nan,nan,nan,nan,nan,nan,0.0,0.0,nan
462506441,nan,nan,nan,nan,-3.479938,nan,nan,1.0,nan,nan,nan,nan,nan,nan,0.0,0.0,nan
462705685,nan,nan,nan,nan,-3.484217,nan,nan,1.0,nan,nan,nan,nan,nan,nan,0.0,0.0,nan
462925844,nan,nan,nan,nan,-3.4808211,nan,nan,1.0,nan,nan,nan,nan,nan,nan,0.0,0.0,nan
463126024,nan,nan,nan,nan,-3.3793545,nan,nan,1.0,nan,nan,nan,nan,nan,nan,0.0,0.0,nan
463326361,nan,nan,nan,nan,-3.4244964,nan,nan,1.0,nan,nan,nan,nan,nan,nan,0.0,0.0,nan
463526509,nan,nan,nan,nan,-3.1598725,nan,nan,1.0,nan,nan,nan,nan,nan,nan,0.0,0.0,nan
463726655,nan,nan,nan,nan,-1.3175724,nan,nan,1.0,nan,nan,nan,nan,nan,nan,0.0,0.0,nan
463926832,nan,nan,nan,1.4348722,0.0,nan,nan,1.0,nan,nan,nan,nan,nan,nan,0.0,0.0,nan
464127361,nan,nan,nan,1.4312407,-0.0,nan,nan,1.0,nan,nan,nan,nan,nan,nan,0.0,0.0,nan
464327321,nan,nan,nan,1.4275537,0.0,nan,nan,1.0,nan,nan,nan,nan,nan,nan,0.0,0.0,nan
464547461,nan,nan,nan,1.4232919,0.0,nan,nan,1.0,nan,nan,nan,nan,nan,nan,0.0,0.0,nan
464747757,nan,nan,nan,1.4195372,-0.0,nan,nan,1.0,nan,nan,nan,nan,nan,nan,0.0,0.0,nan
464948012,nan,nan,nan,1.4158068,0.0,nan,nan,1.0,nan,nan,nan,nan,nan,nan,0.0,0.0,nan
465148098,nan,nan,nan,1.4123158,0.0,nan,nan,1.0,nan,nan,nan,nan,nan,nan,0.0,0.0,nan
465348250,nan,nan,nan,1.4088975,0.0,nan,nan,1.0,nan,nan,nan,nan,nan,nan,0.0,0.0,nan
465548553,nan,nan,nan,1.4054884,0.0,nan,nan,1.0,nan,nan,nan,nan,nan,nan,0.0,0.0,nan
465748751,nan,nan,nan,1.4021273,-0.0,nan,nan,1.0,nan,nan,nan,nan,nan,nan,0.0,0.0,nan
465949020,nan,nan,nan,1.3988132,0.0,nan,nan,1.0,nan,nan,nan,nan,nan,nan,0.0,0.0,nan
466149148,nan,nan,nan,1.395456,0.0,nan,nan,1.0,nan,nan,nan,nan,nan,nan,0.0,0.0,nan
466369632,nan,nan,nan,1.3917267,-0.0,nan,nan,1.0,nan,nan,nan,nan,nan,nan,0.0,0.0,nan
466569677,nan,nan,nan,1.3882552,0.0,nan,nan,1.0,nan,nan,nan,nan,nan,nan,0.0,0.0,nan
466769739,nan,nan,nan,1.3848709,0.0,nan,nan,1.0,nan,nan,nan,nan,nan,nan,0.0,0.0,nan
466969863,nan,nan,nan,1.3816663,0.0,nan,nan,1.0,nan,nan,nan,nan,nan,nan,0.0,0.0,nan
467170154,nan,nan,nan,1.3785664,0.0,nan,nan,1.0,nan,nan,nan,nan,nan,nan,0.0,0.0,nan
467370417,nan,nan,nan,1.3754449,0.0,nan,nan,1.0,nan,nan,nan,nan,nan,nan,0.0,0.0,nan
467570509,nan,nan,nan,1.3724076,0.0,nan,nan,1.0,nan,nan,nan,nan,nan,nan,0.0,0.0,nan
467790677,nan,nan,nan,1.3691142,0.0,nan,nan,1.0,nan,nan,nan,nan,nan,nan,0.0,0.0,nan
467990999,nan,nan,nan,1.3662097,0.0,nan,nan,1.0,nan,nan,nan,nan,nan,nan,0.0,0.0,nan
468191428,nan,nan,nan,1.3631412,0.0,nan,nan,1.0,nan,nan,nan,nan,nan,nan,0.0,0.0,nan
468391335,nan,nan,nan,1.3600528,0.0,nan,nan,1.0,nan,nan,nan,nan,nan,nan,0.0,0.0,nan
468992019,nan,nan,nan,1.3508962,0.0,nan,nan,1.0,nan,nan,nan,nan,nan,nan,0.0,0.0,nan
469192128,nan,nan,nan,1.3481001,0.0,nan,nan,1.0,nan,nan,nan,nan,nan,nan,0.0,0.0,nan
469412315,nan,nan,nan,1.3450041,0.0,nan,nan,1.0,nan,nan,nan,nan,nan,nan,0.0,0.0,nan
469612574,nan,nan,nan,1.3422638,0.0,nan,nan,1.0,nan,nan,nan,nan,nan,nan,0.0,0.0,nan
469812912,nan,nan,nan,1.3395054,0.0,nan,nan,1.0,nan,nan,nan,nan,nan,nan,0.0,0.0,nan
470013120,nan,nan,nan,1.3368663,0.0,nan,nan,1.0,nan,nan,nan,nan,nan,nan,0.0,0.0,nan
470213167,nan,nan,nan,1.3340747,0.0,nan,nan,1.0,nan,nan,nan,nan,nan,nan,0.0,0.0,nan
470413888,nan,nan,nan,1.3312411,0.0,nan,nan,1.0,nan,nan,nan,nan,nan,nan,0.0,0.0,nan
470613919,nan,nan,nan,1.3283321,0.0,nan,nan,1.0,nan,nan,nan,nan,nan,nan,0.0,0.0,nan
470813894,nan,nan,nan,1.3255954,0.0,nan,nan,1.0,nan,nan,nan,nan,nan,nan,0.0,0.0,nan
