timestamp,heartbeat_time,data_rate,rate_multiplier,rate_rx,rate_tx,rate_txerr,remote_system_id,remote_component_id,remote_type,remote_system_status,type,mode,flow_control,forwarding,mavlink_v2,ftp,streams
350197250,350193082,1200.0,0.36675593,0.0644229,1.019864,0.0,255,0,6,4,0,0,0,1,1,1,36
351203197,350193082,1200.0,0.36675593,0.02085402,1.021847,0.0,255,0,6,4,0,0,0,1,1,1,36
351286656,351286410,1200.0,0.36675593,0.02085402,1.021847,0.0,255,0,6,4,0,0,0,1,1,1,36
352296342,351286410,1200.0,0.36675593,0.020954423,1.2223413,0.0,255,0,6,4,0,0,0,1,1,1,36
352328281,352322154,1200.0,0.36675593,0.020954423,1.2223413,0.0,255,0,6,4,0,0,0,1,1,1,36
353333142,352322154,1200.0,0.36675593,0.020816274,1.0527087,0.0,255,0,6,4,0,0,0,1,1,1,36
353353303,353346162,1200.0,0.36675593,0.020816274,1.0527087,0.0,255,0,6,4,0,0,0,1,1,1,36
354194559,354191163,1200.0,0.36675593,0.020872489,0.92733485,0.0,255,0,6,4,0,0,0,1,1,1,36
355201841,354191163,1200.0,0.36675593,0.0467411,1.2928389,0.0,255,0,6,4,0,0,0,1,1,1,36
355211254,355207131,1200.0,0.36675593,0.0467411,1.2928389,0.0,255,0,6,4,0,0,0,1,1,1,36
356217402,355207131,1200.0,0.36675593,0.020950744,0.7642033,0.0,255,0,6,4,0,0,0,1,1,1,36
356237234,356234202,1200.0,0.36675593,0.020950744,0.7642033,0.0,255,0,6,4,0,0,0,1,1,1,36
357243245,357242045,1200.0,0.36675593,0.020913044,1.5386025,0.0,255,0,6,4,0,0,0,1,1,1,36
358233897,358229612,1200.0,0.36675593,0.020875622,1.0835441,0.0,255,0,6,4,0,0,0,1,1,1,36
359235193,358229612,1200.0,0.36675593,0.02098143,0.93717057,0.0,255,0,6,4,0,0,0,1,1,1,36
359285364,359283207,1200.0,0.36675593,0.02098143,0.93717057,0.0,255,0,6,4,0,0,0,1,1,1,36
360294478,360293044,1200.0,0.36675593,0.020854043,1.1648473,0.0,255,0,6,4,0,0,0,1,1,1,36
361191602,361185104,1200.0,0.36675593,0.020993134,0.9986734,0.0,255,0,6,4,0,0,0,1,1,1,36
362200204,361185104,1200.0,0.36675593,0.020902323,1.0690045,0.0,255,0,6,4,0,0,0,1,1,1,36
362220233,362216037,1200.0,0.36675593,0.020902323,1.0690045,0.0,255,0,6,4,0,0,0,1,1,1,36
363227299,362216037,1200.0,0.36675593,0.020916313,1.0786841,0.0,255,0,6,4,0,0,0,1,1,1,36
363257688,363248792,1200.0,0.36675593,0.020916313,1.0786841,0.0,255,0,6,4,0,0,0,1,1,1,36
364206445,364206201,1200.0,0.36675593,0.020791462,1.0405631,0.0,255,0,6,4,0,0,0,1,1,1,36
365216275,364206201,1200.0,0.36675593,0.0465708,0.91655296,0.0,255,0,6,4,0,0,0,1,1,1,36
365237567,365229260,1200.0,0.36675593,0.0465708,0.91655296,0.0,255,0,6,4,0,0,0,1,1,1,36
366238581,365229260,1200.0,0.36675593,0.020845016,1.271546,0.0,255,0,6,4,0,0,0,1,1,1,36
366278485,366270051,1200.0,0.36675593,0.020845016,1.271546,0.0,255,0,6,4,0,0,0,1,1,1,36
367281411,366270051,1200.0,0.36675593,0.020821929,1.1898246,0.0,255,0,6,4,0,0,0,1,1,1,36
367331259,367331096,1200.0,0.36675593,0.020821929,1.1898246,0.0,255,0,6,4,0,0,0,1,1,1,36
368196326,368194046,1200.0,0.36675593,0.020980949,1.2368768,0.0,255,0,6,4,0,0,0,1,1,1,36
369201529,368194046,1200.0,0.36675593,0.02097925,0.93507516,0.0,255,0,6,4,0,0,0,1,1,1,36
369232575,369226446,1200.0,0.36675593,0.02097925,0.93507516,0.0,255,0,6,4,0,0,0,1,1,1,36
370190342,370183259,1200.0,0.36675593,0.020834448,0.97227424,0.0,255,0,6,4,0,0,0,1,1,1,36
371195248,370183259,1200.0,0.36675593,0.020806251,1.1958641,0.0,255,0,6,4,0,0,0,1,1,1,36
371285902,371283201,1200.0,0.36675593,0.020806251,1.1958641,0.0,255,0,6,4,0,0,0,1,1,1,36
372254398,372251793,1200.0,0.36675593,0.020881081,0.9197619,0.0,255,0,6,4,0,0,0,1,1,1,36
373261224,372251793,1200.0,0.36675593,0.020876493,1.0676835,0.0,255,0,6,4,0,0,0,1,1,1,36
373282450,373279504,1200.0,0.36675593,0.020876493,1.0676835,0.0,255,0,6,4,0,0,0,1,1,1,36
374284411,373279504,1200.0,0.36675593,0.020978998,1.225773,0.0,255,0,6,4,0,0,0,1,1,1,36
374314496,374312039,1200.0,0.36675593,0.020978998,1.225773,0.0,255,0,6,4,0,0,0,1,1,1,36
375211291,375204811,1200.0,0.36675593,0.046812795,1.0069731,0.0,255,0,6,4,0,0,0,1,1,1,36
376212237,376209920,1200.0,0.36675593,0.020971477,1.2782615,0.0,255,0,6,4,0,0,0,1,1,1,36
377210496,377202386,1200.0,0.36675593,0.02079945,1.0845428,0.0,255,0,6,4,0,0,0,1,1,1,36
378214951,377202386,1200.0,0.36675593,0.020852013,0.9601855,0.0,255,0,6,4,0,0,0,1,1,1,36
378234444,378232042,1200.0,0.36675593,0.020852013,0.9601855,0.0,255,0,6,4,0,0,0,1,1,1,36
379243227,378232042,1200.0,0.36675593,0.020905381,1.2234626,0.0,255,0,6,4,0,0,0,1,1,1,36
379323301,379322197,1200.0,0.36675593,0.020905381,1.2234626,0.0,255,0,6,4,0,0,0,1,1,1,36
380330712,379322197,1200.0,0.36675593,0.020989105,1.061449,0.0,255,0,6,4,0,0,0,1,1,1,36
380363304,380360031,1200.0,0.36675593,0.020989105,1.061449,0.0,255,0,6,4,0,0,0,1,1,1,36
381183341,381182941,1200.0,0.36675593,0.020775026,0.9269619,0.0,255,0,6,4,0,0,0,1,1,1,36
382191236,381182941,1200.0,0.36675593,0.020936623,1.1315746,0.0,255,0,6,4,0,0,0,1,1,1,36
382221877,382215396,1200.0,0.36675593,0.020936623,1.1315746,0.0,255,0,6,4,0,0,0,1,1,1,36
383197210,383191163,1200.0,0.36675593,0.020982437,0.9132356,0.0,255,0,6,4,0,0,0,1,1,1,36
384205248,383191163,1200.0,0.36675593,0.020917542,1.0767554,0.0,255,0,6,4,0,0,0,1,1,1,36
384227420,384226212,1200.0,0.36675593,0.020917542,1.0767554,0.0,255,0,6,4,0,0,0,1,1,1,36
385228439,384226212,1200.0,0.36675593,0.046613522,1.2307954,0.0,255,0,6,4,0,0,0,1,1,1,36
385259363,385257043,1200.0,0.36675593,0.046613522,1.2307954,0.0,255,0,6,4,0,0,0,1,1,1,36
386268215,385257043,1200.0,0.36675593,0.020938002,1.2393303,0.0,255,0,6,4,0,0,0,1,1,1,36
386310213,386303475,1200.0,0.36675593,0.020938002,1.2393303,0.0,255,0,6,4,0,0,0,1,1,1,36
387319291,386303475,1200.0,0.36675593,0.020975333,1.1406585,0.0,255,0,6,4,0,0,0,1,1,1,36
387372079,387365111,1200.0,0.36675593,0.020975333,1.1406585,0.0,255,0,6,4,0,0,0,1,1,1,36
388195403,388189107,1200.0,0.36675593,0.020933306,0.94399244,0.0,255,0,6,4,0,0,0,1,1,1,36
389202434,388189107,1200.0,0.36675593,0.020843672,1.0352356,0.0,255,0,6,4,0,0,0,1,1,1,36
389223200,389217179,1200.0,0.36675593,0.020843672,1.0352356,0.0,255,0,6,4,0,0,0,1,1,1,36
390223256,389217179,1200.0,0.36675593,0.020852717,1.1449134,0.0,255,0,6,4,0,0,0,1,1,1,36
390254785,390248091,1200.0,0.36675593,0.020852717,1.1449134,0.0,255,0,6,4,0,0,0,1,1,1,36
391259404,390248091,1200.0,0.36675593,0.020871744,1.0575017,0.0,255,0,6,4,0,0,0,1,1,1,36
391289169,391283131,1200.0,0.36675593,0.020871744,1.0575017,0.0,255,0,6,4,0,0,0,1,1,1,36
392298211,391283131,1200.0,0.36675593,0.020978937,0.9340622,0.0,255,0,6,4,0,0,0,1,1,1,36
392319763,392309043,1200.0,0.36675593,0.020978937,0.9340622,0.0,255,0,6,4,0,0,0,1,1,1,36
393321184,392309043,1200.0,0.36675593,0.020856174,1.2722267,0.0,255,0,6,4,0,0,0,1,1,1,36
393341194,393333108,1200.0,0.36675593,0.020856174,1.2722267,0.0,255,0,6,4,0,0,0,1,1,1,36
394188193,394187196,1200.0,0.36675593,0.020747768,0.8427546,0.0,255,0,6,4,0,0,0,1,1,1,36
395191221,394187196,1200.0,0.36675593,0.046647713,1.5115844,0.0,255,0,6,4,0,0,0,1,1,1,36
395201348,395195342,1200.0,0.36675593,0.046647713,1.5115844,0.0,255,0,6,4,0,0,0,1,1,1,36
396210211,395195342,1200.0,0.36675593,0.020899992,1.0161377,0.0,255,0,6,4,0,0,0,1,1,1,36
396231389,396226045,1200.0,0.36675593,0.020899992,1.0161377,0.0,255,0,6,4,0,0,0,1,1,1,36
397189142,397187011,1200.0,0.36675593,0.020966202,0.97642595,0.0,255,0,6,4,0,0,0,1,1,1,36
399255234,399249367,1200.0,0.36675593,0.020984933,0.9982832,0.0,255,0,6,4,0,0,0,1,1,1,36
400255321,399249367,1200.0,0.36675593,0.020894876,1.0686237,0.0,255,0,6,4,0,0,0,1,1,1,36
400348166,400348108,1200.0,0.36675593,0.020894876,1.0686237,0.0,255,0,6,4,0,0,0,1,1,1,36
401343304,401342569,1200.0,0.36675593,0.020813324,1.0733728,0.0,255,0,6,4,0,0,0,1,1,1,36
402199390,402198188,1200.0,0.36675593,0.02096164,1.0490801,0.0,255,0,6,4,0,0,0,1,1,1,36
403207266,402198188,1200.0,0.36675593,0.020911502,0.96093327,0.0,255,0,6,4,0,0,0,1,1,1,36
403237538,403236835,1200.0,0.36675593,0.020911502,0.96093327,0.0,255,0,6,4,0,0,0,1,1,1,36
404245142,403236835,1200.0,0.36675593,0.0208886,1.6084222,0.0,255,0,6,4,0,0,0,1,1,1,36
404275484,404268302,1200.0,0.36675593,0.0208886,1.6084222,0.0,255,0,6,4,0,0,0,1,1,1,36
405279448,404268302,1200.0,0.36675593,0.046536677,0.9178617,0.0,255,0,6,4,0,0,0,1,1,1,36
405300289,405292161,1200.0,0.36675593,0.046536677,0.9178617,0.0,255,0,6,4,0,0,0,1,1,1,36
406263325,406257856,1200.0,0.36675593,0.020907754,1.2325618,0.0,255,0,6,4,0,0,0,1,1,1,36
407268784,406257856,1200.0,0.36675593,0.020942826,0.93345165,0.0,255,0,6,4,0,0,0,1,1,1,36
407318350,407318042,1200.0,0.36675593,0.020942826,0.93345165,0.0,255,0,6,4,0,0,0,1,1,1,36
408189142,408183204,1200.0,0.36675593,0.020776711,0.9695799,0.0,255,0,6,4,0,0,0,1,1,1,36
409195734,408183204,1200.0,0.36675593,0.020817596,1.1945335,0.0,255,0,6,4,0,0,0,1,1,1,36
409225177,409219610,1200.0,0.36675593,0.020817596,1.1945335,0.0,255,0,6,4,0,0,0,1,1,1,36
410226370,409219610,1200.0,0.36675593,0.020979062,0.96603584,0.0,255,0,6,4,0,0,0,1,1,1,36
410246407,410245729,1200.0,0.36675593,0.020979062,0.96603584,0.0,255,0,6,4,0,0,0,1,1,1,36
411252244,410245729,1200.0,0.36675593,0.020827588,1.1028703,0.0,255,0,6,4,0,0,0,1,1,1,36
411282484,411275411,1200.0,0.36675593,0.020827588,1.1028703,0.0,255,0,6,4,0,0,0,1,1,1,36
412273142,412264126,1200.0,0.36675593,0.020922126,1.1845909,0.0,255,0,6,4,0,0,0,1,1,1,36
413275525,412264126,1200.0,0.36675593,0.020914167,0.98396176,0.0,255,0,6,4,0,0,0,1,1,1,36
413295458,413288143,1200.0,0.36675593,0.020914167,0.98396176,0.0,255,0,6,4,0,0,0,1,1,1,36
414304237,413288143,1200.0,0.36675593,0.020823354,1.2920396,0.0,255,0,6,4,0,0,0,1,1,1,36
414376416,414370067,1200.0,0.36675593,0.020823354,1.2920396,0.0,255,0,6,4,0,0,0,1,1,1,36
415198519,415192796,1200.0,0.36675593,0.046653688,1.0869317,0.0,255,0,6,4,0,0,0,1,1,1,36
416200777,415192796,1200.0,0.36675593,0.020830853,0.99888897,0.0,255,0,6,4,0,0,0,1,1,1,36
416231584,416224861,1200.0,0.36675593,0.020830853,0.99888897,0.0,255,0,6,4,0,0,0,1,1,1,36
417217239,417216044,1200.0,0.36675593,0.020977281,1.1877136,0.0,255,0,6,4,0,0,0,1,1,1,36
418220561,417216044,1200.0,0.36675593,0.020850709,1.0544502,0.0,255,0,6,4,0,0,0,1,1,1,36
418240224,418238043,1200.0,0.36675593,0.020850709,1.0544502,0.0,255,0,6,4,0,0,0,1,1,1,36
419250522,418238043,1200.0,0.36675593,0.020861728,0.97056705,0.0,255,0,6,4,0,0,0,1,1,1,36
419260142,419253246,1200.0,0.36675593,0.020861728,0.97056705,0.0,255,0,6,4,0,0,0,1,1,1,36
420267435,419253246,1200.0,0.36675593,0.020836845,1.0864927,0.0,255,0,6,4,0,0,0,1,1,1,36
420341152,420336620,1200.0,0.36675593,0.020836845,1.0864927,0.0,255,0,6,4,0,0,0,1,1,1,36
421348148,420336620,1200.0,0.36675593,0.020912793,0.9102044,0.0,255,0,6,4,0,0,0,1,1,1,36
421379287,421373037,1200.0,0.36675593,0.020912793,0.9102044,0.0,255,0,6,4,0,0,0,1,1,1,36
422200338,422196043,1200.0,0.36675593,0.020881206,1.074885,0.0,255,0,6,4,0,0,0,1,1,1,36
425268372,424257087,1200.0,0.36675593,0.04672567,1.126387,0.0,255,0,6,4,0,0,0,1,1,1,36
425299387,425292036,1200.0,0.36675593,0.04672567,1.126387,0.0,255,0,6,4,0,0,0,1,1,1,36
426262217,426256048,1200.0,0.36675593,0.02088887,0.9937134,0.0,255,0,6,4,0,0,0,1,1,1,36
427269182,426256048,1200.0,0.36675593,0.020815346,0.99120694,0.0,255,0,6,4,0,0,0,1,1,1,36
427321785,427314473,1200.0,0.36675593,0.020815346,0.99120694,0.0,255,0,6,4,0,0,0,1,1,1,36
428185363,428182215,1200.0,0.36675593,0.020909274,1.1081915,0.0,255,0,6,4,0,0,0,1,1,1,36
429189216,428182215,1200.0,0.36675593,0.020906525,1.059264,0.0,255,0,6,4,0,0,0,1,1,1,36
429209183,429207150,1200.0,0.36675593,0.020906525,1.059264,0.0,255,0,6,4,0,0,0,1,1,1,36
430214372,429207150,1200.0,0.36675593,0.020875497,0.9692195,0.0,255,0,6,4,0,0,0,1,1,1,36
430236224,430232150,1200.0,0.36675593,0.020875497,0.9692195,0.0,255,0,6,4,0,0,0,1,1,1,36
431242189,430232150,1200.0,0.36675593,0.020889536,1.234472,0.0,255,0,6,4,0,0,0,1,1,1,36
431272975,431267045,1200.0,0.36675593,0.020889536,1.234472,0.0,255,0,6,4,0,0,0,1,1,1,36
432227316,432226047,1200.0,0.36675593,0.020993995,0.89074516,0.0,255,0,6,4,0,0,0,1,1,1,36
433233305,432226047,1200.0,0.36675593,0.020925546,1.4588095,0.0,255,0,6,4,0,0,0,1,1,1,36
433243539,433239285,1200.0,0.36675593,0.020925546,1.4588095,0.0,255,0,6,4,0,0,0,1,1,1,36
434246493,433239285,1200.0,0.36675593,0.020944392,1.0392408,0.0,255,0,6,4,0,0,0,1,1,1,36
434316220,434308076,1200.0,0.36675593,0.020944392,1.0392408,0.0,255,0,6,4,0,0,0,1,1,1,36
435191211,435190029,1200.0,0.36675593,0.046750814,1.0126028,0.0,255,0,6,4,0,0,0,1,1,1,36
436189615,436189045,1200.0,0.36675593,0.020831183,1.1576186,0.0,255,0,6,4,0,0,0,1,1,1,36
437195304,436189045,1200.0,0.36675593,0.020961326,0.9232965,0.0,255,0,6,4,0,0,0,1,1,1,36
437245356,437241043,1200.0,0.36675593,0.020961326,0.9232965,0.0,255,0,6,4,0,0,0,1,1,1,36
438210344,438209691,1200.0,0.36675593,0.020813305,1.1040962,0.0,255,0,6,4,0,0,0,1,1,1,36
439212242,438209691,1200.0,0.36675593,0.020840362,1.1779766,0.0,255,0,6,4,0,0,0,1,1,1,36
439244184,439243773,1200.0,0.36675593,0.020840362,1.1779766,0.0,255,0,6,4,0,0,0,1,1,1,36
440251513,439243773,1200.0,0.36675593,0.020846983,0.94009966,0.0,255,0,6,4,0,0,0,1,1,1,36
440341760,440338151,1200.0,0.36675593,0.020846983,0.94009966,0.0,255,0,6,4,0,0,0,1,1,1,36
441345229,440338151,1200.0,0.36675593,0.020831224,0.8967346,0.0,255,0,6,4,0,0,0,1,1,1,36
441365193,441362321,1200.0,0.36675593,0.020831224,0.8967346,0.0,255,0,6,4,0,0,0,1,1,1,36
442192330,442192144,1200.0,0.36675593,0.020980466,1.5125917,0.0,255,0,6,4,0,0,0,1,1,1,36
443195251,442192144,1200.0,0.36675593,0.020994078,0.9667273,0.0,255,0,6,4,0,0,0,1,1,1,36
443226045,443223228,1200.0,0.36675593,0.020994078,0.9667273,0.0,255,0,6,4,0,0,0,1,1,1,36
444231179,444224045,1200.0,0.36675593,0.046767052,1.2438046,0.0,255,0,6,4,0,0,0,1,1,1,36
445239501,444224045,1200.0,0.36675593,0.020797554,0.97847545,0.0,255,0,6,4,0,0,0,1,1,1,36
445249297,445246298,1200.0,0.36675593,0.020797554,0.97847545,0.0,255,0,6,4,0,0,0,1,1,1,36
446258211,445246298,1200.0,0.36675593,0.020967687,0.93555826,0.0,255,0,6,4,0,0,0,1,1,1,36
446288149,446287221,1200.0,0.36675593,0.020967687,0.93555826,0.0,255,0,6,4,0,0,0,1,1,1,36
447288371,446287221,1200.0,0.36675593,0.0209074,1.1598629,0.0,255,0,6,4,0,0,0,1,1,1,36
447349541,447346040,1200.0,0.36675593,0.0209074,1.1598629,0.0,255,0,6,4,0,0,0,1,1,1,36
448312756,448305076,1200.0,0.36675593,0.020933492,0.9240642,0.0,255,0,6,4,0,0,0,1,1,1,36
449201142,449197076,1200.0,0.36675593,0.020940883,1.1088696,0.0,255,0,6,4,0,0,0,1,1,1,36
450208251,449197076,1200.0,0.36675593,0.020872032,1.1817546,0.0,255,0,6,4,0,0,0,1,1,1,36
450238215,450229861,1200.0,0.36675593,0.020872032,1.1817546,0.0,255,0,6,4,0,0,0,1,1,1,36
451245243,450229861,1200.0,0.36675593,0.020919085,1.024039,0.0,255,0,6,4,0,0,0,1,1,1,36
451265533,451262371,1200.0,0.36675593,0.020919085,1.024039,0.0,255,0,6,4,0,0,0,1,1,1,36
452269652,451262371,1200.0,0.36675593,0.020810911,1.2932495,0.0,255,0,6,4,0,0,0,1,1,1,36
452301142,452293042,1200.0,0.36675593,0.020810911,1.2932495,0.0,255,0,6,4,0,0,0,1,1,1,36
453255568,453252043,1200.0,0.36675593,0.02089496,1.0248481,0.0,255,0,6,4,0,0,0,1,1,1,36
454264208,453252043,1200.0,0.36675593,0.046578508,1.020763,0.0,255,0,6,4,0,0,0,1,1,1,36
454354218,454350777,1200.0,0.36675593,0.046578508,1.020763,0.0,255,0,6,4,0,0,0,1,1,1,36
455362211,454350777,1200.0,0.36675593,0.020813903,1.1784633,0.0,255,0,6,4,0,0,0,1,1,1,36
455382383,455380074,1200.0,0.36675593,0.020813903,1.1784633,0.0,255,0,6,4,0,0,0,1,1,1,36
456211431,456208262,1200.0,0.36675593,0.020856133,1.0944504,0.0,255,0,6,4,0,0,0,1,1,1,36
457221229,456208262,1200.0,0.36675593,0.020936457,0.93416476,0.0,255,0,6,4,0,0,0,1,1,1,36
457251211,457243772,1200.0,0.36675593,0.020936457,0.93416476,0.0,255,0,6,4,0,0,0,1,1,1,36
458258393,457243772,1200.0,0.36675593,0.020854747,1.23043,0.0,255,0,6,4,0,0,0,1,1,1,36
458278454,458269618,1200.0,0.36675593,0.020854747,1.23043,0.0,255,0,6,4,0,0,0,1,1,1,36
459227154,459226617,1200.0,0.36675593,0.02085402,0.82919556,0.0,255,0,6,4,0,0,0,1,1,1,36
460231359,459226617,1200.0,0.36675593,0.020788312,1.0305063,0.0,255,0,6,4,0,0,0,1,1,1,36
460335220,460326156,1200.0,0.36675593,0.020788312,1.0305063,0.0,255,0,6,4,0,0,0,1,1,1,36
461293145,461289152,1200.0,0.36675593,0.020993302,1.457535,0.0,255,0,6,4,0,0,0,1,1,1,36
462184303,462179368,1200.0,0.36675593,0.020823065,1.0322291,0.0,255,0,6,4,0,0,0,1,1,1,36
463189672,462179368,1200.0,0.36675593,0.020894274,1.1233159,0.0,255,0,6,4,0,0,0,1,1,1,36
463219254,463215188,1200.0,0.36675593,0.020894274,1.1233159,0.0,255,0,6,4,0,0,0,1,1,1,36
464228263,463215188,1200.0,0.36675593,0.04661385,1.051291,0.0,255,0,6,4,0,0,0,1,1,1,36
464249397,464246151,1200.0,0.36675593,0.04661385,1.051291,0.0,255,0,6,4,0,0,0,1,1,1,36
465257193,464246151,1200.0,0.36675593,0.020819763,0.97852886,0.0,255,0,6,4,0,0,0,1,1,1,36
465277226,465276153,1200.0,0.36675593,0.020819763,0.97852886,0.0,255,0,6,4,0,0,0,1,1,1,36
466214214,466208044,1200.0,0.36675593,0.024822246,1.117994,0.0,255,0,6,4,0,0,0,1,1,1,36
467218310,466208044,1200.0,0.36675593,0.016905177,1.0520988,0.0,255,0,6,4,0,0,0,1,1,1,36
467269607,467266044,1200.0,0.36675593,0.016905177,1.0520988,0.0,255,0,6,4,0,0,0,1,1,1,36
468273120,468266060,1200.0,0.36675593,0.020967856,0.9315719,0.0,255,0,6,4,0,0,0,1,1,1,36
469193193,469188043,1200.0,0.36675593,0.020967856,0.9315719,0.0,255,0,6,4,0,0,0,1,1,1,36
470200194,469188043,1200.0,0.36675593,0.04188252,1.2355343,0.0,255,0,6,4,0,0,0,1,1,1,36
470220282,470220111,1200.0,0.36675593,0.020853462,1.1231079,0.0,255,0,6,4,0,0,0,1,1,1,36
471230612,470220111,1200.0,0.36675593,0.043556765,1.3631288,0.0,255,0,6,4,0,0,0,1,1,1,36
471250211,471246506,1200.0,0.36675593,0.043556765,1.3631288,0.0,255,0,6,4,0,0,0,1,1,1,36
