timestamp,roll,pitch,yaw,thrust_body[0],thrust_body[1],thrust_body[2]
349564111,-0.04369306,0.014893228,-3.4906585,0.0,0.0,0.0
349595257,-0.043433502,0.014988577,-3.4906585,0.0,0.0,0.0
349625680,-0.043251198,0.014943212,-3.4906585,0.0,0.0,0.0
349658503,-0.04334659,0.01502704,-3.4906585,0.0,0.0,0.0
349689723,-0.043286238,0.014968065,-3.4906585,0.0,0.0,0.0
349721707,-0.043133162,0.014937131,-3.4906585,0.0,0.0,0.0
349753667,-0.04343631,0.01489033,-3.4906585,0.0,0.0,0.0
349785695,-0.043540597,0.014858957,-3.4906585,0.0,0.0,0.0
349817715,-0.04357607,0.014947075,-3.4906585,0.0,0.0,0.0
349845744,-0.043665383,0.015038936,-3.4906585,0.0,0.0,0.0
349877654,-0.043790255,0.0148662245,-3.4906585,0.0,0.0,0.0
349909674,-0.04378285,0.014716422,-3.4906585,0.0,0.0,0.0
349941677,-0.043868978,0.014687575,-3.4906585,0.0,0.0,0.0
349973702,-0.043954585,0.014738969,-3.4906585,0.0,0.0,0.0
350005657,-0.04389948,0.014653949,-3.4906585,0.0,0.0,0.0
350037661,-0.04389988,0.014454134,-3.4906585,0.0,0.0,0.0
350069693,-0.04386554,0.014434065,-3.4906585,0.0,0.0,0.0
350097680,-0.0437458,0.014573346,-3.4906585,0.0,0.0,0.0
350129693,-0.043741133,0.014616497,-3.4906585,0.0,0.0,0.0
350161690,-0.043645103,0.014536911,-3.4906585,0.0,0.0,0.0
350193659,-0.043651685,0.01483475,-3.4906585,0.0,0.0,0.0
350225714,-0.043854043,0.015111044,-3.4906585,0.0,0.0,0.0
350257696,-0.043887593,0.015143406,-3.4906585,0.0,0.0,0.0
350288117,-0.043827526,0.015110354,-3.4906585,0.0,0.0,0.0
350320859,-0.030801868,0.034697518,-1.04204126e-07,0.0,0.0,-0.0
350352131,-0.030799557,0.034923173,0.0001529519,0.0,0.0,-0.0
350380864,-0.030820498,0.034836117,1.8853632e-05,0.0,0.0,-0.0
350412104,-0.030830601,0.034776714,0.00011488539,0.0,0.0,-0.0
350444897,-0.030994724,0.03469848,5.6086355e-05,0.0,0.0,-0.0
350476927,-0.031093093,0.03475559,-3.5203484e-05,0.0,0.0,-0.0
350508867,-0.031076118,0.034537267,7.2338364e-05,0.0,0.0,-0.0
350540909,-0.031037893,0.03471122,-1.8828614e-06,0.0,0.0,-0.0
350572927,-0.030944958,0.03471393,9.912429e-05,0.0,0.0,-0.0
350604940,-0.030885655,0.03463148,5.4677374e-05,0.0,0.0,-0.0
350636863,-0.030749943,0.03466179,-3.495144e-05,0.0,0.0,-0.0
350668853,-0.030585477,0.034489166,5.56034e-05,0.0,0.0,-0.0
350700899,-0.030527465,0.034584742,6.5206386e-06,0.0,0.0,-0.0
350732920,-0.03060948,0.034502067,0.00011188537,0.0,0.0,-0.0
350764860,-0.03049526,0.03452808,-1.2305112e-05,0.0,0.0,-0.0
350796866,-0.03055493,0.034649342,-3.5004847e-05,0.0,0.0,-0.0
350828914,-0.03048142,0.03482905,6.021459e-05,0.0,0.0,-0.0
350856936,-0.03059522,0.034846857,-3.539061e-05,0.0,0.0,-0.0
350888891,-0.030554386,0.034897394,6.097405e-05,0.0,0.0,-0.0
350920862,-0.030518651,0.034756187,-2.2946455e-05,0.0,0.0,-0.0
350952891,-0.030508239,0.03474845,6.4770175e-05,0.0,0.0,-0.0
350984917,-0.030608196,0.0347655,3.5659203e-05,0.0,0.0,-0.0
351016888,-0.030695237,0.034779727,-3.5102912e-05,0.0,0.0,-0.0
351047259,-0.030684419,0.03465601,5.2060608e-05,0.0,0.0,-0.0
351080913,-0.030702284,0.034704044,-1.4951923e-05,0.0,0.0,-0.0
351108894,-0.030685803,0.0347903,6.701592e-05,0.0,0.0,-0.0
351144140,-0.030664053,0.034875814,-7.946463e-06,0.0,0.0,-0.0
351172180,-0.030883696,0.034891687,9.2569506e-05,0.0,0.0,-0.0
351204093,-0.031137547,0.034817994,4.531084e-05,0.0,0.0,-0.0
351236107,-0.031252965,0.03474966,-3.5787485e-05,0.0,0.0,-0.0
351268098,-0.031035583,0.03480943,3.2093172e-05,0.0,0.0,-0.0
351300156,-0.031077035,0.034944274,-1.8614102e-05,0.0,0.0,-0.0
351332096,-0.031218007,0.034932148,9.095931e-05,0.0,0.0,-0.0
351364116,-0.031213159,0.034836616,4.656651e-05,0.0,0.0,-0.0
351396079,-0.031360187,0.034638125,-3.5949564e-05,0.0,0.0,-0.0
351424131,-0.03136169,0.034701403,6.7478422e-06,0.0,0.0,-0.0
351456070,-0.031295225,0.034654293,-3.5775047e-05,0.0,0.0,-0.0
351488144,-0.03138216,0.034717932,3.640767e-05,0.0,0.0,-0.0
351520063,-0.031431526,0.034778293,1.8272522e-05,0.0,0.0,-0.0
351552113,-0.03131609,0.034762,9.9823315e-05,0.0,0.0,-0.0
351584079,-0.031416155,0.034726262,4.4431632e-05,0.0,0.0,-0.0
351616122,-0.03131035,0.034907125,-3.5772136e-05,0.0,0.0,-0.0
351648133,-0.03139091,0.03481101,5.6856556e-05,0.0,0.0,-0.0
351676151,-0.03119281,0.034895428,-3.54617e-05,0.0,0.0,-0.0
351708090,-0.03118682,0.034791626,7.340104e-05,0.0,0.0,-0.0
351740104,-0.031149944,0.034806635,6.2820936e-06,0.0,0.0,-0.0
351772115,-0.03128672,0.034865286,7.8802754e-05,0.0,0.0,-0.0
351804139,-0.031216715,0.03485703,3.4411954e-05,0.0,0.0,-0.0
351836061,-0.031130621,0.034766085,-3.5838235e-05,0.0,0.0,-0.0
351867287,-0.031230187,0.03478604,4.9149177e-05,0.0,0.0,-0.0
351899346,-0.031462956,0.03481728,6.2140243e-06,0.0,0.0,-0.0
351931334,-0.031473882,0.03457384,0.00010038002,0.0,0.0,-0.0
351959418,-0.031449787,0.034602635,6.4190617e-06,0.0,0.0,-0.0
351991329,-0.031430665,0.03450299,0.00011378465,0.0,0.0,-0.0
352023258,-0.03141982,0.03456217,6.451941e-05,0.0,0.0,-0.0
352055281,-0.03127373,0.034560695,0.00017989053,0.0,0.0,-0.0
352087312,-0.031100271,0.03452455,4.6340712e-05,0.0,0.0,-0.0
352119380,-0.03135989,0.034575198,2.1416674e-05,0.0,0.0,-0.0
352151259,-0.03146025,0.034454353,0.00011837097,0.0,0.0,-0.0
352183298,-0.03133745,0.034604292,3.9736275e-05,0.0,0.0,-0.0
352211267,-0.0313998,0.034740694,7.685982e-05,0.0,0.0,-0.0
352243293,-0.031210678,0.03475758,4.2109787e-05,0.0,0.0,-0.0
352275304,-0.031217245,0.034731045,0.0001052427,0.0,0.0,-0.0
352307325,-0.03142487,0.03472378,8.283189e-05,0.0,0.0,-0.0
352339335,-0.031270888,0.034746937,-3.0364577e-05,0.0,0.0,-0.0
352371307,-0.031077394,0.034804653,5.8750033e-05,0.0,0.0,-0.0
352403288,-0.031367503,0.034784168,6.853751e-06,0.0,0.0,-0.0
352435332,-0.031378385,0.034714904,0.000102981576,0.0,0.0,-0.0
352467272,-0.031574383,0.03482426,7.042025e-05,0.0,0.0,-0.0
352499365,-0.031593405,0.03495262,-1.4287323e-05,0.0,0.0,-0.0
352531290,-0.031527653,0.03495379,6.813273e-05,0.0,0.0,-0.0
352563342,-0.03173545,0.034829464,5.2703163e-05,0.0,0.0,-0.0
352595284,-0.031749945,0.034818538,0.00018345278,0.0,0.0,-0.0
352627301,-0.031753834,0.034759823,2.3642251e-05,0.0,0.0,-0.0
352658505,-0.031974245,0.034793414,-3.664615e-05,0.0,0.0,-0.0
352689688,-0.031999305,0.03472811,3.2985736e-05,0.0,0.0,-0.0
352722469,-0.031974345,0.03467492,-3.7396926e-06,0.0,0.0,-0.0
352750461,-0.031850226,0.034785453,5.27734e-05,0.0,0.0,-0.0
352782468,-0.031773385,0.034681175,-1.8367334e-06,0.0,0.0,-0.0
352814491,-0.031991128,0.034613866,0.00015521557,0.0,0.0,-0.0
352846488,-0.032004423,0.03446058,7.9534926e-05,0.0,0.0,-0.0
352878469,-0.031947114,0.03431381,-3.57023e-05,0.0,0.0,-0.0
352910459,-0.031846687,0.034449454,5.219716e-05,0.0,0.0,-0.0
352942519,-0.03190144,0.034538217,-2.7730957e-06,0.0,0.0,-0.0
352974522,-0.031998195,0.034585606,0.00014466314,0.0,0.0,-0.0
353006478,-0.031942524,0.03485377,6.4298256e-06,0.0,0.0,-0.0
353038474,-0.03208403,0.03501414,-3.744032e-05,0.0,0.0,-0.0
353070497,-0.032118343,0.035005827,1.9709985e-05,0.0,0.0,-0.0
353102504,-0.0320391,0.03500608,-3.9220206e-05,0.0,0.0,-0.0
353134493,-0.03203401,0.035116576,2.5910089e-05,0.0,0.0,-0.0
353166457,-0.03203967,0.034961443,-3.196467e-05,0.0,0.0,-0.0
353198538,-0.031984475,0.03514459,-3.6482008e-05,0.0,0.0,-0.0
353226469,-0.032082155,0.035191372,2.7520404e-05,0.0,0.0,-0.0
353258514,-0.032188624,0.035199326,-3.6753234e-05,0.0,0.0,-0.0
353290499,-0.032381095,0.035205513,5.1611227e-05,0.0,0.0,-0.0
353322500,-0.032299142,0.035266235,-3.385348e-06,0.0,0.0,-0.0
353354470,-0.032429658,0.035193633,2.6437106e-05,0.0,0.0,-0.0
353386503,-0.03251377,0.035126142,2.0459593e-05,0.0,0.0,-0.0
353417747,-0.03258902,0.035130758,-3.6945123e-05,0.0,0.0,-0.0
353449693,-0.032506287,0.035155583,2.5251638e-05,0.0,0.0,-0.0
353481665,-0.03251438,0.03521982,-4.811544e-05,0.0,0.0,-0.0
353509699,-0.03250234,0.035129346,1.1118151e-05,0.0,0.0,-0.0
353541699,-0.03250766,0.03533148,-2.6225052e-05,0.0,0.0,-0.0
353573692,-0.032329805,0.035318494,8.230499e-05,0.0,0.0,-0.0
353605663,-0.032292977,0.03527729,1.716949e-06,0.0,0.0,-0.0
353637663,-0.03230144,0.03538528,-3.7548733e-05,0.0,0.0,-0.0
353669697,-0.032431304,0.03526254,3.3503533e-05,0.0,0.0,-0.0
353701709,-0.032513704,0.03510281,-1.5428691e-06,0.0,0.0,-0.0
353733655,-0.03251352,0.035203364,1.7724033e-05,0.0,0.0,-0.0
353765670,-0.032447238,0.0350978,-1.2483468e-05,0.0,0.0,-0.0
353793664,-0.032158263,0.035073545,8.252504e-05,0.0,0.0,-0.0
353825655,-0.032045867,0.035210237,2.34862e-05,0.0,0.0,-0.0
353857684,-0.031922024,0.035061434,-3.6880876e-05,0.0,0.0,-0.0
353889736,-0.031870324,0.035243116,5.708535e-05,0.0,0.0,-0.0
353921683,-0.031948615,0.03515516,-1.9506817e-05,0.0,0.0,-0.0
353953699,-0.032018453,0.035261076,3.9688995e-05,0.0,0.0,-0.0
353985667,-0.032145783,0.035311293,2.3965158e-05,0.0,0.0,-0.0
354017727,-0.03214258,0.035421304,-3.6858783e-05,0.0,0.0,-0.0
354045686,-0.032179028,0.03539303,1.6668131e-05,0.0,0.0,-0.0
354077710,-0.032254525,0.0353114,-3.772626e-05,0.0,0.0,-0.0
354109669,-0.03227674,0.035260044,1.4195919e-05,0.0,0.0,-0.0
354141694,-0.032274786,0.035246648,-2.7473613e-06,0.0,0.0,-0.0
354173696,-0.032463226,0.035258222,1.48653535e-05,0.0,0.0,-0.0
354204856,-0.032407742,0.03517876,-5.785891e-07,0.0,0.0,-0.0
354236895,-0.03251616,0.03515632,8.698309e-05,0.0,0.0,-0.0
354268103,-0.032537542,0.035055257,1.296849e-05,0.0,0.0,-0.0
354300962,-0.03246493,0.034997102,-3.83858e-05,0.0,0.0,-0.0
354328882,-0.032480136,0.034885105,6.4441297e-06,0.0,0.0,-0.0
354360941,-0.032549012,0.034741614,-3.7092075e-05,0.0,0.0,-0.0
354392889,-0.03249877,0.03479026,6.158181e-05,0.0,0.0,-0.0
354424898,-0.0325836,0.034937333,7.559982e-06,0.0,0.0,-0.0
354456897,-0.032450225,0.034953777,3.0547188e-05,0.0,0.0,-0.0
354488935,-0.032480817,0.034857478,-6.0753762e-05,0.0,0.0,-0.0
354520966,-0.03259685,0.03496011,-3.7604637e-05,0.0,0.0,-0.0
354552941,-0.032746,0.035081204,-3.3209693e-05,0.0,0.0,-0.0
354584879,-0.032545794,0.035162058,-6.291236e-06,0.0,0.0,-0.0
354616952,-0.0325647,0.035170108,6.039259e-05,0.0,0.0,-0.0
354648860,-0.032501943,0.035154086,-3.1458265e-05,0.0,0.0,-0.0
354680860,-0.032525882,0.035169363,-3.7538397e-05,0.0,0.0,-0.0
354712926,-0.03247323,0.03505757,2.0864496e-05,0.0,0.0,-0.0
354744910,-0.032497466,0.034881834,-2.8627772e-05,0.0,0.0,-0.0
354776870,-0.032681216,0.03460996,7.1648515e-06,0.0,0.0,-0.0
354808869,-0.03271282,0.034578793,1.5955005e-05,0.0,0.0,-0.0
354840874,-0.032813285,0.034563757,-3.7562357e-05,0.0,0.0,-0.0
354872910,-0.03291257,0.034518503,-5.444896e-07,0.0,0.0,-0.0
354904921,-0.032873783,0.034608323,-7.798426e-06,0.0,0.0,-0.0
354936854,-0.033038005,0.034572974,3.549494e-05,0.0,0.0,-0.0
354968894,-0.032941025,0.034481484,-3.6624064e-05,0.0,0.0,-0.0
355000900,-0.03306527,0.034551617,-3.7662776e-05,0.0,0.0,-0.0
355032067,-0.033078782,0.03434492,6.0287763e-05,0.0,0.0,-0.0
355062506,-0.033176593,0.03435131,-1.6675425e-05,0.0,0.0,-0.0
355093747,-0.03306907,0.034252558,4.664484e-05,0.0,0.0,-0.0
355125679,-0.032875754,0.034202658,-1.2782752e-05,0.0,0.0,-0.0
355156109,-0.03308827,0.034145325,6.678626e-05,0.0,0.0,-0.0
355188111,-0.033225063,0.033910643,9.974046e-06,0.0,0.0,-0.0
355220067,-0.033267405,0.034121685,-3.7579895e-05,0.0,0.0,-0.0
355252069,-0.033270948,0.034073208,7.175869e-05,0.0,0.0,-0.0
355284107,-0.033357605,0.03405483,-7.5915495e-06,0.0,0.0,-0.0
355316129,-0.033545323,0.033877455,6.793707e-05,0.0,0.0,-0.0
355344112,-0.033493154,0.03391431,1.0324779e-05,0.0,0.0,-0.0
355376158,-0.03348321,0.033920012,3.0150462e-05,0.0,0.0,-0.0
355408068,-0.033459,0.033938322,1.0390104e-05,0.0,0.0,-0.0
355440064,-0.033296928,0.03397074,-3.7437047e-05,0.0,0.0,-0.0
355472095,-0.03306636,0.033967625,8.606486e-05,0.0,0.0,-0.0
355504115,-0.03300393,0.03394134,3.7972795e-06,0.0,0.0,-0.0
355536063,-0.032978572,0.033948563,6.409693e-05,0.0,0.0,-0.0
355568104,-0.033266462,0.033909105,5.3962714e-05,0.0,0.0,-0.0
355596077,-0.033187605,0.03378859,0.00011916179,0.0,0.0,-0.0
355628137,-0.033167318,0.03367412,1.0987888e-05,0.0,0.0,-0.0
355660111,-0.033227623,0.03367961,-3.6901085e-05,0.0,0.0,-0.0
355692071,-0.03330543,0.033708025,7.77737e-05,0.0,0.0,-0.0
355724065,-0.03342978,0.03358156,6.685733e-07,0.0,0.0,-0.0
355756069,-0.03350539,0.03355474,7.894903e-05,0.0,0.0,-0.0
355788107,-0.03335166,0.03353228,2.6599011e-05,0.0,0.0,-0.0
355819404,-0.033515666,0.03354191,-3.7107216e-05,0.0,0.0,-0.0
355851301,-0.03353194,0.03349658,8.643896e-05,0.0,0.0,-0.0
355883322,-0.033527065,0.03346349,-4.2064507e-06,0.0,0.0,-0.0
355910552,-0.03355768,0.03347327,9.2047914e-05,0.0,0.0,-0.0
355943340,-0.033775914,0.03347969,2.4991102e-06,0.0,0.0,-0.0
355975302,-0.033805534,0.03365483,9.154569e-05,0.0,0.0,-0.0
356007282,-0.03392278,0.033719275,4.6971287e-05,0.0,0.0,-0.0
356039337,-0.03398675,0.03369342,3.7148257e-05,0.0,0.0,-0.0
356071335,-0.034153044,0.033595607,3.5299126e-05,0.0,0.0,-0.0
356103323,-0.034038056,0.033547763,-1.8205306e-05,0.0,0.0,-0.0
356135298,-0.034154344,0.033451136,3.5966736e-05,0.0,0.0,-0.0
356167261,-0.03416491,0.033445362,-2.491213e-05,0.0,0.0,-0.0
356199383,-0.034220036,0.033548325,8.5766194e-05,0.0,0.0,-0.0
356231321,-0.03445082,0.033529516,8.722372e-06,0.0,0.0,-0.0
356263260,-0.03456174,0.03347511,-8.070624e-06,0.0,0.0,-0.0
356295262,-0.03465292,0.033385027,4.318371e-05,0.0,0.0,-0.0
356327305,-0.034712568,0.033323165,-1.3117371e-05,0.0,0.0,-0.0
356359357,-0.034881398,0.033251066,4.3225642e-05,0.0,0.0,-0.0
356391264,-0.034847803,0.03326202,7.429414e-05,0.0,0.0,-0.12
356423265,-0.035002578,0.03310977,0.00016098708,0.0,0.0,-0.12
356455264,-0.035044987,0.03316117,0.00030142692,0.0,0.0,-0.12
356487334,-0.03513109,0.03313006,0.0003357724,0.0,0.0,-0.12
356519342,-0.03535719,0.033289675,0.00071691617,0.0,0.0,-0.12
356549690,-0.035558634,0.033273224,0.00078801106,0.0,0.0,-0.12
356579339,-0.03562529,0.033210322,-5.118206e-05,0.0,0.0,-0.12
356611298,-0.035661213,0.03312271,-0.0006110106,0.0,0.0,-0.12
356642550,-0.035504952,0.03301354,0.00020530984,0.0,0.0,-0.12
356674457,-0.0355244,0.03310016,0.0015324695,0.0,0.0,-0.12
356706510,-0.035846464,0.033251595,0.0020788067,0.0,0.0,-0.13080874
356738492,-0.035966568,0.03302921,0.0015765193,0.0,0.0,-0.13736412
356770528,-0.03605406,0.033066988,0.00095635885,0.0,0.0,-0.15042174
356802464,-0.03603699,0.03299196,0.0010795208,0.0,0.0,-0.16369173
356834462,-0.03608635,0.032955952,0.0019946122,0.0,0.0,-0.17032903
356866486,-0.035733815,0.03274622,0.0022038445,0.0,0.0,-0.18362495
356894504,-0.03453931,0.031586014,0.0014074978,0.0,0.0,-0.19032633
356926495,-0.033987783,0.030938858,0.0011891363,0.0,0.0,-0.20383868
356958542,-0.034397043,0.031112198,0.0029213808,0.0,0.0,-0.21049908
356990467,-0.034823593,0.032014005,0.0043466752,0.0,0.0,-0.22437274
357022463,-0.034919083,0.031277075,0.0040887618,0.0,0.0,-0.23827115
357054504,-0.032470725,0.03117889,0.0033951586,0.0,0.0,-0.2461139
357086504,-0.033251967,0.031792324,0.003015754,0.0,0.0,-0.25935578
357118485,-0.036017813,0.032159682,0.0031081946,0.0,0.0,-0.26690882
357150461,-0.034507338,0.030920058,0.0034468707,0.0,0.0,-0.2805927
357182509,-0.033909712,-0.00012182294,0.003505314,0.0,0.0,-0.2949894
357214507,-0.033220824,-0.027095232,0.0034662737,0.0,0.0,-0.30263284
357246470,-0.032188684,-0.046345476,0.0034854847,0.0,0.0,-0.31611082
357278460,-0.03501288,-0.051435184,0.0036269748,0.0,0.0,-0.3232227
357310487,-0.03333026,-0.057289213,0.0036495766,0.0,0.0,-0.33703518
357342515,-0.036903895,-0.060991563,0.0036408855,0.0,0.0,-0.3511641
357373660,-0.02690618,-0.06384141,0.0037763056,0.0,0.0,-0.36053932
357405657,-0.032027457,-0.0844151,0.004210751,0.0,0.0,-0.37242365
357437697,-0.02352515,-0.08336997,0.0035647033,0.0,0.0,-0.38058028
357469698,-0.02385777,-0.106993385,0.0034940804,0.0,0.0,-0.39278987
357501661,-0.01640505,-0.1050348,0.004108065,0.0,0.0,-0.40601173
357533671,-0.009207352,-0.10412248,0.0046422277,0.0,0.0,-0.41442275
357565677,0.0010318212,-0.090350285,0.004446946,0.0,0.0,-0.42820925
357597696,0.0073320293,-0.072989315,0.0050077355,0.0,0.0,-0.434847
357629676,0.00569068,-0.015437268,0.004967987,0.0,0.0,-0.45230287
357657708,0.003093262,0.011726771,0.0047137123,0.0,0.0,-0.4569336
357689697,0.0053621493,0.016788032,0.0042901947,0.0,0.0,-0.4695684
357721664,0.0034078965,0.024978975,0.003044534,0.0,0.0,-0.47255203
357753694,-0.008719468,0.021307258,0.0031113864,0.0,0.0,-0.47136754
357785735,-0.00046924,0.031158432,0.0019290373,0.0,0.0,-0.4726832
357817674,0.0078423275,0.011132727,0.00046185026,0.0,0.0,-0.47152385
357849661,0.025695378,0.025751937,-0.0034690253,0.0,0.0,-0.4707803
357881706,0.019425696,0.025317954,-0.0073095877,0.0,0.0,-0.4728268
357909752,0.037651222,0.017726855,-0.009972951,0.0,0.0,-0.47285718
357941687,0.048515204,0.021321304,-0.012985605,0.0,0.0,-0.46818906
357973689,0.036307447,0.023096807,-0.016406737,0.0,0.0,-0.46711463
358005661,0.023617022,0.01477006,-0.016635777,0.0,0.0,-0.46651214
358037664,0.023873582,0.018657975,-0.015850976,0.0,0.0,-0.4657553
358069696,0.008913151,-0.0024343093,-0.015174501,0.0,0.0,-0.46285024
358100106,-0.0010746446,-0.020822199,-0.016267098,0.0,0.0,-0.4612907
358132899,0.0069718994,-0.04498899,-0.014900338,0.0,0.0,-0.4588978
358164942,0.006165151,-0.077094845,-0.015277067,0.0,0.0,-0.47535017
358192114,-0.0115206465,-0.10045282,-0.016147312,0.0,0.0,-0.47414464
358224938,-0.015363219,-0.16292635,-0.016228672,0.0,0.0,-0.46775988
358256892,-0.008576707,-0.14949633,-0.017429575,0.0,0.0,-0.4646426
358288902,0.0017150356,-0.08502463,-0.01770227,0.0,0.0,-0.46379304
358320858,-0.0012575982,-0.050315995,-0.017874852,0.0,0.0,-0.46642965
358352991,0.0041282685,0.018536782,-0.018879162,0.0,0.0,-0.47057593
358384893,0.03678016,0.028633524,-0.019560518,0.0,0.0,-0.47058338
358416933,0.043893613,0.0060756956,-0.018990763,0.0,0.0,-0.4710022
358448864,0.05224721,0.03088763,-0.019739928,0.0,0.0,-0.46911207
358480876,0.064948395,0.03127279,-0.019144228,0.0,0.0,-0.46575636
358512917,0.058239724,0.01941052,-0.01942393,0.0,0.0,-0.46066594
358544864,0.05455299,0.02675961,-0.019092144,0.0,0.0,-0.4617883
358576871,0.050869815,0.026659947,-0.017242832,0.0,0.0,-0.4616241
358608904,0.049309943,0.022831762,-0.0157786,0.0,0.0,-0.46021315
358640914,0.035151407,0.025088213,-0.012850355,0.0,0.0,-0.45994774
358672919,0.02660708,0.027123885,-0.010486261,0.0,0.0,-0.45785952
358704865,0.008231497,0.025041377,-0.008518502,0.0,0.0,-0.4574939
358736898,0.0007967771,0.020351365,-0.0075102444,0.0,0.0,-0.457198
358768932,0.0003482683,0.024217397,-0.006399123,0.0,0.0,-0.45669258
358800858,0.0071261153,0.017098768,-0.0062667616,0.0,0.0,-0.4538563
358832963,0.011498087,0.024232835,-0.008103332,0.0,0.0,-0.45381638
358864922,0.012242442,0.024979364,-0.008049143,0.0,0.0,-0.4561209
358896947,0.0020465944,0.025535336,-0.008541043,0.0,0.0,-0.45530057
358928093,-0.0014195268,0.025962396,-0.007837333,0.0,0.0,-0.4569161
358959367,0.005224699,0.019529218,-0.007974892,0.0,0.0,-0.45978048
358992099,0.0013011548,0.022083072,-0.007900591,0.0,0.0,-0.46178114
359024141,0.0016136806,0.01525685,-0.0077181775,0.0,0.0,-0.46143436
359056073,-0.0072636735,-0.005898688,-0.0071516074,0.0,0.0,-0.4614728
359088092,0.009048881,-0.037252072,-0.007050599,0.0,0.0,-0.46163473
359120079,0.01683262,-0.07419632,-0.007841537,0.0,0.0,-0.45885602
359152157,0.004273579,-0.09335556,-0.009564275,0.0,0.0,-0.4591832
359184075,-0.0023177215,-0.08526605,-0.010297713,0.0,0.0,-0.4586905
359216100,0.0066295145,-0.09336063,-0.0108559895,0.0,0.0,-0.45841053
359248066,-0.0056236167,-0.12839244,-0.01113583,0.0,0.0,-0.4574494
359280154,0.0075049656,-0.11854893,-0.010674019,0.0,0.0,-0.46014562
359312060,0.0013077366,-0.13270056,-0.01147747,0.0,0.0,-0.4604101
359344123,0.009596713,-0.15376057,-0.011824146,0.0,0.0,-0.45964333
359376079,0.014636922,-0.5837769,-0.013210442,0.0,0.0,-0.45948356
359408152,-0.009610148,-0.6026883,-0.01184099,0.0,0.0,-0.46070975
359440074,-0.0012038139,-0.56900346,-0.012417676,0.0,0.0,-0.45929018
359472063,0.011005801,-0.49342844,-0.013373488,0.0,0.0,-0.4538146
359504113,0.000996137,-0.29577467,-0.013952015,0.0,0.0,-0.4554926
359536100,-0.01192108,-0.13113187,-0.016127756,0.0,0.0,-0.45518962
359568059,-0.011387128,0.0810229,-0.018973898,0.0,0.0,-0.45133236
359600078,0.0022077279,0.1181024,-0.023071812,0.0,0.0,-0.45478374
359632104,0.022928687,0.28293252,-0.024489574,0.0,0.0,-0.46149245
359664096,0.027901987,0.2474832,-0.02533973,0.0,0.0,-0.47382933
359695280,0.033772074,0.1607084,-0.028126094,0.0,0.0,-0.47983307
359726522,0.024523135,0.08270561,-0.030709794,0.0,0.0,-0.48278138
359759353,0.028528111,0.04427308,-0.03461939,0.0,0.0,-0.48383313
359791350,0.0024770214,0.0078441715,-0.035426408,0.0,0.0,-0.47492665
359823274,-0.024199614,0.02879175,-0.034055732,0.0,0.0,-0.45790213
359855265,-0.012488024,0.031043237,-0.03376145,0.0,0.0,-0.45256615
359887277,0.027104964,0.015677107,-0.03388982,0.0,0.0,-0.4576343
359915302,0.052957017,-0.006366215,-0.033670444,0.0,0.0,-0.45893157
359947312,0.053677734,-0.036889587,-0.03374195,0.0,0.0,-0.46559143
359979457,0.030379355,-0.00824952,-0.03324638,0.0,0.0,-0.4697398
360011260,-0.003984537,0.03536776,-0.032009155,0.0,0.0,-0.47095415
360043347,-0.00532291,0.0042258026,-0.02977323,0.0,0.0,-0.46382743
360075304,0.016693966,0.0118811,-0.03026526,0.0,0.0,-0.45057237
360107323,0.052713238,0.03312699,-0.030374978,0.0,0.0,-0.4485818
360135320,0.07103321,0.02336494,-0.030679746,0.0,0.0,-0.45491275
360167336,0.06600086,0.0026178984,-0.028929597,0.0,0.0,-0.45821366
360199322,0.04361192,0.02634285,-0.02774055,0.0,0.0,-0.45962042
360231304,0.0017070116,0.011592142,-0.025198571,0.0,0.0,-0.45864707
360263306,-0.003797006,0.015367591,-0.021558477,0.0,0.0,-0.45533693
360295312,0.012822072,0.03214429,-0.02173467,0.0,0.0,-0.45040727
360327263,0.0010375563,0.0065109995,-0.096064806,0.0,0.0,-0.45077038
360359346,-0.0029628202,0.020457173,-0.095240876,0.0,0.0,-0.45270187
360391285,-3.0617928e-05,0.022186205,-0.24263005,0.0,0.0,-0.44951072
360423309,-0.0034581767,0.012835091,-0.3007332,0.0,0.0,-0.44828293
360454459,-0.008726325,0.032836948,-0.37418985,0.0,0.0,-0.44565013
360488866,0.00047372573,0.018760769,-0.45623216,0.0,0.0,-0.447126
360519386,0.006630193,0.0122184,-0.4647611,0.0,0.0,-0.4474185
360551306,-0.010856809,0.011416266,-0.46324074,0.0,0.0,-0.4459933
360582462,-0.0019434062,0.014384722,-0.4555498,0.0,0.0,-0.44468287
360614492,0.00948012,0.0149528,-0.46885523,0.0,0.0,-0.4481096
360646512,-0.0061865184,0.008250724,-0.4861162,0.0,0.0,-0.44552693
360674533,-0.019861296,0.024382131,-0.48816478,0.0,0.0,-0.44633695
360706506,-0.0005569159,0.01883346,-0.49530706,0.0,0.0,-0.44408736
360738498,0.02672443,0.0025666775,-0.49648085,0.0,0.0,-0.44411814
360770464,0.014645045,0.0013425389,-0.4991602,0.0,0.0,-0.44352645
360802510,-0.0020697133,0.015545382,-0.492131,0.0,0.0,-0.4476187
360834488,-0.011766403,0.006870667,-0.5021776,0.0,0.0,-0.44479826
360866461,-0.013276246,0.008678483,-0.513814,0.0,0.0,-0.44457582
360898467,-0.0018001361,0.016293796,-0.50667053,0.0,0.0,-0.4423714
360926503,-0.0036106918,-0.108717814,-0.5054955,0.0,0.0,-0.44435316
360958472,-0.011322771,-0.20472698,-0.4861011,0.0,0.0,-0.4438705
360990551,-0.01646595,-0.38453418,-0.34899944,0.0,0.0,-0.44801694
361022509,0.0067196125,-0.36923382,-0.26836327,0.0,0.0,-0.44558632
361054508,0.0008471877,-0.18788604,-0.18642089,0.0,0.0,-0.44402033
361086456,0.008851461,-0.13439097,-0.19004312,0.0,0.0,-0.44587788
361118499,0.0005828596,-0.16296268,-0.19524397,0.0,0.0,-0.44816375
361150516,0.0053248606,-0.18475227,-0.19547257,0.0,0.0,-0.4537108
361178531,-0.016983679,-0.18871589,-0.18716393,0.0,0.0,-0.45068976
361210502,-0.02958314,-0.19390386,-0.1848965,0.0,0.0,-0.446577
361241705,-0.012671484,-0.19180565,-0.1846868,0.0,0.0,-0.4455661
361273695,0.005440989,-0.1506,-0.18453234,0.0,0.0,-0.44600347
361305735,-0.016631197,-0.08124501,-0.18801919,0.0,0.0,-0.46805337
361337668,-0.029520698,-0.01509614,-0.19044378,0.0,0.0,-0.48445138
361369695,-0.027267119,0.030218424,-0.20102479,0.0,0.0,-0.49759027
361401698,-0.021100616,0.021646194,-0.19443682,0.0,0.0,-0.50863963
361433757,-0.003616867,0.015191464,-0.17600538,0.0,0.0,-0.528763
361465663,0.022786349,0.007248879,-0.1746606,0.0,0.0,-0.525968
361493711,0.03579277,-0.021912258,-0.17251615,0.0,0.0,-0.52258766
361525661,0.046857055,-0.041631963,-0.17633237,0.0,0.0,-0.51583654
361557679,0.055042934,-0.045965303,-0.17340933,0.0,0.0,-0.50740755
361589699,0.045241825,-0.032358665,-0.1851516,0.0,0.0,-0.4958941
361621715,0.06687531,-0.020663438,-0.17854741,0.0,0.0,-0.4945898
361653661,0.09914924,-0.0055147824,-0.18145235,0.0,0.0,-0.482733
361685695,0.10991569,-0.0026444304,-0.18046285,0.0,0.0,-0.48332456
361717679,0.11765494,-0.011496385,-0.17151193,0.0,0.0,-0.48174873
361749730,0.10762715,-0.01874857,-0.16041557,0.0,0.0,-0.47602648
361781661,0.0871682,-0.021793809,-0.12613069,0.0,0.0,-0.47406858
361813684,0.0554562,0.0017722365,-0.10138347,0.0,0.0,-0.4748176
361845717,0.03404709,-0.006175004,-0.07972241,0.0,0.0,-0.47353238
361877747,0.038386133,-0.0005002628,-0.07374347,0.0,0.0,-0.46840242
361909670,0.06075182,0.0015827768,-0.08988532,0.0,0.0,-0.46756095
361941677,0.056634646,0.0113570215,-0.08161309,0.0,0.0,-0.46647373
361973697,0.06074816,0.020690585,-0.109612554,0.0,0.0,-0.46769542
362005713,0.04007904,0.012998351,-0.20209815,0.0,0.0,-0.47346753
362036078,0.04329309,0.014698809,-0.25461254,0.0,0.0,-0.48397467
362069659,0.05777567,0.005065514,-0.38820687,0.0,0.0,-0.49745074
362100889,0.064696245,0.012394603,-0.41920608,0.0,0.0,-0.50261533
362132114,0.06920777,0.0112411,-0.53840065,0.0,0.0,-0.51005393
362164862,0.0746949,0.00022358308,-0.52381665,0.0,0.0,-0.510594
362196916,0.08623385,-0.016217384,-0.5977426,0.0,0.0,-0.5114035
362224869,0.06757226,-0.023288436,-0.5902749,0.0,0.0,-0.5120623
362256901,0.039831795,-0.004164858,-0.5996636,0.0,0.0,-0.5038819
362288905,0.036372136,0.006731765,-0.6090838,0.0,0.0,-0.5020047
362320932,0.045601033,0.0031647186,-0.5896807,0.0,0.0,-0.5010628
362352887,0.062283304,-0.011869841,-0.592513,0.0,0.0,-0.49546278
362384947,0.053382948,-0.0362201,-0.57289374,0.0,0.0,-0.49389243
362416898,0.02742062,-0.05979252,-0.5845281,0.0,0.0,-0.49552375
362448951,0.012646193,-0.048310976,-0.5773774,0.0,0.0,-0.49674666
362476899,0.035009746,-0.032004874,-0.54413915,0.0,0.0,-0.49875054
362508895,0.054683156,-0.027141893,-0.54311085,0.0,0.0,-0.49866936
362540857,0.061319128,-0.033604626,-0.52382493,0.0,0.0,-0.5016796
362572955,0.045830857,-0.027778186,-0.5216062,0.0,0.0,-0.5076129
362604882,0.05029619,-0.029124983,-0.49523374,0.0,0.0,-0.50678253
362636940,0.051306635,0.0036823268,-0.51382804,0.0,0.0,-0.5114121
362668878,0.05140337,0.026274014,-0.51902306,0.0,0.0,-0.5172674
362700931,0.06785944,0.014076177,-0.49426433,0.0,0.0,-0.52079564
362732938,0.0729856,-0.0031469706,-0.50622904,0.0,0.0,-0.5276146
362764859,0.09251432,-0.01064991,-0.4608689,0.0,0.0,-0.5341179
362796855,0.08175946,-0.0012744381,-0.45540693,0.0,0.0,-0.53318304
362828157,0.057246853,0.00033397484,-0.44322988,0.0,0.0,-0.5268199
362860898,0.028582547,-0.017798685,-0.4306076,0.0,0.0,-0.52556413
362892125,0.025497055,-0.17016685,-0.440871,0.0,0.0,-0.51918536
362924064,0.034183986,-0.26290092,-0.41856563,0.0,0.0,-0.51621604
362956138,0.046023045,-0.28089026,-0.41216058,0.0,0.0,-0.5111308
362988133,0.05502727,-0.24268411,-0.42247346,0.0,0.0,-0.50891566
363016165,0.019033514,-0.19730297,-0.41551375,0.0,0.0,-0.5078183
363048100,-0.0030704169,-0.13659248,-0.4262056,0.0,0.0,-0.5089691
363080117,-0.021398319,-0.08116443,-0.4037539,0.0,0.0,-0.5104371
363112062,0.020929344,-0.059368752,-0.4039538,0.0,0.0,-0.5130461
363144152,0.066824004,-0.06250832,-0.3847047,0.0,0.0,-0.5165944
363176119,0.06740236,-0.069582455,-0.38899615,0.0,0.0,-0.51808447
363208119,0.0371925,-0.07951245,-0.3758338,0.0,0.0,-0.52444506
363240115,0.002481467,-0.07390907,-0.35744274,0.0,0.0,-0.5236539
363268137,0.012241317,-0.11583983,-0.3627559,0.0,0.0,-0.52507395
363300062,0.011446858,-0.09887608,-0.34810933,0.0,0.0,-0.52721375
363332129,0.02325628,-0.13191149,-0.33343792,0.0,0.0,-0.51897055
363364099,0.023353148,-0.11386637,-0.30361563,0.0,0.0,-0.5195779
363396111,0.009920417,-0.08401887,-0.26250023,0.0,0.0,-0.5076442
363428074,0.014199095,-0.06072528,-0.25600147,0.0,0.0,-0.50752044
363460137,0.004362493,-0.029569764,-0.22858278,0.0,0.0,-0.50967306
363492131,-0.023558345,-0.010754349,-0.22338213,0.0,0.0,-0.5168851
363520170,-0.034363102,-0.025379552,-0.20111889,0.0,0.0,-0.5163184
363552066,-0.008141583,0.0026097083,-0.10954129,0.0,0.0,-0.5164886
363584105,0.020747729,0.040813662,-0.008197445,0.0,0.0,-0.5108867
363615281,0.019318068,0.1001921,0.018725019,0.0,0.0,-0.4939313
363647291,0.015973877,0.08939718,0.037471756,0.0,0.0,-0.48402053
363679323,-0.002313286,0.046844088,0.05413035,0.0,0.0,-0.48828265
363711322,-0.0040863585,0.034195717,0.06730508,0.0,0.0,-0.4921155
363743315,-0.0053936117,0.039737962,0.078578636,0.0,0.0,-0.4937797
363775312,-0.0017428882,0.061309744,0.08792802,0.0,0.0,-0.49856794
363807272,0.004100489,0.060422525,0.095881335,0.0,0.0,-0.50201344
363839360,0.024787914,0.07195218,0.10239803,0.0,0.0,-0.5033845
363871321,0.014076983,0.17219006,0.10692355,0.0,0.0,-0.508175
363903326,-0.012726389,0.18316555,0.10970683,0.0,0.0,-0.5094804
363935261,-0.014959346,0.17923486,0.11221297,0.0,0.0,-0.5154932
363967307,-0.026717171,0.13768691,0.11403883,0.0,0.0,-0.53541625
363999372,-0.017348472,0.060111865,0.1155422,0.0,0.0,-0.5536866
364027317,-0.013748741,0.008308602,0.115545645,0.0,0.0,-0.5623676
364059361,0.004918298,0.008581057,0.114367045,0.0,0.0,-0.5541388
364091348,0.038364604,0.0399373,0.11268161,0.0,0.0,-0.541225
364123265,0.022095714,0.0476459,0.109109715,0.0,0.0,-0.53655475
364155298,0.022002844,0.07310358,0.10666542,0.0,0.0,-0.52537507
364187304,0.03181652,0.08119064,0.10375094,0.0,0.0,-0.5223652
364219412,0.026635705,0.05888415,0.09974543,0.0,0.0,-0.5103306
364251266,0.0022089214,0.0374312,0.09352213,0.0,0.0,-0.5037655
364283292,-0.0040068934,0.02587518,0.08739485,0.0,0.0,-0.50011843
364311272,-0.010480472,0.03455701,0.081115425,0.0,0.0,-0.49297607
364343300,0.023476595,0.029921306,0.075268514,0.0,0.0,-0.49756375
364375289,0.03512279,0.021696473,0.06800993,0.0,0.0,-0.4996636
364407325,0.017662305,0.0055030277,0.061694782,0.0,0.0,-0.50178784
364439323,-0.00395895,0.013656048,0.05570151,0.0,0.0,-0.50631356
364470497,-0.0013428892,0.053998847,0.050032556,0.0,0.0,-0.51175374
364502522,0.014256243,0.042339,0.04670952,0.0,0.0,-0.51553875
364534543,-0.0033540826,0.03292031,0.041096598,0.0,0.0,-0.5215083
364566470,-0.034466323,0.02729636,0.035928484,0.0,0.0,-0.52714676
364594471,-0.027724314,0.03628667,0.03111386,0.0,0.0,-0.5263332
364626463,-0.019975282,0.014318325,0.02726882,0.0,0.0,-0.5288953
364658485,-0.0029852767,-0.012784731,0.023584485,0.0,0.0,-0.5272734
364690491,-0.0016073703,-0.029414745,0.021103881,0.0,0.0,-0.5245558
364722465,-0.0013449329,-0.031532176,0.019050946,0.0,0.0,-0.5233165
364754466,-0.006036266,-0.03623653,0.017091075,0.0,0.0,-0.52373475
364786483,-0.010928183,-0.04090335,0.014426544,0.0,0.0,-0.5251143
364818509,-0.029080322,-0.048760824,0.012048908,0.0,0.0,-0.52502215
364846489,-0.032501187,-0.0359611,0.008489841,0.0,0.0,-0.5238808
364878503,-0.027472056,-0.028279955,0.005583199,0.0,0.0,-0.5266041
364910457,-0.016735343,-0.021782503,0.0033458062,0.0,0.0,-0.5187329
364942468,-0.007341345,-0.012857133,0.0017752299,0.0,0.0,-0.5164998
364974496,-0.007636058,0.003004345,0.0005464974,0.0,0.0,-0.51352656
365006495,-0.0030451017,-0.003957841,0.0004567829,0.0,0.0,-0.50906193
365038457,-0.000416658,-0.021321934,0.00048451082,0.0,0.0,-0.50782233
365070476,-0.014026912,-0.024443123,-0.00094924076,0.0,0.0,-0.5059322
365098465,0.0027444083,-0.011632004,-0.0025814427,0.0,0.0,-0.50650847
365130468,-0.008248834,-0.009045091,-0.0030278491,0.0,0.0,-0.50856066
365162510,-0.0037818272,0.004206407,-0.0046754046,0.0,0.0,-0.50711113
365193698,-0.0036443234,-0.0005622275,-0.005719546,0.0,0.0,-0.50380534
365226468,0.000109980596,-0.025854804,-0.005729809,0.0,0.0,-0.5025499
365256131,-0.0024807856,-0.031957265,-0.008234121,0.0,0.0,-0.5054455
365287294,0.005329642,-0.043646984,-0.00866041,0.0,0.0,-0.5103859
365319335,0.00067740434,-0.053473637,-0.009792697,0.0,0.0,-0.5129062
365351331,-0.0024587882,-0.049974903,-0.010526515,0.0,0.0,-0.5103369
365385691,0.00858479,-0.033574995,-0.010122539,0.0,0.0,-0.5061629
365417691,0.0045563006,-0.031777624,-0.010165751,0.0,0.0,-0.51197225
365449680,0.0045296536,-0.051266536,-0.0093864,0.0,0.0,-0.5141999
365481662,0.008717353,-0.036120288,-0.010528428,0.0,0.0,-0.51869047
365513658,0.019192638,-0.05978621,-0.009400391,0.0,0.0,-0.5272466
365545689,0.0053970935,-0.083383806,-0.009482574,0.0,0.0,-0.5325627
365577655,0.009128317,-0.09209111,-0.008182658,0.0,0.0,-0.53774464
365609704,0.016385112,-0.08645642,-0.005702962,0.0,0.0,-0.5430479
365637660,0.014070094,-0.068338685,-0.005393303,0.0,0.0,-0.543789
365669690,0.010303459,-0.077547856,-0.004649114,0.0,0.0,-0.5380768
365701701,-0.0019538724,-0.11049072,-0.0034260591,0.0,0.0,-0.5378035
365733703,-0.007101461,-0.13231316,-0.0036817961,0.0,0.0,-0.52774584
365765659,0.0005266118,-0.111387715,-0.0039185598,0.0,0.0,-0.52183026
365797668,0.00028211545,-0.0958529,-0.003625748,0.0,0.0,-0.5173445
365829685,-0.013124161,-0.08697697,-0.0042438325,0.0,0.0,-0.5169205
365861707,-0.017183365,-0.08401538,-0.004587643,0.0,0.0,-0.54865474
365889742,0.012327349,-0.09088352,-0.00294057,0.0,0.0,-0.569703
365921685,0.017492333,-0.0858433,-0.003837582,0.0,0.0,-0.56982833
365953668,0.010400012,-0.08311447,-0.0046164193,0.0,0.0,-0.5526481
365985667,0.012650891,-0.07910135,-0.004746263,0.0,0.0,-0.5470483
366016932,0.009877198,-0.07713469,-0.0053529334,0.0,0.0,-0.5239628
366048861,0.017010659,-0.07633941,-0.005689013,0.0,0.0,-0.50596714
366080908,0.016362872,-0.06237756,-0.0064809253,0.0,0.0,-0.48075834
366112899,0.0026020946,-0.033773907,-0.006785381,0.0,0.0,-0.45596632
366144924,-0.0020015133,-0.02771446,-0.0072646695,0.0,0.0,-0.45754778
366176908,-0.0043467246,-0.0040810197,-0.008641048,0.0,0.0,-0.46058542
366208855,-0.0006534372,-0.016352488,-0.007841964,0.0,0.0,-0.46085495
366240869,-0.0024331268,-0.001222224,-0.008597547,0.0,0.0,-0.47143817
366272917,-0.0015516763,-0.0044856817,-0.007852199,0.0,0.0,-0.4817901
366304906,-0.00010782712,0.011988381,-0.008924031,0.0,0.0,-0.48887524
366336861,-0.004681705,0.014662562,-0.008815108,0.0,0.0,-0.50370437
366368874,-0.0011124843,-0.0074254377,-0.009013838,0.0,0.0,-0.5085535
366400893,0.0033463098,-0.0026975377,-0.010920493,0.0,0.0,-0.51560116
366432946,0.000562841,-0.004175907,-0.011312424,0.0,0.0,-0.52192837
366464857,-0.007000672,0.014957908,-0.011993069,0.0,0.0,-0.5255956
366496885,-0.00547085,0.0080930125,-0.012692799,0.0,0.0,-0.52960736
366528898,0.0064916518,-0.026097827,-0.01359881,0.0,0.0,-0.52588624
366560977,0.007187943,-0.051575832,-0.014200128,0.0,0.0,-0.53069884
366592911,0.011118479,-0.059532564,-0.014726442,0.0,0.0,-0.5279094
366624908,0.012265648,-0.04801498,-0.016132003,0.0,0.0,-0.5280831
366656882,-0.008611236,-0.06869994,-0.01720959,0.0,0.0,-0.5562994
366688937,-0.006362921,-0.07955804,-0.017069696,0.0,0.0,-0.56645745
366720858,-0.0005917317,-0.08459772,-0.018052684,0.0,0.0,-0.56247663
366752944,0.0024403487,-0.08561047,-0.020277994,0.0,0.0,-0.55935967
366784868,0.002976831,-0.081161015,-0.020937163,0.0,0.0,-0.55072683
366816121,0.006153034,-0.0812264,-0.020260457,0.0,0.0,-0.5404846
366844910,0.013339648,-0.075155206,-0.020111173,0.0,0.0,-0.5335977
366876933,0.007489628,-0.060557857,-0.022150341,0.0,0.0,-0.52737933
366908111,-0.0047222916,-0.04901939,-0.02301598,0.0,0.0,-0.52679914
366940102,-0.0038252005,-0.044436473,-0.023357593,0.0,0.0,-0.5314373
366972104,-0.00062769087,-0.023819752,-0.025062788,0.0,0.0,-0.5307736
367004116,-0.007315476,-0.025501106,-0.025840595,0.0,0.0,-0.53027475
367036066,0.00036940782,-0.049770612,-0.02603234,0.0,0.0,-0.53032744
367068106,0.0031084972,-0.060622055,-0.02763483,0.0,0.0,-0.52969
367100101,-0.01045778,-0.04913227,-0.029829156,0.0,0.0,-0.5251849
367132126,-0.0042955726,-0.022953218,-0.03062744,0.0,0.0,-0.5206595
367160133,0.0055319923,-0.01853729,-0.030881857,0.0,0.0,-0.522221
367192071,0.014336164,0.0036909184,-0.03140718,0.0,0.0,-0.51791734
367224060,0.0058113947,-0.007276469,-0.031932846,0.0,0.0,-0.5197195
367256103,0.0061287126,0.00077495695,-0.033189077,0.0,0.0,-0.51938015
367288116,0.00811315,0.0074423742,-0.035955306,0.0,0.0,-0.51716423
367320138,0.0098958,0.0009973092,-0.03561537,0.0,0.0,-0.5190738
367352060,0.005724391,-0.00045551074,-0.03496947,0.0,0.0,-0.5174813
367384134,0.0035652514,0.008134824,-0.036847766,0.0,0.0,-0.51937795
367416109,0.00013138993,0.0180676,-0.038271613,0.0,0.0,-0.5267724
367448100,-0.0045133457,0.017695509,-0.03826796,0.0,0.0,-0.5249364
367480063,-0.019379431,0.014815144,-0.037995126,0.0,0.0,-0.5302283
367512133,-0.035950854,0.0041970997,-0.038445964,0.0,0.0,-0.52992994
367544125,-0.037712466,0.014161451,-0.040192936,0.0,0.0,-0.52920026
367575312,-0.02507915,0.029666347,-0.04065996,0.0,0.0,-0.5248907
367606540,-0.0012199432,0.032493953,-0.040224582,0.0,0.0,-0.5275192
367639389,0.022745095,0.018675193,-0.040297337,0.0,0.0,-0.5222493
367667293,0.02654768,-0.0016503984,-0.04251799,0.0,0.0,-0.52304834
367699358,0.019513102,-0.036444195,-0.042190656,0.0,0.0,-0.5202111
367731338,0.011622121,-0.054462213,-0.04190917,0.0,0.0,-0.5199963
367763277,0.009587503,-0.019502569,-0.0421002,0.0,0.0,-0.5193581
367795267,0.006676676,0.015413158,-0.042028204,0.0,0.0,-0.519151
367827306,-0.014791678,0.040776525,-0.040852536,0.0,0.0,-0.52155244
367859376,-0.018716885,0.07021116,-0.039714977,0.0,0.0,-0.52220136
367891281,0.0031034623,0.05630578,-0.039884645,0.0,0.0,-0.52012724
367919475,0.01701887,0.006797502,-0.037932906,0.0,0.0,-0.52042204
367951267,-0.019776393,-0.04441904,-0.03738408,0.0,0.0,-0.5204917
367983316,-0.04198124,-0.061269674,-0.03573536,0.0,0.0,-0.5232776
368015296,-0.02608444,-0.062493972,-0.03198229,0.0,0.0,-0.5293659
368047279,-0.010369475,-0.03886739,-0.028765844,0.0,0.0,-0.53312224
368079367,-0.01877844,0.011285643,-0.02776431,0.0,0.0,-0.5387615
368111325,-0.023205308,0.010220752,-0.027253816,0.0,0.0,-0.54395014
368143315,-0.004763491,-0.009661796,-0.025143659,0.0,0.0,-0.54959995
368171334,-0.00883912,-0.012252107,-0.023995625,0.0,0.0,-0.55063784
368203312,-0.0116357645,0.006422928,-0.02267144,0.0,0.0,-0.5526919
368235263,-0.008186057,-0.008676045,-0.020682132,0.0,0.0,-0.55170107
368267297,-0.00013413973,-0.006529339,-0.019965561,0.0,0.0,-0.5494238
368299360,0.010409576,0.005260112,-0.01907924,0.0,0.0,-0.5398396
368331364,0.009877139,-0.00032834162,-0.016872993,0.0,0.0,-0.5376646
368363266,-0.01202441,0.028618587,-0.015477644,0.0,0.0,-0.533226
368393710,-0.018063776,0.015303463,-0.012641999,0.0,0.0,-0.5305157
368426499,-0.02450058,0.012995943,-0.009961159,0.0,0.0,-0.5274918
368458500,-0.017040491,0.031949032,-0.0067611723,0.0,0.0,-0.53200346
368486539,-0.019429546,0.014915687,-0.004361281,0.0,0.0,-0.5357677
368518464,-0.023508204,-0.03350057,-0.0026926433,0.0,0.0,-0.53593487
368550498,-0.011869749,-0.04284685,-0.0013264731,0.0,0.0,-0.53383404
368582455,-0.0031446384,-0.009332111,-0.0006042391,0.0,0.0,-0.5301174
368614542,-0.0073063453,-0.023053441,-0.00054887804,0.0,0.0,-0.52135307
368646459,-0.0036919774,-0.051807884,-0.00021417724,0.0,0.0,-0.5183743
368678461,0.012556106,-0.05906901,0.0007998327,0.0,0.0,-0.51416755
368710509,0.01960195,-0.027019639,-9.609906e-06,0.0,0.0,-0.5167072
368738510,0.013885568,-0.0071612718,0.00048939005,0.0,0.0,-0.52016956
368770479,0.015217945,0.005183636,0.0013704621,0.0,0.0,-0.52107155
368802541,0.028942153,-0.011379885,0.0019125589,0.0,0.0,-0.5235193
368834460,0.033251695,-0.0535019,0.0018574935,0.0,0.0,-0.52609086
368866515,0.020281067,-0.12652627,0.0018894908,0.0,0.0,-0.52262676
368898468,-0.0022882973,-0.24145603,0.0014894903,0.0,0.0,-0.5229761
368930498,-0.010747905,-0.22046009,0.0013109393,0.0,0.0,-0.5226464
368962470,-0.012191917,-0.23096934,-0.00050233316,0.0,0.0,-0.5134352
368990529,-0.004924794,-0.20310704,-0.00017745155,0.0,0.0,-0.5150075
369022469,-0.0063511077,-0.13150135,-0.0019948455,0.0,0.0,-0.5152163
369054504,-0.011184492,-0.07768045,-0.0032156713,0.0,0.0,-0.5213221
369086498,-0.0031193325,-0.057013392,-0.0040500276,0.0,0.0,-0.52326286
369118537,0.023009133,-0.06116324,-0.0049880017,0.0,0.0,-0.52709424
369150455,0.028388333,-0.09740045,-0.0056523094,0.0,0.0,-0.5239359
369181702,-0.008309586,-0.14798823,-0.004600135,0.0,0.0,-0.52871335
369213700,-0.024369996,-0.13038594,-0.004578535,0.0,0.0,-0.5288386
369245736,-0.006118097,-0.0849853,-0.0048344815,0.0,0.0,-0.5270109
369277658,0.0040325276,-0.016135465,-0.004043215,0.0,0.0,-0.5246135
369305670,0.021236103,0.006690187,-0.0033883615,0.0,0.0,-0.5287932
369337666,-0.0035533323,0.007824813,-0.002537632,0.0,0.0,-0.5257981
369369674,-0.016613653,-0.015440714,-0.0008318002,0.0,0.0,-0.52745116
369401697,-0.01857522,-0.029919732,-0.0005352154,0.0,0.0,-0.5237332
369433738,-0.007393057,-0.02061654,-0.00046992142,0.0,0.0,-0.5251344
369465664,0.021102253,-0.0033179233,0.0015410916,0.0,0.0,-0.5262185
369497695,0.017657459,0.018241042,0.0028632642,0.0,0.0,-0.52762264
369529712,-0.0066374517,0.039907254,0.0031626006,0.0,0.0,-0.52944094
369557695,-0.0009334772,0.07421044,0.005051379,0.0,0.0,-0.53683686
369589706,0.005900337,0.036438677,0.006251728,0.0,0.0,-0.53837943
369621679,-0.00531913,-0.019432211,0.0051190536,0.0,0.0,-0.5431309
369653665,-0.018129414,-0.06472084,0.0044219736,0.0,0.0,-0.5353547
369685728,-0.0020183986,-0.08691302,0.003831932,0.0,0.0,-0.52908677
369717716,0.005249032,-0.08231084,0.0027247155,0.0,0.0,-0.52428365
369749698,0.0109003335,-0.042791512,0.00063774426,0.0,0.0,-0.52884847
369781667,0.032855533,-0.016664207,-0.001579641,0.0,0.0,-0.5281672
369809709,0.032655887,-0.020252202,-0.0036351837,0.0,0.0,-0.5289747
369841669,0.029259928,-0.037037276,-0.0055674096,0.0,0.0,-0.53690743
369873720,0.022126896,-0.020413226,-0.008185167,0.0,0.0,-0.53701466
369905698,0.0155496895,-0.0046533532,-0.009173845,0.0,0.0,-0.54419816
369937707,0.010311545,-0.020174628,-0.009034269,0.0,0.0,-0.54280716
369969660,0.004549987,-0.055556267,-0.010214768,0.0,0.0,-0.5418083
370000923,0.006740272,-0.05563952,-0.010540775,0.0,0.0,-0.5394665
370032929,0.010319137,-0.0424249,-0.010600118,0.0,0.0,-0.53902334
370064878,0.017075522,-0.015030514,-0.010865029,0.0,0.0,-0.53711706
370092924,0.012917582,-0.0074461466,-0.011478626,0.0,0.0,-0.5338336
370124870,0.004373852,-0.005015077,-0.010015184,0.0,0.0,-0.53115726
370156878,0.00012012567,-0.008144099,-0.009384885,0.0,0.0,-0.5310045
370188900,0.00054194615,-0.015028609,-0.009438143,0.0,0.0,-0.5273217
370220866,-0.008671586,0.0024445038,-0.010519026,0.0,0.0,-0.5265851
370252894,-0.012290146,0.010590038,-0.009964874,0.0,0.0,-0.52333254
370284881,0.0030982888,0.023450844,-0.009718177,0.0,0.0,-0.5243462
370316913,0.0039260034,0.048467398,-0.010771679,0.0,0.0,-0.5245207
370344930,0.002258431,0.034471497,-0.011324195,0.0,0.0,-0.5236053
370376899,-0.016990947,0.018640239,-0.010886304,0.0,0.0,-0.52530223
370408858,-0.015115739,0.006060789,-0.011005263,0.0,0.0,-0.5240688
370440864,0.010515319,-0.00052461616,-0.011642037,0.0,0.0,-0.52456295
370472923,0.0125936065,0.009803475,-0.012578877,0.0,0.0,-0.52613926
370504911,0.01133619,0.018962268,-0.012648293,0.0,0.0,-0.53394115
370536863,0.013795378,0.0067746104,-0.013822354,0.0,0.0,-0.53262115
370568878,-0.0039135856,-0.07640718,-0.014636834,0.0,0.0,-0.528151
370596916,-0.028451629,-0.12556814,-0.015325382,0.0,0.0,-0.5277579
370628880,-0.031679347,-0.12359103,-0.01649008,0.0,0.0,-0.5268068
370660899,-0.03728583,-0.044141397,-0.01683354,0.0,0.0,-0.527805
370692915,-0.02646545,0.023842635,-0.018463727,0.0,0.0,-0.5328854
370723310,0.0014281543,0.088421695,-0.01876774,0.0,0.0,-0.53412175
370754547,-0.0060063032,0.07800531,-0.017458342,0.0,0.0,-0.5282554
370788151,-0.010859357,0.040291924,-0.01625998,0.0,0.0,-0.522032
370820057,-0.0034456514,0.02313996,-0.015851894,0.0,0.0,-0.5025435
370852112,0.017296802,0.019899597,-0.015076168,0.0,0.0,-0.48650542
370884078,0.019219683,0.015455479,-0.013963217,0.0,0.0,-0.4953777
370912147,0.037508555,0.027726002,-0.013203628,0.0,0.0,-0.49946696
370944106,0.034234744,0.0238428,-0.011679604,0.0,0.0,-0.5085019
370976154,0.022034572,0.01540353,-0.010845424,0.0,0.0,-0.50986606
371008065,-0.00028748746,0.0002186631,-0.010798243,0.0,0.0,-0.5135764
371040111,2.3979368e-05,-0.0129159205,-0.010118121,0.0,0.0,-0.5228948
371072073,0.01687802,-0.010903205,-0.010134097,0.0,0.0,-0.52728367
371104138,0.010819152,-0.018613663,-0.008894227,0.0,0.0,-0.53034073
371136097,0.012810635,-0.028487608,-0.008586231,0.0,0.0,-0.5287356
371164150,0.0034865513,-0.027330954,-0.009898981,0.0,0.0,-0.5319597
371196067,0.010671086,-0.025934432,-0.009926337,0.0,0.0,-0.5258973
371228104,0.023465509,-0.00093795423,-0.010232384,0.0,0.0,-0.5249178
371260066,0.004981556,-0.014268233,-0.011517333,0.0,0.0,-0.5347665
371292133,-0.02421409,-0.10904961,-0.011250366,0.0,0.0,-0.5314178
371324067,-0.015724381,-0.32377654,-0.010030315,0.0,0.0,-0.5342526
371356111,0.007841007,0.003949769,-0.010700311,0.0,0.0,-0.5357152
371388093,0.01290861,0.0767147,-0.009308281,0.0,0.0,-0.5364884
371420137,-0.013916979,0.088020794,-0.006931878,0.0,0.0,-0.5354339
371452079,-0.022990523,0.06016674,-0.0047604446,0.0,0.0,-0.5402349
371484074,-0.027651405,0.011410418,-0.0046516987,0.0,0.0,-0.53660935
371516113,-0.016304163,-0.0028668928,-0.003349012,0.0,0.0,-0.53932005
371548103,-0.012707954,0.0033735782,-0.00051739335,0.0,0.0,-0.53684086
371579326,-0.015541921,0.012435719,0.0004342852,0.0,0.0,-0.53443694
371611319,-0.01920363,0.0105996365,0.0014929987,0.0,0.0,-0.5308081
371643304,0.0030559506,-0.012208894,0.0033203217,0.0,0.0,-0.5242071
371671300,3.1272557e-05,-0.034850072,0.005303605,0.0,0.0,-0.5235062
371703300,-0.017732007,-0.032803945,0.006263872,0.0,0.0,-0.51886964
371735331,-0.0360923,-0.025491517,0.00929111,0.0,0.0,-0.51882136
371767258,-0.026384354,-0.017265774,0.010977727,0.0,0.0,-0.51740223
371799368,-0.0011883061,-0.006322447,0.0115392385,0.0,0.0,-0.52423155
371831296,0.018179059,-0.017034983,0.012672262,0.0,0.0,-0.5272518
371863343,0.027573643,-0.014306623,0.011998105,0.0,0.0,-0.5364255
371895266,0.030885253,-0.005154249,0.0115343,0.0,0.0,-0.5386547
371923283,0.02212543,-0.0017043551,0.011457449,0.0,0.0,-0.5397999
371955280,0.022899486,0.0003241716,0.009473003,0.0,0.0,-0.5392339
371987312,0.009932161,-0.016058043,0.008257464,0.0,0.0,-0.5397994
372019353,0.016461328,-0.022007108,0.0075711254,0.0,0.0,-0.5322463
372051352,0.022133233,-0.023208924,0.0067887264,0.0,0.0,-0.5294362
372083273,0.023484683,-0.01435456,0.0062865703,0.0,0.0,-0.5231495
372115353,0.016499257,-0.0119945165,0.0053291502,0.0,0.0,-0.5227239
372147301,0.006084938,-0.016461173,0.0049936124,0.0,0.0,-0.51683193
372175325,0.00014549891,-0.016495373,0.0034360676,0.0,0.0,-0.51314926
372207306,-0.007928581,-0.025132626,0.003484555,0.0,0.0,-0.51938516
372239386,0.00041801954,-0.018318886,0.0023271462,0.0,0.0,-0.5230092
372271269,0.012674812,-0.011957324,0.0018012865,0.0,0.0,-0.5299582
372303349,-0.004026572,-0.012430307,0.0005965213,0.0,0.0,-0.5586204
372335303,-0.010516682,-0.0033308603,-0.0012311452,0.0,0.0,-0.5683312
372367298,-0.0035487902,-0.0092143435,-0.002722479,0.0,0.0,-0.5786776
372402506,0.0080874255,-0.018162599,-0.0046252967,0.0,0.0,-0.5710107
372434561,-0.0060780263,-0.0358758,-0.006661741,0.0,0.0,-0.5632539
372462508,-0.025137803,-0.04561123,-0.007539927,0.0,0.0,-0.5456024
372494483,-0.018628696,-0.015953628,-0.008098395,0.0,0.0,-0.5425917
372526461,-0.004666729,0.010355787,-0.008445957,0.0,0.0,-0.5291302
372558521,-0.0064678877,0.02237643,-0.007903103,0.0,0.0,-0.51819205
372590500,-0.01370906,0.034484286,-0.0072799246,0.0,0.0,-0.51878136
372622492,-0.02449021,0.051611423,-0.006820469,0.0,0.0,-0.5156348
372654455,-0.029981839,0.0732064,-0.006457125,0.0,0.0,-0.5167309
372686540,-0.015638998,0.07102728,-0.0051108385,0.0,0.0,-0.5032191
372718489,-0.0005482621,0.035023168,-0.004342273,0.0,0.0,-0.49444592
372750511,0.007180153,0.013329165,-0.0036787852,0.0,0.0,-0.49661937
372782458,0.0113429725,-0.015041805,-0.0030787326,0.0,0.0,-0.48931724
372814478,0.0027029905,-0.004065532,-0.0027039922,0.0,0.0,-0.49395967
372846502,-0.005076155,-0.02760139,-0.0009236066,0.0,0.0,-0.49082673
372878476,0.0073869126,-0.005239954,0.00035186094,0.0,0.0,-0.4895473
372910470,-0.0034675782,0.0024290585,0.0007247492,0.0,0.0,-0.48704115
372942473,-0.023601651,0.06906643,0.002154571,0.0,0.0,-0.4888502
372974500,-0.02175508,0.11849053,0.004388513,0.0,0.0,-0.49349204
373006458,-0.04167718,0.16475788,0.0062024947,0.0,0.0,-0.5136413
373038492,-0.02329276,0.18715414,0.008320106,0.0,0.0,-0.5309746
373070466,-0.0056594056,0.19109112,0.009695422,0.0,0.0,-0.5373467
373101707,-0.022427877,0.20023648,0.010048333,0.0,0.0,-0.5441406
373133703,-0.024104977,0.1899826,0.011348027,0.0,0.0,-0.54498714
373164893,-0.019615337,0.19645326,0.011711115,0.0,0.0,-0.55718863
373196997,-0.024363618,0.2055244,0.010733118,0.0,0.0,-0.57587254
373225673,-0.013705542,0.16712818,0.011325607,0.0,0.0,-0.5750899
373257734,-0.0069524627,0.16891983,0.010816021,0.0,0.0,-0.5708349
373289658,-0.01188115,0.13214205,0.0099262,0.0,0.0,-0.57022524
373321701,-0.009223282,0.15921338,0.008729916,0.0,0.0,-0.56131107
373353692,0.0010081417,0.14447549,0.007819381,0.0,0.0,-0.5545115
373385747,-0.008301037,0.14894368,0.006688855,0.0,0.0,-0.5426382
373417694,-0.011888128,0.09852454,0.0061963517,0.0,0.0,-0.5325153
373449700,0.016208678,0.062915064,0.0061324076,0.0,0.0,-0.5336564
373477664,0.03072333,0.021031536,0.005622576,0.0,0.0,-0.5289635
373509684,0.02540552,-0.014898744,0.004481077,0.0,0.0,-0.52959496
373541665,0.015801514,-0.0403219,0.0033329045,0.0,0.0,-0.5264209
373573741,0.02321208,-0.028402973,0.0020790263,0.0,0.0,-0.523746
373605744,0.0129847815,-0.004897918,0.00041446532,0.0,0.0,-0.5253761
373637703,0.013700735,0.00017897373,-0.0007143606,0.0,0.0,-0.5248547
373669677,0.020322371,-0.00577558,-0.0016314231,0.0,0.0,-0.52567977
373701746,0.010474197,-0.038496412,-0.0024557218,0.0,0.0,-0.51923335
373729719,0.014202336,-0.05965718,-0.0036507875,0.0,0.0,-0.52219194
373761737,0.010010685,-0.1350276,-0.0040798998,0.0,0.0,-0.51700133
373793658,-0.0029543915,-0.22726,-0.004812039,0.0,0.0,-0.51578045
373825709,-0.00076972955,-0.3158415,-0.005805259,0.0,0.0,-0.5171333
373857669,0.007355222,-0.35032666,-0.005436373,0.0,0.0,-0.5184987
373888927,-0.002061116,-0.2823909,-0.0046389042,0.0,0.0,-0.5194804
373920863,0.0043120026,-0.17886028,-0.006475571,0.0,0.0,-0.5227023
373952105,0.0065038037,-0.09032924,-0.00848248,0.0,0.0,-0.5266798
373984898,0.008998549,-0.07098268,-0.0072473274,0.0,0.0,-0.5282761
374012918,0.0035197393,-0.046065703,-0.007868832,0.0,0.0,-0.53058165
374044897,0.012802163,-0.035366103,-0.0055612195,0.0,0.0,-0.5313088
374076934,-0.001792532,-0.012234226,-0.0043265847,0.0,0.0,-0.53365207
374108866,0.021106113,0.008988754,-0.0046312963,0.0,0.0,-0.52902454
374140875,0.11063129,0.0027443916,-0.0042842124,0.0,0.0,-0.5248638
374172938,0.13716571,-0.0051434636,-0.0038423243,0.0,0.0,-0.51733804
374204943,0.22183047,-0.0060411207,-0.0041813673,0.0,0.0,-0.5072277
374236876,0.2773113,0.004626711,-0.0043026335,0.0,0.0,-0.5042274
374268924,0.35975948,0.00744855,-0.004535507,0.0,0.0,-0.511221
374300906,0.34006324,0.018666511,-0.006091231,0.0,0.0,-0.5158476
374332970,0.2754494,0.041383106,-0.007195976,0.0,0.0,-0.5188047
374364869,0.20548767,0.04914368,-0.008095962,0.0,0.0,-0.5235497
374396930,0.14188935,0.047097508,-0.008374734,0.0,0.0,-0.5293208
374428897,0.119196154,0.054383438,-0.010399417,0.0,0.0,-0.5333978
374460955,0.09562087,0.04382174,-0.011391057,0.0,0.0,-0.5414941
374492899,0.05733839,0.025878796,-0.011091633,0.0,0.0,-0.5448395
374524874,0.034380134,0.01491946,-0.011946231,0.0,0.0,-0.5435317
374556902,0.032406904,0.013815906,-0.012903502,0.0,0.0,-0.5434137
374588898,0.064705074,0.014850391,-0.01310464,0.0,0.0,-0.53979194
374620907,0.03639414,0.013918066,-0.012911147,0.0,0.0,-0.5397132
374652160,0.005617904,0.010499663,-0.012827157,0.0,0.0,-0.5397149
374684105,-0.041993547,0.008845262,-0.013392493,0.0,0.0,-0.52761894
374712148,-0.12704472,0.01352814,-0.013845898,0.0,0.0,-0.5479253
374748111,-0.3021799,0.059055615,-0.015650757,0.0,0.0,-0.5649579
374779410,-0.38608056,0.1057255,-0.016636228,0.0,0.0,-0.5724551
374808062,-0.3129077,0.099371955,-0.01634824,0.0,0.0,-0.5702718
374840156,-0.19450648,0.08114213,-0.015981395,0.0,0.0,-0.5568431
374872106,-0.13084233,0.036056384,-0.016088076,0.0,0.0,-0.54975086
374904110,-0.13846192,0.009789591,-0.01662846,0.0,0.0,-0.5321294
374936073,-0.11979349,0.033581458,-0.017462984,0.0,0.0,-0.529689
374968136,-0.095445,0.06758024,-0.01810008,0.0,0.0,-0.5153569
375000149,-0.09409135,0.08346147,-0.018494952,0.0,0.0,-0.50395155
375028167,-0.09512452,0.08137396,-0.018757414,0.0,0.0,-0.50296235
375060116,-0.0751782,0.11858295,-0.019234981,0.0,0.0,-0.49281937
375092103,-0.060275886,0.11924512,-0.020499578,0.0,0.0,-0.49660245
375124065,-0.03973995,0.25367698,-0.020296544,0.0,0.0,-0.49206892
375156156,-0.022780662,0.26183066,-0.020490224,0.0,0.0,-0.4955628
375188106,-0.021590797,0.30787677,-0.021348812,0.0,0.0,-0.5055584
375220113,-0.008197347,0.24680783,-0.020011773,0.0,0.0,-0.5142274
375252099,-0.004219475,0.16241896,-0.019651433,0.0,0.0,-0.5160239
375280141,0.007907493,0.105050184,-0.017616164,0.0,0.0,-0.5289363
375312071,-0.01022702,0.11409494,-0.019223526,0.0,0.0,-0.5365283
375344129,-0.029743327,0.14824305,-0.018323198,0.0,0.0,-0.5443101
375376119,-0.02763373,0.15994188,-0.019637426,0.0,0.0,-0.548934
375408110,-0.026919879,0.1748515,-0.020310415,0.0,0.0,-0.5559167
375439374,-0.0053674746,0.16900115,-0.019889109,0.0,0.0,-0.55916667
375471354,0.00033216798,0.18059433,-0.02229139,0.0,0.0,-0.5569522
375504137,0.0029542567,0.17516479,-0.02433313,0.0,0.0,-0.56125134
375532165,-0.0029099868,0.14098059,-0.023374096,0.0,0.0,-0.56425834
375567289,-0.009966122,0.14775176,-0.023997115,0.0,0.0,-0.5669259
375595284,0.00899459,0.13393691,-0.022892151,0.0,0.0,-0.561967
375627285,0.008167211,0.122490585,-0.022460325,0.0,0.0,-0.5508514
375659366,-0.005714539,0.092388645,-0.022413878,0.0,0.0,-0.5410664
375691275,-0.009561974,0.04888977,-0.02254917,0.0,0.0,-0.53817683
375723330,-0.001406611,-0.01893438,-0.022063198,0.0,0.0,-0.5272308
375755286,0.0049193758,-0.062581584,-0.021516351,0.0,0.0,-0.5209492
375787315,0.01185271,-0.26699883,-0.02080994,0.0,0.0,-0.5125066
375819339,0.051275387,-0.43080416,-0.018556159,0.0,0.0,-0.5059578
375847306,0.08509728,-0.4770424,-0.016755585,0.0,0.0,-0.509166
375879323,0.16072236,-0.41792825,-0.014435146,0.0,0.0,-0.5051434
375911277,0.25638565,-0.2958144,-0.011934586,0.0,0.0,-0.5070808
375943306,0.3462857,-0.18243267,-0.010213608,0.0,0.0,-0.51954365
375975335,0.3586061,-0.12509793,-0.00815994,0.0,0.0,-0.52186936
376007263,0.31398842,-0.101925135,-0.0074603385,0.0,0.0,-0.52515286
376039392,0.2260418,-0.079437256,-0.0062809396,0.0,0.0,-0.5202652
376071302,0.15313733,-0.039035,-0.0055732382,0.0,0.0,-0.5114205
376103346,0.1177311,0.006132917,-0.0050699664,0.0,0.0,-0.50649256
376135259,0.08552543,0.029161347,-0.0040265396,0.0,0.0,-0.5037996
376167298,0.053457085,0.018980665,-0.002030523,0.0,0.0,-0.5089393
376199354,0.021230882,-0.0033058827,5.1724e-05,0.0,0.0,-0.51192516
376230455,-0.014723684,-0.0045496672,0.00044375367,0.0,0.0,-0.51887566
376263262,-0.08745686,-0.016301623,0.0020380951,0.0,0.0,-0.5319211
376293701,-0.120347425,0.007439086,0.0031748505,0.0,0.0,-0.5345029
376326503,-0.11938067,0.0295942,0.005247739,0.0,0.0,-0.5403405
376361715,-0.323841,0.029821482,0.0057707545,0.0,0.0,-0.5386869
376390475,-0.35070267,0.02796784,0.0060097403,0.0,0.0,-0.5399091
376422496,-0.27575234,0.036872886,0.0065292264,0.0,0.0,-0.53845423
376454519,-0.18019846,0.039223935,0.008083775,0.0,0.0,-0.54084426
376486552,-0.12118045,0.036495123,0.0075245816,0.0,0.0,-0.53876865
376518495,-0.10191287,0.020881603,0.0071977642,0.0,0.0,-0.54388297
376550512,-0.08176409,0.021439735,0.0061129564,0.0,0.0,-0.5417582
376578476,-0.060323764,0.025345918,0.00642241,0.0,0.0,-0.5424349
376610493,-0.047210686,0.028164096,0.006064453,0.0,0.0,-0.53759825
376642493,-0.03550337,0.027931858,0.0058149057,0.0,0.0,-0.5361397
376674549,-0.022625057,0.027018534,0.005395643,0.0,0.0,-0.5294485
376706460,-0.005915822,0.03339693,0.004826356,0.0,0.0,-0.5305241
376738508,0.011713721,0.050252184,0.0035166845,0.0,0.0,-0.5258556
376770485,0.02026528,0.05865297,0.002768675,0.0,0.0,-0.5212193
376802561,0.0113525735,0.05519252,0.0016379532,0.0,0.0,-0.52283627
376830496,0.014882269,0.044848114,0.0025840069,0.0,0.0,-0.52124393
376862488,0.020132575,0.039450128,0.00028404806,0.0,0.0,-0.52631384
376894469,0.0051588207,0.038696304,-0.0003443047,0.0,0.0,-0.5271443
376926495,-0.0051937806,0.041739672,0.0007846316,0.0,0.0,-0.5270518
376958502,0.0043554404,0.03193131,6.2110125e-06,0.0,0.0,-0.5316832
376990501,0.013975506,0.043601353,-0.0027148793,0.0,0.0,-0.53014106
377020930,0.0052441764,0.03692098,-0.0036365162,0.0,0.0,-0.53362757
377053685,-0.0092002535,0.018327663,-0.0030840735,0.0,0.0,-0.5353546
377085688,-0.0067410627,0.006670721,-0.0035624637,0.0,0.0,-0.5334912
377117684,-0.0043657906,0.01593508,-0.006191983,0.0,0.0,-0.53351045
377145696,-0.005082256,0.024138011,-0.0071266755,0.0,0.0,-0.53757787
377177657,0.01373086,0.03317582,-0.0075488277,0.0,0.0,-0.53786576
377209667,0.02504387,0.036481477,-0.0052258973,0.0,0.0,-0.5345998
377241717,0.040281013,0.037723806,-0.0034213755,0.0,0.0,-0.5339858
377273696,0.023334315,0.045453727,-0.002300715,0.0,0.0,-0.5391378
377305657,-0.00375789,0.041857865,-0.0020302539,0.0,0.0,-0.5423096
377337670,-0.005058931,0.029202221,0.0007661731,0.0,0.0,-0.54129344
377369729,0.007604551,0.02177624,0.0025168017,0.0,0.0,-0.5519176
377397677,0.0150010735,0.019140175,0.0045072385,0.0,0.0,-0.5526577
377429702,0.013201894,0.022049326,0.006768407,0.0,0.0,-0.5548991
377461658,0.0056009237,0.02288359,0.008581356,0.0,0.0,-0.54987895
377493665,0.016985774,0.021800041,0.010239102,0.0,0.0,-0.54858863
377525659,0.02612238,0.02161744,0.011045411,0.0,0.0,-0.5395357
377557690,0.016934667,0.02101916,0.011242291,0.0,0.0,-0.5436844
377589664,-0.0004307609,0.015744852,0.011295414,0.0,0.0,-0.5325313
377621680,0.00046301336,0.014266514,0.0108233,0.0,0.0,-0.5283273
377653655,0.027074255,0.026653623,0.009890389,0.0,0.0,-0.5256545
377685708,0.039630726,0.036473848,0.00919509,0.0,0.0,-0.5333572
377717658,0.024178449,0.03279919,0.009013648,0.0,0.0,-0.5308043
377749705,0.013840605,0.020297976,0.0074671977,0.0,0.0,-0.5342115
377781664,0.013167149,0.014628478,0.005293293,0.0,0.0,-0.5308343
377813732,0.015172115,0.017546976,0.0027422328,0.0,0.0,-0.5289103
377845711,0.014138872,0.012049419,0.00027698578,0.0,0.0,-0.5291831
377877717,-0.002956261,0.000109828405,-0.0011982548,0.0,0.0,-0.5262154
377908886,-0.010541368,-0.0142891705,-0.0013401661,0.0,0.0,-0.52623045
377940948,-6.922137e-05,-0.0073482664,-0.0027450812,0.0,0.0,-0.5251889
377972901,0.021267565,0.023959495,-0.0037941553,0.0,0.0,-0.52219915
378004884,0.036557112,0.04985566,-0.004092454,0.0,0.0,-0.5268615
378036878,0.039184745,0.051208705,-0.004032269,0.0,0.0,-0.52490246
378068941,0.030927714,0.034076992,-0.0034138982,0.0,0.0,-0.5289468
378100866,0.01763424,0.016274603,-0.0040778806,0.0,0.0,-0.5280567
378132932,0.021653146,0.018068105,-0.0032532725,0.0,0.0,-0.52759933
378164895,0.020214299,0.018297313,-0.0025675462,0.0,0.0,-0.5285026
378196936,0.011573285,0.014827574,-0.00083946437,0.0,0.0,-0.52839476
378228855,0.019946827,0.010996435,0.001290485,0.0,0.0,-0.53007424
378260908,0.0106217405,0.010202984,0.0025130685,0.0,0.0,-0.5260939
378292898,-0.0072103315,0.018057235,0.0031686078,0.0,0.0,-0.52894956
378324939,-0.013767986,0.0213633,0.003424603,0.0,0.0,-0.5267151
378352904,-0.011271944,0.011068639,0.00424004,0.0,0.0,-0.5288767
378384940,-0.007348737,-3.749247e-05,0.0042308066,0.0,0.0,-0.5236311
378416868,0.00060703274,0.016030274,0.0034745447,0.0,0.0,-0.5262021
378448897,0.013028428,0.03424552,0.0022543294,0.0,0.0,-0.52092147
378480907,0.0036516574,0.029294876,0.0020074064,0.0,0.0,-0.5233991
378512956,-0.0019760458,0.016231628,0.0021190366,0.0,0.0,-0.5228385
378544860,0.009574934,0.024522683,0.0016864691,0.0,0.0,-0.5240586
378576922,0.022754967,0.04629789,0.00061093277,0.0,0.0,-0.5262897
