timestamp,states[0],states[1],states[2],states[3],states[4],states[5],states[6],states[7],states[8],states[9],states[10],states[11],states[12],states[13],states[14],states[15],states[16],states[17],states[18],states[19],states[20],states[21],states[22],states[23],vibe[0],vibe[1],vibe[2],covariances[0],covariances[1],covariances[2],covariances[3],covariances[4],covariances[5],covariances[6],covariances[7],covariances[8],covariances[9],covariances[10],covariances[11],covariances[12],covariances[13],covariances[14],covariances[15],covariances[16],covariances[17],covariances[18],covariances[19],covariances[20],covariances[21],covariances[22],covariances[23],control_mode_flags,pos_horiz_accuracy,pos_vert_accuracy,mag_test_ratio,vel_test_ratio,pos_test_ratio,hgt_test_ratio,tas_test_ratio,hagl_test_ratio,beta_test_ratio,time_slip,gps_check_fail_flags,filter_fault_flags,innovation_check_flags,solution_status_flags,n_states,pre_flt_fail,health_flags,timeout_flags
349701475,-0.36838365,-0.0033502304,-0.001261956,-0.92966706,0.009553655,0.008947989,0.008281448,0.006382038,0.0068858033,-0.14644353,-1.4274832e-05,-5.3868653e-06,3.299547e-05,0.0006975204,0.00015930345,0.0007620926,0.19630095,0.004300585,0.3737911,-9.1088696e-05,-0.002317455,-0.0971974,0.0,0.0,6.255134e-11,7.904818e-06,0.001358997,3.3193523e-05,7.964372e-06,8.073113e-06,4.621763e-06,0.005082771,0.0050825174,0.011249886,0.0071588373,0.0071587423,0.06006737,1.0593088e-11,1.0590458e-11,1.8400587e-11,1.2129188e-07,1.237325e-07,5e-08,0.0,0.0,0.0,0.0,0.0,0.0,0.0,0.0,531,0.119656086,0.24508646,0.002637523,0.0,0.00013972886,0.01248132,0.0,0.0,0.0,0.015948,104,0,0,165,24,0,0,0
349901509,-0.36889145,-0.0033238116,-0.0012382288,-0.9294657,0.009690292,0.009838249,0.0050650123,0.006635158,0.006961653,-0.15689038,-1.429455e-05,-5.386294e-06,3.3056876e-05,0.00069758174,0.00015974263,0.00076588255,0.19630095,0.004300585,0.3737911,-9.1088696e-05,-0.002317455,-0.0971974,0.0,0.0,5.6716184e-11,7.852402e-06,0.00090670714,3.3186767e-05,7.964485e-06,8.07285e-06,4.6410164e-06,0.0051121255,0.005111889,0.011266136,0.007204534,0.007204437,0.060152013,1.05861205e-11,1.0583554e-11,1.8410537e-11,1.212628e-07,1.2370056e-07,5.000004e-08,0.0,0.0,0.0,0.0,0.0,0.0,0.0,0.0,531,0.12003738,0.24525908,0.063197054,0.0,0.00013965383,0.021790689,0.0,0.0,0.0,0.015948,104,0,0,165,24,0,0,0
350101469,-0.36916438,-0.003350701,-0.001271577,-0.92935723,0.01007446,0.00987369,0.0062563247,0.0070133377,0.0072639463,-0.15674181,-1.4312855e-05,-5.3856256e-06,3.301737e-05,0.00069788453,0.00015983217,0.0007665559,0.19630095,0.004300585,0.3737911,-9.1088696e-05,-0.002317455,-0.0971974,0.0,0.0,5.3054488e-11,7.525035e-06,0.0006866554,3.317905e-05,7.97796e-06,8.086006e-06,4.6593723e-06,0.0052089444,0.0052087144,0.011377232,0.007430062,0.00742996,0.061058067,1.0580769e-11,1.0578259e-11,1.8411212e-11,1.2123698e-07,1.2367222e-07,5.000007e-08,0.0,0.0,0.0,0.0,0.0,0.0,0.0,0.0,531,0.12190169,0.24709931,0.041289035,0.0,0.00014424471,0.026043385,0.0,0.0,0.0,0.015948,104,0,0,165,24,0,0,0
350308668,-0.36965087,-0.003339204,-0.0012748113,-0.9291639,0.010062957,0.009609471,-0.0016099443,0.0071958164,0.007310333,-0.17963192,-1.43343095e-05,-5.3847825e-06,3.306971e-05,0.00069799006,0.00016026896,0.0007746238,0.19630095,0.004300585,0.3737911,-9.1088696e-05,-0.002317455,-0.0971974,0.0,0.0,5.727535e-11,7.5107305e-06,0.001001822,3.3133212e-05,7.972869e-06,8.080497e-06,4.6736136e-06,0.005221486,0.0052212677,0.0114062,0.0074842125,0.007484113,0.061308157,1.0562462e-11,1.0560012e-11,1.840335e-11,1.2120762e-07,1.2364006e-07,5e-08,0.0,0.0,0.0,0.0,0.0,0.0,0.0,0.0,531,0.122345105,0.24760485,0.0034444174,0.0,0.0001468696,0.011831611,0.0,0.0,0.0,0.015948,104,0,0,165,24,0,0,0
350508669,-0.369834,-0.0033850041,-0.0012427237,-0.9290909,0.009473689,0.009107327,-0.0064036967,0.0073557165,0.007375048,-0.19466953,-1.4354005e-05,-5.38396e-06,3.298955e-05,0.00069840444,0.00016026857,0.0007804214,0.19630095,0.004300585,0.3737911,-9.1088696e-05,-0.002317455,-0.0971974,0.0,0.0,5.2622406e-11,7.271289e-06,0.0013860427,3.3125245e-05,7.97642e-06,8.083668e-06,4.6916184e-06,0.0052745934,0.0052743773,0.0114911385,0.0076444326,0.007644333,0.062065374,1.055008e-11,1.0547683e-11,1.8402701e-11,1.211816e-07,1.2361153e-07,5.0000036e-08,0.0,0.0,0.0,0.0,0.0,0.0,0.0,0.0,531,0.12364775,0.24912924,0.01462091,0.0,0.00014829864,0.017605294,0.0,0.0,0.0,0.015948,104,0,0,165,24,0,0,0
350716669,-0.3701063,-0.003377308,-0.0012678911,-0.9289825,0.009936277,0.008857468,-0.0043254946,0.007199309,0.007034954,-0.1905461,-1.4378359e-05,-5.382512e-06,3.2939224e-05,0.00069879263,0.00016037568,0.0007788241,0.19630095,0.004300585,0.3737911,-9.1088696e-05,-0.002317455,-0.0971974,0.0,0.0,6.502923e-11,8.198023e-06,0.0015039593,3.3079657e-05,7.947462e-06,8.054144e-06,4.7057765e-06,0.005167779,0.0051675783,0.01139233,0.0074296286,0.0074295383,0.0612681,1.0517243e-11,1.0514912e-11,1.8395776e-11,1.211501e-07,1.2357692e-07,5e-08,0.0,0.0,0.0,0.0,0.0,0.0,0.0,0.0,531,0.12189818,0.24752393,0.050498698,0.0,0.0001461854,0.024878208,0.0,0.0,0.0,0.015948,104,0,0,165,24,0,0,0
350916691,-0.37042147,-0.0033559874,-0.0012393277,-0.9288569,0.009805073,0.008071632,0.0016997326,0.007266309,0.006857661,-0.17576179,-1.4399593e-05,-5.3808544e-06,3.2911023e-05,0.00069909246,0.00016049361,0.000773587,0.19630095,0.004300585,0.3737911,-9.1088696e-05,-0.002317455,-0.0971974,0.0,0.0,6.7514216e-11,8.234177e-06,0.0009877098,3.3126722e-05,7.937463e-06,8.043731e-06,4.731904e-06,0.005146003,0.005145812,0.011374294,0.007388547,0.0073884637,0.061134968,1.0498064e-11,1.0495791e-11,1.8409683e-11,1.211235e-07,1.235477e-07,5.0000036e-08,0.0,0.0,0.0,0.0,0.0,0.0,0.0,0.0,531,0.12156073,0.24725486,0.0059475615,0.0,0.0001459027,0.0029236136,0.0,0.0,0.0,0.015948,104,0,0,165,24,0,0,0
351115887,-0.3707255,-0.0033738061,-0.0012252762,-0.9287356,0.009032349,0.007895712,0.009125202,0.007234216,0.0066534025,-0.15294313,-1.4420212e-05,-5.3788885e-06,3.2887903e-05,0.00069937285,0.00016060295,0.0007656904,0.19630095,0.004300585,0.3737911,-9.1088696e-05,-0.002317455,-0.0971974,0.0,0.0,6.441295e-11,8.393538e-06,0.0017244333,3.31188e-05,7.9308975e-06,8.036753e-06,4.7500153e-06,0.0051386063,0.0051384154,0.01136364,0.0073671616,0.007367081,0.061042853,1.0481291e-11,1.04790725e-11,1.8410308e-11,1.2109804e-07,1.2351975e-07,5.0000036e-08,0.0,0.0,0.0,0.0,0.0,0.0,0.0,0.0,531,0.12138469,0.24706852,0.017332941,0.0,0.00014536694,0.046427052,0.0,0.0,0.0,0.015948,104,0,0,165,24,0,0,0
351323869,-0.3709171,-0.0033961807,-0.0012396441,-0.92865896,0.009227578,0.007935649,0.010056552,0.007006519,0.006366954,-0.14948897,-1.4442393e-05,-5.3768845e-06,3.2798922e-05,0.0006998216,0.00016057417,0.0007659112,0.19630095,0.004300585,0.3737911,-9.1088696e-05,-0.002317455,-0.0971974,0.0,0.0,6.467578e-11,8.553038e-06,0.0015729956,3.312753e-05,7.9136025e-06,8.018972e-06,4.7713243e-06,0.0050764326,0.0050762463,0.011289075,0.007214285,0.0072142133,0.060354806,1.0460228e-11,1.0458069e-11,1.8417838e-11,1.210708e-07,1.2348991e-07,5e-08,0.0,0.0,0.0,0.0,0.0,0.0,0.0,0.0,531,0.120118685,0.24567215,0.053743593,0.0,0.00014219868,0.003985131,0.0,0.0,0.0,0.015948,104,0,0,165,24,0,0,0
351523908,-0.3712603,-0.0034019693,-0.0012725386,-0.9285217,0.0087736575,0.008685105,0.013260033,0.007005094,0.0063537657,-0.14228618,-1.4461742e-05,-5.374895e-06,3.280469e-05,0.00070001563,0.0001607779,0.0007640524,0.19630095,0.004300585,0.3737911,-9.1088696e-05,-0.002317455,-0.0971974,0.0,0.0,6.7729114e-11,8.45673e-06,0.0010967966,3.3119923e-05,7.911564e-06,8.016575e-06,4.788752e-06,0.005088693,0.005088505,0.011292286,0.007226303,0.0072262324,0.06034488,1.0447814e-11,1.0445708e-11,1.8418786e-11,1.2104731e-07,1.2346418e-07,5.0000036e-08,0.0,0.0,0.0,0.0,0.0,0.0,0.0,0.0,531,0.1202187,0.24565195,0.023414552,0.0,0.00014070865,0.037365448,0.0,0.0,0.0,0.015948,104,0,0,165,24,0,0,0
351723869,-0.3714392,-0.003393129,-0.0012782757,-0.9284502,0.008988413,0.008523064,0.014480831,0.006953808,0.006417464,-0.13987666,-1.4480826e-05,-5.3732715e-06,3.2736887e-05,0.00070037006,0.0001607832,0.00076477125,0.19630095,0.004300585,0.3737911,-9.1088696e-05,-0.002317455,-0.0971974,0.0,0.0,7.268326e-11,8.732882e-06,0.0011086636,3.3112578e-05,7.911292e-06,8.015953e-06,4.805774e-06,0.0051097297,0.0051095393,0.011302862,0.007255525,0.0072554555,0.06038221,1.0436534e-11,1.0434477e-11,1.8419268e-11,1.2102477e-07,1.2343943e-07,5.0000036e-08,0.0,0.0,0.0,0.0,0.0,0.0,0.0,0.0,531,0.12046153,0.24572791,0.0022859913,0.0,0.00013817179,0.021436011,0.0,0.0,0.0,0.015948,104,0,0,165,24,0,0,0
351931093,-0.37186664,-0.0034036147,-0.0012686513,-0.92827904,0.008600327,0.009215532,0.012325967,0.006819487,0.0064386413,-0.14713155,-1.4501713e-05,-5.3715758e-06,3.2751355e-05,0.00070055085,0.00016105217,0.00076845725,0.19630095,0.004300585,0.3737911,-9.1088696e-05,-0.002317455,-0.0971974,0.0,0.0,6.4075155e-11,8.3918185e-06,0.0014084069,3.312044e-05,7.900145e-06,8.004394e-06,4.8275074e-06,0.005078996,0.005078791,0.0112531455,0.0071663638,0.0071662967,0.059884444,1.0417671e-11,1.041567e-11,1.842355e-11,1.2100061e-07,1.2341295e-07,5.0000036e-08,0.0,0.0,0.0,0.0,0.0,0.0,0.0,0.0,531,0.11971909,0.24471298,0.0058174394,0.0,0.00013698329,0.04574268,0.0,0.0,0.0,0.015948,104,0,0,165,24,0,0,0
352131070,-0.37210777,-0.0033864502,-0.0012897416,-0.9281825,0.008376842,0.009224819,0.005055576,0.006754719,0.0065709804,-0.16354057,-1.4520614e-05,-5.370571e-06,3.2698914e-05,0.0007008528,0.00016113542,0.0007755814,0.19630095,0.004300585,0.3737911,-9.1088696e-05,-0.002317455,-0.0971974,0.0,0.0,6.763478e-11,8.654032e-06,0.0011574883,3.3111257e-05,7.899544e-06,8.0034715e-06,4.845067e-06,0.0051005324,0.005100317,0.011270685,0.0072034,0.007203331,0.05994987,1.0406618e-11,1.04046684e-11,1.8423235e-11,1.2097958e-07,1.2338977e-07,5.0000036e-08,0.0,0.0,0.0,0.0,0.0,0.0,0.0,0.0,531,0.12002804,0.24484663,0.02960089,0.0,0.00013569483,0.00027506452,0.0,0.0,0.0,0.015948,104,0,0,165,24,0,0,0
352331074,-0.37225172,-0.0033743684,-0.0012848461,-0.92812485,0.008146524,0.009196602,0.0060944357,0.0068062535,0.0068756896,-0.16048454,-1.45382055e-05,-5.3699564e-06,3.2593347e-05,0.00070124876,0.00016102966,0.0007755825,0.19630095,0.004300585,0.3737911,-9.1088696e-05,-0.002317455,-0.0971974,0.0,0.0,6.6014534e-11,8.3584455e-06,0.0007927297,3.3047276e-05,7.912327e-06,8.016009e-06,4.855401e-06,0.0051936433,0.0051934165,0.011381929,0.007427343,0.0074272654,0.060892906,1.0405247e-11,1.0403342e-11,1.8411156e-11,1.2096079e-07,1.2336905e-07,5e-08,0.0,0.0,0.0,0.0,0.0,0.0,0.0,0.0,531,0.12187948,0.24676488,0.023795074,0.0,0.00013654331,0.014173153,0.0,0.0,0.0,0.015948,104,0,0,165,24,0,0,0
352539100,-0.37261602,-0.003396139,-0.0012566154,-0.9279786,0.007435328,0.009245374,0.00561888,0.006436695,0.006752155,-0.16387533,-1.4559949e-05,-5.3693266e-06,3.2595068e-05,0.00070144254,0.0001612667,0.0007773108,0.19630095,0.004300585,0.3737911,-9.1088696e-05,-0.002317455,-0.0971974,0.0,0.0,6.3895875e-11,8.173758e-06,0.00055618194,3.305634e-05,7.891612e-06,7.994827e-06,4.8760694e-06,0.0051230784,0.0051228455,0.011312504,0.007285265,0.0072851875,0.060310416,1.0380826e-11,1.0378979e-11,1.841563e-11,1.2093784e-07,1.2334384e-07,5.000004e-08,0.0,0.0,0.0,0.0,0.0,0.0,0.0,0.0,531,0.12070813,0.24558179,0.037734266,0.0,0.000135535,0.019037277,0.0,0.0,0.0,0.015948,104,0,0,165,24,0,0,0
352742269,-0.3729294,-0.0034111242,-0.0012980985,-0.92785263,0.0072564683,0.00875391,0.008735215,0.006241702,0.0067235846,-0.15982044,-1.4579022e-05,-5.369134e-06,3.2574342e-05,0.00070165214,0.00016140626,0.0007765367,0.19630095,0.004300585,0.3737911,-9.1088696e-05,-0.002317455,-0.0971974,0.0,0.0,5.998977e-11,8.223958e-06,0.0015372362,3.30479e-05,7.885483e-06,7.988345e-06,4.893857e-06,0.005119987,0.0051197503,0.011314911,0.0072893854,0.0072893044,0.06033243,1.0366962e-11,1.0365163e-11,1.8415882e-11,1.2091813e-07,1.2332218e-07,5.0000036e-08,0.0,0.0,0.0,0.0,0.0,0.0,0.0,0.0,531,0.12074225,0.2456266,0.0052793105,0.0,0.00013503747,0.0013228204,0.0,0.0,0.0,0.015948,104,0,0,165,24,0,0,0
352942317,-0.3731608,-0.0034033412,-0.0013026758,-0.9277596,0.006349041,0.00930346,0.018422479,0.0059783766,0.006822545,-0.13263133,-1.4597735e-05,-5.369221e-06,3.2529788e-05,0.0007018996,0.00016144369,0.0007678239,0.19630095,0.004300585,0.3737911,-9.1088696e-05,-0.002317455,-0.0971974,0.0,0.0,6.011455e-11,8.071572e-06,0.0012378932,3.2988355e-05,7.884188e-06,7.986717e-06,4.903546e-06,0.005141608,0.005141383,0.011327851,0.0073332433,0.0073331567,0.06050849,1.0364251e-11,1.0362501e-11,1.8413259e-11,1.2089919e-07,1.233013e-07,5e-08,0.0,0.0,0.0,0.0,0.0,0.0,0.0,0.0,531,0.12110491,0.24598473,0.050056342,0.0,0.00013543306,0.027893167,0.0,0.0,0.0,0.015948,104,0,0,165,24,0,0,0
353142269,-0.37345505,-0.0034063146,-0.0013198832,-0.9276411,0.006426585,0.00982356,0.01657221,0.005561772,0.0067366497,-0.13845325,-1.4617807e-05,-5.3702374e-06,3.248679e-05,0.0007021441,0.00016156991,0.00077171257,0.19630095,0.004300585,0.3737911,-9.1088696e-05,-0.002317455,-0.0971974,0.0,0.0,6.6631e-11,8.437183e-06,0.0008393646,3.2979642e-05,7.861809e-06,7.9639185e-06,4.921956e-06,0.0050568646,0.005056635,0.011230856,0.0071421764,0.007142093,0.059663143,1.0340361e-11,1.0338666e-11,1.841371e-11,1.2087847e-07,1.2327857e-07,5e-08,0.0,0.0,0.0,0.0,0.0,0.0,0.0,0.0,531,0.11951682,0.2442604,0.026177585,0.0,0.0001367042,0.030121781,0.0,0.0,0.0,0.015948,104,0,0,165,24,0,0,0
353342286,-0.3735605,-0.003433015,-0.0013119869,-0.92759854,0.006228944,0.010283274,0.0134346485,0.0054040644,0.006983576,-0.14673527,-1.4635691e-05,-5.371939e-06,3.238336e-05,0.0007024836,0.00016153062,0.0007765849,0.19630095,0.004300585,0.3737911,-9.1088696e-05,-0.002317455,-0.0971974,0.0,0.0,6.3923165e-11,8.391991e-06,0.00061711535,3.2972865e-05,7.859783e-06,7.961575e-06,4.938637e-06,0.0050725923,0.0050723515,0.011244973,0.0071739466,0.007173858,0.059756987,1.0330677e-11,1.0329031e-11,1.8414256e-11,1.208605e-07,1.2325883e-07,5.0000036e-08,0.0,0.0,0.0,0.0,0.0,0.0,0.0,0.0,531,0.11978232,0.24445242,0.0029487305,0.0,0.00014002374,0.021039447,0.0,0.0,0.0,0.015948,104,0,0,165,24,0,0,0
353545469,-0.37373754,-0.0034579907,-0.00134146,-0.9275272,0.0066004093,0.010023731,0.012788149,0.0052939923,0.007171605,-0.1484774,-1.4653627e-05,-5.3740473e-06,3.2299344e-05,0.000702773,0.00016153514,0.0007789387,0.19630095,0.004300585,0.3737911,-9.1088696e-05,-0.002317455,-0.0971974,0.0,0.0,6.7582516e-11,8.485886e-06,0.0012812882,3.2964967e-05,7.8574185e-06,7.958906e-06,4.9560617e-06,0.005087741,0.0050874962,0.011259822,0.0072069033,0.0072068116,0.059859518,1.0321108e-11,1.0319511e-11,1.8414653e-11,1.2084296e-07,1.2323963e-07,5e-08,0.0,0.0,0.0,0.0,0.0,0.0,0.0,0.0,531,0.12005713,0.24466205,0.046236854,0.0,0.00014389068,0.0626433,0.0,0.0,0.0,0.015948,104,0,0,165,24,0,0,0
353753506,-0.37395185,-0.0034540982,-0.0013233504,-0.9274407,0.005696606,0.010473297,0.01378261,0.0050360705,0.007322366,-0.15009172,-1.4673502e-05,-5.3768754e-06,3.222517e-05,0.000703044,0.00016159198,0.00078112347,0.19630095,0.004300585,0.3737911,-9.1088696e-05,-0.002317455,-0.0971974,0.0,0.0,6.6417746e-11,8.38201e-06,0.00089340686,3.292241e-05,7.846863e-06,7.94796e-06,4.9693613e-06,0.0050647426,0.0050645103,0.011218381,0.007143106,0.007143016,0.059538797,1.0316972e-11,1.031543e-11,1.8419695e-11,1.2082386e-07,1.232187e-07,5e-08,0.0,0.0,0.0,0.0,0.0,0.0,0.0,0.0,531,0.11952456,0.24400572,0.0040723323,0.0,0.00014858729,0.01244297,0.0,0.0,0.0,0.015948,104,0,0,165,24,0,0,0
353953507,-0.3742205,-0.0034388502,-0.0013228408,-0.92733246,0.0067886575,0.011350777,0.021148399,0.004951885,0.007568368,-0.12842532,-1.4691621e-05,-5.379768e-06,3.218189e-05,0.0007032319,0.0001616689,0.0007747448,0.19630095,0.004300585,0.3737911,-9.1088696e-05,-0.002317455,-0.0971974,0.0,0.0,6.956686e-11,8.371393e-06,0.00088334974,3.2914588e-05,7.84321e-06,7.944006e-06,4.986945e-06,0.005076484,0.0050762477,0.011233177,0.0071745543,0.007174462,0.059648167,1.030743e-11,1.0305938e-11,1.8420224e-11,1.2080687e-07,1.2320002e-07,5e-08,0.0,0.0,0.0,0.0,0.0,0.0,0.0,0.0,531,0.11978738,0.24422975,0.029777741,0.0,0.00015173016,0.0064232755,0.0,0.0,0.0,0.015948,104,0,0,165,24,0,0,0
354153497,-0.37447864,-0.0034508773,-0.0013147068,-0.9272283,0.007272193,0.011901573,0.02556455,0.0050788256,0.007884589,-0.11505911,-1.4709979e-05,-5.3830804e-06,3.2131462e-05,0.00070342695,0.00016175189,0.0007718303,0.19630095,0.004300585,0.3737911,-9.1088696e-05,-0.002317455,-0.0971974,0.0,0.0,6.5718826e-11,8.303066e-06,0.00064617966,3.2906788e-05,7.840109e-06,7.94059e-06,5.0045974e-06,0.005091018,0.0050907726,0.0112503,0.007210713,0.0072106184,0.05977389,1.02991305e-11,1.029769e-11,1.8421256e-11,1.2079023e-07,1.2318169e-07,5.0000036e-08,0.0,0.0,0.0,0.0,0.0,0.0,0.0,0.0,531,0.120088845,0.24448699,0.003175955,0.0,0.0001580594,0.034629557,0.0,0.0,0.0,0.015948,104,0,0,165,24,0,0,0
354360669,-0.3747042,-0.0034564275,-0.0013343578,-0.9271371,0.0071829553,0.01260676,0.022884516,0.00536315,0.008492594,-0.12046828,-1.4727359e-05,-5.3865824e-06,3.2066364e-05,0.0007036383,0.00016182607,0.00077613746,0.19630095,0.004300585,0.3737911,-9.1088696e-05,-0.002317455,-0.0971974,0.0,0.0,6.4518856e-11,8.60144e-06,0.0023750525,3.291607e-05,7.8558805e-06,7.956157e-06,5.0248495e-06,0.0052048718,0.005204605,0.011395927,0.0074965595,0.007496455,0.061031908,1.0301914e-11,1.030052e-11,1.8424434e-11,1.2077541e-07,1.2316535e-07,5.000006e-08,0.0,0.0,0.0,0.0,0.0,0.0,0.0,0.0,531,0.12244596,0.24704637,0.012557527,0.0,0.00016852285,0.00687442,0.0,0.0,0.0,0.015948,104,0,0,165,24,0,0,0
354560668,-0.37480983,-0.003428271,-0.0013514422,-0.92709446,0.0067768656,0.013543963,0.02348669,0.005341091,0.008747456,-0.112044625,-1.4748348e-05,-5.3910776e-06,3.1947828e-05,0.00070396037,0.00016179458,0.00077564735,0.19630095,0.004300585,0.3737911,-9.1088696e-05,-0.002317455,-0.0971974,0.0,0.0,7.09754e-11,8.85944e-06,0.0015318376,3.2908778e-05,7.840799e-06,7.9407255e-06,5.0420663e-06,0.005167367,0.0051670936,0.01137873,0.0074484684,0.007448364,0.060971353,1.028768e-11,1.0286341e-11,1.8427164e-11,1.207585e-07,1.2314676e-07,5.0000036e-08,0.0,0.0,0.0,0.0,0.0,0.0,0.0,0.0,531,0.12205258,0.24692377,0.029174855,0.0,0.00017539231,0.003479411,0.0,0.0,0.0,0.015948,104,0,0,165,24,0,0,0
354768669,-0.37486088,-0.0034578135,-0.0013509194,-0.9270737,0.006649904,0.012970464,0.020556131,0.0053390046,0.009078106,-0.119015634,-1.4769445e-05,-5.3962485e-06,3.1803156e-05,0.00070431875,0.0001617371,0.00078083423,0.19630095,0.004300585,0.3737911,-9.1088696e-05,-0.002317455,-0.0971974,0.0,0.0,7.40643e-11,8.791847e-06,0.0010211788,3.2864235e-05,7.8350195e-06,7.934617e-06,5.0540284e-06,0.0051728287,0.0051725497,0.011401221,0.0074865483,0.0074864407,0.061247185,1.02777335e-11,1.0276446e-11,1.841906e-11,1.2074256e-07,1.231292e-07,5.0000036e-08,0.0,0.0,0.0,0.0,0.0,0.0,0.0,0.0,531,0.12236416,0.24748169,0.093686834,0.0,0.00018222096,0.010001586,0.0,0.0,0.0,0.015948,104,0,0,165,24,0,0,0
354968672,-0.37507358,-0.0034186516,-0.0013749142,-0.9269878,0.005822348,0.01219744,0.018494835,0.005142738,0.009167932,-0.12225721,-1.4790808e-05,-5.4015863e-06,3.1741092e-05,0.00070451765,0.00016186276,0.00078386976,0.19630095,0.004300585,0.3737911,-9.1088696e-05,-0.002317455,-0.0971974,0.0,0.0,6.971785e-11,8.644104e-06,0.00069033937,3.285709e-05,7.821337e-06,7.920607e-06,5.070793e-06,0.0051366887,0.0051364056,0.011376367,0.0074277255,0.007427616,0.061134055,1.0263006e-11,1.0261771e-11,1.8419544e-11,1.2072718e-07,1.2311237e-07,5.0000036e-08,0.0,0.0,0.0,0.0,0.0,0.0,0.0,0.0,531,0.12188249,0.24725302,0.07217957,0.0,0.00018413039,0.0067145084,0.0,0.0,0.0,0.015948,104,0,0,165,24,0,0,0
355167869,-0.37530333,-0.003427161,-0.0014018783,-0.9268948,0.0066167726,0.011924123,0.015556865,0.0050466144,0.009132131,-0.12932095,-1.48113995e-05,-5.4071056e-06,3.1675158e-05,0.00070471317,0.00016197684,0.0007882257,0.19630095,0.004300585,0.3737911,-9.1088696e-05,-0.002317455,-0.0971974,0.0,0.0,6.267836e-11,8.259694e-06,0.0016910683,3.284942e-05,7.813219e-06,7.912175e-06,5.0881763e-06,0.005122326,0.005122042,0.0113613745,0.0073959357,0.0073958235,0.06106539,1.02527205e-11,1.0251535e-11,1.8420498e-11,1.2071293e-07,1.2309674e-07,5.0000054e-08,0.0,0.0,0.0,0.0,0.0,0.0,0.0,0.0,531,0.12162138,0.24711412,0.014023487,0.0,0.00018127455,0.022764212,0.0,0.0,0.0,0.015948,104,0,0,165,24,0,0,0
355367869,-0.37555665,-0.0033902035,-0.0014231281,-0.9267922,0.00650527,0.009949145,0.017745141,0.004868308,0.0086875325,-0.12179664,-1.4833639e-05,-5.4128395e-06,3.162926e-05,0.0007048758,0.00016212334,0.0007870553,0.19630095,0.004300585,0.3737911,-9.1088696e-05,-0.002317455,-0.0971974,0.0,0.0,5.904332e-11,7.874642e-06,0.0011204013,3.2842006e-05,7.789935e-06,7.888532e-06,5.1050188e-06,0.0050269235,0.0050266446,0.011246495,0.007164668,0.0071645584,0.060082175,1.0234696e-11,1.0233564e-11,1.8423377e-11,1.2069812e-07,1.2308051e-07,5e-08,0.0,0.0,0.0,0.0,0.0,0.0,0.0,0.0,531,0.119704746,0.24511665,0.00016308861,0.0,0.000176297,0.010768726,0.0,0.0,0.0,0.015948,232,0,0,165,24,0,0,0
355575869,-0.3760152,-0.0033961532,-0.0014444689,-0.92660624,0.0070025977,0.008910944,0.013122451,0.0050297966,0.008387013,-0.13669112,-1.485278e-05,-5.417332e-06,3.165685e-05,0.00070490624,0.00016243447,0.0007935094,0.19630095,0.004300585,0.3737911,-9.1088696e-05,-0.002317455,-0.0971974,0.0,0.0,6.399304e-11,8.0257205e-06,0.0007978667,3.2850934e-05,7.7937675e-06,7.892132e-06,5.126171e-06,0.005069296,0.0050690207,0.01128385,0.007245198,0.0072450843,0.060412217,1.0232012e-11,1.0230925e-11,1.8427945e-11,1.2068578e-07,1.2306683e-07,5e-08,0.0,0.0,0.0,0.0,0.0,0.0,0.0,0.0,531,0.12037559,0.24578896,0.07449698,0.0,0.0001702259,0.0052745393,0.0,0.0,0.0,0.015948,232,0,0,165,24,0,0,0
355775907,-0.37616292,-0.003377383,-0.0014189434,-0.92654634,0.0074545625,0.00813665,0.012107926,0.005275836,0.008143926,-0.13767046,-1.4870249e-05,-5.421247e-06,3.1564166e-05,0.0007051279,0.0001624251,0.000795354,0.19630095,0.004300585,0.3737911,-9.1088696e-05,-0.002317455,-0.0971974,0.0,0.0,6.1160854e-11,7.904564e-06,0.0005781474,3.2843618e-05,7.804557e-06,7.9027295e-06,5.142673e-06,0.005150556,0.0051502814,0.011377588,0.007434992,0.0074348724,0.061267104,1.02341035e-11,1.0233055e-11,1.8428349e-11,1.2067503e-07,1.2305496e-07,5.000004e-08,0.0,0.0,0.0,0.0,0.0,0.0,0.0,0.0,531,0.12194206,0.24752192,0.07108459,0.0,0.00016400406,0.011874642,0.0,0.0,0.0,0.015948,232,0,0,165,24,0,0,0
355983075,-0.37640375,-0.0033697386,-0.001453554,-0.9264485,0.008020043,0.008174776,0.014829756,0.0054155737,0.0077508865,-0.12847267,-1.4889694e-05,-5.4246534e-06,3.151337e-05,0.0007052804,0.00016249361,0.0007932964,0.19630095,0.004300585,0.3737911,-9.1088696e-05,-0.002317455,-0.0971974,0.0,0.0,6.537197e-11,8.124307e-06,0.0010314411,3.2852757e-05,7.79921e-06,7.897107e-06,5.162077e-06,0.005151737,0.0051514576,0.011389698,0.007453431,0.007453309,0.061429452,1.0224295e-11,1.0223292e-11,1.8431208e-11,1.2066336e-07,1.2304189e-07,5.0000036e-08,0.0,0.0,0.0,0.0,0.0,0.0,0.0,0.0,531,0.12209316,0.24784966,0.059551686,0.0,0.00015602408,0.019204738,0.0,0.0,0.0,0.015948,232,0,0,165,24,0,0,0
356183075,-0.37657154,-0.0033950023,-0.0014822527,-0.92638016,0.008758181,0.0074423784,0.014442431,0.0056336992,0.0072824648,-0.12737195,-1.4908304e-05,-5.427456e-06,3.1425283e-05,0.00070548593,0.00016247494,0.0007944534,0.19630095,0.004300585,0.3737911,-9.1088696e-05,-0.002317455,-0.0971974,0.0,0.0,6.3134734e-11,8.285931e-06,0.00074998074,3.28448e-05,7.792646e-06,7.890284e-06,5.1786924e-06,0.005141276,0.0051409965,0.011374014,0.007424877,0.007424755,0.061332844,1.021543e-11,1.0214467e-11,1.843177e-11,1.2065269e-07,1.2302976e-07,5.000007e-08,0.0,0.0,0.0,0.0,0.0,0.0,0.0,0.0,531,0.121859066,0.24765469,0.0021189277,0.0,0.00014544112,0.010849884,0.0,0.0,0.0,0.015948,232,0,0,165,24,0,0,0
356383086,-0.37678653,-0.0033963567,-0.0015086916,-0.9262927,0.008262122,0.0070382194,0.013454365,0.0056880377,0.0066855373,-0.1248823,-1.4928415e-05,-5.429339e-06,3.1349256e-05,0.00070568477,0.00016248848,0.0007950234,0.19630095,0.004300585,0.3737911,-9.1088696e-05,-0.002317455,-0.0971974,0.0,0.0,6.3216786e-11,8.472673e-06,0.0005463686,3.278174e-05,7.769701e-06,7.867025e-06,5.1877005e-06,0.005046014,0.0050457367,0.011255439,0.007194609,0.007194496,0.06033341,1.0195379e-11,1.0194461e-11,1.8419348e-11,1.2064153e-07,1.2301726e-07,5e-08,0.0,0.0,0.0,0.0,0.0,0.0,0.0,0.0,531,0.11995459,0.2456286,0.029762117,0.0,0.00013567545,0.010575496,0.0,0.0,0.0,0.015948,232,0,0,165,24,0,0,0
356583107,-0.37691385,-0.0033836132,-0.0015660457,-0.9262408,0.007745624,0.006634292,0.008416491,0.0057388637,0.0063202865,-0.14136995,-1.4945832e-05,-5.4305606e-06,3.126535e-05,0.00070588355,0.0001624874,0.0008027252,0.19630095,0.004300585,0.3737911,-9.1088696e-05,-0.002317455,-0.0971974,0.0,0.0,2.012602e-10,1.1576641e-05,0.0010406317,3.2775577e-05,7.767278e-06,7.864386e-06,5.2028768e-06,0.00505228,0.0050519933,0.011251566,0.0071947826,0.0071946704,0.060296323,1.0189013e-11,1.01881325e-11,1.841969e-11,1.2063227e-07,1.2300687e-07,5e-08,0.0,0.0,0.0,0.0,0.0,0.0,0.0,0.0,531,0.11995605,0.24555309,0.036591075,0.0,0.0001282706,0.0338238,0.0,0.0,0.0,0.015948,232,0,0,165,24,0,0,0
356782277,-0.37689558,-0.00340189,-0.0016269028,-0.92624813,0.0069524683,0.0051512867,0.011605704,0.0057416945,0.005906186,-0.13493288,-1.4962686e-05,-5.430858e-06,3.1216263e-05,0.0007060335,0.00016251282,0.0008013523,0.19630095,0.004300585,0.3737911,-9.1088696e-05,-0.002317455,-0.0971974,0.0,0.0,8.361801e-10,2.8572706e-05,0.0011553816,3.2720967e-05,7.765808e-06,7.862686e-06,5.203919e-06,0.005062223,0.0050619296,0.011251915,0.0072024707,0.0072023566,0.06027737,1.0184614e-11,1.018377e-11,1.8408781e-11,1.2062347e-07,1.2299698e-07,5e-08,0.0,0.0,0.0,0.0,0.0,0.0,0.0,0.0,531,0.120020114,0.2455145,0.012959437,0.0,0.00011900559,0.00544219,0.0,0.0,0.0,0.015948,232,0,0,165,24,0,0,0
356990269,-0.37718076,-0.003409649,-0.0016271697,-0.9261321,0.007900728,0.004767003,0.014023413,0.0070124995,0.0065878513,-0.12664565,-1.4966574e-05,-5.431409e-06,3.1099342e-05,0.00070620835,0.00016228335,0.000799848,0.19630095,0.004300585,0.3737911,-9.1088696e-05,-0.002317455,-0.0971974,0.0,0.0,2.8263518e-09,5.7838497e-05,0.0012563985,3.272621e-05,7.897213e-06,7.994456e-06,5.2280034e-06,0.005773617,0.0057732644,0.011287887,0.008922543,0.008922374,0.06055274,1.0265572e-11,1.0264736e-11,1.8411954e-11,1.2062229e-07,1.2299537e-07,5e-08,0.0,0.0,0.0,0.0,0.0,0.0,0.0,0.0,659,0.13358487,0.24607466,0.07425814,0.0,7.011468e-06,0.060809344,0.0,0.0,0.0,0.015948,40,0,0,165,24,0,0,0
357190277,-0.37748227,-0.003235237,-0.0015733497,-0.92600995,0.009144757,0.0063051316,0.0148658715,0.008664771,0.007633576,-0.12323616,-1.496684e-05,-5.4319717e-06,3.099901e-05,0.0007063408,0.00016207332,0.0008002757,0.19630095,0.004300585,0.3737911,-9.1088696e-05,-0.002317455,-0.0971974,0.0,0.0,1.8612424e-08,0.00022372267,0.0030957668,3.2714863e-05,8.06147e-06,8.15928e-06,5.2487035e-06,0.0067271087,0.006726687,0.0112818135,0.011561339,0.011561064,0.060502756,1.03674595e-11,1.0366623e-11,1.8412428e-11,1.2062313e-07,1.2299598e-07,5.0000036e-08,0.0,0.0,0.0,0.0,0.0,0.0,0.0,0.0,659,0.15206052,0.24597308,0.01922307,0.0,8.600564e-06,0.01061262,0.0,0.0,0.0,0.015948,40,0,0,165,24,0,0,0
357397503,-0.37747785,-0.0029383425,-0.0014091877,-0.92601293,0.008727117,0.0048337663,0.011666154,0.0105417045,0.008872962,-0.12260974,-1.4967091e-05,-5.4324414e-06,3.09179e-05,0.00070644624,0.0001619114,0.0008015581,0.19630095,0.004300585,0.3737911,-9.1088696e-05,-0.002317455,-0.0971974,0.0,0.0,8.042606e-08,0.00042468728,0.0065907,3.2730382e-05,8.235349e-06,8.333727e-06,5.262812e-06,0.007822222,0.0078217145,0.011320711,0.015032565,0.015032138,0.060817882,1.0473174e-11,1.047234e-11,1.8416928e-11,1.2062404e-07,1.2299657e-07,5.0000036e-08,0.0,0.0,0.0,0.0,0.0,0.0,0.0,0.0,659,0.17339176,0.24661282,0.075058855,0.0,1.0396021e-05,0.026872905,0.0,0.0,0.0,0.015948,40,0,0,165,24,0,0,0
357597475,-0.37765414,-0.0032201128,-0.0009959096,-0.9259406,0.0170012,0.011580001,0.0042550107,0.01265798,0.010166574,-0.14235942,-1.49671705e-05,-5.432593e-06,3.0912568e-05,0.0007064591,0.00016194231,0.00080940756,0.19630095,0.004300585,0.3737911,-9.1088696e-05,-0.002317455,-0.0971974,0.0,0.0,2.7819928e-07,0.0008274708,0.010188049,3.272723e-05,8.404657e-06,8.5033735e-06,5.274441e-06,0.008971003,0.008970454,0.011321367,0.019167803,0.019167181,0.06077922,1.0573486e-11,1.0572652e-11,1.84163e-11,1.2062479e-07,1.229971e-07,5.0000036e-08,0.0,0.0,0.0,0.0,0.0,0.0,0.0,0.0,659,0.19579321,0.24653442,0.06836794,0.0,1.2440375e-05,0.021204567,0.0,0.0,0.0,0.015948,40,0,0,165,24,0,0,0
357797483,-0.37782177,-0.0019132042,0.0016610592,-0.9258749,0.010619229,0.013627232,-0.01575136,0.015854865,0.0131319165,-0.18503714,-1.4967298e-05,-5.4329907e-06,3.088921e-05,0.0007064904,0.00016196643,0.0008244892,0.19630095,0.004300585,0.3737911,-9.1088696e-05,-0.002317455,-0.0971974,0.0,0.0,5.332071e-07,0.0012924165,0.016100204,3.2724256e-05,8.5770425e-06,8.676243e-06,5.286731e-06,0.010231469,0.010230825,0.011222436,0.024239443,0.024238564,0.059892382,1.0674044e-11,1.0673211e-11,1.8416607e-11,1.2062553e-07,1.2299768e-07,5e-08,0.0,0.0,0.0,0.0,0.0,0.0,0.0,0.0,659,0.22017722,0.2447292,0.07458361,0.0,1.5858137e-05,0.025428874,0.0,0.0,0.0,0.015948,40,0,0,165,24,0,0,0
357997469,-0.37688178,-0.000492937,0.0019235238,-0.92625934,0.019308254,0.0104401605,-0.020501796,0.019206025,0.013620287,-0.2337964,-1.4967422e-05,-5.433259e-06,3.0887975e-05,0.00070649403,0.00016203156,0.0008404934,0.19630095,0.004300585,0.3737911,-9.1088696e-05,-0.002317455,-0.0971974,0.0,0.0,6.4074237e-07,0.0015855765,0.01979887,3.2752083e-05,8.7516755e-06,8.851785e-06,5.267698e-06,0.011591261,0.011590566,0.011233389,0.030372854,0.03037166,0.059941057,1.07740865e-11,1.0773251e-11,1.8416862e-11,1.2062635e-07,1.2299823e-07,5e-08,0.0,0.0,0.0,0.0,0.0,0.0,0.0,0.0,659,0.24646403,0.24482863,0.06911925,0.0,1.9209196e-05,0.00400976,0.0,0.0,0.0,0.015948,40,0,0,165,24,0,0,0
358199918,-0.3746645,-0.0005670789,0.0022148627,-0.92715764,0.015534995,0.0068576965,-0.02015783,0.022685427,0.01460875,-0.26221445,-1.4967587e-05,-5.4330585e-06,3.0937485e-05,0.0007064359,0.0001621593,0.00084886886,0.19630095,0.004300585,0.3737911,-9.1088696e-05,-0.002317455,-0.0971974,0.0,0.0,8.6814657e-07,0.0019352374,0.022046873,3.28177e-05,8.928997e-06,9.029151e-06,5.2109367e-06,0.013065823,0.013065001,0.011338772,0.03771559,0.037714012,0.060842376,1.087369e-11,1.0872853e-11,1.841708e-11,1.2062708e-07,1.2299873e-07,5.0000036e-08,0.0,0.0,0.0,0.0,0.0,0.0,0.0,0.0,659,0.2746445,0.24666247,0.067824274,0.0,2.2502974e-05,0.009164318,0.0,0.0,0.0,0.015948,40,0,0,165,24,0,0,0
358408668,-0.37441677,-0.0026601828,-6.109786e-05,-0.92725676,0.017400721,-0.0048215934,-0.050079755,0.024529476,0.014563037,-0.27993882,-1.4968135e-05,-5.43302e-06,3.09327e-05,0.0007064434,0.0001621678,0.00085323246,0.19630095,0.004300585,0.3737911,-9.1088696e-05,-0.002317455,-0.0971974,0.0,0.0,7.788133e-07,0.001888456,0.02188594,3.284754e-05,9.117364e-06,9.2175405e-06,5.2144314e-06,0.014771605,0.014770682,0.011276489,0.046909582,0.046907507,0.06036625,1.098842e-11,1.0987582e-11,1.843417e-11,1.2062786e-07,1.2299924e-07,5.0000054e-08,0.0,0.0,0.0,0.0,0.0,0.0,0.0,0.0,659,0.30629575,0.24569544,0.0027474558,0.0,2.4395067e-05,0.049450517,0.0,0.0,0.0,0.015948,40,0,0,165,24,0,0,0
358608713,-0.3740269,-0.00041063968,0.0047177165,-0.9274058,0.012706917,0.021593375,-0.029344756,0.02769938,0.015698917,-0.28552836,-1.496859e-05,-5.4325587e-06,3.097931e-05,0.0007063957,0.0001622487,0.0008519075,0.19630095,0.004300585,0.3737911,-9.1088696e-05,-0.002317455,-0.0971974,0.0,0.0,8.683116e-07,0.0019471186,0.02196148,3.286198e-05,9.2983755e-06,9.398384e-06,5.2072683e-06,0.01647356,0.016472511,0.011377226,0.05720161,0.05719898,0.06124582,1.1085926e-11,1.1085088e-11,1.8434282e-11,1.2062847e-07,1.2299967e-07,5.000004e-08,0.0,0.0,0.0,0.0,0.0,0.0,0.0,0.0,659,0.33823156,0.24747893,0.03450872,0.0,2.7415705e-05,0.03468989,0.0,0.0,0.0,0.015948,40,0,0,165,24,0,0,0
358808675,-0.37515885,-0.0005996529,0.0028796692,-0.9269559,0.012219186,0.012386255,-0.012530909,0.030636756,0.018037984,-0.2739461,-1.4969606e-05,-5.4324955e-06,3.092549e-05,0.0007064651,0.00016214687,0.00084572885,0.19630095,0.004300585,0.3737911,-9.1088696e-05,-0.002317455,-0.0971974,0.0,0.0,6.9739815e-07,0.0017209972,0.021223776,3.2829957e-05,9.477432e-06,9.578663e-06,5.247448e-06,0.018286742,0.018285546,0.011357366,0.069114715,0.06911146,0.06112428,1.1180971e-11,1.1180135e-11,1.8434204e-11,1.2062894e-07,1.2299986e-07,5e-08,0.0,0.0,0.0,0.0,0.0,0.0,0.0,0.0,659,0.37178782,0.24723326,0.032256633,0.0,3.0644846e-05,0.025598083,0.0,0.0,0.0,0.015948,40,0,0,165,24,0,0,0
359015875,-0.37563968,-0.0013416738,0.0016518596,-0.9267635,0.019821497,0.0071753077,-0.031915884,0.033015333,0.01912804,-0.3062305,-1.4970642e-05,-5.4328457e-06,3.0843723e-05,0.0007065595,0.00016202331,0.00085583306,0.19630095,0.004300585,0.3737911,-9.1088696e-05,-0.002317455,-0.0971974,0.0,0.0,5.8442805e-07,0.001615562,0.020126652,3.2776734e-05,9.666107e-06,9.767857e-06,5.2659498e-06,0.020329013,0.020327684,0.011470571,0.08350329,0.0834992,0.06219619,1.12791755e-11,1.1278339e-11,1.8425502e-11,1.2062938e-07,1.230001e-07,5e-08,0.0,0.0,0.0,0.0,0.0,0.0,0.0,0.0,659,0.4086594,0.24939165,0.030709444,0.0,3.2768334e-05,0.0007670803,0.0,0.0,0.0,0.015948,40,0,0,165,24,0,0,0
359215880,-0.375744,-0.0011375216,0.00013216278,-0.9267229,0.016323881,-0.004667589,-0.040859908,0.035511047,0.019656314,-0.30462876,-1.4972293e-05,-5.432819e-06,3.0761043e-05,0.0007066621,0.00016190497,0.00085292186,0.19630095,0.004300585,0.3737911,-9.1088696e-05,-0.002317455,-0.0971974,0.0,0.0,5.349218e-07,0.0015916291,0.020678284,3.2770025e-05,9.841797e-06,9.944329e-06,5.279606e-06,0.022362858,0.02236132,0.011332666,0.09909559,0.0990906,0.061039414,1.1368175e-11,1.1367342e-11,1.8424973e-11,1.2062951e-07,1.2300002e-07,5e-08,0.0,0.0,0.0,0.0,0.0,0.0,0.0,0.0,659,0.44518107,0.24706157,0.03882445,0.0,3.5525154e-05,0.03268364,0.0,0.0,0.0,0.015948,40,0,0,165,24,0,0,0
359423914,-0.37528622,-0.0017970344,0.0005891762,-0.9269071,0.016008178,-0.00073732535,-0.03717716,0.038953617,0.020189708,-0.306021,-1.4973785e-05,-5.4323286e-06,3.0757725e-05,0.00070667453,0.00016191069,0.00085085066,0.19630095,0.004300585,0.3737911,-9.1088696e-05,-0.002317455,-0.0971974,0.0,0.0,5.6181335e-07,0.0016702588,0.022432622,3.2801923e-05,1.0026631e-05,1.0129145e-05,5.27615e-06,0.024604315,0.024602616,0.0113518,0.1176958,0.11768971,0.061234783,1.1460228e-11,1.1459397e-11,1.842906e-11,1.2062952e-07,1.2299982e-07,5e-08,0.0,0.0,0.0,0.0,0.0,0.0,0.0,0.0,659,0.48516545,0.24745663,0.061045352,0.0,3.897582e-05,0.006463357,0.0,0.0,0.0,0.015948,40,0,0,165,24,0,0,0
359623869,-0.37480986,-0.0070495247,0.003881198,-0.92706686,0.005435735,0.013357381,-0.09690963,0.041913763,0.020860393,-0.3622993,-1.4975492e-05,-5.432325e-06,3.0692772e-05,0.00070674357,0.00016177207,0.00086844515,0.19630095,0.004300585,0.3737911,-9.1088696e-05,-0.002317455,-0.0971974,0.0,0.0,8.389653e-07,0.0017539886,0.023746338,3.2813856e-05,1.020093e-05,1.0301989e-05,5.272689e-06,0.02690067,0.026898848,0.011327411,0.13775492,0.13774762,0.06106455,1.1544783e-11,1.1543957e-11,1.8428961e-11,1.2062927e-07,1.2299932e-07,5e-08,0.0,0.0,0.0,0.0,0.0,0.0,0.0,0.0,659,0.52488333,0.24711242,0.035754148,0.0,4.194457e-05,0.016090319,0.0,0.0,0.0,0.015948,40,0,0,165,24,0,0,0
359823080,-0.3727001,-0.01755265,0.009131341,-0.927741,-0.026565004,0.03901536,-0.027532618,0.037410486,0.028503831,-0.39120057,-1.49775215e-05,-5.43201e-06,3.0664694e-05,0.00070677977,0.00016172939,0.00087251206,0.19630095,0.004300585,0.3737911,-9.1088696e-05,-0.002317455,-0.0971974,0.0,0.0,1.0887826e-06,0.0017688614,0.024451105,3.2922693e-05,1.0371624e-05,1.0474244e-05,5.233088e-06,0.029128676,0.029126735,0.011313355,0.16009137,0.16008282,0.060948916,1.1625844e-11,1.1625022e-11,1.8441595e-11,1.2062883e-07,1.2299866e-07,5.0000036e-08,0.0,0.0,0.0,0.0,0.0,0.0,0.0,0.0,659,0.56583935,0.24687834,0.00028250247,0.0,3.764824e-05,0.024612423,0.0,0.0,0.0,0.015948,40,0,0,165,24,0,0,0
360023070,-0.37146246,-0.0022374361,0.00024513915,-0.9284453,-0.020452911,0.04645352,-0.077072576,0.029966466,0.038017508,-0.38485485,-1.4979972e-05,-5.4320462e-06,3.062053e-05,0.00070685166,0.0001616932,0.0008691816,0.19630095,0.004300585,0.3737911,-9.1088696e-05,-0.002317455,-0.0971974,0.0,0.0,1.2545476e-06,0.0019246206,0.026317753,3.290385e-05,1.0536164e-05,1.0639005e-05,5.197303e-06,0.031579163,0.031577036,0.011304611,0.18456876,0.18455872,0.060832903,1.1702739e-11,1.170192e-11,1.842837e-11,1.2062814e-07,1.2299769e-07,5e-08,0.0,0.0,0.0,0.0,0.0,0.0,0.0,0.0,659,0.6075586,0.24664328,0.078944966,0.0,3.805245e-05,0.013816794,0.0,0.0,0.0,0.015948,40,0,0,165,24,0,0,0
360231069,-0.37218925,0.00019884422,0.0006942526,-0.9281566,0.009910914,0.01908385,-0.082949296,0.025850197,0.043742724,-0.3922971,-1.4982256e-05,-5.4324764e-06,3.061587e-05,0.00070686254,0.00016170577,0.00086853007,0.19630095,0.004300585,0.3737911,-9.1088696e-05,-0.002317455,-0.0971974,0.0,0.0,1.2686738e-06,0.0020036292,0.025494477,3.2902804e-05,1.07098085e-05,1.0813958e-05,5.2259966e-06,0.034208816,0.034206554,0.011430131,0.21314923,0.21313745,0.06194606,1.1782428e-11,1.17816165e-11,1.8432263e-11,1.2062749e-07,1.2299678e-07,5.000007e-08,0.0,0.0,0.0,0.0,0.0,0.0,0.0,0.0,659,0.65290636,0.24888965,0.007639483,0.0,4.355322e-05,0.03823787,0.0,0.0,0.0,0.015948,40,0,0,165,24,0,0,0
360431069,-0.37332034,-0.0024510901,0.0009123524,-0.9276988,0.006706649,-0.0016506969,-0.073459096,0.027318481,0.043828778,-0.43059504,-1.4985222e-05,-5.433761e-06,3.0529096e-05,0.0007069516,0.00016152725,0.0008788284,0.19630095,0.004300585,0.3737911,-9.1088696e-05,-0.002317455,-0.0971974,0.0,0.0,1.1225559e-06,0.0020062197,0.025122868,3.286965e-05,1.0861812e-05,1.0965268e-05,5.267309e-06,0.03665411,0.03665156,0.011397772,0.24243815,0.24242468,0.06171932,1.1849495e-11,1.1848692e-11,1.8432093e-11,1.2062624e-07,1.229951e-07,5e-08,0.0,0.0,0.0,0.0,0.0,0.0,0.0,0.0,659,0.69632095,0.24843374,0.092822716,0.0,4.388167e-05,0.0061908066,0.0,0.0,0.0,0.015948,40,0,0,165,24,0,0,0
360638269,-0.37696165,-0.0013193119,0.00013190023,-0.926228,0.025785368,0.00019372044,-0.051962394,0.032150846,0.041610684,-0.41136807,-1.4989113e-05,-5.4348493e-06,3.035834e-05,0.0007071289,0.00016140821,0.0008679283,0.19630095,0.004300585,0.3737911,-9.1088696e-05,-0.002317455,-0.0971974,0.0,0.0,1.3431915e-06,0.00217428,0.026213765,3.2725264e-05,1.1014709e-05,1.1119314e-05,5.3774247e-06,0.03927302,0.039270364,0.011401019,0.275699,0.27568352,0.061851636,1.1921005e-11,1.19202105e-11,1.8429416e-11,1.2062475e-07,1.2299316e-07,5e-08,0.0,0.0,0.0,0.0,0.0,0.0,0.0,0.0,659,0.7425514,0.24869989,0.18735814,0.0,4.166829e-05,0.0013694452,0.0,0.0,0.0,0.015948,40,0,0,165,24,0,0,0
360838309,-0.3870959,-0.0023611079,-0.00051204144,-0.9220364,0.036405213,0.009516564,-0.06575007,0.03816088,0.041094944,-0.41588408,-1.4992891e-05,-5.4353054e-06,3.0294617e-05,0.0007072007,0.00016136671,0.00086588855,0.19630095,0.004300585,0.3737911,-9.1088696e-05,-0.002317455,-0.0971974,0.0,0.0,1.454975e-06,0.0022493608,0.027243933,3.2437856e-05,1.1145489e-05,1.1251136e-05,5.670452e-06,0.041717492,0.041714925,0.011365018,0.3086913,0.30867416,0.06151562,1.1972183e-11,1.1971402e-11,1.8425024e-11,1.2062289e-07,1.2299076e-07,5e-08,0.0,0.0,0.0,0.0,0.0,0.0,0.0,0.0,659,0.7857261,0.24802344,0.0487569,0.0,4.1159314e-05,0.006351272,0.0,0.0,0.0,0.015948,40,0,0,165,24,0,0,0
361038315,-0.4000544,-0.001672902,-0.00025157977,-0.91648984,0.0492025,0.0045260806,-0.05212011,0.04537741,0.041863963,-0.4051999,-1.499691e-05,-5.4355364e-06,3.0204e-05,0.0007072889,0.0001613461,0.0008584728,0.19630095,0.004300585,0.3737911,-9.1088696e-05,-0.002317455,-0.0971974,0.0,0.0,1.5845865e-06,0.0021310258,0.027755316,3.205916e-05,1.127891e-05,1.138633e-05,6.0563098e-06,0.044259734,0.04425731,0.011444806,0.34504807,0.34502915,0.06223616,1.2027539e-11,1.2026769e-11,1.8424826e-11,1.2062102e-07,1.2298841e-07,5.0000036e-08,0.0,0.0,0.0,0.0,0.0,0.0,0.0,0.0,659,0.83070886,0.24947177,0.04917836,0.0,4.478355e-05,0.055250313,0.0,0.0,0.0,0.015948,40,0,0,165,24,0,0,0
361245475,-0.41747642,-0.0030575048,0.003242946,-0.90867686,0.023555577,0.007183984,-0.05788276,0.052013632,0.043130726,-0.43043593,-1.5002471e-05,-5.4356124e-06,3.0109592e-05,0.0007074009,0.00016120219,0.00086405885,0.19630095,0.004300585,0.3737911,-9.1088696e-05,-0.002317455,-0.0971974,0.0,0.0,1.4774979e-06,0.0021380484,0.026367301,3.1495434e-05,1.1386045e-05,1.1494193e-05,6.585301e-06,0.046619672,0.0466173,0.011342464,0.38246065,0.38244033,0.061373077,1.2068091e-11,1.2067337e-11,1.8416008e-11,1.2061817e-07,1.2298494e-07,5e-08,0.0,0.0,0.0,0.0,0.0,0.0,0.0,0.0,659,0.87458616,0.2477359,0.13440928,0.0,5.212259e-05,0.042776,0.0,0.0,0.0,0.015948,40,0,0,165,24,0,0,0
361445468,-0.42183983,-0.0027612166,0.0009479526,-0.9066657,0.042190548,-0.02063347,-0.049914338,0.0547822,0.03793074,-0.44697368,-1.5007977e-05,-5.4353754e-06,2.9993462e-05,0.0007075367,0.00016106023,0.0008667736,0.19630095,0.004300585,0.3737911,-9.1088696e-05,-0.002317455,-0.0971974,0.0,0.0,1.3146001e-06,0.0021588753,0.026810694,3.1353946e-05,1.1483637e-05,1.1592917e-05,6.733418e-06,0.048849914,0.048847828,0.0113217225,0.42013395,0.42011252,0.061157223,1.210338e-11,1.2102639e-11,1.8414544e-11,1.2061535e-07,1.2298148e-07,5e-08,0.0,0.0,0.0,0.0,0.0,0.0,0.0,0.0,659,0.9166496,0.24729986,0.07593732,0.0,5.4681077e-05,0.0033432366,0.0,0.0,0.0,0.015948,40,0,0,165,24,0,0,0
361653469,-0.42918894,0.0024820438,0.0025230432,-0.90320784,0.024580183,-0.022617135,-0.12271032,0.05717857,0.030709673,-0.46463928,-1.5013658e-05,-5.433934e-06,2.998052e-05,0.0007075773,0.00016106365,0.00086778286,0.19630095,0.004300585,0.3737911,-9.1088696e-05,-0.002317455,-0.0971974,0.0,0.0,1.487157e-06,0.0022254204,0.029856103,3.1139203e-05,1.1563065e-05,1.1674744e-05,6.9749017e-06,0.051102847,0.051101223,0.011243946,0.45906377,0.4590417,0.060433913,1.2130946e-11,1.2130225e-11,1.8419476e-11,1.2061177e-07,1.2297716e-07,5e-08,0.0,0.0,0.0,0.0,0.0,0.0,0.0,0.0,659,0.9581782,0.2458331,0.10676069,0.0,5.7317597e-05,0.030804437,0.0,0.0,0.0,0.015948,40,0,0,165,24,0,0,0
361853468,-0.44439712,0.0044357744,0.00679434,-0.8957932,0.037491564,-0.02137376,-0.3873267,0.059674907,0.025453914,-0.5401332,-1.5018884e-05,-5.4322886e-06,2.9921079e-05,0.0007076787,0.00016094247,0.0008743308,0.19630095,0.004300585,0.3737911,-9.1088696e-05,-0.002317455,-0.0971974,0.0,0.0,2.0226896e-06,0.0024224755,0.030866478,3.0644584e-05,1.1636749e-05,1.1748986e-05,7.476126e-06,0.05364917,0.05364891,0.011241503,0.49821723,0.498195,0.060349386,1.2155451e-11,1.2154746e-11,1.8419417e-11,1.2060806e-07,1.2297285e-07,5e-08,0.0,0.0,0.0,0.0,0.0,0.0,0.0,0.0,659,0.99820447,0.24566112,0.040907614,0.0,5.982367e-05,0.0018302503,0.0,0.0,0.0,0.015948,40,0,0,165,24,0,0,0
362053469,-0.46237078,0.0014868618,0.0030791655,-0.8866801,0.050259046,-0.0027364898,-0.25491658,0.06512091,0.022136083,-0.6429907,-1.5024366e-05,-5.4303478e-06,2.9807017e-05,0.00070784974,0.0001606672,0.00088717934,0.19630095,0.004300585,0.3737911,-9.1088696e-05,-0.002317455,-0.0971974,0.0,0.0,1.8640674e-06,0.0022281937,0.028583964,2.9986535e-05,1.1696542e-05,1.1810075e-05,8.079808e-06,0.055229824,0.05523051,0.011245035,0.5374526,0.5374308,0.060303245,1.217456e-11,1.2173871e-11,1.840659e-11,1.2060386e-07,1.2296793e-07,5e-08,0.0,0.0,0.0,0.0,0.0,0.0,0.0,0.0,659,1.0367658,0.24556719,0.04831286,0.0,6.485376e-05,0.0079960115,0.0,0.0,0.0,0.015948,40,0,0,165,24,0,0,0
362260668,-0.48147964,0.002531679,0.0051908274,-0.8764384,0.059108887,0.0135917235,-0.036280826,0.07358928,0.021729516,-0.6742325,-1.5030122e-05,-5.4273673e-06,2.97777e-05,0.0007079196,0.00016064677,0.0008881225,0.19630095,0.004300585,0.3737911,-9.1088696e-05,-0.002317455,-0.0971974,0.0,0.0,2.489001e-06,0.002137173,0.029036846,2.9332896e-05,1.1753814e-05,1.1868162e-05,8.760737e-06,0.0566485,0.056649957,0.011291029,0.578559,0.5785383,0.060587697,1.2192396e-11,1.2191726e-11,1.8410233e-11,1.205993e-07,1.229625e-07,5.0000036e-08,0.0,0.0,0.0,0.0,0.0,0.0,0.0,0.0,659,1.0756845,0.24614568,0.1030118,0.0,7.285744e-05,0.00974856,0.0,0.0,0.0,0.015948,40,0,0,165,24,0,0,0
362460669,-0.5218048,0.0012327716,0.0024659855,-0.85306054,0.077329114,0.020199683,-0.06117309,0.082926914,0.023619559,-0.65903777,-1.5037065e-05,-5.4240363e-06,2.9676534e-05,0.0007080388,0.00016069473,0.0008796602,0.19630095,0.004300585,0.3737911,-9.1088696e-05,-0.002317455,-0.0971974,0.0,0.0,3.2641778e-06,0.0020580874,0.0306703,2.7827367e-05,1.1788482e-05,1.19052465e-05,1.0276972e-05,0.058287334,0.058290772,0.011294037,0.6162809,0.6162623,0.06055261,1.2202427e-11,1.2201774e-11,1.8411071e-11,1.2059408e-07,1.229565e-07,5e-08,0.0,0.0,0.0,0.0,0.0,0.0,0.0,0.0,659,1.1101997,0.2460744,0.030022552,0.0,8.317559e-05,0.022331923,0.0,0.0,0.0,0.015948,40,0,0,165,24,0,0,0
362668690,-0.5727325,0.004640677,0.0026465938,-0.81972486,0.08954791,0.02389675,-0.10147844,0.095163405,0.026986249,-0.65039057,-1.5044943e-05,-5.4201046e-06,2.9588002e-05,0.00070815004,0.00016080223,0.00086872076,0.19630095,0.004300585,0.3737911,-9.1088696e-05,-0.002317455,-0.0971974,0.0,0.0,4.6976984e-06,0.0024034004,0.03299817,2.5761981e-05,1.1817946e-05,1.1937697e-05,1.2373972e-05,0.059999976,0.060006265,0.011332578,0.65580344,0.6557882,0.06083786,1.221143e-11,1.2210796e-11,1.8415056e-11,1.205883e-07,1.2294981e-07,5.0000036e-08,0.0,0.0,0.0,0.0,0.0,0.0,0.0,0.0,659,1.1452475,0.24665332,0.04180151,0.0,9.3955794e-05,0.054591242,0.0,0.0,0.0,0.015948,40,0,0,165,24,0,0,0
362867886,-0.61814594,0.0026688117,0.0033890964,-0.7860516,0.10351565,0.013807107,-0.015720194,0.10920992,0.029850552,-0.6258257,-1.5053792e-05,-5.4153948e-06,2.9513614e-05,0.00070826546,0.00016096212,0.00085538806,0.19630095,0.004300585,0.3737911,-9.1088696e-05,-0.002317455,-0.0971974,0.0,0.0,5.1917746e-06,0.0025451975,0.035437953,2.374028e-05,1.1825689e-05,1.1943375e-05,1.4407561e-05,0.06115502,0.061164636,0.011338648,0.6910446,0.6910343,0.06083116,1.2213405e-11,1.221279e-11,1.841484e-11,1.2058162e-07,1.2294215e-07,5e-08,0.0,0.0,0.0,0.0,0.0,0.0,0.0,0.0,659,1.1756185,0.24663973,0.087567605,0.0,0.00010693825,0.018927619,0.0,0.0,0.0,0.015948,40,0,0,165,24,0,0,0
363067869,-0.6578742,-0.00024510972,0.0035467434,-0.75311947,0.13316754,0.017151227,-0.119037844,0.12518007,0.032684006,-0.6204506,-1.5064098e-05,-5.409595e-06,2.9438905e-05,0.0007084255,0.00016101894,0.0008492375,0.19630095,0.004300585,0.3737911,-9.1088696e-05,-0.002317455,-0.0971974,0.0,0.0,5.506511e-06,0.0026905828,0.03684614,2.1875669e-05,1.18167645e-05,1.19314e-05,1.6345717e-05,0.06257629,0.062591806,0.011332706,0.72393805,0.72393453,0.060738135,1.2211351e-11,1.2210753e-11,1.8426795e-11,1.2057355e-07,1.2293305e-07,5.0000036e-08,0.0,0.0,0.0,0.0,0.0,0.0,0.0,0.0,659,1.2032758,0.24645108,0.008799252,0.0,0.00012462768,0.031708773,0.0,0.0,0.0,0.015948,40,0,0,165,24,0,0,0
363267893,-0.69131786,-0.014762054,0.016251832,-0.7222172,0.145108,0.05048119,-0.11447792,0.14213148,0.039473604,-0.60064554,-1.5076303e-05,-5.403613e-06,2.924114e-05,0.0007086804,0.00016112567,0.0008324877,0.19630095,0.004300585,0.3737911,-9.1088696e-05,-0.002317455,-0.0971974,0.0,0.0,5.475843e-06,0.0028022665,0.037341718,2.0158495e-05,1.1800874e-05,1.1905102e-05,1.8068766e-05,0.0637207,0.06374251,0.011328607,0.7552865,0.75529236,0.060687833,1.2208289e-11,1.220771e-11,1.8426866e-11,1.2056364e-07,1.229219e-07,5e-08,0.0,0.0,0.0,0.0,0.0,0.0,0.0,0.0,659,1.2290561,0.246349,0.11043904,0.0,0.00014266053,0.016448075,0.0,0.0,0.0,0.015948,40,0,0,165,24,0,0,0
363475922,-0.7239456,-0.0142762195,0.018915799,-0.6894499,0.15613087,0.14360386,-0.032143507,0.16084352,0.056688957,-0.5861787,-1.50910755e-05,-5.3972067e-06,2.9049608e-05,0.000708949,0.00016118203,0.0008223934,0.19630095,0.004300585,0.3737911,-9.1088696e-05,-0.002317455,-0.0971974,0.0,0.0,5.4213456e-06,0.002899724,0.038051613,1.8383575e-05,1.177567e-05,1.1872092e-05,1.9807814e-05,0.064796224,0.06482346,0.011352381,0.7874678,0.7874858,0.060913723,1.2206606e-11,1.22060435e-11,1.841769e-11,1.2055078e-07,1.229077e-07,5e-08,0.0,0.0,0.0,0.0,0.0,0.0,0.0,0.0,659,1.2549715,0.24680705,0.011349859,0.0,0.00016146533,0.020493777,0.0,0.0,0.0,0.015948,40,0,0,165,24,0,0,0
363679069,-0.75016105,-0.021754757,0.022842513,-0.6605025,0.16218084,0.22968799,0.026997399,0.18055762,0.08906191,-0.56109405,-1.5107235e-05,-5.392007e-06,2.878342e-05,0.0007093215,0.00016116108,0.00081168563,0.19630095,0.004300585,0.3737911,-9.1088696e-05,-0.002317455,-0.0971974,0.0,0.0,4.2903503e-06,0.0026131354,0.03349121,1.6898302e-05,1.1755623e-05,1.18497655e-05,2.1295833e-05,0.06614814,0.066180535,0.011440108,0.8205283,0.8205611,0.06170906,1.2211595e-11,1.2211046e-11,1.8417212e-11,1.2053589e-07,1.2289138e-07,5e-08,0.0,0.0,0.0,0.0,0.0,0.0,0.0,0.0,659,1.2810501,0.24841309,0.13375688,0.0,0.0001787516,0.0039709676,0.0,0.0,0.0,0.015948,40,0,0,165,24,0,0,0
363879101,-0.7662453,-0.016904963,0.018345285,-0.64206374,0.18014012,0.32259125,0.0607663,0.19982538,0.13722126,-0.5479691,-1.513145e-05,-5.3861577e-06,2.861619e-05,0.0007097661,0.00016116013,0.0008094018,0.19630095,0.004300585,0.3737911,-9.1088696e-05,-0.002317455,-0.0971974,0.0,0.0,3.1107345e-06,0.0023549132,0.02952793,1.597448e-05,1.167275e-05,1.1766207e-05,2.2232749e-05,0.06670613,0.06674327,0.011323703,0.8394078,0.83945763,0.06078865,1.2202204e-11,1.2201677e-11,1.8426396e-11,1.2051134e-07,1.2286493e-07,5e-08,0.0,0.0,0.0,0.0,0.0,0.0,0.0,0.0,659,1.2957104,0.24655354,0.09202861,0.0,0.00020062052,0.053209826,0.0,0.0,0.0,0.015948,40,0,0,165,24,0,0,0
364079075,-0.7710278,-0.015954554,0.016410468,-0.63639003,0.18446584,0.40788013,0.098813236,0.22028162,0.19947709,-0.5094492,-1.5159077e-05,-5.383695e-06,2.8363533e-05,0.0007103392,0.00016119018,0.0008023807,0.19630095,0.004300585,0.3737911,-9.1088696e-05,-0.002317455,-0.0971974,0.0,0.0,2.6389787e-06,0.0024250343,0.029533617,1.5650829e-05,1.1610533e-05,1.1704974e-05,2.2499018e-05,0.06764009,0.067681335,0.011313505,0.8613798,0.86144847,0.060691208,1.2196398e-11,1.21959e-11,1.8413717e-11,1.2048193e-07,1.228335e-07,5e-08,0.0,0.0,0.0,0.0,0.0,0.0,0.0,0.0,659,1.3125656,0.24635586,0.086141646,0.0,0.00022123745,0.0009954358,0.0,0.0,0.0,0.015948,40,0,0,165,24,0,0,0
364279090,-0.7711658,-0.004491934,0.008501634,-0.63656175,0.1903511,0.44949648,-0.07902001,0.23910335,0.26800892,-0.49052075,-1.5192224e-05,-5.384111e-06,2.8192244e-05,0.0007109764,0.00016136761,0.00080051797,0.19630095,0.004300585,0.3737911,-9.1088696e-05,-0.002317455,-0.0971974,0.0,0.0,1.9891618e-06,0.0023066527,0.03155912,1.5635196e-05,1.1547164e-05,1.1644173e-05,2.2524026e-05,0.06907552,0.069128565,0.011310522,0.881462,0.8815506,0.060635798,1.2191513e-11,1.2191049e-11,1.8413545e-11,1.2044387e-07,1.2279313e-07,5.0000036e-08,0.0,0.0,0.0,0.0,0.0,0.0,0.0,0.0,659,1.3277849,0.24624337,0.13196677,0.0,0.00026558278,0.005296758,0.0,0.0,0.0,0.015948,40,0,0,165,24,0,0,0
364478278,-0.7678567,-0.0032753334,0.004648806,-0.64059633,0.19833368,0.46253696,-0.2768277,0.25557908,0.3360739,-0.530269,-1.5231973e-05,-5.3886306e-06,2.793089e-05,0.00071181386,0.00016164557,0.00080116274,0.19630095,0.004300585,0.3737911,-9.1088696e-05,-0.002317455,-0.0971974,0.0,0.0,1.9566503e-06,0.002519648,0.033170015,1.5803887e-05,1.148666e-05,1.158629e-05,2.2361286e-05,0.070543595,0.070613764,0.011310791,0.8999544,0.9000654,0.060603376,1.21880535e-11,1.21876354e-11,1.8413462e-11,1.2039474e-07,1.2274111e-07,5.0000036e-08,0.0,0.0,0.0,0.0,0.0,0.0,0.0,0.0,659,1.3416481,0.24617752,0.1878363,0.0,0.00033382344,0.0036525854,0.0,0.0,0.0,0.015948,40,0,0,165,24,0,0,0
364686280,-0.7634423,-0.0016793661,0.0019445269,-0.6458709,0.1785469,0.43783104,-0.132023,0.26857978,0.3978493,-0.56528765,-1.5281674e-05,-5.397398e-06,2.764291e-05,0.0007129004,0.00016220026,0.00079821044,0.19630095,0.004300585,0.3737911,-9.1088696e-05,-0.002317455,-0.0971974,0.0,0.0,1.908754e-06,0.002700023,0.034392707,1.6014195e-05,1.1409389e-05,1.1510373e-05,2.2113212e-05,0.07084992,0.07093607,0.01124477,0.9116136,0.9117485,0.059983745,1.2177657e-11,1.2177296e-11,1.840341e-11,1.203242e-07,1.2266666e-07,5e-08,0.0,0.0,0.0,0.0,0.0,0.0,0.0,0.0,659,1.3503193,0.2449158,0.07618997,0.0,0.00039961794,0.02965677,0.0,0.0,0.0,0.015948,40,0,0,165,24,0,0,0
364886269,-0.760866,0.0011729015,-0.001636275,-0.64890593,0.14254163,0.42130718,-0.10044903,0.27848616,0.45000318,-0.58484286,-1.5330312e-05,-5.407993e-06,2.7506429e-05,0.00071401836,0.00016301719,0.00079795386,0.19630095,0.004300585,0.3737911,-9.1088696e-05,-0.002317455,-0.0971974,0.0,0.0,1.6868664e-06,0.002626443,0.035328962,1.6148051e-05,1.13544775e-05,1.14565055e-05,2.1984306e-05,0.07171662,0.071818076,0.0112489965,0.9262293,0.926391,0.05999034,1.21780416e-11,1.2177729e-11,1.8403421e-11,1.2024339e-07,1.2258168e-07,5e-08,0.0,0.0,0.0,0.0,0.0,0.0,0.0,0.0,659,1.36111,0.24492925,0.129302,0.0,0.00045214244,0.01869159,0.0,0.0,0.0,0.015948,40,0,0,165,24,0,0,0
365094269,-0.758912,-0.0001676626,-0.0009818563,-0.6511926,0.13043831,0.3722301,-0.11495559,0.28476265,0.49385765,-0.5871267,-1.5381598e-05,-5.420956e-06,2.7303868e-05,0.0007153175,0.0001639783,0.0007923136,0.19630095,0.004300585,0.3737911,-9.1088696e-05,-0.002317455,-0.0971974,0.0,0.0,1.7679592e-06,0.002748652,0.03592264,1.6250597e-05,1.1309197e-05,1.1410617e-05,2.1908372e-05,0.07293096,0.073054425,0.011294553,0.94304097,0.9432352,0.060345754,1.2184787e-11,1.2184527e-11,1.8407534e-11,1.2014411e-07,1.2247747e-07,5.0000036e-08,0.0,0.0,0.0,0.0,0.0,0.0,0.0,0.0,659,1.3734177,0.24565373,0.0012767584,0.0,0.0004931721,0.0067441384,0.0,0.0,0.0,0.015948,40,0,0,165,24,0,0,0
365291111,-0.75825495,0.0001851412,-0.0002806697,-0.65195817,0.129541,0.33984172,-0.040813796,0.28463176,0.51988596,-0.5931082,-1.5434705e-05,-5.4362727e-06,2.710093e-05,0.00071676687,0.00016515184,0.0007885257,0.19630095,0.004300585,0.3737911,-9.1088696e-05,-0.002317455,-0.0971974,0.0,0.0,1.5322659e-06,0.0026183727,0.0344355,1.626182e-05,1.1250917e-05,1.1351917e-05,2.1882113e-05,0.073468536,0.073608264,0.011267115,0.9511716,0.95139647,0.060067732,1.2185778e-11,1.2185573e-11,1.8403376e-11,1.2002403e-07,1.2235155e-07,5e-08,0.0,0.0,0.0,0.0,0.0,0.0,0.0,0.0,659,1.3793361,0.24508719,0.050018024,0.0,0.00051956996,0.03215424,0.0,0.0,0.0,0.015948,40,0,0,165,24,0,0,0
365497475,-0.75722384,-0.00026511605,-0.00042800966,-0.6531554,0.10386046,0.29313663,0.121616855,0.2805871,0.53720075,-0.5754061,-1.5495041e-05,-5.455773e-06,2.6782396e-05,0.0007186105,0.00016661521,0.0007858025,0.19630095,0.004300585,0.3737911,-9.1088696e-05,-0.002317455,-0.0971974,0.0,0.0,1.4785721e-06,0.0026715826,0.034140225,1.627721e-05,1.1189042e-05,1.1289327e-05,2.18346e-05,0.07384302,0.073998764,0.011226603,0.958404,0.958666,0.059759334,1.2208826e-11,1.22086855e-11,1.8416393e-11,1.1986377e-07,1.2218366e-07,5e-08,0.0,0.0,0.0,0.0,0.0,0.0,0.0,0.0,659,1.384583,0.24445723,0.114969954,0.0,0.00053733756,0.013995877,0.0,0.0,0.0,0.015948,40,0,0,165,24,0,0,0
365697468,-0.7572775,-0.00032810427,0.0011829132,-0.6530921,0.086523734,0.24640343,0.20423573,0.27456993,0.5458109,-0.5393397,-1.5548878e-05,-5.4744733e-06,2.6519798e-05,0.00072038465,0.00016815067,0.00078339415,0.19630095,0.004300585,0.3737911,-9.1088696e-05,-0.002317455,-0.0971974,0.0,0.0,1.5439467e-06,0.0027102057,0.035230644,1.6251846e-05,1.1141062e-05,1.1240467e-05,2.1864667e-05,0.07455829,0.074729785,0.011239608,0.9668949,0.9671957,0.05977875,1.221646e-11,1.2216382e-11,1.841366e-11,1.1969274e-07,1.2200461e-07,5e-08,0.0,0.0,0.0,0.0,0.0,0.0,0.0,0.0,659,1.3907158,0.24449693,0.11450527,0.0,0.0005463043,0.0061711953,0.0,0.0,0.0,0.015948,40,0,0,165,24,0,0,0
365905474,-0.758063,-0.0039309296,0.0031905218,-0.6521617,0.07064455,0.24617077,0.115931585,0.26422775,0.54604214,-0.48693243,-1.5606896e-05,-5.4956845e-06,2.6308351e-05,0.0007224252,0.00017009903,0.00077937497,0.19630095,0.004300585,0.3737911,-9.1088696e-05,-0.002317455,-0.0971974,0.0,0.0,1.39502e-06,0.0024556436,0.03368659,1.619819e-05,1.1077951e-05,1.1175669e-05,2.194491e-05,0.07544467,0.075631365,0.011192137,0.9694748,0.9698151,0.059316203,1.2223891e-11,1.22238894e-11,1.8417799e-11,1.1947087e-07,1.2177259e-07,5e-08,0.0,0.0,0.0,0.0,0.0,0.0,0.0,0.0,659,1.3925838,0.24354918,0.08304197,0.0,0.0005486915,0.008981689,0.0,0.0,0.0,0.015948,40,0,0,165,24,0,0,0
366104669,-0.7578867,-0.009627592,0.012118024,-0.6522026,0.057647053,0.26401985,-0.055863492,0.25667503,0.553996,-0.50082797,-1.565384e-05,-5.5147443e-06,2.6045387e-05,0.0007243042,0.00017179326,0.0007868612,0.19630095,0.004300585,0.3737911,-9.1088696e-05,-0.002317455,-0.0971974,0.0,0.0,1.0259541e-06,0.0021187095,0.030164173,1.6182907e-05,1.1062334e-05,1.11553345e-05,2.1964592e-05,0.077366635,0.07757074,0.01131071,0.98657435,0.98696643,0.060297914,1.2248969e-11,1.2249025e-11,1.8417746e-11,1.192654e-07,1.215579e-07,5e-08,0.0,0.0,0.0,0.0,0.0,0.0,0.0,0.0,659,1.4048277,0.24555634,0.118274085,0.0,0.00055461645,0.01868085,0.0,0.0,0.0,0.015948,40,0,0,165,24,0,0,0
366312669,-0.7573948,-0.013754899,0.016233657,-0.6526106,0.064396776,0.31552184,-0.27124402,0.24655274,0.5634057,-0.53361076,-1.5704592e-05,-5.536407e-06,2.5781737e-05,0.0007263559,0.00017386854,0.0007823221,0.19630095,0.004300585,0.3737911,-9.1088696e-05,-0.002317455,-0.0971974,0.0,0.0,8.745492e-07,0.0020677862,0.027808165,1.6192638e-05,1.1025923e-05,1.1116201e-05,2.197754e-05,0.07905994,0.07927918,0.011350556,0.99669933,0.99714226,0.060622945,1.2269059e-11,1.22691865e-11,1.8420782e-11,1.1899965e-07,1.2128058e-07,5.0000036e-08,0.0,0.0,0.0,0.0,0.0,0.0,0.0,0.0,659,1.4120346,0.24621727,0.16098672,0.0,0.000561349,0.0009788694,0.0,0.0,0.0,0.015948,40,0,0,165,24,0,0,0
366512669,-0.75720835,-0.014129632,0.015737772,-0.6528309,0.05333499,0.33789122,0.09295332,0.23569028,0.5755731,-0.5552524,-1.5755048e-05,-5.559974e-06,2.5475154e-05,0.00072858075,0.00017613058,0.000784174,0.19630095,0.004300585,0.3737911,-9.1088696e-05,-0.002317455,-0.0971974,0.0,0.0,8.0452605e-07,0.002151669,0.027847687,1.6177857e-05,1.0981671e-05,1.1071879e-05,2.1997173e-05,0.079070315,0.07929238,0.011355511,1.0027076,1.0031979,0.060667858,1.22885495e-11,1.2288758e-11,1.842072e-11,1.1870111e-07,1.2096915e-07,5.0000036e-08,0.0,0.0,0.0,0.0,0.0,0.0,0.0,0.0,659,1.4162999,0.24630846,0.1894782,0.0,0.0005732875,0.021559043,0.0,0.0,0.0,0.015948,40,0,0,165,24,0,0,0
366712668,-0.7564084,-0.012244333,0.014581257,-0.6538224,0.050679956,0.3602705,0.16991183,0.22424506,0.59147066,-0.5301622,-1.580594e-05,-5.586336e-06,2.504613e-05,0.0007309589,0.0001785866,0.0007866986,0.19630095,0.004300585,0.3737911,-9.1088696e-05,-0.002317455,-0.0971974,0.0,0.0,1.1581213e-06,0.0025226357,0.031934537,1.6189872e-05,1.0936824e-05,1.102591e-05,2.1990796e-05,0.07975427,0.079984225,0.01134995,1.0074133,1.0079482,0.060654387,1.23097825e-11,1.2310081e-11,1.8420647e-11,1.1836283e-07,1.2061649e-07,5.0000036e-08,0.0,0.0,0.0,0.0,0.0,0.0,0.0,0.0,659,1.4196342,0.24628112,0.20024557,0.0,0.00059148914,0.043021146,0.0,0.0,0.0,0.015948,40,0,0,165,24,0,0,0
366919885,-0.75557405,-0.015444971,0.018157603,-0.6546294,0.030377569,0.39973468,0.07734922,0.21439935,0.62219954,-0.47818062,-1.585113e-05,-5.611766e-06,2.4581524e-05,0.0007330585,0.0001809584,0.0007785901,0.19630095,0.004300585,0.3737911,-9.1088696e-05,-0.002317455,-0.0971974,0.0,0.0,1.2766632e-06,0.0027164381,0.03489776,1.62036e-05,1.0927411e-05,1.1013695e-05,2.2000715e-05,0.081652574,0.08189452,0.01147757,1.0252643,1.0258603,0.061827436,1.234532e-11,1.2345713e-11,1.842464e-11,1.1802517e-07,1.2026466e-07,5.0000075e-08,0.0,0.0,0.0,0.0,0.0,0.0,0.0,0.0,659,1.4321748,0.24865124,0.23336005,0.0,0.00061886053,0.020774594,0.0,0.0,0.0,0.015948,40,0,0,165,24,0,0,0
367119868,-0.75461197,-0.018252993,0.021073783,-0.65557873,0.037103698,0.48016453,-0.081555516,0.20077692,0.65200776,-0.48321658,-1.5902673e-05,-5.6437098e-06,2.4011564e-05,0.0007356174,0.00018395284,0.000778942,0.19630095,0.004300585,0.3737911,-9.1088696e-05,-0.002317455,-0.0971974,0.0,0.0,1.0740806e-06,0.0024499113,0.03414264,1.62067e-05,1.0884012e-05,1.09676575e-05,2.19993e-05,0.082835,0.083080105,0.011458449,1.0283759,1.0290147,0.061697412,1.2369697e-11,1.2370212e-11,1.8423964e-11,1.1761112e-07,1.1983342e-07,5.000007e-08,0.0,0.0,0.0,0.0,0.0,0.0,0.0,0.0,659,1.4343607,0.24838963,0.21585822,0.0,0.0006441088,0.0040958785,0.0,0.0,0.0,0.015948,40,0,0,165,24,0,0,0
