timestamp,rollspeed,pitchspeed,yawspeed,rollspeed_integ,pitchspeed_integ,yawspeed_integ,additional_integ1
349498447,0.0022200493,9.091757e-05,-0.0045156395,0.0,0.0,0.0,0.0
349564050,-0.00045063056,0.00095685804,-0.004599518,0.0,0.0,0.0,0.0
349595206,-0.0013647499,0.00038539545,-0.00464876,0.0,0.0,0.0,0.0
349625622,-4.0806364e-05,-0.00051178253,-0.0029737477,0.0,0.0,0.0,0.0
349658430,-1.4135963e-05,-0.00041976763,-0.0037995507,0.0,0.0,0.0,0.0
349689638,-0.00037182355,-0.00039988814,-0.004814261,0.0,0.0,0.0,0.0
349721653,-0.00085688697,7.778476e-05,-0.00428604,0.0,0.0,0.0,0.0
349753608,0.0010493873,-0.0009830974,-0.0045880307,0.0,0.0,0.0,0.0
349785641,-0.00043771102,0.0012231467,-0.004202589,0.0,0.0,0.0,0.0
349813633,0.0002141617,-0.0005752865,-0.002855495,0.0,0.0,0.0,0.0
349845651,0.00017602381,-0.0010854222,-0.004032394,0.0,0.0,0.0,0.0
349877603,0.00076808664,0.0007558294,-0.0033929774,0.0,0.0,0.0,0.0
349909617,0.0007355157,0.0008303205,-0.003963351,0.0,0.0,0.0,0.0
349941626,0.00042593572,-0.00053377677,-0.0044504614,0.0,0.0,0.0,0.0
349973647,-0.0003215751,-0.00055847573,-0.0033216765,0.0,0.0,0.0,0.0
350005603,-0.00040112354,0.0004945204,-0.0038739312,0.0,0.0,0.0,0.0
350037609,7.470546e-05,0.0014526588,-0.0036392997,0.0,0.0,0.0,0.0
350069642,-0.0002070925,0.00018216216,-0.0042599733,0.0,0.0,0.0,0.0
350097626,-0.0016007987,0.00056397624,-0.0047081304,0.0,0.0,0.0,0.0
350129636,-0.0006854704,-0.0008539272,-0.00340263,0.0,0.0,0.0,0.0
350161633,-0.00055721006,0.0005893465,-0.0029299334,0.0,0.0,0.0,0.0
350193603,-0.0001102488,-0.0012616068,-0.0041994867,0.0,0.0,0.0,0.0
350225660,-0.00097068213,-0.00026464043,-0.0027366753,0.0,0.0,0.0,0.0
350257637,0.00012499176,0.000105943356,-0.0040430655,0.0,0.0,0.0,0.0
350288056,-0.00048233045,-7.316633e-05,-0.0030811485,0.0,0.0,0.0,0.0
350320803,-0.00015723053,0.0004420287,-0.0036178017,0.0,0.0,0.0,0.0
350352067,-4.738453e-05,-0.0008607713,-0.0042774626,0.0,0.0,0.0,0.0
350380814,9.655615e-05,0.00028270594,-0.0044048913,0.0,0.0,0.0,0.0
350412044,0.00051139644,0.00033939758,-0.0031241851,0.0,0.0,0.0,0.0
350444847,0.0006145291,0.0017472059,-0.0044432245,0.0,0.0,0.0,0.0
350476843,-0.0004724285,-0.0005972883,-0.0040986817,0.0,0.0,0.0,0.0
350508804,-0.0013444979,0.0010349258,-0.003852421,0.0,0.0,0.0,0.0
350540856,-0.000309926,-0.0010964202,-0.0030343824,0.0,0.0,0.0,0.0
350572876,-0.0012911577,-0.00033778435,-0.0038403308,0.0,0.0,0.0,0.0
350604813,-0.0011738962,0.00084893394,-0.0050638663,0.0,0.0,0.0,0.0
350636809,-0.00092944014,0.0010045647,-0.0027730975,0.0,0.0,0.0,0.0
350668803,-0.0018398928,-0.00021195528,-0.0042343168,0.0,0.0,0.0,0.0
350700846,-0.00026997633,0.0007604455,-0.0045541576,0.0,0.0,0.0,0.0
350732839,-0.0016187432,-0.0006175468,-0.004764264,0.0,0.0,0.0,0.0
350764810,-0.0005397806,-0.00072814414,-0.002584028,0.0,0.0,0.0,0.0
350796806,-0.0007201643,-0.00031900895,-0.0041494607,0.0,0.0,0.0,0.0
350828863,2.592546e-05,-0.00057617004,-0.0037364764,0.0,0.0,0.0,0.0
350856844,-9.8262564e-05,-0.0012025945,-0.0030719521,0.0,0.0,0.0,0.0
350888834,0.00053670537,4.8558868e-05,-0.00431432,0.0,0.0,0.0,0.0
350920809,-0.0008548853,0.00081475603,-0.0030358075,0.0,0.0,0.0,0.0
350952833,-0.00064303295,-6.850058e-05,-0.0035579314,0.0,0.0,0.0,0.0
350984855,-0.00081585173,0.00022981406,-0.00405073,0.0,0.0,0.0,0.0
351016829,-0.00010194653,0.0005756598,-0.004185059,0.0,0.0,0.0,0.0
351047206,5.956285e-05,-0.00013262115,-0.0035829048,0.0,0.0,0.0,0.0
351080853,-0.000100855366,-0.00035359658,-0.0032026633,0.0,0.0,0.0,0.0
351108814,-0.00022848789,-0.00048625033,-0.0038932909,0.0,0.0,0.0,0.0
351144069,-7.197936e-05,-0.00084850704,-0.0022540968,0.0,0.0,0.0,0.0
351172129,0.0012089412,3.9605133e-05,-0.0040727346,0.0,0.0,0.0,0.0
351204013,-9.3006995e-05,0.0007457958,-0.0039998135,0.0,0.0,0.0,0.0
351236042,-2.0483509e-05,0.00018201832,-0.0025535193,0.0,0.0,0.0,0.0
351268042,-0.0011255107,-0.001138509,-0.0031567889,0.0,0.0,0.0,0.0
351300081,0.0002352522,-0.00058365456,-0.0027532293,0.0,0.0,0.0,0.0
351332011,0.0007334268,0.0006060625,-0.0037839038,0.0,0.0,0.0,0.0
351364056,-9.402062e-05,0.00016042992,-0.004702207,0.0,0.0,0.0,0.0
351396021,-0.0005922576,1.7965445e-05,-0.0035817847,0.0,0.0,0.0,0.0
351424071,-0.00030925102,-6.121234e-05,-0.0035118407,0.0,0.0,0.0,0.0
351456011,-0.0009075232,7.962936e-05,-0.0023801555,0.0,0.0,0.0,0.0
351488089,-0.00046505884,-0.00031169626,-0.002712333,0.0,0.0,0.0,0.0
351520003,-0.0014613691,0.00024827098,-0.004340493,0.0,0.0,0.0,0.0
351552053,-0.0008403009,8.3732535e-05,-0.0033967858,0.0,0.0,0.0,0.0
351584020,0.0005236522,-0.0011645526,-0.0043590195,0.0,0.0,0.0,0.0
351616060,-0.0013616341,-0.00095401035,-0.0047553713,0.0,0.0,0.0,0.0
351644056,-0.00036322395,-0.00049853575,-0.0032857815,0.0,0.0,0.0,0.0
351676097,-0.0009490871,0.0005371182,-0.004347028,0.0,0.0,0.0,0.0
351708030,-0.000761996,0.0010814694,-0.003991102,0.0,0.0,0.0,0.0
351740045,-6.596453e-05,-6.4552296e-06,-0.0043787966,0.0,0.0,0.0,0.0
351772057,0.0005257294,8.7085995e-05,-0.003838097,0.0,0.0,0.0,0.0
351804089,-0.00084597187,-0.00024298718,-0.0037970748,0.0,0.0,0.0,0.0
351836003,2.9335148e-05,-0.00011647801,-0.00390308,0.0,0.0,0.0,0.0
351867236,0.00020721997,-0.0010691879,-0.0033012738,0.0,0.0,0.0,0.0
351899289,0.0016956859,-0.0004369365,-0.0039505833,0.0,0.0,0.0,0.0
351931269,-0.00035896734,1.4087767e-05,-0.0033251483,0.0,0.0,0.0,0.0
351959305,-0.00046947657,0.00014999567,-0.0029793158,0.0,0.0,0.0,0.0
351991233,-0.00035564695,-0.00016274786,-0.0041548526,0.0,0.0,0.0,0.0
352023205,-0.00096065167,-0.00022671022,-0.0045392797,0.0,0.0,0.0,0.0
352055226,-0.0013170455,0.00040072354,-0.0040883655,0.0,0.0,0.0,0.0
352087256,-0.0008426517,-0.00016703526,-0.0032046412,0.0,0.0,0.0,0.0
352119320,3.4341472e-05,-1.6964448e-05,-0.0045275493,0.0,0.0,0.0,0.0
352151206,0.00067569746,0.00069019187,-0.0041540056,0.0,0.0,0.0,0.0
352183227,-0.0010260179,-0.00092088216,-0.0038363726,0.0,0.0,0.0,0.0
352211215,0.00051515247,-0.0007798436,-0.003215472,0.0,0.0,0.0,0.0
352243240,-0.0005470903,0.0006702703,-0.004305422,0.0,0.0,0.0,0.0
352275236,0.0008208136,0.00023450077,-0.0034854403,0.0,0.0,0.0,0.0
352307212,0.0011520209,0.0004705281,-0.0048360615,0.0,0.0,0.0,0.0
352339275,-0.0015074548,0.00010738592,-0.0020629002,0.0,0.0,0.0,0.0
352371257,-0.00050106866,-0.00045724097,-0.0043106335,0.0,0.0,0.0,0.0
352403239,0.00038567942,-0.0007496115,-0.004129025,0.0,0.0,0.0,0.0
352435226,-0.00087336975,-0.00010084477,-0.0044628535,0.0,0.0,0.0,0.0
352467222,0.00070100557,-0.00035912357,-0.004762995,0.0,0.0,0.0,0.0
352499311,-0.00036587613,0.00033565742,-0.0032502876,0.0,0.0,0.0,0.0
352531236,2.4803332e-05,-0.0004568441,-0.003365497,0.0,0.0,0.0,0.0
352563247,0.00054165453,0.00083750946,-0.0044174897,0.0,0.0,0.0,0.0
352595234,0.0005461648,-6.0222636e-05,-0.004852619,0.0,0.0,0.0,0.0
352627244,-0.0013365368,0.00034132175,-0.003698623,0.0,0.0,0.0,0.0
352658448,0.0006802068,-0.0006190674,-0.0032622947,0.0,0.0,0.0,0.0
352689634,-0.00032428093,6.6823326e-05,-0.002707062,0.0,0.0,0.0,0.0
352722410,0.00040581694,0.0011664653,-0.0032155968,0.0,0.0,0.0,0.0
352750410,-0.00089456316,-0.00027758948,-0.0030226237,0.0,0.0,0.0,0.0
352782402,-0.00029072992,0.00024152495,-0.0030991002,0.0,0.0,0.0,0.0
352814436,0.0012367892,0.0011668007,-0.004336199,0.0,0.0,0.0,0.0
352846437,-0.0005326165,0.00014220667,-0.0051550046,0.0,0.0,0.0,0.0
352878407,-0.0010259537,0.0016089627,-0.0038245122,0.0,0.0,0.0,0.0
352910408,-0.0009771877,-0.0016139254,-0.0033285187,0.0,0.0,0.0,0.0
352942464,-0.00020125182,0.00057369826,-0.0038393524,0.0,0.0,0.0,0.0
352974465,-0.0004760502,-0.00040210283,-0.004888716,0.0,0.0,0.0,0.0
353006427,-0.0010288252,0.00021536203,-0.00299248,0.0,0.0,0.0,0.0
353038405,0.0011005411,-0.0010610139,-0.0044126157,0.0,0.0,0.0,0.0
353070444,-0.0009986932,0.00047148427,-0.0026857709,0.0,0.0,0.0,0.0
353102448,-0.00042452198,-4.5098248e-05,-0.0022235406,0.0,0.0,0.0,0.0
353134440,-0.00028063275,0.0003561685,-0.0029439172,0.0,0.0,0.0,0.0
353166403,-0.0011515387,0.000637594,-0.0018148788,0.0,0.0,0.0,0.0
353198479,-0.00010082289,-0.00040135684,-0.003925227,0.0,0.0,0.0,0.0
353226410,0.0013923174,0.00050141424,-0.0040225442,0.0,0.0,0.0,0.0
353258457,0.000539455,0.00061762,-0.004486941,0.0,0.0,0.0,0.0
353290403,0.001176907,0.000832631,-0.003967813,0.0,0.0,0.0,0.0
353322444,-0.00057083566,-0.00023501407,-0.004249056,0.0,0.0,0.0,0.0
353354408,0.00025303243,-0.00037680235,-0.0035755867,0.0,0.0,0.0,0.0
353386449,5.9395446e-05,0.00087460765,-0.004685246,0.0,0.0,0.0,0.0
353417656,-9.578001e-05,-0.00032620307,-0.004957684,0.0,0.0,0.0,0.0
353449642,0.0002499664,-0.0003001509,-0.0037366943,0.0,0.0,0.0,0.0
353481614,-0.0013630802,9.6477044e-05,-0.0021970698,0.0,0.0,0.0,0.0
353509645,-6.130675e-05,0.00080887426,-0.003924745,0.0,0.0,0.0,0.0
353541647,-0.0013350361,-9.5329015e-06,-0.0034802319,0.0,0.0,0.0,0.0
353573633,-0.0010561727,0.00016855996,-0.0043044444,0.0,0.0,0.0,0.0
353605609,-0.00022043276,-0.00078128255,-0.0037741812,0.0,0.0,0.0,0.0
353637605,-0.0005085786,-0.0008173602,-0.0039776126,0.0,0.0,0.0,0.0
353669642,0.00031500915,0.0007736677,-0.004154389,0.0,0.0,0.0,0.0
353701653,-0.0002851861,-4.0948216e-05,-0.0039445823,0.0,0.0,0.0,0.0
353733603,0.00019185292,-0.00058817765,-0.0031664665,0.0,0.0,0.0,0.0
353761645,-0.0004837974,0.0017079548,-0.0030641998,0.0,0.0,0.0,0.0
353793612,-0.0018796714,0.0002793321,-0.0046365904,0.0,0.0,0.0,0.0
353825603,-0.0006216082,-0.00060097955,-0.0042654206,0.0,0.0,0.0,0.0
353857624,-0.0008577772,0.00023648713,-0.004057901,0.0,0.0,0.0,0.0
353889684,-0.00043128594,-0.0007900511,-0.0038639542,0.0,0.0,0.0,0.0
353921627,-7.6910015e-05,-0.00044290634,-0.0036406403,0.0,0.0,0.0,0.0
353953648,0.0011695852,-0.0009321059,-0.0029929206,0.0,0.0,0.0,0.0
353985609,0.0010878126,-3.2744603e-05,-0.003908413,0.0,0.0,0.0,0.0
354013603,-0.0005327241,-0.0017915571,-0.004791931,0.0,0.0,0.0,0.0
354045632,0.000611736,0.00023915249,-0.0035226757,0.0,0.0,0.0,0.0
354077603,-0.00041437114,0.0004394392,-0.0038550778,0.0,0.0,0.0,0.0
354109603,-8.761196e-05,0.00021869803,-0.003073757,0.0,0.0,0.0,0.0
354141639,0.0002402839,0.00078814075,-0.0037589504,0.0,0.0,0.0,0.0
354173640,0.0006403368,-0.00082158146,-0.0027393708,0.0,0.0,0.0,0.0
354204803,-0.0006440721,0.0008042034,-0.004870414,0.0,0.0,0.0,0.0
354236835,-0.0006783999,-0.0006938701,-0.0040971297,0.0,0.0,0.0,0.0
354268040,-0.00011298014,0.0014237727,-0.003254399,0.0,0.0,0.0,0.0
354300897,-0.0002395676,-0.0002892337,-0.0037737302,0.0,0.0,0.0,0.0
354328823,-6.806641e-05,0.0012402385,-0.003384894,0.0,0.0,0.0,0.0
354360887,0.0006131546,-6.3432264e-05,-0.0036788401,0.0,0.0,0.0,0.0
354392836,-0.00016751909,-0.00060275354,-0.0043271272,0.0,0.0,0.0,0.0
354424844,3.29311e-05,-0.00063213176,-0.0044988208,0.0,0.0,0.0,0.0
354456842,-0.0010097822,-0.001057264,-0.0038780048,0.0,0.0,0.0,0.0
354488840,-0.00034168677,0.00039690695,-0.0019520393,0.0,0.0,0.0,0.0
354520850,0.00047312817,-0.00020624959,-0.0043136654,0.0,0.0,0.0,0.0
354552846,7.2129886e-05,-0.0013564387,-0.0022988669,0.0,0.0,0.0,0.0
354584828,-0.0019518761,-0.00028316682,-0.004508703,0.0,0.0,0.0,0.0
354616845,-0.0008896134,1.5702157e-05,-0.0042096586,0.0,0.0,0.0,0.0
354648809,-0.0002849754,-0.00079969916,-0.00260411,0.0,0.0,0.0,0.0
354680804,-0.00021354097,0.0012765452,-0.0050012637,0.0,0.0,0.0,0.0
354712872,1.9786065e-05,0.00053869095,-0.0037450865,0.0,0.0,0.0,0.0
354744859,-0.0004451319,-0.00028047763,-0.0044173608,0.0,0.0,0.0,0.0
354776817,0.0017692067,0.0023821774,-0.0035471118,0.0,0.0,0.0,0.0
354804865,-0.00026816234,0.00020992683,-0.004263739,0.0,0.0,0.0,0.0
354836803,0.00025800942,-0.00012978597,-0.0034694239,0.0,0.0,0.0,0.0
354868813,0.00055197754,0.0007546661,-0.0032862327,0.0,0.0,0.0,0.0
354900808,-0.00043468433,-0.00033063418,-0.004801461,0.0,0.0,0.0,0.0
354932883,0.0006687179,-0.000517088,-0.003970067,0.0,0.0,0.0,0.0
354964838,-0.0003985447,0.00029959079,-0.0034670627,0.0,0.0,0.0,0.0
354996803,0.0007171497,-0.00039775769,-0.0035935517,0.0,0.0,0.0,0.0
355028048,-0.00064218335,0.001839923,-0.004186096,0.0,0.0,0.0,0.0
355059299,-0.00086455815,-2.625573e-05,-0.0044390433,0.0,0.0,0.0,0.0
355089664,-0.0010100697,0.00042775774,-0.0041399864,0.0,0.0,0.0,0.0
355121655,-0.0012154594,9.780697e-05,-0.003293109,0.0,0.0,0.0,0.0
355152011,-0.00027466356,-2.9574148e-05,-0.00413482,0.0,0.0,0.0,0.0
355184100,0.0001792959,0.00069171825,-0.0035970283,0.0,0.0,0.0,0.0
355216032,0.0006529626,-0.0009180795,-0.0043227505,0.0,0.0,0.0,0.0
355248036,0.000114167226,3.6988582e-05,-0.0045390218,0.0,0.0,0.0,0.0
355280011,0.00022107747,0.00056310545,-0.0041620075,0.0,0.0,0.0,0.0
355312057,0.0004615622,0.00023502202,-0.0033009655,0.0,0.0,0.0,0.0
355340016,-0.00017306826,-0.00025720324,-0.0040856022,0.0,0.0,0.0,0.0
355372060,0.0005661977,-0.00031866523,-0.002647709,0.0,0.0,0.0,0.0
355404046,0.00024736568,-0.00050955213,-0.0038781967,0.0,0.0,0.0,0.0
355436049,-0.0011464236,0.0006692028,-0.0031791185,0.0,0.0,0.0,0.0
355468011,-0.0007760993,-0.00013055577,-0.0041870386,0.0,0.0,0.0,0.0
355500100,0.00059801794,-0.0008885708,-0.0032807668,0.0,0.0,0.0,0.0
355532048,-0.00026903336,-0.00018973625,-0.0026441873,0.0,0.0,0.0,0.0
355564035,0.0023001777,0.0016057465,-0.0040543973,0.0,0.0,0.0,0.0
355596020,-0.0015092096,0.001483897,-0.003599136,0.0,0.0,0.0,0.0
355624078,0.00042963703,0.0016704315,-0.0031490035,0.0,0.0,0.0,0.0
355656003,0.0008969762,-0.0011316484,-0.004322057,0.0,0.0,0.0,0.0
355688052,-0.00040644046,-5.950773e-05,-0.004003398,0.0,0.0,0.0,0.0
355720049,8.159771e-05,1.4720834e-05,-0.0033560563,0.0,0.0,0.0,0.0
355752047,-0.0004650592,9.615562e-05,-0.0034882962,0.0,0.0,0.0,0.0
355784003,-0.0006799371,0.00041467688,-0.003883492,0.0,0.0,0.0,0.0
355815275,0.0005846302,0.000102516264,-0.0019175035,0.0,0.0,0.0,0.0
355847236,-0.00044544984,0.00018249871,-0.0033803023,0.0,0.0,0.0,0.0
355879289,-0.0009750825,-0.0003180419,-0.0033381823,0.0,0.0,0.0,0.0
355910453,0.00058953627,-0.00022532645,-0.004870303,0.0,0.0,0.0,0.0
355939294,0.0015743143,0.00014460314,-0.003696429,0.0,0.0,0.0,0.0
355971209,0.00037950347,-0.0012852857,-0.0039090654,0.0,0.0,0.0,0.0
356003243,0.0016298481,-0.00026035868,-0.004639522,0.0,0.0,0.0,0.0
356035208,7.5402204e-07,2.8077397e-05,-0.0028620907,0.0,0.0,0.0,0.0
356067207,0.00035692495,-0.0001644324,-0.003958951,0.0,0.0,0.0,0.0
356099318,-0.00069659797,-0.00033014588,-0.0040228213,0.0,0.0,0.0,0.0
356131255,0.00010591338,0.000255163,-0.0033722494,0.0,0.0,0.0,0.0
356159333,-0.0007159731,-0.00033986184,-0.0049343347,0.0,0.0,0.0,0.0
356191250,-0.00087810494,-0.0006329483,-0.004379208,0.0,0.0,0.0,0.0
356223205,0.00060777843,0.00032367476,-0.004506986,0.0,0.0,0.0,0.0
356255233,-1.6545528e-05,0.00075658254,-0.0040280027,0.0,0.0,0.0,0.0
356287245,0.00052457827,-0.00030084036,-0.0035053107,0.0,0.0,0.0,0.0
356319327,-0.00033591175,0.00062705664,-0.0036730848,0.0,0.0,0.0,0.0
356351219,0.0011943277,0.00055365276,-0.0033934563,0.0,0.0,0.0,0.0
356383227,0.000343055,-0.00012020953,-0.002587885,0.0,0.0,0.0,0.0
356415245,0.0005858416,0.0014611236,-0.0017025161,0.0,0.0,0.0,0.0
356447281,-3.8518687e-05,-0.00030921702,-0.003789259,0.0,0.0,0.0,0.0
356479275,0.0005294393,-7.6657045e-05,-0.0015338873,0.0,0.0,0.0,0.0
356511241,0.0014714401,-0.00027393905,-0.008971987,0.0,0.0,0.0,0.0
356542445,0.0010484878,0.0009615929,-0.0019023295,0.0,0.0,0.0,0.0
356575284,0.00013276562,0.00050115417,0.010222436,0.0,0.0,0.0,0.0
356607211,0.00034190982,0.0005031899,0.0015629926,0.0,0.0,0.0,0.0
356638416,-0.0024081003,-0.00017389469,-0.015149255,0.0,0.0,0.0,0.0
356670449,0.001404526,-0.0015808935,-0.016717702,0.0,0.0,0.0,0.0
356702456,0.0013696466,-0.0025171079,-0.0045648655,0.0,0.0,0.0,0.0
356734414,-0.00016814144,0.00034459634,0.005592144,0.0,0.0,0.0,0.0
356766449,-0.0001892231,0.001094793,0.0045898086,0.0,0.0,0.0,0.0
356798420,-0.0013299255,-0.0011427935,-0.007091188,0.0,0.0,0.0,0.0
356830486,0.00011222286,-4.6197325e-05,-0.012197813,0.0,0.0,0.0,0.0
356862407,-0.0048996224,0.0007680142,-0.0005981787,-4.7967747e-05,4.4498378e-05,2.1164962e-05,0.0
356894445,-0.00916065,0.006797023,0.013115671,-9.4856914e-05,8.774043e-05,6.5867953e-06,0.0
356926440,0.0053041237,-0.00067849015,-0.003955055,-0.00014294905,0.00013191617,2.943347e-06,0.0
356958488,-0.0014183214,0.0011990089,-0.02734718,-0.00020262286,0.00018374583,7.1730436e-05,0.0
356990416,0.0012496035,-0.00027669687,-0.0073481686,-0.00026067905,0.00023616296,0.00014505058,0.0
357022404,0.0038827576,0.0021357373,0.006529562,-0.000314941,0.00028525607,0.00015672107,0.0
357054450,-0.005074828,-0.009427545,0.0059666093,-0.00035487037,0.00033022088,0.00014631108,0.0
357086448,0.007595246,-0.014053325,0.0036287056,-0.00041132414,0.00037952815,0.0001533333,0.0
357118435,0.016650744,-0.012074432,-0.0051821624,-0.0004767115,0.00043070488,0.00017703745,0.0
357150404,-0.00658565,-0.00073000224,-0.004906162,-0.00052812556,0.00047421973,0.00020817142,0.0
357182455,-0.022206482,-0.0037913746,-0.0031013405,-0.000573434,0.0005152148,0.00022967107,0.0
357214456,0.030411877,-0.011563792,0.0003343462,-0.0006207147,0.0004991996,0.00024419237,0.0
357246408,-0.01176017,0.013655672,-0.0037500418,-0.00068028434,0.00042366103,0.0002592582,0.0
357278409,0.028348753,-0.019116225,-0.0055114618,-0.000746318,0.00036156806,0.0002813559,0.0
357310432,-0.037286732,-0.010955395,-0.005345353,-0.0007963158,0.00027249008,0.0003094151,0.0
357342458,0.04714932,0.018443216,-0.0008184747,-0.00085181353,0.00017366743,0.00032657653,0.0
357373605,-0.07358575,-0.03431819,-0.0006708894,-0.00086768816,7.7081306e-05,0.00034906506,0.0
357401648,0.049109112,0.028416075,-0.0035780359,-0.00091568474,-1.1351386e-05,0.00036882376,0.0
357433607,-0.031012315,-0.012371905,0.005217298,-0.0009441716,-0.00014218458,0.00038571446,0.0
357465658,0.08878071,-0.025083164,0.002350115,-0.000940014,-0.0003070514,0.00040835256,0.0
357497645,0.03435488,-0.060541995,0.004639417,-0.00092080847,-0.00045518472,0.00044394677,0.0
357529683,0.059345465,-0.056543663,0.013387192,-0.0009003771,-0.00061127316,0.00046825144,0.0
357561622,0.004811457,-0.062138207,0.005850919,-0.0008176997,-0.0007751518,0.0004943084,0.0
357593604,0.046835557,-0.04522296,0.010814817,-0.00072485453,-0.0009279483,0.00051802816,0.0
357625642,0.080405466,-0.004796956,0.007983741,-0.0007391514,-0.0010242119,0.0005189594,0.0
357653683,0.012983528,-0.03641347,0.0028542012,-0.00075847004,-0.0010042156,0.00051796524,0.0
357685633,-0.00044773926,0.15570608,-0.0004461878,-0.0007709949,-0.0010195065,0.0005229823,0.0
357717662,-0.032258816,0.025217518,-0.0021465519,-0.00074564083,-0.0010983126,0.0005336706,0.0
357749604,0.036416344,-0.04258004,-0.0059863394,-0.00079921255,-0.0009905312,0.0005231158,0.0
357781633,-0.04697175,0.052968055,0.015799185,-0.00082662515,-0.00093636214,0.00049457356,0.0
357813637,-0.08764148,0.008885429,0.021226352,-0.0007000312,-0.0009781296,0.00044194097,0.0
357845612,-0.033760004,-0.049240395,0.03261773,-0.0005952466,-0.0009156233,0.00033322198,0.0
357877611,0.0030380543,0.014788735,0.035061993,-0.0005109253,-0.0008257644,0.00019196942,0.0
357905641,0.017445393,0.057307314,0.040440883,-0.00041231135,-0.0008542516,6.3738495e-05,0.0
357937607,-0.11792287,-0.090523176,0.03322707,-0.00024970967,-0.0008053469,-7.8917226e-05,0.0
357969651,0.13012809,0.0713443,0.025090609,-0.00023196213,-0.0007562819,-0.0002151222,0.0
358001645,0.040778607,-0.034494363,0.0033588617,-0.00029669996,-0.00076625857,-0.0003063669,0.0
358033644,-0.024390437,0.011557539,-0.008701325,-0.00026786875,-0.0007207177,-0.00034920088,0.0
358065611,0.13852161,-0.02247297,0.012243258,-0.00034663317,-0.00064770126,-0.00038994788,0.0
358096863,-0.03936051,0.07189247,-0.010288146,-0.00042727828,-0.00073316664,-0.00041793194,0.0
358128804,0.045864936,-0.082074426,-0.0019005281,-0.00039303754,-0.0007188453,-0.00044269976,0.0
358160841,-0.0403127,0.032370687,-0.0020213039,-0.000355233,-0.0008378701,-0.00047735937,0.0
358192049,0.11956035,-0.079948634,0.02625086,-0.00043757423,-0.0009031654,-0.0005724036,0.0
358220822,0.074042276,0.03597657,-0.0042529507,-0.0005273358,-0.0010714704,-0.00063830824,0.0
358252111,-0.076374486,-0.07148326,0.015067414,-0.00051230134,-0.0013236024,-0.00069869513,0.0
358284830,0.015551992,-0.0033136639,-0.0006503137,-0.000404795,-0.0014816307,-0.0007713684,0.0
358316804,-0.01226955,-0.016024599,-0.00048372778,-0.00043487392,-0.0015801811,-0.00084089284,0.0
358348817,-0.028048886,-0.041556504,0.013578039,-0.0003962681,-0.0015643644,-0.0009373143,0.0
358380804,-0.16146691,0.01442406,0.008532103,-0.00017610865,-0.0015198016,-0.0010424145,0.0
358412910,-0.0024847814,0.11901572,-0.00020140642,-3.6344503e-05,-0.0016490865,-0.0010905656,0.0
358444818,-0.09535369,-0.10053026,0.003385969,0.00010751618,-0.0016375935,-0.0011628262,0.0
358472888,-0.06476727,-0.041063823,0.00065072626,0.0002700618,-0.0015226669,-0.001209106,0.0
358504804,0.025325682,0.07856117,-0.0036615175,0.000369423,-0.0015700256,-0.0012552557,0.0
358536852,0.01857609,-0.03813322,-0.001553297,0.00039478406,-0.0015292023,-0.0012887507,0.0
358568847,-0.007026746,0.009659148,-0.0035456773,0.00047778015,-0.0014306199,-0.0013044132,0.0
358600864,0.04326437,0.059701137,-0.008823631,0.00052414864,-0.0014375633,-0.0013062102,0.0
358632837,-0.003395731,-0.056345798,-0.022544779,0.00053157733,-0.001399984,-0.0012801387,0.0
358664841,0.06499896,0.01713173,-0.021678288,0.0004997001,-0.0013303206,-0.0012385477,0.0
358696830,0.07879953,0.03715432,-0.024221057,0.0004222207,-0.001302357,-0.0012154526,0.0
358728884,0.023167236,-0.031752232,-0.018251302,0.00034214222,-0.0013007816,-0.0011950913,0.0
358760804,0.020000756,0.016490614,-0.010516063,0.00032138248,-0.0012435127,-0.001166751,0.0
358792874,-0.05524446,0.009824289,0.0029622586,0.0003834509,-0.0012407094,-0.0011658777,0.0
358824804,-0.019193878,-0.012358421,0.015892347,0.00042190435,-0.0012262452,-0.0012225414,0.0
358856876,0.011852421,-0.024940338,0.0077129435,0.00045903423,-0.0011356625,-0.0012843504,0.0
358888808,0.058749415,-0.005677411,2.8570648e-06,0.0004048,-0.0011027157,-0.0013323656,0.0
358920057,-0.05887012,-0.007045488,-0.0050986903,0.00037582286,-0.0010329075,-0.0013514513,0.0
358952060,0.041173466,0.039694816,-0.0015689931,0.00040272533,-0.0010435829,-0.0013625529,0.0
358979314,-0.0065608225,-0.059790455,-0.0057982123,0.00039931101,-0.0010109212,-0.0013896165,0.0
359012071,0.018642766,0.025026001,-0.0065844716,0.00040849732,-0.0009541542,-0.0013960572,0.0
359044003,-0.0061684577,0.01101429,-0.0072316322,0.00037730846,-0.0009723742,-0.0014106676,0.0
359076015,-0.031740636,-0.04154575,-0.0069702086,0.00037948744,-0.0009800812,-0.0014051371,0.0
359108015,-0.070158824,0.00853168,0.008920334,0.00052770966,-0.0010093318,-0.0014382836,0.0
359140051,0.08831588,0.018382667,0.014495978,0.00050893275,-0.0011951363,-0.0015021039,0.0
359172066,-0.01810572,-0.072230354,0.006036807,0.00044815417,-0.0012993573,-0.0015688464,0.0
359204004,-0.028971609,-0.006516253,0.0023287744,0.00046870622,-0.0013483944,-0.0016165111,0.0
359232016,0.06339502,0.073074415,-0.0023992949,0.0004700519,-0.0015720192,-0.0016529494,0.0
359264028,-0.04763323,-0.07353359,-0.0067058066,0.00048170506,-0.0017175567,-0.0016868564,0.0
359296017,0.004291524,0.003534689,0.0048356196,0.00048422138,-0.0018492438,-0.0017266235,0.0
359328040,-0.01686382,0.03387692,-0.005334927,0.00052602345,-0.0021022032,-0.001778229,0.0
359360021,-0.06038221,-0.09287163,0.009592442,0.00061488315,-0.0022462436,-0.0018375829,0.0
359392021,0.11365509,0.02798723,-0.016470958,0.00055889104,-0.0031058146,-0.0018801589,0.0
359424051,0.033184685,-0.121176116,-0.0030079982,0.00048210472,-0.003981696,-0.0018904746,0.0
359456044,-0.0957363,-0.22984996,0.004056876,0.00056693156,-0.0045477753,-0.0019664003,0.0
359488120,0.015073761,-0.26393577,0.014300091,0.000587239,-0.0050114817,-0.0020253847,0.0
359516076,0.050561547,-0.33248273,0.023857819,0.0004994124,-0.005214872,-0.002103393,0.0
359548004,-0.027103025,-0.28552276,0.03413123,0.0004436611,-0.0050286455,-0.0022366783,0.0
359580004,-0.0024290683,-0.08578774,0.034778185,0.0004575388,-0.0046153003,-0.0024242636,0.0
359612031,-0.07989783,-0.084445424,0.03667283,0.0005626594,-0.0041999896,-0.002607228,0.0
359644053,-0.05702038,0.12845004,0.014636037,0.00069516525,-0.0038278336,-0.0027457115,0.0
359675209,-0.009337572,0.43877283,0.016378887,0.00077633373,-0.003942841,-0.0028679038,0.0
359707215,-0.03764424,0.36663875,0.04343653,0.00085667515,-0.0043170587,-0.0030498798,0.0
359739305,0.053617243,0.32290402,0.027177466,0.00084454846,-0.004662044,-0.0032572928,0.0
359771237,0.076265536,0.05832549,0.038737897,0.0008767563,-0.0048934664,-0.0034804929,0.0
359803218,0.20122474,0.030493313,-0.032673243,0.0006110601,-0.0049919565,-0.0035777192,0.0
359831287,0.034157876,-0.087147,-0.009369176,0.00046662096,-0.004832083,-0.0036188802,0.0
359863212,-0.16400681,0.032386232,0.0021700638,0.000627716,-0.004763503,-0.0037253285,0.0
359895207,-0.16375957,0.16559893,-0.018389754,0.0009052301,-0.0049339533,-0.0038079007,0.0
359927238,-0.09890649,0.036588743,0.02407734,0.0011940004,-0.005122702,-0.0039193863,0.0
359959312,0.17670837,0.042896353,0.0053433916,0.0012205907,-0.0052495515,-0.0040636645,0.0
359991212,0.111865565,-0.2567796,-0.035883017,0.0010179838,-0.0049975812,-0.004123628,0.0
360023219,0.08796592,0.0425022,-0.013948666,0.0008502553,-0.0048034186,-0.0041425624,0.0
360055240,-0.12713267,0.056078255,0.006045528,0.0008660101,-0.0050165015,-0.0042002797,0.0
360087258,-0.13217975,-0.18248992,0.0120888315,0.0011458708,-0.0047973227,-0.0043286444,0.0
360119272,-0.15413123,0.069680445,-0.0071839793,0.0014309471,-0.0047012204,-0.0044226144,0.0
360151207,-0.015901983,0.091531344,-0.01657687,0.0016399316,-0.0048204944,-0.004509721,0.0
360183259,0.115172245,-0.085698254,-0.017500272,0.0016601965,-0.004773881,-0.004577628,0.0
360215259,0.18153535,0.029504916,-0.02379199,0.0014359049,-0.0046996926,-0.004580581,0.0
360247236,0.042217616,0.0637759,-0.046897806,0.0012175452,-0.004746114,-0.0045347917,0.0
360275215,-0.07225109,0.009146535,-0.020762688,0.0012693696,-0.004613883,-0.004528554,0.0
360307214,-0.07568153,0.009937068,-0.0018287047,0.0013540805,-0.0046058674,-0.004596448,0.0
360339267,0.11043169,0.010291428,-0.026033686,0.0012870795,-0.0046395706,-0.0046848236,0.0
360371247,-0.010008959,-0.0011311108,-0.027572598,0.0012494589,-0.004512395,-0.0049741096,0.0
360403214,-0.017710155,0.04491551,-0.054427616,0.001260204,-0.0045414674,-0.005635013,0.0
360435212,0.01629136,-0.04734649,-0.072481684,0.0012584977,-0.0045176386,-0.0064108404,0.0
360465648,0.09002395,-0.09353675,-0.092697345,0.0011773927,-0.004423657,-0.0072748554,0.0
360496078,-0.059454333,-0.014471399,-0.08966041,0.0011946637,-0.0044276454,-0.008314141,0.0
360531241,0.01609182,0.06158381,-0.11436099,0.0012612767,-0.004399727,-0.009584806,0.0
360559309,0.079373896,-0.07920391,-0.12044147,0.0011383197,-0.004405764,-0.010536573,0.0
360590451,-0.031642046,-0.073850155,-0.121222965,0.001148712,-0.0043585612,-0.011566139,0.0
360622410,0.088731684,0.038239207,-0.11895542,0.0012140265,-0.004361513,-0.012674518,0.0
360654503,0.17510675,-0.020948116,-0.10973238,0.0011109652,-0.004366325,-0.013857919,0.0
360686445,0.05207795,0.011454048,-0.112046994,0.0010792108,-0.0042792694,-0.015046113,0.0
360718417,-0.1613737,0.08618383,-0.11863977,0.0012932065,-0.0043112542,-0.016273355,0.0
360750417,0.013578127,0.027248994,-0.10027166,0.0013796189,-0.0043966295,-0.017545313,0.0
360782445,0.021596277,-0.13256046,-0.14850464,0.0012626632,-0.004320836,-0.018738188,0.0
360814453,-0.0060932105,-0.018081062,-0.18183787,0.0011534224,-0.004205837,-0.019773358,0.0
360846407,0.04010585,0.01624735,-0.17133193,0.0010740424,-0.0042902944,-0.020815043,0.0
360878419,-0.109001,-0.049140062,-0.19339575,0.0011218021,-0.0041937297,-0.02185588,0.0
360910451,-0.06965079,0.15962029,-0.19619292,0.0011811941,-0.00421456,-0.022893703,0.0
360942462,0.028029513,-0.015315959,-0.2209958,0.0011075219,-0.0044412287,-0.023840118,0.0
360974404,-0.016885553,-0.15062028,-0.25507793,0.0010190477,-0.004610843,-0.02460095,0.0
361006438,-0.09874142,0.102021635,-0.2243401,0.0010563121,-0.005145769,-0.025037017,0.0
361038457,0.07623782,-0.08570996,-0.12808074,0.0011824202,-0.005748811,-0.025308454,0.0
361066457,-0.0034175809,-0.09844245,-0.10914749,0.0012625344,-0.0058592027,-0.025537366,0.0
361098432,0.06763015,-0.0057981736,-0.052963518,0.00125443,-0.0059073763,-0.025875943,0.0
361130434,-0.00503837,0.16547292,-0.046712227,0.0012553559,-0.006314817,-0.026351664,0.0
361162407,0.12616909,-0.0101211015,-0.07293506,0.0012049708,-0.006757254,-0.026784819,0.0
361194408,0.17852484,-0.020326942,-0.05638524,0.0009936141,-0.00707645,-0.027167687,0.0
361226423,-0.005703727,-0.06509472,-0.023346592,0.0009557695,-0.007357261,-0.02762596,0.0
361257612,-0.0036428417,0.02116638,-0.050436422,0.001113598,-0.0076257535,-0.028094985,0.0
361289604,0.15722892,0.0010019182,-0.079971865,0.0010942928,-0.007853485,-0.028470922,0.0
361320835,0.09486075,0.036642995,-0.056933332,0.00095423666,-0.0080322595,-0.02884773,0.0
361349644,0.014876738,0.0011682671,-0.0530789,0.00083427475,-0.008079326,-0.02923036,0.0
361381622,-0.1891926,0.08148304,-0.08056801,0.00088792515,-0.008021795,-0.029712794,0.0
361413681,-0.059488144,0.06453494,-0.07308266,0.0009426427,-0.00809512,-0.030091766,0.0
361445608,-0.073193,-0.021664435,-0.09569342,0.0010537904,-0.008069919,-0.030390117,0.0
361477633,-0.1386327,0.1476053,-0.13080989,0.0012576613,-0.00817983,-0.030605897,0.0
361509664,-0.1317877,0.12658247,-0.14132322,0.0014356351,-0.008468341,-0.030739969,0.0
361541646,-0.03237841,-0.021994613,-0.14124236,0.0016167082,-0.008614963,-0.030860087,0.0
361573610,0.0015931749,-0.058919545,-0.15168107,0.0016653946,-0.008632127,-0.030948186,0.0
361605612,-0.11575614,-0.071363464,-0.18878637,0.0017774411,-0.00861317,-0.030966688,0.0
361637612,-0.17452344,-0.10145132,-0.18511869,0.0021197964,-0.008543653,-0.030937502,0.0
361669649,-0.08274917,-0.022304684,-0.20816131,0.0024605833,-0.008525247,-0.03088484,0.0
361701610,-0.03249572,0.07945385,-0.20493422,0.00264732,-0.008563392,-0.03078568,0.0
361733606,0.10263815,0.0570249,-0.21512358,0.0028144962,-0.00863626,-0.03067356,0.0
361765643,0.08786558,-0.03231494,-0.21776798,0.0029222083,-0.008668506,-0.03048473,0.0
361797648,0.12692636,-0.075989425,-0.21522364,0.0028623112,-0.0086446265,-0.030196665,0.0
361829616,0.13566726,0.013680881,-0.19532263,0.0026951819,-0.0085900985,-0.029877929,0.0
361857655,-0.04163103,0.049426123,-0.1875984,0.0026707957,-0.008596217,-0.029563729,0.0
361889612,-0.060986467,-0.03492179,-0.16897133,0.0028358782,-0.008595126,-0.02923742,0.0
361921604,-0.11718484,-0.02120787,-0.17995869,0.003049743,-0.008542535,-0.02895626,0.0
361953625,0.07550785,-0.0023652255,-0.17059143,0.003134109,-0.008473763,-0.02870424,0.0
361985645,0.0057562906,-0.05328861,-0.17334612,0.0031859446,-0.008406651,-0.028509673,0.0
362017604,0.06775152,0.09745063,-0.19793798,0.0031634935,-0.008403286,-0.028455496,0.0
362049615,-0.06955807,-0.036668785,-0.24021599,0.0032699355,-0.008434457,-0.028482268,0.0
362080852,-0.09639193,0.025312083,-0.2871613,0.0034799771,-0.008445637,-0.028765205,0.0
362112885,0.078079306,0.017877232,-0.33970293,0.003613862,-0.008437453,-0.029084086,0.0
362140842,-0.04571117,-0.0011366275,-0.37898886,0.0036697802,-0.008438799,-0.029444665,0.0
362172923,-0.07694821,0.13282914,-0.44563362,0.0038687803,-0.008584605,-0.029827895,0.0
362204804,0.005839911,0.023652397,-0.47961426,0.00402531,-0.008737837,-0.030229809,0.0
362236854,0.137358,-0.06481342,-0.53245765,0.0039431253,-0.008724001,-0.030536134,0.0
362268832,0.022856936,-0.09456594,-0.54901034,0.0038616792,-0.008588787,-0.030699803,0.0
362300892,-0.048423603,0.034507725,-0.56122875,0.0039393166,-0.008547164,-0.030819425,0.0
362332839,-0.10041498,0.02815091,-0.5573226,0.004092795,-0.008610819,-0.030919736,0.0
362364817,0.0066534523,0.09364627,-0.5799915,0.0042432453,-0.008773335,-0.030969113,0.0
362396835,0.05783643,0.025802221,-0.5767572,0.0042228815,-0.0089915525,-0.030991495,0.0
362428807,0.10382323,0.041944955,-0.5958409,0.004065366,-0.009160538,-0.030982854,0.0
362460804,-0.027226169,-0.09727005,-0.60151786,0.0040712846,-0.009152405,-0.0309199,0.0
362492834,-0.11237781,-0.053890783,-0.61832374,0.004364192,-0.009099514,-0.030715378,0.0
362524837,-0.05135067,0.023878066,-0.5794038,0.0045838365,-0.009165032,-0.030505221,0.0
362556836,0.06747661,-0.019227609,-0.56625867,0.004595016,-0.009273834,-0.030359792,0.0
362588815,0.051447332,0.046855353,-0.583215,0.0045485334,-0.009310666,-0.030184288,0.0
362620810,-0.03246352,-0.17479737,-0.5589651,0.0047197663,-0.009208099,-0.029981725,0.0
362652908,-0.05456093,-0.09914214,-0.5711157,0.004889411,-0.009007843,-0.0298258,0.0
362684845,-0.060772978,0.054616034,-0.5450544,0.004980218,-0.008938429,-0.029676808,0.0
362716814,-0.005428359,0.15446009,-0.53463805,0.0051131304,-0.009072763,-0.029549822,0.0
362748804,-0.08063053,0.06819382,-0.5356067,0.005328707,-0.009196849,-0.029462816,0.0
362780862,0.11005526,-0.069494,-0.50517106,0.0054862746,-0.009167273,-0.029291848,0.0
362812004,0.110119924,-0.036424495,-0.54668236,0.00555365,-0.009102436,-0.029030994,0.0
362844004,0.11356645,-0.07096913,-0.49687162,0.0054497677,-0.00895546,-0.028779348,0.0
362876032,0.06566041,-0.13164854,-0.48520577,0.005314644,-0.0088423295,-0.02860586,0.0
362908038,-0.05855382,-0.024066338,-0.49947327,0.0054128147,-0.009051591,-0.028355585,0.0
362940012,-0.1343581,0.03989805,-0.4900795,0.0056241197,-0.009548493,-0.028165305,0.0
362972033,-0.073098786,-0.15431547,-0.45951927,0.0057568247,-0.00986961,-0.028011607,0.0
363004015,0.11937583,-0.37974203,-0.4365714,0.005753981,-0.00976854,-0.0278705,0.0
363036056,0.16022418,-0.27717155,-0.46143082,0.005648134,-0.009474919,-0.027763965,0.0
363068004,0.014779057,-0.20813864,-0.45098576,0.0054892213,-0.009198241,-0.027669711,0.0
363100095,-0.07426478,-0.11056157,-0.45939493,0.005653288,-0.009131714,-0.027473478,0.0
363128042,-0.27107418,0.02399049,-0.4497936,0.0060202735,-0.0092134,-0.027306302,0.0
363160009,-0.035762627,0.113259055,-0.46946803,0.006364335,-0.009414953,-0.02712328,0.0
363192010,0.14060293,0.08161657,-0.45543846,0.00635393,-0.009641092,-0.026928442,0.0
363224047,0.20718145,-0.10976408,-0.42969555,0.006144081,-0.009713054,-0.026674466,0.0
363256012,-0.06982904,-0.044466972,-0.4589984,0.006091012,-0.0097479485,-0.02639636,0.0
363288031,-0.13620913,-0.091497965,-0.44163403,0.006183785,-0.0097909495,-0.026122559,0.0
363320011,-0.021592412,-0.012501579,-0.4344911,0.0063378317,-0.0098731965,-0.025843645,0.0
363348036,-0.0027957628,-0.104634896,-0.40734267,0.006433009,-0.009967671,-0.02558791,0.0
363380056,-0.025162918,-0.19007543,-0.41500342,0.0064420616,-0.010009295,-0.025228245,0.0
363412053,-0.032008484,-0.05463389,-0.4160744,0.006447663,-0.009959184,-0.024789074,0.0
363444004,0.049219243,-0.1479123,-0.38561183,0.00648363,-0.009792325,-0.024311995,0.0
363476061,0.08123817,-0.1327877,-0.36486208,0.006423522,-0.00965219,-0.023827443,0.0
363508053,0.06544116,0.09562644,-0.3613227,0.0062440825,-0.0097360425,-0.023375336,0.0
363540079,-0.068798736,0.056654796,-0.3424612,0.006220439,-0.009874977,-0.022895886,0.0
363572016,-0.22723688,-0.056907065,-0.30675074,0.006444537,-0.009798112,-0.02225334,0.0
363600039,-0.018446697,-0.07331567,-0.27023122,0.0065957415,-0.0096154865,-0.021467576,0.0
363635261,0.029610781,0.09577068,-0.21436903,0.00659931,-0.009610727,-0.020555273,0.0
363663221,0.10353657,0.21361677,-0.19349867,0.0065159434,-0.00973226,-0.019900346,0.0
363695273,-0.024408061,0.13532929,-0.16091558,0.006438623,-0.009907495,-0.019189825,0.0
363727217,-7.163035e-05,-0.038483124,-0.12659775,0.0064225937,-0.009942478,-0.018525636,0.0
363759270,-0.012526508,-0.11352892,-0.11275035,0.0064002415,-0.009743833,-0.017882388,0.0
363791215,-0.009016068,-0.08959769,-0.082208835,0.0063823885,-0.009490191,-0.01727342,0.0
363823240,-0.16944179,-0.015643282,-0.07655668,0.0065861405,-0.009383493,-0.016682422,0.0
363855210,0.076337375,0.1275474,-0.062265266,0.0066464986,-0.009367925,-0.016151218,0.0
363887215,0.09674629,0.11567375,-0.040432885,0.006541784,-0.009346462,-0.015649956,0.0
363915215,0.085785165,0.10763966,-0.017400086,0.006438653,-0.009286149,-0.015247416,0.0
363947252,0.032188006,0.0772276,-0.018272368,0.006357662,-0.009227553,-0.014806536,0.0
363979281,-0.019392226,0.25965396,-0.029713921,0.0063051786,-0.009278183,-0.014368478,0.0
364011297,0.019383563,0.31676713,-0.020448094,0.0063491776,-0.009626824,-0.01393791,0.0
364043207,-0.11930646,0.13907179,0.0059036054,0.0064133666,-0.0099499645,-0.013573669,0.0
364075207,-0.14597873,0.01948022,0.003647023,0.0065899603,-0.009973722,-0.013239866,0.0
364107222,0.06248182,0.022466138,0.020041047,0.006736422,-0.009889151,-0.012949696,0.0
364139322,0.011947003,-0.025081407,0.018360883,0.0066923243,-0.0097551,-0.012709835,0.0
364167224,-0.064299114,-0.14293787,0.032475058,0.0067573506,-0.0095216045,-0.012491286,0.0
364199342,-0.068026744,0.11964002,0.031787697,0.006874456,-0.009469553,-0.012249793,0.0
364231209,0.07569973,0.13138358,0.059169993,0.0068434286,-0.0096140755,-0.012077994,0.0
364263220,0.1773563,0.054064605,0.07233152,0.006683994,-0.0097032245,-0.011979981,0.0
364295255,0.021958278,-0.017460654,0.06541654,0.0066118757,-0.009691352,-0.011909166,0.0
364327245,-0.19030437,0.025299605,0.06468707,0.0067656697,-0.009626268,-0.011872533,0.0
364359267,-0.06379232,0.0619461,0.08103445,0.006970843,-0.009673687,-0.01185103,0.0
364391219,0.09453745,0.14277126,0.06422587,0.006974598,-0.00980867,-0.011855911,0.0
364419269,0.09699106,-0.098095395,0.070883594,0.0068319757,-0.009818522,-0.011884233,0.0
364454457,-0.08151817,-0.03188077,0.04381296,0.0067829085,-0.009739677,-0.011896318,0.0
364482461,0.056686148,-0.047712926,0.06585276,0.006816668,-0.009660114,-0.01190064,0.0
364514427,-0.01630897,0.017029237,0.03236821,0.0068647955,-0.009647084,-0.011881518,0.0
364546412,0.041637685,0.039675992,0.044652533,0.0067440667,-0.009667599,-0.011903902,0.0
364578442,0.07482826,0.0031481388,0.06411891,0.0065238434,-0.009628221,-0.011964294,0.0
364610446,-0.042091332,0.08606279,0.038163625,0.0064862543,-0.009594083,-0.012026315,0.0
364642429,-0.034701426,0.09506502,0.044859424,0.006577579,-0.009723505,-0.012051793,0.0
364674411,-0.03182588,0.021681832,0.01774831,0.0066936044,-0.009874053,-0.012061479,0.0
364706451,-0.06706124,0.038800947,0.008584273,0.0067420965,-0.010022856,-0.01203865,0.0
364734417,0.15487744,0.008125794,0.028628014,0.006674903,-0.010117313,-0.012051326,0.0
364766430,0.04253581,-0.039462972,0.0014371937,0.006570466,-0.010163861,-0.012047394,0.0
364798449,-0.06741976,-0.020034555,0.028719245,0.0065216227,-0.010248148,-0.01206069,0.0
364830448,0.0664579,-0.09036128,0.05454795,0.006402873,-0.010303362,-0.012129558,0.0
364862418,-0.011245214,0.01578071,0.02196146,0.006309838,-0.010306199,-0.01220371,0.0
364894491,-0.020162646,-0.02234154,0.0268904,0.006335556,-0.010307466,-0.012280849,0.0
364926455,-0.10855519,-0.08565096,0.008956404,0.0064772977,-0.010298632,-0.012320681,0.0
364958451,-0.021498436,-0.061395198,0.0011621241,0.0064894487,-0.010282409,-0.012328634,0.0
364990406,-0.013282249,0.055729274,0.009423365,0.0064171883,-0.010273679,-0.012367168,0.0
365022444,0.045709457,0.07804628,-0.004504166,0.006405735,-0.010345404,-0.012359736,0.0
365054430,0.07375584,0.022663094,-0.0021079034,0.0064172936,-0.010455899,-0.0123531725,0.0
365086408,-0.08591163,-0.044360057,0.010707686,0.006415369,-0.0104606245,-0.012407432,0.0
365118410,0.0002898844,-0.07526131,0.018784849,0.006412643,-0.010423208,-0.01244226,0.0
365150429,-0.00018213119,-0.006647115,0.0030985572,0.006422798,-0.010325703,-0.012483538,0.0
365182439,0.025642233,-0.062017992,0.013097933,0.006406924,-0.010259399,-0.01252967,0.0
365213645,-0.037911538,0.032531284,-0.0022621993,0.0064007374,-0.010296598,-0.012554354,0.0
365244085,-0.023003787,0.01886062,0.013986843,0.0064202524,-0.010312845,-0.012607519,0.0
365275207,-0.05205475,-0.021047965,0.016251417,0.006472891,-0.010388305,-0.012665149,0.0
365307246,0.046041332,0.04768035,-0.00010858616,0.006488431,-0.010493152,-0.012731723,0.0
365339269,0.02880824,-0.024311464,-0.0023919651,0.0064320276,-0.010580262,-0.012770077,0.0
365370434,-0.034474157,-0.02692189,0.0040684016,0.006374942,-0.010612299,-0.012797417,0.0
365401645,0.03480568,-0.041379478,-0.012133236,0.0064481543,-0.010583816,-0.012791447,0.0
365433609,-0.004349432,-0.052311353,-0.0026066229,0.0065194652,-0.010564241,-0.01280158,0.0
365465667,-0.06450337,-0.07437749,-0.0023215008,0.0065298816,-0.010624389,-0.012817462,0.0
365493604,0.03956337,-0.06912335,0.018957082,0.006561562,-0.010654848,-0.012846449,0.0
365525654,-0.0013400178,0.012149262,-0.023599014,0.006594057,-0.010785697,-0.012835667,0.0
365557604,-0.009364177,0.13110955,-0.02910783,0.006552392,-0.0109966695,-0.012818151,0.0
365589633,-0.012197194,-0.15090185,-0.009425897,0.0066091674,-0.0110748,-0.012772138,0.0
365621608,-0.023173155,-0.20490733,-0.014051281,0.006659595,-0.010966481,-0.012713874,0.0
365653676,0.01986108,-0.026544882,-0.015466329,0.0066402783,-0.01091236,-0.012682199,0.0
365685614,0.088552885,0.09928938,-0.02176997,0.006557157,-0.011054945,-0.012644791,0.0
365717648,0.06732248,0.03570632,-0.0051611396,0.006496625,-0.011354481,-0.012617481,0.0
365749659,-0.040772654,-0.12608132,-0.0033110336,0.0065406193,-0.011456492,-0.012626509,0.0
365777610,-0.04307559,-0.22031039,-0.0086817555,0.0066187605,-0.011335504,-0.012617233,0.0
365809644,0.060475636,-0.13266674,-0.009752395,0.0065544625,-0.011198515,-0.01261092,0.0
365841653,-0.004828833,-0.031694185,-0.01614417,0.006442793,-0.011214976,-0.0126132,0.0
365873610,-0.048499465,-0.064413145,-0.009491521,0.0064895796,-0.011251614,-0.012594934,0.0
365905650,-0.015848411,-0.0849594,0.009274156,0.00668036,-0.011253282,-0.012573701,0.0
365937608,0.08103856,-0.039055377,0.014224885,0.0066996445,-0.011317612,-0.012606448,0.0
365969667,0.029191272,-0.04789992,0.0066699833,0.006677242,-0.011385918,-0.012624724,0.0
365997647,-0.025476793,-0.031676088,-0.0087433625,0.006695199,-0.01145414,-0.012628742,0.0
366032854,-0.004411306,-0.028134907,0.00515545,0.006707566,-0.0115575325,-0.012644972,0.0
366060815,-0.03792004,-0.054165237,-0.0001484484,0.0067772884,-0.01160059,-0.01266177,0.0
366092833,0.042797964,-0.0987311,0.004129399,0.006758441,-0.011557236,-0.012681466,0.0
366124842,-0.0129426485,-0.12871104,0.013113468,0.0066933064,-0.011485898,-0.012710467,0.0
366156804,0.013365876,-0.0037222314,-0.0046563474,0.0066798306,-0.011433541,-0.012748634,0.0
366188804,0.011581397,-0.009151084,0.0025001422,0.0066685686,-0.01140939,-0.012766022,0.0
366220836,-0.017908825,0.05278227,-0.0054865056,0.0066829994,-0.011491082,-0.012763249,0.0
366252874,-0.0003368219,-0.05122202,0.0013550078,0.006679545,-0.011487329,-0.012778503,0.0
366284815,-0.033879794,-0.027308844,0.0010177495,0.006687081,-0.011435649,-0.012782759,0.0
366312926,0.029973347,-0.08326125,0.0036034298,0.00668143,-0.0113531,-0.012804929,0.0
366344804,0.002016119,0.16531502,-0.018380994,0.0066545084,-0.011418128,-0.012826239,0.0
366376807,-0.022656457,0.017363379,0.019132033,0.006671415,-0.011530087,-0.012865917,0.0
366408811,-0.009096013,-0.029424358,0.009543709,0.006719454,-0.011578314,-0.012910504,0.0
366440831,0.052661635,-0.11149129,-0.0006630693,0.0067336517,-0.011450261,-0.012958045,0.0
366472851,0.029707642,-0.002257967,-0.0040073902,0.0066670673,-0.011357904,-0.01301014,0.0
366504804,-0.117103614,0.108763605,-0.0071151764,0.0066144946,-0.011450908,-0.013049237,0.0
366536848,-0.090984754,0.06062841,0.0062844884,0.006690447,-0.011619513,-0.013098337,0.0
366564815,-0.025565945,-0.031211995,0.0015033691,0.006751781,-0.011669486,-0.013143414,0.0
366596822,-0.029819814,-0.16010706,0.010931296,0.0067994813,-0.011642334,-0.01319405,0.0
366628835,-0.045328274,-0.040526252,-0.017390218,0.0068755634,-0.011636083,-0.0132301515,0.0
366660804,0.014937647,0.031481177,-0.010444181,0.0067498935,-0.011718093,-0.013295518,0.0
366692833,-0.006323184,0.030392207,-0.002070784,0.0066932556,-0.0118263,-0.013337999,0.0
366724846,0.047578156,-0.09466422,0.0090013435,0.006676432,-0.011862829,-0.013405225,0.0
366756835,-0.053985268,-0.019485151,-0.0051355185,0.0067429366,-0.01186282,-0.013482692,0.0
366788815,-0.04928961,0.0076110135,-0.0227752,0.0067693605,-0.011922076,-0.013554508,0.0
366819314,0.010363761,-0.0059687016,-0.011498123,0.0067684203,-0.011973681,-0.013574337,0.0
366848857,0.07454166,-0.05877183,0.00958504,0.006816977,-0.01204959,-0.013608757,0.0
366880804,0.05648869,-0.049857892,0.0058438797,0.0068192906,-0.012129711,-0.013689,0.0
366912046,-0.006379928,-0.029108368,0.010508403,0.0067963866,-0.012160153,-0.013776534,0.0
366944082,-0.013282477,-0.095566034,0.022026336,0.0067665325,-0.01219774,-0.013864867,0.0
366976004,-0.028951824,-0.047824457,-0.008665371,0.006803826,-0.012205962,-0.013926605,0.0
367008055,-0.06445688,0.10400643,-0.019041842,0.006802821,-0.0122653125,-0.013987021,0.0
367040048,-0.05834124,0.08622907,0.011364788,0.006825795,-0.012461172,-0.0140687525,0.0
367072071,0.053317778,-0.009422706,0.0048390003,0.006816083,-0.012602725,-0.014175272,0.0
367104037,0.01830736,-0.06416844,-0.0057507316,0.006721884,-0.012613976,-0.014289098,0.0
367136005,-0.057756,-0.028126702,-0.009733407,0.0067520957,-0.012532468,-0.014380421,0.0
367168044,0.0033472017,0.049337372,0.004279008,0.006865195,-0.012534198,-0.014464124,0.0
367200004,0.049876314,0.103810206,-0.007557491,0.006953675,-0.012669299,-0.0145411,0.0
367232010,0.08196768,-0.00085025677,-0.009182739,0.006892925,-0.012713288,-0.014650382,0.0
367264026,-0.06654369,-0.11211493,0.013548243,0.0069123874,-0.0126017835,-0.014765633,0.0
367296044,0.015008073,-0.056100167,0.00685081,0.0069410815,-0.012602582,-0.014879925,0.0
367328068,-0.022037223,0.009386433,-0.030068103,0.006921234,-0.012640763,-0.014962595,0.0
367356053,0.0069404766,-0.13173373,0.0011858463,0.0069276504,-0.012552336,-0.015025981,0.0
367388004,-0.002483438,-0.01432189,-0.003668758,0.006955317,-0.0125076,-0.015130172,0.0
367420014,0.059025243,0.074778855,-0.02352313,0.0068926453,-0.01251089,-0.015230604,0.0
367452004,0.033305574,0.011259763,-0.01676482,0.006846018,-0.01249238,-0.015317761,0.0
367484037,0.027844468,0.06789462,-0.010031201,0.0067710704,-0.01252739,-0.015396089,0.0
367516011,0.10840605,0.14920366,-0.0015288505,0.0065622483,-0.0127804205,-0.015473988,0.0
367548019,-0.008501704,0.11739915,-0.018114964,0.0064572264,-0.013000644,-0.015569355,0.0
367579340,-0.14907533,-0.010647744,-0.022076966,0.006571845,-0.01295605,-0.01566599,0.0
367611252,-0.18624794,-0.011726063,-0.018077321,0.0067835217,-0.012851771,-0.015747217,0.0
367642449,-0.043471932,0.109154366,0.0065135136,0.006916167,-0.012922736,-0.015828481,0.0
367671243,0.020560574,0.22371846,-0.0073176823,0.006978375,-0.013169951,-0.0159531,0.0
367703248,0.027501794,0.09184504,-0.0059850905,0.0069704317,-0.013424289,-0.0160553,0.0
367735207,0.0028291023,-0.12441451,-0.009911677,0.006945708,-0.013536187,-0.016115136,0.0
367767276,0.010952143,-0.10157974,-0.021604704,0.0069303233,-0.013400956,-0.016179454,0.0
367799330,0.12088788,-0.035137303,-0.023935512,0.006865954,-0.013256911,-0.016246557,0.0
367831236,0.018082798,0.07880385,-0.025290132,0.0067599677,-0.013266207,-0.016297685,0.0
367863212,-0.080923446,0.049726788,-0.016925458,0.0067298245,-0.013310858,-0.016339632,0.0
367891217,-0.073346324,0.13108674,-0.027907722,0.0068650213,-0.013353809,-0.016376056,0.0
367923209,0.14546329,0.12227308,-0.012848081,0.006905245,-0.013508395,-0.016408607,0.0
367955290,0.11167076,0.030833585,-0.031935718,0.006696273,-0.013778547,-0.016432134,0.0
367987207,-0.024242867,0.013685993,-0.06555072,0.006503309,-0.013913861,-0.01639918,0.0
368019304,-0.04536476,-0.11130506,-0.0286866,0.0065161893,-0.013884174,-0.016350204,0.0
368051254,-0.04336386,-0.09762941,-0.03617987,0.006622746,-0.0138476,-0.016296316,0.0
368083269,-0.0115759885,0.090449534,-0.043634888,0.006612356,-0.013911935,-0.016256215,0.0
368115214,-0.023006344,0.16656838,-0.028804246,0.0065162443,-0.014022036,-0.016284885,0.0
368143253,-0.07226559,0.015683545,-0.03756606,0.0065567847,-0.014138854,-0.01626937,0.0
368175214,-0.08486775,-0.023578364,-0.044743925,0.0066180555,-0.014197148,-0.016220016,0.0
368207248,-0.006169007,0.011095621,-0.019047339,0.0065769795,-0.014154164,-0.016198514,0.0
368239273,-0.012159267,-0.011171007,-0.032610472,0.006537703,-0.014136751,-0.01615279,0.0
368271312,-0.103878886,0.011635223,-0.035687946,0.0066235773,-0.014140976,-0.016115136,0.0
368303208,-0.073094904,0.09418453,-0.040611066,0.0067357323,-0.014160177,-0.01609312,0.0
368335247,0.07562927,0.16064835,-0.043805275,0.006702559,-0.014289477,-0.016034579,0.0
368366444,0.10408139,0.17551428,-0.041790094,0.006537088,-0.014465748,-0.01597549,0.0
368397639,0.06275981,0.03166152,-0.02398472,0.006403216,-0.014550914,-0.015903044,0.0
368430421,-0.045520455,-0.055967506,-0.044545792,0.0063829846,-0.014562426,-0.01578263,0.0
368458411,0.018638082,0.071904205,-0.061258893,0.0063814158,-0.014585276,-0.01565111,0.0
368490414,-0.015706666,0.14896034,-0.044823,0.00639056,-0.01472998,-0.015508627,0.0
368522422,-0.04449468,0.15735987,-0.027109412,0.006327931,-0.015027283,-0.015421543,0.0
368554443,0.032144774,0.013574472,-0.012415149,0.0063107703,-0.015213101,-0.015346765,0.0
368586408,-0.0148196835,-0.13734971,-0.022669163,0.006373582,-0.015138151,-0.015274058,0.0
368618415,-0.031196812,-0.012211259,-0.024901278,0.0064067636,-0.015069037,-0.015203107,0.0
368650423,-0.08541717,0.101109646,-0.015810762,0.0064322692,-0.015228028,-0.0151553415,0.0
368682439,-0.046068944,0.015417612,-0.0004625779,0.0065298267,-0.015486203,-0.0150992125,0.0
368710452,-0.0085717095,-0.0036076466,-0.01170543,0.0065967445,-0.015564598,-0.015067125,0.0
368742439,-0.013679351,-0.11924566,-0.018671196,0.0066078394,-0.01546127,-0.0150102265,0.0
368774415,-0.020246193,0.0017011948,-0.014886965,0.006631866,-0.015387571,-0.014931414,0.0
368806412,0.0094466675,0.07920878,-0.014849919,0.006711288,-0.015495762,-0.0148646645,0.0
368838423,0.0059881606,0.07082466,-0.021238012,0.006816662,-0.015702201,-0.014800392,0.0
368870430,0.025506772,-0.012038878,-0.010116466,0.00682959,-0.015915778,-0.014754314,0.0
368902484,0.03156185,-0.07804317,-0.0045393207,0.006672731,-0.016159412,-0.014731225,0.0
368934423,0.10148653,-0.1352221,-0.004872743,0.0065294607,-0.016372563,-0.014698087,0.0
368966442,-0.0094495565,-0.2091638,-0.015476377,0.00651731,-0.016397392,-0.014682058,0.0
368998432,-0.08133556,-0.311365,0.0014837903,0.006550487,-0.01628497,-0.014674614,0.0
369030484,0.018627133,-0.24189283,0.008777782,0.006518078,-0.016148385,-0.014679156,0.0
369062408,0.02963557,-0.15194698,-0.002010876,0.006511129,-0.015985904,-0.014690953,0.0
369094439,-0.105844684,-0.08471299,-0.008210004,0.0066262283,-0.01588617,-0.014691438,0.0
369126430,-0.10033102,-0.015096979,-0.0068971105,0.0067957947,-0.015980532,-0.0146772005,0.0
369157604,0.11944885,0.11782378,-0.016441125,0.006764061,-0.016233921,-0.014662431,0.0
369189616,0.17383799,0.05255653,-0.023281237,0.006554911,-0.016552692,-0.014620111,0.0
369220831,-0.01981274,-0.08288062,-0.025592119,0.006408016,-0.016724778,-0.014573678,0.0
369249607,-0.07859946,-0.1775634,-0.018436713,0.006465083,-0.016681591,-0.014527144,0.0
369281649,-0.14694256,-0.16766764,-0.02583431,0.0066460106,-0.016430289,-0.01447887,0.0
369313643,0.038100753,-0.0774979,-0.013936177,0.0066678305,-0.016268618,-0.014419588,0.0
369345610,0.08562234,0.04967484,-0.02956381,0.0064880312,-0.01628105,-0.0143526355,0.0
369377604,-0.035889726,0.15651871,-0.029976975,0.006393354,-0.0164258,-0.014287515,0.0
369409625,0.029449292,0.024096062,-0.007943641,0.006387683,-0.01658641,-0.0142425895,0.0
369441638,-0.13767606,-0.10276481,-0.021995325,0.0065315273,-0.0166107,-0.01416377,0.0
369469638,-0.03818576,0.07321121,-0.033422932,0.006673708,-0.016614106,-0.014071473,0.0
369501652,0.14720778,-0.029003898,0.0057709827,0.0066250274,-0.01659976,-0.014007736,0.0
369533604,0.025672488,-0.07861168,-0.023580555,0.0065184007,-0.01652002,-0.013928445,0.0
369565604,-0.10016248,0.09451992,-0.040933426,0.006525725,-0.01645086,-0.013810164,0.0
369597632,-0.030483956,0.23629475,-0.013417815,0.0065863747,-0.016566295,-0.013727186,0.0
369629615,0.14367372,0.17857943,0.004379059,0.0065110936,-0.016858133,-0.013711193,0.0
369661604,-0.038912926,-0.100431696,-0.011743117,0.0064192777,-0.017009858,-0.013653481,0.0
369693604,-0.08116354,-0.05043711,0.0016654524,0.006506062,-0.01708863,-0.013624586,0.0
369721604,-0.11874767,-0.07265709,0.008756199,0.006625982,-0.017161367,-0.013641434,0.0
369753614,-0.051311083,-0.08586759,0.022690672,0.006676564,-0.017117318,-0.013684171,0.0
369785642,-0.023283446,-0.08924999,0.020828007,0.0067820256,-0.016961671,-0.013729979,0.0
369817610,0.054891065,0.0367224,0.009063292,0.0069620344,-0.016980866,-0.013751289,0.0
369849619,0.070471026,0.075685434,0.008999795,0.006954141,-0.017126013,-0.013825858,0.0
369881629,-0.0064704483,-0.06542692,0.012804901,0.0068899943,-0.017221939,-0.013880679,0.0
369913650,0.00030268787,0.007732349,-0.00539736,0.006856168,-0.017235078,-0.013909651,0.0
369945610,-0.024157602,0.15807685,-0.017569676,0.006817098,-0.01732852,-0.013919713,0.0
369973646,-0.031441707,0.035340946,-0.005897239,0.0068325484,-0.017500447,-0.013933859,0.0
370008825,0.055635814,-0.08308724,-0.004096998,0.0069411206,-0.017619414,-0.013939757,0.0
370036821,-0.059000786,-0.08222762,-0.008617325,0.006969574,-0.01757639,-0.013946322,0.0
370068846,-6.99556e-05,-0.048586775,0.008643292,0.007002213,-0.017546764,-0.013944554,0.0
370100845,0.015780494,0.013325765,-0.046277627,0.00701519,-0.017606873,-0.013932232,0.0
370132873,0.011527628,0.008678699,-0.03241802,0.0068995873,-0.017617323,-0.013900771,0.0
370164804,-0.07698109,0.03575168,-0.022019185,0.006877483,-0.017597448,-0.013880999,0.0
370196851,-0.0036975972,0.019333296,-0.0068321796,0.0068674823,-0.017621275,-0.013877386,0.0
370228855,0.058732722,-0.03543795,-0.001783992,0.006783357,-0.017645378,-0.013885556,0.0
370260818,-0.065449156,0.06671181,-0.027740268,0.006789346,-0.01765605,-0.013906911,0.0
370288819,-0.04032713,-0.016294178,-0.00020315149,0.0068746367,-0.017644567,-0.01391106,0.0
370320830,0.0012991824,0.0727465,-0.0071425196,0.0069088223,-0.017710447,-0.013916454,0.0
370352844,0.060012206,0.118752316,-0.014414272,0.006829193,-0.017793795,-0.013927304,0.0
370384871,0.094171286,0.09530701,-0.0130553255,0.0067433077,-0.017866854,-0.013928173,0.0
370416849,-0.118695974,0.020952303,-0.004754341,0.00676825,-0.017923625,-0.013937714,0.0
370448844,-0.104183786,0.0033422476,0.006702587,0.0068716183,-0.017969878,-0.013972944,0.0
370480811,0.06663283,0.097152315,-0.009619713,0.006955271,-0.018028677,-0.014002584,0.0
370512879,0.0017296114,0.047149435,-0.00847022,0.0070030186,-0.018046161,-0.014048487,0.0
370540821,0.09403587,0.13382582,-0.0099062,0.00695681,-0.01814247,-0.014077476,0.0
370572907,0.15149747,0.1583646,-0.0069131865,0.006814839,-0.018407743,-0.014104033,0.0
370604804,0.045550548,-0.02787217,0.009456294,0.0066136206,-0.018703457,-0.014149716,0.0
370636844,-0.014362732,-0.07303823,0.0010870205,0.0065044235,-0.018874248,-0.014204822,0.0
370668811,0.01689579,-0.06897468,-0.0021850262,0.006481453,-0.018837968,-0.0142655745,0.0
370700077,-0.12971258,-0.12045781,-0.0005603918,0.0065340307,-0.018663336,-0.014314555,0.0
370732007,-0.083249345,0.042544995,-0.014628056,0.0066265864,-0.018507224,-0.014327304,0.0
370762438,0.067516305,0.20635872,-0.037405632,0.006638326,-0.018534515,-0.014313329,0.0
370796055,0.077647895,0.16198152,-0.031692713,0.0066052414,-0.018689714,-0.014303048,0.0
370828112,-0.07629999,0.02036016,-0.019733796,0.006664927,-0.018767443,-0.014304714,0.0
370856062,0.015180761,0.055228073,-0.022122443,0.006721268,-0.01879728,-0.014285823,0.0
370888076,-0.14127536,-0.068248115,-0.022505261,0.0068515316,-0.01873315,-0.014276164,0.0
370920009,-0.022663297,-0.007020991,-0.028717287,0.0070021697,-0.01863044,-0.014244304,0.0
370952041,0.077117726,0.026863983,-0.02343331,0.0070562717,-0.018608691,-0.014202583,0.0
370984011,0.033723723,0.044623114,-0.014281728,0.0069199484,-0.018685443,-0.014178169,0.0
371016078,0.1139945,0.105915375,-0.016611183,0.006802128,-0.0187952,-0.014162814,0.0
371048004,-0.105166525,0.0024655175,-0.015813839,0.0068700314,-0.018845571,-0.014152507,0.0
371080095,-0.006277402,0.0006487474,-0.013518434,0.0069307876,-0.018908635,-0.014124988,0.0
371108021,-0.022221746,0.025578715,-0.013882347,0.006970221,-0.018951787,-0.014112795,0.0
371140013,0.023228789,0.018129734,0.00734856,0.006957883,-0.01905077,-0.014111367,0.0
371172048,0.053975143,0.018076934,-0.007818956,0.006970079,-0.019123549,-0.014126912,0.0
371204063,-0.050065085,-0.07474626,-0.018962178,0.007069262,-0.01906926,-0.014154532,0.0
371236005,-0.02921228,-0.09037845,-0.0038647447,0.0071063167,-0.018934028,-0.014167289,0.0
371268023,0.12615545,0.02468053,0.003751005,0.006902736,-0.01898071,-0.01419174,0.0
371300044,0.039212402,0.11840175,-0.027840877,0.006739636,-0.01926107,-0.014182686,0.0
371328032,-0.14006358,-0.07512503,-0.0136531,0.0068256385,-0.019664062,-0.014161595,0.0
371360086,-0.06992747,-0.088863015,-0.021206621,0.0069846055,-0.019763961,-0.014163878,0.0
371392015,0.09099287,-0.26900578,-0.030134719,0.006983652,-0.019306382,-0.014131119,0.0
371424004,-0.059587374,-0.033013713,-0.03490287,0.006887315,-0.018926738,-0.014047944,0.0
371456036,0.076805174,0.2054001,-0.008063552,0.0067373747,-0.01901943,-0.013980284,0.0
371488063,0.023479933,0.20614931,-0.029726319,0.00661823,-0.019372111,-0.013928665,0.0
371520025,-0.032169867,0.021694336,-0.03431059,0.0066666165,-0.019483142,-0.013858839,0.0
371552004,-0.035637703,-0.10563048,-0.018015383,0.006720602,-0.019381525,-0.013782919,0.0
371583228,0.01741207,-0.01903045,-0.016826978,0.0066755395,-0.019301452,-0.013706629,0.0
371615267,-0.06603017,0.12816463,-0.024525402,0.006632102,-0.019364147,-0.01362407,0.0
371643234,-0.06223198,0.09543514,-0.034972347,0.0067161275,-0.019488782,-0.0135398,0.0
371675286,-0.0003573103,0.030273832,-0.031867765,0.006775601,-0.019675229,-0.013418536,0.0
371707207,0.08050375,0.020335408,-0.029183853,0.0066110217,-0.019777294,-0.013323443,0.0
371739273,0.10920156,-0.030455437,-0.036328927,0.0063828602,-0.019753344,-0.013184168,0.0
371771224,-0.044747915,-0.12463969,-0.010531502,0.0063627413,-0.019654794,-0.013067265,0.0
371803254,-0.16751392,0.00046436244,-0.022565909,0.006626972,-0.01962778,-0.012956151,0.0
371835208,-0.12538561,0.0043121707,-0.010921188,0.0068195127,-0.019712122,-0.012855983,0.0
371867207,-0.013198525,0.0058877785,-0.0023782984,0.0069086775,-0.019748159,-0.012808036,0.0
371895212,0.028574282,-0.060820896,-0.013138276,0.006923384,-0.01970294,-0.012757393,0.0
371927271,-0.04961007,-0.10630729,0.013737331,0.0069585857,-0.019612247,-0.012713352,0.0
371959308,0.024965156,0.053946503,0.008080994,0.006984168,-0.019627389,-0.012698674,0.0
371991213,0.048182808,0.10370766,-0.0022200833,0.0069020772,-0.01979547,-0.01266623,0.0
372023212,0.035304345,0.022015277,-0.009484081,0.006910549,-0.019876473,-0.012626091,0.0
372055215,-0.022035435,-0.008579596,-0.008151134,0.0070129866,-0.019898437,-0.0125836395,0.0
372087287,-0.027889637,-0.05166573,-0.0017899883,0.0071018534,-0.019863173,-0.012554379,0.0
372119316,0.0024195025,-0.037470635,0.0004772551,0.0071008573,-0.019827379,-0.0125341965,0.0
372147233,0.11220114,0.07980144,-0.01893678,0.00702157,-0.019881072,-0.0124931745,0.0
372179342,0.051299687,0.062197328,-0.007458989,0.006942961,-0.01997188,-0.0124676395,0.0
372211206,-0.05453672,-0.012208818,-0.005562308,0.0069388845,-0.020017415,-0.012444317,0.0
372243237,-0.04242441,-0.043955047,0.005485603,0.0069834576,-0.0199989,-0.012417603,0.0
372275240,0.118757114,-0.031157508,-0.007300389,0.0069746245,-0.019981308,-0.012387811,0.0
372307229,0.08675803,-0.014340648,-0.0049089994,0.0069120745,-0.019980807,-0.01235669,0.0
372339267,-0.07109813,-0.025236828,0.008834446,0.0069064926,-0.0199608,-0.012386219,0.0
