timestamp,timestamp_sample,control[0],control[1],control[2],control[3],control[4],control[5],control[6],control[7]
175388257,175388022,-0.021619296,-0.013418525,-0.04794425,0.08,0.0,0.0,0.0,0.0
175393080,175392830,-0.021574171,-0.013265501,-0.04777304,0.08,0.0,0.0,0.0,0.0
175397037,175396823,-0.021475501,-0.013326829,-0.047604423,0.08,0.0,0.0,0.0,0.0
175401051,175400826,-0.021357205,-0.013381679,-0.047782663,0.08,0.0,0.0,0.0,0.0
175405097,175404822,-0.02148857,-0.013884692,-0.047131367,0.08,0.0,0.0,0.0,0.0
175437016,175436822,-0.02170564,-0.014062228,-0.04572538,0.08,0.0,0.0,0.0,0.0
175441050,175440860,-0.021311365,-0.013806866,-0.046315495,0.08,0.0,0.0,0.0,0.0
175445095,175444828,-0.021526251,-0.013190179,-0.04639178,0.08,0.0,0.0,0.0,0.0
175449010,175448822,-0.021932252,-0.013132937,-0.046259563,0.08,0.0,0.0,0.0,0.0
175453049,175452822,-0.022188127,-0.013831782,-0.046533953,0.08,0.0,0.0,0.0,0.0
175457034,175456835,-0.022190271,-0.014255527,-0.04611426,0.08,0.0,0.0,0.0,0.0
175461018,175460822,-0.021922396,-0.013786743,-0.046095338,0.08,0.0,0.0,0.0,0.0
175465860,175465621,-0.02179381,-0.01326053,-0.046143766,0.08,0.0,0.0,0.0,0.0
175470632,175470422,-0.021838294,-0.012893008,-0.046157636,0.08,0.0,0.0,0.0,0.0
175474650,175474456,-0.021612262,-0.012868624,-0.046138853,0.08,0.0,0.0,0.0,0.0
175478707,175478421,-0.02174327,-0.013404654,-0.047305726,0.08,0.0,0.0,0.0,0.0
175482615,175482421,-0.021691658,-0.013670858,-0.047060613,0.08,0.0,0.0,0.0,0.0
175486657,175486421,-0.021487018,-0.013487325,-0.047009896,0.08,0.0,0.0,0.0,0.0
175490626,175490421,-0.02134805,-0.013285285,-0.04706314,0.08,0.0,0.0,0.0,0.0
175494687,175494473,-0.021700786,-0.013678652,-0.04689912,0.08,0.0,0.0,0.0,0.0
175498706,175498422,-0.022116356,-0.013828217,-0.047114223,0.08,0.0,0.0,0.0,0.0
175502625,175502421,-0.022230692,-0.0137699945,-0.047959875,0.08,0.0,0.0,0.0,0.0
175506659,175506427,-0.022050343,-0.0137249855,-0.04794112,0.08,0.0,0.0,0.0,0.0
175510624,175510421,-0.021551358,-0.013583895,-0.04787018,0.08,0.0,0.0,0.0,0.0
175514664,175514459,-0.021603204,-0.013619886,-0.04794046,0.08,0.0,0.0,0.0,0.0
175518658,175518421,-0.02218811,-0.013704278,-0.047762763,0.08,0.0,0.0,0.0,0.0
175522653,175522422,-0.022664674,-0.013790676,-0.047629114,0.08,0.0,0.0,0.0,0.0
175526680,175526427,-0.022504581,-0.013585113,-0.047663376,0.08,0.0,0.0,0.0,0.0
175530628,175530424,-0.022012994,-0.013466195,-0.047605038,0.08,0.0,0.0,0.0,0.0
175534673,175534422,-0.021464458,-0.013546983,-0.047654923,0.08,0.0,0.0,0.0,0.0
175538675,175538471,-0.02144067,-0.01343464,-0.047691103,0.08,0.0,0.0,0.0,0.0
175542667,175542422,-0.021678647,-0.013498729,-0.046939783,0.08,0.0,0.0,0.0,0.0
175546699,175546461,-0.02195552,-0.013596432,-0.04685079,0.08,0.0,0.0,0.0,0.0
175550644,175550422,-0.022133948,-0.014293932,-0.04688373,0.08,0.0,0.0,0.0,0.0
175554652,175554423,-0.022178724,-0.01437518,-0.04688623,0.08,0.0,0.0,0.0,0.0
175558621,175558422,-0.022068676,-0.014115941,-0.046480723,0.08,0.0,0.0,0.0,0.0
175562664,175562422,-0.021689324,-0.013186685,-0.046510454,0.08,0.0,0.0,0.0,0.0
175566670,175566427,-0.021472065,-0.013033743,-0.046452884,0.08,0.0,0.0,0.0,0.0
175570621,175570421,-0.022033425,-0.013335724,-0.046171132,0.08,0.0,0.0,0.0,0.0
175574666,175574422,-0.022221094,-0.013827897,-0.046191223,0.08,0.0,0.0,0.0,0.0
175578651,175578435,-0.02201125,-0.013821484,-0.046366315,0.08,0.0,0.0,0.0,0.0
175582684,175582423,-0.02180969,-0.013723806,-0.04787598,0.08,0.0,0.0,0.0,0.0
175586665,175586422,-0.02163254,-0.013710067,-0.04767448,0.08,0.0,0.0,0.0,0.0
175590619,175590422,-0.021874065,-0.013634114,-0.04761624,0.08,0.0,0.0,0.0,0.0
175594657,175594422,-0.021985672,-0.013294047,-0.0476331,0.08,0.0,0.0,0.0,0.0
175598722,175598422,-0.021993937,-0.012947478,-0.04739907,0.08,0.0,0.0,0.0,0.0
175602678,175602443,-0.021939782,-0.013076028,-0.047468994,0.08,0.0,0.0,0.0,0.0
175607436,175607227,-0.021697935,-0.013817053,-0.049819313,0.08,0.0,0.0,0.0,0.0
175611388,175611221,-0.02140377,-0.014286205,-0.049848147,0.08,0.0,0.0,0.0,0.0
175615459,175615232,-0.021453144,-0.014400061,-0.049275104,0.08,0.0,0.0,0.0,0.0
175619454,175619222,-0.021422984,-0.014680204,-0.049385663,0.08,0.0,0.0,0.0,0.0
175623479,175623236,-0.02178882,-0.014709614,-0.04929691,0.08,0.0,0.0,0.0,0.0
175627456,175627222,-0.022137277,-0.014088302,-0.049270447,0.08,0.0,0.0,0.0,0.0
175631458,175631248,-0.022194762,-0.013077051,-0.04943555,0.08,0.0,0.0,0.0,0.0
175635476,175635222,-0.022185387,-0.012340299,-0.049657665,0.08,0.0,0.0,0.0,0.0
175639436,175639229,-0.022003453,-0.012394469,-0.049625456,0.08,0.0,0.0,0.0,0.0
175643464,175643222,-0.021407364,-0.013486033,-0.04935558,0.08,0.0,0.0,0.0,0.0
175647480,175647222,-0.021321861,-0.014450772,-0.04829033,0.08,0.0,0.0,0.0,0.0
175651412,175651222,-0.021314502,-0.0144185405,-0.048180394,0.08,0.0,0.0,0.0,0.0
175655474,175655222,-0.021532726,-0.013913579,-0.048114054,0.08,0.0,0.0,0.0,0.0
175659423,175659221,-0.021902645,-0.013523985,-0.048393253,0.08,0.0,0.0,0.0,0.0
175663488,175663230,-0.022039957,-0.012798455,-0.048262116,0.08,0.0,0.0,0.0,0.0
175667472,175667223,-0.022173295,-0.012854818,-0.047872085,0.08,0.0,0.0,0.0,0.0
175671429,175671222,-0.022065658,-0.013493204,-0.048506092,0.08,0.0,0.0,0.0,0.0
175675459,175675222,-0.021775706,-0.013909652,-0.048721757,0.08,0.0,0.0,0.0,0.0
175679446,175679237,-0.02187734,-0.013790434,-0.04898494,0.08,0.0,0.0,0.0,0.0
175683490,175683230,-0.021961035,-0.013515464,-0.048562214,0.08,0.0,0.0,0.0,0.0
175687632,175687247,-0.0219379,-0.01378621,-0.048343845,0.08,0.0,0.0,0.0,0.0
175691418,175691222,-0.021910986,-0.0135954525,-0.04858015,0.08,0.0,0.0,0.0,0.0
175695551,175695222,-0.02142277,-0.013408424,-0.049516164,0.08,0.0,0.0,0.0,0.0
175699415,175699228,-0.021151876,-0.013221421,-0.04975595,0.08,0.0,0.0,0.0,0.0
175703467,175703226,-0.021350803,-0.013206351,-0.049571555,0.08,0.0,0.0,0.0,0.0
175707496,175707222,-0.021815015,-0.013593459,-0.049168732,0.08,0.0,0.0,0.0,0.0
175711420,175711222,-0.022220377,-0.014112259,-0.04894831,0.08,0.0,0.0,0.0,0.0
175715467,175715248,-0.022551782,-0.014373062,-0.048857592,0.08,0.0,0.0,0.0,0.0
175719419,175719222,-0.021985464,-0.014154165,-0.048964392,0.08,0.0,0.0,0.0,0.0
175723441,175723246,-0.02190812,-0.013638521,-0.04876414,0.08,0.0,0.0,0.0,0.0
175727442,175727222,-0.021884479,-0.013610545,-0.04822608,0.08,0.0,0.0,0.0,0.0
175731417,175731222,-0.022265967,-0.013441939,-0.04810326,0.08,0.0,0.0,0.0,0.0
175735458,175735222,-0.022229962,-0.013541047,-0.04776103,0.08,0.0,0.0,0.0,0.0
175739430,175739222,-0.022066344,-0.013558669,-0.048038684,0.08,0.0,0.0,0.0,0.0
175743481,175743262,-0.021724163,-0.013481492,-0.047083102,0.08,0.0,0.0,0.0,0.0
175747460,175747222,-0.021393707,-0.013368662,-0.04680961,0.08,0.0,0.0,0.0,0.0
175751429,175751228,-0.021361716,-0.0132900905,-0.04670836,0.08,0.0,0.0,0.0,0.0
175755459,175755222,-0.021479271,-0.013573164,-0.04685439,0.08,0.0,0.0,0.0,0.0
175759423,175759222,-0.021596573,-0.013363243,-0.04620368,0.08,0.0,0.0,0.0,0.0
175763465,175763230,-0.021762244,-0.013841683,-0.046599593,0.08,0.0,0.0,0.0,0.0
175767459,175767222,-0.021408176,-0.013338782,-0.046585843,0.08,0.0,0.0,0.0,0.0
175771502,175771257,-0.021098197,-0.0138652,-0.04693706,0.08,0.0,0.0,0.0,0.0
175775471,175775222,-0.021595066,-0.013695358,-0.047279254,0.08,0.0,0.0,0.0,0.0
175779419,175779222,-0.020214885,-0.013829433,-0.047302864,0.08,0.0,0.0,0.0,0.0
175783465,175783222,-0.022318374,-0.013896991,-0.047448706,0.08,0.0,0.0,0.0,0.0
175787709,175787222,-0.021331524,-0.014030059,-0.048234798,0.08,0.0,0.0,0.0,0.0
175791507,175791234,-0.022310685,-0.013652469,-0.048299413,0.08,0.0,0.0,0.0,0.0
175795461,175795222,-0.020610834,-0.012972887,-0.048410814,0.08,0.0,0.0,0.0,0.0
175799459,175799248,-0.020602264,-0.012982575,-0.04917365,0.08,0.0,0.0,0.0,0.0
175803463,175803222,-0.020315383,-0.013047951,-0.049338486,0.08,0.0,0.0,0.0,0.0
175807421,175807221,-0.020848414,-0.013231153,-0.04955085,0.08,0.0,0.0,0.0,0.0
175811459,175811222,-0.02154653,-0.013364181,-0.049758784,0.08,0.0,0.0,0.0,0.0
175815480,175815222,-0.021388143,-0.013813186,-0.049632434,0.08,0.0,0.0,0.0,0.0
175819414,175819222,-0.02115432,-0.014102357,-0.05003328,0.08,0.0,0.0,0.0,0.0
175823448,175823222,-0.020967176,-0.013347866,-0.05113436,0.08,0.0,0.0,0.0,0.0
175827438,175827239,-0.021580217,-0.012949015,-0.051311027,0.08,0.0,0.0,0.0,0.0
175831465,175831223,-0.020948252,-0.013224759,-0.05133866,0.08,0.0,0.0,0.0,0.0
175835451,175835222,-0.021872185,-0.013581479,-0.05145801,0.08,0.0,0.0,0.0,0.0
175839442,175839222,-0.021368703,-0.01402216,-0.051384725,0.08,0.0,0.0,0.0,0.0
175843458,175843231,-0.022267302,-0.0143497605,-0.051394876,0.08,0.0,0.0,0.0,0.0
175847435,175847225,-0.02193321,-0.014020666,-0.051280577,0.08,0.0,0.0,0.0,0.0
175851506,175851263,-0.02194186,-0.01427263,-0.05132118,0.08,0.0,0.0,0.0,0.0
175855516,175855248,-0.022565627,-0.014163971,-0.05155868,0.08,0.0,0.0,0.0,0.0
175859420,175859221,-0.021625228,-0.013643275,-0.051914494,0.08,0.0,0.0,0.0,0.0
175863457,175863227,-0.022028372,-0.013102374,-0.0508294,0.08,0.0,0.0,0.0,0.0
175867411,175867222,-0.02296355,-0.012681006,-0.050918173,0.08,0.0,0.0,0.0,0.0
175871474,175871231,-0.021741495,-0.013078,-0.050653048,0.08,0.0,0.0,0.0,0.0
175875461,175875221,-0.022333447,-0.01354758,-0.050660726,0.08,0.0,0.0,0.0,0.0
175879430,175879222,-0.02159971,-0.012844246,-0.050460126,0.08,0.0,0.0,0.0,0.0
175883578,175883248,-0.022291003,-0.013235371,-0.049836844,0.08,0.0,0.0,0.0,0.0
175887421,175887222,-0.020908022,-0.013316534,-0.048859265,0.08,0.0,0.0,0.0,0.0
175891464,175891222,-0.021032618,-0.012436297,-0.04836683,0.08,0.0,0.0,0.0,0.0
175895527,175895234,-0.020976985,-0.01289903,-0.047973398,0.08,0.0,0.0,0.0,0.0
175899423,175899222,-0.021075316,-0.013410173,-0.04811709,0.08,0.0,0.0,0.0,0.0
175903464,175903222,-0.020976128,-0.013058563,-0.0479335,0.08,0.0,0.0,0.0,0.0
175907505,175907222,-0.021378998,-0.012458671,-0.04751445,0.08,0.0,0.0,0.0,0.0
175911484,175911234,-0.020719824,-0.012040106,-0.04723665,0.08,0.0,0.0,0.0,0.0
175915458,175915222,-0.020645248,-0.012547539,-0.04696466,0.08,0.0,0.0,0.0,0.0
175919434,175919222,-0.020752197,-0.014037708,-0.046678193,0.08,0.0,0.0,0.0,0.0
175923453,175923222,-0.020182274,-0.013949521,-0.046451624,0.08,0.0,0.0,0.0,0.0
175927419,175927222,-0.020803044,-0.013711112,-0.046036493,0.08,0.0,0.0,0.0,0.0
175931551,175931229,-0.020676097,-0.013792745,-0.045652565,0.08,0.0,0.0,0.0,0.0
175935474,175935227,-0.02187961,-0.013624037,-0.045990665,0.08,0.0,0.0,0.0,0.0
175939474,175939239,-0.021783177,-0.013296915,-0.04618476,0.08,0.0,0.0,0.0,0.0
175943451,175943222,-0.022805635,-0.0139509,-0.046172116,0.08,0.0,0.0,0.0,0.0
175947417,175947222,-0.02170806,-0.0138451215,-0.046125025,0.08,0.0,0.0,0.0,0.0
175951449,175951222,-0.022999518,-0.014143953,-0.04623907,0.08,0.0,0.0,0.0,0.0
175955633,175955222,-0.02239695,-0.013104076,-0.04647993,0.08,0.0,0.0,0.0,0.0
175959514,175959263,-0.022595463,-0.013044993,-0.046532232,0.08,0.0,0.0,0.0,0.0
175963450,175963222,-0.022430293,-0.013859887,-0.046332467,0.08,0.0,0.0,0.0,0.0
175967453,175967248,-0.021542499,-0.014795885,-0.046545368,0.08,0.0,0.0,0.0,0.0
175971446,175971221,-0.02173633,-0.015818711,-0.04685953,0.08,0.0,0.0,0.0,0.0
175975417,175975224,-0.021447686,-0.014283414,-0.04624655,0.08,0.0,0.0,0.0,0.0
175979496,175979261,-0.021646824,-0.01393165,-0.04675753,0.08,0.0,0.0,0.0,0.0
175983471,175983221,-0.021851022,-0.013573819,-0.047015246,0.08,0.0,0.0,0.0,0.0
175987418,175987221,-0.021596579,-0.01299607,-0.04736676,0.08,0.0,0.0,0.0,0.0
175991464,175991222,-0.021859251,-0.012942824,-0.04812341,0.08,0.0,0.0,0.0,0.0
175995442,175995235,-0.021649258,-0.012997723,-0.048167184,0.08,0.0,0.0,0.0,0.0
175999471,175999232,-0.021931639,-0.013622987,-0.045374867,0.08,0.0,0.0,0.0,0.0
176003410,176003221,-0.021711055,-0.013508042,-0.045454215,0.08,0.0,0.0,0.0,0.0
176007442,176007229,-0.021764452,-0.012661101,-0.04544462,0.08,0.0,0.0,0.0,0.0
176011460,176011221,-0.021741569,-0.012616487,-0.045668494,0.08,0.0,0.0,0.0,0.0
176015419,176015222,-0.020805094,-0.012533105,-0.04607446,0.08,0.0,0.0,0.0,0.0
176019491,176019249,-0.020724896,-0.012696412,-0.045750126,0.08,0.0,0.0,0.0,0.0
176023523,176023248,-0.021283016,-0.013309459,-0.042384844,0.08,0.0,0.0,0.0,0.0
176027414,176027222,-0.020897452,-0.013348096,-0.042164084,0.08,0.0,0.0,0.0,0.0
176031460,176031221,-0.021849088,-0.0131984595,-0.042019226,0.08,0.0,0.0,0.0,0.0
176035414,176035222,-0.020561773,-0.012036962,-0.04156639,0.08,0.0,0.0,0.0,0.0
176039497,176039222,-0.022460448,-0.012527085,-0.041367956,0.08,0.0,0.0,0.0,0.0
176043461,176043221,-0.020539785,-0.012285753,-0.041298557,0.08,0.0,0.0,0.0,0.0
176047421,176047222,-0.020908594,-0.013478074,-0.040249098,0.08,0.0,0.0,0.0,0.0
176051572,176051256,-0.01965655,-0.013333944,-0.03995677,0.08,0.0,0.0,0.0,0.0
176055436,176055222,-0.020621505,-0.013859854,-0.04005185,0.08,0.0,0.0,0.0,0.0
176059447,176059226,-0.020711422,-0.014138687,-0.039722644,0.08,0.0,0.0,0.0,0.0
176063462,176063222,-0.020970456,-0.013809618,-0.040248975,0.08,0.0,0.0,0.0,0.0
176067417,176067221,-0.022945149,-0.013822105,-0.040120427,0.08,0.0,0.0,0.0,0.0
176071454,176071222,-0.023288151,-0.013720058,-0.04018769,0.08,0.0,0.0,0.0,0.0
176075414,176075222,-0.022250835,-0.01366802,-0.040009763,0.08,0.0,0.0,0.0,0.0
176079488,176079237,-0.022462204,-0.01344162,-0.039708626,0.08,0.0,0.0,0.0,0.0
176083464,176083222,-0.022360086,-0.013543609,-0.03935898,0.08,0.0,0.0,0.0,0.0
176087462,176087261,-0.023519827,-0.013962721,-0.03963109,0.08,0.0,0.0,0.0,0.0
176091449,176091222,-0.021484002,-0.014381679,-0.039583724,0.08,0.0,0.0,0.0,0.0
176095416,176095221,-0.022897117,-0.014177563,-0.040285036,0.08,0.0,0.0,0.0,0.0
176099458,176099222,-0.022354571,-0.014170988,-0.040772926,0.08,0.0,0.0,0.0,0.0
176103476,176103222,-0.021379534,-0.013087378,-0.04053077,0.08,0.0,0.0,0.0,0.0
176107417,176107223,-0.022258937,-0.012456085,-0.04059808,0.08,0.0,0.0,0.0,0.0
176111484,176111222,-0.022379296,-0.012355409,-0.041196354,0.08,0.0,0.0,0.0,0.0
176115435,176115222,-0.022391142,-0.013452262,-0.041117825,0.08,0.0,0.0,0.0,0.0
176119471,176119222,-0.020894282,-0.0132832695,-0.040879488,0.08,0.0,0.0,0.0,0.0
176123469,176123222,-0.021849161,-0.012464618,-0.0414751,0.08,0.0,0.0,0.0,0.0
176127485,176127225,-0.02199173,-0.012551759,-0.04129195,0.08,0.0,0.0,0.0,0.0
176132240,176132021,-0.020783152,-0.012189396,-0.041463938,0.08,0.0,0.0,0.0,0.0
176137053,176136821,-0.021661524,-0.011687307,-0.04073469,0.08,0.0,0.0,0.0,0.0
176141095,176140851,-0.02158947,-0.012064484,-0.040734533,0.08,0.0,0.0,0.0,0.0
176145044,176144822,-0.021337554,-0.013561839,-0.04141836,0.08,0.0,0.0,0.0,0.0
176149019,176148822,-0.020945977,-0.013400699,-0.041229736,0.08,0.0,0.0,0.0,0.0
176153043,176152822,-0.022549955,-0.013608437,-0.04085227,0.08,0.0,0.0,0.0,0.0
176157053,176156822,-0.020595806,-0.0125302905,-0.03999093,0.08,0.0,0.0,0.0,0.0
176161131,176160865,-0.02041476,-0.013809187,-0.04022764,0.08,0.0,0.0,0.0,0.0
176165077,176164837,-0.021100495,-0.012793462,-0.04011248,0.08,0.0,0.0,0.0,0.0
176169024,176168821,-0.021624137,-0.013011529,-0.040005997,0.08,0.0,0.0,0.0,0.0
176173041,176172822,-0.021073868,-0.0138522275,-0.03884647,0.08,0.0,0.0,0.0,0.0
176177068,176176877,-0.020043278,-0.0139902765,-0.038989104,0.08,0.0,0.0,0.0,0.0
176181074,176180833,-0.021854192,-0.0138064865,-0.039175715,0.08,0.0,0.0,0.0,0.0
176185040,176184851,-0.021673461,-0.012845829,-0.038901474,0.08,0.0,0.0,0.0,0.0
176189023,176188822,-0.021211974,-0.013373176,-0.038930546,0.08,0.0,0.0,0.0,0.0
176193059,176192825,-0.021807784,-0.013118747,-0.038952734,0.08,0.0,0.0,0.0,0.0
176197021,176196826,-0.021473156,-0.013465036,-0.03767542,0.08,0.0,0.0,0.0,0.0
176201091,176200846,-0.022463307,-0.013840836,-0.037248053,0.08,0.0,0.0,0.0,0.0
176205057,176204849,-0.021843512,-0.014005165,-0.03689579,0.08,0.0,0.0,0.0,0.0
176209023,176208830,-0.02289109,-0.013424345,-0.036890443,0.08,0.0,0.0,0.0,0.0
176213061,176212822,-0.022720534,-0.0129936505,-0.036966875,0.08,0.0,0.0,0.0,0.0
176217014,176216822,-0.020875376,-0.013928889,-0.03686332,0.08,0.0,0.0,0.0,0.0
176221097,176220822,-0.021856118,-0.014037706,-0.035554048,0.08,0.0,0.0,0.0,0.0
176225102,176224859,-0.022612758,-0.013607099,-0.035596915,0.08,0.0,0.0,0.0,0.0
176229028,176228822,-0.022795696,-0.013325901,-0.03586398,0.08,0.0,0.0,0.0,0.0
176233066,176232825,-0.021180985,-0.013833865,-0.035657667,0.08,0.0,0.0,0.0,0.0
176237028,176236822,-0.02247996,-0.0124484785,-0.033133425,0.08,0.0,0.0,0.0,0.0
176241117,176240822,-0.022404935,-0.011794011,-0.033361267,0.08,0.0,0.0,0.0,0.0
176245103,176244861,-0.021987284,-0.011382765,-0.033592656,0.08,0.0,0.0,0.0,0.0
176249029,176248822,-0.020431027,-0.011461633,-0.033365916,0.08,0.0,0.0,0.0,0.0
176253069,176252827,-0.023429576,-0.012042292,-0.033587273,0.08,0.0,0.0,0.0,0.0
176257035,176256822,-0.021783784,-0.012352314,-0.03330216,0.08,0.0,0.0,0.0,0.0
176261113,176260872,-0.022794083,-0.013867841,-0.029615028,0.08,0.0,0.0,0.0,0.0
176265111,176264869,-0.02070363,-0.012531302,-0.029338537,0.08,0.0,0.0,0.0,0.0
176269029,176268835,-0.022916095,-0.013016944,-0.029301798,0.08,0.0,0.0,0.0,0.0
176273053,176272828,-0.021043375,-0.012632292,-0.029727852,0.08,0.0,0.0,0.0,0.0
176277019,176276822,-0.020666296,-0.013190917,-0.029813096,0.08,0.0,0.0,0.0,0.0
176281036,176280822,-0.021156264,-0.012796821,-0.029687772,0.08,0.0,0.0,0.0,0.0
176285063,176284827,-0.02185817,-0.0130576035,-0.024432406,0.08,0.0,0.0,0.0,0.0
176289035,176288844,-0.0209295,-0.013431685,-0.024750462,0.08,0.0,0.0,0.0,0.0
176293052,176292822,-0.020419054,-0.013287286,-0.024519892,0.08,0.0,0.0,0.0,0.0
176297012,176296822,-0.021318901,-0.013107855,-0.02440846,0.08,0.0,0.0,0.0,0.0
176301046,176300822,-0.021074526,-0.013519414,-0.018336838,0.08,0.0,0.0,0.0,0.0
176305089,176304833,-0.021750003,-0.013199119,-0.018320503,0.08,0.0,0.0,0.0,0.0
176309105,176308863,-0.021733858,-0.013846517,-0.018299578,0.08,0.0,0.0,0.0,0.0
176313014,176312821,-0.02303898,-0.0135921575,-0.018430162,0.08,0.0,0.0,0.0,0.0
176317020,176316822,-0.021455865,-0.013445977,-0.018408721,0.08,0.0,0.0,0.0,0.0
176321055,176320822,-0.022207895,-0.014014341,-0.018546766,0.08,0.0,0.0,0.0,0.0
176325060,176324822,-0.022264974,-0.013332449,-0.012873272,0.08,0.0,0.0,0.0,0.0
176329090,176328846,-0.02222145,-0.013062599,-0.012834168,0.08,0.0,0.0,0.0,0.0
176333019,176332822,-0.021321198,-0.013738631,-0.012717756,0.08,0.0,0.0,0.0,0.0
176337030,176336822,-0.020843437,-0.012809593,-0.013052921,0.08,0.0,0.0,0.0,0.0
176341064,176340821,-0.022634862,-0.012138365,-0.013144046,0.08,0.0,0.0,0.0,0.0
176345041,176344835,-0.02251591,-0.012119729,-0.013154024,0.08,0.0,0.0,0.0,0.0
176349114,176348822,-0.022845063,-0.012363386,-0.009814481,0.08,0.0,0.0,0.0,0.0
176353026,176352824,-0.02233686,-0.012117704,-0.009542217,0.08,0.0,0.0,0.0,0.0
176357029,176356822,-0.022728616,-0.011994565,-0.009133007,0.08,0.0,0.0,0.0,0.0
176361053,176360822,-0.021339381,-0.011540148,-0.009156018,0.08,0.0,0.0,0.0,0.0
176365037,176364828,-0.021965807,-0.011259737,-0.006376959,0.08,0.0,0.0,0.0,0.0
176369102,176368822,-0.021201862,-0.011682605,-0.0063883997,0.08,0.0,0.0,0.0,0.0
176381058,176380822,-0.021879341,-0.012039514,-0.005952149,0.08,0.0,0.0,0.0,0.0
176385047,176384836,-0.022446286,-0.012483334,-0.0059417016,0.08,0.0,0.0,0.0,0.0
176389116,176388822,-0.021411788,-0.011987596,-0.004231551,0.08,0.0,0.0,0.0,0.0
176393023,176392822,-0.020787865,-0.012634785,-0.004578844,0.08,0.0,0.0,0.0,0.0
176397020,176396822,-0.0212456,-0.012624095,-0.004624827,0.08,0.0,0.0,0.0,0.0
176401069,176400822,-0.021656629,-0.013007302,-0.004629994,0.08,0.0,0.0,0.0,0.0
176405040,176404822,-0.022308918,-0.013211228,-0.0048278947,0.08,0.0,0.0,0.0,0.0
176409077,176408822,-0.021607706,-0.013552038,-0.0047064433,0.08,0.0,0.0,0.0,0.0
176413067,176412822,-0.022245556,-0.013412933,-0.004619381,0.08,0.0,0.0,0.0,0.0
176417026,176416834,-0.021693481,-0.01360647,-0.0054382547,0.08,0.0,0.0,0.0,0.0
176421071,176420822,-0.021927327,-0.013409451,-0.0053070234,0.08,0.0,0.0,0.0,0.0
176425033,176424822,-0.021518026,-0.013840639,-0.0048867837,0.08,0.0,0.0,0.0,0.0
176429063,176428821,-0.022239467,-0.013814848,-0.0054840744,0.08,0.0,0.0,0.0,0.0
176433046,176432821,-0.02246175,-0.013991001,-0.005440966,0.08,0.0,0.0,0.0,0.0
176437055,176436854,-0.02194009,-0.012960365,-0.0048760897,0.08,0.0,0.0,0.0,0.0
176441070,176440822,-0.020843992,-0.013275821,-0.0050001554,0.08,0.0,0.0,0.0,0.0
176445047,176444828,-0.021512864,-0.012957645,-0.005090722,0.08,0.0,0.0,0.0,0.0
176449063,176448822,-0.020815259,-0.012608988,-0.0049983216,0.08,0.0,0.0,0.0,0.0
176453072,176452822,-0.0225277,-0.012787754,-0.0038050127,0.08,0.0,0.0,0.0,0.0
176457033,176456838,-0.022192037,-0.012130014,-0.0035580657,0.08,0.0,0.0,0.0,0.0
176461023,176460822,-0.023365598,-0.011072116,-0.003472618,0.08,0.0,0.0,0.0,0.0
176465024,176464822,-0.022595387,-0.010860738,-0.0029685765,0.08,0.0,0.0,0.0,0.0
176469070,176468822,-0.02165562,-0.010641153,-0.003211636,0.08,0.0,0.0,0.0,0.0
176473058,176472822,-0.021835582,-0.011893891,-0.003117481,0.08,0.0,0.0,0.0,0.0
176477108,176476849,-0.02180491,-0.011304631,-0.001748186,0.08,0.0,0.0,0.0,0.0
176481024,176480822,-0.022284597,-0.012271059,-0.001474268,0.08,0.0,0.0,0.0,0.0
176485029,176484822,-0.02162219,-0.011841744,-0.0009834934,0.08,0.0,0.0,0.0,0.0
176489060,176488822,-0.022862157,-0.012384955,-0.0012611643,0.08,0.0,0.0,0.0,0.0
176493074,176492822,-0.022243733,-0.011950416,-0.0009972792,0.08,0.0,0.0,0.0,0.0
176497097,176496822,-0.021999663,-0.011812707,-0.0010272962,0.08,0.0,0.0,0.0,0.0
176501043,176500822,-0.022142263,-0.0122653395,-0.00027623028,0.08,0.0,0.0,0.0,0.0
176505044,176504839,-0.021612765,-0.012661103,-0.0004395133,0.08,0.0,0.0,0.0,0.0
176509066,176508828,-0.022396198,-0.0129556665,-0.00046629572,0.08,0.0,0.0,0.0,0.0
176513069,176512871,-0.022359157,-0.0137145845,-0.00050749164,0.08,0.0,0.0,0.0,0.0
176517097,176516822,-0.022789707,-0.01328489,-0.00074204913,0.08,0.0,0.0,0.0,0.0
176521020,176520821,-0.022307307,-0.013629448,-0.00072796404,0.08,0.0,0.0,0.0,0.0
176525032,176524822,-0.021621618,-0.012944566,-0.000624273,0.08,0.0,0.0,0.0,0.0
176529053,176528827,-0.021676306,-0.013898476,-0.0010095099,0.08,0.0,0.0,0.0,0.0
176533032,176532825,-0.02203013,-0.012836766,-0.0012838257,0.08,0.0,0.0,0.0,0.0
176537102,176536822,-0.021855004,-0.013585417,-0.0016099013,0.08,0.0,0.0,0.0,0.0
176541023,176540822,-0.021631625,-0.013516294,-0.00054940576,0.08,0.0,0.0,0.0,0.0
176545029,176544825,-0.022222187,-0.013243932,-0.00054065505,0.08,0.0,0.0,0.0,0.0
176549085,176548822,-0.022244822,-0.013215048,-0.00083508197,0.08,0.0,0.0,0.0,0.0
176553022,176552822,-0.022121336,-0.01308885,-0.00082110765,0.08,0.0,0.0,0.0,0.0
176557116,176556822,-0.02107137,-0.01261318,-0.0011655369,0.08,0.0,0.0,0.0,0.0
176561035,176560830,-0.021430477,-0.012311541,-0.0010584055,0.08,0.0,0.0,0.0,0.0
176565053,176564846,-0.021898024,-0.011798173,-0.000572207,0.08,0.0,0.0,0.0,0.0
176569067,176568822,-0.02207358,-0.012172946,-0.0013579777,0.08,0.0,0.0,0.0,0.0
176573028,176572822,-0.021746874,-0.011686671,-0.001151062,0.08,0.0,0.0,0.0,0.0
176577102,176576822,-0.022224613,-0.011926041,-0.0007384532,0.08,0.0,0.0,0.0,0.0
176581067,176580822,-0.02114455,-0.011233703,-0.0008147644,0.08,0.0,0.0,0.0,0.0
176585077,176584869,-0.021652628,-0.011963977,-0.0010491096,0.08,0.0,0.0,0.0,0.0
176589069,176588822,-0.021056,-0.0107320715,-0.0007332824,0.08,0.0,0.0,0.0,0.0
176593019,176592822,-0.022741592,-0.011496304,-0.000833485,0.08,0.0,0.0,0.0,0.0
176597120,176596871,-0.021896206,-0.010659403,-0.000872513,0.08,0.0,0.0,0.0,0.0
176601066,176600828,-0.02311034,-0.011327127,-0.00061405613,0.08,0.0,0.0,0.0,0.0
176605046,176604834,-0.022960145,-0.012174579,-0.00033508078,0.08,0.0,0.0,0.0,0.0
176609033,176608822,-0.021238627,-0.012602584,-0.00031632668,0.08,0.0,0.0,0.0,0.0
176612996,176612821,-0.02235418,-0.013071945,0.00016297984,0.08,0.0,0.0,0.0,0.0
176617027,176616828,-0.02123246,-0.01256774,0.0003743894,0.08,0.0,0.0,0.0,0.0
176621039,176620828,-0.022914689,-0.012621695,0.0008934738,0.08,0.0,0.0,0.0,0.0
176625011,176624842,-0.02246197,-0.013081471,0.00073805946,0.08,0.0,0.0,0.0,0.0
176629002,176628822,-0.022653373,-0.013875612,0.0009543242,0.08,0.0,0.0,0.0,0.0
176633000,176632822,-0.022867115,-0.014226235,0.0009864324,0.08,0.0,0.0,0.0,0.0
176637026,176636821,-0.02307253,-0.013917357,0.0008934797,0.08,0.0,0.0,0.0,0.0
176641028,176640822,-0.02223921,-0.014346806,0.0009210718,0.08,0.0,0.0,0.0,0.0
176645022,176644822,-0.021993892,-0.0133257015,0.0007456208,0.08,0.0,0.0,0.0,0.0
176648989,176648821,-0.02188376,-0.013576477,0.00078595337,0.08,0.0,0.0,0.0,0.0
176652997,176652822,-0.022102464,-0.01224254,0.0010133076,0.08,0.0,0.0,0.0,0.0
176657037,176656822,-0.022675952,-0.012890965,0.0011928272,0.08,0.0,0.0,0.0,0.0
176661016,176660822,-0.021391012,-0.012438682,0.0010729828,0.08,0.0,0.0,0.0,0.0
176665066,176664822,-0.02166265,-0.013092543,0.0009184009,0.08,0.0,0.0,0.0,0.0
176669002,176668822,-0.021479527,-0.012542184,0.0004863822,0.08,0.0,0.0,0.0,0.0
176672987,176672822,-0.021213192,-0.0123480335,0.00062637945,0.08,0.0,0.0,0.0,0.0
176677036,176676822,-0.02109619,-0.010867158,0.00037756734,0.08,0.0,0.0,0.0,0.0
176680998,176680823,-0.021885144,-0.010980761,0.00055034284,0.08,0.0,0.0,0.0,0.0
176685089,176684822,-0.02082578,-0.010535348,1.9481628e-05,0.08,0.0,0.0,0.0,0.0
176689001,176688822,-0.022363715,-0.011664492,-0.00028872248,0.08,0.0,0.0,0.0,0.0
176693014,176692837,-0.02104456,-0.011213186,-0.00021777456,0.08,0.0,0.0,0.0,0.0
176697030,176696822,-0.021736046,-0.011750551,-0.0005417287,0.08,0.0,0.0,0.0,0.0
176701018,176700833,-0.02099478,-0.011455962,-0.00031466808,0.08,0.0,0.0,0.0,0.0
176705079,176704828,-0.021690968,-0.0125366235,-0.00086560444,0.08,0.0,0.0,0.0,0.0
176709001,176708822,-0.021489311,-0.012661168,-0.0008049504,0.08,0.0,0.0,0.0,0.0
176713032,176712860,-0.02232004,-0.011975534,-0.0009659348,0.08,0.0,0.0,0.0,0.0
176717040,176716822,-0.022516327,-0.012194293,-0.0011483646,0.08,0.0,0.0,0.0,0.0
176720990,176720822,-0.022807864,-0.012604693,-0.0011586499,0.08,0.0,0.0,0.0,0.0
176725059,176724822,-0.022153648,-0.012428377,-0.0010841101,0.08,0.0,0.0,0.0,0.0
176728990,176728822,-0.022578258,-0.01242134,-0.0011644881,0.08,0.0,0.0,0.0,0.0
176733058,176732858,-0.021841276,-0.012510551,-0.0009880956,0.08,0.0,0.0,0.0,0.0
176736994,176736821,-0.022007449,-0.013732817,-0.0012659623,0.08,0.0,0.0,0.0,0.0
176741002,176740822,-0.022198938,-0.013708346,-0.0011583077,0.08,0.0,0.0,0.0,0.0
176745074,176744822,-0.022932814,-0.014116306,-0.0014474628,0.08,0.0,0.0,0.0,0.0
176749034,176748822,-0.023478394,-0.014108025,-0.001857765,0.08,0.0,0.0,0.0,0.0
176752995,176752827,-0.02297846,-0.014227822,-0.0018546161,0.08,0.0,0.0,0.0,0.0
176756993,176756822,-0.022590315,-0.013724211,-0.0019758851,0.08,0.0,0.0,0.0,0.0
176761015,176760822,-0.022641648,-0.013274986,-0.0014794737,0.08,0.0,0.0,0.0,0.0
176765107,176764871,-0.022287678,-0.013039061,-0.0011894535,0.08,0.0,0.0,0.0,0.0
176769048,176768822,-0.02181728,-0.013164479,-0.00077753974,0.08,0.0,0.0,0.0,0.0
176773045,176772847,-0.022486975,-0.012340975,-0.0005792689,0.08,0.0,0.0,0.0,0.0
176777013,176776822,-0.022312861,-0.012508026,-0.00014019167,0.08,0.0,0.0,0.0,0.0
176781020,176780822,-0.021616165,-0.012107915,0.00017208226,0.08,0.0,0.0,0.0,0.0
176785075,176784833,-0.02319783,-0.011533255,0.00053601776,0.08,0.0,0.0,0.0,0.0
176789066,176788822,-0.020949455,-0.011251191,0.00088372425,0.08,0.0,0.0,0.0,0.0
176793063,176792822,-0.022413645,-0.0113531705,0.0010202382,0.08,0.0,0.0,0.0,0.0
176797023,176796822,-0.021365117,-0.010766403,0.0015155888,0.08,0.0,0.0,0.0,0.0
176801020,176800822,-0.02260394,-0.011178424,0.0016158685,0.08,0.0,0.0,0.0,0.0
176805071,176804828,-0.02145189,-0.010556848,0.0014383513,0.08,0.0,0.0,0.0,0.0
176809047,176808822,-0.02211414,-0.011658093,0.0015928518,0.08,0.0,0.0,0.0,0.0
176813137,176812835,-0.021727247,-0.011864664,0.0015988983,0.08,0.0,0.0,0.0,0.0
176817015,176816822,-0.022152912,-0.011738244,0.0017055527,0.08,0.0,0.0,0.0,0.0
176821021,176820826,-0.021573009,-0.011967038,0.0017280694,0.08,0.0,0.0,0.0,0.0
176825066,176824822,-0.022393357,-0.012168171,0.0015759818,0.08,0.0,0.0,0.0,0.0
176829068,176828822,-0.02144733,-0.012273666,0.0012611975,0.08,0.0,0.0,0.0,0.0
176833093,176832822,-0.023505738,-0.012646787,0.0013276478,0.08,0.0,0.0,0.0,0.0
176837019,176836822,-0.022030814,-0.013273612,0.0015513683,0.08,0.0,0.0,0.0,0.0
176841029,176840836,-0.022729749,-0.013484348,0.0009568447,0.08,0.0,0.0,0.0,0.0
176845050,176844822,-0.021309106,-0.013741767,0.0011907559,0.08,0.0,0.0,0.0,0.0
176849065,176848871,-0.02179157,-0.01443198,0.0010264477,0.08,0.0,0.0,0.0,0.0
176853079,176852822,-0.021721406,-0.014183292,0.0008011876,0.08,0.0,0.0,0.0,0.0
176857027,176856828,-0.021984441,-0.013926867,0.00076183537,0.08,0.0,0.0,0.0,0.0
176861054,176860853,-0.021506637,-0.013098537,0.0003468758,0.08,0.0,0.0,0.0,0.0
176865045,176864822,-0.021501921,-0.013865775,-2.9911322e-05,0.08,0.0,0.0,0.0,0.0
176869023,176868822,-0.0219356,-0.013359216,-0.00059134833,0.08,0.0,0.0,0.0,0.0
176873071,176872822,-0.02131704,-0.013527,-0.0011893533,0.08,0.0,0.0,0.0,0.0
176877017,176876822,-0.02265357,-0.012744563,-0.0008490877,0.08,0.0,0.0,0.0,0.0
176881063,176880864,-0.022559322,-0.012177944,-0.0010465942,0.08,0.0,0.0,0.0,0.0
176885026,176884822,-0.022767743,-0.012901454,-0.0015275265,0.08,0.0,0.0,0.0,0.0
176889012,176888823,-0.022536129,-0.012356442,-0.0015270635,0.08,0.0,0.0,0.0,0.0
176893097,176892822,-0.022612058,-0.011245673,-0.0021394573,0.08,0.0,0.0,0.0,0.0
176897017,176896822,-0.023054175,-0.011878652,-0.0017830974,0.08,0.0,0.0,0.0,0.0
176901029,176900832,-0.022054182,-0.009745188,-0.0011089145,0.08,0.0,0.0,0.0,0.0
176905097,176904852,-0.022729661,-0.010450465,-0.0011307753,0.08,0.0,0.0,0.0,0.0
176909041,176908834,-0.022445826,-0.009902364,-0.00062201265,0.08,0.0,0.0,0.0,0.0
176913104,176912822,-0.022161731,-0.011558643,-0.0007230954,0.08,0.0,0.0,0.0,0.0
176917064,176916822,-0.021407472,-0.012113792,-0.00033476655,0.08,0.0,0.0,0.0,0.0
176921064,176920821,-0.020814382,-0.011807336,-0.00019040477,0.08,0.0,0.0,0.0,0.0
176925131,176924868,-0.021842156,-0.011746903,-0.00023702763,0.08,0.0,0.0,0.0,0.0
176929018,176928822,-0.021493675,-0.012509919,-0.00037707138,0.08,0.0,0.0,0.0,0.0
176933117,176932860,-0.021139635,-0.012408998,7.712407e-05,0.08,0.0,0.0,0.0,0.0
176937079,176936835,-0.022107035,-0.01292725,0.0001827683,0.08,0.0,0.0,0.0,0.0
176941058,176940822,-0.021996522,-0.012463899,0.00019939193,0.08,0.0,0.0,0.0,0.0
176945013,176944822,-0.022380874,-0.014185614,0.00024139333,0.08,0.0,0.0,0.0,0.0
176949021,176948822,-0.022586096,-0.013311834,0.00044895263,0.08,0.0,0.0,0.0,0.0
176953050,176952822,-0.02202366,-0.013492382,0.0009652106,0.08,0.0,0.0,0.0,0.0
176957059,176956822,-0.021471336,-0.013822007,0.0011308755,0.08,0.0,0.0,0.0,0.0
176961036,176960822,-0.02128869,-0.013747909,0.0009770738,0.08,0.0,0.0,0.0,0.0
176965031,176964833,-0.021219894,-0.014682524,0.0014389999,0.08,0.0,0.0,0.0,0.0
176969022,176968826,-0.02178465,-0.013326132,0.0013616941,0.08,0.0,0.0,0.0,0.0
176973050,176972822,-0.022180252,-0.013030248,0.0016433593,0.08,0.0,0.0,0.0,0.0
176977070,176976822,-0.02192247,-0.014091823,0.0017330835,0.08,0.0,0.0,0.0,0.0
176981096,176980822,-0.022154953,-0.012363988,0.0012481267,0.08,0.0,0.0,0.0,0.0
176985011,176984822,-0.02283521,-0.01321879,0.0011222797,0.08,0.0,0.0,0.0,0.0
176989025,176988828,-0.022254735,-0.012768233,0.0012182847,0.08,0.0,0.0,0.0,0.0
176993056,176992822,-0.022567652,-0.012181904,0.0006473569,0.08,0.0,0.0,0.0,0.0
176997067,176996822,-0.021898186,-0.011412803,0.00031244356,0.08,0.0,0.0,0.0,0.0
177001085,177000825,-0.022103073,-0.010834916,0.00010750899,0.08,0.0,0.0,0.0,0.0
177005022,177004822,-0.021840436,-0.011238764,0.0004165031,0.08,0.0,0.0,0.0,0.0
177009047,177008848,-0.021685755,-0.010819576,1.9715797e-05,0.08,0.0,0.0,0.0,0.0
177013069,177012822,-0.022374794,-0.010865042,-0.00037935568,0.08,0.0,0.0,0.0,0.0
177017069,177016859,-0.021890605,-0.011682585,-0.0006459157,0.08,0.0,0.0,0.0,0.0
177021118,177020822,-0.021830603,-0.011473521,-0.0006952499,0.08,0.0,0.0,0.0,0.0
177025013,177024822,-0.022123566,-0.011705355,-0.0005079277,0.08,0.0,0.0,0.0,0.0
177029029,177028829,-0.023020158,-0.011757607,-0.0007798695,0.08,0.0,0.0,0.0,0.0
177033014,177032822,-0.02233053,-0.012677566,-0.0007348175,0.08,0.0,0.0,0.0,0.0
177037047,177036836,-0.022514762,-0.0125660775,-0.0008990415,0.08,0.0,0.0,0.0,0.0
177041131,177040854,-0.02271234,-0.012316649,-0.00030296814,0.08,0.0,0.0,0.0,0.0
177045017,177044822,-0.022428114,-0.012569719,-0.00078384246,0.08,0.0,0.0,0.0,0.0
177049039,177048849,-0.022283161,-0.01281065,-0.0009695357,0.08,0.0,0.0,0.0,0.0
177053868,177053621,-0.021638995,-0.012916867,-0.0007655907,0.08,0.0,0.0,0.0,0.0
177057881,177057651,-0.0229635,-0.013901762,-0.0008415856,0.08,0.0,0.0,0.0,0.0
177061864,177061627,-0.021847852,-0.014362051,-0.0010184877,0.08,0.0,0.0,0.0,0.0
177066590,177066421,-0.022145752,-0.0148000615,-0.0008464257,0.08,0.0,0.0,0.0,0.0
177070647,177070439,-0.02158413,-0.013355419,-0.0006161812,0.08021937,0.0,0.0,0.0,0.0
177074666,177074423,-0.021147719,-0.013470804,-0.00030325173,0.08021937,0.0,0.0,0.0,0.0
177078601,177078422,-0.019829774,-0.012700186,-0.00010985423,0.08021937,0.0,0.0,0.0,0.0
177082643,177082448,-0.020467855,-0.0134958355,0.00085718575,0.08021937,0.0,0.0,0.0,0.0
177086624,177086422,-0.021860957,-0.012231473,0.00048762286,0.08095852,0.0,0.0,0.0,0.0
177090616,177090422,-0.021925967,-0.013242888,0.0006168731,0.08095852,0.0,0.0,0.0,0.0
177094687,177094422,-0.021518871,-0.012563349,0.00072736584,0.08095852,0.0,0.0,0.0,0.0
177098758,177098422,-0.02295776,-0.011892768,0.0011763977,0.08095852,0.0,0.0,0.0,0.0
177102659,177102427,-0.022706311,-0.011536521,0.00093530584,0.08095852,0.0,0.0,0.0,0.0
177106615,177106421,-0.022126757,-0.011111195,0.0010333976,0.08095852,0.0,0.0,0.0,0.0
177110627,177110422,-0.020713547,-0.0110391695,0.0011907968,0.0820662,0.0,0.0,0.0,0.0
177114697,177114422,-0.022499705,-0.010859607,0.0013938053,0.0820662,0.0,0.0,0.0,0.0
177118669,177118422,-0.023037462,-0.011567965,0.00085613347,0.0820662,0.0,0.0,0.0,0.0
177122678,177122428,-0.023056688,-0.011692989,0.0005583915,0.0820662,0.0,0.0,0.0,0.0
177126621,177126422,-0.023010438,-0.011131938,0.00074728153,0.08320825,0.0,0.0,0.0,0.0
177130616,177130422,-0.022245677,-0.011223085,0.0005841114,0.08320825,0.0,0.0,0.0,0.0
177134724,177134472,-0.021819273,-0.011854848,0.0007149695,0.08320825,0.0,0.0,0.0,0.0
177138650,177138422,-0.021003839,-0.012033554,0.0009313345,0.08320825,0.0,0.0,0.0,0.0
177142663,177142422,-0.022178724,-0.012238777,0.0007976225,0.08320825,0.0,0.0,0.0,0.0
177146622,177146425,-0.022868061,-0.012151772,0.00018316587,0.08320825,0.0,0.0,0.0,0.0
177150643,177150439,-0.022773895,-0.013612427,0.00036300565,0.08604577,0.0,0.0,0.0,0.0
177154667,177154422,-0.022556134,-0.0133999195,0.00019663377,0.08604577,0.0,0.0,0.0,0.0
177158666,177158422,-0.022955688,-0.013449191,5.7947625e-05,0.08604577,0.0,0.0,0.0,0.0
177162664,177162422,-0.023191458,-0.0133799445,0.00010826485,0.08604577,0.0,0.0,0.0,0.0
177166647,177166447,-0.02272369,-0.014130725,-0.00037905338,0.08604577,0.0,0.0,0.0,0.0
177170649,177170451,-0.022521911,-0.013997612,-0.0005086465,0.08604577,0.0,0.0,0.0,0.0
177174662,177174428,-0.02354033,-0.014075814,-0.00036604708,0.092574276,0.0,0.0,0.0,0.0
177178652,177178422,-0.021723468,-0.013573369,-0.0007421433,0.092574276,0.0,0.0,0.0,0.0
177182686,177182422,-0.022603147,-0.013855423,-0.000816947,0.092574276,0.0,0.0,0.0,0.0
177186637,177186422,-0.02131135,-0.012111084,-0.00039389875,0.092574276,0.0,0.0,0.0,0.0
177190674,177190461,-0.0219452,-0.013275392,-0.0005228923,0.092574276,0.0,0.0,0.0,0.0
177194663,177194428,-0.021373171,-0.013163101,-0.00049866986,0.092574276,0.0,0.0,0.0,0.0
177198690,177198422,-0.021378927,-0.012445898,-0.00028520977,0.09947659,0.0,0.0,0.0,0.0
177202716,177202421,-0.02204289,-0.012357438,0.00024089313,0.09947659,0.0,0.0,0.0,0.0
177206625,177206422,-0.02131031,-0.011371227,0.0004488578,0.09947659,0.0,0.0,0.0,0.0
177210673,177210465,-0.01970322,-0.012405664,0.00031813892,0.09947659,0.0,0.0,0.0,0.0
177214627,177214422,-0.021572977,-0.010787669,0.00044391426,0.10228437,0.0,0.0,0.0,0.0
177218673,177218472,-0.020918014,-0.011321447,0.0003884463,0.10228437,0.0,0.0,0.0,0.0
177222708,177222422,-0.022440897,-0.010764244,0.0001636213,0.10228437,0.0,0.0,0.0,0.0
177226618,177226422,-0.020816442,-0.01143953,9.4683215e-05,0.10228437,0.0,0.0,0.0,0.0
177230671,177230459,-0.02336689,-0.011932205,9.523806e-06,0.10228437,0.0,0.0,0.0,0.0
177234626,177234428,-0.021659909,-0.0117874425,0.00013728287,0.10228437,0.0,0.0,0.0,0.0
177238662,177238456,-0.023248984,-0.012013067,0.00015117633,0.101970345,0.0,0.0,0.0,0.0
177242697,177242422,-0.022417102,-0.011340868,0.0003252294,0.101970345,0.0,0.0,0.0,0.0
177246621,177246422,-0.023836318,-0.012161383,0.00030235064,0.101970345,0.0,0.0,0.0,0.0
177250657,177250421,-0.022366267,-0.011978403,0.00086263753,0.101970345,0.0,0.0,0.0,0.0
177254626,177254422,-0.022392789,-0.013487258,0.00029336,0.101970345,0.0,0.0,0.0,0.0
177258644,177258422,-0.023285547,-0.012627865,0.0005406051,0.101970345,0.0,0.0,0.0,0.0
177262701,177262422,-0.023048071,-0.013397751,0.00061583833,0.10108514,0.0,0.0,0.0,0.0
177266617,177266422,-0.023628565,-0.014581039,0.0007779187,0.10108514,0.0,0.0,0.0,0.0
177270664,177270421,-0.02310228,-0.014176874,0.0007426641,0.10108514,0.0,0.0,0.0,0.0
177274622,177274422,-0.023670927,-0.014144856,0.000633673,0.10108514,0.0,0.0,0.0,0.0
177278631,177278422,-0.023668626,-0.013556469,0.0003426242,0.10108514,0.0,0.0,0.0,0.0
177282674,177282422,-0.021978782,-0.014237125,0.00036335067,0.10108514,0.0,0.0,0.0,0.0
177286684,177286427,-0.02361489,-0.014101147,0.00023938181,0.10038076,0.0,0.0,0.0,0.0
177290640,177290422,-0.023655057,-0.013402554,0.00035697667,0.10038076,0.0,0.0,0.0,0.0
177294624,177294422,-0.023373703,-0.013534832,0.00019698,0.10038076,0.0,0.0,0.0,0.0
177298725,177298423,-0.022718115,-0.013066213,0.00032900792,0.10038076,0.0,0.0,0.0,0.0
177302711,177302471,-0.023358919,-0.012921548,0.0004980153,0.10038076,0.0,0.0,0.0,0.0
177306659,177306422,-0.02210068,-0.012732461,0.00037558898,0.10038076,0.0,0.0,0.0,0.0
177310653,177310422,-0.022648126,-0.013043512,-1.7664202e-05,0.10007448,0.0,0.0,0.0,0.0
177314614,177314422,-0.020669969,-0.011868845,0.00028902313,0.10007448,0.0,0.0,0.0,0.0
177318666,177318444,-0.023747467,-0.011269537,0.00017398834,0.10007448,0.0,0.0,0.0,0.0
177322650,177322422,-0.021705123,-0.011362767,-2.9937386e-05,0.10007448,0.0,0.0,0.0,0.0
177326657,177326422,-0.022166157,-0.0118322475,-0.00035333965,0.10031858,0.0,0.0,0.0,0.0
177330645,177330422,-0.02336883,-0.011804784,0.00018032918,0.10031858,0.0,0.0,0.0,0.0
177334625,177334422,-0.02234125,-0.011680566,-4.8164162e-05,0.10031858,0.0,0.0,0.0,0.0
177338665,177338463,-0.023773465,-0.012361799,-0.00027235018,0.10031858,0.0,0.0,0.0,0.0
177342692,177342422,-0.02201621,-0.01151891,-0.00015565814,0.10031858,0.0,0.0,0.0,0.0
177346667,177346422,-0.023729721,-0.012313275,-0.0005951243,0.10031858,0.0,0.0,0.0,0.0
177350692,177350422,-0.022660108,-0.012440441,-0.0003105951,0.10090748,0.0,0.0,0.0,0.0
177354624,177354422,-0.023061821,-0.012208713,-0.00047220464,0.10090748,0.0,0.0,0.0,0.0
177358670,177358453,-0.02225048,-0.013802522,-0.00026501788,0.10090748,0.0,0.0,0.0,0.0
177362625,177362422,-0.022833792,-0.012963341,-0.00016023654,0.10090748,0.0,0.0,0.0,0.0
177366667,177366422,-0.02263389,-0.014747298,-8.643557e-05,0.10107731,0.0,0.0,0.0,0.0
177370704,177370422,-0.024065027,-0.014291654,-6.660624e-05,0.10107731,0.0,0.0,0.0,0.0
177374629,177374422,-0.024281375,-0.014194292,4.1312796e-07,0.10107731,0.0,0.0,0.0,0.0
177378667,177378427,-0.024413515,-0.013638515,0.000114143535,0.10107731,0.0,0.0,0.0,0.0
177382631,177382422,-0.02370244,-0.013995142,-0.00020025222,0.10107731,0.0,0.0,0.0,0.0
177386618,177386423,-0.021920757,-0.013972273,0.00030302833,0.10107731,0.0,0.0,0.0,0.0
177390704,177390422,-0.023583535,-0.013585321,0.00021034032,0.10058602,0.0,0.0,0.0,0.0
177394616,177394422,-0.02442534,-0.014082724,0.00042167536,0.10058602,0.0,0.0,0.0,0.0
177398670,177398422,-0.024194483,-0.0143717,5.6865876e-05,0.10058602,0.0,0.0,0.0,0.0
177402621,177402422,-0.023970654,-0.013453145,0.00059187214,0.10058602,0.0,0.0,0.0,0.0
177406643,177406438,-0.025668161,-0.012772012,0.00026533307,0.10058602,0.0,0.0,0.0,0.0
177410683,177410422,-0.02360228,-0.012893071,5.6713754e-05,0.10058602,0.0,0.0,0.0,0.0
177414625,177414422,-0.024658285,-0.013546972,0.00040209302,0.10015183,0.0,0.0,0.0,0.0
177418693,177418470,-0.024758844,-0.012764349,0.0006612428,0.10015183,0.0,0.0,0.0,0.0
177422621,177422422,-0.02471572,-0.012739489,0.00072187185,0.10015183,0.0,0.0,0.0,0.0
177426648,177426437,-0.02450896,-0.012128845,0.00078643515,0.10015183,0.0,0.0,0.0,0.0
177430686,177430422,-0.022852397,-0.0113218315,0.0004427056,0.10015183,0.0,0.0,0.0,0.0
177434630,177434422,-0.023803256,-0.011197034,0.0006180358,0.10015183,0.0,0.0,0.0,0.0
177438663,177438422,-0.022158049,-0.011557793,0.0008227829,0.10008759,0.0,0.0,0.0,0.0
177442623,177442422,-0.022664648,-0.013079209,0.0006251467,0.10008759,0.0,0.0,0.0,0.0
177446641,177446428,-0.022700427,-0.0134342015,0.00069001946,0.10008759,0.0,0.0,0.0,0.0
177450733,177450427,-0.02356376,-0.012794294,0.00039116765,0.10008759,0.0,0.0,0.0,0.0
177454667,177454421,-0.02345717,-0.013631762,0.00013509784,0.10014887,0.0,0.0,0.0,0.0
177458669,177458423,-0.02316165,-0.013449555,7.181446e-05,0.10014887,0.0,0.0,0.0,0.0
177462636,177462422,-0.022070935,-0.013512938,0.00018727109,0.10014887,0.0,0.0,0.0,0.0
177466655,177466448,-0.024077257,-0.01293366,-0.0006759333,0.10014887,0.0,0.0,0.0,0.0
177470737,177470477,-0.023430487,-0.013168408,-0.00054433965,0.10014887,0.0,0.0,0.0,0.0
177474668,177474422,-0.022913724,-0.013342902,-0.0007304551,0.10014887,0.0,0.0,0.0,0.0
177478674,177478423,-0.024970101,-0.01464683,-0.00043860415,0.10062284,0.0,0.0,0.0,0.0
177482617,177482422,-0.022845957,-0.015087435,-0.00016179887,0.10062284,0.0,0.0,0.0,0.0
177486650,177486432,-0.024727156,-0.015316595,-0.00027566974,0.10062284,0.0,0.0,0.0,0.0
177490685,177490425,-0.023256352,-0.014931705,-0.0004114992,0.10062284,0.0,0.0,0.0,0.0
177494675,177494436,-0.025290243,-0.01459268,-0.00031877006,0.10062284,0.0,0.0,0.0,0.0
177498669,177498422,-0.024092527,-0.014575837,-0.0001481527,0.10062284,0.0,0.0,0.0,0.0
177502626,177502422,-0.02416946,-0.014512833,4.55236e-05,0.101224735,0.0,0.0,0.0,0.0
177506643,177506449,-0.025098728,-0.01348139,0.00019189116,0.101224735,0.0,0.0,0.0,0.0
177510660,177510436,-0.02593658,-0.014283775,0.0001866788,0.101224735,0.0,0.0,0.0,0.0
177514659,177514422,-0.024596691,-0.013062856,0.0002559977,0.101224735,0.0,0.0,0.0,0.0
177518689,177518421,-0.02537773,-0.013847716,0.00044953421,0.101224735,0.0,0.0,0.0,0.0
177522621,177522422,-0.024314791,-0.012417799,0.00032334542,0.101224735,0.0,0.0,0.0,0.0
177526649,177526422,-0.024879532,-0.013058138,0.00030541953,0.10091559,0.0,0.0,0.0,0.0
177530620,177530422,-0.024768073,-0.012587637,0.00041113677,0.10091559,0.0,0.0,0.0,0.0
177534668,177534422,-0.025759457,-0.011997215,0.00060023606,0.10091559,0.0,0.0,0.0,0.0
177538697,177538422,-0.026158905,-0.012979902,0.0006338717,0.10091559,0.0,0.0,0.0,0.0
177542632,177542427,-0.02501798,-0.012454756,0.0006187721,0.10091559,0.0,0.0,0.0,0.0
177546651,177546422,-0.025475962,-0.013720957,0.0002840914,0.10091559,0.0,0.0,0.0,0.0
177550630,177550422,-0.023938874,-0.012687964,0.0006495234,0.10046413,0.0,0.0,0.0,0.0
177554623,177554431,-0.026403954,-0.012742438,0.00068468513,0.10046413,0.0,0.0,0.0,0.0
177558694,177558422,-0.024670798,-0.01373448,0.00042543293,0.10046413,0.0,0.0,0.0,0.0
177562633,177562428,-0.024572786,-0.013257024,0.00031549082,0.10046413,0.0,0.0,0.0,0.0
177566679,177566422,-0.025082748,-0.0140963225,0.0007543271,0.10046413,0.0,0.0,0.0,0.0
177570635,177570422,-0.024822544,-0.012931169,0.00035634355,0.10046413,0.0,0.0,0.0,0.0
177574665,177574447,-0.025241796,-0.015823629,0.00023014152,0.10079658,0.0,0.0,0.0,0.0
177578705,177578421,-0.024684932,-0.01484259,-6.071211e-05,0.10079658,0.0,0.0,0.0,0.0
177582639,177582422,-0.025306227,-0.015889606,-0.00028234193,0.10079658,0.0,0.0,0.0,0.0
177586664,177586422,-0.024319788,-0.015681988,-0.00049939094,0.10079658,0.0,0.0,0.0,0.0
177590629,177590422,-0.024768896,-0.015249946,-0.0002768549,0.10122719,0.0,0.0,0.0,0.0
177594678,177594461,-0.023707848,-0.014695778,-0.00028786002,0.10122719,0.0,0.0,0.0,0.0
177598707,177598422,-0.024512205,-0.014281239,-0.00036677666,0.10122719,0.0,0.0,0.0,0.0
177602676,177602422,-0.023600021,-0.015008161,-0.00033017938,0.10122719,0.0,0.0,0.0,0.0
177606673,177606422,-0.023631983,-0.014772508,0.00021684161,0.10122719,0.0,0.0,0.0,0.0
177610623,177610422,-0.02459756,-0.014131486,2.9667463e-05,0.10122719,0.0,0.0,0.0,0.0
177614646,177614437,-0.024868025,-0.013921021,-5.5363176e-05,0.101101846,0.0,0.0,0.0,0.0
177618708,177618422,-0.02495324,-0.013691941,-0.00037969096,0.101101846,0.0,0.0,0.0,0.0
177622689,177622422,-0.025933912,-0.014624005,-6.292721e-05,0.101101846,0.0,0.0,0.0,0.0
177626679,177626433,-0.025002472,-0.012810168,0.00046963524,0.101101846,0.0,0.0,0.0,0.0
177630631,177630422,-0.026351169,-0.013769093,0.0005532248,0.10053247,0.0,0.0,0.0,0.0
177634642,177634440,-0.024908977,-0.0136141265,0.00031458528,0.10053247,0.0,0.0,0.0,0.0
177638698,177638459,-0.025455592,-0.012638205,0.00040170815,0.10053247,0.0,0.0,0.0,0.0
177642677,177642421,-0.026490608,-0.013266548,5.7411595e-05,0.10053247,0.0,0.0,0.0,0.0
177646693,177646449,-0.025020288,-0.013200238,0.0005199196,0.10053247,0.0,0.0,0.0,0.0
177650626,177650422,-0.026000509,-0.01400505,0.0007254094,0.10053247,0.0,0.0,0.0,0.0
177654661,177654442,-0.026215069,-0.013369825,0.00047532903,0.10012724,0.0,0.0,0.0,0.0
177658624,177658422,-0.026767567,-0.013406217,0.000267206,0.10012724,0.0,0.0,0.0,0.0
177662673,177662422,-0.025826504,-0.013344519,0.0003456279,0.10012724,0.0,0.0,0.0,0.0
177666738,177666457,-0.025423469,-0.013196398,0.00040475445,0.10012724,0.0,0.0,0.0,0.0
177670633,177670422,-0.025895057,-0.014149615,0.00018816497,0.10012724,0.0,0.0,0.0,0.0
177674657,177674422,-0.025738118,-0.015309352,0.00036690725,0.10012724,0.0,0.0,0.0,0.0
177678652,177678422,-0.025793295,-0.016101558,0.00038527235,0.10008899,0.0,0.0,0.0,0.0
177682677,177682422,-0.025846308,-0.015366446,0.00019364367,0.10008899,0.0,0.0,0.0,0.0
177686747,177686461,-0.027092114,-0.014877776,0.00028587325,0.10008899,0.0,0.0,0.0,0.0
177690722,177690423,-0.024936914,-0.015897814,-0.00015228479,0.10008899,0.0,0.0,0.0,0.0
177694673,177694421,-0.026406802,-0.015553339,0.00014133376,0.10008899,0.0,0.0,0.0,0.0
177698624,177698422,-0.026394013,-0.015586775,-0.00043606828,0.10008899,0.0,0.0,0.0,0.0
177702680,177702422,-0.025362648,-0.0154196825,-0.0006572873,0.10037358,0.0,0.0,0.0,0.0
177706753,177706473,-0.02526309,-0.015655275,-0.00041844137,0.10037358,0.0,0.0,0.0,0.0
177710630,177710422,-0.025343677,-0.014821874,-0.000105162624,0.10037358,0.0,0.0,0.0,0.0
177714669,177714422,-0.025467437,-0.014654094,-0.00038928044,0.10037358,0.0,0.0,0.0,0.0
177718626,177718422,-0.025914164,-0.014651176,-1.2419197e-05,0.1007056,0.0,0.0,0.0,0.0
177722670,177722459,-0.024909044,-0.014282561,0.00021785918,0.1007056,0.0,0.0,0.0,0.0
177726729,177726427,-0.026136668,-0.013956233,7.784502e-05,0.1007056,0.0,0.0,0.0,0.0
177730625,177730422,-0.02505921,-0.013280886,0.00012744672,0.1007056,0.0,0.0,0.0,0.0
177734694,177734422,-0.02501941,-0.014451727,0.00037733975,0.1007056,0.0,0.0,0.0,0.0
177738600,177738422,-0.025531389,-0.014868897,0.000530182,0.1007056,0.0,0.0,0.0,0.0
177742639,177742459,-0.024902748,-0.013627491,0.0005710072,0.1005532,0.0,0.0,0.0,0.0
177746692,177746427,-0.027906,-0.014387395,0.00076757686,0.1005532,0.0,0.0,0.0,0.0
177750629,177750422,-0.025136605,-0.013962385,0.00069639244,0.1005532,0.0,0.0,0.0,0.0
177754644,177754422,-0.028068399,-0.014299462,0.00021051054,0.1005532,0.0,0.0,0.0,0.0
177758599,177758422,-0.026143309,-0.01363167,0.0005104382,0.1005532,0.0,0.0,0.0,0.0
177762645,177762458,-0.026173526,-0.014180582,0.0004931353,0.1005532,0.0,0.0,0.0,0.0
177766675,177766424,-0.025679238,-0.014869899,0.0006772561,0.100212514,0.0,0.0,0.0,0.0
177770606,177770422,-0.026450595,-0.01440395,0.00022623276,0.100212514,0.0,0.0,0.0,0.0
177774633,177774421,-0.027411913,-0.014448676,0.0006688549,0.100212514,0.0,0.0,0.0,0.0
177778608,177778425,-0.026145158,-0.014522755,0.0003063273,0.100212514,0.0,0.0,0.0,0.0
177782613,177782428,-0.026964383,-0.015564166,0.0005794131,0.10033581,0.0,0.0,0.0,0.0
177786674,177786422,-0.026846267,-0.015700934,0.000434816,0.10033581,0.0,0.0,0.0,0.0
177790627,177790422,-0.027594272,-0.016363412,0.00035667222,0.10033581,0.0,0.0,0.0,0.0
177794629,177794422,-0.02634722,-0.016371977,4.032896e-06,0.10033581,0.0,0.0,0.0,0.0
177798602,177798422,-0.02801496,-0.016002927,0.00015072207,0.10033581,0.0,0.0,0.0,0.0
177802618,177802447,-0.027769068,-0.015974103,-0.00024739094,0.10033581,0.0,0.0,0.0,0.0
177806653,177806471,-0.026606735,-0.015979778,-0.0002821043,0.10088683,0.0,0.0,0.0,0.0
177810637,177810422,-0.026702523,-0.016283302,-0.0004190313,0.10088683,0.0,0.0,0.0,0.0
177814640,177814422,-0.026798043,-0.014901613,-0.0004729541,0.10088683,0.0,0.0,0.0,0.0
177818598,177818422,-0.027036395,-0.0150483325,-0.00049780257,0.10088683,0.0,0.0,0.0,0.0
177822643,177822422,-0.02612811,-0.0150036365,-0.0003951165,0.10088683,0.0,0.0,0.0,0.0
177826608,177826425,-0.027090508,-0.014178224,-1.5526748e-05,0.10088683,0.0,0.0,0.0,0.0
177830637,177830422,-0.027181227,-0.014243128,-0.00014185626,0.10106629,0.0,0.0,0.0,0.0
177834638,177834422,-0.027029127,-0.014608702,9.760211e-05,0.10106629,0.0,0.0,0.0,0.0
177838597,177838422,-0.026025603,-0.015124835,-9.103742e-05,0.10106629,0.0,0.0,0.0,0.0
177842634,177842422,-0.026604604,-0.013771569,0.00020143311,0.10106629,0.0,0.0,0.0,0.0
177846618,177846422,-0.026809141,-0.01452362,0.00045048704,0.10106629,0.0,0.0,0.0,0.0
177850634,177850422,-0.026047755,-0.013750872,-5.281606e-05,0.10106629,0.0,0.0,0.0,0.0
177854642,177854422,-0.026469838,-0.0138670085,0.00074313313,0.10058599,0.0,0.0,0.0,0.0
177858598,177858422,-0.028096717,-0.012628821,0.000672407,0.10058599,0.0,0.0,0.0,0.0
177862640,177862422,-0.02649933,-0.014100297,0.00087135256,0.10058599,0.0,0.0,0.0,0.0
177866613,177866422,-0.026317129,-0.014823575,0.00027802036,0.10058599,0.0,0.0,0.0,0.0
177870680,177870439,-0.02576934,-0.014746181,0.00091657107,0.10058599,0.0,0.0,0.0,0.0
177874740,177874423,-0.02789274,-0.015560752,0.0009072535,0.10058599,0.0,0.0,0.0,0.0
177878603,177878422,-0.026096627,-0.015833464,0.0006277546,0.10015398,0.0,0.0,0.0,0.0
177882619,177882422,-0.027396327,-0.016584931,0.00038776768,0.10015398,0.0,0.0,0.0,0.0
177886607,177886422,-0.0283966,-0.015356108,0.0003789283,0.10015398,0.0,0.0,0.0,0.0
177890606,177890428,-0.028040808,-0.015852986,0.00073040073,0.10015398,0.0,0.0,0.0,0.0
177894643,177894422,-0.02758725,-0.016213495,0.000529577,0.10015398,0.0,0.0,0.0,0.0
177898713,177898423,-0.027015451,-0.016182298,0.0007000235,0.10015398,0.0,0.0,0.0,0.0
177902668,177902422,-0.027662653,-0.015969863,0.00093411095,0.100088395,0.0,0.0,0.0,0.0
177906632,177906423,-0.02775347,-0.016399477,0.0005522294,0.100088395,0.0,0.0,0.0,0.0
177910653,177910447,-0.0263912,-0.016589135,0.00028357067,0.100088395,0.0,0.0,0.0,0.0
177914706,177914422,-0.029410908,-0.016921142,6.0108105e-06,0.100088395,0.0,0.0,0.0,0.0
177918625,177918422,-0.027720757,-0.015803179,0.00018402768,0.10014875,0.0,0.0,0.0,0.0
177922679,177922438,-0.02792508,-0.016366757,-9.756239e-05,0.10014875,0.0,0.0,0.0,0.0
177926641,177926422,-0.026727295,-0.01582569,0.0001820664,0.10014875,0.0,0.0,0.0,0.0
177930649,177930431,-0.029307337,-0.0147615,-9.209874e-05,0.10014875,0.0,0.0,0.0,0.0
177934718,177934422,-0.028396072,-0.015098514,-0.0003245424,0.10014875,0.0,0.0,0.0,0.0
177938631,177938428,-0.027722543,-0.01476597,-0.00013288086,0.10014875,0.0,0.0,0.0,0.0
177942664,177942422,-0.027842447,-0.014989189,-0.00032214457,0.1001839,0.0,0.0,0.0,0.0
177946618,177946422,-0.02899145,-0.014968369,-0.00031006633,0.1001839,0.0,0.0,0.0,0.0
177950664,177950422,-0.02710807,-0.014116037,-0.00040471047,0.1001839,0.0,0.0,0.0,0.0
177954711,177954421,-0.027824013,-0.014665381,-0.00041731342,0.1001839,0.0,0.0,0.0,0.0
177958667,177958422,-0.028062232,-0.013821672,-3.5416964e-05,0.1001839,0.0,0.0,0.0,0.0
177962661,177962428,-0.028869014,-0.01401301,0.00011163199,0.1001839,0.0,0.0,0.0,0.0
177967396,177967221,-0.026416846,-0.014477798,-8.155901e-06,0.100185074,0.0,0.0,0.0,0.0
177971467,177971260,-0.02836253,-0.014439114,0.0004949502,0.100185074,0.0,0.0,0.0,0.0
177976268,177976021,-0.02732918,-0.014985063,0.0005014214,0.100185074,0.0,0.0,0.0,0.0
177980225,177980022,-0.028188266,-0.015215406,0.00028318688,0.100185074,0.0,0.0,0.0,0.0
177984259,177984022,-0.02722583,-0.017126743,1.9645024e-05,0.100178614,0.0,0.0,0.0,0.0
177988247,177988022,-0.028104551,-0.017068954,-4.080641e-06,0.100178614,0.0,0.0,0.0,0.0
177992271,177992022,-0.027084254,-0.016682297,0.0003868095,0.100178614,0.0,0.0,0.0,0.0
177996255,177996021,-0.028506143,-0.016987247,0.00028990948,0.100178614,0.0,0.0,0.0,0.0
178000234,178000022,-0.027666315,-0.015879648,0.00010998247,0.100178614,0.0,0.0,0.0,0.0
178004265,178004022,-0.029036582,-0.015716136,0.00019054068,0.100178614,0.0,0.0,0.0,0.0
178008228,178008023,-0.02803556,-0.015539658,0.00028949868,0.10039538,0.0,0.0,0.0,0.0
178012263,178012022,-0.027608406,-0.016578201,0.00019580575,0.10039538,0.0,0.0,0.0,0.0
178016273,178016022,-0.027550066,-0.017161466,0.000880318,0.10039538,0.0,0.0,0.0,0.0
178020231,178020021,-0.028249288,-0.016406335,0.0007952552,0.10039538,0.0,0.0,0.0,0.0
178024287,178024028,-0.028285192,-0.016369421,0.0008231552,0.10039538,0.0,0.0,0.0,0.0
178028234,178028022,-0.028394392,-0.016140116,0.0009903798,0.10039538,0.0,0.0,0.0,0.0
178032290,178032026,-0.028661517,-0.01592986,0.0004937861,0.10091546,0.0,0.0,0.0,0.0
178036269,178036022,-0.028405149,-0.016327087,0.00059375894,0.10091546,0.0,0.0,0.0,0.0
178040257,178040022,-0.028503098,-0.016443087,0.00039485077,0.10091546,0.0,0.0,0.0,0.0
178044280,178044028,-0.027593412,-0.016387895,0.0006405782,0.10091546,0.0,0.0,0.0,0.0
178048234,178048022,-0.029801201,-0.015136139,0.00053546834,0.10128459,0.0,0.0,0.0,0.0
178052301,178052048,-0.028935498,-0.015463758,0.00014219104,0.10128459,0.0,0.0,0.0,0.0
178056271,178056022,-0.030290592,-0.014995759,-0.0002338033,0.10128459,0.0,0.0,0.0,0.0
178060225,178060022,-0.030089317,-0.015147634,-0.0001844775,0.10128459,0.0,0.0,0.0,0.0
178064462,178064022,-0.02946822,-0.015020604,-0.00020003764,0.10128459,0.0,0.0,0.0,0.0
178068198,178068022,-0.029352456,-0.014395781,-1.561318e-05,0.10128459,0.0,0.0,0.0,0.0
178072309,178072066,-0.028623136,-0.015044843,0.00027734553,0.10109977,0.0,0.0,0.0,0.0
178076291,178076022,-0.028944338,-0.014655809,0.00027531027,0.10109977,0.0,0.0,0.0,0.0
178080227,178080022,-0.02904119,-0.015558434,0.00034682828,0.10109977,0.0,0.0,0.0,0.0
178084227,178084022,-0.028580429,-0.01562673,0.00016947303,0.10109977,0.0,0.0,0.0,0.0
178088234,178088021,-0.027621148,-0.016396476,0.0003583818,0.10109977,0.0,0.0,0.0,0.0
178092227,178092045,-0.028634306,-0.016495515,0.00033270445,0.10109977,0.0,0.0,0.0,0.0
178096237,178096022,-0.029149273,-0.016307317,0.00064674974,0.10073983,0.0,0.0,0.0,0.0
178100194,178100022,-0.029016225,-0.01680251,0.00017346983,0.10073983,0.0,0.0,0.0,0.0
178104222,178104022,-0.027672935,-0.016600484,-0.00022478492,0.10073983,0.0,0.0,0.0,0.0
178108192,178108022,-0.029457381,-0.017099248,-6.519074e-05,0.10073983,0.0,0.0,0.0,0.0
178112243,178112052,-0.028459087,-0.01758739,5.1602292e-05,0.10073983,0.0,0.0,0.0,0.0
178116253,178116027,-0.028459407,-0.01755042,-0.0002523262,0.10073983,0.0,0.0,0.0,0.0
178120196,178120022,-0.028512802,-0.016718695,-0.000105947154,0.10064302,0.0,0.0,0.0,0.0
178124236,178124022,-0.029121855,-0.015927514,7.300912e-05,0.10064302,0.0,0.0,0.0,0.0
178128197,178128022,-0.028505575,-0.016833678,0.00061289466,0.10064302,0.0,0.0,0.0,0.0
178132234,178132022,-0.02822999,-0.015788019,0.00037122075,0.10064302,0.0,0.0,0.0,0.0
178136248,178136028,-0.028841883,-0.016429832,0.0009125179,0.10064302,0.0,0.0,0.0,0.0
178140203,178140022,-0.029152647,-0.01613811,0.0009114595,0.10064302,0.0,0.0,0.0,0.0
178144258,178144022,-0.028479755,-0.016942859,0.0008897613,0.10045835,0.0,0.0,0.0,0.0
178148205,178148021,-0.02904304,-0.016558798,0.0007988955,0.10045835,0.0,0.0,0.0,0.0
178152254,178152021,-0.029601434,-0.015844302,0.0004451269,0.10045835,0.0,0.0,0.0,0.0
178156434,178156022,-0.029707346,-0.016110823,0.0007446504,0.10045835,0.0,0.0,0.0,0.0
178160248,178160022,-0.028779149,-0.01584383,0.0003944761,0.10018971,0.0,0.0,0.0,0.0
178164240,178164022,-0.029444007,-0.015640013,8.733635e-05,0.10018971,0.0,0.0,0.0,0.0
178168201,178168022,-0.03048766,-0.015507362,0.0001663328,0.10018971,0.0,0.0,0.0,0.0
178172240,178172022,-0.029910395,-0.015344387,-3.0305695e-05,0.10018971,0.0,0.0,0.0,0.0
178176250,178176071,-0.030271946,-0.015710032,0.00034745675,0.10018971,0.0,0.0,0.0,0.0
178180442,178180031,-0.029957253,-0.015116842,-0.00011045994,0.10018971,0.0,0.0,0.0,0.0
178184230,178184022,-0.031062635,-0.015415873,-2.4121415e-05,0.100126594,0.0,0.0,0.0,0.0
178188198,178188028,-0.028934132,-0.016529616,0.00039393772,0.100126594,0.0,0.0,0.0,0.0
178192224,178192022,-0.029902931,-0.016318256,0.00012202718,0.100126594,0.0,0.0,0.0,0.0
178196219,178196037,-0.029956054,-0.016584476,0.0004618597,0.100126594,0.0,0.0,0.0,0.0
178200301,178200066,-0.030425277,-0.0167105,0.0004540815,0.100126594,0.0,0.0,0.0,0.0
178204194,178204022,-0.030149112,-0.01697563,0.0005405354,0.100126594,0.0,0.0,0.0,0.0
178208228,178208028,-0.030215846,-0.017099306,0.00026553872,0.10015588,0.0,0.0,0.0,0.0
178212230,178212022,-0.030495001,-0.015923407,0.00044301528,0.10015588,0.0,0.0,0.0,0.0
178216200,178216022,-0.029340241,-0.017226066,0.00028132272,0.10015588,0.0,0.0,0.0,0.0
178220296,178220058,-0.028950782,-0.017693363,-0.00022510275,0.10015588,0.0,0.0,0.0,0.0
178224205,178224022,-0.030153407,-0.017107014,-0.00011892743,0.10015588,0.0,0.0,0.0,0.0
178228230,178228028,-0.02894987,-0.017512396,-0.00022908661,0.10015588,0.0,0.0,0.0,0.0
178232250,178232022,-0.029719768,-0.016894395,-4.9000446e-06,0.10017907,0.0,0.0,0.0,0.0
178236215,178236022,-0.02990195,-0.016624184,0.00019980405,0.10017907,0.0,0.0,0.0,0.0
178240263,178240026,-0.029133271,-0.016242633,0.00084973255,0.10017907,0.0,0.0,0.0,0.0
178244270,178244021,-0.028848518,-0.016833255,0.00076646876,0.10017907,0.0,0.0,0.0,0.0
178248241,178248022,-0.02777975,-0.016502347,0.00042030023,0.10017907,0.0,0.0,0.0,0.0
178252445,178252022,-0.0296486,-0.017113235,0.00032103946,0.10017907,0.0,0.0,0.0,0.0
178256230,178256022,-0.028997472,-0.015604702,0.0004158522,0.10062061,0.0,0.0,0.0,0.0
178260290,178260097,-0.030458475,-0.016988754,0.0005170775,0.10062061,0.0,0.0,0.0,0.0
178264258,178264022,-0.029928096,-0.015786588,0.00059308193,0.10062061,0.0,0.0,0.0,0.0
178268224,178268022,-0.030156558,-0.017137531,0.00067939906,0.10062061,0.0,0.0,0.0,0.0
178272266,178272022,-0.030319776,-0.015736567,0.0010524052,0.10062061,0.0,0.0,0.0,0.0
178276215,178276021,-0.030431692,-0.016529635,0.00081715523,0.10062061,0.0,0.0,0.0,0.0
178280280,178280028,-0.029786957,-0.015980126,0.0005212384,0.10165672,0.0,0.0,0.0,0.0
178284267,178284021,-0.031399846,-0.015823178,0.00021029939,0.10165672,0.0,0.0,0.0,0.0
178288221,178288022,-0.03159508,-0.016669193,-1.0405471e-05,0.10165672,0.0,0.0,0.0,0.0
178292263,178292022,-0.030872656,-0.016999112,0.00016002999,0.10165672,0.0,0.0,0.0,0.0
178296228,178296022,-0.032135554,-0.017123593,0.00049989315,0.10165672,0.0,0.0,0.0,0.0
178300260,178300028,-0.030398058,-0.016811796,0.00044450528,0.10165672,0.0,0.0,0.0,0.0
178304261,178304022,-0.03134394,-0.017287435,0.000760226,0.102172494,0.0,0.0,0.0,0.0
178308219,178308022,-0.031046089,-0.016726913,0.0006223589,0.102172494,0.0,0.0,0.0,0.0
178312279,178312022,-0.031254523,-0.016408904,0.0005429944,0.102172494,0.0,0.0,0.0,0.0
178316222,178316022,-0.032683447,-0.016881436,0.00065253023,0.102172494,0.0,0.0,0.0,0.0
178320250,178320022,-0.030012304,-0.016811457,0.00055471086,0.102172494,0.0,0.0,0.0,0.0
