timestamp,x,y,z,r,flaps,aux1,aux2,aux3,aux4,aux5,mode_switch,return_switch,rattitude_switch,posctl_switch,loiter_switch,acro_switch,offboard_switch,kill_switch,arm_switch,transition_switch,gear_switch,mode_slot,data_source,stab_switch,man_switch
175369517,0.0,0.0,0.0,-0.16164672,0.0,0.0,0.0,0.0,0.0,0.0,0,0,0,0,0,0,0,3,0,0,0,1,1,0,0
175571901,0.0,0.0,0.0,-0.16149063,0.0,0.0,0.0,0.0,0.0,0.0,0,0,0,0,0,0,0,3,0,0,0,1,1,0,0
175789088,0.0,0.0,0.0,-0.16242479,0.0,0.0,0.0,0.0,0.0,0.0,0,0,0,0,0,0,0,3,0,0,0,1,1,0,0
175984708,0.0,0.0,0.0,-0.15731682,0.0,0.0,0.0,0.0,0.0,0.0,0,0,0,0,0,0,0,3,0,0,0,1,1,0,0
176186367,0.0,0.0,0.0,-0.1484008,0.0,0.0,0.0,0.0,0.0,0.0,0,0,0,0,0,0,0,3,0,0,0,1,1,0,0
176398368,0.0,0.0,0.0,-0.10549176,0.0,0.0,0.0,0.0,0.0,0.0,0,0,0,0,0,0,0,3,0,0,0,1,1,0,0
176598554,0.0,0.0,0.0,-0.09548003,0.0,0.0,0.0,0.0,0.0,0.0,0,0,0,0,0,0,0,3,0,0,0,1,1,0,0
176798301,0.0,0.0,0.0,-0.06156689,0.0,0.0,0.0,0.0,0.0,0.0,0,0,0,0,0,0,0,3,0,0,0,1,1,0,0
176990294,0.0,0.0,0.0,-0.010756448,0.0,0.0,0.0,0.0,0.0,0.0,0,0,0,0,0,0,0,3,0,0,0,1,1,0,0
177203965,0.0,0.0,0.026529022,-1.3679766e-05,0.0,0.0,0.0,0.0,0.0,0.0,0,0,0,0,0,0,0,3,0,0,0,1,1,0,0
177403961,0.0,0.0,0.023990283,4.6629522e-09,0.0,0.0,0.0,0.0,0.0,0.0,0,0,0,0,0,0,0,3,0,0,0,1,1,0,0
177599945,0.0,0.0,0.025121251,1.7217061e-12,0.0,0.0,0.0,0.0,0.0,0.0,0,0,0,0,0,0,0,3,0,0,0,1,1,0,0
177796741,0.0,0.0,0.024865277,-3.4760119e-15,0.0,0.0,0.0,0.0,0.0,0.0,0,0,0,0,0,0,0,3,0,0,0,1,1,0,0
178017814,0.0,0.0,0.024899378,3.7474296e-20,0.0,0.0,0.0,0.0,0.0,0.0,0,0,0,0,0,0,0,3,0,0,0,1,1,0,0
178221533,0.0,0.0,0.024022687,5.169343e-22,0.0,0.0,0.0,0.0,0.0,0.0,0,0,0,0,0,0,0,3,0,0,0,1,1,0,0
178410271,0.0,0.0,0.025552774,-5.0482454e-25,0.0,0.0,0.0,0.0,0.0,0.0,0,0,0,0,0,0,0,3,0,0,0,1,1,0,0
178617824,0.0,0.0,0.15562065,6.687339e-28,0.0,0.0,0.0,0.0,0.0,0.0,0,0,0,0,0,0,0,3,0,0,0,1,1,0,0
178817832,0.0,0.0,0.18877967,-3.6982256e-31,0.0,0.0,0.0,0.0,0.0,0.0,0,0,0,0,0,0,0,3,0,0,0,1,1,0,0
179039122,0.0,0.0,0.22101633,-1.0868831e-34,0.0,0.0,0.0,0.0,0.0,0.0,0,0,0,0,0,0,0,3,0,0,0,1,1,0,0
179219130,0.0,0.0,0.22229657,1.219615e-37,0.0,0.0,0.0,0.0,0.0,0.0,0,0,0,0,0,0,0,3,0,0,0,1,1,0,0
179443110,0.0,0.0,0.22975214,-2.4528e-41,0.0,0.0,0.0,0.0,0.0,0.0,0,0,0,0,0,0,0,3,0,0,0,1,1,0,0
179647145,0.0,0.0,0.25682586,-1.3e-44,0.0,0.0,0.0,0.0,0.0,0.0,0,0,0,0,0,0,0,3,0,0,0,1,1,0,0
179844727,0.0,0.0,0.33917224,0.0,0.0,0.0,0.0,0.0,0.0,0.0,0,0,0,0,0,0,0,3,0,0,0,1,1,0,0
180044770,0.0,0.0,0.3569852,0.0,0.0,0.0,0.0,0.0,0.0,0.0,0,0,0,0,0,0,0,3,0,0,0,1,1,0,0
180248724,0.0,0.0,0.37949485,0.0,0.0,0.0,0.0,0.0,0.0,0.0,0,0,0,0,0,0,0,3,0,0,0,1,1,0,0
180444902,0.0,0.0,0.3899719,0.0,0.0,0.0,0.0,0.0,0.0,0.0,0,0,0,0,0,0,0,3,0,0,0,1,1,0,0
180652671,0.0,0.0,0.49015984,0.0,0.0,0.0,0.0,0.0,0.0,0.0,0,0,0,0,0,0,0,3,0,0,0,1,1,0,0
180850362,0.0,0.0,0.49061543,0.0,0.0,0.0,0.0,0.0,0.0,0.0,0,0,0,0,0,0,0,3,0,0,0,1,1,0,0
181050316,0.0,0.0,0.49116457,0.0,0.0,0.0,0.0,0.0,0.0,0.0,0,0,0,0,0,0,0,3,0,0,0,1,1,0,0
181274596,0.0,0.0,0.48453707,0.0,0.0,0.0,0.0,0.0,0.0,0.0,0,0,0,0,0,0,0,3,0,0,0,1,1,0,0
181667939,0.0,0.0,0.48996365,0.0,0.0,0.0,0.0,0.0,0.0,0.0,0,0,0,0,0,0,0,3,0,0,0,1,1,0,0
181867951,0.0,0.0,0.48927712,0.0,0.0,0.0,0.0,0.0,0.0,0.0,0,0,0,0,0,0,0,3,0,0,0,1,1,0,0
182055959,0.0,0.0,0.50827503,0.0,0.0,0.0,0.0,0.0,0.0,0.0,0,0,0,0,0,0,0,3,0,0,0,1,1,0,0
182275899,0.0,0.0,0.55579925,0.0,0.0,0.0,0.0,0.0,0.0,0.0,0,0,0,0,0,0,0,3,0,0,0,1,1,0,0
182463912,-0.004767049,0.0,0.53009737,0.0,0.0,0.0,0.0,0.0,0.0,0.0,0,0,0,0,0,0,0,3,0,0,0,1,1,0,0
182677766,-0.05087763,-0.047541097,0.49877816,0.0,0.0,0.0,0.0,0.0,0.0,0.0,0,0,0,0,0,0,0,3,0,0,0,1,1,0,0
182877779,-0.08296137,-0.08394647,0.49683708,0.0,0.0,0.0,0.0,0.0,0.0,0.0,0,0,0,0,0,0,0,3,0,0,0,1,1,0,0
183081520,-0.10911255,-0.107496455,0.4955836,0.0,0.0,0.0,0.0,0.0,0.0,0.0,0,0,0,0,0,0,0,3,0,0,0,1,1,0,0
183281504,-0.043996163,-0.060097832,0.49558598,0.0,0.0,0.0,0.0,0.0,0.0,0.0,0,0,0,0,0,0,0,3,0,0,0,1,1,0,0
183478346,0.005759183,-0.005488033,0.4954715,0.0,0.0,0.0,0.0,0.0,0.0,0.0,0,0,0,0,0,0,0,3,0,0,0,1,1,0,0
183702353,0.14503515,0.14168577,0.49573216,0.0,0.0,0.0,0.0,0.0,0.0,0.0,0,0,0,0,0,0,0,3,0,0,0,1,1,0,0
183902362,0.15006231,0.15792541,0.4955108,0.0,0.0,0.0,0.0,0.0,0.0,0.0,0,0,0,0,0,0,0,3,0,0,0,1,1,0,0
184086324,0.012398858,0.017806413,0.538005,0.0,0.0,0.0,0.0,0.0,0.0,0.0,0,0,0,0,0,0,0,3,0,0,0,1,1,0,0
184286293,-0.10057309,-0.100339435,0.50533867,0.0,0.0,0.0,0.0,0.0,0.0,0.0,0,0,0,0,0,0,0,3,0,0,0,1,1,0,0
184506307,-0.10258764,-0.102499224,0.50342095,0.0,0.0,0.0,0.0,0.0,0.0,0.0,0,0,0,0,0,0,0,3,0,0,0,1,1,0,0
184704200,-0.091024265,-0.091024406,0.5009229,0.0,0.0,0.0,0.0,0.0,0.0,0.0,0,0,0,0,0,0,0,3,0,0,0,1,1,0,0
184907929,-0.13665727,-0.1370597,0.49683398,0.0,0.0,0.0,0.0,0.0,0.0,0.0,0,0,0,0,0,0,0,3,0,0,0,1,1,0,0
185104734,-1.733237e-06,-6.686579e-05,0.4955506,0.0,0.0,0.0,0.0,0.0,0.0,0.0,0,0,0,0,0,0,0,3,0,0,0,1,1,0,0
185311956,0.016191393,0.0068331743,0.4954306,0.0,0.0,0.0,0.0,0.0,0.0,0.0,0,0,0,0,0,0,0,3,0,0,0,1,1,0,0
185913514,0.16620168,0.1528274,0.49583507,0.0,0.0,0.0,0.0,0.0,0.0,0.0,0,0,0,0,0,0,0,3,0,0,0,1,1,0,0
186527148,-0.19556728,-0.20451203,0.49496543,0.0,0.0,0.0,0.0,0.0,0.0,0.0,0,0,0,0,0,0,0,3,0,0,0,1,1,0,0
186727908,0.0009973105,0.00024523612,0.4963856,0.0,0.0,0.0,0.0,0.0,0.0,0.0,0,0,0,0,0,0,0,3,0,0,0,1,1,0,0
186927149,0.07268546,0.072344825,0.49557525,0.0,0.0,0.0,0.0,0.0,0.0,0.0,0,0,0,0,0,0,0,3,0,0,0,1,1,0,0
187127111,-0.0003378253,-0.0010397194,0.49602067,0.0,0.0,0.0,0.0,0.0,0.0,0.0,0,0,0,0,0,0,0,3,0,0,0,1,1,0,0
187327137,1.6225363e-10,-1.08323205e-10,0.4361328,0.0,0.0,0.0,0.0,0.0,0.0,0.0,0,0,0,0,0,0,0,3,0,0,0,1,1,0,0
187528944,4.6700536e-17,1.9551308e-16,0.0,-0.033350963,0.0,0.0,0.0,0.0,0.0,0.0,0,0,0,0,0,0,0,3,0,0,0,1,1,0,0
187737298,-3.3049877e-23,2.7473891e-24,2.681185e-06,-0.185035,0.0,0.0,0.0,0.0,0.0,0.0,0,0,0,0,0,0,0,3,0,0,0,1,1,0,0
187932702,-5.550838e-30,-3.526342e-29,0.0,-0.13047867,0.0,0.0,0.0,0.0,0.0,0.0,0,0,0,0,0,0,0,3,0,0,0,1,1,0,0
188148951,-5.6078467e-37,1.8708878e-36,0.0,-0.13029128,0.0,0.0,0.0,0.0,0.0,0.0,0,0,0,0,0,0,0,3,0,0,0,1,1,0,0
188350904,-4.68e-43,-1.03e-42,1.6486124e-16,-0.1180943,0.0,0.0,0.0,0.0,0.0,0.0,0,0,0,0,0,0,0,3,0,0,0,1,1,0,0
188550326,0.0,0.0,1.0985843e-19,-0.08879897,0.0,0.0,0.0,0.0,0.0,0.0,0,0,0,0,0,0,0,3,0,0,0,1,1,0,0
188762319,0.0,0.0,0.0,-0.04877957,0.0,0.0,0.0,0.0,0.0,0.0,0,0,0,0,0,0,0,3,0,0,0,1,1,0,0
188942341,0.0,0.0,9.8028226e-26,-0.00024678215,0.0,0.0,0.0,0.0,0.0,0.0,0,0,0,0,0,0,0,3,0,0,0,1,1,0,0
189158301,0.0,0.0,2.6113236e-29,-3.2895606e-08,0.0,0.0,0.0,0.0,0.0,0.0,0,0,0,0,0,0,0,3,0,0,0,1,1,0,0
189363989,0.0,0.0,0.0,0.019275976,0.0,0.0,0.0,0.0,0.0,0.0,0,0,0,0,0,0,0,3,0,0,0,1,1,0,0
189551933,0.0,0.0,3.0991228e-35,0.00014928858,0.0,0.0,0.0,0.0,0.0,0.0,0,0,0,0,0,0,0,3,0,0,0,1,1,0,0
189771931,0.0,0.0,2.609718e-39,0.0031780063,0.0,0.0,0.0,0.0,0.0,0.0,0,0,0,0,0,0,0,3,0,0,0,1,1,0,0
189951897,0.0,0.0,1.22e-43,0.21261692,0.0,0.0,0.0,0.0,0.0,0.0,0,0,0,0,0,0,0,3,0,0,0,1,1,0,0
190169521,0.0,0.0,4e-45,0.2925349,0.0,0.0,0.0,0.0,0.0,0.0,0,0,0,0,0,0,0,3,0,0,0,1,1,0,0
190361532,0.0,0.0,0.021085547,0.27554044,0.0,0.0,0.0,0.0,0.0,0.0,0,0,0,0,0,0,0,3,0,0,0,1,1,0,0
190565565,0.0,0.0,0.0782506,0.23085378,0.0,0.0,0.0,0.0,0.0,0.0,0,0,0,0,0,0,0,3,0,0,0,1,1,0,0
190761512,0.0,0.0,0.08187338,0.2256574,0.0,0.0,0.0,0.0,0.0,0.0,0,0,0,0,0,0,0,3,0,0,0,1,1,0,0
190982919,0.0,0.0,0.1330014,0.20187137,0.0,0.0,0.0,0.0,0.0,0.0,0,0,0,0,0,0,0,3,0,0,0,1,1,0,0
191175136,0.0,0.0,0.19669165,0.04773282,0.0,0.0,0.0,0.0,0.0,0.0,0,0,0,0,0,0,0,3,0,0,0,1,1,0,0
191391173,0.0,0.0,0.19746107,0.118472435,0.0,0.0,0.0,0.0,0.0,0.0,0,0,0,0,0,0,0,3,0,0,0,1,1,0,0
191595924,0.0,0.0,0.22177407,0.0580103,0.0,0.0,0.0,0.0,0.0,0.0,0,0,0,0,0,0,0,3,0,0,0,1,1,0,0
191791080,0.0,0.0,0.25448927,0.01312208,0.0,0.0,0.0,0.0,0.0,0.0,0,0,0,0,0,0,0,3,0,0,0,1,1,0,0
191989365,0.0,0.0,0.28470632,-0.0013178964,0.0,0.0,0.0,0.0,0.0,0.0,0,0,0,0,0,0,0,3,0,0,0,1,1,0,0
192192754,0.0,0.0,0.28990299,1.2486685e-06,0.0,0.0,0.0,0.0,0.0,0.0,0,0,0,0,0,0,0,3,0,0,0,1,1,0,0
192400748,0.0,0.0,0.3035004,-5.316882e-10,0.0,0.0,0.0,0.0,0.0,0.0,0,0,0,0,0,0,0,3,0,0,0,1,1,0,0
192589027,0.061296873,0.063066885,0.31289232,1.0164611e-12,0.0,0.0,0.0,0.0,0.0,0.0,0,0,0,0,0,0,0,3,0,0,0,1,1,0,0
192810353,0.08310868,0.0820999,0.3155727,2.814296e-16,0.0,0.0,0.0,0.0,0.0,0.0,0,0,0,0,0,0,0,3,0,0,0,1,1,0,0
192994773,0.07918036,0.0807195,0.31699178,-3.0767585e-19,0.0,0.0,0.0,0.0,0.0,0.0,0,0,0,0,0,0,0,3,0,0,0,1,1,0,0
193198563,0.062189322,0.06274464,0.3821821,3.2792342e-22,0.0,0.0,0.0,0.0,0.0,0.0,0,0,0,0,0,0,0,3,0,0,0,1,1,0,0
193402364,0.062211525,0.06145564,0.45100713,-1.5589696e-25,0.0,0.0,0.0,0.0,0.0,0.0,0,0,0,0,0,0,0,3,0,0,0,1,1,0,0
193607117,0.056587137,0.058972273,0.47990766,-2.7753145e-30,0.0,0.0,0.0,0.0,0.0,0.0,0,0,0,0,0,0,0,3,0,0,0,1,1,0,0
193819958,0.0370324,0.03724936,0.4910758,6.8409675e-32,0.0,0.0,0.0,0.0,0.0,0.0,0,0,0,0,0,0,0,3,0,0,0,1,1,0,0
194027962,-1.03536895e-05,-1.3665427e-05,0.49069136,-5.851623e-35,0.0,0.0,0.0,0.0,0.0,0.0,0,0,0,0,0,0,0,3,0,0,0,1,1,0,0
194215965,1.2401822e-12,-7.617248e-12,0.49051815,2.2101973e-38,0.0,0.0,0.0,0.0,0.0,0.0,0,0,0,0,0,0,0,3,0,0,0,1,1,0,0
194419900,-1.2830021e-06,1.3277119e-06,0.49157584,5.483e-42,0.0,0.0,0.0,0.0,0.0,0.0,0,0,0,0,0,0,0,3,0,0,0,1,1,0,0
194633551,0.085195564,0.067958534,0.49139822,-6e-45,0.0,0.0,0.0,0.0,0.0,0.0,0,0,0,0,0,0,0,3,0,0,0,1,1,0,0
194813795,0.093936466,0.08890181,0.4905202,0.0,0.0,0.0,0.0,0.0,0.0,0.0,0,0,0,0,0,0,0,3,0,0,0,1,1,0,0
195014110,0.011260418,0.018689968,0.49042416,0.0,0.0,0.0,0.0,0.0,0.0,0.0,0,0,0,0,0,0,0,3,0,0,0,1,1,0,0
195237491,0.11218221,0.111474305,0.49041462,0.0,0.0,0.0,0.0,0.0,0.0,0.0,0,0,0,0,0,0,0,3,0,0,0,1,1,0,0
195425514,0.11185253,0.108974226,0.49344727,0.0,0.0,0.0,0.0,0.0,0.0,0.0,0,0,0,0,0,0,0,3,0,0,0,1,1,0,0
195630323,-0.12566942,-0.11687993,0.4931962,0.0,0.0,0.0,0.0,0.0,0.0,0.0,0,0,0,0,0,0,0,3,0,0,0,1,1,0,0
195838374,-0.19364357,-0.18510097,0.49201012,0.0,0.0,0.0,0.0,0.0,0.0,0.0,0,0,0,0,0,0,0,3,0,0,0,1,1,0,0
196034313,-0.15488152,-0.15704072,0.49308372,0.0,0.0,0.0,0.0,0.0,0.0,0.0,0,0,0,0,0,0,0,3,0,0,0,1,1,0,0
196239082,2.9070417e-05,3.968295e-05,0.49162316,0.0,0.0,0.0,0.0,0.0,0.0,0.0,0,0,0,0,0,0,0,3,0,0,0,1,1,0,0
196446312,-3.7515993e-12,2.107694e-11,0.49172112,0.0,0.0,0.0,0.0,0.0,0.0,0.0,0,0,0,0,0,0,0,3,0,0,0,1,1,0,0
196639551,-0.03759993,-0.0398103,0.49288353,0.0,0.0,0.0,0.0,0.0,0.0,0.0,0,0,0,0,0,0,0,3,0,0,0,1,1,0,0
196855945,-1.231846e-08,-1.4343051e-08,0.49246538,0.0,0.0,0.0,0.0,0.0,0.0,0.0,0,0,0,0,0,0,0,3,0,0,0,1,1,0,0
197051921,1.0826607e-15,-9.515047e-15,0.25785488,0.0,0.0,0.0,0.0,0.0,0.0,0.0,0,0,0,0,0,0,0,3,0,0,0,1,1,0,0
197259932,2.1147918e-21,3.3806023e-21,0.053325802,0.0,0.0,0.0,0.0,0.0,0.0,0.0,0,0,0,0,0,0,0,3,0,0,0,1,1,0,0
197451931,4.584385e-27,1.4164167e-27,0.0,0.0,0.0,0.0,0.0,0.0,0.0,0.0,0,0,0,0,0,0,0,3,0,0,0,1,1,0,0
197649524,4.0131653e-34,4.4670012e-33,4.7364924e-08,0.0,0.0,0.0,0.0,0.0,0.0,0.0,0,0,0,0,0,0,0,3,0,0,0,1,1,0,0
197865721,9.6611e-41,-1.91923e-40,6.9847866e-13,0.0,0.0,0.0,0.0,0.0,0.0,0.0,0,0,0,0,0,0,0,3,0,0,0,1,1,0,0
198061556,0.0,0.0,0.0,0.0,0.0,0.0,0.0,0.0,0.0,0.0,0,0,0,0,0,0,0,3,0,0,0,1,1,0,0
198257511,0.0,0.0,6.0924164e-18,0.0,0.0,0.0,0.0,0.0,0.0,0.0,0,0,0,0,0,0,0,3,0,0,0,1,1,0,0
198454292,0.0,0.0,0.0,0.017875629,0.0,0.0,0.0,0.0,0.0,0.0,0,0,0,0,0,0,0,3,0,0,0,1,1,0,0
198674325,0.0,0.0,0.0,0.08029273,0.0,0.0,0.0,0.0,0.0,0.0,0,0,0,0,0,0,0,3,0,0,0,1,1,0,0
198870311,0.0,0.0,5.954778e-28,0.08176467,0.0,0.0,0.0,0.0,0.0,0.0,0,0,0,0,0,0,0,3,0,0,0,1,1,0,0
199066570,0.0,0.0,0.0,0.023713289,0.0,0.0,0.0,0.0,0.0,0.0,0,0,0,0,0,0,0,3,0,0,0,1,1,0,0
199282628,0.0,0.0,0.08217404,0.012834343,0.0,0.0,0.0,0.0,0.0,0.0,0,0,0,0,0,0,0,3,0,0,0,1,1,0,0
199486336,0.0,0.0,0.15757832,7.1683103e-06,0.0,0.0,0.0,0.0,0.0,0.0,0,0,0,0,0,0,0,3,0,0,0,1,1,0,0
199687967,0.0,0.0,0.18868104,1.0694826e-08,0.0,0.0,0.0,0.0,0.0,0.0,0,0,0,0,0,0,0,3,0,0,0,1,1,0,0
199887951,0.0,0.0,0.2569015,-1.23659884e-11,0.0,0.0,0.0,0.0,0.0,0.0,0,0,0,0,0,0,0,3,0,0,0,1,1,0,0
200083984,0.0,0.0,0.23933654,6.263054e-15,0.0,0.0,0.0,0.0,0.0,0.0,0,0,0,0,0,0,0,3,0,0,0,1,1,0,0
200295914,0.0,0.0,0.24897785,-2.3056127e-19,0.0,0.0,0.0,0.0,0.0,0.0,0,0,0,0,0,0,0,3,0,0,0,1,1,0,0
200493564,0.0,0.0,0.25148913,0.25797474,0.0,0.0,0.0,0.0,0.0,0.0,0,0,0,0,0,0,0,3,0,0,0,1,1,0,0
200697488,0.0,0.0,0.26007494,0.2703327,0.0,0.0,0.0,0.0,0.0,0.0,0,0,0,0,0,0,0,3,0,0,0,1,1,0,0
200905674,0.0,0.0,0.29103732,0.22247143,0.0,0.0,0.0,0.0,0.0,0.0,0,0,0,0,0,0,0,3,0,0,0,1,1,0,0
201098581,0.0,0.0,0.32314137,0.14553283,0.0,0.0,0.0,0.0,0.0,0.0,0,0,0,0,0,0,0,3,0,0,0,1,1,0,0
201314101,0.0,0.0,0.35372478,0.043724973,0.0,0.0,0.0,0.0,0.0,0.0,0,0,0,0,0,0,0,3,0,0,0,1,1,0,0
201507127,0.0,0.0,0.37965477,-0.00027069848,0.0,0.0,0.0,0.0,0.0,0.0,0,0,0,0,0,0,0,3,0,0,0,1,1,0,0
201707178,0.0,0.0,0.38828027,-2.1405319e-07,0.0,0.0,0.0,0.0,0.0,0.0,0,0,0,0,0,0,0,3,0,0,0,1,1,0,0
201927689,0.0,0.0,0.40312693,8.9727295e-11,0.0,0.0,0.0,0.0,0.0,0.0,0,0,0,0,0,0,0,3,0,0,0,1,1,0,0
202119154,0.0,0.0,0.46176675,0.0061412076,0.0,0.0,0.0,0.0,0.0,0.0,0,0,0,0,0,0,0,3,0,0,0,1,1,0,0
202328747,0.0,0.0,0.48101097,3.3883002e-06,0.0,0.0,0.0,0.0,0.0,0.0,0,0,0,0,0,0,0,3,0,0,0,1,1,0,0
202512756,0.0,0.0,0.49076802,-4.545455e-09,0.0,0.0,0.0,0.0,0.0,0.0,0,0,0,0,0,0,0,3,0,0,0,1,1,0,0
202716724,0.0,0.0,0.431253,0.1513369,0.0,0.0,0.0,0.0,0.0,0.0,0,0,0,0,0,0,0,3,0,0,0,1,1,0,0
202924717,0.0,0.0,0.44012517,0.20028186,0.0,0.0,0.0,0.0,0.0,0.0,0,0,0,0,0,0,0,3,0,0,0,1,1,0,0
203126362,0.0,0.0,0.44196385,0.18720901,0.0,0.0,0.0,0.0,0.0,0.0,0,0,0,0,0,0,0,3,0,0,0,1,1,0,0
203342635,0.0,0.0,0.4896358,0.10615966,0.0,0.0,0.0,0.0,0.0,0.0,0,0,0,0,0,0,0,3,0,0,0,1,1,0,0
203526306,0.0,0.0,0.49265522,0.0052983807,0.0,0.0,0.0,0.0,0.0,0.0,0,0,0,0,0,0,0,3,0,0,0,1,1,0,0
203730300,0.0,0.0,0.4917838,0.07160156,0.0,0.0,0.0,0.0,0.0,0.0,0,0,0,0,0,0,0,3,0,0,0,1,1,0,0
203934345,0.0,0.0,0.49052668,0.13707748,0.0,0.0,0.0,0.0,0.0,0.0,0,0,0,0,0,0,0,3,0,0,0,1,1,0,0
204147968,0.0,0.0,0.48699716,0.17713362,0.0,0.0,0.0,0.0,0.0,0.0,0,0,0,0,0,0,0,3,0,0,0,1,1,0,0
204343959,0.0,0.0,0.47751006,0.22654893,0.0,0.0,0.0,0.0,0.0,0.0,0,0,0,0,0,0,0,3,0,0,0,1,1,0,0
204547894,0.0,0.0,0.4784096,0.22128595,0.0,0.0,0.0,0.0,0.0,0.0,0,0,0,0,0,0,0,3,0,0,0,1,1,0,0
204747942,0.1289991,0.12212232,0.49194616,0.08037917,0.0,0.0,0.0,0.0,0.0,0.0,0,0,0,0,0,0,0,3,0,0,0,1,1,0,0
204953490,0.09744399,0.09739746,0.4937476,-1.0425234e-05,0.0,0.0,0.0,0.0,0.0,0.0,0,0,0,0,0,0,0,3,0,0,0,1,1,0,0
205157780,0.08806601,0.08843065,0.49367213,6.0539094e-08,0.0,0.0,0.0,0.0,0.0,0.0,0,0,0,0,0,0,0,3,0,0,0,1,1,0,0
205357828,0.09100267,0.09101604,0.49301314,-4.8410678e-11,0.0,0.0,0.0,0.0,0.0,0.0,0,0,0,0,0,0,0,3,0,0,0,1,1,0,0
205565488,0.053432528,0.05626591,0.49301696,0.18513027,0.0,0.0,0.0,0.0,0.0,0.0,0,0,0,0,0,0,0,3,0,0,0,1,1,0,0
205755418,-0.00042500062,-0.00076944334,0.49309516,0.35905078,0.0,0.0,0.0,0.0,0.0,0.0,0,0,0,0,0,0,0,3,0,0,0,1,1,0,0
205955749,0.009534098,-2.6344332e-10,0.49266362,0.32633185,0.0,0.0,0.0,0.0,0.0,0.0,0,0,0,0,0,0,0,3,0,0,0,1,1,0,0
206163114,0.09203227,0.096160956,0.49179092,0.21480659,0.0,0.0,0.0,0.0,0.0,0.0,0,0,0,0,0,0,0,3,0,0,0,1,1,0,0
206359107,0.096072,0.09477665,0.49267092,0.1158014,0.0,0.0,0.0,0.0,0.0,0.0,0,0,0,0,0,0,0,3,0,0,0,1,1,0,0
206575108,0.08706571,0.08706239,0.49338162,0.1086881,0.0,0.0,0.0,0.0,0.0,0.0,0,0,0,0,0,0,0,3,0,0,0,1,1,0,0
206756904,0.08876867,0.08717932,0.49414468,0.16456051,0.0,0.0,0.0,0.0,0.0,0.0,0,0,0,0,0,0,0,3,0,0,0,1,1,0,0
206980772,0.09487164,0.09487198,0.4943654,0.27107054,0.0,0.0,0.0,0.0,0.0,0.0,0,0,0,0,0,0,0,3,0,0,0,1,1,0,0
207177514,0.10014458,0.09991844,0.4933066,0.27504867,0.0,0.0,0.0,0.0,0.0,0.0,0,0,0,0,0,0,0,3,0,0,0,1,1,0,0
207376730,0.11051873,0.11023311,0.49305344,0.26533553,0.0,0.0,0.0,0.0,0.0,0.0,0,0,0,0,0,0,0,3,0,0,0,1,1,0,0
207575102,0.118475735,0.11793681,0.49302098,0.24539688,0.0,0.0,0.0,0.0,0.0,0.0,0,0,0,0,0,0,0,3,0,0,0,1,1,0,0
207778493,0.11471874,0.115341224,0.49298275,0.19152512,0.0,0.0,0.0,0.0,0.0,0.0,0,0,0,0,0,0,0,3,0,0,0,1,1,0,0
207986551,0.11153712,0.111537404,0.49414533,0.17908502,0.0,0.0,0.0,0.0,0.0,0.0,0,0,0,0,0,0,0,3,0,0,0,1,1,0,0
208182305,0.108834505,0.109070644,0.493926,0.13295345,0.0,0.0,0.0,0.0,0.0,0.0,0,0,0,0,0,0,0,3,0,0,0,1,1,0,0
208383340,0.10251829,0.103844166,0.49359727,0.00036260753,0.0,0.0,0.0,0.0,0.0,0.0,0,0,0,0,0,0,0,3,0,0,0,1,1,0,0
208583920,0.0989831,0.09871614,0.49406117,-1.923097e-07,0.0,0.0,0.0,0.0,0.0,0.0,0,0,0,0,0,0,0,3,0,0,0,1,1,0,0
208791130,0.082495525,0.08463652,0.49431035,1.4315579e-11,0.0,0.0,0.0,0.0,0.0,0.0,0,0,0,0,0,0,0,3,0,0,0,1,1,0,0
208991137,0.064228855,0.06411752,0.49393407,6.890979e-14,0.0,0.0,0.0,0.0,0.0,0.0,0,0,0,0,0,0,0,3,0,0,0,1,1,0,0
209211338,0.03640421,0.037103485,0.49717087,-1.1985295e-17,0.0,0.0,0.0,0.0,0.0,0.0,0,0,0,0,0,0,0,3,0,0,0,1,1,0,0
209391144,0.03077926,0.030726241,0.50929224,2.8583284e-20,0.0,0.0,0.0,0.0,0.0,0.0,0,0,0,0,0,0,0,3,0,0,0,1,1,0,0
209608718,0.018424341,0.019281954,0.5387067,1.1765429e-23,0.0,0.0,0.0,0.0,0.0,0.0,0,0,0,0,0,0,0,3,0,0,0,1,1,0,0
209816718,-0.0001196349,-6.116243e-05,0.5499564,-7.0194715e-27,0.0,0.0,0.0,0.0,0.0,0.0,0,0,0,0,0,0,0,3,0,0,0,1,1,0,0
210012757,-5.509843e-12,-1.1085771e-10,0.52801573,1.1447787e-30,0.0,0.0,0.0,0.0,0.0,0.0,0,0,0,0,0,0,0,3,0,0,0,1,1,0,0
210212735,2.1904024e-17,2.0404865e-17,0.50017524,1.9723238e-33,0.0,0.0,0.0,0.0,0.0,0.0,0,0,0,0,0,0,0,3,0,0,0,1,1,0,0
210410311,-8.793537e-25,1.8123153e-23,0.50068694,-2.2055155e-36,0.0,0.0,0.0,0.0,0.0,0.0,0,0,0,0,0,0,0,3,0,0,0,1,1,0,0
210622381,-3.849524e-30,-5.2002057e-30,0.49898112,1.089581e-39,0.0,0.0,0.0,0.0,0.0,0.0,0,0,0,0,0,0,0,3,0,0,0,1,1,0,0
210818397,4.855841e-37,-2.803923e-36,0.510867,-1.7e-44,0.0,0.0,0.0,0.0,0.0,0.0,0,0,0,0,0,0,0,3,0,0,0,1,1,0,0
211018347,6.49e-43,1.17e-42,0.5452475,0.0,0.0,0.0,0.0,0.0,0.0,0.0,0,0,0,0,0,0,0,3,0,0,0,1,1,0,0
211218320,0.0,0.0,0.5615856,0.0,0.0,0.0,0.0,0.0,0.0,0.0,0,0,0,0,0,0,0,3,0,0,0,1,1,0,0
211419131,0.0,0.0,0.5664162,0.0,0.0,0.0,0.0,0.0,0.0,0.0,0,0,0,0,0,0,0,3,0,0,0,1,1,0,0
211627126,0.0,0.0,0.5650042,0.0,0.0,0.0,0.0,0.0,0.0,0.0,0,0,0,0,0,0,0,3,0,0,0,1,1,0,0
211843135,0.0,0.0,0.5503868,0.0,0.0,0.0,0.0,0.0,0.0,0.0,0,0,0,0,0,0,0,3,0,0,0,1,1,0,0
213646358,0.0,0.0,0.5498044,0.0,0.0,0.0,0.0,0.0,0.0,0.0,0,0,0,0,0,0,0,3,0,0,0,1,1,0,0
213866312,0.0,0.0,0.5501187,0.0,0.0,0.0,0.0,0.0,0.0,0.0,0,0,0,0,0,0,0,3,0,0,0,1,1,0,0
214062549,0.0,0.0,0.54341024,0.0,0.0,0.0,0.0,0.0,0.0,0.0,0,0,0,0,0,0,0,3,0,0,0,1,1,0,0
214259939,0.0,0.0,0.53731537,0.0,0.0,0.0,0.0,0.0,0.0,0.0,0,0,0,0,0,0,0,3,0,0,0,1,1,0,0
214459942,0.0,0.0,0.50656897,0.0,0.0,0.0,0.0,0.0,0.0,0.0,0,0,0,0,0,0,0,3,0,0,0,1,1,0,0
214660141,0.0,0.0,0.49159008,0.0,0.0,0.0,0.0,0.0,0.0,0.0,0,0,0,0,0,0,0,3,0,0,0,1,1,0,0
214863924,0.0,0.0,0.4746636,0.0,0.0,0.0,0.0,0.0,0.0,0.0,0,0,0,0,0,0,0,3,0,0,0,1,1,0,0
215069767,0.0,0.0,0.4443289,0.0,0.0,0.0,0.0,0.0,0.0,0.0,0,0,0,0,0,0,0,3,0,0,0,1,1,0,0
215278613,0.0,0.0,0.46177143,0.0,0.0,0.0,0.0,0.0,0.0,0.0,0,0,0,0,0,0,0,3,0,0,0,1,1,0,0
215477512,0.0,0.0,0.62798303,0.0,0.0,0.0,0.0,0.0,0.0,0.0,0,0,0,0,0,0,0,3,0,0,0,1,1,0,0
215674371,0.0,0.0,0.73332727,0.0,0.0,0.0,0.0,0.0,0.0,0.0,0,0,0,0,0,0,0,3,0,0,0,1,1,0,0
215879140,0.0,0.0,0.716308,0.0,0.0,0.0,0.0,0.0,0.0,0.0,0,0,0,0,0,0,0,3,0,0,0,1,1,0,0
216083121,0.0,0.0,0.6521576,0.0,0.0,0.0,0.0,0.0,0.0,0.0,0,0,0,0,0,0,0,3,0,0,0,1,1,0,0
216287182,0.0,0.0,0.53268534,0.0,0.0,0.0,0.0,0.0,0.0,0.0,0,0,0,0,0,0,0,3,0,0,0,1,1,0,0
216503108,0.0,0.0,0.49889195,0.0,0.0,0.0,0.0,0.0,0.0,0.0,0,0,0,0,0,0,0,3,0,0,0,1,1,0,0
216700931,0.0,0.0,0.4989815,0.0,0.0,0.0,0.0,0.0,0.0,0.0,0,0,0,0,0,0,0,3,0,0,0,1,1,0,0
216900931,0.0,0.0,0.49811205,0.0,0.0,0.0,0.0,0.0,0.0,0.0,0,0,0,0,0,0,0,3,0,0,0,1,1,0,0
217100742,0.0,0.0,0.56223613,0.0,0.0,0.0,0.0,0.0,0.0,0.0,0,0,0,0,0,0,0,3,0,0,0,1,1,0,0
217296771,0.0,0.0,0.56415516,0.0,0.0,0.0,0.0,0.0,0.0,0.0,0,0,0,0,0,0,0,3,0,0,0,1,1,0,0
217500709,0.0,0.0,0.497291,0.0,0.0,0.0,0.0,0.0,0.0,0.0,0,0,0,0,0,0,0,3,0,0,0,1,1,0,0
217701601,0.0,0.0,0.49143633,0.0,0.0,0.0,0.0,0.0,0.0,0.0,0,0,0,0,0,0,0,3,0,0,0,1,1,0,0
217902100,0.0,0.0,0.45877415,0.0,0.0,0.0,0.0,0.0,0.0,0.0,0,0,0,0,0,0,0,3,0,0,0,1,1,0,0
218105733,0.0,0.0,0.45203596,0.0,0.0,0.0,0.0,0.0,0.0,0.0,0,0,0,0,0,0,0,3,0,0,0,1,1,0,0
218305556,0.0,0.0,0.5401547,0.0,0.0,0.0,0.0,0.0,0.0,0.0,0,0,0,0,0,0,0,3,0,0,0,1,1,0,0
218529554,0.0,0.0,0.6380927,0.0,0.0,0.0,0.0,0.0,0.0,0.0,0,0,0,0,0,0,0,3,0,0,0,1,1,0,0
218710369,0.0,0.0,0.61265045,0.0,0.0,0.0,0.0,0.0,0.0,0.0,0,0,0,0,0,0,0,3,0,0,0,1,1,0,0
218930328,0.0,0.0,0.51388305,0.0,0.0,0.0,0.0,0.0,0.0,0.0,0,0,0,0,0,0,0,3,0,0,0,1,1,0,0
219134381,0.0,0.0,0.56921697,0.0,0.0,0.0,0.0,0.0,0.0,0.0,0,0,0,0,0,0,0,3,0,0,0,1,1,0,0
219330534,0.0,0.0,0.5718165,0.0,0.0,0.0,0.0,0.0,0.0,0.0,0,0,0,0,0,0,0,3,0,0,0,1,1,0,0
219542304,0.0,0.0,0.53202623,0.0,0.0,0.0,0.0,0.0,0.0,0.0,0,0,0,0,0,0,0,3,0,0,0,1,1,0,0
219738889,0.0,0.0,0.49797207,0.0,0.0,0.0,0.0,0.0,0.0,0.0,0,0,0,0,0,0,0,3,0,0,0,1,1,0,0
219935155,0.0,0.0,0.48580647,0.0,0.0,0.0,0.0,0.0,0.0,0.0,0,0,0,0,0,0,0,3,0,0,0,1,1,0,0
220139134,0.0,0.0,0.49124038,0.0,0.0,0.0,0.0,0.0,0.0,0.0,0,0,0,0,0,0,0,3,0,0,0,1,1,0,0
220335172,0.11812149,0.1187258,0.4939257,0.0,0.0,0.0,0.0,0.0,0.0,0.0,0,0,0,0,0,0,0,3,0,0,0,1,1,0,0
220539135,0.097186446,0.09304475,0.5038989,0.0,0.0,0.0,0.0,0.0,0.0,0.0,0,0,0,0,0,0,0,3,0,0,0,1,1,0,0
220735066,0.027304767,0.05473606,0.5471962,0.0,0.0,0.0,0.0,0.0,0.0,0.0,0,0,0,0,0,0,0,3,0,0,0,1,1,0,0
220935153,2.4594564e-07,6.6806433e-07,0.65895545,0.0,0.0,0.0,0.0,0.0,0.0,0.0,0,0,0,0,0,0,0,3,0,0,0,1,1,0,0
221148949,-1.3045013e-15,-5.6466493e-14,0.6322061,0.0,0.0,0.0,0.0,0.0,0.0,0.0,0,0,0,0,0,0,0,3,0,0,0,1,1,0,0
221344734,1.1383694e-20,1.196653e-20,0.6235446,0.0,0.0,0.0,0.0,0.0,0.0,0.0,0,0,0,0,0,0,0,3,0,0,0,1,1,0,0
221552766,-6.1462496e-28,-2.0534606e-27,0.617532,0.0,0.0,0.0,0.0,0.0,0.0,0.0,0,0,0,0,0,0,0,3,0,0,0,1,1,0,0
221764720,3.2838842e-34,-1.5886554e-34,0.5621232,0.0,0.0,0.0,0.0,0.0,0.0,0.0,0,0,0,0,0,0,0,3,0,0,0,1,1,0,0
221962329,8.2136e-41,3.81449e-40,0.54323435,0.0,0.0,0.0,0.0,0.0,0.0,0.0,0,0,0,0,0,0,0,3,0,0,0,1,1,0,0
222162358,0.0,0.0,0.56484085,0.0,0.0,0.0,0.0,0.0,0.0,0.0,0,0,0,0,0,0,0,3,0,0,0,1,1,0,0
222358372,0.0,0.0,0.543651,0.0,0.0,0.0,0.0,0.0,0.0,0.0,0,0,0,0,0,0,0,3,0,0,0,1,1,0,0
222566318,0.0,0.0,0.5564724,0.0,0.0,0.0,0.0,0.0,0.0,0.0,0,0,0,0,0,0,0,3,0,0,0,1,1,0,0
222775937,0.0,0.0,0.53815854,0.0,0.0,0.0,0.0,0.0,0.0,0.0,0,0,0,0,0,0,0,3,0,0,0,1,1,0,0
222975954,0.0,0.0,0.4976693,0.0,0.0,0.0,0.0,0.0,0.0,0.0,0,0,0,0,0,0,0,3,0,0,0,1,1,0,0
223159959,0.0,0.0,0.4732548,0.0,0.0,0.0,0.0,0.0,0.0,0.0,0,0,0,0,0,0,0,3,0,0,0,1,1,0,0
223371949,0.0,0.0,0.42808363,0.0,0.0,0.0,0.0,0.0,0.0,0.0,0,0,0,0,0,0,0,3,0,0,0,1,1,0,0
223569771,0.0,0.0,0.44889614,0.0,0.0,0.0,0.0,0.0,0.0,0.0,0,0,0,0,0,0,0,3,0,0,0,1,1,0,0
223769539,0.0,0.0,0.6614175,0.0,0.0,0.0,0.0,0.0,0.0,0.0,0,0,0,0,0,0,0,3,0,0,0,1,1,0,0
223969756,0.0,0.0,0.692642,0.0,0.0,0.0,0.0,0.0,0.0,0.0,0,0,0,0,0,0,0,3,0,0,0,1,1,0,0
224189515,0.0,0.0,0.6087788,0.0,0.0,0.0,0.0,0.0,0.0,0.0,0,0,0,0,0,0,0,3,0,0,0,1,1,0,0
224391309,0.0,0.0,0.57904845,0.0,0.0,0.0,0.0,0.0,0.0,0.0,0,0,0,0,0,0,0,3,0,0,0,1,1,0,0
224595129,0.0,0.0,0.5189568,0.0,0.0,0.0,0.0,0.0,0.0,0.0,0,0,0,0,0,0,0,3,0,0,0,1,1,0,0
224791135,0.0,0.0,0.50839895,0.0,0.0,0.0,0.0,0.0,0.0,0.0,0,0,0,0,0,0,0,3,0,0,0,1,1,0,0
224991090,0.0,0.0,0.49286687,0.0,0.0,0.0,0.0,0.0,0.0,0.0,0,0,0,0,0,0,0,3,0,0,0,1,1,0,0
225195113,0.0,0.0,0.4934557,0.0,0.0,0.0,0.0,0.0,0.0,0.0,0,0,0,0,0,0,0,3,0,0,0,1,1,0,0
225392738,0.0,0.0,0.4943642,0.0,0.0,0.0,0.0,0.0,0.0,0.0,0,0,0,0,0,0,0,3,0,0,0,1,1,0,0
225613309,0.0,0.0,0.5077258,0.0,0.0,0.0,0.0,0.0,0.0,0.0,0,0,0,0,0,0,0,3,0,0,0,1,1,0,0
225793504,0.0,0.0,0.5984587,0.0,0.0,0.0,0.0,0.0,0.0,0.0,0,0,0,0,0,0,0,3,0,0,0,1,1,0,0
225996761,0.0,0.0,0.603898,0.0,0.0,0.0,0.0,0.0,0.0,0.0,0,0,0,0,0,0,0,3,0,0,0,1,1,0,0
226202363,0.0,0.0,0.6019658,0.0,0.0,0.0,0.0,0.0,0.0,0.0,0,0,0,0,0,0,0,3,0,0,0,1,1,0,0
226414333,0.0,0.0,0.5884993,0.0,0.0,0.0,0.0,0.0,0.0,0.0,0,0,0,0,0,0,0,3,0,0,0,1,1,0,0
226610290,0.0,0.0,0.5837741,0.0,0.0,0.0,0.0,0.0,0.0,0.0,0,0,0,0,0,0,0,3,0,0,0,1,1,0,0
226810300,0.0,0.0,0.55447096,0.0,0.0,0.0,0.0,0.0,0.0,0.0,0,0,0,0,0,0,0,3,0,0,0,1,1,0,0
227023887,0.0,0.0,0.5549297,0.0,0.0,0.0,0.0,0.0,0.0,0.0,0,0,0,0,0,0,0,3,0,0,0,1,1,0,0
227215966,0.0,0.0,0.53368026,0.0,0.0,0.0,0.0,0.0,0.0,0.0,0,0,0,0,0,0,0,3,0,0,0,1,1,0,0
227419954,0.0,0.0,0.49425521,0.0,0.0,0.0,0.0,0.0,0.0,0.0,0,0,0,0,0,0,0,3,0,0,0,1,1,0,0
227624725,0.0,0.0,0.49420854,0.0,0.0,0.0,0.0,0.0,0.0,0.0,0,0,0,0,0,0,0,3,0,0,0,1,1,0,0
227833520,0.0,0.0,0.4943512,0.0,0.0,0.0,0.0,0.0,0.0,0.0,0,0,0,0,0,0,0,3,0,0,0,1,1,0,0
228029568,0.0,0.0,0.50873786,0.0,0.0,0.0,0.0,0.0,0.0,0.0,0,0,0,0,0,0,0,3,0,0,0,1,1,0,0
228225522,0.0,0.0,0.53691053,0.0,0.0,0.0,0.0,0.0,0.0,0.0,0,0,0,0,0,0,0,3,0,0,0,1,1,0,0
228425545,0.0,0.0,0.6016372,0.0,0.0,0.0,0.0,0.0,0.0,0.0,0,0,0,0,0,0,0,3,0,0,0,1,1,0,0
228627157,0.0,0.0,0.61670035,0.0,0.0,0.0,0.0,0.0,0.0,0.0,0,0,0,0,0,0,0,3,0,0,0,1,1,0,0
228831160,0.0,0.0,0.6168697,0.0,0.0,0.0,0.0,0.0,0.0,0.0,0,0,0,0,0,0,0,3,0,0,0,1,1,0,0
229047305,0.0,0.0,0.5968219,0.0,0.0,0.0,0.0,0.0,0.0,0.0,0,0,0,0,0,0,0,3,0,0,0,1,1,0,0
229247699,0.0,0.0,0.5834905,0.0,0.0,0.0,0.0,0.0,0.0,0.0,0,0,0,0,0,0,0,3,0,0,0,1,1,0,0
229444749,0.0,0.0,0.5559494,0.0,0.0,0.0,0.0,0.0,0.0,0.0,0,0,0,0,0,0,0,3,0,0,0,1,1,0,0
229645310,0.0,0.0,0.5508606,0.0,0.0,0.0,0.0,0.0,0.0,0.0,0,0,0,0,0,0,0,3,0,0,0,1,1,0,0
229848918,-0.046313938,-0.039819043,0.5249285,0.0,0.0,0.0,0.0,0.0,0.0,0.0,0,0,0,0,0,0,0,3,0,0,0,1,1,0,0
230048951,-0.0583541,-0.057648662,0.50799686,0.0,0.0,0.0,0.0,0.0,0.0,0.0,0,0,0,0,0,0,0,3,0,0,0,1,1,0,0
230262306,-0.10779094,-0.10507583,0.50542194,0.0,0.0,0.0,0.0,0.0,0.0,0.0,0,0,0,0,0,0,0,3,0,0,0,1,1,0,0
230458524,-0.13981885,-0.13996138,0.49974242,0.0,0.0,0.0,0.0,0.0,0.0,0.0,0,0,0,0,0,0,0,3,0,0,0,1,1,0,0
230666317,-0.07301405,-0.09102199,0.4997767,0.0,0.0,0.0,0.0,0.0,0.0,0.0,0,0,0,0,0,0,0,3,0,0,0,1,1,0,0
230870902,0.032382797,0.013666469,0.5354485,0.0,0.0,0.0,0.0,0.0,0.0,0.0,0,0,0,0,0,0,0,3,0,0,0,1,1,0,0
231070264,0.1743874,0.18132444,0.5459485,0.0,0.0,0.0,0.0,0.0,0.0,0.0,0,0,0,0,0,0,0,3,0,0,0,1,1,0,0
231271960,0.12855415,0.12863387,0.56903946,0.0,0.0,0.0,0.0,0.0,0.0,0.0,0,0,0,0,0,0,0,3,0,0,0,1,1,0,0
231471898,0.09563761,0.106829554,0.56883717,0.0,0.0,0.0,0.0,0.0,0.0,0.0,0,0,0,0,0,0,0,3,0,0,0,1,1,0,0
231683893,0.03681847,0.03400985,0.5699986,0.0,0.0,0.0,0.0,0.0,0.0,0.0,0,0,0,0,0,0,0,3,0,0,0,1,1,0,0
231883913,0.10639754,0.102627926,0.5672923,0.0,0.0,0.0,0.0,0.0,0.0,0.0,0,0,0,0,0,0,0,3,0,0,0,1,1,0,0
232077815,0.16366893,0.1640733,0.5628775,0.0,0.0,0.0,0.0,0.0,0.0,0.0,0,0,0,0,0,0,0,3,0,0,0,1,1,0,0
232277768,0.16695392,0.1731378,0.56119365,0.0,0.0,0.0,0.0,0.0,0.0,0.0,0,0,0,0,0,0,0,3,0,0,0,1,1,0,0
232481543,0.0002187101,0.000518136,0.5556797,0.0,0.0,0.0,0.0,0.0,0.0,0.0,0,0,0,0,0,0,0,3,0,0,0,1,1,0,0
232681522,0.108168796,0.10484523,0.5519147,0.0,0.0,0.0,0.0,0.0,0.0,0.0,0,0,0,0,0,0,0,3,0,0,0,1,1,0,0
232887705,0.115690626,0.115510575,0.54610896,0.0,0.0,0.0,0.0,0.0,0.0,0.0,0,0,0,0,0,0,0,3,0,0,0,1,1,0,0
233087131,0.10323887,0.10963701,0.54497975,0.0,0.0,0.0,0.0,0.0,0.0,0.0,0,0,0,0,0,0,0,3,0,0,0,1,1,0,0
233303136,-0.14539996,-0.14217162,0.5407206,0.0,0.0,0.0,0.0,0.0,0.0,0.0,0,0,0,0,0,0,0,3,0,0,0,1,1,0,0
233487193,-0.16594693,-0.16248538,0.54228705,0.0,0.0,0.0,0.0,0.0,0.0,0.0,0,0,0,0,0,0,0,3,0,0,0,1,1,0,0
233708964,-0.13597116,-0.13664913,0.5407023,0.0,0.0,0.0,0.0,0.0,0.0,0.0,0,0,0,0,0,0,0,3,0,0,0,1,1,0,0
233908741,-0.11656362,-0.1158299,0.5398652,0.0,0.0,0.0,0.0,0.0,0.0,0.0,0,0,0,0,0,0,0,3,0,0,0,1,1,0,0
234108913,-0.101062484,-0.101798736,0.54105353,0.0,0.0,0.0,0.0,0.0,0.0,0.0,0,0,0,0,0,0,0,3,0,0,0,1,1,0,0
234309032,-0.099741116,-0.09974125,0.5384077,0.0,0.0,0.0,0.0,0.0,0.0,0.0,0,0,0,0,0,0,0,3,0,0,0,1,1,0,0
234518382,-0.057006776,-0.06317678,0.5391844,0.0,0.0,0.0,0.0,0.0,0.0,0.0,0,0,0,0,0,0,0,3,0,0,0,1,1,0,0
234714350,-3.554538e-07,-9.601247e-07,0.5258447,0.0,0.0,0.0,0.0,0.0,0.0,0.0,0,0,0,0,0,0,0,3,0,0,0,1,1,0,0
234906913,-0.11672366,-0.08838232,0.5173735,0.0,0.0,0.0,0.0,0.0,0.0,0.0,0,0,0,0,0,0,0,3,0,0,0,1,1,0,0
235130353,-0.1968863,-0.19742371,0.5161896,0.0,0.0,0.0,0.0,0.0,0.0,0.0,0,0,0,0,0,0,0,3,0,0,0,1,1,0,0
235311124,-0.19774269,-0.19615382,0.5080668,0.0,0.0,0.0,0.0,0.0,0.0,0.0,0,0,0,0,0,0,0,3,0,0,0,1,1,0,0
235531124,0.00115441,0.0011038295,0.5086604,0.0,0.0,0.0,0.0,0.0,0.0,0.0,0,0,0,0,0,0,0,3,0,0,0,1,1,0,0
235731123,-0.24254636,-0.23353566,0.5120207,0.0,0.0,0.0,0.0,0.0,0.0,0.0,0,0,0,0,0,0,0,3,0,0,0,1,1,0,0
235927127,-0.0026409894,-0.0033508774,0.5131174,0.0,0.0,0.0,0.0,0.0,0.0,0.0,0,0,0,0,0,0,0,3,0,0,0,1,1,0,0
236119131,0.083645634,0.06654332,0.5366257,0.0,0.0,0.0,0.0,0.0,0.0,0.0,0,0,0,0,0,0,0,3,0,0,0,1,1,0,0
236339119,0.087315306,0.08561695,0.6289703,0.0,0.0,0.0,0.0,0.0,0.0,0.0,0,0,0,0,0,0,0,3,0,0,0,1,1,0,0
236529306,-8.936394e-06,-1.4432403e-05,0.6726401,0.0,0.0,0.0,0.0,0.0,0.0,0.0,0,0,0,0,0,0,0,3,0,0,0,1,1,0,0
236732740,1.6113554e-12,-5.9517495e-12,0.6704982,0.0,0.0,0.0,0.0,0.0,0.0,0.0,0,0,0,0,0,0,0,3,0,0,0,1,1,0,0
236936707,-0.1796919,-0.15489317,0.6040218,0.0,0.0,0.0,0.0,0.0,0.0,0.0,0,0,0,0,0,0,0,3,0,0,0,1,1,0,0
237136756,-0.21491256,-0.19086573,0.59078395,0.0,0.0,0.0,0.0,0.0,0.0,0.0,0,0,0,0,0,0,0,3,0,0,0,1,1,0,0
237330353,0.0066310577,0.0009882854,0.59042615,0.0,0.0,0.0,0.0,0.0,0.0,0.0,0,0,0,0,0,0,0,3,0,0,0,1,1,0,0
237554548,0.26752356,0.2762963,0.5305122,0.0,0.0,0.0,0.0,0.0,0.0,0.0,0,0,0,0,0,0,0,3,0,0,0,1,1,0,0
237754370,0.16698483,0.16249894,0.49884546,0.0,0.0,0.0,0.0,0.0,0.0,0.0,0,0,0,0,0,0,0,3,0,0,0,1,1,0,0
237934305,0.24398696,0.24740669,0.49582985,0.0,0.0,0.0,0.0,0.0,0.0,0.0,0,0,0,0,0,0,0,3,0,0,0,1,1,0,0
238135949,0.13442783,0.14037217,0.49701536,0.0,0.0,0.0,0.0,0.0,0.0,0.0,0,0,0,0,0,0,0,3,0,0,0,1,1,0,0
238355934,1.0188884e-07,6.032075e-08,0.49815893,0.0,0.0,0.0,0.0,0.0,0.0,0.0,0,0,0,0,0,0,0,3,0,0,0,1,1,0,0
238548126,3.0044955e-15,9.247015e-14,0.5076817,0.0,0.0,0.0,0.0,0.0,0.0,0.0,0,0,0,0,0,0,0,3,0,0,0,1,1,0,0
238751894,-1.8511044e-20,-1.8687186e-20,0.5082393,0.0,0.0,0.0,0.0,0.0,0.0,0.0,0,0,0,0,0,0,0,3,0,0,0,1,1,0,0
238964725,1.0390959e-27,-1.49751e-26,0.55840003,0.0,0.0,0.0,0.0,0.0,0.0,0.0,0,0,0,0,0,0,0,3,0,0,0,1,1,0,0
239164726,3.2280045e-33,4.6241964e-33,0.6297413,0.0,0.0,0.0,0.0,0.0,0.0,0.0,0,0,0,0,0,0,0,3,0,0,0,1,1,0,0
239364753,-4.61243e-40,2.288982e-39,0.6539095,0.0,0.0,0.0,0.0,0.0,0.0,0.0,0,0,0,0,0,0,0,3,0,0,0,1,1,0,0
239568909,0.0,0.0,0.6074626,0.0,0.0,0.0,0.0,0.0,0.0,0.0,0,0,0,0,0,0,0,3,0,0,0,1,1,0,0
239768926,0.0,0.0,0.47532475,0.0,0.0,0.0,0.0,0.0,0.0,0.0,0,0,0,0,0,0,0,3,0,0,0,1,1,0,0
239973520,0.0,0.0,0.41031426,0.0,0.0,0.0,0.0,0.0,0.0,0.0,0,0,0,0,0,0,0,3,0,0,0,1,1,0,0
240174321,0.0,0.0,0.4410377,0.0,0.0,0.0,0.0,0.0,0.0,0.0,0,0,0,0,0,0,0,3,0,0,0,1,1,0,0
240382314,0.0,0.0,0.581416,0.0,0.0,0.0,0.0,0.0,0.0,0.0,0,0,0,0,0,0,0,3,0,0,0,1,1,0,0
240574347,0.0,0.0,0.6745079,0.0,0.0,0.0,0.0,0.0,0.0,0.0,0,0,0,0,0,0,0,3,0,0,0,1,1,0,0
240782289,0.0,0.0,0.56943977,0.0,0.0,0.0,0.0,0.0,0.0,0.0,0,0,0,0,0,0,0,3,0,0,0,1,1,0,0
240984192,0.0,0.0,0.49069905,-2.5065497e-06,0.0,0.0,0.0,0.0,0.0,0.0,0,0,0,0,0,0,0,3,0,0,0,1,1,0,0
241183933,0.0,0.0,0.49243018,1.7980001e-08,0.0,0.0,0.0,0.0,0.0,0.0,0,0,0,0,0,0,0,3,0,0,0,1,1,0,0
241387955,0.0,0.0,0.4939106,-1.4627506e-11,0.0,0.0,0.0,0.0,0.0,0.0,0,0,0,0,0,0,0,3,0,0,0,1,1,0,0
241591898,0.0,0.0,0.47581306,5.152676e-15,0.0,0.0,0.0,0.0,0.0,0.0,0,0,0,0,0,0,0,3,0,0,0,1,1,0,0
241784730,0.0,0.0,0.47803476,1.6955571e-18,0.0,0.0,0.0,0.0,0.0,0.0,0,0,0,0,0,0,0,3,0,0,0,1,1,0,0
241992723,0.0,0.0,0.5054322,-3.6604854e-21,0.0,0.0,0.0,0.0,0.0,0.0,0,0,0,0,0,0,0,3,0,0,0,1,1,0,0
242196759,0.0,0.0,0.5948782,2.4762667e-24,0.0,0.0,0.0,0.0,0.0,0.0,0,0,0,0,0,0,0,3,0,0,0,1,1,0,0
242400718,0.0,0.0,0.5676249,-6.1125973e-28,0.0,0.0,0.0,0.0,0.0,0.0,0,0,0,0,0,0,0,3,0,0,0,1,1,0,0
242600744,0.0,0.0,0.5295478,-5.147988e-31,0.0,0.0,0.0,0.0,0.0,0.0,0,0,0,0,0,0,0,3,0,0,0,1,1,0,0
242794643,0.0,0.0,0.51045066,7.079225e-34,0.0,0.0,0.0,0.0,0.0,0.0,0,0,0,0,0,0,0,3,0,0,0,1,1,0,0
242994323,-5.8275567e-09,-1.9208096e-07,0.49469355,-3.997948e-37,0.0,0.0,0.0,0.0,0.0,0.0,0,0,0,0,0,0,0,3,0,0,0,1,1,0,0
243214338,-5.122671e-15,6.5460904e-15,0.47535422,-1.14014e-40,0.0,0.0,0.0,0.0,0.0,0.0,0,0,0,0,0,0,0,3,0,0,0,1,1,0,0
243410551,-2.1155542e-21,-6.910872e-21,0.1837717,8.7e-44,0.0,0.0,0.0,0.0,0.0,0.0,0,0,0,0,0,0,0,3,0,0,0,1,1,0,0
243615721,1.0980838e-27,-5.8393377e-28,0.0003689378,0.0,0.0,0.0,0.0,0.0,0.0,0.0,0,0,0,0,0,0,0,3,0,0,0,1,1,0,0
243811363,2.854633e-34,1.2879529e-33,0.0,0.0,0.0,0.0,0.0,0.0,0.0,0.0,0,0,0,0,0,0,0,3,0,0,0,1,1,0,0
244031129,1.3472e-41,-8.0684e-41,0.0,0.0,0.0,0.0,0.0,0.0,0.0,0.0,0,0,0,0,0,0,0,3,0,0,0,1,1,0,0
244227697,0.0,0.0,6.999512e-14,0.005961655,0.0,0.0,0.0,0.0,0.0,0.0,0,0,0,0,0,0,0,3,0,0,0,1,1,0,0
244427077,0.0,0.0,0.0,0.0042023417,0.0,0.0,0.0,0.0,0.0,0.0,0,0,0,0,0,0,0,3,0,0,0,1,1,0,0
244631131,0.0,0.0,1.11547075e-20,0.005046807,0.0,0.0,0.0,0.0,0.0,0.0,0,0,0,0,0,0,0,3,0,0,0,1,1,0,0
244824752,0.0,0.0,1.00506614e-23,0.008595945,0.0,0.0,0.0,0.0,0.0,0.0,0,0,0,0,0,0,0,3,0,0,0,1,1,0,0
245028922,0.0,0.0,0.0,0.0652134,0.0,0.0,0.0,0.0,0.0,0.0,0,0,0,0,0,0,0,3,0,0,0,1,1,0,0
245240704,0.0,0.0,0.0,0.8838227,0.0,0.0,0.0,0.0,0.0,0.0,0,0,0,0,0,0,0,3,0,0,0,1,1,0,0
245432736,0.0,0.0,2.1855944e-33,1.0,0.0,0.0,0.0,0.0,0.0,0.0,0,0,0,0,0,0,0,3,0,0,0,1,1,0,0
245650630,0.0,0.0,0.0,1.0,0.0,0.0,0.0,0.0,0.0,0.0,0,0,0,0,0,0,0,3,0,0,0,1,1,0,0
245850540,0.0,0.0,0.0,0.99821496,0.0,0.0,0.0,0.0,0.0,0.0,0,0,0,0,0,0,0,3,0,0,0,1,1,0,0
246054300,0.0,0.0,3.15e-43,1.0,0.0,0.0,0.0,0.0,0.0,0.0,0,0,0,0,0,0,0,3,0,0,0,1,1,0,0
246250337,0.0,0.0,0.0,0.9999855,0.0,0.0,0.0,0.0,0.0,0.0,0,0,0,0,0,0,0,3,0,0,0,1,1,0,0
246443946,0.0,0.0,0.0,1.0,0.0,0.0,0.0,0.0,0.0,0.0,0,0,0,0,0,0,0,3,0,0,0,1,1,0,0
246644130,0.0,0.0,0.0,0.999917,0.0,0.0,0.0,0.0,0.0,0.0,0,0,0,0,0,0,0,3,0,0,0,1,1,0,0
246863958,0.0,0.0,0.0,0.71136415,0.0,0.0,0.0,0.0,0.0,0.0,0,0,0,0,0,0,0,3,0,0,0,1,1,0,0
247047931,0.0,0.0,0.0,0.15912563,0.0,0.0,0.0,0.0,0.0,0.0,0,0,0,0,0,0,0,3,0,0,0,1,1,0,0
247261515,0.0,0.0,0.0,0.13192286,0.0,0.0,0.0,0.0,0.0,0.0,0,0,0,0,0,0,0,3,0,0,0,1,1,0,0
247466335,0.0,0.0,0.0,0.07911868,0.0,0.0,0.0,0.0,0.0,0.0,0,0,0,0,0,0,0,3,0,0,0,1,1,0,0
247669470,0.0,0.0,0.0,-0.0002549444,0.0,0.0,0.0,0.0,0.0,0.0,0,0,0,0,0,0,0,3,0,0,0,1,1,0,0
247869559,0.0,0.0,0.0,-3.5278396e-07,0.0,0.0,0.0,0.0,0.0,0.0,0,0,0,0,0,0,0,3,0,0,0,1,1,0,0
248066317,0.0,0.0,0.0,-0.03538681,0.0,0.0,0.0,0.0,0.0,0.0,0,0,0,0,0,0,0,3,0,0,0,1,1,0,0
248262315,0.0,0.0,0.0,0.00046515075,0.0,0.0,0.0,0.0,0.0,0.0,0,0,0,0,0,0,0,3,0,0,0,1,1,0,0
248478531,0.0,0.0,0.0,0.15520886,0.0,0.0,0.0,0.0,0.0,0.0,0,0,0,0,0,0,0,3,0,0,0,1,1,0,0
248678525,0.0,0.0,0.0,0.109171055,0.0,0.0,0.0,0.0,0.0,0.0,0,0,0,0,0,0,0,3,0,0,0,1,1,0,0
248886336,0.0,0.0,0.0,0.13628843,0.0,0.0,0.0,0.0,0.0,0.0,0,0,0,0,0,0,0,3,0,0,0,1,1,0,0
249079120,0.0,0.0,0.0,0.40428832,0.0,0.0,0.0,0.0,0.0,0.0,0,0,0,0,0,0,0,3,0,0,0,1,1,0,0
249287112,0.0,0.0,0.0,0.10392586,0.0,0.0,0.0,0.0,0.0,0.0,0,0,0,0,0,0,0,3,0,0,0,1,1,0,0
249487146,0.0,0.0,0.0,0.06209405,0.0,0.0,0.0,0.0,0.0,0.0,0,0,0,0,0,0,0,3,0,0,0,1,1,0,0
249687168,0.0,0.0,0.0,0.13107567,0.0,0.0,0.0,0.0,0.0,0.0,0,0,0,0,0,0,0,3,0,0,0,1,1,0,0
249887134,0.0,0.0,0.0,0.0895628,0.0,0.0,0.0,0.0,0.0,0.0,0,0,0,0,0,0,0,3,0,0,0,1,1,0,0
250091893,0.0,0.0,0.0,0.044419207,0.0,0.0,0.0,0.0,0.0,0.0,0,0,0,0,0,0,0,3,0,0,0,1,1,0,0
250300759,0.0,0.0,0.0,0.042159457,0.0,0.0,0.0,0.0,0.0,0.0,0,0,0,0,0,0,0,3,0,0,0,1,1,0,0
250496716,0.0,0.0,0.0,0.04101952,0.0,0.0,0.0,0.0,0.0,0.0,0,0,0,0,0,0,0,3,0,0,0,1,1,0,0
250712730,0.0,0.0,0.0,0.021174617,0.0,0.0,0.0,0.0,0.0,0.0,0,0,0,0,0,0,0,3,0,0,0,1,1,0,0
250914354,0.0,0.0,0.0,0.002327604,0.0,0.0,0.0,0.0,0.0,0.0,0,0,0,0,0,0,0,3,0,0,0,1,1,0,0
251110558,0.0,0.0,0.0,1.211623e-06,0.0,0.0,0.0,0.0,0.0,0.0,0,0,0,0,0,0,0,3,0,0,0,1,1,0,0
251314403,0.0,0.0,0.0,-2.0424318e-09,0.0,0.0,0.0,0.0,0.0,0.0,0,0,0,0,0,0,0,3,0,0,0,1,1,0,0
251514303,0.0,0.0,0.0,1.2692713e-12,0.0,0.0,0.0,0.0,0.0,0.0,0,0,0,0,0,0,0,3,0,0,0,1,1,0,0
251714954,0.0,0.0,0.0,-2.4298366e-16,0.0,0.0,0.0,0.0,0.0,0.0,0,0,0,0,0,0,0,3,0,0,0,1,1,0,0
252532968,0.0,0.0,0.0,1.0587274e-29,0.0,0.0,0.0,0.0,0.0,0.0,0,0,0,0,0,0,0,3,0,0,0,1,1,0,0
252729514,0.0,0.0,0.0,7.528902e-32,0.0,0.0,0.0,0.0,0.0,0.0,0,0,0,0,0,0,0,3,0,0,0,1,1,0,0
252929564,0.0,0.0,0.0,-7.017494e-35,0.0,0.0,0.0,0.0,0.0,0.0,0,0,0,0,0,0,0,3,0,0,0,1,1,0,0
253145715,0.0,0.0,0.0,-8.648741e-39,0.0,0.0,0.0,0.0,0.0,0.0,0,0,0,0,0,0,0,3,0,0,0,1,1,0,0
253342348,0.0,0.0,0.0,1.2593e-41,0.0,0.0,0.0,0.0,0.0,0.0,0,0,0,0,0,0,0,3,0,0,0,1,1,0,0
253543157,0.0,0.0,0.0,-7e-45,0.0,0.0,0.0,0.0,0.0,0.0,0,0,0,0,0,0,0,3,0,0,0,1,1,0,0
253755130,0.0,0.0,0.0,0.0,0.0,0.0,0.0,0.0,0.0,0.0,0,0,0,0,0,0,0,3,0,0,0,1,1,0,0
253947179,0.0,0.0,0.0,0.0,0.0,0.0,0.0,0.0,0.0,0.0,0,0,0,0,0,0,0,3,0,0,0,1,1,0,0
254151913,0.0,0.0,0.0,0.0,0.0,0.0,0.0,0.0,0.0,0.0,0,0,0,0,0,0,0,3,0,0,0,1,1,0,0
254368970,0.0,0.0,0.0,0.0,0.0,0.0,0.0,0.0,0.0,0.0,0,0,0,0,0,0,0,3,0,0,0,1,1,0,0
254548910,0.0,0.0,0.0,0.0,0.0,0.0,0.0,0.0,0.0,0.0,0,0,0,0,0,0,0,3,0,0,0,1,1,0,0
254764741,0.0,0.0,0.0,0.0,0.0,0.0,0.0,0.0,0.0,0.0,0,0,0,0,0,0,0,3,0,0,0,1,1,0,0
254961519,0.0,0.0,0.0,0.0,0.0,0.0,0.0,0.0,0.0,0.0,0,0,0,0,0,0,0,3,0,0,0,1,1,0,0
255174319,0.0,0.0,0.0,-0.0026363016,0.0,0.0,0.0,0.0,0.0,0.0,0,0,0,0,0,0,0,3,0,0,0,1,1,0,0
255370320,0.0,0.0,0.0,-0.007781522,0.0,0.0,0.0,0.0,0.0,0.0,0,0,0,0,0,0,0,3,0,0,0,1,1,0,0
255566313,0.0,0.0,0.0,-0.020111602,0.0,0.0,0.0,0.0,0.0,0.0,0,0,0,0,0,0,0,3,0,0,0,1,1,0,0
255776723,0.0,0.0,0.0,-0.0287391,0.0,0.0,0.0,0.0,0.0,0.0,0,0,0,0,0,0,0,3,0,0,0,1,1,0,0
255979951,0.0,0.0,0.0,-0.028276619,0.0,0.0,0.0,0.0,0.0,0.0,0,0,0,0,0,0,0,3,0,0,0,1,1,0,0
