timestamp,rollspeed,pitchspeed,yawspeed,rollspeed_integ,pitchspeed_integ,yawspeed_integ,additional_integ1
175388268,-0.0002505069,-0.000331523,0.0011078885,0.0,0.0,0.0,0.0
175453060,0.0003099623,0.0026188425,0.0016972637,0.0,0.0,0.0,0.0
175482626,-0.00057118805,-0.0003488647,-0.0011207282,0.0,0.0,0.0,0.0
175514675,8.858158e-05,0.00013465155,-0.00055596326,0.0,0.0,0.0,0.0
175546710,0.0006358329,0.00021387148,0.0011702847,0.0,0.0,0.0,0.0
175578662,-0.00033952133,2.7885428e-05,0.0004736216,0.0,0.0,0.0,0.0
175607447,-0.00047004037,0.0012733717,0.0021501037,0.0,0.0,0.0,0.0
175639451,0.0003388523,-0.001571888,0.0012279601,0.0,0.0,0.0,0.0
175671440,0.00025074056,0.0007208744,-0.0004311402,0.0,0.0,0.0,0.0
175703478,-0.00028273324,-0.0015028014,-0.0010960919,0.0,0.0,0.0,0.0
175735469,0.0011620162,-3.242877e-05,-0.0099216215,0.0,0.0,0.0,0.0
175767470,-0.0020881738,-0.0024961699,-0.0064221425,0.0,0.0,0.0,0.0
175799470,-0.003045814,-0.00061513216,0.0042557665,0.0,0.0,0.0,0.0
175827449,-0.00086321076,-0.0020500808,0.009642525,0.0,0.0,0.0,0.0
175859439,-0.0027948704,-0.0007378524,0.011248019,0.0,0.0,0.0,0.0
175891475,0.00073061744,-0.0064439126,0.0022268023,0.0,0.0,0.0,0.0
175923464,-0.006715864,-0.0031806324,-0.0066432334,0.0,0.0,0.0,0.0
175955643,0.00048020878,-0.0027499567,-0.0073770685,0.0,0.0,0.0,0.0
175987433,0.00013851828,-0.001024748,0.0010842887,0.0,0.0,0.0,0.0
176019502,-0.00093362667,-0.0027582622,0.0068352623,0.0,0.0,0.0,0.0
176051582,-0.0070738173,-0.002913714,0.00014289585,0.0,0.0,0.0,0.0
176083475,0.0021648982,0.0014937189,-0.006073735,0.0,0.0,0.0,0.0
176115446,0.0023910587,0.0027828715,0.00016705145,0.0,0.0,0.0,0.0
176149030,-0.0012131899,-0.004712437,0.0031689103,0.0,0.0,0.0,0.0
176177079,-0.0060703917,-0.0004274965,0.0025029315,0.0,0.0,0.0,0.0
176209035,0.004722773,-0.00040709123,-0.0027548939,0.0,0.0,0.0,0.0
176241128,0.0018561706,-0.0027591665,-0.001544552,0.0,0.0,0.0,0.0
176273064,-0.00554581,-0.0026876745,-0.00022800115,0.0,0.0,0.0,0.0
176305100,-0.00046797865,-0.00057904434,0.0012845258,0.0,0.0,0.0,0.0
176337050,-0.0024127543,-0.0011873513,0.0016378902,0.0,0.0,0.0,0.0
176369113,-0.0025077946,-0.0026487983,0.00035700557,0.0,0.0,0.0,0.0
176401089,-0.0010515118,-0.00035121653,0.0013379075,0.0,0.0,0.0,0.0
176429074,0.0018621782,0.00414026,0.004951661,0.0,0.0,0.0,0.0
176461079,0.0044899415,-0.004456425,0.00031112193,0.0,0.0,0.0,0.0
176493092,-0.0009789877,-0.0048189703,-0.0056399023,0.0,0.0,0.0,0.0
176525043,-0.00089635025,-5.5340002e-05,-0.004903499,0.0,0.0,0.0,0.0
176557127,-0.0035193958,0.0008661351,0.004199759,0.0,0.0,0.0,0.0
176589083,-0.0036895054,-0.008642966,0.0037450676,0.0,0.0,0.0,0.0
176621049,0.0055451095,-0.0012756777,-0.004512393,0.0,0.0,0.0,0.0
176653007,0.001744203,-0.0003632768,-0.0047061397,0.0,0.0,0.0,0.0
176681009,0.0012571602,-0.0016538531,-0.0020984188,0.0,0.0,0.0,0.0
176713043,0.00090816966,-0.0057511665,0.005330311,0.0,0.0,0.0,0.0
176745096,0.0037568258,0.004613906,0.0072415085,0.0,0.0,0.0,0.0
176777024,0.0013740619,0.0035990526,0.00016369892,0.0,0.0,0.0,0.0
176809058,0.0023623197,-0.0023249746,-0.008008446,0.0,0.0,0.0,0.0
176841040,0.00358669,0.00037961802,-0.004123818,0.0,0.0,0.0,0.0
176873089,-0.004353495,0.0055759214,0.006795823,0.0,0.0,0.0,0.0
176905108,0.0051045804,-0.0030083715,0.005854461,0.0,0.0,0.0,0.0
176937097,0.0028684698,-0.0006945515,-0.0008712455,0.0,0.0,0.0,0.0
176969032,-0.00031011296,0.00089717656,-0.0064348774,0.0,0.0,0.0,0.0
177001099,0.001103598,-0.0027976288,0.0003180565,0.0,0.0,0.0,0.0
177033025,-0.0014704328,-0.0009962749,0.004351763,0.0,0.0,0.0,0.0
177061875,-0.0028618358,0.004195071,0.00543424,0.0,0.0,0.0,0.0
177094698,-0.0038191865,0.0005658533,-0.0033386745,0.0,0.0,0.0,0.0
177126632,0.003718632,-0.0074072247,-0.0030355286,0.0,0.0,0.0,0.0
177158677,0.004862248,0.00077136036,0.00059287855,0.0,0.0,0.0,0.0
177190685,0.002464287,0.008534746,0.0032556853,0.0,0.0,0.0,0.0
177222719,0.000652671,-0.0057490743,-0.0001764266,-0.00020321638,-0.00011544098,3.4168377e-06,0.0
177254650,0.0007048317,0.001674619,-0.0007512624,-0.00043584846,-0.00024240735,7.701849e-06,0.0
177286695,0.009629295,0.0040672906,-0.0002640423,-0.0006760613,-0.0003789065,1.6021375e-05,0.0
177314625,-0.008276429,-0.0043238252,-0.0004666634,-0.0008826893,-0.0004982289,1.9824498e-05,0.0
177346678,0.0040886486,-0.0027084905,0.0038533746,-0.0011179129,-0.00062487804,1.7294762e-05,0.0
177378678,0.0012521008,0.001242352,0.00011469668,-0.0013512045,-0.0007555448,1.4566221e-05,0.0
177410694,-0.005566976,0.001998148,0.0004678489,-0.0015878363,-0.0008919831,1.7715889e-05,0.0
177442634,-0.00052930694,-0.001338673,-0.00212939,-0.0018262815,-0.0010197206,2.7514276e-05,0.0
177474678,-0.0069451835,-0.0017057925,0.0046285717,-0.0020564154,-0.0011469908,2.6093643e-05,0.0
177506654,0.0046003805,-0.00016432127,-0.0001916613,-0.0022898945,-0.0012838558,2.267456e-05,0.0
177538708,0.0052454295,0.00027042744,-0.0022504902,-0.0025290702,-0.0014154906,2.8611626e-05,0.0
177570646,-0.0005429345,-0.0066982694,-0.0006216045,-0.002768755,-0.0015407673,3.6277157e-05,0.0
177602687,-0.006199044,0.0064145345,0.0026692068,-0.0030038827,-0.0016787037,3.1976786e-05,0.0
177634653,-0.0051385984,-0.0011130439,-0.00058480015,-0.0032364733,-0.0018127451,3.363396e-05,0.0
177666749,0.0012028383,-0.0055180597,-0.00087730295,-0.0034747797,-0.0019386634,3.9452025e-05,0.0
177698635,0.0024970646,0.0041756555,0.0033774981,-0.0037138378,-0.002073198,4.075133e-05,0.0
177730636,-0.0060581574,-0.002645383,0.00037605647,-0.0039476836,-0.0022089218,3.779011e-05,0.0
177762656,-0.0016338103,-0.0010397686,-0.0012515369,-0.004181476,-0.0023393491,4.5440407e-05,0.0
177794640,-0.002277643,0.0037908303,0.0013281999,-0.004418548,-0.0024720628,5.117107e-05,0.0
177826619,0.0048586754,-0.0027146717,0.0012080029,-0.004658864,-0.0026091374,4.601908e-05,0.0
177858609,0.0053579276,-0.009661507,-0.0021882155,-0.0048958743,-0.0027374928,4.9015656e-05,0.0
177890617,-0.0025426405,0.003065768,-0.0022478423,-0.00512993,-0.0028672726,5.839129e-05,0.0
177922690,0.0016604236,0.0071519054,0.002052976,-0.005368339,-0.0030057824,6.358027e-05,0.0
177954725,0.0049107745,-0.0005469376,0.0034492249,-0.0056086346,-0.0031381631,5.8926646e-05,0.0
177984270,-0.0028150468,0.004222218,0.0012423339,-0.0058279037,-0.0032550078,6.099401e-05,0.0
178016284,-0.0006385965,0.0043155504,-0.0030505098,-0.0060635996,-0.0033892805,6.466356e-05,0.0
178048245,0.0081956135,-0.0027132835,-0.0010662583,-0.0063008624,-0.0035246813,7.4084484e-05,0.0
178080238,0.0027510691,-0.0017376126,-0.00019321975,-0.0065423246,-0.0036532155,7.3725416e-05,0.0
178112254,-0.005478579,0.0046147597,0.0012796333,-0.0067794607,-0.003785387,7.539805e-05,0.0
178144268,-0.0053377855,0.0033798688,-0.0028405886,-0.0070131384,-0.003920633,8.100352e-05,0.0
178172251,-0.0023472656,-0.0035665678,0.001863268,-0.0072205085,-0.0040349863,8.5073225e-05,0.0
178204235,0.0018284889,-0.0004225535,-0.0009833595,-0.007461048,-0.004163117,8.8069144e-05,0.0
178236226,0.0010427871,0.0001338697,0.00065080717,-0.007700273,-0.0042963917,8.7865425e-05,0.0
178268235,-0.0023132747,0.0032559242,-0.0015909995,-0.007932472,-0.004428811,9.5519244e-05,0.0
178300271,-0.003556009,-0.0015151363,-0.00030226505,-0.008171037,-0.0045572654,0.000101349186,0.0
178332256,0.0024726726,0.008122948,-0.0024328753,-0.008413824,-0.0046900734,0.00011115196,0.0
178364250,-0.006207385,0.0004934864,-0.0017937791,-0.008652322,-0.0048232083,0.00012027185,0.0
178396247,0.0017473623,0.00010950677,0.0013908362,-0.008890211,-0.0049534896,0.0001284227,0.0
178428266,0.009130692,-0.0018612209,0.0014075353,-0.009130917,-0.005084175,0.00012698804,0.0
178460454,0.0054692207,0.005090138,0.0039732736,-0.009375247,-0.005218084,0.00012975006,0.0
178492267,0.0015443022,0.0011834252,-0.0010555654,-0.0096140355,-0.005349497,0.00013721238,0.0
178524233,0.001524439,-0.00038986804,-0.001338849,-0.009852834,-0.005477618,0.00014792498,0.0
178556304,0.00969613,0.0014187112,-0.00020419783,-0.010092775,-0.0056076148,0.00016236222,0.0
178588275,-0.0032841067,3.907492e-05,0.005474371,-0.010331229,-0.005737966,0.0001589055,0.0
178620291,-0.0079281675,-0.00073814124,0.011483244,-0.010558891,-0.005866687,0.00013948006,0.0
178652233,-0.012542237,0.007458771,0.0073327,-0.010774061,-0.005996053,9.987555e-05,0.0
178684287,0.013733361,-0.009474561,-0.0065314984,-0.01098213,-0.006118965,9.881452e-05,0.0
178716280,0.0014393767,-0.012493595,-0.016114067,-0.011195216,-0.006240552,0.00013552544,0.0
178748284,-0.00090594846,-0.009655553,-0.006197147,-0.011422535,-0.006365404,0.00016240047,0.0
178780430,-0.037848465,-0.015258006,0.0029193861,-0.011639469,-0.006490505,0.0001613695,0.0
178812284,0.00285572,0.0069869612,-0.0010226321,-0.011848998,-0.0066172187,0.00015920431,0.0
178844285,0.0031728195,0.0065114447,0.0027447685,-0.012071636,-0.006742073,0.00016329245,0.0
178876228,0.004435822,0.0034910408,-0.0033008195,-0.012300623,-0.006867564,0.00017200498,0.0
178909839,-0.003172817,3.315939e-05,0.0020880739,-0.012532871,-0.0069958935,0.00018012397,0.0
178941845,1.1557946e-05,-0.005998393,-0.0061197584,-0.012743669,-0.0071182526,0.0001834938,0.0
178973850,0.011568126,0.011573151,-0.0018883982,-0.012960008,-0.0072474214,0.00018403647,0.0
179005853,0.026383482,0.013275914,0.0041712266,-0.013171022,-0.007369303,0.00019073814,0.0
179037864,0.008486746,0.0061777523,-0.0012141542,-0.013380647,-0.007491566,0.00019569873,0.0
179069833,-0.038615223,0.006880856,-0.00914593,-0.013587758,-0.007614313,0.00020054253,0.0
179101887,-0.038992625,-0.0121254055,0.01259713,-0.013805257,-0.0077311117,0.00020492123,0.0
179133911,-0.0021675394,-0.017938374,-0.0073154424,-0.014023949,-0.007851048,0.00021097188,0.0
179165835,0.03522529,-0.0147522455,-0.0011372718,-0.014252192,-0.007967834,0.00021664219,0.0
179197917,0.0017565853,0.018667284,0.008547572,-0.014456041,-0.008088855,0.00021544134,0.0
179229828,-0.016536169,0.027550424,0.007158726,-0.014660318,-0.008213956,0.00021689711,0.0
179261850,0.018241933,-0.017918596,-0.0033881078,-0.01487722,-0.008328804,0.00022953209,0.0
179293810,-0.020166172,0.0034072748,-0.00032303727,-0.015085937,-0.008452802,0.00023670639,0.0
179325847,-0.03350234,-0.0148759745,0.0019473583,-0.015290724,-0.0085752,0.00024845765,0.0
179357880,0.03182355,-0.045096178,0.0020826724,-0.015511618,-0.008687606,0.00026121872,0.0
179389906,0.02926331,0.035670325,0.0022553154,-0.015728097,-0.008814181,0.00025912453,0.0
179421905,-0.059389096,0.0103338305,0.009321531,-0.015937326,-0.008931513,0.0002575575,0.0
179449903,-0.04475535,-0.0030097282,0.008217379,-0.01612337,-0.009032031,0.0002686491,0.0
179481835,0.0050365767,0.014472478,0.0021753702,-0.01631577,-0.00916028,0.0002804267,0.0
179513892,-0.0005948874,-0.0019178406,-0.007568408,-0.016510237,-0.0092861615,0.00029075102,0.0
179545849,-0.059131544,0.0048675598,-0.003377763,-0.016682733,-0.009395896,0.00031134865,0.0
179577938,-0.019899732,0.0003923654,-0.0019494136,-0.016833672,-0.009522778,0.00031454797,0.0
179609852,-0.03421155,0.017941937,-0.005967292,-0.016973838,-0.009649578,0.00033903358,0.0
179641866,-0.002965326,-0.014652222,-0.00025750475,-0.017147997,-0.009767132,0.0003542838,0.0
179673886,-0.03644747,-0.00024660514,0.0046039345,-0.017304098,-0.009873462,0.00035726224,0.0
179701855,0.018361617,-0.011820309,0.0059496984,-0.017434375,-0.009971784,0.0003606884,0.0
179733869,-0.04449293,0.012358715,-5.9550046e-05,-0.01757447,-0.010091883,0.00036463776,0.0
179765919,-0.005708302,-0.02957784,-0.005982345,-0.017740313,-0.010203497,0.00037994608,0.0
179797856,0.013423765,-0.022301452,-0.00059174676,-0.017853606,-0.010317542,0.0003936905,0.0
179831474,-0.0042339955,-0.005323388,0.0042123403,-0.017968582,-0.01045388,0.0004077422,0.0
179859500,-0.06811163,-0.019109743,0.0033575962,-0.018057097,-0.010553412,0.0004127705,0.0
179891435,-0.071464606,-0.060334142,0.0027769525,-0.01813513,-0.010657432,0.00041754456,0.0
179923432,0.024208032,-0.04849277,-0.015739169,-0.018217472,-0.010748911,0.00043717652,0.0
179955469,-0.03872888,0.014344514,0.009500612,-0.018279966,-0.010860001,0.00044203192,0.0
179987625,0.031596147,0.04473387,-0.011265483,-0.01835218,-0.010978137,0.00046055482,0.0
180019445,0.07636915,0.024993815,0.00234933,-0.018475061,-0.011087042,0.0004721658,0.0
180051494,0.028537408,0.013989651,0.006426363,-0.018556347,-0.011238806,0.00047983901,0.0
180083505,0.10451009,-0.0205855,-0.012894175,-0.018622164,-0.0113221435,0.0005167511,0.0
180115497,0.013010188,-0.0019935672,0.0070613152,-0.018752117,-0.011458548,0.00054757704,0.0
180147432,-0.08295381,-0.026867203,0.008910993,-0.018813243,-0.011555748,0.00054902426,0.0
180179479,-0.050158706,0.02974913,-0.00045602093,-0.01894275,-0.011678267,0.0005657796,0.0
180211472,-0.04753223,-0.057506945,0.028183693,-0.018986909,-0.011806108,0.000570848,0.0
180243525,0.09850069,-0.013696045,0.0016727475,-0.019069403,-0.011922492,0.0005935689,0.0
180275440,0.0025007282,-0.010304911,0.017010314,-0.019228334,-0.012039615,0.00060633186,0.0
180307532,-0.075417094,0.056707084,9.9396566e-05,-0.019240705,-0.012179659,0.0005974333,0.0
180339486,0.0592247,-0.024411662,0.009985579,-0.019380169,-0.012279861,0.000609976,0.0
180371440,-0.08750914,-0.062587656,0.036505625,-0.019456722,-0.01237738,0.0006013143,0.0
180403409,-0.018512787,-0.05335641,0.00039812358,-0.019479929,-0.012483518,0.00059444,0.0
180435428,0.05161192,-0.013501079,-0.013153511,-0.019649275,-0.012607699,0.00064083486,0.0
180467464,-0.0674178,0.004218454,0.010044219,-0.019769154,-0.012706541,0.00065643643,0.0
180499438,0.044120137,0.009001148,0.032742478,-0.019836824,-0.012827353,0.00062823785,0.0
180531441,0.068573736,0.014454665,0.015968375,-0.01997712,-0.012932565,0.0006144632,0.0
180559534,-0.022612158,-0.07561342,0.01766518,-0.019950079,-0.013015284,0.00060558156,0.0
180591437,0.017265841,0.15889205,0.053052533,-0.019852202,-0.013096962,0.00056185457,0.0
180623448,-0.08300017,-0.26963723,0.011931863,-0.019781236,-0.0131252045,0.00050158094,0.0
180655478,-0.24363682,0.21887384,0.030348169,-0.019385958,-0.013160678,0.00042746437,0.0
180687500,-0.2933331,-0.37949434,0.017241519,-0.018885614,-0.012973507,0.00034854436,0.0
180716268,-0.025312863,0.19253004,0.000529482,-0.018596461,-0.013043617,0.00030399655,0.0
180749050,-0.08579517,0.012300455,0.008496013,-0.01827149,-0.013097645,0.00025028785,0.0
180781056,-0.20844115,-0.27607137,-0.0092852665,-0.017862814,-0.012984816,0.00020499749,0.0
180813027,-0.030839441,0.0012146037,0.02425121,-0.017488647,-0.012918881,0.00015737412,0.0
180845082,0.073561765,0.0139053445,0.043708608,-0.01725611,-0.012938372,0.00010123307,0.0
180877088,0.077873446,0.073615,-0.017701317,-0.01686495,-0.012962171,3.957718e-05,0.0
180909028,-0.12353733,0.052929744,0.030090606,-0.01648598,-0.012886695,-2.5872918e-05,0.0
180937056,0.09483066,0.04875562,0.009167559,-0.016264254,-0.012912281,-7.600826e-05,0.0
180969068,0.047681455,0.20604628,0.03120489,-0.016023956,-0.012896776,-0.00014892804,0.0
181001028,-0.07644956,-0.18315679,0.006956253,-0.015707314,-0.012814685,-0.00020326657,0.0
181033083,-0.061511528,-0.14221509,-0.003285334,-0.015349049,-0.012817086,-0.00024599585,0.0
181065056,-0.043633785,0.10123992,0.015696732,-0.015031354,-0.012744225,-0.0003008396,0.0
181097031,0.12182987,-0.095020585,-0.00828575,-0.01477621,-0.012566963,-0.00034606896,0.0
181129034,0.06352869,0.05611247,0.0058744177,-0.014512754,-0.012543564,-0.00040198912,0.0
181161060,-0.12979619,0.03583283,0.026911568,-0.014255375,-0.012480558,-0.00048017607,0.0
181193064,-0.085132234,-0.2619435,0.016861955,-0.013821156,-0.01232602,-0.0005632346,0.0
181225036,0.07591978,-0.020741343,0.00949697,-0.013479014,-0.012238334,-0.0006652475,0.0
181257029,0.060958207,0.19686607,0.0254459,-0.013260794,-0.012223337,-0.0007647724,0.0
181289045,-0.07579015,0.008021124,0.01023873,-0.0129362475,-0.012192757,-0.0008777822,0.0
181321093,-0.0123709785,-0.011783471,0.019546378,-0.012600657,-0.012131938,-0.0010064398,0.0
181638652,0.023234582,0.2137647,0.02222285,-0.010224427,-0.011832564,-0.0026695703,0.0
181670748,0.017368285,-0.23664753,0.025046265,-0.010029099,-0.0117559,-0.0028608376,0.0
181702641,-0.051592685,-0.000109605375,-0.0045565222,-0.009815367,-0.01175428,-0.0030487936,0.0
181734783,-0.039617695,0.027552644,0.02802603,-0.009641464,-0.01169523,-0.0032255088,0.0
181766690,0.029510338,-0.066901684,-0.013990981,-0.009431542,-0.011657171,-0.0033798614,0.0
181794631,-0.117329866,-0.046210658,0.011987104,-0.009190441,-0.011612008,-0.0035170922,0.0
181826676,-0.10427183,-0.05974416,0.008652553,-0.008910546,-0.011634275,-0.0036635366,0.0
181858633,-0.010064522,0.005640558,0.012054528,-0.008599366,-0.011640518,-0.0038068492,0.0
181890614,0.028324712,-0.14572299,-0.020141631,-0.008357551,-0.011537146,-0.0039230753,0.0
181922606,-0.03796011,0.18504749,0.011661796,-0.008075192,-0.011422789,-0.0040638763,0.0
181954648,0.13056765,0.007757647,-0.0055704494,-0.0077906824,-0.01131914,-0.004202203,0.0
181986698,0.13512136,0.12030022,-0.019626245,-0.007752226,-0.011401787,-0.004318838,0.0
182018650,-0.051001772,0.13302954,0.0054324535,-0.0076941825,-0.011483373,-0.0044308975,0.0
182050666,0.026398167,-0.1763538,-0.004328043,-0.0074063255,-0.011546275,-0.004546401,0.0
182082646,0.10311192,0.08000818,0.0018140161,-0.0072718705,-0.011611613,-0.0046491395,0.0
182114699,0.017186001,-0.018621149,-0.008480958,-0.007128883,-0.011565979,-0.0047443695,0.0
182146634,-0.106437035,-0.03050925,-0.008106561,-0.0068262843,-0.011467112,-0.004859989,0.0
182178689,-0.029580055,0.13227835,0.010688728,-0.006569059,-0.011432125,-0.004996645,0.0
182210651,-0.013678877,-0.0009322708,0.01539558,-0.0063609276,-0.011429577,-0.005117654,0.0
182242723,-0.026548848,-0.072791375,0.015332842,-0.006049038,-0.011334039,-0.005242845,0.0
182270682,-0.034526527,-0.0041863658,0.021101806,-0.0057992777,-0.011256582,-0.0053758714,0.0
182302711,0.079194784,-0.054231137,0.015950589,-0.005657141,-0.011222523,-0.005538426,0.0
182334630,0.002491624,0.012368876,0.0077002575,-0.005500972,-0.011284424,-0.005694615,0.0
182366671,0.026039919,-0.029426644,0.0088511035,-0.005196958,-0.011251283,-0.0058705537,0.0
182398675,0.1281523,0.114954405,0.030082798,-0.005000507,-0.011263043,-0.006056693,0.0
182430703,0.09268587,0.1078344,0.031092728,-0.004869087,-0.011311695,-0.006248426,0.0
182462648,0.018527368,0.008164307,0.035377957,-0.0047053318,-0.011421744,-0.0064451583,0.0
182494699,-0.0068414146,-0.17172745,0.018557046,-0.004461569,-0.01134615,-0.00661497,0.0
182522651,0.119708,0.18031593,-0.0021354589,-0.0043559447,-0.011246436,-0.0067429016,0.0
182555431,0.04106971,0.17835954,-0.01042973,-0.0043134512,-0.011196121,-0.0068773367,0.0
182587440,-0.09761829,0.07712309,-0.01118646,-0.004116356,-0.011120202,-0.007015321,0.0
182620261,-0.031923406,0.039278872,-0.026802005,-0.003884508,-0.011036399,-0.007144319,0.0
182652306,-0.069775224,0.17177033,-0.017167613,-0.0037459857,-0.011023689,-0.0072436477,0.0
182680291,-0.036877543,0.0011382723,-0.013669039,-0.0035849595,-0.011013551,-0.0073297685,0.0
182712298,-0.084495954,0.1288554,-0.028550817,-0.0035122167,-0.010939458,-0.007412842,0.0
182744246,-0.1120152,0.20318592,-0.002519304,-0.0035049724,-0.01094776,-0.007495881,0.0
182776298,-0.047393296,-0.041549597,-0.01345552,-0.0034715675,-0.011021099,-0.007567916,0.0
182808275,-0.078058496,0.27182537,-0.02626517,-0.0033429235,-0.011114963,-0.007625259,0.0
182840308,0.07083419,0.13129058,-0.022254847,-0.0032260115,-0.011129572,-0.007653855,0.0
182872241,-0.029874504,-0.021196172,-0.028219713,-0.0032290525,-0.010993423,-0.007659422,0.0
182904294,-0.18761447,0.048049256,-0.024867628,-0.0032669634,-0.01085324,-0.007638925,0.0
182932251,-0.06510059,0.19063637,-0.034137975,-0.0031908888,-0.010877312,-0.0076312,0.0
182964273,-0.20474333,0.106319726,-0.011403949,-0.0029736767,-0.010821674,-0.0076237656,0.0
182996236,-0.13461868,0.06565529,-0.019329052,-0.0030392823,-0.010578152,-0.0076020556,0.0
183028243,-0.11822287,0.15394738,-0.0033546812,-0.0031832429,-0.010458473,-0.0075850138,0.0
183060212,-0.23052995,0.26133403,-0.0021183917,-0.0029377488,-0.010685501,-0.0075835492,0.0
183092274,-0.1251666,0.3304024,-0.025214441,-0.0025415528,-0.0109263705,-0.007606083,0.0
183124242,-0.025128441,-0.05200551,-0.025263572,-0.0024197449,-0.0109191295,-0.007603283,0.0
183156282,-0.14283171,0.007094408,-0.021226244,-0.0023871483,-0.010963997,-0.007566083,0.0
183188229,0.026723435,-0.050359145,-0.0007275748,-0.0022284356,-0.0110007115,-0.0075456197,0.0
183220316,0.09268551,0.100464396,-0.017438916,-0.0021170909,-0.011004181,-0.0075156232,0.0
183252269,0.04674481,0.09382764,-0.034587953,-0.0021180264,-0.010942571,-0.0074727493,0.0
183284272,-0.18342717,-0.0043148096,-0.012027925,-0.0019420608,-0.011115647,-0.007448746,0.0
183316229,-0.040807344,-0.26065338,-0.014012773,-0.0015513399,-0.011467775,-0.0074295104,0.0
183348292,0.26854217,-0.09525793,-0.006202941,-0.0012106488,-0.011700378,-0.007419274,0.0
183380281,0.42148387,-0.46054357,-0.019973774,-0.0011737896,-0.0115939425,-0.0073849554,0.0
183408321,0.2904315,-0.21548164,-0.0009519402,-0.0012059362,-0.011522,-0.007353065,0.0
183440285,0.3367473,-0.36437997,-0.024373738,-0.0012353124,-0.011381208,-0.0073138676,0.0
183473025,0.25718302,-0.07790477,-0.020340404,-0.0012848908,-0.011246427,-0.0072808126,0.0
183505034,0.18175235,-0.08419651,0.0038361298,-0.0013596216,-0.011152313,-0.0072652795,0.0
183537024,0.03057546,-0.2684621,0.0052597076,-0.0012440617,-0.011281109,-0.007260694,0.0
183569112,0.1285496,-0.20190258,0.005580501,-0.0007980339,-0.0116133485,-0.007264854,0.0
183601064,0.3783971,-0.25118896,0.0012743394,-0.0005159078,-0.011722617,-0.00726347,0.0
183633066,0.43813786,-0.6712626,0.0010077792,-0.00043684698,-0.011567244,-0.00724505,0.0
183665034,0.3596213,-0.3628166,0.0065540248,-0.00044417437,-0.011423326,-0.0072303023,0.0
183697132,0.36897323,-0.331088,0.024862004,-0.0005184437,-0.011305539,-0.0072319396,0.0
183729070,0.28230616,-0.298439,0.005193791,-0.0005688195,-0.011258892,-0.0072242115,0.0
183761079,0.26234937,-0.11291125,-0.014661889,-0.00048356285,-0.011280719,-0.007218628,0.0
183793037,0.23745981,-0.15140216,0.029721012,-0.0003666378,-0.01130606,-0.007194831,0.0
183825166,0.2883101,-0.55256736,0.0034186896,-0.0002925756,-0.011253881,-0.0071438462,0.0
183857068,0.2574663,-0.18546486,0.01963823,-0.0002611706,-0.011187894,-0.0071377084,0.0
183889070,0.17785944,-0.029804122,0.02377867,-0.0002679988,-0.010992393,-0.007159503,0.0
183921030,0.18970598,-0.15389743,0.016236374,-0.0003671093,-0.010797609,-0.0072075194,0.0
183953100,0.031948987,0.07180516,0.03349414,-0.00056982815,-0.010655869,-0.007283959,0.0
183985030,-0.04548588,0.03848973,0.016271729,-0.00071687746,-0.010463283,-0.007364456,0.0
184017012,-0.11287452,0.02979833,0.02706673,-0.0009178575,-0.010279299,-0.0074534533,0.0
184049010,-0.18395454,0.36975536,0.028876167,-0.001158769,-0.010135979,-0.007549068,0.0
184081033,-0.33998138,0.44626772,0.0046151998,-0.0011601456,-0.009978661,-0.0076351347,0.0
184113045,-0.39906585,0.45338228,0.028772814,-0.0010651324,-0.009916467,-0.007755761,0.0
184145038,-0.41253477,0.40002462,-0.004796527,-0.0010053319,-0.009868709,-0.007871956,0.0
184177026,-0.44790208,0.4453453,0.02305964,-0.00090546196,-0.009822473,-0.008037013,0.0
184209050,-0.3834831,0.41081384,0.03226111,-0.000777269,-0.00977004,-0.00822064,0.0
184241069,-0.31036842,0.40809736,0.020767549,-0.0005862778,-0.009661917,-0.008408558,0.0
184273043,-0.26199397,0.38845828,0.03663781,-0.00051826367,-0.009469199,-0.008585976,0.0
184305061,-0.35342696,0.5529766,-0.008982214,-0.00041097085,-0.009536933,-0.008727989,0.0
184337059,-0.42457357,0.56576943,0.0034536603,-7.6511235e-05,-0.009650962,-0.0088663325,0.0
184369114,-0.26839662,0.26354924,-0.00060346496,7.869457e-05,-0.009511919,-0.008988631,0.0
184401042,-0.24883549,0.23309259,-0.05972343,6.1411854e-05,-0.009475671,-0.009033405,0.0
184433051,-0.116513036,-0.61382586,-0.19812188,-5.983257e-05,-0.008541253,-0.008689978,0.0
184465072,0.19031219,0.10868477,-0.19366443,-0.00038194208,-0.0075048357,-0.008053099,0.0
184497122,-0.034103304,0.44345957,-0.17030795,-0.0007005477,-0.007470064,-0.0074779433,0.0
184529036,-0.29013035,0.10647865,-0.108992964,-0.00043405363,-0.0075725964,-0.0069727954,0.0
184561052,-0.14340162,0.16729334,-0.07830194,-4.9909184e-05,-0.0077027855,-0.0065836767,0.0
184593055,-0.0022985903,0.284322,-0.07574341,0.00012142656,-0.00787722,-0.006274418,0.0
184625137,-0.110725574,0.09278849,-0.045166314,0.00029256937,-0.007928895,-0.0060103354,0.0
184657030,-0.0844135,-0.015524707,-0.0075707696,0.00043984115,-0.007955475,-0.0057824207,0.0
184685891,-0.039057977,0.18191414,-0.0052824523,0.00059095136,-0.0080458205,-0.0056327768,0.0
184718725,-0.09333083,-0.046680413,0.011363312,0.00076017156,-0.008066464,-0.005450827,0.0
184750727,-0.025944114,-0.04048231,0.02023623,0.00093216763,-0.008097773,-0.0052875257,0.0
184782693,0.057693314,0.17701162,0.008527657,0.0010599359,-0.00817454,-0.005173968,0.0
184814695,0.010649157,0.04971152,0.028987492,0.0011990987,-0.008078427,-0.005106564,0.0
184846729,-0.09049296,0.0450851,0.04318001,0.0011172801,-0.00791716,-0.0050444724,0.0
184874672,-0.13214207,0.28018695,0.025578808,0.0010845967,-0.007990744,-0.0049921526,0.0
184906714,-0.19982965,0.3064197,0.05462634,0.0012860374,-0.008214162,-0.0049588336,0.0
184938637,-0.14391287,-0.025086505,0.045472942,0.0015990841,-0.00840232,-0.0049564065,0.0
184970679,0.007677663,0.09328779,0.02975308,0.0017595725,-0.008515363,-0.004930874,0.0
185002669,0.08344741,0.062104512,0.0327564,0.0019010009,-0.008678755,-0.0049119075,0.0
185034766,0.078399725,-0.12959507,0.039801616,0.0023102395,-0.009129523,-0.004941123,0.0
185066653,0.24723911,-0.20738858,0.06078925,0.002826612,-0.0095952805,-0.004994213,0.0
185098651,0.5403965,-0.38898766,0.026153773,0.0030479166,-0.0097511485,-0.005054238,0.0
185126646,0.4272403,-0.65323794,0.037203327,0.0029498737,-0.009653944,-0.0051076636,0.0
185158657,0.32431898,-0.19935392,0.058898542,0.0028776664,-0.009627596,-0.0052009528,0.0
185190651,0.35505292,-0.11468881,0.052047,0.0028300078,-0.00959975,-0.00532429,0.0
185222676,0.23734516,-0.24949762,0.039553303,0.0027290315,-0.009550969,-0.0054627457,0.0
185254612,0.069054864,-0.09147551,0.059104607,0.002683308,-0.009508745,-0.00563052,0.0
185286711,0.14395991,-0.3557048,0.06605235,0.002712073,-0.0094822785,-0.005819527,0.0
185318682,0.1154697,0.06472292,0.053985495,0.0027538314,-0.009521385,-0.006019024,0.0
185350664,0.18264359,-0.06302274,0.035631094,0.0027357,-0.009537267,-0.0062249107,0.0
185378684,0.0696812,-0.1472774,0.080450855,0.0030174172,-0.009875222,-0.0064280094,0.0
185410677,0.27129918,-0.48180974,0.050564613,0.0036644961,-0.01035395,-0.0066674654,0.0
185442630,0.63324195,-0.40983713,0.029860629,0.0040205857,-0.010588648,-0.006889094,0.0
185956303,0.12879613,-0.28884095,-0.003616597,0.0041393987,-0.0105484435,-0.010187513,0.0
186501887,-0.14872038,0.06452304,-0.05420241,0.003262622,-0.006494249,-0.0029949355,0.0
186533854,-0.039089292,0.19426847,-0.023323447,0.0033965488,-0.0065483954,-0.0023588534,0.0
186561878,-0.016925506,0.20668335,-0.007834475,0.0035248552,-0.0067619453,-0.0018966096,0.0
186593876,-0.08232504,0.017133964,0.033738542,0.0037489138,-0.0070996857,-0.0014816106,0.0
186625802,0.04632975,0.06874971,0.057692483,0.0039391504,-0.007419479,-0.0011366253,0.0
186657918,0.08327664,-0.55262333,0.05638692,0.004226163,-0.00768516,-0.00086661783,0.0
186689814,0.42144483,0.05228588,0.064479336,0.00452183,-0.008252125,-0.0006812407,0.0
186721807,0.43403035,-0.7693607,0.08810702,0.0049728937,-0.008675492,-0.0005799302,0.0
186753828,0.72839606,-0.5237375,0.08515456,0.005058257,-0.0086678965,-0.00051604403,0.0
186785876,0.5203877,-0.8195685,0.09737077,0.0050373604,-0.008495079,-0.00047431537,0.0
186817922,0.5941823,-0.5048667,0.104850434,0.0052303807,-0.008770097,-0.00046652698,0.0
186849825,0.65415543,-0.60423124,0.10374098,0.005509659,-0.008918939,-0.00054456835,0.0
186881870,0.6427951,-0.6437459,0.11226222,0.0054170974,-0.008745258,-0.00063391053,0.0
186913862,0.5116611,-0.68341094,0.09881026,0.0051193815,-0.008274337,-0.0007304128,0.0
186945893,0.2465756,-0.0137989195,0.10459073,0.0048961286,-0.008095826,-0.0008624432,0.0
186977876,0.10718901,0.14863259,0.10588873,0.004819976,-0.008087554,-0.0010336973,0.0
187009916,0.03456788,-0.20761414,0.077393755,0.0046242974,-0.007757857,-0.0012181579,0.0
187041872,-0.12194794,0.24932487,0.06500893,0.004434551,-0.0076870234,-0.0013958779,0.0
187073909,-0.19138724,0.23202445,0.12325664,0.0044372356,-0.007931854,-0.0016444771,0.0
187105849,-0.04343918,0.079321764,0.08370604,0.0045265555,-0.008147783,-0.0019227585,0.0
187137900,-0.041891426,0.22905912,0.089966826,0.004477741,-0.008144425,-0.002238963,0.0
187169876,-0.114686266,-0.02697283,0.08861224,0.0044359793,-0.008120363,-0.002585596,0.0
187201906,-0.19300734,0.15335545,0.12039323,0.0045577334,-0.0082081035,-0.0029595515,0.0
187233843,-0.22119398,-0.2682273,0.09174165,0.0047049765,-0.008165568,-0.0033346699,0.0
187265871,-0.1615719,0.15985383,0.062344257,0.0049318722,-0.008169219,-0.0037019316,0.0
187297895,-0.1813466,0.020838961,0.044653926,0.0052234544,-0.008148581,-0.0040446473,0.0
187329939,-0.05169878,0.17051753,0.05817938,0.005456001,-0.008170437,-0.004373358,0.0
187361830,0.1268961,-0.061128553,0.013183218,0.005552682,-0.008243513,-0.0046760575,0.0
187391494,0.09628956,-0.11431924,0.05833093,0.005544768,-0.008227222,-0.0049629346,0.0
187423504,0.09836386,0.08106438,0.022762945,0.005538115,-0.008158633,-0.005273382,0.0
187455437,0.03956029,-0.22066107,0.031386726,0.0055607315,-0.007915204,-0.005607271,0.0
187487486,0.022911226,-0.2062163,0.04823664,0.005559747,-0.0075906515,-0.005966915,0.0
187519478,0.42525494,0.09011273,0.119103335,0.005407163,-0.0074231564,-0.0064078183,0.0
187551522,1.1264026,0.8419429,0.21169756,0.005151686,-0.008470679,-0.006568415,0.0
187583437,0.5130242,-0.06855089,0.15662126,0.005151686,-0.009414768,-0.006568415,0.0
187615496,-0.03591069,-0.61441165,0.06664361,0.0048292703,-0.009255087,-0.006568415,0.0
187643470,-0.40295833,-0.16305287,0.14714526,0.0047087604,-0.009255087,-0.006568415,0.0
187675488,-0.4121683,-0.16519585,0.18482612,0.0047087604,-0.009057065,-0.006568415,0.0
187707464,-0.3964104,-0.13767417,0.18331972,0.0047087604,-0.009017716,-0.006568415,0.0
187739508,-0.10905706,0.35784864,0.2553259,0.0047087604,-0.009073644,-0.006568415,0.0
187771437,0.5461119,0.682008,0.29922923,0.0045519415,-0.009073644,-0.006568415,0.0
187803406,0.5864273,-0.073782004,0.20775987,0.0045519415,-0.009490756,-0.006568415,0.0
187835439,0.281635,-0.550462,0.16906276,0.004202141,-0.009267132,-0.006568415,0.0
187867445,-0.06592743,-0.07158522,0.22126742,0.003829955,-0.009254968,-0.006568415,0.0
187899424,-0.1260442,0.36251864,0.29752496,0.0037530027,-0.009254968,-0.006568415,0.0
187931435,0.076056935,0.017343843,0.23667122,0.0035232669,-0.009254968,-0.006568415,0.0
187963461,0.20052968,-0.28045955,0.19035009,0.0035232669,-0.009038649,-0.006568415,0.0
187995527,0.03271341,-0.12965438,0.22810397,0.0035232669,-0.008832969,-0.006568415,0.0
188027441,-0.21967721,0.18663393,0.25853494,0.0034838568,-0.008980775,-0.006568415,0.0
188059448,-0.24350876,0.0034773229,0.21409413,0.0034838568,-0.008980775,-0.006568415,0.0
188091468,0.1521474,-0.08871143,0.18645208,0.0034838568,-0.008999358,-0.006568415,0.0
188123493,0.38876075,-0.078231715,0.2334722,0.0034838568,-0.008884862,-0.006568415,0.0
188155435,0.23467354,0.1668804,0.2709584,0.0034838568,-0.009027151,-0.006568415,0.0
188187430,-0.20510252,-0.042486347,0.26605022,0.0034838568,-0.009111785,-0.006568415,0.0
188219695,-0.56233525,-0.15777406,0.23502563,0.003464099,-0.009170073,-0.006568415,0.0
188251483,-0.5009534,0.07727079,0.19437225,0.003464099,-0.009152473,-0.006568415,0.0
188281041,-0.1439762,0.07619404,0.18343958,0.0034882554,-0.009241306,-0.006568415,0.0
188313075,0.3021975,-0.0074129575,0.15997271,0.0034882554,-0.009390209,-0.006568415,0.0
188345033,0.4108577,-0.022262106,0.1461407,0.0034882554,-0.009378679,-0.006568415,0.0
188377032,0.080164835,0.08470601,0.17566727,0.0034882554,-0.009401426,-0.006568415,0.0
188409029,-0.31059584,-0.012278959,0.1536416,0.0034606436,-0.009490046,-0.0068320087,0.0
188441106,-0.17055328,-0.0036167102,0.09852536,0.0033921183,-0.009565331,-0.0073543563,0.0
188469053,-0.040324405,-0.023549022,0.035888698,0.003163996,-0.0095564285,-0.007527387,0.0
188501058,0.010487574,0.072393216,-0.024292532,0.0027428123,-0.009630635,-0.007547898,0.0
188533038,-0.058677275,-0.021825084,-0.05978275,0.0024064302,-0.009731206,-0.007395567,0.0
188565042,0.041609187,-0.031087663,-0.033274103,0.0020320476,-0.009720845,-0.007225437,0.0
188597092,0.107243426,0.02251971,0.01894643,0.0014809703,-0.009773524,-0.0071992734,0.0
188629064,0.030737616,0.01113504,0.045040727,0.0009391648,-0.009854817,-0.007313472,0.0
188661037,-0.045319475,-0.015387974,0.016673196,0.00082461134,-0.009870259,-0.007349306,0.0
188693029,-0.025385542,-0.0059666177,-0.023197116,0.00082461134,-0.009870259,-0.007349306,0.0
188721030,0.04253588,0.011866168,-0.040054146,0.00082461134,-0.009870259,-0.007349306,0.0
188753035,0.045007408,0.0071370876,-0.008385312,0.00082461134,-0.009870259,-0.007349306,0.0
188785062,-0.023847666,-0.012256745,0.023808423,0.00082461134,-0.009870259,-0.007349306,0.0
188817093,-0.030896388,0.0028519165,0.028956603,0.00082461134,-0.009870259,-0.007349306,0.0
188849034,0.0148926545,0.0063205366,-0.0013377331,0.00082461134,-0.009870259,-0.007349306,0.0
188881104,0.03350753,-0.004588499,-0.020780398,0.00082461134,-0.009870259,-0.007349306,0.0
188913047,-0.009495723,-0.00423566,-0.018268328,0.00082461134,-0.009870259,-0.007349306,0.0
188945047,-0.02816683,0.008360007,0.007341328,0.00082461134,-0.009870259,-0.007349306,0.0
188973037,-0.0040180506,0.009899888,0.018029518,0.00082461134,-0.009870259,-0.007349306,0.0
189005121,0.022796512,-0.00189761,0.015056149,0.00082461134,-0.009870259,-0.007349306,0.0
189037010,0.00938841,0.0005197326,-0.007575167,0.00082461134,-0.009870259,-0.007349306,0.0
189069008,-0.012102842,0.0017898037,-0.013435949,0.00082461134,-0.009870259,-0.007349306,0.0
189101066,-0.006359721,-0.002927551,-0.007443604,0.00082461134,-0.009870259,-0.007349306,0.0
189133074,0.011460792,-0.0013197941,0.01332005,0.00082461134,-0.009870259,-0.007349306,0.0
189165038,0.013988994,0.0005932917,0.012190624,0.00082461134,-0.009870259,-0.007349306,0.0
189194703,0.0023088285,0.0046669985,0.004376178,0.00082461134,-0.009870259,-0.007349306,0.0
189226639,-0.0034783562,-0.0051947245,-0.012290078,0.00082461134,-0.009870259,-0.007349306,0.0
189258601,0.009952994,-0.0010791414,-0.006567607,0.00082461134,-0.009870259,-0.007349306,0.0
189290661,0.007423669,0.00022233359,0.0034777555,0.00082461134,-0.009870259,-0.007349306,0.0
189322634,0.0037461964,0.00077705155,0.011624179,0.00082461134,-0.009870259,-0.007349306,0.0
189354613,-0.0067823445,0.00095963024,0.0058764787,0.00082461134,-0.009870259,-0.007349306,0.0
189382689,-0.0043000802,0.0020386833,-0.0043720016,0.00082461134,-0.009870259,-0.007349306,0.0
189414816,0.01218438,0.0029550763,-0.008766838,0.00082461134,-0.009870259,-0.007349306,0.0
189446679,0.0035134235,-0.00070889725,0.0015930242,0.00082461134,-0.009870259,-0.007349306,0.0
189478677,-0.0060709943,-0.0028324048,0.008281463,0.00082461134,-0.009870259,-0.007349306,0.0
189510675,-0.0021017317,0.00023763429,0.0037114772,0.00082461134,-0.009870259,-0.007349306,0.0
189542638,0.010394953,0.003000936,-0.0018109753,0.00082461134,-0.009870259,-0.007349306,0.0
189574635,0.009760101,0.0010497799,-0.009346045,0.00082461134,-0.009870259,-0.007349306,0.0
189606704,-0.00036246912,0.0039609717,0.0013465846,0.00082461134,-0.009870259,-0.007349306,0.0
189634670,-0.005170581,0.0031871253,0.004716799,0.00082461134,-0.009870259,-0.007349306,0.0
189666653,0.0043165185,0.0010575906,0.0085688485,0.00082461134,-0.009870259,-0.007349306,0.0
189698674,-0.0032838425,-0.0017914235,-0.004012212,0.00082461134,-0.009870259,-0.007349306,0.0
189730627,0.0042577856,0.0009206224,-0.00473784,0.00082461134,-0.009870259,-0.007349306,0.0
189762626,-0.0014905927,-0.00379015,-0.0053855763,0.00082461134,-0.009870259,-0.007349306,0.0
189794655,0.00209589,-0.000248797,0.0053485213,0.00082461134,-0.009870259,-0.007349306,0.0
189826677,0.0020184603,-0.00021089346,0.00515228,0.00082461134,-0.009870259,-0.007349306,0.0
189858631,0.0016975732,0.0023013991,0.0011299142,0.00082461134,-0.009870259,-0.007349306,0.0
189886718,-0.0061722193,-1.08169625e-05,-0.0011540982,0.00082461134,-0.009870259,-0.007349306,0.0
189918634,-0.004643933,0.0058869673,0.0006944671,0.00082461134,-0.009870259,-0.007349306,0.0
189950682,-0.0028289165,0.00028433872,0.0034044124,0.00082461134,-0.009870259,-0.007349306,0.0
189982680,0.004068318,-0.0013913197,0.00054191594,0.00082461134,-0.009870259,-0.007349306,0.0
190014792,0.0009981076,-0.0029285937,0.001810059,0.00082461134,-0.009870259,-0.007349306,0.0
190046647,-0.0018030184,-0.0017829469,-0.00044735312,0.00082461134,-0.009870259,-0.007349306,0.0
190079464,-0.000806857,0.003637844,0.0013668475,0.00082461134,-0.009870259,-0.007349306,0.0
190108294,-0.004821125,-0.0020357922,-0.0018042779,0.00082461134,-0.009870259,-0.007349306,0.0
190140231,0.00079599774,0.0023991782,-0.0064910757,0.00082461134,-0.009870259,-0.007349306,0.0
190172269,0.0005467583,0.0032975953,-0.0013934087,0.00082461134,-0.009870259,-0.007349306,0.0
190204265,0.007775727,-0.00040527224,0.0049447203,0.00082461134,-0.009870259,-0.007349306,0.0
190236298,0.008201931,0.004394916,-0.0008769608,0.00082461134,-0.009870259,-0.007349306,0.0
190268242,0.007336716,-0.0016132724,0.0014684013,0.00082461134,-0.009870259,-0.007349306,0.0
190300241,-0.0056610443,0.0006645048,-0.0023287013,0.00082461134,-0.009870259,-0.007349306,0.0
190332257,-0.0002744348,0.0023110653,0.000540519,0.00082461134,-0.009870259,-0.007349306,0.0
190364473,0.0047219316,-0.00043812883,0.0012314445,0.00082461134,-0.009870259,-0.007349306,0.0
190396239,0.0024074716,-0.003368246,0.010285689,0.00082461134,-0.009870259,-0.007349306,0.0
190428227,-0.011598754,-0.004697897,0.024396507,0.00082461134,-0.009870259,-0.007349306,0.0
190460244,-0.01870413,0.0018033683,0.040727187,0.00079140713,-0.0099023385,-0.006891784,0.0
190492218,0.0048954235,-0.002447212,0.015548707,0.00065477274,-0.010032014,-0.0052641155,0.0
190524254,0.0140266735,-0.0051962715,-0.051517293,0.00048920634,-0.0101601705,-0.0034856854,0.0
190556210,-0.0011407731,0.00084842904,-0.04907027,0.00034792052,-0.010289255,-0.0015965898,0.0
190588302,0.005434859,0.0030365922,-0.0037414406,0.00022780908,-0.010422164,0.00014795041,0.0
190620279,0.013804913,0.007815142,0.021543855,9.4167146e-05,-0.010558037,0.0016986188,0.0
190652294,0.030558765,0.008480082,0.013877863,7.862492e-05,-0.010575343,0.0018887625,0.0
190684228,0.028541572,-0.013961533,-0.00849892,7.862492e-05,-0.010575343,0.0018887625,0.0
190716352,-0.015524168,-0.00938275,-0.016421514,7.862492e-05,-0.010575343,0.0018887625,0.0
190748273,-0.012089788,-0.0042610723,0.00094741746,7.862492e-05,-0.010575343,0.0018887625,0.0
190780273,0.014184684,-0.0028355033,0.0301231,-2.8683687e-06,-0.010661585,0.0028896958,0.0
190812417,-0.025219109,0.0042472854,-0.001295028,-0.00012012575,-0.010798802,0.004292507,0.0
190844307,0.04350936,0.016798262,-0.035327747,-0.00023529328,-0.010941459,0.005527928,0.0
190876273,-0.018932512,-0.0049372017,-0.016834712,-0.00033992284,-0.011086419,0.0067672017,0.0
190908269,-0.023582922,-0.014786411,0.02346913,-0.00045725668,-0.011221788,0.007954927,0.0
190940243,0.020056125,0.0092740515,0.021638956,-0.0005842196,-0.011365435,0.00915942,0.0
190972268,0.0123418905,-0.012559634,0.02289188,-0.0006996195,-0.011511586,0.0103859445,0.0
191005126,0.000104402425,0.0012619011,0.003426483,-0.0008152394,-0.011654757,0.011655922,0.0
191037912,-0.009331436,-0.0053820647,-0.017152993,-0.0009419567,-0.01179567,0.012922974,0.0
191069836,0.005201329,-0.011721078,-0.0153755,-0.0010639776,-0.011942401,0.014023556,0.0
191101835,0.0006294146,0.013920882,-0.0026950408,-0.0011828336,-0.012089393,0.014950353,0.0
191133826,-0.005038333,-0.012661441,-0.014667412,-0.0013097327,-0.012227302,0.01533157,0.0
191165886,0.016473718,-0.028295772,-0.035933405,-0.001436445,-0.012374056,0.015458128,0.0
191197862,-0.038542137,-0.009361092,-0.014018141,-0.0015353853,-0.012522854,0.015556766,0.0
191229877,-0.005496694,-0.027709728,0.033153538,-0.0016537,-0.012663067,0.015518184,0.0
191261866,-0.05085558,-0.011708582,0.023573844,-0.0017663455,-0.012808705,0.015413068,0.0
191293929,0.024158632,-0.012566087,0.007492643,-0.0018889407,-0.01295823,0.015452004,0.0
191321886,-0.03683759,-0.01748586,0.031673014,-0.0019865273,-0.013076333,0.015845021,0.0
191353877,0.041063074,-0.0067450907,0.024834186,-0.0021369725,-0.013209531,0.016355438,0.0
191385829,0.02102975,0.0073720207,-0.01989334,-0.0022884822,-0.013355221,0.016769692,0.0
191417921,0.027022805,0.0073335115,-0.054265033,-0.0024291927,-0.013500714,0.01718317,0.0
191449877,0.038477737,-0.013236159,-0.03270611,-0.0025644444,-0.013643923,0.017448206,0.0
191481918,0.021725727,0.0011779564,0.0076182545,-0.0027102889,-0.013789215,0.01748354,0.0
191513890,0.014804335,-0.009646764,0.02658703,-0.0028528015,-0.013943312,0.017409962,0.0
191545887,-0.021441123,-0.007904191,0.013615728,-0.0029614752,-0.014089776,0.017333457,0.0
191573848,-0.0010076374,-0.0044687483,0.0019682264,-0.0030573942,-0.01420848,0.017317373,0.0
191605820,0.011747494,-0.0022943718,-0.003390247,-0.003185124,-0.01435153,0.017320514,0.0
191637868,-0.011008725,0.012014891,-0.00053094095,-0.003306819,-0.014499574,0.01731008,0.0
191669858,-0.012205125,-0.0019464762,0.0047000623,-0.0034373372,-0.014638883,0.017284067,0.0
191701814,0.019609062,-0.018040901,-0.0012393076,-0.0035681918,-0.014780992,0.017260643,0.0
191733876,-0.019046921,0.0057721906,-0.0018097244,-0.0036855042,-0.014931016,0.017239373,0.0
191765889,0.0055654068,-0.0043635345,0.005803697,-0.0038050609,-0.015075057,0.017216232,0.0
191797940,0.038810086,0.015629921,-0.00487262,-0.0039478154,-0.015221782,0.01719731,0.0
191829826,-0.0019381389,0.014384394,-0.003719104,-0.0040786783,-0.015364921,0.017174771,0.0
191861866,0.010087524,-0.018491898,0.0016567884,-0.0042002606,-0.015501046,0.017147096,0.0
191895479,0.009131102,-0.011728329,-0.0017576934,-0.0043408177,-0.0156463,0.017112663,0.0
191927493,0.031277146,0.025654085,0.001858294,-0.004482813,-0.015782265,0.017072493,0.0
191955445,0.05292602,-0.02600953,0.0059040086,-0.0046393266,-0.015910426,0.017036503,0.0
191987457,0.036216646,0.006362308,-0.0016101381,-0.0048036994,-0.01605677,0.017001126,0.0
192019407,0.046266943,-0.021096477,0.004719167,-0.0049378825,-0.016189793,0.016948711,0.0
192051406,0.087091744,0.038711518,-0.009948588,-0.005100048,-0.016336266,0.016912112,0.0
192083476,0.0019145787,-0.0047013853,0.0025112864,-0.005266857,-0.0164682,0.016868668,0.0
192115469,0.010365663,-0.015786575,0.00095431757,-0.005403329,-0.016608668,0.01682588,0.0
192147621,-0.013866135,-0.0021435814,0.0078122225,-0.005547891,-0.01673688,0.016785964,0.0
192179454,-0.086775035,-0.012467655,-0.0002040437,-0.0056828684,-0.016865285,0.016748182,0.0
192211535,-0.0764619,-0.020706467,-0.0138242515,-0.0058222194,-0.017002618,0.016711636,0.0
192243470,0.029931637,-0.034691278,-0.0038553327,-0.0059535634,-0.017155915,0.016677251,0.0
192275480,0.03417462,-0.020748531,0.003929021,-0.0060861716,-0.01729747,0.016628774,0.0
192307438,-0.0063950643,0.0051225396,0.0060249073,-0.006222115,-0.017415935,0.016563062,0.0
192339485,-0.058922376,0.021672929,0.0063411146,-0.0063619395,-0.017561005,0.016500922,0.0
192371459,-0.01605282,0.024869725,-0.00031073787,-0.0065081357,-0.017706793,0.016455596,0.0
192403537,0.041194033,0.008583187,-0.0007428662,-0.006644293,-0.017843382,0.016408928,0.0
192435435,0.025070194,0.0075833015,-0.0044807363,-0.006792714,-0.017981138,0.016356813,0.0
192467432,-0.013126969,-0.011921897,-0.0030442278,-0.006931862,-0.018130487,0.016301204,0.0
192499458,0.029046267,-0.039076496,-0.0077468595,-0.007033256,-0.018337473,0.01624982,0.0
192531484,-0.01361618,-0.02352624,0.013718486,-0.006998527,-0.01866448,0.016183076,0.0
192563460,0.014596547,0.0061376984,0.011432405,-0.0068812966,-0.019101601,0.01611988,0.0
192595445,0.03568427,-0.023055665,-0.012483776,-0.006721048,-0.019593053,0.016057493,0.0
192627480,0.04296157,-0.025401328,0.00025596644,-0.006560526,-0.02007405,0.015993949,0.0
192655510,0.03728451,-0.027677355,-0.0027228636,-0.0064251483,-0.020461336,0.015930897,0.0
192687482,-0.08948828,-0.013434621,0.014772937,-0.006276151,-0.020933852,0.015852192,0.0
192719479,0.043976624,0.020921566,0.0046274792,-0.006110054,-0.021445666,0.0157786,0.0
192751454,0.05448759,-0.053560216,-0.0015532456,-0.0059005725,-0.021972245,0.015717816,0.0
192781067,0.06796008,0.0022764574,0.0012075775,-0.005676272,-0.022491092,0.015663702,0.0
192813121,-0.014014551,0.016569069,-0.013957963,-0.005435438,-0.023087464,0.01559956,0.0
192845029,0.0030588678,-0.035425287,0.00043801777,-0.005094332,-0.023695452,0.015533716,0.0
192877094,0.10234361,-0.013849785,0.009398658,-0.004789141,-0.0243611,0.015460178,0.0
192909095,-0.03086851,0.031404126,-0.009114711,-0.0044450248,-0.025059674,0.015412934,0.0
192941116,0.020181494,0.019771546,0.0037181696,-0.0040774303,-0.025729373,0.015340082,0.0
192973048,-0.03585403,-0.031193051,0.010753224,-0.0037421845,-0.026379345,0.015269568,0.0
193005063,-0.017500881,-0.013432664,0.0014666065,-0.0034212128,-0.02700931,0.015202062,0.0
193033033,-0.013136901,-0.057675976,0.0014226112,-0.0031668185,-0.027529886,0.015131059,0.0
193065092,0.07412895,-0.02467747,0.0053734137,-0.002911719,-0.028135058,0.015053651,0.0
193097075,-0.028089609,0.030234095,0.0059604216,-0.0026258733,-0.028706765,0.014966093,0.0
193129044,0.014101022,0.016585106,0.00026981172,-0.0023510712,-0.02927834,0.014870634,0.0
193161009,-0.04996119,0.012123017,0.011746975,-0.0020746228,-0.02984752,0.014761057,0.0
193193001,0.07455027,-0.06995092,0.0015104187,-0.0018969149,-0.030320762,0.014662681,0.0
193225069,-0.00018631318,0.042898044,0.0064018434,-0.001726948,-0.030799482,0.014563846,0.0
193257069,-0.07426123,-0.07677308,0.004418093,-0.0015439311,-0.031246565,0.014440827,0.0
193285093,0.007130882,-0.019838203,-0.00096944475,-0.0014156459,-0.031649034,0.0143211065,0.0
193317095,0.076692924,0.012131305,0.012195206,-0.0012426781,-0.032184232,0.014183874,0.0
193349031,-0.096539825,-0.032436788,-0.007366859,-0.0010232928,-0.032661576,0.014045024,0.0
193381108,0.07844338,0.010042622,-0.0075139822,-0.00088819314,-0.033090416,0.013937319,0.0
193413076,-0.03807431,-0.0666626,-0.010392304,-0.00070836867,-0.033569135,0.013827827,0.0
193445086,-0.0031386516,0.06152835,0.012325198,-0.0005020648,-0.034016754,0.013687991,0.0
193477039,-0.0294529,-0.028794426,0.011302973,-0.00030514106,-0.03446066,0.013561161,0.0
193509256,-0.0070560537,-0.103266284,-0.01815223,-0.00020343064,-0.034734793,0.013451948,0.0
193537034,0.025230631,-0.08035024,0.03054417,-6.074915e-05,-0.034878876,0.0133170355,0.0
193569118,-0.014109952,-0.14339608,-0.002547313,6.148224e-05,-0.034984797,0.013157232,0.0
193601069,-0.02303274,-0.28564042,0.04902724,0.00018980606,-0.03493739,0.012933496,0.0
193633067,0.003329303,-0.12861723,0.021386461,0.0004821879,-0.03487863,0.012736637,0.0
193665945,-0.09263466,-0.30486712,0.028660484,0.00061466976,-0.03459098,0.012556157,0.0
193694644,-0.08018086,-0.22646213,0.00599936,0.00066332787,-0.034283392,0.012398162,0.0
193726674,0.016612105,-0.10754888,0.034746602,0.00063423923,-0.03396467,0.012198385,0.0
193758650,0.027624547,-0.12900344,-0.0054339147,0.00065510935,-0.033542253,0.011968094,0.0
193790724,-0.16642436,-0.15809147,0.03242615,0.00077684823,-0.033163726,0.011723628,0.0
193822642,-0.024850134,-0.06025411,0.028818462,0.0008068967,-0.032897823,0.011454214,0.0
193854674,0.10715884,0.047792424,0.02613495,0.0008522825,-0.03270304,0.011168979,0.0
193886648,-0.16087568,0.06720505,0.044630636,0.0009761538,-0.032364342,0.010840028,0.0
193918723,-0.17042853,-0.1950254,0.041437306,0.0010841347,-0.031981524,0.010500649,0.0
193946674,-0.04617371,0.11459464,0.0069177165,0.0011744567,-0.03162868,0.010228553,0.0
193978704,-0.025180016,0.17999296,0.023901798,0.0011346075,-0.031196306,0.0099191265,0.0
194010628,-0.1693597,0.0741188,0.02040589,0.0011258745,-0.030954545,0.0096162,0.0
194042670,-0.2082643,0.036412764,0.042342804,0.0013031967,-0.030727463,0.009291827,0.0
194074681,0.09005117,0.06919211,-0.00045764388,0.0013983023,-0.030446747,0.008995367,0.0
194106705,-0.019833738,0.08465104,0.004120848,0.0014140017,-0.030151982,0.00867869,0.0
194138638,-0.14266038,0.26546648,0.029007612,0.0015692237,-0.029939538,0.008346016,0.0
194170731,-0.08556391,0.08849071,0.033298872,0.0016032084,-0.029834276,0.008023066,0.0
194202667,-0.08279729,-0.08548142,0.009481789,0.0016873168,-0.029661963,0.007704946,0.0
194234720,-0.056689747,0.10393095,0.022073863,0.0018620985,-0.029444117,0.0073843044,0.0
194266636,-0.031936496,0.01821187,-0.016990056,0.0020526894,-0.029169524,0.007086186,0.0
194298610,-0.10143383,0.13142759,0.013150543,0.0021715635,-0.028868642,0.0067827785,0.0
194330628,0.014154434,-0.12355825,0.001933858,0.0022088524,-0.028619034,0.0065083834,0.0
194362655,-0.135468,0.056506764,0.017199112,0.0023371023,-0.028432626,0.006221584,0.0
194394606,0.032179303,0.015099822,-0.011249678,0.0024335356,-0.02815714,0.0059689796,0.0
194422723,-0.029916273,0.24791686,0.008129584,0.002522796,-0.028005151,0.0057361755,0.0
194454636,-0.04872,-0.19729081,-0.009248508,0.002614275,-0.027760345,0.00547848,0.0
194486681,0.0840112,-0.030399423,-0.0266831,0.0025805878,-0.02760482,0.005233278,0.0
194518751,-0.050335124,0.31390607,-0.004809534,0.0026720613,-0.027451122,0.0050002327,0.0
194551459,0.0016815097,-0.08780667,-0.01531645,0.0028556767,-0.027273232,0.0047663725,0.0
194583485,-0.12202667,0.061667718,-0.011348997,0.0029417078,-0.027178809,0.0045517907,0.0
194612290,0.049261957,-0.19272867,-0.04030795,0.003010262,-0.026893212,0.0043677595,0.0
194644284,-0.013871373,0.12075951,-0.01592042,0.0032715416,-0.02684916,0.004153099,0.0
194676215,0.15621302,-0.23949431,0.0035288925,0.003716238,-0.026996477,0.00392597,0.0
194708291,0.22688097,-0.31729686,-0.021831118,0.0039403643,-0.026870498,0.003707065,0.0
194740248,0.2763157,-0.27455047,-0.016502816,0.0038924487,-0.026514016,0.0034959558,0.0
194772271,0.26550958,-0.0182285,-0.0029477482,0.0038530238,-0.026282335,0.0032647504,0.0
194804239,0.094428055,-0.18692021,0.010987563,0.0038653554,-0.026023874,0.0030451023,0.0
194832315,0.034653552,0.11208282,-0.011877041,0.0039556143,-0.025920045,0.0028763027,0.0
194864245,0.17360157,-0.117320515,-3.9683422e-05,0.0040510762,-0.025778605,0.0026683845,0.0
194896264,0.2226683,-0.2118684,-0.0087803835,0.0040860428,-0.025590226,0.0024480454,0.0
194928272,0.1212466,-0.1317051,0.008222446,0.004037094,-0.025255755,0.002258141,0.0
194960321,0.037078857,-0.30937406,-0.011056043,0.0040142527,-0.024877446,0.002054099,0.0
194992243,0.053570308,0.21402408,-0.019841103,0.0038615419,-0.024480762,0.001874621,0.0
195024288,-0.05063457,0.25400546,-0.032681923,0.0036976638,-0.024048617,0.001707025,0.0
195056283,-0.22242306,0.18572253,-0.023874858,0.0036846404,-0.023762068,0.0015153068,0.0
195088290,-0.3154512,0.23664536,0.008177956,0.0038111822,-0.02368402,0.0013242179,0.0
195120229,-0.17578705,0.07644,0.005520306,0.004028833,-0.023766117,0.0011329439,0.0
195152231,-0.049280055,0.11507142,-0.036210153,0.0043487553,-0.023953559,0.0009452095,0.0
195184274,0.11865808,0.04899106,-0.0023111464,0.0045923237,-0.023923624,0.00075046974,0.0
195216272,0.107957825,-0.46411502,-0.030532453,0.004702384,-0.023697084,0.000598838,0.0
195248242,0.023682568,-0.033254053,-0.009136313,0.0048631527,-0.023582105,0.00044085114,0.0
195280250,0.20523044,-0.20438777,-0.03732301,0.005029072,-0.023462558,0.0003019256,0.0
195312332,0.23086847,0.004487191,-0.024792545,0.0050099106,-0.02328818,0.00016050786,0.0
195344268,0.1666673,-0.2363338,-0.0027247672,0.0049096793,-0.023012975,2.4061845e-05,0.0
195376278,0.03541848,-0.18162698,-0.011004769,0.0048894505,-0.022749485,-9.651387e-05,0.0
195408256,0.03208612,-0.02680707,-0.012150758,0.0049165282,-0.022504171,-0.00023527819,0.0
195441050,0.13840124,0.031291634,-0.0036363904,0.0049250913,-0.022323083,-0.000382143,0.0
195473095,0.100831665,-0.051305003,-0.03269591,0.0050024334,-0.022207929,-0.0004932085,0.0
195501109,-0.13272904,0.05092592,0.01685042,0.005187719,-0.022179555,-0.0006294164,0.0
195533069,-0.06712491,0.2883488,0.029387558,0.0055522006,-0.022245424,-0.0008973774,0.0
195565105,0.05118941,0.03597249,0.033789482,0.005477716,-0.02191073,-0.0012306808,0.0
195597038,-0.17322277,0.21832348,-0.011943157,0.0048477137,-0.021150885,-0.0014717114,0.0
195629018,-0.5546961,0.53383726,-0.00019968417,0.004296452,-0.020518852,-0.0016582579,0.0
195661065,-0.74757713,0.5706499,0.026223807,0.004197257,-0.020311307,-0.0018486378,0.0
195693008,-0.5857346,0.7114182,-0.0052303085,0.0042582713,-0.020304218,-0.0020482002,0.0
195725007,-0.64437723,0.6896443,-0.004916275,0.004511853,-0.020344477,-0.0022587292,0.0
195753047,-0.55584514,0.44893914,0.017178183,0.004745204,-0.020317383,-0.0024320679,0.0
195785030,-0.279775,0.41449466,0.0043905685,0.004882038,-0.02037416,-0.002578056,0.0
195817133,-0.31143165,0.356106,-0.0294567,0.005012429,-0.020321514,-0.0026930931,0.0
195849057,-0.26151875,0.40914926,-0.014635527,0.005072963,-0.02004664,-0.0027894804,0.0
195881030,-0.22074318,0.17607825,-0.010083142,0.0050449707,-0.01998672,-0.00286044,0.0
195913026,-0.4300665,0.34583366,-0.008035358,0.0050479923,-0.019880954,-0.0029183393,0.0
195945071,-0.27597404,0.37746945,-0.033610076,0.0051382366,-0.01969833,-0.0029428622,0.0
195973035,-0.3692714,0.45699114,-0.013850124,0.0053380057,-0.019836511,-0.0029921818,0.0
196005128,-0.21020177,-0.032775275,-0.023795761,0.0057015847,-0.020059874,-0.0030387014,0.0
196037075,-0.08105325,0.19733594,-0.0047586686,0.006169909,-0.020247107,-0.0030883276,0.0
196069081,0.058030613,-0.11973991,-0.031189457,0.006489712,-0.02020539,-0.0031372441,0.0
196101032,0.03558793,-0.15559487,-0.014365316,0.0066788625,-0.020193463,-0.0031842303,0.0
196133169,0.27991623,-0.3137027,-0.039048318,0.0067374194,-0.020275842,-0.0032222627,0.0
196165088,0.27219126,-0.1388529,-0.030128464,0.0069621233,-0.020547569,-0.0032679418,0.0
196197029,0.44604623,-0.49054793,-0.02301155,0.0072915163,-0.020674342,-0.0033049923,0.0
196229047,0.59587795,-0.5957324,-0.029008025,0.007323496,-0.020656422,-0.003307084,0.0
196257073,0.4617952,-0.62340295,-0.031448603,0.0071898648,-0.020429488,-0.003325795,0.0
196289064,0.26656,-0.43680587,0.010910924,0.0071543544,-0.020222694,-0.0033609006,0.0
196321093,0.27570158,-0.30291852,-0.03405174,0.0071923556,-0.019854859,-0.0033801848,0.0
196353033,0.3729415,-0.19025691,-0.036615126,0.0071203257,-0.019578367,-0.0034187455,0.0
196385033,0.12007216,-0.093053445,-0.0032060093,0.0071190502,-0.019464653,-0.0034630282,0.0
196417035,0.044597987,-0.22309712,-0.014275654,0.007110924,-0.019202428,-0.0034919956,0.0
196449059,0.14679867,-0.45080245,-0.019421984,0.0070749247,-0.01890094,-0.0035238434,0.0
196481010,0.17638129,0.13113792,-0.021529116,0.0070509133,-0.018722408,-0.0035661997,0.0
196513030,0.061686248,0.1301008,-0.015148308,0.007040441,-0.01861223,-0.0036084768,0.0
196545006,-0.070330836,-0.220006,-0.015167391,0.0071688676,-0.018508416,-0.0036510325,0.0
196577030,0.05607881,0.006286595,0.00031994097,0.0070172274,-0.018200478,-0.0036721756,0.0
196609077,0.021402868,0.00692597,-0.011153424,0.006767522,-0.017924717,-0.0036638107,0.0
196637897,-0.2789727,0.15882015,-0.0034640566,0.006835199,-0.017857375,-0.003673333,0.0
196670703,-0.08793962,-0.0792025,0.008137775,0.0068175364,-0.017766234,-0.0037106276,0.0
196702646,0.027174342,0.14314903,-0.0089931255,0.0067790863,-0.017872138,-0.0037363304,0.0
196734640,-0.0877974,0.09423605,-0.017916853,0.0069882628,-0.018059453,-0.0037486695,0.0
196766649,-0.07363247,-0.36380023,0.024191925,0.0071627907,-0.017863655,-0.0037803475,0.0
196798636,0.043221507,-0.07683841,0.03361632,0.0072542415,-0.017680356,-0.0038233656,0.0
196830612,0.120875694,-0.04316451,-0.016433764,0.007183723,-0.017443545,-0.0038433815,0.0
196858703,0.10537709,0.042741075,-0.012143018,0.0070818765,-0.017316887,-0.0038367822,0.0
196890609,0.011320047,-0.11245354,-0.01083839,0.0070465407,-0.017216306,-0.0038383184,0.0
196922610,0.117608145,0.14067382,-0.03175852,0.0070193196,-0.017109642,-0.00384263,0.0
196954662,0.042451262,-0.10352117,0.024167264,0.0069594947,-0.017011082,-0.003887627,0.0
196986658,-0.09505227,0.036401443,-0.000389662,0.0069664163,-0.016916212,-0.003921251,0.0
197018634,0.08258197,-0.06525522,-0.018922761,0.007027151,-0.016862499,-0.0039650057,0.0
197050638,-0.039727263,0.1471477,-0.009535828,0.0070363875,-0.016734362,-0.003989988,0.0
197082651,0.008083148,-0.33987403,0.010812806,0.006998675,-0.016425122,-0.0040086284,0.0
197110692,0.052563187,-0.33978137,0.008577439,0.006940928,-0.01612378,-0.0040373644,0.0
197142673,0.10152967,-0.022616887,-0.001666858,0.0068064043,-0.015755419,-0.004088385,0.0
197174679,0.14026994,0.08684653,0.019213066,0.006645252,-0.0153026795,-0.0041579334,0.0
197206631,0.07125304,1.3017725,0.05020103,0.006361155,-0.016483638,-0.004322872,0.0
197238641,-0.17382056,0.41355956,-0.014661086,0.006351571,-0.01690172,-0.004354596,0.0
197270665,-0.27675563,-0.7745202,-0.025900846,0.0066108336,-0.016420983,-0.004269954,0.0
197302679,-0.05096812,-0.34450072,0.07885175,0.0067099473,-0.015909068,-0.004289319,0.0
197334650,0.119007595,0.26732442,0.11769554,0.006641802,-0.015955893,-0.0046533397,0.0
197362657,0.07451582,0.24866831,0.13812153,0.0063987346,-0.01607637,-0.004795052,0.0
197394628,0.24542978,0.19409898,0.12666483,0.006057136,-0.016302463,-0.005085431,0.0
197426633,0.041311074,-0.02610769,0.019670693,0.0057959217,-0.01646935,-0.005399134,0.0
197458658,-0.11639443,-0.046577483,-0.1351249,0.005912176,-0.016522804,-0.0053413576,0.0
197490672,-0.12457809,-0.06779358,-0.0672846,0.0060868985,-0.016615614,-0.005241126,0.0
197523472,0.075742066,-0.15401295,-0.009937317,0.0061846217,-0.01655911,-0.0052808537,0.0
197552256,0.22984111,0.05114211,0.011697534,0.0059184036,-0.01657481,-0.005401605,0.0
197584270,0.055477593,0.111278154,0.04620348,0.005598451,-0.016868772,-0.0056342636,0.0
197616226,-0.1639044,-0.07508325,0.016682543,0.0056530647,-0.016982498,-0.005885777,0.0
197648303,-0.056051493,-0.065894164,-0.0437488,0.005817241,-0.016968131,-0.0059851827,0.0
197680255,0.14929862,0.029626256,-0.052821606,0.0056783347,-0.017028842,-0.0059679127,0.0
197712308,0.063931175,0.054789204,0.002195055,0.0054176818,-0.017217211,-0.0060156547,0.0
197744243,-0.08591249,-0.027836245,0.044463072,0.0053662998,-0.017344683,-0.0062320996,0.0
197772264,-0.09578124,-0.04933556,0.03783126,0.0054514525,-0.017369773,-0.0064884205,0.0
197804258,0.04505237,0.030702397,-0.008454132,0.005442941,-0.017450156,-0.006681135,0.0
197836292,0.09841535,0.036923144,-0.04063777,0.005246788,-0.017616505,-0.006728542,0.0
197868301,-0.010857919,-0.03068312,-0.018561665,0.005110665,-0.017728629,-0.00677087,0.0
197900284,-0.080713935,-0.014868535,0.019437024,0.005143011,-0.017787784,-0.0069170548,0.0
197932284,0.020190664,0.021093616,0.031674914,0.005140749,-0.017897306,-0.0071577216,0.0
197964304,0.0625824,0.0115780085,0.0048873415,0.0050034444,-0.018040543,-0.007361868,0.0
197996254,0.0034727182,-0.022514991,-0.020477796,0.004863353,-0.01813345,-0.007474697,0.0
198024281,-0.053736363,-0.0022526872,-0.021068405,0.00484304,-0.018200085,-0.007542362,0.0
198056246,-0.008288635,0.022041915,0.0040852223,0.004840367,-0.018321836,-0.007659594,0.0
198088249,0.037306763,-0.007405718,0.020178942,0.0047445833,-0.018447237,-0.00785442,0.0
198120226,0.016867267,-0.015014788,0.0071557537,0.0047445833,-0.018447237,-0.00785442,0.0
198152311,-0.032688964,0.004370118,-0.00839455,0.0047445833,-0.018447237,-0.00785442,0.0
