timestamp,roll,pitch,yaw,thrust
175388241,-0.1458547,-0.09028847,-0.23861337,0.08
175453032,-0.14579116,-0.09041535,-0.23097251,0.08
175482598,-0.14563882,-0.09060552,-0.23642379,0.08
175514648,-0.14542392,-0.09064916,-0.24025825,0.08
175546682,-0.14562349,-0.09054385,-0.23308367,0.08
175578620,-0.14570428,-0.09069193,-0.23135795,0.08
175607410,-0.14551814,-0.0910036,-0.24694645,0.08
175639415,-0.14543313,-0.091184705,-0.24689932,0.08
175671410,-0.14535595,-0.09107743,-0.2429616,0.08
175703450,-0.14520198,-0.09111879,-0.24895385,0.08
175735441,-0.14528564,-0.09117979,-0.24872677,0.08
175767443,-0.14537622,-0.09094849,-0.23935136,0.08
175799442,-0.14480391,-0.09091353,-0.24161246,0.08
175827419,-0.14415036,-0.090830244,-0.24691263,0.08
175859403,-0.14396133,-0.0909233,-0.24832445,0.08
175891447,-0.14422187,-0.090483434,-0.23960735,0.08
175923436,-0.1438554,-0.089879945,-0.23890136,0.08
175955616,-0.14358711,-0.089841425,-0.23977672,0.08
175987401,-0.1438854,-0.090239316,-0.23574951,0.08
176019475,-0.14412202,-0.08978604,-0.22191536,0.08
176051555,-0.14405234,-0.08879067,-0.19964094,0.08
176083447,-0.14377959,-0.08891758,-0.20286863,0.08
176115410,-0.14433958,-0.08931969,-0.20542206,0.08
176149002,-0.14437944,-0.08878506,-0.20297977,0.08
176177051,-0.14432219,-0.088250265,-0.19244258,0.08
176209007,-0.144129,-0.08818163,-0.1872071,0.08
176241080,-0.14477162,-0.088065684,-0.16835088,0.08
176273036,-0.14528647,-0.08715579,-0.14886726,0.08
176305066,-0.14545156,-0.08571404,-0.09031799,0.08
176337013,-0.14573838,-0.08570106,-0.063626714,0.08
176369085,-0.14633109,-0.08464897,-0.031584993,0.08
176401052,-0.1464381,-0.08389561,-0.02181206,0.08
176433029,-0.14622885,-0.084453516,-0.02252343,0.08
176465007,-0.1462161,-0.0846537,-0.017051805,0.08
176497080,-0.14627358,-0.083753556,-0.010553203,0.08
176529037,-0.14643925,-0.08365952,-0.00796774,0.08
176561018,-0.1465123,-0.084217705,-0.0016792478,0.08
176593002,-0.1462413,-0.08369046,5.1031497e-05,0.08
176624995,-0.14639458,-0.08305907,1.617553e-05,0.08
176657020,-0.14677142,-0.083753265,0.0004179728,0.08
176688984,-0.14638393,-0.083730355,0.00067547406,0.08
176720974,-0.14616433,-0.08309475,0.00037346105,0.08
176752978,-0.1464307,-0.08334861,-0.00017563655,0.08
176785054,-0.1467949,-0.08407105,-0.00050718605,0.08
176816998,-0.146988,-0.08329622,0.00014496518,0.08
176849049,-0.14692679,-0.08303069,0.0007755569,0.08
176881046,-0.14686666,-0.08394248,0.00072696374,0.08
176913087,-0.14715365,-0.08347325,0.00011294593,0.08
176944997,-0.14684194,-0.08283508,6.602899e-05,0.08
176977053,-0.1466765,-0.083631225,0.0005439809,0.08
177009031,-0.14657931,-0.0839818,0.0008844456,0.08
177041114,-0.14675266,-0.08310164,0.00057716895,0.08
177070631,-0.1470234,-0.08348522,0.00022894329,0.08021937
177102642,-0.146511,-0.08402313,0.00040601753,0.08095852
177134708,-0.14645863,-0.083276846,0.00075528875,0.08320825
177166630,-0.1470327,-0.0830829,0.00087051914,0.08604577
177198672,-0.14731838,-0.083977945,0.00056209025,0.09947659
177230653,-0.14651865,-0.08359351,0.0006153081,0.10228437
177258615,-0.14658011,-0.082980976,0.0006808946,0.101970345
177290622,-0.14726943,-0.08345964,0.0008463243,0.10038076
177322602,-0.14759384,-0.08370624,0.0008880348,0.10007448
177354606,-0.1469143,-0.082818195,0.0007073876,0.10090748
177386600,-0.14692594,-0.08286445,0.0005894159,0.10107731
177418675,-0.14729556,-0.08331815,0.00067648006,0.10015183
177450702,-0.14738323,-0.08255196,0.00092063996,0.10008759
177482599,-0.1469348,-0.08220084,0.0007591188,0.10062284
177514641,-0.14667036,-0.08298139,0.00066251913,0.101224735
177546633,-0.14713503,-0.082410626,0.0008400734,0.10091559
177578687,-0.14765844,-0.082207486,0.0009889335,0.10079658
177610605,-0.14729011,-0.08272493,0.00083960494,0.10122719
177642659,-0.14710882,-0.082664095,0.00085561944,0.10053247
177674639,-0.14743812,-0.08205385,0.0009664292,0.10012724
177706735,-0.14768271,-0.08261566,0.00090237876,0.10037358
177734676,-0.14749451,-0.08286971,0.0008341475,0.1007056
177766657,-0.14719863,-0.08260419,0.0010033023,0.100212514
177798584,-0.14745338,-0.082701415,0.0010824736,0.10033581
177830619,-0.14802441,-0.08322277,0.0008996283,0.10106629
177862622,-0.14800465,-0.08251937,0.0009567355,0.10058599
177894625,-0.14772661,-0.08235276,0.0011495113,0.10015398
177926611,-0.14794467,-0.0831459,0.0012263996,0.10014875
177958649,-0.14837359,-0.08298804,0.001026602,0.1001839
177988229,-0.14835818,-0.08236112,0.001022049,0.100178614
178020213,-0.14816335,-0.08265303,0.0010772287,0.10039538
178052283,-0.14827839,-0.08298017,0.0012662462,0.10128459
178084209,-0.14872356,-0.08252248,0.0011772946,0.10109977
178116235,-0.14858161,-0.082532495,0.0011451594,0.10073983
178148187,-0.14813422,-0.082906425,0.001248109,0.10045835
178180416,-0.14827055,-0.0826197,0.0012866025,0.10018971
178212212,-0.148553,-0.08227787,0.0012914214,0.10015588
178244252,-0.14848393,-0.08245465,0.0012562982,0.10017907
178276197,-0.14818145,-0.082332626,0.0013958405,0.10062061
178308201,-0.14845462,-0.08210461,0.0014577497,0.102172494
178340244,-0.14887507,-0.0821527,0.0016589127,0.10172148
178372215,-0.1492714,-0.08223725,0.001813322,0.10123444
178404199,-0.14895152,-0.082140684,0.0019071128,0.10120428
178436215,-0.14924103,-0.08219093,0.0017735983,0.10146433
178468224,-0.1499297,-0.08241672,0.001741161,0.10727975
178500205,-0.1495757,-0.08226352,0.0018973588,0.1160956
178532203,-0.14972635,-0.08204743,0.002052301,0.12572792
178564209,-0.14976953,-0.08176812,0.0022902733,0.13691999
178592213,-0.14954218,-0.08181002,0.0020231884,0.15671013
178624239,-0.14811221,-0.0814814,0.0013700373,0.18648367
178656229,-0.14558399,-0.081511535,0.00023841954,0.2215256
178688224,-0.14272931,-0.08049266,0.0002453427,0.2227463
178720243,-0.14100823,-0.07976644,0.0012645944,0.2289355
178752229,-0.14119159,-0.07943178,0.0018894923,0.23662703
178784242,-0.1397966,-0.07916605,0.0017103052,0.23998001
178816217,-0.13879007,-0.0793797,0.0015150276,0.23890325
178844256,-0.13861917,-0.07922483,0.0015107649,0.2385749
178876199,-0.13949537,-0.078832254,0.0015849039,0.23844506
178909811,-0.13965735,-0.078811035,0.0016732533,0.23980904
178941816,-0.13847585,-0.078548856,0.0015962593,0.2536089
178973819,-0.13762718,-0.07830455,0.0015853476,0.26331142
179005823,-0.13598207,-0.07727291,0.0017709716,0.26795936
179037835,-0.13604054,-0.07766003,0.0017565661,0.26636073
179069804,-0.13489199,-0.07726271,0.001642961,0.26565373
179101858,-0.13585363,-0.077465035,0.0019596112,0.26581416
179133882,-0.13374345,-0.076475024,0.0017192323,0.26586437
179165806,-0.13583781,-0.0753779,0.0019506174,0.26584125
179197888,-0.1344682,-0.07487597,0.0019557737,0.26605752
179229799,-0.13411742,-0.075372316,0.0019043871,0.26657885
179261821,-0.13363142,-0.07613699,0.0020134216,0.26624385
179293781,-0.13420391,-0.076124236,0.0022510346,0.2658157
179325818,-0.13302529,-0.07645793,0.0024993338,0.2652932
179357851,-0.13329984,-0.07686974,0.0027267819,0.26547924
179389877,-0.13331768,-0.074854046,0.0026465638,0.26590177
179421818,-0.13568738,-0.07599463,0.002518975,0.26652655
179449874,-0.13486803,-0.075569615,0.0027935316,0.26893398
179481806,-0.13027179,-0.076074615,0.0028669545,0.27774912
179513856,-0.12935698,-0.07614071,0.0028851004,0.28397733
179545817,-0.12686805,-0.074976355,0.0033881431,0.2943384
179577909,-0.11973213,-0.075042784,0.0033116578,0.29429212
179609824,-0.11424327,-0.0756416,0.0036858167,0.2935883
179641837,-0.112516604,-0.07691124,0.003865753,0.2943409
179673857,-0.11068276,-0.07545495,0.0036660733,0.29573372
179701827,-0.106167644,-0.0754099,0.0037054545,0.29741108
179733840,-0.105043255,-0.07557919,0.003623114,0.30856442
179765890,-0.10376394,-0.0753522,0.0037214328,0.31755385
179797826,-0.097260654,-0.07402312,0.003970984,0.32576513
179831445,-0.09237714,-0.07565485,0.0041816644,0.33481625
179859423,-0.08866479,-0.07559325,0.0039420743,0.3649047
179891400,-0.08145306,-0.07401936,0.0037676927,0.3732312
179923401,-0.07201645,-0.07031595,0.0038914233,0.37540916
179955440,-0.069468655,-0.068902805,0.0040537026,0.3728934
179987503,-0.06293276,-0.06996228,0.0039479504,0.37277392
180019410,-0.06477824,-0.07010174,0.004336285,0.37491006
180051465,-0.06360013,-0.07486442,0.0043680994,0.37694442
180083477,-0.055884268,-0.0719459,0.004711396,0.3847174
180115468,-0.060961667,-0.07522064,0.00541035,0.39164072
180147401,-0.059993878,-0.07231815,0.0051653557,0.39995134
180179446,-0.062157866,-0.072831765,0.0053861416,0.39997587
180211443,-0.056643885,-0.07570783,0.005494987,0.39905003
180243497,-0.053694706,-0.07471493,0.00564871,0.39845574
180275403,-0.06545293,-0.07373747,0.0060645207,0.39877567
180307500,-0.05622069,-0.07569707,0.005350569,0.39896348
180339452,-0.05770033,-0.07512538,0.0053843874,0.39883894
180371403,-0.059588313,-0.07348398,0.005102931,0.40040135
180403380,-0.05080679,-0.071106724,0.004027733,0.40061545
180435393,-0.058469348,-0.07109349,0.0047974,0.4011506
180467435,-0.06283364,-0.06771511,0.0051267054,0.4075764
180499403,-0.056951046,-0.06627962,0.004284354,0.4185152
180531408,-0.063147284,-0.06655007,0.003728938,0.46274757
180559505,-0.048719164,-0.06688963,0.0033374946,0.48722643
180591403,-0.028515613,-0.05944106,0.0022588249,0.49555466
180623408,-0.013773589,-0.056692235,0.0004147837,0.49231315
180655449,0.03544347,-0.043061648,-0.0013857526,0.4919613
180687472,0.08962137,-0.028303295,-0.0028182978,0.49171928
180720457,0.11700997,-0.030144356,-0.003399701,0.4917582
180749021,0.12944447,-0.025497053,-0.003620621,0.49095407
180780982,0.15143465,-0.014408236,-0.004811365,0.49089515
180812998,0.16803046,-0.0021536066,-0.0048171114,0.4911677
180845012,0.16510497,-0.0025573533,-0.0054724016,0.4920883
180877052,0.18228401,-0.0025471947,-0.007296021,0.492117
180908999,0.18585466,0.009428028,-0.007376,0.49150693
180937027,0.1839958,0.0006662665,-0.00808705,0.49165982
180969036,0.17865267,0.007042453,-0.008617582,0.4920001
181000999,0.18077832,0.009003207,-0.009351174,0.49132553
181033054,0.18908386,0.0028654377,-0.009212825,0.49114612
181065027,0.18856923,0.018229833,-0.009395728,0.49257824
181097002,0.1892915,0.032773007,-0.010013499,0.4924925
181129005,0.18413424,0.03285412,-0.010292913,0.492098
181161031,0.17413159,0.03502637,-0.01114752,0.49125946
181193036,0.19254161,0.04208719,-0.012167468,0.49092713
181221092,0.20015787,0.054485343,-0.01375214,0.48342556
181253059,0.18696474,0.050476126,-0.015232563,0.47805554
181285047,0.18478942,0.03866073,-0.016882164,0.48701113
181317016,0.19249018,0.04442093,-0.018523837,0.49266437
181658654,0.14220248,0.021722686,-0.038690425,0.49193832
181690659,0.1414907,0.017750781,-0.04062778,0.4915695
181722605,0.13585183,0.022733733,-0.041645493,0.49122417
181754659,0.13354327,0.021962745,-0.042551536,0.49239385
181786657,0.13935174,0.02257925,-0.04243504,0.4929527
181818728,0.14381973,0.021752482,-0.042544227,0.49151635
181850580,0.15371384,0.012457322,-0.0424911,0.49135226
181882623,0.15508163,0.01825502,-0.041791156,0.49099278
181914577,0.15526453,0.02838882,-0.0415076,0.49093106
181946638,0.16570471,0.038050342,-0.041585486,0.49141333
181978582,0.14938207,0.02728008,-0.041078605,0.49245602
182010654,0.11686134,0.011361124,-0.040717743,0.49900842
182042644,0.12477814,0.0053507304,-0.03962876,0.50502294
182074676,0.12464042,-0.0033003488,-0.03906698,0.50827503
182102660,0.11220684,0.00033059425,-0.03772693,0.5074795
182134684,0.11833106,0.010217041,-0.037220698,0.5096309
182166606,0.13243607,0.019828627,-0.03720998,0.51412076
182198651,0.12887213,0.015893238,-0.03693528,0.522276
182230636,0.1358877,0.016454203,-0.036579985,0.5274923
182262690,0.14833996,0.027144542,-0.037182797,0.53896356
182294611,0.14115895,0.029169824,-0.037992693,0.55579925
182326637,0.1300588,0.018347405,-0.038614832,0.5555904
182354607,0.13727103,0.014456355,-0.039467886,0.55375063
182386639,0.14354233,0.016911289,-0.04039607,0.5447656
182418633,0.13225205,0.0107091945,-0.041726615,0.5404444
182450677,0.122346014,-0.0052299034,-0.042854115,0.5372567
182482603,0.12544432,0.008808471,-0.043756183,0.53009737
182514647,0.086035505,0.06028923,-0.043916836,0.5256072
182547407,0.043819785,0.0780702,-0.04320448,0.51723015
182579443,0.04085169,0.085294925,-0.042398173,0.512898
182612273,0.04492271,0.082233824,-0.041806173,0.5055848
182644207,0.06827969,0.0640397,-0.040982537,0.5010404
182676200,0.038483836,0.10885291,-0.038928326,0.49810666
182708251,-0.002429583,0.1362984,-0.03707556,0.49897364
182740246,-0.02228569,0.11796796,-0.03539161,0.49811867
182772197,-0.009112238,0.08168865,-0.034108028,0.49728465
182804217,0.0191926,0.054161668,-0.032554038,0.4972928
182836248,0.02311316,0.05801803,-0.02992489,0.4973598
182868243,-0.019885754,0.10978063,-0.026130136,0.49736083
182900218,-0.095455974,0.1512332,-0.022051362,0.49734318
182932222,-0.059794933,0.11587096,-0.019949406,0.4973439
182960221,-0.1003085,0.21908155,-0.014748181,0.49712604
182992206,-0.18037303,0.28266242,-0.009691451,0.49660602
183024228,-0.18876366,0.21552667,-0.008399571,0.49620312
183056183,-0.066160314,0.099567674,-0.009438121,0.49626255
183088185,0.023613328,0.039473776,-0.0089698,0.49629122
183120182,0.019693557,0.03325368,-0.007004531,0.49650356
183152265,0.020529957,0.012314854,-0.005650747,0.49702144
183184262,0.07370573,-0.0030325677,-0.004588703,0.49720585
183212235,0.036029745,0.030888535,-0.0024614993,0.4966267
183244208,0.00012504231,0.0359213,-0.00058847835,0.4962295
183276197,0.1159361,-0.11507609,-0.0027309232,0.49626154
183308200,0.21827933,-0.2347293,-0.0032832336,0.49629223
183340237,0.394818,-0.3483136,-0.0032708698,0.49628428
183372204,0.34338325,-0.28579375,-0.00215587,0.49650145
183404201,0.30812252,-0.2523242,-0.0008816781,0.49739084
183436210,0.25034955,-0.18292414,-2.233501e-05,0.497206
183465031,0.20153394,-0.12961039,0.0010364896,0.49662665
183496997,0.13727675,-0.13053522,0.0016178992,0.4961961
183529078,0.21277155,-0.24205112,0.0023223127,0.4964809
183561067,0.43819743,-0.4410898,0.0059847995,0.49665928
183593049,0.500314,-0.44752023,0.0077112857,0.49653798
183624994,0.4554782,-0.38184872,0.008094415,0.49696183
183657092,0.4001252,-0.30992612,0.008472225,0.49720687
183689046,0.33382586,-0.24361196,0.008198294,0.49663278
183721026,0.28970173,-0.22528204,0.00890458,0.496415
183753001,0.27059272,-0.22526683,0.010457311,0.49678075
183785089,0.338762,-0.28271413,0.01467002,0.4963252
183817041,0.3165241,-0.25105584,0.016096652,0.49644417
183849009,0.2774127,-0.20226577,0.015600791,0.49699262
183877010,0.19546357,-0.08973687,0.011460305,0.49721187
183909050,0.11229008,-0.014458011,0.007754465,0.49662876
183941017,-0.030520476,0.109181784,0.0012970994,0.49619555
183973042,-0.10497386,0.18189432,-0.003585129,0.49626145
184004980,-0.16602156,0.21456107,-0.0069919354,0.4965117
184037013,-0.3096143,0.3648375,-0.01333826,0.5034806
184068979,-0.33828622,0.38237572,-0.01562753,0.51237893
184101002,-0.37658665,0.42249292,-0.017226333,0.53800505
184133064,-0.34047347,0.40555358,-0.019671855,0.54225475
184161080,-0.33381552,0.38255155,-0.02086249,0.53689915
184192997,-0.3299682,0.37340456,-0.022737201,0.5172935
184225041,-0.24361129,0.3519791,-0.02610448,0.51133233
184257005,-0.37621018,0.47911197,-0.024827493,0.50519043
184289074,-0.34715626,0.4283387,-0.025979495,0.50518334
184321002,-0.25972268,0.3310049,-0.027786896,0.50533867
184353002,-0.27455205,0.3791339,-0.024654899,0.50353223
184385007,-0.23829068,0.32119417,-0.025216071,0.5030133
184413055,-0.17975008,0.2502285,-0.023906436,0.5031424
184445137,-0.13217397,0.31170025,-0.009694579,0.5031787
184477079,-0.12072346,0.31197646,0.0072884434,0.5031608
184509020,-0.10928293,0.23667267,0.02183927,0.5031586
184541085,-0.049543023,0.17168534,0.032668155,0.5040406
184573010,0.017585266,0.09405201,0.03969107,0.5042182
184605049,0.051046997,0.055556793,0.04417319,0.50313073
184633038,0.048658736,0.039826777,0.047563855,0.50305563
184665843,0.062184628,0.018169241,0.049393184,0.50286645
184697829,0.06905535,0.011525712,0.04974946,0.5015903
184730605,0.075383924,0.0064541,0.051090237,0.5009229
184762651,0.07793074,-0.00073075143,0.05100498,0.500813
184794609,0.046161428,0.06420162,0.05132631,0.50053215
184826685,-0.02809662,0.14101568,0.05159131,0.49909627
184858603,-0.12840983,0.18696861,0.05198062,0.4974795
184890611,-0.10344588,0.12605469,0.049085967,0.49725813
184922647,-0.009258735,0.037383996,0.044678345,0.49734053
184954657,0.022417264,0.01865295,0.041688155,0.49735487
184986610,0.11369941,-0.13431795,0.034596168,0.49734488
185018619,0.2251767,-0.26597762,0.028772451,0.49734417
185050649,0.5266446,-0.5070318,0.023462433,0.49660602
185082672,0.51691025,-0.46392432,0.020406237,0.49623758
185114609,0.42142674,-0.37817416,0.017979113,0.4962031
185146578,0.32505515,-0.29505488,0.01541532,0.49629125
185178657,0.2602387,-0.22668436,0.011918945,0.49629024
185210613,0.19958526,-0.18490879,0.0077589955,0.49650356
185242619,0.14613974,-0.13955608,0.0034951644,0.49739027
185274586,0.117834836,-0.11436432,-0.000977779,0.4969865
185306652,0.10169229,-0.09463014,-0.005828384,0.49586102
185338631,0.105754495,-0.12977178,-0.010323646,0.4961617
185370649,0.21562582,-0.32340908,-0.014088717,0.496321
185402606,0.5616373,-0.5960249,-0.011219249,0.4962897
185434639,0.61076623,-0.6089487,-0.012508306,0.4962783
185940204,0.2983495,-0.351672,-0.051336996,0.49650145
185972276,0.1484459,-0.057615887,-0.059263222,0.49665174
186505862,-0.053453907,0.08006974,0.15425964,0.49626142
186537881,-0.012946074,0.027511947,0.15623279,0.49607286
186569868,0.11727692,-0.111960195,0.1500961,0.4961351
186601810,0.16555674,-0.17695282,0.1463729,0.4969869
186633803,0.30114654,-0.33269778,0.13493112,0.49723455
186665802,0.3995826,-0.45466322,0.12509632,0.49662566
186697865,0.727492,-0.7303107,0.115207136,0.49597472
186729794,0.6873828,-0.6512523,0.109241195,0.49618095
186757927,0.6145859,-0.62474895,0.10046111,0.49699357
186789802,0.6596911,-0.70484334,0.0928099,0.49641234
186821840,0.73350805,-0.70266366,0.088798374,0.49641123
186853817,0.72632635,-0.6528135,0.081158474,0.49664775
186885887,0.5484709,-0.430336,0.06969812,0.4963277
186917854,0.20996594,-0.15282509,0.056649975,0.49625415
186949847,0.14971262,-0.10988369,0.047787167,0.49628323
186981829,0.07115304,0.007494813,0.037441026,0.49628893
187009888,-0.14384907,0.17198777,0.029219689,0.49628288
187041843,-0.15003578,0.1414034,0.021551644,0.49650198
187073879,-0.08374763,0.060470928,0.013450405,0.49687114
187105813,-0.06488478,0.056456238,0.003935676,0.49705684
187137872,-0.099822454,0.08919839,-0.0050531956,0.49711204
187169847,-0.10456782,0.070936024,-0.013993068,0.49625915
187201877,-0.07373616,0.057360385,-0.022547388,0.4953236
187233814,-0.043058105,0.04149447,-0.030530319,0.49185914
187265842,-0.0046453895,0.038663823,-0.038073227,0.49172246
187297866,0.030796433,0.03146834,-0.044267714,0.49039283
187329897,0.05031585,0.02009772,-0.048865683,0.47736177
187361801,0.05733247,0.0016414844,-0.053222932,0.44635156
187391465,0.044007644,0.0053292112,-0.056467902,0.33986044
187423475,0.033095017,0.015019993,-0.06081455,0.28399447
187455399,0.030216314,0.035940915,-0.06455254,0.18271661
187487457,0.023112277,0.066026725,-0.06890565,0.13620117
187519449,0.005188976,0.07775299,-0.074328825,0.08
187551493,-0.13441566,-0.049686376,-0.08956156,0.08
187583406,-0.31044143,-0.16417481,-0.10838357,0.08
187615420,-0.3655672,-0.08559109,-0.1734508,0.08037576
187643441,-0.3235211,-0.003711997,-0.21843046,0.08005502
187675458,-0.23268932,0.018286893,-0.2840453,0.08
187707435,-0.13851357,0.033786323,-0.38234726,0.08
187739479,-0.06373431,0.035313413,-0.36995706,0.08000565
187771406,-0.098641664,-0.07207409,-0.29307586,0.08
187803377,-0.22986722,-0.14944741,-0.25898933,0.08
187835401,-0.3252277,-0.07794184,-0.23370792,0.08
187867412,-0.31462428,-0.010059883,-0.19089583,0.08000005
187899395,-0.25850803,-0.0461075,-0.15940899,0.08
187931401,-0.23262699,-0.0894622,-0.12157722,0.08
187963432,-0.2621478,-0.052274056,-0.11975775,0.08
187995498,-0.29145393,-0.015090039,-0.123321444,0.08
188027404,-0.26706484,-0.039380666,-0.123646624,0.08
188059395,-0.20660663,-0.05936452,-0.12284703,0.08
188091439,-0.18544324,-0.04178782,-0.12261991,0.08
188123464,-0.24758734,-0.021002527,-0.1299976,0.08
188155397,-0.33755586,-0.03598305,-0.12950623,0.08
188187398,-0.36174682,-0.05580716,-0.11233704,0.08
188219666,-0.2990256,-0.04191436,-0.109147474,0.08
188251451,-0.2070466,-0.021396149,-0.101385996,0.08
188281012,-0.1668673,-0.03003051,-0.07910931,0.08
188313042,-0.1978949,-0.043956045,-0.07875121,0.08
188345004,-0.28313592,-0.032268766,-0.07154053,0.08
188377003,-0.33396637,-0.028442431,-0.071863666,0.08
188409000,-0.31014234,-0.03290488,-0.06385387,0.08
188441070,-0.25742438,-0.031416986,-0.008083222,0.08
188473008,-0.23960371,-0.024503414,-0.0027742242,0.08
188505041,-0.24442506,-0.0295184,-0.0034411016,0.08
188537009,-0.23760265,-0.035378516,0.0005518392,0.08
188569093,-0.2382132,-0.027928375,0.0046086037,0.08
188600997,-0.25894824,-0.029335381,0.004379812,0.08
188633042,-0.2737035,-0.033190515,0.00044150098,0.08
188665003,-0.2690423,-0.032216173,-0.0028732615,0.08
188697100,-0.25870296,-0.029843463,-0.002492202,0.08
188728993,-0.26134118,-0.031576067,0.00031377774,0.08
188761055,-0.27138484,-0.03361861,0.0017405762,0.08
188793009,-0.27141142,-0.031882577,-0.0001897225,0.08
188825091,-0.26417062,-0.031135716,-0.0031331892,0.08
188857037,-0.2640298,-0.03308075,-0.0043290844,0.08
188889010,-0.27081114,-0.033664178,-0.0031116502,0.08
188920976,-0.27260128,-0.03228745,-0.001751524,0.08
188949024,-0.26866335,-0.032627936,-0.0017872448,0.08
188981011,-0.2665266,-0.033805627,-0.003624125,0.08
189013061,-0.27005735,-0.034477964,-0.0054912297,0.08
189044976,-0.2719593,-0.034988884,-0.005715048,0.08
189076984,-0.27040848,-0.036729965,-0.004812599,0.08
189109002,-0.2679932,-0.038201626,-0.0041261218,0.08
189141066,-0.26898015,-0.03900244,-0.0052075256,0.08
189169044,-0.2702196,-0.04003863,-0.006509957,0.08
189202650,-0.27052164,-0.041641295,-0.007650452,0.08
189234687,-0.26842707,-0.04243267,-0.0072418014,0.08
189266605,-0.26686856,-0.043200675,-0.006774624,0.08
189298578,-0.26758388,-0.044450276,-0.0069752242,0.08
189330600,-0.26774395,-0.04525868,-0.008298943,0.08
189362627,-0.26572046,-0.045975752,-0.0092028435,0.08
189394572,-0.26305008,-0.0467485,-0.0092996275,0.08
189426596,-0.26253316,-0.047622286,-0.0087904865,0.08
189458630,-0.26197547,-0.04857594,-0.009130045,0.08
189490645,-0.259477,-0.049039472,-0.010139938,0.08
189522598,-0.25588077,-0.049469262,-0.010961819,0.08
189550678,-0.253958,-0.05018997,-0.011231141,0.08
189582705,-0.25259593,-0.050839733,-0.01088751,0.08
189614617,-0.25005788,-0.05180725,-0.011029108,0.08
189646608,-0.24549557,-0.052821275,-0.011645327,0.08
189678757,-0.2417779,-0.053556018,-0.012719336,0.08
189710608,-0.23846246,-0.054461963,-0.01304974,0.08
189742606,-0.23535246,-0.05547516,-0.013039466,0.08
189774746,-0.23005822,-0.056537196,-0.012927668,0.08
189802643,-0.22548795,-0.057707638,-0.013505576,0.08
189834650,-0.22073147,-0.058925923,-0.014309825,0.08
189866652,-0.21708822,-0.05622183,0.1038588,0.08
189898601,-0.21248506,-0.05301013,0.24630795,0.08
189930610,-0.20614627,-0.05402797,0.27505422,0.08
189962650,-0.20077573,-0.053306617,0.34936836,0.08
189994640,-0.196617,-0.050388843,0.50809366,0.08
190026652,-0.18975398,-0.05118665,0.5481548,0.08
190058618,-0.18283303,-0.05383981,0.5415031,0.08
190092213,-0.17554218,-0.055945076,0.5428111,0.08
190124226,-0.16885148,-0.058242623,0.5470352,0.08
190156267,-0.16247003,-0.059944868,0.58453435,0.08
190188247,-0.15707502,-0.058550596,0.74681884,0.08
190220201,-0.1503425,-0.061004635,0.731533,0.08
190252243,-0.14293091,-0.06493438,0.6706472,0.08
190284243,-0.1371081,-0.06676856,0.71230197,0.08
190316246,-0.1301174,-0.06823251,0.7566263,0.08
190348231,-0.12386444,-0.07073361,0.74210465,0.08087746
190380291,-0.11715741,-0.07460176,0.6809081,0.09771187
190408196,-0.11159033,-0.07618806,0.6731981,0.11230406
190440260,-0.10292338,-0.078773245,0.60834014,0.14042886
190472211,-0.094209015,-0.08114435,0.5554237,0.15146357
190504223,-0.08902575,-0.08281828,0.53223896,0.15901315
190536179,-0.087720945,-0.08332882,0.53921235,0.15824726
190568276,-0.08344525,-0.084136486,0.53066784,0.15508506
190600257,-0.07869482,-0.08518851,0.488499,0.13258262
190632252,-0.07788956,-0.08587496,0.49414107,0.12472979
190660208,-0.07928754,-0.08659576,0.53470737,0.12418315
190692245,-0.07922856,-0.0858198,0.63056016,0.12693971
190724197,-0.07774628,-0.08556938,0.6242624,0.12783262
190756282,-0.07627657,-0.08709612,0.5484233,0.13975406
190788201,-0.0745953,-0.087772585,0.48712638,0.14877364
190820248,-0.0734111,-0.08795185,0.36933637,0.15539685
190852200,-0.07126188,-0.088865414,0.3529149,0.15496276
190884297,-0.07157512,-0.088852204,0.3602041,0.15611506
190916230,-0.073368154,-0.08793365,0.39650446,0.16827737
190948245,-0.074156485,-0.0878162,0.40271735,0.1780525
190980994,-0.07315563,-0.08839558,0.405808,0.18790226
191013029,-0.0737484,-0.08794158,0.39520818,0.19172117
191041855,-0.07345477,-0.08792407,0.34602365,0.19847621
191073815,-0.07394316,-0.08904942,0.3138574,0.199296
191105877,-0.07256054,-0.09107467,0.17878664,0.20658512
191137875,-0.07203581,-0.09109523,0.044944763,0.21234962
191169839,-0.07298089,-0.09152345,0.0020555318,0.23567818
191201819,-0.07095921,-0.09169838,0.0040195654,0.24522097
191233868,-0.071584515,-0.09087221,0.0021485179,0.25624108
191265809,-0.071501486,-0.09100628,-0.0012871369,0.26270264
191293900,-0.073244326,-0.0904564,0.121781245,0.26456106
191325800,-0.074141316,-0.08823617,0.19889015,0.26302856
191357870,-0.078563094,-0.08756184,0.19338311,0.2615422
191389821,-0.080491416,-0.089172915,0.1046389,0.25215948
191421893,-0.08095547,-0.08964427,0.07240142,0.2458673
191453812,-0.080714606,-0.08972224,0.0006138026,0.23779956
191485844,-0.08224974,-0.09003769,0.0010375337,0.23762292
191517855,-0.083371796,-0.09076332,-0.0014327714,0.23852877
191549882,-0.08064422,-0.09122929,-0.0036773996,0.2520001
191581809,-0.079874694,-0.09025266,-0.0040478627,0.26268232
191613784,-0.07879002,-0.09073168,-0.0040743216,0.26629022
191645780,-0.07753278,-0.09062209,-0.0044525927,0.2650895
191677846,-0.07953571,-0.09037906,-0.0051354608,0.2650325
191709781,-0.07955868,-0.091393866,-0.005635498,0.2648221
191741788,-0.079322785,-0.09076777,-0.005935813,0.26637447
191769814,-0.07872108,-0.09044426,-0.0062998235,0.2714744
191801843,-0.08059315,-0.09107849,-0.0065967604,0.293771
191833836,-0.08042573,-0.09068357,-0.0070514376,0.29996476
191866611,-0.079647526,-0.08952419,-0.0076362863,0.3008411
191899513,-0.07945715,-0.08945217,-0.0082929805,0.30049157
191931397,-0.08197439,-0.08845439,-0.009100667,0.30105576
191963374,-0.08716731,-0.08992107,-0.009678951,0.30821392
191995385,-0.08852203,-0.09008815,-0.010189317,0.31502506
192027400,-0.08761336,-0.08889532,-0.011182726,0.31978384
192059395,-0.090066105,-0.088450745,-0.011579287,0.3192084
192091396,-0.09289955,-0.08852937,-0.011931358,0.3196
192123442,-0.09201736,-0.08726079,-0.01233508,0.32046878
192151491,-0.09135118,-0.08638509,-0.012794318,0.32178715
192183422,-0.08776467,-0.08570112,-0.013075702,0.32338426
192215454,-0.0885992,-0.085822195,-0.013259575,0.3235185
192247402,-0.08775994,-0.08771699,-0.01351138,0.3244918
192279401,-0.08680612,-0.087558016,-0.013986563,0.32593617
192311458,-0.08526441,-0.08560839,-0.014988936,0.32899192
192343446,-0.08510631,-0.08735368,-0.015744919,0.33343446
192375416,-0.08732215,-0.08831608,-0.015749887,0.33401552
192403508,-0.08465676,-0.08794766,-0.015908815,0.3346137
192435397,-0.08793513,-0.08742219,-0.016476994,0.33494034
192467401,-0.07437898,-0.11239038,-0.016698644,0.33458084
192499429,-0.05160445,-0.15593937,-0.016970312,0.33654433
192531455,0.07105488,-0.2674196,-0.015830385,0.34271428
192563422,0.11717673,-0.30858558,-0.015726894,0.34261256
192595411,0.14480123,-0.32727727,-0.015748456,0.3421157
192627451,0.12600672,-0.3007526,-0.016913328,0.34450683
192659453,0.10640526,-0.29186934,-0.018039078,0.34608367
192691409,0.1105293,-0.30342117,-0.018888373,0.3467767
192723420,0.14052533,-0.343501,-0.018603869,0.34582964
192755472,0.15839767,-0.3542541,-0.018584684,0.3451948
192784997,0.16391258,-0.366103,-0.018417312,0.34457794
192816994,0.17421207,-0.3851282,-0.01845489,0.34509468
192849023,0.20518976,-0.40612015,-0.018402595,0.34453616
192880997,0.22070406,-0.4281364,-0.018552955,0.34499553
192912998,0.23844047,-0.44100976,-0.018128775,0.34614947
192945018,0.22482772,-0.4225154,-0.01923274,0.34646535
192977048,0.21923791,-0.41143435,-0.020166965,0.3458291
193005034,0.183108,-0.37703457,-0.021443399,0.34627312
193037056,0.1732705,-0.37089074,-0.022472784,0.3501774
193069015,0.17147508,-0.37327632,-0.02313086,0.35847324
193100982,0.16341832,-0.35994905,-0.024195174,0.37608045
193132980,0.16296336,-0.35877323,-0.025093468,0.3812087
193165006,0.13647924,-0.32102433,-0.027197702,0.39744642
193196979,0.11517768,-0.30716836,-0.02836237,0.4016401
193228987,0.11029152,-0.30228028,-0.029118933,0.40103295
193261018,0.10337716,-0.28958425,-0.03068387,0.40037808
193289010,0.10083915,-0.2890016,-0.032050606,0.40204343
193321033,0.10229364,-0.2996001,-0.03335276,0.4052147
193353046,0.11479303,-0.30140683,-0.034568846,0.41878042
193384998,0.108248815,-0.29270434,-0.034623362,0.43268073
193417007,0.109035894,-0.2960566,-0.0348767,0.458846
193449025,0.120356314,-0.29651344,-0.03635902,0.45987436
193481093,0.121201105,-0.2949914,-0.03660958,0.45857087
193509045,0.1074649,-0.27537978,-0.03646572,0.46152925
193541036,0.10728223,-0.24658437,-0.037322693,0.46301797
193573000,0.101323895,-0.21226819,-0.038140137,0.47586247
193605015,0.09242725,-0.1631835,-0.040995717,0.4819039
193637018,0.1003122,-0.11263231,-0.043473992,0.48312247
193669890,0.059313316,-0.013322078,-0.045519486,0.48426
193698606,0.029260147,0.04381007,-0.046615478,0.4846939
193730628,0.0011526399,0.08926578,-0.04848741,0.48470274
193762598,-0.00135963,0.124623545,-0.051213205,0.4848404
193794602,0.021367168,0.14056194,-0.053421315,0.48961627
193826607,0.02571691,0.14468643,-0.056386486,0.49202073
193858654,0.021275204,0.14505489,-0.05939821,0.4924307
193890659,0.024449747,0.16984922,-0.063002974,0.49230918
193918694,-0.013333425,0.23780131,-0.06690119,0.4919095
193950612,-0.040389426,0.29421997,-0.069988064,0.49180785
193982614,-0.081734,0.3148536,-0.0719859,0.49087912
194014606,-0.06625982,0.27949014,-0.0737633,0.49187723
194046644,-0.031692427,0.26004937,-0.07641549,0.49218076
194078605,-0.015938437,0.24540935,-0.078175515,0.49212012
194110614,-0.011786101,0.23421794,-0.080339186,0.4920199
194142662,0.0088498695,0.21416022,-0.08262369,0.49203613
194170702,0.010291298,0.18858251,-0.08382727,0.4920369
194202638,0.021039182,0.16568492,-0.08556123,0.49203584
194234691,0.034374993,0.16318801,-0.08650284,0.49203527
194266607,0.049528174,0.17919214,-0.08724992,0.4920354
194298581,0.016492182,0.21715808,-0.08748754,0.49203545
194330599,0.016771745,0.1794542,-0.087187305,0.49203542
194362627,0.05735987,0.15006645,-0.087130934,0.49203542
194394577,0.058956403,0.16420992,-0.087065145,0.49225482
194422694,0.055985138,0.16404095,-0.08703416,0.49277458
194454607,0.052428156,0.15965259,-0.08709013,0.49243832
194486607,0.041021086,0.15119864,-0.08704328,0.49201038
194518722,0.041980553,0.14994024,-0.085858084,0.49200773
194551424,0.05589156,0.13271002,-0.08488802,0.49204245
194583422,0.05264848,0.12144466,-0.08417214,0.492037
194612261,0.059643447,0.12023913,-0.083358034,0.4920344
194644255,0.3181513,-0.19312166,-0.08064196,0.49277455
194676186,0.38715252,-0.17864671,-0.07942482,0.4929238
194708258,0.3259645,-0.12508228,-0.07923186,0.49243835
194740219,0.2502911,-0.05144217,-0.078448206,0.49194726
194772242,0.20436734,-0.021231703,-0.078284934,0.49200773
194804210,0.17924349,0.0030913139,-0.07735353,0.49204344
194832286,0.17228182,-0.01758911,-0.07540797,0.492037
194864216,0.19248672,-0.039533578,-0.073743835,0.49225378
194896234,0.18575227,-0.019407973,-0.07331885,0.49314302
194928243,0.13870941,0.03647979,-0.07261492,0.4931776
194960292,0.031408764,0.18345928,-0.07445187,0.49286985
194992214,-0.07830342,0.3086226,-0.07467252,0.4923512
195024214,-0.16359843,0.36370692,-0.0730003,0.4919887
195056254,-0.21722095,0.3712143,-0.07095397,0.49201536
195088258,-0.14803791,0.2918084,-0.06970425,0.4920435
195120200,0.014529858,0.084387094,-0.068142995,0.49225572
195152202,0.12295976,-0.014923458,-0.067489676,0.49277362
195184240,0.18909985,-0.040726766,-0.066303946,0.49295813
195216243,0.19601816,-0.07720023,-0.06465175,0.49237898
195248213,0.22812568,-0.08243709,-0.062251218,0.49198166
195280221,0.23279154,-0.066186525,-0.060987025,0.4922331
195312303,0.18563396,-0.0152483005,-0.060582258,0.49278367
195344239,0.116546705,0.041967396,-0.060290005,0.49339783
195376249,0.0930129,0.055245336,-0.05901444,0.49493554
195408222,0.08110527,0.07158035,-0.05846778,0.49534002
195441021,0.07689179,0.057663355,-0.056921087,0.49449566
195473059,0.09770065,0.027538214,-0.055289716,0.49387974
195501073,0.12392379,0.01801771,-0.054401167,0.49355143
195533040,0.022672756,0.22237308,-0.06274211,0.49413455
195565066,-0.16147113,0.4221165,-0.068804994,0.494007
195597009,-0.5623664,0.7618687,-0.06626803,0.49400797
195628989,-0.66257566,0.80715024,-0.06222895,0.4944187
195661036,-0.6846841,0.793995,-0.057781104,0.49437425
195692979,-0.57454824,0.6665245,-0.057093758,0.49443352
195724978,-0.4582982,0.5685892,-0.05667357,0.49412754
195753018,-0.36870587,0.48408023,-0.056447618,0.49391657
195785001,-0.28745118,0.39032736,-0.05531405,0.4934177
195817092,-0.25234148,0.3799031,-0.051878344,0.49375826
195849028,-0.24019071,0.3790188,-0.048000433,0.49396494
195881001,-0.3022483,0.4389358,-0.038980983,0.49299812
195912997,-0.3035819,0.397728,-0.035554234,0.49390075
195945042,-0.2345623,0.33983108,-0.033526756,0.49360052
195977043,-0.13848218,0.20815226,-0.03504485,0.49326894
196008998,0.06090259,0.007174178,-0.04116345,0.49417147
196040997,0.17209321,-0.062011182,-0.041330464,0.4942497
196073030,0.20639165,-0.09540754,-0.041478872,0.4941531
196105042,0.24358353,-0.14482303,-0.04260608,0.494151
196137018,0.28717822,-0.22858211,-0.04425772,0.49415746
196169034,0.5279249,-0.4993821,-0.047909874,0.49489918
196201014,0.6016235,-0.50454813,-0.044678748,0.4950477
196233065,0.48369986,-0.39106384,-0.040322483,0.49339503
196265011,0.37787947,-0.29765195,-0.037128855,0.49296346
196297054,0.30973312,-0.20990503,-0.03486608,0.49320897
196329046,0.25166538,-0.12734848,-0.032937884,0.4934819
196361079,0.19913147,-0.08248155,-0.030748224,0.4933597
196393010,0.15537238,-0.05234696,-0.028617203,0.4941747
196421037,0.13091893,-0.018446965,-0.02679894,0.4940205
196453211,0.09981411,0.022392858,-0.025044167,0.4934469
196485021,0.07803259,0.03578324,-0.023766778,0.49322924
196517021,0.061764374,0.0422645,-0.022127913,0.49359494
196549123,0.039016016,0.11100375,-0.02056108,0.49313936
196580980,-0.059318118,0.18570258,-0.018750196,0.493039
196613080,-0.11481196,0.20865658,-0.016144672,0.49383703
196642615,-0.09828254,0.18818991,-0.014703438,0.49421105
196674610,-0.060107477,0.106952295,-0.015262336,0.4934404
196706607,0.030143982,-0.0026612799,-0.01559931,0.49304307
196738651,0.08849294,-0.04105637,-0.013888068,0.49307573
196770687,0.093655474,-0.010641236,-0.013857211,0.49288708
196802587,0.08905511,0.012838357,-0.013807065,0.49199075
196830584,0.0651996,0.035813943,-0.013348733,0.49217358
196862584,0.040029675,0.046063002,-0.012056422,0.49297267
196894615,0.031013167,0.050073493,-0.011454756,0.49333373
196926624,0.020440564,0.050239988,-0.0102226585,0.49153683
196958703,0.009207695,0.05312673,-0.010765139,0.48203757
196990613,0.01229468,0.052931767,-0.011045548,0.47248504
197022646,0.016431326,0.046433363,-0.011422542,0.4367922
197054680,0.015057453,0.04859703,-0.010855809,0.38504836
197082612,0.0067705545,0.072742194,-0.01013297,0.2965981
197114641,-0.0011966758,0.10298536,-0.0103978785,0.19887717
197146604,-0.018292839,0.12535845,-0.011107706,0.20106499
197178598,-0.032085754,0.15116206,-0.012230724,0.19648904
197210629,-0.059162576,-0.025825579,-0.01607794,0.18253939
197242636,-0.056606464,-0.23182316,-0.018634373,0.16769172
197274640,-0.014673937,-0.12287621,-0.015124202,0.12479367
197306606,0.010567944,0.03173615,-0.01868381,0.099027276
197338681,-0.0007142022,0.015612353,-0.030064486,0.08155032
197370626,-0.034919497,-0.043637764,-0.042354614,0.08
197402641,-0.06894286,-0.08280544,-0.054268133,0.080074675
197434614,-0.0810555,-0.08853113,-0.060558654,0.08031517
197466663,-0.040030293,-0.08141733,-0.052074928,0.08
197498652,0.0068596248,-0.072903894,-0.04372969,0.08
197528209,0.009730783,-0.054152414,-0.041745488,0.080003455
197560251,-0.030255822,-0.05129787,-0.042120114,0.08000243
197592227,-0.057230975,-0.076761864,-0.045443777,0.08000022
197624234,-0.03400779,-0.07055351,-0.04809984,0.08
197656203,-0.012940846,-0.05657276,-0.0460886,0.08
197688260,-0.032257523,-0.055835005,-0.041727737,0.08000002
197716232,-0.053496998,-0.06734478,-0.040183656,0.08
197748246,-0.048529852,-0.06921898,-0.04287546,0.08
197780243,-0.028677233,-0.059577134,-0.047057014,0.08
197812260,-0.028762266,-0.060361926,-0.04785436,0.08
197844217,-0.048261765,-0.06899245,-0.04478304,0.08
197876313,-0.051379655,-0.06821332,-0.0426364,0.08
197908249,-0.037092283,-0.062359262,-0.043658543,0.08
197940255,-0.032972775,-0.06516892,-0.046667535,0.08
197968196,-0.043292493,-0.06936581,-0.04800597,0.08
198000221,-0.05149136,-0.06722484,-0.047072243,0.08
198032185,-0.043798406,-0.06399316,-0.045408744,0.08
198064260,-0.036978282,-0.06734715,-0.045215625,0.08
198096174,-0.043576244,-0.06935745,-0.047003493,0.08
198128240,-0.04992873,-0.06676681,-0.048410118,0.08
198160217,-0.04607192,-0.06605963,-0.048416782,0.08
198192287,-0.04124473,-0.069221504,-0.04767458,0.08
198224284,-0.044987448,-0.06923977,-0.047195088,0.08
198256241,-0.049693976,-0.06755635,-0.048031908,0.08
198288198,-0.048206877,-0.068627596,-0.049182713,0.08
198320291,-0.044963695,-0.07018546,-0.049808953,0.08
198352247,-0.046467677,-0.06952061,-0.04919857,0.08
198384201,-0.049305495,-0.06928977,-0.048735064,0.08
198413077,-0.04969088,-0.07060478,-0.04895677,0.08
198445003,-0.04835519,-0.07071411,-0.050122224,0.08
198477003,-0.049556863,-0.07076199,-0.050811365,0.08
198509043,-0.053116366,-0.07206257,-0.05075756,0.08
198541052,-0.056555327,-0.07426589,-0.0501331,0.08
198573020,-0.057638716,-0.074628614,-0.05008381,0.08
198605051,-0.058554456,-0.07549994,-0.050942477,0.08
198633007,-0.06061668,-0.07706705,-0.051729977,0.08
198665016,-0.064693905,-0.078599855,-0.052116886,0.08
198697048,-0.0664072,-0.07856297,-0.05176764,0.08
198729036,-0.06632477,-0.07950095,-0.05159288,0.08
198761001,-0.067929536,-0.08048761,-0.05195859,0.08
198793034,-0.070737034,-0.080864646,-0.052835193,0.08
198825049,-0.07290069,-0.08090248,-0.053333145,0.08
198857053,-0.072522946,-0.08158138,-0.05341459,0.08
198889014,-0.07323604,-0.081746444,-0.053093996,0.08
198917018,-0.07437276,-0.081331,-0.053365815,0.08
198949016,-0.076526195,-0.08134668,-0.053946577,0.08
198980989,-0.076888114,-0.08161827,-0.054620802,0.08
199013027,-0.07670182,-0.08140739,-0.05480293,0.08
199044983,-0.077291034,-0.08047101,-0.054652102,0.08
199076983,-0.079337545,-0.080578536,-0.05477237,0.08
199108998,-0.08009934,-0.079678625,-0.055274006,0.08
199137002,-0.080091305,-0.079322085,-0.055871382,0.084168
199169034,-0.08075126,-0.078106,-0.056178365,0.10942921
199201033,-0.08295434,-0.07792598,-0.056226492,0.123404816
199233003,-0.08458151,-0.077319965,-0.056037843,0.13859387
199265001,-0.084618285,-0.07639797,-0.055938568,0.14044943
199297052,-0.084803715,-0.075065754,-0.056349117,0.14902619
199329052,-0.08565671,-0.07500324,-0.05755882,0.15760763
199361049,-0.086134814,-0.073767476,-0.057973593,0.16930832
199389036,-0.085401505,-0.0727015,-0.05744774,0.1874234
199421015,-0.08447086,-0.07193967,-0.056783456,0.19180158
199453006,-0.08475435,-0.071051985,-0.057162922,0.20977956
199485001,-0.0849868,-0.0704994,-0.05839401,0.21311928
199517049,-0.08428974,-0.07047157,-0.05954471,0.21099466
199549040,-0.08439529,-0.070816495,-0.05989287,0.21107426
199581817,-0.0840923,-0.070381105,-0.05932179,0.21378525
199610644,-0.084651515,-0.069776975,-0.05903852,0.23439078
199642603,-0.08460411,-0.06974197,-0.05931619,0.24152298
199674611,-0.083711594,-0.06967985,-0.059973504,0.24129555
199706625,-0.08334994,-0.068922706,-0.060315598,0.23849207
199738657,-0.08399801,-0.069091626,-0.060378164,0.2394187
199770607,-0.08370586,-0.07041738,-0.060469445,0.25220874
199798634,-0.08166021,-0.06965334,-0.06079757,0.26321462
199830620,-0.081906036,-0.06919393,-0.060994606,0.28400746
199862620,-0.08109608,-0.07071655,-0.061506405,0.2934799
199894647,-0.080418244,-0.070369415,-0.061599288,0.29684672
199926611,-0.07920483,-0.06891598,-0.061474845,0.29431146
199958621,-0.07997032,-0.06913182,-0.061507117,0.29352918
199990608,-0.0803131,-0.069660254,-0.061968956,0.29250702
200022673,-0.08119036,-0.068652816,-0.062243935,0.28918108
200050670,-0.079981655,-0.06764969,-0.062579826,0.284161
200082661,-0.08132848,-0.06831879,-0.06281841,0.28057215
200114786,-0.08269156,-0.06918503,-0.06297966,0.2810427
200146598,-0.08089174,-0.068033844,-0.06309366,0.28159925
200178591,-0.081768475,-0.06784901,-0.063541315,0.2810984
200210632,-0.08183319,-0.06970376,-0.063906826,0.2800196
200242578,-0.08370897,-0.06744665,-0.06360813,0.27957603
200274584,-0.08233135,-0.06966412,-0.06406606,0.28148967
200306642,-0.0812412,-0.07058633,-0.06441915,0.28494775
200338669,-0.08146613,-0.06872981,-0.06438193,0.29133013
200370727,-0.082350045,-0.06915653,-0.064461455,0.2910984
200402649,-0.08177868,-0.06936201,-0.064724185,0.28939995
200434603,-0.0840421,-0.065665305,0.14662099,0.28931105
200467635,-0.08760188,-0.060732864,0.50227416,0.29030362
200500240,-0.08958353,-0.06156853,0.58381873,0.29057777
200532177,-0.08986586,-0.058898956,0.6148343,0.29210407
200564248,-0.09040892,-0.05813524,0.6155304,0.29272625
200596173,-0.08905967,-0.060133852,0.61921,0.29322785
200628252,-0.089028426,-0.05868885,0.6362844,0.29351705
200660398,-0.08938472,-0.057097718,0.6461677,0.29346398
200692238,-0.092540845,-0.060038697,0.6542463,0.2945427
200724199,-0.09402906,-0.059095945,0.66063285,0.29846296
200756478,-0.09488002,-0.05528296,0.6547605,0.31251773
200788242,-0.08968924,-0.058021024,0.635632,0.31886372
200820202,-0.08490441,-0.061267726,0.5929567,0.32246858
200852391,-0.083307125,-0.060405847,0.55839294,0.3222907
200884249,-0.080043584,-0.06015636,0.51187897,0.32186973
200916269,-0.08266958,-0.05960058,0.5005462,0.32181177
200948209,-0.08217623,-0.05980126,0.41034538,0.3324853
200980206,-0.07785829,-0.060813107,0.32607725,0.34216508
201012246,-0.07740985,-0.061123565,0.2376109,0.34684375
201044234,-0.07486839,-0.06137265,0.23333117,0.3466075
201076221,-0.07251506,-0.0622204,0.23699233,0.34838367
201108203,-0.07208713,-0.06025867,0.21961588,0.34947506
201140255,-0.07226759,-0.060566574,0.12915331,0.35348627
201172267,-0.06917661,-0.060693543,0.09777737,0.35517454
201204215,-0.07514583,-0.058732808,0.016713146,0.36552143
201236248,-0.07137609,-0.059672587,0.0010405867,0.37040108
201268268,-0.068182476,-0.059119403,0.00039616617,0.37487838
201300311,-0.06455373,-0.06145494,-0.0015649502,0.376202
201328235,-0.064656116,-0.06142883,-0.0026919628,0.3771288
201361843,-0.06693028,-0.060832582,-0.0030061898,0.3771628
201393838,-0.061995115,-0.06272095,-0.0029054547,0.37625092
201425807,-0.056097157,-0.059605494,-0.0029470227,0.37707457
201457889,-0.054052718,-0.06192588,-0.0027548557,0.38765043
201485801,-0.0545438,-0.06189083,-0.0030827292,0.3945261
201517870,-0.057326823,-0.05838076,-0.0030460078,0.3979093
201549854,-0.051580995,-0.061536387,-0.0033978731,0.39971414
201581807,-0.051924393,-0.059468634,-0.003798328,0.40047345
201613807,-0.05903916,-0.06179278,-0.0038712,0.40027398
201645828,-0.06251792,-0.06146218,-0.00506211,0.4001307
201677839,-0.057222076,-0.062875114,-0.0062548765,0.40252855
201709820,-0.058068447,-0.06024436,-0.007386186,0.4051351
201741774,-0.060624573,-0.05726171,-0.008066551,0.40470585
201773826,-0.057984002,-0.061483536,-0.008377183,0.4017767
201805813,-0.05798617,-0.058822703,-0.008787752,0.39966196
201837901,-0.06348088,-0.05891298,-0.009122099,0.40023008
201869817,-0.06488606,-0.05842702,-0.009050201,0.40055755
201901836,-0.060986258,-0.05796074,-0.009426581,0.4021249
201933848,-0.06072369,-0.05873099,-0.008782731,0.40898797
201961871,-0.057567567,-0.057527184,-0.008620721,0.42523187
201993838,-0.056862332,-0.060539752,-0.008967465,0.42710146
202025846,-0.057180703,-0.056480348,-0.009795218,0.42621058
202057833,-0.0530038,-0.05533429,-0.010205375,0.42631742
202089830,-0.05515564,-0.057547342,-0.011187763,0.4325718
202121840,-0.054440983,-0.053481057,-0.012349955,0.44859597
202153886,-0.060600176,-0.052090608,-0.013498402,0.4802098
202185832,-0.057625744,-0.056803677,-0.015347226,0.48383936
202214612,-0.05043981,-0.04519284,-0.017778464,0.48166
202247453,-0.039824862,-0.036282957,-0.020502055,0.48189968
202279402,-0.029440414,-0.02203822,-0.024247231,0.4827907
202311498,-0.009455626,-0.006304089,-0.02777966,0.48326206
202343485,0.0012790007,0.017531767,-0.032649707,0.48404923
202371460,0.02273916,0.043623436,-0.03670703,0.485255
202403435,0.03352175,0.05985256,-0.04156775,0.48670632
202435400,0.05489979,0.06906229,-0.046995733,0.49039078
202467411,0.0663832,0.081349105,-0.052667204,0.4919353
202499467,0.073036715,0.099175096,-0.058056213,0.49232048
202531435,0.07553643,0.11588271,-0.06412621,0.49224514
202563440,0.0798159,0.13104963,-0.06942284,0.49121097
202595429,0.1027226,0.119567715,-0.074673936,0.47575977
202623431,0.11518751,0.12396652,-0.07849073,0.4666709
202655416,0.10845418,0.119500145,-0.08250031,0.452961
202687455,0.10204937,0.116166465,0.033235535,0.44820523
202719466,0.10029573,0.11540755,0.117393,0.44510084
202751452,0.09393452,0.12960164,0.26051235,0.44071102
202783419,0.080901965,0.116348416,0.30596346,0.44091853
202815493,0.08152969,0.12715307,0.39359564,0.44221652
202847478,0.0797623,0.12999102,0.4091046,0.44201478
202875601,0.041876726,0.08083114,0.40132523,0.4425042
202907380,-0.052028634,-0.047222067,0.39300784,0.4451376
202939384,-0.055325117,-0.060693886,0.38639548,0.44970515
202971381,-0.028881453,-0.0095471395,0.39106056,0.44987625
203003472,-0.043650925,-0.009304523,0.38641086,0.45026714
203035490,-0.018320931,0.02170678,0.37065554,0.4510756
203067443,0.016390523,0.061377093,0.35019407,0.45217326
203096182,0.019349916,0.06943646,0.3353326,0.4524591
203129012,0.008267317,0.05339037,0.3369458,0.45151877
203161019,-0.01023394,0.009589255,0.33428684,0.4517731
203193011,-0.035090156,-0.016168527,0.31615803,0.45267734
203225057,-0.058092136,-0.0033759198,0.27117875,0.4568576
203253013,-0.07429581,-0.012719854,0.19740035,0.46700004
203285021,-0.054356545,-0.008199367,0.11673926,0.48239267
203316976,-0.03679336,0.0006634436,0.11474503,0.48316923
203348974,-0.05017498,-0.0045911213,0.07402208,0.48711193
203381033,-0.023724977,0.013553611,-0.002350646,0.49272558
203413060,0.0020380851,0.017503433,-0.0198535,0.49243563
203445033,0.025283663,0.021805583,-0.034952715,0.4927009
203477043,0.043926276,0.045353904,-0.04884713,0.49311334
203509029,0.057110928,0.06038571,-0.060932532,0.49318087
203541076,0.06583204,0.064564034,-0.07214217,0.49383038
203572993,0.07893577,0.07645666,-0.08183565,0.49419734
203605055,0.06943283,0.090288825,-0.08960759,0.4940184
203637024,0.06865618,0.07987675,-0.09657859,0.49304423
203669066,0.07245334,0.07827568,-0.10187484,0.49301028
203700998,0.08002243,0.09127802,-0.10552947,0.49310637
203733061,0.06953705,0.10583439,-0.10813375,0.49310496
203765012,0.063121036,0.10077787,-0.10977807,0.4930984
203797081,0.0695654,0.10710231,0.031112906,0.49309674
203828994,0.08296055,0.106704034,0.07961575,0.49235833
203861102,0.06987136,0.12041022,0.08341005,0.49198976
203893055,0.05953042,0.14614768,0.08857743,0.4919553
203925079,0.065974176,0.1321395,0.11226281,0.49204344
203957015,0.0766705,0.11276801,0.14275569,0.49204242
203990637,0.08801771,0.09899676,0.21095435,0.4915146
204022616,0.09022509,0.11298041,0.2206432,0.49188572
204054632,0.08515685,0.10769595,0.25359413,0.49298328
204082637,0.074030034,0.10957711,0.25876316,0.49224767
204114630,0.07391744,0.09659974,0.25843915,0.49148953
204146633,0.09138195,0.102346554,0.27374023,0.49079344
204178705,0.08017331,0.0970219,0.29609898,0.48907763
204210619,0.08827121,0.094234176,0.3395789,0.48549554
204242621,0.10709979,0.08982412,0.35936892,0.48467833
204274636,0.09543478,0.0848352,0.42613178,0.48409384
204306616,0.10334078,0.08418853,0.4572888,0.4831266
204334685,0.103396915,0.06759998,0.4880373,0.48158333
204366621,0.09408575,0.06103287,0.4909481,0.48110846
204398589,0.09333895,0.04660051,0.49071637,0.4803014
204430619,0.107134186,0.048577756,0.49171096,0.48028415
204462613,0.08943729,0.051480558,0.5006646,0.48033848
204494594,0.08109541,0.075615205,0.5088386,0.48057932
204526582,0.07359803,0.073610306,0.50363725,0.48131317
204558661,0.0844068,0.06723696,0.4705356,0.48186406
204586643,0.07407638,0.04694435,0.44197288,0.48147097
204618634,0.068200536,0.056058094,0.40224162,0.4817873
204650606,0.06547961,0.043722462,0.3553701,0.48285863
204682596,0.16613571,-0.1360458,0.3171098,0.4843652
204714603,0.20834693,-0.2635024,0.26056325,0.48689806
204746661,0.35561118,-0.40619966,0.0070264135,0.49270898
204778599,0.42065805,-0.4328247,-0.011757445,0.49323475
204810604,0.3825038,-0.3727661,-0.035447158,0.4938565
204838649,0.2866762,-0.25529927,-0.053918347,0.49418762
204872182,0.20311615,-0.12691668,-0.07353498,0.49422905
204904200,0.08286634,-0.003295001,-0.089115836,0.49415308
204936212,0.036077674,0.027841173,-0.100947976,0.49437237
204968243,0.024836967,0.053415313,-0.10973317,0.494748
205000215,0.03271492,0.057110813,-0.115868986,0.49449468
205028237,0.031943794,0.063554026,-0.11993547,0.494168
205060249,0.018996688,0.09187286,-0.123136476,0.49547455
205092203,0.015399113,0.09672409,-0.12357518,0.49496743
205124269,0.0062508723,0.1091189,-0.123667136,0.49401623
205156244,0.0045627863,0.108172275,-0.12166951,0.49431774
205188206,0.018417042,0.09783199,-0.11886391,0.49468464
205220210,0.027954966,0.09532289,-0.116615474,0.49419782
205252246,0.034399144,0.08353187,-0.11386277,0.494318
205280201,0.041053403,0.08509339,-0.11080328,0.49486852
205312283,0.02767383,0.06762737,-0.10762128,0.4945684
205344252,0.061065808,0.049928773,-0.103491515,0.4941364
205376246,0.06887401,0.044803485,-0.09916226,0.49413103
205408221,0.06051917,0.058383297,-0.09462474,0.49416625
205440295,0.06531558,0.05976097,-0.09081407,0.49416095
205472267,0.06783818,0.07735235,-0.086109824,0.49415836
205504207,0.06134872,0.08417284,-0.08183428,0.49437803
205536203,-0.013388929,0.1809331,-0.0789398,0.49504772
205568265,-0.05176328,0.23914374,0.1606026,0.49456227
205600213,-0.0626163,0.2596416,0.32363895,0.49413425
205632180,-0.04534309,0.25787914,0.5541497,0.4928727
205664177,-0.032896474,0.22820744,0.6477836,0.4926902
205696201,-0.03632835,0.21427184,0.7458542,0.49299088
205729827,-0.05659737,0.27345785,0.9382157,0.4933525
205761890,-0.115669,0.3224905,0.9876677,0.49384186
205793832,-0.12753569,0.27976233,0.9752506,0.49423647
205825899,-0.107636146,0.2347733,0.95398456,0.49396053
205857857,-0.06972096,0.19394341,0.9336089,0.49304485
205889890,-0.03208392,0.16478638,0.9278042,0.4930162
205921771,-0.018210134,0.13123874,0.9262938,0.49307767
205953817,-0.005039178,0.11448278,0.9121105,0.49332377
205985809,-0.005593336,0.05508913,0.86860347,0.49383748
206017878,0.21035728,-0.13378583,0.82982206,0.49423888
206049792,0.28919694,-0.1859321,0.831141,0.4939606
206077909,0.3008419,-0.21126841,0.81958026,0.49341223
206109809,0.385435,-0.2745846,0.644642,0.49301618
206141861,0.35077858,-0.18428868,0.5233853,0.49307775
206173834,0.25940955,-0.083633184,0.44639885,0.49310443
206205885,0.2323418,-0.13913718,0.40457475,0.49309826
206237843,0.22135009,-0.19863807,0.34813625,0.49331573
206269827,0.19170979,-0.16587016,0.29979944,0.4939857
206301834,0.1811035,-0.12400176,0.26206067,0.49350032
206329850,0.18537961,-0.11397768,0.17199528,0.49300918
206361841,0.1317215,-0.08268877,0.12234525,0.49328908
206393885,0.109228045,-0.0697205,0.007874517,0.4942131
206425794,0.11326196,-0.04488389,-0.009664873,0.494241
206457876,0.09542519,-0.01881304,-0.033943415,0.49436998
206489862,0.07830166,-0.01027852,-0.05235567,0.4948914
206521906,0.073967054,0.00423764,-0.06768033,0.49526602
206553805,0.058087416,0.05403921,0.008725537,0.4947227
206585855,0.035829622,0.0773039,0.021938324,0.49462533
206619453,0.031711295,0.08592757,0.038508918,0.49417198
206651434,0.039099507,0.08758581,0.057570335,0.4941382
206683516,0.037882287,0.09173684,0.069760226,0.49416143
206711469,0.038229685,0.0828015,0.08844715,0.49438363
206743495,0.021967035,0.074147396,0.11480712,0.49489993
206775394,0.03166398,0.06839435,0.24702646,0.4950815
206807449,0.058833417,0.051040895,0.33164236,0.49450266
206839448,0.07657336,0.06644996,0.44002637,0.4940723
206871473,0.06367282,0.07330752,0.47314283,0.49413767
206903416,0.069110245,0.066291645,0.5215243,0.49416694
206935496,0.06656719,0.0880653,0.55514675,0.49416038
206963447,0.05837956,0.08559231,0.60447013,0.49437755
206995492,0.06385282,0.08940308,0.6597575,0.49526688
207027638,0.054247525,0.08329852,0.67004323,0.49508208
207059454,0.05400522,0.094745725,0.6752474,0.49410555
207091406,0.04883904,0.077248245,0.6776205,0.4940722
207123464,0.07323715,0.07832069,0.68461204,0.4941683
207155417,0.076037735,0.07829395,0.6858842,0.49416694
207187408,0.07411979,0.084460124,0.6750838,0.49437755
207215433,0.06466594,0.07009871,0.6628419,0.49467853
207247411,0.065073684,0.07561116,0.6602389,0.4947472
207279502,0.06812273,0.09261456,0.66469204,0.49446842
207311445,0.066805355,0.108348384,0.6625741,0.49416506
207343434,0.08213267,0.0961688,0.6382475,0.49413666
207375455,0.09272587,0.07814922,0.6289022,0.49416244
207407398,0.106450975,0.067263514,0.6305354,0.4941649
207439406,0.12699531,0.06279255,0.6365593,0.4943781
207473017,0.12850188,0.050797082,0.6326324,0.49489802
207505024,0.121297665,0.05683993,0.614399,0.4950821
207536978,0.114554584,0.04818936,0.59913427,0.4945028
207568979,0.11347422,0.05331494,0.56826097,0.49407223
207601035,0.09676166,0.0760513,0.5535696,0.49413767
207633038,0.090416335,0.078315556,0.5111074,0.49416697
207665003,0.10919714,0.04480753,0.4509647,0.4941603
207697001,0.11497779,-0.00016451254,0.37115756,0.49437752
207729012,0.094156675,0.0038490044,0.29480317,0.49526694
207761039,0.091378674,0.00032888912,0.3166286,0.49508208
207793008,0.07359173,0.02098024,0.34832892,0.4941055
207825038,0.06283153,0.04341043,0.34330586,0.49407217
207856994,0.055120625,0.06239086,0.3401565,0.49413767
207889057,0.04731465,0.063571274,0.34488967,0.49416688
207921002,0.049918808,0.0566323,0.3399185,0.4941604
207953038,0.041354805,0.06395944,0.32510328,0.49437755
207985013,0.02411924,0.07423507,0.30182517,0.49526694
208017076,0.027072707,0.0683912,0.29966336,0.4950821
208048998,0.028260017,0.0684361,0.29915845,0.49410552
208081048,0.033759784,0.07566774,0.28879708,0.4940722
208113007,0.02967088,0.07243723,0.25771415,0.49416834
208145030,0.023193594,0.065154746,0.24287334,0.49416697
208177049,0.0038487408,0.07535767,0.17131607,0.4943776
208209012,-0.008338466,0.07781429,0.12254971,0.49489784
208241015,-0.008333199,0.061236557,0.04505219,0.49526688
208269046,-0.0032436738,0.04216068,-0.012763143,0.49472213
208301006,0.0034560845,0.039628662,-0.022520807,0.49462533
208333055,0.009503305,0.034343004,-0.02932216,0.4946918
208365904,0.008933006,0.043237112,-0.03401088,0.49447742
208397842,-0.0061416994,0.054517966,-0.03760492,0.49462172
208429858,-0.009940838,0.053688485,-0.03968183,0.49494275
208461849,-0.0059803543,0.06545786,-0.039484717,0.4963207
208489772,0.0015021723,0.06814665,-0.03873429,0.4961969
208521803,0.0047117574,0.07031622,-0.036804803,0.49558586
208553774,-0.009358479,0.08633325,-0.034049444,0.4951649
208585774,-0.010006085,0.07079879,-0.0307222,0.49519816
208617906,0.0032883894,0.038910776,-0.027178673,0.4950114
208649823,-0.0059389044,0.04315192,-0.024392061,0.49433407
208681883,-0.016975833,0.045420494,-0.019783327,0.4950366
208709855,-0.016499259,0.048607513,-0.016909895,0.4957655
208741801,-0.014542868,0.05408518,-0.014143604,0.49528342
208773812,-0.025661372,0.053724848,-0.009953592,0.49515483
208805832,-0.04676298,0.09017661,-0.007418408,0.49522078
208837880,-0.06412368,0.10126923,-0.0033180502,0.4950089
208869804,-0.1052562,0.1515551,-0.0009840427,0.49411327
208901820,-0.12407103,0.15311775,0.002457772,0.49407855
208933853,-0.11499937,0.13548009,0.006352565,0.49512595
208961807,-0.08277791,0.10763646,0.009912768,0.49601322
208993848,-0.054494157,0.0969828,0.013613032,0.49597132
209025858,-0.03902414,0.09090222,0.017251484,0.49490467
209057842,-0.03299776,0.08365758,0.019593986,0.49420342
209089794,-0.019005375,0.063162096,0.021517474,0.4948492
209121815,-0.038102973,0.08589033,0.022457851,0.4953169
209153847,-0.0607224,0.10221191,0.024129704,0.4952445
209185867,-0.07494366,0.10577317,0.023941832,0.49595213
209217855,-0.074581526,0.093268,0.024839163,0.49676663
209249846,-0.067048825,0.09210727,0.026032005,0.4977807
209281845,-0.040966295,0.08602163,0.02808766,0.49767092
209313847,-0.03189785,0.06905069,0.029584149,0.50065637
209345789,-0.03214401,0.06667041,0.031527173,0.50399256
209377887,-0.030861981,0.07547569,0.033822183,0.50683105
209409819,-0.018607486,0.062107682,0.03477516,0.50929224
209437916,-0.01130488,0.056515273,0.035133485,0.5127826
209469820,-0.023988336,0.054492563,0.0357926,0.5214998
209503463,-0.034101248,0.05442755,0.03554555,0.5215951
209535455,-0.045881446,0.06400608,0.03513192,0.52507305
209567479,-0.051225673,0.057565097,0.034524508,0.5292345
209595415,-0.043870624,0.0488503,0.03376408,0.5327921
209627415,-0.050533343,0.049572006,0.032479975,0.5387067
209659418,-0.053853415,0.05009347,0.03137444,0.5414839
209691409,-0.049576666,0.06281812,0.030209357,0.5475206
209723422,-0.047406215,0.05666065,0.028380375,0.54931086
209755375,-0.062491473,0.056740403,0.027255394,0.54965633
209787440,-0.07198078,0.062715724,0.025981374,0.54990214
209819471,-0.045895036,0.05471564,0.024957513,0.5499714
209851485,-0.033442546,0.04195757,0.023477932,0.5499372
209883405,-0.030855391,0.015962688,0.022160841,0.55019426
209915461,-0.028985405,0.011696915,0.020576987,0.5508153
209947453,-0.027118122,0.017980212,0.018706974,0.5463746
209979440,-0.009825343,0.006783726,0.016488133,0.5420891
210011397,0.0015072705,-0.0068164347,0.014520022,0.53562665
210043497,0.009478949,-0.0060947514,0.0124080675,0.52801573
210071416,0.011947809,-0.0083478,0.010963367,0.5107037
210103473,0.015674053,-0.009877872,0.009332865,0.51029766
210135435,0.020612052,-0.0057067047,0.008029532,0.50999206
210167451,0.021584734,-0.008079205,0.0061923475,0.5089312
210199410,0.020735042,-0.001634756,0.0045133326,0.50682795
210231468,0.028449133,-0.0053548594,0.003600859,0.50017524
210263444,0.03091228,-0.015531659,0.0028292267,0.49905875
210295485,0.02760832,-0.011572321,0.0027328816,0.49944425
210323483,0.032488,-0.0058796313,0.0025196567,0.4995156
210355453,0.031182963,-0.009952591,0.0028003287,0.4994911
210389035,0.026856555,-0.019989159,0.0029181032,0.49968374
210421016,0.024026519,-0.020167423,0.003294916,0.50024605
210449055,0.026629109,-0.020692652,0.0033953462,0.50020564
210481049,0.017680734,-0.020291327,0.003938038,0.4990734
210513070,0.01966957,-0.021324484,0.003947047,0.49830756
210545003,0.029917162,-0.018126966,0.0045468756,0.4983648
210577047,0.023271445,-0.021356214,0.00559838,0.49842423
210609037,0.019136649,-0.011045837,0.0072551523,0.49862853
210641079,0.024531677,-0.009848361,0.00886477,0.49914417
210673016,0.025663404,0.0048486018,0.009944699,0.49951357
210705047,0.024480795,-0.00020433265,0.011300311,0.4994899
210733013,0.023486078,-0.014828002,0.012462517,0.5006642
210765041,0.023058034,-0.01901299,0.01439864,0.50886095
210797039,0.015650224,-0.0089733945,0.015905514,0.51100284
