timestamp,magnetometer_ga[0],magnetometer_ga[1],magnetometer_ga[2]
175381531,-0.34972358,-0.043955512,0.267694
175451535,-0.33825585,-0.046759915,0.2616591
175475948,-0.34112278,-0.046759915,0.2625212
175497437,-0.34255627,-0.04956432,0.26338333
175525077,-0.3454232,-0.04255331,0.26855615
175548631,-0.34255627,-0.041151103,0.267694
175572613,-0.34255627,-0.04535771,0.26338333
175597437,-0.34685665,-0.043955512,0.2651076
175621937,-0.3396893,-0.046759915,0.2625212
175644966,-0.33538893,-0.04255331,0.2616591
175669437,-0.34255627,-0.043955512,0.2625212
175694534,-0.34972358,-0.046759915,0.26079693
175718006,-0.34829012,-0.036944494,0.26338333
175741442,-0.34685665,-0.06218415,0.26596975
175764990,-0.3568909,-0.04535771,0.267694
175786596,-0.3454232,-0.053770933,0.26424548
175814200,-0.3454232,-0.04956432,0.2625212
175837450,-0.33825585,-0.05236873,0.2625212
175860913,-0.33395544,-0.05236873,0.25907266
175882545,-0.33825585,-0.04535771,0.26079693
175906548,-0.34112278,-0.050966524,0.26079693
175930585,-0.34685665,-0.04535771,0.26424548
175954639,-0.3454232,-0.050966524,0.26424548
175981350,-0.3525905,-0.043955512,0.26424548
176006088,-0.34829012,-0.046759915,0.26596975
176028976,-0.34829012,-0.04816212,0.26424548
176050550,-0.3525905,-0.053770933,0.2651076
176079002,-0.34685665,-0.04956432,0.2625212
176102861,-0.3454232,-0.04816212,0.26683187
176125760,-0.34829012,-0.050966524,0.2616591
176147450,-0.35115704,-0.04255331,0.26424548
176170316,-0.34685665,-0.05236873,0.2625212
176193294,-0.35115704,-0.04816212,0.2651076
176216555,-0.34972358,-0.055173133,0.26424548
176240448,-0.34685665,-0.04816212,0.26424548
176266902,-0.34972358,-0.050966524,0.2625212
176289243,-0.34829012,-0.04956432,0.2599348
176314635,-0.3454232,-0.05937974,0.2651076
176336492,-0.34829012,-0.04956432,0.26338333
176362549,-0.35115704,-0.046759915,0.26079693
176385299,-0.34972358,-0.04816212,0.2625212
176410596,-0.34398973,-0.05236873,0.26338333
176432531,-0.3597578,-0.057977542,0.26079693
176454738,-0.35115704,-0.05236873,0.26596975
176477820,-0.34972358,-0.053770933,0.26338333
176498536,-0.3597578,-0.053770933,0.2651076
176522754,-0.34685665,-0.053770933,0.2616591
176546724,-0.35115704,-0.04816212,0.2651076
176568438,-0.3525905,-0.053770933,0.26079693
176592572,-0.35402396,-0.053770933,0.2625212
176616466,-0.35402396,-0.04956432,0.26424548
176642979,-0.35402396,-0.04956432,0.26079693
176666831,-0.35402396,-0.050966524,0.26424548
176690547,-0.34972358,-0.046759915,0.2625212
176711437,-0.35545743,-0.05236873,0.2616591
176734223,-0.3568909,-0.050966524,0.2651076
176755437,-0.35832435,-0.057977542,0.2625212
176778604,-0.35832435,-0.053770933,0.2616591
176802767,-0.35115704,-0.04956432,0.2616591
176826930,-0.35402396,-0.04816212,0.2625212
176850687,-0.35545743,-0.053770933,0.2616591
176875437,-0.35402396,-0.050966524,0.2599348
176896450,-0.34972358,-0.04816212,0.2616591
176920478,-0.35115704,-0.043955512,0.26079693
176943472,-0.35402396,-0.04535771,0.25907266
176965558,-0.35832435,-0.053770933,0.26079693
176986764,-0.3525905,-0.04816212,0.2616591
177007616,-0.3525905,-0.053770933,0.26079693
177029571,-0.35545743,-0.046759915,0.25907266
177051467,-0.36119127,-0.050966524,0.26338333
177073511,-0.35402396,-0.053770933,0.2616591
177097474,-0.35402396,-0.053770933,0.2616591
177121446,-0.34685665,-0.055173133,0.26079693
177145449,-0.35115704,-0.04535771,0.25907266
177167449,-0.36119127,-0.05236873,0.25907266
177189480,-0.34972358,-0.050966524,0.2625212
177211705,-0.34685665,-0.05657534,0.2616591
177233437,-0.35115704,-0.050966524,0.26079693
177255525,-0.35832435,-0.05236873,0.25821054
177276439,-0.35832435,-0.05937974,0.25907266
177297793,-0.35545743,-0.05236873,0.2599348
177320437,-0.35115704,-0.05937974,0.2573484
177343915,-0.3454232,-0.053770933,0.26079693
177367629,-0.35545743,-0.046759915,0.26079693
177389012,-0.35402396,-0.05657534,0.2616591
177412696,-0.35115704,-0.053770933,0.25907266
177436524,-0.35402396,-0.043955512,0.25907266
177460437,-0.34398973,-0.04816212,0.25907266
177484901,-0.35115704,-0.055173133,0.25821054
177509025,-0.3525905,-0.04956432,0.26079693
177532386,-0.34685665,-0.053770933,0.25907266
177552490,-0.34829012,-0.050966524,0.25821054
177575840,-0.35402396,-0.046759915,0.2616591
177599718,-0.3568909,-0.053770933,0.2573484
177623416,-0.35115704,-0.05937974,0.25907266
177644420,-0.34685665,-0.053770933,0.25907266
177665500,-0.35402396,-0.04816212,0.26079693
177689513,-0.35402396,-0.04816212,0.2573484
177713437,-0.3525905,-0.055173133,0.25907266
177735749,-0.35545743,-0.04816212,0.25821054
177759892,-0.35402396,-0.050966524,0.26079693
177781459,-0.3525905,-0.053770933,0.2573484
177805060,-0.35545743,-0.055173133,0.25907266
177828293,-0.3568909,-0.050966524,0.25907266
177851687,-0.3568909,-0.05937974,0.2599348
177873504,-0.35832435,-0.05236873,0.25648624
177897437,-0.35402396,-0.043955512,0.25821054
177921437,-0.34972358,-0.05236873,0.26079693
177943506,-0.34829012,-0.057977542,0.2573484
177967958,-0.35402396,-0.04956432,0.2573484
177989888,-0.3525905,-0.05236873,0.25821054
178014081,-0.35115704,-0.05657534,0.25821054
178038690,-0.35402396,-0.055173133,0.25648624
178063437,-0.35402396,-0.050966524,0.25648624
178087755,-0.3568909,-0.04956432,0.25648624
178111013,-0.35402396,-0.057977542,0.2573484
178133512,-0.35545743,-0.057977542,0.2573484
178155458,-0.3568909,-0.055173133,0.25821054
178179510,-0.35832435,-0.05236873,0.25821054
178206739,-0.35402396,-0.05937974,0.25907266
178230252,-0.35832435,-0.05657534,0.25648624
178251456,-0.35115704,-0.04816212,0.2573484
178274569,-0.34685665,-0.050966524,0.25648624
178297437,-0.3568909,-0.053770933,0.25821054
178321450,-0.35832435,-0.04816212,0.25907266
178344937,-0.3525905,-0.053770933,0.2573484
178367437,-0.35115704,-0.053770933,0.25821054
178391446,-0.35402396,-0.04956432,0.2573484
178413478,-0.35402396,-0.055173133,0.25821054
178435491,-0.3525905,-0.055173133,0.2573484
178459522,-0.3525905,-0.055173133,0.2573484
178482668,-0.34829012,-0.05236873,0.25907266
178505139,-0.35545743,-0.04535771,0.2573484
178525882,-0.35402396,-0.050966524,0.25821054
178547457,-0.35832435,-0.055173133,0.2573484
178570625,-0.35545743,-0.05657534,0.25821054
178592745,-0.35402396,-0.05236873,0.25907266
178616733,-0.3525905,-0.04255331,0.25821054
178640702,-0.34829012,-0.06639076,0.25648624
178665037,-0.3568909,-0.043955512,0.26079693
178686989,-0.3597578,-0.057977542,0.2616591
178709458,-0.3525905,-0.05937974,0.2625212
178733452,-0.34829012,-0.06218415,0.25648624
178755444,-0.3525905,-0.063586354,0.25907266
178779447,-0.35545743,-0.05236873,0.2599348
178802576,-0.35832435,-0.050966524,0.25907266
178824356,-0.3525905,-0.055173133,0.26079693
178846587,-0.3568909,-0.053770933,0.25907266
178869391,-0.35115704,-0.04816212,0.2616591
178891448,-0.34972358,-0.057977542,0.2573484
178913437,-0.35402396,-0.057977542,0.25907266
178935443,-0.35545743,-0.06078195,0.25907266
178959437,-0.3568909,-0.06078195,0.26079693
178985025,-0.36119127,-0.053770933,0.25907266
179009072,-0.3525905,-0.06218415,0.2616591
179032450,-0.35402396,-0.05657534,0.25907266
179055724,-0.35115704,-0.057977542,0.25821054
179080719,-0.3525905,-0.06218415,0.2599348
179104922,-0.3597578,-0.063586354,0.2599348
179128489,-0.34972358,-0.069195166,0.2599348
179152482,-0.36262473,-0.055173133,0.2573484
179176303,-0.36119127,-0.05236873,0.25907266
179200188,-0.3568909,-0.050966524,0.25907266
179223466,-0.35832435,-0.057977542,0.25907266
179247323,-0.35832435,-0.05937974,0.2599348
179268488,-0.35545743,-0.04535771,0.26079693
179291437,-0.35402396,-0.063586354,0.25907266
179314554,-0.35832435,-0.057977542,0.25821054
179338686,-0.35545743,-0.04956432,0.25562412
179362614,-0.3454232,-0.063586354,0.2599348
179384437,-0.35832435,-0.05657534,0.26079693
179406961,-0.3454232,-0.046759915,0.25907266
179430912,-0.3454232,-0.06218415,0.25907266
179455870,-0.34829012,-0.04956432,0.25821054
179479399,-0.34398973,-0.053770933,0.26079693
179500437,-0.35402396,-0.05236873,0.2599348
179521448,-0.34685665,-0.050966524,0.25821054
179543499,-0.3454232,-0.063586354,0.26424548
179567446,-0.35115704,-0.046759915,0.2625212
179591862,-0.34685665,-0.06498856,0.2599348
179615838,-0.35832435,-0.06078195,0.25907266
179639588,-0.35545743,-0.055173133,0.2616591
179663472,-0.35402396,-0.06639076,0.26079693
179688177,-0.35402396,-0.06498856,0.26079693
179711897,-0.34829012,-0.057977542,0.2616591
179735597,-0.3525905,-0.06779296,0.26079693
179759521,-0.3597578,-0.06218415,0.2616591
179783896,-0.35115704,-0.05937974,0.2599348
179809012,-0.35832435,-0.05937974,0.25907266
179832194,-0.36692512,-0.057977542,0.2599348
179854562,-0.3597578,-0.05937974,0.26338333
179877440,-0.34829012,-0.06779296,0.26424548
179901437,-0.34972358,-0.05657534,0.26424548
179925290,-0.34685665,-0.06639076,0.2625212
179946971,-0.3525905,-0.05937974,0.2625212
179970726,-0.35115704,-0.06498856,0.26079693
179997136,-0.35402396,-0.06639076,0.26338333
180021434,-0.3454232,-0.06639076,0.26424548
180043051,-0.36119127,-0.06498856,0.26079693
180069464,-0.3525905,-0.06078195,0.2616591
180093451,-0.35545743,-0.07199957,0.26338333
180117441,-0.35115704,-0.06779296,0.26424548
180141371,-0.34972358,-0.06218415,0.26338333
180165016,-0.35402396,-0.063586354,0.2616591
180189444,-0.35832435,-0.063586354,0.2616591
180213015,-0.34972358,-0.06639076,0.2616591
180234972,-0.35115704,-0.06078195,0.2616591
180258552,-0.3454232,-0.06639076,0.2625212
180282584,-0.3568909,-0.06498856,0.2625212
180309416,-0.35402396,-0.06218415,0.2599348
180334062,-0.3525905,-0.06639076,0.2625212
180357001,-0.34972358,-0.06498856,0.26338333
180381103,-0.35115704,-0.06218415,0.26079693
180404703,-0.3454232,-0.07059737,0.26338333
180429446,-0.35545743,-0.06779296,0.2616591
180452768,-0.34829012,-0.057977542,0.26338333
180476726,-0.34829012,-0.05657534,0.26338333
180500755,-0.3525905,-0.06779296,0.2625212
180523003,-0.3525905,-0.07901059,0.26338333
180546635,-0.35402396,-0.07480398,0.26941827
180570530,-0.3568909,-0.08742381,0.27114254
180596718,-0.35545743,-0.07480398,0.267694
180618956,-0.35545743,-0.069195166,0.27028042
180642601,-0.34829012,-0.07480398,0.26855615
180666640,-0.34972358,-0.084619395,0.26683187
180693301,-0.34685665,-0.08181499,0.267694
180719389,-0.36119127,-0.084619395,0.267694
180743020,-0.34398973,-0.08041279,0.26941827
180765529,-0.3454232,-0.07340177,0.26941827
180789767,-0.34972358,-0.09443483,0.26683187
180813200,-0.34829012,-0.076206185,0.26941827
180835445,-0.3454232,-0.07340177,0.26855615
180858567,-0.3568909,-0.09583703,0.26941827
180883505,-0.34829012,-0.07059737,0.27114254
180907617,-0.34398973,-0.09864143,0.26596975
180930744,-0.34398973,-0.077608384,0.267694
180952437,-0.34685665,-0.084619395,0.27028042
180974623,-0.34398973,-0.07480398,0.26683187
180997423,-0.33252198,-0.076206185,0.267694
181020496,-0.34112278,-0.091630414,0.26855615
181043448,-0.34685665,-0.08041279,0.26941827
181063481,-0.3368224,-0.07901059,0.26683187
181085769,-0.3396893,-0.077608384,0.267694
181107437,-0.3396893,-0.07901059,0.26941827
181131685,-0.34972358,-0.0860216,0.267694
181155637,-0.3310885,-0.07480398,0.26941827
181178925,-0.3310885,-0.06498856,0.267694
181203441,-0.34112278,-0.07901059,0.26855615
181224439,-0.3396893,-0.077608384,0.27028042
181248449,-0.33252198,-0.076206185,0.26596975
181272512,-0.3310885,-0.069195166,0.267694
181296595,-0.3396893,-0.08041279,0.26855615
181636804,-0.34112278,-0.07059737,0.2651076
181660576,-0.3454232,-0.07059737,0.26683187
181685446,-0.3396893,-0.06639076,0.26855615
181709488,-0.34829012,-0.055173133,0.26596975
181733716,-0.35115704,-0.05937974,0.2651076
181756650,-0.3454232,-0.07199957,0.26683187
181781185,-0.3368224,-0.06498856,0.26424548
181805837,-0.3525905,-0.077608384,0.26424548
181829070,-0.35115704,-0.08041279,0.26596975
181852507,-0.34255627,-0.07199957,0.2651076
181876441,-0.34685665,-0.0860216,0.26424548
181901026,-0.34112278,-0.07340177,0.2651076
181925029,-0.35115704,-0.069195166,0.2625212
181948450,-0.3368224,-0.08742381,0.26338333
181969449,-0.35545743,-0.076206185,0.26424548
181998194,-0.34972358,-0.07901059,0.26424548
182021826,-0.34398973,-0.083217196,0.2616591
182044566,-0.34972358,-0.06639076,0.2651076
182068603,-0.3568909,-0.069195166,0.26683187
182093780,-0.3525905,-0.08041279,0.26683187
182117859,-0.35545743,-0.083217196,0.2651076
182140579,-0.35115704,-0.07480398,0.2651076
182164498,-0.34972358,-0.07199957,0.26683187
182189542,-0.34255627,-0.076206185,0.2651076
182214096,-0.35402396,-0.076206185,0.27028042
182236670,-0.34685665,-0.08181499,0.27028042
182260702,-0.33825585,-0.08041279,0.27114254
182285571,-0.35115704,-0.091630414,0.27286682
182309085,-0.34255627,-0.07901059,0.26941827
182332537,-0.34685665,-0.07480398,0.27372894
182356556,-0.34685665,-0.08181499,0.27028042
182381456,-0.34972358,-0.0860216,0.27200466
182404464,-0.34255627,-0.084619395,0.27372894
182428516,-0.3568909,-0.07480398,0.27114254
182452490,-0.3454232,-0.07901059,0.27028042
182477026,-0.34112278,-0.08041279,0.27028042
182500325,-0.33825585,-0.077608384,0.27114254
182523908,-0.3454232,-0.07340177,0.27286682
182545438,-0.34398973,-0.06779296,0.27114254
182568740,-0.34398973,-0.07059737,0.27114254
182592439,-0.34398973,-0.077608384,0.27114254
182614548,-0.3454232,-0.07480398,0.26941827
182639318,-0.34972358,-0.083217196,0.27028042
182663039,-0.3396893,-0.07199957,0.26855615
182685986,-0.34829012,-0.083217196,0.26941827
182707448,-0.3454232,-0.091630414,0.26855615
182731442,-0.35402396,-0.084619395,0.26596975
182755437,-0.34972358,-0.07480398,0.26596975
182782180,-0.35115704,-0.07901059,0.2651076
182805763,-0.35402396,-0.07199957,0.26596975
182831325,-0.35402396,-0.08041279,0.2651076
182854692,-0.3597578,-0.084619395,0.2651076
182878122,-0.35402396,-0.06779296,0.267694
182902559,-0.34255627,-0.07340177,0.26596975
182927473,-0.3525905,-0.07480398,0.26338333
182951006,-0.35545743,-0.084619395,0.2625212
182973820,-0.3568909,-0.076206185,0.26338333
182997853,-0.35832435,-0.07901059,0.26424548
183022684,-0.3525905,-0.091630414,0.2616591
183047023,-0.34829012,-0.08742381,0.2573484
183069524,-0.35115704,-0.08181499,0.26079693
183094530,-0.36119127,-0.08041279,0.25821054
183118720,-0.372659,-0.09864143,0.25907266
183142051,-0.3597578,-0.08742381,0.25562412
183165769,-0.36692512,-0.104250245,0.25821054
183189514,-0.36119127,-0.08882601,0.25821054
183215156,-0.35832435,-0.09303261,0.25821054
183238678,-0.36549166,-0.0860216,0.25821054
183262652,-0.36549166,-0.09583703,0.2599348
183286681,-0.35402396,-0.083217196,0.25648624
183310667,-0.3640582,-0.091630414,0.25821054
183334752,-0.3640582,-0.091630414,0.2573484
183357494,-0.35402396,-0.09022821,0.25907266
183382537,-0.36119127,-0.09864143,0.2599348
183406671,-0.35115704,-0.076206185,0.2599348
183430746,-0.35402396,-0.076206185,0.2651076
183453821,-0.3396893,-0.084619395,0.2651076
183475437,-0.33252198,-0.06639076,0.26683187
183498995,-0.33395544,-0.055173133,0.267694
183522653,-0.32248774,-0.06779296,0.26596975
183544450,-0.31962082,-0.057977542,0.26683187
183570776,-0.31962082,-0.055173133,0.267694
183594890,-0.32248774,-0.06218415,0.26941827
183618783,-0.31962082,-0.06639076,0.27200466
183640500,-0.30958658,-0.04816212,0.27114254
183664518,-0.3052862,-0.04816212,0.2745911
183690606,-0.29811883,-0.041151103,0.2754532
183714969,-0.2952519,-0.03133568,0.27717748
183738623,-0.2895181,-0.018715855,0.27631533
183760437,-0.2809173,-0.014509247,0.2780396
183784552,-0.292385,-0.018715855,0.2780396
183808489,-0.2880846,-0.017313654,0.2797639
183832501,-0.27231652,-0.015911449,0.27890176
183856500,-0.2766169,-0.022922464,0.2780396
183880515,-0.2766169,-0.021520263,0.28148815
183907690,-0.26514918,0.00231719,0.2823503
183931040,-0.27088305,-0.011704841,0.28407457
183955179,-0.2565484,-0.0046938253,0.28407457
183979126,-0.26514918,-0.0032916223,0.28062603
184000541,-0.26514918,-0.0018894193,0.28407457
184024493,-0.27231652,0.003719393,0.28321242
184047019,-0.26944956,-0.017313654,0.28148815
184069495,-0.26944956,-0.011704841,0.28062603
184090730,-0.29095155,-0.022922464,0.28148815
184114813,-0.29668537,-0.03133568,0.28148815
184138992,-0.29381847,-0.0383467,0.2780396
184160449,-0.30241928,-0.0383467,0.2797639
184184447,-0.29955235,-0.0383467,0.27372894
184208500,-0.3124535,-0.04956432,0.27200466
184229786,-0.3052862,-0.043955512,0.26941827
184251876,-0.32535467,-0.06498856,0.26683187
184274648,-0.32105428,-0.077608384,0.2651076
184298961,-0.32965505,-0.07480398,0.27028042
184322985,-0.33825585,-0.07480398,0.26596975
184347452,-0.32965505,-0.09022821,0.26683187
184370748,-0.34829012,-0.10144583,0.26079693
184396187,-0.3454232,-0.10705465,0.26424548
184419901,-0.34685665,-0.11827227,0.26338333
184443896,-0.34112278,-0.119674474,0.27114254
184467685,-0.33252198,-0.10144583,0.26596975
184491368,-0.3525905,-0.111261256,0.26683187
184514987,-0.34398973,-0.10284804,0.267694
184539070,-0.3454232,-0.11266346,0.26941827
184563074,-0.35402396,-0.11546787,0.2651076
184583522,-0.35115704,-0.11266346,0.267694
184608587,-0.3597578,-0.11687007,0.26941827
184635742,-0.36119127,-0.1308921,0.27028042
184659441,-0.36835858,-0.12247889,0.27114254
184680449,-0.36262473,-0.12528329,0.27028042
184703158,-0.35832435,-0.12808768,0.27286682
184725500,-0.36692512,-0.13930532,0.27372894
184749486,-0.36979204,-0.11546787,0.27372894
184773009,-0.36549166,-0.11687007,0.2754532
184796257,-0.36979204,-0.12808768,0.2780396
184817437,-0.36692512,-0.12107668,0.2780396
184840437,-0.37695938,-0.13229431,0.2797639
184863461,-0.3798263,-0.1294899,0.2797639
184885510,-0.372659,-0.11827227,0.2797639
184909418,-0.3798263,-0.11687007,0.27717748
184933000,-0.37409246,-0.12107668,0.2754532
184957070,-0.3884271,-0.13229431,0.27372894
184980441,-0.38699365,-0.119674474,0.27890176
185004749,-0.37695938,-0.111261256,0.2754532
185029064,-0.38699365,-0.11827227,0.27631533
185053050,-0.38269323,-0.11687007,0.27717748
185076243,-0.3798263,-0.11266346,0.2780396
185101526,-0.36692512,-0.09864143,0.2797639
185124559,-0.36835858,-0.077608384,0.2797639
185148570,-0.3568909,-0.08181499,0.28407457
185173437,-0.3525905,-0.06498856,0.28148815
185197462,-0.35832435,-0.05937974,0.28148815
185220454,-0.3568909,-0.05937974,0.28062603
185245000,-0.34829012,-0.04956432,0.27890176
185268468,-0.34685665,-0.055173133,0.27717748
185293184,-0.3454232,-0.02993348,0.27372894
185316658,-0.3396893,-0.034140088,0.2745911
185340568,-0.33252198,-0.03273789,0.27372894
185365438,-0.34255627,-0.024324669,0.27028042
185389539,-0.3454232,-0.028531278,0.26941827
185413097,-0.34398973,-0.02993348,0.26596975
185437090,-0.3310885,-0.010302638,0.26683187
185927009,-0.2809173,-0.08181499,0.21855235
185950340,-0.27948382,-0.07480398,0.22458729
186485531,-0.34112278,-0.097239226,0.24527851
186507678,-0.3525905,-0.09583703,0.24182998
186530036,-0.34829012,-0.09583703,0.24096784
186555402,-0.35832435,-0.083217196,0.24182998
186579484,-0.36549166,-0.10144583,0.23838145
186599437,-0.36979204,-0.09443483,0.24355425
186622711,-0.36119127,-0.11546787,0.24010572
186644462,-0.36119127,-0.111261256,0.23838145
186667918,-0.35545743,-0.105652444,0.24182998
186689463,-0.36835858,-0.091630414,0.24441639
186712477,-0.3568909,-0.091630414,0.24355425
186735037,-0.35115704,-0.0860216,0.24872705
186755875,-0.35402396,-0.10004363,0.25045133
186779154,-0.3454232,-0.083217196,0.25217557
186803576,-0.3368224,-0.077608384,0.25217557
186828159,-0.31818736,-0.055173133,0.25648624
186851914,-0.31962082,-0.05937974,0.2573484
186873516,-0.3282216,-0.06498856,0.25907266
186899460,-0.32678813,-0.050966524,0.26079693
186923860,-0.30815312,-0.050966524,0.2651076
186947971,-0.30671966,-0.041151103,0.2616591
186971444,-0.30385274,-0.018715855,0.26424548
186995516,-0.3167539,-0.034140088,0.26683187
187020277,-0.31532043,-0.0383467,0.2651076
187043959,-0.31532043,-0.03133568,0.267694
187065513,-0.32678813,-0.039748903,0.26855615
187091134,-0.3368224,-0.03554229,0.26683187
187115784,-0.34398973,-0.041151103,0.26683187
187139781,-0.34829012,-0.034140088,0.26855615
187161520,-0.35115704,-0.034140088,0.27028042
187184447,-0.36262473,-0.039748903,0.26941827
187207458,-0.35832435,-0.027129073,0.26941827
187231023,-0.3568909,-0.03554229,0.267694
187254507,-0.35832435,-0.022922464,0.26683187
187275890,-0.3525905,-0.015911449,0.26683187
187297437,-0.35545743,-0.024324669,0.26683187
187320438,-0.36262473,-0.020118058,0.26683187
187343023,-0.35832435,-0.013107044,0.26338333
187363865,-0.33825585,-0.0018894193,0.26338333
187385437,-0.3454232,-0.013107044,0.25303772
187408711,-0.33825585,-0.0046938253,0.25217557
187432191,-0.33252198,0.0009149868,0.25045133
187453944,-0.32535467,-0.0018894193,0.25131345
187477455,-0.31818736,-0.013107044,0.25131345
187501855,-0.31818736,-0.0046938253,0.24958917
187525853,-0.31818736,-0.0032916223,0.24786492
187549375,-0.31532043,-0.0018894193,0.24527851
187573481,-0.3310885,0.02054583,0.24269211
187597835,-0.32248774,0.027556844,0.24182998
187621839,-0.31532043,0.026154643,0.24355425
187646271,-0.31532043,0.02054583,0.25045133
187669545,-0.3167539,0.013534814,0.24786492
187694070,-0.3167539,0.003719393,0.25217557
187717918,-0.30958658,0.014937017,0.25045133
187741504,-0.30958658,0.007926002,0.24786492
187764930,-0.32535467,-0.010302638,0.24872705
187789461,-0.31962082,0.007926002,0.24786492
187813886,-0.32535467,0.01633922,0.24527851
187837878,-0.33252198,0.031763453,0.24872705
187861336,-0.3167539,0.035970062,0.24614064
187885208,-0.3124535,0.019143626,0.24614064
187909888,-0.31962082,0.013534814,0.24269211
187934332,-0.3310885,0.037372265,0.24441639
187957502,-0.3239212,0.03036125,0.24182998
187981988,-0.3167539,0.037372265,0.24182998
188005933,-0.32965505,0.03877447,0.24355425
188029893,-0.31818736,0.028959049,0.24269211
188053315,-0.32678813,0.03036125,0.24182998
188077272,-0.31818736,0.026154643,0.24355425
188101912,-0.32678813,0.035970062,0.24269211
188125614,-0.31818736,0.035970062,0.24010572
188149223,-0.32248774,0.03877447,0.24096784
188170643,-0.3239212,0.049992092,0.23665717
188194651,-0.32678813,0.0527965,0.23838145
188218629,-0.31388697,0.03877447,0.23665717
188245508,-0.32535467,0.03456786,0.23924358
188269529,-0.31818736,0.037372265,0.23838145
188294052,-0.3239212,0.037372265,0.23751931
188315942,-0.32248774,0.045785483,0.23751931
188339531,-0.32678813,0.04017667,0.23493288
188363025,-0.3124535,0.037372265,0.23751931
188387051,-0.31962082,0.049992092,0.23751931
188411471,-0.32678813,0.049992092,0.23493288
188434675,-0.32105428,0.058405314,0.23234649
188455523,-0.3239212,0.0527965,0.23751931
188478518,-0.3282216,0.041578874,0.23751931
188501481,-0.31818736,0.044383284,0.23493288
188522612,-0.32535467,0.047187686,0.23665717
188546945,-0.31962082,0.03877447,0.23579505
188571144,-0.31532043,0.044383284,0.23924358
188595497,-0.32105428,0.047187686,0.23493288
188619487,-0.32105428,0.055600904,0.23751931
188643350,-0.31818736,0.047187686,0.23924358
188664457,-0.3282216,0.044383284,0.23493288
188688504,-0.3167539,0.044383284,0.23579505
188712452,-0.32535467,0.049992092,0.23579505
188739610,-0.3239212,0.045785483,0.23751931
188764221,-0.31818736,0.048589893,0.23751931
188787500,-0.3239212,0.044383284,0.23579505
188811133,-0.31532043,0.045785483,0.23579505
188834979,-0.32678813,0.047187686,0.23751931
188858989,-0.31818736,0.045785483,0.23407075
188882537,-0.32248774,0.048589893,0.23493288
188907154,-0.33538893,0.047187686,0.23751931
188931497,-0.3167539,0.055600904,0.23579505
188955528,-0.31818736,0.048589893,0.23579505
188978971,-0.3167539,0.044383284,0.23665717
189003896,-0.3239212,0.047187686,0.23579505
189027458,-0.33252198,0.049992092,0.23751931
189051451,-0.31532043,0.047187686,0.23751931
189075439,-0.3239212,0.044383284,0.23751931
189099555,-0.32535467,0.0527965,0.23407075
189123099,-0.3239212,0.051394295,0.23751931
189146953,-0.3282216,0.048589893,0.23665717
189170583,-0.31818736,0.045785483,0.23579505
189197090,-0.3239212,0.048589893,0.23665717
189221175,-0.3124535,0.045785483,0.23751931
189244994,-0.32105428,0.045785483,0.23665717
189268585,-0.32535467,0.047187686,0.23665717
189293504,-0.32535467,0.051394295,0.23751931
189317040,-0.32965505,0.048589893,0.23751931
189341005,-0.31818736,0.041578874,0.23751931
189365126,-0.31962082,0.049992092,0.23838145
189390191,-0.33252198,0.047187686,0.23665717
189413802,-0.31818736,0.055600904,0.23751931
189437087,-0.3282216,0.049992092,0.23751931
189460440,-0.31818736,0.04298108,0.23751931
189481535,-0.32535467,0.051394295,0.23751931
189505481,-0.3239212,0.044383284,0.23751931
189533080,-0.31102005,0.048589893,0.23665717
189556691,-0.32535467,0.048589893,0.23924358
189581768,-0.31818736,0.041578874,0.23751931
189605156,-0.3239212,0.0527965,0.23924358
189629127,-0.32535467,0.045785483,0.23838145
189652630,-0.31818736,0.049992092,0.24182998
189677474,-0.32678813,0.044383284,0.24010572
189701068,-0.3239212,0.0527965,0.23838145
189725215,-0.32678813,0.048589893,0.23751931
189749098,-0.32965505,0.048589893,0.23838145
189773498,-0.31962082,0.0541987,0.23924358
189797035,-0.32678813,0.048589893,0.23924358
189821056,-0.32248774,0.051394295,0.24010572
189843948,-0.32248774,0.051394295,0.24096784
189869282,-0.3239212,0.049992092,0.24096784
189892568,-0.31818736,0.049992092,0.23838145
189916549,-0.32535467,0.049992092,0.24010572
189939946,-0.32535467,0.049992092,0.23751931
189965503,-0.3239212,0.048589893,0.24269211
189989092,-0.32535467,0.041578874,0.24096784
190013497,-0.32535467,0.048589893,0.24182998
190036501,-0.32535467,0.045785483,0.24010572
190061342,-0.32105428,0.041578874,0.24182998
190085464,-0.32535467,0.051394295,0.24010572
190110062,-0.3282216,0.04298108,0.24010572
190131437,-0.3167539,0.051394295,0.24096784
190154485,-0.32965505,0.045785483,0.24096784
190176767,-0.31962082,0.048589893,0.24096784
190198568,-0.3167539,0.048589893,0.24096784
190223016,-0.32678813,0.0541987,0.24269211
190245996,-0.32248774,0.047187686,0.24269211
190270596,-0.32535467,0.049992092,0.24010572
190294056,-0.3282216,0.049992092,0.24096784
190318097,-0.31818736,0.051394295,0.24010572
190342235,-0.32248774,0.055600904,0.23924358
190363489,-0.3239212,0.047187686,0.23924358
190385565,-0.32248774,0.0527965,0.24010572
190408708,-0.32248774,0.045785483,0.24182998
190430983,-0.32678813,0.044383284,0.24182998
190454616,-0.3239212,0.047187686,0.24182998
190478691,-0.31962082,0.055600904,0.24096784
190501850,-0.3239212,0.049992092,0.24355425
190525966,-0.31962082,0.045785483,0.24269211
190551490,-0.32678813,0.048589893,0.24269211
190574773,-0.3239212,0.048589893,0.24096784
190598706,-0.32678813,0.051394295,0.24182998
190622380,-0.31962082,0.055600904,0.24269211
190646542,-0.32248774,0.045785483,0.24096784
190670610,-0.32965505,0.051394295,0.24269211
190694612,-0.31818736,0.0527965,0.24010572
190718719,-0.3167539,0.0541987,0.23924358
190742634,-0.32105428,0.048589893,0.24269211
190766966,-0.32678813,0.055600904,0.24355425
190790227,-0.3239212,0.049992092,0.24355425
190811448,-0.32105428,0.047187686,0.23838145
190835456,-0.32248774,0.044383284,0.24182998
190858608,-0.32678813,0.044383284,0.24010572
190880742,-0.32535467,0.048589893,0.23924358
190904719,-0.32535467,0.048589893,0.24096784
190925851,-0.31962082,0.047187686,0.24010572
190950992,-0.32105428,0.051394295,0.24182998
190974988,-0.32535467,0.044383284,0.24182998
190996533,-0.32535467,0.051394295,0.24096784
191019920,-0.32248774,0.0527965,0.24182998
191042599,-0.32535467,0.048589893,0.24182998
191065516,-0.32248774,0.047187686,0.24269211
191088179,-0.3282216,0.051394295,0.24182998
191109505,-0.32678813,0.048589893,0.24182998
191135951,-0.31962082,0.049992092,0.24010572
191159560,-0.31962082,0.04298108,0.23924358
191183935,-0.31962082,0.048589893,0.24010572
191207671,-0.3239212,0.05700311,0.24096784
191231863,-0.32248774,0.041578874,0.24010572
191255440,-0.3310885,0.044383284,0.24269211
191280257,-0.32535467,0.044383284,0.24182998
191303814,-0.32105428,0.045785483,0.24269211
191328307,-0.3239212,0.047187686,0.24441639
191351505,-0.32248774,0.03877447,0.24269211
191373965,-0.32535467,0.049992092,0.24096784
191399764,-0.3239212,0.05700311,0.24355425
191424301,-0.32248774,0.048589893,0.24269211
191447151,-0.3239212,0.048589893,0.24010572
191468460,-0.32248774,0.055600904,0.24269211
191490548,-0.32678813,0.059807513,0.24096784
191513517,-0.31818736,0.03877447,0.24355425
191535929,-0.3124535,0.048589893,0.23924358
191560355,-0.3167539,0.045785483,0.24355425
191583967,-0.32105428,0.051394295,0.24441639
191607463,-0.32105428,0.0527965,0.24441639
191632211,-0.3239212,0.045785483,0.24096784
191655656,-0.32105428,0.049992092,0.24182998
191680227,-0.32965505,0.04298108,0.24182998
191703577,-0.31962082,0.045785483,0.24182998
191725502,-0.32105428,0.047187686,0.24269211
191751883,-0.31818736,0.047187686,0.24269211
191776255,-0.31818736,0.047187686,0.24527851
191799443,-0.31962082,0.047187686,0.24527851
191823680,-0.32248774,0.041578874,0.24527851
191847967,-0.31962082,0.045785483,0.24182998
191872246,-0.32248774,0.047187686,0.24355425
191896149,-0.32248774,0.047187686,0.24096784
191918060,-0.31962082,0.055600904,0.24355425
191941338,-0.32678813,0.045785483,0.24269211
191965362,-0.3282216,0.055600904,0.24355425
191989234,-0.31962082,0.044383284,0.24182998
192011019,-0.31962082,0.035970062,0.24527851
192037493,-0.32248774,0.055600904,0.24269211
192061442,-0.31962082,0.041578874,0.24182998
192085439,-0.31962082,0.045785483,0.24355425
192109394,-0.32535467,0.049992092,0.24182998
192133075,-0.32248774,0.06261192,0.24182998
192157330,-0.32248774,0.035970062,0.24527851
192181346,-0.32105428,0.045785483,0.24527851
192205552,-0.31962082,0.058405314,0.24182998
192228918,-0.32105428,0.04017667,0.24441639
192252705,-0.32105428,0.044383284,0.24355425
192276945,-0.3310885,0.03877447,0.24614064
192298972,-0.32965505,0.03456786,0.24355425
192322667,-0.31962082,0.059807513,0.24269211
192346547,-0.32248774,0.049992092,0.24182998
192372871,-0.3310885,0.0527965,0.24527851
192397244,-0.3124535,0.045785483,0.24269211
192421008,-0.3167539,0.0541987,0.24355425
192445295,-0.32248774,0.0541987,0.24182998
192469401,-0.32535467,0.04298108,0.24269211
192493949,-0.3239212,0.055600904,0.24441639
192517942,-0.32248774,0.04017667,0.24441639
192541440,-0.32105428,0.055600904,0.24269211
192565105,-0.3167539,0.059807513,0.24355425
192586990,-0.3239212,0.049992092,0.24527851
192614021,-0.31388697,0.048589893,0.24182998
192638153,-0.30958658,0.044383284,0.24096784
192661549,-0.32965505,0.059807513,0.24872705
192685493,-0.33395544,0.05700311,0.24441639
192709257,-0.32105428,0.051394295,0.24355425
192732954,-0.31532043,0.047187686,0.24441639
192757437,-0.31388697,0.045785483,0.24355425
192779115,-0.3167539,0.06120972,0.24096784
192802643,-0.32535467,0.058405314,0.24269211
192824449,-0.31818736,0.058405314,0.24355425
192847666,-0.32535467,0.06120972,0.24269211
192869901,-0.32248774,0.06261192,0.24441639
192892437,-0.32248774,0.068220735,0.24614064
192916491,-0.31388697,0.05700311,0.24527851
192939352,-0.31962082,0.0541987,0.24441639
192963367,-0.3167539,0.0541987,0.24441639
192986761,-0.3239212,0.0541987,0.24355425
193011485,-0.31962082,0.048589893,0.24527851
193034988,-0.3282216,0.0527965,0.24527851
193059483,-0.3167539,0.051394295,0.24441639
193080530,-0.3239212,0.048589893,0.24441639
193106566,-0.31962082,0.048589893,0.24614064
193130924,-0.31818736,0.058405314,0.24441639
193152443,-0.32678813,0.048589893,0.24355425
193179084,-0.3124535,0.0541987,0.24786492
193200489,-0.32248774,0.047187686,0.24441639
193223600,-0.32248774,0.0541987,0.24527851
193246575,-0.32105428,0.048589893,0.24527851
193269558,-0.3167539,0.047187686,0.24614064
193293542,-0.32678813,0.055600904,0.24700278
193316481,-0.32248774,0.048589893,0.24700278
193338591,-0.32105428,0.049992092,0.24700278
193360437,-0.31388697,0.048589893,0.24441639
193386280,-0.3167539,0.049992092,0.24958917
193411531,-0.31532043,0.049992092,0.24786492
193435501,-0.32535467,0.051394295,0.25045133
193459531,-0.32105428,0.044383284,0.24700278
193483471,-0.3239212,0.049992092,0.24786492
193508324,-0.3124535,0.0541987,0.24958917
193531451,-0.32678813,0.045785483,0.24786492
193552462,-0.31818736,0.049992092,0.25045133
193574519,-0.31102005,0.03877447,0.24958917
193597760,-0.31532043,0.03877447,0.25217557
193621513,-0.30815312,0.0541987,0.25389984
193644295,-0.31102005,0.04298108,0.25562412
193667864,-0.30241928,0.059807513,0.25648624
193691723,-0.3052862,0.037372265,0.25648624
193716437,-0.3052862,0.048589893,0.25648624
193740742,-0.3009858,0.05700311,0.25389984
193765021,-0.29668537,0.045785483,0.25389984
193788320,-0.30385274,0.04298108,0.25821054
193812184,-0.29381847,0.03877447,0.2599348
193837866,-0.292385,0.03877447,0.2599348
193861335,-0.29668537,0.048589893,0.25907266
193884581,-0.29381847,0.04298108,0.25562412
193909211,-0.30385274,0.035970062,0.25648624
193933531,-0.29095155,0.0541987,0.25907266
193957035,-0.2952519,0.048589893,0.25821054
193980449,-0.3124535,0.051394295,0.26079693
194004546,-0.2895181,0.047187686,0.25907266
194029494,-0.29811883,0.051394295,0.25907266
194053136,-0.30671966,0.037372265,0.2573484
194076441,-0.30241928,0.04298108,0.25821054
194097448,-0.3009858,0.037372265,0.25821054
194121437,-0.3052862,0.03877447,0.2573484
194143870,-0.2952519,0.049992092,0.25648624
194165438,-0.31962082,0.03036125,0.25821054
194189554,-0.31102005,0.031763453,0.25648624
194212949,-0.3052862,0.047187686,0.26079693
194236298,-0.3124535,0.03456786,0.25821054
194256437,-0.31102005,0.027556844,0.2573484
194279443,-0.3052862,0.02054583,0.25389984
194301437,-0.30241928,0.031763453,0.25648624
194325438,-0.30671966,0.031763453,0.25562412
194349463,-0.29955235,0.037372265,0.2573484
194373064,-0.31532043,0.031763453,0.25907266
194396437,-0.31102005,0.028959049,0.2573484
194420535,-0.32248774,0.03036125,0.2573484
194445005,-0.31102005,0.03877447,0.25562412
194468773,-0.32105428,0.026154643,0.25907266
194491875,-0.30671966,0.037372265,0.25648624
194517437,-0.30815312,0.047187686,0.25907266
194541470,-0.31102005,0.045785483,0.2573484
194565971,-0.31818736,0.035970062,0.2573484
194590033,-0.31962082,0.021948034,0.2573484
194614512,-0.3239212,0.026154643,0.25821054
194638668,-0.31818736,0.024752438,0.25907266
194661243,-0.29811883,0.049992092,0.2599348
194682222,-0.30958658,0.04017667,0.2599348
194703013,-0.3167539,0.03036125,0.26079693
194730166,-0.3009858,0.051394295,0.2599348
194755147,-0.29811883,0.047187686,0.2651076
194778509,-0.29381847,0.06120972,0.2616591
194801888,-0.29381847,0.045785483,0.2599348
194825925,-0.292385,0.058405314,0.26338333
194851127,-0.29955235,0.0527965,0.26079693
194874581,-0.2895181,0.06261192,0.26424548
194898190,-0.2952519,0.049992092,0.2651076
194919437,-0.29095155,0.0541987,0.2651076
194947122,-0.29381847,0.07102514,0.2651076
194970736,-0.29668537,0.058405314,0.26424548
194995439,-0.2895181,0.06261192,0.26683187
195019108,-0.28235075,0.069622934,0.26596975
195042714,-0.28665113,0.068220735,0.2625212
195066543,-0.29955235,0.07382955,0.2651076
195089831,-0.30241928,0.07102514,0.26424548
195110651,-0.3009858,0.06541633,0.26596975
195132769,-0.30385274,0.0527965,0.26338333
195153475,-0.2952519,0.06261192,0.26596975
195175540,-0.30385274,0.041578874,0.26338333
195197471,-0.30241928,0.055600904,0.2651076
195220755,-0.3009858,0.06401412,0.26424548
195245287,-0.30385274,0.058405314,0.26683187
195267066,-0.2952519,0.06681853,0.26596975
195290649,-0.29381847,0.069622934,0.26683187
195313919,-0.29381847,0.07382955,0.27028042
195335437,-0.2952519,0.06401412,0.267694
195359448,-0.29955235,0.075231746,0.26855615
195386727,-0.28521767,0.07663395,0.26941827
195409868,-0.29095155,0.06541633,0.27028042
195435922,-0.2880846,0.083644964,0.27114254
195459531,-0.2952519,0.07102514,0.27028042
195482708,-0.29095155,0.07943836,0.27114254
195507437,-0.292385,0.075231746,0.27028042
195531475,-0.292385,0.07102514,0.27028042
195556259,-0.3009858,0.07382955,0.27200466
195579127,-0.31388697,0.05700311,0.2754532
195603440,-0.3052862,0.0541987,0.27114254
195627735,-0.30958658,0.07242734,0.27028042
195651915,-0.32248774,0.06120972,0.27200466
195675448,-0.32965505,0.03877447,0.26596975
195699445,-0.3396893,0.037372265,0.26596975
195723744,-0.35115704,0.041578874,0.26424548
195747420,-0.3597578,0.01633922,0.26079693
195770718,-0.36262473,0.021948034,0.2625212
195794352,-0.36119127,0.010730408,0.2616591
195815437,-0.36119127,0.007926002,0.25907266
195837899,-0.37409246,0.009328205,0.25821054
195860466,-0.3798263,-0.0018894193,0.25648624
195884339,-0.38556015,-0.011704841,0.25648624
195907170,-0.39129403,-0.0074982313,0.25131345
195930620,-0.39702788,-0.020118058,0.25217557
195952529,-0.39702788,-0.017313654,0.25389984
195974558,-0.3998948,-0.018715855,0.24786492
195996437,-0.4070621,-0.034140088,0.25045133
196021496,-0.3998948,-0.020118058,0.24786492
196043118,-0.4070621,-0.03554229,0.24958917
196067810,-0.4041952,-0.039748903,0.24786492
196090555,-0.39559442,-0.021520263,0.24527851
196116441,-0.40132827,-0.03133568,0.24872705
196140450,-0.39702788,-0.015911449,0.24614064
196163626,-0.3998948,-0.017313654,0.24786492
196186643,-0.40276173,-0.021520263,0.25045133
196211447,-0.39559442,-0.020118058,0.24872705
196232451,-0.38269323,0.003719393,0.25389984
196259895,-0.38699365,-0.0046938253,0.25562412
196282965,-0.37695938,0.01633922,0.25562412
196307437,-0.36692512,0.019143626,0.2573484
196331558,-0.3798263,0.010730408,0.26079693
196355870,-0.36692512,0.023350235,0.25907266
196378970,-0.36119127,0.019143626,0.25562412
196403437,-0.35115704,0.017741423,0.25821054
196427504,-0.35832435,0.031763453,0.2625212
196452277,-0.3597578,0.028959049,0.2599348
196474651,-0.36119127,0.035970062,0.25821054
196496447,-0.36119127,0.02054583,0.2573484
196520447,-0.35402396,0.041578874,0.25907266
196547956,-0.36262473,0.026154643,0.2599348
196570577,-0.34829012,0.037372265,0.2616591
196592437,-0.35402396,0.03456786,0.2599348
196615504,-0.36262473,0.03036125,0.254762
196638651,-0.3597578,0.026154643,0.25562412
196661437,-0.35832435,0.031763453,0.25648624
196684971,-0.372659,0.013534814,0.25217557
196709410,-0.36692512,0.037372265,0.25389984
196732500,-0.372659,0.03456786,0.25303772
196757440,-0.36979204,0.019143626,0.25303772
196781854,-0.372659,0.013534814,0.25131345
196805501,-0.36979204,0.026154643,0.254762
196829437,-0.36835858,0.035970062,0.25217557
196852440,-0.36979204,0.021948034,0.25131345
196877072,-0.36692512,0.035970062,0.25303772
196901528,-0.36979204,0.037372265,0.25131345
196924723,-0.3597578,0.028959049,0.24958917
196948553,-0.372659,0.027556844,0.24872705
196973234,-0.3597578,0.03036125,0.24872705
196997080,-0.34972358,0.041578874,0.25045133
197019895,-0.34829012,0.041578874,0.24700278
197041454,-0.36549166,0.027556844,0.24527851
197069901,-0.36262473,0.051394295,0.24010572
197093727,-0.35402396,0.048589893,0.24096784
197116506,-0.34972358,0.048589893,0.24182998
197141286,-0.35832435,0.04017667,0.24010572
197166127,-0.34829012,0.044383284,0.24096784
197190182,-0.33825585,0.045785483,0.23838145
197213374,-0.36262473,0.04298108,0.23407075
197237131,-0.3798263,0.045785483,0.22803582
197260373,-0.37552592,0.044383284,0.22889796
197286091,-0.35832435,0.03877447,0.23407075
197309139,-0.35832435,0.044383284,0.23665717
197333108,-0.36119127,0.048589893,0.23665717
197358824,-0.36262473,0.03877447,0.23493288
197382023,-0.3640582,0.041578874,0.23234649
197405185,-0.36549166,0.06261192,0.23234649
197428453,-0.36119127,0.047187686,0.23148435
197448467,-0.36549166,0.051394295,0.23062222
197471191,-0.36119127,0.04017667,0.23320863
197492973,-0.3712255,0.035970062,0.23320863
197518328,-0.3568909,0.03456786,0.23148435
197541161,-0.36979204,0.0527965,0.23320863
197562058,-0.3712255,0.06401412,0.23407075
197586000,-0.3712255,0.06261192,0.23234649
197610075,-0.36692512,0.058405314,0.23234649
197635026,-0.36979204,0.04017667,0.23062222
197658562,-0.35832435,0.04298108,0.23234649
197682163,-0.37409246,0.055600904,0.23320863
197705437,-0.36549166,0.051394295,0.23407075
197730225,-0.36835858,0.04298108,0.23320863
197751511,-0.36979204,0.058405314,0.23320863
197773917,-0.36262473,0.051394295,0.23234649
197795589,-0.36262473,0.047187686,0.23407075
197817437,-0.36979204,0.051394295,0.23407075
197839437,-0.3640582,0.047187686,0.23234649
197863469,-0.3712255,0.045785483,0.23320863
197891125,-0.36262473,0.045785483,0.23148435
197914596,-0.3640582,0.0541987,0.23148435
197937441,-0.36262473,0.045785483,0.23407075
197962616,-0.36835858,0.041578874,0.23320863
197987065,-0.36835858,0.045785483,0.23407075
198010700,-0.36835858,0.044383284,0.23407075
198033528,-0.3640582,0.045785483,0.23407075
198058563,-0.36262473,0.049992092,0.23493288
198082576,-0.3712255,0.049992092,0.23493288
198105472,-0.36119127,0.044383284,0.23407075
198129970,-0.36835858,0.0541987,0.23234649
198155871,-0.3640582,0.048589893,0.23320863
198178897,-0.36979204,0.04298108,0.23234649
198201498,-0.372659,0.0541987,0.23320863
198225560,-0.3712255,0.0527965,0.23407075
198250973,-0.3597578,0.041578874,0.23234649
198275142,-0.36979204,0.048589893,0.23493288
198298123,-0.36979204,0.0541987,0.23062222
198322798,-0.36979204,0.051394295,0.23493288
198347954,-0.3597578,0.048589893,0.23665717
198371472,-0.36549166,0.049992092,0.23148435
198394117,-0.36835858,0.0541987,0.23234649
198416437,-0.3597578,0.048589893,0.23320863
198438546,-0.36692512,0.047187686,0.23407075
198460437,-0.36262473,0.0541987,0.23493288
198483438,-0.36262473,0.05700311,0.23320863
198506920,-0.372659,0.049992092,0.23579505
198528449,-0.36692512,0.048589893,0.23407075
198552558,-0.36262473,0.048589893,0.23320863
198576448,-0.36692512,0.044383284,0.23234649
198600458,-0.3640582,0.047187686,0.23493288
198627912,-0.36119127,0.044383284,0.23407075
198650707,-0.3568909,0.049992092,0.23320863
198675442,-0.36692512,0.048589893,0.23407075
198699479,-0.36549166,0.049992092,0.23493288
198723835,-0.36835858,0.044383284,0.23579505
198747517,-0.36835858,0.055600904,0.23579505
198770720,-0.36119127,0.045785483,0.23579505
198795172,-0.36835858,0.0527965,0.23493288
198820207,-0.3640582,0.048589893,0.23320863
198842949,-0.3712255,0.051394295,0.23320863
198864458,-0.36835858,0.049992092,0.23407075
198888528,-0.36549166,0.0527965,0.23234649
198912542,-0.372659,0.05700311,0.23407075
198936499,-0.36549166,0.041578874,0.23148435
198959447,-0.36549166,0.0527965,0.23579505
198981180,-0.3640582,0.055600904,0.23234649
199003438,-0.36835858,0.048589893,0.23493288
199026774,-0.36549166,0.04298108,0.23320863
199047437,-0.36549166,0.051394295,0.23579505
199069780,-0.36979204,0.048589893,0.23493288
199092506,-0.36692512,0.047187686,0.23493288
199116502,-0.36979204,0.048589893,0.23579505
199140334,-0.36549166,0.049992092,0.23407075
199163439,-0.36835858,0.058405314,0.23407075
199186712,-0.36262473,0.044383284,0.23320863
199208449,-0.36835858,0.041578874,0.23234649
199232510,-0.36692512,0.049992092,0.23493288
199256451,-0.372659,0.041578874,0.23493288
199280449,-0.3640582,0.055600904,0.23062222
199304489,-0.37695938,0.045785483,0.23407075
199332318,-0.3712255,0.0527965,0.23407075
199355051,-0.37552592,0.05700311,0.23320863
199379099,-0.36262473,0.045785483,0.23320863
199403514,-0.3640582,0.051394295,0.23751931
199427514,-0.36549166,0.04298108,0.23407075
199451505,-0.36549166,0.04298108,0.23493288
199475437,-0.3712255,0.045785483,0.23407075
199499022,-0.36835858,0.048589893,0.23320863
199523571,-0.36835858,0.0541987,0.23320863
199547494,-0.3640582,0.049992092,0.23407075
199571466,-0.36692512,0.0541987,0.23665717
199596980,-0.3712255,0.03877447,0.23234649
199621371,-0.36692512,0.049992092,0.23407075
199644172,-0.36549166,0.047187686,0.23320863
199668728,-0.36262473,0.048589893,0.23407075
199692734,-0.3640582,0.045785483,0.23234649
199717245,-0.3712255,0.044383284,0.23407075
199740317,-0.36262473,0.051394295,0.23407075
199761530,-0.37409246,0.044383284,0.23493288
199788598,-0.36692512,0.049992092,0.23320863
199813060,-0.36692512,0.049992092,0.23320863
199836650,-0.37409246,0.049992092,0.23493288
199860437,-0.36119127,0.049992092,0.23407075
199884467,-0.372659,0.049992092,0.23493288
199905438,-0.37552592,0.04298108,0.23493288
199929437,-0.3640582,0.044383284,0.23407075
199951440,-0.3568909,0.041578874,0.23665717
199973003,-0.36262473,0.048589893,0.23234649
199995828,-0.35832435,0.047187686,0.23407075
200017478,-0.372659,0.049992092,0.23234649
200041979,-0.372659,0.055600904,0.23234649
200069254,-0.36549166,0.049992092,0.23148435
200092465,-0.36835858,0.035970062,0.23148435
200113460,-0.36262473,0.0527965,0.23234649
200138133,-0.36835858,0.04017667,0.23320863
200161449,-0.36549166,0.03877447,0.23493288
200185437,-0.3640582,0.045785483,0.23320863
200207437,-0.36692512,0.045785483,0.23407075
200231872,-0.3640582,0.055600904,0.23320863
200255932,-0.3640582,0.0527965,0.23320863
200279437,-0.372659,0.045785483,0.23062222
200300439,-0.36835858,0.0541987,0.23493288
200324357,-0.3712255,0.051394295,0.23234649
200348437,-0.3712255,0.03877447,0.23320863
200369488,-0.36692512,0.03877447,0.23493288
200393990,-0.35545743,0.048589893,0.23234649
200420740,-0.37695938,0.055600904,0.23407075
200444207,-0.35832435,0.03877447,0.23407075
200466570,-0.36692512,0.045785483,0.23493288
200494634,-0.36262473,0.044383284,0.23407075
200518042,-0.36262473,0.04298108,0.23493288
200542332,-0.35832435,0.044383284,0.23579505
200566322,-0.36692512,0.048589893,0.23320863
200590243,-0.36835858,0.044383284,0.23407075
200611864,-0.3597578,0.047187686,0.23493288
200635618,-0.36549166,0.03877447,0.23407075
200659437,-0.3712255,0.055600904,0.23407075
200685465,-0.36692512,0.049992092,0.23579505
200707954,-0.35832435,0.044383284,0.23234649
200731505,-0.36262473,0.03877447,0.23407075
200755438,-0.3640582,0.045785483,0.23579505
200781971,-0.36692512,0.045785483,0.23407075
200804363,-0.35832435,0.037372265,0.23320863
200827739,-0.37695938,0.0541987,0.23665717
200851449,-0.36835858,0.045785483,0.23493288
200878198,-0.3712255,0.0527965,0.23320863
200899906,-0.372659,0.0527965,0.23407075
200923512,-0.3597578,0.035970062,0.23234649
200947489,-0.37552592,0.048589893,0.23407075
200974554,-0.36835858,0.03877447,0.23493288
200998371,-0.36119127,0.04298108,0.23320863
201021543,-0.36835858,0.041578874,0.23579505
201046549,-0.36979204,0.03877447,0.23493288
201071438,-0.36262473,0.041578874,0.23234649
201095545,-0.372659,0.049992092,0.23493288
201118827,-0.36835858,0.037372265,0.23579505
201141978,-0.36549166,0.048589893,0.23407075
201167444,-0.36549166,0.031763453,0.23407075
201191435,-0.36549166,0.04017667,0.23665717
201214705,-0.37409246,0.045785483,0.23665717
201237820,-0.36549166,0.047187686,0.23493288
201259517,-0.36835858,0.04017667,0.23579505
201283522,-0.36835858,0.03456786,0.23493288
201307678,-0.36549166,0.045785483,0.23407075
201331452,-0.36119127,0.047187686,0.23407075
201359431,-0.3640582,0.04298108,0.23493288
201383901,-0.36979204,0.04298108,0.23493288
201408454,-0.36692512,0.041578874,0.23407075
201431493,-0.3712255,0.031763453,0.23493288
201455440,-0.3712255,0.041578874,0.23579505
201479849,-0.36979204,0.031763453,0.23665717
201504208,-0.36262473,0.041578874,0.23493288
201527763,-0.36549166,0.035970062,0.23320863
201551877,-0.372659,0.044383284,0.23665717
201576310,-0.36692512,0.045785483,0.23665717
201597516,-0.37695938,0.03456786,0.23579505
201623173,-0.3712255,0.044383284,0.23665717
201644540,-0.37409246,0.03877447,0.23493288
201666750,-0.3640582,0.03877447,0.23579505
201688501,-0.3712255,0.035970062,0.23665717
201711441,-0.36549166,0.044383284,0.23838145
201735896,-0.36835858,0.03456786,0.23493288
201760332,-0.37409246,0.03877447,0.23493288
201783055,-0.36835858,0.041578874,0.23579505
201806963,-0.3640582,0.03456786,0.23579505
201832300,-0.36979204,0.047187686,0.23579505
201856720,-0.36692512,0.045785483,0.23665717
201879782,-0.36262473,0.044383284,0.23493288
201904438,-0.36979204,0.047187686,0.23665717
201928374,-0.36692512,0.041578874,0.23493288
201952612,-0.36835858,0.033165656,0.23665717
201975803,-0.36835858,0.03877447,0.23838145
201999863,-0.36692512,0.03877447,0.23838145
202023883,-0.36692512,0.03877447,0.23751931
202048298,-0.3712255,0.048589893,0.23665717
202071429,-0.36835858,0.044383284,0.23665717
202095555,-0.36692512,0.04298108,0.23665717
202120235,-0.36835858,0.037372265,0.24096784
202144460,-0.37552592,0.031763453,0.24182998
202167538,-0.36835858,0.03877447,0.24010572
202192492,-0.3640582,0.04017667,0.24096784
202216721,-0.36835858,0.045785483,0.24096784
202241052,-0.37552592,0.028959049,0.24010572
202264516,-0.36549166,0.035970062,0.24096784
202288497,-0.36692512,0.033165656,0.23924358
202313014,-0.35832435,0.04017667,0.23924358
202338268,-0.36549166,0.021948034,0.24355425
202362543,-0.36262473,0.03036125,0.24096784
202386540,-0.3597578,0.047187686,0.24441639
202409028,-0.36119127,0.035970062,0.24441639
202433483,-0.3640582,0.026154643,0.24182998
202456529,-0.3640582,0.03456786,0.24441639
202480195,-0.36835858,0.033165656,0.24527851
202502585,-0.3568909,0.033165656,0.24441639
202525479,-0.3640582,0.035970062,0.24355425
202549438,-0.3568909,0.037372265,0.24700278
202572491,-0.3454232,0.033165656,0.24355425
202593883,-0.35115704,0.031763453,0.24355425
202616442,-0.3454232,0.03877447,0.24269211
202637042,-0.3525905,0.033165656,0.24182998
202660534,-0.36262473,0.03877447,0.24182998
202684603,-0.34972358,0.045785483,0.24182998
202708571,-0.34398973,0.035970062,0.24182998
202732614,-0.3525905,0.031763453,0.24010572
202756704,-0.3525905,0.051394295,0.24010572
202778548,-0.35402396,0.037372265,0.24010572
202802519,-0.3525905,0.04298108,0.24269211
202829338,-0.35115704,0.041578874,0.24182998
202853190,-0.34972358,0.044383284,0.23924358
202874649,-0.3597578,0.051394295,0.23924358
202898585,-0.36549166,0.06261192,0.23838145
202921017,-0.3640582,0.0541987,0.23062222
202945787,-0.3640582,0.051394295,0.23838145
202968506,-0.3568909,0.05700311,0.23234649
202992176,-0.3640582,0.075231746,0.23665717
203014582,-0.3640582,0.06401412,0.23751931
203037490,-0.35115704,0.06261192,0.23665717
203060583,-0.3568909,0.06681853,0.23579505
203084556,-0.34398973,0.06401412,0.23579505
203106652,-0.35832435,0.06541633,0.23493288
203129793,-0.34829012,0.083644964,0.23665717
203153559,-0.35545743,0.08084056,0.23665717
203175855,-0.35832435,0.07242734,0.23579505
203199080,-0.35832435,0.075231746,0.23579505
203222948,-0.3597578,0.07102514,0.23493288
203244504,-0.34972358,0.09065598,0.23665717
203268446,-0.3568909,0.08084056,0.23148435
203291462,-0.3597578,0.075231746,0.23924358
203316564,-0.35115704,0.0990692,0.23838145
203340449,-0.34829012,0.07803616,0.23407075
203367474,-0.3396893,0.08785158,0.23751931
203391365,-0.34829012,0.068220735,0.23579505
203414569,-0.3454232,0.083644964,0.23924358
203438664,-0.3525905,0.09205818,0.23665717
203462368,-0.35402396,0.08644938,0.23665717
203484449,-0.34829012,0.07943836,0.23751931
203510665,-0.34685665,0.08644938,0.23924358
203532457,-0.33825585,0.0990692,0.23838145
203554608,-0.3454232,0.083644964,0.24096784
203576437,-0.34685665,0.082242765,0.24269211
203598792,-0.3368224,0.09205818,0.24527851
203623346,-0.33825585,0.1004714,0.24182998
203647149,-0.3368224,0.0990692,0.24010572
203670499,-0.34829012,0.08644938,0.23924358
203694629,-0.34685665,0.10467801,0.24182998
203719411,-0.33395544,0.094862595,0.24096784
203740467,-0.33825585,0.08504716,0.24182998
203764550,-0.33825585,0.10467801,0.24269211
203790971,-0.3454232,0.08084056,0.24182998
203812462,-0.33825585,0.08644938,0.24269211
203836489,-0.33395544,0.096264794,0.24182998
203859437,-0.34398973,0.094862595,0.24096784
203881520,-0.34685665,0.08504716,0.24269211
203905196,-0.34398973,0.09065598,0.24441639
203926871,-0.33538893,0.110286824,0.24182998
203947662,-0.32678813,0.10888462,0.24269211
203970967,-0.34112278,0.08644938,0.24269211
203993437,-0.33395544,0.09346039,0.24355425
204017449,-0.32965505,0.0990692,0.24355425
204040437,-0.32678813,0.10748242,0.24355425
204064996,-0.3396893,0.10187361,0.24441639
204087609,-0.32678813,0.11168902,0.24614064
204109506,-0.3310885,0.10888462,0.24269211
204133149,-0.32678813,0.09346039,0.24182998
204156420,-0.32965505,0.11309124,0.24441639
204177493,-0.32248774,0.11168902,0.24441639
204204353,-0.3310885,0.10467801,0.24355425
204228459,-0.33252198,0.110286824,0.24269211
204251856,-0.32965505,0.10608022,0.24441639
204276441,-0.33252198,0.10608022,0.24441639
204300440,-0.32965505,0.10608022,0.24269211
204324722,-0.32965505,0.11168902,0.24355425
204348244,-0.3310885,0.11449344,0.24182998
204369437,-0.3310885,0.12851547,0.24182998
204391444,-0.33252198,0.122906655,0.24010572
204413459,-0.33252198,0.12010224,0.24355425
204435791,-0.3310885,0.12851547,0.24182998
204459825,-0.3282216,0.122906655,0.23924358
204481145,-0.3282216,0.124308854,0.24441639
204503153,-0.31818736,0.1439397,0.24182998
204523854,-0.31388697,0.15515731,0.24182998
204545098,-0.32105428,0.1453419,0.24441639
204567487,-0.31102005,0.14674412,0.23148435
204591481,-0.31102005,0.15796173,0.23838145
204613440,-0.30671966,0.15936393,0.23924358
204636438,-0.3052862,0.15796173,0.23579505
204657448,-0.31532043,0.17198376,0.23751931
204680441,-0.3167539,0.16497275,0.23838145
204705130,-0.30815312,0.15796173,0.23407075
204727461,-0.30958658,0.18039699,0.23665717
204748177,-0.29811883,0.18039699,0.24010572
204773757,-0.30385274,0.18320139,0.23493288
204796705,-0.30958658,0.17759256,0.23320863
204820488,-0.2895181,0.1916146,0.23751931
204844709,-0.2837842,0.18600579,0.23579505
204867688,-0.2809173,0.19582121,0.23924358
204890591,-0.2766169,0.19722341,0.23579505
204914813,-0.2680161,0.19722341,0.23579505
204938578,-0.26944956,0.20283224,0.23751931
204962230,-0.26514918,0.20283224,0.23665717
204985876,-0.2680161,0.20423444,0.23407075
205007514,-0.26658264,0.20563664,0.23665717
205030533,-0.26658264,0.20143002,0.23751931
205052708,-0.26944956,0.20563664,0.23751931
205074520,-0.26944956,0.20423444,0.23751931
205098565,-0.2565484,0.21685426,0.23665717
205122361,-0.25941533,0.20703883,0.23579505
205145834,-0.27088305,0.19862562,0.23751931
205167450,-0.26944956,0.21124545,0.23579505
205190700,-0.27518344,0.20283224,0.23407075
205212988,-0.2637157,0.21124545,0.23751931
205235437,-0.26944956,0.1888102,0.23493288
205260922,-0.26944956,0.20984323,0.23751931
205284385,-0.26658264,0.20423444,0.23579505
205306311,-0.27374998,0.1916146,0.23407075
205329848,-0.26944956,0.194419,0.23579505
205356754,-0.26514918,0.20844103,0.23407075
205379469,-0.27518344,0.1902124,0.23665717
205402674,-0.27374998,0.19862562,0.23579505
205426768,-0.27088305,0.19582121,0.23407075
205451531,-0.27088305,0.194419,0.23407075
205475880,-0.26944956,0.20143002,0.23234649
205498907,-0.26514918,0.20002782,0.23493288
205522301,-0.25941533,0.20844103,0.23320863
205547437,-0.27231652,0.1902124,0.23407075
205571846,-0.26944956,0.20283224,0.23320863
205595007,-0.25798187,0.20703883,0.23234649
205617778,-0.25798187,0.20844103,0.23493288
205638536,-0.26514918,0.20423444,0.23234649
205660662,-0.27374998,0.20283224,0.23062222
205683506,-0.2680161,0.20002782,0.22976008
205708769,-0.26658264,0.20423444,0.23148435
205732771,-0.26658264,0.20143002,0.23493288
205755564,-0.2637157,0.194419,0.23234649
205779438,-0.2637157,0.20703883,0.23320863
205803906,-0.2608488,0.21264765,0.22976008
205829116,-0.2637157,0.20563664,0.23234649
205851746,-0.25511494,0.21545205,0.23062222
205875475,-0.2608488,0.21264765,0.22717369
205899380,-0.25081453,0.21124545,0.22976008
205924734,-0.252248,0.20984323,0.22889796
205948120,-0.24508068,0.21404985,0.22717369
205971821,-0.2407803,0.21545205,0.22717369
205995774,-0.24364722,0.21825646,0.22803582
206020255,-0.22931257,0.24349612,0.22803582
206044332,-0.22931257,0.23087628,0.22544941
206067493,-0.23217951,0.23788731,0.22717369
206091123,-0.21927834,0.23788731,0.22976008
206112449,-0.21784487,0.23227848,0.22717369
206136501,-0.20494369,0.25611594,0.22458729
206159447,-0.20637715,0.24770272,0.22717369
206183542,-0.19204251,0.26032254,0.22458729
206206679,-0.19777638,0.26032254,0.22717369
206229438,-0.19060905,0.25751814,0.22200088
206251480,-0.19204251,0.24770272,0.22372515
206276568,-0.17770787,0.26032254,0.22027662
206299881,-0.1762744,0.2799534,0.21855235
206323558,-0.1762744,0.2813556,0.21941449
206348450,-0.16624017,0.2743446,0.22113875
206371872,-0.17054056,0.2827578,0.21855235
206395896,-0.15620591,0.28836662,0.21424168
206419643,-0.15333898,0.2785512,0.21165526
206443492,-0.15477245,0.29958424,0.21337953
206467820,-0.1490386,0.2869644,0.21424168
206491893,-0.14760514,0.29537764,0.21079312
206515358,-0.14187127,0.29818204,0.209931
206535570,-0.14187127,0.2869644,0.2125174
206558607,-0.14330474,0.29818204,0.209931
206582605,-0.14187127,0.28836662,0.20820673
206606541,-0.13900435,0.28976882,0.21165526
206631088,-0.13470395,0.30238864,0.20820673
206656739,-0.1289701,0.28836662,0.20734459
206681438,-0.1246697,0.29958424,0.20648246
206705143,-0.1289701,0.30519304,0.20562033
206726048,-0.13757087,0.2925732,0.20130967
206748642,-0.13040356,0.30379084,0.20820673
206772203,-0.120369315,0.30098644,0.20734459
206794592,-0.12610316,0.30379084,0.20820673
206817446,-0.13183703,0.29818204,0.20648246
206841543,-0.13040356,0.2925732,0.2047582
206865687,-0.11463545,0.29958424,0.20389606
206889751,-0.11463545,0.3164107,0.20217179
206913516,-0.11320199,0.3178129,0.2047582
206937803,-0.10603467,0.30238864,0.20130967
206961103,-0.09743388,0.31080183,0.20130967
206982220,-0.10603467,0.31360626,0.20217179
207005029,-0.091700025,0.30799744,0.20217179
207026507,-0.091700025,0.30939963,0.20130967
207048713,-0.091700025,0.30799744,0.1995854
207070570,-0.083099246,0.30939963,0.20044753
207094604,-0.08166578,0.30939963,0.20044753
207117448,-0.06303075,0.3164107,0.20130967
207141891,-0.073065,0.31360626,0.20130967
207164525,-0.06159728,0.3206173,0.20389606
207188145,-0.051563032,0.3276283,0.20217179
207209233,-0.054429963,0.31360626,0.2047582
207230582,-0.042962246,0.3276283,0.2047582
207253512,-0.041528784,0.3234217,0.2047582
207278550,-0.031494536,0.3150085,0.2047582
207305722,-0.024327215,0.3318349,0.2047582
207329814,-0.024327215,0.3374437,0.2047582
207352679,-0.017159896,0.3248239,0.20648246
207378047,-0.01859336,0.3248239,0.20734459
207401878,-0.012859503,0.3192151,0.20648246
207426530,-0.0028252543,0.3290305,0.20734459
207449311,4.167386e-05,0.3234217,0.20648246
207471452,0.004342066,0.3318349,0.20562033
207494714,0.008642458,0.3374437,0.20648246
207517760,0.011509386,0.3332371,0.20217179
207540449,0.017243242,0.3430525,0.20217179
207562542,0.028710956,0.35427016,0.20389606
207586687,0.03587828,0.3304327,0.20217179
207610562,0.040178668,0.3402481,0.1995854
207632459,0.053079847,0.35707456,0.20130967
207654762,0.040178668,0.34725913,0.19872326
207676470,0.043045595,0.3388459,0.1995854
207698831,0.05594677,0.3416503,0.20044753
207722703,0.050212916,0.3430525,0.20217179
207744532,0.06311409,0.35286796,0.20044753
207768551,0.06884795,0.34866133,0.1995854
207790583,0.07458181,0.35286796,0.1995854
207814216,0.070281416,0.35006353,0.1995854
207837795,0.08604952,0.35146576,0.20130967
207861267,0.09178338,0.34585693,0.19872326
207883437,0.09178338,0.3430525,0.196999
207907509,0.08748298,0.3388459,0.19786112
207931520,0.094650306,0.34585693,0.1995854
207954544,0.094650306,0.3346393,0.19872326
207976465,0.10181763,0.3388459,0.1995854
208000458,0.106118016,0.34445474,0.196999
208023437,0.10755148,0.3402481,0.196999
208045565,0.10755148,0.3276283,0.196999
208067160,0.10755148,0.3290305,0.1995854
208088450,0.10325109,0.3304327,0.19872326
208111551,0.10898494,0.3290305,0.1995854
208134089,0.11041841,0.3402481,0.20130967
208157869,0.12188612,0.3318349,0.2047582
208182204,0.12045266,0.3304327,0.1995854
208204501,0.13192037,0.3332371,0.20217179
208228196,0.1261865,0.3220195,0.20044753
208251516,0.12761997,0.3304327,0.20044753
208274542,0.1261865,0.3332371,0.2047582
208298620,0.12761997,0.3290305,0.20562033
208320437,0.13478729,0.3332371,0.20734459
208342705,0.12761997,0.3332371,0.20906886
208364438,0.12761997,0.3290305,0.20734459
208388555,0.1304869,0.3374437,0.209931
208410949,0.1304869,0.3374437,0.20820673
208435572,0.13622075,0.3360415,0.21337953
208460450,0.12475305,0.3290305,0.21079312
208484943,0.13765423,0.34725913,0.21337953
208508505,0.13765423,0.3388459,0.21682808
208531469,0.13335383,0.3248239,0.21424168
208555133,0.13335383,0.3318349,0.21510382
