timestamp,min_distance,max_distance,current_distance,covariance,signal_quality,type,id,orientation
175374821,0.01,50.0,8.389999,0.0,1,0,4,6
175406876,0.01,50.0,8.45,0.0,0,0,4,6
175438865,0.01,50.0,8.42,0.0,64,0,4,6
175471521,0.01,50.0,8.46,0.0,64,0,4,6
175503493,0.01,50.0,8.42,0.0,64,0,4,6
175535765,0.01,50.0,8.4,0.0,0,0,4,6
175567677,0.01,50.0,8.42,0.0,64,0,4,6
175599684,0.01,50.0,8.389999,0.0,4,0,4,6
175632454,0.01,50.0,8.45,0.0,64,0,4,6
175664758,0.01,50.0,8.41,0.0,64,0,4,6
175696522,0.01,50.0,8.46,0.0,4,0,4,6
175728742,0.01,50.0,8.57,0.0,64,0,4,6
175760759,0.01,50.0,8.389999,0.0,64,0,4,6
175792786,0.01,50.0,8.42,0.0,52,0,4,6
175824759,0.01,50.0,8.33,0.0,64,0,4,6
175856742,0.01,50.0,8.349999,0.0,64,0,4,6
175888742,0.01,50.0,8.28,0.0,64,0,4,6
175920928,0.01,50.0,8.309999,0.0,64,0,4,6
175952763,0.01,50.0,8.23,0.0,64,0,4,6
175984295,0.01,50.0,8.34,0.0,64,0,4,6
176014842,0.01,50.0,8.23,0.0,64,0,4,6
176046930,0.01,50.0,8.309999,0.0,0,0,4,6
176078890,0.01,50.0,8.29,0.0,0,0,4,6
176110850,0.01,50.0,8.179999,0.0,64,0,4,6
176141918,0.01,50.0,8.23,0.0,64,0,4,6
176174011,0.01,50.0,8.32,0.0,0,0,4,6
176205949,0.01,50.0,8.26,0.0,64,0,4,6
176238109,0.01,50.0,8.25,0.0,0,0,4,6
176269934,0.01,50.0,8.309999,0.0,64,0,4,6
176302007,0.01,50.0,8.29,0.0,64,0,4,6
176333918,0.01,50.0,8.46,0.0,64,0,4,6
176365913,0.01,50.0,8.33,0.0,64,0,4,6
176398178,0.01,50.0,8.38,0.0,0,0,4,6
176429572,0.01,50.0,8.33,0.0,64,0,4,6
176461932,0.01,50.0,8.29,0.0,64,0,4,6
176493980,0.01,50.0,8.22,0.0,0,0,4,6
176526039,0.01,50.0,8.21,0.0,0,0,4,6
176558147,0.01,50.0,8.26,0.0,64,0,4,6
176590049,0.01,50.0,8.28,0.0,64,0,4,6
176622009,0.01,50.0,8.26,0.0,64,0,4,6
176653922,0.01,50.0,8.099999,0.0,64,0,4,6
176686133,0.01,50.0,8.26,0.0,64,0,4,6
176718209,0.01,50.0,8.26,0.0,0,0,4,6
176749889,0.01,50.0,8.25,0.0,64,0,4,6
176781932,0.01,50.0,8.17,0.0,64,0,4,6
176813909,0.01,50.0,8.24,0.0,0,0,4,6
176846136,0.01,50.0,8.33,0.0,64,0,4,6
176878014,0.01,50.0,8.2699995,0.0,0,0,4,6
176909903,0.01,50.0,8.24,0.0,64,0,4,6
176941920,0.01,50.0,8.28,0.0,0,0,4,6
176973989,0.01,50.0,8.429999,0.0,64,0,4,6
177006150,0.01,50.0,8.17,0.0,0,0,4,6
177038179,0.01,50.0,8.429999,0.0,64,0,4,6
177069757,0.01,50.0,8.2,0.0,64,0,4,6
177101777,0.01,50.0,8.4,0.0,64,0,4,6
177132915,0.01,50.0,8.29,0.0,64,0,4,6
177164762,0.01,50.0,8.28,0.0,64,0,4,6
177196934,0.01,50.0,8.34,0.0,64,0,4,6
177228960,0.01,50.0,8.29,0.0,64,0,4,6
177260585,0.01,50.0,8.23,0.0,64,0,4,6
177292741,0.01,50.0,8.15,0.0,64,0,4,6
177323990,0.01,50.0,8.2699995,0.0,64,0,4,6
177356926,0.01,50.0,8.3,0.0,0,0,4,6
177388747,0.01,50.0,8.28,0.0,64,0,4,6
177420751,0.01,50.0,8.3,0.0,64,0,4,6
177452160,0.01,50.0,8.32,0.0,0,0,4,6
177484668,0.01,50.0,8.23,0.0,64,0,4,6
177516773,0.01,50.0,8.29,0.0,64,0,4,6
177548741,0.01,50.0,8.28,0.0,64,0,4,6
177580812,0.01,50.0,8.23,0.0,64,0,4,6
177612172,0.01,50.0,8.309999,0.0,64,0,4,6
177644149,0.01,50.0,8.2699995,0.0,64,0,4,6
177676958,0.01,50.0,8.309999,0.0,64,0,4,6
177708813,0.01,50.0,8.32,0.0,64,0,4,6
177739957,0.01,50.0,8.309999,0.0,64,0,4,6
177773362,0.01,50.0,8.309999,0.0,64,0,4,6
177804744,0.01,50.0,8.2699995,0.0,64,0,4,6
177836980,0.01,50.0,8.309999,0.0,64,0,4,6
177868534,0.01,50.0,8.36,0.0,64,0,4,6
177900736,0.01,50.0,8.24,0.0,4,0,4,6
177932486,0.01,50.0,8.22,0.0,64,0,4,6
177963952,0.01,50.0,8.25,0.0,64,0,4,6
177994933,0.01,50.0,8.34,0.0,64,0,4,6
178026831,0.01,50.0,8.32,0.0,64,0,4,6
178058874,0.01,50.0,8.26,0.0,0,0,4,6
178090073,0.01,50.0,8.26,0.0,4,0,4,6
178121305,0.01,50.0,8.349999,0.0,64,0,4,6
178153189,0.01,50.0,8.3,0.0,64,0,4,6
178183837,0.01,50.0,8.12,0.0,4,0,4,6
178215757,0.01,50.0,8.3,0.0,4,0,4,6
178248955,0.01,50.0,8.21,0.0,4,0,4,6
178280922,0.01,50.0,8.3,0.0,4,0,4,6
178312755,0.01,50.0,8.42,0.0,4,0,4,6
178344708,0.01,50.0,8.25,0.0,4,0,4,6
178376933,0.01,50.0,8.28,0.0,4,0,4,6
178409168,0.01,50.0,8.3,0.0,4,0,4,6
178440997,0.01,50.0,8.17,0.0,4,0,4,6
178472921,0.01,50.0,8.28,0.0,4,0,4,6
178504972,0.01,50.0,8.2699995,0.0,4,0,4,6
178536985,0.01,50.0,8.36,0.0,4,0,4,6
178569080,0.01,50.0,8.26,0.0,4,0,4,6
178601231,0.01,50.0,8.36,0.0,0,0,4,6
178631825,0.01,50.0,8.38,0.0,4,0,4,6
178664929,0.01,50.0,8.38,0.0,4,0,4,6
178695861,0.01,50.0,8.15,0.0,4,0,4,6
178729043,0.01,50.0,7.99,0.0,4,0,4,6
178761246,0.01,50.0,7.83,0.0,0,0,4,6
178791806,0.01,50.0,7.79,0.0,4,0,4,6
178823843,0.01,50.0,7.77,0.0,4,0,4,6
178855791,0.01,50.0,7.71,0.0,4,0,4,6
178888093,0.01,50.0,7.8399997,0.0,4,0,4,6
178920947,0.01,50.0,7.68,0.0,4,0,4,6
178952623,0.01,50.0,7.73,0.0,4,0,4,6
178984673,0.01,50.0,7.81,0.0,4,0,4,6
179017428,0.01,50.0,7.6,0.0,4,0,4,6
179050319,0.01,50.0,7.6299996,0.0,4,0,4,6
179082894,0.01,50.0,7.58,0.0,4,0,4,6
179114937,0.01,50.0,7.54,0.0,64,0,4,6
179146920,0.01,50.0,7.62,0.0,0,0,4,6
179178916,0.01,50.0,7.5299997,0.0,64,0,4,6
179210911,0.01,50.0,7.77,0.0,64,0,4,6
179242969,0.01,50.0,7.56,0.0,0,0,4,6
179274870,0.01,50.0,7.49,0.0,0,0,4,6
179306617,0.01,50.0,7.54,0.0,0,0,4,6
179338573,0.01,50.0,7.46,0.0,64,0,4,6
179370908,0.01,50.0,7.45,0.0,0,0,4,6
179402310,0.01,50.0,7.3199997,0.0,4,0,4,6
179434824,0.01,50.0,7.5099998,0.0,64,0,4,6
179466551,0.01,50.0,7.43,0.0,4,0,4,6
179498595,0.01,50.0,7.54,0.0,4,0,4,6
179530665,0.01,50.0,7.4199996,0.0,4,0,4,6
179562875,0.01,50.0,7.4199996,0.0,4,0,4,6
179595361,0.01,50.0,7.1299996,0.0,4,0,4,6
179627319,0.01,50.0,6.89,0.0,4,0,4,6
179659125,0.01,50.0,6.7,0.0,4,0,4,6
179691337,0.01,50.0,6.64,0.0,4,0,4,6
179723345,0.01,50.0,6.5899997,0.0,4,0,4,6
179755357,0.01,50.0,6.54,0.0,4,0,4,6
179787364,0.01,50.0,6.2999997,0.0,4,0,4,6
179820498,0.01,50.0,6.29,0.0,4,0,4,6
179853159,0.01,50.0,6.24,0.0,64,0,4,6
179884966,0.01,50.0,6.1299996,0.0,-68,0,4,6
179916969,0.01,50.0,5.89,0.0,64,0,4,6
179949504,0.01,50.0,5.81,0.0,4,0,4,6
179981982,0.01,50.0,5.6299996,0.0,64,0,4,6
180012912,0.01,50.0,5.54,0.0,4,0,4,6
180046223,0.01,50.0,5.47,0.0,4,0,4,6
180077926,0.01,50.0,5.5,0.0,64,0,4,6
180110094,0.01,50.0,5.3199997,0.0,4,0,4,6
180141263,0.01,50.0,5.62,0.0,64,0,4,6
180172915,0.01,50.0,5.5,0.0,64,0,4,6
180205595,0.01,50.0,5.49,0.0,64,0,4,6
180237374,0.01,50.0,5.49,0.0,4,0,4,6
180269821,0.01,50.0,5.29,0.0,0,0,4,6
180301562,0.01,50.0,5.5099998,0.0,4,0,4,6
180333949,0.01,50.0,5.4,0.0,0,0,4,6
180365773,0.01,50.0,5.29,0.0,64,0,4,6
180396931,0.01,50.0,5.44,0.0,4,0,4,6
180429307,0.01,50.0,5.23,0.0,64,0,4,6
180461764,0.01,50.0,5.16,0.0,0,0,4,6
180492997,0.01,50.0,5.48,0.0,4,0,4,6
180525379,0.01,50.0,5.41,0.0,4,0,4,6
180557948,0.01,50.0,5.44,0.0,64,0,4,6
180589739,0.01,50.0,5.44,0.0,4,0,4,6
180621444,0.01,50.0,5.0099998,0.0,4,0,4,6
180653765,0.01,50.0,4.91,0.0,64,0,4,6
180684942,0.01,50.0,4.52,0.0,4,0,4,6
180719101,0.01,50.0,3.99,0.0,64,0,4,6
180749948,0.01,50.0,3.61,0.0,64,0,4,6
180780742,0.01,50.0,3.49,0.0,64,0,4,6
180812762,0.01,50.0,3.47,0.0,64,0,4,6
180843772,0.01,50.0,3.29,0.0,1,0,4,6
180875107,0.01,50.0,3.3899999,0.0,4,0,4,6
180907356,0.01,50.0,3.4199998,0.0,4,0,4,6
180939910,0.01,50.0,3.33,0.0,4,0,4,6
180972231,0.01,50.0,3.3899999,0.0,4,0,4,6
181003823,0.01,50.0,3.4299998,0.0,4,0,4,6
181035368,0.01,50.0,3.52,0.0,4,0,4,6
181067626,0.01,50.0,3.52,0.0,4,0,4,6
181099570,0.01,50.0,3.52,0.0,4,0,4,6
181131524,0.01,50.0,3.6799998,0.0,4,0,4,6
181163744,0.01,50.0,3.6999998,0.0,4,0,4,6
181195322,0.01,50.0,3.87,0.0,4,0,4,6
181227804,0.01,50.0,4.0699997,0.0,4,0,4,6
181259352,0.01,50.0,3.9299998,0.0,4,0,4,6
181291355,0.01,50.0,4.0,0.0,4,0,4,6
181644970,0.01,50.0,4.69,0.0,4,0,4,6
181677206,0.01,50.0,4.7999997,0.0,4,0,4,6
181709377,0.01,50.0,4.77,0.0,4,0,4,6
181740746,0.01,50.0,4.83,0.0,4,0,4,6
181772638,0.01,50.0,4.89,0.0,4,0,4,6
181805536,0.01,50.0,4.9,0.0,4,0,4,6
181837344,0.01,50.0,4.71,0.0,4,0,4,6
181868972,0.01,50.0,4.69,0.0,4,0,4,6
181900917,0.01,50.0,4.5499997,0.0,4,0,4,6
181933002,0.01,50.0,4.5499997,0.0,4,0,4,6
181965371,0.01,50.0,4.43,0.0,4,0,4,6
181998074,0.01,50.0,4.3399997,0.0,4,0,4,6
182029351,0.01,50.0,4.5099998,0.0,4,0,4,6
182061007,0.01,50.0,4.73,0.0,4,0,4,6
182093372,0.01,50.0,4.5699997,0.0,4,0,4,6
182125341,0.01,50.0,4.42,0.0,4,0,4,6
182156996,0.01,50.0,4.52,0.0,4,0,4,6
182189434,0.01,50.0,4.4,0.0,4,0,4,6
182221345,0.01,50.0,4.2599998,0.0,4,0,4,6
182253336,0.01,50.0,4.35,0.0,4,0,4,6
182285379,0.01,50.0,4.14,0.0,4,0,4,6
182317374,0.01,50.0,4.0,0.0,4,0,4,6
182348920,0.01,50.0,4.1,0.0,4,0,4,6
182381341,0.01,50.0,4.18,0.0,4,0,4,6
182413754,0.01,50.0,4.19,0.0,64,0,4,6
182445115,0.01,50.0,4.22,0.0,4,0,4,6
182476918,0.01,50.0,4.37,0.0,4,0,4,6
182509891,0.01,50.0,4.58,0.0,4,0,4,6
182542208,0.01,50.0,4.73,0.0,4,0,4,6
182573941,0.01,50.0,4.8199997,0.0,4,0,4,6
182606163,0.01,50.0,5.22,0.0,4,0,4,6
182639004,0.01,50.0,5.24,0.0,4,0,4,6
182670490,0.01,50.0,5.04,0.0,4,0,4,6
182702614,0.01,50.0,5.25,0.0,4,0,4,6
182734962,0.01,50.0,5.29,0.0,4,0,4,6
182766888,0.01,50.0,5.29,0.0,4,0,4,6
182798494,0.01,50.0,5.2999997,0.0,4,0,4,6
182831015,0.01,50.0,5.66,0.0,4,0,4,6
182863335,0.01,50.0,5.56,0.0,4,0,4,6
182894857,0.01,50.0,5.5499997,0.0,4,0,4,6
182927359,0.01,50.0,5.64,0.0,4,0,4,6
182958943,0.01,50.0,5.5899997,0.0,4,0,4,6
182990767,0.01,50.0,5.08,0.0,4,0,4,6
183022345,0.01,50.0,5.0299997,0.0,4,0,4,6
183054854,0.01,50.0,5.0,0.0,4,0,4,6
183086342,0.01,50.0,4.83,0.0,4,0,4,6
183118608,0.01,50.0,4.46,0.0,4,0,4,6
183150960,0.01,50.0,4.3399997,0.0,4,0,4,6
183182587,0.01,50.0,4.35,0.0,4,0,4,6
183214981,0.01,50.0,4.4,0.0,4,0,4,6
183247353,0.01,50.0,4.33,0.0,4,0,4,6
183278866,0.01,50.0,4.39,0.0,4,0,4,6
183310558,0.01,50.0,4.43,0.0,4,0,4,6
183342163,0.01,50.0,4.38,0.0,4,0,4,6
183374352,0.01,50.0,4.37,0.0,4,0,4,6
183406358,0.01,50.0,4.66,0.0,4,0,4,6
183438584,0.01,50.0,5.1099997,0.0,4,0,4,6
183470309,0.01,50.0,5.7,0.0,4,0,4,6
183502295,0.01,50.0,6.21,0.0,4,0,4,6
183534540,0.01,50.0,6.77,0.0,4,0,4,6
183566531,0.01,50.0,7.06,0.0,4,0,4,6
183598705,0.01,50.0,7.23,0.0,4,0,4,6
183630404,0.01,50.0,7.6699996,0.0,4,0,4,6
183662587,0.01,50.0,9.809999,0.0,4,0,4,6
183694571,0.01,50.0,13.599999,0.0,4,0,4,6
183726751,0.01,50.0,13.82,0.0,4,0,4,6
183758760,0.01,50.0,13.799999,0.0,4,0,4,6
183790349,0.01,50.0,13.7699995,0.0,4,0,4,6
183822541,0.01,50.0,13.719999,0.0,4,0,4,6
183854535,0.01,50.0,13.639999,0.0,4,0,4,6
183886367,0.01,50.0,13.61,0.0,4,0,4,6
183918637,0.01,50.0,13.549999,0.0,4,0,4,6
183950859,0.01,50.0,13.5,0.0,0,0,4,6
183982894,0.01,50.0,13.44,0.0,64,0,4,6
184014893,0.01,50.0,13.36,0.0,-68,0,4,6
184046906,0.01,50.0,13.29,0.0,64,0,4,6
184078828,0.01,50.0,13.2699995,0.0,0,0,4,6
184110814,0.01,50.0,13.21,0.0,0,0,4,6
184142078,0.01,50.0,13.139999,0.0,0,0,4,6
184173802,0.01,50.0,13.11,0.0,64,0,4,6
184205891,0.01,50.0,13.07,0.0,64,0,4,6
184238205,0.01,50.0,13.009999,0.0,0,0,4,6
184270005,0.01,50.0,11.23,0.0,64,0,4,6
184302008,0.01,50.0,6.29,0.0,64,0,4,6
184333946,0.01,50.0,4.72,0.0,64,0,4,6
184365926,0.01,50.0,3.76,0.0,64,0,4,6
184398330,0.01,50.0,2.46,0.0,4,0,4,6
184430898,0.01,50.0,2.1699998,0.0,64,0,4,6
184461934,0.01,50.0,2.0,0.0,64,0,4,6
184493892,0.01,50.0,1.9799999,0.0,0,0,4,6
184526126,0.01,50.0,2.18,0.0,0,0,4,6
184558080,0.01,50.0,2.12,0.0,0,0,4,6
184589915,0.01,50.0,2.02,0.0,64,0,4,6
184622107,0.01,50.0,1.93,0.0,64,0,4,6
184653913,0.01,50.0,2.01,0.0,64,0,4,6
184686355,0.01,50.0,2.05,0.0,64,0,4,6
184717948,0.01,50.0,2.09,0.0,52,0,4,6
184749227,0.01,50.0,2.12,0.0,4,0,4,6
184780955,0.01,50.0,2.1399999,0.0,4,0,4,6
184813091,0.01,50.0,2.18,0.0,0,0,4,6
184844985,0.01,50.0,2.24,0.0,4,0,4,6
184877417,0.01,50.0,2.3,0.0,4,0,4,6
184909310,0.01,50.0,2.31,0.0,4,0,4,6
184941333,0.01,50.0,2.27,0.0,4,0,4,6
184972941,0.01,50.0,2.1499999,0.0,0,0,4,6
185004636,0.01,50.0,2.1399999,0.0,4,0,4,6
185037392,0.01,50.0,2.1299999,0.0,4,0,4,6
185068942,0.01,50.0,2.21,0.0,4,0,4,6
185101361,0.01,50.0,2.22,0.0,4,0,4,6
185132937,0.01,50.0,2.37,0.0,1,0,4,6
185165129,0.01,50.0,2.76,0.0,4,0,4,6
185197351,0.01,50.0,3.26,0.0,4,0,4,6
185228759,0.01,50.0,3.4199998,0.0,4,0,4,6
185260532,0.01,50.0,3.79,0.0,4,0,4,6
185293016,0.01,50.0,4.17,0.0,4,0,4,6
185325159,0.01,50.0,4.5099998,0.0,4,0,4,6
185356970,0.01,50.0,4.66,0.0,4,0,4,6
185389382,0.01,50.0,4.97,0.0,4,0,4,6
185421759,0.01,50.0,5.39,0.0,64,0,4,6
185452980,0.01,50.0,5.75,0.0,4,0,4,6
185935371,0.01,50.0,9.92,0.0,4,0,4,6
185966850,0.01,50.0,9.84,0.0,4,0,4,6
186478746,0.01,50.0,1.28,0.0,4,0,4,6
186510940,0.01,50.0,1.25,0.0,64,0,4,6
186543002,0.01,50.0,1.25,0.0,64,0,4,6
186574940,0.01,50.0,1.28,0.0,0,0,4,6
186606873,0.01,50.0,1.3,0.0,64,0,4,6
186638892,0.01,50.0,1.3199999,0.0,64,0,4,6
186670930,0.01,50.0,1.35,0.0,64,0,4,6
186702920,0.01,50.0,1.3399999,0.0,0,0,4,6
186734925,0.01,50.0,1.5,0.0,0,0,4,6
186766842,0.01,50.0,1.5799999,0.0,64,0,4,6
186798985,0.01,50.0,1.78,0.0,0,0,4,6
186830811,0.01,50.0,2.06,0.0,64,0,4,6
186862839,0.01,50.0,2.47,0.0,0,0,4,6
186894901,0.01,50.0,2.99,0.0,64,0,4,6
186926925,0.01,50.0,3.9599998,0.0,0,0,4,6
186958851,0.01,50.0,5.3399997,0.0,64,0,4,6
186990898,0.01,50.0,6.97,0.0,0,0,4,6
187022852,0.01,50.0,7.8999996,0.0,64,0,4,6
187054571,0.01,50.0,7.97,0.0,64,0,4,6
187086931,0.01,50.0,7.94,0.0,64,0,4,6
187118831,0.01,50.0,7.7799997,0.0,64,0,4,6
187150918,0.01,50.0,7.2999997,0.0,0,0,4,6
187182309,0.01,50.0,7.0699997,0.0,64,0,4,6
187214907,0.01,50.0,6.83,0.0,0,0,4,6
187246299,0.01,50.0,6.2999997,0.0,64,0,4,6
187278885,0.01,50.0,5.2599998,0.0,64,0,4,6
187310848,0.01,50.0,4.77,0.0,64,0,4,6
187342915,0.01,50.0,4.31,0.0,64,0,4,6
187375725,0.01,50.0,4.0899997,0.0,0,0,4,6
187408499,0.01,50.0,4.17,0.0,64,0,4,6
187440762,0.01,50.0,4.19,0.0,0,0,4,6
187472367,0.01,50.0,4.04,0.0,64,0,4,6
187504958,0.01,50.0,3.9599998,0.0,0,0,4,6
187536315,0.01,50.0,3.8999999,0.0,64,0,4,6
187568553,0.01,50.0,3.55,0.0,64,0,4,6
187601019,0.01,50.0,5.17,0.0,0,0,4,6
187632759,0.01,50.0,6.35,0.0,64,0,4,6
187664327,0.01,50.0,6.2799997,0.0,64,0,4,6
187696779,0.01,50.0,6.19,0.0,64,0,4,6
187728570,0.01,50.0,6.1099997,0.0,64,0,4,6
187760571,0.01,50.0,5.2999997,0.0,64,0,4,6
187792742,0.01,50.0,4.0299997,0.0,64,0,4,6
187824924,0.01,50.0,4.45,0.0,64,0,4,6
187856767,0.01,50.0,5.72,0.0,64,0,4,6
187888503,0.01,50.0,5.66,0.0,64,0,4,6
187920755,0.01,50.0,5.6099997,0.0,64,0,4,6
187952930,0.01,50.0,5.49,0.0,64,0,4,6
187984754,0.01,50.0,5.38,0.0,64,0,4,6
188017015,0.01,50.0,5.35,0.0,64,0,4,6
188048742,0.01,50.0,5.27,0.0,64,0,4,6
188080758,0.01,50.0,5.22,0.0,64,0,4,6
188112746,0.01,50.0,5.13,0.0,64,0,4,6
188144307,0.01,50.0,5.08,0.0,64,0,4,6
188176299,0.01,50.0,5.04,0.0,64,0,4,6
188208552,0.01,50.0,4.97,0.0,64,0,4,6
188240547,0.01,50.0,4.95,0.0,0,0,4,6
188272944,0.01,50.0,4.8599997,0.0,64,0,4,6
188304748,0.01,50.0,4.8199997,0.0,64,0,4,6
188336757,0.01,50.0,4.7599998,0.0,64,0,4,6
188368742,0.01,50.0,4.74,0.0,64,0,4,6
188400756,0.01,50.0,4.72,0.0,64,0,4,6
188432756,0.01,50.0,4.7,0.0,64,0,4,6
188464742,0.01,50.0,4.69,0.0,64,0,4,6
188495756,0.01,50.0,4.66,0.0,64,0,4,6
188527805,0.01,50.0,4.63,0.0,0,0,4,6
188559787,0.01,50.0,4.63,0.0,64,0,4,6
188590812,0.01,50.0,4.65,0.0,64,0,4,6
188622907,0.01,50.0,4.63,0.0,64,0,4,6
188654829,0.01,50.0,4.64,0.0,64,0,4,6
188686865,0.01,50.0,4.66,0.0,64,0,4,6
188718870,0.01,50.0,4.65,0.0,64,0,4,6
188750890,0.01,50.0,4.64,0.0,64,0,4,6
188781965,0.01,50.0,4.67,0.0,64,0,4,6
188814050,0.01,50.0,4.58,0.0,0,0,4,6
188846076,0.01,50.0,4.65,0.0,64,0,4,6
188876769,0.01,50.0,4.66,0.0,64,0,4,6
188908600,0.01,50.0,4.65,0.0,4,0,4,6
188940773,0.01,50.0,4.65,0.0,64,0,4,6
188972749,0.01,50.0,4.66,0.0,64,0,4,6
189003787,0.01,50.0,4.64,0.0,1,0,4,6
189035345,0.01,50.0,4.65,0.0,4,0,4,6
189066970,0.01,50.0,4.65,0.0,4,0,4,6
189099393,0.01,50.0,4.65,0.0,4,0,4,6
189131514,0.01,50.0,4.66,0.0,4,0,4,6
189163789,0.01,50.0,4.66,0.0,4,0,4,6
189196966,0.01,50.0,4.67,0.0,4,0,4,6
189229348,0.01,50.0,4.66,0.0,4,0,4,6
189261361,0.01,50.0,4.64,0.0,4,0,4,6
189293393,0.01,50.0,4.63,0.0,4,0,4,6
189325358,0.01,50.0,4.64,0.0,4,0,4,6
189356940,0.01,50.0,4.66,0.0,4,0,4,6
189390076,0.01,50.0,4.62,0.0,4,0,4,6
189422236,0.01,50.0,4.65,0.0,4,0,4,6
189453443,0.01,50.0,4.65,0.0,4,0,4,6
189485420,0.01,50.0,4.66,0.0,4,0,4,6
189517338,0.01,50.0,4.67,0.0,4,0,4,6
189548935,0.01,50.0,4.65,0.0,4,0,4,6
189581343,0.01,50.0,4.63,0.0,4,0,4,6
189613801,0.01,50.0,4.67,0.0,64,0,4,6
189644980,0.01,50.0,4.66,0.0,4,0,4,6
189677363,0.01,50.0,4.67,0.0,4,0,4,6
189708944,0.01,50.0,4.65,0.0,4,0,4,6
189740537,0.01,50.0,4.66,0.0,4,0,4,6
189773381,0.01,50.0,4.65,0.0,4,0,4,6
189805323,0.01,50.0,4.66,0.0,4,0,4,6
189836681,0.01,50.0,4.65,0.0,4,0,4,6
189869103,0.01,50.0,4.66,0.0,4,0,4,6
189901363,0.01,50.0,4.66,0.0,4,0,4,6
189933175,0.01,50.0,4.68,0.0,4,0,4,6
189965392,0.01,50.0,4.65,0.0,4,0,4,6
189997930,0.01,50.0,4.66,0.0,64,0,4,6
190029347,0.01,50.0,4.64,0.0,4,0,4,6
190061172,0.01,50.0,4.65,0.0,4,0,4,6
190094135,0.01,50.0,4.66,0.0,4,0,4,6
190127096,0.01,50.0,4.65,0.0,4,0,4,6
190158681,0.01,50.0,4.64,0.0,4,0,4,6
190190211,0.01,50.0,4.64,0.0,4,0,4,6
190222874,0.01,50.0,4.66,0.0,4,0,4,6
190255380,0.01,50.0,4.66,0.0,4,0,4,6
190287801,0.01,50.0,4.65,0.0,64,0,4,6
190319544,0.01,50.0,4.65,0.0,4,0,4,6
190350850,0.01,50.0,4.65,0.0,4,0,4,6
190383349,0.01,50.0,4.65,0.0,4,0,4,6
190415754,0.01,50.0,4.65,0.0,0,0,4,6
190447080,0.01,50.0,4.64,0.0,4,0,4,6
190478552,0.01,50.0,4.65,0.0,4,0,4,6
190511021,0.01,50.0,4.63,0.0,4,0,4,6
190543075,0.01,50.0,4.63,0.0,4,0,4,6
190574613,0.01,50.0,4.6,0.0,4,0,4,6
190606292,0.01,50.0,4.64,0.0,4,0,4,6
190638756,0.01,50.0,4.66,0.0,4,0,4,6
190670355,0.01,50.0,4.65,0.0,4,0,4,6
190702826,0.01,50.0,4.65,0.0,4,0,4,6
190734221,0.01,50.0,4.64,0.0,4,0,4,6
190766806,0.01,50.0,4.66,0.0,4,0,4,6
190798926,0.01,50.0,4.66,0.0,4,0,4,6
190831350,0.01,50.0,4.64,0.0,4,0,4,6
190863751,0.01,50.0,4.64,0.0,64,0,4,6
190895817,0.01,50.0,4.66,0.0,0,0,4,6
190927042,0.01,50.0,4.66,0.0,4,0,4,6
190958538,0.01,50.0,4.66,0.0,4,0,4,6
190990605,0.01,50.0,4.65,0.0,4,0,4,6
191022521,0.01,50.0,4.63,0.0,4,0,4,6
191055384,0.01,50.0,4.66,0.0,64,0,4,6
191087869,0.01,50.0,4.65,0.0,64,0,4,6
191119751,0.01,50.0,4.65,0.0,64,0,4,6
191151546,0.01,50.0,4.64,0.0,64,0,4,6
191183821,0.01,50.0,4.64,0.0,64,0,4,6
191215742,0.01,50.0,4.64,0.0,64,0,4,6
191247803,0.01,50.0,4.65,0.0,4,0,4,6
191279922,0.01,50.0,4.67,0.0,64,0,4,6
191311846,0.01,50.0,4.66,0.0,64,0,4,6
191343742,0.01,50.0,4.66,0.0,64,0,4,6
191375911,0.01,50.0,4.67,0.0,4,0,4,6
191407921,0.01,50.0,4.65,0.0,64,0,4,6
191439489,0.01,50.0,4.66,0.0,4,0,4,6
191471742,0.01,50.0,4.65,0.0,64,0,4,6
191503346,0.01,50.0,4.67,0.0,64,0,4,6
191535748,0.01,50.0,4.66,0.0,64,0,4,6
191567657,0.01,50.0,4.66,0.0,0,0,4,6
191599787,0.01,50.0,4.65,0.0,64,0,4,6
191631926,0.01,50.0,4.66,0.0,64,0,4,6
191663751,0.01,50.0,4.63,0.0,64,0,4,6
191695805,0.01,50.0,4.65,0.0,4,0,4,6
191728334,0.01,50.0,4.65,0.0,4,0,4,6
191760754,0.01,50.0,4.63,0.0,64,0,4,6
191791835,0.01,50.0,4.65,0.0,4,0,4,6
191823572,0.01,50.0,4.66,0.0,64,0,4,6
191855822,0.01,50.0,4.65,0.0,64,0,4,6
191886878,0.01,50.0,4.65,0.0,64,0,4,6
191917952,0.01,50.0,4.64,0.0,64,0,4,6
191949895,0.01,50.0,4.66,0.0,64,0,4,6
191981446,0.01,50.0,4.66,0.0,4,0,4,6
192013936,0.01,50.0,4.66,0.0,4,0,4,6
192045742,0.01,50.0,4.66,0.0,64,0,4,6
192076989,0.01,50.0,4.65,0.0,64,0,4,6
192109286,0.01,50.0,4.65,0.0,64,0,4,6
192141411,0.01,50.0,4.66,0.0,64,0,4,6
192172954,0.01,50.0,4.67,0.0,64,0,4,6
192205382,0.01,50.0,4.65,0.0,64,0,4,6
192238152,0.01,50.0,4.65,0.0,64,0,4,6
192268907,0.01,50.0,4.66,0.0,4,0,4,6
192301301,0.01,50.0,4.65,0.0,4,0,4,6
192333927,0.01,50.0,4.64,0.0,64,0,4,6
192364918,0.01,50.0,4.66,0.0,4,0,4,6
192397108,0.01,50.0,4.64,0.0,64,0,4,6
192429771,0.01,50.0,4.64,0.0,64,0,4,6
192460915,0.01,50.0,4.65,0.0,4,0,4,6
192493748,0.01,50.0,4.65,0.0,64,0,4,6
192525755,0.01,50.0,4.61,0.0,64,0,4,6
192557381,0.01,50.0,4.65,0.0,4,0,4,6
192590595,0.01,50.0,4.66,0.0,4,0,4,6
192622812,0.01,50.0,4.66,0.0,64,0,4,6
192653764,0.01,50.0,4.66,0.0,64,0,4,6
192685375,0.01,50.0,4.66,0.0,64,0,4,6
192717968,0.01,50.0,4.62,0.0,64,0,4,6
192750104,0.01,50.0,4.68,0.0,4,0,4,6
192782099,0.01,50.0,4.66,0.0,64,0,4,6
192813921,0.01,50.0,4.66,0.0,64,0,4,6
192846099,0.01,50.0,4.67,0.0,64,0,4,6
192878158,0.01,50.0,4.66,0.0,64,0,4,6
192909498,0.01,50.0,4.66,0.0,4,0,4,6
192941912,0.01,50.0,4.66,0.0,64,0,4,6
192973999,0.01,50.0,4.68,0.0,64,0,4,6
193006032,0.01,50.0,4.68,0.0,64,0,4,6
193038195,0.01,50.0,4.67,0.0,64,0,4,6
193069912,0.01,50.0,4.66,0.0,64,0,4,6
193101990,0.01,50.0,4.67,0.0,64,0,4,6
193133922,0.01,50.0,4.67,0.0,64,0,4,6
193166009,0.01,50.0,4.67,0.0,64,0,4,6
193198012,0.01,50.0,4.65,0.0,64,0,4,6
193229097,0.01,50.0,4.67,0.0,64,0,4,6
193260759,0.01,50.0,4.66,0.0,64,0,4,6
193291800,0.01,50.0,4.65,0.0,4,0,4,6
193323820,0.01,50.0,4.63,0.0,4,0,4,6
193356436,0.01,50.0,4.65,0.0,4,0,4,6
193388570,0.01,50.0,4.66,0.0,4,0,4,6
193420763,0.01,50.0,4.66,0.0,0,0,4,6
193451752,0.01,50.0,4.64,0.0,4,0,4,6
193483355,0.01,50.0,4.64,0.0,4,0,4,6
193515381,0.01,50.0,4.66,0.0,4,0,4,6
193547618,0.01,50.0,4.66,0.0,4,0,4,6
193579817,0.01,50.0,4.65,0.0,-68,0,4,6
193612348,0.01,50.0,4.66,0.0,4,0,4,6
193644186,0.01,50.0,4.66,0.0,4,0,4,6
193676691,0.01,50.0,4.65,0.0,4,0,4,6
193708740,0.01,50.0,4.66,0.0,4,0,4,6
193740625,0.01,50.0,4.63,0.0,4,0,4,6
193773248,0.01,50.0,4.65,0.0,4,0,4,6
193804623,0.01,50.0,4.65,0.0,4,0,4,6
193837412,0.01,50.0,4.64,0.0,4,0,4,6
193869362,0.01,50.0,4.64,0.0,4,0,4,6
193900948,0.01,50.0,4.63,0.0,4,0,4,6
193933387,0.01,50.0,4.62,0.0,4,0,4,6
193965784,0.01,50.0,4.6,0.0,0,0,4,6
193996952,0.01,50.0,4.61,0.0,4,0,4,6
194029362,0.01,50.0,4.61,0.0,4,0,4,6
194061752,0.01,50.0,4.61,0.0,0,0,4,6
194093403,0.01,50.0,4.5899997,0.0,4,0,4,6
194125378,0.01,50.0,4.58,0.0,4,0,4,6
194157350,0.01,50.0,4.56,0.0,4,0,4,6
194189322,0.01,50.0,4.5699997,0.0,4,0,4,6
194221391,0.01,50.0,4.54,0.0,4,0,4,6
194253328,0.01,50.0,4.56,0.0,4,0,4,6
194285742,0.01,50.0,4.5499997,0.0,64,0,4,6
194317356,0.01,50.0,4.54,0.0,4,0,4,6
194349352,0.01,50.0,4.52,0.0,4,0,4,6
194380940,0.01,50.0,4.5099998,0.0,73,0,4,6
194412599,0.01,50.0,4.52,0.0,4,0,4,6
194444696,0.01,50.0,4.5099998,0.0,4,0,4,6
194477140,0.01,50.0,4.52,0.0,4,0,4,6
194508985,0.01,50.0,4.47,0.0,4,0,4,6
194541360,0.01,50.0,4.49,0.0,4,0,4,6
194573404,0.01,50.0,4.48,0.0,4,0,4,6
194605964,0.01,50.0,4.46,0.0,4,0,4,6
194638559,0.01,50.0,4.46,0.0,0,0,4,6
194670882,0.01,50.0,4.45,0.0,0,0,4,6
194702815,0.01,50.0,4.44,0.0,64,0,4,6
194734869,0.01,50.0,4.43,0.0,64,0,4,6
194766897,0.01,50.0,4.44,0.0,64,0,4,6
194798863,0.01,50.0,4.42,0.0,64,0,4,6
194830812,0.01,50.0,4.4,0.0,64,0,4,6
194862870,0.01,50.0,4.4,0.0,0,0,4,6
194894868,0.01,50.0,4.39,0.0,64,0,4,6
194926864,0.01,50.0,4.38,0.0,64,0,4,6
194957897,0.01,50.0,4.36,0.0,64,0,4,6
194989806,0.01,50.0,4.36,0.0,64,0,4,6
195021235,0.01,50.0,4.33,0.0,0,0,4,6
195053131,0.01,50.0,4.3199997,0.0,64,0,4,6
195085181,0.01,50.0,4.31,0.0,64,0,4,6
195117178,0.01,50.0,4.2999997,0.0,64,0,4,6
195149115,0.01,50.0,4.2799997,0.0,64,0,4,6
195181222,0.01,50.0,4.27,0.0,64,0,4,6
195213114,0.01,50.0,4.2599998,0.0,64,0,4,6
195245133,0.01,50.0,4.25,0.0,64,0,4,6
195277100,0.01,50.0,4.2599998,0.0,0,0,4,6
195309195,0.01,50.0,4.22,0.0,64,0,4,6
195341220,0.01,50.0,4.21,0.0,0,0,4,6
195373165,0.01,50.0,4.21,0.0,64,0,4,6
195405229,0.01,50.0,4.18,0.0,0,0,4,6
195435766,0.01,50.0,4.17,0.0,64,0,4,6
195467806,0.01,50.0,4.14,0.0,4,0,4,6
195499134,0.01,50.0,4.14,0.0,4,0,4,6
195531336,0.01,50.0,4.12,0.0,4,0,4,6
195563367,0.01,50.0,4.08,0.0,4,0,4,6
195595020,0.01,50.0,4.11,0.0,4,0,4,6
195627626,0.01,50.0,4.0699997,0.0,4,0,4,6
195659343,0.01,50.0,4.06,0.0,4,0,4,6
195691046,0.01,50.0,4.0299997,0.0,-68,0,4,6
195723524,0.01,50.0,4.0,0.0,4,0,4,6
195755641,0.01,50.0,4.0,0.0,4,0,4,6
195787013,0.01,50.0,3.9499998,0.0,4,0,4,6
195819769,0.01,50.0,3.85,0.0,4,0,4,6
195852321,0.01,50.0,3.4199998,0.0,4,0,4,6
195884187,0.01,50.0,3.07,0.0,4,0,4,6
195916315,0.01,50.0,2.75,0.0,4,0,4,6
195948319,0.01,50.0,2.69,0.0,4,0,4,6
195980772,0.01,50.0,2.52,0.0,64,0,4,6
196012755,0.01,50.0,2.32,0.0,64,0,4,6
196044570,0.01,50.0,2.1699998,0.0,4,0,4,6
196076758,0.01,50.0,2.06,0.0,64,0,4,6
196107904,0.01,50.0,1.9499999,0.0,4,0,4,6
196140198,0.01,50.0,1.9799999,0.0,4,0,4,6
196172331,0.01,50.0,2.1699998,0.0,4,0,4,6
196203762,0.01,50.0,2.12,0.0,4,0,4,6
196236203,0.01,50.0,2.5,0.0,4,0,4,6
196268307,0.01,50.0,2.82,0.0,4,0,4,6
196299796,0.01,50.0,3.22,0.0,4,0,4,6
196331355,0.01,50.0,3.57,0.0,4,0,4,6
196363704,0.01,50.0,3.61,0.0,4,0,4,6
196395048,0.01,50.0,3.59,0.0,4,0,4,6
196427348,0.01,50.0,3.57,0.0,4,0,4,6
196458978,0.01,50.0,3.56,0.0,4,0,4,6
196491566,0.01,50.0,3.54,0.0,4,0,4,6
196524601,0.01,50.0,3.5,0.0,4,0,4,6
196556196,0.01,50.0,3.47,0.0,4,0,4,6
196588342,0.01,50.0,3.47,0.0,4,0,4,6
196620324,0.01,50.0,3.4399998,0.0,4,0,4,6
196653273,0.01,50.0,3.4199998,0.0,4,0,4,6
196684657,0.01,50.0,3.4099998,0.0,4,0,4,6
196716944,0.01,50.0,3.3799999,0.0,4,0,4,6
196749440,0.01,50.0,3.35,0.0,4,0,4,6
196781746,0.01,50.0,3.33,0.0,64,0,4,6
196813402,0.01,50.0,3.29,0.0,4,0,4,6
196844915,0.01,50.0,3.28,0.0,4,0,4,6
196876912,0.01,50.0,3.24,0.0,0,0,4,6
196908773,0.01,50.0,3.25,0.0,4,0,4,6
196940584,0.01,50.0,3.1999998,0.0,4,0,4,6
196973125,0.01,50.0,3.1799998,0.0,4,0,4,6
197005112,0.01,50.0,3.1499999,0.0,4,0,4,6
197037364,0.01,50.0,3.12,0.0,4,0,4,6
197069793,0.01,50.0,3.09,0.0,4,0,4,6
197101408,0.01,50.0,3.07,0.0,4,0,4,6
197132951,0.01,50.0,3.06,0.0,4,0,4,6
197165916,0.01,50.0,3.03,0.0,4,0,4,6
197199115,0.01,50.0,3.0,0.0,4,0,4,6
197230226,0.01,50.0,2.95,0.0,4,0,4,6
197262255,0.01,50.0,2.9399998,0.0,4,0,4,6
197294161,0.01,50.0,2.9099998,0.0,4,0,4,6
197325340,0.01,50.0,2.8999999,0.0,4,0,4,6
197358237,0.01,50.0,2.87,0.0,4,0,4,6
197390262,0.01,50.0,2.86,0.0,4,0,4,6
197421335,0.01,50.0,2.83,0.0,4,0,4,6
197453378,0.01,50.0,2.8,0.0,4,0,4,6
197485337,0.01,50.0,2.79,0.0,4,0,4,6
197518219,0.01,50.0,2.79,0.0,4,0,4,6
197549713,0.01,50.0,2.79,0.0,4,0,4,6
197581742,0.01,50.0,2.78,0.0,4,0,4,6
197613780,0.01,50.0,2.77,0.0,4,0,4,6
197645738,0.01,50.0,2.77,0.0,4,0,4,6
197677820,0.01,50.0,2.77,0.0,4,0,4,6
197709749,0.01,50.0,2.77,0.0,4,0,4,6
197741559,0.01,50.0,2.79,0.0,4,0,4,6
197773564,0.01,50.0,2.77,0.0,4,0,4,6
197805564,0.01,50.0,2.77,0.0,4,0,4,6
197837786,0.01,50.0,2.76,0.0,4,0,4,6
197869744,0.01,50.0,2.79,0.0,4,0,4,6
197901731,0.01,50.0,2.79,0.0,4,0,4,6
197933751,0.01,50.0,2.78,0.0,4,0,4,6
197965129,0.01,50.0,2.78,0.0,4,0,4,6
197997831,0.01,50.0,2.78,0.0,4,0,4,6
198029569,0.01,50.0,2.77,0.0,4,0,4,6
198061781,0.01,50.0,2.77,0.0,64,0,4,6
198093757,0.01,50.0,2.78,0.0,64,0,4,6
198125795,0.01,50.0,2.78,0.0,64,0,4,6
198157373,0.01,50.0,2.78,0.0,4,0,4,6
198189748,0.01,50.0,2.77,0.0,64,0,4,6
198221756,0.01,50.0,2.77,0.0,64,0,4,6
198253122,0.01,50.0,2.8,0.0,4,0,4,6
198285065,0.01,50.0,2.79,0.0,64,0,4,6
198315807,0.01,50.0,2.77,0.0,64,0,4,6
198347804,0.01,50.0,2.78,0.0,64,0,4,6
198379764,0.01,50.0,2.78,0.0,64,0,4,6
198410916,0.01,50.0,2.77,0.0,-72,0,4,6
198443368,0.01,50.0,2.78,0.0,64,0,4,6
198475745,0.01,50.0,2.77,0.0,64,0,4,6
198506812,0.01,50.0,2.77,0.0,64,0,4,6
198539555,0.01,50.0,2.77,0.0,64,0,4,6
198571752,0.01,50.0,2.79,0.0,64,0,4,6
198603856,0.01,50.0,2.78,0.0,4,0,4,6
198635756,0.01,50.0,2.77,0.0,64,0,4,6
198667084,0.01,50.0,2.78,0.0,64,0,4,6
198699347,0.01,50.0,2.79,0.0,64,0,4,6
198731749,0.01,50.0,2.78,0.0,64,0,4,6
198762866,0.01,50.0,2.78,0.0,4,0,4,6
198795053,0.01,50.0,2.78,0.0,64,0,4,6
198826897,0.01,50.0,2.78,0.0,0,0,4,6
198858897,0.01,50.0,2.78,0.0,64,0,4,6
198891318,0.01,50.0,2.77,0.0,4,0,4,6
198923768,0.01,50.0,2.77,0.0,64,0,4,6
198954903,0.01,50.0,2.78,0.0,0,0,4,6
198986866,0.01,50.0,2.79,0.0,64,0,4,6
199018555,0.01,50.0,2.78,0.0,0,0,4,6
199051026,0.01,50.0,2.79,0.0,64,0,4,6
199082948,0.01,50.0,2.78,0.0,64,0,4,6
199114567,0.01,50.0,2.78,0.0,64,0,4,6
199147166,0.01,50.0,2.78,0.0,64,0,4,6
199179013,0.01,50.0,2.78,0.0,4,0,4,6
199211319,0.01,50.0,2.78,0.0,4,0,4,6
199242836,0.01,50.0,2.77,0.0,64,0,4,6
199275079,0.01,50.0,2.79,0.0,64,0,4,6
199308141,0.01,50.0,2.76,0.0,4,0,4,6
199339792,0.01,50.0,2.79,0.0,64,0,4,6
199371017,0.01,50.0,2.78,0.0,4,0,4,6
199403400,0.01,50.0,2.78,0.0,64,0,4,6
199435794,0.01,50.0,2.78,0.0,0,0,4,6
199467051,0.01,50.0,2.78,0.0,64,0,4,6
199498911,0.01,50.0,2.78,0.0,64,0,4,6
199530895,0.01,50.0,2.79,0.0,0,0,4,6
199562907,0.01,50.0,2.79,0.0,0,0,4,6
199593891,0.01,50.0,2.79,0.0,64,0,4,6
199625788,0.01,50.0,2.77,0.0,0,0,4,6
199657948,0.01,50.0,2.76,0.0,64,0,4,6
199689742,0.01,50.0,2.77,0.0,64,0,4,6
199721934,0.01,50.0,2.77,0.0,-72,0,4,6
199753769,0.01,50.0,2.78,0.0,52,0,4,6
199785742,0.01,50.0,2.78,0.0,64,0,4,6
199817993,0.01,50.0,2.78,0.0,64,0,4,6
199849755,0.01,50.0,2.78,0.0,64,0,4,6
199881959,0.01,50.0,2.77,0.0,64,0,4,6
199913919,0.01,50.0,2.77,0.0,64,0,4,6
199945797,0.01,50.0,2.78,0.0,64,0,4,6
199977944,0.01,50.0,2.77,0.0,64,0,4,6
200009936,0.01,50.0,2.78,0.0,64,0,4,6
200041803,0.01,50.0,2.77,0.0,64,0,4,6
200073758,0.01,50.0,2.78,0.0,64,0,4,6
200105749,0.01,50.0,2.8,0.0,64,0,4,6
200138012,0.01,50.0,2.79,0.0,64,0,4,6
200169795,0.01,50.0,2.77,0.0,64,0,4,6
200201940,0.01,50.0,2.78,0.0,64,0,4,6
200233267,0.01,50.0,2.78,0.0,4,0,4,6
200265766,0.01,50.0,2.79,0.0,64,0,4,6
200298002,0.01,50.0,2.78,0.0,64,0,4,6
200329771,0.01,50.0,2.78,0.0,64,0,4,6
200361913,0.01,50.0,2.79,0.0,64,0,4,6
200393774,0.01,50.0,2.78,0.0,64,0,4,6
200425980,0.01,50.0,2.78,0.0,52,0,4,6
200457946,0.01,50.0,2.78,0.0,64,0,4,6
200489742,0.01,50.0,2.79,0.0,64,0,4,6
200521754,0.01,50.0,2.78,0.0,64,0,4,6
200553826,0.01,50.0,2.77,0.0,64,0,4,6
200585812,0.01,50.0,2.78,0.0,64,0,4,6
200618015,0.01,50.0,2.77,0.0,64,0,4,6
200649138,0.01,50.0,2.78,0.0,64,0,4,6
200681214,0.01,50.0,2.78,0.0,0,0,4,6
200713237,0.01,50.0,2.77,0.0,64,0,4,6
200745206,0.01,50.0,2.77,0.0,64,0,4,6
200777117,0.01,50.0,2.76,0.0,64,0,4,6
200809096,0.01,50.0,2.78,0.0,64,0,4,6
200841112,0.01,50.0,2.77,0.0,64,0,4,6
200873118,0.01,50.0,2.77,0.0,64,0,4,6
200905172,0.01,50.0,2.77,0.0,64,0,4,6
200937329,0.01,50.0,2.77,0.0,64,0,4,6
200969135,0.01,50.0,2.76,0.0,64,0,4,6
200999830,0.01,50.0,2.78,0.0,4,0,4,6
201031756,0.01,50.0,2.78,0.0,-68,0,4,6
201062937,0.01,50.0,2.78,0.0,4,0,4,6
201095341,0.01,50.0,2.78,0.0,4,0,4,6
201127347,0.01,50.0,2.78,0.0,4,0,4,6
201158950,0.01,50.0,2.78,0.0,4,0,4,6
201191321,0.01,50.0,2.75,0.0,4,0,4,6
201222174,0.01,50.0,2.76,0.0,4,0,4,6
201254242,0.01,50.0,2.78,0.0,4,0,4,6
201287333,0.01,50.0,2.77,0.0,4,0,4,6
201319788,0.01,50.0,2.78,0.0,64,0,4,6
201351338,0.01,50.0,2.77,0.0,4,0,4,6
201383742,0.01,50.0,2.77,0.0,64,0,4,6
201415760,0.01,50.0,2.76,0.0,64,0,4,6
201447358,0.01,50.0,2.79,0.0,64,0,4,6
201479738,0.01,50.0,2.78,0.0,64,0,4,6
201512092,0.01,50.0,2.77,0.0,64,0,4,6
201543377,0.01,50.0,2.77,0.0,64,0,4,6
201576115,0.01,50.0,2.76,0.0,64,0,4,6
201607827,0.01,50.0,2.77,0.0,64,0,4,6
201640142,0.01,50.0,2.78,0.0,64,0,4,6
201671751,0.01,50.0,2.78,0.0,64,0,4,6
201703802,0.01,50.0,2.77,0.0,64,0,4,6
201735742,0.01,50.0,2.76,0.0,64,0,4,6
201768322,0.01,50.0,2.78,0.0,64,0,4,6
201800745,0.01,50.0,2.75,0.0,64,0,4,6
201832192,0.01,50.0,2.77,0.0,64,0,4,6
201863770,0.01,50.0,2.78,0.0,64,0,4,6
201895870,0.01,50.0,2.76,0.0,64,0,4,6
201928264,0.01,50.0,2.76,0.0,64,0,4,6
201959754,0.01,50.0,2.77,0.0,64,0,4,6
201991346,0.01,50.0,2.77,0.0,64,0,4,6
202023769,0.01,50.0,2.78,0.0,64,0,4,6
202055846,0.01,50.0,2.78,0.0,64,0,4,6
202087313,0.01,50.0,2.77,0.0,4,0,4,6
202119944,0.01,50.0,2.76,0.0,64,0,4,6
202151770,0.01,50.0,2.76,0.0,64,0,4,6
202183969,0.01,50.0,2.77,0.0,64,0,4,6
202216604,0.01,50.0,2.77,0.0,64,0,4,6
202248748,0.01,50.0,2.77,0.0,64,0,4,6
202280308,0.01,50.0,2.77,0.0,64,0,4,6
202312755,0.01,50.0,2.75,0.0,64,0,4,6
202344996,0.01,50.0,2.75,0.0,0,0,4,6
202376315,0.01,50.0,2.74,0.0,64,0,4,6
202408753,0.01,50.0,2.74,0.0,64,0,4,6
202440937,0.01,50.0,2.71,0.0,56,0,4,6
202472344,0.01,50.0,2.73,0.0,64,0,4,6
202504647,0.01,50.0,2.72,0.0,4,0,4,6
202536910,0.01,50.0,2.71,0.0,0,0,4,6
202568560,0.01,50.0,2.71,0.0,64,0,4,6
202600383,0.01,50.0,2.7,0.0,64,0,4,6
202632315,0.01,50.0,2.6799998,0.0,64,0,4,6
202664382,0.01,50.0,2.69,0.0,64,0,4,6
202696754,0.01,50.0,2.6799998,0.0,64,0,4,6
202728763,0.01,50.0,2.6599998,0.0,64,0,4,6
202760341,0.01,50.0,2.6699998,0.0,64,0,4,6
202792748,0.01,50.0,2.6299999,0.0,0,0,4,6
202824293,0.01,50.0,2.6299999,0.0,64,0,4,6
202856325,0.01,50.0,2.62,0.0,64,0,4,6
202888971,0.01,50.0,2.59,0.0,64,0,4,6
202920745,0.01,50.0,2.56,0.0,64,0,4,6
202952752,0.01,50.0,2.53,0.0,0,0,4,6
202984473,0.01,50.0,2.51,0.0,64,0,4,6
203016605,0.01,50.0,2.52,0.0,4,0,4,6
203048741,0.01,50.0,2.5,0.0,64,0,4,6
203080480,0.01,50.0,2.47,0.0,0,0,4,6
203112748,0.01,50.0,2.47,0.0,64,0,4,6
203144758,0.01,50.0,2.44,0.0,56,0,4,6
203175747,0.01,50.0,2.4299998,0.0,64,0,4,6
203207807,0.01,50.0,2.3999999,0.0,0,0,4,6
203239823,0.01,50.0,2.3999999,0.0,64,0,4,6
203271747,0.01,50.0,2.37,0.0,64,0,4,6
203302945,0.01,50.0,2.36,0.0,0,0,4,6
203334856,0.01,50.0,2.35,0.0,64,0,4,6
203367154,0.01,50.0,2.31,0.0,64,0,4,6
203399742,0.01,50.0,2.32,0.0,64,0,4,6
203431359,0.01,50.0,2.3,0.0,4,0,4,6
203463711,0.01,50.0,2.3,0.0,4,0,4,6
203494870,0.01,50.0,2.3,0.0,0,0,4,6
203526825,0.01,50.0,2.27,0.0,0,0,4,6
203558880,0.01,50.0,2.25,0.0,64,0,4,6
203590504,0.01,50.0,2.27,0.0,0,0,4,6
203623054,0.01,50.0,2.27,0.0,64,0,4,6
203654853,0.01,50.0,2.26,0.0,64,0,4,6
203686517,0.01,50.0,2.24,0.0,4,0,4,6
203719047,0.01,50.0,2.24,0.0,64,0,4,6
203750879,0.01,50.0,2.23,0.0,64,0,4,6
203782535,0.01,50.0,2.22,0.0,4,0,4,6
203816152,0.01,50.0,2.2,0.0,4,0,4,6
203847800,0.01,50.0,2.21,0.0,64,0,4,6
203879767,0.01,50.0,2.19,0.0,64,0,4,6
203911424,0.01,50.0,2.2,0.0,0,0,4,6
203943766,0.01,50.0,2.18,0.0,0,0,4,6
203974935,0.01,50.0,2.1499999,0.0,0,0,4,6
204005797,0.01,50.0,2.1699998,0.0,64,0,4,6
204037969,0.01,50.0,2.1399999,0.0,0,0,4,6
204069741,0.01,50.0,2.1399999,0.0,64,0,4,6
204101766,0.01,50.0,2.12,0.0,64,0,4,6
204132898,0.01,50.0,2.1,0.0,64,0,4,6
204164485,0.01,50.0,2.1,0.0,0,0,4,6
204196510,0.01,50.0,2.05,0.0,64,0,4,6
204228343,0.01,50.0,2.07,0.0,64,0,4,6
204260521,0.01,50.0,2.05,0.0,64,0,4,6
204292646,0.01,50.0,2.04,0.0,64,0,4,6
204324527,0.01,50.0,2.01,0.0,64,0,4,6
204356683,0.01,50.0,1.99,0.0,-72,0,4,6
204388234,0.01,50.0,1.9799999,0.0,64,0,4,6
204420447,0.01,50.0,1.9599999,0.0,0,0,4,6
204452678,0.01,50.0,1.9399999,0.0,64,0,4,6
204484974,0.01,50.0,1.92,0.0,64,0,4,6
204516300,0.01,50.0,1.9,0.0,64,0,4,6
204548337,0.01,50.0,1.87,0.0,0,0,4,6
204580943,0.01,50.0,1.86,0.0,64,0,4,6
204612200,0.01,50.0,1.8399999,0.0,64,0,4,6
204644148,0.01,50.0,1.8199999,0.0,64,0,4,6
204676765,0.01,50.0,1.8199999,0.0,64,0,4,6
204708918,0.01,50.0,1.78,0.0,64,0,4,6
204740373,0.01,50.0,1.77,0.0,0,0,4,6
204773428,0.01,50.0,1.76,0.0,64,0,4,6
204804764,0.01,50.0,1.74,0.0,64,0,4,6
204836122,0.01,50.0,1.7099999,0.0,64,0,4,6
204867371,0.01,50.0,1.7199999,0.0,4,0,4,6
204899841,0.01,50.0,1.6999999,0.0,4,0,4,6
204932694,0.01,50.0,1.68,0.0,4,0,4,6
204964720,0.01,50.0,1.68,0.0,4,0,4,6
204996905,0.01,50.0,1.68,0.0,4,0,4,6
205028967,0.01,50.0,1.67,0.0,4,0,4,6
205061257,0.01,50.0,1.66,0.0,0,0,4,6
205093156,0.01,50.0,1.64,0.0,0,0,4,6
205125297,0.01,50.0,1.64,0.0,64,0,4,6
205157169,0.01,50.0,1.63,0.0,0,0,4,6
205189122,0.01,50.0,1.61,0.0,64,0,4,6
205220977,0.01,50.0,1.61,0.0,64,0,4,6
205251803,0.01,50.0,1.5799999,0.0,4,0,4,6
205283859,0.01,50.0,1.5799999,0.0,4,0,4,6
205315838,0.01,50.0,1.56,0.0,4,0,4,6
205347618,0.01,50.0,1.56,0.0,4,0,4,6
205379122,0.01,50.0,1.56,0.0,4,0,4,6
205410900,0.01,50.0,1.55,0.0,4,0,4,6
205443320,0.01,50.0,1.54,0.0,4,0,4,6
205475678,0.01,50.0,1.53,0.0,4,0,4,6
205507954,0.01,50.0,1.53,0.0,4,0,4,6
205539491,0.01,50.0,1.51,0.0,4,0,4,6
205571734,0.01,50.0,1.52,0.0,4,0,4,6
205603961,0.01,50.0,1.51,0.0,4,0,4,6
205635798,0.01,50.0,1.5,0.0,4,0,4,6
205667813,0.01,50.0,1.49,0.0,4,0,4,6
205699756,0.01,50.0,1.48,0.0,4,0,4,6
205732558,0.01,50.0,1.4699999,0.0,4,0,4,6
205764883,0.01,50.0,1.48,0.0,4,0,4,6
205796354,0.01,50.0,1.4699999,0.0,4,0,4,6
205828952,0.01,50.0,1.4699999,0.0,4,0,4,6
205860628,0.01,50.0,1.4599999,0.0,4,0,4,6
205892532,0.01,50.0,1.4399999,0.0,4,0,4,6
205924574,0.01,50.0,1.4499999,0.0,4,0,4,6
205957456,0.01,50.0,1.4499999,0.0,4,0,4,6
205990323,0.01,50.0,1.4499999,0.0,4,0,4,6
206022786,0.01,50.0,1.4499999,0.0,4,0,4,6
206054947,0.01,50.0,1.4499999,0.0,4,0,4,6
206087343,0.01,50.0,1.4399999,0.0,4,0,4,6
206119357,0.01,50.0,1.4699999,0.0,4,0,4,6
206150929,0.01,50.0,1.4599999,0.0,4,0,4,6
206183376,0.01,50.0,1.49,0.0,4,0,4,6
206214927,0.01,50.0,1.49,0.0,4,0,4,6
206247361,0.01,50.0,1.5,0.0,4,0,4,6
206279362,0.01,50.0,1.5,0.0,4,0,4,6
206311317,0.01,50.0,1.5,0.0,4,0,4,6
206343360,0.01,50.0,1.53,0.0,4,0,4,6
206375105,0.01,50.0,1.53,0.0,4,0,4,6
206407350,0.01,50.0,1.54,0.0,4,0,4,6
206439080,0.01,50.0,1.54,0.0,4,0,4,6
206471335,0.01,50.0,1.56,0.0,4,0,4,6
206503364,0.01,50.0,1.53,0.0,4,0,4,6
206535349,0.01,50.0,1.54,0.0,4,0,4,6
206567512,0.01,50.0,1.54,0.0,4,0,4,6
206598885,0.01,50.0,1.55,0.0,4,0,4,6
206630934,0.01,50.0,1.53,0.0,64,0,4,6
206662876,0.01,50.0,1.55,0.0,64,0,4,6
206693766,0.01,50.0,1.55,0.0,4,0,4,6
206725940,0.01,50.0,1.56,0.0,4,0,4,6
206758160,0.01,50.0,1.55,0.0,4,0,4,6
206789785,0.01,50.0,1.56,0.0,4,0,4,6
206821868,0.01,50.0,1.56,0.0,4,0,4,6
206853940,0.01,50.0,1.56,0.0,4,0,4,6
206885870,0.01,50.0,1.5799999,0.0,4,0,4,6
206917830,0.01,50.0,1.5899999,0.0,4,0,4,6
206949738,0.01,50.0,1.5799999,0.0,4,0,4,6
206982112,0.01,50.0,1.5999999,0.0,4,0,4,6
207013939,0.01,50.0,1.63,0.0,4,0,4,6
207045403,0.01,50.0,1.65,0.0,4,0,4,6
207077800,0.01,50.0,1.67,0.0,4,0,4,6
207109812,0.01,50.0,1.6999999,0.0,4,0,4,6
207141783,0.01,50.0,1.73,0.0,4,0,4,6
207173380,0.01,50.0,1.77,0.0,4,0,4,6
207205912,0.01,50.0,1.8,0.0,4,0,4,6
207238115,0.01,50.0,1.8199999,0.0,4,0,4,6
207269957,0.01,50.0,1.87,0.0,4,0,4,6
207301934,0.01,50.0,1.93,0.0,4,0,4,6
207333912,0.01,50.0,2.0,0.0,4,0,4,6
207365999,0.01,50.0,2.05,0.0,4,0,4,6
207398009,0.01,50.0,2.12,0.0,4,0,4,6
207429744,0.01,50.0,2.18,0.0,4,0,4,6
207462104,0.01,50.0,2.23,0.0,4,0,4,6
207494555,0.01,50.0,2.32,0.0,4,0,4,6
207526636,0.01,50.0,2.3899999,0.0,4,0,4,6
207558529,0.01,50.0,2.48,0.0,4,0,4,6
207590540,0.01,50.0,2.59,0.0,4,0,4,6
207622558,0.01,50.0,2.7,0.0,4,0,4,6
207654613,0.01,50.0,2.81,0.0,4,0,4,6
207686597,0.01,50.0,2.82,0.0,4,0,4,6
207718845,0.01,50.0,2.97,0.0,64,0,4,6
207750920,0.01,50.0,3.1699998,0.0,64,0,4,6
207781928,0.01,50.0,3.32,0.0,64,0,4,6
207814040,0.01,50.0,3.46,0.0,0,0,4,6
207846146,0.01,50.0,3.61,0.0,0,0,4,6
207878076,0.01,50.0,3.73,0.0,0,0,4,6
207910077,0.01,50.0,3.8999999,0.0,4,0,4,6
207941914,0.01,50.0,4.0699997,0.0,64,0,4,6
207972749,0.01,50.0,4.23,0.0,4,0,4,6
208004604,0.01,50.0,4.41,0.0,4,0,4,6
208036750,0.01,50.0,4.61,0.0,4,0,4,6
208069540,0.01,50.0,4.81,0.0,4,0,4,6
208101837,0.01,50.0,5.24,0.0,4,0,4,6
208133910,0.01,50.0,5.5,0.0,4,0,4,6
208165909,0.01,50.0,5.6299996,0.0,4,0,4,6
208196755,0.01,50.0,5.9,0.0,4,0,4,6
208227931,0.01,50.0,6.14,0.0,4,0,4,6
208260594,0.01,50.0,6.3599997,0.0,4,0,4,6
208291824,0.01,50.0,6.5699997,0.0,4,0,4,6
208324556,0.01,50.0,6.73,0.0,4,0,4,6
208356890,0.01,50.0,6.8799996,0.0,4,0,4,6
208388446,0.01,50.0,6.99,0.0,4,0,4,6
208421112,0.01,50.0,7.1299996,0.0,4,0,4,6
208452559,0.01,50.0,7.24,0.0,4,0,4,6
208484737,0.01,50.0,7.3599997,0.0,4,0,4,6
208516949,0.01,50.0,7.46,0.0,4,0,4,6
208548652,0.01,50.0,7.52,0.0,4,0,4,6
208581130,0.01,50.0,7.5699997,0.0,4,0,4,6
208612346,0.01,50.0,7.66,0.0,4,0,4,6
208644975,0.01,50.0,7.73,0.0,4,0,4,6
208676583,0.01,50.0,7.8199997,0.0,4,0,4,6
208708419,0.01,50.0,7.85,0.0,4,0,4,6
208740326,0.01,50.0,7.89,0.0,4,0,4,6
208773538,0.01,50.0,7.98,0.0,4,0,4,6
208806667,0.01,50.0,8.07,0.0,4,0,4,6
208839325,0.01,50.0,8.179999,0.0,4,0,4,6
208871682,0.01,50.0,8.2699995,0.0,4,0,4,6
208902992,0.01,50.0,8.3,0.0,4,0,4,6
208935339,0.01,50.0,8.389999,0.0,4,0,4,6
208967075,0.01,50.0,8.41,0.0,4,0,4,6
208999130,0.01,50.0,8.53,0.0,4,0,4,6
209031349,0.01,50.0,8.58,0.0,4,0,4,6
209063341,0.01,50.0,8.58,0.0,4,0,4,6
209095354,0.01,50.0,8.599999,0.0,4,0,4,6
209127420,0.01,50.0,8.59,0.0,4,0,4,6
209159497,0.01,50.0,8.59,0.0,4,0,4,6
209191360,0.01,50.0,8.57,0.0,4,0,4,6
209223490,0.01,50.0,8.59,0.0,4,0,4,6
209255421,0.01,50.0,8.599999,0.0,4,0,4,6
209287384,0.01,50.0,8.71,0.0,4,0,4,6
209319106,0.01,50.0,8.809999,0.0,4,0,4,6
209350905,0.01,50.0,8.889999,0.0,4,0,4,6
209383376,0.01,50.0,9.0,0.0,4,0,4,6
209415344,0.01,50.0,9.13,0.0,4,0,4,6
209447020,0.01,50.0,9.139999,0.0,4,0,4,6
209479088,0.01,50.0,8.98,0.0,4,0,4,6
209510976,0.01,50.0,8.99,0.0,4,0,4,6
209542537,0.01,50.0,9.01,0.0,4,0,4,6
209574693,0.01,50.0,8.99,0.0,4,0,4,6
209606710,0.01,50.0,8.97,0.0,4,0,4,6
209638942,0.01,50.0,8.97,0.0,4,0,4,6
209670514,0.01,50.0,9.0199995,0.0,4,0,4,6
209702203,0.01,50.0,9.099999,0.0,4,0,4,6
209734563,0.01,50.0,9.2,0.0,4,0,4,6
209766309,0.01,50.0,9.24,0.0,4,0,4,6
209799019,0.01,50.0,9.429999,0.0,4,0,4,6
209830719,0.01,50.0,9.51,0.0,4,0,4,6
209863136,0.01,50.0,9.55,0.0,4,0,4,6
209896321,0.01,50.0,9.7,0.0,64,0,4,6
209928752,0.01,50.0,9.78,0.0,64,0,4,6
209960407,0.01,50.0,9.94,0.0,4,0,4,6
209992361,0.01,50.0,10.2,0.0,64,0,4,6
210024473,0.01,50.0,10.309999,0.0,64,0,4,6
210056608,0.01,50.0,10.5,0.0,4,0,4,6
210088759,0.01,50.0,10.65,0.0,64,0,4,6
210120364,0.01,50.0,10.79,0.0,64,0,4,6
210152613,0.01,50.0,10.91,0.0,4,0,4,6
210184782,0.01,50.0,11.0199995,0.0,64,0,4,6
210216448,0.01,50.0,11.099999,0.0,64,0,4,6
210248940,0.01,50.0,11.15,0.0,64,0,4,6
210280317,0.01,50.0,11.34,0.0,64,0,4,6
210312319,0.01,50.0,11.42,0.0,64,0,4,6
210343073,0.01,50.0,11.5,0.0,4,0,4,6
210375027,0.01,50.0,11.57,0.0,4,0,4,6
210407891,0.01,50.0,11.75,0.0,4,0,4,6
210439745,0.01,50.0,11.969999,0.0,4,0,4,6
210471389,0.01,50.0,12.21,0.0,4,0,4,6
210503784,0.01,50.0,12.389999,0.0,4,0,4,6
210536569,0.01,50.0,12.48,0.0,4,0,4,6
210569575,0.01,50.0,12.53,0.0,4,0,4,6
210601927,0.01,50.0,12.61,0.0,4,0,4,6
210633803,0.01,50.0,12.61,0.0,64,0,4,6
210665914,0.01,50.0,12.73,0.0,64,0,4,6
210696773,0.01,50.0,12.74,0.0,64,0,4,6
210729769,0.01,50.0,12.87,0.0,4,0,4,6
210761972,0.01,50.0,12.87,0.0,4,0,4,6
210793970,0.01,50.0,12.91,0.0,4,0,4,6
210825955,0.01,50.0,13.009999,0.0,64,0,4,6
210858346,0.01,50.0,13.09,0.0,4,0,4,6
210890848,0.01,50.0,13.11,0.0,0,0,4,6
210922827,0.01,50.0,13.219999,0.0,0,0,4,6
210954971,0.01,50.0,13.25,0.0,0,0,4,6
210986093,0.01,50.0,13.33,0.0,64,0,4,6
211018187,0.01,50.0,13.41,0.0,0,0,4,6
211050014,0.01,50.0,13.45,0.0,64,0,4,6
211080750,0.01,50.0,13.48,0.0,4,0,4,6
211113575,0.01,50.0,13.57,0.0,4,0,4,6
211145919,0.01,50.0,13.62,0.0,4,0,4,6
211178054,0.01,50.0,13.67,0.0,0,0,4,6
211209783,0.01,50.0,13.71,0.0,4,0,4,6
211242624,0.01,50.0,13.759999,0.0,64,0,4,6
211274838,0.01,50.0,13.809999,0.0,64,0,4,6
211306993,0.01,50.0,13.929999,0.0,64,0,4,6
211338826,0.01,50.0,14.0,0.0,0,0,4,6
211370891,0.01,50.0,14.059999,0.0,0,0,4,6
211402872,0.01,50.0,14.219999,0.0,0,0,4,6
211434945,0.01,50.0,14.42,0.0,64,0,4,6
211466638,0.01,50.0,14.54,0.0,4,0,4,6
211498839,0.01,50.0,14.63,0.0,64,0,4,6
211531027,0.01,50.0,14.759999,0.0,64,0,4,6
211562945,0.01,50.0,14.75,0.0,0,0,4,6
211594931,0.01,50.0,14.78,0.0,64,0,4,6
211626936,0.01,50.0,14.799999,0.0,0,0,4,6
211658952,0.01,50.0,14.83,0.0,4,0,4,6
211690945,0.01,50.0,15.17,0.0,0,0,4,6
211722924,0.01,50.0,15.389999,0.0,64,0,4,6
211754927,0.01,50.0,15.54,0.0,4,0,4,6
211786637,0.01,50.0,15.639999,0.0,4,0,4,6
211819127,0.01,50.0,15.75,0.0,4,0,4,6
211851324,0.01,50.0,15.91,0.0,4,0,4,6
211883315,0.01,50.0,16.02,0.0,4,0,4,6
211915315,0.01,50.0,16.15,0.0,4,0,4,6
211947380,0.01,50.0,16.21,0.0,4,0,4,6
211979405,0.01,50.0,16.279999,0.0,4,0,4,6
213166199,0.01,50.0,17.289999,0.0,4,0,4,6
213198582,0.01,50.0,17.289999,0.0,4,0,4,6
213485937,0.01,50.0,17.279999,0.0,64,0,4,6
213518099,0.01,50.0,17.3,0.0,-68,0,4,6
213549953,0.01,50.0,17.3,0.0,64,0,4,6
213581995,0.01,50.0,17.23,0.0,64,0,4,6
213613925,0.01,50.0,17.289999,0.0,64,0,4,6
213645900,0.01,50.0,17.369999,0.0,64,0,4,6
213677975,0.01,50.0,17.31,0.0,64,0,4,6
213709928,0.01,50.0,17.279999,0.0,64,0,4,6
213741811,0.01,50.0,17.279999,0.0,64,0,4,6
213773938,0.01,50.0,17.26,0.0,64,0,4,6
213805974,0.01,50.0,17.24,0.0,64,0,4,6
213838282,0.01,50.0,17.19,0.0,0,0,4,6
213869929,0.01,50.0,17.17,0.0,64,0,4,6
213901889,0.01,50.0,17.16,0.0,64,0,4,6
213933937,0.01,50.0,17.15,0.0,64,0,4,6
213966045,0.01,50.0,17.25,0.0,0,0,4,6
213996775,0.01,50.0,17.17,0.0,64,0,4,6
214027804,0.01,50.0,17.08,0.0,4,0,4,6
214060171,0.01,50.0,16.699999,0.0,4,0,4,6
214092120,0.01,50.0,16.42,0.0,4,0,4,6
214123806,0.01,50.0,16.19,0.0,4,0,4,6
214156923,0.01,50.0,16.369999,0.0,4,0,4,6
214189356,0.01,50.0,16.19,0.0,4,0,4,6
214220958,0.01,50.0,16.07,0.0,4,0,4,6
214253368,0.01,50.0,16.47,0.0,4,0,4,6
214284771,0.01,50.0,16.63,0.0,4,0,4,6
214317118,0.01,50.0,16.73,0.0,4,0,4,6
214349406,0.01,50.0,16.619999,0.0,4,0,4,6
214381286,0.01,50.0,16.449999,0.0,4,0,4,6
214412582,0.01,50.0,16.08,0.0,4,0,4,6
214445162,0.01,50.0,15.559999,0.0,4,0,4,6
214476605,0.01,50.0,15.03,0.0,4,0,4,6
214508578,0.01,50.0,14.87,0.0,4,0,4,6
214541357,0.01,50.0,14.559999,0.0,4,0,4,6
214573305,0.01,50.0,14.5,0.0,4,0,4,6
214605000,0.01,50.0,14.32,0.0,4,0,4,6
214637984,0.01,50.0,14.32,0.0,4,0,4,6
214670206,0.01,50.0,14.33,0.0,4,0,4,6
214702188,0.01,50.0,14.37,0.0,4,0,4,6
214733398,0.01,50.0,14.54,0.0,4,0,4,6
214765365,0.01,50.0,14.62,0.0,4,0,4,6
214797423,0.01,50.0,14.7699995,0.0,4,0,4,6
214829460,0.01,50.0,14.839999,0.0,4,0,4,6
214861381,0.01,50.0,14.759999,0.0,4,0,4,6
214893374,0.01,50.0,14.639999,0.0,4,0,4,6
214925338,0.01,50.0,14.759999,0.0,4,0,4,6
214957229,0.01,50.0,15.5,0.0,4,0,4,6
214989769,0.01,50.0,15.03,0.0,4,0,4,6
215021794,0.01,50.0,14.9,0.0,64,0,4,6
215053759,0.01,50.0,14.759999,0.0,64,0,4,6
215085113,0.01,50.0,14.57,0.0,17,0,4,6
215117158,0.01,50.0,14.599999,0.0,64,0,4,6
215149219,0.01,50.0,14.4,0.0,64,0,4,6
215181149,0.01,50.0,14.46,0.0,0,0,4,6
215213214,0.01,50.0,14.309999,0.0,0,0,4,6
215245256,0.01,50.0,14.12,0.0,64,0,4,6
215277103,0.01,50.0,14.099999,0.0,64,0,4,6
215309096,0.01,50.0,14.099999,0.0,64,0,4,6
215341118,0.01,50.0,14.2,0.0,0,0,4,6
215373281,0.01,50.0,14.38,0.0,64,0,4,6
215405127,0.01,50.0,14.73,0.0,64,0,4,6
215437337,0.01,50.0,15.009999,0.0,4,0,4,6
215469893,0.01,50.0,15.11,0.0,64,0,4,6
215501324,0.01,50.0,14.57,0.0,64,0,4,6
215533758,0.01,50.0,14.259999,0.0,64,0,4,6
215565746,0.01,50.0,14.58,0.0,64,0,4,6
215597127,0.01,50.0,14.96,0.0,64,0,4,6
215629154,0.01,50.0,15.95,0.0,0,0,4,6
215661100,0.01,50.0,15.969999,0.0,64,0,4,6
215691749,0.01,50.0,15.98,0.0,0,0,4,6
215722938,0.01,50.0,16.279999,0.0,4,0,4,6
215755390,0.01,50.0,16.81,0.0,4,0,4,6
215786853,0.01,50.0,16.43,0.0,4,0,4,6
215818981,0.01,50.0,16.76,0.0,4,0,4,6
215852580,0.01,50.0,16.8,0.0,4,0,4,6
215883785,0.01,50.0,16.109999,0.0,4,0,4,6
215916617,0.01,50.0,16.25,0.0,4,0,4,6
215948404,0.01,50.0,16.369999,0.0,4,0,4,6
215979848,0.01,50.0,15.49,0.0,4,0,4,6
216012537,0.01,50.0,15.339999,0.0,4,0,4,6
216044266,0.01,50.0,15.17,0.0,4,0,4,6
216075833,0.01,50.0,14.57,0.0,4,0,4,6
216108296,0.01,50.0,14.45,0.0,4,0,4,6
216140598,0.01,50.0,13.99,0.0,4,0,4,6
216171818,0.01,50.0,13.86,0.0,4,0,4,6
216203972,0.01,50.0,13.799999,0.0,4,0,4,6
216236429,0.01,50.0,13.87,0.0,4,0,4,6
216268346,0.01,50.0,13.92,0.0,4,0,4,6
216300623,0.01,50.0,13.98,0.0,4,0,4,6
216331802,0.01,50.0,13.94,0.0,4,0,4,6
216364322,0.01,50.0,13.679999,0.0,4,0,4,6
216396553,0.01,50.0,13.469999,0.0,4,0,4,6
216427951,0.01,50.0,13.219999,0.0,4,0,4,6
216460570,0.01,50.0,13.309999,0.0,4,0,4,6
216492346,0.01,50.0,13.66,0.0,4,0,4,6
216524684,0.01,50.0,15.42,0.0,4,0,4,6
216556379,0.01,50.0,15.33,0.0,4,0,4,6
216588386,0.01,50.0,15.42,0.0,4,0,4,6
216620513,0.01,50.0,15.33,0.0,4,0,4,6
216652229,0.01,50.0,15.38,0.0,4,0,4,6
216684186,0.01,50.0,15.23,0.0,4,0,4,6
216717143,0.01,50.0,15.2699995,0.0,4,0,4,6
216749445,0.01,50.0,15.16,0.0,64,0,4,6
216780947,0.01,50.0,15.11,0.0,64,0,4,6
216813606,0.01,50.0,15.049999,0.0,64,0,4,6
216845128,0.01,50.0,14.94,0.0,64,0,4,6
216878075,0.01,50.0,15.0,0.0,0,0,4,6
216908992,0.01,50.0,14.929999,0.0,64,0,4,6
216941737,0.01,50.0,14.88,0.0,64,0,4,6
216973937,0.01,50.0,14.809999,0.0,0,0,4,6
217005766,0.01,50.0,14.65,0.0,64,0,4,6
217038043,0.01,50.0,14.58,0.0,64,0,4,6
217069509,0.01,50.0,14.44,0.0,64,0,4,6
217100928,0.01,50.0,14.37,0.0,64,0,4,6
217133094,0.01,50.0,14.259999,0.0,64,0,4,6
217165777,0.01,50.0,14.11,0.0,0,0,4,6
217196959,0.01,50.0,14.13,0.0,64,0,4,6
217229873,0.01,50.0,14.07,0.0,4,0,4,6
217261751,0.01,50.0,14.0199995,0.0,0,0,4,6
217292939,0.01,50.0,13.9,0.0,64,0,4,6
217325475,0.01,50.0,13.83,0.0,64,0,4,6
217358022,0.01,50.0,13.78,0.0,0,0,4,6
217389490,0.01,50.0,13.74,0.0,64,0,4,6
217421747,0.01,50.0,13.62,0.0,64,0,4,6
217453389,0.01,50.0,13.66,0.0,64,0,4,6
217485005,0.01,50.0,13.549999,0.0,64,0,4,6
217517951,0.01,50.0,13.5199995,0.0,0,0,4,6
217549741,0.01,50.0,13.48,0.0,64,0,4,6
217581251,0.01,50.0,13.46,0.0,0,0,4,6
217613183,0.01,50.0,13.41,0.0,0,0,4,6
217645119,0.01,50.0,13.38,0.0,64,0,4,6
217675752,0.01,50.0,13.389999,0.0,64,0,4,6
217707801,0.01,50.0,13.309999,0.0,64,0,4,6
217738857,0.01,50.0,13.33,0.0,0,0,4,6
217769926,0.01,50.0,13.29,0.0,0,0,4,6
217802572,0.01,50.0,13.29,0.0,64,0,4,6
217834914,0.01,50.0,13.2699995,0.0,64,0,4,6
217866341,0.01,50.0,13.219999,0.0,64,0,4,6
217898837,0.01,50.0,13.24,0.0,64,0,4,6
217930857,0.01,50.0,13.24,0.0,64,0,4,6
217962916,0.01,50.0,13.29,0.0,64,0,4,6
217995180,0.01,50.0,13.309999,0.0,4,0,4,6
218027868,0.01,50.0,13.2,0.0,64,0,4,6
218058810,0.01,50.0,13.17,0.0,64,0,4,6
218090803,0.01,50.0,13.19,0.0,64,0,4,6
218122827,0.01,50.0,13.2,0.0,64,0,4,6
218154108,0.01,50.0,13.219999,0.0,0,0,4,6
218185936,0.01,50.0,13.21,0.0,64,0,4,6
218217971,0.01,50.0,13.19,0.0,64,0,4,6
218250164,0.01,50.0,13.24,0.0,64,0,4,6
218281890,0.01,50.0,13.259999,0.0,64,0,4,6
218313763,0.01,50.0,13.29,0.0,64,0,4,6
218345715,0.01,50.0,13.23,0.0,64,0,4,6
218378736,0.01,50.0,13.23,0.0,64,0,4,6
218410861,0.01,50.0,13.41,0.0,64,0,4,6
218441922,0.01,50.0,13.509999,0.0,64,0,4,6
218473946,0.01,50.0,13.63,0.0,64,0,4,6
218505739,0.01,50.0,13.65,0.0,64,0,4,6
218538006,0.01,50.0,13.679999,0.0,64,0,4,6
218570302,0.01,50.0,13.74,0.0,64,0,4,6
218601955,0.01,50.0,13.84,0.0,64,0,4,6
218634526,0.01,50.0,13.91,0.0,64,0,4,6
218666125,0.01,50.0,13.969999,0.0,64,0,4,6
218698549,0.01,50.0,13.94,0.0,64,0,4,6
218731009,0.01,50.0,13.96,0.0,64,0,4,6
218763131,0.01,50.0,13.969999,0.0,4,0,4,6
218794732,0.01,50.0,14.0,0.0,4,0,4,6
218827344,0.01,50.0,13.96,0.0,64,0,4,6
218859745,0.01,50.0,13.94,0.0,64,0,4,6
218891397,0.01,50.0,13.969999,0.0,64,0,4,6
218923824,0.01,50.0,13.94,0.0,0,0,4,6
218955081,0.01,50.0,13.9,0.0,64,0,4,6
218986858,0.01,50.0,13.969999,0.0,64,0,4,6
219019404,0.01,50.0,13.91,0.0,64,0,4,6
219051743,0.01,50.0,13.88,0.0,64,0,4,6
219083756,0.01,50.0,13.849999,0.0,64,0,4,6
219115080,0.01,50.0,13.86,0.0,64,0,4,6
219147321,0.01,50.0,13.82,0.0,64,0,4,6
219178884,0.01,50.0,13.82,0.0,0,0,4,6
219210848,0.01,50.0,13.79,0.0,64,0,4,6
219243304,0.01,50.0,13.799999,0.0,64,0,4,6
219274816,0.01,50.0,13.7699995,0.0,0,0,4,6
219306692,0.01,50.0,13.78,0.0,64,0,4,6
219339359,0.01,50.0,13.74,0.0,64,0,4,6
219371741,0.01,50.0,13.75,0.0,64,0,4,6
219403766,0.01,50.0,13.719999,0.0,64,0,4,6
219434820,0.01,50.0,13.7,0.0,64,0,4,6
219466817,0.01,50.0,13.66,0.0,64,0,4,6
219498551,0.01,50.0,13.679999,0.0,64,0,4,6
219530860,0.01,50.0,13.65,0.0,64,0,4,6
219562574,0.01,50.0,13.61,0.0,-116,0,4,6
219594891,0.01,50.0,13.57,0.0,64,0,4,6
219626865,0.01,50.0,13.559999,0.0,64,0,4,6
219658873,0.01,50.0,13.53,0.0,64,0,4,6
219691078,0.01,50.0,13.53,0.0,64,0,4,6
219722895,0.01,50.0,13.48,0.0,64,0,4,6
219755045,0.01,50.0,13.429999,0.0,64,0,4,6
219786909,0.01,50.0,13.4,0.0,64,0,4,6
219819341,0.01,50.0,13.32,0.0,64,0,4,6
219851351,0.01,50.0,13.34,0.0,4,0,4,6
219883644,0.01,50.0,13.37,0.0,4,0,4,6
219916144,0.01,50.0,13.32,0.0,64,0,4,6
219947344,0.01,50.0,13.21,0.0,64,0,4,6
219979751,0.01,50.0,13.179999,0.0,64,0,4,6
220011958,0.01,50.0,13.21,0.0,64,0,4,6
220043749,0.01,50.0,13.19,0.0,64,0,4,6
220075752,0.01,50.0,13.12,0.0,64,0,4,6
220107936,0.01,50.0,13.139999,0.0,0,0,4,6
220139961,0.01,50.0,13.179999,0.0,64,0,4,6
220171519,0.01,50.0,13.12,0.0,64,0,4,6
220203410,0.01,50.0,13.139999,0.0,64,0,4,6
220236269,0.01,50.0,13.09,0.0,64,0,4,6
220267802,0.01,50.0,13.17,0.0,64,0,4,6
220299381,0.01,50.0,13.139999,0.0,4,0,4,6
220332135,0.01,50.0,13.13,0.0,64,0,4,6
220364074,0.01,50.0,13.16,0.0,64,0,4,6
220395332,0.01,50.0,13.15,0.0,64,0,4,6
220427811,0.01,50.0,13.16,0.0,64,0,4,6
220460153,0.01,50.0,13.099999,0.0,64,0,4,6
220492357,0.01,50.0,12.82,0.0,4,0,4,6
220524593,0.01,50.0,12.49,0.0,4,0,4,6
220556755,0.01,50.0,12.48,0.0,64,0,4,6
220588796,0.01,50.0,12.4,0.0,64,0,4,6
220619787,0.01,50.0,12.34,0.0,0,0,4,6
220651780,0.01,50.0,12.389999,0.0,64,0,4,6
220683191,0.01,50.0,12.429999,0.0,64,0,4,6
220716151,0.01,50.0,12.559999,0.0,64,0,4,6
220747802,0.01,50.0,13.17,0.0,0,0,4,6
220779798,0.01,50.0,13.7,0.0,64,0,4,6
220811914,0.01,50.0,13.7699995,0.0,64,0,4,6
220843815,0.01,50.0,13.84,0.0,64,0,4,6
220875773,0.01,50.0,14.03,0.0,0,0,4,6
220907341,0.01,50.0,13.94,0.0,64,0,4,6
220939832,0.01,50.0,11.9,0.0,64,0,4,6
220972992,0.01,50.0,12.37,0.0,0,0,4,6
221005161,0.01,50.0,12.0199995,0.0,64,0,4,6
221037273,0.01,50.0,11.99,0.0,64,0,4,6
221069128,0.01,50.0,12.16,0.0,64,0,4,6
221100949,0.01,50.0,12.349999,0.0,64,0,4,6
221133385,0.01,50.0,12.54,0.0,64,0,4,6
221164937,0.01,50.0,13.059999,0.0,64,0,4,6
221196938,0.01,50.0,13.639999,0.0,64,0,4,6
221229763,0.01,50.0,13.639999,0.0,64,0,4,6
221260944,0.01,50.0,14.09,0.0,64,0,4,6
221292901,0.01,50.0,14.839999,0.0,64,0,4,6
221326327,0.01,50.0,14.98,0.0,64,0,4,6
221358850,0.01,50.0,15.32,0.0,0,0,4,6
221390879,0.01,50.0,15.61,0.0,64,0,4,6
221421949,0.01,50.0,15.41,0.0,0,0,4,6
221453749,0.01,50.0,15.33,0.0,64,0,4,6
221484915,0.01,50.0,15.58,0.0,64,0,4,6
221517314,0.01,50.0,15.589999,0.0,64,0,4,6
221549115,0.01,50.0,15.549999,0.0,64,0,4,6
221580975,0.01,50.0,15.61,0.0,64,0,4,6
221613368,0.01,50.0,15.71,0.0,64,0,4,6
221645760,0.01,50.0,15.78,0.0,64,0,4,6
221677987,0.01,50.0,15.83,0.0,52,0,4,6
221709125,0.01,50.0,15.7699995,0.0,64,0,4,6
221740980,0.01,50.0,15.71,0.0,64,0,4,6
221772791,0.01,50.0,15.46,0.0,-116,0,4,6
221805798,0.01,50.0,15.17,0.0,64,0,4,6
221837959,0.01,50.0,14.65,0.0,64,0,4,6
221869956,0.01,50.0,14.839999,0.0,64,0,4,6
221900778,0.01,50.0,15.309999,0.0,64,0,4,6
221933218,0.01,50.0,15.7699995,0.0,64,0,4,6
221964742,0.01,50.0,15.95,0.0,64,0,4,6
221997517,0.01,50.0,15.92,0.0,64,0,4,6
222030112,0.01,50.0,15.99,0.0,64,0,4,6
222062152,0.01,50.0,15.96,0.0,0,0,4,6
222093948,0.01,50.0,16.02,0.0,64,0,4,6
222125921,0.01,50.0,16.029999,0.0,64,0,4,6
222157966,0.01,50.0,16.119999,0.0,64,0,4,6
222189954,0.01,50.0,16.41,0.0,0,0,4,6
222222053,0.01,50.0,16.6,0.0,0,0,4,6
222253997,0.01,50.0,16.56,0.0,64,0,4,6
222284742,0.01,50.0,16.8,0.0,64,0,4,6
222316761,0.01,50.0,16.93,0.0,64,0,4,6
222347843,0.01,50.0,16.93,0.0,64,0,4,6
222379761,0.01,50.0,17.039999,0.0,64,0,4,6
222410987,0.01,50.0,17.06,0.0,4,0,4,6
222443120,0.01,50.0,17.109999,0.0,64,0,4,6
222474905,0.01,50.0,17.14,0.0,64,0,4,6
222506848,0.01,50.0,17.22,0.0,64,0,4,6
222538920,0.01,50.0,17.32,0.0,64,0,4,6
222570833,0.01,50.0,17.35,0.0,64,0,4,6
222602901,0.01,50.0,17.47,0.0,64,0,4,6
222635160,0.01,50.0,17.6,0.0,64,0,4,6
222667868,0.01,50.0,17.64,0.0,64,0,4,6
222699349,0.01,50.0,17.72,0.0,64,0,4,6
222732764,0.01,50.0,17.81,0.0,64,0,4,6
222764173,0.01,50.0,17.91,0.0,4,0,4,6
222796930,0.01,50.0,17.99,0.0,64,0,4,6
222828746,0.01,50.0,18.06,0.0,64,0,4,6
222860962,0.01,50.0,18.17,0.0,64,0,4,6
222892768,0.01,50.0,18.279999,0.0,64,0,4,6
222924741,0.01,50.0,18.26,0.0,64,0,4,6
222956754,0.01,50.0,18.369999,0.0,64,0,4,6
222988742,0.01,50.0,18.41,0.0,64,0,4,6
223021102,0.01,50.0,18.46,0.0,0,0,4,6
223052744,0.01,50.0,18.6,0.0,64,0,4,6
223084182,0.01,50.0,18.67,0.0,56,0,4,6
223117401,0.01,50.0,18.779999,0.0,64,0,4,6
223149769,0.01,50.0,18.83,0.0,64,0,4,6
223181754,0.01,50.0,18.97,0.0,64,0,4,6
223212962,0.01,50.0,19.0,0.0,64,0,4,6
223244742,0.01,50.0,19.02,0.0,64,0,4,6
223276772,0.01,50.0,19.05,0.0,64,0,4,6
223308754,0.01,50.0,19.14,0.0,64,0,4,6
223340763,0.01,50.0,19.14,0.0,64,0,4,6
223372758,0.01,50.0,19.17,0.0,64,0,4,6
223404323,0.01,50.0,19.27,0.0,64,0,4,6
223437113,0.01,50.0,19.31,0.0,0,0,4,6
223468958,0.01,50.0,19.4,0.0,64,0,4,6
223500328,0.01,50.0,19.439999,0.0,64,0,4,6
223533285,0.01,50.0,19.619999,0.0,64,0,4,6
223565150,0.01,50.0,19.609999,0.0,64,0,4,6
223597151,0.01,50.0,19.859999,0.0,64,0,4,6
223629158,0.01,50.0,19.869999,0.0,64,0,4,6
223660292,0.01,50.0,19.97,0.0,4,0,4,6
223691741,0.01,50.0,20.039999,0.0,64,0,4,6
223723753,0.01,50.0,20.039999,0.0,64,0,4,6
223755693,0.01,50.0,19.93,0.0,4,0,4,6
223786822,0.01,50.0,19.789999,0.0,112,0,4,6
223818849,0.01,50.0,19.96,0.0,0,0,4,6
223850291,0.01,50.0,20.14,0.0,4,0,4,6
223881753,0.01,50.0,20.22,0.0,1,0,4,6
223914201,0.01,50.0,20.24,0.0,64,0,4,6
223946631,0.01,50.0,20.25,0.0,4,0,4,6
223978906,0.01,50.0,20.289999,0.0,64,0,4,6
224010901,0.01,50.0,20.25,0.0,64,0,4,6
224042755,0.01,50.0,20.25,0.0,0,0,4,6
224073769,0.01,50.0,20.31,0.0,64,0,4,6
224106750,0.01,50.0,20.25,0.0,64,0,4,6
224138196,0.01,50.0,20.27,0.0,64,0,4,6
224170717,0.01,50.0,20.22,0.0,64,0,4,6
224202843,0.01,50.0,20.18,0.0,0,0,4,6
224234852,0.01,50.0,20.18,0.0,64,0,4,6
224266073,0.01,50.0,20.17,0.0,4,0,4,6
224298699,0.01,50.0,20.119999,0.0,64,0,4,6
224329809,0.01,50.0,20.109999,0.0,1,0,4,6
224362575,0.01,50.0,20.039999,0.0,64,0,4,6
224395494,0.01,50.0,20.07,0.0,0,0,4,6
224427840,0.01,50.0,20.07,0.0,64,0,4,6
224459764,0.01,50.0,20.01,0.0,64,0,4,6
224492122,0.01,50.0,20.029999,0.0,-116,0,4,6
224523344,0.01,50.0,19.99,0.0,4,0,4,6
224555939,0.01,50.0,20.0,0.0,64,0,4,6
224588123,0.01,50.0,19.92,0.0,64,0,4,6
224619527,0.01,50.0,19.92,0.0,4,0,4,6
224652199,0.01,50.0,19.91,0.0,64,0,4,6
224683744,0.01,50.0,19.85,0.0,64,0,4,6
224715858,0.01,50.0,19.84,0.0,64,0,4,6
224748220,0.01,50.0,19.83,0.0,64,0,4,6
224779750,0.01,50.0,19.8,0.0,64,0,4,6
224811332,0.01,50.0,19.8,0.0,4,0,4,6
224843357,0.01,50.0,19.779999,0.0,64,0,4,6
224875791,0.01,50.0,19.74,0.0,64,0,4,6
224907390,0.01,50.0,19.73,0.0,64,0,4,6
224939749,0.01,50.0,19.72,0.0,64,0,4,6
224971865,0.01,50.0,19.65,0.0,64,0,4,6
225003901,0.01,50.0,19.65,0.0,64,0,4,6
225035897,0.01,50.0,19.619999,0.0,64,0,4,6
225067998,0.01,50.0,19.609999,0.0,64,0,4,6
225099155,0.01,50.0,19.58,0.0,0,0,4,6
225131760,0.01,50.0,19.56,0.0,64,0,4,6
225163748,0.01,50.0,19.52,0.0,64,0,4,6
225195856,0.01,50.0,19.52,0.0,-72,0,4,6
225229283,0.01,50.0,19.47,0.0,64,0,4,6
225260942,0.01,50.0,19.449999,0.0,64,0,4,6
225293441,0.01,50.0,19.42,0.0,64,0,4,6
225325742,0.01,50.0,19.4,0.0,64,0,4,6
225356952,0.01,50.0,19.35,0.0,64,0,4,6
225389772,0.01,50.0,19.3,0.0,64,0,4,6
225421742,0.01,50.0,19.32,0.0,64,0,4,6
225452978,0.01,50.0,19.289999,0.0,64,0,4,6
225485779,0.01,50.0,19.25,0.0,64,0,4,6
225516926,0.01,50.0,19.24,0.0,64,0,4,6
225549744,0.01,50.0,19.199999,0.0,64,0,4,6
225581103,0.01,50.0,19.24,0.0,64,0,4,6
225614001,0.01,50.0,19.08,0.0,64,0,4,6
225644926,0.01,50.0,19.16,0.0,64,0,4,6
225677215,0.01,50.0,19.15,0.0,0,0,4,6
225709112,0.01,50.0,19.07,0.0,64,0,4,6
225741461,0.01,50.0,19.039999,0.0,0,0,4,6
225773323,0.01,50.0,19.01,0.0,64,0,4,6
225805437,0.01,50.0,18.99,0.0,0,0,4,6
225837973,0.01,50.0,18.98,0.0,64,0,4,6
225870055,0.01,50.0,18.93,0.0,4,0,4,6
225901790,0.01,50.0,18.869999,0.0,0,0,4,6
225932957,0.01,50.0,18.84,0.0,0,0,4,6
225965163,0.01,50.0,18.869999,0.0,64,0,4,6
225998139,0.01,50.0,18.84,0.0,-72,0,4,6
226029792,0.01,50.0,18.699999,0.0,64,0,4,6
226061917,0.01,50.0,18.619999,0.0,64,0,4,6
226093913,0.01,50.0,18.6,0.0,64,0,4,6
226124744,0.01,50.0,18.63,0.0,64,0,4,6
226155777,0.01,50.0,18.59,0.0,64,0,4,6
226187802,0.01,50.0,18.59,0.0,64,0,4,6
226219782,0.01,50.0,18.47,0.0,64,0,4,6
226251759,0.01,50.0,18.39,0.0,64,0,4,6
226283755,0.01,50.0,18.32,0.0,64,0,4,6
226314989,0.01,50.0,18.31,0.0,4,0,4,6
226347383,0.01,50.0,18.34,0.0,64,0,4,6
226378850,0.01,50.0,18.32,0.0,64,0,4,6
226410874,0.01,50.0,18.27,0.0,64,0,4,6
226442610,0.01,50.0,18.23,0.0,64,0,4,6
226475120,0.01,50.0,18.25,0.0,64,0,4,6
226506878,0.01,50.0,18.22,0.0,0,0,4,6
226538564,0.01,50.0,18.15,0.0,0,0,4,6
226570963,0.01,50.0,18.17,0.0,64,0,4,6
226603044,0.01,50.0,18.23,0.0,64,0,4,6
226634590,0.01,50.0,18.34,0.0,64,0,4,6
226666845,0.01,50.0,18.22,0.0,0,0,4,6
226699061,0.01,50.0,18.21,0.0,64,0,4,6
226730851,0.01,50.0,18.19,0.0,0,0,4,6
226763157,0.01,50.0,18.119999,0.0,4,0,4,6
226794329,0.01,50.0,18.119999,0.0,64,0,4,6
226826870,0.01,50.0,18.09,0.0,64,0,4,6
226858960,0.01,50.0,18.06,0.0,64,0,4,6
226890811,0.01,50.0,18.07,0.0,64,0,4,6
226921895,0.01,50.0,18.0,0.0,0,0,4,6
226953810,0.01,50.0,17.96,0.0,64,0,4,6
226984748,0.01,50.0,17.949999,0.0,64,0,4,6
227015757,0.01,50.0,17.91,0.0,64,0,4,6
227047508,0.01,50.0,17.89,0.0,4,0,4,6
227079757,0.01,50.0,17.85,0.0,64,0,4,6
227111701,0.01,50.0,17.82,0.0,64,0,4,6
227143794,0.01,50.0,17.8,0.0,64,0,4,6
227175589,0.01,50.0,17.73,0.0,0,0,4,6
227207850,0.01,50.0,17.71,0.0,64,0,4,6
227239755,0.01,50.0,17.699999,0.0,64,0,4,6
227271525,0.01,50.0,17.67,0.0,0,0,4,6
227303758,0.01,50.0,17.66,0.0,64,0,4,6
227335814,0.01,50.0,17.6,0.0,64,0,4,6
227367843,0.01,50.0,17.59,0.0,0,0,4,6
227399759,0.01,50.0,17.49,0.0,64,0,4,6
227431878,0.01,50.0,17.52,0.0,0,0,4,6
227463771,0.01,50.0,17.48,0.0,64,0,4,6
