timestamp,ref_timestamp,ref_lat,ref_lon,x,y,z,delta_xy[0],delta_xy[1],delta_z,vx,vy,vz,z_deriv,delta_vxy[0],delta_vxy[1],delta_vz,ax,ay,az,yaw,ref_alt,dist_bottom,dist_bottom_rate,eph,epv,evh,evv,vxy_max,vz_max,hagl_min,hagl_max,xy_valid,z_valid,v_xy_valid,v_z_valid,xy_reset_counter,z_reset_counter,vxy_reset_counter,vz_reset_counter,xy_global,z_global,dist_bottom_valid
175388525,0,0.0,0.0,0.0,0.0,-0.971729,-2.3742505e-06,-2.236855e-06,0.0,-0.014321144,-0.01827033,-0.023594623,-0.03376567,-0.0005935626,-0.0005592137,0.0,0.0027253747,-0.023343211,0.008685451,2.982489,0.0,0.10663116,0.023594623,0.12284604,0.25316027,0.101721644,0.1101084,inf,inf,inf,inf,0,1,0,1,1,0,1,1,0,0,1
175490968,0,0.0,0.0,0.0,0.0,-0.9746657,-2.3742505e-06,-2.236855e-06,0.0,-0.014005259,-0.01804763,-0.023965286,-0.0334564,-0.0005935626,-0.0005592137,0.0,-0.0035878809,-0.008628349,-0.0015665477,2.982497,0.0,0.1071105,0.023965286,0.12384177,0.2541864,0.10227949,0.11037964,inf,inf,inf,inf,0,1,0,1,1,0,1,1,0,0,1
175586930,0,0.0,0.0,0.0,0.0,-0.9780684,-2.3742505e-06,-2.236855e-06,0.0,-0.013819047,-0.01860019,-0.024009869,-0.033680677,-0.0005935626,-0.0005592137,0.0,0.0031903477,-0.0029605515,0.0007870214,2.9825354,0.0,0.11007583,0.024009869,0.12197745,0.2521183,0.101318836,0.1098679,inf,inf,inf,inf,0,1,0,1,1,0,1,1,0,0,1
175691698,0,0.0,0.0,0.0,0.0,-0.9841294,-2.3742505e-06,-2.236855e-06,0.0,-0.01340368,-0.017810445,-0.025681693,-0.037635945,-0.0005935626,-0.0005592137,0.0,0.019246448,-0.023474563,-0.00036221737,2.9825907,0.0,0.10042155,0.025681693,0.122988515,0.25319174,0.1018733,0.110136464,inf,inf,inf,inf,0,1,0,1,1,0,1,1,0,0,1
175795711,0,0.0,0.0,0.0,0.0,-0.98907757,-2.3742505e-06,-2.236855e-06,0.0,-0.013303274,-0.017770788,-0.02620936,-0.03898707,-0.0005935626,-0.0005592137,0.0,-0.038229898,-0.034489814,-0.021227745,2.9821723,0.0,0.104756534,0.02620936,0.12390917,0.25417918,0.10235695,0.110389486,inf,inf,inf,inf,0,1,0,1,1,0,1,1,0,0,1
175891689,0,0.0,0.0,0.0,0.0,-0.9912961,-2.3742505e-06,-2.236855e-06,0.0,-0.012633501,-0.018244194,-0.026631089,-0.03768732,-0.0005935626,-0.0005592137,0.0,0.07117312,0.016025959,0.081502765,2.9830136,0.0,0.11038852,0.026631089,0.122280866,0.2523822,0.10152413,0.109897725,inf,inf,inf,inf,0,1,0,1,1,0,1,1,0,0,1
175995705,0,0.0,0.0,0.0,0.0,-0.9913456,-2.3742505e-06,-2.236855e-06,0.0,-0.012448463,-0.018550297,-0.025837606,-0.03297074,-0.0005935626,-0.0005592137,0.0,0.046579093,-0.073809646,-0.11171743,2.982618,0.0,0.11768919,0.025837606,0.12138913,0.25133857,0.10108883,0.1096189,inf,inf,inf,inf,0,1,0,1,1,0,1,1,0,0,1
176099725,0,0.0,0.0,0.0,0.0,-0.9889886,-2.3742505e-06,-2.236855e-06,0.0,-0.012685486,-0.018313508,-0.023165563,-0.024762744,-0.0005935626,-0.0005592137,0.0,-0.02983688,0.02055484,-0.05059096,2.9827363,0.0,0.11924702,0.023165563,0.12233385,0.2523108,0.10160141,0.109891236,inf,inf,inf,inf,0,1,0,1,1,0,1,1,0,0,1
176201316,0,0.0,0.0,0.0,0.0,-0.9875958,-2.3742505e-06,-2.236855e-06,0.0,-0.01200859,-0.018736994,-0.022295367,-0.02027104,-0.0005935626,-0.0005592137,0.0,0.11868886,0.10043664,-0.09113788,2.9828818,0.0,0.114269435,0.022295367,0.12314086,0.25320482,0.1019916,0.110128045,inf,inf,inf,inf,0,1,0,1,1,0,1,1,0,0,1
176297218,0,0.0,0.0,0.0,0.0,-0.98968184,-2.3742505e-06,-2.236855e-06,0.0,-0.011717296,-0.018867098,-0.022390347,-0.020683775,-0.0005935626,-0.0005592137,0.0,-0.023941282,0.013479168,0.032271195,2.9827716,0.0,0.10931432,0.022390347,0.12342634,0.25350443,0.102139436,0.11019632,inf,inf,inf,inf,0,1,0,1,1,0,1,1,0,0,1
176401358,0,0.0,0.0,0.0,0.0,-0.99199957,-2.3742505e-06,-2.236855e-06,0.0,-0.011976037,-0.018399848,-0.0225774,-0.021172214,-0.0005935626,-0.0005592137,0.0,-0.08504764,-0.04952505,0.05937454,2.9828699,0.0,0.108183384,0.0225774,0.122240484,0.2521711,0.10152311,0.10988969,inf,inf,inf,inf,0,1,0,1,1,0,1,1,0,0,1
176505329,0,0.0,0.0,0.0,0.0,-0.99206764,-2.3742505e-06,-2.236855e-06,0.0,-0.012166403,-0.01804745,-0.022233868,-0.01883088,-0.0005935626,-0.0005592137,0.0,-0.06124141,0.10338582,0.07776309,2.9828575,0.0,0.11420554,0.022233868,0.12141497,0.25118095,0.101131625,0.10963173,inf,inf,inf,inf,0,1,0,1,1,0,1,1,0,0,1
176609317,0,0.0,0.0,0.0,0.0,-0.9908057,-2.3742505e-06,-2.236855e-06,0.0,-0.012086864,-0.018309392,-0.021562897,-0.015158434,-0.0005935626,-0.0005592137,0.0,0.028521253,-0.09632935,0.013356362,2.9829655,0.0,0.11358744,0.021562897,0.1206615,0.2502405,0.10078555,0.10939245,inf,inf,inf,inf,0,1,0,1,1,0,1,1,0,0,1
176705340,0,0.0,0.0,0.0,0.0,-0.9892889,-2.3742505e-06,-2.236855e-06,0.0,-0.011854991,-0.017665356,-0.020656815,-0.011559947,-0.0005935626,-0.0005592137,0.0,-0.017543854,0.0314013,0.124188736,2.9827418,0.0,0.11264056,0.020656815,0.12109996,0.25061515,0.10105938,0.10951329,inf,inf,inf,inf,0,1,0,1,1,0,1,1,0,0,1
176809409,0,0.0,0.0,0.0,0.0,-0.9891928,-2.3742505e-06,-2.236855e-06,0.0,-0.01128656,-0.01771479,-0.019844154,-0.0098030325,-0.0005935626,-0.0005592137,0.0,0.018604226,0.063454114,0.09943287,2.9829166,0.0,0.10975158,0.019844154,0.120456524,0.24975611,0.10078214,0.10930523,inf,inf,inf,inf,0,1,0,1,1,0,1,1,0,0,1
176913353,0,0.0,0.0,0.0,0.0,-0.9892728,-2.3742505e-06,-2.236855e-06,0.0,-0.01130078,-0.01690315,-0.01882635,-0.008128598,-0.0005935626,-0.0005592137,0.0,0.036887165,-0.018138994,0.053955298,2.9829087,0.0,0.110545516,0.01882635,0.11986037,0.24893703,0.10053078,0.10911091,inf,inf,inf,inf,0,1,0,1,1,0,1,1,0,0,1
177017361,0,0.0,0.0,0.0,0.0,-0.9875777,-2.3742505e-06,-2.236855e-06,0.0,-0.0109144095,-0.016883688,-0.017686734,-0.0047990433,-0.0005935626,-0.0005592137,0.0,0.016176535,-0.037722442,-0.13015024,2.9826486,0.0,0.11485636,0.017686734,0.12104492,0.25009212,0.101193056,0.10945474,inf,inf,inf,inf,0,1,0,1,1,0,1,1,0,0,1
177114918,0,0.0,0.0,0.0,0.0,-0.9852537,-2.3742505e-06,-2.236855e-06,0.0,-0.011125723,-0.017062593,-0.015167835,6.2768435e-05,-0.0005935626,-0.0005592137,0.0,0.04611691,-0.010719252,0.08360942,2.9827054,0.0,0.11146885,0.015167835,0.12151695,0.25051573,0.10144683,0.109589964,inf,inf,inf,inf,0,1,0,1,1,0,1,1,0,0,1
177219051,0,0.0,0.0,0.0,0.0,-0.98372334,-2.3742505e-06,-2.236855e-06,0.0,-0.010525729,-0.017313164,-0.013075487,0.0032495265,-0.0005935626,-0.0005592137,0.0,-0.06634625,-0.13450636,-0.014541198,2.982711,0.0,0.11217368,0.013075487,0.12260356,0.24965957,0.10200639,0.10937258,inf,inf,inf,inf,0,1,0,1,1,0,1,1,0,0,1
177314903,0,0.0,0.0,0.0,0.0,-0.97926533,-2.3742505e-06,-2.236855e-06,0.0,-0.011198177,-0.017492048,-0.010144437,0.009777287,-0.0005935626,-0.0005592137,0.0,-0.022117682,-0.10554647,-0.107954316,2.9826157,0.0,0.113362014,0.010144437,0.13069582,0.25022304,0.1060921,0.10952078,inf,inf,inf,inf,0,1,0,1,1,0,1,1,0,0,1
177419047,0,0.0,0.0,0.0,0.0,-0.9762888,-2.3742505e-06,-2.236855e-06,0.0,-0.011214542,-0.017628113,-0.009165753,0.012160066,-0.0005935626,-0.0005592137,0.0,-0.0464608,-0.012578357,-0.052639607,2.9826787,0.0,0.11038548,0.009165753,0.13986154,0.2512875,0.11047336,0.10981836,inf,inf,inf,inf,0,1,0,1,1,0,1,1,0,0,1
177522995,0,0.0,0.0,0.0,0.0,-0.9758076,-2.3742505e-06,-2.236855e-06,0.0,-0.011941106,-0.018070066,-0.008005147,0.012066918,-0.0005935626,-0.0005592137,0.0,-0.040946003,-0.029527757,-0.1293118,2.9826782,0.0,0.10990429,0.008005147,0.14957665,0.25232452,0.11490893,0.1101015,inf,inf,inf,inf,0,1,0,1,1,0,1,1,0,0,1
177618932,0,0.0,0.0,0.0,0.0,-0.9750789,-2.3742505e-06,-2.236855e-06,0.0,-0.012842284,-0.018863302,-0.0068788235,0.012370592,-0.0005935626,-0.0005592137,0.0,-0.07473539,0.07897503,-0.10801078,2.982654,0.0,0.10917556,0.0068788235,0.15902323,0.2526568,0.11904769,0.11018946,inf,inf,inf,inf,0,1,0,1,1,0,1,1,0,0,1
177722950,0,0.0,0.0,0.0,0.0,-0.9744565,-2.3742505e-06,-2.236855e-06,0.0,-0.014161873,-0.020020455,-0.0066689407,0.011545481,-0.0005935626,-0.0005592137,0.0,-0.139533,-0.02826961,0.039028883,2.9826374,0.0,0.10361332,0.0066689407,0.16976285,0.2516419,0.12357273,0.10990268,inf,inf,inf,inf,0,1,0,1,1,0,1,1,0,0,1
177826957,0,0.0,0.0,0.0,0.0,-0.9744772,-2.3742505e-06,-2.236855e-06,0.0,-0.014973374,-0.02067248,-0.0058768606,0.010798584,-0.0005935626,-0.0005592137,0.0,-0.055717263,0.02320105,-0.022471108,2.9826138,0.0,0.103634,0.0058768606,0.18104209,0.25265703,0.12815242,0.11017573,inf,inf,inf,inf,0,1,0,1,1,0,1,1,0,0,1
177930926,0,0.0,0.0,0.0,0.0,-0.9769389,-2.3742505e-06,-2.236855e-06,0.0,-0.016039398,-0.021926774,-0.0063916836,0.0064609433,-0.0005935626,-0.0005592137,0.0,-0.0035846701,0.08953818,0.011589912,2.982504,0.0,0.10609573,0.0063916836,0.19283503,0.251687,0.1327767,0.109907575,inf,inf,inf,inf,0,1,0,1,1,0,1,1,0,0,1
178028601,0,0.0,0.0,0.0,0.0,-0.9813883,-2.3742505e-06,-2.236855e-06,0.0,-0.016799131,-0.023348035,-0.006779919,0.0010173393,-0.0005935626,-0.0005592137,0.0,-0.04019601,-0.03921055,-0.09772302,2.98251,0.0,0.1105451,0.006779919,0.20420392,0.25401318,0.13710153,0.11053777,inf,inf,inf,inf,0,1,0,1,1,0,1,1,0,0,1
178132473,0,0.0,0.0,0.0,0.0,-0.9882942,-2.3742505e-06,-2.236855e-06,0.0,-0.017980587,-0.024279073,-0.009049515,-0.00806046,-0.0005935626,-0.0005592137,0.0,0.048521794,-0.091367625,0.004068885,2.9825306,0.0,0.11745101,0.009049515,0.21698464,0.2529516,0.14181724,0.11023298,inf,inf,inf,inf,0,1,0,1,1,0,1,1,0,0,1
178228624,0,0.0,0.0,0.0,0.0,-0.9968857,-2.3742505e-06,-2.236855e-06,0.0,-0.018939048,-0.025561946,-0.011853229,-0.018278893,-0.0005935626,-0.0005592137,0.0,-0.10408612,-0.16118921,-0.03277852,2.9824963,0.0,0.12604254,0.011853229,0.22942904,0.25139582,0.14628391,0.10977987,inf,inf,inf,inf,0,1,0,1,1,0,1,1,0,0,1
178332514,0,0.0,0.0,0.0,0.0,-1.0020791,-2.3742505e-06,-2.236855e-06,0.0,-0.02045921,-0.026227368,-0.013687016,-0.022918783,-0.0005935626,-0.0005592137,0.0,-0.03283956,4.6385107e-05,-0.031102916,2.9823503,0.0,0.13123596,0.013687016,0.24318527,0.25044578,0.15108058,0.10952116,inf,inf,inf,inf,0,1,0,1,1,0,1,1,0,0,1
178436769,0,0.0,0.0,0.0,0.0,-1.0066882,-2.3742505e-06,-2.236855e-06,0.0,-0.021560086,-0.027527452,-0.014517421,-0.025548099,-0.0005935626,-0.0005592137,0.0,-0.04080192,0.002212431,-0.00947627,2.9822948,0.0,0.10140371,0.014517421,0.25748202,0.25152758,0.15594251,0.10982536,inf,inf,inf,inf,0,1,0,1,1,0,1,1,0,0,1
178532490,0,0.0,0.0,0.0,0.0,-1.0111561,-2.3742505e-06,-2.236855e-06,0.0,-0.022837635,-0.028626584,-0.015537794,-0.028240735,-0.0005935626,-0.0005592137,0.0,0.025958553,0.0051997784,-0.3120126,2.9821863,0.0,0.10587156,0.015537794,0.27111214,0.25189474,0.16046342,0.109928876,inf,inf,inf,inf,0,1,0,1,1,0,1,1,0,0,1
178636530,0,0.0,0.0,0.0,0.0,-1.0144645,-2.3742505e-06,-2.236855e-06,0.0,-0.02448019,-0.02982037,-0.017391251,-0.030119026,-0.0005935626,-0.0005592137,0.0,0.03908677,-0.025529452,-0.397506,2.9826775,0.0,0.10917997,0.017391251,0.2863733,0.25291562,0.16540132,0.11020321,inf,inf,inf,inf,0,1,0,1,1,0,1,1,0,0,1
178740505,0,0.0,0.0,0.0,0.0,-1.0163987,-2.3742505e-06,-2.236855e-06,0.0,-0.025096422,-0.031931918,-0.016229343,-0.027564647,-0.0005935626,-0.0005592137,0.0,-0.11856343,-0.05058953,-0.34646413,2.9822903,0.0,0.111114144,0.016229343,0.30213156,0.25390908,0.17038654,0.110464394,inf,inf,inf,inf,0,1,0,1,1,0,1,1,0,0,1
178844502,0,0.0,0.0,0.0,0.0,-1.0143697,-2.3742505e-06,-2.236855e-06,0.0,-0.026663462,-0.03128903,-0.014406165,-0.02073032,-0.0005935626,-0.0005592137,0.0,0.29229584,-0.11858416,0.33891752,2.9823909,0.0,0.11228788,0.014406165,0.31830177,0.25282025,0.17536663,0.11014827,inf,inf,inf,inf,0,1,0,1,1,0,1,1,0,0,1
178942056,0,0.0,0.0,0.0,0.0,-1.012843,-2.3742505e-06,-2.236855e-06,0.0,-0.02903991,-0.033154994,-0.016162539,-0.018821899,-0.0005935626,-0.0005592137,0.0,0.122130394,-0.16666307,-0.5460481,2.9823,0.0,0.11332089,0.016162539,0.33370087,0.25302178,0.1800198,0.11018,inf,inf,inf,inf,0,1,0,1,1,0,1,1,0,0,1
179046127,0,0.0,0.0,0.0,0.0,-1.0087277,-2.3742505e-06,-2.236855e-06,0.0,-0.033750065,-0.03420089,-0.013216967,-0.01006294,-0.0005935626,-0.0005592137,0.0,-0.26462108,0.03951931,0.7347139,2.982313,0.0,0.11787993,0.013216967,0.35086083,0.2539119,0.18510066,0.11040113,inf,inf,inf,inf,0,1,0,1,1,0,1,1,0,0,1
179142195,0,0.0,0.0,0.0,0.0,-1.0025358,-2.3742505e-06,-2.236855e-06,0.0,-0.032537084,-0.033974543,-0.01158221,-0.0016163619,-0.0005935626,-0.0005592137,0.0,0.09784197,-0.14835118,0.35231397,2.9822993,0.0,0.11948925,0.01158221,0.36725584,0.2522589,0.18984331,0.109912366,inf,inf,inf,inf,0,1,0,1,1,0,1,1,0,0,1
179246155,0,0.0,0.0,0.0,0.0,-0.9946776,-2.3742505e-06,-2.236855e-06,0.0,-0.033924278,-0.032030568,-0.009554677,0.007948317,-0.0005935626,-0.0005592137,0.0,-0.018857904,-0.12455057,-0.4987507,2.9822087,0.0,0.12229401,0.009554677,0.3853324,0.2532266,0.19497466,0.110169455,inf,inf,inf,inf,0,1,0,1,1,0,1,1,0,0,1
179350148,0,0.0,0.0,0.0,0.0,-0.98659664,-2.3742505e-06,-2.236855e-06,0.0,-0.03353776,-0.03267699,-0.006368455,0.017613225,-0.0005935626,-0.0005592137,0.0,-0.7368127,1.3103788,0.34064734,2.9819365,0.0,0.12018412,0.006368455,0.40385693,0.25413114,0.20013447,0.11039996,inf,inf,inf,inf,0,1,0,1,1,0,1,1,0,0,1
179446049,0,0.0,0.0,0.0,0.0,-0.9758189,-2.3742505e-06,-2.236855e-06,0.0,-0.035065055,-0.03459845,-0.0027513807,0.02949282,-0.0005935626,-0.0005592137,0.0,0.0064560845,-0.4058719,0.54937315,2.9819121,0.0,0.1252935,0.0027513807,0.42130798,0.25429353,0.2048959,0.110421404,inf,inf,inf,inf,0,1,0,1,1,0,1,1,0,0,1
179550206,0,0.0,0.0,0.0,0.0,-0.96696573,-2.3742505e-06,-2.236855e-06,0.0,-0.034162473,-0.03781327,0.00017623669,0.03729652,-0.0005935626,-0.0005592137,0.0,-0.77218026,-0.43379968,0.4516763,2.9816945,0.0,0.11296892,-0.00017623669,0.4406821,0.25514007,0.21007875,0.11062889,inf,inf,inf,inf,0,1,0,1,1,0,1,1,0,0,1
179654090,0,0.0,0.0,0.0,0.0,-0.95998037,-2.3742505e-06,-2.236855e-06,0.0,-0.03509047,-0.038971327,-0.0007149399,0.038702205,-0.0005935626,-0.0005592137,0.0,-0.036956627,-0.96117187,-1.0014417,2.981545,0.0,0.11240685,0.0007149399,0.46049246,0.25596836,0.21530207,0.11082861,inf,inf,inf,inf,0,1,0,1,1,0,1,1,0,0,1
179758150,0,0.0,0.0,0.0,0.0,-0.9524211,-2.3742505e-06,-2.236855e-06,0.0,-0.038923506,-0.04144419,0.008468326,0.04980712,-0.0005935626,-0.0005592137,0.0,-0.014687074,0.7591241,-0.231777,2.9815762,0.0,0.10993183,-0.008468326,0.48045054,0.25472033,0.22041297,0.11046326,inf,inf,inf,inf,0,1,0,1,1,0,1,1,0,0,1
179859747,0,0.0,0.0,0.0,0.0,-0.9512634,-2.3742505e-06,-2.236855e-06,0.0,-0.039563656,-0.036812905,-0.0010245268,0.036146972,-0.0005935626,-0.0005592137,0.0,0.31415728,-1.8072664,-0.81267565,2.9814246,0.0,0.108774126,0.0010245268,0.50074553,0.25350618,0.22546661,0.11011354,inf,inf,inf,inf,0,1,0,1,1,0,1,1,0,0,1
179963711,0,0.0,0.0,0.0,0.0,-0.95270306,-2.3742505e-06,-2.236855e-06,0.0,-0.045165423,-0.037791234,-0.012622564,0.019907765,-0.0005935626,-0.0005592137,0.0,-0.03666058,-2.111568,-0.79691213,2.981347,0.0,0.11021376,0.012622564,0.52172095,0.25438225,0.23069684,0.11034112,inf,inf,inf,inf,0,1,0,1,1,0,1,1,0,0,1
180059862,0,0.0,0.0,0.0,0.0,-0.95321184,-2.3742505e-06,-2.236855e-06,0.0,-0.045393106,-0.04998169,0.01707662,0.04488735,-0.0005935626,-0.0005592137,0.0,-0.5470922,0.51463026,0.30267248,2.9812255,0.0,0.11072254,-0.01707662,0.5403632,0.25233266,0.23523322,0.109817795,inf,inf,inf,inf,0,1,0,1,1,0,1,1,0,0,1
180163766,0,0.0,0.0,0.0,0.0,-0.951688,-2.3742505e-06,-2.236855e-06,0.0,-0.048377603,-0.04997526,0.017647732,0.04192313,-0.0005935626,-0.0005592137,0.0,-1.4809963,-2.4809618,0.0100000175,2.980956,0.0,0.10349351,-0.017647732,0.56199354,0.25327674,0.24037682,0.11007812,inf,inf,inf,inf,0,1,0,1,1,0,1,1,0,0,1
180267906,0,0.0,0.0,0.0,0.0,-0.94116825,-2.3742505e-06,-2.236855e-06,0.0,-0.045121156,-0.041016623,0.028769929,0.058334354,-0.0005935626,-0.0005592137,0.0,-0.41075405,-0.92776906,-0.052665424,2.9807377,0.0,0.11410147,-0.028769929,0.58394015,0.25418654,0.24541974,0.11032316,inf,inf,inf,inf,0,1,0,1,1,0,1,1,0,0,1
180363735,0,0.0,0.0,0.0,0.0,-0.92782193,-2.3742505e-06,-2.236855e-06,0.0,-0.04529057,-0.039266,0.031884287,0.06858739,-0.0005935626,-0.0005592137,0.0,1.2176179,2.5581222,0.6314127,2.9810479,0.0,0.119933724,-0.031884287,0.60375863,0.2523624,0.24990115,0.1098228,inf,inf,inf,inf,0,1,0,1,1,0,1,1,0,0,1
180467818,0,0.0,0.0,0.0,0.0,-0.9121489,-2.3742505e-06,-2.236855e-06,0.0,-0.046457633,-0.04672123,0.021153457,0.06592408,-0.0005935626,-0.0005592137,0.0,0.8199446,0.28370592,-2.4182687,2.981064,0.0,0.12322271,-0.021153457,0.62623,0.2532844,0.25501698,0.11007429,inf,inf,inf,inf,0,1,0,1,1,0,1,1,0,0,1
180571848,0,0.0,0.0,0.0,0.0,-0.8925875,-2.3742505e-06,-2.236855e-06,0.0,-0.05541223,-0.040652975,0.01563293,0.07157136,-0.0005935626,-0.0005592137,0.0,0.45324022,-3.0628884,-0.49212968,2.9817872,0.0,0.13363951,-0.01563293,0.6489435,0.25416744,0.2601184,0.11031039,inf,inf,inf,inf,0,1,0,1,1,0,1,1,0,0,1
180668187,0,0.0,0.0,0.0,0.0,-0.8735479,-2.3742505e-06,-2.236855e-06,0.0,-0.063250825,-0.006898387,-0.024378264,0.046175458,-0.0005935626,-0.0005592137,0.0,0.835631,-0.48880428,3.317543,2.983491,0.0,0.14059538,0.024378264,0.6699069,0.2543541,0.2646755,0.1103565,inf,inf,inf,inf,0,1,0,1,1,0,1,1,0,0,1
180769786,0,0.0,0.0,0.0,0.0,-0.85555404,-2.3742505e-06,-2.236855e-06,0.0,-0.06967835,0.017280065,-0.037308805,0.04567456,-0.0005935626,-0.0005592137,0.0,1.0133748,-1.5424998,-4.131493,2.9841697,0.0,0.14206576,0.037308805,0.69225866,0.25324205,0.2696929,0.110056005,inf,inf,inf,inf,0,1,0,1,1,0,1,1,0,0,1
180873268,0,0.0,0.0,0.0,0.0,-0.83638483,-2.3742505e-06,-2.236855e-06,0.0,-0.086235054,0.056061566,-0.057402868,0.03927736,-0.0005935626,-0.0005592137,0.0,2.4286351,0.12938443,0.8096806,2.9853895,0.0,0.15486485,0.057402868,0.71469563,0.25219834,0.27446938,0.10978322,inf,inf,inf,inf,0,1,0,1,1,0,1,1,0,0,1
180977328,0,0.0,0.0,0.0,0.0,-0.8219809,-2.3742505e-06,-2.236855e-06,0.0,-0.09222171,0.09792002,-0.061805192,0.04424776,-0.0005935626,-0.0005592137,0.0,4.0317454,-1.3728826,2.4696736,2.9859858,0.0,0.13596964,0.061805192,0.7365029,0.250973,0.27896276,0.109502636,inf,inf,inf,inf,0,1,0,1,1,0,1,1,0,0,1
181081272,0,0.0,0.0,0.0,0.0,-0.81600094,-2.3742505e-06,-2.236855e-06,0.0,-0.10793635,0.14447258,-0.073101655,0.033694662,-0.0005935626,-0.0005592137,0.0,0.7328451,1.8423213,0.22560707,2.986366,0.0,0.12094283,0.073101655,0.7600184,0.25199848,0.28392127,0.109801166,inf,inf,inf,inf,0,1,0,1,1,0,1,1,0,0,1
181177319,0,0.0,0.0,0.0,0.0,-0.8196252,-2.3742505e-06,-2.236855e-06,0.0,-0.11389439,0.19011134,-0.07501814,0.02290754,-0.0005935626,-0.0005592137,0.0,-2.085542,2.4624922,-4.6017685,2.9870763,0.0,0.10048628,0.07501814,0.7802949,0.25038254,0.2878721,0.109383754,inf,inf,inf,inf,0,1,0,1,1,0,1,1,0,0,1
181281335,0,0.0,0.0,0.0,0.0,-0.83014745,-2.3742505e-06,-2.236855e-06,0.0,-0.13220707,0.22439654,-0.055396464,0.027616551,-0.0005935626,-0.0005592137,0.0,-0.67032295,1.3589251,2.38034,2.9889033,0.0,0.1,0.055396464,0.8038781,0.25141507,0.29245383,0.109683625,inf,inf,inf,inf,0,1,0,1,1,0,1,1,0,0,1
181691007,0,0.0,0.0,0.0,0.0,-0.90214926,-2.3742505e-06,-2.236855e-06,0.0,-0.18090436,0.39229086,0.0866105,0.06628481,-0.0005935626,-0.0005592137,0.0,-2.260966,-1.026988,0.2028088,2.9973698,0.0,0.1,-0.0866105,0.89409584,0.25287125,0.30830637,0.11014275,inf,inf,inf,inf,0,1,0,1,1,0,1,1,0,0,1
181794853,0,0.0,0.0,0.0,0.0,-0.91929847,-2.3742505e-06,-2.236855e-06,0.0,-0.1790727,0.42303568,0.12188266,0.07753636,-0.0005935626,-0.0005592137,0.0,1.7600802,-1.4197726,-1.1302325,2.9980092,0.0,0.1,-0.12188266,0.9172564,0.253822,0.31221113,0.11039969,inf,inf,inf,inf,0,1,0,1,1,0,1,1,0,0,1
181890982,0,0.0,0.0,0.0,0.0,-0.93296236,-2.3742505e-06,-2.236855e-06,0.0,-0.19135594,0.46399996,0.13301799,0.068712234,-0.0005935626,-0.0005592137,0.0,-1.1013864,-0.61924875,-0.07846692,2.997671,0.0,0.1,-0.13301799,0.9382945,0.2541535,0.31570342,0.11045727,inf,inf,inf,inf,0,1,0,1,1,0,1,1,0,0,1
181995008,0,0.0,0.0,0.0,0.0,-0.9461151,-2.3742505e-06,-2.236855e-06,0.0,-0.18561165,0.51156074,0.15184242,0.06878801,-0.0005935626,-0.0005592137,0.0,0.28557655,-0.5149047,-0.93733335,2.997446,0.0,0.1,-0.15184242,0.9587999,0.25296345,0.31863335,0.11011601,inf,inf,inf,inf,0,1,0,1,1,0,1,1,0,0,1
182099019,0,0.0,0.0,0.0,0.0,-0.9542929,-2.3742505e-06,-2.236855e-06,0.0,-0.19734778,0.5524337,0.14745155,0.05112453,-0.0005935626,-0.0005592137,0.0,-0.3145595,0.78978837,0.027061403,2.9962637,0.0,0.1,-0.14745155,0.98120284,0.25385746,0.32231188,0.110353,inf,inf,inf,inf,0,1,0,1,1,0,1,1,0,0,1
182194897,0,0.0,0.0,0.0,0.0,-0.97006744,-2.3742505e-06,-2.236855e-06,0.0,-0.20736074,0.5789633,0.09806454,-0.014560847,-0.0005935626,-0.0005592137,0.0,-1.5285643,-2.6719873,-2.3067427,2.9960048,0.0,0.1,-0.09806454,1.0008734,0.25402984,0.32526815,0.11038997,inf,inf,inf,inf,0,1,0,1,1,0,1,1,0,0,1
182298897,0,0.0,0.0,0.0,0.0,-0.99470246,-2.3742505e-06,-2.236855e-06,0.0,-0.2215571,0.6308727,-0.018826455,-0.14657518,-0.0005935626,-0.0005592137,0.0,-3.1634462,2.6182537,-2.6798093,2.9965003,0.0,0.1,0.018826455,1.0227143,0.25490063,0.32887772,0.11061756,inf,inf,inf,inf,0,1,0,1,1,0,1,1,0,0,1
182402895,0,0.0,0.0,0.0,0.0,-1.0307174,-2.3742505e-06,-2.236855e-06,0.0,-0.22788453,0.6605393,-0.21209526,-0.34789088,-0.0005935626,-0.0005592137,0.0,0.19731787,-1.8805937,-1.947795,2.9975238,0.0,0.1,0.21209526,1.0414555,0.25370806,0.33183014,0.11028205,inf,inf,inf,inf,0,1,0,1,1,0,1,1,0,0,1
182498934,0,0.0,0.0,0.0,0.0,-1.0777931,-2.3742505e-06,-2.236855e-06,0.0,-0.22714728,0.6971174,-0.37284905,-0.5116176,-0.0005935626,-0.0005592137,0.0,2.2758002,-0.76275915,-3.1133041,2.9985113,0.0,0.11103952,0.37284905,1.0601406,0.25392926,0.335391,0.11034354,inf,inf,inf,inf,0,1,0,1,1,0,1,1,0,0,1
182604496,0,0.0,0.0,0.0,0.0,-1.1389961,-2.3742505e-06,-2.236855e-06,0.0,-0.22775859,0.7344923,-0.44802326,-0.58642024,-0.0005935626,-0.0005592137,0.0,1.5100999,0.5917042,0.95831996,2.998143,0.0,0.14504361,0.44802326,1.0810449,0.25481457,0.3396779,0.1105793,inf,inf,inf,inf,0,1,0,1,1,0,1,1,0,0,1
182708732,0,0.0,0.0,0.0,0.0,-1.2042755,-2.3742505e-06,-2.236855e-06,0.0,-0.2257178,0.766957,-0.4389533,-0.57860094,-0.0005935626,-0.0005592137,0.0,-0.26130304,1.0775679,2.406636,2.9965768,0.0,0.18905032,0.4389533,1.098573,0.2536838,0.3426053,0.110249795,inf,inf,inf,inf,0,1,0,1,1,0,1,1,0,0,1
182812589,0,0.0,0.0,0.0,0.0,-1.266065,-2.3742505e-06,-2.236855e-06,0.0,-0.21005441,0.7988242,-0.38624477,-0.527268,-0.0005935626,-0.0005592137,0.0,0.7892619,0.084078215,-0.93410444,2.9943378,0.0,0.22960901,0.38624477,1.1188813,0.2545813,0.34571218,0.110470295,inf,inf,inf,inf,0,1,0,1,1,0,1,1,0,0,1
182908554,0,0.0,0.0,0.0,0.0,-1.3159101,-2.3742505e-06,-2.236855e-06,0.0,-0.18956417,0.82276726,-0.31170982,-0.45340908,-0.0005935626,-0.0005592137,0.0,-0.59351176,1.0434835,2.0701265,2.9912446,0.0,0.25662065,0.31170982,1.1359209,0.25473103,0.34768346,0.1105036,inf,inf,inf,inf,0,1,0,1,1,0,1,1,0,0,1
183012522,0,0.0,0.0,0.0,0.0,-1.3648505,-2.3742505e-06,-2.236855e-06,0.0,-0.16521807,0.85416365,-0.23450604,-0.37947187,-0.0005935626,-0.0005592137,0.0,-1.0657647,2.2519763,1.3660663,2.9882104,0.0,0.29012668,0.23450604,1.1513216,0.2535542,0.34873742,0.11017909,inf,inf,inf,inf,0,1,0,1,1,0,1,1,0,0,1
183116494,0,0.0,0.0,0.0,0.0,-1.4001149,-2.3742505e-06,-2.236855e-06,0.0,-0.11166749,0.8993458,-0.15117653,-0.29427958,-0.0005935626,-0.0005592137,0.0,2.081324,1.2485867,-0.19156523,2.9856427,0.0,0.31523967,0.15117653,1.1698812,0.25442085,0.35067087,0.11040947,inf,inf,inf,inf,0,1,0,1,1,0,1,1,0,0,1
183212507,0,0.0,0.0,0.0,0.0,-1.4197779,-2.3742505e-06,-2.236855e-06,0.0,-0.07121362,0.94110703,-0.06921736,-0.20585419,-0.0005935626,-0.0005592137,0.0,-0.97910064,-0.80104,2.4004097,2.9840326,0.0,0.33666766,0.06921736,1.1811483,0.2525511,0.3508943,0.10989485,inf,inf,inf,inf,0,1,0,1,1,0,1,1,0,0,1
183316443,0,0.0,0.0,0.0,0.0,-1.4316541,-2.3742505e-06,-2.236855e-06,0.0,-0.015502866,0.9988944,0.007727913,-0.121702604,-0.0005935626,-0.0005592137,0.0,-1.3244231,1.2332174,-0.5928753,2.981944,0.0,0.34911346,-0.007727913,1.1985686,0.25344294,0.35245955,0.11013726,inf,inf,inf,inf,0,1,0,1,1,0,1,1,0,0,1
183420597,0,0.0,0.0,0.0,0.0,-1.4368836,-2.3742505e-06,-2.236855e-06,0.0,0.019831799,1.0266517,0.08884449,-0.03595863,-0.0005935626,-0.0005592137,0.0,-1.0200915,0.52473044,2.438193,2.982245,0.0,0.347098,-0.08884449,1.2154148,0.25430295,0.35396537,0.1103644,inf,inf,inf,inf,0,1,0,1,1,0,1,1,0,0,1
183521287,0,0.0,0.0,0.0,0.0,-1.438575,-2.3742505e-06,-2.236855e-06,0.0,0.039516196,1.0474908,0.1556679,0.031643447,-0.0005935626,-0.0005592137,0.0,-2.1479013,0.39769962,-0.73034775,2.9817505,0.0,0.33421183,-0.1556679,1.2271514,0.2531468,0.3542013,0.11004936,inf,inf,inf,inf,0,1,0,1,1,0,1,1,0,0,1
183625410,0,0.0,0.0,0.0,0.0,-1.4353883,-2.3742505e-06,-2.236855e-06,0.0,0.027597198,1.0390754,0.20723948,0.081595585,-0.0005935626,-0.0005592137,0.0,-0.31527874,0.27503768,-0.8370681,2.9821315,0.0,0.31925702,-0.20723948,1.2418506,0.25378886,0.3553892,0.11028456,inf,inf,inf,inf,0,1,0,1,1,0,1,1,0,0,1
183721410,0,0.0,0.0,0.0,0.0,-1.4265118,-2.3742505e-06,-2.236855e-06,0.0,-0.013241613,1.018782,0.24467498,0.11938547,-0.0005935626,-0.0005592137,0.0,0.8332137,0.13539973,0.65576553,2.9818692,0.0,0.2966348,-0.24467498,1.2544203,0.25400978,0.35613465,0.110349655,inf,inf,inf,inf,0,1,0,1,1,0,1,1,0,0,1
183825377,0,0.0,0.0,0.0,0.0,-1.4031826,-2.3742505e-06,-2.236855e-06,0.0,-0.0959515,0.97566676,0.30080426,0.18442297,-0.0005935626,-0.0005592137,0.0,1.0179825,-0.7597017,-2.3621514,2.9803762,0.0,0.2781446,-0.30080426,1.2690547,0.25488377,0.35746568,0.11057978,inf,inf,inf,inf,0,1,0,1,1,0,1,1,0,0,1
183929313,0,0.0,0.0,0.0,0.0,-1.3682821,-2.3742505e-06,-2.236855e-06,0.0,-0.19471243,0.92194057,0.37997073,0.2756791,-0.0005935626,-0.0005592137,0.0,-1.1056994,-1.0426606,-2.114803,2.9807022,0.0,0.24655247,-0.37997073,1.2778932,0.25367188,0.35734016,0.1102293,inf,inf,inf,inf,0,1,0,1,1,0,1,1,0,0,1
184025545,0,0.0,0.0,0.0,0.0,-1.330579,-2.3742505e-06,-2.236855e-06,0.0,-0.29651618,0.8604968,0.4416731,0.3463045,-0.0005935626,-0.0005592137,0.0,-4.117584,-1.010049,0.59122044,2.9834726,0.0,0.2171154,-0.4416731,1.2886839,0.25383148,0.35777387,0.11025005,inf,inf,inf,inf,0,1,0,1,1,0,1,1,0,0,1
184129384,0,0.0,0.0,0.0,0.0,-1.2877108,-2.3742505e-06,-2.236855e-06,0.0,-0.37024087,0.80990887,0.45043173,0.3612027,-0.0005935626,-0.0005592137,0.0,-1.9026632,-0.30745098,-0.7368546,2.987941,0.0,0.16370094,-0.45043173,1.3016644,0.25470102,0.35865304,0.11045956,inf,inf,inf,inf,0,1,0,1,1,0,1,1,0,0,1
184233355,0,0.0,0.0,0.0,0.0,-1.2508612,-2.3742505e-06,-2.236855e-06,0.0,-0.42518064,0.78020924,0.33239534,0.24859774,-0.0005935626,-0.0005592137,0.0,-1.2026978,0.43599653,0.06564765,2.992618,0.0,0.12331176,-0.33239534,1.3140829,0.25553724,0.35958397,0.110658504,inf,inf,inf,inf,0,1,0,1,1,0,1,1,0,0,1
184329344,0,0.0,0.0,0.0,0.0,-1.2238591,-2.3742505e-06,-2.236855e-06,0.0,-0.43365815,0.78576463,0.25364193,0.1770537,-0.0005935626,-0.0005592137,0.0,-3.218081,3.0580575,0.12848875,2.9949045,0.0,0.1,-0.25364193,1.3233203,0.25565082,0.3604236,0.110673234,inf,inf,inf,inf,0,1,0,1,1,0,1,1,0,0,1
184433268,0,0.0,0.0,0.0,0.0,-1.205451,-2.3742505e-06,-2.236855e-06,0.0,-0.41712797,0.7653098,0.023119269,-0.045543015,-0.0005935626,-0.0005592137,0.0,3.5467749,-0.699902,-4.3206425,2.9904883,0.0,0.1,-0.023119269,1.3346972,0.25640303,0.36211273,0.11085925,inf,inf,inf,inf,0,1,0,1,1,0,1,1,0,0,1
184537335,0,0.0,0.0,0.0,0.0,-1.2190801,-2.3742505e-06,-2.236855e-06,0.0,-0.3744519,0.7625901,-0.23137254,-0.29105076,-0.0005935626,-0.0005592137,0.0,-2.8651478,-0.19621716,-2.4081607,2.9726925,0.0,0.13364828,0.23137254,1.3396868,0.2550855,0.36227667,0.11048619,inf,inf,inf,inf,0,1,0,1,1,0,1,1,0,0,1
184633342,0,0.0,0.0,0.0,0.0,-1.2392435,-2.3742505e-06,-2.236855e-06,0.0,-0.33226952,0.79493994,-0.2518355,-0.30231372,-0.0005935626,-0.0005592137,0.0,-0.90199655,0.48324656,2.3289616,2.9661622,0.0,0.16666603,0.2518355,1.3475065,0.25512525,0.36471626,0.11047775,inf,inf,inf,inf,0,1,0,1,1,0,1,1,0,0,1
184738939,0,0.0,0.0,0.0,0.0,-1.261046,-2.3742505e-06,-2.236855e-06,0.0,-0.2763353,0.8399467,-0.25638705,-0.2966342,-0.0005935626,-0.0005592137,0.0,-0.78606236,2.1024015,-0.2490131,2.964586,0.0,0.16659784,0.25638705,1.357756,0.2558877,0.36630744,0.1106724,inf,inf,inf,inf,0,1,0,1,1,0,1,1,0,0,1
184842925,0,0.0,0.0,0.0,0.0,-1.2831631,-2.3742505e-06,-2.236855e-06,0.0,-0.21296434,0.88610196,-0.24445938,-0.27759978,-0.0005935626,-0.0005592137,0.0,-0.42209664,0.9674974,-2.3854392,2.9664137,0.0,0.16305685,0.24445938,1.3616673,0.2546898,0.36587697,0.1103275,inf,inf,inf,inf,0,1,0,1,1,0,1,1,0,0,1
184946950,0,0.0,0.0,0.0,0.0,-1.3087236,-2.3742505e-06,-2.236855e-06,0.0,-0.138332,0.93651813,-0.18618347,-0.21943083,-0.0005935626,-0.0005592137,0.0,-3.052781,-0.67039233,3.4028387,2.9679978,0.0,0.15091395,0.18618347,1.3650306,0.25352418,0.36517802,0.10999713,inf,inf,inf,inf,0,1,0,1,1,0,1,1,0,0,1
185042922,0,0.0,0.0,0.0,0.0,-1.3270527,-2.3742505e-06,-2.236855e-06,0.0,-0.05271131,0.9926171,-0.17768894,-0.20907854,-0.0005935626,-0.0005592137,0.0,1.77106,1.4388105,-3.9560924,2.9705746,0.0,0.14653552,0.17768894,1.3777667,0.25567207,0.36674583,0.110573076,inf,inf,inf,inf,0,1,0,1,1,0,1,1,0,0,1
185146840,0,0.0,0.0,0.0,0.0,-1.34433,-2.3742505e-06,-2.236855e-06,0.0,-0.013132397,1.0262738,-0.1327233,-0.16242367,-0.0005935626,-0.0005592137,0.0,-3.0935671,2.0657833,0.35829937,2.976467,0.0,0.15053487,0.1327233,1.386275,0.25640878,0.36716887,0.110755555,inf,inf,inf,inf,0,1,0,1,1,0,1,1,0,0,1
185250894,0,0.0,0.0,0.0,0.0,-1.3568274,-2.3742505e-06,-2.236855e-06,0.0,0.025030155,1.0362544,-0.090466686,-0.11866522,-0.0005935626,-0.0005592137,0.0,-1.0146977,-0.38241827,2.5416431,2.981965,0.0,0.15058696,0.090466686,1.3875649,0.25499955,0.3660904,0.1103486,inf,inf,inf,inf,0,1,0,1,1,0,1,1,0,0,1
185346946,0,0.0,0.0,0.0,0.0,-1.3682137,-2.3742505e-06,-2.236855e-06,0.0,0.042848684,1.0347018,-0.060665447,-0.09023217,-0.0005935626,-0.0005592137,0.0,1.2188722,0.96218336,1.7587798,2.9870946,0.0,0.16329598,0.060665447,1.3925704,0.25503045,0.36596155,0.11034889,inf,inf,inf,inf,0,1,0,1,1,0,1,1,0,0,1
185956668,0,0.0,0.0,0.0,0.0,-1.3098301,-2.3742505e-06,-2.236855e-06,0.0,-0.34959635,0.68391895,0.1312564,0.14452028,-0.0005935626,-0.0005592137,0.0,3.475991,-0.13031651,0.5990378,3.0046873,0.0,0.119791865,-0.1312564,1.4201902,0.25622737,0.36559135,0.11059452,inf,inf,inf,inf,0,1,0,1,1,0,1,1,0,0,1
186570145,0,0.0,0.0,0.0,0.0,-1.2584207,-2.3742505e-06,-2.236855e-06,0.0,-0.25215346,0.7018231,-0.24214944,-0.16975568,-0.0005935626,-0.0005592137,0.0,2.209802,0.9350503,5.2282076,2.9268563,0.0,0.21864843,0.24214944,1.4258187,0.25386718,0.3667252,0.109976485,inf,inf,inf,inf,0,1,0,1,1,0,1,1,0,0,1
186674101,0,0.0,0.0,0.0,0.0,-1.265761,-2.3742505e-06,-2.236855e-06,0.0,-0.13871029,0.77528405,-0.13992591,-0.06294501,-0.0005935626,-0.0005592137,0.0,3.156211,0.60334116,7.5677214,2.9322524,0.0,0.16519785,0.13992591,1.4224508,0.2524789,0.36608258,0.10963861,inf,inf,inf,inf,0,1,0,1,1,0,1,1,0,0,1
186778142,0,0.0,0.0,0.0,0.0,-1.2808892,-2.3742505e-06,-2.236855e-06,0.0,-0.061480682,0.8241268,-0.0979944,-0.032520056,-0.0005935626,-0.0005592137,0.0,-0.14591126,2.1250107,0.5361544,2.946493,0.0,0.124255896,0.0979944,1.4270098,0.25337315,0.3662141,0.10987801,inf,inf,inf,inf,0,1,0,1,1,0,1,1,0,0,1
186874229,0,0.0,0.0,0.0,0.0,-1.2969639,-2.3742505e-06,-2.236855e-06,0.0,-0.037000015,0.8274685,-0.049241345,-0.00086250925,-0.0005935626,-0.0005592137,0.0,1.2748126,1.7267164,1.2759421,2.9593487,0.0,0.1,0.049241345,1.4216807,0.25160283,0.3647222,0.10941078,inf,inf,inf,inf,0,1,0,1,1,0,1,1,0,0,1
186978338,0,0.0,0.0,0.0,0.0,-1.3111438,-2.3742505e-06,-2.236855e-06,0.0,-0.04624228,0.8092771,-0.010836631,0.020964758,-0.0005935626,-0.0005592137,0.0,0.5413202,1.2331334,4.302215,2.9693835,0.0,0.1,0.010836631,1.4260666,0.25257328,0.36516687,0.109707214,inf,inf,inf,inf,0,1,0,1,1,0,1,1,0,0,1
187082149,0,0.0,0.0,0.0,0.0,-1.3194504,-2.3742505e-06,-2.236855e-06,0.0,-0.09110662,0.7725745,-0.006580667,0.01395595,-0.0005935626,-0.0005592137,0.0,-1.6007118,0.19480428,-0.27316442,2.9790986,0.0,0.1,0.006580667,1.4230745,0.25154307,0.36429894,0.10946692,inf,inf,inf,inf,0,1,0,1,1,0,1,1,0,0,1
187178133,0,0.0,0.0,0.0,0.0,-1.328862,-2.3742505e-06,-2.236855e-06,0.0,-0.10602315,0.740901,-0.019497616,-0.009289107,-0.0005935626,-0.0005592137,0.0,-2.964324,1.5822484,-1.898693,2.9889126,0.0,0.1,0.019497616,1.4246747,0.25183743,0.36453107,0.10957688,inf,inf,inf,inf,0,1,0,1,1,0,1,1,0,0,1
187282167,0,0.0,0.0,0.0,0.0,-1.3358752,-2.3742505e-06,-2.236855e-06,0.0,-0.12523717,0.71739477,-0.008036901,-0.0041523413,-0.0005935626,-0.0005592137,0.0,-0.019830413,0.9544256,1.417942,2.9978929,0.0,0.1,0.008036901,1.4215888,0.25087577,0.36408725,0.10935564,inf,inf,inf,inf,0,1,0,1,1,0,1,1,0,0,1
187387897,0,0.0,0.0,0.0,0.0,-1.3319772,-2.3742505e-06,-2.236855e-06,0.0,-0.12865736,0.6955551,0.047075965,0.053135768,-0.0005935626,-0.0005592137,0.0,-0.16690643,0.16445126,1.6906911,3.0029593,0.0,0.112941384,-0.047075965,1.4256345,0.2519066,0.365076,0.109673895,inf,inf,inf,inf,0,1,0,1,1,0,1,1,0,0,1
187483725,0,0.0,0.0,0.0,0.0,-1.3064997,-2.3742505e-06,-2.236855e-06,0.0,-0.14648892,0.69631475,0.3753521,0.3886212,-0.0005935626,-0.0005592137,0.0,-1.4604231,-0.48040897,4.1917324,3.0074172,0.0,0.10503745,-0.3753521,1.4269636,0.2522041,0.36536968,0.10978398,inf,inf,inf,inf,0,1,0,1,1,0,1,1,0,0,1
187587784,0,0.0,0.0,0.0,0.0,-1.2685963,-2.3742505e-06,-2.236855e-06,0.0,-0.1782197,0.36584252,-0.23449418,-0.21613112,-0.0005935626,-0.0005592137,0.0,-0.9257178,-4.779898,-14.020359,3.023194,0.0,0.1,0.23449418,1.4240905,0.25137272,0.36441183,0.109569594,inf,inf,inf,inf,0,1,0,1,1,0,1,1,0,0,1
187691788,0,0.0,0.0,0.0,0.0,-1.2992164,-2.3742505e-06,-2.236855e-06,0.0,-0.19492729,0.21775453,-0.07049749,-0.049332026,-0.0005935626,-0.0005592137,0.0,-0.29484117,-0.7234977,7.973239,3.035985,0.0,0.13011265,0.07049749,1.4206548,0.25045884,0.36195022,0.109362654,inf,inf,inf,inf,0,1,0,1,1,0,1,1,0,0,1
187787857,0,0.0,0.0,0.0,0.0,-1.275545,-2.3742505e-06,-2.236855e-06,0.0,-0.20188616,0.026692592,0.16074868,0.18463548,-0.0005935626,-0.0005592137,0.0,-1.9350176,-3.7322857,-7.4206767,3.0608037,0.0,0.12980711,-0.16074868,1.4220593,0.2508568,0.36858007,0.108643256,inf,inf,inf,inf,0,1,0,1,1,0,1,1,0,0,1
187891790,0,0.0,0.0,0.0,0.0,-1.2839457,-2.3742505e-06,-2.236855e-06,0.0,-0.23310459,-0.29248923,-0.17249742,-0.14363784,-0.0005935626,-0.0005592137,0.0,0.9253639,-2.1856277,7.166962,3.083092,0.0,0.1382078,0.17249742,1.4189591,0.24991259,0.36441183,0.1065604,inf,inf,inf,inf,0,1,0,1,1,0,1,1,0,0,1
187995807,0,0.0,0.0,0.0,0.0,-1.2708272,-2.3742505e-06,-2.236855e-06,0.0,-0.26840112,-0.4936407,0.08931602,0.120778516,-0.0005935626,-0.0005592137,0.0,0.54954416,-3.4979675,-4.396854,3.1077273,0.0,0.12508929,-0.08931602,1.4227451,0.25078315,0.3684419,0.10521418,inf,inf,inf,inf,0,1,0,1,1,0,1,1,0,0,1
188091679,0,0.0,0.0,0.0,0.0,-1.2714363,-2.3742505e-06,-2.236855e-06,0.0,-0.30760008,-0.81939346,-0.124043085,-0.08893517,-0.0005935626,-0.0005592137,0.0,-1.351282,-2.333201,2.45695,3.1310716,0.0,0.12569845,0.124043085,1.4169672,0.24892955,0.3669661,0.103380054,inf,inf,inf,inf,0,1,0,1,1,0,1,1,0,0,1
188195900,0,0.0,0.0,0.0,0.0,-1.2567787,-2.3742505e-06,-2.236855e-06,0.0,-0.32625592,-1.0464056,0.07405257,0.11548495,-0.0005935626,-0.0005592137,0.0,-0.010813629,-3.3488946,-2.0837216,-3.1253777,0.0,0.12625372,-0.07405257,1.4207112,0.2495975,0.36970288,0.102319844,inf,inf,inf,inf,0,1,0,1,1,0,1,1,0,0,1
188297434,0,0.0,0.0,0.0,0.0,-1.2479528,-2.3742505e-06,-2.236855e-06,0.0,-0.35747352,-1.3734808,-0.02210889,0.025254736,-0.0005935626,-0.0005592137,0.0,-0.32555002,-2.8811157,1.064015,-3.103337,0.0,0.11995208,0.02210889,1.424469,0.25015166,0.37137887,0.101402216,inf,inf,inf,inf,0,1,0,1,1,0,1,1,0,0,1
188401484,0,0.0,0.0,0.0,0.0,-1.2321364,-2.3742505e-06,-2.236855e-06,0.0,-0.38422355,-1.6423888,0.05300936,0.104933776,-0.0005935626,-0.0005592137,0.0,-0.17158306,-2.5155694,-1.4168535,-3.0862923,0.0,0.11634517,-0.05300936,1.4280472,0.25058392,0.37435755,0.10064127,inf,inf,inf,inf,0,1,0,1,1,0,1,1,0,0,1
188497298,0,0.0,0.0,0.0,0.0,-1.2231947,-2.3742505e-06,-2.236855e-06,0.0,-0.41997746,-1.8900328,0.053599432,0.10561476,-0.0005935626,-0.0005592137,0.0,0.33257312,-1.0610938,0.010298524,-3.0785701,0.0,0.10740352,-0.053599432,1.421232,0.24822286,0.37445617,0.099449985,inf,inf,inf,inf,0,1,0,1,1,0,1,1,0,0,1
188601280,0,0.0,0.0,0.0,0.0,-1.2139782,-2.3742505e-06,-2.236855e-06,0.0,-0.4295744,-1.9078114,0.04418196,0.094070286,-0.0005935626,-0.0005592137,0.0,-0.38582534,0.08708823,-0.102853544,-3.0812945,0.0,0.1,-0.04418196,1.424949,0.24859461,0.37763065,0.099038,inf,inf,inf,inf,0,1,0,1,1,0,1,1,0,0,1
188705233,0,0.0,0.0,0.0,0.0,-1.2074608,-2.3742505e-06,-2.236855e-06,0.0,-0.4347192,-1.9483284,0.04613012,0.09188304,-0.0005935626,-0.0005592137,0.0,-0.14062764,-0.167914,0.054169554,-3.079296,0.0,0.1,-0.04613012,1.4285504,0.24886167,0.3803877,0.098622024,inf,inf,inf,inf,0,1,0,1,1,0,1,1,0,0,1
188801434,0,0.0,0.0,0.0,0.0,-1.2001989,-2.3742505e-06,-2.236855e-06,0.0,-0.43964273,-1.9825909,0.04616341,0.08973974,-0.0005935626,-0.0005592137,0.0,-0.13410337,-0.44341564,0.000432366,-3.0794036,0.0,0.1,-0.04616341,1.4224606,0.24660534,0.381482,0.09762261,inf,inf,inf,inf,0,1,0,1,1,0,1,1,0,0,1
188905340,0,0.0,0.0,0.0,0.0,-1.1940515,-2.3742505e-06,-2.236855e-06,0.0,-0.4455557,-2.0151412,0.04561508,0.085446514,-0.0005935626,-0.0005592137,0.0,-0.19514067,-0.21551125,-0.14548203,-3.0790572,0.0,0.1,-0.04561508,1.4262785,0.24687156,0.3847063,0.09734856,inf,inf,inf,inf,0,1,0,1,1,0,1,1,0,0,1
189009386,0,0.0,0.0,0.0,0.0,-1.187801,-2.3742505e-06,-2.236855e-06,0.0,-0.43646148,-2.040983,0.04552091,0.08216137,-0.0005935626,-0.0005592137,0.0,-0.15373425,-0.27125895,0.1726932,-3.0778835,0.0,0.1,-0.04552091,0.4741362,0.2452576,0.24755068,0.09657811,inf,inf,inf,inf,0,1,0,1,1,0,1,1,0,0,1
189113354,0,0.0,0.0,0.0,0.0,-1.180394,-2.3742505e-06,-2.236855e-06,0.0,-0.4047024,-2.0580392,0.04667483,0.081682466,-0.0005935626,-0.0005592137,0.0,-0.07609248,-0.31913266,-0.056647364,-3.0783112,0.0,0.1,-0.04667483,0.2881794,0.24548681,0.23883834,0.0965328,inf,inf,inf,inf,0,1,0,1,1,0,1,1,0,0,1
189211029,0,0.0,0.0,0.0,0.0,-1.1720445,-2.3742505e-06,-2.236855e-06,0.0,-0.3851204,-2.0679722,0.04784357,0.082926236,-0.0005935626,-0.0005592137,0.0,-0.104410805,-0.24292582,0.1315837,-3.0770988,0.0,0.102027535,-0.04784357,0.2283057,0.2450771,0.240427,0.09644828,inf,inf,inf,inf,0,1,0,1,1,0,1,1,0,0,1
189314893,0,0.0,0.0,0.0,0.0,-1.1604613,-2.3742505e-06,-2.236855e-06,0.0,-0.36915126,-2.0665019,0.04833915,0.08592097,-0.0005935626,-0.0005592137,0.0,-0.09741155,-0.42861512,-0.120784365,-3.0770257,0.0,0.10149491,-0.04833915,0.19841932,0.24524054,0.24414946,0.0965969,inf,inf,inf,inf,0,1,0,1,1,0,1,1,0,0,1
189410929,0,0.0,0.0,0.0,0.0,-1.1535543,-2.3742505e-06,-2.236855e-06,0.0,-0.35681617,-2.0555928,0.048036348,0.08390426,-0.0005935626,-0.0005592137,0.0,-0.04312945,-0.2722813,-0.009410138,-3.0766242,0.0,0.1,-0.048036348,0.17534472,0.24316667,0.24609692,0.096323706,inf,inf,inf,inf,0,1,0,1,1,0,1,1,0,0,1
189515006,0,0.0,0.0,0.0,0.0,-1.1488599,-2.3742505e-06,-2.236855e-06,0.0,-0.34583452,-2.0296683,0.04624679,0.077930935,-0.0005935626,-0.0005592137,0.0,-0.083319135,-0.29289585,-0.08610735,-3.0759103,0.0,0.1,-0.04624679,0.16687581,0.24341027,0.24912454,0.0966785,inf,inf,inf,inf,0,1,0,1,1,0,1,1,0,0,1
189619028,0,0.0,0.0,0.0,0.0,-1.1461719,-2.3742505e-06,-2.236855e-06,0.0,-0.33531612,-1.9881049,0.043711618,0.070062585,-0.0005935626,-0.0005592137,0.0,-0.0806705,-0.27257353,0.04452647,-3.0758193,0.0,0.1,-0.043711618,0.16261828,0.24365087,0.2507521,0.097104035,inf,inf,inf,inf,0,1,0,1,1,0,1,1,0,0,1
189714877,0,0.0,0.0,0.0,0.0,-1.1426865,-2.3742505e-06,-2.236855e-06,0.0,-0.3247217,-1.9279578,0.040758446,0.06413004,-0.0005935626,-0.0005592137,0.0,-0.18248932,-0.30111027,-0.044421352,-3.0751312,0.0,0.1,-0.040758446,0.16004059,0.24333426,0.25026226,0.097439885,inf,inf,inf,inf,0,1,0,1,1,0,1,1,0,0,1
189818935,0,0.0,0.0,0.0,0.0,-1.1421521,-2.3742505e-06,-2.236855e-06,0.0,-0.31042653,-1.8449925,0.036733616,0.05459918,-0.0005935626,-0.0005592137,0.0,-0.06779745,-0.20246293,0.10205951,-3.074801,0.0,0.1,-0.036733616,0.1602894,0.24359307,0.24865113,0.09798871,inf,inf,inf,inf,0,1,0,1,1,0,1,1,0,0,1
189922886,0,0.0,0.0,0.0,0.0,-1.1446506,-2.3742505e-06,-2.236855e-06,0.0,-0.29406923,-1.7359872,0.030757211,0.041381624,-0.0005935626,-0.0005592137,0.0,-0.043851282,-0.11831796,0.01711332,-3.0741851,0.0,0.1,-0.030757211,0.15753531,0.24207155,0.24245083,0.098199576,inf,inf,inf,inf,0,1,0,1,1,0,1,1,0,0,1
190026967,0,0.0,0.0,0.0,0.0,-1.1505523,-2.3742505e-06,-2.236855e-06,0.0,-0.27433795,-1.5999979,0.02310188,0.024921674,-0.0005935626,-0.0005592137,0.0,-0.175414,-0.11655376,0.096742816,-3.0735278,0.0,0.1,-0.02310188,0.1556106,0.24064377,0.23496614,0.09848873,inf,inf,inf,inf,0,1,0,1,1,0,1,1,0,0,1
190124494,0,0.0,0.0,0.0,0.0,-1.1555772,-2.3742505e-06,-2.236855e-06,0.0,-0.25292686,-1.4569638,0.015809432,0.011717651,-0.0005935626,-0.0005592137,0.0,-0.034212362,0.10690735,-0.012543357,-3.073102,0.0,0.1,-0.015809432,0.15654585,0.24049072,0.22924612,0.09906022,inf,inf,inf,inf,0,1,0,1,1,0,1,1,0,0,1
190228572,0,0.0,0.0,0.0,0.0,-1.1637279,-2.3742505e-06,-2.236855e-06,0.0,-0.22877535,-1.2920647,0.0073877554,-0.004109351,-0.0005935626,-0.0005592137,0.0,-0.04633019,-0.05831257,-0.121311024,-3.0725648,0.0,0.1,-0.0073877554,0.15868314,0.2409519,0.22331075,0.0998539,inf,inf,inf,inf,0,1,0,1,1,0,1,1,0,0,1
190324497,0,0.0,0.0,0.0,0.0,-1.1725565,-2.3742505e-06,-2.236855e-06,0.0,-0.20644149,-1.1364179,0.0011601713,-0.016857382,-0.0005935626,-0.0005592137,0.0,-0.17421375,0.031177651,0.04375906,-3.0721557,0.0,0.1,-0.0011601713,0.15921709,0.24097136,0.21608979,0.10051281,inf,inf,inf,inf,0,1,0,1,1,0,1,1,0,0,1
190428620,0,0.0,0.0,0.0,0.0,-1.181417,-2.3742505e-06,-2.236855e-06,0.0,-0.18243594,-0.96806407,-0.0059250323,-0.028747885,-0.0005935626,-0.0005592137,0.0,-0.10828817,0.069028094,0.03740448,-3.0708737,0.0,0.1,0.0059250323,0.16450422,0.24148247,0.21242593,0.10136849,inf,inf,inf,inf,0,1,0,1,1,0,1,1,0,0,1
190532578,0,0.0,0.0,0.0,0.0,-1.1894761,-2.3742505e-06,-2.236855e-06,0.0,-0.16334605,-0.8344135,-0.011405858,-0.03704189,-0.0005935626,-0.0005592137,0.0,0.08669254,0.2131208,-0.12267819,-3.0692942,0.0,0.1,0.011405858,0.18323018,0.24208914,0.21964975,0.10228505,inf,inf,inf,inf,0,1,0,1,1,0,1,1,0,0,1
190628499,0,0.0,0.0,0.0,0.0,-1.1974523,-2.3742505e-06,-2.236855e-06,0.0,-0.15484597,-0.7409315,-0.01455326,-0.042666238,-0.0005935626,-0.0005592137,0.0,-0.45759487,0.5277419,0.526833,-3.0703511,0.0,0.10278046,0.01455326,0.20167224,0.24212988,0.22637883,0.10302017,inf,inf,inf,inf,0,1,0,1,1,0,1,1,0,0,1
190732554,0,0.0,0.0,0.0,0.0,-1.1998715,-2.3742505e-06,-2.236855e-06,0.0,-0.14469144,-0.66875505,-0.01740785,-0.041660618,-0.0005935626,-0.0005592137,0.0,-0.14147925,0.31836638,-0.30095693,-3.0698123,0.0,0.107466936,0.01740785,0.22275947,0.2410737,0.23370104,0.10357843,inf,inf,inf,inf,0,1,0,1,1,0,1,1,0,0,1
190836679,0,0.0,0.0,0.0,0.0,-1.2027522,-2.3742505e-06,-2.236855e-06,0.0,-0.14193586,-0.61611325,-0.017875673,-0.03924511,-0.0005935626,-0.0005592137,0.0,-0.20529488,0.056130927,0.018141717,-3.0685532,0.0,0.11034763,0.017875673,0.24494971,0.24184746,0.24110349,0.1045455,inf,inf,inf,inf,0,1,0,1,1,0,1,1,0,0,1
190940459,0,0.0,0.0,0.0,0.0,-1.2052432,-2.3742505e-06,-2.236855e-06,0.0,-0.14095394,-0.5758162,-0.018463718,-0.03715187,-0.0005935626,-0.0005592137,0.0,-0.3705123,0.07527723,-0.028678467,-3.0684316,0.0,0.112838626,0.018463718,0.26809114,0.24089465,0.24850203,0.1051066,inf,inf,inf,inf,0,1,0,1,1,0,1,1,0,0,1
191038147,0,0.0,0.0,0.0,0.0,-1.207444,-2.3742505e-06,-2.236855e-06,0.0,-0.14165616,-0.54736865,-0.021345563,-0.037856,-0.0005935626,-0.0005592137,0.0,-0.1795739,0.2908388,-0.084164985,-3.0670803,0.0,0.11503935,0.021345563,0.29030484,0.24119405,0.25537154,0.10589228,inf,inf,inf,inf,0,1,0,1,1,0,1,1,0,0,1
191142075,0,0.0,0.0,0.0,0.0,-1.20935,-2.3742505e-06,-2.236855e-06,0.0,-0.14318576,-0.5264613,-0.018833209,-0.032822154,-0.0005935626,-0.0005592137,0.0,-0.03543427,-0.5330264,0.11798019,-3.0677571,0.0,0.116945386,0.018833209,0.31517383,0.24046315,0.2627949,0.10649173,inf,inf,inf,inf,0,1,0,1,1,0,1,1,0,0,1
191246099,0,0.0,0.0,0.0,0.0,-1.2110677,-2.3742505e-06,-2.236855e-06,0.0,-0.14599724,-0.50209355,-0.01801824,-0.029772412,-0.0005935626,-0.0005592137,0.0,-0.3308545,0.6654208,0.65131927,-3.067785,0.0,0.11866307,0.01801824,0.34125054,0.23993465,0.27032906,0.10710562,inf,inf,inf,inf,0,1,0,1,1,0,1,1,0,0,1
191350052,0,0.0,0.0,0.0,0.0,-1.2112473,-2.3742505e-06,-2.236855e-06,0.0,-0.14694136,-0.4900254,-0.02516648,-0.03336976,-0.0005935626,-0.0005592137,0.0,-0.31405368,0.43673667,-0.60429144,-3.0647855,0.0,0.11884272,0.02516648,0.36781505,0.24112149,0.27781647,0.108118385,inf,inf,inf,inf,0,1,0,1,1,0,1,1,0,0,1
191454093,0,0.0,0.0,0.0,0.0,-1.2094028,-2.3742505e-06,-2.236855e-06,0.0,-0.14789595,-0.47561973,-0.02034225,-0.023470584,-0.0005935626,-0.0005592137,0.0,-0.4752006,-0.5266961,-0.20436944,-3.067104,0.0,0.116998196,0.02034225,0.3949953,0.24059764,0.2852112,0.10868888,inf,inf,inf,inf,0,1,0,1,1,0,1,1,0,0,1
191550137,0,0.0,0.0,0.0,0.0,-1.2098707,-2.3742505e-06,-2.236855e-06,0.0,-0.15046804,-0.45926255,-0.018661104,-0.020131811,-0.0005935626,-0.0005592137,0.0,-0.07255148,0.5023867,0.1567944,-3.065425,0.0,0.11746609,0.018661104,0.4207928,0.24123605,0.29207265,0.10945745,inf,inf,inf,inf,0,1,0,1,1,0,1,1,0,0,1
191654219,0,0.0,0.0,0.0,0.0,-1.2125838,-2.3742505e-06,-2.236855e-06,0.0,-0.15444455,-0.4440934,-0.01962227,-0.021635171,-0.0005935626,-0.0005592137,0.0,0.16705503,0.7044834,-0.0579874,-3.0651097,0.0,0.12017918,0.01962227,0.44923925,0.24083924,0.2993539,0.10999365,inf,inf,inf,inf,0,1,0,1,1,0,1,1,0,0,1
191758204,0,0.0,0.0,0.0,0.0,-1.214997,-2.3742505e-06,-2.236855e-06,0.0,-0.1573778,-0.42791215,-0.020890076,-0.022933057,-0.0005935626,-0.0005592137,0.0,-0.19037536,0.87192434,0.34139374,-3.064612,0.0,0.10508704,0.020890076,0.47826174,0.24051286,0.3065813,0.11051242,inf,inf,inf,inf,0,1,0,1,1,0,1,1,0,0,1
191854186,0,0.0,0.0,0.0,0.0,-1.2168154,-2.3742505e-06,-2.236855e-06,0.0,-0.15974756,-0.42034277,-0.022047294,-0.023825565,-0.0005935626,-0.0005592137,0.0,0.027791746,-0.28688312,-0.37190396,-3.0641482,0.0,0.107675076,0.022047294,0.5057255,0.24132808,0.3132833,0.11123331,inf,inf,inf,inf,0,1,0,1,1,0,1,1,0,0,1
191955699,0,0.0,0.0,0.0,0.0,-1.2209141,-2.3742505e-06,-2.236855e-06,0.0,-0.16514602,-0.39904627,-0.023342425,-0.026824536,-0.0005935626,-0.0005592137,0.0,0.32884476,1.2206146,-0.5042905,-3.0633326,0.0,0.11177385,0.023342425,0.5360945,0.24283302,0.32054207,0.11213724,inf,inf,inf,inf,0,1,0,1,1,0,1,1,0,0,1
192059718,0,0.0,0.0,0.0,0.0,-1.2239367,-2.3742505e-06,-2.236855e-06,0.0,-0.1668032,-0.38440472,-0.023697682,-0.027563736,-0.0005935626,-0.0005592137,0.0,0.085087195,1.2541486,-0.24559692,-3.0626214,0.0,0.106344104,0.023697682,0.5658092,0.24241292,0.32734045,0.112544484,inf,inf,inf,inf,0,1,0,1,1,0,1,1,0,0,1
192163649,0,0.0,0.0,0.0,0.0,-1.2263755,-2.3742505e-06,-2.236855e-06,0.0,-0.16785108,-0.37030327,-0.025430989,-0.029073764,-0.0005935626,-0.0005592137,0.0,0.8632384,-1.181242,-1.8589022,-3.0621693,0.0,0.10878289,0.025430989,0.59662586,0.24225366,0.3341392,0.11294433,inf,inf,inf,inf,0,1,0,1,1,0,1,1,0,0,1
192259847,0,0.0,0.0,0.0,0.0,-1.2283992,-2.3742505e-06,-2.236855e-06,0.0,-0.16894162,-0.34820637,-0.01849893,-0.021878624,-0.0005935626,-0.0005592137,0.0,0.24344984,1.916726,0.569797,-3.0619156,0.0,0.110806584,0.01849893,0.62568074,0.24319655,0.3404602,0.113553055,inf,inf,inf,inf,0,1,0,1,1,0,1,1,0,0,1
192363800,0,0.0,0.0,0.0,0.0,-1.2291198,-2.3742505e-06,-2.236855e-06,0.0,-0.17228024,-0.33771008,-0.022227567,-0.024165837,-0.0005935626,-0.0005592137,0.0,0.24201272,-1.5238286,-0.93688685,-3.061202,0.0,0.111527205,0.022227567,0.6576873,0.24481401,0.34725532,0.11432554,inf,inf,inf,inf,0,1,0,1,1,0,1,1,0,0,1
192467856,0,0.0,0.0,0.0,0.0,-1.2271413,-2.3742505e-06,-2.236855e-06,0.0,-0.16900475,-0.3177403,-0.018627396,-0.016574608,-0.0005935626,-0.0005592137,0.0,0.69871604,-0.9117334,-0.43885127,-3.0607572,0.0,0.11057472,0.018627396,0.68919057,0.24459733,0.35352287,0.11456109,inf,inf,inf,inf,0,1,0,1,1,0,1,1,0,0,1
192571804,0,0.0,0.0,0.0,0.0,-1.2243018,-2.3742505e-06,-2.236855e-06,0.0,-0.17621857,-0.2949036,-0.021649554,-0.0153741725,-0.0005935626,-0.0005592137,0.0,-0.29857478,-1.0320504,-1.2212924,-3.0600576,0.0,0.116030574,0.021649554,0.7217053,0.24626093,0.36005342,0.115268774,inf,inf,inf,inf,0,1,0,1,1,0,1,1,0,0,1
192667799,0,0.0,0.0,0.0,0.0,-1.2215494,-2.3742505e-06,-2.236855e-06,0.0,-0.17194325,-0.28384066,-0.01890488,-0.0088794585,-0.0005935626,-0.0005592137,0.0,0.56310314,-0.51186234,-0.14104603,-3.0591505,0.0,0.1151247,0.01890488,0.7515253,0.247185,0.36576054,0.1157126,inf,inf,inf,inf,0,1,0,1,1,0,1,1,0,0,1
192769521,0,0.0,0.0,0.0,0.0,-1.2179391,-2.3742505e-06,-2.236855e-06,0.0,-0.17059617,-0.25324923,-0.013462669,0.00045912067,-0.0005935626,-0.0005592137,0.0,0.4493869,1.2116523,0.38049147,-3.0585003,0.0,0.11751163,0.013462669,0.7842263,0.24874094,0.37190157,0.11629405,inf,inf,inf,inf,0,1,0,1,1,0,1,1,0,0,1
192873419,0,0.0,0.0,0.0,0.0,-1.2145225,-2.3742505e-06,-2.236855e-06,0.0,-0.17292374,-0.24137293,-0.013506433,0.0031061328,-0.0005935626,-0.0005592137,0.0,1.3905494,-2.9736552,-0.9831582,-3.0579205,0.0,0.114813685,0.013506433,0.81699246,0.25029865,0.37784442,0.11683881,inf,inf,inf,inf,0,1,0,1,1,0,1,1,0,0,1
192977415,0,0.0,0.0,0.0,0.0,-1.2147658,-2.3742505e-06,-2.236855e-06,0.0,-0.17515191,-0.20861924,-0.013096836,0.0022835769,-0.0005935626,-0.0005592137,0.0,0.33474547,0.978513,-1.3336338,-3.0573325,0.0,0.11505699,0.013096836,0.8488543,0.2516141,0.3834397,0.11732059,inf,inf,inf,inf,0,1,0,1,1,0,1,1,0,0,1
193073475,0,0.0,0.0,0.0,0.0,-1.2135669,-2.3742505e-06,-2.236855e-06,0.0,-0.1769669,-0.17675412,-0.00856014,0.0071614245,-0.0005935626,-0.0005592137,0.0,-0.9447692,1.1951636,0.46348315,-3.0566545,0.0,0.113858104,0.00856014,0.8767951,0.2504334,0.38759786,0.117025785,inf,inf,inf,inf,0,1,0,1,1,0,1,1,0,0,1
193177263,0,0.0,0.0,0.0,0.0,-1.21027,-2.3742505e-06,-2.236855e-06,0.0,-0.17971712,-0.15627475,-0.018813763,-0.00068271917,-0.0005935626,-0.0005592137,0.0,1.4529022,-1.246665,-1.8249267,-3.0554702,0.0,0.11056125,0.018813763,0.90909505,0.2519257,0.39284384,0.11745195,inf,inf,inf,inf,0,1,0,1,1,0,1,1,0,0,1
193281306,0,0.0,0.0,0.0,0.0,-1.2096279,-2.3742505e-06,-2.236855e-06,0.0,-0.18874164,-0.12742247,-0.017816594,0.000520683,-0.0005935626,-0.0005592137,0.0,1.0747172,0.10252356,-1.7608118,-3.0541887,0.0,0.10991907,0.017816594,0.94115037,0.25338396,0.39779967,0.11783465,inf,inf,inf,inf,0,1,0,1,1,0,1,1,0,0,1
193377313,0,0.0,0.0,0.0,0.0,-1.2120346,-2.3742505e-06,-2.236855e-06,0.0,-0.1746967,-0.09820967,-0.008921185,0.005937668,-0.0005935626,-0.0005592137,0.0,1.1692064,0.9914763,-0.37532303,-3.0531392,0.0,0.11232579,0.008921185,0.9697643,0.25406626,0.40193945,0.11797298,inf,inf,inf,inf,0,1,0,1,1,0,1,1,0,0,1
193481374,0,0.0,0.0,0.0,0.0,-1.2183166,-2.3742505e-06,-2.236855e-06,0.0,-0.19539797,-0.06496873,-0.02657519,-0.017652929,-0.0005935626,-0.0005592137,0.0,0.07363441,0.042042352,2.0962272,-3.052579,0.0,0.11860776,0.02657519,1.0010662,0.25541645,0.4063416,0.11826051,inf,inf,inf,inf,0,1,0,1,1,0,1,1,0,0,1
193585267,0,0.0,0.0,0.0,0.0,-1.2292062,-2.3742505e-06,-2.236855e-06,0.0,-0.21252704,-0.03995123,-0.054635093,-0.05269205,-0.0005935626,-0.0005592137,0.0,-0.1771965,-1.1080132,0.4014466,-3.0518756,0.0,0.12949741,0.054635093,1.0318204,0.25668365,0.41057697,0.118496835,inf,inf,inf,inf,0,1,0,1,1,0,1,1,0,0,1
193683003,0,0.0,0.0,0.0,0.0,-1.2406601,-2.3742505e-06,-2.236855e-06,0.0,-0.2364428,-0.020871412,-0.045107786,-0.049579564,-0.0005935626,-0.0005592137,0.0,-0.54968965,0.7059106,2.1132798,-3.0504966,0.0,0.14095128,0.045107786,1.05884,0.2571555,0.41393164,0.11849405,inf,inf,inf,inf,0,1,0,1,1,0,1,1,0,0,1
193786873,0,0.0,0.0,0.0,0.0,-1.2486879,-2.3742505e-06,-2.236855e-06,0.0,-0.27660772,0.0020979852,-0.07032741,-0.07624199,-0.0005935626,-0.0005592137,0.0,-3.074006,0.4963458,-1.5836211,-3.0483396,0.0,0.14897907,0.07032741,1.0884688,0.25833523,0.41746768,0.118659936,inf,inf,inf,inf,0,1,0,1,1,0,1,1,0,0,1
193890922,0,0.0,0.0,0.0,0.0,-1.2522442,-2.3742505e-06,-2.236855e-06,0.0,-0.3228082,0.016962804,-0.07579859,-0.07717448,-0.0005935626,-0.0005592137,0.0,-1.5522841,-0.030587187,-3.2166538,-3.0445902,0.0,0.15253544,0.07579859,1.1147317,0.2575348,0.41962382,0.118217774,inf,inf,inf,inf,0,1,0,1,1,0,1,1,0,0,1
193987072,0,0.0,0.0,0.0,0.0,-1.2458603,-2.3742505e-06,-2.236855e-06,0.0,-0.3613561,0.034325246,-0.07002101,-0.057996545,-0.0005935626,-0.0005592137,0.0,1.4792585,0.99807286,-3.7673404,-3.041397,0.0,0.14939523,0.07002101,1.1397094,0.25799444,0.4220801,0.11817732,inf,inf,inf,inf,0,1,0,1,1,0,1,1,0,0,1
194090904,0,0.0,0.0,0.0,0.0,-1.236493,-2.3742505e-06,-2.236855e-06,0.0,-0.41638905,0.059467115,-0.082139686,-0.055085883,-0.0005935626,-0.0005592137,0.0,-0.66812086,0.60759443,-2.5233364,-3.0385163,0.0,0.14905739,0.082139686,1.1632606,0.25702932,0.42342162,0.11769866,inf,inf,inf,inf,0,1,0,1,1,0,1,1,0,0,1
194195005,0,0.0,0.0,0.0,0.0,-1.2294735,-2.3742505e-06,-2.236855e-06,0.0,-0.44861355,0.09019629,-0.08022005,-0.04156027,-0.0005935626,-0.0005592137,0.0,2.662443,-1.962784,0.40420234,-3.036305,0.0,0.1450094,0.08022005,1.1897383,0.25815836,0.42586204,0.1178146,inf,inf,inf,inf,0,1,0,1,1,0,1,1,0,0,1
194290847,0,0.0,0.0,0.0,0.0,-1.21775,-2.3742505e-06,-2.236855e-06,0.0,-0.48870748,0.14012387,-0.07088043,-0.018206522,-0.0005935626,-0.0005592137,0.0,-2.933442,0.90936637,-0.80382717,-3.0354967,0.0,0.1574421,0.07088043,1.2121805,0.25854796,0.42741364,0.11772786,inf,inf,inf,inf,0,1,0,1,1,0,1,1,0,0,1
194394968,0,0.0,0.0,0.0,0.0,-1.212723,-2.3742505e-06,-2.236855e-06,0.0,-0.52422905,0.18415505,-0.05522499,0.0017820393,-0.0005935626,-0.0005592137,0.0,-0.6373463,-0.1247144,-0.64780414,-3.0357232,0.0,0.12812233,0.05522499,1.2324898,0.2575587,0.42772287,0.11722891,inf,inf,inf,inf,0,1,0,1,1,0,1,1,0,0,1
194498868,0,0.0,0.0,0.0,0.0,-1.2173598,-2.3742505e-06,-2.236855e-06,0.0,-0.56531614,0.21473913,-0.04594644,0.004648969,-0.0005935626,-0.0005592137,0.0,-3.7222867,-1.2415534,0.48702207,-3.0359948,0.0,0.10040355,0.04594644,1.2515845,0.25659996,0.4277003,0.11673782,inf,inf,inf,inf,0,1,0,1,1,0,1,1,0,0,1
194595667,0,0.0,0.0,0.0,0.0,-1.2252678,-2.3742505e-06,-2.236855e-06,0.0,-0.590293,0.2532244,-0.03208889,0.008440076,-0.0005935626,-0.0005592137,0.0,-0.11836147,-0.1988814,-1.1102353,-3.0369058,0.0,0.1,0.03208889,1.2712146,0.25701854,0.4283708,0.11666286,inf,inf,inf,inf,0,1,0,1,1,0,1,1,0,0,1
194696549,0,0.0,0.0,0.0,0.0,-1.2340236,-2.3742505e-06,-2.236855e-06,0.0,-0.63250333,0.29439977,-0.036239486,-0.0065219365,-0.0005935626,-0.0005592137,0.0,-2.8408673,-0.3170046,-1.4602906,-3.03805,0.0,0.1,0.036239486,1.2933185,0.25817165,0.42937723,0.11677834,inf,inf,inf,inf,0,1,0,1,1,0,1,1,0,0,1
194800486,0,0.0,0.0,0.0,0.0,-1.2438395,-2.3742505e-06,-2.236855e-06,0.0,-0.67385364,0.32910922,-0.020532748,-0.0009479838,-0.0005935626,-0.0005592137,0.0,-2.1902258,-1.5716022,0.65475786,-3.0392673,0.0,0.1,0.020532748,1.3078547,0.25691,0.42826134,0.11623693,inf,inf,inf,inf,0,1,0,1,1,0,1,1,0,0,1
194904624,0,0.0,0.0,0.0,0.0,-1.2511766,-2.3742505e-06,-2.236855e-06,0.0,-0.72900724,0.33151197,-0.002083958,0.009150323,-0.0005935626,-0.0005592137,0.0,-2.6688504,-1.9014351,-0.3510698,-3.040797,0.0,0.1,0.002083958,1.3279004,0.25798792,0.42890716,0.11632521,inf,inf,inf,inf,0,1,0,1,1,0,1,1,0,0,1
195000521,0,0.0,0.0,0.0,0.0,-1.2550707,-2.3742505e-06,-2.236855e-06,0.0,-0.7862751,0.3333955,0.022122575,0.02751322,-0.0005935626,-0.0005592137,0.0,-0.962006,-0.20095631,1.3147665,-3.0423043,0.0,0.1,-0.022122575,1.3436881,0.25827608,0.42849007,0.11619366,inf,inf,inf,inf,0,1,0,1,1,0,1,1,0,0,1
195104575,0,0.0,0.0,0.0,0.0,-1.2603835,-2.3742505e-06,-2.236855e-06,0.0,-0.83841914,0.34765148,0.057779152,0.05293983,-0.0005935626,-0.0005592137,0.0,1.3534942,-0.16236655,-1.5988011,-3.0428958,0.0,0.1,-0.057779152,1.3557317,0.25717658,0.42676356,0.11565069,inf,inf,inf,inf,0,1,0,1,1,0,1,1,0,0,1
195208529,0,0.0,0.0,0.0,0.0,-1.2710878,-2.3742505e-06,-2.236855e-06,0.0,-0.8920736,0.3485654,0.07241502,0.051611513,-0.0005935626,-0.0005592137,0.0,2.796959,0.3205727,6.3684506,-3.0432303,0.0,0.1,-0.07241502,1.3730454,0.2582388,0.42652583,0.11573886,inf,inf,inf,inf,0,1,0,1,1,0,1,1,0,0,1
195304485,0,0.0,0.0,0.0,0.0,-1.2800423,-2.3742505e-06,-2.236855e-06,0.0,-0.96307784,0.3473932,0.062326025,0.029081417,-0.0005935626,-0.0005592137,0.0,-3.2842498,0.6397359,-1.850158,-3.0451002,0.0,0.1,-0.062326025,1.3861377,0.25850692,0.42561042,0.11561099,inf,inf,inf,inf,0,1,0,1,1,0,1,1,0,0,1
195408670,0,0.0,0.0,0.0,0.0,-1.2904522,-2.3742505e-06,-2.236855e-06,0.0,-1.0202981,0.3304778,0.06547909,0.019304374,-0.0005935626,-0.0005592137,0.0,-2.0025928,-0.005372952,-0.8119512,-3.0466664,0.0,0.1,-0.06547909,1.3948944,0.25736365,0.42343235,0.11507457,inf,inf,inf,inf,0,1,0,1,1,0,1,1,0,0,1
195513336,0,0.0,0.0,0.0,0.0,-1.2981819,-2.3742505e-06,-2.236855e-06,0.0,-1.0824038,0.3143168,0.015863093,-0.037351537,-0.0005935626,-0.0005592137,0.0,-1.0180756,-0.97317624,0.32629624,-3.0470958,0.0,0.1,-0.015863093,1.4026556,0.2562668,0.4209639,0.11455978,inf,inf,inf,inf,0,1,0,1,1,0,1,1,0,0,1
195609320,0,0.0,0.0,0.0,0.0,-1.3026958,-2.3742505e-06,-2.236855e-06,0.0,-1.1158456,0.2997441,-0.03590645,-0.08449882,-0.0005935626,-0.0005592137,0.0,-1.437317,-0.3068525,0.22772482,-3.043901,0.0,0.11394608,0.03590645,1.4136323,0.2566576,0.41993648,0.11448448,inf,inf,inf,inf,0,1,0,1,1,0,1,1,0,0,1
195713266,0,0.0,0.0,0.0,0.0,-1.3002164,-2.3742505e-06,-2.236855e-06,0.0,-1.1232928,0.3475471,-0.030407155,-0.06821515,-0.0005935626,-0.0005592137,0.0,-1.1532685,1.659547,-4.34652,-3.0419838,0.0,0.11849511,0.030407155,1.4268045,0.25770417,0.41970453,0.114605464,inf,inf,inf,inf,0,1,0,1,1,0,1,1,0,0,1
195817365,0,0.0,0.0,0.0,0.0,-1.2978935,-2.3742505e-06,-2.236855e-06,0.0,-1.1114973,0.4119397,-0.05582124,-0.08328865,-0.0005935626,-0.0005592137,0.0,-0.9571795,1.6463524,-3.531957,-3.0439303,0.0,0.12630618,0.05582124,1.4390448,0.25865144,0.4189039,0.11467959,inf,inf,inf,inf,0,1,0,1,1,0,1,1,0,0,1
195913232,0,0.0,0.0,0.0,0.0,-1.2939205,-2.3742505e-06,-2.236855e-06,0.0,-1.0664368,0.4934735,-0.048886932,-0.064642146,-0.0005935626,-0.0005592137,0.0,-0.9224668,-1.7317429,-1.4352342,-3.047582,0.0,0.13833678,0.048886932,1.4398082,0.25669178,0.41547465,0.11394049,inf,inf,inf,inf,0,1,0,1,1,0,1,1,0,0,1
196017345,0,0.0,0.0,0.0,0.0,-1.2815257,-2.3742505e-06,-2.236855e-06,0.0,-0.9860618,0.62974554,-0.027149063,-0.025067713,-0.0005935626,-0.0005592137,0.0,1.2438897,0.86386544,1.107012,-3.0524945,0.0,0.14714491,0.027149063,1.4506471,0.2576458,0.4146659,0.11402486,inf,inf,inf,inf,0,1,0,1,1,0,1,1,0,0,1
196121258,0,0.0,0.0,0.0,0.0,-1.2687172,-2.3742505e-06,-2.236855e-06,0.0,-0.9069621,0.7581939,-0.000559951,0.015848843,-0.0005935626,-0.0005592137,0.0,0.4075068,-0.91865975,5.777706,-3.0540693,0.0,0.132851,0.000559951,1.4533263,0.2565325,0.41177785,0.113529235,inf,inf,inf,inf,0,1,0,1,1,0,1,1,0,0,1
196225298,0,0.0,0.0,0.0,0.0,-1.2600361,-2.3742505e-06,-2.236855e-06,0.0,-0.84162444,0.8667329,-0.0044202204,0.018971505,-0.0005935626,-0.0005592137,0.0,-2.456616,0.05587718,-4.338787,-3.0548098,0.0,0.12185848,0.0044202204,1.4553344,0.2554616,0.40878746,0.11304523,inf,inf,inf,inf,0,1,0,1,1,0,1,1,0,0,1
196321314,0,0.0,0.0,0.0,0.0,-1.2539129,-2.3742505e-06,-2.236855e-06,0.0,-0.804195,0.9406155,0.032346178,0.056952972,-0.0005935626,-0.0005592137,0.0,-0.008838418,-0.53177285,-2.215843,-3.0556061,0.0,0.11444461,-0.032346178,1.4537262,0.25373763,0.40543166,0.11241796,inf,inf,inf,inf,0,1,0,1,1,0,1,1,0,0,1
196425417,0,0.0,0.0,0.0,0.0,-1.2486557,-2.3742505e-06,-2.236855e-06,0.0,-0.788758,0.9967536,0.04182544,0.063630134,-0.0005935626,-0.0005592137,0.0,-1.5992155,0.11641092,1.7246276,-3.0574634,0.0,0.1,-0.04182544,1.4624318,0.2548263,0.40422827,0.11259112,inf,inf,inf,inf,0,1,0,1,1,0,1,1,0,0,1
196529345,0,0.0,0.0,0.0,0.0,-1.2491727,-2.3742505e-06,-2.236855e-06,0.0,-0.7697153,1.0531877,0.03523639,0.04951174,-0.0005935626,-0.0005592137,0.0,-2.5486116,2.83634,-1.0094975,-3.0591075,0.0,0.1,-0.03523639,1.4627539,0.25384992,0.40125996,0.112204045,inf,inf,inf,inf,0,1,0,1,1,0,1,1,0,0,1
196625297,0,0.0,0.0,0.0,0.0,-1.249619,-2.3742505e-06,-2.236855e-06,0.0,-0.7562581,1.0829465,0.02574887,0.035636596,-0.0005935626,-0.0005592137,0.0,3.0611033,-0.07033135,0.51139843,-3.0609982,0.0,0.1,-0.02574887,1.4673231,0.2541875,0.39981443,0.11220107,inf,inf,inf,inf,0,1,0,1,1,0,1,1,0,0,1
