timestamp,x,y,z,yaw,yawspeed,vx,vy,vz,acc_x,acc_y,acc_z,thrust[0],thrust[1],thrust[2]
175507766,0.0,0.0,-0.9747117,2.9824839,-0.24077395,0.0,0.0,-0.023789031,0.0,0.0,0.0,0.0,0.0,-0.08
175516166,0.0,0.0,-0.97488964,2.98248,-0.23906526,0.0,0.0,-0.023602717,0.0,0.0,0.0,0.0,0.0,-0.08
175612988,0.0,0.0,-0.9795313,2.9825568,-0.24745294,0.0,0.0,-0.02455573,0.0,0.0,0.0,0.0,0.0,-0.08
175716641,0.0,0.0,-0.9853795,2.9825392,-0.24923411,0.0,0.0,-0.026072139,0.0,0.0,0.0,0.0,0.0,-0.08
175821131,0.0,0.0,-0.9898369,2.982339,-0.24731025,0.0,0.0,-0.026442617,0.0,0.0,0.0,0.0,0.0,-0.08
175916404,0.0,0.0,-0.99148566,2.982999,-0.23945428,0.0,0.0,-0.026507156,0.0,0.0,0.0,0.0,0.0,-0.08
176021003,0.0,0.0,-0.9907878,2.9827797,-0.20559953,0.0,0.0,-0.024998892,0.0,0.0,0.0,0.0,0.0,-0.08
176125413,0.0,0.0,-0.9882767,2.9827287,-0.20589297,0.0,0.0,-0.022534734,0.0,0.0,0.0,0.0,0.0,-0.08
176226329,0.0,0.0,-0.9876563,2.9828215,-0.18071465,0.0,0.0,-0.022353336,0.0,0.0,0.0,0.0,0.0,-0.08
176322247,0.0,0.0,-0.99013567,2.9828124,-0.06405176,0.0,0.0,-0.022272045,0.0,0.0,0.0,0.0,0.0,-0.08
176426132,0.0,0.0,-0.99231374,2.9829617,-0.022882873,0.0,0.0,-0.022742469,0.0,0.0,0.0,0.0,0.0,-0.08
176530654,0.0,0.0,-0.99170655,2.9827359,-0.008433575,0.0,0.0,-0.022537295,0.0,0.0,0.0,0.0,0.0,-0.08
176626367,0.0,0.0,-0.9905312,2.9827893,0.0,0.0,0.0,-0.021512795,0.0,0.0,0.0,0.0,0.0,-0.08
176730003,0.0,0.0,-0.9890166,2.9827893,0.0,0.0,0.0,-0.020411007,0.0,0.0,0.0,0.0,0.0,-0.08
176834315,0.0,0.0,-0.98961693,2.9827893,0.0,0.0,0.0,-0.019560406,0.0,0.0,0.0,0.0,0.0,-0.08
176930054,0.0,0.0,-0.9890767,2.9827893,0.0,0.0,0.0,-0.018598728,0.0,0.0,0.0,0.0,0.0,-0.08
177034117,0.0,0.0,-0.987138,2.9827893,0.0,0.0,0.0,-0.017024431,0.0,0.0,0.0,0.0,0.0,-0.08
177139688,0.0,0.0,-0.9848232,2.9827893,-0.0,0.0,0.0,-0.015053305,0.0,0.0,0.0,0.0,0.0,-0.08320825
177235629,0.0,0.0,-0.9832159,2.9827893,0.0,0.0,0.0,-0.0124049205,0.0,0.0,0.0,0.0,0.0,-0.101970345
177340539,0.0,0.0,-0.9783368,2.9827893,0.0,0.0,0.0,-0.009710064,0.0,0.0,0.0,0.0,0.0,-0.10031858
177444724,0.0,0.0,-0.9762705,2.9827893,0.0,0.0,0.0,-0.008829409,0.0,0.0,0.0,0.0,0.0,-0.10008759
177539887,0.0,0.0,-0.9757756,2.9827893,-0.0,0.0,0.0,-0.0075245625,0.0,0.0,0.0,0.0,0.0,-0.10091559
177643761,0.0,0.0,-0.97485244,2.9827893,-0.0,0.0,0.0,-0.006540327,0.0,0.0,0.0,0.0,0.0,-0.10053247
177748385,0.0,0.0,-0.9744236,2.9827893,-0.0,0.0,0.0,-0.0061370493,0.0,0.0,0.0,0.0,0.0,-0.1005532
177851555,0.0,0.0,-0.97427565,2.9827893,-0.0,0.0,0.0,-0.005575772,0.0,0.0,0.0,0.0,0.0,-0.10058599
177948588,0.0,0.0,-0.97775096,2.9827893,0.0,0.0,0.0,-0.006844715,0.0,0.0,0.0,0.0,0.0,-0.1001839
178053895,0.0,0.0,-0.9827575,2.9827893,0.0,0.0,0.0,-0.0073607024,0.0,0.0,0.0,0.0,0.0,-0.10128459
178149293,0.0,0.0,-0.9898015,2.9827893,-0.0,0.0,0.0,-0.0092462655,0.0,0.0,0.0,0.0,0.0,-0.10045835
178254198,0.0,0.0,-0.9986436,2.9827893,-0.0,0.0,0.0,-0.012381367,0.0,0.0,0.0,0.0,0.0,-0.10062061
178357916,0.0,0.0,-1.003272,2.9827893,-0.0,0.0,0.0,-0.014270145,0.0,0.0,0.0,0.0,0.0,-0.10123444
178454004,0.0,0.0,-1.0074152,2.9827893,0.0,0.0,0.0,-0.015056487,0.0,0.0,0.0,0.0,0.0,-0.102864586
178557750,0.0,0.0,-1.0120577,2.9827893,0.0,0.0,0.0,-0.015334956,0.0,0.0,0.0,0.0,0.0,-0.13691999
178661397,0.0,0.0,-1.0153942,2.9827893,-0.0,0.0,0.0,-0.015557014,0.0,0.0,0.0,0.0,0.0,-0.2215256
178757926,0.0,0.0,-1.0161638,2.9827893,-0.0,0.0,0.0,-0.016068587,0.0,0.0,0.0,0.0,0.0,-0.2403352
178861136,0.0,0.0,-1.0141801,2.9827893,-0.0,0.0,0.0,-0.014313363,0.0,0.0,0.0,0.0,0.0,-0.23844506
178966898,0.0,0.0,-1.0122108,2.9827893,0.0,0.0,0.0,-0.015304763,0.0,0.0,0.0,0.0,0.0,-0.26331142
179063376,0.0,0.0,-1.0077506,2.9827893,0.0,0.0,0.0,-0.014256319,0.0,0.0,0.0,0.0,0.0,-0.26565373
179167494,0.0,0.0,-1.00092,2.9827893,0.0,0.0,0.0,-0.014158892,0.0,0.0,0.0,0.0,0.0,-0.26584125
179271405,0.0,0.0,-0.9927853,2.9827893,-0.0,0.0,0.0,-0.008387863,0.0,0.0,0.0,0.0,0.0,-0.26624385
179367828,0.0,0.0,-0.98506737,2.9827893,-0.0,0.0,0.0,-0.005909099,0.0,0.0,0.0,0.0,0.0,-0.26581436
179470824,0.0,0.0,-0.97318405,2.9827893,0.0,0.0,0.0,-0.0045908648,0.0,0.0,0.0,0.0,0.0,-0.27299178
179575104,0.0,0.0,-0.9654307,2.9827893,0.0,0.0,0.0,-0.00089453976,0.0,0.0,0.0,0.0,0.0,-0.29429212
179671048,0.0,0.0,-0.95863,2.9827893,0.0,0.0,0.0,0.00405848,0.0,0.0,0.0,0.0,0.0,-0.29573372
179775588,0.0,0.0,-0.95185596,2.9827893,-0.0,0.0,0.0,0.006146433,0.0,0.0,0.0,0.0,0.0,-0.3224322
179877247,0.0,0.0,-0.9512909,2.9827893,0.0,0.0,0.0,-0.008174971,0.0,0.0,0.0,0.0,0.0,-0.3732312
179980508,0.0,0.0,-0.9526774,2.9827893,0.0,0.0,0.0,-0.0054238797,0.0,0.0,0.0,0.0,0.0,-0.37277392
180085237,0.0,0.0,-0.9536322,2.9827893,0.0,0.0,0.0,0.016030073,0.0,0.0,0.0,0.0,0.0,-0.3847174
180188963,0.0,0.0,-0.9499018,2.9827893,0.0,0.0,0.0,0.021705475,0.0,0.0,0.0,0.0,0.0,-0.39905003
180284739,0.0,0.0,-0.93881965,2.9827893,0.0,0.0,0.0,0.022659173,0.0,0.0,0.0,0.0,0.0,-0.39911878
180389335,0.0,0.0,-0.92422885,2.9827893,0.0,0.0,0.0,0.03249786,0.0,0.0,0.0,0.0,0.0,-0.40061545
180492472,0.0,0.0,-0.9078954,2.9827893,0.0,0.0,0.0,0.029295059,0.0,0.0,0.0,0.0,0.0,-0.4185152
180589124,0.0,0.0,-0.8890727,2.9827893,0.0,0.0,0.0,0.0045154067,0.0,0.0,0.0,0.0,0.0,-0.49555466
180693226,0.0,0.0,-0.8691344,2.9827893,0.0,0.0,0.0,-0.026570693,0.0,0.0,0.0,0.0,0.0,-0.49171928
180794052,0.0,0.0,-0.85121113,2.9827893,0.0,0.0,0.0,-0.038862444,0.0,0.0,0.0,0.0,0.0,-0.4911677
180898365,0.0,0.0,-0.83216596,2.9827893,0.0,0.0,0.0,-0.05864964,0.0,0.0,0.0,0.0,0.0,-0.49183583
180994006,0.0,0.0,-0.82054687,2.9827893,0.0,0.0,0.0,-0.07185746,0.0,0.0,0.0,0.0,0.0,-0.49132553
181098347,0.0,0.0,-0.8159997,2.9827893,0.0,0.0,0.0,-0.068829134,0.0,0.0,0.0,0.0,0.0,-0.4924925
181202618,0.0,0.0,-0.82124925,2.9827893,0.0,0.0,0.0,-0.07321417,0.0,0.0,0.0,0.0,0.0,-0.48892605
181306710,0.0,0.0,-0.83312255,2.9827893,0.0,0.0,0.0,-0.042378936,0.0,0.0,0.0,0.0,0.0,-0.49266437
181715847,0.0,0.0,-0.90623814,2.9827893,0.0,0.0,0.0,0.09366723,0.0,0.0,0.0,0.0,0.0,-0.49122417
181819772,0.0,0.0,-0.9224564,2.9827893,0.0,0.0,0.0,0.13210653,0.0,0.0,0.0,0.0,0.0,-0.49151635
181915551,0.0,0.0,-0.93702644,2.9827893,0.0,0.0,0.0,0.13038011,0.0,0.0,0.0,0.0,0.0,-0.49095398
182020519,0.0,0.0,-0.9478062,2.9827893,0.0,0.0,0.0,0.15269741,0.0,0.0,0.0,0.0,0.0,-0.49900842
182123650,0.0,0.0,-0.9577328,2.9827893,0.0,0.0,0.0,0.13808145,0.0,0.0,0.0,0.0,0.0,-0.5074112
182219866,0.0,0.0,-0.9746046,2.9827893,0.0,0.0,0.0,0.072115324,0.0,0.0,0.0,0.0,0.0,-0.5274923
182323701,0.0,0.0,-1.0016209,2.9827893,0.0,0.0,0.0,-0.05678376,0.0,0.0,0.0,0.0,0.0,-0.5555904
182427944,0.0,0.0,-1.0411723,2.9827893,0.0,0.0,0.0,-0.2540043,0.0,0.0,0.0,0.0,0.0,-0.5372567
182523843,0.0,0.0,-1.0911882,2.9827893,0.0,0.0,0.0,-0.39731216,0.0,0.0,0.0,0.006931257,0.0047976533,-0.52125937
182629225,0.0,0.0,-1.1538041,2.9827893,0.0,0.0,0.0,-0.44965053,0.0,0.0,0.0,0.008573687,0.0061866124,-0.5009288
182734055,0.0,0.0,-1.2194705,2.9827893,0.0,0.0,0.0,-0.43662477,0.0,0.0,0.0,0.018632231,0.013626052,-0.49758354
182837287,0.0,0.0,-1.2786751,2.9827893,0.0,0.0,0.0,-0.36371124,0.0,0.0,0.0,0.019348316,0.012606011,-0.49682343
182933319,0.0,0.0,-1.3276076,2.9827893,0.0,0.0,0.0,-0.29172325,0.0,0.0,0.0,0.030101413,0.019611679,-0.4960458
183038016,0.0,0.0,-1.374459,2.9827893,0.0,0.0,0.0,-0.21162044,0.0,0.0,0.0,0.043208994,0.03366746,-0.49317038
183141473,0.0,0.0,-1.406085,2.9827893,0.0,0.0,0.0,-0.12357847,0.0,0.0,0.0,0.036694337,0.027614754,-0.4948952
183238144,0.0,0.0,-1.4235548,2.9827893,0.0,0.0,0.0,-0.05460137,0.0,0.0,0.0,0.038053192,0.028550562,-0.49394387
183341221,0.0,0.0,-1.433068,2.9827893,0.0,0.0,0.0,0.021811612,0.0,0.0,0.0,0.003703085,0.00305834,-0.49626103
183445378,0.0,0.0,-1.4373776,2.9827893,0.0,0.0,0.0,0.10463066,0.0,0.0,0.0,0.00080302474,-0.00010484364,-0.496626
183546633,0.0,0.0,-1.4384434,2.9827893,0.0,0.0,0.0,0.16907462,0.0,0.0,0.0,-0.023227308,-0.013322724,-0.49608994
183650053,0.0,0.0,-1.4341706,2.9827893,0.0,0.0,0.0,0.22286642,0.0,0.0,0.0,-0.045385778,-0.032334607,-0.49407417
183746259,0.0,0.0,-1.42303,2.9827893,0.0,0.0,0.0,0.25592685,0.0,0.0,0.0,-0.054347675,-0.03755059,-0.49236917
183850211,0.0,0.0,-1.3965402,2.9827893,0.0,0.0,0.0,0.31908897,0.0,0.0,0.0,-0.0653552,-0.04788562,-0.49074814
183954877,0.0,0.0,-1.3591504,2.9827893,0.0,0.0,0.0,0.39704475,0.0,0.0,0.0,-0.047789425,-0.036233958,-0.4925579
184050230,0.0,0.0,-1.3208992,2.9827893,0.0,0.0,0.0,0.44978192,0.0,0.0,0.0,-0.014847577,-0.013057487,-0.5119973
184154017,0.0,0.0,-1.2783132,2.9827893,0.0,0.0,0.0,0.442375,0.0,0.0,0.0,0.0054303585,0.0024713988,-0.536866
184258996,0.0,0.0,-1.2438463,2.9827893,0.0,0.0,0.0,0.30850038,0.0,0.0,0.0,0.032661803,0.021903152,-0.5036574
184354578,0.0,0.0,-1.2177107,2.9827893,0.0,0.0,0.0,0.23438694,0.0,0.0,0.0,0.046081103,0.031925503,-0.50040185
184458148,0.0,0.0,-1.2070546,2.9827893,0.0,0.0,0.0,-0.093072094,0.0,0.0,0.0,0.037963882,0.028122256,-0.50094783
184562954,0.0,0.0,-1.2238619,2.9827893,0.0,0.0,0.0,-0.234952,0.0,0.0,0.0,0.03321253,0.025072685,-0.5024981
184658933,0.0,0.0,-1.2440369,2.9827893,0.0,0.0,0.0,-0.2563519,0.0,0.0,0.0,0.03195497,0.023190249,-0.50131404
184764460,0.0,0.0,-1.2657844,2.9827893,0.0,0.0,0.0,-0.24999349,0.0,0.0,0.0,0.03300844,0.022905437,-0.4995512
184867813,0.0,0.0,-1.2889981,2.9827893,0.0,0.0,0.0,-0.23027979,0.0,0.0,0.0,0.05116637,0.036769085,-0.4934733
184963916,0.0,0.0,-1.3118124,2.9827893,0.0,0.0,0.0,-0.19151138,0.0,0.0,0.0,0.045273434,0.035263453,-0.49402785
185067951,0.0,0.0,-1.3318331,2.9827893,0.0,0.0,0.0,-0.1656101,0.0,0.0,0.0,-0.0002924736,-0.00024333263,-0.49623743
185171819,0.0,0.0,-1.3470039,2.9827893,0.0,0.0,0.0,-0.11830501,0.0,0.0,0.0,3.867705e-07,1.2614714e-07,-0.49629024
185267927,0.0,0.0,-1.3595521,2.9827893,0.0,0.0,0.0,-0.08770822,0.0,0.0,0.0,-4.5341114e-10,1.7239318e-10,-0.4969865
185372238,0.0,0.0,-1.3699304,2.9827893,0.0,0.0,0.0,-0.052327093,0.0,0.0,0.0,-0.038703457,-0.022468906,-0.49429917
186490651,0.0,0.0,-1.2558496,2.9827893,0.0,0.0,0.0,-0.30977702,0.0,0.0,0.0,0.07650006,0.055572975,-0.4871702
186587527,0.0,0.0,-1.2592857,2.9827893,0.0,0.0,0.0,-0.24799573,0.0,0.0,0.0,0.059796877,0.044388015,-0.49137563
186691127,0.0,0.0,-1.2670356,2.9827893,0.0,0.0,0.0,-0.15840344,0.0,0.0,0.0,8.3085804e-05,0.003509643,-0.4959623
186794760,0.0,0.0,-1.2837132,2.9827893,0.0,0.0,0.0,-0.07706894,0.0,0.0,0.0,-0.028038466,-0.011971324,-0.49547526
186898922,0.0,0.0,-1.3006377,2.9827893,0.0,0.0,0.0,-0.04025192,0.0,0.0,0.0,-0.02723464,-0.024466641,-0.4948759
186995352,0.0,0.0,-1.3124647,2.9827893,0.0,0.0,0.0,-0.009776041,0.0,0.0,0.0,-0.0065923356,-0.008300011,-0.4961721
187099577,0.0,0.0,-1.3207611,2.9827893,0.0,0.0,0.0,-0.009067918,0.0,0.0,0.0,-0.0038936317,-0.004370502,-0.4970224
187202847,0.0,0.0,-1.3317683,2.9827893,0.0,0.0,0.0,-0.023027515,0.0,0.0,0.0,6.100689e-07,2.3634702e-06,-0.49330088
187299629,0.0,0.0,-1.336311,2.9827893,0.0,0.0,0.0,-0.0026718285,0.0,0.0,0.0,-1.3549194e-09,-3.4580265e-09,-0.49039283
187404684,0.0,0.0,-1.32975,2.9827893,0.0,0.0,0.0,0.07947021,0.0,0.0,0.0,0.0,0.0,-0.28399447
187500462,0.0,0.0,-1.2986313,2.9827893,0.0,0.0,0.0,0.45553654,0.0,0.0,0.0,0.0,0.0,-0.097326346
187604718,0.0,0.0,-1.2726306,3.0241542,-0.0871729,0.0,0.0,-0.40214553,0.0,0.0,0.0,0.0,0.0,-0.08042813
187709151,0.0,0.0,-1.2987028,3.0391629,-0.38009498,0.0,0.0,0.061259963,0.0,0.0,0.0,0.0,0.0,-0.08
187813271,0.0,0.0,-1.2720474,3.0663354,-0.23285006,0.0,0.0,-0.057606626,0.0,0.0,0.0,0.0,0.0,-0.08
187916586,0.0,0.0,-1.2849479,3.0904105,-0.13084285,0.0,0.0,-0.020840134,0.0,0.0,0.0,0.0,0.0,-0.08
188012401,0.0,0.0,-1.2688086,3.111843,-0.120858066,0.0,0.0,0.018221017,0.0,0.0,0.0,0.0,0.0,-0.08
188116941,0.0,0.0,-1.2706974,3.1359484,-0.12758568,0.0,0.0,-0.032087266,0.0,0.0,0.0,0.0,0.0,-0.08
188221209,0.0,0.0,-1.2531757,-3.1193924,-0.107032694,0.0,0.0,0.00600963,0.0,0.0,0.0,0.0,0.0,-0.08
188322055,0.0,0.0,-1.2455004,-3.0993185,-0.0734901,0.0,0.0,0.029621594,0.0,0.0,0.0,0.0,0.0,-0.08
188418156,0.0,0.0,-1.2299473,-3.0837302,-0.038963646,0.0,0.0,0.029238364,0.0,0.0,0.0,0.0,0.0,-0.08
188522549,0.0,0.0,-1.220964,-3.0799549,0.0,0.0,0.0,0.049498685,0.0,0.0,0.0,0.0,0.0,-0.08
188626272,0.0,0.0,-1.2124794,-3.0799549,0.0,0.0,0.0,0.045256764,0.0,0.0,0.0,0.0,0.0,-0.08
188722041,0.0,0.0,-1.2062272,-3.0799549,0.0,0.0,0.0,0.04600354,0.0,0.0,0.0,0.0,0.0,-0.08
188826851,0.0,0.0,-1.1985209,-3.0799549,0.0,0.0,0.0,0.046192955,0.0,0.0,0.0,0.0,0.0,-0.08
188930909,0.0,0.0,-1.1925575,-3.0799549,0.0,0.0,0.0,0.04636619,0.0,0.0,0.0,0.0,0.0,-0.08
189026802,0.0,0.0,-1.1869392,-3.0799549,-0.0,0.0,0.0,0.04522193,0.0,0.0,0.0,0.0,0.0,-0.08
189129985,0.0,0.0,-1.1794388,-3.0799549,-0.0,0.0,0.0,0.046624415,0.0,0.0,0.0,0.0,0.0,-0.08
189236306,0.0,0.0,-1.1693505,-3.0799549,-0.0,0.0,0.0,0.04824152,0.0,0.0,0.0,0.0,0.0,-0.08
189331696,0.0,0.0,-1.1588745,-3.0799549,-0.0,0.0,0.0,0.04901349,0.0,0.0,0.0,0.0,0.0,-0.08
189435902,0.0,0.0,-1.152236,-3.0799549,-0.0,0.0,0.0,0.04718533,0.0,0.0,0.0,0.0,0.0,-0.08
189539757,0.0,0.0,-1.1480694,-3.0799549,0.0,0.0,0.0,0.0459897,0.0,0.0,0.0,0.0,0.0,-0.08
189635712,0.0,0.0,-1.1455718,-3.0799549,0.0,0.0,0.0,0.04348883,0.0,0.0,0.0,0.0,0.0,-0.08
189739704,0.0,0.0,-1.1421266,-3.0799549,0.0,0.0,0.0,0.04035811,0.0,0.0,0.0,0.0,0.0,-0.08
189843882,0.0,0.0,-1.1421695,-3.0745785,0.10356607,0.0,0.0,0.03556074,0.0,0.0,0.0,0.0,0.0,-0.08
189939816,0.0,0.0,-1.1454697,-3.07409,0.34919837,0.0,0.0,0.02934651,0.0,0.0,0.0,0.0,0.0,-0.08
190043740,0.0,0.0,-1.1517118,-3.0734122,0.54141027,0.0,0.0,0.02202945,0.0,0.0,0.0,0.0,0.0,-0.08
190149878,0.0,0.0,-1.1569508,-3.0731225,0.58441186,0.0,0.0,0.014179657,0.0,0.0,0.0,0.0,0.0,-0.08
190245222,0.0,0.0,-1.1651207,-3.0724878,0.6705536,0.0,0.0,0.006843665,0.0,0.0,0.0,0.0,0.0,-0.08
190349872,0.0,0.0,-1.1748106,-3.0720305,0.7012731,0.0,0.0,-0.00077425427,0.0,0.0,0.0,0.0,0.0,-0.0862472
190453332,0.0,0.0,-1.1834006,-3.070003,0.60818523,0.0,0.0,-0.007391868,0.0,0.0,0.0,0.0,0.0,-0.14042886
190549440,0.0,0.0,-1.1909591,-3.0700998,0.5305277,0.0,0.0,-0.0116121285,0.0,0.0,0.0,0.0,0.0,-0.15508506
190653296,0.0,0.0,-1.1984701,-3.0697627,0.5347653,0.0,0.0,-0.015927942,0.0,0.0,0.0,0.0,0.0,-0.12418315
190757221,0.0,0.0,-1.2002808,-3.0695934,0.5485096,0.0,0.0,-0.01869063,0.0,0.0,0.0,0.0,0.0,-0.13975406
190854093,0.0,0.0,-1.2031915,-3.0690112,0.352481,0.0,0.0,-0.018789899,0.0,0.0,0.0,0.0,0.0,-0.15496276
190957447,0.0,0.0,-1.2053292,-3.0680397,0.40604421,0.0,0.0,-0.019129304,0.0,0.0,0.0,0.0,0.0,-0.1847201
191062821,0.0,0.0,-1.2075057,-3.0673263,0.31369448,0.0,0.0,-0.02110214,0.0,0.0,0.0,0.0,0.0,-0.199296
191159493,0.0,0.0,-1.209739,-3.0677571,-0.0,0.0,0.0,-0.019189116,0.0,0.0,0.0,0.0,0.0,-0.23567818
191263515,0.0,0.0,-1.2110984,-3.0677571,-0.0,0.0,0.0,-0.021104403,0.0,0.0,0.0,0.0,0.0,-0.26270264
191366948,0.0,0.0,-1.2111087,-3.0643218,0.14551277,0.0,0.0,-0.022220185,0.0,0.0,0.0,0.0,0.0,-0.25800255
191462864,0.0,0.0,-1.2092897,-3.066887,-0.0,0.0,0.0,-0.021633627,0.0,0.0,0.0,0.0,0.0,-0.23779956
191567131,0.0,0.0,-1.2103503,-3.066887,-0.0,0.0,0.0,-0.019833429,0.0,0.0,0.0,0.0,0.0,-0.26268232
191671378,0.0,0.0,-1.213069,-3.066887,-0.0,0.0,0.0,-0.021071563,0.0,0.0,0.0,0.0,0.0,-0.2650325
191766840,0.0,0.0,-1.2151356,-3.066887,-0.0,0.0,0.0,-0.021959838,0.0,0.0,0.0,0.0,0.0,-0.2714744
191868520,0.0,0.0,-1.217194,-3.066887,-0.0,0.0,0.0,-0.022371873,0.0,0.0,0.0,0.0,0.0,-0.3003908
191972468,0.0,0.0,-1.221526,-3.066887,-0.0,0.0,0.0,-0.021426693,0.0,0.0,0.0,0.0,0.0,-0.30821392
192076517,0.0,0.0,-1.2241814,-3.066887,-0.0,0.0,0.0,-0.02251902,0.0,0.0,0.0,0.0,0.0,-0.3190917
192181280,0.0,0.0,-1.2268736,-3.066887,-0.0,0.0,0.0,-0.020205727,0.0,0.0,0.0,0.0,0.0,-0.32338426
192285226,0.0,0.0,-1.2286379,-3.066887,0.0,0.0,0.0,-0.023646884,0.0,0.0,0.0,0.0,0.0,-0.32593617
192380975,0.0,0.0,-1.2289339,-3.066887,0.0,0.0,0.0,-0.013895088,0.0,0.0,0.0,0.0,0.0,-0.33401552
192484504,0.0,0.0,-1.2270614,-3.066887,-0.0,0.0,0.0,-0.018286537,0.0,0.0,0.0,-0.0034387761,-0.002119881,-0.3365201
192589926,0.0,0.0,-1.2238138,-3.066887,-0.0,0.0,0.0,-0.018523254,0.0,0.0,0.0,-0.012149355,-0.01385657,-0.341619
192693036,0.0,0.0,-1.2209357,-3.066887,-0.0,0.0,0.0,-0.016207688,0.0,0.0,0.0,-0.012295297,-0.013706527,-0.34601504
192794668,0.0,0.0,-1.2167692,-3.066887,0.0,0.0,0.0,-0.011488843,0.0,0.0,0.0,-0.014540315,-0.016498895,-0.34387544
192890007,0.0,0.0,-1.2143555,-3.066887,0.0,0.0,0.0,-0.016997844,0.0,0.0,0.0,-0.018346291,-0.021219296,-0.34501103
192994565,0.0,0.0,-1.2145692,-3.066887,-0.0,0.0,0.0,-0.0117573375,0.0,0.0,0.0,-0.016176498,-0.019381052,-0.34449783
193098784,0.0,0.0,-1.212626,-3.066887,-0.0,0.0,0.0,-0.010890365,0.0,0.0,0.0,-0.015956376,-0.018619591,-0.3752802
193202340,0.0,0.0,-1.2101018,-3.066887,-0.0,0.0,0.0,-0.017539952,0.0,0.0,0.0,-0.014284104,-0.016786758,-0.4010348
193306048,0.0,0.0,-1.2098371,-3.066887,0.0,0.0,0.0,-0.011111122,0.0,0.0,0.0,-0.013885383,-0.015992505,-0.40466082
193402178,0.0,0.0,-1.2134639,-3.066887,0.0,0.0,0.0,-0.016644565,0.0,0.0,0.0,-0.0153518785,-0.017727228,-0.4485157
193506814,0.0,0.0,-1.2206497,-3.066887,0.0,0.0,0.0,-0.04421161,0.0,0.0,0.0,-0.016332066,-0.01897475,-0.46084973
193610053,0.0,0.0,-1.2320668,-3.066887,-0.0,0.0,0.0,-0.059219815,0.0,0.0,0.0,-0.016353529,-0.019389804,-0.4812359
193707743,0.0,0.0,-1.2430874,-3.066887,-0.0,0.0,0.0,-0.04688137,0.0,0.0,0.0,-0.010737998,-0.013351137,-0.484391
193811887,0.0,0.0,-1.2498392,-3.066887,0.0,0.0,0.0,-0.07735416,0.0,0.0,0.0,-0.010542765,-0.0123875085,-0.49175176
193915691,0.0,0.0,-1.2515349,-3.066887,0.0,0.0,0.0,-0.077899694,0.0,0.0,0.0,-0.005128635,-0.007700546,-0.49182248
194011681,0.0,0.0,-1.2434984,-3.066887,0.0,0.0,0.0,-0.06803779,0.0,0.0,0.0,-5.4046104e-06,-3.6833746e-05,-0.49187723
194115678,0.0,0.0,-1.2354075,-3.066887,-0.0,0.0,0.0,-0.08040417,0.0,0.0,0.0,1.3829697e-08,5.0582326e-08,-0.4920199
194220021,0.0,0.0,-1.2269124,-3.066887,-0.0,0.0,0.0,-0.07488196,0.0,0.0,0.0,0.0,0.0,-0.4920353
194316410,0.0,0.0,-1.2161624,-3.066887,-0.0,0.0,0.0,-0.06336241,0.0,0.0,0.0,0.0014777428,0.0032200108,-0.49202266
194419745,0.0,0.0,-1.2130052,-3.066887,0.0,0.0,0.0,-0.050853174,0.0,0.0,0.0,-2.4872265e-06,-3.299069e-06,-0.49277458
194524210,0.0,0.0,-1.2189468,-3.066887,0.0,0.0,0.0,-0.04208121,0.0,0.0,0.0,-4.5553913e-10,1.0317872e-09,-0.49200773
194625298,0.0,0.0,-1.2273569,-3.066887,0.0,0.0,0.0,-0.03030709,0.0,0.0,0.0,-0.013751251,-0.007583559,-0.49200353
194721309,0.0,0.0,-1.2362553,-3.066887,0.0,0.0,0.0,-0.027266163,0.0,0.0,0.0,-0.022189416,-0.026188932,-0.49081153
194825729,0.0,0.0,-1.2460881,-3.066887,0.0,0.0,0.0,-0.014357183,0.0,0.0,0.0,-0.026134003,-0.028723937,-0.49050215
194929291,0.0,0.0,-1.2517749,-3.066887,0.0,0.0,0.0,0.0073840376,0.0,0.0,0.0,-0.026037354,-0.032074917,-0.49138445
195025272,0.0,0.0,-1.2566756,-3.066887,0.0,0.0,0.0,0.033093527,0.0,0.0,0.0,-0.0029552348,-0.0058534183,-0.4919126
195129341,0.0,0.0,-1.2627248,-3.066887,0.0,0.0,0.0,0.054463584,0.0,0.0,0.0,-0.015835255,-0.014755919,-0.49177963
195233488,0.0,0.0,-1.2736452,-3.066887,0.0,0.0,0.0,0.07212657,0.0,0.0,0.0,-0.030534778,-0.033941988,-0.4898587
195338272,0.0,0.0,-1.2825563,-3.066887,0.0,0.0,0.0,0.06861718,0.0,0.0,0.0,-0.029267684,-0.034390416,-0.4913269
195442054,0.0,0.0,-1.2929411,-3.066887,0.0,0.0,0.0,0.0632926,0.0,0.0,0.0,-0.031188855,-0.035294227,-0.49224743
195538931,0.0,0.0,-1.300417,-3.066887,0.0,0.0,0.0,-0.018709134,0.0,0.0,0.0,-0.017715134,-0.028283669,-0.49300623
195642596,0.0,0.0,-1.3016661,-3.066887,0.0,0.0,0.0,-0.025069153,0.0,0.0,0.0,0.03514053,0.0379549,-0.491571
195746232,0.0,0.0,-1.2996075,-3.066887,0.0,0.0,0.0,-0.019954965,0.0,0.0,0.0,0.042771854,0.049289,-0.4895863
195842551,0.0,0.0,-1.2972819,-3.066887,0.0,0.0,0.0,-0.056017637,0.0,0.0,0.0,0.050039265,0.056951277,-0.4881127
195946181,0.0,0.0,-1.2909284,-3.066887,0.0,0.0,0.0,-0.03761613,0.0,0.0,0.0,0.06115402,0.07143109,-0.4845609
196050479,0.0,0.0,-1.2777919,-3.066887,0.0,0.0,0.0,-0.021045107,0.0,0.0,0.0,0.042957187,0.050612047,-0.48971137
196146312,0.0,0.0,-1.266694,-3.066887,0.0,0.0,0.0,-0.004374788,0.0,0.0,0.0,0.0156091405,0.024779102,-0.4935115
196250014,0.0,0.0,-1.2591287,-3.066887,0.0,0.0,0.0,0.0045782244,0.0,0.0,0.0,-7.837785e-06,-1.2569939e-05,-0.49296346
196354354,0.0,0.0,-1.2505038,-3.066887,0.0,0.0,0.0,0.055758853,0.0,0.0,0.0,1.232859e-08,1.054887e-08,-0.4933597
196450914,0.0,0.0,-1.2485595,-3.066887,0.0,0.0,0.0,0.04361935,0.0,0.0,0.0,0.0,0.0,-0.4934469
196554144,0.0,0.0,-1.2496088,-3.066887,0.0,0.0,0.0,0.026980808,0.0,0.0,0.0,0.0044916337,0.00225691,-0.49311373
196659757,0.0,0.0,-1.2490396,-3.066887,0.0,0.0,0.0,0.012109206,0.0,0.0,0.0,0.010416673,0.012824983,-0.49374586
196755681,0.0,0.0,-1.2439463,-3.066887,0.0,0.0,0.0,0.01338342,0.0,0.0,0.0,1.6271342e-06,2.922616e-05,-0.49288708
196860307,0.0,0.0,-1.2340231,-3.066887,0.0,0.0,0.0,0.013710673,0.0,0.0,0.0,-7.596655e-09,-4.3113218e-08,-0.49297267
196963571,0.0,0.0,-1.2191508,-3.066887,0.0,0.0,0.0,0.0010442722,0.0,0.0,0.0,0.0,0.0,-0.48203757
197059583,0.0,0.0,-1.2017335,-3.066887,0.0,0.0,0.0,0.10217326,0.0,0.0,0.0,0.0,0.0,-0.2965981
197164739,0.0,0.0,-1.1575913,-3.066887,0.0,0.0,0.0,0.45006222,0.0,0.0,0.0,0.0,0.0,-0.20412332
197268386,0.0,0.0,-1.1124418,-3.066887,0.0,0.0,0.0,-0.13521051,0.0,0.0,0.0,0.0,0.0,-0.12479367
197363706,0.0,0.0,-1.1113731,-3.066887,0.0,0.0,0.0,0.14702661,0.0,0.0,0.0,0.0,0.0,-0.08
197468306,0.0,0.0,-1.0709707,-3.066887,0.0,0.0,0.0,0.028641718,0.0,0.0,0.0,0.0,0.0,-0.08
197569751,0.0,0.0,-1.0588838,-3.066887,0.0,0.0,0.0,0.10937694,0.0,0.0,0.0,0.0,0.0,-0.08000022
197673247,0.0,0.0,-1.04043,-3.066887,0.0,0.0,0.0,0.092022985,0.0,0.0,0.0,0.0,0.0,-0.08000005
197769238,0.0,0.0,-1.025059,-3.066887,0.0,0.0,0.0,0.09304854,0.0,0.0,0.0,0.0,0.0,-0.08
197873488,0.0,0.0,-1.014639,-3.066887,0.0,0.0,0.0,0.09385384,0.0,0.0,0.0,0.0,0.0,-0.08
197977259,0.0,0.0,-1.0088191,-3.066887,0.0,0.0,0.0,0.09230945,0.0,0.0,0.0,0.0,0.0,-0.08
198081392,0.0,0.0,-1.0033693,-3.066887,0.0,0.0,0.0,0.092411645,0.0,0.0,0.0,0.0,0.0,-0.08
198185920,0.0,0.0,-1.0024624,-3.066887,0.0,0.0,0.0,0.089437224,0.0,0.0,0.0,0.0,0.0,-0.08
198281208,0.0,0.0,-1.0019621,-3.066887,0.0,0.0,0.0,0.08746199,0.0,0.0,0.0,0.0,0.0,-0.08
198385351,0.0,0.0,-1.0021678,-3.066887,-0.0,0.0,0.0,0.08634093,0.0,0.0,0.0,0.0,0.0,-0.08
198490864,0.0,0.0,-1.0031694,-3.066887,-0.0,0.0,0.0,0.084047586,0.0,0.0,0.0,0.0,0.0,-0.08
198586277,0.0,0.0,-1.0021259,-3.066887,-0.0,0.0,0.0,0.082173154,0.0,0.0,0.0,0.0,0.0,-0.08
198690618,0.0,0.0,-1.0006561,-3.066887,-0.0,0.0,0.0,0.08028997,0.0,0.0,0.0,0.0,0.0,-0.08
198794646,0.0,0.0,-1.0031145,-3.066887,-0.0,0.0,0.0,0.076798245,0.0,0.0,0.0,0.0,0.0,-0.08
198890780,0.0,0.0,-1.008224,-3.066887,-0.0,0.0,0.0,0.072873905,0.0,0.0,0.0,0.0,0.0,-0.08
198994041,0.0,0.0,-1.0126333,-3.066887,-0.0,0.0,0.0,0.069278635,0.0,0.0,0.0,0.0,0.0,-0.08
199098676,0.0,0.0,-1.0163127,-3.066887,-0.0,0.0,0.0,0.065249495,0.0,0.0,0.0,0.0,0.0,-0.08
199194661,0.0,0.0,-1.0191815,-3.066887,0.0,0.0,0.0,0.06276765,0.0,0.0,0.0,0.0,0.0,-0.123404816
199298486,0.0,0.0,-1.0185546,-3.066887,-0.0,0.0,0.0,0.061651327,0.0,0.0,0.0,0.0,0.0,-0.14902619
199402867,0.0,0.0,-1.0179754,-3.066887,0.0,0.0,0.0,0.059352893,0.0,0.0,0.0,0.0,0.0,-0.19180158
199506109,0.0,0.0,-1.0204395,-3.066887,-0.0,0.0,0.0,0.055160984,0.0,0.0,0.0,0.0,0.0,-0.21236579
199603624,0.0,0.0,-1.0218986,-3.066887,-0.0,0.0,0.0,0.054115385,0.0,0.0,0.0,0.0,0.0,-0.23439078
199707731,0.0,0.0,-1.0259696,-3.066887,-0.0,0.0,0.0,0.050504725,0.0,0.0,0.0,0.0,0.0,-0.23849207
199803776,0.0,0.0,-1.0300708,-3.066887,-0.0,0.0,0.0,0.04842535,0.0,0.0,0.0,0.0,0.0,-0.27324322
199908206,0.0,0.0,-1.0339893,-3.066887,0.0,0.0,0.0,0.047250807,0.0,0.0,0.0,0.0,0.0,-0.29579726
200011685,0.0,0.0,-1.0415565,-3.066887,0.0,0.0,0.0,0.04120585,0.0,0.0,0.0,0.0,0.0,-0.28918108
200107772,0.0,0.0,-1.0495988,-3.066887,-0.0,0.0,0.0,0.038304377,0.0,0.0,0.0,0.0,0.0,-0.2810427
200211813,0.0,0.0,-1.0537864,-3.066887,-0.0,0.0,0.0,0.03477881,0.0,0.0,0.0,0.0,0.0,-0.27906093
200316178,0.0,0.0,-1.0580665,-3.066887,0.0,0.0,0.0,0.032011084,0.0,0.0,0.0,0.0,0.0,-0.2891414
200411575,0.0,0.0,-1.061403,-3.066887,-0.0,0.0,0.0,0.03267074,0.0,0.0,0.0,0.0,0.0,-0.28939995
200517488,0.0,0.0,-1.0622512,-3.0372968,0.61270654,0.0,0.0,0.023414806,0.0,0.0,0.0,0.0,0.0,-0.29125088
200621231,0.0,0.0,-1.0635195,-3.0413914,0.6360871,0.0,0.0,0.022516001,0.0,0.0,0.0,0.0,0.0,-0.29351705
200718135,0.0,0.0,-1.0672506,-3.0375283,0.66063696,0.0,0.0,0.02546758,0.0,0.0,0.0,0.0,0.0,-0.29846296
200821347,0.0,0.0,-1.0706258,-3.0382175,0.5929385,0.0,0.0,0.019658657,0.0,0.0,0.0,0.0,0.0,-0.32246858
200925946,0.0,0.0,-1.0749782,-3.038641,0.4750066,0.0,0.0,0.014261547,0.0,0.0,0.0,0.0,0.0,-0.32447135
201021407,0.0,0.0,-1.082106,-3.0402431,0.2331629,0.0,0.0,0.014709634,0.0,0.0,0.0,0.0,0.0,-0.3466075
201125275,0.0,0.0,-1.0892487,-3.0389132,0.17659952,0.0,0.0,0.008820178,0.0,0.0,0.0,0.0,0.0,-0.35143876
201229860,0.0,0.0,-1.0964321,-3.0406165,-0.0,0.0,0.0,0.0033267783,0.0,0.0,0.0,0.0,0.0,-0.37040108
201325188,0.0,0.0,-1.1059084,-3.0406165,-0.0,0.0,0.0,-0.0011383749,0.0,0.0,0.0,0.0,0.0,-0.3771288
201431034,0.0,0.0,-1.1183147,-3.0406165,-0.0,0.0,0.0,-0.0029550875,0.0,0.0,0.0,0.0,0.0,-0.38074997
201535508,0.0,0.0,-1.131261,-3.0406165,-0.0,0.0,0.0,-0.013028385,0.0,0.0,0.0,0.0,0.0,-0.39971414
201630893,0.0,0.0,-1.1484032,-3.0406165,0.0,0.0,0.0,-0.005441067,0.0,0.0,0.0,0.0,0.0,-0.4001307
201734842,0.0,0.0,-1.1653093,-3.0406165,0.0,0.0,0.0,-0.020770764,0.0,0.0,0.0,0.0,0.0,-0.40470585
201838907,0.0,0.0,-1.1728688,-3.0406165,-0.0,0.0,0.0,-0.02289933,0.0,0.0,0.0,0.0,0.0,-0.40023008
201934845,0.0,0.0,-1.1722417,-3.0406165,-0.0,0.0,0.0,-0.022600217,0.0,0.0,0.0,0.0,0.0,-0.41862664
202038882,0.0,0.0,-1.1693294,-3.0406165,-0.0,0.0,0.0,-0.031310894,0.0,0.0,0.0,0.0,0.0,-0.42631742
202143125,0.0,0.0,-1.1644641,-3.0406165,-0.0,0.0,0.0,-0.038736787,0.0,0.0,0.0,0.0,0.0,-0.4678841
202244516,0.0,0.0,-1.1595513,-3.0406165,-0.0,0.0,0.0,-0.045295518,0.0,0.0,0.0,0.0,0.0,-0.48189968
202340430,0.0,0.0,-1.1556402,-3.0406165,-0.0,0.0,0.0,-0.06224251,0.0,0.0,0.0,0.0,0.0,-0.48404923
202444424,0.0,0.0,-1.1472409,-3.0406165,0.0,0.0,0.0,-0.0522235,0.0,0.0,0.0,0.0,0.0,-0.49039078
202548615,0.0,0.0,-1.1365378,-3.0406165,-0.0,0.0,0.0,-0.06536493,0.0,0.0,0.0,0.0,0.0,-0.49121097
202652715,0.0,0.0,-1.1237408,-3.0406165,-0.0,0.0,0.0,-0.045336504,0.0,0.0,0.0,0.0,0.0,-0.452961
202756638,0.0,0.0,-1.1054759,-3.0027962,0.26020023,0.0,0.0,0.0737807,0.0,0.0,0.0,0.0,0.0,-0.44071102
202852702,0.0,0.0,-1.0773932,-2.979605,0.40889922,0.0,0.0,0.22553553,0.0,0.0,0.0,0.0,0.0,-0.44201478
202956984,0.0,0.0,-1.0553042,-2.9491959,0.39406487,0.0,0.0,-0.053033695,0.0,0.0,0.0,0.0,0.0,-0.44987625
203060518,0.0,0.0,-1.0473691,-2.9177904,0.35383034,0.0,0.0,0.02316318,0.0,0.0,0.0,0.0,0.0,-0.45217326
203158161,0.0,0.0,-1.0243853,-2.8842847,0.3342909,0.0,0.0,0.08657276,0.0,0.0,0.0,0.0,0.0,-0.4517731
203262051,0.0,0.0,-0.99883235,-2.8517392,0.14017586,0.0,0.0,0.011332982,0.0,0.0,0.0,0.0,0.0,-0.47760725
203366770,0.0,0.0,-0.9764026,-2.827197,0.023890283,0.0,0.0,0.02644984,0.0,0.0,0.0,0.0,0.0,-0.4912941
203470122,0.0,0.0,-0.9610015,-2.82548,-0.0,0.0,0.0,-0.0039671645,0.0,0.0,0.0,0.0,0.0,-0.49311334
203566141,0.0,0.0,-0.9520832,-2.82548,-0.0,0.0,0.0,-0.023258552,0.0,0.0,0.0,0.0,0.0,-0.49419734
203670095,0.0,0.0,-0.9490139,-2.82548,-0.0,0.0,0.0,-0.059210595,0.0,0.0,0.0,0.0,0.0,-0.4930756
203774098,0.0,0.0,-0.94892335,-2.82548,-0.0,0.0,0.0,-0.07187781,0.0,0.0,0.0,0.0,0.0,-0.49309626
203870783,0.0,0.0,-0.9447956,-2.7807636,0.08943298,0.0,0.0,-0.06292632,0.0,0.0,0.0,0.0,0.0,-0.4919553
203979464,0.0,0.0,-0.93692344,-2.768125,0.18499823,0.0,0.0,-0.039310146,0.0,0.0,0.0,0.0,0.0,-0.49181706
204083719,0.0,0.0,-0.9350552,-2.7489867,0.2611903,0.0,0.0,-0.00918152,0.0,0.0,0.0,0.0,0.0,-0.49224767
204180428,0.0,0.0,-0.93949246,-2.7257087,0.32352623,0.0,0.0,0.016179156,0.0,0.0,0.0,0.0,0.0,-0.48701763
204283622,0.0,0.0,-0.95116526,-2.6924388,0.46177125,0.0,0.0,0.05739123,0.0,0.0,0.0,0.0,0.0,-0.4831266
204387798,0.0,0.0,-0.9608221,-2.6477585,0.49259582,0.0,0.0,0.13036448,0.0,0.0,0.0,0.0,0.0,-0.4806114
204483835,0.0,0.0,-0.9610121,-2.6009727,0.5077943,0.0,0.0,0.21326801,0.0,0.0,0.0,0.0,0.0,-0.48036194
204587776,0.0,0.0,-0.9547427,-2.546698,0.4478357,0.0,0.0,0.26249877,0.0,0.0,0.0,0.0,0.0,-0.48147097
204691672,0.0,0.0,-0.95008034,-2.4946165,0.2630155,0.0,0.0,0.23748344,0.0,0.0,0.0,-0.0062294104,-0.025961125,-0.48616552
204787695,0.0,0.0,-0.9764751,-2.4706678,-0.0,0.0,0.0,-0.18281694,0.0,0.0,0.0,-0.006636962,-0.05709883,-0.4900839
204890149,0.0,0.0,-1.0156757,-2.4706678,0.0,0.0,0.0,-0.1774623,0.0,0.0,0.0,-0.004234074,-0.04531816,-0.49207893
204993783,0.0,0.0,-1.0492882,-2.4706678,0.0,0.0,0.0,-0.13375296,0.0,0.0,0.0,-0.0047473647,-0.0413054,-0.49274364
205097249,0.0,0.0,-1.0782908,-2.4706678,-0.0,0.0,0.0,-0.10620119,0.0,0.0,0.0,-0.004012677,-0.038271148,-0.49346933
205193233,0.0,0.0,-1.1047211,-2.4706678,-0.0,0.0,0.0,-0.061853077,0.0,0.0,0.0,-0.004075823,-0.036860622,-0.49314937
205297240,0.0,0.0,-1.1296984,-2.4706678,-0.0,0.0,0.0,-0.03030826,0.0,0.0,0.0,-0.0040175016,-0.034872588,-0.4938023
205402070,0.0,0.0,-1.1563879,-2.4706678,0.0,0.0,0.0,0.008275636,0.0,0.0,0.0,-0.0046859733,-0.038762365,-0.49262136
205498133,0.0,0.0,-1.1844164,-2.4706678,-0.0,0.0,0.0,0.025526091,0.0,0.0,0.0,-0.0044996077,-0.040106684,-0.49272797
205601232,0.0,0.0,-1.2127888,-2.4437006,0.4594858,0.0,0.0,0.03634722,0.0,0.0,0.0,-0.0014659988,-0.02133431,-0.49316904
205705313,0.0,0.0,-1.2341366,-2.413355,0.8592995,0.0,0.0,0.0672672,0.0,0.0,0.0,-6.423198e-05,-0.013983509,-0.49293947
205803693,0.0,0.0,-1.2550744,-2.3531425,0.9853122,0.0,0.0,0.062048327,0.0,0.0,0.0,-1.8576651e-05,-1.5957892e-05,-0.49423647
205907428,0.0,0.0,-1.2755228,-2.2726748,0.9358417,0.0,0.0,0.056685705,0.0,0.0,0.0,-1.2296679e-08,1.09803455e-08,-0.49307767
206010827,0.0,0.0,-1.2920094,-2.1859725,0.8386171,0.0,0.0,0.019369675,0.0,0.0,0.0,0.0019495359,-0.023620062,-0.49367028
206107443,0.0,0.0,-1.3061904,-2.1069589,0.64038676,0.0,0.0,0.018653927,0.0,0.0,0.0,0.011026882,-0.044493172,-0.49088055
206211150,0.0,0.0,-1.3152938,-2.028592,0.4024988,0.0,0.0,-0.0693543,0.0,0.0,0.0,0.0122357765,-0.035269458,-0.49168307
206314973,0.0,0.0,-1.3309339,-1.9597175,0.21456748,0.0,0.0,-0.16184245,0.0,0.0,0.0,0.015301037,-0.03691262,-0.4914506
206410806,0.0,0.0,-1.3438222,-1.9169225,-0.0,0.0,0.0,-0.16286932,0.0,0.0,0.0,0.017911524,-0.038143095,-0.49244133
206515040,0.0,0.0,-1.3510661,-1.9169225,-0.0,0.0,0.0,-0.16957542,0.0,0.0,0.0,0.017820695,-0.037387967,-0.49353114
206616562,0.0,0.0,-1.3600639,-1.8828012,0.040491812,0.0,0.0,-0.142206,0.0,0.0,0.0,0.016895948,-0.03324812,-0.49276266
206720471,0.0,0.0,-1.3647022,-1.8736836,0.11811683,0.0,0.0,-0.118091464,0.0,0.0,0.0,0.017281974,-0.032988485,-0.49349675
206824668,0.0,0.0,-1.3668956,-1.8609749,0.39728808,0.0,0.0,-0.08281619,0.0,0.0,0.0,0.018974995,-0.035195325,-0.49248517
206929098,0.0,0.0,-1.371228,-1.8315377,0.56281495,0.0,0.0,-0.06593315,0.0,0.0,0.0,0.020281628,-0.03501672,-0.49250072
207024460,0.0,0.0,-1.3780619,-1.7899587,0.673653,0.0,0.0,-0.030274237,0.0,0.0,0.0,0.021743251,-0.03420525,-0.4934202
207128769,0.0,0.0,-1.3848406,-1.7328879,0.68828124,0.0,0.0,-0.018459843,0.0,0.0,0.0,0.024891522,-0.03466109,-0.49232244
207233114,0.0,0.0,-1.3976929,-1.6693969,0.67059636,0.0,0.0,-0.019735098,0.0,0.0,0.0,0.027396452,-0.033470266,-0.49285284
207329357,0.0,0.0,-1.4110512,-1.6083726,0.665496,0.0,0.0,-0.026165929,0.0,0.0,0.0,0.030077726,-0.03281395,-0.49209175
207433001,0.0,0.0,-1.4201436,-1.5413973,0.6471972,0.0,0.0,-0.016760558,0.0,0.0,0.0,0.03459631,-0.032828446,-0.49207222
207538275,0.0,0.0,-1.424463,-1.4743593,0.5938131,0.0,0.0,-0.006276521,0.0,0.0,0.0,0.038804743,-0.031989973,-0.49153954
207634206,0.0,0.0,-1.4270132,-1.4160349,0.52182585,0.0,0.0,-0.029284056,0.0,0.0,0.0,0.041005116,-0.02964147,-0.49156982
207738245,0.0,0.0,-1.4307758,-1.3545246,0.30172768,0.0,0.0,-0.10543636,0.0,0.0,0.0,0.042025674,-0.026962265,-0.4927436
207842259,0.0,0.0,-1.4334098,-1.3056293,0.34768283,0.0,0.0,-0.10303526,0.0,0.0,0.0,0.04166699,-0.0237121,-0.4918065
207938868,0.0,0.0,-1.4239641,-1.2649045,0.33255196,0.0,0.0,-0.09194355,0.0,0.0,0.0,0.042209595,-0.021893924,-0.49208555
208042214,0.0,0.0,-1.4064236,-1.2269251,0.30627078,0.0,0.0,-0.08323448,0.0,0.0,0.0,0.042479582,-0.020039096,-0.49186805
208146367,0.0,0.0,-1.3920075,-1.1940776,0.2168578,0.0,0.0,-0.068865344,0.0,0.0,0.0,0.042678,-0.018567054,-0.49196374
208242030,0.0,0.0,-1.3741202,-1.1708999,-0.0,0.0,0.0,-0.049113814,0.0,0.0,0.0,0.04312837,-0.017499624,-0.49288937
208347517,0.0,0.0,-1.357558,-1.1708999,0.0,0.0,0.0,-0.041979726,0.0,0.0,0.0,0.042503525,-0.017126292,-0.49234954
208450944,0.0,0.0,-1.3466581,-1.1708999,0.0,0.0,0.0,-0.031742197,0.0,0.0,0.0,0.03959848,-0.016055703,-0.49382925
208547014,0.0,0.0,-1.3407532,-1.1708999,-0.0,0.0,0.0,-0.041114416,0.0,0.0,0.0,0.037522167,-0.015127449,-0.4935094
208651082,0.0,0.0,-1.3386201,-1.1708999,-0.0,0.0,0.0,-0.039240327,0.0,0.0,0.0,0.03798054,-0.015341422,-0.49263403
208754850,0.0,0.0,-1.3381149,-1.1708999,0.0,0.0,0.0,-0.040139332,0.0,0.0,0.0,0.03743896,-0.014910907,-0.49364123
208850880,0.0,0.0,-1.3351408,-1.1708999,0.0,0.0,0.0,-0.038683295,0.0,0.0,0.0,0.029483676,-0.011115524,-0.49347988
208955418,0.0,0.0,-1.3334783,-1.1708999,0.0,0.0,0.0,-0.045284092,0.0,0.0,0.0,0.024476219,-0.010107853,-0.49530584
209060152,0.0,0.0,-1.3359221,-1.1708999,-0.0,0.0,0.0,-0.05023176,0.0,0.0,0.0,0.023735484,-0.009398601,-0.49354362
209154854,0.0,0.0,-1.3346752,-1.1708999,-0.0,0.0,0.0,-0.045129053,0.0,0.0,0.0,0.018568639,-0.007179092,-0.4950303
209259592,0.0,0.0,-1.3269776,-1.1708999,-0.0,0.0,0.0,-0.040630568,0.0,0.0,0.0,0.014211522,-0.0056283656,-0.49754596
209362787,0.0,0.0,-1.3193163,-1.1708999,-0.0,0.0,0.0,-0.062995404,0.0,0.0,0.0,0.0129335495,-0.005082373,-0.5066405
209467050,0.0,0.0,-1.317391,-1.1708999,0.0,0.0,0.0,-0.11694163,0.0,0.0,0.0,0.0122269485,-0.004848211,-0.52133393
209564734,0.0,0.0,-1.3214234,-1.1708999,0.0,0.0,0.0,-0.1954367,0.0,0.0,0.0,0.009186426,-0.0036751598,-0.529142
209669118,0.0,0.0,-1.3363214,-1.1708999,0.0,0.0,0.0,-0.295139,0.0,0.0,0.0,0.007179839,-0.0027483455,-0.5445183
209764955,0.0,0.0,-1.364156,-1.1708999,-0.0,0.0,0.0,-0.4031839,0.0,0.0,0.0,0.0026431035,-0.00074153644,-0.5496877
209868548,0.0,0.0,-1.4068816,-1.1708999,-0.0,0.0,0.0,-0.533088,0.0,0.0,0.0,3.4871484e-06,8.7194104e-07,-0.55019426
209972432,0.0,0.0,-1.4695208,-1.1708999,0.0,0.0,0.0,-0.63604504,0.0,0.0,0.0,-5.1697047e-09,-6.583032e-10,-0.5420891
210068563,0.0,0.0,-1.5398202,-1.1708999,0.0,0.0,0.0,-0.6931286,0.0,0.0,0.0,0.0,0.0,-0.5107037
210173253,0.0,0.0,-1.6192119,-1.1708999,0.0,0.0,0.0,-0.6582554,0.0,0.0,0.0,0.0,0.0,-0.5089312
210276434,0.0,0.0,-1.6843933,-1.1708999,-0.0,0.0,0.0,-0.5493367,0.0,0.0,0.0,0.0,0.0,-0.49918464
210374329,0.0,0.0,-1.7387686,-1.1708999,-0.0,0.0,0.0,-0.43625498,0.0,0.0,0.0,0.0,0.0,-0.4994681
210478235,0.0,0.0,-1.79162,-1.1708999,-0.0,0.0,0.0,-0.33746728,0.0,0.0,0.0,0.0,0.0,-0.4990734
210582857,0.0,0.0,-1.8334519,-1.1708999,0.0,0.0,0.0,-0.1994676,0.0,0.0,0.0,0.0,0.0,-0.49842423
210678940,0.0,0.0,-1.8595008,-1.1708999,0.0,0.0,0.0,-0.1027691,0.0,0.0,0.0,0.0,0.0,-0.4995491
210782677,0.0,0.0,-1.881529,-1.1708999,0.0,0.0,0.0,0.028798513,0.0,0.0,0.0,0.0,0.0,-0.51100284
210886852,0.0,0.0,-1.8895291,-1.1708999,-0.0,0.0,0.0,0.113569155,0.0,0.0,0.0,0.0,0.0,-0.51158506
210981991,0.0,0.0,-1.885426,-1.1708999,-0.0,0.0,0.0,0.17028151,0.0,0.0,0.0,0.0,0.0,-0.5289661
211085975,0.0,0.0,-1.8776813,-1.1708999,0.0,0.0,0.0,0.17445146,0.0,0.0,0.0,0.0,0.0,-0.55073273
211190672,0.0,0.0,-1.8709666,-1.1708999,0.0,0.0,0.0,0.10314599,0.0,0.0,0.0,0.0,0.0,-0.5587251
211286880,0.0,0.0,-1.8724071,-1.1708999,0.0,0.0,0.0,-0.0073788976,0.0,0.0,0.0,0.0,0.0,-0.56582433
211390886,0.0,0.0,-1.8891459,-1.1708999,0.0,0.0,0.0,-0.14431569,0.0,0.0,0.0,0.0,0.0,-0.5669732
211495302,0.0,0.0,-1.9219731,-1.1708999,0.0,0.0,0.0,-0.2960078,0.0,0.0,0.0,0.0,0.0,-0.5663372
211590925,0.0,0.0,-1.9623879,-1.1708999,0.0,0.0,0.0,-0.42862943,0.0,0.0,0.0,0.0,0.0,-0.5649021
211694796,0.0,0.0,-2.018413,-1.1708999,0.0,0.0,0.0,-0.54394794,0.0,0.0,0.0,0.0,0.0,-0.5640006
211799482,0.0,0.0,-2.0839283,-1.1708999,0.0,0.0,0.0,-0.6353505,0.0,0.0,0.0,0.0,0.0,-0.5556867
211902806,0.0,0.0,-2.1585917,-1.1708999,0.0,0.0,0.0,-0.6877804,0.0,0.0,0.0,0.0,0.0,-0.5504546
213220437,0.0,0.0,-3.1791317,-1.1708999,0.0,0.0,0.0,-0.9628262,0.0,0.0,0.0,0.0,0.0,-0.55162627
213522196,0.0,0.0,-3.4521751,-1.1708999,0.0,0.0,0.0,-1.0026762,0.0,0.0,0.0,0.0,0.0,-0.5509482
213626907,0.0,0.0,-3.5506995,-1.1708999,0.0,0.0,0.0,-1.0332707,0.0,0.0,0.0,0.0,0.0,-0.5514129
213722063,0.0,0.0,-3.6402957,-1.1708999,0.0,0.0,0.0,-1.0363971,0.0,0.0,0.0,0.0,0.0,-0.5499542
213826563,0.0,0.0,-3.735506,-1.1708999,0.0,0.0,0.0,-1.0414919,0.0,0.0,0.0,0.0,0.0,-0.55037725
213930222,0.0,0.0,-3.8301497,-1.1708999,0.0,0.0,0.0,-1.0381418,0.0,0.0,0.0,0.0,0.0,-0.54736614
214034064,0.0,0.0,-3.926712,-1.1708999,0.0,0.0,0.0,-1.037632,0.0,0.0,0.0,0.0,0.0,-0.5442952
214131059,0.0,0.0,-4.0127673,-1.1708999,0.0,0.0,0.0,-1.0178272,0.0,0.0,0.0,0.0,0.0,-0.5380216
214235795,0.0,0.0,-4.100545,-1.1708999,0.0,0.0,0.0,-0.976804,0.0,0.0,0.0,0.0,0.0,-0.5373856
214331617,0.0,0.0,-4.176304,-1.1708999,0.0,0.0,0.0,-0.9381458,0.0,0.0,0.0,0.0,0.0,-0.52735823
214435652,0.0,0.0,-4.2567153,-1.1708999,0.0,0.0,0.0,-0.87654227,0.0,0.0,0.0,0.0,0.0,-0.51311177
214540410,0.0,0.0,-4.332298,-1.1708999,0.0,0.0,0.0,-0.76242316,0.0,0.0,0.0,0.0,0.0,-0.49685118
214636739,0.0,0.0,-4.392308,-1.1708999,0.0,0.0,0.0,-0.6073891,0.0,0.0,0.0,0.0,0.0,-0.4935948
214740369,0.0,0.0,-4.4412317,-1.1708999,0.0,0.0,0.0,-0.44584152,0.0,0.0,0.0,0.0,0.0,-0.48392448
214843540,0.0,0.0,-4.4722986,-1.1708999,0.0,0.0,0.0,-0.24971159,0.0,0.0,0.0,0.0,0.0,-0.4809991
214947721,0.0,0.0,-4.476585,-1.1708999,0.0,0.0,0.0,-0.028749287,0.0,0.0,0.0,0.0,0.0,-0.4732739
215049204,0.0,0.0,-4.4506955,-1.1708999,0.0,0.0,0.0,0.2143033,0.0,0.0,0.0,0.0,0.0,-0.4557672
215145261,0.0,0.0,-4.394557,-1.1708999,0.0,0.0,0.0,0.4799531,0.0,0.0,0.0,0.0,0.0,-0.4088095
215250120,0.0,0.0,-4.3022127,-1.1708999,0.0,0.0,0.0,0.8710309,0.0,0.0,0.0,0.0,0.0,-0.42474088
215353846,0.0,0.0,-4.172821,-1.1708999,0.0,0.0,0.0,1.2480251,0.0,0.0,0.0,0.0,0.0,-0.49646458
215449185,0.0,0.0,-4.027381,-1.1708999,0.0,0.0,0.0,1.4446354,0.0,0.0,0.0,0.0,0.0,-0.55680954
215554075,0.0,0.0,-3.860816,-1.1708999,0.0,0.0,0.0,1.4047946,0.0,0.0,0.0,0.0,0.0,-0.6675703
215657921,0.0,0.0,-3.7187245,-1.1708999,0.0,0.0,0.0,1.0111526,0.0,0.0,0.0,0.0,0.0,-0.7318057
215753249,0.0,0.0,-3.6373303,-1.1708999,0.0,0.0,0.0,0.46728706,0.0,0.0,0.0,0.0,0.0,-0.73273915
215858898,0.0,0.0,-3.6153266,-1.1708999,0.0,0.0,0.0,-0.1642502,0.0,0.0,0.0,0.0,0.0,-0.72717756
215963044,0.0,0.0,-3.6623032,-1.1708999,0.0,0.0,0.0,-0.7363464,0.0,0.0,0.0,0.0,0.0,-0.690854
216059419,0.0,0.0,-3.7598474,-1.1708999,0.0,0.0,0.0,-1.1591471,0.0,0.0,0.0,0.0,0.0,-0.6578598
216163357,0.0,0.0,-3.9119968,-1.1708999,0.0,0.0,0.0,-1.5119094,0.0,0.0,0.0,0.0,0.0,-0.62195444
216266856,0.0,0.0,-4.0910583,-1.1708999,0.0,0.0,0.0,-1.7115043,0.0,0.0,0.0,0.0,0.0,-0.5405281
216363331,0.0,0.0,-4.262988,-1.1708999,0.0,0.0,0.0,-1.6924499,0.0,0.0,0.0,0.0,0.0,-0.5227455
216466888,0.0,0.0,-4.4419894,-1.1708999,0.0,0.0,0.0,-1.5742837,0.0,0.0,0.0,0.0,0.0,-0.5016177
216571573,0.0,0.0,-4.604885,-1.1708999,0.0,0.0,0.0,-1.388344,0.0,0.0,0.0,0.0,0.0,-0.4987594
216666831,0.0,0.0,-4.7385864,-1.1708999,0.0,0.0,0.0,-1.2107126,0.0,0.0,0.0,0.0,0.0,-0.49847326
216772596,0.0,0.0,-4.8606944,-1.1708999,0.0,0.0,0.0,-1.00786,0.0,0.0,0.0,0.0,0.0,-0.49954706
216877349,0.0,0.0,-4.9563565,-1.1708999,0.0,0.0,0.0,-0.8438858,0.0,0.0,0.0,0.0,0.0,-0.49838743
216980483,0.0,0.0,-5.0299354,-1.1708999,0.0,0.0,0.0,-0.6455457,0.0,0.0,0.0,0.0,0.0,-0.4991457
217076545,0.0,0.0,-5.078285,-1.1708999,0.0,0.0,0.0,-0.5189462,0.0,0.0,0.0,0.0,0.0,-0.54275817
217180904,0.0,0.0,-5.1182613,-1.1708999,0.0,0.0,0.0,-0.47525012,0.0,0.0,0.0,0.0,0.0,-0.5644081
217285088,0.0,0.0,-5.158315,-1.1708999,0.0,0.0,0.0,-0.5346098,0.0,0.0,0.0,0.0,0.0,-0.5652932
217380404,0.0,0.0,-5.201478,-1.1708999,0.0,0.0,0.0,-0.5812579,0.0,0.0,0.0,0.0,0.0,-0.56172854
217484436,0.0,0.0,-5.252578,-1.1708999,0.0,0.0,0.0,-0.6153998,0.0,0.0,0.0,0.0,0.0,-0.50787437
217585477,0.0,0.0,-5.298272,-1.1708999,0.0,0.0,0.0,-0.5231459,0.0,0.0,0.0,0.0,0.0,-0.4928211
217689846,0.0,0.0,-5.333163,-1.1708999,0.0,0.0,0.0,-0.3438154,0.0,0.0,0.0,0.0,0.0,-0.49361196
217793306,0.0,0.0,-5.351354,-1.1708999,0.0,0.0,0.0,-0.15153608,0.0,0.0,0.0,0.0,0.0,-0.47517055
217897420,0.0,0.0,-5.3504224,-1.1708999,0.0,0.0,0.0,0.06793577,0.0,0.0,0.0,0.0,0.0,-0.47011352
217994629,0.0,0.0,-5.327571,-1.1708999,0.0,0.0,0.0,0.3181087,0.0,0.0,0.0,0.0,0.0,-0.43556732
218097298,0.0,0.0,-5.2709785,-1.1708999,0.0,0.0,0.0,0.63921314,0.0,0.0,0.0,0.0,0.0,-0.45824528
218201174,0.0,0.0,-5.1773167,-1.1708999,0.0,0.0,0.0,0.9445388,0.0,0.0,0.0,0.0,0.0,-0.47451076
218298091,0.0,0.0,-5.065277,-1.1708999,0.0,0.0,0.0,1.1312029,0.0,0.0,0.0,0.0,0.0,-0.5414896
218402077,0.0,0.0,-4.936688,-1.1708999,0.0,0.0,0.0,1.1813618,0.0,0.0,0.0,0.0,0.0,-0.5597957
218505198,0.0,0.0,-4.8077664,-1.1708999,0.0,0.0,0.0,1.1302338,0.0,0.0,0.0,0.0,0.0,-0.62667525
218601250,0.0,0.0,-4.7041116,-1.1708999,0.0,0.0,0.0,0.9075416,0.0,0.0,0.0,0.0,0.0,-0.6338544
218706301,0.0,0.0,-4.6249266,-1.1708999,0.0,0.0,0.0,0.6148344,0.0,0.0,0.0,0.0,0.0,-0.6127386
218810660,0.0,0.0,-4.5789914,-1.1708999,0.0,0.0,0.0,0.35437912,0.0,0.0,0.0,0.0,0.0,-0.6054643
218906077,0.0,0.0,-4.567628,-1.1708999,0.0,0.0,0.0,0.16654347,0.0,0.0,0.0,0.0,0.0,-0.5549359
219010326,0.0,0.0,-4.5712824,-1.1708999,0.0,0.0,0.0,0.12255888,0.0,0.0,0.0,0.0,0.0,-0.54180133
219114608,0.0,0.0,-4.5739474,-1.1708999,0.0,0.0,0.0,0.14469117,0.0,0.0,0.0,0.0,0.0,-0.56401616
219210129,0.0,0.0,-4.573904,-1.1708999,0.0,0.0,0.0,0.09970181,0.0,0.0,0.0,0.0,0.0,-0.57340956
219314850,0.0,0.0,-4.5800257,-1.1708999,0.0,0.0,0.0,-0.0023043687,0.0,0.0,0.0,0.0,0.0,-0.5724439
219418157,0.0,0.0,-4.5908046,-1.1708999,0.0,0.0,0.0,-0.08641698,0.0,0.0,0.0,0.0,0.0,-0.5714038
219522212,0.0,0.0,-4.6095405,-1.1708999,0.0,0.0,0.0,-0.1670072,0.0,0.0,0.0,0.0,0.0,-0.56204015
219618702,0.0,0.0,-4.628374,-1.1708999,0.0,0.0,0.0,-0.18663414,0.0,0.0,0.0,0.0,0.0,-0.53586394
219722182,0.0,0.0,-4.646858,-1.1708999,0.0,0.0,0.0,-0.14785567,0.0,0.0,0.0,0.0,0.0,-0.5307803
219826053,0.0,0.0,-4.6647973,-1.1708999,0.0,0.0,0.0,-0.067890316,0.0,0.0,0.0,0.0,0.0,-0.4921394
219922818,0.0,0.0,-4.669386,-1.1708999,0.0,0.0,0.0,0.11486829,0.0,0.0,0.0,0.0,0.0,-0.48845172
220027383,0.0,0.0,-4.6527367,-1.1708999,0.0,0.0,0.0,0.31802604,0.0,0.0,0.0,0.0,0.0,-0.48776796
220131455,0.0,0.0,-4.6134496,-1.1708999,0.0,0.0,0.0,0.5275962,0.0,0.0,0.0,0.0,0.0,-0.4923546
220226811,0.0,0.0,-4.560214,-1.1708999,0.0,0.0,0.0,0.68117017,0.0,0.0,0.0,0.0,0.0,-0.49387082
220331695,0.0,0.0,-4.482067,-1.1708999,0.0,0.0,0.0,0.8539703,0.0,0.0,0.0,0.040898938,-0.020276466,-0.49226028
220435474,0.0,0.0,-4.3837066,-1.1708999,0.0,0.0,0.0,1.0267354,0.0,0.0,0.0,0.0674544,-0.029505936,-0.489779
220531577,0.0,0.0,-4.2757607,-1.1708999,0.0,0.0,0.0,1.1948235,0.0,0.0,0.0,0.046754353,-0.012523455,-0.495067
220634832,0.0,0.0,-4.141231,-1.1708999,0.0,0.0,0.0,1.3746724,0.0,0.0,0.0,0.035743415,-0.014635352,-0.5347769
220739684,0.0,0.0,-3.9950233,-1.1708999,0.0,0.0,0.0,1.4348668,0.0,0.0,0.0,0.034842696,-0.012669305,-0.5384933
220835366,0.0,0.0,-3.8558273,-1.1708999,0.0,0.0,0.0,1.4341325,0.0,0.0,0.0,0.0006041628,0.00039474518,-0.6160467
220939170,0.0,0.0,-3.71499,-1.1708999,0.0,0.0,0.0,1.230828,0.0,0.0,0.0,-1.2457612e-06,-5.285809e-07,-0.65102607
221045248,0.0,0.0,-3.6054864,-1.1708999,0.0,0.0,0.0,0.85231346,0.0,0.0,0.0,-3.644827e-10,3.6567648e-11,-0.65547425
221149451,0.0,0.0,-3.5401344,-1.1708999,0.0,0.0,0.0,0.49070808,0.0,0.0,0.0,0.0,0.0,-0.63559556
221244491,0.0,0.0,-3.514007,-1.1708999,0.0,0.0,0.0,0.18707922,0.0,0.0,0.0,0.0,0.0,-0.62805575
221349432,0.0,0.0,-3.5174172,-1.1708999,0.0,0.0,0.0,-0.096953735,0.0,0.0,0.0,0.0,0.0,-0.6271321
221452400,0.0,0.0,-3.5544374,-1.1708999,0.0,0.0,0.0,-0.35119584,0.0,0.0,0.0,0.0,0.0,-0.619442
221548644,0.0,0.0,-3.6165988,-1.1708999,0.0,0.0,0.0,-0.5548904,0.0,0.0,0.0,0.0,0.0,-0.61978394
221652472,0.0,0.0,-3.7107165,-1.1708999,0.0,0.0,0.0,-0.76452655,0.0,0.0,0.0,0.0,0.0,-0.55996156
221757398,0.0,0.0,-3.8194854,-1.1708999,0.0,0.0,0.0,-0.82858014,0.0,0.0,0.0,0.0,0.0,-0.5609327
221858781,0.0,0.0,-3.9235144,-1.1708999,0.0,0.0,0.0,-0.8439156,0.0,0.0,0.0,0.0,0.0,-0.55953616
221954699,0.0,0.0,-4.015894,-1.1708999,0.0,0.0,0.0,-0.8616366,0.0,0.0,0.0,0.0,0.0,-0.5431616
222058815,0.0,0.0,-4.110914,-1.1708999,0.0,0.0,0.0,-0.828691,0.0,0.0,0.0,0.0,0.0,-0.5449348
222162135,0.0,0.0,-4.2020135,-1.1708999,0.0,0.0,0.0,-0.7980489,0.0,0.0,0.0,0.0,0.0,-0.55950606
222266361,0.0,0.0,-4.2902884,-1.1708999,0.0,0.0,0.0,-0.80103916,0.0,0.0,0.0,0.0,0.0,-0.56614053
222370151,0.0,0.0,-4.3819103,-1.1708999,0.0,0.0,0.0,-0.8291038,0.0,0.0,0.0,0.0,0.0,-0.543651
222466624,0.0,0.0,-4.465981,-1.1708999,0.0,0.0,0.0,-0.8092135,0.0,0.0,0.0,0.0,0.0,-0.5443598
222570058,0.0,0.0,-4.5539026,-1.1708999,0.0,0.0,0.0,-0.7747638,0.0,0.0,0.0,0.0,0.0,-0.5539762
222675032,0.0,0.0,-4.6429343,-1.1708999,0.0,0.0,0.0,-0.7666657,0.0,0.0,0.0,0.0,0.0,-0.55636454
222772470,0.0,0.0,-4.7179728,-1.1708999,0.0,0.0,0.0,-0.7726296,0.0,0.0,0.0,0.0,0.0,-0.54181755
222875791,0.0,0.0,-4.7938256,-1.1708999,0.0,0.0,0.0,-0.7318146,0.0,0.0,0.0,0.0,0.0,-0.52714586
222979912,0.0,0.0,-4.8684864,-1.1708999,0.0,0.0,0.0,-0.64577436,0.0,0.0,0.0,0.0,0.0,-0.49915802
223075667,0.0,0.0,-4.9295683,-1.1708999,0.0,0.0,0.0,-0.50210613,0.0,0.0,0.0,0.0,0.0,-0.49747866
223179644,0.0,0.0,-4.9782057,-1.1708999,0.0,0.0,0.0,-0.32590166,0.0,0.0,0.0,0.0,0.0,-0.47753406
223283858,0.0,0.0,-5.008467,-1.1708999,0.0,0.0,0.0,-0.072030075,0.0,0.0,0.0,0.0,0.0,-0.41973436
223380172,0.0,0.0,-5.0033517,-1.1708999,0.0,0.0,0.0,0.29554325,0.0,0.0,0.0,0.0,0.0,-0.43959025
223483719,0.0,0.0,-4.9536633,-1.1708999,0.0,0.0,0.0,0.6664225,0.0,0.0,0.0,0.0,0.0,-0.4518818
223586066,0.0,0.0,-4.8659534,-1.1708999,0.0,0.0,0.0,0.9900716,0.0,0.0,0.0,0.0,0.0,-0.45707276
223689248,0.0,0.0,-4.7446055,-1.1708999,0.0,0.0,0.0,1.2538378,0.0,0.0,0.0,0.0,0.0,-0.5882412
223785229,0.0,0.0,-4.618635,-1.1708999,0.0,0.0,0.0,1.2086104,0.0,0.0,0.0,0.0,0.0,-0.6614175
223889746,0.0,0.0,-4.498044,-1.1708999,0.0,0.0,0.0,0.8798772,0.0,0.0,0.0,0.0,0.0,-0.6618615
223993892,0.0,0.0,-4.4232326,-1.1708999,0.0,0.0,0.0,0.47279713,0.0,0.0,0.0,0.0,0.0,-0.692642
224089510,0.0,0.0,-4.3963275,-1.1708999,0.0,0.0,0.0,0.04536775,0.0,0.0,0.0,0.0,0.0,-0.6652346
224193816,0.0,0.0,-4.4153643,-1.1708999,0.0,0.0,0.0,-0.345202,0.0,0.0,0.0,0.0,0.0,-0.6164284
224298214,0.0,0.0,-4.478489,-1.1708999,0.0,0.0,0.0,-0.5829237,0.0,0.0,0.0,0.0,0.0,-0.5958376
224395297,0.0,0.0,-4.554173,-1.1708999,0.0,0.0,0.0,-0.7388666,0.0,0.0,0.0,0.0,0.0,-0.5906599
224498972,0.0,0.0,-4.649142,-1.1708999,0.0,0.0,0.0,-0.83267236,0.0,0.0,0.0,0.0,0.0,-0.5407944
224603371,0.0,0.0,-4.742304,-1.1708999,0.0,0.0,0.0,-0.8044403,0.0,0.0,0.0,0.0,0.0,-0.5189568
224699662,0.0,0.0,-4.8199,-1.1708999,0.0,0.0,0.0,-0.7208422,0.0,0.0,0.0,0.0,0.0,-0.5182448
224803418,0.0,0.0,-4.894452,-1.1708999,0.0,0.0,0.0,-0.62368685,0.0,0.0,0.0,0.0,0.0,-0.50839895
224906817,0.0,0.0,-4.9568877,-1.1708999,0.0,0.0,0.0,-0.4836077,0.0,0.0,0.0,0.0,0.0,-0.4942483
225003436,0.0,0.0,-5.0006967,-1.1708999,0.0,0.0,0.0,-0.30105472,0.0,0.0,0.0,0.0,0.0,-0.49400818
225107116,0.0,0.0,-5.0268674,-1.1708999,0.0,0.0,0.0,-0.12818272,0.0,0.0,0.0,0.0,0.0,-0.4941629
225211676,0.0,0.0,-5.026806,-1.1708999,0.0,0.0,0.0,0.06303964,0.0,0.0,0.0,0.0,0.0,-0.4945028
225308601,0.0,0.0,-5.0053897,-1.1708999,0.0,0.0,0.0,0.2366014,0.0,0.0,0.0,0.0,0.0,-0.4937984
225413201,0.0,0.0,-4.965064,-1.1708999,0.0,0.0,0.0,0.43014115,0.0,0.0,0.0,0.0,0.0,-0.49526593
225516416,0.0,0.0,-4.9075117,-1.1708999,0.0,0.0,0.0,0.62248033,0.0,0.0,0.0,0.0,0.0,-0.49623835
225613253,0.0,0.0,-4.8395057,-1.1708999,0.0,0.0,0.0,0.76448596,0.0,0.0,0.0,0.0,0.0,-0.5027488
225716469,0.0,0.0,-4.753054,-1.1708999,0.0,0.0,0.0,0.87257713,0.0,0.0,0.0,0.0,0.0,-0.5806091
225820600,0.0,0.0,-4.665279,-1.1708999,0.0,0.0,0.0,0.8107252,0.0,0.0,0.0,0.0,0.0,-0.5984587
225916647,0.0,0.0,-4.594435,-1.1708999,0.0,0.0,0.0,0.65398246,0.0,0.0,0.0,0.0,0.0,-0.5960705
226020593,0.0,0.0,-4.5362473,-1.1708999,0.0,0.0,0.0,0.4735529,0.0,0.0,0.0,0.0,0.0,-0.603898
226122026,0.0,0.0,-4.5016575,-1.1708999,0.0,0.0,0.0,0.25709572,0.0,0.0,0.0,0.0,0.0,-0.60542226
226226681,0.0,0.0,-4.4860363,-1.1708999,0.0,0.0,0.0,0.05582113,0.0,0.0,0.0,0.0,0.0,-0.6019658
226330275,0.0,0.0,-4.4953957,-1.1708999,0.0,0.0,0.0,-0.12063569,0.0,0.0,0.0,0.0,0.0,-0.59817684
226434846,0.0,0.0,-4.5176425,-1.1708999,0.0,0.0,0.0,-0.2979273,0.0,0.0,0.0,0.0,0.0,-0.5884993
226530284,0.0,0.0,-4.56147,-1.1708999,0.0,0.0,0.0,-0.42027223,0.0,0.0,0.0,0.0,0.0,-0.5872524
226634043,0.0,0.0,-4.630566,-1.1708999,0.0,0.0,0.0,-0.55437243,0.0,0.0,0.0,0.0,0.0,-0.5837741
226738730,0.0,0.0,-4.710697,-1.1708999,0.0,0.0,0.0,-0.66788346,0.0,0.0,0.0,0.0,0.0,-0.5622453
226834634,0.0,0.0,-4.782158,-1.1708999,0.0,0.0,0.0,-0.7026283,0.0,0.0,0.0,0.0,0.0,-0.55447096
226939772,0.0,0.0,-4.857519,-1.1708999,0.0,0.0,0.0,-0.708424,0.0,0.0,0.0,0.0,0.0,-0.555935
227043965,0.0,0.0,-4.93151,-1.1708999,0.0,0.0,0.0,-0.7127172,0.0,0.0,0.0,0.0,0.0,-0.5549297
227148343,0.0,0.0,-5.0099545,-1.1708999,0.0,0.0,0.0,-0.7216135,0.0,0.0,0.0,0.0,0.0,-0.5522738
227243667,0.0,0.0,-5.0775924,-1.1708999,0.0,0.0,0.0,-0.7172375,0.0,0.0,0.0,0.0,0.0,-0.53368026
227347845,0.0,0.0,-5.1489587,-1.1708999,0.0,0.0,0.0,-0.63482654,0.0,0.0,0.0,0.0,0.0,-0.49622035
227452236,0.0,0.0,-5.20529,-1.1708999,0.0,0.0,0.0,-0.48529768,0.0,0.0,0.0,0.0,0.0,-0.49522528
227548316,0.0,0.0,-5.242931,-1.1708999,0.0,0.0,0.0,-0.32234326,0.0,0.0,0.0,0.0,0.0,-0.49669647
227651680,0.0,0.0,-5.2626247,-1.1708999,0.0,0.0,0.0,-0.1356555,0.0,0.0,0.0,0.0,0.0,-0.4951352
227753554,0.0,0.0,-5.261504,-1.1708999,0.0,0.0,0.0,0.03753598,0.0,0.0,0.0,0.0,0.0,-0.49475968
227857254,0.0,0.0,-5.2412663,-1.1708999,0.0,0.0,0.0,0.22046483,0.0,0.0,0.0,0.0,0.0,-0.49525502
227953347,0.0,0.0,-5.2048645,-1.1708999,0.0,0.0,0.0,0.36708146,0.0,0.0,0.0,0.0,0.0,-0.49982888
228057402,0.0,0.0,-5.153554,-1.1708999,0.0,0.0,0.0,0.5269862,0.0,0.0,0.0,0.0,0.0,-0.50873786
228161512,0.0,0.0,-5.0860868,-1.1708999,0.0,0.0,0.0,0.64132977,0.0,0.0,0.0,0.0,0.0,-0.5314598
228265823,0.0,0.0,-5.0099783,-1.1708999,0.0,0.0,0.0,0.69436425,0.0,0.0,0.0,0.0,0.0,-0.5413982
228369239,0.0,0.0,-4.9306855,-1.1708999,0.0,0.0,0.0,0.68422824,0.0,0.0,0.0,0.0,0.0,-0.57864964
228465403,0.0,0.0,-4.862331,-1.1708999,0.0,0.0,0.0,0.5819571,0.0,0.0,0.0,0.0,0.0,-0.60576504
228569813,0.0,0.0,-4.7994556,-1.1708999,0.0,0.0,0.0,0.39647335,0.0,0.0,0.0,0.0,0.0,-0.6129261
228675626,0.0,0.0,-4.755576,-1.1708999,0.0,0.0,0.0,0.17845635,0.0,0.0,0.0,0.0,0.0,-0.6170446
228779381,0.0,0.0,-4.735253,-1.1708999,0.0,0.0,0.0,-0.058433417,0.0,0.0,0.0,0.0,0.0,-0.6175593
228875594,0.0,0.0,-4.742638,-1.1708999,0.0,0.0,0.0,-0.27079844,0.0,0.0,0.0,0.0,0.0,-0.61638397
228978917,0.0,0.0,-4.7767515,-1.1708999,0.0,0.0,0.0,-0.4982967,0.0,0.0,0.0,0.0,0.0,-0.6103502
229082835,0.0,0.0,-4.8296227,-1.1708999,0.0,0.0,0.0,-0.6828086,0.0,0.0,0.0,0.0,0.0,-0.5937449
229179018,0.0,0.0,-4.89446,-1.1708999,0.0,0.0,0.0,-0.81247044,0.0,0.0,0.0,0.0,0.0,-0.58334076
229283017,0.0,0.0,-4.9789844,-1.1708999,0.0,0.0,0.0,-0.9150281,0.0,0.0,0.0,0.0,0.0,-0.5837319
229386801,0.0,0.0,-5.0774674,-1.1708999,0.0,0.0,0.0,-1.0017736,0.0,0.0,0.0,0.0,0.0,-0.56463176
229485007,0.0,0.0,-5.177274,-1.1708999,0.0,0.0,0.0,-1.0391856,0.0,0.0,0.0,0.0,0.0,-0.55503094
229588742,0.0,0.0,-5.281467,-1.1708999,0.0,0.0,0.0,-1.0445731,0.0,0.0,0.0,0.0,0.0,-0.55278873
229692430,0.0,0.0,-5.381991,-1.1708999,0.0,0.0,0.0,-1.02912,0.0,0.0,0.0,0.0,0.0,-0.5504883
229788661,0.0,0.0,-5.4702272,-1.1708999,0.0,0.0,0.0,-1.0090431,0.0,0.0,0.0,-0.0008143035,0.0019265652,-0.53869176
229892458,0.0,0.0,-5.5632906,-1.1708999,0.0,0.0,0.0,-0.940178,0.0,0.0,0.0,-0.02265963,0.01036793,-0.5220633
229996742,0.0,0.0,-5.6489005,-1.1708999,0.0,0.0,0.0,-0.83117473,0.0,0.0,0.0,-0.022524945,0.009262361,-0.51070255
230093161,0.0,0.0,-5.7172313,-1.1708999,0.0,0.0,0.0,-0.68834126,0.0,0.0,0.0,-0.024204379,0.0102229,-0.50766766
230196441,0.0,0.0,-5.7745156,-1.1708999,0.0,0.0,0.0,-0.5420224,0.0,0.0,0.0,-0.037364654,0.01711818,-0.50534153
230298166,0.0,0.0,-5.813779,-1.1708999,0.0,0.0,0.0,-0.38672692,0.0,0.0,0.0,-0.045155652,0.01876322,-0.50219196
230402578,0.0,0.0,-5.832943,-1.1708999,0.0,0.0,0.0,-0.21302122,0.0,0.0,0.0,-0.049210716,0.020850059,-0.49804986
230498327,0.0,0.0,-5.8299,-1.1708999,0.0,0.0,0.0,-0.07231655,0.0,0.0,0.0,-0.055540316,0.02216829,-0.49584678
230602044,0.0,0.0,-5.8110547,-1.1708999,0.0,0.0,0.0,0.08861922,0.0,0.0,0.0,-0.050794758,0.020912923,-0.49666637
230706312,0.0,0.0,-5.7765613,-1.1708999,0.0,0.0,0.0,0.2683311,0.0,0.0,0.0,-0.018529387,0.002638431,-0.49906453
230802329,0.0,0.0,-5.7269654,-1.1708999,0.0,0.0,0.0,0.40543547,0.0,0.0,0.0,-2.1412354e-05,-8.955265e-06,-0.50358194
230906190,0.0,0.0,-5.654912,-1.1708999,0.0,0.0,0.0,0.5564093,0.0,0.0,0.0,0.025749728,-0.015711572,-0.5385836
231010016,0.0,0.0,-5.573612,-1.1708999,0.0,0.0,0.0,0.6083183,0.0,0.0,0.0,0.07399847,-0.03190609,-0.53457546
231108328,0.0,0.0,-5.4951844,-1.1708999,0.0,0.0,0.0,0.633929,0.0,0.0,0.0,0.066355094,-0.021823075,-0.5432359
231211870,0.0,0.0,-5.410762,-1.1708999,0.0,0.0,0.0,0.64855367,0.0,0.0,0.0,0.057794373,-0.023265086,-0.56283414
231316289,0.0,0.0,-5.330808,-1.1708999,0.0,0.0,0.0,0.6045723,0.0,0.0,0.0,0.057737436,-0.023047209,-0.56560963
231411618,0.0,0.0,-5.262796,-1.1708999,0.0,0.0,0.0,0.55412495,0.0,0.0,0.0,0.05641193,-0.022720104,-0.5669663
231516413,0.0,0.0,-5.1977277,-1.1708999,0.0,0.0,0.0,0.48729846,0.0,0.0,0.0,0.03521198,-0.010441438,-0.5676165
231619864,0.0,0.0,-5.1429667,-1.1708999,0.0,0.0,0.0,0.42475972,0.0,0.0,0.0,0.029989278,-0.011813507,-0.56824666
231716613,0.0,0.0,-5.097857,-1.1708999,0.0,0.0,0.0,0.35024023,0.0,0.0,0.0,0.019372998,-0.009374644,-0.56864065
231819653,0.0,0.0,-5.058666,-1.1708999,0.0,0.0,0.0,0.27891836,0.0,0.0,0.0,0.039649323,-0.016230073,-0.56406
231923849,0.0,0.0,-5.028504,-1.1708999,0.0,0.0,0.0,0.21336351,0.0,0.0,0.0,0.05072272,-0.021891523,-0.5649951
232021816,0.0,0.0,-5.002982,-1.1708999,0.0,0.0,0.0,0.16160564,0.0,0.0,0.0,0.06773805,-0.028880289,-0.5599037
232125770,0.0,0.0,-4.9777565,-1.1708999,0.0,0.0,0.0,0.119207576,0.0,0.0,0.0,0.07308555,-0.029676579,-0.5571968
232229996,0.0,0.0,-4.9540153,-1.1708999,0.0,0.0,0.0,0.07553297,0.0,0.0,0.0,0.07978542,-0.03312607,-0.5560566
232325453,0.0,0.0,-4.939559,-1.1708999,0.0,0.0,0.0,0.044225454,0.0,0.0,0.0,0.07162275,-0.028868943,-0.5557001
232429133,0.0,0.0,-4.924176,-1.1708999,0.0,0.0,0.0,0.034239437,0.0,0.0,0.0,0.031069994,-0.0040349113,-0.55927896
232534033,0.0,0.0,-4.9179883,-1.1708999,0.0,0.0,0.0,0.017186873,0.0,0.0,0.0,-3.967806e-06,-3.3271817e-06,-0.55493504
232629448,0.0,0.0,-4.918966,-1.1708999,0.0,0.0,0.0,-0.008633809,0.0,0.0,0.0,0.034346573,-0.01781644,-0.55364835
232733434,0.0,0.0,-4.923475,-1.1708999,0.0,0.0,0.0,-0.03937509,0.0,0.0,0.0,0.05045778,-0.021845533,-0.5482465
232835123,0.0,0.0,-4.9275684,-1.1708999,0.0,0.0,0.0,-0.019841265,0.0,0.0,0.0,0.052620284,-0.021463925,-0.54427636
232939466,0.0,0.0,-4.93619,-1.1708999,0.0,0.0,0.0,-0.020061955,0.0,0.0,0.0,0.051214617,-0.020760657,-0.54420024
233043938,0.0,0.0,-4.9517155,-1.1708999,0.0,0.0,0.0,-0.005067711,0.0,0.0,0.0,0.050569244,-0.020523116,-0.5437861
233146835,0.0,0.0,-4.9709597,-1.1708999,0.0,0.0,0.0,0.0052809804,0.0,0.0,0.0,0.023514047,-0.00545729,-0.54179573
233243568,0.0,0.0,-4.9851146,-1.1708999,0.0,0.0,0.0,0.03782958,0.0,0.0,0.0,-0.008131923,0.007950648,-0.5422812
233346826,0.0,0.0,-4.997796,-1.1708999,0.0,0.0,0.0,0.071981646,0.0,0.0,0.0,-0.06250871,0.02505739,-0.53622985
233451375,0.0,0.0,-5.0013165,-1.1708999,0.0,0.0,0.0,0.06322845,0.0,0.0,0.0,-0.058363885,0.027231237,-0.5377131
233546848,0.0,0.0,-4.999293,-1.1708999,0.0,0.0,0.0,0.11380919,0.0,0.0,0.0,-0.07355105,0.029966367,-0.5342621
233652424,0.0,0.0,-4.996565,-1.1708999,0.0,0.0,0.0,0.13599972,0.0,0.0,0.0,-0.061009184,0.02364077,-0.5358528
233757155,0.0,0.0,-4.9857073,-1.1708999,0.0,0.0,0.0,0.16988398,0.0,0.0,0.0,-0.058410034,0.02354277,-0.53746486
233861191,0.0,0.0,-4.9743023,-1.1708999,0.0,0.0,0.0,0.22473888,0.0,0.0,0.0,-0.050605144,0.02025529,-0.5373006
233957012,0.0,0.0,-4.9587965,-1.1708999,0.0,0.0,0.0,0.24566424,0.0,0.0,0.0,-0.05033498,0.020404775,-0.53701127
234060980,0.0,0.0,-4.937966,-1.1708999,0.0,0.0,0.0,0.27744022,0.0,0.0,0.0,-0.04440028,0.017886048,-0.5386977
234165211,0.0,0.0,-4.912533,-1.1708999,0.0,0.0,0.0,0.31162554,0.0,0.0,0.0,-0.04403827,0.018057426,-0.53902656
234260535,0.0,0.0,-4.88377,-1.1708999,0.0,0.0,0.0,0.3278304,0.0,0.0,0.0,-0.043131553,0.017506398,-0.53877866
234365093,0.0,0.0,-4.842641,-1.1708999,0.0,0.0,0.0,0.36569396,0.0,0.0,0.0,-0.041369576,0.016257284,-0.5367039
234465189,0.0,0.0,-4.796442,-1.1708999,0.0,0.0,0.0,0.39552748,0.0,0.0,0.0,-0.035253868,0.013799826,-0.53792727
234570683,0.0,0.0,-4.7492585,-1.1708999,0.0,0.0,0.0,0.41834792,0.0,0.0,0.0,-0.013418038,0.0034956378,-0.53839415
234666159,0.0,0.0,-4.709269,-1.1708999,0.0,0.0,0.0,0.45738667,0.0,0.0,0.0,-3.0679574e-05,8.581492e-06,-0.5274094
234770230,0.0,0.0,-4.662843,-1.1708999,0.0,0.0,0.0,0.5193361,0.0,0.0,0.0,5.4558593e-09,5.621029e-09,-0.5280772
234874266,0.0,0.0,-4.60665,-1.1708999,0.0,0.0,0.0,0.5905129,0.0,0.0,0.0,-0.011511968,0.0068337014,-0.52682984
234978975,0.0,0.0,-4.54159,-1.1708999,0.0,0.0,0.0,0.700065,0.0,0.0,0.0,-0.06651409,0.02870307,-0.5011289
235082261,0.0,0.0,-4.4649906,-1.1708999,0.0,0.0,0.0,0.8104943,0.0,0.0,0.0,-0.07816757,0.032695115,-0.50969064
235178376,0.0,0.0,-4.3827543,-1.1708999,0.0,0.0,0.0,0.9186335,0.0,0.0,0.0,-0.08038794,0.032204095,-0.5083811
235283453,0.0,0.0,-4.284205,-1.1708999,0.0,0.0,0.0,1.006388,0.0,0.0,0.0,-0.07942034,0.032231737,-0.5009691
235387117,0.0,0.0,-4.176914,-1.1708999,0.0,0.0,0.0,1.1288211,0.0,0.0,0.0,-0.06700577,0.023287434,-0.504945
235482981,0.0,0.0,-4.0664873,-1.1708999,0.0,0.0,0.0,1.2352029,0.0,0.0,0.0,-0.026890814,0.0085495515,-0.50736684
235587111,0.0,0.0,-3.9321082,-1.1708999,0.0,0.0,0.0,1.3428899,0.0,0.0,0.0,0.0013787103,-0.00031972703,-0.51104426
235690908,0.0,0.0,-3.7878506,-1.1708999,0.0,0.0,0.0,1.4707669,0.0,0.0,0.0,-0.060027044,0.02899935,-0.5075536
235786901,0.0,0.0,-3.6444294,-1.1708999,0.0,0.0,0.0,1.5979252,0.0,0.0,0.0,-0.09019204,0.028877845,-0.5043364
235891177,0.0,0.0,-3.4817379,-1.1708999,0.0,0.0,0.0,1.6502782,0.0,0.0,0.0,-0.0020508869,0.00052133825,-0.51459324
235994855,0.0,0.0,-3.3067129,-1.1708999,0.0,0.0,0.0,1.7348952,0.0,0.0,0.0,0.0016642392,-0.0037143338,-0.5199014
236091297,0.0,0.0,-3.1373947,-1.1708999,0.0,0.0,0.0,1.7953892,0.0,0.0,0.0,0.020275218,-0.008813559,-0.53979987
236194840,0.0,0.0,-2.9506352,-1.1708999,0.0,0.0,0.0,1.8061885,0.0,0.0,0.0,0.06657241,-0.027497211,-0.53219515
236299378,0.0,0.0,-2.7597427,-1.1708999,0.0,0.0,0.0,1.8166852,0.0,0.0,0.0,0.055343255,-0.01821894,-0.5836703
236397252,0.0,0.0,-2.5868785,-1.1708999,0.0,0.0,0.0,1.7060786,0.0,0.0,0.0,0.038774256,-0.013000835,-0.6510503
236500542,0.0,0.0,-2.4284189,-1.1708999,0.0,0.0,0.0,1.4121099,0.0,0.0,0.0,-0.000112406735,-9.66774e-05,-0.67002475
236605059,0.0,0.0,-2.3160436,-1.1708999,0.0,0.0,0.0,1.0110319,0.0,0.0,0.0,2.4867848e-07,1.3163628e-07,-0.6799572
236700379,0.0,0.0,-2.251773,-1.1708999,0.0,0.0,0.0,0.63067514,0.0,0.0,0.0,8.955484e-11,-1.5411134e-12,-0.6793429
236805310,0.0,0.0,-2.2360227,-1.1708999,0.0,0.0,0.0,0.19549033,0.0,0.0,0.0,0.0,0.0,-0.65516645
236909113,0.0,0.0,-2.2645693,-1.1708999,0.0,0.0,0.0,-0.1443283,0.0,0.0,0.0,-0.034900945,0.020149551,-0.6058448
237004525,0.0,0.0,-2.3146436,-1.1708999,0.0,0.0,0.0,-0.30987847,0.0,0.0,0.0,-0.09248362,0.033223122,-0.5798672
237109364,0.0,0.0,-2.380416,-1.1708999,0.0,0.0,0.0,-0.45613647,0.0,0.0,0.0,-0.07442992,0.031271826,-0.5865936
237213137,0.0,0.0,-2.4580026,-1.1708999,0.0,0.0,0.0,-0.5502448,0.0,0.0,0.0,-0.116476186,0.044585455,-0.57704574
237314324,0.0,0.0,-2.5377731,-1.1708999,0.0,0.0,0.0,-0.6498582,0.0,0.0,0.0,-0.0557669,0.014743367,-0.5875246
237410009,0.0,0.0,-2.6178687,-1.1708999,0.0,0.0,0.0,-0.7431926,0.0,0.0,0.0,0.04565924,-0.021829644,-0.5861064
237514079,0.0,0.0,-2.7146156,-1.1708999,0.0,0.0,0.0,-0.81998414,0.0,0.0,0.0,0.10353173,-0.046222948,-0.56200904
237618752,0.0,0.0,-2.8201423,-1.1708999,0.0,0.0,0.0,-0.8305983,0.0,0.0,0.0,0.0977964,-0.03478826,-0.49240586
237722308,0.0,0.0,-2.9159756,-1.1708999,0.0,0.0,0.0,-0.6625181,0.0,0.0,0.0,0.04441443,-0.019641483,-0.4983076
237818021,0.0,0.0,-2.9746695,-1.1708999,0.0,0.0,0.0,-0.47653714,0.0,0.0,0.0,0.08045195,-0.035653863,-0.49064192
237922043,0.0,0.0,-3.012831,-1.1708999,0.0,0.0,0.0,-0.29277432,0.0,0.0,0.0,0.09857187,-0.03969588,-0.48549652
