timestamp,vel_pos_innov[0],vel_pos_innov[1],vel_pos_innov[2],vel_pos_innov[3],vel_pos_innov[4],vel_pos_innov[5],mag_innov[0],mag_innov[1],mag_innov[2],heading_innov,airspeed_innov,beta_innov,flow_innov[0],flow_innov[1],hagl_innov,vel_pos_innov_var[0],vel_pos_innov_var[1],vel_pos_innov_var[2],vel_pos_innov_var[3],vel_pos_innov_var[4],vel_pos_innov_var[5],mag_innov_var[0],mag_innov_var[1],mag_innov_var[2],heading_innov_var,airspeed_innov_var,beta_innov_var,flow_innov_var[0],flow_innov_var[1],hagl_innov_var,output_tracking_error[0],output_tracking_error[1],output_tracking_error[2],drag_innov[0],drag_innov[1],drag_innov_var[0],drag_innov_var[1],aux_vel_innov[0],aux_vel_innov[1]
175388525,0.0,0.0,0.0,-0.0113322865,-0.010495799,0.3306427,0.0,0.0,0.0,-0.0069544315,0.0,0.0,0.0,0.0,0.0051113144,0.0,0.0,0.0,0.25760677,0.25760695,4.0643735,0.0,0.0,0.0,0.09014611,0.0,0.0,0.0,0.0,0.09937102,0.00015906469,0.0027443161,0.0070916237,0.0,0.0,0.0,0.0,0.0,0.0
175586930,0.0,0.0,0.0,-0.011059666,-0.0109946905,0.15753174,0.0,0.0,0.0,0.0007247925,0.0,0.0,0.0,0.0,0.011189863,0.0,0.0,0.0,0.2576673,0.2576675,4.06459,0.0,0.0,0.0,0.09014614,0.0,0.0,0.0,0.0,0.099581175,0.00016672906,0.0029779302,0.007060949,0.0,0.0,0.0,0.0,0.0,0.0
175795711,0.0,0.0,0.0,-0.010870761,-0.011395807,-0.18051147,0.0,0.0,0.0,-0.003287077,0.0,0.0,0.0,0.0,0.0020282343,0.0,0.0,0.0,0.25775105,0.25775126,4.0649366,0.0,0.0,0.0,0.0901462,0.0,0.0,0.0,0.0,0.09941739,0.0002161881,0.00047729534,0.0016800287,0.0,0.0,0.0,0.0,0.0,0.0
175995705,0.0,0.0,0.0,-0.010272134,-0.011458933,-0.08491516,0.0,0.0,0.0,0.0017123222,0.0,0.0,0.0,0.0,0.0003998056,0.0,0.0,0.0,0.25759128,0.2575915,4.0641847,0.0,0.0,0.0,0.090146236,0.0,0.0,0.0,0.0,0.09921608,0.00019454357,0.0047004516,0.013652929,0.0,0.0,0.0,0.0,0.0,0.0
176193523,0.0,0.0,0.0,-0.01022926,-0.012077911,0.07475281,0.0,0.0,0.0,-0.0031151772,0.0,0.0,0.0,0.0,0.006353773,0.0,0.0,0.0,0.25781432,0.25781453,4.065133,0.0,0.0,0.0,0.09014627,0.0,0.0,0.0,0.0,0.09986924,0.00011754581,0.0018005802,0.0059289844,0.0,0.0,0.0,0.0,0.0,0.0
176401358,0.0,0.0,0.0,-0.00963969,-0.0119703105,-0.18151855,0.0,0.0,0.0,0.015874624,0.0,0.0,0.0,0.0,0.0040695667,0.0,0.0,0.0,0.25761926,0.25761944,4.0642586,0.0,0.0,0.0,0.0901463,0.0,0.0,0.0,0.0,0.098278254,0.00011489301,0.00094160804,0.001602779,0.0,0.0,0.0,0.0,0.0,0.0
176601326,0.0,0.0,0.0,-0.009279421,-0.011974472,-0.007095337,0.0,0.0,0.0,0.01854062,0.0,0.0,0.0,0.0,0.00032738596,0.0,0.0,0.0,0.25756466,0.25756484,4.0639243,0.0,0.0,0.0,0.09014635,0.0,0.0,0.0,0.0,0.09866908,0.00014842198,0.0027436728,0.008409171,0.0,0.0,0.0,0.0,0.0,0.0
176801255,0.0,0.0,0.0,-0.008986874,-0.011831631,0.27650452,0.0,0.0,0.0,-0.0018866062,0.0,0.0,0.0,0.0,0.008129239,0.0,0.0,0.0,0.25745618,0.2574564,4.0633135,0.0,0.0,0.0,0.090146296,0.0,0.0,0.0,0.0,0.09789102,0.0001885185,0.0004996998,0.0010835145,0.0,0.0,0.0,0.0,0.0,0.0
177009281,0.0,0.0,0.0,-0.008785796,-0.011760064,-0.12687683,0.0,0.0,0.0,-0.0059456825,0.0,0.0,0.0,0.0,0.00015155226,0.0,0.0,0.0,0.25738487,0.25738508,4.062829,0.0,0.0,0.0,0.09014626,0.0,0.0,0.0,0.0,0.09746345,0.00014669899,0.0041000363,0.012352444,0.0,0.0,0.0,0.0,0.0,0.0
177210923,0.0,0.0,0.0,-0.008789228,-0.01186215,-0.2561493,0.0,0.0,0.0,-0.010730743,0.0,0.0,0.0,0.0,0.0051556304,0.0,0.0,0.0,0.2575011,0.2575013,4.06326,0.0,0.0,0.0,0.09014614,0.0,0.0,0.0,0.0,0.09795418,0.00011042791,0.0017997645,0.005738939,0.0,0.0,0.0,0.0,0.0,0.0
177410937,0.0,0.0,0.0,-0.010659098,-0.014616567,0.056930542,0.0,0.0,0.0,0.0030007362,0.0,0.0,0.0,0.0,0.09123886,0.0,0.0,0.0,100.009384,100.009384,4.063759,0.0,0.0,0.0,0.09014611,0.0,0.0,0.0,0.0,0.11749667,7.341186e-05,0.0027177643,0.0066545564,0.0,0.0,0.0,0.0,0.0,0.0
177618932,0.0,0.0,0.0,-0.013227881,-0.01855426,-0.027786255,0.0,0.0,0.0,-0.018018007,0.0,0.0,0.0,0.0,0.09123886,0.0,0.0,0.0,100.01239,100.01239,4.064146,0.0,0.0,0.0,0.09014599,0.0,0.0,0.0,0.0,0.11749667,0.00015392656,0.0027822177,0.0052449554,0.0,0.0,0.0,0.0,0.0,0.0
177818889,0.0,0.0,0.0,-0.01612097,-0.022758894,-0.25187683,0.0,0.0,0.0,0.01272583,0.0,0.0,0.0,0.0,0.08675827,0.0,0.0,0.0,100.01607,100.01607,4.0641465,0.0,0.0,0.0,0.090146184,0.0,0.0,0.0,0.0,0.16526985,0.00017319681,0.002937182,0.005439243,0.0,0.0,0.0,0.0,0.0,0.0
178020623,0.0,0.0,0.0,-0.019161168,-0.026958732,-0.12986755,0.0,0.0,0.0,0.023471355,0.0,0.0,0.0,0.0,0.08675827,0.0,0.0,0.0,100.02026,100.02026,4.0644855,0.0,0.0,0.0,0.090146154,0.0,0.0,0.0,0.0,0.16526985,0.0001558766,0.004134237,0.010483184,0.0,0.0,0.0,0.0,0.0,0.0
178228624,0.0,0.0,0.0,-0.023116063,-0.03240145,-0.04032898,0.0,0.0,0.0,0.0013229847,0.0,0.0,0.0,0.0,0.08675827,0.0,0.0,0.0,100.02632,100.02633,4.064214,0.0,0.0,0.0,0.09014612,0.0,0.0,0.0,0.0,0.16526985,0.00016417816,0.0060042236,0.017573068,0.0,0.0,0.0,0.0,0.0,0.0
178428488,0.0,0.0,0.0,-0.026856985,-0.03742407,0.12538147,0.0,0.0,0.0,-0.0052878857,0.0,0.0,0.0,0.0,0.12956005,0.0,0.0,0.0,100.03258,100.032585,4.0635657,0.0,0.0,0.0,0.09014616,0.0,0.0,0.0,0.0,0.25534862,0.0002193058,0.0035679291,0.009904019,0.0,0.0,0.0,0.0,0.0,0.0
178628676,0.0,0.0,0.0,-0.031252638,-0.042946815,0.36743164,0.0,0.0,0.0,0.013694048,0.0,0.0,0.0,0.0,0.12956005,0.0,0.0,0.0,100.04033,100.04034,4.0642805,0.0,0.0,0.0,0.090146124,0.0,0.0,0.0,0.0,0.25534862,0.00019894422,0.0028449735,0.0072932993,0.0,0.0,0.0,0.0,0.0,0.0
178836542,0.0,0.0,0.0,-0.036114212,-0.048813444,-0.03236389,0.0,0.0,0.0,-0.019148111,0.0,0.0,0.0,0.0,0.12956005,0.0,0.0,0.0,100.049484,100.049484,4.064926,0.0,0.0,0.0,0.09014632,0.0,0.0,0.0,0.0,0.25534862,0.00011951547,0.0040082466,0.010447689,0.0,0.0,0.0,0.0,0.0,0.0
179038276,0.0,0.0,0.0,-0.041807007,-0.05552443,-0.18833923,0.0,0.0,0.0,-0.00625968,0.0,0.0,0.0,0.0,0.12956005,0.0,0.0,0.0,100.061104,100.06111,4.0651608,0.0,0.0,0.0,0.09014621,0.0,0.0,0.0,0.0,0.25534862,0.0002394668,0.005713117,0.016621724,0.0,0.0,0.0,0.0,0.0,0.0
179238073,0.0,0.0,0.0,-0.04758408,-0.061671946,-0.25279236,0.0,0.0,0.0,0.020133018,0.0,0.0,0.0,0.0,0.12956005,0.0,0.0,0.0,100.07317,100.07318,4.064441,0.0,0.0,0.0,0.09014617,0.0,0.0,0.0,0.0,0.25534862,0.00036662794,0.0072789923,0.021925641,0.0,0.0,0.0,0.0,0.0,0.0
179446049,0.0,0.0,0.0,-0.054493748,-0.068624005,0.1007843,0.0,0.0,0.0,-0.017031193,0.0,0.0,0.0,0.0,0.12956005,0.0,0.0,0.0,100.08882,100.08884,4.0657277,0.0,0.0,0.0,0.09014621,0.0,0.0,0.0,0.0,0.25534862,0.0003788696,0.0075990977,0.023719857,0.0,0.0,0.0,0.0,0.0,0.0
179646200,0.0,0.0,0.0,-0.06067381,-0.07482357,0.27018738,0.0,0.0,0.0,0.011297226,0.0,0.0,0.0,0.0,0.09570184,0.0,0.0,0.0,100.10465,100.10466,4.0658693,0.0,0.0,0.0,0.09014618,0.0,0.0,0.0,0.0,0.14649686,0.00032847424,0.002626155,0.008964734,0.0,0.0,0.0,0.0,0.0,0.0
179851806,0.0,0.0,0.0,-0.067090645,-0.08110409,-0.0718689,0.0,0.0,0.0,0.03481102,0.0,0.0,0.0,0.0,0.09570184,0.0,0.0,0.0,100.123146,100.12316,4.065294,0.0,0.0,0.0,0.090146124,0.0,0.0,0.0,0.0,0.14649686,0.0003883165,0.002636327,0.0060779164,0.0,0.0,0.0,0.0,0.0,0.0
180051737,0.0,0.0,0.0,-0.07437979,-0.088032715,0.13215637,0.0,0.0,0.0,0.04274249,0.0,0.0,0.0,0.0,0.09570184,0.0,0.0,0.0,100.14451,100.144516,4.065035,0.0,0.0,0.0,0.09014617,0.0,0.0,0.0,0.0,0.14649686,0.0004968807,0.0040570856,0.011272735,0.0,0.0,0.0,0.0,0.0,0.0
180251735,0.0,0.0,0.0,-0.08265814,-0.09447056,-0.23410034,0.0,0.0,0.0,0.017657757,0.0,0.0,0.0,0.0,0.08542083,0.0,0.0,0.0,100.16862,100.16863,4.0649424,0.0,0.0,0.0,0.090146214,0.0,0.0,0.0,0.0,0.22551233,0.0005561537,0.0069776922,0.019998506,0.0,0.0,0.0,0.0,0.0,0.0
180459794,0.0,0.0,0.0,-0.09102636,-0.10152693,-0.66778564,0.0,0.0,0.0,0.027100801,0.0,0.0,0.0,0.0,0.089740954,0.0,0.0,0.0,100.195244,100.19527,4.0648336,0.0,0.0,0.0,0.09014625,0.0,0.0,0.0,0.0,0.15807016,0.0006528013,0.010237704,0.030578248,0.0,0.0,0.0,0.0,0.0,0.0
180659747,0.0,0.0,0.0,-0.09892765,-0.10877124,-0.23551941,0.0,0.0,0.0,0.008336306,0.0,0.0,0.0,0.0,0.08571946,0.0,0.0,0.0,100.2222,100.22222,4.065028,0.0,0.0,0.0,0.090146296,0.0,0.0,0.0,0.0,0.15642291,0.00060522556,0.0142509695,0.043614097,0.0,0.0,0.0,0.0,0.0,0.0
180865722,0.0,0.0,0.0,-0.109209545,-0.111956455,-0.39175415,0.0,0.0,0.0,0.061964273,0.0,0.0,0.0,0.0,0.08571946,0.0,0.0,0.0,100.25455,100.25457,4.064272,0.0,0.0,0.0,0.090146326,0.0,0.0,0.0,0.0,0.15642291,0.001039479,0.016677294,0.05196374,0.0,0.0,0.0,0.0,0.0,0.0
181065304,0.0,0.0,0.0,-0.12137021,-0.103264734,0.1797638,0.0,0.0,0.0,0.021511793,0.0,0.0,0.0,0.0,0.097266644,0.0,0.0,0.0,100.28636,100.28639,4.06381,0.0,0.0,0.0,0.090146355,0.0,0.0,0.0,0.0,0.11238909,0.0011858456,0.0024029063,0.010729617,0.0,0.0,0.0,0.0,0.0,0.0
181273527,0.0,0.0,0.0,-0.1361055,-0.081532255,0.601532,0.0,0.0,0.0,0.049424887,0.0,0.0,0.0,0.0,0.032132104,0.0,0.0,0.0,100.31806,100.31809,4.063827,0.0,0.0,0.0,0.090146475,0.0,0.0,0.0,0.0,0.098553434,0.001300478,0.010546589,0.029774243,0.0,0.0,0.0,0.0,0.0,0.0
181674912,0.0,0.0,0.0,-0.18025956,0.016860262,0.3247528,0.0,0.0,0.0,0.022637367,0.0,0.0,0.0,0.0,-0.007280335,0.0,0.0,0.0,100.397095,100.397125,4.0642586,0.0,0.0,0.0,0.090146534,0.0,0.0,0.0,0.0,0.09957819,0.001023287,0.022559328,0.07128464,0.0,0.0,0.0,0.0,0.0,0.0
181874855,0.0,0.0,0.0,-0.2048319,0.080863275,0.3699646,0.0,0.0,0.0,-0.004211664,0.0,0.0,0.0,0.0,0.028530456,0.0,0.0,0.0,100.43506,100.43509,4.0652647,0.0,0.0,0.0,0.09014658,0.0,0.0,0.0,0.0,0.10193922,0.0010095373,0.02036714,0.06643814,0.0,0.0,0.0,0.0,0.0,0.0
182074938,0.0,0.0,0.0,-0.23213623,0.1649725,0.6909027,0.0,0.0,0.0,0.049026966,0.0,0.0,0.0,0.0,0.010040298,0.0,0.0,0.0,100.47639,100.47641,4.0651083,0.0,0.0,0.0,0.09014661,0.0,0.0,0.0,0.0,0.10014085,0.0009990402,0.017232234,0.056994665,0.0,0.0,0.0,0.0,0.0,0.0
182282972,0.0,0.0,0.0,-0.2603185,0.2659466,0.073638916,0.0,0.0,0.0,0.07117677,0.0,0.0,0.0,0.0,0.04016128,0.0,0.0,0.0,100.520584,100.5206,4.065312,0.0,0.0,0.0,0.09014664,0.0,0.0,0.0,0.0,0.10130898,0.0012581298,0.019116137,0.062216576,0.0,0.0,0.0,0.0,0.0,0.0
182482979,0.0,0.0,0.0,-0.28671452,0.36845404,0.06866455,0.0,0.0,0.0,0.06450033,0.0,0.0,0.0,0.0,0.038587645,0.0,0.0,0.0,100.55971,100.559715,4.064807,0.0,0.0,0.0,0.09014667,0.0,0.0,0.0,0.0,0.10010256,0.0013829004,0.012131382,0.041173544,0.0,0.0,0.0,0.0,0.0,0.0
182684584,0.0,0.0,0.0,-0.31597587,0.481138,0.23951721,0.0,0.0,0.0,0.06593251,0.0,0.0,0.0,0.0,0.026082791,0.0,0.0,0.0,100.6019,100.60188,4.0653515,0.0,0.0,0.0,0.09014668,0.0,0.0,0.0,0.0,0.10000134,0.0014990049,0.012355296,0.041177325,0.0,0.0,0.0,0.0,0.0,0.0
182892627,0.0,0.0,0.0,-0.342997,0.6021416,0.6112366,0.0,0.0,0.0,0.094239235,0.0,0.0,0.0,0.0,0.020741373,0.0,0.0,0.0,100.64336,100.64332,4.065224,0.0,0.0,0.0,0.09014664,0.0,0.0,0.0,0.0,0.102292545,0.0014582347,0.015193133,0.049943514,0.0,0.0,0.0,0.0,0.0,0.0
183092516,0.0,0.0,0.0,-0.36044064,0.71145976,0.048477173,0.0,0.0,0.0,0.03326273,0.0,0.0,0.0,0.0,0.026746094,0.0,0.0,0.0,100.6782,100.67814,4.065045,0.0,0.0,0.0,0.0901467,0.0,0.0,0.0,0.0,0.10582228,0.0012770103,0.012522359,0.04457132,0.0,0.0,0.0,0.0,0.0,0.0
183292506,0.0,0.0,0.0,-0.3683922,0.8381767,0.3365631,0.0,0.0,0.0,0.06535983,0.0,0.0,0.0,0.0,-0.0019494295,0.0,0.0,0.0,100.71592,100.71583,4.064897,0.0,0.0,0.0,0.090146825,0.0,0.0,0.0,0.0,0.10187583,0.0011163367,0.014485781,0.0530198,0.0,0.0,0.0,0.0,0.0,0.0
183497275,0.0,0.0,0.0,-0.35412964,0.97866845,0.82522583,0.0,0.0,0.0,0.04878378,0.0,0.0,0.0,0.0,0.02483821,0.0,0.0,0.0,100.754555,100.75442,4.065098,0.0,0.0,0.0,0.09014685,0.0,0.0,0.0,0.0,0.10148666,0.0012013924,0.018684339,0.06770053,0.0,0.0,0.0,0.0,0.0,0.0
183705317,0.0,0.0,0.0,-0.32266495,1.1113002,0.0796814,0.0,0.0,0.0,0.033061504,0.0,0.0,0.0,0.0,0.018613547,0.0,0.0,0.0,100.78635,100.78616,4.0648494,0.0,0.0,0.0,0.09014674,0.0,0.0,0.0,0.0,0.101809986,0.0010429143,0.018440245,0.07410473,0.0,0.0,0.0,0.0,0.0,0.0
183905362,0.0,0.0,0.0,-0.29771236,1.2388649,0.102508545,0.0,0.0,0.0,-0.055896044,0.0,0.0,0.0,0.0,-0.008593887,0.0,0.0,0.0,100.81977,100.81954,4.0653853,0.0,0.0,0.0,0.090146825,0.0,0.0,0.0,0.0,0.107082695,0.00056950084,0.020849504,0.083310775,0.0,0.0,0.0,0.0,0.0,0.0
184105271,0.0,0.0,0.0,-0.29646865,1.3269149,0.18261719,0.0,0.0,0.0,-0.0346756,0.0,0.0,0.0,0.0,0.009297073,0.0,0.0,0.0,100.84415,100.8439,4.0651875,0.0,0.0,0.0,0.09014704,0.0,0.0,0.0,0.0,0.10853213,0.0007621111,0.020179752,0.08415775,0.0,0.0,0.0,0.0,0.0,0.0
184305275,0.0,0.0,0.0,-0.33185813,1.3999968,-0.14900208,0.0,0.0,0.0,0.018316269,0.0,0.0,0.0,0.0,-0.011809677,0.0,0.0,0.0,100.87325,100.87299,4.065693,0.0,0.0,0.0,0.090146795,0.0,0.0,0.0,0.0,0.1037724,0.0010516681,0.021876028,0.08751389,0.0,0.0,0.0,0.0,0.0,0.0
184513281,0.0,0.0,0.0,-0.3904067,1.4476125,-0.34906006,0.0,0.0,0.0,0.10011959,0.0,0.0,0.0,0.0,0.058035128,0.0,0.0,0.0,100.89924,100.89897,4.065766,0.0,0.0,0.0,0.09014672,0.0,0.0,0.0,0.0,0.10058528,0.000673769,0.026253605,0.10217461,0.0,0.0,0.0,0.0,0.0,0.0
184714948,0.0,0.0,0.0,-0.43470922,1.4808816,0.44958496,0.0,0.0,0.0,0.112439394,0.0,0.0,0.0,0.0,0.060576607,0.0,0.0,0.0,100.92046,100.92019,4.0658197,0.0,0.0,0.0,0.090146765,0.0,0.0,0.0,0.0,0.10774,0.0021280942,0.024407221,0.099321686,0.0,0.0,0.0,0.0,0.0,0.0
184914935,0.0,0.0,0.0,-0.45845148,1.508975,-0.0076446533,0.0,0.0,0.0,0.08693957,0.0,0.0,0.0,0.0,0.06738977,0.0,0.0,0.0,100.935974,100.9357,4.0652947,0.0,0.0,0.0,0.090147,0.0,0.0,0.0,0.0,0.10106258,0.0027959025,0.024173902,0.10133872,0.0,0.0,0.0,0.0,0.0,0.0
185122924,0.0,0.0,0.0,-0.46238458,1.5699381,-0.30215454,0.0,0.0,0.0,0.11205554,0.0,0.0,0.0,0.0,0.007815234,0.0,0.0,0.0,100.96082,100.96053,4.0661044,0.0,0.0,0.0,0.09014708,0.0,0.0,0.0,0.0,0.10465686,0.0028266935,0.02130146,0.090869986,0.0,0.0,0.0,0.0,0.0,0.0
185322975,0.0,0.0,0.0,-0.43230063,1.6361645,0.035324097,0.0,0.0,0.0,0.028305769,0.0,0.0,0.0,0.0,-0.0027868599,0.0,0.0,0.0,100.97754,100.97722,4.0661106,0.0,0.0,0.0,0.09014693,0.0,0.0,0.0,0.0,0.101426706,0.0020394183,0.023879403,0.10524139,0.0,0.0,0.0,0.0,0.0,0.0
185924520,0.0,0.0,0.0,-0.35782227,1.7687975,-0.33555603,0.0,0.0,0.0,-0.12314868,0.0,0.0,0.0,0.0,-0.009409323,0.0,0.0,0.0,101.01026,101.00993,4.066011,0.0,0.0,0.0,0.09014734,0.0,0.0,0.0,0.0,0.100949176,0.0030880973,0.02393348,0.10272742,0.0,0.0,0.0,0.0,0.0,0.0
186530305,0.0,0.0,0.0,-0.47736344,1.6790081,-0.091674805,0.0,0.0,0.0,-0.06792188,0.0,0.0,0.0,0.0,0.0896002,0.0,0.0,0.0,101.021736,101.021484,4.0651045,0.0,0.0,0.0,0.09014703,0.0,0.0,0.0,0.0,0.10687939,0.0009942508,0.028863663,0.1052172,0.0,0.0,0.0,0.0,0.0,0.0
186730108,0.0,0.0,0.0,-0.5103722,1.6399692,0.55397034,0.0,0.0,0.0,-0.063182354,0.0,0.0,0.0,0.0,0.10609855,0.0,0.0,0.0,101.02358,101.02334,4.0648255,0.0,0.0,0.0,0.090147525,0.0,0.0,0.0,0.0,0.11049104,0.0015859834,0.017373538,0.07909308,0.0,0.0,0.0,0.0,0.0,0.0
186938252,0.0,0.0,0.0,-0.49186778,1.6296273,-0.10609436,0.0,0.0,0.0,0.018575191,0.0,0.0,0.0,0.0,0.035841413,0.0,0.0,0.0,101.01933,101.0191,4.0640736,0.0,0.0,0.0,0.09014741,0.0,0.0,0.0,0.0,0.0993658,0.0011216244,0.018480247,0.084641255,0.0,0.0,0.0,0.0,0.0,0.0
187138259,0.0,0.0,0.0,-0.45925125,1.6414853,0.24349976,0.0,0.0,0.0,-0.09029603,0.0,0.0,0.0,0.0,0.038639396,0.0,0.0,0.0,101.02053,101.0203,4.0640097,0.0,0.0,0.0,0.0901474,0.0,0.0,0.0,0.0,0.099922344,0.00091791974,0.0127035165,0.06129147,0.0,0.0,0.0,0.0,0.0,0.0
187346130,0.0,0.0,0.0,-0.43006188,1.6414053,-0.38380432,0.0,0.0,0.0,-0.04447031,0.0,0.0,0.0,0.0,0.040098764,0.0,0.0,0.0,101.018875,101.01866,4.0637207,0.0,0.0,0.0,0.09014749,0.0,0.0,0.0,0.0,0.10527491,0.0010272557,0.012795246,0.062179994,0.0,0.0,0.0,0.0,0.0,0.0
187547796,0.0,0.0,0.0,-0.41692474,1.6340611,-0.09727478,0.0,0.0,0.0,-0.12156439,0.0,0.0,0.0,0.0,0.056532137,0.0,0.0,0.0,101.01915,101.01894,4.063686,0.0,0.0,0.0,0.0901474,0.0,0.0,0.0,0.0,0.10062239,0.0016689494,0.009171747,0.044553023,0.0,0.0,0.0,0.0,0.0,0.0
187747865,0.0,0.0,0.0,-0.40523034,1.6038307,-0.27804565,0.0,0.0,0.0,-0.14984655,0.0,0.0,0.0,0.0,0.087124184,0.0,0.0,0.0,101.0137,101.01352,4.063177,0.0,0.0,0.0,0.09014752,0.0,0.0,0.0,0.0,0.09764857,0.0025694345,0.009918246,0.055366118,0.0,0.0,0.0,0.0,0.0,0.0
187947803,0.0,0.0,0.0,-0.40787095,1.5151879,-0.288208,0.0,0.0,0.0,-0.042043447,0.0,0.0,0.0,0.0,0.087124184,0.0,0.0,0.0,101.01436,101.0142,4.0631623,0.0,0.0,0.0,0.09014755,0.0,0.0,0.0,0.0,0.09764857,0.0028447357,0.005868549,0.029807761,0.0,0.0,0.0,0.0,0.0,0.0
188147904,0.0,0.0,0.0,-0.4189474,1.3361874,-0.026046753,0.0,0.0,0.0,-0.118965626,0.0,0.0,0.0,0.0,0.087124184,0.0,0.0,0.0,101.01505,101.014946,4.062954,0.0,0.0,0.0,0.090147585,0.0,0.0,0.0,0.0,0.09764857,0.0027090497,0.007484953,0.025715977,0.0,0.0,0.0,0.0,0.0,0.0
188353349,0.0,0.0,0.0,-0.44168028,1.085009,-0.4217224,0.0,0.0,0.0,-0.101438284,0.0,0.0,0.0,0.0,0.087124184,0.0,0.0,0.0,101.022125,101.02207,4.063195,0.0,0.0,0.0,0.09014761,0.0,0.0,0.0,0.0,0.09764857,0.0022397018,0.008990031,0.028384406,0.0,0.0,0.0,0.0,0.0,0.0
188553430,0.0,0.0,0.0,-0.46753874,0.74330837,-0.085754395,0.0,0.0,0.0,-0.063684225,0.0,0.0,0.0,0.0,0.087124184,0.0,0.0,0.0,101.0175,101.01749,4.062201,0.0,0.0,0.0,0.090147614,0.0,0.0,0.0,0.0,0.09764857,0.001762592,0.010271703,0.04081747,0.0,0.0,0.0,0.0,0.0,0.0
188753254,0.0,0.0,0.0,-0.50776744,0.33747122,-0.15840149,0.0,0.0,0.0,-0.05105114,0.0,0.0,0.0,0.0,0.087124184,0.0,0.0,0.0,101.02439,101.02438,4.0621915,0.0,0.0,0.0,0.090147555,0.0,0.0,0.0,0.0,0.09764857,0.0013398669,0.017107062,0.07678739,0.0,0.0,0.0,0.0,0.0,0.0
188953304,0.0,0.0,0.0,-0.5448811,-0.093587205,-0.3971405,0.0,0.0,0.0,-0.04353404,0.0,0.0,0.0,0.0,0.087124184,0.0,0.0,0.0,101.01816,101.01812,4.060866,0.0,0.0,0.0,0.09014756,0.0,0.0,0.0,0.0,0.09764857,0.0012680391,0.025039537,0.114460945,0.0,0.0,0.0,0.0,0.0,0.0
189161403,0.0,0.0,0.0,-0.05248114,-0.21579953,-0.37852478,0.0,0.0,0.0,-0.04588747,0.0,0.0,0.0,0.0,-0.0002740547,0.0,0.0,0.0,0.28651285,0.2865095,4.0610795,0.0,0.0,0.0,0.09014754,0.0,0.0,0.0,0.0,0.09951636,0.0024734556,0.099480905,0.43163446,0.0,0.0,0.0,0.0,0.0,0.0
189362951,0.0,0.0,0.0,-0.06788811,-0.37115464,0.30062866,0.0,0.0,0.0,-0.055428028,0.0,0.0,0.0,0.0,0.0047669187,0.0,0.0,0.0,0.26778972,0.2677841,4.0601044,0.0,0.0,0.0,0.09014748,0.0,0.0,0.0,0.0,0.09514233,0.003129566,0.1254968,0.4114743,0.0,0.0,0.0,0.0,0.0,0.0
189562953,0.0,0.0,0.0,-0.09073888,-0.5239901,-0.16566467,0.0,0.0,0.0,-0.049725056,0.0,0.0,0.0,0.0,0.00021277368,0.0,0.0,0.0,0.26398998,0.26398575,4.059769,0.0,0.0,0.0,0.09014733,0.0,0.0,0.0,0.0,0.09428362,0.004887933,0.16898789,0.39563552,0.0,0.0,0.0,0.0,0.0,0.0
189770925,0.0,0.0,0.0,-0.10666371,-0.62472546,0.30445862,0.0,0.0,0.0,-0.07276726,0.0,0.0,0.0,0.0,0.007454373,0.0,0.0,0.0,0.2629498,0.2629547,4.059455,0.0,0.0,0.0,0.09014705,0.0,0.0,0.0,0.0,0.09401383,0.00747716,0.22733779,0.39763057,0.0,0.0,0.0,0.0,0.0,0.0
189970946,0.0,0.0,0.0,-0.11215058,-0.6576604,-0.123687744,0.0,0.0,0.0,-0.06268644,0.0,0.0,0.0,0.0,0.00832364,0.0,0.0,0.0,0.26284826,0.26287037,4.059123,0.0,0.0,0.0,0.090146735,0.0,0.0,0.0,0.0,0.09360238,0.010862176,0.3257583,0.45206362,0.0,0.0,0.0,0.0,0.0,0.0
190172627,0.0,0.0,0.0,-0.10746679,-0.6233784,0.36549377,0.0,0.0,0.0,-0.045684576,0.0,0.0,0.0,0.0,0.0070287585,0.0,0.0,0.0,0.2629355,0.26297534,4.0586557,0.0,0.0,0.0,0.09014644,0.0,0.0,0.0,0.0,0.09238954,0.012359079,0.35792214,0.46445397,0.0,0.0,0.0,0.0,0.0,0.0
190380543,0.0,0.0,0.0,-0.099682175,-0.5656569,-0.10423279,0.0,0.0,0.0,-0.074504375,0.0,0.0,0.0,0.0,0.0056958348,0.0,0.0,0.0,0.26331326,0.26336914,4.0589046,0.0,0.0,0.0,0.090146214,0.0,0.0,0.0,0.0,0.09263478,0.010889109,0.31001776,0.4131786,0.0,0.0,0.0,0.0,0.0,0.0
190580520,0.0,0.0,0.0,-0.11754755,-0.6452773,0.11781311,0.0,0.0,0.0,-0.06267309,0.0,0.0,0.0,0.0,0.0030434653,0.0,0.0,0.0,100.01785,100.01797,4.058899,0.0,0.0,0.0,0.09014612,0.0,0.0,0.0,0.0,0.092829,0.005130007,0.10998089,0.2116777,0.0,0.0,0.0,0.0,0.0,0.0
190780522,0.0,0.0,0.0,-0.14889657,-0.78727424,0.14234924,0.0,0.0,0.0,-0.07783818,0.0,0.0,0.0,0.0,0.0030434653,0.0,0.0,0.0,100.02661,100.02684,4.0587173,0.0,0.0,0.0,0.09014615,0.0,0.0,0.0,0.0,0.092829,0.0017805342,0.019353552,0.08754685,0.0,0.0,0.0,0.0,0.0,0.0
190989493,0.0,0.0,0.0,-0.1807893,-0.9220177,0.3475952,0.0,0.0,0.0,-0.06444287,0.0,0.0,0.0,0.0,0.0030434653,0.0,0.0,0.0,100.038246,100.03864,4.058652,0.0,0.0,0.0,0.090146184,0.0,0.0,0.0,0.0,0.092829,0.0017897888,0.065862045,0.08551246,0.0,0.0,0.0,0.0,0.0,0.0
191190201,0.0,0.0,0.0,-0.21233544,-1.0447284,-0.19522095,0.0,0.0,0.0,-0.07983923,0.0,0.0,0.0,0.0,0.0030434653,0.0,0.0,0.0,100.05257,100.05321,4.0585046,0.0,0.0,0.0,0.09014614,0.0,0.0,0.0,0.0,0.092829,0.0016860173,0.085203744,0.11317728,0.0,0.0,0.0,0.0,0.0,0.0
191390078,0.0,0.0,0.0,-0.24437231,-1.160376,-0.14752197,0.0,0.0,0.0,-0.09398198,0.0,0.0,0.0,0.0,0.0030434653,0.0,0.0,0.0,100.070274,100.071236,4.058515,0.0,0.0,0.0,0.090146095,0.0,0.0,0.0,0.0,0.092829,0.001596131,0.08910743,0.12604843,0.0,0.0,0.0,0.0,0.0,0.0
191598161,0.0,0.0,0.0,-0.27643245,-1.2663172,0.005935669,0.0,0.0,0.0,-0.06502652,0.0,0.0,0.0,0.0,0.0030434653,0.0,0.0,0.0,100.09159,100.09296,4.058591,0.0,0.0,0.0,0.09014614,0.0,0.0,0.0,0.0,0.092829,0.001457827,0.08451174,0.12412857,0.0,0.0,0.0,0.0,0.0,0.0
191798273,0.0,0.0,0.0,-0.30640218,-1.35845,-0.07435608,0.0,0.0,0.0,-0.055526257,0.0,0.0,0.0,0.0,0.10840689,0.0,0.0,0.0,100.11572,100.11756,4.058477,0.0,0.0,0.0,0.090146095,0.0,0.0,0.0,0.0,0.35703406,0.0016030986,0.07787717,0.115394466,0.0,0.0,0.0,0.0,0.0,0.0
191995656,0.0,0.0,0.0,-0.33903813,-1.4465818,-0.043167114,0.0,0.0,0.0,-0.041782618,0.0,0.0,0.0,0.0,0.051988948,0.0,0.0,0.0,100.146286,100.148735,4.059074,0.0,0.0,0.0,0.090146124,0.0,0.0,0.0,0.0,0.16896638,0.001440227,0.06950844,0.10184418,0.0,0.0,0.0,0.0,0.0,0.0
192203723,0.0,0.0,0.0,-0.36939806,-1.5170387,-0.009490967,0.0,0.0,0.0,-0.08251977,0.0,0.0,0.0,0.0,0.051988948,0.0,0.0,0.0,100.179535,100.182655,4.059346,0.0,0.0,0.0,0.09014616,0.0,0.0,0.0,0.0,0.16896638,0.0014328208,0.061093412,0.086829625,0.0,0.0,0.0,0.0,0.0,0.0
192403751,0.0,0.0,0.0,-0.40338314,-1.5847958,-0.24377441,0.0,0.0,0.0,-0.03487277,0.0,0.0,0.0,0.0,0.051988948,0.0,0.0,0.0,100.22278,100.22679,4.0607314,0.0,0.0,0.0,0.090146184,0.0,0.0,0.0,0.0,0.16896638,0.0013796185,0.05329474,0.07197131,0.0,0.0,0.0,0.0,0.0,0.0
192603785,0.0,0.0,0.0,-0.42877784,-1.6243827,0.09075928,0.0,0.0,0.0,-0.07946515,0.0,0.0,0.0,0.0,0.094382465,0.0,0.0,0.0,100.26209,100.26689,4.0613403,0.0,0.0,0.0,0.09014622,0.0,0.0,0.0,0.0,0.20635861,0.0013365102,0.04669745,0.05830756,0.0,0.0,0.0,0.0,0.0,0.0
192809392,0.0,0.0,0.0,-0.45778018,-1.6570668,0.015197754,0.0,0.0,0.0,-0.047525644,0.0,0.0,0.0,0.0,0.094382465,0.0,0.0,0.0,100.31508,100.32093,4.0626903,0.0,0.0,0.0,0.09014619,0.0,0.0,0.0,0.0,0.20635861,0.0014973433,0.038129117,0.042033546,0.0,0.0,0.0,0.0,0.0,0.0
193009417,0.0,0.0,0.0,-0.47828144,-1.6651052,0.2548828,0.0,0.0,0.0,-0.084026575,0.0,0.0,0.0,0.0,0.094382465,0.0,0.0,0.0,100.363205,100.36997,4.0634065,0.0,0.0,0.0,0.090146214,0.0,0.0,0.0,0.0,0.20635861,0.0016298193,0.03054532,0.02665441,0.0,0.0,0.0,0.0,0.0,0.0
193209306,0.0,0.0,0.0,-0.49706188,-1.6585526,0.13618469,0.0,0.0,0.0,-0.059370995,0.0,0.0,0.0,0.0,0.094382465,0.0,0.0,0.0,100.41497,100.42268,4.06421,0.0,0.0,0.0,0.09014618,0.0,0.0,0.0,0.0,0.20635861,0.0018343085,0.025971709,0.018559933,0.0,0.0,0.0,0.0,0.0,0.0
193417390,0.0,0.0,0.0,-0.51463544,-1.6337973,0.4043579,0.0,0.0,0.0,-0.04744649,0.0,0.0,0.0,0.0,0.094382465,0.0,0.0,0.0,100.471985,100.48067,4.0653067,0.0,0.0,0.0,0.090146214,0.0,0.0,0.0,0.0,0.20635861,0.0015892653,0.022378732,0.021544784,0.0,0.0,0.0,0.0,0.0,0.0
193617375,0.0,0.0,0.0,-0.53091013,-1.5911162,0.22445679,0.0,0.0,0.0,-0.05261588,0.0,0.0,0.0,0.0,0.094382465,0.0,0.0,0.0,100.53411,100.54379,4.0666595,0.0,0.0,0.0,0.09014617,0.0,0.0,0.0,0.0,0.20635861,0.0013661688,0.018171694,0.025974607,0.0,0.0,0.0,0.0,0.0,0.0
193818943,0.0,0.0,0.0,-0.5474696,-1.5210923,-0.020584106,0.0,0.0,0.0,-0.028449059,0.0,0.0,0.0,0.0,0.094382465,0.0,0.0,0.0,100.597786,100.60832,4.0671835,0.0,0.0,0.0,0.09014622,0.0,0.0,0.0,0.0,0.20635861,0.0012009009,0.011284444,0.033119667,0.0,0.0,0.0,0.0,0.0,0.0
194027029,0.0,0.0,0.0,-0.5680753,-1.4378432,-0.38735962,0.0,0.0,0.0,-0.04512596,0.0,0.0,0.0,0.0,0.094382465,0.0,0.0,0.0,100.654686,100.66582,4.0670085,0.0,0.0,0.0,0.09014626,0.0,0.0,0.0,0.0,0.20635861,0.0011023915,0.01883536,0.05731494,0.0,0.0,0.0,0.0,0.0,0.0
194226911,0.0,0.0,0.0,-0.6016124,-1.3533015,-1.0330658,0.0,0.0,0.0,-0.012334824,0.0,0.0,0.0,0.0,0.054414265,0.0,0.0,0.0,100.70982,100.72146,4.0674253,0.0,0.0,0.0,0.09014622,0.0,0.0,0.0,0.0,0.11945988,0.0010239665,0.018762942,0.057361197,0.0,0.0,0.0,0.0,0.0,0.0
194427010,0.0,0.0,0.0,-0.6479724,-1.2351731,0.6743469,0.0,0.0,0.0,-0.006955385,0.0,0.0,0.0,0.0,0.085181355,0.0,0.0,0.0,100.7642,100.776054,4.0667796,0.0,0.0,0.0,0.09014615,0.0,0.0,0.0,0.0,0.1071695,0.0009078174,0.0069087925,0.05307719,0.0,0.0,0.0,0.0,0.0,0.0
194632475,0.0,0.0,0.0,-0.70292544,-1.1112736,0.22706604,0.0,0.0,0.0,0.019900322,0.0,0.0,0.0,0.0,0.05976749,0.0,0.0,0.0,100.81661,100.828606,4.0668874,0.0,0.0,0.0,0.09014635,0.0,0.0,0.0,0.0,0.10174388,0.0006770909,0.010228235,0.05319892,0.0,0.0,0.0,0.0,0.0,0.0
194832555,0.0,0.0,0.0,-0.7599803,-0.99092937,-0.13000488,0.0,0.0,0.0,-0.065983295,0.0,0.0,0.0,0.0,-0.024094269,0.0,0.0,0.0,100.862305,100.87431,4.0671563,0.0,0.0,0.0,0.090146445,0.0,0.0,0.0,0.0,0.10524488,0.0006175889,0.012525882,0.04758532,0.0,0.0,0.0,0.0,0.0,0.0
195032587,0.0,0.0,0.0,-0.8286389,-0.84907854,0.09451294,0.0,0.0,0.0,-0.042116165,0.0,0.0,0.0,0.0,0.05044613,0.0,0.0,0.0,100.90643,100.91825,4.067128,0.0,0.0,0.0,0.09014654,0.0,0.0,0.0,0.0,0.10216358,0.0008238786,0.015999727,0.05620256,0.0,0.0,0.0,0.0,0.0,0.0
195240458,0.0,0.0,0.0,-0.91178507,-0.7113799,0.30433655,0.0,0.0,0.0,-0.10098481,0.0,0.0,0.0,0.0,0.054899782,0.0,0.0,0.0,100.94599,100.9575,4.0671043,0.0,0.0,0.0,0.09014662,0.0,0.0,0.0,0.0,0.107435465,0.0014311492,0.022445181,0.06815144,0.0,0.0,0.0,0.0,0.0,0.0
195441330,0.0,0.0,0.0,-0.995923,-0.59650666,-0.12188721,0.0,0.0,0.0,-0.08897781,0.0,0.0,0.0,0.0,0.059674274,0.0,0.0,0.0,100.97641,100.98753,4.0669985,0.0,0.0,0.0,0.090146445,0.0,0.0,0.0,0.0,0.10314336,0.0017749295,0.022852346,0.060993414,0.0,0.0,0.0,0.0,0.0,0.0
195641281,0.0,0.0,0.0,-1.1062671,-0.47127455,-0.02418518,0.0,0.0,0.0,-0.080616236,0.0,0.0,0.0,0.0,0.079592355,0.0,0.0,0.0,101.002144,101.01262,4.0662947,0.0,0.0,0.0,0.09014661,0.0,0.0,0.0,0.0,0.10157153,0.001984454,0.025869865,0.073850736,0.0,0.0,0.0,0.0,0.0,0.0
195841410,0.0,0.0,0.0,-1.2221682,-0.38607404,-0.014312744,0.0,0.0,0.0,-0.0036270618,0.0,0.0,0.0,0.0,0.070300974,0.0,0.0,0.0,101.034935,101.04512,4.0672812,0.0,0.0,0.0,0.09014642,0.0,0.0,0.0,0.0,0.10908787,0.0017893264,0.027858615,0.07274753,0.0,0.0,0.0,0.0,0.0,0.0
196049414,0.0,0.0,0.0,-1.3243593,-0.27144432,-0.019973755,0.0,0.0,0.0,0.073313475,0.0,0.0,0.0,0.0,0.09307787,0.0,0.0,0.0,101.05014,101.05955,4.066411,0.0,0.0,0.0,0.09014638,0.0,0.0,0.0,0.0,0.108591676,0.00055840344,0.032707036,0.10136643,0.0,0.0,0.0,0.0,0.0,0.0
196249254,0.0,0.0,0.0,-1.3827635,-0.14162612,0.6333008,0.0,0.0,0.0,0.110384464,0.0,0.0,0.0,0.0,0.09471474,0.0,0.0,0.0,101.05917,101.067856,4.0656304,0.0,0.0,0.0,0.090146475,0.0,0.0,0.0,0.0,0.10693914,0.0014795356,0.032863144,0.107009724,0.0,0.0,0.0,0.0,0.0,0.0
196449345,0.0,0.0,0.0,-1.4106674,0.03869096,0.19706726,0.0,0.0,0.0,0.0049216747,0.0,0.0,0.0,0.0,0.07985435,0.0,0.0,0.0,101.06737,101.07523,4.064983,0.0,0.0,0.0,0.0901463,0.0,0.0,0.0,0.0,0.10718552,0.0018493132,0.037468553,0.12810367,0.0,0.0,0.0,0.0,0.0,0.0
196658894,0.0,0.0,0.0,-1.4370252,0.2193845,-0.17605591,0.0,0.0,0.0,-0.025467873,0.0,0.0,0.0,0.0,0.0869037,0.0,0.0,0.0,101.086136,101.093445,4.0657096,0.0,0.0,0.0,0.09014638,0.0,0.0,0.0,0.0,0.10208504,0.00089543517,0.035344377,0.11842269,0.0,0.0,0.0,0.0,0.0,0.0
196858978,0.0,0.0,0.0,-1.448633,0.40736467,-0.32855225,0.0,0.0,0.0,0.036118507,0.0,0.0,0.0,0.0,0.089737594,0.0,0.0,0.0,101.095276,101.10188,4.0657315,0.0,0.0,0.0,0.09014632,0.0,0.0,0.0,0.0,0.10092556,0.0005431994,0.04002909,0.13494001,0.0,0.0,0.0,0.0,0.0,0.0
197058888,0.0,0.0,0.0,-1.4583721,0.5769749,-0.20565796,0.0,0.0,0.0,-0.021818161,0.0,0.0,0.0,0.0,0.07973117,0.0,0.0,0.0,101.104225,101.110245,4.065998,0.0,0.0,0.0,0.09014633,0.0,0.0,0.0,0.0,0.102703184,0.0005735022,0.040541254,0.13710889,0.0,0.0,0.0,0.0,0.0,0.0
197258948,0.0,0.0,0.0,-1.4596992,0.730866,0.019760132,0.0,0.0,0.0,-0.056878805,0.0,0.0,0.0,0.0,0.05873524,0.0,0.0,0.0,101.10684,101.11226,4.0658765,0.0,0.0,0.0,0.09014636,0.0,0.0,0.0,0.0,0.10497588,0.0006802169,0.039420243,0.1351988,0.0,0.0,0.0,0.0,0.0,0.0
197466922,0.0,0.0,0.0,-1.4385504,0.9057231,-0.018554688,0.0,0.0,0.0,-0.027068615,0.0,0.0,0.0,0.0,0.027828917,0.0,0.0,0.0,101.10843,101.11313,4.065766,0.0,0.0,0.0,0.09014641,0.0,0.0,0.0,0.0,0.10276861,0.0009434081,0.04441633,0.16063492,0.0,0.0,0.0,0.0,0.0,0.0
197664601,0.0,0.0,0.0,-1.3547622,1.0164756,-0.4040985,0.0,0.0,0.0,-0.005879879,0.0,0.0,0.0,0.0,0.027828917,0.0,0.0,0.0,101.11164,101.1158,4.065965,0.0,0.0,0.0,0.090146594,0.0,0.0,0.0,0.0,0.10276861,0.0009365912,0.042421397,0.15415907,0.0,0.0,0.0,0.0,0.0,0.0
197872523,0.0,0.0,0.0,-1.209255,1.1028066,0.08718872,0.0,0.0,0.0,-0.045645475,0.0,0.0,0.0,0.0,0.027828917,0.0,0.0,0.0,101.10805,101.11162,4.0656543,0.0,0.0,0.0,0.09014661,0.0,0.0,0.0,0.0,0.10276861,0.0010884227,0.042384427,0.15942003,0.0,0.0,0.0,0.0,0.0,0.0
198072695,0.0,0.0,0.0,-1.0790902,1.1995835,0.67381287,0.0,0.0,0.0,-0.030897617,0.0,0.0,0.0,0.0,0.027828917,0.0,0.0,0.0,101.11694,101.12005,4.0665545,0.0,0.0,0.0,0.09014654,0.0,0.0,0.0,0.0,0.10276861,0.0010643513,0.041297134,0.15228394,0.0,0.0,0.0,0.0,0.0,0.0
198272513,0.0,0.0,0.0,-0.94490534,1.2704809,-0.071502686,0.0,0.0,0.0,-0.02563858,0.0,0.0,0.0,0.0,0.027828917,0.0,0.0,0.0,101.1079,101.1105,4.065923,0.0,0.0,0.0,0.09014656,0.0,0.0,0.0,0.0,0.10276861,0.0009887647,0.042069126,0.15877882,0.0,0.0,0.0,0.0,0.0,0.0
198473345,0.0,0.0,0.0,-0.14718118,0.26471,0.143219,0.0,0.0,0.0,-0.04733801,0.0,0.0,0.0,0.0,0.0024470985,0.0,0.0,0.0,0.4561727,0.45624623,4.066065,0.0,0.0,0.0,0.09014648,0.0,0.0,0.0,0.0,0.1396347,0.0037886463,0.30925167,1.3600906,0.0,0.0,0.0,0.0,0.0,0.0
198681290,0.0,0.0,0.0,0.029526157,0.115491055,0.34680176,0.0,0.0,0.0,-0.033785105,0.0,0.0,0.0,0.0,0.00757277,0.0,0.0,0.0,0.2760413,0.27603847,4.0655246,0.0,0.0,0.0,0.09014639,0.0,0.0,0.0,0.0,0.10191788,0.0033049518,0.14929672,0.6577559,0.0,0.0,0.0,0.0,0.0,0.0
198881383,0.0,0.0,0.0,0.07878932,0.17542557,0.08508301,0.0,0.0,0.0,-0.035481215,0.0,0.0,0.0,0.0,0.0070236623,0.0,0.0,0.0,0.26517802,0.26517183,4.0653996,0.0,0.0,0.0,0.09014639,0.0,0.0,0.0,0.0,0.10013623,0.001719644,0.075740024,0.28506657,0.0,0.0,0.0,0.0,0.0,0.0
199081281,0.0,0.0,0.0,0.11625706,0.23544578,-0.022216797,0.0,0.0,0.0,-0.050368786,0.0,0.0,0.0,0.0,-0.0004459843,0.0,0.0,0.0,0.26227072,0.26226118,4.065918,0.0,0.0,0.0,0.09014633,0.0,0.0,0.0,0.0,0.10068294,0.0017698422,0.06794842,0.17625372,0.0,0.0,0.0,0.0,0.0,0.0
199289318,0.0,0.0,0.0,0.16240762,0.32001197,-0.02748108,0.0,0.0,0.0,-0.027657509,0.0,0.0,0.0,0.0,0.0052257255,0.0,0.0,0.0,100.01288,100.012856,4.0653553,0.0,0.0,0.0,0.09014616,0.0,0.0,0.0,0.0,0.10075082,0.0016932664,0.054302596,0.1741955,0.0,0.0,0.0,0.0,0.0,0.0
199489342,0.0,0.0,0.0,0.24266286,0.47598338,0.3381195,0.0,0.0,0.0,-0.017614365,0.0,0.0,0.0,0.0,0.0052257255,0.0,0.0,0.0,100.018166,100.01813,4.065522,0.0,0.0,0.0,0.09014619,0.0,0.0,0.0,0.0,0.10075082,0.0008229596,0.044341035,0.19619471,0.0,0.0,0.0,0.0,0.0,0.0
199690995,0.0,0.0,0.0,0.3181908,0.6261037,0.25102234,0.0,0.0,0.0,-0.042314053,0.0,0.0,0.0,0.0,0.0052257255,0.0,0.0,0.0,100.02509,100.02504,4.06502,0.0,0.0,0.0,0.09014622,0.0,0.0,0.0,0.0,0.10075082,0.0006710987,0.04452702,0.2093371,0.0,0.0,0.0,0.0,0.0,0.0
199898936,0.0,0.0,0.0,0.39841443,0.7887584,0.4874115,0.0,0.0,0.0,-0.0148181915,0.0,0.0,0.0,0.0,0.0052257255,0.0,0.0,0.0,100.03477,100.03468,4.064967,0.0,0.0,0.0,0.09014625,0.0,0.0,0.0,0.0,0.10075082,0.00058627984,0.04395772,0.20919085,0.0,0.0,0.0,0.0,0.0,0.0
200098882,0.0,0.0,0.0,0.47240162,0.9417809,-0.26942444,0.0,0.0,0.0,-0.017106295,0.0,0.0,0.0,0.0,0.13228244,0.0,0.0,0.0,100.046036,100.04593,4.0642138,0.0,0.0,0.0,0.09014629,0.0,0.0,0.0,0.0,0.27176788,0.0006019219,0.0417032,0.19911069,0.0,0.0,0.0,0.0,0.0,0.0
200298941,0.0,0.0,0.0,0.55041546,1.1056744,0.11956787,0.0,0.0,0.0,-0.039425135,0.0,0.0,0.0,0.0,0.09458513,0.0,0.0,0.0,100.06053,100.06039,4.0648375,0.0,0.0,0.0,0.09014623,0.0,0.0,0.0,0.0,0.1724365,0.00058297673,0.038554948,0.18507387,0.0,0.0,0.0,0.0,0.0,0.0
200508481,0.0,0.0,0.0,0.6280705,1.2732066,0.043167114,0.0,0.0,0.0,-0.032212973,0.0,0.0,0.0,0.0,0.09458513,0.0,0.0,0.0,100.07809,100.07791,4.065409,0.0,0.0,0.0,0.09014618,0.0,0.0,0.0,0.0,0.1724365,0.0005889883,0.03513396,0.16930072,0.0,0.0,0.0,0.0,0.0,0.0
200708519,0.0,0.0,0.0,0.7084343,1.4495587,-0.26986694,0.0,0.0,0.0,-0.009999275,0.0,0.0,0.0,0.0,0.09458513,0.0,0.0,0.0,100.1,100.09978,4.0653234,0.0,0.0,0.0,0.09014621,0.0,0.0,0.0,0.0,0.1724365,0.0005005403,0.031082997,0.15310426,0.0,0.0,0.0,0.0,0.0,0.0
200908606,0.0,0.0,0.0,0.78326464,1.6166884,0.056488037,0.0,0.0,0.0,0.005976677,0.0,0.0,0.0,0.0,0.09458513,0.0,0.0,0.0,100.12443,100.12417,4.064846,0.0,0.0,0.0,0.09014623,0.0,0.0,0.0,0.0,0.1724365,0.0004781039,0.02806906,0.13730195,0.0,0.0,0.0,0.0,0.0,0.0
201108486,0.0,0.0,0.0,0.8503761,1.7698128,0.2311554,0.0,0.0,0.0,0.010819435,0.0,0.0,0.0,0.0,0.09458513,0.0,0.0,0.0,100.150154,100.14986,4.0647564,0.0,0.0,0.0,0.09014625,0.0,0.0,0.0,0.0,0.1724365,0.00050720136,0.025581632,0.123396076,0.0,0.0,0.0,0.0,0.0,0.0
201316458,0.0,0.0,0.0,0.9293751,1.9539188,0.5934143,0.0,0.0,0.0,-0.022863388,0.0,0.0,0.0,0.0,0.09458513,0.0,0.0,0.0,100.18593,100.18559,4.0653596,0.0,0.0,0.0,0.09014627,0.0,0.0,0.0,0.0,0.1724365,0.00055687025,0.024376316,0.110917166,0.0,0.0,0.0,0.0,0.0,0.0
201518142,0.0,0.0,0.0,0.994448,2.1089008,0.48703003,0.0,0.0,0.0,-0.021682978,0.0,0.0,0.0,0.0,0.09458513,0.0,0.0,0.0,100.22166,100.22129,4.0649185,0.0,0.0,0.0,0.09014629,0.0,0.0,0.0,0.0,0.1724365,0.00066126056,0.023445513,0.09913017,0.0,0.0,0.0,0.0,0.0,0.0
201718130,0.0,0.0,0.0,1.0505686,2.2479372,-0.28596497,0.0,0.0,0.0,-0.011608601,0.0,0.0,0.0,0.0,0.09458513,0.0,0.0,0.0,100.25907,100.258675,4.0641913,0.0,0.0,0.0,0.090146326,0.0,0.0,0.0,0.0,0.1724365,0.0007829636,0.022981098,0.08841477,0.0,0.0,0.0,0.0,0.0,0.0
201926162,0.0,0.0,0.0,1.108442,2.39266,-0.0090789795,0.0,0.0,0.0,0.006108761,0.0,0.0,0.0,0.0,0.09458513,0.0,0.0,0.0,100.30453,100.304115,4.0635757,0.0,0.0,0.0,0.09014626,0.0,0.0,0.0,0.0,0.1724365,0.00094156223,0.027037686,0.08765457,0.0,0.0,0.0,0.0,0.0,0.0
202126206,0.0,0.0,0.0,1.1628097,2.531629,-0.18600464,0.0,0.0,0.0,0.02023983,0.0,0.0,0.0,0.0,0.15888487,0.0,0.0,0.0,100.3532,100.35278,4.0646176,0.0,0.0,0.0,0.09014627,0.0,0.0,0.0,0.0,0.47959435,0.0009893042,0.0283654,0.08784234,0.0,0.0,0.0,0.0,0.0,0.0
202331735,0.0,0.0,0.0,1.2054112,2.6499643,-0.9653473,0.0,0.0,0.0,0.007512331,0.0,0.0,0.0,0.0,0.15888487,0.0,0.0,0.0,100.40255,100.40213,4.0651975,0.0,0.0,0.0,0.09014629,0.0,0.0,0.0,0.0,0.47959435,0.0010651387,0.031320836,0.09445287,0.0,0.0,0.0,0.0,0.0,0.0
202531694,0.0,0.0,0.0,1.2342439,2.7453,0.13572693,0.0,0.0,0.0,0.02920866,0.0,0.0,0.0,0.0,0.15888487,0.0,0.0,0.0,100.450676,100.45026,4.065264,0.0,0.0,0.0,0.09014638,0.0,0.0,0.0,0.0,0.47959435,0.0012400715,0.03325935,0.09943275,0.0,0.0,0.0,0.0,0.0,0.0
202731732,0.0,0.0,0.0,1.2524416,2.846573,0.2348175,0.0,0.0,0.0,0.014574528,0.0,0.0,0.0,0.0,0.15888487,0.0,0.0,0.0,100.50689,100.506485,4.0661573,0.0,0.0,0.0,0.09014632,0.0,0.0,0.0,0.0,0.47959435,0.0013947014,0.03425935,0.103229076,0.0,0.0,0.0,0.0,0.0,0.0
202931655,0.0,0.0,0.0,1.242195,2.920506,-0.008422852,0.0,0.0,0.0,-0.012492895,0.0,0.0,0.0,0.0,0.05038783,0.0,0.0,0.0,100.56133,100.56093,4.0658784,0.0,0.0,0.0,0.090146266,0.0,0.0,0.0,0.0,0.2857224,0.001593897,0.04134318,0.12463113,0.0,0.0,0.0,0.0,0.0,0.0
203141396,0.0,0.0,0.0,1.2219282,2.9790452,0.09628296,0.0,0.0,0.0,0.04105711,0.0,0.0,0.0,0.0,0.08904945,0.0,0.0,0.0,100.61225,100.611855,4.0659714,0.0,0.0,0.0,0.09014626,0.0,0.0,0.0,0.0,0.15677008,0.0017082613,0.04075657,0.12685297,0.0,0.0,0.0,0.0,0.0,0.0
203341570,0.0,0.0,0.0,1.2012087,3.0193806,0.43321228,0.0,0.0,0.0,0.06553769,0.0,0.0,0.0,0.0,0.089149304,0.0,0.0,0.0,100.669525,100.669174,4.0661163,0.0,0.0,0.0,0.09014614,0.0,0.0,0.0,0.0,0.18057671,0.0019570088,0.047080465,0.15086247,0.0,0.0,0.0,0.0,0.0,0.0
203541382,0.0,0.0,0.0,1.1799482,3.0323226,0.7801056,0.0,0.0,0.0,0.06493616,0.0,0.0,0.0,0.0,0.07958346,0.0,0.0,0.0,100.718575,100.71827,4.0662117,0.0,0.0,0.0,0.09014616,0.0,0.0,0.0,0.0,0.14530456,0.0022319416,0.043004453,0.14483869,0.0,0.0,0.0,0.0,0.0,0.0
203749296,0.0,0.0,0.0,1.1406301,3.0195208,0.2822876,0.0,0.0,0.0,0.10618901,0.0,0.0,0.0,0.0,0.08206187,0.0,0.0,0.0,100.76768,100.76743,4.065945,0.0,0.0,0.0,0.090146124,0.0,0.0,0.0,0.0,0.16994217,0.002697073,0.04423083,0.15506186,0.0,0.0,0.0,0.0,0.0,0.0
203949434,0.0,0.0,0.0,1.0902514,3.007367,0.348938,0.0,0.0,0.0,0.051519394,0.0,0.0,0.0,0.0,0.09865999,0.0,0.0,0.0,100.815895,100.815704,4.0663443,0.0,0.0,0.0,0.09014613,0.0,0.0,0.0,0.0,0.11367085,0.0026047754,0.041934904,0.15411913,0.0,0.0,0.0,0.0,0.0,0.0
204155000,0.0,0.0,0.0,1.0038772,2.941125,0.8789978,0.0,0.0,0.0,0.11790967,0.0,0.0,0.0,0.0,0.048179626,0.0,0.0,0.0,100.85408,100.85396,4.0652394,0.0,0.0,0.0,0.09014607,0.0,0.0,0.0,0.0,0.10199018,0.0028462992,0.049299367,0.18521342,0.0,0.0,0.0,0.0,0.0,0.0
204354948,0.0,0.0,0.0,0.90952355,2.8770192,0.19171143,0.0,0.0,0.0,0.07770753,0.0,0.0,0.0,0.0,0.064588115,0.0,0.0,0.0,100.88856,100.8885,4.064733,0.0,0.0,0.0,0.09014603,0.0,0.0,0.0,0.0,0.09906828,0.002824721,0.049933888,0.19056515,0.0,0.0,0.0,0.0,0.0,0.0
204554894,0.0,0.0,0.0,0.8090035,2.8323987,0.5543213,0.0,0.0,0.0,0.10894179,0.0,0.0,0.0,0.0,0.044491805,0.0,0.0,0.0,100.92729,100.927284,4.0652995,0.0,0.0,0.0,0.09014602,0.0,0.0,0.0,0.0,0.10084174,0.0030046431,0.039747175,0.16191672,0.0,0.0,0.0,0.0,0.0,0.0
204754938,0.0,0.0,0.0,0.69486964,2.7790399,0.83755493,0.0,0.0,0.0,0.13936543,0.0,0.0,0.0,0.0,0.08835052,0.0,0.0,0.0,100.96228,100.96233,4.0658083,0.0,0.0,0.0,0.09014614,0.0,0.0,0.0,0.0,0.10197283,0.0033421852,0.03521483,0.14785694,0.0,0.0,0.0,0.0,0.0,0.0
204960543,0.0,0.0,0.0,0.58357584,2.7001657,0.2628479,0.0,0.0,0.0,0.17597318,0.0,0.0,0.0,0.0,0.08835052,0.0,0.0,0.0,100.985435,100.98556,4.065573,0.0,0.0,0.0,0.090146005,0.0,0.0,0.0,0.0,0.10197283,0.0037671216,0.022452403,0.108544335,0.0,0.0,0.0,0.0,0.0,0.0
205160606,0.0,0.0,0.0,0.47392118,2.604959,0.19232178,0.0,0.0,0.0,0.11602259,0.0,0.0,0.0,0.0,0.05961663,0.0,0.0,0.0,101.01707,101.0173,4.0662565,0.0,0.0,0.0,0.09014609,0.0,0.0,0.0,0.0,0.13132083,0.0034944871,0.018743701,0.09598832,0.0,0.0,0.0,0.0,0.0,0.0
205360541,0.0,0.0,0.0,0.35651574,2.4765708,0.57170105,0.0,0.0,0.0,0.12972355,0.0,0.0,0.0,0.0,0.09572731,0.0,0.0,0.0,101.0418,101.04217,4.0665984,0.0,0.0,0.0,0.09014603,0.0,0.0,0.0,0.0,0.10454762,0.0031700493,0.02093071,0.09497543,0.0,0.0,0.0,0.0,0.0,0.0
205568576,0.0,0.0,0.0,0.21871011,2.2987776,0.40769958,0.0,0.0,0.0,0.12635016,0.0,0.0,0.0,0.0,0.067705266,0.0,0.0,0.0,101.06077,101.06128,4.0665417,0.0,0.0,0.0,0.09014597,0.0,0.0,0.0,0.0,0.104783274,0.003141821,0.023652507,0.10107984,0.0,0.0,0.0,0.0,0.0,0.0
205770166,0.0,0.0,0.0,0.07532653,2.0986245,-0.11218262,0.0,0.0,0.0,0.076188326,0.0,0.0,0.0,0.0,0.09594444,0.0,0.0,0.0,101.07227,101.07293,4.066184,0.0,0.0,0.0,0.090146005,0.0,0.0,0.0,0.0,0.10094928,0.0029521752,0.01830778,0.08602441,0.0,0.0,0.0,0.0,0.0,0.0
205970171,0.0,0.0,0.0,-0.07170442,1.887997,0.06021118,0.0,0.0,0.0,0.1311512,0.0,0.0,0.0,0.0,0.09603589,0.0,0.0,0.0,101.07744,101.07821,4.065566,0.0,0.0,0.0,0.09014596,0.0,0.0,0.0,0.0,0.10325754,0.0029982722,0.01587233,0.073289834,0.0,0.0,0.0,0.0,0.0,0.0
206170202,0.0,0.0,0.0,-0.20215428,1.7040025,-0.50845337,0.0,0.0,0.0,0.21653819,0.0,0.0,0.0,0.0,0.10001041,0.0,0.0,0.0,101.07889,101.07974,4.06497,0.0,0.0,0.0,0.090146065,0.0,0.0,0.0,0.0,0.107661024,0.0037287585,0.017116698,0.058275845,0.0,0.0,0.0,0.0,0.0,0.0
206378255,0.0,0.0,0.0,-0.36321098,1.5017382,-0.405838,0.0,0.0,0.0,0.20752025,0.0,0.0,0.0,0.0,0.07969631,0.0,0.0,0.0,101.08805,101.08903,4.0651155,0.0,0.0,0.0,0.090146065,0.0,0.0,0.0,0.0,0.14914605,0.0046445974,0.024959726,0.080563374,0.0,0.0,0.0,0.0,0.0,0.0
206578151,0.0,0.0,0.0,-0.5100869,1.3029618,0.25868225,0.0,0.0,0.0,0.1845411,0.0,0.0,0.0,0.0,0.07969631,0.0,0.0,0.0,101.09593,101.09702,4.0653176,0.0,0.0,0.0,0.09014616,0.0,0.0,0.0,0.0,0.14914605,0.0048595876,0.02995374,0.10121389,0.0,0.0,0.0,0.0,0.0,0.0
206775788,0.0,0.0,0.0,-0.62298626,1.1146184,0.40548706,0.0,0.0,0.0,0.18665648,0.0,0.0,0.0,0.0,0.08638279,0.0,0.0,0.0,101.09976,101.100945,4.065322,0.0,0.0,0.0,0.09014645,0.0,0.0,0.0,0.0,0.1312679,0.0044210153,0.0342501,0.121775456,0.0,0.0,0.0,0.0,0.0,0.0
206983823,0.0,0.0,0.0,-0.72532886,0.8981767,-0.22094727,0.0,0.0,0.0,0.17326581,0.0,0.0,0.0,0.0,0.11329313,0.0,0.0,0.0,101.09603,101.09729,4.0647697,0.0,0.0,0.0,0.09014641,0.0,0.0,0.0,0.0,0.11847919,0.0038281363,0.037707336,0.1374514,0.0,0.0,0.0,0.0,0.0,0.0
207183800,0.0,0.0,0.0,-0.82799196,0.6609959,0.22880554,0.0,0.0,0.0,0.112828255,0.0,0.0,0.0,0.0,0.076184206,0.0,0.0,0.0,101.09977,101.101105,4.0649657,0.0,0.0,0.0,0.090146475,0.0,0.0,0.0,0.0,0.13509636,0.003262365,0.04226094,0.15702684,0.0,0.0,0.0,0.0,0.0,0.0
207383742,0.0,0.0,0.0,-0.9069588,0.44259825,0.42401123,0.0,0.0,0.0,0.109739065,0.0,0.0,0.0,0.0,0.09049668,0.0,0.0,0.0,101.1023,101.10368,4.0651393,0.0,0.0,0.0,0.09014639,0.0,0.0,0.0,0.0,0.11236561,0.0028491355,0.045164607,0.17183144,0.0,0.0,0.0,0.0,0.0,0.0
207585322,0.0,0.0,0.0,-0.96960884,0.21544823,0.6269989,0.0,0.0,0.0,0.10208976,0.0,0.0,0.0,0.0,0.07145332,0.0,0.0,0.0,101.10399,101.1054,4.0652666,0.0,0.0,0.0,0.09014646,0.0,0.0,0.0,0.0,0.111359,0.0022299853,0.048013844,0.18566848,0.0,0.0,0.0,0.0,0.0,0.0
207785391,0.0,0.0,0.0,-1.022798,-0.05277152,-0.506897,0.0,0.0,0.0,0.06962967,0.0,0.0,0.0,0.0,0.07754884,0.0,0.0,0.0,101.10612,101.107544,4.065455,0.0,0.0,0.0,0.090146504,0.0,0.0,0.0,0.0,0.11250244,0.002034098,0.05286073,0.20659198,0.0,0.0,0.0,0.0,0.0,0.0
207985310,0.0,0.0,0.0,-1.0374863,-0.29102865,-0.72436523,0.0,0.0,0.0,0.093295455,0.0,0.0,0.0,0.0,0.08129678,0.0,0.0,0.0,101.0957,101.09709,4.06458,0.0,0.0,0.0,0.09014649,0.0,0.0,0.0,0.0,0.11742017,0.0019678532,0.060446307,0.23246846,0.0,0.0,0.0,0.0,0.0,0.0
208193310,0.0,0.0,0.0,-1.0269588,-0.5546827,0.11520386,0.0,0.0,0.0,0.0654186,0.0,0.0,0.0,0.0,0.08129678,0.0,0.0,0.0,101.086624,101.087975,4.0638647,0.0,0.0,0.0,0.090146475,0.0,0.0,0.0,0.0,0.11742017,0.0017376139,0.06046094,0.24247816,0.0,0.0,0.0,0.0,0.0,0.0
208394148,0.0,0.0,0.0,-0.9943026,-0.7979255,-0.096069336,0.0,0.0,0.0,0.054614067,0.0,0.0,0.0,0.0,0.07436822,0.0,0.0,0.0,101.0823,101.0836,4.0635767,0.0,0.0,0.0,0.09014635,0.0,0.0,0.0,0.0,0.12923343,0.0017539744,0.06003765,0.24609028,0.0,0.0,0.0,0.0,0.0,0.0
208594099,0.0,0.0,0.0,-0.9452076,-1.0194156,-0.34698486,0.0,0.0,0.0,0.07297838,0.0,0.0,0.0,0.0,0.07916649,0.0,0.0,0.0,101.08215,101.08343,4.0636206,0.0,0.0,0.0,0.09014626,0.0,0.0,0.0,0.0,0.14483556,0.0016779894,0.05902913,0.24286178,0.0,0.0,0.0,0.0,0.0,0.0
208794205,0.0,0.0,0.0,-0.869757,-1.2807754,0.11114502,0.0,0.0,0.0,0.06972885,0.0,0.0,0.0,0.0,0.091873825,0.0,0.0,0.0,101.08669,101.087944,4.064056,0.0,0.0,0.0,0.09014626,0.0,0.0,0.0,0.0,0.111012176,0.001755108,0.06102796,0.2530951,0.0,0.0,0.0,0.0,0.0,0.0
209002120,0.0,0.0,0.0,-0.7889404,-1.4922264,0.024871826,0.0,0.0,0.0,0.117396474,0.0,0.0,0.0,0.0,0.08555274,0.0,0.0,0.0,101.08684,101.088066,4.0640635,0.0,0.0,0.0,0.09014627,0.0,0.0,0.0,0.0,0.14445955,0.0018894973,0.058816545,0.24448738,0.0,0.0,0.0,0.0,0.0,0.0
209202112,0.0,0.0,0.0,-0.6856034,-1.725532,0.15890503,0.0,0.0,0.0,0.1347189,0.0,0.0,0.0,0.0,0.080580875,0.0,0.0,0.0,101.087494,101.08871,4.064058,0.0,0.0,0.0,0.09014614,0.0,0.0,0.0,0.0,0.12688999,0.0022510428,0.062465172,0.26117343,0.0,0.0,0.0,0.0,0.0,0.0
209410059,0.0,0.0,0.0,-0.5741828,-1.9622647,-0.019439697,0.0,0.0,0.0,0.146209,0.0,0.0,0.0,0.0,0.084952734,0.0,0.0,0.0,101.09317,101.0944,4.0644536,0.0,0.0,0.0,0.090146035,0.0,0.0,0.0,0.0,0.11369413,0.002905542,0.06336152,0.26604474,0.0,0.0,0.0,0.0,0.0,0.0
209611710,0.0,0.0,0.0,-0.47266746,-2.17713,-0.1459961,0.0,0.0,0.0,0.12272453,0.0,0.0,0.0,0.0,0.08431573,0.0,0.0,0.0,101.10253,101.1038,4.065112,0.0,0.0,0.0,0.09014595,0.0,0.0,0.0,0.0,0.110988945,0.003240153,0.0625982,0.26249456,0.0,0.0,0.0,0.0,0.0,0.0
209811691,0.0,0.0,0.0,-0.36762828,-2.368721,-0.101623535,0.0,0.0,0.0,0.17784858,0.0,0.0,0.0,0.0,0.096009135,0.0,0.0,0.0,101.10533,101.10664,4.0651236,0.0,0.0,0.0,0.09014602,0.0,0.0,0.0,0.0,0.11039106,0.0035344593,0.06732352,0.2804713,0.0,0.0,0.0,0.0,0.0,0.0
210011654,0.0,0.0,0.0,-0.2802793,-2.5318,0.052612305,0.0,0.0,0.0,0.16963816,0.0,0.0,0.0,0.0,0.038142994,0.0,0.0,0.0,101.11131,101.1127,4.0653634,0.0,0.0,0.0,0.09014611,0.0,0.0,0.0,0.0,0.1042171,0.0038288396,0.066761486,0.2745062,0.0,0.0,0.0,0.0,0.0,0.0
210211798,0.0,0.0,0.0,-0.2066885,-2.6761906,0.011795044,0.0,0.0,0.0,0.1986351,0.0,0.0,0.0,0.0,0.014903903,0.0,0.0,0.0,101.117325,101.11883,4.0655317,0.0,0.0,0.0,0.09014604,0.0,0.0,0.0,0.0,0.1057862,0.0038673424,0.06573322,0.26915005,0.0,0.0,0.0,0.0,0.0,0.0
210421268,0.0,0.0,0.0,-0.14402954,-2.8005037,0.4614563,0.0,0.0,0.0,0.1866144,0.0,0.0,0.0,0.0,0.033127546,0.0,0.0,0.0,101.12025,101.12188,4.065375,0.0,0.0,0.0,0.09014605,0.0,0.0,0.0,0.0,0.10121736,0.0043148035,0.06899997,0.27696586,0.0,0.0,0.0,0.0,0.0,0.0
210621346,0.0,0.0,0.0,-0.10328335,-2.9214318,-0.19694519,0.0,0.0,0.0,0.17828715,0.0,0.0,0.0,0.0,-0.013890147,0.0,0.0,0.0,101.131805,101.13363,4.065945,0.0,0.0,0.0,0.090146065,0.0,0.0,0.0,0.0,0.10220718,0.0041211774,0.06560873,0.26327738,0.0,0.0,0.0,0.0,0.0,0.0
210821286,0.0,0.0,0.0,-0.07425769,-3.013162,-0.71139526,0.0,0.0,0.0,0.16595101,0.0,0.0,0.0,0.0,0.028400958,0.0,0.0,0.0,101.13828,101.14028,4.066039,0.0,0.0,0.0,0.090146065,0.0,0.0,0.0,0.0,0.102302454,0.0043194457,0.071424335,0.28443268,0.0,0.0,0.0,0.0,0.0,0.0
211029460,0.0,0.0,0.0,-0.05986575,-3.0944293,0.19255066,0.0,0.0,0.0,0.14771092,0.0,0.0,0.0,0.0,0.015644431,0.0,0.0,0.0,101.148544,101.15074,4.0664916,0.0,0.0,0.0,0.09014615,0.0,0.0,0.0,0.0,0.10325709,0.0039556012,0.06297318,0.25069356,0.0,0.0,0.0,0.0,0.0,0.0
211230175,0.0,0.0,0.0,-0.06228072,-3.1562984,-0.0033416748,0.0,0.0,0.0,0.16146266,0.0,0.0,0.0,0.0,0.0035057664,0.0,0.0,0.0,101.15811,101.16051,4.0668616,0.0,0.0,0.0,0.090146296,0.0,0.0,0.0,0.0,0.10220352,0.003978243,0.060107887,0.23774478,0.0,0.0,0.0,0.0,0.0,0.0
211430126,0.0,0.0,0.0,-0.078414954,-3.1667287,0.21664429,0.0,0.0,0.0,0.14974225,0.0,0.0,0.0,0.0,0.071710855,0.0,0.0,0.0,101.15487,101.15742,4.0661607,0.0,0.0,0.0,0.090146296,0.0,0.0,0.0,0.0,0.104174346,0.0041791247,0.06476595,0.2513125,0.0,0.0,0.0,0.0,0.0,0.0
211630272,0.0,0.0,0.0,-0.10244116,-3.1653988,0.27954102,0.0,0.0,0.0,0.14028478,0.0,0.0,0.0,0.0,0.02501449,0.0,0.0,0.0,101.152306,101.15502,4.0655375,0.0,0.0,0.0,0.09014621,0.0,0.0,0.0,0.0,0.10758372,0.004403352,0.06319268,0.24257874,0.0,0.0,0.0,0.0,0.0,0.0
211838177,0.0,0.0,0.0,-0.13858809,-3.19751,0.020446777,0.0,0.0,0.0,0.14410162,0.0,0.0,0.0,0.0,0.040218443,0.0,0.0,0.0,101.16773,101.170715,4.0663223,0.0,0.0,0.0,0.090146214,0.0,0.0,0.0,0.0,0.10154193,0.003914066,0.053571407,0.20206155,0.0,0.0,0.0,0.0,0.0,0.0
213657253,0.0,0.0,0.0,-0.5892507,-2.791597,0.09158325,0.0,0.0,0.0,0.06522524,0.0,0.0,0.0,0.0,0.016112924,0.0,0.0,0.0,101.18861,101.192795,4.064827,0.0,0.0,0.0,0.09014592,0.0,0.0,0.0,0.0,0.10499816,0.002495261,0.026083054,0.09069882,0.0,0.0,0.0,0.0,0.0,0.0
213865329,0.0,0.0,0.0,-0.6465085,-2.7102704,-0.6399994,0.0,0.0,0.0,0.081011176,0.0,0.0,0.0,0.0,0.016585946,0.0,0.0,0.0,101.18474,101.18892,4.064414,0.0,0.0,0.0,0.090145916,0.0,0.0,0.0,0.0,0.10891041,0.0023381403,0.028407918,0.098707244,0.0,0.0,0.0,0.0,0.0,0.0
214065341,0.0,0.0,0.0,-0.7003232,-2.6800294,-0.48435974,0.0,0.0,0.0,0.07987368,0.0,0.0,0.0,0.0,-0.027156353,0.0,0.0,0.0,101.19792,101.202194,4.065304,0.0,0.0,0.0,0.09014584,0.0,0.0,0.0,0.0,0.112680286,0.0020714763,0.015204774,0.050249707,0.0,0.0,0.0,0.0,0.0,0.0
214266906,0.0,0.0,0.0,-0.7471735,-2.586779,-0.6702118,0.0,0.0,0.0,0.07789993,0.0,0.0,0.0,0.0,-0.0016531944,0.0,0.0,0.0,101.187805,101.19198,4.0644937,0.0,0.0,0.0,0.09014576,0.0,0.0,0.0,0.0,0.11222972,0.002193134,0.023222234,0.0798836,0.0,0.0,0.0,0.0,0.0,0.0
214467030,0.0,0.0,0.0,-0.7907138,-2.511963,-0.31411743,0.0,0.0,0.0,0.11127329,0.0,0.0,0.0,0.0,-0.012213945,0.0,0.0,0.0,101.18341,101.18751,4.064165,0.0,0.0,0.0,0.09014576,0.0,0.0,0.0,0.0,0.11666775,0.002267883,0.020322233,0.07185569,0.0,0.0,0.0,0.0,0.0,0.0
214666916,0.0,0.0,0.0,-0.839216,-2.466703,-0.042617798,0.0,0.0,0.0,0.10648453,0.0,0.0,0.0,0.0,-0.031720877,0.0,0.0,0.0,101.19205,101.19614,4.0648413,0.0,0.0,0.0,0.09014576,0.0,0.0,0.0,0.0,0.116883986,0.0021771474,0.014456999,0.054766115,0.0,0.0,0.0,0.0,0.0,0.0
214866989,0.0,0.0,0.0,-0.87335014,-2.405836,-0.40396118,0.0,0.0,0.0,0.051985502,0.0,0.0,0.0,0.0,0.02389884,0.0,0.0,0.0,101.18971,101.193695,4.064723,0.0,0.0,0.0,0.09014576,0.0,0.0,0.0,0.0,0.12794925,0.001987143,0.014608587,0.057953276,0.0,0.0,0.0,0.0,0.0,0.0
215072588,0.0,0.0,0.0,-0.9046022,-2.3184164,-0.7484741,0.0,0.0,0.0,0.0780139,0.0,0.0,0.0,0.0,-0.037708044,0.0,0.0,0.0,101.17851,101.18232,4.0640326,0.0,0.0,0.0,0.09014591,0.0,0.0,0.0,0.0,0.12043744,0.0017586115,0.020452019,0.072596446,0.0,0.0,0.0,0.0,0.0,0.0
215272515,0.0,0.0,0.0,-0.9351952,-2.2516496,-0.3157196,0.0,0.0,0.0,0.05092144,0.0,0.0,0.0,0.0,-0.00036501884,0.0,0.0,0.0,101.17509,101.17874,4.063975,0.0,0.0,0.0,0.09014591,0.0,0.0,0.0,0.0,0.11721436,0.0017668485,0.018357482,0.07,0.0,0.0,0.0,0.0,0.0,0.0
215472541,0.0,0.0,0.0,-0.9604953,-2.195598,0.12538147,0.0,0.0,0.0,0.055690885,0.0,0.0,0.0,0.0,-0.05982542,0.0,0.0,0.0,101.172516,101.17603,4.064019,0.0,0.0,0.0,0.09014583,0.0,0.0,0.0,0.0,0.11868368,0.0016236162,0.019486457,0.07437582,0.0,0.0,0.0,0.0,0.0,0.0
215672766,0.0,0.0,0.0,-0.9812106,-2.1282485,-0.25482178,0.0,0.0,0.0,0.050763845,0.0,0.0,0.0,0.0,-0.024953365,0.0,0.0,0.0,101.16453,101.16785,4.0637145,0.0,0.0,0.0,0.09014582,0.0,0.0,0.0,0.0,0.11478498,0.0015908139,0.01952156,0.074149586,0.0,0.0,0.0,0.0,0.0,0.0
215874079,0.0,0.0,0.0,-1.0106794,-2.0747294,0.08604431,0.0,0.0,0.0,0.06579661,0.0,0.0,0.0,0.0,0.061219692,0.0,0.0,0.0,101.16588,101.16903,4.0641255,0.0,0.0,0.0,0.090145834,0.0,0.0,0.0,0.0,0.11175284,0.0014669604,0.019787332,0.076666504,0.0,0.0,0.0,0.0,0.0,0.0
216074131,0.0,0.0,0.0,-1.0367213,-2.0278387,0.33753967,0.0,0.0,0.0,0.034900904,0.0,0.0,0.0,0.0,0.0406121,0.0,0.0,0.0,101.16903,101.17204,4.064569,0.0,0.0,0.0,0.090145834,0.0,0.0,0.0,0.0,0.111321494,0.0014628603,0.024392676,0.093535304,0.0,0.0,0.0,0.0,0.0,0.0
216282080,0.0,0.0,0.0,-1.0608087,-1.972442,-0.04562378,0.0,0.0,0.0,0.064618826,0.0,0.0,0.0,0.0,0.017019987,0.0,0.0,0.0,101.171776,101.17462,4.0649023,0.0,0.0,0.0,0.09014584,0.0,0.0,0.0,0.0,0.1127056,0.0013435778,0.021928191,0.0885293,0.0,0.0,0.0,0.0,0.0,0.0
216482108,0.0,0.0,0.0,-1.0673897,-1.9048599,0.21038818,0.0,0.0,0.0,0.06580567,0.0,0.0,0.0,0.0,0.04745102,0.0,0.0,0.0,101.1614,101.16403,4.064194,0.0,0.0,0.0,0.09014576,0.0,0.0,0.0,0.0,0.11514442,0.001434591,0.021976229,0.0879339,0.0,0.0,0.0,0.0,0.0,0.0
216682069,0.0,0.0,0.0,-1.0881108,-1.8681743,-0.46206665,0.0,0.0,0.0,0.0062268972,0.0,0.0,0.0,0.0,0.016218424,0.0,0.0,0.0,101.169205,101.171684,4.0648975,0.0,0.0,0.0,0.09014577,0.0,0.0,0.0,0.0,0.12013678,0.0012972994,0.022546029,0.09156975,0.0,0.0,0.0,0.0,0.0,0.0
216883797,0.0,0.0,0.0,-1.0948434,-1.8141162,-0.0068511963,0.0,0.0,0.0,0.049451232,0.0,0.0,0.0,0.0,-0.0132648945,0.0,0.0,0.0,101.16343,101.1657,4.0645876,0.0,0.0,0.0,0.09014577,0.0,0.0,0.0,0.0,0.12561563,0.0012087782,0.020755578,0.083183505,0.0,0.0,0.0,0.0,0.0,0.0
217091688,0.0,0.0,0.0,-1.0946237,-1.7508562,-0.26797485,0.0,0.0,0.0,0.03455329,0.0,0.0,0.0,0.0,-0.0019288063,0.0,0.0,0.0,101.15253,101.15455,4.063949,0.0,0.0,0.0,0.090145774,0.0,0.0,0.0,0.0,0.12751493,0.001188322,0.020325473,0.07820069,0.0,0.0,0.0,0.0,0.0,0.0
217291798,0.0,0.0,0.0,-1.1036696,-1.7170709,-0.026748657,0.0,0.0,0.0,0.028730989,0.0,0.0,0.0,0.0,-0.039077044,0.0,0.0,0.0,101.15454,101.15638,4.0643177,0.0,0.0,0.0,0.09014578,0.0,0.0,0.0,0.0,0.1307442,0.0010088296,0.02277313,0.086592615,0.0,0.0,0.0,0.0,0.0,0.0
217491708,0.0,0.0,0.0,-1.1100166,-1.683235,-0.5135803,0.0,0.0,0.0,0.014532208,0.0,0.0,0.0,0.0,-0.035950184,0.0,0.0,0.0,101.15578,101.157425,4.0646167,0.0,0.0,0.0,0.09014578,0.0,0.0,0.0,0.0,0.134194,0.0009842521,0.024143541,0.092072114,0.0,0.0,0.0,0.0,0.0,0.0
217696420,0.0,0.0,0.0,-1.1021411,-1.6292045,-0.12954712,0.0,0.0,0.0,0.0048886538,0.0,0.0,0.0,0.0,-0.023899317,0.0,0.0,0.0,101.14463,101.14604,4.063983,0.0,0.0,0.0,0.0901458,0.0,0.0,0.0,0.0,0.13646357,0.0009984546,0.020752318,0.07977497,0.0,0.0,0.0,0.0,0.0,0.0
217904502,0.0,0.0,0.0,-1.0939882,-1.5864385,-0.019454956,0.0,0.0,0.0,-0.011640072,0.0,0.0,0.0,0.0,0.010920763,0.0,0.0,0.0,101.13659,101.13779,4.0635962,0.0,0.0,0.0,0.09014579,0.0,0.0,0.0,0.0,0.13680652,0.0008763615,0.02127577,0.08108727,0.0,0.0,0.0,0.0,0.0,0.0
218104519,0.0,0.0,0.0,-1.0831076,-1.5413779,-0.42089844,0.0,0.0,0.0,-0.006896019,0.0,0.0,0.0,0.0,-0.022812843,0.0,0.0,0.0,101.126564,101.12753,4.0631166,0.0,0.0,0.0,0.0901458,0.0,0.0,0.0,0.0,0.13686083,0.00080130633,0.019215232,0.0711739,0.0,0.0,0.0,0.0,0.0,0.0
218304513,0.0,0.0,0.0,-1.0713435,-1.5034243,-0.06665039,0.0,0.0,0.0,0.009719372,0.0,0.0,0.0,0.0,-0.025210619,0.0,0.0,0.0,101.11675,101.11752,4.0626645,0.0,0.0,0.0,0.09014581,0.0,0.0,0.0,0.0,0.13597667,0.00077075156,0.01992668,0.0731156,0.0,0.0,0.0,0.0,0.0,0.0
218512580,0.0,0.0,0.0,-1.0621345,-1.4727676,0.3620758,0.0,0.0,0.0,0.009099841,0.0,0.0,0.0,0.0,0.0036382675,0.0,0.0,0.0,101.111305,101.11189,4.0626,0.0,0.0,0.0,0.09014582,0.0,0.0,0.0,0.0,0.1324589,0.0007316086,0.021251975,0.07885508,0.0,0.0,0.0,0.0,0.0,0.0
218713415,0.0,0.0,0.0,-1.0589768,-1.450479,0.13162231,0.0,0.0,0.0,-0.011694789,0.0,0.0,0.0,0.0,-0.013354778,0.0,0.0,0.0,101.11407,101.11447,4.0631948,0.0,0.0,0.0,0.09014576,0.0,0.0,0.0,0.0,0.12937626,0.000754648,0.021033049,0.07755924,0.0,0.0,0.0,0.0,0.0,0.0
218913326,0.0,0.0,0.0,-1.0464844,-1.4185853,-0.33743286,0.0,0.0,0.0,-0.008245349,0.0,0.0,0.0,0.0,0.06120062,0.0,0.0,0.0,101.109146,101.109375,4.0630817,0.0,0.0,0.0,0.09014571,0.0,0.0,0.0,0.0,0.1254869,0.00073558657,0.02306219,0.08222035,0.0,0.0,0.0,0.0,0.0,0.0
219121307,0.0,0.0,0.0,-1.033851,-1.3878175,-0.21716309,0.0,0.0,0.0,-0.027695775,0.0,0.0,0.0,0.0,0.0028970242,0.0,0.0,0.0,101.10496,101.105034,4.0629807,0.0,0.0,0.0,0.09014565,0.0,0.0,0.0,0.0,0.123646446,0.000717725,0.021305222,0.0803635,0.0,0.0,0.0,0.0,0.0,0.0
219321337,0.0,0.0,0.0,-1.0297563,-1.3727076,-0.27923584,0.0,0.0,0.0,0.023815155,0.0,0.0,0.0,0.0,-0.014841318,0.0,0.0,0.0,101.1128,101.11274,4.063808,0.0,0.0,0.0,0.09014567,0.0,0.0,0.0,0.0,0.124020174,0.0006559834,0.020301627,0.079753965,0.0,0.0,0.0,0.0,0.0,0.0
219521397,0.0,0.0,0.0,-1.0113807,-1.3422608,-0.27246094,0.0,0.0,0.0,0.010117412,0.0,0.0,0.0,0.0,-0.010171652,0.0,0.0,0.0,101.1082,101.10801,4.0635834,0.0,0.0,0.0,0.09014569,0.0,0.0,0.0,0.0,0.12444556,0.0006688229,0.017771905,0.0695488,0.0,0.0,0.0,0.0,0.0,0.0
219729405,0.0,0.0,0.0,-0.99183786,-1.3130746,0.41349792,0.0,0.0,0.0,0.0062704086,0.0,0.0,0.0,0.0,0.013457298,0.0,0.0,0.0,101.10444,101.10413,4.063413,0.0,0.0,0.0,0.09014572,0.0,0.0,0.0,0.0,0.124445245,0.0006643534,0.018111775,0.07127446,0.0,0.0,0.0,0.0,0.0,0.0
219930044,0.0,0.0,0.0,-0.971039,-1.2827814,0.14460754,0.0,0.0,0.0,-0.019505262,0.0,0.0,0.0,0.0,0.015209913,0.0,0.0,0.0,101.10114,101.10073,4.0632653,0.0,0.0,0.0,0.090145744,0.0,0.0,0.0,0.0,0.12460635,0.0006713975,0.018399969,0.07132419,0.0,0.0,0.0,0.0,0.0,0.0
220130130,0.0,0.0,0.0,-0.9538133,-1.2612089,-0.024414062,0.0,0.0,0.0,-0.013282061,0.0,0.0,0.0,0.0,-0.024160147,0.0,0.0,0.0,101.106255,101.10574,4.0638037,0.0,0.0,0.0,0.09014562,0.0,0.0,0.0,0.0,0.12590533,0.00065368036,0.016162992,0.06269206,0.0,0.0,0.0,0.0,0.0,0.0
220338194,0.0,0.0,0.0,-0.9403391,-1.2441964,-0.020126343,0.0,0.0,0.0,-0.018754125,0.0,0.0,0.0,0.0,-0.034938097,0.0,0.0,0.0,101.113716,101.11314,4.064525,0.0,0.0,0.0,0.09014565,0.0,0.0,0.0,0.0,0.1256285,0.00060762063,0.01776347,0.06957918,0.0,0.0,0.0,0.0,0.0,0.0
220538091,0.0,0.0,0.0,-0.92446846,-1.228305,0.21299744,0.0,0.0,0.0,-0.026439905,0.0,0.0,0.0,0.0,0.00014805794,0.0,0.0,0.0,101.12016,101.11952,4.0651474,0.0,0.0,0.0,0.09014571,0.0,0.0,0.0,0.0,0.123586,0.00063587783,0.017128233,0.067527846,0.0,0.0,0.0,0.0,0.0,0.0
220746221,0.0,0.0,0.0,-0.8893275,-1.2065047,-0.31071472,0.0,0.0,0.0,-0.0068035126,0.0,0.0,0.0,0.0,-0.028654814,0.0,0.0,0.0,101.1178,101.11711,4.065029,0.0,0.0,0.0,0.09014622,0.0,0.0,0.0,0.0,0.12186677,0.00082774746,0.015101186,0.058459315,0.0,0.0,0.0,0.0,0.0,0.0
220946108,0.0,0.0,0.0,-0.83830357,-1.1984369,-0.030426025,0.0,0.0,0.0,-0.026620507,0.0,0.0,0.0,0.0,-0.025405169,0.0,0.0,0.0,101.11935,101.11864,4.0652437,0.0,0.0,0.0,0.09014607,0.0,0.0,0.0,0.0,0.11892304,0.0010203274,0.016045362,0.062718816,0.0,0.0,0.0,0.0,0.0,0.0
221147956,0.0,0.0,0.0,-0.74933386,-1.1842566,-0.09043884,0.0,0.0,0.0,-0.0136806965,0.0,0.0,0.0,0.0,0.009178638,0.0,0.0,0.0,101.11014,101.109436,4.0645413,0.0,0.0,0.0,0.09014589,0.0,0.0,0.0,0.0,0.11393319,0.0009164248,0.011218402,0.043133702,0.0,0.0,0.0,0.0,0.0,0.0
221347888,0.0,0.0,0.0,-0.67492175,-1.185104,0.7784729,0.0,0.0,0.0,0.0011931658,0.0,0.0,0.0,0.0,0.008846283,0.0,0.0,0.0,101.11722,101.11652,4.0651236,0.0,0.0,0.0,0.09014591,0.0,0.0,0.0,0.0,0.11224395,0.0007385513,0.014981088,0.057402793,0.0,0.0,0.0,0.0,0.0,0.0
221547897,0.0,0.0,0.0,-0.6068188,-1.1739237,0.8300934,0.0,0.0,0.0,0.001478076,0.0,0.0,0.0,0.0,0.058481455,0.0,0.0,0.0,101.12057,101.11989,4.065305,0.0,0.0,0.0,0.090145946,0.0,0.0,0.0,0.0,0.11131233,0.00062562164,0.021328665,0.07666738,0.0,0.0,0.0,0.0,0.0,0.0
221755790,0.0,0.0,0.0,-0.53824174,-1.1545861,-0.22647095,0.0,0.0,0.0,-0.036631107,0.0,0.0,0.0,0.0,0.028451204,0.0,0.0,0.0,101.124596,101.12396,4.0654497,0.0,0.0,0.0,0.09014598,0.0,0.0,0.0,0.0,0.12170285,0.0006956988,0.019424452,0.07235099,0.0,0.0,0.0,0.0,0.0,0.0
221953344,0.0,0.0,0.0,-0.48208198,-1.1376942,0.3090973,0.0,0.0,0.0,0.005121112,0.0,0.0,0.0,0.0,0.005473137,0.0,0.0,0.0,101.132866,101.13228,4.065921,0.0,0.0,0.0,0.09014617,0.0,0.0,0.0,0.0,0.117656335,0.0006257531,0.014468526,0.06304737,0.0,0.0,0.0,0.0,0.0,0.0
222153435,0.0,0.0,0.0,-0.4307156,-1.1135308,-0.12535095,0.0,0.0,0.0,-0.006242752,0.0,0.0,0.0,0.0,0.030356646,0.0,0.0,0.0,101.13507,101.13455,4.0658746,0.0,0.0,0.0,0.09014612,0.0,0.0,0.0,0.0,0.1229873,0.0006277104,0.014801064,0.064208545,0.0,0.0,0.0,0.0,0.0,0.0
222361350,0.0,0.0,0.0,-0.37329817,-1.0730087,-0.15710449,0.0,0.0,0.0,-0.011788726,0.0,0.0,0.0,0.0,0.01584196,0.0,0.0,0.0,101.126945,101.126526,4.0649705,0.0,0.0,0.0,0.090146065,0.0,0.0,0.0,0.0,0.119251184,0.00066644617,0.012815072,0.057450052,0.0,0.0,0.0,0.0,0.0,0.0
222561285,0.0,0.0,0.0,-0.32707906,-1.0343393,0.17008972,0.0,0.0,0.0,-0.015530825,0.0,0.0,0.0,0.0,0.013329983,0.0,0.0,0.0,101.11936,101.11903,4.064184,0.0,0.0,0.0,0.09014603,0.0,0.0,0.0,0.0,0.12207498,0.000657963,0.013697881,0.061308995,0.0,0.0,0.0,0.0,0.0,0.0
222762875,0.0,0.0,0.0,-0.28640977,-0.9940334,0.025787354,0.0,0.0,0.0,-0.018169522,0.0,0.0,0.0,0.0,-0.036518335,0.0,0.0,0.0,101.11249,101.11226,4.0634894,0.0,0.0,0.0,0.09014598,0.0,0.0,0.0,0.0,0.12252583,0.0005949583,0.015373172,0.06682436,0.0,0.0,0.0,0.0,0.0,0.0
222970858,0.0,0.0,0.0,-0.24692686,-0.950086,0.497406,0.0,0.0,0.0,0.0029041767,0.0,0.0,0.0,0.0,-0.037589073,0.0,0.0,0.0,101.11226,101.11215,4.06334,0.0,0.0,0.0,0.09014594,0.0,0.0,0.0,0.0,0.12579016,0.0005467682,0.014381918,0.06485748,0.0,0.0,0.0,0.0,0.0,0.0
223170936,0.0,0.0,0.0,-0.2192596,-0.9148028,0.7138214,0.0,0.0,0.0,0.0073179007,0.0,0.0,0.0,0.0,-0.022497177,0.0,0.0,0.0,101.11828,101.118286,4.0637193,0.0,0.0,0.0,0.0901459,0.0,0.0,0.0,0.0,0.12859622,0.00047448179,0.017203016,0.07413813,0.0,0.0,0.0,0.0,0.0,0.0
223371018,0.0,0.0,0.0,-0.19309814,-0.8702218,-0.0046539307,0.0,0.0,0.0,0.025632262,0.0,0.0,0.0,0.0,-0.014648914,0.0,0.0,0.0,101.11582,101.11594,4.063425,0.0,0.0,0.0,0.09014594,0.0,0.0,0.0,0.0,0.13010007,0.00048152986,0.016611993,0.07211765,0.0,0.0,0.0,0.0,0.0,0.0
223576500,0.0,0.0,0.0,-0.1734285,-0.8360033,0.092666626,0.0,0.0,0.0,-0.0024155378,0.0,0.0,0.0,0.0,-0.0576787,0.0,0.0,0.0,101.12511,101.12535,4.0641184,0.0,0.0,0.0,0.09014598,0.0,0.0,0.0,0.0,0.13207763,0.00045510114,0.019376848,0.080380686,0.0,0.0,0.0,0.0,0.0,0.0
223776508,0.0,0.0,0.0,-0.15580577,-0.79434603,-0.1457367,0.0,0.0,0.0,-0.014889717,0.0,0.0,0.0,0.0,-0.02310729,0.0,0.0,0.0,101.12801,101.12838,4.064355,0.0,0.0,0.0,0.09014594,0.0,0.0,0.0,0.0,0.13031098,0.00043886507,0.019570386,0.07786405,0.0,0.0,0.0,0.0,0.0,0.0
223976530,0.0,0.0,0.0,-0.14310683,-0.7561874,0.24546814,0.0,0.0,0.0,-0.0039087534,0.0,0.0,0.0,0.0,-0.031370163,0.0,0.0,0.0,101.12695,101.12743,4.0643077,0.0,0.0,0.0,0.090145975,0.0,0.0,0.0,0.0,0.1262913,0.00042250904,0.018147204,0.0766801,0.0,0.0,0.0,0.0,0.0,0.0
