timestamp,rollspeed,pitchspeed,yawspeed,q[0],q[1],q[2],q[3],delta_q_reset[0],delta_q_reset[1],delta_q_reset[2],delta_q_reset[3],quat_reset_counter
175388525,-0.0003392545,-0.0004877909,0.00096663047,-0.07953549,0.005591498,-0.011940727,-0.9967448,0.44477785,-0.0015886388,-0.005888361,-0.89562017,1
175453409,0.0002841818,0.0025952945,0.0016166609,-0.07951969,0.0056221755,-0.011932613,-0.99674606,0.44477785,-0.0015886388,-0.005888361,-0.89562017,1
175482996,-0.00054481206,-0.0007978062,-0.0006493507,-0.07952751,0.005621119,-0.011924938,-0.9967456,0.44477785,-0.0015886388,-0.005888361,-0.89562017,1
175514882,0.0009451166,0.00047184178,2.7356204e-05,-0.07954019,0.0056214873,-0.011915121,-0.99674463,0.44477785,-0.0015886388,-0.005888361,-0.89562017,1
175546988,0.0009338636,5.354476e-05,0.0009875942,-0.07953387,0.0056242608,-0.011923565,-0.99674505,0.44477785,-0.0015886388,-0.005888361,-0.89562017,1
175579000,-0.00023462204,-0.00038878876,0.0012751282,-0.07951654,0.0056374515,-0.011927241,-0.9967463,0.44477785,-0.0015886388,-0.005888361,-0.89562017,1
175607853,-0.0014061534,0.001435006,0.0027385268,-0.079505265,0.005638938,-0.011925129,-0.99674714,0.44477785,-0.0015886388,-0.005888361,-0.89562017,1
175639723,-2.0942185e-05,-0.0010378686,0.0012748572,-0.07949412,0.0056474553,-0.011923555,-0.9967481,0.44477785,-0.0015886388,-0.005888361,-0.89562017,1
175671656,0.00020196254,0.0004799685,-0.00018997688,-0.07949104,0.0056504305,-0.011914159,-0.99674845,0.44477785,-0.0015886388,-0.005888361,-0.89562017,1
175703703,-9.958679e-05,-0.0014401707,-0.0014827882,-0.07948856,0.005640099,-0.01190663,-0.9967488,0.44477785,-0.0015886388,-0.005888361,-0.89562017,1
175735711,0.0015014492,0.0012445911,-0.010178524,-0.07957679,0.00564889,-0.011917288,-0.9967415,0.44477785,-0.0015886388,-0.005888361,-0.89562017,1
175767862,-0.003959825,-0.002380677,-0.0069587366,-0.079697676,0.005639891,-0.011903988,-0.99673206,0.44477785,-0.0015886388,-0.005888361,-0.89562017,1
175799921,-0.0019688783,0.0006894872,0.004353269,-0.079683654,0.0056436225,-0.011866342,-0.9967336,0.44477785,-0.0015886388,-0.005888361,-0.89562017,1
175827823,-0.0012958143,-0.0016623143,0.009686544,-0.07957105,0.0056297253,-0.01182031,-0.9967432,0.44477785,-0.0015886388,-0.005888361,-0.89562017,1
175859801,-0.0045455974,-0.000831109,0.0113832075,-0.07940542,0.005639977,-0.011800711,-0.9967567,0.44477785,-0.0015886388,-0.005888361,-0.89562017,1
175891689,0.0014453221,-0.00761732,0.0019324309,-0.07927339,0.005607689,-0.011819526,-0.99676704,0.44477785,-0.0015886388,-0.005888361,-0.89562017,1
175923672,-0.0064238952,-0.0054668197,-0.0067863013,-0.079303406,0.0055716867,-0.011770253,-0.99676555,0.44477785,-0.0015886388,-0.005888361,-0.89562017,1
175955882,-0.0014246907,-0.0035476263,-0.007459509,-0.07943532,0.0055709495,-0.011761171,-0.9967551,0.44477785,-0.0015886388,-0.005888361,-0.89562017,1
175987888,-0.00060731196,-0.0017884074,0.0014928242,-0.07949207,0.005608469,-0.011786671,-0.9967501,0.44477785,-0.0015886388,-0.005888361,-0.89562017,1
176019725,-0.0004100001,-0.003479998,0.006389745,-0.07938966,0.0055949255,-0.011789284,-0.9967582,0.44477785,-0.0015886388,-0.005888361,-0.89562017,1
176051950,-0.0062068463,-0.004271062,0.00013424084,-0.07933772,0.005560565,-0.011745419,-0.9967631,0.44477785,-0.0015886388,-0.005888361,-0.89562017,1
176083745,-0.0013300187,0.0015687086,-0.0063757645,-0.07937522,0.005577348,-0.011739125,-0.9967601,0.44477785,-0.0015886388,-0.005888361,-0.89562017,1
176115642,0.0021903748,0.0030902792,-0.00025953667,-0.07941863,0.005600392,-0.011794967,-0.9967559,0.44477785,-0.0015886388,-0.005888361,-0.89562017,1
176149289,0.00589866,-0.009002529,0.0018781945,-0.079392694,0.00553902,-0.011797036,-0.9967582,0.44477785,-0.0015886388,-0.005888361,-0.89562017,1
176177439,-0.005830157,-0.0011887033,0.0025014426,-0.07935855,0.005535937,-0.011757136,-0.9967615,0.44477785,-0.0015886388,-0.005888361,-0.89562017,1
176209473,0.0024837032,0.0023590738,-0.001521932,-0.0793488,0.0055478443,-0.011754799,-0.9967622,0.44477785,-0.0015886388,-0.005888361,-0.89562017,1
176241813,-0.0027182263,-0.0019664373,-0.0018216056,-0.07938213,0.0055600703,-0.011777009,-0.99675924,0.44477785,-0.0015886388,-0.005888361,-0.89562017,1
176273310,-0.0029780164,-0.005465867,-0.00014809205,-0.07940301,0.0055149845,-0.011792343,-0.9967577,0.44477785,-0.0015886388,-0.005888361,-0.89562017,1
176305501,0.004318645,-0.0016491606,0.0010246362,-0.07938792,0.005516913,-0.011761481,-0.9967592,0.44477785,-0.0015886388,-0.005888361,-0.89562017,1
176337764,-0.0020681394,-0.002022308,0.0023208912,-0.0793649,0.005562839,-0.011748325,-0.99676096,0.44477785,-0.0015886388,-0.005888361,-0.89562017,1
176369376,-0.004599599,-0.0044327467,0.0005885645,-0.079344295,0.005532439,-0.011754148,-0.99676263,0.44477785,-0.0015886388,-0.005888361,-0.89562017,1
176401358,-0.003416067,0.00044713286,0.0012485682,-0.079343565,0.0055012773,-0.01175237,-0.9967629,0.44477785,-0.0015886388,-0.005888361,-0.89562017,1
176433568,-0.0002818019,0.0036637373,0.004497337,-0.07927928,0.0055505773,-0.011747,-0.9967679,0.44477785,-0.0015886388,-0.005888361,-0.89562017,1
176465434,-0.0038078288,-0.0020769278,-0.0022706336,-0.079259224,0.0055655655,-0.011734419,-0.9967695,0.44477785,-0.0015886388,-0.005888361,-0.89562017,1
176497370,-0.0030169245,-0.0037550684,-0.0046046237,-0.07931798,0.0055038314,-0.011729297,-0.99676526,0.44477785,-0.0015886388,-0.005888361,-0.89562017,1
176529311,-0.00015130802,0.008889364,-0.002193755,-0.07941061,0.0055238926,-0.011747457,-0.9967575,0.44477785,-0.0015886388,-0.005888361,-0.89562017,1
176561434,-0.0017375392,0.0002775439,0.0031782296,-0.07938438,0.0055607925,-0.011746582,-0.99675936,0.44477785,-0.0015886388,-0.005888361,-0.89562017,1
176593287,0.0060976353,-0.00047396426,0.0049687615,-0.07931125,0.0055234795,-0.0117361,-0.99676555,0.44477785,-0.0015886388,-0.005888361,-0.89562017,1
176625362,0.0031657931,0.003148753,-0.0028057548,-0.07932066,0.005482082,-0.011738617,-0.996765,0.44477785,-0.0015886388,-0.005888361,-0.89562017,1
176657291,0.003986727,0.0066656973,-0.005874287,-0.0793983,0.00553943,-0.011774155,-0.99675804,0.44477785,-0.0015886388,-0.005888361,-0.89562017,1
176689378,0.007781323,0.002181452,0.0019290051,-0.0794288,0.0055300067,-0.011751374,-0.996756,0.44477785,-0.0015886388,-0.005888361,-0.89562017,1
176721248,-0.0006930253,-0.0005268083,0.006070377,-0.079366855,0.005478832,-0.011713196,-0.9967616,0.44477785,-0.0015886388,-0.005888361,-0.89562017,1
176753354,0.0014345346,0.006273004,0.008975982,-0.079263195,0.005510479,-0.011740225,-0.9967694,0.44477785,-0.0015886388,-0.005888361,-0.89562017,1
176785350,0.011936641,-0.003192945,-0.0036564972,-0.079229735,0.005543775,-0.011791732,-0.9967712,0.44477785,-0.0015886388,-0.005888361,-0.89562017,1
176817445,0.00029003283,-0.0050538303,-0.008613338,-0.079355456,0.005480686,-0.011778553,-0.9967618,0.44477785,-0.0015886388,-0.005888361,-0.89562017,1
176849416,0.0018642321,0.005256243,-0.0036709406,-0.07945778,0.005480269,-0.011777441,-0.9967537,0.44477785,-0.0015886388,-0.005888361,-0.89562017,1
176881352,-0.0017388146,0.0016470933,0.0064780223,-0.07942851,0.005543687,-0.011770612,-0.9967557,0.44477785,-0.0015886388,-0.005888361,-0.89562017,1
176913353,-0.0024485332,-0.0010107072,0.0039169816,-0.07932448,0.005501463,-0.011787657,-0.996764,0.44477785,-0.0015886388,-0.005888361,-0.89562017,1
176945395,0.0012575379,0.007401851,-0.001014911,-0.07932593,0.0054707946,-0.011768465,-0.9967643,0.44477785,-0.0015886388,-0.005888361,-0.89562017,1
176977453,-0.005323291,0.010501192,-0.007695381,-0.07942411,0.0055396315,-0.011748242,-0.9967564,0.44477785,-0.0015886388,-0.005888361,-0.89562017,1
177009281,0.00035909633,-0.007882927,0.0014963162,-0.07946676,0.005528919,-0.011751546,-0.9967529,0.44477785,-0.0015886388,-0.005888361,-0.89562017,1
177041379,0.0016947926,-0.0022488062,0.0015471748,-0.07941189,0.0054717823,-0.011762923,-0.9967575,0.44477785,-0.0015886388,-0.005888361,-0.89562017,1
177070923,-0.005192023,0.00039397867,0.0022844162,-0.07934809,0.0055061486,-0.01177263,-0.99676234,0.44477785,-0.0015886388,-0.005888361,-0.89562017,1
177102923,-0.0012616317,-0.0009031836,-0.0036271596,-0.07939134,0.005547369,-0.011744219,-0.9967589,0.44477785,-0.0015886388,-0.005888361,-0.89562017,1
177134998,0.005862859,-0.0018908335,-0.0033090333,-0.07945298,0.005486941,-0.01174998,-0.9967543,0.44477785,-0.0015886388,-0.005888361,-0.89562017,1
177166989,-0.0028787537,0.0045746574,0.002757037,-0.0794609,0.005482654,-0.011776404,-0.9967534,0.44477785,-0.0015886388,-0.005888361,-0.89562017,1
177199101,-0.00031516026,0.0005526807,0.0005615442,-0.07941038,0.0055414313,-0.011808112,-0.99675673,0.44477785,-0.0015886388,-0.005888361,-0.89562017,1
177231029,0.01468616,-0.0046260934,0.00029701012,-0.07942071,0.005504009,-0.011773802,-0.99675643,0.44477785,-0.0015886388,-0.005888361,-0.89562017,1
177258887,0.009780063,-0.00891798,-0.0022450895,-0.07943756,0.0054489444,-0.011764107,-0.9967556,0.44477785,-0.0015886388,-0.005888361,-0.89562017,1
177290993,0.0030659668,0.0017753006,-0.0016446328,-0.079465464,0.0055035506,-0.0118083665,-0.99675256,0.44477785,-0.0015886388,-0.005888361,-0.89562017,1
177322878,-0.016436454,-0.0070282845,0.0011611737,-0.0794673,0.0055059474,-0.011794767,-0.99675256,0.44477785,-0.0015886388,-0.005888361,-0.89562017,1
177355037,0.005490476,-0.011223726,0.0026052669,-0.0794327,0.005430228,-0.01178007,-0.9967559,0.44477785,-0.0015886388,-0.005888361,-0.89562017,1
177386854,-0.012940619,-0.00018963125,-0.0021973858,-0.079421066,0.00545889,-0.011746149,-0.9967571,0.44477785,-0.0015886388,-0.005888361,-0.89562017,1
177419047,0.0033738296,-0.008615097,-0.0031778892,-0.079438955,0.0054717134,-0.011808597,-0.99675477,0.44477785,-0.0015886388,-0.005888361,-0.89562017,1
177450993,-0.0021438894,-0.011113998,-0.0010130147,-0.07947831,0.0054081203,-0.011799416,-0.99675214,0.44477785,-0.0015886388,-0.005888361,-0.89562017,1
177483045,-0.018583722,-0.0022405817,0.0014666271,-0.07944432,0.0054043303,-0.011731519,-0.9967557,0.44477785,-0.0015886388,-0.005888361,-0.89562017,1
177514893,-0.006267149,-0.009034473,-0.0012782554,-0.0794331,0.0054505365,-0.011739454,-0.9967562,0.44477785,-0.0015886388,-0.005888361,-0.89562017,1
177546903,0.009877544,0.000789457,-0.00050497905,-0.07946313,0.005420637,-0.011805409,-0.99675316,0.44477785,-0.0015886388,-0.005888361,-0.89562017,1
177579049,0.002873667,-0.011582392,0.0013789182,-0.07948621,0.0053781695,-0.01182855,-0.9967513,0.44477785,-0.0015886388,-0.005888361,-0.89562017,1
177610887,0.003980387,0.0010147993,0.001657153,-0.07945872,0.005445103,-0.01180759,-0.99675345,0.44477785,-0.0015886388,-0.005888361,-0.89562017,1
177642902,0.005289372,-0.0016929996,0.0004966558,-0.07946388,0.0054359287,-0.011795453,-0.9967532,0.44477785,-0.0015886388,-0.005888361,-0.89562017,1
177674896,0.00044662145,0.0008024422,-0.0010244437,-0.07948661,0.0053927614,-0.011807841,-0.9967515,0.44477785,-0.0015886388,-0.005888361,-0.89562017,1
177706963,0.006219348,0.0057752533,0.0028765146,-0.07946728,0.005443498,-0.011842471,-0.9967523,0.44477785,-0.0015886388,-0.005888361,-0.89562017,1
177735053,-0.0017319196,0.005810174,-0.0008524114,-0.07946241,0.0054654228,-0.011813566,-0.9967529,0.44477785,-0.0015886388,-0.005888361,-0.89562017,1
177767065,0.00042745983,-4.0555955e-05,-0.0019163876,-0.07949465,0.0054346374,-0.01179275,-0.9967507,0.44477785,-0.0015886388,-0.005888361,-0.89562017,1
177798942,0.009364564,0.0020664264,0.00034388772,-0.0795046,0.005443222,-0.011831054,-0.99674946,0.44477785,-0.0015886388,-0.005888361,-0.89562017,1
177831031,-0.0002990747,0.0025949087,0.0019391361,-0.079468735,0.0054824576,-0.011858787,-0.9967518,0.44477785,-0.0015886388,-0.005888361,-0.89562017,1
177862869,-0.008683883,0.0019543662,-0.0028688917,-0.07948823,0.005428786,-0.011836096,-0.9967508,0.44477785,-0.0015886388,-0.005888361,-0.89562017,1
177894898,0.00018417754,0.0013441885,-0.0011610902,-0.07951932,0.0054147895,-0.011831471,-0.99674845,0.44477785,-0.0015886388,-0.005888361,-0.89562017,1
177927019,-0.0030136788,0.0020746603,0.0003911804,-0.07952967,0.0054760734,-0.011846881,-0.99674714,0.44477785,-0.0015886388,-0.005888361,-0.89562017,1
177958898,0.0022704222,-0.007126105,0.0013419365,-0.07949251,0.005442442,-0.011887711,-0.9967497,0.44477785,-0.0015886388,-0.005888361,-0.89562017,1
177988554,0.0068494654,-0.003026452,0.00040883833,-0.07949356,0.005401778,-0.011892608,-0.9967498,0.44477785,-0.0015886388,-0.005888361,-0.89562017,1
178020623,-0.0027815572,-0.0007766017,-0.00247399,-0.07950891,0.0054314835,-0.011860514,-0.9967488,0.44477785,-0.0015886388,-0.005888361,-0.89562017,1
178052562,-0.008151071,0.0036446766,0.0020225823,-0.07953358,0.0054653194,-0.011861319,-0.99674666,0.44477785,-0.0015886388,-0.005888361,-0.89562017,1
178084494,-0.002251008,-0.007368924,7.083255e-05,-0.07952173,0.005404701,-0.011902699,-0.99674743,0.44477785,-0.0015886388,-0.005888361,-0.89562017,1
178116572,-0.0015834009,0.004769511,0.002647079,-0.07951061,0.005430294,-0.011895209,-0.99674827,0.44477785,-0.0015886388,-0.005888361,-0.89562017,1
178148552,0.0013915306,0.0010212979,-0.0015973181,-0.07953766,0.0054538255,-0.011868482,-0.99674636,0.44477785,-0.0015886388,-0.005888361,-0.89562017,1
178180947,-0.002832636,-0.009208842,0.0027026273,-0.07953611,0.005411199,-0.011867373,-0.99674666,0.44477785,-0.0015886388,-0.005888361,-0.89562017,1
178212481,0.010460906,-0.006886188,-0.001377285,-0.07954542,0.005385851,-0.011913548,-0.9967455,0.44477785,-0.0015886388,-0.005888361,-0.89562017,1
178244570,0.0008314956,0.004008969,-0.001363688,-0.07953872,0.005423076,-0.011891889,-0.9967461,0.44477785,-0.0015886388,-0.005888361,-0.89562017,1
178276614,-0.008977449,-0.00010755146,-0.0022388366,-0.079565205,0.005408785,-0.011847822,-0.99674463,0.44477785,-0.0015886388,-0.005888361,-0.89562017,1
178308523,0.00880167,-0.0073966705,-0.0014082008,-0.07957523,0.0053721964,-0.011901681,-0.9967434,0.44477785,-0.0015886388,-0.005888361,-0.89562017,1
178340520,0.0118770115,0.0068738014,-0.00036409474,-0.079608686,0.005401002,-0.011942739,-0.99674004,0.44477785,-0.0015886388,-0.005888361,-0.89562017,1
178368759,0.014640168,-0.0051813098,-0.0014100099,-0.07963425,0.0053930446,-0.011948997,-0.996738,0.44477785,-0.0015886388,-0.005888361,-0.89562017,1
178400503,0.000485491,-0.003343308,0.00030975975,-0.07965097,0.005387482,-0.011923928,-0.99673694,0.44477785,-0.0015886388,-0.005888361,-0.89562017,1
178432537,0.0028047706,0.0032801242,0.0002302085,-0.07962716,0.0053897253,-0.0119463615,-0.9967386,0.44477785,-0.0015886388,-0.005888361,-0.89562017,1
178464605,-0.0012878631,-0.0022299038,0.00018012762,-0.07962134,0.0054028677,-0.012000532,-0.9967384,0.44477785,-0.0015886388,-0.005888361,-0.89562017,1
178496569,-0.006017331,-0.00481029,-0.00342015,-0.07964919,0.005393095,-0.011972535,-0.9967365,0.44477785,-0.0015886388,-0.005888361,-0.89562017,1
178528535,0.0013469192,0.0017582742,-0.0013674693,-0.07967677,0.0053754156,-0.011982849,-0.9967342,0.44477785,-0.0015886388,-0.005888361,-0.89562017,1
178560627,-0.0016518505,-0.0025970188,-0.0009906804,-0.07971912,0.005353443,-0.011984582,-0.996731,0.44477785,-0.0015886388,-0.005888361,-0.89562017,1
178592496,-0.00281013,-0.00094833446,0.0036875675,-0.0796653,0.0053568557,-0.011961524,-0.9967356,0.44477785,-0.0015886388,-0.005888361,-0.89562017,1
178620583,-0.007322699,-0.0027900748,0.010766213,-0.079555444,0.0053427084,-0.0118552465,-0.9967457,0.44477785,-0.0015886388,-0.005888361,-0.89562017,1
178652448,-0.009584227,0.009896151,0.006777907,-0.07935418,0.0053618127,-0.011660949,-0.99676394,0.44477785,-0.0015886388,-0.005888361,-0.89562017,1
178684524,0.02540055,-0.017579667,-0.007945422,-0.079355665,0.0053010997,-0.011435837,-0.99676675,0.44477785,-0.0015886388,-0.005888361,-0.89562017,1
178716511,0.0073542167,-0.011219802,-0.016666433,-0.07953724,0.0052547464,-0.011299975,-0.99675405,0.44477785,-0.0015886388,-0.005888361,-0.89562017,1
178748539,0.002211669,-0.019093497,-0.0066335984,-0.079648465,0.005227246,-0.011312322,-0.9967451,0.44477785,-0.0015886388,-0.005888361,-0.89562017,1
178780696,-0.05978856,-0.017574212,0.00072183175,-0.07961664,0.0052156067,-0.0112036355,-0.996749,0.44477785,-0.0015886388,-0.005888361,-0.89562017,1
178812501,-0.0038952618,0.0050865132,0.0010176053,-0.07958197,0.0052383635,-0.011127656,-0.9967525,0.44477785,-0.0015886388,-0.005888361,-0.89562017,1
178844502,0.0033781826,-0.0012926395,0.0032093804,-0.079575606,0.0052243643,-0.011120155,-0.99675316,0.44477785,-0.0015886388,-0.005888361,-0.89562017,1
178876616,0.0066843927,0.0064843413,-0.0042613163,-0.07960359,0.005203936,-0.0111927595,-0.99675024,0.44477785,-0.0015886388,-0.005888361,-0.89562017,1
178910166,0.015475763,-0.012570773,-0.002032171,-0.07961583,0.005161638,-0.011219733,-0.99674916,0.44477785,-0.0015886388,-0.005888361,-0.89562017,1
178942056,-0.010146098,-0.011572904,-0.010959266,-0.07961994,0.0051553217,-0.011076419,-0.9967504,0.44477785,-0.0015886388,-0.005888361,-0.89562017,1
178974186,0.0032128731,0.014389347,-0.0026886077,-0.07960117,0.0051912274,-0.01104064,-0.9967522,0.44477785,-0.0015886388,-0.005888361,-0.89562017,1
179006061,0.016418822,0.032375716,0.0034796712,-0.07962183,0.0051555694,-0.010937496,-0.99675184,0.44477785,-0.0015886388,-0.005888361,-0.89562017,1
179038276,-0.041345183,-0.020244174,0.00042979937,-0.07962584,0.0050889584,-0.010819992,-0.9967531,0.44477785,-0.0015886388,-0.005888361,-0.89562017,1
179070053,-0.016896782,0.02471793,-0.014220287,-0.07963427,0.005152066,-0.010785935,-0.99675256,0.44477785,-0.0015886388,-0.005888361,-0.89562017,1
179102155,-0.070781015,-0.044364072,0.01807482,-0.0796271,0.0050312104,-0.010742487,-0.9967541,0.44477785,-0.0015886388,-0.005888361,-0.89562017,1
179134128,0.06467418,-0.0097006885,-0.0149133075,-0.07965167,0.005016689,-0.010851606,-0.9967511,0.44477785,-0.0015886388,-0.005888361,-0.89562017,1
179166221,0.016655695,0.0065953415,0.0012672605,-0.07965922,0.004959551,-0.010911289,-0.9967502,0.44477785,-0.0015886388,-0.005888361,-0.89562017,1
179198164,-0.0057075582,0.018650709,0.012976679,-0.07963639,0.004957104,-0.010760557,-0.9967536,0.44477785,-0.0015886388,-0.005888361,-0.89562017,1
179230039,0.003272109,0.022507932,0.009491138,-0.079634525,0.005003625,-0.010755247,-0.9967536,0.44477785,-0.0015886388,-0.005888361,-0.89562017,1
179262076,0.017179916,-0.02119916,-0.0048777526,-0.079683766,0.0049761753,-0.010743096,-0.9967499,0.44477785,-0.0015886388,-0.005888361,-0.89562017,1
179294079,-0.022687066,-0.006100258,0.003174907,-0.07970953,0.0050074244,-0.010710703,-0.99674803,0.44477785,-0.0015886388,-0.005888361,-0.89562017,1
179326100,-0.009232131,-0.008819997,0.0037687924,-0.07975316,0.0050323335,-0.01064848,-0.9967451,0.44477785,-0.0015886388,-0.005888361,-0.89562017,1
179358133,0.017163364,-0.075989984,-0.0019179654,-0.07980652,0.004922704,-0.010714151,-0.99674064,0.44477785,-0.0015886388,-0.005888361,-0.89562017,1
179390130,0.052190706,0.060909033,0.0075084656,-0.079770826,0.005034872,-0.010793212,-0.9967421,0.44477785,-0.0015886388,-0.005888361,-0.89562017,1
179422113,-0.0998524,-0.0114306575,0.00726351,-0.07974867,0.0049897195,-0.010672413,-0.99674547,0.44477785,-0.0015886388,-0.005888361,-0.89562017,1
179450158,-0.07867906,-0.024658086,0.009005193,-0.07979397,0.0049319873,-0.010643527,-0.99674237,0.44477785,-0.0015886388,-0.005888361,-0.89562017,1
179482271,0.026920354,0.0068692435,0.0020800414,-0.07982171,0.00504479,-0.010509326,-0.99674106,0.44477785,-0.0015886388,-0.005888361,-0.89562017,1
179514158,-0.002079465,0.011107778,-0.009887309,-0.07984806,0.005068822,-0.010382763,-0.99674016,0.44477785,-0.0015886388,-0.005888361,-0.89562017,1
179546077,-0.08063022,0.00062357506,-0.0010618613,-0.079919845,0.004985875,-0.01002653,-0.99673843,0.44477785,-0.0015886388,-0.005888361,-0.89562017,1
179578158,-0.013104274,-0.010674544,-0.007219,-0.0799197,0.005001405,-0.009612543,-0.9967425,0.44477785,-0.0015886388,-0.005888361,-0.89562017,1
179610161,-0.05086398,0.020481624,-0.005390821,-0.07998195,0.005148817,-0.0091254935,-0.99674124,0.44477785,-0.0015886388,-0.005888361,-0.89562017,1
179642218,-0.0064827967,-0.025711004,0.0005967971,-0.08000313,0.005158063,-0.009082467,-0.9967399,0.44477785,-0.0015886388,-0.005888361,-0.89562017,1
179674151,-0.03177884,-0.011049466,-0.00049521786,-0.07996935,0.005090225,-0.008883609,-0.9967448,0.44477785,-0.0015886388,-0.005888361,-0.89562017,1
179702063,0.05219376,-0.018523488,0.0031949733,-0.079970025,0.0050864834,-0.008703395,-0.99674636,0.44477785,-0.0015886388,-0.005888361,-0.89562017,1
179734093,-0.0490672,0.018088784,-0.00067933695,-0.07996162,0.005195488,-0.008422599,-0.9967488,0.44477785,-0.0015886388,-0.005888361,-0.89562017,1
179766253,-0.0011737191,-0.030288791,-0.0052403538,-0.07998963,0.005081662,-0.008411135,-0.9967473,0.44477785,-0.0015886388,-0.005888361,-0.89562017,1
179798109,0.022498451,-0.026469503,-0.0036268597,-0.08003146,0.0050228536,-0.007952513,-0.99674803,0.44477785,-0.0015886388,-0.005888361,-0.89562017,1
179831733,-0.0019206447,0.0070836158,0.012448763,-0.08003635,0.0052486914,-0.007544817,-0.9967496,0.44477785,-0.0015886388,-0.005888361,-0.89562017,1
179859747,-0.06308672,-0.04771432,-0.0071597435,-0.08003351,0.00516753,-0.0071283034,-0.99675333,0.44477785,-0.0015886388,-0.005888361,-0.89562017,1
179891672,-0.104292296,-0.049560353,-0.003985971,-0.079995885,0.005094916,-0.0064852834,-0.99676114,0.44477785,-0.0015886388,-0.005888361,-0.89562017,1
179923657,0.1295786,-0.03114457,-0.01485277,-0.08004239,0.0048676124,-0.0062060556,-0.9967603,0.44477785,-0.0015886388,-0.005888361,-0.89562017,1
179955677,-0.12975535,0.044623286,0.0125296945,-0.08001372,0.004966917,-0.0054978244,-0.9967663,0.44477785,-0.0015886388,-0.005888361,-0.89562017,1
179987842,0.0396767,0.0680269,-0.025422174,-0.08007206,0.005108056,-0.005344156,-0.9967617,0.44477785,-0.0015886388,-0.005888361,-0.89562017,1
180019823,0.110183805,0.022562342,0.0015843771,-0.080088355,0.0050052116,-0.0056209574,-0.9967594,0.44477785,-0.0015886388,-0.005888361,-0.89562017,1
180051737,-0.036872208,0.045078695,0.015926111,-0.080063894,0.0054459553,-0.005269813,-0.99676096,0.44477785,-0.0015886388,-0.005888361,-0.89562017,1
180083715,0.09082473,-0.0021784785,-0.00905596,-0.080176994,0.0051547396,-0.004908391,-0.99675524,0.44477785,-0.0015886388,-0.005888361,-0.89562017,1
180115773,0.05317808,-0.014741563,0.00959919,-0.08026388,0.0053555137,-0.005239239,-0.9967456,0.44477785,-0.0015886388,-0.005888361,-0.89562017,1
180147806,-0.065571874,-0.00832271,-0.00081091456,-0.08023984,0.005170677,-0.0049123904,-0.9967501,0.44477785,-0.0015886388,-0.005888361,-0.89562017,1
180179878,-0.027617622,0.02071178,0.007336799,-0.08026291,0.0052483147,-0.005161882,-0.9967466,0.44477785,-0.0015886388,-0.005888361,-0.89562017,1
180211736,-0.077739924,-0.05418158,0.038839154,-0.080219865,0.0053611933,-0.0046451525,-0.99675196,0.44477785,-0.0015886388,-0.005888361,-0.89562017,1
180243775,0.08519937,-0.022744091,0.00441395,-0.0803175,0.005339732,-0.0047431146,-0.99674374,0.44477785,-0.0015886388,-0.005888361,-0.89562017,1
180275785,-0.060028892,0.01955466,0.034361746,-0.0803298,0.0052998164,-0.0053559425,-0.99673986,0.44477785,-0.0015886388,-0.005888361,-0.89562017,1
180308161,-0.08712862,0.06770776,0.013040679,-0.080244355,0.00560939,-0.0046113865,-0.99674875,0.44477785,-0.0015886388,-0.005888361,-0.89562017,1
180339735,0.14757384,-0.040014796,0.028118758,-0.080224715,0.0053029326,-0.005171988,-0.99674934,0.44477785,-0.0015886388,-0.005888361,-0.89562017,1
180371696,-0.09494444,-0.06998473,0.045318194,-0.08013771,0.005144079,-0.004820424,-0.9967589,0.44477785,-0.0015886388,-0.005888361,-0.89562017,1
180403740,-0.05752253,-0.057683185,-0.009134008,-0.08005531,0.005035126,-0.0042078015,-0.9967689,0.44477785,-0.0015886388,-0.005888361,-0.89562017,1
180435676,0.055719957,-0.022647759,-0.021252437,-0.08021743,0.0050385706,-0.0050269105,-0.996752,0.44477785,-0.0015886388,-0.005888361,-0.89562017,1
180467818,-0.07045625,-0.024814285,0.016039899,-0.080200255,0.0047680316,-0.005089209,-0.9967544,0.44477785,-0.0015886388,-0.005888361,-0.89562017,1
180499766,0.08197099,0.023405097,0.046752647,-0.079990156,0.0047659725,-0.0049410164,-0.996772,0.44477785,-0.0015886388,-0.005888361,-0.89562017,1
180531789,0.0071529713,0.032209523,0.016565736,-0.07995065,0.0047789644,-0.005269565,-0.9967735,0.44477785,-0.0015886388,-0.005888361,-0.89562017,1
180559788,-0.011143645,-0.01768986,0.029262133,-0.079855934,0.0047966945,-0.0041206013,-0.9967864,0.44477785,-0.0015886388,-0.005888361,-0.89562017,1
180591673,-0.010284822,0.14446247,0.059643153,-0.07960439,0.00467075,-0.0025532562,-0.9968124,0.44477785,-0.0015886388,-0.005888361,-0.89562017,1
180623760,-0.09266731,-0.3113399,0.014917572,-0.07936558,0.003656256,-0.0011677784,-0.9968382,0.44477785,-0.0015886388,-0.005888361,-0.89562017,1
180655709,-0.21598396,0.29739988,0.030295221,-0.07901405,0.0041450905,0.0028389432,-0.99686086,0.44477785,-0.0015886388,-0.005888361,-0.89562017,1
180687894,-0.38929266,-0.2955916,0.007886389,-0.07879631,0.0021875307,0.0075228484,-0.99686,0.44477785,-0.0015886388,-0.005888361,-0.89562017,1
180716534,0.036239814,0.22705805,0.0061784694,-0.07870965,0.0030223785,0.008789529,-0.99685425,0.44477785,-0.0015886388,-0.005888361,-0.89562017,1
180749320,-0.020499906,0.080087885,0.016035348,-0.07864423,0.002904534,0.009799525,-0.9968504,0.44477785,-0.0015886388,-0.005888361,-0.89562017,1
180781568,-0.2099084,-0.22412767,-0.050329912,-0.07855486,0.0016119233,0.011974867,-0.9968366,0.44477785,-0.0015886388,-0.005888361,-0.89562017,1
180813516,-0.13546069,-0.11336437,0.03965485,-0.07837739,0.0009803901,0.013159938,-0.9968365,0.44477785,-0.0015886388,-0.005888361,-0.89562017,1
180845340,0.024852924,-0.04238959,0.05389051,-0.078235105,0.0011095343,0.012602479,-0.99685466,0.44477785,-0.0015886388,-0.005888361,-0.89562017,1
180877328,0.16912739,0.06546397,-0.020290587,-0.07806046,0.0014009004,0.013615936,-0.99685466,0.44477785,-0.0015886388,-0.005888361,-0.89562017,1
180909412,-0.077156395,0.15065105,0.03532011,-0.07793749,0.00071212614,0.014438911,-0.9968535,0.44477785,-0.0015886388,-0.005888361,-0.89562017,1
180937304,0.022516783,-0.07887053,0.0070971316,-0.07786125,0.0008996266,0.014081345,-0.99686444,0.44477785,-0.0015886388,-0.005888361,-0.89562017,1
180969342,0.07833053,0.2810721,0.03892394,-0.077713855,0.0010884922,0.013542495,-0.9968832,0.44477785,-0.0015886388,-0.005888361,-0.89562017,1
181001259,-0.07155426,-0.019914275,0.0030066508,-0.07764627,0.00037121697,0.014063432,-0.9968817,0.44477785,-0.0015886388,-0.005888361,-0.89562017,1
181033303,-0.07559238,-0.29757398,-0.0082661025,-0.07768508,0.0003378775,0.014714882,-0.9968693,0.44477785,-0.0015886388,-0.005888361,-0.89562017,1
181065304,-0.09967676,0.10419846,0.0160803,-0.07761543,-3.7248912e-05,0.014753297,-0.9968743,0.44477785,-0.0015886388,-0.005888361,-0.89562017,1
181097334,0.15398666,-0.07633003,-0.010684353,-0.07755318,-0.0015491326,0.014418514,-0.99688274,0.44477785,-0.0015886388,-0.005888361,-0.89562017,1
181129254,0.137353,0.015515458,0.0014239927,-0.07748284,-0.0014007152,0.014042038,-0.9968938,0.44477785,-0.0015886388,-0.005888361,-0.89562017,1
181161346,-0.15482457,0.13069707,0.031852864,-0.0772742,-0.0013515812,0.013854612,-0.9969127,0.44477785,-0.0015886388,-0.005888361,-0.89562017,1
181193317,-0.09913407,-0.32080442,0.038340963,-0.07706561,-0.0026939008,0.015265932,-0.99690557,0.44477785,-0.0015886388,-0.005888361,-0.89562017,1
181225524,0.090261474,-0.14959846,0.008169923,-0.076794446,-0.002822543,0.015491667,-0.9969227,0.44477785,-0.0015886388,-0.005888361,-0.89562017,1
181257385,0.10957607,0.20264743,0.04325643,-0.07653047,-0.0021968293,0.014472791,-0.99695987,0.44477785,-0.0015886388,-0.005888361,-0.89562017,1
181289393,-0.09736193,0.07224037,0.01096161,-0.07626336,-0.002061808,0.014702064,-0.9969772,0.44477785,-0.0015886388,-0.005888361,-0.89562017,1
181321348,0.048371155,-0.049145285,0.005704785,-0.07592435,-0.00216629,0.0150294565,-0.996998,0.44477785,-0.0015886388,-0.005888361,-0.89562017,1
181639028,0.019002805,0.23092529,0.021136072,-0.07257004,-0.0005822074,0.011166437,-0.9973007,0.44477785,-0.0015886388,-0.005888361,-0.89562017,1
181671094,-0.0032380582,-0.10690592,0.018770605,-0.07223622,-0.0009966716,0.011094526,-0.9973254,0.44477785,-0.0015886388,-0.005888361,-0.89562017,1
181703064,0.007866317,-0.11651633,-0.009591082,-0.07197559,-0.00087614794,0.010911216,-0.9973464,0.44477785,-0.0015886388,-0.005888361,-0.89562017,1
181735128,-0.12400861,0.026891695,0.032113053,-0.07178878,-0.00096746295,0.010595989,-0.99736315,0.44477785,-0.0015886388,-0.005888361,-0.89562017,1
181766886,0.014536187,-0.11276703,-0.028678952,-0.07174439,-0.0010282627,0.010415837,-0.9973682,0.44477785,-0.0015886388,-0.005888361,-0.89562017,1
181794853,-0.104926,0.098207645,-0.0016444575,-0.07174395,-0.0009002179,0.010915986,-0.997363,0.44477785,-0.0015886388,-0.005888361,-0.89562017,1
181826912,-0.10695843,-0.10293056,-0.0036765095,-0.07174371,-0.00043307026,0.0115013495,-0.9973567,0.44477785,-0.0015886388,-0.005888361,-0.89562017,1
181858861,-0.021372402,-0.01770145,0.023640564,-0.07176809,-0.00012657972,0.012027408,-0.99734885,0.44477785,-0.0015886388,-0.005888361,-0.89562017,1
181890982,-0.018084632,-0.19189404,-0.019302132,-0.07191628,-0.0010550914,0.011974934,-0.99733824,0.44477785,-0.0015886388,-0.005888361,-0.89562017,1
181922817,-0.05447042,0.09706405,0.0045798714,-0.07190042,-0.0015487581,0.0125093805,-0.9973322,0.44477785,-0.0015886388,-0.005888361,-0.89562017,1
181954878,0.1707527,0.07058923,-0.0052306186,-0.071921766,-0.00180339,0.012585035,-0.99732924,0.44477785,-0.0015886388,-0.005888361,-0.89562017,1
181986913,0.15789483,0.036060482,-0.028314775,-0.07204068,-0.0008166317,0.010479363,-0.99734634,0.44477785,-0.0015886388,-0.005888361,-0.89562017,1
182019001,-0.022863623,0.22286564,0.009813999,-0.072146624,0.00010740763,0.008967942,-0.9973538,0.44477785,-0.0015886388,-0.005888361,-0.89562017,1
182050996,9.9204946e-05,-0.23345554,-0.012863254,-0.072272755,0.00044203806,0.009779575,-0.9973369,0.44477785,-0.0015886388,-0.005888361,-0.89562017,1
182082883,0.091731325,-0.0063011656,0.010908959,-0.07245355,0.0010025091,0.009068176,-0.9973301,0.44477785,-0.0015886388,-0.005888361,-0.89562017,1
182114923,0.034198392,0.019039966,0.0069817933,-0.07265534,0.0004213924,0.008575336,-0.99732023,0.44477785,-0.0015886388,-0.005888361,-0.89562017,1
182146976,-0.069284685,-0.0754741,-0.023298291,-0.07275044,-0.00043894758,0.009746925,-0.9973025,0.44477785,-0.0015886388,-0.005888361,-0.89562017,1
182178928,-0.017357836,0.17774457,0.015536218,-0.07266049,-0.00030410403,0.0103201,-0.99730337,0.44477785,-0.0015886388,-0.005888361,-0.89562017,1
182210903,-0.027750181,0.00849205,0.011820212,-0.072725,-0.00036749765,0.010072565,-0.9973011,0.44477785,-0.0015886388,-0.005888361,-0.89562017,1
182243066,-0.017376265,-0.047896687,0.022002174,-0.07274382,-0.0008196366,0.011056251,-0.9972891,0.44477785,-0.0015886388,-0.005888361,-0.89562017,1
182270893,-0.05771455,0.05092818,0.017709326,-0.07266612,-0.0013552486,0.011591481,-0.9972881,0.44477785,-0.0015886388,-0.005888361,-0.89562017,1
182302931,0.11679079,0.0070083602,0.008448536,-0.07248944,-0.001179858,0.010576212,-0.9973125,0.44477785,-0.0015886388,-0.005888361,-0.89562017,1
182334969,0.05161904,0.046877924,-0.004098686,-0.072393395,-0.00035753785,0.010053602,-0.9973254,0.44477785,-0.0015886388,-0.005888361,-0.89562017,1
182366884,0.07143448,-0.022027697,-0.00033644005,-0.07222254,-0.0004041059,0.010876036,-0.99732924,0.44477785,-0.0015886388,-0.005888361,-0.89562017,1
182398915,0.12408212,0.10812049,0.032190003,-0.07200648,-0.00017970441,0.010522298,-0.9973487,0.44477785,-0.0015886388,-0.005888361,-0.89562017,1
182430972,0.045636285,0.08117245,0.027530689,-0.071751,0.0005240252,0.009640289,-0.99737585,0.44477785,-0.0015886388,-0.005888361,-0.89562017,1
182462916,-0.062555864,-0.03987711,0.030211434,-0.07152325,0.001445111,0.009329781,-0.9973943,0.44477785,-0.0015886388,-0.005888361,-0.89562017,1
182495031,-0.053832132,-0.20293796,0.014575827,-0.07144262,0.0009021461,0.009823986,-0.997396,0.44477785,-0.0015886388,-0.005888361,-0.89562017,1
182522921,0.16846527,0.18668963,0.0014970752,-0.07144733,0.00081158435,0.0096448315,-0.9973975,0.44477785,-0.0015886388,-0.005888361,-0.89562017,1
182555809,0.053707074,0.11075127,0.017918471,-0.071531035,0.0014512726,0.0091954805,-0.9973949,0.44477785,-0.0015886388,-0.005888361,-0.89562017,1
182587829,-0.088538796,0.0509919,-0.0036978533,-0.071626425,0.0023487834,0.010681947,-0.9973716,0.44477785,-0.0015886388,-0.005888361,-0.89562017,1
182620506,0.029789623,-0.032671988,-0.028333308,-0.07173743,0.00298022,0.012203988,-0.9973445,0.44477785,-0.0015886388,-0.005888361,-0.89562017,1
182652667,-0.1012767,0.15456691,-0.019694138,-0.07200457,0.0041716774,0.012520088,-0.9973171,0.44477785,-0.0015886388,-0.005888361,-0.89562017,1
182684584,-0.08545293,0.13673508,-0.0029258304,-0.07217783,0.0057270373,0.013435763,-0.9972849,0.44477785,-0.0015886388,-0.005888361,-0.89562017,1
182716523,0.034438357,0.070611924,-0.006638097,-0.07247143,0.006931409,0.013767028,-0.9972514,0.44477785,-0.0015886388,-0.005888361,-0.89562017,1
182748598,0.060421437,0.15482894,-0.011772432,-0.072716415,0.009562391,0.014053123,-0.9972078,0.44477785,-0.0015886388,-0.005888361,-0.89562017,1
182780535,-0.07895243,0.25998688,0.00048615932,-0.0729885,0.011673266,0.014626477,-0.9971572,0.44477785,-0.0015886388,-0.005888361,-0.89562017,1
182812589,-0.16004804,-0.18341549,-0.03548175,-0.073349625,0.012889777,0.01589725,-0.99709624,0.44477785,-0.0015886388,-0.005888361,-0.89562017,1
182844504,-0.050686546,0.055541683,-0.018204732,-0.07378388,0.01454709,0.01634983,-0.9970342,0.44477785,-0.0015886388,-0.005888361,-0.89562017,1
182876499,0.021770876,0.0644528,-0.039162476,-0.07428594,0.014860713,0.01643984,-0.9969908,0.44477785,-0.0015886388,-0.005888361,-0.89562017,1
182908554,0.084936276,0.14132303,-0.026117932,-0.07481094,0.01597442,0.01745698,-0.99691695,0.44477785,-0.0015886388,-0.005888361,-0.89562017,1
182940581,-0.30527866,0.1425449,-0.00214488,-0.075165436,0.018238412,0.01990324,-0.9968056,0.44477785,-0.0015886388,-0.005888361,-0.89562017,1
182972441,-0.13232903,-0.0557166,-0.022588976,-0.07555172,0.019782625,0.022093982,-0.9967008,0.44477785,-0.0015886388,-0.005888361,-0.89562017,1
183004456,-0.07771222,0.06839863,-0.00050367764,-0.07592924,0.021516852,0.022935307,-0.9966172,0.44477785,-0.0015886388,-0.005888361,-0.89562017,1
183036514,-0.13382854,0.22550412,0.0031412966,-0.07627817,0.025359938,0.025242407,-0.9964444,0.44477785,-0.0015886388,-0.005888361,-0.89562017,1
183068440,-0.34576264,0.45296404,-0.043084167,-0.07649746,0.030315867,0.02944618,-0.99617374,0.44477785,-0.0015886388,-0.005888361,-0.89562017,1
183100478,-0.21600786,0.1202028,-0.020218875,-0.0765472,0.0329106,0.032546856,-0.99599105,0.44477785,-0.0015886388,-0.005888361,-0.89562017,1
183128488,0.07296611,0.23907815,-0.015992813,-0.07683288,0.034010887,0.032418046,-0.99593633,0.44477785,-0.0015886388,-0.005888361,-0.89562017,1
183160539,0.10493197,-0.046069626,-0.009164239,-0.077190675,0.03399659,0.03238334,-0.9959103,0.44477785,-0.0015886388,-0.005888361,-0.89562017,1
183192512,-0.1885541,0.06950833,-0.02893456,-0.07739081,0.034061383,0.03308764,-0.9958694,0.44477785,-0.0015886388,-0.005888361,-0.89562017,1
183224601,0.0066143647,-0.23979509,-2.0822801e-05,-0.07764656,0.033261783,0.032342147,-0.9959009,0.44477785,-0.0015886388,-0.005888361,-0.89562017,1
183256603,0.046518866,0.032210726,0.011196579,-0.078042746,0.033345047,0.031699896,-0.9958879,0.44477785,-0.0015886388,-0.005888361,-0.89562017,1
183288661,0.08476434,0.1739735,-0.029554697,-0.07842303,0.034490157,0.032149535,-0.9958046,0.44477785,-0.0015886388,-0.005888361,-0.89562017,1
183320606,0.090735905,-0.023300836,0.020347405,-0.07852913,0.03376719,0.032405026,-0.99581265,0.44477785,-0.0015886388,-0.005888361,-0.89562017,1
183352544,0.1901926,-0.5260729,-0.01575917,-0.078724176,0.0299044,0.030051341,-0.99599457,0.44477785,-0.0015886388,-0.005888361,-0.89562017,1
183380500,0.47682226,-0.41488934,-0.018426936,-0.078957565,0.024649028,0.025293523,-0.99625224,0.44477785,-0.0015886388,-0.005888361,-0.89562017,1
183412531,0.274522,-0.32151076,-0.021331836,-0.07920478,0.018866781,0.020460874,-0.99646986,0.44477785,-0.0015886388,-0.005888361,-0.89562017,1
183444599,0.17903778,-0.21884078,0.011435313,-0.0793368,0.013864131,0.016591016,-0.9966134,0.44477785,-0.0015886388,-0.005888361,-0.89562017,1
183477255,0.14447007,-0.3360889,0.008852921,-0.07954415,0.010096734,0.013098098,-0.99669415,0.44477785,-0.0015886388,-0.005888361,-0.89562017,1
183509326,0.21881455,-0.14531985,-0.021681622,-0.079732895,0.008173729,0.010090935,-0.99673176,0.44477785,-0.0015886388,-0.005888361,-0.89562017,1
183541329,0.078655586,0.059950724,0.0034247818,-0.07975289,0.006200129,0.008603869,-0.9967583,0.44477785,-0.0015886388,-0.005888361,-0.89562017,1
183569359,0.11024775,-0.39109805,0.0035549067,-0.079744354,0.0028328334,0.0073505533,-0.99678427,0.44477785,-0.0015886388,-0.005888361,-0.89562017,1
183601415,0.33231467,-0.1698356,-0.010120669,-0.0796878,-0.0032785342,0.002951149,-0.9968102,0.44477785,-0.0015886388,-0.005888361,-0.89562017,1
183633478,0.47926295,-0.5910416,-0.009896558,-0.079629146,-0.011974937,-0.0033750562,-0.99674696,0.44477785,-0.0015886388,-0.005888361,-0.89562017,1
183665286,0.36488736,-0.4313154,0.01480457,-0.07950188,-0.019536348,-0.009496573,-0.996598,0.44477785,-0.0015886388,-0.005888361,-0.89562017,1
183697395,0.34128964,-0.3061605,0.013621195,-0.07929801,-0.025631165,-0.0152953835,-0.99640405,0.44477785,-0.0015886388,-0.005888361,-0.89562017,1
183729285,0.30729672,-0.3703436,0.012774129,-0.07914965,-0.030252898,-0.02046683,-0.9961934,0.44477785,-0.0015886388,-0.005888361,-0.89562017,1
183761730,0.3167821,-0.20564015,-0.018052625,-0.07907164,-0.034318294,-0.023958592,-0.99599,0.44477785,-0.0015886388,-0.005888361,-0.89562017,1
183793286,0.17741086,0.024866316,0.029276924,-0.07898358,-0.038600136,-0.0274921,-0.99574894,0.44477785,-0.0015886388,-0.005888361,-0.89562017,1
183825377,0.2931457,-0.5153863,0.0049915835,-0.07897833,-0.043633413,-0.031466637,-0.9954238,0.44477785,-0.0015886388,-0.005888361,-0.89562017,1
183857292,0.26948062,-0.36950895,0.027414162,-0.07874006,-0.047867518,-0.03531491,-0.99511886,0.44477785,-0.0015886388,-0.005888361,-0.89562017,1
183889347,0.14000055,0.09588518,0.032422863,-0.0784256,-0.0513138,-0.038233753,-0.9948641,0.44477785,-0.0015886388,-0.005888361,-0.89562017,1
183921260,0.20456858,-0.16432457,0.0074768397,-0.0780686,-0.053513266,-0.040746175,-0.9946766,0.44477785,-0.0015886388,-0.005888361,-0.89562017,1
183953300,0.09080046,0.0059932596,0.02744813,-0.07756165,-0.053836904,-0.04280541,-0.9946123,0.44477785,-0.0015886388,-0.005888361,-0.89562017,1
183985266,-0.03562357,0.11405388,0.010247595,-0.077162884,-0.053116456,-0.04276613,-0.9946837,0.44477785,-0.0015886388,-0.005888361,-0.89562017,1
184017403,-0.19374873,0.022668187,0.049566455,-0.07676531,-0.05127971,-0.041987013,-0.9948441,0.44477785,-0.0015886388,-0.005888361,-0.89562017,1
184049245,-0.17918493,0.21401322,0.040777322,-0.076385744,-0.047216248,-0.040262178,-0.9951457,0.44477785,-0.0015886388,-0.005888361,-0.89562017,1
184081375,-0.2837044,0.4725731,-0.012777736,-0.07630045,-0.041692223,-0.03487338,-0.9956023,0.44477785,-0.0015886388,-0.005888361,-0.89562017,1
184113260,-0.40886098,0.4967429,0.05881702,-0.075971104,-0.035319477,-0.028586797,-0.9960742,0.44477785,-0.0015886388,-0.005888361,-0.89562017,1
184145398,-0.39608514,0.4208304,-0.02487409,-0.07575393,-0.028887486,-0.022841878,-0.99644625,0.44477785,-0.0015886388,-0.005888361,-0.89562017,1
184177265,-0.43269762,0.4539015,0.024147369,-0.07529461,-0.022440985,-0.016756257,-0.99676794,0.44477785,-0.0015886388,-0.005888361,-0.89562017,1
184209576,-0.34584448,0.42398146,0.037378557,-0.07474572,-0.016323699,-0.010777291,-0.9970108,0.44477785,-0.0015886388,-0.005888361,-0.89562017,1
184241297,-0.31377187,0.43581572,0.0042705717,-0.07422272,-0.010439384,-0.0045690415,-0.9971766,0.44477785,-0.0015886388,-0.005888361,-0.89562017,1
184273415,-0.2946227,0.39887038,0.055832922,-0.07371118,-0.0043723006,0.0013432121,-0.9972692,0.44477785,-0.0015886388,-0.005888361,-0.89562017,1
184305275,-0.2507575,0.4291765,-0.004497123,-0.0734093,0.0034048958,0.007266626,-0.99726963,0.44477785,-0.0015886388,-0.005888361,-0.89562017,1
184337283,-0.414371,0.67024535,-0.015815765,-0.07321109,0.010811706,0.013973041,-0.99716,0.44477785,-0.0015886388,-0.005888361,-0.89562017,1
184369345,-0.23674968,0.31415832,-0.010395512,-0.07295322,0.015471875,0.0192046,-0.99703044,0.44477785,-0.0015886388,-0.005888361,-0.89562017,1
184401290,-0.16688047,0.23935865,-0.07130987,-0.07317153,0.020056684,0.02209162,-0.99687296,0.44477785,-0.0015886388,-0.005888361,-0.89562017,1
184433268,-0.14382748,-0.50776184,-0.20699337,-0.075128995,0.014779874,0.023869984,-0.9967786,0.44477785,-0.0015886388,-0.005888361,-0.89562017,1
184465321,0.23287633,0.14506552,-0.2009168,-0.07836189,0.009261404,0.022614775,-0.9966255,0.44477785,-0.0015886388,-0.005888361,-0.89562017,1
184497358,0.008249402,0.43939123,-0.17197715,-0.08122481,0.013347957,0.021122659,-0.99638253,0.44477785,-0.0015886388,-0.005888361,-0.89562017,1
184529279,-0.27242008,0.14844397,-0.0933416,-0.083414815,0.018138325,0.024768194,-0.9960419,0.44477785,-0.0015886388,-0.005888361,-0.89562017,1
184561398,-0.14511842,0.035862837,-0.081242755,-0.08490444,0.022357598,0.029001914,-0.995716,0.44477785,-0.0015886388,-0.005888361,-0.89562017,1
184593258,0.033534806,0.3097167,-0.08486398,-0.08598706,0.025763525,0.029698137,-0.99552023,0.44477785,-0.0015886388,-0.005888361,-0.89562017,1
184625349,-0.111593984,0.15502958,-0.049572825,-0.08662269,0.02709996,0.030307624,-0.9954112,0.44477785,-0.0015886388,-0.005888361,-0.89562017,1
184657288,-0.08011419,0.005724119,-0.015285713,-0.08702803,0.028199805,0.030724019,-0.99533266,0.44477785,-0.0015886388,-0.005888361,-0.89562017,1
184686171,0.017990045,0.12362463,-0.014323452,-0.08714874,0.029252656,0.03099683,-0.9952832,0.44477785,-0.0015886388,-0.005888361,-0.89562017,1
184718982,-0.119462684,0.046962395,0.020007266,-0.08731194,0.029674813,0.031433724,-0.99524266,0.44477785,-0.0015886388,-0.005888361,-0.89562017,1
184751015,-0.14459988,-0.10106035,0.034325488,-0.08736518,0.029787628,0.031974275,-0.99521744,0.44477785,-0.0015886388,-0.005888361,-0.89562017,1
184783033,0.013335716,0.11854122,0.007868478,-0.08721917,0.030924179,0.03178539,-0.9952016,0.44477785,-0.0015886388,-0.005888361,-0.89562017,1
184815204,0.09297662,0.15135573,0.0311417,-0.08676025,0.031246774,0.032348573,-0.99521345,0.44477785,-0.0015886388,-0.005888361,-0.89562017,1
184846940,-0.102891274,0.09245629,0.039816033,-0.08630142,0.03223951,0.032645658,-0.995212,0.44477785,-0.0015886388,-0.005888361,-0.89562017,1
184875050,-0.15730485,0.21752009,0.014071185,-0.086013116,0.03555272,0.033625405,-0.9950915,0.44477785,-0.0015886388,-0.005888361,-0.89562017,1
184906947,-0.15586203,0.39060226,0.04995175,-0.08552971,0.040263254,0.036767613,-0.9948425,0.44477785,-0.0015886388,-0.005888361,-0.89562017,1
184938968,-0.16310379,0.039749254,0.059192576,-0.08486581,0.043154877,0.03976576,-0.9946629,0.44477785,-0.0015886388,-0.005888361,-0.89562017,1
184970924,-0.01217411,0.002680485,0.025584765,-0.08445835,0.044508364,0.040811315,-0.9945956,0.44477785,-0.0015886388,-0.005888361,-0.89562017,1
185002883,0.104076155,0.1533124,0.04358365,-0.084109224,0.04464794,0.040772013,-0.9946205,0.44477785,-0.0015886388,-0.005888361,-0.89562017,1
185035017,0.17245641,-0.18637186,0.04463515,-0.08360278,0.043890703,0.040492848,-0.9947083,0.44477785,-0.0015886388,-0.005888361,-0.89562017,1
185067016,0.18031247,-0.17514092,0.06207442,-0.08304486,0.040816423,0.03818244,-0.9949773,0.44477785,-0.0015886388,-0.005888361,-0.89562017,1
185098895,0.535336,-0.43643612,0.015902324,-0.0826159,0.034438137,0.03258477,-0.9954532,0.44477785,-0.0015886388,-0.005888361,-0.89562017,1
185127035,0.43757433,-0.6609544,0.038458955,-0.08221031,0.027482552,0.026342738,-0.99588764,0.44477785,-0.0015886388,-0.005888361,-0.89562017,1
185158859,0.2504545,-0.3617853,0.062398452,-0.08169814,0.021795116,0.020699799,-0.9962038,0.44477785,-0.0015886388,-0.005888361,-0.89562017,1
185190961,0.33245873,-0.013147622,0.05799748,-0.08106814,0.017424636,0.016092045,-0.9964264,0.44477785,-0.0015886388,-0.005888361,-0.89562017,1
185222913,0.31993002,-0.29566196,0.03485246,-0.080353625,0.013244017,0.012060799,-0.9966055,0.44477785,-0.0015886388,-0.005888361,-0.89562017,1
185254910,0.047439247,-0.0131973205,0.05102217,-0.07953469,0.01046516,0.009313814,-0.9967337,0.44477785,-0.0015886388,-0.005888361,-0.89562017,1
185286921,0.16449739,-0.38624588,0.0785559,-0.07870842,0.008301253,0.007718896,-0.99683326,0.44477785,-0.0015886388,-0.005888361,-0.89562017,1
185318924,0.09068449,0.014273197,0.051969495,-0.077895306,0.007101759,0.006417077,-0.99691564,0.44477785,-0.0015886388,-0.005888361,-0.89562017,1
185350960,0.20294294,-0.0013697837,0.030311346,-0.077099144,0.004763262,0.0045220125,-0.9970019,0.44477785,-0.0015886388,-0.005888361,-0.89562017,1
185379049,0.030336639,-0.11434802,0.0852291,-0.07623393,0.003023005,0.0038648976,-0.9970779,0.44477785,-0.0015886388,-0.005888361,-0.89562017,1
185410974,0.32636064,-0.5867041,0.05132249,-0.07526004,-0.0015443729,0.002271399,-0.99716026,0.44477785,-0.0015886388,-0.005888361,-0.89562017,1
185442893,0.63088125,-0.3868793,0.028970698,-0.07439552,-0.009607422,-0.0041075656,-0.9971741,0.44477785,-0.0015886388,-0.005888361,-0.89562017,1
185956668,0.11422502,-0.1843796,0.00057710503,-0.06773246,-0.028088102,-0.02166934,-0.99707264,0.44477785,-0.0015886388,-0.005888361,-0.89562017,1
186502107,-0.17355976,0.20742822,-0.033543926,-0.10158516,0.06480335,0.060341053,-0.9908784,0.44477785,-0.0015886388,-0.005888361,-0.89562017,1
186534245,0.0219474,0.13544457,-0.025534565,-0.102272615,0.06624648,0.06185407,-0.99061894,0.44477785,-0.0015886388,-0.005888361,-0.89562017,1
186562134,-0.01894074,0.02972529,-0.037596744,-0.10246778,0.06802431,0.06248613,-0.99043864,0.44477785,-0.0015886388,-0.005888361,-0.89562017,1
186594207,-0.12303272,0.19903496,0.024887687,-0.10217951,0.06950935,0.062493037,-0.99036485,0.44477785,-0.0015886388,-0.005888361,-0.89562017,1
186626015,0.042738557,-0.08916929,0.04607874,-0.101690084,0.06906489,0.061226733,-0.9905254,0.44477785,-0.0015886388,-0.005888361,-0.89562017,1
186658137,0.10868175,-0.4840692,0.05200004,-0.100832984,0.065823704,0.059099477,-0.9909628,0.44477785,-0.0015886388,-0.005888361,-0.89562017,1
186690080,0.46543652,-0.14655605,0.053884838,-0.09994919,0.0624082,0.05460937,-0.9915308,0.44477785,-0.0015886388,-0.005888361,-0.89562017,1
186722154,0.44143397,-0.7054089,0.09983181,-0.09860704,0.05471919,0.048271213,-0.99244773,0.44477785,-0.0015886388,-0.005888361,-0.89562017,1
186754053,0.80782765,-0.7371371,0.075196505,-0.097217515,0.04387991,0.039660882,-0.99350417,0.44477785,-0.0015886388,-0.005888361,-0.89562017,1
186786241,0.53091216,-0.6678455,0.08695434,-0.09572825,0.031561594,0.031072203,-0.9944218,0.44477785,-0.0015886388,-0.005888361,-0.89562017,1
186818152,0.5427211,-0.58551323,0.13112867,-0.0942136,0.021766884,0.022424698,-0.9950614,0.44477785,-0.0015886388,-0.005888361,-0.89562017,1
186850175,0.7134807,-0.60347325,0.11814104,-0.09231406,0.01139568,0.013896182,-0.9955678,0.44477785,-0.0015886388,-0.005888361,-0.89562017,1
186882105,0.6027552,-0.5014123,0.10123789,-0.0905732,9.405719e-05,0.003594218,-0.99588335,0.44477785,-0.0015886388,-0.005888361,-0.89562017,1
186914075,0.5088856,-0.8613808,0.09479132,-0.08900928,-0.010170275,-0.005071551,-0.99596596,0.44477785,-0.0015886388,-0.005888361,-0.89562017,1
186946114,0.19979435,-0.06789713,0.12554243,-0.0873838,-0.0143312095,-0.009688507,-0.99602455,0.44477785,-0.0015886388,-0.005888361,-0.89562017,1
186978338,0.11435251,0.17331177,0.10821258,-0.085793965,-0.015223696,-0.012089899,-0.9961232,0.44477785,-0.0015886388,-0.005888361,-0.89562017,1
187010184,0.08566916,-0.12111536,0.07570773,-0.08435457,-0.017114215,-0.013380422,-0.996199,0.44477785,-0.0015886388,-0.005888361,-0.89562017,1
187042093,-0.12120925,0.17326732,0.033040762,-0.08304524,-0.015448636,-0.013085803,-0.9963401,0.44477785,-0.0015886388,-0.005888361,-0.89562017,1
187074147,-0.26231965,0.3006031,0.14112198,-0.08136974,-0.011258916,-0.011270168,-0.99655676,0.44477785,-0.0015886388,-0.005888361,-0.89562017,1
187106119,-0.028705688,0.0030487566,0.086762704,-0.07982854,-0.008267826,-0.009271297,-0.9967313,0.44477785,-0.0015886388,-0.005888361,-0.89562017,1
187138259,-0.045388125,0.27484033,0.08193415,-0.07825429,-0.006932036,-0.008555835,-0.99687266,0.44477785,-0.0015886388,-0.005888361,-0.89562017,1
187170115,-0.07442525,-0.022558639,0.085097894,-0.07665146,-0.0061306036,-0.0074663754,-0.9970111,0.44477785,-0.0015886388,-0.005888361,-0.89562017,1
187202125,-0.20328231,0.13441747,0.121099904,-0.07506503,-0.0045415163,-0.004950021,-0.9971561,0.44477785,-0.0015886388,-0.005888361,-0.89562017,1
187234108,-0.27648363,-0.27336505,0.09355983,-0.0736959,-0.003939011,-0.0024707858,-0.99727,0.44477785,-0.0015886388,-0.005888361,-0.89562017,1
187266103,-0.22673354,0.09599989,0.072352596,-0.07239283,-0.0027661636,0.0003022915,-0.9973724,0.44477785,-0.0015886388,-0.005888361,-0.89562017,1
187298127,-0.16708712,0.058247086,0.04612221,-0.07134017,-0.0020923843,0.002868739,-0.9974457,0.44477785,-0.0015886388,-0.005888361,-0.89562017,1
187330175,-0.102315165,0.17392997,0.047469232,-0.070519805,-0.0008902016,0.0041497266,-0.99750143,0.44477785,-0.0015886388,-0.005888361,-0.89562017,1
187362077,0.19193101,-0.13657337,0.016991436,-0.06980125,-9.504668e-05,0.0040418184,-0.9975528,0.44477785,-0.0015886388,-0.005888361,-0.89562017,1
187391779,0.0552816,-0.014793615,0.060938288,-0.06913506,-0.00019510227,0.003292578,-0.99760187,0.44477785,-0.0015886388,-0.005888361,-0.89562017,1
187423766,-0.0026345314,0.06581166,0.006298448,-0.06847056,-0.00083467725,0.0026155321,-0.9976494,0.44477785,-0.0015886388,-0.005888361,-0.89562017,1
187455798,0.040788576,-0.1699276,0.047781408,-0.06771943,-0.0029309916,0.0024570436,-0.99769706,0.44477785,-0.0015886388,-0.005888361,-0.89562017,1
187487920,0.060363673,-0.23216993,0.04513676,-0.06694813,-0.0054031704,0.0020482899,-0.99773973,0.44477785,-0.0015886388,-0.005888361,-0.89562017,1
187519782,0.40239695,0.16424386,0.12747473,-0.065812014,-0.0056607244,8.7627164e-08,-0.997816,0.44477785,-0.0015886388,-0.005888361,-0.89562017,1
187551789,1.1338223,0.8198433,0.20856282,-0.06292659,0.0045713168,-0.012947685,-0.9979237,0.44477785,-0.0015886388,-0.005888361,-0.89562017,1
187583762,0.4084042,-0.08137617,0.16656369,-0.059653036,0.010749213,-0.025500428,-0.9978355,0.44477785,-0.0015886388,-0.005888361,-0.89562017,1
187615814,-0.0748641,-0.67477775,0.07385096,-0.058547586,0.0028123644,-0.028345441,-0.9978782,0.44477785,-0.0015886388,-0.005888361,-0.89562017,1
187643719,-0.4587185,-0.23548868,0.1501737,-0.05719832,-0.0024037615,-0.023849776,-0.99807507,0.44477785,-0.0015886388,-0.005888361,-0.89562017,1
187675712,-0.34379312,-0.16530155,0.17487843,-0.054235563,-0.00344703,-0.016959239,-0.9983783,0.44477785,-0.0015886388,-0.005888361,-0.89562017,1
187707816,-0.28836805,-0.16590244,0.1896938,-0.051154643,-0.004052487,-0.009695835,-0.99863553,0.44477785,-0.0015886388,-0.005888361,-0.89562017,1
187739722,-0.19283037,0.40394008,0.26777968,-0.047620937,-0.0023892594,-0.00424216,-0.9988536,0.44477785,-0.0015886388,-0.005888361,-0.89562017,1
187771777,0.5680976,0.6463484,0.29736653,-0.042877242,0.00608709,-0.00923631,-0.9990191,0.44477785,-0.0015886388,-0.005888361,-0.89562017,1
187803662,0.68996084,-0.12440555,0.19359338,-0.038605735,0.0097545395,-0.019893937,-0.99900883,0.44477785,-0.0015886388,-0.005888361,-0.89562017,1
187835660,0.25377795,-0.5737449,0.162711,-0.035750248,0.0030063652,-0.025839295,-0.9990222,0.44477785,-0.0015886388,-0.005888361,-0.89562017,1
187867859,-0.0005858848,-0.03351003,0.2185982,-0.03250266,-0.000806251,-0.02419358,-0.99917847,0.44477785,-0.0015886388,-0.005888361,-0.89562017,1
187899684,-0.13487294,0.3529545,0.3010231,-0.028046662,0.0031905475,-0.019795753,-0.9994055,0.44477785,-0.0015886388,-0.005888361,-0.89562017,1
187931685,0.080731116,0.0262568,0.22888647,-0.023643257,0.00615295,-0.018338025,-0.99953336,0.44477785,-0.0015886388,-0.005888361,-0.89562017,1
187963706,0.1515363,-0.28986838,0.18779418,-0.020371413,0.0026374,-0.020599887,-0.99957675,0.44477785,-0.0015886388,-0.005888361,-0.89562017,1
187995807,0.0047208397,-0.13201602,0.22187245,-0.01693784,7.613896e-05,-0.02245166,-0.99960446,0.44477785,-0.0015886388,-0.005888361,-0.89562017,1
188027851,-0.24234143,0.160453,0.26091564,-0.012737168,0.0026869231,-0.020150537,-0.9997122,0.44477785,-0.0015886388,-0.005888361,-0.89562017,1
188059882,-0.23564354,0.0006327315,0.22167677,-0.008694281,0.0041212817,-0.015546347,-0.99983287,0.44477785,-0.0015886388,-0.005888361,-0.89562017,1
188091679,0.17878458,-0.124220565,0.19381146,-0.005299363,0.002610597,-0.014697361,-0.99987453,0.44477785,-0.0015886388,-0.005888361,-0.89562017,1
188123744,0.33758536,-0.086688615,0.23732403,-0.0018886968,0.0010100744,-0.019751651,-0.9998027,0.44477785,-0.0015886388,-0.005888361,-0.89562017,1
188155757,0.22843988,0.18502274,0.27105096,0.002409124,0.0026611793,-0.026467362,-0.99964327,0.44477785,-0.0015886388,-0.005888361,-0.89562017,1
188187899,-0.24791577,-0.0416273,0.26616174,0.006919975,0.0038936425,-0.027377354,-0.99959373,0.44477785,-0.0015886388,-0.005888361,-0.89562017,1
188220204,-0.617105,-0.10511814,0.23313914,0.011040317,0.0028516075,-0.021791417,-0.99969757,0.44477785,-0.0015886388,-0.005888361,-0.89562017,1
188251715,-0.5104151,0.12532142,0.18597542,0.0145744365,0.0018572923,-0.014907663,-0.999781,0.44477785,-0.0015886388,-0.005888361,-0.89562017,1
188281296,-0.08875295,0.11681883,0.18320191,0.017534547,0.0026460432,-0.012609334,-0.99976325,0.44477785,-0.0015886388,-0.005888361,-0.89562017,1
188313314,0.3709643,-0.018390227,0.15405877,0.020420406,0.0034795362,-0.015940731,-0.9996584,0.44477785,-0.0015886388,-0.005888361,-0.89562017,1
188345343,0.44712433,0.09925946,0.14985326,0.022814902,0.002946337,-0.02263615,-0.9994791,0.44477785,-0.0015886388,-0.005888361,-0.89562017,1
188377309,0.023551531,0.02121266,0.17693704,0.0254727,0.0025879326,-0.025704622,-0.9993417,0.44477785,-0.0015886388,-0.005888361,-0.89562017,1
188409356,-0.37621388,-0.024543297,0.1532011,0.028236771,0.0028889515,-0.023058334,-0.9993312,0.44477785,-0.0015886388,-0.005888361,-0.89562017,1
188441348,-0.15596768,0.0021159626,0.098525636,0.030431151,0.0029830928,-0.019412108,-0.9993439,0.44477785,-0.0015886388,-0.005888361,-0.89562017,1
188469345,-0.04211011,-0.025867302,0.033237662,0.031303883,0.002457097,-0.018363528,-0.99933827,0.44477785,-0.0015886388,-0.005888361,-0.89562017,1
188501288,0.009050344,0.07037557,-0.025743753,0.031422675,0.0028554806,-0.018722035,-0.9993268,0.44477785,-0.0015886388,-0.005888361,-0.89562017,1
188533388,-0.060725853,-0.031477414,-0.06117732,0.030710267,0.0032823037,-0.018184775,-0.9993575,0.44477785,-0.0015886388,-0.005888361,-0.89562017,1
188565267,0.05200844,-0.025923781,-0.032694764,0.02998619,0.0027034045,-0.01825046,-0.9993801,0.44477785,-0.0015886388,-0.005888361,-0.89562017,1
188597420,0.10694297,0.023840172,0.019676197,0.030026076,0.0028604488,-0.019841379,-0.99934804,0.44477785,-0.0015886388,-0.005888361,-0.89562017,1
188629288,0.030847916,0.011879806,0.044955038,0.030728284,0.0031997252,-0.020965591,-0.99930274,0.44477785,-0.0015886388,-0.005888361,-0.89562017,1
188661354,-0.043789484,-0.016198138,0.016440978,0.031320155,0.0031207246,-0.020608462,-0.99929214,0.44477785,-0.0015886388,-0.005888361,-0.89562017,1
188693359,-0.024447497,-0.0072853146,-0.023709973,0.03125265,0.002912789,-0.019819304,-0.99931073,0.44477785,-0.0015886388,-0.005888361,-0.89562017,1
188721388,0.048501797,0.011497128,-0.04011242,0.030821802,0.003017215,-0.01994549,-0.99932134,0.44477785,-0.0015886388,-0.005888361,-0.89562017,1
188753254,0.04676159,0.006044781,-0.007982098,0.030493822,0.0032263505,-0.020721342,-0.99931496,0.44477785,-0.0015886388,-0.005888361,-0.89562017,1
188785326,-0.029036894,-0.015654745,0.023574514,0.03077361,0.0031210259,-0.02083251,-0.9993044,0.44477785,-0.0015886388,-0.005888361,-0.89562017,1
188817323,-0.02703063,0.0016836326,0.030243818,0.031304426,0.003014117,-0.020303398,-0.9992991,0.44477785,-0.0015886388,-0.005888361,-0.89562017,1
188849307,0.02131334,0.006215788,-0.0018847524,0.0315902,0.003147451,-0.02018409,-0.9992922,0.44477785,-0.0015886388,-0.005888361,-0.89562017,1
188881366,0.03600732,-0.003275442,-0.02026958,0.031394478,0.0032347515,-0.020686684,-0.9992878,0.44477785,-0.0015886388,-0.005888361,-0.89562017,1
188913326,-0.01438791,-0.004667064,-0.018240767,0.03114405,0.0031439352,-0.020882761,-0.99929184,0.44477785,-0.0015886388,-0.005888361,-0.89562017,1
188945277,-0.030687507,0.007791964,0.007887129,0.031126335,0.0031492042,-0.020578686,-0.9992987,0.44477785,-0.0015886388,-0.005888361,-0.89562017,1
188973490,-0.0044071283,0.011001827,0.01780829,0.031406727,0.0032316407,-0.02040195,-0.99929327,0.44477785,-0.0015886388,-0.005888361,-0.89562017,1
189005355,0.02304784,-0.0018537064,0.015363475,0.03175702,0.003300103,-0.020632748,-0.99927723,0.44477785,-0.0015886388,-0.005888361,-0.89562017,1
189037399,0.010010935,0.00082496984,-0.0077802665,0.031843286,0.003328134,-0.020841671,-0.9992701,0.44477785,-0.0015886388,-0.005888361,-0.89562017,1
189069275,-0.012782075,0.0015333967,-0.0140296295,0.031689133,0.0034490302,-0.020734053,-0.9992768,0.44477785,-0.0015886388,-0.005888361,-0.89562017,1
189101457,-0.0030464507,-0.001854237,-0.007749336,0.031543776,0.0035685282,-0.020535642,-0.99928504,0.44477785,-0.0015886388,-0.005888361,-0.89562017,1
189133307,0.013675561,0.00064387557,0.012919955,0.031704415,0.0036461714,-0.020564817,-0.9992791,0.44477785,-0.0015886388,-0.005888361,-0.89562017,1
189165418,0.0148464255,-0.0010015776,0.012303075,0.031969134,0.0037326233,-0.020678882,-0.99926794,0.44477785,-0.0015886388,-0.005888361,-0.89562017,1
189194927,0.008377019,0.006647935,0.0028789076,0.032158546,0.0038527267,-0.020712806,-0.9992608,0.44477785,-0.0015886388,-0.005888361,-0.89562017,1
189226913,-0.0010857466,-0.00866227,-0.013363011,0.03211604,0.00390896,-0.020570723,-0.9992649,0.44477785,-0.0015886388,-0.005888361,-0.89562017,1
189258932,0.0139575405,-0.002956633,-0.0063405177,0.032024026,0.003967436,-0.02044128,-0.9992702,0.44477785,-0.0015886388,-0.005888361,-0.89562017,1
189290920,0.007386453,-0.0005732898,0.004545329,0.032032307,0.004044273,-0.020440334,-0.9992696,0.44477785,-0.0015886388,-0.005888361,-0.89562017,1
189322908,0.011635768,0.00479402,0.011543385,0.03226569,0.004133434,-0.020507649,-0.99926037,0.44477785,-0.0015886388,-0.005888361,-0.89562017,1
189354881,-0.013072661,0.002669075,0.0069638714,0.03243264,0.0041849054,-0.020339463,-0.9992582,0.44477785,-0.0015886388,-0.005888361,-0.89562017,1
189382955,0.004923733,0.0031357403,-0.0053501534,0.032485254,0.0042310962,-0.020163298,-0.9992598,0.44477785,-0.0015886388,-0.005888361,-0.89562017,1
189415053,0.013332219,0.0026194928,-0.008016234,0.03239048,0.004294442,-0.020061042,-0.9992647,0.44477785,-0.0015886388,-0.005888361,-0.89562017,1
189446977,-0.0010574579,-0.004747984,0.0010391459,0.032411687,0.0043565496,-0.02004473,-0.9992641,0.44477785,-0.0015886388,-0.005888361,-0.89562017,1
189478908,-0.006186389,-0.004402874,0.007908456,0.03256626,0.004391143,-0.019884797,-0.99926215,0.44477785,-0.0015886388,-0.005888361,-0.89562017,1
189510945,0.0072127357,0.0028028223,0.0046961335,0.032745417,0.004426697,-0.019631777,-0.9992611,0.44477785,-0.0015886388,-0.005888361,-0.89562017,1
