timestamp,noutputs,output[0],output[1],output[2],output[3],output[4],output[5],output[6],output[7],output[8],output[9],output[10],output[11],output[12],output[13],output[14],output[15]
175369886,8,1075.0,1075.0,1075.0,1075.0,1075.0,1075.0,0.0,0.0,0.0,0.0,0.0,0.0,0.0,0.0,0.0,0.0
175488266,8,1075.0,1075.0,1075.0,1075.0,1074.0,1075.0,0.0,0.0,0.0,0.0,0.0,0.0,0.0,0.0,0.0,0.0
175572271,8,1204.0,1085.0,1165.0,1123.0,1103.0,1185.0,0.0,0.0,0.0,0.0,0.0,0.0,0.0,0.0,0.0,0.0
175681279,8,1206.0,1082.0,1167.0,1121.0,1100.0,1188.0,0.0,0.0,0.0,0.0,0.0,0.0,0.0,0.0,0.0,0.0
175789477,8,1205.0,1083.0,1166.0,1122.0,1101.0,1187.0,0.0,0.0,0.0,0.0,0.0,0.0,0.0,0.0,0.0,0.0
175897108,8,1204.0,1084.0,1167.0,1121.0,1101.0,1187.0,0.0,0.0,0.0,0.0,0.0,0.0,0.0,0.0,0.0,0.0
175985078,8,1204.0,1084.0,1165.0,1123.0,1102.0,1186.0,0.0,0.0,0.0,0.0,0.0,0.0,0.0,0.0,0.0,0.0
176101118,8,1199.0,1089.0,1159.0,1129.0,1107.0,1181.0,0.0,0.0,0.0,0.0,0.0,0.0,0.0,0.0,0.0,0.0
176186895,8,1197.0,1091.0,1159.0,1129.0,1110.0,1178.0,0.0,0.0,0.0,0.0,0.0,0.0,0.0,0.0,0.0,0.0
176290694,8,1185.0,1103.0,1146.0,1142.0,1122.0,1166.0,0.0,0.0,0.0,0.0,0.0,0.0,0.0,0.0,0.0,0.0
176398896,8,1167.0,1121.0,1129.0,1159.0,1140.0,1148.0,0.0,0.0,0.0,0.0,0.0,0.0,0.0,0.0,0.0,0.0
176506729,8,1164.0,1124.0,1125.0,1163.0,1144.0,1144.0,0.0,0.0,0.0,0.0,0.0,0.0,0.0,0.0,0.0,0.0
176598921,8,1165.0,1123.0,1126.0,1162.0,1145.0,1143.0,0.0,0.0,0.0,0.0,0.0,0.0,0.0,0.0,0.0,0.0
176710694,8,1164.0,1124.0,1126.0,1162.0,1143.0,1145.0,0.0,0.0,0.0,0.0,0.0,0.0,0.0,0.0,0.0,0.0
176798677,8,1163.0,1125.0,1125.0,1163.0,1146.0,1142.0,0.0,0.0,0.0,0.0,0.0,0.0,0.0,0.0,0.0,0.0
176906688,8,1164.0,1124.0,1128.0,1160.0,1145.0,1143.0,0.0,0.0,0.0,0.0,0.0,0.0,0.0,0.0,0.0,0.0
177010666,8,1163.0,1125.0,1126.0,1162.0,1145.0,1143.0,0.0,0.0,0.0,0.0,0.0,0.0,0.0,0.0,0.0,0.0
177116308,8,1163.0,1129.0,1127.0,1164.0,1148.0,1144.0,0.0,0.0,0.0,0.0,0.0,0.0,0.0,0.0,0.0,0.0
177204333,8,1180.0,1142.0,1143.0,1180.0,1161.0,1161.0,0.0,0.0,0.0,0.0,0.0,0.0,0.0,0.0,0.0,0.0
177316289,8,1179.0,1144.0,1143.0,1180.0,1162.0,1161.0,0.0,0.0,0.0,0.0,0.0,0.0,0.0,0.0,0.0,0.0
177404329,8,1183.0,1142.0,1141.0,1183.0,1163.0,1161.0,0.0,0.0,0.0,0.0,0.0,0.0,0.0,0.0,0.0,0.0
177512318,8,1185.0,1140.0,1140.0,1185.0,1163.0,1162.0,0.0,0.0,0.0,0.0,0.0,0.0,0.0,0.0,0.0,0.0
177620533,8,1184.0,1141.0,1141.0,1184.0,1163.0,1162.0,0.0,0.0,0.0,0.0,0.0,0.0,0.0,0.0,0.0,0.0
177708516,8,1184.0,1139.0,1139.0,1184.0,1161.0,1163.0,0.0,0.0,0.0,0.0,0.0,0.0,0.0,0.0,0.0,0.0
177820312,8,1186.0,1138.0,1140.0,1185.0,1162.0,1162.0,0.0,0.0,0.0,0.0,0.0,0.0,0.0,0.0,0.0,0.0
177928294,8,1186.0,1137.0,1137.0,1186.0,1161.0,1162.0,0.0,0.0,0.0,0.0,0.0,0.0,0.0,0.0,0.0,0.0
178018183,8,1186.0,1138.0,1137.0,1187.0,1162.0,1162.0,0.0,0.0,0.0,0.0,0.0,0.0,0.0,0.0,0.0,0.0
178129924,8,1186.0,1138.0,1136.0,1188.0,1162.0,1162.0,0.0,0.0,0.0,0.0,0.0,0.0,0.0,0.0,0.0,0.0
178221906,8,1187.0,1136.0,1136.0,1188.0,1161.0,1163.0,0.0,0.0,0.0,0.0,0.0,0.0,0.0,0.0,0.0,0.0
178313907,8,1190.0,1137.0,1137.0,1190.0,1165.0,1162.0,0.0,0.0,0.0,0.0,0.0,0.0,0.0,0.0,0.0,0.0
178433888,8,1192.0,1134.0,1135.0,1191.0,1164.0,1162.0,0.0,0.0,0.0,0.0,0.0,0.0,0.0,0.0,0.0,0.0
178522080,8,1212.0,1156.0,1155.0,1213.0,1186.0,1182.0,0.0,0.0,0.0,0.0,0.0,0.0,0.0,0.0,0.0,0.0
178618229,8,1264.0,1210.0,1212.0,1262.0,1235.0,1239.0,0.0,0.0,0.0,0.0,0.0,0.0,0.0,0.0,0.0,0.0
178725909,8,1300.0,1248.0,1245.0,1303.0,1279.0,1270.0,0.0,0.0,0.0,0.0,0.0,0.0,0.0,0.0,0.0,0.0
178842549,8,1313.0,1252.0,1251.0,1314.0,1283.0,1283.0,0.0,0.0,0.0,0.0,0.0,0.0,0.0,0.0,0.0,0.0
178927619,8,1317.0,1259.0,1262.0,1314.0,1290.0,1286.0,0.0,0.0,0.0,0.0,0.0,0.0,0.0,0.0,0.0,0.0
179039498,8,1339.0,1276.0,1277.0,1337.0,1308.0,1306.0,0.0,0.0,0.0,0.0,0.0,0.0,0.0,0.0,0.0,0.0
179147488,8,1339.0,1274.0,1277.0,1337.0,1306.0,1307.0,0.0,0.0,0.0,0.0,0.0,0.0,0.0,0.0,0.0,0.0
179243696,8,1339.0,1276.0,1277.0,1337.0,1309.0,1305.0,0.0,0.0,0.0,0.0,0.0,0.0,0.0,0.0,0.0,0.0
179351500,8,1338.0,1274.0,1273.0,1340.0,1308.0,1304.0,0.0,0.0,0.0,0.0,0.0,0.0,0.0,0.0,0.0,0.0
179443483,8,1340.0,1279.0,1279.0,1340.0,1312.0,1306.0,0.0,0.0,0.0,0.0,0.0,0.0,0.0,0.0,0.0,0.0
179531761,8,1357.0,1299.0,1297.0,1360.0,1326.0,1331.0,0.0,0.0,0.0,0.0,0.0,0.0,0.0,0.0,0.0,0.0
179647611,8,1360.0,1303.0,1302.0,1361.0,1334.0,1330.0,0.0,0.0,0.0,0.0,0.0,0.0,0.0,0.0,0.0,0.0
179755507,8,1378.0,1325.0,1320.0,1384.0,1351.0,1353.0,0.0,0.0,0.0,0.0,0.0,0.0,0.0,0.0,0.0,0.0
179845107,8,1413.0,1348.0,1347.0,1414.0,1379.0,1382.0,0.0,0.0,0.0,0.0,0.0,0.0,0.0,0.0,0.0,0.0
179957763,8,1431.0,1370.0,1366.0,1434.0,1395.0,1405.0,0.0,0.0,0.0,0.0,0.0,0.0,0.0,0.0,0.0,0.0
180045283,8,1421.0,1387.0,1370.0,1438.0,1391.0,1416.0,0.0,0.0,0.0,0.0,0.0,0.0,0.0,0.0,0.0,0.0
180157111,8,1454.0,1394.0,1387.0,1461.0,1430.0,1418.0,0.0,0.0,0.0,0.0,0.0,0.0,0.0,0.0,0.0,0.0
180249097,8,1465.0,1380.0,1381.0,1465.0,1434.0,1411.0,0.0,0.0,0.0,0.0,0.0,0.0,0.0,0.0,0.0,0.0
180353905,8,1433.0,1415.0,1396.0,1451.0,1415.0,1433.0,0.0,0.0,0.0,0.0,0.0,0.0,0.0,0.0,0.0,0.0
180469105,8,1449.0,1412.0,1395.0,1467.0,1414.0,1447.0,0.0,0.0,0.0,0.0,0.0,0.0,0.0,0.0,0.0,0.0
180561128,8,1480.0,1521.0,1501.0,1500.0,1485.0,1515.0,0.0,0.0,0.0,0.0,0.0,0.0,0.0,0.0,0.0,0.0
180673119,8,1477.0,1532.0,1515.0,1494.0,1479.0,1530.0,0.0,0.0,0.0,0.0,0.0,0.0,0.0,0.0,0.0,0.0
180762707,8,1485.0,1522.0,1527.0,1480.0,1508.0,1500.0,0.0,0.0,0.0,0.0,0.0,0.0,0.0,0.0,0.0,0.0
180874668,8,1459.0,1551.0,1541.0,1468.0,1477.0,1532.0,0.0,0.0,0.0,0.0,0.0,0.0,0.0,0.0,0.0,0.0
180963330,8,1509.0,1500.0,1493.0,1516.0,1490.0,1519.0,0.0,0.0,0.0,0.0,0.0,0.0,0.0,0.0,0.0,0.0
181074709,8,1497.0,1513.0,1521.0,1489.0,1505.0,1505.0,0.0,0.0,0.0,0.0,0.0,0.0,0.0,0.0,0.0,0.0
181162691,8,1476.0,1532.0,1530.0,1477.0,1481.0,1527.0,0.0,0.0,0.0,0.0,0.0,0.0,0.0,0.0,0.0,0.0
181274965,8,1473.0,1514.0,1508.0,1479.0,1469.0,1518.0,0.0,0.0,0.0,0.0,0.0,0.0,0.0,0.0,0.0,0.0
181688286,8,1510.0,1498.0,1504.0,1504.0,1466.0,1542.0,0.0,0.0,0.0,0.0,0.0,0.0,0.0,0.0,0.0,0.0
181780353,8,1510.0,1501.0,1514.0,1497.0,1491.0,1520.0,0.0,0.0,0.0,0.0,0.0,0.0,0.0,0.0,0.0,0.0
181888329,8,1504.0,1503.0,1511.0,1496.0,1484.0,1524.0,0.0,0.0,0.0,0.0,0.0,0.0,0.0,0.0,0.0,0.0
181996330,8,1528.0,1486.0,1496.0,1517.0,1481.0,1532.0,0.0,0.0,0.0,0.0,0.0,0.0,0.0,0.0,0.0,0.0
182080282,8,1534.0,1503.0,1511.0,1527.0,1507.0,1530.0,0.0,0.0,0.0,0.0,0.0,0.0,0.0,0.0,0.0,0.0
182188310,8,1535.0,1521.0,1525.0,1531.0,1510.0,1546.0,0.0,0.0,0.0,0.0,0.0,0.0,0.0,0.0,0.0,0.0
182300499,8,1571.0,1549.0,1563.0,1558.0,1527.0,1593.0,0.0,0.0,0.0,0.0,0.0,0.0,0.0,0.0,0.0,0.0
182392281,8,1563.0,1538.0,1548.0,1554.0,1513.0,1588.0,0.0,0.0,0.0,0.0,0.0,0.0,0.0,0.0,0.0,0.0
182488350,8,1521.0,1554.0,1582.0,1494.0,1523.0,1552.0,0.0,0.0,0.0,0.0,0.0,0.0,0.0,0.0,0.0,0.0
182593112,8,1514.0,1526.0,1541.0,1498.0,1500.0,1539.0,0.0,0.0,0.0,0.0,0.0,0.0,0.0,0.0,0.0,0.0
182702109,8,1534.0,1487.0,1516.0,1505.0,1506.0,1516.0,0.0,0.0,0.0,0.0,0.0,0.0,0.0,0.0,0.0,0.0
182809963,8,1505.0,1513.0,1520.0,1498.0,1484.0,1534.0,0.0,0.0,0.0,0.0,0.0,0.0,0.0,0.0,0.0,0.0
182901941,8,1518.0,1501.0,1500.0,1518.0,1490.0,1528.0,0.0,0.0,0.0,0.0,0.0,0.0,0.0,0.0,0.0,0.0
183014607,8,1527.0,1489.0,1493.0,1524.0,1498.0,1518.0,0.0,0.0,0.0,0.0,0.0,0.0,0.0,0.0,0.0,0.0
183105947,8,1528.0,1488.0,1490.0,1527.0,1496.0,1520.0,0.0,0.0,0.0,0.0,0.0,0.0,0.0,0.0,0.0,0.0
183218151,8,1522.0,1495.0,1521.0,1496.0,1513.0,1505.0,0.0,0.0,0.0,0.0,0.0,0.0,0.0,0.0,0.0,0.0
183302564,8,1486.0,1531.0,1481.0,1536.0,1446.0,1571.0,0.0,0.0,0.0,0.0,0.0,0.0,0.0,0.0,0.0,0.0
183410574,8,1513.0,1505.0,1510.0,1509.0,1495.0,1524.0,0.0,0.0,0.0,0.0,0.0,0.0,0.0,0.0,0.0,0.0
183502903,8,1523.0,1493.0,1483.0,1534.0,1484.0,1533.0,0.0,0.0,0.0,0.0,0.0,0.0,0.0,0.0,0.0,0.0
183618880,8,1514.0,1503.0,1513.0,1505.0,1506.0,1511.0,0.0,0.0,0.0,0.0,0.0,0.0,0.0,0.0,0.0,0.0
183726717,8,1502.0,1515.0,1498.0,1518.0,1484.0,1533.0,0.0,0.0,0.0,0.0,0.0,0.0,0.0,0.0,0.0,0.0
183814687,8,1499.0,1518.0,1488.0,1529.0,1474.0,1542.0,0.0,0.0,0.0,0.0,0.0,0.0,0.0,0.0,0.0,0.0
183926920,8,1537.0,1480.0,1509.0,1508.0,1503.0,1514.0,0.0,0.0,0.0,0.0,0.0,0.0,0.0,0.0,0.0,0.0
184018724,8,1550.0,1470.0,1491.0,1529.0,1501.0,1519.0,0.0,0.0,0.0,0.0,0.0,0.0,0.0,0.0,0.0,0.0
184131366,8,1555.0,1542.0,1563.0,1544.0,1528.0,1569.0,0.0,0.0,0.0,0.0,0.0,0.0,0.0,0.0,0.0,0.0
184218754,8,1522.0,1521.0,1544.0,1499.0,1488.0,1554.0,0.0,0.0,0.0,0.0,0.0,0.0,0.0,0.0,0.0,0.0
184334684,8,1507.0,1524.0,1534.0,1497.0,1480.0,1551.0,0.0,0.0,0.0,0.0,0.0,0.0,0.0,0.0,0.0,0.0
184414660,8,1529.0,1499.0,1589.0,1439.0,1604.0,1424.0,0.0,0.0,0.0,0.0,0.0,0.0,0.0,0.0,0.0,0.0
184527607,8,1428.0,1601.0,1521.0,1508.0,1504.0,1525.0,0.0,0.0,0.0,0.0,0.0,0.0,0.0,0.0,0.0,0.0
184638719,8,1482.0,1546.0,1519.0,1509.0,1502.0,1527.0,0.0,0.0,0.0,0.0,0.0,0.0,0.0,0.0,0.0,0.0
184728297,8,1483.0,1542.0,1499.0,1525.0,1495.0,1529.0,0.0,0.0,0.0,0.0,0.0,0.0,0.0,0.0,0.0,0.0
184820555,8,1515.0,1506.0,1519.0,1503.0,1522.0,1499.0,0.0,0.0,0.0,0.0,0.0,0.0,0.0,0.0,0.0,0.0
184928317,8,1493.0,1526.0,1502.0,1517.0,1475.0,1543.0,0.0,0.0,0.0,0.0,0.0,0.0,0.0,0.0,0.0,0.0
185036507,8,1465.0,1553.0,1492.0,1525.0,1428.0,1590.0,0.0,0.0,0.0,0.0,0.0,0.0,0.0,0.0,0.0,0.0
185128327,8,1516.0,1501.0,1536.0,1481.0,1519.0,1497.0,0.0,0.0,0.0,0.0,0.0,0.0,0.0,0.0,0.0,0.0
185244303,8,1509.0,1509.0,1518.0,1501.0,1474.0,1544.0,0.0,0.0,0.0,0.0,0.0,0.0,0.0,0.0,0.0,0.0
185336239,8,1526.0,1490.0,1536.0,1480.0,1472.0,1544.0,0.0,0.0,0.0,0.0,0.0,0.0,0.0,0.0,0.0,0.0
185448309,8,1558.0,1459.0,1522.0,1495.0,1511.0,1506.0,0.0,0.0,0.0,0.0,0.0,0.0,0.0,0.0,0.0,0.0
185953887,8,1498.0,1519.0,1531.0,1486.0,1477.0,1541.0,0.0,0.0,0.0,0.0,0.0,0.0,0.0,0.0,0.0,0.0
186551721,8,1468.0,1548.0,1437.0,1579.0,1496.0,1520.0,0.0,0.0,0.0,0.0,0.0,0.0,0.0,0.0,0.0,0.0
186663505,8,1470.0,1547.0,1517.0,1500.0,1501.0,1516.0,0.0,0.0,0.0,0.0,0.0,0.0,0.0,0.0,0.0,0.0
186771471,8,1508.0,1510.0,1495.0,1523.0,1502.0,1515.0,0.0,0.0,0.0,0.0,0.0,0.0,0.0,0.0,0.0,0.0
186859723,8,1509.0,1508.0,1522.0,1495.0,1506.0,1511.0,0.0,0.0,0.0,0.0,0.0,0.0,0.0,0.0,0.0,0.0
186951496,8,1508.0,1509.0,1508.0,1509.0,1480.0,1565.0,0.0,0.0,0.0,0.0,0.0,0.0,0.0,0.0,0.0,0.0
187059553,8,1513.0,1508.0,1478.0,1539.0,1446.0,1571.0,0.0,0.0,0.0,0.0,0.0,0.0,0.0,0.0,0.0,0.0
187171518,8,1507.0,1510.0,1522.0,1495.0,1462.0,1555.0,0.0,0.0,0.0,0.0,0.0,0.0,0.0,0.0,0.0,0.0
187259551,8,1491.0,1517.0,1559.0,1449.0,1469.0,1539.0,0.0,0.0,0.0,0.0,0.0,0.0,0.0,0.0,0.0,0.0
187377135,8,1437.0,1408.0,1441.0,1403.0,1412.0,1433.0,0.0,0.0,0.0,0.0,0.0,0.0,0.0,0.0,0.0,0.0
187461297,8,1234.0,1234.0,1280.0,1187.0,1206.0,1262.0,0.0,0.0,0.0,0.0,0.0,0.0,0.0,0.0,0.0,0.0
187577102,8,1214.0,1075.0,1115.0,1173.0,1185.0,1103.0,0.0,0.0,0.0,0.0,0.0,0.0,0.0,0.0,0.0,0.0
187669449,8,1106.0,1182.0,1112.0,1176.0,1075.0,1214.0,0.0,0.0,0.0,0.0,0.0,0.0,0.0,0.0,0.0,0.0
187781110,8,1214.0,1075.0,1086.0,1202.0,1156.0,1132.0,0.0,0.0,0.0,0.0,0.0,0.0,0.0,0.0,0.0,0.0
187865100,8,1152.0,1136.0,1162.0,1126.0,1075.0,1214.0,0.0,0.0,0.0,0.0,0.0,0.0,0.0,0.0,0.0,0.0
187973073,8,1214.0,1075.0,1130.0,1158.0,1200.0,1088.0,0.0,0.0,0.0,0.0,0.0,0.0,0.0,0.0,0.0,0.0
188085128,8,1214.0,1075.0,1173.0,1115.0,1170.0,1118.0,0.0,0.0,0.0,0.0,0.0,0.0,0.0,0.0,0.0,0.0
188197313,8,1162.0,1126.0,1214.0,1075.0,1080.0,1208.0,0.0,0.0,0.0,0.0,0.0,0.0,0.0,0.0,0.0,0.0
188286719,8,1214.0,1075.0,1133.0,1155.0,1113.0,1175.0,0.0,0.0,0.0,0.0,0.0,0.0,0.0,0.0,0.0,0.0
188398737,8,1186.0,1102.0,1179.0,1109.0,1084.0,1204.0,0.0,0.0,0.0,0.0,0.0,0.0,0.0,0.0,0.0,0.0
188486690,8,1198.0,1090.0,1115.0,1173.0,1143.0,1145.0,0.0,0.0,0.0,0.0,0.0,0.0,0.0,0.0,0.0,0.0
188594683,8,1204.0,1085.0,1107.0,1181.0,1146.0,1142.0,0.0,0.0,0.0,0.0,0.0,0.0,0.0,0.0,0.0,0.0
188698868,8,1181.0,1107.0,1118.0,1170.0,1148.0,1140.0,0.0,0.0,0.0,0.0,0.0,0.0,0.0,0.0,0.0,0.0
188783451,8,1184.0,1104.0,1130.0,1158.0,1140.0,1148.0,0.0,0.0,0.0,0.0,0.0,0.0,0.0,0.0,0.0,0.0
188894675,8,1185.0,1103.0,1120.0,1168.0,1150.0,1138.0,0.0,0.0,0.0,0.0,0.0,0.0,0.0,0.0,0.0,0.0
189006916,8,1193.0,1095.0,1125.0,1163.0,1144.0,1144.0,0.0,0.0,0.0,0.0,0.0,0.0,0.0,0.0,0.0,0.0
189094673,8,1181.0,1107.0,1120.0,1168.0,1143.0,1145.0,0.0,0.0,0.0,0.0,0.0,0.0,0.0,0.0,0.0,0.0
189200301,8,1186.0,1102.0,1123.0,1165.0,1140.0,1148.0,0.0,0.0,0.0,0.0,0.0,0.0,0.0,0.0,0.0,0.0
189292529,8,1189.0,1099.0,1121.0,1167.0,1142.0,1146.0,0.0,0.0,0.0,0.0,0.0,0.0,0.0,0.0,0.0,0.0
189412285,8,1186.0,1102.0,1120.0,1168.0,1143.0,1145.0,0.0,0.0,0.0,0.0,0.0,0.0,0.0,0.0,0.0,0.0
189504979,8,1186.0,1102.0,1124.0,1164.0,1138.0,1150.0,0.0,0.0,0.0,0.0,0.0,0.0,0.0,0.0,0.0,0.0
189616300,8,1184.0,1104.0,1123.0,1165.0,1138.0,1150.0,0.0,0.0,0.0,0.0,0.0,0.0,0.0,0.0,0.0,0.0
189708333,8,1184.0,1104.0,1123.0,1165.0,1138.0,1150.0,0.0,0.0,0.0,0.0,0.0,0.0,0.0,0.0,0.0,0.0
189816301,8,1182.0,1106.0,1125.0,1163.0,1135.0,1153.0,0.0,0.0,0.0,0.0,0.0,0.0,0.0,0.0,0.0,0.0
189908266,8,1134.0,1154.0,1081.0,1207.0,1180.0,1108.0,0.0,0.0,0.0,0.0,0.0,0.0,0.0,0.0,0.0,0.0
190012261,8,1124.0,1164.0,1075.0,1214.0,1188.0,1100.0,0.0,0.0,0.0,0.0,0.0,0.0,0.0,0.0,0.0,0.0
190125893,8,1121.0,1167.0,1075.0,1214.0,1187.0,1101.0,0.0,0.0,0.0,0.0,0.0,0.0,0.0,0.0,0.0,0.0
190218163,8,1119.0,1169.0,1075.0,1214.0,1186.0,1102.0,0.0,0.0,0.0,0.0,0.0,0.0,0.0,0.0,0.0,0.0
190314127,8,1113.0,1175.0,1075.0,1214.0,1184.0,1104.0,0.0,0.0,0.0,0.0,0.0,0.0,0.0,0.0,0.0,0.0
190430089,8,1107.0,1263.0,1075.0,1296.0,1266.0,1105.0,0.0,0.0,0.0,0.0,0.0,0.0,0.0,0.0,0.0,0.0
190518154,8,1134.0,1292.0,1095.0,1332.0,1299.0,1128.0,0.0,0.0,0.0,0.0,0.0,0.0,0.0,0.0,0.0,0.0
190625858,8,1109.0,1258.0,1075.0,1291.0,1254.0,1112.0,0.0,0.0,0.0,0.0,0.0,0.0,0.0,0.0,0.0,0.0
190718183,8,1114.0,1258.0,1075.0,1298.0,1262.0,1109.0,0.0,0.0,0.0,0.0,0.0,0.0,0.0,0.0,0.0,0.0
190829929,8,1148.0,1272.0,1113.0,1307.0,1269.0,1151.0,0.0,0.0,0.0,0.0,0.0,0.0,0.0,0.0,0.0,0.0
190941905,8,1162.0,1298.0,1131.0,1328.0,1286.0,1174.0,0.0,0.0,0.0,0.0,0.0,0.0,0.0,0.0,0.0,0.0
191026728,8,1179.0,1313.0,1144.0,1347.0,1309.0,1183.0,0.0,0.0,0.0,0.0,0.0,0.0,0.0,0.0,0.0,0.0
191131492,8,1248.0,1272.0,1209.0,1310.0,1267.0,1252.0,0.0,0.0,0.0,0.0,0.0,0.0,0.0,0.0,0.0,0.0
191239497,8,1298.0,1298.0,1268.0,1328.0,1290.0,1306.0,0.0,0.0,0.0,0.0,0.0,0.0,0.0,0.0,0.0,0.0
191323537,8,1276.0,1332.0,1233.0,1376.0,1336.0,1273.0,0.0,0.0,0.0,0.0,0.0,0.0,0.0,0.0,0.0,0.0
191435699,8,1269.0,1300.0,1225.0,1344.0,1298.0,1271.0,0.0,0.0,0.0,0.0,0.0,0.0,0.0,0.0,0.0,0.0
191531716,8,1283.0,1290.0,1251.0,1321.0,1281.0,1292.0,0.0,0.0,0.0,0.0,0.0,0.0,0.0,0.0,0.0,0.0
191639530,8,1307.0,1305.0,1268.0,1344.0,1312.0,1300.0,0.0,0.0,0.0,0.0,0.0,0.0,0.0,0.0,0.0,0.0
191747500,8,1304.0,1310.0,1264.0,1350.0,1304.0,1311.0,0.0,0.0,0.0,0.0,0.0,0.0,0.0,0.0,0.0,0.0
191835461,8,1333.0,1340.0,1296.0,1377.0,1331.0,1342.0,0.0,0.0,0.0,0.0,0.0,0.0,0.0,0.0,0.0,0.0
191949356,8,1350.0,1328.0,1291.0,1387.0,1343.0,1336.0,0.0,0.0,0.0,0.0,0.0,0.0,0.0,0.0,0.0,0.0
192037131,8,1362.0,1346.0,1311.0,1396.0,1352.0,1356.0,0.0,0.0,0.0,0.0,0.0,0.0,0.0,0.0,0.0,0.0
192145337,8,1363.0,1348.0,1312.0,1399.0,1357.0,1354.0,0.0,0.0,0.0,0.0,0.0,0.0,0.0,0.0,0.0,0.0
192261090,8,1356.0,1360.0,1317.0,1399.0,1351.0,1365.0,0.0,0.0,0.0,0.0,0.0,0.0,0.0,0.0,0.0,0.0
192357109,8,1380.0,1351.0,1314.0,1417.0,1366.0,1365.0,0.0,0.0,0.0,0.0,0.0,0.0,0.0,0.0,0.0,0.0
192449101,8,1370.0,1364.0,1323.0,1410.0,1369.0,1364.0,0.0,0.0,0.0,0.0,0.0,0.0,0.0,0.0,0.0,0.0
192565763,8,1356.0,1392.0,1316.0,1431.0,1327.0,1421.0,0.0,0.0,0.0,0.0,0.0,0.0,0.0,0.0,0.0,0.0
192657124,8,1362.0,1391.0,1322.0,1432.0,1341.0,1413.0,0.0,0.0,0.0,0.0,0.0,0.0,0.0,0.0,0.0,0.0
192770725,8,1341.0,1410.0,1322.0,1429.0,1318.0,1433.0,0.0,0.0,0.0,0.0,0.0,0.0,0.0,0.0,0.0,0.0
192858713,8,1349.0,1402.0,1305.0,1446.0,1307.0,1444.0,0.0,0.0,0.0,0.0,0.0,0.0,0.0,0.0,0.0,0.0
192970730,8,1349.0,1404.0,1304.0,1450.0,1302.0,1451.0,0.0,0.0,0.0,0.0,0.0,0.0,0.0,0.0,0.0,0.0
193062712,8,1354.0,1422.0,1324.0,1451.0,1320.0,1456.0,0.0,0.0,0.0,0.0,0.0,0.0,0.0,0.0,0.0,0.0
193175383,8,1393.0,1450.0,1370.0,1474.0,1359.0,1485.0,0.0,0.0,0.0,0.0,0.0,0.0,0.0,0.0,0.0,0.0
193266703,8,1422.0,1427.0,1358.0,1491.0,1369.0,1479.0,0.0,0.0,0.0,0.0,0.0,0.0,0.0,0.0,0.0,0.0
193358698,8,1442.0,1439.0,1384.0,1497.0,1402.0,1479.0,0.0,0.0,0.0,0.0,0.0,0.0,0.0,0.0,0.0,0.0
193470696,8,1453.0,1498.0,1415.0,1536.0,1403.0,1548.0,0.0,0.0,0.0,0.0,0.0,0.0,0.0,0.0,0.0,0.0
193582724,8,1497.0,1484.0,1453.0,1527.0,1463.0,1518.0,0.0,0.0,0.0,0.0,0.0,0.0,0.0,0.0,0.0,0.0
193680920,8,1494.0,1501.0,1498.0,1497.0,1493.0,1503.0,0.0,0.0,0.0,0.0,0.0,0.0,0.0,0.0,0.0,0.0
193776315,8,1502.0,1498.0,1490.0,1510.0,1477.0,1522.0,0.0,0.0,0.0,0.0,0.0,0.0,0.0,0.0,0.0,0.0
193864284,8,1501.0,1509.0,1539.0,1471.0,1509.0,1500.0,0.0,0.0,0.0,0.0,0.0,0.0,0.0,0.0,0.0,0.0
193980520,8,1521.0,1486.0,1494.0,1513.0,1487.0,1520.0,0.0,0.0,0.0,0.0,0.0,0.0,0.0,0.0,0.0,0.0
194072328,8,1523.0,1486.0,1506.0,1503.0,1498.0,1511.0,0.0,0.0,0.0,0.0,0.0,0.0,0.0,0.0,0.0,0.0
194172364,8,1526.0,1483.0,1495.0,1514.0,1497.0,1512.0,0.0,0.0,0.0,0.0,0.0,0.0,0.0,0.0,0.0,0.0
194288270,8,1499.0,1510.0,1519.0,1490.0,1485.0,1524.0,0.0,0.0,0.0,0.0,0.0,0.0,0.0,0.0,0.0,0.0
194376270,8,1501.0,1508.0,1514.0,1495.0,1497.0,1512.0,0.0,0.0,0.0,0.0,0.0,0.0,0.0,0.0,0.0,0.0
194484313,8,1518.0,1491.0,1524.0,1485.0,1512.0,1497.0,0.0,0.0,0.0,0.0,0.0,0.0,0.0,0.0,0.0,0.0
194589319,8,1491.0,1518.0,1518.0,1491.0,1478.0,1531.0,0.0,0.0,0.0,0.0,0.0,0.0,0.0,0.0,0.0,0.0
194678179,8,1491.0,1519.0,1528.0,1482.0,1481.0,1529.0,0.0,0.0,0.0,0.0,0.0,0.0,0.0,0.0,0.0,0.0
194789859,8,1513.0,1496.0,1517.0,1492.0,1502.0,1507.0,0.0,0.0,0.0,0.0,0.0,0.0,0.0,0.0,0.0,0.0
194901903,8,1519.0,1492.0,1514.0,1497.0,1500.0,1511.0,0.0,0.0,0.0,0.0,0.0,0.0,0.0,0.0,0.0,0.0
194989968,8,1525.0,1485.0,1518.0,1491.0,1515.0,1495.0,0.0,0.0,0.0,0.0,0.0,0.0,0.0,0.0,0.0,0.0
195101927,8,1492.0,1517.0,1508.0,1501.0,1457.0,1552.0,0.0,0.0,0.0,0.0,0.0,0.0,0.0,0.0,0.0,0.0
195194570,8,1510.0,1501.0,1549.0,1462.0,1530.0,1481.0,0.0,0.0,0.0,0.0,0.0,0.0,0.0,0.0,0.0,0.0
195302579,8,1529.0,1481.0,1493.0,1518.0,1496.0,1514.0,0.0,0.0,0.0,0.0,0.0,0.0,0.0,0.0,0.0,0.0
195405949,8,1519.0,1496.0,1509.0,1506.0,1495.0,1520.0,0.0,0.0,0.0,0.0,0.0,0.0,0.0,0.0,0.0,0.0
195494758,8,1465.0,1547.0,1522.0,1490.0,1458.0,1553.0,0.0,0.0,0.0,0.0,0.0,0.0,0.0,0.0,0.0,0.0
195606708,8,1547.0,1465.0,1536.0,1477.0,1551.0,1461.0,0.0,0.0,0.0,0.0,0.0,0.0,0.0,0.0,0.0,0.0
195710701,8,1494.0,1519.0,1537.0,1476.0,1472.0,1540.0,0.0,0.0,0.0,0.0,0.0,0.0,0.0,0.0,0.0,0.0
195798701,8,1505.0,1507.0,1510.0,1502.0,1490.0,1522.0,0.0,0.0,0.0,0.0,0.0,0.0,0.0,0.0,0.0,0.0
195902662,8,1502.0,1510.0,1514.0,1499.0,1489.0,1523.0,0.0,0.0,0.0,0.0,0.0,0.0,0.0,0.0,0.0,0.0
196014680,8,1466.0,1547.0,1529.0,1483.0,1463.0,1550.0,0.0,0.0,0.0,0.0,0.0,0.0,0.0,0.0,0.0,0.0
196106893,8,1487.0,1525.0,1506.0,1507.0,1479.0,1533.0,0.0,0.0,0.0,0.0,0.0,0.0,0.0,0.0,0.0,0.0
196218715,8,1514.0,1499.0,1469.0,1544.0,1480.0,1534.0,0.0,0.0,0.0,0.0,0.0,0.0,0.0,0.0,0.0,0.0
196311356,8,1498.0,1514.0,1510.0,1502.0,1503.0,1509.0,0.0,0.0,0.0,0.0,0.0,0.0,0.0,0.0,0.0,0.0
196422698,8,1506.0,1506.0,1497.0,1515.0,1479.0,1534.0,0.0,0.0,0.0,0.0,0.0,0.0,0.0,0.0,0.0,0.0
196510700,8,1501.0,1510.0,1514.0,1498.0,1460.0,1552.0,0.0,0.0,0.0,0.0,0.0,0.0,0.0,0.0,0.0,0.0
196618735,8,1483.0,1529.0,1511.0,1502.0,1468.0,1544.0,0.0,0.0,0.0,0.0,0.0,0.0,0.0,0.0,0.0,0.0
196720329,8,1474.0,1537.0,1506.0,1530.0,1460.0,1551.0,0.0,0.0,0.0,0.0,0.0,0.0,0.0,0.0,0.0,0.0
196808328,8,1508.0,1501.0,1521.0,1488.0,1520.0,1489.0,0.0,0.0,0.0,0.0,0.0,0.0,0.0,0.0,0.0,0.0
196928352,8,1518.0,1490.0,1480.0,1528.0,1495.0,1513.0,0.0,0.0,0.0,0.0,0.0,0.0,0.0,0.0,0.0,0.0
197032978,8,1453.0,1459.0,1464.0,1449.0,1454.0,1459.0,0.0,0.0,0.0,0.0,0.0,0.0,0.0,0.0,0.0,0.0
197120303,8,1278.0,1218.0,1248.0,1248.0,1256.0,1240.0,0.0,0.0,0.0,0.0,0.0,0.0,0.0,0.0,0.0,0.0
197236518,8,1197.0,1244.0,1172.0,1269.0,1131.0,1310.0,0.0,0.0,0.0,0.0,0.0,0.0,0.0,0.0,0.0,0.0
197332305,8,1174.0,1117.0,1088.0,1203.0,1075.0,1217.0,0.0,0.0,0.0,0.0,0.0,0.0,0.0,0.0,0.0,0.0
197428995,8,1148.0,1140.0,1158.0,1130.0,1106.0,1182.0,0.0,0.0,0.0,0.0,0.0,0.0,0.0,0.0,0.0,0.0
197534551,8,1197.0,1091.0,1121.0,1167.0,1143.0,1145.0,0.0,0.0,0.0,0.0,0.0,0.0,0.0,0.0,0.0,0.0
197629883,8,1128.0,1160.0,1164.0,1124.0,1108.0,1180.0,0.0,0.0,0.0,0.0,0.0,0.0,0.0,0.0,0.0,0.0
197733890,8,1148.0,1140.0,1149.0,1139.0,1104.0,1184.0,0.0,0.0,0.0,0.0,0.0,0.0,0.0,0.0,0.0,0.0
197842195,8,1165.0,1123.0,1121.0,1167.0,1122.0,1166.0,0.0,0.0,0.0,0.0,0.0,0.0,0.0,0.0,0.0,0.0
197934091,8,1175.0,1113.0,1131.0,1157.0,1102.0,1186.0,0.0,0.0,0.0,0.0,0.0,0.0,0.0,0.0,0.0,0.0
198041942,8,1154.0,1134.0,1133.0,1155.0,1105.0,1183.0,0.0,0.0,0.0,0.0,0.0,0.0,0.0,0.0,0.0,0.0
198149888,8,1154.0,1134.0,1138.0,1150.0,1105.0,1183.0,0.0,0.0,0.0,0.0,0.0,0.0,0.0,0.0,0.0,0.0
198237871,8,1167.0,1121.0,1137.0,1151.0,1112.0,1176.0,0.0,0.0,0.0,0.0,0.0,0.0,0.0,0.0,0.0,0.0
198341893,8,1162.0,1126.0,1136.0,1152.0,1112.0,1176.0,0.0,0.0,0.0,0.0,0.0,0.0,0.0,0.0,0.0,0.0
198454682,8,1164.0,1124.0,1139.0,1149.0,1108.0,1180.0,0.0,0.0,0.0,0.0,0.0,0.0,0.0,0.0,0.0,0.0
198546748,8,1160.0,1128.0,1136.0,1152.0,1108.0,1180.0,0.0,0.0,0.0,0.0,0.0,0.0,0.0,0.0,0.0,0.0
198654689,8,1165.0,1123.0,1135.0,1153.0,1108.0,1180.0,0.0,0.0,0.0,0.0,0.0,0.0,0.0,0.0,0.0,0.0
198742714,8,1166.0,1122.0,1134.0,1154.0,1107.0,1181.0,0.0,0.0,0.0,0.0,0.0,0.0,0.0,0.0,0.0,0.0
198846724,8,1164.0,1124.0,1134.0,1154.0,1107.0,1181.0,0.0,0.0,0.0,0.0,0.0,0.0,0.0,0.0,0.0,0.0
198954927,8,1167.0,1121.0,1135.0,1153.0,1105.0,1183.0,0.0,0.0,0.0,0.0,0.0,0.0,0.0,0.0,0.0,0.0
199042702,8,1167.0,1121.0,1133.0,1155.0,1110.0,1178.0,0.0,0.0,0.0,0.0,0.0,0.0,0.0,0.0,0.0,0.0
199150700,8,1181.0,1134.0,1149.0,1166.0,1122.0,1193.0,0.0,0.0,0.0,0.0,0.0,0.0,0.0,0.0,0.0,0.0
199263349,8,1221.0,1173.0,1187.0,1207.0,1161.0,1233.0,0.0,0.0,0.0,0.0,0.0,0.0,0.0,0.0,0.0,0.0
199350726,8,1248.0,1196.0,1214.0,1230.0,1186.0,1258.0,0.0,0.0,0.0,0.0,0.0,0.0,0.0,0.0,0.0,0.0
199462707,8,1289.0,1227.0,1248.0,1267.0,1220.0,1295.0,0.0,0.0,0.0,0.0,0.0,0.0,0.0,0.0,0.0,0.0
199551355,8,1285.0,1233.0,1250.0,1268.0,1222.0,1296.0,0.0,0.0,0.0,0.0,0.0,0.0,0.0,0.0,0.0,0.0
199664278,8,1310.0,1260.0,1279.0,1291.0,1245.0,1326.0,0.0,0.0,0.0,0.0,0.0,0.0,0.0,0.0,0.0,0.0
199756293,8,1316.0,1257.0,1280.0,1294.0,1249.0,1325.0,0.0,0.0,0.0,0.0,0.0,0.0,0.0,0.0,0.0,0.0
199864305,8,1359.0,1302.0,1328.0,1333.0,1295.0,1367.0,0.0,0.0,0.0,0.0,0.0,0.0,0.0,0.0,0.0,0.0
199976525,8,1360.0,1302.0,1330.0,1332.0,1293.0,1368.0,0.0,0.0,0.0,0.0,0.0,0.0,0.0,0.0,0.0,0.0
200064498,8,1354.0,1286.0,1315.0,1324.0,1281.0,1359.0,0.0,0.0,0.0,0.0,0.0,0.0,0.0,0.0,0.0,0.0
200176483,8,1355.0,1284.0,1314.0,1326.0,1276.0,1364.0,0.0,0.0,0.0,0.0,0.0,0.0,0.0,0.0,0.0,0.0
200273142,8,1362.0,1279.0,1308.0,1333.0,1274.0,1367.0,0.0,0.0,0.0,0.0,0.0,0.0,0.0,0.0,0.0,0.0
200368262,8,1359.0,1299.0,1321.0,1336.0,1280.0,1377.0,0.0,0.0,0.0,0.0,0.0,0.0,0.0,0.0,0.0,0.0
200473114,8,1278.0,1379.0,1233.0,1423.0,1365.0,1291.0,0.0,0.0,0.0,0.0,0.0,0.0,0.0,0.0,0.0,0.0
200585966,8,1224.0,1438.0,1185.0,1476.0,1426.0,1235.0,0.0,0.0,0.0,0.0,0.0,0.0,0.0,0.0,0.0,0.0
200673863,8,1253.0,1408.0,1187.0,1475.0,1418.0,1244.0,0.0,0.0,0.0,0.0,0.0,0.0,0.0,0.0,0.0,0.0
200781915,8,1258.0,1448.0,1202.0,1504.0,1459.0,1247.0,0.0,0.0,0.0,0.0,0.0,0.0,0.0,0.0,0.0,0.0
200885905,8,1269.0,1442.0,1217.0,1494.0,1430.0,1281.0,0.0,0.0,0.0,0.0,0.0,0.0,0.0,0.0,0.0,0.0
200973883,8,1311.0,1436.0,1271.0,1476.0,1430.0,1317.0,0.0,0.0,0.0,0.0,0.0,0.0,0.0,0.0,0.0,0.0
201078146,8,1338.0,1420.0,1291.0,1467.0,1413.0,1345.0,0.0,0.0,0.0,0.0,0.0,0.0,0.0,0.0,0.0,0.0
201185873,8,1364.0,1412.0,1325.0,1452.0,1400.0,1376.0,0.0,0.0,0.0,0.0,0.0,0.0,0.0,0.0,0.0,0.0
201293876,8,1401.0,1405.0,1365.0,1441.0,1396.0,1410.0,0.0,0.0,0.0,0.0,0.0,0.0,0.0,0.0,0.0,0.0
201399502,8,1387.0,1419.0,1352.0,1455.0,1387.0,1420.0,0.0,0.0,0.0,0.0,0.0,0.0,0.0,0.0,0.0,0.0
201487532,8,1428.0,1410.0,1361.0,1477.0,1420.0,1419.0,0.0,0.0,0.0,0.0,0.0,0.0,0.0,0.0,0.0,0.0
201591716,8,1442.0,1407.0,1365.0,1484.0,1428.0,1421.0,0.0,0.0,0.0,0.0,0.0,0.0,0.0,0.0,0.0,0.0
201683500,8,1435.0,1418.0,1374.0,1479.0,1425.0,1427.0,0.0,0.0,0.0,0.0,0.0,0.0,0.0,0.0,0.0,0.0
201795481,8,1428.0,1419.0,1380.0,1467.0,1426.0,1421.0,0.0,0.0,0.0,0.0,0.0,0.0,0.0,0.0,0.0,0.0
201907499,8,1437.0,1415.0,1366.0,1486.0,1425.0,1427.0,0.0,0.0,0.0,0.0,0.0,0.0,0.0,0.0,0.0,0.0
201991457,8,1473.0,1423.0,1381.0,1514.0,1444.0,1451.0,0.0,0.0,0.0,0.0,0.0,0.0,0.0,0.0,0.0,0.0
202095525,8,1440.0,1465.0,1421.0,1484.0,1454.0,1451.0,0.0,0.0,0.0,0.0,0.0,0.0,0.0,0.0,0.0,0.0
202199511,8,1496.0,1497.0,1476.0,1517.0,1490.0,1503.0,0.0,0.0,0.0,0.0,0.0,0.0,0.0,0.0,0.0,0.0
202309120,8,1478.0,1515.0,1497.0,1496.0,1487.0,1507.0,0.0,0.0,0.0,0.0,0.0,0.0,0.0,0.0,0.0,0.0
202397802,8,1490.0,1509.0,1513.0,1487.0,1490.0,1510.0,0.0,0.0,0.0,0.0,0.0,0.0,0.0,0.0,0.0,0.0
202513122,8,1506.0,1503.0,1485.0,1524.0,1480.0,1529.0,0.0,0.0,0.0,0.0,0.0,0.0,0.0,0.0,0.0,0.0
202601152,8,1479.0,1502.0,1500.0,1481.0,1472.0,1509.0,0.0,0.0,0.0,0.0,0.0,0.0,0.0,0.0,0.0,0.0
202717100,8,1442.0,1485.0,1431.0,1496.0,1468.0,1420.0,0.0,0.0,0.0,0.0,0.0,0.0,0.0,0.0,0.0,0.0
202805297,8,1411.0,1510.0,1425.0,1496.0,1508.0,1413.0,0.0,0.0,0.0,0.0,0.0,0.0,0.0,0.0,0.0,0.0
202925095,8,1398.0,1534.0,1476.0,1457.0,1508.0,1424.0,0.0,0.0,0.0,0.0,0.0,0.0,0.0,0.0,0.0,0.0
203013088,8,1431.0,1505.0,1447.0,1489.0,1501.0,1435.0,0.0,0.0,0.0,0.0,0.0,0.0,0.0,0.0,0.0,0.0
203126731,8,1482.0,1456.0,1417.0,1521.0,1468.0,1470.0,0.0,0.0,0.0,0.0,0.0,0.0,0.0,0.0,0.0,0.0
203218955,8,1502.0,1445.0,1435.0,1512.0,1480.0,1467.0,0.0,0.0,0.0,0.0,0.0,0.0,0.0,0.0,0.0,0.0
203322690,8,1526.0,1468.0,1449.0,1544.0,1464.0,1530.0,0.0,0.0,0.0,0.0,0.0,0.0,0.0,0.0,0.0,0.0
203430674,8,1513.0,1497.0,1510.0,1499.0,1448.0,1562.0,0.0,0.0,0.0,0.0,0.0,0.0,0.0,0.0,0.0,0.0
203526697,8,1512.0,1499.0,1538.0,1473.0,1469.0,1542.0,0.0,0.0,0.0,0.0,0.0,0.0,0.0,0.0,0.0,0.0
203619450,8,1529.0,1483.0,1500.0,1511.0,1462.0,1550.0,0.0,0.0,0.0,0.0,0.0,0.0,0.0,0.0,0.0,0.0
203730667,8,1523.0,1488.0,1524.0,1487.0,1482.0,1529.0,0.0,0.0,0.0,0.0,0.0,0.0,0.0,0.0,0.0,0.0
203839056,8,1512.0,1498.0,1483.0,1526.0,1506.0,1504.0,0.0,0.0,0.0,0.0,0.0,0.0,0.0,0.0,0.0,0.0
203934713,8,1479.0,1530.0,1484.0,1525.0,1478.0,1531.0,0.0,0.0,0.0,0.0,0.0,0.0,0.0,0.0,0.0,0.0
204044358,8,1467.0,1544.0,1524.0,1486.0,1535.0,1475.0,0.0,0.0,0.0,0.0,0.0,0.0,0.0,0.0,0.0,0.0
204128502,8,1466.0,1542.0,1491.0,1517.0,1490.0,1518.0,0.0,0.0,0.0,0.0,0.0,0.0,0.0,0.0,0.0,0.0
204232895,8,1463.0,1533.0,1482.0,1514.0,1504.0,1492.0,0.0,0.0,0.0,0.0,0.0,0.0,0.0,0.0,0.0,0.0
204344325,8,1479.0,1512.0,1504.0,1487.0,1535.0,1456.0,0.0,0.0,0.0,0.0,0.0,0.0,0.0,0.0,0.0,0.0
204436295,8,1487.0,1502.0,1477.0,1512.0,1506.0,1483.0,0.0,0.0,0.0,0.0,0.0,0.0,0.0,0.0,0.0,0.0
204548303,8,1486.0,1505.0,1459.0,1533.0,1452.0,1539.0,0.0,0.0,0.0,0.0,0.0,0.0,0.0,0.0,0.0,0.0
204640323,8,1507.0,1486.0,1509.0,1484.0,1462.0,1531.0,0.0,0.0,0.0,0.0,0.0,0.0,0.0,0.0,0.0,0.0
204748353,8,1478.0,1532.0,1575.0,1435.0,1369.0,1641.0,0.0,0.0,0.0,0.0,0.0,0.0,0.0,0.0,0.0,0.0
204844990,8,1530.0,1483.0,1562.0,1451.0,1449.0,1563.0,0.0,0.0,0.0,0.0,0.0,0.0,0.0,0.0,0.0,0.0
204953859,8,1521.0,1493.0,1536.0,1478.0,1439.0,1575.0,0.0,0.0,0.0,0.0,0.0,0.0,0.0,0.0,0.0,0.0
205045898,8,1524.0,1490.0,1552.0,1462.0,1475.0,1539.0,0.0,0.0,0.0,0.0,0.0,0.0,0.0,0.0,0.0,0.0
205158146,8,1531.0,1482.0,1494.0,1519.0,1456.0,1557.0,0.0,0.0,0.0,0.0,0.0,0.0,0.0,0.0,0.0,0.0
205249889,8,1534.0,1479.0,1507.0,1506.0,1475.0,1538.0,0.0,0.0,0.0,0.0,0.0,0.0,0.0,0.0,0.0,0.0
205358199,8,1498.0,1514.0,1544.0,1468.0,1486.0,1527.0,0.0,0.0,0.0,0.0,0.0,0.0,0.0,0.0,0.0,0.0
205445897,8,1516.0,1497.0,1550.0,1463.0,1511.0,1502.0,0.0,0.0,0.0,0.0,0.0,0.0,0.0,0.0,0.0,0.0
205565875,8,1482.0,1532.0,1478.0,1536.0,1549.0,1465.0,0.0,0.0,0.0,0.0,0.0,0.0,0.0,0.0,0.0,0.0
205662147,8,1437.0,1573.0,1449.0,1561.0,1554.0,1457.0,0.0,0.0,0.0,0.0,0.0,0.0,0.0,0.0,0.0,0.0
205755809,8,1437.0,1575.0,1445.0,1568.0,1573.0,1439.0,0.0,0.0,0.0,0.0,0.0,0.0,0.0,0.0,0.0,0.0
205863749,8,1454.0,1557.0,1484.0,1527.0,1511.0,1500.0,0.0,0.0,0.0,0.0,0.0,0.0,0.0,0.0,0.0,0.0
205956139,8,1487.0,1524.0,1472.0,1539.0,1515.0,1496.0,0.0,0.0,0.0,0.0,0.0,0.0,0.0,0.0,0.0,0.0
206071524,8,1500.0,1512.0,1493.0,1519.0,1477.0,1535.0,0.0,0.0,0.0,0.0,0.0,0.0,0.0,0.0,0.0,0.0
206163536,8,1519.0,1492.0,1530.0,1481.0,1424.0,1587.0,0.0,0.0,0.0,0.0,0.0,0.0,0.0,0.0,0.0,0.0
206275565,8,1561.0,1451.0,1571.0,1441.0,1453.0,1559.0,0.0,0.0,0.0,0.0,0.0,0.0,0.0,0.0,0.0,0.0
206379486,8,1567.0,1445.0,1576.0,1436.0,1433.0,1579.0,0.0,0.0,0.0,0.0,0.0,0.0,0.0,0.0,0.0,0.0
206463498,8,1545.0,1469.0,1574.0,1439.0,1432.0,1581.0,0.0,0.0,0.0,0.0,0.0,0.0,0.0,0.0,0.0,0.0
206575483,8,1541.0,1473.0,1526.0,1488.0,1485.0,1529.0,0.0,0.0,0.0,0.0,0.0,0.0,0.0,0.0,0.0,0.0
206685296,8,1517.0,1496.0,1514.0,1499.0,1471.0,1542.0,0.0,0.0,0.0,0.0,0.0,0.0,0.0,0.0,0.0,0.0
206781894,8,1480.0,1535.0,1466.0,1548.0,1487.0,1528.0,0.0,0.0,0.0,0.0,0.0,0.0,0.0,0.0,0.0,0.0
206865153,8,1481.0,1531.0,1456.0,1557.0,1512.0,1501.0,0.0,0.0,0.0,0.0,0.0,0.0,0.0,0.0,0.0,0.0
206981372,8,1461.0,1553.0,1438.0,1576.0,1488.0,1526.0,0.0,0.0,0.0,0.0,0.0,0.0,0.0,0.0,0.0,0.0
207093132,8,1466.0,1546.0,1476.0,1537.0,1478.0,1534.0,0.0,0.0,0.0,0.0,0.0,0.0,0.0,0.0,0.0,0.0
207177891,8,1509.0,1504.0,1483.0,1530.0,1499.0,1514.0,0.0,0.0,0.0,0.0,0.0,0.0,0.0,0.0,0.0,0.0
207281186,8,1503.0,1510.0,1492.0,1521.0,1496.0,1518.0,0.0,0.0,0.0,0.0,0.0,0.0,0.0,0.0,0.0,0.0
207401048,8,1503.0,1510.0,1493.0,1519.0,1468.0,1545.0,0.0,0.0,0.0,0.0,0.0,0.0,0.0,0.0,0.0,0.0
207482698,8,1509.0,1505.0,1511.0,1503.0,1487.0,1528.0,0.0,0.0,0.0,0.0,0.0,0.0,0.0,0.0,0.0,0.0
207598725,8,1518.0,1495.0,1507.0,1506.0,1478.0,1535.0,0.0,0.0,0.0,0.0,0.0,0.0,0.0,0.0,0.0,0.0
207686658,8,1564.0,1449.0,1538.0,1475.0,1456.0,1557.0,0.0,0.0,0.0,0.0,0.0,0.0,0.0,0.0,0.0,0.0
207798713,8,1532.0,1481.0,1531.0,1482.0,1469.0,1543.0,0.0,0.0,0.0,0.0,0.0,0.0,0.0,0.0,0.0,0.0
207894690,8,1517.0,1495.0,1528.0,1485.0,1468.0,1545.0,0.0,0.0,0.0,0.0,0.0,0.0,0.0,0.0,0.0,0.0
208007646,8,1515.0,1500.0,1543.0,1471.0,1501.0,1514.0,0.0,0.0,0.0,0.0,0.0,0.0,0.0,0.0,0.0,0.0
208094714,8,1507.0,1506.0,1526.0,1487.0,1470.0,1543.0,0.0,0.0,0.0,0.0,0.0,0.0,0.0,0.0,0.0,0.0
208207048,8,1527.0,1487.0,1525.0,1489.0,1459.0,1555.0,0.0,0.0,0.0,0.0,0.0,0.0,0.0,0.0,0.0,0.0
208295381,8,1530.0,1483.0,1517.0,1496.0,1445.0,1568.0,0.0,0.0,0.0,0.0,0.0,0.0,0.0,0.0,0.0,0.0
208404154,8,1504.0,1510.0,1529.0,1485.0,1460.0,1554.0,0.0,0.0,0.0,0.0,0.0,0.0,0.0,0.0,0.0,0.0
208495791,8,1512.0,1504.0,1515.0,1501.0,1469.0,1548.0,0.0,0.0,0.0,0.0,0.0,0.0,0.0,0.0,0.0,0.0
208607497,8,1500.0,1515.0,1508.0,1506.0,1469.0,1545.0,0.0,0.0,0.0,0.0,0.0,0.0,0.0,0.0,0.0,0.0
208703517,8,1509.0,1507.0,1518.0,1498.0,1486.0,1530.0,0.0,0.0,0.0,0.0,0.0,0.0,0.0,0.0,0.0,0.0
208815478,8,1518.0,1496.0,1514.0,1501.0,1504.0,1510.0,0.0,0.0,0.0,0.0,0.0,0.0,0.0,0.0,0.0,0.0
208919521,8,1507.0,1506.0,1517.0,1496.0,1497.0,1516.0,0.0,0.0,0.0,0.0,0.0,0.0,0.0,0.0,0.0,0.0
209016258,8,1508.0,1506.0,1526.0,1488.0,1526.0,1488.0,0.0,0.0,0.0,0.0,0.0,0.0,0.0,0.0,0.0,0.0
209103492,8,1514.0,1500.0,1508.0,1507.0,1501.0,1514.0,0.0,0.0,0.0,0.0,0.0,0.0,0.0,0.0,0.0,0.0
209211707,8,1500.0,1518.0,1520.0,1497.0,1496.0,1522.0,0.0,0.0,0.0,0.0,0.0,0.0,0.0,0.0,0.0,0.0
209319720,8,1520.0,1504.0,1513.0,1511.0,1512.0,1512.0,0.0,0.0,0.0,0.0,0.0,0.0,0.0,0.0,0.0,0.0
209412270,8,1503.0,1536.0,1540.0,1500.0,1517.0,1522.0,0.0,0.0,0.0,0.0,0.0,0.0,0.0,0.0,0.0,0.0
209521103,8,1525.0,1537.0,1520.0,1541.0,1503.0,1559.0,0.0,0.0,0.0,0.0,0.0,0.0,0.0,0.0,0.0,0.0
209633322,8,1556.0,1535.0,1532.0,1559.0,1527.0,1564.0,0.0,0.0,0.0,0.0,0.0,0.0,0.0,0.0,0.0,0.0
209721317,8,1573.0,1536.0,1531.0,1578.0,1521.0,1588.0,0.0,0.0,0.0,0.0,0.0,0.0,0.0,0.0,0.0,0.0
209837079,8,1568.0,1542.0,1553.0,1557.0,1532.0,1579.0,0.0,0.0,0.0,0.0,0.0,0.0,0.0,0.0,0.0,0.0
209929317,8,1576.0,1535.0,1566.0,1545.0,1552.0,1557.0,0.0,0.0,0.0,0.0,0.0,0.0,0.0,0.0,0.0,0.0
210033093,8,1548.0,1524.0,1549.0,1523.0,1526.0,1546.0,0.0,0.0,0.0,0.0,0.0,0.0,0.0,0.0,0.0,0.0
210121260,8,1515.0,1526.0,1540.0,1502.0,1497.0,1544.0,0.0,0.0,0.0,0.0,0.0,0.0,0.0,0.0,0.0,0.0
210237844,8,1523.0,1500.0,1504.0,1519.0,1480.0,1544.0,0.0,0.0,0.0,0.0,0.0,0.0,0.0,0.0,0.0,0.0
210325362,8,1512.0,1510.0,1501.0,1521.0,1505.0,1517.0,0.0,0.0,0.0,0.0,0.0,0.0,0.0,0.0,0.0,0.0
210434726,8,1505.0,1519.0,1506.0,1518.0,1482.0,1542.0,0.0,0.0,0.0,0.0,0.0,0.0,0.0,0.0,0.0,0.0
210530884,8,1495.0,1525.0,1538.0,1482.0,1497.0,1523.0,0.0,0.0,0.0,0.0,0.0,0.0,0.0,0.0,0.0,0.0
210646702,8,1515.0,1506.0,1505.0,1516.0,1490.0,1531.0,0.0,0.0,0.0,0.0,0.0,0.0,0.0,0.0,0.0,0.0
210746690,8,1514.0,1517.0,1517.0,1514.0,1496.0,1535.0,0.0,0.0,0.0,0.0,0.0,0.0,0.0,0.0,0.0,0.0
210842694,8,1516.0,1526.0,1540.0,1502.0,1507.0,1535.0,0.0,0.0,0.0,0.0,0.0,0.0,0.0,0.0,0.0,0.0
210930931,8,1515.0,1529.0,1525.0,1519.0,1498.0,1546.0,0.0,0.0,0.0,0.0,0.0,0.0,0.0,0.0,0.0,0.0
211038954,8,1550.0,1552.0,1555.0,1547.0,1527.0,1575.0,0.0,0.0,0.0,0.0,0.0,0.0,0.0,0.0,0.0,0.0
211150686,8,1557.0,1567.0,1566.0,1558.0,1532.0,1592.0,0.0,0.0,0.0,0.0,0.0,0.0,0.0,0.0,0.0,0.0
211239519,8,1565.0,1565.0,1564.0,1567.0,1544.0,1587.0,0.0,0.0,0.0,0.0,0.0,0.0,0.0,0.0,0.0,0.0
211352154,8,1560.0,1579.0,1576.0,1564.0,1536.0,1603.0,0.0,0.0,0.0,0.0,0.0,0.0,0.0,0.0,0.0,0.0
211443577,8,1554.0,1585.0,1574.0,1566.0,1538.0,1601.0,0.0,0.0,0.0,0.0,0.0,0.0,0.0,0.0,0.0,0.0
211539734,8,1558.0,1580.0,1567.0,1570.0,1536.0,1601.0,0.0,0.0,0.0,0.0,0.0,0.0,0.0,0.0,0.0,0.0
211651708,8,1561.0,1576.0,1583.0,1554.0,1547.0,1590.0,0.0,0.0,0.0,0.0,0.0,0.0,0.0,0.0,0.0,0.0
211755710,8,1560.0,1570.0,1572.0,1558.0,1539.0,1590.0,0.0,0.0,0.0,0.0,0.0,0.0,0.0,0.0,0.0,0.0
211843659,8,1554.0,1556.0,1565.0,1545.0,1536.0,1575.0,0.0,0.0,0.0,0.0,0.0,0.0,0.0,0.0,0.0,0.0
211955555,8,1549.0,1559.0,1564.0,1545.0,1532.0,1577.0,0.0,0.0,0.0,0.0,0.0,0.0,0.0,0.0,0.0,0.0
213177072,8,1551.0,1563.0,1553.0,1561.0,1527.0,1587.0,0.0,0.0,0.0,0.0,0.0,0.0,0.0,0.0,0.0,0.0
213479511,8,1550.0,1563.0,1563.0,1550.0,1540.0,1573.0,0.0,0.0,0.0,0.0,0.0,0.0,0.0,0.0,0.0,0.0
213587382,8,1554.0,1559.0,1566.0,1547.0,1537.0,1576.0,0.0,0.0,0.0,0.0,0.0,0.0,0.0,0.0,0.0,0.0
213670687,8,1549.0,1561.0,1553.0,1557.0,1533.0,1577.0,0.0,0.0,0.0,0.0,0.0,0.0,0.0,0.0,0.0,0.0
213778756,8,1546.0,1564.0,1559.0,1551.0,1532.0,1578.0,0.0,0.0,0.0,0.0,0.0,0.0,0.0,0.0,0.0,0.0
213886729,8,1551.0,1559.0,1559.0,1552.0,1533.0,1578.0,0.0,0.0,0.0,0.0,0.0,0.0,0.0,0.0,0.0,0.0
213978691,8,1550.0,1553.0,1543.0,1559.0,1525.0,1578.0,0.0,0.0,0.0,0.0,0.0,0.0,0.0,0.0,0.0,0.0
214086701,8,1564.0,1535.0,1546.0,1553.0,1542.0,1557.0,0.0,0.0,0.0,0.0,0.0,0.0,0.0,0.0,0.0,0.0
214196325,8,1545.0,1541.0,1555.0,1531.0,1543.0,1544.0,0.0,0.0,0.0,0.0,0.0,0.0,0.0,0.0,0.0,0.0
214300333,8,1542.0,1544.0,1540.0,1547.0,1527.0,1559.0,0.0,0.0,0.0,0.0,0.0,0.0,0.0,0.0,0.0,0.0
214396295,8,1533.0,1528.0,1530.0,1531.0,1516.0,1545.0,0.0,0.0,0.0,0.0,0.0,0.0,0.0,0.0,0.0,0.0
214500294,8,1510.0,1519.0,1526.0,1503.0,1502.0,1527.0,0.0,0.0,0.0,0.0,0.0,0.0,0.0,0.0,0.0,0.0
214592305,8,1508.0,1506.0,1521.0,1493.0,1503.0,1511.0,0.0,0.0,0.0,0.0,0.0,0.0,0.0,0.0,0.0,0.0
214708473,8,1506.0,1500.0,1498.0,1508.0,1487.0,1520.0,0.0,0.0,0.0,0.0,0.0,0.0,0.0,0.0,0.0,0.0
214796272,8,1486.0,1507.0,1498.0,1494.0,1467.0,1525.0,0.0,0.0,0.0,0.0,0.0,0.0,0.0,0.0,0.0,0.0
214888297,8,1490.0,1495.0,1504.0,1482.0,1486.0,1500.0,0.0,0.0,0.0,0.0,0.0,0.0,0.0,0.0,0.0,0.0
215001922,8,1456.0,1502.0,1503.0,1455.0,1457.0,1501.0,0.0,0.0,0.0,0.0,0.0,0.0,0.0,0.0,0.0,0.0
215094012,8,1470.0,1471.0,1480.0,1461.0,1468.0,1473.0,0.0,0.0,0.0,0.0,0.0,0.0,0.0,0.0,0.0,0.0
215206521,8,1428.0,1423.0,1407.0,1444.0,1393.0,1458.0,0.0,0.0,0.0,0.0,0.0,0.0,0.0,0.0,0.0,0.0
215301912,8,1458.0,1508.0,1502.0,1465.0,1460.0,1507.0,0.0,0.0,0.0,0.0,0.0,0.0,0.0,0.0,0.0,0.0
215410089,8,1534.0,1505.0,1498.0,1541.0,1490.0,1549.0,0.0,0.0,0.0,0.0,0.0,0.0,0.0,0.0,0.0,0.0
215498098,8,1625.0,1622.0,1621.0,1626.0,1599.0,1648.0,0.0,0.0,0.0,0.0,0.0,0.0,0.0,0.0,0.0,0.0
215609940,8,1693.0,1705.0,1699.0,1699.0,1668.0,1730.0,0.0,0.0,0.0,0.0,0.0,0.0,0.0,0.0,0.0,0.0
215721928,8,1733.0,1697.0,1708.0,1722.0,1707.0,1723.0,0.0,0.0,0.0,0.0,0.0,0.0,0.0,0.0,0.0,0.0
215813854,8,1710.0,1722.0,1707.0,1724.0,1687.0,1745.0,0.0,0.0,0.0,0.0,0.0,0.0,0.0,0.0,0.0,0.0
215903553,8,1734.0,1667.0,1659.0,1743.0,1657.0,1744.0,0.0,0.0,0.0,0.0,0.0,0.0,0.0,0.0,0.0,0.0
216015898,8,1656.0,1661.0,1658.0,1660.0,1628.0,1689.0,0.0,0.0,0.0,0.0,0.0,0.0,0.0,0.0,0.0,0.0
216123500,8,1624.0,1647.0,1643.0,1627.0,1610.0,1660.0,0.0,0.0,0.0,0.0,0.0,0.0,0.0,0.0,0.0,0.0
216215665,8,1572.0,1609.0,1619.0,1562.0,1584.0,1597.0,0.0,0.0,0.0,0.0,0.0,0.0,0.0,0.0,0.0,0.0
216327476,8,1535.0,1545.0,1549.0,1532.0,1529.0,1552.0,0.0,0.0,0.0,0.0,0.0,0.0,0.0,0.0,0.0,0.0
216419481,8,1516.0,1527.0,1522.0,1520.0,1509.0,1534.0,0.0,0.0,0.0,0.0,0.0,0.0,0.0,0.0,0.0,0.0
216523452,8,1508.0,1513.0,1498.0,1523.0,1483.0,1538.0,0.0,0.0,0.0,0.0,0.0,0.0,0.0,0.0,0.0,0.0
216635519,8,1504.0,1516.0,1528.0,1492.0,1505.0,1514.0,0.0,0.0,0.0,0.0,0.0,0.0,0.0,0.0,0.0,0.0
216725332,8,1513.0,1508.0,1529.0,1492.0,1508.0,1514.0,0.0,0.0,0.0,0.0,0.0,0.0,0.0,0.0,0.0,0.0
216833353,8,1514.0,1507.0,1544.0,1477.0,1529.0,1491.0,0.0,0.0,0.0,0.0,0.0,0.0,0.0,0.0,0.0,0.0
216925145,8,1515.0,1505.0,1514.0,1506.0,1494.0,1526.0,0.0,0.0,0.0,0.0,0.0,0.0,0.0,0.0,0.0,0.0
217037797,8,1522.0,1516.0,1509.0,1529.0,1502.0,1535.0,0.0,0.0,0.0,0.0,0.0,0.0,0.0,0.0,0.0,0.0
217125099,8,1562.0,1570.0,1564.0,1568.0,1553.0,1579.0,0.0,0.0,0.0,0.0,0.0,0.0,0.0,0.0,0.0,0.0
217229409,8,1569.0,1568.0,1568.0,1569.0,1552.0,1580.0,0.0,0.0,0.0,0.0,0.0,0.0,0.0,0.0,0.0,0.0
217345334,8,1560.0,1574.0,1581.0,1553.0,1558.0,1576.0,0.0,0.0,0.0,0.0,0.0,0.0,0.0,0.0,0.0,0.0
217433741,8,1548.0,1549.0,1553.0,1543.0,1539.0,1557.0,0.0,0.0,0.0,0.0,0.0,0.0,0.0,0.0,0.0,0.0
217545896,8,1502.0,1509.0,1516.0,1496.0,1505.0,1507.0,0.0,0.0,0.0,0.0,0.0,0.0,0.0,0.0,0.0,0.0
217634152,8,1506.0,1505.0,1530.0,1481.0,1513.0,1498.0,0.0,0.0,0.0,0.0,0.0,0.0,0.0,0.0,0.0,0.0
217741944,8,1501.0,1502.0,1483.0,1520.0,1482.0,1521.0,0.0,0.0,0.0,0.0,0.0,0.0,0.0,0.0,0.0,0.0
217837871,8,1491.0,1480.0,1461.0,1511.0,1451.0,1521.0,0.0,0.0,0.0,0.0,0.0,0.0,0.0,0.0,0.0,0.0
217946116,8,1476.0,1468.0,1471.0,1472.0,1472.0,1472.0,0.0,0.0,0.0,0.0,0.0,0.0,0.0,0.0,0.0,0.0
218038226,8,1470.0,1448.0,1465.0,1452.0,1471.0,1446.0,0.0,0.0,0.0,0.0,0.0,0.0,0.0,0.0,0.0,0.0
218149911,8,1473.0,1479.0,1458.0,1495.0,1448.0,1505.0,0.0,0.0,0.0,0.0,0.0,0.0,0.0,0.0,0.0,0.0
218241929,8,1532.0,1522.0,1510.0,1544.0,1500.0,1553.0,0.0,0.0,0.0,0.0,0.0,0.0,0.0,0.0,0.0,0.0
218349884,8,1539.0,1553.0,1546.0,1547.0,1525.0,1567.0,0.0,0.0,0.0,0.0,0.0,0.0,0.0,0.0,0.0,0.0
218442710,8,1579.0,1580.0,1594.0,1564.0,1575.0,1583.0,0.0,0.0,0.0,0.0,0.0,0.0,0.0,0.0,0.0,0.0
218550542,8,1642.0,1622.0,1642.0,1623.0,1620.0,1645.0,0.0,0.0,0.0,0.0,0.0,0.0,0.0,0.0,0.0,0.0
218645831,8,1608.0,1622.0,1628.0,1602.0,1600.0,1631.0,0.0,0.0,0.0,0.0,0.0,0.0,0.0,0.0,0.0,0.0
218758967,8,1605.0,1612.0,1600.0,1617.0,1579.0,1639.0,0.0,0.0,0.0,0.0,0.0,0.0,0.0,0.0,0.0,0.0
218862953,8,1596.0,1599.0,1615.0,1580.0,1587.0,1607.0,0.0,0.0,0.0,0.0,0.0,0.0,0.0,0.0,0.0,0.0
218950692,8,1539.0,1508.0,1532.0,1515.0,1512.0,1535.0,0.0,0.0,0.0,0.0,0.0,0.0,0.0,0.0,0.0,0.0
219062726,8,1561.0,1572.0,1553.0,1580.0,1532.0,1601.0,0.0,0.0,0.0,0.0,0.0,0.0,0.0,0.0,0.0,0.0
219154724,8,1584.0,1560.0,1585.0,1559.0,1570.0,1574.0,0.0,0.0,0.0,0.0,0.0,0.0,0.0,0.0,0.0,0.0
219262951,8,1569.0,1581.0,1582.0,1568.0,1557.0,1593.0,0.0,0.0,0.0,0.0,0.0,0.0,0.0,0.0,0.0,0.0
219374690,8,1578.0,1570.0,1602.0,1546.0,1576.0,1571.0,0.0,0.0,0.0,0.0,0.0,0.0,0.0,0.0,0.0,0.0
219470783,8,1566.0,1580.0,1584.0,1562.0,1561.0,1585.0,0.0,0.0,0.0,0.0,0.0,0.0,0.0,0.0,0.0,0.0
219562723,8,1533.0,1546.0,1545.0,1534.0,1530.0,1549.0,0.0,0.0,0.0,0.0,0.0,0.0,0.0,0.0,0.0,0.0
219670699,8,1544.0,1546.0,1542.0,1548.0,1533.0,1556.0,0.0,0.0,0.0,0.0,0.0,0.0,0.0,0.0,0.0,0.0
219782650,8,1508.0,1503.0,1514.0,1497.0,1501.0,1510.0,0.0,0.0,0.0,0.0,0.0,0.0,0.0,0.0,0.0,0.0
219863481,8,1516.0,1491.0,1510.0,1497.0,1505.0,1502.0,0.0,0.0,0.0,0.0,0.0,0.0,0.0,0.0,0.0,0.0
219983531,8,1505.0,1497.0,1520.0,1481.0,1509.0,1493.0,0.0,0.0,0.0,0.0,0.0,0.0,0.0,0.0,0.0,0.0
220071529,8,1511.0,1491.0,1501.0,1501.0,1497.0,1505.0,0.0,0.0,0.0,0.0,0.0,0.0,0.0,0.0,0.0,0.0
220183488,8,1510.0,1501.0,1496.0,1514.0,1496.0,1515.0,0.0,0.0,0.0,0.0,0.0,0.0,0.0,0.0,0.0,0.0
220271730,8,1510.0,1503.0,1510.0,1503.0,1485.0,1528.0,0.0,0.0,0.0,0.0,0.0,0.0,0.0,0.0,0.0,0.0
220379768,8,1523.0,1492.0,1515.0,1501.0,1500.0,1516.0,0.0,0.0,0.0,0.0,0.0,0.0,0.0,0.0,0.0,0.0
220491519,8,1517.0,1498.0,1540.0,1475.0,1533.0,1482.0,0.0,0.0,0.0,0.0,0.0,0.0,0.0,0.0,0.0,0.0
220579755,8,1530.0,1512.0,1529.0,1513.0,1497.0,1545.0,0.0,0.0,0.0,0.0,0.0,0.0,0.0,0.0,0.0,0.0
220687623,8,1551.0,1543.0,1527.0,1567.0,1499.0,1595.0,0.0,0.0,0.0,0.0,0.0,0.0,0.0,0.0,0.0,0.0
220779527,8,1613.0,1522.0,1585.0,1549.0,1586.0,1548.0,0.0,0.0,0.0,0.0,0.0,0.0,0.0,0.0,0.0,0.0
220887475,8,1646.0,1616.0,1627.0,1636.0,1598.0,1664.0,0.0,0.0,0.0,0.0,0.0,0.0,0.0,0.0,0.0,0.0
221001746,8,1664.0,1642.0,1675.0,1632.0,1635.0,1671.0,0.0,0.0,0.0,0.0,0.0,0.0,0.0,0.0,0.0,0.0
221089122,8,1640.0,1644.0,1642.0,1642.0,1590.0,1694.0,0.0,0.0,0.0,0.0,0.0,0.0,0.0,0.0,0.0,0.0
221197100,8,1619.0,1631.0,1630.0,1619.0,1588.0,1662.0,0.0,0.0,0.0,0.0,0.0,0.0,0.0,0.0,0.0,0.0
221301114,8,1617.0,1633.0,1635.0,1614.0,1588.0,1661.0,0.0,0.0,0.0,0.0,0.0,0.0,0.0,0.0,0.0,0.0
221389311,8,1616.0,1617.0,1613.0,1620.0,1577.0,1656.0,0.0,0.0,0.0,0.0,0.0,0.0,0.0,0.0,0.0,0.0
221493147,8,1616.0,1616.0,1609.0,1623.0,1581.0,1651.0,0.0,0.0,0.0,0.0,0.0,0.0,0.0,0.0,0.0,0.0
221601105,8,1605.0,1601.0,1622.0,1584.0,1588.0,1618.0,0.0,0.0,0.0,0.0,0.0,0.0,0.0,0.0,0.0,0.0
221693309,8,1573.0,1545.0,1547.0,1571.0,1530.0,1588.0,0.0,0.0,0.0,0.0,0.0,0.0,0.0,0.0,0.0,0.0
221809111,8,1568.0,1564.0,1561.0,1572.0,1555.0,1577.0,0.0,0.0,0.0,0.0,0.0,0.0,0.0,0.0,0.0,0.0
221894908,8,1556.0,1564.0,1576.0,1544.0,1555.0,1565.0,0.0,0.0,0.0,0.0,0.0,0.0,0.0,0.0,0.0,0.0
222006713,8,1540.0,1560.0,1552.0,1547.0,1534.0,1566.0,0.0,0.0,0.0,0.0,0.0,0.0,0.0,0.0,0.0,0.0
222114718,8,1550.0,1553.0,1546.0,1557.0,1531.0,1573.0,0.0,0.0,0.0,0.0,0.0,0.0,0.0,0.0,0.0,0.0
222206864,8,1566.0,1574.0,1563.0,1577.0,1546.0,1594.0,0.0,0.0,0.0,0.0,0.0,0.0,0.0,0.0,0.0,0.0
222310735,8,1553.0,1569.0,1562.0,1560.0,1539.0,1583.0,0.0,0.0,0.0,0.0,0.0,0.0,0.0,0.0,0.0,0.0
222407378,8,1532.0,1567.0,1545.0,1553.0,1512.0,1587.0,0.0,0.0,0.0,0.0,0.0,0.0,0.0,0.0,0.0,0.0
222518705,8,1561.0,1547.0,1538.0,1569.0,1535.0,1573.0,0.0,0.0,0.0,0.0,0.0,0.0,0.0,0.0,0.0,0.0
222614701,8,1554.0,1569.0,1569.0,1555.0,1538.0,1586.0,0.0,0.0,0.0,0.0,0.0,0.0,0.0,0.0,0.0,0.0
222716297,8,1552.0,1560.0,1567.0,1545.0,1541.0,1572.0,0.0,0.0,0.0,0.0,0.0,0.0,0.0,0.0,0.0,0.0
222820290,8,1542.0,1542.0,1542.0,1543.0,1520.0,1565.0,0.0,0.0,0.0,0.0,0.0,0.0,0.0,0.0,0.0,0.0
222928515,8,1522.0,1526.0,1523.0,1524.0,1499.0,1548.0,0.0,0.0,0.0,0.0,0.0,0.0,0.0,0.0,0.0,0.0
223024648,8,1521.0,1499.0,1517.0,1503.0,1503.0,1517.0,0.0,0.0,0.0,0.0,0.0,0.0,0.0,0.0,0.0,0.0
223116287,8,1508.0,1500.0,1500.0,1508.0,1473.0,1535.0,0.0,0.0,0.0,0.0,0.0,0.0,0.0,0.0,0.0,0.0
223232344,8,1476.0,1472.0,1473.0,1475.0,1438.0,1509.0,0.0,0.0,0.0,0.0,0.0,0.0,0.0,0.0,0.0,0.0
223324270,8,1443.0,1424.0,1454.0,1413.0,1450.0,1417.0,0.0,0.0,0.0,0.0,0.0,0.0,0.0,0.0,0.0,0.0
223436279,8,1500.0,1437.0,1447.0,1490.0,1469.0,1468.0,0.0,0.0,0.0,0.0,0.0,0.0,0.0,0.0,0.0,0.0
223529929,8,1477.0,1463.0,1462.0,1477.0,1454.0,1485.0,0.0,0.0,0.0,0.0,0.0,0.0,0.0,0.0,0.0,0.0
223634735,8,1492.0,1505.0,1514.0,1483.0,1493.0,1503.0,0.0,0.0,0.0,0.0,0.0,0.0,0.0,0.0,0.0,0.0
223725900,8,1605.0,1636.0,1653.0,1588.0,1605.0,1636.0,0.0,0.0,0.0,0.0,0.0,0.0,0.0,0.0,0.0,0.0
223833894,8,1665.0,1642.0,1657.0,1650.0,1638.0,1669.0,0.0,0.0,0.0,0.0,0.0,0.0,0.0,0.0,0.0,0.0
223946128,8,1658.0,1670.0,1680.0,1648.0,1640.0,1688.0,0.0,0.0,0.0,0.0,0.0,0.0,0.0,0.0,0.0,0.0
224038096,8,1657.0,1696.0,1674.0,1678.0,1625.0,1728.0,0.0,0.0,0.0,0.0,0.0,0.0,0.0,0.0,0.0,0.0
224149880,8,1650.0,1622.0,1641.0,1631.0,1602.0,1671.0,0.0,0.0,0.0,0.0,0.0,0.0,0.0,0.0,0.0,0.0
224233910,8,1600.0,1599.0,1607.0,1591.0,1578.0,1621.0,0.0,0.0,0.0,0.0,0.0,0.0,0.0,0.0,0.0,0.0
224349895,8,1603.0,1593.0,1601.0,1595.0,1580.0,1615.0,0.0,0.0,0.0,0.0,0.0,0.0,0.0,0.0,0.0,0.0
224439517,8,1569.0,1566.0,1574.0,1561.0,1552.0,1584.0,0.0,0.0,0.0,0.0,0.0,0.0,0.0,0.0,0.0,0.0
224555685,8,1548.0,1538.0,1545.0,1541.0,1524.0,1562.0,0.0,0.0,0.0,0.0,0.0,0.0,0.0,0.0,0.0,0.0
224640309,8,1530.0,1522.0,1526.0,1526.0,1503.0,1549.0,0.0,0.0,0.0,0.0,0.0,0.0,0.0,0.0,0.0,0.0
224748189,8,1520.0,1530.0,1525.0,1524.0,1501.0,1548.0,0.0,0.0,0.0,0.0,0.0,0.0,0.0,0.0,0.0,0.0
224859493,8,1511.0,1509.0,1521.0,1499.0,1509.0,1510.0,0.0,0.0,0.0,0.0,0.0,0.0,0.0,0.0,0.0,0.0
224947496,8,1493.0,1522.0,1521.0,1495.0,1481.0,1535.0,0.0,0.0,0.0,0.0,0.0,0.0,0.0,0.0,0.0,0.0
225059580,8,1501.0,1512.0,1508.0,1505.0,1493.0,1520.0,0.0,0.0,0.0,0.0,0.0,0.0,0.0,0.0,0.0,0.0
225147490,8,1503.0,1512.0,1475.0,1540.0,1443.0,1571.0,0.0,0.0,0.0,0.0,0.0,0.0,0.0,0.0,0.0,0.0
225257107,8,1515.0,1497.0,1514.0,1499.0,1496.0,1517.0,0.0,0.0,0.0,0.0,0.0,0.0,0.0,0.0,0.0,0.0
225369336,8,1524.0,1489.0,1489.0,1524.0,1478.0,1536.0,0.0,0.0,0.0,0.0,0.0,0.0,0.0,0.0,0.0,0.0
225461164,8,1511.0,1502.0,1501.0,1513.0,1481.0,1532.0,0.0,0.0,0.0,0.0,0.0,0.0,0.0,0.0,0.0,0.0
225569173,8,1510.0,1506.0,1525.0,1490.0,1496.0,1519.0,0.0,0.0,0.0,0.0,0.0,0.0,0.0,0.0,0.0,0.0
225661122,8,1525.0,1533.0,1545.0,1513.0,1512.0,1546.0,0.0,0.0,0.0,0.0,0.0,0.0,0.0,0.0,0.0,0.0
225769313,8,1600.0,1588.0,1593.0,1595.0,1569.0,1619.0,0.0,0.0,0.0,0.0,0.0,0.0,0.0,0.0,0.0,0.0
225861077,8,1603.0,1588.0,1589.0,1602.0,1558.0,1634.0,0.0,0.0,0.0,0.0,0.0,0.0,0.0,0.0,0.0,0.0
225973744,8,1598.0,1597.0,1611.0,1583.0,1576.0,1618.0,0.0,0.0,0.0,0.0,0.0,0.0,0.0,0.0,0.0,0.0
226066748,8,1594.0,1616.0,1641.0,1570.0,1598.0,1612.0,0.0,0.0,0.0,0.0,0.0,0.0,0.0,0.0,0.0,0.0
226158915,8,1613.0,1594.0,1594.0,1601.0,1580.0,1627.0,0.0,0.0,0.0,0.0,0.0,0.0,0.0,0.0,0.0,0.0
226270715,8,1600.0,1600.0,1609.0,1591.0,1587.0,1613.0,0.0,0.0,0.0,0.0,0.0,0.0,0.0,0.0,0.0,0.0
226374700,8,1595.0,1593.0,1608.0,1581.0,1585.0,1603.0,0.0,0.0,0.0,0.0,0.0,0.0,0.0,0.0,0.0,0.0
226478724,8,1592.0,1585.0,1583.0,1593.0,1570.0,1606.0,0.0,0.0,0.0,0.0,0.0,0.0,0.0,0.0,0.0,0.0
226566688,8,1591.0,1585.0,1585.0,1591.0,1574.0,1602.0,0.0,0.0,0.0,0.0,0.0,0.0,0.0,0.0,0.0,0.0
226678776,8,1565.0,1591.0,1577.0,1579.0,1553.0,1603.0,0.0,0.0,0.0,0.0,0.0,0.0,0.0,0.0,0.0,0.0
226786923,8,1560.0,1562.0,1556.0,1566.0,1545.0,1576.0,0.0,0.0,0.0,0.0,0.0,0.0,0.0,0.0,0.0,0.0
226895475,8,1567.0,1551.0,1558.0,1559.0,1550.0,1567.0,0.0,0.0,0.0,0.0,0.0,0.0,0.0,0.0,0.0,0.0
226980589,8,1569.0,1553.0,1560.0,1570.0,1538.0,1584.0,0.0,0.0,0.0,0.0,0.0,0.0,0.0,0.0,0.0,0.0
227084918,8,1560.0,1560.0,1553.0,1566.0,1527.0,1592.0,0.0,0.0,0.0,0.0,0.0,0.0,0.0,0.0,0.0,0.0
227196496,8,1558.0,1544.0,1542.0,1560.0,1529.0,1571.0,0.0,0.0,0.0,0.0,0.0,0.0,0.0,0.0,0.0,0.0
227288306,8,1525.0,1513.0,1524.0,1513.0,1512.0,1525.0,0.0,0.0,0.0,0.0,0.0,0.0,0.0,0.0,0.0,0.0
227400281,8,1513.0,1502.0,1517.0,1498.0,1499.0,1516.0,0.0,0.0,0.0,0.0,0.0,0.0,0.0,0.0,0.0,0.0
227504296,8,1517.0,1499.0,1486.0,1530.0,1470.0,1546.0,0.0,0.0,0.0,0.0,0.0,0.0,0.0,0.0,0.0,0.0
227600317,8,1500.0,1496.0,1517.0,1498.0,1500.0,1515.0,0.0,0.0,0.0,0.0,0.0,0.0,0.0,0.0,0.0,0.0
227692323,8,1520.0,1493.0,1512.0,1558.0,1460.0,1554.0,0.0,0.0,0.0,0.0,0.0,0.0,0.0,0.0,0.0,0.0
227793914,8,1507.0,1508.0,1543.0,1472.0,1530.0,1485.0,0.0,0.0,0.0,0.0,0.0,0.0,0.0,0.0,0.0,0.0
227898190,8,1519.0,1496.0,1531.0,1484.0,1522.0,1493.0,0.0,0.0,0.0,0.0,0.0,0.0,0.0,0.0,0.0,0.0
228009892,8,1505.0,1531.0,1553.0,1483.0,1527.0,1509.0,0.0,0.0,0.0,0.0,0.0,0.0,0.0,0.0,0.0,0.0
228101895,8,1530.0,1535.0,1543.0,1522.0,1505.0,1560.0,0.0,0.0,0.0,0.0,0.0,0.0,0.0,0.0,0.0,0.0
228206110,8,1549.0,1530.0,1529.0,1551.0,1510.0,1569.0,0.0,0.0,0.0,0.0,0.0,0.0,0.0,0.0,0.0,0.0
228313883,8,1565.0,1559.0,1550.0,1573.0,1539.0,1585.0,0.0,0.0,0.0,0.0,0.0,0.0,0.0,0.0,0.0,0.0
228401956,8,1592.0,1582.0,1572.0,1601.0,1568.0,1605.0,0.0,0.0,0.0,0.0,0.0,0.0,0.0,0.0,0.0,0.0
228513866,8,1625.0,1587.0,1591.0,1621.0,1589.0,1623.0,0.0,0.0,0.0,0.0,0.0,0.0,0.0,0.0,0.0,0.0
228603557,8,1616.0,1608.0,1625.0,1600.0,1600.0,1639.0,0.0,0.0,0.0,0.0,0.0,0.0,0.0,0.0,0.0,0.0
228719545,8,1610.0,1618.0,1610.0,1618.0,1593.0,1635.0,0.0,0.0,0.0,0.0,0.0,0.0,0.0,0.0,0.0,0.0
228807615,8,1615.0,1614.0,1614.0,1614.0,1599.0,1630.0,0.0,0.0,0.0,0.0,0.0,0.0,0.0,0.0,0.0,0.0
228924280,8,1617.0,1605.0,1606.0,1617.0,1590.0,1633.0,0.0,0.0,0.0,0.0,0.0,0.0,0.0,0.0,0.0,0.0
229027708,8,1605.0,1600.0,1587.0,1618.0,1570.0,1634.0,0.0,0.0,0.0,0.0,0.0,0.0,0.0,0.0,0.0,0.0
229115514,8,1599.0,1582.0,1593.0,1588.0,1585.0,1596.0,0.0,0.0,0.0,0.0,0.0,0.0,0.0,0.0,0.0,0.0
229227651,8,1580.0,1588.0,1575.0,1594.0,1557.0,1611.0,0.0,0.0,0.0,0.0,0.0,0.0,0.0,0.0,0.0,0.0
229315503,8,1596.0,1573.0,1585.0,1585.0,1573.0,1596.0,0.0,0.0,0.0,0.0,0.0,0.0,0.0,0.0,0.0,0.0
229424528,8,1563.0,1566.0,1553.0,1577.0,1542.0,1587.0,0.0,0.0,0.0,0.0,0.0,0.0,0.0,0.0,0.0,0.0
229533130,8,1562.0,1555.0,1547.0,1570.0,1535.0,1582.0,0.0,0.0,0.0,0.0,0.0,0.0,0.0,0.0,0.0,0.0
229625098,8,1558.0,1556.0,1555.0,1559.0,1547.0,1568.0,0.0,0.0,0.0,0.0,0.0,0.0,0.0,0.0,0.0,0.0
229733350,8,1552.0,1559.0,1546.0,1565.0,1531.0,1580.0,0.0,0.0,0.0,0.0,0.0,0.0,0.0,0.0,0.0,0.0
229825740,8,1551.0,1529.0,1550.0,1530.0,1545.0,1535.0,0.0,0.0,0.0,0.0,0.0,0.0,0.0,0.0,0.0,0.0
229937092,8,1521.0,1530.0,1515.0,1536.0,1510.0,1541.0,0.0,0.0,0.0,0.0,0.0,0.0,0.0,0.0,0.0,0.0
230025239,8,1519.0,1521.0,1525.0,1516.0,1494.0,1546.0,0.0,0.0,0.0,0.0,0.0,0.0,0.0,0.0,0.0,0.0
230133153,8,1516.0,1524.0,1509.0,1530.0,1491.0,1548.0,0.0,0.0,0.0,0.0,0.0,0.0,0.0,0.0,0.0,0.0
230241341,8,1533.0,1500.0,1491.0,1541.0,1490.0,1542.0,0.0,0.0,0.0,0.0,0.0,0.0,0.0,0.0,0.0,0.0
230331373,8,1515.0,1515.0,1510.0,1519.0,1494.0,1536.0,0.0,0.0,0.0,0.0,0.0,0.0,0.0,0.0,0.0,0.0
230434722,8,1515.0,1506.0,1498.0,1525.0,1502.0,1522.0,0.0,0.0,0.0,0.0,0.0,0.0,0.0,0.0,0.0,0.0
230550701,8,1511.0,1511.0,1492.0,1530.0,1481.0,1541.0,0.0,0.0,0.0,0.0,0.0,0.0,0.0,0.0,0.0,0.0
230642892,8,1518.0,1506.0,1516.0,1508.0,1496.0,1528.0,0.0,0.0,0.0,0.0,0.0,0.0,0.0,0.0,0.0,0.0
230734780,8,1482.0,1541.0,1520.0,1503.0,1474.0,1549.0,0.0,0.0,0.0,0.0,0.0,0.0,0.0,0.0,0.0,0.0
230850694,8,1531.0,1521.0,1519.0,1533.0,1501.0,1551.0,0.0,0.0,0.0,0.0,0.0,0.0,0.0,0.0,0.0,0.0
230958939,8,1537.0,1555.0,1533.0,1559.0,1513.0,1579.0,0.0,0.0,0.0,0.0,0.0,0.0,0.0,0.0,0.0,0.0
231051391,8,1556.0,1541.0,1540.0,1558.0,1545.0,1553.0,0.0,0.0,0.0,0.0,0.0,0.0,0.0,0.0,0.0,0.0
231140393,8,1580.0,1534.0,1563.0,1551.0,1579.0,1535.0,0.0,0.0,0.0,0.0,0.0,0.0,0.0,0.0,0.0,0.0
231252294,8,1580.0,1562.0,1560.0,1582.0,1553.0,1589.0,0.0,0.0,0.0,0.0,0.0,0.0,0.0,0.0,0.0,0.0
231364270,8,1579.0,1565.0,1586.0,1558.0,1569.0,1574.0,0.0,0.0,0.0,0.0,0.0,0.0,0.0,0.0,0.0,0.0
231452316,8,1582.0,1564.0,1562.0,1583.0,1556.0,1589.0,0.0,0.0,0.0,0.0,0.0,0.0,0.0,0.0,0.0,0.0
231568298,8,1564.0,1580.0,1574.0,1569.0,1539.0,1605.0,0.0,0.0,0.0,0.0,0.0,0.0,0.0,0.0,0.0,0.0
231661000,8,1602.0,1543.0,1563.0,1582.0,1565.0,1580.0,0.0,0.0,0.0,0.0,0.0,0.0,0.0,0.0,0.0,0.0
231772316,8,1566.0,1574.0,1571.0,1570.0,1532.0,1608.0,0.0,0.0,0.0,0.0,0.0,0.0,0.0,0.0,0.0,0.0
231860513,8,1584.0,1555.0,1570.0,1569.0,1557.0,1582.0,0.0,0.0,0.0,0.0,0.0,0.0,0.0,0.0,0.0,0.0
231969939,8,1569.0,1571.0,1578.0,1562.0,1553.0,1586.0,0.0,0.0,0.0,0.0,0.0,0.0,0.0,0.0,0.0,0.0
232078182,8,1574.0,1560.0,1549.0,1585.0,1542.0,1592.0,0.0,0.0,0.0,0.0,0.0,0.0,0.0,0.0,0.0,0.0
232161902,8,1567.0,1567.0,1555.0,1579.0,1552.0,1582.0,0.0,0.0,0.0,0.0,0.0,0.0,0.0,0.0,0.0,0.0
232278134,8,1565.0,1566.0,1563.0,1567.0,1533.0,1597.0,0.0,0.0,0.0,0.0,0.0,0.0,0.0,0.0,0.0,0.0
232369894,8,1566.0,1562.0,1561.0,1567.0,1541.0,1587.0,0.0,0.0,0.0,0.0,0.0,0.0,0.0,0.0,0.0,0.0
232481910,8,1580.0,1542.0,1537.0,1585.0,1532.0,1590.0,0.0,0.0,0.0,0.0,0.0,0.0,0.0,0.0,0.0,0.0
232573929,8,1572.0,1547.0,1550.0,1569.0,1542.0,1577.0,0.0,0.0,0.0,0.0,0.0,0.0,0.0,0.0,0.0,0.0
232681936,8,1562.0,1555.0,1560.0,1557.0,1529.0,1588.0,0.0,0.0,0.0,0.0,0.0,0.0,0.0,0.0,0.0,0.0
232770759,8,1546.0,1565.0,1546.0,1564.0,1522.0,1589.0,0.0,0.0,0.0,0.0,0.0,0.0,0.0,0.0,0.0,0.0
232888120,8,1540.0,1564.0,1548.0,1556.0,1519.0,1585.0,0.0,0.0,0.0,0.0,0.0,0.0,0.0,0.0,0.0,0.0
232971504,8,1559.0,1547.0,1538.0,1569.0,1513.0,1593.0,0.0,0.0,0.0,0.0,0.0,0.0,0.0,0.0,0.0,0.0
233087509,8,1553.0,1550.0,1558.0,1545.0,1528.0,1575.0,0.0,0.0,0.0,0.0,0.0,0.0,0.0,0.0,0.0,0.0
233195513,8,1557.0,1538.0,1556.0,1539.0,1536.0,1562.0,0.0,0.0,0.0,0.0,0.0,0.0,0.0,0.0,0.0,0.0
233284292,8,1590.0,1505.0,1533.0,1562.0,1553.0,1543.0,0.0,0.0,0.0,0.0,0.0,0.0,0.0,0.0,0.0,0.0
233375681,8,1520.0,1573.0,1536.0,1558.0,1481.0,1612.0,0.0,0.0,0.0,0.0,0.0,0.0,0.0,0.0,0.0,0.0
233487633,8,1557.0,1540.0,1552.0,1545.0,1542.0,1555.0,0.0,0.0,0.0,0.0,0.0,0.0,0.0,0.0,0.0,0.0
233583707,8,1536.0,1556.0,1545.0,1548.0,1500.0,1593.0,0.0,0.0,0.0,0.0,0.0,0.0,0.0,0.0,0.0,0.0
233685312,8,1540.0,1552.0,1523.0,1569.0,1498.0,1594.0,0.0,0.0,0.0,0.0,0.0,0.0,0.0,0.0,0.0,0.0
233801131,8,1539.0,1555.0,1543.0,1551.0,1510.0,1583.0,0.0,0.0,0.0,0.0,0.0,0.0,0.0,0.0,0.0,0.0
233889103,8,1542.0,1552.0,1545.0,1549.0,1529.0,1565.0,0.0,0.0,0.0,0.0,0.0,0.0,0.0,0.0,0.0,0.0
233997204,8,1546.0,1550.0,1533.0,1563.0,1522.0,1574.0,0.0,0.0,0.0,0.0,0.0,0.0,0.0,0.0,0.0,0.0
234109290,8,1556.0,1538.0,1544.0,1550.0,1528.0,1566.0,0.0,0.0,0.0,0.0,0.0,0.0,0.0,0.0,0.0,0.0
234197069,8,1548.0,1546.0,1554.0,1540.0,1551.0,1543.0,0.0,0.0,0.0,0.0,0.0,0.0,0.0,0.0,0.0,0.0
234309402,8,1541.0,1550.0,1550.0,1541.0,1531.0,1560.0,0.0,0.0,0.0,0.0,0.0,0.0,0.0,0.0,0.0,0.0
234397366,8,1542.0,1549.0,1533.0,1558.0,1518.0,1573.0,0.0,0.0,0.0,0.0,0.0,0.0,0.0,0.0,0.0,0.0
234498739,8,1543.0,1548.0,1540.0,1552.0,1525.0,1567.0,0.0,0.0,0.0,0.0,0.0,0.0,0.0,0.0,0.0,0.0
234606701,8,1535.0,1554.0,1535.0,1554.0,1518.0,1572.0,0.0,0.0,0.0,0.0,0.0,0.0,0.0,0.0,0.0,0.0
234714720,8,1531.0,1535.0,1526.0,1539.0,1511.0,1554.0,0.0,0.0,0.0,0.0,0.0,0.0,0.0,0.0,0.0,0.0
234799431,8,1544.0,1528.0,1545.0,1528.0,1531.0,1542.0,0.0,0.0,0.0,0.0,0.0,0.0,0.0,0.0,0.0,0.0
234907400,8,1544.0,1521.0,1546.0,1519.0,1536.0,1529.0,0.0,0.0,0.0,0.0,0.0,0.0,0.0,0.0,0.0,0.0
235018902,8,1498.0,1539.0,1499.0,1538.0,1451.0,1587.0,0.0,0.0,0.0,0.0,0.0,0.0,0.0,0.0,0.0,0.0
235106685,8,1539.0,1515.0,1527.0,1526.0,1526.0,1527.0,0.0,0.0,0.0,0.0,0.0,0.0,0.0,0.0,0.0,0.0
235222671,8,1523.0,1527.0,1522.0,1528.0,1509.0,1541.0,0.0,0.0,0.0,0.0,0.0,0.0,0.0,0.0,0.0,0.0
235311491,8,1537.0,1500.0,1511.0,1526.0,1491.0,1545.0,0.0,0.0,0.0,0.0,0.0,0.0,0.0,0.0,0.0,0.0
235423505,8,1501.0,1524.0,1499.0,1539.0,1476.0,1562.0,0.0,0.0,0.0,0.0,0.0,0.0,0.0,0.0,0.0,0.0
235531522,8,1518.0,1521.0,1555.0,1484.0,1525.0,1543.0,0.0,0.0,0.0,0.0,0.0,0.0,0.0,0.0,0.0,0.0
235619505,8,1553.0,1493.0,1535.0,1511.0,1554.0,1492.0,0.0,0.0,0.0,0.0,0.0,0.0,0.0,0.0,0.0,0.0
235731492,8,1563.0,1481.0,1511.0,1533.0,1524.0,1520.0,0.0,0.0,0.0,0.0,0.0,0.0,0.0,0.0,0.0,0.0
235815485,8,1455.0,1594.0,1490.0,1559.0,1421.0,1628.0,0.0,0.0,0.0,0.0,0.0,0.0,0.0,0.0,0.0,0.0
235927498,8,1616.0,1430.0,1517.0,1530.0,1579.0,1468.0,0.0,0.0,0.0,0.0,0.0,0.0,0.0,0.0,0.0,0.0
236024266,8,1551.0,1525.0,1542.0,1534.0,1533.0,1542.0,0.0,0.0,0.0,0.0,0.0,0.0,0.0,0.0,0.0,0.0
236119722,8,1558.0,1532.0,1554.0,1536.0,1534.0,1556.0,0.0,0.0,0.0,0.0,0.0,0.0,0.0,0.0,0.0,0.0
236231547,8,1580.0,1519.0,1547.0,1551.0,1576.0,1523.0,0.0,0.0,0.0,0.0,0.0,0.0,0.0,0.0,0.0,0.0
236339490,8,1645.0,1576.0,1585.0,1636.0,1635.0,1586.0,0.0,0.0,0.0,0.0,0.0,0.0,0.0,0.0,0.0,0.0
236445096,8,1723.0,1587.0,1607.0,1703.0,1661.0,1649.0,0.0,0.0,0.0,0.0,0.0,0.0,0.0,0.0,0.0,0.0
236529800,8,1678.0,1643.0,1633.0,1689.0,1643.0,1679.0,0.0,0.0,0.0,0.0,0.0,0.0,0.0,0.0,0.0,0.0
236645313,8,1702.0,1637.0,1666.0,1672.0,1651.0,1688.0,0.0,0.0,0.0,0.0,0.0,0.0,0.0,0.0,0.0,0.0
236733131,8,1679.0,1652.0,1688.0,1643.0,1646.0,1685.0,0.0,0.0,0.0,0.0,0.0,0.0,0.0,0.0,0.0,0.0
236841108,8,1662.0,1598.0,1629.0,1624.0,1601.0,1652.0,0.0,0.0,0.0,0.0,0.0,0.0,0.0,0.0,0.0,0.0
236937129,8,1618.0,1592.0,1642.0,1567.0,1624.0,1585.0,0.0,0.0,0.0,0.0,0.0,0.0,0.0,0.0,0.0,0.0
237049285,8,1561.0,1611.0,1578.0,1594.0,1510.0,1662.0,0.0,0.0,0.0,0.0,0.0,0.0,0.0,0.0,0.0,0.0
237157132,8,1599.0,1583.0,1606.0,1575.0,1599.0,1583.0,0.0,0.0,0.0,0.0,0.0,0.0,0.0,0.0,0.0,0.0
237242708,8,1549.0,1632.0,1590.0,1590.0,1529.0,1652.0,0.0,0.0,0.0,0.0,0.0,0.0,0.0,0.0,0.0,0.0
237355548,8,1545.0,1636.0,1596.0,1585.0,1529.0,1652.0,0.0,0.0,0.0,0.0,0.0,0.0,0.0,0.0,0.0,0.0
237463480,8,1599.0,1566.0,1562.0,1603.0,1573.0,1592.0,0.0,0.0,0.0,0.0,0.0,0.0,0.0,0.0,0.0,0.0
237554917,8,1557.0,1563.0,1575.0,1545.0,1565.0,1555.0,0.0,0.0,0.0,0.0,0.0,0.0,0.0,0.0,0.0,0.0
237666933,8,1543.0,1482.0,1510.0,1515.0,1539.0,1486.0,0.0,0.0,0.0,0.0,0.0,0.0,0.0,0.0,0.0,0.0
237754905,8,1504.0,1519.0,1489.0,1534.0,1456.0,1567.0,0.0,0.0,0.0,0.0,0.0,0.0,0.0,0.0,0.0,0.0
237870702,8,1506.0,1516.0,1517.0,1505.0,1499.0,1542.0,0.0,0.0,0.0,0.0,0.0,0.0,0.0,0.0,0.0,0.0
237958962,8,1522.0,1495.0,1487.0,1530.0,1481.0,1536.0,0.0,0.0,0.0,0.0,0.0,0.0,0.0,0.0,0.0,0.0
238073091,8,1517.0,1501.0,1512.0,1506.0,1504.0,1514.0,0.0,0.0,0.0,0.0,0.0,0.0,0.0,0.0,0.0,0.0
238160496,8,1520.0,1499.0,1516.0,1503.0,1486.0,1532.0,0.0,0.0,0.0,0.0,0.0,0.0,0.0,0.0,0.0,0.0
238272293,8,1474.0,1544.0,1535.0,1484.0,1479.0,1540.0,0.0,0.0,0.0,0.0,0.0,0.0,0.0,0.0,0.0,0.0
238376284,8,1520.0,1500.0,1526.0,1495.0,1506.0,1514.0,0.0,0.0,0.0,0.0,0.0,0.0,0.0,0.0,0.0,0.0
238464321,8,1496.0,1522.0,1508.0,1510.0,1478.0,1540.0,0.0,0.0,0.0,0.0,0.0,0.0,0.0,0.0,0.0,0.0
238572289,8,1510.0,1526.0,1506.0,1530.0,1474.0,1563.0,0.0,0.0,0.0,0.0,0.0,0.0,0.0,0.0,0.0,0.0
238660283,8,1512.0,1529.0,1539.0,1502.0,1496.0,1545.0,0.0,0.0,0.0,0.0,0.0,0.0,0.0,0.0,0.0,0.0
238776315,8,1516.0,1522.0,1524.0,1514.0,1496.0,1542.0,0.0,0.0,0.0,0.0,0.0,0.0,0.0,0.0,0.0,0.0
238873130,8,1513.0,1530.0,1526.0,1516.0,1510.0,1532.0,0.0,0.0,0.0,0.0,0.0,0.0,0.0,0.0,0.0,0.0
238985093,8,1541.0,1585.0,1565.0,1560.0,1546.0,1579.0,0.0,0.0,0.0,0.0,0.0,0.0,0.0,0.0,0.0,0.0
239073091,8,1621.0,1624.0,1617.0,1627.0,1588.0,1656.0,0.0,0.0,0.0,0.0,0.0,0.0,0.0,0.0,0.0,0.0
239185226,8,1628.0,1622.0,1626.0,1624.0,1609.0,1641.0,0.0,0.0,0.0,0.0,0.0,0.0,0.0,0.0,0.0,0.0
239277430,8,1623.0,1680.0,1675.0,1628.0,1624.0,1678.0,0.0,0.0,0.0,0.0,0.0,0.0,0.0,0.0,0.0,0.0
239385110,8,1654.0,1638.0,1652.0,1640.0,1631.0,1662.0,0.0,0.0,0.0,0.0,0.0,0.0,0.0,0.0,0.0,0.0
239473066,8,1617.0,1628.0,1625.0,1619.0,1585.0,1660.0,0.0,0.0,0.0,0.0,0.0,0.0,0.0,0.0,0.0,0.0
239593110,8,1610.0,1601.0,1624.0,1587.0,1599.0,1613.0,0.0,0.0,0.0,0.0,0.0,0.0,0.0,0.0,0.0,0.0
239685096,8,1538.0,1564.0,1565.0,1536.0,1521.0,1581.0,0.0,0.0,0.0,0.0,0.0,0.0,0.0,0.0,0.0,0.0
239793150,8,1512.0,1475.0,1469.0,1518.0,1466.0,1521.0,0.0,0.0,0.0,0.0,0.0,0.0,0.0,0.0,0.0,0.0
239885400,8,1446.0,1456.0,1486.0,1416.0,1459.0,1443.0,0.0,0.0,0.0,0.0,0.0,0.0,0.0,0.0,0.0,0.0
239994856,8,1445.0,1447.0,1441.0,1450.0,1439.0,1452.0,0.0,0.0,0.0,0.0,0.0,0.0,0.0,0.0,0.0,0.0
240087332,8,1469.0,1434.0,1433.0,1470.0,1438.0,1465.0,0.0,0.0,0.0,0.0,0.0,0.0,0.0,0.0,0.0,0.0
240195491,8,1466.0,1470.0,1469.0,1467.0,1448.0,1489.0,0.0,0.0,0.0,0.0,0.0,0.0,0.0,0.0,0.0,0.0
240298915,8,1492.0,1466.0,1472.0,1486.0,1473.0,1485.0,0.0,0.0,0.0,0.0,0.0,0.0,0.0,0.0,0.0,0.0
240402699,8,1575.0,1590.0,1592.0,1574.0,1569.0,1596.0,0.0,0.0,0.0,0.0,0.0,0.0,0.0,0.0,0.0,0.0
240490748,8,1715.0,1514.0,1492.0,1737.0,1566.0,1662.0,0.0,0.0,0.0,0.0,0.0,0.0,0.0,0.0,0.0,0.0
240598729,8,1632.0,1696.0,1672.0,1656.0,1592.0,1737.0,0.0,0.0,0.0,0.0,0.0,0.0,0.0,0.0,0.0,0.0
240710661,8,1640.0,1620.0,1633.0,1628.0,1589.0,1671.0,0.0,0.0,0.0,0.0,0.0,0.0,0.0,0.0,0.0,0.0
240803770,8,1576.0,1569.0,1577.0,1568.0,1541.0,1604.0,0.0,0.0,0.0,0.0,0.0,0.0,0.0,0.0,0.0,0.0
240916996,8,1490.0,1500.0,1522.0,1468.0,1482.0,1507.0,0.0,0.0,0.0,0.0,0.0,0.0,0.0,0.0,0.0,0.0
241008341,8,1512.0,1498.0,1507.0,1502.0,1488.0,1522.0,0.0,0.0,0.0,0.0,0.0,0.0,0.0,0.0,0.0,0.0
241097069,8,1502.0,1508.0,1541.0,1468.0,1511.0,1498.0,0.0,0.0,0.0,0.0,0.0,0.0,0.0,0.0,0.0,0.0
241208281,8,1501.0,1511.0,1506.0,1506.0,1474.0,1538.0,0.0,0.0,0.0,0.0,0.0,0.0,0.0,0.0,0.0,0.0
241324318,8,1514.0,1498.0,1475.0,1538.0,1464.0,1549.0,0.0,0.0,0.0,0.0,0.0,0.0,0.0,0.0,0.0,0.0
241408317,8,1505.0,1509.0,1514.0,1500.0,1486.0,1528.0,0.0,0.0,0.0,0.0,0.0,0.0,0.0,0.0,0.0,0.0
241524493,8,1493.0,1518.0,1530.0,1481.0,1510.0,1501.0,0.0,0.0,0.0,0.0,0.0,0.0,0.0,0.0,0.0,0.0
241612300,8,1505.0,1482.0,1489.0,1499.0,1487.0,1507.0,0.0,0.0,0.0,0.0,0.0,0.0,0.0,0.0,0.0,0.0
241721088,8,1501.0,1492.0,1471.0,1522.0,1468.0,1526.0,0.0,0.0,0.0,0.0,0.0,0.0,0.0,0.0,0.0,0.0
241833301,8,1488.0,1505.0,1481.0,1511.0,1464.0,1528.0,0.0,0.0,0.0,0.0,0.0,0.0,0.0,0.0,0.0,0.0
241925793,8,1513.0,1494.0,1484.0,1523.0,1473.0,1534.0,0.0,0.0,0.0,0.0,0.0,0.0,0.0,0.0,0.0,0.0
242017104,8,1510.0,1522.0,1526.0,1507.0,1500.0,1532.0,0.0,0.0,0.0,0.0,0.0,0.0,0.0,0.0,0.0,0.0
242129401,8,1571.0,1555.0,1548.0,1578.0,1526.0,1600.0,0.0,0.0,0.0,0.0,0.0,0.0,0.0,0.0,0.0,0.0
242217148,8,1589.0,1600.0,1607.0,1582.0,1563.0,1626.0,0.0,0.0,0.0,0.0,0.0,0.0,0.0,0.0,0.0,0.0
242329154,8,1590.0,1568.0,1573.0,1577.0,1557.0,1593.0,0.0,0.0,0.0,0.0,0.0,0.0,0.0,0.0,0.0,0.0
242421306,8,1571.0,1570.0,1572.0,1569.0,1549.0,1592.0,0.0,0.0,0.0,0.0,0.0,0.0,0.0,0.0,0.0,0.0
