timestamp,min_distance,max_distance,current_distance,covariance,signal_quality,type,id,orientation
175361157,0.01,25.0,0.0,0.0,64,0,1,25
175392757,0.01,25.0,0.0,0.0,64,0,1,25
175454896,0.01,25.0,0.0,0.0,64,0,1,25
175487494,0.01,25.0,0.01,0.0,64,0,1,25
175519529,0.01,25.0,0.0,0.0,64,0,1,25
175551794,0.01,25.0,0.0,0.0,64,0,1,25
175583836,0.01,25.0,0.0,0.0,0,0,1,25
175616252,0.01,25.0,0.0,0.0,64,0,1,25
175648564,0.01,25.0,0.0,0.0,64,0,1,25
175680948,0.01,25.0,0.0,0.0,64,0,1,25
175712295,0.01,25.0,0.0,0.0,64,0,1,25
175744778,0.01,25.0,0.0,0.0,64,0,1,25
175776318,0.01,25.0,0.01,0.0,0,0,1,25
175808332,0.01,25.0,0.0,0.0,64,0,1,25
175840780,0.01,25.0,0.0,0.0,64,0,1,25
175872744,0.01,25.0,0.0,0.0,64,0,1,25
175904762,0.01,25.0,0.01,0.0,64,0,1,25
175936762,0.01,25.0,0.0,0.0,64,0,1,25
175968759,0.01,25.0,0.0,0.0,64,0,1,25
176000506,0.01,25.0,0.0,0.0,0,0,1,25
176032331,0.01,25.0,0.0,0.0,64,0,1,25
176064768,0.01,25.0,0.0,0.0,64,0,1,25
176096745,0.01,25.0,0.0,0.0,64,0,1,25
176128936,0.01,25.0,0.0,0.0,64,0,1,25
176160779,0.01,25.0,0.0,0.0,64,0,1,25
176192757,0.01,25.0,0.0,0.0,64,0,1,25
176224742,0.01,25.0,0.0,0.0,64,0,1,25
176258204,0.01,25.0,0.01,0.0,64,0,1,25
176288764,0.01,25.0,0.0,0.0,64,0,1,25
176320744,0.01,25.0,0.0,0.0,64,0,1,25
176352756,0.01,25.0,0.0,0.0,64,0,1,25
176384769,0.01,25.0,0.0,0.0,64,0,1,25
176415753,0.01,25.0,0.0,0.0,64,0,1,25
176447741,0.01,25.0,0.0,0.0,64,0,1,25
176479031,0.01,25.0,0.0,0.0,4,0,1,25
176510007,0.01,25.0,0.0,0.0,64,0,1,25
176542060,0.01,25.0,0.0,0.0,64,0,1,25
176573959,0.01,25.0,0.0,0.0,64,0,1,25
176606044,0.01,25.0,0.0,0.0,0,0,1,25
176638164,0.01,25.0,0.0,0.0,0,0,1,25
176669922,0.01,25.0,0.0,0.0,64,0,1,25
176702050,0.01,25.0,0.0,0.0,64,0,1,25
176734073,0.01,25.0,0.0,0.0,0,0,1,25
176766048,0.01,25.0,0.0,0.0,64,0,1,25
176796745,0.01,25.0,0.0,0.0,64,0,1,25
176829518,0.01,25.0,0.0,0.0,4,0,1,25
176861884,0.01,25.0,0.0,0.0,64,0,1,25
176894013,0.01,25.0,0.03,0.0,0,0,1,25
176926041,0.01,25.0,0.0,0.0,0,0,1,25
176958051,0.01,25.0,0.0,0.0,0,0,1,25
176990089,0.01,25.0,0.0,0.0,64,0,1,25
177022042,0.01,25.0,0.0,0.0,0,0,1,25
177054293,0.01,25.0,0.0,0.0,64,0,1,25
177087514,0.01,25.0,0.0,0.0,64,0,1,25
177119777,0.01,25.0,0.0,0.0,64,0,1,25
177151782,0.01,25.0,0.01,0.0,64,0,1,25
177183541,0.01,25.0,0.0,0.0,64,0,1,25
177215534,0.01,25.0,0.0,0.0,0,0,1,25
177247841,0.01,25.0,0.0,0.0,64,0,1,25
177279773,0.01,25.0,0.0,0.0,64,0,1,25
177311761,0.01,25.0,0.0,0.0,64,0,1,25
177343752,0.01,25.0,0.0,0.0,64,0,1,25
177375760,0.01,25.0,0.0,0.0,0,0,1,25
177407654,0.01,25.0,0.0,0.0,64,0,1,25
177439747,0.01,25.0,0.0,0.0,64,0,1,25
177471784,0.01,25.0,0.02,0.0,64,0,1,25
177503756,0.01,25.0,0.0,0.0,64,0,1,25
177535536,0.01,25.0,0.0,0.0,64,0,1,25
177567805,0.01,25.0,0.0,0.0,64,0,1,25
177599543,0.01,25.0,0.0,0.0,64,0,1,25
177631742,0.01,25.0,0.0,0.0,64,0,1,25
177663771,0.01,25.0,0.0,0.0,64,0,1,25
177695742,0.01,25.0,0.0,0.0,64,0,1,25
177727870,0.01,25.0,0.02,0.0,0,0,1,25
177759778,0.01,25.0,0.0,0.0,64,0,1,25
177791499,0.01,25.0,0.0,0.0,64,0,1,25
177823751,0.01,25.0,0.0,0.0,64,0,1,25
177855547,0.01,25.0,0.0,0.0,64,0,1,25
177887756,0.01,25.0,0.0,0.0,64,0,1,25
177919793,0.01,25.0,0.0,0.0,64,0,1,25
177951748,0.01,25.0,0.0,0.0,64,0,1,25
177982837,0.01,25.0,0.0,0.0,64,0,1,25
178013925,0.01,25.0,0.0,0.0,64,0,1,25
178046062,0.01,25.0,0.0,0.0,64,0,1,25
178078570,0.01,25.0,0.0,0.0,64,0,1,25
178110899,0.01,25.0,0.0,0.0,0,0,1,25
178142826,0.01,25.0,0.0,0.0,0,0,1,25
178174870,0.01,25.0,0.01,0.0,64,0,1,25
178206570,0.01,25.0,0.0,0.0,64,0,1,25
178238831,0.01,25.0,0.0,0.0,64,0,1,25
178270559,0.01,25.0,0.0,0.0,64,0,1,25
178302113,0.01,25.0,0.0,0.0,64,0,1,25
178334165,0.01,25.0,0.0,0.0,64,0,1,25
178365750,0.01,25.0,0.0,0.0,64,0,1,25
178398560,0.01,25.0,0.0,0.0,0,0,1,25
178430925,0.01,25.0,0.0,0.0,64,0,1,25
178461818,0.01,25.0,0.0,0.0,4,0,1,25
178494580,0.01,25.0,0.0,0.0,0,0,1,25
178525768,0.01,25.0,0.0,0.0,64,0,1,25
178558123,0.01,25.0,0.0,0.0,64,0,1,25
178589817,0.01,25.0,0.0,0.0,64,0,1,25
178622563,0.01,25.0,0.0,0.0,64,0,1,25
178654811,0.01,25.0,0.0,0.0,64,0,1,25
178686879,0.01,25.0,0.0,0.0,64,0,1,25
178718374,0.01,25.0,0.0,0.0,64,0,1,25
178750634,0.01,25.0,0.0,0.0,0,0,1,25
178782207,0.01,25.0,0.0,0.0,4,0,1,25
178813554,0.01,25.0,0.0,0.0,64,0,1,25
178846265,0.01,25.0,0.0,0.0,64,0,1,25
178878933,0.01,25.0,0.0,0.0,56,0,1,25
178911628,0.01,25.0,0.0,0.0,64,0,1,25
178943778,0.01,25.0,0.0,0.0,64,0,1,25
178976309,0.01,25.0,0.0,0.0,4,0,1,25
179008744,0.01,25.0,0.0,0.0,64,0,1,25
179040624,0.01,25.0,0.0,0.0,64,0,1,25
179072742,0.01,25.0,0.0,0.0,64,0,1,25
179104617,0.01,25.0,0.0,0.0,64,0,1,25
179136754,0.01,25.0,0.0,0.0,64,0,1,25
179168140,0.01,25.0,0.0,0.0,64,0,1,25
179199932,0.01,25.0,0.0,0.0,64,0,1,25
179231757,0.01,25.0,0.0,0.0,64,0,1,25
179263796,0.01,25.0,0.0,0.0,64,0,1,25
179295748,0.01,25.0,0.04,0.0,64,0,1,25
179327846,0.01,25.0,0.0,0.0,0,0,1,25
179359759,0.01,25.0,0.01,0.0,64,0,1,25
179391991,0.01,25.0,0.0,0.0,64,0,1,25
179423410,0.01,25.0,0.0,0.0,4,0,1,25
179455755,0.01,25.0,0.0,0.0,64,0,1,25
179488146,0.01,25.0,0.0,0.0,0,0,1,25
179519332,0.01,25.0,0.0,0.0,64,0,1,25
179551788,0.01,25.0,0.0,0.0,0,0,1,25
179583946,0.01,25.0,0.0,0.0,4,0,1,25
179615723,0.01,25.0,0.0,0.0,64,0,1,25
179647953,0.01,25.0,0.0,0.0,0,0,1,25
179679810,0.01,25.0,0.0,0.0,4,0,1,25
179711782,0.01,25.0,0.0,0.0,64,0,1,25
179743760,0.01,25.0,0.0,0.0,64,0,1,25
179775971,0.01,25.0,0.0,0.0,4,0,1,25
179808641,0.01,25.0,0.0,0.0,64,0,1,25
179840759,0.01,25.0,0.0,0.0,64,0,1,25
179872934,0.01,25.0,0.0,0.0,64,0,1,25
179904767,0.01,25.0,0.0,0.0,64,0,1,25
179936389,0.01,25.0,0.04,0.0,64,0,1,25
179968756,0.01,25.0,0.0,0.0,64,0,1,25
180000523,0.01,25.0,0.0,0.0,64,0,1,25
180032754,0.01,25.0,0.0,0.0,64,0,1,25
180064372,0.01,25.0,0.0,0.0,64,0,1,25
180096803,0.01,25.0,0.01,0.0,64,0,1,25
180128508,0.01,25.0,0.0,0.0,64,0,1,25
180160914,0.01,25.0,0.0,0.0,0,0,1,25
180192915,0.01,25.0,0.0,0.0,64,0,1,25
180224546,0.01,25.0,0.0,0.0,0,0,1,25
180256763,0.01,25.0,0.0,0.0,64,0,1,25
180288596,0.01,25.0,0.0,0.0,-116,0,1,25
180320747,0.01,25.0,0.01,0.0,64,0,1,25
180352984,0.01,25.0,0.0,0.0,0,0,1,25
180384386,0.01,25.0,0.0,0.0,64,0,1,25
180416921,0.01,25.0,0.0,0.0,64,0,1,25
180448746,0.01,25.0,0.0,0.0,0,0,1,25
180480344,0.01,25.0,0.0,0.0,64,0,1,25
180512993,0.01,25.0,0.0,0.0,64,0,1,25
180544787,0.01,25.0,0.0,0.0,64,0,1,25
180576761,0.01,25.0,0.0,0.0,64,0,1,25
180608552,0.01,25.0,0.0,0.0,64,0,1,25
180640748,0.01,25.0,0.0,0.0,64,0,1,25
180672969,0.01,25.0,0.0,0.0,64,0,1,25
180704936,0.01,25.0,0.0,0.0,64,0,1,25
180736772,0.01,25.0,0.0,0.0,64,0,1,25
180768745,0.01,25.0,0.0,0.0,64,0,1,25
180800752,0.01,25.0,0.02,0.0,64,0,1,25
180833123,0.01,25.0,0.01,0.0,0,0,1,25
180864794,0.01,25.0,0.01,0.0,64,0,1,25
180896745,0.01,25.0,0.01,0.0,64,0,1,25
180928764,0.01,25.0,0.01,0.0,64,0,1,25
180963072,0.01,25.0,0.049999997,0.0,64,0,1,25
180994904,0.01,25.0,0.02,0.0,64,0,1,25
181027319,0.01,25.0,0.049999997,0.0,64,0,1,25
181059745,0.01,25.0,0.06,0.0,64,0,1,25
181090934,0.01,25.0,0.08,0.0,64,0,1,25
181122791,0.01,25.0,0.049999997,0.0,64,0,1,25
181154932,0.01,25.0,0.06,0.0,64,0,1,25
181187078,0.01,25.0,0.07,0.0,0,0,1,25
181218823,0.01,25.0,0.07,0.0,0,0,1,25
181251798,0.01,25.0,0.11,0.0,4,0,1,25
181283766,0.01,25.0,0.099999994,0.0,64,0,1,25
181315791,0.01,25.0,0.099999994,0.0,0,0,1,25
181668166,0.01,25.0,0.13,0.0,64,0,1,25
181700141,0.01,25.0,0.12,0.0,64,0,1,25
181732920,0.01,25.0,0.14,0.0,64,0,1,25
181764745,0.01,25.0,0.14,0.0,64,0,1,25
181795952,0.01,25.0,0.13,0.0,64,0,1,25
181828500,0.01,25.0,0.12,0.0,64,0,1,25
181860693,0.01,25.0,0.12,0.0,64,0,1,25
181892168,0.01,25.0,0.12,0.0,64,0,1,25
181924319,0.01,25.0,0.089999996,0.0,64,0,1,25
181957230,0.01,25.0,0.08,0.0,0,0,1,25
181988171,0.01,25.0,0.12,0.0,64,0,1,25
182021026,0.01,25.0,0.12,0.0,64,0,1,25
182052773,0.01,25.0,0.089999996,0.0,64,0,1,25
182084161,0.01,25.0,0.089999996,0.0,64,0,1,25
182116747,0.01,25.0,0.099999994,0.0,0,0,1,25
182148524,0.01,25.0,0.06,0.0,64,0,1,25
182180100,0.01,25.0,0.04,0.0,64,0,1,25
182213439,0.01,25.0,0.089999996,0.0,64,0,1,25
182245744,0.01,25.0,0.08,0.0,64,0,1,25
182277986,0.01,25.0,0.07,0.0,64,0,1,25
182308945,0.01,25.0,0.07,0.0,64,0,1,25
182340142,0.01,25.0,0.08,0.0,64,0,1,25
182372140,0.01,25.0,0.06,0.0,64,0,1,25
182404349,0.01,25.0,0.089999996,0.0,-72,0,1,25
182436954,0.01,25.0,0.06,0.0,64,0,1,25
182468178,0.01,25.0,0.07,0.0,64,0,1,25
182500211,0.01,25.0,0.099999994,0.0,64,0,1,25
182532208,0.01,25.0,0.13,0.0,64,0,1,25
182562822,0.01,25.0,0.12,0.0,64,0,1,25
182594976,0.01,25.0,0.12,0.0,64,0,1,25
182625762,0.01,25.0,0.14999999,0.0,0,0,1,25
182657988,0.01,25.0,0.14999999,0.0,64,0,1,25
182689345,0.01,25.0,0.17,0.0,64,0,1,25
182721780,0.01,25.0,0.19999999,0.0,64,0,1,25
182753753,0.01,25.0,0.22,0.0,64,0,1,25
182785121,0.01,25.0,0.22,0.0,64,0,1,25
182817116,0.01,25.0,0.24,0.0,64,0,1,25
182849295,0.01,25.0,0.26,0.0,64,0,1,25
182881258,0.01,25.0,0.26999998,0.0,0,0,1,25
182913285,0.01,25.0,0.26,0.0,64,0,1,25
182945117,0.01,25.0,0.28,0.0,64,0,1,25
182977182,0.01,25.0,0.29999998,0.0,64,0,1,25
183009251,0.01,25.0,0.29999998,0.0,0,0,1,25
183041128,0.01,25.0,0.31,0.0,64,0,1,25
183073255,0.01,25.0,0.32,0.0,64,0,1,25
183105156,0.01,25.0,0.32999998,0.0,64,0,1,25
183137113,0.01,25.0,0.32999998,0.0,0,0,1,25
183169263,0.01,25.0,0.32999998,0.0,0,0,1,25
183201094,0.01,25.0,0.34,0.0,64,0,1,25
183232989,0.01,25.0,0.35,0.0,64,0,1,25
183263942,0.01,25.0,0.35999998,0.0,4,0,1,25
183297096,0.01,25.0,0.35,0.0,64,0,1,25
183329234,0.01,25.0,0.34,0.0,64,0,1,25
183361165,0.01,25.0,0.35999998,0.0,64,0,1,25
183391751,0.01,25.0,0.34,0.0,64,0,1,25
183423791,0.01,25.0,0.35,0.0,0,0,1,25
183455120,0.01,25.0,0.35,0.0,4,0,1,25
183486815,0.01,25.0,0.34,0.0,64,0,1,25
183518882,0.01,25.0,0.32999998,0.0,64,0,1,25
183550856,0.01,25.0,0.32999998,0.0,64,0,1,25
183582905,0.01,25.0,0.32,0.0,0,0,1,25
183614852,0.01,25.0,0.31,0.0,64,0,1,25
183645934,0.01,25.0,0.32,0.0,64,0,1,25
183678225,0.01,25.0,0.31,0.0,64,0,1,25
183710902,0.01,25.0,0.29999998,0.0,0,0,1,25
183741940,0.01,25.0,0.29,0.0,64,0,1,25
183774037,0.01,25.0,0.26,0.0,0,0,1,25
183806147,0.01,25.0,0.29999998,0.0,64,0,1,25
183838031,0.01,25.0,0.26,0.0,0,0,1,25
183869533,0.01,25.0,0.25,0.0,0,0,1,25
183900770,0.01,25.0,0.25,0.0,64,0,1,25
183932464,0.01,25.0,0.24,0.0,4,0,1,25
183964744,0.01,25.0,0.22,0.0,64,0,1,25
183997079,0.01,25.0,0.21,0.0,64,0,1,25
184028741,0.01,25.0,0.19999999,0.0,64,0,1,25
184060745,0.01,25.0,0.19,0.0,0,0,1,25
184092138,0.01,25.0,0.12,0.0,4,0,1,25
184123760,0.01,25.0,0.14999999,0.0,64,0,1,25
184155743,0.01,25.0,0.13,0.0,64,0,1,25
184187145,0.01,25.0,0.12,0.0,4,0,1,25
184219793,0.01,25.0,0.08,0.0,64,0,1,25
184251758,0.01,25.0,0.03,0.0,64,0,1,25
184283754,0.01,25.0,0.06,0.0,64,0,1,25
184315130,0.01,25.0,0.049999997,0.0,4,0,1,25
184347179,0.01,25.0,0.04,0.0,64,0,1,25
184379775,0.01,25.0,0.0,0.0,64,0,1,25
184411756,0.01,25.0,0.04,0.0,64,0,1,25
184443782,0.01,25.0,0.01,0.0,0,0,1,25
184475757,0.01,25.0,0.0,0.0,64,0,1,25
184507401,0.01,25.0,0.0,0.0,0,0,1,25
184538924,0.01,25.0,0.0,0.0,64,0,1,25
184570881,0.01,25.0,0.01,0.0,64,0,1,25
184602855,0.01,25.0,0.01,0.0,64,0,1,25
184635579,0.01,25.0,0.02,0.0,64,0,1,25
184667375,0.01,25.0,0.02,0.0,64,0,1,25
184699845,0.01,25.0,0.04,0.0,64,0,1,25
184732581,0.01,25.0,0.049999997,0.0,64,0,1,25
184764958,0.01,25.0,0.049999997,0.0,64,0,1,25
184796114,0.01,25.0,0.06,0.0,64,0,1,25
184828617,0.01,25.0,0.06,0.0,64,0,1,25
184860129,0.01,25.0,0.07,0.0,64,0,1,25
184892509,0.01,25.0,0.08,0.0,0,0,1,25
184924754,0.01,25.0,0.08,0.0,64,0,1,25
184956759,0.01,25.0,0.099999994,0.0,64,0,1,25
184988749,0.01,25.0,0.099999994,0.0,64,0,1,25
185020124,0.01,25.0,0.099999994,0.0,64,0,1,25
185052936,0.01,25.0,0.12,0.0,64,0,1,25
185084780,0.01,25.0,0.12,0.0,64,0,1,25
185116116,0.01,25.0,0.14,0.0,64,0,1,25
185148455,0.01,25.0,0.14,0.0,64,0,1,25
185180753,0.01,25.0,0.13,0.0,0,0,1,25
185212752,0.01,25.0,0.14,0.0,0,0,1,25
185244650,0.01,25.0,0.14,0.0,0,0,1,25
185276747,0.01,25.0,0.13,0.0,64,0,1,25
185308170,0.01,25.0,0.12,0.0,64,0,1,25
185340390,0.01,25.0,0.08,0.0,64,0,1,25
185372614,0.01,25.0,0.14,0.0,64,0,1,25
185404742,0.01,25.0,0.13,0.0,64,0,1,25
185436969,0.01,25.0,0.14,0.0,64,0,1,25
185950216,0.01,25.0,0.07,0.0,64,0,1,25
186494568,0.01,25.0,0.02,0.0,64,0,1,25
186526940,0.01,25.0,0.0,0.0,0,0,1,25
186558647,0.01,25.0,0.04,0.0,64,0,1,25
186590634,0.01,25.0,0.06,0.0,64,0,1,25
186622567,0.01,25.0,0.049999997,0.0,64,0,1,25
186654351,0.01,25.0,0.06,0.0,64,0,1,25
186686595,0.01,25.0,0.06,0.0,64,0,1,25
186718638,0.01,25.0,0.07,0.0,64,0,1,25
186750857,0.01,25.0,0.08,0.0,0,0,1,25
186782311,0.01,25.0,0.089999996,0.0,64,0,1,25
186814917,0.01,25.0,0.089999996,0.0,0,0,1,25
186846893,0.01,25.0,0.07,0.0,64,0,1,25
186878867,0.01,25.0,0.089999996,0.0,64,0,1,25
186910870,0.01,25.0,0.07,0.0,64,0,1,25
186942978,0.01,25.0,0.07,0.0,64,0,1,25
186974926,0.01,25.0,0.04,0.0,0,0,1,25
187006978,0.01,25.0,0.089999996,0.0,64,0,1,25
187038940,0.01,25.0,0.089999996,0.0,64,0,1,25
187070893,0.01,25.0,0.07,0.0,0,0,1,25
187102911,0.01,25.0,0.07,0.0,0,0,1,25
187134299,0.01,25.0,0.06,0.0,64,0,1,25
187166811,0.01,25.0,0.06,0.0,64,0,1,25
187199012,0.01,25.0,0.03,0.0,0,0,1,25
187230913,0.01,25.0,0.03,0.0,0,0,1,25
187262842,0.01,25.0,0.06,0.0,64,0,1,25
187294339,0.01,25.0,0.049999997,0.0,64,0,1,25
187326522,0.01,25.0,0.049999997,0.0,64,0,1,25
187358898,0.01,25.0,0.049999997,0.0,64,0,1,25
187390841,0.01,25.0,0.049999997,0.0,64,0,1,25
187422851,0.01,25.0,0.04,0.0,64,0,1,25
187453770,0.01,25.0,0.04,0.0,64,0,1,25
187484970,0.01,25.0,0.12,0.0,64,0,1,25
187517720,0.01,25.0,0.01,0.0,64,0,1,25
187549122,0.01,25.0,0.0,0.0,64,0,1,25
187581741,0.01,25.0,0.0,0.0,64,0,1,25
187612976,0.01,25.0,0.0,0.0,64,0,1,25
187646161,0.01,25.0,0.0,0.0,64,0,1,25
187678004,0.01,25.0,0.0,0.0,64,0,1,25
187709527,0.01,25.0,0.0,0.0,64,0,1,25
187741363,0.01,25.0,0.0,0.0,56,0,1,25
187773764,0.01,25.0,0.0,0.0,64,0,1,25
187804929,0.01,25.0,0.0,0.0,64,0,1,25
187837768,0.01,25.0,0.0,0.0,64,0,1,25
187869935,0.01,25.0,0.0,0.0,64,0,1,25
187900918,0.01,25.0,0.0,0.0,64,0,1,25
187934215,0.01,25.0,0.0,0.0,64,0,1,25
187965761,0.01,25.0,0.0,0.0,64,0,1,25
187996983,0.01,25.0,0.0,0.0,64,0,1,25
188029738,0.01,25.0,0.0,0.0,64,0,1,25
188062002,0.01,25.0,0.0,0.0,64,0,1,25
188093338,0.01,25.0,0.0,0.0,64,0,1,25
188125469,0.01,25.0,0.0,0.0,64,0,1,25
188158007,0.01,25.0,0.0,0.0,64,0,1,25
188189787,0.01,25.0,0.0,0.0,64,0,1,25
188221924,0.01,25.0,0.0,0.0,4,0,1,25
188253027,0.01,25.0,0.0,0.0,64,0,1,25
188284742,0.01,25.0,0.0,0.0,64,0,1,25
188315828,0.01,25.0,0.0,0.0,64,0,1,25
188347801,0.01,25.0,0.0,0.0,64,0,1,25
188379045,0.01,25.0,0.0,0.0,4,0,1,25
188411314,0.01,25.0,0.0,0.0,64,0,1,25
188443781,0.01,25.0,0.0,0.0,56,0,1,25
188475755,0.01,25.0,0.0,0.0,64,0,1,25
188507805,0.01,25.0,0.0,0.0,0,0,1,25
188539068,0.01,25.0,0.0,0.0,4,0,1,25
188570838,0.01,25.0,0.0,0.0,0,0,1,25
188602910,0.01,25.0,0.0,0.0,64,0,1,25
188634868,0.01,25.0,0.0,0.0,64,0,1,25
188666920,0.01,25.0,0.0,0.0,4,0,1,25
188699531,0.01,25.0,0.0,0.0,0,0,1,25
188730851,0.01,25.0,0.0,0.0,4,0,1,25
188763824,0.01,25.0,0.0,0.0,64,0,1,25
188795742,0.01,25.0,0.0,0.0,64,0,1,25
188827617,0.01,25.0,0.0,0.0,0,0,1,25
188858878,0.01,25.0,0.0,0.0,64,0,1,25
188891407,0.01,25.0,0.0,0.0,64,0,1,25
188922875,0.01,25.0,0.0,0.0,4,0,1,25
188955362,0.01,25.0,0.0,0.0,64,0,1,25
188987830,0.01,25.0,0.0,0.0,64,0,1,25
189018876,0.01,25.0,0.0,0.0,0,0,1,25
189051336,0.01,25.0,0.0,0.0,56,0,1,25
189083751,0.01,25.0,0.0,0.0,64,0,1,25
189114944,0.01,25.0,0.0,0.0,64,0,1,25
189146843,0.01,25.0,0.0,0.0,64,0,1,25
189180371,0.01,25.0,0.0,0.0,64,0,1,25
189212770,0.01,25.0,0.0,0.0,64,0,1,25
189244763,0.01,25.0,0.0,0.0,64,0,1,25
189276784,0.01,25.0,0.0,0.0,64,0,1,25
189308764,0.01,25.0,0.0,0.0,64,0,1,25
189340764,0.01,25.0,0.0,0.0,0,0,1,25
189372742,0.01,25.0,0.0,0.0,64,0,1,25
189404167,0.01,25.0,0.0,0.0,64,0,1,25
189436707,0.01,25.0,0.0,0.0,64,0,1,25
189468367,0.01,25.0,0.0,0.0,64,0,1,25
189500741,0.01,25.0,0.0,0.0,64,0,1,25
189532970,0.01,25.0,0.0,0.0,64,0,1,25
189564744,0.01,25.0,0.0,0.0,64,0,1,25
189596983,0.01,25.0,0.0,0.0,64,0,1,25
189628944,0.01,25.0,0.0,0.0,64,0,1,25
189660125,0.01,25.0,0.0,0.0,64,0,1,25
189692188,0.01,25.0,0.0,0.0,64,0,1,25
189724996,0.01,25.0,0.0,0.0,64,0,1,25
189756747,0.01,25.0,0.0,0.0,64,0,1,25
189788748,0.01,25.0,0.0,0.0,0,0,1,25
189820942,0.01,25.0,0.0,0.0,0,0,1,25
189852748,0.01,25.0,0.0,0.0,64,0,1,25
189884156,0.01,25.0,0.0,0.0,64,0,1,25
189916363,0.01,25.0,0.0,0.0,64,0,1,25
189948770,0.01,25.0,0.0,0.0,64,0,1,25
189980190,0.01,25.0,0.0,0.0,64,0,1,25
190013383,0.01,25.0,0.0,0.0,64,0,1,25
190045742,0.01,25.0,0.0,0.0,64,0,1,25
190077466,0.01,25.0,0.0,0.0,64,0,1,25
190109952,0.01,25.0,0.0,0.0,64,0,1,25
190141751,0.01,25.0,0.0,0.0,64,0,1,25
190174491,0.01,25.0,0.0,0.0,64,0,1,25
190206788,0.01,25.0,0.0,0.0,64,0,1,25
190238815,0.01,25.0,0.0,0.0,0,0,1,25
190270342,0.01,25.0,0.0,0.0,64,0,1,25
190302874,0.01,25.0,0.0,0.0,64,0,1,25
190333947,0.01,25.0,0.0,0.0,64,0,1,25
190366323,0.01,25.0,0.0,0.0,4,0,1,25
190398812,0.01,25.0,0.0,0.0,64,0,1,25
190430866,0.01,25.0,0.0,0.0,0,0,1,25
190462844,0.01,25.0,0.0,0.0,64,0,1,25
190494223,0.01,25.0,0.0,0.0,4,0,1,25
190525758,0.01,25.0,0.0,0.0,64,0,1,25
190558024,0.01,25.0,0.0,0.0,-116,0,1,25
190589775,0.01,25.0,0.0,0.0,0,0,1,25
190622172,0.01,25.0,0.0,0.0,64,0,1,25
190653899,0.01,25.0,0.0,0.0,64,0,1,25
190686123,0.01,25.0,0.0,0.0,64,0,1,25
190718338,0.01,25.0,0.0,0.0,64,0,1,25
190750864,0.01,25.0,0.0,0.0,64,0,1,25
190781761,0.01,25.0,0.0,0.0,64,0,1,25
190814883,0.01,25.0,0.0,0.0,4,0,1,25
190846892,0.01,25.0,0.01,0.0,0,0,1,25
190878899,0.01,25.0,0.0,0.0,64,0,1,25
190910163,0.01,25.0,0.0,0.0,64,0,1,25
190942561,0.01,25.0,0.0,0.0,0,0,1,25
190974877,0.01,25.0,0.0,0.0,64,0,1,25
191007628,0.01,25.0,0.0,0.0,64,0,1,25
191039388,0.01,25.0,0.0,0.0,64,0,1,25
191072206,0.01,25.0,0.0,0.0,64,0,1,25
191103357,0.01,25.0,0.0,0.0,4,0,1,25
191135841,0.01,25.0,0.0,0.0,64,0,1,25
191167866,0.01,25.0,0.0,0.0,64,0,1,25
191200203,0.01,25.0,0.0,0.0,4,0,1,25
191231753,0.01,25.0,0.0,0.0,64,0,1,25
191264129,0.01,25.0,0.0,0.0,64,0,1,25
191295317,0.01,25.0,0.0,0.0,4,0,1,25
191328153,0.01,25.0,0.0,0.0,64,0,1,25
191359858,0.01,25.0,0.0,0.0,64,0,1,25
191391378,0.01,25.0,0.0,0.0,4,0,1,25
191424191,0.01,25.0,0.0,0.0,64,0,1,25
191455802,0.01,25.0,0.0,0.0,64,0,1,25
191487756,0.01,25.0,0.0,0.0,64,0,1,25
191520144,0.01,25.0,0.0,0.0,64,0,1,25
191551313,0.01,25.0,0.0,0.0,64,0,1,25
191583854,0.01,25.0,0.01,0.0,64,0,1,25
191616152,0.01,25.0,0.0,0.0,0,0,1,25
191647737,0.01,25.0,0.0,0.0,4,0,1,25
191679932,0.01,25.0,0.0,0.0,64,0,1,25
191711850,0.01,25.0,0.0,0.0,0,0,1,25
191743349,0.01,25.0,0.0,0.0,4,0,1,25
191776145,0.01,25.0,0.0,0.0,0,0,1,25
191807852,0.01,25.0,0.06,0.0,64,0,1,25
191839380,0.01,25.0,0.0,0.0,64,0,1,25
191871793,0.01,25.0,0.0,0.0,0,0,1,25
191904368,0.01,25.0,0.0,0.0,64,0,1,25
191936152,0.01,25.0,0.0,0.0,64,0,1,25
191968568,0.01,25.0,0.0,0.0,64,0,1,25
192000745,0.01,25.0,0.0,0.0,64,0,1,25
192032372,0.01,25.0,0.0,0.0,64,0,1,25
192064754,0.01,25.0,0.0,0.0,64,0,1,25
192097029,0.01,25.0,0.0,0.0,0,0,1,25
192128758,0.01,25.0,0.0,0.0,0,0,1,25
192160756,0.01,25.0,0.0,0.0,64,0,1,25
192192920,0.01,25.0,0.0,0.0,64,0,1,25
192224921,0.01,25.0,0.0,0.0,64,0,1,25
192256296,0.01,25.0,0.0,0.0,64,0,1,25
192288466,0.01,25.0,0.01,0.0,64,0,1,25
192320890,0.01,25.0,0.0,0.0,64,0,1,25
192352388,0.01,25.0,0.0,0.0,0,0,1,25
192384940,0.01,25.0,0.0,0.0,0,0,1,25
192416742,0.01,25.0,0.0,0.0,64,0,1,25
192448527,0.01,25.0,0.0,0.0,64,0,1,25
192480321,0.01,25.0,0.0,0.0,64,0,1,25
192512355,0.01,25.0,0.0,0.0,64,0,1,25
192544941,0.01,25.0,0.0,0.0,64,0,1,25
192576936,0.01,25.0,0.0,0.0,64,0,1,25
192608746,0.01,25.0,0.0,0.0,0,0,1,25
192640486,0.01,25.0,0.0,0.0,4,0,1,25
192672945,0.01,25.0,0.0,0.0,64,0,1,25
192704301,0.01,25.0,0.0,0.0,64,0,1,25
192736349,0.01,25.0,0.0,0.0,64,0,1,25
192768742,0.01,25.0,0.0,0.0,64,0,1,25
192800755,0.01,25.0,0.0,0.0,64,0,1,25
192835330,0.01,25.0,0.0,0.0,64,0,1,25
192867826,0.01,25.0,0.0,0.0,64,0,1,25
192898934,0.01,25.0,0.0,0.0,64,0,1,25
192930933,0.01,25.0,0.0,0.0,64,0,1,25
192963053,0.01,25.0,0.0,0.0,64,0,1,25
192995003,0.01,25.0,0.0,0.0,64,0,1,25
193027106,0.01,25.0,0.0,0.0,64,0,1,25
193058893,0.01,25.0,0.0,0.0,64,0,1,25
193090842,0.01,25.0,0.0,0.0,64,0,1,25
193122942,0.01,25.0,0.0,0.0,64,0,1,25
193156143,0.01,25.0,0.0,0.0,4,0,1,25
193186835,0.01,25.0,0.0,0.0,64,0,1,25
193219114,0.01,25.0,0.0,0.0,64,0,1,25
193251338,0.01,25.0,0.0,0.0,64,0,1,25
193283742,0.01,25.0,0.0,0.0,64,0,1,25
193315833,0.01,25.0,0.0,0.0,64,0,1,25
193347802,0.01,25.0,0.0,0.0,64,0,1,25
193379777,0.01,25.0,0.0,0.0,-116,0,1,25
193410881,0.01,25.0,0.0,0.0,0,0,1,25
193442831,0.01,25.0,0.0,0.0,64,0,1,25
193475088,0.01,25.0,0.0,0.0,64,0,1,25
193507360,0.01,25.0,0.0,0.0,64,0,1,25
193539784,0.01,25.0,0.0,0.0,64,0,1,25
193571761,0.01,25.0,0.0,0.0,64,0,1,25
193603371,0.01,25.0,0.0,0.0,64,0,1,25
193635081,0.01,25.0,0.0,0.0,64,0,1,25
193667109,0.01,25.0,0.0,0.0,0,0,1,25
193698016,0.01,25.0,0.04,0.0,0,0,1,25
193730012,0.01,25.0,0.0,0.0,64,0,1,25
193760753,0.01,25.0,0.0,0.0,64,0,1,25
193792745,0.01,25.0,0.0,0.0,64,0,1,25
193824742,0.01,25.0,0.0,0.0,64,0,1,25
193856762,0.01,25.0,0.0,0.0,64,0,1,25
193887807,0.01,25.0,0.0,0.0,64,0,1,25
193919870,0.01,25.0,0.0,0.0,64,0,1,25
193951742,0.01,25.0,0.0,0.0,64,0,1,25
193983775,0.01,25.0,0.02,0.0,64,0,1,25
194015759,0.01,25.0,0.01,0.0,64,0,1,25
194047801,0.01,25.0,0.03,0.0,64,0,1,25
194079764,0.01,25.0,0.01,0.0,64,0,1,25
194111859,0.01,25.0,0.02,0.0,0,0,1,25
194143756,0.01,25.0,0.01,0.0,64,0,1,25
194175641,0.01,25.0,0.03,0.0,0,0,1,25
194207801,0.01,25.0,0.04,0.0,64,0,1,25
194239555,0.01,25.0,0.03,0.0,64,0,1,25
194271343,0.01,25.0,0.03,0.0,64,0,1,25
194303674,0.01,25.0,0.04,0.0,4,0,1,25
194335566,0.01,25.0,0.01,0.0,64,0,1,25
194367805,0.01,25.0,0.03,0.0,64,0,1,25
194399778,0.01,25.0,0.03,0.0,64,0,1,25
194431742,0.01,25.0,0.049999997,0.0,64,0,1,25
194463499,0.01,25.0,0.01,0.0,0,0,1,25
194495522,0.01,25.0,0.049999997,0.0,0,0,1,25
194527950,0.01,25.0,0.049999997,0.0,64,0,1,25
194560420,0.01,25.0,0.04,0.0,0,0,1,25
194592768,0.01,25.0,0.08,0.0,64,0,1,25
194625791,0.01,25.0,0.06,0.0,64,0,1,25
194658939,0.01,25.0,0.13,0.0,64,0,1,25
194689915,0.01,25.0,0.06,0.0,64,0,1,25
194721760,0.01,25.0,0.06,0.0,64,0,1,25
194754576,0.01,25.0,0.06,0.0,64,0,1,25
194786847,0.01,25.0,0.06,0.0,64,0,1,25
194817990,0.01,25.0,0.06,0.0,64,0,1,25
194850543,0.01,25.0,0.06,0.0,64,0,1,25
194882898,0.01,25.0,0.06,0.0,0,0,1,25
194914889,0.01,25.0,0.06,0.0,64,0,1,25
194946347,0.01,25.0,0.06,0.0,0,0,1,25
194977895,0.01,25.0,0.049999997,0.0,64,0,1,25
195009894,0.01,25.0,0.07,0.0,0,0,1,25
195042039,0.01,25.0,0.06,0.0,64,0,1,25
195073756,0.01,25.0,0.049999997,0.0,64,0,1,25
195106318,0.01,25.0,0.06,0.0,64,0,1,25
195138128,0.01,25.0,0.06,0.0,0,0,1,25
195170721,0.01,25.0,0.06,0.0,64,0,1,25
195201774,0.01,25.0,0.049999997,0.0,64,0,1,25
195233916,0.01,25.0,0.049999997,0.0,64,0,1,25
195266299,0.01,25.0,0.04,0.0,64,0,1,25
195298607,0.01,25.0,0.03,0.0,64,0,1,25
195329755,0.01,25.0,0.03,0.0,64,0,1,25
195362963,0.01,25.0,0.03,0.0,4,0,1,25
195393772,0.01,25.0,0.04,0.0,64,0,1,25
195426634,0.01,25.0,0.03,0.0,64,0,1,25
195458876,0.01,25.0,0.02,0.0,64,0,1,25
195491108,0.01,25.0,0.03,0.0,-116,0,1,25
195522539,0.01,25.0,0.01,0.0,64,0,1,25
195555522,0.01,25.0,0.01,0.0,0,0,1,25
195587800,0.01,25.0,0.0,0.0,64,0,1,25
195619127,0.01,25.0,0.01,0.0,64,0,1,25
195651114,0.01,25.0,0.03,0.0,64,0,1,25
195682582,0.01,25.0,0.01,0.0,0,0,1,25
195714549,0.01,25.0,0.01,0.0,64,0,1,25
195746870,0.01,25.0,0.03,0.0,64,0,1,25
195779685,0.01,25.0,0.0,0.0,64,0,1,25
195811782,0.01,25.0,0.0,0.0,0,0,1,25
195843053,0.01,25.0,0.01,0.0,64,0,1,25
195874997,0.01,25.0,0.01,0.0,64,0,1,25
195906554,0.01,25.0,0.01,0.0,64,0,1,25
195939321,0.01,25.0,0.02,0.0,64,0,1,25
195971807,0.01,25.0,0.01,0.0,64,0,1,25
196003338,0.01,25.0,0.02,0.0,64,0,1,25
196034821,0.01,25.0,0.03,0.0,0,0,1,25
196067045,0.01,25.0,0.02,0.0,64,0,1,25
196098902,0.01,25.0,0.03,0.0,64,0,1,25
196131349,0.01,25.0,0.03,0.0,64,0,1,25
196162911,0.01,25.0,0.01,0.0,64,0,1,25
196195046,0.01,25.0,0.02,0.0,-116,0,1,25
196226894,0.01,25.0,0.02,0.0,0,0,1,25
196259323,0.01,25.0,0.03,0.0,64,0,1,25
196290923,0.01,25.0,0.01,0.0,64,0,1,25
196322988,0.01,25.0,0.01,0.0,64,0,1,25
196355158,0.01,25.0,0.02,0.0,64,0,1,25
196387805,0.01,25.0,0.0,0.0,64,0,1,25
196419051,0.01,25.0,0.02,0.0,4,0,1,25
196451557,0.01,25.0,0.02,0.0,64,0,1,25
196483795,0.01,25.0,0.01,0.0,64,0,1,25
196515763,0.01,25.0,0.01,0.0,64,0,1,25
196547373,0.01,25.0,0.02,0.0,64,0,1,25
196579761,0.01,25.0,0.01,0.0,64,0,1,25
196611745,0.01,25.0,0.01,0.0,64,0,1,25
196644527,0.01,25.0,0.01,0.0,0,0,1,25
196676759,0.01,25.0,0.01,0.0,0,0,1,25
196708762,0.01,25.0,0.01,0.0,64,0,1,25
196740481,0.01,25.0,0.01,0.0,0,0,1,25
196772941,0.01,25.0,0.01,0.0,64,0,1,25
196804748,0.01,25.0,0.01,0.0,64,0,1,25
196836913,0.01,25.0,0.02,0.0,64,0,1,25
196868176,0.01,25.0,0.02,0.0,64,0,1,25
196900915,0.01,25.0,0.02,0.0,64,0,1,25
196932360,0.01,25.0,0.02,0.0,64,0,1,25
196964127,0.01,25.0,0.0,0.0,64,0,1,25
196996509,0.01,25.0,0.01,0.0,0,0,1,25
197028772,0.01,25.0,0.02,0.0,64,0,1,25
197059954,0.01,25.0,0.06,0.0,64,0,1,25
197092987,0.01,25.0,0.04,0.0,64,0,1,25
197124925,0.01,25.0,0.07,0.0,64,0,1,25
197156137,0.01,25.0,0.03,0.0,0,0,1,25
197189419,0.01,25.0,0.0,0.0,64,0,1,25
197221946,0.01,25.0,0.0,0.0,0,0,1,25
197253745,0.01,25.0,0.0,0.0,0,0,1,25
197285405,0.01,25.0,0.0,0.0,64,0,1,25
197317982,0.01,25.0,0.0,0.0,52,0,1,25
197349745,0.01,25.0,0.0,0.0,64,0,1,25
197381332,0.01,25.0,0.0,0.0,64,0,1,25
197413758,0.01,25.0,0.0,0.0,64,0,1,25
197445803,0.01,25.0,0.0,0.0,64,0,1,25
197476748,0.01,25.0,0.0,0.0,64,0,1,25
197508169,0.01,25.0,0.0,0.0,-72,0,1,25
197539745,0.01,25.0,0.0,0.0,64,0,1,25
197570870,0.01,25.0,0.0,0.0,64,0,1,25
197602056,0.01,25.0,0.0,0.0,4,0,1,25
197634323,0.01,25.0,0.0,0.0,64,0,1,25
197666788,0.01,25.0,0.0,0.0,64,0,1,25
197698212,0.01,25.0,0.0,0.0,4,0,1,25
197730030,0.01,25.0,0.0,0.0,52,0,1,25
197762277,0.01,25.0,0.0,0.0,64,0,1,25
197794788,0.01,25.0,0.0,0.0,64,0,1,25
197826852,0.01,25.0,0.0,0.0,0,0,1,25
197858835,0.01,25.0,0.0,0.0,64,0,1,25
197890557,0.01,25.0,0.0,0.0,64,0,1,25
197922032,0.01,25.0,0.0,0.0,64,0,1,25
197953796,0.01,25.0,0.0,0.0,0,0,1,25
197986386,0.01,25.0,0.0,0.0,64,0,1,25
198018331,0.01,25.0,0.0,0.0,64,0,1,25
198050197,0.01,25.0,0.0,0.0,64,0,1,25
198081771,0.01,25.0,0.0,0.0,64,0,1,25
198113936,0.01,25.0,0.0,0.0,0,0,1,25
198146294,0.01,25.0,0.0,0.0,64,0,1,25
198178175,0.01,25.0,0.0,0.0,64,0,1,25
198210159,0.01,25.0,0.0,0.0,64,0,1,25
198241744,0.01,25.0,0.0,0.0,0,0,1,25
198274540,0.01,25.0,0.0,0.0,64,0,1,25
198306915,0.01,25.0,0.0,0.0,64,0,1,25
198338299,0.01,25.0,0.0,0.0,64,0,1,25
198370855,0.01,25.0,0.0,0.0,0,0,1,25
198402875,0.01,25.0,0.0,0.0,64,0,1,25
198435001,0.01,25.0,0.0,0.0,0,0,1,25
198467412,0.01,25.0,0.0,0.0,64,0,1,25
198498825,0.01,25.0,0.0,0.0,4,0,1,25
198530888,0.01,25.0,0.0,0.0,4,0,1,25
198562858,0.01,25.0,0.02,0.0,64,0,1,25
198594815,0.01,25.0,0.0,0.0,64,0,1,25
198627337,0.01,25.0,0.0,0.0,64,0,1,25
198658856,0.01,25.0,0.0,0.0,64,0,1,25
198690999,0.01,25.0,0.0,0.0,4,0,1,25
198723068,0.01,25.0,0.0,0.0,64,0,1,25
198755130,0.01,25.0,0.0,0.0,64,0,1,25
198786588,0.01,25.0,0.0,0.0,64,0,1,25
198819510,0.01,25.0,0.02,0.0,64,0,1,25
198851742,0.01,25.0,0.0,0.0,64,0,1,25
198883809,0.01,25.0,0.0,0.0,0,0,1,25
198915491,0.01,25.0,0.0,0.0,-116,0,1,25
198947802,0.01,25.0,0.0,0.0,64,0,1,25
198979810,0.01,25.0,0.0,0.0,64,0,1,25
199011774,0.01,25.0,0.0,0.0,64,0,1,25
199043754,0.01,25.0,0.0,0.0,64,0,1,25
199075746,0.01,25.0,0.0,0.0,64,0,1,25
199107812,0.01,25.0,0.0,0.0,64,0,1,25
199139750,0.01,25.0,0.0,0.0,64,0,1,25
199171795,0.01,25.0,0.0,0.0,64,0,1,25
199203745,0.01,25.0,0.0,0.0,64,0,1,25
199235019,0.01,25.0,0.0,0.0,4,0,1,25
199266849,0.01,25.0,0.0,0.0,64,0,1,25
199298859,0.01,25.0,0.0,0.0,64,0,1,25
199331575,0.01,25.0,0.0,0.0,0,0,1,25
199363742,0.01,25.0,0.0,0.0,64,0,1,25
199395075,0.01,25.0,0.0,0.0,4,0,1,25
199426830,0.01,25.0,0.0,0.0,0,0,1,25
199458574,0.01,25.0,0.0,0.0,64,0,1,25
199491174,0.01,25.0,0.0,0.0,64,0,1,25
199522885,0.01,25.0,0.0,0.0,0,0,1,25
199555114,0.01,25.0,0.0,0.0,64,0,1,25
199587166,0.01,25.0,0.0,0.0,0,0,1,25
199617984,0.01,25.0,0.0,0.0,64,0,1,25
199649757,0.01,25.0,0.0,0.0,64,0,1,25
199681764,0.01,25.0,0.0,0.0,64,0,1,25
199713955,0.01,25.0,0.0,0.0,64,0,1,25
199744907,0.01,25.0,0.0,0.0,64,0,1,25
199776924,0.01,25.0,0.0,0.0,0,0,1,25
199808741,0.01,25.0,0.0,0.0,64,0,1,25
199839769,0.01,25.0,0.0,0.0,64,0,1,25
199871743,0.01,25.0,0.0,0.0,64,0,1,25
199903649,0.01,25.0,0.01,0.0,64,0,1,25
199935768,0.01,25.0,0.0,0.0,64,0,1,25
199967804,0.01,25.0,0.0,0.0,64,0,1,25
199999664,0.01,25.0,0.0,0.0,64,0,1,25
200031770,0.01,25.0,0.0,0.0,64,0,1,25
200063765,0.01,25.0,0.0,0.0,64,0,1,25
200095631,0.01,25.0,0.0,0.0,0,0,1,25
200127862,0.01,25.0,0.01,0.0,64,0,1,25
200159527,0.01,25.0,0.0,0.0,64,0,1,25
200191563,0.01,25.0,0.0,0.0,64,0,1,25
200223503,0.01,25.0,0.0,0.0,0,0,1,25
200255753,0.01,25.0,0.0,0.0,64,0,1,25
200287628,0.01,25.0,0.0,0.0,64,0,1,25
200319487,0.01,25.0,0.0,0.0,0,0,1,25
200351745,0.01,25.0,0.0,0.0,64,0,1,25
200383506,0.01,25.0,0.0,0.0,0,0,1,25
200415752,0.01,25.0,0.0,0.0,0,0,1,25
200447632,0.01,25.0,0.0,0.0,64,0,1,25
200479742,0.01,25.0,0.0,0.0,64,0,1,25
200511742,0.01,25.0,0.0,0.0,64,0,1,25
200543709,0.01,25.0,0.0,0.0,4,0,1,25
200575758,0.01,25.0,0.0,0.0,64,0,1,25
200607810,0.01,25.0,0.0,0.0,64,0,1,25
200639741,0.01,25.0,0.0,0.0,64,0,1,25
200671763,0.01,25.0,0.0,0.0,64,0,1,25
200703761,0.01,25.0,0.0,0.0,64,0,1,25
200735760,0.01,25.0,0.0,0.0,64,0,1,25
200767820,0.01,25.0,0.0,0.0,64,0,1,25
200799761,0.01,25.0,0.0,0.0,64,0,1,25
200831755,0.01,25.0,0.0,0.0,64,0,1,25
200863757,0.01,25.0,0.0,0.0,64,0,1,25
200895742,0.01,25.0,0.0,0.0,64,0,1,25
200927801,0.01,25.0,0.0,0.0,64,0,1,25
200959760,0.01,25.0,0.0,0.0,64,0,1,25
200991772,0.01,25.0,0.0,0.0,64,0,1,25
201022949,0.01,25.0,0.0,0.0,4,0,1,25
201054863,0.01,25.0,0.0,0.0,64,0,1,25
201086160,0.01,25.0,0.0,0.0,64,0,1,25
201118589,0.01,25.0,0.0,0.0,64,0,1,25
201150817,0.01,25.0,0.0,0.0,64,0,1,25
201182872,0.01,25.0,0.0,0.0,64,0,1,25
201214592,0.01,25.0,0.0,0.0,0,0,1,25
201246911,0.01,25.0,0.0,0.0,64,0,1,25
201278850,0.01,25.0,0.0,0.0,64,0,1,25
201310892,0.01,25.0,0.0,0.0,4,0,1,25
201342868,0.01,25.0,0.0,0.0,64,0,1,25
201375836,0.01,25.0,0.0,0.0,64,0,1,25
201407801,0.01,25.0,0.0,0.0,64,0,1,25
201439793,0.01,25.0,0.0,0.0,64,0,1,25
201471376,0.01,25.0,0.0,0.0,4,0,1,25
201503576,0.01,25.0,0.0,0.0,64,0,1,25
201535894,0.01,25.0,0.0,0.0,-116,0,1,25
201567352,0.01,25.0,0.0,0.0,64,0,1,25
201600534,0.01,25.0,0.0,0.0,4,0,1,25
201632745,0.01,25.0,0.0,0.0,64,0,1,25
201664977,0.01,25.0,0.0,0.0,52,0,1,25
201696763,0.01,25.0,0.0,0.0,64,0,1,25
201728468,0.01,25.0,0.0,0.0,4,0,1,25
201759754,0.01,25.0,0.0,0.0,64,0,1,25
201792170,0.01,25.0,0.0,0.0,64,0,1,25
201823327,0.01,25.0,0.0,0.0,4,0,1,25
201856144,0.01,25.0,0.0,0.0,64,0,1,25
201887807,0.01,25.0,0.0,0.0,64,0,1,25
201919886,0.01,25.0,0.01,0.0,4,0,1,25
201951869,0.01,25.0,0.0,0.0,0,0,1,25
201983770,0.01,25.0,0.0,0.0,64,0,1,25
202015383,0.01,25.0,0.0,0.0,64,0,1,25
202047491,0.01,25.0,0.0,0.0,64,0,1,25
202079942,0.01,25.0,0.0,0.0,64,0,1,25
202111329,0.01,25.0,0.0,0.0,4,0,1,25
202143784,0.01,25.0,0.0,0.0,64,0,1,25
202175751,0.01,25.0,0.0,0.0,64,0,1,25
202207956,0.01,25.0,0.0,0.0,0,0,1,25
202240291,0.01,25.0,0.0,0.0,64,0,1,25
202272291,0.01,25.0,0.0,0.0,64,0,1,25
202304330,0.01,25.0,0.0,0.0,64,0,1,25
202336991,0.01,25.0,0.0,0.0,52,0,1,25
202368772,0.01,25.0,0.0,0.0,64,0,1,25
202400757,0.01,25.0,0.0,0.0,64,0,1,25
202432395,0.01,25.0,0.0,0.0,64,0,1,25
202464987,0.01,25.0,0.0,0.0,0,0,1,25
202496742,0.01,25.0,0.0,0.0,64,0,1,25
202528305,0.01,25.0,0.0,0.0,4,0,1,25
202560392,0.01,25.0,0.0,0.0,0,0,1,25
202592751,0.01,25.0,0.0,0.0,64,0,1,25
202624760,0.01,25.0,0.0,0.0,64,0,1,25
202656756,0.01,25.0,0.049999997,0.0,64,0,1,25
202688487,0.01,25.0,0.0,0.0,64,0,1,25
202720763,0.01,25.0,0.0,0.0,64,0,1,25
202752767,0.01,25.0,0.0,0.0,64,0,1,25
202784523,0.01,25.0,0.01,0.0,64,0,1,25
202816917,0.01,25.0,0.0,0.0,64,0,1,25
202848477,0.01,25.0,0.0,0.0,64,0,1,25
202880755,0.01,25.0,0.0,0.0,64,0,1,25
202912299,0.01,25.0,0.0,0.0,0,0,1,25
202944320,0.01,25.0,0.0,0.0,0,0,1,25
202976745,0.01,25.0,0.0,0.0,64,0,1,25
203008947,0.01,25.0,0.0,0.0,0,0,1,25
203040742,0.01,25.0,0.0,0.0,64,0,1,25
203072396,0.01,25.0,0.0,0.0,0,0,1,25
203104742,0.01,25.0,0.01,0.0,64,0,1,25
203135743,0.01,25.0,0.0,0.0,64,0,1,25
203167801,0.01,25.0,0.0,0.0,64,0,1,25
203198911,0.01,25.0,0.0,0.0,64,0,1,25
203230918,0.01,25.0,0.02,0.0,64,0,1,25
203262562,0.01,25.0,0.0,0.0,4,0,1,25
203295516,0.01,25.0,0.0,0.0,4,0,1,25
203327802,0.01,25.0,0.0,0.0,64,0,1,25
203359324,0.01,25.0,0.0,0.0,64,0,1,25
203391134,0.01,25.0,0.0,0.0,64,0,1,25
203422823,0.01,25.0,0.0,0.0,64,0,1,25
203455387,0.01,25.0,0.0,0.0,4,0,1,25
203486890,0.01,25.0,0.0,0.0,4,0,1,25
203518793,0.01,25.0,0.02,0.0,64,0,1,25
203551564,0.01,25.0,0.01,0.0,0,0,1,25
203582864,0.01,25.0,0.0,0.0,64,0,1,25
203614508,0.01,25.0,0.0,0.0,64,0,1,25
203646960,0.01,25.0,0.02,0.0,64,0,1,25
203678871,0.01,25.0,0.0,0.0,64,0,1,25
203710582,0.01,25.0,0.0,0.0,64,0,1,25
203743393,0.01,25.0,0.01,0.0,4,0,1,25
203775750,0.01,25.0,0.01,0.0,64,0,1,25
203807805,0.01,25.0,0.01,0.0,64,0,1,25
203839432,0.01,25.0,0.01,0.0,4,0,1,25
203871157,0.01,25.0,0.0,0.0,64,0,1,25
203903742,0.01,25.0,0.03,0.0,64,0,1,25
203935745,0.01,25.0,0.02,0.0,64,0,1,25
203967844,0.01,25.0,0.06,0.0,64,0,1,25
203999754,0.01,25.0,0.06,0.0,64,0,1,25
204031510,0.01,25.0,0.04,0.0,64,0,1,25
204063757,0.01,25.0,0.02,0.0,64,0,1,25
204095742,0.01,25.0,0.049999997,0.0,64,0,1,25
204127801,0.01,25.0,0.049999997,0.0,64,0,1,25
204159558,0.01,25.0,0.049999997,0.0,64,0,1,25
204191754,0.01,25.0,0.049999997,0.0,64,0,1,25
204223591,0.01,25.0,0.07,0.0,0,0,1,25
204255553,0.01,25.0,0.02,0.0,-116,0,1,25
204287801,0.01,25.0,0.049999997,0.0,64,0,1,25
204319526,0.01,25.0,0.06,0.0,64,0,1,25
204351522,0.01,25.0,0.06,0.0,64,0,1,25
204383749,0.01,25.0,0.06,0.0,64,0,1,25
204415694,0.01,25.0,0.049999997,0.0,4,0,1,25
204447860,0.01,25.0,0.0,0.0,64,0,1,25
204479785,0.01,25.0,0.02,0.0,64,0,1,25
204511805,0.01,25.0,0.02,0.0,64,0,1,25
204543769,0.01,25.0,0.01,0.0,64,0,1,25
204575742,0.01,25.0,0.0,0.0,64,0,1,25
204607830,0.01,25.0,0.0,0.0,64,0,1,25
204639787,0.01,25.0,0.0,0.0,64,0,1,25
204671762,0.01,25.0,0.0,0.0,64,0,1,25
204703770,0.01,25.0,0.0,0.0,64,0,1,25
204735806,0.01,25.0,0.0,0.0,64,0,1,25
204767801,0.01,25.0,0.0,0.0,0,0,1,25
204799786,0.01,25.0,0.0,0.0,64,0,1,25
204831875,0.01,25.0,0.0,0.0,0,0,1,25
204863747,0.01,25.0,0.0,0.0,64,0,1,25
204895742,0.01,25.0,0.0,0.0,64,0,1,25
204927802,0.01,25.0,0.02,0.0,64,0,1,25
204959764,0.01,25.0,0.0,0.0,56,0,1,25
204990812,0.01,25.0,0.06,0.0,64,0,1,25
205022954,0.01,25.0,0.049999997,0.0,64,0,1,25
205054111,0.01,25.0,0.049999997,0.0,4,0,1,25
205085757,0.01,25.0,0.01,0.0,64,0,1,25
205117200,0.01,25.0,0.0,0.0,64,0,1,25
205149116,0.01,25.0,0.03,0.0,64,0,1,25
205179771,0.01,25.0,0.03,0.0,64,0,1,25
205210918,0.01,25.0,0.04,0.0,64,0,1,25
205241869,0.01,25.0,0.049999997,0.0,64,0,1,25
205274758,0.01,25.0,0.06,0.0,64,0,1,25
205306142,0.01,25.0,0.06,0.0,64,0,1,25
205338194,0.01,25.0,0.0,0.0,64,0,1,25
205370182,0.01,25.0,0.02,0.0,64,0,1,25
205402560,0.01,25.0,0.04,0.0,64,0,1,25
205434854,0.01,25.0,0.049999997,0.0,64,0,1,25
205466910,0.01,25.0,0.01,0.0,64,0,1,25
205498740,0.01,25.0,0.06,0.0,64,0,1,25
205530835,0.01,25.0,0.03,0.0,64,0,1,25
205562587,0.01,25.0,0.02,0.0,0,0,1,25
205594897,0.01,25.0,0.02,0.0,0,0,1,25
205626150,0.01,25.0,0.02,0.0,64,0,1,25
205658002,0.01,25.0,0.08,0.0,64,0,1,25
205690134,0.01,25.0,0.0,0.0,64,0,1,25
205723112,0.01,25.0,0.03,0.0,64,0,1,25
205755099,0.01,25.0,0.01,0.0,64,0,1,25
205787844,0.01,25.0,0.01,0.0,64,0,1,25
205819896,0.01,25.0,0.02,0.0,4,0,1,25
205851570,0.01,25.0,0.0,0.0,64,0,1,25
205884144,0.01,25.0,0.01,0.0,64,0,1,25
205915337,0.01,25.0,0.0,0.0,4,0,1,25
205947809,0.01,25.0,0.0,0.0,64,0,1,25
205979786,0.01,25.0,0.0,0.0,64,0,1,25
206011201,0.01,25.0,0.0,0.0,64,0,1,25
206044177,0.01,25.0,0.0,0.0,64,0,1,25
206075749,0.01,25.0,0.0,0.0,64,0,1,25
206107842,0.01,25.0,0.0,0.0,64,0,1,25
206139963,0.01,25.0,0.02,0.0,64,0,1,25
206171772,0.01,25.0,0.0,0.0,0,0,1,25
206203882,0.01,25.0,0.0,0.0,0,0,1,25
206235811,0.01,25.0,0.0,0.0,0,0,1,25
206267318,0.01,25.0,0.0,0.0,-116,0,1,25
206299715,0.01,25.0,0.0,0.0,64,0,1,25
206331758,0.01,25.0,0.0,0.0,64,0,1,25
206363948,0.01,25.0,0.0,0.0,64,0,1,25
206395786,0.01,25.0,0.0,0.0,64,0,1,25
206427805,0.01,25.0,0.0,0.0,64,0,1,25
206459385,0.01,25.0,0.01,0.0,4,0,1,25
206491744,0.01,25.0,0.0,0.0,64,0,1,25
206523906,0.01,25.0,0.02,0.0,64,0,1,25
206555822,0.01,25.0,0.0,0.0,64,0,1,25
206587673,0.01,25.0,0.02,0.0,0,0,1,25
206620557,0.01,25.0,0.0,0.0,64,0,1,25
206652328,0.01,25.0,0.0,0.0,64,0,1,25
206684966,0.01,25.0,0.02,0.0,64,0,1,25
206716756,0.01,25.0,0.01,0.0,64,0,1,25
206748488,0.01,25.0,0.0,0.0,64,0,1,25
206780987,0.01,25.0,0.0,0.0,0,0,1,25
206812751,0.01,25.0,0.01,0.0,64,0,1,25
206844758,0.01,25.0,0.0,0.0,0,0,1,25
206876940,0.01,25.0,0.0,0.0,64,0,1,25
206908532,0.01,25.0,0.0,0.0,0,0,1,25
206940742,0.01,25.0,0.0,0.0,64,0,1,25
206972763,0.01,25.0,0.049999997,0.0,64,0,1,25
207004915,0.01,25.0,0.0,0.0,64,0,1,25
207036461,0.01,25.0,0.01,0.0,64,0,1,25
207068993,0.01,25.0,0.0,0.0,64,0,1,25
207100749,0.01,25.0,0.03,0.0,64,0,1,25
207132327,0.01,25.0,0.01,0.0,64,0,1,25
207164325,0.01,25.0,0.01,0.0,0,0,1,25
207196771,0.01,25.0,0.01,0.0,64,0,1,25
207228742,0.01,25.0,0.01,0.0,64,0,1,25
207260194,0.01,25.0,0.0,0.0,64,0,1,25
207290910,0.01,25.0,0.04,0.0,64,0,1,25
207322835,0.01,25.0,0.0,0.0,64,0,1,25
207354147,0.01,25.0,0.03,0.0,4,0,1,25
207385741,0.01,25.0,0.0,0.0,64,0,1,25
207417995,0.01,25.0,0.0,0.0,64,0,1,25
207449200,0.01,25.0,0.0,0.0,64,0,1,25
207480743,0.01,25.0,0.01,0.0,64,0,1,25
207511763,0.01,25.0,0.02,0.0,64,0,1,25
207543767,0.01,25.0,0.0,0.0,0,0,1,25
207575806,0.01,25.0,0.03,0.0,56,0,1,25
207607828,0.01,25.0,0.0,0.0,0,0,1,25
207638981,0.01,25.0,0.0,0.0,0,0,1,25
207669889,0.01,25.0,0.0,0.0,64,0,1,25
207701984,0.01,25.0,0.01,0.0,64,0,1,25
207733910,0.01,25.0,0.0,0.0,64,0,1,25
207765942,0.01,25.0,0.02,0.0,64,0,1,25
207797118,0.01,25.0,0.0,0.0,52,0,1,25
207828742,0.01,25.0,0.0,0.0,64,0,1,25
207860761,0.01,25.0,0.0,0.0,64,0,1,25
207893530,0.01,25.0,0.0,0.0,0,0,1,25
207925985,0.01,25.0,0.01,0.0,0,0,1,25
207958111,0.01,25.0,0.0,0.0,64,0,1,25
207989998,0.01,25.0,0.0,0.0,64,0,1,25
208021924,0.01,25.0,0.02,0.0,0,0,1,25
208053918,0.01,25.0,0.0,0.0,64,0,1,25
208086122,0.01,25.0,0.0,0.0,64,0,1,25
208116750,0.01,25.0,0.0,0.0,64,0,1,25
208149553,0.01,25.0,0.02,0.0,64,0,1,25
208182084,0.01,25.0,0.0,0.0,56,0,1,25
208213894,0.01,25.0,0.03,0.0,64,0,1,25
208245959,0.01,25.0,0.0,0.0,64,0,1,25
208278192,0.01,25.0,0.0,0.0,64,0,1,25
208309489,0.01,25.0,0.0,0.0,64,0,1,25
208342594,0.01,25.0,0.0,0.0,64,0,1,25
208374896,0.01,25.0,0.02,0.0,0,0,1,25
208406763,0.01,25.0,0.03,0.0,52,0,1,25
208438940,0.01,25.0,0.02,0.0,64,0,1,25
208470946,0.01,25.0,0.01,0.0,64,0,1,25
208502911,0.01,25.0,0.0,0.0,0,0,1,25
208534884,0.01,25.0,0.03,0.0,64,0,1,25
208566861,0.01,25.0,0.01,0.0,0,0,1,25
208598820,0.01,25.0,0.01,0.0,64,0,1,25
208630914,0.01,25.0,0.0,0.0,0,0,1,25
208662872,0.01,25.0,0.0,0.0,0,0,1,25
208694829,0.01,25.0,0.01,0.0,0,0,1,25
208726933,0.01,25.0,0.01,0.0,0,0,1,25
208758885,0.01,25.0,0.0,0.0,64,0,1,25
208790902,0.01,25.0,0.02,0.0,0,0,1,25
208822886,0.01,25.0,0.04,0.0,64,0,1,25
208854920,0.01,25.0,0.06,0.0,64,0,1,25
208886930,0.01,25.0,0.0,0.0,56,0,1,25
208918931,0.01,25.0,0.01,0.0,0,0,1,25
208950906,0.01,25.0,0.0,0.0,0,0,1,25
208982547,0.01,25.0,0.01,0.0,64,0,1,25
209014970,0.01,25.0,0.0,0.0,0,0,1,25
209046958,0.01,25.0,0.03,0.0,64,0,1,25
209078552,0.01,25.0,0.0,0.0,52,0,1,25
209110323,0.01,25.0,0.01,0.0,64,0,1,25
209142677,0.01,25.0,0.0,0.0,4,0,1,25
209174862,0.01,25.0,0.0,0.0,64,0,1,25
209206314,0.01,25.0,0.0,0.0,64,0,1,25
209238825,0.01,25.0,0.0,0.0,64,0,1,25
209270874,0.01,25.0,0.0,0.0,64,0,1,25
209302346,0.01,25.0,0.01,0.0,64,0,1,25
209334828,0.01,25.0,0.01,0.0,64,0,1,25
209366303,0.01,25.0,0.01,0.0,64,0,1,25
209398563,0.01,25.0,0.0,0.0,4,0,1,25
209430308,0.01,25.0,0.02,0.0,64,0,1,25
209462841,0.01,25.0,0.01,0.0,64,0,1,25
209495530,0.01,25.0,0.01,0.0,0,0,1,25
209528509,0.01,25.0,0.0,0.0,64,0,1,25
209560988,0.01,25.0,0.02,0.0,0,0,1,25
209592216,0.01,25.0,0.03,0.0,56,0,1,25
209622849,0.01,25.0,0.01,0.0,64,0,1,25
209654818,0.01,25.0,0.02,0.0,0,0,1,25
209686921,0.01,25.0,0.04,0.0,0,0,1,25
209717822,0.01,25.0,0.03,0.0,64,0,1,25
209749890,0.01,25.0,0.08,0.0,0,0,1,25
209780942,0.01,25.0,0.06,0.0,64,0,1,25
209813362,0.01,25.0,0.08,0.0,64,0,1,25
209845743,0.01,25.0,0.089999996,0.0,64,0,1,25
209876947,0.01,25.0,0.11,0.0,0,0,1,25
209909443,0.01,25.0,0.12,0.0,0,0,1,25
209941835,0.01,25.0,0.11,0.0,0,0,1,25
209972928,0.01,25.0,0.16,0.0,64,0,1,25
210005508,0.01,25.0,0.17999999,0.0,4,0,1,25
210037961,0.01,25.0,0.19999999,0.0,64,0,1,25
210069811,0.01,25.0,0.22,0.0,64,0,1,25
210101354,0.01,25.0,0.24,0.0,64,0,1,25
210133424,0.01,25.0,0.25,0.0,64,0,1,25
210165945,0.01,25.0,0.28,0.0,64,0,1,25
210197783,0.01,25.0,0.31,0.0,56,0,1,25
210228955,0.01,25.0,0.31,0.0,64,0,1,25
210261707,0.01,25.0,0.35,0.0,64,0,1,25
210293771,0.01,25.0,0.32,0.0,64,0,1,25
210325780,0.01,25.0,0.38,0.0,64,0,1,25
210357445,0.01,25.0,0.37,0.0,64,0,1,25
210388742,0.01,25.0,0.38,0.0,64,0,1,25
210419742,0.01,25.0,0.41,0.0,64,0,1,25
210451777,0.01,25.0,0.44,0.0,64,0,1,25
210482852,0.01,25.0,0.41,0.0,0,0,1,25
210513939,0.01,25.0,0.45,0.0,64,0,1,25
210544742,0.01,25.0,0.45999998,0.0,64,0,1,25
210577155,0.01,25.0,0.45999998,0.0,64,0,1,25
210608787,0.01,25.0,0.45999998,0.0,64,0,1,25
210640742,0.01,25.0,0.47,0.0,64,0,1,25
210672752,0.01,25.0,0.48,0.0,64,0,1,25
210704771,0.01,25.0,0.47,0.0,64,0,1,25
210737153,0.01,25.0,0.47,0.0,0,0,1,25
210768774,0.01,25.0,0.48,0.0,64,0,1,25
210800752,0.01,25.0,0.48,0.0,56,0,1,25
210831743,0.01,25.0,0.48,0.0,64,0,1,25
210863763,0.01,25.0,0.47,0.0,64,0,1,25
210894840,0.01,25.0,0.47,0.0,4,0,1,25
210926558,0.01,25.0,0.47,0.0,64,0,1,25
210958715,0.01,25.0,0.45,0.0,64,0,1,25
210991129,0.01,25.0,0.42999998,0.0,64,0,1,25
211023382,0.01,25.0,0.42,0.0,64,0,1,25
211054877,0.01,25.0,0.42999998,0.0,4,0,1,25
211086554,0.01,25.0,0.39999998,0.0,64,0,1,25
211119159,0.01,25.0,0.41,0.0,64,0,1,25
211151799,0.01,25.0,0.44,0.0,0,0,1,25
211182910,0.01,25.0,0.39,0.0,64,0,1,25
211214872,0.01,25.0,0.37,0.0,64,0,1,25
211248128,0.01,25.0,0.32999998,0.0,64,0,1,25
211279837,0.01,25.0,0.32999998,0.0,64,0,1,25
211311961,0.01,25.0,0.32,0.0,64,0,1,25
211343798,0.01,25.0,0.35,0.0,64,0,1,25
211376610,0.01,25.0,0.34,0.0,64,0,1,25
211408938,0.01,25.0,0.32999998,0.0,0,0,1,25
211439859,0.01,25.0,0.34,0.0,64,0,1,25
211471813,0.01,25.0,0.32999998,0.0,64,0,1,25
211503353,0.01,25.0,0.35,0.0,4,0,1,25
211535749,0.01,25.0,0.35,0.0,64,0,1,25
211567853,0.01,25.0,0.35,0.0,64,0,1,25
211599344,0.01,25.0,0.37,0.0,64,0,1,25
211631799,0.01,25.0,0.39,0.0,64,0,1,25
211663335,0.01,25.0,0.38,0.0,64,0,1,25
211695351,0.01,25.0,0.39999998,0.0,64,0,1,25
211727640,0.01,25.0,0.42,0.0,0,0,1,25
211759754,0.01,25.0,0.39999998,0.0,64,0,1,25
211791516,0.01,25.0,0.42999998,0.0,64,0,1,25
211823763,0.01,25.0,0.45999998,0.0,64,0,1,25
211855489,0.01,25.0,0.45999998,0.0,64,0,1,25
211888350,0.01,25.0,0.48,0.0,4,0,1,25
211919747,0.01,25.0,0.5,0.0,64,0,1,25
211951372,0.01,25.0,0.52,0.0,64,0,1,25
211983494,0.01,25.0,0.53999996,0.0,4,0,1,25
213200972,0.01,25.0,1.3,0.0,64,0,1,25
213486350,0.01,25.0,1.5699999,0.0,4,0,1,25
213550554,0.01,25.0,1.64,0.0,4,0,1,25
213582590,0.01,25.0,1.67,0.0,4,0,1,25
213614341,0.01,25.0,1.7099999,0.0,4,0,1,25
213646529,0.01,25.0,1.74,0.0,4,0,1,25
213678399,0.01,25.0,1.75,0.0,4,0,1,25
213710543,0.01,25.0,1.76,0.0,0,0,1,25
213742277,0.01,25.0,1.8299999,0.0,4,0,1,25
213774485,0.01,25.0,1.8499999,0.0,4,0,1,25
213806502,0.01,25.0,1.92,0.0,0,0,1,25
213838870,0.01,25.0,1.91,0.0,4,0,1,25
213870344,0.01,25.0,1.9499999,0.0,4,0,1,25
213902303,0.01,25.0,1.99,0.0,4,0,1,25
213934516,0.01,25.0,2.01,0.0,4,0,1,25
213966556,0.01,25.0,2.04,0.0,4,0,1,25
213998853,0.01,25.0,2.07,0.0,64,0,1,25
214029907,0.01,25.0,2.07,0.0,64,0,1,25
214062242,0.01,25.0,2.1299999,0.0,4,0,1,25
214094095,0.01,25.0,2.1499999,0.0,64,0,1,25
214126345,0.01,25.0,2.18,0.0,64,0,1,25
214159556,0.01,25.0,2.23,0.0,64,0,1,25
214191839,0.01,25.0,2.27,0.0,0,0,1,25
214223655,0.01,25.0,2.31,0.0,56,0,1,25
214255757,0.01,25.0,2.33,0.0,4,0,1,25
214287513,0.01,25.0,2.36,0.0,64,0,1,25
214319752,0.01,25.0,2.3799999,0.0,64,0,1,25
214351531,0.01,25.0,2.4299998,0.0,4,0,1,25
214383753,0.01,25.0,2.46,0.0,64,0,1,25
214415517,0.01,25.0,2.46,0.0,64,0,1,25
214447832,0.01,25.0,2.53,0.0,64,0,1,25
214479643,0.01,25.0,2.52,0.0,0,0,1,25
214511591,0.01,25.0,2.52,0.0,64,0,1,25
214543856,0.01,25.0,2.56,0.0,4,0,1,25
214575765,0.01,25.0,2.59,0.0,64,0,1,25
214607669,0.01,25.0,2.61,0.0,0,0,1,25
214640432,0.01,25.0,2.61,0.0,4,0,1,25
214672746,0.01,25.0,2.6299999,0.0,0,0,1,25
214704743,0.01,25.0,2.6599998,0.0,64,0,1,25
214735760,0.01,25.0,2.6699998,0.0,64,0,1,25
214767801,0.01,25.0,2.6799998,0.0,64,0,1,25
214799782,0.01,25.0,2.69,0.0,4,0,1,25
214831801,0.01,25.0,2.71,0.0,64,0,1,25
214863750,0.01,25.0,2.72,0.0,64,0,1,25
214895764,0.01,25.0,2.73,0.0,64,0,1,25
214927802,0.01,25.0,2.73,0.0,64,0,1,25
214959780,0.01,25.0,2.74,0.0,64,0,1,25
214991104,0.01,25.0,2.73,0.0,4,0,1,25
215022261,0.01,25.0,2.6699998,0.0,4,0,1,25
215054224,0.01,25.0,2.69,0.0,4,0,1,25
215085527,0.01,25.0,2.6799998,0.0,4,0,1,25
215117848,0.01,25.0,2.61,0.0,4,0,1,25
215149841,0.01,25.0,2.6699998,0.0,4,0,1,25
215181776,0.01,25.0,2.69,0.0,4,0,1,25
215213802,0.01,25.0,2.6799998,0.0,4,0,1,25
215245756,0.01,25.0,2.6499999,0.0,4,0,1,25
215277889,0.01,25.0,2.6299999,0.0,4,0,1,25
215309720,0.01,25.0,2.6,0.0,4,0,1,25
215341572,0.01,25.0,2.59,0.0,4,0,1,25
215373721,0.01,25.0,2.5,0.0,4,0,1,25
215405556,0.01,25.0,2.48,0.0,4,0,1,25
215437901,0.01,25.0,2.48,0.0,4,0,1,25
215470351,0.01,25.0,2.4199998,0.0,4,0,1,25
215501866,0.01,25.0,2.36,0.0,4,0,1,25
215534182,0.01,25.0,2.31,0.0,4,0,1,25
215566229,0.01,25.0,2.27,0.0,4,0,1,25
215597784,0.01,25.0,2.21,0.0,4,0,1,25
215629573,0.01,25.0,2.1699998,0.0,4,0,1,25
215661518,0.01,25.0,2.1499999,0.0,4,0,1,25
215693742,0.01,25.0,2.06,0.0,64,0,1,25
215725248,0.01,25.0,2.02,0.0,0,0,1,25
215755858,0.01,25.0,2.02,0.0,4,0,1,25
215787332,0.01,25.0,2.01,0.0,4,0,1,25
215819530,0.01,25.0,1.9699999,0.0,4,0,1,25
215853145,0.01,25.0,1.9799999,0.0,4,0,1,25
215884307,0.01,25.0,1.99,0.0,4,0,1,25
215917198,0.01,25.0,1.9699999,0.0,4,0,1,25
215948947,0.01,25.0,1.9799999,0.0,4,0,1,25
215980277,0.01,25.0,1.99,0.0,4,0,1,25
216013007,0.01,25.0,2.02,0.0,4,0,1,25
216044680,0.01,25.0,2.05,0.0,4,0,1,25
216076292,0.01,25.0,2.07,0.0,4,0,1,25
216108724,0.01,25.0,2.1299999,0.0,4,0,1,25
216141130,0.01,25.0,2.18,0.0,4,0,1,25
216172345,0.01,25.0,2.2,0.0,4,0,1,25
216204552,0.01,25.0,2.24,0.0,4,0,1,25
216236936,0.01,25.0,2.29,0.0,4,0,1,25
216268768,0.01,25.0,2.36,0.0,4,0,1,25
216301151,0.01,25.0,2.3799999,0.0,4,0,1,25
216332379,0.01,25.0,2.46,0.0,4,0,1,25
216364938,0.01,25.0,2.52,0.0,4,0,1,25
216397117,0.01,25.0,2.56,0.0,4,0,1,25
216428552,0.01,25.0,2.59,0.0,4,0,1,25
216460995,0.01,25.0,2.6699998,0.0,4,0,1,25
216492939,0.01,25.0,2.71,0.0,4,0,1,25
216525245,0.01,25.0,2.77,0.0,4,0,1,25
216556964,0.01,25.0,2.81,0.0,4,0,1,25
216588946,0.01,25.0,2.85,0.0,4,0,1,25
216620934,0.01,25.0,2.9199998,0.0,4,0,1,25
216652672,0.01,25.0,2.9399998,0.0,4,0,1,25
216684600,0.01,25.0,2.98,0.0,4,0,1,25
216717811,0.01,25.0,3.02,0.0,4,0,1,25
216750059,0.01,25.0,3.07,0.0,4,0,1,25
216781384,0.01,25.0,3.09,0.0,4,0,1,25
216814185,0.01,25.0,3.1399999,0.0,4,0,1,25
216845724,0.01,25.0,3.1799998,0.0,4,0,1,25
216878538,0.01,25.0,3.1999998,0.0,4,0,1,25
216909895,0.01,25.0,3.1999998,0.0,4,0,1,25
216942173,0.01,25.0,3.24,0.0,108,0,1,25
216974351,0.01,25.0,3.28,0.0,4,0,1,25
217006225,0.01,25.0,3.3,0.0,4,0,1,25
217038541,0.01,25.0,3.3,0.0,4,0,1,25
217070093,0.01,25.0,3.34,0.0,4,0,1,25
217101445,0.01,25.0,3.36,0.0,4,0,1,25
217133551,0.01,25.0,3.3799999,0.0,4,0,1,25
217166212,0.01,25.0,3.4099998,0.0,4,0,1,25
217197376,0.01,25.0,3.4199998,0.0,4,0,1,25
217230292,0.01,25.0,3.4399998,0.0,4,0,1,25
217262231,0.01,25.0,3.46,0.0,4,0,1,25
217293358,0.01,25.0,3.49,0.0,4,0,1,25
217326050,0.01,25.0,3.5,0.0,4,0,1,25
217358537,0.01,25.0,3.51,0.0,0,0,1,25
217390062,0.01,25.0,3.51,0.0,4,0,1,25
217422189,0.01,25.0,3.52,0.0,4,0,1,25
217453916,0.01,25.0,3.6,0.0,4,0,1,25
217485434,0.01,25.0,3.57,0.0,4,0,1,25
217518371,0.01,25.0,3.61,0.0,4,0,1,25
217550154,0.01,25.0,3.6299999,0.0,4,0,1,25
217581743,0.01,25.0,3.6399999,0.0,4,0,1,25
217613799,0.01,25.0,3.6499999,0.0,4,0,1,25
217645556,0.01,25.0,3.6699998,0.0,4,0,1,25
217677982,0.01,25.0,3.6799998,0.0,64,0,1,25
217709756,0.01,25.0,3.6799998,0.0,64,0,1,25
217741977,0.01,25.0,3.7099998,0.0,64,0,1,25
217773793,0.01,25.0,3.73,0.0,64,0,1,25
217805760,0.01,25.0,3.75,0.0,64,0,1,25
217837924,0.01,25.0,3.75,0.0,64,0,1,25
217869129,0.01,25.0,3.73,0.0,64,0,1,25
217901117,0.01,25.0,3.74,0.0,4,0,1,25
217933115,0.01,25.0,3.74,0.0,64,0,1,25
217965126,0.01,25.0,3.76,0.0,64,0,1,25
217995787,0.01,25.0,3.75,0.0,4,0,1,25
218029075,0.01,25.0,3.75,0.0,4,0,1,25
218061112,0.01,25.0,3.74,0.0,64,0,1,25
218092979,0.01,25.0,3.6999998,0.0,4,0,1,25
218125157,0.01,25.0,3.6899998,0.0,64,0,1,25
218157141,0.01,25.0,3.6799998,0.0,0,0,1,25
218189379,0.01,25.0,3.6699998,0.0,64,0,1,25
218221742,0.01,25.0,3.6399999,0.0,64,0,1,25
218253157,0.01,25.0,3.6299999,0.0,64,0,1,25
218285149,0.01,25.0,3.59,0.0,64,0,1,25
218317129,0.01,25.0,3.55,0.0,64,0,1,25
218347827,0.01,25.0,3.49,0.0,64,0,1,25
218379153,0.01,25.0,3.48,0.0,4,0,1,25
218411314,0.01,25.0,3.4499998,0.0,4,0,1,25
218442621,0.01,25.0,3.4199998,0.0,4,0,1,25
218474367,0.01,25.0,3.3799999,0.0,4,0,1,25
218506175,0.01,25.0,3.35,0.0,4,0,1,25
218538572,0.01,25.0,3.32,0.0,4,0,1,25
218570900,0.01,25.0,3.27,0.0,4,0,1,25
218602583,0.01,25.0,3.24,0.0,4,0,1,25
218634997,0.01,25.0,3.23,0.0,4,0,1,25
218666546,0.01,25.0,3.1899998,0.0,4,0,1,25
218699019,0.01,25.0,3.1599998,0.0,4,0,1,25
218731573,0.01,25.0,3.12,0.0,4,0,1,25
218763732,0.01,25.0,3.07,0.0,4,0,1,25
218795378,0.01,25.0,3.08,0.0,4,0,1,25
218827815,0.01,25.0,3.05,0.0,4,0,1,25
218860341,0.01,25.0,3.07,0.0,4,0,1,25
218891832,0.01,25.0,3.03,0.0,4,0,1,25
218924295,0.01,25.0,3.0,0.0,4,0,1,25
218956567,0.01,25.0,3.04,0.0,4,0,1,25
218988753,0.01,25.0,3.08,0.0,64,0,1,25
219019826,0.01,25.0,3.05,0.0,4,0,1,25
219052157,0.01,25.0,3.02,0.0,4,0,1,25
219084376,0.01,25.0,3.03,0.0,4,0,1,25
219116144,0.01,25.0,3.02,0.0,4,0,1,25
219147804,0.01,25.0,3.03,0.0,4,0,1,25
219179305,0.01,25.0,3.03,0.0,4,0,1,25
219211342,0.01,25.0,3.04,0.0,4,0,1,25
219243730,0.01,25.0,3.0,0.0,4,0,1,25
219275347,0.01,25.0,3.02,0.0,4,0,1,25
219307331,0.01,25.0,3.02,0.0,4,0,1,25
219339783,0.01,25.0,3.03,0.0,4,0,1,25
219372296,0.01,25.0,3.03,0.0,4,0,1,25
219404184,0.01,25.0,3.01,0.0,4,0,1,25
219435341,0.01,25.0,3.03,0.0,4,0,1,25
219467360,0.01,25.0,3.05,0.0,4,0,1,25
219498965,0.01,25.0,3.04,0.0,4,0,1,25
219531422,0.01,25.0,3.04,0.0,4,0,1,25
219563111,0.01,25.0,3.04,0.0,4,0,1,25
219595372,0.01,25.0,3.05,0.0,4,0,1,25
219627335,0.01,25.0,3.06,0.0,4,0,1,25
219659414,0.01,25.0,3.04,0.0,4,0,1,25
219691645,0.01,25.0,3.07,0.0,4,0,1,25
219723342,0.01,25.0,3.1,0.0,4,0,1,25
219755545,0.01,25.0,3.08,0.0,4,0,1,25
219787413,0.01,25.0,3.09,0.0,4,0,1,25
219819793,0.01,25.0,3.09,0.0,4,0,1,25
219851773,0.01,25.0,3.09,0.0,4,0,1,25
219884171,0.01,25.0,3.09,0.0,4,0,1,25
219916560,0.01,25.0,3.1,0.0,4,0,1,25
219947803,0.01,25.0,3.12,0.0,4,0,1,25
219980328,0.01,25.0,3.1,0.0,4,0,1,25
220012571,0.01,25.0,3.1,0.0,4,0,1,25
220044322,0.01,25.0,3.09,0.0,4,0,1,25
220076367,0.01,25.0,3.07,0.0,4,0,1,25
220108484,0.01,25.0,3.08,0.0,4,0,1,25
220140511,0.01,25.0,3.06,0.0,4,0,1,25
220171958,0.01,25.0,3.06,0.0,4,0,1,25
220203850,0.01,25.0,3.03,0.0,4,0,1,25
220236685,0.01,25.0,3.01,0.0,4,0,1,25
220268266,0.01,25.0,3.01,0.0,4,0,1,25
220299809,0.01,25.0,2.96,0.0,4,0,1,25
220332554,0.01,25.0,2.95,0.0,4,0,1,25
220364528,0.01,25.0,2.9099998,0.0,4,0,1,25
220395796,0.01,25.0,2.9199998,0.0,4,0,1,25
220428447,0.01,25.0,2.8999999,0.0,4,0,1,25
220460573,0.01,25.0,2.86,0.0,4,0,1,25
220492944,0.01,25.0,2.83,0.0,4,0,1,25
220525113,0.01,25.0,2.8,0.0,4,0,1,25
220557325,0.01,25.0,2.79,0.0,4,0,1,25
220589363,0.01,25.0,2.73,0.0,4,0,1,25
220622354,0.01,25.0,2.72,0.0,0,0,1,25
220654328,0.01,25.0,2.69,0.0,64,0,1,25
220686323,0.01,25.0,2.6399999,0.0,64,0,1,25
220718861,0.01,25.0,2.58,0.0,64,0,1,25
220750874,0.01,25.0,2.53,0.0,64,0,1,25
220782959,0.01,25.0,2.5,0.0,64,0,1,25
220814790,0.01,25.0,2.45,0.0,64,0,1,25
220846872,0.01,25.0,2.3999999,0.0,64,0,1,25
220878849,0.01,25.0,2.36,0.0,64,0,1,25
220910317,0.01,25.0,2.33,0.0,64,0,1,25
220942859,0.01,25.0,2.27,0.0,64,0,1,25
220974921,0.01,25.0,2.22,0.0,0,0,1,25
221006032,0.01,25.0,2.1599998,0.0,4,0,1,25
221037788,0.01,25.0,2.1499999,0.0,4,0,1,25
221069586,0.01,25.0,2.11,0.0,4,0,1,25
221101416,0.01,25.0,2.09,0.0,4,0,1,25
221133915,0.01,25.0,2.06,0.0,4,0,1,25
221165437,0.01,25.0,2.06,0.0,4,0,1,25
221197406,0.01,25.0,2.02,0.0,4,0,1,25
221230226,0.01,25.0,2.02,0.0,4,0,1,25
221261393,0.01,25.0,2.02,0.0,4,0,1,25
221293360,0.01,25.0,2.01,0.0,4,0,1,25
221326919,0.01,25.0,2.01,0.0,4,0,1,25
221359949,0.01,25.0,1.99,0.0,4,0,1,25
221392140,0.01,25.0,1.9799999,0.0,4,0,1,25
221424637,0.01,25.0,2.01,0.0,4,0,1,25
221456773,0.01,25.0,2.02,0.0,64,0,1,25
221488948,0.01,25.0,2.03,0.0,0,0,1,25
221520751,0.01,25.0,2.04,0.0,64,0,1,25
221552950,0.01,25.0,2.05,0.0,0,0,1,25
221584742,0.01,25.0,2.1,0.0,64,0,1,25
221616419,0.01,25.0,2.11,0.0,0,0,1,25
221648958,0.01,25.0,2.1399999,0.0,64,0,1,25
221680547,0.01,25.0,2.1499999,0.0,4,0,1,25
221712741,0.01,25.0,2.18,0.0,64,0,1,25
221744456,0.01,25.0,2.2,0.0,64,0,1,25
221776748,0.01,25.0,2.24,0.0,64,0,1,25
221808552,0.01,25.0,2.26,0.0,64,0,1,25
221839742,0.01,25.0,2.3,0.0,64,0,1,25
221871761,0.01,25.0,2.34,0.0,64,0,1,25
221903764,0.01,25.0,2.35,0.0,0,0,1,25
221935508,0.01,25.0,2.36,0.0,4,0,1,25
221966899,0.01,25.0,2.3899999,0.0,0,0,1,25
221998208,0.01,25.0,2.4199998,0.0,4,0,1,25
222030717,0.01,25.0,2.46,0.0,4,0,1,25
222062581,0.01,25.0,2.49,0.0,4,0,1,25
222094590,0.01,25.0,2.53,0.0,4,0,1,25
222126514,0.01,25.0,2.55,0.0,4,0,1,25
222158392,0.01,25.0,2.56,0.0,4,0,1,25
222190521,0.01,25.0,2.59,0.0,4,0,1,25
222222614,0.01,25.0,2.62,0.0,4,0,1,25
222254521,0.01,25.0,2.6699998,0.0,4,0,1,25
222286927,0.01,25.0,2.6799998,0.0,0,0,1,25
222318207,0.01,25.0,2.71,0.0,4,0,1,25
222350190,0.01,25.0,2.73,0.0,4,0,1,25
222381870,0.01,25.0,2.75,0.0,64,0,1,25
222413120,0.01,25.0,2.77,0.0,52,0,1,25
222446007,0.01,25.0,2.77,0.0,4,0,1,25
222478198,0.01,25.0,2.83,0.0,-72,0,1,25
222509889,0.01,25.0,2.87,0.0,64,0,1,25
222541956,0.01,25.0,2.87,0.0,64,0,1,25
222572742,0.01,25.0,2.9299998,0.0,64,0,1,25
222604467,0.01,25.0,2.96,0.0,4,0,1,25
222635794,0.01,25.0,2.98,0.0,1,0,1,25
222668493,0.01,25.0,3.0,0.0,4,0,1,25
222699815,0.01,25.0,3.02,0.0,4,0,1,25
222733333,0.01,25.0,3.05,0.0,4,0,1,25
222765753,0.01,25.0,3.02,0.0,64,0,1,25
222797386,0.01,25.0,3.1299999,0.0,4,0,1,25
222829347,0.01,25.0,3.12,0.0,4,0,1,25
222861415,0.01,25.0,3.1499999,0.0,4,0,1,25
222893313,0.01,25.0,3.1799998,0.0,4,0,1,25
222925355,0.01,25.0,3.1999998,0.0,4,0,1,25
222957350,0.01,25.0,3.22,0.0,4,0,1,25
222989349,0.01,25.0,3.27,0.0,4,0,1,25
223021571,0.01,25.0,3.3,0.0,4,0,1,25
223053345,0.01,25.0,3.33,0.0,4,0,1,25
223084930,0.01,25.0,3.34,0.0,4,0,1,25
223118004,0.01,25.0,3.35,0.0,4,0,1,25
223150213,0.01,25.0,3.35,0.0,4,0,1,25
223182187,0.01,25.0,3.3799999,0.0,4,0,1,25
223213388,0.01,25.0,3.3899999,0.0,4,0,1,25
223245360,0.01,25.0,3.3799999,0.0,4,0,1,25
223277376,0.01,25.0,3.4299998,0.0,4,0,1,25
223309321,0.01,25.0,3.4199998,0.0,4,0,1,25
223341352,0.01,25.0,3.4199998,0.0,4,0,1,25
223373359,0.01,25.0,3.3999999,0.0,4,0,1,25
223404770,0.01,25.0,3.4399998,0.0,4,0,1,25
223437769,0.01,25.0,3.37,0.0,4,0,1,25
223469376,0.01,25.0,3.33,0.0,4,0,1,25
223500751,0.01,25.0,3.4099998,0.0,4,0,1,25
223533735,0.01,25.0,3.37,0.0,4,0,1,25
223565735,0.01,25.0,3.33,0.0,4,0,1,25
223597775,0.01,25.0,3.29,0.0,4,0,1,25
223629572,0.01,25.0,3.28,0.0,4,0,1,25
223661150,0.01,25.0,3.25,0.0,4,0,1,25
223693007,0.01,25.0,3.21,0.0,4,0,1,25
223724674,0.01,25.0,3.1599998,0.0,4,0,1,25
223756722,0.01,25.0,3.07,0.0,4,0,1,25
223789124,0.01,25.0,3.1,0.0,64,0,1,25
223821096,0.01,25.0,3.07,0.0,64,0,1,25
223853093,0.01,25.0,3.02,0.0,64,0,1,25
223883786,0.01,25.0,3.0,0.0,64,0,1,25
223914833,0.01,25.0,2.95,0.0,1,0,1,25
223947077,0.01,25.0,2.9299998,0.0,4,0,1,25
223979397,0.01,25.0,2.9099998,0.0,4,0,1,25
224011335,0.01,25.0,2.8999999,0.0,4,0,1,25
224043359,0.01,25.0,2.8799999,0.0,4,0,1,25
224075741,0.01,25.0,2.86,0.0,64,0,1,25
224107373,0.01,25.0,2.83,0.0,4,0,1,25
224139746,0.01,25.0,2.83,0.0,64,0,1,25
224171135,0.01,25.0,2.83,0.0,4,0,1,25
224203351,0.01,25.0,2.85,0.0,4,0,1,25
224235405,0.01,25.0,2.85,0.0,4,0,1,25
224267846,0.01,25.0,2.87,0.0,64,0,1,25
224299117,0.01,25.0,2.87,0.0,4,0,1,25
224330227,0.01,25.0,2.8899999,0.0,4,0,1,25
224362999,0.01,25.0,2.9099998,0.0,4,0,1,25
224395948,0.01,25.0,2.9299998,0.0,4,0,1,25
224428301,0.01,25.0,2.95,0.0,4,0,1,25
224460339,0.01,25.0,2.97,0.0,4,0,1,25
224492538,0.01,25.0,3.04,0.0,4,0,1,25
224523796,0.01,25.0,3.02,0.0,4,0,1,25
224556467,0.01,25.0,3.07,0.0,4,0,1,25
224588546,0.01,25.0,3.12,0.0,4,0,1,25
224619981,0.01,25.0,3.12,0.0,4,0,1,25
224652618,0.01,25.0,3.1399999,0.0,4,0,1,25
224684169,0.01,25.0,3.1799998,0.0,4,0,1,25
224716381,0.01,25.0,3.22,0.0,4,0,1,25
224748641,0.01,25.0,3.23,0.0,4,0,1,25
224780361,0.01,25.0,3.25,0.0,4,0,1,25
224811787,0.01,25.0,3.26,0.0,4,0,1,25
224843775,0.01,25.0,3.3,0.0,4,0,1,25
224876319,0.01,25.0,3.31,0.0,4,0,1,25
224907820,0.01,25.0,3.29,0.0,4,0,1,25
224940330,0.01,25.0,3.31,0.0,4,0,1,25
224972440,0.01,25.0,3.4399998,0.0,4,0,1,25
225004480,0.01,25.0,3.36,0.0,4,0,1,25
225036559,0.01,25.0,3.36,0.0,4,0,1,25
225068598,0.01,25.0,3.36,0.0,4,0,1,25
225099769,0.01,25.0,3.3899999,0.0,4,0,1,25
225132334,0.01,25.0,3.3799999,0.0,4,0,1,25
225164171,0.01,25.0,3.3999999,0.0,4,0,1,25
225196501,0.01,25.0,3.4099998,0.0,4,0,1,25
225229773,0.01,25.0,3.3899999,0.0,4,0,1,25
225261358,0.01,25.0,3.3899999,0.0,4,0,1,25
225293934,0.01,25.0,3.36,0.0,4,0,1,25
225326156,0.01,25.0,3.36,0.0,4,0,1,25
225357414,0.01,25.0,3.36,0.0,4,0,1,25
225390192,0.01,25.0,3.36,0.0,4,0,1,25
225422215,0.01,25.0,3.3799999,0.0,4,0,1,25
225453401,0.01,25.0,3.35,0.0,4,0,1,25
225486228,0.01,25.0,3.33,0.0,4,0,1,25
225517348,0.01,25.0,3.31,0.0,4,0,1,25
225550201,0.01,25.0,3.28,0.0,4,0,1,25
225581519,0.01,25.0,3.27,0.0,4,0,1,25
225614577,0.01,25.0,3.25,0.0,4,0,1,25
225645743,0.01,25.0,3.1999998,0.0,4,0,1,25
225677796,0.01,25.0,3.1899998,0.0,4,0,1,25
225709798,0.01,25.0,3.1799998,0.0,4,0,1,25
225741969,0.01,25.0,3.1499999,0.0,4,0,1,25
225773774,0.01,25.0,3.11,0.0,4,0,1,25
225805894,0.01,25.0,3.09,0.0,4,0,1,25
225838549,0.01,25.0,3.06,0.0,4,0,1,25
225870595,0.01,25.0,3.01,0.0,4,0,1,25
225902257,0.01,25.0,3.0,0.0,4,0,1,25
225933388,0.01,25.0,2.97,0.0,4,0,1,25
225965579,0.01,25.0,2.95,0.0,4,0,1,25
225998743,0.01,25.0,2.8899999,0.0,4,0,1,25
226030239,0.01,25.0,2.9099998,0.0,4,0,1,25
226062369,0.01,25.0,2.8799999,0.0,4,0,1,25
226094328,0.01,25.0,2.86,0.0,4,0,1,25
226126870,0.01,25.0,2.86,0.0,0,0,1,25
226158289,0.01,25.0,2.85,0.0,4,0,1,25
226190888,0.01,25.0,2.84,0.0,64,0,1,25
226222857,0.01,25.0,2.82,0.0,64,0,1,25
226254875,0.01,25.0,2.82,0.0,64,0,1,25
226286851,0.01,25.0,2.8,0.0,64,0,1,25
226318875,0.01,25.0,2.82,0.0,64,0,1,25
226350114,0.01,25.0,2.8,0.0,64,0,1,25
226381954,0.01,25.0,2.83,0.0,64,0,1,25
226413932,0.01,25.0,2.83,0.0,64,0,1,25
226445100,0.01,25.0,2.81,0.0,52,0,1,25
226476646,0.01,25.0,2.82,0.0,4,0,1,25
226508741,0.01,25.0,2.83,0.0,64,0,1,25
226540742,0.01,25.0,2.84,0.0,64,0,1,25
226572461,0.01,25.0,2.85,0.0,4,0,1,25
226605561,0.01,25.0,2.87,0.0,64,0,1,25
226636747,0.01,25.0,2.8999999,0.0,64,0,1,25
226669705,0.01,25.0,2.8999999,0.0,4,0,1,25
226701865,0.01,25.0,2.9099998,0.0,108,0,1,25
226733882,0.01,25.0,2.9299998,0.0,64,0,1,25
226765891,0.01,25.0,2.95,0.0,64,0,1,25
226796742,0.01,25.0,2.96,0.0,64,0,1,25
226829121,0.01,25.0,2.96,0.0,64,0,1,25
226860746,0.01,25.0,3.03,0.0,64,0,1,25
226892749,0.01,25.0,3.03,0.0,64,0,1,25
226924742,0.01,25.0,3.05,0.0,64,0,1,25
226957357,0.01,25.0,3.07,0.0,64,0,1,25
226989767,0.01,25.0,3.09,0.0,64,0,1,25
227020988,0.01,25.0,3.11,0.0,64,0,1,25
227052742,0.01,25.0,3.1299999,0.0,64,0,1,25
227085313,0.01,25.0,3.06,0.0,64,0,1,25
227116379,0.01,25.0,3.1799998,0.0,0,0,1,25
227148770,0.01,25.0,3.1999998,0.0,64,0,1,25
227180146,0.01,25.0,3.1999998,0.0,64,0,1,25
227212318,0.01,25.0,3.22,0.0,64,0,1,25
227244758,0.01,25.0,3.24,0.0,64,0,1,25
227276156,0.01,25.0,3.27,0.0,64,0,1,25
227308942,0.01,25.0,3.29,0.0,112,0,1,25
