timestamp,states[0],states[1],states[2],states[3],states[4],states[5],states[6],states[7],states[8],states[9],states[10],states[11],states[12],states[13],states[14],states[15],states[16],states[17],states[18],states[19],states[20],states[21],states[22],states[23],vibe[0],vibe[1],vibe[2],covariances[0],covariances[1],covariances[2],covariances[3],covariances[4],covariances[5],covariances[6],covariances[7],covariances[8],covariances[9],covariances[10],covariances[11],covariances[12],covariances[13],covariances[14],covariances[15],covariances[16],covariances[17],covariances[18],covariances[19],covariances[20],covariances[21],covariances[22],covariances[23],control_mode_flags,pos_horiz_accuracy,pos_vert_accuracy,mag_test_ratio,vel_test_ratio,pos_test_ratio,hgt_test_ratio,tas_test_ratio,hagl_test_ratio,beta_test_ratio,time_slip,gps_check_fail_flags,filter_fault_flags,innovation_check_flags,solution_status_flags,n_states,pre_flt_fail,health_flags,timeout_flags
175388525,-0.07956585,0.0055885976,-0.011910292,-0.9967428,-0.012987332,-0.015186715,-0.025553979,-0.011215478,-0.010440577,-0.97465813,-1.6495847e-05,1.5728001e-05,-8.999892e-06,-0.0010984793,0.0020227311,0.00053651875,0.3720349,-4.9758904e-09,0.47024006,0.0,0.0,0.0,0.0,0.0,9.075479e-11,8.879251e-06,0.0007769096,3.635772e-05,6.721545e-06,7.1493137e-06,2.5359807e-07,0.0051734983,0.0051737945,0.012123859,0.00754548,0.007545668,0.06409012,9.990738e-12,9.9920705e-12,1.828054e-11,9.8838115e-08,1.1226456e-07,5.0000036e-08,0.0,0.0,0.0,0.0,0.0,0.0,0.0,0.0,531,0.12284604,0.25316027,0.0089087095,0.0,0.0002232744,0.032801382,0.0,0.0032428936,0.0,0.001734,0,0,0,229,24,0,0,0
175586930,-0.0794712,0.0056368555,-0.0118961185,-0.9967503,-0.0126521895,-0.0150526,-0.02674355,-0.010730162,-0.010668148,-0.98079354,-1.6471417e-05,1.5709416e-05,-9.024538e-06,-0.0010984935,0.002022739,0.0005371792,0.3720349,-4.9758904e-09,0.47024006,0.0,0.0,0.0,0.0,0.0,8.7190366e-11,8.507987e-06,0.00078779925,3.6384376e-05,6.7150827e-06,7.1426944e-06,2.5480284e-07,0.005132605,0.005132902,0.012070955,0.007439159,0.00743934,0.06356364,9.9845e-12,9.985837e-12,1.8283803e-11,9.8838996e-08,1.1226544e-07,5e-08,0.0,0.0,0.0,0.0,0.0,0.0,0.0,0.0,531,0.12197745,0.2521183,0.0009284677,0.0,0.00021787747,0.015627507,0.0,0.0070919576,0.0,0.001739,0,0,0,229,24,0,0,0
175795711,-0.07941041,0.005692748,-0.011881472,-0.996755,-0.012257779,-0.016390204,-0.026869962,-0.010738757,-0.01131479,-0.986222,-1.644903e-05,1.5693335e-05,-9.0443355e-06,-0.0010985058,0.0020227479,0.0005371732,0.3720349,-4.9758904e-09,0.47024006,0.0,0.0,0.0,0.0,0.0,1.8948539e-10,1.3076389e-05,0.0007218763,3.6375666e-05,6.733758e-06,7.1612676e-06,2.560295e-07,0.005238313,0.0052386317,0.012185839,0.0076766466,0.007676835,0.064607054,1.0000265e-11,1.00016054e-11,1.8286388e-11,9.883998e-08,1.1226643e-07,5.0000036e-08,0.0,0.0,0.0,0.0,0.0,0.0,0.0,0.0,531,0.12390917,0.25417918,0.0042107827,0.0,0.00022446297,0.017906385,0.0,0.0012865212,0.0,0.00172,0,0,0,229,24,0,0,0
175995705,-0.07949782,0.005670664,-0.011771488,-0.99674946,-0.011489121,-0.015697407,-0.020747943,-0.009969636,-0.011120897,-0.9736564,-1.642158e-05,1.5674235e-05,-9.055974e-06,-0.0010985151,0.0020227716,0.0005305218,0.3720349,-4.9758904e-09,0.47024006,0.0,0.0,0.0,0.0,0.0,4.365405e-10,1.8636405e-05,0.0006775638,3.6403064e-05,6.710906e-06,7.138525e-06,2.5790789e-07,0.005109315,0.005109636,0.012016304,0.0073675737,0.007367746,0.063171074,9.9833995e-12,9.984748e-12,1.8291296e-11,9.884087e-08,1.12267315e-07,5e-08,0.0,0.0,0.0,0.0,0.0,0.0,0.0,0.0,531,0.12138913,0.25133857,0.0021935038,0.0,0.00022577636,0.008424197,0.0,0.00025385624,0.0,0.001701,0,0,0,229,24,0,0,0
176193523,-0.079346366,0.005626263,-0.01173605,-0.99676216,-0.011276276,-0.016924363,-0.02075613,-0.010098457,-0.01198038,-0.97805285,-1.6401531e-05,1.566175e-05,-9.05593e-06,-0.0010985222,0.0020227765,0.0005306414,0.3720349,-4.9758904e-09,0.47024006,0.0,0.0,0.0,0.0,0.0,5.285242e-10,2.792797e-05,0.0008660211,3.6372454e-05,6.738921e-06,7.1662225e-06,2.583601e-07,0.0052681165,0.0052684676,0.01220991,0.0077375625,0.0077377567,0.064799234,1.000144e-11,1.0002792e-11,1.8283928e-11,9.884176e-08,1.12268204e-07,5e-08,0.0,0.0,0.0,0.0,0.0,0.0,0.0,0.0,531,0.12439984,0.25455692,0.003990575,0.0,0.00023786916,0.0074151526,0.0,0.0040211086,0.0,0.001929,0,0,0,229,24,0,0,0
176401358,-0.07938213,0.0056101326,-0.011713679,-0.99675965,-0.011030602,-0.015895229,-0.022508692,-0.009441609,-0.011741758,-0.986996,-1.637238e-05,1.5644913e-05,-9.049384e-06,-0.0010985312,0.002022777,0.0005322941,0.3720349,-4.9758904e-09,0.47024006,0.0,0.0,0.0,0.0,0.0,4.845971e-10,3.236827e-05,0.00086899946,3.641846e-05,6.718788e-06,7.1459845e-06,2.5993955e-07,0.0051532947,0.0051536476,0.012075745,0.0074712755,0.0074714604,0.06359026,9.985667e-12,9.987031e-12,1.829114e-11,9.8842676e-08,1.1226912e-07,5.0000036e-08,0.0,0.0,0.0,0.0,0.0,0.0,0.0,0.0,531,0.122240484,0.2521711,0.02033556,0.0,0.00023583925,0.018007787,0.0,0.0025962675,0.0,0.001767,0,0,0,229,24,0,0,0
176601326,-0.07932586,0.0055827564,-0.011699142,-0.9967645,-0.011006504,-0.015464515,-0.01819979,-0.009095359,-0.011745483,-0.9791313,-1.6347609e-05,1.563084e-05,-9.031389e-06,-0.0010985316,0.0020227917,0.00052762264,0.3720349,-4.9758904e-09,0.47024006,0.0,0.0,0.0,0.0,0.0,5.5698224e-10,3.3943674e-05,0.0008706371,3.6387275e-05,6.716799e-06,7.1437335e-06,2.606251e-07,0.0051386137,0.0051389844,0.012043225,0.007419738,0.007419925,0.06326658,9.983022e-12,9.9843935e-12,1.8283675e-11,9.8843564e-08,1.1227001e-07,5e-08,0.0,0.0,0.0,0.0,0.0,0.0,0.0,0.0,531,0.121818155,0.2515285,0.023750726,0.0,0.00023594624,0.0007039312,0.0,0.00020844885,0.0,0.001729,0,0,0,229,24,0,0,0
176801255,-0.07941619,0.005524691,-0.01170134,-0.9967576,-0.011319095,-0.0159175,-0.020233361,-0.008904166,-0.011744501,-0.98547345,-1.6322809e-05,1.5617778e-05,-9.011211e-06,-0.0010985332,0.0020227942,0.0005285649,0.3720349,-4.9758904e-09,0.47024006,0.0,0.0,0.0,0.0,0.0,6.120928e-10,3.5327685e-05,0.00089901953,3.641477e-05,6.717391e-06,7.144263e-06,2.62196e-07,0.005138095,0.0051384787,0.012023428,0.0073936577,0.007393849,0.06301781,9.982177e-12,9.983558e-12,1.828846e-11,9.884445e-08,1.122709e-07,5.000007e-08,0.0,0.0,0.0,0.0,0.0,0.0,0.0,0.0,531,0.12160389,0.25103348,0.0024167625,0.0,0.00023318079,0.027434185,0.0,0.0051964703,0.0,0.001664,0,0,0,229,24,0,0,0
177009281,-0.07948112,0.005493383,-0.01173395,-0.99675214,-0.010925623,-0.014979025,-0.013964842,-0.008620299,-0.011543217,-0.9728336,-1.629601e-05,1.5603031e-05,-9.004785e-06,-0.0010985314,0.0020228196,0.000522196,0.3720349,-4.9758904e-09,0.47024006,0.0,0.0,0.0,0.0,0.0,7.482399e-10,3.6615107e-05,0.00086313137,3.6403137e-05,6.7089195e-06,7.135726e-06,2.6368423e-07,0.0050860797,0.00508647,0.011938716,0.0072489106,0.007249099,0.062200297,9.974901e-12,9.9762915e-12,1.8285172e-11,9.8845376e-08,1.1227182e-07,5.0000036e-08,0.0,0.0,0.0,0.0,0.0,0.0,0.0,0.0,531,0.120407686,0.24939987,0.007616484,0.0,0.00023180245,0.012589198,0.0,9.708933e-05,0.0,0.001664,0,0,0,229,24,0,0,0
177210923,-0.07940532,0.0055016438,-0.011716957,-0.99675846,-0.010608484,-0.015382737,-0.013326978,-0.00869935,-0.011760622,-0.97599596,-1.6273389e-05,1.5591135e-05,-9.012502e-06,-0.0010985351,0.0020228296,0.00052235875,0.3720349,-4.9758904e-09,0.47024006,0.0,0.0,0.0,0.0,0.0,7.5625334e-10,3.74664e-05,0.0010582969,3.637227e-05,6.723602e-06,7.150264e-06,2.6451409e-07,0.0051688906,0.005169298,0.012038275,0.0074376888,0.007437894,0.06296802,9.983515e-12,9.984912e-12,1.8277891e-11,9.8846265e-08,1.1227271e-07,5.0000075e-08,0.0,0.0,0.0,0.0,0.0,0.0,0.0,0.0,659,0.1219655,0.2509343,0.0137462085,0.0,0.00023376191,0.025414748,0.0,0.0032945818,0.0,0.0016889999,0,0,0,229,24,0,0,0
177410937,-0.07945042,0.0054817116,-0.011723532,-0.9967548,-0.011159212,-0.017714579,-0.007822753,-0.010919545,-0.015035932,-0.9690007,-1.6273896e-05,1.5591295e-05,-8.99362e-06,-0.0010985289,0.0020228345,0.0005188441,0.3720349,-4.9758904e-09,0.47024006,0.0,0.0,0.0,0.0,0.0,8.820928e-10,5.214126e-05,0.0010574257,3.6343e-05,6.876066e-06,7.302692e-06,2.656568e-07,0.0060647856,0.0060652974,0.012138929,0.009680028,0.009680376,0.06380483,1.00893035e-11,1.0090692e-11,1.8274498e-11,9.884719e-08,1.1227363e-07,5.0000036e-08,0.0,0.0,0.0,0.0,0.0,0.0,0.0,0.0,659,0.13914166,0.25259617,0.003843979,0.0,1.4615881e-05,0.0056482167,0.0,0.053234972,0.0,0.001746,0,0,0,229,24,0,0,0
177618932,-0.07955501,0.005408739,-0.0117980065,-0.996746,-0.012712488,-0.019983921,-0.007271497,-0.013431343,-0.018866507,-0.971268,-1.6274098e-05,1.5591739e-05,-8.967925e-06,-0.0010985233,0.0020228305,0.0005189137,0.3720349,-4.9758904e-09,0.47024006,0.0,0.0,0.0,0.0,0.0,9.831352e-10,5.7455512e-05,0.0010910969,3.633253e-05,7.036091e-06,7.4626537e-06,2.6714076e-07,0.007085854,0.0070864977,0.012141717,0.012643915,0.01264447,0.06383546,1.0195226e-11,1.0196607e-11,1.8271643e-11,9.884811e-08,1.12274556e-07,5.000007e-08,0.0,0.0,0.0,0.0,0.0,0.0,0.0,0.0,659,0.15902323,0.2526568,0.023081297,0.0,1.855311e-05,0.0027566103,0.0,0.053234972,0.0,0.001741,0,0,0,229,24,0,0,0
177818889,-0.07956065,0.005425279,-0.011796214,-0.99674547,-0.015112473,-0.021121435,-0.005312754,-0.016239738,-0.022920327,-0.9715669,-1.6274274e-05,1.5592106e-05,-8.943172e-06,-0.0010985174,0.0020228277,0.0005183592,0.3720349,-4.9758904e-09,0.47024006,0.0,0.0,0.0,0.0,0.0,8.75237e-10,5.233335e-05,0.0011058373,3.6361183e-05,7.192726e-06,7.6191777e-06,2.6825828e-07,0.008165398,0.008166199,0.012096781,0.016226802,0.016227635,0.06348393,1.02967305e-11,1.0298105e-11,1.8276727e-11,9.8849e-08,1.12275444e-07,5.0000036e-08,0.0,0.0,0.0,0.0,0.0,0.0,0.0,0.0,659,0.18015115,0.2519602,0.016301934,0.0,2.2757065e-05,0.024988119,0.0,0.042681932,0.0,0.001698,0,0,0,229,24,0,0,0
178020623,-0.079547726,0.005452147,-0.011841977,-0.9967459,-0.016337924,-0.023953667,-0.010541098,-0.01942284,-0.02732813,-0.9889926,-1.627369e-05,1.5592565e-05,-8.927062e-06,-0.0010985177,0.0020228103,0.0005243081,0.3720349,-4.9758904e-09,0.47024006,0.0,0.0,0.0,0.0,0.0,8.208948e-10,5.0460632e-05,0.0012828003,3.6330555e-05,7.3522124e-06,7.77853e-06,2.691307e-07,0.009347999,0.0093490025,0.0121765165,0.02065141,0.02065261,0.064167276,1.0398005e-11,1.0399372e-11,1.8269556e-11,9.884989e-08,1.1227633e-07,5e-08,0.0,0.0,0.0,0.0,0.0,0.0,0.0,0.0,659,0.20323391,0.25331262,0.03006708,0.0,2.6956e-05,0.012883322,0.0,0.042681932,0.0,0.001833,0,0,0,229,24,0,0,0
178228624,-0.079606876,0.0054531936,-0.011884044,-0.9967406,-0.018679788,-0.025049983,-0.016715469,-0.02311032,-0.032392427,-1.011679,-1.6272823e-05,1.5593057e-05,-8.906861e-06,-0.0010985186,0.002022789,0.0005317799,0.3720349,-4.9758904e-09,0.47024006,0.0,0.0,0.0,0.0,0.0,6.8604855e-10,4.714875e-05,0.0011774796,3.6321337e-05,7.5216467e-06,7.947897e-06,2.7043646e-07,0.010698883,0.010700099,0.01205162,0.026317993,0.026319692,0.06319986,1.0506274e-11,1.0507635e-11,1.8270321e-11,9.885085e-08,1.1227729e-07,5e-08,0.0,0.0,0.0,0.0,0.0,0.0,0.0,0.0,659,0.22942904,0.25139582,0.0016947591,0.0,3.2397187e-05,0.0040009115,0.0,0.042681932,0.0,0.001827,0,0,0,229,24,0,0,0
178428488,-0.07965265,0.005423433,-0.011851089,-0.9967375,-0.021056239,-0.027400035,-0.016498683,-0.027017584,-0.03763635,-1.0125372,-1.6272736e-05,1.5593349e-05,-8.8752495e-06,-0.0010985112,0.002022786,0.0005308068,0.3720349,-4.9758904e-09,0.47024006,0.0,0.0,0.0,0.0,0.0,7.936808e-10,5.51282e-05,0.0011549456,3.6349888e-05,7.685537e-06,8.111724e-06,2.7165163e-07,0.012099377,0.012100769,0.012020032,0.03285954,0.03286186,0.062920965,1.060631e-11,1.0607661e-11,1.827552e-11,9.8851736e-08,1.1227818e-07,5.000004e-08,0.0,0.0,0.0,0.0,0.0,0.0,0.0,0.0,659,0.25636184,0.2508405,0.006773843,0.0,3.7417973e-05,0.012439694,0.0,0.05127839,0.0,0.001696,0,0,0,229,24,0,0,0
178628676,-0.07971954,0.005406501,-0.012002566,-0.99673045,-0.024124933,-0.028697927,-0.017832348,-0.031427484,-0.04316763,-1.0174268,-1.6272295e-05,1.5593467e-05,-8.8525885e-06,-0.0010985062,0.0020227816,0.000531304,0.3720349,-4.9758904e-09,0.47024006,0.0,0.0,0.0,0.0,0.0,9.0901686e-10,5.368406e-05,0.0012729531,3.6319143e-05,7.851798e-06,8.277818e-06,2.7284312e-07,0.01361391,0.013615517,0.01210284,0.04065764,0.040660743,0.063614,1.07055415e-11,1.0706876e-11,1.826826e-11,9.8852624e-08,1.1227907e-07,5e-08,0.0,0.0,0.0,0.0,0.0,0.0,0.0,0.0,659,0.28516376,0.25221816,0.017542237,0.0,4.2938154e-05,0.036451444,0.0,0.05127839,0.0,0.001879,0,0,0,229,24,0,0,0
178836542,-0.0793769,0.005351461,-0.011526442,-0.99676377,-0.025840761,-0.032939896,-0.0103922365,-0.036507245,-0.04930877,-1.002254,-1.6272095e-05,1.5592903e-05,-8.843383e-06,-0.0010984986,0.0020227982,0.00052424736,0.3720349,-4.9758904e-09,0.47024006,0.0,0.0,0.0,0.0,0.0,3.3807432e-09,9.978241e-05,0.002185385,3.6369354e-05,8.026752e-06,8.452553e-06,2.724701e-07,0.015311947,0.015313743,0.01221423,0.050271463,0.050275557,0.06459864,1.080807e-11,1.08093924e-11,1.8277314e-11,9.885355e-08,1.1227999e-07,5e-08,0.0,0.0,0.0,0.0,0.0,0.0,0.0,0.0,659,0.3170915,0.25416264,0.02452893,0.0,4.8801372e-05,0.0032104389,0.0,0.05127839,0.0,0.001751,0,0,0,229,24,0,0,0
179038276,-0.07972427,0.005225138,-0.011142604,-0.996741,-0.029466432,-0.033081405,-0.008846395,-0.04178464,-0.0554858,-0.99084777,-1.6271792e-05,1.5592921e-05,-8.7968065e-06,-0.0010984833,0.0020228042,0.00051882025,0.3720349,-4.9758904e-09,0.47024006,0.0,0.0,0.0,0.0,0.0,5.823169e-09,0.00016108977,0.0033221203,3.6337507e-05,8.194514e-06,8.620921e-06,2.7462008e-07,0.017055746,0.01705781,0.012146426,0.061069056,0.061074268,0.064116515,1.0904546e-11,1.0905856e-11,1.8270037e-11,9.8854436e-08,1.1228088e-07,5e-08,0.0,0.0,0.0,0.0,0.0,0.0,0.0,0.0,659,0.3494901,0.2532124,0.008018721,0.0,5.5507473e-05,0.018682368,0.0,0.05127839,0.0,0.001848,0,0,0,229,24,0,0,0
179238073,-0.07981698,0.0051540397,-0.0107842395,-0.99673796,-0.032892153,-0.035010215,-0.003351469,-0.04780987,-0.061910447,-0.9724075,-1.6271479e-05,1.5592912e-05,-8.736911e-06,-0.0010984631,0.002022815,0.00051107607,0.3720349,-4.9758904e-09,0.47024006,0.0,0.0,0.0,0.0,0.0,1.0867258e-08,0.0002290033,0.0045073293,3.636779e-05,8.364519e-06,8.791096e-06,2.7568393e-07,0.01892775,0.018930133,0.012095397,0.07367758,0.073684156,0.063769914,1.10031975e-11,1.1004495e-11,1.827887e-11,9.885537e-08,1.1228181e-07,5.0000036e-08,0.0,0.0,0.0,0.0,0.0,0.0,0.0,0.0,659,0.38387722,0.25252706,0.025790628,0.0,6.164939e-05,0.025078036,0.0,0.05127839,0.0,0.001649,0,0,0,229,24,0,0,0
179446049,-0.07988366,0.0049371715,-0.010730286,-0.99673426,-0.03161351,-0.0348678,0.004792703,-0.054443102,-0.06856649,-0.9521125,-1.6270853e-05,1.5592579e-05,-8.686229e-06,-0.0010984446,0.0020228287,0.00050308276,0.3720349,-4.9758904e-09,0.47024006,0.0,0.0,0.0,0.0,0.0,1.3301776e-08,0.0002750236,0.0053363466,3.6357396e-05,8.541995e-06,8.968426e-06,2.7665672e-07,0.020989813,0.020992516,0.012192887,0.0887461,0.08875433,0.064665206,1.1101156e-11,1.1102439e-11,1.827584e-11,9.885629e-08,1.12282734e-07,5e-08,0.0,0.0,0.0,0.0,0.0,0.0,0.0,0.0,659,0.42130798,0.25429353,0.02181715,0.0,6.8593545e-05,0.009996633,0.0,0.05127839,0.0,0.001659,0,0,0,229,24,0,0,0
179646200,-0.079986945,0.005036576,-0.010452514,-0.99672836,-0.03513754,-0.036227323,0.0041012615,-0.060893964,-0.07503871,-0.9518971,-1.6269118e-05,1.5592203e-05,-8.638177e-06,-0.0010984327,0.0020228222,0.0005031206,0.3720349,-4.9758904e-09,0.47024006,0.0,0.0,0.0,0.0,0.0,1.3777917e-08,0.00024729592,0.005205208,3.6326914e-05,8.711631e-06,9.138291e-06,2.7762945e-07,0.023082511,0.023085482,0.012240889,0.10528358,0.10529359,0.065161586,1.1192911e-11,1.1194181e-11,1.8268718e-11,9.885718e-08,1.1228362e-07,5e-08,0.0,0.0,0.0,0.0,0.0,0.0,0.0,0.0,659,0.45888686,0.25526768,0.0144718755,0.0,7.4784446e-05,0.026798984,0.0,0.050007615,0.0,0.001809,0,0,0,229,24,0,0,0
179851806,-0.08017283,0.0051121195,-0.008893369,-0.9967282,-0.036455713,-0.037048716,0.0054731173,-0.06759468,-0.081601165,-0.95810974,-1.6266542e-05,1.5591671e-05,-8.575006e-06,-0.001098419,0.0020228063,0.00050554785,0.3720349,-4.9758904e-09,0.47024006,0.0,0.0,0.0,0.0,0.0,1.4063303e-08,0.00026655616,0.0060972036,3.6317044e-05,8.8843e-06,9.312168e-06,2.7871346e-07,0.02534702,0.025350254,0.012207187,0.12467663,0.12468871,0.06495624,1.1284558e-11,1.1285814e-11,1.8265653e-11,9.88581e-08,1.12284546e-07,5e-08,0.0,0.0,0.0,0.0,0.0,0.0,0.0,0.0,659,0.4993649,0.25486514,0.044593327,0.0,8.105419e-05,0.007128941,0.0,0.050007615,0.0,0.001816,0,0,0,229,24,0,0,0
180051737,-0.08026262,0.0052004354,-0.0066422513,-0.9967381,-0.03808529,-0.03495883,-0.014646596,-0.0745849,-0.088192426,-0.9636081,-1.6263411e-05,1.5590784e-05,-8.507499e-06,-0.0010984036,0.0020227912,0.00050748425,0.3720349,-4.9758904e-09,0.47024006,0.0,0.0,0.0,0.0,0.0,3.4772057e-08,0.00040743878,0.007702138,3.6345056e-05,9.045167e-06,9.474241e-06,2.7932708e-07,0.027599692,0.02760309,0.012140029,0.14524585,0.14526002,0.06434654,1.13672665e-11,1.1368512e-11,1.8268977e-11,9.885898e-08,1.1228543e-07,5.0000036e-08,0.0,0.0,0.0,0.0,0.0,0.0,0.0,0.0,659,0.53898597,0.2536662,0.054753624,0.0,8.796917e-05,0.013109495,0.0,0.050007615,0.0,0.001733,0,0,0,229,24,0,0,0
180251735,-0.0804541,0.005159405,-0.004904297,-0.99673295,-0.038140997,-0.04595165,0.025013134,-0.08252741,-0.09429925,-0.92755574,-1.6261023e-05,1.5588941e-05,-8.431696e-06,-0.0010983942,0.002022854,0.0004933456,0.3720349,-4.9758904e-09,0.47024006,0.0,0.0,0.0,0.0,0.0,4.4239453e-08,0.00044823033,0.009690355,3.6373818e-05,9.204275e-06,9.634062e-06,2.805072e-07,0.029900819,0.029904341,0.012087514,0.16833532,0.16835181,0.06390468,1.1448028e-11,1.1449277e-11,1.8273995e-11,9.885987e-08,1.12286315e-07,5e-08,0.0,0.0,0.0,0.0,0.0,0.0,0.0,0.0,659,0.58024746,0.25279376,0.022619784,0.0,9.4391005e-05,0.023222279,0.0,0.03597565,0.0,0.001719,0,0,0,229,24,0,0,0
180459794,-0.08062272,0.005493203,-0.0050513144,-0.99671686,-0.046969987,-0.042779937,0.044798028,-0.090875655,-0.10129106,-0.88927794,-1.6258045e-05,1.558691e-05,-8.3327e-06,-0.0010983916,0.0020229325,0.00048100817,0.3720349,-4.9758904e-09,0.47024006,0.0,0.0,0.0,0.0,0.0,6.327786e-08,0.0005461762,0.010783559,3.636293e-05,9.366836e-06,9.796543e-06,2.8144223e-07,0.032394357,0.03239804,0.012074493,0.19486353,0.19488253,0.06379955,1.1528393e-11,1.1529648e-11,1.827078e-11,9.8860795e-08,1.1228724e-07,5e-08,0.0,0.0,0.0,0.0,0.0,0.0,0.0,0.0,659,0.6242965,0.25258574,0.034716424,0.0,0.000101427955,0.066243865,0.0,0.045143552,0.0,0.001804,0,0,0,229,24,0,0,0
180659747,-0.08036263,0.0048308196,-0.005093076,-0.99674106,-0.051799014,-0.041813143,0.053712886,-0.09913537,-0.10887268,-0.8333835,-1.6254873e-05,1.558413e-05,-8.256809e-06,-0.0010983816,0.0020230368,0.00046306828,0.3720349,-4.9758904e-09,0.47024006,0.0,0.0,0.0,0.0,0.0,2.4440442e-07,0.0007227934,0.013704723,3.6393296e-05,9.521681e-06,9.950343e-06,2.8067296e-07,0.034903213,0.034907028,0.012136535,0.22303812,0.22305973,0.06434107,1.1603422e-11,1.1604687e-11,1.8275659e-11,9.886168e-08,1.1228812e-07,5.0000036e-08,0.0,0.0,0.0,0.0,0.0,0.0,0.0,0.0,659,0.66790557,0.2536554,0.010678896,0.0,0.00010865059,0.023362802,0.0,0.04334702,0.0,0.001757,0,0,0,229,24,0,0,0
180865722,-0.07925994,0.002193309,0.0083494615,-0.99681664,-0.06407288,0.0022030266,-0.005952983,-0.10895126,-0.11164656,-0.78152,-1.6251033e-05,1.5581816e-05,-8.06703e-06,-0.0010983391,0.00202319,0.00044390335,0.3720349,-4.9758904e-09,0.47024006,0.0,0.0,0.0,0.0,0.0,3.3956007e-07,0.00090767164,0.01736165,3.6390124e-05,9.666695e-06,1.0091226e-05,2.746868e-07,0.03752951,0.03753318,0.012010653,0.2539031,0.25392732,0.06325553,1.16702715e-11,1.16715405e-11,1.8272408e-11,9.886261e-08,1.1228897e-07,5e-08,0.0,0.0,0.0,0.0,0.0,0.0,0.0,0.0,659,0.71262217,0.25150654,0.079376884,0.0,0.000111814225,0.038864426,0.0,0.04334702,0.0,0.002109,0,0,0,229,24,0,0,0
181065304,-0.078545325,0.00083023077,0.014384778,-0.99680644,-0.09030558,0.062984005,-0.048189234,-0.12101395,-0.10298307,-0.79505813,-1.624551e-05,1.5578926e-05,-7.912658e-06,-0.0010982961,0.002023207,0.0004467157,0.3720349,-4.9758904e-09,0.47024006,0.0,0.0,0.0,0.0,0.0,3.6284908e-07,0.0011249293,0.019374609,3.641821e-05,9.802465e-06,1.0220697e-05,2.7225047e-07,0.040010143,0.040012725,0.011973009,0.28554574,0.28557217,0.06280771,1.172969e-11,1.1730963e-11,1.8275487e-11,9.886349e-08,1.1228979e-07,5e-08,0.0,0.0,0.0,0.0,0.0,0.0,0.0,0.0,659,0.7557234,0.25061467,0.027556825,0.0,0.000121196805,0.01783469,0.0,0.058027234,0.0,0.001713,0,0,0,229,24,0,0,0
181273527,-0.07816781,-0.0014684831,0.014595317,-0.9968324,-0.10619066,0.15524517,-0.07462798,-0.13816084,-0.077773914,-0.8469209,-1.624135e-05,1.5576268e-05,-7.720056e-06,-0.0010982517,0.002023182,0.0004601596,0.3720349,-4.9758904e-09,0.47024006,0.0,0.0,0.0,0.0,0.0,3.3407153e-07,0.0011085409,0.018372647,3.6410685e-05,9.945602e-06,1.0362622e-05,2.699674e-07,0.042734135,0.04273315,0.01210905,0.3223608,0.32238963,0.063871816,1.1794827e-11,1.17961006e-11,1.827214e-11,9.886441e-08,1.1229065e-07,5e-08,0.0,0.0,0.0,0.0,0.0,0.0,0.0,0.0,659,0.80296355,0.25272873,0.063313745,0.0,0.00013588955,0.059678942,0.0,0.02047073,0.0,0.001936,0,0,0,229,24,0,0,0
181674912,-0.07429767,-0.0010409604,0.013685184,-0.99714166,-0.15939355,0.31621248,-0.0022699588,-0.17951976,0.016749276,-0.98002,-1.6235932e-05,1.5560157e-05,-7.4510035e-06,-0.0010982269,0.0020229602,0.0005016878,0.3720349,-4.9758904e-09,0.47024006,0.0,0.0,0.0,0.0,0.0,2.3241057e-07,0.0009770371,0.016653605,3.6485577e-05,1.0167447e-05,1.0578852e-05,2.5190977e-07,0.04726044,0.047248695,0.01204764,0.39552474,0.39555517,0.06324258,1.1888127e-11,1.1889421e-11,1.8281224e-11,9.886619e-08,1.1229217e-07,5e-08,0.0,0.0,0.0,0.0,0.0,0.0,0.0,0.0,659,0.8894267,0.25148076,0.028998671,0.0,0.00017990271,0.03221753,0.0,0.00461423,0.0,0.001721,0,0,0,229,24,0,0,0
181874855,-0.07245284,-0.0010046207,0.010743446,-0.9973135,-0.16274412,0.39512983,0.057272032,-0.20661423,0.08681017,-1.0140258,-1.6239372e-05,1.5550615e-05,-7.3074602e-06,-0.0010982093,0.0020228594,0.00051709544,0.3720349,-4.9758904e-09,0.47024006,0.0,0.0,0.0,0.0,0.0,2.1119504e-07,0.0009449165,0.016294653,3.646553e-05,1.0288241e-05,1.06987345e-05,2.4289398e-07,0.04973303,0.04971339,0.012240944,0.43762848,0.43765733,0.064928785,1.194324e-11,1.1944549e-11,1.8277243e-11,9.886712e-08,1.1229299e-07,5e-08,0.0,0.0,0.0,0.0,0.0,0.0,0.0,0.0,659,0.9355671,0.2548113,0.005395178,0.0,0.00020438779,0.036698285,0.0,0.01787179,0.0,0.001663,0,0,0,229,24,0,0,0
182074938,-0.072400056,-0.0014789354,0.012172197,-0.9973004,-0.16980214,0.47448537,0.10303757,-0.23237193,0.16783032,-1.0311625,-1.6249036e-05,1.5533742e-05,-7.1671957e-06,-0.0010981896,0.002022765,0.00053000456,0.3720349,-4.9758904e-09,0.47024006,0.0,0.0,0.0,0.0,0.0,2.5742725e-07,0.000990194,0.015679684,3.6493224e-05,1.0369435e-05,1.0778523e-05,2.4288715e-07,0.051714763,0.0516858,0.012175271,0.47650355,0.47652736,0.064419314,1.1973757e-11,1.1975091e-11,1.8281614e-11,9.886801e-08,1.12293684e-07,5.0000036e-08,0.0,0.0,0.0,0.0,0.0,0.0,0.0,0.0,659,0.97623307,0.2538096,0.062803954,0.0,0.00023158528,0.068534754,0.0,0.0063455747,0.0,0.001748,0,0,0,229,24,0,0,0
182282972,-0.07327979,0.0004727385,0.008542063,-0.9972748,-0.1885975,0.5567581,0.11245093,-0.25896138,0.2645507,-1.0633708,-1.6267617e-05,1.5513e-05,-6.9784032e-06,-0.001098171,0.0020225665,0.00055122684,0.3720349,-4.9758904e-09,0.47024006,0.0,0.0,0.0,0.0,0.0,2.0480417e-07,0.0008524181,0.015975833,3.647996e-05,1.0444561e-05,1.08566455e-05,2.449829e-07,0.05375758,0.053717937,0.012152036,0.51789117,0.5179063,0.06426256,1.2002096e-11,1.200346e-11,1.8277786e-11,9.886893e-08,1.12294416e-07,5e-08,0.0,0.0,0.0,0.0,0.0,0.0,0.0,0.0,659,1.0177413,0.2535006,0.09117802,0.0,0.00026525703,0.0073044994,0.0,0.025235599,0.0,0.001775,0,0,0,229,24,0,0,0
182482979,-0.07314345,-0.0006301998,0.010120015,-0.99727,-0.20273376,0.62160707,-0.057067942,-0.2851096,0.36638305,-1.0682622,-1.629466e-05,1.5487874e-05,-6.796505e-06,-0.0010981206,0.0020225642,0.0005561129,0.3720349,-4.9758904e-09,0.47024006,0.0,0.0,0.0,0.0,0.0,1.8864083e-07,0.0008792724,0.01612988,3.6508427e-05,1.0501581e-05,1.0912093e-05,2.442722e-07,0.05585895,0.055810325,0.012091511,0.5565939,0.55659634,0.06377382,1.2020643e-11,1.2022051e-11,1.8282048e-11,9.886982e-08,1.1229505e-07,5e-08,0.0,0.0,0.0,0.0,0.0,0.0,0.0,0.0,659,1.0550783,0.25253478,0.08262544,0.0,0.00036742722,0.0068114977,0.0,0.024392463,0.0,0.001788,0,0,0,229,24,0,0,0
182684584,-0.07215032,0.0004976531,0.009805233,-0.9973455,-0.23034205,0.6958135,-0.40795863,-0.3140502,0.47817695,-1.1432554,-1.6328597e-05,1.5461435e-05,-6.5990316e-06,-0.001098077,0.0020224832,0.00056538184,0.3720349,-4.9758904e-09,0.47024006,0.0,0.0,0.0,0.0,0.0,1.8648525e-07,0.00084262737,0.01602259,3.654083e-05,1.0566776e-05,1.0975405e-05,2.392159e-07,0.058462605,0.05840322,0.012151854,0.5982985,0.5982844,0.06430114,1.2043678e-11,1.2045136e-11,1.8286268e-11,9.887071e-08,1.1229571e-07,5e-08,0.0,0.0,0.0,0.0,0.0,0.0,0.0,0.0,659,1.0938843,0.2535767,0.084460065,0.0,0.00047969658,0.023758426,0.0,0.016496094,0.0,0.001793,0,0,0,229,24,0,0,0
182892627,-0.07327948,0.0076498003,0.01376701,-0.9971871,-0.21270242,0.7464939,-0.45399585,-0.34070757,0.59805286,-1.2742511,-1.637773e-05,1.5425725e-05,-6.4055143e-06,-0.0010980519,0.0020222925,0.000578182,0.3720349,-4.9758904e-09,0.47024006,0.0,0.0,0.0,0.0,0.0,2.2964699e-07,0.00085727934,0.015473392,3.6522022e-05,1.0611531e-05,1.102112e-05,2.4392008e-07,0.060140725,0.060072415,0.012126903,0.6392442,0.6392084,0.06417781,1.2059461e-11,1.2060982e-11,1.8286097e-11,9.887167e-08,1.1229642e-07,5e-08,0.0,0.0,0.0,0.0,0.0,0.0,0.0,0.0,659,1.1306868,0.2533334,0.120721236,0.0,0.00060021406,0.060631327,0.0,0.012970164,0.0,0.001836,0,0,0,229,24,0,0,0
183092516,-0.0756214,0.017197523,0.018251685,-0.9968212,-0.18112357,0.8046297,-0.31035772,-0.36079296,0.7195497,-1.3663312,-1.6429423e-05,1.5390026e-05,-6.256706e-06,-0.0010980356,0.0020221062,0.00058302935,0.3720349,-4.9758904e-09,0.47024006,0.0,0.0,0.0,0.0,0.0,3.4034426e-07,0.0008609907,0.017936727,3.646979e-05,1.0657212e-05,1.1074672e-05,2.5646548e-07,0.061393633,0.061314054,0.012188708,0.6797746,0.6797125,0.06471369,1.2074581e-11,1.2076153e-11,1.82781e-11,9.887256e-08,1.1229696e-07,5e-08,0.0,0.0,0.0,0.0,0.0,0.0,0.0,0.0,659,1.1659704,0.25438884,0.042609815,0.0,0.00070905965,0.0048087765,0.0,0.016443785,0.0,0.001679,0,0,0,229,24,0,0,0
183292506,-0.077285275,0.033663914,0.032415424,-0.99591315,-0.10672048,0.87727404,-0.1447623,-0.36655053,0.8390707,-1.4188764,-1.6498034e-05,1.534574e-05,-6.1189876e-06,-0.0010980353,0.002021826,0.0005850132,0.3720349,-4.9758904e-09,0.47024006,0.0,0.0,0.0,0.0,0.0,3.0798373e-07,0.0009478659,0.018131375,3.6450314e-05,1.0679937e-05,1.1106972e-05,2.7852997e-07,0.062060215,0.061965078,0.012128165,0.71398735,0.71389276,0.06421332,1.2075182e-11,1.2076831e-11,1.8282095e-11,9.887345e-08,1.122972e-07,5.0000036e-08,0.0,0.0,0.0,0.0,0.0,0.0,0.0,0.0,659,1.1949394,0.25340348,0.08372639,0.0,0.0008351928,0.033386566,0.0,0.0012215239,0.0,0.001715,0,0,0,229,24,0,0,0
183497275,-0.07914616,0.032811753,0.03158753,-0.9958221,0.009449952,0.9708308,0.017091315,-0.35135305,0.9709048,-1.470584,-1.658228e-05,1.5298767e-05,-5.9516765e-06,-0.0010980745,0.002021187,0.00059907,0.3720349,-4.9758904e-09,0.47024006,0.0,0.0,0.0,0.0,0.0,5.280114e-07,0.000980795,0.016038414,3.6432313e-05,1.0692467e-05,1.1122471e-05,2.8542246e-07,0.06269649,0.06258198,0.012107336,0.74890566,0.74876934,0.064055406,1.2076791e-11,1.2078538e-11,1.8277943e-11,9.8874374e-08,1.1229712e-07,5e-08,0.0,0.0,0.0,0.0,0.0,0.0,0.0,0.0,659,1.2237953,0.2530917,0.062492345,0.0,0.0009749976,0.081859164,0.0,0.015593579,0.0,0.001685,0,0,0,229,24,0,0,0
183705317,-0.08021305,0.006184495,0.008551997,-0.9967219,0.05279634,1.0147524,0.16171215,-0.3201376,1.1025865,-1.4696426,-1.6679676e-05,1.5251412e-05,-5.845628e-06,-0.0010981016,0.0020209497,0.00060467055,0.3720349,-4.9758904e-09,0.47024006,0.0,0.0,0.0,0.0,0.0,7.055596e-07,0.0009466152,0.01596711,3.652214e-05,1.06900725e-05,1.1111151e-05,2.73093e-07,0.06314112,0.06301999,0.012093125,0.78020835,0.7800283,0.06381465,1.2073258e-11,1.2075144e-11,1.8282412e-11,9.887527e-08,1.1229744e-07,5e-08,0.0,0.0,0.0,0.0,0.0,0.0,0.0,0.0,659,1.2490944,0.2526156,0.042352032,0.0,0.0011069576,0.007904324,0.0,0.011667128,0.0,0.001708,0,0,0,229,24,0,0,0
183905362,-0.07930755,-0.031061951,-0.021674348,-0.99613035,-0.011876062,0.98233765,0.2598148,-0.2952807,1.2287319,-1.4049153,-1.6776045e-05,1.52090415e-05,-5.8454016e-06,-0.001098067,0.0020211185,0.00059580174,0.3720349,-4.9758904e-09,0.47024006,0.0,0.0,0.0,0.0,0.0,8.363113e-07,0.0010642392,0.015871072,3.6456742e-05,1.071952e-05,1.11428435e-05,2.9074258e-07,0.06385346,0.06374344,0.012149582,0.8131027,0.812882,0.06433348,1.20791545e-11,1.20812214e-11,1.8274273e-11,9.887611e-08,1.1229784e-07,5e-08,0.0,0.0,0.0,0.0,0.0,0.0,0.0,0.0,659,1.275141,0.25364047,0.071603216,0.0,0.0012338194,0.010168086,0.0,0.0052524265,0.0,0.001722,0,0,0,229,24,0,0,0
184105271,-0.07753842,-0.053718567,-0.04216534,-0.99464786,-0.18960164,0.88139457,0.39731932,-0.29708442,1.3298585,-1.3622344,-1.6883736e-05,1.5165975e-05,-5.969931e-06,-0.0010978418,0.0020209122,0.00060442893,0.3720349,-4.9758904e-09,0.47024006,0.0,0.0,0.0,0.0,0.0,8.935263e-07,0.0009853578,0.016595457,3.6400314e-05,1.0758815e-05,1.1186063e-05,3.250623e-07,0.0643101,0.06423055,0.012200221,0.84399736,0.8437527,0.0648513,1.2084215e-11,1.2086488e-11,1.82782e-11,9.887639e-08,1.1229817e-07,5.0000036e-08,0.0,0.0,0.0,0.0,0.0,0.0,0.0,0.0,659,1.2991344,0.25465918,0.044419624,0.0,0.0013213512,0.018114708,0.0,0.0056441305,0.0,0.00168,0,0,0,229,24,0,0,0
184305275,-0.07534525,-0.03034828,-0.024720734,-0.99638903,-0.37130865,0.76645046,0.44986036,-0.3347264,1.4002188,-1.2734243,-1.6996506e-05,1.5120627e-05,-6.0793773e-06,-0.0010975654,0.0020208722,0.00060405553,0.3720349,-4.9758904e-09,0.47024006,0.0,0.0,0.0,0.0,0.0,1.1149367e-06,0.00093473133,0.017586727,3.6458405e-05,1.0761079e-05,1.1168489e-05,2.783276e-07,0.06485701,0.06481569,0.012247837,0.87272656,0.8724713,0.06534472,1.2088839e-11,1.2091335e-11,1.8270007e-11,9.8876576e-08,1.1229822e-07,5e-08,0.0,0.0,0.0,0.0,0.0,0.0,0.0,0.0,659,1.3210593,0.25562614,0.02346327,0.0,0.0013939256,0.01477934,0.0,0.0073320777,0.0,0.001684,0,0,0,229,24,0,0,0
184513281,-0.07320085,0.01158204,0.015210315,-0.99713403,-0.4165531,0.73561084,0.25264704,-0.39011523,1.4409157,-1.1892737,-1.7131822e-05,1.5065224e-05,-5.9312865e-06,-0.0010975597,0.0020209283,0.0005982079,0.3720349,-4.9758904e-09,0.47024006,0.0,0.0,0.0,0.0,0.0,1.1561242e-06,0.00095753686,0.017689018,3.64976e-05,1.074603e-05,1.1158182e-05,2.4872878e-07,0.06553956,0.06550963,0.012206512,0.89481455,0.8945501,0.06505949,1.2084738e-11,1.2087428e-11,1.826597e-11,9.887747e-08,1.12298366e-07,5e-08,0.0,0.0,0.0,0.0,0.0,0.0,0.0,0.0,659,1.3376713,0.25506762,0.12825397,0.0,0.0014411493,0.034622543,0.0,0.036597695,0.0,0.0016889999,0,0,0,229,24,0,0,0
184714948,-0.0852285,0.020888295,0.026846083,-0.99578065,-0.3507429,0.7187783,-0.21657364,-0.43612996,1.4787245,-1.1885037,-1.7256052e-05,1.5015457e-05,-5.570634e-06,-0.0010974669,0.0020205628,0.0005962893,0.3720349,-4.9758904e-09,0.47024006,0.0,0.0,0.0,0.0,0.0,8.9330314e-07,0.0009296585,0.018149918,3.6454552e-05,1.0754817e-05,1.1183412e-05,3.102873e-07,0.06704742,0.06701535,0.012248003,0.91936105,0.9190887,0.065469004,1.2089083e-11,1.2091895e-11,1.8269945e-11,9.887836e-08,1.12298444e-07,5.0000036e-08,0.0,0.0,0.0,0.0,0.0,0.0,0.0,0.0,659,1.3558944,0.25586912,0.14403568,0.0,0.0014741148,0.044593107,0.0,0.036910206,0.0,0.00172,0,0,0,229,24,0,0,0
184914935,-0.088766955,0.030137239,0.03130188,-0.99510425,-0.25122592,0.79005176,-0.25023094,-0.45811883,1.5078151,-1.2566253,-1.7395376e-05,1.4954653e-05,-5.220488e-06,-0.0010974428,0.0020196608,0.0006018923,0.3720349,-4.9758904e-09,0.47024006,0.0,0.0,0.0,0.0,0.0,6.853381e-07,0.0008919258,0.017159581,3.6446756e-05,1.0741056e-05,1.1184914e-05,3.3288083e-07,0.06704607,0.06699783,0.012180096,0.9346184,0.93434054,0.06495515,1.2086689e-11,1.2089626e-11,1.8277492e-11,9.887922e-08,1.1229807e-07,5e-08,0.0,0.0,0.0,0.0,0.0,0.0,0.0,0.0,659,1.3670987,0.254863,0.11137008,0.0,0.0015019644,0.00075830123,0.0,0.04239638,0.0,0.001744,0,0,0,229,24,0,0,0
185122924,-0.08599649,0.04448206,0.040058978,-0.9944955,-0.1061491,0.897802,-0.18995331,-0.459647,1.5698007,-1.2987367,-1.751989e-05,1.490019e-05,-4.874639e-06,-0.0010974192,0.0020188014,0.0005985032,0.3720349,-4.9758904e-09,0.47024006,0.0,0.0,0.0,0.0,0.0,6.4800605e-07,0.00088486413,0.0173414,3.6407546e-05,1.0766651e-05,1.1226413e-05,3.3246565e-07,0.06745117,0.06738145,0.012268314,0.95909727,0.95880175,0.06574717,1.2097074e-11,1.2100121e-11,1.8273143e-11,9.8880086e-08,1.12297286e-07,5e-08,0.0,0.0,0.0,0.0,0.0,0.0,0.0,0.0,659,1.3848823,0.25641212,0.1435437,0.0,0.0015624521,0.029968835,0.0,0.0048315683,0.0,0.001733,0,0,0,229,24,0,0,0
185322975,-0.08274582,0.022706548,0.020776361,-0.9960954,0.017665615,0.97490656,-0.13018617,-0.42811024,1.6203119,-1.3442016,-1.7668415e-05,1.4834625e-05,-4.7028075e-06,-0.0010974732,0.002018103,0.0006024423,0.3720349,-4.9758904e-09,0.47024006,0.0,0.0,0.0,0.0,0.0,7.807203e-07,0.0010185092,0.017358039,3.6514284e-05,1.0746168e-05,1.1180817e-05,2.8970837e-07,0.06703883,0.06695743,0.0121767875,0.9680756,0.96776325,0.065035604,1.2091691e-11,1.2094881e-11,1.8276977e-11,9.888091e-08,1.122962e-07,5e-08,0.0,0.0,0.0,0.0,0.0,0.0,0.0,0.0,659,1.3913442,0.2550208,0.036259864,0.0,0.0016282282,0.0035035755,0.0,0.0017501246,0.0,0.001778,0,0,0,229,24,0,0,0
185924520,-0.067342274,-0.036878318,-0.03277067,-0.9965095,-0.20323959,0.75538534,0.115311876,-0.35595515,1.7573497,-1.2995341,-1.8081975e-05,1.4655008e-05,-5.570733e-06,-0.0010969687,0.0020179509,0.0005828102,0.3720349,-4.9758904e-09,0.47024006,0.0,0.0,0.0,0.0,0.0,8.351647e-07,0.0009794931,0.020561347,3.6534613e-05,1.0820098e-05,1.1197529e-05,2.5992324e-07,0.06669774,0.066662036,0.012190461,1.0038841,1.0035565,0.06529657,1.2113881e-11,1.2117678e-11,1.8280271e-11,9.888283e-08,1.1229414e-07,5.0000036e-08,0.0,0.0,0.0,0.0,0.0,0.0,0.0,0.0,659,1.4168417,0.25553194,0.15775385,0.0,0.0017599328,0.033282105,0.0,0.005922935,0.0,0.001717,0,0,0,229,24,0,0,0
186530305,-0.0851994,0.020890545,0.042207938,-0.9952503,-0.47191554,0.49042985,-0.22877952,-0.48037514,1.66974,-1.1446373,-1.8529303e-05,1.4469597e-05,-5.1891016e-06,-0.00109848,0.0020189865,0.0005429594,0.3720349,-4.9758904e-09,0.47024006,0.0,0.0,0.0,0.0,0.0,1.8735971e-06,0.0010586098,0.022773461,3.648677e-05,1.0829506e-05,1.12337775e-05,3.305867e-07,0.0673561,0.06736537,0.0121323755,1.0187961,1.0185436,0.06476695,1.2139274e-11,1.2143583e-11,1.8271653e-11,9.8884925e-08,1.1229098e-07,5e-08,0.0,0.0,0.0,0.0,0.0,0.0,0.0,0.0,659,1.4273541,0.2544935,0.08700829,0.0,0.0016704978,0.009093774,0.0,0.054814063,0.0,0.001909,0,0,0,229,24,0,0,0
186730108,-0.10181876,0.06822567,0.062084965,-0.99051696,-0.25652295,0.6542821,-0.27820635,-0.50719357,1.6283846,-1.2481906,-1.8675611e-05,1.4394609e-05,-5.3602653e-06,-0.0010986321,0.0020187234,0.0005620601,0.3720349,-4.9758904e-09,0.47024006,0.0,0.0,0.0,0.0,0.0,1.7748739e-06,0.0012956294,0.025633644,3.6250698e-05,1.0827227e-05,1.1352907e-05,4.9345107e-07,0.06718167,0.06716281,0.012066483,1.0168886,1.0166527,0.06414225,1.214567e-11,1.2150074e-11,1.8273962e-11,9.888574e-08,1.12288454e-07,5.0000036e-08,0.0,0.0,0.0,0.0,0.0,0.0,0.0,0.0,659,1.4260229,0.2532632,0.080936715,0.0,0.0016316419,0.054953523,0.0,0.063837506,0.0,0.001708,0,0,0,229,24,0,0,0
186938252,-0.09607558,0.037457258,0.03502755,-0.99405205,-0.06839509,0.77832705,-0.11701955,-0.48692578,1.6132164,-1.3221688,-1.8830866e-05,1.4317411e-05,-5.3606354e-06,-0.0010987567,0.0020181478,0.0005750838,0.3720349,-4.9758904e-09,0.47024006,0.0,0.0,0.0,0.0,0.0,2.2156732e-06,0.0012579951,0.023218947,3.6472255e-05,1.08111e-05,1.12880425e-05,3.980916e-07,0.06634274,0.06630884,0.0119466055,1.0090489,1.0088185,0.06306337,1.2150078e-11,1.2154581e-11,1.828175e-11,9.8886595e-08,1.1228533e-07,5e-08,0.0,0.0,0.0,0.0,0.0,0.0,0.0,0.0,659,1.4205166,0.2511242,0.023794869,0.0,0.0016213865,0.010525471,0.0,0.022740323,0.0,0.001831,0,0,0,229,24,0,0,0
187138259,-0.08603455,-0.015273042,-0.012043492,-0.99610233,-0.03602609,0.7701896,-0.025461143,-0.45525333,1.6371619,-1.3459072,-1.8952946e-05,1.4257748e-05,-5.4358097e-06,-0.0010988675,0.002017917,0.00057909364,0.3720349,-4.9758904e-09,0.47024006,0.0,0.0,0.0,0.0,0.0,1.5663604e-06,0.0011481844,0.021670813,3.6593745e-05,1.0876937e-05,1.1291552e-05,3.2654413e-07,0.066577666,0.06654662,0.012036876,1.0174646,1.0172378,0.063696474,1.2172283e-11,1.2176866e-11,1.8285293e-11,9.888741e-08,1.1228427e-07,5e-08,0.0,0.0,0.0,0.0,0.0,0.0,0.0,0.0,659,1.4264299,0.2523816,0.115669474,0.0,0.0016331748,0.024157453,0.0,0.024447193,0.0,0.001837,0,0,0,229,24,0,0,0
187346130,-0.075922534,-0.0054315296,-0.007124455,-0.9970735,-0.09419332,0.70131755,-0.01583103,-0.42577904,1.6249508,-1.3216045,-1.910204e-05,1.4187077e-05,-5.547283e-06,-0.0010990591,0.002018156,0.0005683651,0.3720349,-4.9758904e-09,0.47024006,0.0,0.0,0.0,0.0,0.0,1.1471087e-06,0.0010456818,0.021791566,3.6695266e-05,1.0890053e-05,1.1291679e-05,2.730129e-07,0.06624196,0.066218175,0.011938313,1.0085981,1.0083858,0.0627213,1.2180408e-11,1.21851305e-11,1.8292963e-11,9.888822e-08,1.1228257e-07,5e-08,0.0,0.0,0.0,0.0,0.0,0.0,0.0,0.0,659,1.4202056,0.2504422,0.056966566,0.0,0.0016331085,0.038078334,0.0,0.02471716,0.0,0.001739,0,0,0,229,24,0,0,0
187547796,-0.068704985,0.00019492928,0.003268414,-0.99763167,-0.11342212,0.6594238,0.039678592,-0.41496652,1.6291667,-1.3102185,-1.9218514e-05,1.41275805e-05,-5.8145743e-06,-0.0010993412,0.0020181008,0.0005649281,0.3720349,-4.9758904e-09,0.47024006,0.0,0.0,0.0,0.0,0.0,9.543262e-07,0.0010124012,0.020346947,3.6698333e-05,1.0934527e-05,1.1335714e-05,2.4304077e-07,0.06670154,0.06668236,0.012033816,1.0167571,1.0165539,0.06345038,1.2209012e-11,1.22138254e-11,1.8288511e-11,9.8889046e-08,1.1228138e-07,5.0000075e-08,0.0,0.0,0.0,0.0,0.0,0.0,0.0,0.0,659,1.4259421,0.25189358,0.15572432,0.0,0.0016257991,0.009650952,0.0,0.035643313,0.0,0.001793,0,0,0,229,24,0,0,0
187747865,-0.058758758,0.011128643,-0.025039116,-0.99789613,-0.16177535,0.36488235,-0.108721435,-0.40119806,1.5877976,-1.2457379,-1.93611e-05,1.4054352e-05,-6.1786463e-06,-0.001099676,0.0020180196,0.00056225824,0.3720349,-4.9758904e-09,0.47024006,0.0,0.0,0.0,0.0,0.0,1.1829885e-06,0.0010007902,0.01837022,3.6713915e-05,1.0989974e-05,1.1338289e-05,2.1289677e-07,0.066656366,0.06665228,0.011873029,1.003532,1.003348,0.06219471,1.2215705e-11,1.2220622e-11,1.8291937e-11,0.0,0.0,0.0,0.0,0.0,0.0,0.0,0.0,0.0,0.0,0.0,659,1.416644,0.24938866,0.19195372,0.0,0.0015957644,0.027587555,0.0,0.055761673,0.0,0.001874,0,0,0,229,24,0,0,0
187947803,-0.040302776,0.007926691,-0.012349668,-0.99907976,-0.18389449,0.031991,0.22975665,-0.40667942,1.501041,-1.2514439,-1.9467827e-05,1.3995753e-05,-6.5320273e-06,-0.0010996736,0.0020180114,0.000562253,0.3720349,-4.9758904e-09,0.47024006,0.0,0.0,0.0,0.0,0.0,1.2210022e-06,0.00093085517,0.016083142,3.681825e-05,1.1035252e-05,1.1380373e-05,1.5782904e-07,0.06670987,0.06669908,0.011210752,1.0112455,1.0110927,0.062850535,1.22427485e-11,1.2247728e-11,1.829544e-11,9.8890574e-08,1.1228063e-07,5.000086e-08,0.0,0.0,0.0,0.0,0.0,0.0,0.0,0.0,659,1.4220893,0.2507001,0.05385773,0.0,0.0015075622,0.028595911,0.0,0.055761673,0.0,0.001812,0,0,0,229,24,0,0,0
188147904,-0.017431563,0.0009780709,-0.022220502,-0.9996007,-0.2598451,-0.464519,0.15303996,-0.41692212,1.3191146,-1.2393985,-1.9578194e-05,1.3932095e-05,-6.881375e-06,-0.0010996491,0.0020179376,0.0005621668,0.3720349,-4.9758904e-09,0.47024006,0.0,0.0,0.0,0.0,0.0,1.0163532e-06,0.00080123165,0.01267727,3.680221e-05,1.1102108e-05,1.1387674e-05,1.2966821e-07,0.06757794,0.067519575,0.010577091,1.0083814,1.0082777,0.062301993,1.2260568e-11,1.2265577e-11,1.8286617e-11,9.889144e-08,1.1228149e-07,5.0001617e-08,0.0,0.0,0.0,0.0,0.0,0.0,0.0,0.0,659,1.4200912,0.24960367,0.15239514,0.0,0.0013294577,0.0025844171,0.0,0.055761673,0.0,0.001871,0,0,0,229,24,0,0,0
188353349,0.008002898,0.004010191,-0.027637191,-0.999578,-0.31381258,-1.037767,0.10219133,-0.44219688,1.0576763,-1.2188624,-1.9660427e-05,1.387789e-05,-7.1462578e-06,-0.00109959,0.0020177776,0.00056194403,0.3720349,-4.9758904e-09,0.47024006,0.0,0.0,0.0,0.0,0.0,1.0224417e-06,0.0008139422,0.01240385,3.682832e-05,1.11947475e-05,1.1426363e-05,1.3834482e-07,0.069479115,0.06929795,0.010205435,1.0189196,1.0188684,0.06284915,1.2291635e-11,1.2296643e-11,1.8294182e-11,9.8892215e-08,1.1228222e-07,5.000163e-08,0.0,0.0,0.0,0.0,0.0,0.0,0.0,0.0,659,1.4275111,0.2506973,0.12994258,0.0,0.0010795064,0.041843,0.0,0.055761673,0.0,0.001752,0,0,0,229,24,0,0,0
188553430,0.027058352,0.0026501422,-0.025635906,-0.9993016,-0.36663428,-1.6041515,0.07680196,-0.46870312,0.71048653,-1.2188846,-1.9727677e-05,1.3820855e-05,-7.3524884e-06,-0.0010994683,0.0020175555,0.00056201144,0.3720349,-4.9758904e-09,0.47024006,0.0,0.0,0.0,0.0,0.0,6.930182e-07,0.00060422556,0.008931192,3.6762787e-05,1.123016e-05,1.1435782e-05,1.7138542e-07,0.070886165,0.070515364,0.009852837,1.0143625,1.0143491,0.061862312,1.2307395e-11,1.2312373e-11,1.8283652e-11,9.889246e-08,1.12282265e-07,5.000007e-08,0.0,0.0,0.0,0.0,0.0,0.0,0.0,0.0,659,1.4243284,0.24872136,0.08157957,0.0,0.00073955546,0.008509532,0.0,0.055761673,0.0,0.001839,0,0,0,229,24,0,0,0
188761349,0.030650234,0.002917903,-0.019759884,-0.9993306,-0.41435862,-1.9037709,0.04641129,-0.5072876,0.2853955,-1.2112771,-1.9759505e-05,1.3766816e-05,-7.537527e-06,-0.0010992646,0.0020173595,0.00056203053,0.3720349,-4.9758904e-09,0.47024006,0.0,0.0,0.0,0.0,0.0,4.1587003e-07,0.00038623452,0.0057239076,3.6750313e-05,1.125162e-05,1.14660215e-05,1.7688726e-07,0.07276211,0.07232433,0.009598632,1.0144055,1.0143938,0.061194576,1.2328612e-11,1.2333581e-11,1.8278967e-11,9.889161e-08,1.1228085e-07,5e-08,0.0,0.0,0.0,0.0,0.0,0.0,0.0,0.0,659,1.4243592,0.24737537,0.072209485,0.0,0.0005099146,0.016891992,0.0,0.055761673,0.0,0.001758,0,0,0,229,24,0,0,0
188961276,0.031504102,0.0032023801,-0.020764291,-0.99928284,-0.4241869,-1.9625974,0.04657273,-0.542862,-0.10863506,-1.1989889,-1.975666e-05,1.3716127e-05,-7.698772e-06,-0.0010989602,0.0020173138,0.0005618624,0.3720349,-4.9758904e-09,0.47024006,0.0,0.0,0.0,0.0,0.0,2.5358855e-07,0.00025730958,0.0038154244,3.6770583e-05,1.1273942e-05,1.1484041e-05,1.7830855e-07,0.074445784,0.07409922,0.00938877,1.0114682,1.0114223,0.060242303,1.23462325e-11,1.235125e-11,1.8282553e-11,9.8888854e-08,1.1227692e-07,5.0000036e-08,0.0,0.0,0.0,0.0,0.0,0.0,0.0,0.0,659,1.4222835,0.24544308,0.055767175,0.0,0.0005421282,0.039415304,0.0,0.055761673,0.0,0.001672,0,0,0,229,24,0,0,0
189169338,0.032364693,0.0042046513,-0.020058349,-0.9992661,-0.31737715,-1.9408776,0.04563434,-0.048318416,-0.20387642,-1.1808364,-1.9325047e-05,1.3219197e-05,-7.895265e-06,-0.0010936451,0.0020239449,0.0005609968,0.3720349,-4.9758904e-09,0.47024006,0.0,0.0,0.0,0.0,0.0,1.5113362e-07,0.00016721949,0.0025745109,3.6747788e-05,9.131385e-06,9.341392e-06,1.7849918e-07,0.028868834,0.028680306,0.009333305,0.032012917,0.03201001,0.060448453,1.1508778e-11,1.1511722e-11,1.827583e-11,9.879347e-08,1.12153764e-07,5.0000036e-08,0.0,0.0,0.0,0.0,0.0,0.0,0.0,0.0,531,0.25302753,0.24586268,0.06590603,0.0,0.0040316326,0.037566744,0.0,0.00017374808,0.0,0.0017,0,0,0,229,24,0,0,0
189370969,0.032834325,0.004468008,-0.01943044,-0.9992619,-0.31475714,-1.9031779,0.044990543,-0.06589504,-0.3617756,-1.1674513,-1.875126e-05,1.3192638e-05,-8.060511e-06,-0.0010882091,0.0020534843,0.00055996695,0.3720349,-4.9758904e-09,0.47024006,0.0,0.0,0.0,0.0,0.0,9.235473e-08,0.00012541344,0.0022412052,3.675239e-05,9.047084e-06,9.253251e-06,1.7847802e-07,0.030114716,0.030062117,0.009293006,0.016746553,0.016741294,0.05949628,1.1514224e-11,1.1516306e-11,1.827878e-11,9.858048e-08,1.1187903e-07,5.000004e-08,0.0,0.0,0.0,0.0,0.0,0.0,0.0,0.0,531,0.18299685,0.2439186,0.07100343,0.0,0.007172367,0.029839516,0.0,0.0030908708,0.0,0.001704,0,0,0,229,24,0,0,0
189570966,0.033064768,0.004796536,-0.01781066,-0.9992831,-0.30574134,-1.8096827,0.038608063,-0.09077748,-0.5251671,-1.162101,-1.7838955e-05,1.31688375e-05,-8.213433e-06,-0.0010775585,0.0021152264,0.0005583454,0.3720349,-4.9758904e-09,0.47024006,0.0,0.0,0.0,0.0,0.0,5.6351478e-08,9.444689e-05,0.001665826,3.6739013e-05,8.86306e-06,9.064784e-06,1.7766652e-07,0.031317275,0.031409986,0.009401358,0.013586409,0.013582681,0.059446346,1.1489728e-11,1.1490307e-11,1.827404e-11,9.81118e-08,1.1127517e-07,5.000007e-08,0.0,0.0,0.0,0.0,0.0,0.0,0.0,0.0,531,0.16483049,0.24381621,0.06369796,0.0,0.010198419,0.016444067,0.0,0.00015579043,0.0,0.001752,0,0,0,229,24,0,0,0
189770925,0.033471685,0.0053130463,-0.015563325,-0.9993044,-0.28155366,-1.6327293,0.027701287,-0.10798994,-0.6330227,-1.1643922,-1.6430227e-05,1.3137686e-05,-8.403819e-06,-0.0010589029,0.0022237387,0.0005558509,0.3720349,-4.9758904e-09,0.47024006,0.0,0.0,0.0,0.0,0.0,3.460262e-08,7.804225e-05,0.0014393667,3.6643018e-05,8.477899e-06,8.671726e-06,1.7697766e-07,0.031171456,0.03139424,0.009563832,0.012911506,0.012918117,0.059418596,1.1407812e-11,1.1405724e-11,1.8252448e-11,9.722735e-08,1.10136476e-07,5.000011e-08,0.0,0.0,0.0,0.0,0.0,0.0,0.0,0.0,531,0.16071597,0.2437593,0.09321524,0.0,0.012182846,0.030222084,0.0,0.004862339,0.0,0.001734,0,0,0,229,24,0,0,0
189970946,0.03400418,0.006089591,-0.011859445,-0.99933285,-0.23823084,-1.3394552,0.0120604625,-0.10848086,-0.63617164,-1.1750222,-1.4429637e-05,1.309467e-05,-8.57984e-06,-0.0010294011,0.0023929377,0.00055175537,0.3720349,-4.9758904e-09,0.47024006,0.0,0.0,0.0,0.0,0.0,2.1201256e-08,6.4131316e-05,0.0011743347,3.658346e-05,7.8134835e-06,7.99593e-06,1.7651503e-07,0.028666086,0.028966093,0.009691112,0.012434522,0.012455777,0.05853651,1.1250857e-11,1.1244031e-11,1.8238303e-11,9.572346e-08,1.08202904e-07,5.0000036e-08,0.0,0.0,0.0,0.0,0.0,0.0,0.0,0.0,531,0.1577666,0.2419432,0.08030181,0.0,0.012827171,0.012278366,0.0,0.0054412642,0.0,0.001755,0,0,0,229,24,0,0,0
190172627,0.03469286,0.0068188566,-0.0083411345,-0.99933994,-0.19218563,-1.0282496,-0.0026092073,-0.102065615,-0.5925344,-1.1897441,-1.2521496e-05,1.3051018e-05,-8.766772e-06,-0.0009986282,0.0025666375,0.0005474723,0.3720349,-4.9758904e-09,0.47024006,0.0,0.0,0.0,0.0,0.0,1.315358e-08,5.9446338e-05,0.0013613869,3.653174e-05,7.129991e-06,7.3015467e-06,1.7644189e-07,0.025389845,0.025716765,0.009872546,0.012299094,0.012334991,0.05780556,1.110198e-11,1.1089131e-11,1.822628e-11,9.4026085e-08,1.06026455e-07,5e-08,0.0,0.0,0.0,0.0,0.0,0.0,0.0,0.0,531,0.1569525,0.24042787,0.05852238,0.0,0.012156099,0.036284313,0.0,0.0046248455,0.0,0.001836,0,0,0,229,24,0,0,0
190380543,0.03518268,0.007387896,-0.0054579494,-0.99933875,-0.15293136,-0.7543435,-0.013922039,-0.0957739,-0.5429938,-1.1981469,-1.1009982e-05,1.3011364e-05,-8.971759e-06,-0.0009718003,0.0027142966,0.0005422615,0.3720349,-4.9758904e-09,0.47024006,0.0,0.0,0.0,0.0,0.0,8.100424e-09,5.6653593e-05,0.0012227733,3.6464455e-05,6.5670206e-06,6.7312258e-06,1.7573365e-07,0.022478499,0.022805449,0.010206772,0.012857982,0.012910392,0.0583296,1.1005994e-11,1.0986605e-11,1.8214943e-11,9.240885e-08,1.0396137e-07,5.0000036e-08,0.0,0.0,0.0,0.0,0.0,0.0,0.0,0.0,531,0.1605253,0.24151522,0.09544094,0.0,0.0110222595,0.010347368,0.0,0.003742832,0.0,0.001711,0,0,0,229,24,0,0,0
190580520,0.035976693,0.00745604,-0.0051481943,-0.9993116,-0.15262379,-0.69806445,-0.017914489,-0.119891465,-0.65632915,-1.2102311,-1.0827794e-05,1.301134e-05,-9.225601e-06,-0.0009691332,0.0027324385,0.0005435369,0.3720349,-4.9758904e-09,0.47024006,0.0,0.0,0.0,0.0,0.0,9.624492e-09,6.7898654e-05,0.0014364097,3.642667e-05,6.642076e-06,6.803419e-06,1.7594834e-07,0.024658479,0.025073666,0.010537507,0.018434836,0.018551787,0.0586161,1.1083329e-11,1.1063076e-11,1.8206978e-11,9.2195705e-08,1.0369102e-07,5.000007e-08,0.0,0.0,0.0,0.0,0.0,0.0,0.0,0.0,659,0.19231907,0.24210763,0.080284975,0.0,0.00064521935,0.011695519,0.0,0.0019978208,0.0,0.001721,0,0,0,229,24,0,0,0
190780522,0.036198623,0.007252251,-0.0049708122,-0.99930596,-0.15826151,-0.6710922,-0.015309753,-0.15011065,-0.79239297,-1.1991105,-1.0818356e-05,1.3015729e-05,-9.430735e-06,-0.0009694356,0.0027333314,0.00054027105,0.3720349,-4.9758904e-09,0.47024006,0.0,0.0,0.0,0.0,0.0,8.929203e-09,9.765266e-05,0.002130167,3.645561e-05,6.8080167e-06,6.9668417e-06,1.7496497e-07,0.027847176,0.028372517,0.010808362,0.026997738,0.02722952,0.05815682,1.1184446e-11,1.1164237e-11,1.8212489e-11,9.21841e-08,1.0367741e-07,5.0000036e-08,0.0,0.0,0.0,0.0,0.0,0.0,0.0,0.0,659,0.23286746,0.24115725,0.09971162,0.0,0.0007871686,0.0141315805,0.0,0.0019978208,0.0,0.001731,0,0,0,229,24,0,0,0
190989493,0.03749125,0.007199496,-0.005166282,-0.99925774,-0.16157979,-0.64484483,-0.017600896,-0.18197656,-0.9266831,-1.2056118,-1.0802096e-05,1.3020886e-05,-9.687069e-06,-0.0009698819,0.002734751,0.0005411649,0.3720349,-4.9758904e-09,0.47024006,0.0,0.0,0.0,0.0,0.0,1.27697515e-08,0.00013959095,0.0027699012,3.6442805e-05,6.9816056e-06,7.13734e-06,1.7661152e-07,0.031412236,0.03205774,0.011129972,0.038743153,0.03915458,0.058097716,1.1288952e-11,1.1268757e-11,1.8209888e-11,9.21639e-08,1.036531e-07,5.0000036e-08,0.0,0.0,0.0,0.0,0.0,0.0,0.0,0.0,659,0.27910167,0.24103467,0.08255206,0.0,0.00092183956,0.03450745,0.0,0.0019978208,0.0,0.001902,0,0,0,229,24,0,0,0
191190201,0.038117494,0.007239238,-0.0051053967,-0.9992341,-0.16619337,-0.6157812,-0.017520793,-0.21345462,-1.0491904,-1.2041645,-1.0783225e-05,1.3024783e-05,-9.90523e-06,-0.0009700317,0.0027366607,0.00053982943,0.3720349,-4.9758904e-09,0.47024006,0.0,0.0,0.0,0.0,0.0,1.45412855e-08,0.00015976669,0.003179029,3.641218e-05,7.1487016e-06,7.3018946e-06,1.7657851e-07,0.035075255,0.035841208,0.011427626,0.05318427,0.053838357,0.05795762,1.1390405e-11,1.137018e-11,1.8205054e-11,9.213289e-08,1.0361509e-07,5.0000036e-08,0.0,0.0,0.0,0.0,0.0,0.0,0.0,0.0,659,0.32714313,0.24074389,0.10227499,0.0,0.0010444506,0.019380875,0.0,0.0019978208,0.0,0.00181,0,0,0,229,24,0,0,0
191390078,0.037168242,0.0072212867,-0.005112278,-0.9992699,-0.17229441,-0.58728254,-0.012491802,-0.24559821,-1.1643405,-1.1967868,-1.0760355e-05,1.3027809e-05,-1.0107177e-05,-0.0009699197,0.0027391692,0.00053652935,0.3720349,-4.9758904e-09,0.47024006,0.0,0.0,0.0,0.0,0.0,2.1844839e-08,0.00022444615,0.0038331356,3.644516e-05,7.3138026e-06,7.4657496e-06,1.7249451e-07,0.038937643,0.03982717,0.011730643,0.07102272,0.07199748,0.057975166,1.1490865e-11,1.1470547e-11,1.82124e-11,9.208771e-08,1.035591e-07,5.0000036e-08,0.0,0.0,0.0,0.0,0.0,0.0,0.0,0.0,659,0.37818012,0.24078032,0.120392054,0.0,0.0011599628,0.014645464,0.0,0.0019978208,0.0,0.001666,0,0,0,229,24,0,0,0
191598161,0.038341947,0.007218467,-0.0057923426,-0.9992218,-0.16977799,-0.5604879,-0.021690182,-0.2788222,-1.2741666,-1.2095747,-1.0729205e-05,1.302964e-05,-1.0300597e-05,-0.00096974877,0.002742551,0.00053946977,0.3720349,-4.9758904e-09,0.47024006,0.0,0.0,0.0,0.0,0.0,2.2540021e-08,0.00023071689,0.0044402713,3.6432855e-05,7.4830864e-06,7.632429e-06,1.7428204e-07,0.04314977,0.044169325,0.012065248,0.09344248,0.0948421,0.05836564,1.1592138e-11,1.1571639e-11,1.8209694e-11,9.20233e-08,1.0347905e-07,5.000007e-08,0.0,0.0,0.0,0.0,0.0,0.0,0.0,0.0,659,0.4339177,0.24158981,0.08329974,0.0,0.0012657291,0.0005892669,0.0,0.0019978208,0.0,0.001741,0,0,0,229,24,0,0,0
191798273,0.038899377,0.0072271735,-0.005514688,-0.9992018,-0.17816596,-0.5215104,-0.019325115,-0.3102361,-1.3694502,-1.2095535,-1.0692751e-05,1.303148e-05,-1.05273575e-05,-0.00096931437,0.002746693,0.0005380614,0.3720349,-4.9758904e-09,0.47024006,0.0,0.0,0.0,0.0,0.0,1.607893e-08,0.0002217295,0.004334325,3.6401834e-05,7.641329e-06,7.788532e-06,1.739579e-07,0.047325183,0.048470147,0.012346654,0.11902152,0.12092315,0.058578994,1.1687689e-11,1.1666905e-11,1.8202804e-11,9.193652e-08,1.033709e-07,5.0000107e-08,0.0,0.0,0.0,0.0,0.0,0.0,0.0,0.0,659,0.48984146,0.24203098,0.07112981,0.0,0.0013576522,0.0073818453,0.0,0.03628541,0.0,0.001851,0,0,0,229,24,0,0,0
191995656,0.039305553,0.0072350875,-0.0057738563,-0.9991844,-0.18161215,-0.48318088,-0.022546016,-0.34137428,-1.4522038,-1.2210046,-1.0648973e-05,1.3030607e-05,-1.0694785e-05,-0.0009685538,0.0027518102,0.0005404184,0.3720349,-4.9758904e-09,0.47024006,0.0,0.0,0.0,0.0,0.0,1.6396662e-08,0.00026541835,0.0056045786,3.643026e-05,7.793335e-06,7.938826e-06,1.7381292e-07,0.051600147,0.052866768,0.012604421,0.14875944,0.15125751,0.058857974,1.17813545e-11,1.1760156e-11,1.8207965e-11,9.1821704e-08,1.03227464e-07,5.000007e-08,0.0,0.0,0.0,0.0,0.0,0.0,0.0,0.0,659,0.547738,0.24260662,0.053524025,0.0,0.0014455072,0.0042851847,0.0,0.02529536,0.0,0.001665,0,0,0,229,24,0,0,0
192203723,0.04006866,0.0071343635,-0.0063797766,-0.9991512,-0.18709014,-0.44312787,-0.02140229,-0.37303957,-1.5249752,-1.2249726,-1.0598471e-05,1.3029214e-05,-1.08942995e-05,-0.00096750783,0.002757823,0.00054002943,0.3720349,-4.9758904e-09,0.47024006,0.0,0.0,0.0,0.0,0.0,2.4582658e-08,0.00039474736,0.0072177104,3.6417565e-05,7.944494e-06,8.088331e-06,1.7446101e-07,0.056085095,0.057474013,0.012887346,0.18388623,0.187099,0.059466477,1.187536e-11,1.1853591e-11,1.8203345e-11,9.167562e-08,1.0304498e-07,5.0000107e-08,0.0,0.0,0.0,0.0,0.0,0.0,0.0,0.0,659,0.60908556,0.24385749,0.10570878,0.0,0.0015156551,0.00094213337,0.0,0.02529536,0.0,0.001732,0,0,0,229,24,0,0,0
192403751,0.040386766,0.0070312084,-0.006306265,-0.9991395,-0.1849981,-0.3996221,-0.011947897,-0.4025176,-1.5814072,-1.2121859,-1.05425e-05,1.3025147e-05,-1.1057688e-05,-0.00096585025,0.002764762,0.0005332849,0.3720349,-4.9758904e-09,0.47024006,0.0,0.0,0.0,0.0,0.0,3.027784e-08,0.0004758813,0.00878981,3.644625e-05,8.079921e-06,8.222522e-06,1.739799e-07,0.06038572,0.061880745,0.013083188,0.22228256,0.22627269,0.05982308,1.19642655e-11,1.194174e-11,1.8208293e-11,9.149015e-08,1.02813125e-07,5e-08,0.0,0.0,0.0,0.0,0.0,0.0,0.0,0.0,659,0.66974264,0.24458757,0.04467242,0.0,0.0015830018,0.024194462,0.0,0.02529536,0.0,0.001727,0,0,0,229,24,0,0,0
192603785,0.04091925,0.0070593026,-0.006265224,-0.9991179,-0.1851569,-0.35714528,-0.014431583,-0.43051815,-1.6256622,-1.2105296,-1.0484722e-05,1.302049e-05,-1.122161e-05,-0.0009642242,0.0027718337,0.000531292,0.3720349,-4.9758904e-09,0.47024006,0.0,0.0,0.0,0.0,0.0,2.9345115e-08,0.0004296375,0.009151674,3.647411e-05,8.213628e-06,8.355319e-06,1.7412373e-07,0.06477593,0.06637242,0.013361615,0.26544845,0.27031365,0.061105873,1.2052246e-11,1.2028863e-11,1.8213119e-11,9.129033e-08,1.0256346e-07,5.000007e-08,0.0,0.0,0.0,0.0,0.0,0.0,0.0,0.0,659,0.7319577,0.24719602,0.10179575,0.0,0.0016222193,0.009007128,0.0,0.04155373,0.0,0.001795,0,0,0,229,24,0,0,0
192809392,0.041737262,0.005947709,-0.007997951,-0.999079,-0.1832868,-0.3073346,-0.013764413,-0.45629114,-1.6517396,-1.2001914,-1.0412731e-05,1.3013168e-05,-1.1427219e-05,-0.00096199283,0.002780744,0.0005258234,0.3720349,-4.9758904e-09,0.47024006,0.0,0.0,0.0,0.0,0.0,3.5655777e-08,0.00048344542,0.010147611,3.6464175e-05,8.333256e-06,8.473982e-06,1.7527134e-07,0.06908944,0.070769794,0.013515835,0.31408504,0.319901,0.06172286,1.2139368e-11,1.2114774e-11,1.8209795e-11,9.101771e-08,1.0222306e-07,5e-08,0.0,0.0,0.0,0.0,0.0,0.0,0.0,0.0,659,0.7962324,0.24844086,0.060880892,0.0,0.0016544141,0.0015080041,0.0,0.04155373,0.0,0.001752,0,0,0,229,24,0,0,0
193009417,0.04244032,0.0054620034,-0.009046011,-0.9990431,-0.18363078,-0.25826076,-0.009736999,-0.4778657,-1.6608152,-1.2126944,-1.03409275e-05,1.3004523e-05,-1.164148e-05,-0.0009600192,0.0027896222,0.0005293636,0.3720349,-4.9758904e-09,0.47024006,0.0,0.0,0.0,0.0,0.0,4.368234e-08,0.0005418896,0.010930107,3.6491354e-05,8.441895e-06,8.582375e-06,1.7598937e-07,0.073094375,0.07484429,0.013698447,0.36442506,0.37119883,0.06277956,1.2219933e-11,1.2194029e-11,1.8212787e-11,9.0732456e-08,1.0186724e-07,5.0000036e-08,0.0,0.0,0.0,0.0,0.0,0.0,0.0,0.0,659,0.8576852,0.2505585,0.107638985,0.0,0.0016620335,0.025288638,0.0,0.04155373,0.0,0.00182,0,0,0,229,24,0,0,0
193209306,0.04319377,0.005203109,-0.009915894,-0.99900395,-0.18165955,-0.20084755,-0.006096867,-0.4976975,-1.6547261,-1.2053937,-1.0265537e-05,1.2994954e-05,-1.1889173e-05,-0.0009576431,0.0027989096,0.00052526663,0.3720349,-4.9758904e-09,0.47024006,0.0,0.0,0.0,0.0,0.0,4.4901533e-08,0.000533919,0.011438045,3.6460915e-05,8.5411375e-06,8.681985e-06,1.7648388e-07,0.07694747,0.07874769,0.013855317,0.41880366,0.4265666,0.06393221,1.2299478e-11,1.2272032e-11,1.8205352e-11,9.040786e-08,1.01462874e-07,5.0000068e-08,0.0,0.0,0.0,0.0,0.0,0.0,0.0,0.0,659,0.9194402,0.2528482,0.07605492,0.0,0.0016550585,0.013510463,0.0,0.04155373,0.0,0.001715,0,0,0,229,24,0,0,0
193417390,0.044124987,0.004348926,-0.010003216,-0.99896646,-0.19312923,-0.14241989,-0.025978379,-0.51654845,-1.6291332,-1.2274417,-1.0185692e-05,1.2981688e-05,-1.2080025e-05,-0.00095514726,0.0028088633,0.0005324287,0.3720349,-4.9758904e-09,0.47024006,0.0,0.0,0.0,0.0,0.0,7.6366824e-08,0.0006189899,0.013093841,3.644964e-05,8.636969e-06,8.778162e-06,1.7770301e-07,0.08078253,0.08261796,0.014021767,0.478876,0.487675,0.06538984,1.2380235e-11,1.2350992e-11,1.8201954e-11,9.004161e-08,1.01007146e-07,5.0000104e-08,0.0,0.0,0.0,0.0,0.0,0.0,0.0,0.0,659,0.98313326,0.2557144,0.060779486,0.0,0.0016298848,0.040109687,0.0,0.04155373,0.0,0.001799,0,0,0,229,24,0,0,0
193617375,0.045058586,0.003853086,-0.009232199,-0.9989343,-0.1878609,-0.077761136,-0.032024242,-0.53091305,-1.5835708,-1.2432162,-1.0104127e-05,1.2965588e-05,-1.2233833e-05,-0.0009521825,0.0028190364,0.0005364185,0.3720349,-4.9758904e-09,0.47024006,0.0,0.0,0.0,0.0,0.0,1.9502039e-07,0.0007132984,0.013039698,3.6476868e-05,8.711477e-06,8.853791e-06,1.7891065e-07,0.0839664,0.08580587,0.014090657,0.53786397,0.547579,0.066336654,1.2453847e-11,1.242253e-11,1.8206634e-11,8.963227e-08,1.0049837e-07,5.000007e-08,0.0,0.0,0.0,0.0,0.0,0.0,0.0,0.0,659,1.0418459,0.25755903,0.06740155,0.0,0.0015868077,0.022260956,0.0,0.04155373,0.0,0.001777,0,0,0,229,24,0,0,0
193818943,0.04599345,-0.010405523,-0.010184644,-0.9988356,-0.22370076,-0.012473249,-0.051841017,-0.54414874,-1.5118815,-1.235383,-1.0012807e-05,1.2944602e-05,-1.2354426e-05,-0.000948083,0.0028302008,0.0005283928,0.3720349,-4.9758904e-09,0.47024006,0.0,0.0,0.0,0.0,0.0,3.2189914e-07,0.00082738843,0.01434577,3.644706e-05,8.750602e-06,8.895914e-06,1.838771e-07,0.08630391,0.08810443,0.013978811,0.59423083,0.60464555,0.06607366,1.2520466e-11,1.2486506e-11,1.819894e-11,8.912743e-08,9.987197e-08,5e-08,0.0,0.0,0.0,0.0,0.0,0.0,0.0,0.0,659,1.0949321,0.25704798,0.03644356,0.0,0.0015164866,0.002041339,0.0,0.04155373,0.0,0.001715,0,0,0,229,24,0,0,0
194027029,0.048392225,-0.022604456,-0.010091422,-0.9985217,-0.29531825,0.026883882,-0.04673701,-0.5667682,-1.4283214,-1.1878037,-9.924035e-06,1.2922284e-05,-1.2462377e-05,-0.00094325567,0.0028406852,0.000504457,0.3720349,-4.9758904e-09,0.47024006,0.0,0.0,0.0,0.0,0.0,3.442865e-07,0.00097074633,0.017455291,3.6424248e-05,8.787107e-06,8.946596e-06,1.952221e-07,0.088406645,0.09015716,0.013912105,0.65414035,0.6651997,0.066287726,1.2592585e-11,1.2555685e-11,1.819926e-11,8.859097e-08,9.920728e-08,5.0000036e-08,0.0,0.0,0.0,0.0,0.0,0.0,0.0,0.0,659,1.1486253,0.25746402,0.05780685,0.0,0.0014330803,0.03841553,0.0,0.04155373,0.0,0.001838,0,0,0,229,24,0,0,0
194226911,0.051528558,-0.019083435,-0.0019263984,-0.99848735,-0.39799425,0.07334821,-0.04308087,-0.6039559,-1.3429251,-1.1696067,-9.846432e-06,1.289881e-05,-1.2562701e-05,-0.00093900313,0.0028498448,0.00049242424,0.3720349,-4.9758904e-09,0.47024006,0.0,0.0,0.0,0.0,0.0,3.5738415e-07,0.0009923012,0.017760899,3.644141e-05,8.837011e-06,8.9911255e-06,1.999298e-07,0.09024284,0.091940396,0.0139222285,0.71266097,0.72427636,0.06708253,1.2658766e-11,1.2619029e-11,1.8203727e-11,8.808935e-08,9.858686e-08,5.000007e-08,0.0,0.0,0.0,0.0,0.0,0.0,0.0,0.0,659,1.1987232,0.25900295,0.015801046,0.0,0.0013484461,0.10244675,0.0,0.031487033,0.0,0.00172,0,0,0,229,24,0,0,0
194427010,0.05322309,-0.012534989,0.0032660104,-0.9984987,-0.46659616,0.14253122,-0.06672551,-0.64274126,-1.2253773,-1.2124226,-9.754854e-06,1.2861731e-05,-1.2629768e-05,-0.0009338848,0.002861182,0.0005038277,0.3720349,-4.9758904e-09,0.47024006,0.0,0.0,0.0,0.0,0.0,2.7038783e-07,0.0009171477,0.017116634,3.6463443e-05,8.834904e-06,8.984016e-06,2.0111221e-07,0.09039746,0.091973566,0.013641508,0.7584014,0.77007496,0.06568316,1.2714075e-11,1.2670555e-11,1.8208053e-11,8.744469e-08,9.7790966e-08,5e-08,0.0,0.0,0.0,0.0,0.0,0.0,0.0,0.0,659,1.2363156,0.25628728,0.0089099305,0.0,0.0012304081,0.066878736,0.0,0.0520402,0.0,0.001819,0,0,0,229,24,0,0,0
