timestamp,gyro_rad[0],gyro_rad[1],gyro_rad[2],gyro_integral_dt,accelerometer_timestamp_relative,accelerometer_m_s2[0],accelerometer_m_s2[1],accelerometer_m_s2[2],accelerometer_integral_dt
175388022,-0.0024010132,0.0014779973,-0.00015823469,4000,0,-0.015634343,0.05049521,-9.728212,4000
175392830,-0.002281069,0.0018115914,-0.0013107079,4808,0,-0.009043885,0.025934424,-9.739037,4808
175396823,-0.0031312746,0.0022240293,-0.0016578891,3993,0,0.0045689726,0.019921089,-9.740776,3993
175400826,-0.0035701608,0.0014658177,-0.00060747284,4003,0,-0.010728278,0.029042635,-9.752324,4003
175436822,-0.0025802471,0.0044614514,-0.0023932445,4000,0,-0.0136309955,0.023368876,-9.7447,4000
175440860,-0.0038049463,0.0017896108,0.0014219127,4038,0,-0.0055340664,0.031964403,-9.745088,4038
175444828,-0.0015521207,0.0003977531,0.00058757124,3968,0,0.005509723,0.0414439,-9.742582,3968
175448822,-0.0017731213,0.0030569474,0.0003692253,3994,0,0.008293645,0.0289911,-9.739833,3994
175452822,-0.0017747277,0.004558482,0.0004929666,4000,0,0.0021234183,0.028013693,-9.732243,4000
175456835,-0.001743113,0.0033901287,-0.0019463309,4013,0,0.00475094,0.028456524,-9.722787,4013
175460822,-0.0026035467,0.0009449208,-0.0012301,3987,0,0.002459291,0.03956614,-9.758274,3987
175465621,-0.0019230623,0.0016352136,-0.0017426219,4799,0,0.0019598773,0.0386443,-9.748028,4799
175470422,-0.0019286781,0.00039668562,-0.0013121597,4801,0,0.00038773366,0.042229865,-9.742497,4801
175474456,-0.003346721,0.0015899424,-0.0010181888,4034,0,-0.0023995254,0.04232056,-9.7436285,4034
175478421,-0.0017511355,0.0022215068,-0.001658704,3965,0,0.00643914,0.05351614,-9.738295,3965
175482421,-0.0026034424,0.0011651703,-0.0017740233,4000,0,-0.0001330975,0.06349625,-9.737997,4000
175486421,-0.0043941,9.754743e-05,-0.002639517,4000,0,-0.009361455,0.04862432,-9.74703,4000
175490421,-0.0023981042,0.0016771558,-0.0017579808,4000,0,-0.010008392,0.043763854,-9.736774,4000
175494473,-0.0016121216,0.003078044,-0.0034398187,4052,0,-0.0063119135,0.05289014,-9.725659,4052
175498422,-0.0015342383,0.0011495838,-0.0014264336,3949,0,-0.0061522475,0.057654735,-9.7442665,3949
175502421,-0.0021712906,0.0017977863,-0.0017547049,3999,0,-0.007496896,0.048139457,-9.747016,3999
175506427,-0.0024931435,0.0021175006,-0.001544918,4006,0,-0.016355203,0.034661848,-9.712568,4006
175510421,-0.0036530667,0.0014881834,-0.0024103133,3994,0,-0.003377245,0.050409805,-9.706647,3994
175514459,-0.0011132213,0.0024345762,-0.0010983571,4038,0,-0.0017984669,0.04895579,-9.721981,4038
175518421,5.315769e-05,0.0024348868,-0.0011959908,3962,0,-0.008787665,0.027603257,-9.758386,3962
175522422,-4.245604e-05,0.0022255252,-0.001621658,4001,0,-0.016012248,0.033778187,-9.741913,4001
175526427,-0.0011207564,0.0013712426,-0.001421908,4005,0,0.00926581,0.03760922,-9.738838,4005
175530424,-0.002485723,0.002114548,-0.0016509958,3997,0,-0.0042215227,0.03799228,-9.711895,3997
175534422,-0.0021735008,0.0022228053,-0.0015411266,3998,0,0.0024433753,0.05715715,-9.720786,3998
175538471,-0.0017594949,0.0010522039,-0.0006821155,4049,0,-0.0055937255,0.065276794,-9.715065,4049
175542422,-0.0015540547,0.002328758,0.0005928253,3951,0,-0.0012131534,0.062413,-9.717704,3951
175546461,-0.0011238417,0.0020158868,-0.00013878928,4039,0,0.0015980855,0.05102504,-9.727021,4039
175550422,-0.0014565894,0.0054014954,0.00028563684,3961,0,0.013972639,0.07682739,-9.744331,3961
175554423,-0.00092160905,0.0029632796,0.00028612636,4001,0,-0.0012388722,0.053456116,-9.760667,4001
175558422,-0.0016647181,0.0020399473,-0.00015060132,3999,0,-0.0060852924,0.06384247,-9.742379,3999
175562422,-0.0032611121,0.00072237727,-6.5570115e-05,4000,0,-0.008771393,0.05236323,-9.724238,4000
175566427,-0.0019772348,0.002325444,-0.0003673958,4005,0,-0.002031834,0.050976682,-9.735081,4005
175570421,0.00060566526,0.0028684887,-0.0015077762,3994,0,0.0029465533,0.045279052,-9.729687,3994
175574422,-0.002171784,0.003074462,-0.0018542737,4001,0,0.0023259115,0.043822058,-9.746459,4001
175578435,-0.0023002296,0.0015811671,0.00014356646,4013,0,-0.014672272,0.0337959,-9.730071,4013
175582423,-0.001556145,0.0024316527,-4.3098607e-05,3988,0,-0.008920948,0.030437393,-9.742344,3988
175586422,-0.0024982586,0.002860241,-0.0011174022,3999,0,-0.012311763,0.031368818,-9.735282,3999
175590422,-0.00080033985,0.0014775076,-0.00078073464,4000,0,-0.01268383,0.05194817,-9.743735,4000
175594422,-0.0017525511,0.00072986295,-0.0012179356,4000,0,0.0010730776,0.038667876,-9.762605,4000
175598422,-0.0019450329,-0.00021649958,-0.0021847768,4000,0,-0.002099967,0.037175853,-9.76263,4000
175602443,-0.0012205187,0.0019015895,-0.001310522,4021,0,0.0023609535,0.023787063,-9.749798,4021
175607227,-0.0034711782,0.0034045023,0.0016076877,4784,0,-0.01295027,0.025860095,-9.737589,4784
175611221,-0.002196139,0.0028542117,5.9531907e-05,3994,0,-0.0063761068,0.027515525,-9.725713,3994
175615232,-0.0025932612,0.003186415,-0.002285717,4011,0,-0.0016324566,0.028007163,-9.73282,4011
175619222,-0.003148394,0.0056260345,-0.00068530877,3990,0,-0.0069233477,0.029011581,-9.761343,3990
175623236,-0.0014276316,0.0043549254,-0.001738019,4014,0,0.009942395,0.031420443,-9.755893,4014
175627222,-0.0012151218,0.001900069,-0.001635224,3986,0,0.008368406,0.030932603,-9.744462,3986
175631248,-0.0018723572,0.00020898836,-0.0005817142,4026,0,0.013695534,0.032312226,-9.7269945,4026
175635222,-0.0013464289,-0.00033917764,0.00037497477,3974,0,-0.007326485,0.04955143,-9.727096,3974
175639229,-0.0020829767,0.0009289334,0.00014517251,4007,0,-0.010894192,0.050609652,-9.732361,4007
175643222,-0.0044244784,0.004035015,-0.002002444,3993,0,-0.011629105,0.050200697,-9.757179,3993
175647222,-0.0018744719,0.0034955994,-4.340878e-05,4000,0,0.016639188,0.021326106,-9.7344475,4000
175651222,-0.0032426754,0.0016852437,-0.001662472,4000,0,0.013633949,0.03922306,-9.751115,4000
175655222,-0.0027072448,0.0015840888,-0.001443081,4000,0,0.01574567,0.032337315,-9.737748,4000
175659221,-0.0016648325,0.0019063625,0.00047433525,3999,0,0.005845862,0.027119193,-9.735563,3999
175663230,-0.0022774462,-0.0018182609,-0.0017676383,4009,0,-0.016523805,0.050003707,-9.734319,4009
175667223,-0.0012016165,0.002016009,-0.002697498,3993,0,-0.0070567266,0.028996868,-9.745646,3993
175671222,-0.0018575737,0.0024444696,-0.0013184999,3999,0,-0.009329878,0.017566064,-9.751414,3999
175675222,-0.0029382776,0.0017932553,-6.1625964e-05,4000,0,-0.022284862,0.022254122,-9.723565,4000
175679237,-0.0005014449,0.00041019366,0.00082369545,4015,0,-0.02390354,0.04854003,-9.705174,4015
175683230,-0.0018531554,0.0013797178,-0.0021856686,3993,0,0.0049509713,0.026119845,-9.737518,3993
175687247,-0.0015328901,0.0029574204,-0.0017301197,4017,0,-0.008260038,0.017582206,-9.732014,4017
175691222,-0.001535891,9.148417e-05,-0.0013250448,3975,0,-0.031493127,0.049585667,-9.73687,3975
175695222,-0.0042858804,0.0007363975,-0.002849349,4000,0,-0.0114433495,0.054312892,-9.730927,4000
175699228,-0.0029285066,0.00083988486,-0.0008032721,4006,0,-0.009035991,0.034241423,-9.74185,4006
175703226,-0.0021586874,0.0005240094,-0.0026120576,3998,0,0.00079871964,0.06052226,-9.738356,3998
175707222,-0.0017055777,0.0025577724,-0.004400165,3996,0,-0.007991447,0.002024469,-9.743736,3996
175711222,-0.0007528786,0.0030927588,-0.005571598,4000,0,-0.006301285,0.05191657,-9.74303,4000
175715248,-0.0006560614,0.0029728932,-0.005883329,4026,0,0.002531458,0.006157546,-9.762327,4026
175719222,-0.00290599,0.0020148822,-0.0046519293,3974,0,-0.0035090044,0.076286845,-9.7417145,3974
175723246,-0.0013738272,0.0009608677,-0.0069706403,4024,0,-0.004604148,0.0415186,-9.739905,4024
175727222,-0.00013796415,0.0035304846,-0.00885282,3976,0,-0.012261889,0.055568144,-9.718006,3976
175731222,-0.0010039759,0.000116583244,-0.009406993,4000,0,0.013561617,0.0696554,-9.704391,4000
175735222,-0.0005569071,0.003208202,-0.011308714,4000,0,-0.024595302,0.027988115,-9.725474,4000
175739222,-0.0016456704,0.00074581295,-0.008889138,4000,0,-0.015754463,0.07413769,-9.731157,4000
175743262,-0.0023278329,0.0011659892,-0.009537701,4040,0,0.019074637,-0.04110111,-9.7243805,4040
175747222,-0.00082539365,0.0014097947,-0.010355777,3960,0,0.024066277,0.11949866,-9.7146225,3960
175751228,-0.005474675,0.0004417339,-0.011059397,4006,0,-0.011601189,-0.051031835,-9.72379,4006
175755222,0.001844923,0.002454822,-0.00968093,3994,0,0.027906934,0.09792596,-9.745512,3994
175759222,-0.0060698404,-0.0005576843,-0.00968047,4000,0,-0.040617865,0.029843114,-9.671506,4000
175763230,0.000334313,0.0031880895,-0.0065105986,4008,0,0.05434538,0.03324753,-9.731053,4008
175767222,-0.0060177413,-0.00041737736,-0.008089913,3992,0,-0.068903364,0.08802236,-9.6888685,3992
175771257,-0.0046191067,0.0034943032,-0.004867855,4035,0,0.009820826,-0.01238774,-9.807463,4035
175775222,0.0009838741,0.0006361367,-0.00394831,3965,0,0.009320188,0.039346527,-9.69567,3965
175779222,-0.01429901,0.0029405418,-0.004143832,4000,0,-0.02070214,0.10677148,-9.78385,4000
175783222,0.009235904,0.001804075,-0.0021416598,4000,0,0.025272591,-0.08335145,-9.7042055,4000
175787222,-0.011469871,0.0042152163,0.0017416856,4000,0,0.013598966,0.14651869,-9.767343,4000
175791234,0.0006880176,-0.00033808275,0.0011474876,4012,0,-0.025222521,-0.03989172,-9.744696,4012
175795222,-0.009690277,-0.000895037,0.0023940832,3988,0,0.024640288,0.06819828,-9.7581005,3988
175799248,-0.004024381,0.0026505564,0.0032230713,4026,0,0.016453456,0.05859646,-9.780831,4026
175803222,-0.007254421,0.00010926669,0.0040358193,3974,0,-0.034065135,0.03427284,-9.724796,3974
175807221,-0.0041754954,-0.0010890819,0.0050224126,3999,0,0.028921226,0.0806151,-9.738385,3999
175811222,-0.0048317253,0.0015617887,0.006404665,4001,0,-0.008302856,-0.022683239,-9.723046,4001
175815222,-0.0052493815,0.0033748099,0.005231404,4000,0,0.0075197937,0.06640326,-9.757701,4000
175819222,-0.007245685,0.0017038966,0.0077309553,4000,0,0.01983805,0.01058421,-9.744256,4000
175823222,-0.0030529888,-0.0018465684,0.00758685,4000,0,-0.031659782,0.053084277,-9.74477,4000
175827239,-0.003350643,0.00029827317,0.008555698,4017,0,-0.017118625,0.027662367,-9.732826,4017
175831223,-0.009152577,0.002080774,0.0090127215,3984,0,0.0361798,0.011285457,-9.770823,3984
175835222,0.002041076,0.0012356935,0.009047264,3999,0,-0.005230538,0.054827865,-9.704787,3999
175839222,-0.008522722,0.0026406264,0.0088084275,4000,0,-0.009507678,0.068497255,-9.77401,4000
175843231,0.0013778255,0.003332907,0.008831289,4009,0,0.016839653,-0.019467182,-9.763,4009
175847225,-0.0039748517,0.00093252707,0.006737744,3994,0,-0.0010313895,0.19597362,-9.7683525,3994
175851263,-0.0033847294,0.0047313166,0.007272871,4038,0,-0.029153971,-0.030476259,-9.735896,4038
175855248,0.0033368424,0.0031299514,0.009090492,3985,0,-0.008817031,-0.02243978,-9.812013,3985
175859221,-0.0066000912,0.0011292247,0.010251761,3973,0,-0.037201848,0.16828965,-9.684082,3973
175863227,0.0014236653,0.00060700846,0.00946283,4006,0,0.020623758,-0.03776439,-9.722077,4006
175867222,0.005157582,0.0011994519,0.0097264,3995,0,-0.065542206,0.013109047,-9.742572,3995
175871231,-0.008238952,0.0014525759,0.00838286,4009,0,0.015274333,0.14983073,-9.820058,4009
175875221,0.005977576,0.0017467858,0.008774627,3990,0,0.06524173,-0.0070182947,-9.663322,3990
175879222,-0.0033719193,-0.003073251,0.007277729,4001,0,-0.13100393,0.12187833,-9.816639,4001
175883248,0.0018306134,0.002158175,0.0038383505,4026,0,0.044331245,0.012281615,-9.709365,4026
175887222,-0.0060477215,0.0009234795,0.0037235033,3974,0,-0.0006805364,0.09620939,-9.740084,3974
175891222,-0.0006087515,-0.005657271,0.0007990709,4000,0,-0.07737829,0.003907695,-9.65559,4000
175895234,-0.0025037876,0.0026400029,-0.00048439277,4012,0,-0.009298986,0.058988318,-9.7497225,4012
175899222,-0.0037502672,0.0008466941,0.00025435214,3988,0,-0.019286484,0.13709287,-9.730627,3988
175903222,-0.003985638,-0.0042693876,-0.0013692194,4000,0,-0.005682842,0.007381356,-9.706789,4000
175907222,-0.00079493533,-0.0019625023,-0.0032295485,4000,0,-0.027944092,0.09329386,-9.726811,4000
175911234,-0.00864241,-0.0035094032,-0.0038805036,4012,0,-0.0029983283,0.069574684,-9.782858,4012
175915222,-0.0031745282,-0.00043395304,-0.0056004943,3988,0,0.02236835,0.051618755,-9.737578,3988
175919222,-0.005711291,0.004037525,-0.0071258275,4000,0,-0.0147429835,0.045039967,-9.682565,4000
175923222,-0.008477413,-0.0035071294,-0.007918025,4000,0,0.0063794875,0.12761442,-9.772244,4000
175927222,-0.0037371258,0.001248389,-0.009947778,4000,0,-0.0396533,-0.04205576,-9.741596,4000
175931229,-0.0059645195,0.0023531679,-0.011701088,4007,0,0.042451773,0.11279943,-9.722398,4007
175935227,-0.00195398,0.00065613847,-0.010272332,3998,0,0.005749457,0.056191355,-9.723148,3998
175939239,-0.0047012796,0.000119454045,-0.009876072,4012,0,0.018440086,0.05398487,-9.7382,4012
175943222,0.0027479313,0.0054565184,-0.009873103,3983,0,-1.7785385e-05,-0.022980768,-9.775374,3983
175947222,-0.007633452,0.00018145937,-0.010120707,4000,0,-0.013202085,0.09916318,-9.694738,4000
175951222,0.0066553145,0.0040534623,-0.009509465,4000,0,0.019239988,-0.026265882,-9.827538,4000
175955222,-0.0034778686,-0.0015881537,-0.008591902,4000,0,0.019335397,0.081012614,-9.721023,4000
175959263,0.0013075717,0.0030868633,-0.008405353,4041,0,-0.029417448,-0.014517556,-9.774233,4041
175963222,0.0016460652,0.0050062127,-0.009569315,3959,0,0.047342688,0.031903565,-9.7026,3959
175967248,-0.0034806486,0.005847049,-0.0077138017,4026,0,-0.051853698,0.035477247,-9.7820215,4026
175971221,0.0015752893,0.008289736,-0.0063677835,3973,0,0.055197172,-0.043849066,-9.68813,3973
175975224,-0.0008515038,-0.00031684063,-0.0055739423,4003,0,-0.07884464,0.107685246,-9.706483,4003
175979261,-0.0018383272,0.006677871,-0.0024826068,4037,0,0.045286853,-0.025386276,-9.695393,4037
175983221,0.0017778089,0.0045786276,-0.001798251,3960,0,-0.010528713,0.017200002,-9.740999,3960
175987221,-0.0026598538,0.00017062564,0.00036109993,4000,0,-0.055646945,0.11769631,-9.716535,4000
175991222,-0.00022592294,0.003165322,0.004233497,4001,0,0.054123882,-0.042302072,-9.709994,4001
175995235,-2.1743785e-05,0.0034702006,0.0033840847,4013,0,-0.06440675,0.09216572,-9.851378,4013
175999232,-0.0013232392,0.0028786669,0.004118729,3997,0,0.039279282,0.013657756,-9.691615,3997
176003221,-0.0003225165,0.0013602149,0.0044379393,3989,0,-0.029398194,0.06855648,-9.740042,3989
176007229,-0.0015112008,-0.0022766015,0.0045200153,4008,0,-0.03847087,0.04915652,-9.679011,4008
176011221,-0.00045951287,0.0013455867,0.0057173637,3992,0,0.047670145,0.028454393,-9.787221,3992
176015222,-0.006123904,-0.000569295,0.0075537954,4001,0,-0.051818922,0.075223766,-9.681107,4001
176019249,-0.0024622087,-0.0015211812,0.005258638,4027,0,0.037158094,0.051361974,-9.736499,4027
176023248,-0.0010471538,0.0030689212,0.0056922724,3999,0,-0.05124205,-0.021632211,-9.697442,3999
176027222,-0.00702217,-0.0014099294,0.00423984,3974,0,0.04236324,0.124220796,-9.745194,3974
176031221,0.00032689326,0.00018227872,0.0034893965,3999,0,-0.008651747,-0.048175015,-9.659223,3999
176035222,-0.008705204,-0.0059791114,0.001332308,4001,0,0.020909183,0.105677925,-9.810511,4001
176039222,0.0051264856,0.002694241,0.00057732576,4000,0,-0.051053643,-0.026617233,-9.652096,4000
176043221,-0.013022415,-0.0057567134,0.0003121929,3999,0,-0.008094668,0.1340576,-9.798122,3999
176047222,-0.002064927,0.0049259057,0.00050142076,4001,0,0.023326525,-0.070132986,-9.565004,4001
176051256,-0.00825842,-0.0023126327,-0.0009961645,4034,0,-0.015586408,0.1627531,-9.895615,4034
176055222,-0.004023784,0.003172446,-0.0002876566,3966,0,-0.00884663,-0.06543305,-9.536943,3966
176059226,-0.0063180705,0.0032768182,-0.0026476786,4004,0,0.008018853,0.085027985,-9.886238,4004
176063222,-0.005572264,0.00020022765,-0.0025473593,3996,0,0.040336978,0.119853556,-9.660268,3996
176067221,0.003746597,0.0038321656,-0.0036895985,3999,0,0.02112946,-0.10395843,-9.762291,3999
176071222,-0.00094152684,0.003060536,-0.002588699,4001,0,-0.015199007,0.19178501,-9.742754,4001
176075222,-0.0085671935,0.0017172361,-0.004595428,4000,0,0.025313677,-0.0064608403,-9.726079,4000
176079237,0.0073345895,0.0030883476,-0.0055610067,4015,0,0.038812734,0.12614201,-9.781045,4015
176083222,-0.0033812663,0.003526931,-0.007506108,3985,0,-0.066213466,0.0011342701,-9.669711,3985
176087261,0.007124206,0.004802023,-0.008654782,4039,0,-0.00858714,0.04785931,-9.802635,4039
176091222,-0.009010162,0.0048392396,-0.0078881495,3961,0,0.10092984,0.08371767,-9.700404,3961
176095221,0.012203678,0.004629763,-0.0043205307,3999,0,-0.09385433,-0.061434373,-9.715529,3999
176099222,-0.0025378831,0.003845903,-0.0021777113,4001,0,0.024057705,0.014306754,-9.78721,4001
176103222,-0.0038328154,0.0009396267,-0.0043311142,4000,0,-0.036671758,0.08053575,-9.726573,4000
176107223,0.008375179,0.0006323293,-0.0027918397,4001,0,0.0426095,-0.042159226,-9.758955,4001
176111222,0.00036134137,0.0027674055,-0.00022560838,3999,0,-0.03391464,0.025442624,-9.717826,3999
176115222,0.00013950147,0.0050482336,-0.0013903622,4000,0,-0.038970016,0.04040455,-9.80139,4000
176119222,-0.0038966897,-0.0025530367,-0.002104472,4000,0,0.06366455,0.06970504,-9.721759,4000
176123222,0.0051214295,-0.0013124766,0.0015116787,4000,0,-0.016716706,0.0037719824,-9.644164,4000
176127225,-0.0017078207,0.0020820117,-0.0008017938,4003,0,-0.0735426,0.033028305,-9.812719,4003
176132021,-0.004979639,-0.0054644207,0.00093894475,4796,0,-0.022629393,0.19607075,-9.754722,4796
176136821,-0.0012606755,-0.0056450823,-0.0013009497,4800,0,-0.0121306125,-0.0019505916,-9.69418,4800
176140851,0.0033761763,0.0043863086,0.0007505816,4030,0,-0.016155679,0.12477718,-9.690301,4030
176144822,-0.010515023,0.0019023104,0.003792417,3971,0,-0.03042146,0.014619206,-9.840771,3971
176148822,0.0038481955,-0.007044838,0.0007468968,4000,0,0.010871486,0.120725915,-9.586652,4000
176152822,0.0004714746,0.0060443394,0.00020731032,4000,0,0.015043347,-0.03768239,-9.807803,4000
176156822,-0.011063113,-0.005036922,0.0009877718,4000,0,-0.12713432,0.1827826,-9.795536,4000
176160865,-0.007447579,0.0046076425,0.0027289265,4043,0,0.076902,-0.09770509,-9.606665,4043
176164837,0.00969945,-0.0054387455,0.0007077939,3972,0,0.016280124,0.10736254,-9.786661,3972
176168821,-0.013480967,0.0035040649,0.0010941263,3984,0,-0.03289071,0.08847951,-9.680417,3984
176172822,-0.0025170087,0.005091243,0.0011177597,4001,0,0.055189032,-0.026347611,-9.913366,4001
176176877,-0.007880345,0.0007688754,0.0013697885,4055,0,-0.06834495,0.09393978,-9.641815,4055
176180833,0.003362001,-0.00035019754,0.0023506794,3956,0,0.09303134,-0.041127115,-9.825831,3956
176184851,-0.007545812,0.003877387,0.00085282023,4018,0,-0.04498157,0.13034132,-9.677364,4018
176188822,-0.011041804,0.0025858034,0.0013207761,3971,0,-0.054111473,-0.01895173,-9.813499,3971
176192825,0.010029116,-0.0019233304,0.0007344809,4003,0,0.101403266,0.021116544,-9.643142,4003
176196826,-0.012939458,0.007638407,-0.00039028312,4001,0,0.00321368,0.1458474,-9.758052,4001
176200846,0.0015399151,0.0042085457,-0.002115325,4020,0,-0.10969517,-0.090033256,-9.827269,4020
176204849,0.0003671193,-0.00030611682,-0.0051554427,4003,0,0.07013863,0.11921616,-9.728197,4003
176208830,0.0004342515,0.0043162173,-0.0026537115,3981,0,0.04383678,0.033222206,-9.647458,3981
176212822,-0.0017126618,0.003182457,-0.004088591,3992,0,-0.13737106,-0.06900641,-9.848642,3992
176216822,-0.0069698994,0.0046351682,-0.0040442543,4000,0,0.062254623,0.112543285,-9.774082,4000
176220822,0.0074059004,0.005796758,-0.0032242592,4000,0,0.027088571,0.022790803,-9.603988,4000
176224859,-0.0019502005,0.0015432441,-0.0033389905,4037,0,-0.11773134,0.026226671,-9.868494,4037
176228822,0.0014056957,0.0031521376,-0.0018060002,3963,0,-0.037148938,-0.044059854,-9.74182,3963
176232825,-0.006832003,0.007343221,-0.0039268695,4003,0,0.0948678,0.15037315,-9.710754,4003
176236822,0.010082161,-0.004688595,-0.0027820363,3997,0,-0.10763854,-0.03502535,-9.632262,3997
176240822,-0.0047673383,-9.485882e-06,-0.0029528956,4000,0,0.03224429,0.061348323,-9.9106455,4000
176244861,-0.0005763446,-0.0009782884,-0.0013122938,4039,0,-0.018990414,-0.02048697,-9.702542,4039
176248822,-0.004175369,-0.0033105041,-0.0027538582,3961,0,0.002869251,0.2561086,-9.720923,3961
176252827,0.010462983,-0.00054454483,-0.0019175006,4005,0,-0.025760237,-0.16323653,-9.741231,4005
176256822,-0.006312415,-0.0013979207,-0.0034177825,3995,0,-0.051054895,0.24993838,-9.854345,3995
176260872,-0.00010144901,0.0042734076,-0.0013989577,4050,0,0.08062099,-0.13335636,-9.618738,4050
176264869,0.00010205381,-0.008232046,-0.0043283594,3997,0,-0.06992003,0.23498149,-9.77942,3997
176268835,0.0011289852,0.005773077,-0.0028561968,3966,0,0.0031127334,-0.12807307,-9.72857,3966
176272828,-0.0050263754,-0.003509323,-0.0012793503,3993,0,-0.02215599,0.11148104,-9.841273,3993
176276822,-0.006343446,0.0028620833,-0.0010614371,3994,0,-0.011647373,0.09583045,-9.600778,3994
176280822,0.00308031,-0.0032378668,-0.0019135115,4000,0,-0.023347722,0.03145408,-9.781084,4000
176284827,-0.0047176653,0.004309617,0.0008478405,4005,0,9.360141e-05,0.02735044,-9.693917,4005
176288844,-0.009043443,0.0014658105,0.0010280584,4017,0,0.050161123,0.008853397,-9.713564,4017
176292822,-0.0019350683,0.0010568181,-0.00048135687,3978,0,-0.013381736,0.09314234,-9.747857,3978
176296822,-0.0014643066,0.0013867532,-5.415074e-05,4000,0,0.01558649,0.019780437,-9.704557,4000
176300822,-0.011291106,0.0058154794,0.00026680744,4000,0,0.061770085,0.01293796,-9.729761,4000
176304833,0.0022726783,0.00030523937,-0.00010527797,4011,0,-0.051997006,0.01601883,-9.699721,4011
176308863,-0.0038931647,0.0068311733,0.00034960205,4030,0,0.09566031,0.113463886,-9.747325,4030
176312821,-0.00027180166,0.0035313733,0.0009463792,3958,0,-0.012003196,-0.07840833,-9.770439,3958
176316822,-0.008704372,0.004444752,0.0005082536,4001,0,-0.09096684,0.1334824,-9.736905,4001
176320822,0.003302513,0.0046989727,0.0009893919,4000,0,0.074480355,-0.0062903166,-9.70055,4000
176324822,-0.0005764561,0.005989194,-0.0005530996,4000,0,-0.038265746,0.09756603,-9.781864,4000
176328846,-0.007869219,0.0018012449,-0.00087622576,4024,0,-0.06543288,0.03718277,-9.772805,4024
176332822,-0.00042527737,0.009663738,-0.0008537063,3976,0,0.025263166,-0.03015224,-9.70789,3976
176336822,-0.0041213306,-6.076874e-05,0.0011856504,4000,0,-0.058472715,0.17250672,-9.778367,4000
176340821,0.0010946286,0.00024837928,0.0004268866,3999,0,-0.022584336,-0.12866382,-9.79988,3999
176344835,0.001415935,0.004338633,0.001281559,4014,0,0.009326117,0.14000843,-9.722312,4014
176348822,-0.005255659,0.0015749353,0.0026739181,3987,0,0.0075583006,-0.0002035524,-9.707206,3987
176352824,0.0022546216,-0.0013962128,0.00021398405,4002,0,0.0043198955,0.023755481,-9.795211,4002
176356822,0.0015231551,0.0017863138,-0.0011758934,3998,0,-0.0042443722,0.08599397,-9.777816,3998
176360822,-0.009021519,-0.003914783,-0.00069407304,4000,0,-0.009059572,0.058232855,-9.687044,4000
176364828,0.004567177,-0.0006859529,-0.0009329537,4006,0,-0.05512632,0.044897955,-9.703785,4006
176368822,-0.006652307,-0.002471523,-0.00054636685,3994,0,0.019504365,0.09672593,-9.816769,3994
176380822,0.0015346585,-0.0009160499,-0.0032935312,3989,0,-0.04649605,0.15695609,-9.702846,3989
176384836,-0.0033791019,-0.0008788769,-0.0028454908,4014,0,0.09363116,-0.080458924,-9.773361,4014
176388822,0.00041639444,-0.00041420647,-0.0005489285,3986,0,-0.10641381,0.10323484,-9.644128,3986
176392822,-0.011759433,-0.0012893814,-0.0007164315,4000,0,0.041857503,0.06559621,-9.662407,4000
176396822,0.004995,0.0009554208,0.00058102206,4000,0,0.027229719,-0.039065473,-9.841099,4000
176400822,-0.005467763,0.002407667,0.00011454925,4000,0,0.06392426,0.095304705,-9.677896,4000
176404822,-0.003073076,0.0032783763,0.0019626585,4000,0,-0.03505003,-0.099693514,-9.710326,4000
176408822,-0.001461138,0.0023312906,0.00017358293,4000,0,0.028274653,0.080041386,-9.726592,4000
176412822,-0.0021789698,0.0033769938,0.0015251121,4000,0,0.01518278,0.010206495,-9.72199,4000
176416834,-0.004825957,0.005165482,0.0062013236,4012,0,0.054459307,0.040571418,-9.744589,4012
176420822,-0.0010755851,0.0059223436,0.0032775055,3988,0,-0.048370652,0.03362078,-9.671616,3988
176424822,-0.0037301914,0.0043507563,0.002911247,4000,0,0.047826763,0.103504024,-9.896819,4000
176428821,-0.0002191534,0.009016778,0.003718388,3999,0,-0.037730098,0.07903352,-9.666273,3999
176432821,-0.0023330392,0.005623952,0.0033632517,4000,0,-0.010107331,0.026004242,-9.735721,4000
176436854,-0.0036664605,0.0024470428,4.241171e-05,4033,0,-0.048379254,0.06388151,-9.727116,4033
176440822,-0.00783533,0.009221808,0.0021253226,3968,0,0.023372922,0.067846484,-9.736825,3968
176444828,0.0026752285,0.0028710044,0.002053299,4006,0,0.011145584,0.029155312,-9.814699,4006
176448822,-0.011042964,0.0040205494,0.0012251604,3994,0,-0.028564662,0.03919958,-9.677862,3994
176452822,0.007150085,0.006556298,0.0010432027,4000,0,-0.0033891702,0.031093773,-9.744639,4000
176456838,-0.008332417,-0.0021528506,-0.0007768734,4016,0,-0.028775264,0.04047099,-9.786269,4016
176460822,0.0059862495,-0.0014053151,-0.0010106347,3984,0,0.014174128,0.039418787,-9.665292,3984
176464822,-0.0058581177,-0.000117357136,-0.0034043768,4000,0,-0.05302834,-0.053810675,-9.864942,4000
176468822,-0.0013253256,-0.0051268367,-0.001549004,4000,0,-0.02695503,0.14382501,-9.724168,4000
176472822,-0.0029266798,0.0025718764,-0.0026195175,4000,0,0.026507428,0.006676405,-9.775729,4000
176476849,-0.00022339929,-0.0074111316,-0.0032521745,4027,0,-0.06346125,0.043915052,-9.814447,4027
176480822,-0.0015887666,0.0026457196,-0.0046263337,3973,0,0.051822904,0.011677801,-9.663359,3973
176484822,-0.003720612,-0.0055549005,-0.007435758,4000,0,-0.060779646,0.16609685,-9.903304,4000
176488822,0.0042612036,0.00074552034,-0.0045454907,4000,0,0.07909915,-0.010320129,-9.561917,4000
176492822,-0.0033719363,-0.0029756713,-0.007424655,4000,0,0.022735354,0.14774774,-9.805651,4000
176496822,-0.0050667585,-0.0017958062,-0.0057369266,4000,0,-0.053663664,-0.031329907,-9.64973,4000
176500822,0.006173775,-0.00022850897,-0.010447477,4000,0,0.0069953264,0.1721543,-9.799525,4000
176504839,-0.01132018,-0.0001076687,-0.007190527,4017,0,0.06478608,-0.05951134,-9.6568575,4017
176508828,0.008685368,0.0031236976,-0.00809224,3989,0,-0.07450767,0.03751936,-9.783788,3989
176512871,-0.0037363954,0.003250369,-0.008045108,4043,0,0.11949828,0.11542834,-9.825868,4043
176516822,0.00025489656,0.0032722002,-0.0044727693,3951,0,-0.030145284,-0.029638994,-9.563323,3951
176520821,-0.001183614,0.0040874775,-0.006365443,3999,0,-0.039016794,0.022742372,-9.933782,3999
176524822,-0.0020333438,0.0002962188,-0.006019361,4001,0,0.041148286,0.095446035,-9.660859,4001
176528827,-0.0022002575,0.010848048,-0.0033259222,4005,0,0.081595786,0.017927857,-9.799658,4005
176532825,0.00060999225,-0.0015414616,-0.00248483,3998,0,-0.07714681,0.011255116,-9.721989,3998
176536822,-0.0024918707,0.008815905,-0.0012076608,3997,0,-0.004214353,0.06498408,-9.788753,3997
176540822,-0.004359185,0.005165205,0.0001272275,4000,0,0.062164303,0.040286716,-9.722592,4000
176544825,0.0032894544,0.004319345,0.00012343939,4003,0,-0.10599654,-0.0138920285,-9.689116,4003
176548822,-0.0025294498,0.0049771694,0.0015479154,3997,0,0.018671649,0.13283347,-9.752671,3997
176552822,-0.004187654,0.0052917516,0.0014176463,4000,0,0.01929424,-0.0698309,-9.72037,4000
176556822,-0.0025164946,0.003558816,0.0035672109,4000,0,-0.039632626,0.14125295,-9.671632,4000
176560830,-0.003785917,0.0022358277,0.0020456095,4008,0,-0.051597133,-0.013199905,-9.718905,4008
176564846,0.0017618509,0.00019874355,0.002236925,4016,0,-0.045937575,0.095954455,-9.746747,4016
176568822,-0.008120768,0.0044219973,0.007335471,3976,0,-0.016742084,-0.020212498,-9.680905,3976
176572822,0.00019981196,-0.00215503,0.0037995642,4000,0,-0.02143288,0.03582979,-9.811291,4000
176576822,-0.00041681473,0.0022115067,0.0025264248,4000,0,-0.006126951,0.027909469,-9.708621,4000
176580822,-0.009884903,-0.0042703603,0.0036443984,4000,0,-0.017317072,0.089430206,-9.841957,4000
176584869,0.0005201891,0.0030023686,0.0041490654,4047,0,0.036968883,-0.029713545,-9.647403,4047
176588822,-0.0062212865,-0.0092935255,0.0016596983,3953,0,-0.051163666,0.07805537,-9.859077,3953
176592822,0.0040497584,0.0014839733,0.0038367196,4000,0,0.11976119,-0.01676186,-9.601169,4000
176596871,-0.00807176,-0.0066282186,0.0026132797,4049,0,-0.05877089,0.19566683,-9.832061,4049
176600828,0.0026751733,-0.0023450903,0.0016068872,3957,0,-0.005819946,-0.022254487,-9.67267,3957
176604834,0.0033860872,-0.0010058492,-0.00030701282,4006,0,0.0563514,0.13356625,-9.806931,4006
176608822,-0.0148508,0.0005238548,0.00052304764,3988,0,-0.055672217,0.12398209,-9.726567,3988
176612821,0.010432691,-0.0014741392,-0.0026646974,3999,0,0.015521853,-0.116620444,-9.696697,3999
176616828,-0.008344599,-0.00064607617,-0.0030145454,4007,0,-0.027819436,0.25020447,-9.787521,4007
176620828,0.002718661,0.00023794489,-0.0062627257,4000,0,0.04823412,-0.10938544,-9.709236,4000
176624842,0.001118729,0.0051061916,-0.0039368668,4014,0,0.013748101,0.10534427,-9.791388,4014
176628822,-0.0032021846,0.004805865,-0.006768464,3980,0,-0.0012031135,0.0002542861,-9.685017,3980
176632822,0.0049113203,0.004680721,-0.0055981115,4000,0,0.0066591343,0.099570975,-9.822977,4000
176636821,-0.00020608945,0.004787837,-0.0055525377,3999,0,0.0064505315,-0.044846915,-9.6693,3999
176640822,-0.0016178621,0.009576112,-0.0053499877,4001,0,0.026938256,0.032621656,-9.696607,4001
176644822,0.00052626664,0.0018020055,-0.0045936387,4000,0,-0.06831829,0.042137288,-9.817561,4000
176648821,-0.0006328326,0.008435733,-0.0047968286,3999,0,0.10714787,-0.0011473969,-9.625813,3999
176652822,8.63211e-06,0.0011662527,-0.0058801016,4001,0,-0.054834545,0.08987485,-9.811209,4001
176656822,0.0019401496,0.00862281,-0.007004416,4000,0,0.019005973,-0.04898593,-9.736975,4000
176660822,-0.00611916,0.0017834111,-0.005331875,4000,0,-0.031738754,0.24388094,-9.795865,4000
176664822,-0.0017780511,0.0070740916,-0.0052552237,4000,0,-0.003326956,-0.12667885,-9.740292,4000
176668822,0.0016628783,0.0012690622,-0.0023513117,4000,0,-0.0841992,0.20266972,-9.674568,4000
176672822,-0.010270809,0.0017232538,-0.004201463,4000,0,-0.0029787067,0.04123685,-9.887797,4000
176676822,-0.0012172572,-0.002885318,-0.0015422555,4000,0,0.004708616,0.019643938,-9.642568,4000
176680823,0.0005847627,0.0017775303,-0.0039584637,4001,0,-0.058977723,0.06739488,-9.820122,4001
176684822,-0.013487583,-0.006293288,0.00052382756,3999,0,-0.021835776,0.11486535,-9.751301,3999
176688822,0.005735724,0.0041379305,0.00079938234,4000,0,-0.0168968,-0.08103056,-9.663033,4000
176692837,-0.010341172,-0.008087529,0.00035097203,4015,0,-0.04308523,0.13128328,-9.827137,4015
176696822,-0.0018973501,0.00083852623,0.0027109794,3985,0,0.026004273,-0.037777834,-9.560773,3985
176700833,-0.0069849724,-0.0049973,0.0002072307,4011,0,-0.009221047,0.029812446,-9.928406,4011
176704828,-0.0010805911,0.0037034478,0.004973314,3995,0,0.008824135,0.0074600657,-9.61221,3995
176708822,-0.007107546,-0.0035286574,0.002534891,3994,0,0.033418857,0.1259539,-9.825377,3994
176712860,-0.00053706847,-0.003189369,0.004738755,4038,0,-0.031523343,-0.06334252,-9.732097,4038
176716822,-0.00037882078,0.0015574661,0.0052933465,3962,0,0.06836047,0.10405376,-9.681484,3962
176720822,-0.0027382502,0.0014294711,0.004941169,4000,0,-0.03285445,0.018087035,-9.774407,4000
176724822,-0.0023060674,-0.003410247,0.0048238304,4000,0,0.04961181,0.105972126,-9.61603,4000
176728822,-0.00023590849,0.0029504048,0.0047658803,4000,0,-0.012960319,-0.021527953,-9.79374,4000
176732858,-0.002459656,0.0006312315,0.0037756166,4036,0,0.002913748,0.061740834,-9.7625265,4036
176736821,-0.0012226882,0.007969383,0.0059412546,3963,0,0.052567076,0.046873905,-9.75359,3963
176740822,0.00058767665,0.0010118572,0.0044559487,4001,0,-0.029994838,0.07123884,-9.722853,4001
176744822,0.0016580566,0.007838706,0.0066125514,4000,0,-0.013951759,-0.007014536,-9.723918,4000
176748822,0.0025981315,0.0065692677,0.008006178,4000,0,0.0459065,0.0061038653,-9.746007,4000
176752827,-0.0006098977,0.008228784,0.007847302,4005,0,-0.04081474,0.034645967,-9.74175,4005
176756822,0.0014302956,0.0047522653,0.008090713,3995,0,0.040906638,0.09903205,-9.665119,3995
176760822,0.00089585094,0.007614822,0.0054326854,4000,0,-0.050274663,-0.0929106,-9.779837,4000
176764871,0.0008589311,0.005776737,0.0039226282,4049,0,0.005265856,0.12843734,-9.698327,4049
176768822,-0.0029138885,0.0062656878,0.0015403545,3951,0,0.0152355395,0.013241638,-9.694357,3951
176772847,0.0058757346,0.0020126416,0.0012276691,4025,0,-0.05866546,0.09125289,-9.823158,4025
176776822,-0.0033578193,0.0059456555,-0.0014480508,3975,0,-0.0031463455,0.043536957,-9.735427,3975
176780822,-0.0024900073,0.002081088,-0.002601528,4000,0,-0.07078544,0.12429559,-9.752583,4000
176784833,0.009892695,-0.0012374569,-0.0047846283,4011,0,-0.08867392,-0.049951892,-9.754734,4011
176788822,-0.013324329,0.00055472064,-0.006053811,3989,0,0.029344726,0.19173144,-9.743705,3989
176792822,0.008459279,0.0010591343,-0.0065157986,4000,0,-0.12136547,-0.095742024,-9.696604,4000
176796822,-0.0050668186,-0.006573073,-0.010007605,4000,0,0.06389647,0.17682464,-9.817928,4000
176800822,0.0010209399,0.0017943454,-0.008844892,4000,0,-0.06668353,0.003774096,-9.654692,4000
176804828,-0.005476013,-0.009029936,-0.00885366,4006,0,-0.028191848,0.076678775,-9.8101,4006
176808822,0.001868434,0.0020111164,-0.00913994,3994,0,-0.021488845,-0.031421658,-9.636208,3994
176812835,-0.0033228705,-0.005010517,-0.009028087,4013,0,0.04869694,0.106982455,-9.791552,4013
176816822,-0.001753068,-0.0030988243,-0.009741538,3987,0,-0.03331647,-0.00726285,-9.64582,3987
176820826,-0.0042041657,-0.0020176375,-0.009349528,4004,0,0.037264414,0.03197705,-9.815393,4004
176824822,0.0020703182,-0.0004141336,-0.008411441,3996,0,-0.0029859063,0.03062526,-9.664988,3996
176828822,-0.008478813,-0.002801584,-0.006631989,4000,0,0.07370704,0.042931594,-9.787479,4000
176832822,0.009884999,0.0021565026,-0.0076509556,4000,0,-0.02600896,0.005594392,-9.643807,4000
176836822,-0.011045252,0.0015985837,-0.008364724,4000,0,-0.014764632,0.100368105,-9.802976,4000
176840836,0.004619898,0.0022171035,-0.004644219,4014,0,0.08168918,-0.08546552,-9.652203,4014
176844822,-0.006753935,0.005448702,-0.0071294135,3986,0,-0.039894648,0.084072664,-9.797406,3986
176848871,-0.00017841252,0.0072109476,-0.0047989883,4049,0,0.014450448,0.021996772,-9.696778,4049
176852822,-0.002705226,0.0052273334,-0.004415636,3951,0,-0.030072412,-0.021099348,-9.681361,3951
176856828,-0.0010885103,0.006281074,-0.003963632,4006,0,0.04767654,0.0627981,-9.764174,4006
176860853,-0.005983898,0.0049982937,-0.0014707238,4025,0,-0.01645558,0.014476396,-9.732545,4025
176864822,-0.0018753563,0.010855001,-1.8293604e-05,3969,0,0.0030714164,0.044407465,-9.732,3969
176868822,-0.0018177828,0.002948966,0.0032505277,4000,0,0.026974864,0.012411292,-9.732795,4000
176872822,-0.007158329,0.008905404,0.00564989,4000,0,-0.0063936086,0.0647066,-9.724596,4000
176876822,0.0045680185,0.0030635435,0.003551947,4000,0,-0.030880624,0.004013741,-9.810429,4000
176880864,-0.0037806602,0.0036012821,0.00534965,4042,0,-0.022844058,0.0703063,-9.6851,4042
176884822,-0.0009061969,0.008869573,0.007953472,3958,0,0.002945762,0.044962067,-9.762097,3958
176888823,0.00036603538,-0.0006855903,0.006882938,4001,0,-0.032922167,0.04291535,-9.797187,4001
176892822,-0.0005220856,-0.0013404456,0.010817261,3999,0,-0.058279287,0.06733672,-9.715329,3999
176896822,0.0016323961,0.0056910873,0.00704282,4000,0,0.010238442,-0.07542699,-9.704008,4000
176900832,-0.0036828523,-0.01276304,0.0042545786,4010,0,-0.091420285,0.22729746,-9.795661,4010
176904852,0.0021338346,0.0021282604,0.0048856777,4020,0,0.031042624,-0.07744736,-9.672116,4020
176908834,0.0013938164,-0.008217001,0.0014561164,3982,0,-0.008462806,0.08618259,-9.769718,3982
176912822,-0.0044899485,0.0009432094,0.0027889234,3988,0,-0.051975567,0.045304663,-9.684257,3988
176916822,-0.0008578658,-0.004250969,-4.769772e-05,4000,0,0.049234454,0.038622875,-9.809217,4000
176920821,-0.006012615,-0.004489226,-1.4460748e-05,3999,0,-0.026209569,0.026251702,-9.669156,3999
176924868,0.0028114265,-0.002164435,2.0578163e-06,4047,0,0.041606233,-0.047389727,-9.78765,4047
176928822,-0.0075411526,0.0016562127,0.0010595032,3954,0,0.04916869,0.13291535,-9.663197,3954
176932860,-0.0059389863,-0.0031303125,-0.002023011,4038,0,-0.0019523096,0.026124362,-9.788053,4038
176936835,0.0033246432,0.0019141352,-0.0016812946,3975,0,0.06261905,-0.007999428,-9.60822,3975
176940822,-0.0072806394,-0.0005420807,-0.0019335124,3987,0,-0.02722556,0.15215644,-9.815324,3987
176944822,-0.00078309333,0.009355318,-0.0021420005,4000,0,-0.012289523,0.00343347,-9.664653,4000
176948822,-0.00024929724,-0.0031999997,-0.0034390094,4000,0,0.05394838,0.12141287,-9.863004,4000
176952822,-0.005519348,0.0075520333,-0.005932266,4000,0,-0.017175574,0.06811168,-9.54085,4000
176956822,-0.0022737198,0.0065767416,-0.006417366,4000,0,-0.04999847,0.15784067,-9.900964,4000
176960822,-0.0051211463,0.00428524,-0.005608883,4000,0,0.059268277,-0.03085313,-9.650571,4000
176964833,-0.0011590123,0.012555375,-0.008736338,4011,0,0.0147184,0.18384042,-9.703505,4011
176968826,-0.00633067,-0.0010713,-0.0074498514,3993,0,-0.109514475,-0.051367104,-9.741482,3993
176972822,0.001637945,0.008099394,-0.009350746,3996,0,-0.009014097,0.07828699,-9.70715,3996
176976822,-0.007363473,0.012454387,-0.008822064,4000,0,-0.028963055,0.052497473,-9.737426,4000
176980822,3.0214414e-05,-0.0037234968,-0.006312752,4000,0,-0.031865623,-0.004449437,-9.733757,4000
176984822,0.0013920013,0.014038085,-0.006038449,4000,0,-0.024904994,-0.04879747,-9.697031,4000
176988828,-0.0050811497,0.0021283114,-0.006471997,4006,0,0.005695952,0.014805336,-9.801825,4006
176992822,0.0012454892,0.0013815128,-0.002987985,3994,0,-0.095136315,-0.039185267,-9.640718,3994
176996822,-0.0039123325,0.00050328,-0.0022021425,4000,0,0.059594024,0.04937873,-9.820358,4000
177000825,-0.00071370794,0.000600172,-0.00085307145,4003,0,-0.08413196,0.03201286,-9.805907,4003
177004822,-0.0029295431,-9.569095e-05,-0.0033703588,3997,0,-0.019638618,-0.07494493,-9.73813,3997
177008848,-0.0016803388,-0.0059302174,0.00036937316,4026,0,0.032901485,0.21620876,-9.79176,4026
177012822,-0.0007510016,-0.00041564417,0.0014540205,3974,0,-0.080391824,0.012420651,-9.632819,3974
177016859,-0.003617985,-0.0012054442,0.003220696,4037,0,-0.030332211,0.061556786,-9.869746,4037
177020822,-0.0015816928,-0.0055919574,0.0027990902,3963,0,0.06759617,0.10615172,-9.608254,3963
177024822,-0.00029577443,-0.0006032501,0.0022916778,4000,0,-0.061562456,0.053033214,-9.750708,4000
177028829,0.002340512,-0.003646755,0.003610342,4007,0,0.024577439,0.09636939,-9.778154,4007
177032822,-0.0054022507,0.0020936786,0.003104123,3993,0,0.024997389,0.017015513,-9.707395,3993
177036836,0.0035190517,-0.0037565604,0.0042620786,4014,0,0.07015396,0.07737984,-9.713314,4014
177040854,-0.00034420594,-0.00029635572,0.00042070262,4018,0,-0.027406525,0.018547712,-9.71985,4018
177044822,-0.0014585992,0.0009744514,0.0043101097,3968,0,0.062254872,0.014254214,-9.69089,3968
177048849,0.0008143943,0.002141365,0.0038178137,4027,0,0.020487463,-0.016715327,-9.739863,4027
177053621,-0.0017862638,-0.00053562695,0.0029419477,4772,0,0.03786199,0.07183039,-9.686134,4772
177057651,0.0029716163,0.012152365,0.004618297,4030,0,0.038774993,-0.07601287,-9.798953,4030
177061627,-0.005427178,0.004744662,0.0038413934,3976,0,-0.065133706,0.052616946,-9.69521,3976
177066421,0.002581684,0.007524474,0.0036343152,4794,0,0.07440568,0.050885294,-9.737198,4794
177070439,-0.0072305836,0.0023461522,0.0011578802,4018,0,-0.0866203,0.037961736,-9.592261,4018
177074423,-0.0023701086,0.009976752,0.00080567395,3984,0,-0.026020223,-0.0002954563,-9.891063,3984
177078422,-0.011389284,0.0006767444,-0.0017882142,3999,0,0.06306442,0.15125364,-9.637224,3999
177082448,-0.001068999,0.012754438,-0.005218154,4026,0,-0.010013032,0.011864066,-9.748424,4026
177086422,-0.0023501774,-0.0036806937,-0.0027165888,3974,0,-0.054552685,0.11708769,-9.78036,3974
177090422,-0.007858874,0.0139434,-0.004339057,4000,0,0.0112245865,-0.0018655995,-9.74787,4000
177094422,-0.0025791463,-0.0026725722,-0.004429086,4000,0,-0.05036413,0.16777983,-9.72341,4000
177098422,0.0009825589,0.0017103923,-0.0071485736,4000,0,-0.05113094,-0.018595364,-9.671006,4000
177102427,-0.0032997357,0.0010487114,-0.0047543882,4005,0,0.012132541,0.08034892,-9.827555,4005
177106421,-0.006364259,0.0007064742,-0.0056525627,3994,0,-0.07322249,-0.0039515267,-9.676447,3994
177110422,-0.0024358933,-0.002972725,-0.0074084476,4001,0,-0.046744715,0.0493148,-9.833724,4001
177114422,0.0031281135,-0.0033973416,-0.0071315328,4000,0,-0.05979634,0.037979934,-9.65493,4000
177118422,-0.0009753424,0.0015995045,-0.0037833687,4000,0,-0.034216203,0.027868005,-9.875108,4000
177122428,-0.0039665685,-0.004899643,-0.0036073197,4006,0,-0.030546518,-0.047131006,-9.593107,4006
177126422,0.008517424,-0.0058508115,-0.0041959244,3994,0,-0.003663906,0.071269736,-9.8299,3994
177130422,-0.010364245,-0.0010660217,-0.002718785,4000,0,0.024709633,0.00061333843,-9.694346,4000
177134472,0.0038255558,6.06022e-05,-0.0044364845,4050,0,-0.06832396,-0.0050225896,-9.767491,4050
177138422,-0.007834505,-0.006858458,-0.005706506,3950,0,0.03607936,0.052918103,-9.698613,3950
177142422,0.00816483,0.00094854715,-0.0026869932,4000,0,0.016094623,-0.0007971563,-9.692793,4000
177146425,-0.0052293115,-0.0023519162,-0.0014836782,4003,0,-0.0406048,0.05663087,-9.7850685,4003
177150439,0.0016615345,0.0068759643,-0.0021095823,4014,0,0.1177992,-0.03247273,-9.733756,4014
177154422,0.0016677015,-0.00042164375,-0.0011811699,3983,0,0.0057727983,0.13360633,-9.7006445,3983
177158422,-0.00012088726,0.0045527094,-0.00023846324,4000,0,0.0068924148,-0.027883492,-9.6901,4000
177162422,0.0059084627,0.0038189576,-0.00089847425,4000,0,-0.09380365,0.08618563,-9.866161,4000
177166447,-0.004915618,0.0065258252,0.0016293889,4025,0,0.15974231,0.007347815,-9.615276,4025
177170451,0.0069858753,0.007242532,0.0022155803,4004,0,-0.071519084,0.15960895,-9.736765,4004
177174428,0.0012291374,0.006148316,0.0017214088,3977,0,0.00901355,-0.05508312,-9.766786,3977
177178422,-0.003540562,0.006120823,0.0034346774,3994,0,-0.04009096,0.19961573,-9.726461,3994
177182422,0.004581118,0.008701992,0.0027150188,4000,0,0.029521653,0.03781147,-9.645563,4000
177186422,-0.0064715543,-0.0015270675,0.001901356,4000,0,-0.09842758,0.08742824,-9.70801,4000
177190461,0.0022930622,0.012797755,0.001823004,4039,0,0.0020350614,0.031928137,-9.7602,4039
177194428,-0.003469122,0.0031661955,0.0029466597,3967,0,0.046837244,0.04812377,-9.719701,3967
177198422,-0.0023512475,0.002503406,-0.00056607847,3994,0,-0.14823395,0.14707403,-9.691891,3994
177202421,-0.0036014603,0.0039975834,-0.0012480237,3999,0,0.0601181,-0.05157577,-9.79661,3999
177206422,-0.00091037713,0.00044585473,-0.0036475393,4001,0,-0.1742925,0.05101307,-9.677637,4001
177210465,-0.019596329,0.0011099901,-0.0014661729,4043,0,0.10919444,0.115313694,-9.687142,4043
177214422,0.011793883,-0.0028595605,-0.002967348,3957,0,-0.15573394,-0.10190253,-9.690517,3957
177218472,-0.018051377,-0.0017359308,-0.0028266187,4050,0,0.034392353,0.17285307,-9.755879,4050
177222422,0.0039985287,-0.0027275775,-5.7050962e-05,3950,0,-0.023287129,-0.10071823,-9.679732,3950
177226422,-0.015383828,-0.0012937469,-0.001299352,4000,0,-0.010424326,0.10865541,-9.735057,4000
177230459,0.012652238,-0.002677473,-0.00082948204,4037,0,-0.030627718,-0.009497608,-9.7156725,4037
177234428,-0.022276431,-0.004294472,-0.0007474826,3969,0,0.085958354,0.08067442,-9.709154,3969
177238456,0.013936461,0.0010635214,-0.0010214376,4028,0,-0.083341986,-0.03499365,-9.767281,4028
177242422,-0.01124279,-0.010625214,-0.002553068,3966,0,0.07918043,0.16671643,-9.714878,3966
177246422,0.0051277634,0.006665833,-0.0022816325,4000,0,-0.011030657,-0.036120467,-9.672098,4000
177250421,-0.005854536,-0.008728349,-0.005024334,3999,0,-0.039409857,0.11810927,-9.8069935,3999
177254422,-0.0027605824,0.0074053872,-0.0013120606,4001,0,0.11402808,0.055777736,-9.56089,4001
177258422,0.0077480897,-0.006971258,-0.0033700662,4000,0,-0.05045614,0.03977278,-9.932392,4000
177262422,-0.007569752,0.008289955,-0.0041363137,4000,0,0.0073594507,0.07165527,-9.567056,4000
177266422,0.0038035573,0.004897743,-0.0036934328,4000,0,0.06232953,-0.09234995,-9.951512,4000
177270421,0.0047895843,0.0024458356,-0.0051743602,3999,0,-0.02756752,0.21719187,-9.495917,3999
177274422,-0.00682327,0.00567604,-0.0024579526,4001,0,-0.0029484928,-0.07488718,-9.860248,4001
177278422,0.010941906,0.0029661686,-0.0020122104,4000,0,-0.013593502,-0.03971896,-9.638267,4000
177282422,-0.012053039,0.011057887,-0.0027091322,4000,0,0.07974108,0.1715702,-9.771647,4000
177286427,0.011493534,0.0042550396,-0.00030704224,4005,0,-0.043264695,-0.11033007,-9.632303,4005
177290422,0.001033826,0.0037221701,-0.0027692632,3995,0,-0.044681896,0.06380548,-9.7591095,3995
177294422,-0.0048227706,0.0076449914,-0.0006056342,4000,0,0.033304065,0.06602954,-9.73541,4000
177298423,0.0026752732,0.0031909985,-0.0025270495,4001,0,0.007984786,0.007657908,-9.772897,4001
177302471,0.00611578,0.005255592,-0.0022818123,4048,0,-0.04169439,0.12790461,-9.637318,4048
177306422,-0.01573862,0.00021446613,-0.0015917942,3951,0,-0.032829367,-0.011028553,-9.91106,3951
177310422,0.011803024,0.008686716,0.00014669246,4000,0,0.004856328,0.09326401,-9.580597,4000
177314422,-0.018996557,-0.008136447,-0.0021162354,4000,0,-0.004093168,0.13527189,-9.849085,4000
177318444,0.015564396,0.0033498537,-0.0004594857,4022,0,-0.12992343,-0.05009745,-9.619238,4022
177322422,-0.018468667,-0.0050813374,3.6689045e-05,3978,0,-0.008348467,0.19839716,-9.893125,3978
177326422,-0.0017065579,0.001457179,0.0022849292,4000,0,-0.023523943,0.013169839,-9.549241,4000
177330422,0.0065353746,-0.0059670396,-0.0019794728,4000,0,-0.029698852,-0.060110983,-9.939909,4000
177334422,-0.014052242,-0.0021481926,0.00084538426,4000,0,-0.00035181796,0.20013584,-9.6658745,4000
177338463,0.0023361132,0.0013788716,0.0013937223,4041,0,-0.027624266,-0.13174812,-9.754315,4041
177342422,-0.0064251903,-0.010644662,0.00018633681,3959,0,-0.050151248,0.10533737,-9.812058,3959
177346422,0.0018165765,0.000214695,0.0027680486,4000,0,0.11478857,0.011511403,-9.631747,4000
177350422,-0.011266216,0.0014680059,0.0019583474,4000,0,0.03614732,0.010527144,-9.794931,4000
177354422,0.0034581872,-0.009276687,0.0014808539,4000,0,-0.07664511,0.0037425945,-9.7488365,4000
177358453,-0.011197821,0.008564014,0.0009078209,4031,0,0.16354308,0.0795837,-9.65454,4031
177362422,-0.00045953563,-0.0066433307,-0.0004699805,3969,0,-0.10923257,-0.017783893,-9.847288,3969
177366422,-0.006372397,0.010744825,0.00076982647,4000,0,0.08406431,0.032540172,-9.671634,4000
177370422,0.002243816,-0.0010944809,-0.0006343533,4000,0,-0.0032222029,0.04579234,-9.814484,4000
177374422,-0.0017649811,0.00434753,-0.00014609595,4000,0,0.0037142085,0.11995753,-9.602482,4000
177378427,-0.0031841,0.0025398203,-0.001127304,4005,0,0.0052735815,-0.0984639,-9.7264385,4005
177382422,0.002741896,0.007506059,0.0011888418,3995,0,-0.03466394,0.14103062,-9.791776,3995
177386423,-0.014972895,0.0017573942,-0.003320645,4001,0,-0.024337785,0.13520266,-9.599302,4001
177390422,0.008180575,0.003021202,-0.00076467573,3999,0,-0.043969452,-0.1113352,-9.854756,3999
177394422,0.001265516,0.0086223865,-0.0026710911,4000,0,-0.002985422,0.09809353,-9.734646,4000
177398422,-0.0059783002,0.005616156,-0.0007119542,4000,0,-0.013180064,0.13877507,-9.774264,4000
177402422,-0.0007156546,-0.0011585057,-0.0039790496,4000,0,-0.016538247,-0.075833194,-9.6790695,4000
177406438,0.0154209435,0.004760575,-0.0009814686,4016,0,-0.06809813,0.0916182,-9.7934265,4016
177410422,-0.019517057,0.0022014983,-0.00080796896,3984,0,0.094659105,0.05487765,-9.833162,3984
177414422,0.015298464,0.007434919,-0.0023652907,4000,0,-0.083465025,-0.015106824,-9.70183,4000
177418470,0.0013413727,-0.006667891,-0.004301108,4048,0,0.0335071,0.047453195,-9.791157,4048
177422422,-0.0003875624,0.007274263,-0.0034092618,3952,0,0.011625974,0.18383639,-9.652074,3952
177426437,0.0008216964,-0.0054356884,-0.0045027174,4015,0,-0.020643033,-0.09780037,-9.788867,4015
177430422,-0.00083287957,-0.00427408,-0.0014231376,3985,0,-0.0050108824,0.17353554,-9.734344,3985
177434422,0.0006492896,-0.002975522,-0.0045001265,4000,0,-0.0054639643,-0.03024296,-9.6235895,4000
177438422,-0.009328994,-0.0027375803,-0.003996349,4000,0,-0.14804909,0.06713402,-9.927556,4000
177442422,-0.0011772062,-0.0011237168,-0.0033410133,4000,0,0.12572373,0.035123438,-9.633266,4000
177446428,-0.0029070643,0.0013517978,-0.0033579764,4006,0,-0.025307167,0.006567351,-9.783515,4006
177450427,-0.0041764043,-0.009166688,-0.002135043,3999,0,-0.04935139,0.14062268,-9.669367,3999
177454421,-0.0083125625,0.007067525,0.00018180671,3994,0,0.02547411,-0.12974851,-9.704536,3994
177458423,0.0017347786,-0.0058527226,-0.0012791026,4002,0,0.07596279,0.18943797,-9.838836,4002
177462422,-0.019079862,0.00260196,-6.635844e-05,3999,0,-0.008738588,0.038891364,-9.456716,3999
177466448,0.008330848,-0.004511643,0.0042212643,4026,0,0.018828582,-0.08839394,-9.949304,4026
177470477,-0.01015708,0.0036862914,0.0015393067,4029,0,0.011378661,0.17942666,-9.589238,4029
177474422,-0.012631122,-0.0026133324,0.0044001145,3945,0,0.09528806,0.0882744,-9.688956,3945
177478423,0.011142335,0.010736201,0.0010996353,4001,0,-0.08639311,-0.10708548,-9.753416,4001
177482422,-0.020616312,-0.00029320762,0.000344777,3999,0,0.08916853,0.22449486,-9.796824,3999
177486432,0.0068739494,0.010731424,0.0021189975,4010,0,-0.053849835,-0.16926427,-9.733531,4010
177490425,-0.0097718965,0.0022002016,0.00090886577,3993,0,-0.034600288,0.20738389,-9.727868,3993
177494436,0.002377217,0.006364341,0.0012975332,4011,0,-0.039751295,-0.10117158,-9.777384,4011
177498422,-0.0072289393,0.0070920866,0.00032503647,3986,0,-0.04443895,0.18570234,-9.733421,3986
177502422,-0.003791692,0.0047674766,-0.0005975685,4000,0,-0.02872969,-0.012249683,-9.702388,4000
177506449,0.004805474,0.0005725077,-0.0016864375,4027,0,0.036163244,-0.06664818,-9.731945,4027
177510436,0.0012267277,0.014106736,-0.0002935912,3987,0,-0.014926376,0.078342296,-9.690927,3987
177514422,-0.008299723,-0.007087122,-0.0023988981,3986,0,-0.05577363,0.08106046,-9.88348,3986
177518421,0.008048407,0.011946641,-0.002343386,3999,0,-0.002396273,-0.09810004,-9.554967,3999
177522422,-0.004452431,-0.008816492,-0.0015865582,4001,0,0.024824722,0.064412735,-9.868013,4001
177526422,0.0021872132,0.009459278,-0.0013578285,4000,0,0.00997725,0.100861885,-9.61716,4000
177530422,-0.00290249,-0.006286309,-0.002956982,4000,0,0.0065579494,-0.093503326,-9.858162,4000
177534422,0.011158809,-0.0020238934,-0.0034934299,4000,0,-0.017464763,0.16042982,-9.637464,4000
177538422,-0.003629936,0.0035737774,-0.0030389593,4000,0,0.022978459,0.045366894,-9.731529,4000
177542427,7.358051e-06,-0.007601509,-0.0033609406,4005,0,-0.20221326,-0.0006000771,-9.922099,4005
177546422,0.007844813,0.0027369761,-0.0016255666,3995,0,0.1959687,0.11580439,-9.610133,3995
177550422,-0.009697507,-0.004061912,-0.0033600775,4000,0,-0.09738491,0.121059254,-9.739426,4000
177554431,0.014616157,-0.0044869655,-0.0036874902,4009,0,-0.07027867,-0.06179405,-9.737743,4009
177558422,-0.008502394,0.004817109,-0.0016211419,3991,0,0.067831025,0.1429644,-9.74531,3991
177562428,-0.00045975047,-0.008205571,-0.0017509192,4006,0,-0.04569017,0.079623625,-9.56009,4006
177566422,0.0041240677,0.0055117104,-0.0041069835,3994,0,0.036511727,-0.10554705,-9.747852,3994
177570422,-0.0015281698,-0.007941953,-0.0010285208,4000,0,0.05565261,0.16075635,-9.825769,4000
177574447,-0.0021839475,0.019011188,-0.00086010416,4025,0,0.05107031,-0.05166652,-9.6324625,4025
177578421,0.00084086444,-0.009634803,0.00025908367,3974,0,-0.04516021,0.032551974,-9.760494,3974
177582422,0.0011470868,0.013457345,0.0014299507,4001,0,0.003457168,0.071778715,-9.750708,4001
177586422,-0.008718239,0.0049786703,0.0031697839,4000,0,0.09342951,-0.017225757,-9.86013,4000
177590422,0.0045852787,0.006244886,0.0004753723,4000,0,-0.124674276,0.0074745924,-9.599405,4000
177594461,-0.010803607,0.001348983,0.001757305,4039,0,0.075189434,0.14280468,-9.801577,4039
177598422,-0.0006544079,0.008695598,0.0013640848,3961,0,-0.091909446,-0.047759492,-9.695982,3961
177602422,-0.008846379,0.006262339,0.0016923383,4000,0,-0.036617912,0.11762503,-9.804541,4000
177606422,-0.0078878915,0.0043586795,-0.001710899,4000,0,-0.0056434763,-0.06040528,-9.589327,4000
177610422,0.0019475213,0.0029624286,0.00053693197,4000,0,0.024903193,0.1543398,-9.760968,4000
177614437,-0.010496391,0.0064848117,0.0003826863,4015,0,-0.06816293,0.030902717,-9.7131195,4015
177618422,-0.003655906,-0.00046571103,0.0021738093,3985,0,0.07491215,-0.03697809,-9.843683,3985
177622422,0.005721091,0.010805635,-0.00014493513,4000,0,0.053504623,0.10103339,-9.572531,4000
177626433,-0.014746375,-0.010187385,-0.003548282,4011,0,-0.10563292,0.11344948,-9.877073,4011
177630422,0.0069595855,0.0097770635,-0.0019241881,3989,0,-0.011778264,-0.15006611,-9.702195,3989
177634440,-0.006982533,-0.0026039823,-0.0023663342,4018,0,0.141562,0.13285698,-9.734461,4018
177638459,-0.0017845267,-0.003494232,-0.0018353887,4019,0,-0.1739716,0.0987319,-9.686861,4019
177642421,0.003256526,0.00025461923,-0.0006236397,3962,0,0.05752416,-0.1284125,-9.80104,3962
177646449,-0.008195672,-9.746689e-06,-0.003546816,4028,0,-0.055074483,0.18324982,-9.783547,4028
177650422,0.0036122687,-0.00032910224,-0.0030795601,3973,0,0.07040896,0.00428151,-9.642568,3973
177654442,0.0008313596,-0.0031698241,-0.0023650092,4020,0,-0.14657895,0.023464236,-9.826994,4020
177658422,0.00017174732,-0.00295597,-0.0013098381,3980,0,0.09265783,0.033504345,-9.685851,3980
177662422,-0.0032148792,-0.0007473349,-0.0014559699,4000,0,-0.018201204,0.037870575,-9.758333,4000
177666457,0.0006699545,-0.00521446,-0.0020560697,4035,0,0.05640257,0.082027115,-9.668338,4035
177670422,-0.0005478748,0.004249087,-0.00034650668,3965,0,0.0226595,-0.0026675141,-9.676845,3965
177674422,-0.0015863591,0.0027501828,-0.0021441532,4000,0,0.027385417,0.055991407,-9.91183,4000
177678422,-0.0004640723,0.005198006,-0.0012996321,4000,0,0.017459832,0.10342727,-9.462304,4000
177682422,-0.000798285,-0.0007657238,-0.00078543107,4000,0,0.009252148,-0.0228889,-9.921731,4000
177686461,0.007270235,0.0052322587,-0.0015130101,4039,0,-0.009719556,0.10419172,-9.631807,4039
177690423,-0.013805679,0.009228166,0.0011867996,3962,0,0.0020909498,0.044448864,-9.817619,3962
177694421,0.012212456,0.0016875328,-0.0014651364,3998,0,-0.020491596,-0.04646496,-9.750071,3998
177698422,-0.0017357534,0.00784037,0.0032634912,4001,0,-0.018730307,0.19492508,-9.783467,4001
177702422,-0.0082778605,0.006258149,0.002972135,4000,0,-0.035812005,-0.008342961,-9.881635,4000
177706473,0.0041863224,0.007723055,0.0017572946,4051,0,-0.012217718,-0.014284963,-9.546638,4051
177710422,-0.0034651733,0.001973646,0.000570286,3949,0,0.0034320743,0.060266484,-9.937018,3949
177714422,-0.0046737446,0.0073212236,0.0023791713,4000,0,0.057635013,0.08022545,-9.576699,4000
177718422,-0.00031501378,0.0053345812,-0.00055479584,4000,0,-0.15633413,-0.012273297,-9.912659,4000
177722459,-0.00852496,0.00016105286,-0.0012140191,4037,0,0.12207563,0.07839642,-9.699518,4037
177726427,0.0026037346,0.004477444,-0.00016752389,3968,0,-0.10971577,0.077107646,-9.615509,3968
177730422,-0.011444316,-0.0034216235,-0.0014623455,3995,0,-0.052575763,0.008335613,-9.8573885,3995
177734422,-0.0037649742,0.007758004,-0.0019717894,4000,0,-0.011471816,0.1311959,-9.692769,4000
177738422,-0.0026815608,0.00078580977,-0.0030444814,4000,0,0.03496496,-0.03507624,-9.734848,4000
177742459,-0.010292784,-0.0055520386,-0.003155226,4037,0,-0.17366987,0.08802876,-9.744937,4037
177746427,0.010254665,0.006201488,-0.0040191556,3968,0,0.11238911,-0.11132121,-9.663514,3968
177750422,-0.019561373,-0.0028830676,-0.0032539817,3995,0,-0.09124475,0.2635418,-9.840376,3995
177754422,0.0125964815,-0.00033517173,-0.00039834145,4000,0,0.039320808,-0.20805633,-9.429877,4000
177758422,-0.009885836,-0.00218005,-0.0031493516,4000,0,-0.034692414,0.10885152,-9.966034,4000
177762458,-0.004064562,0.0014849751,-0.0017786513,4036,0,0.015056501,0.04120629,-9.63284,4036
177766424,-0.0016055466,0.0019072415,-0.003035735,3966,0,0.085789,0.032203533,-9.721793,3966
177770422,-0.00040081888,-0.0034596513,7.2249284e-05,3998,0,-0.052476477,0.058162093,-9.767169,3998
177774421,0.0010394332,0.0016956568,-0.0036107078,3999,0,0.086179264,9.9221616e-05,-9.710075,3999
177778425,-0.0066532777,0.0007251285,-0.00010326083,4004,0,0.045842882,0.11262059,-9.788226,4004
177782428,0.003573855,0.004781726,-0.0032643368,4003,0,0.024218876,-0.005792036,-9.619784,4003
177786422,-0.0006888636,0.001468833,-0.0017350762,3994,0,-0.06884543,0.12553298,-9.886652,3994
177790422,0.0008251451,0.0066963397,-0.0013869924,4000,0,-0.021530079,-0.102835774,-9.638587,4000
177794422,-0.0026178912,0.0055179805,5.902413e-05,4000,0,0.041366257,0.18905017,-9.694265,4000
177798422,0.007331424,0.004014363,-0.000773955,4000,0,-0.066668354,-0.027297465,-9.777492,4000
177802447,-8.6025655e-05,0.00738906,0.0020986046,4025,0,0.065418415,0.068019554,-9.703373,4025
177806471,-0.0050627026,0.0069554276,0.0011934568,4024,0,-0.11929139,-0.029701347,-9.838454,4024
177810422,0.0057073515,0.006696276,0.0026249767,3951,0,0.11793408,0.07271543,-9.705014,3951
177814422,-0.0019045015,0.0017866708,0.0022931003,4000,0,-0.05317168,0.036108322,-9.720132,4000
177818422,-3.043063e-05,0.007150183,0.002760215,4000,0,0.029316865,-0.038219854,-9.797176,4000
177822422,-0.0036100876,0.0045498135,0.0016392012,4000,0,-0.02822207,0.1247297,-9.732991,4000
177826425,0.0031346173,-0.0024668511,-0.0005259652,4003,0,0.04714283,0.0151179135,-9.759862,4003
177830422,-0.0023323076,0.0045429147,0.00082181714,3997,0,-0.04071968,0.13037314,-9.680718,3997
177834422,-0.0023910347,0.0019027742,-0.0012251148,4000,0,-0.098316394,0.004782665,-9.806177,4000
177838422,-0.0044688582,0.00095857814,0.00066499173,4000,0,0.029321507,0.21007642,-9.71759,4000
177842422,7.2312585e-05,-0.0052280338,-0.0016364375,4000,0,-0.0805652,-0.0030382604,-9.6417,4000
177846422,-0.0028077487,0.0048830537,-0.002074295,4000,0,-0.045576736,0.08389527,-9.878851,4000
177850422,-0.008287352,-0.007474401,0.00049231236,4000,0,-0.05186683,0.0454919,-9.667001,4000
177854422,0.0014851541,-0.0014926973,-0.004590415,4000,0,0.043773446,0.10549073,-9.736231,4000
177858422,0.0015923271,-0.009501977,-0.0024709888,4000,0,-0.031671,-0.11306512,-9.711595,4000
177862422,-0.01071711,0.0039024113,-0.0039867763,4000,0,-0.02085528,0.119551495,-9.799749,4000
177866422,-0.0020114447,-0.004641564,-0.00048855884,4000,0,0.10219492,-0.022791635,-9.689604,4000
177870439,-0.004778939,-0.0025228998,-0.0051009418,4017,0,-0.05484371,0.014980397,-9.649396,4017
177874423,0.0037836398,0.0026374634,-0.003701789,3984,0,0.056594234,-0.026349261,-9.895383,3984
177878422,-0.015295378,0.0009357236,-0.0026671346,3999,0,9.122927e-05,0.06314879,-9.578619,3999
177882422,0.0065577393,0.004035029,-0.0015287235,4000,0,0.058643732,0.025342872,-9.838882,4000
177886422,-4.0140083e-05,-0.0025648747,-0.0019519797,4000,0,0.03160188,-0.029179653,-9.627199,4000
177890428,-0.004371107,0.0072309175,-0.0034697023,4006,0,-0.018905437,0.11383761,-9.823184,4006
177894422,-0.0018489879,0.0032922043,-0.0022782865,3994,0,-0.023925584,0.015535716,-9.69693,3994
177898423,-0.0011842478,0.0026568787,-0.0037411654,4001,0,0.07350754,0.14412051,-9.735737,4001
177902422,-0.0006223911,0.005313355,-0.0041726413,3999,0,-0.04132501,0.014323361,-9.675325,3999
177906423,-0.00091356534,0.007545407,-0.0019545124,4001,0,0.017057478,0.0076568187,-9.782578,4001
177910447,-0.008113872,0.0060249027,-0.0013971868,4024,0,-0.017827557,0.15056868,-9.741689,4024
177914422,0.013621838,0.0090175,0.00059907354,3975,0,0.09395949,-0.02533755,-9.676491,3975
177918422,-0.012384196,0.0019857644,-0.0008583618,4000,0,-0.12929015,0.03159434,-9.913651,4000
177922438,0.003621112,0.010280823,0.00089426694,4016,0,0.08430932,-0.00078425795,-9.676996,4016
177926422,-0.0050469446,0.0040228046,-0.0007263825,3984,0,-0.056596372,0.12721947,-9.7902155,3984
