timestamp,min_distance,max_distance,current_distance,covariance,signal_quality,type,id,orientation
175362855,0.01,50.0,1.02,0.0,64,0,3,0
175395735,0.01,50.0,1.03,0.0,64,0,3,0
175459758,0.01,50.0,1.09,0.0,64,0,3,0
175492148,0.01,50.0,1.06,0.0,64,0,3,0
175524505,0.01,50.0,1.05,0.0,0,0,3,0
175556922,0.01,50.0,1.06,0.0,64,0,3,0
175588718,0.01,50.0,1.03,0.0,64,0,3,0
175621335,0.01,50.0,1.01,0.0,0,0,3,0
175652964,0.01,50.0,1.04,0.0,0,0,3,0
175685742,0.01,50.0,1.0799999,0.0,0,0,3,0
175717170,0.01,50.0,1.0799999,0.0,64,0,3,0
175749310,0.01,50.0,1.05,0.0,0,0,3,0
175781764,0.01,50.0,1.02,0.0,64,0,3,0
175813504,0.01,50.0,1.03,0.0,64,0,3,0
175845919,0.01,50.0,1.03,0.0,64,0,3,0
175878010,0.01,50.0,1.06,0.0,64,0,3,0
175909922,0.01,50.0,1.0799999,0.0,4,0,3,0
175941918,0.01,50.0,1.0699999,0.0,64,0,3,0
175972759,0.01,50.0,1.04,0.0,64,0,3,0
176005297,0.01,50.0,1.06,0.0,0,0,3,0
176037112,0.01,50.0,1.03,0.0,64,0,3,0
176069508,0.01,50.0,1.05,0.0,64,0,3,0
176102133,0.01,50.0,1.05,0.0,64,0,3,0
176133788,0.01,50.0,1.05,0.0,64,0,3,0
176166034,0.01,50.0,1.05,0.0,0,0,3,0
176198107,0.01,50.0,1.04,0.0,64,0,3,0
176229931,0.01,50.0,1.03,0.0,64,0,3,0
176262059,0.01,50.0,1.05,0.0,0,0,3,0
176294088,0.01,50.0,1.03,0.0,0,0,3,0
176326105,0.01,50.0,1.0699999,0.0,64,0,3,0
176358168,0.01,50.0,1.0699999,0.0,0,0,3,0
176390138,0.01,50.0,1.05,0.0,64,0,3,0
176421939,0.01,50.0,1.06,0.0,64,0,3,0
176453934,0.01,50.0,1.05,0.0,64,0,3,0
176486121,0.01,50.0,1.02,0.0,64,0,3,0
176516745,0.01,50.0,1.05,0.0,64,0,3,0
176548120,0.01,50.0,1.05,0.0,4,0,3,0
176579789,0.01,50.0,1.05,0.0,64,0,3,0
176611752,0.01,50.0,1.04,0.0,64,0,3,0
176642830,0.01,50.0,1.06,0.0,64,0,3,0
176674865,0.01,50.0,1.06,0.0,64,0,3,0
176706826,0.01,50.0,1.05,0.0,0,0,3,0
176739589,0.01,50.0,1.04,0.0,64,0,3,0
176770864,0.01,50.0,1.03,0.0,4,0,3,0
176802558,0.01,50.0,1.05,0.0,64,0,3,0
176834869,0.01,50.0,1.04,0.0,64,0,3,0
176866586,0.01,50.0,1.03,0.0,64,0,3,0
176899514,0.01,50.0,1.06,0.0,4,0,3,0
176931766,0.01,50.0,1.05,0.0,64,0,3,0
176963023,0.01,50.0,1.06,0.0,64,0,3,0
176994909,0.01,50.0,1.01,0.0,0,0,3,0
177027123,0.01,50.0,1.05,0.0,0,0,3,0
177060142,0.01,50.0,1.03,0.0,64,0,3,0
177092332,0.01,50.0,1.0699999,0.0,64,0,3,0
177124146,0.01,50.0,1.05,0.0,4,0,3,0
177156962,0.01,50.0,1.04,0.0,64,0,3,0
177188745,0.01,50.0,1.03,0.0,64,0,3,0
177221131,0.01,50.0,1.05,0.0,64,0,3,0
177252201,0.01,50.0,1.05,0.0,64,0,3,0
177284570,0.01,50.0,1.05,0.0,64,0,3,0
177317387,0.01,50.0,1.01,0.0,64,0,3,0
177348770,0.01,50.0,1.06,0.0,64,0,3,0
177380747,0.01,50.0,1.06,0.0,64,0,3,0
177412118,0.01,50.0,1.05,0.0,64,0,3,0
177445373,0.01,50.0,1.02,0.0,64,0,3,0
177478019,0.01,50.0,1.04,0.0,64,0,3,0
177508917,0.01,50.0,1.04,0.0,0,0,3,0
177540518,0.01,50.0,1.02,0.0,64,0,3,0
177572767,0.01,50.0,1.04,0.0,0,0,3,0
177605148,0.01,50.0,1.03,0.0,0,0,3,0
177636748,0.01,50.0,1.04,0.0,64,0,3,0
177668621,0.01,50.0,1.05,0.0,4,0,3,0
177700964,0.01,50.0,1.06,0.0,64,0,3,0
177732677,0.01,50.0,1.05,0.0,64,0,3,0
177764149,0.01,50.0,1.04,0.0,64,0,3,0
177796664,0.01,50.0,1.05,0.0,64,0,3,0
177828178,0.01,50.0,1.04,0.0,64,0,3,0
177860984,0.01,50.0,1.04,0.0,64,0,3,0
177892945,0.01,50.0,1.04,0.0,0,0,3,0
177924918,0.01,50.0,1.05,0.0,64,0,3,0
177956976,0.01,50.0,1.04,0.0,64,0,3,0
177989779,0.01,50.0,1.06,0.0,0,0,3,0
178022129,0.01,50.0,1.04,0.0,64,0,3,0
178054282,0.01,50.0,1.03,0.0,64,0,3,0
178086902,0.01,50.0,1.0799999,0.0,64,0,3,0
178118245,0.01,50.0,1.06,0.0,64,0,3,0
178149784,0.01,50.0,1.05,0.0,0,0,3,0
178182849,0.01,50.0,1.04,0.0,4,0,3,0
178214841,0.01,50.0,1.05,0.0,64,0,3,0
178246956,0.01,50.0,1.03,0.0,64,0,3,0
178278180,0.01,50.0,1.06,0.0,64,0,3,0
178309783,0.01,50.0,1.0699999,0.0,64,0,3,0
178341751,0.01,50.0,1.05,0.0,64,0,3,0
178374175,0.01,50.0,1.04,0.0,56,0,3,0
178405748,0.01,50.0,1.05,0.0,0,0,3,0
178438170,0.01,50.0,1.03,0.0,4,0,3,0
178469889,0.01,50.0,1.05,0.0,64,0,3,0
178501911,0.01,50.0,1.05,0.0,0,0,3,0
178533868,0.01,50.0,1.05,0.0,64,0,3,0
178565751,0.01,50.0,1.04,0.0,64,0,3,0
178598553,0.01,50.0,1.04,0.0,64,0,3,0
178630882,0.01,50.0,1.06,0.0,0,0,3,0
178662929,0.01,50.0,1.06,0.0,0,0,3,0
178694874,0.01,50.0,1.04,0.0,64,0,3,0
178726236,0.01,50.0,1.05,0.0,4,0,3,0
178758390,0.01,50.0,1.06,0.0,4,0,3,0
178790876,0.01,50.0,1.01,0.0,0,0,3,0
178822841,0.01,50.0,1.05,0.0,64,0,3,0
178854849,0.01,50.0,1.04,0.0,64,0,3,0
178886901,0.01,50.0,1.03,0.0,0,0,3,0
178919918,0.01,50.0,1.06,0.0,64,0,3,0
178951786,0.01,50.0,1.06,0.0,4,0,3,0
178983743,0.01,50.0,1.04,0.0,64,0,3,0
179016542,0.01,50.0,1.05,0.0,64,0,3,0
179048741,0.01,50.0,1.03,0.0,64,0,3,0
179080193,0.01,50.0,1.06,0.0,-84,0,3,0
179111785,0.01,50.0,1.05,0.0,64,0,3,0
179143838,0.01,50.0,1.05,0.0,64,0,3,0
179175772,0.01,50.0,1.05,0.0,64,0,3,0
179207947,0.01,50.0,1.03,0.0,64,0,3,0
179239312,0.01,50.0,1.04,0.0,4,0,3,0
179271567,0.01,50.0,1.03,0.0,4,0,3,0
179303749,0.01,50.0,1.02,0.0,64,0,3,0
179335742,0.01,50.0,1.04,0.0,64,0,3,0
179368328,0.01,50.0,1.05,0.0,0,0,3,0
179400763,0.01,50.0,1.05,0.0,0,0,3,0
179432369,0.01,50.0,1.06,0.0,4,0,3,0
179464935,0.01,50.0,1.02,0.0,64,0,3,0
179496742,0.01,50.0,1.09,0.0,64,0,3,0
179528936,0.01,50.0,1.03,0.0,64,0,3,0
179560195,0.01,50.0,1.0699999,0.0,4,0,3,0
179591749,0.01,50.0,1.06,0.0,64,0,3,0
179623915,0.01,50.0,1.05,0.0,64,0,3,0
179655300,0.01,50.0,1.05,0.0,64,0,3,0
179687805,0.01,50.0,1.04,0.0,64,0,3,0
179719791,0.01,50.0,1.05,0.0,0,0,3,0
179751862,0.01,50.0,1.04,0.0,4,0,3,0
179783783,0.01,50.0,1.06,0.0,-72,0,3,0
179816595,0.01,50.0,1.02,0.0,64,0,3,0
179848955,0.01,50.0,1.06,0.0,64,0,3,0
179880415,0.01,50.0,1.09,0.0,4,0,3,0
179912914,0.01,50.0,1.05,0.0,64,0,3,0
179944761,0.01,50.0,1.03,0.0,64,0,3,0
179976959,0.01,50.0,1.05,0.0,64,0,3,0
180008741,0.01,50.0,1.06,0.0,64,0,3,0
180040910,0.01,50.0,1.0699999,0.0,64,0,3,0
180072759,0.01,50.0,1.0699999,0.0,64,0,3,0
180104761,0.01,50.0,1.05,0.0,64,0,3,0
180136754,0.01,50.0,1.05,0.0,64,0,3,0
180168557,0.01,50.0,1.0699999,0.0,64,0,3,0
180200915,0.01,50.0,1.0799999,0.0,64,0,3,0
180232756,0.01,50.0,1.0699999,0.0,64,0,3,0
180264761,0.01,50.0,1.06,0.0,64,0,3,0
180296444,0.01,50.0,1.06,0.0,0,0,3,0
180328541,0.01,50.0,1.0799999,0.0,64,0,3,0
180360500,0.01,50.0,1.0699999,0.0,0,0,3,0
180392761,0.01,50.0,1.0799999,0.0,64,0,3,0
180424757,0.01,50.0,1.0799999,0.0,64,0,3,0
180456306,0.01,50.0,1.0799999,0.0,0,0,3,0
180488378,0.01,50.0,1.0699999,0.0,64,0,3,0
180520976,0.01,50.0,1.04,0.0,64,0,3,0
180552757,0.01,50.0,1.05,0.0,64,0,3,0
180584972,0.01,50.0,1.06,0.0,64,0,3,0
180616756,0.01,50.0,1.0799999,0.0,64,0,3,0
180648742,0.01,50.0,1.0699999,0.0,64,0,3,0
180680759,0.01,50.0,1.0799999,0.0,64,0,3,0
180712266,0.01,50.0,1.0699999,0.0,0,0,3,0
180742903,0.01,50.0,1.0799999,0.0,0,0,3,0
180774855,0.01,50.0,1.09,0.0,0,0,3,0
180806906,0.01,50.0,1.15,0.0,64,0,3,0
180838852,0.01,50.0,1.14,0.0,0,0,3,0
180870893,0.01,50.0,1.18,0.0,0,0,3,0
180902846,0.01,50.0,1.18,0.0,64,0,3,0
180933908,0.01,50.0,1.1999999,0.0,64,0,3,0
180965907,0.01,50.0,1.24,0.0,64,0,3,0
180996746,0.01,50.0,1.25,0.0,0,0,3,0
181027818,0.01,50.0,1.3,0.0,4,0,3,0
181060173,0.01,50.0,1.3199999,0.0,4,0,3,0
181091372,0.01,50.0,1.3399999,0.0,4,0,3,0
181123379,0.01,50.0,1.35,0.0,4,0,3,0
181155529,0.01,50.0,1.4,0.0,4,0,3,0
181187804,0.01,50.0,1.43,0.0,4,0,3,0
181219336,0.01,50.0,1.4499999,0.0,4,0,3,0
181252325,0.01,50.0,1.4499999,0.0,4,0,3,0
181284200,0.01,50.0,1.49,0.0,4,0,3,0
181316300,0.01,50.0,1.53,0.0,4,0,3,0
181636613,0.01,50.0,1.66,0.0,4,0,3,0
181668728,0.01,50.0,1.68,0.0,4,0,3,0
181700618,0.01,50.0,1.6899999,0.0,4,0,3,0
181733386,0.01,50.0,1.67,0.0,4,0,3,0
181765355,0.01,50.0,1.65,0.0,4,0,3,0
181796924,0.01,50.0,1.66,0.0,4,0,3,0
181828961,0.01,50.0,1.65,0.0,4,0,3,0
181861311,0.01,50.0,1.65,0.0,4,0,3,0
181892630,0.01,50.0,1.64,0.0,4,0,3,0
181924921,0.01,50.0,1.64,0.0,4,0,3,0
181957766,0.01,50.0,1.61,0.0,4,0,3,0
181988981,0.01,50.0,1.56,0.0,4,0,3,0
182021495,0.01,50.0,1.56,0.0,4,0,3,0
182053355,0.01,50.0,1.5699999,0.0,4,0,3,0
182084935,0.01,50.0,1.55,0.0,4,0,3,0
182117316,0.01,50.0,1.53,0.0,4,0,3,0
182148980,0.01,50.0,1.5,0.0,4,0,3,0
182180542,0.01,50.0,1.48,0.0,4,0,3,0
182213971,0.01,50.0,1.4599999,0.0,4,0,3,0
182246212,0.01,50.0,1.49,0.0,4,0,3,0
182278747,0.01,50.0,1.4499999,0.0,4,0,3,0
182310323,0.01,50.0,1.42,0.0,4,0,3,0
182343517,0.01,50.0,1.41,0.0,0,0,3,0
182375643,0.01,50.0,1.42,0.0,0,0,3,0
182407819,0.01,50.0,1.4599999,0.0,64,0,3,0
182439753,0.01,50.0,1.4699999,0.0,64,0,3,0
182471726,0.01,50.0,1.52,0.0,0,0,3,0
182503752,0.01,50.0,1.5899999,0.0,-72,0,3,0
182535775,0.01,50.0,1.63,0.0,64,0,3,0
182568632,0.01,50.0,1.68,0.0,64,0,3,0
182601230,0.01,50.0,1.75,0.0,0,0,3,0
182631754,0.01,50.0,1.76,0.0,64,0,3,0
182662827,0.01,50.0,1.91,0.0,64,0,3,0
182694136,0.01,50.0,2.0,0.0,64,0,3,0
182725989,0.01,50.0,2.1,0.0,64,0,3,0
182759124,0.01,50.0,2.21,0.0,4,0,3,0
182790791,0.01,50.0,2.33,0.0,0,0,3,0
182822096,0.01,50.0,2.49,0.0,4,0,3,0
182854539,0.01,50.0,2.6,0.0,64,0,3,0
182886856,0.01,50.0,2.71,0.0,64,0,3,0
182918329,0.01,50.0,2.8,0.0,64,0,3,0
182950894,0.01,50.0,2.96,0.0,0,0,3,0
182982902,0.01,50.0,2.98,0.0,64,0,3,0
183014847,0.01,50.0,3.1599998,0.0,64,0,3,0
183046835,0.01,50.0,3.25,0.0,64,0,3,0
183078928,0.01,50.0,3.4399998,0.0,64,0,3,0
183110305,0.01,50.0,3.6999998,0.0,64,0,3,0
183141898,0.01,50.0,3.9499998,0.0,64,0,3,0
183174361,0.01,50.0,4.2799997,0.0,64,0,3,0
183206098,0.01,50.0,4.33,0.0,4,0,3,0
183238539,0.01,50.0,4.29,0.0,64,0,3,0
183270835,0.01,50.0,4.3199997,0.0,64,0,3,0
183302936,0.01,50.0,4.35,0.0,0,0,3,0
183334592,0.01,50.0,4.29,0.0,64,0,3,0
183366880,0.01,50.0,0.0,0.0,0,0,3,0
183398098,0.01,50.0,4.41,0.0,4,0,3,0
183430576,0.01,50.0,3.57,0.0,64,0,3,0
183461954,0.01,50.0,3.27,0.0,64,0,3,0
183493558,0.01,50.0,3.1,0.0,64,0,3,0
183525980,0.01,50.0,2.9299998,0.0,64,0,3,0
183556752,0.01,50.0,2.81,0.0,64,0,3,0
183588759,0.01,50.0,2.74,0.0,0,0,3,0
183620116,0.01,50.0,2.59,0.0,4,0,3,0
183651756,0.01,50.0,2.3799999,0.0,64,0,3,0
183683163,0.01,50.0,2.1599998,0.0,4,0,3,0
183714861,0.01,50.0,1.9799999,0.0,0,0,3,0
183746976,0.01,50.0,1.87,0.0,64,0,3,0
183778843,0.01,50.0,1.76,0.0,64,0,3,0
183812156,0.01,50.0,1.68,0.0,4,0,3,0
183843755,0.01,50.0,1.5799999,0.0,64,0,3,0
183875743,0.01,50.0,1.48,0.0,64,0,3,0
183907493,0.01,50.0,1.41,0.0,0,0,3,0
183939741,0.01,50.0,1.3199999,0.0,64,0,3,0
183970930,0.01,50.0,1.28,0.0,4,0,3,0
184002980,0.01,50.0,1.22,0.0,4,0,3,0
184034883,0.01,50.0,1.1999999,0.0,0,0,3,0
184067100,0.01,50.0,1.17,0.0,64,0,3,0
184098905,0.01,50.0,1.15,0.0,64,0,3,0
184130744,0.01,50.0,1.14,0.0,0,0,3,0
184163354,0.01,50.0,1.12,0.0,4,0,3,0
184195744,0.01,50.0,1.15,0.0,64,0,3,0
184227804,0.01,50.0,1.17,0.0,64,0,3,0
184259528,0.01,50.0,1.17,0.0,64,0,3,0
184291352,0.01,50.0,1.16,0.0,64,0,3,0
184322873,0.01,50.0,1.1999999,0.0,0,0,3,0
184355401,0.01,50.0,1.24,0.0,64,0,3,0
184386854,0.01,50.0,1.31,0.0,4,0,3,0
184419793,0.01,50.0,1.3399999,0.0,64,0,3,0
184451748,0.01,50.0,1.41,0.0,64,0,3,0
184483037,0.01,50.0,1.3399999,0.0,64,0,3,0
184514879,0.01,50.0,1.1999999,0.0,64,0,3,0
184546891,0.01,50.0,1.22,0.0,0,0,3,0
184578900,0.01,50.0,1.36,0.0,64,0,3,0
184611490,0.01,50.0,1.48,0.0,4,0,3,0
184643771,0.01,50.0,1.62,0.0,64,0,3,0
184675895,0.01,50.0,1.7199999,0.0,64,0,3,0
184708927,0.01,50.0,1.79,0.0,64,0,3,0
184740933,0.01,50.0,1.88,0.0,64,0,3,0
184772743,0.01,50.0,2.0,0.0,64,0,3,0
184804486,0.01,50.0,2.02,0.0,64,0,3,0
184836737,0.01,50.0,2.07,0.0,64,0,3,0
184868935,0.01,50.0,2.1699998,0.0,0,0,3,0
184900754,0.01,50.0,2.29,0.0,0,0,3,0
184932892,0.01,50.0,2.6499999,0.0,64,0,3,0
184964752,0.01,50.0,2.9099998,0.0,64,0,3,0
184996487,0.01,50.0,3.07,0.0,64,0,3,0
185028772,0.01,50.0,3.1399999,0.0,64,0,3,0
185060143,0.01,50.0,3.1699998,0.0,64,0,3,0
185092131,0.01,50.0,3.1,0.0,64,0,3,0
185124451,0.01,50.0,2.83,0.0,0,0,3,0
185156742,0.01,50.0,2.55,0.0,64,0,3,0
185188678,0.01,50.0,2.29,0.0,0,0,3,0
185220301,0.01,50.0,2.1499999,0.0,64,0,3,0
185252758,0.01,50.0,2.04,0.0,64,0,3,0
185284154,0.01,50.0,1.9799999,0.0,64,0,3,0
185316545,0.01,50.0,1.9399999,0.0,64,0,3,0
185348762,0.01,50.0,1.92,0.0,64,0,3,0
185380939,0.01,50.0,1.9,0.0,0,0,3,0
185412979,0.01,50.0,1.8199999,0.0,0,0,3,0
185444742,0.01,50.0,1.76,0.0,64,0,3,0
185926858,0.01,50.0,1.2099999,0.0,-72,0,3,0
185958342,0.01,50.0,1.18,0.0,0,0,3,0
186500741,0.01,50.0,3.6899998,0.0,64,0,3,0
186532124,0.01,50.0,4.38,0.0,4,0,3,0
186563887,0.01,50.0,5.0299997,0.0,64,0,3,0
186595338,0.01,50.0,5.25,0.0,64,0,3,0
186628172,0.01,50.0,0.0,0.0,64,0,3,0
186659354,0.01,50.0,6.0499997,0.0,0,0,3,0
186691702,0.01,50.0,5.2799997,0.0,4,0,3,0
186724142,0.01,50.0,5.0499997,0.0,64,0,3,0
186755758,0.01,50.0,4.0499997,0.0,64,0,3,0
186788189,0.01,50.0,3.1399999,0.0,64,0,3,0
186819348,0.01,50.0,2.46,0.0,4,0,3,0
186851800,0.01,50.0,2.08,0.0,64,0,3,0
186883876,0.01,50.0,1.91,0.0,64,0,3,0
186915749,0.01,50.0,1.61,0.0,0,0,3,0
186947828,0.01,50.0,1.41,0.0,64,0,3,0
186979782,0.01,50.0,1.3,0.0,64,0,3,0
187011829,0.01,50.0,1.26,0.0,4,0,3,0
187043741,0.01,50.0,1.25,0.0,64,0,3,0
187075832,0.01,50.0,1.25,0.0,64,0,3,0
187107351,0.01,50.0,1.26,0.0,4,0,3,0
187139673,0.01,50.0,1.3199999,0.0,0,0,3,0
187172296,0.01,50.0,1.3199999,0.0,64,0,3,0
187204743,0.01,50.0,1.3299999,0.0,64,0,3,0
187236497,0.01,50.0,1.3299999,0.0,64,0,3,0
187268745,0.01,50.0,1.3399999,0.0,64,0,3,0
187300143,0.01,50.0,1.3399999,0.0,4,0,3,0
187331780,0.01,50.0,1.3399999,0.0,64,0,3,0
187363751,0.01,50.0,1.3299999,0.0,64,0,3,0
187397806,0.01,50.0,1.35,0.0,64,0,3,0
187429770,0.01,50.0,1.35,0.0,64,0,3,0
187461135,0.01,50.0,1.3299999,0.0,64,0,3,0
187493752,0.01,50.0,1.3,0.0,64,0,3,0
187525742,0.01,50.0,1.1899999,0.0,64,0,3,0
187557936,0.01,50.0,1.0699999,0.0,64,0,3,0
187588951,0.01,50.0,0.98999995,0.0,64,0,3,0
187621690,0.01,50.0,1.0699999,0.0,64,0,3,0
187652942,0.01,50.0,1.11,0.0,64,0,3,0
187685417,0.01,50.0,1.03,0.0,64,0,3,0
187717809,0.01,50.0,1.03,0.0,64,0,3,0
187749750,0.01,50.0,1.1,0.0,64,0,3,0
187780930,0.01,50.0,1.12,0.0,64,0,3,0
187813736,0.01,50.0,1.22,0.0,64,0,3,0
187845796,0.01,50.0,1.15,0.0,64,0,3,0
187877389,0.01,50.0,1.03,0.0,64,0,3,0
187909780,0.01,50.0,1.05,0.0,64,0,3,0
187941751,0.01,50.0,1.11,0.0,56,0,3,0
187972940,0.01,50.0,1.17,0.0,64,0,3,0
188005754,0.01,50.0,1.0699999,0.0,64,0,3,0
188038026,0.01,50.0,1.03,0.0,64,0,3,0
188069500,0.01,50.0,1.06,0.0,64,0,3,0
188101800,0.01,50.0,1.11,0.0,64,0,3,0
188133929,0.01,50.0,1.1,0.0,64,0,3,0
188165820,0.01,50.0,1.0699999,0.0,64,0,3,0
188198582,0.01,50.0,1.0699999,0.0,4,0,3,0
188230871,0.01,50.0,1.1,0.0,64,0,3,0
188261769,0.01,50.0,1.09,0.0,4,0,3,0
188293944,0.01,50.0,1.0699999,0.0,64,0,3,0
188325934,0.01,50.0,1.1,0.0,64,0,3,0
188357983,0.01,50.0,1.12,0.0,64,0,3,0
188389915,0.01,50.0,1.09,0.0,64,0,3,0
188420754,0.01,50.0,1.0699999,0.0,64,0,3,0
188452761,0.01,50.0,1.0699999,0.0,64,0,3,0
188484756,0.01,50.0,1.0799999,0.0,64,0,3,0
188515748,0.01,50.0,1.0699999,0.0,64,0,3,0
188546837,0.01,50.0,1.09,0.0,64,0,3,0
188578887,0.01,50.0,1.09,0.0,64,0,3,0
188610893,0.01,50.0,1.09,0.0,64,0,3,0
188643118,0.01,50.0,1.09,0.0,64,0,3,0
188675130,0.01,50.0,1.11,0.0,64,0,3,0
188706914,0.01,50.0,1.1,0.0,64,0,3,0
188739499,0.01,50.0,1.09,0.0,0,0,3,0
188771749,0.01,50.0,1.06,0.0,64,0,3,0
188803095,0.01,50.0,1.0699999,0.0,64,0,3,0
188834871,0.01,50.0,1.06,0.0,64,0,3,0
188867095,0.01,50.0,1.0799999,0.0,64,0,3,0
188898775,0.01,50.0,1.1,0.0,64,0,3,0
188931345,0.01,50.0,1.0799999,0.0,64,0,3,0
188963758,0.01,50.0,1.1,0.0,64,0,3,0
188994872,0.01,50.0,1.09,0.0,64,0,3,0
189027347,0.01,50.0,1.0799999,0.0,64,0,3,0
189059742,0.01,50.0,1.09,0.0,64,0,3,0
189090919,0.01,50.0,1.09,0.0,1,0,3,0
189122869,0.01,50.0,1.11,0.0,64,0,3,0
189154902,0.01,50.0,1.09,0.0,64,0,3,0
189186891,0.01,50.0,1.06,0.0,64,0,3,0
189220753,0.01,50.0,1.1,0.0,64,0,3,0
189252317,0.01,50.0,1.1,0.0,112,0,3,0
189284634,0.01,50.0,1.09,0.0,64,0,3,0
189316662,0.01,50.0,1.0799999,0.0,64,0,3,0
189348747,0.01,50.0,1.1,0.0,0,0,3,0
189380151,0.01,50.0,1.09,0.0,64,0,3,0
189413435,0.01,50.0,1.09,0.0,0,0,3,0
189445968,0.01,50.0,1.09,0.0,0,0,3,0
189477981,0.01,50.0,1.1,0.0,64,0,3,0
189509799,0.01,50.0,1.11,0.0,4,0,3,0
189541763,0.01,50.0,1.0799999,0.0,64,0,3,0
189573957,0.01,50.0,1.06,0.0,64,0,3,0
189604974,0.01,50.0,1.11,0.0,64,0,3,0
189636091,0.01,50.0,1.1,0.0,64,0,3,0
189668292,0.01,50.0,1.1,0.0,64,0,3,0
189700809,0.01,50.0,1.11,0.0,64,0,3,0
189732744,0.01,50.0,1.09,0.0,64,0,3,0
189764082,0.01,50.0,1.09,0.0,64,0,3,0
189796737,0.01,50.0,1.11,0.0,0,0,3,0
189828983,0.01,50.0,1.09,0.0,64,0,3,0
189860147,0.01,50.0,1.09,0.0,64,0,3,0
189892453,0.01,50.0,1.1,0.0,0,0,3,0
189924759,0.01,50.0,1.12,0.0,0,0,3,0
189956181,0.01,50.0,1.0699999,0.0,112,0,3,0
189988977,0.01,50.0,1.12,0.0,64,0,3,0
190020756,0.01,50.0,1.0799999,0.0,64,0,3,0
190052734,0.01,50.0,1.09,0.0,64,0,3,0
190085307,0.01,50.0,1.1,0.0,64,0,3,0
190118026,0.01,50.0,1.06,0.0,64,0,3,0
190150506,0.01,50.0,1.09,0.0,64,0,3,0
190182793,0.01,50.0,1.1,0.0,64,0,3,0
190213768,0.01,50.0,1.09,0.0,64,0,3,0
190245816,0.01,50.0,1.1,0.0,64,0,3,0
190278133,0.01,50.0,1.09,0.0,64,0,3,0
190309737,0.01,50.0,1.09,0.0,64,0,3,0
190342126,0.01,50.0,1.0799999,0.0,64,0,3,0
190374273,0.01,50.0,1.09,0.0,64,0,3,0
190406926,0.01,50.0,1.1,0.0,64,0,3,0
190437930,0.01,50.0,1.09,0.0,64,0,3,0
190470149,0.01,50.0,1.0799999,0.0,64,0,3,0
190501742,0.01,50.0,1.09,0.0,64,0,3,0
190534071,0.01,50.0,1.04,0.0,64,0,3,0
190566544,0.01,50.0,1.0699999,0.0,64,0,3,0
190598598,0.01,50.0,1.05,0.0,64,0,3,0
190630838,0.01,50.0,1.0699999,0.0,64,0,3,0
190662165,0.01,50.0,1.0699999,0.0,64,0,3,0
190694276,0.01,50.0,1.11,0.0,64,0,3,0
190726858,0.01,50.0,1.0699999,0.0,64,0,3,0
190758144,0.01,50.0,1.09,0.0,4,0,3,0
190790119,0.01,50.0,1.09,0.0,64,0,3,0
190821756,0.01,50.0,1.0799999,0.0,0,0,3,0
190854567,0.01,50.0,1.09,0.0,64,0,3,0
190886080,0.01,50.0,1.0799999,0.0,64,0,3,0
190918503,0.01,50.0,1.1,0.0,64,0,3,0
190950883,0.01,50.0,1.1,0.0,64,0,3,0
190983960,0.01,50.0,1.0799999,0.0,64,0,3,0
191015743,0.01,50.0,1.05,0.0,64,0,3,0
191048701,0.01,50.0,1.09,0.0,64,0,3,0
191080927,0.01,50.0,1.09,0.0,52,0,3,0
191112501,0.01,50.0,1.1,0.0,4,0,3,0
191143799,0.01,50.0,1.0799999,0.0,0,0,3,0
191175318,0.01,50.0,1.0799999,0.0,4,0,3,0
191207385,0.01,50.0,1.0699999,0.0,64,0,3,0
191239786,0.01,50.0,1.09,0.0,64,0,3,0
191271341,0.01,50.0,1.0699999,0.0,4,0,3,0
191303676,0.01,50.0,1.09,0.0,64,0,3,0
191335744,0.01,50.0,1.1,0.0,64,0,3,0
191367345,0.01,50.0,1.12,0.0,4,0,3,0
191399616,0.01,50.0,1.09,0.0,0,0,3,0
191431751,0.01,50.0,1.09,0.0,64,0,3,0
191463766,0.01,50.0,1.0799999,0.0,56,0,3,0
191496173,0.01,50.0,1.09,0.0,64,0,3,0
191527836,0.01,50.0,1.0699999,0.0,64,0,3,0
191560154,0.01,50.0,1.0699999,0.0,64,0,3,0
191591751,0.01,50.0,1.0799999,0.0,64,0,3,0
191623418,0.01,50.0,1.0799999,0.0,4,0,3,0
191655548,0.01,50.0,1.0799999,0.0,64,0,3,0
191687801,0.01,50.0,1.06,0.0,64,0,3,0
191719377,0.01,50.0,1.0799999,0.0,4,0,3,0
191751767,0.01,50.0,1.09,0.0,0,0,3,0
191783745,0.01,50.0,1.04,0.0,64,0,3,0
191815381,0.01,50.0,1.0699999,0.0,4,0,3,0
191847808,0.01,50.0,1.09,0.0,64,0,3,0
191880346,0.01,50.0,1.0799999,0.0,64,0,3,0
191912742,0.01,50.0,1.0799999,0.0,64,0,3,0
191944388,0.01,50.0,1.0799999,0.0,64,0,3,0
191976770,0.01,50.0,1.0799999,0.0,64,0,3,0
192008777,0.01,50.0,1.0699999,0.0,64,0,3,0
192040748,0.01,50.0,1.09,0.0,64,0,3,0
192072757,0.01,50.0,1.0799999,0.0,64,0,3,0
192104753,0.01,50.0,1.0699999,0.0,64,0,3,0
192136465,0.01,50.0,1.0699999,0.0,64,0,3,0
192168748,0.01,50.0,1.0699999,0.0,64,0,3,0
192200296,0.01,50.0,1.0699999,0.0,64,0,3,0
192232340,0.01,50.0,1.0699999,0.0,64,0,3,0
192264931,0.01,50.0,1.0799999,0.0,64,0,3,0
192296771,0.01,50.0,1.0799999,0.0,64,0,3,0
192328742,0.01,50.0,1.0699999,0.0,64,0,3,0
192360750,0.01,50.0,1.0799999,0.0,0,0,3,0
192392747,0.01,50.0,1.06,0.0,64,0,3,0
192424380,0.01,50.0,1.06,0.0,64,0,3,0
192456742,0.01,50.0,1.1,0.0,64,0,3,0
192488756,0.01,50.0,1.0699999,0.0,0,0,3,0
192520756,0.01,50.0,1.04,0.0,64,0,3,0
192552770,0.01,50.0,1.09,0.0,64,0,3,0
192584745,0.01,50.0,1.0799999,0.0,64,0,3,0
192616748,0.01,50.0,1.0699999,0.0,0,0,3,0
192648935,0.01,50.0,1.0699999,0.0,64,0,3,0
192680967,0.01,50.0,1.04,0.0,64,0,3,0
192712329,0.01,50.0,1.03,0.0,64,0,3,0
192744748,0.01,50.0,1.0799999,0.0,64,0,3,0
192775752,0.01,50.0,1.0699999,0.0,56,0,3,0
192807802,0.01,50.0,1.06,0.0,64,0,3,0
192839761,0.01,50.0,1.04,0.0,64,0,3,0
192871157,0.01,50.0,1.05,0.0,4,0,3,0
192901927,0.01,50.0,1.05,0.0,64,0,3,0
192932742,0.01,50.0,1.0699999,0.0,64,0,3,0
192964556,0.01,50.0,1.06,0.0,4,0,3,0
192995802,0.01,50.0,1.06,0.0,4,0,3,0
193027675,0.01,50.0,1.05,0.0,4,0,3,0
193059320,0.01,50.0,1.04,0.0,4,0,3,0
193091399,0.01,50.0,1.02,0.0,4,0,3,0
193123367,0.01,50.0,1.05,0.0,4,0,3,0
193156564,0.01,50.0,1.04,0.0,4,0,3,0
193188742,0.01,50.0,1.04,0.0,64,0,3,0
193219743,0.01,50.0,1.05,0.0,4,0,3,0
193251800,0.01,50.0,1.03,0.0,4,0,3,0
193284335,0.01,50.0,1.03,0.0,4,0,3,0
193316338,0.01,50.0,1.03,0.0,4,0,3,0
193348357,0.01,50.0,1.02,0.0,4,0,3,0
193380216,0.01,50.0,1.04,0.0,4,0,3,0
193411376,0.01,50.0,1.05,0.0,4,0,3,0
193443341,0.01,50.0,1.04,0.0,4,0,3,0
193475683,0.01,50.0,1.03,0.0,4,0,3,0
193507924,0.01,50.0,1.05,0.0,4,0,3,0
193540327,0.01,50.0,1.04,0.0,4,0,3,0
193572373,0.01,50.0,1.01,0.0,4,0,3,0
193603811,0.01,50.0,1.01,0.0,4,0,3,0
193635715,0.01,50.0,0.96,0.0,4,0,3,0
193667654,0.01,50.0,0.97999996,0.0,4,0,3,0
193700919,0.01,50.0,0.91999996,0.0,64,0,3,0
193732706,0.01,50.0,0.89,0.0,4,0,3,0
193764746,0.01,50.0,0.88,0.0,64,0,3,0
193796664,0.01,50.0,0.87,0.0,64,0,3,0
193828163,0.01,50.0,0.85999995,0.0,64,0,3,0
193861142,0.01,50.0,0.85999995,0.0,64,0,3,0
193892905,0.01,50.0,0.88,0.0,64,0,3,0
193924623,0.01,50.0,0.87,0.0,64,0,3,0
193956926,0.01,50.0,0.88,0.0,64,0,3,0
193988884,0.01,50.0,0.91999996,0.0,64,0,3,0
194020629,0.01,50.0,0.9,0.0,64,0,3,0
194052755,0.01,50.0,0.94,0.0,64,0,3,0
194084898,0.01,50.0,0.96,0.0,64,0,3,0
194116764,0.01,50.0,0.96999997,0.0,64,0,3,0
194148679,0.01,50.0,0.97999996,0.0,64,0,3,0
194180158,0.01,50.0,1.05,0.0,64,0,3,0
194212582,0.01,50.0,1.09,0.0,64,0,3,0
194244561,0.01,50.0,1.1,0.0,64,0,3,0
194276774,0.01,50.0,1.15,0.0,64,0,3,0
194308750,0.01,50.0,1.15,0.0,64,0,3,0
194340562,0.01,50.0,1.13,0.0,64,0,3,0
194372742,0.01,50.0,1.17,0.0,64,0,3,0
194404939,0.01,50.0,1.18,0.0,64,0,3,0
194436502,0.01,50.0,1.16,0.0,64,0,3,0
194468592,0.01,50.0,1.1899999,0.0,64,0,3,0
194500533,0.01,50.0,1.1899999,0.0,64,0,3,0
194532742,0.01,50.0,1.2099999,0.0,64,0,3,0
194565748,0.01,50.0,1.27,0.0,64,0,3,0
194598006,0.01,50.0,1.23,0.0,64,0,3,0
194629943,0.01,50.0,1.31,0.0,0,0,3,0
194661131,0.01,50.0,1.31,0.0,0,0,3,0
194693147,0.01,50.0,1.29,0.0,64,0,3,0
194723745,0.01,50.0,1.27,0.0,64,0,3,0
194754994,0.01,50.0,1.2099999,0.0,4,0,3,0
194787379,0.01,50.0,1.16,0.0,4,0,3,0
194818900,0.01,50.0,1.11,0.0,4,0,3,0
194850965,0.01,50.0,1.09,0.0,4,0,3,0
194883347,0.01,50.0,1.05,0.0,4,0,3,0
194915376,0.01,50.0,1.03,0.0,4,0,3,0
194946965,0.01,50.0,1.01,0.0,4,0,3,0
194978317,0.01,50.0,0.97999996,0.0,4,0,3,0
195010371,0.01,50.0,0.96,0.0,4,0,3,0
195042572,0.01,50.0,0.94,0.0,4,0,3,0
195074182,0.01,50.0,0.94,0.0,4,0,3,0
195106886,0.01,50.0,0.94,0.0,4,0,3,0
195138549,0.01,50.0,1.0,0.0,4,0,3,0
195171140,0.01,50.0,1.06,0.0,4,0,3,0
195203756,0.01,50.0,1.01,0.0,64,0,3,0
195235745,0.01,50.0,1.03,0.0,0,0,3,0
195266850,0.01,50.0,1.0,0.0,4,0,3,0
195299061,0.01,50.0,0.96999997,0.0,4,0,3,0
195330250,0.01,50.0,0.95,0.0,4,0,3,0
195363535,0.01,50.0,0.90999997,0.0,4,0,3,0
195395749,0.01,50.0,0.85999995,0.0,64,0,3,0
195427053,0.01,50.0,0.83,0.0,4,0,3,0
195459398,0.01,50.0,0.79999995,0.0,4,0,3,0
195491751,0.01,50.0,0.78999996,0.0,4,0,3,0
195522994,0.01,50.0,0.78,0.0,4,0,3,0
195556085,0.01,50.0,0.74,0.0,4,0,3,0
195588354,0.01,50.0,0.63,0.0,4,0,3,0
195619830,0.01,50.0,0.88,0.0,4,0,3,0
195651730,0.01,50.0,0.84999996,0.0,4,0,3,0
195683058,0.01,50.0,0.87,0.0,4,0,3,0
195715005,0.01,50.0,0.97999996,0.0,4,0,3,0
195747312,0.01,50.0,1.12,0.0,4,0,3,0
195780168,0.01,50.0,1.28,0.0,4,0,3,0
195812325,0.01,50.0,1.4499999,0.0,4,0,3,0
195844764,0.01,50.0,1.61,0.0,64,0,3,0
195875852,0.01,50.0,1.75,0.0,4,0,3,0
195906986,0.01,50.0,1.88,0.0,4,0,3,0
195939755,0.01,50.0,2.1599998,0.0,4,0,3,0
195972323,0.01,50.0,2.48,0.0,4,0,3,0
196003795,0.01,50.0,2.69,0.0,4,0,3,0
196035324,0.01,50.0,3.36,0.0,4,0,3,0
196067672,0.01,50.0,3.7099998,0.0,4,0,3,0
196099427,0.01,50.0,3.9199998,0.0,4,0,3,0
196131823,0.01,50.0,3.76,0.0,4,0,3,0
196163342,0.01,50.0,3.55,0.0,4,0,3,0
196195636,0.01,50.0,3.22,0.0,4,0,3,0
196227341,0.01,50.0,2.95,0.0,4,0,3,0
196259778,0.01,50.0,2.58,0.0,4,0,3,0
196291371,0.01,50.0,2.1,0.0,4,0,3,0
196323561,0.01,50.0,1.78,0.0,4,0,3,0
196355762,0.01,50.0,1.5999999,0.0,4,0,3,0
196388318,0.01,50.0,1.43,0.0,4,0,3,0
196419534,0.01,50.0,1.3299999,0.0,4,0,3,0
196452127,0.01,50.0,1.3,0.0,4,0,3,0
196484332,0.01,50.0,1.25,0.0,4,0,3,0
196516351,0.01,50.0,1.1899999,0.0,4,0,3,0
196547845,0.01,50.0,1.17,0.0,4,0,3,0
196580316,0.01,50.0,1.13,0.0,4,0,3,0
196612329,0.01,50.0,1.11,0.0,4,0,3,0
196644971,0.01,50.0,1.14,0.0,4,0,3,0
196677379,0.01,50.0,1.18,0.0,4,0,3,0
196709302,0.01,50.0,1.2099999,0.0,4,0,3,0
196740961,0.01,50.0,1.2099999,0.0,4,0,3,0
196773362,0.01,50.0,1.25,0.0,4,0,3,0
196805324,0.01,50.0,1.22,0.0,4,0,3,0
196837380,0.01,50.0,1.1899999,0.0,4,0,3,0
196868936,0.01,50.0,1.16,0.0,4,0,3,0
196901336,0.01,50.0,1.18,0.0,4,0,3,0
196932952,0.01,50.0,1.16,0.0,4,0,3,0
196964549,0.01,50.0,1.15,0.0,4,0,3,0
196996972,0.01,50.0,1.1899999,0.0,4,0,3,0
197029342,0.01,50.0,1.17,0.0,4,0,3,0
197060961,0.01,50.0,1.13,0.0,4,0,3,0
197093469,0.01,50.0,1.12,0.0,4,0,3,0
197125385,0.01,50.0,1.09,0.0,4,0,3,0
197157006,0.01,50.0,1.06,0.0,4,0,3,0
197189946,0.01,50.0,1.02,0.0,4,0,3,0
197222361,0.01,50.0,0.95,0.0,4,0,3,0
197254191,0.01,50.0,0.96,0.0,4,0,3,0
197285976,0.01,50.0,1.25,0.0,4,0,3,0
197318770,0.01,50.0,1.23,0.0,4,0,3,0
197350219,0.01,50.0,1.0,0.0,4,0,3,0
197381754,0.01,50.0,1.02,0.0,4,0,3,0
197414173,0.01,50.0,1.14,0.0,4,0,3,0
197446219,0.01,50.0,1.18,0.0,4,0,3,0
197477323,0.01,50.0,1.11,0.0,4,0,3,0
197508950,0.01,50.0,1.06,0.0,4,0,3,0
197540996,0.01,50.0,1.09,0.0,4,0,3,0
197573173,0.01,50.0,1.1,0.0,64,0,3,0
197603742,0.01,50.0,1.09,0.0,64,0,3,0
197634918,0.01,50.0,1.11,0.0,4,0,3,0
197667397,0.01,50.0,1.11,0.0,4,0,3,0
197699777,0.01,50.0,1.1,0.0,0,0,3,0
197731661,0.01,50.0,1.0799999,0.0,4,0,3,0
197762872,0.01,50.0,1.09,0.0,4,0,3,0
197795411,0.01,50.0,1.12,0.0,4,0,3,0
197827323,0.01,50.0,1.1,0.0,4,0,3,0
197859349,0.01,50.0,1.09,0.0,4,0,3,0
197890981,0.01,50.0,1.16,0.0,4,0,3,0
197922573,0.01,50.0,1.16,0.0,4,0,3,0
197954319,0.01,50.0,1.1,0.0,4,0,3,0
197986957,0.01,50.0,1.05,0.0,4,0,3,0
198018896,0.01,50.0,1.11,0.0,4,0,3,0
198050642,0.01,50.0,1.11,0.0,4,0,3,0
198082321,0.01,50.0,1.1,0.0,4,0,3,0
198114360,0.01,50.0,1.12,0.0,4,0,3,0
198146902,0.01,50.0,1.11,0.0,4,0,3,0
198178788,0.01,50.0,1.0699999,0.0,4,0,3,0
198210732,0.01,50.0,1.11,0.0,4,0,3,0
198242162,0.01,50.0,1.13,0.0,4,0,3,0
198274960,0.01,50.0,1.1,0.0,4,0,3,0
198307343,0.01,50.0,1.0799999,0.0,4,0,3,0
198338868,0.01,50.0,1.1,0.0,4,0,3,0
198371358,0.01,50.0,1.0699999,0.0,4,0,3,0
198403378,0.01,50.0,1.0699999,0.0,4,0,3,0
198435540,0.01,50.0,1.1,0.0,4,0,3,0
198467925,0.01,50.0,1.0799999,0.0,4,0,3,0
198499343,0.01,50.0,1.12,0.0,4,0,3,0
198531388,0.01,50.0,1.1,0.0,4,0,3,0
198563392,0.01,50.0,1.1,0.0,4,0,3,0
198595405,0.01,50.0,1.0799999,0.0,4,0,3,0
198627759,0.01,50.0,1.0799999,0.0,4,0,3,0
198659316,0.01,50.0,1.06,0.0,4,0,3,0
198691535,0.01,50.0,1.1,0.0,4,0,3,0
198723675,0.01,50.0,1.1,0.0,4,0,3,0
198755655,0.01,50.0,1.11,0.0,4,0,3,0
198787065,0.01,50.0,1.09,0.0,0,0,3,0
198819947,0.01,50.0,1.1,0.0,4,0,3,0
198852160,0.01,50.0,1.12,0.0,4,0,3,0
198884333,0.01,50.0,1.1,0.0,4,0,3,0
198916103,0.01,50.0,1.0699999,0.0,4,0,3,0
198948360,0.01,50.0,1.12,0.0,4,0,3,0
198980329,0.01,50.0,1.1,0.0,4,0,3,0
199012405,0.01,50.0,1.0799999,0.0,4,0,3,0
199044358,0.01,50.0,1.09,0.0,4,0,3,0
199076316,0.01,50.0,1.09,0.0,4,0,3,0
199108365,0.01,50.0,1.1,0.0,4,0,3,0
199140184,0.01,50.0,1.11,0.0,4,0,3,0
199172342,0.01,50.0,1.11,0.0,4,0,3,0
199204348,0.01,50.0,1.1,0.0,4,0,3,0
199236755,0.01,50.0,1.1,0.0,64,0,3,0
199268742,0.01,50.0,1.0799999,0.0,64,0,3,0
199300756,0.01,50.0,1.1,0.0,64,0,3,0
199332143,0.01,50.0,1.05,0.0,4,0,3,0
199364227,0.01,50.0,1.14,0.0,4,0,3,0
199395661,0.01,50.0,1.1,0.0,4,0,3,0
199427376,0.01,50.0,1.09,0.0,4,0,3,0
199458989,0.01,50.0,1.09,0.0,4,0,3,0
199491756,0.01,50.0,1.09,0.0,4,0,3,0
199523317,0.01,50.0,1.1,0.0,0,0,3,0
199555653,0.01,50.0,1.1,0.0,4,0,3,0
199587740,0.01,50.0,1.1,0.0,4,0,3,0
199621109,0.01,50.0,1.1,0.0,-84,0,3,0
199652749,0.01,50.0,1.09,0.0,64,0,3,0
199684117,0.01,50.0,1.0699999,0.0,64,0,3,0
199717108,0.01,50.0,1.09,0.0,64,0,3,0
199748754,0.01,50.0,1.09,0.0,64,0,3,0
199780171,0.01,50.0,1.09,0.0,64,0,3,0
199812919,0.01,50.0,1.09,0.0,64,0,3,0
199844799,0.01,50.0,1.09,0.0,64,0,3,0
199876914,0.01,50.0,1.09,0.0,64,0,3,0
199909264,0.01,50.0,1.1,0.0,4,0,3,0
199940749,0.01,50.0,1.0699999,0.0,64,0,3,0
199972742,0.01,50.0,1.09,0.0,64,0,3,0
200004941,0.01,50.0,1.09,0.0,64,0,3,0
200036744,0.01,50.0,1.09,0.0,64,0,3,0
200069142,0.01,50.0,1.1,0.0,64,0,3,0
200100480,0.01,50.0,1.11,0.0,64,0,3,0
200132302,0.01,50.0,1.0799999,0.0,64,0,3,0
200164626,0.01,50.0,1.09,0.0,4,0,3,0
200196651,0.01,50.0,1.1,0.0,64,0,3,0
200228742,0.01,50.0,1.0699999,0.0,64,0,3,0
200260338,0.01,50.0,1.09,0.0,64,0,3,0
200292614,0.01,50.0,1.09,0.0,64,0,3,0
200324154,0.01,50.0,1.05,0.0,64,0,3,0
200356497,0.01,50.0,1.0799999,0.0,0,0,3,0
200388947,0.01,50.0,1.0799999,0.0,0,0,3,0
200420597,0.01,50.0,1.0799999,0.0,64,0,3,0
200452640,0.01,50.0,1.15,0.0,64,0,3,0
200483742,0.01,50.0,1.11,0.0,64,0,3,0
200515800,0.01,50.0,1.0799999,0.0,64,0,3,0
200547805,0.01,50.0,1.09,0.0,0,0,3,0
200579782,0.01,50.0,1.0799999,0.0,64,0,3,0
200611756,0.01,50.0,1.09,0.0,64,0,3,0
200643742,0.01,50.0,1.05,0.0,64,0,3,0
200675742,0.01,50.0,1.1,0.0,64,0,3,0
200707801,0.01,50.0,1.09,0.0,64,0,3,0
200739812,0.01,50.0,1.05,0.0,64,0,3,0
200771745,0.01,50.0,1.11,0.0,64,0,3,0
200803872,0.01,50.0,1.0799999,0.0,0,0,3,0
200835805,0.01,50.0,1.14,0.0,64,0,3,0
200867957,0.01,50.0,1.04,0.0,0,0,3,0
200899793,0.01,50.0,1.09,0.0,64,0,3,0
200930930,0.01,50.0,1.06,0.0,-84,0,3,0
200962842,0.01,50.0,1.09,0.0,64,0,3,0
200994876,0.01,50.0,1.1,0.0,64,0,3,0
201026859,0.01,50.0,1.09,0.0,64,0,3,0
201058866,0.01,50.0,1.0799999,0.0,0,0,3,0
201089764,0.01,50.0,1.09,0.0,64,0,3,0
201121799,0.01,50.0,1.1,0.0,0,0,3,0
201153756,0.01,50.0,1.14,0.0,64,0,3,0
201185806,0.01,50.0,1.11,0.0,64,0,3,0
201217287,0.01,50.0,1.0799999,0.0,4,0,3,0
201249243,0.01,50.0,1.0699999,0.0,64,0,3,0
201281131,0.01,50.0,1.03,0.0,64,0,3,0
201313109,0.01,50.0,1.13,0.0,0,0,3,0
201344742,0.01,50.0,1.1,0.0,64,0,3,0
201376407,0.01,50.0,1.0799999,0.0,4,0,3,0
201408280,0.01,50.0,1.1,0.0,4,0,3,0
201440268,0.01,50.0,1.09,0.0,4,0,3,0
201471797,0.01,50.0,1.09,0.0,4,0,3,0
201504093,0.01,50.0,1.1,0.0,4,0,3,0
201536462,0.01,50.0,1.09,0.0,4,0,3,0
201567830,0.01,50.0,1.09,0.0,4,0,3,0
201600955,0.01,50.0,1.09,0.0,4,0,3,0
201633380,0.01,50.0,1.1,0.0,4,0,3,0
201665401,0.01,50.0,1.12,0.0,4,0,3,0
201697407,0.01,50.0,1.11,0.0,4,0,3,0
201728942,0.01,50.0,1.0699999,0.0,4,0,3,0
201760220,0.01,50.0,1.0699999,0.0,4,0,3,0
201792596,0.01,50.0,1.11,0.0,4,0,3,0
201823747,0.01,50.0,1.1,0.0,4,0,3,0
201856559,0.01,50.0,1.13,0.0,4,0,3,0
201888391,0.01,50.0,1.06,0.0,4,0,3,0
201920497,0.01,50.0,1.11,0.0,4,0,3,0
201952451,0.01,50.0,1.11,0.0,4,0,3,0
201984321,0.01,50.0,1.09,0.0,4,0,3,0
202015840,0.01,50.0,1.09,0.0,4,0,3,0
202048189,0.01,50.0,1.1,0.0,4,0,3,0
202080595,0.01,50.0,1.1,0.0,4,0,3,0
202111746,0.01,50.0,1.12,0.0,4,0,3,0
202144350,0.01,50.0,1.1,0.0,4,0,3,0
202176334,0.01,50.0,1.05,0.0,4,0,3,0
202208591,0.01,50.0,1.1,0.0,4,0,3,0
202240755,0.01,50.0,1.11,0.0,-84,0,3,0
202272773,0.01,50.0,1.1,0.0,4,0,3,0
202304757,0.01,50.0,1.09,0.0,4,0,3,0
202337449,0.01,50.0,1.0799999,0.0,4,0,3,0
202369353,0.01,50.0,1.1,0.0,4,0,3,0
202401308,0.01,50.0,1.04,0.0,4,0,3,0
202432913,0.01,50.0,1.04,0.0,4,0,3,0
202465451,0.01,50.0,1.01,0.0,4,0,3,0
202497281,0.01,50.0,1.03,0.0,4,0,3,0
202528770,0.01,50.0,1.03,0.0,4,0,3,0
202560915,0.01,50.0,1.04,0.0,4,0,3,0
202593326,0.01,50.0,1.03,0.0,4,0,3,0
202625298,0.01,50.0,1.03,0.0,4,0,3,0
202657320,0.01,50.0,1.0699999,0.0,4,0,3,0
202688960,0.01,50.0,1.04,0.0,4,0,3,0
202721379,0.01,50.0,1.1,0.0,4,0,3,0
202753345,0.01,50.0,1.0699999,0.0,4,0,3,0
202784956,0.01,50.0,1.03,0.0,4,0,3,0
202817407,0.01,50.0,1.06,0.0,4,0,3,0
202849017,0.01,50.0,1.03,0.0,4,0,3,0
202881349,0.01,50.0,0.97999996,0.0,4,0,3,0
202912977,0.01,50.0,0.96999997,0.0,4,0,3,0
202944970,0.01,50.0,1.06,0.0,-84,0,3,0
202977359,0.01,50.0,1.0699999,0.0,4,0,3,0
203009439,0.01,50.0,1.04,0.0,4,0,3,0
203041312,0.01,50.0,1.0799999,0.0,4,0,3,0
203072948,0.01,50.0,1.06,0.0,4,0,3,0
203105974,0.01,50.0,1.03,0.0,4,0,3,0
203138170,0.01,50.0,1.03,0.0,64,0,3,0
203170122,0.01,50.0,1.04,0.0,64,0,3,0
203201967,0.01,50.0,1.04,0.0,64,0,3,0
203234069,0.01,50.0,1.0699999,0.0,64,0,3,0
203265992,0.01,50.0,1.0699999,0.0,64,0,3,0
203297961,0.01,50.0,1.05,0.0,64,0,3,0
203329915,0.01,50.0,1.06,0.0,0,0,3,0
203362034,0.01,50.0,1.05,0.0,0,0,3,0
203393918,0.01,50.0,1.06,0.0,64,0,3,0
203425891,0.01,50.0,1.09,0.0,64,0,3,0
203458118,0.01,50.0,1.05,0.0,64,0,3,0
203490066,0.01,50.0,1.0699999,0.0,0,0,3,0
203521946,0.01,50.0,1.03,0.0,64,0,3,0
203553913,0.01,50.0,1.02,0.0,64,0,3,0
203586092,0.01,50.0,1.09,0.0,64,0,3,0
203617115,0.01,50.0,1.06,0.0,64,0,3,0
203648572,0.01,50.0,1.06,0.0,-116,0,3,0
203681540,0.01,50.0,1.06,0.0,0,0,3,0
203712769,0.01,50.0,1.0799999,0.0,64,0,3,0
203743862,0.01,50.0,1.09,0.0,4,0,3,0
203776192,0.01,50.0,1.09,0.0,4,0,3,0
203808322,0.01,50.0,1.1,0.0,4,0,3,0
203839875,0.01,50.0,1.12,0.0,4,0,3,0
203871759,0.01,50.0,1.14,0.0,4,0,3,0
203904169,0.01,50.0,1.18,0.0,4,0,3,0
203936169,0.01,50.0,1.14,0.0,4,0,3,0
203968302,0.01,50.0,1.12,0.0,4,0,3,0
204000319,0.01,50.0,1.15,0.0,4,0,3,0
204031933,0.01,50.0,1.24,0.0,4,0,3,0
204064390,0.01,50.0,1.29,0.0,4,0,3,0
204096346,0.01,50.0,1.26,0.0,4,0,3,0
204128329,0.01,50.0,1.25,0.0,4,0,3,0
204160147,0.01,50.0,1.29,0.0,4,0,3,0
204192411,0.01,50.0,1.29,0.0,4,0,3,0
204224141,0.01,50.0,1.35,0.0,4,0,3,0
204256175,0.01,50.0,1.35,0.0,4,0,3,0
204288293,0.01,50.0,1.3199999,0.0,4,0,3,0
204320156,0.01,50.0,1.3299999,0.0,4,0,3,0
204351939,0.01,50.0,1.3399999,0.0,4,0,3,0
204384313,0.01,50.0,1.3399999,0.0,4,0,3,0
204416117,0.01,50.0,1.3399999,0.0,4,0,3,0
204448434,0.01,50.0,1.37,0.0,4,0,3,0
204480337,0.01,50.0,1.3299999,0.0,4,0,3,0
204512371,0.01,50.0,1.3,0.0,0,0,3,0
204544342,0.01,50.0,1.26,0.0,4,0,3,0
204576204,0.01,50.0,1.24,0.0,4,0,3,0
204608331,0.01,50.0,1.24,0.0,4,0,3,0
204640547,0.01,50.0,1.16,0.0,4,0,3,0
204672355,0.01,50.0,1.17,0.0,4,0,3,0
204704359,0.01,50.0,1.1899999,0.0,4,0,3,0
204736324,0.01,50.0,1.09,0.0,4,0,3,0
204768301,0.01,50.0,1.11,0.0,4,0,3,0
204800322,0.01,50.0,1.0699999,0.0,4,0,3,0
204832417,0.01,50.0,1.11,0.0,4,0,3,0
204866319,0.01,50.0,0.95,0.0,4,0,3,0
204898858,0.01,50.0,0.79999995,0.0,64,0,3,0
204929759,0.01,50.0,0.85999995,0.0,64,0,3,0
204962122,0.01,50.0,0.84999996,0.0,0,0,3,0
204994223,0.01,50.0,0.85999995,0.0,64,0,3,0
205025753,0.01,50.0,0.89,0.0,64,0,3,0
205058272,0.01,50.0,0.88,0.0,64,0,3,0
205090209,0.01,50.0,0.89,0.0,64,0,3,0
205121742,0.01,50.0,0.91999996,0.0,64,0,3,0
205154048,0.01,50.0,0.91999996,0.0,0,0,3,0
205185867,0.01,50.0,0.96999997,0.0,0,0,3,0
205218145,0.01,50.0,0.95,0.0,64,0,3,0
205250753,0.01,50.0,0.97999996,0.0,0,0,3,0
205282818,0.01,50.0,1.0,0.0,0,0,3,0
205314827,0.01,50.0,1.02,0.0,64,0,3,0
205346400,0.01,50.0,1.03,0.0,64,0,3,0
205378186,0.01,50.0,1.01,0.0,64,0,3,0
205409773,0.01,50.0,1.03,0.0,64,0,3,0
205442309,0.01,50.0,1.03,0.0,64,0,3,0
205474723,0.01,50.0,1.0,0.0,64,0,3,0
205506918,0.01,50.0,1.01,0.0,0,0,3,0
205538329,0.01,50.0,0.98999995,0.0,0,0,3,0
205570890,0.01,50.0,0.96999997,0.0,0,0,3,0
205602889,0.01,50.0,0.95,0.0,64,0,3,0
205634911,0.01,50.0,0.96,0.0,64,0,3,0
205666862,0.01,50.0,0.96999997,0.0,64,0,3,0
205698874,0.01,50.0,1.03,0.0,0,0,3,0
205731484,0.01,50.0,1.05,0.0,64,0,3,0
205763772,0.01,50.0,1.05,0.0,56,0,3,0
205795345,0.01,50.0,1.04,0.0,4,0,3,0
205827856,0.01,50.0,1.0699999,0.0,64,0,3,0
205859751,0.01,50.0,1.1,0.0,64,0,3,0
205891527,0.01,50.0,1.14,0.0,4,0,3,0
205923576,0.01,50.0,1.16,0.0,64,0,3,0
205956352,0.01,50.0,1.24,0.0,64,0,3,0
205988934,0.01,50.0,1.25,0.0,64,0,3,0
206020146,0.01,50.0,1.1999999,0.0,64,0,3,0
206051746,0.01,50.0,1.23,0.0,64,0,3,0
206083876,0.01,50.0,1.17,0.0,4,0,3,0
206116141,0.01,50.0,1.18,0.0,4,0,3,0
206147806,0.01,50.0,1.11,0.0,64,0,3,0
206179880,0.01,50.0,1.05,0.0,64,0,3,0
206211757,0.01,50.0,0.96,0.0,64,0,3,0
206243747,0.01,50.0,0.96999997,0.0,64,0,3,0
206276372,0.01,50.0,1.03,0.0,64,0,3,0
206308933,0.01,50.0,1.03,0.0,64,0,3,0
206339901,0.01,50.0,1.01,0.0,64,0,3,0
206371758,0.01,50.0,0.97999996,0.0,64,0,3,0
206403969,0.01,50.0,1.02,0.0,64,0,3,0
206435376,0.01,50.0,0.93,0.0,64,0,3,0
206467712,0.01,50.0,0.96,0.0,56,0,3,0
206499766,0.01,50.0,0.96,0.0,64,0,3,0
206531742,0.01,50.0,0.94,0.0,64,0,3,0
206563792,0.01,50.0,0.94,0.0,64,0,3,0
206596132,0.01,50.0,0.95,0.0,64,0,3,0
206628492,0.01,50.0,0.97999996,0.0,64,0,3,0
206660315,0.01,50.0,0.96999997,0.0,64,0,3,0
206692741,0.01,50.0,0.96,0.0,64,0,3,0
206724759,0.01,50.0,0.95,0.0,64,0,3,0
206756992,0.01,50.0,1.01,0.0,0,0,3,0
206788941,0.01,50.0,1.01,0.0,0,0,3,0
206820930,0.01,50.0,1.05,0.0,64,0,3,0
206852970,0.01,50.0,1.01,0.0,64,0,3,0
206884929,0.01,50.0,1.02,0.0,64,0,3,0
206916743,0.01,50.0,1.03,0.0,64,0,3,0
206948742,0.01,50.0,1.03,0.0,64,0,3,0
206980956,0.01,50.0,1.02,0.0,64,0,3,0
207012757,0.01,50.0,1.04,0.0,64,0,3,0
207044356,0.01,50.0,1.05,0.0,0,0,3,0
207076749,0.01,50.0,1.03,0.0,64,0,3,0
207108759,0.01,50.0,1.0,0.0,64,0,3,0
207140746,0.01,50.0,1.03,0.0,64,0,3,0
207172331,0.01,50.0,1.02,0.0,56,0,3,0
207204764,0.01,50.0,1.02,0.0,64,0,3,0
207237003,0.01,50.0,0.98999995,0.0,64,0,3,0
207268748,0.01,50.0,1.0,0.0,64,0,3,0
207300976,0.01,50.0,0.97999996,0.0,0,0,3,0
207332742,0.01,50.0,0.96999997,0.0,64,0,3,0
207365013,0.01,50.0,0.97999996,0.0,64,0,3,0
207396742,0.01,50.0,0.96999997,0.0,64,0,3,0
207428653,0.01,50.0,0.97999996,0.0,4,0,3,0
207460980,0.01,50.0,0.96,0.0,0,0,3,0
207492742,0.01,50.0,0.95,0.0,64,0,3,0
207524742,0.01,50.0,0.91999996,0.0,64,0,3,0
207556742,0.01,50.0,0.93,0.0,64,0,3,0
207587949,0.01,50.0,0.93,0.0,4,0,3,0
207619315,0.01,50.0,0.9,0.0,64,0,3,0
207651749,0.01,50.0,0.87,0.0,64,0,3,0
207682903,0.01,50.0,0.84999996,0.0,64,0,3,0
207714627,0.01,50.0,0.9,0.0,64,0,3,0
207747359,0.01,50.0,0.89,0.0,4,0,3,0
207779351,0.01,50.0,0.90999997,0.0,-116,0,3,0
207811742,0.01,50.0,0.90999997,0.0,64,0,3,0
207842874,0.01,50.0,0.91999996,0.0,64,0,3,0
207875128,0.01,50.0,0.87,0.0,64,0,3,0
207906833,0.01,50.0,0.90999997,0.0,64,0,3,0
207939382,0.01,50.0,0.91999996,0.0,64,0,3,0
207971751,0.01,50.0,0.91999996,0.0,64,0,3,0
208003574,0.01,50.0,0.94,0.0,4,0,3,0
208035784,0.01,50.0,0.91999996,0.0,0,0,3,0
208067039,0.01,50.0,0.90999997,0.0,64,0,3,0
208099063,0.01,50.0,0.88,0.0,64,0,3,0
208130982,0.01,50.0,0.91999996,0.0,64,0,3,0
208162539,0.01,50.0,0.94,0.0,64,0,3,0
208195359,0.01,50.0,0.89,0.0,64,0,3,0
208226854,0.01,50.0,0.93,0.0,0,0,3,0
208259733,0.01,50.0,0.95,0.0,64,0,3,0
208290870,0.01,50.0,0.95,0.0,4,0,3,0
208323685,0.01,50.0,0.95,0.0,4,0,3,0
208355742,0.01,50.0,0.95,0.0,64,0,3,0
208387368,0.01,50.0,0.93,0.0,64,0,3,0
208420212,0.01,50.0,0.96999997,0.0,64,0,3,0
208451515,0.01,50.0,0.95,0.0,64,0,3,0
208483785,0.01,50.0,0.95,0.0,56,0,3,0
208515835,0.01,50.0,0.95,0.0,64,0,3,0
208547676,0.01,50.0,0.96999997,0.0,4,0,3,0
208580142,0.01,50.0,0.96999997,0.0,64,0,3,0
208611385,0.01,50.0,0.96,0.0,64,0,3,0
208643847,0.01,50.0,0.96,0.0,64,0,3,0
208675747,0.01,50.0,0.96999997,0.0,64,0,3,0
208707370,0.01,50.0,0.96999997,0.0,64,0,3,0
208739345,0.01,50.0,0.95,0.0,4,0,3,0
208772554,0.01,50.0,0.95,0.0,64,0,3,0
208804788,0.01,50.0,0.96999997,0.0,52,0,3,0
208836151,0.01,50.0,0.96,0.0,4,0,3,0
208867825,0.01,50.0,0.98999995,0.0,0,0,3,0
208899796,0.01,50.0,0.98999995,0.0,64,0,3,0
208931884,0.01,50.0,0.97999996,0.0,64,0,3,0
208963630,0.01,50.0,0.96,0.0,64,0,3,0
208995758,0.01,50.0,0.98999995,0.0,64,0,3,0
209027802,0.01,50.0,1.03,0.0,64,0,3,0
209060622,0.01,50.0,1.03,0.0,64,0,3,0
209092742,0.01,50.0,1.06,0.0,64,0,3,0
209124742,0.01,50.0,1.0699999,0.0,64,0,3,0
209155752,0.01,50.0,1.09,0.0,64,0,3,0
209189285,0.01,50.0,1.09,0.0,-116,0,3,0
209220745,0.01,50.0,1.0799999,0.0,64,0,3,0
209252742,0.01,50.0,1.1,0.0,64,0,3,0
209283745,0.01,50.0,1.14,0.0,64,0,3,0
209315200,0.01,50.0,1.15,0.0,64,0,3,0
209347804,0.01,50.0,1.16,0.0,64,0,3,0
209379755,0.01,50.0,1.15,0.0,64,0,3,0
209411748,0.01,50.0,1.2099999,0.0,64,0,3,0
209443180,0.01,50.0,1.23,0.0,0,0,3,0
209475673,0.01,50.0,1.2099999,0.0,64,0,3,0
209508948,0.01,50.0,1.2099999,0.0,64,0,3,0
209541514,0.01,50.0,1.26,0.0,64,0,3,0
209573756,0.01,50.0,1.28,0.0,64,0,3,0
209605797,0.01,50.0,1.3199999,0.0,0,0,3,0
209637928,0.01,50.0,1.42,0.0,0,0,3,0
209669493,0.01,50.0,1.4599999,0.0,64,0,3,0
209701291,0.01,50.0,1.48,0.0,64,0,3,0
209733544,0.01,50.0,1.56,0.0,64,0,3,0
209765359,0.01,50.0,1.68,0.0,64,0,3,0
209797975,0.01,50.0,1.68,0.0,64,0,3,0
209829753,0.01,50.0,1.76,0.0,64,0,3,0
209862154,0.01,50.0,1.88,0.0,64,0,3,0
209893751,0.01,50.0,2.0,0.0,56,0,3,0
209925352,0.01,50.0,2.1299999,0.0,64,0,3,0
209957112,0.01,50.0,2.25,0.0,64,0,3,0
209989170,0.01,50.0,2.32,0.0,64,0,3,0
210021068,0.01,50.0,2.4299998,0.0,64,0,3,0
210053742,0.01,50.0,2.62,0.0,64,0,3,0
210085943,0.01,50.0,2.74,0.0,0,0,3,0
210116941,0.01,50.0,2.8,0.0,64,0,3,0
210150071,0.01,50.0,2.8799999,0.0,0,0,3,0
210181751,0.01,50.0,3.06,0.0,0,0,3,0
210213156,0.01,50.0,3.1799998,0.0,64,0,3,0
210245148,0.01,50.0,3.24,0.0,64,0,3,0
210276936,0.01,50.0,3.3999999,0.0,64,0,3,0
210309322,0.01,50.0,3.49,0.0,64,0,3,0
210341261,0.01,50.0,3.54,0.0,64,0,3,0
210372742,0.01,50.0,3.6399999,0.0,64,0,3,0
210404741,0.01,50.0,3.76,0.0,64,0,3,0
210438704,0.01,50.0,3.83,0.0,64,0,3,0
210470518,0.01,50.0,3.8799999,0.0,64,0,3,0
210502823,0.01,50.0,3.9499998,0.0,64,0,3,0
210535678,0.01,50.0,3.87,0.0,4,0,3,0
210567801,0.01,50.0,4.0,0.0,64,0,3,0
210598991,0.01,50.0,4.0899997,0.0,56,0,3,0
210631376,0.01,50.0,4.0499997,0.0,64,0,3,0
210662892,0.01,50.0,4.13,0.0,64,0,3,0
210694583,0.01,50.0,4.08,0.0,64,0,3,0
210727806,0.01,50.0,4.11,0.0,64,0,3,0
210758862,0.01,50.0,4.0099998,0.0,0,0,3,0
210790857,0.01,50.0,4.08,0.0,0,0,3,0
210823371,0.01,50.0,4.1,0.0,64,0,3,0
210855766,0.01,50.0,4.02,0.0,64,0,3,0
210887884,0.01,50.0,3.9199998,0.0,64,0,3,0
210919789,0.01,50.0,3.86,0.0,64,0,3,0
210950943,0.01,50.0,3.83,0.0,64,0,3,0
210982856,0.01,50.0,3.83,0.0,64,0,3,0
211014282,0.01,50.0,3.75,0.0,64,0,3,0
211047370,0.01,50.0,3.59,0.0,64,0,3,0
211079755,0.01,50.0,3.54,0.0,64,0,3,0
211110848,0.01,50.0,3.52,0.0,64,0,3,0
211142878,0.01,50.0,3.48,0.0,64,0,3,0
211175521,0.01,50.0,3.4399998,0.0,0,0,3,0
211206907,0.01,50.0,3.4199998,0.0,64,0,3,0
211239473,0.01,50.0,3.33,0.0,64,0,3,0
211271809,0.01,50.0,3.32,0.0,4,0,3,0
211303812,0.01,50.0,3.24,0.0,56,0,3,0
211335982,0.01,50.0,3.29,0.0,64,0,3,0
211367805,0.01,50.0,3.24,0.0,0,0,3,0
211400357,0.01,50.0,3.26,0.0,64,0,3,0
211432750,0.01,50.0,3.24,0.0,0,0,3,0
211463835,0.01,50.0,3.23,0.0,64,0,3,0
211495830,0.01,50.0,3.23,0.0,64,0,3,0
211527836,0.01,50.0,3.1999998,0.0,4,0,3,0
211559790,0.01,50.0,3.22,0.0,64,0,3,0
211591751,0.01,50.0,3.27,0.0,64,0,3,0
211623830,0.01,50.0,3.33,0.0,64,0,3,0
211656094,0.01,50.0,3.35,0.0,64,0,3,0
211687811,0.01,50.0,3.3799999,0.0,64,0,3,0
211719387,0.01,50.0,3.49,0.0,4,0,3,0
211752343,0.01,50.0,3.53,0.0,64,0,3,0
211784742,0.01,50.0,3.6399999,0.0,64,0,3,0
211815764,0.01,50.0,3.7099998,0.0,4,0,3,0
211847712,0.01,50.0,3.77,0.0,0,0,3,0
211879742,0.01,50.0,3.9199998,0.0,64,0,3,0
211912325,0.01,50.0,0.0,0.0,4,0,3,0
211943746,0.01,50.0,4.12,0.0,64,0,3,0
211975792,0.01,50.0,4.2,0.0,0,0,3,0
213189769,0.01,50.0,8.7,0.0,64,0,3,0
213538524,0.01,50.0,10.3,0.0,64,0,3,0
213570886,0.01,50.0,0.0,0.0,4,0,3,0
213603077,0.01,50.0,10.5199995,0.0,64,0,3,0
213634875,0.01,50.0,10.78,0.0,0,0,3,0
213667163,0.01,50.0,0.42,0.0,64,0,3,0
213698872,0.01,50.0,10.95,0.0,0,0,3,0
213731197,0.01,50.0,11.08,0.0,64,0,3,0
213762958,0.01,50.0,2.23,0.0,64,0,3,0
213795012,0.01,50.0,11.42,0.0,64,0,3,0
213827074,0.01,50.0,0.0,0.0,64,0,3,0
213858875,0.01,50.0,11.759999,0.0,64,0,3,0
213890527,0.01,50.0,11.95,0.0,4,0,3,0
213922971,0.01,50.0,1.3199999,0.0,64,0,3,0
213955764,0.01,50.0,12.099999,0.0,64,0,3,0
213987805,0.01,50.0,12.5,0.0,64,0,3,0
214019089,0.01,50.0,12.559999,0.0,0,0,3,0
214051034,0.01,50.0,12.809999,0.0,64,0,3,0
214082846,0.01,50.0,1.0,0.0,0,0,3,0
214116148,0.01,50.0,0.0,0.0,64,0,3,0
214148170,0.01,50.0,13.2699995,0.0,64,0,3,0
214181275,0.01,50.0,13.46,0.0,4,0,3,0
214212748,0.01,50.0,13.469999,0.0,64,0,3,0
214244298,0.01,50.0,13.74,0.0,0,0,3,0
214276362,0.01,50.0,13.889999,0.0,64,0,3,0
214308773,0.01,50.0,13.969999,0.0,0,0,3,0
214340606,0.01,50.0,14.11,0.0,64,0,3,0
214372898,0.01,50.0,14.299999,0.0,64,0,3,0
214404760,0.01,50.0,14.42,0.0,64,0,3,0
214436124,0.01,50.0,0.0,0.0,64,0,3,0
214469104,0.01,50.0,14.719999,0.0,64,0,3,0
214500749,0.01,50.0,0.74,0.0,64,0,3,0
214532126,0.01,50.0,14.91,0.0,64,0,3,0
214564463,0.01,50.0,15.009999,0.0,0,0,3,0
214596759,0.01,50.0,15.0199995,0.0,64,0,3,0
214628126,0.01,50.0,0.98999995,0.0,112,0,3,0
214660770,0.01,50.0,0.0,0.0,0,0,3,0
214692601,0.01,50.0,15.599999,0.0,64,0,3,0
214724136,0.01,50.0,15.5199995,0.0,64,0,3,0
214756520,0.01,50.0,15.62,0.0,64,0,3,0
214788757,0.01,50.0,15.5,0.0,0,0,3,0
214820192,0.01,50.0,15.79,0.0,64,0,3,0
214852937,0.01,50.0,15.75,0.0,64,0,3,0
214884939,0.01,50.0,16.02,0.0,64,0,3,0
214916728,0.01,50.0,15.549999,0.0,4,0,3,0
214948742,0.01,50.0,16.41,0.0,64,0,3,0
214981836,0.01,50.0,15.839999,0.0,64,0,3,0
215013489,0.01,50.0,0.0,0.0,4,0,3,0
215045775,0.01,50.0,15.549999,0.0,64,0,3,0
215077969,0.01,50.0,15.78,0.0,64,0,3,0
215109813,0.01,50.0,15.679999,0.0,64,0,3,0
215141750,0.01,50.0,15.71,0.0,0,0,3,0
215173109,0.01,50.0,0.19,0.0,64,0,3,0
215205361,0.01,50.0,15.5,0.0,64,0,3,0
215236989,0.01,50.0,15.37,0.0,64,0,3,0
215269126,0.01,50.0,15.219999,0.0,64,0,3,0
215301128,0.01,50.0,15.07,0.0,64,0,3,0
215331755,0.01,50.0,0.0,0.0,-116,0,3,0
215363759,0.01,50.0,14.79,0.0,64,0,3,0
215394865,0.01,50.0,14.549999,0.0,64,0,3,0
215426003,0.01,50.0,14.33,0.0,4,0,3,0
215459411,0.01,50.0,14.309999,0.0,0,0,3,0
215491744,0.01,50.0,13.74,0.0,64,0,3,0
215523768,0.01,50.0,13.65,0.0,64,0,3,0
215555525,0.01,50.0,13.24,0.0,4,0,3,0
215587821,0.01,50.0,13.03,0.0,0,0,3,0
215619771,0.01,50.0,12.719999,0.0,64,0,3,0
215651756,0.01,50.0,12.36,0.0,64,0,3,0
215683742,0.01,50.0,12.24,0.0,64,0,3,0
215715769,0.01,50.0,0.0,0.0,64,0,3,0
215747156,0.01,50.0,0.0,0.0,4,0,3,0
215778839,0.01,50.0,0.22999999,0.0,0,0,3,0
215810881,0.01,50.0,0.5,0.0,64,0,3,0
215842883,0.01,50.0,0.78999996,0.0,64,0,3,0
215875874,0.01,50.0,0.34,0.0,64,0,3,0
215907515,0.01,50.0,0.17,0.0,4,0,3,0
215940091,0.01,50.0,0.37,0.0,64,0,3,0
215972120,0.01,50.0,1.17,0.0,64,0,3,0
216003361,0.01,50.0,2.01,0.0,4,0,3,0
216036091,0.01,50.0,11.75,0.0,64,0,3,0
216068127,0.01,50.0,11.86,0.0,64,0,3,0
216099753,0.01,50.0,0.0,0.0,64,0,3,0
216131793,0.01,50.0,2.4299998,0.0,64,0,3,0
216163748,0.01,50.0,12.44,0.0,0,0,3,0
216195516,0.01,50.0,1.9599999,0.0,4,0,3,0
216227805,0.01,50.0,12.969999,0.0,64,0,3,0
216259845,0.01,50.0,13.07,0.0,64,0,3,0
216291762,0.01,50.0,13.389999,0.0,64,0,3,0
216324140,0.01,50.0,2.6699998,0.0,0,0,3,0
216355585,0.01,50.0,13.969999,0.0,4,0,3,0
216387848,0.01,50.0,14.09,0.0,64,0,3,0
216419885,0.01,50.0,2.12,0.0,0,0,3,0
216451804,0.01,50.0,14.83,0.0,4,0,3,0
216483749,0.01,50.0,15.009999,0.0,64,0,3,0
216515762,0.01,50.0,0.0,0.0,0,0,3,0
216548151,0.01,50.0,15.61,0.0,64,0,3,0
216579641,0.01,50.0,15.889999,0.0,64,0,3,0
216611742,0.01,50.0,16.039999,0.0,64,0,3,0
216643914,0.01,50.0,2.35,0.0,4,0,3,0
216675938,0.01,50.0,0.74,0.0,64,0,3,0
216706836,0.01,50.0,0.0,0.0,0,0,3,0
216738878,0.01,50.0,17.09,0.0,64,0,3,0
216770846,0.01,50.0,17.15,0.0,64,0,3,0
216801745,0.01,50.0,17.43,0.0,64,0,3,0
216833019,0.01,50.0,17.46,0.0,64,0,3,0
216864762,0.01,50.0,17.47,0.0,64,0,3,0
216896346,0.01,50.0,17.81,0.0,64,0,3,0
216928911,0.01,50.0,1.8399999,0.0,0,0,3,0
216960752,0.01,50.0,1.17,0.0,64,0,3,0
216992476,0.01,50.0,0.29,0.0,4,0,3,0
217024929,0.01,50.0,0.0,0.0,0,0,3,0
217056321,0.01,50.0,17.98,0.0,0,0,3,0
217088501,0.01,50.0,17.88,0.0,64,0,3,0
217120916,0.01,50.0,18.08,0.0,0,0,3,0
217152769,0.01,50.0,0.51,0.0,64,0,3,0
217184319,0.01,50.0,17.91,0.0,64,0,3,0
217216395,0.01,50.0,0.049999997,0.0,64,0,3,0
217248770,0.01,50.0,17.97,0.0,64,0,3,0
217280745,0.01,50.0,18.039999,0.0,0,0,3,0
217312944,0.01,50.0,0.0,0.0,64,0,3,0
217344997,0.01,50.0,18.25,0.0,-116,0,3,0
217376302,0.01,50.0,17.99,0.0,64,0,3,0
217408556,0.01,50.0,18.199999,0.0,64,0,3,0
217440930,0.01,50.0,0.95,0.0,64,0,3,0
217472473,0.01,50.0,18.84,0.0,0,0,3,0
217504780,0.01,50.0,19.39,0.0,64,0,3,0
217536766,0.01,50.0,2.49,0.0,64,0,3,0
217569763,0.01,50.0,19.77,0.0,64,0,3,0
217602295,0.01,50.0,19.939999,0.0,0,0,3,0
217634580,0.01,50.0,20.199999,0.0,4,0,3,0
217666225,0.01,50.0,0.89,0.0,64,0,3,0
217698038,0.01,50.0,0.0,0.0,64,0,3,0
217730228,0.01,50.0,19.89,0.0,4,0,3,0
217761781,0.01,50.0,20.26,0.0,0,0,3,0
217793773,0.01,50.0,20.289999,0.0,64,0,3,0
217826544,0.01,50.0,19.99,0.0,64,0,3,0
217858875,0.01,50.0,20.1,0.0,64,0,3,0
217890199,0.01,50.0,19.85,0.0,64,0,3,0
217921842,0.01,50.0,20.33,0.0,64,0,3,0
217954199,0.01,50.0,20.119999,0.0,64,0,3,0
217985755,0.01,50.0,0.0,0.0,64,0,3,0
218019107,0.01,50.0,2.6799998,0.0,64,0,3,0
218049791,0.01,50.0,20.039999,0.0,-116,0,3,0
218082298,0.01,50.0,19.96,0.0,64,0,3,0
218114860,0.01,50.0,20.15,0.0,64,0,3,0
218146800,0.01,50.0,19.91,0.0,0,0,3,0
218178221,0.01,50.0,0.0,0.0,4,0,3,0
218210558,0.01,50.0,19.97,0.0,64,0,3,0
218242820,0.01,50.0,19.63,0.0,64,0,3,0
218274199,0.01,50.0,0.0,0.0,64,0,3,0
218306216,0.01,50.0,2.54,0.0,64,0,3,0
218338295,0.01,50.0,19.369999,0.0,64,0,3,0
218370847,0.01,50.0,0.76,0.0,64,0,3,0
218402581,0.01,50.0,18.97,0.0,64,0,3,0
218434877,0.01,50.0,18.72,0.0,64,0,3,0
218465752,0.01,50.0,0.0,0.0,64,0,3,0
218498546,0.01,50.0,18.18,0.0,64,0,3,0
218530724,0.01,50.0,0.01,0.0,64,0,3,0
218561947,0.01,50.0,0.76,0.0,64,0,3,0
218594191,0.01,50.0,0.37,0.0,0,0,3,0
218625755,0.01,50.0,0.0,0.0,64,0,3,0
218658184,0.01,50.0,16.859999,0.0,64,0,3,0
218691408,0.01,50.0,16.789999,0.0,0,0,3,0
218723749,0.01,50.0,2.1499999,0.0,64,0,3,0
218755781,0.01,50.0,0.06,0.0,112,0,3,0
218787828,0.01,50.0,0.0,0.0,64,0,3,0
218819755,0.01,50.0,16.43,0.0,64,0,3,0
218851742,0.01,50.0,16.35,0.0,64,0,3,0
218883787,0.01,50.0,16.27,0.0,64,0,3,0
218915351,0.01,50.0,16.17,0.0,64,0,3,0
218947821,0.01,50.0,16.06,0.0,0,0,3,0
218979435,0.01,50.0,16.02,0.0,64,0,3,0
219010865,0.01,50.0,16.06,0.0,0,0,3,0
219043369,0.01,50.0,15.9,0.0,64,0,3,0
219075811,0.01,50.0,0.0,0.0,64,0,3,0
219107801,0.01,50.0,15.99,0.0,64,0,3,0
219139757,0.01,50.0,0.0,0.0,64,0,3,0
219171756,0.01,50.0,16.01,0.0,64,0,3,0
219203780,0.01,50.0,16.1,0.0,64,0,3,0
219235309,0.01,50.0,2.04,0.0,4,0,3,0
219266911,0.01,50.0,16.13,0.0,64,0,3,0
219298819,0.01,50.0,16.22,0.0,64,0,3,0
219330590,0.01,50.0,0.82,0.0,64,0,3,0
219363405,0.01,50.0,16.07,0.0,64,0,3,0
219395751,0.01,50.0,16.05,0.0,64,0,3,0
219427155,0.01,50.0,16.08,0.0,4,0,3,0
219459751,0.01,50.0,0.77,0.0,64,0,3,0
219491757,0.01,50.0,15.98,0.0,64,0,3,0
219523070,0.01,50.0,16.01,0.0,4,0,3,0
219555162,0.01,50.0,16.14,0.0,0,0,3,0
219587805,0.01,50.0,0.68,0.0,64,0,3,0
219619074,0.01,50.0,16.16,0.0,64,0,3,0
219651124,0.01,50.0,16.199999,0.0,64,0,3,0
219682330,0.01,50.0,16.289999,0.0,64,0,3,0
219714949,0.01,50.0,16.359999,0.0,64,0,3,0
219747009,0.01,50.0,2.9299998,0.0,4,0,3,0
219779095,0.01,50.0,16.38,0.0,64,0,3,0
219810924,0.01,50.0,16.279999,0.0,0,0,3,0
219844308,0.01,50.0,0.0,0.0,64,0,3,0
219876744,0.01,50.0,16.4,0.0,64,0,3,0
219907801,0.01,50.0,16.289999,0.0,64,0,3,0
219940170,0.01,50.0,16.38,0.0,64,0,3,0
219971742,0.01,50.0,16.41,0.0,64,0,3,0
220003792,0.01,50.0,16.369999,0.0,64,0,3,0
220035809,0.01,50.0,16.48,0.0,64,0,3,0
220067849,0.01,50.0,16.27,0.0,64,0,3,0
220099750,0.01,50.0,16.33,0.0,64,0,3,0
220131853,0.01,50.0,16.17,0.0,4,0,3,0
220164165,0.01,50.0,16.13,0.0,64,0,3,0
220195784,0.01,50.0,16.039999,0.0,0,0,3,0
220227344,0.01,50.0,15.799999,0.0,4,0,3,0
220260090,0.01,50.0,15.7699995,0.0,64,0,3,0
220291825,0.01,50.0,15.639999,0.0,0,0,3,0
220323342,0.01,50.0,15.429999,0.0,0,0,3,0
220355751,0.01,50.0,15.28,0.0,64,0,3,0
220388159,0.01,50.0,14.67,0.0,64,0,3,0
220419353,0.01,50.0,13.799999,0.0,64,0,3,0
220451770,0.01,50.0,0.0,0.0,64,0,3,0
220483747,0.01,50.0,11.809999,0.0,0,0,3,0
220516318,0.01,50.0,11.08,0.0,4,0,3,0
220547518,0.01,50.0,10.36,0.0,64,0,3,0
220579789,0.01,50.0,9.74,0.0,0,0,3,0
220611807,0.01,50.0,9.469999,0.0,64,0,3,0
220643909,0.01,50.0,9.46,0.0,64,0,3,0
220675977,0.01,50.0,9.61,0.0,64,0,3,0
220707130,0.01,50.0,9.65,0.0,64,0,3,0
220740330,0.01,50.0,9.73,0.0,64,0,3,0
220772742,0.01,50.0,9.719999,0.0,64,0,3,0
220804742,0.01,50.0,0.0,0.0,64,0,3,0
220835835,0.01,50.0,9.559999,0.0,64,0,3,0
220867827,0.01,50.0,0.0,0.0,64,0,3,0
220899778,0.01,50.0,1.29,0.0,64,0,3,0
220931807,0.01,50.0,10.25,0.0,64,0,3,0
220964647,0.01,50.0,10.5,0.0,64,0,3,0
220997445,0.01,50.0,10.54,0.0,0,0,3,0
221029120,0.01,50.0,10.58,0.0,64,0,3,0
221061719,0.01,50.0,10.599999,0.0,64,0,3,0
221093791,0.01,50.0,0.84999996,0.0,64,0,3,0
221125392,0.01,50.0,10.83,0.0,64,0,3,0
221157967,0.01,50.0,10.639999,0.0,64,0,3,0
221188945,0.01,50.0,10.63,0.0,64,0,3,0
221220943,0.01,50.0,0.07,0.0,0,0,3,0
221253795,0.01,50.0,0.38,0.0,64,0,3,0
221285756,0.01,50.0,10.48,0.0,0,0,3,0
221316892,0.01,50.0,10.53,0.0,64,0,3,0
221350078,0.01,50.0,10.639999,0.0,64,0,3,0
221380900,0.01,50.0,2.29,0.0,64,0,3,0
221413150,0.01,50.0,1.22,0.0,64,0,3,0
221445545,0.01,50.0,0.14999999,0.0,64,0,3,0
221477999,0.01,50.0,0.0,0.0,0,0,3,0
221509128,0.01,50.0,0.0,0.0,64,0,3,0
221541891,0.01,50.0,10.82,0.0,64,0,3,0
221573488,0.01,50.0,10.94,0.0,-72,0,3,0
221605912,0.01,50.0,11.04,0.0,64,0,3,0
221638011,0.01,50.0,11.07,0.0,64,0,3,0
221669927,0.01,50.0,11.179999,0.0,64,0,3,0
221701790,0.01,50.0,11.29,0.0,64,0,3,0
221733917,0.01,50.0,0.0,0.0,0,0,3,0
221765979,0.01,50.0,1.91,0.0,64,0,3,0
221796945,0.01,50.0,11.65,0.0,64,0,3,0
221827856,0.01,50.0,11.65,0.0,0,0,3,0
221859748,0.01,50.0,11.759999,0.0,64,0,3,0
221890839,0.01,50.0,11.86,0.0,64,0,3,0
221922868,0.01,50.0,0.0,0.0,64,0,3,0
221955101,0.01,50.0,12.23,0.0,64,0,3,0
221986891,0.01,50.0,12.32,0.0,0,0,3,0
222018565,0.01,50.0,0.94,0.0,64,0,3,0
222050933,0.01,50.0,12.67,0.0,64,0,3,0
222083168,0.01,50.0,0.25,0.0,64,0,3,0
222114972,0.01,50.0,12.94,0.0,0,0,3,0
222147338,0.01,50.0,0.28,0.0,64,0,3,0
222178836,0.01,50.0,13.219999,0.0,4,0,3,0
222211135,0.01,50.0,0.38,0.0,64,0,3,0
222242897,0.01,50.0,13.41,0.0,64,0,3,0
222275053,0.01,50.0,0.0,0.0,64,0,3,0
222306737,0.01,50.0,13.66,0.0,0,0,3,0
222339185,0.01,50.0,13.849999,0.0,64,0,3,0
222370894,0.01,50.0,0.31,0.0,64,0,3,0
222403348,0.01,50.0,14.179999,0.0,64,0,3,0
222434981,0.01,50.0,14.36,0.0,4,0,3,0
222467033,0.01,50.0,14.42,0.0,64,0,3,0
222498844,0.01,50.0,0.0,0.0,64,0,3,0
222530986,0.01,50.0,14.62,0.0,0,0,3,0
222562853,0.01,50.0,0.0,0.0,64,0,3,0
222595321,0.01,50.0,14.9,0.0,64,0,3,0
222626874,0.01,50.0,0.0,0.0,0,0,3,0
222659147,0.01,50.0,15.15,0.0,64,0,3,0
222691318,0.01,50.0,0.0,0.0,64,0,3,0
222724371,0.01,50.0,15.46,0.0,64,0,3,0
222756946,0.01,50.0,15.58,0.0,64,0,3,0
222788929,0.01,50.0,15.759999,0.0,64,0,3,0
222820745,0.01,50.0,15.88,0.0,64,0,3,0
222852906,0.01,50.0,16.02,0.0,64,0,3,0
222884929,0.01,50.0,16.19,0.0,64,0,3,0
222916147,0.01,50.0,0.0,0.0,64,0,3,0
222948754,0.01,50.0,16.68,0.0,64,0,3,0
222980547,0.01,50.0,16.64,0.0,64,0,3,0
223012159,0.01,50.0,0.0,0.0,64,0,3,0
223044915,0.01,50.0,0.0,0.0,64,0,3,0
223076155,0.01,50.0,16.85,0.0,64,0,3,0
223108126,0.01,50.0,16.94,0.0,64,0,3,0
223141113,0.01,50.0,17.17,0.0,0,0,3,0
223172154,0.01,50.0,17.49,0.0,64,0,3,0
223204122,0.01,50.0,17.58,0.0,64,0,3,0
223237342,0.01,50.0,17.69,0.0,64,0,3,0
223269748,0.01,50.0,17.49,0.0,64,0,3,0
223300982,0.01,50.0,0.19999999,0.0,64,0,3,0
223332745,0.01,50.0,17.74,0.0,64,0,3,0
223364586,0.01,50.0,0.0,0.0,64,0,3,0
223397137,0.01,50.0,17.49,0.0,64,0,3,0
223428488,0.01,50.0,17.67,0.0,64,0,3,0
223460211,0.01,50.0,1.9399999,0.0,64,0,3,0
223492533,0.01,50.0,17.46,0.0,0,0,3,0
223525146,0.01,50.0,17.71,0.0,64,0,3,0
223555746,0.01,50.0,17.25,0.0,0,0,3,0
223587647,0.01,50.0,17.24,0.0,4,0,3,0
223618815,0.01,50.0,17.1,0.0,0,0,3,0
223649783,0.01,50.0,16.81,0.0,64,0,3,0
223682722,0.01,50.0,16.64,0.0,64,0,3,0
223714905,0.01,50.0,0.38,0.0,64,0,3,0
223745780,0.01,50.0,1.4599999,0.0,64,0,3,0
223778748,0.01,50.0,0.0,0.0,64,0,3,0
223810863,0.01,50.0,15.5199995,0.0,0,0,3,0
223842844,0.01,50.0,15.54,0.0,0,0,3,0
223874187,0.01,50.0,15.63,0.0,4,0,3,0
223905959,0.01,50.0,2.1499999,0.0,64,0,3,0
223938325,0.01,50.0,0.0,0.0,64,0,3,0
223970575,0.01,50.0,15.04,0.0,0,0,3,0
224001755,0.01,50.0,1.3299999,0.0,64,0,3,0
224033754,0.01,50.0,14.94,0.0,64,0,3,0
224066236,0.01,50.0,2.19,0.0,64,0,3,0
224097969,0.01,50.0,14.88,0.0,64,0,3,0
224130292,0.01,50.0,1.5799999,0.0,64,0,3,0
224162853,0.01,50.0,14.9,0.0,64,0,3,0
224194899,0.01,50.0,2.3799999,0.0,64,0,3,0
224226832,0.01,50.0,14.849999,0.0,64,0,3,0
224258937,0.01,50.0,14.92,0.0,64,0,3,0
224290073,0.01,50.0,14.91,0.0,4,0,3,0
224322616,0.01,50.0,2.1299999,0.0,0,0,3,0
224354842,0.01,50.0,15.059999,0.0,0,0,3,0
224387889,0.01,50.0,15.12,0.0,64,0,3,0
224419782,0.01,50.0,15.37,0.0,64,0,3,0
224451318,0.01,50.0,15.63,0.0,64,0,3,0
224482945,0.01,50.0,15.86,0.0,64,0,3,0
224516118,0.01,50.0,0.099999994,0.0,0,0,3,0
224547364,0.01,50.0,15.83,0.0,0,0,3,0
224579787,0.01,50.0,15.96,0.0,64,0,3,0
224611866,0.01,50.0,16.01,0.0,64,0,3,0
224643355,0.01,50.0,0.0,0.0,64,0,3,0
224676121,0.01,50.0,16.27,0.0,64,0,3,0
224707803,0.01,50.0,16.199999,0.0,64,0,3,0
224739850,0.01,50.0,1.16,0.0,64,0,3,0
224771957,0.01,50.0,0.0,0.0,64,0,3,0
224803826,0.01,50.0,16.64,0.0,64,0,3,0
224835321,0.01,50.0,16.52,0.0,4,0,3,0
224868170,0.01,50.0,16.69,0.0,64,0,3,0
224899781,0.01,50.0,16.8,0.0,64,0,3,0
224931764,0.01,50.0,2.1399999,0.0,64,0,3,0
224963745,0.01,50.0,1.6899999,0.0,64,0,3,0
224995796,0.01,50.0,1.7199999,0.0,0,0,3,0
225027954,0.01,50.0,2.3999999,0.0,64,0,3,0
225060137,0.01,50.0,17.59,0.0,64,0,3,0
225091833,0.01,50.0,18.3,0.0,64,0,3,0
225123769,0.01,50.0,17.75,0.0,64,0,3,0
225156228,0.01,50.0,18.119999,0.0,64,0,3,0
225187887,0.01,50.0,17.09,0.0,64,0,3,0
225218804,0.01,50.0,17.529999,0.0,64,0,3,0
225250976,0.01,50.0,16.88,0.0,64,0,3,0
225282889,0.01,50.0,0.0,0.0,0,0,3,0
225314901,0.01,50.0,0.0,0.0,64,0,3,0
225345753,0.01,50.0,16.859999,0.0,64,0,3,0
225377999,0.01,50.0,0.0,0.0,0,0,3,0
225409745,0.01,50.0,1.05,0.0,64,0,3,0
225441932,0.01,50.0,3.01,0.0,64,0,3,0
225473742,0.01,50.0,16.699999,0.0,64,0,3,0
225505747,0.01,50.0,16.44,0.0,0,0,3,0
225536742,0.01,50.0,16.67,0.0,64,0,3,0
225568926,0.01,50.0,16.48,0.0,0,0,3,0
225600352,0.01,50.0,16.39,0.0,64,0,3,0
225632348,0.01,50.0,16.279999,0.0,64,0,3,0
225664760,0.01,50.0,16.26,0.0,0,0,3,0
225696764,0.01,50.0,16.3,0.0,-72,0,3,0
225728749,0.01,50.0,15.94,0.0,64,0,3,0
225760770,0.01,50.0,15.91,0.0,64,0,3,0
225792307,0.01,50.0,0.71,0.0,64,0,3,0
225824759,0.01,50.0,15.849999,0.0,64,0,3,0
225856977,0.01,50.0,15.54,0.0,0,0,3,0
225888759,0.01,50.0,15.38,0.0,64,0,3,0
225920476,0.01,50.0,15.339999,0.0,64,0,3,0
225952742,0.01,50.0,15.32,0.0,64,0,3,0
225984975,0.01,50.0,0.0,0.0,64,0,3,0
226016354,0.01,50.0,0.65999997,0.0,64,0,3,0
226050519,0.01,50.0,1.91,0.0,64,0,3,0
226082813,0.01,50.0,14.91,0.0,64,0,3,0
226115333,0.01,50.0,14.7699995,0.0,64,0,3,0
226147018,0.01,50.0,14.66,0.0,64,0,3,0
226178949,0.01,50.0,14.849999,0.0,0,0,3,0
226211080,0.01,50.0,14.69,0.0,0,0,3,0
226243081,0.01,50.0,14.66,0.0,64,0,3,0
226275341,0.01,50.0,14.63,0.0,64,0,3,0
226307804,0.01,50.0,14.69,0.0,64,0,3,0
226339539,0.01,50.0,14.679999,0.0,4,0,3,0
226371749,0.01,50.0,14.549999,0.0,64,0,3,0
226403744,0.01,50.0,14.469999,0.0,64,0,3,0
226435392,0.01,50.0,0.0,0.0,64,0,3,0
226466878,0.01,50.0,0.0,0.0,4,0,3,0
226500193,0.01,50.0,0.25,0.0,-116,0,3,0
226531766,0.01,50.0,1.5,0.0,64,0,3,0
226563000,0.01,50.0,14.849999,0.0,64,0,3,0
226594841,0.01,50.0,15.0199995,0.0,64,0,3,0
226627068,0.01,50.0,15.23,0.0,64,0,3,0
226658588,0.01,50.0,15.15,0.0,64,0,3,0
226690961,0.01,50.0,0.0,0.0,64,0,3,0
226723357,0.01,50.0,0.31,0.0,0,0,3,0
226755745,0.01,50.0,15.339999,0.0,64,0,3,0
226787359,0.01,50.0,15.339999,0.0,4,0,3,0
226819757,0.01,50.0,15.509999,0.0,64,0,3,0
226851763,0.01,50.0,0.41,0.0,64,0,3,0
226883783,0.01,50.0,15.599999,0.0,64,0,3,0
226916177,0.01,50.0,15.849999,0.0,64,0,3,0
226948188,0.01,50.0,15.799999,0.0,64,0,3,0
226980961,0.01,50.0,15.9,0.0,64,0,3,0
227012325,0.01,50.0,0.66999996,0.0,64,0,3,0
227044913,0.01,50.0,16.109999,0.0,0,0,3,0
227076153,0.01,50.0,0.0,0.0,64,0,3,0
227108382,0.01,50.0,16.23,0.0,64,0,3,0
227140762,0.01,50.0,16.64,0.0,64,0,3,0
227172155,0.01,50.0,16.56,0.0,64,0,3,0
227204726,0.01,50.0,2.18,0.0,4,0,3,0
