timestamp,baro_alt_meter,baro_temp_celcius,baro_pressure_pa,rho
175384926,-158.22737,23.81,103240.0,1.226662
175451500,-158.22737,23.81,103240.0,1.226662
175462129,-158.31194,23.81,103241.0,1.2266738
175471658,-158.1481,23.81,103239.0,1.2266501
175492364,-158.47575,23.82,103242.99,1.2266976
175503634,-157.98428,23.82,103237.0,1.2266264
175516603,-158.06355,23.82,103238.0,1.2266382
175537471,-158.3912,23.81,103241.99,1.2266856
175548596,-158.22737,23.81,103240.0,1.226662
175559570,-158.3912,23.81,103241.99,1.2266856
175579776,-158.22737,23.81,103240.0,1.226662
175589971,-157.98428,23.81,103237.0,1.2266264
175599825,-158.22737,23.81,103240.0,1.226662
175621904,-158.55502,23.82,103243.99,1.2267094
175632600,-158.31194,23.82,103241.0,1.2266738
175644932,-158.22737,23.82,103240.0,1.226662
175666635,-158.47575,23.82,103242.99,1.2266976
175676689,-158.47575,23.82,103242.99,1.2266976
175686788,-157.82047,23.82,103235.0,1.2266026
175709811,-158.06355,23.82,103238.0,1.2266382
175720485,-158.3912,23.82,103241.99,1.2266856
175733494,-158.63959,23.82,103244.99,1.2267213
175754588,-158.22737,23.82,103240.0,1.226662
175764953,-158.1481,23.82,103239.0,1.2266501
175776495,-158.22737,23.82,103240.0,1.226662
175797476,-158.47575,23.83,103242.99,1.2266976
175808484,-158.55502,23.83,103243.99,1.2267094
175821311,-158.22737,23.83,103240.0,1.226662
175842638,-158.3912,23.83,103241.99,1.2266856
175853059,-158.3912,23.83,103241.99,1.2266856
175863921,-157.89973,23.83,103236.0,1.2266145
175885076,-158.31194,23.83,103241.0,1.2266738
175894609,-158.31194,23.83,103241.0,1.2266738
175905140,-158.31194,23.83,103241.0,1.2266738
175928211,-158.47575,23.83,103242.99,1.2266976
175938641,-158.06355,23.83,103238.0,1.2266382
175949478,-157.89973,23.83,103236.0,1.2266145
175973358,-158.47575,23.83,103242.99,1.2266976
175984500,-157.98428,23.83,103237.0,1.2266264
175997443,-158.1481,23.83,103239.0,1.2266501
176021436,-158.1481,23.83,103239.0,1.2266501
176032488,-158.22737,23.83,103240.0,1.226662
176042940,-158.1481,23.83,103239.0,1.2266501
176065097,-158.31194,23.83,103241.0,1.2266738
176077228,-157.82047,23.83,103235.0,1.2266026
176088248,-158.31194,23.83,103241.0,1.2266738
176108762,-158.06355,23.83,103238.0,1.2266382
176119915,-158.1481,23.83,103239.0,1.2266501
176130629,-158.63959,23.83,103244.99,1.2267213
176151582,-158.22737,23.84,103240.0,1.226662
176162776,-158.22737,23.84,103240.0,1.226662
176174154,-158.22737,23.84,103240.0,1.226662
176194994,-158.06355,23.83,103238.0,1.2266382
176206097,-158.06355,23.83,103238.0,1.2266382
176216490,-158.55502,23.83,103243.99,1.2267094
176238254,-158.22737,23.84,103240.0,1.226662
176248526,-158.3912,23.84,103241.99,1.2266856
176258760,-158.22737,23.84,103240.0,1.226662
176281147,-158.47575,23.84,103242.99,1.2266976
176291319,-158.22737,23.84,103240.0,1.226662
176302151,-158.55502,23.84,103243.99,1.2267094
176323473,-158.31194,23.84,103241.0,1.2266738
176334061,-158.3912,23.84,103241.99,1.2266856
176344482,-158.1481,23.84,103239.0,1.2266501
176366118,-158.22737,23.84,103240.0,1.226662
176377123,-158.1481,23.84,103239.0,1.2266501
176386985,-158.1481,23.84,103239.0,1.2266501
176410562,-158.55502,23.85,103243.99,1.2267094
176422802,-158.22737,23.85,103240.0,1.226662
176432497,-158.1481,23.85,103239.0,1.2266501
176454704,-158.55502,23.85,103243.99,1.2267094
176464575,-158.31194,23.85,103241.0,1.2266738
176475478,-158.55502,23.85,103243.99,1.2267094
176498372,-158.06355,23.85,103238.0,1.2266382
176510124,-158.06355,23.85,103238.0,1.2266382
176520448,-157.82047,23.85,103235.0,1.2266026
176542221,-158.3912,23.85,103241.99,1.2266856
176552493,-158.47575,23.85,103242.99,1.2266976
176563452,-158.3912,23.85,103241.99,1.2266856
176584797,-158.1481,23.85,103239.0,1.2266501
176594911,-157.98428,23.85,103237.0,1.2266264
176606161,-157.89973,23.85,103236.0,1.2266145
176627439,-157.98428,23.85,103237.0,1.2266264
176638278,-158.1481,23.85,103239.0,1.2266501
176648503,-158.06355,23.85,103238.0,1.2266382
176670032,-158.55502,23.859999,103243.99,1.2267094
176682754,-158.47575,23.859999,103242.99,1.2266976
176693503,-158.1481,23.859999,103239.0,1.2266501
176715452,-158.55502,23.859999,103243.99,1.2267094
176726132,-158.31194,23.859999,103241.0,1.2266738
176736495,-157.89973,23.859999,103236.0,1.2266145
176758609,-158.63959,23.859999,103244.99,1.2267213
176770972,-158.1481,23.859999,103239.0,1.2266501
176782126,-158.22737,23.859999,103240.0,1.226662
176804302,-158.06355,23.869999,103238.0,1.2266382
176814021,-158.71886,23.869999,103246.0,1.2267333
176824449,-158.55502,23.869999,103243.99,1.2267094
176846244,-158.1481,23.859999,103239.0,1.2266501
176855449,-158.1481,23.859999,103239.0,1.2266501
176867728,-158.1481,23.859999,103239.0,1.2266501
176888751,-158.31194,23.859999,103241.0,1.2266738
176900270,-157.98428,23.859999,103237.0,1.2266264
176910015,-158.3912,23.859999,103241.99,1.2266856
176932429,-157.98428,23.859999,103237.0,1.2266264
176943437,-158.31194,23.859999,103241.0,1.2266738
176954579,-157.98428,23.859999,103237.0,1.2266264
176976437,-158.31194,23.869999,103241.0,1.2266738
176986730,-158.22737,23.869999,103240.0,1.226662
176997735,-158.06355,23.869999,103238.0,1.2266382
177018577,-157.98428,23.869999,103237.0,1.2266264
177029520,-158.47575,23.869999,103242.99,1.2266976
177040437,-158.55502,23.869999,103243.99,1.2267094
177062506,-158.47575,23.869999,103242.99,1.2266976
177073477,-158.55502,23.869999,103243.99,1.2267094
177084444,-157.98428,23.869999,103237.0,1.2266264
177105437,-158.47575,23.869999,103242.99,1.2266976
177117019,-158.3912,23.869999,103241.99,1.2266856
177127507,-157.89973,23.869999,103236.0,1.2266145
177148447,-158.3912,23.88,103241.99,1.2266856
177159780,-158.22737,23.88,103240.0,1.226662
177171674,-158.06355,23.88,103238.0,1.2266382
177197105,-158.31194,23.869999,103241.0,1.2266738
177207449,-158.3912,23.869999,103241.99,1.2266856
177217808,-158.1481,23.869999,103239.0,1.2266501
177239451,-157.98428,23.869999,103237.0,1.2266264
177252311,-157.89973,23.869999,103236.0,1.2266145
177263107,-158.31194,23.869999,103241.0,1.2266738
177285217,-158.06355,23.88,103238.0,1.2266382
177295492,-158.31194,23.88,103241.0,1.2266738
177307819,-158.31194,23.88,103241.0,1.2266738
177328448,-158.1481,23.88,103239.0,1.2266501
177340698,-158.3912,23.88,103241.99,1.2266856
177351492,-158.1481,23.88,103239.0,1.2266501
177371727,-157.98428,23.88,103237.0,1.2266264
177381830,-157.98428,23.88,103237.0,1.2266264
177391449,-158.55502,23.88,103243.99,1.2267094
177415448,-158.3912,23.88,103241.99,1.2266856
177425502,-158.1481,23.88,103239.0,1.2266501
177436449,-158.06355,23.88,103238.0,1.2266382
177457450,-158.55502,23.88,103243.99,1.2267094
177468961,-158.1481,23.88,103239.0,1.2266501
177479410,-157.98428,23.88,103237.0,1.2266264
177500158,-158.71886,23.89,103246.0,1.2267333
177510834,-157.98428,23.89,103237.0,1.2266264
177521449,-158.22737,23.89,103240.0,1.226662
177543697,-158.47575,23.89,103242.99,1.2266976
177553499,-158.22737,23.89,103240.0,1.226662
177563833,-158.1481,23.89,103239.0,1.2266501
177588369,-158.06355,23.89,103238.0,1.2266382
177599655,-158.06355,23.89,103238.0,1.2266382
177612310,-158.63959,23.89,103244.99,1.2267213
177633489,-158.1481,23.89,103239.0,1.2266501
177644261,-158.47575,23.89,103242.99,1.2266976
177655068,-158.22737,23.89,103240.0,1.226662
177677066,-158.1481,23.89,103239.0,1.2266501
177687448,-157.82047,23.89,103235.0,1.2266026
177701130,-157.89973,23.89,103236.0,1.2266145
177721543,-158.06355,23.89,103238.0,1.2266382
177732967,-158.06355,23.89,103238.0,1.2266382
177743314,-158.22737,23.89,103240.0,1.226662
177764313,-157.89973,23.9,103236.0,1.2266145
177773979,-158.06355,23.9,103238.0,1.2266382
177784552,-158.06355,23.9,103238.0,1.2266382
177807474,-158.22737,23.9,103240.0,1.226662
177820194,-158.47575,23.9,103242.99,1.2266976
177829800,-158.22737,23.9,103240.0,1.226662
177851619,-158.31194,23.9,103241.0,1.2266738
177863673,-157.89973,23.9,103236.0,1.2266145
177873437,-158.22737,23.9,103240.0,1.226662
177895852,-157.89973,23.9,103236.0,1.2266145
177908528,-157.98428,23.9,103237.0,1.2266264
177919906,-158.22737,23.9,103240.0,1.226662
177943438,-158.31194,23.9,103241.0,1.2266738
177953544,-157.82047,23.9,103235.0,1.2266026
177964262,-157.65135,23.9,103232.99,1.2265787
177984676,-158.31194,23.91,103241.0,1.2266738
177995100,-157.98428,23.91,103237.0,1.2266264
178006232,-158.22737,23.91,103240.0,1.226662
178027021,-158.47575,23.91,103242.99,1.2266976
178038623,-158.1481,23.91,103239.0,1.2266501
178049452,-158.3912,23.91,103241.99,1.2266856
178071437,-158.06355,23.91,103238.0,1.2266382
178081484,-158.31194,23.91,103241.0,1.2266738
178093496,-158.47575,23.91,103242.99,1.2266976
178115437,-158.55502,23.91,103243.99,1.2267094
178126159,-158.31194,23.91,103241.0,1.2266738
178136707,-158.1481,23.91,103239.0,1.2266501
178158198,-158.06355,23.91,103238.0,1.2266382
178168695,-157.89973,23.91,103236.0,1.2266145
178179442,-158.1481,23.91,103239.0,1.2266501
178200967,-158.71886,23.92,103246.0,1.2267333
178211503,-158.31194,23.92,103241.0,1.2266738
178221840,-157.82047,23.92,103235.0,1.2266026
178243777,-157.98428,23.92,103237.0,1.2266264
178254308,-158.06355,23.92,103238.0,1.2266382
178263441,-158.31194,23.92,103241.0,1.2266738
178285340,-158.31194,23.92,103241.0,1.2266738
178295437,-158.31194,23.92,103241.0,1.2266738
178306572,-157.98428,23.92,103237.0,1.2266264
178327438,-158.22737,23.92,103240.0,1.226662
178338535,-157.89973,23.92,103236.0,1.2266145
178349551,-158.06355,23.92,103238.0,1.2266382
178369524,-158.3912,23.92,103241.99,1.2266856
178379453,-158.3912,23.92,103241.99,1.2266856
178389450,-158.1481,23.92,103239.0,1.2266501
178410597,-158.3912,23.93,103241.99,1.2266856
178422104,-158.3912,23.93,103241.99,1.2266856
178432724,-158.22737,23.93,103240.0,1.226662
178454254,-157.82047,23.93,103235.0,1.2266026
178464770,-158.1481,23.93,103239.0,1.2266501
178474912,-158.06355,23.93,103238.0,1.2266382
178497315,-158.47575,23.93,103242.99,1.2266976
178507459,-158.47575,23.93,103242.99,1.2266976
178518892,-157.98428,23.93,103237.0,1.2266264
178539785,-158.31194,23.939999,103241.0,1.2266738
178550140,-158.55502,23.939999,103243.99,1.2267094
178560768,-158.71886,23.939999,103246.0,1.2267333
178581496,-158.06355,23.939999,103238.0,1.2266382
178592681,-158.3912,23.939999,103241.99,1.2266856
178603437,-158.31194,23.939999,103241.0,1.2266738
178624768,-158.31194,23.939999,103241.0,1.2266738
178635437,-158.31194,23.939999,103241.0,1.2266738
178646013,-158.22737,23.939999,103240.0,1.226662
178667446,-158.1481,23.939999,103239.0,1.2266501
178678830,-158.06355,23.939999,103238.0,1.2266382
178688736,-158.31194,23.939999,103241.0,1.2266738
178709385,-158.06355,23.939999,103238.0,1.2266382
178718648,-157.82047,23.939999,103235.0,1.2266026
178729158,-158.47575,23.939999,103242.99,1.2266976
178750801,-158.3912,23.949999,103241.99,1.2266856
178761355,-158.3912,23.949999,103241.99,1.2266856
178771880,-158.31194,23.949999,103241.0,1.2266738
178791999,-157.98428,23.939999,103237.0,1.2266264
178802542,-158.31194,23.939999,103241.0,1.2266738
178813867,-158.47575,23.939999,103242.99,1.2266976
178833523,-158.47575,23.949999,103242.99,1.2266976
178846553,-158.22737,23.949999,103240.0,1.226662
178857437,-158.47575,23.949999,103242.99,1.2266976
178879106,-158.31194,23.949999,103241.0,1.2266738
178889792,-158.3912,23.949999,103241.99,1.2266856
178899511,-158.63959,23.949999,103244.99,1.2267213
178922579,-158.22737,23.949999,103240.0,1.226662
178933449,-158.22737,23.949999,103240.0,1.226662
178943893,-158.06355,23.949999,103238.0,1.2266382
178965448,-158.3912,23.949999,103241.99,1.2266856
178976500,-158.31194,23.949999,103241.0,1.2266738
178986788,-158.55502,23.949999,103243.99,1.2267094
179009038,-158.47575,23.949999,103242.99,1.2266976
179019473,-158.31194,23.949999,103241.0,1.2266738
179030954,-158.22737,23.949999,103240.0,1.226662
179050747,-158.31194,23.96,103241.0,1.2266738
179060472,-158.63959,23.96,103244.99,1.2267213
179071383,-158.31194,23.96,103241.0,1.2266738
179093471,-158.22737,23.949999,103240.0,1.226662
179104764,-158.3912,23.949999,103241.99,1.2266856
179115074,-158.3912,23.949999,103241.99,1.2266856
179137019,-158.31194,23.96,103241.0,1.2266738
179147062,-158.22737,23.96,103240.0,1.226662
179156491,-158.47575,23.96,103242.99,1.2266976
179179061,-158.31194,23.96,103241.0,1.2266738
179191609,-158.63959,23.96,103244.99,1.2267213
179202630,-158.71886,23.96,103246.0,1.2267333
179223432,-158.55502,23.96,103243.99,1.2267094
179233939,-158.47575,23.96,103242.99,1.2266976
179244568,-158.06355,23.96,103238.0,1.2266382
179265480,-158.71886,23.96,103246.0,1.2267333
179276473,-158.1481,23.96,103239.0,1.2266501
179287623,-158.3912,23.96,103241.99,1.2266856
179308470,-158.55502,23.96,103243.99,1.2267094
179319784,-158.1481,23.96,103239.0,1.2266501
179330308,-157.7359,23.96,103234.0,1.2265908
179349483,-158.06355,23.96,103238.0,1.2266382
179359917,-158.1481,23.96,103239.0,1.2266501
179371051,-157.82047,23.96,103235.0,1.2266026
179392292,-158.63959,23.97,103244.99,1.2267213
179402647,-158.3912,23.97,103241.99,1.2266856
179412470,-158.22737,23.97,103240.0,1.226662
179435010,-158.63959,23.97,103244.99,1.2267213
179447681,-158.47575,23.97,103242.99,1.2266976
179458673,-157.89973,23.97,103236.0,1.2266145
179481944,-158.06355,23.97,103238.0,1.2266382
179492976,-158.71886,23.97,103246.0,1.2267333
179503325,-158.31194,23.97,103241.0,1.2266738
179524471,-158.3912,23.97,103241.99,1.2266856
179535798,-158.1481,23.97,103239.0,1.2266501
179546601,-157.82047,23.97,103235.0,1.2266026
179570656,-158.47575,23.98,103242.99,1.2266976
179584314,-157.98428,23.98,103237.0,1.2266264
179595500,-158.22737,23.98,103240.0,1.226662
179618078,-157.89973,23.97,103236.0,1.2266145
179627610,-158.22737,23.97,103240.0,1.226662
179639553,-157.89973,23.97,103236.0,1.2266145
179660470,-157.82047,23.97,103235.0,1.2266026
179671474,-158.31194,23.97,103241.0,1.2266738
179682548,-158.1481,23.97,103239.0,1.2266501
179703883,-158.3912,23.97,103241.99,1.2266856
179714596,-158.31194,23.97,103241.0,1.2266738
179727662,-158.3912,23.97,103241.99,1.2266856
179752176,-158.22737,23.97,103240.0,1.226662
179762569,-158.1481,23.97,103239.0,1.2266501
179776281,-157.7359,23.97,103234.0,1.2265908
179799909,-157.89973,23.97,103236.0,1.2266145
179809951,-158.8034,23.97,103247.0,1.2267451
179820645,-157.65135,23.97,103232.99,1.2265787
179842602,-158.1481,23.98,103239.0,1.2266501
179853356,-158.1481,23.98,103239.0,1.2266501
179863964,-157.98428,23.98,103237.0,1.2266264
179885114,-158.22737,23.98,103240.0,1.226662
179895973,-158.06355,23.98,103238.0,1.2266382
179906615,-157.89973,23.98,103236.0,1.2266145
179928263,-158.47575,23.98,103242.99,1.2266976
179938982,-158.63959,23.98,103244.99,1.2267213
179949800,-158.06355,23.98,103238.0,1.2266382
179970691,-158.55502,23.98,103243.99,1.2267094
179982135,-159.0465,23.98,103250.0,1.2267808
179992580,-158.63959,23.98,103244.99,1.2267213
180013054,-158.3912,23.99,103241.99,1.2266856
180023953,-158.55502,23.99,103243.99,1.2267094
180034920,-158.63959,23.99,103244.99,1.2267213
180056574,-158.55502,23.99,103243.99,1.2267094
180066585,-158.63959,23.99,103244.99,1.2267213
180078063,-158.63959,23.99,103244.99,1.2267213
180100745,-158.22737,23.99,103240.0,1.226662
180111930,-158.71886,23.99,103246.0,1.2267333
180121486,-158.3912,23.99,103241.99,1.2266856
180143114,-158.47575,23.99,103242.99,1.2266976
180153480,-158.06355,23.99,103238.0,1.2266382
180164982,-157.98428,23.99,103237.0,1.2266264
180186578,-158.63959,24.0,103244.99,1.2267213
180197476,-158.88268,24.0,103248.0,1.226757
180208268,-158.3912,24.0,103241.99,1.2266856
180229269,-158.22737,24.0,103240.0,1.226662
180240190,-158.47575,24.0,103242.99,1.2266976
180250951,-158.31194,24.0,103241.0,1.2266738
180271957,-158.31194,24.0,103241.0,1.2266738
180282550,-158.47575,24.0,103242.99,1.2266976
180292660,-158.96722,24.0,103249.0,1.226769
180314551,-158.55502,24.0,103243.99,1.2267094
180325508,-158.8034,24.0,103247.0,1.2267451
180336484,-158.31194,24.0,103241.0,1.2266738
180360724,-158.55502,24.0,103243.99,1.2267094
180372966,-158.8034,24.0,103247.0,1.2267451
180384530,-158.71886,24.0,103246.0,1.2267333
180406612,-159.13106,24.0,103251.0,1.2267927
180417070,-159.2156,24.0,103252.0,1.2268046
180427039,-158.55502,24.0,103243.99,1.2267094
180449041,-158.47575,24.0,103242.99,1.2266976
180459062,-158.3912,24.0,103241.99,1.2266856
180469065,-158.63959,24.0,103244.99,1.2267213
180493209,-158.55502,24.0,103243.99,1.2267094
180504093,-158.71886,24.0,103246.0,1.2267333
180514909,-157.98428,24.0,103237.0,1.2266264
180536483,-158.8034,24.01,103247.0,1.2267451
180546601,-158.47575,24.01,103242.99,1.2266976
180558140,-158.47575,24.01,103242.99,1.2266976
180580572,-158.22737,24.01,103240.0,1.226662
180591901,-158.88268,24.01,103248.0,1.226757
180601519,-159.2156,24.01,103252.0,1.2268046
180624110,-158.47575,24.01,103242.99,1.2266976
180634977,-158.55502,24.01,103243.99,1.2267094
180645007,-158.47575,24.01,103242.99,1.2266976
180666565,-158.96722,24.01,103249.0,1.226769
180677476,-159.13106,24.01,103251.0,1.2267927
180688465,-159.13106,24.01,103251.0,1.2267927
180712498,-158.47575,24.019999,103242.99,1.2266976
180723470,-158.3912,24.019999,103241.99,1.2266856
180734878,-158.47575,24.019999,103242.99,1.2266976
180758071,-158.55502,24.019999,103243.99,1.2267094
180769275,-158.06355,24.019999,103238.0,1.2266382
180779372,-158.22737,24.019999,103240.0,1.226662
180801337,-158.71886,24.019999,103246.0,1.2267333
180811151,-158.3912,24.019999,103241.99,1.2266856
180821746,-158.3912,24.019999,103241.99,1.2266856
180843421,-158.22737,24.019999,103240.0,1.226662
180854599,-158.55502,24.019999,103243.99,1.2267094
180865284,-158.47575,24.019999,103242.99,1.2266976
180886599,-157.98428,24.019999,103237.0,1.2266264
180897280,-158.22737,24.019999,103240.0,1.226662
180907495,-158.88268,24.019999,103248.0,1.226757
180929308,-157.16516,24.019999,103227.0,1.2265075
180940208,-157.98428,24.019999,103237.0,1.2266264
180950629,-157.98428,24.019999,103237.0,1.2266264
180974589,-158.06355,24.029999,103238.0,1.2266382
180986157,-158.3912,24.029999,103241.99,1.2266856
180997271,-158.1481,24.029999,103239.0,1.2266501
181018268,-158.47575,24.029999,103242.99,1.2266976
181027961,-158.22737,24.029999,103240.0,1.226662
181037515,-157.7359,24.029999,103234.0,1.2265908
181060344,-158.22737,24.029999,103240.0,1.226662
181069531,-157.7359,24.029999,103234.0,1.2265908
181080468,-157.65135,24.029999,103232.99,1.2265787
181101552,-157.89973,24.029999,103236.0,1.2266145
181111533,-158.06355,24.029999,103238.0,1.2266382
181123836,-158.1481,24.029999,103239.0,1.2266501
181146899,-158.55502,24.029999,103243.99,1.2267094
181156769,-158.1481,24.029999,103239.0,1.2266501
181166576,-158.1481,24.029999,103239.0,1.2266501
181189556,-157.65135,24.039999,103232.99,1.2265787
181199470,-157.57208,24.039999,103231.99,1.2265668
181210666,-158.22737,24.039999,103240.0,1.226662
181232564,-157.98428,24.039999,103237.0,1.2266264
181243484,-157.7359,24.039999,103234.0,1.2265908
181254621,-157.48753,24.039999,103230.99,1.226555
181274917,-157.82047,24.039999,103235.0,1.2266026
181285841,-157.57208,24.039999,103231.99,1.2265668
181296517,-158.31194,24.039999,103241.0,1.2266738
181637900,-158.31194,24.05,103241.0,1.2266738
181647482,-157.98428,24.05,103237.0,1.2266264
181668967,-157.24443,24.05,103228.0,1.2265193
181679480,-157.7359,24.05,103234.0,1.2265908
181689492,-157.82047,24.05,103235.0,1.2266026
181711837,-157.48753,24.05,103230.99,1.226555
181723711,-157.98428,24.05,103237.0,1.2266264
181733558,-157.82047,24.05,103235.0,1.2266026
181756611,-157.40826,24.06,103229.99,1.2265431
181767475,-158.3912,24.06,103241.99,1.2266856
181777521,-157.98428,24.06,103237.0,1.2266264
181799432,-157.98428,24.06,103237.0,1.2266264
181809470,-158.31194,24.06,103241.0,1.2266738
181820935,-157.82047,24.06,103235.0,1.2266026
181841530,-158.31194,24.06,103241.0,1.2266738
181852473,-157.98428,24.06,103237.0,1.2266264
181863125,-158.06355,24.06,103238.0,1.2266382
181884377,-157.89973,24.06,103236.0,1.2266145
181895387,-157.48753,24.06,103230.99,1.226555
181905528,-157.57208,24.06,103231.99,1.2265668
181926016,-157.7359,24.06,103234.0,1.2265908
181935476,-157.3237,24.06,103228.99,1.2265311
181945844,-157.3237,24.06,103228.99,1.2265311
181967727,-157.98428,24.07,103237.0,1.2266264
181980470,-157.57208,24.07,103231.99,1.2265668
181991357,-157.3237,24.07,103228.99,1.2265311
182012969,-157.98428,24.07,103237.0,1.2266264
182023427,-157.7359,24.07,103234.0,1.2265908
182036142,-158.3912,24.07,103241.99,1.2266856
182055496,-158.1481,24.07,103239.0,1.2266501
182068569,-157.40826,24.07,103229.99,1.2265431
182079478,-158.06355,24.07,103238.0,1.2266382
182104471,-157.65135,24.07,103232.99,1.2265787
182117825,-158.06355,24.07,103238.0,1.2266382
182127484,-158.3912,24.07,103241.99,1.2266856
182151114,-157.89973,24.07,103236.0,1.2266145
182161534,-158.22737,24.07,103240.0,1.226662
182171905,-157.57208,24.07,103231.99,1.2265668
182196244,-158.22737,24.07,103240.0,1.226662
182207325,-157.89973,24.07,103236.0,1.2266145
182217466,-157.89973,24.07,103236.0,1.2266145
182239196,-158.3912,24.07,103241.99,1.2266856
182249471,-158.22737,24.07,103240.0,1.226662
182260662,-158.3912,24.07,103241.99,1.2266856
182281512,-157.82047,24.07,103235.0,1.2266026
182292157,-157.65135,24.07,103232.99,1.2265787
182303406,-157.7359,24.07,103234.0,1.2265908
182324223,-158.3912,24.08,103241.99,1.2266856
182333537,-158.06355,24.08,103238.0,1.2266382
182343654,-158.22737,24.08,103240.0,1.226662
182367491,-158.06355,24.08,103238.0,1.2266382
182377481,-158.22737,24.08,103240.0,1.226662
182387819,-157.98428,24.08,103237.0,1.2266264
182409470,-157.98428,24.08,103237.0,1.2266264
182420764,-157.82047,24.08,103235.0,1.2266026
182431521,-157.82047,24.08,103235.0,1.2266026
182455471,-157.89973,24.08,103236.0,1.2266145
182468647,-157.7359,24.08,103234.0,1.2265908
182479465,-157.89973,24.08,103236.0,1.2266145
182501797,-157.48753,24.08,103230.99,1.226555
182511503,-157.82047,24.08,103235.0,1.2266026
182521478,-157.48753,24.08,103230.99,1.226555
182542349,-157.82047,24.09,103235.0,1.2266026
182553450,-157.65135,24.09,103232.99,1.2265787
182565143,-157.65135,24.09,103232.99,1.2265787
182586555,-158.31194,24.09,103241.0,1.2266738
182597962,-157.7359,24.09,103234.0,1.2265908
182608763,-157.65135,24.09,103232.99,1.2265787
182629763,-157.65135,24.09,103232.99,1.2265787
182641039,-158.1481,24.09,103239.0,1.2266501
182651467,-157.57208,24.09,103231.99,1.2265668
182673027,-157.82047,24.08,103235.0,1.2266026
182683482,-157.7359,24.08,103234.0,1.2265908
182694289,-157.7359,24.08,103234.0,1.2265908
182715561,-157.3237,24.09,103228.99,1.2265311
182726137,-157.3237,24.09,103228.99,1.2265311
182736963,-157.89973,24.09,103236.0,1.2266145
182759527,-157.89973,24.1,103236.0,1.2266145
182769516,-157.57208,24.1,103231.99,1.2265668
182782145,-157.16516,24.1,103227.0,1.2265075
182802597,-157.82047,24.09,103235.0,1.2266026
182814096,-157.65135,24.09,103232.99,1.2265787
182823466,-157.57208,24.09,103231.99,1.2265668
182845851,-157.98428,24.09,103237.0,1.2266264
182855610,-157.89973,24.09,103236.0,1.2266145
182865481,-157.98428,24.09,103237.0,1.2266264
182888981,-157.89973,24.1,103236.0,1.2266145
182898540,-158.06355,24.1,103238.0,1.2266382
182909468,-157.3237,24.1,103228.99,1.2265311
182931485,-157.98428,24.1,103237.0,1.2266264
182942983,-157.89973,24.1,103236.0,1.2266145
182953527,-157.98428,24.1,103237.0,1.2266264
182973786,-157.89973,24.1,103236.0,1.2266145
182984945,-157.89973,24.1,103236.0,1.2266145
182995603,-157.48753,24.1,103230.99,1.226555
183016738,-157.89973,24.1,103236.0,1.2266145
183027479,-157.89973,24.1,103236.0,1.2266145
183038928,-157.3237,24.1,103228.99,1.2265311
183058654,-157.40826,24.1,103229.99,1.2265431
183069490,-158.06355,24.1,103238.0,1.2266382
183080722,-157.48753,24.1,103230.99,1.226555
183101337,-157.82047,24.109999,103235.0,1.2266026
183110988,-157.7359,24.109999,103234.0,1.2265908
183121522,-157.16516,24.109999,103227.0,1.2265075
183145011,-157.89973,24.109999,103236.0,1.2266145
183154564,-157.24443,24.109999,103228.0,1.2265193
183165501,-157.48753,24.109999,103230.99,1.226555
183187471,-157.98428,24.109999,103237.0,1.2266264
183198612,-157.48753,24.109999,103230.99,1.226555
183209465,-157.40826,24.109999,103229.99,1.2265431
183233144,-156.9168,24.109999,103224.0,1.2264719
183243492,-157.40826,24.109999,103229.99,1.2265431
183253819,-157.98428,24.109999,103237.0,1.2266264
183275529,-157.89973,24.109999,103236.0,1.2266145
183286647,-157.57208,24.109999,103231.99,1.2265668
183297339,-157.40826,24.109999,103229.99,1.2265431
183318035,-157.57208,24.109999,103231.99,1.2265668
183329455,-156.9168,24.109999,103224.0,1.2264719
183342347,-157.24443,24.109999,103228.0,1.2265193
183363480,-157.7359,24.119999,103234.0,1.2265908
183375037,-157.65135,24.119999,103232.99,1.2265787
183385466,-157.40826,24.119999,103229.99,1.2265431
183407678,-157.57208,24.119999,103231.99,1.2265668
183418577,-157.7359,24.119999,103234.0,1.2265908
183430713,-157.48753,24.119999,103230.99,1.226555
183451483,-157.65135,24.119999,103232.99,1.2265787
183462154,-157.24443,24.119999,103228.0,1.2265193
183472478,-157.89973,24.119999,103236.0,1.2266145
183493889,-157.65135,24.119999,103232.99,1.2265787
183504470,-157.89973,24.119999,103236.0,1.2266145
183515088,-157.89973,24.119999,103236.0,1.2266145
183537127,-157.65135,24.119999,103232.99,1.2265787
183547664,-157.98428,24.119999,103237.0,1.2266264
183558548,-157.57208,24.119999,103231.99,1.2265668
183579474,-157.65135,24.13,103232.99,1.2265787
183590578,-158.55502,24.13,103243.99,1.2267094
183600466,-157.89973,24.13,103236.0,1.2266145
183621547,-158.1481,24.13,103239.0,1.2266501
183633166,-158.31194,24.13,103241.0,1.2266738
183642827,-157.57208,24.13,103231.99,1.2265668
183664484,-157.48753,24.13,103230.99,1.226555
183674578,-157.57208,24.13,103231.99,1.2265668
183685724,-157.89973,24.13,103236.0,1.2266145
183707315,-158.22737,24.13,103240.0,1.226662
183717941,-158.47575,24.13,103242.99,1.2266976
183730866,-157.65135,24.13,103232.99,1.2265787
183753132,-157.7359,24.13,103234.0,1.2265908
183763357,-157.48753,24.13,103230.99,1.226555
183774213,-157.48753,24.13,103230.99,1.226555
183794635,-157.82047,24.14,103235.0,1.2266026
183806337,-157.65135,24.14,103232.99,1.2265787
183816487,-157.82047,24.14,103235.0,1.2266026
183838189,-158.1481,24.14,103239.0,1.2266501
183849218,-157.24443,24.14,103228.0,1.2265193
183859734,-157.48753,24.14,103230.99,1.226555
183880481,-158.06355,24.14,103238.0,1.2266382
183890571,-157.7359,24.14,103234.0,1.2265908
183901255,-157.7359,24.14,103234.0,1.2265908
183922541,-157.65135,24.14,103232.99,1.2265787
183932612,-158.06355,24.14,103238.0,1.2266382
183943466,-157.82047,24.14,103235.0,1.2266026
183965257,-158.31194,24.14,103241.0,1.2266738
183975478,-157.3237,24.14,103228.99,1.2265311
183986603,-157.57208,24.14,103231.99,1.2265668
184007481,-158.1481,24.14,103239.0,1.2266501
184019382,-158.1481,24.14,103239.0,1.2266501
184029199,-157.89973,24.14,103236.0,1.2266145
184050328,-157.57208,24.15,103231.99,1.2265668
184061896,-158.06355,24.15,103238.0,1.2266382
184072475,-157.82047,24.15,103235.0,1.2266026
184093519,-157.98428,24.15,103237.0,1.2266264
184106118,-157.98428,24.15,103237.0,1.2266264
184115774,-158.22737,24.15,103240.0,1.226662
184135503,-157.98428,24.15,103237.0,1.2266264
184147081,-158.31194,24.15,103241.0,1.2266738
184157848,-158.1481,24.15,103239.0,1.2266501
184178562,-157.57208,24.15,103231.99,1.2265668
184189713,-158.1481,24.15,103239.0,1.2266501
184201175,-157.89973,24.15,103236.0,1.2266145
184222873,-157.40826,24.15,103229.99,1.2265431
184232483,-157.82047,24.15,103235.0,1.2266026
184243851,-158.06355,24.15,103238.0,1.2266382
184263471,-158.31194,24.15,103241.0,1.2266738
184274614,-157.7359,24.15,103234.0,1.2265908
184285758,-158.06355,24.15,103238.0,1.2266382
184306572,-158.1481,24.16,103239.0,1.2266501
184317820,-158.71886,24.16,103246.0,1.2267333
184328487,-158.8034,24.16,103247.0,1.2267451
184348540,-157.89973,24.15,103236.0,1.2266145
184358532,-158.1481,24.15,103239.0,1.2266501
184370715,-157.65135,24.15,103232.99,1.2265787
184392483,-157.7359,24.16,103234.0,1.2265908
184403483,-158.47575,24.16,103242.99,1.2266976
184414604,-158.3912,24.16,103241.99,1.2266856
184435820,-158.31194,24.16,103241.0,1.2266738
184445849,-157.98428,24.16,103237.0,1.2266264
184456489,-158.55502,24.16,103243.99,1.2267094
184478686,-157.98428,24.16,103237.0,1.2266264
184488523,-158.3912,24.16,103241.99,1.2266856
184499521,-158.22737,24.16,103240.0,1.226662
184520568,-157.82047,24.16,103235.0,1.2266026
184531149,-157.57208,24.16,103231.99,1.2265668
184541818,-157.24443,24.16,103228.0,1.2265193
184565536,-158.71886,24.17,103246.0,1.2267333
184576813,-158.31194,24.17,103241.0,1.2266738
184587492,-157.98428,24.17,103237.0,1.2266264
184608553,-158.06355,24.17,103238.0,1.2266382
184619407,-157.65135,24.17,103232.99,1.2265787
184630543,-157.57208,24.17,103231.99,1.2265668
184651519,-158.22737,24.17,103240.0,1.226662
184662566,-157.98428,24.17,103237.0,1.2266264
184672933,-157.48753,24.17,103230.99,1.226555
184694927,-157.57208,24.17,103231.99,1.2265668
184705529,-157.40826,24.17,103229.99,1.2265431
184716272,-157.40826,24.17,103229.99,1.2265431
184735474,-158.3912,24.17,103241.99,1.2266856
184749452,-158.06355,24.17,103238.0,1.2266382
184759500,-157.82047,24.17,103235.0,1.2266026
184781106,-158.47575,24.17,103242.99,1.2266976
184791418,-158.06355,24.17,103238.0,1.2266382
184804638,-157.3237,24.17,103228.99,1.2265311
184828903,-157.82047,24.17,103235.0,1.2266026
184839108,-158.06355,24.17,103238.0,1.2266382
184849467,-157.65135,24.17,103232.99,1.2265787
184871397,-157.89973,24.17,103236.0,1.2266145
184880470,-157.40826,24.17,103229.99,1.2265431
184892657,-157.7359,24.17,103234.0,1.2265908
184916258,-158.06355,24.18,103238.0,1.2266382
184927443,-157.98428,24.18,103237.0,1.2266264
184937470,-158.3912,24.18,103241.99,1.2266856
184959475,-158.22737,24.17,103240.0,1.226662
184973094,-157.98428,24.17,103237.0,1.2266264
184983473,-158.3912,24.17,103241.99,1.2266856
185007502,-157.7359,24.18,103234.0,1.2265908
185020653,-157.82047,24.18,103235.0,1.2266026
185031499,-157.3237,24.18,103228.99,1.2265311
185053995,-157.40826,24.17,103229.99,1.2265431
185064477,-157.3237,24.17,103228.99,1.2265311
185076205,-157.48753,24.17,103230.99,1.226555
185096471,-157.3237,24.18,103228.99,1.2265311
185108527,-158.1481,24.18,103239.0,1.2266501
185119521,-158.1481,24.18,103239.0,1.2266501
185143413,-158.22737,24.18,103240.0,1.226662
185153524,-157.82047,24.18,103235.0,1.2266026
185165773,-158.71886,24.18,103246.0,1.2267333
185189326,-157.7359,24.18,103234.0,1.2265908
185199461,-157.24443,24.18,103228.0,1.2265193
185213389,-157.82047,24.18,103235.0,1.2266026
185232471,-157.82047,24.18,103235.0,1.2266026
185244965,-157.65135,24.18,103232.99,1.2265787
185255515,-158.1481,24.18,103239.0,1.2266501
185277142,-158.06355,24.18,103238.0,1.2266382
185287168,-157.7359,24.18,103234.0,1.2265908
185297477,-157.65135,24.18,103232.99,1.2265787
185319475,-158.22737,24.189999,103240.0,1.226662
185329482,-158.31194,24.189999,103241.0,1.2266738
185340534,-157.7359,24.189999,103234.0,1.2265908
185363946,-158.22737,24.189999,103240.0,1.226662
185375335,-158.06355,24.189999,103238.0,1.2266382
185384466,-157.7359,24.189999,103234.0,1.2265908
185407174,-157.65135,24.189999,103232.99,1.2265787
185416484,-157.24443,24.189999,103228.0,1.2265193
185428493,-157.7359,24.189999,103234.0,1.2265908
185941923,-157.7359,24.22,103234.0,1.2265908
185951559,-158.22737,24.22,103240.0,1.226662
185961466,-158.55502,24.22,103243.99,1.2267094
186485467,-158.22737,24.23,103240.0,1.226662
186496437,-157.48753,24.23,103230.99,1.226555
186518584,-157.40826,24.23,103229.99,1.2265431
186529554,-157.24443,24.23,103228.0,1.2265193
186541000,-157.16516,24.23,103227.0,1.2265075
186561449,-157.65135,24.23,103232.99,1.2265787
186573013,-157.24443,24.23,103228.0,1.2265193
186583437,-157.82047,24.23,103235.0,1.2266026
186607011,-157.40826,24.23,103229.99,1.2265431
186617437,-157.57208,24.23,103231.99,1.2265668
186628280,-157.65135,24.23,103232.99,1.2265787
186649481,-157.7359,24.24,103234.0,1.2265908
186659780,-158.06355,24.24,103238.0,1.2266382
186671038,-157.16516,24.24,103227.0,1.2265075
186693452,-157.08061,24.24,103226.0,1.2264956
186704749,-157.98428,24.24,103237.0,1.2266264
186715438,-157.7359,24.24,103234.0,1.2265908
186737451,-157.89973,24.24,103236.0,1.2266145
186748750,-157.7359,24.24,103234.0,1.2265908
186758592,-157.89973,24.24,103236.0,1.2266145
186782600,-158.06355,24.24,103238.0,1.2266382
186795484,-157.65135,24.24,103232.99,1.2265787
186806556,-158.06355,24.24,103238.0,1.2266382
186830920,-158.55502,24.24,103243.99,1.2267094
186842908,-157.7359,24.24,103234.0,1.2265908
186853079,-157.48753,24.24,103230.99,1.226555
186873448,-157.82047,24.24,103235.0,1.2266026
186884137,-157.82047,24.24,103235.0,1.2266026
186895009,-158.06355,24.24,103238.0,1.2266382
186916335,-158.06355,24.25,103238.0,1.2266382
186927034,-157.40826,24.25,103229.99,1.2265431
186939771,-157.98428,24.25,103237.0,1.2266264
186963509,-157.24443,24.25,103228.0,1.2265193
186975072,-157.98428,24.25,103237.0,1.2266264
186988183,-157.24443,24.25,103228.0,1.2265193
187012154,-157.82047,24.25,103235.0,1.2266026
187022960,-157.65135,24.25,103232.99,1.2265787
187032490,-158.06355,24.25,103238.0,1.2266382
187054731,-158.63959,24.25,103244.99,1.2267213
187065449,-158.3912,24.25,103241.99,1.2266856
187076204,-157.82047,24.25,103235.0,1.2266026
187097462,-158.06355,24.25,103238.0,1.2266382
187107503,-157.57208,24.25,103231.99,1.2265668
187118987,-158.31194,24.25,103241.0,1.2266738
187140705,-158.22737,24.26,103240.0,1.226662
187151056,-158.3912,24.26,103241.99,1.2266856
187161452,-158.06355,24.26,103238.0,1.2266382
187182640,-158.06355,24.26,103238.0,1.2266382
187193490,-158.63959,24.26,103244.99,1.2267213
187205039,-158.06355,24.26,103238.0,1.2266382
187225450,-158.63959,24.26,103244.99,1.2267213
187236615,-157.98428,24.26,103237.0,1.2266264
187246952,-157.24443,24.26,103228.0,1.2265193
187269371,-158.47575,24.26,103242.99,1.2266976
187279022,-158.31194,24.26,103241.0,1.2266738
187290905,-158.3912,24.26,103241.99,1.2266856
187312764,-157.98428,24.26,103237.0,1.2266264
187323449,-157.57208,24.26,103231.99,1.2265668
187334853,-156.9168,24.26,103224.0,1.2264719
187356756,-157.98428,24.269999,103237.0,1.2266264
187366521,-157.98428,24.269999,103237.0,1.2266264
187378000,-158.55502,24.269999,103243.99,1.2267094
187400325,-158.55502,24.269999,103243.99,1.2267094
187410841,-157.82047,24.269999,103235.0,1.2266026
187420943,-157.98428,24.269999,103237.0,1.2266264
187442594,-157.82047,24.269999,103235.0,1.2266026
187453881,-157.82047,24.269999,103235.0,1.2266026
187464441,-157.24443,24.269999,103228.0,1.2265193
187485091,-157.89973,24.269999,103236.0,1.2266145
187495930,-158.06355,24.269999,103238.0,1.2266382
187506583,-157.89973,24.269999,103236.0,1.2266145
187528446,-157.82047,24.279999,103235.0,1.2266026
187538624,-157.89973,24.279999,103236.0,1.2266145
187549236,-158.1481,24.279999,103239.0,1.2266501
187570578,-158.3912,24.279999,103241.99,1.2266856
187581896,-158.22737,24.279999,103240.0,1.226662
187592465,-158.1481,24.279999,103239.0,1.2266501
187616141,-158.31194,24.279999,103241.0,1.2266738
187626629,-158.3912,24.279999,103241.99,1.2266856
187636947,-157.65135,24.279999,103232.99,1.2265787
187658557,-157.98428,24.279999,103237.0,1.2266264
187669364,-157.98428,24.279999,103237.0,1.2266264
187680460,-157.98428,24.279999,103237.0,1.2266264
187701437,-157.82047,24.279999,103235.0,1.2266026
187711902,-157.7359,24.279999,103234.0,1.2265908
187721437,-157.65135,24.279999,103232.99,1.2265787
187742687,-158.47575,24.279999,103242.99,1.2266976
187753441,-157.89973,24.279999,103236.0,1.2266145
187764738,-158.22737,24.279999,103240.0,1.226662
187785437,-157.89973,24.279999,103236.0,1.2266145
187797053,-157.65135,24.279999,103232.99,1.2265787
187808374,-157.57208,24.279999,103231.99,1.2265668
187829128,-158.31194,24.289999,103241.0,1.2266738
187838764,-158.31194,24.289999,103241.0,1.2266738
187849437,-157.40826,24.289999,103229.99,1.2265431
187871887,-158.1481,24.289999,103239.0,1.2266501
187881437,-158.3912,24.289999,103241.99,1.2266856
187892622,-157.98428,24.289999,103237.0,1.2266264
187914664,-158.31194,24.289999,103241.0,1.2266738
187924949,-158.47575,24.289999,103242.99,1.2266976
187936600,-157.7359,24.289999,103234.0,1.2265908
187958656,-158.22737,24.3,103240.0,1.226662
187969437,-157.98428,24.3,103237.0,1.2266264
187981880,-157.89973,24.3,103236.0,1.2266145
188005862,-158.22737,24.3,103240.0,1.226662
188017132,-158.22737,24.3,103240.0,1.226662
188026531,-158.55502,24.3,103243.99,1.2267094
188049001,-158.06355,24.289999,103238.0,1.2266382
188058604,-158.06355,24.289999,103238.0,1.2266382
188070069,-157.98428,24.289999,103237.0,1.2266264
188093927,-158.06355,24.3,103238.0,1.2266382
188104438,-157.7359,24.3,103234.0,1.2265908
188117410,-158.22737,24.3,103240.0,1.226662
188141983,-158.3912,24.3,103241.99,1.2266856
188151876,-157.98428,24.3,103237.0,1.2266264
188162887,-158.47575,24.3,103242.99,1.2266976
188184437,-158.31194,24.289999,103241.0,1.2266738
188194589,-158.06355,24.289999,103238.0,1.2266382
188205893,-157.3237,24.289999,103228.99,1.2265311
188228671,-157.82047,24.3,103235.0,1.2266026
188240701,-158.31194,24.3,103241.0,1.2266738
188253149,-157.89973,24.3,103236.0,1.2266145
188274562,-157.82047,24.3,103235.0,1.2266026
188285898,-157.65135,24.3,103232.99,1.2265787
188296504,-157.65135,24.3,103232.99,1.2265787
188317768,-157.82047,24.3,103235.0,1.2266026
188328451,-158.06355,24.3,103238.0,1.2266382
188339449,-157.98428,24.3,103237.0,1.2266264
188362957,-158.3912,24.3,103241.99,1.2266856
188373598,-158.06355,24.3,103238.0,1.2266382
188384460,-157.82047,24.3,103235.0,1.2266026
188404446,-157.82047,24.3,103235.0,1.2266026
188414666,-157.65135,24.3,103232.99,1.2265787
188427092,-157.89973,24.3,103236.0,1.2266145
188448788,-157.89973,24.31,103236.0,1.2266145
188459437,-158.1481,24.31,103239.0,1.2266501
188470819,-157.82047,24.31,103235.0,1.2266026
188493920,-158.22737,24.31,103240.0,1.226662
188504442,-157.89973,24.31,103236.0,1.2266145
188516281,-158.1481,24.31,103239.0,1.2266501
188539199,-157.98428,24.31,103237.0,1.2266264
188549790,-158.22737,24.31,103240.0,1.226662
188559896,-158.22737,24.31,103240.0,1.226662
188581521,-158.06355,24.31,103238.0,1.2266382
188592490,-157.82047,24.31,103235.0,1.2266026
188603020,-158.1481,24.31,103239.0,1.2266501
188624449,-157.89973,24.31,103236.0,1.2266145
188635408,-158.06355,24.31,103238.0,1.2266382
188645513,-157.82047,24.31,103235.0,1.2266026
188667038,-157.89973,24.32,103236.0,1.2266145
188677513,-157.98428,24.32,103237.0,1.2266264
188688437,-157.65135,24.32,103232.99,1.2265787
188710534,-157.82047,24.32,103235.0,1.2266026
188722285,-158.22737,24.32,103240.0,1.226662
188732489,-158.06355,24.32,103238.0,1.2266382
188754520,-158.31194,24.33,103241.0,1.2266738
188765898,-157.65135,24.33,103232.99,1.2265787
188776437,-158.3912,24.33,103241.99,1.2266856
188798533,-158.3912,24.32,103241.99,1.2266856
188811063,-157.89973,24.32,103236.0,1.2266145
188821489,-158.1481,24.32,103239.0,1.2266501
188843077,-157.82047,24.32,103235.0,1.2266026
188852437,-158.06355,24.32,103238.0,1.2266382
188862507,-157.89973,24.32,103236.0,1.2266145
188885527,-158.55502,24.33,103243.99,1.2267094
188895495,-158.55502,24.33,103243.99,1.2267094
188907078,-157.7359,24.33,103234.0,1.2265908
188928437,-158.06355,24.33,103238.0,1.2266382
188939022,-157.65135,24.33,103232.99,1.2265787
188948459,-158.22737,24.33,103240.0,1.226662
188971058,-158.31194,24.33,103241.0,1.2266738
188980780,-157.98428,24.33,103237.0,1.2266264
188991461,-158.3912,24.33,103241.99,1.2266856
189013494,-158.3912,24.33,103241.99,1.2266856
189023448,-158.22737,24.33,103240.0,1.226662
189035459,-158.31194,24.33,103241.0,1.2266738
189056448,-158.31194,24.33,103241.0,1.2266738
189067687,-158.06355,24.33,103238.0,1.2266382
189078548,-157.82047,24.33,103235.0,1.2266026
189100558,-158.31194,24.34,103241.0,1.2266738
189111448,-158.22737,24.34,103240.0,1.226662
189123022,-158.1481,24.34,103239.0,1.2266501
189144470,-158.3912,24.34,103241.99,1.2266856
189155010,-157.82047,24.34,103235.0,1.2266026
189165567,-157.57208,24.34,103231.99,1.2265668
189187507,-158.22737,24.34,103240.0,1.226662
189198002,-157.7359,24.34,103234.0,1.2265908
189208438,-157.82047,24.34,103235.0,1.2266026
189231473,-158.06355,24.34,103238.0,1.2266382
189241489,-158.06355,24.34,103238.0,1.2266382
189252493,-158.31194,24.34,103241.0,1.2266738
189273452,-158.06355,24.34,103238.0,1.2266382
189285114,-157.82047,24.34,103235.0,1.2266026
189295109,-158.1481,24.34,103239.0,1.2266501
189316973,-158.31194,24.34,103241.0,1.2266738
189327448,-158.47575,24.34,103242.99,1.2266976
189337804,-157.65135,24.34,103232.99,1.2265787
189359136,-158.31194,24.35,103241.0,1.2266738
189368437,-158.06355,24.35,103238.0,1.2266382
189380617,-158.06355,24.35,103238.0,1.2266382
189404281,-158.47575,24.34,103242.99,1.2266976
189413740,-157.65135,24.34,103232.99,1.2265787
189424455,-157.98428,24.34,103237.0,1.2266264
189447451,-158.1481,24.35,103239.0,1.2266501
189457829,-158.55502,24.35,103243.99,1.2267094
189468480,-158.1481,24.35,103239.0,1.2266501
189491739,-157.98428,24.35,103237.0,1.2266264
189503104,-158.22737,24.35,103240.0,1.226662
189513437,-158.22737,24.35,103240.0,1.226662
189534021,-158.63959,24.35,103244.99,1.2267213
189544449,-157.82047,24.35,103235.0,1.2266026
189556619,-157.89973,24.35,103236.0,1.2266145
189581557,-157.7359,24.35,103234.0,1.2265908
189592450,-158.06355,24.35,103238.0,1.2266382
189605088,-157.98428,24.35,103237.0,1.2266264
189629054,-158.22737,24.35,103240.0,1.226662
189639452,-158.3912,24.35,103241.99,1.2266856
189652563,-158.1481,24.35,103239.0,1.2266501
189673506,-157.82047,24.34,103235.0,1.2266026
189684512,-157.98428,24.34,103237.0,1.2266264
189695462,-157.98428,24.34,103237.0,1.2266264
189719441,-157.89973,24.35,103236.0,1.2266145
189729437,-157.65135,24.35,103232.99,1.2265787
189741092,-157.98428,24.35,103237.0,1.2266264
189764581,-158.22737,24.35,103240.0,1.226662
189775935,-158.1481,24.35,103239.0,1.2266501
189785494,-158.1481,24.35,103239.0,1.2266501
189807451,-158.1481,24.359999,103239.0,1.2266501
189817492,-157.89973,24.359999,103236.0,1.2266145
189829098,-157.98428,24.359999,103237.0,1.2266264
189849537,-158.06355,24.359999,103238.0,1.2266382
189860715,-157.98428,24.359999,103237.0,1.2266264
189871473,-158.22737,24.359999,103240.0,1.226662
189895449,-158.3912,24.359999,103241.99,1.2266856
189905446,-158.47575,24.359999,103242.99,1.2266976
189916478,-157.89973,24.359999,103236.0,1.2266145
189939878,-158.22737,24.359999,103240.0,1.226662
189951121,-157.98428,24.359999,103237.0,1.2266264
189960440,-158.22737,24.359999,103240.0,1.226662
189983094,-157.7359,24.359999,103234.0,1.2265908
189992557,-157.7359,24.359999,103234.0,1.2265908
190004142,-157.65135,24.359999,103232.99,1.2265787
190025459,-158.1481,24.369999,103239.0,1.2266501
190036409,-157.98428,24.369999,103237.0,1.2266264
190047463,-158.06355,24.369999,103238.0,1.2266382
190071454,-158.06355,24.369999,103238.0,1.2266382
190081499,-158.06355,24.369999,103238.0,1.2266382
190094248,-158.3912,24.369999,103241.99,1.2266856
190114524,-157.98428,24.369999,103237.0,1.2266264
190127368,-157.7359,24.369999,103234.0,1.2265908
190137504,-157.98428,24.369999,103237.0,1.2266264
190158841,-158.3912,24.369999,103241.99,1.2266856
190169837,-157.89973,24.369999,103236.0,1.2266145
190179522,-158.22737,24.369999,103240.0,1.226662
190199552,-158.1481,24.38,103239.0,1.2266501
190210484,-158.06355,24.38,103238.0,1.2266382
190222982,-158.31194,24.38,103241.0,1.2266738
190245929,-158.1481,24.369999,103239.0,1.2266501
190255593,-157.82047,24.369999,103235.0,1.2266026
190266535,-157.89973,24.369999,103236.0,1.2266145
190287913,-157.98428,24.38,103237.0,1.2266264
190298549,-158.1481,24.38,103239.0,1.2266501
190310236,-157.82047,24.38,103235.0,1.2266026
190329438,-158.1481,24.38,103239.0,1.2266501
190339437,-157.82047,24.38,103235.0,1.2266026
190350962,-157.65135,24.38,103232.99,1.2265787
190374509,-157.7359,24.38,103234.0,1.2265908
190385449,-157.89973,24.38,103236.0,1.2266145
190395437,-157.89973,24.38,103236.0,1.2266145
190417448,-157.82047,24.38,103235.0,1.2266026
190427505,-158.3912,24.38,103241.99,1.2266856
190438042,-157.65135,24.38,103232.99,1.2265787
190459448,-157.98428,24.39,103237.0,1.2266264
190470796,-158.47575,24.39,103242.99,1.2266976
190481448,-158.1481,24.39,103239.0,1.2266501
190504692,-158.06355,24.39,103238.0,1.2266382
190514577,-158.22737,24.39,103240.0,1.226662
190525898,-158.1481,24.39,103239.0,1.2266501
190547437,-158.47575,24.39,103242.99,1.2266976
190558145,-157.98428,24.39,103237.0,1.2266264
190568747,-157.98428,24.39,103237.0,1.2266264
190590247,-157.57208,24.39,103231.99,1.2265668
190599668,-157.89973,24.39,103236.0,1.2266145
190609501,-157.82047,24.39,103235.0,1.2266026
190632792,-157.89973,24.39,103236.0,1.2266145
190642559,-157.98428,24.39,103237.0,1.2266264
190654015,-158.06355,24.39,103238.0,1.2266382
190675459,-158.06355,24.39,103238.0,1.2266382
190686646,-158.06355,24.39,103238.0,1.2266382
190697464,-157.89973,24.39,103236.0,1.2266145
190718652,-158.22737,24.4,103240.0,1.226662
190729437,-157.89973,24.4,103236.0,1.2266145
190739488,-157.82047,24.4,103235.0,1.2266026
190761437,-158.06355,24.4,103238.0,1.2266382
190773809,-158.3912,24.4,103241.99,1.2266856
190784734,-157.57208,24.4,103231.99,1.2265668
190805439,-158.06355,24.4,103238.0,1.2266382
190816669,-157.65135,24.4,103232.99,1.2265787
190827854,-158.22737,24.4,103240.0,1.226662
190848715,-157.98428,24.4,103237.0,1.2266264
190858541,-158.22737,24.4,103240.0,1.226662
190869441,-157.89973,24.4,103236.0,1.2266145
190891486,-158.55502,24.4,103243.99,1.2267094
190901858,-157.7359,24.4,103234.0,1.2265908
190912930,-157.7359,24.4,103234.0,1.2265908
190933777,-158.47575,24.41,103242.99,1.2266976
190944696,-157.65135,24.41,103232.99,1.2265787
190955557,-158.22737,24.41,103240.0,1.226662
190977470,-158.06355,24.4,103238.0,1.2266382
190990714,-157.89973,24.4,103236.0,1.2266145
191001521,-158.06355,24.4,103238.0,1.2266382
191022629,-158.31194,24.4,103241.0,1.2266738
191033438,-158.06355,24.4,103238.0,1.2266382
191043538,-157.82047,24.4,103235.0,1.2266026
191065448,-158.06355,24.41,103238.0,1.2266382
191076449,-158.1481,24.41,103239.0,1.2266501
191088113,-158.1481,24.41,103239.0,1.2266501
191109437,-158.1481,24.41,103239.0,1.2266501
191119859,-157.82047,24.41,103235.0,1.2266026
191129437,-158.1481,24.41,103239.0,1.2266501
191152125,-158.31194,24.41,103241.0,1.2266738
191162606,-158.06355,24.41,103238.0,1.2266382
191175428,-158.1481,24.41,103239.0,1.2266501
191200313,-158.1481,24.41,103239.0,1.2266501
191211005,-158.1481,24.41,103239.0,1.2266501
191223608,-158.1481,24.41,103239.0,1.2266501
191247917,-158.06355,24.41,103238.0,1.2266382
191258597,-158.1481,24.41,103239.0,1.2266501
191271478,-157.98428,24.41,103237.0,1.2266264
191295429,-157.7359,24.4,103234.0,1.2265908
191307069,-157.98428,24.4,103237.0,1.2266264
191318971,-157.57208,24.4,103231.99,1.2265668
191340450,-157.57208,24.41,103231.99,1.2265668
191351442,-157.98428,24.41,103237.0,1.2266264
191362574,-157.48753,24.41,103230.99,1.226555
191383539,-158.47575,24.41,103242.99,1.2266976
191394642,-157.7359,24.41,103234.0,1.2265908
191405437,-157.98428,24.41,103237.0,1.2266264
191426557,-157.98428,24.41,103237.0,1.2266264
191439655,-158.06355,24.41,103238.0,1.2266382
191449490,-157.98428,24.41,103237.0,1.2266264
191471897,-158.06355,24.41,103238.0,1.2266382
191482997,-157.98428,24.41,103237.0,1.2266264
191493437,-157.89973,24.41,103236.0,1.2266145
191513448,-157.57208,24.42,103231.99,1.2265668
191524448,-158.31194,24.42,103241.0,1.2266738
191535861,-158.06355,24.42,103238.0,1.2266382
191555440,-157.98428,24.42,103237.0,1.2266264
191567809,-157.89973,24.42,103236.0,1.2266145
191577441,-157.65135,24.42,103232.99,1.2265787
191600337,-158.47575,24.42,103242.99,1.2266976
191610568,-158.06355,24.42,103238.0,1.2266382
191623531,-158.1481,24.42,103239.0,1.2266501
191647852,-157.89973,24.42,103236.0,1.2266145
191659072,-157.57208,24.42,103231.99,1.2265668
191671451,-157.89973,24.42,103236.0,1.2266145
191695921,-158.47575,24.42,103242.99,1.2266976
191706541,-157.82047,24.42,103235.0,1.2266026
191719489,-157.7359,24.42,103234.0,1.2265908
191743507,-157.7359,24.43,103234.0,1.2265908
191754933,-157.89973,24.43,103236.0,1.2266145
191766968,-157.57208,24.43,103231.99,1.2265668
191787009,-158.63959,24.42,103244.99,1.2267213
191797449,-157.98428,24.42,103237.0,1.2266264
191808217,-157.65135,24.42,103232.99,1.2265787
191828570,-158.3912,24.43,103241.99,1.2266856
191839833,-158.22737,24.43,103240.0,1.226662
191850670,-157.98428,24.43,103237.0,1.2266264
191871955,-157.57208,24.43,103231.99,1.2265668
191882975,-158.1481,24.43,103239.0,1.2266501
191892740,-158.06355,24.43,103238.0,1.2266382
191914995,-158.1481,24.439999,103239.0,1.2266501
191924606,-157.89973,24.439999,103236.0,1.2266145
191936303,-157.65135,24.439999,103232.99,1.2265787
191957034,-158.1481,24.439999,103239.0,1.2266501
191968976,-157.82047,24.439999,103235.0,1.2266026
191981710,-157.82047,24.439999,103235.0,1.2266026
192002899,-158.1481,24.439999,103239.0,1.2266501
192014044,-157.98428,24.439999,103237.0,1.2266264
192023939,-158.22737,24.439999,103240.0,1.226662
192045853,-157.98428,24.439999,103237.0,1.2266264
192055837,-158.31194,24.439999,103241.0,1.2266738
192066577,-157.98428,24.439999,103237.0,1.2266264
192088484,-158.06355,24.449999,103238.0,1.2266382
192101039,-157.89973,24.449999,103236.0,1.2266145
192111096,-158.1481,24.449999,103239.0,1.2266501
192133008,-157.89973,24.449999,103236.0,1.2266145
192143911,-157.82047,24.449999,103235.0,1.2266026
192154569,-158.1481,24.449999,103239.0,1.2266501
192176456,-158.55502,24.449999,103243.99,1.2267094
192188582,-157.98428,24.449999,103237.0,1.2266264
192200440,-158.31194,24.449999,103241.0,1.2266738
192225072,-158.3912,24.449999,103241.99,1.2266856
192235034,-158.22737,24.449999,103240.0,1.226662
192244897,-157.98428,24.449999,103237.0,1.2266264
192269148,-157.82047,24.449999,103235.0,1.2266026
192279932,-157.82047,24.449999,103235.0,1.2266026
192290902,-157.98428,24.449999,103237.0,1.2266264
192312492,-157.82047,24.449999,103235.0,1.2266026
192322530,-158.22737,24.449999,103240.0,1.226662
192334081,-158.31194,24.449999,103241.0,1.2266738
192354642,-158.55502,24.449999,103243.99,1.2267094
192365030,-157.82047,24.449999,103235.0,1.2266026
192374527,-158.06355,24.449999,103238.0,1.2266382
192394980,-158.31194,24.46,103241.0,1.2266738
192405437,-158.1481,24.46,103239.0,1.2266501
192416951,-157.89973,24.46,103236.0,1.2266145
192436898,-158.47575,24.46,103242.99,1.2266976
192448688,-158.06355,24.46,103238.0,1.2266382
192461023,-157.7359,24.46,103234.0,1.2265908
192480438,-157.89973,24.46,103236.0,1.2266145
192490988,-158.06355,24.46,103238.0,1.2266382
192501440,-158.22737,24.46,103240.0,1.226662
192522960,-157.89973,24.46,103236.0,1.2266145
192533458,-157.89973,24.46,103236.0,1.2266145
192545110,-158.31194,24.46,103241.0,1.2266738
192568262,-158.71886,24.47,103246.0,1.2267333
192578972,-158.1481,24.47,103239.0,1.2266501
192590703,-158.06355,24.47,103238.0,1.2266382
192613949,-158.22737,24.47,103240.0,1.226662
192624490,-158.06355,24.47,103238.0,1.2266382
192634594,-157.98428,24.47,103237.0,1.2266264
192656437,-157.98428,24.47,103237.0,1.2266264
192666507,-157.7359,24.47,103234.0,1.2265908
192676942,-157.57208,24.47,103231.99,1.2265668
192696470,-157.82047,24.47,103235.0,1.2266026
192706591,-157.57208,24.47,103231.99,1.2265668
192718116,-158.1481,24.47,103239.0,1.2266501
192738535,-157.65135,24.47,103232.99,1.2265787
192750244,-157.82047,24.47,103235.0,1.2266026
192760530,-158.1481,24.47,103239.0,1.2266501
192782207,-157.65135,24.47,103232.99,1.2265787
192794831,-158.06355,24.47,103238.0,1.2266382
192805775,-157.89973,24.47,103236.0,1.2266145
192826755,-158.71886,24.47,103246.0,1.2267333
192837756,-157.7359,24.47,103234.0,1.2265908
192847466,-157.82047,24.47,103235.0,1.2266026
192869833,-158.22737,24.48,103240.0,1.226662
192880510,-158.55502,24.48,103243.99,1.2267094
192890601,-158.1481,24.48,103239.0,1.2266501
192911492,-158.06355,24.48,103238.0,1.2266382
192922617,-158.3912,24.48,103241.99,1.2266856
192933285,-158.06355,24.48,103238.0,1.2266382
192954590,-157.98428,24.48,103237.0,1.2266264
192964694,-158.06355,24.48,103238.0,1.2266382
192975471,-157.40826,24.48,103229.99,1.2265431
192997919,-158.1481,24.48,103239.0,1.2266501
193008493,-157.98428,24.48,103237.0,1.2266264
193019459,-157.89973,24.48,103236.0,1.2266145
193040545,-157.82047,24.49,103235.0,1.2266026
193051029,-158.22737,24.49,103240.0,1.226662
193061593,-157.82047,24.49,103235.0,1.2266026
193082613,-157.89973,24.49,103236.0,1.2266145
193093469,-158.06355,24.49,103238.0,1.2266382
193104448,-157.7359,24.49,103234.0,1.2265908
193125535,-157.98428,24.49,103237.0,1.2266264
193136437,-157.89973,24.49,103236.0,1.2266145
193147437,-157.3237,24.49,103228.99,1.2265311
193170553,-158.22737,24.49,103240.0,1.226662
193181559,-157.48753,24.49,103230.99,1.226555
193193112,-157.65135,24.49,103232.99,1.2265787
193213562,-158.31194,24.49,103241.0,1.2266738
193223459,-157.98428,24.49,103237.0,1.2266264
193234538,-157.16516,24.49,103227.0,1.2265075
193254517,-158.55502,24.49,103243.99,1.2267094
193264491,-158.06355,24.49,103238.0,1.2266382
193275451,-157.48753,24.49,103230.99,1.226555
193296497,-157.48753,24.5,103230.99,1.226555
193307856,-157.48753,24.5,103230.99,1.226555
193317982,-157.7359,24.5,103234.0,1.2265908
193338523,-157.82047,24.5,103235.0,1.2266026
193348574,-158.1481,24.5,103239.0,1.2266501
193358521,-157.98428,24.5,103237.0,1.2266264
193381547,-157.89973,24.5,103236.0,1.2266145
193392448,-157.7359,24.5,103234.0,1.2265908
193402675,-158.06355,24.5,103238.0,1.2266382
193424467,-157.65135,24.5,103232.99,1.2265787
193435438,-157.7359,24.5,103234.0,1.2265908
193445571,-157.98428,24.5,103237.0,1.2266264
193466147,-158.1481,24.51,103239.0,1.2266501
193476257,-157.89973,24.51,103236.0,1.2266145
193485704,-157.82047,24.51,103235.0,1.2266026
193508256,-157.89973,24.51,103236.0,1.2266145
193517480,-158.1481,24.51,103239.0,1.2266501
193528437,-157.7359,24.51,103234.0,1.2265908
193550513,-158.47575,24.51,103242.99,1.2266976
193562240,-158.31194,24.51,103241.0,1.2266738
193572576,-158.3912,24.51,103241.99,1.2266856
193594512,-158.06355,24.51,103238.0,1.2266382
193605511,-158.31194,24.51,103241.0,1.2266738
193616437,-157.89973,24.51,103236.0,1.2266145
193637550,-158.1481,24.51,103239.0,1.2266501
193648440,-157.98428,24.51,103237.0,1.2266264
193659792,-158.31194,24.51,103241.0,1.2266738
193679459,-158.3912,24.51,103241.99,1.2266856
193691661,-157.89973,24.51,103236.0,1.2266145
193703065,-158.3912,24.51,103241.99,1.2266856
193723887,-158.31194,24.51,103241.0,1.2266738
193735125,-159.0465,24.51,103250.0,1.2267808
193745492,-157.65135,24.51,103232.99,1.2265787
193767459,-158.8034,24.519999,103247.0,1.2267451
193780255,-158.55502,24.519999,103243.99,1.2267094
193791349,-158.06355,24.519999,103238.0,1.2266382
193812116,-158.3912,24.51,103241.99,1.2266856
193823118,-158.31194,24.51,103241.0,1.2266738
193832437,-157.57208,24.51,103231.99,1.2265668
193853877,-158.63959,24.519999,103244.99,1.2267213
193863482,-158.96722,24.519999,103249.0,1.226769
193873519,-158.06355,24.519999,103238.0,1.2266382
193895449,-157.65135,24.519999,103232.99,1.2265787
193909108,-157.57208,24.519999,103231.99,1.2265668
193920146,-158.1481,24.519999,103239.0,1.2266501
193940454,-158.3912,24.519999,103241.99,1.2266856
193951852,-158.63959,24.519999,103244.99,1.2267213
193961449,-157.57208,24.519999,103231.99,1.2265668
193983949,-158.31194,24.529999,103241.0,1.2266738
193997398,-158.3912,24.529999,103241.99,1.2266856
194007461,-158.1481,24.529999,103239.0,1.2266501
194031387,-157.89973,24.519999,103236.0,1.2266145
194041520,-159.0465,24.519999,103250.0,1.2267808
194053062,-158.8034,24.519999,103247.0,1.2267451
194073512,-158.47575,24.519999,103242.99,1.2266976
194085006,-157.98428,24.519999,103237.0,1.2266264
194095461,-157.48753,24.519999,103230.99,1.226555
194119097,-157.57208,24.519999,103231.99,1.2265668
194129465,-157.7359,24.519999,103234.0,1.2265908
194140443,-157.65135,24.519999,103232.99,1.2265787
194160437,-158.47575,24.529999,103242.99,1.2266976
194172420,-157.7359,24.529999,103234.0,1.2265908
194183419,-158.06355,24.529999,103238.0,1.2266382
194205828,-158.1481,24.529999,103239.0,1.2266501
194216458,-157.57208,24.529999,103231.99,1.2265668
194228258,-157.40826,24.529999,103229.99,1.2265431
194249863,-157.89973,24.529999,103236.0,1.2266145
194260458,-157.3237,24.529999,103228.99,1.2265311
194271836,-158.06355,24.529999,103238.0,1.2266382
194293941,-158.22737,24.529999,103240.0,1.226662
194303789,-157.89973,24.529999,103236.0,1.2266145
194318226,-158.22737,24.529999,103240.0,1.226662
194341088,-157.65135,24.529999,103232.99,1.2265787
194351117,-157.24443,24.529999,103228.0,1.2265193
194361449,-157.65135,24.529999,103232.99,1.2265787
194383131,-158.8034,24.529999,103247.0,1.2267451
194393437,-157.65135,24.529999,103232.99,1.2265787
194405047,-157.48753,24.529999,103230.99,1.226555
194425484,-157.48753,24.539999,103230.99,1.226555
194437076,-158.55502,24.539999,103243.99,1.2267094
194447369,-157.7359,24.539999,103234.0,1.2265908
194468706,-157.89973,24.539999,103236.0,1.2266145
194479163,-157.57208,24.539999,103231.99,1.2265668
194489446,-157.57208,24.539999,103231.99,1.2265668
194511451,-157.7359,24.539999,103234.0,1.2265908
194521492,-158.63959,24.539999,103244.99,1.2267213
194533344,-158.31194,24.539999,103241.0,1.2266738
194554507,-157.40826,24.55,103229.99,1.2265431
194565909,-157.82047,24.55,103235.0,1.2266026
194575832,-158.1481,24.55,103239.0,1.2266501
194598122,-157.7359,24.539999,103234.0,1.2265908
194609987,-157.89973,24.539999,103236.0,1.2266145
194619437,-157.48753,24.539999,103230.99,1.226555
194641437,-157.57208,24.539999,103231.99,1.2265668
194653196,-158.06355,24.539999,103238.0,1.2266382
194663437,-158.06355,24.539999,103238.0,1.2266382
194684705,-157.48753,24.55,103230.99,1.226555
194695778,-157.98428,24.55,103237.0,1.2266264
194706846,-157.98428,24.55,103237.0,1.2266264
194727440,-158.63959,24.55,103244.99,1.2267213
194738517,-157.48753,24.55,103230.99,1.226555
194748977,-157.48753,24.55,103230.99,1.226555
194770827,-157.98428,24.55,103237.0,1.2266264
194781437,-157.82047,24.55,103235.0,1.2266026
194793935,-157.48753,24.55,103230.99,1.226555
194814693,-157.3237,24.55,103228.99,1.2265311
194825862,-157.48753,24.55,103230.99,1.226555
194835498,-157.3237,24.55,103228.99,1.2265311
194858187,-158.22737,24.55,103240.0,1.226662
194868782,-157.82047,24.55,103235.0,1.2266026
194879437,-158.1481,24.55,103239.0,1.2266501
194900738,-157.7359,24.56,103234.0,1.2265908
194911766,-157.7359,24.56,103234.0,1.2265908
194923377,-156.99606,24.56,103225.0,1.2264837
194943449,-157.3237,24.55,103228.99,1.2265311
194955033,-157.24443,24.55,103228.0,1.2265193
194965485,-158.47575,24.55,103242.99,1.2266976
194989914,-157.57208,24.55,103231.99,1.2265668
195001347,-157.40826,24.55,103229.99,1.2265431
195011057,-157.57208,24.55,103231.99,1.2265668
195031438,-157.7359,24.56,103234.0,1.2265908
195042680,-157.24443,24.56,103228.0,1.2265193
195053269,-157.89973,24.56,103236.0,1.2266145
195074295,-157.57208,24.56,103231.99,1.2265668
195085335,-157.82047,24.56,103235.0,1.2266026
195094513,-158.55502,24.56,103243.99,1.2267094
195117286,-157.89973,24.57,103236.0,1.2266145
195127489,-157.57208,24.57,103231.99,1.2265668
195138658,-157.89973,24.57,103236.0,1.2266145
195158545,-158.1481,24.57,103239.0,1.2266501
195171480,-157.16516,24.57,103227.0,1.2265075
195182517,-158.1481,24.57,103239.0,1.2266501
195203905,-156.58914,24.56,103219.99,1.2264242
195213567,-157.7359,24.56,103234.0,1.2265908
195223438,-158.55502,24.56,103243.99,1.2267094
195245253,-157.7359,24.57,103234.0,1.2265908
195255448,-157.98428,24.57,103237.0,1.2266264
195267032,-157.7359,24.57,103234.0,1.2265908
