timestamp,type,_padding0[0],_padding0[1],_padding0[2],_padding0[3],_padding0[4],_padding0[5],_padding0[6],waypoints[0].timestamp,waypoints[0].position[0],waypoints[0].position[1],waypoints[0].position[2],waypoints[0].velocity[0],waypoints[0].velocity[1],waypoints[0].velocity[2],waypoints[0].acceleration[0],waypoints[0].acceleration[1],waypoints[0].acceleration[2],waypoints[0].yaw,waypoints[0].yaw_speed,waypoints[0].point_valid,waypoints[0]._padding0[0],waypoints[0]._padding0[1],waypoints[0]._padding0[2],waypoints[1].timestamp,waypoints[1].position[0],waypoints[1].position[1],waypoints[1].position[2],waypoints[1].velocity[0],waypoints[1].velocity[1],waypoints[1].velocity[2],waypoints[1].acceleration[0],waypoints[1].acceleration[1],waypoints[1].acceleration[2],waypoints[1].yaw,waypoints[1].yaw_speed,waypoints[1].point_valid,waypoints[1]._padding0[0],waypoints[1]._padding0[1],waypoints[1]._padding0[2],waypoints[2].timestamp,waypoints[2].position[0],waypoints[2].position[1],waypoints[2].position[2],waypoints[2].velocity[0],waypoints[2].velocity[1],waypoints[2].velocity[2],waypoints[2].acceleration[0],waypoints[2].acceleration[1],waypoints[2].acceleration[2],waypoints[2].yaw,waypoints[2].yaw_speed,waypoints[2].point_valid,waypoints[2]._padding0[0],waypoints[2]._padding0[1],waypoints[2]._padding0[2],waypoints[3].timestamp,waypoints[3].position[0],waypoints[3].position[1],waypoints[3].position[2],waypoints[3].velocity[0],waypoints[3].velocity[1],waypoints[3].velocity[2],waypoints[3].acceleration[0],waypoints[3].acceleration[1],waypoints[3].acceleration[2],waypoints[3].yaw,waypoints[3].yaw_speed,waypoints[3].point_valid,waypoints[3]._padding0[0],waypoints[3]._padding0[1],waypoints[3]._padding0[2],waypoints[4].timestamp,waypoints[4].position[0],waypoints[4].position[1],waypoints[4].position[2],waypoints[4].velocity[0],waypoints[4].velocity[1],waypoints[4].velocity[2],waypoints[4].acceleration[0],waypoints[4].acceleration[1],waypoints[4].acceleration[2],waypoints[4].yaw,waypoints[4].yaw_speed,waypoints[4].point_valid,waypoints[4]._padding0[0],waypoints[4]._padding0[1],waypoints[4]._padding0[2]
175523886,0,0,0,0,0,0,0,0,0,nan,nan,-0.97488964,nan,nan,-0.97488964,nan,nan,-0.97488964,2.98248,nan,1,0,0,0,0,nan,nan,nan,nan,nan,nan,nan,nan,nan,nan,nan,0,0,0,0,0,nan,nan,nan,nan,nan,nan,nan,nan,nan,nan,nan,0,0,0,0,0,nan,nan,nan,nan,nan,nan,nan,nan,nan,nan,nan,0,0,0,0,0,nan,nan,nan,nan,nan,nan,nan,nan,nan,nan,nan,0,0,0,0
175531733,0,0,0,0,0,0,0,0,0,nan,nan,-0.9750659,nan,nan,-0.9750659,nan,nan,-0.9750659,2.982479,nan,1,0,0,0,0,nan,nan,nan,nan,nan,nan,nan,nan,nan,nan,nan,0,0,0,0,0,nan,nan,nan,nan,nan,nan,nan,nan,nan,nan,nan,0,0,0,0,0,nan,nan,nan,nan,nan,nan,nan,nan,nan,nan,nan,0,0,0,0,0,nan,nan,nan,nan,nan,nan,nan,nan,nan,nan,nan,0,0,0,0
175540246,0,0,0,0,0,0,0,0,0,nan,nan,-0.9752434,nan,nan,-0.9752434,nan,nan,-0.9752434,2.982478,nan,1,0,0,0,0,nan,nan,nan,nan,nan,nan,nan,nan,nan,nan,nan,0,0,0,0,0,nan,nan,nan,nan,nan,nan,nan,nan,nan,nan,nan,0,0,0,0,0,nan,nan,nan,nan,nan,nan,nan,nan,nan,nan,nan,0,0,0,0,0,nan,nan,nan,nan,nan,nan,nan,nan,nan,nan,nan,0,0,0,0
175548307,0,0,0,0,0,0,0,0,0,nan,nan,-0.9756302,nan,nan,-0.9756302,nan,nan,-0.9756302,2.9824798,nan,1,0,0,0,0,nan,nan,nan,nan,nan,nan,nan,nan,nan,nan,nan,0,0,0,0,0,nan,nan,nan,nan,nan,nan,nan,nan,nan,nan,nan,0,0,0,0,0,nan,nan,nan,nan,nan,nan,nan,nan,nan,nan,nan,0,0,0,0,0,nan,nan,nan,nan,nan,nan,nan,nan,nan,nan,nan,0,0,0,0
175555596,0,0,0,0,0,0,0,0,0,nan,nan,-0.97600955,nan,nan,-0.97600955,nan,nan,-0.97600955,2.982493,nan,1,0,0,0,0,nan,nan,nan,nan,nan,nan,nan,nan,nan,nan,nan,0,0,0,0,0,nan,nan,nan,nan,nan,nan,nan,nan,nan,nan,nan,0,0,0,0,0,nan,nan,nan,nan,nan,nan,nan,nan,nan,nan,nan,0,0,0,0,0,nan,nan,nan,nan,nan,nan,nan,nan,nan,nan,nan,0,0,0,0
175564205,0,0,0,0,0,0,0,0,0,nan,nan,-0.9763835,nan,nan,-0.9763835,nan,nan,-0.9763835,2.9825072,nan,1,0,0,0,0,nan,nan,nan,nan,nan,nan,nan,nan,nan,nan,nan,0,0,0,0,0,nan,nan,nan,nan,nan,nan,nan,nan,nan,nan,nan,0,0,0,0,0,nan,nan,nan,nan,nan,nan,nan,nan,nan,nan,nan,0,0,0,0,0,nan,nan,nan,nan,nan,nan,nan,nan,nan,nan,nan,0,0,0,0
175572210,0,0,0,0,0,0,0,0,0,nan,nan,-0.97679263,nan,nan,-0.97679263,nan,nan,-0.97679263,2.9825182,nan,1,0,0,0,0,nan,nan,nan,nan,nan,nan,nan,nan,nan,nan,nan,0,0,0,0,0,nan,nan,nan,nan,nan,nan,nan,nan,nan,nan,nan,0,0,0,0,0,nan,nan,nan,nan,nan,nan,nan,nan,nan,nan,nan,0,0,0,0,0,nan,nan,nan,nan,nan,nan,nan,nan,nan,nan,nan,0,0,0,0
175579637,0,0,0,0,0,0,0,0,0,nan,nan,-0.9771962,nan,nan,-0.9771962,nan,nan,-0.9771962,2.9825227,nan,1,0,0,0,0,nan,nan,nan,nan,nan,nan,nan,nan,nan,nan,nan,0,0,0,0,0,nan,nan,nan,nan,nan,nan,nan,nan,nan,nan,nan,0,0,0,0,0,nan,nan,nan,nan,nan,nan,nan,nan,nan,nan,nan,0,0,0,0,0,nan,nan,nan,nan,nan,nan,nan,nan,nan,nan,nan,0,0,0,0
175588308,0,0,0,0,0,0,0,0,0,nan,nan,-0.97759503,nan,nan,-0.97759503,nan,nan,-0.97759503,2.982528,nan,1,0,0,0,0,nan,nan,nan,nan,nan,nan,nan,nan,nan,nan,nan,0,0,0,0,0,nan,nan,nan,nan,nan,nan,nan,nan,nan,nan,nan,0,0,0,0,0,nan,nan,nan,nan,nan,nan,nan,nan,nan,nan,nan,0,0,0,0,0,nan,nan,nan,nan,nan,nan,nan,nan,nan,nan,nan,0,0,0,0
175596196,0,0,0,0,0,0,0,0,0,nan,nan,-0.9780684,nan,nan,-0.9780684,nan,nan,-0.9780684,2.9825354,nan,1,0,0,0,0,nan,nan,nan,nan,nan,nan,nan,nan,nan,nan,nan,0,0,0,0,0,nan,nan,nan,nan,nan,nan,nan,nan,nan,nan,nan,0,0,0,0,0,nan,nan,nan,nan,nan,nan,nan,nan,nan,nan,nan,0,0,0,0,0,nan,nan,nan,nan,nan,nan,nan,nan,nan,nan,nan,0,0,0,0
175603801,0,0,0,0,0,0,0,0,0,nan,nan,-0.9785359,nan,nan,-0.9785359,nan,nan,-0.9785359,2.9825392,nan,1,0,0,0,0,nan,nan,nan,nan,nan,nan,nan,nan,nan,nan,nan,0,0,0,0,0,nan,nan,nan,nan,nan,nan,nan,nan,nan,nan,nan,0,0,0,0,0,nan,nan,nan,nan,nan,nan,nan,nan,nan,nan,nan,0,0,0,0,0,nan,nan,nan,nan,nan,nan,nan,nan,nan,nan,nan,0,0,0,0
175612950,0,0,0,0,0,0,0,0,0,nan,nan,-0.97899884,nan,nan,-0.97899884,nan,nan,-0.97899884,2.9825366,nan,1,0,0,0,0,nan,nan,nan,nan,nan,nan,nan,nan,nan,nan,nan,0,0,0,0,0,nan,nan,nan,nan,nan,nan,nan,nan,nan,nan,nan,0,0,0,0,0,nan,nan,nan,nan,nan,nan,nan,nan,nan,nan,nan,0,0,0,0,0,nan,nan,nan,nan,nan,nan,nan,nan,nan,nan,nan,0,0,0,0
175620626,0,0,0,0,0,0,0,0,0,nan,nan,-0.9795313,nan,nan,-0.9795313,nan,nan,-0.9795313,2.9825568,nan,1,0,0,0,0,nan,nan,nan,nan,nan,nan,nan,nan,nan,nan,nan,0,0,0,0,0,nan,nan,nan,nan,nan,nan,nan,nan,nan,nan,nan,0,0,0,0,0,nan,nan,nan,nan,nan,nan,nan,nan,nan,nan,nan,0,0,0,0,0,nan,nan,nan,nan,nan,nan,nan,nan,nan,nan,nan,0,0,0,0
175628474,0,0,0,0,0,0,0,0,0,nan,nan,-0.98003703,nan,nan,-0.98003703,nan,nan,-0.98003703,2.9825573,nan,1,0,0,0,0,nan,nan,nan,nan,nan,nan,nan,nan,nan,nan,nan,0,0,0,0,0,nan,nan,nan,nan,nan,nan,nan,nan,nan,nan,nan,0,0,0,0,0,nan,nan,nan,nan,nan,nan,nan,nan,nan,nan,nan,0,0,0,0,0,nan,nan,nan,nan,nan,nan,nan,nan,nan,nan,nan,0,0,0,0
175637152,0,0,0,0,0,0,0,0,0,nan,nan,-0.98053676,nan,nan,-0.98053676,nan,nan,-0.98053676,2.9825559,nan,1,0,0,0,0,nan,nan,nan,nan,nan,nan,nan,nan,nan,nan,nan,0,0,0,0,0,nan,nan,nan,nan,nan,nan,nan,nan,nan,nan,nan,0,0,0,0,0,nan,nan,nan,nan,nan,nan,nan,nan,nan,nan,nan,0,0,0,0,0,nan,nan,nan,nan,nan,nan,nan,nan,nan,nan,nan,0,0,0,0
175644670,0,0,0,0,0,0,0,0,0,nan,nan,-0.9809808,nan,nan,-0.9809808,nan,nan,-0.9809808,2.9825666,nan,1,0,0,0,0,nan,nan,nan,nan,nan,nan,nan,nan,nan,nan,nan,0,0,0,0,0,nan,nan,nan,nan,nan,nan,nan,nan,nan,nan,nan,0,0,0,0,0,nan,nan,nan,nan,nan,nan,nan,nan,nan,nan,nan,0,0,0,0,0,nan,nan,nan,nan,nan,nan,nan,nan,nan,nan,nan,0,0,0,0
175652342,0,0,0,0,0,0,0,0,0,nan,nan,-0.98141927,nan,nan,-0.98141927,nan,nan,-0.98141927,2.9825711,nan,1,0,0,0,0,nan,nan,nan,nan,nan,nan,nan,nan,nan,nan,nan,0,0,0,0,0,nan,nan,nan,nan,nan,nan,nan,nan,nan,nan,nan,0,0,0,0,0,nan,nan,nan,nan,nan,nan,nan,nan,nan,nan,nan,0,0,0,0,0,nan,nan,nan,nan,nan,nan,nan,nan,nan,nan,nan,0,0,0,0
175661174,0,0,0,0,0,0,0,0,0,nan,nan,-0.9818527,nan,nan,-0.9818527,nan,nan,-0.9818527,2.9825766,nan,1,0,0,0,0,nan,nan,nan,nan,nan,nan,nan,nan,nan,nan,nan,0,0,0,0,0,nan,nan,nan,nan,nan,nan,nan,nan,nan,nan,nan,0,0,0,0,0,nan,nan,nan,nan,nan,nan,nan,nan,nan,nan,nan,0,0,0,0,0,nan,nan,nan,nan,nan,nan,nan,nan,nan,nan,nan,0,0,0,0
175668741,0,0,0,0,0,0,0,0,0,nan,nan,-0.98228806,nan,nan,-0.98228806,nan,nan,-0.98228806,2.9825847,nan,1,0,0,0,0,nan,nan,nan,nan,nan,nan,nan,nan,nan,nan,nan,0,0,0,0,0,nan,nan,nan,nan,nan,nan,nan,nan,nan,nan,nan,0,0,0,0,0,nan,nan,nan,nan,nan,nan,nan,nan,nan,nan,nan,0,0,0,0,0,nan,nan,nan,nan,nan,nan,nan,nan,nan,nan,nan,0,0,0,0
175676486,0,0,0,0,0,0,0,0,0,nan,nan,-0.982718,nan,nan,-0.982718,nan,nan,-0.982718,2.9825785,nan,1,0,0,0,0,nan,nan,nan,nan,nan,nan,nan,nan,nan,nan,nan,0,0,0,0,0,nan,nan,nan,nan,nan,nan,nan,nan,nan,nan,nan,0,0,0,0,0,nan,nan,nan,nan,nan,nan,nan,nan,nan,nan,nan,0,0,0,0,0,nan,nan,nan,nan,nan,nan,nan,nan,nan,nan,nan,0,0,0,0
175685097,0,0,0,0,0,0,0,0,0,nan,nan,-0.9831431,nan,nan,-0.9831431,nan,nan,-0.9831431,2.982585,nan,1,0,0,0,0,nan,nan,nan,nan,nan,nan,nan,nan,nan,nan,nan,0,0,0,0,0,nan,nan,nan,nan,nan,nan,nan,nan,nan,nan,nan,0,0,0,0,0,nan,nan,nan,nan,nan,nan,nan,nan,nan,nan,nan,0,0,0,0,0,nan,nan,nan,nan,nan,nan,nan,nan,nan,nan,nan,0,0,0,0
175692565,0,0,0,0,0,0,0,0,0,nan,nan,-0.9836401,nan,nan,-0.9836401,nan,nan,-0.9836401,2.9825912,nan,1,0,0,0,0,nan,nan,nan,nan,nan,nan,nan,nan,nan,nan,nan,0,0,0,0,0,nan,nan,nan,nan,nan,nan,nan,nan,nan,nan,nan,0,0,0,0,0,nan,nan,nan,nan,nan,nan,nan,nan,nan,nan,nan,0,0,0,0,0,nan,nan,nan,nan,nan,nan,nan,nan,nan,nan,nan,0,0,0,0
175700398,0,0,0,0,0,0,0,0,0,nan,nan,-0.9841294,nan,nan,-0.9841294,nan,nan,-0.9841294,2.9825907,nan,1,0,0,0,0,nan,nan,nan,nan,nan,nan,nan,nan,nan,nan,nan,0,0,0,0,0,nan,nan,nan,nan,nan,nan,nan,nan,nan,nan,nan,0,0,0,0,0,nan,nan,nan,nan,nan,nan,nan,nan,nan,nan,nan,0,0,0,0,0,nan,nan,nan,nan,nan,nan,nan,nan,nan,nan,nan,0,0,0,0
175709046,0,0,0,0,0,0,0,0,0,nan,nan,-0.9846124,nan,nan,-0.9846124,nan,nan,-0.9846124,2.9825883,nan,1,0,0,0,0,nan,nan,nan,nan,nan,nan,nan,nan,nan,nan,nan,0,0,0,0,0,nan,nan,nan,nan,nan,nan,nan,nan,nan,nan,nan,0,0,0,0,0,nan,nan,nan,nan,nan,nan,nan,nan,nan,nan,nan,0,0,0,0,0,nan,nan,nan,nan,nan,nan,nan,nan,nan,nan,nan,0,0,0,0
175716603,0,0,0,0,0,0,0,0,0,nan,nan,-0.9849974,nan,nan,-0.9849974,nan,nan,-0.9849974,2.9825726,nan,1,0,0,0,0,nan,nan,nan,nan,nan,nan,nan,nan,nan,nan,nan,0,0,0,0,0,nan,nan,nan,nan,nan,nan,nan,nan,nan,nan,nan,0,0,0,0,0,nan,nan,nan,nan,nan,nan,nan,nan,nan,nan,nan,0,0,0,0,0,nan,nan,nan,nan,nan,nan,nan,nan,nan,nan,nan,0,0,0,0
175724388,0,0,0,0,0,0,0,0,0,nan,nan,-0.9853795,nan,nan,-0.9853795,nan,nan,-0.9853795,2.9825392,nan,1,0,0,0,0,nan,nan,nan,nan,nan,nan,nan,nan,nan,nan,nan,0,0,0,0,0,nan,nan,nan,nan,nan,nan,nan,nan,nan,nan,nan,0,0,0,0,0,nan,nan,nan,nan,nan,nan,nan,nan,nan,nan,nan,0,0,0,0,0,nan,nan,nan,nan,nan,nan,nan,nan,nan,nan,nan,0,0,0,0
175732947,0,0,0,0,0,0,0,0,0,nan,nan,-0.98575777,nan,nan,-0.98575777,nan,nan,-0.98575777,2.9825056,nan,1,0,0,0,0,nan,nan,nan,nan,nan,nan,nan,nan,nan,nan,nan,0,0,0,0,0,nan,nan,nan,nan,nan,nan,nan,nan,nan,nan,nan,0,0,0,0,0,nan,nan,nan,nan,nan,nan,nan,nan,nan,nan,nan,0,0,0,0,0,nan,nan,nan,nan,nan,nan,nan,nan,nan,nan,nan,0,0,0,0
175740604,0,0,0,0,0,0,0,0,0,nan,nan,-0.9860965,nan,nan,-0.9860965,nan,nan,-0.9860965,2.9824457,nan,1,0,0,0,0,nan,nan,nan,nan,nan,nan,nan,nan,nan,nan,nan,0,0,0,0,0,nan,nan,nan,nan,nan,nan,nan,nan,nan,nan,nan,0,0,0,0,0,nan,nan,nan,nan,nan,nan,nan,nan,nan,nan,nan,0,0,0,0,0,nan,nan,nan,nan,nan,nan,nan,nan,nan,nan,nan,0,0,0,0
175748673,0,0,0,0,0,0,0,0,0,nan,nan,-0.98643154,nan,nan,-0.98643154,nan,nan,-0.98643154,2.982378,nan,1,0,0,0,0,nan,nan,nan,nan,nan,nan,nan,nan,nan,nan,nan,0,0,0,0,0,nan,nan,nan,nan,nan,nan,nan,nan,nan,nan,nan,0,0,0,0,0,nan,nan,nan,nan,nan,nan,nan,nan,nan,nan,nan,0,0,0,0,0,nan,nan,nan,nan,nan,nan,nan,nan,nan,nan,nan,0,0,0,0
175756977,0,0,0,0,0,0,0,0,0,nan,nan,-0.9867629,nan,nan,-0.9867629,nan,nan,-0.9867629,2.9823117,nan,1,0,0,0,0,nan,nan,nan,nan,nan,nan,nan,nan,nan,nan,nan,0,0,0,0,0,nan,nan,nan,nan,nan,nan,nan,nan,nan,nan,nan,0,0,0,0,0,nan,nan,nan,nan,nan,nan,nan,nan,nan,nan,nan,0,0,0,0,0,nan,nan,nan,nan,nan,nan,nan,nan,nan,nan,nan,0,0,0,0
175764687,0,0,0,0,0,0,0,0,0,nan,nan,-0.9872087,nan,nan,-0.9872087,nan,nan,-0.9872087,2.9822419,nan,1,0,0,0,0,nan,nan,nan,nan,nan,nan,nan,nan,nan,nan,nan,0,0,0,0,0,nan,nan,nan,nan,nan,nan,nan,nan,nan,nan,nan,0,0,0,0,0,nan,nan,nan,nan,nan,nan,nan,nan,nan,nan,nan,0,0,0,0,0,nan,nan,nan,nan,nan,nan,nan,nan,nan,nan,nan,0,0,0,0
175772398,0,0,0,0,0,0,0,0,0,nan,nan,-0.98764765,nan,nan,-0.98764765,nan,nan,-0.98764765,2.98219,nan,1,0,0,0,0,nan,nan,nan,nan,nan,nan,nan,nan,nan,nan,nan,0,0,0,0,0,nan,nan,nan,nan,nan,nan,nan,nan,nan,nan,nan,0,0,0,0,0,nan,nan,nan,nan,nan,nan,nan,nan,nan,nan,nan,0,0,0,0,0,nan,nan,nan,nan,nan,nan,nan,nan,nan,nan,nan,0,0,0,0
175780978,0,0,0,0,0,0,0,0,0,nan,nan,-0.9880804,nan,nan,-0.9880804,nan,nan,-0.9880804,2.9821515,nan,1,0,0,0,0,nan,nan,nan,nan,nan,nan,nan,nan,nan,nan,nan,0,0,0,0,0,nan,nan,nan,nan,nan,nan,nan,nan,nan,nan,nan,0,0,0,0,0,nan,nan,nan,nan,nan,nan,nan,nan,nan,nan,nan,0,0,0,0,0,nan,nan,nan,nan,nan,nan,nan,nan,nan,nan,nan,0,0,0,0
175789184,0,0,0,0,0,0,0,0,0,nan,nan,-0.9884147,nan,nan,-0.9884147,nan,nan,-0.9884147,2.9821327,nan,1,0,0,0,0,nan,nan,nan,nan,nan,nan,nan,nan,nan,nan,nan,0,0,0,0,0,nan,nan,nan,nan,nan,nan,nan,nan,nan,nan,nan,0,0,0,0,0,nan,nan,nan,nan,nan,nan,nan,nan,nan,nan,nan,0,0,0,0,0,nan,nan,nan,nan,nan,nan,nan,nan,nan,nan,nan,0,0,0,0
175796351,0,0,0,0,0,0,0,0,0,nan,nan,-0.9887472,nan,nan,-0.9887472,nan,nan,-0.9887472,2.9821448,nan,1,0,0,0,0,nan,nan,nan,nan,nan,nan,nan,nan,nan,nan,nan,0,0,0,0,0,nan,nan,nan,nan,nan,nan,nan,nan,nan,nan,nan,0,0,0,0,0,nan,nan,nan,nan,nan,nan,nan,nan,nan,nan,nan,0,0,0,0,0,nan,nan,nan,nan,nan,nan,nan,nan,nan,nan,nan,0,0,0,0
175804994,0,0,0,0,0,0,0,0,0,nan,nan,-0.98907757,nan,nan,-0.98907757,nan,nan,-0.98907757,2.9821723,nan,1,0,0,0,0,nan,nan,nan,nan,nan,nan,nan,nan,nan,nan,nan,0,0,0,0,0,nan,nan,nan,nan,nan,nan,nan,nan,nan,nan,nan,0,0,0,0,0,nan,nan,nan,nan,nan,nan,nan,nan,nan,nan,nan,0,0,0,0,0,nan,nan,nan,nan,nan,nan,nan,nan,nan,nan,nan,0,0,0,0
175812921,0,0,0,0,0,0,0,0,0,nan,nan,-0.98935574,nan,nan,-0.98935574,nan,nan,-0.98935574,2.9822145,nan,1,0,0,0,0,nan,nan,nan,nan,nan,nan,nan,nan,nan,nan,nan,0,0,0,0,0,nan,nan,nan,nan,nan,nan,nan,nan,nan,nan,nan,0,0,0,0,0,nan,nan,nan,nan,nan,nan,nan,nan,nan,nan,nan,0,0,0,0,0,nan,nan,nan,nan,nan,nan,nan,nan,nan,nan,nan,0,0,0,0
175821093,0,0,0,0,0,0,0,0,0,nan,nan,-0.9896321,nan,nan,-0.9896321,nan,nan,-0.9896321,2.9822733,nan,1,0,0,0,0,nan,nan,nan,nan,nan,nan,nan,nan,nan,nan,nan,0,0,0,0,0,nan,nan,nan,nan,nan,nan,nan,nan,nan,nan,nan,0,0,0,0,0,nan,nan,nan,nan,nan,nan,nan,nan,nan,nan,nan,0,0,0,0,0,nan,nan,nan,nan,nan,nan,nan,nan,nan,nan,nan,0,0,0,0
175828456,0,0,0,0,0,0,0,0,0,nan,nan,-0.9898369,nan,nan,-0.9898369,nan,nan,-0.9898369,2.982339,nan,1,0,0,0,0,nan,nan,nan,nan,nan,nan,nan,nan,nan,nan,nan,0,0,0,0,0,nan,nan,nan,nan,nan,nan,nan,nan,nan,nan,nan,0,0,0,0,0,nan,nan,nan,nan,nan,nan,nan,nan,nan,nan,nan,0,0,0,0,0,nan,nan,nan,nan,nan,nan,nan,nan,nan,nan,nan,0,0,0,0
175836647,0,0,0,0,0,0,0,0,0,nan,nan,-0.9900426,nan,nan,-0.9900426,nan,nan,-0.9900426,2.982417,nan,1,0,0,0,0,nan,nan,nan,nan,nan,nan,nan,nan,nan,nan,nan,0,0,0,0,0,nan,nan,nan,nan,nan,nan,nan,nan,nan,nan,nan,0,0,0,0,0,nan,nan,nan,nan,nan,nan,nan,nan,nan,nan,nan,0,0,0,0,0,nan,nan,nan,nan,nan,nan,nan,nan,nan,nan,nan,0,0,0,0
175845050,0,0,0,0,0,0,0,0,0,nan,nan,-0.9902479,nan,nan,-0.9902479,nan,nan,-0.9902479,2.9825027,nan,1,0,0,0,0,nan,nan,nan,nan,nan,nan,nan,nan,nan,nan,nan,0,0,0,0,0,nan,nan,nan,nan,nan,nan,nan,nan,nan,nan,nan,0,0,0,0,0,nan,nan,nan,nan,nan,nan,nan,nan,nan,nan,nan,0,0,0,0,0,nan,nan,nan,nan,nan,nan,nan,nan,nan,nan,nan,0,0,0,0
175852524,0,0,0,0,0,0,0,0,0,nan,nan,-0.99032146,nan,nan,-0.99032146,nan,nan,-0.99032146,2.9825876,nan,1,0,0,0,0,nan,nan,nan,nan,nan,nan,nan,nan,nan,nan,nan,0,0,0,0,0,nan,nan,nan,nan,nan,nan,nan,nan,nan,nan,nan,0,0,0,0,0,nan,nan,nan,nan,nan,nan,nan,nan,nan,nan,nan,0,0,0,0,0,nan,nan,nan,nan,nan,nan,nan,nan,nan,nan,nan,0,0,0,0
175860595,0,0,0,0,0,0,0,0,0,nan,nan,-0.9904003,nan,nan,-0.9904003,nan,nan,-0.9904003,2.9826581,nan,1,0,0,0,0,nan,nan,nan,nan,nan,nan,nan,nan,nan,nan,nan,0,0,0,0,0,nan,nan,nan,nan,nan,nan,nan,nan,nan,nan,nan,0,0,0,0,0,nan,nan,nan,nan,nan,nan,nan,nan,nan,nan,nan,0,0,0,0,0,nan,nan,nan,nan,nan,nan,nan,nan,nan,nan,nan,0,0,0,0
175868959,0,0,0,0,0,0,0,0,0,nan,nan,-0.9904817,nan,nan,-0.9904817,nan,nan,-0.9904817,2.9827492,nan,1,0,0,0,0,nan,nan,nan,nan,nan,nan,nan,nan,nan,nan,nan,0,0,0,0,0,nan,nan,nan,nan,nan,nan,nan,nan,nan,nan,nan,0,0,0,0,0,nan,nan,nan,nan,nan,nan,nan,nan,nan,nan,nan,0,0,0,0,0,nan,nan,nan,nan,nan,nan,nan,nan,nan,nan,nan,0,0,0,0
175876528,0,0,0,0,0,0,0,0,0,nan,nan,-0.99070776,nan,nan,-0.99070776,nan,nan,-0.99070776,2.98284,nan,1,0,0,0,0,nan,nan,nan,nan,nan,nan,nan,nan,nan,nan,nan,0,0,0,0,0,nan,nan,nan,nan,nan,nan,nan,nan,nan,nan,nan,0,0,0,0,0,nan,nan,nan,nan,nan,nan,nan,nan,nan,nan,nan,0,0,0,0,0,nan,nan,nan,nan,nan,nan,nan,nan,nan,nan,nan,0,0,0,0
175884721,0,0,0,0,0,0,0,0,0,nan,nan,-0.9909346,nan,nan,-0.9909346,nan,nan,-0.9909346,2.9829228,nan,1,0,0,0,0,nan,nan,nan,nan,nan,nan,nan,nan,nan,nan,nan,0,0,0,0,0,nan,nan,nan,nan,nan,nan,nan,nan,nan,nan,nan,0,0,0,0,0,nan,nan,nan,nan,nan,nan,nan,nan,nan,nan,nan,0,0,0,0,0,nan,nan,nan,nan,nan,nan,nan,nan,nan,nan,nan,0,0,0,0
175893064,0,0,0,0,0,0,0,0,0,nan,nan,-0.99116194,nan,nan,-0.99116194,nan,nan,-0.99116194,2.9829812,nan,1,0,0,0,0,nan,nan,nan,nan,nan,nan,nan,nan,nan,nan,nan,0,0,0,0,0,nan,nan,nan,nan,nan,nan,nan,nan,nan,nan,nan,0,0,0,0,0,nan,nan,nan,nan,nan,nan,nan,nan,nan,nan,nan,0,0,0,0,0,nan,nan,nan,nan,nan,nan,nan,nan,nan,nan,nan,0,0,0,0
175900313,0,0,0,0,0,0,0,0,0,nan,nan,-0.9912961,nan,nan,-0.9912961,nan,nan,-0.9912961,2.9830136,nan,1,0,0,0,0,nan,nan,nan,nan,nan,nan,nan,nan,nan,nan,nan,0,0,0,0,0,nan,nan,nan,nan,nan,nan,nan,nan,nan,nan,nan,0,0,0,0,0,nan,nan,nan,nan,nan,nan,nan,nan,nan,nan,nan,0,0,0,0,0,nan,nan,nan,nan,nan,nan,nan,nan,nan,nan,nan,0,0,0,0
175909369,0,0,0,0,0,0,0,0,0,nan,nan,-0.99143076,nan,nan,-0.99143076,nan,nan,-0.99143076,2.983028,nan,1,0,0,0,0,nan,nan,nan,nan,nan,nan,nan,nan,nan,nan,nan,0,0,0,0,0,nan,nan,nan,nan,nan,nan,nan,nan,nan,nan,nan,0,0,0,0,0,nan,nan,nan,nan,nan,nan,nan,nan,nan,nan,nan,0,0,0,0,0,nan,nan,nan,nan,nan,nan,nan,nan,nan,nan,nan,0,0,0,0
175916366,0,0,0,0,0,0,0,0,0,nan,nan,-0.9914559,nan,nan,-0.9914559,nan,nan,-0.9914559,2.983024,nan,1,0,0,0,0,nan,nan,nan,nan,nan,nan,nan,nan,nan,nan,nan,0,0,0,0,0,nan,nan,nan,nan,nan,nan,nan,nan,nan,nan,nan,0,0,0,0,0,nan,nan,nan,nan,nan,nan,nan,nan,nan,nan,nan,0,0,0,0,0,nan,nan,nan,nan,nan,nan,nan,nan,nan,nan,nan,0,0,0,0
175924357,0,0,0,0,0,0,0,0,0,nan,nan,-0.99148566,nan,nan,-0.99148566,nan,nan,-0.99148566,2.982999,nan,1,0,0,0,0,nan,nan,nan,nan,nan,nan,nan,nan,nan,nan,nan,0,0,0,0,0,nan,nan,nan,nan,nan,nan,nan,nan,nan,nan,nan,0,0,0,0,0,nan,nan,nan,nan,nan,nan,nan,nan,nan,nan,nan,0,0,0,0,0,nan,nan,nan,nan,nan,nan,nan,nan,nan,nan,nan,0,0,0,0
175933269,0,0,0,0,0,0,0,0,0,nan,nan,-0.9915187,nan,nan,-0.9915187,nan,nan,-0.9915187,2.982952,nan,1,0,0,0,0,nan,nan,nan,nan,nan,nan,nan,nan,nan,nan,nan,0,0,0,0,0,nan,nan,nan,nan,nan,nan,nan,nan,nan,nan,nan,0,0,0,0,0,nan,nan,nan,nan,nan,nan,nan,nan,nan,nan,nan,0,0,0,0,0,nan,nan,nan,nan,nan,nan,nan,nan,nan,nan,nan,0,0,0,0
175940451,0,0,0,0,0,0,0,0,0,nan,nan,-0.9915922,nan,nan,-0.9915922,nan,nan,-0.9915922,2.982879,nan,1,0,0,0,0,nan,nan,nan,nan,nan,nan,nan,nan,nan,nan,nan,0,0,0,0,0,nan,nan,nan,nan,nan,nan,nan,nan,nan,nan,nan,0,0,0,0,0,nan,nan,nan,nan,nan,nan,nan,nan,nan,nan,nan,0,0,0,0,0,nan,nan,nan,nan,nan,nan,nan,nan,nan,nan,nan,0,0,0,0
175948438,0,0,0,0,0,0,0,0,0,nan,nan,-0.9916679,nan,nan,-0.9916679,nan,nan,-0.9916679,2.982812,nan,1,0,0,0,0,nan,nan,nan,nan,nan,nan,nan,nan,nan,nan,nan,0,0,0,0,0,nan,nan,nan,nan,nan,nan,nan,nan,nan,nan,nan,0,0,0,0,0,nan,nan,nan,nan,nan,nan,nan,nan,nan,nan,nan,0,0,0,0,0,nan,nan,nan,nan,nan,nan,nan,nan,nan,nan,nan,0,0,0,0
175957403,0,0,0,0,0,0,0,0,0,nan,nan,-0.9917461,nan,nan,-0.9917461,nan,nan,-0.9917461,2.9827461,nan,1,0,0,0,0,nan,nan,nan,nan,nan,nan,nan,nan,nan,nan,nan,0,0,0,0,0,nan,nan,nan,nan,nan,nan,nan,nan,nan,nan,nan,0,0,0,0,0,nan,nan,nan,nan,nan,nan,nan,nan,nan,nan,nan,0,0,0,0,0,nan,nan,nan,nan,nan,nan,nan,nan,nan,nan,nan,0,0,0,0
175964533,0,0,0,0,0,0,0,0,0,nan,nan,-0.99176073,nan,nan,-0.99176073,nan,nan,-0.99176073,2.9826875,nan,1,0,0,0,0,nan,nan,nan,nan,nan,nan,nan,nan,nan,nan,nan,0,0,0,0,0,nan,nan,nan,nan,nan,nan,nan,nan,nan,nan,nan,0,0,0,0,0,nan,nan,nan,nan,nan,nan,nan,nan,nan,nan,nan,0,0,0,0,0,nan,nan,nan,nan,nan,nan,nan,nan,nan,nan,nan,0,0,0,0
175972347,0,0,0,0,0,0,0,0,0,nan,nan,-0.9917804,nan,nan,-0.9917804,nan,nan,-0.9917804,2.982629,nan,1,0,0,0,0,nan,nan,nan,nan,nan,nan,nan,nan,nan,nan,nan,0,0,0,0,0,nan,nan,nan,nan,nan,nan,nan,nan,nan,nan,nan,0,0,0,0,0,nan,nan,nan,nan,nan,nan,nan,nan,nan,nan,nan,0,0,0,0,0,nan,nan,nan,nan,nan,nan,nan,nan,nan,nan,nan,0,0,0,0
175981207,0,0,0,0,0,0,0,0,0,nan,nan,-0.9918041,nan,nan,-0.9918041,nan,nan,-0.9918041,2.9825866,nan,1,0,0,0,0,nan,nan,nan,nan,nan,nan,nan,nan,nan,nan,nan,0,0,0,0,0,nan,nan,nan,nan,nan,nan,nan,nan,nan,nan,nan,0,0,0,0,0,nan,nan,nan,nan,nan,nan,nan,nan,nan,nan,nan,0,0,0,0,0,nan,nan,nan,nan,nan,nan,nan,nan,nan,nan,nan,0,0,0,0
175988488,0,0,0,0,0,0,0,0,0,nan,nan,-0.9916599,nan,nan,-0.9916599,nan,nan,-0.9916599,2.9825673,nan,1,0,0,0,0,nan,nan,nan,nan,nan,nan,nan,nan,nan,nan,nan,0,0,0,0,0,nan,nan,nan,nan,nan,nan,nan,nan,nan,nan,nan,0,0,0,0,0,nan,nan,nan,nan,nan,nan,nan,nan,nan,nan,nan,0,0,0,0,0,nan,nan,nan,nan,nan,nan,nan,nan,nan,nan,nan,0,0,0,0
175996798,0,0,0,0,0,0,0,0,0,nan,nan,-0.9915199,nan,nan,-0.9915199,nan,nan,-0.9915199,2.9825747,nan,1,0,0,0,0,nan,nan,nan,nan,nan,nan,nan,nan,nan,nan,nan,0,0,0,0,0,nan,nan,nan,nan,nan,nan,nan,nan,nan,nan,nan,0,0,0,0,0,nan,nan,nan,nan,nan,nan,nan,nan,nan,nan,nan,0,0,0,0,0,nan,nan,nan,nan,nan,nan,nan,nan,nan,nan,nan,0,0,0,0
176004652,0,0,0,0,0,0,0,0,0,nan,nan,-0.9913456,nan,nan,-0.9913456,nan,nan,-0.9913456,2.982618,nan,1,0,0,0,0,nan,nan,nan,nan,nan,nan,nan,nan,nan,nan,nan,0,0,0,0,0,nan,nan,nan,nan,nan,nan,nan,nan,nan,nan,nan,0,0,0,0,0,nan,nan,nan,nan,nan,nan,nan,nan,nan,nan,nan,0,0,0,0,0,nan,nan,nan,nan,nan,nan,nan,nan,nan,nan,nan,0,0,0,0
176012387,0,0,0,0,0,0,0,0,0,nan,nan,-0.9911804,nan,nan,-0.9911804,nan,nan,-0.9911804,2.9826648,nan,1,0,0,0,0,nan,nan,nan,nan,nan,nan,nan,nan,nan,nan,nan,0,0,0,0,0,nan,nan,nan,nan,nan,nan,nan,nan,nan,nan,nan,0,0,0,0,0,nan,nan,nan,nan,nan,nan,nan,nan,nan,nan,nan,0,0,0,0,0,nan,nan,nan,nan,nan,nan,nan,nan,nan,nan,nan,0,0,0,0
176020965,0,0,0,0,0,0,0,0,0,nan,nan,-0.99102235,nan,nan,-0.99102235,nan,nan,-0.99102235,2.9827173,nan,1,0,0,0,0,nan,nan,nan,nan,nan,nan,nan,nan,nan,nan,nan,0,0,0,0,0,nan,nan,nan,nan,nan,nan,nan,nan,nan,nan,nan,0,0,0,0,0,nan,nan,nan,nan,nan,nan,nan,nan,nan,nan,nan,0,0,0,0,0,nan,nan,nan,nan,nan,nan,nan,nan,nan,nan,nan,0,0,0,0
176028681,0,0,0,0,0,0,0,0,0,nan,nan,-0.9907878,nan,nan,-0.9907878,nan,nan,-0.9907878,2.9827797,nan,1,0,0,0,0,nan,nan,nan,nan,nan,nan,nan,nan,nan,nan,nan,0,0,0,0,0,nan,nan,nan,nan,nan,nan,nan,nan,nan,nan,nan,0,0,0,0,0,nan,nan,nan,nan,nan,nan,nan,nan,nan,nan,nan,0,0,0,0,0,nan,nan,nan,nan,nan,nan,nan,nan,nan,nan,nan,0,0,0,0
176036519,0,0,0,0,0,0,0,0,0,nan,nan,-0.99056023,nan,nan,-0.99056023,nan,nan,-0.99056023,2.982831,nan,1,0,0,0,0,nan,nan,nan,nan,nan,nan,nan,nan,nan,nan,nan,0,0,0,0,0,nan,nan,nan,nan,nan,nan,nan,nan,nan,nan,nan,0,0,0,0,0,nan,nan,nan,nan,nan,nan,nan,nan,nan,nan,nan,0,0,0,0,0,nan,nan,nan,nan,nan,nan,nan,nan,nan,nan,nan,0,0,0,0
176045034,0,0,0,0,0,0,0,0,0,nan,nan,-0.9903413,nan,nan,-0.9903413,nan,nan,-0.9903413,2.9828603,nan,1,0,0,0,0,nan,nan,nan,nan,nan,nan,nan,nan,nan,nan,nan,0,0,0,0,0,nan,nan,nan,nan,nan,nan,nan,nan,nan,nan,nan,0,0,0,0,0,nan,nan,nan,nan,nan,nan,nan,nan,nan,nan,nan,0,0,0,0,0,nan,nan,nan,nan,nan,nan,nan,nan,nan,nan,nan,0,0,0,0
176053100,0,0,0,0,0,0,0,0,0,nan,nan,-0.9901926,nan,nan,-0.9901926,nan,nan,-0.9901926,2.9828742,nan,1,0,0,0,0,nan,nan,nan,nan,nan,nan,nan,nan,nan,nan,nan,0,0,0,0,0,nan,nan,nan,nan,nan,nan,nan,nan,nan,nan,nan,0,0,0,0,0,nan,nan,nan,nan,nan,nan,nan,nan,nan,nan,nan,0,0,0,0,0,nan,nan,nan,nan,nan,nan,nan,nan,nan,nan,nan,0,0,0,0
176060398,0,0,0,0,0,0,0,0,0,nan,nan,-0.99004996,nan,nan,-0.99004996,nan,nan,-0.99004996,2.9828827,nan,1,0,0,0,0,nan,nan,nan,nan,nan,nan,nan,nan,nan,nan,nan,0,0,0,0,0,nan,nan,nan,nan,nan,nan,nan,nan,nan,nan,nan,0,0,0,0,0,nan,nan,nan,nan,nan,nan,nan,nan,nan,nan,nan,0,0,0,0,0,nan,nan,nan,nan,nan,nan,nan,nan,nan,nan,nan,0,0,0,0
176069089,0,0,0,0,0,0,0,0,0,nan,nan,-0.9899118,nan,nan,-0.9899118,nan,nan,-0.9899118,2.982882,nan,1,0,0,0,0,nan,nan,nan,nan,nan,nan,nan,nan,nan,nan,nan,0,0,0,0,0,nan,nan,nan,nan,nan,nan,nan,nan,nan,nan,nan,0,0,0,0,0,nan,nan,nan,nan,nan,nan,nan,nan,nan,nan,nan,0,0,0,0,0,nan,nan,nan,nan,nan,nan,nan,nan,nan,nan,nan,0,0,0,0
176076649,0,0,0,0,0,0,0,0,0,nan,nan,-0.9897373,nan,nan,-0.9897373,nan,nan,-0.9897373,2.982868,nan,1,0,0,0,0,nan,nan,nan,nan,nan,nan,nan,nan,nan,nan,nan,0,0,0,0,0,nan,nan,nan,nan,nan,nan,nan,nan,nan,nan,nan,0,0,0,0,0,nan,nan,nan,nan,nan,nan,nan,nan,nan,nan,nan,0,0,0,0,0,nan,nan,nan,nan,nan,nan,nan,nan,nan,nan,nan,0,0,0,0
176084409,0,0,0,0,0,0,0,0,0,nan,nan,-0.9895708,nan,nan,-0.9895708,nan,nan,-0.9895708,2.9828496,nan,1,0,0,0,0,nan,nan,nan,nan,nan,nan,nan,nan,nan,nan,nan,0,0,0,0,0,nan,nan,nan,nan,nan,nan,nan,nan,nan,nan,nan,0,0,0,0,0,nan,nan,nan,nan,nan,nan,nan,nan,nan,nan,nan,0,0,0,0,0,nan,nan,nan,nan,nan,nan,nan,nan,nan,nan,nan,0,0,0,0
176092344,0,0,0,0,0,0,0,0,0,nan,nan,-0.9894121,nan,nan,-0.9894121,nan,nan,-0.9894121,2.9828079,nan,1,0,0,0,0,nan,nan,nan,nan,nan,nan,nan,nan,nan,nan,nan,0,0,0,0,0,nan,nan,nan,nan,nan,nan,nan,nan,nan,nan,nan,0,0,0,0,0,nan,nan,nan,nan,nan,nan,nan,nan,nan,nan,nan,0,0,0,0,0,nan,nan,nan,nan,nan,nan,nan,nan,nan,nan,nan,0,0,0,0
176101510,0,0,0,0,0,0,0,0,0,nan,nan,-0.9892609,nan,nan,-0.9892609,nan,nan,-0.9892609,2.982752,nan,1,0,0,0,0,nan,nan,nan,nan,nan,nan,nan,nan,nan,nan,nan,0,0,0,0,0,nan,nan,nan,nan,nan,nan,nan,nan,nan,nan,nan,0,0,0,0,0,nan,nan,nan,nan,nan,nan,nan,nan,nan,nan,nan,0,0,0,0,0,nan,nan,nan,nan,nan,nan,nan,nan,nan,nan,nan,0,0,0,0
176108626,0,0,0,0,0,0,0,0,0,nan,nan,-0.9889886,nan,nan,-0.9889886,nan,nan,-0.9889886,2.9827363,nan,1,0,0,0,0,nan,nan,nan,nan,nan,nan,nan,nan,nan,nan,nan,0,0,0,0,0,nan,nan,nan,nan,nan,nan,nan,nan,nan,nan,nan,0,0,0,0,0,nan,nan,nan,nan,nan,nan,nan,nan,nan,nan,nan,0,0,0,0,0,nan,nan,nan,nan,nan,nan,nan,nan,nan,nan,nan,0,0,0,0
176116350,0,0,0,0,0,0,0,0,0,nan,nan,-0.98872715,nan,nan,-0.98872715,nan,nan,-0.98872715,2.982718,nan,1,0,0,0,0,nan,nan,nan,nan,nan,nan,nan,nan,nan,nan,nan,0,0,0,0,0,nan,nan,nan,nan,nan,nan,nan,nan,nan,nan,nan,0,0,0,0,0,nan,nan,nan,nan,nan,nan,nan,nan,nan,nan,nan,0,0,0,0,0,nan,nan,nan,nan,nan,nan,nan,nan,nan,nan,nan,0,0,0,0
176125375,0,0,0,0,0,0,0,0,0,nan,nan,-0.9884759,nan,nan,-0.9884759,nan,nan,-0.9884759,2.9827218,nan,1,0,0,0,0,nan,nan,nan,nan,nan,nan,nan,nan,nan,nan,nan,0,0,0,0,0,nan,nan,nan,nan,nan,nan,nan,nan,nan,nan,nan,0,0,0,0,0,nan,nan,nan,nan,nan,nan,nan,nan,nan,nan,nan,0,0,0,0,0,nan,nan,nan,nan,nan,nan,nan,nan,nan,nan,nan,0,0,0,0
176133212,0,0,0,0,0,0,0,0,0,nan,nan,-0.9882767,nan,nan,-0.9882767,nan,nan,-0.9882767,2.9827287,nan,1,0,0,0,0,nan,nan,nan,nan,nan,nan,nan,nan,nan,nan,nan,0,0,0,0,0,nan,nan,nan,nan,nan,nan,nan,nan,nan,nan,nan,0,0,0,0,0,nan,nan,nan,nan,nan,nan,nan,nan,nan,nan,nan,0,0,0,0,0,nan,nan,nan,nan,nan,nan,nan,nan,nan,nan,nan,0,0,0,0
176138114,0,0,0,0,0,0,0,0,0,nan,nan,-0.98810345,nan,nan,-0.98810345,nan,nan,-0.98810345,2.982739,nan,1,0,0,0,0,nan,nan,nan,nan,nan,nan,nan,nan,nan,nan,nan,0,0,0,0,0,nan,nan,nan,nan,nan,nan,nan,nan,nan,nan,nan,0,0,0,0,0,nan,nan,nan,nan,nan,nan,nan,nan,nan,nan,nan,0,0,0,0,0,nan,nan,nan,nan,nan,nan,nan,nan,nan,nan,nan,0,0,0,0
176146195,0,0,0,0,0,0,0,0,0,nan,nan,-0.98784727,nan,nan,-0.98784727,nan,nan,-0.98784727,2.982737,nan,1,0,0,0,0,nan,nan,nan,nan,nan,nan,nan,nan,nan,nan,nan,0,0,0,0,0,nan,nan,nan,nan,nan,nan,nan,nan,nan,nan,nan,0,0,0,0,0,nan,nan,nan,nan,nan,nan,nan,nan,nan,nan,nan,0,0,0,0,0,nan,nan,nan,nan,nan,nan,nan,nan,nan,nan,nan,0,0,0,0
176154577,0,0,0,0,0,0,0,0,0,nan,nan,-0.9876699,nan,nan,-0.9876699,nan,nan,-0.9876699,2.9827652,nan,1,0,0,0,0,nan,nan,nan,nan,nan,nan,nan,nan,nan,nan,nan,0,0,0,0,0,nan,nan,nan,nan,nan,nan,nan,nan,nan,nan,nan,0,0,0,0,0,nan,nan,nan,nan,nan,nan,nan,nan,nan,nan,nan,0,0,0,0,0,nan,nan,nan,nan,nan,nan,nan,nan,nan,nan,nan,0,0,0,0
176162353,0,0,0,0,0,0,0,0,0,nan,nan,-0.98762417,nan,nan,-0.98762417,nan,nan,-0.98762417,2.982779,nan,1,0,0,0,0,nan,nan,nan,nan,nan,nan,nan,nan,nan,nan,nan,0,0,0,0,0,nan,nan,nan,nan,nan,nan,nan,nan,nan,nan,nan,0,0,0,0,0,nan,nan,nan,nan,nan,nan,nan,nan,nan,nan,nan,0,0,0,0,0,nan,nan,nan,nan,nan,nan,nan,nan,nan,nan,nan,0,0,0,0
176170215,0,0,0,0,0,0,0,0,0,nan,nan,-0.9875848,nan,nan,-0.9875848,nan,nan,-0.9875848,2.9828038,nan,1,0,0,0,0,nan,nan,nan,nan,nan,nan,nan,nan,nan,nan,nan,0,0,0,0,0,nan,nan,nan,nan,nan,nan,nan,nan,nan,nan,nan,0,0,0,0,0,nan,nan,nan,nan,nan,nan,nan,nan,nan,nan,nan,0,0,0,0,0,nan,nan,nan,nan,nan,nan,nan,nan,nan,nan,nan,0,0,0,0
176178878,0,0,0,0,0,0,0,0,0,nan,nan,-0.9875461,nan,nan,-0.9875461,nan,nan,-0.9875461,2.9828203,nan,1,0,0,0,0,nan,nan,nan,nan,nan,nan,nan,nan,nan,nan,nan,0,0,0,0,0,nan,nan,nan,nan,nan,nan,nan,nan,nan,nan,nan,0,0,0,0,0,nan,nan,nan,nan,nan,nan,nan,nan,nan,nan,nan,0,0,0,0,0,nan,nan,nan,nan,nan,nan,nan,nan,nan,nan,nan,0,0,0,0
176186231,0,0,0,0,0,0,0,0,0,nan,nan,-0.9875549,nan,nan,-0.9875549,nan,nan,-0.9875549,2.9828405,nan,1,0,0,0,0,nan,nan,nan,nan,nan,nan,nan,nan,nan,nan,nan,0,0,0,0,0,nan,nan,nan,nan,nan,nan,nan,nan,nan,nan,nan,0,0,0,0,0,nan,nan,nan,nan,nan,nan,nan,nan,nan,nan,nan,0,0,0,0,0,nan,nan,nan,nan,nan,nan,nan,nan,nan,nan,nan,0,0,0,0
176194808,0,0,0,0,0,0,0,0,0,nan,nan,-0.9875659,nan,nan,-0.9875659,nan,nan,-0.9875659,2.9828634,nan,1,0,0,0,0,nan,nan,nan,nan,nan,nan,nan,nan,nan,nan,nan,0,0,0,0,0,nan,nan,nan,nan,nan,nan,nan,nan,nan,nan,nan,0,0,0,0,0,nan,nan,nan,nan,nan,nan,nan,nan,nan,nan,nan,0,0,0,0,0,nan,nan,nan,nan,nan,nan,nan,nan,nan,nan,nan,0,0,0,0
176202627,0,0,0,0,0,0,0,0,0,nan,nan,-0.9875805,nan,nan,-0.9875805,nan,nan,-0.9875805,2.982881,nan,1,0,0,0,0,nan,nan,nan,nan,nan,nan,nan,nan,nan,nan,nan,0,0,0,0,0,nan,nan,nan,nan,nan,nan,nan,nan,nan,nan,nan,0,0,0,0,0,nan,nan,nan,nan,nan,nan,nan,nan,nan,nan,nan,0,0,0,0,0,nan,nan,nan,nan,nan,nan,nan,nan,nan,nan,nan,0,0,0,0
176210029,0,0,0,0,0,0,0,0,0,nan,nan,-0.9875958,nan,nan,-0.9875958,nan,nan,-0.9875958,2.9828818,nan,1,0,0,0,0,nan,nan,nan,nan,nan,nan,nan,nan,nan,nan,nan,0,0,0,0,0,nan,nan,nan,nan,nan,nan,nan,nan,nan,nan,nan,0,0,0,0,0,nan,nan,nan,nan,nan,nan,nan,nan,nan,nan,nan,0,0,0,0,0,nan,nan,nan,nan,nan,nan,nan,nan,nan,nan,nan,0,0,0,0
176219035,0,0,0,0,0,0,0,0,0,nan,nan,-0.9876149,nan,nan,-0.9876149,nan,nan,-0.9876149,2.9828603,nan,1,0,0,0,0,nan,nan,nan,nan,nan,nan,nan,nan,nan,nan,nan,0,0,0,0,0,nan,nan,nan,nan,nan,nan,nan,nan,nan,nan,nan,0,0,0,0,0,nan,nan,nan,nan,nan,nan,nan,nan,nan,nan,nan,0,0,0,0,0,nan,nan,nan,nan,nan,nan,nan,nan,nan,nan,nan,0,0,0,0
176226291,0,0,0,0,0,0,0,0,0,nan,nan,-0.98763365,nan,nan,-0.98763365,nan,nan,-0.98763365,2.9828382,nan,1,0,0,0,0,nan,nan,nan,nan,nan,nan,nan,nan,nan,nan,nan,0,0,0,0,0,nan,nan,nan,nan,nan,nan,nan,nan,nan,nan,nan,0,0,0,0,0,nan,nan,nan,nan,nan,nan,nan,nan,nan,nan,nan,0,0,0,0,0,nan,nan,nan,nan,nan,nan,nan,nan,nan,nan,nan,0,0,0,0
176234050,0,0,0,0,0,0,0,0,0,nan,nan,-0.9876563,nan,nan,-0.9876563,nan,nan,-0.9876563,2.9828215,nan,1,0,0,0,0,nan,nan,nan,nan,nan,nan,nan,nan,nan,nan,nan,0,0,0,0,0,nan,nan,nan,nan,nan,nan,nan,nan,nan,nan,nan,0,0,0,0,0,nan,nan,nan,nan,nan,nan,nan,nan,nan,nan,nan,0,0,0,0,0,nan,nan,nan,nan,nan,nan,nan,nan,nan,nan,nan,0,0,0,0
176243150,0,0,0,0,0,0,0,0,0,nan,nan,-0.9876825,nan,nan,-0.9876825,nan,nan,-0.9876825,2.9828084,nan,1,0,0,0,0,nan,nan,nan,nan,nan,nan,nan,nan,nan,nan,nan,0,0,0,0,0,nan,nan,nan,nan,nan,nan,nan,nan,nan,nan,nan,0,0,0,0,0,nan,nan,nan,nan,nan,nan,nan,nan,nan,nan,nan,0,0,0,0,0,nan,nan,nan,nan,nan,nan,nan,nan,nan,nan,nan,0,0,0,0
176250199,0,0,0,0,0,0,0,0,0,nan,nan,-0.98791575,nan,nan,-0.98791575,nan,nan,-0.98791575,2.982794,nan,1,0,0,0,0,nan,nan,nan,nan,nan,nan,nan,nan,nan,nan,nan,0,0,0,0,0,nan,nan,nan,nan,nan,nan,nan,nan,nan,nan,nan,0,0,0,0,0,nan,nan,nan,nan,nan,nan,nan,nan,nan,nan,nan,0,0,0,0,0,nan,nan,nan,nan,nan,nan,nan,nan,nan,nan,nan,0,0,0,0
176258101,0,0,0,0,0,0,0,0,0,nan,nan,-0.98814964,nan,nan,-0.98814964,nan,nan,-0.98814964,2.9827862,nan,1,0,0,0,0,nan,nan,nan,nan,nan,nan,nan,nan,nan,nan,nan,0,0,0,0,0,nan,nan,nan,nan,nan,nan,nan,nan,nan,nan,nan,0,0,0,0,0,nan,nan,nan,nan,nan,nan,nan,nan,nan,nan,nan,0,0,0,0,0,nan,nan,nan,nan,nan,nan,nan,nan,nan,nan,nan,0,0,0,0
176266801,0,0,0,0,0,0,0,0,0,nan,nan,-0.98838216,nan,nan,-0.98838216,nan,nan,-0.98838216,2.9827735,nan,1,0,0,0,0,nan,nan,nan,nan,nan,nan,nan,nan,nan,nan,nan,0,0,0,0,0,nan,nan,nan,nan,nan,nan,nan,nan,nan,nan,nan,0,0,0,0,0,nan,nan,nan,nan,nan,nan,nan,nan,nan,nan,nan,0,0,0,0,0,nan,nan,nan,nan,nan,nan,nan,nan,nan,nan,nan,0,0,0,0
176274008,0,0,0,0,0,0,0,0,0,nan,nan,-0.9886277,nan,nan,-0.9886277,nan,nan,-0.9886277,2.982759,nan,1,0,0,0,0,nan,nan,nan,nan,nan,nan,nan,nan,nan,nan,nan,0,0,0,0,0,nan,nan,nan,nan,nan,nan,nan,nan,nan,nan,nan,0,0,0,0,0,nan,nan,nan,nan,nan,nan,nan,nan,nan,nan,nan,0,0,0,0,0,nan,nan,nan,nan,nan,nan,nan,nan,nan,nan,nan,0,0,0,0
176282667,0,0,0,0,0,0,0,0,0,nan,nan,-0.9888701,nan,nan,-0.9888701,nan,nan,-0.9888701,2.9827514,nan,1,0,0,0,0,nan,nan,nan,nan,nan,nan,nan,nan,nan,nan,nan,0,0,0,0,0,nan,nan,nan,nan,nan,nan,nan,nan,nan,nan,nan,0,0,0,0,0,nan,nan,nan,nan,nan,nan,nan,nan,nan,nan,nan,0,0,0,0,0,nan,nan,nan,nan,nan,nan,nan,nan,nan,nan,nan,0,0,0,0
176290835,0,0,0,0,0,0,0,0,0,nan,nan,-0.989144,nan,nan,-0.989144,nan,nan,-0.989144,2.9827483,nan,1,0,0,0,0,nan,nan,nan,nan,nan,nan,nan,nan,nan,nan,nan,0,0,0,0,0,nan,nan,nan,nan,nan,nan,nan,nan,nan,nan,nan,0,0,0,0,0,nan,nan,nan,nan,nan,nan,nan,nan,nan,nan,nan,0,0,0,0,0,nan,nan,nan,nan,nan,nan,nan,nan,nan,nan,nan,0,0,0,0
176298069,0,0,0,0,0,0,0,0,0,nan,nan,-0.989415,nan,nan,-0.989415,nan,nan,-0.989415,2.982765,nan,1,0,0,0,0,nan,nan,nan,nan,nan,nan,nan,nan,nan,nan,nan,0,0,0,0,0,nan,nan,nan,nan,nan,nan,nan,nan,nan,nan,nan,0,0,0,0,0,nan,nan,nan,nan,nan,nan,nan,nan,nan,nan,nan,0,0,0,0,0,nan,nan,nan,nan,nan,nan,nan,nan,nan,nan,nan,0,0,0,0
176306754,0,0,0,0,0,0,0,0,0,nan,nan,-0.98968184,nan,nan,-0.98968184,nan,nan,-0.98968184,2.9827716,nan,1,0,0,0,0,nan,nan,nan,nan,nan,nan,nan,nan,nan,nan,nan,0,0,0,0,0,nan,nan,nan,nan,nan,nan,nan,nan,nan,nan,nan,0,0,0,0,0,nan,nan,nan,nan,nan,nan,nan,nan,nan,nan,nan,0,0,0,0,0,nan,nan,nan,nan,nan,nan,nan,nan,nan,nan,nan,0,0,0,0
176314207,0,0,0,0,0,0,0,0,0,nan,nan,-0.9898328,nan,nan,-0.9898328,nan,nan,-0.9898328,2.9827814,nan,1,0,0,0,0,nan,nan,nan,nan,nan,nan,nan,nan,nan,nan,nan,0,0,0,0,0,nan,nan,nan,nan,nan,nan,nan,nan,nan,nan,nan,0,0,0,0,0,nan,nan,nan,nan,nan,nan,nan,nan,nan,nan,nan,0,0,0,0,0,nan,nan,nan,nan,nan,nan,nan,nan,nan,nan,nan,0,0,0,0
176322209,0,0,0,0,0,0,0,0,0,nan,nan,-0.98998344,nan,nan,-0.98998344,nan,nan,-0.98998344,2.9827962,nan,1,0,0,0,0,nan,nan,nan,nan,nan,nan,nan,nan,nan,nan,nan,0,0,0,0,0,nan,nan,nan,nan,nan,nan,nan,nan,nan,nan,nan,0,0,0,0,0,nan,nan,nan,nan,nan,nan,nan,nan,nan,nan,nan,0,0,0,0,0,nan,nan,nan,nan,nan,nan,nan,nan,nan,nan,nan,0,0,0,0
176330618,0,0,0,0,0,0,0,0,0,nan,nan,-0.99013567,nan,nan,-0.99013567,nan,nan,-0.99013567,2.9828124,nan,1,0,0,0,0,nan,nan,nan,nan,nan,nan,nan,nan,nan,nan,nan,0,0,0,0,0,nan,nan,nan,nan,nan,nan,nan,nan,nan,nan,nan,0,0,0,0,0,nan,nan,nan,nan,nan,nan,nan,nan,nan,nan,nan,0,0,0,0,0,nan,nan,nan,nan,nan,nan,nan,nan,nan,nan,nan,0,0,0,0
176338660,0,0,0,0,0,0,0,0,0,nan,nan,-0.9902829,nan,nan,-0.9902829,nan,nan,-0.9902829,2.9828167,nan,1,0,0,0,0,nan,nan,nan,nan,nan,nan,nan,nan,nan,nan,nan,0,0,0,0,0,nan,nan,nan,nan,nan,nan,nan,nan,nan,nan,nan,0,0,0,0,0,nan,nan,nan,nan,nan,nan,nan,nan,nan,nan,nan,0,0,0,0,0,nan,nan,nan,nan,nan,nan,nan,nan,nan,nan,nan,0,0,0,0
176346128,0,0,0,0,0,0,0,0,0,nan,nan,-0.9904307,nan,nan,-0.9904307,nan,nan,-0.9904307,2.9828284,nan,1,0,0,0,0,nan,nan,nan,nan,nan,nan,nan,nan,nan,nan,nan,0,0,0,0,0,nan,nan,nan,nan,nan,nan,nan,nan,nan,nan,nan,0,0,0,0,0,nan,nan,nan,nan,nan,nan,nan,nan,nan,nan,nan,0,0,0,0,0,nan,nan,nan,nan,nan,nan,nan,nan,nan,nan,nan,0,0,0,0
176355074,0,0,0,0,0,0,0,0,0,nan,nan,-0.9905823,nan,nan,-0.9905823,nan,nan,-0.9905823,2.9828446,nan,1,0,0,0,0,nan,nan,nan,nan,nan,nan,nan,nan,nan,nan,nan,0,0,0,0,0,nan,nan,nan,nan,nan,nan,nan,nan,nan,nan,nan,0,0,0,0,0,nan,nan,nan,nan,nan,nan,nan,nan,nan,nan,nan,0,0,0,0,0,nan,nan,nan,nan,nan,nan,nan,nan,nan,nan,nan,0,0,0,0
176362219,0,0,0,0,0,0,0,0,0,nan,nan,-0.99076885,nan,nan,-0.99076885,nan,nan,-0.99076885,2.982865,nan,1,0,0,0,0,nan,nan,nan,nan,nan,nan,nan,nan,nan,nan,nan,0,0,0,0,0,nan,nan,nan,nan,nan,nan,nan,nan,nan,nan,nan,0,0,0,0,0,nan,nan,nan,nan,nan,nan,nan,nan,nan,nan,nan,0,0,0,0,0,nan,nan,nan,nan,nan,nan,nan,nan,nan,nan,nan,0,0,0,0
176370112,0,0,0,0,0,0,0,0,0,nan,nan,-0.99095726,nan,nan,-0.99095726,nan,nan,-0.99095726,2.9828663,nan,1,0,0,0,0,nan,nan,nan,nan,nan,nan,nan,nan,nan,nan,nan,0,0,0,0,0,nan,nan,nan,nan,nan,nan,nan,nan,nan,nan,nan,0,0,0,0,0,nan,nan,nan,nan,nan,nan,nan,nan,nan,nan,nan,0,0,0,0,0,nan,nan,nan,nan,nan,nan,nan,nan,nan,nan,nan,0,0,0,0
176379104,0,0,0,0,0,0,0,0,0,nan,nan,-0.9911446,nan,nan,-0.9911446,nan,nan,-0.9911446,2.9828691,nan,1,0,0,0,0,nan,nan,nan,nan,nan,nan,nan,nan,nan,nan,nan,0,0,0,0,0,nan,nan,nan,nan,nan,nan,nan,nan,nan,nan,nan,0,0,0,0,0,nan,nan,nan,nan,nan,nan,nan,nan,nan,nan,nan,0,0,0,0,0,nan,nan,nan,nan,nan,nan,nan,nan,nan,nan,nan,0,0,0,0
176386833,0,0,0,0,0,0,0,0,0,nan,nan,-0.99140817,nan,nan,-0.99140817,nan,nan,-0.99140817,2.982871,nan,1,0,0,0,0,nan,nan,nan,nan,nan,nan,nan,nan,nan,nan,nan,0,0,0,0,0,nan,nan,nan,nan,nan,nan,nan,nan,nan,nan,nan,0,0,0,0,0,nan,nan,nan,nan,nan,nan,nan,nan,nan,nan,nan,0,0,0,0,0,nan,nan,nan,nan,nan,nan,nan,nan,nan,nan,nan,0,0,0,0
176394824,0,0,0,0,0,0,0,0,0,nan,nan,-0.9916693,nan,nan,-0.9916693,nan,nan,-0.9916693,2.9828553,nan,1,0,0,0,0,nan,nan,nan,nan,nan,nan,nan,nan,nan,nan,nan,0,0,0,0,0,nan,nan,nan,nan,nan,nan,nan,nan,nan,nan,nan,0,0,0,0,0,nan,nan,nan,nan,nan,nan,nan,nan,nan,nan,nan,0,0,0,0,0,nan,nan,nan,nan,nan,nan,nan,nan,nan,nan,nan,0,0,0,0
176402060,0,0,0,0,0,0,0,0,0,nan,nan,-0.9918342,nan,nan,-0.9918342,nan,nan,-0.9918342,2.9828584,nan,1,0,0,0,0,nan,nan,nan,nan,nan,nan,nan,nan,nan,nan,nan,0,0,0,0,0,nan,nan,nan,nan,nan,nan,nan,nan,nan,nan,nan,0,0,0,0,0,nan,nan,nan,nan,nan,nan,nan,nan,nan,nan,nan,0,0,0,0,0,nan,nan,nan,nan,nan,nan,nan,nan,nan,nan,nan,0,0,0,0
176410245,0,0,0,0,0,0,0,0,0,nan,nan,-0.99199957,nan,nan,-0.99199957,nan,nan,-0.99199957,2.9828699,nan,1,0,0,0,0,nan,nan,nan,nan,nan,nan,nan,nan,nan,nan,nan,0,0,0,0,0,nan,nan,nan,nan,nan,nan,nan,nan,nan,nan,nan,0,0,0,0,0,nan,nan,nan,nan,nan,nan,nan,nan,nan,nan,nan,0,0,0,0,0,nan,nan,nan,nan,nan,nan,nan,nan,nan,nan,nan,0,0,0,0
176418959,0,0,0,0,0,0,0,0,0,nan,nan,-0.99216413,nan,nan,-0.99216413,nan,nan,-0.99216413,2.9828873,nan,1,0,0,0,0,nan,nan,nan,nan,nan,nan,nan,nan,nan,nan,nan,0,0,0,0,0,nan,nan,nan,nan,nan,nan,nan,nan,nan,nan,nan,0,0,0,0,0,nan,nan,nan,nan,nan,nan,nan,nan,nan,nan,nan,0,0,0,0,0,nan,nan,nan,nan,nan,nan,nan,nan,nan,nan,nan,0,0,0,0
176426094,0,0,0,0,0,0,0,0,0,nan,nan,-0.992238,nan,nan,-0.992238,nan,nan,-0.992238,2.9829276,nan,1,0,0,0,0,nan,nan,nan,nan,nan,nan,nan,nan,nan,nan,nan,0,0,0,0,0,nan,nan,nan,nan,nan,nan,nan,nan,nan,nan,nan,0,0,0,0,0,nan,nan,nan,nan,nan,nan,nan,nan,nan,nan,nan,0,0,0,0,0,nan,nan,nan,nan,nan,nan,nan,nan,nan,nan,nan,0,0,0,0
176434948,0,0,0,0,0,0,0,0,0,nan,nan,-0.99231374,nan,nan,-0.99231374,nan,nan,-0.99231374,2.9829617,nan,1,0,0,0,0,nan,nan,nan,nan,nan,nan,nan,nan,nan,nan,nan,0,0,0,0,0,nan,nan,nan,nan,nan,nan,nan,nan,nan,nan,nan,0,0,0,0,0,nan,nan,nan,nan,nan,nan,nan,nan,nan,nan,nan,0,0,0,0,0,nan,nan,nan,nan,nan,nan,nan,nan,nan,nan,nan,0,0,0,0
176441997,0,0,0,0,0,0,0,0,0,nan,nan,-0.99232465,nan,nan,-0.99232465,nan,nan,-0.99232465,2.9829998,nan,1,0,0,0,0,nan,nan,nan,nan,nan,nan,nan,nan,nan,nan,nan,0,0,0,0,0,nan,nan,nan,nan,nan,nan,nan,nan,nan,nan,nan,0,0,0,0,0,nan,nan,nan,nan,nan,nan,nan,nan,nan,nan,nan,0,0,0,0,0,nan,nan,nan,nan,nan,nan,nan,nan,nan,nan,nan,0,0,0,0
176450043,0,0,0,0,0,0,0,0,0,nan,nan,-0.9923388,nan,nan,-0.9923388,nan,nan,-0.9923388,2.9830177,nan,1,0,0,0,0,nan,nan,nan,nan,nan,nan,nan,nan,nan,nan,nan,0,0,0,0,0,nan,nan,nan,nan,nan,nan,nan,nan,nan,nan,nan,0,0,0,0,0,nan,nan,nan,nan,nan,nan,nan,nan,nan,nan,nan,0,0,0,0,0,nan,nan,nan,nan,nan,nan,nan,nan,nan,nan,nan,0,0,0,0
176458878,0,0,0,0,0,0,0,0,0,nan,nan,-0.99235815,nan,nan,-0.99235815,nan,nan,-0.99235815,2.9830399,nan,1,0,0,0,0,nan,nan,nan,nan,nan,nan,nan,nan,nan,nan,nan,0,0,0,0,0,nan,nan,nan,nan,nan,nan,nan,nan,nan,nan,nan,0,0,0,0,0,nan,nan,nan,nan,nan,nan,nan,nan,nan,nan,nan,0,0,0,0,0,nan,nan,nan,nan,nan,nan,nan,nan,nan,nan,nan,0,0,0,0
176466189,0,0,0,0,0,0,0,0,0,nan,nan,-0.9923758,nan,nan,-0.9923758,nan,nan,-0.9923758,2.9830496,nan,1,0,0,0,0,nan,nan,nan,nan,nan,nan,nan,nan,nan,nan,nan,0,0,0,0,0,nan,nan,nan,nan,nan,nan,nan,nan,nan,nan,nan,0,0,0,0,0,nan,nan,nan,nan,nan,nan,nan,nan,nan,nan,nan,0,0,0,0,0,nan,nan,nan,nan,nan,nan,nan,nan,nan,nan,nan,0,0,0,0
176474041,0,0,0,0,0,0,0,0,0,nan,nan,-0.99239695,nan,nan,-0.99239695,nan,nan,-0.99239695,2.9830403,nan,1,0,0,0,0,nan,nan,nan,nan,nan,nan,nan,nan,nan,nan,nan,0,0,0,0,0,nan,nan,nan,nan,nan,nan,nan,nan,nan,nan,nan,0,0,0,0,0,nan,nan,nan,nan,nan,nan,nan,nan,nan,nan,nan,0,0,0,0,0,nan,nan,nan,nan,nan,nan,nan,nan,nan,nan,nan,0,0,0,0
176482838,0,0,0,0,0,0,0,0,0,nan,nan,-0.99242467,nan,nan,-0.99242467,nan,nan,-0.99242467,2.9830315,nan,1,0,0,0,0,nan,nan,nan,nan,nan,nan,nan,nan,nan,nan,nan,0,0,0,0,0,nan,nan,nan,nan,nan,nan,nan,nan,nan,nan,nan,0,0,0,0,0,nan,nan,nan,nan,nan,nan,nan,nan,nan,nan,nan,0,0,0,0,0,nan,nan,nan,nan,nan,nan,nan,nan,nan,nan,nan,0,0,0,0
176490025,0,0,0,0,0,0,0,0,0,nan,nan,-0.9923484,nan,nan,-0.9923484,nan,nan,-0.9923484,2.9830081,nan,1,0,0,0,0,nan,nan,nan,nan,nan,nan,nan,nan,nan,nan,nan,0,0,0,0,0,nan,nan,nan,nan,nan,nan,nan,nan,nan,nan,nan,0,0,0,0,0,nan,nan,nan,nan,nan,nan,nan,nan,nan,nan,nan,0,0,0,0,0,nan,nan,nan,nan,nan,nan,nan,nan,nan,nan,nan,0,0,0,0
176498201,0,0,0,0,0,0,0,0,0,nan,nan,-0.99227947,nan,nan,-0.99227947,nan,nan,-0.99227947,2.982967,nan,1,0,0,0,0,nan,nan,nan,nan,nan,nan,nan,nan,nan,nan,nan,0,0,0,0,0,nan,nan,nan,nan,nan,nan,nan,nan,nan,nan,nan,0,0,0,0,0,nan,nan,nan,nan,nan,nan,nan,nan,nan,nan,nan,0,0,0,0,0,nan,nan,nan,nan,nan,nan,nan,nan,nan,nan,nan,0,0,0,0
176507168,0,0,0,0,0,0,0,0,0,nan,nan,-0.99221444,nan,nan,-0.99221444,nan,nan,-0.99221444,2.982921,nan,1,0,0,0,0,nan,nan,nan,nan,nan,nan,nan,nan,nan,nan,nan,0,0,0,0,0,nan,nan,nan,nan,nan,nan,nan,nan,nan,nan,nan,0,0,0,0,0,nan,nan,nan,nan,nan,nan,nan,nan,nan,nan,nan,0,0,0,0,0,nan,nan,nan,nan,nan,nan,nan,nan,nan,nan,nan,0,0,0,0
176514071,0,0,0,0,0,0,0,0,0,nan,nan,-0.99206764,nan,nan,-0.99206764,nan,nan,-0.99206764,2.9828575,nan,1,0,0,0,0,nan,nan,nan,nan,nan,nan,nan,nan,nan,nan,nan,0,0,0,0,0,nan,nan,nan,nan,nan,nan,nan,nan,nan,nan,nan,0,0,0,0,0,nan,nan,nan,nan,nan,nan,nan,nan,nan,nan,nan,0,0,0,0,0,nan,nan,nan,nan,nan,nan,nan,nan,nan,nan,nan,0,0,0,0
176522650,0,0,0,0,0,0,0,0,0,nan,nan,-0.9919291,nan,nan,-0.9919291,nan,nan,-0.9919291,2.9828005,nan,1,0,0,0,0,nan,nan,nan,nan,nan,nan,nan,nan,nan,nan,nan,0,0,0,0,0,nan,nan,nan,nan,nan,nan,nan,nan,nan,nan,nan,0,0,0,0,0,nan,nan,nan,nan,nan,nan,nan,nan,nan,nan,nan,0,0,0,0,0,nan,nan,nan,nan,nan,nan,nan,nan,nan,nan,nan,0,0,0,0
176530356,0,0,0,0,0,0,0,0,0,nan,nan,-0.9918129,nan,nan,-0.9918129,nan,nan,-0.9918129,2.9827652,nan,1,0,0,0,0,nan,nan,nan,nan,nan,nan,nan,nan,nan,nan,nan,0,0,0,0,0,nan,nan,nan,nan,nan,nan,nan,nan,nan,nan,nan,0,0,0,0,0,nan,nan,nan,nan,nan,nan,nan,nan,nan,nan,nan,0,0,0,0,0,nan,nan,nan,nan,nan,nan,nan,nan,nan,nan,nan,0,0,0,0
176538297,0,0,0,0,0,0,0,0,0,nan,nan,-0.99170655,nan,nan,-0.99170655,nan,nan,-0.99170655,2.9827359,nan,1,0,0,0,0,nan,nan,nan,nan,nan,nan,nan,nan,nan,nan,nan,0,0,0,0,0,nan,nan,nan,nan,nan,nan,nan,nan,nan,nan,nan,0,0,0,0,0,nan,nan,nan,nan,nan,nan,nan,nan,nan,nan,nan,0,0,0,0,0,nan,nan,nan,nan,nan,nan,nan,nan,nan,nan,nan,0,0,0,0
176546621,0,0,0,0,0,0,0,0,0,nan,nan,-0.9916075,nan,nan,-0.9916075,nan,nan,-0.9916075,2.9827292,nan,1,0,0,0,0,nan,nan,nan,nan,nan,nan,nan,nan,nan,nan,nan,0,0,0,0,0,nan,nan,nan,nan,nan,nan,nan,nan,nan,nan,nan,0,0,0,0,0,nan,nan,nan,nan,nan,nan,nan,nan,nan,nan,nan,0,0,0,0,0,nan,nan,nan,nan,nan,nan,nan,nan,nan,nan,nan,0,0,0,0
176554250,0,0,0,0,0,0,0,0,0,nan,nan,-0.9915516,nan,nan,-0.9915516,nan,nan,-0.9915516,2.9827385,nan,1,0,0,0,0,nan,nan,nan,nan,nan,nan,nan,nan,nan,nan,nan,0,0,0,0,0,nan,nan,nan,nan,nan,nan,nan,nan,nan,nan,nan,0,0,0,0,0,nan,nan,nan,nan,nan,nan,nan,nan,nan,nan,nan,0,0,0,0,0,nan,nan,nan,nan,nan,nan,nan,nan,nan,nan,nan,0,0,0,0
176562024,0,0,0,0,0,0,0,0,0,nan,nan,-0.9914998,nan,nan,-0.9914998,nan,nan,-0.9914998,2.9827585,nan,1,0,0,0,0,nan,nan,nan,nan,nan,nan,nan,nan,nan,nan,nan,0,0,0,0,0,nan,nan,nan,nan,nan,nan,nan,nan,nan,nan,nan,0,0,0,0,0,nan,nan,nan,nan,nan,nan,nan,nan,nan,nan,nan,0,0,0,0,0,nan,nan,nan,nan,nan,nan,nan,nan,nan,nan,nan,0,0,0,0
176570793,0,0,0,0,0,0,0,0,0,nan,nan,-0.99145126,nan,nan,-0.99145126,nan,nan,-0.99145126,2.9827893,nan,1,0,0,0,0,nan,nan,nan,nan,nan,nan,nan,nan,nan,nan,nan,0,0,0,0,0,nan,nan,nan,nan,nan,nan,nan,nan,nan,nan,nan,0,0,0,0,0,nan,nan,nan,nan,nan,nan,nan,nan,nan,nan,nan,0,0,0,0,0,nan,nan,nan,nan,nan,nan,nan,nan,nan,nan,nan,0,0,0,0
176578339,0,0,0,0,0,0,0,0,0,nan,nan,-0.99133915,nan,nan,-0.99133915,nan,nan,-0.99133915,2.9828353,nan,1,0,0,0,0,nan,nan,nan,nan,nan,nan,nan,nan,nan,nan,nan,0,0,0,0,0,nan,nan,nan,nan,nan,nan,nan,nan,nan,nan,nan,0,0,0,0,0,nan,nan,nan,nan,nan,nan,nan,nan,nan,nan,nan,0,0,0,0,0,nan,nan,nan,nan,nan,nan,nan,nan,nan,nan,nan,0,0,0,0
176586117,0,0,0,0,0,0,0,0,0,nan,nan,-0.99123406,nan,nan,-0.99123406,nan,nan,-0.99123406,2.9828682,nan,1,0,0,0,0,nan,nan,nan,nan,nan,nan,nan,nan,nan,nan,nan,0,0,0,0,0,nan,nan,nan,nan,nan,nan,nan,nan,nan,nan,nan,0,0,0,0,0,nan,nan,nan,nan,nan,nan,nan,nan,nan,nan,nan,0,0,0,0,0,nan,nan,nan,nan,nan,nan,nan,nan,nan,nan,nan,0,0,0,0
176594792,0,0,0,0,0,0,0,0,0,nan,nan,-0.99113786,nan,nan,-0.99113786,nan,nan,-0.99113786,2.9829066,nan,1,0,0,0,0,nan,nan,nan,nan,nan,nan,nan,nan,nan,nan,nan,0,0,0,0,0,nan,nan,nan,nan,nan,nan,nan,nan,nan,nan,nan,0,0,0,0,0,nan,nan,nan,nan,nan,nan,nan,nan,nan,nan,nan,0,0,0,0,0,nan,nan,nan,nan,nan,nan,nan,nan,nan,nan,nan,0,0,0,0
176602255,0,0,0,0,0,0,0,0,0,nan,nan,-0.9910426,nan,nan,-0.9910426,nan,nan,-0.9910426,2.982935,nan,1,0,0,0,0,nan,nan,nan,nan,nan,nan,nan,nan,nan,nan,nan,0,0,0,0,0,nan,nan,nan,nan,nan,nan,nan,nan,nan,nan,nan,0,0,0,0,0,nan,nan,nan,nan,nan,nan,nan,nan,nan,nan,nan,0,0,0,0,0,nan,nan,nan,nan,nan,nan,nan,nan,nan,nan,nan,0,0,0,0
176610724,0,0,0,0,0,0,0,0,0,nan,nan,-0.990954,nan,nan,-0.990954,nan,nan,-0.990954,2.9829583,nan,1,0,0,0,0,nan,nan,nan,nan,nan,nan,nan,nan,nan,nan,nan,0,0,0,0,0,nan,nan,nan,nan,nan,nan,nan,nan,nan,nan,nan,0,0,0,0,0,nan,nan,nan,nan,nan,nan,nan,nan,nan,nan,nan,0,0,0,0,0,nan,nan,nan,nan,nan,nan,nan,nan,nan,nan,nan,0,0,0,0
176618294,0,0,0,0,0,0,0,0,0,nan,nan,-0.9908057,nan,nan,-0.9908057,nan,nan,-0.9908057,2.9829655,nan,1,0,0,0,0,nan,nan,nan,nan,nan,nan,nan,nan,nan,nan,nan,0,0,0,0,0,nan,nan,nan,nan,nan,nan,nan,nan,nan,nan,nan,0,0,0,0,0,nan,nan,nan,nan,nan,nan,nan,nan,nan,nan,nan,0,0,0,0,0,nan,nan,nan,nan,nan,nan,nan,nan,nan,nan,nan,0,0,0,0
176626330,0,0,0,0,0,0,0,0,0,nan,nan,-0.99066454,nan,nan,-0.99066454,nan,nan,-0.99066454,2.9829493,nan,1,0,0,0,0,nan,nan,nan,nan,nan,nan,nan,nan,nan,nan,nan,0,0,0,0,0,nan,nan,nan,nan,nan,nan,nan,nan,nan,nan,nan,0,0,0,0,0,nan,nan,nan,nan,nan,nan,nan,nan,nan,nan,nan,0,0,0,0,0,nan,nan,nan,nan,nan,nan,nan,nan,nan,nan,nan,0,0,0,0
176634521,0,0,0,0,0,0,0,0,0,nan,nan,-0.9905312,nan,nan,-0.9905312,nan,nan,-0.9905312,2.9829154,nan,1,0,0,0,0,nan,nan,nan,nan,nan,nan,nan,nan,nan,nan,nan,0,0,0,0,0,nan,nan,nan,nan,nan,nan,nan,nan,nan,nan,nan,0,0,0,0,0,nan,nan,nan,nan,nan,nan,nan,nan,nan,nan,nan,0,0,0,0,0,nan,nan,nan,nan,nan,nan,nan,nan,nan,nan,nan,0,0,0,0
176642245,0,0,0,0,0,0,0,0,0,nan,nan,-0.99035925,nan,nan,-0.99035925,nan,nan,-0.99035925,2.982873,nan,1,0,0,0,0,nan,nan,nan,nan,nan,nan,nan,nan,nan,nan,nan,0,0,0,0,0,nan,nan,nan,nan,nan,nan,nan,nan,nan,nan,nan,0,0,0,0,0,nan,nan,nan,nan,nan,nan,nan,nan,nan,nan,nan,0,0,0,0,0,nan,nan,nan,nan,nan,nan,nan,nan,nan,nan,nan,0,0,0,0
176650006,0,0,0,0,0,0,0,0,0,nan,nan,-0.99019516,nan,nan,-0.99019516,nan,nan,-0.99019516,2.982837,nan,1,0,0,0,0,nan,nan,nan,nan,nan,nan,nan,nan,nan,nan,nan,0,0,0,0,0,nan,nan,nan,nan,nan,nan,nan,nan,nan,nan,nan,0,0,0,0,0,nan,nan,nan,nan,nan,nan,nan,nan,nan,nan,nan,0,0,0,0,0,nan,nan,nan,nan,nan,nan,nan,nan,nan,nan,nan,0,0,0,0
176658621,0,0,0,0,0,0,0,0,0,nan,nan,-0.9900379,nan,nan,-0.9900379,nan,nan,-0.9900379,2.982806,nan,1,0,0,0,0,nan,nan,nan,nan,nan,nan,nan,nan,nan,nan,nan,0,0,0,0,0,nan,nan,nan,nan,nan,nan,nan,nan,nan,nan,nan,0,0,0,0,0,nan,nan,nan,nan,nan,nan,nan,nan,nan,nan,nan,0,0,0,0,0,nan,nan,nan,nan,nan,nan,nan,nan,nan,nan,nan,0,0,0,0
176666555,0,0,0,0,0,0,0,0,0,nan,nan,-0.98984414,nan,nan,-0.98984414,nan,nan,-0.98984414,2.9827611,nan,1,0,0,0,0,nan,nan,nan,nan,nan,nan,nan,nan,nan,nan,nan,0,0,0,0,0,nan,nan,nan,nan,nan,nan,nan,nan,nan,nan,nan,0,0,0,0,0,nan,nan,nan,nan,nan,nan,nan,nan,nan,nan,nan,0,0,0,0,0,nan,nan,nan,nan,nan,nan,nan,nan,nan,nan,nan,0,0,0,0
176673968,0,0,0,0,0,0,0,0,0,nan,nan,-0.98966044,nan,nan,-0.98966044,nan,nan,-0.98966044,2.9827254,nan,1,0,0,0,0,nan,nan,nan,nan,nan,nan,nan,nan,nan,nan,nan,0,0,0,0,0,nan,nan,nan,nan,nan,nan,nan,nan,nan,nan,nan,0,0,0,0,0,nan,nan,nan,nan,nan,nan,nan,nan,nan,nan,nan,0,0,0,0,0,nan,nan,nan,nan,nan,nan,nan,nan,nan,nan,nan,0,0,0,0
176682599,0,0,0,0,0,0,0,0,0,nan,nan,-0.98948467,nan,nan,-0.98948467,nan,nan,-0.98948467,2.982705,nan,1,0,0,0,0,nan,nan,nan,nan,nan,nan,nan,nan,nan,nan,nan,0,0,0,0,0,nan,nan,nan,nan,nan,nan,nan,nan,nan,nan,nan,0,0,0,0,0,nan,nan,nan,nan,nan,nan,nan,nan,nan,nan,nan,0,0,0,0,0,nan,nan,nan,nan,nan,nan,nan,nan,nan,nan,nan,0,0,0,0
176690230,0,0,0,0,0,0,0,0,0,nan,nan,-0.98939854,nan,nan,-0.98939854,nan,nan,-0.98939854,2.9826887,nan,1,0,0,0,0,nan,nan,nan,nan,nan,nan,nan,nan,nan,nan,nan,0,0,0,0,0,nan,nan,nan,nan,nan,nan,nan,nan,nan,nan,nan,0,0,0,0,0,nan,nan,nan,nan,nan,nan,nan,nan,nan,nan,nan,0,0,0,0,0,nan,nan,nan,nan,nan,nan,nan,nan,nan,nan,nan,0,0,0,0
176698637,0,0,0,0,0,0,0,0,0,nan,nan,-0.98931915,nan,nan,-0.98931915,nan,nan,-0.98931915,2.9826994,nan,1,0,0,0,0,nan,nan,nan,nan,nan,nan,nan,nan,nan,nan,nan,0,0,0,0,0,nan,nan,nan,nan,nan,nan,nan,nan,nan,nan,nan,0,0,0,0,0,nan,nan,nan,nan,nan,nan,nan,nan,nan,nan,nan,0,0,0,0,0,nan,nan,nan,nan,nan,nan,nan,nan,nan,nan,nan,0,0,0,0
176706106,0,0,0,0,0,0,0,0,0,nan,nan,-0.9893019,nan,nan,-0.9893019,nan,nan,-0.9893019,2.982716,nan,1,0,0,0,0,nan,nan,nan,nan,nan,nan,nan,nan,nan,nan,nan,0,0,0,0,0,nan,nan,nan,nan,nan,nan,nan,nan,nan,nan,nan,0,0,0,0,0,nan,nan,nan,nan,nan,nan,nan,nan,nan,nan,nan,0,0,0,0,0,nan,nan,nan,nan,nan,nan,nan,nan,nan,nan,nan,0,0,0,0
176714255,0,0,0,0,0,0,0,0,0,nan,nan,-0.9892889,nan,nan,-0.9892889,nan,nan,-0.9892889,2.9827418,nan,1,0,0,0,0,nan,nan,nan,nan,nan,nan,nan,nan,nan,nan,nan,0,0,0,0,0,nan,nan,nan,nan,nan,nan,nan,nan,nan,nan,nan,0,0,0,0,0,nan,nan,nan,nan,nan,nan,nan,nan,nan,nan,nan,0,0,0,0,0,nan,nan,nan,nan,nan,nan,nan,nan,nan,nan,nan,0,0,0,0
176722526,0,0,0,0,0,0,0,0,0,nan,nan,-0.98928094,nan,nan,-0.98928094,nan,nan,-0.98928094,2.982776,nan,1,0,0,0,0,nan,nan,nan,nan,nan,nan,nan,nan,nan,nan,nan,0,0,0,0,0,nan,nan,nan,nan,nan,nan,nan,nan,nan,nan,nan,0,0,0,0,0,nan,nan,nan,nan,nan,nan,nan,nan,nan,nan,nan,0,0,0,0,0,nan,nan,nan,nan,nan,nan,nan,nan,nan,nan,nan,0,0,0,0
176729965,0,0,0,0,0,0,0,0,0,nan,nan,-0.98914605,nan,nan,-0.98914605,nan,nan,-0.98914605,2.9828222,nan,1,0,0,0,0,nan,nan,nan,nan,nan,nan,nan,nan,nan,nan,nan,0,0,0,0,0,nan,nan,nan,nan,nan,nan,nan,nan,nan,nan,nan,0,0,0,0,0,nan,nan,nan,nan,nan,nan,nan,nan,nan,nan,nan,0,0,0,0,0,nan,nan,nan,nan,nan,nan,nan,nan,nan,nan,nan,0,0,0,0
176738905,0,0,0,0,0,0,0,0,0,nan,nan,-0.9890166,nan,nan,-0.9890166,nan,nan,-0.9890166,2.982866,nan,1,0,0,0,0,nan,nan,nan,nan,nan,nan,nan,nan,nan,nan,nan,0,0,0,0,0,nan,nan,nan,nan,nan,nan,nan,nan,nan,nan,nan,0,0,0,0,0,nan,nan,nan,nan,nan,nan,nan,nan,nan,nan,nan,0,0,0,0,0,nan,nan,nan,nan,nan,nan,nan,nan,nan,nan,nan,0,0,0,0
176746029,0,0,0,0,0,0,0,0,0,nan,nan,-0.9888713,nan,nan,-0.9888713,nan,nan,-0.9888713,2.982911,nan,1,0,0,0,0,nan,nan,nan,nan,nan,nan,nan,nan,nan,nan,nan,0,0,0,0,0,nan,nan,nan,nan,nan,nan,nan,nan,nan,nan,nan,0,0,0,0,0,nan,nan,nan,nan,nan,nan,nan,nan,nan,nan,nan,0,0,0,0,0,nan,nan,nan,nan,nan,nan,nan,nan,nan,nan,nan,0,0,0,0
176754050,0,0,0,0,0,0,0,0,0,nan,nan,-0.988733,nan,nan,-0.988733,nan,nan,-0.988733,2.9829612,nan,1,0,0,0,0,nan,nan,nan,nan,nan,nan,nan,nan,nan,nan,nan,0,0,0,0,0,nan,nan,nan,nan,nan,nan,nan,nan,nan,nan,nan,0,0,0,0,0,nan,nan,nan,nan,nan,nan,nan,nan,nan,nan,nan,0,0,0,0,0,nan,nan,nan,nan,nan,nan,nan,nan,nan,nan,nan,0,0,0,0
176762817,0,0,0,0,0,0,0,0,0,nan,nan,-0.9886013,nan,nan,-0.9886013,nan,nan,-0.9886013,2.9830313,nan,1,0,0,0,0,nan,nan,nan,nan,nan,nan,nan,nan,nan,nan,nan,0,0,0,0,0,nan,nan,nan,nan,nan,nan,nan,nan,nan,nan,nan,0,0,0,0,0,nan,nan,nan,nan,nan,nan,nan,nan,nan,nan,nan,0,0,0,0,0,nan,nan,nan,nan,nan,nan,nan,nan,nan,nan,nan,0,0,0,0
176769950,0,0,0,0,0,0,0,0,0,nan,nan,-0.9885938,nan,nan,-0.9885938,nan,nan,-0.9885938,2.9830916,nan,1,0,0,0,0,nan,nan,nan,nan,nan,nan,nan,nan,nan,nan,nan,0,0,0,0,0,nan,nan,nan,nan,nan,nan,nan,nan,nan,nan,nan,0,0,0,0,0,nan,nan,nan,nan,nan,nan,nan,nan,nan,nan,nan,0,0,0,0,0,nan,nan,nan,nan,nan,nan,nan,nan,nan,nan,nan,0,0,0,0
176778119,0,0,0,0,0,0,0,0,0,nan,nan,-0.9885891,nan,nan,-0.9885891,nan,nan,-0.9885891,2.9831195,nan,1,0,0,0,0,nan,nan,nan,nan,nan,nan,nan,nan,nan,nan,nan,0,0,0,0,0,nan,nan,nan,nan,nan,nan,nan,nan,nan,nan,nan,0,0,0,0,0,nan,nan,nan,nan,nan,nan,nan,nan,nan,nan,nan,0,0,0,0,0,nan,nan,nan,nan,nan,nan,nan,nan,nan,nan,nan,0,0,0,0
176786930,0,0,0,0,0,0,0,0,0,nan,nan,-0.9885887,nan,nan,-0.9885887,nan,nan,-0.9885887,2.9831243,nan,1,0,0,0,0,nan,nan,nan,nan,nan,nan,nan,nan,nan,nan,nan,0,0,0,0,0,nan,nan,nan,nan,nan,nan,nan,nan,nan,nan,nan,0,0,0,0,0,nan,nan,nan,nan,nan,nan,nan,nan,nan,nan,nan,0,0,0,0,0,nan,nan,nan,nan,nan,nan,nan,nan,nan,nan,nan,0,0,0,0
176793955,0,0,0,0,0,0,0,0,0,nan,nan,-0.9887311,nan,nan,-0.9887311,nan,nan,-0.9887311,2.9830997,nan,1,0,0,0,0,nan,nan,nan,nan,nan,nan,nan,nan,nan,nan,nan,0,0,0,0,0,nan,nan,nan,nan,nan,nan,nan,nan,nan,nan,nan,0,0,0,0,0,nan,nan,nan,nan,nan,nan,nan,nan,nan,nan,nan,0,0,0,0,0,nan,nan,nan,nan,nan,nan,nan,nan,nan,nan,nan,0,0,0,0
176801930,0,0,0,0,0,0,0,0,0,nan,nan,-0.9888736,nan,nan,-0.9888736,nan,nan,-0.9888736,2.9830546,nan,1,0,0,0,0,nan,nan,nan,nan,nan,nan,nan,nan,nan,nan,nan,0,0,0,0,0,nan,nan,nan,nan,nan,nan,nan,nan,nan,nan,nan,0,0,0,0,0,nan,nan,nan,nan,nan,nan,nan,nan,nan,nan,nan,0,0,0,0,0,nan,nan,nan,nan,nan,nan,nan,nan,nan,nan,nan,0,0,0,0
176810823,0,0,0,0,0,0,0,0,0,nan,nan,-0.9890169,nan,nan,-0.9890169,nan,nan,-0.9890169,2.9829838,nan,1,0,0,0,0,nan,nan,nan,nan,nan,nan,nan,nan,nan,nan,nan,0,0,0,0,0,nan,nan,nan,nan,nan,nan,nan,nan,nan,nan,nan,0,0,0,0,0,nan,nan,nan,nan,nan,nan,nan,nan,nan,nan,nan,0,0,0,0,0,nan,nan,nan,nan,nan,nan,nan,nan,nan,nan,nan,0,0,0,0
176818106,0,0,0,0,0,0,0,0,0,nan,nan,-0.9891928,nan,nan,-0.9891928,nan,nan,-0.9891928,2.9829166,nan,1,0,0,0,0,nan,nan,nan,nan,nan,nan,nan,nan,nan,nan,nan,0,0,0,0,0,nan,nan,nan,nan,nan,nan,nan,nan,nan,nan,nan,0,0,0,0,0,nan,nan,nan,nan,nan,nan,nan,nan,nan,nan,nan,0,0,0,0,0,nan,nan,nan,nan,nan,nan,nan,nan,nan,nan,nan,0,0,0,0
176826736,0,0,0,0,0,0,0,0,0,nan,nan,-0.9893669,nan,nan,-0.9893669,nan,nan,-0.9893669,2.982846,nan,1,0,0,0,0,nan,nan,nan,nan,nan,nan,nan,nan,nan,nan,nan,0,0,0,0,0,nan,nan,nan,nan,nan,nan,nan,nan,nan,nan,nan,0,0,0,0,0,nan,nan,nan,nan,nan,nan,nan,nan,nan,nan,nan,0,0,0,0,0,nan,nan,nan,nan,nan,nan,nan,nan,nan,nan,nan,0,0,0,0
176834233,0,0,0,0,0,0,0,0,0,nan,nan,-0.9894919,nan,nan,-0.9894919,nan,nan,-0.9894919,2.98278,nan,1,0,0,0,0,nan,nan,nan,nan,nan,nan,nan,nan,nan,nan,nan,0,0,0,0,0,nan,nan,nan,nan,nan,nan,nan,nan,nan,nan,nan,0,0,0,0,0,nan,nan,nan,nan,nan,nan,nan,nan,nan,nan,nan,0,0,0,0,0,nan,nan,nan,nan,nan,nan,nan,nan,nan,nan,nan,0,0,0,0
176841984,0,0,0,0,0,0,0,0,0,nan,nan,-0.98961693,nan,nan,-0.98961693,nan,nan,-0.98961693,2.9827282,nan,1,0,0,0,0,nan,nan,nan,nan,nan,nan,nan,nan,nan,nan,nan,0,0,0,0,0,nan,nan,nan,nan,nan,nan,nan,nan,nan,nan,nan,0,0,0,0,0,nan,nan,nan,nan,nan,nan,nan,nan,nan,nan,nan,0,0,0,0,0,nan,nan,nan,nan,nan,nan,nan,nan,nan,nan,nan,0,0,0,0
176850550,0,0,0,0,0,0,0,0,0,nan,nan,-0.9897421,nan,nan,-0.9897421,nan,nan,-0.9897421,2.9826818,nan,1,0,0,0,0,nan,nan,nan,nan,nan,nan,nan,nan,nan,nan,nan,0,0,0,0,0,nan,nan,nan,nan,nan,nan,nan,nan,nan,nan,nan,0,0,0,0,0,nan,nan,nan,nan,nan,nan,nan,nan,nan,nan,nan,0,0,0,0,0,nan,nan,nan,nan,nan,nan,nan,nan,nan,nan,nan,0,0,0,0
176858311,0,0,0,0,0,0,0,0,0,nan,nan,-0.9897374,nan,nan,-0.9897374,nan,nan,-0.9897374,2.9826407,nan,1,0,0,0,0,nan,nan,nan,nan,nan,nan,nan,nan,nan,nan,nan,0,0,0,0,0,nan,nan,nan,nan,nan,nan,nan,nan,nan,nan,nan,0,0,0,0,0,nan,nan,nan,nan,nan,nan,nan,nan,nan,nan,nan,0,0,0,0,0,nan,nan,nan,nan,nan,nan,nan,nan,nan,nan,nan,0,0,0,0
176865974,0,0,0,0,0,0,0,0,0,nan,nan,-0.9897333,nan,nan,-0.9897333,nan,nan,-0.9897333,2.982614,nan,1,0,0,0,0,nan,nan,nan,nan,nan,nan,nan,nan,nan,nan,nan,0,0,0,0,0,nan,nan,nan,nan,nan,nan,nan,nan,nan,nan,nan,0,0,0,0,0,nan,nan,nan,nan,nan,nan,nan,nan,nan,nan,nan,0,0,0,0,0,nan,nan,nan,nan,nan,nan,nan,nan,nan,nan,nan,0,0,0,0
176874596,0,0,0,0,0,0,0,0,0,nan,nan,-0.9897336,nan,nan,-0.9897336,nan,nan,-0.9897336,2.9826152,nan,1,0,0,0,0,nan,nan,nan,nan,nan,nan,nan,nan,nan,nan,nan,0,0,0,0,0,nan,nan,nan,nan,nan,nan,nan,nan,nan,nan,nan,0,0,0,0,0,nan,nan,nan,nan,nan,nan,nan,nan,nan,nan,nan,0,0,0,0,0,nan,nan,nan,nan,nan,nan,nan,nan,nan,nan,nan,0,0,0,0
176882386,0,0,0,0,0,0,0,0,0,nan,nan,-0.98967004,nan,nan,-0.98967004,nan,nan,-0.98967004,2.982658,nan,1,0,0,0,0,nan,nan,nan,nan,nan,nan,nan,nan,nan,nan,nan,0,0,0,0,0,nan,nan,nan,nan,nan,nan,nan,nan,nan,nan,nan,0,0,0,0,0,nan,nan,nan,nan,nan,nan,nan,nan,nan,nan,nan,0,0,0,0,0,nan,nan,nan,nan,nan,nan,nan,nan,nan,nan,nan,0,0,0,0
176889968,0,0,0,0,0,0,0,0,0,nan,nan,-0.9896134,nan,nan,-0.9896134,nan,nan,-0.9896134,2.9827006,nan,1,0,0,0,0,nan,nan,nan,nan,nan,nan,nan,nan,nan,nan,nan,0,0,0,0,0,nan,nan,nan,nan,nan,nan,nan,nan,nan,nan,nan,0,0,0,0,0,nan,nan,nan,nan,nan,nan,nan,nan,nan,nan,nan,0,0,0,0,0,nan,nan,nan,nan,nan,nan,nan,nan,nan,nan,nan,0,0,0,0
176898971,0,0,0,0,0,0,0,0,0,nan,nan,-0.9895604,nan,nan,-0.9895604,nan,nan,-0.9895604,2.9827664,nan,1,0,0,0,0,nan,nan,nan,nan,nan,nan,nan,nan,nan,nan,nan,0,0,0,0,0,nan,nan,nan,nan,nan,nan,nan,nan,nan,nan,nan,0,0,0,0,0,nan,nan,nan,nan,nan,nan,nan,nan,nan,nan,nan,0,0,0,0,0,nan,nan,nan,nan,nan,nan,nan,nan,nan,nan,nan,0,0,0,0
176906638,0,0,0,0,0,0,0,0,0,nan,nan,-0.9894674,nan,nan,-0.9894674,nan,nan,-0.9894674,2.9828444,nan,1,0,0,0,0,nan,nan,nan,nan,nan,nan,nan,nan,nan,nan,nan,0,0,0,0,0,nan,nan,nan,nan,nan,nan,nan,nan,nan,nan,nan,0,0,0,0,0,nan,nan,nan,nan,nan,nan,nan,nan,nan,nan,nan,0,0,0,0,0,nan,nan,nan,nan,nan,nan,nan,nan,nan,nan,nan,0,0,0,0
176914612,0,0,0,0,0,0,0,0,0,nan,nan,-0.9893806,nan,nan,-0.9893806,nan,nan,-0.9893806,2.9828863,nan,1,0,0,0,0,nan,nan,nan,nan,nan,nan,nan,nan,nan,nan,nan,0,0,0,0,0,nan,nan,nan,nan,nan,nan,nan,nan,nan,nan,nan,0,0,0,0,0,nan,nan,nan,nan,nan,nan,nan,nan,nan,nan,nan,0,0,0,0,0,nan,nan,nan,nan,nan,nan,nan,nan,nan,nan,nan,0,0,0,0
176922553,0,0,0,0,0,0,0,0,0,nan,nan,-0.9892728,nan,nan,-0.9892728,nan,nan,-0.9892728,2.9829087,nan,1,0,0,0,0,nan,nan,nan,nan,nan,nan,nan,nan,nan,nan,nan,0,0,0,0,0,nan,nan,nan,nan,nan,nan,nan,nan,nan,nan,nan,0,0,0,0,0,nan,nan,nan,nan,nan,nan,nan,nan,nan,nan,nan,0,0,0,0,0,nan,nan,nan,nan,nan,nan,nan,nan,nan,nan,nan,0,0,0,0
176930016,0,0,0,0,0,0,0,0,0,nan,nan,-0.9891719,nan,nan,-0.9891719,nan,nan,-0.9891719,2.982914,nan,1,0,0,0,0,nan,nan,nan,nan,nan,nan,nan,nan,nan,nan,nan,0,0,0,0,0,nan,nan,nan,nan,nan,nan,nan,nan,nan,nan,nan,0,0,0,0,0,nan,nan,nan,nan,nan,nan,nan,nan,nan,nan,nan,0,0,0,0,0,nan,nan,nan,nan,nan,nan,nan,nan,nan,nan,nan,0,0,0,0
176938717,0,0,0,0,0,0,0,0,0,nan,nan,-0.9890767,nan,nan,-0.9890767,nan,nan,-0.9890767,2.9829237,nan,1,0,0,0,0,nan,nan,nan,nan,nan,nan,nan,nan,nan,nan,nan,0,0,0,0,0,nan,nan,nan,nan,nan,nan,nan,nan,nan,nan,nan,0,0,0,0,0,nan,nan,nan,nan,nan,nan,nan,nan,nan,nan,nan,0,0,0,0,0,nan,nan,nan,nan,nan,nan,nan,nan,nan,nan,nan,0,0,0,0
