timestamp,heartbeat_time,data_rate,rate_multiplier,rate_rx,rate_tx,rate_txerr,type,system_id,component_id,mode,flow_control,forwarding,mavlink_v2,ftp,streams
174760554,173754538,1200.0,0.5554295,0.13869044,1.1873498,0.0,0,255,0,0,0,1,1,0,34
175760590,174760554,1200.0,0.3540174,0.57437104,2.1558857,0.0,0,255,0,0,0,1,1,0,34
176763583,175760590,1200.0,0.3540174,0.38197133,1.917856,0.0,0,255,0,0,0,1,1,0,34
177764728,176763583,1200.0,0.3540174,0.13467678,1.3220111,0.0,0,255,0,0,0,1,1,0,34
178771825,177764728,1200.0,0.3540174,0.11280811,1.2518705,0.0,0,255,0,0,0,1,1,0,34
179776662,178771825,1200.0,0.3540174,0.33366334,1.4930692,0.0,0,255,0,0,0,1,1,0,34
180783970,179776662,1200.0,0.3540174,0.4235375,1.9258969,0.0,0,255,0,0,0,1,1,0,34
181786308,179776662,1200.0,0.3540174,0.36604527,1.7756668,0.0,0,255,0,0,0,1,1,0,34
182790053,181786308,1200.0,0.3540174,0.2236776,1.7307676,0.0,0,255,0,0,0,1,1,0,34
183791149,182790053,1200.0,0.3540174,0.19291818,1.2314777,0.0,0,255,0,0,0,1,1,0,34
184795903,183791149,1200.0,0.3540174,0.21844251,1.1480701,0.0,0,255,0,0,0,1,1,0,34
186803930,185799548,1200.0,0.3540174,0.112628095,1.2807708,0.0,0,255,0,0,0,1,1,0,34
187814333,186803930,1200.0,0.3540174,0.13470054,1.0082731,0.0,0,255,0,0,0,1,1,0,34
188822979,186803930,1200.0,0.3540174,0.2659984,1.65799,0.0,0,255,0,0,0,1,1,0,34
189823552,188822979,1200.0,0.3540174,0.11236692,1.053067,0.0,0,255,0,0,0,1,1,0,34
190832715,188822979,1200.0,0.3540174,0.13524653,1.347493,0.0,0,255,0,0,0,1,1,0,34
191842527,190832715,1200.0,0.3540174,0.11221015,1.3326195,0.0,0,255,0,0,0,1,1,0,34
192847035,191842527,1200.0,0.3540174,0.40006304,1.858647,0.0,0,255,0,0,0,1,1,0,34
193847921,192847035,1200.0,0.3540174,0.11250576,0.9259323,0.0,0,255,0,0,0,1,1,0,34
194851155,193847921,1200.0,0.3540174,0.094517395,1.2725025,0.0,0,255,0,0,0,1,1,0,34
195855598,194851155,1200.0,0.3540174,0.11252671,1.2487477,0.0,0,255,0,0,0,1,1,0,34
196861274,194851155,1200.0,0.3540174,0.62781495,2.362253,0.0,0,255,0,0,0,1,1,0,34
197867819,196861274,1200.0,0.3540174,0.30361006,1.6514395,0.0,0,255,0,0,0,1,1,0,34
198868583,197867819,1200.0,0.3540174,0.272602,1.3610129,0.0,0,255,0,0,0,1,1,0,34
199877785,198868583,1200.0,0.3540174,0.1761038,1.6884077,0.0,0,255,0,0,0,1,1,0,34
200881730,199877785,1200.0,0.3540174,0.19104351,1.3531424,0.0,0,255,0,0,0,1,1,0,34
201891397,200881730,1200.0,0.3540174,0.17618497,1.297,0.0,0,255,0,0,0,1,1,0,34
202902010,201891397,1200.0,0.3540174,0.16067319,1.1646311,0.0,0,255,0,0,0,1,1,0,34
203906584,202902010,1200.0,0.3540174,0.111442916,1.2554587,0.0,0,255,0,0,0,1,1,0,34
204910618,202902010,1200.0,0.3540174,0.13886945,1.1689012,0.0,0,255,0,0,0,1,1,0,34
205916253,204910618,1200.0,0.3540174,0.41576904,2.0143464,0.0,0,255,0,0,0,1,1,0,34
206922641,205916253,1200.0,0.3540174,0.32254937,1.4999046,0.0,0,255,0,0,0,1,1,0,34
207922932,206922641,1200.0,0.3540174,0.1847897,1.2675574,0.0,0,255,0,0,0,1,1,0,34
208932350,207922932,1200.0,0.3540174,0.068604834,1.3263601,0.0,0,255,0,0,0,1,1,0,34
209933260,208932350,1200.0,0.3540174,0.11294398,1.2283907,0.0,0,255,0,0,0,1,1,0,34
210943415,209933260,1200.0,0.3540174,0.29798704,1.613684,0.0,0,255,0,0,0,1,1,0,34
211948548,210943415,1200.0,0.3540174,0.51175845,1.8624816,0.0,0,255,0,0,0,1,1,0,34
213965878,212957226,1200.0,0.3540174,0.29249805,1.9057297,0.0,0,255,0,0,0,1,1,0,34
214973001,213965878,1200.0,0.3540174,0.42586634,1.9158998,0.0,0,255,0,0,0,1,1,0,34
215983637,214973001,1200.0,0.3540174,0.37066957,1.2978404,0.0,0,255,0,0,0,1,1,0,34
216993008,215983637,1200.0,0.3540174,0.17148553,1.5902293,0.0,0,255,0,0,0,1,1,0,34
218001480,216993008,1200.0,0.3540174,0.23657699,1.3735441,0.0,0,255,0,0,0,1,1,0,34
219003750,218001480,1200.0,0.3540174,0.1129108,1.153089,0.0,0,255,0,0,0,1,1,0,34
220008548,219003750,1200.0,0.3540174,0.11272045,1.397534,0.0,0,255,0,0,0,1,1,0,34
221016669,220008548,1200.0,0.3540174,0.21635869,1.1066052,0.0,0,255,0,0,0,1,1,0,34
222021925,221016669,1200.0,0.3540174,0.27145568,1.584983,0.0,0,255,0,0,0,1,1,0,34
223023905,221016669,1200.0,0.3540174,0.21892375,1.594163,0.0,0,255,0,0,0,1,1,0,34
224029932,223023905,1200.0,0.3540174,0.116974846,1.2937218,0.0,0,255,0,0,0,1,1,0,34
225031907,224029932,1200.0,0.3540174,0.15911768,0.9845407,0.0,0,255,0,0,0,1,1,0,34
226032596,225031907,1200.0,0.3540174,0.28584766,1.6498058,0.0,0,255,0,0,0,1,1,0,34
227039822,226032596,1200.0,0.3540174,0.27298716,1.5699261,0.0,0,255,0,0,0,1,1,0,34
228045819,227039822,1200.0,0.3540174,0.13454263,1.4661189,0.0,0,255,0,0,0,1,1,0,34
229052116,228045819,1200.0,0.3540174,0.09695094,1.0284796,0.0,0,255,0,0,0,1,1,0,34
230054735,229052116,1200.0,0.3540174,0.084520176,0.93966544,0.0,0,255,0,0,0,1,1,0,34
231060552,230054735,1200.0,0.3540174,0.27869204,1.626203,0.0,0,255,0,0,0,1,1,0,34
232062238,231060552,1200.0,0.3540174,0.19199108,1.4812161,0.0,0,255,0,0,0,1,1,0,34
233064548,232062238,1200.0,0.3540174,0.17566773,1.1572236,0.0,0,255,0,0,0,1,1,0,34
234069383,233064548,1200.0,0.3540174,0.19164924,1.4666629,0.0,0,255,0,0,0,1,1,0,34
235076780,234069383,1200.0,0.3540174,0.24008411,1.2242306,0.0,0,255,0,0,0,1,1,0,34
236079570,235076780,1200.0,0.3540174,0.19296487,1.5117247,0.0,0,255,0,0,0,1,1,0,34
237082913,236079570,1200.0,0.3540174,0.13276474,1.4873643,0.0,0,255,0,0,0,1,1,0,34
238085734,237082913,1200.0,0.3540174,0.21391857,1.369673,0.0,0,255,0,0,0,1,1,0,34
239088920,238085734,1200.0,0.3540174,0.2528662,1.1513909,0.0,0,255,0,0,0,1,1,0,34
240091398,239088920,1200.0,0.3540174,0.15297262,1.3966202,0.0,0,255,0,0,0,1,1,0,34
241097918,240091398,1200.0,0.3540174,0.21427593,1.4285063,0.0,0,255,0,0,0,1,1,0,34
242102740,241097918,1200.0,0.3540174,0.19240028,1.4116,0.0,0,255,0,0,0,1,1,0,34
243104630,241097918,1200.0,0.3540174,0.1322157,1.3559563,0.0,0,255,0,0,0,1,1,0,34
244104734,243104630,1200.0,0.3540174,0.16088906,1.0179709,0.0,0,255,0,0,0,1,1,0,34
245106730,244104734,1200.0,0.3540174,0.112217836,1.4707488,0.0,0,255,0,0,0,1,1,0,34
246114727,245106730,1200.0,0.3540174,0.2635171,1.6028974,0.0,0,255,0,0,0,1,1,0,34
247117497,246114727,1200.0,0.3540174,0.19942246,1.2992374,0.0,0,255,0,0,0,1,1,0,34
248119552,247117497,1200.0,0.3540174,0.11277085,1.1566496,0.0,0,255,0,0,0,1,1,0,34
249123473,248119552,1200.0,0.3540174,0.112801805,1.1689461,0.0,0,255,0,0,0,1,1,0,34
250130893,249123473,1200.0,0.3540174,0.17031668,1.1772767,0.0,0,255,0,0,0,1,1,0,34
251132624,250130893,1200.0,0.3540174,0.18228035,1.3915062,0.0,0,255,0,0,0,1,1,0,34
253143417,252136232,1200.0,0.3540174,0.11187431,1.1880457,0.0,0,255,0,0,0,1,1,0,34
254148548,253143417,1200.0,0.3540174,0.11280371,1.3127158,0.0,0,255,0,0,0,1,1,0,34
255150816,254148548,1200.0,0.3540174,0.13861851,1.225627,0.0,0,255,0,0,0,1,1,0,34
