timestamp,noutputs,output[0],output[1],output[2],output[3],output[4],output[5],output[6],output[7],output[8],output[9],output[10],output[11],output[12],output[13],output[14],output[15]
349500336,8,1075.0,1075.0,1075.0,1075.0,1075.0,1075.0,0.0,0.0,0.0,0.0,0.0,0.0,0.0,0.0,0.0,0.0
349589159,8,1075.0,1075.0,1075.0,1075.0,1075.0,1075.0,0.0,0.0,0.0,0.0,0.0,0.0,0.0,0.0,0.0,0.0
349703565,8,1075.0,1075.0,1075.0,1075.0,1075.0,1075.0,0.0,0.0,0.0,0.0,0.0,0.0,0.0,0.0,0.0,0.0
349791754,8,1075.0,1075.0,1075.0,1075.0,1075.0,1075.0,0.0,0.0,0.0,0.0,0.0,0.0,0.0,0.0,0.0,0.0
349903554,8,1075.0,1075.0,1075.0,1075.0,1075.0,1075.0,0.0,0.0,0.0,0.0,0.0,0.0,0.0,0.0,0.0,0.0
349991534,8,1075.0,1075.0,1075.0,1075.0,1075.0,1075.0,0.0,0.0,0.0,0.0,0.0,0.0,0.0,0.0,0.0,0.0
350099355,8,1075.0,1075.0,1075.0,1075.0,1075.0,1075.0,0.0,0.0,0.0,0.0,0.0,0.0,0.0,0.0,0.0,0.0
350207358,8,1075.0,1075.0,1075.0,1075.0,1075.0,1075.0,0.0,0.0,0.0,0.0,0.0,0.0,0.0,0.0,0.0,0.0
350294928,8,1075.0,1075.0,1075.0,1075.0,1075.0,1075.0,0.0,0.0,0.0,0.0,0.0,0.0,0.0,0.0,0.0,0.0
350402959,8,1075.0,1075.0,1075.0,1075.0,1075.0,1075.0,0.0,0.0,0.0,0.0,0.0,0.0,0.0,0.0,0.0,0.0
350510773,8,1075.0,1075.0,1075.0,1075.0,1075.0,1075.0,0.0,0.0,0.0,0.0,0.0,0.0,0.0,0.0,0.0,0.0
350602835,8,1075.0,1075.0,1075.0,1075.0,1075.0,1075.0,0.0,0.0,0.0,0.0,0.0,0.0,0.0,0.0,0.0,0.0
350714775,8,1075.0,1075.0,1075.0,1075.0,1075.0,1075.0,0.0,0.0,0.0,0.0,0.0,0.0,0.0,0.0,0.0,0.0
350818696,8,1075.0,1075.0,1075.0,1075.0,1075.0,1075.0,0.0,0.0,0.0,0.0,0.0,0.0,0.0,0.0,0.0,0.0
350906947,8,1075.0,1075.0,1075.0,1075.0,1075.0,1075.0,0.0,0.0,0.0,0.0,0.0,0.0,0.0,0.0,0.0,0.0
351010534,8,1075.0,1075.0,1075.0,1075.0,1075.0,1075.0,0.0,0.0,0.0,0.0,0.0,0.0,0.0,0.0,0.0,0.0
351122588,8,1075.0,1075.0,1075.0,1075.0,1075.0,1075.0,0.0,0.0,0.0,0.0,0.0,0.0,0.0,0.0,0.0,0.0
351209789,8,1075.0,1075.0,1075.0,1075.0,1075.0,1075.0,0.0,0.0,0.0,0.0,0.0,0.0,0.0,0.0,0.0,0.0
351321965,8,1075.0,1075.0,1075.0,1075.0,1075.0,1075.0,0.0,0.0,0.0,0.0,0.0,0.0,0.0,0.0,0.0,0.0
351425929,8,1075.0,1075.0,1075.0,1075.0,1075.0,1075.0,0.0,0.0,0.0,0.0,0.0,0.0,0.0,0.0,0.0,0.0
351514161,8,1075.0,1075.0,1075.0,1075.0,1075.0,1075.0,0.0,0.0,0.0,0.0,0.0,0.0,0.0,0.0,0.0,0.0
351622157,8,1075.0,1075.0,1075.0,1075.0,1075.0,1075.0,0.0,0.0,0.0,0.0,0.0,0.0,0.0,0.0,0.0,0.0
351717956,8,1075.0,1075.0,1075.0,1075.0,1075.0,1075.0,0.0,0.0,0.0,0.0,0.0,0.0,0.0,0.0,0.0,0.0
351825935,8,1075.0,1075.0,1075.0,1075.0,1075.0,1075.0,0.0,0.0,0.0,0.0,0.0,0.0,0.0,0.0,0.0,0.0
351916964,8,1075.0,1075.0,1075.0,1075.0,1075.0,1075.0,0.0,0.0,0.0,0.0,0.0,0.0,0.0,0.0,0.0,0.0
352029106,8,1075.0,1075.0,1075.0,1075.0,1075.0,1075.0,0.0,0.0,0.0,0.0,0.0,0.0,0.0,0.0,0.0,0.0
352137087,8,1075.0,1075.0,1075.0,1075.0,1075.0,1075.0,0.0,0.0,0.0,0.0,0.0,0.0,0.0,0.0,0.0,0.0
352229136,8,1075.0,1075.0,1075.0,1075.0,1075.0,1075.0,0.0,0.0,0.0,0.0,0.0,0.0,0.0,0.0,0.0,0.0
352336949,8,1075.0,1075.0,1075.0,1075.0,1075.0,1075.0,0.0,0.0,0.0,0.0,0.0,0.0,0.0,0.0,0.0,0.0
352425198,8,1075.0,1075.0,1075.0,1075.0,1075.0,1075.0,0.0,0.0,0.0,0.0,0.0,0.0,0.0,0.0,0.0,0.0
352536941,8,1075.0,1075.0,1075.0,1075.0,1075.0,1075.0,0.0,0.0,0.0,0.0,0.0,0.0,0.0,0.0,0.0,0.0
352648137,8,1075.0,1075.0,1075.0,1075.0,1075.0,1075.0,0.0,0.0,0.0,0.0,0.0,0.0,0.0,0.0,0.0,0.0
352740156,8,1075.0,1075.0,1075.0,1075.0,1075.0,1075.0,0.0,0.0,0.0,0.0,0.0,0.0,0.0,0.0,0.0,0.0
352836335,8,1075.0,1075.0,1075.0,1075.0,1075.0,1075.0,0.0,0.0,0.0,0.0,0.0,0.0,0.0,0.0,0.0,0.0
352944334,8,1075.0,1075.0,1075.0,1075.0,1075.0,1075.0,0.0,0.0,0.0,0.0,0.0,0.0,0.0,0.0,0.0,0.0
353056129,8,1075.0,1075.0,1075.0,1075.0,1075.0,1075.0,0.0,0.0,0.0,0.0,0.0,0.0,0.0,0.0,0.0,0.0
353148253,8,1075.0,1075.0,1075.0,1075.0,1075.0,1075.0,0.0,0.0,0.0,0.0,0.0,0.0,0.0,0.0,0.0,0.0
353244181,8,1075.0,1075.0,1075.0,1075.0,1075.0,1075.0,0.0,0.0,0.0,0.0,0.0,0.0,0.0,0.0,0.0,0.0
353352149,8,1075.0,1075.0,1075.0,1075.0,1075.0,1075.0,0.0,0.0,0.0,0.0,0.0,0.0,0.0,0.0,0.0,0.0
353455779,8,1075.0,1075.0,1075.0,1075.0,1075.0,1075.0,0.0,0.0,0.0,0.0,0.0,0.0,0.0,0.0,0.0,0.0
353543353,8,1075.0,1075.0,1075.0,1075.0,1075.0,1075.0,0.0,0.0,0.0,0.0,0.0,0.0,0.0,0.0,0.0,0.0
353651570,8,1075.0,1075.0,1075.0,1075.0,1075.0,1075.0,0.0,0.0,0.0,0.0,0.0,0.0,0.0,0.0,0.0,0.0
353763351,8,1075.0,1075.0,1075.0,1075.0,1075.0,1075.0,0.0,0.0,0.0,0.0,0.0,0.0,0.0,0.0,0.0,0.0
353851792,8,1075.0,1075.0,1075.0,1075.0,1075.0,1075.0,0.0,0.0,0.0,0.0,0.0,0.0,0.0,0.0,0.0,0.0
353963338,8,1075.0,1075.0,1075.0,1075.0,1075.0,1075.0,0.0,0.0,0.0,0.0,0.0,0.0,0.0,0.0,0.0,0.0
354051311,8,1075.0,1075.0,1075.0,1075.0,1075.0,1075.0,0.0,0.0,0.0,0.0,0.0,0.0,0.0,0.0,0.0,0.0
354159318,8,1075.0,1075.0,1075.0,1075.0,1075.0,1075.0,0.0,0.0,0.0,0.0,0.0,0.0,0.0,0.0,0.0,0.0
354274559,8,1075.0,1075.0,1075.0,1075.0,1075.0,1075.0,0.0,0.0,0.0,0.0,0.0,0.0,0.0,0.0,0.0,0.0
354366532,8,1075.0,1075.0,1075.0,1075.0,1075.0,1075.0,0.0,0.0,0.0,0.0,0.0,0.0,0.0,0.0,0.0,0.0
354478590,8,1075.0,1075.0,1075.0,1075.0,1075.0,1075.0,0.0,0.0,0.0,0.0,0.0,0.0,0.0,0.0,0.0,0.0
354570950,8,1075.0,1075.0,1075.0,1075.0,1075.0,1075.0,0.0,0.0,0.0,0.0,0.0,0.0,0.0,0.0,0.0,0.0
354679015,8,1075.0,1075.0,1075.0,1075.0,1075.0,1075.0,0.0,0.0,0.0,0.0,0.0,0.0,0.0,0.0,0.0,0.0
354770671,8,1075.0,1075.0,1075.0,1075.0,1075.0,1075.0,0.0,0.0,0.0,0.0,0.0,0.0,0.0,0.0,0.0,0.0
354882586,8,1075.0,1075.0,1075.0,1075.0,1075.0,1075.0,0.0,0.0,0.0,0.0,0.0,0.0,0.0,0.0,0.0,0.0
354970556,8,1075.0,1075.0,1075.0,1075.0,1075.0,1075.0,0.0,0.0,0.0,0.0,0.0,0.0,0.0,0.0,0.0,0.0
355079387,8,1075.0,1075.0,1075.0,1075.0,1075.0,1075.0,0.0,0.0,0.0,0.0,0.0,0.0,0.0,0.0,0.0,0.0
355185933,8,1075.0,1075.0,1075.0,1075.0,1075.0,1075.0,0.0,0.0,0.0,0.0,0.0,0.0,0.0,0.0,0.0,0.0
355289898,8,1075.0,1075.0,1075.0,1075.0,1075.0,1075.0,0.0,0.0,0.0,0.0,0.0,0.0,0.0,0.0,0.0,0.0
355377759,8,1075.0,1075.0,1075.0,1075.0,1075.0,1075.0,0.0,0.0,0.0,0.0,0.0,0.0,0.0,0.0,0.0,0.0
355489793,8,1075.0,1075.0,1075.0,1075.0,1075.0,1075.0,0.0,0.0,0.0,0.0,0.0,0.0,0.0,0.0,0.0,0.0
355577744,8,1075.0,1075.0,1075.0,1075.0,1075.0,1075.0,0.0,0.0,0.0,0.0,0.0,0.0,0.0,0.0,0.0,0.0
355689759,8,1075.0,1075.0,1075.0,1075.0,1075.0,1075.0,0.0,0.0,0.0,0.0,0.0,0.0,0.0,0.0,0.0,0.0
355797853,8,1075.0,1075.0,1075.0,1075.0,1075.0,1075.0,0.0,0.0,0.0,0.0,0.0,0.0,0.0,0.0,0.0,0.0
355888949,8,1075.0,1075.0,1075.0,1075.0,1075.0,1075.0,0.0,0.0,0.0,0.0,0.0,0.0,0.0,0.0,0.0,0.0
356001050,8,1075.0,1075.0,1075.0,1075.0,1075.0,1075.0,0.0,0.0,0.0,0.0,0.0,0.0,0.0,0.0,0.0,0.0
356096929,8,1075.0,1075.0,1075.0,1075.0,1075.0,1075.0,0.0,0.0,0.0,0.0,0.0,0.0,0.0,0.0,0.0,0.0
356185231,8,1075.0,1075.0,1075.0,1075.0,1075.0,1075.0,0.0,0.0,0.0,0.0,0.0,0.0,0.0,0.0,0.0,0.0
356305123,8,1075.0,1075.0,1075.0,1075.0,1075.0,1075.0,0.0,0.0,0.0,0.0,0.0,0.0,0.0,0.0,0.0,0.0
356393164,8,1183.0,1175.0,1180.0,1178.0,1186.0,1172.0,0.0,0.0,0.0,0.0,0.0,0.0,0.0,0.0,0.0,0.0
356504966,8,1184.0,1174.0,1180.0,1178.0,1186.0,1172.0,0.0,0.0,0.0,0.0,0.0,0.0,0.0,0.0,0.0,0.0
356597149,8,1186.0,1172.0,1181.0,1177.0,1184.0,1174.0,0.0,0.0,0.0,0.0,0.0,0.0,0.0,0.0,0.0,0.0
356708123,8,1186.0,1179.0,1184.0,1181.0,1191.0,1174.0,0.0,0.0,0.0,0.0,0.0,0.0,0.0,0.0,0.0,0.0
356796550,8,1215.0,1208.0,1212.0,1210.0,1219.0,1204.0,0.0,0.0,0.0,0.0,0.0,0.0,0.0,0.0,0.0,0.0
356904570,8,1246.0,1235.0,1244.0,1237.0,1246.0,1235.0,0.0,0.0,0.0,0.0,0.0,0.0,0.0,0.0,0.0,0.0
357016303,8,1275.0,1278.0,1275.0,1278.0,1276.0,1277.0,0.0,0.0,0.0,0.0,0.0,0.0,0.0,0.0,0.0,0.0
357104350,8,1302.0,1300.0,1316.0,1286.0,1322.0,1280.0,0.0,0.0,0.0,0.0,0.0,0.0,0.0,0.0,0.0,0.0
357216413,8,1350.0,1328.0,1325.0,1352.0,1340.0,1337.0,0.0,0.0,0.0,0.0,0.0,0.0,0.0,0.0,0.0,0.0
357308132,8,1380.0,1347.0,1312.0,1415.0,1334.0,1393.0,0.0,0.0,0.0,0.0,0.0,0.0,0.0,0.0,0.0,0.0
357419354,8,1408.0,1392.0,1397.0,1402.0,1408.0,1392.0,0.0,0.0,0.0,0.0,0.0,0.0,0.0,0.0,0.0,0.0
357523351,8,1345.0,1514.0,1437.0,1421.0,1358.0,1500.0,0.0,0.0,0.0,0.0,0.0,0.0,0.0,0.0,0.0,0.0
357615495,8,1428.0,1499.0,1394.0,1533.0,1521.0,1406.0,0.0,0.0,0.0,0.0,0.0,0.0,0.0,0.0,0.0,0.0
357719494,8,1472.0,1507.0,1545.0,1434.0,1532.0,1447.0,0.0,0.0,0.0,0.0,0.0,0.0,0.0,0.0,0.0,0.0
357811332,8,1471.0,1502.0,1485.0,1488.0,1461.0,1513.0,0.0,0.0,0.0,0.0,0.0,0.0,0.0,0.0,0.0,0.0
357927615,8,1416.0,1559.0,1569.0,1407.0,1476.0,1500.0,0.0,0.0,0.0,0.0,0.0,0.0,0.0,0.0,0.0,0.0
358035367,8,1481.0,1482.0,1455.0,1508.0,1448.0,1515.0,0.0,0.0,0.0,0.0,0.0,0.0,0.0,0.0,0.0,0.0
358122745,8,1483.0,1472.0,1457.0,1498.0,1452.0,1503.0,0.0,0.0,0.0,0.0,0.0,0.0,0.0,0.0,0.0,0.0
358230658,8,1513.0,1454.0,1489.0,1478.0,1506.0,1461.0,0.0,0.0,0.0,0.0,0.0,0.0,0.0,0.0,0.0,0.0
358334793,8,1379.0,1588.0,1565.0,1402.0,1446.0,1521.0,0.0,0.0,0.0,0.0,0.0,0.0,0.0,0.0,0.0,0.0
358418569,8,1523.0,1449.0,1435.0,1537.0,1459.0,1513.0,0.0,0.0,0.0,0.0,0.0,0.0,0.0,0.0,0.0,0.0
358526567,8,1489.0,1466.0,1536.0,1418.0,1541.0,1413.0,0.0,0.0,0.0,0.0,0.0,0.0,0.0,0.0,0.0,0.0
358638535,8,1427.0,1526.0,1554.0,1398.0,1506.0,1447.0,0.0,0.0,0.0,0.0,0.0,0.0,0.0,0.0,0.0,0.0
358738963,8,1502.0,1446.0,1434.0,1514.0,1466.0,1483.0,0.0,0.0,0.0,0.0,0.0,0.0,0.0,0.0,0.0,0.0
358846990,8,1417.0,1525.0,1524.0,1418.0,1459.0,1483.0,0.0,0.0,0.0,0.0,0.0,0.0,0.0,0.0,0.0,0.0
358933959,8,1453.0,1494.0,1483.0,1464.0,1455.0,1493.0,0.0,0.0,0.0,0.0,0.0,0.0,0.0,0.0,0.0,0.0
359049784,8,1422.0,1533.0,1538.0,1417.0,1479.0,1476.0,0.0,0.0,0.0,0.0,0.0,0.0,0.0,0.0,0.0,0.0
359137914,8,1458.0,1497.0,1488.0,1467.0,1451.0,1504.0,0.0,0.0,0.0,0.0,0.0,0.0,0.0,0.0,0.0,0.0
359245970,8,1430.0,1521.0,1517.0,1434.0,1458.0,1493.0,0.0,0.0,0.0,0.0,0.0,0.0,0.0,0.0,0.0,0.0
359333781,8,1469.0,1481.0,1457.0,1492.0,1444.0,1506.0,0.0,0.0,0.0,0.0,0.0,0.0,0.0,0.0,0.0,0.0
359441721,8,1516.0,1436.0,1415.0,1537.0,1437.0,1515.0,0.0,0.0,0.0,0.0,0.0,0.0,0.0,0.0,0.0,0.0
359533919,8,1446.0,1498.0,1573.0,1371.0,1518.0,1426.0,0.0,0.0,0.0,0.0,0.0,0.0,0.0,0.0,0.0,0.0
359646015,8,1394.0,1562.0,1576.0,1380.0,1461.0,1495.0,0.0,0.0,0.0,0.0,0.0,0.0,0.0,0.0,0.0,0.0
359741118,8,1537.0,1456.0,1465.0,1528.0,1459.0,1534.0,0.0,0.0,0.0,0.0,0.0,0.0,0.0,0.0,0.0,0.0
359853359,8,1353.0,1596.0,1575.0,1374.0,1425.0,1524.0,0.0,0.0,0.0,0.0,0.0,0.0,0.0,0.0,0.0,0.0
359944950,8,1458.0,1502.0,1589.0,1371.0,1524.0,1436.0,0.0,0.0,0.0,0.0,0.0,0.0,0.0,0.0,0.0,0.0
360057138,8,1494.0,1451.0,1474.0,1471.0,1473.0,1472.0,0.0,0.0,0.0,0.0,0.0,0.0,0.0,0.0,0.0,0.0
360148956,8,1434.0,1510.0,1516.0,1428.0,1457.0,1487.0,0.0,0.0,0.0,0.0,0.0,0.0,0.0,0.0,0.0,0.0
360253159,8,1451.0,1494.0,1450.0,1500.0,1426.0,1524.0,0.0,0.0,0.0,0.0,0.0,0.0,0.0,0.0,0.0,0.0
360361106,8,1516.0,1425.0,1451.0,1489.0,1449.0,1492.0,0.0,0.0,0.0,0.0,0.0,0.0,0.0,0.0,0.0,0.0
360452297,8,1553.0,1375.0,1455.0,1473.0,1373.0,1555.0,0.0,0.0,0.0,0.0,0.0,0.0,0.0,0.0,0.0,0.0
360568563,8,1521.0,1408.0,1464.0,1465.0,1318.0,1611.0,0.0,0.0,0.0,0.0,0.0,0.0,0.0,0.0,0.0,0.0
360656390,8,1610.0,1317.0,1526.0,1402.0,1439.0,1488.0,0.0,0.0,0.0,0.0,0.0,0.0,0.0,0.0,0.0,0.0
360752123,8,1462.0,1463.0,1543.0,1382.0,1291.0,1634.0,0.0,0.0,0.0,0.0,0.0,0.0,0.0,0.0,0.0,0.0
360868160,8,1574.0,1355.0,1520.0,1409.0,1406.0,1523.0,0.0,0.0,0.0,0.0,0.0,0.0,0.0,0.0,0.0,0.0
360972204,8,1560.0,1364.0,1535.0,1390.0,1441.0,1483.0,0.0,0.0,0.0,0.0,0.0,0.0,0.0,0.0,0.0,0.0
361076295,8,1547.0,1376.0,1588.0,1335.0,1561.0,1362.0,0.0,0.0,0.0,0.0,0.0,0.0,0.0,0.0,0.0,0.0
361168341,8,1631.0,1311.0,1509.0,1433.0,1536.0,1406.0,0.0,0.0,0.0,0.0,0.0,0.0,0.0,0.0,0.0,0.0
361279357,8,1594.0,1335.0,1488.0,1441.0,1485.0,1443.0,0.0,0.0,0.0,0.0,0.0,0.0,0.0,0.0,0.0,0.0
361375513,8,1612.0,1407.0,1566.0,1392.0,1492.0,1527.0,0.0,0.0,0.0,0.0,0.0,0.0,0.0,0.0,0.0,0.0
361467754,8,1507.0,1560.0,1511.0,1556.0,1511.0,1556.0,0.0,0.0,0.0,0.0,0.0,0.0,0.0,0.0,0.0,0.0
361579328,8,1520.0,1513.0,1600.0,1433.0,1506.0,1526.0,0.0,0.0,0.0,0.0,0.0,0.0,0.0,0.0,0.0,0.0
361671528,8,1520.0,1473.0,1468.0,1525.0,1423.0,1569.0,0.0,0.0,0.0,0.0,0.0,0.0,0.0,0.0,0.0,0.0
361783344,8,1532.0,1446.0,1489.0,1489.0,1493.0,1485.0,0.0,0.0,0.0,0.0,0.0,0.0,0.0,0.0,0.0,0.0
361871394,8,1540.0,1436.0,1487.0,1490.0,1518.0,1459.0,0.0,0.0,0.0,0.0,0.0,0.0,0.0,0.0,0.0,0.0
361987406,8,1445.0,1522.0,1523.0,1444.0,1450.0,1517.0,0.0,0.0,0.0,0.0,0.0,0.0,0.0,0.0,0.0,0.0
362075343,8,1475.0,1544.0,1558.0,1461.0,1384.0,1634.0,0.0,0.0,0.0,0.0,0.0,0.0,0.0,0.0,0.0,0.0
362186925,8,1493.0,1555.0,1590.0,1458.0,1416.0,1632.0,0.0,0.0,0.0,0.0,0.0,0.0,0.0,0.0,0.0,0.0
362278791,8,1503.0,1531.0,1572.0,1462.0,1456.0,1577.0,0.0,0.0,0.0,0.0,0.0,0.0,0.0,0.0,0.0,0.0
362386712,8,1502.0,1510.0,1562.0,1450.0,1478.0,1535.0,0.0,0.0,0.0,0.0,0.0,0.0,0.0,0.0,0.0,0.0
362498708,8,1592.0,1432.0,1502.0,1523.0,1538.0,1486.0,0.0,0.0,0.0,0.0,0.0,0.0,0.0,0.0,0.0,0.0
362594763,8,1512.0,1524.0,1450.0,1587.0,1406.0,1630.0,0.0,0.0,0.0,0.0,0.0,0.0,0.0,0.0,0.0,0.0
362698540,8,1603.0,1456.0,1515.0,1544.0,1522.0,1537.0,0.0,0.0,0.0,0.0,0.0,0.0,0.0,0.0,0.0,0.0
362786554,8,1636.0,1441.0,1500.0,1577.0,1539.0,1539.0,0.0,0.0,0.0,0.0,0.0,0.0,0.0,0.0,0.0,0.0
362901715,8,1570.0,1487.0,1540.0,1516.0,1550.0,1506.0,0.0,0.0,0.0,0.0,0.0,0.0,0.0,0.0,0.0,0.0
363005896,8,1614.0,1424.0,1544.0,1494.0,1592.0,1446.0,0.0,0.0,0.0,0.0,0.0,0.0,0.0,0.0,0.0,0.0
363097928,8,1452.0,1587.0,1523.0,1516.0,1406.0,1633.0,0.0,0.0,0.0,0.0,0.0,0.0,0.0,0.0,0.0,0.0
363194150,8,1588.0,1466.0,1538.0,1516.0,1561.0,1494.0,0.0,0.0,0.0,0.0,0.0,0.0,0.0,0.0,0.0,0.0
363309915,8,1502.0,1568.0,1520.0,1551.0,1468.0,1602.0,0.0,0.0,0.0,0.0,0.0,0.0,0.0,0.0,0.0,0.0
363397765,8,1494.0,1542.0,1622.0,1414.0,1607.0,1430.0,0.0,0.0,0.0,0.0,0.0,0.0,0.0,0.0,0.0,0.0
363509966,8,1576.0,1477.0,1431.0,1622.0,1491.0,1562.0,0.0,0.0,0.0,0.0,0.0,0.0,0.0,0.0,0.0,0.0
363597753,8,1543.0,1491.0,1464.0,1570.0,1572.0,1462.0,0.0,0.0,0.0,0.0,0.0,0.0,0.0,0.0,0.0,0.0
363713130,8,1403.0,1599.0,1527.0,1476.0,1492.0,1511.0,0.0,0.0,0.0,0.0,0.0,0.0,0.0,0.0,0.0,0.0
363805250,8,1442.0,1585.0,1562.0,1465.0,1546.0,1481.0,0.0,0.0,0.0,0.0,0.0,0.0,0.0,0.0,0.0,0.0
363909076,8,1519.0,1521.0,1474.0,1566.0,1504.0,1536.0,0.0,0.0,0.0,0.0,0.0,0.0,0.0,0.0,0.0,0.0
364021360,8,1508.0,1624.0,1559.0,1574.0,1530.0,1602.0,0.0,0.0,0.0,0.0,0.0,0.0,0.0,0.0,0.0,0.0
364113175,8,1603.0,1492.0,1476.0,1619.0,1545.0,1550.0,0.0,0.0,0.0,0.0,0.0,0.0,0.0,0.0,0.0,0.0
364204964,8,1468.0,1584.0,1554.0,1497.0,1501.0,1550.0,0.0,0.0,0.0,0.0,0.0,0.0,0.0,0.0,0.0,0.0
364317055,8,1494.0,1518.0,1517.0,1495.0,1475.0,1537.0,0.0,0.0,0.0,0.0,0.0,0.0,0.0,0.0,0.0,0.0
364408962,8,1472.0,1554.0,1499.0,1527.0,1424.0,1602.0,0.0,0.0,0.0,0.0,0.0,0.0,0.0,0.0,0.0,0.0
364528333,8,1445.0,1609.0,1521.0,1533.0,1408.0,1646.0,0.0,0.0,0.0,0.0,0.0,0.0,0.0,0.0,0.0,0.0
364620137,8,1506.0,1567.0,1561.0,1512.0,1493.0,1581.0,0.0,0.0,0.0,0.0,0.0,0.0,0.0,0.0,0.0,0.0
364724113,8,1525.0,1539.0,1591.0,1473.0,1554.0,1509.0,0.0,0.0,0.0,0.0,0.0,0.0,0.0,0.0,0.0,0.0
364836277,8,1530.0,1537.0,1625.0,1442.0,1567.0,1500.0,0.0,0.0,0.0,0.0,0.0,0.0,0.0,0.0,0.0,0.0
364928381,8,1431.0,1625.0,1563.0,1492.0,1432.0,1623.0,0.0,0.0,0.0,0.0,0.0,0.0,0.0,0.0,0.0,0.0
365020136,8,1419.0,1616.0,1562.0,1473.0,1437.0,1598.0,0.0,0.0,0.0,0.0,0.0,0.0,0.0,0.0,0.0,0.0
365136563,8,1532.0,1507.0,1589.0,1450.0,1557.0,1481.0,0.0,0.0,0.0,0.0,0.0,0.0,0.0,0.0,0.0,0.0
365245883,8,1532.0,1498.0,1593.0,1437.0,1563.0,1466.0,0.0,0.0,0.0,0.0,0.0,0.0,0.0,0.0,0.0,0.0
365340999,8,1485.0,1559.0,1543.0,1501.0,1465.0,1579.0,0.0,0.0,0.0,0.0,0.0,0.0,0.0,0.0,0.0,0.0
365431366,8,1599.0,1445.0,1434.0,1610.0,1479.0,1565.0,0.0,0.0,0.0,0.0,0.0,0.0,0.0,0.0,0.0,0.0
365535359,8,1613.0,1458.0,1501.0,1570.0,1536.0,1535.0,0.0,0.0,0.0,0.0,0.0,0.0,0.0,0.0,0.0,0.0
365647340,8,1539.0,1561.0,1526.0,1574.0,1492.0,1608.0,0.0,0.0,0.0,0.0,0.0,0.0,0.0,0.0,0.0,0.0
365751495,8,1440.0,1631.0,1601.0,1470.0,1471.0,1601.0,0.0,0.0,0.0,0.0,0.0,0.0,0.0,0.0,0.0,0.0
365843371,8,1573.0,1480.0,1501.0,1552.0,1510.0,1543.0,0.0,0.0,0.0,0.0,0.0,0.0,0.0,0.0,0.0,0.0
365951507,8,1538.0,1593.0,1594.0,1538.0,1530.0,1602.0,0.0,0.0,0.0,0.0,0.0,0.0,0.0,0.0,0.0,0.0
366042561,8,1473.0,1561.0,1530.0,1503.0,1454.0,1580.0,0.0,0.0,0.0,0.0,0.0,0.0,0.0,0.0,0.0,0.0
366146652,8,1510.0,1439.0,1413.0,1536.0,1408.0,1541.0,0.0,0.0,0.0,0.0,0.0,0.0,0.0,0.0,0.0,0.0
366250550,8,1494.0,1479.0,1460.0,1513.0,1438.0,1535.0,0.0,0.0,0.0,0.0,0.0,0.0,0.0,0.0,0.0,0.0
366355008,8,1533.0,1497.0,1590.0,1439.0,1565.0,1465.0,0.0,0.0,0.0,0.0,0.0,0.0,0.0,0.0,0.0,0.0
366446538,8,1604.0,1457.0,1517.0,1544.0,1551.0,1511.0,0.0,0.0,0.0,0.0,0.0,0.0,0.0,0.0,0.0,0.0
366550589,8,1636.0,1435.0,1476.0,1594.0,1536.0,1535.0,0.0,0.0,0.0,0.0,0.0,0.0,0.0,0.0,0.0,0.0
366666561,8,1449.0,1673.0,1581.0,1540.0,1430.0,1691.0,0.0,0.0,0.0,0.0,0.0,0.0,0.0,0.0,0.0,0.0
366758576,8,1570.0,1553.0,1574.0,1549.0,1528.0,1596.0,0.0,0.0,0.0,0.0,0.0,0.0,0.0,0.0,0.0,0.0
366846789,8,1534.0,1548.0,1503.0,1578.0,1453.0,1629.0,0.0,0.0,0.0,0.0,0.0,0.0,0.0,0.0,0.0,0.0
366962133,8,1567.0,1505.0,1606.0,1466.0,1581.0,1491.0,0.0,0.0,0.0,0.0,0.0,0.0,0.0,0.0,0.0,0.0
367073723,8,1609.0,1466.0,1473.0,1602.0,1494.0,1581.0,0.0,0.0,0.0,0.0,0.0,0.0,0.0,0.0,0.0,0.0
367161948,8,1616.0,1445.0,1467.0,1595.0,1496.0,1566.0,0.0,0.0,0.0,0.0,0.0,0.0,0.0,0.0,0.0,0.0
367273775,8,1549.0,1508.0,1600.0,1606.0,1432.0,1625.0,0.0,0.0,0.0,0.0,0.0,0.0,0.0,0.0,0.0,0.0
367358176,8,1509.0,1545.0,1604.0,1450.0,1537.0,1517.0,0.0,0.0,0.0,0.0,0.0,0.0,0.0,0.0,0.0,0.0
367466163,8,1513.0,1555.0,1622.0,1446.0,1545.0,1523.0,0.0,0.0,0.0,0.0,0.0,0.0,0.0,0.0,0.0,0.0
367577143,8,1599.0,1471.0,1502.0,1568.0,1512.0,1559.0,0.0,0.0,0.0,0.0,0.0,0.0,0.0,0.0,0.0,0.0
367665090,8,1533.0,1530.0,1473.0,1590.0,1410.0,1653.0,0.0,0.0,0.0,0.0,0.0,0.0,0.0,0.0,0.0,0.0
367777085,8,1500.0,1557.0,1620.0,1437.0,1535.0,1522.0,0.0,0.0,0.0,0.0,0.0,0.0,0.0,0.0,0.0,0.0
367877078,8,1485.0,1577.0,1532.0,1530.0,1440.0,1622.0,0.0,0.0,0.0,0.0,0.0,0.0,0.0,0.0,0.0,0.0
367988929,8,1571.0,1493.0,1496.0,1568.0,1498.0,1566.0,0.0,0.0,0.0,0.0,0.0,0.0,0.0,0.0,0.0,0.0
368072966,8,1568.0,1520.0,1452.0,1635.0,1438.0,1650.0,0.0,0.0,0.0,0.0,0.0,0.0,0.0,0.0,0.0,0.0
368180963,8,1502.0,1610.0,1617.0,1494.0,1531.0,1580.0,0.0,0.0,0.0,0.0,0.0,0.0,0.0,0.0,0.0,0.0
368289105,8,1514.0,1586.0,1611.0,1488.0,1541.0,1559.0,0.0,0.0,0.0,0.0,0.0,0.0,0.0,0.0,0.0,0.0
368380360,8,1611.0,1471.0,1515.0,1566.0,1548.0,1533.0,0.0,0.0,0.0,0.0,0.0,0.0,0.0,0.0,0.0,0.0
368496260,8,1535.0,1550.0,1529.0,1557.0,1502.0,1584.0,0.0,0.0,0.0,0.0,0.0,0.0,0.0,0.0,0.0,0.0
368584300,8,1547.0,1529.0,1519.0,1557.0,1495.0,1580.0,0.0,0.0,0.0,0.0,0.0,0.0,0.0,0.0,0.0,0.0
368688547,8,1517.0,1531.0,1598.0,1450.0,1552.0,1496.0,0.0,0.0,0.0,0.0,0.0,0.0,0.0,0.0,0.0,0.0
368796590,8,1514.0,1546.0,1514.0,1547.0,1472.0,1589.0,0.0,0.0,0.0,0.0,0.0,0.0,0.0,0.0,0.0,0.0
368888116,8,1554.0,1509.0,1526.0,1537.0,1512.0,1550.0,0.0,0.0,0.0,0.0,0.0,0.0,0.0,0.0,0.0,0.0
369000295,8,1537.0,1513.0,1604.0,1445.0,1574.0,1475.0,0.0,0.0,0.0,0.0,0.0,0.0,0.0,0.0,0.0,0.0
369088252,8,1539.0,1524.0,1535.0,1529.0,1504.0,1560.0,0.0,0.0,0.0,0.0,0.0,0.0,0.0,0.0,0.0,0.0
369207314,8,1621.0,1453.0,1438.0,1636.0,1493.0,1581.0,0.0,0.0,0.0,0.0,0.0,0.0,0.0,0.0,0.0,0.0
369291350,8,1617.0,1449.0,1501.0,1565.0,1557.0,1509.0,0.0,0.0,0.0,0.0,0.0,0.0,0.0,0.0,0.0,0.0
369399340,8,1517.0,1551.0,1596.0,1472.0,1548.0,1520.0,0.0,0.0,0.0,0.0,0.0,0.0,0.0,0.0,0.0,0.0
369507380,8,1626.0,1446.0,1486.0,1585.0,1538.0,1534.0,0.0,0.0,0.0,0.0,0.0,0.0,0.0,0.0,0.0,0.0
369611542,8,1651.0,1442.0,1448.0,1645.0,1517.0,1576.0,0.0,0.0,0.0,0.0,0.0,0.0,0.0,0.0,0.0,0.0
369703370,8,1503.0,1562.0,1556.0,1509.0,1487.0,1578.0,0.0,0.0,0.0,0.0,0.0,0.0,0.0,0.0,0.0,0.0
369811355,8,1622.0,1452.0,1515.0,1559.0,1562.0,1512.0,0.0,0.0,0.0,0.0,0.0,0.0,0.0,0.0,0.0,0.0
369899344,8,1539.0,1549.0,1615.0,1473.0,1564.0,1524.0,0.0,0.0,0.0,0.0,0.0,0.0,0.0,0.0,0.0,0.0
370014764,8,1665.0,1427.0,1528.0,1564.0,1607.0,1485.0,0.0,0.0,0.0,0.0,0.0,0.0,0.0,0.0,0.0,0.0
370118696,8,1586.0,1499.0,1576.0,1508.0,1589.0,1495.0,0.0,0.0,0.0,0.0,0.0,0.0,0.0,0.0,0.0,0.0
370222573,8,1557.0,1513.0,1577.0,1493.0,1562.0,1508.0,0.0,0.0,0.0,0.0,0.0,0.0,0.0,0.0,0.0,0.0
370306951,8,1567.0,1499.0,1593.0,1473.0,1580.0,1486.0,0.0,0.0,0.0,0.0,0.0,0.0,0.0,0.0,0.0,0.0
370422517,8,1499.0,1566.0,1558.0,1507.0,1485.0,1580.0,0.0,0.0,0.0,0.0,0.0,0.0,0.0,0.0,0.0,0.0
370506744,8,1624.0,1458.0,1476.0,1606.0,1483.0,1599.0,0.0,0.0,0.0,0.0,0.0,0.0,0.0,0.0,0.0,0.0
370622599,8,1501.0,1571.0,1628.0,1444.0,1543.0,1529.0,0.0,0.0,0.0,0.0,0.0,0.0,0.0,0.0,0.0,0.0
370706562,8,1512.0,1570.0,1594.0,1489.0,1518.0,1565.0,0.0,0.0,0.0,0.0,0.0,0.0,0.0,0.0,0.0,0.0
370821742,8,1490.0,1561.0,1597.0,1454.0,1523.0,1528.0,0.0,0.0,0.0,0.0,0.0,0.0,0.0,0.0,0.0,0.0
370914209,8,1519.0,1503.0,1510.0,1512.0,1487.0,1535.0,0.0,0.0,0.0,0.0,0.0,0.0,0.0,0.0,0.0,0.0
371022192,8,1598.0,1449.0,1450.0,1597.0,1491.0,1556.0,0.0,0.0,0.0,0.0,0.0,0.0,0.0,0.0,0.0,0.0
371133736,8,1562.0,1512.0,1562.0,1512.0,1544.0,1530.0,0.0,0.0,0.0,0.0,0.0,0.0,0.0,0.0,0.0,0.0
371217715,8,1431.0,1637.0,1647.0,1421.0,1502.0,1566.0,0.0,0.0,0.0,0.0,0.0,0.0,0.0,0.0,0.0,0.0
371321807,8,1453.0,1629.0,1628.0,1454.0,1505.0,1576.0,0.0,0.0,0.0,0.0,0.0,0.0,0.0,0.0,0.0,0.0
371433767,8,1680.0,1405.0,1454.0,1631.0,1568.0,1517.0,0.0,0.0,0.0,0.0,0.0,0.0,0.0,0.0,0.0,0.0
371526168,8,1597.0,1494.0,1476.0,1616.0,1507.0,1584.0,0.0,0.0,0.0,0.0,0.0,0.0,0.0,0.0,0.0,0.0
371637132,8,1541.0,1529.0,1573.0,1497.0,1559.0,1510.0,0.0,0.0,0.0,0.0,0.0,0.0,0.0,0.0,0.0,0.0
371728942,8,1604.0,1449.0,1508.0,1545.0,1573.0,1480.0,0.0,0.0,0.0,0.0,0.0,0.0,0.0,0.0,0.0,0.0
371841176,8,1469.0,1602.0,1599.0,1471.0,1512.0,1559.0,0.0,0.0,0.0,0.0,0.0,0.0,0.0,0.0,0.0,0.0
371929098,8,1540.0,1553.0,1534.0,1558.0,1499.0,1594.0,0.0,0.0,0.0,0.0,0.0,0.0,0.0,0.0,0.0,0.0
372032951,8,1471.0,1608.0,1587.0,1493.0,1489.0,1591.0,0.0,0.0,0.0,0.0,0.0,0.0,0.0,0.0,0.0,0.0
372137301,8,1494.0,1567.0,1557.0,1505.0,1494.0,1568.0,0.0,0.0,0.0,0.0,0.0,0.0,0.0,0.0,0.0,0.0
372245370,8,1467.0,1596.0,1584.0,1479.0,1486.0,1577.0,0.0,0.0,0.0,0.0,0.0,0.0,0.0,0.0,0.0,0.0
372348914,8,1645.0,1509.0,1543.0,1610.0,1578.0,1576.0,0.0,0.0,0.0,0.0,0.0,0.0,0.0,0.0,0.0,0.0
372456147,8,1583.0,1540.0,1545.0,1578.0,1535.0,1588.0,0.0,0.0,0.0,0.0,0.0,0.0,0.0,0.0,0.0,0.0
372544124,8,1508.0,1566.0,1551.0,1522.0,1501.0,1573.0,0.0,0.0,0.0,0.0,0.0,0.0,0.0,0.0,0.0,0.0
372660334,8,1627.0,1425.0,1494.0,1558.0,1570.0,1482.0,0.0,0.0,0.0,0.0,0.0,0.0,0.0,0.0,0.0,0.0
372752140,8,1478.0,1467.0,1438.0,1579.0,1460.0,1557.0,0.0,0.0,0.0,0.0,0.0,0.0,0.0,0.0,0.0,0.0
372860157,8,1511.0,1496.0,1490.0,1538.0,1501.0,1506.0,0.0,0.0,0.0,0.0,0.0,0.0,0.0,0.0,0.0,0.0
372948109,8,1634.0,1369.0,1481.0,1523.0,1595.0,1409.0,0.0,0.0,0.0,0.0,0.0,0.0,0.0,0.0,0.0,0.0
373064311,8,1536.0,1542.0,1513.0,1564.0,1503.0,1575.0,0.0,0.0,0.0,0.0,0.0,0.0,0.0,0.0,0.0,0.0
373159366,8,1595.0,1509.0,1491.0,1613.0,1526.0,1578.0,0.0,0.0,0.0,0.0,0.0,0.0,0.0,0.0,0.0,0.0
373267546,8,1544.0,1603.0,1580.0,1567.0,1536.0,1611.0,0.0,0.0,0.0,0.0,0.0,0.0,0.0,0.0,0.0,0.0
373355505,8,1507.0,1611.0,1597.0,1521.0,1530.0,1588.0,0.0,0.0,0.0,0.0,0.0,0.0,0.0,0.0,0.0,0.0
373467813,8,1556.0,1523.0,1536.0,1542.0,1532.0,1547.0,0.0,0.0,0.0,0.0,0.0,0.0,0.0,0.0,0.0,0.0
373555395,8,1474.0,1595.0,1583.0,1486.0,1499.0,1571.0,0.0,0.0,0.0,0.0,0.0,0.0,0.0,0.0,0.0,0.0
373667360,8,1511.0,1557.0,1566.0,1502.0,1512.0,1556.0,0.0,0.0,0.0,0.0,0.0,0.0,0.0,0.0,0.0,0.0
373775314,8,1522.0,1531.0,1478.0,1575.0,1453.0,1600.0,0.0,0.0,0.0,0.0,0.0,0.0,0.0,0.0,0.0,0.0
373867360,8,1594.0,1461.0,1445.0,1611.0,1494.0,1561.0,0.0,0.0,0.0,0.0,0.0,0.0,0.0,0.0,0.0,0.0
373978524,8,1490.0,1579.0,1659.0,1410.0,1590.0,1478.0,0.0,0.0,0.0,0.0,0.0,0.0,0.0,0.0,0.0,0.0
374082569,8,1548.0,1534.0,1500.0,1582.0,1494.0,1588.0,0.0,0.0,0.0,0.0,0.0,0.0,0.0,0.0,0.0,0.0
374166724,8,1497.0,1556.0,1579.0,1475.0,1527.0,1526.0,0.0,0.0,0.0,0.0,0.0,0.0,0.0,0.0,0.0,0.0
374270716,8,1518.0,1524.0,1468.0,1574.0,1442.0,1601.0,0.0,0.0,0.0,0.0,0.0,0.0,0.0,0.0,0.0,0.0
374378667,8,1614.0,1450.0,1457.0,1607.0,1514.0,1550.0,0.0,0.0,0.0,0.0,0.0,0.0,0.0,0.0,0.0,0.0
374482540,8,1623.0,1473.0,1456.0,1639.0,1506.0,1590.0,0.0,0.0,0.0,0.0,0.0,0.0,0.0,0.0,0.0,0.0
374570555,8,1488.0,1609.0,1689.0,1408.0,1594.0,1502.0,0.0,0.0,0.0,0.0,0.0,0.0,0.0,0.0,0.0,0.0
374685803,8,1475.0,1611.0,1574.0,1512.0,1477.0,1610.0,0.0,0.0,0.0,0.0,0.0,0.0,0.0,0.0,0.0,0.0
374773865,8,1559.0,1595.0,1651.0,1503.0,1600.0,1555.0,0.0,0.0,0.0,0.0,0.0,0.0,0.0,0.0,0.0,0.0
374885736,8,1612.0,1498.0,1520.0,1590.0,1538.0,1572.0,0.0,0.0,0.0,0.0,0.0,0.0,0.0,0.0,0.0,0.0
374993751,8,1550.0,1494.0,1462.0,1582.0,1457.0,1587.0,0.0,0.0,0.0,0.0,0.0,0.0,0.0,0.0,0.0,0.0
375081719,8,1581.0,1429.0,1508.0,1502.0,1547.0,1463.0,0.0,0.0,0.0,0.0,0.0,0.0,0.0,0.0,0.0,0.0
375198045,8,1470.0,1563.0,1493.0,1540.0,1420.0,1613.0,0.0,0.0,0.0,0.0,0.0,0.0,0.0,0.0,0.0,0.0
375289793,8,1650.0,1424.0,1506.0,1568.0,1579.0,1495.0,0.0,0.0,0.0,0.0,0.0,0.0,0.0,0.0,0.0,0.0
375393764,8,1535.0,1583.0,1506.0,1611.0,1447.0,1671.0,0.0,0.0,0.0,0.0,0.0,0.0,0.0,0.0,0.0,0.0
375501927,8,1588.0,1536.0,1510.0,1614.0,1496.0,1628.0,0.0,0.0,0.0,0.0,0.0,0.0,0.0,0.0,0.0,0.0
375589377,8,1469.0,1663.0,1589.0,1543.0,1465.0,1667.0,0.0,0.0,0.0,0.0,0.0,0.0,0.0,0.0,0.0,0.0
375697360,8,1580.0,1510.0,1537.0,1552.0,1533.0,1557.0,0.0,0.0,0.0,0.0,0.0,0.0,0.0,0.0,0.0,0.0
375805350,8,1594.0,1451.0,1467.0,1578.0,1504.0,1540.0,0.0,0.0,0.0,0.0,0.0,0.0,0.0,0.0,0.0,0.0
375892956,8,1516.0,1516.0,1556.0,1476.0,1538.0,1494.0,0.0,0.0,0.0,0.0,0.0,0.0,0.0,0.0,0.0,0.0
376001145,8,1454.0,1612.0,1525.0,1542.0,1431.0,1635.0,0.0,0.0,0.0,0.0,0.0,0.0,0.0,0.0,0.0,0.0
376088948,8,1568.0,1475.0,1513.0,1529.0,1541.0,1501.0,0.0,0.0,0.0,0.0,0.0,0.0,0.0,0.0,0.0,0.0
376209082,8,1546.0,1498.0,1568.0,1476.0,1577.0,1466.0,0.0,0.0,0.0,0.0,0.0,0.0,0.0,0.0,0.0,0.0
376295466,8,1508.0,1576.0,1603.0,1480.0,1564.0,1520.0,0.0,0.0,0.0,0.0,0.0,0.0,0.0,0.0,0.0,0.0
376404325,8,1485.0,1608.0,1615.0,1478.0,1532.0,1561.0,0.0,0.0,0.0,0.0,0.0,0.0,0.0,0.0,0.0,0.0
376512224,8,1593.0,1507.0,1477.0,1623.0,1503.0,1596.0,0.0,0.0,0.0,0.0,0.0,0.0,0.0,0.0,0.0,0.0
376616136,8,1483.0,1606.0,1591.0,1498.0,1513.0,1576.0,0.0,0.0,0.0,0.0,0.0,0.0,0.0,0.0,0.0,0.0
376720283,8,1534.0,1542.0,1530.0,1546.0,1505.0,1571.0,0.0,0.0,0.0,0.0,0.0,0.0,0.0,0.0,0.0,0.0
376804374,8,1553.0,1510.0,1541.0,1523.0,1542.0,1522.0,0.0,0.0,0.0,0.0,0.0,0.0,0.0,0.0,0.0,0.0
376916204,8,1592.0,1474.0,1447.0,1620.0,1496.0,1570.0,0.0,0.0,0.0,0.0,0.0,0.0,0.0,0.0,0.0,0.0
377027780,8,1572.0,1510.0,1491.0,1590.0,1508.0,1573.0,0.0,0.0,0.0,0.0,0.0,0.0,0.0,0.0,0.0,0.0
377115573,8,1492.0,1590.0,1618.0,1464.0,1529.0,1553.0,0.0,0.0,0.0,0.0,0.0,0.0,0.0,0.0,0.0,0.0
377219330,8,1505.0,1578.0,1511.0,1572.0,1465.0,1619.0,0.0,0.0,0.0,0.0,0.0,0.0,0.0,0.0,0.0,0.0
377331638,8,1505.0,1590.0,1601.0,1494.0,1526.0,1570.0,0.0,0.0,0.0,0.0,0.0,0.0,0.0,0.0,0.0,0.0
377419482,8,1610.0,1507.0,1501.0,1616.0,1528.0,1589.0,0.0,0.0,0.0,0.0,0.0,0.0,0.0,0.0,0.0,0.0
377527518,8,1513.0,1580.0,1591.0,1501.0,1524.0,1573.0,0.0,0.0,0.0,0.0,0.0,0.0,0.0,0.0,0.0,0.0
377615357,8,1624.0,1457.0,1460.0,1621.0,1515.0,1566.0,0.0,0.0,0.0,0.0,0.0,0.0,0.0,0.0,0.0,0.0
377735475,8,1493.0,1583.0,1614.0,1462.0,1530.0,1546.0,0.0,0.0,0.0,0.0,0.0,0.0,0.0,0.0,0.0,0.0
377819754,8,1512.0,1561.0,1539.0,1534.0,1485.0,1588.0,0.0,0.0,0.0,0.0,0.0,0.0,0.0,0.0,0.0,0.0
377934750,8,1498.0,1569.0,1658.0,1409.0,1586.0,1613.0,0.0,0.0,0.0,0.0,0.0,0.0,0.0,0.0,0.0,0.0
378042527,8,1532.0,1535.0,1561.0,1505.0,1525.0,1542.0,0.0,0.0,0.0,0.0,0.0,0.0,0.0,0.0,0.0,0.0
378134734,8,1533.0,1539.0,1553.0,1518.0,1522.0,1549.0,0.0,0.0,0.0,0.0,0.0,0.0,0.0,0.0,0.0,0.0
378242757,8,1468.0,1608.0,1558.0,1518.0,1465.0,1610.0,0.0,0.0,0.0,0.0,0.0,0.0,0.0,0.0,0.0,0.0
378334679,8,1569.0,1500.0,1535.0,1535.0,1542.0,1527.0,0.0,0.0,0.0,0.0,0.0,0.0,0.0,0.0,0.0,0.0
378450595,8,1498.0,1567.0,1581.0,1484.0,1514.0,1551.0,0.0,0.0,0.0,0.0,0.0,0.0,0.0,0.0,0.0,0.0
378534732,8,1528.0,1536.0,1540.0,1524.0,1500.0,1563.0,0.0,0.0,0.0,0.0,0.0,0.0,0.0,0.0,0.0,0.0
378650793,8,1603.0,1471.0,1521.0,1554.0,1555.0,1519.0,0.0,0.0,0.0,0.0,0.0,0.0,0.0,0.0,0.0,0.0
378737854,8,1451.0,1636.0,1651.0,1436.0,1526.0,1561.0,0.0,0.0,0.0,0.0,0.0,0.0,0.0,0.0,0.0,0.0
378845972,8,1635.0,1471.0,1621.0,1485.0,1677.0,1430.0,0.0,0.0,0.0,0.0,0.0,0.0,0.0,0.0,0.0,0.0
378937930,8,1629.0,1496.0,1541.0,1584.0,1572.0,1553.0,0.0,0.0,0.0,0.0,0.0,0.0,0.0,0.0,0.0,0.0
379049791,8,1580.0,1530.0,1571.0,1539.0,1558.0,1552.0,0.0,0.0,0.0,0.0,0.0,0.0,0.0,0.0,0.0,0.0
379141930,8,1492.0,1596.0,1551.0,1537.0,1470.0,1618.0,0.0,0.0,0.0,0.0,0.0,0.0,0.0,0.0,0.0,0.0
379245763,8,1560.0,1518.0,1471.0,1607.0,1465.0,1613.0,0.0,0.0,0.0,0.0,0.0,0.0,0.0,0.0,0.0,0.0
379357949,8,1588.0,1484.0,1492.0,1581.0,1515.0,1558.0,0.0,0.0,0.0,0.0,0.0,0.0,0.0,0.0,0.0,0.0
379445186,8,1596.0,1466.0,1519.0,1544.0,1555.0,1508.0,0.0,0.0,0.0,0.0,0.0,0.0,0.0,0.0,0.0,0.0
379561159,8,1542.0,1524.0,1505.0,1561.0,1487.0,1579.0,0.0,0.0,0.0,0.0,0.0,0.0,0.0,0.0,0.0,0.0
379648970,8,1612.0,1463.0,1536.0,1539.0,1588.0,1487.0,0.0,0.0,0.0,0.0,0.0,0.0,0.0,0.0,0.0,0.0
379761419,8,1533.0,1569.0,1596.0,1506.0,1552.0,1550.0,0.0,0.0,0.0,0.0,0.0,0.0,0.0,0.0,0.0,0.0
379865178,8,1582.0,1494.0,1465.0,1611.0,1477.0,1509.0,0.0,0.0,0.0,0.0,0.0,0.0,0.0,0.0,0.0,0.0
379957003,8,1492.0,1576.0,1572.0,1496.0,1499.0,1568.0,0.0,0.0,0.0,0.0,0.0,0.0,0.0,0.0,0.0,0.0
380060950,8,1501.0,1569.0,1545.0,1525.0,1481.0,1592.0,0.0,0.0,0.0,0.0,0.0,0.0,0.0,0.0,0.0,0.0
380165190,8,1584.0,1490.0,1487.0,1587.0,1507.0,1567.0,0.0,0.0,0.0,0.0,0.0,0.0,0.0,0.0,0.0,0.0
380272279,8,1489.0,1588.0,1581.0,1496.0,1515.0,1562.0,0.0,0.0,0.0,0.0,0.0,0.0,0.0,0.0,0.0,0.0
380364126,8,1484.0,1601.0,1502.0,1583.0,1415.0,1670.0,0.0,0.0,0.0,0.0,0.0,0.0,0.0,0.0,0.0,0.0
380480377,8,1521.0,1580.0,1599.0,1502.0,1534.0,1566.0,0.0,0.0,0.0,0.0,0.0,0.0,0.0,0.0,0.0,0.0
380564135,8,1490.0,1613.0,1558.0,1544.0,1471.0,1632.0,0.0,0.0,0.0,0.0,0.0,0.0,0.0,0.0,0.0,0.0
380672152,8,1465.0,1623.0,1583.0,1506.0,1478.0,1611.0,0.0,0.0,0.0,0.0,0.0,0.0,0.0,0.0,0.0,0.0
380780182,8,1503.0,1582.0,1486.0,1599.0,1431.0,1654.0,0.0,0.0,0.0,0.0,0.0,0.0,0.0,0.0,0.0,0.0
380872554,8,1441.0,1654.0,1532.0,1563.0,1409.0,1686.0,0.0,0.0,0.0,0.0,0.0,0.0,0.0,0.0,0.0,0.0
380984362,8,1484.0,1622.0,1575.0,1530.0,1474.0,1631.0,0.0,0.0,0.0,0.0,0.0,0.0,0.0,0.0,0.0,0.0
381091529,8,1482.0,1603.0,1628.0,1457.0,1539.0,1547.0,0.0,0.0,0.0,0.0,0.0,0.0,0.0,0.0,0.0,0.0
381175519,8,1624.0,1471.0,1461.0,1634.0,1507.0,1588.0,0.0,0.0,0.0,0.0,0.0,0.0,0.0,0.0,0.0,0.0
381283318,8,1489.0,1614.0,1584.0,1519.0,1510.0,1593.0,0.0,0.0,0.0,0.0,0.0,0.0,0.0,0.0,0.0,0.0
381395383,8,1461.0,1640.0,1578.0,1523.0,1468.0,1633.0,0.0,0.0,0.0,0.0,0.0,0.0,0.0,0.0,0.0,0.0
381499318,8,1515.0,1562.0,1530.0,1548.0,1484.0,1594.0,0.0,0.0,0.0,0.0,0.0,0.0,0.0,0.0,0.0,0.0
381591761,8,1507.0,1566.0,1584.0,1489.0,1529.0,1544.0,0.0,0.0,0.0,0.0,0.0,0.0,0.0,0.0,0.0,0.0
381699775,8,1622.0,1448.0,1475.0,1595.0,1532.0,1538.0,0.0,0.0,0.0,0.0,0.0,0.0,0.0,0.0,0.0,0.0
381791356,8,1635.0,1446.0,1486.0,1595.0,1550.0,1531.0,0.0,0.0,0.0,0.0,0.0,0.0,0.0,0.0,0.0,0.0
381903351,8,1576.0,1523.0,1490.0,1609.0,1495.0,1603.0,0.0,0.0,0.0,0.0,0.0,0.0,0.0,0.0,0.0,0.0
381990679,8,1529.0,1480.0,1517.0,1564.0,1552.0,1529.0,0.0,0.0,0.0,0.0,0.0,0.0,0.0,0.0,0.0,0.0
382102758,8,1550.0,1507.0,1448.0,1609.0,1452.0,1606.0,0.0,0.0,0.0,0.0,0.0,0.0,0.0,0.0,0.0,0.0
382190684,8,1582.0,1482.0,1479.0,1585.0,1503.0,1561.0,0.0,0.0,0.0,0.0,0.0,0.0,0.0,0.0,0.0,0.0
382298723,8,1632.0,1442.0,1502.0,1572.0,1565.0,1509.0,0.0,0.0,0.0,0.0,0.0,0.0,0.0,0.0,0.0,0.0
382410709,8,1655.0,1425.0,1543.0,1536.0,1629.0,1450.0,0.0,0.0,0.0,0.0,0.0,0.0,0.0,0.0,0.0,0.0
382502697,8,1492.0,1591.0,1554.0,1529.0,1496.0,1587.0,0.0,0.0,0.0,0.0,0.0,0.0,0.0,0.0,0.0,0.0
382609762,8,1543.0,1549.0,1536.0,1555.0,1504.0,1588.0,0.0,0.0,0.0,0.0,0.0,0.0,0.0,0.0,0.0,0.0
382701916,8,1596.0,1489.0,1568.0,1517.0,1588.0,1498.0,0.0,0.0,0.0,0.0,0.0,0.0,0.0,0.0,0.0,0.0
382809947,8,1641.0,1435.0,1521.0,1555.0,1595.0,1481.0,0.0,0.0,0.0,0.0,0.0,0.0,0.0,0.0,0.0,0.0
382922152,8,1583.0,1443.0,1554.0,1472.0,1598.0,1428.0,0.0,0.0,0.0,0.0,0.0,0.0,0.0,0.0,0.0,0.0
383010029,8,1446.0,1537.0,1569.0,1414.0,1428.0,1555.0,0.0,0.0,0.0,0.0,0.0,0.0,0.0,0.0,0.0,0.0
383117928,8,1487.0,1500.0,1582.0,1405.0,1548.0,1439.0,0.0,0.0,0.0,0.0,0.0,0.0,0.0,0.0,0.0,0.0
383210012,8,1500.0,1537.0,1537.0,1499.0,1502.0,1534.0,0.0,0.0,0.0,0.0,0.0,0.0,0.0,0.0,0.0,0.0
383321889,8,1540.0,1546.0,1517.0,1568.0,1489.0,1596.0,0.0,0.0,0.0,0.0,0.0,0.0,0.0,0.0,0.0,0.0
383409054,8,1585.0,1501.0,1560.0,1527.0,1583.0,1503.0,0.0,0.0,0.0,0.0,0.0,0.0,0.0,0.0,0.0,0.0
383524958,8,1494.0,1578.0,1561.0,1512.0,1495.0,1577.0,0.0,0.0,0.0,0.0,0.0,0.0,0.0,0.0,0.0,0.0
383633132,8,1517.0,1540.0,1515.0,1542.0,1487.0,1570.0,0.0,0.0,0.0,0.0,0.0,0.0,0.0,0.0,0.0,0.0
383720963,8,1608.0,1458.0,1478.0,1588.0,1523.0,1543.0,0.0,0.0,0.0,0.0,0.0,0.0,0.0,0.0,0.0,0.0
383836958,8,1642.0,1447.0,1524.0,1566.0,1590.0,1499.0,0.0,0.0,0.0,0.0,0.0,0.0,0.0,0.0,0.0,0.0
383921121,8,1603.0,1509.0,1577.0,1535.0,1592.0,1520.0,0.0,0.0,0.0,0.0,0.0,0.0,0.0,0.0,0.0,0.0
384028947,8,1563.0,1535.0,1556.0,1542.0,1542.0,1556.0,0.0,0.0,0.0,0.0,0.0,0.0,0.0,0.0,0.0,0.0
384141223,8,1540.0,1520.0,1477.0,1583.0,1466.0,1594.0,0.0,0.0,0.0,0.0,0.0,0.0,0.0,0.0,0.0,0.0
384232143,8,1516.0,1526.0,1611.0,1509.0,1503.0,1540.0,0.0,0.0,0.0,0.0,0.0,0.0,0.0,0.0,0.0,0.0
384348192,8,1500.0,1559.0,1495.0,1565.0,1444.0,1615.0,0.0,0.0,0.0,0.0,0.0,0.0,0.0,0.0,0.0,0.0
384432551,8,1518.0,1558.0,1573.0,1503.0,1530.0,1546.0,0.0,0.0,0.0,0.0,0.0,0.0,0.0,0.0,0.0,0.0
384544200,8,1440.0,1640.0,1588.0,1492.0,1471.0,1609.0,0.0,0.0,0.0,0.0,0.0,0.0,0.0,0.0,0.0,0.0
384640291,8,1510.0,1568.0,1542.0,1536.0,1492.0,1586.0,0.0,0.0,0.0,0.0,0.0,0.0,0.0,0.0,0.0,0.0
384752145,8,1512.0,1566.0,1612.0,1466.0,1551.0,1527.0,0.0,0.0,0.0,0.0,0.0,0.0,0.0,0.0,0.0,0.0
384836146,8,1528.0,1545.0,1527.0,1546.0,1491.0,1582.0,0.0,0.0,0.0,0.0,0.0,0.0,0.0,0.0,0.0,0.0
384952150,8,1515.0,1535.0,1552.0,1498.0,1514.0,1536.0,0.0,0.0,0.0,0.0,0.0,0.0,0.0,0.0,0.0,0.0
385043758,8,1493.0,1455.0,1460.0,1574.0,1493.0,1541.0,0.0,0.0,0.0,0.0,0.0,0.0,0.0,0.0,0.0,0.0
385151754,8,1495.0,1584.0,1523.0,1513.0,1428.0,1608.0,0.0,0.0,0.0,0.0,0.0,0.0,0.0,0.0,0.0,0.0
385247323,8,1452.0,1607.0,1599.0,1460.0,1499.0,1561.0,0.0,0.0,0.0,0.0,0.0,0.0,0.0,0.0,0.0,0.0
385355572,8,1557.0,1513.0,1535.0,1536.0,1531.0,1539.0,0.0,0.0,0.0,0.0,0.0,0.0,0.0,0.0,0.0,0.0
385463484,8,1543.0,1521.0,1604.0,1460.0,1587.0,1476.0,0.0,0.0,0.0,0.0,0.0,0.0,0.0,0.0,0.0,0.0
385551391,8,1502.0,1557.0,1549.0,1509.0,1492.0,1566.0,0.0,0.0,0.0,0.0,0.0,0.0,0.0,0.0,0.0,0.0
385667323,8,1481.0,1574.0,1613.0,1442.0,1542.0,1513.0,0.0,0.0,0.0,0.0,0.0,0.0,0.0,0.0,0.0,0.0
385755385,8,1650.0,1430.0,1469.0,1610.0,1553.0,1526.0,0.0,0.0,0.0,0.0,0.0,0.0,0.0,0.0,0.0,0.0
385866550,8,1488.0,1610.0,1589.0,1509.0,1508.0,1590.0,0.0,0.0,0.0,0.0,0.0,0.0,0.0,0.0,0.0,0.0
385970737,8,1549.0,1542.0,1600.0,1491.0,1574.0,1517.0,0.0,0.0,0.0,0.0,0.0,0.0,0.0,0.0,0.0,0.0
386054669,8,1497.0,1584.0,1583.0,1497.0,1511.0,1569.0,0.0,0.0,0.0,0.0,0.0,0.0,0.0,0.0,0.0,0.0
386162582,8,1641.0,1418.0,1435.0,1624.0,1516.0,1542.0,0.0,0.0,0.0,0.0,0.0,0.0,0.0,0.0,0.0,0.0
386278558,8,1648.0,1426.0,1507.0,1567.0,1580.0,1494.0,0.0,0.0,0.0,0.0,0.0,0.0,0.0,0.0,0.0,0.0
386370522,8,1619.0,1476.0,1504.0,1591.0,1547.0,1549.0,0.0,0.0,0.0,0.0,0.0,0.0,0.0,0.0,0.0,0.0
386470752,8,1633.0,1456.0,1504.0,1584.0,1563.0,1525.0,0.0,0.0,0.0,0.0,0.0,0.0,0.0,0.0,0.0,0.0
386581751,8,1583.0,1477.0,1467.0,1593.0,1487.0,1573.0,0.0,0.0,0.0,0.0,0.0,0.0,0.0,0.0,0.0,0.0
386673724,8,1478.0,1568.0,1530.0,1516.0,1456.0,1590.0,0.0,0.0,0.0,0.0,0.0,0.0,0.0,0.0,0.0,0.0
386786156,8,1587.0,1471.0,1498.0,1560.0,1542.0,1516.0,0.0,0.0,0.0,0.0,0.0,0.0,0.0,0.0,0.0,0.0
386874048,8,1582.0,1498.0,1522.0,1558.0,1529.0,1550.0,0.0,0.0,0.0,0.0,0.0,0.0,0.0,0.0,0.0,0.0
386986150,8,1555.0,1518.0,1593.0,1480.0,1576.0,1497.0,0.0,0.0,0.0,0.0,0.0,0.0,0.0,0.0,0.0,0.0
387077715,8,1500.0,1572.0,1622.0,1450.0,1553.0,1519.0,0.0,0.0,0.0,0.0,0.0,0.0,0.0,0.0,0.0,0.0
387189955,8,1517.0,1550.0,1549.0,1519.0,1496.0,1572.0,0.0,0.0,0.0,0.0,0.0,0.0,0.0,0.0,0.0,0.0
387277872,8,1569.0,1486.0,1492.0,1563.0,1503.0,1552.0,0.0,0.0,0.0,0.0,0.0,0.0,0.0,0.0,0.0,0.0
387385070,8,1477.0,1563.0,1572.0,1467.0,1495.0,1545.0,0.0,0.0,0.0,0.0,0.0,0.0,0.0,0.0,0.0,0.0
387496942,8,1498.0,1546.0,1423.0,1620.0,1372.0,1671.0,0.0,0.0,0.0,0.0,0.0,0.0,0.0,0.0,0.0,0.0
387581110,8,1560.0,1502.0,1514.0,1547.0,1510.0,1551.0,0.0,0.0,0.0,0.0,0.0,0.0,0.0,0.0,0.0,0.0
387689105,8,1391.0,1669.0,1563.0,1497.0,1387.0,1674.0,0.0,0.0,0.0,0.0,0.0,0.0,0.0,0.0,0.0,0.0
387796963,8,1564.0,1505.0,1530.0,1540.0,1526.0,1544.0,0.0,0.0,0.0,0.0,0.0,0.0,0.0,0.0,0.0,0.0
387889128,8,1548.0,1501.0,1547.0,1502.0,1537.0,1512.0,0.0,0.0,0.0,0.0,0.0,0.0,0.0,0.0,0.0,0.0
388005078,8,1600.0,1448.0,1494.0,1449.0,1577.0,1472.0,0.0,0.0,0.0,0.0,0.0,0.0,0.0,0.0,0.0,0.0
388096124,8,1474.0,1589.0,1543.0,1520.0,1467.0,1596.0,0.0,0.0,0.0,0.0,0.0,0.0,0.0,0.0,0.0,0.0
388208573,8,1608.0,1466.0,1515.0,1558.0,1555.0,1519.0,0.0,0.0,0.0,0.0,0.0,0.0,0.0,0.0,0.0,0.0
388296189,8,1515.0,1547.0,1570.0,1492.0,1525.0,1538.0,0.0,0.0,0.0,0.0,0.0,0.0,0.0,0.0,0.0,0.0
388404308,8,1485.0,1567.0,1570.0,1482.0,1510.0,1542.0,0.0,0.0,0.0,0.0,0.0,0.0,0.0,0.0,0.0,0.0
388516148,8,1473.0,1585.0,1553.0,1505.0,1480.0,1578.0,0.0,0.0,0.0,0.0,0.0,0.0,0.0,0.0,0.0,0.0
388608169,8,1510.0,1572.0,1646.0,1436.0,1588.0,1494.0,0.0,0.0,0.0,0.0,0.0,0.0,0.0,0.0,0.0,0.0
388720183,8,1440.0,1653.0,1570.0,1523.0,1450.0,1643.0,0.0,0.0,0.0,0.0,0.0,0.0,0.0,0.0,0.0,0.0
388812302,8,1508.0,1598.0,1596.0,1510.0,1510.0,1596.0,0.0,0.0,0.0,0.0,0.0,0.0,0.0,0.0,0.0,0.0
388903370,8,1518.0,1580.0,1586.0,1512.0,1521.0,1577.0,0.0,0.0,0.0,0.0,0.0,0.0,0.0,0.0,0.0,0.0
389013221,8,1529.0,1543.0,1569.0,1503.0,1532.0,1540.0,0.0,0.0,0.0,0.0,0.0,0.0,0.0,0.0,0.0,0.0
389104547,8,1582.0,1475.0,1528.0,1528.0,1556.0,1500.0,0.0,0.0,0.0,0.0,0.0,0.0,0.0,0.0,0.0,0.0
389215512,8,1600.0,1453.0,1447.0,1607.0,1498.0,1555.0,0.0,0.0,0.0,0.0,0.0,0.0,0.0,0.0,0.0,0.0
389327475,8,1523.0,1535.0,1537.0,1520.0,1510.0,1548.0,0.0,0.0,0.0,0.0,0.0,0.0,0.0,0.0,0.0,0.0
389419342,8,1421.0,1643.0,1620.0,1445.0,1482.0,1582.0,0.0,0.0,0.0,0.0,0.0,0.0,0.0,0.0,0.0,0.0
389511470,8,1484.0,1595.0,1568.0,1511.0,1488.0,1591.0,0.0,0.0,0.0,0.0,0.0,0.0,0.0,0.0,0.0,0.0
389623351,8,1481.0,1594.0,1492.0,1583.0,1421.0,1653.0,0.0,0.0,0.0,0.0,0.0,0.0,0.0,0.0,0.0,0.0
389726662,8,1540.0,1535.0,1546.0,1529.0,1525.0,1550.0,0.0,0.0,0.0,0.0,0.0,0.0,0.0,0.0,0.0,0.0
389834691,8,1472.0,1579.0,1619.0,1431.0,1541.0,1510.0,0.0,0.0,0.0,0.0,0.0,0.0,0.0,0.0,0.0,0.0
389918551,8,1594.0,1462.0,1507.0,1548.0,1546.0,1510.0,0.0,0.0,0.0,0.0,0.0,0.0,0.0,0.0,0.0,0.0
390026561,8,1646.0,1434.0,1504.0,1577.0,1587.0,1494.0,0.0,0.0,0.0,0.0,0.0,0.0,0.0,0.0,0.0,0.0
390138563,8,1435.0,1661.0,1605.0,1491.0,1473.0,1622.0,0.0,0.0,0.0,0.0,0.0,0.0,0.0,0.0,0.0,0.0
390242554,8,1648.0,1455.0,1503.0,1600.0,1579.0,1524.0,0.0,0.0,0.0,0.0,0.0,0.0,0.0,0.0,0.0,0.0
390330602,8,1539.0,1548.0,1509.0,1579.0,1494.0,1593.0,0.0,0.0,0.0,0.0,0.0,0.0,0.0,0.0,0.0,0.0
390442565,8,1466.0,1585.0,1556.0,1496.0,1485.0,1566.0,0.0,0.0,0.0,0.0,0.0,0.0,0.0,0.0,0.0,0.0
390533777,8,1507.0,1531.0,1614.0,1424.0,1587.0,1451.0,0.0,0.0,0.0,0.0,0.0,0.0,0.0,0.0,0.0,0.0
390641803,8,1570.0,1485.0,1561.0,1494.0,1576.0,1479.0,0.0,0.0,0.0,0.0,0.0,0.0,0.0,0.0,0.0,0.0
390753764,8,1535.0,1542.0,1509.0,1568.0,1479.0,1598.0,0.0,0.0,0.0,0.0,0.0,0.0,0.0,0.0,0.0,0.0
390845748,8,1509.0,1582.0,1608.0,1601.0,1470.0,1621.0,0.0,0.0,0.0,0.0,0.0,0.0,0.0,0.0,0.0,0.0
390933787,8,1598.0,1488.0,1512.0,1573.0,1550.0,1536.0,0.0,0.0,0.0,0.0,0.0,0.0,0.0,0.0,0.0,0.0
391041752,8,1565.0,1506.0,1489.0,1582.0,1495.0,1576.0,0.0,0.0,0.0,0.0,0.0,0.0,0.0,0.0,0.0,0.0
391154168,8,1468.0,1606.0,1593.0,1481.0,1501.0,1573.0,0.0,0.0,0.0,0.0,0.0,0.0,0.0,0.0,0.0,0.0
391257766,8,1516.0,1558.0,1543.0,1531.0,1495.0,1579.0,0.0,0.0,0.0,0.0,0.0,0.0,0.0,0.0,0.0,0.0
391345174,8,1490.0,1587.0,1539.0,1538.0,1475.0,1602.0,0.0,0.0,0.0,0.0,0.0,0.0,0.0,0.0,0.0,0.0
391457190,8,1528.0,1541.0,1547.0,1522.0,1514.0,1555.0,0.0,0.0,0.0,0.0,0.0,0.0,0.0,0.0,0.0,0.0
391545102,8,1501.0,1598.0,1585.0,1514.0,1504.0,1595.0,0.0,0.0,0.0,0.0,0.0,0.0,0.0,0.0,0.0,0.0
391660963,8,1569.0,1708.0,1652.0,1626.0,1551.0,1700.0,0.0,0.0,0.0,0.0,0.0,0.0,0.0,0.0,0.0,0.0
391765369,8,1518.0,1651.0,1647.0,1522.0,1555.0,1614.0,0.0,0.0,0.0,0.0,0.0,0.0,0.0,0.0,0.0,0.0
391853174,8,1505.0,1574.0,1619.0,1460.0,1558.0,1522.0,0.0,0.0,0.0,0.0,0.0,0.0,0.0,0.0,0.0,0.0
391961175,8,1504.0,1536.0,1540.0,1499.0,1500.0,1540.0,0.0,0.0,0.0,0.0,0.0,0.0,0.0,0.0,0.0,0.0
392068383,8,1488.0,1571.0,1649.0,1410.0,1590.0,1469.0,0.0,0.0,0.0,0.0,0.0,0.0,0.0,0.0,0.0,0.0
392156186,8,1660.0,1438.0,1434.0,1663.0,1520.0,1578.0,0.0,0.0,0.0,0.0,0.0,0.0,0.0,0.0,0.0,0.0
392268554,8,1519.0,1598.0,1569.0,1548.0,1501.0,1616.0,0.0,0.0,0.0,0.0,0.0,0.0,0.0,0.0,0.0,0.0
392360301,8,1574.0,1524.0,1546.0,1552.0,1532.0,1565.0,0.0,0.0,0.0,0.0,0.0,0.0,0.0,0.0,0.0,0.0
392476167,8,1541.0,1524.0,1617.0,1448.0,1591.0,1474.0,0.0,0.0,0.0,0.0,0.0,0.0,0.0,0.0,0.0,0.0
392564144,8,1479.0,1592.0,1513.0,1558.0,1431.0,1640.0,0.0,0.0,0.0,0.0,0.0,0.0,0.0,0.0,0.0,0.0
392676152,8,1529.0,1559.0,1562.0,1526.0,1515.0,1573.0,0.0,0.0,0.0,0.0,0.0,0.0,0.0,0.0,0.0,0.0
392772568,8,1445.0,1644.0,1560.0,1530.0,1425.0,1665.0,0.0,0.0,0.0,0.0,0.0,0.0,0.0,0.0,0.0,0.0
392881926,8,1605.0,1500.0,1512.0,1593.0,1537.0,1568.0,0.0,0.0,0.0,0.0,0.0,0.0,0.0,0.0,0.0,0.0
392971474,8,1521.0,1597.0,1587.0,1530.0,1525.0,1593.0,0.0,0.0,0.0,0.0,0.0,0.0,0.0,0.0,0.0,0.0
393087357,8,1597.0,1502.0,1531.0,1568.0,1539.0,1560.0,0.0,0.0,0.0,0.0,0.0,0.0,0.0,0.0,0.0,0.0
393175346,8,1522.0,1546.0,1512.0,1556.0,1473.0,1596.0,0.0,0.0,0.0,0.0,0.0,0.0,0.0,0.0,0.0,0.0
393283364,8,1629.0,1431.0,1504.0,1556.0,1563.0,1497.0,0.0,0.0,0.0,0.0,0.0,0.0,0.0,0.0,0.0,0.0
393387569,8,1578.0,1517.0,1539.0,1556.0,1533.0,1562.0,0.0,0.0,0.0,0.0,0.0,0.0,0.0,0.0,0.0,0.0
393483484,8,1609.0,1475.0,1505.0,1579.0,1533.0,1552.0,0.0,0.0,0.0,0.0,0.0,0.0,0.0,0.0,0.0,0.0
393595785,8,1465.0,1596.0,1562.0,1499.0,1467.0,1594.0,0.0,0.0,0.0,0.0,0.0,0.0,0.0,0.0,0.0,0.0
393686544,8,1526.0,1543.0,1601.0,1468.0,1552.0,1517.0,0.0,0.0,0.0,0.0,0.0,0.0,0.0,0.0,0.0,0.0
393778816,8,1438.0,1637.0,1552.0,1524.0,1422.0,1653.0,0.0,0.0,0.0,0.0,0.0,0.0,0.0,0.0,0.0,0.0
393891575,8,1603.0,1491.0,1627.0,1466.0,1636.0,1458.0,0.0,0.0,0.0,0.0,0.0,0.0,0.0,0.0,0.0,0.0
393982563,8,1608.0,1490.0,1495.0,1603.0,1508.0,1590.0,0.0,0.0,0.0,0.0,0.0,0.0,0.0,0.0,0.0,0.0
394102526,8,1598.0,1501.0,1494.0,1609.0,1486.0,1613.0,0.0,0.0,0.0,0.0,0.0,0.0,0.0,0.0,0.0,0.0
394210558,8,1576.0,1520.0,1549.0,1547.0,1524.0,1572.0,0.0,0.0,0.0,0.0,0.0,0.0,0.0,0.0,0.0,0.0
394294752,8,1519.0,1568.0,1530.0,1558.0,1457.0,1630.0,0.0,0.0,0.0,0.0,0.0,0.0,0.0,0.0,0.0,0.0
394406735,8,1517.0,1568.0,1625.0,1459.0,1544.0,1541.0,0.0,0.0,0.0,0.0,0.0,0.0,0.0,0.0,0.0,0.0
394497979,8,1601.0,1473.0,1553.0,1521.0,1573.0,1502.0,0.0,0.0,0.0,0.0,0.0,0.0,0.0,0.0,0.0,0.0
394602185,8,1562.0,1525.0,1565.0,1521.0,1544.0,1542.0,0.0,0.0,0.0,0.0,0.0,0.0,0.0,0.0,0.0,0.0
394717743,8,1536.0,1559.0,1612.0,1482.0,1570.0,1525.0,0.0,0.0,0.0,0.0,0.0,0.0,0.0,0.0,0.0,0.0
394809796,8,1615.0,1505.0,1598.0,1522.0,1607.0,1513.0,0.0,0.0,0.0,0.0,0.0,0.0,0.0,0.0,0.0,0.0
394917937,8,1606.0,1510.0,1554.0,1562.0,1564.0,1552.0,0.0,0.0,0.0,0.0,0.0,0.0,0.0,0.0,0.0,0.0
395021938,8,1625.0,1452.0,1509.0,1569.0,1556.0,1521.0,0.0,0.0,0.0,0.0,0.0,0.0,0.0,0.0,0.0,0.0
395109797,8,1621.0,1437.0,1494.0,1563.0,1554.0,1504.0,0.0,0.0,0.0,0.0,0.0,0.0,0.0,0.0,0.0,0.0
395214186,8,1629.0,1445.0,1490.0,1584.0,1545.0,1529.0,0.0,0.0,0.0,0.0,0.0,0.0,0.0,0.0,0.0,0.0
395325894,8,1610.0,1478.0,1615.0,1473.0,1653.0,1435.0,0.0,0.0,0.0,0.0,0.0,0.0,0.0,0.0,0.0,0.0
395416936,8,1576.0,1532.0,1563.0,1544.0,1551.0,1556.0,0.0,0.0,0.0,0.0,0.0,0.0,0.0,0.0,0.0,0.0
395528963,8,1574.0,1524.0,1539.0,1559.0,1519.0,1579.0,0.0,0.0,0.0,0.0,0.0,0.0,0.0,0.0,0.0,0.0
395616912,8,1515.0,1573.0,1586.0,1502.0,1527.0,1561.0,0.0,0.0,0.0,0.0,0.0,0.0,0.0,0.0,0.0,0.0
395721143,8,1614.0,1457.0,1517.0,1554.0,1566.0,1505.0,0.0,0.0,0.0,0.0,0.0,0.0,0.0,0.0,0.0,0.0
395812938,8,1551.0,1528.0,1496.0,1583.0,1480.0,1599.0,0.0,0.0,0.0,0.0,0.0,0.0,0.0,0.0,0.0,0.0
395921181,8,1590.0,1493.0,1507.0,1576.0,1522.0,1561.0,0.0,0.0,0.0,0.0,0.0,0.0,0.0,0.0,0.0,0.0
396028960,8,1545.0,1539.0,1641.0,1443.0,1611.0,1473.0,0.0,0.0,0.0,0.0,0.0,0.0,0.0,0.0,0.0,0.0
396136409,8,1519.0,1569.0,1586.0,1501.0,1530.0,1558.0,0.0,0.0,0.0,0.0,0.0,0.0,0.0,0.0,0.0,0.0
396224137,8,1493.0,1594.0,1625.0,1463.0,1539.0,1548.0,0.0,0.0,0.0,0.0,0.0,0.0,0.0,0.0,0.0,0.0
396336317,8,1646.0,1525.0,1586.0,1585.0,1607.0,1564.0,0.0,0.0,0.0,0.0,0.0,0.0,0.0,0.0,0.0,0.0
396428318,8,1612.0,1582.0,1594.0,1600.0,1574.0,1619.0,0.0,0.0,0.0,0.0,0.0,0.0,0.0,0.0,0.0,0.0
396540158,8,1554.0,1657.0,1678.0,1533.0,1593.0,1619.0,0.0,0.0,0.0,0.0,0.0,0.0,0.0,0.0,0.0,0.0
396652530,8,1563.0,1556.0,1564.0,1555.0,1530.0,1589.0,0.0,0.0,0.0,0.0,0.0,0.0,0.0,0.0,0.0,0.0
396740308,8,1554.0,1514.0,1508.0,1560.0,1502.0,1567.0,0.0,0.0,0.0,0.0,0.0,0.0,0.0,0.0,0.0,0.0
396851375,8,1554.0,1505.0,1480.0,1580.0,1478.0,1582.0,0.0,0.0,0.0,0.0,0.0,0.0,0.0,0.0,0.0,0.0
396939726,8,1622.0,1452.0,1501.0,1573.0,1558.0,1516.0,0.0,0.0,0.0,0.0,0.0,0.0,0.0,0.0,0.0,0.0
397051514,8,1490.0,1608.0,1557.0,1541.0,1474.0,1624.0,0.0,0.0,0.0,0.0,0.0,0.0,0.0,0.0,0.0,0.0
397139368,8,1502.0,1588.0,1584.0,1505.0,1511.0,1578.0,0.0,0.0,0.0,0.0,0.0,0.0,0.0,0.0,0.0,0.0
397247357,8,1503.0,1578.0,1571.0,1511.0,1510.0,1571.0,0.0,0.0,0.0,0.0,0.0,0.0,0.0,0.0,0.0,0.0
397355344,8,1542.0,1562.0,1536.0,1568.0,1504.0,1600.0,0.0,0.0,0.0,0.0,0.0,0.0,0.0,0.0,0.0,0.0
397463344,8,1618.0,1530.0,1522.0,1627.0,1539.0,1609.0,0.0,0.0,0.0,0.0,0.0,0.0,0.0,0.0,0.0,0.0
397567486,8,1574.0,1554.0,1557.0,1571.0,1538.0,1590.0,0.0,0.0,0.0,0.0,0.0,0.0,0.0,0.0,0.0,0.0
397658961,8,1533.0,1564.0,1645.0,1452.0,1598.0,1499.0,0.0,0.0,0.0,0.0,0.0,0.0,0.0,0.0,0.0,0.0
397762776,8,1624.0,1489.0,1492.0,1621.0,1527.0,1586.0,0.0,0.0,0.0,0.0,0.0,0.0,0.0,0.0,0.0,0.0
397866522,8,1566.0,1542.0,1564.0,1544.0,1544.0,1564.0,0.0,0.0,0.0,0.0,0.0,0.0,0.0,0.0,0.0,0.0
398482962,8,1537.0,1571.0,1496.0,1612.0,1540.0,1568.0,0.0,0.0,0.0,0.0,0.0,0.0,0.0,0.0,0.0,0.0
398577763,8,1483.0,1598.0,1614.0,1467.0,1533.0,1548.0,0.0,0.0,0.0,0.0,0.0,0.0,0.0,0.0,0.0,0.0
398670153,8,1553.0,1537.0,1492.0,1598.0,1545.0,1539.0,0.0,0.0,0.0,0.0,0.0,0.0,0.0,0.0,0.0,0.0
398773917,8,1604.0,1495.0,1493.0,1606.0,1524.0,1575.0,0.0,0.0,0.0,0.0,0.0,0.0,0.0,0.0,0.0,0.0
398886025,8,1539.0,1543.0,1579.0,1502.0,1547.0,1534.0,0.0,0.0,0.0,0.0,0.0,0.0,0.0,0.0,0.0,0.0
398993981,8,1514.0,1561.0,1583.0,1492.0,1529.0,1546.0,0.0,0.0,0.0,0.0,0.0,0.0,0.0,0.0,0.0,0.0
399089787,8,1592.0,1458.0,1462.0,1589.0,1505.0,1546.0,0.0,0.0,0.0,0.0,0.0,0.0,0.0,0.0,0.0,0.0
399193905,8,1458.0,1501.0,1514.0,1445.0,1471.0,1488.0,0.0,0.0,0.0,0.0,0.0,0.0,0.0,0.0,0.0,0.0
399289346,8,1458.0,1577.0,1556.0,1478.0,1475.0,1560.0,0.0,0.0,0.0,0.0,0.0,0.0,0.0,0.0,0.0,0.0
399397146,8,1678.0,1446.0,1466.0,1659.0,1554.0,1570.0,0.0,0.0,0.0,0.0,0.0,0.0,0.0,0.0,0.0,0.0
399484980,8,1547.0,1579.0,1594.0,1532.0,1548.0,1578.0,0.0,0.0,0.0,0.0,0.0,0.0,0.0,0.0,0.0,0.0
399601152,8,1512.0,1578.0,1566.0,1524.0,1507.0,1583.0,0.0,0.0,0.0,0.0,0.0,0.0,0.0,0.0,0.0,0.0
399693110,8,1525.0,1535.0,1567.0,1493.0,1530.0,1531.0,0.0,0.0,0.0,0.0,0.0,0.0,0.0,0.0,0.0,0.0
399789132,8,1510.0,1505.0,1446.0,1570.0,1432.0,1584.0,0.0,0.0,0.0,0.0,0.0,0.0,0.0,0.0,0.0,0.0
399901146,8,1457.0,1370.0,1377.0,1450.0,1401.0,1426.0,0.0,0.0,0.0,0.0,0.0,0.0,0.0,0.0,0.0,0.0
400009132,8,1371.0,1538.0,1502.0,1407.0,1400.0,1510.0,0.0,0.0,0.0,0.0,0.0,0.0,0.0,0.0,0.0,0.0
400104279,8,1527.0,1522.0,1565.0,1484.0,1547.0,1503.0,0.0,0.0,0.0,0.0,0.0,0.0,0.0,0.0,0.0,0.0
400212250,8,1616.0,1496.0,1540.0,1572.0,1565.0,1546.0,0.0,0.0,0.0,0.0,0.0,0.0,0.0,0.0,0.0,0.0
400304329,8,1585.0,1540.0,1558.0,1568.0,1561.0,1564.0,0.0,0.0,0.0,0.0,0.0,0.0,0.0,0.0,0.0,0.0
400408318,8,1579.0,1547.0,1504.0,1622.0,1498.0,1627.0,0.0,0.0,0.0,0.0,0.0,0.0,0.0,0.0,0.0,0.0
400516258,8,1548.0,1530.0,1553.0,1524.0,1534.0,1544.0,0.0,0.0,0.0,0.0,0.0,0.0,0.0,0.0,0.0,0.0
400604555,8,1570.0,1481.0,1525.0,1527.0,1545.0,1506.0,0.0,0.0,0.0,0.0,0.0,0.0,0.0,0.0,0.0,0.0
400716265,8,1513.0,1528.0,1502.0,1539.0,1462.0,1579.0,0.0,0.0,0.0,0.0,0.0,0.0,0.0,0.0,0.0,0.0
400800129,8,1572.0,1482.0,1458.0,1596.0,1479.0,1575.0,0.0,0.0,0.0,0.0,0.0,0.0,0.0,0.0,0.0,0.0
400915551,8,1549.0,1526.0,1538.0,1537.0,1526.0,1548.0,0.0,0.0,0.0,0.0,0.0,0.0,0.0,0.0,0.0,0.0
401023499,8,1474.0,1600.0,1498.0,1577.0,1412.0,1662.0,0.0,0.0,0.0,0.0,0.0,0.0,0.0,0.0,0.0,0.0
401107763,8,1498.0,1588.0,1632.0,1453.0,1563.0,1522.0,0.0,0.0,0.0,0.0,0.0,0.0,0.0,0.0,0.0,0.0
401211346,8,1546.0,1552.0,1614.0,1484.0,1589.0,1509.0,0.0,0.0,0.0,0.0,0.0,0.0,0.0,0.0,0.0,0.0
401319340,8,1516.0,1582.0,1601.0,1498.0,1533.0,1565.0,0.0,0.0,0.0,0.0,0.0,0.0,0.0,0.0,0.0,0.0
401427319,8,1514.0,1574.0,1583.0,1504.0,1515.0,1573.0,0.0,0.0,0.0,0.0,0.0,0.0,0.0,0.0,0.0,0.0
401519533,8,1507.0,1540.0,1609.0,1438.0,1557.0,1490.0,0.0,0.0,0.0,0.0,0.0,0.0,0.0,0.0,0.0,0.0
401629926,8,1581.0,1482.0,1503.0,1561.0,1526.0,1537.0,0.0,0.0,0.0,0.0,0.0,0.0,0.0,0.0,0.0,0.0
401718987,8,1479.0,1578.0,1615.0,1442.0,1541.0,1516.0,0.0,0.0,0.0,0.0,0.0,0.0,0.0,0.0,0.0,0.0
401834555,8,1510.0,1533.0,1553.0,1489.0,1517.0,1525.0,0.0,0.0,0.0,0.0,0.0,0.0,0.0,0.0,0.0,0.0
401938540,8,1440.0,1542.0,1576.0,1406.0,1491.0,1491.0,0.0,0.0,0.0,0.0,0.0,0.0,0.0,0.0,0.0,0.0
402022657,8,1446.0,1572.0,1559.0,1458.0,1468.0,1549.0,0.0,0.0,0.0,0.0,0.0,0.0,0.0,0.0,0.0,0.0
402134731,8,1582.0,1479.0,1503.0,1558.0,1522.0,1539.0,0.0,0.0,0.0,0.0,0.0,0.0,0.0,0.0,0.0,0.0
402246566,8,1562.0,1502.0,1509.0,1555.0,1514.0,1550.0,0.0,0.0,0.0,0.0,0.0,0.0,0.0,0.0,0.0,0.0
402338686,8,1514.0,1539.0,1568.0,1485.0,1525.0,1528.0,0.0,0.0,0.0,0.0,0.0,0.0,0.0,0.0,0.0,0.0
402428285,8,1465.0,1584.0,1541.0,1507.0,1456.0,1593.0,0.0,0.0,0.0,0.0,0.0,0.0,0.0,0.0,0.0,0.0
402542191,8,1423.0,1614.0,1579.0,1459.0,1445.0,1593.0,0.0,0.0,0.0,0.0,0.0,0.0,0.0,0.0,0.0,0.0
402633959,8,1461.0,1603.0,1517.0,1547.0,1424.0,1640.0,0.0,0.0,0.0,0.0,0.0,0.0,0.0,0.0,0.0,0.0
402745721,8,1575.0,1490.0,1516.0,1549.0,1531.0,1533.0,0.0,0.0,0.0,0.0,0.0,0.0,0.0,0.0,0.0,0.0
402849753,8,1456.0,1613.0,1540.0,1528.0,1443.0,1626.0,0.0,0.0,0.0,0.0,0.0,0.0,0.0,0.0,0.0,0.0
402953740,8,1491.0,1580.0,1577.0,1493.0,1513.0,1557.0,0.0,0.0,0.0,0.0,0.0,0.0,0.0,0.0,0.0,0.0
403041750,8,1519.0,1539.0,1560.0,1495.0,1522.0,1533.0,0.0,0.0,0.0,0.0,0.0,0.0,0.0,0.0,0.0,0.0
403154150,8,1502.0,1559.0,1468.0,1592.0,1413.0,1647.0,0.0,0.0,0.0,0.0,0.0,0.0,0.0,0.0,0.0,0.0
403245169,8,1655.0,1436.0,1504.0,1587.0,1597.0,1493.0,0.0,0.0,0.0,0.0,0.0,0.0,0.0,0.0,0.0,0.0
403354036,8,1662.0,1448.0,1556.0,1554.0,1621.0,1490.0,0.0,0.0,0.0,0.0,0.0,0.0,0.0,0.0,0.0,0.0
403444938,8,1564.0,1523.0,1610.0,1477.0,1588.0,1499.0,0.0,0.0,0.0,0.0,0.0,0.0,0.0,0.0,0.0,0.0
403557102,8,1558.0,1511.0,1564.0,1504.0,1556.0,1512.0,0.0,0.0,0.0,0.0,0.0,0.0,0.0,0.0,0.0,0.0
403649067,8,1582.0,1477.0,1499.0,1560.0,1519.0,1540.0,0.0,0.0,0.0,0.0,0.0,0.0,0.0,0.0,0.0,0.0
403764948,8,1484.0,1575.0,1514.0,1545.0,1440.0,1619.0,0.0,0.0,0.0,0.0,0.0,0.0,0.0,0.0,0.0,0.0
403853107,8,1645.0,1420.0,1478.0,1587.0,1553.0,1513.0,0.0,0.0,0.0,0.0,0.0,0.0,0.0,0.0,0.0,0.0
403961079,8,1484.0,1606.0,1519.0,1571.0,1430.0,1660.0,0.0,0.0,0.0,0.0,0.0,0.0,0.0,0.0,0.0,0.0
404072128,8,1614.0,1490.0,1540.0,1564.0,1575.0,1529.0,0.0,0.0,0.0,0.0,0.0,0.0,0.0,0.0,0.0,0.0
404176177,8,1567.0,1518.0,1545.0,1540.0,1547.0,1538.0,0.0,0.0,0.0,0.0,0.0,0.0,0.0,0.0,0.0,0.0
404280116,8,1532.0,1528.0,1524.0,1535.0,1508.0,1552.0,0.0,0.0,0.0,0.0,0.0,0.0,0.0,0.0,0.0,0.0
404364337,8,1480.0,1574.0,1581.0,1473.0,1518.0,1536.0,0.0,0.0,0.0,0.0,0.0,0.0,0.0,0.0,0.0,0.0
404480589,8,1531.0,1527.0,1512.0,1546.0,1506.0,1552.0,0.0,0.0,0.0,0.0,0.0,0.0,0.0,0.0,0.0,0.0
404572417,8,1499.0,1565.0,1560.0,1504.0,1514.0,1550.0,0.0,0.0,0.0,0.0,0.0,0.0,0.0,0.0,0.0,0.0
404684115,8,1464.0,1594.0,1573.0,1486.0,1495.0,1563.0,0.0,0.0,0.0,0.0,0.0,0.0,0.0,0.0,0.0,0.0
404771326,8,1620.0,1435.0,1476.0,1579.0,1557.0,1498.0,0.0,0.0,0.0,0.0,0.0,0.0,0.0,0.0,0.0,0.0
404879340,8,1528.0,1540.0,1484.0,1584.0,1470.0,1598.0,0.0,0.0,0.0,0.0,0.0,0.0,0.0,0.0,0.0,0.0
404991315,8,1551.0,1526.0,1520.0,1557.0,1523.0,1554.0,0.0,0.0,0.0,0.0,0.0,0.0,0.0,0.0,0.0,0.0
405075531,8,1589.0,1486.0,1486.0,1589.0,1533.0,1541.0,0.0,0.0,0.0,0.0,0.0,0.0,0.0,0.0,0.0,0.0
405183378,8,1484.0,1579.0,1565.0,1498.0,1511.0,1552.0,0.0,0.0,0.0,0.0,0.0,0.0,0.0,0.0,0.0,0.0
405295345,8,1524.0,1533.0,1604.0,1453.0,1585.0,1472.0,0.0,0.0,0.0,0.0,0.0,0.0,0.0,0.0,0.0,0.0
405383348,8,1543.0,1514.0,1507.0,1550.0,1513.0,1544.0,0.0,0.0,0.0,0.0,0.0,0.0,0.0,0.0,0.0,0.0
405491357,8,1491.0,1575.0,1568.0,1499.0,1514.0,1553.0,0.0,0.0,0.0,0.0,0.0,0.0,0.0,0.0,0.0,0.0
405599353,8,1543.0,1539.0,1450.0,1632.0,1453.0,1629.0,0.0,0.0,0.0,0.0,0.0,0.0,0.0,0.0,0.0,0.0
405682671,8,1536.0,1557.0,1486.0,1607.0,1467.0,1627.0,0.0,0.0,0.0,0.0,0.0,0.0,0.0,0.0,0.0,0.0
405790776,8,1476.0,1619.0,1547.0,1548.0,1477.0,1618.0,0.0,0.0,0.0,0.0,0.0,0.0,0.0,0.0,0.0,0.0
405902564,8,1498.0,1588.0,1550.0,1536.0,1499.0,1587.0,0.0,0.0,0.0,0.0,0.0,0.0,0.0,0.0,0.0,0.0
406006581,8,1527.0,1530.0,1591.0,1466.0,1576.0,1481.0,0.0,0.0,0.0,0.0,0.0,0.0,0.0,0.0,0.0,0.0
406110675,8,1552.0,1508.0,1511.0,1550.0,1525.0,1535.0,0.0,0.0,0.0,0.0,0.0,0.0,0.0,0.0,0.0,0.0
406194748,8,1618.0,1437.0,1469.0,1587.0,1552.0,1503.0,0.0,0.0,0.0,0.0,0.0,0.0,0.0,0.0,0.0,0.0
406306545,8,1494.0,1576.0,1534.0,1536.0,1476.0,1595.0,0.0,0.0,0.0,0.0,0.0,0.0,0.0,0.0,0.0,0.0
406396261,8,1392.0,1680.0,1573.0,1498.0,1416.0,1656.0,0.0,0.0,0.0,0.0,0.0,0.0,0.0,0.0,0.0,0.0
406509914,8,1575.0,1495.0,1529.0,1541.0,1555.0,1515.0,0.0,0.0,0.0,0.0,0.0,0.0,0.0,0.0,0.0,0.0
406613916,8,1471.0,1603.0,1624.0,1450.0,1550.0,1524.0,0.0,0.0,0.0,0.0,0.0,0.0,0.0,0.0,0.0,0.0
406701774,8,1573.0,1511.0,1494.0,1589.0,1514.0,1569.0,0.0,0.0,0.0,0.0,0.0,0.0,0.0,0.0,0.0,0.0
406817718,8,1536.0,1551.0,1462.0,1625.0,1447.0,1639.0,0.0,0.0,0.0,0.0,0.0,0.0,0.0,0.0,0.0,0.0
406905916,8,1572.0,1548.0,1635.0,1485.0,1644.0,1476.0,0.0,0.0,0.0,0.0,0.0,0.0,0.0,0.0,0.0,0.0
407017871,8,1603.0,1814.0,1744.0,1673.0,1622.0,1795.0,0.0,0.0,0.0,0.0,0.0,0.0,0.0,0.0,0.0,0.0
407125751,8,1537.0,1698.0,1665.0,1570.0,1560.0,1675.0,0.0,0.0,0.0,0.0,0.0,0.0,0.0,0.0,0.0,0.0
407213169,8,1527.0,1534.0,1548.0,1513.0,1522.0,1539.0,0.0,0.0,0.0,0.0,0.0,0.0,0.0,0.0,0.0,0.0
407321149,8,1466.0,1524.0,1507.0,1482.0,1462.0,1527.0,0.0,0.0,0.0,0.0,0.0,0.0,0.0,0.0,0.0,0.0
407417158,8,1502.0,1519.0,1467.0,1553.0,1447.0,1574.0,0.0,0.0,0.0,0.0,0.0,0.0,0.0,0.0,0.0,0.0
407525155,8,1572.0,1497.0,1541.0,1528.0,1558.0,1511.0,0.0,0.0,0.0,0.0,0.0,0.0,0.0,0.0,0.0,0.0
407613223,8,1460.0,1617.0,1576.0,1502.0,1467.0,1610.0,0.0,0.0,0.0,0.0,0.0,0.0,0.0,0.0,0.0,0.0
407724933,8,1484.0,1601.0,1569.0,1517.0,1487.0,1599.0,0.0,0.0,0.0,0.0,0.0,0.0,0.0,0.0,0.0,0.0
407816959,8,1472.0,1603.0,1577.0,1498.0,1480.0,1595.0,0.0,0.0,0.0,0.0,0.0,0.0,0.0,0.0,0.0,0.0
407932955,8,1607.0,1469.0,1469.0,1607.0,1512.0,1563.0,0.0,0.0,0.0,0.0,0.0,0.0,0.0,0.0,0.0,0.0
408024259,8,1622.0,1452.0,1510.0,1563.0,1569.0,1505.0,0.0,0.0,0.0,0.0,0.0,0.0,0.0,0.0,0.0,0.0
408132165,8,1446.0,1638.0,1514.0,1569.0,1399.0,1685.0,0.0,0.0,0.0,0.0,0.0,0.0,0.0,0.0,0.0,0.0
408220334,8,1650.0,1442.0,1525.0,1567.0,1589.0,1503.0,0.0,0.0,0.0,0.0,0.0,0.0,0.0,0.0,0.0,0.0
408332184,8,1449.0,1645.0,1520.0,1574.0,1396.0,1698.0,0.0,0.0,0.0,0.0,0.0,0.0,0.0,0.0,0.0,0.0
408440372,8,1640.0,1458.0,1529.0,1569.0,1584.0,1513.0,0.0,0.0,0.0,0.0,0.0,0.0,0.0,0.0,0.0,0.0
408528342,8,1522.0,1564.0,1517.0,1569.0,1453.0,1633.0,0.0,0.0,0.0,0.0,0.0,0.0,0.0,0.0,0.0,0.0
408636384,8,1521.0,1548.0,1483.0,1586.0,1435.0,1634.0,0.0,0.0,0.0,0.0,0.0,0.0,0.0,0.0,0.0,0.0
408748134,8,1590.0,1482.0,1477.0,1595.0,1498.0,1575.0,0.0,0.0,0.0,0.0,0.0,0.0,0.0,0.0,0.0,0.0
408835356,8,1510.0,1574.0,1586.0,1498.0,1518.0,1566.0,0.0,0.0,0.0,0.0,0.0,0.0,0.0,0.0,0.0,0.0
408943351,8,1565.0,1519.0,1468.0,1616.0,1459.0,1625.0,0.0,0.0,0.0,0.0,0.0,0.0,0.0,0.0,0.0,0.0
409035330,8,1615.0,1472.0,1493.0,1594.0,1525.0,1562.0,0.0,0.0,0.0,0.0,0.0,0.0,0.0,0.0,0.0,0.0
409147593,8,1613.0,1463.0,1481.0,1595.0,1522.0,1554.0,0.0,0.0,0.0,0.0,0.0,0.0,0.0,0.0,0.0,0.0
409251547,8,1588.0,1659.0,1669.0,1579.0,1600.0,1648.0,0.0,0.0,0.0,0.0,0.0,0.0,0.0,0.0,0.0,0.0
409359362,8,1717.0,1704.0,1711.0,1711.0,1668.0,1754.0,0.0,0.0,0.0,0.0,0.0,0.0,0.0,0.0,0.0,0.0
409443529,8,1646.0,1607.0,1663.0,1590.0,1620.0,1633.0,0.0,0.0,0.0,0.0,0.0,0.0,0.0,0.0,0.0,0.0
409555315,8,1496.0,1589.0,1602.0,1483.0,1512.0,1573.0,0.0,0.0,0.0,0.0,0.0,0.0,0.0,0.0,0.0,0.0
409643458,8,1616.0,1512.0,1605.0,1524.0,1613.0,1516.0,0.0,0.0,0.0,0.0,0.0,0.0,0.0,0.0,0.0,0.0
409758949,8,1554.0,1585.0,1586.0,1553.0,1539.0,1601.0,0.0,0.0,0.0,0.0,0.0,0.0,0.0,0.0,0.0,0.0
409850563,8,1508.0,1594.0,1622.0,1480.0,1546.0,1555.0,0.0,0.0,0.0,0.0,0.0,0.0,0.0,0.0,0.0,0.0
409954828,8,1554.0,1538.0,1495.0,1598.0,1478.0,1615.0,0.0,0.0,0.0,0.0,0.0,0.0,0.0,0.0,0.0,0.0
410066554,8,1571.0,1553.0,1529.0,1595.0,1513.0,1611.0,0.0,0.0,0.0,0.0,0.0,0.0,0.0,0.0,0.0,0.0
410150836,8,1603.0,1520.0,1566.0,1557.0,1569.0,1554.0,0.0,0.0,0.0,0.0,0.0,0.0,0.0,0.0,0.0,0.0
410266525,8,1626.0,1477.0,1557.0,1546.0,1596.0,1507.0,0.0,0.0,0.0,0.0,0.0,0.0,0.0,0.0,0.0,0.0
410372997,8,1558.0,1542.0,1535.0,1566.0,1507.0,1594.0,0.0,0.0,0.0,0.0,0.0,0.0,0.0,0.0,0.0,0.0
410463525,8,1604.0,1503.0,1498.0,1609.0,1518.0,1588.0,0.0,0.0,0.0,0.0,0.0,0.0,0.0,0.0,0.0,0.0
410577811,8,1508.0,1591.0,1564.0,1534.0,1500.0,1599.0,0.0,0.0,0.0,0.0,0.0,0.0,0.0,0.0,0.0,0.0
410665963,8,1507.0,1579.0,1624.0,1462.0,1558.0,1528.0,0.0,0.0,0.0,0.0,0.0,0.0,0.0,0.0,0.0,0.0
410773960,8,1621.0,1476.0,1498.0,1599.0,1546.0,1552.0,0.0,0.0,0.0,0.0,0.0,0.0,0.0,0.0,0.0,0.0
410865740,8,1646.0,1466.0,1516.0,1596.0,1577.0,1535.0,0.0,0.0,0.0,0.0,0.0,0.0,0.0,0.0,0.0,0.0
410969802,8,1558.0,1552.0,1621.0,1489.0,1595.0,1515.0,0.0,0.0,0.0,0.0,0.0,0.0,0.0,0.0,0.0,0.0
411077737,8,1533.0,1570.0,1604.0,1499.0,1556.0,1547.0,0.0,0.0,0.0,0.0,0.0,0.0,0.0,0.0,0.0,0.0
411184937,8,1622.0,1478.0,1505.0,1594.0,1551.0,1549.0,0.0,0.0,0.0,0.0,0.0,0.0,0.0,0.0,0.0,0.0
411276285,8,1586.0,1517.0,1548.0,1556.0,1553.0,1551.0,0.0,0.0,0.0,0.0,0.0,0.0,0.0,0.0,0.0,0.0
411385120,8,1556.0,1546.0,1479.0,1623.0,1452.0,1650.0,0.0,0.0,0.0,0.0,0.0,0.0,0.0,0.0,0.0,0.0
411472956,8,1595.0,1503.0,1500.0,1599.0,1519.0,1580.0,0.0,0.0,0.0,0.0,0.0,0.0,0.0,0.0,0.0,0.0
411585124,8,1629.0,1452.0,1459.0,1621.0,1521.0,1560.0,0.0,0.0,0.0,0.0,0.0,0.0,0.0,0.0,0.0,0.0
411688935,8,1540.0,1446.0,1448.0,1538.0,1471.0,1514.0,0.0,0.0,0.0,0.0,0.0,0.0,0.0,0.0,0.0,0.0
411785193,8,1545.0,1533.0,1523.0,1554.0,1513.0,1564.0,0.0,0.0,0.0,0.0,0.0,0.0,0.0,0.0,0.0,0.0
411881180,8,1599.0,1547.0,1575.0,1571.0,1569.0,1576.0,0.0,0.0,0.0,0.0,0.0,0.0,0.0,0.0,0.0,0.0
411992378,8,1603.0,1528.0,1558.0,1573.0,1565.0,1567.0,0.0,0.0,0.0,0.0,0.0,0.0,0.0,0.0,0.0,0.0
412080334,8,1561.0,1532.0,1491.0,1602.0,1484.0,1608.0,0.0,0.0,0.0,0.0,0.0,0.0,0.0,0.0,0.0,0.0
412192119,8,1418.0,1549.0,1431.0,1537.0,1350.0,1618.0,0.0,0.0,0.0,0.0,0.0,0.0,0.0,0.0,0.0,0.0
412300375,8,1401.0,1289.0,1349.0,1341.0,1387.0,1303.0,0.0,0.0,0.0,0.0,0.0,0.0,0.0,0.0,0.0,0.0
412392196,8,1376.0,1367.0,1443.0,1301.0,1436.0,1308.0,0.0,0.0,0.0,0.0,0.0,0.0,0.0,0.0,0.0,0.0
412504330,8,1344.0,1599.0,1535.0,1407.0,1385.0,1558.0,0.0,0.0,0.0,0.0,0.0,0.0,0.0,0.0,0.0,0.0
412596554,8,1566.0,1521.0,1545.0,1543.0,1540.0,1547.0,0.0,0.0,0.0,0.0,0.0,0.0,0.0,0.0,0.0,0.0
412704556,8,1621.0,1501.0,1526.0,1596.0,1557.0,1564.0,0.0,0.0,0.0,0.0,0.0,0.0,0.0,0.0,0.0,0.0
412793922,8,1494.0,1616.0,1589.0,1521.0,1499.0,1611.0,0.0,0.0,0.0,0.0,0.0,0.0,0.0,0.0,0.0,0.0
412911363,8,1539.0,1548.0,1570.0,1518.0,1538.0,1549.0,0.0,0.0,0.0,0.0,0.0,0.0,0.0,0.0,0.0,0.0
412999340,8,1601.0,1472.0,1475.0,1598.0,1514.0,1559.0,0.0,0.0,0.0,0.0,0.0,0.0,0.0,0.0,0.0,0.0
413107370,8,1448.0,1611.0,1574.0,1485.0,1466.0,1594.0,0.0,0.0,0.0,0.0,0.0,0.0,0.0,0.0,0.0,0.0
413195398,8,1593.0,1466.0,1503.0,1556.0,1548.0,1511.0,0.0,0.0,0.0,0.0,0.0,0.0,0.0,0.0,0.0,0.0
413311758,8,1524.0,1550.0,1645.0,1429.0,1598.0,1475.0,0.0,0.0,0.0,0.0,0.0,0.0,0.0,0.0,0.0,0.0
413399349,8,1590.0,1490.0,1623.0,1457.0,1495.0,1585.0,0.0,0.0,0.0,0.0,0.0,0.0,0.0,0.0,0.0,0.0
413511515,8,1414.0,1537.0,1552.0,1533.0,1532.0,1554.0,0.0,0.0,0.0,0.0,0.0,0.0,0.0,0.0,0.0,0.0
413618584,8,1562.0,1521.0,1515.0,1568.0,1509.0,1574.0,0.0,0.0,0.0,0.0,0.0,0.0,0.0,0.0,0.0,0.0
413702757,8,1577.0,1498.0,1462.0,1614.0,1481.0,1595.0,0.0,0.0,0.0,0.0,0.0,0.0,0.0,0.0,0.0,0.0
413818781,8,1589.0,1482.0,1469.0,1602.0,1493.0,1578.0,0.0,0.0,0.0,0.0,0.0,0.0,0.0,0.0,0.0,0.0
413926747,8,1530.0,1532.0,1528.0,1534.0,1510.0,1552.0,0.0,0.0,0.0,0.0,0.0,0.0,0.0,0.0,0.0,0.0
414018746,8,1593.0,1484.0,1522.0,1555.0,1551.0,1525.0,0.0,0.0,0.0,0.0,0.0,0.0,0.0,0.0,0.0,0.0
414110734,8,1575.0,1497.0,1530.0,1541.0,1545.0,1526.0,0.0,0.0,0.0,0.0,0.0,0.0,0.0,0.0,0.0,0.0
414218813,8,1494.0,1563.0,1510.0,1547.0,1454.0,1604.0,0.0,0.0,0.0,0.0,0.0,0.0,0.0,0.0,0.0,0.0
414310567,8,1513.0,1464.0,1501.0,1476.0,1503.0,1474.0,0.0,0.0,0.0,0.0,0.0,0.0,0.0,0.0,0.0,0.0
414421736,8,1529.0,1499.0,1541.0,1487.0,1532.0,1496.0,0.0,0.0,0.0,0.0,0.0,0.0,0.0,0.0,0.0,0.0
414534187,8,1507.0,1521.0,1584.0,1444.0,1552.0,1476.0,0.0,0.0,0.0,0.0,0.0,0.0,0.0,0.0,0.0,0.0
