timestamp,voltage_v,voltage_filtered_v,current_a,current_filtered_a,average_current_a,discharged_mah,remaining,scale,temperature,cell_count,voltage_cell_v[0],voltage_cell_v[1],voltage_cell_v[2],voltage_cell_v[3],max_cell_voltage_delta,capacity,cycle_count,run_time_to_empty,average_time_to_empty,serial_number,connected,system_source,priority,is_powering_off,warning
349490708,15.625038,15.606445,38.9484,38.95315,0.0,3747.4446,0.40322286,1.0764782,0.0,4,0.0,0.0,0.0,0.0,0.0,0,0,0,0,0,1,1,0,0,0
350001810,15.60558,15.60292,38.9484,38.9503,0.0,3752.9739,0.40146,1.0767215,0.0,4,0.0,0.0,0.0,0.0,0.0,0,0,0,0,0,1,1,0,0,0
350505185,15.586122,15.599348,38.9484,38.949875,0.0,3758.4194,0.39967424,1.0769681,0.0,4,0.0,0.0,0.0,0.0,0.0,0,0,0,0,0,1,1,0,0,0
350997123,15.60558,15.597948,38.9608,38.950897,0.0,3763.7424,0.39897424,1.0770648,0.0,4,0.0,0.0,0.0,0.0,0.0,0,0,0,0,0,1,1,0,0,0
351496352,15.586122,15.595659,38.9484,38.949432,0.0,3769.144,0.39782983,1.0772228,0.0,4,0.0,0.0,0.0,0.0,0.0,0,0,0,0,0,1,1,0,0,0
351999631,15.586122,15.593643,38.9484,38.949932,0.0,3774.5898,0.3968218,1.0773621,0.0,4,0.0,0.0,0.0,0.0,0.0,0,0,0,0,0,1,1,0,0,0
352503553,15.595851,15.594259,38.9484,38.94941,0.0,3780.0413,0.39712983,1.0773195,0.0,4,0.0,0.0,0.0,0.0,0.0,0,0,0,0,0,1,1,0,0,0
353006751,15.586122,15.594159,38.9608,38.95355,0.0,3785.4866,0.39707977,1.0773264,0.0,4,0.0,0.0,0.0,0.0,0.0,0,0,0,0,0,1,1,0,0,0
353509974,15.576392,15.593921,38.9608,38.954834,0.0,3790.932,0.39696056,1.0773429,0.0,4,0.0,0.0,0.0,0.0,0.0,0,0,0,0,0,1,1,0,0,0
354001930,15.61531,15.594153,38.9484,38.951084,0.0,3796.254,0.3970769,1.0773268,0.0,4,0.0,0.0,0.0,0.0,0.0,0,0,0,0,0,1,1,0,0,0
354505003,15.595851,15.59506,38.9484,38.951115,0.0,3801.697,0.39753038,1.0772642,0.0,4,0.0,0.0,0.0,0.0,0.0,0,0,0,0,0,1,1,0,0,0
355008223,15.595851,15.595502,38.9608,38.950367,0.0,3807.141,0.39775115,1.0772337,0.0,4,0.0,0.0,0.0,0.0,0.0,0,0,0,0,0,1,1,0,0,0
355508304,15.586122,15.596122,38.9608,38.9506,0.0,3812.5522,0.3980611,1.0771909,0.0,4,0.0,0.0,0.0,0.0,0.0,0,0,0,0,0,1,1,0,0,0
356011620,15.595851,15.599251,38.9484,38.95008,0.0,3817.998,0.3996256,1.0769747,0.0,4,0.0,0.0,0.0,0.0,0.0,0,0,0,0,0,1,1,0,0,0
356515582,15.566664,15.597375,38.973198,38.950417,0.0,3823.451,0.4075063,1.0758877,0.0,4,0.0,0.0,0.0,0.0,0.0,0,0,0,0,0,1,1,0,0,0
357014701,15.479101,15.578383,38.936,38.951252,0.0,3828.8516,0.42846853,1.0730067,0.0,4,0.0,0.0,0.0,0.0,0.0,0,0,0,0,0,1,1,0,0,0
357517826,15.333163,15.503362,38.9484,38.94728,0.0,3834.295,0.4453562,1.0706971,0.0,4,0.0,0.0,0.0,0.0,0.0,0,0,0,0,0,1,1,0,0,0
358021824,15.13858,15.368567,38.9608,38.94857,0.0,3839.7483,0.4412735,1.0712545,0.0,4,0.0,0.0,0.0,0.0,0.0,0,0,0,0,0,1,1,0,0,0
358525180,15.177497,15.283381,38.9484,38.94506,0.0,3845.1929,0.4409502,1.0712987,0.0,4,0.0,0.0,0.0,0.0,0.0,0,0,0,0,0,1,1,0,0,0
359016355,15.226143,15.222067,38.936,38.9439,0.0,3850.5056,0.4358266,1.0719992,0.0,4,0.0,0.0,0.0,0.0,0.0,0,0,0,0,0,1,1,0,0,0
359520301,15.25533,15.179193,38.9484,38.94566,0.0,3855.9575,0.43176776,1.0725547,0.0,4,0.0,0.0,0.0,0.0,0.0,0,0,0,0,0,1,1,0,0,0
360023739,15.099664,15.147324,38.936,38.944183,0.0,3861.404,0.42868406,1.0729772,0.0,4,0.0,0.0,0.0,0.0,0.0,0,0,0,0,0,1,1,0,0,0
360523828,15.070476,15.142606,38.936,38.94235,0.0,3866.8135,0.43192893,1.0725327,0.0,4,0.0,0.0,0.0,0.0,0.0,0,0,0,0,0,1,1,0,0,0
361026750,15.060747,15.115425,38.936,38.943176,0.0,3872.2542,0.42064553,1.0740801,0.0,4,0.0,0.0,0.0,0.0,0.0,0,0,0,0,0,1,1,0,0,0
361529830,14.798059,15.066352,38.9608,38.943874,0.0,3877.6968,0.4047125,1.0762728,0.0,4,0.0,0.0,0.0,0.0,0.0,0,0,0,0,0,1,1,0,0,0
362021022,15.119122,15.057751,38.9608,38.945656,0.0,3883.0107,0.40576726,1.0761274,0.0,4,0.0,0.0,0.0,0.0,0.0,0,0,0,0,0,1,1,0,0,0
362525099,14.895351,15.013882,38.936,38.94382,0.0,3888.4631,0.39205247,1.0780215,0.0,4,0.0,0.0,0.0,0.0,0.0,0,0,0,0,0,1,1,0,0,0
363028317,15.099664,14.985141,38.936,38.94355,0.0,3893.907,0.38644487,1.0787978,0.0,4,0.0,0.0,0.0,0.0,0.0,0,0,0,0,0,1,1,0,0,0
363532284,14.739684,14.95544,38.9236,38.943405,0.0,3899.3586,0.37700158,1.0801078,0.0,4,0.0,0.0,0.0,0.0,0.0,0,0,0,0,0,1,1,0,0,0
364035516,14.739684,14.92591,38.936,38.943184,0.0,3904.8027,0.36480838,1.0818039,0.0,4,0.0,0.0,0.0,0.0,0.0,0,0,0,0,0,1,1,0,0,0
364538646,15.021831,14.920367,38.9608,38.942802,0.0,3910.2458,0.3643983,1.081861,0.0,4,0.0,0.0,0.0,0.0,0.0,0,0,0,0,0,1,1,0,0,0
365030605,14.982914,14.902693,38.9484,38.94256,0.0,3915.5667,0.35857183,1.0826734,0.0,4,0.0,0.0,0.0,0.0,0.0,0,0,0,0,0,1,1,0,0,0
365541873,14.525642,14.8982315,38.936,38.944294,0.0,3921.0974,0.35621625,1.0830023,0.0,4,0.0,0.0,0.0,0.0,0.0,0,0,0,0,0,1,1,0,0,0
366033186,14.934268,14.844384,38.936,38.940907,0.0,3926.4114,0.33481532,1.0859988,0.0,4,0.0,0.0,0.0,0.0,0.0,0,0,0,0,0,1,1,0,0,0
366537104,15.080205,14.865914,38.936,38.940865,0.0,3931.8628,0.34033757,1.0852239,0.0,4,0.0,0.0,0.0,0.0,0.0,0,0,0,0,0,1,1,0,0,0
367040296,14.68131,14.832504,38.936,38.940556,0.0,3937.3054,0.3291734,1.0867915,0.0,4,0.0,0.0,0.0,0.0,0.0,0,0,0,0,0,1,1,0,0,0
367544318,14.739684,14.809449,38.936,38.94179,0.0,3942.758,0.31799108,1.0883662,0.0,4,0.0,0.0,0.0,0.0,0.0,0,0,0,0,0,1,1,0,0,0
368035527,14.807789,14.817106,38.9484,38.940197,0.0,3948.071,0.32188016,1.0878179,0.0,4,0.0,0.0,0.0,0.0,0.0,0,0,0,0,0,1,1,0,0,0
368538721,14.778601,14.800609,38.9856,38.94253,0.0,3953.5151,0.31719762,1.088478,0.0,4,0.0,0.0,0.0,0.0,0.0,0,0,0,0,0,1,1,0,0,0
369042695,14.739684,14.793433,38.936,38.943707,0.0,3958.9663,0.31206304,1.0892026,0.0,4,0.0,0.0,0.0,0.0,0.0,0,0,0,0,0,1,1,0,0,0
369545799,14.963455,14.785412,38.9236,38.943653,0.0,3964.4077,0.3082078,1.0897474,0.0,4,0.0,0.0,0.0,0.0,0.0,0,0,0,0,0,1,1,0,0,0
370049130,14.603477,14.767682,38.936,38.943653,0.0,3969.8525,0.30151492,1.0906944,0.0,4,0.0,0.0,0.0,0.0,0.0,0,0,0,0,0,1,1,0,0,0
370553194,14.408893,14.777105,38.936,38.940327,0.0,3975.3047,0.3059395,1.0900682,0.0,4,0.0,0.0,0.0,0.0,0.0,0,0,0,0,0,1,1,0,0,0
371052286,14.554831,14.790679,38.936,38.94025,0.0,3980.704,0.31004268,1.0894881,0.0,4,0.0,0.0,0.0,0.0,0.0,0,0,0,0,0,1,1,0,0,0
371556348,14.515914,14.763688,38.936,38.939163,0.0,3986.1562,0.29843646,1.0911306,0.0,4,0.0,0.0,0.0,0.0,0.0,0,0,0,0,0,1,1,0,0,0
372059639,14.836976,14.75603,38.9484,38.93865,0.0,3991.599,0.2951315,1.0915992,0.0,4,0.0,0.0,0.0,0.0,0.0,0,0,0,0,0,1,1,0,0,0
372550697,14.827247,14.728501,38.936,38.936478,0.0,3996.9104,0.2839511,1.0931876,0.0,4,0.0,0.0,0.0,0.0,0.0,0,0,0,0,0,1,1,0,0,0
373054683,14.603477,14.77217,38.9484,38.938095,0.0,4002.3616,0.2994464,1.0909876,0.0,4,0.0,0.0,0.0,0.0,0.0,0,0,0,0,0,1,1,0,0,0
373557956,14.856435,14.739195,38.973198,38.941185,0.0,4007.806,0.2882169,1.092581,0.0,4,0.0,0.0,0.0,0.0,0.0,0,0,0,0,0,1,1,0,0,0
374061140,14.729956,14.758261,38.9484,38.94086,0.0,4013.2488,0.29611713,1.0914595,0.0,4,0.0,0.0,0.0,0.0,0.0,0,0,0,0,0,1,1,0,0,0
374553142,14.622934,14.747445,38.9484,38.940815,0.0,4018.5696,0.29039413,1.0922717,0.0,4,0.0,0.0,0.0,0.0,0.0,0,0,0,0,0,1,1,0,0,0
375056327,14.739684,14.718437,38.973198,38.941387,0.0,4024.013,0.2779339,1.0940443,0.0,4,0.0,0.0,0.0,0.0,0.0,0,0,0,0,0,1,1,0,0,0
375559538,14.486726,14.702197,38.936,38.940044,0.0,4029.4556,0.27045947,1.0951104,0.0,4,0.0,0.0,0.0,0.0,0.0,0,0,0,0,0,1,1,0,0,0
376063567,14.836976,14.713565,38.9484,38.9389,0.0,4034.9082,0.27448207,1.0945364,0.0,4,0.0,0.0,0.0,0.0,0.0,0,0,0,0,0,1,1,0,0,0
376566732,14.574288,14.706784,38.936,38.94115,0.0,4040.351,0.2711733,1.0950085,0.0,4,0.0,0.0,0.0,0.0,0.0,0,0,0,0,0,1,1,0,0,0
377057943,14.56456,14.704142,38.936,38.9425,0.0,4045.6646,0.26981097,1.0952029,0.0,4,0.0,0.0,0.0,0.0,0.0,0,0,0,0,0,1,1,0,0,0
377561954,14.603477,14.688488,38.936,38.942608,0.0,4051.117,0.26472217,1.0959301,0.0,4,0.0,0.0,0.0,0.0,0.0,0,0,0,0,0,1,1,0,0,0
378065111,14.574288,14.691951,38.936,38.942112,0.0,4056.559,0.26526386,1.0958526,0.0,4,0.0,0.0,0.0,0.0,0.0,0,0,0,0,0,1,1,0,0,0
378569049,14.768872,14.697097,38.936,38.939857,0.0,4062.0093,0.26660234,1.0956614,0.0,4,0.0,0.0,0.0,0.0,0.0,0,0,0,0,0,1,1,0,0,0
379072251,14.515914,14.669366,38.936,38.94109,0.0,4067.4524,0.25598556,1.0971807,0.0,4,0.0,0.0,0.0,0.0,0.0,0,0,0,0,0,1,1,0,0,0
379575541,14.613205,14.672561,38.911198,38.941135,0.0,4072.8965,0.2561105,1.0971628,0.0,4,0.0,0.0,0.0,0.0,0.0,0,0,0,0,0,1,1,0,0,0
380067486,14.846705,14.671669,38.936,38.93928,0.0,4078.2168,0.25547534,1.0972538,0.0,4,0.0,0.0,0.0,0.0,0.0,0,0,0,0,0,1,1,0,0,0
380570745,14.7007675,14.676611,38.936,38.940628,0.0,4083.6604,0.2587374,1.0967865,0.0,4,0.0,0.0,0.0,0.0,0.0,0,0,0,0,0,1,1,0,0,0
381073936,14.866163,14.676106,38.9484,38.94085,0.0,4089.103,0.25971252,1.0966469,0.0,4,0.0,0.0,0.0,0.0,0.0,0,0,0,0,0,1,1,0,0,0
381577871,14.943996,14.670349,38.936,38.9402,0.0,4094.5544,0.25724298,1.0970006,0.0,4,0.0,0.0,0.0,0.0,0.0,0,0,0,0,0,1,1,0,0,0
382068996,14.67158,14.661697,38.936,38.93925,0.0,4099.866,0.25215083,1.0977305,0.0,4,0.0,0.0,0.0,0.0,0.0,0,0,0,0,0,1,1,0,0,0
382573124,14.56456,14.67101,38.9484,38.93821,0.0,4105.319,0.2556122,1.0972342,0.0,4,0.0,0.0,0.0,0.0,0.0,0,0,0,0,0,1,1,0,0,0
383076363,14.710497,14.704086,38.936,38.940243,0.0,4110.762,0.26774818,1.0954976,0.0,4,0.0,0.0,0.0,0.0,0.0,0,0,0,0,0,1,1,0,0,0
383579521,14.56456,14.690225,38.936,38.94044,0.0,4116.2056,0.25951082,1.0966758,0.0,4,0.0,0.0,0.0,0.0,0.0,0,0,0,0,0,1,1,0,0,0
384083544,14.515914,14.669811,38.936,38.93973,0.0,4121.6567,0.25182992,1.0977767,0.0,4,0.0,0.0,0.0,0.0,0.0,0,0,0,0,0,1,1,0,0,0
384586596,14.953726,14.699052,38.9484,38.93991,0.0,4127.0977,0.26581222,1.0957743,0.0,4,0.0,0.0,0.0,0.0,0.0,0,0,0,0,0,1,1,0,0,0
385089900,14.720226,14.695723,38.9608,38.940784,0.0,4132.543,0.2628005,1.096205,0.0,4,0.0,0.0,0.0,0.0,0.0,0,0,0,0,0,1,1,0,0,0
385581802,14.67158,14.698539,38.936,38.94077,0.0,4137.8633,0.26352388,1.0961015,0.0,4,0.0,0.0,0.0,0.0,0.0,0,0,0,0,0,1,1,0,0,0
386085096,14.729956,14.692625,38.9484,38.938972,0.0,4143.308,0.26241523,1.0962601,0.0,4,0.0,0.0,0.0,0.0,0.0,0,0,0,0,0,1,1,0,0,0
386588344,14.914809,14.701998,38.9484,38.939465,0.0,4148.7524,0.2679103,1.0954745,0.0,4,0.0,0.0,0.0,0.0,0.0,0,0,0,0,0,1,1,0,0,0
387092406,14.710497,14.697078,38.936,38.939575,0.0,4154.205,0.26473933,1.0959277,0.0,4,0.0,0.0,0.0,0.0,0.0,0,0,0,0,0,1,1,0,0,0
387595579,14.496455,14.699552,38.9484,38.94075,0.0,4159.6465,0.2641471,1.0960124,0.0,4,0.0,0.0,0.0,0.0,0.0,0,0,0,0,0,1,1,0,0,0
388087555,14.798059,14.717173,38.9608,38.94189,0.0,4164.9697,0.27223045,1.0948576,0.0,4,0.0,0.0,0.0,0.0,0.0,0,0,0,0,0,1,1,0,0,0
388590582,14.67158,14.717459,38.911198,38.939438,0.0,4170.41,0.2725833,1.0948073,0.0,4,0.0,0.0,0.0,0.0,0.0,0,0,0,0,0,1,1,0,0,0
389090733,14.807789,14.702567,38.936,38.939014,0.0,4175.8203,0.2678383,1.0954847,0.0,4,0.0,0.0,0.0,0.0,0.0,0,0,0,0,0,1,1,0,0,0
389593961,14.778601,14.692348,38.9856,38.939106,0.0,4181.262,0.26207477,1.0963088,0.0,4,0.0,0.0,0.0,0.0,0.0,0,0,0,0,0,1,1,0,0,0
390097107,14.7007675,14.702249,38.936,38.93973,0.0,4186.7046,0.26723176,1.0955714,0.0,4,0.0,0.0,0.0,0.0,0.0,0,0,0,0,0,1,1,0,0,0
390600306,14.885622,14.699712,38.9608,38.941277,0.0,4192.1494,0.26598912,1.095749,0.0,4,0.0,0.0,0.0,0.0,0.0,0,0,0,0,0,1,1,0,0,0
391092297,14.622934,14.681042,38.936,38.942337,0.0,4197.4727,0.2576807,1.0969379,0.0,4,0.0,0.0,0.0,0.0,0.0,0,0,0,0,0,1,1,0,0,0
391595486,14.32133,14.665561,38.936,38.93974,0.0,4202.9165,0.25102407,1.0978923,0.0,4,0.0,0.0,0.0,0.0,0.0,0,0,0,0,0,1,1,0,0,0
392098665,14.67158,14.646397,38.936,38.93838,0.0,4208.3594,0.24545221,1.0986923,0.0,4,0.0,0.0,0.0,0.0,0.0,0,0,0,0,0,1,1,0,0,0
392602691,14.486726,14.640316,38.936,38.940174,0.0,4213.811,0.24241857,1.0991285,0.0,4,0.0,0.0,0.0,0.0,0.0,0,0,0,0,0,1,1,0,0,0
393101878,14.447809,14.622711,38.9484,38.936283,0.0,4219.21,0.23543434,1.1001339,0.0,4,0.0,0.0,0.0,0.0,0.0,0,0,0,0,0,1,1,0,0,0
393605977,14.545101,14.626688,38.936,38.940002,0.0,4224.6626,0.23541383,1.1001368,0.0,4,0.0,0.0,0.0,0.0,0.0,0,0,0,0,0,1,1,0,0,0
394097408,14.476997,14.625984,38.936,38.939568,0.0,4229.9766,0.23523693,1.1001623,0.0,4,0.0,0.0,0.0,0.0,0.0,0,0,0,0,0,1,1,0,0,0
394600363,14.691039,14.626904,38.936,38.940636,0.0,4235.4175,0.23536281,1.1001441,0.0,4,0.0,0.0,0.0,0.0,0.0,0,0,0,0,0,1,1,0,0,0
395104387,14.827247,14.622802,38.9236,38.94027,0.0,4240.8687,0.23401146,1.1003389,0.0,4,0.0,0.0,0.0,0.0,0.0,0,0,0,0,0,1,1,0,0,0
395607620,14.710497,14.613741,38.936,38.939472,0.0,4246.312,0.22987585,1.1009353,0.0,4,0.0,0.0,0.0,0.0,0.0,0,0,0,0,0,1,1,0,0,0
396098723,14.476997,14.622883,38.936,38.93935,0.0,4251.6245,0.23317222,1.1004599,0.0,4,0.0,0.0,0.0,0.0,0.0,0,0,0,0,0,1,1,0,0,0
396602781,14.428351,14.533627,38.936,38.937576,0.0,4257.076,0.19711857,1.1056824,0.0,4,0.0,0.0,0.0,0.0,0.0,0,0,0,0,0,1,1,0,0,0
397105904,14.506185,14.557625,38.936,38.93949,0.0,4262.5195,0.20574932,1.1044277,0.0,4,0.0,0.0,0.0,0.0,0.0,0,0,0,0,0,1,1,0,0,0
397609899,14.632664,14.533639,38.936,38.938946,0.0,4267.9707,0.194907,1.1060044,0.0,4,0.0,0.0,0.0,0.0,0.0,0,0,0,0,0,1,1,0,0,0
398604341,14.622934,14.561359,38.9608,38.93757,0.0,4278.725,0.20623617,1.104357,0.0,4,0.0,0.0,0.0,0.0,0.0,0,0,0,0,0,1,1,0,0,0
399108309,14.768872,14.568116,38.936,38.939857,0.0,4284.1777,0.20723371,1.1042122,0.0,4,0.0,0.0,0.0,0.0,0.0,0,0,0,0,0,1,1,0,0,0
399611453,14.457539,14.581041,38.9608,38.941032,0.0,4289.6196,0.21138458,1.1036099,0.0,4,0.0,0.0,0.0,0.0,0.0,0,0,0,0,0,1,1,0,0,0
400114741,14.428351,14.665699,38.936,38.939938,0.0,4295.0635,0.2392085,1.0995903,0.0,4,0.0,0.0,0.0,0.0,0.0,0,0,0,0,0,1,1,0,0,0
400618717,14.67158,14.62211,38.936,38.937393,0.0,4300.515,0.2241395,1.1017636,0.0,4,0.0,0.0,0.0,0.0,0.0,0,0,0,0,0,1,1,0,0,0
401109928,14.768872,14.628851,38.9608,38.94039,0.0,4305.8296,0.22790651,1.1012195,0.0,4,0.0,0.0,0.0,0.0,0.0,0,0,0,0,0,1,1,0,0,0
401612247,14.545101,14.614189,38.936,38.940132,0.0,4311.264,0.2228959,1.1019434,0.0,4,0.0,0.0,0.0,0.0,0.0,0,0,0,0,0,1,1,0,0,0
402117117,14.574288,14.645543,38.911198,38.9393,0.0,4316.726,0.23419552,1.1003124,0.0,4,0.0,0.0,0.0,0.0,0.0,0,0,0,0,0,1,1,0,0,0
402616342,14.476997,14.651739,38.936,38.93924,0.0,4322.126,0.23705511,1.0999004,0.0,4,0.0,0.0,0.0,0.0,0.0,0,0,0,0,0,1,1,0,0,0
403120299,14.875893,14.660538,38.9236,38.93836,0.0,4327.5767,0.24232845,1.0991415,0.0,4,0.0,0.0,0.0,0.0,0.0,0,0,0,0,0,1,1,0,0,0
403611606,14.506185,14.655534,38.9608,38.93706,0.0,4332.89,0.24295215,1.0990517,0.0,4,0.0,0.0,0.0,0.0,0.0,0,0,0,0,0,1,1,0,0,0
404114708,14.535372,14.641748,38.9608,38.938175,0.0,4338.332,0.23738317,1.0998532,0.0,4,0.0,0.0,0.0,0.0,0.0,0,0,0,0,0,1,1,0,0,0
404618727,14.574288,14.6471405,38.936,38.940624,0.0,4343.784,0.23923664,1.0995862,0.0,4,0.0,0.0,0.0,0.0,0.0,0,0,0,0,0,1,1,0,0,0
405121947,14.515914,14.635964,38.9236,38.940895,0.0,4349.229,0.23352222,1.1004094,0.0,4,0.0,0.0,0.0,0.0,0.0,0,0,0,0,0,1,1,0,0,0
405613830,14.486726,14.636736,38.9484,38.941456,0.0,4354.55,0.23353128,1.1004081,0.0,4,0.0,0.0,0.0,0.0,0.0,0,0,0,0,0,1,1,0,0,0
406117100,14.661851,14.642514,38.9484,38.939034,0.0,4359.994,0.23755197,1.0998288,0.0,4,0.0,0.0,0.0,0.0,0.0,0,0,0,0,0,1,1,0,0,0
406616359,14.603477,14.641453,38.936,38.938885,0.0,4365.3926,0.2370594,1.0998998,0.0,4,0.0,0.0,0.0,0.0,0.0,0,0,0,0,0,1,1,0,0,0
407120358,14.146205,14.494226,38.936,38.937454,0.0,4370.844,0.17730455,1.1085736,0.0,4,0.0,0.0,0.0,0.0,0.0,0,0,0,0,0,1,1,0,0,0
407623565,14.56456,14.560127,38.936,38.937317,0.0,4376.287,0.20308284,1.104815,0.0,4,0.0,0.0,0.0,0.0,0.0,0,0,0,0,0,1,1,0,0,0
408126705,14.622934,14.571527,38.936,38.9359,0.0,4381.729,0.20740299,1.1041876,0.0,4,0.0,0.0,0.0,0.0,0.0,0,0,0,0,0,1,1,0,0,0
408618723,14.457539,14.583498,38.9236,38.936653,0.0,4387.05,0.21376018,1.1032656,0.0,4,0.0,0.0,0.0,0.0,0.0,0,0,0,0,0,1,1,0,0,0
409121887,14.447809,14.590306,38.9484,38.936886,0.0,4392.492,0.21636324,1.1028886,0.0,4,0.0,0.0,0.0,0.0,0.0,0,0,0,0,0,1,1,0,0,0
409625905,14.593747,14.433002,38.936,38.932816,0.0,4397.9414,0.15360431,1.1120518,0.0,4,0.0,0.0,0.0,0.0,0.0,0,0,0,0,0,1,1,0,0,1
410129093,14.272684,14.445512,38.936,38.937458,0.0,4403.3833,0.15825348,1.1113678,0.0,4,0.0,0.0,0.0,0.0,0.0,0,0,0,0,0,1,1,0,0,1
410628284,14.447809,14.463295,38.936,38.935253,0.0,4408.7812,0.16463546,1.1104302,0.0,4,0.0,0.0,0.0,0.0,0.0,0,0,0,0,0,1,1,0,0,1
411132343,14.360247,14.478914,38.936,38.93821,0.0,4414.2334,0.17059116,1.1095567,0.0,4,0.0,0.0,0.0,0.0,0.0,0,0,0,0,0,1,1,0,0,1
411623561,14.798059,14.495541,38.936,38.93709,0.0,4419.5444,0.1765521,1.1086837,0.0,4,0.0,0.0,0.0,0.0,0.0,0,0,0,0,0,1,1,0,0,1
412126742,14.574288,14.496476,38.936,38.93615,0.0,4424.9863,0.17517881,1.1088847,0.0,4,0.0,0.0,0.0,0.0,0.0,0,0,0,0,0,1,1,0,0,1
412630737,14.652122,14.610411,38.9484,38.9394,0.0,4430.44,0.20733862,1.1041969,0.0,4,0.0,0.0,0.0,0.0,0.0,0,0,0,0,0,1,1,0,0,1
413141951,14.574288,14.584183,38.936,38.939278,0.0,4435.9683,0.2010849,1.1051054,0.0,4,0.0,0.0,0.0,0.0,0.0,0,0,0,0,0,1,1,0,0,1
413633184,14.67158,14.584359,38.9484,38.937336,0.0,4441.28,0.20440082,1.1046236,0.0,4,0.0,0.0,0.0,0.0,0.0,0,0,0,0,0,1,1,0,0,1
414137519,14.476997,14.579428,38.911198,38.93588,0.0,4446.7334,0.20344333,1.1047626,0.0,4,0.0,0.0,0.0,0.0,0.0,0,0,0,0,0,1,1,0,0,1
414640350,14.642393,14.616591,38.9484,38.93703,0.0,4452.173,0.21774893,1.102688,0.0,4,0.0,0.0,0.0,0.0,0.0,0,0,0,0,0,1,1,0,0,1
415144335,14.2824135,14.644646,38.936,38.939793,0.0,4457.625,0.2288249,1.101087,0.0,4,0.0,0.0,0.0,0.0,0.0,0,0,0,0,0,1,1,0,0,1
415647544,14.739684,14.646271,38.936,38.93882,0.0,4463.069,0.23325472,1.100448,0.0,4,0.0,0.0,0.0,0.0,0.0,0,0,0,0,0,1,1,0,0,1
416138726,14.593747,14.622018,38.9484,38.939297,0.0,4468.3804,0.22518997,1.1016119,0.0,4,0.0,0.0,0.0,0.0,0.0,0,0,0,0,0,1,1,0,0,1
416642774,14.515914,14.6277895,38.936,38.93956,0.0,4473.832,0.22951202,1.1009878,0.0,4,0.0,0.0,0.0,0.0,0.0,0,0,0,0,0,1,1,0,0,1
417145928,14.515914,14.620084,38.936,38.941673,0.0,4479.2754,0.2269104,1.1013634,0.0,4,0.0,0.0,0.0,0.0,0.0,0,0,0,0,0,1,1,0,0,1
417649914,14.67158,14.61618,38.936,38.940434,0.0,4484.7266,0.22481422,1.1016662,0.0,4,0.0,0.0,0.0,0.0,0.0,0,0,0,0,0,1,1,0,0,1
418141350,14.554831,14.617036,38.9608,38.94104,0.0,4490.042,0.22508506,1.101627,0.0,4,0.0,0.0,0.0,0.0,0.0,0,0,0,0,0,1,1,0,0,1
418644343,14.7007675,14.61587,38.9856,38.941692,0.0,4495.483,0.22429065,1.1017418,0.0,4,0.0,0.0,0.0,0.0,0.0,0,0,0,0,0,1,1,0,0,1
419147403,14.457539,14.626301,38.936,38.942223,0.0,4500.924,0.23040895,1.1008584,0.0,4,0.0,0.0,0.0,0.0,0.0,0,0,0,0,0,1,1,0,0,1
419647398,14.574288,14.623443,38.973198,38.94199,0.0,4506.3325,0.2282403,1.1011714,0.0,4,0.0,0.0,0.0,0.0,0.0,0,0,0,0,0,1,1,0,0,1
420150727,14.642393,14.623416,38.936,38.93921,0.0,4511.7773,0.22838096,1.1011511,0.0,4,0.0,0.0,0.0,0.0,0.0,0,0,0,0,0,1,1,0,0,1
420654736,14.914809,14.505953,38.9484,38.93627,0.0,4517.2266,0.18242292,1.1078253,0.0,4,0.0,0.0,0.0,0.0,0.0,0,0,0,0,0,1,1,0,0,1
421157949,14.311602,14.558199,38.936,38.937614,0.0,4522.6704,0.201968,1.104977,0.0,4,0.0,0.0,0.0,0.0,0.0,0,0,0,0,0,1,1,0,0,1
421661102,14.642393,14.563007,38.936,38.93922,0.0,4528.1113,0.2035387,1.1047487,0.0,4,0.0,0.0,0.0,0.0,0.0,0,0,0,0,0,1,1,0,0,1
422153208,14.729956,14.4262905,38.936,38.935356,0.0,4533.433,0.14994077,1.1125915,0.0,4,0.0,0.0,0.0,0.0,0.0,0,0,0,0,0,1,1,0,0,1
422656410,14.593747,14.441603,38.936,38.93509,0.0,4538.877,0.1560915,1.1116859,0.0,4,0.0,0.0,0.0,0.0,0.0,0,0,0,0,0,1,1,0,0,1
423160436,14.68131,14.460507,38.936,38.93563,0.0,4544.3286,0.16248064,1.1107466,0.0,4,0.0,0.0,0.0,0.0,0.0,0,0,0,0,0,1,1,0,0,1
423663406,14.379705,14.459962,38.9484,38.934483,0.0,4549.7676,0.16216068,1.1107936,0.0,4,0.0,0.0,0.0,0.0,0.0,0,0,0,0,0,1,1,0,0,1
424658632,14.515914,14.488608,38.911198,38.93502,0.0,4560.5293,0.17335443,1.1091518,0.0,4,0.0,0.0,0.0,0.0,0.0,0,0,0,0,0,1,1,0,0,1
425161926,14.759143,14.496674,38.936,38.93641,0.0,4565.974,0.1761115,1.1087482,0.0,4,0.0,0.0,0.0,0.0,0.0,0,0,0,0,0,1,1,0,0,1
425665096,14.778601,14.493688,38.936,38.938145,0.0,4571.4165,0.17194013,1.109359,0.0,4,0.0,0.0,0.0,0.0,0.0,0,0,0,0,0,1,1,0,0,1
426169405,14.496455,14.579474,38.9484,38.938786,0.0,4576.8706,0.19545154,1.105925,0.0,4,0.0,0.0,0.0,0.0,0.0,0,0,0,0,0,1,1,0,0,1
426672326,14.525642,14.591314,38.936,38.93888,0.0,4582.3105,0.20535879,1.1044843,0.0,4,0.0,0.0,0.0,0.0,0.0,0,0,0,0,0,1,1,0,0,1
427174679,14.827247,14.58785,38.9236,38.93733,0.0,4587.7437,0.2065218,1.1043155,0.0,4,0.0,0.0,0.0,0.0,0.0,0,0,0,0,0,1,1,0,0,1
427675506,14.836976,14.60518,38.936,38.937477,0.0,4593.1597,0.21377926,1.1032629,0.0,4,0.0,0.0,0.0,0.0,0.0,0,0,0,0,0,1,1,0,0,1
428178596,14.194851,14.593715,38.9484,38.93631,0.0,4598.601,0.20722799,1.104213,0.0,4,0.0,0.0,0.0,0.0,0.0,0,0,0,0,0,1,1,0,0,1
428670704,14.67158,14.56987,38.9484,38.934925,0.0,4603.923,0.19660549,1.105757,0.0,4,0.0,0.0,0.0,0.0,0.0,0,0,0,0,0,1,1,0,0,1
429173890,14.67158,14.582358,38.936,38.93561,0.0,4609.3647,0.20433025,1.1046337,0.0,4,0.0,0.0,0.0,0.0,0.0,0,0,0,0,0,1,1,0,0,1
429677826,14.798059,14.601507,38.9856,38.9401,0.0,4614.8145,0.21267109,1.1034235,0.0,4,0.0,0.0,0.0,0.0,0.0,0,0,0,0,0,1,1,0,0,1
430181098,14.525642,14.602574,38.9484,38.935917,0.0,4620.2573,0.21594267,1.1029495,0.0,4,0.0,0.0,0.0,0.0,0.0,0,0,0,0,0,1,1,0,0,1
430676338,14.545101,14.594958,38.9484,38.939274,0.0,4625.6157,0.21273069,1.1034148,0.0,4,0.0,0.0,0.0,0.0,0.0,0,0,0,0,0,1,1,0,0,1
431180310,14.729956,14.592244,38.9236,38.939827,0.0,4631.0674,0.21337824,1.103321,0.0,4,0.0,0.0,0.0,0.0,0.0,0,0,0,0,0,1,1,0,0,1
431671506,14.467268,14.579703,38.9236,38.936848,0.0,4636.3804,0.20905761,1.1039474,0.0,4,0.0,0.0,0.0,0.0,0.0,0,0,0,0,0,1,1,0,0,1
432174669,14.515914,14.584409,38.936,38.93578,0.0,4641.823,0.21094875,1.1036731,0.0,4,0.0,0.0,0.0,0.0,0.0,0,0,0,0,0,1,1,0,0,1
432678625,14.389435,14.5816765,38.9236,38.933964,0.0,4647.2744,0.21131591,1.1036199,0.0,4,0.0,0.0,0.0,0.0,0.0,0,0,0,0,0,1,1,0,0,1
433181912,14.603477,14.577125,38.9484,38.936058,0.0,4652.7173,0.20890789,1.1039692,0.0,4,0.0,0.0,0.0,0.0,0.0,0,0,0,0,0,1,1,0,0,1
433685131,14.525642,14.581678,38.9236,38.937023,0.0,4658.159,0.21084385,1.1036884,0.0,4,0.0,0.0,0.0,0.0,0.0,0,0,0,0,0,1,1,0,0,1
434189150,14.438081,14.599016,38.936,38.937927,0.0,4663.612,0.21741085,1.1027368,0.0,4,0.0,0.0,0.0,0.0,0.0,0,0,0,0,0,1,1,0,0,1
434692316,14.613205,14.59217,38.936,38.936207,0.0,4669.053,0.21568994,1.1029861,0.0,4,0.0,0.0,0.0,0.0,0.0,0,0,0,0,0,1,1,0,0,1
435195564,14.68131,14.593944,38.936,38.937305,0.0,4674.4966,0.21720533,1.1027666,0.0,4,0.0,0.0,0.0,0.0,0.0,0,0,0,0,0,1,1,0,0,1
435687520,14.155934,14.531904,38.936,38.935665,0.0,4679.8164,0.19163398,1.1064812,0.0,4,0.0,0.0,0.0,0.0,0.0,0,0,0,0,0,1,1,0,0,1
436190749,14.525642,14.558874,38.936,38.938217,0.0,4685.26,0.20145349,1.1050518,0.0,4,0.0,0.0,0.0,0.0,0.0,0,0,0,0,0,1,1,0,0,1
436694789,14.632664,14.571961,38.9608,38.937496,0.0,4690.7104,0.20733814,1.104197,0.0,4,0.0,0.0,0.0,0.0,0.0,0,0,0,0,0,1,1,0,0,1
437197887,14.574288,14.568848,38.9236,38.936874,0.0,4696.1523,0.20562105,1.1044463,0.0,4,0.0,0.0,0.0,0.0,0.0,0,0,0,0,0,1,1,0,0,1
437701214,14.467268,14.570027,38.9484,38.937634,0.0,4701.596,0.20627432,1.1043514,0.0,4,0.0,0.0,0.0,0.0,0.0,0,0,0,0,0,1,1,0,0,1
438193057,14.759143,14.553854,38.936,38.937817,0.0,4706.9175,0.19873504,1.1054472,0.0,4,0.0,0.0,0.0,0.0,0.0,0,0,0,0,0,1,1,0,0,1
438696300,14.584018,14.593247,38.9484,38.93507,0.0,4712.3594,0.21187763,1.1035385,0.0,4,0.0,0.0,0.0,0.0,0.0,0,0,0,0,0,1,1,0,0,1
439200222,14.389435,14.573388,38.936,38.936317,0.0,4717.81,0.20570259,1.1044345,0.0,4,0.0,0.0,0.0,0.0,0.0,0,0,0,0,0,1,1,0,0,1
439703443,14.525642,14.564311,38.936,38.93409,0.0,4723.2524,0.20057993,1.1051788,0.0,4,0.0,0.0,0.0,0.0,0.0,0,0,0,0,0,1,1,0,0,1
440194769,14.642393,14.565653,38.9236,38.935062,0.0,4728.5664,0.20184068,1.1049955,0.0,4,0.0,0.0,0.0,0.0,0.0,0,0,0,0,0,1,1,0,0,1
440698703,14.613205,14.553138,38.9608,38.936394,0.0,4734.0166,0.1973813,1.1056441,0.0,4,0.0,0.0,0.0,0.0,0.0,0,0,0,0,0,1,1,0,0,1
441201883,14.476997,14.550708,38.9236,38.936073,0.0,4739.458,0.19602709,1.1058412,0.0,4,0.0,0.0,0.0,0.0,0.0,0,0,0,0,0,1,1,0,0,1
441701179,14.661851,14.551983,38.9484,38.937428,0.0,4744.8584,0.19613628,1.1058253,0.0,4,0.0,0.0,0.0,0.0,0.0,0,0,0,0,0,1,1,0,0,1
442205396,14.457539,14.550738,38.973198,38.936253,0.0,4750.3125,0.19622783,1.105812,0.0,4,0.0,0.0,0.0,0.0,0.0,0,0,0,0,0,1,1,0,0,1
442708275,14.389435,14.431774,38.936,38.935577,0.0,4755.7515,0.15023212,1.1125486,0.0,4,0.0,0.0,0.0,0.0,0.0,0,0,0,0,0,1,1,0,0,1
443200315,14.525642,14.445982,38.936,38.936516,0.0,4761.073,0.1560605,1.1116904,0.0,4,0.0,0.0,0.0,0.0,0.0,0,0,0,0,0,1,1,0,0,1
443703514,14.457539,14.440453,38.936,38.936108,0.0,4766.516,0.15167885,1.1123354,0.0,4,0.0,0.0,0.0,0.0,0.0,0,0,0,0,0,1,1,0,0,1
444206713,14.467268,14.457472,38.936,38.93639,0.0,4771.9585,0.15824442,1.1113691,0.0,4,0.0,0.0,0.0,0.0,0.0,0,0,0,0,0,1,1,0,0,1
444710770,14.408893,14.477836,38.9484,38.93963,0.0,4777.41,0.16738681,1.1100265,0.0,4,0.0,0.0,0.0,0.0,0.0,0,0,0,0,0,1,1,0,0,1
445213883,14.525642,14.461521,38.9484,38.938644,0.0,4782.8525,0.1601799,1.1110847,0.0,4,0.0,0.0,0.0,0.0,0.0,0,0,0,0,0,1,1,0,0,1
445717132,14.496455,14.4689245,38.936,38.937565,0.0,4788.296,0.16273956,1.1107086,0.0,4,0.0,0.0,0.0,0.0,0.0,0,0,0,0,0,1,1,0,0,1
446209561,14.155934,14.560033,38.9236,38.938255,0.0,4793.6216,0.18562536,1.1073576,0.0,4,0.0,0.0,0.0,0.0,0.0,0,0,0,0,0,1,1,0,0,1
446712343,14.535372,14.540946,38.936,38.93753,0.0,4799.0605,0.18223219,1.1078532,0.0,4,0.0,0.0,0.0,0.0,0.0,0,0,0,0,0,1,1,0,0,1
447215551,14.584018,14.539908,38.936,38.93968,0.0,4804.5034,0.1845191,1.1075191,0.0,4,0.0,0.0,0.0,0.0,0.0,0,0,0,0,0,1,1,0,0,1
447719589,14.418622,14.547835,38.9608,38.93853,0.0,4809.9536,0.18836193,1.1069583,0.0,4,0.0,0.0,0.0,0.0,0.0,0,0,0,0,0,1,1,0,0,1
448222667,14.32133,14.544479,38.911198,38.9378,0.0,4815.3955,0.18851165,1.1069365,0.0,4,0.0,0.0,0.0,0.0,0.0,0,0,0,0,0,1,1,0,0,1
448714726,14.603477,14.581459,38.936,38.93929,0.0,4820.718,0.2031167,1.1048101,0.0,4,0.0,0.0,0.0,0.0,0.0,0,0,0,0,0,1,1,0,0,1
449217923,14.447809,14.569929,38.936,38.939434,0.0,4826.1606,0.20002727,1.1052592,0.0,4,0.0,0.0,0.0,0.0,0.0,0,0,0,0,0,1,1,0,0,1
449721143,14.56456,14.572583,38.936,38.937973,0.0,4831.603,0.20173006,1.1050116,0.0,4,0.0,0.0,0.0,0.0,0.0,0,0,0,0,0,1,1,0,0,1
450225125,14.710497,14.564996,38.936,38.937214,0.0,4837.0522,0.19982748,1.1052883,0.0,4,0.0,0.0,0.0,0.0,0.0,0,0,0,0,0,1,1,0,0,1
450728238,14.389435,14.558167,38.936,38.93783,0.0,4842.495,0.19639568,1.1057875,0.0,4,0.0,0.0,0.0,0.0,0.0,0,0,0,0,0,1,1,0,0,1
451220310,14.525642,14.556884,38.9484,38.93857,0.0,4847.818,0.19600753,1.105844,0.0,4,0.0,0.0,0.0,0.0,0.0,0,0,0,0,0,1,1,0,0,1
451723570,14.428351,14.553669,38.936,38.93631,0.0,4853.26,0.19532947,1.1059427,0.0,4,0.0,0.0,0.0,0.0,0.0,0,0,0,0,0,1,1,0,0,1
452222666,14.846705,14.54918,38.936,38.938107,0.0,4858.658,0.19339208,1.106225,0.0,4,0.0,0.0,0.0,0.0,0.0,0,0,0,0,0,1,1,0,0,1
452726745,14.642393,14.545758,38.9236,38.93853,0.0,4864.11,0.19215994,1.1064045,0.0,4,0.0,0.0,0.0,0.0,0.0,0,0,0,0,0,1,1,0,0,1
453229929,14.457539,14.53966,38.936,38.93839,0.0,4869.5537,0.18933372,1.1068165,0.0,4,0.0,0.0,0.0,0.0,0.0,0,0,0,0,0,1,1,0,0,1
453733157,13.922435,14.531162,38.9236,38.936543,0.0,4874.9976,0.18513565,1.107429,0.0,4,0.0,0.0,0.0,0.0,0.0,0,0,0,0,0,1,1,0,0,1
454237377,14.554831,14.484003,38.936,38.93595,0.0,4880.451,0.16646223,1.1101621,0.0,4,0.0,0.0,0.0,0.0,0.0,0,0,0,0,0,1,1,0,0,1
454740307,14.515914,14.488681,38.936,38.93657,0.0,4885.8906,0.1675332,1.110005,0.0,4,0.0,0.0,0.0,0.0,0.0,0,0,0,0,0,1,1,0,0,1
455244346,14.20458,14.500101,38.9236,38.936832,0.0,4891.3423,0.17262058,1.1092592,0.0,4,0.0,0.0,0.0,0.0,0.0,0,0,0,0,0,1,1,0,0,1
455747440,14.428351,14.497862,38.936,38.935677,0.0,4896.7847,0.17087726,1.1095147,0.0,4,0.0,0.0,0.0,0.0,0.0,0,0,0,0,0,1,1,0,0,1
456238634,14.418622,14.490054,38.9236,38.936317,0.0,4902.096,0.16711645,1.1100662,0.0,4,0.0,0.0,0.0,0.0,0.0,0,0,0,0,0,1,1,0,0,1
456742636,14.525642,14.525166,38.936,38.93793,0.0,4907.5474,0.17886715,1.108345,0.0,4,0.0,0.0,0.0,0.0,0.0,0,0,0,0,0,1,1,0,0,1
457245894,14.807789,14.567513,38.9484,38.937622,0.0,4912.99,0.19392376,1.1061475,0.0,4,0.0,0.0,0.0,0.0,0.0,0,0,0,0,0,1,1,0,0,1
457749885,14.7494135,14.672261,38.9608,38.938713,0.0,4918.441,0.21731453,1.1027508,0.0,4,0.0,0.0,0.0,0.0,0.0,0,0,0,0,0,1,1,0,0,1
458253112,14.982914,14.752738,38.936,38.93987,0.0,4923.8843,0.22661285,1.1014063,0.0,4,0.0,0.0,0.0,0.0,0.0,0,0,0,0,0,1,1,0,0,1
458756350,15.13858,14.884414,38.9484,38.94175,0.0,4929.329,0.20871858,1.1039966,0.0,4,0.0,0.0,0.0,0.0,0.0,0,0,0,0,0,1,1,0,0,1
459248257,15.14831,14.973611,38.936,38.94271,0.0,4934.6504,0.19708328,1.1056875,0.0,4,0.0,0.0,0.0,0.0,0.0,0,0,0,0,0,1,1,0,0,1
459751579,15.167768,15.037106,38.936,38.942772,0.0,4940.0957,0.1908577,1.1065943,0.0,4,0.0,0.0,0.0,0.0,0.0,0,0,0,0,0,1,1,0,0,1
460254733,15.14831,15.081444,38.9484,38.942715,0.0,4945.5376,0.18812923,1.1069922,0.0,4,0.0,0.0,0.0,0.0,0.0,0,0,0,0,0,1,1,0,0,1
460758723,15.167768,15.112525,38.9484,38.944687,0.0,4950.9883,0.18734579,1.1071064,0.0,4,0.0,0.0,0.0,0.0,0.0,0,0,0,0,0,1,1,0,0,1
461261900,15.206684,15.138302,38.936,38.944866,0.0,4956.432,0.18953113,1.1067877,0.0,4,0.0,0.0,0.0,0.0,0.0,0,0,0,0,0,1,1,0,0,1
461765871,15.196955,15.157743,38.936,38.94594,0.0,4961.885,0.19223432,1.1063937,0.0,4,0.0,0.0,0.0,0.0,0.0,0,0,0,0,0,1,1,0,0,1
462265384,15.2164135,15.1746,38.9484,38.945145,0.0,4967.288,0.19606094,1.1058363,0.0,4,0.0,0.0,0.0,0.0,0.0,0,0,0,0,0,1,1,0,0,1
462768239,15.2164135,15.187211,38.936,38.94695,0.0,4972.7285,0.19935016,1.1053576,0.0,4,0.0,0.0,0.0,0.0,0.0,0,0,0,0,0,1,1,0,0,1
463272310,15.2164135,15.19527,38.936,38.947037,0.0,4978.1816,0.20140104,1.1050594,0.0,4,0.0,0.0,0.0,0.0,0.0,0,0,0,0,0,1,1,0,0,1
463763525,15.226143,15.204247,38.9484,38.946056,0.0,4983.4937,0.20461826,1.104592,0.0,4,0.0,0.0,0.0,0.0,0.0,0,0,0,0,0,1,1,0,0,1
464266752,15.25533,15.21241,38.936,38.94704,0.0,4988.938,0.20784073,1.1041241,0.0,4,0.0,0.0,0.0,0.0,0.0,0,0,0,0,0,1,1,0,0,1
464766710,15.226143,15.217739,38.9608,38.947575,0.0,4994.345,0.20994215,1.1038191,0.0,4,0.0,0.0,0.0,0.0,0.0,0,0,0,0,0,1,1,0,0,1
465269892,15.235872,15.222135,38.973198,38.949028,0.0,4999.788,0.21177034,1.103554,0.0,4,0.0,0.0,0.0,0.0,0.0,0,0,0,0,0,1,1,0,0,1
465773890,15.25533,15.227804,38.9608,38.947342,0.0,5005.241,0.21436338,1.1031783,0.0,4,0.0,0.0,0.0,0.0,0.0,0,0,0,0,0,1,1,0,0,1
466277111,15.25533,15.232055,38.936,38.947826,0.0,5010.684,0.21632986,1.1028934,0.0,4,0.0,0.0,0.0,0.0,0.0,0,0,0,0,0,1,1,0,0,1
466780335,15.245601,15.234941,38.936,38.9484,0.0,5016.129,0.21766882,1.1026995,0.0,4,0.0,0.0,0.0,0.0,0.0,0,0,0,0,0,1,1,0,0,1
467284397,15.25533,15.239464,38.936,38.94763,0.0,5021.5825,0.21986179,1.1023822,0.0,4,0.0,0.0,0.0,0.0,0.0,0,0,0,0,0,1,1,0,0,1
467787474,15.25533,15.243859,38.9856,38.948273,0.0,5027.0264,0.22201519,1.1020707,0.0,4,0.0,0.0,0.0,0.0,0.0,0,0,0,0,0,1,1,0,0,1
468280330,15.235872,15.245308,38.936,38.94677,0.0,5032.358,0.22271042,1.1019702,0.0,4,0.0,0.0,0.0,0.0,0.0,0,0,0,0,0,1,1,0,0,1
469285898,15.25533,15.249478,38.9608,38.945164,0.0,5043.238,0.22476368,1.1016735,0.0,4,0.0,0.0,0.0,0.0,0.0,0,0,0,0,0,1,1,0,0,1
469789916,15.25533,15.252365,38.9608,38.94809,0.0,5048.693,0.22619848,1.1014662,0.0,4,0.0,0.0,0.0,0.0,0.0,0,0,0,0,0,1,1,0,0,1
470281124,15.25533,15.2559185,38.9608,38.947704,0.0,5054.007,0.22796993,1.1012104,0.0,4,0.0,0.0,0.0,0.0,0.0,0,0,0,0,0,1,1,0,0,1
470784297,15.274789,15.258522,38.936,38.94495,0.0,5059.4497,0.22926788,1.1010231,0.0,4,0.0,0.0,0.0,0.0,0.0,0,0,0,0,0,1,1,0,0,1
471288199,15.274789,15.256884,38.9484,38.944996,0.0,5064.9014,0.22844629,1.1011417,0.0,4,0.0,0.0,0.0,0.0,0.0,0,0,0,0,0,1,1,0,0,1
471791512,15.274789,15.265784,38.9484,38.945415,0.0,5070.3447,0.23289518,1.1004999,0.0,4,0.0,0.0,0.0,0.0,0.0,0,0,0,0,0,1,1,0,0,1
