timestamp,ref_timestamp,ref_lat,ref_lon,x,y,z,delta_xy[0],delta_xy[1],delta_z,vx,vy,vz,z_deriv,delta_vxy[0],delta_vxy[1],delta_vz,ax,ay,az,yaw,ref_alt,dist_bottom,dist_bottom_rate,eph,epv,evh,evv,vxy_max,vz_max,hagl_min,hagl_max,xy_valid,z_valid,v_xy_valid,v_z_valid,xy_reset_counter,z_reset_counter,vxy_reset_counter,vz_reset_counter,xy_global,z_global,dist_bottom_valid
349595069,0,0.0,0.0,0.0,0.0,-0.13545391,4.6288296e-08,5.209874e-07,0.0,0.010049083,0.0105472915,0.012102644,0.0040870244,1.1561957e-05,0.00013013298,0.0,0.010890008,0.023752294,0.023970937,2.3870687,0.0,0.1,-0.012102644,0.120295,0.24588577,0.10114617,0.106226385,inf,inf,inf,inf,0,1,0,1,1,0,1,1,0,0,0
349701475,0,0.0,0.0,0.0,0.0,-0.13860466,4.6288296e-08,5.209874e-07,0.0,0.009947621,0.011281926,0.010268414,-0.0010970245,1.1561957e-05,0.00013013298,0.0,0.017290682,-0.001444852,-0.0015375962,2.3865488,0.0,0.1,-0.010268414,0.119656086,0.24508646,0.10082306,0.10606548,inf,inf,inf,inf,0,1,0,1,1,0,1,1,0,0,0
349805469,0,0.0,0.0,0.0,0.0,-0.14261527,4.6288296e-08,5.209874e-07,0.0,0.010228749,0.011315699,0.010067349,-0.0049721156,1.1561957e-05,0.00013013298,0.0,-0.004602173,0.021813404,0.015797028,2.386022,0.0,0.1,-0.010067349,0.11941968,0.2447085,0.100774765,0.105962895,inf,inf,inf,inf,0,1,0,1,1,0,1,1,0,0,0
349901509,0,0.0,0.0,0.0,0.0,-0.14731647,4.6288296e-08,5.209874e-07,0.0,0.010235029,0.011053451,0.00878028,-0.010104906,1.1561957e-05,0.00013013298,0.0,-0.004771592,0.002789449,0.020987596,2.385581,0.0,0.1,-0.00878028,0.12003738,0.24525908,0.10111387,0.10614205,inf,inf,inf,inf,0,1,0,1,1,0,1,1,0,0,0
350005469,0,0.0,0.0,0.0,0.0,-0.14996427,4.6288296e-08,5.209874e-07,0.0,0.010574301,0.010639494,0.0072188037,-0.012886619,1.1561957e-05,0.00013013298,0.0,0.0021981911,0.007525154,-0.010239834,2.3850646,0.0,0.1,-0.0072188037,0.12132083,0.24652782,0.10178708,0.1065013,inf,inf,inf,inf,0,1,0,1,1,0,1,1,0,0,0
350109485,0,0.0,0.0,0.0,0.0,-0.15377828,4.6288296e-08,5.209874e-07,0.0,0.010254229,0.0110119805,0.0064224224,-0.015684832,1.1561957e-05,0.00013013298,0.0,0.023991346,-0.001251621,-0.010123579,2.3845844,0.0,0.1,-0.0064224224,0.12075131,0.24589543,0.101459235,0.10634015,inf,inf,inf,inf,0,1,0,1,1,0,1,1,0,0,0
350205469,0,0.0,0.0,0.0,0.0,-0.15920055,4.6288296e-08,5.209874e-07,0.0,0.010053665,0.010731114,0.004572844,-0.021031981,1.1561957e-05,0.00013013298,0.0,0.0012107369,-0.0005321884,-0.02191967,2.3842351,0.0,0.1,-0.004572844,0.12126385,0.24643315,0.10168956,0.106488496,inf,inf,inf,inf,0,1,0,1,1,0,1,1,0,0,0
350308668,0,0.0,0.0,0.0,0.0,-0.16689155,4.6288296e-08,5.209874e-07,0.0,0.010202255,0.010191938,0.0019043357,-0.028574012,1.1561957e-05,0.00013013298,0.0,0.0024871728,0.01782515,0.030182019,2.3838565,0.0,0.1,-0.0019043357,0.122345105,0.24760485,0.102189794,0.10679981,inf,inf,inf,inf,0,1,0,1,1,0,1,1,0,0,0
350411905,0,0.0,0.0,0.0,0.0,-0.17545772,4.6288296e-08,5.209874e-07,0.0,0.010664474,0.010008303,-0.0005696463,-0.03598044,1.1561957e-05,0.00013013298,0.0,0.024735812,0.0035190554,-0.023261728,2.383428,0.0,0.1,0.0005696463,0.123398006,0.24876288,0.10267028,0.10710278,inf,inf,inf,inf,0,1,0,1,1,0,1,1,0,0,0
350516669,0,0.0,0.0,0.0,0.0,-0.18505245,4.6288296e-08,5.209874e-07,0.0,0.010770304,0.010117581,-0.0036865184,-0.044053692,1.1561957e-05,0.00013013298,0.0,0.010493841,0.0060533886,0.0061420086,2.383047,0.0,0.1,0.0036865184,0.1224254,0.2478827,0.10205838,0.10685884,inf,inf,inf,inf,0,1,0,1,1,0,1,1,0,0,0
350612675,0,0.0,0.0,0.0,0.0,-0.19116165,4.6288296e-08,5.209874e-07,0.0,0.0111260675,0.009785503,-0.004319217,-0.045896497,1.1561957e-05,0.00013013298,0.0,0.016526021,-0.0076514627,0.014432983,2.382712,0.0,0.1,0.004319217,0.12274942,0.24831766,0.10216568,0.10696247,inf,inf,inf,inf,0,1,0,1,1,0,1,1,0,0,0
350716669,0,0.0,0.0,0.0,0.0,-0.19434048,4.6288296e-08,5.209874e-07,0.0,0.010998075,0.00980228,-0.005138696,-0.04440383,1.1561957e-05,0.00013013298,0.0,0.0021990885,0.0111691095,-0.011839878,2.3823862,0.0,0.10379439,0.005138696,0.12189818,0.24752393,0.10166296,0.10673486,inf,inf,inf,inf,0,1,0,1,1,0,1,1,0,0,0
350820675,0,0.0,0.0,0.0,0.0,-0.19346662,4.6288296e-08,5.209874e-07,0.0,0.010547857,0.009429782,-0.003796974,-0.037148673,1.1561957e-05,0.00013013298,0.0,0.01564627,0.020379484,0.0010406784,2.3821094,0.0,0.112631686,0.003796974,0.1211303,0.24677132,0.10123405,0.10652414,inf,inf,inf,inf,0,1,0,1,1,0,1,1,0,0,0
350916691,0,0.0,0.0,0.0,0.0,-0.1899065,4.6288296e-08,5.209874e-07,0.0,0.010160206,0.009157374,-0.0033244598,-0.029327903,1.1561957e-05,0.00013013298,0.0,-0.005842661,0.014102601,-0.0067076487,2.3818452,0.0,0.114144705,0.0033244598,0.12156073,0.24725486,0.10144858,0.10665034,inf,inf,inf,inf,0,1,0,1,1,0,1,1,0,0,0
351020669,0,0.0,0.0,0.0,0.0,-0.18570118,4.6288296e-08,5.209874e-07,0.0,0.010135916,0.008892978,-0.0009879904,-0.019731421,1.1561957e-05,0.00013013298,0.0,0.007028862,0.016271342,-0.014261404,2.3815145,0.0,0.12177799,0.0009879904,0.12087279,0.24654146,0.10109158,0.106456526,inf,inf,inf,inf,0,1,0,1,1,0,1,1,0,0,0
351124686,0,0.0,0.0,0.0,0.0,-0.17827791,4.6288296e-08,5.209874e-07,0.0,0.00988103,0.009062073,0.0013412414,-0.008157335,1.1561957e-05,0.00013013298,0.0,0.027204823,0.004938398,-0.031950824,2.3812058,0.0,0.12673846,-0.0013412414,0.120249905,0.24586454,0.10078603,0.10627671,inf,inf,inf,inf,0,1,0,1,1,0,1,1,0,0,0
351227904,0,0.0,0.0,0.0,0.0,-0.1694192,4.6288296e-08,5.209874e-07,0.0,0.010087778,0.009490981,0.0044390233,0.0041147503,1.1561957e-05,0.00013013298,0.0,-0.0031743287,0.013916886,-0.0038299528,2.3809319,0.0,0.11992098,-0.0044390233,0.121533774,0.2472005,0.10150095,0.1066228,inf,inf,inf,inf,0,1,0,1,1,0,1,1,0,0,0
351323869,0,0.0,0.0,0.0,0.0,-0.16303538,4.6288296e-08,5.209874e-07,0.0,0.009991458,0.009655412,0.006789856,0.011881222,1.1561957e-05,0.00013013298,0.0,-0.011317556,0.020071445,-0.02233504,2.3806796,0.0,0.11354641,-0.006789856,0.120118685,0.24567215,0.100760505,0.10625006,inf,inf,inf,inf,0,1,0,1,1,0,1,1,0,0,0
351427869,0,0.0,0.0,0.0,0.0,-0.1571759,4.6288296e-08,5.209874e-07,0.0,0.009733924,0.009578434,0.008906157,0.017976454,1.1561957e-05,0.00013013298,0.0,0.0008547314,-0.0009367009,0.014970984,2.3804283,0.0,0.111367576,-0.008906157,0.11959489,0.24505644,0.100521065,0.106093585,inf,inf,inf,inf,0,1,0,1,1,0,1,1,0,0,0
351531869,0,0.0,0.0,0.0,0.0,-0.15184551,4.6288296e-08,5.209874e-07,0.0,0.009858194,0.009543397,0.011064148,0.022939006,1.1561957e-05,0.00013013298,0.0,0.025340687,0.002019297,0.027440961,2.3801782,0.0,0.10969659,-0.011064148,0.12085503,0.24632221,0.10121675,0.10644612,inf,inf,inf,inf,0,1,0,1,1,0,1,1,0,0,0
351627869,0,0.0,0.0,0.0,0.0,-0.14652064,4.6288296e-08,5.209874e-07,0.0,0.009993432,0.009898657,0.013288734,0.027704723,1.1561957e-05,0.00013013298,0.0,-0.0043571647,0.011333527,0.017485738,2.3798642,0.0,0.110765405,-0.013288734,0.11977247,0.2450867,0.10069314,0.10612782,inf,inf,inf,inf,0,1,0,1,1,0,1,1,0,0,0
351731895,0,0.0,0.0,0.0,0.0,-0.14146039,4.6288296e-08,5.209874e-07,0.0,0.009577526,0.010076277,0.0145958485,0.030521283,1.1561957e-05,0.00013013298,0.0,0.0075468235,0.033137776,0.016014304,2.3795176,0.0,0.106532104,-0.0145958485,0.11936105,0.24454859,0.10051865,0.10599911,inf,inf,inf,inf,0,1,0,1,1,0,1,1,0,0,0
351835869,0,0.0,0.0,0.0,0.0,-0.13866189,4.6288296e-08,5.209874e-07,0.0,0.009322651,0.00997053,0.015844984,0.030805934,1.1561957e-05,0.00013013298,0.0,0.0010391946,-6.4163185e-05,0.033380195,2.3792295,0.0,0.1,-0.015844984,0.118992284,0.24404031,0.10036821,0.10588187,inf,inf,inf,inf,0,1,0,1,1,0,1,1,0,0,0
351931093,0,0.0,0.0,0.0,0.0,-0.13845487,4.6288296e-08,5.209874e-07,0.0,0.009315246,0.010140144,0.014449495,0.026392547,1.1561957e-05,0.00013013298,0.0,0.014170522,0.00011712091,0.013861408,2.3789449,0.0,0.1,-0.014449495,0.11971909,0.24471298,0.10078585,0.106080845,inf,inf,inf,inf,0,1,0,1,1,0,1,1,0,0,0
352035078,0,0.0,0.0,0.0,0.0,-0.14200975,4.6288296e-08,5.209874e-07,0.0,0.008921793,0.010356473,0.011881525,0.017415902,1.1561957e-05,0.00013013298,0.0,0.015470969,-0.009569109,0.0071737394,2.3785832,0.0,0.1,-0.011881525,0.11930725,0.24416587,0.10059691,0.10596401,inf,inf,inf,inf,0,1,0,1,1,0,1,1,0,0,0
352139075,0,0.0,0.0,0.0,0.0,-0.14774446,4.6288296e-08,5.209874e-07,0.0,0.0087949,0.01028039,0.009757345,0.00783899,1.1561957e-05,0.00013013298,0.0,0.001039158,0.0016764991,-0.014002156,2.3782315,0.0,0.1,-0.009757345,0.12066663,0.2455166,0.10133408,0.10634461,inf,inf,inf,inf,0,1,0,1,1,0,1,1,0,0,0
352243101,0,0.0,0.0,0.0,0.0,-0.15404445,4.6288296e-08,5.209874e-07,0.0,0.0083442,0.010032053,0.008233071,-0.00052645704,1.1561957e-05,0.00013013298,0.0,-0.0037397917,0.013333508,-0.005703583,2.3778982,0.0,0.1,-0.008233071,0.12017016,0.24496885,0.10105294,0.106202275,inf,inf,inf,inf,0,1,0,1,1,0,1,1,0,0,0
352347075,0,0.0,0.0,0.0,0.0,-0.1566774,4.6288296e-08,5.209874e-07,0.0,0.008261393,0.01037962,0.007678195,-0.003346645,1.1561957e-05,0.00013013298,0.0,0.0069886935,-0.008625804,0.028313085,2.37765,0.0,0.1,-0.007678195,0.12136991,0.24623956,0.10163962,0.10654358,inf,inf,inf,inf,0,1,0,1,1,0,1,1,0,0,0
352443069,0,0.0,0.0,0.0,0.0,-0.15816166,4.6288296e-08,5.209874e-07,0.0,0.008301745,0.009742427,0.0077910298,-0.0041751703,1.1561957e-05,0.00013013298,0.0,-0.006001766,-0.007950683,0.014005166,2.3774405,0.0,0.1,-0.0077910298,0.12192169,0.2468367,0.10188881,0.10670121,inf,inf,inf,inf,0,1,0,1,1,0,1,1,0,0,0
352547069,0,0.0,0.0,0.0,0.0,-0.1590466,4.6288296e-08,5.209874e-07,0.0,0.008106275,0.010038001,0.008166529,-0.0040914966,1.1561957e-05,0.00013013298,0.0,0.0097809015,0.008438964,0.027747212,2.3772018,0.0,0.1,-0.008166529,0.12134544,0.24624984,0.10155378,0.10654098,inf,inf,inf,inf,0,1,0,1,1,0,1,1,0,0,0
352643069,0,0.0,0.0,0.0,0.0,-0.15887007,4.6288296e-08,5.209874e-07,0.0,0.00735595,0.010307909,0.009265901,-0.002327368,1.1561957e-05,0.00013013298,0.0,0.00333908,-0.0011352377,-0.0021293138,2.376877,0.0,0.1,-0.009265901,0.12015697,0.24500784,0.100904666,0.106204994,inf,inf,inf,inf,0,1,0,1,1,0,1,1,0,0,0
352750269,0,0.0,0.0,0.0,0.0,-0.15891281,4.6288296e-08,5.209874e-07,0.0,0.007476648,0.009957467,0.00906599,-0.002191497,1.1561957e-05,0.00013013298,0.0,0.009960326,0.012513546,0.0073313075,2.3765955,0.0,0.1,-0.00906599,0.12138469,0.24630037,0.101526625,0.10655287,inf,inf,inf,inf,0,1,0,1,1,0,1,1,0,0,0
352854268,0,0.0,0.0,0.0,0.0,-0.15547009,4.6288296e-08,5.209874e-07,0.0,0.007164388,0.010338166,0.011154434,0.003595323,1.1561957e-05,0.00013013298,0.0,0.011422509,0.005379257,0.03348564,2.3761778,0.0,0.10991097,-0.011154434,0.12111933,0.24601388,0.10142001,0.10643851,inf,inf,inf,inf,0,1,0,1,1,0,1,1,0,0,0
352950269,0,0.0,0.0,0.0,0.0,-0.14861856,4.6288296e-08,5.209874e-07,0.0,0.0071346364,0.010898453,0.013844078,0.012615877,1.1561957e-05,0.00013013298,0.0,-0.0036093295,0.025063641,0.0015328936,2.3758569,0.0,0.11528654,-0.013844078,0.11997805,0.24479854,0.10081258,0.106113136,inf,inf,inf,inf,0,1,0,1,1,0,1,1,0,0,0
353054269,0,0.0,0.0,0.0,0.0,-0.14229472,4.6288296e-08,5.209874e-07,0.0,0.0072556203,0.011288305,0.016162043,0.019598808,1.1561957e-05,0.00013013298,0.0,0.001773014,0.0037700115,0.01743269,2.3755245,0.0,0.11427044,-0.016162043,0.11949573,0.2442677,0.100551,0.10597288,inf,inf,inf,inf,0,1,0,1,1,0,1,1,0,0,0
353158297,0,0.0,0.0,0.0,0.0,-0.13668336,4.6288296e-08,5.209874e-07,0.0,0.006921004,0.011546954,0.017332274,0.023853207,1.1561957e-05,0.00013013298,0.0,0.00864494,-0.0035843812,-0.012544702,2.375308,0.0,0.1,-0.017332274,0.120788194,0.2455981,0.101231836,0.10633748,inf,inf,inf,inf,0,1,0,1,1,0,1,1,0,0,0
353254269,0,0.0,0.0,0.0,0.0,-0.1382568,4.6288296e-08,5.209874e-07,0.0,0.006842172,0.011291258,0.01648506,0.018924788,1.1561957e-05,0.00013013298,0.0,0.0035655221,-0.008702542,0.008454483,2.3751013,0.0,0.1,-0.01648506,0.1197309,0.24443685,0.10068679,0.106031924,inf,inf,inf,inf,0,1,0,1,1,0,1,1,0,0,0
353358275,0,0.0,0.0,0.0,0.0,-0.14004202,4.6288296e-08,5.209874e-07,0.0,0.0068712523,0.0113455,0.01579218,0.014429284,1.1561957e-05,0.00013013298,0.0,0.006846149,0.0033627423,-0.009314583,2.3748677,0.0,0.1,-0.01579218,0.11932075,0.2439558,0.100480676,0.105909556,inf,inf,inf,inf,0,1,0,1,1,0,1,1,0,0,0
353457478,0,0.0,0.0,0.0,0.0,-0.14041834,4.6288296e-08,5.209874e-07,0.0,0.006516667,0.011732931,0.016055584,0.01288132,1.1561957e-05,0.00013013298,0.0,0.009543328,0.022417428,0.0041920505,2.374653,0.0,0.1,-0.016055584,0.12000046,0.24463926,0.100839004,0.106099814,inf,inf,inf,inf,0,1,0,1,1,0,1,1,0,0,0
353561476,0,0.0,0.0,0.0,0.0,-0.1390599,4.6288296e-08,5.209874e-07,0.0,0.006334207,0.011761619,0.016863337,0.013617661,1.1561957e-05,0.00013013298,0.0,0.00023205094,-0.012001325,0.031388037,2.3744626,0.0,0.1,-0.016863337,0.11960571,0.24417287,0.10063908,0.105982326,inf,inf,inf,inf,0,1,0,1,1,0,1,1,0,0,0
353665475,0,0.0,0.0,0.0,0.0,-0.14152193,4.6288296e-08,5.209874e-07,0.0,0.0063828314,0.012124256,0.016429309,0.009364426,1.1561957e-05,0.00013013298,0.0,0.0027803448,0.019995708,0.0055375807,2.3742597,0.0,0.1,-0.016429309,0.11947481,0.24398202,0.100624435,0.10590481,inf,inf,inf,inf,0,1,0,1,1,0,1,1,0,0,0
353761469,0,0.0,0.0,0.0,0.0,-0.14251049,4.6288296e-08,5.209874e-07,0.0,0.006862161,0.0124798035,0.016523829,0.007689397,1.1561957e-05,0.00013013298,0.0,0.020935608,-0.0068486286,0.024316147,2.374105,0.0,0.1,-0.016523829,0.120159216,0.24467316,0.100977145,0.106097616,inf,inf,inf,inf,0,1,0,1,1,0,1,1,0,0,0
353865468,0,0.0,0.0,0.0,0.0,-0.13993776,4.6288296e-08,5.209874e-07,0.0,0.007446214,0.012648609,0.01719361,0.010236419,1.1561957e-05,0.00013013298,0.0,0.0139899645,0.00835453,0.00793853,2.373846,0.0,0.10309812,-0.01719361,0.11973057,0.24419717,0.10073702,0.10597316,inf,inf,inf,inf,0,1,0,1,1,0,1,1,0,0,0
353969470,0,0.0,0.0,0.0,0.0,-0.1348621,4.6288296e-08,5.209874e-07,0.0,0.0076096016,0.013302762,0.019185891,0.016159553,1.1561957e-05,0.00013013298,0.0,0.0043509235,0.0070064627,-0.01811314,2.3735871,0.0,0.10838475,-0.019185891,0.119327545,0.24373853,0.10051673,0.10585483,inf,inf,inf,inf,0,1,0,1,1,0,1,1,0,0,0
354073469,0,0.0,0.0,0.0,0.0,-0.12952708,4.6288296e-08,5.209874e-07,0.0,0.0076627424,0.013610453,0.0206143,0.021051863,1.1561957e-05,0.00013013298,0.0,0.007242855,0.022156948,0.012344617,2.373248,0.0,0.1041032,-0.0206143,0.12066663,0.24511655,0.10121554,0.10623347,inf,inf,inf,inf,0,1,0,1,1,0,1,1,0,0,0
354169468,0,0.0,0.0,0.0,0.0,-0.123493284,4.6288296e-08,5.209874e-07,0.0,0.007396634,0.013925189,0.022363048,0.026544172,1.1561957e-05,0.00013013298,0.0,0.013163501,-0.00047345553,-0.0134880105,2.3730597,0.0,0.10815643,-0.022363048,0.11961979,0.24399227,0.10065457,0.10593373,inf,inf,inf,inf,0,1,0,1,1,0,1,1,0,0,0
354272669,0,0.0,0.0,0.0,0.0,-0.119559154,4.6288296e-08,5.209874e-07,0.0,0.0076088225,0.014223888,0.023145568,0.028177569,1.1561957e-05,0.00013013298,0.0,-0.019551324,0.03616645,-0.0098566525,2.37282,0.0,0.1,-0.023145568,0.12085616,0.24531884,0.101262614,0.10628745,inf,inf,inf,inf,0,1,0,1,1,0,1,1,0,0,0
354376673,0,0.0,0.0,0.0,0.0,-0.11641556,4.6288296e-08,5.209874e-07,0.0,0.0071314173,0.014975614,0.022341719,0.02740121,1.1561957e-05,0.00013013298,0.0,0.0058628707,0.013142046,-0.014177481,2.3725462,0.0,0.1,-0.022341719,0.121853516,0.24645294,0.10169474,0.1065987,inf,inf,inf,inf,0,1,0,1,1,0,1,1,0,0,0
354472669,0,0.0,0.0,0.0,0.0,-0.11353128,4.6288296e-08,5.209874e-07,0.0,0.0073713483,0.014838877,0.02306057,0.028179826,1.1561957e-05,0.00013013298,0.0,0.009331611,-0.008229282,0.01796151,2.3723226,0.0,0.100978464,-0.02306057,0.122304864,0.24705997,0.101856865,0.106729314,inf,inf,inf,inf,0,1,0,1,1,0,1,1,0,0,0
354576675,0,0.0,0.0,0.0,0.0,-0.10949241,4.6288296e-08,5.209874e-07,0.0,0.0071681743,0.014596666,0.023632431,0.029594207,1.1561957e-05,0.00013013298,0.0,-0.0091717085,0.008034176,0.015849104,2.3722038,0.0,0.1,-0.023632431,0.12151359,0.24638672,0.10136397,0.10652159,inf,inf,inf,inf,0,1,0,1,1,0,1,1,0,0,0
354680669,0,0.0,0.0,0.0,0.0,-0.11018072,4.6288296e-08,5.209874e-07,0.0,0.0065341117,0.014926387,0.022979058,0.025100024,1.1561957e-05,0.00013013298,0.0,0.015207237,0.015398256,-0.02231341,2.3720152,0.0,0.1,-0.022979058,0.12259254,0.2476167,0.10187512,0.10683281,inf,inf,inf,inf,0,1,0,1,1,0,1,1,0,0,0
354776669,0,0.0,0.0,0.0,0.0,-0.111335516,4.6288296e-08,5.209874e-07,0.0,0.0065148682,0.014348356,0.021949388,0.020606093,1.1561957e-05,0.00013013298,0.0,-0.0020663706,0.007827626,-0.009743839,2.3719132,0.0,0.1,-0.021949388,0.123010635,0.24815868,0.10204623,0.10695762,inf,inf,inf,inf,0,1,0,1,1,0,1,1,0,0,0
354880695,0,0.0,0.0,0.0,0.0,-0.112590715,4.6288296e-08,5.209874e-07,0.0,0.0068314373,0.0137394015,0.021269945,0.01664239,1.1561957e-05,0.00013013298,0.0,0.005447102,0.001113812,0.045722246,2.3717732,0.0,0.1,-0.021269945,0.12214687,0.24742424,0.101529166,0.106727645,inf,inf,inf,inf,0,1,0,1,1,0,1,1,0,0,0
354983875,0,0.0,0.0,0.0,0.0,-0.11317674,4.6288296e-08,5.209874e-07,0.0,0.0072034546,0.013958255,0.02103416,0.014255352,1.1561957e-05,0.00013013298,0.0,0.010410582,0.01891958,0.01654523,2.371594,0.0,0.1,-0.02103416,0.12134415,0.24670798,0.10107081,0.106508866,inf,inf,inf,inf,0,1,0,1,1,0,1,1,0,0,0
355081475,0,0.0,0.0,0.0,0.0,-0.11393912,4.6288296e-08,5.209874e-07,0.0,0.006843014,0.013208963,0.02031429,0.011552038,1.1561957e-05,0.00013013298,0.0,0.004970945,0.008093925,0.021644574,2.3714037,0.0,0.1,-0.02031429,0.12177233,0.24723381,0.10128114,0.10663279,inf,inf,inf,inf,0,1,0,1,1,0,1,1,0,0,0
355183918,0,0.0,0.0,0.0,0.0,-0.116552785,4.6288296e-08,5.209874e-07,0.0,0.0071112206,0.012135693,0.019413456,0.0071840975,1.1561957e-05,0.00013013298,0.0,0.008172199,-0.0037006605,-0.010047655,2.3712223,0.0,0.1,-0.019413456,0.12098636,0.24644965,0.100871444,0.10643069,inf,inf,inf,inf,0,1,0,1,1,0,1,1,0,0,0
355287887,0,0.0,0.0,0.0,0.0,-0.11700163,4.6288296e-08,5.209874e-07,0.0,0.0077101514,0.011326736,0.019441567,0.006279328,1.1561957e-05,0.00013013298,0.0,0.0018738856,0.0036637106,0.03040888,2.3709269,0.0,0.1,-0.019441567,0.120533675,0.24600321,0.10068621,0.106270626,inf,inf,inf,inf,0,1,0,1,1,0,1,1,0,0,0
355391905,0,0.0,0.0,0.0,0.0,-0.117055975,4.6288296e-08,5.209874e-07,0.0,0.007475763,0.010823689,0.019488104,0.0058691297,1.1561957e-05,0.00013013298,0.0,0.0040269867,-0.0025659052,0.0037204186,2.3706427,0.0,0.1,-0.019488104,0.119849436,0.24526617,0.10035293,0.10608916,inf,inf,inf,inf,0,1,0,1,1,0,1,1,0,0,0
355487875,0,0.0,0.0,0.0,0.0,-0.119772315,4.6288296e-08,5.209874e-07,0.0,0.007910985,0.010537041,0.018822743,0.0021914695,1.1561957e-05,0.00013013298,0.0,0.009640995,0.024058703,-0.010702025,2.370379,0.0,0.1,-0.018822743,0.12044322,0.24587107,0.10070077,0.106251135,inf,inf,inf,inf,0,1,0,1,1,0,1,1,0,0,0
355591868,0,0.0,0.0,0.0,0.0,-0.12343837,4.6288296e-08,5.209874e-07,0.0,0.007924365,0.009620947,0.01647468,-0.0035739108,1.1561957e-05,0.00013013298,0.0,-0.0014005924,0.018882977,-0.008367666,2.3700323,0.0,0.1,-0.01647468,0.12164983,0.24713375,0.10135438,0.106587216,inf,inf,inf,inf,0,1,0,1,1,0,1,1,0,0,0
355695875,0,0.0,0.0,0.0,0.0,-0.12879281,4.6288296e-08,5.209874e-07,0.0,0.008124339,0.010135026,0.014584905,-0.00986803,1.1561957e-05,0.00013013298,0.0,0.00010391036,0.0029852355,0.015090473,2.3696632,0.0,0.1,-0.014584905,0.12096008,0.24645476,0.10098621,0.10638933,inf,inf,inf,inf,0,1,0,1,1,0,1,1,0,0,0
355791886,0,0.0,0.0,0.0,0.0,-0.13170645,4.6288296e-08,5.209874e-07,0.0,0.00837394,0.009638189,0.013637327,-0.012267393,1.1561957e-05,0.00013013298,0.0,-0.0029243378,0.015120056,0.0033936163,2.3693738,0.0,0.1,-0.013637327,0.121401094,0.24696934,0.10120489,0.10651334,inf,inf,inf,inf,0,1,0,1,1,0,1,1,0,0,0
355895075,0,0.0,0.0,0.0,0.0,-0.13231428,4.6288296e-08,5.209874e-07,0.0,0.008891288,0.009165522,0.012317764,-0.012447674,1.1561957e-05,0.00013013298,0.0,-0.007678033,0.0096553285,0.004294265,2.3691235,0.0,0.1,-0.012317764,0.12241493,0.24811745,0.10170052,0.10680137,inf,inf,inf,inf,0,1,0,1,1,0,1,1,0,0,0
355999094,0,0.0,0.0,0.0,0.0,-0.13209763,4.6288296e-08,5.209874e-07,0.0,0.009199468,0.0085911155,0.012777784,-0.010093073,1.1561957e-05,0.00013013298,0.0,0.0139552895,0.012320239,-0.0028181374,2.3687968,0.0,0.10165251,-0.012777784,0.12156348,0.2472998,0.10122968,0.10657255,inf,inf,inf,inf,0,1,0,1,1,0,1,1,0,0,0
356103076,0,0.0,0.0,0.0,0.0,-0.13169213,4.6288296e-08,5.209874e-07,0.0,0.009631861,0.008617579,0.012245692,-0.008893251,1.1561957e-05,0.00013013298,0.0,0.013526595,0.0007059176,-0.0037178504,2.368588,0.0,0.1,-0.012245692,0.12086069,0.24659164,0.10087379,0.10636942,inf,inf,inf,inf,0,1,0,1,1,0,1,1,0,0,0
356199069,0,0.0,0.0,0.0,0.0,-0.13065709,4.6288296e-08,5.209874e-07,0.0,0.009047574,0.008302577,0.011809058,-0.007189379,1.1561957e-05,0.00013013298,0.0,0.0053597726,0.008125554,-0.006277895,2.3683724,0.0,0.10072964,-0.011809058,0.121340044,0.24711074,0.10113341,0.1065009,inf,inf,inf,inf,0,1,0,1,1,0,1,1,0,0,0
356303072,0,0.0,0.0,0.0,0.0,-0.12948735,4.6288296e-08,5.209874e-07,0.0,0.0088096075,0.007823699,0.012629276,-0.0043011275,1.1561957e-05,0.00013013298,0.0,-0.013030158,-0.0015855064,0.02470908,2.3681374,0.0,0.10021382,-0.012629276,0.120684884,0.24642207,0.10081377,0.1063079,inf,inf,inf,inf,0,1,0,1,1,0,1,1,0,0,0
356407069,0,0.0,0.0,0.0,0.0,-0.12763739,4.6288296e-08,5.209874e-07,0.0,0.008574759,0.007590488,0.01330508,-0.0012505125,1.1561957e-05,0.00013013298,0.0,0.017964296,0.017066715,0.018020524,2.3680005,0.0,0.10586774,-0.01330508,0.120090805,0.24576573,0.100534886,0.10612884,inf,inf,inf,inf,0,1,0,1,1,0,1,1,0,0,0
356503069,0,0.0,0.0,0.0,0.0,-0.12382241,4.6288296e-08,5.209874e-07,0.0,0.008567024,0.0067650513,0.01426699,0.0036228695,1.1561957e-05,0.00013013298,0.0,0.009855242,0.0022500993,0.027973343,2.367899,0.0,0.107003406,-0.01426699,0.12065914,0.24632992,0.10086367,0.10628241,inf,inf,inf,inf,0,1,0,1,1,0,1,1,0,0,0
356607069,0,0.0,0.0,0.0,0.0,-0.12632169,4.6288296e-08,5.209874e-07,0.0,0.008258922,0.006031915,0.014487513,0.0009638973,1.1561957e-05,0.00013013298,0.0,0.05687926,-0.057613067,0.15072535,2.36827,0.0,0.1,-0.014487513,0.12009325,0.24569055,0.10059757,0.106111124,inf,inf,inf,inf,0,1,0,1,1,0,1,1,0,0,0
356710269,0,0.0,0.0,0.0,0.0,-0.13048808,4.6288296e-08,5.209874e-07,0.0,0.008424666,0.0057007736,0.012539932,-0.004940981,1.1561957e-05,0.00013013298,0.0,-0.028047716,0.05626425,-0.042871293,2.367325,0.0,0.1,-0.012539932,0.11949709,0.24500379,0.10031231,0.10594098,inf,inf,inf,inf,0,1,0,1,1,0,1,1,0,0,0
356806279,0,0.0,0.0,0.0,0.0,-0.13153109,4.6288296e-08,5.209874e-07,0.0,0.0081953425,0.0045213816,0.011998375,-0.005835473,1.1561957e-05,0.00013013298,0.0,-0.012281509,0.013484225,-0.10016532,2.3675919,0.0,0.1,-0.011998375,0.120116785,0.24559988,0.1006726,0.10611111,inf,inf,inf,inf,0,1,0,1,1,0,1,1,0,0,0
356910268,0,0.0,0.0,0.0,0.0,-0.13321877,4.6288296e-08,5.209874e-07,0.0,0.007910786,0.004757703,0.010946151,-0.0077563715,1.1561957e-05,0.00013013298,0.0,0.011271547,0.05789963,-0.083636284,2.3676388,0.0,0.1,-0.010946151,0.12676528,0.24686597,0.104098596,0.10645874,inf,inf,inf,inf,0,1,0,1,1,0,1,1,0,0,0
357014313,0,0.0,0.0,0.0,0.0,-0.1327033,4.6288296e-08,5.209874e-07,0.0,0.0065511144,0.0046884245,0.010119039,-0.0069694347,1.1561957e-05,0.00013013298,0.0,-0.13350317,0.23909174,-0.13076791,2.3666036,0.0,0.1,-0.010119039,0.1356962,0.24620767,0.10847184,0.10627919,inf,inf,inf,inf,0,1,0,1,1,0,1,1,0,0,0
357118291,0,0.0,0.0,0.0,0.0,-0.12834674,4.6288296e-08,5.209874e-07,0.0,0.012321249,0.0046130153,0.010800011,-0.0012793078,1.1561957e-05,0.00013013298,0.0,0.7433812,-0.2158033,-0.6460863,2.3668542,0.0,0.1,-0.010800011,0.14517549,0.24554905,0.11289744,0.106099755,inf,inf,inf,inf,0,1,0,1,1,0,1,1,0,0,0
357222286,0,0.0,0.0,0.0,0.0,-0.12625922,4.6288296e-08,5.209874e-07,0.0,0.0069935224,0.0059409877,0.013022613,0.003128756,1.1561957e-05,0.00013013298,0.0,-0.9161889,-0.107183255,0.54816514,2.366805,0.0,0.1,-0.013022613,0.15521115,0.24679238,0.1173771,0.10643701,inf,inf,inf,inf,0,1,0,1,1,0,1,1,0,0,0
357318271,0,0.0,0.0,0.0,0.0,-0.123834394,4.6288296e-08,5.209874e-07,0.0,0.008087429,-0.00022087104,0.01658876,0.008930179,1.1561957e-05,0.00013013298,0.0,0.8266826,-0.80594337,1.5846828,2.366737,0.0,0.1,-0.01658876,0.1649299,0.24549516,0.12155129,0.106092095,inf,inf,inf,inf,0,1,0,1,1,0,1,1,0,0,0
357421475,0,0.0,0.0,0.0,0.0,-0.123041406,4.6288296e-08,5.209874e-07,0.0,0.010854383,0.010765324,0.008699104,0.0014029078,1.1561957e-05,0.00013013298,0.0,-0.62619215,1.1875061,-0.6115368,2.3666847,0.0,0.1,-0.008699104,0.17599006,0.24675782,0.12613554,0.106438845,inf,inf,inf,inf,0,1,0,1,1,0,1,1,0,0,0
357525496,0,0.0,0.0,0.0,0.0,-0.12804286,4.6288296e-08,5.209874e-07,0.0,0.010579678,0.0151363155,-0.0035592061,-0.014873265,1.1561957e-05,0.00013013298,0.0,0.70219266,0.31478557,0.37091854,2.3665504,0.0,0.1,0.0035592061,0.1873817,0.24601571,0.13063988,0.106266834,inf,inf,inf,inf,0,1,0,1,1,0,1,1,0,0,0
357629477,0,0.0,0.0,0.0,0.0,-0.13404192,4.6288296e-08,5.209874e-07,0.0,0.009522975,0.012322512,0.0011921318,-0.014792994,1.1561957e-05,0.00013013298,0.0,-3.042325,1.3031751,-1.5011122,2.3665283,0.0,0.1,-0.0011921318,0.19956078,0.24549505,0.13544382,0.1061246,inf,inf,inf,inf,0,1,0,1,1,0,1,1,0,0,0
357725468,0,0.0,0.0,0.0,0.0,-0.14357546,4.6288296e-08,5.209874e-07,0.0,0.010986312,0.0028253812,-0.00989844,-0.032933027,1.1561957e-05,0.00013013298,0.0,-2.9582732,2.2439334,1.681926,2.3669286,0.0,0.10877072,0.00989844,0.21119107,0.24610831,0.13978529,0.1062989,inf,inf,inf,inf,0,1,0,1,1,0,1,1,0,0,0
357829469,0,0.0,0.0,0.0,0.0,-0.15899186,4.6288296e-08,5.209874e-07,0.0,0.018254574,0.0092476,0.0036741341,-0.03118801,1.1561957e-05,0.00013013298,0.0,0.0050387206,2.626119,2.8886993,2.3686771,0.0,0.12418712,-0.0036741341,0.22426866,0.24556027,0.14455386,0.10616456,inf,inf,inf,inf,0,1,0,1,1,0,1,1,0,0,0
357933469,0,0.0,0.0,0.0,0.0,-0.17766222,4.6288296e-08,5.209874e-07,0.0,0.016055362,0.0130667575,-0.00611996,-0.0548884,1.1561957e-05,0.00013013298,0.0,0.09228199,-0.16687456,-2.4003575,2.3725057,0.0,0.14285749,0.00611996,0.23785439,0.24502529,0.14929004,0.10603437,inf,inf,inf,inf,0,1,0,1,1,0,1,1,0,0,0
358029486,0,0.0,0.0,0.0,0.0,-0.19853652,4.6288296e-08,5.209874e-07,0.0,0.0146293,0.005808127,-0.00044719415,-0.06400443,1.1561957e-05,0.00013013298,0.0,-1.009456,0.44907072,0.5018184,2.3737686,0.0,0.16373178,0.00044719415,0.25086638,0.24565455,0.1538369,0.106211826,inf,inf,inf,inf,0,1,0,1,1,0,1,1,0,0,0
358136669,0,0.0,0.0,0.0,0.0,-0.21806403,4.6288296e-08,5.209874e-07,0.0,-0.00328924,-0.0022418522,-0.021392776,-0.09570298,1.1561957e-05,0.00013013298,0.0,-0.051044803,-1.2592802,-3.9195983,2.3733582,0.0,0.18325928,0.021392776,0.26545054,0.246906,0.15866688,0.106549524,inf,inf,inf,inf,0,1,0,1,1,0,1,1,0,0,0
358231915,0,0.0,0.0,0.0,0.0,-0.23785622,4.6288296e-08,5.209874e-07,0.0,0.014686774,-0.0013758889,-0.023161495,-0.10690726,1.1561957e-05,0.00013013298,0.0,-0.17526306,1.8997403,3.5883236,2.3739042,0.0,0.20305148,0.023161495,0.27928275,0.24560806,0.16316193,0.10619955,inf,inf,inf,inf,0,1,0,1,1,0,1,1,0,0,0
358336669,0,0.0,0.0,0.0,0.0,-0.25688398,4.6288296e-08,5.209874e-07,0.0,0.019275524,0.00933719,-0.02243346,-0.111171156,1.1561957e-05,0.00013013298,0.0,1.9017979,2.2506144,2.7437046,2.374769,0.0,0.22207925,0.02243346,0.29525352,0.2452528,0.16829288,0.10606745,inf,inf,inf,inf,0,1,0,1,1,0,1,1,0,0,0
358440717,0,0.0,0.0,0.0,0.0,-0.27272105,4.6288296e-08,5.209874e-07,0.0,0.01204029,0.02068319,-0.02649163,-0.116913304,1.1561957e-05,0.00013013298,0.0,-1.6655458,1.4329956,-0.05739193,2.3751252,0.0,0.23791632,0.02649163,0.3113134,0.24652013,0.17337485,0.10641357,inf,inf,inf,inf,0,1,0,1,1,0,1,1,0,0,0
358536717,0,0.0,0.0,0.0,0.0,-0.2871935,4.6288296e-08,5.209874e-07,0.0,0.015909143,0.012885334,-0.03188208,-0.12353267,1.1561957e-05,0.00013013298,0.0,-1.2012286,0.9422114,0.8894373,2.3740916,0.0,0.25238878,0.03188208,0.32653502,0.24708337,0.17809808,0.1065648,inf,inf,inf,inf,0,1,0,1,1,0,1,1,0,0,0
358640675,0,0.0,0.0,0.0,0.0,-0.29669458,4.6288296e-08,5.209874e-07,0.0,0.011505444,0.011503295,-0.020765582,-0.10783147,1.1561957e-05,0.00013013298,0.0,-0.2847795,2.9570043,4.7032604,2.372348,0.0,0.26188985,0.020765582,0.34342325,0.24639265,0.1830738,0.10636901,inf,inf,inf,inf,0,1,0,1,1,0,1,1,0,0,0
358744711,0,0.0,0.0,0.0,0.0,-0.30321193,4.6288296e-08,5.209874e-07,0.0,0.012303285,0.0048068827,-0.031093232,-0.11113571,1.1561957e-05,0.00013013298,0.0,0.7093364,1.4187381,3.4766085,2.3705819,0.0,0.2684072,0.031093232,0.3608817,0.24757051,0.18813041,0.10667521,inf,inf,inf,inf,0,1,0,1,1,0,1,1,0,0,0
358840669,0,0.0,0.0,0.0,0.0,-0.30397746,4.6288296e-08,5.209874e-07,0.0,0.0105967345,0.0032311536,-0.0439138,-0.11258558,1.1561957e-05,0.00013013298,0.0,-1.0057204,-1.684819,-2.2086713,2.3709786,0.0,0.26917273,0.0439138,0.37737355,0.24801484,0.19291557,0.10677494,inf,inf,inf,inf,0,1,0,1,1,0,1,1,0,0,0
358943868,0,0.0,0.0,0.0,0.0,-0.3051521,4.6288296e-08,5.209874e-07,0.0,0.011605547,-0.00044477146,-0.046925776,-0.10560309,1.1561957e-05,0.00013013298,0.0,-0.4602722,-1.9213362,-3.3599286,2.3707776,0.0,0.27034736,0.046925776,0.3957245,0.24909629,0.19813062,0.10704006,inf,inf,inf,inf,0,1,0,1,1,0,1,1,0,0,0
359047869,0,0.0,0.0,0.0,0.0,-0.3145712,4.6288296e-08,5.209874e-07,0.0,0.015739305,-0.0052597495,-0.04357864,-0.101218715,1.1561957e-05,0.00013013298,0.0,0.22711472,-2.3079917,1.7606325,2.3706036,0.0,0.27976647,0.04357864,0.41435727,0.24823922,0.2032312,0.10678217,inf,inf,inf,inf,0,1,0,1,1,0,1,1,0,0,0
359151887,0,0.0,0.0,0.0,0.0,-0.3225399,4.6288296e-08,5.209874e-07,0.0,0.017428499,0.0013127902,-0.035358008,-0.09037608,1.1561957e-05,0.00013013298,0.0,0.47948065,0.2286713,2.962055,2.371163,0.0,0.28773516,0.035358008,0.4332513,0.24737725,0.2083088,0.106544524,inf,inf,inf,inf,0,1,0,1,1,0,1,1,0,0,0
359255886,0,0.0,0.0,0.0,0.0,-0.32678246,4.6288296e-08,5.209874e-07,0.0,0.015606438,-0.0011360302,-0.043382425,-0.092407174,1.1561957e-05,0.00013013298,0.0,1.0636631,-0.32021168,2.9670765,2.3719084,0.0,0.29197773,0.043382425,0.45268932,0.24663113,0.21340978,0.1063353,inf,inf,inf,inf,0,1,0,1,1,0,1,1,0,0,0
359351868,0,0.0,0.0,0.0,0.0,-0.32626227,4.6288296e-08,5.209874e-07,0.0,0.01881288,0.0054282686,-0.039628092,-0.079406865,1.1561957e-05,0.00013013298,0.0,0.80743057,0.7757339,4.30677,2.3723752,0.0,0.29145753,0.039628092,0.47111887,0.2471166,0.21818098,0.10646124,inf,inf,inf,inf,0,1,0,1,1,0,1,1,0,0,0
359455880,0,0.0,0.0,0.0,0.0,-0.33027807,4.6288296e-08,5.209874e-07,0.0,0.005050659,0.013266627,-0.08523746,-0.11955703,1.1561957e-05,0.00013013298,0.0,-1.7906301,-0.8594983,-3.5067086,2.372837,0.0,0.29547334,0.08523746,0.49156186,0.24823898,0.22337668,0.10675178,inf,inf,inf,inf,0,1,0,1,1,0,1,1,0,0,0
359559868,0,0.0,0.0,0.0,0.0,-0.34223145,4.6288296e-08,5.209874e-07,0.0,-0.023705361,0.03699885,-0.11277983,-0.14573486,1.1561957e-05,0.00013013298,0.0,-0.11860208,-2.505105,-1.2163563,2.3747525,0.0,0.30742672,0.11277983,0.51207215,0.24744229,0.22855303,0.10652458,inf,inf,inf,inf,0,1,0,1,1,0,1,1,0,0,0
359655887,0,0.0,0.0,0.0,0.0,-0.35922202,4.6288296e-08,5.209874e-07,0.0,-0.027049085,0.039401926,-0.016720077,-0.057762362,1.1561957e-05,0.00013013298,0.0,1.5277544,-3.6323318,-0.7623551,2.3773663,0.0,0.3244173,0.016720077,0.53152746,0.24790056,0.23365442,0.10664001,inf,inf,inf,inf,0,1,0,1,1,0,1,1,0,0,0
359759091,0,0.0,0.0,0.0,0.0,-0.37051094,4.6288296e-08,5.209874e-07,0.0,-0.03211099,0.052611444,0.013744926,-0.036875963,1.1561957e-05,0.00013013298,0.0,2.569566,-3.6403644,-4.669168,2.3805451,0.0,0.3357062,-0.013744926,0.55267864,0.24716905,0.23854703,0.10644134,inf,inf,inf,inf,0,1,0,1,1,0,1,1,0,0,0
359863069,0,0.0,0.0,0.0,0.0,-0.38789555,4.6288296e-08,5.209874e-07,0.0,-0.018996028,0.030075623,-0.09314779,-0.14883392,1.1561957e-05,0.00013013298,0.0,1.1736531,-3.2771146,0.74986345,2.3801732,0.0,0.35309082,0.09314779,0.57386184,0.24639446,0.2429362,0.10624662,inf,inf,inf,inf,0,1,0,1,1,0,1,1,0,0,0
359967075,0,0.0,0.0,0.0,0.0,-0.39444026,4.6288296e-08,5.209874e-07,0.0,-0.03093113,0.027829116,-0.02569988,-0.076593116,1.1561957e-05,0.00013013298,0.0,0.8916854,-2.5240126,-1.7904171,2.380212,0.0,0.35963553,0.02569988,0.59544337,0.24572732,0.24844185,0.106076,inf,inf,inf,inf,0,1,0,1,1,0,1,1,0,0,0
360071076,0,0.0,0.0,0.0,0.0,-0.4019364,4.6288296e-08,5.209874e-07,0.0,0.010247072,0.010231276,-0.102815896,-0.15062551,1.1561957e-05,0.00013013298,0.0,1.1596849,-2.2817137,-3.262996,2.378877,0.0,0.36713168,0.102815896,0.6178457,0.24688305,0.25352386,0.106386565,inf,inf,inf,inf,0,1,0,1,1,0,1,1,0,0,0
360167073,0,0.0,0.0,0.0,0.0,-0.4086732,4.6288296e-08,5.209874e-07,0.0,0.0005703946,0.018190138,-0.029238047,-0.072899096,1.1561957e-05,0.00013013298,0.0,-2.4187953,1.9468558,0.021082722,2.3788114,0.0,0.37386847,0.029238047,0.63853943,0.2473313,0.2578117,0.10650015,inf,inf,inf,inf,0,1,0,1,1,0,1,1,0,0,0
360271108,0,0.0,0.0,0.0,0.0,-0.4137901,4.6288296e-08,5.209874e-07,0.0,0.011666357,-0.005582028,-0.061211355,-0.10066059,1.1561957e-05,0.00013013298,0.0,-3.5058138,2.513337,2.5080423,2.375516,0.0,0.37898538,0.061211355,0.6614226,0.24841869,0.26329246,0.10677851,inf,inf,inf,inf,0,1,0,1,1,0,1,1,0,0,0
360375069,0,0.0,0.0,0.0,0.0,-0.42546663,4.6288296e-08,5.209874e-07,0.0,0.025340544,-0.012223785,-0.06890113,-0.10961666,1.1561957e-05,0.00013013298,0.0,-0.142154,-2.5108404,-2.48723,2.3740792,0.0,0.3906619,0.06890113,0.68450916,0.2494889,0.26811036,0.10705234,inf,inf,inf,inf,0,1,0,1,1,0,1,1,0,0,0
360472677,0,0.0,0.0,0.0,0.0,-0.438094,4.6288296e-08,5.209874e-07,0.0,0.025894329,0.00034822692,-0.06098679,-0.10369978,1.1561957e-05,0.00013013298,0.0,-5.050911,2.030402,1.6930104,2.3675284,0.0,0.40328926,0.06098679,0.7048728,0.24795282,0.2725009,0.10662439,inf,inf,inf,inf,0,1,0,1,1,0,1,1,0,0,0
360574280,0,0.0,0.0,0.0,0.0,-0.4429115,4.6288296e-08,5.209874e-07,0.0,0.048641965,0.0070749684,-0.054542426,-0.090909384,1.1561957e-05,0.00013013298,0.0,4.540337,2.2244415,4.0773506,2.3567073,0.0,0.40810677,0.054542426,0.7282271,0.24897571,0.27735433,0.106879726,inf,inf,inf,inf,0,1,0,1,1,0,1,1,0,0,0
360678268,0,0.0,0.0,0.0,0.0,-0.4444148,4.6288296e-08,5.209874e-07,0.0,0.04009637,0.009434636,-0.06293251,-0.09041742,1.1561957e-05,0.00013013298,0.0,-2.92905,1.3150125,-1.1776056,2.3448534,0.0,0.40961006,0.06293251,0.7508917,0.24814235,0.28196767,0.10663091,inf,inf,inf,inf,0,1,0,1,1,0,1,1,0,0,0
360782310,0,0.0,0.0,0.0,0.0,-0.44575778,4.6288296e-08,5.209874e-07,0.0,0.039441362,-0.002362454,-0.052209266,-0.07146149,1.1561957e-05,0.00013013298,0.0,0.122041464,-5.2669983,1.1951135,2.3333147,0.0,0.41095304,0.052209266,0.7740304,0.2490743,0.28663766,0.10689369,inf,inf,inf,inf,0,1,0,1,1,0,1,1,0,0,0
360878283,0,0.0,0.0,0.0,0.0,-0.44736236,4.6288296e-08,5.209874e-07,0.0,0.038254064,0.02191466,-0.07541555,-0.08898883,1.1561957e-05,0.00013013298,0.0,-0.9782432,-0.25165823,-1.363611,2.3162885,0.0,0.41255763,0.07541555,0.79547715,0.24947189,0.29077908,0.10699265,inf,inf,inf,inf,0,1,0,1,1,0,1,1,0,0,0
360982269,0,0.0,0.0,0.0,0.0,-0.4458938,4.6288296e-08,5.209874e-07,0.0,0.040108226,0.019926295,-0.05185256,-0.056565855,1.1561957e-05,0.00013013298,0.0,-2.256032,2.4635527,1.3528289,2.2937784,0.0,0.41108906,0.05185256,0.8177801,0.24860068,0.2949925,0.106750555,inf,inf,inf,inf,0,1,0,1,1,0,1,1,0,0,0
361086269,0,0.0,0.0,0.0,0.0,-0.44238076,4.6288296e-08,5.209874e-07,0.0,0.036164407,-0.002835759,-0.069326594,-0.06352024,1.1561957e-05,0.00013013298,0.0,5.0747423,-1.6956424,1.8281946,2.2792094,0.0,0.40757602,0.069326594,0.84138113,0.24966052,0.29952982,0.107026584,inf,inf,inf,inf,0,1,0,1,1,0,1,1,0,0,0
361182269,0,0.0,0.0,0.0,0.0,-0.43894225,4.6288296e-08,5.209874e-07,0.0,0.018997304,-0.02556495,-0.051369477,-0.03930803,1.1561957e-05,0.00013013298,0.0,-1.7951187,1.617048,-2.2835116,2.2738132,0.0,0.40413752,0.051369477,0.86106515,0.24810913,0.3029758,0.106603116,inf,inf,inf,inf,0,1,0,1,1,0,1,1,0,0,0
361285475,0,0.0,0.0,0.0,0.0,-0.44385967,4.6288296e-08,5.209874e-07,0.0,0.008585432,-0.025443355,-0.053244635,-0.042316288,1.1561957e-05,0.00013013298,0.0,-5.9461484,-1.2957364,-0.20746619,2.2686286,0.0,0.40905493,0.053244635,0.8827678,0.24727176,0.306641,0.10637673,inf,inf,inf,inf,0,1,0,1,1,0,1,1,0,0,0
361389490,0,0.0,0.0,0.0,0.0,-0.45240214,4.6288296e-08,5.209874e-07,0.0,0.03474452,-0.024872761,-0.074573934,-0.06760682,1.1561957e-05,0.00013013298,0.0,0.13657711,1.8354418,-3.4080064,2.2630808,0.0,0.4175974,0.074573934,0.90602,0.2483724,0.3109883,0.1066765,inf,inf,inf,inf,0,1,0,1,1,0,1,1,0,0,0
361493481,0,0.0,0.0,0.0,0.0,-0.46306115,4.6288296e-08,5.209874e-07,0.0,0.021878906,-0.02751544,-0.1271423,-0.12296413,1.1561957e-05,0.00013013298,0.0,-1.3418888,1.6036199,2.0194972,2.2529447,0.0,0.42825642,0.1271423,0.92698383,0.24753378,0.31439403,0.10647197,inf,inf,inf,inf,0,1,0,1,1,0,1,1,0,0,0
361597469,0,0.0,0.0,0.0,0.0,-0.488644,4.6288296e-08,5.209874e-07,0.0,0.03197895,-0.0259516,-0.31392983,-0.3119787,1.1561957e-05,0.00013013298,0.0,2.7394557,-3.0077112,4.1137466,2.237752,0.0,0.45383927,0.31392983,0.9478104,0.24679358,0.3177912,0.10628645,inf,inf,inf,inf,0,1,0,1,1,0,1,1,0,0,0
361693469,0,0.0,0.0,0.0,0.0,-0.52586615,4.6288296e-08,5.209874e-07,0.0,0.031733718,-0.024187347,-0.39993572,-0.4001184,1.1561957e-05,0.00013013298,0.0,-0.15785047,-3.6478171,-1.7941371,2.2189336,0.0,0.49106142,0.39993572,0.96808684,0.24730092,0.32192236,0.10643784,inf,inf,inf,inf,0,1,0,1,1,0,1,1,0,0,0
361797469,0,0.0,0.0,0.0,0.0,-0.5693261,4.6288296e-08,5.209874e-07,0.0,0.03507232,-0.010221802,-0.33413696,-0.33892426,1.1561957e-05,0.00013013298,0.0,0.7596678,-2.2943945,0.06982212,2.1961918,0.0,0.53452134,0.33413696,0.988284,0.24660952,0.32611272,0.106271505,inf,inf,inf,inf,0,1,0,1,1,0,1,1,0,0,0
361901469,0,0.0,0.0,0.0,0.0,-0.60374296,4.6288296e-08,5.209874e-07,0.0,0.06187316,-0.0031368244,-0.21632312,-0.22663493,1.1561957e-05,0.00013013298,0.0,2.9370031,-0.08771719,3.1595843,2.176772,0.0,0.5689382,0.21632312,1.0080231,0.24592365,0.32904866,0.10610434,inf,inf,inf,inf,0,1,0,1,1,0,1,1,0,0,0
361997471,0,0.0,0.0,0.0,0.0,-0.6318841,4.6288296e-08,5.209874e-07,0.0,0.058655847,-0.00326855,-0.13384418,-0.15443417,1.1561957e-05,0.00013013298,0.0,0.6848446,-3.0855808,-3.4575932,2.1602945,0.0,0.59707934,0.13384418,1.0274518,0.24647735,0.33150908,0.106273375,inf,inf,inf,inf,0,1,0,1,1,0,1,1,0,0,0
362100668,0,0.0,0.0,0.0,0.0,-0.6518144,4.6288296e-08,5.209874e-07,0.0,0.06947813,0.007184273,-0.017611388,-0.048835598,1.1561957e-05,0.00013013298,0.0,2.448287,0.81153077,4.4599805,2.1337576,0.0,0.61700964,0.017611388,1.0462143,0.24585791,0.33351108,0.10613136,inf,inf,inf,inf,0,1,0,1,1,0,1,1,0,0,0
362204669,0,0.0,0.0,0.0,0.0,-0.66277325,4.6288296e-08,5.209874e-07,0.0,0.07043149,0.016838087,-0.049452547,-0.08506237,1.1561957e-05,0.00013013298,0.0,0.7853104,-1.5349326,-4.5062933,2.090556,0.0,0.6279685,0.049452547,1.0638038,0.24511291,0.33505166,0.10597782,inf,inf,inf,inf,0,1,0,1,1,0,1,1,0,0,0
362308669,0,0.0,0.0,0.0,0.0,-0.6772406,4.6288296e-08,5.209874e-07,0.0,0.081916146,0.023657257,-0.107114166,-0.14587252,1.1561957e-05,0.00013013298,0.0,0.9351283,-1.2376091,-7.988891,2.0337346,0.0,0.64243585,0.107114166,1.0846936,0.24645007,0.33790436,0.10635412,inf,inf,inf,inf,0,1,0,1,1,0,1,1,0,0,0
362404675,0,0.0,0.0,0.0,0.0,-0.68803066,4.6288296e-08,5.209874e-07,0.0,0.082002856,0.031567227,-0.12139704,-0.15598366,1.1561957e-05,0.00013013298,0.0,1.4183565,3.2070663,-0.26848882,1.9788284,0.0,0.6532259,0.12139704,1.1023718,0.24701469,0.34061188,0.10652059,inf,inf,inf,inf,0,1,0,1,1,0,1,1,0,0,0
362508669,0,0.0,0.0,0.0,0.0,-0.6973858,4.6288296e-08,5.209874e-07,0.0,0.105252944,0.032625467,-0.10222361,-0.12979583,1.1561957e-05,0.00013013298,0.0,3.557085,3.452233,-0.1341828,1.916509,0.0,0.662581,0.10222361,1.1187251,0.24634242,0.3429065,0.106349945,inf,inf,inf,inf,0,1,0,1,1,0,1,1,0,0,0
362612719,0,0.0,0.0,0.0,0.0,-0.7021527,4.6288296e-08,5.209874e-07,0.0,0.10965933,0.03574877,-0.08388383,-0.10365383,1.1561957e-05,0.00013013298,0.0,-1.5905553,5.654587,0.2911506,1.8566531,0.0,0.66734797,0.08388383,1.1344618,0.24569725,0.34481183,0.10618843,inf,inf,inf,inf,0,1,0,1,1,0,1,1,0,0,0
362716675,0,0.0,0.0,0.0,0.0,-0.6956643,4.6288296e-08,5.209874e-07,0.0,0.12069319,0.030997558,-0.030960979,-0.035970207,1.1561957e-05,0.00013013298,0.0,2.8769364,4.0430865,1.7995842,1.8001076,0.0,0.6608595,0.030960979,1.1495166,0.24507578,0.34635448,0.10603766,inf,inf,inf,inf,0,1,0,1,1,0,1,1,0,0,0
362811869,0,0.0,0.0,0.0,0.0,-0.686631,4.6288296e-08,5.209874e-07,0.0,0.11474828,0.024726847,-0.07746681,-0.067733966,1.1561957e-05,0.00013013298,0.0,-0.16242878,-1.7113824,5.2995973,1.7496576,0.0,0.65182626,0.07746681,1.1652642,0.24566455,0.34836388,0.10621172,inf,inf,inf,inf,0,1,0,1,1,0,1,1,0,0,0
362915883,0,0.0,0.0,0.0,0.0,-0.6801434,4.6288296e-08,5.209874e-07,0.0,0.124602966,0.042075194,-0.15109564,-0.12486904,1.1561957e-05,0.00013013298,0.0,-3.2538595,4.610742,-1.3279998,1.6970952,0.0,0.64533865,0.15109564,1.1831982,0.24692322,0.3508959,0.10656425,inf,inf,inf,inf,0,1,0,1,1,0,1,1,0,0,0
363019875,0,0.0,0.0,0.0,0.0,-0.68147373,4.6288296e-08,5.209874e-07,0.0,0.119194366,0.0540344,-0.16834968,-0.13023435,1.1561957e-05,0.00013013298,0.0,-5.4061093,0.24276334,-0.02362615,1.6495806,0.0,0.646669,0.16834968,1.1963499,0.24624899,0.35273463,0.1063879,inf,inf,inf,inf,0,1,0,1,1,0,1,1,0,0,0
363123875,0,0.0,0.0,0.0,0.0,-0.6811226,4.6288296e-08,5.209874e-07,0.0,0.14918935,0.06546008,-0.12156483,-0.07264438,1.1561957e-05,0.00013013298,0.0,3.345484,-1.4933555,5.10191,1.6026533,0.0,0.64631784,0.12156483,1.2085958,0.24552712,0.35428596,0.10620873,inf,inf,inf,inf,0,1,0,1,1,0,1,1,0,0,0
363227875,0,0.0,0.0,0.0,0.0,-0.66785806,4.6288296e-08,5.209874e-07,0.0,0.14594865,0.11957093,-0.075371444,-0.009445171,1.1561957e-05,0.00013013298,0.0,-0.8076317,6.4375257,-0.18631145,1.5555565,0.0,0.6330533,0.075371444,1.2250192,0.24675551,0.35670534,0.10654653,inf,inf,inf,inf,0,1,0,1,1,0,1,1,0,0,0
363323895,0,0.0,0.0,0.0,0.0,-0.65462476,4.6288296e-08,5.209874e-07,0.0,0.15410301,0.13565814,-0.07551079,0.0024248683,1.1561957e-05,0.00013013298,0.0,-1.9607838,-4.0532546,-5.159676,1.5138143,0.0,0.61982,0.07551079,1.2382786,0.24727616,0.3583131,0.10668336,inf,inf,inf,inf,0,1,0,1,1,0,1,1,0,0,0
363427868,0,0.0,0.0,0.0,0.0,-0.64023125,4.6288296e-08,5.209874e-07,0.0,0.1574564,0.19514908,-0.078703895,0.010642884,1.1561957e-05,0.00013013298,0.0,-0.29347512,-4.612626,-4.218154,1.4718673,0.0,0.6054265,0.078703895,1.2488046,0.24655418,0.35919228,0.10648278,inf,inf,inf,inf,0,1,0,1,1,0,1,1,0,0,0
363531869,0,0.0,0.0,0.0,0.0,-0.6218986,4.6288296e-08,5.209874e-07,0.0,0.17652492,0.2410858,0.013129973,0.111660704,1.1561957e-05,0.00013013298,0.0,1.1466743,-0.19461522,-1.1727281,1.4337356,0.0,0.58709383,-0.013129973,1.2636595,0.24771784,0.3615329,0.10678929,inf,inf,inf,inf,0,1,0,1,1,0,1,1,0,0,0
363631069,0,0.0,0.0,0.0,0.0,-0.6023215,4.6288296e-08,5.209874e-07,0.0,0.18272409,0.30523542,0.0058352817,0.11217279,1.1561957e-05,0.00013013298,0.0,-0.52064544,1.7703469,-1.0642835,1.4066153,0.0,0.56751674,-0.0058352817,1.2753378,0.2481694,0.36312708,0.106897816,inf,inf,inf,inf,0,1,0,1,1,0,1,1,0,0,0
363735075,0,0.0,0.0,0.0,0.0,-0.5803827,4.6288296e-08,5.209874e-07,0.0,0.18789397,0.34502438,0.051041882,0.16263123,1.1561957e-05,0.00013013298,0.0,-0.3575643,-2.950319,-2.1354115,1.390284,0.0,0.54557794,-0.051041882,1.2840077,0.24741782,0.3639891,0.1066871,inf,inf,inf,inf,0,1,0,1,1,0,1,1,0,0,0
363831117,0,0.0,0.0,0.0,0.0,-0.56129414,4.6288296e-08,5.209874e-07,0.0,0.19634667,0.3954454,0.08693953,0.19807431,1.1561957e-05,0.00013013298,0.0,0.56422234,4.4963326,1.0688504,1.3813102,0.0,0.5264894,-0.08693953,1.2904934,0.24629845,0.36454192,0.10634453,inf,inf,inf,inf,0,1,0,1,1,0,1,1,0,0,0
363935068,0,0.0,0.0,0.0,0.0,-0.5398484,4.6288296e-08,5.209874e-07,0.0,0.19128715,0.41997534,0.09340187,0.20331033,1.1561957e-05,0.00013013298,0.0,0.055617023,-4.778988,0.3766892,1.3776609,0.0,0.5050436,-0.09340187,1.3034725,0.24746819,0.3666146,0.10666147,inf,inf,inf,inf,0,1,0,1,1,0,1,1,0,0,0
364039075,0,0.0,0.0,0.0,0.0,-0.51472396,4.6288296e-08,5.209874e-07,0.0,0.20011447,0.44617465,0.05629597,0.16815683,1.1561957e-05,0.00013013298,0.0,1.1472749,1.1962171,-1.8555853,1.3765402,0.0,0.47991922,-0.05629597,1.3104762,0.24676993,0.36758772,0.1064747,inf,inf,inf,inf,0,1,0,1,1,0,1,1,0,0,0
364135079,0,0.0,0.0,0.0,0.0,-0.50709337,4.6288296e-08,5.209874e-07,0.0,0.19331986,0.4511338,-0.116602466,-0.00662237,1.1561957e-05,0.00013013298,0.0,-1.7291178,-5.413951,-2.4008455,1.379392,0.0,0.47228864,0.116602466,1.319964,0.24729747,0.3692264,0.10662439,inf,inf,inf,inf,0,1,0,1,1,0,1,1,0,0,0
364239075,0,0.0,0.0,0.0,0.0,-0.5185702,4.6288296e-08,5.209874e-07,0.0,0.19135192,0.47174534,-0.23671181,-0.13216801,1.1561957e-05,0.00013013298,0.0,3.0943065,1.3195249,0.7473957,1.3837113,0.0,0.48376545,0.23671181,1.3259991,0.24662867,0.37087843,0.106450155,inf,inf,inf,inf,0,1,0,1,1,0,1,1,0,0,0
364343075,0,0.0,0.0,0.0,0.0,-0.53828084,4.6288296e-08,5.209874e-07,0.0,0.19756427,0.47236285,-0.24679382,-0.1465066,1.1561957e-05,0.00013013298,0.0,2.8152478,-0.09844367,4.6322036,1.3911798,0.0,0.5034761,0.24679382,1.3316518,0.24599215,0.3730485,0.10629057,inf,inf,inf,inf,0,1,0,1,1,0,1,1,0,0,0
364447086,0,0.0,0.0,0.0,0.0,-0.55649906,4.6288296e-08,5.209874e-07,0.0,0.19532812,0.45831397,-0.19916224,-0.10460696,1.1561957e-05,0.00013013298,0.0,2.2229412,-0.7922643,3.6184888,1.398608,0.0,0.5216943,0.19916224,1.3368855,0.24536766,0.3747466,0.10613054,inf,inf,inf,inf,0,1,0,1,1,0,1,1,0,0,0
364550269,0,0.0,0.0,0.0,0.0,-0.56774235,4.6288296e-08,5.209874e-07,0.0,0.17224093,0.4592752,-0.11856766,-0.029334554,1.1561957e-05,0.00013013298,0.0,-0.3601618,-1.5623164,3.8485963,1.404061,0.0,0.5329376,0.11856766,1.3477881,0.24662538,0.37678975,0.10647761,inf,inf,inf,inf,0,1,0,1,1,0,1,1,0,0,0
364646269,0,0.0,0.0,0.0,0.0,-0.5727919,4.6288296e-08,5.209874e-07,0.0,0.17922918,0.4644734,-0.09832569,-0.01394657,1.1561957e-05,0.00013013298,0.0,0.34823814,6.3344316,-2.5711832,1.408864,0.0,0.5379871,0.09832569,1.3492268,0.24528782,0.37668785,0.106139466,inf,inf,inf,inf,0,1,0,1,1,0,1,1,0,0,0
364750269,0,0.0,0.0,0.0,0.0,-0.5797944,4.6288296e-08,5.209874e-07,0.0,0.16094802,0.43736446,-0.102687515,-0.024679331,1.1561957e-05,0.00013013298,0.0,-2.7302685,1.7627127,-4.1963916,1.4115531,0.0,0.54498965,0.102687515,1.3594178,0.24655263,0.37844715,0.10648672,inf,inf,inf,inf,0,1,0,1,1,0,1,1,0,0,0
364854268,0,0.0,0.0,0.0,0.0,-0.585457,4.6288296e-08,5.209874e-07,0.0,0.15920605,0.40642682,-0.08695853,-0.014359059,1.1561957e-05,0.00013013298,0.0,0.4678269,-4.3182397,-2.6201677,1.4150196,0.0,0.55065227,0.08695853,1.3630024,0.24596065,0.37923658,0.10633542,inf,inf,inf,inf,0,1,0,1,1,0,1,1,0,0,0
364958268,0,0.0,0.0,0.0,0.0,-0.5934674,4.6288296e-08,5.209874e-07,0.0,0.13590223,0.38882425,-0.1255331,-0.05844978,1.1561957e-05,0.00013013298,0.0,-3.4026852,-2.5273526,-3.495877,1.4171914,0.0,0.55866265,0.1255331,1.3662442,0.24539348,0.3799779,0.10619409,inf,inf,inf,inf,0,1,0,1,1,0,1,1,0,0,0
365054269,0,0.0,0.0,0.0,0.0,-0.5978748,4.6288296e-08,5.209874e-07,0.0,0.13547437,0.3655202,-0.0761112,-0.010495068,1.1561957e-05,0.00013013298,0.0,2.9377449,-0.8796677,4.975808,1.4177775,0.0,0.56307006,0.0761112,1.3728851,0.24601619,0.3816928,0.106371865,inf,inf,inf,inf,0,1,0,1,1,0,1,1,0,0,0
365158269,0,0.0,0.0,0.0,0.0,-0.5988721,4.6288296e-08,5.209874e-07,0.0,0.124143496,0.34117952,-0.012998213,0.049475275,1.1561957e-05,0.00013013298,0.0,-1.635594,-2.6697383,0.9821791,1.4193239,0.0,0.56406736,0.012998213,1.3755002,0.24545889,0.382704,0.10623173,inf,inf,inf,inf,0,1,0,1,1,0,1,1,0,0,0
365259869,0,0.0,0.0,0.0,0.0,-0.59207714,4.6288296e-08,5.209874e-07,0.0,0.11746929,0.34354174,0.07319338,0.1337687,1.1561957e-05,0.00013013298,0.0,-1.0165805,5.7232356,3.4182985,1.4205111,0.0,0.5572724,-0.07319338,1.3751462,0.24425815,0.3826801,0.10591831,inf,inf,inf,inf,0,1,0,1,1,0,1,1,0,0,0
365362269,0,0.0,0.0,0.0,0.0,-0.5770724,4.6288296e-08,5.209874e-07,0.0,0.09872885,0.30968747,0.10289915,0.16165401,1.1561957e-05,0.00013013298,0.0,-4.0745015,-0.48913652,-3.4380214,1.4212921,0.0,0.5422676,-0.10289915,1.3835286,0.24551684,0.3843535,0.10628165,inf,inf,inf,inf,0,1,0,1,1,0,1,1,0,0,0
365465469,0,0.0,0.0,0.0,0.0,-0.5589947,4.6288296e-08,5.209874e-07,0.0,0.09769948,0.29116863,0.14609724,0.20359577,1.1561957e-05,0.00013013298,0.0,-2.8677838,-4.8594604,-2.243649,1.421348,0.0,0.52418995,-0.14609724,1.3871561,0.24545813,0.38502946,0.10621962,inf,inf,inf,inf,0,1,0,1,1,0,1,1,0,0,0
365561469,0,0.0,0.0,0.0,0.0,-0.534922,4.6288296e-08,5.209874e-07,0.0,0.0887162,0.28568006,0.21495014,0.27254438,1.1561957e-05,0.00013013298,0.0,-1.1460633,-2.1689696,-3.6340353,1.4207246,0.0,0.50011724,-0.21495014,1.3854669,0.24415748,0.3850887,0.105907135,inf,inf,inf,inf,0,1,0,1,1,0,1,1,0,0,0
365665475,0,0.0,0.0,0.0,0.0,-0.5056641,4.6288296e-08,5.209874e-07,0.0,0.08961081,0.2815622,0.18420896,0.24166237,1.1561957e-05,0.00013013298,0.0,0.5385297,2.938407,-5.0322556,1.4193057,0.0,0.47085938,-0.18420896,1.3934776,0.24549754,0.38691112,0.106282584,inf,inf,inf,inf,0,1,0,1,1,0,1,1,0,0,0
365769504,0,0.0,0.0,0.0,0.0,-0.48912686,4.6288296e-08,5.209874e-07,0.0,0.07592974,0.2726477,0.06301957,0.11696323,1.1561957e-05,0.00013013298,0.0,-3.156831,-1.8325899,-2.9530494,1.4190309,0.0,0.45432213,-0.06301957,1.3945531,0.24500781,0.3874686,0.10616526,inf,inf,inf,inf,0,1,0,1,1,0,1,1,0,0,0
365865469,0,0.0,0.0,0.0,0.0,-0.48264644,4.6288296e-08,5.209874e-07,0.0,0.077282965,0.2883796,0.010438564,0.061939117,1.1561957e-05,0.00013013298,0.0,-0.35409787,4.907773,-3.1791778,1.418904,0.0,0.4478417,-0.010438564,1.392791,0.2438692,0.38818434,0.10587381,inf,inf,inf,inf,0,1,0,1,1,0,1,1,0,0,0
365969469,0,0.0,0.0,0.0,0.0,-0.48194543,4.6288296e-08,5.209874e-07,0.0,0.070067845,0.2881852,-0.10736784,-0.057209753,1.1561957e-05,0.00013013298,0.0,-0.92543304,0.13273072,2.0720465,1.4194605,0.0,0.4471407,0.10736784,1.3935876,0.24340816,0.3898366,0.10576466,inf,inf,inf,inf,0,1,0,1,1,0,1,1,0,0,0
366071925,0,0.0,0.0,0.0,0.0,-0.50433385,4.6288296e-08,5.209874e-07,0.0,0.06309224,0.30662128,-0.28256753,-0.23871629,1.1561957e-05,0.00013013298,0.0,-2.0544746,-2.0475702,2.5130847,1.4199576,0.0,0.46952912,0.28256753,1.4009827,0.2447285,0.39230394,0.10612775,inf,inf,inf,inf,0,1,0,1,1,0,1,1,0,0,0
366168669,0,0.0,0.0,0.0,0.0,-0.5325169,4.6288296e-08,5.209874e-07,0.0,0.06889587,0.33600184,-0.23256862,-0.19389778,1.1561957e-05,0.00013013298,0.0,0.15045828,4.5439296,1.28254,1.4206617,0.0,0.49771217,0.23256862,1.4055344,0.24534649,0.39499205,0.10629353,inf,inf,inf,inf,0,1,0,1,1,0,1,1,0,0,0
366272668,0,0.0,0.0,0.0,0.0,-0.5454107,4.6288296e-08,5.209874e-07,0.0,0.06724675,0.34285834,-0.029197887,0.0066239187,1.1561957e-05,0.00013013298,0.0,0.84280795,-0.37866288,1.2994099,1.4204156,0.0,0.51060593,0.029197887,1.4054959,0.24471681,0.3964665,0.106133126,inf,inf,inf,inf,0,1,0,1,1,0,1,1,0,0,0
366376668,0,0.0,0.0,0.0,0.0,-0.53791255,4.6288296e-08,5.209874e-07,0.0,0.06072355,0.33589342,0.11880108,0.1526985,1.1561957e-05,0.00013013298,0.0,-0.73563415,-2.3290799,0.14575195,1.4211044,0.0,0.5031078,-0.11880108,1.4126523,0.246028,0.39779028,0.10648794,inf,inf,inf,inf,0,1,0,1,1,0,1,1,0,0,0
366480669,0,0.0,0.0,0.0,0.0,-0.5194736,4.6288296e-08,5.209874e-07,0.0,0.054466352,0.36986592,0.17033291,0.20241387,1.1561957e-05,0.00013013298,0.0,-2.2150145,2.0871267,-3.2469983,1.4222022,0.0,0.48466888,-0.17033291,1.4125638,0.24547859,0.39731592,0.1063384,inf,inf,inf,inf,0,1,0,1,1,0,1,1,0,0,0
366576708,0,0.0,0.0,0.0,0.0,-0.5042971,4.6288296e-08,5.209874e-07,0.0,0.048094492,0.3783418,0.16909,0.19727471,1.1561957e-05,0.00013013298,0.0,-2.0676074,-0.9134588,3.6166704,1.4228605,0.0,0.46949235,-0.16909,1.4166164,0.24609597,0.39811635,0.1065018,inf,inf,inf,inf,0,1,0,1,1,0,1,1,0,0,0
366680668,0,0.0,0.0,0.0,0.0,-0.49184257,4.6288296e-08,5.209874e-07,0.0,0.05648911,0.4083033,0.14046828,0.16300398,1.1561957e-05,0.00013013298,0.0,2.6927428,3.0992599,-1.1101319,1.4236437,0.0,0.45703784,-0.14046828,1.4231554,0.24734195,0.40016893,0.106826514,inf,inf,inf,inf,0,1,0,1,1,0,1,1,0,0,0
366784682,0,0.0,0.0,0.0,0.0,-0.48494658,4.6288296e-08,5.209874e-07,0.0,0.042488076,0.42432812,0.028909469,0.046673797,1.1561957e-05,0.00013013298,0.0,-1.441568,-6.034414,-0.05810964,1.4251516,0.0,0.45014185,-0.028909469,1.4223834,0.24668533,0.40098783,0.10663268,inf,inf,inf,inf,0,1,0,1,1,0,1,1,0,0,0
366880669,0,0.0,0.0,0.0,0.0,-0.48506656,4.6288296e-08,5.209874e-07,0.0,0.033720512,0.46352237,-0.058375884,-0.039202366,1.1561957e-05,0.00013013298,0.0,-1.3113691,-2.6778028,4.6976695,1.4257146,0.0,0.45026183,0.058375884,1.4258623,0.24717546,0.40249303,0.1067439,inf,inf,inf,inf,0,1,0,1,1,0,1,1,0,0,0
366983896,0,0.0,0.0,0.0,0.0,-0.48823035,4.6288296e-08,5.209874e-07,0.0,0.035996318,0.50997645,-0.094233446,-0.071891546,1.1561957e-05,0.00013013298,0.0,0.12055326,5.8652554,-2.5606153,1.4265156,0.0,0.45342562,0.094233446,1.4317954,0.2482808,0.4053945,0.10703192,inf,inf,inf,inf,0,1,0,1,1,0,1,1,0,0,0
367087896,0,0.0,0.0,0.0,0.0,-0.49558556,4.6288296e-08,5.209874e-07,0.0,0.023847328,0.52583593,-0.12129973,-0.097259454,1.1561957e-05,0.00013013298,0.0,-3.818696,-0.252878,2.028952,1.4278688,0.0,0.46078083,0.12129973,1.4307413,0.24757877,0.40641224,0.10682825,inf,inf,inf,inf,0,1,0,1,1,0,1,1,0,0,0
367183869,0,0.0,0.0,0.0,0.0,-0.50843227,4.6288296e-08,5.209874e-07,0.0,0.027509011,0.5532369,-0.16486539,-0.14175208,1.1561957e-05,0.00013013298,0.0,-3.597466,0.16122976,-2.9348512,1.4286891,0.0,0.47362754,0.16486539,1.434155,0.24807464,0.40788454,0.106945105,inf,inf,inf,inf,0,1,0,1,1,0,1,1,0,0,0
367287868,0,0.0,0.0,0.0,0.0,-0.5270237,4.6288296e-08,5.209874e-07,0.0,0.025504798,0.5714495,-0.15717189,-0.13836211,1.1561957e-05,0.00013013298,0.0,-2.6380029,-0.48171,3.0017393,1.4300252,0.0,0.49221894,0.15717189,1.4327673,0.2472972,0.40859708,0.10671026,inf,inf,inf,inf,0,1,0,1,1,0,1,1,0,0,0
367391868,0,0.0,0.0,0.0,0.0,-0.55030155,4.6288296e-08,5.209874e-07,0.0,0.026160052,0.5926397,-0.12129893,-0.11224861,1.1561957e-05,0.00013013298,0.0,-1.5883039,-3.2154512,-0.2498694,1.4309475,0.0,0.5154968,0.12129893,1.4387466,0.24843195,0.41056514,0.10699794,inf,inf,inf,inf,0,1,0,1,1,0,1,1,0,0,0
367495882,0,0.0,0.0,0.0,0.0,-0.5679376,4.6288296e-08,5.209874e-07,0.0,0.016213585,0.61230725,-0.08614486,-0.08513771,1.1561957e-05,0.00013013298,0.0,-3.149709,-3.0110807,-0.8970156,1.431407,0.0,0.53313285,0.08614486,1.4445719,0.24952184,0.4124529,0.10726497,inf,inf,inf,inf,0,1,0,1,1,0,1,1,0,0,0
367591070,0,0.0,0.0,0.0,0.0,-0.58462614,4.6288296e-08,5.209874e-07,0.0,0.016940722,0.64228797,-0.11710416,-0.122930296,1.1561957e-05,0.00013013298,0.0,-0.94541913,1.3699324,3.0347974,1.4320035,0.0,0.5498214,0.11710416,1.447568,0.249926,0.41336372,0.10734707,inf,inf,inf,inf,0,1,0,1,1,0,1,1,0,0,0
367695070,0,0.0,0.0,0.0,0.0,-0.60691494,4.6288296e-08,5.209874e-07,0.0,0.0067707635,0.65493065,-0.12551287,-0.13920987,1.1561957e-05,0.00013013298,0.0,0.31491774,5.7517138,1.8720051,1.4327228,0.0,0.5721102,0.12551287,1.4455551,0.24901897,0.4135011,0.10707076,inf,inf,inf,inf,0,1,0,1,1,0,1,1,0,0,0
367799090,0,0.0,0.0,0.0,0.0,-0.63255554,4.6288296e-08,5.209874e-07,0.0,0.004704597,0.65041137,-0.1220265,-0.14482465,1.1561957e-05,0.00013013298,0.0,2.3688416,0.0051490227,1.6126752,1.4323759,0.0,0.5977508,0.1220265,1.443292,0.24807745,0.41393167,0.10680408,inf,inf,inf,inf,0,1,0,1,1,0,1,1,0,0,0
367895087,0,0.0,0.0,0.0,0.0,-0.6547214,4.6288296e-08,5.209874e-07,0.0,0.00456635,0.65996224,-0.13656531,-0.16604197,1.1561957e-05,0.00013013298,0.0,0.83934665,3.1440551,-1.4755294,1.4317744,0.0,0.6199166,0.13656531,1.4461668,0.24848866,0.41510954,0.10689778,inf,inf,inf,inf,0,1,0,1,1,0,1,1,0,0,0
367999087,0,0.0,0.0,0.0,0.0,-0.67826015,4.6288296e-08,5.209874e-07,0.0,-0.013132345,0.6631349,-0.082184404,-0.118518464,1.1561957e-05,0.00013013298,0.0,-1.0326221,6.280064,2.103135,1.4294581,0.0,0.6434554,0.082184404,1.4442035,0.24766356,0.41524574,0.10666216,inf,inf,inf,inf,0,1,0,1,1,0,1,1,0,0,0
368103075,0,0.0,0.0,0.0,0.0,-0.6957356,4.6288296e-08,5.209874e-07,0.0,-0.022698142,0.64009035,-0.027908519,-0.07086956,1.1561957e-05,0.00013013298,0.0,2.4086075,6.4708533,-1.0755668,1.4271857,0.0,0.6609308,0.027908519,1.4498489,0.24877816,0.41696647,0.106953874,inf,inf,inf,inf,0,1,0,1,1,0,1,1,0,0,0
368199068,0,0.0,0.0,0.0,0.0,-0.7075043,4.6288296e-08,5.209874e-07,0.0,-0.057657026,0.61909395,-0.0014944435,-0.050114673,1.1561957e-05,0.00013013298,0.0,-5.047735,-3.5816936,0.36589435,1.4257524,0.0,0.6726995,0.0014944435,1.4526757,0.24921213,0.41775244,0.10706322,inf,inf,inf,inf,0,1,0,1,1,0,1,1,0,0,0
368303068,0,0.0,0.0,0.0,0.0,-0.72223854,4.6288296e-08,5.209874e-07,0.0,-0.055297755,0.61745244,-0.07474794,-0.12835172,1.1561957e-05,0.00013013298,0.0,0.6222178,5.5561786,-1.2871828,1.4239845,0.0,0.6874338,0.07474794,1.4505398,0.24838684,0.4175318,0.10683254,inf,inf,inf,inf,0,1,0,1,1,0,1,1,0,0,0
368406269,0,0.0,0.0,0.0,0.0,-0.7467645,4.6288296e-08,5.209874e-07,0.0,-0.07647803,0.582848,-0.12871419,-0.18867461,1.1561957e-05,0.00013013298,0.0,-1.2740057,-4.7428145,-3.026232,1.4221041,0.0,0.7119597,0.12871419,1.4484465,0.24759732,0.4178156,0.106618755,inf,inf,inf,inf,0,1,0,1,1,0,1,1,0,0,0
368510269,0,0.0,0.0,0.0,0.0,-0.7742996,4.6288296e-08,5.209874e-07,0.0,-0.09481849,0.5490885,-0.11071028,-0.17884167,1.1561957e-05,0.00013013298,0.0,-2.408475,-0.11053502,-4.6206284,1.4185761,0.0,0.73949486,0.11071028,1.4463861,0.24682726,0.41843268,0.10641205,inf,inf,inf,inf,0,1,0,1,1,0,1,1,0,0,0
368606269,0,0.0,0.0,0.0,0.0,-0.80312824,4.6288296e-08,5.209874e-07,0.0,-0.11890111,0.5201552,-0.14514896,-0.22192594,1.1561957e-05,0.00013013298,0.0,-3.652815,0.38809687,0.9962586,1.4177288,0.0,0.7683235,0.14514896,1.4489119,0.24722634,0.419497,0.106537014,inf,inf,inf,inf,0,1,0,1,1,0,1,1,0,0,0
368710306,0,0.0,0.0,0.0,0.0,-0.83664405,4.6288296e-08,5.209874e-07,0.0,-0.13296302,0.46965978,-0.14321658,-0.22825918,1.1561957e-05,0.00013013298,0.0,-1.3059624,2.6271665,3.889953,1.4174399,0.0,0.8018393,0.14321658,1.4545016,0.24837266,0.42111617,0.10684801,inf,inf,inf,inf,0,1,0,1,1,0,1,1,0,0,0
368814269,0,0.0,0.0,0.0,0.0,-0.8662972,4.6288296e-08,5.209874e-07,0.0,-0.1495113,0.41370603,-0.12994504,-0.21984062,1.1561957e-05,0.00013013298,0.0,-1.4833523,-1.1590692,1.7461178,1.4170169,0.0,0.8314924,0.12994504,1.4524527,0.2476303,0.42147288,0.10665804,inf,inf,inf,inf,0,1,0,1,1,0,1,1,0,0,0
368910269,0,0.0,0.0,0.0,0.0,-0.89088035,4.6288296e-08,5.209874e-07,0.0,-0.15189396,0.38324782,-0.13260533,-0.2235355,1.1561957e-05,0.00013013298,0.0,4.7052145,1.8243468,0.17303075,1.4173858,0.0,0.8560756,0.13260533,1.4477059,0.2462579,0.42097098,0.106302425,inf,inf,inf,inf,0,1,0,1,1,0,1,1,0,0,0
369014276,0,0.0,0.0,0.0,0.0,-0.91624564,4.6288296e-08,5.209874e-07,0.0,-0.16957022,0.35660982,-0.09804406,-0.18962061,1.1561957e-05,0.00013013298,0.0,2.012689,2.7859159,4.144692,1.4182652,0.0,0.8814409,0.09804406,1.4457792,0.24558343,0.4210596,0.10613932,inf,inf,inf,inf,0,1,0,1,1,0,1,1,0,0,0
369118269,0,0.0,0.0,0.0,0.0,-0.93614286,4.6288296e-08,5.209874e-07,0.0,-0.18313225,0.31366277,-0.072882414,-0.16433865,1.1561957e-05,0.00013013298,0.0,0.37212175,-1.4484234,1.9812825,1.4192845,0.0,0.9013381,0.072882414,1.4515316,0.24680935,0.42268538,0.106492646,inf,inf,inf,inf,0,1,0,1,1,0,1,1,0,0,0
369220695,0,0.0,0.0,0.0,0.0,-0.9521526,4.6288296e-08,5.209874e-07,0.0,-0.19566618,0.31106976,-0.08442745,-0.1736188,1.1561957e-05,0.00013013298,0.0,-2.8756227,-1.2332397,-5.224601,1.4192315,0.0,0.91734785,0.08442745,1.4572277,0.24802083,0.42393544,0.10683668,inf,inf,inf,inf,0,1,0,1,1,0,1,1,0,0,0
369317469,0,0.0,0.0,0.0,0.0,-0.9638499,4.6288296e-08,5.209874e-07,0.0,-0.21385261,0.30353165,-0.06314424,-0.14697796,1.1561957e-05,0.00013013298,0.0,-4.4843955,-0.273446,4.6094384,1.4184927,0.0,0.92904514,0.06314424,1.4522649,0.24662238,0.42323875,0.10647403,inf,inf,inf,inf,0,1,0,1,1,0,1,1,0,0,0
369421475,0,0.0,0.0,0.0,0.0,-0.97757655,4.6288296e-08,5.209874e-07,0.0,-0.2037498,0.29597902,-0.082584195,-0.16227658,1.1561957e-05,0.00013013298,0.0,1.2442342,-0.12652305,0.42715815,1.4176531,0.0,0.9427718,0.082584195,1.4498849,0.24586378,0.42318755,0.10629674,inf,inf,inf,inf,0,1,0,1,1,0,1,1,0,0,0
369525469,0,0.0,0.0,0.0,0.0,-0.9887149,4.6288296e-08,5.209874e-07,0.0,-0.2146456,0.2831203,-0.0461184,-0.120132774,1.1561957e-05,0.00013013298,0.0,2.5883968,-1.5929452,2.4598057,1.4165212,0.0,0.9539101,0.0461184,1.4555074,0.24707104,0.42469764,0.106642105,inf,inf,inf,inf,0,1,0,1,1,0,1,1,0,0,0
369629475,0,0.0,0.0,0.0,0.0,-0.9947182,4.6288296e-08,5.209874e-07,0.0,-0.22255418,0.27039155,0.012143062,-0.057690717,1.1561957e-05,0.00013013298,0.0,2.5392597,1.0467166,4.09631,1.4158492,0.0,0.95991343,-0.012143062,1.4534937,0.24642225,0.4246567,0.10649028,inf,inf,inf,inf,0,1,0,1,1,0,1,1,0,0,0
