timestamp,baro_alt_meter,baro_temp_celcius,baro_pressure_pa,rho
349542045,-28.848845,46.079998,101672.0,1.2080315
349553050,-28.76429,46.079998,101671.0,1.2080196
349563121,-28.68502,46.079998,101669.99,1.2080077
349585045,-28.515913,46.079998,101668.0,1.207984
349596185,-28.600466,46.079998,101669.0,1.2079959
349607628,-29.017954,46.079998,101674.0,1.2080553
349629096,-29.181776,46.079998,101675.99,1.208079
349639467,-28.76429,46.079998,101671.0,1.2080196
349650135,-28.848845,46.079998,101672.0,1.2080315
349672045,-28.436644,46.079998,101667.0,1.2079722
349683369,-28.848845,46.079998,101672.0,1.2080315
349694583,-28.515913,46.079998,101668.0,1.207984
349716052,-29.017954,46.079998,101674.0,1.2080553
349727919,-29.097223,46.079998,101675.0,1.2080672
349738196,-29.430155,46.079998,101679.0,1.2081147
349760045,-29.097223,46.079998,101675.0,1.2080672
349770323,-28.68502,46.079998,101669.99,1.2080077
349780040,-28.848845,46.079998,101672.0,1.2080315
349801045,-29.017954,46.079998,101674.0,1.2080553
349812045,-28.515913,46.079998,101668.0,1.207984
349822878,-28.600466,46.079998,101669.0,1.2079959
349843121,-28.76429,46.079998,101671.0,1.2080196
349855247,-28.76429,46.079998,101671.0,1.2080196
349866201,-28.848845,46.079998,101672.0,1.2080315
349887162,-28.515913,46.079998,101668.0,1.207984
349897135,-29.017954,46.079998,101674.0,1.2080553
349908350,-29.181776,46.079998,101675.99,1.208079
349930650,-29.097223,46.079998,101675.0,1.2080672
349941050,-28.600466,46.079998,101669.0,1.2079959
349952356,-28.436644,46.079998,101667.0,1.2079722
349973386,-28.848845,46.079998,101672.0,1.2080315
349984045,-28.436644,46.079998,101667.0,1.2079722
349994217,-28.848845,46.079998,101672.0,1.2080315
350015646,-28.68502,46.079998,101669.99,1.2080077
350026195,-28.76429,46.079998,101671.0,1.2080196
350037040,-28.848845,46.079998,101672.0,1.2080315
350059145,-28.600466,46.079998,101669.0,1.2079959
350069045,-28.600466,46.079998,101669.0,1.2079959
350080043,-28.9334,46.079998,101673.0,1.2080435
350102587,-28.436644,46.079998,101667.0,1.2079722
350113126,-28.76429,46.079998,101671.0,1.2080196
350124089,-28.68502,46.079998,101669.99,1.2080077
350146324,-29.26633,46.079998,101676.99,1.2080909
350157045,-28.848845,46.079998,101672.0,1.2080315
350168075,-28.436644,46.079998,101667.0,1.2079722
350189045,-28.436644,46.079998,101667.0,1.2079722
350200045,-28.515913,46.079998,101668.0,1.207984
350210325,-28.68502,46.079998,101669.99,1.2080077
350231272,-29.181776,46.09,101675.99,1.208079
350242199,-28.9334,46.09,101673.0,1.2080435
350253047,-28.352089,46.09,101666.0,1.2079602
350275130,-28.9334,46.079998,101673.0,1.2080435
350285965,-28.76429,46.079998,101671.0,1.2080196
350297391,-28.848845,46.079998,101672.0,1.2080315
350318344,-28.848845,46.079998,101672.0,1.2080315
350329631,-29.017954,46.079998,101674.0,1.2080553
350340394,-28.76429,46.079998,101671.0,1.2080196
350361411,-28.515913,46.07,101668.0,1.207984
350372951,-28.9334,46.07,101673.0,1.2080435
350383116,-29.181776,46.07,101675.99,1.208079
350404057,-29.017954,46.079998,101674.0,1.2080553
350415178,-28.600466,46.079998,101669.0,1.2079959
350426107,-28.848845,46.079998,101672.0,1.2080315
350448045,-28.848845,46.079998,101672.0,1.2080315
350459147,-28.848845,46.079998,101672.0,1.2080315
350470385,-28.848845,46.079998,101672.0,1.2080315
350492045,-28.76429,46.079998,101671.0,1.2080196
350502551,-29.3456,46.079998,101678.0,1.2081028
350513447,-29.181776,46.079998,101675.99,1.208079
350535124,-28.9334,46.079998,101673.0,1.2080435
350546045,-28.600466,46.079998,101669.0,1.2079959
350557874,-29.181776,46.079998,101675.99,1.208079
350579197,-28.848845,46.079998,101672.0,1.2080315
350590135,-29.181776,46.079998,101675.99,1.208079
350601573,-28.68502,46.079998,101669.99,1.2080077
350623124,-29.181776,46.079998,101675.99,1.208079
350634045,-28.9334,46.079998,101673.0,1.2080435
350645860,-28.76429,46.079998,101671.0,1.2080196
350666049,-28.9334,46.079998,101673.0,1.2080435
350678141,-29.3456,46.079998,101678.0,1.2081028
350689573,-28.848845,46.079998,101672.0,1.2080315
350710073,-29.017954,46.079998,101674.0,1.2080553
350721382,-28.600466,46.079998,101669.0,1.2079959
350731119,-28.848845,46.079998,101672.0,1.2080315
350753518,-28.9334,46.079998,101673.0,1.2080435
350764045,-28.68502,46.079998,101669.99,1.2080077
350774410,-28.76429,46.079998,101671.0,1.2080196
350796057,-29.017954,46.079998,101674.0,1.2080553
350807132,-29.430155,46.079998,101679.0,1.2081147
350818170,-29.097223,46.079998,101675.0,1.2080672
350839142,-29.017954,46.079998,101674.0,1.2080553
350849422,-29.017954,46.079998,101674.0,1.2080553
350860353,-29.017954,46.079998,101674.0,1.2080553
350881419,-28.848845,46.079998,101672.0,1.2080315
350892052,-28.848845,46.079998,101672.0,1.2080315
350903190,-29.181776,46.079998,101675.99,1.208079
350926487,-28.9334,46.079998,101673.0,1.2080435
350937520,-29.3456,46.079998,101678.0,1.2081028
350948040,-28.76429,46.079998,101671.0,1.2080196
350970172,-29.181776,46.079998,101675.99,1.208079
350982029,-29.017954,46.079998,101674.0,1.2080553
350993508,-29.017954,46.079998,101674.0,1.2080553
351016074,-28.436644,46.079998,101667.0,1.2079722
351027057,-29.017954,46.079998,101674.0,1.2080553
351038045,-28.76429,46.079998,101671.0,1.2080196
351059131,-28.9334,46.079998,101673.0,1.2080435
351070946,-29.017954,46.079998,101674.0,1.2080553
351081603,-28.76429,46.079998,101671.0,1.2080196
351102387,-28.76429,46.079998,101671.0,1.2080196
351113598,-28.68502,46.079998,101669.99,1.2080077
351123094,-28.9334,46.079998,101673.0,1.2080435
351145045,-29.181776,46.079998,101675.99,1.208079
351155185,-28.848845,46.079998,101672.0,1.2080315
351166020,-28.9334,46.079998,101673.0,1.2080435
351187355,-28.76429,46.079998,101671.0,1.2080196
351198335,-28.848845,46.079998,101672.0,1.2080315
351208746,-29.26633,46.079998,101676.99,1.2080909
351230048,-29.430155,46.079998,101679.0,1.2081147
351240742,-28.68502,46.079998,101669.99,1.2080077
351251092,-29.097223,46.079998,101675.0,1.2080672
351272572,-28.68502,46.079998,101669.99,1.2080077
351283097,-29.181776,46.079998,101675.99,1.208079
351293040,-28.600466,46.079998,101669.0,1.2079959
351315097,-28.76429,46.079998,101671.0,1.2080196
351325584,-28.600466,46.079998,101669.0,1.2079959
351335092,-29.26633,46.079998,101676.99,1.2080909
351357210,-29.26633,46.079998,101676.99,1.2080909
351368781,-28.848845,46.079998,101672.0,1.2080315
351379097,-28.9334,46.079998,101673.0,1.2080435
351400566,-29.017954,46.079998,101674.0,1.2080553
351411097,-29.097223,46.079998,101675.0,1.2080672
351422040,-28.76429,46.079998,101671.0,1.2080196
351443351,-28.848845,46.079998,101672.0,1.2080315
351454194,-29.097223,46.079998,101675.0,1.2080672
351464561,-28.76429,46.079998,101671.0,1.2080196
351486165,-29.3456,46.079998,101678.0,1.2081028
351496739,-28.515913,46.079998,101668.0,1.207984
351507147,-29.017954,46.079998,101674.0,1.2080553
351528920,-28.9334,46.079998,101673.0,1.2080435
351539435,-28.68502,46.079998,101669.99,1.2080077
351550045,-29.3456,46.079998,101678.0,1.2081028
351570045,-29.097223,46.079998,101675.0,1.2080672
351581825,-28.848845,46.079998,101672.0,1.2080315
351592603,-28.600466,46.079998,101669.0,1.2079959
351614045,-28.68502,46.079998,101669.99,1.2080077
351624720,-28.76429,46.079998,101671.0,1.2080196
351635091,-28.600466,46.079998,101669.0,1.2079959
351657045,-29.017954,46.079998,101674.0,1.2080553
351667100,-28.76429,46.079998,101671.0,1.2080196
351677374,-28.76429,46.079998,101671.0,1.2080196
351699359,-28.68502,46.079998,101669.99,1.2080077
351710208,-28.9334,46.079998,101673.0,1.2080435
351721096,-29.26633,46.079998,101676.99,1.2080909
351744639,-29.017954,46.079998,101674.0,1.2080553
351755097,-28.436644,46.079998,101667.0,1.2079722
351766189,-29.26633,46.079998,101676.99,1.2080909
351787101,-28.68502,46.079998,101669.99,1.2080077
351797571,-28.515913,46.079998,101668.0,1.207984
351808704,-28.267534,46.079998,101665.0,1.2079483
351830132,-28.600466,46.079998,101669.0,1.2079959
351841056,-28.9334,46.079998,101673.0,1.2080435
351853053,-28.600466,46.079998,101669.0,1.2079959
351874074,-28.848845,46.079998,101672.0,1.2080315
351885045,-28.76429,46.079998,101671.0,1.2080196
351896040,-29.097223,46.079998,101675.0,1.2080672
351918181,-28.352089,46.079998,101666.0,1.2079602
351928049,-28.76429,46.079998,101671.0,1.2080196
351938178,-29.017954,46.079998,101674.0,1.2080553
351958166,-28.848845,46.079998,101672.0,1.2080315
351969390,-28.76429,46.079998,101671.0,1.2080196
351980289,-28.436644,46.079998,101667.0,1.2079722
352002055,-29.017954,46.079998,101674.0,1.2080553
352013372,-28.848845,46.079998,101672.0,1.2080315
352024040,-29.017954,46.079998,101674.0,1.2080553
352045045,-28.600466,46.079998,101669.0,1.2079959
352056394,-28.9334,46.079998,101673.0,1.2080435
352067336,-28.68502,46.079998,101669.99,1.2080077
352088057,-29.017954,46.079998,101674.0,1.2080553
352101456,-29.181776,46.079998,101675.99,1.208079
352112052,-28.848845,46.079998,101672.0,1.2080315
352136155,-28.848845,46.07,101672.0,1.2080315
352149028,-29.017954,46.07,101674.0,1.2080553
352160105,-28.76429,46.07,101671.0,1.2080196
352181103,-28.68502,46.07,101669.99,1.2080077
352192351,-28.848845,46.07,101672.0,1.2080315
352203052,-28.848845,46.07,101672.0,1.2080315
352225081,-29.3456,46.079998,101678.0,1.2081028
352236729,-28.76429,46.079998,101671.0,1.2080196
352247419,-28.848845,46.079998,101672.0,1.2080315
352269065,-28.436644,46.07,101667.0,1.2079722
352280379,-29.181776,46.07,101675.99,1.208079
352290205,-29.017954,46.07,101674.0,1.2080553
352312049,-28.76429,46.079998,101671.0,1.2080196
352324242,-28.68502,46.079998,101669.99,1.2080077
352334040,-28.9334,46.079998,101673.0,1.2080435
352356754,-28.9334,46.07,101673.0,1.2080435
352367791,-28.68502,46.07,101669.99,1.2080077
352378045,-28.9334,46.07,101673.0,1.2080435
352400045,-29.097223,46.079998,101675.0,1.2080672
352412332,-29.017954,46.079998,101674.0,1.2080553
352423344,-28.9334,46.079998,101673.0,1.2080435
352444231,-28.9334,46.079998,101673.0,1.2080435
352455352,-28.848845,46.079998,101672.0,1.2080315
352466160,-28.848845,46.079998,101672.0,1.2080315
352488048,-28.68502,46.07,101669.99,1.2080077
352498080,-28.848845,46.07,101672.0,1.2080315
352509043,-28.9334,46.07,101673.0,1.2080435
352531346,-28.68502,46.079998,101669.99,1.2080077
352542045,-28.9334,46.079998,101673.0,1.2080435
352553040,-28.68502,46.079998,101669.99,1.2080077
352574045,-29.097223,46.07,101675.0,1.2080672
352584069,-28.848845,46.07,101672.0,1.2080315
352596382,-28.848845,46.07,101672.0,1.2080315
352618518,-29.430155,46.079998,101679.0,1.2081147
352628567,-29.3456,46.079998,101678.0,1.2081028
352639467,-28.848845,46.079998,101672.0,1.2080315
352661058,-29.181776,46.079998,101675.99,1.208079
352672232,-28.9334,46.079998,101673.0,1.2080435
352683116,-29.017954,46.079998,101674.0,1.2080553
352705045,-28.848845,46.07,101672.0,1.2080315
352716050,-29.3456,46.07,101678.0,1.2081028
352727786,-28.600466,46.07,101669.0,1.2079959
352749049,-29.181776,46.07,101675.99,1.208079
352760048,-29.181776,46.07,101675.99,1.208079
352771136,-28.848845,46.07,101672.0,1.2080315
352793045,-28.848845,46.079998,101672.0,1.2080315
352803180,-28.848845,46.079998,101672.0,1.2080315
352814040,-28.9334,46.079998,101673.0,1.2080435
352835206,-28.600466,46.07,101669.0,1.2079959
352845395,-28.76429,46.07,101671.0,1.2080196
352856154,-28.600466,46.07,101669.0,1.2079959
352878045,-29.097223,46.079998,101675.0,1.2080672
352889444,-29.51471,46.079998,101680.0,1.2081265
352900070,-29.017954,46.079998,101674.0,1.2080553
352920091,-29.097223,46.079998,101675.0,1.2080672
352931148,-28.515913,46.079998,101668.0,1.207984
352942052,-28.436644,46.079998,101667.0,1.2079722
352963129,-28.848845,46.07,101672.0,1.2080315
352973049,-28.600466,46.07,101669.0,1.2079959
352984040,-28.267534,46.07,101665.0,1.2079483
353006045,-29.26633,46.079998,101676.99,1.2080909
353016381,-28.68502,46.079998,101669.99,1.2080077
353027121,-28.352089,46.079998,101666.0,1.2079602
353049045,-28.352089,46.07,101666.0,1.2079602
353059123,-28.76429,46.07,101671.0,1.2080196
353071365,-28.68502,46.07,101669.99,1.2080077
353093417,-29.097223,46.07,101675.0,1.2080672
353104307,-28.848845,46.07,101672.0,1.2080315
353115475,-29.097223,46.07,101675.0,1.2080672
353137529,-29.097223,46.07,101675.0,1.2080672
353148047,-28.76429,46.07,101671.0,1.2080196
353159779,-29.017954,46.07,101674.0,1.2080553
353181080,-29.181776,46.07,101675.99,1.208079
353192047,-28.848845,46.07,101672.0,1.2080315
353203173,-28.76429,46.07,101671.0,1.2080196
353225045,-28.68502,46.07,101669.99,1.2080077
353235125,-28.848845,46.07,101672.0,1.2080315
353245046,-29.181776,46.07,101675.99,1.208079
353267121,-29.017954,46.079998,101674.0,1.2080553
353278048,-29.181776,46.079998,101675.99,1.208079
353288040,-29.017954,46.079998,101674.0,1.2080553
353310045,-29.26633,46.07,101676.99,1.2080909
353320047,-28.76429,46.07,101671.0,1.2080196
353331196,-29.017954,46.07,101674.0,1.2080553
353353049,-28.68502,46.07,101669.99,1.2080077
353363125,-28.267534,46.07,101665.0,1.2079483
353374040,-28.68502,46.07,101669.99,1.2080077
353395131,-29.430155,46.079998,101679.0,1.2081147
353408033,-28.68502,46.079998,101669.99,1.2080077
353419126,-28.9334,46.079998,101673.0,1.2080435
353442051,-29.26633,46.07,101676.99,1.2080909
353453048,-28.18298,46.07,101663.99,1.2079364
353464068,-28.600466,46.07,101669.0,1.2079959
353486219,-29.017954,46.07,101674.0,1.2080553
353497351,-29.097223,46.07,101675.0,1.2080672
353508040,-29.017954,46.07,101674.0,1.2080553
353530782,-29.017954,46.07,101674.0,1.2080553
353541419,-29.017954,46.07,101674.0,1.2080553
353552042,-28.9334,46.07,101673.0,1.2080435
353574153,-28.76429,46.07,101671.0,1.2080196
353585380,-28.76429,46.07,101671.0,1.2080196
353595446,-28.9334,46.07,101673.0,1.2080435
353617045,-29.017954,46.07,101674.0,1.2080553
353628056,-29.3456,46.07,101678.0,1.2081028
353639116,-28.76429,46.07,101671.0,1.2080196
353661050,-29.430155,46.07,101679.0,1.2081147
353672045,-29.017954,46.07,101674.0,1.2080553
353683052,-28.848845,46.07,101672.0,1.2080315
353705045,-28.76429,46.07,101671.0,1.2080196
353716069,-29.017954,46.07,101674.0,1.2080553
353727125,-29.017954,46.07,101674.0,1.2080553
353748091,-29.097223,46.07,101675.0,1.2080672
353758189,-29.017954,46.07,101674.0,1.2080553
353769413,-28.848845,46.07,101672.0,1.2080315
353790335,-29.097223,46.07,101675.0,1.2080672
353801045,-29.017954,46.07,101674.0,1.2080553
353812040,-28.76429,46.07,101671.0,1.2080196
353834637,-28.68502,46.07,101669.99,1.2080077
353845050,-29.097223,46.07,101675.0,1.2080672
353856050,-28.848845,46.07,101672.0,1.2080315
353878393,-28.76429,46.07,101671.0,1.2080196
353889045,-28.9334,46.07,101673.0,1.2080435
353900043,-29.26633,46.07,101676.99,1.2080909
353921097,-29.017954,46.07,101674.0,1.2080553
353931542,-28.9334,46.07,101673.0,1.2080435
353942343,-28.9334,46.07,101673.0,1.2080435
353963129,-28.848845,46.07,101672.0,1.2080315
353974160,-29.26633,46.07,101676.99,1.2080909
353984051,-28.68502,46.07,101669.99,1.2080077
354005045,-29.097223,46.07,101675.0,1.2080672
354016045,-28.848845,46.07,101672.0,1.2080315
354027165,-28.68502,46.07,101669.99,1.2080077
354049097,-28.515913,46.07,101668.0,1.207984
354059404,-28.76429,46.07,101671.0,1.2080196
354070155,-29.017954,46.07,101674.0,1.2080553
354092069,-28.848845,46.07,101672.0,1.2080315
354102193,-29.097223,46.07,101675.0,1.2080672
354112043,-29.26633,46.07,101676.99,1.2080909
354133048,-28.9334,46.07,101673.0,1.2080435
354144050,-29.017954,46.07,101674.0,1.2080553
354155039,-28.68502,46.07,101669.99,1.2080077
354177086,-28.848845,46.07,101672.0,1.2080315
354188699,-29.017954,46.07,101674.0,1.2080553
354199157,-29.017954,46.07,101674.0,1.2080553
354220085,-28.848845,46.07,101672.0,1.2080315
354231127,-28.76429,46.07,101671.0,1.2080196
354242373,-29.26633,46.07,101676.99,1.2080909
354263376,-29.097223,46.07,101675.0,1.2080672
354275038,-29.017954,46.07,101674.0,1.2080553
354286050,-28.848845,46.07,101672.0,1.2080315
354310192,-29.181776,46.07,101675.99,1.208079
354322317,-29.097223,46.07,101675.0,1.2080672
354333558,-28.76429,46.07,101671.0,1.2080196
354355150,-28.9334,46.07,101673.0,1.2080435
354366045,-28.76429,46.07,101671.0,1.2080196
354377892,-29.097223,46.07,101675.0,1.2080672
354399125,-28.68502,46.059998,101669.99,1.2080077
354410048,-28.68502,46.059998,101669.99,1.2080077
354420357,-28.68502,46.059998,101669.99,1.2080077
354442386,-28.515913,46.07,101668.0,1.207984
354452045,-28.600466,46.07,101669.0,1.2079959
354463141,-28.9334,46.07,101673.0,1.2080435
354485386,-29.017954,46.07,101674.0,1.2080553
354496045,-29.017954,46.07,101674.0,1.2080553
354507119,-28.515913,46.07,101668.0,1.207984
354528045,-28.76429,46.07,101671.0,1.2080196
354539127,-28.76429,46.07,101671.0,1.2080196
354549568,-29.181776,46.07,101675.99,1.208079
354570462,-29.017954,46.07,101674.0,1.2080553
354581499,-29.430155,46.07,101679.0,1.2081147
354592040,-29.017954,46.07,101674.0,1.2080553
354613563,-28.848845,46.07,101672.0,1.2080315
354623133,-28.515913,46.07,101668.0,1.207984
354634046,-28.515913,46.07,101668.0,1.207984
354656351,-29.181776,46.07,101675.99,1.208079
354666599,-28.68502,46.07,101669.99,1.2080077
354677577,-28.68502,46.07,101669.99,1.2080077
354699141,-29.017954,46.07,101674.0,1.2080553
354709548,-29.097223,46.07,101675.0,1.2080672
354720045,-28.76429,46.07,101671.0,1.2080196
354741397,-29.097223,46.07,101675.0,1.2080672
354752414,-28.848845,46.07,101672.0,1.2080315
354762574,-28.68502,46.07,101669.99,1.2080077
354784100,-29.181776,46.07,101675.99,1.208079
354795121,-28.848845,46.07,101672.0,1.2080315
354806164,-28.76429,46.07,101671.0,1.2080196
354827185,-29.181776,46.07,101675.99,1.208079
354837355,-28.9334,46.07,101673.0,1.2080435
354848451,-28.68502,46.07,101669.99,1.2080077
354869589,-28.848845,46.07,101672.0,1.2080315
354880045,-28.848845,46.07,101672.0,1.2080315
354890213,-28.600466,46.07,101669.0,1.2079959
354912089,-28.600466,46.07,101669.0,1.2079959
354922307,-28.600466,46.07,101669.0,1.2079959
354933555,-29.181776,46.07,101675.99,1.208079
354954050,-29.017954,46.07,101674.0,1.2080553
354965524,-29.017954,46.07,101674.0,1.2080553
354976095,-28.600466,46.07,101669.0,1.2079959
354997525,-28.76429,46.07,101671.0,1.2080196
355010181,-29.26633,46.07,101676.99,1.2080909
355021044,-28.76429,46.07,101671.0,1.2080196
355041045,-29.017954,46.07,101674.0,1.2080553
355052560,-28.848845,46.07,101672.0,1.2080315
355063091,-28.76429,46.07,101671.0,1.2080196
355086134,-29.097223,46.07,101675.0,1.2080672
355097045,-28.848845,46.07,101672.0,1.2080315
355107092,-28.76429,46.07,101671.0,1.2080196
355129050,-28.9334,46.07,101673.0,1.2080435
355140102,-28.9334,46.07,101673.0,1.2080435
355151092,-28.76429,46.07,101671.0,1.2080196
355172708,-29.097223,46.07,101675.0,1.2080672
355182172,-29.097223,46.07,101675.0,1.2080672
355193085,-28.600466,46.07,101669.0,1.2079959
355214397,-29.017954,46.07,101674.0,1.2080553
355225530,-28.515913,46.07,101668.0,1.207984
355236941,-28.76429,46.07,101671.0,1.2080196
355257249,-28.848845,46.07,101672.0,1.2080315
355267099,-28.68502,46.07,101669.99,1.2080077
355278040,-29.017954,46.07,101674.0,1.2080553
355300603,-28.600466,46.07,101669.0,1.2079959
355311145,-28.848845,46.07,101672.0,1.2080315
355322045,-28.9334,46.07,101673.0,1.2080435
355343097,-29.017954,46.07,101674.0,1.2080553
355354084,-28.68502,46.07,101669.99,1.2080077
355364597,-28.76429,46.07,101671.0,1.2080196
355385188,-29.181776,46.07,101675.99,1.208079
355396705,-28.436644,46.07,101667.0,1.2079722
355407097,-28.848845,46.07,101672.0,1.2080315
355428752,-28.436644,46.07,101667.0,1.2079722
355439049,-28.600466,46.07,101669.0,1.2079959
355450040,-28.9334,46.07,101673.0,1.2080435
355473501,-29.097223,46.07,101675.0,1.2080672
355484619,-29.181776,46.07,101675.99,1.208079
355495410,-28.600466,46.07,101669.0,1.2079959
355516559,-28.68502,46.059998,101669.99,1.2080077
355527045,-28.76429,46.059998,101671.0,1.2080196
355538040,-28.76429,46.059998,101671.0,1.2080196
355559102,-28.9334,46.07,101673.0,1.2080435
355570045,-29.181776,46.07,101675.99,1.208079
355580634,-29.017954,46.07,101674.0,1.2080553
355601562,-29.017954,46.07,101674.0,1.2080553
355612577,-29.017954,46.07,101674.0,1.2080553
355623104,-29.017954,46.07,101674.0,1.2080553
355645052,-29.097223,46.07,101675.0,1.2080672
355655097,-28.600466,46.07,101669.0,1.2079959
355666045,-28.76429,46.07,101671.0,1.2080196
355687410,-29.017954,46.07,101674.0,1.2080553
355697641,-28.68502,46.07,101669.99,1.2080077
355708816,-28.76429,46.07,101671.0,1.2080196
355729048,-28.848845,46.07,101672.0,1.2080315
355740592,-28.9334,46.07,101673.0,1.2080435
355751091,-28.9334,46.07,101673.0,1.2080435
355772614,-28.9334,46.07,101673.0,1.2080435
355783450,-29.181776,46.07,101675.99,1.208079
355793837,-28.9334,46.07,101673.0,1.2080435
355815352,-29.26633,46.07,101676.99,1.2080909
355826143,-28.76429,46.07,101671.0,1.2080196
355837079,-28.76429,46.07,101671.0,1.2080196
355859471,-28.68502,46.07,101669.99,1.2080077
355870044,-28.76429,46.07,101671.0,1.2080196
355880288,-29.181776,46.07,101675.99,1.208079
355902146,-29.181776,46.07,101675.99,1.208079
355913100,-28.76429,46.07,101671.0,1.2080196
355924053,-28.76429,46.07,101671.0,1.2080196
355945049,-28.600466,46.07,101669.0,1.2079959
355956049,-29.26633,46.07,101676.99,1.2080909
355967351,-28.848845,46.07,101672.0,1.2080315
355989097,-28.9334,46.07,101673.0,1.2080435
356000937,-29.017954,46.07,101674.0,1.2080553
356011055,-28.436644,46.07,101667.0,1.2079722
356033045,-29.017954,46.07,101674.0,1.2080553
356044049,-28.68502,46.07,101669.99,1.2080077
356055344,-29.017954,46.07,101674.0,1.2080553
356077045,-28.9334,46.07,101673.0,1.2080435
356088149,-29.3456,46.07,101678.0,1.2081028
356099053,-28.68502,46.07,101669.99,1.2080077
356121046,-28.76429,46.07,101671.0,1.2080196
356132141,-28.76429,46.07,101671.0,1.2080196
356143358,-29.017954,46.07,101674.0,1.2080553
356165048,-29.26633,46.07,101676.99,1.2080909
356176115,-28.68502,46.07,101669.99,1.2080077
356186045,-29.017954,46.07,101674.0,1.2080553
356208791,-29.017954,46.07,101674.0,1.2080553
356218291,-29.017954,46.07,101674.0,1.2080553
356229041,-29.430155,46.07,101679.0,1.2081147
356250045,-28.76429,46.07,101671.0,1.2080196
356260096,-29.017954,46.07,101674.0,1.2080553
356271363,-28.76429,46.07,101671.0,1.2080196
356292056,-29.181776,46.07,101675.99,1.208079
356305518,-29.017954,46.07,101674.0,1.2080553
356316115,-28.848845,46.07,101672.0,1.2080315
356339609,-28.9334,46.059998,101673.0,1.2080435
356350370,-28.352089,46.059998,101666.0,1.2079602
356361049,-28.68502,46.059998,101669.99,1.2080077
356384998,-28.352089,46.059998,101666.0,1.2079602
356395054,-28.515913,46.059998,101668.0,1.207984
356406040,-28.68502,46.059998,101669.99,1.2080077
356427361,-28.436644,46.059998,101667.0,1.2079722
356438496,-28.76429,46.059998,101671.0,1.2080196
356449040,-28.9334,46.059998,101673.0,1.2080435
356471357,-29.097223,46.059998,101675.0,1.2080672
356481045,-29.017954,46.059998,101674.0,1.2080553
356491345,-28.515913,46.059998,101668.0,1.207984
356513056,-29.097223,46.07,101675.0,1.2080672
356524052,-28.76429,46.07,101671.0,1.2080196
356534045,-29.599264,46.07,101681.0,1.2081385
356556045,-28.76429,46.07,101671.0,1.2080196
356567360,-29.017954,46.07,101674.0,1.2080553
356578051,-28.9334,46.07,101673.0,1.2080435
356600848,-29.017954,46.059998,101674.0,1.2080553
356611328,-28.848845,46.059998,101672.0,1.2080315
356622042,-29.097223,46.059998,101675.0,1.2080672
356643200,-28.76429,46.07,101671.0,1.2080196
356654136,-28.848845,46.07,101672.0,1.2080315
356665404,-28.848845,46.07,101672.0,1.2080315
356687457,-28.76429,46.059998,101671.0,1.2080196
356697155,-28.68502,46.059998,101669.99,1.2080077
356707178,-28.848845,46.059998,101672.0,1.2080315
356728096,-28.76429,46.07,101671.0,1.2080196
356739058,-28.848845,46.07,101672.0,1.2080315
356750040,-29.181776,46.07,101675.99,1.208079
356771162,-28.848845,46.059998,101672.0,1.2080315
356782084,-28.515913,46.059998,101668.0,1.207984
356793040,-29.097223,46.059998,101675.0,1.2080672
356814045,-29.017954,46.07,101674.0,1.2080553
356825045,-29.51471,46.07,101680.0,1.2081265
356836040,-29.017954,46.07,101674.0,1.2080553
356857045,-29.017954,46.07,101674.0,1.2080553
356867177,-29.26633,46.07,101676.99,1.2080909
356877040,-29.017954,46.07,101674.0,1.2080553
356899162,-28.68502,46.07,101669.99,1.2080077
356910045,-28.76429,46.07,101671.0,1.2080196
356920243,-28.848845,46.07,101672.0,1.2080315
356942111,-29.181776,46.07,101675.99,1.208079
356953057,-28.515913,46.07,101668.0,1.207984
356964051,-29.26633,46.07,101676.99,1.2080909
356985050,-28.600466,46.07,101669.0,1.2079959
356995130,-29.097223,46.07,101675.0,1.2080672
357007603,-28.9334,46.07,101673.0,1.2080435
357028045,-28.68502,46.07,101669.99,1.2080077
357040194,-28.848845,46.07,101672.0,1.2080315
357050040,-28.76429,46.07,101671.0,1.2080196
357072093,-28.9334,46.07,101673.0,1.2080435
357083165,-29.430155,46.07,101679.0,1.2081147
357094043,-28.68502,46.07,101669.99,1.2080077
357115156,-28.68502,46.07,101669.99,1.2080077
357127519,-28.848845,46.07,101672.0,1.2080315
357138044,-28.848845,46.07,101672.0,1.2080315
357160091,-28.848845,46.059998,101672.0,1.2080315
357170985,-28.76429,46.059998,101671.0,1.2080196
357181080,-28.352089,46.059998,101666.0,1.2079602
357203160,-28.9334,46.07,101673.0,1.2080435
357215456,-29.181776,46.07,101675.99,1.208079
357226168,-29.097223,46.07,101675.0,1.2080672
357247447,-28.76429,46.059998,101671.0,1.2080196
357259175,-28.352089,46.059998,101666.0,1.2079602
357270052,-28.848845,46.059998,101672.0,1.2080315
357292045,-28.600466,46.07,101669.0,1.2079959
357303935,-28.848845,46.07,101672.0,1.2080315
357314043,-28.848845,46.07,101672.0,1.2080315
357336074,-28.76429,46.059998,101671.0,1.2080196
357347382,-28.267534,46.059998,101665.0,1.2079483
357358305,-29.017954,46.059998,101674.0,1.2080553
357380045,-28.848845,46.07,101672.0,1.2080315
357391462,-29.181776,46.07,101675.99,1.208079
357402296,-28.436644,46.07,101667.0,1.2079722
357424045,-28.9334,46.059998,101673.0,1.2080435
357434198,-29.097223,46.059998,101675.0,1.2080672
357444043,-28.68502,46.059998,101669.99,1.2080077
357466211,-28.18298,46.07,101663.99,1.2079364
357477044,-28.436644,46.07,101667.0,1.2079722
357488040,-28.76429,46.07,101671.0,1.2080196
357510965,-28.515913,46.059998,101668.0,1.207984
357520058,-28.848845,46.059998,101672.0,1.2080315
357531166,-28.76429,46.059998,101671.0,1.2080196
357552049,-28.436644,46.059998,101667.0,1.2079722
357562175,-28.352089,46.059998,101666.0,1.2079602
357573424,-28.18298,46.059998,101663.99,1.2079364
357594332,-28.436644,46.059998,101667.0,1.2079722
357605049,-28.76429,46.059998,101671.0,1.2080196
357616040,-28.76429,46.059998,101671.0,1.2080196
357638881,-28.436644,46.059998,101667.0,1.2079722
357649089,-28.9334,46.059998,101673.0,1.2080435
357660040,-28.436644,46.059998,101667.0,1.2079722
357682320,-28.68502,46.059998,101669.99,1.2080077
357693045,-28.18298,46.059998,101663.99,1.2079364
357704040,-28.515913,46.059998,101668.0,1.207984
357725053,-28.436644,46.059998,101667.0,1.2079722
357735742,-28.436644,46.059998,101667.0,1.2079722
357746214,-28.76429,46.059998,101671.0,1.2080196
357768066,-28.18298,46.07,101663.99,1.2079364
357778143,-28.18298,46.07,101663.99,1.2079364
357788040,-28.352089,46.07,101666.0,1.2079602
357809054,-28.515913,46.059998,101668.0,1.207984
357820045,-28.848845,46.059998,101672.0,1.2080315
357830516,-28.76429,46.059998,101671.0,1.2080196
357852056,-28.352089,46.07,101666.0,1.2079602
357863544,-28.848845,46.07,101672.0,1.2080315
357874369,-28.848845,46.07,101672.0,1.2080315
357895168,-29.017954,46.07,101674.0,1.2080553
357906339,-28.9334,46.07,101673.0,1.2080435
357917043,-28.515913,46.07,101668.0,1.207984
357939159,-28.68502,46.07,101669.99,1.2080077
357951436,-28.436644,46.07,101667.0,1.2079722
357962338,-28.9334,46.07,101673.0,1.2080435
357984056,-28.10371,46.059998,101663.0,1.2079246
357995166,-28.352089,46.059998,101666.0,1.2079602
358006842,-28.68502,46.059998,101669.99,1.2080077
358028083,-28.68502,46.07,101669.99,1.2080077
358039124,-28.515913,46.07,101668.0,1.207984
358049763,-28.9334,46.07,101673.0,1.2080435
358071351,-28.10371,46.059998,101663.0,1.2079246
358082301,-28.9334,46.059998,101673.0,1.2080435
358093380,-28.515913,46.059998,101668.0,1.207984
358115355,-29.017954,46.07,101674.0,1.2080553
358126170,-28.848845,46.07,101672.0,1.2080315
358138218,-28.9334,46.07,101673.0,1.2080435
358160358,-29.097223,46.07,101675.0,1.2080672
358170725,-28.76429,46.07,101671.0,1.2080196
358181589,-28.848845,46.07,101672.0,1.2080315
358202045,-28.515913,46.07,101668.0,1.207984
358213522,-28.600466,46.07,101669.0,1.2079959
358224048,-28.18298,46.07,101663.99,1.2079364
358245541,-28.352089,46.059998,101666.0,1.2079602
358256360,-28.352089,46.059998,101666.0,1.2079602
358266354,-28.18298,46.059998,101663.99,1.2079364
358287121,-29.097223,46.07,101675.0,1.2080672
358298408,-29.017954,46.07,101674.0,1.2080553
358309550,-28.436644,46.07,101667.0,1.2079722
358330157,-29.181776,46.07,101675.99,1.208079
358341655,-28.600466,46.07,101669.0,1.2079959
358352040,-28.18298,46.07,101663.99,1.2079364
358373450,-28.76429,46.059998,101671.0,1.2080196
358383120,-28.848845,46.059998,101672.0,1.2080315
358394040,-29.097223,46.059998,101675.0,1.2080672
358416359,-28.848845,46.07,101672.0,1.2080315
358426674,-29.097223,46.07,101675.0,1.2080672
358437415,-28.848845,46.07,101672.0,1.2080315
358459124,-28.9334,46.07,101673.0,1.2080435
358470045,-28.352089,46.07,101666.0,1.2079602
358480049,-28.600466,46.07,101669.0,1.2079959
358501523,-28.515913,46.07,101668.0,1.207984
358512358,-28.600466,46.07,101669.0,1.2079959
358522975,-29.181776,46.07,101675.99,1.208079
358544045,-28.9334,46.07,101673.0,1.2080435
358555132,-29.181776,46.07,101675.99,1.208079
358566165,-28.9334,46.07,101673.0,1.2080435
358589553,-28.68502,46.059998,101669.99,1.2080077
358600065,-29.26633,46.059998,101676.99,1.2080909
358611116,-28.515913,46.059998,101668.0,1.207984
358632053,-29.017954,46.07,101674.0,1.2080553
358643121,-29.017954,46.07,101674.0,1.2080553
358653503,-28.600466,46.07,101669.0,1.2079959
358674398,-28.68502,46.07,101669.99,1.2080077
358685379,-28.436644,46.07,101667.0,1.2079722
358696353,-29.017954,46.07,101674.0,1.2080553
358718401,-28.515913,46.07,101668.0,1.207984
358728050,-28.352089,46.07,101666.0,1.2079602
358739510,-28.848845,46.07,101672.0,1.2080315
358760351,-28.848845,46.07,101672.0,1.2080315
358770652,-28.10371,46.07,101663.0,1.2079246
358781545,-28.019156,46.07,101662.0,1.2079127
358802404,-28.352089,46.07,101666.0,1.2079602
358813416,-28.515913,46.07,101668.0,1.207984
358824054,-29.097223,46.07,101675.0,1.2080672
358845554,-28.352089,46.07,101666.0,1.2079602
358856101,-28.600466,46.07,101669.0,1.2079959
358867121,-28.436644,46.07,101667.0,1.2079722
358888048,-28.9334,46.07,101673.0,1.2080435
358898519,-28.848845,46.07,101672.0,1.2080315
358909630,-28.9334,46.07,101673.0,1.2080435
358929048,-29.097223,46.07,101675.0,1.2080672
358940747,-28.436644,46.07,101667.0,1.2079722
358951122,-28.9334,46.07,101673.0,1.2080435
358972611,-28.76429,46.07,101671.0,1.2080196
358982322,-28.600466,46.07,101669.0,1.2079959
358993233,-28.019156,46.07,101662.0,1.2079127
359014400,-29.181776,46.07,101675.99,1.208079
359025811,-29.181776,46.07,101675.99,1.208079
359036947,-29.26633,46.07,101676.99,1.2080909
359058384,-28.848845,46.07,101672.0,1.2080315
359068759,-29.181776,46.07,101675.99,1.208079
359079346,-29.181776,46.07,101675.99,1.208079
359100627,-28.76429,46.07,101671.0,1.2080196
359111096,-28.9334,46.07,101673.0,1.2080435
359122045,-28.515913,46.07,101668.0,1.207984
359143097,-29.51471,46.07,101680.0,1.2081265
359154050,-28.10371,46.07,101663.0,1.2079246
359164600,-28.10371,46.07,101663.0,1.2079246
359185069,-28.267534,46.07,101665.0,1.2079483
359196722,-29.017954,46.07,101674.0,1.2080553
359207135,-28.68502,46.07,101669.99,1.2080077
359228642,-28.848845,46.07,101672.0,1.2080315
359239135,-28.68502,46.07,101669.99,1.2080077
359250040,-29.26633,46.07,101676.99,1.2080909
359271443,-28.436644,46.07,101667.0,1.2079722
359281660,-28.436644,46.07,101667.0,1.2079722
359292716,-28.436644,46.07,101667.0,1.2079722
359313160,-29.26633,46.07,101676.99,1.2080909
359324701,-28.352089,46.07,101666.0,1.2079602
359335169,-27.855333,46.07,101660.0,1.207889
359356821,-28.600466,46.07,101669.0,1.2079959
359367105,-28.848845,46.07,101672.0,1.2080315
359378015,-28.436644,46.07,101667.0,1.2079722
359401603,-27.934603,46.07,101661.0,1.2079009
359412592,-27.855333,46.07,101660.0,1.207889
359422040,-28.019156,46.07,101662.0,1.2079127
359444594,-28.10371,46.07,101663.0,1.2079246
359455377,-28.515913,46.07,101668.0,1.207984
359465369,-28.600466,46.07,101669.0,1.2079959
359487106,-28.18298,46.07,101663.99,1.2079364
359497577,-29.26633,46.07,101676.99,1.2080909
359507091,-28.18298,46.07,101663.99,1.2079364
359529417,-27.770779,46.059998,101659.0,1.207877
359540593,-28.267534,46.059998,101665.0,1.2079483
359551355,-28.600466,46.059998,101669.0,1.2079959
359572736,-28.267534,46.07,101665.0,1.2079483
359583105,-28.10371,46.07,101663.0,1.2079246
359594045,-28.600466,46.07,101669.0,1.2079959
359615096,-28.9334,46.07,101673.0,1.2080435
359626315,-29.097223,46.07,101675.0,1.2080672
359637040,-28.9334,46.07,101673.0,1.2080435
359660602,-28.848845,46.07,101672.0,1.2080315
359671345,-28.76429,46.07,101671.0,1.2080196
359682040,-28.68502,46.07,101669.99,1.2080077
359704225,-29.017954,46.07,101674.0,1.2080553
359715341,-28.848845,46.07,101672.0,1.2080315
359726040,-29.26633,46.07,101676.99,1.2080909
359747103,-28.76429,46.059998,101671.0,1.2080196
359758413,-29.26633,46.059998,101676.99,1.2080909
359769146,-28.600466,46.059998,101669.0,1.2079959
359790143,-28.68502,46.059998,101669.99,1.2080077
359801371,-27.855333,46.059998,101660.0,1.207889
359811477,-28.18298,46.059998,101663.99,1.2079364
359832568,-28.76429,46.07,101671.0,1.2080196
359843945,-29.430155,46.07,101679.0,1.2081147
359854045,-28.515913,46.07,101668.0,1.207984
359876050,-28.600466,46.059998,101669.0,1.2079959
359888619,-28.515913,46.059998,101668.0,1.207984
359899405,-28.600466,46.059998,101669.0,1.2079959
359921049,-29.097223,46.059998,101675.0,1.2080672
359932391,-28.848845,46.059998,101672.0,1.2080315
359943466,-28.515913,46.059998,101668.0,1.207984
359965058,-28.18298,46.059998,101663.99,1.2079364
359976570,-29.017954,46.059998,101674.0,1.2080553
359986150,-28.76429,46.059998,101671.0,1.2080196
360007343,-29.3456,46.059998,101678.0,1.2081028
360018198,-28.600466,46.059998,101669.0,1.2079959
360028040,-28.600466,46.059998,101669.0,1.2079959
360049046,-28.267534,46.07,101665.0,1.2079483
360060179,-28.267534,46.07,101665.0,1.2079483
360071317,-28.848845,46.07,101672.0,1.2080315
360093045,-28.267534,46.059998,101665.0,1.2079483
360104997,-28.18298,46.059998,101663.99,1.2079364
360115369,-28.436644,46.059998,101667.0,1.2079722
360136187,-28.352089,46.059998,101666.0,1.2079602
360146166,-28.76429,46.059998,101671.0,1.2080196
360157040,-28.10371,46.059998,101663.0,1.2079246
360179380,-28.515913,46.059998,101668.0,1.207984
360190131,-28.352089,46.059998,101666.0,1.2079602
360201040,-27.770779,46.059998,101659.0,1.207877
360223598,-28.600466,46.059998,101669.0,1.2079959
360234045,-28.68502,46.059998,101669.99,1.2080077
360244106,-28.352089,46.059998,101666.0,1.2079602
360265101,-28.68502,46.059998,101669.99,1.2080077
360276048,-28.600466,46.059998,101669.0,1.2079959
360286179,-29.181776,46.059998,101675.99,1.208079
360307373,-29.26633,46.059998,101676.99,1.2080909
360318045,-28.9334,46.059998,101673.0,1.2080435
360329040,-28.9334,46.059998,101673.0,1.2080435
360351336,-28.436644,46.059998,101667.0,1.2079722
360361532,-28.515913,46.059998,101668.0,1.207984
360372078,-28.600466,46.059998,101669.0,1.2079959
360395342,-29.017954,46.059998,101674.0,1.2080553
360406381,-29.26633,46.059998,101676.99,1.2080909
360417040,-28.600466,46.059998,101669.0,1.2079959
360439045,-28.436644,46.059998,101667.0,1.2079722
360450964,-28.68502,46.059998,101669.99,1.2080077
360461040,-28.515913,46.059998,101668.0,1.207984
360482358,-28.76429,46.059998,101671.0,1.2080196
360493552,-28.600466,46.059998,101669.0,1.2079959
360503119,-28.18298,46.059998,101663.99,1.2079364
360525045,-29.430155,46.059998,101679.0,1.2081147
360536193,-28.436644,46.059998,101667.0,1.2079722
360547798,-28.68502,46.059998,101669.99,1.2080077
360569054,-28.68502,46.059998,101669.99,1.2080077
360580048,-29.097223,46.059998,101675.0,1.2080672
360591800,-29.017954,46.059998,101674.0,1.2080553
360613050,-28.68502,46.059998,101669.99,1.2080077
360624045,-28.267534,46.059998,101665.0,1.2079483
360635158,-28.10371,46.059998,101663.0,1.2079246
360656065,-29.097223,46.059998,101675.0,1.2080672
360667194,-28.68502,46.059998,101669.99,1.2080077
360680405,-28.600466,46.059998,101669.0,1.2079959
360704574,-28.267534,46.059998,101665.0,1.2079483
360715063,-29.26633,46.059998,101676.99,1.2080909
360728279,-29.017954,46.059998,101674.0,1.2080553
360752275,-28.600466,46.05,101669.0,1.2079959
360763177,-28.76429,46.05,101671.0,1.2080196
360775475,-29.181776,46.05,101675.99,1.208079
360797358,-28.600466,46.05,101669.0,1.2079959
360808046,-28.267534,46.05,101665.0,1.2079483
360819470,-28.515913,46.05,101668.0,1.207984
360840359,-29.017954,46.059998,101674.0,1.2080553
360851130,-29.181776,46.059998,101675.99,1.208079
360864533,-29.599264,46.059998,101681.0,1.2081385
360888276,-28.848845,46.05,101672.0,1.2080315
360899172,-28.9334,46.05,101673.0,1.2080435
360912250,-28.68502,46.05,101669.99,1.2080077
360936211,-28.352089,46.05,101666.0,1.2079602
360947125,-28.436644,46.05,101667.0,1.2079722
360959638,-27.855333,46.05,101660.0,1.207889
360981379,-28.267534,46.05,101665.0,1.2079483
360991583,-28.76429,46.05,101671.0,1.2080196
361002040,-28.68502,46.05,101669.99,1.2080077
361024213,-28.10371,46.05,101663.0,1.2079246
361035167,-28.352089,46.05,101666.0,1.2079602
361046070,-28.267534,46.05,101665.0,1.2079483
361068045,-28.76429,46.05,101671.0,1.2080196
361078045,-28.18298,46.05,101663.99,1.2079364
361089040,-28.267534,46.05,101665.0,1.2079483
361111395,-28.600466,46.05,101669.0,1.2079959
361122045,-28.68502,46.05,101669.99,1.2080077
361133107,-28.352089,46.05,101666.0,1.2079602
361154172,-28.18298,46.05,101663.99,1.2079364
361165372,-28.600466,46.05,101669.0,1.2079959
361176040,-28.352089,46.05,101666.0,1.2079602
361198050,-28.848845,46.05,101672.0,1.2080315
361208228,-28.848845,46.05,101672.0,1.2080315
361218040,-28.68502,46.05,101669.99,1.2080077
361240045,-28.436644,46.05,101667.0,1.2079722
361250312,-28.436644,46.05,101667.0,1.2079722
361261041,-28.515913,46.05,101668.0,1.207984
361283121,-28.600466,46.05,101669.0,1.2079959
361294158,-28.68502,46.05,101669.99,1.2080077
361305039,-28.515913,46.05,101668.0,1.207984
361327161,-28.515913,46.059998,101668.0,1.207984
361338308,-28.436644,46.059998,101667.0,1.2079722
361349367,-28.515913,46.059998,101668.0,1.207984
361370187,-28.76429,46.05,101671.0,1.2080196
361381136,-28.600466,46.05,101669.0,1.2079959
361392059,-28.76429,46.05,101671.0,1.2080196
361413045,-28.515913,46.05,101668.0,1.207984
361423938,-28.848845,46.05,101672.0,1.2080315
361434323,-28.436644,46.05,101667.0,1.2079722
361456045,-28.76429,46.05,101671.0,1.2080196
361467252,-28.436644,46.05,101667.0,1.2079722
361478510,-28.18298,46.05,101663.99,1.2079364
361500092,-28.352089,46.05,101666.0,1.2079602
361511412,-28.019156,46.05,101662.0,1.2079127
361522157,-28.515913,46.05,101668.0,1.207984
361544045,-28.352089,46.059998,101666.0,1.2079602
361555162,-28.18298,46.059998,101663.99,1.2079364
361566843,-29.017954,46.059998,101674.0,1.2080553
361588084,-28.76429,46.05,101671.0,1.2080196
361599121,-28.848845,46.05,101672.0,1.2080315
361610339,-28.515913,46.05,101668.0,1.207984
361632048,-28.76429,46.05,101671.0,1.2080196
361643159,-28.18298,46.05,101663.99,1.2079364
361655243,-27.770779,46.05,101659.0,1.207877
361677056,-28.18298,46.05,101663.99,1.2079364
361688045,-28.515913,46.05,101668.0,1.207984
361698338,-28.18298,46.05,101663.99,1.2079364
361720056,-28.352089,46.05,101666.0,1.2079602
361730184,-27.934603,46.05,101661.0,1.2079009
361740040,-27.770779,46.05,101659.0,1.207877
361762246,-28.436644,46.05,101667.0,1.2079722
361773096,-27.855333,46.05,101660.0,1.207889
361784044,-28.18298,46.05,101663.99,1.2079364
361805048,-28.68502,46.05,101669.99,1.2080077
361815451,-28.600466,46.05,101669.0,1.2079959
361826364,-27.934603,46.05,101661.0,1.2079009
361848045,-28.10371,46.05,101663.0,1.2079246
361858210,-28.019156,46.05,101662.0,1.2079127
361869057,-28.600466,46.05,101669.0,1.2079959
361891121,-28.352089,46.059998,101666.0,1.2079602
361903208,-28.18298,46.059998,101663.99,1.2079364
361914373,-28.600466,46.059998,101669.0,1.2079959
361936049,-28.352089,46.05,101666.0,1.2079602
361946306,-28.848845,46.05,101672.0,1.2080315
361957374,-28.352089,46.05,101666.0,1.2079602
361978165,-28.267534,46.05,101665.0,1.2079483
361988045,-28.352089,46.05,101666.0,1.2079602
361999117,-28.10371,46.05,101663.0,1.2079246
362021821,-28.352089,46.05,101666.0,1.2079602
362032105,-28.436644,46.05,101667.0,1.2079722
362042200,-28.267534,46.05,101665.0,1.2079483
362064061,-28.019156,46.05,101662.0,1.2079127
362074384,-28.267534,46.05,101665.0,1.2079483
362086406,-28.267534,46.05,101665.0,1.2079483
362109377,-28.352089,46.05,101666.0,1.2079602
362119296,-28.436644,46.05,101667.0,1.2079722
362129577,-28.76429,46.05,101671.0,1.2080196
362150051,-29.017954,46.05,101674.0,1.2080553
362161578,-28.600466,46.05,101669.0,1.2079959
362172043,-28.600466,46.05,101669.0,1.2079959
362193512,-28.9334,46.05,101673.0,1.2080435
362204051,-28.848845,46.05,101672.0,1.2080315
362215145,-28.76429,46.05,101671.0,1.2080196
362237830,-28.18298,46.05,101663.99,1.2079364
362248045,-28.18298,46.05,101663.99,1.2079364
362259162,-28.019156,46.05,101662.0,1.2079127
362281535,-28.9334,46.05,101673.0,1.2080435
362292056,-28.600466,46.05,101669.0,1.2079959
362302206,-28.9334,46.05,101673.0,1.2080435
362324357,-28.267534,46.05,101665.0,1.2079483
362334045,-28.352089,46.05,101666.0,1.2079602
362345656,-28.18298,46.05,101663.99,1.2079364
362367189,-28.68502,46.05,101669.99,1.2080077
362378045,-28.600466,46.05,101669.0,1.2079959
362388040,-28.019156,46.05,101662.0,1.2079127
362410367,-28.600466,46.05,101669.0,1.2079959
362420359,-28.352089,46.05,101666.0,1.2079602
362430199,-28.68502,46.05,101669.99,1.2080077
362452084,-28.9334,46.059998,101673.0,1.2080435
362463124,-29.017954,46.059998,101674.0,1.2080553
362474040,-29.097223,46.059998,101675.0,1.2080672
362495146,-28.76429,46.05,101671.0,1.2080196
362506184,-28.848845,46.05,101672.0,1.2080315
362518140,-28.436644,46.05,101667.0,1.2079722
362540392,-28.9334,46.05,101673.0,1.2080435
362550473,-28.18298,46.05,101663.99,1.2079364
362561389,-28.600466,46.05,101669.0,1.2079959
362583125,-28.9334,46.05,101673.0,1.2080435
362593626,-28.848845,46.05,101672.0,1.2080315
362604071,-28.9334,46.05,101673.0,1.2080435
362626139,-28.267534,46.05,101665.0,1.2079483
362636096,-28.600466,46.05,101669.0,1.2079959
362647116,-28.9334,46.05,101673.0,1.2080435
362668045,-28.848845,46.05,101672.0,1.2080315
362679004,-28.600466,46.05,101669.0,1.2079959
362689595,-28.600466,46.05,101669.0,1.2079959
362710212,-28.352089,46.05,101666.0,1.2079602
362721574,-28.848845,46.05,101672.0,1.2080315
362732056,-28.600466,46.05,101669.0,1.2079959
362754050,-28.352089,46.05,101666.0,1.2079602
362766594,-28.352089,46.05,101666.0,1.2079602
362777360,-28.10371,46.05,101663.0,1.2079246
362798138,-28.18298,46.05,101663.99,1.2079364
362808595,-29.017954,46.05,101674.0,1.2080553
362819116,-28.18298,46.05,101663.99,1.2079364
362840562,-28.848845,46.05,101672.0,1.2080315
362850060,-28.76429,46.05,101671.0,1.2080196
362861828,-28.600466,46.05,101669.0,1.2079959
362883409,-28.848845,46.05,101672.0,1.2080315
362893505,-28.10371,46.05,101663.0,1.2079246
362904752,-28.267534,46.05,101665.0,1.2079483
362925643,-28.515913,46.05,101668.0,1.207984
362936048,-29.097223,46.05,101675.0,1.2080672
362947143,-28.515913,46.05,101668.0,1.207984
362968774,-29.097223,46.05,101675.0,1.2080672
362979100,-29.430155,46.05,101679.0,1.2081147
362989097,-28.68502,46.05,101669.99,1.2080077
363011096,-29.097223,46.05,101675.0,1.2080672
363022045,-28.9334,46.05,101673.0,1.2080435
363032601,-28.600466,46.05,101669.0,1.2079959
363053610,-28.600466,46.05,101669.0,1.2079959
363064747,-28.515913,46.05,101668.0,1.207984
363075106,-28.267534,46.05,101665.0,1.2079483
363097058,-28.600466,46.05,101669.0,1.2079959
363107107,-28.76429,46.05,101671.0,1.2080196
363117044,-29.097223,46.05,101675.0,1.2080672
363139097,-28.68502,46.05,101669.99,1.2080077
363150045,-28.600466,46.05,101669.0,1.2079959
363161047,-29.017954,46.05,101674.0,1.2080553
363184754,-28.9334,46.05,101673.0,1.2080435
363195099,-28.18298,46.05,101663.99,1.2079364
363205575,-28.76429,46.05,101671.0,1.2080196
363227410,-28.9334,46.05,101673.0,1.2080435
363237072,-28.848845,46.05,101672.0,1.2080315
363248613,-28.76429,46.05,101671.0,1.2080196
363270062,-28.600466,46.05,101669.0,1.2079959
363281058,-28.267534,46.05,101665.0,1.2079483
363291106,-28.267534,46.05,101665.0,1.2079483
363312787,-29.097223,46.05,101675.0,1.2080672
363323418,-28.600466,46.05,101669.0,1.2079959
363333122,-29.097223,46.05,101675.0,1.2080672
363355131,-28.848845,46.05,101672.0,1.2080315
363365620,-28.600466,46.05,101669.0,1.2079959
363376773,-28.600466,46.05,101669.0,1.2079959
363398045,-28.68502,46.039997,101669.99,1.2080077
363408766,-28.436644,46.039997,101667.0,1.2079722
363419485,-28.600466,46.039997,101669.0,1.2079959
363440755,-28.600466,46.039997,101669.0,1.2079959
363450049,-29.3456,46.039997,101678.0,1.2081028
363461043,-28.10371,46.039997,101663.0,1.2079246
363482179,-28.515913,46.05,101668.0,1.207984
363493053,-28.515913,46.05,101668.0,1.207984
363504593,-28.600466,46.05,101669.0,1.2079959
363526179,-28.515913,46.039997,101668.0,1.207984
363536563,-28.352089,46.039997,101666.0,1.2079602
363547214,-28.352089,46.039997,101666.0,1.2079602
363568755,-28.600466,46.05,101669.0,1.2079959
363579097,-28.600466,46.05,101669.0,1.2079959
363589056,-28.267534,46.05,101665.0,1.2079483
363611124,-28.515913,46.05,101668.0,1.207984
363622132,-28.515913,46.05,101668.0,1.207984
363633040,-28.515913,46.05,101668.0,1.207984
363654045,-28.436644,46.039997,101667.0,1.2079722
363665508,-28.267534,46.039997,101665.0,1.2079483
363676053,-28.515913,46.039997,101668.0,1.207984
363700056,-28.76429,46.05,101671.0,1.2080196
363713243,-29.017954,46.05,101674.0,1.2080553
363724067,-28.848845,46.05,101672.0,1.2080315
363747368,-28.76429,46.039997,101671.0,1.2080196
363758400,-29.097223,46.039997,101675.0,1.2080672
363768267,-28.848845,46.039997,101672.0,1.2080315
363790045,-28.848845,46.039997,101672.0,1.2080315
363801046,-28.600466,46.039997,101669.0,1.2079959
363812045,-28.352089,46.039997,101666.0,1.2079602
363833051,-28.600466,46.039997,101669.0,1.2079959
363844050,-28.600466,46.039997,101669.0,1.2079959
363855357,-28.600466,46.039997,101669.0,1.2079959
363877096,-28.18298,46.039997,101663.99,1.2079364
363888282,-28.68502,46.039997,101669.99,1.2080077
363899375,-28.436644,46.039997,101667.0,1.2079722
363920450,-28.600466,46.039997,101669.0,1.2079959
363931362,-28.515913,46.039997,101668.0,1.207984
363942040,-28.68502,46.039997,101669.99,1.2080077
363964084,-28.600466,46.039997,101669.0,1.2079959
363975312,-28.600466,46.039997,101669.0,1.2079959
363986040,-28.352089,46.039997,101666.0,1.2079602
364008729,-28.267534,46.039997,101665.0,1.2079483
364018185,-28.515913,46.039997,101668.0,1.207984
364028037,-28.436644,46.039997,101667.0,1.2079722
364051405,-28.436644,46.05,101667.0,1.2079722
364062166,-28.76429,46.05,101671.0,1.2080196
364073043,-28.9334,46.05,101673.0,1.2080435
364094048,-28.848845,46.039997,101672.0,1.2080315
364105045,-28.600466,46.039997,101669.0,1.2079959
364115376,-28.600466,46.039997,101669.0,1.2079959
364137103,-28.68502,46.039997,101669.99,1.2080077
364148050,-28.515913,46.039997,101668.0,1.207984
364159443,-28.68502,46.039997,101669.99,1.2080077
364181045,-28.848845,46.039997,101672.0,1.2080315
364192208,-28.600466,46.039997,101669.0,1.2079959
364203306,-28.18298,46.039997,101663.99,1.2079364
364225045,-28.848845,46.039997,101672.0,1.2080315
364236050,-28.352089,46.039997,101666.0,1.2079602
364247603,-28.352089,46.039997,101666.0,1.2079602
364268097,-28.352089,46.039997,101666.0,1.2079602
364280330,-28.600466,46.039997,101669.0,1.2079959
364291317,-28.18298,46.039997,101663.99,1.2079364
364313045,-28.76429,46.039997,101671.0,1.2080196
364323358,-28.9334,46.039997,101673.0,1.2080435
364334040,-28.600466,46.039997,101669.0,1.2079959
364355365,-28.848845,46.039997,101672.0,1.2080315
364366360,-28.68502,46.039997,101669.99,1.2080077
364377040,-28.436644,46.039997,101667.0,1.2079722
364399463,-28.267534,46.039997,101665.0,1.2079483
364409742,-28.267534,46.039997,101665.0,1.2079483
364420043,-28.600466,46.039997,101669.0,1.2079959
364443340,-29.017954,46.039997,101674.0,1.2080553
364455509,-28.515913,46.039997,101668.0,1.207984
364466040,-28.515913,46.039997,101668.0,1.207984
364488414,-28.848845,46.039997,101672.0,1.2080315
364499351,-27.855333,46.039997,101660.0,1.207889
364510075,-28.515913,46.039997,101668.0,1.207984
364532045,-29.017954,46.03,101674.0,1.2080553
364543789,-28.515913,46.03,101668.0,1.207984
364554200,-28.68502,46.03,101669.99,1.2080077
364576048,-28.267534,46.039997,101665.0,1.2079483
364587466,-28.76429,46.039997,101671.0,1.2080196
364598040,-28.352089,46.039997,101666.0,1.2079602
364620050,-28.515913,46.039997,101668.0,1.207984
364631633,-28.352089,46.039997,101666.0,1.2079602
364642040,-28.76429,46.039997,101671.0,1.2080196
364664045,-28.267534,46.039997,101665.0,1.2079483
364675446,-28.600466,46.039997,101669.0,1.2079959
364686044,-28.436644,46.039997,101667.0,1.2079722
364708045,-28.267534,46.039997,101665.0,1.2079483
364719456,-28.267534,46.039997,101665.0,1.2079483
364730040,-28.436644,46.039997,101667.0,1.2079722
364751444,-28.436644,46.039997,101667.0,1.2079722
364762069,-28.848845,46.039997,101672.0,1.2080315
364773045,-29.017954,46.039997,101674.0,1.2080553
364795153,-28.848845,46.039997,101672.0,1.2080315
364806045,-28.68502,46.039997,101669.99,1.2080077
364817040,-29.017954,46.039997,101674.0,1.2080553
364839478,-28.436644,46.039997,101667.0,1.2079722
364850045,-28.267534,46.039997,101665.0,1.2079483
364861040,-28.10371,46.039997,101663.0,1.2079246
364883207,-28.436644,46.039997,101667.0,1.2079722
364894045,-28.515913,46.039997,101668.0,1.207984
364904045,-28.600466,46.039997,101669.0,1.2079959
364926130,-28.436644,46.039997,101667.0,1.2079722
364937076,-28.600466,46.039997,101669.0,1.2079959
364948125,-28.267534,46.039997,101665.0,1.2079483
364969045,-28.600466,46.039997,101669.0,1.2079959
364980050,-28.18298,46.039997,101663.99,1.2079364
364991348,-28.600466,46.039997,101669.0,1.2079959
365013372,-28.68502,46.039997,101669.99,1.2080077
365024045,-28.848845,46.039997,101672.0,1.2080315
365035481,-28.515913,46.039997,101668.0,1.207984
365057372,-28.68502,46.039997,101669.99,1.2080077
365067144,-28.352089,46.039997,101666.0,1.2079602
365079626,-28.600466,46.039997,101669.0,1.2079959
365100046,-28.10371,46.039997,101663.0,1.2079246
365110196,-28.76429,46.039997,101671.0,1.2080196
365121040,-28.515913,46.039997,101668.0,1.207984
365142048,-28.18298,46.039997,101663.99,1.2079364
365152064,-28.68502,46.039997,101669.99,1.2080077
365163055,-28.352089,46.039997,101666.0,1.2079602
365185050,-28.267534,46.039997,101665.0,1.2079483
365196045,-28.9334,46.039997,101673.0,1.2080435
365207119,-28.267534,46.039997,101665.0,1.2079483
365229056,-28.76429,46.039997,101671.0,1.2080196
365240710,-28.10371,46.039997,101663.0,1.2079246
365251128,-28.352089,46.039997,101666.0,1.2079602
365271397,-28.68502,46.03,101669.99,1.2080077
365282045,-28.600466,46.03,101669.0,1.2079959
365293040,-28.68502,46.03,101669.99,1.2080077
365315498,-28.352089,46.039997,101666.0,1.2079602
365326087,-28.600466,46.039997,101669.0,1.2079959
365337042,-28.76429,46.039997,101671.0,1.2080196
365359121,-29.097223,46.039997,101675.0,1.2080672
365370045,-28.600466,46.039997,101669.0,1.2079959
365381040,-28.10371,46.039997,101663.0,1.2079246
365403126,-28.848845,46.039997,101672.0,1.2080315
365414209,-28.600466,46.039997,101669.0,1.2079959
365425040,-28.515913,46.039997,101668.0,1.207984
365447124,-28.436644,46.039997,101667.0,1.2079722
365458664,-28.515913,46.039997,101668.0,1.207984
365469075,-28.18298,46.039997,101663.99,1.2079364
365491294,-28.600466,46.039997,101669.0,1.2079959
365502166,-28.352089,46.039997,101666.0,1.2079602
365513411,-28.352089,46.039997,101666.0,1.2079602
365535442,-28.76429,46.03,101671.0,1.2080196
365545058,-28.352089,46.03,101666.0,1.2079602
365556361,-28.436644,46.03,101667.0,1.2079722
365577379,-28.515913,46.039997,101668.0,1.207984
365587225,-28.515913,46.039997,101668.0,1.207984
365598305,-28.436644,46.039997,101667.0,1.2079722
365620048,-28.600466,46.03,101669.0,1.2079959
365630189,-28.600466,46.03,101669.0,1.2079959
365641048,-29.017954,46.03,101674.0,1.2080553
365663166,-28.68502,46.039997,101669.99,1.2080077
365675374,-28.68502,46.039997,101669.99,1.2080077
365686432,-28.9334,46.039997,101673.0,1.2080435
365708045,-28.352089,46.03,101666.0,1.2079602
365718217,-28.76429,46.03,101671.0,1.2080196
365729044,-28.76429,46.03,101671.0,1.2080196
365750399,-28.515913,46.039997,101668.0,1.207984
365761372,-28.436644,46.039997,101667.0,1.2079722
365772040,-28.352089,46.039997,101666.0,1.2079602
365792045,-28.352089,46.039997,101666.0,1.2079602
365803388,-28.10371,46.039997,101663.0,1.2079246
365813040,-28.352089,46.039997,101666.0,1.2079602
365834598,-28.515913,46.039997,101668.0,1.207984
365845056,-28.9334,46.039997,101673.0,1.2080435
365856051,-28.267534,46.039997,101665.0,1.2079483
365878166,-28.515913,46.039997,101668.0,1.207984
365889056,-28.436644,46.039997,101667.0,1.2079722
365900055,-28.436644,46.039997,101667.0,1.2079722
365921055,-28.600466,46.039997,101669.0,1.2079959
365932053,-28.352089,46.039997,101666.0,1.2079602
365943143,-29.017954,46.039997,101674.0,1.2080553
365966194,-28.76429,46.039997,101671.0,1.2080196
365977058,-28.848845,46.039997,101672.0,1.2080315
365988052,-28.515913,46.039997,101668.0,1.207984
366010718,-28.352089,46.039997,101666.0,1.2079602
366021519,-28.515913,46.039997,101668.0,1.207984
366032364,-28.68502,46.039997,101669.99,1.2080077
366053410,-28.600466,46.039997,101669.0,1.2079959
366063138,-28.76429,46.039997,101671.0,1.2080196
366074040,-28.515913,46.039997,101668.0,1.207984
366096054,-28.68502,46.039997,101669.99,1.2080077
366106177,-28.436644,46.039997,101667.0,1.2079722
366117372,-28.10371,46.039997,101663.0,1.2079246
366139049,-28.9334,46.039997,101673.0,1.2080435
366150045,-28.600466,46.039997,101669.0,1.2079959
366160040,-28.68502,46.039997,101669.99,1.2080077
366182049,-28.600466,46.03,101669.0,1.2079959
366194509,-28.352089,46.03,101666.0,1.2079602
366205361,-28.267534,46.03,101665.0,1.2079483
366227125,-28.68502,46.03,101669.99,1.2080077
366238050,-28.848845,46.03,101672.0,1.2080315
366250364,-28.68502,46.03,101669.99,1.2080077
366272049,-28.600466,46.03,101669.0,1.2079959
366282366,-28.019156,46.03,101662.0,1.2079127
366293566,-28.352089,46.03,101666.0,1.2079602
366315200,-28.352089,46.03,101666.0,1.2079602
366326366,-28.267534,46.03,101665.0,1.2079483
366336040,-28.76429,46.03,101671.0,1.2080196
366357511,-28.436644,46.03,101667.0,1.2079722
366368351,-28.515913,46.03,101668.0,1.207984
366378382,-28.515913,46.03,101668.0,1.207984
366400141,-28.600466,46.039997,101669.0,1.2079959
366411124,-28.515913,46.039997,101668.0,1.207984
366421607,-28.352089,46.039997,101666.0,1.2079602
366442243,-28.019156,46.039997,101662.0,1.2079127
366453498,-28.267534,46.039997,101665.0,1.2079483
366464366,-28.515913,46.039997,101668.0,1.207984
366485407,-28.352089,46.039997,101666.0,1.2079602
366496045,-28.18298,46.039997,101663.99,1.2079364
366507116,-28.436644,46.039997,101667.0,1.2079722
366528045,-28.267534,46.039997,101665.0,1.2079483
366539121,-28.9334,46.039997,101673.0,1.2080435
366549792,-28.848845,46.039997,101672.0,1.2080315
366570658,-28.515913,46.039997,101668.0,1.207984
366581377,-28.436644,46.039997,101667.0,1.2079722
366592044,-28.515913,46.039997,101668.0,1.207984
366614045,-28.68502,46.039997,101669.99,1.2080077
366626630,-28.9334,46.039997,101673.0,1.2080435
366637426,-29.017954,46.039997,101674.0,1.2080553
366659121,-28.515913,46.039997,101668.0,1.207984
366670169,-29.097223,46.039997,101675.0,1.2080672
366681795,-29.017954,46.039997,101674.0,1.2080553
366703148,-28.848845,46.039997,101672.0,1.2080315
366714048,-28.848845,46.039997,101672.0,1.2080315
366725388,-28.10371,46.039997,101663.0,1.2079246
366746059,-28.600466,46.03,101669.0,1.2079959
366757567,-28.515913,46.03,101668.0,1.207984
366768353,-28.515913,46.03,101668.0,1.207984
366789512,-28.10371,46.039997,101663.0,1.2079246
366800050,-28.9334,46.039997,101673.0,1.2080435
366811137,-28.436644,46.039997,101667.0,1.2079722
366833045,-28.515913,46.03,101668.0,1.207984
366843104,-28.515913,46.03,101668.0,1.207984
366853557,-28.68502,46.03,101669.99,1.2080077
366875097,-28.9334,46.039997,101673.0,1.2080435
366886365,-28.436644,46.039997,101667.0,1.2079722
366896040,-28.76429,46.039997,101671.0,1.2080196
366918157,-28.515913,46.039997,101668.0,1.207984
366930383,-28.515913,46.039997,101668.0,1.207984
366940614,-28.848845,46.039997,101672.0,1.2080315
366961561,-28.68502,46.039997,101669.99,1.2080077
366972600,-27.855333,46.039997,101660.0,1.207889
366983091,-28.10371,46.039997,101663.0,1.2079246
367004773,-28.76429,46.039997,101671.0,1.2080196
367015097,-28.267534,46.039997,101665.0,1.2079483
367025344,-28.600466,46.039997,101669.0,1.2079959
367046045,-28.515913,46.039997,101668.0,1.207984
367057821,-28.18298,46.039997,101663.99,1.2079364
367068713,-28.600466,46.039997,101669.0,1.2079959
367089052,-28.515913,46.03,101668.0,1.207984
367100612,-28.267534,46.03,101665.0,1.2079483
367111094,-28.18298,46.03,101663.99,1.2079364
367132780,-28.352089,46.039997,101666.0,1.2079602
367143351,-28.267534,46.039997,101665.0,1.2079483
367153814,-28.019156,46.039997,101662.0,1.2079127
367174054,-28.267534,46.03,101665.0,1.2079483
367185560,-28.352089,46.03,101666.0,1.2079602
367195124,-27.934603,46.03,101661.0,1.2079009
367217047,-28.515913,46.039997,101668.0,1.207984
367228566,-28.600466,46.039997,101669.0,1.2079959
367239053,-28.68502,46.039997,101669.99,1.2080077
367261085,-28.352089,46.03,101666.0,1.2079602
367271162,-28.600466,46.03,101669.0,1.2079959
367282165,-28.515913,46.03,101668.0,1.207984
367303454,-28.352089,46.03,101666.0,1.2079602
367313640,-28.600466,46.03,101669.0,1.2079959
367324602,-28.352089,46.03,101666.0,1.2079602
367346045,-28.436644,46.039997,101667.0,1.2079722
367357045,-27.934603,46.039997,101661.0,1.2079009
367367131,-28.76429,46.039997,101671.0,1.2080196
367388584,-28.267534,46.039997,101665.0,1.2079483
367399351,-28.267534,46.039997,101665.0,1.2079483
367409852,-28.515913,46.039997,101668.0,1.207984
367431063,-28.436644,46.03,101667.0,1.2079722
367441823,-28.18298,46.03,101663.99,1.2079364
367452593,-28.10371,46.03,101663.0,1.2079246
367473046,-27.934603,46.03,101661.0,1.2079009
367484580,-28.18298,46.03,101663.99,1.2079364
367495096,-28.18298,46.03,101663.99,1.2079364
367516707,-28.267534,46.039997,101665.0,1.2079483
367527100,-28.515913,46.039997,101668.0,1.207984
367538048,-28.18298,46.039997,101663.99,1.2079364
367559061,-28.10371,46.039997,101663.0,1.2079246
367570045,-28.10371,46.039997,101663.0,1.2079246
367581092,-28.436644,46.039997,101667.0,1.2079722
367603407,-28.352089,46.03,101666.0,1.2079602
367614087,-28.18298,46.03,101663.99,1.2079364
367625049,-27.934603,46.03,101661.0,1.2079009
367646044,-28.10371,46.039997,101663.0,1.2079246
367657054,-28.76429,46.039997,101671.0,1.2080196
367668044,-28.352089,46.039997,101666.0,1.2079602
367690045,-28.019156,46.039997,101662.0,1.2079127
367701049,-28.68502,46.039997,101669.99,1.2080077
367712233,-28.10371,46.039997,101663.0,1.2079246
367734048,-28.267534,46.03,101665.0,1.2079483
