timestamp,magnetometer_ga[0],magnetometer_ga[1],magnetometer_ga[2]
349502266,-0.15094367,-0.17390735,0.3200854
349543066,-0.14214219,-0.1431538,0.32438427
349551884,-0.14919937,-0.13953847,0.32433215
349553466,-0.14922717,-0.13950782,0.33022165
349562285,-0.14922717,-0.13950782,0.33022165
349571882,-0.14922717,-0.13950782,0.33022165
349581468,-0.15099876,-0.15215388,0.33175156
349591079,-0.14919981,-0.15761524,0.3244262
349601466,-0.16511282,-0.1340771,0.33159086
349611088,-0.1545274,-0.15215388,0.3317349
349621466,-0.1456571,-0.15039983,0.32146046
349631067,-0.15271455,-0.15763056,0.32146478
349641466,-0.145671,-0.15038452,0.32440525
349651066,-0.1439136,-0.1485692,0.32587653
349661475,-0.1438996,-0.14496915,0.32291293
349671067,-0.1438996,-0.14496915,0.32291293
349681478,-0.1438996,-0.14496915,0.32291293
349690267,-0.15967432,-0.15050712,0.3007805
349701466,-0.14741443,-0.14859985,0.31997034
349710267,-0.15971638,-0.16492258,0.30969006
349721508,-0.14918593,-0.15763056,0.32148144
349730284,-0.15628451,-0.14312315,0.33020717
349741466,-0.15451305,-0.13409242,0.32869607
349750271,-0.14572634,-0.13947716,0.33612782
349761469,-0.15632631,-0.14669254,0.33906025
349770272,-0.1528115,-0.14306185,0.34200284
349779913,-0.1528115,-0.14306185,0.34200284
349789466,-0.1509845,-0.13770778,0.32873154
349799067,-0.1527142,-0.14316912,0.32138953
349809466,-0.15276997,-0.15033855,0.3332062
349819071,-0.14928296,-0.14667721,0.3420383
349829467,-0.14561558,-0.15767655,0.3126638
349839067,-0.1615564,-0.13410775,0.32571802
349849466,-0.17218453,-0.15575393,0.33461517
349859073,-0.14218417,-0.15395392,0.333275
349869466,-0.168614,-0.1485692,0.32575995
349879867,-0.168614,-0.1485692,0.32575995
349889467,-0.168614,-0.1485692,0.32575995
349898292,-0.1492138,-0.16121526,0.32738978
349909466,-0.16334195,-0.15035386,0.33021146
349918316,-0.16152886,-0.14498448,0.3198849
349929474,-0.1580562,-0.15938461,0.33175588
349938266,-0.14745587,-0.13770778,0.3287482
349949466,-0.15097068,-0.14133847,0.3258056
349958267,-0.15451322,-0.14132313,0.3287337
349969466,-0.15458263,-0.13763116,0.34343866
349978267,-0.14219762,-0.1358618,0.33612567
349997466,-0.14921309,-0.13229239,0.32723927
350007067,-0.15097068,-0.14133847,0.3258056
350017466,-0.14741452,-0.15221518,0.31998917
350027067,-0.1579865,-0.1522305,0.31699443
350037466,-0.14031564,-0.15587653,0.311207
350047066,-0.15443018,-0.15587653,0.31114036
350057466,-0.17211519,-0.16306126,0.319929
350067066,-0.15094306,-0.14859985,0.31995368
350077466,-0.1597441,-0.16127656,0.31556076
350087067,-0.14741452,-0.15221518,0.31998917
350097480,-0.14741452,-0.15221518,0.31998917
350107072,-0.14392811,-0.17386137,0.328953
350117466,-0.14562948,-0.15766121,0.3156086
350126267,-0.15625697,-0.1539999,0.32437408
350137466,-0.14218399,-0.1467232,0.33323735
350146268,-0.15458281,-0.14486188,0.3434763
350157466,-0.1510123,-0.13767713,0.33462104
350166267,-0.16161208,-0.13766181,0.33751583
350177466,-0.1580693,-0.12683105,0.33453128
350187111,-0.15276997,-0.15033855,0.3332062
350197466,-0.15978535,-0.1431538,0.32430097
350206268,-0.15978535,-0.1431538,0.32430097
350215067,-0.15627043,-0.13590777,0.32722476
350225512,-0.15632667,-0.16115397,0.3391355
350235066,-0.15095687,-0.14496915,0.32287964
350245466,-0.13682844,-0.14498448,0.3200015
350255067,-0.14924107,-0.1394925,0.33316642
350265466,-0.15452686,-0.13046175,0.331622
350275073,-0.15628478,-0.15396924,0.33026358
350285467,-0.15447125,-0.13052306,0.31984296
350296667,-0.1527836,-0.13947716,0.3360945
350305466,-0.14391297,-0.12326168,0.32574484
350315067,-0.14391297,-0.12326168,0.32574484
350324701,-0.15104018,-0.14126183,0.34052938
350334274,-0.15101266,-0.15213855,0.33469632
350344681,-0.15277006,-0.15395392,0.333225
350354267,-0.15274216,-0.15036918,0.3273167
350364666,-0.14924134,-0.15033855,0.33322287
350374267,-0.1439553,-0.14852321,0.3347108
350384666,-0.14749819,-0.1629693,0.33771417
350394266,-0.16157065,-0.14855386,0.328738
350404672,-0.14746968,-0.1340771,0.33167413
350414267,-0.16685632,-0.13590777,0.3271748
350424667,-0.16685632,-0.13590777,0.3271748
350433477,-0.13685624,-0.14495383,0.32589105
350444666,-0.14395495,-0.13406177,0.33463556
350453467,-0.15274198,-0.14313847,0.32727906
350464667,-0.15628451,-0.14312315,0.33020717
350473477,-0.14919937,-0.13953847,0.32433215
350484666,-0.16155675,-0.1485692,0.32579327
350504667,-0.15800023,-0.14498448,0.31990156
350513519,-0.14922726,-0.14312315,0.33024046
350524666,-0.15804203,-0.14855386,0.32875466
350533510,-0.15804203,-0.14855386,0.32875466
350542267,-0.15981324,-0.14673851,0.3302093
350552666,-0.15278351,-0.1358618,0.3360757
350562267,-0.14745605,-0.1449385,0.32878584
350572666,-0.14567055,-0.13230772,0.32431117
350582267,-0.16338348,-0.14307718,0.3390081
350592666,-0.14922708,-0.13589245,0.33020285
350602266,-0.15805593,-0.14853854,0.33169943
350612666,-0.14394122,-0.14130782,0.33172843
350622266,-0.14568436,-0.12867706,0.3272371
350632666,-0.15805602,-0.15215388,0.33171824
350643067,-0.15805602,-0.15215388,0.33171824
350652666,-0.1580283,-0.15579991,0.32584754
350661477,-0.14222614,-0.164754,0.34216568
350672666,-0.16331379,-0.1359231,0.3242467
350681506,-0.14392732,-0.14132313,0.32878366
350692666,-0.14922717,-0.13950782,0.33022165
350701480,-0.15625662,-0.13953847,0.32429883
350712666,-0.15801404,-0.14135379,0.32282752
350721522,-0.15098503,-0.15939993,0.32884443
350732666,-0.14747013,-0.15215388,0.3317682
350741468,-0.15272772,-0.12869239,0.32425904
350760666,-0.15977164,-0.15039983,0.32139385
350770266,-0.15104018,-0.14126183,0.34052938
350780666,-0.14924099,-0.13587713,0.3331476
350790267,-0.15975738,-0.13595375,0.31837383
350800666,-0.15802804,-0.14495383,0.3257911
350810267,-0.1597857,-0.15761524,0.32437626
350820666,-0.15802804,-0.14495383,0.3257911
350830267,-0.14215627,-0.15036918,0.32736665
350840666,-0.15638217,-0.15747732,0.35089573
350850266,-0.1562846,-0.14673851,0.33022597
350860667,-0.1562846,-0.14673851,0.33022597
350869505,-0.14396884,-0.13404645,0.3375803
350880666,-0.14924125,-0.1467232,0.33320403
350889519,-0.16162607,-0.14126183,0.3404794
350900666,-0.14921345,-0.14675383,0.32731453
350909472,-0.15627088,-0.15398456,0.32731885
350920666,-0.16509946,-0.15578458,0.32875898
350929507,-0.1563542,-0.15027724,0.3449686
350940666,-0.15804212,-0.1521692,0.3287735
350949509,-0.1474835,-0.13044642,0.3346001
350969468,-0.1474835,-0.13044642,0.3346001
350978267,-0.15271446,-0.15401521,0.32144597
350988666,-0.1456572,-0.15401521,0.3214793
350998267,-0.15804158,-0.13047707,0.3286606
351008666,-0.14744224,-0.1485692,0.32585987
351018301,-0.15271446,-0.15401521,0.32144597
351028677,-0.16158447,-0.14492318,0.33166397
351038268,-0.14572679,-0.15755394,0.3362219
351048666,-0.15454121,-0.14852321,0.33466083
351058302,-0.15452677,-0.12684639,0.3316032
351068667,-0.15452677,-0.12684639,0.3316032
351078280,-0.15452677,-0.12684639,0.3316032
351087879,-0.15804194,-0.1449385,0.32873586
351097467,-0.15276979,-0.14310783,0.33316857
351107872,-0.14922735,-0.14673851,0.3302593
351117474,-0.15451305,-0.13409242,0.32869607
351127889,-0.16687031,-0.13950782,0.33013836
351138266,-0.15099849,-0.14130782,0.3316951
351147866,-0.15982687,-0.13587713,0.33309764
351157466,-0.15098459,-0.14132313,0.32875034
351167866,-0.1457127,-0.15033855,0.3332395
351177467,-0.1457127,-0.15033855,0.3332395
351187867,-0.1457127,-0.15033855,0.3332395
351196667,-0.1598684,-0.12860043,0.34189427
351206316,-0.14742833,-0.14858451,0.3229151
351216667,-0.14746995,-0.14492318,0.33173057
351227895,-0.15627025,-0.12867706,0.32718715
351236667,-0.14919892,-0.121461675,0.32423806
351247866,-0.14931093,-0.15387729,0.34796548
351256667,-0.15806939,-0.13044642,0.3345501
351267866,-0.1580423,-0.15939993,0.3288111
351276667,-0.15447196,-0.15944591,0.31999347
351286268,-0.15447196,-0.15944591,0.31999347
351296668,-0.15447196,-0.15944591,0.31999347
351305467,-0.14924099,-0.13587713,0.3331476
351315866,-0.1404264,-0.13767713,0.33467102
351325467,-0.15634012,-0.14306185,0.34198618
351335876,-0.17225349,-0.13398515,0.3492261
351345467,-0.15274216,-0.15036918,0.3273167
351355866,-0.13858594,-0.15041517,0.31854904
351365466,-0.1668565,-0.14313847,0.32721242
351375866,-0.14745596,-0.14132313,0.328767
351385467,-0.15629895,-0.16479999,0.3332648
351395872,-0.15629895,-0.16479999,0.3332648
351406267,-0.15629895,-0.16479999,0.3332648
351415866,-0.15806957,-0.13767713,0.33458772
351424673,-0.16339765,-0.15390794,0.3420093
351435866,-0.14568481,-0.14675383,0.3273312
351444667,-0.13685624,-0.14495383,0.32589105
351455866,-0.1527141,-0.13955379,0.3213707
351464666,-0.15984087,-0.13947716,0.33606118
351475909,-0.14567082,-0.1431538,0.3243676
351484667,-0.14389978,-0.15219985,0.32295057
351495898,-0.15447196,-0.15944591,0.31999347
351504667,-0.15447196,-0.15944591,0.31999347
351523899,-0.1633137,-0.13230772,0.3242279
351533468,-0.15451296,-0.13047707,0.32867727
351543866,-0.14215627,-0.15036918,0.32736665
351553467,-0.1456849,-0.15036918,0.32735
351563880,-0.15628469,-0.15035386,0.33024478
351573466,-0.15272799,-0.13953847,0.3243155
351583873,-0.16336976,-0.15032321,0.33610097
351593466,-0.15984096,-0.1430925,0.33608
351603866,-0.1456709,-0.14676917,0.32438642
351614267,-0.1456709,-0.14676917,0.32438642
351623899,-0.1456709,-0.14676917,0.32438642
351632666,-0.14748403,-0.15213855,0.33471295
351643909,-0.15098467,-0.1449385,0.32876918
351652667,-0.15276988,-0.1467232,0.33318737
351663904,-0.16335586,-0.15033855,0.33315623
351672667,-0.14921336,-0.14313847,0.32729572
351683887,-0.16151486,-0.14138444,0.31692132
351692667,-0.15631232,-0.1430925,0.33609667
351703885,-0.15634048,-0.15752329,0.34206143
351712673,-0.15628469,-0.15035386,0.33024478
351731886,-0.14042684,-0.15575393,0.3347651
351741467,-0.15099885,-0.15576926,0.33177036
351751898,-0.15806983,-0.14852321,0.33464417
351761466,-0.15097068,-0.14133847,0.3258056
351771909,-0.15097095,-0.15218453,0.32586205
351781467,-0.1650434,-0.13776909,0.31688586
351791889,-0.15099885,-0.15576926,0.33177036
351801466,-0.15805611,-0.15576926,0.33173704
351811872,-0.16335559,-0.1394925,0.33309978
351822267,-0.14921363,-0.15398456,0.32735217
351831878,-0.14921363,-0.15398456,0.32735217
351840666,-0.15624246,-0.1287077,0.32129762
351851866,-0.16162634,-0.1521079,0.34053585
351860667,-0.15451322,-0.14132313,0.3287337
351871066,-0.15105408,-0.14124651,0.34347412
351880688,-0.15456882,-0.14126183,0.34051272
351891066,-0.14921354,-0.15036918,0.32733333
351900682,-0.16155666,-0.14495383,0.32577443
351911086,-0.15449932,-0.14133847,0.32578894
351920705,-0.16327228,-0.14319977,0.31545004
351931084,-0.15625697,-0.1539999,0.32437408
351940690,-0.15625697,-0.1539999,0.32437408
351951111,-0.16334133,-0.12504637,0.33007976
351959915,-0.1439136,-0.1485692,0.32587653
351971067,-0.15451331,-0.1449385,0.32875252
351979894,-0.16328609,-0.13956912,0.31837597
351991084,-0.15981315,-0.14312315,0.3301905
351999867,-0.1474981,-0.15935396,0.33769536
352011066,-0.1439692,-0.1485079,0.33765557
352019866,-0.15449968,-0.15579991,0.3258642
352031073,-0.14749748,-0.13404645,0.33756363
352039900,-0.15801413,-0.14496915,0.32284632
352049469,-0.15801413,-0.14496915,0.32284632
352059066,-0.14744215,-0.14495383,0.32584107
352068694,-0.16155657,-0.14133847,0.32575563
352079066,-0.15099849,-0.14130782,0.3316951
352088701,-0.15447125,-0.13052306,0.31984296
352099084,-0.14217027,-0.15396924,0.33033022
352108692,-0.15986858,-0.13583115,0.34193188
352119073,-0.15981324,-0.14673851,0.3302093
352128704,-0.14568445,-0.13229239,0.32725593
352139066,-0.1721561,-0.13047707,0.32859397
352148705,-0.1721561,-0.13047707,0.32859397
352159067,-0.1721561,-0.13047707,0.32859397
352167867,-0.15099849,-0.14130782,0.3316951
352179066,-0.17214264,-0.1485692,0.3257433
352187867,-0.15104018,-0.14126183,0.34052938
352199066,-0.16150087,-0.1377844,0.31395778
352207897,-0.14212821,-0.13955379,0.32142067
352219067,-0.15451322,-0.14132313,0.3287337
352227867,-0.15454121,-0.14852321,0.33466083
352238267,-0.1545551,-0.1485079,0.3376056
352247866,-0.14925516,-0.14670786,0.3361488
352267867,-0.14925516,-0.14670786,0.3361488
352276682,-0.16159846,-0.14852321,0.3346275
352287104,-0.1563124,-0.14670786,0.33611548
352296697,-0.15274234,-0.15759991,0.3273543
352307066,-0.15105417,-0.14486188,0.34349295
352316700,-0.14569889,-0.15396924,0.33031356
352327077,-0.15452713,-0.14130782,0.33167845
352336696,-0.15629832,-0.1394925,0.3331331
352347066,-0.15274225,-0.15398456,0.3273355
352356703,-0.14744233,-0.15218453,0.3258787
352367073,-0.14744233,-0.15218453,0.3258787
352375885,-0.1510123,-0.13767713,0.33462104
352387067,-0.14391387,-0.15941526,0.32593298
352395869,-0.15982741,-0.15756927,0.3332105
352407066,-0.14392759,-0.1521692,0.3288401
352415867,-0.16509946,-0.15578458,0.32875898
352427066,-0.14394131,-0.14492318,0.33174723
352435891,-0.15444353,-0.13416904,0.31397226
352447066,-0.14918557,-0.14316912,0.3214062
352455866,-0.15809762,-0.14849256,0.3405337
352467066,-0.16155657,-0.14133847,0.32575563
352475867,-0.16155657,-0.14133847,0.32575563
352484673,-0.1598684,-0.12860043,0.34189427
352495066,-0.14571252,-0.14310783,0.3332019
352504667,-0.1439275,-0.14855386,0.3288213
352515066,-0.14925516,-0.14670786,0.3361488
352524667,-0.13507158,-0.16486128,0.32158569
352535066,-0.15801395,-0.13773844,0.32280868
352544667,-0.15625688,-0.15038452,0.32435527
352555067,-0.14749774,-0.14489253,0.33762008
352564667,-0.1438996,-0.14496915,0.32291293
352575066,-0.13682835,-0.14136912,0.31998268
352585500,-0.13682835,-0.14136912,0.31998268
352595085,-0.13685606,-0.13772312,0.3258534
352603867,-0.14744242,-0.15579991,0.3258975
352615066,-0.14569871,-0.14673851,0.33027595
352623879,-0.15099867,-0.14853854,0.33173275
352634266,-0.1456849,-0.15036918,0.32735
352643867,-0.14922708,-0.13589245,0.33020285
352655066,-0.15982723,-0.15033855,0.3331729
352664666,-0.16158411,-0.13046175,0.3315887
352675066,-0.15452722,-0.14492318,0.33169726
352683885,-0.15972975,-0.1432151,0.3125219
352694267,-0.15972975,-0.1432151,0.3125219
352703067,-0.16681471,-0.13956912,0.31835932
352713506,-0.15979934,-0.14675383,0.32726455
352723067,-0.165127,-0.14490785,0.33459204
352734269,-0.14924107,-0.1394925,0.33316642
352743066,-0.16155702,-0.15941526,0.3258497
352754286,-0.15095714,-0.15581523,0.3229361
352763076,-0.16864163,-0.14130782,0.3316118
352774310,-0.14744197,-0.13772312,0.32580346
352783067,-0.1544716,-0.14498448,0.31991822
352792667,-0.1544716,-0.14498448,0.31991822
352803067,-0.1544716,-0.14498448,0.31991822
352811867,-0.165127,-0.14490785,0.33459204
352822266,-0.15449905,-0.1304924,0.3257325
352831867,-0.1474835,-0.13044642,0.3346001
352842266,-0.14918548,-0.13955379,0.32138735
352851909,-0.1315425,-0.14678448,0.3215083
352862266,-0.14744197,-0.13772312,0.32580346
352871884,-0.1562846,-0.14673851,0.33022597
352882267,-0.16158438,-0.14130782,0.33164513
352891893,-0.14918575,-0.15039983,0.3214438
352902315,-0.14918575,-0.15039983,0.3214438
352911867,-0.14918575,-0.15039983,0.3214438
352922289,-0.15449959,-0.15218453,0.3258454
352931082,-0.15981324,-0.14673851,0.3302093
352942308,-0.14392723,-0.13770778,0.32876486
352951067,-0.16334142,-0.12866174,0.33009857
352962266,-0.15276988,-0.1467232,0.33318737
352971067,-0.1562846,-0.14673851,0.33022597
352982266,-0.13684243,-0.14858451,0.3229651
352991067,-0.15975755,-0.14318445,0.31841144
353002266,-0.14744188,-0.13410775,0.32578462
353011086,-0.14744188,-0.13410775,0.32578462
353019893,-0.13862772,-0.15398456,0.32740214
353030270,-0.1492269,-0.12866174,0.3301652
353039881,-0.16158438,-0.14130782,0.33164513
353050300,-0.15454103,-0.14129248,0.33462322
353059914,-0.16684277,-0.15038452,0.3243053
353070268,-0.15628451,-0.14312315,0.33020717
353079867,-0.1633555,-0.13587713,0.33308098
353090310,-0.14391333,-0.13772312,0.3258201
353099867,-0.15977146,-0.14316912,0.3213562
353110283,-0.1456849,-0.15036918,0.32735
353120667,-0.1456849,-0.15036918,0.32735
353130273,-0.15802804,-0.14495383,0.3257911
353139077,-0.15282486,-0.12135439,0.34483472
353150266,-0.16152894,-0.14859985,0.31990373
353159067,-0.15625697,-0.1539999,0.32437408
353170266,-0.14924107,-0.1394925,0.33316642
353179068,-0.13504323,-0.14319977,0.3155833
353190266,-0.15099849,-0.14130782,0.3316951
353199066,-0.14919963,-0.15038452,0.3243886
353210266,-0.16332787,-0.14313847,0.32722908
353219067,-0.14742815,-0.14135379,0.32287747
353238294,-0.13862719,-0.13229239,0.32728925
353247867,-0.15271401,-0.13593842,0.3213519
353258287,-0.15448542,-0.14135379,0.32284415
353267867,-0.16161235,-0.1485079,0.33757228
353278305,-0.15804212,-0.1521692,0.3287735
353287866,-0.16330017,-0.14678448,0.32135835
353298266,-0.16155657,-0.14133847,0.32575563
353307866,-0.15449923,-0.13772312,0.32577014
353318285,-0.1421284,-0.14678448,0.3214583
353327914,-0.14742807,-0.13773844,0.32285866
353338267,-0.14742807,-0.13773844,0.32285866
353347067,-0.1544856,-0.14858451,0.3228818
353358266,-0.15272808,-0.1431538,0.3243343
353367067,-0.14919981,-0.15761524,0.3244262
353378266,-0.1633555,-0.13587713,0.33308098
353387067,-0.15275544,-0.12504637,0.33012974
353397466,-0.14391324,-0.13410775,0.32580128
353407099,-0.15092942,-0.15946123,0.3170654
353417512,-0.14918566,-0.14678448,0.321425
353427110,-0.1527418,-0.13590777,0.32724142
353437467,-0.1527418,-0.13590777,0.32724142
353447085,-0.1527418,-0.13590777,0.32724142
353457470,-0.15988258,-0.1394312,0.34489548
353466270,-0.1633277,-0.13590777,0.32719144
353477466,-0.16511291,-0.13769247,0.33160967
353486267,-0.15105426,-0.14847724,0.34351176
353495911,-0.1509845,-0.13770778,0.32873154
353506267,-0.16688448,-0.15033855,0.33313957
353516706,-0.15449932,-0.14133847,0.32578894
353526267,-0.16155693,-0.15579991,0.32583088
353537467,-0.13859966,-0.14316912,0.32145613
353546267,-0.13859966,-0.14316912,0.32145613
353555115,-0.15445752,-0.13776909,0.31693584
353565466,-0.16158429,-0.13769247,0.33162633
353575075,-0.14744188,-0.13410775,0.32578462
353585466,-0.15094306,-0.14859985,0.31995368
353595093,-0.16857238,-0.1522305,0.31694448
353605466,-0.14919946,-0.1431538,0.32435095
353615102,-0.16157065,-0.14855386,0.328738
353625466,-0.15097113,-0.15941526,0.32589966
353635066,-0.15627079,-0.15036918,0.32730004
353645466,-0.14039868,-0.14132313,0.32880032
353655067,-0.14039868,-0.14132313,0.32880032
353665466,-0.14568463,-0.13952313,0.32729355
353674267,-0.14565657,-0.1287077,0.32134756
353685466,-0.15978552,-0.15038452,0.32433861
353694275,-0.15099867,-0.14853854,0.33173275
353705466,-0.15449977,-0.15941526,0.32588303
353714267,-0.1527558,-0.13950782,0.330205
353725466,-0.1439136,-0.1485692,0.32587653
353734267,-0.15808381,-0.15212323,0.33760774
353745472,-0.15455483,-0.13766181,0.33754915
353754267,-0.15455483,-0.13766181,0.33754915
353763888,-0.15455483,-0.13766181,0.33754915
353773466,-0.14569853,-0.13950782,0.3302383
353783072,-0.14921327,-0.13952313,0.3272769
353793466,-0.16512717,-0.15213855,0.33462968
353803869,-0.14918566,-0.14678448,0.321425
353813466,-0.1421561,-0.14313847,0.32732904
353823073,-0.14918566,-0.14678448,0.321425
353833466,-0.14568481,-0.14675383,0.3273312
353843070,-0.1562846,-0.14673851,0.33022597
353853466,-0.14044037,-0.14127716,0.3376346
353863867,-0.14044037,-0.14127716,0.3376346
353873466,-0.15274198,-0.14313847,0.32727906
353882267,-0.15804176,-0.13770778,0.32869822
353893466,-0.15274163,-0.12867706,0.3272038
353902268,-0.1545134,-0.14855386,0.32877132
353913472,-0.14741407,-0.1341384,0.3198951
353922267,-0.15627043,-0.13590777,0.32722476
353933505,-0.15454094,-0.13767713,0.33460438
353942267,-0.15099858,-0.14492318,0.3317139
353953498,-0.16157056,-0.1449385,0.3287192
353962266,-0.1474425,-0.15941526,0.32591632
353971932,-0.1474425,-0.15941526,0.32591632
353981466,-0.15449959,-0.15218453,0.3258454
353991067,-0.16334195,-0.15035386,0.33021146
354001466,-0.15452722,-0.14492318,0.33169726
354011067,-0.14041294,-0.15576926,0.33182034
354021466,-0.15806983,-0.14852321,0.33464417
354031084,-0.16157039,-0.13770778,0.32868156
354041466,-0.15098467,-0.1449385,0.32876918
354051102,-0.15275571,-0.13589245,0.3301862
354061466,-0.15449932,-0.14133847,0.32578894
354071867,-0.15449932,-0.14133847,0.32578894
354081479,-0.15449932,-0.14133847,0.32578894
354090267,-0.15275615,-0.15396924,0.33028024
354101469,-0.15802795,-0.14133847,0.3257723
354110270,-0.14568499,-0.15398456,0.32736883
354121466,-0.15802822,-0.15218453,0.32582873
354130271,-0.14926906,-0.14669254,0.33909354
354141485,-0.1650991,-0.14132313,0.32868373
354150267,-0.15098494,-0.15578458,0.32882562
354161482,-0.14398256,-0.1268004,0.34048742
354170267,-0.1544856,-0.14858451,0.3228818
354180705,-0.1544856,-0.14858451,0.3228818
354189466,-0.1579727,-0.1558612,0.3140685
354199084,-0.15806966,-0.14129248,0.33460656
354209466,-0.14212848,-0.15039983,0.32147712
354219102,-0.15801413,-0.14496915,0.32284632
354229466,-0.15982652,-0.1214157,0.33302236
354239093,-0.15984078,-0.1358618,0.33604237
354249487,-0.15449914,-0.13410775,0.3257513
354260667,-0.1527697,-0.1394925,0.33314976
354269481,-0.16335559,-0.1394925,0.33309978
354280667,-0.15452713,-0.14130782,0.33167845
354298275,-0.15098414,-0.12324636,0.3286563
354308698,-0.14741425,-0.14136912,0.31993273
354318266,-0.14921363,-0.15398456,0.32735217
354328669,-0.16152903,-0.15221518,0.31992254
354338266,-0.15274225,-0.15398456,0.3273355
354348678,-0.16154276,-0.14496915,0.32282966
354358266,-0.13685606,-0.13772312,0.3258534
354368666,-0.14925498,-0.13947716,0.33611116
354378267,-0.1562846,-0.14673851,0.33022597
354388667,-0.1562846,-0.14673851,0.33022597
354398267,-0.1562846,-0.14673851,0.33022597
354408666,-0.16154285,-0.14858451,0.32284847
354417495,-0.14389978,-0.15219985,0.32295057
354427866,-0.15098494,-0.15578458,0.32882562
354437476,-0.15805593,-0.14853854,0.33169943
354448666,-0.1422117,-0.14307718,0.33910805
354457501,-0.16336949,-0.13947716,0.33604452
354468666,-0.16858584,-0.1341384,0.31979516
354477514,-0.15804194,-0.1449385,0.32873586
354488666,-0.15802768,-0.1304924,0.32571584
354497500,-0.15802768,-0.1304924,0.32571584
354506267,-0.16682862,-0.13955379,0.32130408
354516666,-0.17038542,-0.15398456,0.3272522
354526266,-0.15274198,-0.14313847,0.32727906
354536666,-0.1668704,-0.14312315,0.3301572
354546268,-0.15981297,-0.13589245,0.33015287
354556666,-0.1509845,-0.13770778,0.32873154
354566267,-0.15801422,-0.14858451,0.32286513
354576666,-0.14217,-0.14312315,0.33027378
354586266,-0.15620084,-0.13236903,0.31248212
354596667,-0.15620084,-0.13236903,0.31248212
354607067,-0.15620084,-0.13236903,0.31248212
354616666,-0.15275571,-0.13589245,0.3301862
354625480,-0.1528115,-0.14306185,0.34200284
354636666,-0.15098476,-0.14855386,0.32878798
354645492,-0.15092906,-0.1449998,0.31699014
354656666,-0.14744233,-0.15218453,0.3258787
354665483,-0.14571244,-0.1394925,0.33318308
354676666,-0.14569835,-0.13227707,0.33020067
354685499,-0.14748394,-0.14852321,0.33469415
354696666,-0.15977155,-0.14678448,0.321375
354705479,-0.15977155,-0.14678448,0.321375
354714267,-0.14211449,-0.14679982,0.31851354
354724666,-0.14217009,-0.14673851,0.3302926
354734267,-0.14919972,-0.1539999,0.3244074
354744689,-0.14921327,-0.13952313,0.3272769
354754270,-0.1509706,-0.13772312,0.3257868
354764666,-0.1563125,-0.15032321,0.33613428
354774267,-0.14572634,-0.13947716,0.33612782
354784666,-0.1456709,-0.14676917,0.32438642
354794267,-0.16331397,-0.1431538,0.32428434
354804667,-0.16331397,-0.1431538,0.32428434
354815067,-0.16331397,-0.1431538,0.32428434
354824666,-0.14568481,-0.14675383,0.3273312
354833498,-0.15104045,-0.1521079,0.34058583
354844666,-0.14753945,-0.14484656,0.34645438
354853468,-0.14389952,-0.14135379,0.32289413
354864666,-0.15275589,-0.14312315,0.3302238
354873499,-0.14926906,-0.14669254,0.33909354
354884666,-0.1510123,-0.13767713,0.33462104
354893467,-0.1474278,-0.12689236,0.32280222
354904683,-0.15451305,-0.13409242,0.32869607
354922269,-0.15628442,-0.13950782,0.33018833
354932666,-0.15099831,-0.1340771,0.33165747
354943067,-0.14572652,-0.14670786,0.33616546
354952666,-0.15454112,-0.14490785,0.33464202
354963867,-0.17217036,-0.14492318,0.331614
354972668,-0.14919946,-0.1431538,0.32435095
354983867,-0.14745632,-0.15578458,0.32884228
354992680,-0.1544995,-0.1485692,0.3258266
355003867,-0.15098459,-0.14132313,0.32875034
355012667,-0.15451314,-0.13770778,0.32871488
355022328,-0.15451314,-0.13770778,0.32871488
355031866,-0.13865526,-0.14310783,0.3332352
355041466,-0.15802795,-0.14133847,0.3257723
355051866,-0.14391342,-0.14133847,0.32583892
355061467,-0.15097095,-0.15218453,0.32586205
355071866,-0.15271446,-0.15401521,0.32144597
355081467,-0.14218363,-0.13226175,0.3331621
355091888,-0.1545413,-0.15213855,0.33467966
355101466,-0.14915785,-0.14681514,0.3155355
355111866,-0.13865562,-0.15756927,0.33331046
355121467,-0.13865562,-0.15756927,0.33331046
355131867,-0.13865562,-0.15756927,0.33331046
355140667,-0.15806957,-0.13767713,0.33458772
355151867,-0.1527142,-0.14316912,0.32138953
355160667,-0.16334133,-0.12504637,0.33007976
355171867,-0.14741398,-0.13052306,0.31987628
355180670,-0.14919972,-0.1539999,0.3244074
355191867,-0.14918566,-0.14678448,0.321425
355201467,-0.14924116,-0.14310783,0.33318523
355211867,-0.15274198,-0.14313847,0.32727906
355220666,-0.16687049,-0.14673851,0.330176
355230303,-0.16687049,-0.14673851,0.330176
355239866,-0.14738707,-0.16670725,0.31417492
355249483,-0.1668982,-0.1430925,0.3360467
355259884,-0.16511282,-0.1340771,0.33159086
355269466,-0.14218381,-0.1394925,0.3331997
355279866,-0.15274198,-0.14313847,0.32727906
355289473,-0.14921354,-0.15036918,0.32733333
355299866,-0.14922753,-0.15396924,0.3302969
355309467,-0.16514044,-0.12681574,0.33744273
355319866,-0.13865535,-0.1467232,0.333254
355330267,-0.13865535,-0.1467232,0.333254
355339867,-0.13865535,-0.1467232,0.333254
355348666,-0.13859957,-0.13955379,0.32143733
355359866,-0.1457128,-0.15395392,0.33325833
355368667,-0.15095678,-0.14135379,0.3228608
355379866,-0.16685659,-0.14675383,0.32723126
355388667,-0.14389996,-0.15943058,0.3229882
355399870,-0.1562707,-0.14675383,0.3272812
355408673,-0.15804203,-0.14855386,0.32875466
355419866,-0.15804167,-0.13409242,0.3286794
355428701,-0.1668843,-0.14310783,0.33310193
355447866,-0.15447134,-0.1341384,0.31986177
355457467,-0.14744206,-0.14133847,0.32582226
355467866,-0.14041258,-0.14130782,0.3317451
355477467,-0.13857248,-0.16850728,0.31569836
355487866,-0.14574024,-0.13946185,0.3390726
355497467,-0.15974374,-0.14681514,0.3154855
355507866,-0.16685632,-0.13590777,0.3271748
355517467,-0.1668843,-0.14310783,0.33310193
355527866,-0.15272817,-0.14676917,0.32435313
355538267,-0.15272817,-0.14676917,0.32435313
355547867,-0.15272817,-0.14676917,0.32435313
355556667,-0.16154258,-0.13773844,0.32279202
355567899,-0.1421284,-0.14678448,0.3214583
355576672,-0.14385808,-0.15224582,0.3141163
355587866,-0.14748377,-0.14129248,0.33465654
355596667,-0.1685862,-0.14859985,0.3198704
355607890,-0.15275589,-0.14312315,0.3302238
355616667,-0.14921336,-0.14313847,0.32729572
355627876,-0.14214219,-0.1431538,0.32438427
355636667,-0.13684261,-0.15581523,0.3230027
355656667,-0.13684261,-0.15581523,0.3230027
355665467,-0.17041296,-0.14310783,0.33308527
355675866,-0.15458272,-0.14124651,0.34345746
355685466,-0.1562429,-0.14678448,0.32139167
355695866,-0.1563124,-0.14670786,0.33611548
355705467,-0.14925516,-0.14670786,0.3361488
355715866,-0.15802813,-0.1485692,0.32580993
355726267,-0.16161217,-0.14127716,0.33753464
355735880,-0.15802804,-0.14495383,0.3257911
355747066,-0.165113,-0.14130782,0.33162847
355755867,-0.165113,-0.14130782,0.33162847
355765466,-0.15102628,-0.14127716,0.3375846
355775066,-0.14745596,-0.14132313,0.328767
355784667,-0.14041267,-0.14492318,0.3317639
355795084,-0.14567082,-0.1431538,0.3243676
355804666,-0.16331406,-0.14676917,0.32430315
355815090,-0.1509845,-0.13770778,0.32873154
355824667,-0.1509288,-0.13415372,0.3169337
355835076,-0.15447134,-0.1341384,0.31986177
355844667,-0.14385799,-0.14863048,0.3140975
355855066,-0.17039897,-0.13950782,0.33012173
355864667,-0.17039897,-0.13950782,0.33012173
355875067,-0.15097077,-0.14495383,0.3258244
355883867,-0.14914386,-0.1432151,0.31257188
355895066,-0.15276988,-0.1467232,0.33318737
355903872,-0.15272817,-0.14676917,0.32435313
355915066,-0.16336976,-0.15032321,0.33610097
355923912,-0.14388561,-0.14136912,0.3199494
355935067,-0.14742807,-0.13773844,0.32285866
355943899,-0.15278378,-0.14670786,0.33613214
355955066,-0.15276979,-0.14310783,0.33316857
355963875,-0.15276979,-0.14310783,0.33316857
355973467,-0.15276979,-0.14310783,0.33316857
355983066,-0.1580283,-0.15579991,0.32584754
355992667,-0.14565702,-0.14678448,0.32144165
356003071,-0.15801431,-0.15219985,0.32288393
356012667,-0.15802804,-0.14495383,0.3257911
356023075,-0.15631214,-0.1358618,0.33605903
356032667,-0.13865535,-0.1467232,0.333254
356043066,-0.15801449,-0.15943058,0.32292157
356052667,-0.14745632,-0.15578458,0.32884228
356063066,-0.14568445,-0.13229239,0.32725593
356073467,-0.14568445,-0.13229239,0.32725593
356083073,-0.14568445,-0.13229239,0.32725593
356091869,-0.1492139,-0.16483063,0.3274086
356103067,-0.15628442,-0.13950782,0.33018833
356111875,-0.15801431,-0.15219985,0.32288393
356123066,-0.16336967,-0.14670786,0.33608216
356131899,-0.15632613,-0.13946185,0.3390226
356143073,-0.15452695,-0.1340771,0.3316408
356151867,-0.15449923,-0.13772312,0.32577014
356163067,-0.14032935,-0.14863048,0.31411415
356171867,-0.15982687,-0.13587713,0.33309764
356191867,-0.15982687,-0.13587713,0.33309764
356200668,-0.16159846,-0.14852321,0.3346275
356211066,-0.1544856,-0.14858451,0.3228818
356220667,-0.14214228,-0.14676917,0.32440308
356231066,-0.15624264,-0.13593842,0.32133523
356240676,-0.14392705,-0.13047707,0.32872722
356251066,-0.1633416,-0.13589245,0.3301362
356260677,-0.15452704,-0.13769247,0.33165964
356271073,-0.15804203,-0.14855386,0.32875466
356280692,-0.14391306,-0.12687704,0.32576364
356291067,-0.14391306,-0.12687704,0.32576364
356299875,-0.15098467,-0.1449385,0.32876918
356311066,-0.16507111,-0.13412307,0.32275656
356319867,-0.15097041,-0.1304924,0.32574916
356331072,-0.14919919,-0.13230772,0.3242945
356339866,-0.1439275,-0.14855386,0.3288213
356351067,-0.1545273,-0.14853854,0.3317161
356359873,-0.1562291,-0.15041517,0.31846574
356371066,-0.1315426,-0.15039983,0.3215271
356379880,-0.14214201,-0.1359231,0.32434663
356391066,-0.14568463,-0.13952313,0.32729355
356399885,-0.14568463,-0.13952313,0.32729355
356408692,-0.15098423,-0.1268617,0.3286751
356419066,-0.14748394,-0.14852321,0.33469415
356428699,-0.15448612,-0.17027664,0.32299468
356439066,-0.16325802,-0.12875369,0.31243
356448673,-0.156229,-0.14679982,0.31844693
356459066,-0.13684198,-0.13050772,0.322871
356468707,-0.15804185,-0.14132313,0.32871705
356479067,-0.15276979,-0.14310783,0.33316857
356489477,-0.14565746,-0.16486128,0.3215357
356499066,-0.15618765,-0.16130722,0.30968788
356509479,-0.15618765,-0.16130722,0.30968788
356519066,-0.15094243,-0.123292334,0.31982198
356527867,-0.14918566,-0.14678448,0.321425
356539066,-0.1527002,-0.13956912,0.31842595
356547880,-0.15624273,-0.13955379,0.32135406
356559072,-0.14211458,-0.15041517,0.31853238
356567884,-0.16866924,-0.13404645,0.3374637
356579066,-0.15095705,-0.15219985,0.32291725
356587890,-0.1580422,-0.15578458,0.3287923
356599066,-0.15272835,-0.1539999,0.32439074
356607867,-0.15272835,-0.1539999,0.32439074
356618288,-0.15272835,-0.1539999,0.32439074
356627067,-0.16330017,-0.14678448,0.32135835
356638269,-0.15974383,-0.15043049,0.3155043
356647067,-0.1403846,-0.13410775,0.32581794
356658300,-0.14925542,-0.15755394,0.33620524
356667067,-0.15800005,-0.13775377,0.31986395
356678286,-0.15979925,-0.14313847,0.32724574
356687066,-0.16509883,-0.13047707,0.3286273
356698300,-0.15274163,-0.12867706,0.3272038
356707067,-0.15977155,-0.14678448,0.321375
356716667,-0.15977155,-0.14678448,0.321375
356727067,-0.15977155,-0.14678448,0.321375
356735884,-0.14921363,-0.15398456,0.32735217
356746266,-0.15981288,-0.13227707,0.33013406
356755867,-0.14914386,-0.1432151,0.31257188
356766269,-0.15270047,-0.15041517,0.3184824
356775869,-0.1421561,-0.14313847,0.32732904
356786288,-0.14922735,-0.14673851,0.3302593
356795866,-0.1739553,-0.1358618,0.33597574
356806271,-0.15802804,-0.14495383,0.3257911
356815866,-0.16684268,-0.14676917,0.3242865
356826279,-0.16684268,-0.14676917,0.3242865
356835867,-0.16684268,-0.14676917,0.3242865
356846266,-0.14740035,-0.14138444,0.31698796
356855067,-0.1562151,-0.14681514,0.31550217
356866281,-0.15267248,-0.1432151,0.31255522
356875072,-0.16148698,-0.13779974,0.31101298
356886301,-0.1544716,-0.14498448,0.31991822
356895067,-0.142156,-0.13952313,0.3273102
356906284,-0.15800014,-0.14136912,0.31988275
356915066,-0.16508546,-0.15218453,0.3257954
356926296,-0.1544856,-0.14858451,0.3228818
356935067,-0.1544856,-0.14858451,0.3228818
356943867,-0.14388597,-0.15583056,0.32002464
356954273,-0.14388543,-0.1341384,0.31991175
356963867,-0.15617304,-0.13239968,0.3065926
356974276,-0.1509566,-0.13412307,0.3228232
356983867,-0.15085948,-0.14146106,0.30224746
356994309,-0.1561734,-0.14686112,0.30666786
357003866,-0.14912996,-0.14323042,0.30962712
357014304,-0.15267257,-0.14683047,0.31257403
357023885,-0.16151495,-0.1449998,0.31694016
357034306,-0.1544578,-0.14861517,0.31699228
357044667,-0.1544578,-0.14861517,0.31699228
357054306,-0.16325864,-0.1540612,0.3125617
357063067,-0.15268648,-0.14681514,0.31551883
357074309,-0.16505739,-0.14136912,0.31984943
357083073,-0.15261687,-0.14327641,0.30077618
357094292,-0.15978508,-0.13230772,0.32424456
357103067,-0.1438718,-0.1449998,0.31702343
357114291,-0.15444389,-0.14863048,0.31404752
357123067,-0.16853069,-0.15227647,0.30811018
357134266,-0.1544438,-0.14501512,0.3140287
357143066,-0.14740062,-0.1522305,0.3170444
357162307,-0.15265849,-0.13961509,0.30959165
357171867,-0.14911605,-0.14324576,0.30668238
357182301,-0.15794472,-0.14866114,0.30814132
357191885,-0.1420865,-0.13959977,0.3125864
357202289,-0.15798624,-0.14138444,0.31693798
357211867,-0.15267275,-0.1540612,0.31261167
357222277,-0.16675928,-0.14686112,0.30661792
357231867,-0.15618712,-0.13961509,0.309575
357242283,-0.15268692,-0.16489193,0.3156129
357251866,-0.16678718,-0.15044582,0.31252623
357262267,-0.16678718,-0.15044582,0.31252623
357271066,-0.15090172,-0.16310723,0.31119466
357282266,-0.14906064,-0.15053776,0.29494095
357291066,-0.1456014,-0.14684579,0.3096626
357301466,-0.1349183,-0.15056841,0.28911805
357311067,-0.15620111,-0.1432151,0.31253856
357321466,-0.15265903,-0.16130722,0.30970454
357331071,-0.15614559,-0.14689177,0.30077833
357342266,-0.14198956,-0.15416847,0.2920483
357351067,-0.145518,-0.14693774,0.291994
357362266,-0.15261723,-0.15773785,0.30085143
357371068,-0.15261723,-0.15773785,0.30085143
357381467,-0.16675946,-0.15409185,0.30665553
357390299,-0.16148698,-0.13779974,0.31101298
357401467,-0.17024633,-0.15052244,0.29778576
357410267,-0.15088719,-0.13781506,0.3081182
357421466,-0.15433241,-0.13790701,0.29043296
357430267,-0.15264468,-0.14324576,0.30666572
357441483,-0.1578476,-0.15599914,0.28756562
357450266,-0.15254782,-0.16142982,0.28614646
357461472,-0.14911605,-0.14324576,0.30668238
357470267,-0.15440193,-0.13783039,0.3051568
357479867,-0.15440193,-0.13783039,0.3051568
357489477,-0.1579726,-0.15224582,0.3140497
357499073,-0.1473173,-0.15593784,0.29939464
357509466,-0.15963271,-0.15416847,0.291965
357519067,-0.13670333,-0.14512241,0.29349867
357529466,-0.14726153,-0.14876842,0.28757796
357539087,-0.16316143,-0.15778382,0.29196718
357549472,-0.14380257,-0.1559225,0.30235606
357559118,-0.14897704,-0.143399,0.27723473
357569471,-0.13847482,-0.15415314,0.29500973
357579076,-0.1472618,-0.15961449,0.2876344
357589472,-0.1472618,-0.15961449,0.2876344
357598267,-0.14369118,-0.1488144,0.2787603
357609508,-0.16317497,-0.14330705,0.2948367
357618267,-0.16145936,-0.1450611,0.30516112
357629469,-0.14546275,-0.16146047,0.28029022
357638267,-0.14020461,-0.16322984,0.28768653
357649497,-0.1507619,-0.13072227,0.2815777
357658267,-0.15420732,-0.13804494,0.2639301
357669513,-0.14726117,-0.13430698,0.2875027
357678267,-0.14014837,-0.13798364,0.2757758
357689496,-0.14900494,-0.14698371,0.2831431
357698280,-0.14900494,-0.14698371,0.2831431
357707106,-0.15434667,-0.15235311,0.293453
357717466,-0.14017671,-0.15964513,0.2817782
357727078,-0.156076,-0.14335303,0.28603572
357737466,-0.16313308,-0.13612233,0.2859648
357747108,-0.15076217,-0.14156833,0.28163412
357757466,-0.12957692,-0.15966046,0.2788834
357767073,-0.14897686,-0.1361683,0.27719712
357777484,-0.15609017,-0.15418379,0.28903693
357787067,-0.15426336,-0.15606043,0.27580324
357797474,-0.15426336,-0.15606043,0.27580324
357807871,-0.15426336,-0.15606043,0.27580324
357817473,-0.14367755,-0.15967578,0.27587202
357826277,-0.15954913,-0.1470297,0.27425882
357837466,-0.14378893,-0.16678388,0.29946774
357846267,-0.14549074,-0.16866054,0.2862174
357857466,-0.16323066,-0.14686112,0.30663458
357866267,-0.12967405,-0.15232246,0.2994591
357877466,-0.16844691,-0.13790701,0.29036632
357886267,-0.13487606,-0.12892227,0.28017086
357897466,-0.13836405,-0.17235251,0.27154568
357906276,-0.13836405,-0.17235251,0.27154568
357925509,-0.13666137,-0.1343223,0.28460792
357935067,-0.13840592,-0.17953727,0.28041762
357945484,-0.15607645,-0.16142982,0.2861298
357955078,-0.16491891,-0.1632145,0.29051468
357965501,-0.16313353,-0.15419912,0.28605884
357975067,-0.16318905,-0.15052244,0.29781908
357985466,-0.15606228,-0.15059906,0.2831286
357995073,-0.16493219,-0.1378917,0.29332778
358005466,-0.1507906,-0.16684519,0.28765538
358015909,-0.1507906,-0.16684519,0.28765538
358025467,-0.1507906,-0.16684519,0.28765538
358034267,-0.15437403,-0.13424568,0.29924843
358045466,-0.15079042,-0.15961449,0.28761774
358054267,-0.15254737,-0.14335303,0.28605238
358065466,-0.152575,-0.13609168,0.29190427
358074267,-0.15436049,-0.14872244,0.29637894
358085466,-0.14200337,-0.15053776,0.29497427
358094267,-0.14557342,-0.13964574,0.30373546
358104666,-0.14553235,-0.1649992,0.29503286
358114266,-0.13848864,-0.15052244,0.2979357
358134267,-0.13848864,-0.15052244,0.2979357
358143885,-0.15437475,-0.16316853,0.29939896
358153470,-0.16675937,-0.15047647,0.30663672
358164685,-0.15609008,-0.15056841,0.2890181
358173467,-0.12963252,-0.15959916,0.29066244
358183067,-0.17197573,-0.14513773,0.2903873
358193477,-0.15613197,-0.15775317,0.29789004
358204673,-0.16316134,-0.15416847,0.29194835
358213470,-0.14187844,-0.15790641,0.26850903
358224666,-0.15604846,-0.15422978,0.28020263
358233467,-0.15604846,-0.15422978,0.28020263
358243067,-0.15604846,-0.15422978,0.28020263
358253476,-0.14197601,-0.1686452,0.28917882
358262267,-0.14196166,-0.15058374,0.28613997
358272711,-0.15253374,-0.15421444,0.28316405
358282266,-0.16489094,-0.15601446,0.28458756
358292697,-0.15961863,-0.14695306,0.28898263
358302267,-0.16321693,-0.15410717,0.30372745
358312715,-0.15079051,-0.16322984,0.28763655
358322276,-0.16668996,-0.15416847,0.2919317
358332709,-0.14730367,-0.1667992,0.29650632
358342267,-0.14730367,-0.1667992,0.29650632
358352693,-0.14730367,-0.1667992,0.29650632
358361467,-0.16491793,-0.123445585,0.29030773
358372666,-0.16313371,-0.16142982,0.28609648
358381467,-0.12608956,-0.1415377,0.28764027
358392666,-0.15077634,-0.15239908,0.28463537
358401480,-0.15787512,-0.14512241,0.2933987
358412666,-0.15260352,-0.16498388,0.2979443
358421478,-0.15611771,-0.14330705,0.29487002
358432672,-0.15959136,-0.16867585,0.28320602
358441475,-0.1508183,-0.16319919,0.2935261
358460704,-0.17017691,-0.15421444,0.2830808
358470266,-0.13847473,-0.15053776,0.29499093
358480678,-0.14373262,-0.13792235,0.28753817
358490266,-0.16317533,-0.15776849,0.29491195
358500683,-0.17726187,-0.15056841,0.28891817
358510267,-0.16497444,-0.15953785,0.3022749
358520666,-0.15609026,-0.15779914,0.28905573
358530266,-0.15426318,-0.14882971,0.2757656
358540666,-0.16670369,-0.14692241,0.29483885
358550284,-0.16137604,-0.14876842,0.28751132
358560667,-0.16137604,-0.14876842,0.28751132
358569497,-0.16846153,-0.16681454,0.29346162
358580666,-0.15783404,-0.17047587,0.28469613
358589516,-0.16317533,-0.15776849,0.29491195
358600673,-0.15788893,-0.14149171,0.29632464
358609500,-0.16141792,-0.15595315,0.29638326
358620708,-0.16137622,-0.15599914,0.28754896
358629503,-0.15261696,-0.14689177,0.300795
358640666,-0.1596189,-0.15779914,0.28903908
358649492,-0.1543187,-0.14515306,0.28752583
358669511,-0.1543187,-0.14515306,0.28752583
358678267,-0.15430462,-0.13793766,0.28454345
358688666,-0.16134833,-0.1524144,0.28164062
358698267,-0.14722009,-0.15966046,0.2788001
358708666,-0.16140445,-0.17404528,0.29353258
358718289,-0.149047,-0.16139917,0.29205263
358728666,-0.16668943,-0.1324763,0.29181883
358738307,-0.1543743,-0.14509176,0.29930487
358748686,-0.15966043,-0.15052244,0.29783574
358758277,-0.15959083,-0.14698371,0.28309312
358768684,-0.15959083,-0.14698371,0.28309312
358779068,-0.15959083,-0.14698371,0.28309312
358788714,-0.16660656,-0.15426043,0.27426314
358797512,-0.14369136,-0.15604511,0.27879795
358808666,-0.14555988,-0.1541225,0.30086595
358817480,-0.15080395,-0.14513773,0.29048723
358828666,-0.133133,-0.14516838,0.28468102
358837511,-0.13317469,-0.14512241,0.29351532
358848666,-0.17373334,-0.15418379,0.28895363
358857468,-0.15790284,-0.1414764,0.2992694
358868666,-0.1578336,-0.15239908,0.28460205
358877505,-0.1578336,-0.15239908,0.28460205
358887867,-0.1578336,-0.15239908,0.28460205
358896666,-0.17020454,-0.14695306,0.28893265
358907867,-0.15258917,-0.14692241,0.29490548
358916667,-0.16141711,-0.12341493,0.29621392
358927885,-0.15257545,-0.15416847,0.29199833
358936688,-0.16497399,-0.14146106,0.30218086
358946318,-0.16670404,-0.16138384,0.29491413
358956709,-0.15257491,-0.1324763,0.29188544
358967867,-0.14555961,-0.14327641,0.3008095
358976667,-0.16496018,-0.14509176,0.2992549
358986310,-0.16496018,-0.14509176,0.2992549
358996671,-0.16496018,-0.14509176,0.2992549
359005484,-0.14025994,-0.15232246,0.29940915
359015866,-0.13843329,-0.16142982,0.28621307
359025467,-0.16143173,-0.15232246,0.2993092
359035866,-0.14727506,-0.13429165,0.29044744
359045478,-0.15257527,-0.14693774,0.2919607
359055866,-0.16139011,-0.1559838,0.29049373
359065467,-0.17017682,-0.15059906,0.28306195
359075866,-0.1454763,-0.14698371,0.28315976
359085467,-0.14906037,-0.13969171,0.2948845
359095885,-0.14906037,-0.13969171,0.2948845
359104684,-0.14903292,-0.15418379,0.28907022
359115867,-0.14373316,-0.15961449,0.28765106
359124691,-0.1454624,-0.14699905,0.28021497
359135866,-0.14547639,-0.15059906,0.28317857
359144667,-0.15967396,-0.13604571,0.30070522
359155867,-0.15079033,-0.15599914,0.28759894
359164671,-0.15784742,-0.14876842,0.28752798
359175866,-0.13314717,-0.15599914,0.2876822
359184667,-0.15959083,-0.14698371,0.28309312
359195866,-0.15264495,-0.15409185,0.30672216
359204671,-0.15264495,-0.15409185,0.30672216
359213467,-0.1525472,-0.13612233,0.28601474
359223866,-0.16137613,-0.15238376,0.28753015
359233466,-0.14910233,-0.15049179,0.30377525
359243866,-0.16857184,-0.13053837,0.3168316
359253467,-0.14728905,-0.1378917,0.29341105
359263879,-0.16138993,-0.14875309,0.2904561
359273466,-0.16858655,-0.16306126,0.31994566
359283866,-0.16498762,-0.13059968,0.30506918
359293466,-0.13131991,-0.139799,0.27435446
359303866,-0.14730304,-0.14149171,0.29637462
359314267,-0.14730304,-0.14149171,0.29637462
359323866,-0.16137613,-0.15238376,0.28753015
359332679,-0.161459,-0.13059968,0.30508584
359343866,-0.14900555,-0.1722912,0.2832748
359352669,-0.15970221,-0.15409185,0.30668885
359363873,-0.16313326,-0.14335303,0.2860024
359372678,-0.14377467,-0.15233777,0.29644772
359383866,-0.16314726,-0.14695306,0.28896597
359392667,-0.16491926,-0.17767593,0.29058996
359403873,-0.15254746,-0.1469684,0.28607118
359412666,-0.15604846,-0.15422978,0.28020263
359431893,-0.15788893,-0.14149171,0.29632464
359441467,-0.14373271,-0.1415377,0.28755698
359451866,-0.15424946,-0.15607576,0.27285847
359461466,-0.14907445,-0.14690709,0.29786688
359471866,-0.16844727,-0.15236843,0.2904416
359481467,-0.14727533,-0.14513773,0.2905039
359491866,-0.15084575,-0.14870712,0.29934034
359501466,-0.14913014,-0.15046114,0.30966476
359511866,-0.15261696,-0.14689177,0.300795
359522267,-0.15261696,-0.14689177,0.300795
359531867,-0.15261696,-0.14689177,0.300795
359540666,-0.14024612,-0.15595315,0.2964832
359551866,-0.1473313,-0.15953785,0.3023582
359560667,-0.13497399,-0.1541225,0.3009159
359571911,-0.13314743,-0.16684519,0.28773865
359580667,-0.14207323,-0.16492258,0.30977333
359591904,-0.14906055,-0.14692241,0.29492214
359600667,-0.12256083,-0.13792235,0.28763813
359611883,-0.14370508,-0.14879906,0.28170508
359620666,-0.14207287,-0.15046114,0.30969808
359639866,-0.12434604,-0.13970704,0.29205632
359651067,-0.14378867,-0.15593784,0.2994113
359659866,-0.1385306,-0.16132255,0.3068264
359671073,-0.14728923,-0.14512241,0.2934487
359679866,-0.14020425,-0.14876842,0.28761128
359691066,-0.14366399,-0.17415255,0.2730025
359699866,-0.14373316,-0.15961449,0.28765106
359711076,-0.16313353,-0.15419912,0.28605884
359719867,-0.15251975,-0.1506144,0.28020048
359729515,-0.13129237,-0.15067568,0.26852137
359739916,-0.13129237,-0.15067568,0.26852137
359748667,-0.15258971,-0.16861455,0.29501837
359759083,-0.15607573,-0.13250695,0.28597927
359768666,-0.1491026,-0.16133787,0.3038317
359779066,-0.16854414,-0.13418438,0.31096086
359788666,-0.15438856,-0.15953785,0.3023249
359799066,-0.16141774,-0.14872244,0.29634562
359808666,-0.16670386,-0.15415314,0.2948765
359819066,-0.15957719,-0.15784512,0.28020477
359828667,-0.15790266,-0.13424568,0.29923177
359839067,-0.15790266,-0.13424568,0.29923177
359848667,-0.15790266,-0.13424568,0.29923177
359859069,-0.15094306,-0.14859985,0.31995368
359867866,-0.16855794,-0.1305537,0.31388682
359879072,-0.1543604,-0.14510708,0.29636014
359887866,-0.14720565,-0.13798364,0.27574247
359899067,-0.15606228,-0.15059906,0.2831286
359907912,-0.1385027,-0.15773785,0.30091807
359919067,-0.15431906,-0.15961449,0.28760108
359927883,-0.16137613,-0.15238376,0.28753015
359939066,-0.15437448,-0.15232246,0.2993425
359947889,-0.15437448,-0.15232246,0.2993425
359957467,-0.15437448,-0.15232246,0.2993425
359967066,-0.14903319,-0.16502985,0.28912666
359976667,-0.14549047,-0.15781447,0.28616095
359987067,-0.14907409,-0.13244565,0.29779163
359996666,-0.16314681,-0.12887628,0.2888719
360007073,-0.15963253,-0.14693774,0.2919274
360016667,-0.13846047,-0.13609168,0.29197088
360027066,-0.16670395,-0.15776849,0.2948953
360036667,-0.1596884,-0.15772252,0.3037629
360047072,-0.16678709,-0.14683047,0.31250742
360057467,-0.16678709,-0.14683047,0.31250742
360067066,-0.14554608,-0.15775317,0.29794
360075867,-0.14551818,-0.15416847,0.29203165
360087066,-0.16500188,-0.14504577,0.3080892
360095888,-0.14555934,-0.13243033,0.30075306
360107075,-0.15260316,-0.15052244,0.29786906
360115923,-0.15085948,-0.14146106,0.30224746
360127066,-0.17023295,-0.1722299,0.2949539
360135899,-0.14728932,-0.14873777,0.2934675
360147066,-0.16496071,-0.16678388,0.2993678
360155867,-0.16496071,-0.16678388,0.2993678
360175067,-0.1579031,-0.15232246,0.29932585
360184668,-0.17903282,-0.13790701,0.29031634
360195066,-0.15790293,-0.14509176,0.2992882
360204667,-0.1667175,-0.14329173,0.2977648
360215066,-0.16493264,-0.15596849,0.29342183
360224667,-0.16501579,-0.14503045,0.31103396
360235066,-0.16139011,-0.1559838,0.29049373
360244700,-0.15964617,-0.13607635,0.29481572
360255067,-0.15790239,-0.12339961,0.29917532
360265467,-0.15790239,-0.12339961,0.29917532
360275067,-0.15790239,-0.12339961,0.29917532
360283866,-0.14908852,-0.1541225,0.3008493
360295066,-0.15265858,-0.14323042,0.3096105
360303867,-0.15968822,-0.15049179,0.30372527
360315068,-0.15970203,-0.14686112,0.3066512
360323867,-0.1544578,-0.14861517,0.31699228
360335066,-0.16847508,-0.15233777,0.29633114
360343867,-0.16668996,-0.15416847,0.2919317
360355072,-0.16145927,-0.14144574,0.30514228
360363873,-0.16674466,-0.11795358,0.30352265
360383072,-0.15963253,-0.14693774,0.2919274
360392667,-0.15256146,-0.15056841,0.28903475
360403066,-0.14913014,-0.15046114,0.30966476
360412666,-0.15081795,-0.14873777,0.29345083
360423066,-0.15431888,-0.15238376,0.28756347
360432699,-0.15615976,-0.15772252,0.30377957
360443067,-0.16321684,-0.15049179,0.3037086
360452699,-0.1649452,-0.10172279,0.29608437
360463067,-0.15967369,-0.12519963,0.30064878
360472669,-0.15967369,-0.12519963,0.30064878
360483067,-0.15967369,-0.12519963,0.30064878
360491873,-0.16313353,-0.15419912,0.28605884
360502289,-0.14381638,-0.1522918,0.30528203
360511870,-0.15595159,-0.17241381,0.25968337
360522266,-0.14911641,-0.1577072,0.30675763
360531867,-0.14735848,-0.1341997,0.30811605
360542266,-0.15618739,-0.15046114,0.30963144
360551886,-0.1474007,-0.15584588,0.3170632
360562266,-0.14910242,-0.15410717,0.30379406
360571866,-0.15788884,-0.13787636,0.29630584
360582267,-0.15788884,-0.13787636,0.29630584
360591067,-0.15615967,-0.15410717,0.30376074
360600714,-0.16497399,-0.14146106,0.30218086
360611067,-0.13844666,-0.13972236,0.28904495
360622266,-0.16324456,-0.14684579,0.3095793
360631067,-0.15090163,-0.15949188,0.31117585
360642267,-0.16675982,-0.16855326,0.30673078
360651066,-0.15263087,-0.14687644,0.3037398
360662266,-0.14735866,-0.14143041,0.30815366
360671066,-0.15964662,-0.15415314,0.2949098
360682266,-0.15264468,-0.14324576,0.30666572
360691074,-0.15264468,-0.14324576,0.30666572
360699867,-0.1597302,-0.1612919,0.312616
360710286,-0.14901884,-0.1469684,0.28608784
360719885,-0.14728923,-0.14512241,0.2934487
360730266,-0.14730278,-0.13064565,0.29631817
360739867,-0.16496079,-0.17039925,0.29938662
360750267,-0.16313362,-0.15781447,0.28607768
360759867,-0.15260316,-0.15052244,0.29786906
360770266,-0.15265921,-0.16853793,0.30974218
360779867,-0.14908834,-0.14689177,0.30081165
360790267,-0.14908834,-0.14689177,0.30081165
360800667,-0.14908834,-0.14689177,0.30081165
360810266,-0.13847482,-0.15415314,0.29500973
360819067,-0.16673166,-0.1541225,0.300766
360830267,-0.16493298,-0.1704299,0.29349712
360839067,-0.14376086,-0.15596849,0.2935218
360850266,-0.15085983,-0.1559225,0.30232275
360859066,-0.15260316,-0.15052244,0.29786906
360870266,-0.16147299,-0.1341997,0.3080494
360879066,-0.13494647,-0.1649992,0.29508284
360890315,-0.14908879,-0.16496857,0.30090573
360899067,-0.14908879,-0.16496857,0.30090573
360907866,-0.15263095,-0.15049179,0.3037586
360918266,-0.14208668,-0.14683047,0.312624
360927866,-0.15083237,-0.17041457,0.2965085
360938266,-0.15088719,-0.13781506,0.3081182
360947866,-0.14728914,-0.14150704,0.29342988
360958266,-0.13140394,-0.16501454,0.29215473
360967866,-0.15260334,-0.15775317,0.2979067
360978266,-0.15079015,-0.14876842,0.2875613
360987866,-0.14027427,-0.17038392,0.30244797
360998267,-0.14027427,-0.17038392,0.30244797
361008667,-0.14027427,-0.17038392,0.30244797
361018266,-0.13669012,-0.1740606,0.2907044
361027067,-0.14023222,-0.15596849,0.29353845
361038306,-0.14908904,-0.17581463,0.30096218
361047067,-0.1579589,-0.15949188,0.31114253
361058266,-0.12973036,-0.18118402,0.31138867
361067067,-0.14208704,-0.1612919,0.31269926
361078270,-0.15615967,-0.15410717,0.30376074
361087084,-0.13504323,-0.14319977,0.3155833
361098288,-0.14030147,-0.14504577,0.3082058
361107112,-0.14030147,-0.14504577,0.3082058
361115866,-0.13853069,-0.16493791,0.30684525
361126266,-0.15263113,-0.15772252,0.30379623
361135867,-0.12083193,-0.1649992,0.29514948
361146266,-0.1367592,-0.15590718,0.30533415
361155866,-0.15614577,-0.1541225,0.30081597
361166266,-0.14914422,-0.15767655,0.31264713
361175867,-0.14203143,-0.1613532,0.30092022
361186270,-0.14917229,-0.16849196,0.3185931
361195880,-0.14910269,-0.16495323,0.3038505
361206308,-0.14910269,-0.16495323,0.3038505
361216680,-0.14910269,-0.16495323,0.3038505
361226275,-0.12966014,-0.15233777,0.29651436
361235067,-0.13141784,-0.1649992,0.2950995
361245466,-0.13493317,-0.19032203,0.29226977
361255084,-0.1350296,-0.1540612,0.31269497
361265466,-0.14200355,-0.15776849,0.2950119
361275116,-0.14377476,-0.15595315,0.29646653
361285466,-0.14560176,-0.16130722,0.30973786
361295066,-0.1385027,-0.15773785,0.30091807
361305488,-0.12615967,-0.16676855,0.30249578
361315069,-0.12615967,-0.16676855,0.30249578
361325469,-0.12957717,-0.17050652,0.27893984
361334302,-0.14904691,-0.15778382,0.2920338
361345466,-0.12074862,-0.1687065,0.2774997
361354314,-0.14903292,-0.15418379,0.28907022
361365466,-0.14017689,-0.16687582,0.2818158
361374268,-0.13834998,-0.16513713,0.2685633
361385466,-0.13490422,-0.14335303,0.28613567
361394302,-0.120845474,-0.15052244,0.29801896
361405466,-0.13853078,-0.16855326,0.30686405
361414267,-0.15611815,-0.16138384,0.29496408
361423867,-0.15611815,-0.16138384,0.29496408
361433479,-0.14179504,-0.15799837,0.25084043
361443068,-0.12780578,-0.16509116,0.27744758
361453466,-0.13309155,-0.15606043,0.27590317
361463095,-0.117136754,-0.17602918,0.2598854
361473484,-0.122408986,-0.1814752,0.2554715
361483088,-0.1383784,-0.19041398,0.27458456
361493472,-0.14197583,-0.16141449,0.28914118
361503112,-0.12419383,-0.16879846,0.25981447
361513466,-0.12957735,-0.17773724,0.27897748
361523073,-0.12957735,-0.17773724,0.27897748
361533467,-0.12957735,-0.17773724,0.27897748
361542267,-0.13311954,-0.16326047,0.2818303
361553466,-0.13132036,-0.15787578,0.27444854
361562266,-0.14907506,-0.17221458,0.2979986
361573466,-0.13318895,-0.1595685,0.2965353
361582267,-0.14199008,-0.1758606,0.2921612
361593466,-0.1278614,-0.16502985,0.28922662
361602278,-0.15787566,-0.16681454,0.2935116
361613466,-0.1384611,-0.16139917,0.29210258
361622267,-0.13840567,-0.16869119,0.28036118
361642267,-0.13840567,-0.16869119,0.28036118
361651088,-0.14021859,-0.16682985,0.2906501
361661498,-0.12786148,-0.1686452,0.28924543
361671107,-0.13841964,-0.1722912,0.28332478
361681466,-0.13666242,-0.17770658,0.2848337
361691112,-0.1242915,-0.18315262,0.28050306
361701466,-0.14197627,-0.17949128,0.28923523
361711099,-0.13673201,-0.18124533,0.2995763
361721466,-0.15440255,-0.16313788,0.3052885
361731116,-0.12604855,-0.17050652,0.2789565
361741467,-0.12604855,-0.17050652,0.2789565
361751893,-0.12604855,-0.17050652,0.2789565
361761466,-0.14205958,-0.17578398,0.30688503
361770267,-0.12967475,-0.18124533,0.29960963
361781466,-0.1314458,-0.17219926,0.30102664
361790267,-0.13670412,-0.17766061,0.293668
361801466,-0.12968838,-0.17038392,0.30249792
361810266,-0.12968865,-0.18123,0.30255437
361821466,-0.12967493,-0.18847603,0.29964724
361830267,-0.14558838,-0.18301469,0.30690598
361841466,-0.12787539,-0.16862988,0.2921902
361850267,-0.12787539,-0.16862988,0.2921902
361859110,-0.122588895,-0.14873777,0.2935841
361869508,-0.12426396,-0.19402935,0.27467
361879110,-0.12963313,-0.18490665,0.29079413
361889468,-0.13318947,-0.18126065,0.2966482
361899093,-0.10670341,-0.16139917,0.2922525
361909475,-0.12604909,-0.19219866,0.2790694
361919066,-0.112017706,-0.18126065,0.29674816
361929466,-0.13671811,-0.18126065,0.29663154
361939066,-0.115560144,-0.17762996,0.29965743
361949472,-0.1314041,-0.17224523,0.29219234
361959916,-0.1314041,-0.17224523,0.29219234
361969484,-0.1279176,-0.19027606,0.30113736
361978266,-0.11554633,-0.18126065,0.2967315
361989466,-0.12614623,-0.18486068,0.2996451
361998267,-0.11194794,-0.17049119,0.28196788
362009466,-0.12086009,-0.17943,0.30111423
362018266,-0.11021877,-0.18672198,0.28942278
362029466,-0.13136311,-0.20121406,0.2835086
362038266,-0.10309156,-0.16872184,0.27463824
362049467,-0.11550472,-0.18492198,0.28791603
362058267,-0.11550472,-0.18492198,0.28791603
362077467,-0.09426378,-0.19946004,0.27336743
362088666,-0.13133477,-0.17955258,0.27750617
362097467,-0.09426352,-0.18861395,0.273311
362107913,-0.11542132,-0.18501392,0.27024743
362117467,-0.12430549,-0.18675263,0.28346667
362128691,-0.1190191,-0.17047587,0.28487936
362137467,-0.12080484,-0.19395271,0.28941044
362148705,-0.12957789,-0.1994294,0.27909034
362157467,-0.12430575,-0.19759871,0.2835231
362167069,-0.12430575,-0.19759871,0.2835231
362176670,-0.12077668,-0.17952193,0.2834457
362186267,-0.11895031,-0.19947536,0.27030605
362196666,-0.12595178,-0.19230594,0.25845605
362206267,-0.1030643,-0.19044462,0.2688616
362216666,-0.111934744,-0.1994294,0.27917364
362226266,-0.08540706,-0.18322924,0.26596248
362236666,-0.11720644,-0.18318327,0.27464685
362246286,-0.10489085,-0.1777219,0.28203884
362256666,-0.113663904,-0.18319859,0.27171874
362266312,-0.113663904,-0.18319859,0.27171874
362276714,-0.113663904,-0.18319859,0.27171874
362285467,-0.09959118,-0.18676797,0.28063846
362296683,-0.110191055,-0.190368,0.2835521
362305483,-0.0978621,-0.20661412,0.2881122
362316698,-0.09793117,-0.1884607,0.30274191
362325469,-0.10840594,-0.19219866,0.27915266
362336683,-0.10309174,-0.17595255,0.27467585
362345467,-0.099480145,-0.19412129,0.25711802
362356684,-0.10847536,-0.18850668,0.2938577
362365467,-0.09247831,-0.18682925,0.26889274
362385489,-0.09247831,-0.18682925,0.26889274
362394266,-0.09966068,-0.18669133,0.2953623
362404666,-0.08193456,-0.20486008,0.27787107
362414287,-0.08906151,-0.21201417,0.2925992
362424698,-0.097875915,-0.20298342,0.29103813
362434298,-0.09431876,-0.17409125,0.28501478
362444709,-0.087234505,-0.20666009,0.27932787
362454267,-0.07310616,-0.21029076,0.27646858
362464672,-0.08544929,-0.20487541,0.27490968
362474266,-0.07483551,-0.20129068,0.26905128
362484695,-0.07483551,-0.20129068,0.26905128
362493467,-0.07314804,-0.2174755,0.2853405
362504694,-0.09788938,-0.18489133,0.29388884
362513466,-0.064263605,-0.20489073,0.27206483
362524666,-0.05722051,-0.21572149,0.27509937
362533467,-0.069646955,-0.20659879,0.2911902
362544666,-0.07136257,-0.20484476,0.2808658
362553468,-0.09254798,-0.19398336,0.28365418
362564666,-0.080149256,-0.19946004,0.27343404
362573467,-0.06781986,-0.19762936,0.27790007
362592698,-0.05719253,-0.2085214,0.2691722
362602269,-0.060721252,-0.21213676,0.26917437
362612710,-0.07482205,-0.21938281,0.2662006
362622267,-0.06784775,-0.20121406,0.28380844
362632693,-0.066090606,-0.21024479,0.28533617
362642267,-0.048447188,-0.19939874,0.28536302
362652735,-0.055491082,-0.22110619,0.2824978
362662267,-0.06610451,-0.21022947,0.28828093
362672666,-0.069563724,-0.21392146,0.27355927
362683084,-0.069563724,-0.21392146,0.27355927
362692667,-0.069563724,-0.21392146,0.27355927
362701467,-0.06775089,-0.21939813,0.26328915
362712666,-0.05543521,-0.21032141,0.2706623
362721481,-0.051864706,-0.20313668,0.26180705
362732666,-0.058907703,-0.18869057,0.25875372
362741470,-0.028963307,-0.20129068,0.26926783
362752666,-0.058935948,-0.20673671,0.26473734
362761466,-0.051823355,-0.21764408,0.253048
362772666,-0.05546328,-0.22113684,0.2766083
362781472,-0.06604864,-0.19944471,0.27644542
362800687,-0.030831924,-0.20298342,0.29135463
362810284,-0.04844772,-0.22109087,0.2854759
362820686,-0.035979223,-0.21579811,0.2604755
362831867,-0.048267007,-0.2212901,0.24719399
362840666,-0.041279428,-0.22844417,0.26198873
362851084,-0.046634793,-0.22295219,0.27518696
362860666,-0.03249247,-0.22298282,0.26936406
362871115,-0.036035005,-0.2229675,0.27229214
362880666,-0.023747481,-0.22832157,0.28563014
362891866,-0.025365617,-0.21944411,0.25465477
362900667,-0.025365617,-0.21944411,0.25465477
362909511,-0.034305397,-0.22112152,0.27965298
362919866,-0.02900501,-0.20124471,0.27810213
362929515,-0.032575075,-0.19035268,0.2868633
362939866,-0.030748785,-0.21392146,0.2737425
362949469,-0.023775194,-0.22467558,0.2915008
362959879,-0.029033434,-0.22652155,0.28412336
362969498,-0.0378891,-0.19936809,0.2913025
362979866,-0.023775373,-0.2319063,0.29153845
362989509,-0.034277063,-0.19946004,0.2736506
362999867,-0.034277063,-0.19946004,0.2736506
363009501,-0.034277063,-0.19946004,0.2736506
363019866,-0.013077475,-0.1994907,0.267861
363028676,-0.01132051,-0.21575212,0.26942638
363039866,-0.016717667,-0.2138295,0.29147768
363048666,-0.009701931,-0.20655282,0.30030766
363059866,-0.013105365,-0.20307538,0.27376935
363068667,-0.020218495,-0.21386015,0.28557152
363079866,-0.0025894209,-0.22107555,0.2886372
363088667,-0.016717488,-0.20659879,0.29144007
363099892,-0.009632249,-0.19939874,0.28554624
363108667,-0.009632249,-0.19939874,0.28554624
363117480,-0.009577356,-0.22838287,0.2739177
363127891,-0.0026034105,-0.22467558,0.29160076
363137509,-0.022045236,-0.20836815,0.2987864
363147866,-0.0130914645,-0.2030907,0.27082455
363157489,-0.004207643,-0.21581343,0.25768062
