timestamp,timestamp_sample,control[0],control[1],control[2],control[3],control[4],control[5],control[6],control[7]
349498383,349498311,-0.0071842344,0.0023253267,-0.6972286,-0.0,0.0,0.0,0.0,0.0
349539938,349539869,-0.00636391,0.0022614761,-0.6974463,-0.0,0.0,0.0,0.0,0.0
349543950,349543881,-0.0066045485,0.0025925608,-0.69737446,-0.0,0.0,0.0,0.0,0.0
349547959,349547887,-0.0066986154,0.0019563108,-0.6972803,-0.0,0.0,0.0,0.0,0.0
349551962,349551892,-0.006270479,0.0015304557,-0.6971829,-0.0,0.0,0.0,0.0,0.0
349555975,349555869,-0.00673622,0.0019069052,-0.69710624,-0.0,0.0,0.0,0.0,0.0
349559938,349559869,-0.0068399822,0.0020697662,-0.6971104,-0.0,0.0,0.0,0.0,0.0
349563979,349563869,-0.0061146845,0.0017601644,-0.6972118,-0.0,0.0,0.0,0.0,0.0
349567938,349567869,-0.0060843136,0.0024959676,-0.69721967,-0.0,0.0,0.0,0.0,0.0
349571189,349571114,-0.006167441,0.0025577112,-0.6972201,-0.0,0.0,0.0,0.0,0.0
349575141,349575069,-0.0058511696,0.0021003634,-0.69730645,-0.0,0.0,0.0,0.0,0.0
349579179,349579105,-0.0061406214,0.0023436337,-0.69738597,-0.0,0.0,0.0,0.0,0.0
349583142,349583070,-0.0060590096,0.002375756,-0.69743556,-0.0,0.0,0.0,0.0,0.0
349587141,349587069,-0.006385909,0.0021131595,-0.697497,-0.0,0.0,0.0,0.0,0.0
349591168,349591088,-0.0066741076,0.002042177,-0.69741106,-0.0,0.0,0.0,0.0,0.0
349595141,349595069,-0.0063410755,0.0021346102,-0.69720197,-0.0,0.0,0.0,0.0,0.0
349598364,349598295,-0.0063439514,0.0016328515,-0.6971231,-0.0,0.0,0.0,0.0,0.0
349602344,349602269,-0.0061861128,0.0015180572,-0.69717777,-0.0,0.0,0.0,0.0,0.0
349606375,349606269,-0.0063916575,0.0022029174,-0.6973428,-0.0,0.0,0.0,0.0,0.0
349610380,349610269,-0.0064373054,0.0022042682,-0.6974156,-0.0,0.0,0.0,0.0,0.0
349614347,349614269,-0.0060245446,0.0027444826,-0.69748014,-0.0,0.0,0.0,0.0,0.0
349618371,349618298,-0.006494775,0.002597516,-0.697503,-0.0,0.0,0.0,0.0,0.0
349622338,349622269,-0.0069780555,0.0024300008,-0.6975202,-0.0,0.0,0.0,0.0,0.0
349625557,349625484,-0.0068934667,0.0025503745,-0.69753695,-0.0,0.0,0.0,0.0,0.0
349629576,349629503,-0.00659882,0.0024284874,-0.69750655,-0.0,0.0,0.0,0.0,0.0
349634338,349634269,-0.006357638,0.002225888,-0.6974527,-0.0,0.0,0.0,0.0,0.0
349638360,349638271,-0.006872536,0.0023080325,-0.6973596,-0.0,0.0,0.0,0.0,0.0
349642360,349642283,-0.006652176,0.002411149,-0.69718164,-0.0,0.0,0.0,0.0,0.0
349646381,349646311,-0.006348001,0.002275394,-0.6971161,-0.0,0.0,0.0,0.0,0.0
349650338,349650268,-0.0062356004,0.0024783018,-0.6972257,-0.0,0.0,0.0,0.0,0.0
349654338,349654269,-0.006248451,0.0022369712,-0.69730014,-0.0,0.0,0.0,0.0,0.0
349658361,349658291,-0.0067632115,0.002213049,-0.69737184,-0.0,0.0,0.0,0.0,0.0
349662338,349662269,-0.0064747827,0.0022814118,-0.69736695,-0.0,0.0,0.0,0.0,0.0
349665562,349665493,-0.0062041897,0.0021145414,-0.6973917,-0.0,0.0,0.0,0.0,0.0
349669575,349669504,-0.0062279813,0.0019833755,-0.6974236,-0.0,0.0,0.0,0.0,0.0
349673567,349673469,-0.0062719723,0.0015148185,-0.69746417,-0.0,0.0,0.0,0.0,0.0
349677587,349677476,-0.006720696,0.0016404531,-0.69740784,-0.0,0.0,0.0,0.0,0.0
349681559,349681487,-0.00627949,0.0023011086,-0.69733685,-0.0,0.0,0.0,0.0,0.0
349685575,349685502,-0.0065463637,0.0027509932,-0.6972474,-0.0,0.0,0.0,0.0,0.0
349689573,349689504,-0.0064434707,0.002890678,-0.6971689,-0.0,0.0,0.0,0.0,0.0
349693575,349693469,-0.006627971,0.0023580026,-0.6971418,-0.0,0.0,0.0,0.0,0.0
349697538,349697469,-0.0063485084,0.0017794389,-0.6972905,-0.0,0.0,0.0,0.0,0.0
349701545,349701475,-0.0055036233,0.0018008024,-0.6973612,-0.0,0.0,0.0,0.0,0.0
349705560,349705491,-0.0061585,0.0017580058,-0.69731706,-0.0,0.0,0.0,0.0,0.0
349709538,349709469,-0.0070469393,0.0019404391,-0.69734913,-0.0,0.0,0.0,0.0,0.0
349713559,349713486,-0.0067482134,0.0024302336,-0.6973619,-0.0,0.0,0.0,0.0,0.0
349717546,349717469,-0.005898301,0.002640864,-0.6972753,-0.0,0.0,0.0,0.0,0.0
349721588,349721517,-0.006306631,0.0023201373,-0.6972745,-0.0,0.0,0.0,0.0,0.0
349725560,349725490,-0.006781112,0.0022062967,-0.69728553,-0.0,0.0,0.0,0.0,0.0
349729538,349729469,-0.0068476913,0.002399134,-0.6972882,-0.0,0.0,0.0,0.0,0.0
349733589,349733516,-0.007139987,0.0023480442,-0.6972868,-0.0,0.0,0.0,0.0,0.0
349737538,349737469,-0.007199661,0.0025946558,-0.6972763,-0.0,0.0,0.0,0.0,0.0
349741544,349741475,-0.007041548,0.0027102716,-0.6972582,-0.0,0.0,0.0,0.0,0.0
349745576,349745469,-0.006581939,0.0022364315,-0.69723576,-0.0,0.0,0.0,0.0,0.0
349749541,349749471,-0.006404635,0.0022771838,-0.6971867,-0.0,0.0,0.0,0.0,0.0
349753543,349753474,-0.0065097483,0.0025543207,-0.69721407,-0.0,0.0,0.0,0.0,0.0
349757566,349757468,-0.0066030556,0.0023049412,-0.6972636,-0.0,0.0,0.0,0.0,0.0
349761547,349761478,-0.0065714926,0.0024411732,-0.6973624,-0.0,0.0,0.0,0.0,0.0
349765565,349765469,-0.006303915,0.0024852415,-0.6973674,-0.0,0.0,0.0,0.0,0.0
349769538,349769469,-0.0061933766,0.0021805821,-0.69735974,-0.0,0.0,0.0,0.0,0.0
349773538,349773469,-0.006609505,0.0020238464,-0.69733965,-0.0,0.0,0.0,0.0,0.0
349777575,349777469,-0.0067417435,0.0017273598,-0.69735134,-0.0,0.0,0.0,0.0,0.0
349781538,349781469,-0.0062838597,0.001650811,-0.6973529,-0.0,0.0,0.0,0.0,0.0
349785576,349785469,-0.006156254,0.0017351864,-0.6972912,-0.0,0.0,0.0,0.0,0.0
349789547,349789475,-0.0062122396,0.0020848452,-0.6972218,-0.0,0.0,0.0,0.0,0.0
349793583,349793514,-0.006576112,0.0027762519,-0.6972779,-0.0,0.0,0.0,0.0,0.0
349797555,349797486,-0.006449294,0.0030468826,-0.69724596,-0.0,0.0,0.0,0.0,0.0
349801544,349801469,-0.0066172592,0.0026414217,-0.69728583,-0.0,0.0,0.0,0.0,0.0
349805576,349805469,-0.006470962,0.0019199501,-0.69740975,-0.0,0.0,0.0,0.0,0.0
349809544,349809475,-0.006993297,0.002086131,-0.69750565,-0.0,0.0,0.0,0.0,0.0
349813556,349813487,-0.0065625748,0.0025986312,-0.6975606,-0.0,0.0,0.0,0.0,0.0
349817562,349817490,-0.00607494,0.0026861264,-0.69755155,-0.0,0.0,0.0,0.0,0.0
349821541,349821469,-0.0060012494,0.0023159785,-0.6975547,-0.0,0.0,0.0,0.0,0.0
349825538,349825469,-0.006409367,0.002160296,-0.697573,-0.0,0.0,0.0,0.0,0.0
349829548,349829476,-0.0069497563,0.0023195066,-0.69747305,-0.0,0.0,0.0,0.0,0.0
349833546,349833477,-0.006692915,0.0023267413,-0.6974034,-0.0,0.0,0.0,0.0,0.0
349837538,349837469,-0.006757659,0.0022333814,-0.6973709,-0.0,0.0,0.0,0.0,0.0
349841578,349841469,-0.006719846,0.0023957577,-0.6973252,-0.0,0.0,0.0,0.0,0.0
349845541,349845469,-0.0064268955,0.0028032265,-0.6973252,-0.0,0.0,0.0,0.0,0.0
349849549,349849475,-0.0062729395,0.0024550278,-0.6973292,-0.0,0.0,0.0,0.0,0.0
349853548,349853475,-0.0063575828,0.0023633447,-0.6973691,-0.0,0.0,0.0,0.0,0.0
349857541,349857468,-0.0066804914,0.0021447411,-0.697395,-0.0,0.0,0.0,0.0,0.0
349861581,349861472,-0.007106564,0.0015197262,-0.69735605,-0.0,0.0,0.0,0.0,0.0
349865538,349865469,-0.0071085063,0.0013988803,-0.6973915,-0.0,0.0,0.0,0.0,0.0
349869547,349869475,-0.0070966375,0.001636176,-0.6973819,-0.0,0.0,0.0,0.0,0.0
349873579,349873469,-0.0068508554,0.0020218405,-0.69737977,-0.0,0.0,0.0,0.0,0.0
349877538,349877469,-0.006107794,0.0027553022,-0.69745314,-0.0,0.0,0.0,0.0,0.0
349881572,349881503,-0.0061578834,0.0024348106,-0.6974403,-0.0,0.0,0.0,0.0,0.0
349885538,349885469,-0.0062567247,0.0024768182,-0.6975086,-0.0,0.0,0.0,0.0,0.0
349889545,349889476,-0.006191018,0.0018818792,-0.69753593,-0.0,0.0,0.0,0.0,0.0
349893568,349893469,-0.006511524,0.0019510571,-0.69750655,-0.0,0.0,0.0,0.0,0.0
349897538,349897469,-0.006617033,0.0019507831,-0.6974936,-0.0,0.0,0.0,0.0,0.0
349901581,349901509,-0.006962312,0.0018144983,-0.69745106,-0.0,0.0,0.0,0.0,0.0
349905538,349905469,-0.0071894987,0.0023163299,-0.69743097,-0.0,0.0,0.0,0.0,0.0
349909552,349909475,-0.0066286954,0.0021219277,-0.69733906,-0.0,0.0,0.0,0.0,0.0
349913576,349913469,-0.0062683,0.0025391148,-0.69731194,-0.0,0.0,0.0,0.0,0.0
349917538,349917469,-0.0063917073,0.0025036237,-0.69731295,-0.0,0.0,0.0,0.0,0.0
349921576,349921507,-0.006905275,0.0021492823,-0.69728166,-0.0,0.0,0.0,0.0,0.0
349925575,349925469,-0.006599545,0.0017216477,-0.6972523,-0.0,0.0,0.0,0.0,0.0
349929555,349929483,-0.0063764616,0.0020843241,-0.6972732,-0.0,0.0,0.0,0.0,0.0
349933565,349933469,-0.0063435906,0.0025167025,-0.69727385,-0.0,0.0,0.0,0.0,0.0
349937538,349937469,-0.006689048,0.0028517921,-0.69725525,-0.0,0.0,0.0,0.0,0.0
349941561,349941491,-0.0069620144,0.0022318535,-0.6972416,-0.0,0.0,0.0,0.0,0.0
349945578,349945468,-0.006482307,0.0020387145,-0.6972541,-0.0,0.0,0.0,0.0,0.0
349949548,349949475,-0.006470962,0.0022607893,-0.6972907,-0.0,0.0,0.0,0.0,0.0
349953576,349953469,-0.006521679,0.0021895587,-0.69735485,-0.0,0.0,0.0,0.0,0.0
349957541,349957469,-0.0070376475,0.0026124774,-0.69743955,-0.0,0.0,0.0,0.0,0.0
349961572,349961503,-0.0066276807,0.0024762528,-0.69743586,-0.0,0.0,0.0,0.0,0.0
349965555,349965486,-0.006446133,0.002360848,-0.6974537,-0.0,0.0,0.0,0.0,0.0
349969545,349969475,-0.006270939,0.0022172292,-0.69744253,-0.0,0.0,0.0,0.0,0.0
349973539,349973468,-0.0064254547,0.0021642218,-0.6974674,-0.0,0.0,0.0,0.0,0.0
349977538,349977469,-0.0062785996,0.0019478243,-0.6974712,-0.0,0.0,0.0,0.0,0.0
349981584,349981511,-0.0064034886,0.0017269573,-0.6974722,-0.0,0.0,0.0,0.0,0.0
349985553,349985482,-0.006772754,0.0017824782,-0.69740695,-0.0,0.0,0.0,0.0,0.0
349989621,349989512,-0.00696088,0.0019949076,-0.6972821,-0.0,0.0,0.0,0.0,0.0
349993541,349993468,-0.0064584343,0.0024955014,-0.6972331,-0.0,0.0,0.0,0.0,0.0
349997548,349997475,-0.0068402146,0.0022752741,-0.69725,-0.0,0.0,0.0,0.0,0.0
350001560,350001491,-0.006490582,0.0020055308,-0.69731146,-0.0,0.0,0.0,0.0,0.0
350005538,350005469,-0.0061700586,0.002097972,-0.69735694,-0.0,0.0,0.0,0.0,0.0
350009612,350009506,-0.006382026,0.0022400776,-0.69741917,-0.0,0.0,0.0,0.0,0.0
350013541,350013469,-0.0069121406,0.0022344487,-0.6974742,-0.0,0.0,0.0,0.0,0.0
350017544,350017475,-0.006997983,0.0021266988,-0.69750303,-0.0,0.0,0.0,0.0,0.0
350021565,350021469,-0.0069644866,0.0018447057,-0.69743866,-0.0,0.0,0.0,0.0,0.0
350025571,350025486,-0.0064393273,0.0018807595,-0.6973739,-0.0,0.0,0.0,0.0,0.0
350029625,350029519,-0.0066032517,0.0017192924,-0.6972882,-0.0,0.0,0.0,0.0,0.0
350033538,350033469,-0.006389104,0.0017578268,-0.69734687,-0.0,0.0,0.0,0.0,0.0
350037544,350037475,-0.0065785935,0.0019957118,-0.69740385,-0.0,0.0,0.0,0.0,0.0
350041582,350041469,-0.0065603373,0.002019774,-0.69732714,-0.0,0.0,0.0,0.0,0.0
350045538,350045469,-0.0066478224,0.0024680842,-0.6972204,-0.0,0.0,0.0,0.0,0.0
350049570,350049500,-0.006769641,0.0025152585,-0.6972357,-0.0,0.0,0.0,0.0,0.0
350053538,350053469,-0.0061978498,0.0024618302,-0.69730324,-0.0,0.0,0.0,0.0,0.0
350057544,350057475,-0.0058692275,0.0025359823,-0.6973824,-0.0,0.0,0.0,0.0,0.0
350061565,350061469,-0.006303919,0.0022375658,-0.69730246,-0.0,0.0,0.0,0.0,0.0
350065538,350065469,-0.00661177,0.0019001504,-0.6972475,-0.0,0.0,0.0,0.0,0.0
350069577,350069503,-0.0070511657,0.0019193302,-0.6972797,-0.0,0.0,0.0,0.0,0.0
350073538,350073469,-0.0068155047,0.0019530731,-0.69738334,-0.0,0.0,0.0,0.0,0.0
350077548,350077475,-0.006431773,0.0024513882,-0.69749516,-0.0,0.0,0.0,0.0,0.0
350081576,350081469,-0.0060300417,0.0029589846,-0.69742537,-0.0,0.0,0.0,0.0,0.0
350085538,350085469,-0.005864666,0.002863822,-0.6972795,-0.0,0.0,0.0,0.0,0.0
350089566,350089496,-0.0060894536,0.002172168,-0.69716614,-0.0,0.0,0.0,0.0,0.0
350093578,350093468,-0.0061081853,0.0015271218,-0.69714254,-0.0,0.0,0.0,0.0,0.0
350097561,350097489,-0.006576476,0.0014546252,-0.6971901,-0.0,0.0,0.0,0.0,0.0
350101576,350101469,-0.0068286685,0.0020065506,-0.6972038,-0.0,0.0,0.0,0.0,0.0
350105551,350105482,-0.007067121,0.0021228907,-0.6972618,-0.0,0.0,0.0,0.0,0.0
350109555,350109485,-0.0068280534,0.0022877485,-0.6973194,-0.0,0.0,0.0,0.0,0.0
350113584,350113468,-0.006730226,0.0022159575,-0.69741297,-0.0,0.0,0.0,0.0,0.0
350117557,350117475,-0.0061837765,0.0021999036,-0.697498,-0.0,0.0,0.0,0.0,0.0
350121538,350121469,-0.0061406908,0.0024620236,-0.69756085,-0.0,0.0,0.0,0.0,0.0
350125541,350125469,-0.006460812,0.0026583201,-0.6975179,-0.0,0.0,0.0,0.0,0.0
350129572,350129493,-0.006443202,0.0024866944,-0.6974512,-0.0,0.0,0.0,0.0,0.0
350133559,350133490,-0.0064889453,0.0020904401,-0.6973745,-0.0,0.0,0.0,0.0,0.0
350137544,350137475,-0.006915338,0.0017780461,-0.69731826,-0.0,0.0,0.0,0.0,0.0
350141538,350141469,-0.006555988,0.0017719964,-0.69725883,-0.0,0.0,0.0,0.0,0.0
350145538,350145469,-0.006273903,0.0017731842,-0.6973141,-0.0,0.0,0.0,0.0,0.0
350149564,350149494,-0.006187166,0.0021355676,-0.69737184,-0.0,0.0,0.0,0.0,0.0
350153547,350153475,-0.00671609,0.0019831997,-0.6974811,-0.0,0.0,0.0,0.0,0.0
350157545,350157475,-0.0065068225,0.002034551,-0.69753957,-0.0,0.0,0.0,0.0,0.0
350161538,350161469,-0.006373262,0.0023043784,-0.6975457,-0.0,0.0,0.0,0.0,0.0
350165538,350165469,-0.0063244696,0.002956101,-0.6975346,-0.0,0.0,0.0,0.0,0.0
350169579,350169469,-0.006190378,0.0030265977,-0.6974696,-0.0,0.0,0.0,0.0,0.0
350173541,350173468,-0.0061473674,0.0022158837,-0.69734734,-0.0,0.0,0.0,0.0,0.0
350177588,350177475,-0.006324863,0.0023966704,-0.6972595,-0.0,0.0,0.0,0.0,0.0
350181541,350181469,-0.0061006974,0.0024088796,-0.6971713,-0.0,0.0,0.0,0.0,0.0
350185538,350185469,-0.006336345,0.0025879722,-0.6971826,-0.0,0.0,0.0,0.0,0.0
350189564,350189468,-0.0067895795,0.0023803373,-0.6972025,-0.0,0.0,0.0,0.0,0.0
350193538,350193469,-0.007198828,0.002363416,-0.6972918,-0.0,0.0,0.0,0.0,0.0
350197581,350197475,-0.0073827226,0.0026399002,-0.6973899,-0.0,0.0,0.0,0.0,0.0
350201538,350201469,-0.006845806,0.0030942643,-0.69742,-0.0,0.0,0.0,0.0,0.0
350205538,350205469,-0.0068418444,0.0026261862,-0.6973564,-0.0,0.0,0.0,0.0,0.0
350209594,350209481,-0.006337049,0.0026757831,-0.69737,-0.0,0.0,0.0,0.0,0.0
350213542,350213469,-0.0058309375,0.002386482,-0.6973812,-0.0,0.0,0.0,0.0,0.0
350217554,350217485,-0.0061088125,0.002070683,-0.697451,-0.0,0.0,0.0,0.0,0.0
350221538,350221468,-0.0063100317,0.0021114396,-0.6975039,-0.0,0.0,0.0,0.0,0.0
350225590,350225521,-0.006389918,0.0016468656,-0.6975844,-0.0,0.0,0.0,0.0,0.0
350229570,350229469,-0.00655338,0.0018577479,-0.69761336,-0.0,0.0,0.0,0.0,0.0
350233538,350233469,-0.0063878833,0.0022978592,-0.6975201,-0.0,0.0,0.0,0.0,0.0
350237588,350237497,-0.0065820003,0.0025143514,-0.6973645,-0.0,0.0,0.0,0.0,0.0
350241538,350241469,-0.0066563594,0.0026544537,-0.69726664,-0.0,0.0,0.0,0.0,0.0
350245544,350245475,-0.0071448977,0.0023433722,-0.69729215,-0.0,0.0,0.0,0.0,0.0
350249583,350249469,-0.0069609587,0.0022574496,-0.69736314,-0.0,0.0,0.0,0.0,0.0
350253546,350253469,-0.0062671094,0.0023319907,-0.69735986,-0.0,0.0,0.0,0.0,0.0
350257572,350257495,-0.0065930723,0.0018602631,-0.6973231,-0.0,0.0,0.0,0.0,0.0
350261582,350261468,-0.006413054,0.0019016586,-0.69727725,-0.0,0.0,0.0,0.0,0.0
350265551,350265475,-0.006188238,0.0020730007,-0.6972851,-0.0,0.0,0.0,0.0,0.0
350269544,350269471,-0.006554773,0.0024636558,-0.69711405,-0.0,0.0,0.0,0.0,0.0
350273538,350273469,-0.006456189,0.0020694253,-0.6970223,-0.0,0.0,0.0,0.0,0.0
350277546,350277471,-0.0062827794,0.0023543772,-0.69719964,-0.0,0.0,0.0,0.0,0.0
350281575,350281469,-0.006582937,0.002325496,-0.6974161,-0.0,0.0,0.0,0.0,0.0
350284758,350284689,-0.0065488783,0.0023684895,-0.69750106,-0.0,0.0,0.0,0.0,0.0
350287986,350287917,-0.006574568,0.0024012933,-0.6975155,-0.0,0.0,0.0,0.0,0.0
350292768,350292669,-0.006607461,0.0025799314,-0.69762963,-0.0,0.0,0.0,0.0,0.0
350296772,350296675,-0.006827993,0.0021705595,-0.69767326,-0.0,0.0,0.0,0.0,0.0
350300738,350300669,-0.0048129624,0.0052016303,0.0005218855,0.0,0.0,0.0,0.0,0.0
350304015,350303893,-0.004419382,0.0053784586,0.00057700905,0.0,0.0,0.0,0.0,0.0
350308738,350308668,-0.004616588,0.0053716484,0.00067484466,0.0,0.0,0.0,0.0,0.0
350312772,350312669,-0.0045073163,0.005002229,0.0007985669,0.0,0.0,0.0,0.0,0.0
350316751,350316668,-0.0047173672,0.0048344703,0.0008055065,0.0,0.0,0.0,0.0,0.0
350320738,350320669,-0.0044764914,0.0050112386,0.0007166555,0.0,0.0,0.0,0.0,0.0
350324779,350324710,-0.0043465006,0.005224409,0.0007168597,0.0,0.0,0.0,0.0,0.0
350328779,350328669,-0.004490844,0.005516746,0.0008228656,0.0,0.0,0.0,0.0,0.0
350332767,350332669,-0.004581255,0.005875833,0.00090393453,0.0,0.0,0.0,0.0,0.0
350336738,350336669,-0.004636525,0.006028852,0.0009339641,0.0,0.0,0.0,0.0,0.0
350340737,350340668,-0.004554973,0.0053150277,0.0008297316,0.0,0.0,0.0,0.0,0.0
350344759,350344689,-0.0044563604,0.005391769,0.0008371326,0.0,0.0,0.0,0.0,0.0
350348775,350348668,-0.0048464476,0.005340421,0.00082627963,0.0,0.0,0.0,0.0,0.0
350352000,350351927,-0.004705125,0.0049978043,0.0008760062,0.0,0.0,0.0,0.0,0.0
350356741,350356668,-0.004465518,0.004674856,0.00079884194,0.0,0.0,0.0,0.0,0.0
350360738,350360669,-0.0043873675,0.004644623,0.00065368426,0.0,0.0,0.0,0.0,0.0
350364782,350364675,-0.004420141,0.004860965,0.00061286445,0.0,0.0,0.0,0.0,0.0
350368759,350368690,-0.0049660555,0.0055685802,0.0006076796,0.0,0.0,0.0,0.0,0.0
350371972,350371903,-0.0049350015,0.005524434,0.0007018595,0.0,0.0,0.0,0.0,0.0
350376749,350376669,-0.0047793016,0.005155311,0.0008296705,0.0,0.0,0.0,0.0,0.0
350380738,350380669,-0.0044360296,0.0051032347,0.0008739571,0.0,0.0,0.0,0.0,0.0
350384771,350384675,-0.0041616964,0.005381349,0.0010023555,0.0,0.0,0.0,0.0,0.0
350388780,350388711,-0.004446845,0.005267952,0.0010726718,0.0,0.0,0.0,0.0,0.0
350392768,350392669,-0.0045882897,0.005271151,0.001055214,0.0,0.0,0.0,0.0,0.0
350396738,350396669,-0.004419976,0.005170691,0.0009804642,0.0,0.0,0.0,0.0,0.0
350400738,350400669,-0.004636869,0.0048163715,0.0008900109,0.0,0.0,0.0,0.0,0.0
350404798,350404681,-0.004795216,0.0051687094,0.0007734596,0.0,0.0,0.0,0.0,0.0
350408738,350408669,-0.0049668197,0.005245257,0.0006730637,0.0,0.0,0.0,0.0,0.0
350411974,350411905,-0.004981411,0.005173477,0.0006408767,0.0,0.0,0.0,0.0,0.0
350416738,350416669,-0.0046908446,0.0053037824,0.0006506227,0.0,0.0,0.0,0.0,0.0
350420738,350420669,-0.0048735244,0.005454055,0.00063682505,0.0,0.0,0.0,0.0,0.0
350424772,350424676,-0.0047468413,0.005669127,0.00073444,0.0,0.0,0.0,0.0,0.0
350428738,350428669,-0.004571289,0.005404319,0.0008935798,0.0,0.0,0.0,0.0,0.0
350432847,350432712,-0.004744214,0.0049776374,0.0009816732,0.0,0.0,0.0,0.0,0.0
350436738,350436669,-0.0047196886,0.004599641,0.0009842933,0.0,0.0,0.0,0.0,0.0
350440741,350440669,-0.004809149,0.004493321,0.0009261463,0.0,0.0,0.0,0.0,0.0
350444782,350444675,-0.0047162906,0.004513699,0.0008905545,0.0,0.0,0.0,0.0,0.0
350448738,350448669,-0.0044398275,0.0050842534,0.0008463948,0.0,0.0,0.0,0.0,0.0
350452806,350452700,-0.004783084,0.005658517,0.000753389,0.0,0.0,0.0,0.0,0.0
350456738,350456668,-0.004987932,0.0055597005,0.00072688475,0.0,0.0,0.0,0.0,0.0
350460738,350460669,-0.004979773,0.005335584,0.0006808394,0.0,0.0,0.0,0.0,0.0
350464745,350464675,-0.004558963,0.0055330195,0.0007757499,0.0,0.0,0.0,0.0,0.0
350468738,350468669,-0.0045213746,0.005719689,0.0009438032,0.0,0.0,0.0,0.0,0.0
350472784,350472685,-0.004150681,0.0055608884,0.0009254287,0.0,0.0,0.0,0.0,0.0
350476738,350476669,-0.0044361413,0.0049310294,0.000851511,0.0,0.0,0.0,0.0,0.0
350480741,350480669,-0.0042355424,0.0047232173,0.0007852427,0.0,0.0,0.0,0.0,0.0
350484750,350484675,-0.004572937,0.004760755,0.0007874869,0.0,0.0,0.0,0.0,0.0
350488738,350488669,-0.0051597455,0.00508936,0.0007382715,0.0,0.0,0.0,0.0,0.0
350492795,350492696,-0.0051438385,0.0048070173,0.00067349954,0.0,0.0,0.0,0.0,0.0
350504758,350504675,-0.004222971,0.0052161524,0.0007170983,0.0,0.0,0.0,0.0,0.0
350508738,350508669,-0.0037460155,0.0052088574,0.00077754416,0.0,0.0,0.0,0.0,0.0
350512794,350512669,-0.0045896876,0.0052721174,0.00081206637,0.0,0.0,0.0,0.0,0.0
350516764,350516669,-0.005003156,0.0056054452,0.0008419977,0.0,0.0,0.0,0.0,0.0
350520741,350520672,-0.0050669275,0.005735771,0.0008256069,0.0,0.0,0.0,0.0,0.0
350524753,350524675,-0.0046925596,0.0053219204,0.0008109032,0.0,0.0,0.0,0.0,0.0
350528738,350528669,-0.0043820506,0.00533036,0.00077038206,0.0,0.0,0.0,0.0,0.0
350532809,350532669,-0.004071836,0.0056834808,0.000720004,0.0,0.0,0.0,0.0,0.0
350536755,350536686,-0.004608105,0.0057332157,0.0006539224,0.0,0.0,0.0,0.0,0.0
350540762,350540693,-0.004996181,0.0050627682,0.0005997784,0.0,0.0,0.0,0.0,0.0
350544738,350544669,-0.004746668,0.0041557257,0.00064688065,0.0,0.0,0.0,0.0,0.0
350548738,350548669,-0.0043525714,0.0046265223,0.0007355778,0.0,0.0,0.0,0.0,0.0
350552803,350552675,-0.0045640916,0.0055141994,0.00081644516,0.0,0.0,0.0,0.0,0.0
350556786,350556717,-0.0049366937,0.005893917,0.00080959575,0.0,0.0,0.0,0.0,0.0
350560818,350560712,-0.00445692,0.005681345,0.0007305836,0.0,0.0,0.0,0.0,0.0
350564738,350564669,-0.0046118484,0.005344394,0.00067715294,0.0,0.0,0.0,0.0,0.0
350568738,350568669,-0.0041574263,0.0048539713,0.0006804834,0.0,0.0,0.0,0.0,0.0
350572812,350572675,-0.004093203,0.0052135703,0.000779336,0.0,0.0,0.0,0.0,0.0
350576738,350576669,-0.004980848,0.005272747,0.0008324461,0.0,0.0,0.0,0.0,0.0
350580807,350580701,-0.0049688146,0.0054377886,0.0008797515,0.0,0.0,0.0,0.0,0.0
350584738,350584669,-0.00477806,0.005424715,0.0009941844,0.0,0.0,0.0,0.0,0.0
350588738,350588669,-0.0044123214,0.004541107,0.001025136,0.0,0.0,0.0,0.0,0.0
350592817,350592675,-0.004028514,0.004548373,0.0010008904,0.0,0.0,0.0,0.0,0.0
350596761,350596678,-0.0042169173,0.0050890534,0.0009350384,0.0,0.0,0.0,0.0,0.0
350600814,350600716,-0.0045730127,0.004824097,0.0008632643,0.0,0.0,0.0,0.0,0.0
350604738,350604669,-0.004414227,0.005304702,0.0010128082,0.0,0.0,0.0,0.0,0.0
350608738,350608669,-0.004171774,0.005744305,0.0010537587,0.0,0.0,0.0,0.0,0.0
350612815,350612675,-0.004252355,0.005680607,0.0009560029,0.0,0.0,0.0,0.0,0.0
350616738,350616669,-0.0048779612,0.0055240113,0.00082821347,0.0,0.0,0.0,0.0,0.0
350620797,350620721,-0.005008508,0.005502015,0.00068505184,0.0,0.0,0.0,0.0,0.0
350624738,350624668,-0.004722087,0.0052595884,0.00063151185,0.0,0.0,0.0,0.0,0.0
350628738,350628669,-0.004539056,0.004738538,0.00064604095,0.0,0.0,0.0,0.0,0.0
350632774,350632675,-0.0042939135,0.004625588,0.00059072685,0.0,0.0,0.0,0.0,0.0
350636740,350636669,-0.0042576217,0.004682033,0.0005694449,0.0,0.0,0.0,0.0,0.0
350640806,350640737,-0.0040159184,0.004707621,0.0006076534,0.0,0.0,0.0,0.0,0.0
350644738,350644669,-0.004704369,0.0043217144,0.00066182454,0.0,0.0,0.0,0.0,0.0
350648738,350648669,-0.0055860966,0.0047215773,0.00082328974,0.0,0.0,0.0,0.0,0.0
350652774,350652675,-0.0050115227,0.0052736993,0.0010544093,0.0,0.0,0.0,0.0,0.0
350656738,350656669,-0.004001615,0.005568086,0.0009923503,0.0,0.0,0.0,0.0,0.0
350660776,350660669,-0.0034640592,0.0058203163,0.00081315404,0.0,0.0,0.0,0.0,0.0
350664775,350664669,-0.0038278524,0.0055305874,0.00073705585,0.0,0.0,0.0,0.0,0.0
350668738,350668669,-0.0044823503,0.0051560486,0.00084814936,0.0,0.0,0.0,0.0,0.0
350672774,350672675,-0.005122396,0.0054900944,0.000915155,0.0,0.0,0.0,0.0,0.0
350676738,350676668,-0.0048980056,0.0062400973,0.00094603695,0.0,0.0,0.0,0.0,0.0
350680775,350680669,-0.0044349483,0.0055626407,0.0008450375,0.0,0.0,0.0,0.0,0.0
350684779,350684669,-0.0038144845,0.005050514,0.00083245215,0.0,0.0,0.0,0.0,0.0
350688738,350688669,-0.004204857,0.004719229,0.00091534125,0.0,0.0,0.0,0.0,0.0
350692774,350692675,-0.0048090317,0.004765242,0.0009477849,0.0,0.0,0.0,0.0,0.0
350695986,350695914,-0.004765427,0.0048940694,0.0009212059,0.0,0.0,0.0,0.0,0.0
350700781,350700673,-0.0047981716,0.0047751195,0.0009039642,0.0,0.0,0.0,0.0,0.0
350704758,350704686,-0.005189255,0.0049591428,0.0008140406,0.0,0.0,0.0,0.0,0.0
350708023,350707905,-0.0051665152,0.0049430835,0.00073747546,0.0,0.0,0.0,0.0,0.0
350712778,350712675,-0.004983181,0.004940882,0.00083507894,0.0,0.0,0.0,0.0,0.0
350716738,350716669,-0.0049006813,0.005101472,0.0009157328,0.0,0.0,0.0,0.0,0.0
350720765,350720669,-0.004470406,0.0052802116,0.0007986437,0.0,0.0,0.0,0.0,0.0
350724780,350724711,-0.003921101,0.0054814615,0.0008265444,0.0,0.0,0.0,0.0,0.0
350728821,350728715,-0.0035950977,0.005532751,0.0009101687,0.0,0.0,0.0,0.0,0.0
350732774,350732675,-0.0039347936,0.0055862833,0.00096659455,0.0,0.0,0.0,0.0,0.0
350736738,350736669,-0.0043398873,0.0053075915,0.0009160923,0.0,0.0,0.0,0.0,0.0
350740738,350740669,-0.0048760446,0.005009226,0.00073004747,0.0,0.0,0.0,0.0,0.0
350744738,350744669,-0.005091972,0.005060656,0.00068486534,0.0,0.0,0.0,0.0,0.0
350748776,350748670,-0.004499882,0.0047368673,0.00064301415,0.0,0.0,0.0,0.0,0.0
350752767,350752669,-0.0037646964,0.005134741,0.0006263991,0.0,0.0,0.0,0.0,0.0
350756738,350756668,-0.00405175,0.005454077,0.00065666705,0.0,0.0,0.0,0.0,0.0
350760744,350760675,-0.0046148654,0.0053915763,0.00059196993,0.0,0.0,0.0,0.0,0.0
350764740,350764669,-0.0050510727,0.0056303726,0.0005124881,0.0,0.0,0.0,0.0,0.0
350768785,350768675,-0.0048968936,0.005805587,0.0005915598,0.0,0.0,0.0,0.0,0.0
350772778,350772669,-0.004705724,0.00537176,0.0007268363,0.0,0.0,0.0,0.0,0.0
350776738,350776669,-0.0048154285,0.0051778476,0.0007813664,0.0,0.0,0.0,0.0,0.0
350780744,350780675,-0.004977099,0.005019793,0.0007583714,0.0,0.0,0.0,0.0,0.0
350784738,350784669,-0.004736657,0.005050189,0.00076332624,0.0,0.0,0.0,0.0,0.0
350788793,350788686,-0.004223609,0.005142851,0.00078287686,0.0,0.0,0.0,0.0,0.0
350792768,350792669,-0.004147835,0.0050251656,0.0008199584,0.0,0.0,0.0,0.0,0.0
350796741,350796668,-0.0041645826,0.005449949,0.0008452194,0.0,0.0,0.0,0.0,0.0
350800744,350800675,-0.004422982,0.005427183,0.00085168885,0.0,0.0,0.0,0.0,0.0
350804738,350804669,-0.004531388,0.005270769,0.0008361819,0.0,0.0,0.0,0.0,0.0
350808788,350808692,-0.0045031137,0.0052107996,0.0008148569,0.0,0.0,0.0,0.0,0.0
350812767,350812669,-0.0041724704,0.0053098598,0.0008108409,0.0,0.0,0.0,0.0,0.0
350816759,350816690,-0.0040074205,0.005784877,0.00091276126,0.0,0.0,0.0,0.0,0.0
350820744,350820675,-0.0045788735,0.005834593,0.0009397181,0.0,0.0,0.0,0.0,0.0
350824738,350824669,-0.0051800176,0.005334353,0.0008561266,0.0,0.0,0.0,0.0,0.0
350828787,350828680,-0.0048451386,0.004682623,0.0007553737,0.0,0.0,0.0,0.0,0.0
350832804,350832669,-0.0047048754,0.0044984873,0.00073541526,0.0,0.0,0.0,0.0,0.0
350836748,350836679,-0.004607289,0.0046987543,0.0007493135,0.0,0.0,0.0,0.0,0.0
350840744,350840675,-0.0047331895,0.005095892,0.00068695133,0.0,0.0,0.0,0.0,0.0
350844742,350844669,-0.0049272794,0.0053016255,0.0005482015,0.0,0.0,0.0,0.0,0.0
350848768,350848668,-0.0044086813,0.0056096264,0.00052618433,0.0,0.0,0.0,0.0,0.0
350852811,350852668,-0.0045303195,0.005911123,0.000516723,0.0,0.0,0.0,0.0,0.0
350856769,350856696,-0.0043187295,0.0057497495,0.000621603,0.0,0.0,0.0,0.0,0.0
350860751,350860675,-0.0038156733,0.0048070364,0.0007492217,0.0,0.0,0.0,0.0,0.0
350864738,350864669,-0.0042541022,0.0050990707,0.0009702541,0.0,0.0,0.0,0.0,0.0
350868779,350868668,-0.0044620363,0.0050931294,0.0009594061,0.0,0.0,0.0,0.0,0.0
350872784,350872686,-0.0043925256,0.005753535,0.0008005596,0.0,0.0,0.0,0.0,0.0
350876761,350876692,-0.0048463177,0.0053227204,0.00069666206,0.0,0.0,0.0,0.0,0.0
350880745,350880675,-0.0050318292,0.005041124,0.00056917797,0.0,0.0,0.0,0.0,0.0
350884738,350884669,-0.0049538612,0.0054102833,0.0006708923,0.0,0.0,0.0,0.0,0.0
350888738,350888669,-0.004752859,0.004824199,0.0008637039,0.0,0.0,0.0,0.0,0.0
350892793,350892691,-0.0044802255,0.004870293,0.0009918608,0.0,0.0,0.0,0.0,0.0
350896826,350896712,-0.0040550684,0.0053217583,0.0010798551,0.0,0.0,0.0,0.0,0.0
350900748,350900675,-0.00424855,0.005283788,0.0011146205,0.0,0.0,0.0,0.0,0.0
350904738,350904669,-0.004650112,0.0050633852,0.0011524614,0.0,0.0,0.0,0.0,0.0
350908738,350908669,-0.004793603,0.0047521293,0.0010803061,0.0,0.0,0.0,0.0,0.0
350912768,350912669,-0.0046185,0.005023909,0.0009329789,0.0,0.0,0.0,0.0,0.0
350916789,350916691,-0.003968155,0.0052719736,0.0007175665,0.0,0.0,0.0,0.0,0.0
350920744,350920675,-0.0043765837,0.0049915286,0.00060015754,0.0,0.0,0.0,0.0,0.0
350924738,350924669,-0.0044001485,0.005042171,0.0006792535,0.0,0.0,0.0,0.0,0.0
350928738,350928669,-0.004884705,0.0052612717,0.000768887,0.0,0.0,0.0,0.0,0.0
350932778,350932669,-0.005080119,0.0056393854,0.00076036825,0.0,0.0,0.0,0.0,0.0
350936805,350936669,-0.004640512,0.00556477,0.00072913995,0.0,0.0,0.0,0.0,0.0
350940744,350940675,-0.0039142314,0.005328649,0.00070009235,0.0,0.0,0.0,0.0,0.0
350944738,350944669,-0.004290547,0.0053354437,0.0006698059,0.0,0.0,0.0,0.0,0.0
350948738,350948669,-0.0043609613,0.004857796,0.00062236143,0.0,0.0,0.0,0.0,0.0
350952768,350952669,-0.004658272,0.0052720825,0.0007174185,0.0,0.0,0.0,0.0,0.0
350956793,350956686,-0.005009414,0.0052731014,0.00089568336,0.0,0.0,0.0,0.0,0.0
350960751,350960681,-0.005273718,0.0049554817,0.0009569538,0.0,0.0,0.0,0.0,0.0
350964738,350964669,-0.004787012,0.0054602334,0.0009483155,0.0,0.0,0.0,0.0,0.0
350968738,350968669,-0.00501026,0.00526693,0.00090225274,0.0,0.0,0.0,0.0,0.0
350972768,350972669,-0.0044778013,0.0049564946,0.0008553352,0.0,0.0,0.0,0.0,0.0
350976795,350976699,-0.0042507714,0.0051316824,0.0008525163,0.0,0.0,0.0,0.0,0.0
350980738,350980669,-0.0039041308,0.0054469006,0.00084781426,0.0,0.0,0.0,0.0,0.0
350984786,350984713,-0.004242627,0.004947341,0.0008115207,0.0,0.0,0.0,0.0,0.0
350988744,350988675,-0.0049181357,0.0049302713,0.00088849367,0.0,0.0,0.0,0.0,0.0
350992767,350992669,-0.0049102916,0.005704161,0.0009787284,0.0,0.0,0.0,0.0,0.0
350996780,350996669,-0.004788339,0.0060111335,0.0009844534,0.0,0.0,0.0,0.0,0.0
351000764,351000669,-0.0048649767,0.005516709,0.0008809007,0.0,0.0,0.0,0.0,0.0
351004035,351003882,-0.0044996673,0.0050460114,0.0009028038,0.0,0.0,0.0,0.0,0.0
351008744,351008675,-0.004313979,0.0045636347,0.0008501676,0.0,0.0,0.0,0.0,0.0
351012768,351012669,-0.0045515285,0.0050255437,0.00079481443,0.0,0.0,0.0,0.0,0.0
351016765,351016669,-0.0046026604,0.0049658483,0.00085712783,0.0,0.0,0.0,0.0,0.0
351020775,351020669,-0.0045602475,0.004972334,0.00089005166,0.0,0.0,0.0,0.0,0.0
351023993,351023886,-0.0044625793,0.005214103,0.0008342568,0.0,0.0,0.0,0.0,0.0
351027189,351027117,-0.0040267264,0.0049457047,0.0006925043,0.0,0.0,0.0,0.0,0.0
351031180,351031091,-0.0037959293,0.004735058,0.0005965849,0.0,0.0,0.0,0.0,0.0
351035142,351035069,-0.0043829386,0.005016006,0.0005639494,0.0,0.0,0.0,0.0,0.0
351039141,351039069,-0.005209732,0.0055120676,0.0006100191,0.0,0.0,0.0,0.0,0.0
351043141,351043069,-0.0051607215,0.0054382356,0.00064374786,0.0,0.0,0.0,0.0,0.0
351047141,351047069,-0.004535724,0.005526453,0.0007210527,0.0,0.0,0.0,0.0,0.0
351051204,351051069,-0.004303665,0.0054732645,0.0008700993,0.0,0.0,0.0,0.0,0.0
351055151,351055070,-0.0039509586,0.0051801,0.0009372553,0.0,0.0,0.0,0.0,0.0
351058381,351058311,-0.0042909533,0.004920339,0.000917839,0.0,0.0,0.0,0.0,0.0
351062351,351062269,-0.005264361,0.0052478346,0.00092117704,0.0,0.0,0.0,0.0,0.0
351065580,351065511,-0.005605626,0.005406669,0.00094632106,0.0,0.0,0.0,0.0,0.0
351069538,351069469,-0.005053638,0.005090891,0.0009897709,0.0,0.0,0.0,0.0,0.0
351073539,351073469,-0.0039392645,0.0053314427,0.0008439161,0.0,0.0,0.0,0.0,0.0
351080777,351080708,-0.004651863,0.005344376,0.00063346035,0.0,0.0,0.0,0.0,0.0
351084805,351084669,-0.0046699937,0.005717882,0.0007177649,0.0,0.0,0.0,0.0,0.0
351088000,351087888,-0.0047372133,0.005360825,0.0007945422,0.0,0.0,0.0,0.0,0.0
351092767,351092668,-0.004278787,0.0050869156,0.00078421755,0.0,0.0,0.0,0.0,0.0
351096738,351096669,-0.004316699,0.004902748,0.000666948,0.0,0.0,0.0,0.0,0.0
351100738,351100668,-0.0047460245,0.0049925023,0.00062915747,0.0,0.0,0.0,0.0,0.0
351104802,351104669,-0.0043895384,0.0054105967,0.0007543884,0.0,0.0,0.0,0.0,0.0
351108738,351108669,-0.0048030405,0.005586042,0.00078487437,0.0,0.0,0.0,0.0,0.0
351112782,351112670,-0.0048245904,0.005097426,0.00078245514,0.0,0.0,0.0,0.0,0.0
351115959,351115887,-0.0043869135,0.0046601077,0.00078602595,0.0,0.0,0.0,0.0,0.0
351120740,351120671,-0.0044899057,0.0050913393,0.00067588786,0.0,0.0,0.0,0.0,0.0
351124794,351124686,-0.0045504025,0.0051096934,0.00069673656,0.0,0.0,0.0,0.0,0.0
351128738,351128669,-0.0046462,0.0054079476,0.0008459802,0.0,0.0,0.0,0.0,0.0
351132807,351132708,-0.0041263383,0.005587448,0.0008300648,0.0,0.0,0.0,0.0,0.0
351136742,351136669,-0.004407297,0.0057626935,0.00065445824,0.0,0.0,0.0,0.0,0.0
351140741,351140671,-0.0046784147,0.0055986377,0.0005020573,0.0,0.0,0.0,0.0,0.0
351143962,351143886,-0.005052874,0.0050983448,0.00044557723,0.0,0.0,0.0,0.0,0.0
351147948,351147875,-0.005484839,0.004683024,0.0004813207,0.0,0.0,0.0,0.0,0.0
351152014,351151868,-0.0048258137,0.0058335853,0.0006361021,0.0,0.0,0.0,0.0,0.0
351155941,351155868,-0.0047103586,0.0057055335,0.0007806099,0.0,0.0,0.0,0.0,0.0
351159942,351159869,-0.0044568637,0.004970423,0.0007845281,0.0,0.0,0.0,0.0,0.0
351163941,351163868,-0.004403579,0.0044305976,0.0007542175,0.0,0.0,0.0,0.0,0.0
351167948,351167875,-0.004932281,0.004940277,0.0007365278,0.0,0.0,0.0,0.0,0.0
351172058,351171900,-0.005268668,0.0056441575,0.0008245517,0.0,0.0,0.0,0.0,0.0
351175941,351175868,-0.004999426,0.005616361,0.0009267567,0.0,0.0,0.0,0.0,0.0
351179180,351179104,-0.0044235513,0.0047865575,0.00077744544,0.0,0.0,0.0,0.0,0.0
351183941,351183868,-0.0047717607,0.004866484,0.0006071582,0.0,0.0,0.0,0.0,0.0
351187948,351187876,-0.004647028,0.0049602855,0.00057158264,0.0,0.0,0.0,0.0,0.0
351191989,351191875,-0.005196476,0.0052852007,0.00063136424,0.0,0.0,0.0,0.0,0.0
351195945,351195869,-0.005164184,0.0054810895,0.0006935747,0.0,0.0,0.0,0.0,0.0
351199945,351199868,-0.0044498607,0.005118833,0.00073195406,0.0,0.0,0.0,0.0,0.0
351203938,351203868,-0.0037464467,0.0047758855,0.00079986994,0.0,0.0,0.0,0.0,0.0
351207938,351207868,-0.0038416542,0.0045887143,0.0008425754,0.0,0.0,0.0,0.0,0.0
351211972,351211872,-0.0049113496,0.004914487,0.0008753391,0.0,0.0,0.0,0.0,0.0
351215938,351215869,-0.0055677034,0.0053722966,0.00084530097,0.0,0.0,0.0,0.0,0.0
351219990,351219917,-0.0053644753,0.0057182885,0.0007002458,0.0,0.0,0.0,0.0,0.0
351223938,351223869,-0.0047833547,0.005605054,0.00057539385,0.0,0.0,0.0,0.0,0.0
351227976,351227904,-0.004678634,0.005345179,0.00045612405,0.0,0.0,0.0,0.0,0.0
351231941,351231872,-0.0045787278,0.005109812,0.00037543123,0.0,0.0,0.0,0.0,0.0
351235975,351235869,-0.004171417,0.004942789,0.00051772076,0.0,0.0,0.0,0.0,0.0
351239981,351239912,-0.0041854796,0.0048703295,0.0006361973,0.0,0.0,0.0,0.0,0.0
351243945,351243868,-0.004349534,0.005140849,0.0007504671,0.0,0.0,0.0,0.0,0.0
351247944,351247875,-0.004420554,0.0053478233,0.0007635666,0.0,0.0,0.0,0.0,0.0
351251938,351251869,-0.0042656185,0.0055176816,0.0008343829,0.0,0.0,0.0,0.0,0.0
351256008,351255893,-0.0041688276,0.00559288,0.0008764731,0.0,0.0,0.0,0.0,0.0
351259964,351259891,-0.0043703527,0.0054720896,0.0007680705,0.0,0.0,0.0,0.0,0.0
351263941,351263868,-0.004511287,0.005371316,0.00065256114,0.0,0.0,0.0,0.0,0.0
351267968,351267875,-0.0048294975,0.0056515457,0.0006338913,0.0,0.0,0.0,0.0,0.0
351271938,351271869,-0.0049998574,0.005668345,0.0006508467,0.0,0.0,0.0,0.0,0.0
351275944,351275875,-0.004307104,0.0053636623,0.0006193412,0.0,0.0,0.0,0.0,0.0
351279965,351279869,-0.004508441,0.00497124,0.00062046724,0.0,0.0,0.0,0.0,0.0
351283972,351283900,-0.005222319,0.0050523668,0.0006359573,0.0,0.0,0.0,0.0,0.0
351287938,351287869,-0.0051700505,0.0048848856,0.000626256,0.0,0.0,0.0,0.0,0.0
351291938,351291869,-0.0044928375,0.0049259295,0.0005646005,0.0,0.0,0.0,0.0,0.0
351295980,351295911,-0.0044454867,0.00566659,0.00048028506,0.0,0.0,0.0,0.0,0.0
351300012,351299869,-0.0049042716,0.005597868,0.000543516,0.0,0.0,0.0,0.0,0.0
351303938,351303869,-0.0045106024,0.005112027,0.00073169824,0.0,0.0,0.0,0.0,0.0
351307948,351307869,-0.004442161,0.005038854,0.0009136293,0.0,0.0,0.0,0.0,0.0
351311959,351311887,-0.004607571,0.0048563643,0.00093307596,0.0,0.0,0.0,0.0,0.0
351315944,351315875,-0.0049658674,0.005283006,0.00086926477,0.0,0.0,0.0,0.0,0.0
351320001,351319869,-0.004840775,0.0058192625,0.00084529695,0.0,0.0,0.0,0.0,0.0
351323938,351323869,-0.005197114,0.005191155,0.0008960686,0.0,0.0,0.0,0.0,0.0
351327972,351327902,-0.0051616416,0.005060335,0.0009196115,0.0,0.0,0.0,0.0,0.0
351331939,351331869,-0.004399481,0.004652171,0.000773,0.0,0.0,0.0,0.0,0.0
351335957,351335885,-0.0043489104,0.00462377,0.0007629543,0.0,0.0,0.0,0.0,0.0
351340037,351339887,-0.0045833886,0.0052152416,0.00074805104,0.0,0.0,0.0,0.0,0.0
351343948,351343869,-0.0044957474,0.0053618904,0.00067010196,0.0,0.0,0.0,0.0,0.0
351347959,351347890,-0.0044875895,0.005065591,0.00062671944,0.0,0.0,0.0,0.0,0.0
351351938,351351869,-0.004677704,0.0055440166,0.0006785143,0.0,0.0,0.0,0.0,0.0
351355944,351355875,-0.0049696187,0.005617064,0.0007674529,0.0,0.0,0.0,0.0,0.0
351359985,351359875,-0.004692315,0.0051756673,0.0008272025,0.0,0.0,0.0,0.0,0.0
351363945,351363875,-0.0045369314,0.0049989843,0.0009420355,0.0,0.0,0.0,0.0,0.0
351367985,351367913,-0.004966636,0.00474432,0.0009735373,0.0,0.0,0.0,0.0,0.0
351371938,351371869,-0.005289878,0.0046609286,0.0007740398,0.0,0.0,0.0,0.0,0.0
351375944,351375875,-0.005324513,0.0048059663,0.00059177243,0.0,0.0,0.0,0.0,0.0
351380012,351379911,-0.004794949,0.004882321,0.0004762862,0.0,0.0,0.0,0.0,0.0
351383938,351383869,-0.004431402,0.005049968,0.00049349427,0.0,0.0,0.0,0.0,0.0
351387945,351387876,-0.0044696145,0.0053323084,0.00067065266,0.0,0.0,0.0,0.0,0.0
351391938,351391869,-0.0041127605,0.005519853,0.00074171106,0.0,0.0,0.0,0.0,0.0
351395955,351395880,-0.004429434,0.0055827363,0.0007301243,0.0,0.0,0.0,0.0,0.0
351399938,351399869,-0.0044650803,0.005704148,0.00069166423,0.0,0.0,0.0,0.0,0.0
351403978,351403868,-0.004603013,0.0053978064,0.0006960744,0.0,0.0,0.0,0.0,0.0
351407955,351407885,-0.0048667565,0.0050345557,0.0006976978,0.0,0.0,0.0,0.0,0.0
351411938,351411869,-0.0048812907,0.0050689355,0.00076844625,0.0,0.0,0.0,0.0,0.0
351415944,351415875,-0.0048213797,0.005077216,0.0006060055,0.0,0.0,0.0,0.0,0.0
351419938,351419869,-0.0047083665,0.005242066,0.00055244286,0.0,0.0,0.0,0.0,0.0
351424003,351423894,-0.004428828,0.005224314,0.0006959546,0.0,0.0,0.0,0.0,0.0
351427983,351427869,-0.0044755503,0.0052998727,0.0008247235,0.0,0.0,0.0,0.0,0.0
351431938,351431869,-0.0052799443,0.005560522,0.00083695026,0.0,0.0,0.0,0.0,0.0
351435944,351435875,-0.0050355806,0.005193751,0.000797858,0.0,0.0,0.0,0.0,0.0
351439938,351439869,-0.0044902535,0.0045141745,0.0007623017,0.0,0.0,0.0,0.0,0.0
351443963,351443890,-0.0037934755,0.004609901,0.0007690632,0.0,0.0,0.0,0.0,0.0
351447965,351447869,-0.0042379457,0.0052934787,0.0006658166,0.0,0.0,0.0,0.0,0.0
351451962,351451887,-0.0047035054,0.005447463,0.0005387026,0.0,0.0,0.0,0.0,0.0
351455944,351455875,-0.004642961,0.0053802226,0.00048669247,0.0,0.0,0.0,0.0,0.0
351459938,351459869,-0.00488157,0.0052092923,0.00044205232,0.0,0.0,0.0,0.0,0.0
351463950,351463881,-0.0052681677,0.004986315,0.00040330467,0.0,0.0,0.0,0.0,0.0
351467976,351467869,-0.0052568726,0.005393387,0.0003593184,0.0,0.0,0.0,0.0,0.0
351471938,351471869,-0.00529782,0.0057546184,0.00033708476,0.0,0.0,0.0,0.0,0.0
351475987,351475918,-0.0045935204,0.005459612,0.00046694564,0.0,0.0,0.0,0.0,0.0
351479959,351479887,-0.0042385203,0.0050265677,0.0005553398,0.0,0.0,0.0,0.0,0.0
351483963,351483894,-0.0041324776,0.0051529016,0.000610216,0.0,0.0,0.0,0.0,0.0
351488018,351487869,-0.0046069627,0.005238831,0.0005470964,0.0,0.0,0.0,0.0,0.0
351491938,351491869,-0.0053308685,0.0053175753,0.00058129366,0.0,0.0,0.0,0.0,0.0
351495976,351495907,-0.0056246207,0.0053757904,0.0007921476,0.0,0.0,0.0,0.0,0.0
351499938,351499869,-0.004874277,0.005166086,0.0009717253,0.0,0.0,0.0,0.0,0.0
351503939,351503870,-0.0043224893,0.0054181493,0.0009929973,0.0,0.0,0.0,0.0,0.0
351508024,351507887,-0.0042364635,0.0051393323,0.0009603267,0.0,0.0,0.0,0.0,0.0
351511938,351511869,-0.004255596,0.0050247465,0.00085262116,0.0,0.0,0.0,0.0,0.0
351515982,351515913,-0.0042242226,0.005350908,0.0008497873,0.0,0.0,0.0,0.0,0.0
351519938,351519869,-0.0041887336,0.004823216,0.0008609959,0.0,0.0,0.0,0.0,0.0
351523977,351523908,-0.0045517753,0.004843304,0.0008175193,0.0,0.0,0.0,0.0,0.0
351527968,351527886,-0.0044565485,0.0056489566,0.0007245131,0.0,0.0,0.0,0.0,0.0
351531938,351531869,-0.0049165827,0.0054960614,0.0006685265,0.0,0.0,0.0,0.0,0.0
351535998,351535913,-0.005187975,0.0051930854,0.00063730916,0.0,0.0,0.0,0.0,0.0
351539937,351539868,-0.00472468,0.004882687,0.0007607888,0.0,0.0,0.0,0.0,0.0
351543944,351543875,-0.004081755,0.005328263,0.00093764876,0.0,0.0,0.0,0.0,0.0
351548023,351547925,-0.0044957055,0.0053270087,0.00081155787,0.0,0.0,0.0,0.0,0.0
351551940,351551869,-0.0046600983,0.0050665545,0.00069754024,0.0,0.0,0.0,0.0,0.0
351555974,351555905,-0.0047493987,0.0047766934,0.00069504714,0.0,0.0,0.0,0.0,0.0
351559938,351559869,-0.0048275394,0.0046349815,0.0006395741,0.0,0.0,0.0,0.0,0.0
351563961,351563889,-0.0044931993,0.0051355516,0.00062026404,0.0,0.0,0.0,0.0,0.0
351567938,351567869,-0.004556714,0.005061009,0.0006564033,0.0,0.0,0.0,0.0,0.0
351571982,351571868,-0.005203799,0.0049360204,0.00063344993,0.0,0.0,0.0,0.0,0.0
351575968,351575868,-0.005431656,0.005698425,0.0006014809,0.0,0.0,0.0,0.0,0.0
351579938,351579869,-0.005030658,0.006041171,0.0006724999,0.0,0.0,0.0,0.0,0.0
351583951,351583882,-0.004372022,0.005780534,0.0008694047,0.0,0.0,0.0,0.0,0.0
351587938,351587869,-0.004013288,0.00519467,0.0009914826,0.0,0.0,0.0,0.0,0.0
351591997,351591888,-0.004126666,0.0053075557,0.0009931895,0.0,0.0,0.0,0.0,0.0
351595976,351595869,-0.0047304034,0.005352549,0.00096428936,0.0,0.0,0.0,0.0,0.0
351599938,351599869,-0.0051946267,0.0051359143,0.00094046834,0.0,0.0,0.0,0.0,0.0
351603944,351603875,-0.005147048,0.0052897325,0.0010266526,0.0,0.0,0.0,0.0,0.0
351607938,351607869,-0.0045831692,0.0057423483,0.0010589598,0.0,0.0,0.0,0.0,0.0
351611959,351611890,-0.0038934345,0.005724122,0.0010415477,0.0,0.0,0.0,0.0,0.0
351615965,351615869,-0.004037357,0.004978398,0.0009818084,0.0,0.0,0.0,0.0,0.0
351619959,351619887,-0.0048303106,0.00457493,0.00081432064,0.0,0.0,0.0,0.0,0.0
351623977,351623908,-0.005331708,0.004248146,0.0007735129,0.0,0.0,0.0,0.0,0.0
351627938,351627869,-0.0053747385,0.0045942045,0.0007632493,0.0,0.0,0.0,0.0,0.0
351631969,351631900,-0.004914495,0.005312004,0.00075594196,0.0,0.0,0.0,0.0,0.0
351635976,351635869,-0.0045674727,0.005702974,0.0006918584,0.0,0.0,0.0,0.0,0.0
351639938,351639869,-0.004468227,0.005740669,0.0006650492,0.0,0.0,0.0,0.0,0.0
351643988,351643918,-0.0042974036,0.0055166753,0.00065642095,0.0,0.0,0.0,0.0,0.0
351647959,351647887,-0.0039288485,0.005345071,0.0007439248,0.0,0.0,0.0,0.0,0.0
351651938,351651869,-0.004169143,0.0060667368,0.0008558395,0.0,0.0,0.0,0.0,0.0
351656018,351655869,-0.004369997,0.0055420906,0.00087995286,0.0,0.0,0.0,0.0,0.0
351659938,351659869,-0.0048249476,0.0050797868,0.00076524355,0.0,0.0,0.0,0.0,0.0
351663986,351663913,-0.0045507355,0.0049207425,0.0007404682,0.0,0.0,0.0,0.0,0.0
351667938,351667868,-0.0043025063,0.0052557755,0.00071720075,0.0,0.0,0.0,0.0,0.0
351671962,351671893,-0.004684889,0.0049070055,0.0007683135,0.0,0.0,0.0,0.0,0.0
351676026,351675887,-0.0047222464,0.004746746,0.0008837723,0.0,0.0,0.0,0.0,0.0
351679938,351679869,-0.0051045693,0.00545527,0.0009310758,0.0,0.0,0.0,0.0,0.0
351683965,351683896,-0.004700793,0.0053916103,0.0009396978,0.0,0.0,0.0,0.0,0.0
351687938,351687869,-0.004588621,0.0050171213,0.0009849403,0.0,0.0,0.0,0.0,0.0
351691973,351691904,-0.0042466475,0.005157949,0.0010343796,0.0,0.0,0.0,0.0,0.0
351695959,351695890,-0.0050988477,0.0050257333,0.0010215464,0.0,0.0,0.0,0.0,0.0
351699938,351699869,-0.0050985455,0.00478928,0.0010246336,0.0,0.0,0.0,0.0,0.0
351703992,351703893,-0.004320833,0.004791795,0.00095038593,0.0,0.0,0.0,0.0,0.0
351707941,351707868,-0.004089796,0.005171153,0.0008092563,0.0,0.0,0.0,0.0,0.0
351711191,351711112,-0.004559681,0.005084396,0.00081682455,0.0,0.0,0.0,0.0,0.0
351715980,351715910,-0.0048652687,0.005315782,0.000986204,0.0,0.0,0.0,0.0,0.0
351719938,351719868,-0.0043244422,0.0054371073,0.0010420111,0.0,0.0,0.0,0.0,0.0
351723976,351723869,-0.0043740137,0.005646746,0.0010271495,0.0,0.0,0.0,0.0,0.0
351727938,351727869,-0.004702056,0.0058333618,0.0008629183,0.0,0.0,0.0,0.0,0.0
351731967,351731895,-0.0050188373,0.005197764,0.00081208843,0.0,0.0,0.0,0.0,0.0
351735938,351735869,-0.004851445,0.004958356,0.000889054,0.0,0.0,0.0,0.0,0.0
351739975,351739869,-0.0046062465,0.005031935,0.0008685289,0.0,0.0,0.0,0.0,0.0
351743965,351743869,-0.0042428384,0.005475263,0.0007998828,0.0,0.0,0.0,0.0,0.0
351747938,351747869,-0.004716485,0.0055321446,0.00069314055,0.0,0.0,0.0,0.0,0.0
351751976,351751907,-0.0050618653,0.0053994083,0.0006353042,0.0,0.0,0.0,0.0,0.0
351755941,351755868,-0.0053778533,0.0051281527,0.00060297514,0.0,0.0,0.0,0.0,0.0
351760030,351759914,-0.004693671,0.004999171,0.0006565989,0.0,0.0,0.0,0.0,0.0
351763976,351763869,-0.0046306127,0.005176277,0.0006766246,0.0,0.0,0.0,0.0,0.0
351767938,351767869,-0.0048578507,0.0051397947,0.0007475104,0.0,0.0,0.0,0.0,0.0
351771988,351771918,-0.004669869,0.005211175,0.0007772504,0.0,0.0,0.0,0.0,0.0
351775938,351775869,-0.004578065,0.0053650863,0.00081341265,0.0,0.0,0.0,0.0,0.0
351779963,351779894,-0.004606997,0.004753885,0.0008382047,0.0,0.0,0.0,0.0,0.0
351783976,351783869,-0.0044874796,0.004615049,0.00091847824,0.0,0.0,0.0,0.0,0.0
351787959,351787887,-0.004190016,0.005128943,0.00089358323,0.0,0.0,0.0,0.0,0.0
351791967,351791898,-0.004314147,0.005807677,0.00080277974,0.0,0.0,0.0,0.0,0.0
351795942,351795868,-0.004249662,0.005838174,0.00076576346,0.0,0.0,0.0,0.0,0.0
351799949,351799877,-0.0048747384,0.0054594185,0.00073728437,0.0,0.0,0.0,0.0,0.0
351803944,351803868,-0.004557715,0.004920472,0.0007574254,0.0,0.0,0.0,0.0,0.0
351807941,351807868,-0.00434208,0.0045086257,0.00078353175,0.0,0.0,0.0,0.0,0.0
351811954,351811881,-0.0044637835,0.0049225916,0.0008200717,0.0,0.0,0.0,0.0,0.0
351815962,351815887,-0.0046057273,0.0052672336,0.0008120183,0.0,0.0,0.0,0.0,0.0
351819944,351819871,-0.004722776,0.0051611373,0.00073194393,0.0,0.0,0.0,0.0,0.0
351824018,351823869,-0.0047746724,0.0051003788,0.0007543967,0.0,0.0,0.0,0.0,0.0
351827938,351827869,-0.0051317294,0.0055128336,0.0007455776,0.0,0.0,0.0,0.0,0.0
351831956,351831887,-0.0046308152,0.005516338,0.0007913303,0.0,0.0,0.0,0.0,0.0
351835938,351835869,-0.004698005,0.0051867454,0.0007983598,0.0,0.0,0.0,0.0,0.0
351839184,351839111,-0.0047337674,0.0050648395,0.00077822444,0.0,0.0,0.0,0.0,0.0
351843142,351843069,-0.0044237236,0.0052168933,0.0007769132,0.0,0.0,0.0,0.0,0.0
351847181,351847105,-0.004732465,0.004802949,0.00086486636,0.0,0.0,0.0,0.0,0.0
351851986,351851875,-0.004919347,0.0048820525,0.0009581378,0.0,0.0,0.0,0.0,0.0
351855942,351855869,-0.004761817,0.005363903,0.0009462216,0.0,0.0,0.0,0.0,0.0
351859184,351859111,-0.0049361438,0.0057673217,0.00092110777,0.0,0.0,0.0,0.0,0.0
351863144,351863068,-0.004804251,0.0057032234,0.0007915197,0.0,0.0,0.0,0.0,0.0
351867168,351867088,-0.004465665,0.005711718,0.00066748535,0.0,0.0,0.0,0.0,0.0
351871148,351871075,-0.0047374177,0.0054413187,0.0005891938,0.0,0.0,0.0,0.0,0.0
351875142,351875069,-0.004929074,0.004978597,0.0005708324,0.0,0.0,0.0,0.0,0.0
351879157,351879081,-0.005031123,0.0046470547,0.0006292514,0.0,0.0,0.0,0.0,0.0
351883141,351883068,-0.0048683276,0.00470649,0.0007426133,0.0,0.0,0.0,0.0,0.0
351887159,351887086,-0.0045772335,0.0051150643,0.0007224235,0.0,0.0,0.0,0.0,0.0
351891210,351891075,-0.0048540016,0.0057459683,0.000687499,0.0,0.0,0.0,0.0,0.0
351895143,351895069,-0.0050478657,0.0055032065,0.0007476052,0.0,0.0,0.0,0.0,0.0
351899164,351899090,-0.005555917,0.005339231,0.0008151342,0.0,0.0,0.0,0.0,0.0
351903141,351903068,-0.0048949188,0.0043105152,0.0007379965,0.0,0.0,0.0,0.0,0.0
351906372,351906303,-0.0036581487,0.004173284,0.00072243455,0.0,0.0,0.0,0.0,0.0
351910345,351910269,-0.004063942,0.0046121436,0.0007779391,0.0,0.0,0.0,0.0,0.0
351915152,351915069,-0.004039803,0.0046975426,0.00076098036,0.0,0.0,0.0,0.0,0.0
351919187,351919069,-0.0050711534,0.005378079,0.0007541973,0.0,0.0,0.0,0.0,0.0
351923151,351923079,-0.0055772313,0.0055619935,0.00072121125,0.0,0.0,0.0,0.0,0.0
351927163,351927090,-0.004581358,0.0055811843,0.00070797,0.0,0.0,0.0,0.0,0.0
351931173,351931093,-0.004249942,0.0054286853,0.0006783669,0.0,0.0,0.0,0.0,0.0
351935143,351935069,-0.0046263114,0.0053490195,0.0007257475,0.0,0.0,0.0,0.0,0.0
351939168,351939068,-0.0050434046,0.005342282,0.0008075332,0.0,0.0,0.0,0.0,0.0
351943143,351943070,-0.0047423993,0.005266447,0.0008113038,0.0,0.0,0.0,0.0,0.0
351947141,351947069,-0.004058101,0.0052178446,0.0007647525,0.0,0.0,0.0,0.0,0.0
351951192,351951120,-0.0042400155,0.0051194616,0.00063169055,0.0,0.0,0.0,0.0,0.0
351955143,351955069,-0.0048418897,0.005123499,0.00055312604,0.0,0.0,0.0,0.0,0.0
351959180,351959069,-0.0048966976,0.004994047,0.00062134577,0.0,0.0,0.0,0.0,0.0
351963144,351963069,-0.0047625313,0.004913307,0.0006848484,0.0,0.0,0.0,0.0,0.0
351967180,351967108,-0.0044698273,0.005047832,0.0007908198,0.0,0.0,0.0,0.0,0.0
351971148,351971075,-0.0045024366,0.00507691,0.00088823674,0.0,0.0,0.0,0.0,0.0
351975168,351975069,-0.0053745955,0.005039475,0.0009072561,0.0,0.0,0.0,0.0,0.0
351979168,351979068,-0.005054605,0.00482763,0.0007949872,0.0,0.0,0.0,0.0,0.0
351983143,351983070,-0.0046392097,0.004826745,0.00076557713,0.0,0.0,0.0,0.0,0.0
351987179,351987103,-0.0039556394,0.0054554087,0.00082787516,0.0,0.0,0.0,0.0,0.0
351991168,351991093,-0.0048341006,0.0057954756,0.0008444767,0.0,0.0,0.0,0.0,0.0
351995215,351995101,-0.0049593244,0.005587247,0.0007670638,0.0,0.0,0.0,0.0,0.0
351999141,351999069,-0.0047139325,0.0052179014,0.0006873679,0.0,0.0,0.0,0.0,0.0
352003141,352003069,-0.004234494,0.0051492313,0.00065370824,0.0,0.0,0.0,0.0,0.0
352007146,352007070,-0.004579601,0.0054899394,0.0006576672,0.0,0.0,0.0,0.0,0.0
352011158,352011075,-0.0048210756,0.0052500055,0.00064221554,0.0,0.0,0.0,0.0,0.0
352015170,352015092,-0.004665451,0.0047006574,0.000707481,0.0,0.0,0.0,0.0,0.0
352018392,352018323,-0.0045599216,0.0050704344,0.00082140736,0.0,0.0,0.0,0.0,0.0
352023141,352023068,-0.00426738,0.005425506,0.00091086683,0.0,0.0,0.0,0.0,0.0
352027154,352027075,-0.004482677,0.0055305925,0.0009880591,0.0,0.0,0.0,0.0,0.0
352031154,352031082,-0.004478658,0.0053730933,0.0010183168,0.0,0.0,0.0,0.0,0.0
352035155,352035078,-0.0047509884,0.0046349997,0.0010077257,0.0,0.0,0.0,0.0,0.0
352039141,352039068,-0.0050851386,0.0047984514,0.00092983356,0.0,0.0,0.0,0.0,0.0
352043146,352043070,-0.0046031442,0.005182989,0.0007971438,0.0,0.0,0.0,0.0,0.0
352047182,352047069,-0.004051452,0.005407015,0.00080057135,0.0,0.0,0.0,0.0,0.0
352051145,352051069,-0.004348794,0.0050630914,0.00088594446,0.0,0.0,0.0,0.0,0.0
352055161,352055081,-0.0044497787,0.0049846303,0.00084471714,0.0,0.0,0.0,0.0,0.0
352059177,352059075,-0.0043622763,0.004993079,0.0007994336,0.0,0.0,0.0,0.0,0.0
352063144,352063069,-0.0045643533,0.00555166,0.0006930966,0.0,0.0,0.0,0.0,0.0
352067178,352067075,-0.0044189887,0.0053031216,0.000747746,0.0,0.0,0.0,0.0,0.0
352071144,352071069,-0.0050365576,0.004768457,0.0007867642,0.0,0.0,0.0,0.0,0.0
352075169,352075083,-0.0048802835,0.005017633,0.0007376601,0.0,0.0,0.0,0.0,0.0
352079187,352079075,-0.004223211,0.004938931,0.00067201746,0.0,0.0,0.0,0.0,0.0
352083144,352083069,-0.004319042,0.005526152,0.0005930515,0.0,0.0,0.0,0.0,0.0
352087187,352087069,-0.004740801,0.005457425,0.00064374803,0.0,0.0,0.0,0.0,0.0
352091141,352091069,-0.0055625644,0.0055520404,0.00067790033,0.0,0.0,0.0,0.0,0.0
352095141,352095068,-0.005389962,0.0055348123,0.0007174976,0.0,0.0,0.0,0.0,0.0
352099173,352099092,-0.00535956,0.0049637076,0.0006677726,0.0,0.0,0.0,0.0,0.0
352103145,352103073,-0.005258061,0.0048144767,0.00057124917,0.0,0.0,0.0,0.0,0.0
352107167,352107068,-0.0043682368,0.0049775313,0.00047723085,0.0,0.0,0.0,0.0,0.0
352111193,352111117,-0.004083855,0.0052924086,0.00055883423,0.0,0.0,0.0,0.0,0.0
352115164,352115090,-0.0045282817,0.005429853,0.0007513861,0.0,0.0,0.0,0.0,0.0
352119164,352119082,-0.00464384,0.0050553028,0.0009266126,0.0,0.0,0.0,0.0,0.0
352123152,352123076,-0.0046203746,0.0047654784,0.0009202896,0.0,0.0,0.0,0.0,0.0
352127182,352127069,-0.0046231276,0.0054244446,0.0010645741,0.0,0.0,0.0,0.0,0.0
352131146,352131070,-0.0044373577,0.0052333507,0.0011245941,0.0,0.0,0.0,0.0,0.0
352135178,352135102,-0.0045914976,0.004864647,0.001087933,0.0,0.0,0.0,0.0,0.0
352139148,352139075,-0.004846092,0.004785765,0.0009352414,0.0,0.0,0.0,0.0,0.0
352143166,352143068,-0.005453846,0.005252156,0.0007954606,0.0,0.0,0.0,0.0,0.0
352147175,352147076,-0.0051474324,0.005090355,0.0008052583,0.0,0.0,0.0,0.0,0.0
352151141,352151069,-0.0045562503,0.0049617435,0.0008453762,0.0,0.0,0.0,0.0,0.0
352155187,352155112,-0.00444296,0.0052308063,0.0008501631,0.0,0.0,0.0,0.0,0.0
352159160,352159076,-0.0041235015,0.0053029233,0.00081563945,0.0,0.0,0.0,0.0,0.0
352163178,352163069,-0.00418948,0.005045991,0.0007305459,0.0,0.0,0.0,0.0,0.0
352167141,352167068,-0.0043855878,0.0056772614,0.00071656913,0.0,0.0,0.0,0.0,0.0
352171142,352171069,-0.0046127187,0.006191945,0.000650736,0.0,0.0,0.0,0.0,0.0
352175165,352175091,-0.004774983,0.005521686,0.0006126059,0.0,0.0,0.0,0.0,0.0
352179147,352179075,-0.004559255,0.0052595073,0.0006785092,0.0,0.0,0.0,0.0,0.0
352183162,352183086,-0.0044121975,0.005007901,0.0007664372,0.0,0.0,0.0,0.0,0.0
352187141,352187069,-0.004310614,0.0049138684,0.0008773077,0.0,0.0,0.0,0.0,0.0
352191141,352191068,-0.005011003,0.0054358826,0.0009268421,0.0,0.0,0.0,0.0,0.0
352195175,352195076,-0.0052505676,0.0053649102,0.0008670185,0.0,0.0,0.0,0.0,0.0
352199147,352199075,-0.0049666595,0.005166791,0.00076767424,0.0,0.0,0.0,0.0,0.0
352203187,352203114,-0.005102395,0.005573566,0.0006812303,0.0,0.0,0.0,0.0,0.0
352207141,352207069,-0.0048351916,0.0054881843,0.0006513992,0.0,0.0,0.0,0.0,0.0
352211150,352211075,-0.004613754,0.005110221,0.00065369654,0.0,0.0,0.0,0.0,0.0
352215179,352215069,-0.0040053288,0.005062089,0.00070092856,0.0,0.0,0.0,0.0,0.0
352219149,352219076,-0.003891229,0.0052865893,0.0007464044,0.0,0.0,0.0,0.0,0.0
352223157,352223085,-0.0043556564,0.005461124,0.0007729354,0.0,0.0,0.0,0.0,0.0
352227172,352227074,-0.004491637,0.0052677635,0.0008550586,0.0,0.0,0.0,0.0,0.0
352231149,352231076,-0.0045136493,0.0053541968,0.0010059988,0.0,0.0,0.0,0.0,0.0
352235168,352235068,-0.0044878223,0.005041248,0.0010474479,0.0,0.0,0.0,0.0,0.0
352239142,352239069,-0.0046319473,0.0046427688,0.0010091423,0.0,0.0,0.0,0.0,0.0
352243175,352243101,-0.0050724926,0.004876037,0.0008607814,0.0,0.0,0.0,0.0,0.0
352247178,352247069,-0.004836282,0.005279173,0.0008332892,0.0,0.0,0.0,0.0,0.0
352251141,352251068,-0.0047357753,0.0053487793,0.0009814329,0.0,0.0,0.0,0.0,0.0
352255180,352255069,-0.0041808807,0.005361695,0.0010733748,0.0,0.0,0.0,0.0,0.0
352259141,352259069,-0.004379656,0.0052385447,0.0010057631,0.0,0.0,0.0,0.0,0.0
352263152,352263080,-0.0045459587,0.005308983,0.00079665374,0.0,0.0,0.0,0.0,0.0
352267164,352267088,-0.0046219523,0.0052075423,0.0007397112,0.0,0.0,0.0,0.0,0.0
352271141,352271069,-0.005166413,0.0050063706,0.00071876484,0.0,0.0,0.0,0.0,0.0
352275171,352275070,-0.0055108396,0.0051324274,0.00071252877,0.0,0.0,0.0,0.0,0.0
352279149,352279068,-0.0055889296,0.0053753164,0.0006813695,0.0,0.0,0.0,0.0,0.0
352283149,352283073,-0.0048124897,0.0050802887,0.0006167492,0.0,0.0,0.0,0.0,0.0
352287189,352287112,-0.0040274747,0.0052803834,0.0005476284,0.0,0.0,0.0,0.0,0.0
352291142,352291069,-0.004268608,0.0052896966,0.00063493464,0.0,0.0,0.0,0.0,0.0
352295141,352295068,-0.00473946,0.0054332973,0.0007806805,0.0,0.0,0.0,0.0,0.0
352299141,352299069,-0.004607953,0.0053725573,0.00088628347,0.0,0.0,0.0,0.0,0.0
352303150,352303076,-0.0053262203,0.0048559173,0.0009022903,0.0,0.0,0.0,0.0,0.0
352307148,352307075,-0.005267384,0.004833589,0.0009765701,0.0,0.0,0.0,0.0,0.0
352311200,352311068,-0.0045614634,0.0050445744,0.0009889117,0.0,0.0,0.0,0.0,0.0
352315149,352315069,-0.0037781864,0.0049790083,0.0009351916,0.0,0.0,0.0,0.0,0.0
352319146,352319069,-0.004404588,0.0051750336,0.00089105417,0.0,0.0,0.0,0.0,0.0
352323162,352323090,-0.004835509,0.0058026174,0.00074420875,0.0,0.0,0.0,0.0,0.0
352327159,352327086,-0.0044701905,0.005762514,0.0006093116,0.0,0.0,0.0,0.0,0.0
352331183,352331074,-0.00426528,0.005468473,0.00050605123,0.0,0.0,0.0,0.0,0.0
352335141,352335068,-0.004189774,0.0051019243,0.00044684304,0.0,0.0,0.0,0.0,0.0
352339146,352339069,-0.004385418,0.004650732,0.00042003757,0.0,0.0,0.0,0.0,0.0
352343186,352343069,-0.004632074,0.0046192254,0.00050276535,0.0,0.0,0.0,0.0,0.0
352347151,352347075,-0.0044434494,0.0052966457,0.00056330883,0.0,0.0,0.0,0.0,0.0
352351179,352351103,-0.0047181686,0.005674699,0.0005429226,0.0,0.0,0.0,0.0,0.0
352355143,352355070,-0.004391172,0.005564239,0.0005323657,0.0,0.0,0.0,0.0,0.0
352359141,352359069,-0.0041569816,0.005429721,0.00059783546,0.0,0.0,0.0,0.0,0.0
352363169,352363069,-0.004267053,0.0055028917,0.0006294736,0.0,0.0,0.0,0.0,0.0
352367154,352367082,-0.0046638604,0.0052324277,0.00075068,0.0,0.0,0.0,0.0,0.0
352371188,352371113,-0.00532134,0.0050945478,0.0008668282,0.0,0.0,0.0,0.0,0.0
352375141,352375069,-0.005215179,0.0052928883,0.0008943681,0.0,0.0,0.0,0.0,0.0
352379156,352379070,-0.0049436875,0.0045007295,0.00079945003,0.0,0.0,0.0,0.0,0.0
352383178,352383069,-0.0048106294,0.0047933497,0.0006481406,0.0,0.0,0.0,0.0,0.0
352387148,352387075,-0.0056570885,0.005088447,0.00058455794,0.0,0.0,0.0,0.0,0.0
352391171,352391099,-0.005724497,0.0050554085,0.00066193275,0.0,0.0,0.0,0.0,0.0
352395182,352395073,-0.005037798,0.0055351974,0.00076657115,0.0,0.0,0.0,0.0,0.0
352399142,352399069,-0.0039845607,0.0058193365,0.0007524843,0.0,0.0,0.0,0.0,0.0
352403174,352403075,-0.004130398,0.0056045814,0.0008226203,0.0,0.0,0.0,0.0,0.0
352407147,352407075,-0.0043115825,0.005016197,0.0009046607,0.0,0.0,0.0,0.0,0.0
352411197,352411117,-0.0051479465,0.005184142,0.00088215986,0.0,0.0,0.0,0.0,0.0
352415185,352415069,-0.0050817723,0.0050422703,0.000800084,0.0,0.0,0.0,0.0,0.0
352419144,352419069,-0.004800489,0.004763702,0.0007768997,0.0,0.0,0.0,0.0,0.0
352423186,352423075,-0.004244618,0.0048132557,0.00080651976,0.0,0.0,0.0,0.0,0.0
352427148,352427075,-0.0041736313,0.00498664,0.0008384998,0.0,0.0,0.0,0.0,0.0
352431174,352431102,-0.0042061256,0.0055630924,0.0008790091,0.0,0.0,0.0,0.0,0.0
352435161,352435086,-0.00468223,0.005575483,0.0009069444,0.0,0.0,0.0,0.0,0.0
352439144,352439069,-0.0052140066,0.006102137,0.00096739986,0.0,0.0,0.0,0.0,0.0
352443145,352443069,-0.005227864,0.005795078,0.00095564936,0.0,0.0,0.0,0.0,0.0
352447147,352447075,-0.0047908514,0.0050431816,0.0009835337,0.0,0.0,0.0,0.0,0.0
352451147,352451070,-0.004752608,0.004773073,0.00093656976,0.0,0.0,0.0,0.0,0.0
352455169,352455097,-0.005225929,0.0048481897,0.00086138997,0.0,0.0,0.0,0.0,0.0
352459141,352459069,-0.0050408775,0.0051554535,0.00089663436,0.0,0.0,0.0,0.0,0.0
352463141,352463068,-0.0047373525,0.005203295,0.00090904854,0.0,0.0,0.0,0.0,0.0
352467157,352467075,-0.0046685496,0.0056477715,0.00095825933,0.0,0.0,0.0,0.0,0.0
352471176,352471104,-0.0040190183,0.005369678,0.00095863,0.0,0.0,0.0,0.0,0.0
352475144,352475070,-0.0047497535,0.005516617,0.0009575841,0.0,0.0,0.0,0.0,0.0
352479178,352479068,-0.0048859487,0.0053717997,0.00082147884,0.0,0.0,0.0,0.0,0.0
352483141,352483068,-0.0050182734,0.0058421325,0.0006264513,0.0,0.0,0.0,0.0,0.0
352487144,352487070,-0.0046596713,0.0054287147,0.0005513367,0.0,0.0,0.0,0.0,0.0
352491169,352491069,-0.0042654886,0.005337807,0.0005119212,0.0,0.0,0.0,0.0,0.0
352495147,352495075,-0.0045772656,0.00483156,0.000570452,0.0,0.0,0.0,0.0,0.0
352499185,352499070,-0.0047739022,0.0045587975,0.0006575137,0.0,0.0,0.0,0.0,0.0
352503141,352503068,-0.004442012,0.0050816936,0.000767698,0.0,0.0,0.0,0.0,0.0
352507141,352507069,-0.004207283,0.005357517,0.0007318066,0.0,0.0,0.0,0.0,0.0
352511190,352511077,-0.004376002,0.0050958036,0.0006848507,0.0,0.0,0.0,0.0,0.0
352515158,352515075,-0.0045624073,0.005286974,0.0007158299,0.0,0.0,0.0,0.0,0.0
352519163,352519086,-0.0053155473,0.005330628,0.00066557305,0.0,0.0,0.0,0.0,0.0
352523141,352523069,-0.005039225,0.0054291133,0.0006418631,0.0,0.0,0.0,0.0,0.0
352527141,352527069,-0.0049499045,0.005345396,0.00070722675,0.0,0.0,0.0,0.0,0.0
352531168,352531069,-0.0045617027,0.005495442,0.0006791928,0.0,0.0,0.0,0.0,0.0
352535147,352535075,-0.0044793948,0.005267908,0.0006545777,0.0,0.0,0.0,0.0,0.0
352539178,352539100,-0.005078565,0.004806236,0.00073789386,0.0,0.0,0.0,0.0,0.0
352543141,352543068,-0.0051808376,0.0048562507,0.0007543,0.0,0.0,0.0,0.0,0.0
352547141,352547069,-0.005147897,0.005192963,0.00071661046,0.0,0.0,0.0,0.0,0.0
352551183,352551069,-0.005219149,0.005434445,0.0007074251,0.0,0.0,0.0,0.0,0.0
352555150,352555076,-0.0047668484,0.0047384687,0.00075383077,0.0,0.0,0.0,0.0,0.0
352559161,352559088,-0.0045817285,0.0047665806,0.0008720966,0.0,0.0,0.0,0.0,0.0
