timestamp,vel_pos_innov[0],vel_pos_innov[1],vel_pos_innov[2],vel_pos_innov[3],vel_pos_innov[4],vel_pos_innov[5],mag_innov[0],mag_innov[1],mag_innov[2],heading_innov,airspeed_innov,beta_innov,flow_innov[0],flow_innov[1],hagl_innov,vel_pos_innov_var[0],vel_pos_innov_var[1],vel_pos_innov_var[2],vel_pos_innov_var[3],vel_pos_innov_var[4],vel_pos_innov_var[5],mag_innov_var[0],mag_innov_var[1],mag_innov_var[2],heading_innov_var,airspeed_innov_var,beta_innov_var,flow_innov_var[0],flow_innov_var[1],hagl_innov_var,output_tracking_error[0],output_tracking_error[1],output_tracking_error[2],drag_innov[0],drag_innov[1],drag_innov_var[0],drag_innov_var[1],aux_vel_innov[0],aux_vel_innov[1]
349494269,0.0,0.0,0.0,0.0063367146,0.0070422823,0.046253204,0.01777941,0.019750312,-0.03213221,-0.019715548,0.0,0.0,0.0,0.0,0.0,0.0,0.0,0.0,0.25735116,0.25735107,4.0610304,0.0025135423,0.0025145258,0.0025222169,0.090150096,0.0,0.0,0.0,0.0,0.0,0.00053270685,0.00282037,0.008032827,0.0,0.0,0.0,0.0,0.0,0.0
349701475,0.0,0.0,0.0,0.006569896,0.007088672,-0.12576103,0.01777941,0.019750312,-0.03213221,0.0020589828,0.0,0.0,0.0,0.0,0.0,0.0,0.0,0.0,0.25736988,0.2573698,4.060983,0.0025135423,0.0025145258,0.0025222169,0.090150125,0.0,0.0,0.0,0.0,0.0,0.0003799315,0.0020936984,0.0062095486,0.0,0.0,0.0,0.0,0.0,0.0
349901509,0.0,0.0,0.0,0.00674942,0.0070844204,-0.2195549,0.01777941,0.019750312,-0.03213221,0.049334764,0.0,0.0,0.0,0.0,0.0,0.0,0.0,0.0,0.25733754,0.25733742,4.0607324,0.0025135423,0.0025145258,0.0025222169,0.09015001,0.0,0.0,0.0,0.0,0.0,0.00044737896,0.0025627739,0.008361263,0.0,0.0,0.0,0.0,0.0,0.0
350101469,0.0,0.0,0.0,0.0070573497,0.0073195063,-0.26242256,0.01777941,0.019750312,-0.03213221,-0.032232285,0.0,0.0,0.0,0.0,0.0,0.0,0.0,0.0,0.25749215,0.25749204,4.061322,0.0025135423,0.0025145258,0.0025222169,0.09015006,0.0,0.0,0.0,0.0,0.0,9.236488e-05,0.00074511283,0.0023970506,0.0,0.0,0.0,0.0,0.0,0.0
350308668,0.0,0.0,0.0,0.0073325997,0.0074547217,-0.11922836,0.01777941,0.019750312,-0.03213221,0.0026888847,0.0,0.0,0.0,0.0,0.0,0.0,0.0,0.0,0.25763166,0.25763154,4.0619197,0.0025135423,0.0025145258,0.0025222169,0.09015009,0.0,0.0,0.0,0.0,0.0,0.00017804425,0.003933067,0.0126195215,0.0,0.0,0.0,0.0,0.0,0.0
350508669,0.0,0.0,0.0,0.007507319,0.007529716,-0.17742729,0.01777941,0.019750312,-0.03213221,0.011413813,0.0,0.0,0.0,0.0,0.0,0.0,0.0,0.0,0.2578001,0.25779998,4.0626955,0.0025135423,0.0025145258,0.0025222169,0.09015005,0.0,0.0,0.0,0.0,0.0,0.00021629734,0.003313816,0.01100784,0.0,0.0,0.0,0.0,0.0,0.0
350707905,0.0,0.0,0.0,0.0073988163,0.0072506093,-0.20956421,0.01777941,0.019750312,-0.03213221,-0.01206708,0.0,0.0,0.0,0.0,0.0,0.0,0.0,0.0,0.2576457,0.2576456,4.0621643,0.0025135423,0.0025145258,0.0025222169,0.09015001,0.0,0.0,0.0,0.0,0.0,0.00032970644,0.002734148,0.006746945,0.0,0.0,0.0,0.0,0.0,0.0
350908669,0.0,0.0,0.0,0.007404204,0.0069978903,-0.029460907,0.01777941,0.019750312,-0.03213221,-0.0046429634,0.0,0.0,0.0,0.0,0.0,0.0,0.0,0.0,0.25753134,0.25753126,4.0617414,0.0025135423,0.0025145258,0.0025222169,0.09015006,0.0,0.0,0.0,0.0,0.0,0.00036753845,0.004773003,0.013971348,0.0,0.0,0.0,0.0,0.0,0.0
351115887,0.0,0.0,0.0,0.0073766946,0.006787766,-0.46783447,0.01777941,0.019750312,-0.03213221,-0.01353097,0.0,0.0,0.0,0.0,0.0,0.0,0.0,0.0,0.25750893,0.25750887,4.0616474,0.0025135423,0.0025145258,0.0025222169,0.090150185,0.0,0.0,0.0,0.0,0.0,0.00024691265,0.008697627,0.02664684,0.0,0.0,0.0,0.0,0.0,0.0
351315875,0.0,0.0,0.0,0.0072118146,0.0065587736,-0.17143059,0.01777941,0.019750312,-0.03213221,-0.041954994,0.0,0.0,0.0,0.0,0.0,0.0,0.0,0.0,0.2574191,0.25741905,4.061244,0.0025135423,0.0025145258,0.0025222169,0.09015031,0.0,0.0,0.0,0.0,0.0,0.0004670259,0.0046779993,0.015706057,0.0,0.0,0.0,0.0,0.0,0.0
351523908,0.0,0.0,0.0,0.0071382583,0.006469313,-0.37648964,0.01777941,0.019750312,-0.03213221,-0.018278599,0.0,0.0,0.0,0.0,0.0,0.0,0.0,0.0,0.25736108,0.25736102,4.0609317,0.0025135423,0.0025145258,0.0025222169,0.09015035,0.0,0.0,0.0,0.0,0.0,0.00025284942,0.0034328678,0.011846528,0.0,0.0,0.0,0.0,0.0,0.0
351723869,0.0,0.0,0.0,0.007008881,0.006465186,0.21597862,0.01777941,0.019750312,-0.03213221,0.0017845631,0.0,0.0,0.0,0.0,0.0,0.0,0.0,0.0,0.2573111,0.25731102,4.0606313,0.0025135423,0.0025145258,0.0025222169,0.090150476,0.0,0.0,0.0,0.0,0.0,0.00035926464,0.0010817209,0.0043626507,0.0,0.0,0.0,0.0,0.0,0.0
351931093,0.0,0.0,0.0,0.006948414,0.006551349,0.46087074,0.01777941,0.019750312,-0.03213221,0.004541397,0.0,0.0,0.0,0.0,0.0,0.0,0.0,0.0,0.25729784,0.25729778,4.0604587,0.0025135423,0.0025145258,0.0025222169,0.090150595,0.0,0.0,0.0,0.0,0.0,0.00012368016,0.0023792763,0.0063450313,0.0,0.0,0.0,0.0,0.0,0.0
352131070,0.0,0.0,0.0,0.0068835756,0.00668828,-0.0027713776,0.01777941,0.019750312,-0.03213221,-0.023108006,0.0,0.0,0.0,0.0,0.0,0.0,0.0,0.0,0.2573366,0.2573365,4.0605254,0.0025135423,0.0025145258,0.0025222169,0.090150625,0.0,0.0,0.0,0.0,0.0,0.000190118,0.0049047284,0.014755243,0.0,0.0,0.0,0.0,0.0,0.0
352331074,0.0,0.0,0.0,0.0068765674,0.0069286735,-0.14281082,0.01777941,0.019750312,-0.03213221,-0.018575668,0.0,0.0,0.0,0.0,0.0,0.0,0.0,0.0,0.25748944,0.25748938,4.0611525,0.0025135423,0.0025145258,0.0025222169,0.0901505,0.0,0.0,0.0,0.0,0.0,0.0005588518,0.0006612626,0.0029635234,0.0,0.0,0.0,0.0,0.0,0.0
352539100,0.0,0.0,0.0,0.0065667476,0.006876609,0.19181633,0.01777941,0.019750312,-0.03213221,0.02945733,0.0,0.0,0.0,0.0,0.0,0.0,0.0,0.0,0.25742212,0.25742203,4.060893,0.0025135423,0.0025145258,0.0025222169,0.090150535,0.0,0.0,0.0,0.0,0.0,0.000329153,0.0010262113,0.0038520447,0.0,0.0,0.0,0.0,0.0,0.0
352742269,0.0,0.0,0.0,0.006367322,0.0068514296,-0.013328552,0.01777941,0.019750312,-0.03213221,0.0041213036,0.0,0.0,0.0,0.0,0.0,0.0,0.0,0.0,0.25742692,0.25742683,4.0609174,0.0025135423,0.0025145258,0.0025222169,0.09015049,0.0,0.0,0.0,0.0,0.0,0.00014603094,0.00044169876,0.0006596977,0.0,0.0,0.0,0.0,0.0,0.0
352942317,0.0,0.0,0.0,0.0060504754,0.006871027,-0.2810421,0.01777941,0.019750312,-0.03213221,-0.039076567,0.0,0.0,0.0,0.0,0.0,0.0,0.0,0.0,0.25739145,0.25739136,4.060758,0.0025135423,0.0025145258,0.0025222169,0.09015046,0.0,0.0,0.0,0.0,0.0,0.00023521823,0.0066319783,0.01906452,0.0,0.0,0.0,0.0,0.0,0.0
353142269,0.0,0.0,0.0,0.0057258927,0.006934989,0.30348969,0.01777941,0.019750312,-0.03213221,-0.020435572,0.0,0.0,0.0,0.0,0.0,0.0,0.0,0.0,0.25735223,0.25735214,4.0605664,0.0025135423,0.0025145258,0.0025222169,0.09015042,0.0,0.0,0.0,0.0,0.0,0.00035881824,0.00029740855,0.0013163256,0.0,0.0,0.0,0.0,0.0,0.0
353342286,0.0,0.0,0.0,0.00551037,0.0071027456,-0.2119751,0.01777941,0.019750312,-0.03213221,-0.0023019314,0.0,0.0,0.0,0.0,0.0,0.0,0.0,0.0,0.25730565,0.25730556,4.060327,0.0025135423,0.0025145258,0.0025222169,0.09015046,0.0,0.0,0.0,0.0,0.0,0.0006012926,0.0015866111,0.0041956957,0.0,0.0,0.0,0.0,0.0,0.0
353545469,0.0,0.0,0.0,0.005397305,0.00729939,0.6311474,0.01777941,0.019750312,-0.03213221,-0.036094904,0.0,0.0,0.0,0.0,0.0,0.0,0.0,0.0,0.25734046,0.25734034,4.060433,0.0025135423,0.0025145258,0.0025222169,0.09015059,0.0,0.0,0.0,0.0,0.0,0.00067131844,0.0024056167,0.0070303697,0.0,0.0,0.0,0.0,0.0,0.0
353753506,0.0,0.0,0.0,0.00518442,0.0075378306,0.12536621,0.01777941,0.019750312,-0.03213221,0.0031790733,0.0,0.0,0.0,0.0,0.0,0.0,0.0,0.0,0.25735322,0.2573531,4.0604386,0.0025135423,0.0025145258,0.0025222169,0.09015047,0.0,0.0,0.0,0.0,0.0,0.0006145872,0.001527227,0.0051214746,0.0,0.0,0.0,0.0,0.0,0.0
353953507,0.0,0.0,0.0,0.0050417846,0.007696569,-0.06471443,0.01777941,0.019750312,-0.03213221,-0.02324605,0.0,0.0,0.0,0.0,0.0,0.0,0.0,0.0,0.25730646,0.25730637,4.0602164,0.0025135423,0.0025145258,0.0025222169,0.090150505,0.0,0.0,0.0,0.0,0.0,0.00041639773,0.0036647732,0.01059728,0.0,0.0,0.0,0.0,0.0,0.0
354153497,0.0,0.0,0.0,0.005167394,0.008018211,-0.34889793,0.01777941,0.019750312,-0.03213221,0.0024793148,0.0,0.0,0.0,0.0,0.0,0.0,0.0,0.0,0.25734425,0.25734416,4.0603447,0.0025135423,0.0025145258,0.0025222169,0.09015047,0.0,0.0,0.0,0.0,0.0,0.00037331486,0.0043842676,0.013472378,0.0,0.0,0.0,0.0,0.0,0.0
354360669,0.0,0.0,0.0,0.0054131607,0.008552756,0.06926918,0.01777941,0.019750312,-0.03213221,-0.009803057,0.0,0.0,0.0,0.0,0.0,0.0,0.0,0.0,0.2575697,0.2575696,4.061327,0.0025135423,0.0025145258,0.0025222169,0.090150505,0.0,0.0,0.0,0.0,0.0,0.00043567823,0.0006597306,0.0007924967,0.0,0.0,0.0,0.0,0.0,0.0
354560668,0.0,0.0,0.0,0.005447439,0.008901813,0.035060883,0.01777941,0.019750312,-0.03213221,-0.022775412,0.0,0.0,0.0,0.0,0.0,0.0,0.0,0.0,0.25759414,0.25759402,4.0615726,0.0025135423,0.0025145258,0.0025222169,0.09015055,0.0,0.0,0.0,0.0,0.0,0.000696111,0.00067266444,0.0019278234,0.0,0.0,0.0,0.0,0.0,0.0
354768669,0.0,0.0,0.0,0.0054469774,0.009249112,-0.10078621,0.01777941,0.019750312,-0.03213221,-0.07313681,0.0,0.0,0.0,0.0,0.0,0.0,0.0,0.0,0.25763428,0.25763416,4.0618553,0.0025135423,0.0025145258,0.0025222169,0.090150505,0.0,0.0,0.0,0.0,0.0,0.0009211142,0.0014284812,0.004027132,0.0,0.0,0.0,0.0,0.0,0.0
354968672,0.0,0.0,0.0,0.005251028,0.009344913,0.067661285,0.01777941,0.019750312,-0.03213221,-0.05634713,0.0,0.0,0.0,0.0,0.0,0.0,0.0,0.0,0.25757265,0.25757253,4.0617394,0.0025135423,0.0025145258,0.0025222169,0.09015054,0.0,0.0,0.0,0.0,0.0,0.0007446761,0.0018866479,0.0058494746,0.0,0.0,0.0,0.0,0.0,0.0
355167869,0.0,0.0,0.0,0.0050833584,0.009197785,0.22937965,0.01777941,0.019750312,-0.03213221,-0.010947466,0.0,0.0,0.0,0.0,0.0,0.0,0.0,0.0,0.2574501,0.25744998,4.061295,0.0025135423,0.0025145258,0.0025222169,0.09015058,0.0,0.0,0.0,0.0,0.0,0.0005639812,0.0031782005,0.009822647,0.0,0.0,0.0,0.0,0.0,0.0
355367869,0.0,0.0,0.0,0.0050121364,0.0089439405,0.10850525,0.01777941,0.019750312,-0.03213221,-0.00012731552,0.0,0.0,0.0,0.0,0.0,0.0,0.0,0.0,0.25737604,0.25737593,4.0609984,0.0025135423,0.0025145258,0.0025222169,0.090150625,0.0,0.0,0.0,0.0,0.0,0.00040440622,0.0007612869,0.0019105241,0.0,0.0,0.0,0.0,0.0,0.0
355575869,0.0,0.0,0.0,0.0051800106,0.008637372,0.05314827,0.01777941,0.019750312,-0.03213221,0.058156252,0.0,0.0,0.0,0.0,0.0,0.0,0.0,0.0,0.25746143,0.2574613,4.0613384,0.0025135423,0.0025145258,0.0025222169,0.09015066,0.0,0.0,0.0,0.0,0.0,8.869833e-05,0.0036309673,0.011210643,0.0,0.0,0.0,0.0,0.0,0.0
355775907,0.0,0.0,0.0,0.0053739855,0.008323587,-0.11966133,0.01777941,0.019750312,-0.03213221,-0.0554924,0.0,0.0,0.0,0.0,0.0,0.0,0.0,0.0,0.25757992,0.25757977,4.0618753,0.0025135423,0.0025145258,0.0025222169,0.09015078,0.0,0.0,0.0,0.0,0.0,0.00030754833,0.0010458311,0.003952226,0.0,0.0,0.0,0.0,0.0,0.0
355983075,0.0,0.0,0.0,0.005513985,0.007918886,-0.19353104,0.01777941,0.019750312,-0.03213221,-0.04648924,0.0,0.0,0.0,0.0,0.0,0.0,0.0,0.0,0.2575996,0.25759947,4.0620427,0.0025135423,0.0025145258,0.0025222169,0.0901509,0.0,0.0,0.0,0.0,0.0,0.00041968728,0.0022195796,0.006030852,0.0,0.0,0.0,0.0,0.0,0.0
356183075,0.0,0.0,0.0,0.0056597893,0.0073801633,-0.10933113,0.01777941,0.019750312,-0.03213221,-0.0016541481,0.0,0.0,0.0,0.0,0.0,0.0,0.0,0.0,0.2574884,0.25748828,4.0616035,0.0025135423,0.0025145258,0.0025222169,0.090150855,0.0,0.0,0.0,0.0,0.0,0.0006322558,0.001890659,0.005565546,0.0,0.0,0.0,0.0,0.0,0.0
356383086,0.0,0.0,0.0,0.0058563873,0.0068835425,-0.10656166,0.01777941,0.019750312,-0.03213221,-0.02323389,0.0,0.0,0.0,0.0,0.0,0.0,0.0,0.0,0.25740778,0.25740767,4.0612574,0.0025135423,0.0025145258,0.0025222169,0.0901508,0.0,0.0,0.0,0.0,0.0,0.0005959835,0.0018084592,0.00555217,0.0,0.0,0.0,0.0,0.0,0.0
356583107,0.0,0.0,0.0,0.005909535,0.0065078577,0.3408165,0.01777941,0.019750312,-0.03213221,-0.02856493,0.0,0.0,0.0,0.0,0.0,0.0,0.0,0.0,0.25740796,0.25740784,4.061219,0.0025135423,0.0025145258,0.0025222169,0.09015076,0.0,0.0,0.0,0.0,0.0,0.000651946,0.0051020603,0.0145557765,0.0,0.0,0.0,0.0,0.0,0.0
356782277,0.0,0.0,0.0,0.0058517163,0.0060369507,0.054834366,0.01777941,0.019750312,-0.03213221,0.010116816,0.0,0.0,0.0,0.0,0.0,0.0,0.0,0.0,0.25733608,0.257336,4.060862,0.0025135423,0.0025145258,0.0025222169,0.090150625,0.0,0.0,0.0,0.0,0.0,0.00046654948,0.0005451358,0.0016450521,0.0,0.0,0.0,0.0,0.0,0.0
356990269,0.0,0.0,0.0,0.007011781,0.006587812,-0.6127491,0.01777941,0.019750312,-0.03213221,-0.05796981,0.0,0.0,0.0,0.0,0.0,0.0,0.0,0.0,100.00893,100.00893,4.0614834,0.0025135423,0.0025145258,0.0025222169,0.09015067,0.0,0.0,0.0,0.0,0.0,0.0006438921,0.0032801311,0.00904784,0.0,0.0,0.0,0.0,0.0,0.0
357190277,0.0,0.0,0.0,0.0086010555,0.0075866813,0.106933594,0.01777941,0.019750312,-0.03213221,-0.015006542,0.0,0.0,0.0,0.0,0.0,0.0,0.0,0.0,100.011444,100.011444,4.0610948,0.0025135423,0.0025145258,0.0025222169,0.09015071,0.0,0.0,0.0,0.0,0.0,0.0007611275,0.0024705224,0.0062604863,0.0,0.0,0.0,0.0,0.0,0.0
357397503,0.0,0.0,0.0,0.010396787,0.008771598,-0.27077293,0.01777941,0.019750312,-0.03213221,-0.058594942,0.0,0.0,0.0,0.0,0.0,0.0,0.0,0.0,100.01474,100.01474,4.061077,0.0025135423,0.0025145258,0.0025222169,0.090150826,0.0,0.0,0.0,0.0,0.0,0.00067049003,0.0020162885,0.004132934,0.0,0.0,0.0,0.0,0.0,0.0
357597475,0.0,0.0,0.0,0.012441545,0.010004104,0.21365738,0.01777941,0.019750312,-0.03213221,-0.053371668,0.0,0.0,0.0,0.0,0.0,0.0,0.0,0.0,100.01881,100.01881,4.0610375,0.0025135423,0.0025145258,0.0025222169,0.090150855,0.0,0.0,0.0,0.0,0.0,0.00028047556,0.0041271355,0.011223621,0.0,0.0,0.0,0.0,0.0,0.0
357797483,0.0,0.0,0.0,0.01586006,0.013135692,0.25621414,0.01777941,0.019750312,-0.03213221,-0.058223963,0.0,0.0,0.0,0.0,0.0,0.0,0.0,0.0,100.02425,100.02425,4.060803,0.0025135423,0.0025145258,0.0025222169,0.090150885,0.0,0.0,0.0,0.0,0.0,0.00018062933,0.011074545,0.03321357,0.0,0.0,0.0,0.0,0.0,0.0
357997469,0.0,0.0,0.0,0.019212114,0.013624523,0.04040146,0.01777941,0.019750312,-0.03213221,0.053958178,0.0,0.0,0.0,0.0,0.0,0.0,0.0,0.0,100.03038,100.03038,4.060853,0.0025135423,0.0025145258,0.0025222169,0.09015084,0.0,0.0,0.0,0.0,0.0,6.277467e-05,0.014311157,0.04441819,0.0,0.0,0.0,0.0,0.0,0.0
358199918,0.0,0.0,0.0,0.022507146,0.014491703,0.09234047,0.01777941,0.019750312,-0.03213221,0.052947283,0.0,0.0,0.0,0.0,0.0,0.0,0.0,0.0,100.03709,100.03709,4.061101,0.0025135423,0.0025145258,0.0025222169,0.09015097,0.0,0.0,0.0,0.0,0.0,0.00024265573,0.0106168315,0.034501057,0.0,0.0,0.0,0.0,0.0,0.0
358408668,0.0,0.0,0.0,0.024400739,0.014592539,0.49825668,0.01777941,0.019750312,-0.03213221,0.0021448135,0.0,0.0,0.0,0.0,0.0,0.0,0.0,0.0,100.04651,100.04651,4.060921,0.0025135423,0.0025145258,0.0025222169,0.090151094,0.0,0.0,0.0,0.0,0.0,0.00010972363,0.0055125295,0.019411728,0.0,0.0,0.0,0.0,0.0,0.0
358608713,0.0,0.0,0.0,0.027423425,0.015513448,-0.34955597,0.01777941,0.019750312,-0.03213221,0.026939392,0.0,0.0,0.0,0.0,0.0,0.0,0.0,0.0,100.05633,100.05633,4.061511,0.0025135423,0.0025145258,0.0025222169,0.09015113,0.0,0.0,0.0,0.0,0.0,0.0002179866,0.0021792017,0.0039983965,0.0,0.0,0.0,0.0,0.0,0.0
358808675,0.0,0.0,0.0,0.03065544,0.018050043,-0.25795937,0.01777941,0.019750312,-0.03213221,-0.025181293,0.0,0.0,0.0,0.0,0.0,0.0,0.0,0.0,100.06916,100.06916,4.0620728,0.0025135423,0.0025145258,0.0025222169,0.09015117,0.0,0.0,0.0,0.0,0.0,0.00011294027,0.008531855,0.024804227,0.0,0.0,0.0,0.0,0.0,0.0
359015875,0.0,0.0,0.0,0.032781824,0.019058513,0.007730484,0.01777941,0.019750312,-0.03213221,-0.023973465,0.0,0.0,0.0,0.0,0.0,0.0,0.0,0.0,100.08235,100.082344,4.0624843,0.0025135423,0.0025145258,0.0025222169,0.09015111,0.0,0.0,0.0,0.0,0.0,0.00047405696,0.0013508318,0.0019876866,0.0,0.0,0.0,0.0,0.0,0.0
359215880,0.0,0.0,0.0,0.03554277,0.019675862,-0.32935905,0.01777941,0.019750312,-0.03213221,-0.030308485,0.0,0.0,0.0,0.0,0.0,0.0,0.0,0.0,100.0992,100.09919,4.0619855,0.0025135423,0.0025145258,0.0025222169,0.09015113,0.0,0.0,0.0,0.0,0.0,0.0005892635,0.0046996623,0.015177066,0.0,0.0,0.0,0.0,0.0,0.0
359423914,0.0,0.0,0.0,0.03899878,0.020213583,-0.06513405,0.01777941,0.019750312,-0.03213221,-0.047655344,0.0,0.0,0.0,0.0,0.0,0.0,0.0,0.0,100.117836,100.11783,4.0621867,0.0025135423,0.0025145258,0.0025222169,0.09015116,0.0,0.0,0.0,0.0,0.0,0.00027139566,0.004658155,0.015524755,0.0,0.0,0.0,0.0,0.0,0.0
359623869,0.0,0.0,0.0,0.041973494,0.02088876,0.16214561,0.01777941,0.019750312,-0.03213221,-0.027911663,0.0,0.0,0.0,0.0,0.0,0.0,0.0,0.0,100.13795,100.13794,4.0620112,0.0025135423,0.0025145258,0.0025222169,0.09015127,0.0,0.0,0.0,0.0,0.0,0.0003615215,0.008711563,0.024052773,0.0,0.0,0.0,0.0,0.0,0.0
359823080,0.0,0.0,0.0,0.03767822,0.028184297,-0.24801064,0.01777941,0.019750312,-0.03213221,-0.00022053719,0.0,0.0,0.0,0.0,0.0,0.0,0.0,0.0,100.15932,100.15931,4.06155,0.0025135423,0.0025145258,0.0025222169,0.0901514,0.0,0.0,0.0,0.0,0.0,0.00031183977,0.003544918,0.01054879,0.0,0.0,0.0,0.0,0.0,0.0
360023070,0.0,0.0,0.0,0.030023033,0.038087614,0.13923073,0.01777941,0.019750312,-0.03213221,-0.06162882,0.0,0.0,0.0,0.0,0.0,0.0,0.0,0.0,100.18491,100.1849,4.0617723,0.0025135423,0.0025145258,0.0025222169,0.09015134,0.0,0.0,0.0,0.0,0.0,0.0002852861,0.0017966848,0.005094632,0.0,0.0,0.0,0.0,0.0,0.0
360231069,0.0,0.0,0.0,0.025785025,0.043599147,0.38534164,0.01777941,0.019750312,-0.03213221,-0.0059638023,0.0,0.0,0.0,0.0,0.0,0.0,0.0,0.0,100.21102,100.21101,4.0622296,0.0025135423,0.0025145258,0.0025222169,0.09015129,0.0,0.0,0.0,0.0,0.0,0.00021105766,0.0028333778,0.009076541,0.0,0.0,0.0,0.0,0.0,0.0
360431069,0.0,0.0,0.0,0.027385404,0.04393496,0.06239128,0.01777941,0.019750312,-0.03213221,-0.07246256,0.0,0.0,0.0,0.0,0.0,0.0,0.0,0.0,100.24303,100.24301,4.0626864,0.0025135423,0.0025145258,0.0025222169,0.09015132,0.0,0.0,0.0,0.0,0.0,0.00046605893,0.0029237934,0.007890263,0.0,0.0,0.0,0.0,0.0,0.0
360638269,0.0,0.0,0.0,0.03223958,0.041725844,-0.013801575,0.01777941,0.019750312,-0.03213221,-0.14626217,0.0,0.0,0.0,0.0,0.0,0.0,0.0,0.0,100.27646,100.27644,4.0628233,0.0025135423,0.0025145258,0.0025222169,0.09015135,0.0,0.0,0.0,0.0,0.0,0.001035134,0.0074991374,0.022073936,0.0,0.0,0.0,0.0,0.0,0.0
360838309,0.0,0.0,0.0,0.038278136,0.041222986,-0.064006805,0.01777941,0.019750312,-0.03213221,-0.038062334,0.0,0.0,0.0,0.0,0.0,0.0,0.0,0.0,100.30965,100.30963,4.0624766,0.0025135423,0.0025145258,0.0025222169,0.090151295,0.0,0.0,0.0,0.0,0.0,0.0008316026,0.0061115925,0.020140478,0.0,0.0,0.0,0.0,0.0,0.0
361038315,0.0,0.0,0.0,0.04486017,0.04172023,-0.55680466,0.01777941,0.019750312,-0.03213221,-0.03839135,0.0,0.0,0.0,0.0,0.0,0.0,0.0,0.0,100.34248,100.34246,4.062526,0.0025135423,0.0025145258,0.0025222169,0.09015132,0.0,0.0,0.0,0.0,0.0,0.0007035681,0.0092710145,0.029905764,0.0,0.0,0.0,0.0,0.0,0.0
361245475,0.0,0.0,0.0,0.05222255,0.043289155,0.43107986,0.01777941,0.019750312,-0.03213221,-0.1049273,0.0,0.0,0.0,0.0,0.0,0.0,0.0,0.0,100.38393,100.38391,4.0623293,0.0025135423,0.0025145258,0.0025222169,0.090151265,0.0,0.0,0.0,0.0,0.0,0.00065902766,0.00039871156,0.002647197,0.0,0.0,0.0,0.0,0.0,0.0
361445468,0.0,0.0,0.0,0.054795712,0.03823865,0.0336895,0.01777941,0.019750312,-0.03213221,-0.059280872,0.0,0.0,0.0,0.0,0.0,0.0,0.0,0.0,100.41972,100.4197,4.0617657,0.0025135423,0.0025145258,0.0025222169,0.09015129,0.0,0.0,0.0,0.0,0.0,0.0008020035,0.0007868765,0.001933615,0.0,0.0,0.0,0.0,0.0,0.0
361653469,0.0,0.0,0.0,0.057449613,0.030842729,0.3103981,0.01777941,0.019750312,-0.03213221,0.08334327,0.0,0.0,0.0,0.0,0.0,0.0,0.0,0.0,100.46118,100.46116,4.061361,0.0025135423,0.0025145258,0.0025222169,0.090151235,0.0,0.0,0.0,0.0,0.0,0.00038240958,0.0009213172,0.0026116613,0.0,0.0,0.0,0.0,0.0,0.0
361853468,0.0,0.0,0.0,0.059973255,0.025581948,-0.018442154,0.01777941,0.019750312,-0.03213221,-0.03193474,0.0,0.0,0.0,0.0,0.0,0.0,0.0,0.0,100.50071,100.50069,4.061274,0.0025135423,0.0025145258,0.0025222169,0.090151265,0.0,0.0,0.0,0.0,0.0,0.00032583956,0.0037574384,0.011102214,0.0,0.0,0.0,0.0,0.0,0.0
362053469,0.0,0.0,0.0,0.0650279,0.022283902,-0.080566406,0.01777941,0.019750312,-0.03213221,-0.037715673,0.0,0.0,0.0,0.0,0.0,0.0,0.0,0.0,100.537735,100.53771,4.0608897,0.0025135423,0.0025145258,0.0025222169,0.09015121,0.0,0.0,0.0,0.0,0.0,0.0006920808,0.008160141,0.0253132,0.0,0.0,0.0,0.0,0.0,0.0
362260668,0.0,0.0,0.0,0.07306722,0.021719236,0.09822464,0.01777941,0.019750312,-0.03213221,-0.08041668,0.0,0.0,0.0,0.0,0.0,0.0,0.0,0.0,100.57669,100.57667,4.060878,0.0025135423,0.0025145258,0.0025222169,0.090151235,0.0,0.0,0.0,0.0,0.0,0.00048196028,0.0031586725,0.011266402,0.0,0.0,0.0,0.0,0.0,0.0
362460669,0.0,0.0,0.0,0.08343308,0.023773964,-0.22502899,0.01777941,0.019750312,-0.03213221,-0.023437262,0.0,0.0,0.0,0.0,0.0,0.0,0.0,0.0,100.6201,100.62009,4.0614834,0.0025135423,0.0025145258,0.0025222169,0.09015128,0.0,0.0,0.0,0.0,0.0,0.00060550973,0.0057672085,0.016312687,0.0,0.0,0.0,0.0,0.0,0.0
362668690,0.0,0.0,0.0,0.094262585,0.026831314,-0.550066,0.01777941,0.019750312,-0.03213221,0.03263259,0.0,0.0,0.0,0.0,0.0,0.0,0.0,0.0,100.65412,100.654106,4.0611,0.0025135423,0.0025145258,0.0025222169,0.09015141,0.0,0.0,0.0,0.0,0.0,0.00068482297,0.012094582,0.03650975,0.0,0.0,0.0,0.0,0.0,0.0
362867886,0.0,0.0,0.0,0.10730469,0.029569661,-0.19070816,0.01777941,0.019750312,-0.03213221,-0.06836021,0.0,0.0,0.0,0.0,0.0,0.0,0.0,0.0,100.68651,100.6865,4.0607533,0.0025135423,0.0025145258,0.0025222169,0.09015154,0.0,0.0,0.0,0.0,0.0,0.0005465062,0.014650952,0.046080753,0.0,0.0,0.0,0.0,0.0,0.0
363067869,0.0,0.0,0.0,0.12507926,0.032682188,0.3195095,0.01777941,0.019750312,-0.03213221,0.006869197,0.0,0.0,0.0,0.0,0.0,0.0,0.0,0.0,100.726,100.72599,4.0613346,0.0025135423,0.0025145258,0.0025222169,0.09015167,0.0,0.0,0.0,0.0,0.0,0.0005795571,0.010641218,0.035538983,0.0,0.0,0.0,0.0,0.0,0.0
363267893,0.0,0.0,0.0,0.14320235,0.039777998,-0.16574287,0.01777941,0.019750312,-0.03213221,-0.08621502,0.0,0.0,0.0,0.0,0.0,0.0,0.0,0.0,100.76103,100.76104,4.0616226,0.0025135423,0.0025145258,0.0025222169,0.090151705,0.0,0.0,0.0,0.0,0.0,0.0010965148,0.014518879,0.047248736,0.0,0.0,0.0,0.0,0.0,0.0
363475922,0.0,0.0,0.0,0.16210486,0.057141572,-0.20651627,0.01777941,0.019750312,-0.03213221,0.00886035,0.0,0.0,0.0,0.0,0.0,0.0,0.0,0.0,100.79372,100.79374,4.061856,0.0025135423,0.0025145258,0.0025222169,0.090151735,0.0,0.0,0.0,0.0,0.0,0.0013972276,0.011746071,0.039335445,0.0,0.0,0.0,0.0,0.0,0.0
363679069,0.0,0.0,0.0,0.17948328,0.08621175,-0.040016174,0.01777941,0.019750312,-0.03213221,-0.10441828,0.0,0.0,0.0,0.0,0.0,0.0,0.0,0.0,100.820335,100.820366,4.061986,0.0025135423,0.0025145258,0.0025222169,0.090151764,0.0,0.0,0.0,0.0,0.0,0.0017325237,0.010581552,0.03552577,0.0,0.0,0.0,0.0,0.0,0.0
363879101,0.0,0.0,0.0,0.20146787,0.13836151,-0.5361881,0.01777941,0.019750312,-0.03213221,-0.07184279,0.0,0.0,0.0,0.0,0.0,0.0,0.0,0.0,100.84651,100.846565,4.0617266,0.0025135423,0.0025145258,0.0025222169,0.09015172,0.0,0.0,0.0,0.0,0.0,0.0015240031,0.0065217083,0.023240445,0.0,0.0,0.0,0.0,0.0,0.0
364079075,0.0,0.0,0.0,0.2221965,0.20121114,0.010030746,0.01777941,0.019750312,-0.03213221,-0.06724703,0.0,0.0,0.0,0.0,0.0,0.0,0.0,0.0,100.868866,100.868935,4.0616264,0.0025135423,0.0025145258,0.0025222169,0.09015157,0.0,0.0,0.0,0.0,0.0,0.0017540674,0.006173823,0.023267092,0.0,0.0,0.0,0.0,0.0,0.0
364279090,0.0,0.0,0.0,0.2397482,0.2667564,-0.05337143,0.01777941,0.019750312,-0.03213221,-0.10302067,0.0,0.0,0.0,0.0,0.0,0.0,0.0,0.0,100.88566,100.88575,4.0612288,0.0025135423,0.0025145258,0.0025222169,0.090151496,0.0,0.0,0.0,0.0,0.0,0.0015780136,0.0057566976,0.023919463,0.0,0.0,0.0,0.0,0.0,0.0
364478278,0.0,0.0,0.0,0.2563664,0.33532986,0.0368042,0.01777941,0.019750312,-0.03213221,-0.14663553,0.0,0.0,0.0,0.0,0.0,0.0,0.0,0.0,100.90444,100.90456,4.0611963,0.0025135423,0.0025145258,0.0025222169,0.090151444,0.0,0.0,0.0,0.0,0.0,0.001749903,0.007311185,0.029680984,0.0,0.0,0.0,0.0,0.0,0.0
364678293,0.0,0.0,0.0,0.27081534,0.39792547,0.6246891,0.01777941,0.019750312,-0.03213221,-0.07012904,0.0,0.0,0.0,0.0,0.0,0.0,0.0,0.0,100.92111,100.92125,4.0611587,0.0025135423,0.0025145258,0.0025222169,0.090151384,0.0,0.0,0.0,0.0,0.0,0.0019815378,0.008983007,0.03575411,0.0,0.0,0.0,0.0,0.0,0.0
364886269,0.0,0.0,0.0,0.28111064,0.4542514,0.18833351,0.01777941,0.019750312,-0.03213221,-0.10094035,0.0,0.0,0.0,0.0,0.0,0.0,0.0,0.0,100.93489,100.93505,4.0609035,0.0025135423,0.0025145258,0.0025222169,0.0901514,0.0,0.0,0.0,0.0,0.0,0.0014647926,0.010462985,0.043281585,0.0,0.0,0.0,0.0,0.0,0.0
365086269,0.0,0.0,0.0,0.2863406,0.49550533,-0.06795311,0.01777941,0.019750312,-0.03213221,0.0009967089,0.0,0.0,0.0,0.0,0.0,0.0,0.0,0.0,100.94826,100.94845,4.0609317,0.0025135423,0.0025145258,0.0025222169,0.09015142,0.0,0.0,0.0,0.0,0.0,0.0014098806,0.010523497,0.04472098,0.0,0.0,0.0,0.0,0.0,0.0
365283069,0.0,0.0,0.0,0.28638673,0.52204955,-0.3239708,0.01777941,0.019750312,-0.03213221,-0.078214645,0.0,0.0,0.0,0.0,0.0,0.0,0.0,0.0,100.956535,100.956764,4.060647,0.0025135423,0.0025145258,0.0025222169,0.09015153,0.0,0.0,0.0,0.0,0.0,0.0014942547,0.011258784,0.047888953,0.0,0.0,0.0,0.0,0.0,0.0
365489481,0.0,0.0,0.0,0.2825104,0.53992176,-0.14101028,0.01777941,0.019750312,-0.03213221,-0.061849236,0.0,0.0,0.0,0.0,0.0,0.0,0.0,0.0,100.9639,100.964165,4.0603304,0.0025135423,0.0025145258,0.0025222169,0.09015141,0.0,0.0,0.0,0.0,0.0,0.0019530294,0.011436409,0.050510883,0.0,0.0,0.0,0.0,0.0,0.0
365689504,0.0,0.0,0.0,0.27661544,0.5489552,-0.06217575,0.01777941,0.019750312,-0.03213221,-0.14070415,0.0,0.0,0.0,0.0,0.0,0.0,0.0,0.0,100.97254,100.97285,4.06035,0.0025135423,0.0025145258,0.0025222169,0.09015142,0.0,0.0,0.0,0.0,0.0,0.0020532096,0.011229571,0.048533283,0.0,0.0,0.0,0.0,0.0,0.0
365889480,0.0,0.0,0.0,0.2682047,0.5526671,-0.21985245,0.01777941,0.019750312,-0.03213221,-0.04534924,0.0,0.0,0.0,0.0,0.0,0.0,0.0,0.0,100.981,100.98135,4.060455,0.0025135423,0.0025145258,0.0025222169,0.09015145,0.0,0.0,0.0,0.0,0.0,0.0018313844,0.010393534,0.045032635,0.0,0.0,0.0,0.0,0.0,0.0
366096700,0.0,0.0,0.0,0.2588294,0.55736315,0.18822479,0.01777941,0.019750312,-0.03213221,-0.053328276,0.0,0.0,0.0,0.0,0.0,0.0,0.0,0.0,100.992546,100.99294,4.060882,0.0025135423,0.0025145258,0.0025222169,0.09015154,0.0,0.0,0.0,0.0,0.0,0.0017624069,0.011644292,0.04510828,0.0,0.0,0.0,0.0,0.0,0.0
366296669,0.0,0.0,0.0,0.24813789,0.56414706,-0.0098629,0.01777941,0.019750312,-0.03213221,-0.12068343,0.0,0.0,0.0,0.0,0.0,0.0,0.0,0.0,100.99895,100.99939,4.0608764,0.0025135423,0.0025145258,0.0025222169,0.090151556,0.0,0.0,0.0,0.0,0.0,0.0018183204,0.009637216,0.040087465,0.0,0.0,0.0,0.0,0.0,0.0
366504669,0.0,0.0,0.0,0.23732823,0.5761627,0.21722603,0.01777941,0.019750312,-0.03213221,-0.14791739,0.0,0.0,0.0,0.0,0.0,0.0,0.0,0.0,101.00509,101.00558,4.060923,0.0025135423,0.0025145258,0.0025222169,0.09015156,0.0,0.0,0.0,0.0,0.0,0.0022835142,0.009380597,0.03828012,0.0,0.0,0.0,0.0,0.0,0.0
366704696,0.0,0.0,0.0,0.2260471,0.59448135,-0.43349266,0.01777941,0.019750312,-0.03213221,-0.15632296,0.0,0.0,0.0,0.0,0.0,0.0,0.0,0.0,101.01377,101.01431,4.061249,0.0025135423,0.0025145258,0.0025222169,0.09015151,0.0,0.0,0.0,0.0,0.0,0.0029609061,0.009652222,0.03930685,0.0,0.0,0.0,0.0,0.0,0.0
366903875,0.0,0.0,0.0,0.21597022,0.62203497,0.2093525,0.01777941,0.019750312,-0.03213221,-0.18217409,0.0,0.0,0.0,0.0,0.0,0.0,0.0,0.0,101.02794,101.028534,4.062105,0.0025135423,0.0025145258,0.0025222169,0.09015161,0.0,0.0,0.0,0.0,0.0,0.0034341703,0.0077000256,0.032212853,0.0,0.0,0.0,0.0,0.0,0.0
367103887,0.0,0.0,0.0,0.20228767,0.6474102,0.041273117,0.01777941,0.019750312,-0.03213221,-0.16851115,0.0,0.0,0.0,0.0,0.0,0.0,0.0,0.0,101.02711,101.02774,4.0616302,0.0025135423,0.0025145258,0.0025222169,0.090151615,0.0,0.0,0.0,0.0,0.0,0.004090849,0.008280285,0.033817485,0.0,0.0,0.0,0.0,0.0,0.0
367311868,0.0,0.0,0.0,0.18839069,0.6925852,0.24493217,0.01777941,0.019750312,-0.03213221,-0.23203576,0.0,0.0,0.0,0.0,0.0,0.0,0.0,0.0,101.03791,101.0386,4.0621653,0.0025135423,0.0025145258,0.0025222169,0.09015163,0.0,0.0,0.0,0.0,0.0,0.004789857,0.012104399,0.043554902,0.0,0.0,0.0,0.0,0.0,0.0
367511881,0.0,0.0,0.0,0.17610236,0.7393367,0.07237053,0.01777941,0.019750312,-0.03213221,-0.28085792,0.0,0.0,0.0,0.0,0.0,0.0,0.0,0.0,101.04701,101.04775,4.0626006,0.0025135423,0.0025145258,0.0025222169,0.09015164,0.0,0.0,0.0,0.0,0.0,0.005806774,0.011048211,0.04073479,0.0,0.0,0.0,0.0,0.0,0.0
367719069,0.0,0.0,0.0,0.16237246,0.79604906,0.27736664,0.01777941,0.019750312,-0.03213221,-0.29006922,0.0,0.0,0.0,0.0,0.0,0.0,0.0,0.0,101.056496,101.05728,4.063034,0.0025135423,0.0025145258,0.0025222169,0.090151645,0.0,0.0,0.0,0.0,0.0,0.005967615,0.013699816,0.050338604,0.0,0.0,0.0,0.0,0.0,0.0
367919116,0.0,0.0,0.0,0.14716695,0.83812404,0.5232563,0.01777941,0.019750312,-0.03213221,-0.23151779,0.0,0.0,0.0,0.0,0.0,0.0,0.0,0.0,101.05332,101.05412,4.062422,0.0025135423,0.0025145258,0.0025222169,0.090151645,0.0,0.0,0.0,0.0,0.0,0.0057069724,0.014637101,0.054613277,0.0,0.0,0.0,0.0,0.0,0.0
368119069,0.0,0.0,0.0,0.13070884,0.8821645,0.017515182,0.01777941,0.019750312,-0.03213221,-0.27406752,0.0,0.0,0.0,0.0,0.0,0.0,0.0,0.0,101.05464,101.05547,4.062228,0.0025135423,0.0025145258,0.0025222169,0.09015157,0.0,0.0,0.0,0.0,0.0,0.005842874,0.014180264,0.054882623,0.0,0.0,0.0,0.0,0.0,0.0
368327074,0.0,0.0,0.0,0.111424714,0.91949064,-0.060411453,0.01777941,0.019750312,-0.03213221,-0.20194888,0.0,0.0,0.0,0.0,0.0,0.0,0.0,0.0,101.05564,101.0565,4.062033,0.0025135423,0.0025145258,0.0025222169,0.0901514,0.0,0.0,0.0,0.0,0.0,0.005542085,0.013843992,0.054389093,0.0,0.0,0.0,0.0,0.0,0.0
368526269,0.0,0.0,0.0,0.08898121,0.9476635,0.14564133,0.01777941,0.019750312,-0.03213221,-0.1948061,0.0,0.0,0.0,0.0,0.0,0.0,0.0,0.0,101.05663,101.05752,4.061866,0.0025135423,0.0025145258,0.0025222169,0.09015133,0.0,0.0,0.0,0.0,0.0,0.0050086463,0.016487,0.06104111,0.0,0.0,0.0,0.0,0.0,0.0
368734301,0.0,0.0,0.0,0.059423506,0.9661829,0.24972153,0.01777941,0.019750312,-0.03213221,-0.20359337,0.0,0.0,0.0,0.0,0.0,0.0,0.0,0.0,101.05834,101.05925,4.0617466,0.0025135423,0.0025145258,0.0025222169,0.09015134,0.0,0.0,0.0,0.0,0.0,0.0045859483,0.017981969,0.068130456,0.0,0.0,0.0,0.0,0.0,0.0
368934274,0.0,0.0,0.0,0.028660595,0.9660314,0.29644203,0.01777941,0.019750312,-0.03213221,-0.21441615,0.0,0.0,0.0,0.0,0.0,0.0,0.0,0.0,101.05961,101.06055,4.061641,0.0025135423,0.0025145258,0.0025222169,0.09015135,0.0,0.0,0.0,0.0,0.0,0.0046214545,0.014397643,0.057842184,0.0,0.0,0.0,0.0,0.0,0.0
369133513,0.0,0.0,0.0,-0.003694314,0.945875,0.14224625,0.01777941,0.019750312,-0.03213221,-0.19030464,0.0,0.0,0.0,0.0,0.0,0.0,0.0,0.0,101.05705,101.05802,4.0612473,0.0025135423,0.0025145258,0.0025222169,0.09015135,0.0,0.0,0.0,0.0,0.0,0.0047007743,0.013184616,0.05185453,0.0,0.0,0.0,0.0,0.0,0.0
369333468,0.0,0.0,0.0,-0.036332753,0.9260915,0.23092079,0.01777941,0.019750312,-0.03213221,-0.18837571,0.0,0.0,0.0,0.0,0.0,0.0,0.0,0.0,101.06528,101.06628,4.061762,0.0025135423,0.0025145258,0.0025222169,0.09015144,0.0,0.0,0.0,0.0,0.0,0.004218076,0.01012394,0.03929882,0.0,0.0,0.0,0.0,0.0,0.0
369541468,0.0,0.0,0.0,-0.073102675,0.8910791,0.38031578,0.01777941,0.019750312,-0.03213221,-0.15727687,0.0,0.0,0.0,0.0,0.0,0.0,0.0,0.0,101.06285,101.06387,4.0613794,0.0025135423,0.0025145258,0.0025222169,0.09015145,0.0,0.0,0.0,0.0,0.0,0.0038372104,0.010475204,0.04137198,0.0,0.0,0.0,0.0,0.0,0.0
369741468,0.0,0.0,0.0,-0.10552529,0.85956573,0.060905457,0.01777941,0.019750312,-0.03213221,-0.14746606,0.0,0.0,0.0,0.0,0.0,0.0,0.0,0.0,101.06006,101.0611,4.06101,0.0025135423,0.0025145258,0.0025222169,0.09015137,0.0,0.0,0.0,0.0,0.0,0.0037794327,0.009220186,0.036930524,0.0,0.0,0.0,0.0,0.0,0.0
369940730,0.0,0.0,0.0,-0.14085898,0.82359356,-0.054466248,0.01777941,0.019750312,-0.03213221,-0.20758891,0.0,0.0,0.0,0.0,0.0,0.0,0.0,0.0,101.05852,101.05956,4.060757,0.0025135423,0.0025145258,0.0025222169,0.09015136,0.0,0.0,0.0,0.0,0.0,0.0041613523,0.011121766,0.0418701,0.0,0.0,0.0,0.0,0.0,0.0
370148669,0.0,0.0,0.0,-0.17038636,0.7881891,0.3171177,0.01777941,0.019750312,-0.03213221,-0.15564287,0.0,0.0,0.0,0.0,0.0,0.0,0.0,0.0,101.05614,101.0572,4.060471,0.0025135423,0.0025145258,0.0025222169,0.090151355,0.0,0.0,0.0,0.0,0.0,0.003674347,0.008772736,0.03441398,0.0,0.0,0.0,0.0,0.0,0.0
370348669,0.0,0.0,0.0,-0.20081899,0.7499321,0.31851196,0.01777941,0.019750312,-0.03213221,-0.09812617,0.0,0.0,0.0,0.0,0.0,0.0,0.0,0.0,101.0577,101.05877,4.0605154,0.0025135423,0.0025145258,0.0025222169,0.09015134,0.0,0.0,0.0,0.0,0.0,0.0032474678,0.00842322,0.033205863,0.0,0.0,0.0,0.0,0.0,0.0
370548714,0.0,0.0,0.0,-0.2335051,0.70374423,-0.34246445,0.01777941,0.019750312,-0.03213221,-0.18900311,0.0,0.0,0.0,0.0,0.0,0.0,0.0,0.0,101.05697,101.058044,4.060372,0.0025135423,0.0025145258,0.0025222169,0.09015134,0.0,0.0,0.0,0.0,0.0,0.0035992945,0.009241031,0.035857953,0.0,0.0,0.0,0.0,0.0,0.0
370747086,0.0,0.0,0.0,-0.26249582,0.6575752,0.5094204,0.01777941,0.019750312,-0.03213221,-0.2001487,0.0,0.0,0.0,0.0,0.0,0.0,0.0,0.0,101.05522,101.0563,4.060169,0.0025135423,0.0025145258,0.0025222169,0.09015133,0.0,0.0,0.0,0.0,0.0,0.003758262,0.009511166,0.036152165,0.0,0.0,0.0,0.0,0.0,0.0
370955875,0.0,0.0,0.0,-0.2929399,0.60503167,0.083114624,0.01777941,0.019750312,-0.03213221,-0.20377111,0.0,0.0,0.0,0.0,0.0,0.0,0.0,0.0,101.05445,101.05552,4.0600595,0.0025135423,0.0025145258,0.0025222169,0.09015126,0.0,0.0,0.0,0.0,0.0,0.003283,0.010810792,0.040393356,0.0,0.0,0.0,0.0,0.0,0.0
371155868,0.0,0.0,0.0,-0.32882777,0.53707093,-0.057430267,0.01777941,0.019750312,-0.03213221,-0.10865641,0.0,0.0,0.0,0.0,0.0,0.0,0.0,0.0,101.05688,101.05795,4.060218,0.0025135423,0.0025145258,0.0025222169,0.09015123,0.0,0.0,0.0,0.0,0.0,0.00341115,0.011003246,0.042734057,0.0,0.0,0.0,0.0,0.0,0.0
371355869,0.0,0.0,0.0,-0.35763162,0.46718928,-0.037715912,0.01777941,0.019750312,-0.03213221,-0.10339379,0.0,0.0,0.0,0.0,0.0,0.0,0.0,0.0,101.05512,101.05618,4.060062,0.0025135423,0.0025145258,0.0025222169,0.09015131,0.0,0.0,0.0,0.0,0.0,0.0028240164,0.011470568,0.046396535,0.0,0.0,0.0,0.0,0.0,0.0
371555925,0.0,0.0,0.0,-0.38653892,0.3891807,0.15411377,0.01777941,0.019750312,-0.03213221,-0.22336972,0.0,0.0,0.0,0.0,0.0,0.0,0.0,0.0,101.053505,101.05454,4.0599275,0.0025135423,0.0025145258,0.0025222169,0.0901513,0.0,0.0,0.0,0.0,0.0,0.0028847465,0.012483476,0.051692013,0.0,0.0,0.0,0.0,0.0,0.0
371759076,0.0,0.0,0.0,-0.41962504,0.3030456,0.061437607,0.01777941,0.019750312,-0.03213221,-0.16908383,0.0,0.0,0.0,0.0,0.0,0.0,0.0,0.0,101.0576,101.05863,4.0602584,0.0025135423,0.0025145258,0.0025222169,0.090151206,0.0,0.0,0.0,0.0,0.0,0.0034271576,0.01394795,0.05737662,0.0,0.0,0.0,0.0,0.0,0.0
371967077,0.0,0.0,0.0,-0.45489404,0.20091759,0.27428436,0.01777941,0.019750312,-0.03213221,-0.22186351,0.0,0.0,0.0,0.0,0.0,0.0,0.0,0.0,101.06062,101.06163,4.06047,0.0025135423,0.0025145258,0.0025222169,0.09015118,0.0,0.0,0.0,0.0,0.0,0.0038431822,0.016079938,0.06601552,0.0,0.0,0.0,0.0,0.0,0.0
372167069,0.0,0.0,0.0,-0.48453245,0.10292038,0.18821526,0.01777941,0.019750312,-0.03213221,-0.19843018,0.0,0.0,0.0,0.0,0.0,0.0,0.0,0.0,101.06242,101.06339,4.0605903,0.0025135423,0.0025145258,0.0025222169,0.09015098,0.0,0.0,0.0,0.0,0.0,0.004811289,0.017704766,0.07245395,0.0,0.0,0.0,0.0,0.0,0.0
372367069,0.0,0.0,0.0,-0.5116204,-9.689235e-08,0.09194183,0.01777941,0.019750312,-0.03213221,-0.24951458,0.0,0.0,0.0,0.0,0.0,0.0,0.0,0.0,101.064186,101.065125,4.0607023,0.0025135423,0.0025145258,0.0025222169,0.09015096,0.0,0.0,0.0,0.0,0.0,0.0053174533,0.019312365,0.079504035,0.0,0.0,0.0,0.0,0.0,0.0
372566268,0.0,0.0,0.0,-0.5361434,-0.10542434,-0.0023956299,0.01777941,0.019750312,-0.03213221,-0.24756813,0.0,0.0,0.0,0.0,0.0,0.0,0.0,0.0,101.06505,101.06594,4.0607414,0.0025135423,0.0025145258,0.0025222169,0.09015085,0.0,0.0,0.0,0.0,0.0,0.0053056492,0.020799391,0.087007456,0.0,0.0,0.0,0.0,0.0,0.0
372766271,0.0,0.0,0.0,-0.56024563,-0.21579452,-0.72989845,0.01777941,0.019750312,-0.03213221,-0.2783488,0.0,0.0,0.0,0.0,0.0,0.0,0.0,0.0,101.06723,101.06807,4.060871,0.0025135423,0.0025145258,0.0025222169,0.09015081,0.0,0.0,0.0,0.0,0.0,0.005430047,0.023410728,0.0964547,0.0,0.0,0.0,0.0,0.0,0.0
372974270,0.0,0.0,0.0,-0.5859179,-0.3341449,-0.01325798,0.01777941,0.019750312,-0.03213221,-0.15620875,0.0,0.0,0.0,0.0,0.0,0.0,0.0,0.0,101.07257,101.073364,4.061243,0.0025135423,0.0025145258,0.0025222169,0.09015078,0.0,0.0,0.0,0.0,0.0,0.005264264,0.026668364,0.10759538,0.0,0.0,0.0,0.0,0.0,0.0
373173468,0.0,0.0,0.0,-0.6047635,-0.44158715,-0.026418686,0.01777941,0.019750312,-0.03213221,-0.21178532,0.0,0.0,0.0,0.0,0.0,0.0,0.0,0.0,101.069336,101.07006,4.060952,0.0025135423,0.0025145258,0.0025222169,0.090150826,0.0,0.0,0.0,0.0,0.0,0.004906302,0.026992407,0.11190488,0.0,0.0,0.0,0.0,0.0,0.0
373381469,0.0,0.0,0.0,-0.6270027,-0.5563241,0.17744064,0.01777941,0.019750312,-0.03213221,-0.17107868,0.0,0.0,0.0,0.0,0.0,0.0,0.0,0.0,101.06926,101.069916,4.0609536,0.0025135423,0.0025145258,0.0025222169,0.09015079,0.0,0.0,0.0,0.0,0.0,0.0046068835,0.026711246,0.111932576,0.0,0.0,0.0,0.0,0.0,0.0
373581524,0.0,0.0,0.0,-0.65173465,-0.69317883,-0.2851925,0.01777941,0.019750312,-0.03213221,-0.25198662,0.0,0.0,0.0,0.0,0.0,0.0,0.0,0.0,101.06738,101.067955,4.060801,0.0025135423,0.0025145258,0.0025222169,0.09015067,0.0,0.0,0.0,0.0,0.0,0.004830865,0.030458061,0.12592617,0.0,0.0,0.0,0.0,0.0,0.0
373781474,0.0,0.0,0.0,-0.6786115,-0.84419876,0.12413216,0.01777941,0.019750312,-0.03213221,-0.22722816,0.0,0.0,0.0,0.0,0.0,0.0,0.0,0.0,101.068665,101.06915,4.0609007,0.0025135423,0.0025145258,0.0025222169,0.09015069,0.0,0.0,0.0,0.0,0.0,0.004626316,0.031688113,0.13149215,0.0,0.0,0.0,0.0,0.0,0.0
373979911,0.0,0.0,0.0,-0.70357513,-1.0040519,-0.016836166,0.01777941,0.019750312,-0.03213221,-0.27972806,0.0,0.0,0.0,0.0,0.0,0.0,0.0,0.0,101.06599,101.066376,4.060685,0.0025135423,0.0025145258,0.0025222169,0.0901508,0.0,0.0,0.0,0.0,0.0,0.0042978064,0.032508492,0.13719667,0.0,0.0,0.0,0.0,0.0,0.0
374180685,0.0,0.0,0.0,-0.72775334,-1.1693734,-0.28760147,0.01777941,0.019750312,-0.03213221,-0.27892542,0.0,0.0,0.0,0.0,0.0,0.0,0.0,0.0,101.06304,101.063324,4.0604644,0.0025135423,0.0025145258,0.0025222169,0.09015067,0.0,0.0,0.0,0.0,0.0,0.004425704,0.033028115,0.14288107,0.0,0.0,0.0,0.0,0.0,0.0
374388669,0.0,0.0,0.0,-0.76213825,-1.3594091,-0.11561966,0.01777941,0.019750312,-0.03213221,-0.13096106,0.0,0.0,0.0,0.0,0.0,0.0,0.0,0.0,101.07226,101.07242,4.0612354,0.0025135423,0.0025145258,0.0025222169,0.09015063,0.0,0.0,0.0,0.0,0.0,0.0039151213,0.034975596,0.15033735,0.0,0.0,0.0,0.0,0.0,0.0
374588669,0.0,0.0,0.0,-0.7957473,-1.5167114,-0.18896675,0.01777941,0.019750312,-0.03213221,-0.13937414,0.0,0.0,0.0,0.0,0.0,0.0,0.0,0.0,101.07676,101.07681,4.0616226,0.0025135423,0.0025145258,0.0025222169,0.090150595,0.0,0.0,0.0,0.0,0.0,0.0036888823,0.037653558,0.16262573,0.0,0.0,0.0,0.0,0.0,0.0
374791875,0.0,0.0,0.0,-0.8404688,-1.6407259,0.3193226,0.01777941,0.019750312,-0.03213221,-0.060940027,0.0,0.0,0.0,0.0,0.0,0.0,0.0,0.0,101.0765,101.07645,4.0616117,0.0025135423,0.0025145258,0.0025222169,0.09015053,0.0,0.0,0.0,0.0,0.0,0.003490141,0.0408601,0.17686683,0.0,0.0,0.0,0.0,0.0,0.0
374991868,0.0,0.0,0.0,-0.9039254,-1.7399305,-0.03425026,0.01777941,0.019750312,-0.03213221,-0.15870357,0.0,0.0,0.0,0.0,0.0,0.0,0.0,0.0,101.07404,101.07391,4.061425,0.0025135423,0.0025145258,0.0025222169,0.09015039,0.0,0.0,0.0,0.0,0.0,0.0038226624,0.04156124,0.18003654,0.0,0.0,0.0,0.0,0.0,0.0
375199869,0.0,0.0,0.0,-0.9878319,-1.8399141,0.04197502,0.01777941,0.019750312,-0.03213221,-0.1641022,0.0,0.0,0.0,0.0,0.0,0.0,0.0,0.0,101.081276,101.081085,4.062,0.0025135423,0.0025145258,0.0025222169,0.09015034,0.0,0.0,0.0,0.0,0.0,0.0039168526,0.036674697,0.1589242,0.0,0.0,0.0,0.0,0.0,0.0
375399868,0.0,0.0,0.0,-1.0801866,-1.942714,-0.25099373,0.01777941,0.019750312,-0.03213221,-0.20807242,0.0,0.0,0.0,0.0,0.0,0.0,0.0,0.0,101.088585,101.08834,4.062559,0.0025135423,0.0025145258,0.0025222169,0.090150364,0.0,0.0,0.0,0.0,0.0,0.0039143222,0.03918087,0.16895054,0.0,0.0,0.0,0.0,0.0,0.0
375607112,0.0,0.0,0.0,-1.1554744,-2.0337157,0.03383255,0.01777941,0.019750312,-0.03213221,-0.13880694,0.0,0.0,0.0,0.0,0.0,0.0,0.0,0.0,101.09078,101.090485,4.0627084,0.0025135423,0.0025145258,0.0025222169,0.09015038,0.0,0.0,0.0,0.0,0.0,0.0036943527,0.040825404,0.17476127,0.0,0.0,0.0,0.0,0.0,0.0
375807118,0.0,0.0,0.0,-1.220816,-2.133596,-0.05557251,0.01777941,0.019750312,-0.03213221,-0.20783365,0.0,0.0,0.0,0.0,0.0,0.0,0.0,0.0,101.09588,101.09553,4.0630956,0.0025135423,0.0025145258,0.0025222169,0.09015024,0.0,0.0,0.0,0.0,0.0,0.0034492156,0.0382597,0.16215035,0.0,0.0,0.0,0.0,0.0,0.0
376007069,0.0,0.0,0.0,-1.271926,-2.2426264,-0.29273796,0.01777941,0.019750312,-0.03213221,-0.21892703,0.0,0.0,0.0,0.0,0.0,0.0,0.0,0.0,101.09373,101.09331,4.0628595,0.0025135423,0.0025145258,0.0025222169,0.09015008,0.0,0.0,0.0,0.0,0.0,0.0041014175,0.04012115,0.17118643,0.0,0.0,0.0,0.0,0.0,0.0
376207112,0.0,0.0,0.0,-1.3213967,-2.360531,-0.25277138,0.01777941,0.019750312,-0.03213221,-0.1809082,0.0,0.0,0.0,0.0,0.0,0.0,0.0,0.0,101.08837,101.08789,4.0623794,0.0025135423,0.0025145258,0.0025222169,0.09014994,0.0,0.0,0.0,0.0,0.0,0.0043029645,0.046556044,0.20157182,0.0,0.0,0.0,0.0,0.0,0.0
376414269,0.0,0.0,0.0,-1.3745831,-2.4600384,-0.17658615,0.01777941,0.019750312,-0.03213221,-0.17754352,0.0,0.0,0.0,0.0,0.0,0.0,0.0,0.0,101.0861,101.08557,4.062183,0.0025135423,0.0025145258,0.0025222169,0.09014977,0.0,0.0,0.0,0.0,0.0,0.003908261,0.04355264,0.19028261,0.0,0.0,0.0,0.0,0.0,0.0
376614275,0.0,0.0,0.0,-1.437675,-2.539009,-0.13231468,0.01777941,0.019750312,-0.03213221,-0.10768223,0.0,0.0,0.0,0.0,0.0,0.0,0.0,0.0,101.084404,101.08385,4.0620546,0.0025135423,0.0025145258,0.0025222169,0.09014961,0.0,0.0,0.0,0.0,0.0,0.003928192,0.042397644,0.18686795,0.0,0.0,0.0,0.0,0.0,0.0
376822269,0.0,0.0,0.0,-1.5160707,-2.6184273,-0.04324341,0.01777941,0.019750312,-0.03213221,-0.14786041,0.0,0.0,0.0,0.0,0.0,0.0,0.0,0.0,101.0909,101.09033,4.0625873,0.0025135423,0.0025145258,0.0025222169,0.09014956,0.0,0.0,0.0,0.0,0.0,0.0036540295,0.041748468,0.18116191,0.0,0.0,0.0,0.0,0.0,0.0
377020701,0.0,0.0,0.0,-1.5677842,-2.6548173,0.34280586,0.01777941,0.019750312,-0.03213221,-0.11941075,0.0,0.0,0.0,0.0,0.0,0.0,0.0,0.0,101.088936,101.08838,4.0624113,0.0025135423,0.0025145258,0.0025222169,0.09014941,0.0,0.0,0.0,0.0,0.0,0.0033221343,0.042824663,0.18405437,0.0,0.0,0.0,0.0,0.0,0.0
377221469,0.0,0.0,0.0,-1.6042454,-2.6721683,-0.22787666,0.01777941,0.019750312,-0.03213221,0.018893719,0.0,0.0,0.0,0.0,0.0,0.0,0.0,0.0,101.08646,101.085915,4.062213,0.0025135423,0.0025145258,0.0025222169,0.098280065,0.0,0.0,0.0,0.0,0.0,0.0031188976,0.043972164,0.18443385,0.0,0.0,0.0,0.0,0.0,0.0
377429469,0.0,0.0,0.0,-1.6297967,-2.6686187,-0.07249832,0.01777941,0.019750312,-0.03213221,0.09833944,0.0,0.0,0.0,0.0,0.0,0.0,0.0,0.0,101.07884,101.078316,4.0617366,0.0025135423,0.0025145258,0.0025222169,0.09605286,0.0,0.0,0.0,0.0,0.0,0.011179474,0.03554385,0.1609697,0.0,0.0,0.0,0.0,0.0,0.0
377629475,0.0,0.0,0.0,-1.6496317,-2.6563144,-0.12306404,0.01777941,0.019750312,-0.03213221,0.024061918,0.0,0.0,0.0,0.0,0.0,0.0,0.0,0.0,101.07016,101.069664,4.0613804,0.0025135423,0.0025145258,0.0025222169,0.0953358,0.0,0.0,0.0,0.0,0.0,0.0060009337,0.035328817,0.17574634,0.0,0.0,0.0,0.0,0.0,0.0
377837469,0.0,0.0,0.0,-1.6652954,-2.6453376,-0.46823692,0.01777941,0.019750312,-0.03213221,0.062007666,0.0,0.0,0.0,0.0,0.0,0.0,0.0,0.0,101.06389,101.06341,4.061351,0.0025135423,0.0025145258,0.0025222169,0.09377127,0.0,0.0,0.0,0.0,0.0,0.0022109847,0.027186567,0.13967238,0.0,0.0,0.0,0.0,0.0,0.0
378036681,0.0,0.0,0.0,-1.6625949,-2.608967,-0.4325161,0.01777941,0.019750312,-0.03213221,-0.00981009,0.0,0.0,0.0,0.0,0.0,0.0,0.0,0.0,101.04932,101.048874,4.0607796,0.0025135423,0.0025145258,0.0025222169,0.09282473,0.0,0.0,0.0,0.0,0.0,0.0027052409,0.027193597,0.14481254,0.0,0.0,0.0,0.0,0.0,0.0
378236668,0.0,0.0,0.0,-1.6648697,-2.5858727,0.2220974,0.01777941,0.019750312,-0.03213221,-0.021891236,0.0,0.0,0.0,0.0,0.0,0.0,0.0,0.0,101.041306,101.04088,4.060831,0.0025135423,0.0025145258,0.0025222169,0.09225814,0.0,0.0,0.0,0.0,0.0,0.0058373786,0.020313665,0.117752485,0.0,0.0,0.0,0.0,0.0,0.0
378444688,0.0,0.0,0.0,-1.6516874,-2.540998,-0.12610626,0.01777941,0.019750312,-0.03213221,0.050516367,0.0,0.0,0.0,0.0,0.0,0.0,0.0,0.0,101.02639,101.025986,4.0604076,0.0025135423,0.0025145258,0.0025222169,0.0918426,0.0,0.0,0.0,0.0,0.0,0.0017939784,0.018323978,0.10869864,0.0,0.0,0.0,0.0,0.0,0.0
378644669,0.0,0.0,0.0,-1.6617324,-2.5346634,-0.006761551,0.01777941,0.019750312,-0.03213221,0.012707591,0.0,0.0,0.0,0.0,0.0,0.0,0.0,0.0,101.02881,101.028404,4.0615067,0.0025135423,0.0025145258,0.0025222169,0.09158368,0.0,0.0,0.0,0.0,0.0,0.0011933717,0.008593717,0.061645444,0.0,0.0,0.0,0.0,0.0,0.0
378851868,0.0,0.0,0.0,-1.6597879,-2.5118437,-0.15647316,0.01777941,0.019750312,-0.03213221,0.09897971,0.0,0.0,0.0,0.0,0.0,0.0,0.0,0.0,101.02658,101.02618,4.062164,0.0025135423,0.0025145258,0.0025222169,0.09138868,0.0,0.0,0.0,0.0,0.0,0.0011435408,0.0048396005,0.026648844,0.0,0.0,0.0,0.0,0.0,0.0
379051869,0.0,0.0,0.0,-1.6321952,-2.4488914,-0.16288185,0.01777941,0.019750312,-0.03213221,0.060669184,0.0,0.0,0.0,0.0,0.0,0.0,0.0,0.0,101.01104,101.01065,4.0616913,0.0025135423,0.0025145258,0.0025222169,0.09123649,0.0,0.0,0.0,0.0,0.0,0.0065190974,0.0061871307,0.049055167,0.0,0.0,0.0,0.0,0.0,0.0
379251875,0.0,0.0,0.0,-1.6134422,-2.4015388,-0.079319,0.01777941,0.019750312,-0.03213221,0.0492661,0.0,0.0,0.0,0.0,0.0,0.0,0.0,0.0,101.00344,101.003044,4.061906,0.0025135423,0.0025145258,0.0025222169,0.09111446,0.0,0.0,0.0,0.0,0.0,0.0056875274,0.003797797,0.035444833,0.0,0.0,0.0,0.0,0.0,0.0
379455075,0.0,0.0,0.0,-1.5871772,-2.3453097,0.5389271,0.01777941,0.019750312,-0.03213221,0.020249724,0.0,0.0,0.0,0.0,0.0,0.0,0.0,0.0,100.99364,100.993225,4.061836,0.0025135423,0.0025145258,0.0025222169,0.091014445,0.0,0.0,0.0,0.0,0.0,0.003768985,0.005850389,0.026750626,0.0,0.0,0.0,0.0,0.0,0.0
379663070,0.0,0.0,0.0,-1.5740988,-2.3078737,0.23091888,0.01777941,0.019750312,-0.03213221,-0.008420229,0.0,0.0,0.0,0.0,0.0,0.0,0.0,0.0,100.99617,100.99572,4.0630174,0.0025135423,0.0025145258,0.0025222169,0.090931006,0.0,0.0,0.0,0.0,0.0,0.0015805211,0.0037783352,0.0070662885,0.0,0.0,0.0,0.0,0.0,0.0
379863086,0.0,0.0,0.0,-1.5571814,-2.2673678,-0.14562607,0.01777941,0.019750312,-0.03213221,0.04419422,0.0,0.0,0.0,0.0,0.0,0.0,0.0,0.0,100.997665,100.997185,4.063874,0.0025135423,0.0025145258,0.0025222169,0.09086029,0.0,0.0,0.0,0.0,0.0,0.0019331352,0.007579425,0.026561134,0.0,0.0,0.0,0.0,0.0,0.0
380071090,0.0,0.0,0.0,-1.520688,-2.1965523,0.3034916,0.01777941,0.019750312,-0.03213221,0.027005672,0.0,0.0,0.0,0.0,0.0,0.0,0.0,0.0,100.99081,100.99028,4.063843,0.0025135423,0.0025145258,0.0025222169,0.09079266,0.0,0.0,0.0,0.0,0.0,0.00072891027,0.0039824313,0.01643974,0.0,0.0,0.0,0.0,0.0,0.0
380270305,0.0,0.0,0.0,-1.4893239,-2.1360695,0.15737724,0.01777941,0.019750312,-0.03213221,-0.015159488,0.0,0.0,0.0,0.0,0.0,0.0,0.0,0.0,100.9888,100.98823,4.064142,0.0025135423,0.0025145258,0.0025222169,0.09074099,0.0,0.0,0.0,0.0,0.0,0.0015139589,0.003868141,0.021126624,0.0,0.0,0.0,0.0,0.0,0.0
380470322,0.0,0.0,0.0,-1.4562892,-2.0743227,0.14993095,0.01777941,0.019750312,-0.03213221,0.075620055,0.0,0.0,0.0,0.0,0.0,0.0,0.0,0.0,100.98813,100.987495,4.0644445,0.0025135423,0.0025145258,0.0025222169,0.090695694,0.0,0.0,0.0,0.0,0.0,0.0011455611,0.006729642,0.032845747,0.0,0.0,0.0,0.0,0.0,0.0
380678275,0.0,0.0,0.0,-1.4351332,-2.0309994,-0.1839447,0.01777941,0.019750312,-0.03213221,0.04659295,0.0,0.0,0.0,0.0,0.0,0.0,0.0,0.0,100.99869,100.997986,4.065762,0.0025135423,0.0025145258,0.0025222169,0.09065098,0.0,0.0,0.0,0.0,0.0,0.002383457,0.009685107,0.055748682,0.0,0.0,0.0,0.0,0.0,0.0
380878268,0.0,0.0,0.0,-1.3997524,-1.9668196,-0.14733505,0.01777941,0.019750312,-0.03213221,-0.030540347,0.0,0.0,0.0,0.0,0.0,0.0,0.0,0.0,101.00401,101.00323,4.0663085,0.0025135423,0.0025145258,0.0025222169,0.09061589,0.0,0.0,0.0,0.0,0.0,0.0015683754,0.0062728142,0.045833584,0.0,0.0,0.0,0.0,0.0,0.0
381085504,0.0,0.0,0.0,-1.3520899,-1.8841348,-0.12096596,0.01777941,0.019750312,-0.03213221,0.04446757,0.0,0.0,0.0,0.0,0.0,0.0,0.0,0.0,101.00475,101.0039,4.066158,0.0025135423,0.0025145258,0.0025222169,0.09058446,0.0,0.0,0.0,0.0,0.0,0.001247978,0.0025517207,0.02926085,0.0,0.0,0.0,0.0,0.0,0.0
381285469,0.0,0.0,0.0,-1.3094438,-1.8104955,0.23113823,0.01777941,0.019750312,-0.03213221,0.0025469065,0.0,0.0,0.0,0.0,0.0,0.0,0.0,0.0,101.00955,101.00861,4.066311,0.0025135423,0.0025145258,0.0025222169,0.09055613,0.0,0.0,0.0,0.0,0.0,0.0010090815,0.0021234208,0.033632644,0.0,0.0,0.0,0.0,0.0,0.0
381485475,0.0,0.0,0.0,-1.2627276,-1.7322466,0.2151928,0.01777941,0.019750312,-0.03213221,-0.014321089,0.0,0.0,0.0,0.0,0.0,0.0,0.0,0.0,101.012505,101.01149,4.06614,0.0025135423,0.0025145258,0.0025222169,0.090530485,0.0,0.0,0.0,0.0,0.0,0.0009317732,0.006860141,0.0467928,0.0,0.0,0.0,0.0,0.0,0.0
381685469,0.0,0.0,0.0,-1.2149695,-1.6528155,-0.28712082,0.01777941,0.019750312,-0.03213221,0.063147664,0.0,0.0,0.0,0.0,0.0,0.0,0.0,0.0,101.016785,101.01569,4.065975,0.0025135423,0.0025145258,0.0025222169,0.090507135,0.0,0.0,0.0,0.0,0.0,0.0009561976,0.0056112185,0.05341613,0.0,0.0,0.0,0.0,0.0,0.0
381893469,0.0,0.0,0.0,-1.1603914,-1.5640975,0.037275314,0.01777941,0.019750312,-0.03213221,-0.03549421,0.0,0.0,0.0,0.0,0.0,0.0,0.0,0.0,101.02445,101.02328,4.065939,0.0025135423,0.0025145258,0.0025222169,0.09048329,0.0,0.0,0.0,0.0,0.0,0.00097377703,0.0037537336,0.050178222,0.0,0.0,0.0,0.0,0.0,0.0
382092669,0.0,0.0,0.0,-1.1098132,-1.4843178,-0.088825226,0.01777941,0.019750312,-0.03213221,0.039227843,0.0,0.0,0.0,0.0,0.0,0.0,0.0,0.0,101.03513,101.03387,4.0661554,0.0025135423,0.0025145258,0.0025222169,0.09046396,0.0,0.0,0.0,0.0,0.0,0.0009777122,0.005790654,0.06077431,0.0,0.0,0.0,0.0,0.0,0.0
382300668,0.0,0.0,0.0,-1.0674955,-1.4165745,-0.057329178,0.01777941,0.019750312,-0.03213221,0.032909393,0.0,0.0,0.0,0.0,0.0,0.0,0.0,0.0,101.05775,101.05638,4.067422,0.0025135423,0.0025145258,0.0025222169,0.09044622,0.0,0.0,0.0,0.0,0.0,0.0012736381,0.011876324,0.085425265,0.0,0.0,0.0,0.0,0.0,0.0
382500669,0.0,0.0,0.0,-1.0213759,-1.3451167,0.03499794,0.01777941,0.019750312,-0.03213221,0.0023485422,0.0,0.0,0.0,0.0,0.0,0.0,0.0,0.0,101.08061,101.07913,4.068528,0.0025135423,0.0025145258,0.0025222169,0.09042977,0.0,0.0,0.0,0.0,0.0,0.0015014695,0.013273669,0.09248084,0.0,0.0,0.0,0.0,0.0,0.0
382703869,0.0,0.0,0.0,-0.9537842,-1.246491,0.1804409,0.01777941,0.019750312,-0.03213221,0.041600347,0.0,0.0,0.0,0.0,0.0,0.0,0.0,0.0,101.08959,101.08805,4.0680337,0.0025135423,0.0025145258,0.0025222169,0.09041458,0.0,0.0,0.0,0.0,0.0,0.00085444975,0.0071667205,0.06865941,0.0,0.0,0.0,0.0,0.0,0.0
382903868,0.0,0.0,0.0,-0.89245814,-1.1565748,0.29081345,0.01777941,0.019750312,-0.03213221,0.010003924,0.0,0.0,0.0,0.0,0.0,0.0,0.0,0.0,101.098724,101.09713,4.0676694,0.0025135423,0.0025145258,0.0025222169,0.090400495,0.0,0.0,0.0,0.0,0.0,0.00089025096,0.009857544,0.07471539,0.0,0.0,0.0,0.0,0.0,0.0
383111886,0.0,0.0,0.0,-0.83262753,-1.068753,-0.1810875,0.01777941,0.019750312,-0.03213221,0.040382028,0.0,0.0,0.0,0.0,0.0,0.0,0.0,0.0,101.12059,101.11891,4.068329,0.0025135423,0.0025145258,0.0025222169,0.09038578,0.0,0.0,0.0,0.0,0.0,0.0008733735,0.011173992,0.08195823,0.0,0.0,0.0,0.0,0.0,0.0
383311868,0.0,0.0,0.0,-0.7702992,-0.9803342,-0.16600037,0.01777941,0.019750312,-0.03213221,0.020353556,0.0,0.0,0.0,0.0,0.0,0.0,0.0,0.0,101.13184,101.13013,4.068086,0.0025135423,0.0025145258,0.0025222169,0.09037366,0.0,0.0,0.0,0.0,0.0,0.0008440321,0.012839392,0.08445548,0.0,0.0,0.0,0.0,0.0,0.0
383511068,0.0,0.0,0.0,-0.7163648,-0.9031171,0.07071686,0.01777941,0.019750312,-0.03213221,-0.00011599064,0.0,0.0,0.0,0.0,0.0,0.0,0.0,0.0,101.15037,101.148605,4.068579,0.0025135423,0.0025145258,0.0025222169,0.090362325,0.0,0.0,0.0,0.0,0.0,0.0009038385,0.017431572,0.10070038,0.0,0.0,0.0,0.0,0.0,0.0
383711075,0.0,0.0,0.0,-0.65444016,-0.81576145,0.6138096,0.01777941,0.019750312,-0.03213221,0.03120637,0.0,0.0,0.0,0.0,0.0,0.0,0.0,0.0,101.15453,101.15276,4.067817,0.0025135423,0.0025145258,0.0025222169,0.09035168,0.0,0.0,0.0,0.0,0.0,0.0006208084,0.018773597,0.10318293,0.0,0.0,0.0,0.0,0.0,0.0
383919075,0.0,0.0,0.0,-0.58840567,-0.71951383,0.0833931,0.01777941,0.019750312,-0.03213221,-0.067791104,0.0,0.0,0.0,0.0,0.0,0.0,0.0,0.0,101.16133,101.15956,4.06721,0.0025135423,0.0025145258,0.0025222169,0.09034049,0.0,0.0,0.0,0.0,0.0,0.0005928856,0.01907081,0.1017771,0.0,0.0,0.0,0.0,0.0,0.0
384119069,0.0,0.0,0.0,-0.5320961,-0.6349776,0.07210922,0.01777941,0.019750312,-0.03213221,0.10573065,0.0,0.0,0.0,0.0,0.0,0.0,0.0,0.0,101.17056,101.16879,4.0669656,0.0025135423,0.0025145258,0.0025222169,0.09033118,0.0,0.0,0.0,0.0,0.0,0.00053836225,0.020964324,0.10715294,0.0,0.0,0.0,0.0,0.0,0.0
384326269,0.0,0.0,0.0,-0.47234157,-0.5434802,-0.2693882,0.01777941,0.019750312,-0.03213221,-0.0064737797,0.0,0.0,0.0,0.0,0.0,0.0,0.0,0.0,101.17626,101.17451,4.066423,0.0025135423,0.0025145258,0.0025222169,0.09032137,0.0,0.0,0.0,0.0,0.0,0.0006871874,0.021698307,0.108595505,0.0,0.0,0.0,0.0,0.0,0.0
384526297,0.0,0.0,0.0,-0.42035732,-0.46149373,0.33008575,0.01777941,0.019750312,-0.03213221,-0.020843148,0.0,0.0,0.0,0.0,0.0,0.0,0.0,0.0,101.18412,101.18239,4.0661945,0.0025135423,0.0025145258,0.0025222169,0.090313196,0.0,0.0,0.0,0.0,0.0,0.00065273716,0.02464928,0.11604899,0.0,0.0,0.0,0.0,0.0,0.0
384726268,0.0,0.0,0.0,-0.37498322,-0.3905427,0.28539085,0.01777941,0.019750312,-0.03213221,0.08591986,0.0,0.0,0.0,0.0,0.0,0.0,0.0,0.0,101.194885,101.19317,4.0663137,0.0025135423,0.0025145258,0.0025222169,0.09030647,0.0,0.0,0.0,0.0,0.0,0.00045718203,0.028133912,0.12664881,0.0,0.0,0.0,0.0,0.0,0.0
384926275,0.0,0.0,0.0,-0.32564464,-0.314076,0.31983757,0.01777941,0.019750312,-0.03213221,-0.059254885,0.0,0.0,0.0,0.0,0.0,0.0,0.0,0.0,101.20593,101.20423,4.0664005,0.0025135423,0.0025145258,0.0025222169,0.09029917,0.0,0.0,0.0,0.0,0.0,0.00043835118,0.02963683,0.12925225,0.0,0.0,0.0,0.0,0.0,0.0
385133468,0.0,0.0,0.0,-0.274589,-0.2372033,0.22628593,0.01777941,0.019750312,-0.03213221,-0.03655708,0.0,0.0,0.0,0.0,0.0,0.0,0.0,0.0,101.20708,101.20544,4.065791,0.0025135423,0.0025145258,0.0025222169,0.09029226,0.0,0.0,0.0,0.0,0.0,0.00052135985,0.02980642,0.12853524,0.0,0.0,0.0,0.0,0.0,0.0
385333468,0.0,0.0,0.0,-0.23291077,-0.17330316,0.26468468,0.01777941,0.019750312,-0.03213221,-0.008015752,0.0,0.0,0.0,0.0,0.0,0.0,0.0,0.0,101.22457,101.222946,4.0665016,0.0025135423,0.0025145258,0.0025222169,0.09028569,0.0,0.0,0.0,0.0,0.0,0.0010140616,0.030973507,0.13152665,0.0,0.0,0.0,0.0,0.0,0.0
385541469,0.0,0.0,0.0,-0.19246839,-0.11363991,0.24178505,0.01777941,0.019750312,-0.03213221,-0.065606356,0.0,0.0,0.0,0.0,0.0,0.0,0.0,0.0,101.235374,101.23378,4.0667787,0.0025135423,0.0025145258,0.0025222169,0.090279445,0.0,0.0,0.0,0.0,0.0,0.00046991615,0.031648483,0.13308254,0.0,0.0,0.0,0.0,0.0,0.0
385741488,0.0,0.0,0.0,-0.14923485,-0.052517362,0.009267807,0.01777941,0.019750312,-0.03213221,0.07383466,0.0,0.0,0.0,0.0,0.0,0.0,0.0,0.0,101.24024,101.23871,4.0666337,0.0025135423,0.0025145258,0.0025222169,0.09027349,0.0,0.0,0.0,0.0,0.0,0.00036359346,0.031995416,0.13219528,0.0,0.0,0.0,0.0,0.0,0.0
385940675,0.0,0.0,0.0,-0.11050527,0.00016696771,0.05163002,0.01777941,0.019750312,-0.03213221,-0.048874736,0.0,0.0,0.0,0.0,0.0,0.0,0.0,0.0,101.233505,101.23205,4.065771,0.0025135423,0.0025145258,0.0025222169,0.090267904,0.0,0.0,0.0,0.0,0.0,0.0007948588,0.031969264,0.13095868,0.0,0.0,0.0,0.0,0.0,0.0
386148675,0.0,0.0,0.0,-0.07342703,0.051529597,0.06549835,0.01777941,0.019750312,-0.03213221,-0.0006685257,0.0,0.0,0.0,0.0,0.0,0.0,0.0,0.0,101.23664,101.235245,4.0656767,0.0025135423,0.0025145258,0.0025222169,0.09026191,0.0,0.0,0.0,0.0,0.0,0.00023211775,0.031876434,0.1294986,0.0,0.0,0.0,0.0,0.0,0.0
386348668,0.0,0.0,0.0,-0.038484685,0.100928396,-0.053941727,0.01777941,0.019750312,-0.03213221,0.0539186,0.0,0.0,0.0,0.0,0.0,0.0,0.0,0.0,101.244095,101.24275,4.0659184,0.0025135423,0.0025145258,0.0025222169,0.09025686,0.0,0.0,0.0,0.0,0.0,0.0004107882,0.031885568,0.12811743,0.0,0.0,0.0,0.0,0.0,0.0
386548669,0.0,0.0,0.0,-0.00929134,0.14211448,0.027288437,0.01777941,0.019750312,-0.03213221,-0.017738938,0.0,0.0,0.0,0.0,0.0,0.0,0.0,0.0,101.24922,101.24794,4.0660706,0.0025135423,0.0025145258,0.0025222169,0.09025206,0.0,0.0,0.0,0.0,0.0,0.0004968531,0.031409413,0.12565468,0.0,0.0,0.0,0.0,0.0,0.0
386755869,0.0,0.0,0.0,0.019863043,0.18132144,0.13329315,0.01777941,0.019750312,-0.03213221,-0.022331357,0.0,0.0,0.0,0.0,0.0,0.0,0.0,0.0,101.24336,101.24215,4.0655103,0.0025135423,0.0025145258,0.0025222169,0.09024747,0.0,0.0,0.0,0.0,0.0,0.0004993122,0.030549154,0.1220481,0.0,0.0,0.0,0.0,0.0,0.0
386955900,0.0,0.0,0.0,0.04820853,0.2205265,0.19032097,0.01777941,0.019750312,-0.03213221,-0.018525124,0.0,0.0,0.0,0.0,0.0,0.0,0.0,0.0,101.25227,101.251114,4.066009,0.0025135423,0.0025145258,0.0025222169,0.0902431,0.0,0.0,0.0,0.0,0.0,0.00030108012,0.029864784,0.118324324,0.0,0.0,0.0,0.0,0.0,0.0
387155869,0.0,0.0,0.0,0.07655103,0.25448292,0.29488564,0.01777941,0.019750312,-0.03213221,-0.001141429,0.0,0.0,0.0,0.0,0.0,0.0,0.0,0.0,101.23947,101.2384,4.0650477,0.0025135423,0.0025145258,0.0025222169,0.09023894,0.0,0.0,0.0,0.0,0.0,0.00020603136,0.030290317,0.11946783,0.0,0.0,0.0,0.0,0.0,0.0
387359072,0.0,0.0,0.0,0.102074586,0.28669885,0.086847305,0.01777941,0.019750312,-0.03213221,-0.01866138,0.0,0.0,0.0,0.0,0.0,0.0,0.0,0.0,101.24652,101.2455,4.065509,0.0025135423,0.0025145258,0.0025222169,0.09023491,0.0,0.0,0.0,0.0,0.0,0.00018053765,0.02886277,0.11390912,0.0,0.0,0.0,0.0,0.0,0.0
387567078,0.0,0.0,0.0,0.12521066,0.3127917,0.24623871,0.01777941,0.019750312,-0.03213221,-0.0969615,0.0,0.0,0.0,0.0,0.0,0.0,0.0,0.0,101.2299,101.228966,4.064387,0.0025135423,0.0025145258,0.0025222169,0.09023067,0.0,0.0,0.0,0.0,0.0,0.000544546,0.028918816,0.11359249,0.0,0.0,0.0,0.0,0.0,0.0
387767076,0.0,0.0,0.0,0.146545,0.33709735,-0.04859352,0.01777941,0.019750312,-0.03213221,-0.0089098215,0.0,0.0,0.0,0.0,0.0,0.0,0.0,0.0,101.22179,101.22092,4.0639033,0.0025135423,0.0025145258,0.0025222169,0.090227015,0.0,0.0,0.0,0.0,0.0,0.0010099508,0.027522232,0.10860845,0.0,0.0,0.0,0.0,0.0,0.0
387967086,0.0,0.0,0.0,0.16674815,0.35976368,0.16705322,0.01777941,0.019750312,-0.03213221,0.07610774,0.0,0.0,0.0,0.0,0.0,0.0,0.0,0.0,101.21376,101.21296,4.0634723,0.0025135423,0.0025145258,0.0025222169,0.09022352,0.0,0.0,0.0,0.0,0.0,0.00074953935,0.027209226,0.106023945,0.0,0.0,0.0,0.0,0.0,0.0
388174269,0.0,0.0,0.0,0.18355015,0.37871763,0.23342323,0.01777941,0.019750312,-0.03213221,-0.033910394,0.0,0.0,0.0,0.0,0.0,0.0,0.0,0.0,101.201126,101.200386,4.0627594,0.0025135423,0.0025145258,0.0025222169,0.09021982,0.0,0.0,0.0,0.0,0.0,0.00046904586,0.024542568,0.096749485,0.0,0.0,0.0,0.0,0.0,0.0
388374269,0.0,0.0,0.0,0.20039836,0.40066236,0.41836357,0.01777941,0.019750312,-0.03213221,-0.05715108,0.0,0.0,0.0,0.0,0.0,0.0,0.0,0.0,101.19789,101.1972,4.0627346,0.0025135423,0.0025145258,0.0025222169,0.090216674,0.0,0.0,0.0,0.0,0.0,0.0003526486,0.023123354,0.09145276,0.0,0.0,0.0,0.0,0.0,0.0
388582278,0.0,0.0,0.0,0.21584943,0.42350227,0.15237808,0.01777941,0.019750312,-0.03213221,-0.042867422,0.0,0.0,0.0,0.0,0.0,0.0,0.0,0.0,101.19933,101.1987,4.063054,0.0025135423,0.0025145258,0.0025222169,0.09021363,0.0,0.0,0.0,0.0,0.0,0.00021801023,0.021877304,0.08609671,0.0,0.0,0.0,0.0,0.0,0.0
388782269,0.0,0.0,0.0,0.22609244,0.4396701,-0.05993271,0.01777941,0.019750312,-0.03213221,0.014119744,0.0,0.0,0.0,0.0,0.0,0.0,0.0,0.0,101.19056,101.18997,4.06266,0.0025135423,0.0025145258,0.0025222169,0.09021074,0.0,0.0,0.0,0.0,0.0,0.00039838572,0.021346433,0.083971955,0.0,0.0,0.0,0.0,0.0,0.0
388983869,0.0,0.0,0.0,0.23366003,0.45273602,-0.0989418,0.01777941,0.019750312,-0.03213221,-0.01019609,0.0,0.0,0.0,0.0,0.0,0.0,0.0,0.0,101.17755,101.17701,4.0619864,0.0025135423,0.0025145258,0.0025222169,0.090208046,0.0,0.0,0.0,0.0,0.0,0.00070214225,0.020317141,0.08010456,0.0,0.0,0.0,0.0,0.0,0.0
389189475,0.0,0.0,0.0,0.24514514,0.47311813,-0.2466259,0.01777941,0.019750312,-0.03213221,-0.04070258,0.0,0.0,0.0,0.0,0.0,0.0,0.0,0.0,101.17922,101.17873,4.062367,0.0025135423,0.0025145258,0.0025222169,0.09020541,0.0,0.0,0.0,0.0,0.0,0.00034918453,0.019205194,0.07525169,0.0,0.0,0.0,0.0,0.0,0.0
389389506,0.0,0.0,0.0,0.25306165,0.48843384,-0.12519264,0.01777941,0.019750312,-0.03213221,-0.030307531,0.0,0.0,0.0,0.0,0.0,0.0,0.0,0.0,101.17468,101.174225,4.0622687,0.0025135423,0.0025145258,0.0025222169,0.09020287,0.0,0.0,0.0,0.0,0.0,0.00030055875,0.017579122,0.068013914,0.0,0.0,0.0,0.0,0.0,0.0
389597523,0.0,0.0,0.0,0.26173046,0.504867,-0.16195107,0.01777941,0.019750312,-0.03213221,0.121493936,0.0,0.0,0.0,0.0,0.0,0.0,0.0,0.0,101.16634,101.16593,4.0619435,0.0025135423,0.0025145258,0.0025222169,0.09020015,0.0,0.0,0.0,0.0,0.0,0.00025998757,0.01864698,0.07199362,0.0,0.0,0.0,0.0,0.0,0.0
