timestamp,ref_timestamp,ref_lat,ref_lon,x,y,z,delta_xy[0],delta_xy[1],delta_z,vx,vy,vz,z_deriv,delta_vxy[0],delta_vxy[1],delta_vz,ax,ay,az,yaw,ref_alt,dist_bottom,dist_bottom_rate,eph,epv,evh,evv,vxy_max,vz_max,hagl_min,hagl_max,xy_valid,z_valid,v_xy_valid,v_z_valid,xy_reset_counter,z_reset_counter,vxy_reset_counter,vz_reset_counter,xy_global,z_global,dist_bottom_valid
50798118,16917270,49.08973400000001,2.1104799,0.12589347,0.2025513,0.22445624,-0.0027077594,0.001682189,0.0,0.009623731,-0.016578645,0.00048281395,0.007380813,0.0027435995,-0.023921158,0.0069254776,-0.0032200532,0.010839473,-0.07068369,0.47261718,87.04701,0.1,-0.00048281395,0.3247635,0.2345614,0.15622473,0.10075583,inf,inf,inf,inf,1,1,1,1,2,0,2,2,1,1,0
50905275,16917270,49.08973400000001,2.1104799,0.1232426,0.20354846,0.22609931,-0.0027077594,0.001682189,0.0,0.008110073,-0.015980791,0.0024930546,0.010070489,0.0027435995,-0.023921158,0.0069254776,0.006025083,-0.01726919,0.016461674,0.4722073,87.04701,0.10033649,-0.0024930546,0.33718655,0.23464,0.16102536,0.1010961,inf,inf,inf,inf,1,1,1,1,2,0,2,2,1,1,0
51006915,16917270,49.08973400000001,2.1104799,0.120967485,0.20475574,0.22644699,-0.0027077594,0.001682189,0.0,0.0068561165,-0.015563355,0.0023936792,0.0092192935,0.0027435995,-0.023921158,0.0069254776,-0.010049668,-0.0033201126,0.0050518094,0.47178522,87.04701,0.1,-0.0023936792,0.32550427,0.23333292,0.15655434,0.10050606,inf,inf,inf,inf,1,1,1,1,2,0,2,2,1,1,0
51102108,16917270,49.08973400000001,2.1104799,0.11907609,0.20604552,0.2262645,-0.0027077594,0.001682189,0.0,0.0058556832,-0.014327747,0.0023222421,0.007999132,0.0027435995,-0.023921158,0.0069254776,0.0049214214,0.0041071903,-0.03681401,0.47138438,87.04701,0.1,-0.0023222421,0.33709598,0.23449326,0.16103564,0.101088434,inf,inf,inf,inf,1,1,1,1,2,0,2,2,1,1,0
51207670,16917270,49.08973400000001,2.1104799,0.11736342,0.20714808,0.22612713,-0.0027077594,0.001682189,0.0,0.004994814,-0.013782483,0.00258149,0.0071979202,0.0027435995,-0.023921158,0.0069254776,-0.010037785,-0.01517417,-0.006204534,0.4709572,87.04701,0.1,-0.00258149,0.3252437,0.23313566,0.15650435,0.10049109,inf,inf,inf,inf,1,1,1,1,2,0,2,2,1,1,0
51310932,16917270,49.08973400000001,2.1104799,0.11582227,0.2080676,0.22659825,-0.0027077594,0.001682189,0.0,0.0038725722,-0.01292115,0.0028952546,0.0072590234,0.0027435995,-0.023921158,0.0069254776,0.011604363,0.013316224,0.02092356,0.47069407,87.04701,0.1,-0.0028952546,0.33741516,0.23464009,0.16117856,0.10120453,inf,inf,inf,inf,1,1,1,1,2,0,2,2,1,1,0
51407670,16917270,49.08973400000001,2.1104799,0.11472192,0.20877235,0.22492994,-0.0027077594,0.001682189,0.0,0.0028260024,-0.01223254,0.0017047885,0.0037151058,0.0027435995,-0.023921158,0.0069254776,-0.0016644041,-0.007672372,0.030164279,0.4705168,87.04701,0.1,-0.0017047885,0.3248798,0.23442177,0.15641838,0.100839004,inf,inf,inf,inf,1,1,1,1,2,0,2,2,1,1,0
51509270,16917270,49.08973400000001,2.1104799,0.11376631,0.20936975,0.22256553,-0.0027077594,0.001682189,0.0,0.0017418094,-0.0120815,0.00028510837,-0.00022574356,0.0027435995,-0.023921158,0.0069254776,-0.00626072,-0.008308375,-0.0018152829,0.4703445,87.04701,0.1,-0.00028510837,0.33713427,0.23442982,0.16113237,0.10117275,inf,inf,inf,inf,1,1,1,1,2,0,2,2,1,1,0
51610876,16917270,49.08973400000001,2.1104799,0.11311928,0.20991759,0.21969014,-0.0027077594,0.001682189,0.0,0.0010536812,-0.011796459,-0.0008737766,-0.0039389124,0.0027435995,-0.023921158,0.0069254776,0.0009593266,-0.001547553,0.05158742,0.4701825,87.04701,0.1,0.0008737766,0.32547772,0.23321795,0.1567051,0.10059905,inf,inf,inf,inf,1,1,1,1,2,0,2,2,1,1,0
51714106,16917270,49.08973400000001,2.1104799,0.11272224,0.2102784,0.21825598,-0.0027077594,0.001682189,0.0,0.00063624524,-0.011279333,-0.0016984467,-0.005446087,0.0027435995,-0.023921158,0.0069254776,-0.010419408,0.004088543,-0.058731418,0.46987966,87.04701,0.1,0.0016984467,0.33738235,0.23301229,0.16125594,0.10090844,inf,inf,inf,inf,1,1,1,1,2,0,2,2,1,1,0
51818105,16917270,49.08973400000001,2.1104799,0.1120664,0.21092144,0.2169466,-0.0027077594,0.001682189,0.0,-0.00064648344,-0.0108437445,-0.0026211133,-0.00676855,0.0027435995,-0.023921158,0.0069254776,-0.012573414,-0.0017973828,-0.01915751,0.4694936,87.04701,0.1,0.0026211133,0.3256796,0.23180443,0.15682857,0.10034543,inf,inf,inf,inf,1,1,1,1,2,0,2,2,1,1,0
51914887,16917270,49.08973400000001,2.1104799,0.11140141,0.211391,0.21634133,-0.0027077594,0.001682189,0.0,-0.0014300945,-0.010288861,-0.0035104908,-0.0072635137,0.0027435995,-0.023921158,0.0069254776,0.0026925511,-0.0028487572,-0.047565866,0.46911415,87.04701,0.100789204,0.0035104908,0.3369295,0.23435764,0.16114856,0.10130037,inf,inf,inf,inf,1,1,1,1,2,0,2,2,1,1,0
52018870,16917270,49.08973400000001,2.1104799,0.11171707,0.21224493,0.21384302,-0.0027077594,0.001682189,0.0,-0.0017919465,-0.009334566,-0.0053887996,-0.01051607,0.0027435995,-0.023921158,0.0069254776,-0.0037462176,0.005822732,-0.0035550361,0.4686783,87.04701,0.1,0.0053887996,0.32543057,0.23318943,0.1568183,0.100717396,inf,inf,inf,inf,1,1,1,1,2,0,2,2,1,1,0
52122870,16917270,49.08973400000001,2.1104799,0.11244932,0.21300454,0.21402808,-0.0027077594,0.001682189,0.0,-0.0020639214,-0.008507869,-0.0061932127,-0.009659622,0.0027435995,-0.023921158,0.0069254776,0.008775788,0.007614617,0.0070947516,0.46817195,87.04701,0.10503857,0.0061932127,0.33783853,0.23328021,0.161589,0.10105229,inf,inf,inf,inf,1,1,1,1,2,0,2,2,1,1,0
52224487,16917270,49.08973400000001,2.1104799,0.1133422,0.21335313,0.21369876,-0.0027077594,0.001682189,0.0,-0.0017957906,-0.0076162517,-0.007034103,-0.009559799,0.0027435995,-0.023921158,0.0069254776,-0.0022200404,0.0038134195,-0.00052364176,0.46778113,87.04701,0.1,0.007034103,0.32579723,0.23361579,0.1569713,0.10085983,inf,inf,inf,inf,1,1,1,1,2,0,2,2,1,1,0
52319670,16917270,49.08973400000001,2.1104799,0.11426639,0.21334018,0.21442086,-0.0027077594,0.001682189,0.0,-0.0016856906,-0.007954066,-0.0070805014,-0.007755626,0.0027435995,-0.023921158,0.0069254776,0.0013352679,0.0037232602,0.06813681,0.46741608,87.04701,0.104106486,0.0070805014,0.33686712,0.23287997,0.16120836,0.100995,inf,inf,inf,inf,1,1,1,1,2,0,2,2,1,1,0
52423670,16917270,49.08973400000001,2.1104799,0.11608574,0.21396172,0.21553698,-0.0027077594,0.001682189,0.0,-0.0012147038,-0.0077355797,-0.0064441077,-0.0050868504,0.0027435995,-0.023921158,0.0069254776,0.00082636083,-0.009778711,0.016967505,0.4670451,87.04701,0.10244924,0.0064441077,0.32526195,0.23325711,0.1568426,0.100824386,inf,inf,inf,inf,1,1,1,1,2,0,2,2,1,1,0
52526903,16917270,49.08973400000001,2.1104799,0.117896184,0.21446815,0.21686457,-0.0027077594,0.001682189,0.0,-0.0009797761,-0.007834097,-0.00584573,-0.0025582525,0.0027435995,-0.023921158,0.0069254776,-0.0034359172,-0.0056294054,-0.0029456976,0.46657977,87.04701,0.10607405,0.00584573,0.33757845,0.23335132,0.16156931,0.101170056,inf,inf,inf,inf,1,1,1,1,2,0,2,2,1,1,0
52630876,16917270,49.08973400000001,2.1104799,0.1193769,0.21524324,0.21654655,-0.0027077594,0.001682189,0.0,-0.001222325,-0.007534173,-0.0065347794,-0.0032206057,0.0027435995,-0.023921158,0.0069254776,-0.0162743,-0.026113333,-0.011979755,0.46605402,87.04701,0.1,0.0065347794,0.32607326,0.23378763,0.15724446,0.10100279,inf,inf,inf,inf,1,1,1,1,2,0,2,2,1,1,0
52726869,16917270,49.08973400000001,2.1104799,0.12043499,0.21564062,0.21140614,-0.0027077594,0.001682189,0.0,-0.0013702145,-0.0076516923,-0.008328287,-0.009622706,0.0027435995,-0.023921158,0.0069254776,0.010355915,0.0025544495,0.052041564,0.4655237,87.04701,0.1,0.008328287,0.33736706,0.23474763,0.16156763,0.101541825,inf,inf,inf,inf,1,1,1,1,2,0,2,2,1,1,0
52831670,16917270,49.08973400000001,2.1104799,0.122951396,0.2165171,0.20619,-0.0027077594,0.001682189,0.0,-0.0006845109,-0.007856683,-0.009435617,-0.014605137,0.0027435995,-0.023921158,0.0069254776,0.0014001562,-0.019901874,0.007290152,0.4649343,87.04701,0.1,0.009435617,0.32586113,0.23360223,0.15721865,0.100954324,inf,inf,inf,inf,1,1,1,1,2,0,2,2,1,1,0
52934870,16917270,49.08973400000001,2.1104799,0.12549382,0.21717156,0.2015679,-0.0027077594,0.001682189,0.0,-0.00086337473,-0.007816855,-0.010320406,-0.018239038,0.0027435995,-0.023921158,0.0069254776,-0.013218862,-0.00056672544,0.0036960053,0.4643576,87.04701,0.1,0.010320406,0.33813158,0.23360464,0.16191183,0.10127682,inf,inf,inf,inf,1,1,1,1,2,0,2,2,1,1,0
53031680,16917270,49.08973400000001,2.1104799,0.12883194,0.21687579,0.19779664,-0.0027077594,0.001682189,0.0,-1.6149897e-05,-0.007759945,-0.011949645,-0.021551192,0.0027435995,-0.023921158,0.0069254776,0.0062794685,-0.0056653805,-0.019220224,0.46375102,87.04701,0.1,0.011949645,0.32566443,0.23347943,0.15720613,0.10093151,inf,inf,inf,inf,1,1,1,1,2,0,2,2,1,1,0
53135676,16917270,49.08973400000001,2.1104799,0.13213529,0.21613716,0.19523878,-0.0027077594,0.001682189,0.0,0.00075801666,-0.008302799,-0.01133473,-0.021111406,0.0027435995,-0.023921158,0.0069254776,0.0019325252,-0.009060284,0.0038690034,0.46318108,87.04701,0.1,0.01133473,0.33793038,0.23350245,0.16189602,0.10126131,inf,inf,inf,inf,1,1,1,1,2,0,2,2,1,1,0
53238070,16917270,49.08973400000001,2.1104799,0.13582608,0.21558131,0.19190593,-0.0027077594,0.001682189,0.0,0.0016023054,-0.008165281,-0.012702972,-0.023375006,0.0027435995,-0.023921158,0.0069254776,0.002923279,-0.0022132155,0.019662464,0.46267483,87.04701,0.10154967,0.012702972,0.3263703,0.23242629,0.15754378,0.100703344,inf,inf,inf,inf,1,1,1,1,2,0,2,2,1,1,0
53334915,16917270,49.08973400000001,2.1104799,0.13877414,0.21494739,0.1891803,-0.0027077594,0.001682189,0.0,0.0025824092,-0.007939989,-0.014209166,-0.025153859,0.0027435995,-0.023921158,0.0069254776,-0.0021405052,0.011683057,0.026203172,0.46227735,87.04701,0.1,0.014209166,0.33771005,0.2334462,0.16187173,0.10126177,inf,inf,inf,inf,1,1,1,1,2,0,2,2,1,1,0
53439714,16917270,49.08973400000001,2.1104799,0.14389604,0.21405542,0.188604,-0.0027077594,0.001682189,0.0,0.0043687015,-0.008745137,-0.013962206,-0.02272127,0.0027435995,-0.023921158,0.0069254776,-0.007696499,-0.004023707,-0.026110075,0.46178904,87.04701,0.10736933,0.013962206,0.32580796,0.23216856,0.15735553,0.10068484,inf,inf,inf,inf,1,1,1,1,2,0,2,2,1,1,0
53542901,16917270,49.08973400000001,2.1104799,0.148599,0.21298203,0.1878897,-0.0027077594,0.001682189,0.0,0.006092776,-0.009248454,-0.0141582405,-0.021171596,0.0027435995,-0.023921158,0.0069254776,-0.011508613,0.00048371928,-0.07935003,0.46137545,87.04701,0.10462746,0.0141582405,0.33858845,0.23254266,0.16226567,0.10106866,inf,inf,inf,inf,1,1,1,1,2,0,2,2,1,1,0
53646106,16917270,49.08973400000001,2.1104799,0.15303928,0.21336488,0.18684795,-0.0027077594,0.001682189,0.0,0.006162987,-0.0089076515,-0.014057005,-0.019856269,0.0027435995,-0.023921158,0.0069254776,-0.0073828404,0.0063093076,-0.036426876,0.46094352,87.04701,0.10495865,0.014057005,0.3267035,0.23135662,0.15777078,0.10050931,inf,inf,inf,inf,1,1,1,1,2,0,2,2,1,1,0
53750114,16917270,49.08973400000001,2.1104799,0.15658657,0.21359806,0.18757777,-0.0027077594,0.001682189,0.0,0.0065866723,-0.008514088,-0.0133626945,-0.016474517,0.0027435995,-0.023921158,0.0069254776,0.00740697,-0.0074776956,-0.004180192,0.46052152,87.04701,0.1032051,0.0133626945,0.33915174,0.23308231,0.16251382,0.101264805,inf,inf,inf,inf,1,1,1,1,2,0,2,2,1,1,0
53847678,16917270,49.08973400000001,2.1104799,0.16006753,0.21356922,0.18949248,-0.0027077594,0.001682189,0.0,0.007058598,-0.0084201805,-0.012350197,-0.012073668,0.0027435995,-0.023921158,0.0069254776,0.0020211032,0.00063537236,0.00081546884,0.46015027,87.04701,0.10825972,0.012350197,0.32665914,0.23152745,0.15781192,0.10055646,inf,inf,inf,inf,1,1,1,1,2,0,2,2,1,1,0
53951713,16917270,49.08973400000001,2.1104799,0.16309233,0.21323751,0.1918324,-0.0027077594,0.001682189,0.0,0.007318491,-0.008739103,-0.011922092,-0.008223639,0.0027435995,-0.023921158,0.0069254776,0.007904092,-0.0014123357,0.008983283,0.45974347,87.04701,0.11234328,0.011922092,0.33901376,0.23320262,0.16250992,0.101305656,inf,inf,inf,inf,1,1,1,1,2,0,2,2,1,1,0
54054899,16917270,49.08973400000001,2.1104799,0.1667747,0.21192338,0.19513774,-0.0027077594,0.001682189,0.0,0.007926818,-0.009304349,-0.01094554,-0.0034501725,0.0027435995,-0.023921158,0.0069254776,-0.022001605,-0.001875577,-0.08237723,0.45929256,87.04701,0.11246613,0.01094554,0.32750827,0.23221627,0.15820417,0.100775264,inf,inf,inf,inf,1,1,1,1,2,0,2,2,1,1,0
54156507,16917270,49.08973400000001,2.1104799,0.16959533,0.21055587,0.19971639,-0.0027077594,0.001682189,0.0,0.007259475,-0.010310883,-0.009544449,0.002371678,0.0027435995,-0.023921158,0.0069254776,-0.011510424,-0.0043743877,-0.025146633,0.45881397,87.04701,0.112991065,0.009544449,0.3399172,0.23234606,0.16291155,0.101130754,inf,inf,inf,inf,1,1,1,1,2,0,2,2,1,1,0
54250898,16917270,49.08973400000001,2.1104799,0.17280038,0.20891342,0.20503682,-0.0027077594,0.001682189,0.0,0.007587405,-0.010817506,-0.0071681826,0.0093201855,0.0027435995,-0.023921158,0.0069254776,-0.00087235885,-0.0054792548,-0.052562214,0.4583396,87.04701,0.114393055,0.0071681826,0.32704318,0.23230955,0.15801239,0.1008077,inf,inf,inf,inf,1,1,1,1,2,0,2,2,1,1,0
54354869,16917270,49.08973400000001,2.1104799,0.17575775,0.20706901,0.20827048,-0.0027077594,0.001682189,0.0,0.0077599147,-0.011629824,-0.00647771,0.01176,0.0027435995,-0.023921158,0.0069254776,-0.0068365806,-0.015474024,0.03342206,0.45765015,87.04701,0.10758807,0.00647771,0.33924,0.23383266,0.1626319,0.101519294,inf,inf,inf,inf,1,1,1,1,2,0,2,2,1,1,0
54459676,16917270,49.08973400000001,2.1104799,0.17929436,0.20545484,0.21428095,-0.0027077594,0.001682189,0.0,0.0074852733,-0.0123422295,-0.0044971528,0.01791713,0.0027435995,-0.023921158,0.0069254776,0.0005201718,-0.0025244523,-0.0020262764,0.45697048,87.04701,0.11334978,0.0044971528,0.32738617,0.23258643,0.15817182,0.10092871,inf,inf,inf,inf,1,1,1,1,2,0,2,2,1,1,0
54555670,16917270,49.08973400000001,2.1104799,0.18198416,0.20403977,0.22089046,-0.0027077594,0.001682189,0.0,0.0071983356,-0.012627771,-0.0023735266,0.024334805,0.0027435995,-0.023921158,0.0069254776,-0.020553693,0.005293296,-0.023886623,0.4565091,87.04701,0.115956515,0.0023735266,0.31543872,0.23239017,0.15355633,0.10054587,inf,inf,inf,inf,1,1,1,1,2,0,2,2,1,1,0
54659669,16917270,49.08973400000001,2.1104799,0.18603526,0.20326725,0.22698383,-0.0027077594,0.001682189,0.0,0.007879932,-0.012824579,-0.00062539184,0.028933303,0.0027435995,-0.023921158,0.0069254776,-0.0172523,0.0002742133,-0.0012875526,0.45602635,87.04701,0.10763778,0.00062539184,0.32736245,0.23401855,0.158234,0.10126013,inf,inf,inf,inf,1,1,1,1,2,0,2,2,1,1,0
54763670,16917270,49.08973400000001,2.1104799,0.18933398,0.20225014,0.23150611,-0.0027077594,0.001682189,0.0,0.008483383,-0.013188788,0.000139386,0.030549,0.0027435995,-0.023921158,0.0069254776,-0.00058382575,0.0055178907,-0.020727579,0.45561287,87.04701,0.10086146,-0.000139386,0.31620693,0.23435664,0.15389834,0.101020515,inf,inf,inf,inf,1,1,1,1,2,0,2,2,1,1,0
54867670,16917270,49.08973400000001,2.1104799,0.19322158,0.20094799,0.23526344,-0.0027077594,0.001682189,0.0,0.008918025,-0.013257374,0.0008121622,0.031217488,0.0027435995,-0.023921158,0.0069254776,0.0044375067,0.010070812,0.01700961,0.4551644,87.04701,0.105252326,-0.0008121622,0.3281764,0.23437841,0.15857829,0.101325266,inf,inf,inf,inf,1,1,1,1,2,0,2,2,1,1,0
54963696,16917270,49.08973400000001,2.1104799,0.1960424,0.19970544,0.23961852,-0.0027077594,0.001682189,0.0,0.009006259,-0.013392545,0.0022322743,0.033423502,0.0027435995,-0.023921158,0.0069254776,-0.010867457,-0.008901244,0.018917048,0.4547186,87.04701,0.10565762,-0.0022322743,0.339759,0.23540014,0.16296117,0.10184947,inf,inf,inf,inf,1,1,1,1,2,0,2,2,1,1,0
55067670,16917270,49.08973400000001,2.1104799,0.19928119,0.19849417,0.24300405,-0.0027077594,0.001682189,0.0,0.009055086,-0.014370025,0.004636114,0.03510105,0.0027435995,-0.023921158,0.0069254776,-0.0029653634,-0.018711232,-0.011164965,0.45429468,87.04701,0.100028425,-0.004636114,0.3279041,0.23418882,0.15847883,0.101240985,inf,inf,inf,inf,1,1,1,1,2,0,2,2,1,1,0
55171712,16917270,49.08973400000001,2.1104799,0.20200776,0.19701444,0.24333028,-0.0027077594,0.001682189,0.0,0.009023744,-0.0148563925,0.00425609,0.03104702,0.0027435995,-0.023921158,0.0069254776,-0.009579076,0.0008943497,0.010623397,0.45388907,87.04701,0.1,-0.00425609,0.31672615,0.23299482,0.1541407,0.1006287,inf,inf,inf,inf,1,1,1,1,2,0,2,2,1,1,0
55267670,16917270,49.08973400000001,2.1104799,0.20483686,0.19515544,0.24520025,-0.0027077594,0.001682189,0.0,0.008504136,-0.015175966,0.005055193,0.030438842,0.0027435995,-0.023921158,0.0069254776,-0.00067658414,-0.008502979,0.022777291,0.45353863,87.04701,0.101457775,-0.005055193,0.32778782,0.23404627,0.15845592,0.10118308,inf,inf,inf,inf,1,1,1,1,2,0,2,2,1,1,0
55371670,16917270,49.08973400000001,2.1104799,0.20753562,0.19331773,0.24704169,-0.0027077594,0.001682189,0.0,0.0086671,-0.015715532,0.005287325,0.028974444,0.0027435995,-0.023921158,0.0069254776,0.0044323048,-0.022235965,-0.021137794,0.45316553,87.04701,0.1,-0.005287325,0.31657758,0.232886,0.15410933,0.1005868,inf,inf,inf,inf,1,1,1,1,2,0,2,2,1,1,0
55475704,16917270,49.08973400000001,2.1104799,0.2112503,0.19216755,0.24838622,-0.0027077594,0.001682189,0.0,0.009158737,-0.015076738,0.0053060516,0.027039917,0.0027435995,-0.023921158,0.0069254776,-0.0070189927,-0.0052288696,0.0007819753,0.4528042,87.04701,0.1,-0.0053060516,0.3285861,0.23298383,0.15878926,0.10092554,inf,inf,inf,inf,1,1,1,1,2,0,2,2,1,1,0
55571669,16917270,49.08973400000001,2.1104799,0.21403581,0.19102214,0.25064707,-0.0027077594,0.001682189,0.0,0.008923909,-0.01507898,0.006164797,0.02733541,0.0027435995,-0.023921158,0.0069254776,-0.0074407323,0.008700501,0.010251323,0.452357,87.04701,0.10232493,-0.006164797,0.3162957,0.23435485,0.1540049,0.100939706,inf,inf,inf,inf,1,1,1,1,2,0,2,2,1,1,0
55678889,16917270,49.08973400000001,2.1104799,0.2176914,0.18973091,0.25435388,-0.0027077594,0.001682189,0.0,0.008650718,-0.014911538,0.006888431,0.028410219,0.0027435995,-0.023921158,0.0069254776,-0.018835649,0.0039384505,-0.033661727,0.45194376,87.04701,0.1,-0.006888431,0.32924232,0.23493357,0.15904672,0.101402044,inf,inf,inf,inf,1,1,1,1,2,0,2,2,1,1,0
55775676,16917270,49.08973400000001,2.1104799,0.2205066,0.18833451,0.25603482,-0.0027077594,0.001682189,0.0,0.008416082,-0.0155152455,0.007048594,0.027334629,0.0027435995,-0.023921158,0.0069254776,-0.0206154,-0.009392198,-0.0014836604,0.45163634,87.04701,0.1,-0.007048594,0.31679496,0.23448946,0.15420586,0.10095977,inf,inf,inf,inf,1,1,1,1,2,0,2,2,1,1,0
55879669,16917270,49.08973400000001,2.1104799,0.22466613,0.18626119,0.25670686,-0.0027077594,0.001682189,0.0,0.0086386185,-0.016199939,0.0066527794,0.024693113,0.0027435995,-0.023921158,0.0069254776,-0.0063001043,-0.009042439,-0.011610619,0.45131767,87.04701,0.1,-0.0066527794,0.3282565,0.2341046,0.15865028,0.101211734,inf,inf,inf,inf,1,1,1,1,2,0,2,2,1,1,0
55983676,16917270,49.08973400000001,2.1104799,0.22785372,0.18421325,0.25790083,-0.0027077594,0.001682189,0.0,0.008748684,-0.016565159,0.0064565884,0.022985186,0.0027435995,-0.023921158,0.0069254776,-0.004760375,-0.0036185568,0.008993808,0.45101017,87.04701,0.1,-0.0064565884,0.31721961,0.23303883,0.15439795,0.10060944,inf,inf,inf,inf,1,1,1,1,2,0,2,2,1,1,0
56079670,16917270,49.08973400000001,2.1104799,0.23008625,0.18239413,0.2563073,-0.0027077594,0.001682189,0.0,0.008120879,-0.017060576,0.0055830358,0.018352494,0.0027435995,-0.023921158,0.0069254776,-0.01454431,0.005209841,0.016440218,0.4504863,87.04701,0.1,-0.0055830358,0.32833123,0.23405258,0.15872315,0.10115185,inf,inf,inf,inf,1,1,1,1,2,0,2,2,1,1,0
56183670,16917270,49.08973400000001,2.1104799,0.23209962,0.18036446,0.25405556,-0.0027077594,0.001682189,0.0,0.0067077987,-0.017358711,0.004628051,0.01337702,0.0027435995,-0.023921158,0.0069254776,-0.008827512,-0.020902315,-0.030388186,0.4499414,87.04701,0.1,-0.004628051,0.31693295,0.23440628,0.15428557,0.10093121,inf,inf,inf,inf,1,1,1,1,2,0,2,2,1,1,0
56287670,16917270,49.08973400000001,2.1104799,0.23451272,0.1780005,0.25017342,-0.0027077594,0.001682189,0.0,0.0060124774,-0.018340766,0.0019854205,0.0058102994,0.0027435995,-0.023921158,0.0069254776,-0.011343145,-0.029584322,0.002693456,0.44944152,87.04701,0.1,-0.0019854205,0.32897967,0.23438014,0.15896772,0.1012264,inf,inf,inf,inf,1,1,1,1,2,0,2,2,1,1,0
56383672,16917270,49.08973400000001,2.1104799,0.23629406,0.17573291,0.2472063,-0.0027077594,0.001682189,0.0,0.0048937956,-0.01897576,0.00027535946,0.00097557314,0.0027435995,-0.023921158,0.0069254776,-0.009441247,-0.0025094936,-0.012739695,0.44901904,87.04701,0.1,-0.00027535946,0.31674346,0.23410094,0.15424237,0.10082477,inf,inf,inf,inf,1,1,1,1,2,0,2,2,1,1,0
56487676,16917270,49.08973400000001,2.1104799,0.23808704,0.1730283,0.24510425,-0.0027077594,0.001682189,0.0,0.0037357253,-0.019482857,-0.00021533445,-0.001333255,0.0027435995,-0.023921158,0.0069254776,0.0073290765,-0.012331721,-0.024214875,0.44866464,87.04701,0.1,0.00021533445,0.32878864,0.23410808,0.15892757,0.1011357,inf,inf,inf,inf,1,1,1,1,2,0,2,2,1,1,0
56591714,16917270,49.08973400000001,2.1104799,0.23941131,0.17030004,0.24020392,-0.0027077594,0.001682189,0.0,0.0037731412,-0.020356609,-0.0023908697,-0.007818004,0.0027435995,-0.023921158,0.0069254776,0.002777451,-0.0040181107,-0.00035733715,0.44818303,87.04701,0.1,0.0023908697,0.31749505,0.23288777,0.15456979,0.100528225,inf,inf,inf,inf,1,1,1,1,2,0,2,2,1,1,0
56687672,16917270,49.08973400000001,2.1104799,0.24038832,0.16768421,0.23276302,-0.0027077594,0.001682189,0.0,0.003335628,-0.020743456,-0.005870475,-0.01735449,0.0027435995,-0.023921158,0.0069254776,-0.008618047,-0.0135685075,-0.014412574,0.4478038,87.04701,0.1,0.005870475,0.32862777,0.23389865,0.15889238,0.10107539,inf,inf,inf,inf,1,1,1,1,2,0,2,2,1,1,0
56791670,16917270,49.08973400000001,2.1104799,0.2414303,0.16487199,0.22536668,-0.0027077594,0.001682189,0.0,0.0029072254,-0.020937217,-0.008974396,-0.02525823,0.0027435995,-0.023921158,0.0069254776,-0.006533212,-0.00837326,-0.01499816,0.4474134,87.04701,0.1,0.008974396,0.31730536,0.23271604,0.15452743,0.10048588,inf,inf,inf,inf,1,1,1,1,2,0,2,2,1,1,0
56895675,16917270,49.08973400000001,2.1104799,0.24271174,0.16196845,0.21782912,-0.0027077594,0.001682189,0.0,0.002181422,-0.021591721,-0.011975091,-0.032372076,0.0027435995,-0.023921158,0.0069254776,0.029420013,-0.01434135,-0.008552656,0.4469714,87.04701,0.1,0.011975091,0.3293928,0.23279902,0.15921883,0.10082831,inf,inf,inf,inf,1,1,1,1,2,0,2,2,1,1,0
56991669,16917270,49.08973400000001,2.1104799,0.24346901,0.15931375,0.21178472,-0.0027077594,0.001682189,0.0,0.0011194661,-0.021752845,-0.0138410535,-0.036469467,0.0027435995,-0.023921158,0.0069254776,-0.018457802,-0.02121812,-0.033506252,0.44668648,87.04701,0.1,0.0138410535,0.31715083,0.23264077,0.15449782,0.10048334,inf,inf,inf,inf,1,1,1,1,2,0,2,2,1,1,0
57095670,16917270,49.08973400000001,2.1104799,0.24383277,0.15643574,0.21020846,-0.0027077594,0.001682189,0.0,-0.00018744003,-0.022139098,-0.013633324,-0.03345477,0.0027435995,-0.023921158,0.0069254776,-0.0066033853,-0.0012700681,0.02281446,0.446322,87.04701,0.10594441,0.013633324,0.3292373,0.23277162,0.15918753,0.100845136,inf,inf,inf,inf,1,1,1,1,2,0,2,2,1,1,0
57199670,16917270,49.08973400000001,2.1104799,0.24423821,0.15389153,0.20674616,-0.0027077594,0.001682189,0.0,-0.0005296901,-0.022261685,-0.015586186,-0.034930274,0.0027435995,-0.023921158,0.0069254776,-0.01149337,0.015014563,0.010545302,0.4460611,87.04701,0.1,0.015586186,0.31804207,0.23170559,0.15489829,0.1003057,inf,inf,inf,inf,1,1,1,1,2,0,2,2,1,1,0
57303670,16917270,49.08973400000001,2.1104799,0.24468267,0.15162463,0.20105314,-0.0027077594,0.001682189,0.0,-0.001620585,-0.022296712,-0.01728391,-0.038142692,0.0027435995,-0.023921158,0.0069254776,-0.010239518,-0.0014859635,-0.012421783,0.44569346,87.04701,0.1,0.01728391,0.33018237,0.23187949,0.15959105,0.10068147,inf,inf,inf,inf,1,1,1,1,2,0,2,2,1,1,0
57399697,16917270,49.08973400000001,2.1104799,0.24503858,0.14874075,0.19961935,-0.0027077594,0.001682189,0.0,-0.0027832564,-0.02285926,-0.016421283,-0.034635454,0.0027435995,-0.023921158,0.0069254776,-0.008457463,-0.0052322024,0.013804667,0.44533068,87.04701,0.11076954,0.016421283,0.31787202,0.23179664,0.15485017,0.100366615,inf,inf,inf,inf,1,1,1,1,2,0,2,2,1,1,0
57503670,16917270,49.08973400000001,2.1104799,0.24545911,0.14476475,0.20056413,-0.0027077594,0.001682189,0.0,-0.0032406356,-0.02365957,-0.015706558,-0.029069094,0.0027435995,-0.023921158,0.0069254776,0.0028557072,-0.01094998,0.0063112974,0.44491506,87.04701,0.110611275,0.015706558,0.3300101,0.23201042,0.1595392,0.10075628,inf,inf,inf,inf,1,1,1,1,2,0,2,2,1,1,0
57607674,16917270,49.08973400000001,2.1104799,0.24596977,0.14095102,0.20181559,-0.0027077594,0.001682189,0.0,-0.0037344333,-0.024736816,-0.014153251,-0.02308902,0.0027435995,-0.023921158,0.0069254776,-0.011177927,-0.01869961,0.010449069,0.44446796,87.04701,0.1119989,0.014153251,0.3185337,0.23102179,0.15509504,0.100237,inf,inf,inf,inf,1,1,1,1,2,0,2,2,1,1,0
57703670,16917270,49.08973400000001,2.1104799,0.2465693,0.13745522,0.20225269,-0.0027077594,0.001682189,0.0,-0.004749211,-0.025558777,-0.0126607595,-0.018940141,0.0027435995,-0.023921158,0.0069254776,-0.019441022,-0.0035056735,0.006434444,0.44419622,87.04701,0.11055347,0.0126607595,0.3297442,0.2306369,0.15942286,0.100446835,inf,inf,inf,inf,1,1,1,1,2,0,2,2,1,1,0
57807669,16917270,49.08973400000001,2.1104799,0.24756336,0.13394241,0.20423318,-0.0027077594,0.001682189,0.0,-0.0052859783,-0.026464533,-0.011507416,-0.013938407,0.0027435995,-0.023921158,0.0069254776,0.0035935498,-0.015802514,-0.018398803,0.4438752,87.04701,0.1118141,0.011507416,0.31836691,0.23121864,0.1550474,0.10032989,inf,inf,inf,inf,1,1,1,1,2,0,2,2,1,1,0
57911670,16917270,49.08973400000001,2.1104799,0.24886878,0.13069655,0.20805593,-0.0027077594,0.001682189,0.0,-0.0055396603,-0.025797984,-0.01112087,-0.008449895,0.0027435995,-0.023921158,0.0069254776,-0.01587826,0.016328398,0.014812622,0.4436817,87.04701,0.11408354,0.01112087,0.3305374,0.23147653,0.15974045,0.10072992,inf,inf,inf,inf,1,1,1,1,2,0,2,2,1,1,0
58007670,16917270,49.08973400000001,2.1104799,0.24969228,0.12805526,0.2109911,-0.0027077594,0.001682189,0.0,-0.006185604,-0.025061334,-0.00954809,-0.003429922,0.0027435995,-0.023921158,0.0069254776,-0.01675751,0.005009266,0.013672101,0.44353807,87.04701,0.10710882,0.00954809,0.31823036,0.23142554,0.15501301,0.10041945,inf,inf,inf,inf,1,1,1,1,2,0,2,2,1,1,0
58111691,16917270,49.08973400000001,2.1104799,0.25019047,0.12550367,0.2120798,-0.0027077594,0.001682189,0.0,-0.0068269745,-0.024687925,-0.008968696,-0.0016958931,0.0027435995,-0.023921158,0.0069254776,-0.023405733,-0.026634088,0.0015177662,0.4433988,87.04701,0.10476273,0.008968696,0.33039975,0.2331787,0.1597084,0.10118313,inf,inf,inf,inf,1,1,1,1,2,0,2,2,1,1,0
58215693,16917270,49.08973400000001,2.1104799,0.25062177,0.122936755,0.2123741,-0.0027077594,0.001682189,0.0,-0.007456943,-0.024369862,-0.009203219,-0.0016716501,0.0027435995,-0.023921158,0.0069254776,0.006190185,-0.012258248,-0.0017749622,0.44335192,87.04701,0.10178505,0.009203219,0.31880647,0.2336353,0.15520886,0.100996695,inf,inf,inf,inf,1,1,1,1,2,0,2,2,1,1,0
58311673,16917270,49.08973400000001,2.1104799,0.25114048,0.12048487,0.21184087,-0.0027077594,0.001682189,0.0,-0.008180689,-0.024559826,-0.009129929,-0.0021711236,0.0027435995,-0.023921158,0.0069254776,-0.026054863,-0.00382239,-0.037360955,0.44326812,87.04701,0.1,0.009129929,0.33004332,0.2331041,0.15953968,0.101138756,inf,inf,inf,inf,1,1,1,1,2,0,2,2,1,1,0
58415710,16917270,49.08973400000001,2.1104799,0.25164527,0.1182094,0.21038437,-0.0027077594,0.001682189,0.0,-0.008791659,-0.024582747,-0.00921512,-0.0036640854,0.0027435995,-0.023921158,0.0069254776,-0.005900456,-0.0025159286,0.0031135795,0.44318306,87.04701,0.1,0.00921512,0.31868085,0.23354524,0.15519029,0.10095277,inf,inf,inf,inf,1,1,1,1,2,0,2,2,1,1,0
58519669,16917270,49.08973400000001,2.1104799,0.2520163,0.11615391,0.2094923,-0.0027077594,0.001682189,0.0,-0.00898933,-0.02454301,-0.009515318,-0.004586843,0.0027435995,-0.023921158,0.0069254776,-0.0059161945,-0.0111197,-0.0011951058,0.4429378,87.04701,0.10238513,0.009515318,0.3308774,0.23522407,0.15988445,0.101680286,inf,inf,inf,inf,1,1,1,1,2,0,2,2,1,1,0
58615676,16917270,49.08973400000001,2.1104799,0.252939,0.11444399,0.20778464,-0.0027077594,0.001682189,0.0,-0.009323821,-0.023860153,-0.010341602,-0.00673713,0.0027435995,-0.023921158,0.0069254776,-0.009219152,-0.008795417,-0.013836192,0.44257185,87.04701,0.1,0.010341602,0.31857702,0.23497018,0.15517369,0.101281434,inf,inf,inf,inf,1,1,1,1,2,0,2,2,1,1,0
58719710,16917270,49.08973400000001,2.1104799,0.25395086,0.11268017,0.20814659,-0.0027077594,0.001682189,0.0,-0.01012141,-0.02372362,-0.010135934,-0.005547548,0.0027435995,-0.023921158,0.0069254776,0.005566648,-0.01684177,-0.018845346,0.44225794,87.04701,0.1066889,0.010135934,0.33077866,0.23495032,0.15987048,0.10156231,inf,inf,inf,inf,1,1,1,1,2,0,2,2,1,1,0
58823719,16917270,49.08973400000001,2.1104799,0.25578323,0.11095202,0.21161035,-0.0027077594,0.001682189,0.0,-0.010028075,-0.022990014,-0.008106178,0.0003522361,0.0027435995,-0.023921158,0.0069254776,-0.008221344,-0.0037689693,0.031852003,0.4417738,87.04701,0.11156061,0.008106178,0.31941512,0.23527604,0.15552214,0.101329975,inf,inf,inf,inf,1,1,1,1,2,0,2,2,1,1,0
58927708,16917270,49.08973400000001,2.1104799,0.25760597,0.109235756,0.21728331,-0.0027077594,0.001682189,0.0,-0.009180279,-0.022607718,-0.0059275767,0.007835935,0.0027435995,-0.023921158,0.0069254776,-0.0010763679,-0.019389698,-0.014929146,0.44133785,87.04701,0.11582887,0.0059275767,0.33165923,0.23527092,0.1602175,0.101621196,inf,inf,inf,inf,1,1,1,1,2,0,2,2,1,1,0
59023670,16917270,49.08973400000001,2.1104799,0.25887638,0.10896497,0.22149254,-0.0027077594,0.001682189,0.0,-0.009291397,-0.021413228,-0.005143015,0.0117923105,0.0027435995,-0.023921158,0.0069254776,-0.014288013,-0.0076341727,-0.016033713,0.44091743,87.04701,0.112278685,0.005143015,0.31917483,0.23496322,0.15541974,0.10120593,inf,inf,inf,inf,1,1,1,1,2,0,2,2,1,1,0
59127669,16917270,49.08973400000001,2.1104799,0.25971645,0.109298594,0.22529912,-0.0027077594,0.001682189,0.0,-0.009915752,-0.01987743,-0.005032064,0.014143105,0.0027435995,-0.023921158,0.0069254776,-0.016752478,-0.009706104,-0.011830551,0.44056246,87.04701,0.10920271,0.005032064,0.33141142,0.2348991,0.16011664,0.101474755,inf,inf,inf,inf,1,1,1,1,2,0,2,2,1,1,0
59231669,16917270,49.08973400000001,2.1104799,0.2612245,0.10949167,0.22847883,-0.0027077594,0.001682189,0.0,-0.010386465,-0.017916031,-0.005572825,0.014982897,0.0027435995,-0.023921158,0.0069254776,-0.020921899,-0.0030430623,0.0064201374,0.4402935,87.04701,0.10698946,0.005572825,0.32000518,0.23522186,0.15577038,0.101250835,inf,inf,inf,inf,1,1,1,1,2,0,2,2,1,1,0
59327701,16917270,49.08973400000001,2.1104799,0.26232952,0.10945929,0.23112631,-0.0027077594,0.001682189,0.0,-0.010860154,-0.01634108,-0.0052303155,0.016172247,0.0027435995,-0.023921158,0.0069254776,-0.011180066,0.0017072908,-0.0001146476,0.4401072,87.04701,0.10113338,0.0052303155,0.3313267,0.23458287,0.16011333,0.101360925,inf,inf,inf,inf,1,1,1,1,2,0,2,2,1,1,0
59431708,16917270,49.08973400000001,2.1104799,0.2640844,0.10844293,0.23014311,-0.0027077594,0.001682189,0.0,-0.010904235,-0.015196869,-0.0057844403,0.012782063,0.0027435995,-0.023921158,0.0069254776,-0.025646238,0.006406496,0.025652349,0.43996435,87.04701,0.10210569,0.0057844403,0.31993434,0.23334247,0.15576631,0.100751474,inf,inf,inf,inf,1,1,1,1,2,0,2,2,1,1,0
59535676,16917270,49.08973400000001,2.1104799,0.26545835,0.10710338,0.23247133,-0.0027077594,0.001682189,0.0,-0.011028757,-0.014411393,-0.005241016,0.014088417,0.0027435995,-0.023921158,0.0069254776,-0.016406432,0.003914551,-0.0126716215,0.43983236,87.04701,0.10533802,0.005241016,0.3322196,0.23497781,0.16046816,0.10147246,inf,inf,inf,inf,1,1,1,1,2,0,2,2,1,1,0
59631669,16917270,49.08973400000001,2.1104799,0.26667482,0.10599564,0.23389566,-0.0027077594,0.001682189,0.0,-0.010566175,-0.013791688,-0.004919422,0.014341027,0.0027435995,-0.023921158,0.0069254776,-0.024154468,-0.009126534,-0.0038866817,0.43976492,87.04701,0.10416871,0.004919422,0.3198224,0.2347325,0.15574028,0.101095505,inf,inf,inf,inf,1,1,1,1,2,0,2,2,1,1,0
59735670,16917270,49.08973400000001,2.1104799,0.26743177,0.104826234,0.23524755,-0.0027077594,0.001682189,0.0,-0.011638365,-0.01308022,-0.005456443,0.013540316,0.0027435995,-0.023921158,0.0069254776,-0.018365435,0.0009680827,-0.0026263928,0.439587,87.04701,0.1,0.005456443,0.3321081,0.23471813,0.16044386,0.10139126,inf,inf,inf,inf,1,1,1,1,2,0,2,2,1,1,0
59839670,16917270,49.08973400000001,2.1104799,0.2682083,0.10175547,0.2356312,-0.0027077594,0.001682189,0.0,-0.012145082,-0.013159955,-0.0045816265,0.013270539,0.0027435995,-0.023921158,0.0069254776,-0.027821708,0.002968168,0.017809125,0.43931785,87.04701,0.1,0.0045816265,0.32076925,0.2350791,0.15615003,0.101193964,inf,inf,inf,inf,1,1,1,1,2,0,2,2,1,1,0
59935675,16917270,49.08973400000001,2.1104799,0.26836276,0.0990142,0.23709235,-0.0027077594,0.001682189,0.0,-0.013049264,-0.013142716,-0.0034209532,0.014471304,0.0027435995,-0.023921158,0.0069254776,-0.013560966,0.007223243,0.021940783,0.4391121,87.04701,0.1042164,0.0034209532,0.33214438,0.2360489,0.16049427,0.10171513,inf,inf,inf,inf,1,1,1,1,2,0,2,2,1,1,0
60039677,16917270,49.08973400000001,2.1104799,0.2681621,0.09742027,0.2394867,-0.0027077594,0.001682189,0.0,-0.013976947,-0.012376236,-0.0024503786,0.016050275,0.0027435995,-0.023921158,0.0069254776,-0.009993756,0.018054636,-0.0063682324,0.43883002,87.04701,0.10256514,0.0024503786,0.32063073,0.23472773,0.15610562,0.10108009,inf,inf,inf,inf,1,1,1,1,2,0,2,2,1,1,0
60143670,16917270,49.08973400000001,2.1104799,0.2674714,0.09619551,0.24109124,-0.0027077594,0.001682189,0.0,-0.014768052,-0.01207592,-0.0018653432,0.016331783,0.0027435995,-0.023921158,0.0069254776,-0.0015218054,-0.011200104,-0.011537286,0.43857217,87.04701,0.10065864,0.0018653432,0.33296826,0.2363001,0.1608088,0.10177615,inf,inf,inf,inf,1,1,1,1,2,0,2,2,1,1,0
60239682,16917270,49.08973400000001,2.1104799,0.26748535,0.095172934,0.24205601,-0.0027077594,0.001682189,0.0,-0.015412222,-0.010625746,-0.0013346488,0.016062345,0.0027435995,-0.023921158,0.0069254776,-0.016275374,0.0064654173,0.007863202,0.4382878,87.04701,0.10111627,0.0013346488,0.32051176,0.23593372,0.15606554,0.10135452,inf,inf,inf,inf,1,1,1,1,2,0,2,2,1,1,0
60343670,16917270,49.08973400000001,2.1104799,0.2671064,0.09418626,0.24271247,-0.0027077594,0.001682189,0.0,-0.016283914,-0.009931006,-0.0013664602,0.014848911,0.0027435995,-0.023921158,0.0069254776,-0.017592093,0.0057174917,-0.011089781,0.4380218,87.04701,0.1,0.0013664602,0.33284777,0.23584652,0.16077095,0.10162771,inf,inf,inf,inf,1,1,1,1,2,0,2,2,1,1,0
60447713,16917270,49.08973400000001,2.1104799,0.2639044,0.091569655,0.24301887,-0.0027077594,0.001682189,0.0,-0.018749777,-0.009937833,-0.0019768707,0.012923465,0.0027435995,-0.023921158,0.0069254776,-0.005725443,-0.0030057882,0.004462809,0.43782246,87.04701,0.1,0.0019768707,0.32176834,0.23454627,0.15653794,0.1010109,inf,inf,inf,inf,1,1,1,1,2,0,2,2,1,1,0
60551671,16917270,49.08973400000001,2.1104799,0.2605269,0.08925812,0.24011943,-0.0027077594,0.001682189,0.0,-0.02105849,-0.009841387,-0.0036115926,0.0071266685,0.0027435995,-0.023921158,0.0069254776,-0.02119332,0.0029195321,-0.0061044185,0.43773723,87.04701,0.1,0.0036115926,0.33416742,0.23612161,0.1612472,0.10171279,inf,inf,inf,inf,1,1,1,1,2,0,2,2,1,1,0
60655670,16917270,49.08973400000001,2.1104799,0.2579157,0.08726784,0.23646922,-0.0027077594,0.001682189,0.0,-0.023442628,-0.009774638,-0.0051675453,0.0014247264,0.0027435995,-0.023921158,0.0069254776,-0.0114657,0.005037579,-0.0027985636,0.43774438,87.04701,0.1,0.0051675453,0.3236347,0.23476644,0.15711516,0.10107277,inf,inf,inf,inf,1,1,1,1,2,0,2,2,1,1,0
60751676,16917270,49.08973400000001,2.1104799,0.25535005,0.085676774,0.23571979,-0.0027077594,0.001682189,0.0,-0.025058806,-0.00971125,-0.0042055743,0.0015974481,0.0027435995,-0.023921158,0.0069254776,-0.007318148,0.0013382395,0.0013479695,0.43766218,87.04701,0.10007323,0.0042055743,0.33513108,0.23569615,0.16146967,0.10158515,inf,inf,inf,inf,1,1,1,1,2,0,2,2,1,1,0
60855669,16917270,49.08973400000001,2.1104799,0.25427333,0.08364897,0.23535405,-0.0027077594,0.001682189,0.0,-0.025931256,-0.009104548,-0.0052939984,7.6789e-05,0.0027435995,-0.023921158,0.0069254776,-0.013561052,0.012210678,-0.010575377,0.43745923,87.04701,0.1,0.0052939984,0.3248295,0.23440482,0.15737474,0.1009753,inf,inf,inf,inf,1,1,1,1,2,0,2,2,1,1,0
60959677,16917270,49.08973400000001,2.1104799,0.25276592,0.08192574,0.23305963,-0.0027077594,0.001682189,0.0,-0.026677182,-0.008690506,-0.00635234,-0.0030862791,0.0027435995,-0.023921158,0.0069254776,-0.01317716,0.012448412,0.013296431,0.4372085,87.04701,0.1,0.00635234,0.33734846,0.23439357,0.1620917,0.10128251,inf,inf,inf,inf,1,1,1,1,2,0,2,2,1,1,0
61055670,16917270,49.08973400000001,2.1104799,0.2520574,0.08027389,0.23265873,-0.0027077594,0.001682189,0.0,-0.027069602,-0.008355228,-0.0055708727,-0.0023284296,0.0027435995,-0.023921158,0.0069254776,-0.019273076,0.02069246,0.002394367,0.43701667,87.04701,0.1,0.0055708727,0.32582003,0.23417038,0.15755643,0.10093293,inf,inf,inf,inf,1,1,1,1,2,0,2,2,1,1,0
61159669,16917270,49.08973400000001,2.1104799,0.25065953,0.07874719,0.23106395,-0.0027077594,0.001682189,0.0,-0.028104948,-0.008087312,-0.0053620413,-0.0033839839,0.0027435995,-0.023921158,0.0069254776,-0.014048306,0.0056753354,0.013611799,0.43668708,87.04701,0.1,0.0053620413,0.33836487,0.23420879,0.1622732,0.10126069,inf,inf,inf,inf,1,1,1,1,2,0,2,2,1,1,0
61263670,16917270,49.08973400000001,2.1104799,0.24853337,0.07831332,0.22729667,-0.0027077594,0.001682189,0.0,-0.02862708,-0.0073951436,-0.006211424,-0.0074297595,0.0027435995,-0.023921158,0.0069254776,0.0037972168,0.013848745,0.03407109,0.43643537,87.04701,0.1,0.006211424,0.32751912,0.233037,0.15801392,0.100699656,inf,inf,inf,inf,1,1,1,1,2,0,2,2,1,1,0
61359670,16917270,49.08973400000001,2.1104799,0.24625778,0.07790629,0.22373095,-0.0027077594,0.001682189,0.0,-0.02959817,-0.0067284405,-0.006739921,-0.010627873,0.0027435995,-0.023921158,0.0069254776,-0.0062979213,0.0022289618,0.009293883,0.43614677,87.04701,0.1,0.006739921,0.33913377,0.23408495,0.16237149,0.10126241,inf,inf,inf,inf,1,1,1,1,2,0,2,2,1,1,0
61463677,16917270,49.08973400000001,2.1104799,0.2446709,0.07760405,0.22137819,-0.0027077594,0.001682189,0.0,-0.030086536,-0.0058728326,-0.0069888346,-0.011921279,0.0027435995,-0.023921158,0.0069254776,-0.018786766,0.012948253,0.0183379,0.43581134,87.04701,0.1,0.0069888346,0.32811818,0.23296216,0.15806848,0.10071865,inf,inf,inf,inf,1,1,1,1,2,0,2,2,1,1,0
61567670,16917270,49.08973400000001,2.1104799,0.24267328,0.077312045,0.22049129,-0.0027077594,0.001682189,0.0,-0.030680446,-0.0051689497,-0.007474085,-0.0118502835,0.0027435995,-0.023921158,0.0069254776,-0.0060239215,0.0046465877,-0.0069552152,0.43547964,87.04701,0.10262635,0.007474085,0.31744596,0.23184092,0.15378006,0.10016124,inf,inf,inf,inf,1,1,1,1,2,0,2,2,1,1,0
61671676,16917270,49.08973400000001,2.1104799,0.24109916,0.0772324,0.22053213,-0.0027077594,0.001682189,0.0,-0.030833459,-0.0039405264,-0.0068708425,-0.009867603,0.0027435995,-0.023921158,0.0069254776,-0.023703026,0.0052232496,0.006804785,0.4351685,87.04701,0.10249983,0.0068708425,0.3295118,0.23352008,0.15843777,0.10092158,inf,inf,inf,inf,1,1,1,1,2,0,2,2,1,1,0
61767670,16917270,49.08973400000001,2.1104799,0.23929514,0.077373765,0.22002485,-0.0027077594,0.001682189,0.0,-0.031479824,-0.0030566999,-0.0065938826,-0.009081365,0.0027435995,-0.023921158,0.0069254776,-0.018334517,-0.009061294,-0.005395859,0.4349284,87.04701,0.1,0.0065938826,0.3178303,0.23331048,0.15381886,0.1005589,inf,inf,inf,inf,1,1,1,1,2,0,2,2,1,1,0
61872470,16917270,49.08973400000001,2.1104799,0.23738565,0.078577965,0.21823485,-0.0027077594,0.001682189,0.0,-0.031873405,-0.00130016,-0.0076317727,-0.01080027,0.0027435995,-0.023921158,0.0069254776,-0.024473036,0.015094425,-0.0028333908,0.43467098,87.04701,0.1,0.0076317727,0.32989895,0.23335148,0.15847649,0.10089389,inf,inf,inf,inf,1,1,1,1,2,0,2,2,1,1,0
61975670,16917270,49.08973400000001,2.1104799,0.2350835,0.079398654,0.21545576,-0.0027077594,0.001682189,0.0,-0.032303587,-0.00048532413,-0.008835767,-0.013420314,0.0027435995,-0.023921158,0.0069254776,-0.027650347,-0.0049016266,0.013658893,0.43439338,87.04701,0.100716606,0.008835767,0.31879526,0.2336984,0.15405379,0.1006805,inf,inf,inf,inf,1,1,1,1,2,0,2,2,1,1,0
62079678,16917270,49.08973400000001,2.1104799,0.23241653,0.07856766,0.21398777,-0.0027077594,0.001682189,0.0,-0.032854386,-0.0005806113,-0.009328808,-0.013807023,0.0027435995,-0.023921158,0.0069254776,-0.010895616,-0.0062248264,0.0064304825,0.43407136,87.04701,0.1,0.009328808,0.33089283,0.2336982,0.15871702,0.10099797,inf,inf,inf,inf,1,1,1,1,2,0,2,2,1,1,0
62175676,16917270,49.08973400000001,2.1104799,0.22966608,0.07785291,0.21181333,-0.0027077594,0.001682189,0.0,-0.034026243,-0.00013303448,-0.01000908,-0.015146342,0.0027435995,-0.023921158,0.0069254776,-0.025934458,0.016706211,0.022950191,0.43372524,87.04701,0.10120112,0.01000908,0.3187771,0.23344387,0.15393943,0.10061138,inf,inf,inf,inf,1,1,1,1,2,0,2,2,1,1,0
62279670,16917270,49.08973400000001,2.1104799,0.22660774,0.075983256,0.2123634,-0.0027077594,0.001682189,0.0,-0.034583665,5.8105194e-05,-0.008835338,-0.011812931,0.0027435995,-0.023921158,0.0069254776,-0.016059376,-0.0054833665,-0.011389374,0.43338785,87.04701,0.10574074,0.008835338,0.33085445,0.2334856,0.15859729,0.100946166,inf,inf,inf,inf,1,1,1,1,2,0,2,2,1,1,0
62383676,16917270,49.08973400000001,2.1104799,0.2237981,0.07478387,0.21282125,-0.0027077594,0.001682189,0.0,-0.035012696,-5.6550343e-05,-0.008552659,-0.009808642,0.0027435995,-0.023921158,0.0069254776,-0.011839008,-0.02044734,0.0017385392,0.43308392,87.04701,0.103174746,0.008552659,0.3196596,0.23231389,0.15423004,0.10036486,inf,inf,inf,inf,1,1,1,1,2,0,2,2,1,1,0
62479686,16917270,49.08973400000001,2.1104799,0.22226967,0.0745348,0.2145656,-0.0027077594,0.001682189,0.0,-0.035297874,0.00018924798,-0.007113034,-0.0057268664,0.0027435995,-0.023921158,0.0069254776,-0.024949348,0.016231716,-0.016796025,0.43281403,87.04701,0.1105462,0.007113034,0.33082333,0.23337185,0.15853292,0.100936346,inf,inf,inf,inf,1,1,1,1,2,0,2,2,1,1,0
62583689,16917270,49.08973400000001,2.1104799,0.21996759,0.07411721,0.21901801,-0.0027077594,0.001682189,0.0,-0.035639353,0.00016046496,-0.005957036,0.0003154913,0.0027435995,-0.023921158,0.0069254776,-0.010638311,-0.006977535,-0.02065613,0.43257493,87.04701,0.11567375,0.005957036,0.31946826,0.2322387,0.15410003,0.10036743,inf,inf,inf,inf,1,1,1,1,2,0,2,2,1,1,0
62687709,16917270,49.08973400000001,2.1104799,0.21691865,0.07255554,0.22517453,-0.0027077594,0.001682189,0.0,-0.036505263,0.00010381921,-0.0039756764,0.008069639,0.0027435995,-0.023921158,0.0069254776,-0.0068614823,0.004904128,-0.021998003,0.43232796,87.04701,0.112334386,0.0039756764,0.3315569,0.23235835,0.15875848,0.10072957,inf,inf,inf,inf,1,1,1,1,2,0,2,2,1,1,0
62791708,16917270,49.08973400000001,2.1104799,0.214013,0.071055606,0.23139787,-0.0027077594,0.001682189,0.0,-0.03686738,0.00036208826,-0.0011148269,0.015804486,0.0027435995,-0.023921158,0.0069254776,0.00069133163,0.009794673,0.013877861,0.43206328,87.04701,0.11670533,0.0011148269,0.32020074,0.23126811,0.15438853,0.10017885,inf,inf,inf,inf,1,1,1,1,2,0,2,2,1,1,0
62895670,16917270,49.08973400000001,2.1104799,0.21166267,0.0692531,0.23703627,-0.0027077594,0.001682189,0.0,-0.037195113,0.0004765392,0.00043058133,0.020791639,0.0027435995,-0.023921158,0.0069254776,-0.016786082,-0.0148370145,-0.014514314,0.43178385,87.04701,0.107638076,-0.00043058133,0.33232272,0.23297513,0.15905195,0.10094188,inf,inf,inf,inf,1,1,1,1,2,0,2,2,1,1,0
62991714,16917270,49.08973400000001,2.1104799,0.20928375,0.067412354,0.23961368,-0.0027077594,0.001682189,0.0,-0.037979547,0.00061714527,0.0011762652,0.02171179,0.0027435995,-0.023921158,0.0069254776,-0.024933793,0.008216928,0.02786003,0.43147984,87.04701,0.104219735,-0.0011762652,0.31999302,0.23283382,0.15432574,0.10060204,inf,inf,inf,inf,1,1,1,1,2,0,2,2,1,1,0
63095676,16917270,49.08973400000001,2.1104799,0.2067122,0.064790525,0.24270652,-0.0027077594,0.001682189,0.0,-0.03843394,0.00082804204,0.00180669,0.02270432,0.0027435995,-0.023921158,0.0069254776,-0.030324982,0.009089801,6.845144e-05,0.43126363,87.04701,0.102354184,-0.00180669,0.33210257,0.23293373,0.15898943,0.10094901,inf,inf,inf,inf,1,1,1,1,2,0,2,2,1,1,0
63199695,16917270,49.08973400000001,2.1104799,0.20350982,0.06202406,0.24292603,-0.0027077594,0.001682189,0.0,-0.039771065,0.000107492815,0.0006472963,0.019090062,0.0027435995,-0.023921158,0.0069254776,-0.011962508,0.012579956,0.008429686,0.43107775,87.04701,0.1,-0.0006472963,0.32062018,0.23334223,0.15461165,0.100759424,inf,inf,inf,inf,1,1,1,1,2,0,2,2,1,1,0
63295711,16917270,49.08973400000001,2.1104799,0.20003936,0.05898238,0.24065426,-0.0027077594,0.001682189,0.0,-0.040952977,-6.265545e-05,-0.000983856,0.013174012,0.0027435995,-0.023921158,0.0069254776,-0.0072896937,-0.00061823014,-0.037175033,0.43085137,87.04701,0.1,0.000983856,0.33180258,0.23434262,0.15892,0.10129757,inf,inf,inf,inf,1,1,1,1,2,0,2,2,1,1,0
63399673,16917270,49.08973400000001,2.1104799,0.19686726,0.05613918,0.2361383,-0.0027077594,0.001682189,0.0,-0.04138849,-0.0008094821,-0.0031743804,0.005220799,0.0027435995,-0.023921158,0.0069254776,-0.02933142,0.0015487408,-0.013413337,0.43052557,87.04701,0.1,0.0031743804,0.32019946,0.23311372,0.15448369,0.10068332,inf,inf,inf,inf,1,1,1,1,2,0,2,2,1,1,0
63503705,16917270,49.08973400000001,2.1104799,0.19500247,0.053294867,0.23392236,-0.0027077594,0.001682189,0.0,-0.04124859,-0.0013255678,-0.002753409,0.002928634,0.0027435995,-0.023921158,0.0069254776,-0.025480654,0.008183245,-0.00090111984,0.43030939,87.04701,0.1,0.002753409,0.33232304,0.23317422,0.15915856,0.10101169,inf,inf,inf,inf,1,1,1,1,2,0,2,2,1,1,0
63599676,16917270,49.08973400000001,2.1104799,0.19378869,0.050710037,0.23166975,-0.0027077594,0.001682189,0.0,-0.040847987,-0.0013416051,-0.003700968,-0.0003936228,0.0027435995,-0.023921158,0.0069254776,-0.009546842,0.02252373,0.01935788,0.43008214,87.04701,0.1,0.003700968,0.3200065,0.23297645,0.15450855,0.10065205,inf,inf,inf,inf,1,1,1,1,2,0,2,2,1,1,0
63703669,16917270,49.08973400000001,2.1104799,0.19279213,0.048115913,0.23087586,-0.0027077594,0.001682189,0.0,-0.040487316,-0.0010238505,-0.003622936,-0.0009322328,0.0027435995,-0.023921158,0.0069254776,0.0024268525,-0.0062797596,0.02177052,0.42997393,87.04701,0.1,0.003622936,0.3321242,0.23306857,0.15917385,0.10099406,inf,inf,inf,inf,1,1,1,1,2,0,2,2,1,1,0
63807676,16917270,49.08973400000001,2.1104799,0.19150127,0.046008665,0.22964185,-0.0027077594,0.001682189,0.0,-0.039593443,-0.0010661582,-0.002983408,-0.0013776114,0.0027435995,-0.023921158,0.0069254776,-0.01586136,0.01950576,0.008572578,0.4298842,87.04701,0.1,0.002983408,0.32054037,0.2319514,0.1547983,0.100428805,inf,inf,inf,inf,1,1,1,1,2,0,2,2,1,1,0
63911670,16917270,49.08973400000001,2.1104799,0.18998753,0.044292312,0.22824499,-0.0027077594,0.001682189,0.0,-0.039197065,-0.00090722734,-0.0031047608,-0.0025768802,0.0027435995,-0.023921158,0.0069254776,-0.003435374,0.01853983,0.0075756544,0.4297437,87.04701,0.102211714,0.0031047608,0.33269176,0.23208255,0.15946959,0.10078346,inf,inf,inf,inf,1,1,1,1,2,0,2,2,1,1,0
64015676,16917270,49.08973400000001,2.1104799,0.18797314,0.04251967,0.22898598,-0.0027077594,0.001682189,0.0,-0.039125316,-0.00059662573,-0.001921684,-0.000374997,0.0027435995,-0.023921158,0.0069254776,-0.014805121,0.011459422,0.0133022,0.42952612,87.04701,0.10243486,0.001921684,0.3210768,0.23257515,0.15509422,0.10063256,inf,inf,inf,inf,1,1,1,1,2,0,2,2,1,1,0
64111670,16917270,49.08973400000001,2.1104799,0.18566215,0.040957414,0.22884476,-0.0027077594,0.001682189,0.0,-0.039710842,-0.0009862831,-0.0017530884,-0.00026190624,0.0027435995,-0.023921158,0.0069254776,-0.019693486,0.012772384,0.018866668,0.42943656,87.04701,0.1,0.0017530884,0.33230475,0.23367296,0.1594087,0.10120664,inf,inf,inf,inf,1,1,1,1,2,0,2,2,1,1,0
64215695,16917270,49.08973400000001,2.1104799,0.1832102,0.03959669,0.22870661,-0.0027077594,0.001682189,0.0,-0.039680958,-0.00043166737,-0.0012401977,0.00014566208,0.0027435995,-0.023921158,0.0069254776,-0.007874167,-0.006661925,0.022160279,0.4293489,87.04701,0.1,0.0012401977,0.32042357,0.23250923,0.15489155,0.100613564,inf,inf,inf,inf,1,1,1,1,2,0,2,2,1,1,0
64319669,16917270,49.08973400000001,2.1104799,0.18108927,0.0384346,0.2277039,-0.0027077594,0.001682189,0.0,-0.03930041,-0.00014771243,-0.003120388,-0.0025942523,0.0027435995,-0.023921158,0.0069254776,-0.008541242,0.015934536,-0.009964283,0.42934445,87.04701,0.1,0.003120388,0.33258238,0.23261008,0.15956692,0.10095127,inf,inf,inf,inf,1,1,1,1,2,0,2,2,1,1,0
64415670,16917270,49.08973400000001,2.1104799,0.17982504,0.037495907,0.22628981,-0.0027077594,0.001682189,0.0,-0.038296588,0.0006402394,-0.0036567494,-0.0041656597,0.0027435995,-0.023921158,0.0069254776,-0.0046097795,0.00911285,-0.010278114,0.42925993,87.04701,0.1,0.0036567494,0.32014245,0.23246242,0.1549243,0.10061005,inf,inf,inf,inf,1,1,1,1,2,0,2,2,1,1,0
64519676,16917270,49.08973400000001,2.1104799,0.17831303,0.036790054,0.22628534,-0.0027077594,0.001682189,0.0,-0.03826394,0.0014462608,-0.0043390733,-0.0042495173,0.0027435995,-0.023921158,0.0069254776,-0.008931631,0.008381407,-0.033887178,0.42913088,87.04701,0.10457489,0.0043390733,0.3323043,0.23258473,0.15960631,0.100955546,inf,inf,inf,inf,1,1,1,1,2,0,2,2,1,1,0
64623669,16917270,49.08973400000001,2.1104799,0.17755349,0.03546786,0.22858424,-0.0027077594,0.001682189,0.0,-0.037017588,0.00229931,-0.0022407793,0.0005338906,0.0027435995,-0.023921158,0.0069254776,0.00030667105,-0.003977939,-0.0010136669,0.42901742,87.04701,0.10360305,0.0022407793,0.32066154,0.23151064,0.15524666,0.10040484,inf,inf,inf,inf,1,1,1,1,2,0,2,2,1,1,0
64719669,16917270,49.08973400000001,2.1104799,0.17684537,0.03421517,0.22920899,-0.0027077594,0.001682189,0.0,-0.036344267,0.002658334,-0.0015261321,0.0017859928,0.0027435995,-0.023921158,0.0069254776,-0.0033982443,0.013861568,0.012472921,0.42899278,87.04701,0.1,0.0015261321,0.3319028,0.23262604,0.159566,0.100982875,inf,inf,inf,inf,1,1,1,1,2,0,2,2,1,1,0
64823670,16917270,49.08973400000001,2.1104799,0.17652589,0.03247521,0.22866781,-0.0027077594,0.001682189,0.0,-0.035374537,0.002946894,-0.0012890941,0.001236978,0.0027435995,-0.023921158,0.0069254776,0.00064046204,0.0041661137,0.009886857,0.42889348,87.04701,0.1,0.0012890941,0.32027557,0.23156705,0.15520383,0.100436345,inf,inf,inf,inf,1,1,1,1,2,0,2,2,1,1,0
64927670,16917270,49.08973400000001,2.1104799,0.17598729,0.030929644,0.22712013,-0.0027077594,0.001682189,0.0,-0.034235954,0.0039011936,-0.0025060473,-0.0015566951,0.0027435995,-0.023921158,0.0069254776,-0.004044566,0.010647149,-0.029193299,0.42882437,87.04701,0.1,0.0025060473,0.3324708,0.23174685,0.159886,0.1008004,inf,inf,inf,inf,1,1,1,1,2,0,2,2,1,1,0
65031670,16917270,49.08973400000001,2.1104799,0.17527986,0.029883932,0.22539899,-0.0027077594,0.001682189,0.0,-0.034283854,0.003748896,-0.0038841546,-0.004335949,0.0027435995,-0.023921158,0.0069254776,-0.0037061162,-0.0002605739,0.013621461,0.42879152,87.04701,0.1,0.0038841546,0.32076523,0.2322849,0.15551445,0.10066412,inf,inf,inf,inf,1,1,1,1,2,0,2,2,1,1,0
65127670,16917270,49.08973400000001,2.1104799,0.17412874,0.029315937,0.22313598,-0.0027077594,0.001682189,0.0,-0.03383435,0.004162644,-0.0046760323,-0.006828693,0.0027435995,-0.023921158,0.0069254776,0.0004262484,0.0069984263,-0.012398805,0.42879042,87.04701,0.1,0.0046760323,0.33203584,0.23339371,0.15984279,0.10123385,inf,inf,inf,inf,1,1,1,1,2,0,2,2,1,1,0
65231669,16917270,49.08973400000001,2.1104799,0.17240171,0.028540801,0.22120464,-0.0027077594,0.001682189,0.0,-0.034414247,0.00405302,-0.0051394245,-0.0082691,0.0027435995,-0.023921158,0.0069254776,-0.028924244,0.017266821,0.005934797,0.4288615,87.04701,0.10326642,0.0051394245,0.32023805,0.23228009,0.15540805,0.10065827,inf,inf,inf,inf,1,1,1,1,2,0,2,2,1,1,0
65335670,16917270,49.08973400000001,2.1104799,0.1701249,0.027910948,0.22143023,-0.0027077594,0.001682189,0.0,-0.034894306,0.004293265,-0.004831894,-0.0067613563,0.0027435995,-0.023921158,0.0069254776,-0.028184496,0.013172524,0.003499661,0.4288286,87.04701,0.10358973,0.004831894,0.33245713,0.23396945,0.16009335,0.10139145,inf,inf,inf,inf,1,1,1,1,2,0,2,2,1,1,0
65430070,16917270,49.08973400000001,2.1104799,0.16840523,0.02699456,0.22075753,-0.0027077594,0.001682189,0.0,-0.034529075,0.004787452,-0.0053579826,-0.007242945,0.0027435995,-0.023921158,0.0069254776,-0.003874483,0.005950178,0.0050880304,0.42875075,87.04701,0.1,0.0053579826,0.3197332,0.23375946,0.15530892,0.10101291,inf,inf,inf,inf,1,1,1,1,2,0,2,2,1,1,0
65531669,16917270,49.08973400000001,2.1104799,0.16640604,0.026162544,0.21750921,-0.0027077594,0.001682189,0.0,-0.03462086,0.0049893805,-0.006423099,-0.010633232,0.0027435995,-0.023921158,0.0069254776,-0.009395117,-0.009314197,-0.0061058137,0.42858943,87.04701,0.1,0.006423099,0.3319436,0.23383169,0.15999572,0.101329476,inf,inf,inf,inf,1,1,1,1,2,0,2,2,1,1,0
65635699,16917270,49.08973400000001,2.1104799,0.16407646,0.025198642,0.21496056,-0.0027077594,0.001682189,0.0,-0.034735676,0.005142002,-0.0071228314,-0.012497754,0.0027435995,-0.023921158,0.0069254776,-0.005495449,-0.0046297787,-0.0062762895,0.4284767,87.04701,0.10114415,0.0071228314,0.3198812,0.23237818,0.15546162,0.10070957,inf,inf,inf,inf,1,1,1,1,2,0,2,2,1,1,0
65739670,16917270,49.08973400000001,2.1104799,0.16137931,0.024580278,0.21288784,-0.0027077594,0.001682189,0.0,-0.03463527,0.005172183,-0.008847075,-0.014760293,0.0027435995,-0.023921158,0.0069254776,-0.0019089113,0.014758442,-0.019040953,0.42835227,87.04701,0.1,0.008847075,0.33211553,0.234075,0.16015036,0.10144492,inf,inf,inf,inf,1,1,1,1,2,0,2,2,1,1,0
65843670,16917270,49.08973400000001,2.1104799,0.1589425,0.024772478,0.21022741,-0.0027077594,0.001682189,0.0,-0.035059363,0.0064496626,-0.009623474,-0.016426785,0.0027435995,-0.023921158,0.0069254776,-0.013222735,0.008120593,0.021963315,0.42824736,87.04701,0.1,0.009623474,0.32054934,0.23294783,0.15584658,0.10087062,inf,inf,inf,inf,1,1,1,1,2,0,2,2,1,1,0
65939711,16917270,49.08973400000001,2.1104799,0.15638797,0.025293794,0.20977359,-0.0027077594,0.001682189,0.0,-0.034924358,0.0071287015,-0.009095413,-0.014617129,0.0027435995,-0.023921158,0.0069254776,-0.0105642015,0.011486038,0.0053655594,0.4281423,87.04701,0.10607009,0.009095413,0.33187076,0.2324689,0.1601841,0.10103112,inf,inf,inf,inf,1,1,1,1,2,0,2,2,1,1,0
66043676,16917270,49.08973400000001,2.1104799,0.1547845,0.025926087,0.21114297,-0.0027077594,0.001682189,0.0,-0.034435213,0.0076926937,-0.009016605,-0.011583307,0.0027435995,-0.023921158,0.0069254776,-0.0011718309,0.010498738,-0.02085169,0.4280423,87.04701,0.104787424,0.009016605,0.32023466,0.23294286,0.1558104,0.100865446,inf,inf,inf,inf,1,1,1,1,2,0,2,2,1,1,0
66147670,16917270,49.08973400000001,2.1104799,0.15296426,0.026710669,0.2102994,-0.0027077594,0.001682189,0.0,-0.034334373,0.008621879,-0.00971907,-0.011863213,0.0027435995,-0.023921158,0.0069254776,-0.006047406,-0.0016829092,-0.035828546,0.42789117,87.04701,0.10175547,0.00971907,0.332518,0.23461486,0.16050325,0.1015878,inf,inf,inf,inf,1,1,1,1,2,0,2,2,1,1,0
66243669,16917270,49.08973400000001,2.1104799,0.15144491,0.026891077,0.20939907,-0.0027077594,0.001682189,0.0,-0.03427182,0.008706958,-0.0108504975,-0.012751007,0.0027435995,-0.023921158,0.0069254776,-0.0022731759,0.008436494,-0.025188472,0.42773962,87.04701,0.1,0.0108504975,0.3198564,0.2328316,0.15571436,0.10081306,inf,inf,inf,inf,1,1,1,1,2,0,2,2,1,1,0
66347670,16917270,49.08973400000001,2.1104799,0.14942423,0.027155563,0.20538074,-0.0027077594,0.001682189,0.0,-0.034216207,0.009622818,-0.012034094,-0.016423699,0.0027435995,-0.023921158,0.0069254776,-0.0023056509,0.009863361,-0.013790155,0.42762172,87.04701,0.10112104,0.012034094,0.33213118,0.2329359,0.16041136,0.101140514,inf,inf,inf,inf,1,1,1,1,2,0,2,2,1,1,0
66451669,16917270,49.08973400000001,2.1104799,0.14716704,0.027427802,0.20197293,-0.0027077594,0.001682189,0.0,-0.034234952,0.010417631,-0.013281581,-0.019234255,0.0027435995,-0.023921158,0.0069254776,-0.0017042912,0.010213306,0.0061256494,0.42750114,87.04701,0.1,0.013281581,0.3204053,0.23340599,0.15598804,0.10097238,inf,inf,inf,inf,1,1,1,1,2,0,2,2,1,1,0
66547676,16917270,49.08973400000001,2.1104799,0.14475134,0.027901808,0.19775075,-0.0027077594,0.001682189,0.0,-0.034106098,0.0109693585,-0.014937808,-0.022979846,0.0027435995,-0.023921158,0.0069254776,-0.005170398,0.00978056,-0.009275525,0.42737556,87.04701,0.1,0.014937808,0.33175027,0.23447292,0.16031837,0.10152014,inf,inf,inf,inf,1,1,1,1,2,0,2,2,1,1,0
66651670,16917270,49.08973400000001,2.1104799,0.14402875,0.028672982,0.19467874,-0.0027077594,0.001682189,0.0,-0.033289794,0.011815207,-0.015996447,-0.024395932,0.0027435995,-0.023921158,0.0069254776,-0.023579068,-0.0020868634,-0.010441728,0.42710987,87.04701,0.10363336,0.015996447,0.32020563,0.23328067,0.1559786,0.100918666,inf,inf,inf,inf,1,1,1,1,2,0,2,2,1,1,0
66755676,16917270,49.08973400000001,2.1104799,0.14288257,0.029719105,0.19134074,-0.0027077594,0.001682189,0.0,-0.032815587,0.013146105,-0.016571168,-0.025511881,0.0027435995,-0.023921158,0.0069254776,-0.011004266,0.004336674,-0.00277533,0.42683178,87.04701,0.10172242,0.016571168,0.33251968,0.23492433,0.16067573,0.10162956,inf,inf,inf,inf,1,1,1,1,2,0,2,2,1,1,0
66851670,16917270,49.08973400000001,2.1104799,0.14251497,0.031079821,0.18777172,-0.0027077594,0.001682189,0.0,-0.031917524,0.014015855,-0.017578231,-0.027401289,0.0027435995,-0.023921158,0.0069254776,-0.0067110504,-0.00018239883,0.0052304086,0.42669773,87.04701,0.1,0.017578231,0.31992513,0.23464836,0.15590383,0.10122804,inf,inf,inf,inf,1,1,1,1,2,0,2,2,1,1,0
66955681,16917270,49.08973400000001,2.1104799,0.14158726,0.032748453,0.18415609,-0.0027077594,0.001682189,0.0,-0.031238656,0.015049487,-0.019298073,-0.02950708,0.0027435995,-0.023921158,0.0069254776,-0.015381093,0.0044544353,-0.0009237162,0.42663977,87.04701,0.1,0.019298073,0.33223528,0.23463422,0.16059928,0.101509824,inf,inf,inf,inf,1,1,1,1,2,0,2,2,1,1,0
67059669,16917270,49.08973400000001,2.1104799,0.14277443,0.03411306,0.1832991,-0.0027077594,0.001682189,0.0,-0.029691368,0.016292833,-0.019666003,-0.027369106,0.0027435995,-0.023921158,0.0069254776,-0.008418699,0.0021648926,-0.019826632,0.42667285,87.04701,0.11430231,0.019666003,0.32079372,0.2334124,0.15632495,0.100906305,inf,inf,inf,inf,1,1,1,1,2,0,2,2,1,1,0
67155669,16917270,49.08973400000001,2.1104799,0.14286079,0.03562921,0.18381426,-0.0027077594,0.001682189,0.0,-0.02876242,0.018172644,-0.018557921,-0.023027454,0.0027435995,-0.023921158,0.0069254776,-0.02358793,0.046500716,0.017729547,0.42671168,87.04701,0.10966915,0.018557921,0.33218965,0.23443754,0.16066268,0.101441205,inf,inf,inf,inf,1,1,1,1,2,0,2,2,1,1,0
67259670,16917270,49.08973400000001,2.1104799,0.14423713,0.037578207,0.18564834,-0.0027077594,0.001682189,0.0,-0.027608663,0.019283446,-0.017840875,-0.018109126,0.0027435995,-0.023921158,0.0069254776,-0.009670364,0.01655609,0.0112940855,0.4267053,87.04701,0.114243165,0.017840875,0.32064474,0.2332692,0.15631256,0.10085914,inf,inf,inf,inf,1,1,1,1,2,0,2,2,1,1,0
67363669,16917270,49.08973400000001,2.1104799,0.14465837,0.03969785,0.18646853,-0.0027077594,0.001682189,0.0,-0.026693426,0.020898964,-0.01757219,-0.015293601,0.0027435995,-0.023921158,0.0069254776,2.9345463e-05,0.0024786096,-0.0077267257,0.42681208,87.04701,0.10282917,0.01757219,0.30974045,0.23213005,0.1520801,0.10027806,inf,inf,inf,inf,1,1,1,1,2,0,2,2,1,1,0
67467676,16917270,49.08973400000001,2.1104799,0.14484654,0.0416967,0.18245219,-0.0027077594,0.001682189,0.0,-0.025656063,0.022143707,-0.019824127,-0.019890957,0.0027435995,-0.023921158,0.0069254776,-0.014732646,0.014824584,-0.031665396,0.4267505,87.04701,0.1,0.019824127,0.32157305,0.23225498,0.156723,0.1006343,inf,inf,inf,inf,1,1,1,1,2,0,2,2,1,1,0
