timestamp,error_count,device_id,x,y,z,integral_dt,x_integral,y_integral,z_integral,temperature,scaling,x_raw,y_raw,z_raw
50802870,0,1442850,0.1980187,0.5779767,-9.601565,4752,0.00092933397,0.0027284306,-0.045601517,41.001797,0.0047884034,-15,-116,-2080
50905275,0,1442850,0.19155857,0.5581239,-9.57588,4005,0.0007546053,0.0022186262,-0.03833556,40.995808,0.0047884034,-11,-113,-2077
51006915,0,1442850,0.17704432,0.56618017,-9.595016,4045,0.00073279795,0.0023240575,-0.03875829,40.983826,0.0047884034,-9,-116,-2078
51106892,0,1442850,0.20055361,0.57221943,-9.58127,4784,0.0009313741,0.002735323,-0.045791574,40.96286,0.0047884034,-11,-114,-2076
51207670,0,1442850,0.17644185,0.5566373,-9.590491,4000,0.00070182385,0.002257828,-0.038350306,40.96286,0.0047884034,-11,-116,-2082
51310932,0,1442850,0.19618052,0.5801448,-9.5776825,4845,0.0010075547,0.0028092798,-0.046476282,40.98083,0.0047884034,-17,-118,-2078
51411678,0,1442850,0.19027485,0.5729579,-9.57607,4008,0.00070901006,0.0022067488,-0.038318776,40.998802,0.0047884034,-10,-111,-2075
51512489,0,1442850,0.18334849,0.5683831,-9.573946,3219,0.0005797509,0.0018315716,-0.030886892,40.971848,0.0047884034,-8,-111,-2083
51614887,0,1442850,0.1882723,0.5681754,-9.57097,4011,0.0006999869,0.0023024343,-0.038406327,41.019768,0.0047884034,-11,-117,-2077
51714106,0,1442850,0.18322,0.57610166,-9.577994,3236,0.00059847225,0.0018802378,-0.03106149,40.98682,0.0047884034,-12,-119,-2083
51818105,0,1442850,0.18346928,0.5685128,-9.578136,3990,0.0007227972,0.002301508,-0.038322844,41.001797,0.0047884034,-9,-114,-2087
51918922,0,1442850,0.19329351,0.5718646,-9.582267,4035,0.00081065006,0.0022909644,-0.03855546,40.959866,0.0047884034,-15,-113,-2072
52022107,0,1442850,0.19122602,0.57855546,-9.582426,3237,0.00060269656,0.0018727634,-0.031049812,40.998802,0.0047884034,-12,-117,-2082
52122870,0,1442850,0.19804883,0.57677007,-9.58261,4000,0.000817482,0.002290535,-0.038295217,40.995808,0.0047884034,-13,-113,-2081
52224487,0,1442850,0.19289124,0.5792656,-9.58788,4017,0.0007761809,0.0023098302,-0.038488615,40.995808,0.0047884034,-15,-116,-2078
52323677,0,1442850,0.19671434,0.57184666,-9.563461,4007,0.00078382366,0.0023097359,-0.038311098,41.00479,0.0047884034,-13,-115,-2079
52427670,0,1442850,0.19062813,0.56858265,-9.564978,4000,0.000751921,0.002278999,-0.038287234,41.00779,0.0047884034,-11,-114,-2081
52526903,0,1442850,0.18416241,0.55724657,-9.582712,4028,0.000761018,0.0022836728,-0.038611338,41.010784,0.0047884034,-14,-116,-2082
52630876,0,1442850,0.18597154,0.5665965,-9.589831,4006,0.0006740298,0.002224857,-0.03844591,41.01378,0.0047884034,-9,-113,-2083
52734870,0,1442850,0.19817075,0.5658757,-9.565389,4000,0.0007363994,0.0022330289,-0.03824791,41.001797,0.0047884034,-10,-111,-2077
52835670,0,1442850,0.19138892,0.55952585,-9.560883,4000,0.00078823394,0.0022425945,-0.038335156,41.01378,0.0047884034,-12,-115,-2080
52938115,0,1442850,0.18711828,0.57760566,-9.578676,3245,0.00066824694,0.0019318059,-0.031101614,41.001797,0.0047884034,-14,-118,-2081
53039674,0,1442850,0.19476482,0.5679273,-9.588542,3998,0.00079169276,0.0022777987,-0.038175575,41.022762,0.0047884034,-13,-114,-2069
53139715,0,1442850,0.19893019,0.56006736,-9.575755,4039,0.0008170029,0.0022859706,-0.038672887,41.058704,0.0047884034,-13,-115,-2081
53241288,0,1442850,0.19147861,0.57159513,-9.595863,3218,0.0005911586,0.0018465046,-0.03085835,40.98083,0.0047884034,-10,-116,-2080
53342870,0,1442850,0.19978896,0.57466215,-9.585472,4000,0.00079760735,0.0022501324,-0.038265996,41.019768,0.0047884034,-16,-113,-2071
53443670,0,1442850,0.18504648,0.56769323,-9.604947,3956,0.0007799838,0.0022841727,-0.037999894,41.01378,0.0047884034,-12,-117,-2085
53546869,0,1442850,0.18561365,0.57124925,-9.6000185,3968,0.00070011977,0.0022930335,-0.03811145,41.02576,0.0047884034,-10,-116,-2083
53646106,0,1442850,0.19212362,0.576573,-9.574088,3236,0.0006140298,0.001876029,-0.030998029,41.022762,0.0047884034,-11,-117,-2083
53750114,0,1442850,0.18796483,0.5638529,-9.578176,3996,0.00078903243,0.0022424757,-0.038316343,41.028755,0.0047884034,-11,-114,-2083
53850913,0,1442850,0.19357988,0.57202363,-9.591217,3235,0.0006429987,0.0018678517,-0.03099252,41.02576,0.0047884034,-14,-116,-2079
53951713,0,1442850,0.19678994,0.5701119,-9.589606,4796,0.0009646821,0.0027210282,-0.046050772,41.04373,0.0047884034,-14,-113,-2085
54054899,0,1442850,0.18016793,0.5737135,-9.592989,3229,0.0005642874,0.0018797617,-0.031076739,41.058704,0.0047884034,-11,-116,-2091
54156507,0,1442850,0.18157558,0.5669402,-9.583184,3230,0.00058964867,0.0018495163,-0.030940665,41.04373,0.0047884034,-13,-115,-2077
54255670,0,1442850,0.1912407,0.5652698,-9.583684,4772,0.00089863245,0.0027115494,-0.045822162,41.00779,0.0047884034,-12,-113,-2084
54358903,0,1442850,0.17970915,0.5621961,-9.5845,4034,0.0007542793,0.0022771268,-0.038733855,41.03175,0.0047884034,-11,-115,-2085
54459676,0,1442850,0.19693455,0.5743361,-9.575907,3962,0.0007709941,0.0022536505,-0.037961293,41.01378,0.0047884034,-13,-114,-2081
54559718,0,1442850,0.17878254,0.5802234,-9.610088,4048,0.00072748243,0.002370052,-0.038877167,41.00779,0.0047884034,-9,-116,-2080
54663702,0,1442850,0.1831527,0.57238704,-9.585373,4033,0.0007248577,0.0023515723,-0.038617108,41.034744,0.0047884034,-8,-115,-2080
54763670,0,1442850,0.18423262,0.5709151,-9.593228,4000,0.0007939117,0.0023132986,-0.03841111,41.028755,0.0047884034,-16,-118,-2083
54867670,0,1442850,0.19817226,0.5736182,-9.573349,4000,0.0008170812,0.0023114502,-0.038261335,41.046726,0.0047884034,-14,-117,-2075
54967670,0,1442850,0.18701786,0.5682537,-9.569158,3974,0.0006934914,0.0022298065,-0.03796553,41.061703,0.0047884034,-9,-114,-2074
55067670,0,1442850,0.18649852,0.5526281,-9.5838,3945,0.00073380186,0.0021951483,-0.037843022,41.022762,0.0047884034,-12,-113,-2078
55171712,0,1442850,0.19637734,0.5729096,-9.571105,4042,0.0007632892,0.002327821,-0.03869824,41.028755,0.0047884034,-11,-114,-2086
55271677,0,1442850,0.19522905,0.56869966,-9.566776,4007,0.00071081147,0.0022790614,-0.03825777,41.028755,0.0047884034,-10,-115,-2075
55371670,0,1442850,0.1924258,0.5555806,-9.581435,4001,0.00076729927,0.002204888,-0.038432013,41.058704,0.0047884034,-15,-111,-2086
55475704,0,1442850,0.19374596,0.57942516,-9.596092,4034,0.0007620689,0.0023000722,-0.03866268,41.028755,0.0047884034,-13,-112,-2077
55575715,0,1442850,0.19415574,0.5730438,-9.579663,4046,0.0007524046,0.0022857198,-0.038743526,41.02576,0.0047884034,-10,-113,-2080
55678889,0,1442850,0.1775623,0.5715037,-9.5939245,3219,0.00058550073,0.0018760157,-0.030835249,41.019768,0.0047884034,-11,-117,-2080
55779701,0,1442850,0.17930362,0.5691851,-9.577849,4025,0.0007217247,0.0022585313,-0.03858815,41.070686,0.0047884034,-11,-112,-2082
55879669,0,1442850,0.18964261,0.5590395,-9.581957,3993,0.000750375,0.0022577273,-0.038309537,41.03774,0.0047884034,-13,-114,-2086
55983676,0,1442850,0.20014137,0.5667697,-9.583147,3995,0.0007642398,0.0022703535,-0.038245596,41.028755,0.0047884034,-11,-117,-2078
56083676,0,1442850,0.18926618,0.57027185,-9.562533,4006,0.0007663383,0.002326496,-0.038273104,41.040733,0.0047884034,-13,-116,-2073
56183670,0,1442850,0.17249388,0.5718945,-9.605921,4000,0.00072680996,0.0022271534,-0.038454387,41.061703,0.0047884034,-10,-112,-2088
56287670,0,1442850,0.18293592,0.55476636,-9.586083,3981,0.00069648924,0.0021823829,-0.03813763,41.07368,0.0047884034,-10,-109,-2076
56387690,0,1442850,0.18399797,0.5743459,-9.584223,4018,0.00072247774,0.0022489629,-0.038534105,41.061703,0.0047884034,-11,-113,-2080
56491708,0,1442850,0.19611196,0.56120265,-9.584598,4032,0.0007964341,0.002181483,-0.038685843,41.088657,0.0047884034,-14,-108,-2081
56591714,0,1442850,0.18850607,0.5712866,-9.590913,4038,0.00080357795,0.0022812441,-0.038697112,41.091652,0.0047884034,-16,-113,-2076
56691670,0,1442850,0.18837997,0.57094806,-9.586318,3998,0.0007857223,0.0022551282,-0.03837295,41.061703,0.0047884034,-15,-112,-2083
56795676,0,1442850,0.18877627,0.5676119,-9.584469,4006,0.0007316164,0.002320563,-0.03838744,41.04972,0.0047884034,-12,-117,-2077
56895675,0,1442850,0.20218131,0.55756557,-9.58846,3958,0.00086753047,0.0021525833,-0.037951455,41.046726,0.0047884034,-17,-109,-2082
56995679,0,1442850,0.17551926,0.57034487,-9.600482,4010,0.0007994243,0.0022979614,-0.038509324,41.085663,0.0047884034,-17,-116,-2080
57099670,0,1442850,0.18339342,0.5739215,-9.57109,4000,0.00076893996,0.0023360983,-0.03838227,41.070686,0.0047884034,-15,-117,-2084
57199670,0,1442850,0.19360997,0.57179815,-9.597635,4000,0.00077679195,0.0023478926,-0.03827659,41.07368,0.0047884034,-13,-117,-2076
57303670,0,1442850,0.18474744,0.5759345,-9.584854,3985,0.00075275183,0.0022837562,-0.03822537,41.070686,0.0047884034,-12,-113,-2080
57403670,0,1442850,0.19227965,0.5681688,-9.577069,3973,0.0007391986,0.0022465237,-0.038042717,41.064697,0.0047884034,-12,-113,-2080
57503670,0,1442850,0.18956892,0.556306,-9.582524,3992,0.0007847098,0.0022266596,-0.03822606,41.064697,0.0047884034,-14,-113,-2082
57607674,0,1442850,0.17733039,0.57750714,-9.566259,4004,0.0007236742,0.0022276097,-0.03832982,41.11262,0.0047884034,-9,-110,-2080
57707670,0,1442850,0.1813129,0.5730472,-9.581408,4000,0.0007094743,0.002263646,-0.03833515,41.08267,0.0047884034,-11,-113,-2080
57807669,0,1442850,0.19287963,0.5525049,-9.589754,3993,0.00078106776,0.002209971,-0.038338207,41.08267,0.0047884034,-14,-113,-2085
57911670,0,1442850,0.1965196,0.5763776,-9.599798,4000,0.0007651171,0.0023554424,-0.03826706,41.091652,0.0047884034,-14,-118,-2075
58011677,0,1442850,0.18701951,0.57844305,-9.571438,4007,0.00076652155,0.0023270256,-0.03831865,41.079674,0.0047884034,-12,-118,-2076
58115670,0,1442850,0.17711818,0.556954,-9.581219,3979,0.00067911594,0.0022080145,-0.0381869,41.08267,0.0047884034,-9,-112,-2086
58215693,0,1442850,0.19025142,0.55844074,-9.596327,4023,0.0008043753,0.0022265872,-0.038564995,41.091652,0.0047884034,-15,-111,-2079
58315670,0,1442850,0.17426838,0.5837497,-9.609763,3997,0.00075691735,0.0022788977,-0.038355872,41.091652,0.0047884034,-13,-117,-2081
58419670,0,1442850,0.19240913,0.56577873,-9.593859,3960,0.00075568457,0.0022144557,-0.037989467,41.07368,0.0047884034,-13,-111,-2084
58519669,0,1442850,0.18703693,0.5611141,-9.589598,3993,0.00075976044,0.0022309748,-0.0382697,41.085663,0.0047884034,-15,-111,-2083
58619670,0,1442850,0.18975618,0.56960905,-9.576618,3994,0.00071226776,0.0022334699,-0.038245447,41.1246,0.0047884034,-9,-112,-2076
58723676,0,1442850,0.1949769,0.55303717,-9.594082,3966,0.0008046607,0.002225649,-0.038063552,41.085663,0.0047884034,-15,-114,-2082
58823719,0,1442850,0.17479436,0.57188284,-9.563922,4050,0.0007688411,0.0022803098,-0.03869168,41.11262,0.0047884034,-13,-112,-2076
58927708,0,1442850,0.18857254,0.5489064,-9.589848,4038,0.00076683064,0.0022138427,-0.038770087,41.076675,0.0047884034,-13,-110,-2085
59027674,0,1442850,0.18074426,0.5628232,-9.59974,4004,0.00075826654,0.0022659008,-0.038337406,41.088657,0.0047884034,-12,-114,-2078
59127669,0,1442850,0.17330213,0.55840105,-9.583171,3994,0.0007179264,0.0022466131,-0.038325194,41.085663,0.0047884034,-12,-116,-2083
59231669,0,1442850,0.18439135,0.5762613,-9.585416,3999,0.0007150385,0.002272809,-0.038298793,41.103634,0.0047884034,-11,-114,-2081
59331670,0,1442850,0.19503222,0.57211244,-9.593247,3969,0.0007248331,0.0022630466,-0.038038358,41.08267,0.0047884034,-11,-113,-2083
59431708,0,1442850,0.18836997,0.5759372,-9.574789,4038,0.00071629917,0.0023294906,-0.038597982,41.127594,0.0047884034,-10,-115,-2073
59535676,0,1442850,0.18147232,0.5713997,-9.58824,4006,0.00074332964,0.0022955083,-0.03844201,41.079674,0.0047884034,-9,-115,-2086
59635670,0,1442850,0.18141724,0.56894916,-9.573809,4001,0.0007268516,0.0023023495,-0.03837522,41.109623,0.0047884034,-10,-117,-2081
59739670,0,1442850,0.18049473,0.5684205,-9.584025,4000,0.0007632862,0.0023057468,-0.03833332,41.097645,0.0047884034,-12,-115,-2079
59839670,0,1442850,0.17926782,0.5679046,-9.585693,3955,0.00068439636,0.0022723963,-0.037823446,41.11262,0.0047884034,-10,-116,-2079
59939670,0,1442850,0.1913612,0.572066,-9.56405,3995,0.0007968596,0.0022991628,-0.03821343,41.088657,0.0047884034,-16,-116,-2078
60043670,0,1442850,0.192304,0.58067924,-9.590241,3993,0.0007619106,0.0023035654,-0.038139164,41.145565,0.0047884034,-13,-113,-2072
60143670,0,1442850,0.19007324,0.56216383,-9.577441,4000,0.0007671353,0.0022081586,-0.03838442,41.1246,0.0047884034,-12,-110,-2089
60243670,0,1442850,0.19014333,0.57604736,-9.5804405,3988,0.00076105003,0.0022739857,-0.03822398,41.157547,0.0047884034,-13,-114,-2080
60347670,0,1442850,0.18100958,0.56802446,-9.583768,4000,0.0007709125,0.0023038958,-0.038286157,41.097645,0.0047884034,-13,-114,-2074
60447713,0,1442850,0.1924313,0.57140774,-9.592313,4043,0.0007735058,0.0022609632,-0.03873591,41.11861,0.0047884034,-13,-113,-2080
60551671,0,1442850,0.18954556,0.5619574,-9.591477,4001,0.0007212745,0.0022851843,-0.038365487,41.139576,0.0047884034,-11,-115,-2083
60655670,0,1442850,0.18061298,0.5747419,-9.584426,3981,0.00075588294,0.0022642692,-0.03815707,41.127594,0.0047884034,-12,-113,-2083
60755673,0,1442850,0.19248928,0.56726027,-9.5716915,3997,0.0007857431,0.0023019845,-0.038293146,41.11861,0.0047884034,-13,-118,-2084
60859669,0,1442850,0.184754,0.5696149,-9.58607,4000,0.00075175776,0.0023722996,-0.03840003,41.094646,0.0047884034,-12,-120,-2082
60959677,0,1442850,0.18212987,0.57331747,-9.584329,4008,0.00076684623,0.0023024576,-0.038354497,41.127594,0.0047884034,-12,-114,-2082
61059685,0,1442850,0.18963061,0.5808739,-9.570702,4015,0.0007218035,0.002281722,-0.038417973,41.154552,0.0047884034,-9,-114,-2078
61163669,0,1442850,0.18125868,0.568361,-9.581991,4000,0.0006941951,0.0022559413,-0.038356014,41.10663,0.0047884034,-9,-114,-2082
61263670,0,1442850,0.18283091,0.5743091,-9.555274,3956,0.0008160183,0.0022405488,-0.03776513,41.109623,0.0047884034,-16,-115,-2078
61363683,0,1442850,0.18008187,0.5622694,-9.574922,4013,0.0007176793,0.0022978354,-0.038446352,41.133587,0.0047884034,-8,-114,-2080
61467670,0,1442850,0.19049174,0.57211965,-9.567493,3993,0.00076764124,0.0022446031,-0.038239665,41.121605,0.0047884034,-13,-112,-2081
61567670,0,1442850,0.18865956,0.564345,-9.588793,3994,0.00077548914,0.0022524912,-0.03830244,41.13658,0.0047884034,-12,-114,-2081
61671676,0,1442850,0.19566542,0.5793493,-9.575356,4006,0.0007125337,0.0022900153,-0.038364194,41.1246,0.0047884034,-10,-114,-2081
61771670,0,1442850,0.18701361,0.5587857,-9.5683155,4000,0.00074983796,0.0022175424,-0.038304992,41.109623,0.0047884034,-12,-114,-2076
61872470,0,1442850,0.17516133,0.5767492,-9.577569,3956,0.0007148066,0.0022991356,-0.037901144,41.13658,0.0047884034,-8,-116,-2082
61975670,0,1442850,0.18336548,0.5709051,-9.56891,4001,0.0006770616,0.0022546507,-0.038289696,41.157547,0.0047884034,-9,-112,-2082
62079678,0,1442850,0.18501848,0.57223547,-9.564629,4008,0.0007380493,0.002227956,-0.038386993,41.139576,0.0047884034,-9,-111,-2081
62179670,0,1442850,0.18616752,0.57955766,-9.569729,3994,0.00071979343,0.002235541,-0.03817336,41.115616,0.0047884034,-13,-110,-2077
62283670,0,1442850,0.18827334,0.5654301,-9.603818,4000,0.00075564533,0.0022559864,-0.038297318,41.157547,0.0047884034,-11,-114,-2076
62383676,0,1442850,0.18270093,0.56046087,-9.590169,4006,0.0007105923,0.002178698,-0.03839101,41.148563,0.0047884034,-10,-111,-2077
62483676,0,1442850,0.18397541,0.58415765,-9.591451,3990,0.0007767747,0.0023266082,-0.03834149,41.151558,0.0047884034,-13,-115,-2086
62587692,0,1442850,0.1863516,0.5536442,-9.592993,4003,0.0007565019,0.0022406848,-0.038392395,41.133587,0.0047884034,-13,-113,-2084
62687709,0,1442850,0.18566303,0.57197434,-9.589199,4039,0.0007825929,0.0022855976,-0.038806796,41.148563,0.0047884034,-15,-112,-2088
62791708,0,1442850,0.19454755,0.5632303,-9.575295,4039,0.0008133145,0.0022816088,-0.03866356,41.133587,0.0047884034,-16,-113,-2082
62895670,0,1442850,0.1859471,0.5630349,-9.5875435,3967,0.00069589785,0.0021862278,-0.038079247,41.145565,0.0047884034,-9,-110,-2081
62995670,0,1442850,0.17818134,0.5708824,-9.5550375,3956,0.00071884785,0.0022672368,-0.037946038,41.148563,0.0047884034,-9,-116,-2087
63099681,0,1442850,0.18226391,0.5743353,-9.57827,4005,0.0007393573,0.00227607,-0.03827084,41.13658,0.0047884034,-13,-115,-2072
63199695,0,1442850,0.18546133,0.57145333,-9.579046,4019,0.00076689303,0.002305114,-0.038486857,41.151558,0.0047884034,-13,-115,-2082
63299670,0,1442850,0.19120419,0.570247,-9.619378,3959,0.00079568994,0.0022423696,-0.038095925,41.148563,0.0047884034,-17,-113,-2088
63403670,0,1442850,0.18296924,0.5722699,-9.595349,3997,0.0007224259,0.0023100073,-0.03838042,41.166534,0.0047884034,-11,-114,-2084
63503705,0,1442850,0.17856891,0.5724256,-9.56758,4036,0.0007101664,0.002324469,-0.03868977,41.16953,0.0047884034,-10,-114,-2084
63603707,0,1442850,0.19087654,0.5730905,-9.568044,4031,0.00076924905,0.0023388623,-0.03851954,41.172523,0.0047884034,-14,-115,-2076
63707669,0,1442850,0.18894817,0.5523165,-9.579573,4000,0.00077484327,0.0022041984,-0.03837266,41.184505,0.0047884034,-12,-113,-2084
63807676,0,1442850,0.19342516,0.56319386,-9.569683,4006,0.0007510568,0.0023303558,-0.03835661,41.178513,0.0047884034,-11,-116,-2078
63911670,0,1442850,0.19161119,0.58104914,-9.579192,3994,0.00079277926,0.0023003072,-0.03824547,41.172523,0.0047884034,-15,-114,-2081
64015676,0,1442850,0.18450205,0.5862215,-9.575373,3998,0.0007398679,0.002295122,-0.03826289,41.175518,0.0047884034,-11,-114,-2078
64115705,0,1442850,0.17410885,0.57475525,-9.574919,4035,0.00075844367,0.0022949078,-0.038672566,41.166534,0.0047884034,-14,-114,-2084
64219674,0,1442850,0.18401657,0.5589934,-9.564564,3979,0.00072866346,0.0022271047,-0.03816033,41.190495,0.0047884034,-10,-113,-2083
64319669,0,1442850,0.18869497,0.5712795,-9.610924,4000,0.00076914625,0.0023058113,-0.038372826,41.1875,0.0047884034,-12,-114,-2084
64419670,0,1442850,0.19503401,0.5680666,-9.5938425,4000,0.00070742966,0.0022731998,-0.03836924,41.184505,0.0047884034,-11,-114,-2084
64523670,0,1442850,0.18945053,0.5668849,-9.59488,3994,0.00071617455,0.0022793487,-0.038302075,41.20547,0.0047884034,-13,-115,-2078
64623669,0,1442850,0.19730952,0.5685677,-9.576408,3945,0.0007540558,0.0021850567,-0.037806183,41.16054,0.0047884034,-11,-111,-2079
64723670,0,1442850,0.19191577,0.57392186,-9.5771675,4001,0.0007615519,0.0023064078,-0.038282037,41.172523,0.0047884034,-11,-116,-2077
64827676,0,1442850,0.1928921,0.56933206,-9.577197,4006,0.000808646,0.0023149885,-0.03832616,41.1875,0.0047884034,-15,-118,-2077
64927670,0,1442850,0.19847545,0.5769054,-9.592862,4000,0.00077098457,0.0022846546,-0.03845096,41.208466,0.0047884034,-12,-116,-2083
65031670,0,1442850,0.17306364,0.572525,-9.569873,4000,0.00074973237,0.0022349423,-0.038281895,41.190495,0.0047884034,-14,-112,-2081
65131673,0,1442850,0.19219497,0.5707578,-9.596302,4003,0.00073504343,0.0021810862,-0.038382877,41.151558,0.0047884034,-12,-109,-2081
65231669,0,1442850,0.16749169,0.5861187,-9.589893,3999,0.0006863256,0.0023415068,-0.03829902,41.172523,0.0047884034,-8,-116,-2077
65335670,0,1442850,0.1780283,0.5795438,-9.580456,3994,0.00068303896,0.0023233483,-0.038260866,41.172523,0.0047884034,-11,-117,-2079
65434079,0,1442850,0.18978907,0.5683714,-9.587811,4009,0.0007419304,0.0023205974,-0.038429018,41.196484,0.0047884034,-13,-118,-2080
65535670,0,1442850,0.17549618,0.56114006,-9.585697,4001,0.00070962624,0.00225643,-0.03842639,41.181507,0.0047884034,-10,-116,-2084
65639670,0,1442850,0.1843212,0.5587942,-9.590144,3971,0.00072137895,0.0022206635,-0.03802695,41.202477,0.0047884034,-10,-113,-2078
65739670,0,1442850,0.19574492,0.551928,-9.581436,4000,0.0007828633,0.0022925413,-0.038404938,41.178513,0.0047884034,-12,-113,-2086
65843670,0,1442850,0.18398187,0.5679911,-9.568308,4000,0.0007268004,0.0022751177,-0.03824222,41.184505,0.0047884034,-11,-114,-2076
65943678,0,1442850,0.18935707,0.5628231,-9.577086,3967,0.0007320788,0.0022503461,-0.03800184,41.22943,0.0047884034,-11,-115,-2082
66043676,0,1442850,0.18149266,0.5538798,-9.601921,4005,0.00077952666,0.0022737575,-0.038464643,41.184505,0.0047884034,-13,-115,-2084
66147670,0,1442850,0.18722567,0.5671818,-9.59881,3994,0.0007392793,0.0022334077,-0.038419526,41.196484,0.0047884034,-9,-112,-2092
66247670,0,1442850,0.18755427,0.565382,-9.605803,4001,0.0007481037,0.002231911,-0.038481332,41.223442,0.0047884034,-12,-110,-2088
66347670,0,1442850,0.1898749,0.5641139,-9.572271,4000,0.00077094615,0.0022655712,-0.038386296,41.21146,0.0047884034,-14,-113,-2086
66451669,0,1442850,0.18966228,0.57786375,-9.57985,3980,0.00076710095,0.002248473,-0.038109347,41.21745,0.0047884034,-13,-116,-2081
66551693,0,1442850,0.19057582,0.5624423,-9.586733,4017,0.0007781271,0.002321273,-0.038462225,41.21745,0.0047884034,-14,-117,-2078
66655670,0,1442850,0.17583223,0.56164414,-9.589904,4000,0.00066159933,0.0022617977,-0.038297262,41.22943,0.0047884034,-8,-111,-2079
66755676,0,1442850,0.18152472,0.56417626,-9.585018,4006,0.0007240309,0.0022591688,-0.03840053,41.19948,0.0047884034,-9,-113,-2079
66855676,0,1442850,0.18466441,0.5607895,-9.588917,4006,0.00073560723,0.002257552,-0.038537096,41.232426,0.0047884034,-10,-111,-2088
66959670,0,1442850,0.18105133,0.560765,-9.58918,3989,0.00071337266,0.0022765505,-0.038190093,41.202477,0.0047884034,-13,-115,-2082
67059669,0,1442850,0.18900232,0.567536,-9.609246,3964,0.00071260263,0.0022221627,-0.038059585,41.247402,0.0047884034,-11,-112,-2080
67159682,0,1442850,0.18901065,0.5961163,-9.572573,4013,0.0007292413,0.0023729878,-0.03842851,41.21745,0.0047884034,-11,-116,-2081
67263670,0,1442850,0.17918421,0.5700084,-9.56833,4000,0.0006711624,0.002231178,-0.038352214,41.226437,0.0047884034,-9,-110,-2080
67363669,0,1442850,0.17956227,0.56429,-9.58898,3993,0.00074092724,0.0022234037,-0.038294546,41.21146,0.0047884034,-10,-111,-2083
67467676,0,1442850,0.18942903,0.5548853,-9.587486,4006,0.0007106883,0.0023071473,-0.038512483,41.21146,0.0047884034,-9,-117,-2085
67571670,0,1442850,0.18769489,0.5649771,-9.591759,3960,0.00078033475,0.002208403,-0.037964918,41.220448,0.0047884034,-13,-108,-2081
67671669,0,1442850,0.17113742,0.54747885,-9.607193,3999,0.00069595093,0.002199869,-0.03843354,41.214455,0.0047884034,-9,-112,-2086
67775698,0,1442850,0.18275711,0.57820094,-9.563175,4028,0.00081521866,0.0023004485,-0.03854077,41.21146,0.0047884034,-17,-113,-2080
67875693,0,1442850,0.20258479,0.56377816,-9.606653,4010,0.00075160933,0.0022232065,-0.03844022,41.250397,0.0047884034,-12,-111,-2079
67975670,0,1442850,0.18974905,0.56635576,-9.61325,3961,0.0007061594,0.0022665176,-0.0380299,41.23542,0.0047884034,-8,-116,-2079
68079670,0,1442850,0.18787314,0.56227016,-9.571956,4000,0.00073447963,0.0022655139,-0.038359758,41.259384,0.0047884034,-11,-116,-2084
68179723,0,1442850,0.19583644,0.5723528,-9.565292,4054,0.00077179587,0.0022592195,-0.038760405,41.23842,0.0047884034,-14,-109,-2077
68995669,0,1442850,0.19229373,0.563457,-9.579331,3992,0.000781163,0.0022248086,-0.038210727,41.250397,0.0047884034,-13,-111,-2082
69095670,0,1442850,0.19081977,0.57682365,-9.5897,4000,0.0007229608,0.002298075,-0.038371198,41.28035,0.0047884034,-11,-115,-2081
69199676,0,1442850,0.17994452,0.56841487,-9.590851,3977,0.0007456426,0.0022564644,-0.03811258,41.283344,0.0047884034,-13,-113,-2078
69299670,0,1442850,0.17702182,0.57533973,-9.61882,4001,0.00069816987,0.0022797652,-0.03836009,41.25339,0.0047884034,-10,-114,-2080
69399670,0,1442850,0.19491476,0.58481973,-9.583693,4000,0.0007903121,0.0023175222,-0.038401723,41.247402,0.0047884034,-12,-112,-2081
69503670,0,1442850,0.19549474,0.56554914,-9.575993,4001,0.00081145944,0.002288953,-0.038261153,41.268368,0.0047884034,-16,-116,-2078
69603670,0,1442850,0.18509528,0.5756416,-9.581322,3955,0.00073775713,0.0022834805,-0.03782542,41.250397,0.0047884034,-12,-115,-2077
69707670,0,1442850,0.17832902,0.55618036,-9.592886,3994,0.00072568713,0.0022335344,-0.038387626,41.277355,0.0047884034,-9,-113,-2088
69807693,0,1442850,0.17297482,0.56226647,-9.573726,4017,0.0006701697,0.0022616626,-0.038475152,41.244408,0.0047884034,-8,-112,-2079
69907670,0,1442850,0.1961262,0.57175356,-9.600331,3993,0.00080799765,0.0022597024,-0.03836654,41.277355,0.0047884034,-15,-112,-2086
70011670,0,1442850,0.19326589,0.5594,-9.5823345,4000,0.0008076071,0.0022215121,-0.03833329,41.29233,0.0047884034,-13,-112,-2082
70111692,0,1442850,0.17735805,0.5815098,-9.572131,4023,0.0007830727,0.0023712476,-0.038525097,41.268368,0.0047884034,-13,-115,-2079
70211685,0,1442850,0.20222552,0.57657,-9.569204,4009,0.00079698546,0.0024800512,-0.038332738,41.283344,0.0047884034,-3,-102,-2084
70315670,0,1442850,0.16805434,0.54991907,-9.580833,3981,0.0005472395,0.0028611585,-0.03762097,41.244408,0.0047884034,-3,-126,-2058
70415693,0,1442850,0.20008256,0.5866332,-9.631845,4024,0.00068938266,0.0024192086,-0.038867403,41.268368,0.0047884034,-10,-123,-2151
70519675,0,1442850,0.1643061,0.64251703,-9.571055,3999,0.0009510006,0.00124547,-0.036727373,41.28035,0.0047884034,7,-34,-2067
70619670,0,1442850,0.18859656,0.47237915,-9.613952,3999,0.0003989705,0.001729786,-0.041388668,41.25339,0.0047884034,-38,-153,-2252
70719670,0,1442850,0.22195198,0.5661869,-9.521876,4000,0.0009937336,0.0061220056,-0.04439368,41.265373,0.0047884034,-39,-273,-2552
70823669,0,1442850,0.23565406,0.66620064,-9.541894,4000,0.00024802246,0.0057807844,-0.038846835,41.25339,0.0047884034,101,-276,-1979
70923670,0,1442850,0.21693361,0.33790687,-9.648712,3948,0.005967994,0.002742675,-0.040178806,41.301315,0.0047884034,-449,-243,-2216
71023675,0,1442850,0.5333428,0.48998445,-9.565821,3965,-0.0013124937,0.0009068353,-0.042660244,41.277355,0.0047884034,432,25,-2331
71127676,0,1442850,-0.07401912,0.59604245,-9.406313,4006,-0.002992781,-0.008465513,-0.032798767,41.265373,0.0047884034,21,361,-2281
71227676,0,1442850,-0.0028608085,0.43548924,-8.991574,4006,-0.0016647666,-0.01141547,-0.044527594,41.27436,0.0047884034,64,443,-2794
71331670,0,1442850,0.24964722,0.33503821,-9.915307,4000,-0.0030095885,0.009694126,-0.042255916,41.277355,0.0047884034,245,-635,-2432
71435670,0,1442850,0.4286894,0.92007035,-10.426009,4000,0.0057905316,0.014272894,-0.034466237,41.29832,0.0047884034,-275,-62,-2208
71535670,0,1442850,-0.065350235,0.13224055,-9.525591,4000,0.002155467,0.004235383,-0.040172502,41.307304,0.0047884034,-298,81,-1376
71639676,0,1442850,0.03622985,0.02872035,-9.283035,4006,-0.0065074963,-0.0050702766,-0.040138878,41.29832,0.0047884034,655,127,-1668
71739707,0,1442850,0.12770249,-0.12086757,-8.995987,4037,-0.011328721,-2.9943825e-05,-0.044312425,41.319286,0.0047884034,1080,59,-2478
71839676,0,1442850,-0.39137253,0.5774037,-6.6832776,4006,0.0011423688,-0.005095549,-0.017386306,41.259384,0.0047884034,-324,628,-754
71943670,0,1442850,-0.3758985,-2.4756963,-15.92554,3994,0.010560319,-0.0040250006,-0.05927656,41.283344,0.0047884034,175,205,-2649
72043670,0,1442850,-0.57150626,0.29762766,-10.214924,4001,0.0009018504,0.0013948795,-0.043706812,41.289333,0.0047884034,-840,110,-2899
72143695,0,1442850,-0.32135493,-0.20683481,-8.243784,4025,0.009571261,0.0009657323,-0.01932517,41.30431,0.0047884034,-874,-186,-1432
72247670,0,1442850,0.004781429,-0.31500137,-7.4099345,3977,-0.006445355,-0.0026951532,-0.039409123,41.271362,0.0047884034,111,-135,-2446
72347703,0,1442850,-0.24385649,0.101337284,-8.845681,4027,0.01041789,0.0012433163,-0.038912185,41.283344,0.0047884034,-188,-224,-2276
72451685,0,1442850,-0.47383624,0.045680586,-10.14653,3981,-0.0031037736,-0.000111272646,-0.030735135,41.28035,0.0047884034,-463,-94,-1735
72553270,0,1442850,1.0593226,0.6273534,-11.1359,3953,0.0022713179,0.004986303,-0.05487141,41.325275,0.0047884034,687,-85,-2891
72655670,0,1442850,0.7803187,0.5005358,-7.757616,3995,0.012402709,0.0018543692,-0.03496188,41.28634,0.0047884034,-771,62,-2650
72759676,0,1442850,-0.09685399,0.24903901,-9.338149,4006,0.012749303,-0.00708961,-0.034794796,41.32228,0.0047884034,-241,370,-2573
72859677,0,1442850,-1.2190211,1.5230672,-9.907884,4008,-0.00040096336,0.017831102,-0.027995909,41.283344,0.0047884034,-213,-709,-177
72959670,0,1442850,1.1806848,0.18108113,-9.372956,4800,0.010995551,-0.00891136,-0.051444244,41.29832,0.0047884034,-542,50,-2397
73062869,0,1442850,-0.3713494,0.85038775,-10.097463,3965,-0.0057816952,0.014496516,-0.036697697,41.33127,0.0047884034,132,-713,-1948
73162869,0,1442850,0.39365992,1.0741112,-9.249663,3999,0.010533243,-0.008814745,-0.034289066,41.301315,0.0047884034,-618,518,-1996
73263676,0,1442850,0.15193956,1.0102865,-9.245233,4006,0.013614717,0.0036011136,-0.026529646,41.28035,0.0047884034,-304,-213,-1822
73366081,0,1442850,-0.06576927,0.27147374,-10.213638,3980,-0.0050795884,-0.005405821,-0.0425092,41.313297,0.0047884034,352,-117,-1632
73467670,0,1442850,-0.08033042,0.010030207,-9.290134,4000,-0.010787549,-0.0061411317,-0.039214306,41.277355,0.0047884034,-79,-121,-2506
73570110,0,1442850,-0.6992519,-0.32680848,-9.915739,3240,-0.010364979,-0.0052060056,-0.041470032,41.328274,0.0047884034,-10,290,-2697
73669276,0,1442850,0.4292593,-0.29470456,-8.776579,4006,0.005356974,0.004624284,-0.037721135,41.32228,0.0047884034,849,64,-2591
73771685,0,1442850,-0.2411255,-0.14912435,-10.092137,4015,0.0070065586,-0.003196654,-0.0208112,41.340252,0.0047884034,-1243,-309,-1845
73875669,0,1442850,0.086631805,-0.14798026,-9.550732,3999,-0.011673702,0.0011780037,-0.03996019,41.31629,0.0047884034,496,-499,-2358
73974107,0,1442850,-0.20851149,0.65229785,-9.444227,3237,-0.0043414743,0.0005404726,-0.027312404,41.319286,0.0047884034,-154,230,-1238
74078114,0,1442850,0.12686016,-0.45501468,-10.074577,3219,-0.0006265292,0.00541271,-0.039954536,41.337257,0.0047884034,334,-782,-1668
74178903,0,1442850,0.5062734,0.2628143,-8.717785,3214,-0.00021646908,0.0069614844,-0.052304216,41.325275,0.0047884034,84,-110,-3645
74280470,0,1442850,-0.5297401,-0.23102759,-9.549813,3959,0.0019670683,-0.010454522,-0.028512497,41.34924,0.0047884034,-991,255,-1916
74382876,0,1442850,0.72981554,-0.66781956,-8.961134,4006,0.011471436,0.0075314585,-0.049429946,41.301315,0.0047884034,272,-942,-2464
74483670,0,1442850,0.5304451,-0.16714977,-9.297916,4000,0.007673393,0.004203585,-0.050241426,41.295326,0.0047884034,-135,-356,-2123
74582102,0,1442850,-0.48388502,0.5902695,-9.532492,3213,0.00785819,0.0021041469,-0.023736779,41.310303,0.0047884034,-464,485,-1563
74686925,0,1442850,1.0712662,1.1896693,-9.887884,3255,-0.004676588,0.000764229,-0.041774005,41.337257,0.0047884034,711,349,-2567
74786869,0,1442850,0.5051692,0.37087923,-10.261766,3999,-0.001653133,0.009963382,-0.0455149,41.29233,0.0047884034,185,-96,-2390
74890873,0,1442850,0.1258595,0.86444104,-10.131203,3997,-0.013316407,0.0048840716,-0.041250125,41.340252,0.0047884034,146,395,-2150
74990110,0,1442850,0.7790573,0.25904655,-8.737385,3240,0.010915997,0.011479844,-0.026306234,41.31629,0.0047884034,273,-689,-2615
75090904,0,1442850,-0.73876584,-0.0027967233,-10.580205,4034,-0.004049593,-0.00447277,-0.028694179,41.337257,0.0047884034,-439,86,-806
75195670,0,1442850,0.17373055,-0.15596882,-9.268557,3998,0.0060658283,-0.0033269655,-0.049479403,41.337257,0.0047884034,142,127,-2853
75294870,0,1442850,0.21028073,0.7987658,-9.790502,4000,-0.011646977,-0.0011348968,-0.048519738,41.325275,0.0047884034,669,350,-968
75394120,0,1442850,-0.07450151,0.63589835,-9.2190275,3244,0.003014635,0.0067914277,-0.031123653,41.343246,0.0047884034,-458,-336,-2100
75498918,0,1442850,-0.7360861,0.62909186,-10.165993,4003,-0.005096102,-0.00045473338,-0.022380458,41.334263,0.0047884034,-557,389,-651
75599670,0,1442850,-0.22542986,0.25251177,-9.706831,3967,0.006713789,-0.0066597587,-0.0435305,41.334263,0.0047884034,-363,125,-2049
75702885,0,1442850,-0.8285917,0.4970638,-9.928143,4015,-0.004366681,-0.0023159273,-0.030469812,41.334263,0.0047884034,-607,208,-1240
75803670,0,1442850,-0.36235645,0.16448481,-9.090461,4000,0.013321587,0.0027867914,-0.02720832,41.337257,0.0047884034,-841,-240,-2104
75903670,0,1442850,0.58792585,0.7365875,-10.174818,3993,0.0022932529,0.008819083,-0.048130974,41.337257,0.0047884034,360,-33,-2118
76006104,0,1442850,-0.39430988,-0.11928998,-9.423504,3234,0.004944222,-0.0009814638,-0.020511001,41.328274,0.0047884034,-851,-595,-1981
76107694,0,1442850,-0.12527303,-0.040482968,-9.1211405,4024,-0.005205596,0.0030736323,-0.039601605,41.33127,0.0047884034,457,217,-1786
76206870,0,1442850,-0.5447943,-0.20365928,-10.412118,3987,0.0068930797,-0.0046801064,-0.025366168,41.352234,0.0047884034,-1101,126,-1012
76310887,0,1442850,0.18872017,-0.2319872,-9.297637,3217,-0.004076771,-0.0010508015,-0.034587465,41.325275,0.0047884034,159,38,-2344
76412470,0,1442850,-0.8572365,-0.29679987,-9.810282,4000,0.0031938655,-0.0035977825,-0.022836054,41.3732,0.0047884034,-405,67,-586
76514870,0,1442850,-0.19028528,-0.05134258,-9.860014,3931,0.010232023,-0.001096203,-0.022150777,41.325275,0.0047884034,-411,146,-1552
76614913,0,1442850,-0.6423483,-0.38878328,-9.572614,4043,0.0107491035,0.009291424,-0.040185057,41.34924,0.0047884034,-545,-810,-2178
76714870,0,1442850,-0.59926665,-0.10129898,-9.6990595,4000,0.0031490552,0.0011985087,-0.02534262,41.337257,0.0047884034,-338,335,-1267
76818870,0,1442850,0.13426942,-0.20735018,-10.081721,3994,0.00056907017,0.0009867484,-0.044564173,41.361217,0.0047884034,220,546,-2123
76919670,0,1442850,-0.1361954,-0.24081102,-9.188182,4000,0.017639013,-0.0014111492,-0.032666717,41.346245,0.0047884034,-336,-111,-2083
77022112,0,1442850,-0.3973535,0.041474096,-9.578075,3242,0.002502502,-0.0019590938,-0.01915692,41.364216,0.0047884034,-349,-268,-1662
77122897,0,1442850,-0.51612353,-0.29752034,-10.216795,3983,-0.0001172917,0.0023126067,-0.02529646,41.334263,0.0047884034,-423,-19,-764
77222870,0,1442850,-0.29957804,-0.31813568,-10.023616,4000,-0.0048784516,-0.008087448,-0.035883203,41.358223,0.0047884034,-268,-13,-1887
77326118,0,1442850,-0.11803894,-0.30347574,-9.889221,3248,-0.0029011103,-0.0069415686,-0.033155225,41.328274,0.0047884034,269,363,-1652
77426115,0,1442850,0.42844066,-0.18793653,-9.423143,3245,-0.008312982,0.0041493885,-0.041295752,41.36721,0.0047884034,756,71,-2190
77526909,0,1442850,-0.33748338,0.1318655,-9.604134,4039,-0.011028027,-0.011304007,-0.027924825,41.35523,0.0047884034,144,708,-1820
77630870,0,1442850,-0.8922496,0.13661562,-9.952107,3993,0.0059642224,-0.0001364391,-0.028301803,41.343246,0.0047884034,-940,363,-1668
77732470,0,1442850,0.13121879,0.00807468,-9.814877,3966,-0.008189814,0.0004027336,-0.05517509,41.358223,0.0047884034,578,213,-3242
77834123,0,1442850,-0.64796704,0.34399766,-10.318961,4019,-0.0029356908,-0.012008805,-0.025059953,41.361217,0.0047884034,-387,684,-1145
77934870,0,1442850,-0.23522969,-0.21031485,-9.542242,3953,0.0050192806,0.0019986795,-0.044038877,41.370205,0.0047884034,-439,-646,-2701
78034870,0,1442850,-0.06314485,-0.21007034,-9.956542,4000,-0.0060237884,-0.002253942,-0.03794228,41.361217,0.0047884034,322,-467,-2471
78138901,0,1442850,0.2077687,-0.33126888,-8.997827,4031,0.0011128925,-0.0042468235,-0.049889892,41.36721,0.0047884034,512,-62,-3438
78238870,0,1442850,0.06533129,0.69342434,-9.05168,3997,0.0010470131,0.009169549,-0.038440533,41.370205,0.0047884034,253,-20,-2398
78338876,0,1442850,-0.09356655,-0.10474147,-9.205597,3982,0.0062807426,-0.0036462462,-0.02544658,41.364216,0.0047884034,170,-310,-1931
78442906,0,1442850,-0.26632774,0.16780765,-9.307165,4030,0.00481561,-0.003398671,-0.04271301,41.346245,0.0047884034,-203,2,-2885
78542917,0,1442850,-0.5519992,0.6431961,-10.06645,4047,-0.00490975,0.00065256096,-0.035380237,41.340252,0.0047884034,182,257,-1282
78643695,0,1442850,-0.7697286,0.29382476,-9.04427,4025,-0.00025603676,-0.012347698,-0.020672178,41.337257,0.0047884034,-474,301,-1607
78747670,0,1442850,-0.5465839,0.37105823,-10.148899,3994,-0.0033282193,-0.0067209234,-0.020214856,41.361217,0.0047884034,-392,729,-221
78846113,0,1442850,-0.21827164,0.40517882,-9.938293,3237,0.008686506,0.0040270314,-0.03439629,41.382187,0.0047884034,58,-46,-2618
78950870,0,1442850,-0.090373576,0.07661829,-9.849216,3931,-0.0121927215,0.0060180905,-0.05113586,41.3732,0.0047884034,731,-437,-2735
79050926,0,1442850,0.21267153,0.3680075,-9.861165,3231,-0.01087135,0.00988194,-0.038923234,41.38518,0.0047884034,1112,-354,-2175
79150876,0,1442850,-0.2874421,-0.2277127,-9.21822,4006,0.0043308144,0.007769162,-0.04383727,41.361217,0.0047884034,-1,-331,-2208
79254870,0,1442850,0.04868282,0.0013354078,-9.934413,4000,-0.012025656,-0.0010393652,-0.038839027,41.343246,0.0047884034,1120,-250,-2630
79354869,0,1442850,-0.74762034,0.32540438,-9.894927,3965,0.008128913,0.0116264345,-0.0325156,41.376194,0.0047884034,-571,-173,-1981
79458123,0,1442850,0.24897802,-0.2481557,-10.448431,4010,0.008834282,0.0039267046,-0.04124006,41.403152,0.0047884034,-26,-269,-1675
79558891,0,1442850,-0.98602873,0.5071386,-10.33064,3974,-0.0074472795,4.247506e-05,-0.034273442,41.388176,0.0047884034,-227,392,-1064
79658870,0,1442850,-0.85812473,0.45356593,-9.709857,3994,0.0002922453,-0.0061766617,-0.043697268,41.3732,0.0047884034,-634,135,-2863
79762876,0,1442850,-0.5707962,-0.062171545,-9.448874,4006,0.004671405,-0.0015059117,-0.04442834,41.346245,0.0047884034,-366,142,-2759
79862120,0,1442850,-0.17025074,0.54650503,-10.520167,3251,-0.010593698,0.0016464989,-0.036424253,41.376194,0.0047884034,327,306,-1746
79962906,0,1442850,0.14904675,0.009949248,-8.704019,4789,0.008146772,-0.0067198947,-0.0490699,41.370205,0.0047884034,951,-368,-2799
80066870,0,1442850,-0.7580016,0.07458615,-9.689482,4001,-0.0026676864,0.002002681,-0.03357377,41.370205,0.0047884034,-207,-58,-1243
80166870,0,1442850,-0.35888496,-0.19310606,-10.045673,4000,-0.017079908,0.008413279,-0.058708444,41.36721,0.0047884034,516,-727,-2717
80266904,0,1442850,-0.64897466,0.39429802,-9.337167,4035,0.007465225,-0.0006654731,-0.03917054,41.382187,0.0047884034,-616,-71,-3116
80370908,0,1442850,-0.6426262,0.6087301,-9.474668,3988,-8.660229e-05,-0.0074957134,-0.02430461,41.3732,0.0047884034,-360,531,-1430
80470870,0,1442850,-0.31607512,0.5754053,-10.34713,3994,-0.004071528,0.0012081875,-0.02622207,41.403152,0.0047884034,474,103,-734
80574912,0,1442850,-0.4485243,1.0344018,-9.723379,4042,-0.0034235124,0.002439868,-0.033352397,41.400158,0.0047884034,-128,584,-1444
80674889,0,1442850,-0.5154499,1.2455024,-9.405443,4019,-0.00064580794,0.012011228,-0.03458692,41.37919,0.0047884034,-630,-397,-1706
80774870,0,1442850,-0.093226194,-0.10755035,-9.735558,3982,-0.0027802945,0.002782413,-0.03923443,41.406147,0.0047884034,196,117,-1957
81078876,0,1442850,0.09315523,0.55230474,-9.775014,4006,0.0122186085,0.0036898395,-0.043731496,41.406147,0.0047884034,163,-14,-2329
81182888,0,1442850,-0.48751894,0.44045326,-10.0272255,4012,-0.011603729,0.005840091,-0.043432057,41.37919,0.0047884034,173,-18,-1898
81282129,0,1442850,-0.18733883,0.1396615,-9.535774,3259,-0.0072589093,0.0016550879,-0.045058273,41.40914,0.0047884034,167,-518,-2915
81386128,0,1442850,-0.9395578,0.38276315,-10.257849,3222,-0.0065285894,0.006133683,-0.03308508,41.38518,0.0047884034,-810,-526,-697
81486914,0,1442850,-0.30948472,0.44373706,-9.79356,4044,-0.0027955673,0.00400834,-0.042761512,41.4331,0.0047884034,128,-38,-2169
81586877,0,1442850,-0.27374732,0.6703434,-9.965879,4008,-0.009242708,0.005025753,-0.04732597,41.394165,0.0047884034,364,-345,-2323
81690870,0,1442850,-0.3537106,0.7813923,-9.917047,4001,0.0031411345,0.0058886274,-0.032178458,41.400158,0.0047884034,-499,444,-1393
81790876,0,1442850,-0.12438789,0.3381052,-9.365532,3974,-0.013763214,0.014824846,-0.057494357,41.427113,0.0047884034,535,-829,-2460
81890876,0,1442850,-0.2658795,0.18665475,-9.694268,3987,0.0066811657,0.002039876,-0.03773626,41.412136,0.0047884034,-67,-163,-2232
81994913,0,1442850,0.072507955,0.49505964,-9.789734,4013,-0.012410933,-0.0014515166,-0.04495147,41.412136,0.0047884034,1294,64,-2431
82094869,0,1442850,0.036460847,0.31489912,-8.9894705,3989,0.006870444,0.00037227245,-0.0347056,41.44808,0.0047884034,414,-175,-2750
82198870,0,1442850,-0.094653994,0.39405403,-8.927841,4000,0.0031671976,-0.0043316893,-0.03951607,41.412136,0.0047884034,444,35,-2612
82298870,0,1442850,-0.5665649,0.6970296,-9.523561,4000,-0.014902006,0.007693939,-0.04231645,41.427113,0.0047884034,199,161,-1792
82398871,0,1442850,-0.18447264,0.7086015,-9.835958,3995,-0.008712666,0.00796276,-0.044726223,41.44808,0.0047884034,427,-747,-1860
82502870,0,1442850,-0.31925356,0.80670774,-10.144468,4001,0.0100449985,0.007929818,-0.051138155,41.4361,0.0047884034,-774,235,-3720
82602877,0,1442850,-0.20170127,0.14535724,-8.96443,4007,0.002095791,0.003807617,-0.023295244,41.469044,0.0047884034,387,-257,-2852
82706882,0,1442850,-0.2551488,0.032489084,-7.873412,3984,0.009486236,0.002752676,-0.033858202,41.451073,0.0047884034,-247,-39,-2254
82806871,0,1442850,-0.31096625,0.38732862,-9.443364,3967,0.004383183,0.0032324614,-0.037530616,41.424118,0.0047884034,-279,249,-1926
82906870,0,1442850,-0.5210745,0.24195284,-10.1122875,4000,-0.0041812356,0.00291984,-0.04600038,41.445084,0.0047884034,33,44,-1970
83010869,0,1442850,-0.46763942,0.1157947,-9.37981,4000,-0.00192403,-0.000640819,-0.03685006,41.463055,0.0047884034,135,-156,-2201
83114870,0,1442850,-0.26614016,0.35799792,-9.350877,4000,-0.005256105,0.00172059,-0.02935467,41.4331,0.0047884034,339,135,-1679
83214870,0,1442850,-0.3026139,0.28159723,-9.398851,4000,-0.012539152,0.0012308927,-0.0426322,41.463055,0.0047884034,448,-292,-1854
83318870,0,1442850,-0.049925525,0.46812075,-9.756307,3961,0.0038600652,0.008927224,-0.05184196,41.45407,0.0047884034,558,-182,-3574
83418920,0,1442850,-0.0022543597,-0.024138417,-8.7510195,4038,-0.014780343,0.0052740453,-0.037758693,41.439095,0.0047884034,935,-332,-4445
84438881,0,1442850,-0.2807372,-0.30345348,-9.321105,4012,0.013100795,0.00039216247,-0.040644616,41.4361,0.0047884034,-257,-496,-2447
84638870,0,1442850,-0.15358612,-0.0929406,-9.76676,3992,0.0045346715,-0.0008499555,-0.04658675,41.4361,0.0047884034,73,-92,-2030
84742893,0,1442850,-0.56123686,0.11902512,-9.603005,4017,-0.008221438,0.01110346,-0.048543047,41.430107,0.0047884034,-429,-451,-2010
84842869,0,1442850,-0.49310827,0.14646879,-10.079585,3993,-0.014894085,-0.0046214485,-0.03620378,41.493008,0.0047884034,270,222,-435
84942904,0,1442850,0.48234072,-0.3203217,-8.551669,4034,-8.198386e-05,0.005526427,-0.05926483,41.472042,0.0047884034,806,-545,-3452
85046917,0,1442850,-0.2183958,-0.2656757,-9.163406,4048,-0.008796379,0.003849981,-0.06494066,41.472042,0.0047884034,660,-574,-3411
85146870,0,1442850,-0.6994464,0.18624406,-9.566069,4000,0.009046542,-0.0047081243,-0.025720986,41.44808,0.0047884034,-974,94,-1680
85250870,0,1442850,-0.64040995,-0.08154422,-10.125429,3981,0.010114219,-0.0029147824,-0.02575161,41.481026,0.0047884034,-1066,-51,-1085
85350917,0,1442850,0.09995507,0.16346772,-9.663213,4005,-0.006412414,-0.0029642181,-0.047426194,41.487015,0.0047884034,642,413,-2515
85450870,0,1442850,-0.286551,0.3932786,-10.017797,4001,0.002280509,0.0018803439,-0.03502559,41.475037,0.0047884034,-283,293,-1652
85554882,0,1442850,-0.6491168,0.27023876,-9.665344,4006,0.009321709,-0.001212745,-0.020487454,41.481026,0.0047884034,-986,444,-1298
85654870,0,1442850,0.5913332,-0.22401619,-8.898571,4001,-0.0023236212,0.009169949,-0.048842467,41.507984,0.0047884034,988,-567,-2809
85754870,0,1442850,-0.5232199,0.35722575,-9.283631,3981,0.014905345,-0.007156333,-0.024846537,41.46605,0.0047884034,-788,356,-1596
85858870,0,1442850,0.14506997,0.42166874,-10.191733,3957,-0.013276057,-0.0028878972,-0.058726124,41.45407,0.0047884034,623,8,-2673
85958891,0,1442850,-0.7875608,-0.17631665,-10.752852,4013,0.0053413403,0.0013484969,-0.024675637,41.47803,0.0047884034,-1227,-84,-1527
86062870,0,1442850,-0.5217989,-0.23302549,-10.835677,4000,-0.009579611,0.0031294487,-0.04106819,41.475037,0.0047884034,63,-218,-1279
86162870,0,1442850,-0.6615844,-0.3216537,-9.54337,4000,-0.007753875,0.00197746,-0.036247715,41.50199,0.0047884034,-367,-133,-2148
86262876,0,1442850,0.18638895,0.07584442,-9.122872,4007,-0.00944455,-0.0025785954,-0.03093522,41.531944,0.0047884034,784,321,-2174
86366870,0,1442850,0.2069157,0.033091787,-9.01267,3971,-0.012249059,-0.00047780178,-0.039451838,41.51098,0.0047884034,1261,450,-1763
86466869,0,1442850,0.25770393,0.00024946773,-8.858447,3999,0.010382549,-0.0007922555,-0.048531614,41.48402,0.0047884034,489,-332,-3363
86566870,0,1442850,-0.17862202,-0.4454087,-10.606868,4000,-0.0068393997,-0.0023851672,-0.036649022,41.498997,0.0047884034,38,242,-1188
86670869,0,1442850,-0.54360217,0.25520298,-9.963784,3999,0.00090656686,0.0027418612,-0.030558318,41.519962,0.0047884034,-550,240,-1495
86770870,0,1442850,-0.73977065,-0.037958883,-10.065625,3994,-0.004159301,-0.0013647169,-0.023534354,41.48402,0.0047884034,-579,156,-1013
86874870,0,1442850,-0.123816036,0.018256787,-9.2135315,4000,0.005111615,-0.0059130415,-0.035300404,41.50199,0.0047884034,-438,357,-2623
86974918,0,1442850,-0.77034247,0.15878671,-9.730979,4049,0.00051774876,-0.0034638094,-0.030554201,41.50199,0.0047884034,-1132,615,-1319
87074876,0,1442850,0.20303816,-0.34375337,-8.762673,3997,0.005857885,0.0056838496,-0.04054229,41.48402,0.0047884034,657,-275,-2762
87178889,0,1442850,0.18167584,-0.12451853,-9.929162,4019,-0.012169174,0.0032317825,-0.048883796,41.507984,0.0047884034,1241,-229,-2169
87278870,0,1442850,0.06131839,-0.34027168,-9.01366,4000,0.016776688,-0.0036815866,-0.023408461,41.475037,0.0047884034,-418,-27,-2576
87382870,0,1442850,-0.52672356,-0.32003602,-9.256243,3972,0.005622056,-0.007053986,-0.027967751,41.507984,0.0047884034,-736,43,-1956
87482870,0,1442850,-0.25537845,-0.040587597,-9.7999325,4000,-0.011516148,-0.0014842855,-0.043224595,41.493008,0.0047884034,419,-76,-2332
87582870,0,1442850,0.11496677,-0.07353458,-10.307695,3994,-0.014933413,0.001061076,-0.042652503,41.513973,0.0047884034,741,219,-2024
87686876,0,1442850,-0.56930476,-0.29009652,-10.410609,3987,-0.0027385633,-0.002650593,-0.04137455,41.50199,0.0047884034,-524,170,-1842
87786920,0,1442850,0.2919498,-0.220259,-10.558142,4005,0.0038226827,0.00034976477,-0.056298554,41.531944,0.0047884034,565,-90,-3769
87886870,0,1442850,0.31979147,-0.077066526,-10.27493,4001,-0.0031450193,0.004728955,-0.050360274,41.555904,0.0047884034,699,-403,-2890
87990906,0,1442850,-0.8130178,0.19350299,-9.837201,4030,0.01244502,-0.0010686425,-0.024783297,41.53494,0.0047884034,-1189,370,-1844
88090870,0,1442850,-0.3913976,0.040923085,-9.650335,4000,-0.007484878,-0.002914722,-0.038990326,41.50199,0.0047884034,-84,442,-2561
88190870,0,1442850,-0.30079973,0.100088246,-9.473623,3971,0.0041960664,-0.00503066,-0.027085397,41.498997,0.0047884034,-24,193,-2127
88294870,0,1442850,0.24254079,-0.31079072,-8.017399,3951,0.00062209135,0.0009827474,-0.046160925,41.525955,0.0047884034,783,-384,-3356
88394907,0,1442850,0.45541474,-0.016071882,-7.137072,4031,-0.006452799,-0.004328873,-0.03676156,41.52296,0.0047884034,995,479,-1261
88498876,0,1442850,-0.5248086,-0.12215823,-8.412068,4007,-0.009701945,-0.00024937734,-0.025681932,41.543926,0.0047884034,-95,-42,-1308
88602870,0,1442850,-0.49450848,0.076751135,-10.105435,4001,-0.015519766,-0.0025790273,-0.04876309,41.549915,0.0047884034,91,143,-1595
88702870,0,1442850,0.3581154,-0.47618768,-9.466655,3992,0.0014816583,0.0027978313,-0.054119233,41.54093,0.0047884034,481,-271,-2839
88806870,0,1442850,-0.6562131,-0.1176349,-10.458118,4000,0.014089221,0.0020144072,-0.022236343,41.525955,0.0047884034,-1428,-198,-710
88906870,0,1442850,-0.03259271,-0.27918902,-9.576954,4000,0.0144286305,-0.002183579,-0.043340188,41.51098,0.0047884034,-513,-81,-3312
89006901,0,1442850,0.24180524,-0.0001623095,-9.464637,4025,0.0018648796,-0.00292086,-0.049888812,41.507984,0.0047884034,697,343,-3054
89110878,0,1442850,-0.17342687,-0.16872737,-9.556055,4004,-0.010529237,0.003538966,-0.03954093,41.504986,0.0047884034,510,17,-1816
89210876,0,1442850,0.37531337,0.033483397,-9.586752,4006,0.0031031244,0.0024401809,-0.050816774,41.555904,0.0047884034,486,-342,-3355
89310876,0,1442850,0.092671126,-0.15071619,-11.091508,4007,-0.0036959462,-0.0018144517,-0.048142925,41.507984,0.0047884034,626,-32,-2722
89414869,0,1442850,0.22598912,-0.1505189,-10.715574,3952,0.0040382296,0.0014796746,-0.05244121,41.525955,0.0047884034,572,-11,-2668
89514870,0,1442850,-0.29188263,-0.16734527,-10.386039,4000,-0.015976027,-0.0026887746,-0.043028966,41.549915,0.0047884034,371,-46,-1719
89618870,0,1442850,-0.34477052,0.5301969,-9.236904,3981,0.011430191,0.001966542,-0.027867496,41.561897,0.0047884034,-554,-41,-2394
89718873,0,1442850,-0.0038756835,-0.3049417,-9.296483,3997,0.01658656,-0.00083238294,-0.024429742,41.543926,0.0047884034,-649,-66,-2624
89818870,0,1442850,0.11978884,-0.29758784,-9.34972,3990,0.012309461,-0.00010339776,-0.036544748,41.52296,0.0047884034,160,-101,-3052
89922909,0,1442850,0.3090076,-0.68393654,-10.112969,4039,-0.0039679958,-0.0014825747,-0.04278628,41.516968,0.0047884034,609,-293,-2425
90022876,0,1442850,0.04771392,0.07133478,-10.406622,4001,-0.013700191,0.0011535728,-0.047260582,41.53494,0.0047884034,763,-373,-1951
90122870,0,1442850,0.17125376,-0.7638821,-10.347249,3965,-0.010796787,0.0063750744,-0.049340494,41.543926,0.0047884034,615,-361,-2374
90226870,0,1442850,-0.022041894,-0.9780567,-9.089108,3956,0.015145402,-0.0026973658,-0.035585754,41.537933,0.0047884034,-215,-67,-2824
90326887,0,1442850,-0.6702203,-0.17721562,-9.252071,4010,-0.0025343404,-0.002324379,-0.03737763,41.52296,0.0047884034,-582,335,-2299
90430870,0,1442850,-0.48323599,0.14199808,-9.745076,3984,0.015752966,0.0026353318,-0.039152905,41.543926,0.0047884034,-861,-259,-2606
90530870,0,1442850,0.35213053,-0.42886508,-9.68505,3994,-0.0016475216,0.0037456942,-0.03866065,41.54093,0.0047884034,381,110,-1888
90630870,0,1442850,-0.03448704,-0.5193889,-9.277394,4000,0.00692282,-0.0015447543,-0.02828948,41.57987,0.0047884034,-124,-167,-2100
90734876,0,1442850,-0.07189412,-0.31775844,-10.373458,4007,-0.010285001,-0.0008980688,-0.038152866,41.558903,0.0047884034,585,265,-1436
90834869,0,1442850,-0.334203,-0.59162295,-10.412706,3998,0.016062109,-0.00266372,-0.02378383,41.549915,0.0047884034,-1217,-156,-1583
90934869,0,1442850,0.11935155,0.26816547,-9.090616,4000,0.013460856,0.0052193566,-0.04146052,41.52296,0.0047884034,-260,-516,-3107
91038870,0,1442850,-0.009455899,0.4351313,-9.634609,4000,-0.011711558,-0.00070935173,-0.049905185,41.558903,0.0047884034,820,153,-1866
91138870,0,1442850,0.103789136,-1.0605085,-8.679669,3998,0.0075359507,-0.004484234,-0.045285318,41.555904,0.0047884034,-204,-198,-2853
91242869,0,1442850,0.05883768,-0.36907294,-7.6762204,3992,0.014062066,-0.00873443,-0.02317753,41.537933,0.0047884034,-448,-151,-3256
91342870,0,1442850,-0.029785521,-0.41446334,-8.867869,4000,-0.0010086952,0.005244282,-0.032237187,41.558903,0.0047884034,208,-154,-2097
91442906,0,1442850,0.37463078,0.024714634,-8.465678,4036,-0.00055497186,-0.0015995272,-0.047445267,41.57088,0.0047884034,512,240,-2741
91546893,0,1442850,0.05080654,-0.27447915,-8.026018,4023,0.009909593,0.004141476,-0.033190615,41.582863,0.0047884034,141,-495,-2659
91646870,0,1442850,0.078899086,-0.19236052,-9.686936,4000,-0.00046252774,0.006557305,-0.03748733,41.57088,0.0047884034,218,-283,-1554
91746870,0,1442850,-0.22597556,-0.25117257,-9.87814,3994,-0.019855168,-0.0025736254,-0.055239696,41.56489,0.0047884034,632,-2,-2459
91850870,0,1442850,-0.59911585,-0.21935107,-9.925282,4000,0.0040916516,-0.0076237386,-0.02581643,41.558903,0.0047884034,-1064,271,-1948
91950876,0,1442850,-0.056324866,0.07325518,-9.684153,4006,-0.016743168,-0.0028691017,-0.04165975,41.53494,0.0047884034,655,271,-2568
92054870,0,1442850,-0.29438937,-0.53735346,-9.330083,3983,0.014160017,-0.002983813,-0.031888466,41.576874,0.0047884034,-776,-192,-2547
92154917,0,1442850,-0.28236884,-0.023478704,-9.870893,4033,0.006170367,-0.0021835226,-0.03502025,41.567886,0.0047884034,-740,-159,-1866
92254870,0,1442850,-0.22248672,0.02255107,-9.725838,3951,-0.011766678,0.0008517299,-0.041053653,41.561897,0.0047884034,139,240,-2167
92358904,0,1442850,-0.69136214,-0.36240172,-9.731172,4034,0.008053781,-0.0018155206,-0.030094754,41.555904,0.0047884034,-946,83,-2426
92458869,0,1442850,-0.6966724,0.022683801,-9.6877775,3993,0.001938347,-0.0003150073,-0.03618341,41.55291,0.0047884034,-313,279,-2253
92558870,0,1442850,-0.25872168,-0.40577114,-9.002479,3975,0.014176093,-0.006097027,-0.029929997,41.56489,0.0047884034,-479,264,-2773
92662876,0,1442850,-0.84796315,-0.4256059,-8.858648,3984,-0.007492805,-0.0064165536,-0.042244956,41.555904,0.0047884034,624,-46,-2705
92762905,0,1442850,1.1818229,-0.2466119,-9.383732,4035,0.009129427,0.0046651936,-0.045389004,41.573875,0.0047884034,926,-117,-2829
92866870,0,1442850,0.12891653,-0.55193067,-8.980217,3985,-0.0008542109,0.0021357478,-0.058077894,41.54692,0.0047884034,593,-545,-3632
92970897,0,1442850,-0.06788281,-0.20261222,-9.99071,4027,0.0021711271,-0.0025045676,-0.03825985,41.588852,0.0047884034,507,-282,-1587
93070870,0,1442850,0.14184037,-0.46981013,-10.006236,4000,-0.0030315125,-0.0033331546,-0.038975418,41.54692,0.0047884034,422,-24,-2362
93174870,0,1442850,-0.7583213,-0.3876186,-10.048349,4001,0.0057682074,0.0006068745,-0.041922353,41.558903,0.0047884034,-790,-17,-1913
93274870,0,1442850,-0.6637374,0.015780719,-9.960927,4000,0.009062795,-0.0038495013,-0.03563197,41.576874,0.0047884034,-779,384,-1273
93374912,0,1442850,-0.2969649,0.10010018,-9.367055,4042,0.0017283708,-0.00887286,-0.033744134,41.56489,0.0047884034,-477,407,-1637
93478889,0,1442850,-0.5068108,-0.19217858,-8.929641,4013,-0.0033438222,-0.0036087143,-0.017027605,41.561897,0.0047884034,-404,-39,-1721
93578869,0,1442850,-0.6304241,-0.1395667,-9.827473,3999,-6.358791e-05,0.00953754,-0.031190246,41.57987,0.0047884034,-366,-537,-1036
93678870,0,1442850,-0.5038001,-0.31045595,-9.90828,3999,0.0039135893,0.00040370604,-0.037594214,41.588852,0.0047884034,-562,-157,-2278
93782869,0,1442850,-0.29972133,-0.5375265,-10.065703,3973,-0.00961947,0.0037513303,-0.027399557,41.594845,0.0047884034,179,-257,-1744
93882870,0,1442850,-0.5699733,-0.2277275,-9.793104,4000,-0.005722587,0.00026017043,-0.033564232,41.59784,0.0047884034,-332,-104,-1818
93986876,0,1442850,-0.676783,0.17654836,-9.770031,3983,0.0016146838,0.0022184525,-0.03853373,41.585857,0.0047884034,-865,138,-1921
94090870,0,1442850,-0.47916794,0.13112588,-9.571251,3950,0.013715177,-0.00869794,-0.012140527,41.576874,0.0047884034,-595,382,-802
94190870,0,1442850,-0.55189794,0.050219934,-10.102666,3994,-0.0025146287,0.004735194,-0.030530076,41.573875,0.0047884034,-164,-195,-697
94294876,0,1442850,0.03552994,0.20109574,-9.658163,4007,-0.012119569,0.00859636,-0.04445152,41.573875,0.0047884034,1068,-111,-2502
94394876,0,1442850,0.010177922,-0.16485754,-9.917672,3972,-0.016576331,0.005264694,-0.043123327,41.588852,0.0047884034,963,-67,-2614
94494870,0,1442850,0.081857406,-0.2715055,-9.707131,4000,-0.007115139,0.0013569943,-0.03840701,41.609818,0.0047884034,931,-288,-1789
94598870,0,1442850,-0.26402414,0.18276314,-9.290221,4000,-0.01518639,0.0054088105,-0.047331326,41.57987,0.0047884034,727,210,-1866
94698870,0,1442850,0.52867246,-0.1873629,-9.306957,4000,-0.0057256343,0.005391592,-0.052515075,41.612816,0.0047884034,1225,-592,-2596
94798870,0,1442850,-0.03875858,-0.013375973,-9.210247,3977,0.0077246893,-0.008631266,-0.031648777,41.594845,0.0047884034,-28,104,-2742
94902893,0,1442850,0.21872136,-0.29248366,-9.655445,4017,-0.008224312,0.0033437768,-0.064514495,41.591846,0.0047884034,735,-305,-3070
95002880,0,1442850,-0.13076341,0.086219646,-8.982035,4010,0.011953212,-0.0024775793,-0.027875422,41.594845,0.0047884034,154,112,-2912
95106085,0,1442850,-0.29305822,-0.08565072,-10.041586,3215,0.0012740759,-0.0068151727,-0.038063627,41.600834,0.0047884034,23,240,-2193
95205299,0,1442850,-0.06341354,-0.20980544,-9.3887,3229,0.0052350913,-0.004681236,-0.033456355,41.61581,0.0047884034,153,161,-2810
95310105,0,1442850,-0.3592186,-0.013899437,-10.127015,4014,-0.011582552,0.0013977585,-0.05044794,41.60383,0.0047884034,84,-442,-1921
95410895,0,1442850,-0.3429055,-0.33102354,-9.807271,4004,-0.012009636,-0.006900514,-0.04627909,41.612816,0.0047884034,38,-206,-2344
95510870,0,1442850,0.12860137,-0.32378694,-9.170313,4000,-0.0045012534,-0.0043704635,-0.03732034,41.60383,0.0047884034,441,-176,-3024
95614069,0,1442850,0.17136416,-0.1667841,-9.283574,3999,-0.013788428,-0.0001825986,-0.053604208,41.606823,0.0047884034,800,-174,-2812
95714870,0,1442850,-0.050846692,-0.08845953,-10.057555,4000,-0.001688303,-0.0010097118,-0.038136005,41.609818,0.0047884034,199,-208,-2496
95816470,0,1442850,-0.8027987,-0.12356714,-11.27342,4000,-0.0030268622,0.0003643686,-0.04203666,41.57987,0.0047884034,-1237,-88,-2118
95915670,0,1442850,-0.014698429,0.15137923,-11.028618,3959,0.005820464,-0.0012316846,-0.04869584,41.624794,0.0047884034,177,444,-2542
96018070,0,1442850,-0.52729195,-0.070357114,-11.119427,4001,-0.012828745,0.004080524,-0.04722379,41.6218,0.0047884034,-23,-152,-2551
96118870,0,1442850,0.09870571,-0.25630918,-11.43544,3994,-0.011147406,-0.004829851,-0.046450187,41.591846,0.0047884034,738,-201,-1795
96222870,0,1442850,-0.3392202,-0.009086511,-9.934185,4000,0.010067418,-0.009333428,-0.03741406,41.65774,0.0047884034,-423,312,-2171
96323672,0,1442850,0.06708308,0.014287004,-9.090287,4002,0.004132765,-0.009340072,-0.04966398,41.61581,0.0047884034,625,159,-2860
96422120,0,1442850,-0.51398546,-0.14983706,-10.561219,4050,-0.0010886721,-0.0047179,-0.04369096,41.606823,0.0047884034,-622,220,-2572
96526069,0,1442850,-0.24643871,-0.15735559,-10.809693,3985,0.00977451,1.7453567e-05,-0.029840145,41.63378,0.0047884034,-580,-51,-2183
96625318,0,1442850,-0.122262664,-0.14069588,-10.069645,3248,0.008325886,-0.0029997872,-0.02462176,41.606823,0.0047884034,-617,284,-2786
96730069,0,1442850,0.1678633,0.009013817,-9.931533,3965,0.00730905,-0.00017407112,-0.033945158,41.606823,0.0047884034,380,-100,-1990
96830870,0,1442850,-0.10624983,0.16591963,-10.369933,3967,-0.014237365,0.0012745849,-0.035685603,41.6218,0.0047884034,747,243,-1787
96934099,0,1442850,0.112294205,0.09199183,-11.046565,4030,-0.0022076138,0.0009316745,-0.05917508,41.594845,0.0047884034,601,126,-2727
97034070,0,1442850,-0.050186314,-0.19677122,-11.011185,4753,0.0015711875,0.001946752,-0.06306971,41.6218,0.0047884034,82,108,-3915
97134870,0,1442850,-0.27148244,-0.21587235,-10.356857,3979,-0.0046254373,-0.0003663369,-0.030570678,41.60383,0.0047884034,244,217,-1745
97237307,0,1442850,0.09970333,-0.12764202,-9.017309,3231,0.00052958867,-0.0008639895,-0.038419545,41.618805,0.0047884034,390,13,-3193
97338081,0,1442850,0.14756456,0.1288529,-9.18145,4011,-0.009269914,0.00040779856,-0.05417108,41.594845,0.0047884034,736,171,-3217
97438074,0,1442850,0.24229367,0.033602968,-8.983697,4004,0.005499119,-0.00033260597,-0.02793661,41.630787,0.0047884034,216,166,-2244
97542069,0,1442850,0.20360085,-0.0854531,-9.640712,3999,-0.018346963,-0.0032348,-0.050463695,41.654747,0.0047884034,896,161,-2346
97641314,0,1442850,0.3552429,-0.22900087,-9.6860895,3238,-0.0023164242,-0.002740125,-0.027749464,41.61581,0.0047884034,789,-116,-1951
97746090,0,1442850,-0.2791235,-0.08943455,-9.721578,4002,-0.017780436,0.0058388584,-0.06010399,41.63378,0.0047884034,442,-240,-2079
97850107,0,1442850,0.11307,-0.0029965332,-9.892564,4022,-0.0070076482,-0.0002860215,-0.04909987,41.642765,0.0047884034,910,194,-2260
97950070,0,1442850,0.045649022,-0.053397626,-10.079055,3994,-0.0022691037,-0.002863973,-0.03736171,41.63378,0.0047884034,432,-73,-1854
98054079,0,1442850,-0.6591363,0.24965489,-9.997159,4010,0.0039515095,0.0013996484,-0.03961295,41.63977,0.0047884034,-905,312,-1781
98154079,0,1442850,-0.9193528,0.099555105,-9.901267,4009,0.015792722,-0.003143189,-0.01883306,41.630787,0.0047884034,-1355,143,-612
98254076,0,1442850,-0.77529126,-0.014944048,-10.067304,3975,0.00079984684,0.0013910714,-0.02603666,41.60383,0.0047884034,-811,-350,-813
98358070,0,1442850,-0.18784626,0.3858532,-9.251986,3937,0.019791536,-0.0030972736,-0.022416465,41.636776,0.0047884034,-489,403,-2336
98458077,0,1442850,-0.26173466,0.10549862,-9.28925,4008,0.0029125833,0.00057486823,-0.0397075,41.630787,0.0047884034,-157,58,-2843
98558075,0,1442850,-0.20869797,0.036423456,-10.1733,4004,0.008677524,6.435237e-05,-0.040416397,41.669724,0.0047884034,-203,-10,-1881
