timestamp,magnetometer_ga[0],magnetometer_ga[1],magnetometer_ga[2]
50799675,0.15420826,-0.09970823,0.33733672
50810105,0.15947998,-0.11595435,0.34186348
50819713,0.15600711,-0.10878493,0.3300302
50830908,0.16300885,-0.105108276,0.3418237
50839689,0.16300885,-0.105108276,0.3418237
50849267,0.1683506,-0.09973888,0.33151382
50859699,0.16663505,-0.094369486,0.3211706
50868467,0.15249257,-0.10156954,0.32703117
50879699,0.15423633,-0.0888928,0.33139077
50888468,0.17186594,-0.074416064,0.33434355
50898867,0.15069371,-0.09249284,0.33433768
50908471,0.15772308,-0.09607755,0.3402793
50918907,0.15596595,-0.087046824,0.33875155
50928468,0.15065183,-0.09967758,0.34320956
50938895,0.15065183,-0.09967758,0.34320956
50947676,0.15062395,-0.10326229,0.3491179
50958100,0.16835079,-0.09250817,0.3314762
50967681,0.15596586,-0.090662174,0.3387704
50978093,0.1699968,-0.09780093,0.3565432
50987667,0.16652393,-0.09063152,0.34470987
50998868,0.14360847,-0.0996929,0.3402315
51007668,0.16122408,-0.08881617,0.34614787
51018868,0.17362255,-0.10513893,0.33598417
51027668,0.17362255,-0.10513893,0.33598417
51036468,0.15954947,-0.11603097,0.32713974
51046908,0.17183761,-0.09607755,0.34034595
51057267,0.16130696,-0.11060028,0.3285922
51066910,0.16660725,-0.094338834,0.32706016
51076468,0.14013527,-0.10698492,0.32847345
51086874,0.16307844,-0.10156954,0.3270811
51096468,0.16659343,-0.090708144,0.3299861
51106883,0.15777834,-0.11060028,0.32857555
51116483,0.15777834,-0.11060028,0.32857555
51126103,0.15416655,-0.09966225,0.346171
51135692,0.15238181,-0.083370164,0.35049513
51146118,0.15419471,-0.085231476,0.3402062
51155667,0.15242316,-0.09787756,0.3417361
51166867,0.1594667,-0.09063152,0.34467655
51175674,0.15240952,-0.08701617,0.34462443
51186868,0.15776479,-0.096123524,0.33144504
51195668,0.15766785,-0.08155483,0.3519831
51205268,0.15766785,-0.08155483,0.3519831
51215669,0.15766785,-0.08155483,0.3519831
51224468,0.15595187,-0.09426221,0.34173396
51234868,0.15596586,-0.090662174,0.3387704
51244467,0.15243715,-0.09427754,0.33877254
51254903,0.16829455,-0.117754355,0.34338692
51264468,0.16299513,-0.097862236,0.34473082
51274867,0.16306445,-0.10516957,0.3300447
51284468,0.15243733,-0.087046824,0.3387349
51295702,0.15602057,-0.12687704,0.32717952
51304468,0.15602057,-0.12687704,0.32717952
51314111,0.15074886,-0.11063093,0.3226527
51323716,0.16478017,-0.10330826,0.34035024
51334867,0.16126561,-0.09609287,0.3373512
51343668,0.15595178,-0.09787756,0.34175277
51354868,0.14535181,-0.10509295,0.34468517
51363668,0.16115431,-0.09958563,0.36092812
51374868,0.16310652,-0.09075412,0.32113513
51383667,0.1612102,-0.088800855,0.34909263
51393268,0.1612102,-0.088800855,0.34909263
51402898,0.17006622,-0.10149292,0.3418382
51412468,0.1541809,-0.0816008,0.34313214
51422867,0.15239535,-0.09784691,0.34762564
51432467,0.1559099,-0.1050623,0.35062468
51442867,0.15061049,-0.08517018,0.3519686
51452468,0.16300912,-0.09426221,0.34176725
51463668,0.16652393,-0.09063152,0.34470987
51472467,0.16656572,-0.08706215,0.3358568
51483702,0.15775053,-0.110569626,0.33446506
51492468,0.15775053,-0.110569626,0.33446506
51501268,0.16833661,-0.10333891,0.3344774
51502867,0.16823931,-0.10323164,0.3550907
51511668,0.1559662,-0.076200746,0.3386951
51522868,0.16300939,-0.08341614,0.3417108
51531691,0.16832316,-0.0852468,0.33732808
51542868,0.1576813,-0.09964693,0.34913242
51551680,0.15945262,-0.09784691,0.34765896
51562903,0.16479416,-0.09970823,0.3373867
51571696,0.15592407,-0.09423156,0.3476235
51581268,0.15592407,-0.09423156,0.3476235
51590867,0.1559655,-0.1051236,0.33884564
51600468,0.15592407,-0.09423156,0.3476235
51610867,0.154167,-0.081585474,0.34607694
51620468,0.16478053,-0.088846825,0.340275
51631693,0.15595178,-0.09787756,0.34175277
51640483,0.17003886,-0.08338549,0.34763366
51650867,0.15772273,-0.110538974,0.34035456
51660487,0.15599357,-0.09430819,0.3328997
51670868,0.15599357,-0.09430819,0.3328997
51679682,0.16832307,-0.08886215,0.3373469
51690867,0.13828081,-0.09784691,0.347559
51699694,0.15593806,-0.09063152,0.3446599
51709268,0.14182344,-0.09424689,0.34461206
51719700,0.15243724,-0.090662174,0.33875373
51730876,0.15416664,-0.096046895,0.3461522
51739669,0.15950821,-0.097908214,0.33587992
51750889,0.15769528,-0.096046895,0.34616885
51759678,0.16129342,-0.096123524,0.3314617
51769268,0.16129342,-0.096123524,0.3314617
51778867,0.16830926,-0.085231476,0.34027284
51788470,0.16653802,-0.08341614,0.34172747
51799667,0.16121002,-0.09603158,0.34913027
51808495,0.15593815,-0.08701617,0.3446411
51819667,0.15943907,-0.083370164,0.35052845
51828467,0.15062413,-0.09603158,0.3490803
51838867,0.1612378,-0.09606222,0.3432407
51848494,0.14892249,-0.0906775,0.3357923
51858868,0.14892249,-0.0906775,0.3357923
51867667,0.15061022,-0.09601625,0.35202503
51878867,0.16130741,-0.09252349,0.32849813
51887714,0.15592398,-0.09784691,0.3476423
51898887,0.16648205,-0.09781626,0.3535818
51907694,0.15768121,-0.10326229,0.34915122
51918913,0.15240908,-0.10509295,0.3447185
51927668,0.16125162,-0.0996929,0.34031478
51938868,0.1594249,-0.09420091,0.35352966
51947668,0.1594249,-0.09420091,0.35352966
51956468,0.16309252,-0.09435416,0.3240987
51967667,0.14712329,-0.09606222,0.3431741
51976467,0.15765359,-0.096000925,0.35500312
51987667,0.16826738,-0.09241622,0.34914476
51996468,0.15415284,-0.09241622,0.34907812
52006867,0.15949433,-0.09789289,0.33882466
52016508,0.16826756,-0.085185505,0.34910712
52026867,0.16302346,-0.076200746,0.33872843
52036505,0.16300903,-0.09787756,0.3417861
52046868,0.16300903,-0.09787756,0.3417861
52055688,0.15416673,-0.09243154,0.34613338
52066887,0.14539377,-0.094292864,0.33579448
52075668,0.16302276,-0.1051236,0.33887896
52086876,0.15420853,-0.08886215,0.33728027
52095668,0.17185143,-0.09970823,0.33742
52106875,0.1612797,-0.08887748,0.33436882
52115668,0.15775089,-0.0961082,0.3343898
52126875,0.15596578,-0.09427754,0.3387892
52135668,0.15596578,-0.09427754,0.3387892
52144479,0.15595196,-0.09064685,0.34171513
52155667,0.16832298,-0.092477515,0.33736572
52164468,0.14182344,-0.09424689,0.34461206
52174867,0.15586846,-0.09417026,0.35940254
52184501,0.16125198,-0.085231476,0.34023952
52194867,0.15593761,-0.10870831,0.34475395
52204504,0.15595214,-0.08341614,0.34167752
52214867,0.14185107,-0.101508245,0.3387602
52224478,0.14185107,-0.101508245,0.3387602
52234891,0.14185107,-0.101508245,0.3387602
52243667,0.15065183,-0.09967758,0.34320956
52254901,0.15950839,-0.0906775,0.33584228
52263689,0.15420853,-0.08886215,0.33728027
52274867,0.1612379,-0.09244686,0.3432219
52283668,0.15949441,-0.09427754,0.33880585
52294868,0.16475263,-0.09243154,0.34618336
52303668,0.1559384,-0.076170094,0.34458464
52314900,0.16123763,-0.103292935,0.34327835
52323668,0.16123763,-0.103292935,0.34327835
52332468,0.15770936,-0.0888315,0.34318644
52342867,0.17185143,-0.09970823,0.33742
52352486,0.1488807,-0.09424689,0.34464538
52362867,0.15242334,-0.09064685,0.34169847
52372484,0.15236764,-0.09420091,0.35349634
52382867,0.15595178,-0.09787756,0.34175277
52392512,0.15772317,-0.09246219,0.3402605
52402886,0.17006667,-0.08341614,0.34174412
52412485,0.17006667,-0.08341614,0.34174412
52422901,0.16650994,-0.09423156,0.34767345
52431668,0.15415293,-0.088800855,0.3490593
52442868,0.15425006,-0.09613885,0.32848364
52451668,0.16126543,-0.10332359,0.33738884
52461289,0.16302285,-0.101508245,0.33886015
52471667,0.16478044,-0.09246219,0.3402938
52481315,0.16482215,-0.09250817,0.33145955
52491667,0.15770936,-0.0888315,0.34318644
52501277,0.15770936,-0.0888315,0.34318644
52510867,0.15772308,-0.09607755,0.3402793
52521291,0.15596586,-0.090662174,0.3387704
52530868,0.15597966,-0.094292864,0.33584443
52540478,0.16475263,-0.09243154,0.34618336
52550867,0.15065227,-0.0816008,0.34311548
52560478,0.15593797,-0.09424689,0.3446787
52570887,0.15063784,-0.10327761,0.34617317
52580477,0.15766767,-0.08878553,0.35202074
52590900,0.15770954,-0.0816008,0.3431488
52600469,0.15770954,-0.0816008,0.3431488
52610867,0.154167,-0.081585474,0.34607694
52619667,0.16652437,-0.072554745,0.3446158
52630868,0.17885326,-0.09241622,0.34919474
52639684,0.15592425,-0.08700085,0.34758586
52650867,0.1612239,-0.096046895,0.3461855
52659667,0.15062422,-0.09241622,0.34906146
52670868,0.15949441,-0.09427754,0.33880585
52679668,0.15243697,-0.101508245,0.33881018
52689279,0.15243697,-0.101508245,0.33881018
52698867,0.16125189,-0.088846825,0.34025833
52708494,0.16126534,-0.10693894,0.33740765
52718867,0.15420826,-0.09970823,0.33733672
52728511,0.15591007,-0.097831585,0.35058707
52738886,0.17536652,-0.085231476,0.34030616
52748506,0.15419453,-0.09246219,0.34024385
52758905,0.15599366,-0.090692826,0.33288088
52768467,0.14709568,-0.088800855,0.349026
52778868,0.14709568,-0.088800855,0.349026
52788473,0.14709568,-0.088800855,0.349026
52798079,0.1488947,-0.09064685,0.3416818
52807667,0.15240987,-0.072554745,0.34454915
52818868,0.15059623,-0.09961628,0.3549886
52827667,0.15592398,-0.09784691,0.3476423
52837268,0.16651021,-0.08338549,0.34761703
52847668,0.15941109,-0.09057022,0.35645562
52858868,0.15776515,-0.0816621,0.3313698
52867668,0.1489086,-0.090662174,0.33873707
52877304,0.1489086,-0.090662174,0.33873707
52886867,0.16471094,-0.09238557,0.3550176
52896468,0.15591025,-0.09060087,0.35054943
52906886,0.1612797,-0.08887748,0.33436882
52916467,0.15943898,-0.08698552,0.35054728
52927667,0.15418063,-0.09244686,0.34318858
52936468,0.15419436,-0.0996929,0.34028146
52946867,0.1612657,-0.092477515,0.3373324
52956468,0.17180954,-0.106892966,0.34629193
52966868,0.17180954,-0.106892966,0.34629193
52975667,0.15419409,-0.110538974,0.3403379
52986867,0.1542087,-0.08163145,0.33724263
52995667,0.15411086,-0.10321631,0.35796887
53005305,0.1559517,-0.10149292,0.34177157
53015667,0.1594527,-0.09423156,0.34764016
53025285,0.16472475,-0.09601625,0.35209167
53035667,0.15242334,-0.09064685,0.34169847
53046868,0.1506243,-0.088800855,0.34904265
53055668,0.1506243,-0.088800855,0.34904265
53064468,0.15775089,-0.0961082,0.3343898
53074887,0.1506799,-0.08886215,0.3372636
53084467,0.1559656,-0.101508245,0.33882684
53094869,0.16652402,-0.08701617,0.34469104
53104467,0.15945253,-0.10146227,0.34767777
53114869,0.15413876,-0.09963161,0.35206053
53124468,0.16123798,-0.0888315,0.3432031
53135667,0.16123807,-0.08521615,0.34318426
53144468,0.1542087,-0.08163145,0.33724263
53154869,0.1542087,-0.08163145,0.33724263
53163673,0.15772352,-0.07800076,0.34018523
53173305,0.15238136,-0.10144694,0.35058922
53183668,0.15418036,-0.103292935,0.34324503
53194885,0.16300903,-0.09787756,0.3417861
53203667,0.15239535,-0.09784691,0.34762564
53214091,0.15591007,-0.097831585,0.35058707
53223667,0.16126579,-0.08886215,0.3373136
53233293,0.16652367,-0.10147759,0.34476632
53243668,0.16652367,-0.10147759,0.34476632
53252469,0.16828118,-0.096046895,0.34621882
53263667,0.15777887,-0.08890813,0.32846266
53272467,0.16830908,-0.09246219,0.34031045
53283667,0.17013599,-0.09072347,0.327058
53292468,0.1612378,-0.09606222,0.3432407
53302867,0.16473883,-0.088800855,0.3491093
53312468,0.15948015,-0.10872363,0.34182587
53322867,0.14712329,-0.09606222,0.3431741
53332468,0.14712329,-0.09606222,0.3431741
53341310,0.14539404,-0.08344679,0.33573803
53351667,0.16478044,-0.09246219,0.3402938
53361293,0.16828118,-0.096046895,0.34621882
53371667,0.14536642,-0.07618542,0.3415899
53382108,0.14533809,-0.09784691,0.34759232
53391667,0.15242334,-0.09064685,0.34169847
53402868,0.16479443,-0.08886215,0.33733025
53411668,0.13648199,-0.0887702,0.35486555
53422871,0.16822541,-0.10321631,0.3580355
53431668,0.16822541,-0.10321631,0.3580355
53440468,0.17362317,-0.07983143,0.33585247
53451667,0.15770909,-0.09967758,0.34324288
53460476,0.16303727,-0.07983143,0.3358025
53470881,0.15948033,-0.10149292,0.34178823
53480468,0.14712329,-0.09606222,0.3431741
53490868,0.14355278,-0.103246965,0.35202935
53500468,0.15066582,-0.09607755,0.340246
53510867,0.17180972,-0.09966225,0.3462543
53520468,0.17180972,-0.09966225,0.3462543
53530113,0.1612378,-0.09606222,0.3432407
53539667,0.15595205,-0.0870315,0.34169632
53550110,0.16122364,-0.106892966,0.34624195
53559667,0.15952238,-0.087077476,0.3328787
53570880,0.1612796,-0.09249284,0.33438763
53579668,0.15769528,-0.096046895,0.34616885
53590091,0.1595223,-0.090692826,0.33289754
53599668,0.16126597,-0.08163145,0.33727595
53610068,0.16126597,-0.08163145,0.33727595
53619668,0.16126597,-0.08163145,0.33727595
53628478,0.1594945,-0.090662174,0.33878705
53638874,0.1470955,-0.09603158,0.34906363
53648467,0.1665381,-0.07980078,0.34170866
53659667,0.15243715,-0.09427754,0.33877254
53668468,0.15243706,-0.09789289,0.33879134
53678867,0.15418072,-0.0888315,0.34316978
53688471,0.16127943,-0.099723555,0.33442527
53699701,0.17006631,-0.09787756,0.3418194
53708471,0.17006631,-0.09787756,0.3418194
53718115,0.13479398,-0.09427754,0.33868927
53727675,0.14360873,-0.088846825,0.34017506
53738106,0.15765367,-0.09238557,0.35498428
53747667,0.15593815,-0.08701617,0.3446411
53758072,0.16476645,-0.09606222,0.34325737
53767668,0.15419488,-0.07800076,0.34016857
53778902,0.14890815,-0.10873896,0.33883113
53787667,0.17532499,-0.07795479,0.34910282
53798076,0.17532499,-0.07795479,0.34910282
53807675,0.15946661,-0.09424689,0.34469536
53816468,0.15770936,-0.0888315,0.34318644
53826889,0.15942481,-0.09781626,0.35354847
53836467,0.16299504,-0.10147759,0.34474966
53846867,0.15592398,-0.09784691,0.3476423
53856468,0.15239562,-0.08700085,0.3475692
53867695,0.14889443,-0.10149292,0.34173825
53876468,0.15946679,-0.08701617,0.34465772
53896468,0.15946679,-0.08701617,0.34465772
53906880,0.15948024,-0.105108276,0.34180704
53915668,0.15591007,-0.097831585,0.35058707
53926071,0.15946652,-0.097862236,0.34471416
53935668,0.14716491,-0.099723555,0.33435863
53945267,0.1506938,-0.08887748,0.33431885
53955667,0.16122417,-0.085200824,0.34612906
53965286,0.15950848,-0.08706215,0.33582348
53975677,0.15772344,-0.081616126,0.34020406
53986068,0.15772344,-0.081616126,0.34020406
53994867,0.1594249,-0.09420091,0.35352966
54004468,0.15768157,-0.088800855,0.34907597
54015675,0.15769571,-0.07797011,0.34607476
54024468,0.1629536,-0.090585545,0.3535275
54035701,0.1418238,-0.07978545,0.3445368
54044472,0.16475263,-0.09243154,0.34618336
54054890,0.15769546,-0.08881617,0.3461312
54064468,0.1770962,-0.079770125,0.34764817
54074900,0.1770962,-0.079770125,0.34764817
54084481,0.17185143,-0.09970823,0.33742
54094072,0.16829552,-0.077985436,0.34317997
54103667,0.15770909,-0.09967758,0.34324288
54114899,0.15424997,-0.09975421,0.32850245
54123671,0.17003877,-0.08700085,0.3476525
54133291,0.15419471,-0.085231476,0.3402062
54143667,0.1700664,-0.09426221,0.34180057
54153268,0.15065888,-0.09606989,0.34171838
54154868,0.15066582,-0.09607755,0.340246
54163668,0.15066582,-0.09607755,0.340246
54172467,0.16125198,-0.085231476,0.34023952
54182870,0.16656527,-0.10513893,0.33595085
54192468,0.15418081,-0.08521615,0.34315097
54202911,0.16123763,-0.103292935,0.34327835
54212468,0.14356713,-0.085185505,0.34899053
54222867,0.16479416,-0.09970823,0.3373867
54232468,0.15766758,-0.09240089,0.35203955
54242887,0.1700246,-0.097831585,0.35065368
54271667,0.16650994,-0.09423156,0.34767345
54282868,0.14539377,-0.094292864,0.33579448
54291667,0.16302302,-0.09427754,0.3388225
54301287,0.14712329,-0.09606222,0.3431741
54311667,0.16300903,-0.09787756,0.3417861
54322868,0.16478053,-0.088846825,0.340275
54331668,0.15766731,-0.103246965,0.352096
54342867,0.16300885,-0.105108276,0.3418237
54351702,0.16300885,-0.105108276,0.3418237
54360472,0.15950839,-0.0906775,0.33584228
54370875,0.1612379,-0.09244686,0.3432219
54380468,0.1735813,-0.08701617,0.34472436
54390878,0.1524513,-0.08344679,0.33577135
54400468,0.15763995,-0.08513953,0.35789144
54410867,0.15068024,-0.07440074,0.33718836
54420469,0.14715119,-0.092477515,0.33726576
54431700,0.15770954,-0.0816008,0.3431488
54440473,0.15770954,-0.0816008,0.3431488
54449268,0.150652,-0.09244686,0.34317192
54459667,0.1665103,-0.079770125,0.3475982
54469288,0.14535199,-0.097862236,0.34464756
54479670,0.15946652,-0.097862236,0.34471416
54489298,0.15592407,-0.09423156,0.3476235
54499668,0.16302294,-0.09789289,0.33884132
54510069,0.15592416,-0.0906162,0.34760466
54519704,0.16650994,-0.09423156,0.34767345
54529268,0.16650994,-0.09423156,0.34767345
54539687,0.16650994,-0.09423156,0.34767345
54548468,0.15419453,-0.09246219,0.34024385
54559709,0.16306472,-0.09432351,0.32998824
54568469,0.16299513,-0.097862236,0.34473082
54578867,0.16123772,-0.09967758,0.34325954
54588468,0.15416646,-0.10327761,0.34618983
54599700,0.14709559,-0.09241622,0.34904483
54608468,0.15945262,-0.09784691,0.34765896
54619678,0.1630093,-0.0870315,0.34172964
54628478,0.1630093,-0.0870315,0.34172964
54637287,0.16646832,-0.09057022,0.35648894
54647667,0.15418072,-0.0888315,0.34316978
54657275,0.16657935,-0.09792354,0.33296847
54667667,0.15593797,-0.09424689,0.3446787
54678069,0.15943871,-0.097831585,0.35060373
54687698,0.15592398,-0.09784691,0.3476423
54698068,0.17540832,-0.0816621,0.33145308
54707675,0.15769564,-0.081585474,0.3460936
54718070,0.15769564,-0.081585474,0.3460936
54727710,0.15772308,-0.09607755,0.3402793
54736468,0.14358093,-0.08881617,0.3460646
54747684,0.15768148,-0.09241622,0.34909478
54756468,0.16469721,-0.08513953,0.35792476
54766869,0.16299495,-0.10509295,0.34476846
54776468,0.16480789,-0.10695427,0.33447957
54787667,0.16832316,-0.0852468,0.33732808
54796468,0.1630509,-0.090692826,0.33291417
54816468,0.1630509,-0.090692826,0.33291417
54825316,0.16657935,-0.09792354,0.33296847
54835679,0.1700525,-0.09424689,0.34474534
54846068,0.15766776,-0.08517018,0.3520019
54855726,0.16116822,-0.099600956,0.35798338
54866068,0.14888062,-0.097862236,0.34466422
54875714,0.16652375,-0.097862236,0.34474748
54886076,0.15415293,-0.088800855,0.3490593
54895688,0.16123772,-0.09967758,0.34325954
54906089,0.16123772,-0.09967758,0.34325954
54915687,0.16296741,-0.094216235,0.35060155
54924468,0.16298158,-0.08338549,0.34760037
54935667,0.14180972,-0.08700085,0.34751922
54944474,0.16126543,-0.10332359,0.33738884
54955667,0.16307844,-0.10156954,0.3270811
54964468,0.15588236,-0.09418558,0.35645777
54975667,0.15236755,-0.09781626,0.35351515
54984468,0.17006631,-0.09787756,0.3418194
55004485,0.17006631,-0.09787756,0.3418194
55013273,0.16830926,-0.085231476,0.34027284
55023703,0.15418072,-0.0888315,0.34316978
55034068,0.15946688,-0.083400816,0.3446389
55043681,0.163037,-0.0906775,0.33585894
55053283,0.17003912,-0.07253942,0.34757724
55063716,0.17183743,-0.10330826,0.34038356
55074089,0.14885281,-0.097831585,0.35055375
55083668,0.14892258,-0.08706215,0.3357735
55094111,0.14892258,-0.08706215,0.3357735
55103667,0.17005241,-0.097862236,0.34476414
55112467,0.14182317,-0.10509295,0.3446685
55123667,0.16300912,-0.09426221,0.34176725
55132468,0.15413885,-0.09601625,0.3520417
55143667,0.1647668,-0.0816008,0.34318212
55152473,0.16652375,-0.097862236,0.34474748
55163670,0.16653757,-0.10149292,0.34182155
55172468,0.16298132,-0.09423156,0.34765682
55191728,0.16300939,-0.08341614,0.3417108
55202067,0.16479468,-0.07801609,0.3372738
55211669,0.15243733,-0.087046824,0.3387349
55222069,0.15065174,-0.103292935,0.34322837
55231679,0.15418045,-0.09967758,0.34322622
55241275,0.1664963,-0.083370164,0.35056177
55251667,0.14182371,-0.083400816,0.34455565
55262090,0.15419497,-0.07438541,0.34014976
55271668,0.15419497,-0.07438541,0.34014976
55280479,0.15948051,-0.09426221,0.34175062
55291667,0.16125162,-0.0996929,0.34031478
55300468,0.15418063,-0.09244686,0.34318858
55311667,0.16302294,-0.09789289,0.33884132
55320468,0.15775071,-0.10333891,0.33442742
55331667,0.15418054,-0.09606222,0.34320742
55340468,0.1470955,-0.09603158,0.34906363
55351667,0.14362246,-0.09609287,0.33726794
55360503,0.14362246,-0.09609287,0.33726794
55379712,0.15247911,-0.08347744,0.32988182
55389278,0.17535226,-0.09967758,0.34332615
55399667,0.16129342,-0.096123524,0.3314617
55410103,0.15238145,-0.097831585,0.3505704
55419667,0.16476671,-0.08521615,0.34320092
55429268,0.16475263,-0.09243154,0.34618336
55439667,0.1718516,-0.092477515,0.33738238
55449272,0.16303691,-0.094292864,0.33587775
55459668,0.16303691,-0.094292864,0.33587775
55468511,0.17533845,-0.096046895,0.34625214
55479667,0.16472475,-0.09601625,0.35209167
55488491,0.14183752,-0.0870315,0.34162968
55499667,0.1612797,-0.08887748,0.33436882
55508491,0.16125189,-0.088846825,0.34025833
55519667,0.15604936,-0.08713877,0.321083
55528484,0.1611823,-0.09238557,0.35500094
55539667,0.15946643,-0.10147759,0.344733
55548491,0.15946643,-0.10147759,0.344733
55557268,0.16652402,-0.08701617,0.34469104
55567667,0.16300903,-0.09787756,0.3417861
55577268,0.16123798,-0.0888315,0.3432031
55587667,0.15062404,-0.09964693,0.3490991
55597268,0.15597948,-0.10152357,0.33588207
55607667,0.16296759,-0.08698552,0.3505639
55617278,0.16130732,-0.09613885,0.32851696
55627667,0.14537998,-0.090662174,0.3387204
55638073,0.14537998,-0.090662174,0.3387204
55647668,0.14537998,-0.090662174,0.3387204
55656494,0.15065227,-0.0816008,0.34311548
55667667,0.16473892,-0.085185505,0.3490905
55676500,0.16296768,-0.083370164,0.3505451
55687667,0.16302267,-0.10873896,0.33889776
55696479,0.14359474,-0.09244686,0.34313864
55707667,0.15240952,-0.08701617,0.34462443
55716488,0.15427794,-0.092554145,0.32257527
55727667,0.16303718,-0.08344679,0.3358213
55736468,0.16303718,-0.08344679,0.3358213
55745268,0.17186533,-0.099723555,0.33447525
55755667,0.17538033,-0.08886215,0.3373802
55765267,0.1577236,-0.07438541,0.34016642
55775667,0.13832279,-0.087046824,0.3386683
55785268,0.16298158,-0.08338549,0.34760037
55795667,0.17885308,-0.09964693,0.34923235
55805282,0.16303734,-0.07621607,0.3357837
55815667,0.16473901,-0.081570156,0.34907165
55826076,0.16473901,-0.081570156,0.34907165
55835667,0.16299558,-0.07978545,0.34463677
55845279,0.1717961,-0.088800855,0.3491426
55855667,0.15595196,-0.09064685,0.34171513
55864504,0.15769546,-0.08881617,0.3461312
55875667,0.15591052,-0.0797548,0.35049298
55884468,0.16655156,-0.09789289,0.33885798
55895667,0.15772326,-0.088846825,0.34024167
55904468,0.13476636,-0.08701617,0.34454113
55924478,0.13476636,-0.08701617,0.34454113
55933308,0.15592407,-0.09423156,0.3476235
55943667,0.14710948,-0.09243154,0.34610006
55953268,0.15242334,-0.09064685,0.34169847
55963667,0.15948007,-0.112339,0.34184468
55973268,0.15948078,-0.08341614,0.34169418
55983667,0.15770927,-0.09244686,0.34320524
55993267,0.16653775,-0.09426221,0.3417839
56003667,0.16295342,-0.09781626,0.35356513
56014068,0.16295342,-0.09781626,0.35356513
56023667,0.15592425,-0.08700085,0.34758586
56032468,0.16300939,-0.08341614,0.3417108
56043671,0.1506939,-0.08526213,0.33430004
56052468,0.15239571,-0.08338549,0.3475504
56063667,0.17006658,-0.0870315,0.34176296
56072468,0.16828118,-0.096046895,0.34621882
56083667,0.15062386,-0.10687765,0.34913674
56092468,0.15066573,-0.0996929,0.3402648
56111667,0.15770954,-0.0816008,0.3431488
56121268,0.15418027,-0.10690829,0.34326386
56131667,0.16125189,-0.088846825,0.34025833
56141267,0.15419444,-0.09607755,0.34026265
56151667,0.17713746,-0.09789289,0.33890796
56161304,0.15415327,-0.07433944,0.34898406
56171667,0.16303682,-0.097908214,0.33589658
56181316,0.15423624,-0.09250817,0.33140957
56191668,0.15423624,-0.09250817,0.33140957
56200468,0.15593815,-0.08701617,0.3446411
56211667,0.1594945,-0.090662174,0.33878705
56220468,0.14889443,-0.10149292,0.34173825
56231667,0.16479434,-0.092477515,0.33734906
56240468,0.15596604,-0.08343147,0.33873275
56251667,0.15242307,-0.10149292,0.3417549
56260469,0.16476645,-0.09606222,0.34325737
56271672,0.16473892,-0.085185505,0.3490905
56280468,0.16473892,-0.085185505,0.3490905
56299669,0.15948051,-0.09426221,0.34175062
56309283,0.16126588,-0.0852468,0.33729476
56319667,0.14358118,-0.07797011,0.34600815
56329304,0.16653784,-0.09064685,0.3417651
56339667,0.16653793,-0.0870315,0.3417463
56349278,0.16832298,-0.092477515,0.33736572
56359667,0.16649595,-0.097831585,0.35063702
56369283,0.15942472,-0.101431616,0.35356727
56379668,0.15942472,-0.101431616,0.35356727
56388468,0.16122372,-0.10327761,0.34622315
56399667,0.16475272,-0.08881617,0.34616452
56408468,0.15770918,-0.09606222,0.34322405
56419667,0.15766792,-0.077939466,0.3519643
56428468,0.1472068,-0.09253882,0.32548675
56439668,0.15773726,-0.0852468,0.3372781
56448468,0.15413885,-0.09601625,0.3520417
56459667,0.15069363,-0.0961082,0.3343565
56468509,0.15069363,-0.0961082,0.3343565
56477268,0.14883891,-0.09781626,0.3534985
56487667,0.15597957,-0.097908214,0.33586326
56497268,0.16476636,-0.09967758,0.3432762
56507667,0.16646823,-0.09418558,0.35650775
56517299,0.14533827,-0.0906162,0.3475547
56527667,0.15596569,-0.09789289,0.338808
56537268,0.1595501,-0.09072347,0.327008
56547667,0.15068015,-0.07801609,0.33720717
56557268,0.16126579,-0.08886215,0.3373136
56567668,0.16126579,-0.08886215,0.3373136
56576468,0.16114086,-0.08149353,0.3637788
56587667,0.15943871,-0.097831585,0.35060373
56596467,0.17710993,-0.08701617,0.34474102
56607667,0.14363688,-0.074416064,0.33421028
56616468,0.16648214,-0.09420091,0.35356298
56627667,0.15413903,-0.08878553,0.35200408
56636487,0.15243724,-0.090662174,0.33875373
56647667,0.15949433,-0.09789289,0.33882466
56656501,0.15949433,-0.09789289,0.33882466
56665305,0.15943871,-0.097831585,0.35060373
56675667,0.15589635,-0.090585545,0.3534942
56685294,0.15419462,-0.088846825,0.340225
56695667,0.148839,-0.09420091,0.35347968
56705268,0.15593779,-0.10147759,0.34471634
56715667,0.15240908,-0.10509295,0.3447185
56725267,0.15420817,-0.10332359,0.33735552
56735667,0.1612657,-0.092477515,0.3373324
56746096,0.1612657,-0.092477515,0.3373324
56755667,0.15415275,-0.09603158,0.34909695
56764468,0.14885281,-0.097831585,0.35055375
56775667,0.15949433,-0.09789289,0.33882466
56784468,0.16478044,-0.09246219,0.3402938
56795667,0.15418054,-0.09606222,0.34320742
56804487,0.15770954,-0.0816008,0.3431488
56815667,0.16303718,-0.08344679,0.3358213
56824478,0.15950812,-0.10152357,0.33589873
56844482,0.15950812,-0.10152357,0.33589873
56853301,0.15240952,-0.08701617,0.34462443
56863667,0.1629675,-0.09060087,0.35058275
56873278,0.16129385,-0.07804674,0.33136764
56883667,0.14359474,-0.09244686,0.34313864
56893268,0.15596569,-0.09789289,0.338808
56903667,0.15591016,-0.094216235,0.35056823
56913268,0.15770891,-0.10690829,0.3432805
56923679,0.15063801,-0.096046895,0.34613553
56934068,0.15063801,-0.096046895,0.34613553
56943672,0.16298167,-0.079770125,0.34758154
56952468,0.16300912,-0.09426221,0.34176725
56963667,0.1488529,-0.094216235,0.35053492
56972501,0.15239587,-0.07615477,0.34751275
56983667,0.16482188,-0.10335424,0.331516
56992511,0.17355314,-0.10144694,0.35068917
57003667,0.16302338,-0.0798161,0.33874726
57012469,0.1594388,-0.094216235,0.3505849
57031667,0.15950873,-0.07621607,0.33576703
57041268,0.16655147,-0.101508245,0.33887678
57051667,0.16125189,-0.088846825,0.34025833
57061268,0.15946661,-0.09424689,0.34469536
57071667,0.16653775,-0.09426221,0.3417839
57081267,0.16476688,-0.077985436,0.3431633
57091667,0.15952212,-0.09792354,0.33293515
57101268,0.15419462,-0.088846825,0.340225
57111668,0.15419462,-0.088846825,0.340225
57122076,0.15419462,-0.088846825,0.340225
57131667,0.15416637,-0.106892966,0.34620863
57140488,0.15242377,-0.07257007,0.3416044
57151667,0.15420844,-0.092477515,0.33729908
57160518,0.1612797,-0.08887748,0.33436882
57171667,0.15066573,-0.0996929,0.3402648
57180468,0.15416682,-0.08881617,0.34611458
57191676,0.1629814,-0.0906162,0.34763798
57200468,0.1629814,-0.0906162,0.34763798
57219667,0.17001061,-0.101431616,0.35361725
57229267,0.16302302,-0.09427754,0.3388225
57239667,0.15949468,-0.08343147,0.3387494
57249268,0.15065227,-0.0816008,0.34311548
57259667,0.15766776,-0.08517018,0.3520019
57269267,0.17183761,-0.09607755,0.34034595
57279672,0.15240908,-0.10509295,0.3447185
57289267,0.1612657,-0.092477515,0.3373324
57299677,0.1612657,-0.092477515,0.3373324
57308513,0.14528283,-0.08332419,0.3592961
57319667,0.15591069,-0.07252409,0.35045534
57328501,0.15592434,-0.08338549,0.34756705
57339667,0.14889497,-0.07980078,0.3416254
57348496,0.1665658,-0.08344679,0.33583796
57359680,0.161224,-0.09243154,0.3461667
57368512,0.16126534,-0.10693894,0.33740765
57379667,0.15772317,-0.09246219,0.3402605
57388493,0.15772317,-0.09246219,0.3402605
57407667,0.15591016,-0.094216235,0.35056823
57417268,0.15773708,-0.092477515,0.33731574
57427668,0.1629536,-0.090585545,0.3535275
57437268,0.1489224,-0.094292864,0.33581114
57447667,0.15772317,-0.09246219,0.3402605
57457267,0.14712338,-0.09244686,0.34315526
57467667,0.15949415,-0.1051236,0.3388623
57477267,0.17009392,-0.10513893,0.3359675
57487671,0.17009392,-0.10513893,0.3359675
57496511,0.16655192,-0.08343147,0.33878273
57507667,0.15243724,-0.090662174,0.33875373
57516467,0.1594667,-0.09063152,0.34467655
57527680,0.14882536,-0.08333951,0.35636804
57536468,0.15243715,-0.09427754,0.33877254
57547712,0.1612518,-0.09246219,0.34027717
57556468,0.16653766,-0.09787756,0.34180275
57567701,0.17359485,-0.10149292,0.34185487
57576468,0.17359485,-0.10149292,0.34185487
57585268,0.15415293,-0.088800855,0.3490593
57595667,0.16126561,-0.09609287,0.3373512
57605268,0.15591034,-0.08698552,0.35053062
57615667,0.16476645,-0.09606222,0.34325737
57625268,0.14359483,-0.0888315,0.3431198
57635667,0.15061022,-0.09601625,0.35202503
57645267,0.168281,-0.10327761,0.34625643
57655667,0.15775098,-0.09249284,0.33437097
57666076,0.15775098,-0.09249284,0.33437097
57675667,0.14360864,-0.09246219,0.34019387
57684468,0.16126588,-0.0852468,0.33729476
57694931,0.16653766,-0.09787756,0.34180275
57704468,0.15597966,-0.094292864,0.33584443
57715715,0.15945253,-0.10146227,0.34767777
57724468,0.15240952,-0.08701617,0.34462443
57735701,0.15773699,-0.09609287,0.33733454
57744468,0.15945262,-0.09784691,0.34765896
57764469,0.15945262,-0.09784691,0.34765896
57773267,0.16651003,-0.0906162,0.34765464
57783667,0.16299504,-0.10147759,0.34474966
57793268,0.17712365,-0.09426221,0.3418339
57803667,0.17005232,-0.10147759,0.34478295
57813268,0.14712329,-0.09606222,0.3431741
57823667,0.1559794,-0.10513893,0.33590087
57833268,0.14710975,-0.081585474,0.34604362
57843714,0.16305064,-0.1015389,0.33297062
57854068,0.16305064,-0.1015389,0.33297062
57863713,0.16123807,-0.08521615,0.34318426
57872468,0.15245095,-0.097908214,0.3358466
57883715,0.15769519,-0.09966225,0.34618765
57892468,0.15591034,-0.08698552,0.35053062
57903673,0.14883891,-0.09781626,0.3534985
57912468,0.15065219,-0.08521615,0.3431343
57923704,0.15949433,-0.09789289,0.33882466
57932468,0.15413876,-0.09963161,0.35206053
57951667,0.15769528,-0.096046895,0.34616885
57961268,0.15240926,-0.097862236,0.34468088
57971671,0.14365017,-0.09973888,0.33139724
57981268,0.16833688,-0.09249284,0.33442095
57991701,0.15949433,-0.09789289,0.33882466
58001268,0.1611544,-0.09597027,0.3609093
58011668,0.15065183,-0.09967758,0.34320956
58021268,0.15770927,-0.09244686,0.34320524
58031714,0.15770927,-0.09244686,0.34320524
58040468,0.16652384,-0.09424689,0.34472868
58051689,0.1647243,-0.11409303,0.35218576
58060486,0.14892249,-0.0906775,0.3357923
58071667,0.15420835,-0.09609287,0.33731788
58080468,0.15413894,-0.09240089,0.3520229
58091667,0.16653757,-0.10149292,0.34182155
58100477,0.15418027,-0.10690829,0.34326386
58111682,0.14709586,-0.081570156,0.34898838
58120469,0.14709586,-0.081570156,0.34898838
58139690,0.1683228,-0.09970823,0.33740333
58149268,0.15773672,-0.10693894,0.337391
58159694,0.15596586,-0.090662174,0.3387704
58169268,0.15068024,-0.07440074,0.33718836
58179673,0.16473874,-0.09241622,0.3491281
58189269,0.15066591,-0.09246219,0.3402272
58199692,0.16298132,-0.09423156,0.34765682
58209268,0.15945314,-0.07615477,0.34754607
58219668,0.15945314,-0.07615477,0.34754607
58228492,0.1753519,-0.114139,0.34340143
58239667,0.14532436,-0.09060087,0.35049945
58248468,0.15418063,-0.09244686,0.34318858
58259667,0.1594527,-0.09423156,0.34764016
58268491,0.1612102,-0.088800855,0.34909263
58279667,0.16299522,-0.09424689,0.34471202
58288509,0.15773726,-0.0852468,0.3372781
58299687,0.16655165,-0.09427754,0.33883917
58308500,0.16655165,-0.09427754,0.33883917
58317267,0.16298167,-0.079770125,0.34758154
58327680,0.16476662,-0.0888315,0.34321976
58337268,0.17538033,-0.08886215,0.3373802
58347702,0.14366443,-0.08529278,0.32837722
58357278,0.15240943,-0.09063152,0.34464324
58367669,0.154167,-0.081585474,0.34607694
58377277,0.14713746,-0.085231476,0.3401729
58387667,0.15066591,-0.09246219,0.3402272
58398068,0.15066591,-0.09246219,0.3402272
58407668,0.15066591,-0.09246219,0.3402272
58417287,0.15769571,-0.07797011,0.34607476
58427667,0.16121045,-0.07795479,0.3490362
58436468,0.1683506,-0.09973888,0.33151382
58447667,0.15239526,-0.10146227,0.34764445
58456468,0.161224,-0.09243154,0.3461667
58467686,0.15062404,-0.09964693,0.3490991
58476468,0.16485022,-0.081692755,0.3255136
58496514,0.16485022,-0.081692755,0.3255136
58505269,0.1612379,-0.09244686,0.3432219
58515667,0.15775089,-0.0961082,0.3343898
58525308,0.15065183,-0.09967758,0.34320956
58535667,0.15773699,-0.09609287,0.33733454
58545275,0.17180999,-0.08881617,0.34619784
58555667,0.14716482,-0.10333891,0.33437747
58565267,0.16650985,-0.09784691,0.34769228
58575667,0.15592407,-0.09423156,0.3476235
58586069,0.15592407,-0.09423156,0.3476235
58595667,0.16300948,-0.07980078,0.341692
58604468,0.16653793,-0.0870315,0.3417463
58615667,0.159411,-0.09418558,0.35647443
58624468,0.150666,-0.088846825,0.34020835
58635686,0.16476636,-0.09967758,0.3432762
58644522,0.14360882,-0.085231476,0.34015623
58655714,0.14890824,-0.1051236,0.33881232
58664467,0.17187959,-0.08527745,0.33145523
58683667,0.15423597,-0.10335424,0.33146602
58693268,0.16303691,-0.094292864,0.33587775
58703667,0.16828136,-0.08881617,0.34618118
58713268,0.14362273,-0.0852468,0.3372115
58723667,0.16656597,-0.07621607,0.33580035
58733278,0.17005286,-0.07978545,0.3446701
58743667,0.1524513,-0.08344679,0.33577135
58753276,0.16125207,-0.081616126,0.34022072
58763668,0.16125207,-0.081616126,0.34022072
58774068,0.16125207,-0.081616126,0.34022072
58783668,0.15943898,-0.08698552,0.35054728
58792513,0.16121037,-0.081570156,0.349055
58803686,0.150652,-0.09244686,0.34317192
58812502,0.14889452,-0.09787756,0.34171945
58823710,0.16476654,-0.09244686,0.34323856
58832510,0.1488807,-0.09424689,0.34464538
58843667,0.15061022,-0.09601625,0.35202503
58852489,0.14006612,-0.09244686,0.34312198
58871667,0.15595214,-0.08341614,0.34167752
58881268,0.15769528,-0.096046895,0.34616885
58891667,0.15416646,-0.10327761,0.34618983
58901267,0.15945262,-0.09784691,0.34765896
58911667,0.16829526,-0.0888315,0.34323642
58921276,0.15948051,-0.09426221,0.34175062
58931667,0.14185107,-0.101508245,0.3387602
58941304,0.15061022,-0.09601625,0.35202503
58951667,0.15061022,-0.09601625,0.35202503
58960496,0.15776488,-0.09250817,0.33142623
58971686,0.16655165,-0.09427754,0.33883917
58980479,0.1647807,-0.081616126,0.34023738
58991711,0.17006622,-0.10149292,0.3418382
59000497,0.16475263,-0.09243154,0.34618336
59011667,0.15950839,-0.0906775,0.33584228
59020468,0.16821195,-0.0851242,0.3608862
59031667,0.15770909,-0.09967758,0.34324288
59040468,0.15770909,-0.09967758,0.34324288
59049281,0.15065183,-0.09967758,0.34320956
59059667,0.14890887,-0.0798161,0.33868062
59069269,0.15945262,-0.09784691,0.34765896
59079667,0.1559801,-0.07621607,0.33575037
59089311,0.14353932,-0.085154854,0.35488003
59099667,0.15595151,-0.10872363,0.3418092
59109303,0.1683367,-0.099723555,0.3344586
59119668,0.16125189,-0.088846825,0.34025833
59130068,0.16125189,-0.088846825,0.34025833
59139691,0.16125189,-0.088846825,0.34025833
59148499,0.16123763,-0.103292935,0.34327835
59159689,0.15766776,-0.08517018,0.3520019
59168468,0.15419462,-0.088846825,0.340225
59179667,0.16298096,-0.10869298,0.34773207
59188478,0.15945253,-0.10146227,0.34767777
59199667,0.1630093,-0.0870315,0.34172964
59208479,0.15062413,-0.09603158,0.3490803
59219667,0.15245113,-0.0906775,0.33580896
59228479,0.15245113,-0.0906775,0.33580896
59237267,0.1612657,-0.092477515,0.3373324
59247667,0.16476671,-0.08521615,0.34320092
59257304,0.15063792,-0.09966225,0.34615436
59267667,0.15950821,-0.097908214,0.33587992
59277304,0.16300912,-0.09426221,0.34176725
59287667,0.14715119,-0.092477515,0.33726576
59297301,0.1559245,-0.07615477,0.3475294
59307687,0.16476654,-0.09244686,0.34323856
59318068,0.16476654,-0.09244686,0.34323856
59327692,0.16832289,-0.09609287,0.33738452
59336468,0.13830853,-0.10149292,0.3416883
59347667,0.1683506,-0.09973888,0.33151382
59356468,0.15422225,-0.0961082,0.33437315
59367667,0.14889479,-0.0870315,0.341663
59376468,0.14178146,-0.10504697,0.3535028
59387667,0.15593797,-0.09424689,0.3446787
59396480,0.15066618,-0.081616126,0.34017074
59415667,0.15240943,-0.09063152,0.34464324
59425305,0.15239562,-0.08700085,0.3475692
59435668,0.1594528,-0.0906162,0.34762132
59445278,0.16121002,-0.09603158,0.34913027
59455667,0.150666,-0.088846825,0.34020835
59465300,0.15239535,-0.09784691,0.34762564
59475686,0.17535226,-0.09967758,0.34332615
59485317,0.1664964,-0.0797548,0.35054296
59495718,0.1664964,-0.0797548,0.35054296
59506089,0.1664964,-0.0797548,0.35054296
59515678,0.16830899,-0.09607755,0.3403293
59524468,0.1700804,-0.090662174,0.338837
59535667,0.16478017,-0.10330826,0.34035024
59544468,0.15069371,-0.09249284,0.33433768
59555667,0.15239571,-0.08338549,0.3475504
59564468,0.14885272,-0.10144694,0.35057256
59575667,0.15591016,-0.094216235,0.35056823
59584468,0.15592398,-0.09784691,0.3476423
59603667,0.16122417,-0.085200824,0.34612906
59613278,0.14885299,-0.09060087,0.3505161
59623667,0.15949397,-0.11235432,0.33889994
59633312,0.16475263,-0.09243154,0.34618336
59643675,0.1488668,-0.09423156,0.34759018
59653294,0.15770936,-0.0888315,0.34318644
59663711,0.16652411,-0.083400816,0.34467223
59673268,0.1612101,-0.09241622,0.34911144
59683673,0.1612101,-0.09241622,0.34911144
59692477,0.1612518,-0.09246219,0.34027717
59703667,0.14362255,-0.092477515,0.3372491
59712468,0.16822568,-0.09237024,0.35797906
59723667,0.14180963,-0.0906162,0.34753805
59732477,0.14008029,-0.081616126,0.34012076
59743667,0.14710921,-0.10327761,0.3461565
59752468,0.16295351,-0.09420091,0.35354632
59763667,0.16829535,-0.08521615,0.34321758
59772474,0.16829535,-0.08521615,0.34321758
59781278,0.17535235,-0.09606222,0.34330735
59791667,0.15946661,-0.09424689,0.34469536
59801294,0.15766749,-0.09601625,0.35205835
59811675,0.16828145,-0.085200824,0.34616238
59821278,0.15948069,-0.0870315,0.34171298
59831711,0.15243715,-0.09427754,0.33877254
59841280,0.16479425,-0.09609287,0.33736786
59851679,0.16296723,-0.10144694,0.3506392
59862116,0.16296723,-0.10144694,0.3506392
59871667,0.14888062,-0.097862236,0.34466422
59880468,0.1594945,-0.090662174,0.33878705
59891667,0.1594528,-0.0906162,0.34762132
59900474,0.16651012,-0.08700085,0.34763584
59911667,0.15416682,-0.08881617,0.34611458
59920468,0.1612518,-0.09246219,0.34027717
59931667,0.1559663,-0.0725854,0.3386763
59940468,0.15420853,-0.08886215,0.33728027
59960468,0.15420853,-0.08886215,0.33728027
59969268,0.16303682,-0.097908214,0.33589658
59979675,0.16476636,-0.09967758,0.3432762
59989271,0.14539413,-0.07983143,0.3357192
59999711,0.15591025,-0.09060087,0.35054943
60009268,0.16653766,-0.09787756,0.34180275
60019675,0.15943871,-0.097831585,0.35060373
60029268,0.1718238,-0.09244686,0.34327188
60039668,0.1718238,-0.09244686,0.34327188
60049268,0.1718238,-0.09244686,0.34327188
60059667,0.1488808,-0.09063152,0.34462658
60068470,0.17005268,-0.08701617,0.3447077
60079667,0.14535181,-0.10509295,0.34468517
60088468,0.1647939,-0.1105543,0.3374431
60099667,0.15238154,-0.094216235,0.35055158
60108468,0.15062413,-0.09603158,0.3490803
60119667,0.1736229,-0.0906775,0.33590892
60128468,0.16129342,-0.096123524,0.3314617
60147687,0.16653775,-0.09426221,0.3417839
60157268,0.15949441,-0.09427754,0.33880585
60167714,0.15945262,-0.09784691,0.34765896
60177288,0.16296706,-0.108677655,0.3506768
60187672,0.17529684,-0.09238557,0.35506758
60197267,0.14535208,-0.09424689,0.34462872
60207668,0.1506938,-0.08887748,0.33431885
60217268,0.15950839,-0.0906775,0.33584228
60227668,0.15950839,-0.0906775,0.33584228
60236476,0.14883927,-0.08335484,0.35342324
60247667,0.16298114,-0.10146227,0.34769443
60256468,0.14712329,-0.09606222,0.3431741
60267667,0.15066573,-0.0996929,0.3402648
60276468,0.15249248,-0.1051849,0.32704997
60287667,0.15243715,-0.09427754,0.33877254
60296468,0.1577508,-0.099723555,0.3344086
60307667,0.15242307,-0.10149292,0.3417549
60316483,0.15242307,-0.10149292,0.3417549
60325272,0.1718238,-0.09244686,0.34327188
60335692,0.16656572,-0.08706215,0.3358568
60345268,0.15247884,-0.09432351,0.32993826
60355667,0.1611823,-0.09238557,0.35500094
60365268,0.16299531,-0.09063152,0.3446932
60375667,0.1612935,-0.09250817,0.3314429
60385268,0.15770918,-0.09606222,0.34322405
60395667,0.16125144,-0.10692362,0.34035242
60406068,0.16125144,-0.10692362,0.34035242
60415668,0.16125144,-0.10692362,0.34035242
60424468,0.16300876,-0.10872363,0.34184253
60435667,0.17003903,-0.07615477,0.34759605
60444468,0.14892249,-0.0906775,0.3357923
60455667,0.1629397,-0.09057022,0.35647228
60464477,0.16823949,-0.096000925,0.3550531
60475672,0.13828099,-0.0906162,0.3475214
60484467,0.17355323,-0.097831585,0.35067034
60495675,0.15238172,-0.08698552,0.35051396
60504468,0.15238172,-0.08698552,0.35051396
60513272,0.14713728,-0.09246219,0.34021053
60523678,0.15769519,-0.09966225,0.34618765
60533272,0.15242307,-0.10149292,0.3417549
60543667,0.16126561,-0.09609287,0.3373512
60553268,0.16125189,-0.088846825,0.34025833
60563667,0.1594527,-0.09423156,0.34764016
60573267,0.16653802,-0.08341614,0.34172747
60583669,0.16123798,-0.0888315,0.3432031
60594068,0.16123798,-0.0888315,0.3432031
60603667,0.15598002,-0.07983143,0.33576918
60612468,0.15597993,-0.08344679,0.335788
60623667,0.16829509,-0.09606222,0.34327403
60632468,0.15589644,-0.086970195,0.35347536
60643682,0.15061031,-0.09240089,0.35200623
60652467,0.16125189,-0.088846825,0.34025833
60663669,0.16832298,-0.092477515,0.33736572
60672468,0.15420862,-0.0852468,0.33726147
60682878,0.15420862,-0.0852468,0.33726147
60691690,0.15246512,-0.087077476,0.3328454
60701268,0.15415284,-0.09241622,0.34907812
60711697,0.16123798,-0.0888315,0.3432031
60721268,0.14355278,-0.103246965,0.35202935
60731667,0.16302294,-0.09789289,0.33884132
60741267,0.14890815,-0.10873896,0.33883113
60751667,0.1612378,-0.09606222,0.3432407
60761268,0.15243733,-0.087046824,0.3387349
60771668,0.15243733,-0.087046824,0.3387349
60780467,0.17003877,-0.08700085,0.3476525
60791667,0.14716482,-0.10333891,0.33437747
60800468,0.16476662,-0.0888315,0.34321976
60811667,0.16657953,-0.090692826,0.33293083
60820479,0.14888106,-0.07978545,0.34457013
60831667,0.16296768,-0.083370164,0.3505451
60840468,0.1611962,-0.09240089,0.3520562
60851701,0.1506104,-0.08878553,0.35198742
60860468,0.1506104,-0.08878553,0.35198742
60869267,0.15945226,-0.112308346,0.3477342
60879667,0.17178228,-0.08517018,0.35206854
60889268,0.15770954,-0.0816008,0.3431488
60899700,0.15596595,-0.087046824,0.33875155
60910067,0.15243733,-0.087046824,0.3387349
60919667,0.15415257,-0.10326229,0.34913456
60929268,0.14886671,-0.09784691,0.34760898
60939667,0.15592425,-0.08700085,0.34758586
60950068,0.15592425,-0.08700085,0.34758586
60959668,0.15592425,-0.08700085,0.34758586
60968468,0.15592434,-0.08338549,0.34756705
60979701,0.16299531,-0.09063152,0.3446932
60988468,0.15072125,-0.103369564,0.3285046
60999673,0.16298123,-0.09784691,0.34767562
61008468,0.15591025,-0.09060087,0.35054943
61019701,0.15769564,-0.081585474,0.3460936
61028475,0.14893657,-0.08346212,0.33280993
61039674,0.1594528,-0.0906162,0.34762132
61048468,0.1594528,-0.0906162,0.34762132
61057268,0.15941082,-0.10141629,0.35651207
61067706,0.16825357,-0.08878553,0.3520707
61077267,0.14892249,-0.0906775,0.3357923
61087667,0.1594667,-0.09063152,0.34467655
61097267,0.17179619,-0.085185505,0.34912378
61107667,0.1506382,-0.08881617,0.34609792
61117268,0.14359456,-0.09967758,0.34317625
61127713,0.15592425,-0.08700085,0.34758586
61138068,0.15592425,-0.08700085,0.34758586
61147701,0.16657953,-0.090692826,0.33293083
61156469,0.15596578,-0.09427754,0.3387892
61167673,0.16125162,-0.0996929,0.34031478
61176468,0.1577647,-0.09973888,0.33146387
61187668,0.16123745,-0.11052365,0.343316
61196470,0.15066582,-0.09607755,0.340246
61207703,0.16829509,-0.09606222,0.34327403
61216468,0.15765376,-0.0887702,0.35496548
61235696,0.17359512,-0.09064685,0.34179842
61245268,0.16302338,-0.0798161,0.33874726
61255667,0.1541948,-0.081616126,0.3401874
61265268,0.14713737,-0.088846825,0.34019172
61275701,0.16300939,-0.08341614,0.3417108
61285268,0.15591025,-0.09060087,0.35054943
61295711,0.15949441,-0.09427754,0.33880585
61305267,0.15948051,-0.09426221,0.34175062
61315705,0.15948051,-0.09426221,0.34175062
61324468,0.15769546,-0.08881617,0.3461312
61335703,0.150652,-0.09244686,0.34317192
61344468,0.17538033,-0.08886215,0.3373802
61355693,0.15950839,-0.0906775,0.33584228
61364468,0.16118248,-0.085154854,0.35496333
61375667,0.15775071,-0.10333891,0.33442742
61384473,0.17187932,-0.096123524,0.33151168
61395667,0.15420844,-0.092477515,0.33729908
61404470,0.15420844,-0.092477515,0.33729908
61413268,0.15943854,-0.1050623,0.35064134
61423690,0.14710939,-0.096046895,0.34611887
61433268,0.1612239,-0.096046895,0.3461855
61443689,0.1400246,-0.08517018,0.35191864
61453268,0.14715137,-0.0852468,0.33722815
61463669,0.14713702,-0.10330826,0.34026697
61473268,0.14883882,-0.101431616,0.35351732
61483678,0.16295369,-0.086970195,0.35350868
61494069,0.16295369,-0.086970195,0.35350868
61503668,0.16295369,-0.086970195,0.35350868
61512468,0.15769546,-0.08881617,0.3461312
61523667,0.15775098,-0.09249284,0.33437097
61532468,0.15773708,-0.092477515,0.33731574
61543667,0.15945262,-0.09784691,0.34765896
61552468,0.16299565,-0.076170094,0.34461793
61563667,0.15418081,-0.08521615,0.34315097
61572469,0.17535208,-0.10690829,0.3433638
61583667,0.16475263,-0.09243154,0.34618336
61601268,0.1471511,-0.09609287,0.3372846
61611714,0.17358103,-0.097862236,0.3447808
61621281,0.15942526,-0.079739474,0.3534544
61631694,0.15418036,-0.103292935,0.34324503
61641268,0.15415318,-0.07795479,0.34900287
61651667,0.1541948,-0.081616126,0.3401874
61661268,0.1453248,-0.07252409,0.3504054
61671667,0.15596604,-0.08343147,0.33873275
61682071,0.15596604,-0.08343147,0.33873275
61691667,0.15242325,-0.09426221,0.3417173
61700475,0.16479416,-0.09970823,0.3373867
61711681,0.15954992,-0.097954184,0.32704565
61720473,0.1594667,-0.09063152,0.34467655
61731667,0.17539424,-0.08887748,0.33443546
61740468,0.1594527,-0.09423156,0.34764016
61751669,0.15772335,-0.085231476,0.34022287
61760476,0.16650985,-0.09784691,0.34769228
61779688,0.15422216,-0.099723555,0.33439195
61789268,0.18061031,-0.1050623,0.3507413
61799667,0.16651012,-0.08700085,0.34763584
61809268,0.15952238,-0.087077476,0.3328787
61819667,0.17003886,-0.08338549,0.34763366
61829268,0.15240943,-0.09063152,0.34464324
61839667,0.1594806,-0.09064685,0.3417318
61849268,0.17181017,-0.081585474,0.3461602
61859668,0.17181017,-0.081585474,0.3461602
61868505,0.15591025,-0.09060087,0.35054943
61879668,0.1488251,-0.09418558,0.35642448
61888492,0.16656572,-0.08706215,0.3358568
61899667,0.15593824,-0.083400816,0.34462225
61908503,0.15240908,-0.10509295,0.3447185
61919667,0.14715101,-0.09970823,0.3373034
61928528,0.15062422,-0.09241622,0.34906146
61939667,0.16830917,-0.088846825,0.34029165
61948503,0.16830917,-0.088846825,0.34029165
61967667,0.1612101,-0.09241622,0.34911144
61977268,0.15953602,-0.09793886,0.32999042
61987667,0.16126552,-0.09970823,0.33737004
61997268,0.16652384,-0.09424689,0.34472868
62007668,0.16651003,-0.0906162,0.34765464
62017268,0.15240926,-0.097862236,0.34468088
62027667,0.17006613,-0.105108276,0.34185702
62037269,0.17006631,-0.09787756,0.3418194
62047668,0.17006631,-0.09787756,0.3418194
62056467,0.16121037,-0.081570156,0.349055
62067667,0.16832289,-0.09609287,0.33738452
62076470,0.1594945,-0.090662174,0.33878705
62087667,0.16479461,-0.08163145,0.3372926
62096486,0.16829517,-0.09244686,0.34325522
62107667,0.16828161,-0.07797011,0.34612474
62116498,0.15770945,-0.08521615,0.34316763
62127667,0.14888114,-0.076170094,0.34455132
62136501,0.14888114,-0.076170094,0.34455132
62145268,0.15943862,-0.10144694,0.35062253
62155667,0.16295369,-0.086970195,0.35350868
62165268,0.147179,-0.09250817,0.33137625
62175667,0.16653784,-0.09064685,0.3417651
62185268,0.15595214,-0.08341614,0.34167752
62195667,0.15595205,-0.0870315,0.34169632
62205268,0.15240926,-0.097862236,0.34468088
62215667,0.17709567,-0.10146227,0.34776106
62226069,0.17709567,-0.10146227,0.34776106
62235667,0.16123772,-0.09967758,0.34325954
62244511,0.15422198,-0.10695427,0.3344296
62255667,0.16475281,-0.085200824,0.34614572
62264505,0.1629815,-0.08700085,0.34761918
62275667,0.157723,-0.0996929,0.34029812
62284508,0.16830899,-0.09607755,0.3403293
62295667,0.14008036,-0.07800076,0.34010196
62304468,0.16479434,-0.092477515,0.33734906
62323667,0.15595187,-0.09426221,0.34173396
62333280,0.1489363,-0.09430819,0.33286637
62343667,0.16476627,-0.103292935,0.343295
62353278,0.16125153,-0.10330826,0.34033358
62363667,0.15772317,-0.09246219,0.3402605
62373287,0.17003842,-0.10146227,0.34772775
62383667,0.16298114,-0.10146227,0.34769443
62393275,0.15946688,-0.083400816,0.3446389
62403675,0.15946688,-0.083400816,0.3446389
62412515,0.1718656,-0.08887748,0.3344188
62423667,0.16476662,-0.0888315,0.34321976
62432528,0.15069371,-0.09249284,0.33433768
62443667,0.15416664,-0.096046895,0.3461522
62452478,0.16126552,-0.09970823,0.33737004
62463667,0.15949494,-0.0725854,0.33869296
62472470,0.15772335,-0.085231476,0.34022287
62483667,0.15769537,-0.09243154,0.34615004
62492470,0.15769537,-0.09243154,0.34615004
62511667,0.14366426,-0.09252349,0.32841486
62521267,0.15065227,-0.0816008,0.34311548
62531667,0.16651021,-0.08338549,0.34761703
62541273,0.16296741,-0.094216235,0.35060155
62551667,0.16479407,-0.10332359,0.3374055
62561268,0.16126561,-0.09609287,0.3373512
62571667,0.16303691,-0.094292864,0.33587775
62582070,0.16303691,-0.094292864,0.33587775
62591668,0.16303691,-0.094292864,0.33587775
62600491,0.15422234,-0.09249284,0.33435434
62611667,0.16650985,-0.09784691,0.34769228
62620470,0.16299522,-0.09424689,0.34471202
62631668,0.1665659,-0.07983143,0.33581915
62640468,0.16303673,-0.10152357,0.3359154
62651667,0.16471076,-0.09961628,0.35505524
62660477,0.14538015,-0.08343147,0.33868277
62671667,0.16832325,-0.08163145,0.33730927
62680468,0.16832325,-0.08163145,0.33730927
62689269,0.18062466,-0.08700085,0.34770247
62699667,0.15765367,-0.09238557,0.35498428
62709279,0.16299531,-0.09063152,0.3446932
62719667,0.17533863,-0.08881617,0.3462145
62729305,0.168295,-0.09967758,0.34329286
62739667,0.16478044,-0.09246219,0.3402938
62749278,0.16123772,-0.09967758,0.34325954
62759668,0.16122381,-0.09966225,0.3462043
62770068,0.16122381,-0.09966225,0.3462043
62779667,0.14356677,-0.09964693,0.34906578
62788508,0.15238145,-0.097831585,0.3505704
62798867,0.1700247,-0.094216235,0.35063487
62808497,0.1541669,-0.085200824,0.34609574
62819667,0.15243697,-0.101508245,0.33881018
62828516,0.15069363,-0.0961082,0.3343565
62839667,0.1541809,-0.0816008,0.34313214
62848468,0.14717864,-0.106969595,0.3314515
62867667,0.15418072,-0.0888315,0.34316978
62877268,0.15063828,-0.085200824,0.34607908
62887667,0.16126561,-0.09609287,0.3373512
62897315,0.17005232,-0.10147759,0.34478295
62907667,0.16300955,-0.07618542,0.3416732
62917318,0.14883909,-0.090585545,0.35346088
62927667,0.16299522,-0.09424689,0.34471202
62937274,0.1682673,-0.09603158,0.34916356
62947668,0.1682673,-0.09603158,0.34916356
62956468,0.15768157,-0.088800855,0.34907597
62967667,0.15409678,-0.1104317,0.36095124
62976468,0.15591007,-0.097831585,0.35058707
62987668,0.15592407,-0.09423156,0.3476235
62996467,0.17003895,-0.079770125,0.34761485
63007667,0.15596569,-0.09789289,0.338808
63016468,0.16121037,-0.081570156,0.349055
63027667,0.16129385,-0.07804674,0.33136764
63036468,0.16129385,-0.07804674,0.33136764
63055667,0.15425041,-0.08167743,0.3284084
63065310,0.17005259,-0.09063152,0.34472653
63075667,0.16479407,-0.10332359,0.3374055
63085289,0.16476688,-0.077985436,0.3431633
63095667,0.16121037,-0.081570156,0.349055
63105271,0.16123754,-0.10690829,0.34329715
63115667,0.1576674,-0.09963161,0.35207716
63125268,0.15419488,-0.07800076,0.34016857
63135668,0.15419488,-0.07800076,0.34016857
63144468,0.16480815,-0.0961082,0.33442312
63155667,0.16653818,-0.07618542,0.34168985
63164467,0.16832262,-0.10693894,0.33744097
63175667,0.1488947,-0.09064685,0.3416818
63184468,0.16823949,-0.096000925,0.3550531
63195667,0.15600756,-0.090708144,0.32993612
63204468,0.16298123,-0.09784691,0.34767562
63215667,0.16302302,-0.09427754,0.3388225
63224468,0.16302302,-0.09427754,0.3388225
63233283,0.15413894,-0.09240089,0.3520229
63243667,0.17358086,-0.10509295,0.34481844
63254107,0.14717917,-0.08527745,0.33133864
63263667,0.1612378,-0.09606222,0.3432407
63273268,0.14356695,-0.09241622,0.34902817
63283667,0.15769519,-0.09966225,0.34618765
63293267,0.14888088,-0.08701617,0.34460777
63303667,0.1577508,-0.099723555,0.3344086
63314079,0.1577508,-0.099723555,0.3344086
63323668,0.15772326,-0.088846825,0.34024167
63332469,0.1506382,-0.08881617,0.34609792
63343667,0.16119584,-0.10686232,0.35213146
63352468,0.16479425,-0.09609287,0.33736786
63363668,0.16475254,-0.096046895,0.34620216
63372468,0.17012191,-0.09793886,0.33004037
63383667,0.16300921,-0.09064685,0.34174845
63392468,0.1594527,-0.09423156,0.34764016
63412477,0.1594527,-0.09423156,0.34764016
63421267,0.15949424,-0.101508245,0.3388435
63431667,0.17176785,-0.106846996,0.35512617
63441268,0.17360911,-0.087046824,0.33883485
63451667,0.16652375,-0.097862236,0.34474748
63461268,0.15945262,-0.09784691,0.34765896
63471667,0.15235364,-0.09780093,0.35645995
63481280,0.14533836,-0.08700085,0.34753588
63491667,0.15593806,-0.09063152,0.3446599
63502073,0.15593806,-0.09063152,0.3446599
63511675,0.15239535,-0.09784691,0.34762564
63520474,0.1594528,-0.0906162,0.34762132
63531667,0.14713737,-0.088846825,0.34019172
63540467,0.15240978,-0.076170094,0.34456798
63551670,0.14890869,-0.087046824,0.33871827
63560468,0.15943916,-0.0797548,0.35050964
63571667,0.16302276,-0.1051236,0.33887896
63580468,0.1718238,-0.09244686,0.34327188
63599667,0.15773734,-0.08163145,0.3372593
63609268,0.1594946,-0.087046824,0.3387682
63619667,0.15419462,-0.088846825,0.340225
63629268,0.15772335,-0.085231476,0.34022287
63639667,0.15772308,-0.09607755,0.3402793
63649268,0.15418081,-0.08521615,0.34315097
63659667,0.17709602,-0.08700085,0.3476858
63669267,0.15415284,-0.09241622,0.34907812
63679668,0.15415284,-0.09241622,0.34907812
63688468,0.1630649,-0.087092794,0.32995063
63699667,0.16476654,-0.09244686,0.34323856
63708485,0.15242334,-0.09064685,0.34169847
63719667,0.1735953,-0.08341614,0.34176078
63728468,0.15418063,-0.09244686,0.34318858
63738907,0.14715101,-0.09970823,0.3373034
63748483,0.17538051,-0.08163145,0.3373426
63759696,0.15945262,-0.09784691,0.34765896
63768468,0.15945262,-0.09784691,0.34765896
63787667,0.16127934,-0.10333891,0.33444408
63797267,0.15418081,-0.08521615,0.34315097
63807667,0.1524513,-0.08344679,0.33577135
63817268,0.1594946,-0.087046824,0.3387682
63827667,0.16125198,-0.085231476,0.34023952
63837268,0.16125171,-0.09607755,0.34029597
63847667,0.14358093,-0.08881617,0.3460646
63857268,0.15240908,-0.10509295,0.3447185
63867668,0.15240908,-0.10509295,0.3447185
63876468,0.15952212,-0.09792354,0.33293515
63887667,0.1454353,-0.10156954,0.32699785
63896468,0.15596595,-0.087046824,0.33875155
63907667,0.1612936,-0.0888928,0.3314241
63916468,0.15942499,-0.090585545,0.35351083
63927701,0.1524228,-0.112339,0.34181136
63936468,0.16826703,-0.10687765,0.34922
63947687,0.15772352,-0.07800076,0.34018523
63956468,0.15772352,-0.07800076,0.34018523
63965275,0.16475236,-0.10327761,0.3462398
63975667,0.14189321,-0.08347744,0.32983187
63985268,0.14889488,-0.08341614,0.3416442
63995667,0.1524653,-0.079846755,0.33280778
64005268,0.159411,-0.09418558,0.35647443
64015667,0.1630232,-0.087046824,0.33878487
64025268,0.15062448,-0.081570156,0.34900504
64035667,0.1488668,-0.09423156,0.34759018
64046068,0.1488668,-0.09423156,0.34759018
64055671,0.1506799,-0.08886215,0.3372636
64064468,0.15593824,-0.083400816,0.34462225
64075667,0.1559517,-0.10149292,0.34177157
64084467,0.15945244,-0.105077624,0.3476966
64095703,0.1559099,-0.1050623,0.35062468
64104468,0.14001052,-0.09238557,0.35490102
64115696,0.1594528,-0.0906162,0.34762132
64124468,0.16298158,-0.08338549,0.34760037
64144468,0.16298158,-0.08338549,0.34760037
64153268,0.17010818,-0.090692826,0.3329475
64163690,0.15946661,-0.09424689,0.34469536
64173268,0.15948078,-0.08341614,0.34169418
64183667,0.14710939,-0.096046895,0.34611887
64193268,0.15059632,-0.096000925,0.3549698
64203667,0.15066564,-0.10330826,0.34028363
64213298,0.15065192,-0.09606222,0.34319076
64223668,0.15063801,-0.096046895,0.34613553
64234068,0.15063801,-0.096046895,0.34613553
64243667,0.16469695,-0.0959856,0.3579812
64252468,0.15070789,-0.0816621,0.33133647
64263701,0.15600756,-0.090708144,0.32993612
64272468,0.15952203,-0.1015389,0.33295396
64283704,0.17185178,-0.0852468,0.33734474
64292471,0.15770936,-0.0888315,0.34318644
64303698,0.14710948,-0.09243154,0.34610006
64312468,0.16126597,-0.08163145,0.33727595
64331667,0.15062395,-0.10326229,0.3491179
64341273,0.16299522,-0.09424689,0.34471202
64351667,0.14187904,-0.09430819,0.33283305
64361268,0.16649586,-0.10144694,0.35065585
64371667,0.16651003,-0.0906162,0.34765464
64381329,0.14005221,-0.09243154,0.34606674
64391667,0.16120984,-0.10326229,0.34916788
64401315,0.15234001,-0.08693954,0.35934824
64411717,0.15234001,-0.08693954,0.35934824
64420467,0.15419471,-0.085231476,0.3402062
64431686,0.15415302,-0.085185505,0.3490405
64440468,0.15416673,-0.09243154,0.34613338
64451686,0.16476654,-0.09244686,0.34323856
64460468,0.16302276,-0.1051236,0.33887896
64471698,0.1506799,-0.08886215,0.3372636
64480468,0.17185125,-0.10693894,0.33745763
64491695,0.17179565,-0.10687765,0.34923667
64500469,0.17179565,-0.10687765,0.34923667
64509275,0.16296768,-0.083370164,0.3505451
64519667,0.17182371,-0.09606222,0.3432907
64529269,0.15772335,-0.085231476,0.34022287
64539667,0.1612101,-0.09241622,0.34911144
64549295,0.15423624,-0.09250817,0.33140957
64559707,0.15593797,-0.09424689,0.3446787
64569276,0.16122426,-0.081585474,0.34611025
64579690,0.16307862,-0.094338834,0.3270435
64590068,0.16307862,-0.094338834,0.3270435
64599736,0.15593815,-0.08701617,0.3446411
64608488,0.14713763,-0.07800076,0.34013528
64619715,0.17179574,-0.10326229,0.34921786
64628468,0.14532392,-0.108677655,0.35059354
64639688,0.15770945,-0.08521615,0.34316763
64648468,0.15945253,-0.10146227,0.34767777
64659667,0.1594945,-0.090662174,0.33878705
64668468,0.16305082,-0.09430819,0.332933
64688469,0.16305082,-0.09430819,0.332933
64697268,0.15240934,-0.09424689,0.34466204
64707690,0.15772326,-0.088846825,0.34024167
64717306,0.15773708,-0.092477515,0.33731574
64727684,0.15595205,-0.0870315,0.34169632
64737270,0.15593779,-0.10147759,0.34471634
64747715,0.16120975,-0.10687765,0.3491867
64757268,0.14885281,-0.097831585,0.35055375
64767709,0.15595187,-0.09426221,0.34173396
64778068,0.15595187,-0.09426221,0.34173396
64787719,0.15942499,-0.090585545,0.35351083
64796473,0.15595187,-0.09426221,0.34173396
64806867,0.15422268,-0.07803141,0.33427906
64816468,0.15238154,-0.094216235,0.35055158
64827667,0.16126534,-0.10693894,0.33740765
64836468,0.14886707,-0.08338549,0.34753373
64847667,0.14007984,-0.0996929,0.34021485
64856468,0.16656572,-0.08706215,0.3358568
64875666,0.14539368,-0.097908214,0.33581328
64885291,0.16296759,-0.08698552,0.3505639
64895709,0.15420817,-0.10332359,0.33735552
64905278,0.1594528,-0.0906162,0.34762132
64915692,0.15066564,-0.10330826,0.34028363
64926067,0.15242334,-0.09064685,0.34169847
64935687,0.16125198,-0.085231476,0.34023952
64945268,0.157723,-0.0996929,0.34029812
64955670,0.157723,-0.0996929,0.34029812
64964471,0.16479461,-0.08163145,0.3372926
64975678,0.14187913,-0.090692826,0.33281425
64984468,0.14712311,-0.103292935,0.3432117
64995667,0.15592407,-0.09423156,0.3476235
65004468,0.14710975,-0.081585474,0.34604362
65015667,0.15067928,-0.11416965,0.3373953
65024468,0.15423615,-0.096123524,0.33142838
65035667,0.16128021,-0.06718534,0.33425593
65044481,0.16128021,-0.06718534,0.33425593
65053275,0.15418054,-0.09606222,0.34320742
