timestamp,baro_alt_meter,baro_temp_celcius,baro_pressure_pa,rho
50799893,91.14681,37.51,100235.0,1.1909577
50821051,91.31592,37.51,100232.99,1.1909337
50832197,91.31592,37.51,100232.99,1.1909337
50843801,91.14681,37.51,100235.0,1.1909577
50864335,91.397835,37.51,100232.0,1.190922
50875451,91.6515,37.51,100229.0,1.1908864
50886119,91.6515,37.51,100229.0,1.1908864
50910153,90.97771,37.52,100237.0,1.1909814
50921051,91.14681,37.52,100235.0,1.1909577
50932042,91.062256,37.52,100236.0,1.1909695
50954282,91.397835,37.51,100232.0,1.190922
50965180,91.397835,37.51,100232.0,1.190922
50976813,91.733406,37.51,100228.0,1.1908745
50996227,91.14681,37.52,100235.0,1.1909577
51006130,91.14681,37.52,100235.0,1.1909577
51016096,91.14681,37.52,100235.0,1.1909577
51038116,91.31592,37.52,100232.99,1.1909337
51048736,91.31592,37.52,100232.99,1.1909337
51059565,91.48238,37.52,100231.0,1.1909101
51080128,91.14681,37.52,100235.0,1.1909577
51091706,91.14681,37.52,100235.0,1.1909577
51102048,91.14681,37.52,100235.0,1.1909577
51123607,91.31592,37.52,100232.99,1.1909337
51134137,91.48238,37.52,100231.0,1.1909101
51145138,91.23137,37.52,100234.0,1.1909457
51166465,90.97771,37.52,100237.0,1.1909814
51177112,91.48238,37.52,100231.0,1.1909101
51188915,91.56694,37.52,100230.0,1.1908982
51210518,91.56694,37.52,100230.0,1.1908982
51221064,91.48238,37.52,100231.0,1.1909101
51232572,91.23137,37.52,100234.0,1.1909457
51254423,91.14681,37.52,100235.0,1.1909577
51264526,91.14681,37.52,100235.0,1.1909577
51275720,91.31592,37.52,100232.99,1.1909337
51296059,91.23137,37.52,100234.0,1.1909457
51306382,91.397835,37.52,100232.0,1.190922
51317202,91.23137,37.52,100234.0,1.1909457
51339698,91.062256,37.52,100236.0,1.1909695
51350418,91.397835,37.52,100232.0,1.190922
51360358,91.48238,37.52,100231.0,1.1909101
51382189,91.23137,37.52,100234.0,1.1909457
51393147,91.48238,37.52,100231.0,1.1909101
51403042,91.48238,37.52,100231.0,1.1909101
51425056,90.89315,37.52,100238.0,1.1909933
51436096,91.397835,37.52,100232.0,1.190922
51448180,90.89315,37.52,100238.0,1.1909933
51471207,91.397835,37.52,100232.0,1.190922
51482554,91.23137,37.52,100234.0,1.1909457
51493043,91.062256,37.52,100236.0,1.1909695
51515053,91.31592,37.52,100232.99,1.1909337
51526127,91.23137,37.52,100234.0,1.1909457
51537042,91.31592,37.52,100232.99,1.1909337
51557685,91.56694,37.52,100230.0,1.1908982
51568521,90.97771,37.52,100237.0,1.1909814
51579355,91.733406,37.52,100228.0,1.1908745
51600059,91.56694,37.52,100230.0,1.1908982
51610145,91.397835,37.52,100232.0,1.190922
51621043,91.6515,37.52,100229.0,1.1908864
51642099,91.48238,37.53,100231.0,1.1909101
51653047,90.97771,37.53,100237.0,1.1909814
51663529,91.397835,37.53,100232.0,1.190922
51684521,91.14681,37.53,100235.0,1.1909577
51695701,91.14681,37.53,100235.0,1.1909577
51706365,91.397835,37.53,100232.0,1.190922
51727116,91.14681,37.53,100235.0,1.1909577
51738112,91.48238,37.53,100231.0,1.1909101
51749065,91.31592,37.53,100232.99,1.1909337
51772114,91.397835,37.53,100232.0,1.190922
51783619,91.56694,37.53,100230.0,1.1908982
51794317,91.56694,37.53,100230.0,1.1908982
51815051,91.062256,37.53,100236.0,1.1909695
51826416,91.23137,37.53,100234.0,1.1909457
51837042,91.31592,37.53,100232.99,1.1909337
51858102,91.23137,37.53,100234.0,1.1909457
51869165,90.89315,37.53,100238.0,1.1909933
51880042,91.31592,37.53,100232.99,1.1909337
51903100,91.48238,37.53,100231.0,1.1909101
51914145,90.97771,37.53,100237.0,1.1909814
51924902,91.14681,37.53,100235.0,1.1909577
51946445,90.97771,37.53,100237.0,1.1909814
51957405,91.48238,37.53,100231.0,1.1909101
51968888,91.062256,37.53,100236.0,1.1909695
51991616,91.6515,37.53,100229.0,1.1908864
52002059,91.48238,37.53,100231.0,1.1909101
52012412,91.14681,37.53,100235.0,1.1909577
52034445,91.31592,37.53,100232.99,1.1909337
52044208,91.48238,37.53,100231.0,1.1909101
52054115,91.31592,37.53,100232.99,1.1909337
52076438,90.81124,37.54,100238.99,1.191005
52087566,90.97771,37.54,100237.0,1.1909814
52098146,91.31592,37.54,100232.99,1.1909337
52119737,91.397835,37.53,100232.0,1.190922
52130059,91.31592,37.53,100232.99,1.1909337
52141053,91.48238,37.53,100231.0,1.1909101
52163047,91.23137,37.53,100234.0,1.1909457
52174119,90.97771,37.53,100237.0,1.1909814
52186548,91.23137,37.53,100234.0,1.1909457
52208047,91.23137,37.53,100234.0,1.1909457
52219047,91.6515,37.53,100229.0,1.1908864
52230135,91.31592,37.53,100232.99,1.1909337
52252419,91.397835,37.53,100232.0,1.190922
52262191,91.23137,37.53,100234.0,1.1909457
52273363,91.23137,37.53,100234.0,1.1909457
52295062,91.23137,37.54,100234.0,1.1909457
52306107,91.23137,37.54,100234.0,1.1909457
52317047,91.23137,37.54,100234.0,1.1909457
52340411,91.062256,37.53,100236.0,1.1909695
52351062,91.31592,37.53,100232.99,1.1909337
52362112,91.6515,37.53,100229.0,1.1908864
52385185,91.31592,37.53,100232.99,1.1909337
52396362,91.397835,37.53,100232.0,1.190922
52406206,91.48238,37.53,100231.0,1.1909101
52427123,91.397835,37.53,100232.0,1.190922
52438099,91.6515,37.53,100229.0,1.1908864
52449957,91.48238,37.53,100231.0,1.1909101
52471109,91.90252,37.54,100225.99,1.1908506
52481519,91.31592,37.54,100232.99,1.1909337
52491135,91.23137,37.54,100234.0,1.1909457
52512201,91.48238,37.54,100231.0,1.1909101
52523739,91.733406,37.54,100228.0,1.1908745
52534051,91.397835,37.54,100232.0,1.190922
52555050,91.23137,37.54,100234.0,1.1909457
52566099,91.23137,37.54,100234.0,1.1909457
52577042,91.56694,37.54,100230.0,1.1908982
52599078,91.397835,37.54,100232.0,1.190922
52610162,91.397835,37.54,100232.0,1.190922
52621046,91.23137,37.54,100234.0,1.1909457
52643047,91.733406,37.54,100228.0,1.1908745
52654183,91.23137,37.54,100234.0,1.1909457
52665111,91.397835,37.54,100232.0,1.190922
52686099,91.56694,37.54,100230.0,1.1908982
52697052,91.23137,37.54,100234.0,1.1909457
52708053,91.48238,37.54,100231.0,1.1909101
52731586,91.48238,37.54,100231.0,1.1909101
52742163,91.23137,37.54,100234.0,1.1909457
52753756,91.56694,37.54,100230.0,1.1908982
52774459,91.14681,37.54,100235.0,1.1909577
52785175,91.48238,37.54,100231.0,1.1909101
52795740,91.397835,37.54,100232.0,1.190922
52817351,91.48238,37.55,100231.0,1.1909101
52827101,91.48238,37.55,100231.0,1.1909101
52838150,90.97771,37.55,100237.0,1.1909814
52860525,91.31592,37.54,100232.99,1.1909337
52872099,91.14681,37.54,100235.0,1.1909577
52883803,91.23137,37.54,100234.0,1.1909457
52905168,91.062256,37.54,100236.0,1.1909695
52915599,91.733406,37.54,100228.0,1.1908745
52926131,91.56694,37.54,100230.0,1.1908982
52947709,91.31592,37.55,100232.99,1.1909337
52958049,91.23137,37.55,100234.0,1.1909457
52969696,91.31592,37.55,100232.99,1.1909337
52992527,91.48238,37.54,100231.0,1.1909101
53003081,91.31592,37.54,100232.99,1.1909337
53014933,91.48238,37.54,100231.0,1.1909101
53036496,91.14681,37.55,100235.0,1.1909577
53047047,91.397835,37.55,100232.0,1.190922
53058205,90.97771,37.55,100237.0,1.1909814
53080825,91.14681,37.54,100235.0,1.1909577
53091047,91.397835,37.54,100232.0,1.190922
53102098,91.56694,37.54,100230.0,1.1908982
53123048,91.062256,37.54,100236.0,1.1909695
53134123,91.81796,37.54,100226.99,1.1908624
53145042,91.062256,37.54,100236.0,1.1909695
53166133,91.397835,37.54,100232.0,1.190922
53176554,91.062256,37.54,100236.0,1.1909695
53187742,91.56694,37.54,100230.0,1.1908982
53208125,91.56694,37.55,100230.0,1.1908982
53219785,90.81124,37.55,100238.99,1.191005
53230541,91.31592,37.55,100232.99,1.1909337
53252110,91.397835,37.55,100232.0,1.190922
53263050,91.397835,37.55,100232.0,1.190922
53274115,91.56694,37.55,100230.0,1.1908982
53296544,91.31592,37.55,100232.99,1.1909337
53307059,91.48238,37.55,100231.0,1.1909101
53317661,91.6515,37.55,100229.0,1.1908864
53339939,91.062256,37.55,100236.0,1.1909695
53350124,91.14681,37.55,100235.0,1.1909577
53361367,91.31592,37.55,100232.99,1.1909337
53383353,91.56694,37.55,100230.0,1.1908982
53393463,91.48238,37.55,100231.0,1.1909101
53404393,91.31592,37.55,100232.99,1.1909337
53427572,91.14681,37.55,100235.0,1.1909577
53438123,91.397835,37.55,100232.0,1.190922
53449042,91.397835,37.55,100232.0,1.190922
53472137,90.97771,37.55,100237.0,1.1909814
53482621,91.397835,37.55,100232.0,1.190922
53493043,91.14681,37.55,100235.0,1.1909577
53515740,90.81124,37.55,100238.99,1.191005
53526127,91.062256,37.55,100236.0,1.1909695
53537305,91.6515,37.55,100229.0,1.1908864
53558124,91.31592,37.55,100232.99,1.1909337
53570304,91.81796,37.55,100226.99,1.1908624
53581048,91.31592,37.55,100232.99,1.1909337
53602107,91.14681,37.55,100235.0,1.1909577
53613047,90.97771,37.55,100237.0,1.1909814
53624839,91.397835,37.55,100232.0,1.190922
53647572,91.397835,37.55,100232.0,1.190922
53658057,91.062256,37.55,100236.0,1.1909695
53669042,91.733406,37.55,100228.0,1.1908745
53691553,91.6515,37.55,100229.0,1.1908864
53702106,91.23137,37.55,100234.0,1.1909457
53712090,91.23137,37.55,100234.0,1.1909457
53734103,91.14681,37.559998,100235.0,1.1909577
53744195,91.14681,37.559998,100235.0,1.1909577
53754099,91.23137,37.559998,100234.0,1.1909457
53776033,91.23137,37.55,100234.0,1.1909457
53787048,91.23137,37.55,100234.0,1.1909457
53798153,91.397835,37.55,100232.0,1.190922
53819047,91.31592,37.559998,100232.99,1.1909337
53830124,91.31592,37.559998,100232.99,1.1909337
53841049,91.31592,37.559998,100232.99,1.1909337
53864102,91.56694,37.559998,100230.0,1.1908982
53875099,91.062256,37.559998,100236.0,1.1909695
53886145,90.97771,37.559998,100237.0,1.1909814
53908047,90.81124,37.55,100238.99,1.191005
53918056,91.56694,37.55,100230.0,1.1908982
53929303,91.56694,37.55,100230.0,1.1908982
53950124,90.81124,37.559998,100238.99,1.191005
53962311,91.31592,37.559998,100232.99,1.1909337
53973049,91.397835,37.559998,100232.0,1.190922
53994112,91.062256,37.559998,100236.0,1.1909695
54005047,91.31592,37.559998,100232.99,1.1909337
54015348,91.062256,37.559998,100236.0,1.1909695
54036388,90.81124,37.559998,100238.99,1.191005
54046127,91.14681,37.559998,100235.0,1.1909577
54056037,91.397835,37.559998,100232.0,1.190922
54077053,91.31592,37.559998,100232.99,1.1909337
54089482,91.56694,37.559998,100230.0,1.1908982
54100419,91.6515,37.559998,100229.0,1.1908864
54122053,91.48238,37.559998,100231.0,1.1909101
54133050,91.397835,37.559998,100232.0,1.190922
54144047,91.397835,37.559998,100232.0,1.190922
54166136,91.23137,37.559998,100234.0,1.1909457
54177170,91.23137,37.559998,100234.0,1.1909457
54188042,91.397835,37.559998,100232.0,1.190922
54209047,90.726685,37.57,100240.0,1.191017
54219391,90.81124,37.57,100238.99,1.191005
54229704,90.81124,37.57,100238.99,1.191005
54250105,91.397835,37.57,100232.0,1.190922
54261166,91.31592,37.57,100232.99,1.1909337
54272575,91.23137,37.57,100234.0,1.1909457
54293176,91.397835,37.57,100232.0,1.190922
54304550,91.14681,37.57,100235.0,1.1909577
54315083,91.397835,37.57,100232.0,1.190922
54336047,91.062256,37.57,100236.0,1.1909695
54347489,90.726685,37.57,100240.0,1.191017
54358408,91.14681,37.57,100235.0,1.1909577
54378151,91.062256,37.57,100236.0,1.1909695
54389494,91.56694,37.57,100230.0,1.1908982
54399045,91.397835,37.57,100232.0,1.190922
54420053,90.97771,37.57,100237.0,1.1909814
54431047,91.23137,37.57,100234.0,1.1909457
54442119,91.56694,37.57,100230.0,1.1908982
54464410,91.23137,37.579998,100234.0,1.1909457
54474123,91.397835,37.579998,100232.0,1.190922
54485135,91.23137,37.579998,100234.0,1.1909457
54507103,91.48238,37.57,100231.0,1.1909101
54518166,91.23137,37.57,100234.0,1.1909457
54529042,91.31592,37.57,100232.99,1.1909337
54551067,90.89315,37.57,100238.0,1.1909933
54562149,91.31592,37.57,100232.99,1.1909337
54573261,91.48238,37.57,100231.0,1.1909101
54595060,91.31592,37.57,100232.99,1.1909337
54605209,90.97771,37.57,100237.0,1.1909814
54616396,91.397835,37.57,100232.0,1.190922
54637411,91.062256,37.57,100236.0,1.1909695
54648562,91.23137,37.57,100234.0,1.1909457
54659042,91.56694,37.57,100230.0,1.1908982
54681047,91.062256,37.579998,100236.0,1.1909695
54691048,91.14681,37.579998,100235.0,1.1909577
54702128,91.397835,37.579998,100232.0,1.190922
54723920,91.062256,37.57,100236.0,1.1909695
54733672,91.062256,37.57,100236.0,1.1909695
54744411,91.48238,37.57,100231.0,1.1909101
54766466,91.14681,37.579998,100235.0,1.1909577
54777052,91.23137,37.579998,100234.0,1.1909457
54789382,91.062256,37.579998,100236.0,1.1909695
54811051,90.97771,37.579998,100237.0,1.1909814
54821169,91.6515,37.579998,100229.0,1.1908864
54832606,91.6515,37.579998,100229.0,1.1908864
54853046,91.48238,37.579998,100231.0,1.1909101
54864590,91.397835,37.579998,100232.0,1.190922
54875042,91.062256,37.579998,100236.0,1.1909695
54897165,91.14681,37.57,100235.0,1.1909577
54909403,91.48238,37.57,100231.0,1.1909101
54920778,91.48238,37.57,100231.0,1.1909101
54942211,91.31592,37.57,100232.99,1.1909337
54953047,91.48238,37.57,100231.0,1.1909101
54965657,91.48238,37.57,100231.0,1.1909101
54987047,91.397835,37.57,100232.0,1.190922
54997450,91.23137,37.57,100234.0,1.1909457
55008635,90.97771,37.57,100237.0,1.1909814
55029048,91.23137,37.579998,100234.0,1.1909457
55040362,91.14681,37.579998,100235.0,1.1909577
55050145,91.23137,37.579998,100234.0,1.1909457
55072506,91.48238,37.579998,100231.0,1.1909101
55083048,90.97771,37.579998,100237.0,1.1909814
55093206,91.23137,37.579998,100234.0,1.1909457
55115047,91.062256,37.579998,100236.0,1.1909695
55126124,91.397835,37.579998,100232.0,1.190922
55137094,91.6515,37.579998,100229.0,1.1908864
55158184,91.31592,37.579998,100232.99,1.1909337
55169173,91.48238,37.579998,100231.0,1.1909101
55181213,91.56694,37.579998,100230.0,1.1908982
55203354,91.23137,37.579998,100234.0,1.1909457
55213337,90.89315,37.579998,100238.0,1.1909933
55224773,91.23137,37.579998,100234.0,1.1909457
55246124,91.23137,37.579998,100234.0,1.1909457
55257049,91.31592,37.579998,100232.99,1.1909337
55267042,91.31592,37.579998,100232.99,1.1909337
55288566,91.56694,37.579998,100230.0,1.1908982
55299047,91.6515,37.579998,100229.0,1.1908864
55310138,91.14681,37.579998,100235.0,1.1909577
55333151,91.14681,37.579998,100235.0,1.1909577
55344707,91.14681,37.579998,100235.0,1.1909577
55354172,91.31592,37.579998,100232.99,1.1909337
55377046,91.062256,37.59,100236.0,1.1909695
55389596,90.89315,37.59,100238.0,1.1909933
55399042,91.14681,37.59,100235.0,1.1909577
55420924,91.31592,37.579998,100232.99,1.1909337
55431432,91.062256,37.579998,100236.0,1.1909695
55442121,91.397835,37.579998,100232.0,1.190922
55464687,91.14681,37.579998,100235.0,1.1909577
55475369,91.23137,37.579998,100234.0,1.1909457
55485736,91.23137,37.579998,100234.0,1.1909457
55507047,91.6515,37.579998,100229.0,1.1908864
55518124,91.397835,37.579998,100232.0,1.190922
55529053,91.56694,37.579998,100230.0,1.1908982
55550134,90.97771,37.59,100237.0,1.1909814
55560403,91.23137,37.59,100234.0,1.1909457
55571362,91.397835,37.59,100232.0,1.190922
55592515,91.397835,37.59,100232.0,1.190922
55602443,91.48238,37.59,100231.0,1.1909101
55613053,91.56694,37.59,100230.0,1.1908982
55634264,91.31592,37.59,100232.99,1.1909337
55645111,91.062256,37.59,100236.0,1.1909695
55655053,91.31592,37.59,100232.99,1.1909337
55677052,91.6515,37.59,100229.0,1.1908864
55687442,91.23137,37.59,100234.0,1.1909457
55698374,91.14681,37.59,100235.0,1.1909577
55721295,90.89315,37.59,100238.0,1.1909933
55732922,91.14681,37.59,100235.0,1.1909577
55743051,91.31592,37.59,100232.99,1.1909337
55765203,91.062256,37.59,100236.0,1.1909695
55775359,91.56694,37.59,100230.0,1.1908982
55785379,91.397835,37.59,100232.0,1.190922
55807047,91.48238,37.59,100231.0,1.1909101
55818140,91.31592,37.59,100232.99,1.1909337
55829042,91.23137,37.59,100234.0,1.1909457
55850047,91.23137,37.59,100234.0,1.1909457
55860364,91.23137,37.59,100234.0,1.1909457
55871374,91.56694,37.59,100230.0,1.1908982
55892594,91.062256,37.6,100236.0,1.1909695
55903094,91.6515,37.6,100229.0,1.1908864
55913195,91.14681,37.6,100235.0,1.1909577
55934047,91.062256,37.59,100236.0,1.1909695
55945378,91.48238,37.59,100231.0,1.1909101
55956415,91.31592,37.59,100232.99,1.1909337
55977493,91.062256,37.59,100236.0,1.1909695
55988535,91.48238,37.59,100231.0,1.1909101
55999042,90.97771,37.59,100237.0,1.1909814
56021198,91.31592,37.59,100232.99,1.1909337
56031092,91.397835,37.59,100232.0,1.190922
56042118,91.14681,37.59,100235.0,1.1909577
56063353,91.31592,37.59,100232.99,1.1909337
56073447,91.31592,37.59,100232.99,1.1909337
56084566,91.733406,37.59,100228.0,1.1908745
56107048,91.397835,37.6,100232.0,1.190922
56118136,91.48238,37.6,100231.0,1.1909101
56130112,91.31592,37.6,100232.99,1.1909337
56151048,90.89315,37.59,100238.0,1.1909933
56162050,91.062256,37.59,100236.0,1.1909695
56173055,91.48238,37.59,100231.0,1.1909101
56196543,91.31592,37.59,100232.99,1.1909337
56207047,91.14681,37.59,100235.0,1.1909577
56218119,91.397835,37.59,100232.0,1.190922
56239052,91.48238,37.59,100231.0,1.1909101
56250172,91.23137,37.59,100234.0,1.1909457
56261164,91.397835,37.59,100232.0,1.190922
56283055,91.062256,37.59,100236.0,1.1909695
56294128,91.397835,37.59,100232.0,1.190922
56305328,91.6515,37.59,100229.0,1.1908864
56326126,91.062256,37.6,100236.0,1.1909695
56337154,91.48238,37.6,100231.0,1.1909101
56348597,91.48238,37.6,100231.0,1.1909101
56370050,91.397835,37.59,100232.0,1.190922
56381047,91.397835,37.59,100232.0,1.190922
56392975,91.90252,37.59,100225.99,1.1908506
56414123,91.31592,37.6,100232.99,1.1909337
56425531,91.81796,37.6,100226.99,1.1908624
56436543,90.97771,37.6,100237.0,1.1909814
56457051,90.97771,37.59,100237.0,1.1909814
56468549,91.48238,37.59,100231.0,1.1909101
56478146,91.48238,37.59,100231.0,1.1909101
56500514,91.733406,37.6,100228.0,1.1908745
56511047,91.062256,37.6,100236.0,1.1909695
56521435,91.56694,37.6,100230.0,1.1908982
56543083,91.397835,37.6,100232.0,1.190922
56553149,91.397835,37.6,100232.0,1.190922
56564584,91.31592,37.6,100232.99,1.1909337
56586170,91.56694,37.6,100230.0,1.1908982
56596336,91.48238,37.6,100231.0,1.1909101
56607414,91.31592,37.6,100232.99,1.1909337
56628535,90.89315,37.6,100238.0,1.1909933
56639060,91.6515,37.6,100229.0,1.1908864
56650157,91.23137,37.6,100234.0,1.1909457
56671047,91.56694,37.6,100230.0,1.1908982
56681055,91.48238,37.6,100231.0,1.1909101
56692590,91.31592,37.6,100232.99,1.1909337
56713317,91.397835,37.6,100232.0,1.190922
56724364,91.397835,37.6,100232.0,1.190922
56735043,91.56694,37.6,100230.0,1.1908982
56757343,91.23137,37.61,100234.0,1.1909457
56767048,91.31592,37.61,100232.99,1.1909337
56778306,90.89315,37.61,100238.0,1.1909933
56799418,91.062256,37.6,100236.0,1.1909695
56809298,91.397835,37.6,100232.0,1.190922
56820444,91.31592,37.6,100232.99,1.1909337
56841249,91.062256,37.61,100236.0,1.1909695
56852532,90.81124,37.61,100238.99,1.191005
56863056,91.31592,37.61,100232.99,1.1909337
56884521,91.48238,37.61,100231.0,1.1909101
56895048,90.97771,37.61,100237.0,1.1909814
56906132,91.397835,37.61,100232.0,1.190922
56927050,91.397835,37.61,100232.0,1.190922
56938124,91.397835,37.61,100232.0,1.190922
56948611,91.56694,37.61,100230.0,1.1908982
56970274,91.31592,37.6,100232.99,1.1909337
56980840,91.397835,37.6,100232.0,1.190922
56991043,91.733406,37.6,100228.0,1.1908745
57011047,91.56694,37.61,100230.0,1.1908982
57022158,91.48238,37.61,100231.0,1.1909101
57033047,91.31592,37.61,100232.99,1.1909337
57055058,91.062256,37.61,100236.0,1.1909695
57065141,91.31592,37.61,100232.99,1.1909337
57076372,91.48238,37.61,100231.0,1.1909101
57098134,91.56694,37.61,100230.0,1.1908982
57108540,91.23137,37.61,100234.0,1.1909457
57119348,91.56694,37.61,100230.0,1.1908982
57140391,91.48238,37.61,100231.0,1.1909101
57151099,90.81124,37.61,100238.99,1.191005
57162121,91.062256,37.61,100236.0,1.1909695
57183052,91.397835,37.61,100232.0,1.190922
57193448,91.23137,37.61,100234.0,1.1909457
57204381,90.726685,37.61,100240.0,1.191017
57225049,91.31592,37.61,100232.99,1.1909337
57236539,91.48238,37.61,100231.0,1.1909101
57247054,91.48238,37.61,100231.0,1.1909101
57268610,91.31592,37.61,100232.99,1.1909337
57279458,90.81124,37.61,100238.99,1.191005
57290118,91.48238,37.61,100231.0,1.1909101
57310137,91.397835,37.61,100232.0,1.190922
57321419,91.31592,37.61,100232.99,1.1909337
57332519,91.6515,37.61,100229.0,1.1908864
57354124,91.48238,37.62,100231.0,1.1909101
57365052,90.89315,37.62,100238.0,1.1909933
57376895,91.48238,37.62,100231.0,1.1909101
57398169,91.23137,37.62,100234.0,1.1909457
57409454,91.6515,37.62,100229.0,1.1908864
57420555,91.23137,37.62,100234.0,1.1909457
57441410,90.97771,37.61,100237.0,1.1909814
57452607,91.48238,37.61,100231.0,1.1909101
57463349,91.397835,37.61,100232.0,1.190922
57484525,91.6515,37.61,100229.0,1.1908864
57494127,91.397835,37.61,100232.0,1.190922
57505045,91.14681,37.61,100235.0,1.1909577
57527051,91.14681,37.61,100235.0,1.1909577
57537429,91.062256,37.61,100236.0,1.1909695
57548616,91.23137,37.61,100234.0,1.1909457
57569049,91.14681,37.62,100235.0,1.1909577
57580432,91.48238,37.62,100231.0,1.1909101
57590118,91.397835,37.62,100232.0,1.190922
57612573,91.23137,37.62,100234.0,1.1909457
57623408,90.97771,37.62,100237.0,1.1909814
57633560,91.23137,37.62,100234.0,1.1909457
57655057,91.48238,37.62,100231.0,1.1909101
57666134,91.062256,37.62,100236.0,1.1909695
57677129,90.726685,37.62,100240.0,1.191017
57700526,91.397835,37.62,100232.0,1.190922
57710185,91.397835,37.62,100232.0,1.190922
57721158,90.97771,37.62,100237.0,1.1909814
57743047,91.397835,37.62,100232.0,1.190922
57754123,91.23137,37.62,100234.0,1.1909457
57764392,91.31592,37.62,100232.99,1.1909337
57785382,91.397835,37.62,100232.0,1.190922
57796435,91.48238,37.62,100231.0,1.1909101
57807357,91.397835,37.62,100232.0,1.190922
57828519,91.48238,37.62,100231.0,1.1909101
57839063,91.14681,37.62,100235.0,1.1909577
57850058,91.14681,37.62,100235.0,1.1909577
57872921,91.397835,37.62,100232.0,1.190922
57883047,91.48238,37.62,100231.0,1.1909101
57894094,91.56694,37.62,100230.0,1.1908982
57916769,90.97771,37.62,100237.0,1.1909814
57927050,91.31592,37.62,100232.99,1.1909337
57937180,91.31592,37.62,100232.99,1.1909337
57958254,91.062256,37.629997,100236.0,1.1909695
57970261,91.31592,37.629997,100232.99,1.1909337
57981054,91.56694,37.629997,100230.0,1.1908982
58004376,91.23137,37.62,100234.0,1.1909457
58015102,91.733406,37.62,100228.0,1.1908745
58025041,91.81796,37.62,100226.99,1.1908624
58047060,91.23137,37.62,100234.0,1.1909457
58057300,91.397835,37.62,100232.0,1.190922
58068518,91.397835,37.62,100232.0,1.190922
58089329,91.062256,37.62,100236.0,1.1909695
58100579,91.31592,37.62,100232.99,1.1909337
58111043,91.23137,37.62,100234.0,1.1909457
58132581,91.31592,37.62,100232.99,1.1909337
58143051,91.56694,37.62,100230.0,1.1908982
58154130,91.23137,37.62,100234.0,1.1909457
58177427,90.89315,37.62,100238.0,1.1909933
58188542,91.397835,37.62,100232.0,1.190922
58199046,91.397835,37.62,100232.0,1.190922
58220941,91.48238,37.62,100231.0,1.1909101
58231058,91.56694,37.62,100230.0,1.1908982
58241378,90.97771,37.62,100237.0,1.1909814
58262127,90.97771,37.629997,100237.0,1.1909814
58273166,91.31592,37.629997,100232.99,1.1909337
58284494,91.23137,37.629997,100234.0,1.1909457
58306234,91.31592,37.629997,100232.99,1.1909337
58317055,91.397835,37.629997,100232.0,1.190922
58327283,91.14681,37.629997,100235.0,1.1909577
58348671,91.062256,37.629997,100236.0,1.1909695
58359051,91.56694,37.629997,100230.0,1.1908982
58369946,91.062256,37.629997,100236.0,1.1909695
58391047,91.397835,37.629997,100232.0,1.190922
58402047,91.062256,37.629997,100236.0,1.1909695
58412513,91.31592,37.629997,100232.99,1.1909337
58433316,91.062256,37.629997,100236.0,1.1909695
58444408,91.14681,37.629997,100235.0,1.1909577
58455098,91.31592,37.629997,100232.99,1.1909337
58477211,90.97771,37.629997,100237.0,1.1909814
58487090,91.14681,37.629997,100235.0,1.1909577
58497204,91.31592,37.629997,100232.99,1.1909337
58519367,90.81124,37.629997,100238.99,1.191005
58530141,91.48238,37.629997,100231.0,1.1909101
58541055,91.48238,37.629997,100231.0,1.1909101
58564548,90.81124,37.629997,100238.99,1.191005
58575066,90.97771,37.629997,100237.0,1.1909814
58585325,90.97771,37.629997,100237.0,1.1909814
58607047,91.062256,37.629997,100236.0,1.1909695
58617051,91.31592,37.629997,100232.99,1.1909337
58628555,90.97771,37.629997,100237.0,1.1909814
58649167,91.56694,37.629997,100230.0,1.1908982
58660418,90.97771,37.629997,100237.0,1.1909814
58671048,91.23137,37.629997,100234.0,1.1909457
58692582,91.31592,37.629997,100232.99,1.1909337
58702433,91.23137,37.629997,100234.0,1.1909457
58713527,91.48238,37.629997,100231.0,1.1909101
58735058,91.14681,37.629997,100235.0,1.1909577
58745218,90.97771,37.629997,100237.0,1.1909814
58755043,91.56694,37.629997,100230.0,1.1908982
58776862,91.23137,37.629997,100234.0,1.1909457
58787051,91.48238,37.629997,100231.0,1.1909101
58798258,91.48238,37.629997,100231.0,1.1909101
58820338,91.062256,37.64,100236.0,1.1909695
58831078,91.397835,37.64,100232.0,1.190922
58842119,90.726685,37.64,100240.0,1.191017
58863047,91.062256,37.64,100236.0,1.1909695
58874154,91.397835,37.64,100232.0,1.190922
58885047,91.14681,37.64,100235.0,1.1909577
58908691,91.23137,37.64,100234.0,1.1909457
58919047,91.48238,37.64,100231.0,1.1909101
58930118,91.48238,37.64,100231.0,1.1909101
58951353,91.31592,37.64,100232.99,1.1909337
58961414,90.97771,37.64,100237.0,1.1909814
58972386,91.062256,37.64,100236.0,1.1909695
58994174,91.14681,37.64,100235.0,1.1909577
59004533,91.23137,37.64,100234.0,1.1909457
59015058,91.48238,37.64,100231.0,1.1909101
59036387,91.14681,37.64,100235.0,1.1909577
59047362,91.062256,37.64,100236.0,1.1909695
59057199,91.23137,37.64,100234.0,1.1909457
59079052,91.23137,37.64,100234.0,1.1909457
59090128,91.14681,37.64,100235.0,1.1909577
59101048,91.6515,37.64,100229.0,1.1908864
59124402,91.062256,37.64,100236.0,1.1909695
59135047,91.56694,37.64,100230.0,1.1908982
59146119,91.397835,37.64,100232.0,1.190922
59167142,91.397835,37.64,100232.0,1.190922
59177361,91.48238,37.64,100231.0,1.1909101
59188785,91.6515,37.64,100229.0,1.1908864
59210001,91.397835,37.64,100232.0,1.190922
59220556,91.14681,37.64,100235.0,1.1909577
59231435,91.56694,37.64,100230.0,1.1908982
59252499,90.726685,37.64,100240.0,1.191017
59263052,90.97771,37.64,100237.0,1.1909814
59274168,91.48238,37.64,100231.0,1.1909101
59295101,91.14681,37.64,100235.0,1.1909577
59306142,90.81124,37.64,100238.99,1.191005
59316535,91.397835,37.64,100232.0,1.190922
59338171,91.397835,37.64,100232.0,1.190922
59349194,91.23137,37.64,100234.0,1.1909457
59361224,91.23137,37.64,100234.0,1.1909457
59383052,91.23137,37.64,100234.0,1.1909457
59393204,91.48238,37.64,100231.0,1.1909101
59403053,91.48238,37.64,100231.0,1.1909101
59424934,91.062256,37.64,100236.0,1.1909695
59435058,90.97771,37.64,100237.0,1.1909814
59446118,91.062256,37.64,100236.0,1.1909695
59468711,91.31592,37.649998,100232.99,1.1909337
59478260,91.14681,37.649998,100235.0,1.1909577
59489196,91.23137,37.649998,100234.0,1.1909457
59510431,91.48238,37.64,100231.0,1.1909101
59521371,91.23137,37.64,100234.0,1.1909457
59532794,91.397835,37.64,100232.0,1.190922
59553300,91.397835,37.64,100232.0,1.190922
59563047,91.56694,37.64,100230.0,1.1908982
59573042,91.56694,37.64,100230.0,1.1908982
59596344,91.397835,37.649998,100232.0,1.190922
59607061,91.31592,37.649998,100232.99,1.1909337
59618130,91.23137,37.649998,100234.0,1.1909457
59639048,91.397835,37.649998,100232.0,1.190922
59650138,91.397835,37.649998,100232.0,1.190922
59660360,91.23137,37.649998,100234.0,1.1909457
59681314,91.397835,37.649998,100232.0,1.190922
59692638,91.23137,37.649998,100234.0,1.1909457
59703043,91.14681,37.649998,100235.0,1.1909577
59724374,90.97771,37.649998,100237.0,1.1909814
59735052,90.97771,37.649998,100237.0,1.1909814
59746122,91.397835,37.649998,100232.0,1.190922
59767358,91.48238,37.649998,100231.0,1.1909101
59777776,91.14681,37.649998,100235.0,1.1909577
59788604,91.23137,37.649998,100234.0,1.1909457
59809191,91.31592,37.649998,100232.99,1.1909337
59820522,90.97771,37.649998,100237.0,1.1909814
59831097,91.14681,37.649998,100235.0,1.1909577
59852627,91.6515,37.649998,100229.0,1.1908864
59863047,91.31592,37.649998,100232.99,1.1909337
59873416,91.48238,37.649998,100231.0,1.1909101
59894204,91.48238,37.649998,100231.0,1.1909101
59905053,91.14681,37.649998,100235.0,1.1909577
59915094,91.397835,37.649998,100232.0,1.190922
59937049,90.89315,37.649998,100238.0,1.1909933
59948648,91.397835,37.649998,100232.0,1.190922
59959042,91.81796,37.649998,100226.99,1.1908624
59982123,91.31592,37.649998,100232.99,1.1909337
59993689,91.062256,37.649998,100236.0,1.1909695
60004574,91.397835,37.649998,100232.0,1.190922
60026127,91.23137,37.649998,100234.0,1.1909457
60036384,91.062256,37.649998,100236.0,1.1909695
60047047,91.31592,37.649998,100232.99,1.1909337
60068522,91.14681,37.66,100235.0,1.1909577
60079472,91.23137,37.66,100234.0,1.1909457
60089200,91.31592,37.66,100232.99,1.1909337
60111058,91.14681,37.66,100235.0,1.1909577
60121185,91.6515,37.66,100229.0,1.1908864
60132419,91.397835,37.66,100232.0,1.190922
60153368,91.14681,37.66,100235.0,1.1909577
60164360,91.31592,37.66,100232.99,1.1909337
60175055,91.14681,37.66,100235.0,1.1909577
60197052,91.31592,37.66,100232.99,1.1909337
60207047,90.97771,37.66,100237.0,1.1909814
60218064,91.48238,37.66,100231.0,1.1909101
60239353,91.397835,37.66,100232.0,1.190922
60249719,91.23137,37.66,100234.0,1.1909457
60260043,91.56694,37.66,100230.0,1.1908982
60282181,91.48238,37.66,100231.0,1.1909101
60293049,91.56694,37.66,100230.0,1.1908982
60303100,91.397835,37.66,100232.0,1.190922
60324556,91.31592,37.66,100232.99,1.1909337
60335052,91.56694,37.66,100230.0,1.1908982
60346215,91.31592,37.66,100232.99,1.1909337
60369386,91.56694,37.66,100230.0,1.1908982
60380518,91.23137,37.66,100234.0,1.1909457
60390204,91.6515,37.66,100229.0,1.1908864
60411104,91.397835,37.649998,100232.0,1.190922
60422358,91.397835,37.649998,100232.0,1.190922
60433046,91.48238,37.649998,100231.0,1.1909101
60455052,91.14681,37.66,100235.0,1.1909577
60465142,91.14681,37.66,100235.0,1.1909577
60475050,91.397835,37.66,100232.0,1.190922
60497165,91.31592,37.66,100232.99,1.1909337
60508629,91.14681,37.66,100235.0,1.1909577
60519042,91.31592,37.66,100232.99,1.1909337
60541058,90.97771,37.66,100237.0,1.1909814
60551056,90.97771,37.66,100237.0,1.1909814
60562141,91.56694,37.66,100230.0,1.1908982
60583421,91.23137,37.66,100234.0,1.1909457
60593174,91.062256,37.66,100236.0,1.1909695
60604372,90.97771,37.66,100237.0,1.1909814
60625162,91.31592,37.66,100232.99,1.1909337
60636424,91.48238,37.66,100231.0,1.1909101
60647042,91.48238,37.66,100231.0,1.1909101
60668607,91.397835,37.66,100232.0,1.190922
60679048,91.56694,37.66,100230.0,1.1908982
60690042,91.062256,37.66,100236.0,1.1909695
60711059,91.23137,37.66,100234.0,1.1909457
60722210,91.397835,37.66,100232.0,1.190922
60732582,91.31592,37.66,100232.99,1.1909337
60754124,91.48238,37.67,100231.0,1.1909101
60764879,91.397835,37.67,100232.0,1.190922
60775081,91.397835,37.67,100232.0,1.190922
60795052,90.89315,37.67,100238.0,1.1909933
60806169,91.14681,37.67,100235.0,1.1909577
60817042,91.48238,37.67,100231.0,1.1909101
60838128,91.48238,37.67,100231.0,1.1909101
60849778,91.48238,37.67,100231.0,1.1909101
60860376,91.31592,37.67,100232.99,1.1909337
60882099,91.31592,37.67,100232.99,1.1909337
60892579,91.31592,37.67,100232.99,1.1909337
60903076,91.14681,37.67,100235.0,1.1909577
60925047,91.56694,37.67,100230.0,1.1908982
60937051,91.23137,37.67,100234.0,1.1909457
60948528,91.56694,37.67,100230.0,1.1908982
60970779,91.397835,37.66,100232.0,1.190922
60980574,91.48238,37.66,100231.0,1.1909101
60991393,91.397835,37.66,100232.0,1.190922
61013356,91.56694,37.67,100230.0,1.1908982
61024902,91.48238,37.67,100231.0,1.1909101
61035382,91.56694,37.67,100230.0,1.1908982
61057353,91.23137,37.67,100234.0,1.1909457
61068561,91.397835,37.67,100232.0,1.190922
61079386,91.48238,37.67,100231.0,1.1909101
61100440,91.397835,37.67,100232.0,1.190922
61110103,91.062256,37.67,100236.0,1.1909695
61121521,91.23137,37.67,100234.0,1.1909457
61142156,91.6515,37.67,100229.0,1.1908864
61153047,91.56694,37.67,100230.0,1.1908982
61164387,91.31592,37.67,100232.99,1.1909337
61186160,91.062256,37.67,100236.0,1.1909695
61196413,91.23137,37.67,100234.0,1.1909457
61207043,91.14681,37.67,100235.0,1.1909577
61228563,91.062256,37.67,100236.0,1.1909695
61239047,91.062256,37.67,100236.0,1.1909695
61250305,91.397835,37.67,100232.0,1.190922
61271054,91.397835,37.67,100232.0,1.190922
61282056,91.397835,37.67,100232.0,1.190922
61293042,91.14681,37.67,100235.0,1.1909577
61316457,91.31592,37.67,100232.99,1.1909337
61327082,91.14681,37.67,100235.0,1.1909577
61338130,91.48238,37.67,100231.0,1.1909101
61360988,91.14681,37.67,100235.0,1.1909577
61372577,91.397835,37.67,100232.0,1.190922
61383031,91.56694,37.67,100230.0,1.1908982
61404577,90.81124,37.67,100238.99,1.191005
61415366,91.31592,37.67,100232.99,1.1909337
61425219,91.23137,37.67,100234.0,1.1909457
61446123,91.14681,37.67,100235.0,1.1909577
61457055,91.6515,37.67,100229.0,1.1908864
61468412,91.23137,37.67,100234.0,1.1909457
61489198,91.31592,37.67,100232.99,1.1909337
61500406,91.31592,37.67,100232.99,1.1909337
61511046,91.48238,37.67,100231.0,1.1909101
61533055,91.14681,37.67,100235.0,1.1909577
61545356,91.397835,37.67,100232.0,1.190922
61556517,91.23137,37.67,100234.0,1.1909457
61577063,91.23137,37.67,100234.0,1.1909457
61587104,91.48238,37.67,100231.0,1.1909101
61598472,91.397835,37.67,100232.0,1.190922
61620719,91.31592,37.67,100232.99,1.1909337
61631047,91.31592,37.67,100232.99,1.1909337
61641393,91.062256,37.67,100236.0,1.1909695
61662124,91.062256,37.68,100236.0,1.1909695
61673050,91.48238,37.68,100231.0,1.1909101
61684411,91.062256,37.68,100236.0,1.1909695
61706162,91.81796,37.67,100226.99,1.1908624
61717058,91.81796,37.67,100226.99,1.1908624
61727042,91.14681,37.67,100235.0,1.1909577
61748057,91.397835,37.68,100232.0,1.190922
61759421,91.31592,37.68,100232.99,1.1909337
61769497,91.062256,37.68,100236.0,1.1909695
61791050,91.062256,37.68,100236.0,1.1909695
61802123,91.31592,37.68,100232.99,1.1909337
61813046,91.14681,37.68,100235.0,1.1909577
61836521,91.14681,37.68,100235.0,1.1909577
61847047,91.48238,37.68,100231.0,1.1909101
61858161,91.48238,37.68,100231.0,1.1909101
61880047,91.48238,37.68,100231.0,1.1909101
61891052,91.48238,37.68,100231.0,1.1909101
61902122,91.23137,37.68,100234.0,1.1909457
61923053,90.97771,37.68,100237.0,1.1909814
61934172,91.56694,37.68,100230.0,1.1908982
61945455,91.23137,37.68,100234.0,1.1909457
61967047,91.31592,37.68,100232.99,1.1909337
61978127,91.397835,37.68,100232.0,1.190922
61989046,91.397835,37.68,100232.0,1.190922
62010124,90.97771,37.68,100237.0,1.1909814
62020530,91.23137,37.68,100234.0,1.1909457
62030402,90.89315,37.68,100238.0,1.1909933
62052726,91.48238,37.69,100231.0,1.1909101
62063103,91.062256,37.69,100236.0,1.1909695
62074450,91.31592,37.69,100232.99,1.1909337
62095418,91.397835,37.68,100232.0,1.190922
62105382,91.31592,37.68,100232.99,1.1909337
62116359,91.6515,37.68,100229.0,1.1908864
62138124,91.23137,37.68,100234.0,1.1909457
62148551,91.31592,37.68,100232.99,1.1909337
62159043,91.14681,37.68,100235.0,1.1909577
62180356,91.14681,37.69,100235.0,1.1909577
62191154,91.397835,37.69,100232.0,1.190922
62202119,91.062256,37.69,100236.0,1.1909695
62223048,91.6515,37.68,100229.0,1.1908864
62234063,91.062256,37.68,100236.0,1.1909695
62245048,91.48238,37.68,100231.0,1.1909101
62268567,91.31592,37.69,100232.99,1.1909337
62279061,90.89315,37.69,100238.0,1.1909933
62289341,91.23137,37.69,100234.0,1.1909457
62311190,91.14681,37.68,100235.0,1.1909577
62321535,91.062256,37.68,100236.0,1.1909695
62331223,91.56694,37.68,100230.0,1.1908982
62353175,91.48238,37.69,100231.0,1.1909101
62364588,91.23137,37.69,100234.0,1.1909457
62375056,90.97771,37.69,100237.0,1.1909814
62396390,90.81124,37.69,100238.99,1.191005
62407051,91.31592,37.69,100232.99,1.1909337
62418130,91.14681,37.69,100235.0,1.1909577
62440893,91.397835,37.69,100232.0,1.190922
62451122,91.062256,37.69,100236.0,1.1909695
62462122,91.397835,37.69,100232.0,1.190922
62484496,91.31592,37.69,100232.99,1.1909337
62495047,91.14681,37.69,100235.0,1.1909577
62506159,91.48238,37.69,100231.0,1.1909101
62527376,91.397835,37.69,100232.0,1.190922
62537989,91.062256,37.69,100236.0,1.1909695
62548531,90.97771,37.69,100237.0,1.1909814
62570057,91.23137,37.69,100234.0,1.1909457
62581049,91.397835,37.69,100232.0,1.190922
62593334,91.397835,37.69,100232.0,1.190922
62615047,91.23137,37.69,100234.0,1.1909457
62626128,90.89315,37.69,100238.0,1.1909933
62637173,91.31592,37.69,100232.99,1.1909337
62660550,91.397835,37.69,100232.0,1.190922
62671048,91.397835,37.69,100232.0,1.190922
62682052,91.397835,37.69,100232.0,1.190922
62703047,91.6515,37.69,100229.0,1.1908864
62713527,91.14681,37.69,100235.0,1.1909577
62724420,91.397835,37.69,100232.0,1.190922
62746135,91.397835,37.69,100232.0,1.190922
62756527,91.56694,37.69,100230.0,1.1908982
62766137,91.14681,37.69,100235.0,1.1909577
62787047,91.14681,37.69,100235.0,1.1909577
62798102,91.23137,37.69,100234.0,1.1909457
62809067,91.14681,37.69,100235.0,1.1909577
62831052,91.23137,37.69,100234.0,1.1909457
62841518,91.062256,37.69,100236.0,1.1909695
62852690,91.48238,37.69,100231.0,1.1909101
62873168,90.81124,37.69,100238.99,1.191005
62883099,91.48238,37.69,100231.0,1.1909101
62894474,91.397835,37.69,100232.0,1.190922
62916596,91.23137,37.7,100234.0,1.1909457
62927052,91.23137,37.7,100234.0,1.1909457
62937143,91.98707,37.7,100225.0,1.1908388
62958124,91.81796,37.7,100226.99,1.1908624
62969795,91.062256,37.7,100236.0,1.1909695
62980374,91.31592,37.7,100232.99,1.1909337
63002124,91.23137,37.7,100234.0,1.1909457
63013059,91.31592,37.7,100232.99,1.1909337
63023097,91.14681,37.7,100235.0,1.1909577
63044391,91.6515,37.7,100229.0,1.1908864
63055359,91.48238,37.7,100231.0,1.1909101
63066126,91.48238,37.7,100231.0,1.1909101
63088960,90.97771,37.7,100237.0,1.1909814
63099353,91.6515,37.7,100229.0,1.1908864
63110190,91.14681,37.7,100235.0,1.1909577
63132719,91.48238,37.7,100231.0,1.1909101
63143363,91.6515,37.7,100229.0,1.1908864
63153446,91.31592,37.7,100232.99,1.1909337
63175047,91.48238,37.7,100231.0,1.1909101
63186150,91.31592,37.7,100232.99,1.1909337
63196521,90.97771,37.7,100237.0,1.1909814
63218123,91.14681,37.7,100235.0,1.1909577
63228524,91.397835,37.7,100232.0,1.190922
63238118,91.23137,37.7,100234.0,1.1909457
63260562,91.23137,37.7,100234.0,1.1909457
63271062,91.062256,37.7,100236.0,1.1909695
63281386,91.56694,37.7,100230.0,1.1908982
63303378,91.31592,37.7,100232.99,1.1909337
63313496,91.31592,37.7,100232.99,1.1909337
63324533,91.733406,37.7,100228.0,1.1908745
63346123,91.062256,37.7,100236.0,1.1909695
63357175,91.48238,37.7,100231.0,1.1909101
63369613,91.397835,37.7,100232.0,1.190922
63391047,91.062256,37.7,100236.0,1.1909695
63401050,91.14681,37.7,100235.0,1.1909577
63412728,91.397835,37.7,100232.0,1.190922
63433389,91.48238,37.71,100231.0,1.1909101
63444394,91.23137,37.71,100234.0,1.1909457
63455043,91.062256,37.71,100236.0,1.1909695
63476513,91.397835,37.7,100232.0,1.190922
63487353,91.14681,37.7,100235.0,1.1909577
63498128,91.14681,37.7,100235.0,1.1909577
63518137,91.14681,37.71,100235.0,1.1909577
63529171,91.48238,37.71,100231.0,1.1909101
63540407,91.062256,37.71,100236.0,1.1909695
63562281,91.31592,37.7,100232.99,1.1909337
63572754,91.56694,37.7,100230.0,1.1908982
63583099,91.31592,37.7,100232.99,1.1909337
63604662,91.397835,37.7,100232.0,1.190922
63615089,91.56694,37.7,100230.0,1.1908982
63626118,91.48238,37.7,100231.0,1.1909101
63647047,91.48238,37.71,100231.0,1.1909101
63658124,91.23137,37.71,100234.0,1.1909457
63669053,91.48238,37.71,100231.0,1.1909101
63692733,90.97771,37.71,100237.0,1.1909814
63703091,91.14681,37.71,100235.0,1.1909577
63713995,90.97771,37.71,100237.0,1.1909814
63735352,91.31592,37.71,100232.99,1.1909337
63745149,91.14681,37.71,100235.0,1.1909577
63756381,91.48238,37.71,100231.0,1.1909101
63778151,91.48238,37.71,100231.0,1.1909101
63788562,91.14681,37.71,100235.0,1.1909577
63799055,91.062256,37.71,100236.0,1.1909695
63820504,91.062256,37.71,100236.0,1.1909695
63831363,91.31592,37.71,100232.99,1.1909337
63841443,91.31592,37.71,100232.99,1.1909337
63862126,91.733406,37.71,100228.0,1.1908745
63873433,91.48238,37.71,100231.0,1.1909101
63883042,91.31592,37.71,100232.99,1.1909337
63905051,91.31592,37.71,100232.99,1.1909337
63916639,91.23137,37.71,100234.0,1.1909457
63926164,91.397835,37.71,100232.0,1.190922
63948513,91.397835,37.719997,100232.0,1.190922
63959099,91.14681,37.719997,100235.0,1.1909577
63970156,91.31592,37.719997,100232.99,1.1909337
63991048,91.14681,37.719997,100235.0,1.1909577
64001199,91.397835,37.719997,100232.0,1.190922
64012382,91.397835,37.719997,100232.0,1.190922
64034167,91.31592,37.71,100232.99,1.1909337
64045057,91.6515,37.71,100229.0,1.1908864
64055065,91.14681,37.71,100235.0,1.1909577
64077173,90.89315,37.719997,100238.0,1.1909933
64088954,91.31592,37.719997,100232.99,1.1909337
64099043,91.397835,37.719997,100232.0,1.190922
64121054,91.062256,37.719997,100236.0,1.1909695
64132432,91.31592,37.719997,100232.99,1.1909337
64143093,91.81796,37.719997,100226.99,1.1908624
64164600,91.31592,37.719997,100232.99,1.1909337
64175354,91.31592,37.719997,100232.99,1.1909337
64186291,91.14681,37.719997,100235.0,1.1909577
64207146,91.397835,37.719997,100232.0,1.190922
64218125,90.89315,37.719997,100238.0,1.1909933
64229053,91.48238,37.719997,100231.0,1.1909101
64250161,91.23137,37.71,100234.0,1.1909457
64261048,91.23137,37.71,100234.0,1.1909457
64273430,91.81796,37.71,100226.99,1.1908624
64295065,91.31592,37.719997,100232.99,1.1909337
64305061,90.89315,37.719997,100238.0,1.1909933
64316592,91.062256,37.719997,100236.0,1.1909695
64337143,91.6515,37.71,100229.0,1.1908864
64348513,91.062256,37.71,100236.0,1.1909695
64359395,91.397835,37.71,100232.0,1.190922
64380409,90.97771,37.719997,100237.0,1.1909814
64391108,91.23137,37.719997,100234.0,1.1909457
64402119,91.6515,37.719997,100229.0,1.1908864
64423074,91.23137,37.719997,100234.0,1.1909457
64433780,91.397835,37.719997,100232.0,1.190922
64444378,91.23137,37.719997,100234.0,1.1909457
64466124,91.48238,37.719997,100231.0,1.1909101
64477057,91.31592,37.719997,100232.99,1.1909337
64487055,91.48238,37.719997,100231.0,1.1909101
64509052,90.97771,37.719997,100237.0,1.1909814
64521598,91.733406,37.719997,100228.0,1.1908745
64532425,91.14681,37.719997,100235.0,1.1909577
64553050,91.23137,37.73,100234.0,1.1909457
64564387,91.062256,37.73,100236.0,1.1909695
64575042,91.48238,37.73,100231.0,1.1909101
64597051,91.31592,37.719997,100232.99,1.1909337
64609982,91.48238,37.719997,100231.0,1.1909101
64620556,91.397835,37.719997,100232.0,1.190922
64642126,91.6515,37.719997,100229.0,1.1908864
64652612,91.23137,37.719997,100234.0,1.1909457
64662118,91.397835,37.719997,100232.0,1.190922
64684507,91.23137,37.719997,100234.0,1.1909457
64695052,91.31592,37.719997,100232.99,1.1909337
64705193,91.14681,37.719997,100235.0,1.1909577
64727058,91.397835,37.719997,100232.0,1.190922
64738130,91.397835,37.719997,100232.0,1.190922
64749177,91.733406,37.719997,100228.0,1.1908745
64770125,91.062256,37.73,100236.0,1.1909695
64780586,91.23137,37.73,100234.0,1.1909457
64790438,91.062256,37.73,100236.0,1.1909695
64812736,91.14681,37.73,100235.0,1.1909577
64823048,91.14681,37.73,100235.0,1.1909577
64833325,91.31592,37.73,100232.99,1.1909337
64854126,91.6515,37.719997,100229.0,1.1908864
64865747,91.6515,37.719997,100229.0,1.1908864
64876403,91.56694,37.719997,100230.0,1.1908982
64898124,91.14681,37.73,100235.0,1.1909577
64908694,91.31592,37.73,100232.99,1.1909337
64919051,91.23137,37.73,100234.0,1.1909457
64940411,91.14681,37.73,100235.0,1.1909577
64950480,91.56694,37.73,100230.0,1.1908982
64961042,91.733406,37.73,100228.0,1.1908745
64983048,91.23137,37.73,100234.0,1.1909457
64994484,91.14681,37.73,100235.0,1.1909577
65005056,90.97771,37.73,100237.0,1.1909814
65028539,91.397835,37.73,100232.0,1.190922
65039393,91.31592,37.73,100232.99,1.1909337
65049750,91.062256,37.73,100236.0,1.1909695
65071091,90.89315,37.73,100238.0,1.1909933
65082135,91.31592,37.73,100232.99,1.1909337
65092420,91.397835,37.73,100232.0,1.190922
65113543,91.48238,37.73,100231.0,1.1909101
65124546,91.31592,37.73,100232.99,1.1909337
65135042,91.397835,37.73,100232.0,1.190922
65157047,91.062256,37.73,100236.0,1.1909695
65167051,91.397835,37.73,100232.0,1.190922
65178275,91.48238,37.73,100231.0,1.1909101
65199353,90.97771,37.73,100237.0,1.1909814
65209310,91.23137,37.73,100234.0,1.1909457
65220387,91.733406,37.73,100228.0,1.1908745
65241461,91.56694,37.73,100230.0,1.1908982
65252564,91.48238,37.73,100231.0,1.1909101
65263047,91.48238,37.73,100231.0,1.1909101
65285052,91.23137,37.73,100234.0,1.1909457
65296997,91.23137,37.73,100234.0,1.1909457
65307042,91.23137,37.73,100234.0,1.1909457
65329418,91.56694,37.73,100230.0,1.1908982
65340522,91.56694,37.73,100230.0,1.1908982
65351073,91.31592,37.73,100232.99,1.1909337
65372397,91.81796,37.73,100226.99,1.1908624
65383052,91.31592,37.73,100232.99,1.1909337
65394054,91.397835,37.73,100232.0,1.190922
65415047,91.31592,37.73,100232.99,1.1909337
65426054,91.31592,37.73,100232.99,1.1909337
65437042,90.97771,37.73,100237.0,1.1909814
65459089,91.062256,37.739998,100236.0,1.1909695
65469359,91.31592,37.739998,100232.99,1.1909337
65480348,91.31592,37.739998,100232.99,1.1909337
65502147,91.733406,37.739998,100228.0,1.1908745
65513434,91.48238,37.739998,100231.0,1.1909101
65525298,91.6515,37.739998,100229.0,1.1908864
65546132,90.89315,37.73,100238.0,1.1909933
65557331,91.31592,37.73,100232.99,1.1909337
65567050,91.31592,37.73,100232.99,1.1909337
65589183,91.31592,37.739998,100232.99,1.1909337
65600380,91.48238,37.739998,100231.0,1.1909101
65611042,90.81124,37.739998,100238.99,1.191005
65633047,91.23137,37.739998,100234.0,1.1909457
65643056,91.397835,37.739998,100232.0,1.190922
65654118,91.23137,37.739998,100234.0,1.1909457
65675353,91.31592,37.739998,100232.99,1.1909337
65685640,91.31592,37.739998,100232.99,1.1909337
65696497,91.31592,37.739998,100232.99,1.1909337
65717047,91.14681,37.739998,100235.0,1.1909577
65728644,90.81124,37.739998,100238.99,1.191005
65739051,91.48238,37.739998,100231.0,1.1909101
65760537,91.48238,37.739998,100231.0,1.1909101
65771354,91.23137,37.739998,100234.0,1.1909457
65781294,91.23137,37.739998,100234.0,1.1909457
65802124,90.97771,37.739998,100237.0,1.1909814
65813456,91.397835,37.739998,100232.0,1.190922
65823042,91.31592,37.739998,100232.99,1.1909337
65845051,91.56694,37.739998,100230.0,1.1908982
65856402,91.397835,37.739998,100232.0,1.190922
65867042,91.062256,37.739998,100236.0,1.1909695
65889088,91.56694,37.739998,100230.0,1.1908982
65899099,91.48238,37.739998,100231.0,1.1909101
65909362,91.733406,37.739998,100228.0,1.1908745
65931089,91.23137,37.739998,100234.0,1.1909457
65941415,91.31592,37.739998,100232.99,1.1909337
65952462,91.23137,37.739998,100234.0,1.1909457
65974255,91.23137,37.739998,100234.0,1.1909457
65985052,91.14681,37.739998,100235.0,1.1909577
65995047,91.14681,37.739998,100235.0,1.1909577
66017047,91.062256,37.75,100236.0,1.1909695
66028951,91.31592,37.75,100232.99,1.1909337
66039043,91.14681,37.75,100235.0,1.1909577
66061164,91.48238,37.739998,100231.0,1.1909101
66072416,91.733406,37.739998,100228.0,1.1908745
66083054,91.56694,37.739998,100230.0,1.1908982
66104402,91.397835,37.739998,100232.0,1.190922
66115062,91.56694,37.739998,100230.0,1.1908982
66125556,91.56694,37.739998,100230.0,1.1908982
66147379,91.14681,37.75,100235.0,1.1909577
66157218,90.89315,37.75,100238.0,1.1909933
66168626,91.31592,37.75,100232.99,1.1909337
66189162,91.062256,37.75,100236.0,1.1909695
66200397,91.397835,37.75,100232.0,1.190922
66211105,91.48238,37.75,100231.0,1.1909101
66232564,90.97771,37.739998,100237.0,1.1909814
66243064,91.48238,37.739998,100231.0,1.1909101
66253173,91.48238,37.739998,100231.0,1.1909101
66274222,91.6515,37.75,100229.0,1.1908864
66285412,91.48238,37.75,100231.0,1.1909101
66295245,91.48238,37.75,100231.0,1.1909101
66317090,91.31592,37.75,100232.99,1.1909337
66328879,91.062256,37.75,100236.0,1.1909695
66339047,91.14681,37.75,100235.0,1.1909577
66359047,91.397835,37.75,100232.0,1.190922
66370173,91.31592,37.75,100232.99,1.1909337
66381772,91.56694,37.75,100230.0,1.1908982
66403059,91.397835,37.75,100232.0,1.190922
66414182,91.062256,37.75,100236.0,1.1909695
66425060,91.56694,37.75,100230.0,1.1908982
66447047,90.81124,37.75,100238.99,1.191005
66458128,91.397835,37.75,100232.0,1.190922
66469204,91.14681,37.75,100235.0,1.1909577
66491058,91.14681,37.75,100235.0,1.1909577
66502181,91.733406,37.75,100228.0,1.1908745
66512541,90.97771,37.75,100237.0,1.1909814
66533207,91.48238,37.75,100231.0,1.1909101
66544675,91.81796,37.75,100226.99,1.1908624
66555384,91.23137,37.75,100234.0,1.1909457
66576362,91.23137,37.75,100234.0,1.1909457
66587047,91.31592,37.75,100232.99,1.1909337
66598137,91.397835,37.75,100232.0,1.190922
66621191,90.97771,37.75,100237.0,1.1909814
66632358,91.56694,37.75,100230.0,1.1908982
66643043,91.23137,37.75,100234.0,1.1909457
66665052,91.062256,37.75,100236.0,1.1909695
66676884,91.56694,37.75,100230.0,1.1908982
66687147,91.31592,37.75,100232.99,1.1909337
66709050,91.23137,37.76,100234.0,1.1909457
66720345,91.14681,37.76,100235.0,1.1909577
66731073,91.48238,37.76,100231.0,1.1909101
66752551,91.56694,37.75,100230.0,1.1908982
66763362,91.14681,37.75,100235.0,1.1909577
66773333,91.31592,37.75,100232.99,1.1909337
66795059,91.81796,37.75,100226.99,1.1908624
66806178,91.14681,37.75,100235.0,1.1909577
66817053,91.23137,37.75,100234.0,1.1909457
66838145,91.31592,37.75,100232.99,1.1909337
66848571,91.062256,37.75,100236.0,1.1909695
66859363,91.062256,37.75,100236.0,1.1909695
66880574,90.97771,37.76,100237.0,1.1909814
66891048,91.14681,37.76,100235.0,1.1909577
66901048,91.56694,37.76,100230.0,1.1908982
66923047,91.23137,37.76,100234.0,1.1909457
66934150,91.733406,37.76,100228.0,1.1908745
66944414,91.23137,37.76,100234.0,1.1909457
66966156,90.97771,37.76,100237.0,1.1909814
66976708,91.31592,37.76,100232.99,1.1909337
66987042,90.89315,37.76,100238.0,1.1909933
67008451,90.97771,37.76,100237.0,1.1909814
67019099,91.48238,37.76,100231.0,1.1909101
67030126,91.397835,37.76,100232.0,1.190922
67051427,91.062256,37.76,100236.0,1.1909695
67062511,91.14681,37.76,100235.0,1.1909577
67073133,91.23137,37.76,100234.0,1.1909457
67094127,91.14681,37.76,100235.0,1.1909577
67104606,91.14681,37.76,100235.0,1.1909577
67115043,91.733406,37.76,100228.0,1.1908745
67136673,91.48238,37.76,100231.0,1.1909101
67147358,91.56694,37.76,100230.0,1.1908982
67157513,91.48238,37.76,100231.0,1.1909101
67179057,91.56694,37.76,100230.0,1.1908982
67190154,91.31592,37.76,100232.99,1.1909337
67201047,91.56694,37.76,100230.0,1.1908982
67222124,91.6515,37.76,100229.0,1.1908864
67232523,91.23137,37.76,100234.0,1.1909457
67243348,91.98707,37.76,100225.0,1.1908388
67264424,91.397835,37.77,100232.0,1.190922
67275090,91.48238,37.77,100231.0,1.1909101
67286132,91.397835,37.77,100232.0,1.190922
67307047,91.397835,37.76,100232.0,1.190922
67318187,91.48238,37.76,100231.0,1.1909101
67328522,91.14681,37.76,100235.0,1.1909577
67349049,91.31592,37.77,100232.99,1.1909337
67359115,91.14681,37.77,100235.0,1.1909577
67370121,91.397835,37.77,100232.0,1.190922
67392593,91.733406,37.76,100228.0,1.1908745
67403047,91.56694,37.76,100230.0,1.1908982
67414132,91.6515,37.76,100229.0,1.1908864
67435099,90.89315,37.77,100238.0,1.1909933
67446059,91.23137,37.77,100234.0,1.1909457
67457054,91.397835,37.77,100232.0,1.190922
67477787,91.31592,37.77,100232.99,1.1909337
67488627,91.14681,37.77,100235.0,1.1909577
67499389,91.23137,37.77,100234.0,1.1909457
67520779,91.48238,37.77,100231.0,1.1909101
67530099,91.81796,37.77,100226.99,1.1908624
67541399,91.6515,37.77,100229.0,1.1908864
67563061,91.14681,37.77,100235.0,1.1909577
67573761,91.062256,37.77,100236.0,1.1909695
67584526,91.81796,37.77,100226.99,1.1908624
67606123,91.14681,37.77,100235.0,1.1909577
67616700,91.733406,37.77,100228.0,1.1908745
67627047,91.6515,37.77,100229.0,1.1908864
67648601,91.23137,37.77,100234.0,1.1909457
67659403,91.6515,37.77,100229.0,1.1908864
67669046,91.31592,37.77,100232.99,1.1909337
67690127,91.6515,37.77,100229.0,1.1908864
67701157,91.23137,37.77,100234.0,1.1909457
67712504,91.31592,37.77,100232.99,1.1909337
67733219,91.31592,37.77,100232.99,1.1909337
67744530,91.23137,37.77,100234.0,1.1909457
67755048,91.31592,37.77,100232.99,1.1909337
67776683,91.23137,37.77,100234.0,1.1909457
67786191,91.48238,37.77,100231.0,1.1909101
67797054,91.31592,37.77,100232.99,1.1909337
67818124,91.23137,37.78,100234.0,1.1909457
67829359,91.14681,37.78,100235.0,1.1909577
67840753,91.31592,37.78,100232.99,1.1909337
67861219,91.062256,37.77,100236.0,1.1909695
67871047,91.31592,37.77,100232.99,1.1909337
67882042,91.90252,37.77,100225.99,1.1908506
67904505,91.397835,37.78,100232.0,1.190922
67915089,91.733406,37.78,100228.0,1.1908745
67926167,91.23137,37.78,100234.0,1.1909457
67947101,91.397835,37.77,100232.0,1.190922
67957853,91.397835,37.77,100232.0,1.190922
67968527,91.31592,37.77,100232.99,1.1909337
67990190,91.14681,37.77,100235.0,1.1909577
68000736,91.397835,37.77,100232.0,1.190922
68011042,91.23137,37.77,100234.0,1.1909457
68032576,91.14681,37.78,100235.0,1.1909577
68043407,91.397835,37.78,100232.0,1.190922
68054130,91.23137,37.78,100234.0,1.1909457
68074160,91.31592,37.78,100232.99,1.1909337
68085590,90.97771,37.78,100237.0,1.1909814
68096410,91.397835,37.78,100232.0,1.190922
68117309,91.733406,37.78,100228.0,1.1908745
68128588,91.397835,37.78,100232.0,1.190922
68139048,91.397835,37.78,100232.0,1.190922
68160388,91.14681,37.78,100235.0,1.1909577
68171101,91.90252,37.78,100225.99,1.1908506
68181859,91.397835,37.78,100232.0,1.190922
68203047,91.31592,37.78,100232.99,1.1909337
68213162,91.23137,37.78,100234.0,1.1909457
68224408,91.31592,37.78,100232.99,1.1909337
68843058,91.397835,37.78,100232.0,1.190922
68853583,91.23137,37.78,100234.0,1.1909457
68864413,91.397835,37.78,100232.0,1.190922
68950118,91.14681,37.79,100235.0,1.1909577
68971057,91.397835,37.79,100232.0,1.190922
68982124,91.062256,37.79,100236.0,1.1909695
68993042,91.23137,37.79,100234.0,1.1909457
69016419,91.81796,37.78,100226.99,1.1908624
69026199,91.23137,37.78,100234.0,1.1909457
69037326,91.733406,37.78,100228.0,1.1908745
69059082,91.23137,37.79,100234.0,1.1909457
69070147,91.48238,37.79,100231.0,1.1909101
69080405,91.397835,37.79,100232.0,1.190922
69101353,91.31592,37.79,100232.99,1.1909337
69112609,91.48238,37.79,100231.0,1.1909101
69123459,91.14681,37.79,100235.0,1.1909577
69144574,91.397835,37.79,100232.0,1.190922
69155047,91.48238,37.79,100231.0,1.1909101
69166159,91.23137,37.79,100234.0,1.1909457
69187078,91.48238,37.79,100231.0,1.1909101
69198272,91.397835,37.79,100232.0,1.190922
69208604,91.48238,37.79,100231.0,1.1909101
69229643,91.31592,37.79,100232.99,1.1909337
69240417,91.56694,37.79,100230.0,1.1908982
69251043,91.397835,37.79,100232.0,1.190922
69272533,91.48238,37.79,100231.0,1.1909101
69283055,91.56694,37.79,100230.0,1.1908982
69294119,91.062256,37.79,100236.0,1.1909695
69315419,90.81124,37.79,100238.99,1.191005
69325805,91.6515,37.79,100229.0,1.1908864
69336550,91.56694,37.79,100230.0,1.1908982
69357494,91.397835,37.79,100232.0,1.190922
69368559,91.397835,37.79,100232.0,1.190922
69379093,91.31592,37.79,100232.99,1.1909337
69400586,91.56694,37.79,100230.0,1.1908982
69411058,91.31592,37.79,100232.99,1.1909337
69421418,91.23137,37.79,100234.0,1.1909457
69447065,91.48238,37.79,100231.0,1.1909101
69458162,91.23137,37.79,100234.0,1.1909457
69469792,91.48238,37.79,100231.0,1.1909101
69491061,91.062256,37.79,100236.0,1.1909695
69502176,91.56694,37.79,100230.0,1.1908982
69513180,91.98707,37.79,100225.0,1.1908388
69534123,91.23137,37.79,100234.0,1.1909457
69544399,91.23137,37.79,100234.0,1.1909457
69555356,91.6515,37.79,100229.0,1.1908864
69576583,91.23137,37.79,100234.0,1.1909457
69586174,91.31592,37.79,100232.99,1.1909337
69597150,91.397835,37.79,100232.0,1.190922
69619047,91.23137,37.8,100234.0,1.1909457
69629192,91.14681,37.8,100235.0,1.1909577
69640509,91.6515,37.8,100229.0,1.1908864
69662155,91.23137,37.8,100234.0,1.1909457
69673114,91.14681,37.8,100235.0,1.1909577
69685054,91.14681,37.8,100235.0,1.1909577
69707051,91.31592,37.8,100232.99,1.1909337
69717120,91.397835,37.8,100232.0,1.190922
69728648,91.6515,37.8,100229.0,1.1908864
69749353,91.062256,37.79,100236.0,1.1909695
69760561,91.6515,37.79,100229.0,1.1908864
69771045,91.397835,37.79,100232.0,1.190922
69791048,91.23137,37.79,100234.0,1.1909457
69802176,91.733406,37.79,100228.0,1.1908745
69813045,91.48238,37.79,100231.0,1.1909101
69835060,91.14681,37.8,100235.0,1.1909577
69845992,91.14681,37.8,100235.0,1.1909577
69856513,91.48238,37.8,100231.0,1.1909101
69878139,91.397835,37.8,100232.0,1.190922
69889369,91.14681,37.8,100235.0,1.1909577
69901355,91.48238,37.8,100231.0,1.1909101
69923047,91.31592,37.8,100232.99,1.1909337
69933343,91.23137,37.8,100234.0,1.1909457
69943051,91.6515,37.8,100229.0,1.1908864
69965048,90.97771,37.8,100237.0,1.1909814
69976370,91.23137,37.8,100234.0,1.1909457
69987098,91.397835,37.8,100232.0,1.190922
70009055,91.31592,37.8,100232.99,1.1909337
70019072,90.97771,37.8,100237.0,1.1909814
70030155,91.23137,37.8,100234.0,1.1909457
70052917,91.31592,37.8,100232.99,1.1909337
70063048,91.23137,37.8,100234.0,1.1909457
70074118,91.397835,37.8,100232.0,1.190922
70096550,91.48238,37.8,100231.0,1.1909101
70107069,90.97771,37.8,100237.0,1.1909814
70117689,91.90252,37.8,100225.99,1.1908506
70139390,91.48238,37.8,100231.0,1.1909101
70149560,91.56694,37.8,100230.0,1.1908982
70160526,91.14681,37.8,100235.0,1.1909577
70182124,91.6515,37.8,100229.0,1.1908864
70193206,91.31592,37.8,100232.99,1.1909337
70205312,91.31592,37.8,100232.99,1.1909337
70227048,90.81124,37.8,100238.99,1.191005
70238217,91.31592,37.8,100232.99,1.1909337
70249042,91.6515,37.8,100229.0,1.1908864
70270127,91.31592,37.8,100232.99,1.1909337
70280518,91.23137,37.8,100234.0,1.1909457
70291046,91.23137,37.8,100234.0,1.1909457
70312605,91.14681,37.8,100235.0,1.1909577
70323047,91.31592,37.8,100232.99,1.1909337
70333140,91.31592,37.8,100232.99,1.1909337
70355063,91.48238,37.8,100231.0,1.1909101
70366161,91.6515,37.8,100229.0,1.1908864
70377046,91.56694,37.8,100230.0,1.1908982
70398124,91.397835,37.809998,100232.0,1.190922
70408565,91.062256,37.809998,100236.0,1.1909695
70418126,91.56694,37.809998,100230.0,1.1908982
70440555,91.14681,37.809998,100235.0,1.1909577
70451050,91.48238,37.809998,100231.0,1.1909101
70462164,91.23137,37.809998,100234.0,1.1909457
70483099,91.31592,37.809998,100232.99,1.1909337
70494161,91.48238,37.809998,100231.0,1.1909101
70504548,91.23137,37.809998,100234.0,1.1909457
70526144,91.31592,37.809998,100232.99,1.1909337
70536260,91.397835,37.809998,100232.0,1.190922
70547047,91.31592,37.809998,100232.99,1.1909337
70569047,91.397835,37.809998,100232.0,1.190922
70581366,91.23137,37.809998,100234.0,1.1909457
70592401,91.6515,37.809998,100229.0,1.1908864
70613665,91.56694,37.809998,100230.0,1.1908982
70624420,90.89315,37.809998,100238.0,1.1909933
70635398,91.23137,37.809998,100234.0,1.1909457
70656601,91.31592,37.809998,100232.99,1.1909337
70667055,91.48238,37.809998,100231.0,1.1909101
70678158,91.397835,37.809998,100232.0,1.190922
70700877,91.14681,37.809998,100235.0,1.1909577
70711047,91.6515,37.809998,100229.0,1.1908864
70722119,91.6515,37.809998,100229.0,1.1908864
70744568,91.733406,37.809998,100228.0,1.1908745
70755088,91.56694,37.809998,100230.0,1.1908982
70766122,91.397835,37.809998,100232.0,1.190922
70787058,91.397835,37.809998,100232.0,1.190922
70798127,91.48238,37.809998,100231.0,1.1909101
70808553,91.81796,37.809998,100226.99,1.1908624
70830193,91.062256,37.82,100236.0,1.1909695
70840588,91.733406,37.82,100228.0,1.1908745
70851046,91.733406,37.82,100228.0,1.1908745
70873211,91.31592,37.809998,100232.99,1.1909337
70883065,91.23137,37.809998,100234.0,1.1909457
70894170,91.90252,37.809998,100225.99,1.1908506
70915443,91.23137,37.809998,100234.0,1.1909457
70925192,91.81796,37.809998,100226.99,1.1908624
70936545,91.48238,37.809998,100231.0,1.1909101
70957209,91.56694,37.809998,100230.0,1.1908982
70968544,91.733406,37.809998,100228.0,1.1908745
70978264,91.48238,37.809998,100231.0,1.1909101
71000657,91.48238,37.82,100231.0,1.1909101
71011077,91.81796,37.82,100226.99,1.1908624
71021171,91.733406,37.82,100228.0,1.1908745
71043047,91.48238,37.82,100231.0,1.1909101
