timestamp,error_count,device_id,x,y,z,integral_dt,x_integral,y_integral,z_integral,temperature,scaling,x_raw,y_raw,z_raw
50802870,0,2360354,-0.0020093275,0.0006531763,0.00029433105,4752,-8.761523e-06,3.1454522e-06,1.1764351e-06,41.001797,0.0010642195,0,6,3
50905275,0,2360354,0.00023922478,0.00064963975,1.1652535e-05,4005,-3.2247726e-06,2.4084986e-06,3.0414221e-06,40.995808,0.0010642195,1,5,2
51006915,0,2360354,0.0006986027,-0.0003556757,0.0005483463,4045,9.265205e-06,2.0053126e-06,6.5135528e-06,40.983826,0.0010642195,-4,5,5
51106892,0,2360354,0.0002417801,0.000827675,-0.00030437307,4784,5.9300555e-06,2.4035978e-06,-6.043136e-06,40.96286,0.0010642195,-2,5,1
51207670,0,2360354,-0.0008439827,-0.0012854363,0.0006231087,4000,-3.6379215e-06,-8.229789e-06,-7.7761433e-07,40.96286,0.0010642195,-1,8,2
51310932,0,2360354,-0.0004765045,0.00089689577,0.00061019463,4845,-5.9444974e-06,6.247988e-06,-6.0473013e-07,40.98083,0.0010642195,0,4,1
51411678,0,2360354,0.0003412685,0.000526159,-0.0007471334,4008,1.0704531e-06,-1.0146682e-06,5.510869e-07,40.998802,0.0010642195,-1,5,1
51512489,0,2360354,1.1681041e-05,0.00056004856,-0.00060880004,3219,-5.416599e-07,7.2155984e-07,-2.1333413e-07,40.971848,0.0010642195,-1,7,2
51614887,0,2360354,0.0001947549,0.0009542907,-0.00031310826,4011,1.9037703e-06,1.3074957e-05,3.9134334e-06,41.019768,0.0010642195,-1,2,4
51714106,0,2360354,-0.000302369,0.0005623143,-0.0023394302,3236,-1.3947778e-06,6.777949e-06,-2.3339394e-06,40.98682,0.0010642195,-1,3,4
51818105,0,2360354,0.00015512817,0.0011620137,-0.0004250056,3990,3.5860583e-06,3.2923447e-06,-7.149876e-07,41.001797,0.0010642195,-2,4,4
51918922,0,2360354,0.0009350959,9.458882e-05,0.0009850017,4035,7.875926e-06,7.1797047e-07,-1.2511505e-06,40.959866,0.0010642195,-2,5,2
52022107,0,2360354,0.00017214919,0.0009837452,-0.00071068347,3237,7.6754424e-07,5.0496183e-06,-1.9292565e-07,40.998802,0.0010642195,-1,4,3
52122870,0,2360354,-0.000596742,-0.00051747286,0.00029128426,4000,-2.7652638e-06,-4.427333e-06,1.8180137e-06,40.995808,0.0010642195,0,6,2
52224487,0,2360354,-0.00032141389,0.0005252324,-0.00026604053,4017,-5.3264603e-06,4.9744344e-06,-1.2119666e-06,40.995808,0.0010642195,-1,5,4
52323677,0,2360354,0.00042647042,0.00010082617,0.0012551652,4007,6.5923196e-06,1.9864738e-06,4.3207474e-06,41.00479,0.0010642195,-3,5,3
52427670,0,2360354,-1.6784299e-05,8.3744395e-05,0.00087025866,4000,-2.7423841e-06,-2.2738823e-06,-2.440992e-06,41.00779,0.0010642195,1,6,1
52526903,0,2360354,0.00032010136,0.00019211207,0.0009144304,4028,-3.6814051e-06,1.9968727e-06,9.053464e-06,41.010784,0.0010642195,0,5,5
52630876,0,2360354,-2.2654858e-05,-0.0009666474,-0.00017446929,4006,1.1229294e-05,2.4331248e-07,-4.18163e-06,41.01378,0.0010642195,-4,5,1
52734870,0,2360354,0.00041059052,0.00016492052,-0.00076022063,4000,2.7436652e-06,2.8343718e-06,-7.8612743e-07,41.001797,0.0010642195,-1,4,3
52835670,0,2360354,0.0010217734,0.00036868124,0.0012157236,4000,7.0005412e-06,-9.968131e-07,1.1558819e-05,41.01378,0.0010642195,-2,6,5
52938115,0,2360354,0.0009044109,-0.0007284839,-6.4171036e-07,3245,3.7758361e-06,-3.5591454e-06,-7.5360163e-06,41.001797,0.0010642195,-3,5,2
53039674,0,2360354,0.0012722975,-0.00039463703,-0.0008086691,3998,2.3151165e-06,-6.104999e-06,3.0422618e-06,41.022762,0.0010642195,-2,7,3
53139715,0,2360354,0.00012877949,-0.00026454974,0.00037490172,4039,-2.7642682e-06,6.9174285e-07,-8.140633e-06,41.058704,0.0010642195,-2,6,0
53241288,0,2360354,8.583435e-05,0.0016306996,0.00025125706,3218,2.4814233e-06,4.2132983e-06,3.6744577e-06,40.98083,0.0010642195,0,7,3
53342870,0,2360354,0.001203412,0.000605413,-0.0006366161,4000,4.921587e-06,-1.8481853e-06,-1.110374e-05,41.019768,0.0010642195,-1,6,3
53443670,0,2360354,-0.0010908421,5.7496123e-05,-0.00092206337,3956,5.7940616e-07,4.5312763e-06,-6.6892185e-06,41.01378,0.0010642195,-1,4,1
53546869,0,2360354,4.9468897e-05,-0.00039982336,-4.308291e-05,3968,-3.6033694e-06,-4.7970457e-06,2.5969282e-06,41.02576,0.0010642195,-1,5,3
53646106,0,2360354,0.0010066433,0.00026465513,-0.00014631881,3236,4.2226998e-06,4.1902967e-06,1.9591216e-06,41.022762,0.0010642195,-1,4,3
53750114,0,2360354,-0.00077982695,-0.00023003154,-0.00030694515,3996,-9.166415e-06,-3.8636886e-06,4.0763868e-07,41.028755,0.0010642195,1,5,3
53850913,0,2360354,-0.0018149843,-0.0005361298,-0.00025776657,3235,-4.803312e-06,-2.690912e-06,-3.6570998e-06,41.02576,0.0010642195,-1,6,2
53951713,0,2360354,0.00040780948,0.0004589677,0.00037912157,4796,6.37451e-06,3.226854e-06,2.5108252e-06,41.04373,0.0010642195,-1,5,4
54054899,0,2360354,0.0010238683,0.00037380043,-4.11909e-05,3229,3.2029925e-07,-3.5660105e-06,-5.801389e-06,41.058704,0.0010642195,-1,7,1
54156507,0,2360354,-0.0010101548,0.0010508932,0.00011616603,3230,-5.3443404e-07,2.4691403e-06,2.8026302e-06,41.04373,0.0010642195,-1,5,4
54259669,0,2360354,-0.0006944248,1.4291494e-05,-9.260554e-05,3999,-3.6585109e-06,-1.8797778e-07,-4.1882445e-06,41.022762,0.0010642195,0,4,1
54362870,0,2360354,0.0008559497,2.0658206e-06,-0.0007150384,3967,2.3703713e-07,1.1450562e-06,-4.1431094e-06,41.040733,0.0010642195,-1,4,3
54467670,0,2360354,0.0004835058,0.00036846893,-0.00091340207,4000,-4.4525864e-06,3.229198e-06,5.354154e-08,41.034744,0.0010642195,1,4,4
54567669,0,2360354,0.0006625811,0.0006933414,-0.0003001819,3999,-4.0671744e-06,-3.5498401e-06,5.171039e-06,41.019768,0.0010642195,-1,6,6
54671670,0,2360354,-0.00015283126,0.001390198,0.00021953233,3994,1.465466e-06,1.133451e-05,4.8467024e-07,41.022762,0.0010642195,-1,2,4
54771689,0,2360354,0.00041610986,0.00053778547,-0.00017011137,3989,1.4476665e-06,-1.4758488e-06,-4.589617e-06,41.01378,0.0010642195,-2,5,2
54871670,0,2360354,0.00048491964,0.00059644994,-0.00038186886,4000,3.5950422e-06,-2.6995679e-06,-2.8879617e-06,41.028755,0.0010642195,-2,6,2
54975676,0,2360354,0.0011859677,0.00068319484,-0.00081097445,4006,2.7639596e-06,-2.7104265e-06,-2.9114906e-06,41.03774,0.0010642195,-1,5,2
55075670,0,2360354,0.0016597693,5.2925275e-06,0.000835546,4000,8.718194e-06,2.8492707e-06,4.7603575e-07,41.03774,0.0010642195,-3,5,4
55175670,0,2360354,0.0023582326,0.0002832246,-0.00068824494,3958,1.1537348e-05,7.890941e-06,-5.804177e-06,41.05571,0.0010642195,-3,4,2
55279715,0,2360354,-0.0013314231,-0.0010873985,0.00046530247,4026,-4.075366e-06,-1.4133423e-06,5.0026703e-08,41.034744,0.0010642195,-1,5,3
55379721,0,2360354,-0.00047483973,0.00096989615,-0.00064850715,4051,1.0569499e-06,7.131432e-06,4.9315366e-07,41.058704,0.0010642195,-1,5,3
55483670,0,2360354,-0.0010906826,-6.777379e-05,-0.00075673714,3994,-3.1710155e-07,1.9800173e-06,-5.035444e-06,41.016773,0.0010642195,-2,5,2
55583670,0,2360354,0.001951876,-0.0008781474,-8.022099e-05,4001,8.278503e-06,-8.251642e-06,9.026002e-07,41.07368,0.0010642195,-4,6,3
55686070,0,2360354,0.0008311997,0.00069853594,-0.0014100373,3967,2.7315632e-06,2.6867446e-07,-7.971639e-06,41.06769,0.0010642195,-2,5,1
55787669,0,2360354,0.00039863677,0.0005600444,-0.00013030272,3999,3.5941457e-06,1.9569582e-06,-3.7684038e-06,41.04373,0.0010642195,-2,4,2
55887669,0,2360354,0.0011368418,-0.00041593777,-6.320248e-05,3974,1.4464271e-06,1.1091525e-06,1.7582091e-06,41.05571,0.0010642195,-2,4,4
55987675,0,2360354,-6.958187e-05,-0.00085516623,4.2133415e-06,3999,-1.0022546e-05,-4.019698e-06,4.9325376e-07,41.06769,0.0010642195,0,6,4
56091670,0,2360354,0.0008685436,-0.0005338486,2.4166697e-05,4000,6.2480325e-07,3.6820247e-06,-3.3317392e-06,41.010784,0.0010642195,0,5,2
56191677,0,2360354,-0.000349386,0.00080841436,0.00034722683,4002,-1.1240386e-06,6.8829746e-07,-3.3065944e-06,41.040733,0.0010642195,-1,5,2
56295686,0,2360354,-0.00037117256,-0.00073149125,0.00038642387,4017,6.1410356e-06,-3.1210839e-06,-3.5420305e-07,41.061703,0.0010642195,-5,7,2
56399676,0,2360354,0.0003816003,5.481601e-05,-0.0012944248,4006,2.3004895e-06,-9.619182e-07,2.1605795e-06,41.046726,0.0010642195,-1,6,4
56499670,0,2360354,8.591944e-05,0.00026687127,-0.0011085967,4000,5.719761e-06,5.806734e-06,-8.8741945e-06,41.085663,0.0010642195,-3,4,1
56603670,0,2360354,-0.000878186,7.922134e-05,-4.466861e-05,4000,1.4666012e-06,2.8024544e-07,-7.8612885e-07,41.076675,0.0010642195,-1,5,2
56703693,0,2360354,0.00041900744,0.0012102971,-0.00083561847,4002,-2.4765586e-07,-6.0579015e-07,-2.5126856e-06,41.061703,0.0010642195,-1,6,3
56803670,0,2360354,0.00041232884,0.0006361598,0.0007501723,4001,-4.494257e-06,1.5578055e-06,5.1749e-06,41.04373,0.0010642195,0,5,5
56907695,0,2360354,0.0017121745,0.00042035806,6.992878e-05,4019,1.9029825e-06,2.8368736e-06,2.205914e-06,41.076675,0.0010642195,-2,6,4
57007670,0,2360354,-0.0014437521,0.00047698733,-0.00047898668,3994,6.194114e-07,-1.8479765e-06,-3.3204522e-06,41.046726,0.0010642195,-1,6,2
57107676,0,2360354,-4.3615022e-05,0.00041896684,0.00045284803,3977,-5.296432e-06,-1.4200737e-06,1.7634749e-06,41.076675,0.0010642195,1,7,3
57211670,0,2360354,0.0001231681,0.00080410164,-0.00041500665,3981,-4.028545e-06,8.336548e-06,3.4542584e-06,41.08267,0.0010642195,0,4,4
57311698,0,2360354,0.0007294152,0.00018615063,0.0003238443,4028,8.269776e-06,7.1221625e-06,9.664645e-07,41.07368,0.0010642195,-2,4,3
57415681,0,2360354,-0.00041176085,0.0011400175,-0.0013767447,4011,-1.5208877e-06,1.9884496e-06,-5.903993e-06,41.094646,0.0010642195,0,5,1
57515670,0,2360354,0.0015664567,0.0006264473,0.0009955699,4000,5.2483124e-06,-2.2302443e-06,1.15588155e-05,41.076675,0.0010642195,-3,6,6
57615676,0,2360354,0.0011498189,0.0006478457,-0.0005574548,4006,2.758104e-06,2.84533e-06,-3.7703128e-06,41.052715,0.0010642195,-1,5,2
57719670,0,2360354,0.0003158408,0.00014549513,-0.0005256633,3946,6.4688525e-06,4.030392e-06,-1.655627e-06,41.103634,0.0010642195,-3,5,3
57819670,0,2360354,0.000857904,-0.0008499293,0.0001453119,3953,1.8670726e-06,3.0323747e-07,2.9931077e-06,41.085663,0.0010642195,-2,4,3
57919681,0,2360354,-0.00086917245,0.00043733494,0.0002062968,4011,-7.045782e-06,1.0085031e-05,-7.882935e-07,41.079674,0.0010642195,-1,3,3
58023670,0,2360354,-0.00024762427,0.00040330933,-0.00074546016,3999,-1.5162357e-06,7.9410665e-06,-7.848738e-07,41.04373,0.0010642195,-3,2,4
58123670,0,2360354,-0.00013869132,0.0011197198,0.00095917843,3988,1.8846937e-06,1.1316636e-05,3.4566167e-06,41.088657,0.0010642195,-2,2,3
58227670,0,2360354,0.0014466505,0.00055161695,-0.00022120285,4000,4.4464136e-06,6.239873e-06,3.4707534e-06,41.05571,0.0010642195,-2,2,4
58327689,0,2360354,-0.00019091368,-0.0006015214,-0.00027756742,4019,-6.2191434e-06,-4.85903e-06,-7.898575e-07,41.097645,0.0010642195,0,7,3
58427676,0,2360354,0.00041264336,-0.0004300806,-0.00031659112,3994,3.1958803e-06,-8.233297e-06,-2.4653436e-06,41.091652,0.0010642195,-3,7,4
58531670,0,2360354,0.00094265403,-0.0007779815,-0.0010801636,4001,5.2885816e-06,-5.6797694e-07,-7.5957328e-06,41.097645,0.0010642195,-3,6,1
58631688,0,2360354,0.00012043111,-4.7695412e-05,-0.0011037209,4018,-7.071948e-06,3.6723245e-06,-5.0811313e-06,41.085663,0.0010642195,0,5,2
58731676,0,2360354,-0.00062362547,0.00018933123,-0.0015452533,4006,-5.780661e-06,2.8322353e-07,-3.3414358e-06,41.1246,0.0010642195,1,5,3
58835670,0,2360354,0.0010834439,-0.0010437801,0.00012196739,4001,1.25023935e-05,-6.53239e-06,7.728737e-08,41.13658,0.0010642195,-3,7,3
58935670,0,2360354,0.00053205475,0.0007650129,2.7101933e-05,3994,5.7297925e-06,3.6976737e-06,2.6285359e-06,41.070686,0.0010642195,-2,5,3
59039670,0,2360354,0.00025896204,0.00059611176,0.00012874205,4000,3.5950404e-06,1.982996e-06,-7.8612845e-07,41.094646,0.0010642195,-2,5,3
59143670,0,2360354,-0.00027098495,0.00096615084,-7.1597955e-05,3970,-2.790642e-06,5.8120827e-06,4.690385e-06,41.085663,0.0010642195,-1,2,4
59243678,0,2360354,0.00022792192,0.0005282662,0.0009511387,4008,1.8952206e-06,2.8425948e-06,1.770685e-06,41.097645,0.0010642195,-1,4,3
59347676,0,2360354,-0.0018416363,0.00064516044,0.0006920216,3991,-9.14377e-06,1.5608218e-06,6.0011125e-06,41.097645,0.0010642195,0,6,3
59447670,0,2360354,0.00044707608,0.0012153328,0.000105772,4000,2.347774e-06,8.375233e-06,-1.6332397e-06,41.121605,0.0010642195,0,3,2
59547670,0,2360354,0.0011935274,0.0009853721,-0.0006514719,4000,-3.2298008e-06,1.1348098e-06,-4.1607673e-06,41.10663,0.0010642195,-1,5,1
59651669,0,2360354,0.001138568,-9.678102e-05,0.00056907756,3999,3.9969473e-06,-1.4261955e-06,3.021315e-06,41.10663,0.0010642195,-3,5,4
59751670,0,2360354,0.0004482724,-0.00095719914,-0.0007584604,3971,-2.3651119e-06,-1.0154453e-06,-7.966572e-06,41.10663,0.0010642195,1,6,1
59851688,0,2360354,-0.001173635,0.00035227305,-0.00044365256,4019,-6.204776e-06,5.4128145e-06,-3.7702118e-06,41.14257,0.0010642195,-1,3,2
59955673,0,2360354,-0.00017578735,0.00091258844,-0.0011088249,4004,-6.625046e-07,6.670737e-06,-5.0480485e-06,41.10663,0.0010642195,-1,5,2
60055670,0,2360354,0.0011379853,-0.00015948086,-0.0009781136,4766,2.160389e-06,-9.9858305e-08,-8.600113e-06,41.079674,0.0010642195,-2,4,1
60159685,0,2360354,5.355542e-05,0.00022652258,-0.0012037327,4015,1.0416263e-06,4.124195e-06,-5.054998e-06,41.109623,0.0010642195,-1,5,3
60258885,0,2360354,0.0007443591,-0.0011088122,-3.1528944e-05,3215,2.0376065e-06,4.164454e-06,2.3681862e-06,41.130592,0.0010642195,-2,3,5
60359670,0,2360354,0.0005608865,0.0010096653,-4.9252317e-06,3994,1.0387054e-06,6.2209388e-06,-5.893202e-06,41.10064,0.0010642195,-1,5,1
60463670,0,2360354,1.9713125e-05,0.001254291,0.0005110579,4000,6.57486e-06,1.4372637e-05,1.7456492e-06,41.10663,0.0010642195,-1,3,4
60563676,0,2360354,-0.00086296507,0.0009997684,-0.0003534249,4007,-1.0897484e-06,8.8102415e-06,-7.87508e-07,41.130592,0.0010642195,-2,5,3
60663678,0,2360354,0.001612472,0.001037718,-0.0010880965,4008,1.4652779e-06,2.4131834e-06,-4.197991e-06,41.127594,0.0010642195,-1,5,2
60767670,0,2360354,7.071366e-05,0.0007907602,-1.1659234e-05,3995,-1.0840389e-06,3.6806075e-06,1.3379724e-06,41.151558,0.0010642195,0,5,3
60871715,0,2360354,2.8539687e-05,0.0005009908,-0.0007041469,4046,-3.68438e-06,-1.8892433e-06,2.6465198e-06,41.16054,0.0010642195,-1,6,3
60971670,0,2360354,-0.00039884265,-0.001546219,0.00020901616,4000,5.7197544e-06,-5.253697e-06,-1.2118172e-06,41.13658,0.0010642195,-1,7,4
61075670,0,2360354,0.0011146294,-3.3369397e-05,0.0006131176,3981,-3.1734442e-06,2.3251262e-07,5.9408087e-08,41.127594,0.0010642195,-2,7,2
61175672,0,2360354,-0.0004072871,0.0012701079,-0.00030582605,4002,6.250041e-07,-4.3970717e-06,-1.2223212e-06,41.10064,0.0010642195,-1,7,3
61279670,0,2360354,0.00014365459,-0.0002750591,-0.000528679,3960,1.0001727e-06,-4.379052e-06,3.0571778e-06,41.154552,0.0010642195,-1,7,4
61379670,0,2360354,0.00041894722,0.00042510527,-0.0011154593,3994,-6.95968e-07,1.0481003e-05,-3.7238e-06,41.1246,0.0010642195,-2,3,2
61479670,0,2360354,-0.000371481,-0.00060100906,-0.0018697667,4000,1.4809748e-06,1.5482715e-06,-9.316377e-06,41.1246,0.0010642195,0,4,3
61583676,0,2360354,-5.8979167e-05,-0.00017841149,-0.0010222822,4007,-4.0732875e-06,1.5602441e-06,-8.464252e-06,41.1246,0.0010642195,-1,5,1
61687670,0,2360354,-0.00016901239,0.002213132,-0.0010794126,4000,2.3179725e-06,7.5180033e-06,-3.3296137e-06,41.11861,0.0010642195,-2,4,2
61787670,0,2360354,0.00058456766,-0.00016228628,-0.00020327476,3996,-5.3426766e-06,2.772018e-07,-1.640976e-06,41.154552,0.0010642195,1,5,4
61891669,0,2360354,0.000911981,0.0009720408,0.00012317815,3983,2.7289152e-06,-5.5401205e-07,-5.872419e-06,41.115616,0.0010642195,-1,6,1
61991670,0,2360354,-0.00024833594,-0.00014680154,-0.00029448088,3994,7.808214e-06,6.84869e-07,3.0270874e-06,41.11861,0.0010642195,-3,5,3
62091670,0,2360354,0.00015600673,0.0012393463,-0.0004539751,3994,2.7292253e-06,3.6854321e-06,-3.341739e-06,41.130592,0.0010642195,-2,6,2
62195676,0,2360354,0.0012085233,-7.710768e-06,0.00024930702,4006,2.7458634e-06,-5.6891804e-06,-2.4969777e-06,41.151558,0.0010642195,-1,7,3
62295676,0,2360354,0.0016520334,0.00020663039,-0.00091564265,3970,1.7982798e-06,-5.627208e-06,-3.2800901e-06,41.145565,0.0010642195,-1,6,2
62399700,0,2360354,-0.00020964089,0.0006616819,0.00039819104,4030,-6.2486324e-06,1.1464949e-06,9.266891e-07,41.16054,0.0010642195,0,5,3
62499715,0,2360354,-0.0012212036,4.7940857e-06,-0.0010185115,4045,-1.4886193e-05,6.835566e-07,-3.7769107e-06,41.175518,0.0010642195,1,7,3
62599679,0,2360354,-0.0011980615,-9.2339695e-05,0.000337165,4009,-7.0459814e-06,4.130252e-06,-5.9126564e-06,41.157547,0.0010642195,-2,3,1
62703670,0,2360354,0.000211674,-0.0004002707,-1.8131981e-05,3994,-4.4888443e-06,7.4232776e-07,-7.2801055e-07,41.172523,0.0010642195,0,6,1
62803669,0,2360354,0.0008566587,0.0009391928,-0.0014972864,3999,2.754466e-06,-1.8125081e-06,-3.7657503e-06,41.148563,0.0010642195,-1,8,3
62903681,0,2360354,-0.00097400957,0.0008971169,-0.0012130826,3980,-3.2046694e-06,4.1100366e-06,-6.262928e-06,41.16054,0.0010642195,0,4,2
63007676,0,2360354,0.0006074707,0.0006710111,-0.00077099813,3987,4.4304697e-06,-6.0689495e-06,-3.7543464e-06,41.13658,0.0010642195,-2,6,3
63107715,0,2360354,0.0004953544,-2.3360768e-05,-0.00029860492,4045,-7.5462713e-06,-4.4396047e-06,-3.804052e-06,41.16054,0.0010642195,1,7,2
63211670,0,2360354,-0.00059620425,-0.00027085125,-0.00040224456,4001,1.8884215e-07,-4.404487e-06,-5.896174e-06,41.166534,0.0010642195,-2,6,2
63311669,0,2360354,0.00022325024,0.0007476624,-0.00071442616,3965,1.0461641e-06,-9.027214e-06,-4.999405e-06,41.154552,0.0010642195,-3,9,3
63411670,0,2360354,-0.0008658634,-0.00080570835,-0.00030797825,4000,2.3955667e-07,2.5576824e-07,-7.861283e-07,41.175518,0.0010642195,0,5,3
63515670,0,2360354,0.0016456944,-0.00012720139,-0.00067225203,3986,7.8244375e-06,4.9484206e-06,-9.2673345e-06,41.184505,0.0010642195,-3,5,1
63615669,0,2360354,0.00090381125,0.00017102799,-0.0008222197,3961,-2.8184083e-06,-3.9863917e-06,2.5844688e-06,41.16953,0.0010642195,0,8,4
63715675,0,2360354,-5.679942e-06,0.0014978785,0.00013171542,3961,2.2844416e-07,7.830169e-06,-4.15311e-06,41.1875,0.0010642195,-2,5,2
63819682,0,2360354,0.0006525551,0.00041493666,0.0006597364,4012,4.4609287e-06,2.8472377e-06,6.0496545e-06,41.175518,0.0010642195,-2,6,3
63919685,0,2360354,-0.00033220512,-5.8907288e-05,-7.4117044e-05,4015,-1.948829e-06,-1.5396488e-07,7.3197443e-06,41.154552,0.0010642195,0,6,4
64023670,0,2360354,3.8202837e-05,-0.000994306,0.00017604443,4000,-6.1617297e-06,-1.1639012e-05,2.176647e-06,41.190495,0.0010642195,2,9,5
64123670,0,2360354,0.0006062902,5.0318722e-05,-1.5371188e-05,4000,6.1736405e-06,7.0917845e-06,-3.3543355e-07,41.163536,0.0010642195,-2,4,2
64223676,0,2360354,0.0011276182,-0.0006681767,-0.0006547704,4002,7.4482477e-06,1.1453816e-06,1.348309e-06,41.178513,0.0010642195,-5,4,4
64327669,0,2360354,0.0001546524,-0.00051527855,-0.0008442052,3972,3.569876e-06,-5.413829e-07,-4.1004573e-06,41.190495,0.0010642195,-2,6,4
64427670,0,2360354,0.00067053817,0.0006308759,0.00018319489,4000,6.2586764e-07,-6.083787e-06,-7.861311e-07,41.175518,0.0010642195,-1,7,3
64527670,0,2360354,0.0015647337,-0.0011204795,-0.0006654374,4000,1.0886547e-05,1.0613912e-06,-5.88745e-06,41.190495,0.0010642195,-3,4,2
64631669,0,2360354,-0.00043160413,0.00043575358,-0.00034644734,4000,2.2817942e-06,-1.5555361e-07,-7.861274e-07,41.16953,0.0010642195,-2,5,3
64731669,0,2360354,-0.0006114028,-0.00060111244,0.00039852518,3976,3.9970314e-06,-3.5346395e-06,-7.404396e-07,41.19349,0.0010642195,-1,6,3
64835683,0,2360354,0.00015756693,0.00011428377,0.00017836216,4013,6.157366e-07,2.8403036e-07,-3.7807363e-06,41.157547,0.0010642195,-1,5,2
64935695,0,2360354,0.0013061742,0.0012012721,0.00058092846,4011,1.8606737e-06,-3.1655668e-06,3.039704e-06,41.16953,0.0010642195,-1,6,3
65035676,0,2360354,0.0017224508,0.0010463697,-0.0017735349,4006,2.3121966e-06,-1.4618674e-07,-5.4704055e-06,41.19948,0.0010642195,1,6,4
65139670,0,2360354,0.0007768826,0.00048764175,-0.0014127558,4000,-1.9346435e-06,5.365618e-06,-7.861285e-07,41.1875,0.0010642195,-1,3,3
65239670,0,2360354,0.0008526323,0.00057657657,0.00025578687,4000,5.70645e-06,1.1145938e-06,4.3051014e-06,41.226437,0.0010642195,-3,4,5
65339690,0,2360354,0.0006674635,0.0011946762,-0.0012958044,4020,-6.6514434e-07,3.2699752e-06,-2.05648e-06,41.223442,0.0010642195,-1,5,3
65441317,0,2360354,0.0009880941,0.00041725536,-0.00040075294,3238,-1.3796841e-06,-9.616615e-07,2.8095715e-06,41.202477,0.0010642195,-2,4,4
65543677,0,2360354,0.00034244504,0.0011675637,-0.0014103157,4001,1.6436563e-07,1.9611434e-06,8.722608e-07,41.196484,0.0010642195,-2,5,5
65647681,0,2360354,-0.0010027606,-1.2040686e-06,0.00090078334,4011,3.1547627e-06,-1.399926e-07,-7.584906e-07,41.181507,0.0010642195,-3,5,5
65747676,0,2360354,0.0011664216,0.00040193586,-4.581725e-05,3974,2.7187018e-06,-2.2591005e-06,-2.4885592e-06,41.202477,0.0010642195,-3,6,3
65847670,0,2360354,0.00097196543,-0.00017621373,-9.25045e-05,4000,5.859602e-07,4.520627e-06,-7.861297e-07,41.20547,0.0010642195,-2,4,3
65951670,0,2360354,0.0007555914,-2.760316e-05,-0.0008391252,4000,4.8912566e-06,6.246267e-06,-6.326451e-06,41.190495,0.0010642195,-1,6,2
66051670,0,2360354,0.0016060673,0.0009919339,-0.00032711105,3974,2.7224214e-06,3.2195032e-06,-6.724685e-06,41.19349,0.0010642195,-1,5,1
66151675,0,2360354,0.001066148,0.00012771536,0.0004566719,4005,5.7237153e-06,2.8352592e-06,-1.204281e-06,41.202477,0.0010642195,-2,4,2
66255675,0,2360354,-0.00034354298,0.0017004858,0.00028391636,3999,2.3176094e-06,2.8125921e-06,-3.6343968e-07,41.181507,0.0010642195,-1,6,3
66355705,0,2360354,0.00078316784,0.0011549513,-0.00024253191,4024,5.307655e-06,2.8159393e-06,-2.9320568e-06,41.220448,0.0010642195,-2,6,2
66459676,0,2360354,0.00093806576,0.00065556617,-0.00030547343,4007,2.7627295e-06,-1.339944e-07,2.6201246e-06,41.244408,0.0010642195,0,7,3
66559670,0,2360354,0.00022807876,0.0018788377,-0.0012289932,4001,3.5959408e-06,2.0553239e-06,3.7376765e-08,41.22943,0.0010642195,-2,7,4
66659670,0,2360354,-0.00061182474,-0.00019335847,-0.0021667134,4000,-1.942628e-06,-2.2738805e-06,-4.6210434e-06,41.208466,0.0010642195,-1,5,5
66763669,0,2360354,0.0014534724,-0.00035301305,-7.6043645e-05,3983,3.5797627e-06,1.9453e-06,4.964053e-07,41.244408,0.0010642195,-2,5,4
66863670,0,2360354,0.00095125753,-0.0009396342,-8.578042e-05,4001,4.4457183e-06,-5.2340456e-06,4.30224e-06,41.21745,0.0010642195,-3,7,4
66963676,0,2360354,-9.101656e-05,0.0010566249,0.0003637392,4006,3.9473634e-06,8.413858e-06,-6.952571e-07,41.226437,0.0010642195,-2,5,1
67067670,0,2360354,0.0004302134,-0.00036980913,-5.636749e-07,3994,-4.9155933e-06,1.980025e-06,-2.9112582e-06,41.220448,0.0010642195,0,5,2
67167672,0,2360354,-0.001036267,0.00029967717,-0.0016166277,3977,-2.7598655e-06,2.8240318e-06,-3.3245622e-06,41.202477,0.0010642195,-1,4,2
67271670,0,2360354,0.0012754725,0.00052216917,0.00095946476,4000,6.200142e-07,2.4065553e-06,1.7738525e-06,41.23842,0.0010642195,-1,5,4
67371678,0,2360354,0.00031936532,-0.0006447108,0.00032998415,4009,-7.907467e-06,-2.2885854e-06,4.9767453e-07,41.23842,0.0010642195,1,6,2
67471669,0,2360354,-0.0003228084,0.0008067376,0.000858216,3993,-3.62932e-06,1.5490492e-06,3.464675e-06,41.19948,0.0010642195,-1,5,4
67575670,0,2360354,0.000761977,0.00029336134,-0.00037635493,4000,2.72185e-06,-2.732026e-06,1.8329174e-06,41.23842,0.0010642195,-2,5,2
67675676,0,2360354,-0.00013092216,0.00028372562,4.7226662e-05,4007,-5.812226e-06,9.68024e-06,-2.9026378e-06,41.25639,0.0010642195,-1,4,2
67775698,0,2360354,0.00028644552,0.0012005841,0.00066371117,4028,1.9025574e-06,-4.0223476e-06,4.854306e-07,41.21146,0.0010642195,-2,7,3
67879669,0,2360354,0.0014048318,4.4702014e-05,-0.0014187592,3976,2.314499e-06,3.6658776e-06,-9.244081e-06,41.23842,0.0010642195,0,4,1
67979709,0,2360354,0.0007166878,0.00027384612,-0.00023564929,4039,3.6151926e-06,9.3215e-06,-5.538616e-06,41.241413,0.0010642195,-3,4,2
68083670,0,2360354,0.00037369656,-0.00029965435,-0.00042155324,4000,4.4219396e-06,1.9829893e-06,-9.299887e-06,41.26238,0.0010642195,-3,5,1
68187699,0,2360354,-0.00086782785,-0.00042761338,-0.0005035823,4030,-6.6680263e-07,2.3777948e-06,5.3771777e-07,41.214455,0.0010642195,-1,4,2
68999670,0,2360354,0.00037014246,-0.00035216042,-0.0007729414,4001,1.4685598e-06,-5.2532e-06,-5.897241e-06,41.27436,0.0010642195,-2,8,2
69099676,0,2360354,0.00028349232,0.0002939134,-0.00093601475,4006,-4.9260925e-06,6.2204995e-06,-6.7469387e-06,41.23542,0.0010642195,0,4,1
69203683,0,2360354,-0.0007960371,-0.00022763772,-0.0007846905,4007,-1.2610985e-05,2.016792e-06,-3.7880836e-06,41.247402,0.0010642195,1,3,1
69307676,0,2360354,-0.00026725058,-0.0005578101,-0.00085683423,3970,-4.8647985e-06,-2.273854e-06,-7.717137e-07,41.25639,0.0010642195,-1,7,4
69407711,0,2360354,-0.0010326896,-0.00018776822,-0.0005358351,4041,2.0882696e-07,-1.3310259e-07,-5.0989543e-06,41.268368,0.0010642195,-2,5,2
69511678,0,2360354,0.0018208263,0.0015592388,-0.00032896048,4008,8.310862e-06,8.37867e-06,-7.188986e-06,41.241413,0.0010642195,-3,5,1
69611670,0,2360354,0.00033796506,0.0011009421,-6.247904e-05,3962,-3.602371e-06,-1.8468166e-06,-3.9234743e-07,41.23542,0.0010642195,-2,5,2
69711670,0,2360354,0.0005551911,-0.0011940628,0.00013540596,4000,9.128974e-06,-7.359792e-06,5.551304e-06,41.271362,0.0010642195,-3,6,4
69815670,0,2360354,-0.00024548714,-1.7620854e-05,0.0005531988,4000,-3.2218186e-06,1.1193781e-06,7.961168e-08,41.241413,0.0010642195,-2,5,2
69915676,0,2360354,-8.995385e-06,2.3701477e-05,-0.000581514,3957,1.7909231e-07,-1.4007244e-06,4.2821534e-06,41.277355,0.0010642195,0,5,5
70015670,0,2360354,-0.00026085132,-0.0003158741,0.0007050613,4000,2.3179732e-06,-9.487692e-06,6.4048063e-06,41.26238,0.0010642195,-3,8,5
70119676,0,2360354,-0.00041184152,0.0010215832,-0.00078222493,4007,-6.648702e-06,-1.4728865e-07,-5.5089095e-06,41.23542,0.0010642195,0,6,3
70219670,0,2360354,0.001858868,-0.00031967997,0.002386294,4000,-7.9400315e-06,4.0688155e-05,3.893979e-06,41.223442,0.0010642195,-11,-8,8
70323670,0,2360354,0.010825309,-0.00036489387,-0.017841715,3997,-8.966342e-05,-1.8432836e-05,-7.096551e-05,41.28035,0.0010642195,30,-3,-18
70427711,0,2360354,0.005667528,-0.005683004,0.019703379,4041,-1.694365e-05,-6.6570115e-05,8.72689e-05,41.29233,0.0010642195,-1,8,20
70527670,0,2360354,0.0027195078,0.0018444057,-0.02214998,4000,-6.763311e-05,4.6389614e-05,-7.653849e-05,41.259384,0.0010642195,3,4,-17
70631670,0,2360354,0.01847424,-0.010157105,0.010268656,4000,0.0001394476,0.00012522977,2.0177406e-05,41.22943,0.0010642195,8,-31,23
70731705,0,2360354,-0.0031128996,-0.0042397305,-0.0020799686,4036,-0.0003576561,3.8378388e-05,1.9835963e-05,41.265373,0.0010642195,69,16,16
70831676,0,2360354,0.042270128,0.00596471,0.0027064558,4006,-0.00022324729,0.00020572371,-2.5216764e-06,41.29233,0.0010642195,132,-26,-23
70935669,0,2360354,0.024541125,0.016546203,0.0071301935,3968,-2.4002064e-05,0.0008671757,-3.7389007e-05,41.289333,0.0010642195,29,-65,-34
71035673,0,2360354,-0.0028260534,-0.013858086,0.003891241,4003,0.00079691486,-0.00037536758,-7.6838885e-05,41.247402,0.0010642195,-229,67,44
71135670,0,2360354,-0.06988228,-0.012223039,-0.0021607473,4000,-0.0004879016,-0.00013567993,4.494487e-05,41.283344,0.0010642195,-3,37,-19
71239670,0,2360354,0.07749299,-0.034540243,0.013147243,3992,0.0018973816,-0.00054667867,7.833205e-06,41.301315,0.0010642195,-259,-74,19
71339677,0,2360354,0.13953747,-0.0006921063,0.0061657266,3953,0.00047913977,2.7847875e-05,6.1474675e-06,41.301315,0.0010642195,-9,97,14
71443676,0,2360354,0.121879086,-0.036411736,-0.0037272726,4006,0.0002679462,0.0009364497,0.000105311585,41.27436,0.0010642195,37,-248,151
71543676,0,2360354,0.26761535,-0.2008429,0.016404307,4006,0.00087329466,-0.00075277925,0.00021263254,41.26238,0.0010642195,-80,41,97
71643669,0,2360354,0.0031718048,0.10247133,0.036996964,3993,9.175779e-05,0.0009846753,-0.00018072617,41.319286,0.0010642195,-295,-239,-149
71747670,0,2360354,-0.044748064,0.0030207087,0.01408229,4000,-0.0004404205,-0.00012416205,8.5350155e-05,41.33127,0.0010642195,22,42,69
71847703,0,2360354,-0.080586635,-0.058196746,0.039054573,4001,-0.0006324967,-0.0014327575,0.0002535308,41.295326,0.0010642195,-262,250,104
71947675,0,2360354,-0.9572638,0.3816328,0.055378754,4005,-0.0039234827,0.0012440035,0.0004201251,41.310303,0.0010642195,1112,-605,28
72051671,0,2360354,0.65721214,-0.04064325,0.00827062,3992,0.0027495592,-0.00019649422,0.00015704957,41.31629,0.0010642195,-547,44,62
72151671,0,2360354,-0.13101456,-0.07426083,0.015810272,3995,-0.00038882188,0.00021772439,1.8182105e-05,41.289333,0.0010642195,130,-148,87
72255676,0,2360354,0.15257272,0.029192545,-0.0039872574,4759,0.001638175,-0.0006472716,-9.180662e-06,41.28035,0.0010642195,-168,17,-38
72355670,0,2360354,-0.07840146,0.0069454056,-0.009698089,3989,-0.00056594494,0.00047396746,-0.00015169107,41.28634,0.0010642195,299,-199,-54
72455670,0,2360354,-0.0044423067,0.12363325,-0.015553399,3985,-0.00031867067,0.000292387,4.839437e-05,41.30431,0.0010642195,163,123,70
72557270,0,2360354,-0.13869463,0.15320566,-0.028815178,4000,0.000463175,0.0011340752,-0.00012398839,41.337257,0.0010642195,214,-575,-33
72659669,0,2360354,-0.14799727,-0.044814836,-0.037576176,3999,-0.00067273667,-0.0010931282,0.00012531632,41.310303,0.0010642195,268,65,193
72759676,0,2360354,-0.23978601,0.06626216,0.023337875,4006,-0.00081393175,-0.0011836471,0.00044992485,41.32228,0.0010642195,487,536,51
72863704,0,2360354,0.08068354,0.21639864,0.00096860656,4027,0.0012349032,-0.00036727922,-0.00018452118,41.310303,0.0010642195,-61,174,-109
72963670,0,2360354,0.06079612,0.0077254954,-0.013867336,4000,-0.0008631174,-0.00017549105,0.00014988093,41.28035,0.0010642195,3,42,69
73066911,0,2360354,0.037546813,0.036927294,-0.0068157115,4042,0.0017575367,0.00037318145,-0.0001858417,41.250397,0.0010642195,-457,59,7
73167678,0,2360354,-0.069032535,-0.04337958,-0.011638682,4809,-0.0019802928,-0.0009053572,0.00014047988,41.313297,0.0010642195,16,-37,107
73267696,0,2360354,-0.035963234,-0.09600092,0.015210666,4020,-0.0005452615,-0.0014940177,0.00024886112,41.313297,0.0010642195,158,11,29
73369297,0,2360354,0.15856287,-0.03395379,0.03848706,3216,3.8886174e-06,0.00036155604,9.24958e-05,41.313297,0.0010642195,-159,-6,143
73471676,0,2360354,0.076301984,-0.01473426,0.019306729,4006,0.00028913803,0.0004397613,-9.329544e-05,41.30431,0.0010642195,-297,197,43
73574870,0,2360354,0.1445003,0.046427697,-0.047877297,4760,-0.0003454874,0.0011849392,-0.0004010647,41.319286,0.0010642195,163,32,28
73673271,0,2360354,0.06251418,-0.02873051,-0.066413574,3995,0.0013718725,0.00011781001,0.00010905446,41.295326,0.0010642195,67,-527,-269
73775701,0,2360354,-0.059022713,0.07512545,-0.052729283,4016,-0.00037277173,-0.0013273465,-0.00039807768,41.31629,0.0010642195,-160,679,203
73879673,0,2360354,-0.13388182,0.08598281,0.027767248,4004,0.0001935071,0.0015590683,4.534627e-05,41.31629,0.0010642195,-212,-166,186
73978078,0,2360354,0.10150277,0.058046628,-0.0055640084,3971,0.00023072645,0.00047039584,-5.883512e-05,41.346245,0.0010642195,39,171,12
74082902,0,2360354,-0.055294108,-0.06606337,0.021006314,4788,0.0009266735,-0.0001511201,-0.00012065927,41.31629,0.0010642195,-208,-46,-85
74183676,0,2360354,-0.047860757,-0.08866233,0.04301766,4773,0.0007870988,0.00025316817,0.0002832012,41.310303,0.0010642195,215,-346,1
74283703,0,2360354,0.047043204,0.11520944,-0.047980648,3233,-0.0015398349,-0.00015010183,-0.00027463122,41.325275,0.0010642195,245,412,-81
74386870,0,2360354,-0.10280993,-0.14692761,-0.02616133,3994,0.001067886,-0.0008512865,3.5118024e-05,41.313297,0.0010642195,-367,-381,-149
74487670,0,2360354,-0.11510725,-0.10758325,0.041917313,4000,0.00034919736,-0.0009032835,0.0003843571,41.32228,0.0010642195,-148,-61,-24
74586875,0,2360354,-0.060898043,0.044075932,0.0030595204,4773,-0.0012715788,-0.001033942,9.06528e-05,41.340252,0.0010642195,556,122,-86
74690870,0,2360354,0.07845198,-0.094959185,0.022044303,3945,-2.9575142e-05,0.0007362416,0.00014319192,41.343246,0.0010642195,279,-362,-26
74790870,0,2360354,0.048002847,-0.042245127,0.023635799,4001,0.00073361833,-4.0653245e-05,4.159466e-05,41.325275,0.0010642195,239,99,16
74890873,0,2360354,-0.009792794,-0.04497623,-0.023762591,3997,0.0013773122,2.7222946e-05,-0.00048765144,41.340252,0.0010642195,-354,-278,-214
74994875,0,2360354,0.01683095,-0.05561981,0.0010696343,4765,0.002028933,-0.00075934496,0.00027001166,41.319286,0.0010642195,-375,-320,-105
75094876,0,2360354,-0.034974482,0.08309767,0.012338951,3972,-0.0009858869,-0.00035778835,9.6113e-05,41.328274,0.0010642195,220,358,-31
75195670,0,2360354,-0.027886752,0.0711932,-0.023561016,3998,-0.0012633415,-0.00092147355,-3.305439e-05,41.337257,0.0010642195,266,156,6
75298870,0,2360354,-0.017808048,0.025344715,0.009087983,4000,-0.00047170348,0.0011989643,-7.695413e-05,41.334263,0.0010642195,357,-213,72
75402105,0,2360354,0.041973647,-0.0670228,0.013747262,3228,-0.00042904966,8.74541e-07,-8.206118e-05,41.32228,0.0010642195,155,-224,-78
75506114,0,2360354,-0.008442126,0.020992436,0.012987211,3220,-4.268649e-05,-0.0011007925,7.090686e-05,41.29832,0.0010642195,-343,181,47
75607678,0,2360354,-0.020070232,-0.077119395,-0.019588808,3989,-1.1940436e-05,0.00016729544,-9.835254e-05,41.325275,0.0010642195,-170,-48,-58
75710118,0,2360354,-0.045538194,0.0009907327,0.0009459231,3248,-0.0008470537,-0.0014204222,9.562719e-05,41.352234,0.0010642195,16,134,4
75810917,0,2360354,-0.009171013,-0.08176622,-0.007549426,3247,0.000176602,-0.0008704336,-0.00015010021,41.30431,0.0010642195,-74,111,-70
75911680,0,2360354,0.15484421,-0.026295519,0.012042917,4011,-0.0001632125,0.0002609605,9.505847e-06,41.33127,0.0010642195,-69,253,-40
76010113,0,2360354,0.067685544,-0.089737415,-0.008847787,4009,0.00041118762,-0.0014960059,1.8379933e-05,41.343246,0.0010642195,-348,415,-40
76115670,0,2360354,0.013820441,-0.07130846,-0.039248735,4756,-0.00092967274,-0.0008076534,0.00013333352,41.31629,0.0010642195,134,319,61
76214899,0,2360354,-0.04570059,-0.10556438,-0.044808928,4029,0.00041612933,2.123114e-06,-0.0003339145,41.33127,0.0010642195,-271,-288,-102
76318869,0,2360354,-0.08018489,-0.04861406,-0.061780248,3999,-0.0009370373,-0.00033555945,-5.434459e-06,41.325275,0.0010642195,448,164,-51
76420470,0,2360354,0.078439735,0.008143336,-0.061690595,3993,0.00066201336,-0.00061674224,-4.826462e-05,41.31629,0.0010642195,-24,-227,-111
76518876,0,2360354,-0.030325526,0.001991636,-0.047229197,4006,-0.0007497076,-0.0009671753,-0.00026068665,41.35523,0.0010642195,122,117,-143
76623670,0,2360354,0.099957965,0.021627381,-0.04055666,4001,-0.0009468225,0.0013160199,-0.00024063955,41.36721,0.0010642195,273,-541,-230
76722870,0,2360354,0.031952985,-0.019992448,-0.060367405,4000,0.00054931623,-0.00018493523,-2.4994082e-05,41.30431,0.0010642195,66,-172,-18
76826878,0,2360354,-0.12800448,-0.005150048,-0.10293958,4008,-0.0006076297,0.0009232882,-0.00084870594,41.340252,0.0010642195,-270,178,57
76927731,0,2360354,-0.049457684,-0.014766911,-0.030896166,4055,0.00029016394,0.0011289356,-0.00022017871,41.334263,0.0010642195,-143,-187,-121
77026869,0,2360354,0.05969816,0.11192192,0.01913264,4757,0.0006876041,-6.112266e-05,3.7276e-05,41.337257,0.0010642195,-490,183,222
77130870,0,2360354,-0.048833538,-0.3827082,0.05949536,4000,-0.00018477015,-0.0019330684,0.00036664066,41.33127,0.0010642195,265,383,19
77230910,0,2360354,0.07302358,-0.31441444,0.048464373,4040,0.0014449087,-0.0016143736,0.00060109014,41.35523,0.0010642195,31,283,77
77334102,0,2360354,-0.2126746,-0.2187599,0.054912906,3226,0.0005709564,-0.00032811568,0.00023668734,41.352234,0.0010642195,-228,236,91
77434893,0,2360354,0.0070932265,-0.012371938,0.04676027,4023,-0.00084420707,-0.00042704196,0.0005112909,41.388176,0.0010642195,485,282,169
77534870,0,2360354,-0.0698441,0.0654081,0.042847548,4000,0.0010964033,-0.0004407957,6.545034e-05,41.34924,0.0010642195,-672,-3,203
77634919,0,2360354,0.097980544,0.57408816,0.02112827,4049,-0.00071988127,0.0011796791,0.00041712172,41.36721,0.0010642195,298,-180,161
77739711,0,2360354,0.083921835,0.30304873,0.014015909,3241,0.0003462418,0.001124015,-0.00052918855,41.328274,0.0010642195,-313,-119,44
77838102,0,2360354,0.16919307,0.10169713,0.04181325,3979,-0.0012177519,0.00025485276,5.2815805e-05,41.328274,0.0010642195,-105,51,142
77942110,0,2360354,-0.17602101,-0.11562084,0.024838416,3216,-0.0007324441,5.8054924e-05,0.0002496037,41.358223,0.0010642195,401,241,-293
78042882,0,2360354,-0.7026079,0.029173706,-0.007204904,4012,-0.0041337293,-0.0007859854,-0.00022780175,41.364216,0.0010642195,628,281,-273
78146124,0,2360354,-0.49294838,0.04290498,-0.017216165,3254,-0.0010988184,0.0010956035,3.5104524e-05,41.39716,0.0010642195,999,130,-77
78246907,0,2360354,-0.41479763,-0.042362824,-0.015609864,4038,-0.0029734913,0.00021739981,-4.162784e-05,41.3732,0.0010642195,605,285,-25
78346870,0,2360354,0.25527412,-0.046898633,0.031876054,4000,0.0007460571,2.9735588e-06,-5.0381517e-05,41.364216,0.0010642195,-172,-69,-177
78447676,0,2360354,1.125557,0.13235252,0.021624247,4770,0.00592862,0.0005147047,0.00018981517,41.352234,0.0010642195,-1090,-234,17
78551670,0,2360354,0.30126396,0.032027602,0.03194609,4761,0.001208634,-0.0005970104,0.00028186743,41.388176,0.0010642195,-309,-61,-15
78650916,0,2360354,0.054537814,0.004001654,0.020997904,3221,0.0009770119,0.00014787383,0.00038415325,41.358223,0.0010642195,-10,-184,50
78751669,0,2360354,0.07963477,-0.13360308,0.04069426,3999,-0.0011819814,-0.0015089263,0.00036679904,41.370205,0.0010642195,546,405,55
78854869,0,2360354,0.14295544,-0.23963888,0.050155506,3989,0.00020176485,-0.00050634326,-0.00023359335,41.343246,0.0010642195,-356,261,-98
78954870,0,2360354,-0.089844294,-0.3639669,0.040682852,4000,0.00030977302,-0.0004242123,9.326023e-05,41.36721,0.0010642195,99,155,-18
79059670,0,2360354,-0.086729184,-0.043710906,0.023638276,4001,-0.002176783,-0.001146512,2.9436329e-05,41.352234,0.0010642195,-297,333,-25
79158870,0,2360354,0.14650983,-0.13304967,-0.021986501,4000,0.00020016098,-0.0002849786,0.00019520166,41.3732,0.0010642195,229,22,234
79258876,0,2360354,-0.06904726,-0.11008473,-0.015816515,4006,-0.0006723578,0.0004819339,-0.00039276734,41.364216,0.0010642195,71,-264,-14
79362870,0,2360354,0.076913424,0.3331197,-0.027920052,4000,5.044213e-05,0.0028315168,-0.00024101186,41.394165,0.0010642195,-15,-734,-39
79462869,0,2360354,-0.1878049,0.28091776,-0.02820634,4746,0.00030597,0.00033683734,-0.00016613491,41.403152,0.0010642195,149,-239,77
79566870,0,2360354,-0.8075285,0.32343626,-0.039842427,4000,-0.0033361693,0.001048523,-5.963193e-05,41.394165,0.0010642195,668,-391,-18
79666915,0,2360354,-0.829375,0.15974459,-0.04189505,4045,-0.0016362697,0.0011632852,-0.000301049,41.412136,0.0010642195,562,-384,164
79770121,0,2360354,-0.20534332,0.082394265,-0.013315013,3251,3.7140395e-05,0.00077928527,-0.00018366557,41.337257,0.0010642195,258,85,10
79874112,0,2360354,-0.06451663,-0.09161484,0.027108766,3234,0.0010030183,-0.0002971036,9.181269e-05,41.34924,0.0010642195,-345,16,-67
79974897,0,2360354,0.037234314,-0.042112827,-0.0060461382,4021,-0.0017668756,-0.0009567467,0.00020571024,41.39716,0.0010642195,348,512,-65
80074870,0,2360354,-0.028038843,-0.22312498,-0.028722374,3954,0.0004590814,-0.0012099057,-0.00013841045,41.382187,0.0010642195,-76,-54,-10
80178876,0,2360354,-0.1328313,-0.13244347,-0.019257467,4007,7.1833e-05,0.00014050525,-0.00019452449,41.39117,0.0010642195,-205,-379,87
80278906,0,2360354,0.211754,0.1088931,-0.021411074,4036,-0.00023210853,0.0002243652,2.7032842e-05,41.37919,0.0010642195,241,-153,70
80378120,0,2360354,0.06877775,-0.006523635,-0.007235826,3216,0.0016526509,0.00019920149,-3.6684494e-05,41.394165,0.0010642195,-179,-141,7
80482904,0,2360354,0.084867604,-0.044488944,-0.0014289749,4002,0.0023368346,9.838722e-05,0.0001308254,41.382187,0.0010642195,-343,-20,19
80582889,0,2360354,0.091427125,-0.0013126596,-0.0054521295,4019,0.0007227229,-0.00010752329,1.9409386e-05,41.439095,0.0010642195,-561,7,-56
80686870,0,2360354,1.2970265,0.034464367,-0.010706023,3958,0.0053456225,-0.0002505108,-0.0002728491,41.39117,0.0010642195,-1072,103,-109
80786870,0,2360354,0.16971593,-0.025929704,-0.006460674,3993,0.0014944368,-0.00048546083,-0.000105602376,41.382187,0.0010642195,-599,73,31
81090870,0,2360354,0.033832576,-0.015034926,0.0022588065,3989,-0.00010724273,-0.00092591613,8.912065e-05,41.388176,0.0010642195,18,527,127
81190872,0,2360354,-0.01630727,0.03335077,0.0038119801,4003,-0.0010879138,-0.0005717887,-1.996606e-05,41.39117,0.0010642195,-130,-28,-140
81294876,0,2360354,-0.046893056,-0.02423682,-0.0072858417,4006,5.8889495e-05,0.00026323515,-6.291565e-05,41.382187,0.0010642195,-23,-245,41
81394870,0,2360354,0.007667562,-0.04637673,-0.001802444,4000,-0.00027577675,-0.0003897548,2.2365386e-05,41.388176,0.0010642195,-64,-177,-33
81498870,0,2360354,-0.10228391,-0.010730992,-0.010300623,3994,0.00042331286,0.00031200456,-0.00017316421,41.424118,0.0010642195,-97,-156,-141
81602876,0,2360354,0.065601766,0.045641936,-0.021494335,4006,0.0015966132,0.00023270957,-0.0002366087,41.39716,0.0010642195,-230,257,222
81702876,0,2360354,0.016023342,0.0036298044,-0.004134915,4001,0.0014486894,0.00032524028,-0.00041924094,41.4361,0.0010642195,-354,72,-105
81806919,0,2360354,0.0028762375,0.008894127,-0.014202751,4030,0.0011635098,0.0008451411,-0.00039052565,41.421124,0.0010642195,-85,-5,134
81906913,0,2360354,-0.020195916,0.0012445161,-0.0049585025,4043,0.00042166343,0.00014512442,-0.00017152057,41.400158,0.0010642195,-254,-236,-22
82006870,0,2360354,0.019803565,-0.004662402,-0.0026085465,4001,4.1127703e-05,-0.00032933053,6.7873974e-05,41.406147,0.0010642195,-301,-283,23
82110890,0,2360354,-0.055925056,-0.06446548,-0.00030255632,4021,0.001132223,-0.00043565696,9.90847e-06,41.44808,0.0010642195,-111,-48,67
82210924,0,2360354,0.006065677,0.04077744,-0.011033312,4048,-0.0016866409,-0.00043311657,0.00036919268,41.39716,0.0010642195,686,42,-67
82310870,0,2360354,0.07243213,0.009366017,-0.03084184,3986,0.00092675496,0.0011994387,-0.0004225654,41.4331,0.0010642195,-151,-636,-223
82414884,0,2360354,-0.012324124,0.018060233,-0.4481941,4011,0.00033925383,-0.00040600298,-0.0023379447,41.424118,0.0010642195,-528,167,-329
82514899,0,2360354,-0.08942078,-0.037155837,-0.91182333,4029,-8.150624e-05,-0.0002565584,-0.0034701747,41.481026,0.0010642195,-222,-34,-882
82618870,0,2360354,0.061178174,0.04249669,-1.1477226,4000,-0.00020951816,0.0012505961,-0.0046254816,41.45407,0.0010642195,248,27,-992
82722877,0,2360354,-0.18398295,-0.06390966,-0.77499384,4007,-0.0007625844,-0.0010900567,-0.0030286731,41.439095,0.0010642195,-39,114,-739
82822917,0,2360354,0.060867872,-0.04064022,-0.50231576,4047,-0.00023068054,1.6635058e-05,-0.0019919076,41.427113,0.0010642195,194,174,-569
82926870,0,2360354,0.00061008753,0.036998753,-0.2522928,4000,-0.00042493205,-0.0007677217,-0.0010073003,41.463055,0.0010642195,-41,416,-110
83026870,0,2360354,0.011361338,0.0016996473,-0.12956214,4001,-0.000118803066,0.00047547967,-0.0007767554,41.439095,0.0010642195,-61,-258,-251
83126876,0,2360354,-0.080099314,0.055810396,-0.24659179,4006,0.0011772957,0.0003501967,-0.00079187436,41.463055,0.0010642195,-80,-209,-307
83230889,0,2360354,0.06348116,0.001772295,-0.5853143,3996,-0.00073877734,-0.0008221436,-0.0023544114,41.406147,0.0010642195,-84,196,-420
83330870,0,2360354,-0.00024699117,0.10870082,-0.983649,4000,3.8118622e-05,-0.00031477268,-0.003865531,41.445084,0.0010642195,-336,-204,-968
84446871,0,2360354,-0.10001279,-0.059924845,0.15552655,3995,0.0002444047,0.0006922891,0.00052041106,41.4331,0.0010642195,282,-86,-3
84550876,0,2360354,-0.024461633,0.041316915,-0.114927635,4006,0.00024965347,0.0009294371,-0.0005173639,41.46605,0.0010642195,-69,-169,-138
84650876,0,2360354,0.057128385,-0.009501207,-0.22841482,3972,0.00045997766,0.0008744871,-0.00096617773,41.48402,0.0010642195,-200,-183,-227
84750870,0,2360354,0.031920716,0.07825824,-0.39188185,4000,-0.0003019869,0.00025303607,-0.0015902119,41.472042,0.0010642195,16,-406,-327
84854885,0,2360354,-0.015903965,0.021851221,-0.6088666,4016,0.0008811037,0.00080783915,-0.0025125118,41.463055,0.0010642195,161,-77,-465
84954869,0,2360354,-0.10475566,-0.0601136,-0.43195865,3995,-0.00081273605,-0.0016007231,-0.0014202372,41.490013,0.0010642195,-59,295,-420
85054870,0,2360354,0.19230154,0.0989742,-0.34982654,4000,0.00012441448,-0.00045144872,-0.0014137708,41.46605,0.0010642195,351,70,-246
85158896,0,2360354,0.047362626,0.007040009,-0.27532715,4020,-0.000206356,0.00051358144,-0.0011487907,41.47803,0.0010642195,297,54,-198
85258871,0,2360354,-0.049557175,-0.13069071,-0.10832464,3993,0.00012793308,0.00027470393,-0.00043132325,41.469044,0.0010642195,58,-331,11
85362877,0,2360354,-0.054664765,-0.09385111,-0.028916197,4007,-0.0011095899,-0.0004345889,6.358924e-06,41.457066,0.0010642195,154,-42,-58
85462869,0,2360354,0.04109076,0.042490046,0.009062143,3999,0.001171174,0.00011467217,-0.0002310542,41.498997,0.0010642195,-148,112,-12
85562871,0,2360354,-0.016416749,-0.03495862,0.045340925,4001,0.00062157883,0.000336141,0.00017559316,41.487015,0.0010642195,-422,-401,-51
85666889,0,2360354,-0.059208535,-0.010747481,0.045382068,3998,0.00051197025,-0.0014561289,0.00015130884,41.490013,0.0010642195,-532,234,113
85766869,0,2360354,0.10383966,0.092547484,0.038321234,4000,-1.52491875e-05,0.00054088805,0.00023198409,41.487015,0.0010642195,340,230,205
85866876,0,2360354,1.2512597,-0.031535555,0.059120316,4007,0.004917168,-0.0010862089,0.00033350394,41.487015,0.0010642195,-934,301,151
85970869,0,2360354,1.2322417,0.13629304,0.027032826,3993,0.004164771,0.00017836115,-9.570224e-05,41.498997,0.0010642195,-963,-41,104
86070870,0,2360354,0.34290853,-0.019098742,0.017755933,4000,0.00059502875,-0.00083499646,0.00026213398,41.519962,0.0010642195,-343,99,9
86174886,0,2360354,0.06346472,-0.0279452,0.0159272,3993,-1.2807731e-05,0.0012400037,-0.00010187287,41.516968,0.0010642195,115,-182,-187
86274887,0,2360354,-0.071050204,0.03459514,0.015901767,4017,0.00019226469,-0.00023772534,8.507324e-05,41.519962,0.0010642195,-83,-201,-15
86374870,0,2360354,-0.7045388,-0.026454056,0.0021172625,4000,-0.0036911196,-0.0007790118,4.1535834e-05,41.475037,0.0010642195,376,424,-73
86478870,0,2360354,-1.6764351,0.034322195,-0.0037991223,4001,-0.0067484565,-0.000852252,3.970012e-06,41.47803,0.0010642195,1289,311,228
86578879,0,2360354,-0.20454179,-0.08737321,0.0075115436,4009,-5.936399e-05,2.9902822e-05,-6.7534515e-05,41.51098,0.0010642195,15,-145,131
86678909,0,2360354,-0.10354259,0.10795332,-0.0020893642,4020,0.0009074386,0.0005602454,0.00029118764,41.525955,0.0010642195,163,-113,74
86782902,0,2360354,-0.09297815,0.009199507,-0.002129234,4026,-0.00024782357,0.0009395385,-0.00021913285,41.493008,0.0010642195,272,-51,-193
86882873,0,2360354,-0.0402903,-0.0507329,-0.01843326,4003,0.0007246284,0.0004270203,-0.00034424238,41.493008,0.0010642195,-235,-112,45
86986870,0,2360354,0.15912472,0.08749599,-0.01662153,4000,0.00013804324,0.0016719628,-0.00044761252,41.445084,0.0010642195,97,-326,-168
87090870,0,2360354,-0.03486532,-0.028821977,0.00093953917,4000,-0.00012601321,0.0005747054,-0.00017953251,41.475037,0.0010642195,112,-387,-265
87190869,0,2360354,-0.017374663,-0.06629217,0.0044838227,3998,0.0007364962,-0.00034599798,0.00010069881,41.52296,0.0010642195,-423,-137,117
87294870,0,2360354,-0.03508484,-0.046218526,0.02723619,3980,-2.163475e-06,-0.00072466576,0.00022702826,41.475037,0.0010642195,-120,-212,-36
87394870,0,2360354,0.1108616,0.10142837,0.006115171,3994,-0.00046909566,0.00070127693,-0.00020481912,41.52296,0.0010642195,90,-10,23
87494870,0,2360354,0.013506835,-0.020827275,0.009462391,4001,0.000934729,0.00043196735,5.0711475e-05,41.52895,0.0010642195,-52,-131,-12
87598910,0,2360354,-0.049503215,-0.047787596,0.0009755919,4001,-0.0003758045,0.00033331974,-0.00010247754,41.531944,0.0010642195,190,195,82
87698870,0,2360354,-0.039354168,-0.018048238,0.0070263436,3994,-0.00031401517,0.00054752524,-8.50934e-05,41.53494,0.0010642195,47,-21,163
87798870,0,2360354,-0.047720157,-0.058344726,0.024259958,4000,-0.0011493331,-0.0015682377,0.0003329077,41.504986,0.0010642195,-31,212,-152
87902875,0,2360354,0.15753758,0.060782548,0.012506543,4006,0.00040396987,0.00076005503,-1.705901e-05,41.51098,0.0010642195,415,2,-15
88002870,0,2360354,0.08395559,0.058916643,0.008536915,3990,0.0002231264,0.00091885304,-0.00019296071,41.513973,0.0010642195,340,55,137
88106870,0,2360354,-0.020885404,0.027570248,0.030997794,3975,-0.00077389576,0.0004912692,9.692629e-05,41.525955,0.0010642195,-201,197,17
88206899,0,2360354,0.02592113,0.020008927,0.04053405,4023,-0.00014663607,0.0005271203,-2.5008216e-05,41.531944,0.0010642195,-370,-108,72
88306870,0,2360354,-0.08700584,-0.039803635,0.04056303,4000,-0.00084886706,-0.0011608894,0.00049793656,41.519962,0.0010642195,136,347,121
88410877,0,2360354,0.041824803,-0.08574971,0.040203243,4007,-2.303437e-05,0.0005882366,0.00021662489,41.543926,0.0010642195,338,-501,-161
88510870,0,2360354,0.017195033,-0.022457944,0.019120863,4000,0.00042815326,0.0012855261,-1.7171202e-05,41.54093,0.0010642195,38,-481,-45
88610870,0,2360354,-0.020416908,0.04182185,0.012344505,3954,-0.00035346762,-0.0010607211,0.00022391959,41.48402,0.0010642195,-69,101,65
88714897,0,2360354,-0.063763954,-0.08819806,0.00063387194,3992,-0.00059272745,-0.00046936813,-8.98416e-05,41.555904,0.0010642195,-289,135,152
88814888,0,2360354,0.025679953,-0.07639873,0.02006124,4018,8.273455e-05,0.0005517308,0.00010810165,41.56489,0.0010642195,145,-359,6
88918870,0,2360354,0.020548398,-0.034124535,0.013004879,3994,-0.0012766997,-0.0008166756,0.0001937742,41.513973,0.0010642195,275,263,61
89018870,0,2360354,-0.030285448,0.011877748,0.0108317565,4000,-0.0008126749,-0.0012360911,0.00025471053,41.51098,0.0010642195,-93,8,-12
89118870,0,2360354,0.025666678,0.005489775,-0.009087826,3963,-0.0009698574,-0.0012530175,0.00031142798,41.54093,0.0010642195,16,157,165
89222872,0,2360354,0.010505928,0.030760765,0.0025019923,4002,-0.000829654,-0.00055351143,0.00015658417,41.525955,0.0010642195,27,182,-150
89322869,0,2360354,-0.06299747,-0.018231612,0.0063470467,3999,0.000100016616,0.00042221884,-4.3138716e-05,41.531944,0.0010642195,-54,-188,4
89422869,0,2360354,0.051834527,0.10031521,0.0071771257,3992,-0.00051143375,0.00061107444,0.00010425623,41.561897,0.0010642195,185,41,39
89526898,0,2360354,-0.021129567,-0.033964287,0.013177016,4021,0.00053178833,0.0006223056,-4.8560614e-05,41.549915,0.0010642195,-83,-412,-46
89626876,0,2360354,0.3497673,-0.009607432,0.015205988,4005,0.0020808848,0.00082099234,4.1039006e-05,41.537933,0.0010642195,-369,-182,-113
89730869,0,2360354,0.86239976,-0.0148634,0.0022043453,3963,0.002381042,-0.0010447524,1.0663646e-05,41.513973,0.0010642195,-596,427,21
89834918,0,2360354,0.8818906,-0.097118706,-0.002541049,4048,0.0040450487,6.718531e-05,-0.00012692512,41.52895,0.0010642195,-1155,-389,33
89934870,0,2360354,0.46053198,-0.07360397,-0.01319312,3992,0.0018074748,-0.000980825,3.9413946e-05,41.555904,0.0010642195,-527,66,51
90038881,0,2360354,0.43364123,0.018968405,-0.004586427,3988,0.0026166688,0.0007968196,-0.00020232829,41.56489,0.0010642195,-289,107,124
90138906,0,2360354,0.06608781,-0.047276825,-0.0034924273,4037,-0.00047821327,0.00051900506,-2.1255407e-06,41.52895,0.0010642195,347,66,48
90238915,0,2360354,-0.6209172,0.030123716,-0.004349613,4045,-0.003955727,-0.000981195,0.00020545821,41.54093,0.0010642195,1145,419,179
90342870,0,2360354,-0.8755057,0.060634233,0.013007686,3994,-0.004098988,1.1067353e-05,0.00023480864,41.54692,0.0010642195,998,59,64
90442870,0,2360354,-1.4198024,0.09418755,-0.011153969,4000,-0.0060265437,-0.00016546209,-4.9021284e-05,41.54692,0.0010642195,1140,185,120
90542882,0,2360354,-0.42357805,-0.11119317,0.009951922,3993,-0.0013037755,-0.0011046035,-0.000101641344,41.567886,0.0010642195,-132,128,-228
90646903,0,2360354,-0.11145593,-0.09875558,0.005040825,4008,0.0009770062,5.6608063e-05,4.2559746e-05,41.567886,0.0010642195,24,121,84
90746870,0,2360354,-0.90081364,0.010174825,-0.00010444649,4000,-0.0023369924,0.00039822003,0.000118302094,41.537933,0.0010642195,822,-120,59
90850897,0,2360354,-0.88317746,-0.11821849,0.006101495,4028,-0.003456922,-0.001463411,0.00014558369,41.567886,0.0010642195,572,-83,-44
90950870,0,2360354,0.5098798,0.019534403,0.010339812,4000,0.0039271717,-0.00047479977,8.595272e-05,41.558903,0.0010642195,-719,-189,318
91050876,0,2360354,0.51241237,0.0150367115,0.006654781,4006,0.0035559437,1.934273e-06,-2.0676624e-05,41.531944,0.0010642195,-1046,-604,77
91154870,0,2360354,0.38412508,-0.07446867,0.026204143,4001,0.0028268094,-0.0006942405,7.604413e-05,41.543926,0.0010642195,-561,106,-165
91254903,0,2360354,0.11810627,0.070912816,0.012275264,4034,-0.0008140209,-0.00038519604,0.00036709345,41.57088,0.0010642195,695,202,7
91354870,0,2360354,0.03926273,0.011737392,0.016842782,4001,0.00072439807,-2.306565e-05,-7.822169e-05,41.525955,0.0010642195,-267,20,2
91458893,0,2360354,0.052285016,-0.058952514,0.015593365,4023,0.00062573754,0.000156532,0.00013309573,41.531944,0.0010642195,139,-237,-92
91558870,0,2360354,0.028388103,0.07040525,0.0014371902,3994,-0.0004856102,-0.00047442788,0.00046677663,41.561897,0.0010642195,630,253,18
91662874,0,2360354,0.034082744,-0.050963722,-0.006475471,3978,0.0002476755,-0.0007056355,-5.4741555e-05,41.561897,0.0010642195,95,165,156
91762876,0,2360354,-0.027833305,0.11799901,-0.0015285207,4007,9.6102944e-05,0.0007291089,-0.00022719534,41.57088,0.0010642195,-95,219,50
91862876,0,2360354,0.06372664,-0.01821322,0.0012875692,4007,-9.8122444e-05,0.00068271137,-0.00025260774,41.558903,0.0010642195,328,8,-92
91966878,0,2360354,0.027848065,0.041709367,-0.0032443446,4009,-0.0006947937,0.0008350714,0.00028105476,41.585857,0.0010642195,450,135,114
92066869,0,2360354,-0.015704235,0.011049127,-0.006780101,3999,-0.00088385295,-0.00069215207,-4.9507227e-05,41.549915,0.0010642195,36,240,182
92170870,0,2360354,0.048302185,-0.3544427,0.0135602,4001,4.914885e-05,-0.0024758058,0.00011018268,41.53494,0.0010642195,-499,520,128
92274870,0,2360354,-0.04092072,-0.54925644,0.012350131,3981,0.0001504316,-0.0025192697,-0.00022005336,41.549915,0.0010642195,-520,360,69
92374870,0,2360354,-0.07139292,-0.45931193,0.0074118488,4001,-0.00084131485,-0.002586195,0.00014544193,41.576874,0.0010642195,-173,538,39
92474876,0,2360354,-0.048699908,-0.14357196,0.004750102,3987,0.00046784402,-0.00030019236,-7.519751e-05,41.57088,0.0010642195,-343,-80,77
92578884,0,2360354,-0.052610923,-0.09832146,0.01308702,3993,0.000659649,0.00087479607,2.0874377e-05,41.561897,0.0010642195,133,-355,-82
92678870,0,2360354,0.00030458346,0.7340624,5.770365e-06,3967,0.00044912234,0.0042226957,1.8100603e-05,41.549915,0.0010642195,51,-654,-10
92782905,0,2360354,-0.017551439,0.5055539,0.021301035,4035,-0.0011575995,0.002880929,-7.647012e-05,41.555904,0.0010642195,250,-182,-31
92882869,0,2360354,0.018997954,0.28589895,0.010133364,3999,0.0015360457,0.0016663532,6.577715e-05,41.573875,0.0010642195,-252,-472,47
92982869,0,2360354,0.02229533,0.062324915,0.023116728,3993,-0.00040694085,0.00042309385,0.00026700387,41.537933,0.0010642195,-71,166,-21
93086874,0,2360354,-0.031449102,-0.02219393,0.0141602075,4004,0.00016832982,-2.8285056e-06,4.498956e-05,41.57987,0.0010642195,47,134,-12
93186879,0,2360354,-0.07329655,0.422326,0.010408479,4005,-0.00022732605,0.0018934499,7.2522744e-05,41.594845,0.0010642195,158,-512,67
93286893,0,2360354,0.061259124,0.23061194,0.0055247094,4023,0.00036945005,0.0011011483,8.806125e-05,41.54093,0.0010642195,-4,-233,280
93390879,0,2360354,0.017768139,0.15526356,0.036236987,4009,-0.00060145935,-0.00044098787,0.00028522123,41.588852,0.0010642195,-311,89,49
93490870,0,2360354,0.11821611,-0.49583247,0.025468675,4000,-0.00047175327,-0.00038684782,0.00013844251,41.600834,0.0010642195,560,128,-128
93594870,0,2360354,0.0020135182,-0.11823554,0.008749442,4000,-0.00015857635,-0.0010893531,6.459732e-05,41.573875,0.0010642195,-9,83,-75
93698869,0,2360354,-0.033428553,-0.14692467,-0.01673965,3999,-0.00013083035,1.7392078e-05,-0.00033009992,41.618805,0.0010642195,-59,111,19
93798903,0,2360354,-0.023605136,-0.088812776,-0.014986231,4034,-0.0008367457,-0.0004871141,4.4418415e-05,41.54692,0.0010642195,570,264,92
93902870,0,2360354,0.05740016,-0.029136032,-0.010843485,3974,0.0003760174,7.895603e-05,-0.00011437486,41.54692,0.0010642195,-202,-243,61
94002883,0,2360354,0.059378285,0.08661683,-0.0110509135,4007,-1.3358139e-05,8.5332995e-06,0.00011879845,41.600834,0.0010642195,-68,57,42
94102885,0,2360354,-0.01972509,0.066629566,-0.0192552,4015,-0.00037939017,-8.07739e-05,0.00017038858,41.573875,0.0010642195,489,291,54
94206876,0,2360354,0.06884932,0.006479603,-0.01928996,4006,0.00037527047,-0.0003608423,-0.00025315752,41.61581,0.0010642195,-121,166,157
94306870,0,2360354,-0.004317544,-0.060299348,0.00046871905,3964,0.0011213789,-0.00050851516,5.8048452e-05,41.594845,0.0010642195,-177,45,-7
94406870,0,2360354,-0.10618091,-0.08901234,0.0034031912,3992,0.000590568,-0.0003387366,4.2556334e-05,41.582863,0.0010642195,-57,-287,-38
94510872,0,2360354,0.012007122,0.040027346,-0.0063978173,3982,0.00011882753,0.0013159774,-0.00041042326,41.57987,0.0010642195,123,-191,-83
94610870,0,2360354,-0.07692139,0.016851932,0.00095991086,4000,0.001606494,-0.0002956154,-0.00010217225,41.588852,0.0010642195,-298,-226,-28
94714874,0,2360354,0.16688314,-0.10610038,0.000882176,3997,0.0018742216,0.0010957145,-0.0003176674,41.59784,0.0010642195,-313,-511,-38
94814887,0,2360354,-0.030288765,-0.023569677,0.008107394,4017,0.0010152,0.00013218196,-4.857898e-05,41.585857,0.0010642195,-447,-264,-33
94914870,0,2360354,-0.14433582,-0.06706208,0.010834603,4000,-0.001072561,-0.000546611,3.1608077e-05,41.624794,0.0010642195,-382,-249,-48
95018870,0,2360354,0.037058692,0.043394648,0.009336449,4000,0.00015485492,0.0003133092,-0.00020835879,41.59784,0.0010642195,-416,-213,-20
95118870,0,2360354,0.01084105,0.0053105275,0.0037081132,4797,-0.0010828471,0.0007402966,8.6204745e-05,41.588852,0.0010642195,164,-53,-44
95222071,0,2360354,-0.08160653,-0.045204084,-0.0032654782,3976,0.0006847089,-0.00035749012,-4.2171378e-06,41.558903,0.0010642195,-407,104,31
95322870,0,2360354,0.029290235,-0.010523184,-0.00024770014,4000,0.0004280365,0.0013270779,-8.4626474e-05,41.582863,0.0010642195,-303,-372,-55
95422876,0,2360354,-0.07720393,-0.023695631,0.0025606046,4006,-0.0009789963,0.00085422717,-0.00013316383,41.612816,0.0010642195,-66,-204,-114
95526870,0,2360354,-0.028454022,0.0393819,-0.0052639516,3998,0.0010078934,0.00022156494,6.305652e-05,41.594845,0.0010642195,-257,142,-28
95629298,0,2360354,-0.04827641,-0.059416886,0.008248607,3228,0.0007572714,0.00047790658,4.1881216e-05,41.585857,0.0010642195,47,55,-121
95730108,0,2360354,-0.03194572,0.047831442,0.0070397514,3238,0.00033883654,-0.0002398605,0.00011816345,41.624794,0.0010642195,44,241,-41
95832477,0,2360354,0.046324223,0.05514757,-0.0034540382,4007,-4.084107e-05,-0.00042023588,0.00014224755,41.594845,0.0010642195,-99,250,-33
95935670,0,2360354,0.04263957,-0.015027758,-0.011319031,3950,-0.000492202,7.594494e-05,-0.0002476342,41.630787,0.0010642195,297,160,156
96038077,0,2360354,0.031995974,0.04983615,0.00018273227,4007,0.0002736035,7.1325405e-05,3.324116e-05,41.61581,0.0010642195,240,-183,-89
96138870,0,2360354,-0.005689328,-0.0852392,0.004679902,3994,-0.0007154024,-0.0013537686,0.00039242455,41.63378,0.0010642195,71,142,-20
96238070,0,2360354,-0.043482695,-0.010044025,-0.00062195637,3959,-2.2879543e-05,-0.0005128968,-7.4917596e-05,41.59784,0.0010642195,-419,119,78
96338870,0,2360354,0.037254196,0.044229236,0.0050713173,3977,0.0008072711,0.0004464227,-2.0706786e-05,41.60383,0.0010642195,-473,-413,-15
96442938,0,2360354,-0.11045274,-0.044945028,0.001673853,4024,-7.9692014e-05,-0.00017028915,-3.194736e-05,41.59784,0.0010642195,175,-32,61
96542083,0,2360354,-0.033174846,-0.06486019,0.003661507,4013,-0.0006770211,-0.00047131247,1.4081759e-05,41.62779,0.0010642195,-95,-204,17
96644470,0,2360354,-0.0017125363,-0.035477083,0.0065135797,3961,0.0006696519,0.00021001842,7.0550705e-06,41.62779,0.0010642195,-35,-100,-5
96746075,0,2360354,0.077919,-0.0097418055,-0.0040003015,4005,0.0005413581,-0.00015369145,-0.00014152858,41.606823,0.0010642195,94,-179,-143
96846886,0,2360354,-0.022738814,0.024647558,-0.02507507,4016,-0.0008399968,0.0007963844,-0.00010751401,41.618805,0.0010642195,511,127,11
96950069,0,2360354,0.019815043,0.022784254,-0.032944005,3993,0.00069445407,0.00056468695,-0.00025333444,41.60383,0.0010642195,-21,58,-124
