timestamp,error_count,device_id,x,y,z,temperature,scaling,x_raw,y_raw,z_raw,is_external
50801725,0,131618,0.17200823,-0.0951948,0.3629604,39.0,8e-05,-385,2299,4638,0
50901725,0,131618,0.17362504,-0.09184391,0.3538908,39.125,8e-05,-427,2319,4509,0
51001726,0,131618,0.17087646,-0.09447675,0.36724916,39.0,8e-05,-394,2285,4699,0
51101726,0,131618,0.17467597,-0.09814678,0.35164094,39.125,8e-05,-348,2332,4477,0
51201725,0,131618,0.17087646,-0.09431718,0.36844438,39.0,8e-05,-396,2285,4716,0
51311771,0,131618,0.17516103,-0.09343957,0.35051605,39.0,8e-05,-407,2338,4461,0
51411740,0,131618,0.17192738,-0.09335978,0.36830375,39.25,8e-05,-408,2298,4714,0
51511768,0,131618,0.1701489,-0.092003465,0.36605394,39.125,8e-05,-425,2276,4682,0
51611731,0,131618,0.17160401,-0.09511502,0.3638744,39.25,8e-05,-386,2294,4651,0
51711803,0,131618,0.17184654,-0.09256195,0.36802253,39.125,8e-05,-418,2297,4710,0
51811748,0,131618,0.17047223,-0.09495545,0.36169487,39.125,8e-05,-388,2280,4620,0
51911732,0,131618,0.17216991,-0.093918264,0.36106214,39.125,8e-05,-401,2301,4611,0
52021762,0,131618,0.16796617,-0.09272152,0.3679522,39.0,8e-05,-416,2249,4709,0
52121725,0,131618,0.17314,-0.0961522,0.36506963,39.125,8e-05,-373,2313,4668,0
52221725,0,131618,0.16683441,-0.093918264,0.368585,39.125,8e-05,-401,2235,4718,0
52321725,0,131618,0.1727358,-0.09543415,0.3619058,39.125,8e-05,-382,2308,4623,0
52421782,0,131618,0.17103812,-0.091205634,0.36471808,39.125,8e-05,-435,2287,4663,0
52521725,0,131618,0.17144234,-0.09343957,0.3627495,39.125,8e-05,-407,2292,4635,0
52631802,0,131618,0.17346337,-0.09559371,0.36549148,39.125,8e-05,-380,2317,4674,0
52731762,0,131618,0.17443345,-0.09439697,0.36352286,39.25,8e-05,-395,2329,4646,0
52831732,0,131618,0.17362504,-0.09647133,0.36176518,39.125,8e-05,-369,2319,4621,0
52931726,0,131618,0.17152318,-0.09272152,0.3608512,39.25,8e-05,-416,2293,4608,0
53041726,0,131618,0.17322084,-0.09312043,0.36169487,39.125,8e-05,-411,2314,4620,0
53141767,0,131618,0.17297831,-0.09455654,0.36260885,39.125,8e-05,-393,2311,4633,0
53241738,0,131618,0.17402926,-0.09288108,0.36232764,39.125,8e-05,-414,2324,4629,0
53341725,0,131618,0.17136149,-0.09463631,0.35965598,39.0,8e-05,-392,2291,4591,0
53441725,0,131618,0.17160401,-0.09176412,0.365843,39.125,8e-05,-428,2294,4679,0
53541733,0,131618,0.17297831,-0.09679046,0.3611324,39.125,8e-05,-365,2311,4612,0
53641725,0,131618,0.16990635,-0.0966309,0.36746007,39.125,8e-05,-367,2273,4702,0
53751724,0,131618,0.17208907,-0.09415762,0.36612424,39.125,8e-05,-398,2300,4683,0
53851770,0,131618,0.1707956,-0.09527459,0.36492902,39.125,8e-05,-384,2284,4666,0
53951774,0,131618,0.17119981,-0.09431718,0.36626485,39.125,8e-05,-396,2289,4685,0
54051732,0,131618,0.17031056,-0.09264174,0.36696792,39.0,8e-05,-417,2278,4695,0
54151762,0,131618,0.17216991,-0.09671068,0.36169487,39.0,8e-05,-366,2301,4620,0
54261725,0,131618,0.17200823,-0.09415762,0.36710852,39.25,8e-05,-398,2299,4697,0
54361725,0,131618,0.17499934,-0.0947161,0.36035904,39.125,8e-05,-391,2336,4601,0
54461725,0,131618,0.17103812,-0.09575328,0.36809283,39.125,8e-05,-378,2287,4711,0
54561743,0,131618,0.17241243,-0.09551393,0.36169487,39.25,8e-05,-381,2304,4620,0
54671734,0,131618,0.17111897,-0.093918264,0.36809283,39.25,8e-05,-401,2288,4711,0
54771751,0,131618,0.17386757,-0.09527459,0.36134335,39.25,8e-05,-384,2322,4615,0
54871731,0,131618,0.17265496,-0.09431718,0.36310104,39.125,8e-05,-396,2307,4640,0
54971732,0,131618,0.1707956,-0.09256195,0.36767098,39.125,8e-05,-418,2284,4705,0
55071732,0,131618,0.1743526,-0.09527459,0.3618355,39.125,8e-05,-384,2328,4622,0
55171814,0,131618,0.17265496,-0.09591285,0.36106214,39.125,8e-05,-376,2307,4611,0
55271765,0,131618,0.17265496,-0.09359914,0.36809283,39.125,8e-05,-405,2307,4711,0
55381766,0,131618,0.17257412,-0.09679046,0.36134335,39.125,8e-05,-365,2306,4615,0
55481725,0,131618,0.17055309,-0.0947161,0.36710852,39.25,8e-05,-391,2281,4697,0
55581725,0,131618,0.17168486,-0.093918264,0.36457747,39.0,8e-05,-401,2295,4661,0
55681725,0,131618,0.1709573,-0.09224282,0.36696792,39.0,8e-05,-422,2286,4695,0
55781760,0,131618,0.17289747,-0.09575328,0.3618355,39.125,8e-05,-378,2310,4622,0
55881734,0,131618,0.17071478,-0.09607242,0.36612424,39.125,8e-05,-374,2283,4683,0
55981738,0,131618,0.17200823,-0.09511502,0.35986692,39.125,8e-05,-386,2299,4594,0
56091732,0,131618,0.17152318,-0.09367892,0.36802253,39.25,8e-05,-404,2293,4710,0
56191738,0,131618,0.1743526,-0.09463631,0.3607809,39.125,8e-05,-392,2328,4607,0
56291731,0,131618,0.17160401,-0.09543415,0.3668976,39.25,8e-05,-382,2294,4694,0
56391736,0,131618,0.16966383,-0.09351935,0.36724916,39.125,8e-05,-406,2270,4699,0
56501751,0,131618,0.17160401,-0.09351935,0.36605394,39.25,8e-05,-406,2294,4682,0
56601725,0,131618,0.17047223,-0.09399805,0.36528054,39.0,8e-05,-400,2280,4671,0
56701743,0,131618,0.17087646,-0.0937587,0.3676007,39.25,8e-05,-403,2285,4704,0
56801725,0,131618,0.17152318,-0.09351935,0.3637338,39.125,8e-05,-406,2293,4649,0
56901725,0,131618,0.17087646,-0.09383848,0.36717886,39.125,8e-05,-402,2285,4698,0
57001725,0,131618,0.17443345,-0.09671068,0.3611324,39.125,8e-05,-366,2329,4612,0
57101726,0,131618,0.17063393,-0.09320022,0.368585,39.25,8e-05,-410,2282,4718,0
57211731,0,131618,0.17063393,-0.0951948,0.36710852,39.0,8e-05,-385,2282,4697,0
57311760,0,131618,0.17249326,-0.09695003,0.36717886,39.125,8e-05,-363,2305,4698,0
57411773,0,131618,0.17071478,-0.09503523,0.36605394,39.125,8e-05,-387,2283,4682,0
57511732,0,131618,0.17160401,-0.09160455,0.36457747,39.25,8e-05,-430,2294,4661,0
57611734,0,131618,0.1717657,-0.09543415,0.36731946,39.125,8e-05,-382,2296,4700,0
57711751,0,131618,0.17160401,-0.09359914,0.3685147,39.125,8e-05,-405,2294,4717,0
57821725,0,131618,0.17370589,-0.09431718,0.36281982,39.25,8e-05,-396,2320,4636,0
57921768,0,131618,0.17225075,-0.09359914,0.365843,39.125,8e-05,-405,2302,4679,0
58021725,0,131618,0.17111897,-0.09631176,0.36675698,39.25,8e-05,-371,2288,4692,0
58121733,0,131618,0.17249326,-0.0937587,0.36738977,39.25,8e-05,-403,2305,4701,0
58221725,0,131618,0.17152318,-0.09096629,0.3676007,39.125,8e-05,-438,2293,4704,0
58321762,0,131618,0.17613111,-0.09487566,0.36007783,39.125,8e-05,-389,2350,4597,0
58421725,0,131618,0.17071478,-0.09503523,0.36492902,39.125,8e-05,-387,2283,4666,0
58531768,0,131618,0.17216991,-0.09351935,0.36485872,39.125,8e-05,-406,2301,4665,0
58631750,0,131618,0.17111897,-0.09439697,0.3688662,39.125,8e-05,-395,2288,4722,0
58731741,0,131618,0.16950215,-0.09463631,0.36521026,39.125,8e-05,-392,2268,4670,0
58831768,0,131618,0.17128067,-0.09503523,0.3688662,39.25,8e-05,-387,2290,4722,0
58931774,0,131618,0.17402926,-0.0975883,0.3627495,39.25,8e-05,-355,2324,4635,0
59031738,0,131618,0.1727358,-0.09328,0.3659133,39.375,8e-05,-409,2308,4680,0
59141760,0,131618,0.17483766,-0.09655111,0.36218703,39.25,8e-05,-368,2334,4627,0
59241725,0,131618,0.16917878,-0.09455654,0.36816314,39.25,8e-05,-393,2264,4712,0
59341725,0,131618,0.1743526,-0.09415762,0.36028874,39.25,8e-05,-398,2328,4600,0
59441725,0,131618,0.17168486,-0.09647133,0.36471808,39.25,8e-05,-369,2295,4663,0
59541763,0,131618,0.17338252,-0.09583306,0.3609215,39.25,8e-05,-377,2316,4609,0
59651731,0,131618,0.17039141,-0.09607242,0.3664055,39.125,8e-05,-374,2279,4687,0
59751731,0,131618,0.17443345,-0.0966309,0.3606403,39.25,8e-05,-367,2329,4605,0
59851752,0,131618,0.17241243,-0.09272152,0.36598364,39.375,8e-05,-416,2304,4681,0
59951731,0,131618,0.17249326,-0.09934353,0.36310104,39.25,8e-05,-333,2305,4640,0
60051769,0,131618,0.1745143,-0.09399805,0.36155427,39.25,8e-05,-400,2330,4618,0
60151766,0,131618,0.17144234,-0.09415762,0.3668976,39.125,8e-05,-398,2292,4694,0
60251783,0,131618,0.17532271,-0.09575328,0.35937473,39.375,8e-05,-378,2340,4587,0
60361726,0,131618,0.1727358,-0.09583306,0.36197612,39.375,8e-05,-377,2308,4624,0
60461725,0,131618,0.1735442,-0.09822656,0.36310104,39.125,8e-05,-347,2318,4640,0
60561725,0,131618,0.17144234,-0.09431718,0.36155427,39.25,8e-05,-396,2292,4618,0
60661725,0,131618,0.17580774,-0.0966309,0.3608512,39.25,8e-05,-367,2346,4608,0
60761725,0,131618,0.17532271,-0.09455654,0.36049965,39.375,8e-05,-393,2340,4603,0
60871777,0,131618,0.17499934,-0.09766808,0.36021844,39.125,8e-05,-354,2336,4599,0
60971761,0,131618,0.17055309,-0.09367892,0.36598364,39.125,8e-05,-404,2281,4681,0
61071751,0,131618,0.17103812,-0.09535437,0.36724916,39.375,8e-05,-383,2287,4699,0
61171731,0,131618,0.16974467,-0.09455654,0.36724916,39.25,8e-05,-393,2271,4699,0
61271732,0,131618,0.17119981,-0.0942374,0.3687256,39.375,8e-05,-397,2289,4720,0
61371732,0,131618,0.1735442,-0.09479588,0.35986692,39.375,8e-05,-390,2318,4594,0
61481763,0,131618,0.16925964,-0.09312043,0.3659133,39.25,8e-05,-411,2265,4680,0
61581725,0,131618,0.17378671,-0.0966309,0.36253858,39.125,8e-05,-367,2321,4632,0
61681741,0,131618,0.17128067,-0.092960864,0.36746007,39.5,8e-05,-413,2290,4702,0
61781725,0,131618,0.17540355,-0.09455654,0.35972628,39.375,8e-05,-393,2341,4592,0
61891768,0,131618,0.17216991,-0.09343957,0.36717886,39.25,8e-05,-407,2301,4698,0
61991731,0,131618,0.17047223,-0.09511502,0.36675698,39.25,8e-05,-386,2280,4692,0
62091734,0,131618,0.17031056,-0.09487566,0.3677413,39.25,8e-05,-389,2278,4706,0
62191731,0,131618,0.17055309,-0.09455654,0.3668273,39.25,8e-05,-393,2281,4693,0
62291807,0,131618,0.17168486,-0.0942374,0.36703822,39.375,8e-05,-397,2295,4696,0
62391769,0,131618,0.17459515,-0.09687025,0.36197612,39.25,8e-05,-364,2331,4624,0
62491731,0,131618,0.17071478,-0.09328,0.36619455,39.25,8e-05,-409,2283,4684,0
62601725,0,131618,0.17136149,-0.0937587,0.36753038,39.375,8e-05,-403,2291,4703,0
62701725,0,131618,0.1707956,-0.09288108,0.368585,39.25,8e-05,-414,2284,4718,0
62801725,0,131618,0.17192738,-0.092960864,0.3668273,39.25,8e-05,-413,2298,4693,0
62901725,0,131618,0.17281663,-0.0937587,0.3668976,39.375,8e-05,-403,2309,4694,0
63001725,0,131618,0.17144234,-0.09399805,0.36521026,39.25,8e-05,-400,2292,4670,0
63101759,0,131618,0.17168486,-0.0951948,0.36675698,39.375,8e-05,-385,2295,4692,0
63211734,0,131618,0.17257412,-0.09447675,0.36148396,39.375,8e-05,-394,2306,4617,0
63311731,0,131618,0.17241243,-0.09343957,0.36450717,39.375,8e-05,-407,2304,4660,0
63411732,0,131618,0.17305915,-0.0942374,0.3627495,39.375,8e-05,-397,2312,4635,0
63511748,0,131618,0.17087646,-0.09599263,0.3657024,39.375,8e-05,-375,2285,4677,0
63611770,0,131618,0.1739484,-0.09647133,0.36127305,39.25,8e-05,-369,2323,4614,0
63711777,0,131618,0.17225075,-0.09431718,0.36528054,39.25,8e-05,-396,2302,4671,0
63811769,0,131618,0.17055309,-0.0913652,0.36675698,39.25,8e-05,-433,2281,4692,0
63921725,0,131618,0.17225075,-0.096391544,0.36654606,39.375,8e-05,-370,2302,4689,0
64021725,0,131618,0.17249326,-0.0937587,0.3668976,39.375,8e-05,-403,2305,4694,0
64121725,0,131618,0.17087646,-0.09256195,0.36605394,39.375,8e-05,-418,2285,4682,0
64221725,0,131618,0.17208907,-0.093918264,0.368585,39.25,8e-05,-401,2300,4718,0
64321725,0,131618,0.17499934,-0.09607242,0.3607809,39.25,8e-05,-374,2336,4607,0
64421725,0,131618,0.17249326,-0.09551393,0.36647576,39.375,8e-05,-381,2305,4688,0
64521741,0,131618,0.1717657,-0.09415762,0.3676007,39.375,8e-05,-398,2296,4704,0
64631731,0,131618,0.1707956,-0.09655111,0.36513993,39.25,8e-05,-368,2284,4669,0
64731731,0,131618,0.17297831,-0.09559371,0.36253858,39.25,8e-05,-380,2311,4632,0
64831772,0,131618,0.17370589,-0.09559371,0.3611324,39.25,8e-05,-380,2320,4612,0
64931746,0,131618,0.1699872,-0.0937587,0.36696792,39.25,8e-05,-403,2274,4695,0
65031734,0,131618,0.17580774,-0.09351935,0.36260885,39.25,8e-05,-406,2346,4633,0
65131734,0,131618,0.17402926,-0.09543415,0.36056995,39.25,8e-05,-382,2324,4604,0
65241756,0,131618,0.17136149,-0.09351935,0.3668976,39.25,8e-05,-406,2291,4694,0
65341725,0,131618,0.17168486,-0.09591285,0.36556175,39.375,8e-05,-376,2295,4675,0
65441761,0,131618,0.17629279,-0.09487566,0.36141363,39.5,8e-05,-389,2352,4616,0
65541725,0,131618,0.17200823,-0.09527459,0.36696792,39.25,8e-05,-384,2299,4695,0
65641725,0,131618,0.17119981,-0.09280131,0.36788192,39.375,8e-05,-415,2289,4708,0
65741725,0,131618,0.17128067,-0.09272152,0.36738977,39.375,8e-05,-416,2290,4701,0
65841725,0,131618,0.17281663,-0.09487566,0.36626485,39.375,8e-05,-389,2309,4685,0
65951758,0,131618,0.17475682,-0.09383848,0.3607809,39.375,8e-05,-402,2333,4607,0
66051732,0,131618,0.17362504,-0.09415762,0.365843,39.375,8e-05,-398,2319,4679,0
66151739,0,131618,0.17475682,-0.09671068,0.36021844,39.375,8e-05,-366,2333,4599,0
66251738,0,131618,0.17370589,-0.09479588,0.36056995,39.125,8e-05,-390,2320,4604,0
66351745,0,131618,0.17144234,-0.09463631,0.36612424,39.625,8e-05,-392,2292,4683,0
66451731,0,131618,0.17208907,-0.09655111,0.3666867,39.375,8e-05,-368,2300,4691,0
66551754,0,131618,0.17330168,-0.09543415,0.3606403,39.375,8e-05,-382,2315,4605,0
66661765,0,131618,0.17200823,-0.09591285,0.3666867,39.375,8e-05,-376,2299,4691,0
66761725,0,131618,0.17233159,-0.09591285,0.36436656,39.375,8e-05,-376,2303,4658,0
66861725,0,131618,0.17063393,-0.092960864,0.36717886,39.375,8e-05,-413,2282,4698,0
66961725,0,131618,0.17378671,-0.09551393,0.3600075,39.375,8e-05,-381,2321,4596,0
67061726,0,131618,0.1735442,-0.09503523,0.3609215,39.375,8e-05,-387,2318,4609,0
67161725,0,131618,0.17346337,-0.09288108,0.36127305,39.375,8e-05,-414,2317,4614,0
67271734,0,131618,0.17289747,-0.0961522,0.36654606,39.375,8e-05,-373,2310,4689,0
67371766,0,131618,0.1745143,-0.09671068,0.3618355,39.375,8e-05,-366,2330,4622,0
67471731,0,131618,0.17475682,-0.09631176,0.36134335,39.375,8e-05,-371,2333,4615,0
67571732,0,131618,0.17257412,-0.09288108,0.36345258,39.375,8e-05,-414,2306,4645,0
67671731,0,131618,0.16990635,-0.09487566,0.36844438,39.375,8e-05,-389,2273,4716,0
67771768,0,131618,0.17022972,-0.09447675,0.3656321,39.375,8e-05,-394,2277,4676,0
67871747,0,131618,0.17322084,-0.09367892,0.3618355,39.25,8e-05,-404,2314,4622,0
67981766,0,131618,0.17152318,-0.09335978,0.36802253,39.375,8e-05,-408,2293,4710,0
68081734,0,131618,0.1699872,-0.0951948,0.3668273,39.375,8e-05,-385,2274,4693,0
68181727,0,131618,0.17047223,-0.096391544,0.36738977,39.375,8e-05,-370,2280,4701,0
68991739,0,131618,0.17128067,-0.09399805,0.36612424,39.375,8e-05,-400,2290,4683,0
69101725,0,131618,0.16837038,-0.0937587,0.3679522,39.5,8e-05,-403,2254,4709,0
69201725,0,131618,0.17047223,-0.09447675,0.36696792,39.375,8e-05,-394,2280,4695,0
69301726,0,131618,0.17225075,-0.0937587,0.3676007,39.375,8e-05,-403,2302,4704,0
69401758,0,131618,0.17427178,-0.09463631,0.36605394,39.375,8e-05,-392,2327,4682,0
69511780,0,131618,0.1707956,-0.09687025,0.36605394,39.375,8e-05,-364,2284,4682,0
69611732,0,131618,0.17022972,-0.09383848,0.36731946,39.375,8e-05,-402,2277,4700,0
69711732,0,131618,0.17402926,-0.09766808,0.36028874,39.5,8e-05,-354,2324,4600,0
69811731,0,131618,0.17208907,-0.09351935,0.3676007,39.375,8e-05,-406,2300,4704,0
69911781,0,131618,0.17144234,-0.09647133,0.36134335,39.375,8e-05,-369,2292,4615,0
70011732,0,131618,0.17152318,-0.09312043,0.3657727,39.375,8e-05,-411,2293,4678,0
70111754,0,131618,0.1707956,-0.09607242,0.36450717,39.375,8e-05,-374,2284,4660,0
70221729,0,131618,0.17006804,-0.088572785,0.3611324,39.375,8e-05,-468,2275,4612,0
70321725,0,131618,0.16982552,-0.09152477,0.35740614,39.375,8e-05,-431,2272,4559,0
70421726,0,131618,0.16828953,-0.09008867,0.3616246,39.375,8e-05,-449,2253,4619,0
70521779,0,131618,0.17128067,-0.09224282,0.35944507,39.375,8e-05,-422,2290,4588,0
70631734,0,131618,0.16707693,-0.09280131,0.3560703,39.375,8e-05,-415,2238,4540,0
70731767,0,131618,0.1745143,-0.09112586,0.33898565,39.375,8e-05,-436,2330,4297,0
70831738,0,131618,0.17111897,-0.08905149,0.34144643,39.375,8e-05,-462,2288,4332,0
70931763,0,131618,0.16942132,-0.09056737,0.34081367,39.375,8e-05,-443,2267,4323,0
71031732,0,131618,0.17370589,-0.087774955,0.33090034,39.375,8e-05,-478,2320,4182,0
71131768,0,131618,0.17119981,-0.088732354,0.33877474,39.375,8e-05,-466,2289,4294,0
71231731,0,131618,0.17912222,-0.08729626,0.3254867,39.375,8e-05,-484,2387,4105,0
71341765,0,131618,0.17920308,-0.08418471,0.26537403,39.375,8e-05,-523,2388,3250,0
71441725,0,131618,0.17200823,-0.082828395,0.30875358,39.375,8e-05,-540,2299,3867,0
71541725,0,131618,0.1780713,-0.070142865,0.3079099,39.375,8e-05,-699,2374,3855,0
71641725,0,131618,0.18009233,-0.067749366,0.31831536,39.5,8e-05,-729,2399,4003,0
71741761,0,131618,0.18591288,-0.06583457,0.3275959,39.375,8e-05,-753,2471,4135,0
71841732,0,131618,0.17645448,-0.065515436,0.34475085,39.375,8e-05,-757,2354,4379,0
71941725,0,131618,0.19213763,-0.072456576,0.110557646,39.375,8e-05,-670,2548,1048,0
72051732,0,131618,0.17758626,-0.065914355,0.3394778,39.375,8e-05,-752,2368,4304,0
72151732,0,131618,0.18179,-0.066712186,0.32302594,39.375,8e-05,-742,2420,4070,0
72251762,0,131618,0.18138579,-0.060010392,0.2999652,39.375,8e-05,-826,2415,3742,0
72351742,0,131618,0.18090074,-0.06320172,0.2785918,39.5,8e-05,-786,2409,3438,0
72451749,0,131618,0.18001148,-0.06535587,0.307699,39.5,8e-05,-759,2398,3852,0
72551768,0,131618,0.17661616,-0.075169206,0.30537882,39.375,8e-05,-636,2356,3819,0
72661725,0,131618,0.17039141,-0.07373311,0.356914,39.25,8e-05,-654,2279,4552,0
72761725,0,131618,0.17006804,-0.09152477,0.32436177,39.5,8e-05,-431,2275,4089,0
72861725,0,131618,0.17314,-0.09846591,0.3441181,39.375,8e-05,-344,2313,4370,0
72961725,0,131618,0.17119981,-0.09096629,0.35382047,39.5,8e-05,-438,2289,4508,0
73061754,0,131618,0.17928392,-0.093918264,0.34067303,39.375,8e-05,-401,2389,4321,0
73161757,0,131618,0.17839466,-0.08905149,0.32105735,39.5,8e-05,-462,2378,4042,0
73261725,0,131618,0.18308344,-0.086259075,0.28892696,39.375,8e-05,-497,2436,3585,0
73371762,0,131618,0.17960729,-0.083945364,0.2915283,39.375,8e-05,-526,2393,3622,0
73471738,0,131618,0.17968811,-0.07102048,0.3010901,39.5,8e-05,-688,2394,3758,0
73571770,0,131618,0.17726289,-0.06479739,0.31747168,39.375,8e-05,-766,2364,3991,0
73671732,0,131618,0.18154748,-0.067988716,0.30938634,39.5,8e-05,-726,2417,3876,0
73771741,0,131618,0.17039141,-0.06631327,0.2873802,39.375,8e-05,-747,2279,3563,0
73871773,0,131618,0.17548439,-0.06703132,0.3147297,39.375,8e-05,-738,2342,3952,0
73971762,0,131618,0.17330168,-0.073413976,0.32921296,39.375,8e-05,-658,2315,4158,0
74081725,0,131618,0.17920308,-0.077881835,0.31030035,39.5,8e-05,-602,2388,3889,0
74181725,0,131618,0.17653532,-0.070382215,0.34046212,39.375,8e-05,-696,2355,4318,0
74281751,0,131618,0.16869375,-0.07102048,0.32014334,39.5,8e-05,-688,2258,4029,0
74381725,0,131618,0.18009233,-0.067988716,0.3060116,39.375,8e-05,-726,2399,3828,0
74481725,0,131618,0.17443345,-0.071658745,0.32640067,39.5,8e-05,-680,2329,4118,0
74581737,0,131618,0.18122411,-0.072137445,0.2965201,39.5,8e-05,-674,2413,3693,0
74691762,0,131618,0.17863719,-0.07054178,0.32211193,39.375,8e-05,-694,2381,4057,0
74791765,0,131618,0.17637363,-0.072217226,0.3117768,39.375,8e-05,-673,2353,3910,0
74891802,0,131618,0.16966383,-0.074451156,0.33940753,39.625,8e-05,-645,2270,4303,0
74991762,0,131618,0.17192738,-0.075568125,0.3392669,39.5,8e-05,-631,2298,4301,0
75091762,0,131618,0.18106242,-0.07716379,0.3148,39.5,8e-05,-611,2411,3953,0
75191734,0,131618,0.17467597,-0.073334195,0.32133856,39.5,8e-05,-659,2332,4046,0
75291744,0,131618,0.17508018,-0.074451156,0.32154948,39.375,8e-05,-645,2337,4049,0
75401725,0,131618,0.17758626,-0.073972456,0.32232285,39.375,8e-05,-651,2368,4060,0
75501725,0,131618,0.16845122,-0.077881835,0.3178232,39.375,8e-05,-602,2255,3996,0
75601725,0,131618,0.17556523,-0.071180046,0.31233925,39.5,8e-05,-686,2343,3918,0
75701725,0,131618,0.17540355,-0.072057664,0.32822865,39.5,8e-05,-675,2341,4144,0
75811749,0,131618,0.18057737,-0.06735045,0.2963092,39.375,8e-05,-734,2405,3690,0
75911741,0,131618,0.17216991,-0.06431869,0.31142524,39.5,8e-05,-772,2301,3905,0
76011738,0,131618,0.1824367,-0.06439847,0.31852627,39.5,8e-05,-771,2428,4006,0
76111762,0,131618,0.18389185,-0.055382963,0.30805048,39.5,8e-05,-884,2446,3857,0
76211762,0,131618,0.19512875,-0.054984048,0.28892696,39.375,8e-05,-889,2585,3585,0
76311762,0,131618,0.19100587,-0.055542532,0.30551946,39.5,8e-05,-882,2534,3821,0
76411762,0,131618,0.1952096,-0.055223394,0.30256656,39.375,8e-05,-886,2586,3779,0
76521725,0,131618,0.19537129,-0.05155337,0.30137134,39.5,8e-05,-932,2588,3762,0
76621725,0,131618,0.19262269,-0.04525049,0.30573037,39.375,8e-05,-1011,2554,3824,0
76721734,0,131618,0.19747314,-0.045090925,0.28906757,39.5,8e-05,-1013,2614,3587,0
76821725,0,131618,0.19132923,-0.04844182,0.301301,39.375,8e-05,-971,2538,3761,0
76921725,0,131618,0.1839727,-0.048282254,0.31838566,39.5,8e-05,-973,2447,4004,0
77021725,0,131618,0.19423951,-0.049718354,0.2965201,39.5,8e-05,-955,2574,3693,0
77131769,0,131618,0.20887172,-0.040862415,0.28302115,39.5,8e-05,-1066,2755,3501,0
77231773,0,131618,0.21202452,-0.04844182,0.30031672,39.5,8e-05,-971,2794,3747,0
77331747,0,131618,0.22649507,-0.048042905,0.27809963,39.5,8e-05,-976,2973,3431,0
77431774,0,131618,0.22592919,-0.050835315,0.29377815,39.375,8e-05,-941,2966,3654,0
77531762,0,131618,0.22956704,-0.049239654,0.27521706,39.375,8e-05,-961,3011,3390,0
77631764,0,131618,0.21194369,-0.0628028,0.30812082,39.375,8e-05,-791,2793,3858,0
77731763,0,131618,0.19254184,-0.056420144,0.30812082,39.5,8e-05,-871,2553,3858,0
77841725,0,131618,0.19278437,-0.05450535,0.2999652,39.375,8e-05,-895,2556,3742,0
77941736,0,131618,0.1879339,-0.060888007,0.30137134,39.375,8e-05,-815,2496,3762,0
78041760,0,131618,0.18866147,-0.07477029,0.27135015,39.5,8e-05,-641,2505,3335,0
78141736,0,131618,0.18041569,-0.10006158,0.31058156,39.375,8e-05,-324,2403,3893,0
78241725,0,131618,0.19213763,-0.12096479,0.269944,39.5,8e-05,-62,2548,3315,0
78341725,0,131618,0.18300259,-0.12160305,0.31037065,39.5,8e-05,-54,2435,3890,0
78441725,0,131618,0.16675356,-0.08410493,0.28372422,39.5,8e-05,-524,2234,3511,0
78551732,0,131618,0.18138579,-0.073413976,0.307699,39.5,8e-05,-658,2415,3852,0
78651762,0,131618,0.18041569,-0.06527608,0.3069959,39.5,8e-05,-760,2403,3842,0
78751733,0,131618,0.18332596,-0.060888007,0.31318292,39.5,8e-05,-815,2439,3930,0
78851752,0,131618,0.19359277,-0.055223394,0.28716928,39.5,8e-05,-886,2566,3560,0
78951770,0,131618,0.21242872,-0.06439847,0.29195017,39.5,8e-05,-771,2799,3628,0
79051763,0,131618,0.20968014,-0.062244322,0.29539523,39.5,8e-05,-798,2765,3677,0
79151759,0,131618,0.21687499,-0.05873386,0.29251263,39.5,8e-05,-842,2854,3636,0
79261754,0,131618,0.22916283,-0.06192519,0.25665596,39.5,8e-05,-802,3006,3126,0
79361725,0,131618,0.215339,-0.057616893,0.2933563,39.5,8e-05,-856,2835,3648,0
79461725,0,131618,0.19116755,-0.061685838,0.29588735,39.5,8e-05,-805,2536,3684,0
79561774,0,131618,0.17710121,-0.089689754,0.2883645,39.5,8e-05,-454,2362,3577,0
79661726,0,131618,0.17952645,-0.12248067,0.30636314,39.5,8e-05,-43,2392,3833,0
79771762,0,131618,0.16837038,-0.1428254,0.290544,39.375,8e-05,212,2254,3608,0
79871770,0,131618,0.1593162,-0.15798421,0.28745052,39.5,8e-05,402,2142,3564,0
79971730,0,131618,0.1739484,-0.15870225,0.28456792,39.5,8e-05,411,2323,3523,0
80071763,0,131618,0.17467597,-0.1494474,0.2688894,39.5,8e-05,295,2332,3300,0
80171760,0,131618,0.1798498,-0.15216003,0.27113923,39.625,8e-05,329,2396,3332,0
80271738,0,131618,0.1727358,-0.15024523,0.2736703,39.5,8e-05,305,2308,3368,0
80381725,0,131618,0.17734374,-0.15064415,0.26565528,39.5,8e-05,310,2365,3254,0
80481725,0,131618,0.18146662,-0.14529867,0.27922457,39.625,8e-05,243,2416,3447,0
80581762,0,131618,0.18324512,-0.14258604,0.2854116,39.375,8e-05,209,2438,3535,0
80681725,0,131618,0.17871803,-0.114263,0.29490307,39.625,8e-05,-146,2382,3670,0
80781725,0,131618,0.18308344,-0.07828075,0.2806307,39.5,8e-05,-597,2436,3467,0
81091763,0,131618,0.17782877,-0.05354795,0.29307508,39.5,8e-05,-907,2371,3644,0
81191799,0,131618,0.18809558,-0.05578188,0.28407577,39.5,8e-05,-879,2498,3516,0
81291762,0,131618,0.18195167,-0.055143613,0.29173923,39.5,8e-05,-887,2422,3625,0
81391769,0,131618,0.18300259,-0.05306925,0.30376178,39.625,8e-05,-913,2435,3796,0
81491762,0,131618,0.18720633,-0.055223394,0.2824587,39.5,8e-05,-886,2487,3493,0
81601725,0,131618,0.18219419,-0.053627733,0.29251263,39.625,8e-05,-906,2425,3636,0
81701758,0,131618,0.18421522,-0.061685838,0.32386962,39.625,8e-05,-805,2450,4082,0
81801738,0,131618,0.18841895,-0.055223394,0.28520066,39.5,8e-05,-886,2502,3532,0
81901725,0,131618,0.17968811,-0.053627733,0.28984097,39.5,8e-05,-906,2394,3598,0
82001725,0,131618,0.18550867,-0.058654074,0.28730989,39.5,8e-05,-843,2466,3562,0
82111734,0,131618,0.18114325,-0.056420144,0.28963003,39.625,8e-05,-871,2412,3595,0
82211763,0,131618,0.18130493,-0.057696678,0.31135494,39.5,8e-05,-855,2414,3904,0
82311756,0,131618,0.18356849,-0.054265995,0.293286,39.625,8e-05,-898,2442,3647,0
82411738,0,131618,0.19213763,-0.0504364,0.24857065,39.5,8e-05,-946,2548,3011,0
82511744,0,131618,0.18696381,-0.035038237,0.2716314,39.625,8e-05,-1139,2484,3339,0
82611727,0,131618,0.18874232,-0.020996384,0.29687166,39.5,8e-05,-1315,2506,3698,0
82721725,0,131618,0.19795819,0.001901405,0.27908394,39.5,8e-05,-1602,2620,3445,0
82821725,0,131618,0.1934311,0.013071059,0.30031672,39.625,8e-05,-1742,2564,3747,0
82921725,0,131618,0.18930821,0.023921581,0.30144164,39.375,8e-05,-1878,2513,3763,0
83021725,0,131618,0.18946989,0.027033126,0.29180956,39.625,8e-05,-1917,2515,3626,0
83121741,0,131618,0.19787735,0.026713993,0.28716928,39.625,8e-05,-1913,2619,3560,0
83231762,0,131618,0.18421522,0.040356927,0.30854267,39.625,8e-05,-2084,2450,3864,0
83331735,0,131618,0.18381101,0.05072875,0.26221022,39.625,8e-05,-2214,2445,3205,0
84441725,0,131618,0.13352789,0.1491015,0.2903331,39.625,8e-05,-3447,1823,3605,0
84551763,0,131618,0.134498,0.15149498,0.28590375,39.625,8e-05,-3477,1835,3542,0
84651763,0,131618,0.1268181,0.14942062,0.30010578,39.625,8e-05,-3451,1740,3744,0
84751762,0,131618,0.12277605,0.1509365,0.28913787,39.625,8e-05,-3470,1690,3588,0
84851762,0,131618,0.1142069,0.16625488,0.30087918,39.5,8e-05,-3662,1584,3755,0
84951764,0,131618,0.11145831,0.17152058,0.28428668,39.5,8e-05,-3728,1550,3519,0
85051762,0,131618,0.10313168,0.17064296,0.30073857,39.5,8e-05,-3717,1447,3753,0
85151758,0,131618,0.09205646,0.17527038,0.30481637,39.5,8e-05,-3775,1310,3811,0
85261758,0,131618,0.10046393,0.18731765,0.28660682,39.625,8e-05,-3926,1414,3552,0
85361725,0,131618,0.09876627,0.18300936,0.27894336,39.625,8e-05,-3872,1393,3443,0
85461725,0,131618,0.09440085,0.17838193,0.2953249,39.625,8e-05,-3814,1339,3676,0
85561725,0,131618,0.09213731,0.18085521,0.29891056,39.625,8e-05,-3845,1311,3727,0
85661725,0,131618,0.09237982,0.18029673,0.3051679,39.5,8e-05,-3838,1314,3816,0
85761725,0,131618,0.09739197,0.17080253,0.2885051,39.625,8e-05,-3719,1376,3579,0
85861725,0,131618,0.09698776,0.20989631,0.25215632,39.5,8e-05,-4209,1371,3062,0
85971749,0,131618,0.09512842,0.2663031,0.24343821,39.625,8e-05,-4916,1348,2938,0
86071762,0,131618,0.10070645,0.28313732,0.24343821,39.5,8e-05,-5127,1417,2938,0
86171762,0,131618,0.09407749,0.29007846,0.2442116,39.625,8e-05,-5214,1335,2949,0
86271745,0,131618,0.09302655,0.29582286,0.2373215,39.625,8e-05,-5286,1322,2851,0
86371769,0,131618,0.102646634,0.28497237,0.24962525,39.625,8e-05,-5150,1441,3026,0
86471781,0,131618,0.114287734,0.2261721,0.21264367,39.625,8e-05,-4413,1585,2500,0
86571762,0,131618,0.10102981,0.19872667,0.29497337,39.75,8e-05,-4069,1421,3671,0
86681733,0,131618,0.09318823,0.18324871,0.30312902,39.75,8e-05,-3875,1324,3787,0
86781725,0,131618,0.09771533,0.17830215,0.30059797,39.75,8e-05,-3813,1380,3751,0
86881762,0,131618,0.10240411,0.17925955,0.29680136,39.75,8e-05,-3825,1438,3697,0
86981725,0,131618,0.08882282,0.1785415,0.28913787,39.625,8e-05,-3816,1270,3588,0
87091751,0,131618,0.09900878,0.17925955,0.2883645,39.625,8e-05,-3825,1396,3577,0
87191771,0,131618,0.10369757,0.17550975,0.29293445,39.625,8e-05,-3778,1454,3642,0
87291773,0,131618,0.1047485,0.17790323,0.290544,39.5,8e-05,-3808,1467,3608,0
87391737,0,131618,0.09367328,0.17894042,0.2883645,39.625,8e-05,-3821,1330,3577,0
87491799,0,131618,0.09868543,0.17774366,0.2823884,39.625,8e-05,-3806,1392,3492,0
87591762,0,131618,0.10361672,0.17527038,0.29497337,39.625,8e-05,-3775,1453,3671,0
87691765,0,131618,0.09989804,0.17846173,0.2935672,39.625,8e-05,-3815,1407,3651,0
87801725,0,131618,0.103859246,0.17152058,0.31135494,39.625,8e-05,-3728,1456,3904,0
87901725,0,131618,0.09989804,0.17391407,0.2863256,39.625,8e-05,-3758,1407,3548,0
88001725,0,131618,0.10717373,0.17558952,0.3029181,39.625,8e-05,-3779,1497,3784,0
88101725,0,131618,0.103374206,0.17989783,0.29216108,39.625,8e-05,-3833,1450,3631,0
88201725,0,131618,0.10450598,0.17407365,0.2943406,39.625,8e-05,-3760,1464,3662,0
88301725,0,131618,0.10369757,0.17207906,0.33005664,39.5,8e-05,-3735,1454,4170,0
88411768,0,131618,0.108790554,0.17750432,0.31810442,39.625,8e-05,-3803,1517,4000,0
88511762,0,131618,0.10984148,0.1818924,0.2803495,39.75,8e-05,-3858,1530,3463,0
88611762,0,131618,0.100059725,0.17503104,0.29862934,39.5,8e-05,-3772,1409,3723,0
88711763,0,131618,0.09828122,0.18261045,0.2830915,39.5,8e-05,-3867,1387,3502,0
88811751,0,131618,0.10685037,0.18101478,0.28920817,39.5,8e-05,-3847,1493,3589,0
88911770,0,131618,0.10523355,0.17830215,0.29750443,39.75,8e-05,-3813,1473,3707,0
89011763,0,131618,0.10660785,0.17503104,0.2844273,39.75,8e-05,-3772,1490,3521,0
89121725,0,131618,0.10208075,0.17303647,0.30755836,39.625,8e-05,-3747,1434,3850,0
89221725,0,131618,0.10531439,0.17590865,0.28702864,39.625,8e-05,-3783,1474,3558,0
89321726,0,131618,0.10442513,0.1785415,0.27795905,39.625,8e-05,-3816,1463,3429,0
89421765,0,131618,0.10070645,0.17375451,0.29286417,39.625,8e-05,-3756,1417,3641,0
89521738,0,131618,0.107982144,0.17790323,0.28787234,39.625,8e-05,-3808,1507,3570,0
89621725,0,131618,0.110973254,0.18037651,0.26235086,39.625,8e-05,-3839,1544,3207,0
89731762,0,131618,0.109194756,0.2228212,0.27149078,39.75,8e-05,-4371,1522,3337,0
89831763,0,131618,0.1047485,0.25984064,0.23204844,39.625,8e-05,-4835,1467,2776,0
89931762,0,131618,0.107577935,0.28952,0.22902524,39.75,8e-05,-5207,1502,2733,0
90031742,0,131618,0.109194756,0.3018864,0.2021679,39.75,8e-05,-5362,1522,2351,0
90131742,0,131618,0.10733541,0.31305602,0.20990169,39.625,8e-05,-5502,1499,2461,0
90241758,0,131618,0.105961114,0.30459902,0.20933923,39.75,8e-05,-5396,1482,2453,0
90341725,0,131618,0.1015957,0.27563772,0.25932765,39.75,8e-05,-5033,1428,3164,0
90441726,0,131618,0.112024195,0.21276852,0.26256177,39.625,8e-05,-4245,1557,3210,0
90541773,0,131618,0.115338676,0.18931223,0.25686687,39.625,8e-05,-3951,1598,3129,0
90641760,0,131618,0.11032653,0.18277001,0.2846382,39.625,8e-05,-3869,1536,3524,0
90741725,0,131618,0.11590456,0.162904,0.2736,39.625,8e-05,-3620,1605,3367,0
90851799,0,131618,0.10806298,0.118624285,0.315714,39.75,8e-05,-3065,1508,3966,0
90951753,0,131618,0.10353589,0.112161845,0.32893175,39.625,8e-05,-2984,1452,4154,0
91051762,0,131618,0.11339849,0.12388998,0.32309625,39.5,8e-05,-3131,1574,4071,0
91151763,0,131618,0.11630876,0.15891482,0.28955972,39.75,8e-05,-3570,1610,3594,0
91251763,0,131618,0.107982144,0.162904,0.29961365,39.625,8e-05,-3620,1507,3737,0
91361725,0,131618,0.10660785,0.1742332,0.29272354,39.625,8e-05,-3762,1490,3639,0
91461725,0,131618,0.105476074,0.1762278,0.315714,39.75,8e-05,-3787,1476,3966,0
91561725,0,131618,0.106203645,0.17463213,0.29968396,39.625,8e-05,-3767,1485,3738,0
91661725,0,131618,0.10733541,0.17399386,0.2826696,39.625,8e-05,-3759,1499,3496,0
91761725,0,131618,0.109518126,0.17463213,0.3069256,39.625,8e-05,-3767,1526,3841,0
91861725,0,131618,0.107577935,0.17503104,0.2883645,39.75,8e-05,-3772,1502,3577,0
91971762,0,131618,0.106527,0.17582887,0.28379452,39.75,8e-05,-3782,1489,3512,0
92071764,0,131618,0.10491018,0.17638735,0.29370785,39.75,8e-05,-3789,1469,3653,0
92171731,0,131618,0.116147086,0.17375451,0.30650377,39.75,8e-05,-3756,1608,3835,0
92271763,0,131618,0.13732743,0.1728769,0.27936518,39.75,8e-05,-3745,1870,3449,0
92371773,0,131618,0.16699608,0.17247798,0.2513126,39.75,8e-05,-3740,2237,3050,0
92481725,0,131618,0.17402926,0.17439277,0.2561638,39.75,8e-05,-3764,2324,3119,0
92581725,0,131618,0.18219419,0.174313,0.27423275,39.5,8e-05,-3763,2425,3376,0
92681726,0,131618,0.16246898,0.17319603,0.27423275,39.5,8e-05,-3749,2181,3376,0
92781725,0,131618,0.12811156,0.17303647,0.31240955,39.625,8e-05,-3747,1756,3919,0
92881725,0,131618,0.11695549,0.1762278,0.29511398,39.5,8e-05,-3787,1618,3673,0
92981725,0,131618,0.11800643,0.1780628,0.27008462,39.75,8e-05,-3810,1631,3317,0
93091741,0,131618,0.111781664,0.17981803,0.28386483,39.75,8e-05,-3832,1554,3513,0
93191762,0,131618,0.10410178,0.17183971,0.2774669,39.75,8e-05,-3732,1459,3422,0
93291762,0,131618,0.086155064,0.1767065,0.30727714,39.75,8e-05,-3793,1237,3846,0
93391737,0,131618,0.07176537,0.16976534,0.31810442,39.5,8e-05,-3706,1059,4000,0
93491763,0,131618,0.08655927,0.17822237,0.2882942,39.75,8e-05,-3812,1242,3576,0
93601751,0,131618,0.09440085,0.17519061,0.2824587,39.625,8e-05,-3774,1339,3493,0
93701725,0,131618,0.11153915,0.1738343,0.2993324,39.75,8e-05,-3757,1551,3733,0
93801725,0,131618,0.11275176,0.17120144,0.2906143,39.75,8e-05,-3724,1566,3609,0
93901725,0,131618,0.10579943,0.1728769,0.2991918,39.75,8e-05,-3745,1480,3731,0
94001761,0,131618,0.10531439,0.17455234,0.28752083,39.625,8e-05,-3766,1474,3565,0
94101725,0,131618,0.10887139,0.17112167,0.2989809,39.625,8e-05,-3723,1518,3728,0
94211802,0,131618,0.10102981,0.17654693,0.2902628,39.75,8e-05,-3791,1421,3604,0
94311737,0,131618,0.11485363,0.17917977,0.28885666,39.75,8e-05,-3824,1592,3584,0
94411774,0,131618,0.11347933,0.17215885,0.2992621,39.75,8e-05,-3736,1575,3732,0
94511780,0,131618,0.10887139,0.1742332,0.29673105,39.625,8e-05,-3762,1518,3696,0
94611812,0,131618,0.10895223,0.17263754,0.30312902,39.625,8e-05,-3742,1519,3787,0
94721725,0,131618,0.11073074,0.18348806,0.28154472,39.75,8e-05,-3878,1541,3480,0
94821725,0,131618,0.110811576,0.17590865,0.2828805,39.625,8e-05,-3783,1542,3499,0
94921725,0,131618,0.11153915,0.1767065,0.28885666,39.75,8e-05,-3793,1551,3584,0
95021725,0,131618,0.1079013,0.18029673,0.29947302,39.75,8e-05,-3838,1506,3735,0
95121727,0,131618,0.10887139,0.17734475,0.2706471,39.75,8e-05,-3801,1518,3325,0
95221725,0,131618,0.11056905,0.17303647,0.29525462,39.75,8e-05,-3747,1539,3675,0
95321752,0,131618,0.10717373,0.17535017,0.3089645,39.875,8e-05,-3776,1497,3870,0
95431762,0,131618,0.108386345,0.1766267,0.2991918,39.625,8e-05,-3792,1512,3731,0
95531733,0,131618,0.108709715,0.17319603,0.29342663,39.75,8e-05,-3749,1516,3649,0
95631763,0,131618,0.1106499,0.1780628,0.26347578,39.75,8e-05,-3810,1540,3223,0
95731762,0,131618,0.109275594,0.17965846,0.27866212,39.75,8e-05,-3830,1523,3439,0
95831765,0,131618,0.11275176,0.17415342,0.26453036,39.75,8e-05,-3761,1566,3238,0
95931782,0,131618,0.105556905,0.1799776,0.28379452,39.75,8e-05,-3834,1477,3512,0
96031749,0,131618,0.11024568,0.17933933,0.26143685,39.625,8e-05,-3826,1535,3194,0
96141770,0,131618,0.108467184,0.17822237,0.285271,39.625,8e-05,-3812,1513,3533,0
96241725,0,131618,0.10773961,0.1742332,0.30741775,39.75,8e-05,-3762,1504,3848,0
96341725,0,131618,0.109194756,0.16896752,0.29384845,39.75,8e-05,-3696,1522,3655,0
96441725,0,131618,0.109518126,0.17894042,0.26129624,39.75,8e-05,-3821,1526,3192,0
96541762,0,131618,0.116632126,0.17335558,0.27599043,39.625,8e-05,-3751,1614,3401,0
96641725,0,131618,0.10741626,0.17606823,0.29764503,39.625,8e-05,-3785,1500,3709,0
96751792,0,131618,0.10959896,0.1767065,0.29412967,39.75,8e-05,-3793,1527,3659,0
96851762,0,131618,0.1155812,0.17375451,0.26073378,39.625,8e-05,-3756,1601,3184,0
96951763,0,131618,0.108467184,0.17598844,0.2657959,39.75,8e-05,-3784,1513,3256,0
97051763,0,131618,0.10806298,0.17535017,0.28864574,39.625,8e-05,-3776,1508,3581,0
97151802,0,131618,0.10458682,0.1785415,0.2853413,39.75,8e-05,-3816,1465,3534,0
97251739,0,131618,0.10733541,0.17455234,0.29504368,39.5,8e-05,-3766,1499,3672,0
97351766,0,131618,0.10765877,0.1780628,0.2935672,39.75,8e-05,-3810,1503,3651,0
97461747,0,131618,0.10442513,0.17726497,0.2833024,39.75,8e-05,-3800,1463,3505,0
97561725,0,131618,0.11089242,0.18213174,0.27908394,39.625,8e-05,-3861,1543,3445,0
97661728,0,131618,0.106688686,0.17694584,0.282529,39.625,8e-05,-3796,1491,3494,0
97761725,0,131618,0.10741626,0.17838193,0.28934878,39.875,8e-05,-3814,1500,3591,0
97861725,0,131618,0.10127234,0.18181263,0.2856225,39.75,8e-05,-3857,1424,3538,0
97971763,0,131618,0.10733541,0.17710541,0.2882942,39.875,8e-05,-3798,1499,3576,0
98071750,0,131618,0.10434429,0.18205197,0.29504368,39.75,8e-05,-3860,1462,3672,0
98171738,0,131618,0.1079013,0.18221153,0.3108628,39.75,8e-05,-3862,1506,3897,0
98271770,0,131618,0.103859246,0.18133391,0.2828805,39.875,8e-05,-3851,1456,3499,0
98371762,0,131618,0.10280832,0.18197218,0.28119317,39.75,8e-05,-3859,1443,3475,0
98471755,0,131618,0.10288915,0.18468481,0.28998154,39.75,8e-05,-3893,1444,3600,0
98581725,0,131618,0.105071865,0.17933933,0.28984097,39.625,8e-05,-3826,1471,3598,0
98681725,0,131618,0.106688686,0.17965846,0.30762866,39.625,8e-05,-3830,1491,3851,0
98781725,0,131618,0.11323681,0.18556243,0.28049007,39.75,8e-05,-3904,1572,3465,0
98881727,0,131618,0.10086813,0.1766267,0.29666075,39.75,8e-05,-3792,1419,3695,0
98981726,0,131618,0.10288915,0.18213174,0.28864574,39.875,8e-05,-3861,1444,3581,0
99091766,0,131618,0.105152704,0.18069565,0.27142048,39.875,8e-05,-3843,1472,3336,0
99191770,0,131618,0.09658356,0.1804563,0.2875911,39.75,8e-05,-3840,1366,3566,0
99291782,0,131618,0.10111065,0.17894042,0.28449762,39.75,8e-05,-3821,1422,3522,0
99391770,0,131618,0.09908963,0.18061587,0.29019248,39.75,8e-05,-3842,1397,3603,0
99491745,0,131618,0.103455044,0.17933933,0.28878632,39.75,8e-05,-3826,1451,3583,0
99591738,0,131618,0.11396438,0.17902021,0.26045254,39.75,8e-05,-3822,1581,3180,0
99701725,0,131618,0.10499102,0.18101478,0.28639588,39.75,8e-05,-3847,1470,3549,0
99801725,0,131618,0.101353176,0.18037651,0.28365391,39.75,8e-05,-3839,1425,3510,0
99901762,0,131618,0.098927945,0.17790323,0.29173923,39.75,8e-05,-3808,1395,3625,0
100001725,0,131618,0.1106499,0.18101478,0.26706144,39.75,8e-05,-3847,1540,3274,0
100101725,0,131618,0.10434429,0.174313,0.2774669,39.625,8e-05,-3763,1462,3422,0
100211734,0,131618,0.10491018,0.17925955,0.28126347,39.625,8e-05,-3825,1469,3476,0
100311739,0,131618,0.103859246,0.18149349,0.26642868,39.75,8e-05,-3853,1456,3265,0
100411762,0,131618,0.104182616,0.18013717,0.2737406,39.75,8e-05,-3836,1460,3369,0
100511798,0,131618,0.104182616,0.18221153,0.2906143,39.75,8e-05,-3862,1460,3609,0
100611765,0,131618,0.1002214,0.17909998,0.2826696,39.875,8e-05,-3823,1411,3496,0
100711771,0,131618,0.105476074,0.17909998,0.26832694,39.875,8e-05,-3823,1476,3292,0
100821725,0,131618,0.111700825,0.17957869,0.27929485,39.625,8e-05,-3829,1553,3448,0
100921725,0,131618,0.11444942,0.18173283,0.25496858,39.75,8e-05,-3856,1587,3102,0
101021737,0,131618,0.11727886,0.1794989,0.2552498,39.875,8e-05,-3828,1622,3106,0
101121725,0,131618,0.106203645,0.17973825,0.25067985,39.625,8e-05,-3831,1485,3041,0
101221725,0,131618,0.10701205,0.18157326,0.28070104,39.75,8e-05,-3854,1495,3468,0
101331762,0,131618,0.10943728,0.18197218,0.26952216,39.75,8e-05,-3859,1525,3309,0
101431725,0,131618,0.11040737,0.18261045,0.25764024,39.875,8e-05,-3867,1537,3140,0
101531763,0,131618,0.10604196,0.17989783,0.28203684,39.75,8e-05,-3833,1483,3487,0
101631746,0,131618,0.10717373,0.17814259,0.29975426,39.75,8e-05,-3811,1497,3739,0
101731749,0,131618,0.09941299,0.17838193,0.33547032,39.75,8e-05,-3814,1401,4247,0
101831738,0,131618,0.10862887,0.17646714,0.31754196,39.625,8e-05,-3790,1515,3992,0
101941725,0,131618,0.09860458,0.17830215,0.3149406,39.75,8e-05,-3813,1391,3955,0
102041725,0,131618,0.0984429,0.18029673,0.3185966,39.875,8e-05,-3838,1389,4007,0
102141725,0,131618,0.1002214,0.17535017,0.31072217,39.75,8e-05,-3776,1411,3895,0
102241725,0,131618,0.105071865,0.17814259,0.30889422,39.875,8e-05,-3811,1471,3869,0
102341733,0,131618,0.09900878,0.17718518,0.3060116,39.75,8e-05,-3799,1396,3828,0
102451749,0,131618,0.10321252,0.17941912,0.33286896,39.75,8e-05,-3827,1448,4210,0
102551764,0,131618,0.096421875,0.17606823,0.357828,39.625,8e-05,-3785,1364,4565,0
102651731,0,131618,0.10579943,0.1794989,0.31733105,39.875,8e-05,-3828,1480,3989,0
102751762,0,131618,0.10628448,0.18181263,0.26024163,39.75,8e-05,-3857,1486,3177,0
102851775,0,131618,0.09795786,0.18157326,0.28281024,39.875,8e-05,-3854,1383,3498,0
102951748,0,131618,0.09989804,0.18077543,0.292372,39.75,8e-05,-3844,1407,3634,0
103061725,0,131618,0.10887139,0.1762278,0.29680136,39.875,8e-05,-3787,1518,3697,0
103161728,0,131618,0.10644616,0.18157326,0.28203684,39.625,8e-05,-3854,1488,3487,0
103261751,0,131618,0.102565795,0.1799776,0.2991215,39.875,8e-05,-3834,1440,3730,0
103361725,0,131618,0.09553262,0.17925955,0.29159862,39.875,8e-05,-3825,1353,3623,0
103461725,0,131618,0.102161594,0.1818924,0.28716928,39.875,8e-05,-3858,1435,3560,0
103571762,0,131618,0.10369757,0.1814137,0.30235565,39.75,8e-05,-3852,1454,3776,0
103671764,0,131618,0.10151486,0.1785415,0.3147297,39.875,8e-05,-3816,1427,3952,0
103771764,0,131618,0.11016485,0.18308915,0.27528736,39.875,8e-05,-3873,1534,3391,0
103871789,0,131618,0.106365316,0.17965846,0.27845117,39.625,8e-05,-3830,1487,3436,0
103971762,0,131618,0.103374206,0.1780628,0.30931604,39.875,8e-05,-3810,1450,3875,0
104071762,0,131618,0.10111065,0.17862128,0.3128314,39.875,8e-05,-3817,1422,3925,0
104181725,0,131618,0.10442513,0.18029673,0.3022853,40.0,8e-05,-3838,1463,3775,0
104281725,0,131618,0.105556905,0.1828498,0.29075494,39.875,8e-05,-3870,1477,3611,0
104381725,0,131618,0.0966644,0.18021694,0.306785,39.75,8e-05,-3837,1367,3839,0
104481736,0,131618,0.09860458,0.18117435,0.302215,39.75,8e-05,-3849,1391,3774,0
104581758,0,131618,0.10733541,0.18125413,0.28400546,39.875,8e-05,-3850,1499,3515,0
104691768,0,131618,0.108386345,0.18061587,0.26931125,39.75,8e-05,-3842,1512,3306,0
104791726,0,131618,0.11485363,0.17774366,0.26410854,39.875,8e-05,-3806,1592,3232,0
104891764,0,131618,0.10208075,0.17965846,0.3178935,39.75,8e-05,-3830,1434,3997,0
104991762,0,131618,0.102161594,0.17886063,0.29785597,39.875,8e-05,-3820,1435,3712,0
105091771,0,131618,0.09488589,0.18221153,0.30664435,39.875,8e-05,-3862,1345,3837,0
105191747,0,131618,0.10539523,0.17925955,0.29391876,39.625,8e-05,-3825,1475,3656,0
105291738,0,131618,0.1096798,0.17822237,0.2830915,39.75,8e-05,-3812,1528,3502,0
105391727,0,131618,0.10539523,0.18037651,0.31936994,39.75,8e-05,-3839,1475,4018,0
105501725,0,131618,0.10434429,0.17886063,0.29848874,39.875,8e-05,-3820,1462,3721,0
105601725,0,131618,0.10208075,0.1757491,0.29075494,39.875,8e-05,-3781,1434,3611,0
105701725,0,131618,0.10499102,0.17965846,0.29736382,39.875,8e-05,-3830,1470,3705,0
105801725,0,131618,0.103859246,0.17957869,0.30305868,39.875,8e-05,-3829,1456,3786,0
105901725,0,131618,0.103859246,0.18029673,0.3101597,39.875,8e-05,-3838,1456,3887,0
106001748,0,131618,0.09860458,0.1780628,0.30488667,40.0,8e-05,-3810,1391,3812,0
106101725,0,131618,0.099736355,0.18029673,0.3042539,39.75,8e-05,-3838,1405,3803,0
106211770,0,131618,0.10369757,0.17941912,0.29476243,39.875,8e-05,-3827,1454,3668,0
106311762,0,131618,0.09908963,0.17822237,0.30551946,39.75,8e-05,-3812,1397,3821,0
106411748,0,131618,0.1011915,0.17917977,0.30573037,40.0,8e-05,-3824,1423,3824,0
106511748,0,131618,0.100059725,0.18149349,0.30544913,40.0,8e-05,-3853,1409,3820,0
106621780,0,131618,0.09965552,0.17870107,0.29869965,39.75,8e-05,-3818,1404,3724,0
106721753,0,131618,0.10143402,0.17742455,0.29504368,39.875,8e-05,-3802,1426,3672,0
106821725,0,131618,0.10111065,0.17654693,0.302215,40.0,8e-05,-3791,1422,3774,0
106921725,0,131618,0.105880275,0.18005739,0.28435698,39.875,8e-05,-3835,1481,3520,0
107021764,0,131618,0.10199991,0.18117435,0.2961686,39.75,8e-05,-3849,1433,3688,0
107121725,0,131618,0.09884711,0.18029673,0.30488667,39.875,8e-05,-3838,1394,3812,0
107221725,0,131618,0.10038308,0.17878085,0.30783957,39.875,8e-05,-3819,1413,3854,0
107331757,0,131618,0.10887139,0.17989783,0.28970033,39.875,8e-05,-3833,1518,3596,0
107431758,0,131618,0.102565795,0.17654693,0.31423753,40.0,8e-05,-3791,1440,3945,0
107531762,0,131618,0.10070645,0.17646714,0.30376178,39.875,8e-05,-3790,1417,3796,0
107631762,0,131618,0.09997888,0.18213174,0.29293445,39.75,8e-05,-3861,1408,3642,0
107731767,0,131618,0.10183822,0.185722,0.27831057,40.0,8e-05,-3906,1431,3434,0
107831763,0,131618,0.10466766,0.18061587,0.30762866,40.0,8e-05,-3842,1466,3851,0
107941725,0,131618,0.09868543,0.17630757,0.3060819,39.875,8e-05,-3788,1392,3829,0
108041725,0,131618,0.101757385,0.17367472,0.30312902,39.875,8e-05,-3755,1430,3787,0
108141758,0,131618,0.10442513,0.17782345,0.29511398,40.0,8e-05,-3807,1463,3673,0
108241725,0,131618,0.10272748,0.18157326,0.28618497,40.0,8e-05,-3854,1442,3546,0
108341725,0,131618,0.10579943,0.17678627,0.29659045,39.875,8e-05,-3794,1480,3694,0
108441725,0,131618,0.11089242,0.18181263,0.29708257,39.75,8e-05,-3857,1543,3701,0
108541725,0,131618,0.11016485,0.17870107,0.3039727,39.875,8e-05,-3818,1534,3799,0
108651766,0,131618,0.110973254,0.17798303,0.27057678,39.75,8e-05,-3809,1544,3324,0
108751756,0,131618,0.10959896,0.17726497,0.2823884,39.75,8e-05,-3800,1527,3492,0
108851749,0,131618,0.104182616,0.17933933,0.29166895,39.875,8e-05,-3826,1460,3624,0
108951772,0,131618,0.108790554,0.17822237,0.29251263,39.75,8e-05,-3812,1517,3636,0
109051762,0,131618,0.09828122,0.18093501,0.30235565,39.875,8e-05,-3846,1387,3776,0
109161725,0,131618,0.103455044,0.17758411,0.2962389,39.875,8e-05,-3804,1451,3689,0
109261725,0,131618,0.10911392,0.1766267,0.2963092,39.875,8e-05,-3792,1521,3690,0
109361725,0,131618,0.106527,0.17894042,0.2833024,39.875,8e-05,-3821,1489,3505,0
109461725,0,131618,0.10741626,0.1762278,0.28070104,39.875,8e-05,-3787,1500,3468,0
109571749,0,131618,0.109194756,0.17862128,0.2639679,40.0,8e-05,-3817,1522,3230,0
109671763,0,131618,0.10806298,0.17598844,0.28182593,39.75,8e-05,-3784,1508,3484,0
110891765,0,131618,0.10539523,0.17878085,0.3079802,39.875,8e-05,-3819,1475,3856,0
111091767,0,131618,0.10773961,0.17495127,0.2910362,39.875,8e-05,-3771,1504,3615,0
111191762,0,131618,0.102646634,0.176148,0.2961686,39.875,8e-05,-3786,1441,3688,0
111301725,0,131618,0.10523355,0.17965846,0.30326962,39.875,8e-05,-3830,1473,3789,0
111401725,0,131618,0.1069312,0.17519061,0.2902628,39.875,8e-05,-3774,1494,3604,0
111501725,0,131618,0.106769525,0.17710541,0.29743412,39.875,8e-05,-3798,1492,3706,0
111601725,0,131618,0.1110541,0.17319603,0.29384845,39.875,8e-05,-3749,1545,3655,0
111701750,0,131618,0.109194756,0.17550975,0.29497337,39.875,8e-05,-3778,1522,3671,0
111801735,0,131618,0.1061228,0.17590865,0.29525462,40.0,8e-05,-3783,1484,3675,0
111901734,0,131618,0.105476074,0.17590865,0.3101597,40.0,8e-05,-3783,1476,3887,0
112011762,0,131618,0.107497096,0.1708823,0.30664435,39.875,8e-05,-3720,1501,3837,0
112111762,0,131618,0.10127234,0.17678627,0.30945665,39.75,8e-05,-3794,1424,3877,0
112211763,0,131618,0.109518126,0.17487147,0.28098226,40.0,8e-05,-3770,1526,3472,0
112311759,0,131618,0.10523355,0.1757491,0.3106519,39.875,8e-05,-3781,1473,3894,0
112411737,0,131618,0.10709289,0.18005739,0.2942703,39.875,8e-05,-3835,1496,3661,0
112511762,0,131618,0.10466766,0.17359495,0.31606552,39.875,8e-05,-3754,1466,3971,0
112621730,0,131618,0.1069312,0.17542996,0.2961686,40.0,8e-05,-3777,1494,3688,0
112721725,0,131618,0.10628448,0.17734475,0.28583342,39.875,8e-05,-3801,1486,3541,0
112821725,0,131618,0.10482934,0.17375451,0.31986213,39.75,8e-05,-3756,1468,4025,0
112921767,0,131618,0.11356018,0.17822237,0.27915427,40.0,8e-05,-3812,1576,3446,0
113021739,0,131618,0.1015957,0.17750432,0.2766935,39.75,8e-05,-3803,1428,3411,0
113121757,0,131618,0.10717373,0.17335558,0.31402662,40.0,8e-05,-3751,1497,3942,0
113221726,0,131618,0.10313168,0.17558952,0.29666075,40.0,8e-05,-3779,1447,3695,0
113331772,0,131618,0.10361672,0.17638735,0.31128463,40.0,8e-05,-3789,1453,3903,0
113431762,0,131618,0.10628448,0.17798303,0.28695837,39.875,8e-05,-3809,1486,3557,0
113531799,0,131618,0.10313168,0.17550975,0.30383208,39.875,8e-05,-3778,1447,3797,0
113631726,0,131618,0.10353589,0.176148,0.3106519,40.0,8e-05,-3786,1452,3894,0
113741760,0,131618,0.11469194,0.1723982,0.29694197,40.0,8e-05,-3739,1590,3699,0
113841737,0,131618,0.10976064,0.17558952,0.28885666,39.875,8e-05,-3779,1529,3584,0
113941727,0,131618,0.1069312,0.17519061,0.31339383,39.875,8e-05,-3774,1494,3933,0
114041725,0,131618,0.10854803,0.17487147,0.28520066,39.875,8e-05,-3770,1514,3532,0
114141725,0,131618,0.10765877,0.17878085,0.29989487,39.875,8e-05,-3819,1503,3741,0
114241727,0,131618,0.10701205,0.1723982,0.2960983,39.875,8e-05,-3739,1495,3687,0
114341729,0,131618,0.10976064,0.17351516,0.2990512,39.875,8e-05,-3753,1529,3729,0
114451775,0,131618,0.10660785,0.17598844,0.29363754,39.875,8e-05,-3784,1490,3652,0
114551750,0,131618,0.10434429,0.1804563,0.29546553,39.875,8e-05,-3840,1462,3678,0
114651763,0,131618,0.109194756,0.17782345,0.29286417,39.875,8e-05,-3807,1522,3641,0
114751762,0,131618,0.10984148,0.17439277,0.29448122,39.875,8e-05,-3764,1530,3664,0
114861741,0,131618,0.1061228,0.17495127,0.30172285,39.875,8e-05,-3771,1484,3767,0
114961725,0,131618,0.10523355,0.1767065,0.3109331,39.875,8e-05,-3793,1473,3898,0
115061725,0,131618,0.11194335,0.17917977,0.29286417,40.0,8e-05,-3824,1556,3641,0
115161725,0,131618,0.10685037,0.17862128,0.30833173,39.875,8e-05,-3817,1493,3861,0
115271776,0,131618,0.110003166,0.17917977,0.29476243,39.875,8e-05,-3824,1532,3668,0
115371770,0,131618,0.107497096,0.1762278,0.28885666,39.875,8e-05,-3787,1501,3584,0
115471762,0,131618,0.11040737,0.17590865,0.28105253,39.875,8e-05,-3783,1537,3473,0
115571763,0,131618,0.100059725,0.1780628,0.30263686,39.875,8e-05,-3810,1409,3780,0
115671770,0,131618,0.10976064,0.17447256,0.30727714,39.875,8e-05,-3765,1529,3846,0
115781725,0,131618,0.11073074,0.17750432,0.2724048,39.875,8e-05,-3803,1541,3350,0
115881725,0,131618,0.11056905,0.17862128,0.28477883,39.875,8e-05,-3817,1539,3526,0
115981731,0,131618,0.10499102,0.17702562,0.29637954,39.875,8e-05,-3797,1470,3691,0
116081725,0,131618,0.10442513,0.17718518,0.29391876,39.875,8e-05,-3799,1463,3656,0
116181725,0,131618,0.106769525,0.17822237,0.293286,40.0,8e-05,-3812,1492,3647,0
116281763,0,131618,0.10806298,0.17822237,0.29539523,39.875,8e-05,-3812,1508,3677,0
116381725,0,131618,0.10976064,0.17056319,0.29180956,39.875,8e-05,-3716,1529,3626,0
116491748,0,131618,0.10984148,0.17335558,0.28372422,39.875,8e-05,-3751,1530,3511,0
116591762,0,131618,0.11008401,0.1814137,0.2906143,39.875,8e-05,-3852,1533,3609,0
116691746,0,131618,0.113317646,0.17814259,0.2910362,40.0,8e-05,-3811,1573,3615,0
116791762,0,131618,0.10887139,0.1728769,0.28955972,40.0,8e-05,-3745,1518,3594,0
116901725,0,131618,0.10442513,0.16697294,0.32140887,40.0,8e-05,-3671,1463,4047,0
117001725,0,131618,0.106527,0.17359495,0.3041836,39.875,8e-05,-3754,1489,3802,0
117101760,0,131618,0.103859246,0.18109456,0.2678348,39.875,8e-05,-3848,1456,3285,0
117201725,0,131618,0.11275176,0.17798303,0.29180956,40.0,8e-05,-3809,1566,3626,0
117301725,0,131618,0.109518126,0.18516351,0.29307508,40.0,8e-05,-3899,1526,3644,0
117401726,0,131618,0.100140564,0.20854001,0.27507645,39.875,8e-05,-4192,1410,3388,0
117511741,0,131618,0.1083055,0.23175693,0.2669208,39.875,8e-05,-4483,1511,3272,0
117611741,0,131618,0.1096798,0.2584843,0.22311944,40.0,8e-05,-4818,1528,2649,0
117711740,0,131618,0.10935644,0.27404204,0.22635356,39.875,8e-05,-5013,1524,2695,0
117821725,0,131618,0.10434429,0.28545105,0.22494741,40.0,8e-05,-5156,1462,2675,0
117921725,0,131618,0.104263455,0.28313732,0.22522865,40.125,8e-05,-5127,1461,2679,0
118021725,0,131618,0.108790554,0.284733,0.23450921,40.0,8e-05,-5147,1517,2811,0
118121725,0,131618,0.10167654,0.28098318,0.24386007,40.0,8e-05,-5100,1429,2944,0
118221725,0,131618,0.09965552,0.27499944,0.24287575,40.0,8e-05,-5025,1404,2930,0
118321725,0,131618,0.11356018,0.27835032,0.22979863,40.0,8e-05,-5067,1576,2744,0
118421725,0,131618,0.09237982,0.2699731,0.2432273,40.0,8e-05,-4962,1314,2935,0
118531741,0,131618,0.09860458,0.27316442,0.23345459,40.0,8e-05,-5002,1391,2796,0
118631761,0,131618,0.10272748,0.27420163,0.24161021,39.875,8e-05,-5015,1442,2912,0
118731741,0,131618,0.10442513,0.27316442,0.21348736,40.0,8e-05,-5002,1463,2512,0
118831756,0,131618,0.10466766,0.26087782,0.24315698,40.0,8e-05,-4848,1466,2934,0
118941736,0,131618,0.10660785,0.24962838,0.2669208,40.0,8e-05,-4707,1490,3272,0
119041725,0,131618,0.09771533,0.22792733,0.29075494,40.125,8e-05,-4435,1380,3611,0
119141725,0,131618,0.114287734,0.18987072,0.2748655,40.0,8e-05,-3958,1585,3385,0
119241725,0,131618,0.10887139,0.1833285,0.28273994,40.0,8e-05,-3876,1518,3497,0
119351758,0,131618,0.117036335,0.17399386,0.29862934,39.75,8e-05,-3759,1619,3723,0
119451763,0,131618,0.12237184,0.17327581,0.2933563,40.0,8e-05,-3750,1685,3648,0
119551761,0,131618,0.13506389,0.17702562,0.28112286,39.875,8e-05,-3797,1842,3474,0
119651741,0,131618,0.1173597,0.1757491,0.29848874,40.0,8e-05,-3781,1623,3721,0
119751740,0,131618,0.11396438,0.17152058,0.29687166,40.125,8e-05,-3728,1581,3698,0
119861725,0,131618,0.11550036,0.16992491,0.29476243,40.0,8e-05,-3708,1600,3668,0
119961725,0,131618,0.11153915,0.17128123,0.3010901,40.125,8e-05,-3725,1551,3758,0
120061762,0,131618,0.12010829,0.19114727,0.2835836,39.875,8e-05,-3974,1657,3509,0
120161725,0,131618,0.13975266,0.21428439,0.26066345,40.0,8e-05,-4264,1900,3183,0
120261725,0,131618,0.14670499,0.23111866,0.27381092,40.0,8e-05,-4475,1986,3370,0
120371743,0,131618,0.15171713,0.22529449,0.2579918,39.875,8e-05,-4402,2048,3145,0
120471742,0,131618,0.13506389,0.19210465,0.2600307,40.0,8e-05,-3986,1842,3174,0
120571741,0,131618,0.117440544,0.17399386,0.30094948,40.0,8e-05,-3759,1624,3756,0
120681725,0,131618,0.1173597,0.17558952,0.2795761,40.0,8e-05,-3779,1623,3452,0
120781725,0,131618,0.111296624,0.17542996,0.28070104,40.125,8e-05,-3777,1548,3468,0
120881760,0,131618,0.11372185,0.16769098,0.28006825,40.0,8e-05,-3680,1578,3459,0
120981725,0,131618,0.11113494,0.1704834,0.2854819,39.75,8e-05,-3715,1546,3536,0
121081733,0,131618,0.11938073,0.18356785,0.2943406,40.0,8e-05,-3879,1648,3662,0
121191742,0,131618,0.12754567,0.18979093,0.29412967,40.0,8e-05,-3957,1749,3659,0
121291742,0,131618,0.14015687,0.18979093,0.2748655,40.0,8e-05,-3957,1905,3385,0
121391741,0,131618,0.14654331,0.19729057,0.25735903,40.0,8e-05,-4051,1984,3136,0
121491744,0,131618,0.13813584,0.18636025,0.2910362,40.125,8e-05,-3914,1880,3615,0
121591752,0,131618,0.13797416,0.18620071,0.29539523,40.0,8e-05,-3912,1878,3677,0
121691756,0,131618,0.122048475,0.18029673,0.28273994,40.125,8e-05,-3838,1681,3497,0
121801725,0,131618,0.11897652,0.1767065,0.3060116,40.0,8e-05,-3793,1643,3828,0
121901748,0,131618,0.10895223,0.17830215,0.29293445,39.875,8e-05,-3813,1519,3642,0
122001725,0,131618,0.10644616,0.1747917,0.30284777,40.0,8e-05,-3769,1488,3783,0
122101725,0,131618,0.10644616,0.18452525,0.27725595,40.0,8e-05,-3891,1488,3419,0
122201728,0,131618,0.12026998,0.21452375,0.24048531,40.0,8e-05,-4267,1659,2896,0
122301725,0,131618,0.11525783,0.24795292,0.2483597,40.0,8e-05,-4686,1597,3008,0
122401725,0,131618,0.109194756,0.25776628,0.2824587,40.0,8e-05,-4809,1522,3493,0
122511740,0,131618,0.11719801,0.25776628,0.2559529,40.0,8e-05,-4809,1621,3116,0
122611741,0,131618,0.1142069,0.19936493,0.26446006,40.0,8e-05,-4077,1584,3237,0
122711742,0,131618,0.11347933,0.19011007,0.2853413,40.0,8e-05,-3961,1575,3534,0
122811760,0,131618,0.108790554,0.17718518,0.30931604,40.0,8e-05,-3799,1517,3875,0
122911741,0,131618,0.110973254,0.17694584,0.28428668,40.125,8e-05,-3796,1544,3519,0
123011755,0,131618,0.11153915,0.17311624,0.2853413,40.0,8e-05,-3748,1551,3534,0
123111757,0,131618,0.11808727,0.17535017,0.27901363,40.0,8e-05,-3776,1632,3444,0
123221734,0,131618,0.14355218,0.1990458,0.26291332,40.0,8e-05,-4073,1947,3215,0
123321725,0,131618,0.15050451,0.20933783,0.28365391,40.0,8e-05,-4202,2033,3510,0
123421763,0,131618,0.16788533,0.22609231,0.25771058,40.0,8e-05,-4412,2248,3141,0
123521725,0,131618,0.16562179,0.21460353,0.2687488,40.0,8e-05,-4268,2220,3298,0
123621725,0,131618,0.16473253,0.19713101,0.26424915,40.0,8e-05,-4049,2209,3234,0
123721725,0,131618,0.12964752,0.18205197,0.27894336,40.0,8e-05,-3860,1775,3443,0
123831725,0,131618,0.11630876,0.17941912,0.30249622,39.875,8e-05,-3827,1610,3778,0
123931740,0,131618,0.1047485,0.17175992,0.29005188,40.125,8e-05,-3731,1467,3601,0
124031781,0,131618,0.07839433,0.13370332,0.29736382,40.125,8e-05,-3254,1141,3705,0
124131741,0,131618,0.042662602,0.10139111,0.31606552,40.125,8e-05,-2849,699,3971,0
124231741,0,131618,0.020835528,0.07219044,0.31423753,40.0,8e-05,-2483,429,3945,0
124341725,0,131618,0.027949536,0.08870557,0.35403138,40.0,8e-05,-2690,517,4511,0
124441725,0,131618,0.08736768,0.15755852,0.33547032,40.0,8e-05,-3553,1252,4247,0
124541725,0,131618,0.10499102,0.15069716,0.29216108,40.0,8e-05,-3467,1470,3631,0
124641747,0,131618,0.11630876,0.16832925,0.28006825,40.0,8e-05,-3688,1610,3459,0
124741725,0,131618,0.11550036,0.1747119,0.26706144,39.875,8e-05,-3768,1600,3274,0
124841725,0,131618,0.110973254,0.174313,0.2934969,40.0,8e-05,-3763,1544,3650,0
124951753,0,131618,0.11016485,0.17415342,0.29307508,40.0,8e-05,-3761,1534,3644,0
125051741,0,131618,0.11574288,0.19042921,0.27050647,40.0,8e-05,-3965,1603,3323,0
125151741,0,131618,0.14088443,0.22058727,0.24709418,40.125,8e-05,-4343,1914,2990,0
125251756,0,131618,0.14678583,0.2347089,0.2560232,40.125,8e-05,-4520,1987,3117,0
125351754,0,131618,0.1542232,0.24013416,0.24146962,40.0,8e-05,-4588,2079,2910,0
125451741,0,131618,0.1488877,0.2319165,0.2608041,39.875,8e-05,-4485,2013,3185,0
125551741,0,131618,0.11153915,0.18795593,0.27915427,40.0,8e-05,-3934,1551,3446,0
125661753,0,131618,0.118329786,0.18468481,0.2775372,40.0,8e-05,-3893,1635,3423,0
125761725,0,131618,0.11008401,0.17726497,0.29265323,40.0,8e-05,-3800,1533,3638,0
125861725,0,131618,0.108386345,0.17694584,0.31388602,40.0,8e-05,-3796,1512,3940,0
125961725,0,131618,0.10685037,0.17878085,0.29637954,40.0,8e-05,-3819,1493,3691,0
126071768,0,131618,0.114611104,0.17686605,0.27929485,40.0,8e-05,-3795,1589,3448,0
126171752,0,131618,0.110811576,0.17535017,0.30622253,40.0,8e-05,-3776,1542,3831,0
126271762,0,131618,0.10773961,0.17917977,0.3119877,39.875,8e-05,-3824,1504,3913,0
126371762,0,131618,0.11145831,0.17702562,0.28963003,40.0,8e-05,-3797,1550,3595,0
126471732,0,131618,0.11404522,0.17295668,0.28049007,40.0,8e-05,-3746,1582,3465,0
126571736,0,131618,0.10644616,0.17399386,0.27901363,40.0,8e-05,-3759,1488,3444,0
126671767,0,131618,0.106527,0.17702562,0.2963092,40.0,8e-05,-3797,1489,3690,0
126781741,0,131618,0.11048821,0.17598844,0.28484914,40.0,8e-05,-3784,1538,3527,0
126881743,0,131618,0.10329337,0.17686605,0.32295564,40.125,8e-05,-3795,1449,4069,0
126981726,0,131618,0.10911392,0.17774366,0.29694197,40.125,8e-05,-3806,1521,3699,0
127081727,0,131618,0.11752138,0.17463213,0.2776778,40.125,8e-05,-3767,1625,3425,0
127181760,0,131618,0.11218587,0.17527038,0.2863256,40.125,8e-05,-3775,1559,3548,0
127591738,0,131618,0.11444942,0.18029673,0.28119317,40.0,8e-05,-3838,1587,3475,0
127691732,0,131618,0.10862887,0.1799776,0.29771534,40.125,8e-05,-3834,1515,3710,0
127791732,0,131618,0.10466766,0.18053608,0.28295085,40.0,8e-05,-3841,1466,3500,0
127901767,0,131618,0.10935644,0.18197218,0.28970033,40.0,8e-05,-3859,1524,3596,0
128001725,0,131618,0.11073074,0.17989783,0.2833727,40.0,8e-05,-3833,1541,3506,0
128101725,0,131618,0.10943728,0.17894042,0.28027916,40.125,8e-05,-3821,1525,3462,0
128201743,0,131618,0.10442513,0.17590865,0.31058156,40.125,8e-05,-3783,1463,3893,0
128301732,0,131618,0.106365316,0.17965846,0.2960983,40.125,8e-05,-3830,1487,3687,0
128401725,0,131618,0.11032653,0.17822237,0.2944109,40.125,8e-05,-3812,1536,3663,0
128501725,0,131618,0.111700825,0.17638735,0.2828805,40.0,8e-05,-3789,1553,3499,0
128611732,0,131618,0.11137746,0.18229131,0.30277747,40.0,8e-05,-3863,1549,3782,0
128711756,0,131618,0.10984148,0.17814259,0.26860818,40.0,8e-05,-3811,1530,3296,0
128811780,0,131618,0.112024195,0.17902021,0.27627167,40.25,8e-05,-3822,1557,3405,0
128921758,0,131618,0.106203645,0.17766389,0.29455152,40.125,8e-05,-3805,1485,3665,0
129021725,0,131618,0.107497096,0.1785415,0.31437814,40.0,8e-05,-3816,1501,3947,0
129121725,0,131618,0.10814383,0.18340829,0.27901363,40.125,8e-05,-3877,1509,3444,0
