timestamp,x,y,z,r,flaps,aux1,aux2,aux3,aux4,aux5,aux6,mode_switch,return_switch,rattitude_switch,posctl_switch,loiter_switch,acro_switch,offboard_switch,kill_switch,arm_switch,transition_switch,gear_switch,mode_slot,data_source,stab_switch,man_switch
50796133,0.0,0.0,0.4938683,0.0,0.0,0.0,0.0,0.0,0.0,0.0,0.0,0,0,0,0,0,0,0,3,1,0,0,3,1,0,0
50819479,0.0,0.0,0.49445456,0.0,0.0,0.0,0.0,0.0,0.0,0.0,0.0,0,0,0,0,0,0,0,3,1,0,0,3,1,0,0
50844354,0.0,0.0,0.49470624,0.0,0.0,0.0,0.0,0.0,0.0,0.0,0.0,0,0,0,0,0,0,0,3,1,0,0,3,1,0,0
50864179,0.0,0.0,0.494423,0.0,0.0,0.0,0.0,0.0,0.0,0.0,0.0,0,0,0,0,0,0,0,3,1,0,0,3,1,0,0
50886559,0.0,0.0,0.49426904,0.0,0.0,0.0,0.0,0.0,0.0,0.0,0.0,0,0,0,0,0,0,0,3,1,0,0,3,1,0,0
50910528,0.0,0.0,0.49400613,0.0,0.0,0.0,0.0,0.0,0.0,0.0,0.0,0,0,0,0,0,0,0,3,1,0,0,3,1,0,0
50933773,0.0,0.0,0.49393913,0.0,0.0,0.0,0.0,0.0,0.0,0.0,0.0,0,0,0,0,0,0,0,3,1,0,0,3,1,0,0
50953769,0.0,0.0,0.49448884,0.0,0.0,0.0,0.0,0.0,0.0,0.0,0.0,0,0,0,0,0,0,0,3,1,0,0,3,1,0,0
50976517,0.0,0.0,0.49496654,0.0,0.0,0.0,0.0,0.0,0.0,0.0,0.0,0,0,0,0,0,0,0,3,1,0,0,3,1,0,0
50996154,0.0,0.0,0.49503544,0.0,0.0,0.0,0.0,0.0,0.0,0.0,0.0,0,0,0,0,0,0,0,3,1,0,0,3,1,0,0
51020214,0.0,0.0,0.49496737,0.0,0.0,0.0,0.0,0.0,0.0,0.0,0.0,0,0,0,0,0,0,0,3,1,0,0,3,1,0,0
51040395,0.0,0.0,0.49466723,0.0,0.0,0.0,0.0,0.0,0.0,0.0,0.0,0,0,0,0,0,0,0,3,1,0,0,3,1,0,0
51064934,0.0,0.0,0.49404666,0.0,0.0,0.0,0.0,0.0,0.0,0.0,0.0,0,0,0,0,0,0,0,3,1,0,0,3,1,0,0
51088161,0.0,0.0,0.49361464,0.0,0.0,0.0,0.0,0.0,0.0,0.0,0.0,0,0,0,0,0,0,0,3,1,0,0,3,1,0,0
51108366,0.0,0.0,0.49357653,0.0,0.0,0.0,0.0,0.0,0.0,0.0,0.0,0,0,0,0,0,0,0,3,1,0,0,3,1,0,0
51132136,0.0,0.0,0.493647,0.0,0.0,0.0,0.0,0.0,0.0,0.0,0.0,0,0,0,0,0,0,0,3,1,0,0,3,1,0,0
51155722,0.0,0.0,0.493942,0.0,0.0,0.0,0.0,0.0,0.0,0.0,0.0,0,0,0,0,0,0,0,3,1,0,0,3,1,0,0
51175416,0.0,0.0,0.49456018,0.0,0.0,0.0,0.0,0.0,0.0,0.0,0.0,0,0,0,0,0,0,0,3,1,0,0,3,1,0,0
51197112,0.0,0.0,0.49499235,0.0,0.0,0.0,0.0,0.0,0.0,0.0,0.0,0,0,0,0,0,0,0,3,1,0,0,3,1,0,0
51220154,0.0,0.0,0.4947695,0.0,0.0,0.0,0.0,0.0,0.0,0.0,0.0,0,0,0,0,0,0,0,3,1,0,0,3,1,0,0
51243438,0.0,0.0,0.4940796,0.0,0.0,0.0,0.0,0.0,0.0,0.0,0.0,0,0,0,0,0,0,0,3,1,0,0,3,1,0,0
51264193,0.0,0.0,0.4936068,0.0,0.0,0.0,0.0,0.0,0.0,0.0,0.0,0,0,0,0,0,0,0,3,1,0,0,3,1,0,0
51288136,0.0,0.0,0.49356717,0.0,0.0,0.0,0.0,0.0,0.0,0.0,0.0,0,0,0,0,0,0,0,3,1,0,0,3,1,0,0
51312328,0.0,0.0,0.4936451,0.0,0.0,0.0,0.0,0.0,0.0,0.0,0.0,0,0,0,0,0,0,0,3,1,0,0,3,1,0,0
51336337,0.0,0.0,0.49394313,0.0,0.0,0.0,0.0,0.0,0.0,0.0,0.0,0,0,0,0,0,0,0,3,1,0,0,3,1,0,0
51360198,0.0,0.0,0.49456096,0.0,0.0,0.0,0.0,0.0,0.0,0.0,0.0,0,0,0,0,0,0,0,3,1,0,0,3,1,0,0
51382743,0.0,0.0,0.49499243,0.0,0.0,0.0,0.0,0.0,0.0,0.0,0.0,0,0,0,0,0,0,0,3,1,0,0,3,1,0,0
51405024,0.0,0.0,0.49503088,0.0,0.0,0.0,0.0,0.0,0.0,0.0,0.0,0,0,0,0,0,0,0,3,1,0,0,3,1,0,0
51428124,0.0,0.0,0.49469912,0.0,0.0,0.0,0.0,0.0,0.0,0.0,0.0,0,0,0,0,0,0,0,3,1,0,0,3,1,0,0
51448129,0.0,0.0,0.494046,0.0,0.0,0.0,0.0,0.0,0.0,0.0,0.0,0,0,0,0,0,0,0,3,1,0,0,3,1,0,0
51470915,0.0,0.0,0.4938696,0.0,0.0,0.0,0.0,0.0,0.0,0.0,0.0,0,0,0,0,0,0,0,3,1,0,0,3,1,0,0
51490754,0.0,0.0,0.4944553,0.0,0.0,0.0,0.0,0.0,0.0,0.0,0.0,0,0,0,0,0,0,0,3,1,0,0,3,1,0,0
51513754,0.0,0.0,0.4941833,0.0,0.0,0.0,0.0,0.0,0.0,0.0,0.0,0,0,0,0,0,0,0,3,1,0,0,3,1,0,0
51536926,0.0,0.0,0.4923992,0.0,0.0,0.0,0.0,0.0,0.0,0.0,0.0,0,0,0,0,0,0,0,3,1,0,0,3,1,0,0
51560967,0.0,0.0,0.49179322,0.0,0.0,0.0,0.0,0.0,0.0,0.0,0.0,0,0,0,0,0,0,0,3,1,0,0,3,1,0,0
51584359,0.0,0.0,0.49322605,0.0,0.0,0.0,0.0,0.0,0.0,0.0,0.0,0,0,0,0,0,0,0,3,1,0,0,3,1,0,0
51607376,0.0,0.0,0.49413565,0.0,0.0,0.0,0.0,0.0,0.0,0.0,0.0,0,0,0,0,0,0,0,3,1,0,0,3,1,0,0
51627405,0.0,0.0,0.4939297,0.0,0.0,0.0,0.0,0.0,0.0,0.0,0.0,0,0,0,0,0,0,0,3,1,0,0,3,1,0,0
51648517,0.0,0.0,0.493937,0.0,0.0,0.0,0.0,0.0,0.0,0.0,0.0,0,0,0,0,0,0,0,3,1,0,0,3,1,0,0
51672358,0.0,0.0,0.4942415,0.0,0.0,0.0,0.0,0.0,0.0,0.0,0.0,0,0,0,0,0,0,0,3,1,0,0,3,1,0,0
51692358,0.0,0.0,0.49435258,0.0,0.0,0.0,0.0,0.0,0.0,0.0,0.0,0,0,0,0,0,0,0,3,1,0,0,3,1,0,0
51715371,0.0,0.0,0.4945955,0.0,0.0,0.0,0.0,0.0,0.0,0.0,0.0,0,0,0,0,0,0,0,3,1,0,0,3,1,0,0
51735441,0.0,0.0,0.4946635,0.0,0.0,0.0,0.0,0.0,0.0,0.0,0.0,0,0,0,0,0,0,0,3,1,0,0,3,1,0,0
51757320,0.0,0.0,0.4943796,0.0,0.0,0.0,0.0,0.0,0.0,0.0,0.0,0,0,0,0,0,0,0,3,1,0,0,3,1,0,0
51780206,0.0,0.0,0.49452287,0.0,0.0,0.0,0.0,0.0,0.0,0.0,0.0,0,0,0,0,0,0,0,3,1,0,0,3,1,0,0
51804153,0.0,0.0,0.49463138,0.0,0.0,0.0,0.0,0.0,0.0,0.0,0.0,0,0,0,0,0,0,0,3,1,0,0,3,1,0,0
51824277,0.0,0.0,0.49438193,0.0,0.0,0.0,0.0,0.0,0.0,0.0,0.0,0,0,0,0,0,0,0,3,1,0,0,3,1,0,0
51844144,0.0,0.0,0.49453,0.0,0.0,0.0,0.0,0.0,0.0,0.0,0.0,0,0,0,0,0,0,0,3,1,0,0,3,1,0,0
51864518,0.0,0.0,0.49489504,0.0,0.0,0.0,0.0,0.0,0.0,0.0,0.0,0,0,0,0,0,0,0,3,1,0,0,3,1,0,0
51887556,0.0,0.0,0.49473947,0.0,0.0,0.0,0.0,0.0,0.0,0.0,0.0,0,0,0,0,0,0,0,3,1,0,0,3,1,0,0
51909177,0.0,0.0,0.494349,0.0,0.0,0.0,0.0,0.0,0.0,0.0,0.0,0,0,0,0,0,0,0,3,1,0,0,3,1,0,0
51932161,0.0,0.0,0.49449667,0.0,0.0,0.0,0.0,0.0,0.0,0.0,0.0,0,0,0,0,0,0,0,3,1,0,0,3,1,0,0
51952996,0.0,0.0,0.49488917,0.0,0.0,0.0,0.0,0.0,0.0,0.0,0.0,0,0,0,0,0,0,0,3,1,0,0,3,1,0,0
51973316,0.0,0.0,0.4947438,0.0,0.0,0.0,0.0,0.0,0.0,0.0,0.0,0,0,0,0,0,0,0,3,1,0,0,3,1,0,0
51996193,0.0,0.0,0.49409026,0.0,0.0,0.0,0.0,0.0,0.0,0.0,0.0,0,0,0,0,0,0,0,3,1,0,0,3,1,0,0
52016216,0.0,0.0,0.49361575,0.0,0.0,0.0,0.0,0.0,0.0,0.0,0.0,0,0,0,0,0,0,0,3,1,0,0,3,1,0,0
52040175,0.0,0.0,0.49356836,0.0,0.0,0.0,0.0,0.0,0.0,0.0,0.0,0,0,0,0,0,0,0,3,1,0,0,3,1,0,0
52060163,0.0,0.0,0.49390528,0.0,0.0,0.0,0.0,0.0,0.0,0.0,0.0,0,0,0,0,0,0,0,3,1,0,0,3,1,0,0
52084170,0.0,0.0,0.49430054,0.0,0.0,0.0,0.0,0.0,0.0,0.0,0.0,0,0,0,0,0,0,0,3,1,0,0,3,1,0,0
52108151,0.0,0.0,0.49411914,0.0,0.0,0.0,0.0,0.0,0.0,0.0,0.0,0,0,0,0,0,0,0,3,1,0,0,3,1,0,0
52128141,0.0,0.0,0.49371326,0.0,0.0,0.0,0.0,0.0,0.0,0.0,0.0,0,0,0,0,0,0,0,3,1,0,0,3,1,0,0
52150108,0.0,0.0,0.49386027,0.0,0.0,0.0,0.0,0.0,0.0,0.0,0.0,0,0,0,0,0,0,0,3,1,0,0,3,1,0,0
52173132,0.0,0.0,0.49425557,0.0,0.0,0.0,0.0,0.0,0.0,0.0,0.0,0,0,0,0,0,0,0,3,1,0,0,3,1,0,0
52193776,0.0,0.0,0.49411136,0.0,0.0,0.0,0.0,0.0,0.0,0.0,0.0,0,0,0,0,0,0,0,3,1,0,0,3,1,0,0
52217757,0.0,0.0,0.49371916,0.0,0.0,0.0,0.0,0.0,0.0,0.0,0.0,0,0,0,0,0,0,0,3,1,0,0,3,1,0,0
52237963,0.0,0.0,0.49386397,0.0,0.0,0.0,0.0,0.0,0.0,0.0,0.0,0,0,0,0,0,0,0,3,1,0,0,3,1,0,0
52260976,0.0,0.0,0.4945172,0.0,0.0,0.0,0.0,0.0,0.0,0.0,0.0,0,0,0,0,0,0,0,3,1,0,0,3,1,0,0
52280953,0.0,0.0,0.49499178,0.0,0.0,0.0,0.0,0.0,0.0,0.0,0.0,0,0,0,0,0,0,0,3,1,0,0,3,1,0,0
52305143,0.0,0.0,0.4947777,0.0,0.0,0.0,0.0,0.0,0.0,0.0,0.0,0,0,0,0,0,0,0,3,1,0,0,3,1,0,0
52329418,0.0,0.0,0.4943442,0.0,0.0,0.0,0.0,0.0,0.0,0.0,0.0,0,0,0,0,0,0,0,3,1,0,0,3,1,0,0
52348960,0.0,0.0,0.4944874,0.0,0.0,0.0,0.0,0.0,0.0,0.0,0.0,0,0,0,0,0,0,0,3,1,0,0,3,1,0,0
52373185,0.0,0.0,0.4948867,0.0,0.0,0.0,0.0,0.0,0.0,0.0,0.0,0,0,0,0,0,0,0,3,1,0,0,3,1,0,0
52393005,0.0,0.0,0.4950062,0.0,0.0,0.0,0.0,0.0,0.0,0.0,0.0,0,0,0,0,0,0,0,3,1,0,0,3,1,0,0
52416927,0.0,0.0,0.49497217,0.0,0.0,0.0,0.0,0.0,0.0,0.0,0.0,0,0,0,0,0,0,0,3,1,0,0,3,1,0,0
52437308,0.0,0.0,0.49493623,0.0,0.0,0.0,0.0,0.0,0.0,0.0,0.0,0,0,0,0,0,0,0,3,1,0,0,3,1,0,0
52457748,0.0,0.0,0.49492958,0.0,0.0,0.0,0.0,0.0,0.0,0.0,0.0,0,0,0,0,0,0,0,3,1,0,0,3,1,0,0
52480987,0.0,0.0,0.4949342,0.0,0.0,0.0,0.0,0.0,0.0,0.0,0.0,0,0,0,0,0,0,0,3,1,0,0,3,1,0,0
52504340,0.0,0.0,0.4946757,0.0,0.0,0.0,0.0,0.0,0.0,0.0,0.0,0,0,0,0,0,0,0,3,1,0,0,3,1,0,0
52524323,0.0,0.0,0.49405628,0.0,0.0,0.0,0.0,0.0,0.0,0.0,0.0,0,0,0,0,0,0,0,3,1,0,0,3,1,0,0
52548259,0.0,0.0,0.49387804,0.0,0.0,0.0,0.0,0.0,0.0,0.0,0.0,0,0,0,0,0,0,0,3,1,0,0,3,1,0,0
52568254,0.0,0.0,0.4944564,0.0,0.0,0.0,0.0,0.0,0.0,0.0,0.0,0,0,0,0,0,0,0,3,1,0,0,3,1,0,0
52589045,0.0,0.0,0.49496654,0.0,0.0,0.0,0.0,0.0,0.0,0.0,0.0,0,0,0,0,0,0,0,3,1,0,0,3,1,0,0
52609169,0.0,0.0,0.49504176,0.0,0.0,0.0,0.0,0.0,0.0,0.0,0.0,0,0,0,0,0,0,0,3,1,0,0,3,1,0,0
52632155,0.0,0.0,0.49470824,0.0,0.0,0.0,0.0,0.0,0.0,0.0,0.0,0,0,0,0,0,0,0,3,1,0,0,3,1,0,0
52653315,0.0,0.0,0.49430874,0.0,0.0,0.0,0.0,0.0,0.0,0.0,0.0,0,0,0,0,0,0,0,3,1,0,0,3,1,0,0
52676198,0.0,0.0,0.49448788,0.0,0.0,0.0,0.0,0.0,0.0,0.0,0.0,0,0,0,0,0,0,0,3,1,0,0,3,1,0,0
52700158,0.0,0.0,0.4948938,0.0,0.0,0.0,0.0,0.0,0.0,0.0,0.0,0,0,0,0,0,0,0,3,1,0,0,3,1,0,0
52720255,0.0,0.0,0.49500877,0.0,0.0,0.0,0.0,0.0,0.0,0.0,0.0,0,0,0,0,0,0,0,3,1,0,0,3,1,0,0
52744930,0.0,0.0,0.49444875,0.0,0.0,0.0,0.0,0.0,0.0,0.0,0.0,0,0,0,0,0,0,0,3,1,0,0,3,1,0,0
52768149,0.0,0.0,0.49317336,0.0,0.0,0.0,0.0,0.0,0.0,0.0,0.0,0,0,0,0,0,0,0,3,1,0,0,3,1,0,0
52792445,0.0,0.0,0.49281174,0.0,0.0,0.0,0.0,0.0,0.0,0.0,0.0,0,0,0,0,0,0,0,3,1,0,0,3,1,0,0
52812968,0.0,0.0,0.49371234,0.0,0.0,0.0,0.0,0.0,0.0,0.0,0.0,0,0,0,0,0,0,0,3,1,0,0,3,1,0,0
52837185,0.0,0.0,0.49437737,0.0,0.0,0.0,0.0,0.0,0.0,0.0,0.0,0,0,0,0,0,0,0,3,1,0,0,3,1,0,0
52857193,0.0,0.0,0.49470827,0.0,0.0,0.0,0.0,0.0,0.0,0.0,0.0,0,0,0,0,0,0,0,3,1,0,0,3,1,0,0
52880163,0.0,0.0,0.49470034,0.0,0.0,0.0,0.0,0.0,0.0,0.0,0.0,0,0,0,0,0,0,0,3,1,0,0,3,1,0,0
52900516,0.0,0.0,0.49437112,0.0,0.0,0.0,0.0,0.0,0.0,0.0,0.0,0,0,0,0,0,0,0,3,1,0,0,3,1,0,0
52924350,0.0,0.0,0.49425098,0.0,0.0,0.0,0.0,0.0,0.0,0.0,0.0,0,0,0,0,0,0,0,3,1,0,0,3,1,0,0
52948158,0.0,0.0,0.4940096,0.0,0.0,0.0,0.0,0.0,0.0,0.0,0.0,0,0,0,0,0,0,0,3,1,0,0,3,1,0,0
52968173,0.0,0.0,0.49394396,0.0,0.0,0.0,0.0,0.0,0.0,0.0,0.0,0,0,0,0,0,0,0,3,1,0,0,3,1,0,0
52988963,0.0,0.0,0.4944899,0.0,0.0,0.0,0.0,0.0,0.0,0.0,0.0,0,0,0,0,0,0,0,3,1,0,0,3,1,0,0
53010536,0.0,0.0,0.49496603,0.0,0.0,0.0,0.0,0.0,0.0,0.0,0.0,0,0,0,0,0,0,0,3,1,0,0,3,1,0,0
53033156,0.0,0.0,0.49477354,0.0,0.0,0.0,0.0,0.0,0.0,0.0,0.0,0,0,0,0,0,0,0,3,1,0,0,3,1,0,0
53053164,0.0,0.0,0.4940862,0.0,0.0,0.0,0.0,0.0,0.0,0.0,0.0,0,0,0,0,0,0,0,3,1,0,0,3,1,0,0
53073227,0.0,0.0,0.49334696,0.0,0.0,0.0,0.0,0.0,0.0,0.0,0.0,0,0,0,0,0,0,0,3,1,0,0,3,1,0,0
53096929,0.0,0.0,0.4926854,0.0,0.0,0.0,0.0,0.0,0.0,0.0,0.0,0,0,0,0,0,0,0,3,1,0,0,3,1,0,0
53116977,0.0,0.0,0.4928472,0.0,0.0,0.0,0.0,0.0,0.0,0.0,0.0,0,0,0,0,0,0,0,3,1,0,0,3,1,0,0
53141045,0.0,0.0,0.493821,0.0,0.0,0.0,0.0,0.0,0.0,0.0,0.0,0,0,0,0,0,0,0,3,1,0,0,3,1,0,0
53164126,0.0,0.0,0.49441057,0.0,0.0,0.0,0.0,0.0,0.0,0.0,0.0,0,0,0,0,0,0,0,3,1,0,0,3,1,0,0
53184521,0.0,0.0,0.49469924,0.0,0.0,0.0,0.0,0.0,0.0,0.0,0.0,0,0,0,0,0,0,0,3,1,0,0,3,1,0,0
53208364,0.0,0.0,0.494429,0.0,0.0,0.0,0.0,0.0,0.0,0.0,0.0,0,0,0,0,0,0,0,3,1,0,0,3,1,0,0
53230654,0.0,0.0,0.49374965,0.0,0.0,0.0,0.0,0.0,0.0,0.0,0.0,0,0,0,0,0,0,0,3,1,0,0,3,1,0,0
53254895,0.0,0.0,0.4940745,0.0,0.0,0.0,0.0,0.0,0.0,0.0,0.0,0,0,0,0,0,0,0,3,1,0,0,3,1,0,0
53277782,0.0,0.0,0.49485052,0.0,0.0,0.0,0.0,0.0,0.0,0.0,0.0,0,0,0,0,0,0,0,3,1,0,0,3,1,0,0
53301144,0.0,0.0,0.4948122,0.0,0.0,0.0,0.0,0.0,0.0,0.0,0.0,0,0,0,0,0,0,0,3,1,0,0,3,1,0,0
53325323,0.0,0.0,0.49490753,0.0,0.0,0.0,0.0,0.0,0.0,0.0,0.0,0,0,0,0,0,0,0,3,1,0,0,3,1,0,0
53348427,0.0,0.0,0.49573475,0.0,0.0,0.0,0.0,0.0,0.0,0.0,0.0,0,0,0,0,0,0,0,3,1,0,0,3,1,0,0
53372958,0.0,0.0,0.4954988,0.0,0.0,0.0,0.0,0.0,0.0,0.0,0.0,0,0,0,0,0,0,0,3,1,0,0,3,1,0,0
53393004,0.0,0.0,0.4942037,0.0,0.0,0.0,0.0,0.0,0.0,0.0,0.0,0,0,0,0,0,0,0,3,1,0,0,3,1,0,0
53416218,0.0,0.0,0.49350983,0.0,0.0,0.0,0.0,0.0,0.0,0.0,0.0,0,0,0,0,0,0,0,3,1,0,0,3,1,0,0
53436985,0.0,0.0,0.4937685,0.0,0.0,0.0,0.0,0.0,0.0,0.0,0.0,0,0,0,0,0,0,0,3,1,0,0,3,1,0,0
53460933,0.0,0.0,0.49452293,0.0,0.0,0.0,0.0,0.0,0.0,0.0,0.0,0,0,0,0,0,0,0,3,1,0,0,3,1,0,0
53483587,0.0,0.0,0.49501252,0.0,0.0,0.0,0.0,0.0,0.0,0.0,0.0,0,0,0,0,0,0,0,3,1,0,0,3,1,0,0
53504544,0.0,0.0,0.49478427,0.0,0.0,0.0,0.0,0.0,0.0,0.0,0.0,0,0,0,0,0,0,0,3,1,0,0,3,1,0,0
53524935,0.0,0.0,0.49408108,0.0,0.0,0.0,0.0,0.0,0.0,0.0,0.0,0,0,0,0,0,0,0,3,1,0,0,3,1,0,0
53548159,0.0,0.0,0.49360445,0.0,0.0,0.0,0.0,0.0,0.0,0.0,0.0,0,0,0,0,0,0,0,3,1,0,0,3,1,0,0
53568982,0.0,0.0,0.4938275,0.0,0.0,0.0,0.0,0.0,0.0,0.0,0.0,0,0,0,0,0,0,0,3,1,0,0,3,1,0,0
53591375,0.0,0.0,0.4945262,0.0,0.0,0.0,0.0,0.0,0.0,0.0,0.0,0,0,0,0,0,0,0,3,1,0,0,3,1,0,0
53612538,0.0,0.0,0.4950022,0.0,0.0,0.0,0.0,0.0,0.0,0.0,0.0,0,0,0,0,0,0,0,3,1,0,0,3,1,0,0
53632177,0.0,0.0,0.49504128,0.0,0.0,0.0,0.0,0.0,0.0,0.0,0.0,0,0,0,0,0,0,0,3,1,0,0,3,1,0,0
53656147,0.0,0.0,0.4949625,0.0,0.0,0.0,0.0,0.0,0.0,0.0,0.0,0,0,0,0,0,0,0,3,1,0,0,3,1,0,0
53676928,0.0,0.0,0.49492577,0.0,0.0,0.0,0.0,0.0,0.0,0.0,0.0,0,0,0,0,0,0,0,3,1,0,0,3,1,0,0
53699606,0.0,0.0,0.49492761,0.0,0.0,0.0,0.0,0.0,0.0,0.0,0.0,0,0,0,0,0,0,0,3,1,0,0,3,1,0,0
53719473,0.0,0.0,0.494674,0.0,0.0,0.0,0.0,0.0,0.0,0.0,0.0,0,0,0,0,0,0,0,3,1,0,0,3,1,0,0
53744123,0.0,0.0,0.49431846,0.0,0.0,0.0,0.0,0.0,0.0,0.0,0.0,0,0,0,0,0,0,0,3,1,0,0,3,1,0,0
53765173,0.0,0.0,0.4942367,0.0,0.0,0.0,0.0,0.0,0.0,0.0,0.0,0,0,0,0,0,0,0,3,1,0,0,3,1,0,0
53789316,0.0,0.0,0.49401462,0.0,0.0,0.0,0.0,0.0,0.0,0.0,0.0,0,0,0,0,0,0,0,3,1,0,0,3,1,0,0
53809146,0.0,0.0,0.49368712,0.0,0.0,0.0,0.0,0.0,0.0,0.0,0.0,0,0,0,0,0,0,0,3,1,0,0,3,1,0,0
53833016,0.0,0.0,0.4938711,0.0,0.0,0.0,0.0,0.0,0.0,0.0,0.0,0,0,0,0,0,0,0,3,1,0,0,3,1,0,0
53856358,0.0,0.0,0.49452615,0.0,0.0,0.0,0.0,0.0,0.0,0.0,0.0,0,0,0,0,0,0,0,3,1,0,0,3,1,0,0
53876929,0.0,0.0,0.4949937,0.0,0.0,0.0,0.0,0.0,0.0,0.0,0.0,0,0,0,0,0,0,0,3,1,0,0,3,1,0,0
53897316,0.0,0.0,0.4947767,0.0,0.0,0.0,0.0,0.0,0.0,0.0,0.0,0,0,0,0,0,0,0,3,1,0,0,3,1,0,0
53921221,0.0,0.0,0.49434346,0.0,0.0,0.0,0.0,0.0,0.0,0.0,0.0,0,0,0,0,0,0,0,3,1,0,0,3,1,0,0
53944166,0.0,0.0,0.49422586,0.0,0.0,0.0,0.0,0.0,0.0,0.0,0.0,0,0,0,0,0,0,0,3,1,0,0,3,1,0,0
53964939,0.0,0.0,0.49400574,0.0,0.0,0.0,0.0,0.0,0.0,0.0,0.0,0,0,0,0,0,0,0,3,1,0,0,3,1,0,0
53987556,0.0,0.0,0.49342445,0.0,0.0,0.0,0.0,0.0,0.0,0.0,0.0,0,0,0,0,0,0,0,3,1,0,0,3,1,0,0
54009173,0.0,0.0,0.49299127,0.0,0.0,0.0,0.0,0.0,0.0,0.0,0.0,0,0,0,0,0,0,0,3,1,0,0,3,1,0,0
54028989,0.0,0.0,0.4932065,0.0,0.0,0.0,0.0,0.0,0.0,0.0,0.0,0,0,0,0,0,0,0,3,1,0,0,3,1,0,0
54049172,0.0,0.0,0.49363235,0.0,0.0,0.0,0.0,0.0,0.0,0.0,0.0,0,0,0,0,0,0,0,3,1,0,0,3,1,0,0
54071368,0.0,0.0,0.49374756,0.0,0.0,0.0,0.0,0.0,0.0,0.0,0.0,0,0,0,0,0,0,0,3,1,0,0,3,1,0,0
54092962,0.0,0.0,0.49396825,0.0,0.0,0.0,0.0,0.0,0.0,0.0,0.0,0,0,0,0,0,0,0,3,1,0,0,3,1,0,0
54113365,0.0,0.0,0.49455017,0.0,0.0,0.0,0.0,0.0,0.0,0.0,0.0,0,0,0,0,0,0,0,3,1,0,0,3,1,0,0
54136401,0.0,0.0,0.49498352,0.0,0.0,0.0,0.0,0.0,0.0,0.0,0.0,0,0,0,0,0,0,0,3,1,0,0,3,1,0,0
54157779,0.0,0.0,0.49502975,0.0,0.0,0.0,0.0,0.0,0.0,0.0,0.0,0,0,0,0,0,0,0,3,1,0,0,3,1,0,0
54182125,0.0,0.0,0.49496195,0.0,0.0,0.0,0.0,0.0,0.0,0.0,0.0,0,0,0,0,0,0,0,3,1,0,0,3,1,0,0
54204970,0.0,0.0,0.49492782,0.0,0.0,0.0,0.0,0.0,0.0,0.0,0.0,0,0,0,0,0,0,0,3,1,0,0,3,1,0,0
54229180,0.0,0.0,0.49492845,0.0,0.0,0.0,0.0,0.0,0.0,0.0,0.0,0,0,0,0,0,0,0,3,1,0,0,3,1,0,0
54252503,0.0,0.0,0.49493536,0.0,0.0,0.0,0.0,0.0,0.0,0.0,0.0,0,0,0,0,0,0,0,3,1,0,0,3,1,0,0
54273153,0.0,0.0,0.49493778,0.0,0.0,0.0,0.0,0.0,0.0,0.0,0.0,0,0,0,0,0,0,0,3,1,0,0,3,1,0,0
54293151,0.0,0.0,0.49493736,0.0,0.0,0.0,0.0,0.0,0.0,0.0,0.0,0,0,0,0,0,0,0,3,1,0,0,3,1,0,0
54313153,0.0,0.0,0.49467525,0.0,0.0,0.0,0.0,0.0,0.0,0.0,0.0,0,0,0,0,0,0,0,3,1,0,0,3,1,0,0
54336155,0.0,0.0,0.494317,0.0,0.0,0.0,0.0,0.0,0.0,0.0,0.0,0,0,0,0,0,0,0,3,1,0,0,3,1,0,0
54360528,0.0,0.0,0.49449742,0.0,0.0,0.0,0.0,0.0,0.0,0.0,0.0,0,0,0,0,0,0,0,3,1,0,0,3,1,0,0
54380934,0.0,0.0,0.49463424,0.0,0.0,0.0,0.0,0.0,0.0,0.0,0.0,0,0,0,0,0,0,0,3,1,0,0,3,1,0,0
54403392,0.0,0.0,0.49412653,0.0,0.0,0.0,0.0,0.0,0.0,0.0,0.0,0,0,0,0,0,0,0,3,1,0,0,3,1,0,0
54425208,0.0,0.0,0.4933891,0.0,0.0,0.0,0.0,0.0,0.0,0.0,0.0,0,0,0,0,0,0,0,3,1,0,0,3,1,0,0
54448972,0.0,0.0,0.49269307,0.0,0.0,0.0,0.0,0.0,0.0,0.0,0.0,0,0,0,0,0,0,0,3,1,0,0,3,1,0,0
54469344,0.0,0.0,0.49284178,0.0,0.0,0.0,0.0,0.0,0.0,0.0,0.0,0,0,0,0,0,0,0,3,1,0,0,3,1,0,0
54493007,0.0,0.0,0.49407893,0.0,0.0,0.0,0.0,0.0,0.0,0.0,0.0,0,0,0,0,0,0,0,3,1,0,0,3,1,0,0
54513172,0.0,0.0,0.49502993,0.0,0.0,0.0,0.0,0.0,0.0,0.0,0.0,0,0,0,0,0,0,0,3,1,0,0,3,1,0,0
54536934,0.0,0.0,0.4951391,0.0,0.0,0.0,0.0,0.0,0.0,0.0,0.0,0,0,0,0,0,0,0,3,1,0,0,3,1,0,0
54561059,0.0,0.0,0.49499327,0.0,0.0,0.0,0.0,0.0,0.0,0.0,0.0,0,0,0,0,0,0,0,3,1,0,0,3,1,0,0
54584965,0.0,0.0,0.494918,0.0,0.0,0.0,0.0,0.0,0.0,0.0,0.0,0,0,0,0,0,0,0,3,1,0,0,3,1,0,0
54608945,0.0,0.0,0.49465722,0.0,0.0,0.0,0.0,0.0,0.0,0.0,0.0,0,0,0,0,0,0,0,3,1,0,0,3,1,0,0
54628970,0.0,0.0,0.49405265,0.0,0.0,0.0,0.0,0.0,0.0,0.0,0.0,0,0,0,0,0,0,0,3,1,0,0,3,1,0,0
54649311,0.0,0.0,0.49361882,0.0,0.0,0.0,0.0,0.0,0.0,0.0,0.0,0,0,0,0,0,0,0,3,1,0,0,3,1,0,0
54673149,0.0,0.0,0.4938384,0.0,0.0,0.0,0.0,0.0,0.0,0.0,0.0,0,0,0,0,0,0,0,3,1,0,0,3,1,0,0
54697173,0.0,0.0,0.49452743,0.0,0.0,0.0,0.0,0.0,0.0,0.0,0.0,0,0,0,0,0,0,0,3,1,0,0,3,1,0,0
54716935,0.0,0.0,0.49500057,0.0,0.0,0.0,0.0,0.0,0.0,0.0,0.0,0,0,0,0,0,0,0,3,1,0,0,3,1,0,0
54741164,0.0,0.0,0.494779,0.0,0.0,0.0,0.0,0.0,0.0,0.0,0.0,0,0,0,0,0,0,0,3,1,0,0,3,1,0,0
54764958,0.0,0.0,0.49434295,0.0,0.0,0.0,0.0,0.0,0.0,0.0,0.0,0,0,0,0,0,0,0,3,1,0,0,3,1,0,0
54784966,0.0,0.0,0.49448672,0.0,0.0,0.0,0.0,0.0,0.0,0.0,0.0,0,0,0,0,0,0,0,3,1,0,0,3,1,0,0
54809198,0.0,0.0,0.4948867,0.0,0.0,0.0,0.0,0.0,0.0,0.0,0.0,0,0,0,0,0,0,0,3,1,0,0,3,1,0,0
54832952,0.0,0.0,0.49500635,0.0,0.0,0.0,0.0,0.0,0.0,0.0,0.0,0,0,0,0,0,0,0,3,1,0,0,3,1,0,0
54852965,0.0,0.0,0.49497223,0.0,0.0,0.0,0.0,0.0,0.0,0.0,0.0,0,0,0,0,0,0,0,3,1,0,0,3,1,0,0
54877074,0.0,0.0,0.49441326,0.0,0.0,0.0,0.0,0.0,0.0,0.0,0.0,0,0,0,0,0,0,0,3,1,0,0,3,1,0,0
54901316,0.0,0.0,0.4936904,0.0,0.0,0.0,0.0,0.0,0.0,0.0,0.0,0,0,0,0,0,0,0,3,1,0,0,3,1,0,0
54920969,0.0,0.0,0.4940557,0.0,0.0,0.0,0.0,0.0,0.0,0.0,0.0,0,0,0,0,0,0,0,3,1,0,0,3,1,0,0
54945153,0.0,0.0,0.4948552,0.0,0.0,0.0,0.0,0.0,0.0,0.0,0.0,0,0,0,0,0,0,0,3,1,0,0,3,1,0,0
54965133,0.0,0.0,0.4950791,0.0,0.0,0.0,0.0,0.0,0.0,0.0,0.0,0,0,0,0,0,0,0,3,1,0,0,3,1,0,0
54989016,0.0,0.0,0.49500525,0.0,0.0,0.0,0.0,0.0,0.0,0.0,0.0,0,0,0,0,0,0,0,3,1,0,0,3,1,0,0
55009342,0.0,0.0,0.49467266,0.0,0.0,0.0,0.0,0.0,0.0,0.0,0.0,0,0,0,0,0,0,0,3,1,0,0,3,1,0,0
55032963,0.0,0.0,0.4940413,0.0,0.0,0.0,0.0,0.0,0.0,0.0,0.0,0,0,0,0,0,0,0,3,1,0,0,3,1,0,0
55052964,0.0,0.0,0.4938731,0.0,0.0,0.0,0.0,0.0,0.0,0.0,0.0,0,0,0,0,0,0,0,3,1,0,0,3,1,0,0
55076967,0.0,0.0,0.49445754,0.0,0.0,0.0,0.0,0.0,0.0,0.0,0.0,0,0,0,0,0,0,0,3,1,0,0,3,1,0,0
55100958,0.0,0.0,0.4949679,0.0,0.0,0.0,0.0,0.0,0.0,0.0,0.0,0,0,0,0,0,0,0,3,1,0,0,3,1,0,0
55120953,0.0,0.0,0.49504206,0.0,0.0,0.0,0.0,0.0,0.0,0.0,0.0,0,0,0,0,0,0,0,3,1,0,0,3,1,0,0
55140933,0.0,0.0,0.49496955,0.0,0.0,0.0,0.0,0.0,0.0,0.0,0.0,0,0,0,0,0,0,0,3,1,0,0,3,1,0,0
55165171,0.0,0.0,0.4946667,0.0,0.0,0.0,0.0,0.0,0.0,0.0,0.0,0,0,0,0,0,0,0,3,1,0,0,3,1,0,0
55189317,0.0,0.0,0.49404606,0.0,0.0,0.0,0.0,0.0,0.0,0.0,0.0,0,0,0,0,0,0,0,3,1,0,0,3,1,0,0
55213179,0.0,0.0,0.493353,0.0,0.0,0.0,0.0,0.0,0.0,0.0,0.0,0,0,0,0,0,0,0,3,1,0,0,3,1,0,0
55233202,0.0,0.0,0.492957,0.0,0.0,0.0,0.0,0.0,0.0,0.0,0.0,0,0,0,0,0,0,0,3,1,0,0,3,1,0,0
55256974,0.0,0.0,0.4932078,0.0,0.0,0.0,0.0,0.0,0.0,0.0,0.0,0,0,0,0,0,0,0,3,1,0,0,3,1,0,0
55281173,0.0,0.0,0.49363953,0.0,0.0,0.0,0.0,0.0,0.0,0.0,0.0,0,0,0,0,0,0,0,3,1,0,0,3,1,0,0
55304932,0.0,0.0,0.49374995,0.0,0.0,0.0,0.0,0.0,0.0,0.0,0.0,0,0,0,0,0,0,0,3,1,0,0,3,1,0,0
55328948,0.0,0.0,0.49370623,0.0,0.0,0.0,0.0,0.0,0.0,0.0,0.0,0,0,0,0,0,0,0,3,1,0,0,3,1,0,0
55348958,0.0,0.0,0.49366844,0.0,0.0,0.0,0.0,0.0,0.0,0.0,0.0,0,0,0,0,0,0,0,3,1,0,0,3,1,0,0
55369319,0.0,0.0,0.49366304,0.0,0.0,0.0,0.0,0.0,0.0,0.0,0.0,0,0,0,0,0,0,0,3,1,0,0,3,1,0,0
55388984,0.0,0.0,0.49366847,0.0,0.0,0.0,0.0,0.0,0.0,0.0,0.0,0,0,0,0,0,0,0,3,1,0,0,3,1,0,0
55409055,0.0,0.0,0.49367154,0.0,0.0,0.0,0.0,0.0,0.0,0.0,0.0,0,0,0,0,0,0,0,3,1,0,0,3,1,0,0
55429042,0.0,0.0,0.49367163,0.0,0.0,0.0,0.0,0.0,0.0,0.0,0.0,0,0,0,0,0,0,0,3,1,0,0,3,1,0,0
55449180,0.0,0.0,0.49367103,0.0,0.0,0.0,0.0,0.0,0.0,0.0,0.0,0,0,0,0,0,0,0,3,1,0,0,3,1,0,0
55472952,0.0,0.0,0.4936708,0.0,0.0,0.0,0.0,0.0,0.0,0.0,0.0,0,0,0,0,0,0,0,3,1,0,0,3,1,0,0
55492995,0.0,0.0,0.49367082,0.0,0.0,0.0,0.0,0.0,0.0,0.0,0.0,0,0,0,0,0,0,0,3,1,0,0,3,1,0,0
55513315,0.0,0.0,0.49367088,0.0,0.0,0.0,0.0,0.0,0.0,0.0,0.0,0,0,0,0,0,0,0,3,1,0,0,3,1,0,0
55533131,0.0,0.0,0.4936709,0.0,0.0,0.0,0.0,0.0,0.0,0.0,0.0,0,0,0,0,0,0,0,3,1,0,0,3,1,0,0
55556962,0.0,0.0,0.4936709,0.0,0.0,0.0,0.0,0.0,0.0,0.0,0.0,0,0,0,0,0,0,0,3,1,0,0,3,1,0,0
55577063,0.0,0.0,0.4936709,0.0,0.0,0.0,0.0,0.0,0.0,0.0,0.0,0,0,0,0,0,0,0,3,1,0,0,3,1,0,0
55599542,0.0,0.0,0.4936709,0.0,0.0,0.0,0.0,0.0,0.0,0.0,0.0,0,0,0,0,0,0,0,3,1,0,0,3,1,0,0
55622563,0.0,0.0,0.4936709,0.0,0.0,0.0,0.0,0.0,0.0,0.0,0.0,0,0,0,0,0,0,0,3,1,0,0,3,1,0,0
55644979,0.0,0.0,0.4936709,0.0,0.0,0.0,0.0,0.0,0.0,0.0,0.0,0,0,0,0,0,0,0,3,1,0,0,3,1,0,0
55665003,0.0,0.0,0.49340943,0.0,0.0,0.0,0.0,0.0,0.0,0.0,0.0,0,0,0,0,0,0,0,3,1,0,0,3,1,0,0
55687724,0.0,0.0,0.49305132,0.0,0.0,0.0,0.0,0.0,0.0,0.0,0.0,0,0,0,0,0,0,0,3,1,0,0,3,1,0,0
55710620,0.0,0.0,0.49323168,0.0,0.0,0.0,0.0,0.0,0.0,0.0,0.0,0,0,0,0,0,0,0,3,1,0,0,3,1,0,0
55732987,0.0,0.0,0.49362993,0.0,0.0,0.0,0.0,0.0,0.0,0.0,0.0,0,0,0,0,0,0,0,3,1,0,0,3,1,0,0
55752962,0.0,0.0,0.49400324,0.0,0.0,0.0,0.0,0.0,0.0,0.0,0.0,0,0,0,0,0,0,0,3,1,0,0,3,1,0,0
55777161,0.0,0.0,0.49432468,0.0,0.0,0.0,0.0,0.0,0.0,0.0,0.0,0,0,0,0,0,0,0,3,1,0,0,3,1,0,0
55801160,0.0,0.0,0.4941089,0.0,0.0,0.0,0.0,0.0,0.0,0.0,0.0,0,0,0,0,0,0,0,3,1,0,0,3,1,0,0
55825018,0.0,0.0,0.49370474,0.0,0.0,0.0,0.0,0.0,0.0,0.0,0.0,0,0,0,0,0,0,0,3,1,0,0,3,1,0,0
55845195,0.0,0.0,0.49359763,0.0,0.0,0.0,0.0,0.0,0.0,0.0,0.0,0,0,0,0,0,0,0,3,1,0,0,3,1,0,0
55868979,0.0,0.0,0.49363717,0.0,0.0,0.0,0.0,0.0,0.0,0.0,0.0,0,0,0,0,0,0,0,3,1,0,0,3,1,0,0
55889166,0.0,0.0,0.49367276,0.0,0.0,0.0,0.0,0.0,0.0,0.0,0.0,0,0,0,0,0,0,0,3,1,0,0,3,1,0,0
55913166,0.0,0.0,0.49367818,0.0,0.0,0.0,0.0,0.0,0.0,0.0,0.0,0,0,0,0,0,0,0,3,1,0,0,3,1,0,0
55933007,0.0,0.0,0.49367324,0.0,0.0,0.0,0.0,0.0,0.0,0.0,0.0,0,0,0,0,0,0,0,3,1,0,0,3,1,0,0
55953182,0.0,0.0,0.49367034,0.0,0.0,0.0,0.0,0.0,0.0,0.0,0.0,0,0,0,0,0,0,0,3,1,0,0,3,1,0,0
55976949,0.0,0.0,0.49367025,0.0,0.0,0.0,0.0,0.0,0.0,0.0,0.0,0,0,0,0,0,0,0,3,1,0,0,3,1,0,0
55996946,0.0,0.0,0.4934093,0.0,0.0,0.0,0.0,0.0,0.0,0.0,0.0,0,0,0,0,0,0,0,3,1,0,0,3,1,0,0
56016976,0.0,0.0,0.4930514,0.0,0.0,0.0,0.0,0.0,0.0,0.0,0.0,0,0,0,0,0,0,0,3,1,0,0,3,1,0,0
56040976,0.0,0.0,0.4932317,0.0,0.0,0.0,0.0,0.0,0.0,0.0,0.0,0,0,0,0,0,0,0,3,1,0,0,3,1,0,0
56060965,0.0,0.0,0.49389142,0.0,0.0,0.0,0.0,0.0,0.0,0.0,0.0,0,0,0,0,0,0,0,3,1,0,0,3,1,0,0
56084932,0.0,0.0,0.49540728,0.0015931012,0.0,0.0,0.0,0.0,0.0,0.0,0.0,0,0,0,0,0,0,0,3,1,0,0,3,1,0,0
56109001,0.0,0.0,0.5013294,0.0058990316,0.0,0.0,0.0,0.0,0.0,0.0,0.0,0,0,0,0,0,0,0,3,1,0,0,3,1,0,0
56129025,0.0,0.0,0.51132697,0.009833404,0.0,0.0,0.0,0.0,0.0,0.0,0.0,0,0,0,0,0,0,0,3,1,0,0,3,1,0,0
56149059,0.0,0.0,0.5224906,0.008850993,0.0,0.0,0.0,0.0,0.0,0.0,0.0,0,0,0,0,0,0,0,3,1,0,0,3,1,0,0
56172960,0.0,0.0,0.53747094,0.0034692825,0.0,0.0,0.0,0.0,0.0,0.0,0.0,0,0,0,0,0,0,0,3,1,0,0,3,1,0,0
56193153,0.0,0.0,0.5538947,-0.0004511689,0.0,0.0,0.0,0.0,0.0,0.0,0.0,0,0,0,0,0,0,0,3,1,0,0,3,1,0,0
56216981,0.0,0.0,0.5646134,-0.0008460593,0.0,0.0,0.0,0.0,0.0,0.0,0.0,0,0,0,0,0,0,0,3,1,0,0,3,1,0,0
56236971,0.0,0.0,0.56823456,-0.00022429599,0.0,0.0,0.0,0.0,0.0,0.0,0.0,0,0,0,0,0,0,0,3,1,0,0,3,1,0,0
56257013,0.0,0.0,0.57008857,8.278822e-05,0.0,0.0,0.0,0.0,0.0,0.0,0.0,0,0,0,0,0,0,0,3,1,0,0,3,1,0,0
56277153,0.0,0.0,0.5737254,7.4513184e-05,0.0,0.0,0.0,0.0,0.0,0.0,0.0,0,0,0,0,0,0,0,3,1,0,0,3,1,0,0
56300936,0.0,0.0,0.57889,1.1323418e-05,0.0,0.0,0.0,0.0,0.0,0.0,0.0,0,0,0,0,0,0,0,3,1,0,0,3,1,0,0
56320991,0.0,0.0,0.58793086,-1.040654e-05,0.0,0.0,0.0,0.0,0.0,0.0,0.0,0,0,0,0,0,0,0,3,1,0,0,3,1,0,0
56340969,0.0,0.0,0.5981049,-6.0628035e-06,0.0,0.0,0.0,0.0,0.0,0.0,0.0,0,0,0,0,0,0,0,3,1,0,0,3,1,0,0
56364975,0.0,0.0,0.60375494,-2.026069e-07,0.0,0.0,0.0,0.0,0.0,0.0,0.0,0,0,0,0,0,0,0,3,1,0,0,3,1,0,0
56389154,0.0,0.0,0.6072498,1.1123234e-06,0.0,0.0,0.0,0.0,0.0,0.0,0.0,0,0,0,0,0,0,0,3,1,0,0,3,1,0,0
56413152,0.0,0.0,0.61109567,4.5070743e-07,0.0,0.0,0.0,0.0,0.0,0.0,0.0,0,0,0,0,0,0,0,3,1,0,0,3,1,0,0
56433150,0.0,0.0,0.6131398,-5.126172e-08,0.0,0.0,0.0,0.0,0.0,0.0,0.0,0,0,0,0,0,0,0,3,1,0,0,3,1,0,0
56457159,0.0,0.0,0.61314213,-1.071982e-07,0.0,0.0,0.0,0.0,0.0,0.0,0.0,0,0,0,0,0,0,0,3,1,0,0,3,1,0,0
56477322,0.0,0.0,0.61195827,-2.9574808e-08,0.0,0.0,0.0,0.0,0.0,0.0,0.0,0,0,0,0,0,0,0,3,1,0,0,3,1,0,0
56500931,0.0,0.0,0.6070751,1.00623945e-08,0.0,0.0,0.0,0.0,0.0,0.0,0.0,0,0,0,0,0,0,0,3,1,0,0,3,1,0,0
56520970,0.0,0.0,0.5754319,9.509541e-09,0.0,0.0,0.0,0.0,0.0,0.0,0.0,0,0,0,0,0,0,0,3,1,0,0,3,1,0,0
56545218,0.0,0.0,0.5147517,1.5436593e-09,0.0,0.0,0.0,0.0,0.0,0.0,0.0,0,0,0,0,0,0,0,3,1,0,0,3,1,0,0
56565137,0.0,0.0,0.4776062,-1.2916933e-09,0.0,0.0,0.0,0.0,0.0,0.0,0.0,0,0,0,0,0,0,0,3,1,0,0,3,1,0,0
56588952,0.0,0.0,0.48099175,-7.7958867e-10,0.0,0.0,0.0,0.0,0.0,0.0,0.0,0,0,0,0,0,0,0,3,1,0,0,3,1,0,0
56609190,0.0,0.0,0.4921313,-3.5145414e-11,0.0,0.0,0.0,0.0,0.0,0.0,0.0,0,0,0,0,0,0,0,3,1,0,0,3,1,0,0
56632993,0.0,0.0,0.49558473,1.3966851e-10,0.0,0.0,0.0,0.0,0.0,0.0,0.0,0,0,0,0,0,0,0,3,1,0,0,3,1,0,0
56653000,0.0,0.0,0.49467957,5.849335e-11,0.0,0.0,0.0,0.0,0.0,0.0,0.0,0,0,0,0,0,0,0,3,1,0,0,3,1,0,0
56676958,0.0,0.0,0.49366888,-5.734406e-12,0.0,0.0,0.0,0.0,0.0,0.0,0.0,0,0,0,0,0,0,0,3,1,0,0,3,1,0,0
56696965,0.0,0.0,0.49347264,-1.3572935e-11,0.0,0.0,0.0,0.0,0.0,0.0,0.0,0,0,0,0,0,0,0,3,1,0,0,3,1,0,0
56716949,0.0,0.0,0.49359804,-3.892683e-12,0.0,0.0,0.0,0.0,0.0,0.0,0.0,0,0,0,0,0,0,0,3,1,0,0,3,1,0,0
56736970,0.0,0.0,0.49368277,1.2193416e-12,0.0,0.0,0.0,0.0,0.0,0.0,0.0,0,0,0,0,0,0,0,3,1,0,0,3,1,0,0
56756971,0.0,0.0,0.49368957,1.2128284e-12,0.0,0.0,0.0,0.0,0.0,0.0,0.0,0,0,0,0,0,0,0,3,1,0,0,3,1,0,0
56781001,0.0,0.0,0.49367544,2.094069e-13,0.0,0.0,0.0,0.0,0.0,0.0,0.0,0,0,0,0,0,0,0,3,1,0,0,3,1,0,0
56804929,0.0,0.0,0.49340743,-1.6010933e-13,0.0,0.0,0.0,0.0,0.0,0.0,0.0,0,0,0,0,0,0,0,3,1,0,0,3,1,0,0
56824958,0.0,0.0,0.49174225,-1.0016991e-13,0.0,0.0,0.0,0.0,0.0,0.0,0.0,0,0,0,0,0,0,0,3,1,0,0,3,1,0,0
56844940,0.0,0.0,0.488826,-5.663595e-15,0.0,0.0,0.0,0.0,0.0,0.0,0.0,0,0,0,0,0,0,0,3,1,0,0,3,1,0,0
56864966,0.0,0.0,0.48310632,1.7521991e-14,0.0,0.0,0.0,0.0,0.0,0.0,0.0,0,0,0,0,0,0,0,3,1,0,0,3,1,0,0
56884968,0.0,0.0,0.4663977,0.003717236,0.0,0.0,0.0,0.0,0.0,0.0,0.0,0,0,0,0,0,0,0,3,1,0,0,3,1,0,0
56905163,0.0,0.0,0.44277808,0.012525328,0.0,0.0,0.0,0.0,0.0,0.0,0.0,0,0,0,0,0,0,0,3,1,0,0,3,1,0,0
56925153,0.0,0.0,0.41561866,0.05275566,0.0,0.0,0.0,0.0,0.0,0.0,0.0,0,0,0,0,0,0,0,3,1,0,0,3,1,0,0
56949004,0.0,0.0,0.36470944,0.1572349,0.0,0.0,0.0,0.0,0.0,0.0,0.0,0,0,0,0,0,0,0,3,1,0,0,3,1,0,0
56969188,0.0,0.0,0.3033638,0.26868224,0.0,0.0,0.0,0.0,0.0,0.0,0.0,0,0,0,0,0,0,0,3,1,0,0,3,1,0,0
56989204,0.0,0.0,0.26059315,0.33401322,0.0,0.0,0.0,0.0,0.0,0.0,0.0,0,0,0,0,0,0,0,3,1,0,0,3,1,0,0
57013073,0.0,0.0,0.21182546,0.39633846,0.0,0.0,0.0,0.0,0.0,0.0,0.0,0,0,0,0,0,0,0,3,1,0,0,3,1,0,0
57036960,0.0,0.0,0.13602427,0.48198327,0.0,0.0,0.0,0.0,0.0,0.0,0.0,0,0,0,0,0,0,0,3,1,0,0,3,1,0,0
57056978,0.0,0.0,0.0668353,0.55718565,0.0,0.0,0.0,0.0,0.0,0.0,0.0,0,0,0,0,0,0,0,3,1,0,0,3,1,0,0
57077191,0.0,0.0,0.02943982,0.60112846,0.0,0.0,0.0,0.0,0.0,0.0,0.0,0,0,0,0,0,0,0,3,1,0,0,3,1,0,0
57100938,0.0,0.0,0.008250761,0.63928205,0.0,0.0,0.0,0.0,0.0,0.0,0.0,0,0,0,0,0,0,0,3,1,0,0,3,1,0,0
57125318,0.0,0.0,0.0,0.6872588,0.0,0.0,0.0,0.0,0.0,0.0,0.0,0,0,0,0,0,0,0,3,1,0,0,3,1,0,0
57149054,0.0,0.0,0.0,0.7277854,0.0,0.0,0.0,0.0,0.0,0.0,0.0,0,0,0,0,0,0,0,3,1,0,0,3,1,0,0
57173136,0.0,0.0,0.0,0.76151127,0.0,0.0,0.0,0.0,0.0,0.0,0.0,0,0,0,0,0,0,0,3,1,0,0,3,1,0,0
57193140,0.0,0.0,0.00035174968,0.81064504,0.0,0.0,0.0,0.0,0.0,0.0,0.0,0,0,0,0,0,0,0,3,1,0,0,3,1,0,0
57213169,0.0,0.0,0.00021536855,0.87264544,0.0,0.0,0.0,0.0,0.0,0.0,0.0,0,0,0,0,0,0,0,3,1,0,0,3,1,0,0
57236947,0.0,0.0,1.0706435e-05,0.9231075,0.0,0.0,0.0,0.0,0.0,0.0,0.0,0,0,0,0,0,0,0,3,1,0,0,3,1,0,0
57256941,0.0,0.0,0.0,0.9561656,0.0,0.0,0.0,0.0,0.0,0.0,0.0,0,0,0,0,0,0,0,3,1,0,0,3,1,0,0
57280938,0.0,0.0,0.0,0.98452085,0.0,0.0,0.0,0.0,0.0,0.0,0.0,0,0,0,0,0,0,0,3,1,0,0,3,1,0,0
57301055,0.0,0.0,1.4901876e-06,1.0,0.0,0.0,0.0,0.0,0.0,0.0,0.0,0,0,0,0,0,0,0,3,1,0,0,3,1,0,0
57325166,0.0,0.0,3.7264876e-06,1.0,0.0,0.0,0.0,0.0,0.0,0.0,0.0,0,0,0,0,0,0,0,3,1,0,0,3,1,0,0
57348987,0.0,0.0,1.0852366e-06,1.0,0.0,0.0,0.0,0.0,0.0,0.0,0.0,0,0,0,0,0,0,0,3,1,0,0,3,1,0,0
57369005,0.0,0.0,0.0,0.9990695,0.0,0.0,0.0,0.0,0.0,0.0,0.0,0,0,0,0,0,0,0,3,1,0,0,3,1,0,0
57388983,0.0,0.0,0.0,0.9978708,0.0,0.0,0.0,0.0,0.0,0.0,0.0,0,0,0,0,0,0,0,3,1,0,0,3,1,0,0
57408939,0.0,0.0,0.0,0.99780226,0.0,0.0,0.0,0.0,0.0,0.0,0.0,0,0,0,0,0,0,0,3,1,0,0,3,1,0,0
57429119,0.0,0.0,4.3575465e-08,0.9990738,0.0,0.0,0.0,0.0,0.0,0.0,0.0,0,0,0,0,0,0,0,3,1,0,0,3,1,0,0
57453153,0.0,0.0,2.7664761e-08,1.0,0.0,0.0,0.0,0.0,0.0,0.0,0.0,0,0,0,0,0,0,0,3,1,0,0,3,1,0,0
57477159,0.0,0.0,1.6901219e-09,1.0,0.0,0.0,0.0,0.0,0.0,0.0,0.0,0,0,0,0,0,0,0,3,1,0,0,3,1,0,0
57497003,0.0,0.0,0.0,0.9995308,0.0,0.0,0.0,0.0,0.0,0.0,0.0,0,0,0,0,0,0,0,3,1,0,0,3,1,0,0
57521318,0.0,0.0,0.0,0.9987227,0.0,0.0,0.0,0.0,0.0,0.0,0.0,0,0,0,0,0,0,0,3,1,0,0,3,1,0,0
57541001,0.0,0.0,1.6174187e-10,0.9990888,0.0,0.0,0.0,0.0,0.0,0.0,0.0,0,0,0,0,0,0,0,3,1,0,0,3,1,0,0
57564969,0.0,0.0,4.7136617e-10,0.99991345,0.0,0.0,0.0,0.0,0.0,0.0,0.0,0,0,0,0,0,0,0,3,1,0,0,3,1,0,0
57588996,0.0,0.0,1.4251104e-10,1.0,0.0,0.0,0.0,0.0,0.0,0.0,0.0,0,0,0,0,0,0,0,3,1,0,0,3,1,0,0
57612966,0.0,0.0,0.0,0.9995401,0.0,0.0,0.0,0.0,0.0,0.0,0.0,0,0,0,0,0,0,0,3,1,0,0,3,1,0,0
57633132,0.0,0.0,0.0,0.9987393,0.0,0.0,0.0,0.0,0.0,0.0,0.0,0,0,0,0,0,0,0,3,1,0,0,3,1,0,0
57653134,0.0,0.0,0.0,0.9990932,0.0,0.0,0.0,0.0,0.0,0.0,0.0,0,0,0,0,0,0,0,3,1,0,0,3,1,0,0
57676936,0.0,0.0,5.390218e-12,0.9999118,0.0,0.0,0.0,0.0,0.0,0.0,0.0,0,0,0,0,0,0,0,3,1,0,0,3,1,0,0
57701342,0.0,0.0,3.5510661e-12,1.0,0.0,0.0,0.0,0.0,0.0,0.0,0.0,0,0,0,0,0,0,0,3,1,0,0,3,1,0,0
57725112,0.0,0.0,2.5672644e-13,1.0,0.0,0.0,0.0,0.0,0.0,0.0,0.0,0,0,0,0,0,0,0,3,1,0,0,3,1,0,0
57749131,0.0,0.0,0.0,0.9999978,0.0,0.0,0.0,0.0,0.0,0.0,0.0,0,0,0,0,0,0,0,3,1,0,0,3,1,0,0
57769001,0.0,0.0,0.0,0.99998534,0.0,0.0,0.0,0.0,0.0,0.0,0.0,0,0,0,0,0,0,0,3,1,0,0,3,1,0,0
57793132,0.0,0.0,1.7011523e-14,0.999995,0.0,0.0,0.0,0.0,0.0,0.0,0.0,0,0,0,0,0,0,0,3,1,0,0,3,1,0,0
57813135,0.0,0.0,5.9580894e-14,1.0,0.0,0.0,0.0,0.0,0.0,0.0,0.0,0,0,0,0,0,0,0,3,1,0,0,3,1,0,0
57832990,0.0,0.0,1.868564e-14,1.0,0.0,0.0,0.0,0.0,0.0,0.0,0.0,0,0,0,0,0,0,0,3,1,0,0,3,1,0,0
57857190,0.0,0.0,0.0,1.0,0.0,0.0,0.0,0.0,0.0,0.0,0.0,0,0,0,0,0,0,0,3,1,0,0,3,1,0,0
57877161,0.0,0.0,0.0,0.99999994,0.0,0.0,0.0,0.0,0.0,0.0,0.0,0,0,0,0,0,0,0,3,1,0,0,3,1,0,0
57900974,0.0,0.0,0.0,0.99999994,0.0,0.0,0.0,0.0,0.0,0.0,0.0,0,0,0,0,0,0,0,3,1,0,0,3,1,0,0
57921157,0.0,0.0,6.657136e-16,1.0,0.0,0.0,0.0,0.0,0.0,0.0,0.0,0,0,0,0,0,0,0,3,1,0,0,3,1,0,0
57944998,0.0,0.0,4.554939e-16,1.0,0.0,0.0,0.0,0.0,0.0,0.0,0.0,0,0,0,0,0,0,0,3,1,0,0,3,1,0,0
57965029,0.0,0.0,3.796023e-17,1.0,0.0,0.0,0.0,0.0,0.0,0.0,0.0,0,0,0,0,0,0,0,3,1,0,0,3,1,0,0
57985201,0.0,0.0,0.0,1.0,0.0,0.0,0.0,0.0,0.0,0.0,0.0,0,0,0,0,0,0,0,3,1,0,0,3,1,0,0
58008981,0.0,0.0,0.0,1.0,0.0,0.0,0.0,0.0,0.0,0.0,0.0,0,0,0,0,0,0,0,3,1,0,0,3,1,0,0
58029053,0.0,0.0,1.7079355e-18,1.0,0.0,0.0,0.0,0.0,0.0,0.0,0.0,0,0,0,0,0,0,0,3,1,0,0,3,1,0,0
58053175,0.0,0.0,7.525588e-18,1.0,0.0,0.0,0.0,0.0,0.0,0.0,0.0,0,0,0,0,0,0,0,3,1,0,0,3,1,0,0
58076964,0.0,0.0,2.4464696e-18,1.0,0.0,0.0,0.0,0.0,0.0,0.0,0.0,0,0,0,0,0,0,0,3,1,0,0,3,1,0,0
58097316,0.0,0.0,0.0,1.0,0.0,0.0,0.0,0.0,0.0,0.0,0.0,0,0,0,0,0,0,0,3,1,0,0,3,1,0,0
58116968,0.0,0.0,0.0,1.0,0.0,0.0,0.0,0.0,0.0,0.0,0.0,0,0,0,0,0,0,0,3,1,0,0,3,1,0,0
58136964,0.0,0.0,0.0,1.0,0.0,0.0,0.0,0.0,0.0,0.0,0.0,0,0,0,0,0,0,0,3,1,0,0,3,1,0,0
58156965,0.0,0.0,8.208081e-20,1.0,0.0,0.0,0.0,0.0,0.0,0.0,0.0,0,0,0,0,0,0,0,3,1,0,0,3,1,0,0
58176973,0.0,0.0,5.838516e-20,1.0,0.0,0.0,0.0,0.0,0.0,0.0,0.0,0,0,0,0,0,0,0,3,1,0,0,3,1,0,0
58197157,0.0,0.0,5.5021946e-21,1.0,0.0,0.0,0.0,0.0,0.0,0.0,0.0,0,0,0,0,0,0,0,3,1,0,0,3,1,0,0
58221019,0.0,0.0,0.0,1.0,0.0,0.0,0.0,0.0,0.0,0.0,0.0,0,0,0,0,0,0,0,3,1,0,0,3,1,0,0
58244962,0.0,0.0,0.0,1.0,0.0,0.0,0.0,0.0,0.0,0.0,0.0,0,0,0,0,0,0,0,3,1,0,0,3,1,0,0
58269029,0.0,0.0,1.5893095e-22,1.0,0.0,0.0,0.0,0.0,0.0,0.0,0.0,0,0,0,0,0,0,0,3,1,0,0,3,1,0,0
58292969,0.0,0.0,9.498465e-22,1.0,0.0,0.0,0.0,0.0,0.0,0.0,0.0,0,0,0,0,0,0,0,3,1,0,0,3,1,0,0
58313380,0.0,0.0,3.19873e-22,1.0,0.0,0.0,0.0,0.0,0.0,0.0,0.0,0,0,0,0,0,0,0,3,1,0,0,3,1,0,0
58337152,0.0,0.0,0.0,1.0,0.0,0.0,0.0,0.0,0.0,0.0,0.0,0,0,0,0,0,0,0,3,1,0,0,3,1,0,0
58356982,0.0,0.0,0.0,1.0,0.0,0.0,0.0,0.0,0.0,0.0,0.0,0,0,0,0,0,0,0,3,1,0,0,3,1,0,0
58376983,0.0,0.0,0.0,1.0,0.0,0.0,0.0,0.0,0.0,0.0,0.0,0,0,0,0,0,0,0,3,1,0,0,3,1,0,0
58397002,0.0,0.0,1.0102288e-23,1.0,0.0,0.0,0.0,0.0,0.0,0.0,0.0,0,0,0,0,0,0,0,3,1,0,0,3,1,0,0
58417035,0.0,0.0,7.478632e-24,0.99946904,0.0,0.0,0.0,0.0,0.0,0.0,0.0,0,0,0,0,0,0,0,3,1,0,0,3,1,0,0
58440950,0.0,0.0,7.8537133e-25,0.99874175,0.0,0.0,0.0,0.0,0.0,0.0,0.0,0,0,0,0,0,0,0,3,1,0,0,3,1,0,0
58464951,0.0,0.0,0.0,0.999108,0.0,0.0,0.0,0.0,0.0,0.0,0.0,0,0,0,0,0,0,0,3,1,0,0,3,1,0,0
58489154,0.0,0.0,0.0,0.9999168,0.0,0.0,0.0,0.0,0.0,0.0,0.0,0,0,0,0,0,0,0,3,1,0,0,3,1,0,0
58513160,0.0,0.0,1.2761485e-26,1.0,0.0,0.0,0.0,0.0,0.0,0.0,0.0,0,0,0,0,0,0,0,3,1,0,0,3,1,0,0
58536999,0.0,0.0,1.1979531e-25,0.9995385,0.0,0.0,0.0,0.0,0.0,0.0,0.0,0,0,0,0,0,0,0,3,1,0,0,3,1,0,0
58557180,0.0,0.0,4.1768734e-26,0.9982082,0.0,0.0,0.0,0.0,0.0,0.0,0.0,0,0,0,0,0,0,0,3,1,0,0,3,1,0,0
58580959,0.0,0.0,0.0,0.99783516,0.0,0.0,0.0,0.0,0.0,0.0,0.0,0,0,0,0,0,0,0,3,1,0,0,3,1,0,0
58601326,0.0,0.0,0.0,0.9990199,0.0,0.0,0.0,0.0,0.0,0.0,0.0,0,0,0,0,0,0,0,3,1,0,0,3,1,0,0
58621159,0.0,0.0,0.0,1.0,0.0,0.0,0.0,0.0,0.0,0.0,0.0,0,0,0,0,0,0,0,3,1,0,0,3,1,0,0
58644997,0.0,0.0,1.2409839e-27,1.0,0.0,0.0,0.0,0.0,0.0,0.0,0.0,0,0,0,0,0,0,0,3,1,0,0,3,1,0,0
58668956,0.0,0.0,9.572927e-28,0.99953616,0.0,0.0,0.0,0.0,0.0,0.0,0.0,0,0,0,0,0,0,0,3,1,0,0,3,1,0,0
58693165,0.0,0.0,1.1074161e-28,0.99872446,0.0,0.0,0.0,0.0,0.0,0.0,0.0,0,0,0,0,0,0,0,3,1,0,0,3,1,0,0
58713038,0.0,0.0,0.0,0.9990884,0.0,0.0,0.0,0.0,0.0,0.0,0.0,0,0,0,0,0,0,0,3,1,0,0,3,1,0,0
58736946,0.0,0.0,0.0,0.999913,0.0,0.0,0.0,0.0,0.0,0.0,0.0,0,0,0,0,0,0,0,3,1,0,0,3,1,0,0
58760961,0.0,0.0,6.710243e-31,1.0,0.0,0.0,0.0,0.0,0.0,0.0,0.0,0,0,0,0,0,0,0,3,1,0,0,3,1,0,0
58785136,0.0,0.0,1.5097082e-29,0.99954015,0.0,0.0,0.0,0.0,0.0,0.0,0.0,0,0,0,0,0,0,0,3,1,0,0,3,1,0,0
58808966,0.0,0.0,5.4473864e-30,0.9987394,0.0,0.0,0.0,0.0,0.0,0.0,0.0,0,0,0,0,0,0,0,3,1,0,0,3,1,0,0
58828964,0.0,0.0,0.0,0.99909323,0.0,0.0,0.0,0.0,0.0,0.0,0.0,0,0,0,0,0,0,0,3,1,0,0,3,1,0,0
58849126,0.0,0.0,0.0,0.9999118,0.0,0.0,0.0,0.0,0.0,0.0,0.0,0,0,0,0,0,0,0,3,1,0,0,3,1,0,0
58873132,0.0,0.0,0.0,1.0,0.0,0.0,0.0,0.0,0.0,0.0,0.0,0,0,0,0,0,0,0,3,1,0,0,3,1,0,0
58893135,0.0,0.0,1.5213112e-31,1.0,0.0,0.0,0.0,0.0,0.0,0.0,0.0,0,0,0,0,0,0,0,3,1,0,0,3,1,0,0
58913133,0.0,0.0,1.2245408e-31,0.9999978,0.0,0.0,0.0,0.0,0.0,0.0,0.0,0,0,0,0,0,0,0,3,1,0,0,3,1,0,0
58937149,0.0,0.0,1.5460457e-32,0.99998534,0.0,0.0,0.0,0.0,0.0,0.0,0.0,0,0,0,0,0,0,0,3,1,0,0,3,1,0,0
58956958,0.0,0.0,0.0,0.999995,0.0,0.0,0.0,0.0,0.0,0.0,0.0,0,0,0,0,0,0,0,3,1,0,0,3,1,0,0
58981212,0.0,0.0,0.0,1.0,0.0,0.0,0.0,0.0,0.0,0.0,0.0,0,0,0,0,0,0,0,3,1,0,0,3,1,0,0
59000961,0.0,0.0,0.0,1.0,0.0,0.0,0.0,0.0,0.0,0.0,0.0,0,0,0,0,0,0,0,3,1,0,0,3,1,0,0
59024957,0.0,0.0,1.901103e-33,1.0,0.0,0.0,0.0,0.0,0.0,0.0,0.0,0,0,0,0,0,0,0,3,1,0,0,3,1,0,0
59045193,0.0,0.0,7.0959855e-34,0.99999994,0.0,0.0,0.0,0.0,0.0,0.0,0.0,0,0,0,0,0,0,0,3,1,0,0,3,1,0,0
59069368,0.0,0.0,0.0,0.99999994,0.0,0.0,0.0,0.0,0.0,0.0,0.0,0,0,0,0,0,0,0,3,1,0,0,3,1,0,0
59092988,0.0,0.0,0.0,1.0,0.0,0.0,0.0,0.0,0.0,0.0,0.0,0,0,0,0,0,0,0,3,1,0,0,3,1,0,0
59112962,0.0,0.0,0.0,1.0,0.0,0.0,0.0,0.0,0.0,0.0,0.0,0,0,0,0,0,0,0,3,1,0,0,3,1,0,0
59136947,0.0,0.0,1.8608179e-35,1.0,0.0,0.0,0.0,0.0,0.0,0.0,0.0,0,0,0,0,0,0,0,3,1,0,0,3,1,0,0
59156961,0.0,0.0,1.5653448e-35,1.0,0.0,0.0,0.0,0.0,0.0,0.0,0.0,0,0,0,0,0,0,0,3,1,0,0,3,1,0,0
59177331,0.0,0.0,2.1406025e-36,1.0,0.0,0.0,0.0,0.0,0.0,0.0,0.0,0,0,0,0,0,0,0,3,1,0,0,3,1,0,0
59200948,0.0,0.0,0.0,1.0,0.0,0.0,0.0,0.0,0.0,0.0,0.0,0,0,0,0,0,0,0,3,1,0,0,3,1,0,0
59220934,0.0,0.0,0.0,1.0,0.0,0.0,0.0,0.0,0.0,0.0,0.0,0,0,0,0,0,0,0,3,1,0,0,3,1,0,0
59245006,0.0,0.0,0.0,1.0,0.0,0.0,0.0,0.0,0.0,0.0,0.0,0,0,0,0,0,0,0,3,1,0,0,3,1,0,0
59264994,0.0,0.0,2.3920472e-37,1.0,0.0,0.0,0.0,0.0,0.0,0.0,0.0,0,0,0,0,0,0,0,3,1,0,0,3,1,0,0
59288977,0.0,0.0,9.233098e-38,1.0,0.0,0.0,0.0,0.0,0.0,0.0,0.0,0,0,0,0,0,0,0,3,1,0,0,3,1,0,0
59313043,0.0,0.0,0.0,1.0,0.0,0.0,0.0,0.0,0.0,0.0,0.0,0,0,0,0,0,0,0,3,1,0,0,3,1,0,0
59333154,0.0,0.0,0.0,1.0,0.0,0.0,0.0,0.0,0.0,0.0,0.0,0,0,0,0,0,0,0,3,1,0,0,3,1,0,0
59357321,0.0,0.0,0.0,1.0,0.0,0.0,0.0,0.0,0.0,0.0,0.0,0,0,0,0,0,0,0,3,1,0,0,3,1,0,0
59377135,0.0,0.0,2.270604e-39,1.0,0.0,0.0,0.0,0.0,0.0,0.0,0.0,0,0,0,0,0,0,0,3,1,0,0,3,1,0,0
59400976,0.0,0.0,1.999664e-39,1.0,0.0,0.0,0.0,0.0,0.0,0.0,0.0,0,0,0,0,0,0,0,3,1,0,0,3,1,0,0
59425183,0.0,0.0,2.9431e-40,1.0,0.0,0.0,0.0,0.0,0.0,0.0,0.0,0,0,0,0,0,0,0,3,1,0,0,3,1,0,0
59448983,0.0,0.0,0.0,1.0,0.0,0.0,0.0,0.0,0.0,0.0,0.0,0,0,0,0,0,0,0,3,1,0,0,3,1,0,0
59473102,0.0,0.0,0.0,0.99946904,0.0,0.0,0.0,0.0,0.0,0.0,0.0,0,0,0,0,0,0,0,3,1,0,0,3,1,0,0
59493169,0.0,0.0,0.0,0.99874175,0.0,0.0,0.0,0.0,0.0,0.0,0.0,0,0,0,0,0,0,0,3,1,0,0,3,1,0,0
59513198,0.0,0.0,3.0072e-41,0.999108,0.0,0.0,0.0,0.0,0.0,0.0,0.0,0,0,0,0,0,0,0,3,1,0,0,3,1,0,0
59537318,0.0,0.0,1.2001e-41,0.9999168,0.0,0.0,0.0,0.0,0.0,0.0,0.0,0,0,0,0,0,0,0,3,1,0,0,3,1,0,0
59556938,0.0,0.0,0.0,1.0,0.0,0.0,0.0,0.0,0.0,0.0,0.0,0,0,0,0,0,0,0,3,1,0,0,3,1,0,0
59576949,0.0,0.0,0.0,1.0,0.0,0.0,0.0,0.0,0.0,0.0,0.0,0,0,0,0,0,0,0,3,1,0,0,3,1,0,0
59600977,0.0,0.0,0.0,0.99946654,0.0,0.0,0.0,0.0,0.0,0.0,0.0,0,0,0,0,0,0,0,3,1,0,0,3,1,0,0
59624967,0.0,0.0,2.77e-43,0.9987272,0.0,0.0,0.0,0.0,0.0,0.0,0.0,0,0,0,0,0,0,0,3,1,0,0,3,1,0,0
59648985,0.0,0.0,2.55e-43,0.9991031,0.0,0.0,0.0,0.0,0.0,0.0,0.0,0,0,0,0,0,0,0,3,1,0,0,3,1,0,0
59668997,0.0,0.0,4e-44,0.9999178,0.0,0.0,0.0,0.0,0.0,0.0,0.0,0,0,0,0,0,0,0,3,1,0,0,3,1,0,0
59693162,0.0,0.0,0.0,1.0,0.0,0.0,0.0,0.0,0.0,0.0,0.0,0,0,0,0,0,0,0,3,1,0,0,3,1,0,0
59712967,0.0,0.0,0.0,0.9995387,0.0,0.0,0.0,0.0,0.0,0.0,0.0,0,0,0,0,0,0,0,3,1,0,0,3,1,0,0
59736976,0.0,0.0,-0.0,0.998739,0.0,0.0,0.0,0.0,0.0,0.0,0.0,0,0,0,0,0,0,0,3,1,0,0,3,1,0,0
59756943,0.0,0.0,4e-45,0.9990933,0.0,0.0,0.0,0.0,0.0,0.0,0.0,0,0,0,0,0,0,0,3,1,0,0,3,1,0,0
59776957,0.0,0.0,1e-45,0.9999119,0.0,0.0,0.0,0.0,0.0,0.0,0.0,0,0,0,0,0,0,0,3,1,0,0,3,1,0,0
59797003,0.0,0.0,-0.0,1.0,0.0,0.0,0.0,0.0,0.0,0.0,0.0,0,0,0,0,0,0,0,3,1,0,0,3,1,0,0
59820973,0.0,0.0,0.0,1.0,0.0,0.0,0.0,0.0,0.0,0.0,0.0,0,0,0,0,0,0,0,3,1,0,0,3,1,0,0
59840931,0.0,0.0,0.0,0.9994668,0.0,0.0,0.0,0.0,0.0,0.0,0.0,0,0,0,0,0,0,0,3,1,0,0,3,1,0,0
59861332,0.0,0.0,0.0,0.9987271,0.0,0.0,0.0,0.0,0.0,0.0,0.0,0,0,0,0,0,0,0,3,1,0,0,3,1,0,0
59884933,0.0,0.0,0.0,0.999103,0.0,0.0,0.0,0.0,0.0,0.0,0.0,0,0,0,0,0,0,0,3,1,0,0,3,1,0,0
59904980,0.0,0.0,0.0,0.9999178,0.0,0.0,0.0,0.0,0.0,0.0,0.0,0,0,0,0,0,0,0,3,1,0,0,3,1,0,0
59928967,0.0,0.0,0.0,1.0,0.0,0.0,0.0,0.0,0.0,0.0,0.0,0,0,0,0,0,0,0,3,1,0,0,3,1,0,0
59948958,0.0,0.0,0.0,1.0,0.0,0.0,0.0,0.0,0.0,0.0,0.0,0,0,0,0,0,0,0,3,1,0,0,3,1,0,0
59969364,0.0,0.0,0.0,0.9999974,0.0,0.0,0.0,0.0,0.0,0.0,0.0,0,0,0,0,0,0,0,3,1,0,0,3,1,0,0
59992972,0.0,0.0,0.0,0.99998534,0.0,0.0,0.0,0.0,0.0,0.0,0.0,0,0,0,0,0,0,0,3,1,0,0,3,1,0,0
60012960,0.0,0.0,0.0,0.9999951,0.0,0.0,0.0,0.0,0.0,0.0,0.0,0,0,0,0,0,0,0,3,1,0,0,3,1,0,0
60032959,0.0,0.0,0.0,1.0,0.0,0.0,0.0,0.0,0.0,0.0,0.0,0,0,0,0,0,0,0,3,1,0,0,3,1,0,0
60057170,0.0,0.0,0.0,1.0,0.0,0.0,0.0,0.0,0.0,0.0,0.0,0,0,0,0,0,0,0,3,1,0,0,3,1,0,0
60080931,0.0,0.0,0.0,1.0,0.0,0.0,0.0,0.0,0.0,0.0,0.0,0,0,0,0,0,0,0,3,1,0,0,3,1,0,0
60100982,0.0,0.0,0.0,0.99999994,0.0,0.0,0.0,0.0,0.0,0.0,0.0,0,0,0,0,0,0,0,3,1,0,0,3,1,0,0
60125168,0.0,0.0,0.0,0.99999994,0.0,0.0,0.0,0.0,0.0,0.0,0.0,0,0,0,0,0,0,0,3,1,0,0,3,1,0,0
60145208,0.0,0.0,0.0,1.0,0.0,0.0,0.0,0.0,0.0,0.0,0.0,0,0,0,0,0,0,0,3,1,0,0,3,1,0,0
60169140,0.0,0.0,0.0,1.0,0.0,0.0,0.0,0.0,0.0,0.0,0.0,0,0,0,0,0,0,0,3,1,0,0,3,1,0,0
60193183,0.0,0.0,0.0,1.0,0.0,0.0,0.0,0.0,0.0,0.0,0.0,0,0,0,0,0,0,0,3,1,0,0,3,1,0,0
60213186,0.0,0.0,0.0,1.0,0.0,0.0,0.0,0.0,0.0,0.0,0.0,0,0,0,0,0,0,0,3,1,0,0,3,1,0,0
60233224,0.0,0.0,0.0,1.0,0.0,0.0,0.0,0.0,0.0,0.0,0.0,0,0,0,0,0,0,0,3,1,0,0,3,1,0,0
60257315,0.0,0.0,0.0,1.0,0.0,0.0,0.0,0.0,0.0,0.0,0.0,0,0,0,0,0,0,0,3,1,0,0,3,1,0,0
60281032,0.0,0.0,0.0,1.0,0.0,0.0,0.0,0.0,0.0,0.0,0.0,0,0,0,0,0,0,0,3,1,0,0,3,1,0,0
60300969,0.0,0.0,0.0,1.0,0.0,0.0,0.0,0.0,0.0,0.0,0.0,0,0,0,0,0,0,0,3,1,0,0,3,1,0,0
60324974,0.0,0.0,0.0,1.0,0.0,0.0,0.0,0.0,0.0,0.0,0.0,0,0,0,0,0,0,0,3,1,0,0,3,1,0,0
60344950,0.0,0.0,0.0,1.0,0.0,0.0,0.0,0.0,0.0,0.0,0.0,0,0,0,0,0,0,0,3,1,0,0,3,1,0,0
60365323,0.0,0.0,0.0,1.0,0.0,0.0,0.0,0.0,0.0,0.0,0.0,0,0,0,0,0,0,0,3,1,0,0,3,1,0,0
60384967,0.0,0.0,0.0,1.0,0.0,0.0,0.0,0.0,0.0,0.0,0.0,0,0,0,0,0,0,0,3,1,0,0,3,1,0,0
60409022,0.0,0.0,0.0,0.99946904,0.0,0.0,0.0,0.0,0.0,0.0,0.0,0,0,0,0,0,0,0,3,1,0,0,3,1,0,0
60429167,0.0,0.0,0.0,0.99874175,0.0,0.0,0.0,0.0,0.0,0.0,0.0,0,0,0,0,0,0,0,3,1,0,0,3,1,0,0
60449012,0.0,0.0,0.0,0.999108,0.0,0.0,0.0,0.0,0.0,0.0,0.0,0,0,0,0,0,0,0,3,1,0,0,3,1,0,0
60469051,0.0,0.0,0.0,0.9999168,0.0,0.0,0.0,0.0,0.0,0.0,0.0,0,0,0,0,0,0,0,3,1,0,0,3,1,0,0
60492977,0.0,0.0,0.0,1.0,0.0,0.0,0.0,0.0,0.0,0.0,0.0,0,0,0,0,0,0,0,3,1,0,0,3,1,0,0
60512962,0.0,0.0,0.0,0.9995385,0.0,0.0,0.0,0.0,0.0,0.0,0.0,0,0,0,0,0,0,0,3,1,0,0,3,1,0,0
60532953,0.0,0.0,0.0,0.9982082,0.0,0.0,0.0,0.0,0.0,0.0,0.0,0,0,0,0,0,0,0,3,1,0,0,3,1,0,0
60552970,0.0,0.0,0.0,0.99783516,0.0,0.0,0.0,0.0,0.0,0.0,0.0,0,0,0,0,0,0,0,3,1,0,0,3,1,0,0
60577056,0.0,0.0,0.0,0.9990199,0.0,0.0,0.0,0.0,0.0,0.0,0.0,0,0,0,0,0,0,0,3,1,0,0,3,1,0,0
60597186,0.0,0.0,0.0,1.0,0.0,0.0,0.0,0.0,0.0,0.0,0.0,0,0,0,0,0,0,0,3,1,0,0,3,1,0,0
60620925,0.0,0.0,0.0,1.0,0.0,0.0,0.0,0.0,0.0,0.0,0.0,0,0,0,0,0,0,0,3,1,0,0,3,1,0,0
60640943,0.0,0.0,0.0,0.99953616,0.0,0.0,0.0,0.0,0.0,0.0,0.0,0,0,0,0,0,0,0,3,1,0,0,3,1,0,0
60664975,0.0,0.0,0.0,0.99872446,0.0,0.0,0.0,0.0,0.0,0.0,0.0,0,0,0,0,0,0,0,3,1,0,0,3,1,0,0
60689345,0.0,0.0,0.0,0.9990884,0.0,0.0,0.0,0.0,0.0,0.0,0.0,0,0,0,0,0,0,0,3,1,0,0,3,1,0,0
60708995,0.0,0.0,0.0,0.999913,0.0,0.0,0.0,0.0,0.0,0.0,0.0,0,0,0,0,0,0,0,3,1,0,0,3,1,0,0
60732968,0.0,0.0,0.0,1.0,0.0,0.0,0.0,0.0,0.0,0.0,0.0,0,0,0,0,0,0,0,3,1,0,0,3,1,0,0
60753151,0.0,0.0,0.0,0.99954015,0.0,0.0,0.0,0.0,0.0,0.0,0.0,0,0,0,0,0,0,0,3,1,0,0,3,1,0,0
60773017,0.0,0.0,0.0,0.99820834,0.0,0.0,0.0,0.0,0.0,0.0,0.0,0,0,0,0,0,0,0,3,1,0,0,3,1,0,0
60797338,0.0,0.0,0.0,0.9978349,0.0,0.0,0.0,0.0,0.0,0.0,0.0,0,0,0,0,0,0,0,3,1,0,0,3,1,0,0
60820943,0.0,0.0,0.0,0.99901974,0.0,0.0,0.0,0.0,0.0,0.0,0.0,0,0,0,0,0,0,0,3,1,0,0,3,1,0,0
60845184,0.0,0.0,0.0,1.0,0.0,0.0,0.0,0.0,0.0,0.0,0.0,0,0,0,0,0,0,0,3,1,0,0,3,1,0,0
60865201,0.0,0.0,0.0,1.0,0.0,0.0,0.0,0.0,0.0,0.0,0.0,0,0,0,0,0,0,0,3,1,0,0,3,1,0,0
60889055,0.0,0.0,0.0,1.0,0.0,0.0,0.0,0.0,0.0,0.0,0.0,0,0,0,0,0,0,0,3,1,0,0,3,1,0,0
60912976,0.0,0.0,0.0,0.99998283,0.0,0.0,0.0,0.0,0.0,0.0,0.0,0,0,0,0,0,0,0,3,1,0,0,3,1,0,0
60933064,0.0,0.0,0.0,0.9999805,0.0,0.0,0.0,0.0,0.0,0.0,0.0,0,0,0,0,0,0,0,3,1,0,0,3,1,0,0
60953021,0.0,0.0,0.0,0.99999607,0.0,0.0,0.0,0.0,0.0,0.0,0.0,0,0,0,0,0,0,0,3,1,0,0,3,1,0,0
60977326,0.0,0.0,0.0,1.0,0.0,0.0,0.0,0.0,0.0,0.0,0.0,0,0,0,0,0,0,0,3,1,0,0,3,1,0,0
60997138,0.0,0.0,0.0,1.0,0.0,0.0,0.0,0.0,0.0,0.0,0.0,0,0,0,0,0,0,0,3,1,0,0,3,1,0,0
61017082,0.0,0.0,0.0,1.0,0.0,0.0,0.0,0.0,0.0,0.0,0.0,0,0,0,0,0,0,0,3,1,0,0,3,1,0,0
61040950,0.0,0.0,0.0,0.9999997,0.0,0.0,0.0,0.0,0.0,0.0,0.0,0,0,0,0,0,0,0,3,1,0,0,3,1,0,0
61060959,0.0,0.0,0.0,0.9999998,0.0,0.0,0.0,0.0,0.0,0.0,0.0,0,0,0,0,0,0,0,3,1,0,0,3,1,0,0
61081002,0.0,0.0,0.0,0.99999994,0.0,0.0,0.0,0.0,0.0,0.0,0.0,0,0,0,0,0,0,0,3,1,0,0,3,1,0,0
61104936,0.0,0.0,0.0,1.0,0.0,0.0,0.0,0.0,0.0,0.0,0.0,0,0,0,0,0,0,0,3,1,0,0,3,1,0,0
61124927,0.0,0.0,0.0,1.0,0.0,0.0,0.0,0.0,0.0,0.0,0.0,0,0,0,0,0,0,0,3,1,0,0,3,1,0,0
61144941,0.0,0.0,0.0,1.0,0.0,0.0,0.0,0.0,0.0,0.0,0.0,0,0,0,0,0,0,0,3,1,0,0,3,1,0,0
61165187,0.0,0.0,0.0,1.0,0.0,0.0,0.0,0.0,0.0,0.0,0.0,0,0,0,0,0,0,0,3,1,0,0,3,1,0,0
61188983,0.0,0.0,0.0,1.0,0.0,0.0,0.0,0.0,0.0,0.0,0.0,0,0,0,0,0,0,0,3,1,0,0,3,1,0,0
61209014,0.0,0.0,0.0,0.99946904,0.0,0.0,0.0,0.0,0.0,0.0,0.0,0,0,0,0,0,0,0,3,1,0,0,3,1,0,0
61232955,0.0,0.0,0.0,0.99874175,0.0,0.0,0.0,0.0,0.0,0.0,0.0,0,0,0,0,0,0,0,3,1,0,0,3,1,0,0
61252954,0.0,0.0,0.0,0.999108,0.0,0.0,0.0,0.0,0.0,0.0,0.0,0,0,0,0,0,0,0,3,1,0,0,3,1,0,0
61277160,0.0,0.0,0.0,0.9999168,0.0,0.0,0.0,0.0,0.0,0.0,0.0,0,0,0,0,0,0,0,3,1,0,0,3,1,0,0
61297074,0.0,0.0,0.0,1.0,0.0,0.0,0.0,0.0,0.0,0.0,0.0,0,0,0,0,0,0,0,3,1,0,0,3,1,0,0
61320929,0.0,0.0,0.0,1.0,0.0,0.0,0.0,0.0,0.0,0.0,0.0,0,0,0,0,0,0,0,3,1,0,0,3,1,0,0
61340935,0.0,0.0,0.0,0.99946654,0.0,0.0,0.0,0.0,0.0,0.0,0.0,0,0,0,0,0,0,0,3,1,0,0,3,1,0,0
61360945,0.0,0.0,0.0,0.9987272,0.0,0.0,0.0,0.0,0.0,0.0,0.0,0,0,0,0,0,0,0,3,1,0,0,3,1,0,0
61380978,0.0,0.0,0.0,0.9991031,0.0,0.0,0.0,0.0,0.0,0.0,0.0,0,0,0,0,0,0,0,3,1,0,0,3,1,0,0
61404992,0.0,0.0,0.0,0.9999178,0.0,0.0,0.0,0.0,0.0,0.0,0.0,0,0,0,0,0,0,0,3,1,0,0,3,1,0,0
61424963,0.0,0.0,0.0,1.0,0.0,0.0,0.0,0.0,0.0,0.0,0.0,0,0,0,0,0,0,0,3,1,0,0,3,1,0,0
61448971,0.0,0.0,0.0,0.9995387,0.0,0.0,0.0,0.0,0.0,0.0,0.0,0,0,0,0,0,0,0,3,1,0,0,3,1,0,0
61473136,0.0,0.0,0.0,0.998739,0.0,0.0,0.0,0.0,0.0,0.0,0.0,0,0,0,0,0,0,0,3,1,0,0,3,1,0,0
61496954,0.0,0.0,0.0,0.9990933,0.0,0.0,0.0,0.0,0.0,0.0,0.0,0,0,0,0,0,0,0,3,1,0,0,3,1,0,0
61517342,0.0,0.0,0.0,0.9999119,0.0,0.0,0.0,0.0,0.0,0.0,0.0,0,0,0,0,0,0,0,3,1,0,0,3,1,0,0
61540932,0.0,0.0,0.0,1.0,0.0,0.0,0.0,0.0,0.0,0.0,0.0,0,0,0,0,0,0,0,3,1,0,0,3,1,0,0
61560967,0.0,0.0,0.0,1.0,0.0,0.0,0.0,0.0,0.0,0.0,0.0,0,0,0,0,0,0,0,3,1,0,0,3,1,0,0
61585231,0.0,0.0,0.0,0.9994668,0.0,0.0,0.0,0.0,0.0,0.0,0.0,0,0,0,0,0,0,0,3,1,0,0,3,1,0,0
61608972,0.0,0.0,0.0,0.9987271,0.0,0.0,0.0,0.0,0.0,0.0,0.0,0,0,0,0,0,0,0,3,1,0,0,3,1,0,0
61628968,0.0,0.0,0.0,0.999103,0.0,0.0,0.0,0.0,0.0,0.0,0.0,0,0,0,0,0,0,0,3,1,0,0,3,1,0,0
61653171,0.0,0.0,0.0,0.9999178,0.0,0.0,0.0,0.0,0.0,0.0,0.0,0,0,0,0,0,0,0,3,1,0,0,3,1,0,0
61673195,0.0,0.0,0.0,1.0,0.0,0.0,0.0,0.0,0.0,0.0,0.0,0,0,0,0,0,0,0,3,1,0,0,3,1,0,0
61697318,0.0,0.0,0.0,1.0,0.0,0.0,0.0,0.0,0.0,0.0,0.0,0,0,0,0,0,0,0,3,1,0,0,3,1,0,0
61720964,0.0,0.0,0.0,0.9999974,0.0,0.0,0.0,0.0,0.0,0.0,0.0,0,0,0,0,0,0,0,3,1,0,0,3,1,0,0
61744949,0.0,0.0,0.0,0.99998534,0.0,0.0,0.0,0.0,0.0,0.0,0.0,0,0,0,0,0,0,0,3,1,0,0,3,1,0,0
61769317,0.0,0.0,0.0,0.9999951,0.0,0.0,0.0,0.0,0.0,0.0,0.0,0,0,0,0,0,0,0,3,1,0,0,3,1,0,0
61793154,0.0,0.0,0.0,1.0,0.0,0.0,0.0,0.0,0.0,0.0,0.0,0,0,0,0,0,0,0,3,1,0,0,3,1,0,0
61813155,0.0,0.0,0.0,1.0,0.0,0.0,0.0,0.0,0.0,0.0,0.0,0,0,0,0,0,0,0,3,1,0,0,3,1,0,0
61833159,0.0,0.0,0.0,1.0,0.0,0.0,0.0,0.0,0.0,0.0,0.0,0,0,0,0,0,0,0,3,1,0,0,3,1,0,0
61853778,0.0,0.0,0.0,0.99999994,0.0,0.0,0.0,0.0,0.0,0.0,0.0,0,0,0,0,0,0,0,3,1,0,0,3,1,0,0
61873777,0.0,0.0,0.0,0.99999994,0.0,0.0,0.0,0.0,0.0,0.0,0.0,0,0,0,0,0,0,0,3,1,0,0,3,1,0,0
61896982,0.0,0.0,0.0,1.0,0.0,0.0,0.0,0.0,0.0,0.0,0.0,0,0,0,0,0,0,0,3,1,0,0,3,1,0,0
61920979,0.0,0.0,0.0,1.0,0.0,0.0,0.0,0.0,0.0,0.0,0.0,0,0,0,0,0,0,0,3,1,0,0,3,1,0,0
61944927,0.0,0.0,0.0,1.0,0.0,0.0,0.0,0.0,0.0,0.0,0.0,0,0,0,0,0,0,0,3,1,0,0,3,1,0,0
61969211,0.0,0.0,0.0,1.0,0.0,0.0,0.0,0.0,0.0,0.0,0.0,0,0,0,0,0,0,0,3,1,0,0,3,1,0,0
61992961,0.0,0.0,0.0,1.0,0.0,0.0,0.0,0.0,0.0,0.0,0.0,0,0,0,0,0,0,0,3,1,0,0,3,1,0,0
62016956,0.0,0.0,0.0,0.99946904,0.0,0.0,0.0,0.0,0.0,0.0,0.0,0,0,0,0,0,0,0,3,1,0,0,3,1,0,0
62036960,0.0,0.0,0.0,0.9982107,0.0,0.0,0.0,0.0,0.0,0.0,0.0,0,0,0,0,0,0,0,3,1,0,0,3,1,0,0
62060962,0.0,0.0,0.0,0.99466354,0.0,0.0,0.0,0.0,0.0,0.0,0.0,0,0,0,0,0,0,0,3,1,0,0,3,1,0,0
62084993,0.0,0.0,0.00993638,0.9378405,0.0,0.0,0.0,0.0,0.0,0.0,0.0,0,0,0,0,0,0,0,3,1,0,0,3,1,0,0
62105004,0.0,0.0,0.08211687,0.7247723,0.0,0.0,0.0,0.0,0.0,0.0,0.0,0,0,0,0,0,0,0,3,1,0,0,3,1,0,0
62125135,0.0,0.0,0.21405214,0.42828903,0.0,0.0,0.0,0.0,0.0,0.0,0.0,0,0,0,0,0,0,0,3,1,0,0,3,1,0,0
62145137,0.0,0.0,0.340714,0.20751481,0.0,0.0,0.0,0.0,0.0,0.0,0.0,0,0,0,0,0,0,0,3,1,0,0,3,1,0,0
62168965,0.0,0.0,0.44901955,0.05654071,0.0,0.0,0.0,0.0,0.0,0.0,0.0,0,0,0,0,0,0,0,3,1,0,0,3,1,0,0
62188964,0.0,0.0,0.5086913,-0.019741328,0.0,0.0,0.0,0.0,0.0,0.0,0.0,0,0,0,0,0,0,0,3,1,0,0,3,1,0,0
62208978,0.0,0.0,0.5095337,-0.018366517,0.0,0.0,0.0,0.0,0.0,0.0,0.0,0,0,0,0,0,0,0,3,1,0,0,3,1,0,0
62233010,0.0,0.0,0.49711433,-0.0029212667,0.0,0.0,0.0,0.0,0.0,0.0,0.0,0,0,0,0,0,0,0,3,1,0,0,3,1,0,0
62253159,0.0,0.0,0.49183717,0.0025169651,0.0,0.0,0.0,0.0,0.0,0.0,0.0,0,0,0,0,0,0,0,3,1,0,0,3,1,0,0
62273317,0.0,0.0,0.49231896,0.0015021171,0.0,0.0,0.0,0.0,0.0,0.0,0.0,0,0,0,0,0,0,0,3,1,0,0,3,1,0,0
62296933,0.0,0.0,0.4932689,6.2211955e-05,0.0,0.0,0.0,0.0,0.0,0.0,0.0,0,0,0,0,0,0,0,3,1,0,0,3,1,0,0
62321054,0.0,0.0,0.4932641,-0.00027114913,0.0,0.0,0.0,0.0,0.0,0.0,0.0,0,0,0,0,0,0,0,3,1,0,0,3,1,0,0
62345368,0.0,0.0,0.49333778,-0.00011237908,0.0,0.0,0.0,0.0,0.0,0.0,0.0,0,0,0,0,0,0,0,3,1,0,0,3,1,0,0
62365164,0.0,0.0,0.49362746,1.15681305e-05,0.0,0.0,0.0,0.0,0.0,0.0,0.0,0,0,0,0,0,0,0,3,1,0,0,3,1,0,0
62389012,0.0,0.0,0.49372002,2.628033e-05,0.0,0.0,0.0,0.0,0.0,0.0,0.0,0,0,0,0,0,0,0,3,1,0,0,3,1,0,0
62408969,0.0,0.0,0.49343604,7.446075e-06,0.0,0.0,0.0,0.0,0.0,0.0,0.0,0,0,0,0,0,0,0,3,1,0,0,3,1,0,0
62428964,0.0,0.0,0.49279,-2.3945736e-06,0.0,0.0,0.0,0.0,0.0,0.0,0.0,0,0,0,0,0,0,0,3,1,0,0,3,1,0,0
62453317,0.0,0.0,0.49260688,-2.3429186e-06,0.0,0.0,0.0,0.0,0.0,0.0,0.0,0,0,0,0,0,0,0,3,1,0,0,3,1,0,0
62476956,0.0,0.0,0.4931887,-3.9687717e-07,0.0,0.0,0.0,0.0,0.0,0.0,0.0,0,0,0,0,0,0,0,3,1,0,0,3,1,0,0
62496939,0.0,0.0,0.49370104,3.1212338e-07,0.0,0.0,0.0,0.0,0.0,0.0,0.0,0,0,0,0,0,0,0,3,1,0,0,3,1,0,0
62516943,0.0,0.0,0.49377644,1.9305288e-07,0.0,0.0,0.0,0.0,0.0,0.0,0.0,0,0,0,0,0,0,0,3,1,0,0,3,1,0,0
62536986,0.0,0.0,0.49370396,1.0219643e-08,0.0,0.0,0.0,0.0,0.0,0.0,0.0,0,0,0,0,0,0,0,3,1,0,0,3,1,0,0
62561337,0.0,0.0,0.49366245,-3.4026353e-08,0.0,0.0,0.0,0.0,0.0,0.0,0.0,0,0,0,0,0,0,0,3,1,0,0,3,1,0,0
62580959,0.0,0.0,0.49366125,-1.457483e-08,0.0,0.0,0.0,0.0,0.0,0.0,0.0,0,0,0,0,0,0,0,3,1,0,0,3,1,0,0
62604961,0.0,0.0,0.49366897,1.2770969e-09,0.0,0.0,0.0,0.0,0.0,0.0,0.0,0,0,0,0,0,0,0,3,1,0,0,3,1,0,0
62629163,0.0,0.0,0.49367204,3.3259029e-09,0.0,0.0,0.0,0.0,0.0,0.0,0.0,0,0,0,0,0,0,0,3,1,0,0,3,1,0,0
62649005,0.0,0.0,0.4936717,9.789362e-10,0.0,0.0,0.0,0.0,0.0,0.0,0.0,0,0,0,0,0,0,0,3,1,0,0,3,1,0,0
62673155,0.0,0.0,0.49367097,-2.895205e-10,0.0,0.0,0.0,0.0,0.0,0.0,0.0,0,0,0,0,0,0,0,3,1,0,0,3,1,0,0
62693146,0.0,0.0,0.49367076,-2.9867678e-10,0.0,0.0,0.0,0.0,0.0,0.0,0.0,0,0,0,0,0,0,0,3,1,0,0,3,1,0,0
62717034,0.0,0.0,0.49367082,-5.3676553e-11,0.0,0.0,0.0,0.0,0.0,0.0,0.0,0,0,0,0,0,0,0,3,1,0,0,3,1,0,0
62741364,0.0,0.0,0.49367088,3.865066e-11,0.0,0.0,0.0,0.0,0.0,0.0,0.0,0,0,0,0,0,0,0,3,1,0,0,3,1,0,0
62764970,0.0,0.0,0.4936709,2.4793185e-11,0.0,0.0,0.0,0.0,0.0,0.0,0.0,0,0,0,0,0,0,0,3,1,0,0,3,1,0,0
62784968,0.0,0.0,0.4936709,1.5933507e-12,0.0,0.0,0.0,0.0,0.0,0.0,0.0,0,0,0,0,0,0,0,3,1,0,0,3,1,0,0
62804960,0.0,0.0,0.4936709,-4.2661087e-12,0.0,0.0,0.0,0.0,0.0,0.0,0.0,0,0,0,0,0,0,0,3,1,0,0,3,1,0,0
62829007,0.0,0.0,0.4936709,-1.8884464e-12,0.0,0.0,0.0,0.0,0.0,0.0,0.0,0,0,0,0,0,0,0,3,1,0,0,3,1,0,0
62849398,0.0,0.0,0.4936709,1.3753861e-13,0.0,0.0,0.0,0.0,0.0,0.0,0.0,0,0,0,0,0,0,0,3,1,0,0,3,1,0,0
62868966,0.0,0.0,0.49340943,4.2061173e-13,0.0,0.0,0.0,0.0,0.0,0.0,0.0,0,0,0,0,0,0,0,3,1,0,0,3,1,0,0
62893155,0.0,0.0,0.49305132,1.2849528e-13,0.0,0.0,0.0,0.0,0.0,0.0,0.0,0,0,0,0,0,0,0,3,1,0,0,3,1,0,0
62916963,0.0,0.0,0.4929702,-3.487988e-14,0.0,0.0,0.0,0.0,0.0,0.0,0.0,0,0,0,0,0,0,0,3,1,0,0,3,1,0,0
62940935,0.0,0.0,0.49274883,-3.805046e-14,0.0,0.0,0.0,0.0,0.0,0.0,0.0,0,0,0,0,0,0,0,3,1,0,0,3,1,0,0
62960938,0.0,0.0,0.49242142,-7.2306536e-15,0.0,0.0,0.0,0.0,0.0,0.0,0.0,0,0,0,0,0,0,0,3,1,0,0,3,1,0,0
62985181,0.0,0.0,0.4920823,4.7789544e-15,0.0,0.0,0.0,0.0,0.0,0.0,0.0,0,0,0,0,0,0,0,3,1,0,0,3,1,0,0
63008965,0.0,0.0,0.49175963,3.1818297e-15,0.0,0.0,0.0,0.0,0.0,0.0,0.0,0,0,0,0,0,0,0,3,1,0,0,3,1,0,0
63029326,0.0,0.0,0.49196827,2.399783e-16,0.0,0.0,0.0,0.0,0.0,0.0,0.0,0,0,0,0,0,0,0,3,1,0,0,3,1,0,0
63052998,0.0,0.0,0.49237004,-5.3437366e-16,0.0,0.0,0.0,0.0,0.0,0.0,0.0,0,0,0,0,0,0,0,3,1,0,0,3,1,0,0
63073014,0.0,0.0,0.49247766,-2.4445715e-16,0.0,0.0,0.0,0.0,0.0,0.0,0.0,0,0,0,0,0,0,0,3,1,0,0,3,1,0,0
63093174,0.0,0.0,0.49217725,1.4305175e-17,0.0,0.0,0.0,0.0,0.0,0.0,0.0,0,0,0,0,0,0,0,3,1,0,0,3,1,0,0
63116940,0.0,0.0,0.49152222,5.3154702e-17,0.0,0.0,0.0,0.0,0.0,0.0,0.0,0,0,0,0,0,0,0,3,1,0,0,3,1,0,0
63137317,0.0,0.0,0.49133897,1.6840932e-17,0.0,0.0,0.0,0.0,0.0,0.0,0.0,0,0,0,0,0,0,0,3,1,0,0,3,1,0,0
63156954,0.0,0.0,0.4919225,-4.185343e-18,0.0,0.0,0.0,0.0,0.0,0.0,0.0,0,0,0,0,0,0,0,3,1,0,0,3,1,0,0
63176972,0.0,0.0,0.4924355,-4.8443175e-18,0.0,0.0,0.0,0.0,0.0,0.0,0.0,0,0,0,0,0,0,0,3,1,0,0,3,1,0,0
63197055,0.0,0.0,0.4925108,-9.705514e-19,0.0,0.0,0.0,0.0,0.0,0.0,0.0,0,0,0,0,0,0,0,3,1,0,0,3,1,0,0
63217131,0.0,0.0,0.49243817,5.899483e-19,0.0,0.0,0.0,0.0,0.0,0.0,0.0,0,0,0,0,0,0,0,3,1,0,0,3,1,0,0
63241003,0.0,0.0,0.4923966,4.0805117e-19,0.0,0.0,0.0,0.0,0.0,0.0,0.0,0,0,0,0,0,0,0,3,1,0,0,3,1,0,0
63261005,0.0,0.0,0.49239546,3.526489e-20,0.0,0.0,0.0,0.0,0.0,0.0,0.0,0,0,0,0,0,0,0,3,1,0,0,3,1,0,0
63281315,0.0,0.0,0.49240315,-6.687149e-20,0.0,0.0,0.0,0.0,0.0,0.0,0.0,0,0,0,0,0,0,0,3,1,0,0,3,1,0,0
63301237,0.0,0.0,0.49240625,-3.1616258e-20,0.0,0.0,0.0,0.0,0.0,0.0,0.0,0,0,0,0,0,0,0,3,1,0,0,3,1,0,0
63324973,0.0,0.0,0.4924059,1.4114196e-21,0.0,0.0,0.0,0.0,0.0,0.0,0.0,0,0,0,0,0,0,0,3,1,0,0,3,1,0,0
63348977,0.0,0.0,0.49240515,6.712518e-21,0.0,0.0,0.0,0.0,0.0,0.0,0.0,0,0,0,0,0,0,0,3,1,0,0,3,1,0,0
63368987,0.0,0.0,0.49266642,2.2040803e-21,0.0,0.0,0.0,0.0,0.0,0.0,0.0,0,0,0,0,0,0,0,3,1,0,0,3,1,0,0
63389325,0.0,0.0,0.49328607,-4.999488e-22,0.0,0.0,0.0,0.0,0.0,0.0,0.0,0,0,0,0,0,0,0,3,1,0,0,3,1,0,0
63413204,0.0,0.0,0.49346387,-6.163382e-22,0.0,0.0,0.0,0.0,0.0,0.0,0.0,0,0,0,0,0,0,0,3,1,0,0,3,1,0,0
63433202,0.0,0.0,0.49288526,-1.2985595e-22,0.0,0.0,0.0,0.0,0.0,0.0,0.0,0,0,0,0,0,0,0,3,1,0,0,3,1,0,0
63453171,0.0,0.0,0.49263665,7.27034e-23,0.0,0.0,0.0,0.0,0.0,0.0,0.0,0,0,0,0,0,0,0,3,1,0,0,3,1,0,0
63473148,0.0,0.0,0.49318105,5.2293722e-23,0.0,0.0,0.0,0.0,0.0,0.0,0.0,0,0,0,0,0,0,0,3,1,0,0,3,1,0,0
63493142,0.0,0.0,0.4936924,5.087487e-24,0.0,0.0,0.0,0.0,0.0,0.0,0.0,0,0,0,0,0,0,0,3,1,0,0,3,1,0,0
63513132,0.0,0.0,0.49377474,-8.359968e-24,0.0,0.0,0.0,0.0,0.0,0.0,0.0,0,0,0,0,0,0,0,3,1,0,0,3,1,0,0
63537083,0.0,0.0,0.49370506,-4.0854455e-24,0.0,0.0,0.0,0.0,0.0,0.0,0.0,0,0,0,0,0,0,0,3,1,0,0,3,1,0,0
63557019,0.0,0.0,0.4936632,1.2732939e-25,0.0,0.0,0.0,0.0,0.0,0.0,0.0,0,0,0,0,0,0,0,3,1,0,0,3,1,0,0
63580938,0.0,0.0,0.49366137,8.470462e-25,0.0,0.0,0.0,0.0,0.0,0.0,0.0,0,0,0,0,0,0,0,3,1,0,0,3,1,0,0
63601202,0.0,0.0,0.49366885,2.8807354e-25,0.0,0.0,0.0,0.0,0.0,0.0,0.0,0,0,0,0,0,0,0,3,1,0,0,3,1,0,0
63620969,0.0,0.0,0.493672,-5.941392e-26,0.0,0.0,0.0,0.0,0.0,0.0,0.0,0,0,0,0,0,0,0,3,1,0,0,3,1,0,0
63641320,0.0,0.0,0.49367172,-7.836439e-26,0.0,0.0,0.0,0.0,0.0,0.0,0.0,0,0,0,0,0,0,0,3,1,0,0,3,1,0,0
63660965,0.0,0.0,0.49367097,-1.7323597e-26,0.0,0.0,0.0,0.0,0.0,0.0,0.0,0,0,0,0,0,0,0,3,1,0,0,3,1,0,0
63685229,0.0,0.0,0.49340928,8.943437e-27,0.0,0.0,0.0,0.0,0.0,0.0,0.0,0,0,0,0,0,0,0,3,1,0,0,3,1,0,0
63708984,0.0,0.0,0.49305123,6.697076e-27,0.0,0.0,0.0,0.0,0.0,0.0,0.0,0,0,0,0,0,0,0,3,1,0,0,3,1,0,0
63733059,0.0,0.0,0.49323162,7.234866e-28,0.0,0.0,0.0,0.0,0.0,0.0,0.0,0,0,0,0,0,0,0,3,1,0,0,3,1,0,0
63753087,0.0,0.0,0.49362987,-1.0440447e-27,0.0,0.0,0.0,0.0,0.0,0.0,0.0,0,0,0,0,0,0,0,3,1,0,0,3,1,0,0
63776943,0.0,0.0,0.49374172,-5.27473e-28,0.0,0.0,0.0,0.0,0.0,0.0,0.0,0,0,0,0,0,0,0,3,1,0,0,3,1,0,0
63797139,0.0,0.0,0.4934436,9.524699e-30,0.0,0.0,0.0,0.0,0.0,0.0,0.0,0,0,0,0,0,0,0,3,1,0,0,3,1,0,0
63821317,0.0,0.0,0.49305007,1.0680714e-28,0.0,0.0,0.0,0.0,0.0,0.0,0.0,0,0,0,0,0,0,0,3,1,0,0,3,1,0,0
63841155,0.0,0.0,0.4932245,3.7603063e-29,0.0,0.0,0.0,0.0,0.0,0.0,0.0,0,0,0,0,0,0,0,3,1,0,0,3,1,0,0
63865053,0.0,0.0,0.4936275,-7.019159e-30,0.0,0.0,0.0,0.0,0.0,0.0,0.0,0,0,0,0,0,0,0,3,1,0,0,3,1,0,0
63888982,0.0,0.0,0.49374226,-9.957041e-30,0.0,0.0,0.0,0.0,0.0,0.0,0.0,0,0,0,0,0,0,0,3,1,0,0,3,1,0,0
63909140,0.0,0.0,0.49370575,-2.3049366e-30,0.0,0.0,0.0,0.0,0.0,0.0,0.0,0,0,0,0,0,0,0,3,1,0,0,3,1,0,0
63929318,0.0,0.0,0.49366978,1.0980083e-30,0.0,0.0,0.0,0.0,0.0,0.0,0.0,0,0,0,0,0,0,0,3,1,0,0,3,1,0,0
63953155,0.0,0.0,0.49366367,8.570868e-31,0.0,0.0,0.0,0.0,0.0,0.0,0.0,0,0,0,0,0,0,0,3,1,0,0,3,1,0,0
63973153,0.0,0.0,0.49366844,1.0170966e-31,0.0,0.0,0.0,0.0,0.0,0.0,0.0,0,0,0,0,0,0,0,3,1,0,0,3,1,0,0
63993155,0.0,0.0,0.49340987,-1.3024658e-31,0.0,0.0,0.0,0.0,0.0,0.0,0.0,0,0,0,0,0,0,0,3,1,0,0,3,1,0,0
64016951,0.0,0.0,0.49279046,-6.804601e-32,0.0,0.0,0.0,0.0,0.0,0.0,0.0,0,0,0,0,0,0,0,3,1,0,0,3,1,0,0
64037324,0.0,0.0,0.49235073,3.5947095e-34,0.0,0.0,0.0,0.0,0.0,0.0,0.0,0,0,0,0,0,0,0,3,1,0,0,3,1,0,0
64056978,0.0,0.0,0.492571,1.3457312e-32,0.0,0.0,0.0,0.0,0.0,0.0,0.0,0,0,0,0,0,0,0,3,1,0,0,3,1,0,0
64077131,0.0,0.0,0.49326146,4.9024536e-33,0.0,0.0,0.0,0.0,0.0,0.0,0.0,0,0,0,0,0,0,0,3,1,0,0,3,1,0,0
64097056,0.0,0.0,0.4934735,-8.23563e-34,0.0,0.0,0.0,0.0,0.0,0.0,0.0,0,0,0,0,0,0,0,3,1,0,0,3,1,0,0
64120952,0.0,0.0,0.4928937,-1.2643064e-33,0.0,0.0,0.0,0.0,0.0,0.0,0.0,0,0,0,0,0,0,0,3,1,0,0,3,1,0,0
64140958,0.0,0.0,0.4923764,-3.0592909e-34,0.0,0.0,0.0,0.0,0.0,0.0,0.0,0,0,0,0,0,0,0,3,1,0,0,3,1,0,0
64160973,0.0,0.0,0.49229878,1.3452192e-34,0.0,0.0,0.0,0.0,0.0,0.0,0.0,0,0,0,0,0,0,0,3,1,0,0,3,1,0,0
64184958,0.0,0.0,0.49263287,1.0961524e-34,0.0,0.0,0.0,0.0,0.0,0.0,0.0,0,0,0,0,0,0,0,3,1,0,0,3,1,0,0
64205052,0.0,0.0,0.493033,1.416431e-35,0.0,0.0,0.0,0.0,0.0,0.0,0.0,0,0,0,0,0,0,0,3,1,0,0,3,1,0,0
64228995,0.0,0.0,0.49285394,-1.6230285e-35,0.0,0.0,0.0,0.0,0.0,0.0,0.0,0,0,0,0,0,0,0,3,1,0,0,3,1,0,0
64249117,0.0,0.0,0.49270946,-8.771127e-36,0.0,0.0,0.0,0.0,0.0,0.0,0.0,0,0,0,0,0,0,0,3,1,0,0,3,1,0,0
64272977,0.0,0.0,0.49321407,-6.302553e-38,0.0,0.0,0.0,0.0,0.0,0.0,0.0,0,0,0,0,0,0,0,3,1,0,0,3,1,0,0
64292964,0.0,0.0,0.49369034,1.694235e-36,0.0,0.0,0.0,0.0,0.0,0.0,0.0,0,0,0,0,0,0,0,3,1,0,0,3,1,0,0
64316972,0.0,0.0,0.49376753,6.384074e-37,0.0,0.0,0.0,0.0,0.0,0.0,0.0,0,0,0,0,0,0,0,3,1,0,0,3,1,0,0
64340969,0.0,0.0,0.49370283,-9.584888e-38,0.0,0.0,0.0,0.0,0.0,0.0,0.0,0,0,0,0,0,0,0,3,1,0,0,3,1,0,0
64361350,0.0,0.0,0.49340227,-1.6042897e-37,0.0,0.0,0.0,0.0,0.0,0.0,0.0,0,0,0,0,0,0,0,3,1,0,0,3,1,0,0
64385182,0.0,0.0,0.4930424,-4.0514153e-38,0.0,0.0,0.0,0.0,0.0,0.0,0.0,0,0,0,0,0,0,0,3,1,0,0,3,1,0,0
64405226,0.0,0.0,0.49322978,1.6443428e-38,0.0,0.0,0.0,0.0,0.0,0.0,0.0,0,0,0,0,0,0,0,3,1,0,0,3,1,0,0
64428949,0.0,0.0,0.49363095,1.4009602e-38,0.0,0.0,0.0,0.0,0.0,0.0,0.0,0,0,0,0,0,0,0,3,1,0,0,3,1,0,0
64449160,0.0,0.0,0.4937425,1.957049e-39,0.0,0.0,0.0,0.0,0.0,0.0,0.0,0,0,0,0,0,0,0,3,1,0,0,3,1,0,0
64473077,0.0,0.0,0.4934437,-2.020119e-39,0.0,0.0,0.0,0.0,0.0,0.0,0.0,0,0,0,0,0,0,0,3,1,0,0,3,1,0,0
64496962,0.0,0.0,0.49278843,-1.129709e-39,0.0,0.0,0.0,0.0,0.0,0.0,0.0,0,0,0,0,0,0,0,3,1,0,0,3,1,0,0
64520995,0.0,0.0,0.49234334,-2.1887e-41,0.0,0.0,0.0,0.0,0.0,0.0,0.0,0,0,0,0,0,0,0,3,1,0,0,3,1,0,0
64541316,0.0,0.0,0.4923072,2.13126e-40,0.0,0.0,0.0,0.0,0.0,0.0,0.0,0,0,0,0,0,0,0,3,1,0,0,3,1,0,0
64561161,0.0,0.0,0.49238095,8.3044e-41,0.0,0.0,0.0,0.0,0.0,0.0,0.0,0,0,0,0,0,0,0,3,1,0,0,3,1,0,0
64584971,0.0,0.0,0.4926768,-1.1048e-41,0.0,0.0,0.0,0.0,0.0,0.0,0.0,0,0,0,0,0,0,0,3,1,0,0,3,1,0,0
64608984,0.0,0.0,0.49329466,-2.0343e-41,0.0,0.0,0.0,0.0,0.0,0.0,0.0,0,0,0,0,0,0,0,3,1,0,0,3,1,0,0
64628948,0.0,0.0,0.4937265,-5.354e-42,0.0,0.0,0.0,0.0,0.0,0.0,0.0,0,0,0,0,0,0,0,3,1,0,0,3,1,0,0
64649320,0.0,0.0,0.49376512,2.005e-42,0.0,0.0,0.0,0.0,0.0,0.0,0.0,0,0,0,0,0,0,0,3,1,0,0,3,1,0,0
64669023,0.0,0.0,0.4936948,1.788e-42,0.0,0.0,0.0,0.0,0.0,0.0,0.0,0,0,0,0,0,0,0,3,1,0,0,3,1,0,0
64693183,0.0,-0.004918384,0.4936613,2.69e-43,0.0,0.0,0.0,0.0,0.0,0.0,0.0,0,0,0,0,0,0,0,3,1,0,0,3,1,0,0
64712969,-0.0031780326,-0.026409397,0.49366266,-2.52e-43,0.0,0.0,0.0,0.0,0.0,0.0,0.0,0,0,0,0,0,0,0,3,1,0,0,3,1,0,0
64736935,-0.010708467,-0.057979736,0.49366972,-1.46e-43,0.0,0.0,0.0,0.0,0.0,0.0,0.0,0,0,0,0,0,0,0,3,1,0,0,3,1,0,0
64760971,-0.019754596,-0.08183217,0.49367204,-6e-45,0.0,0.0,0.0,0.0,0.0,0.0,0.0,0,0,0,0,0,0,0,3,1,0,0,3,1,0,0
64781153,-0.029567892,-0.0981265,0.4936715,2.7e-44,0.0,0.0,0.0,0.0,0.0,0.0,0.0,0,0,0,0,0,0,0,3,1,0,0,3,1,0,0
64804988,-0.036189847,-0.10822081,0.4934094,1e-44,0.0,0.0,0.0,0.0,0.0,0.0,0.0,0,0,0,0,0,0,0,3,1,0,0,3,1,0,0
64824956,-0.037244916,-0.11149267,0.4927897,-1e-45,0.0,0.0,0.0,0.0,0.0,0.0,0.0,0,0,0,0,0,0,0,3,1,0,0,3,1,0,0
64844962,-0.034749094,-0.1107251,0.49261203,-3e-45,0.0,0.0,0.0,0.0,0.0,0.0,0.0,0,0,0,0,0,0,0,3,1,0,0,3,1,0,0
64865357,-0.025145466,-0.10051049,0.49292922,0.0,0.0,0.0,0.0,0.0,0.0,0.0,0.0,0,0,0,0,0,0,0,3,1,0,0,3,1,0,0
64889010,-0.009902926,-0.081584595,0.4928197,0.0,0.0,0.0,0.0,0.0,0.0,0.0,0.0,0,0,0,0,0,0,0,3,1,0,0,3,1,0,0
64909190,-0.00032454001,-0.06019652,0.49271718,0.0,0.0,0.0,0.0,0.0,0.0,0.0,0.0,0,0,0,0,0,0,0,3,1,0,0,3,1,0,0
64929003,0.00128955,-0.03413955,0.49296218,0.0,0.0,0.0,0.0,0.0,0.0,0.0,0.0,0,0,0,0,0,0,0,3,1,0,0,3,1,0,0
64953155,0.0005400739,-0.010664836,0.49307275,0.0,0.0,0.0,0.0,0.0,0.0,0.0,0.0,0,0,0,0,0,0,0,3,1,0,0,3,1,0,0
64977020,-5.2942116e-05,0.00055816467,0.4933271,0.0,0.0,0.0,0.0,0.0,0.0,0.0,0.0,0,0,0,0,0,0,0,3,1,0,0,3,1,0,0
64997190,-0.0001253185,0.0022945995,0.493661,0.0,0.0,0.0,0.0,0.0,0.0,0.0,0.0,0,0,0,0,0,0,0,3,1,0,0,3,1,0,0
