timestamp,vel_pos_innov[0],vel_pos_innov[1],vel_pos_innov[2],vel_pos_innov[3],vel_pos_innov[4],vel_pos_innov[5],mag_innov[0],mag_innov[1],mag_innov[2],heading_innov,airspeed_innov,beta_innov,flow_innov[0],flow_innov[1],hagl_innov,vel_pos_innov_var[0],vel_pos_innov_var[1],vel_pos_innov_var[2],vel_pos_innov_var[3],vel_pos_innov_var[4],vel_pos_innov_var[5],mag_innov_var[0],mag_innov_var[1],mag_innov_var[2],heading_innov_var,airspeed_innov_var,beta_innov_var,flow_innov_var[0],flow_innov_var[1],hagl_innov_var,output_tracking_error[0],output_tracking_error[1],output_tracking_error[2],drag_innov[0],drag_innov[1],drag_innov_var[0],drag_innov_var[1],aux_vel_innov[0],aux_vel_innov[1]
50798118,0.0025831368,-0.0011828709,-0.022984544,0.03604866,-0.035487995,-0.08463287,0.0,0.0,0.0,-0.015549928,0.0,0.0,0.0,0.0,0.0,0.26347464,0.2634797,0.5728018,0.5358738,0.5358787,4.055108,0.0,0.0,0.0,0.09027007,0.0,0.0,0.0,0.0,0.0,0.0013194979,0.0014600421,0.0065016486,0.0,0.0,0.0,0.0,0.0,0.0
51006915,-0.0001383964,-0.03108308,0.052224655,0.033690415,-0.02736023,0.006576538,0.0,0.0,0.0,-0.006482333,0.0,0.0,0.0,0.0,0.0,0.26343182,0.2634368,0.5727643,0.5342052,0.5342101,4.054932,0.0,0.0,0.0,0.09026877,0.0,0.0,0.0,0.0,0.0,0.0012694682,0.001435062,0.0035776333,0.0,0.0,0.0,0.0,0.0,0.0
51207670,0.009251852,-0.006281269,0.011282195,0.02043257,-0.024654478,0.0048828125,0.0,0.0,0.0,0.014605939,0.0,0.0,0.0,0.0,0.0,0.26342613,0.26343107,0.5727623,0.5313861,0.5313909,4.055101,0.0,0.0,0.0,0.09026748,0.0,0.0,0.0,0.0,0.0,0.0011745528,0.0016451665,0.003034617,0.0,0.0,0.0,0.0,0.0,0.0
51407670,-0.0071817273,-0.0011573117,0.2165721,0.01863788,-0.024074093,0.16228485,0.0,0.0,0.0,0.028291106,0.0,0.0,0.0,0.0,0.0,0.26341853,0.2634234,0.5728366,0.5299208,0.52992564,4.055128,0.0,0.0,0.0,0.090266,0.0,0.0,0.0,0.0,0.0,0.0008262187,0.0062373127,0.013095756,0.0,0.0,0.0,0.0,0.0,0.0
51610876,-0.0015246542,-0.012432827,0.105782054,0.007083215,-0.016628206,0.07546997,0.0,0.0,0.0,0.039077103,0.0,0.0,0.0,0.0,0.0,0.26341128,0.26341614,0.5727491,0.52982384,0.52982867,4.054819,0.0,0.0,0.0,0.09026456,0.0,0.0,0.0,0.0,0.0,0.0006652575,0.0048706974,0.010088298,0.0,0.0,0.0,0.0,0.0,0.0
51818105,0.032166995,-0.021006983,0.013606147,-0.0039572567,-0.016099334,-0.3464508,0.0,0.0,0.0,0.03641361,0.0,0.0,0.0,0.0,0.0,0.26335672,0.26336157,0.57273847,0.52813315,0.5281379,4.054465,0.0,0.0,0.0,0.090263106,0.0,0.0,0.0,0.0,0.0,0.0014305657,0.0022363795,0.004772786,0.0,0.0,0.0,0.0,0.0,0.0
52018870,-0.03435336,-0.032697074,0.16187724,-0.0058554187,-0.0074713677,-0.052619934,0.0,0.0,0.0,0.038616717,0.0,0.0,0.0,0.0,0.0,0.26333913,0.263344,0.5728164,0.5266065,0.52661115,4.0551267,0.0,0.0,0.0,0.09026188,0.0,0.0,0.0,0.0,0.0,0.0014976981,0.0046804044,0.009881037,0.0,0.0,0.0,0.0,0.0,0.0
52224487,0.0017058513,0.014146619,0.07926806,-0.0130938515,-0.013332069,0.16226196,0.0,0.0,0.0,0.03174469,0.0,0.0,0.0,0.0,0.0,0.26352614,0.2635311,0.5728385,0.52757895,0.5275838,4.054744,0.0,0.0,0.0,0.09026049,0.0,0.0,0.0,0.0,0.0,0.0012883192,0.0038067147,0.008895419,0.0,0.0,0.0,0.0,0.0,0.0
52423670,-0.015600665,-0.027962957,0.014879586,-0.02263596,-0.0146038085,0.04096222,0.0,0.0,0.0,0.04835385,0.0,0.0,0.0,0.0,0.0,0.26328906,0.26329386,0.5728014,0.5248822,0.5248868,4.054601,0.0,0.0,0.0,0.090259284,0.0,0.0,0.0,0.0,0.0,0.0013132478,0.0038653086,0.009730758,0.0,0.0,0.0,0.0,0.0,0.0
52630876,0.021706682,-0.0058170324,-0.0030487245,-0.018357381,-0.019527823,0.16423035,0.0,0.0,0.0,-0.009699225,0.0,0.0,0.0,0.0,0.0,0.2632879,0.26329273,0.5728001,0.52479434,0.5247989,4.054851,0.0,0.0,0.0,0.09025791,0.0,0.0,0.0,0.0,0.0,0.0015565902,0.0026888778,0.008041376,0.0,0.0,0.0,0.0,0.0,0.0
52831670,-0.037648767,-0.018700343,-0.09105586,-0.028839827,-0.018516868,-0.1051178,0.0,0.0,0.0,0.026477277,0.0,0.0,0.0,0.0,0.0,0.2633549,0.26335976,0.57282937,0.5250935,0.5250981,4.055001,0.0,0.0,0.0,0.09025674,0.0,0.0,0.0,0.0,0.0,0.0019444549,0.0046667876,0.013380404,0.0,0.0,0.0,0.0,0.0,0.0
53031680,-0.028381184,0.04346962,-0.07089458,-0.03303261,-0.016336903,-0.19493103,0.0,0.0,0.0,0.052424878,0.0,0.0,0.0,0.0,0.0,0.26333782,0.26334268,0.5728202,0.5235904,0.5235949,4.054675,0.0,0.0,0.0,0.09025559,0.0,0.0,0.0,0.0,0.0,0.0016613601,0.005266606,0.012808241,0.0,0.0,0.0,0.0,0.0,0.0
53238070,0.001811205,0.00094539486,0.072122484,-0.037168488,-0.012711912,-0.28266144,0.0,0.0,0.0,0.016894758,0.0,0.0,0.0,0.0,0.0,0.26333526,0.26334018,0.57281697,0.52215946,0.522164,4.0547614,0.0,0.0,0.0,0.090254284,0.0,0.0,0.0,0.0,0.0,0.0012060048,0.004044531,0.01021466,0.0,0.0,0.0,0.0,0.0,0.0
53439714,-0.051756587,0.019055266,-0.09846072,-0.04323238,-0.013378605,0.060142517,0.0,0.0,0.0,0.05059865,0.0,0.0,0.0,0.0,0.0,0.26333758,0.26334256,0.5728192,0.52211577,0.5221203,4.054374,0.0,0.0,0.0,0.09025315,0.0,0.0,0.0,0.0,0.0,0.0012811682,0.0060222475,0.013880276,0.0,0.0,0.0,0.0,0.0,0.0
53646106,0.014748273,-0.04150136,-0.009220563,-0.032447875,-0.015519038,0.05583191,0.0,0.0,0.0,0.02021113,0.0,0.0,0.0,0.0,0.0,0.263342,0.26334697,0.5727434,0.5207221,0.5207266,4.0542517,0.0,0.0,0.0,0.09025187,0.0,0.0,0.0,0.0,0.0,0.0013527033,0.0031754836,0.008366641,0.0,0.0,0.0,0.0,0.0,0.0
53847678,0.01860213,0.012411493,-0.113195024,-0.03919618,-0.012131795,0.36048126,0.0,0.0,0.0,0.038902074,0.0,0.0,0.0,0.0,0.0,0.26332897,0.26333398,0.57274806,0.519252,0.51925653,4.054333,0.0,0.0,0.0,0.09025077,0.0,0.0,0.0,0.0,0.0,0.0011708011,0.0033981712,0.008678895,0.0,0.0,0.0,0.0,0.0,0.0
54047695,0.0029698238,0.022996604,-0.028353896,-0.034622133,0.0010931492,-0.26824188,0.0,0.0,0.0,0.018765718,0.0,0.0,0.0,0.0,0.0,0.26326886,0.26327386,0.5728013,0.51887107,0.51887554,4.05437,0.0,0.0,0.0,0.09024969,0.0,0.0,0.0,0.0,0.0,0.0012813159,0.0046923095,0.012862668,0.0,0.0,0.0,0.0,0.0,0.0
54250898,0.0045364904,0.007858816,-0.12370829,-0.04004769,0.004058197,0.0008239746,0.0,0.0,0.0,0.08384889,0.0,0.0,0.0,0.0,0.0,0.26345474,0.26345986,0.57275766,0.5185027,0.51850736,4.054383,0.0,0.0,0.0,0.090248786,0.0,0.0,0.0,0.0,0.0,0.0015744087,0.0054814233,0.01490457,0.0,0.0,0.0,0.0,0.0,0.0
54451707,0.0032705618,-0.018544381,-0.0039721453,-0.03417228,0.008074969,-0.07532501,0.0,0.0,0.0,0.040093392,0.0,0.0,0.0,0.0,0.0,0.26327497,0.26328003,0.5728415,0.5175235,0.51752806,4.0550046,0.0,0.0,0.0,0.090247706,0.0,0.0,0.0,0.0,0.0,0.001686241,0.004607943,0.015411334,0.0,0.0,0.0,0.0,0.0,0.0
54651670,-0.01347686,-0.038082764,-0.02687803,-0.039915353,0.0063471496,-0.06856537,0.0,0.0,0.0,-0.029643804,0.0,0.0,0.0,0.0,0.0,0.26320857,0.2632136,0.5728784,0.5157581,0.51576257,4.0554037,0.0,0.0,0.0,0.09024664,0.0,0.0,0.0,0.0,0.0,0.0012340272,0.003284304,0.010173104,0.0,0.0,0.0,0.0,0.0,0.0
54859670,0.010938149,-0.013022471,0.13723323,-0.04342419,0.013506085,-0.14928436,0.0,0.0,0.0,0.05014363,0.0,0.0,0.0,0.0,0.0,0.26327834,0.26328343,0.5728938,0.516087,0.5160916,4.055399,0.0,0.0,0.0,0.09024543,0.0,0.0,0.0,0.0,0.0,0.0011074832,0.0016946251,0.0072197113,0.0,0.0,0.0,0.0,0.0,0.0
55059670,0.022536762,-0.022477191,-0.04310462,-0.03734289,0.010404438,-0.18959808,0.0,0.0,0.0,0.019423693,0.0,0.0,0.0,0.0,0.0,0.26333562,0.2633407,0.57291037,0.51502824,0.5150329,4.0550117,0.0,0.0,0.0,0.09024472,0.0,0.0,0.0,0.0,0.0,0.0009874427,0.00044475863,0.0026696532,0.0,0.0,0.0,0.0,0.0,0.0
55259670,0.005598176,-0.002562046,-0.083201,-0.033106342,0.015830845,-0.3145523,0.0,0.0,0.0,-0.020556897,0.0,0.0,0.0,0.0,0.0,0.26325825,0.26326331,0.5728578,0.5145969,0.51460147,4.0549445,0.0,0.0,0.0,0.09024368,0.0,0.0,0.0,0.0,0.0,0.0009395509,0.0016372268,0.0041763703,0.0,0.0,0.0,0.0,0.0,0.0
55467670,-0.012306748,-0.042887744,0.04720159,-0.039011672,0.011302397,0.22242737,0.0,0.0,0.0,0.0057620704,0.0,0.0,0.0,0.0,0.0,0.263255,0.26326007,0.5728489,0.51320684,0.5132114,4.0549035,0.0,0.0,0.0,0.09024235,0.0,0.0,0.0,0.0,0.0,0.0012192515,0.0019945095,0.0055543995,0.0,0.0,0.0,0.0,0.0,0.0
55671669,0.0014750483,-0.016963936,0.03240651,-0.031524017,0.010468096,0.09211731,0.0,0.0,0.0,0.031312466,0.0,0.0,0.0,0.0,0.0,0.26331005,0.26331514,0.5728769,0.5121437,0.5121484,4.055852,0.0,0.0,0.0,0.09024134,0.0,0.0,0.0,0.0,0.0,0.00092827686,0.00081663474,0.0023588918,0.0,0.0,0.0,0.0,0.0,0.0
55871712,-0.02566883,-2.782233e-05,-0.060697902,-0.03710699,0.015056074,-0.053024292,0.0,0.0,0.0,-0.04374942,0.0,0.0,0.0,0.0,0.0,0.26327896,0.26328406,0.5729291,0.51197565,0.5119803,4.0554776,0.0,0.0,0.0,0.09024033,0.0,0.0,0.0,0.0,0.0,0.00052573235,0.0027655268,0.0060337996,0.0,0.0,0.0,0.0,0.0,0.0
56071670,0.04208696,-0.026504584,0.15383959,-0.02861856,0.01756011,0.36492157,0.0,0.0,0.0,0.010812432,0.0,0.0,0.0,0.0,0.0,0.26324823,0.2632533,0.5729019,0.51044947,0.5104541,4.0552425,0.0,0.0,0.0,0.09023905,0.0,0.0,0.0,0.0,0.0,0.0014456448,0.0049603703,0.012919938,0.0,0.0,0.0,0.0,0.0,0.0
56279670,-0.0037952894,-0.016944267,0.19388749,-0.026947469,0.02155821,0.2709732,0.0,0.0,0.0,-0.005540341,0.0,0.0,0.0,0.0,0.0,0.2632985,0.26330364,0.57283723,0.5107098,0.51071453,4.055554,0.0,0.0,0.0,0.09023824,0.0,0.0,0.0,0.0,0.0,0.0010557615,0.0055204667,0.014279604,0.0,0.0,0.0,0.0,0.0,0.0
56479670,0.00905337,-0.01827675,-0.011922051,-0.022066578,0.024428785,0.060791016,0.0,0.0,0.0,0.038298845,0.0,0.0,0.0,0.0,0.0,0.2632196,0.26322472,0.57286227,0.50892645,0.5089311,4.05527,0.0,0.0,0.0,0.09023712,0.0,0.0,0.0,0.0,0.0,0.0010229567,0.0025971557,0.00818843,0.0,0.0,0.0,0.0,0.0,0.0
56679679,0.020796478,-0.024861118,0.1110933,-0.01913996,0.026665524,-0.2580719,0.0,0.0,0.0,6.836653e-05,0.0,0.0,0.0,0.0,0.0,0.2632131,0.26321825,0.5728455,0.50886047,0.5088651,4.055171,0.0,0.0,0.0,0.090236,0.0,0.0,0.0,0.0,0.0,0.0008247656,0.005617394,0.016810842,0.0,0.0,0.0,0.0,0.0,0.0
56887715,-0.00809923,-0.016871909,-0.08265132,-0.018022612,0.021616936,0.028648376,0.0,0.0,0.0,-0.026414067,0.0,0.0,0.0,0.0,0.0,0.2632071,0.2632123,0.57283556,0.5074626,0.50746727,4.0548153,0.0,0.0,0.0,0.09023493,0.0,0.0,0.0,0.0,0.0,0.00082542235,0.0040836763,0.014943724,0.0,0.0,0.0,0.0,0.0,0.0
57087670,0.023865215,-0.023469893,0.007508208,-0.014711902,0.02363202,0.08061218,0.0,0.0,0.0,0.007564366,0.0,0.0,0.0,0.0,0.0,0.26320118,0.26320636,0.57275075,0.5073991,0.5074038,4.054632,0.0,0.0,0.0,0.090234295,0.0,0.0,0.0,0.0,0.0,0.0005288645,0.0022060412,0.0049603092,0.0,0.0,0.0,0.0,0.0,0.0
57295669,-0.0019885916,-0.05007498,0.18694052,-0.014777064,0.026024029,0.18813324,0.0,0.0,0.0,0.023778647,0.0,0.0,0.0,0.0,0.0,0.26313657,0.2631418,0.5727197,0.5070145,0.5070191,4.0542083,0.0,0.0,0.0,0.090233244,0.0,0.0,0.0,0.0,0.0,0.0009468843,0.0034467755,0.009197078,0.0,0.0,0.0,0.0,0.0,0.0
57495669,-0.004976789,0.02357543,-0.09007863,-0.013083354,0.030019663,-0.007347107,0.0,0.0,0.0,0.11986613,0.0,0.0,0.0,0.0,0.0,0.26320267,0.263208,0.57268804,0.5060038,0.50600857,4.0539794,0.0,0.0,0.0,0.09023218,0.0,0.0,0.0,0.0,0.0,0.0011754273,0.0034095338,0.009049256,0.0,0.0,0.0,0.0,0.0,0.0
57694940,-0.0008268943,-0.024888529,-0.10487932,-0.022675857,0.027112052,-0.1806488,0.0,0.0,0.0,0.029386789,0.0,0.0,0.0,0.0,0.0,0.2632529,0.26325837,0.5727415,0.50627905,0.5062839,4.0540614,0.0,0.0,0.0,0.090231284,0.0,0.0,0.0,0.0,0.0,0.0006986796,0.0023792514,0.0056121103,0.0,0.0,0.0,0.0,0.0,0.0
57903681,-0.028225452,-0.041703723,-0.00040224846,-0.020606384,0.028591134,-0.12627411,0.0,0.0,0.0,-0.02332756,0.0,0.0,0.0,0.0,0.0,0.26317427,0.26317975,0.5727224,0.5045138,0.50451857,4.0540185,0.0,0.0,0.0,0.09023025,0.0,0.0,0.0,0.0,0.0,0.00030802656,0.0044506653,0.012975627,0.0,0.0,0.0,0.0,0.0,0.0
58103670,0.012287707,-0.04217393,0.001365222,-0.016625643,0.02367834,-0.0016860962,0.0,0.0,0.0,-0.009068698,0.0,0.0,0.0,0.0,0.0,0.26316682,0.2631724,0.57274306,0.5044578,0.50446254,4.05453,0.0,0.0,0.0,0.090229526,0.0,0.0,0.0,0.0,0.0,7.3861374e-05,0.0011368477,0.0034706036,0.0,0.0,0.0,0.0,0.0,0.0
58303670,-0.0100220945,-0.019077864,-0.090186894,-0.016786635,0.019066356,-0.047080994,0.0,0.0,0.0,0.050663978,0.0,0.0,0.0,0.0,0.0,0.2632806,0.26328638,0.57282144,0.50507915,0.50508416,4.0549593,0.0,0.0,0.0,0.090228654,0.0,0.0,0.0,0.0,0.0,0.00017467803,0.0006812473,0.0009298824,0.0,0.0,0.0,0.0,0.0,0.0
58511682,-0.007786665,-0.049752504,0.028546581,-0.015190333,0.021390557,-0.121780396,0.0,0.0,0.0,0.06517875,0.0,0.0,0.0,0.0,0.0,0.26313424,0.26314002,0.5728201,0.5029519,0.5029568,4.055207,0.0,0.0,0.0,0.090227515,0.0,0.0,0.0,0.0,0.0,0.00064116914,0.00080657756,0.001601222,0.0,0.0,0.0,0.0,0.0,0.0
58711718,-0.040098302,-0.041130245,0.20959374,-0.014282346,0.018411629,0.16275787,0.0,0.0,0.0,0.060691446,0.0,0.0,0.0,0.0,0.0,0.26313066,0.2631365,0.5728914,0.5029084,0.50291336,4.0558567,0.0,0.0,0.0,0.090226814,0.0,0.0,0.0,0.0,0.0,0.0010170296,0.0012603257,0.0034349326,0.0,0.0,0.0,0.0,0.0,0.0
58919703,-0.048239924,-0.038496174,0.0029927073,-0.021926016,0.022465684,-0.32818604,0.0,0.0,0.0,0.044694334,0.0,0.0,0.0,0.0,0.0,0.26312843,0.26313433,0.5729514,0.5028741,0.5028791,4.0555263,0.0,0.0,0.0,0.09022597,0.0,0.0,0.0,0.0,0.0,0.0010468385,0.005026309,0.01581397,0.0,0.0,0.0,0.0,0.0,0.0
59119677,0.0072617703,-0.100730255,0.046418365,-0.0168809,0.011270434,0.095970154,0.0,0.0,0.0,-0.020410866,0.0,0.0,0.0,0.0,0.0,0.2631846,0.2631906,0.5728778,0.501843,0.50184816,4.056135,0.0,0.0,0.0,0.09022514,0.0,0.0,0.0,0.0,0.0,0.0005966757,0.00268933,0.0064810277,0.0,0.0,0.0,0.0,0.0,0.0
59319670,-0.040038772,-0.035286747,0.1715069,-0.017009616,0.014711782,0.26979065,0.0,0.0,0.0,0.035609424,0.0,0.0,0.0,0.0,0.0,0.2631093,0.26311526,0.5728964,0.5014279,0.501433,4.05568,0.0,0.0,0.0,0.09022417,0.0,0.0,0.0,0.0,0.0,0.00031209705,0.0015728945,0.003670616,0.0,0.0,0.0,0.0,0.0,0.0
59527670,-0.041959655,0.0061184075,0.08363139,-0.013328433,0.019906588,-0.066223145,0.0,0.0,0.0,-0.023165703,0.0,0.0,0.0,0.0,0.0,0.26310888,0.26311484,0.57287437,0.50139874,0.5014039,4.055388,0.0,0.0,0.0,0.09022324,0.0,0.0,0.0,0.0,0.0,0.00015375897,0.0016148003,0.0050839935,0.0,0.0,0.0,0.0,0.0,0.0
59727717,-0.015328446,-0.025943127,0.08001231,-0.009977937,0.013970345,0.2693329,0.0,0.0,0.0,-0.004628688,0.0,0.0,0.0,0.0,0.0,0.26310727,0.26311323,0.5727769,0.5000418,0.500047,4.0555634,0.0,0.0,0.0,0.090222426,0.0,0.0,0.0,0.0,0.0,0.00028381732,0.0014508483,0.0029613466,0.0,0.0,0.0,0.0,0.0,0.0
59927670,-0.015183406,0.04987977,-0.20226678,-0.0092844665,0.018945403,-0.007331848,0.0,0.0,0.0,0.015817761,0.0,0.0,0.0,0.0,0.0,0.2630442,0.26305014,0.57280654,0.4996755,0.49968073,4.0559,0.0,0.0,0.0,0.0902215,0.0,0.0,0.0,0.0,0.0,0.00031063333,0.0032194406,0.0056382176,0.0,0.0,0.0,0.0,0.0,0.0
60127670,0.0040133502,-0.0663039,0.11747451,-0.009064466,0.01679758,0.22084808,0.0,0.0,0.0,0.017243981,0.0,0.0,0.0,0.0,0.0,0.26311114,0.26311707,0.57290864,0.4986849,0.49869028,4.0560226,0.0,0.0,0.0,0.09022086,0.0,0.0,0.0,0.0,0.0,0.00050343975,0.0009815792,0.0023890175,0.0,0.0,0.0,0.0,0.0,0.0
60335701,-0.029044792,-0.026350528,0.16296358,-0.010907501,0.01752925,0.021247864,0.0,0.0,0.0,0.0018513799,0.0,0.0,0.0,0.0,0.0,0.26310393,0.26310986,0.5728832,0.49863908,0.49864447,4.0561075,0.0,0.0,0.0,0.09022008,0.0,0.0,0.0,0.0,0.0,0.000304277,0.001589924,0.0036632507,0.0,0.0,0.0,0.0,0.0,0.0
60535678,0.08252934,0.031094246,0.04383102,0.0011152923,0.022715986,0.2650528,0.0,0.0,0.0,0.020002961,0.0,0.0,0.0,0.0,0.0,0.2630381,0.26304394,0.57281727,0.5062842,0.50628954,4.0559373,0.0,0.0,0.0,0.09021918,0.0,0.0,0.0,0.0,0.0,0.00016638271,0.0054521435,0.014244658,0.0,0.0,0.0,0.0,0.0,0.0
60743674,-0.032697737,-0.020314414,-0.068825014,0.0015021861,0.015162349,0.10183716,0.0,0.0,0.0,0.035591066,0.0,0.0,0.0,0.0,0.0,0.26311547,0.2631213,0.5728343,0.5270853,0.5270908,4.056033,0.0,0.0,0.0,0.09021829,0.0,0.0,0.0,0.0,0.0,1.083426e-05,0.0016751782,0.0040052594,0.0,0.0,0.0,0.0,0.0,0.0
60943678,-0.067866325,0.002917572,0.100143306,-0.00044813752,0.0129612535,0.091552734,0.0,0.0,0.0,0.007946521,0.0,0.0,0.0,0.0,0.0,0.2631516,0.26315743,0.57280886,0.5384502,0.5384558,4.055585,0.0,0.0,0.0,0.090217546,0.0,0.0,0.0,0.0,0.0,0.000424258,0.0025891382,0.0076543805,0.0,0.0,0.0,0.0,0.0,0.0
61143669,-0.054495066,-0.0016810251,-0.15890978,0.011677459,0.0091170445,0.1780777,0.0,0.0,0.0,0.009967208,0.0,0.0,0.0,0.0,0.0,0.2631933,0.2631991,0.5727949,0.53748167,0.53748727,4.0551977,0.0,0.0,0.0,0.0902168,0.0,0.0,0.0,0.0,0.0,0.00060974894,0.0013476587,0.004973792,0.0,0.0,0.0,0.0,0.0,0.0
61351670,-0.0054085534,-0.028846083,-0.06257349,0.010217264,-0.0010004342,-0.13014984,0.0,0.0,0.0,-0.034825057,0.0,0.0,0.0,0.0,0.0,0.26322293,0.26322865,0.57279056,0.5350596,0.53506523,4.0549626,0.0,0.0,0.0,0.09021593,0.0,0.0,0.0,0.0,0.0,0.00056936557,0.0020288632,0.008590526,0.0,0.0,0.0,0.0,0.0,0.0
61551703,-0.060003616,-0.004363439,0.08082499,0.015412122,-0.00014647096,0.08457184,0.0,0.0,0.0,0.0076610446,0.0,0.0,0.0,0.0,0.0,0.2632389,0.2632446,0.57279086,0.5339396,0.5339453,4.054937,0.0,0.0,0.0,0.090215206,0.0,0.0,0.0,0.0,0.0,0.0006409306,0.00037796592,0.0019815962,0.0,0.0,0.0,0.0,0.0,0.0
61751677,-0.04835824,-0.0051211775,-0.046120152,0.013251558,-0.001094602,0.17023468,0.0,0.0,0.0,0.030427575,0.0,0.0,0.0,0.0,0.0,0.26324657,0.2632522,0.5727145,0.5327649,0.53277063,4.0551853,0.0,0.0,0.0,0.0902145,0.0,0.0,0.0,0.0,0.0,0.00038117584,0.00031066747,0.0017347872,0.0,0.0,0.0,0.0,0.0,0.0
61959670,-0.034089517,-0.04255291,0.09801696,0.010426998,-0.0015743375,-0.26114655,0.0,0.0,0.0,-0.015518367,0.0,0.0,0.0,0.0,0.0,0.2631892,0.26319474,0.5727596,0.5298292,0.52983487,4.0558553,0.0,0.0,0.0,0.09021391,0.0,0.0,0.0,0.0,0.0,0.00038064146,0.0010766577,0.0033490988,0.0,0.0,0.0,0.0,0.0,0.0
62159670,-0.023593716,0.042362258,-0.050730687,0.016884759,0.00892397,0.07381439,0.0,0.0,0.0,-0.005506158,0.0,0.0,0.0,0.0,0.0,0.26331422,0.2633198,0.57282263,0.52926743,0.5292733,4.0554295,0.0,0.0,0.0,0.09021321,0.0,0.0,0.0,0.0,0.0,0.00077356445,0.001819455,0.0050120284,0.0,0.0,0.0,0.0,0.0,0.0
62367669,-0.087013796,-0.046975166,0.010670856,0.016228274,0.013850942,0.08141327,0.0,0.0,0.0,0.01625815,0.0,0.0,0.0,0.0,0.0,0.2632149,0.26322037,0.57276464,0.5248105,0.52481604,4.055171,0.0,0.0,0.0,0.090212286,0.0,0.0,0.0,0.0,0.0,0.00061959354,0.0032259414,0.0039890157,0.0,0.0,0.0,0.0,0.0,0.0
62567705,-0.087013796,-0.046975166,0.010670856,0.016228274,0.013850942,-0.41379547,0.0,0.0,0.0,0.030394763,0.0,0.0,0.0,0.0,0.0,0.2632149,0.26322037,0.57276464,0.5248105,0.52481604,4.054835,0.0,0.0,0.0,0.09021173,0.0,0.0,0.0,0.0,0.0,0.000283718,0.004364876,0.012980479,0.0,0.0,0.0,0.0,0.0,0.0
62767673,-0.055649377,0.0043174224,-0.035334215,0.007356584,0.026036497,0.10661316,0.0,0.0,0.0,-0.00203377,0.0,0.0,0.0,0.0,0.0,0.26318237,0.26318783,0.57276946,0.52062666,0.52063215,4.054824,0.0,0.0,0.0,0.09021104,0.0,0.0,0.0,0.0,0.0,0.00033117313,0.0054519814,0.014030608,0.0,0.0,0.0,0.0,0.0,0.0
62975670,-0.030442802,0.024357786,-0.016244687,0.004150465,0.029680718,-0.14592743,0.0,0.0,0.0,-0.011879951,0.0,0.0,0.0,0.0,0.0,0.26317105,0.26317647,0.5727756,0.51920027,0.5192057,4.054371,0.0,0.0,0.0,0.09021024,0.0,0.0,0.0,0.0,0.0,0.00048591083,0.003931344,0.008785573,0.0,0.0,0.0,0.0,0.0,0.0
63175676,-0.0051700138,0.019479236,0.1021436,0.010156572,0.038412124,-0.06284332,0.0,0.0,0.0,0.028966665,0.0,0.0,0.0,0.0,0.0,0.26316082,0.26316628,0.57285565,0.51640993,0.5164153,4.055372,0.0,0.0,0.0,0.0902097,0.0,0.0,0.0,0.0,0.0,0.0001407361,0.004689163,0.010175076,0.0,0.0,0.0,0.0,0.0,0.0
63374907,-0.08943153,-0.0044854633,-0.039337773,0.0014178902,0.031773448,-0.24871063,0.0,0.0,0.0,-0.00016084313,0.0,0.0,0.0,0.0,0.0,0.26320925,0.26321477,0.5728787,0.51528764,0.5152931,4.055566,0.0,0.0,0.0,0.090209045,0.0,0.0,0.0,0.0,0.0,0.000463234,0.0051016533,0.012241146,0.0,0.0,0.0,0.0,0.0,0.0
63575670,-0.08141586,-0.004223045,-0.006160163,0.0015551597,0.03526727,-0.1617508,0.0,0.0,0.0,0.004505545,0.0,0.0,0.0,0.0,0.0,0.26307037,0.26307583,0.5727947,0.5131141,0.51311934,4.054606,0.0,0.0,0.0,0.09020826,0.0,0.0,0.0,0.0,0.0,0.00022363066,0.0049140793,0.010037774,0.0,0.0,0.0,0.0,0.0,0.0
63775670,-0.0370081,-0.026127838,-0.04893255,0.00037018955,0.030976975,0.049819946,0.0,0.0,0.0,0.037252814,0.0,0.0,0.0,0.0,0.0,0.26313248,0.26313803,0.5727474,0.5106851,0.5106904,4.0548615,0.0,0.0,0.0,0.09020774,0.0,0.0,0.0,0.0,0.0,0.00021161787,0.0028159847,0.0062227873,0.0,0.0,0.0,0.0,0.0,0.0
63983670,-0.007249579,-0.0034918995,0.050575487,-0.0040109903,0.02925078,-0.24386597,0.0,0.0,0.0,0.034386396,0.0,0.0,0.0,0.0,0.0,0.2631216,0.26312718,0.5727508,0.50920755,0.5092128,4.0541167,0.0,0.0,0.0,0.09020688,0.0,0.0,0.0,0.0,0.0,0.00025074452,0.0012530719,0.0040689963,0.0,0.0,0.0,0.0,0.0,0.0
64183676,-0.049901206,-0.020127997,0.06517806,-2.8669834e-05,0.025884954,0.09399414,0.0,0.0,0.0,0.03137979,0.0,0.0,0.0,0.0,0.0,0.26322973,0.2632354,0.5728251,0.5070585,0.5070639,4.05514,0.0,0.0,0.0,0.09020613,0.0,0.0,0.0,0.0,0.0,0.00013586912,0.0019748756,0.003732536,0.0,0.0,0.0,0.0,0.0,0.0
64383670,-0.061403114,-0.00847812,0.07983979,-0.0026248693,0.01714438,-0.42084503,0.0,0.0,0.0,-0.04455036,0.0,0.0,0.0,0.0,0.0,0.2630195,0.26302508,0.5727926,0.5044839,0.504489,4.0543575,0.0,0.0,0.0,0.09020563,0.0,0.0,0.0,0.0,0.0,0.00031803554,0.002551865,0.0042335284,0.0,0.0,0.0,0.0,0.0,0.0
64583670,-0.07040231,0.022752596,-0.092673264,-0.00499022,0.023208877,0.14308167,0.0,0.0,0.0,0.024802834,0.0,0.0,0.0,0.0,0.0,0.2630846,0.26309022,0.5727489,0.5033834,0.5033886,4.054352,0.0,0.0,0.0,0.090205014,0.0,0.0,0.0,0.0,0.0,0.0002585998,0.0043945927,0.008850385,0.0,0.0,0.0,0.0,0.0,0.0
64791670,-0.058333896,0.0128602395,0.051525306,-0.0056105405,0.026088122,0.17662811,0.0,0.0,0.0,-0.0153338015,0.0,0.0,0.0,0.0,0.0,0.2630785,0.26308417,0.57275516,0.5019151,0.5019203,4.054088,0.0,0.0,0.0,0.09020441,0.0,0.0,0.0,0.0,0.0,0.00025258667,0.0037578195,0.007278096,0.0,0.0,0.0,0.0,0.0,0.0
64991670,-0.03968171,-0.026776228,0.116871,0.0043369085,0.022216,-0.16564941,0.0,0.0,0.0,-0.00037556887,0.0,0.0,0.0,0.0,0.0,0.26307127,0.26307693,0.5727629,0.49911508,0.49912027,4.053974,0.0,0.0,0.0,0.09020392,0.0,0.0,0.0,0.0,0.0,0.0002831018,0.0022468998,0.0037625856,0.0,0.0,0.0,0.0,0.0,0.0
65199679,-0.011760514,-0.0033248952,-0.05221806,0.0003823191,0.022471879,-0.12823486,0.0,0.0,0.0,0.00069749355,0.0,0.0,0.0,0.0,0.0,0.26312363,0.26312935,0.572804,0.49796942,0.49797466,4.0544333,0.0,0.0,0.0,0.0902032,0.0,0.0,0.0,0.0,0.0,0.0006157619,0.0005439267,0.0021755304,0.0,0.0,0.0,0.0,0.0,0.0
65399685,-0.050188832,0.008768225,0.100495964,0.005740285,0.020958774,0.33850098,0.0,0.0,0.0,-0.018438935,0.0,0.0,0.0,0.0,0.0,0.2631055,0.2631112,0.5728813,0.49645984,0.49646512,4.05498,0.0,0.0,0.0,0.09020261,0.0,0.0,0.0,0.0,0.0,0.00011542876,0.0021211312,0.0044710212,0.0,0.0,0.0,0.0,0.0,0.0
65603679,-0.017319981,0.0009303582,-0.15976925,0.002656728,0.01848454,-0.0064086914,0.0,0.0,0.0,0.0067881346,0.0,0.0,0.0,0.0,0.0,0.26303032,0.26303598,0.57283175,0.49595508,0.49596024,4.0546002,0.0,0.0,0.0,0.09020193,0.0,0.0,0.0,0.0,0.0,8.013095e-05,0.0010076119,0.004447046,0.0,0.0,0.0,0.0,0.0,0.0
65803670,-0.037416514,-0.029468596,0.08286857,0.008099183,0.009895187,-0.3071823,0.0,0.0,0.0,0.04158494,0.0,0.0,0.0,0.0,0.0,0.26299724,0.26300293,0.5728188,0.4943639,0.49436906,4.0544586,0.0,0.0,0.0,0.09020134,0.0,0.0,0.0,0.0,0.0,7.4570744e-05,0.0016590755,0.0035760654,0.0,0.0,0.0,0.0,0.0,0.0
66003676,-0.06918539,-0.0009796671,-0.09389383,0.0029773712,0.0051224586,0.0014038086,0.0,0.0,0.0,0.012624115,0.0,0.0,0.0,0.0,0.0,0.26306108,0.2630668,0.5727719,0.4946076,0.49461284,4.0544558,0.0,0.0,0.0,0.09020065,0.0,0.0,0.0,0.0,0.0,0.00022310684,0.0036308626,0.008186241,0.0,0.0,0.0,0.0,0.0,0.0
66203670,-0.03302007,0.023660725,0.18100156,0.0012847185,0.006296616,-0.0073928833,0.0,0.0,0.0,0.0065900087,0.0,0.0,0.0,0.0,0.0,0.26311308,0.2631188,0.57280064,0.49483043,0.49483576,4.054703,0.0,0.0,0.0,0.09020009,0.0,0.0,0.0,0.0,0.0,0.00021351088,0.0013804152,0.0010561575,0.0,0.0,0.0,0.0,0.0,0.0
66411669,-0.008362634,0.0061677014,0.12465902,-0.002770707,0.0052406173,0.14995575,0.0,0.0,0.0,-0.00026407838,0.0,0.0,0.0,0.0,0.0,0.26309797,0.26310366,0.5727936,0.49337637,0.49338168,4.054511,0.0,0.0,0.0,0.09019952,0.0,0.0,0.0,0.0,0.0,0.00017875043,0.0029558134,0.0058427854,0.0,0.0,0.0,0.0,0.0,0.0
66611690,-0.078769654,-0.017475639,0.041237615,-0.008306563,0.013056226,-0.15023041,0.0,0.0,0.0,-0.017993778,0.0,0.0,0.0,0.0,0.0,0.26302418,0.26302978,0.5728328,0.49292067,0.4929259,4.0549226,0.0,0.0,0.0,0.09019897,0.0,0.0,0.0,0.0,0.0,0.00022050133,0.0022160516,0.0038478181,0.0,0.0,0.0,0.0,0.0,0.0
66819670,-0.045520805,-0.018941818,0.14851142,-0.007703379,0.008000432,-0.20209503,0.0,0.0,0.0,-0.039291173,0.0,0.0,0.0,0.0,0.0,0.26308194,0.26308754,0.5728545,0.49318135,0.49318665,4.055411,0.0,0.0,0.0,0.090198226,0.0,0.0,0.0,0.0,0.0,0.00015985462,0.0029072629,0.0054457556,0.0,0.0,0.0,0.0,0.0,0.0
67019670,-0.06949261,0.010783043,-0.02348186,-0.019872263,0.0038139075,-0.28496552,0.0,0.0,0.0,0.0007112324,0.0,0.0,0.0,0.0,0.0,0.26295176,0.26295722,0.57284117,0.49111125,0.49111637,4.0552855,0.0,0.0,0.0,0.09019757,0.0,0.0,0.0,0.0,0.0,0.00051025144,0.003330464,0.0078501,0.0,0.0,0.0,0.0,0.0,0.0
67219670,-0.05421259,-0.00990879,0.05159213,-0.017878562,0.005733479,-0.10997009,0.0,0.0,0.0,0.009743512,0.0,0.0,0.0,0.0,0.0,0.26302102,0.26302642,0.5727807,0.49142236,0.49142754,4.054911,0.0,0.0,0.0,0.09019704,0.0,0.0,0.0,0.0,0.0,0.0005463664,0.0037046922,0.010169178,0.0,0.0,0.0,0.0,0.0,0.0
67427670,-0.0020083021,-0.000636043,0.08203862,-0.016376823,0.009274062,0.34420776,0.0,0.0,0.0,-0.006782651,0.0,0.0,0.0,0.0,0.0,0.2629592,0.26296446,0.57273877,0.49104702,0.4910521,4.0544233,0.0,0.0,0.0,0.09019652,0.0,0.0,0.0,0.0,0.0,0.00019559743,0.0025611946,0.006373776,0.0,0.0,0.0,0.0,0.0,0.0
67627676,-0.0816493,0.0439993,-0.08181206,-0.019669205,0.01248325,-0.13069916,0.0,0.0,0.0,-0.0053889453,0.0,0.0,0.0,0.0,0.0,0.26302752,0.26303264,0.5727756,0.49137518,0.49138036,4.0548496,0.0,0.0,0.0,0.09019612,0.0,0.0,0.0,0.0,0.0,0.0001960834,0.0030561732,0.007006497,0.0,0.0,0.0,0.0,0.0,0.0
67827670,-0.04980191,0.032322392,0.013944685,-0.026542023,0.011770029,0.2786255,0.0,0.0,0.0,0.013189495,0.0,0.0,0.0,0.0,0.0,0.26302367,0.26302862,0.57276845,0.49002105,0.49002618,4.054635,0.0,0.0,0.0,0.090195596,0.0,0.0,0.0,0.0,0.0,0.00033399806,0.0047342908,0.013318449,0.0,0.0,0.0,0.0,0.0,0.0
68035670,-0.009153481,0.016024755,0.11009142,-0.012391165,0.019247739,-0.06123352,0.0,0.0,0.0,0.024376452,0.0,0.0,0.0,0.0,0.0,0.26301786,0.26302266,0.5728455,0.4899748,0.48997986,4.0548625,0.0,0.0,0.0,0.0901949,0.0,0.0,0.0,0.0,0.0,0.00031979842,0.0018323794,0.0035768088,0.0,0.0,0.0,0.0,0.0,0.0
68843685,-0.05157657,-0.0063416827,0.05800687,-0.009310827,0.04084134,0.3176651,0.0,0.0,0.0,0.018576711,0.0,0.0,0.0,0.0,0.0,0.26293927,0.26294324,0.5727911,0.4882013,0.48820594,4.0544295,0.0,0.0,0.0,0.09019264,0.0,0.0,0.0,0.0,0.0,0.00024094874,0.0014938789,0.005506684,0.0,0.0,0.0,0.0,0.0,0.0
69051699,-0.02562717,0.024735447,0.089449234,-0.007025987,0.04172783,-0.10862732,0.0,0.0,0.0,-0.015486926,0.0,0.0,0.0,0.0,0.0,0.26294345,0.26294723,0.5727123,0.4868945,0.48689905,4.0542817,0.0,0.0,0.0,0.09019216,0.0,0.0,0.0,0.0,0.0,0.0001353588,0.0019841392,0.006272563,0.0,0.0,0.0,0.0,0.0,0.0
69251670,0.016152732,0.001472095,0.018766893,-0.0066287667,0.04751523,0.10631561,0.0,0.0,0.0,-0.054652274,0.0,0.0,0.0,0.0,0.0,0.26300412,0.26300776,0.57275844,0.48721182,0.4872163,4.0540357,0.0,0.0,0.0,0.090191506,0.0,0.0,0.0,0.0,0.0,0.00014980513,0.0027857437,0.007233353,0.0,0.0,0.0,0.0,0.0,0.0
69451704,0.0034840181,0.03361995,0.0032999218,0.0016935915,0.05443637,0.10080719,0.0,0.0,0.0,-0.009624958,0.0,0.0,0.0,0.0,0.0,0.26299408,0.26299757,0.5727642,0.48585248,0.48585677,4.0550575,0.0,0.0,0.0,0.09019094,0.0,0.0,0.0,0.0,0.0,0.00011729996,0.003623402,0.007928529,0.0,0.0,0.0,0.0,0.0,0.0
69651670,0.023603875,0.0631777,-0.12530814,-0.0009121895,0.05011595,-0.11071777,0.0,0.0,0.0,0.031380028,0.0,0.0,0.0,0.0,0.0,0.26286563,0.2628689,0.5728454,0.48514602,0.48515004,4.05527,0.0,0.0,0.0,0.09019059,0.0,0.0,0.0,0.0,0.0,0.00019594816,0.0054032216,0.011064128,0.0,0.0,0.0,0.0,0.0,0.0
69859669,0.009122501,0.03858383,-0.14196075,0.005915478,0.05148249,-0.2340622,0.0,0.0,0.0,-0.009830296,0.0,0.0,0.0,0.0,0.0,0.26299468,0.26299784,0.5728246,0.48451555,0.48451954,4.0549126,0.0,0.0,0.0,0.09019002,0.0,0.0,0.0,0.0,0.0,0.00018703009,0.0060170633,0.012990368,0.0,0.0,0.0,0.0,0.0,0.0
70059695,-0.010964595,0.0064300373,-0.0109763155,0.0021072626,0.0537083,-0.23664856,0.0,0.0,0.0,-2.4288893e-05,0.0,0.0,0.0,0.0,0.0,0.26298052,0.26298356,0.57281834,0.48444578,0.48444957,4.054716,0.0,0.0,0.0,0.090189576,0.0,0.0,0.0,0.0,0.0,0.00019728897,0.0036515146,0.008736865,0.0,0.0,0.0,0.0,0.0,0.0
70267689,-0.019298276,0.012388218,-0.13692217,0.00025342405,0.050879683,0.074653625,0.0,0.0,0.0,-0.025601894,0.0,0.0,0.0,0.0,0.0,0.26308608,0.26308906,0.57280886,0.48373276,0.4837365,4.0544186,0.0,0.0,0.0,0.09018924,0.0,0.0,0.0,0.0,0.0,0.00023691145,0.0054080663,0.013837875,0.0,0.0,0.0,0.0,0.0,0.0
70467707,-0.0420474,0.00085528195,-0.043271005,-0.00020222366,0.047044072,-0.17510223,0.0,0.0,0.0,0.002622813,0.0,0.0,0.0,0.0,0.0,0.26293364,0.26293647,0.5727376,0.48292154,0.48292497,4.0542774,0.0,0.0,0.0,0.09018881,0.0,0.0,0.0,0.0,0.0,0.000104809136,0.00389826,0.0108682485,0.0,0.0,0.0,0.0,0.0,0.0
70667717,-0.0011620922,0.00073920656,0.18848653,0.0014614165,0.044552498,0.11113739,0.0,0.0,0.0,-0.009914279,0.0,0.0,0.0,0.0,0.0,0.26286888,0.2628716,0.57270795,0.48124036,0.48124355,4.054034,0.0,0.0,0.0,0.09018848,0.0,0.0,0.0,0.0,0.0,0.0001728805,0.0019605127,0.0033437684,0.0,0.0,0.0,0.0,0.0,0.0
70867670,-0.01971744,0.020212326,0.09388654,-0.00045517087,0.04973244,-0.10031891,0.0,0.0,0.0,-0.03825161,0.0,0.0,0.0,0.0,0.0,0.26293096,0.26293364,0.57275766,0.48154303,0.48154616,4.0541043,0.0,0.0,0.0,0.09018794,0.0,0.0,0.0,0.0,0.0,8.795625e-05,0.0011548393,0.0019740115,0.0,0.0,0.0,0.0,0.0,0.0
71075669,0.024385067,0.04135418,-0.041189924,-0.00042767823,0.045128364,0.17584229,0.0,0.0,0.0,-0.008524984,0.0,0.0,0.0,0.0,0.0,0.26292515,0.26292774,0.57269055,0.48018113,0.48018408,4.054038,0.0,0.0,0.0,0.09018745,0.0,0.0,0.0,0.0,0.0,0.0005476931,0.005041427,0.014631444,0.0,0.0,0.0,0.0,0.0,0.0
71275711,0.022847405,0.039805643,0.096045874,0.007220365,0.0462533,-0.4464569,0.0,0.0,0.0,0.03719142,0.0,0.0,0.0,0.0,0.0,0.26291883,0.26292133,0.5727073,0.48011667,0.48011947,4.0538583,0.0,0.0,0.0,0.09018702,0.0,0.0,0.0,0.0,0.0,0.00065246073,0.0067131403,0.019055039,0.0,0.0,0.0,0.0,0.0,0.0
71475670,-0.0827617,-0.008332365,-0.0063561723,0.003942035,0.040225193,0.1828537,0.0,0.0,0.0,-0.060620517,0.0,0.0,0.0,0.0,0.0,0.26291123,0.26291364,0.5727264,0.47875643,0.47875908,4.0536942,0.0,0.0,0.0,0.090186775,0.0,0.0,0.0,0.0,0.0,0.000976693,0.004987933,0.016434427,0.0,0.0,0.0,0.0,0.0,0.0
71683669,-0.019927088,0.028040597,-0.13424955,-0.0019196719,0.038116388,0.4791336,0.0,0.0,0.0,-0.013961047,0.0,0.0,0.0,0.0,0.0,0.26294506,0.26294744,0.5726672,0.47869307,0.47869557,4.0541053,0.0,0.0,0.0,0.09018631,0.0,0.0,0.0,0.0,0.0,0.0014495146,0.01598472,0.052448504,0.0,0.0,0.0,0.0,0.0,0.0
71883675,-0.021925507,-0.027891852,0.04045151,-0.005932659,0.031648193,0.060585022,0.0,0.0,0.0,-0.034091473,0.0,0.0,0.0,0.0,0.0,0.2629499,0.2629521,0.5727605,0.47864908,0.47865146,4.0544662,0.0,0.0,0.0,0.09018585,0.0,0.0,0.0,0.0,0.0,0.0013323328,0.016950302,0.055459537,0.0,0.0,0.0,0.0,0.0,0.0
72083670,-0.026058353,0.016810004,0.18970655,-0.009297565,0.028141465,-0.21181488,0.0,0.0,0.0,-0.04907599,0.0,0.0,0.0,0.0,0.0,0.26280692,0.26280844,0.5728154,0.4769811,0.47698322,4.0547776,0.0,0.0,0.0,0.090185486,0.0,0.0,0.0,0.0,0.0,0.0007316742,0.01104097,0.03495991,0.0,0.0,0.0,0.0,0.0,0.0
72291693,0.06676999,0.13846868,-0.026269063,0.003160417,0.042189054,0.584198,0.0,0.0,0.0,0.021571249,0.0,0.0,0.0,0.0,0.0,0.26292175,0.26292008,0.57284015,0.48609638,0.4860983,4.054362,0.0,0.0,0.0,0.09018509,0.0,0.0,0.0,0.0,0.0,0.0011158545,0.024071872,0.07559334,0.0,0.0,0.0,0.0,0.0,0.0
72495693,0.0124364495,-0.24663003,0.069455534,0.020081803,0.015523057,0.41215515,0.0,0.0,0.0,-0.035687774,0.0,0.0,0.0,0.0,0.0,0.26290378,0.2629025,0.5727794,0.5075111,0.5075127,4.054137,0.0,0.0,0.0,0.09018454,0.0,0.0,0.0,0.0,0.0,0.0003297711,0.0143780755,0.043025773,0.0,0.0,0.0,0.0,0.0,0.0
72694891,-0.040546983,0.0044485256,-0.27614313,0.0037702918,-0.0031082705,-0.07538605,0.0,0.0,0.0,-0.05585745,0.0,0.0,0.0,0.0,0.0,0.26285407,0.26285335,0.572843,0.51902944,0.51903075,4.054783,0.0,0.0,0.0,0.09018414,0.0,0.0,0.0,0.0,0.0,0.00038067298,0.006835954,0.025751406,0.0,0.0,0.0,0.0,0.0,0.0
72895670,0.016195476,0.03807422,-0.06701636,0.005679965,-0.0040262714,0.09294891,0.0,0.0,0.0,-0.04458016,0.0,0.0,0.0,0.0,0.0,0.26297572,0.26297674,0.57290643,0.520655,0.52065605,4.0546684,0.0,0.0,0.0,0.090183586,0.0,0.0,0.0,0.0,0.0,0.00027009763,0.006248289,0.012496126,0.0,0.0,0.0,0.0,0.0,0.0
73102870,-0.06853615,0.040110964,-0.20121534,0.005617462,-0.009041786,-0.2181778,0.0,0.0,0.0,-0.017386615,0.0,0.0,0.0,0.0,0.0,0.26307198,0.26307365,0.5728611,0.5213539,0.5213548,4.0546637,0.0,0.0,0.0,0.0901832,0.0,0.0,0.0,0.0,0.0,0.00019711444,0.008504608,0.02359697,0.0,0.0,0.0,0.0,0.0,0.0
73303676,0.040060602,-0.014176624,-0.090033725,0.006527655,-0.010024585,0.22943115,0.0,0.0,0.0,-0.073559314,0.0,0.0,0.0,0.0,0.0,0.26309937,0.26310113,0.5728528,0.5203438,0.52034473,4.054381,0.0,0.0,0.0,0.090182826,0.0,0.0,0.0,0.0,0.0,0.00043777688,0.007218791,0.022311352,0.0,0.0,0.0,0.0,0.0,0.0
73506895,-0.017493429,-0.026303172,-0.11943422,0.009822391,-0.014479108,-0.13193512,0.0,0.0,0.0,-0.13487154,0.0,0.0,0.0,0.0,0.0,0.26311818,0.2631202,0.5728456,0.51923275,0.5192338,4.054592,0.0,0.0,0.0,0.09018241,0.0,0.0,0.0,0.0,0.0,0.0013261684,0.008632631,0.027680116,0.0,0.0,0.0,0.0,0.0,0.0
73708523,-0.03403138,0.056211937,-0.106827945,0.015809722,-0.013474591,-0.44831085,0.0,0.0,0.0,-0.050570846,0.0,0.0,0.0,0.0,0.0,0.26306224,0.26306427,0.57280123,0.517602,0.51760316,4.0544915,0.0,0.0,0.0,0.090182096,0.0,0.0,0.0,0.0,0.0,0.0009043271,0.008486212,0.029183248,0.0,0.0,0.0,0.0,0.0,0.0
73915670,-0.051483013,0.01261637,-0.18087097,0.011156641,-0.012397986,0.4269867,0.0,0.0,0.0,-0.06165144,0.0,0.0,0.0,0.0,0.0,0.26310262,0.26310498,0.5728569,0.5167465,0.51674783,4.054568,0.0,0.0,0.0,0.09018172,0.0,0.0,0.0,0.0,0.0,0.00093419355,0.00692247,0.022177743,0.0,0.0,0.0,0.0,0.0,0.0
74114895,-0.0063704774,0.041095946,-0.16537386,0.008234076,-0.010824051,0.17895508,0.0,0.0,0.0,0.0367029,0.0,0.0,0.0,0.0,0.0,0.2630966,0.26309922,0.5728789,0.5154687,0.5154701,4.054995,0.0,0.0,0.0,0.09018147,0.0,0.0,0.0,0.0,0.0,0.0007000682,0.0023186952,0.008137569,0.0,0.0,0.0,0.0,0.0,0.0
74319670,-0.023812173,0.003875837,-0.08879636,0.0057067424,-0.011387546,0.03753662,0.0,0.0,0.0,-0.09716472,0.0,0.0,0.0,0.0,0.0,0.2631461,0.26314887,0.5729234,0.5158814,0.51588297,4.0555644,0.0,0.0,0.0,0.0901811,0.0,0.0,0.0,0.0,0.0,0.0008443113,0.0045409217,0.014902103,0.0,0.0,0.0,0.0,0.0,0.0
74522870,-0.0049768332,-0.0055465624,-0.02686572,0.0043302327,-0.012905326,-0.2846985,0.0,0.0,0.0,-0.051269114,0.0,0.0,0.0,0.0,0.0,0.26308188,0.26308483,0.5729629,0.51421267,0.51421434,4.0553455,0.0,0.0,0.0,0.090180725,0.0,0.0,0.0,0.0,0.0,0.00079775724,0.010527968,0.035955105,0.0,0.0,0.0,0.0,0.0,0.0
74722869,0.0044006854,0.019155586,0.13001975,-0.001304023,-0.008849215,-0.4319992,0.0,0.0,0.0,-0.024128497,0.0,0.0,0.0,0.0,0.0,0.26306617,0.2630692,0.57296395,0.51417655,0.5141783,4.055124,0.0,0.0,0.0,0.090180315,0.0,0.0,0.0,0.0,0.0,0.0007419936,0.0073342933,0.025968187,0.0,0.0,0.0,0.0,0.0,0.0
74922914,-0.035735812,0.023188075,0.0069938675,0.006247647,-0.002498433,-0.752121,0.0,0.0,0.0,0.023326904,0.0,0.0,0.0,0.0,0.0,0.2631242,0.26312736,0.5730058,0.51325583,0.5132577,4.055083,0.0,0.0,0.0,0.09017988,0.0,0.0,0.0,0.0,0.0,0.00054841844,0.0038665738,0.015433183,0.0,0.0,0.0,0.0,0.0,0.0
75122870,-0.044107147,-0.043880023,-0.0074724928,-0.007789932,0.0060266554,-0.5090332,0.0,0.0,0.0,-0.02243635,0.0,0.0,0.0,0.0,0.0,0.2630696,0.263073,0.5729606,0.5129114,0.5129134,4.0549345,0.0,0.0,0.0,0.090179436,0.0,0.0,0.0,0.0,0.0,0.0007968957,0.005917079,0.019594269,0.0,0.0,0.0,0.0,0.0,0.0
75330870,-0.07634856,-0.017878974,-0.12423308,-0.009411186,0.004468005,0.25518036,0.0,0.0,0.0,-0.0075056255,0.0,0.0,0.0,0.0,0.0,0.26304743,0.26305073,0.57295835,0.5115203,0.51152253,4.055322,0.0,0.0,0.0,0.090179145,0.0,0.0,0.0,0.0,0.0,0.0011395222,0.0069020516,0.019740218,0.0,0.0,0.0,0.0,0.0,0.0
75530870,-0.044408564,-0.019927092,0.021354146,-0.020029984,0.0024313256,-0.07090759,0.0,0.0,0.0,-0.09252852,0.0,0.0,0.0,0.0,0.0,0.2630432,0.26304668,0.57295346,0.5114991,0.51150143,4.0552783,0.0,0.0,0.0,0.090178706,0.0,0.0,0.0,0.0,0.0,0.0007860069,0.008878711,0.029377565,0.0,0.0,0.0,0.0,0.0,0.0
75738102,-0.10453224,0.01820628,-0.012804329,-0.020327933,-0.00074555725,-2.8387985,0.0,0.0,0.0,-0.01525563,0.0,0.0,0.0,0.0,0.0,0.26304594,0.26304913,0.5730377,0.5100984,0.5101009,4.055955,0.0,0.0,0.0,0.09017847,0.0,0.0,0.0,0.0,0.0,0.000580394,0.02086117,0.066585615,0.0,0.0,0.0,0.0,0.0,0.0
75938910,-0.07033077,0.009801038,-0.057151336,-0.027993217,0.0035000779,0.030929565,0.0,0.0,0.0,0.0088015795,0.0,0.0,0.0,0.0,0.0,0.2630298,0.26303315,0.57301295,0.5086193,0.50862193,4.0561028,0.0,0.0,0.0,0.090178125,0.0,0.0,0.0,0.0,0.0,0.0006817415,0.015705224,0.049848594,0.0,0.0,0.0,0.0,0.0,0.0
76139670,0.017720524,0.004270789,-0.016284257,-0.014150247,0.00075029954,0.30138397,0.0,0.0,0.0,0.020055294,0.0,0.0,0.0,0.0,0.0,0.26300892,0.26301205,0.5730539,0.5084189,0.50842166,4.0559406,0.0,0.0,0.0,0.09017766,0.0,0.0,0.0,0.0,0.0,0.0011013218,0.0024725108,0.011615815,0.0,0.0,0.0,0.0,0.0,0.0
76337270,-0.021410527,0.034467027,-0.036477648,-0.006620355,-0.0035394374,-0.025138855,0.0,0.0,0.0,0.020339102,0.0,0.0,0.0,0.0,0.0,0.2631142,0.26311773,0.57305896,0.5073695,0.50737244,4.05659,0.0,0.0,0.0,0.09017747,0.0,0.0,0.0,0.0,0.0,0.000529432,0.00732709,0.023809837,0.0,0.0,0.0,0.0,0.0,0.0
76542870,-0.069162674,0.0155073255,-0.16821569,-0.006956972,0.0017239777,-0.6129761,0.0,0.0,0.0,-0.06787309,0.0,0.0,0.0,0.0,0.0,0.2630917,0.2630947,0.5731308,0.50596964,0.50597274,4.056801,0.0,0.0,0.0,0.09017711,0.0,0.0,0.0,0.0,0.0,0.00023004798,0.007093041,0.022993121,0.0,0.0,0.0,0.0,0.0,0.0
76746137,-0.02582669,0.047935084,0.1215703,-0.011109278,0.010921632,-0.34464264,0.0,0.0,0.0,0.045621574,0.0,0.0,0.0,0.0,0.0,0.26308596,0.26308763,0.5731381,0.5047876,0.5047908,4.0564985,0.0,0.0,0.0,0.09017686,0.0,0.0,0.0,0.0,0.0,0.00024992696,0.005251142,0.018823309,0.0,0.0,0.0,0.0,0.0,0.0
76946870,-0.04522236,0.046309344,-0.020726312,-0.0048056543,0.007875305,0.009941101,0.0,0.0,0.0,0.012014598,0.0,0.0,0.0,0.0,0.0,0.2629989,0.2630016,0.57310045,0.5016046,0.5016077,4.055986,0.0,0.0,0.0,0.090176456,0.0,0.0,0.0,0.0,0.0,0.0002250039,0.004710607,0.013654398,0.0,0.0,0.0,0.0,0.0,0.0
77146870,-0.07701895,-0.030954167,-0.06358596,-0.01923304,0.004706435,-0.024261475,0.0,0.0,0.0,0.045563847,0.0,0.0,0.0,0.0,0.0,0.2630381,0.26304173,0.5731256,0.50168616,0.5016893,4.0558653,0.0,0.0,0.0,0.09017606,0.0,0.0,0.0,0.0,0.0,0.0003306163,0.007554745,0.022828102,0.0,0.0,0.0,0.0,0.0,0.0
77354114,-0.07055217,-0.0056960136,0.055879857,-0.017424285,0.0037867203,0.44791412,0.0,0.0,0.0,0.014609575,0.0,0.0,0.0,0.0,0.0,0.26305428,0.26305857,0.57314575,0.5002992,0.50030243,4.05621,0.0,0.0,0.0,0.09017575,0.0,0.0,0.0,0.0,0.0,0.0006853153,0.0012693885,0.0029083423,0.0,0.0,0.0,0.0,0.0,0.0
77554120,-0.026794247,0.054201186,0.044334527,-0.021387175,0.0133103505,-1.4617157,0.0,0.0,0.0,0.030275702,0.0,0.0,0.0,0.0,0.0,0.26303458,0.2630397,0.5731435,0.50016695,0.5001703,4.0566444,0.0,0.0,0.0,0.090175405,0.0,0.0,0.0,0.0,0.0,0.0008157071,0.01133111,0.035033002,0.0,0.0,0.0,0.0,0.0,0.0
77755732,0.013226435,0.06540573,0.15151729,-0.022589177,0.02271454,-0.23369598,0.0,0.0,0.0,0.010041416,0.0,0.0,0.0,0.0,0.0,0.26310787,0.2631185,0.57326806,0.49909088,0.49909443,4.056914,0.0,0.0,0.0,0.090174936,0.0,0.0,0.0,0.0,0.0,0.00038420985,0.010884406,0.035487123,0.0,0.0,0.0,0.0,0.0,0.0
77954869,0.009546399,0.013634056,0.0344988,-0.013684586,0.019624025,-0.19944763,0.0,0.0,0.0,-0.0023385286,0.0,0.0,0.0,0.0,0.0,0.26300615,0.26302448,0.573215,0.4973031,0.49730694,4.056401,0.0,0.0,0.0,0.09017456,0.0,0.0,0.0,0.0,0.0,0.00031609536,0.0072480915,0.025012527,0.0,0.0,0.0,0.0,0.0,0.0
78162870,0.008383304,0.018190384,0.04375018,-0.006214142,0.019335061,-0.1461792,0.0,0.0,0.0,-0.055506468,0.0,0.0,0.0,0.0,0.0,0.2630741,0.2630986,0.5731981,0.49722224,0.497227,4.056509,0.0,0.0,0.0,0.09017414,0.0,0.0,0.0,0.0,0.0,0.00033946315,0.00477728,0.011634506,0.0,0.0,0.0,0.0,0.0,0.0
78363670,-0.0051952004,0.050974607,0.035120487,0.008140653,0.0217866,0.08054352,0.0,0.0,0.0,-0.13006398,0.0,0.0,0.0,0.0,0.0,0.26316062,0.2631815,0.5732318,0.4961666,0.4961726,4.0566473,0.0,0.0,0.0,0.09017375,0.0,0.0,0.0,0.0,0.0,0.00123382,0.0074126357,0.020714309,0.0,0.0,0.0,0.0,0.0,0.0
78562896,-0.0069392025,0.083061695,0.014270723,-0.0036058128,0.028158128,0.010063171,0.0,0.0,0.0,-0.15495825,0.0,0.0,0.0,0.0,0.0,0.26309422,0.26311776,0.5732511,0.4930834,0.49309075,4.0567155,0.0,0.0,0.0,0.09017348,0.0,0.0,0.0,0.0,0.0,0.0024230538,0.008139875,0.026032299,0.0,0.0,0.0,0.0,0.0,0.0
78771701,-0.02187571,0.063597865,-0.012325257,-0.010104239,0.03616768,-0.44784546,0.0,0.0,0.0,-0.000102341175,0.0,0.0,0.0,0.0,0.0,0.26299876,0.2630057,0.5732401,0.4885995,0.48861048,4.056522,0.0,0.0,0.0,0.09017319,0.0,0.0,0.0,0.0,0.0,0.0019386533,0.00801172,0.013949749,0.0,0.0,0.0,0.0,0.0,0.0
78970870,0.032413334,0.02395077,0.056808237,-0.013589144,0.03213495,-0.001876831,0.0,0.0,0.0,0.037064523,0.0,0.0,0.0,0.0,0.0,0.26294792,0.26294762,0.5731449,0.4872428,0.48725414,4.0561013,0.0,0.0,0.0,0.09017296,0.0,0.0,0.0,0.0,0.0,0.0006166853,0.005741646,0.011903784,0.0,0.0,0.0,0.0,0.0,0.0
79170876,-0.004950762,0.087736376,-0.0010574199,-0.010956287,0.03915143,-0.067092896,0.0,0.0,0.0,-0.045211166,0.0,0.0,0.0,0.0,0.0,0.2630215,0.2630245,0.57325625,0.4861414,0.48615256,4.056711,0.0,0.0,0.0,0.09017253,0.0,0.0,0.0,0.0,0.0,0.00045846592,0.0077896323,0.015486738,0.0,0.0,0.0,0.0,0.0,0.0
79378870,0.004778743,-0.0045702755,0.022639235,-0.01239574,0.038370967,-0.2939453,0.0,0.0,0.0,0.020437598,0.0,0.0,0.0,0.0,0.0,0.26296708,0.262976,0.57332087,0.48467714,0.48468804,4.057059,0.0,0.0,0.0,0.09017227,0.0,0.0,0.0,0.0,0.0,0.00032376198,0.004891109,0.013165196,0.0,0.0,0.0,0.0,0.0,0.0
79578869,-0.022079408,0.050882846,0.10815461,-0.008197904,0.039469868,-0.28011322,0.0,0.0,0.0,-0.032933623,0.0,0.0,0.0,0.0,0.0,0.26303786,0.26305145,0.57330364,0.4845966,0.48460808,4.056874,0.0,0.0,0.0,0.090171985,0.0,0.0,0.0,0.0,0.0,0.00027072724,0.0034355144,0.009926257,0.0,0.0,0.0,0.0,0.0,0.0
79786878,-0.03851998,0.016499192,0.095848426,-0.004224658,0.03246492,0.11339569,0.0,0.0,0.0,-0.089888066,0.0,0.0,0.0,0.0,0.0,0.26306012,0.26306996,0.57328635,0.48319831,0.48321012,4.0563073,0.0,0.0,0.0,0.090171665,0.0,0.0,0.0,0.0,0.0,0.00061351235,0.0063838894,0.016327579,0.0,0.0,0.0,0.0,0.0,0.0
79986870,0.04469049,-0.021678746,0.30118442,-0.011176348,0.03697306,0.0823288,0.0,0.0,0.0,-0.19257143,0.0,0.0,0.0,0.0,0.0,0.26301098,0.26299217,0.5733039,0.48147693,0.48148754,4.0565825,0.0,0.0,0.0,0.090171225,0.0,0.0,0.0,0.0,0.0,0.0031149094,0.011793983,0.026787953,0.0,0.0,0.0,0.0,0.0,0.0
80186870,0.0049082637,0.05891007,-0.017646767,-0.0060180426,0.039545,-0.4487152,0.0,0.0,0.0,-0.1937415,0.0,0.0,0.0,0.0,0.0,0.26312494,0.26302412,0.5732165,0.4804447,0.48045114,4.056162,0.0,0.0,0.0,0.09017083,0.0,0.0,0.0,0.0,0.0,0.0040576262,0.00674862,0.019872408,0.0,0.0,0.0,0.0,0.0,0.0
80386910,0.075140834,-0.014050603,0.2192308,0.0052814484,0.037970603,-0.35999298,0.0,0.0,0.0,-0.18245226,0.0,0.0,0.0,0.0,0.0,0.26319906,0.26298496,0.5732896,0.47903597,0.4790327,4.056444,0.0,0.0,0.0,0.09017044,0.0,0.0,0.0,0.0,0.0,0.0042036944,0.0055944934,0.014530547,0.0,0.0,0.0,0.0,0.0,0.0
80594876,0.08888894,0.060839176,0.11304824,0.004229188,0.05077383,-0.20200348,0.0,0.0,0.0,-0.115118444,0.0,0.0,0.0,0.0,0.0,0.26322958,0.26290384,0.57330793,0.4773154,0.4772962,4.056471,0.0,0.0,0.0,0.09016992,0.0,0.0,0.0,0.0,0.0,0.0038495779,0.0077398648,0.02251367,0.0,0.0,0.0,0.0,0.0,0.0
81194870,0.098768055,-0.0016043186,0.10254991,0.041924477,0.023299754,0.009887695,0.0,0.0,0.0,0.009573668,0.0,0.0,0.0,0.0,0.0,0.26325148,0.262906,0.5733142,0.4748195,0.4747156,4.056831,0.0,0.0,0.0,0.090168335,0.0,0.0,0.0,0.0,0.0,0.0010364703,0.0109152,0.021552159,0.0,0.0,0.0,0.0,0.0,0.0
81402887,0.09144443,-0.040514827,0.17200881,0.04710388,0.026003122,0.2619171,0.0,0.0,0.0,0.011995554,0.0,0.0,0.0,0.0,0.0,0.26311567,0.26285833,0.5733275,0.4731189,0.47299773,4.056805,0.0,0.0,0.0,0.09016786,0.0,0.0,0.0,0.0,0.0,0.0005076697,0.012462682,0.025199834,0.0,0.0,0.0,0.0,0.0,0.0
81602876,0.13837758,0.022321582,0.18829745,0.0594666,-0.0050857067,0.35047913,0.0,0.0,0.0,0.041446954,0.0,0.0,0.0,0.0,0.0,0.26314822,0.26297984,0.57328176,0.47372139,0.4735835,4.0565176,0.0,0.0,0.0,0.090167396,0.0,0.0,0.0,0.0,0.0,0.00054467877,0.01475695,0.02951864,0.0,0.0,0.0,0.0,0.0,0.0
81802889,0.066940576,0.009833217,0.17099074,0.055375814,0.0008016825,0.50439453,0.0,0.0,0.0,0.049131304,0.0,0.0,0.0,0.0,0.0,0.26301894,0.262917,0.57330173,0.47197488,0.47183755,4.056521,0.0,0.0,0.0,0.09016708,0.0,0.0,0.0,0.0,0.0,0.0002467412,0.014273067,0.033892877,0.0,0.0,0.0,0.0,0.0,0.0
82002869,-0.009418726,-0.07136774,0.20375639,0.054929733,-0.012156725,0.057724,0.0,0.0,0.0,-0.014105797,0.0,0.0,0.0,0.0,0.0,0.26294973,0.26290336,0.5732787,0.4705918,0.47046006,4.0567265,0.0,0.0,0.0,0.09016678,0.0,0.0,0.0,0.0,0.0,0.00026861532,0.012757019,0.03248872,0.0,0.0,0.0,0.0,0.0,0.0
82210924,0.03176403,-0.020049214,0.2629982,0.059761047,-0.03875184,-0.23015594,0.0,0.0,0.0,-0.027363658,0.0,0.0,0.0,0.0,0.0,0.263037,0.2630366,0.57325083,0.47113392,0.47101176,4.0562696,0.0,0.0,0.0,0.0901665,0.0,0.0,0.0,0.0,0.0,0.0003547959,0.014874974,0.039612547,0.0,0.0,0.0,0.0,0.0,0.0
82410873,0.014023557,-0.061793804,0.12545785,0.055318356,-0.019568682,-0.15826416,0.0,0.0,0.0,-0.05488977,0.0,0.0,0.0,0.0,0.0,0.26284602,0.26287624,0.57325065,0.47030896,0.47020566,4.05561,0.0,0.0,0.0,0.09016613,0.0,0.0,0.0,0.0,0.0,0.00022646447,0.010865578,0.028287534,0.0,0.0,0.0,0.0,0.0,0.0
82618870,-0.034504116,-0.0052604675,-0.03781598,0.042090893,-0.022351503,-0.089660645,0.0,0.0,0.0,-0.016706586,0.0,0.0,0.0,0.0,0.0,0.26278347,0.2628386,0.57333255,0.47022897,0.470145,4.056499,0.0,0.0,0.0,0.09016588,0.0,0.0,0.0,0.0,0.0,0.00045334466,0.009229365,0.030040411,0.0,0.0,0.0,0.0,0.0,0.0
82818870,0.034335367,-0.030115485,0.28687683,0.040012836,-0.020006418,0.05380249,0.0,0.0,0.0,-0.07909414,0.0,0.0,0.0,0.0,0.0,0.2628777,0.262951,0.5733094,0.47017413,0.47011232,4.0562544,0.0,0.0,0.0,0.0901657,0.0,0.0,0.0,0.0,0.0,0.0005842989,0.018045919,0.053266555,0.0,0.0,0.0,0.0,0.0,0.0
83018876,0.025089266,-0.03378153,0.11451964,0.042611837,-0.0017485619,0.059127808,0.0,0.0,0.0,-0.02279257,0.0,0.0,0.0,0.0,0.0,0.26274666,0.26282105,0.5732124,0.46819475,0.46815264,4.0557694,0.0,0.0,0.0,0.09016551,0.0,0.0,0.0,0.0,0.0,0.00027669317,0.01486667,0.046077937,0.0,0.0,0.0,0.0,0.0,0.0
83226893,0.03485017,-0.0821985,0.049109615,0.046913862,-0.011794567,0.205513,0.0,0.0,0.0,0.053085532,0.0,0.0,0.0,0.0,0.0,0.2630229,0.2631039,0.57329595,0.47728145,0.47725716,4.056228,0.0,0.0,0.0,0.09016516,0.0,0.0,0.0,0.0,0.0,0.0003518009,0.012747831,0.039850295,0.0,0.0,0.0,0.0,0.0,0.0
84442876,0.06880945,-0.0029759407,0.052621454,0.057133675,-0.022649288,0.0743103,0.0,0.0,0.0,0.15447325,0.0,0.0,0.0,0.0,0.0,0.27572566,0.27587095,0.5732574,0.52009326,0.52014506,4.05586,0.0,0.0,0.0,0.09016391,0.0,0.0,0.0,0.0,0.0,0.00297459,0.008005411,0.017299471,0.0,0.0,0.0,0.0,0.0,0.0
84642870,0.1357924,-0.010617852,0.093005896,0.06020236,-0.013082981,0.16621399,0.0,0.0,0.0,0.15673321,0.0,0.0,0.0,0.0,0.0,0.27911714,0.27924135,0.57328296,0.52224946,0.522305,4.056182,0.0,0.0,0.0,0.090163715,0.0,0.0,0.0,0.0,0.0,0.0028816657,0.014653037,0.021316657,0.0,0.0,0.0,0.0,0.0,0.0
84850869,0.037094623,0.0678457,0.08426297,0.060052633,-0.017689705,0.0864563,0.0,0.0,0.0,0.17932165,0.0,0.0,0.0,0.0,0.0,0.2827199,0.2828262,0.5732432,0.5245968,0.52465636,4.056607,0.0,0.0,0.0,0.09016343,0.0,0.0,0.0,0.0,0.0,0.002615859,0.010629773,0.016733937,0.0,0.0,0.0,0.0,0.0,0.0
85050870,0.074002,0.0017066598,0.10141855,0.05772376,-0.013426781,0.10951233,0.0,0.0,0.0,0.2117691,0.0,0.0,0.0,0.0,0.0,0.2851278,0.28521013,0.5732981,0.52599937,0.5260562,4.056402,0.0,0.0,0.0,0.090163276,0.0,0.0,0.0,0.0,0.0,0.0026925572,0.011711454,0.014506629,0.0,0.0,0.0,0.0,0.0,0.0
85250870,0.03968543,0.032106817,0.052154303,0.068781614,-0.0066423416,0.3439331,0.0,0.0,0.0,0.06546062,0.0,0.0,0.0,0.0,0.0,0.2866766,0.28673682,0.57331264,0.52687246,0.52692306,4.0566597,0.0,0.0,0.0,0.09016311,0.0,0.0,0.0,0.0,0.0,0.0023790866,0.010067843,0.014821693,0.0,0.0,0.0,0.0,0.0,0.0
85458870,0.11347997,0.016789317,0.10565216,0.080953,-0.0068864822,-0.44106293,0.0,0.0,0.0,0.15284806,0.0,0.0,0.0,0.0,0.0,0.28829062,0.28832608,0.5732699,0.5269215,0.5269652,4.0563946,0.0,0.0,0.0,0.090162925,0.0,0.0,0.0,0.0,0.0,0.0025948668,0.015869755,0.019847257,0.0,0.0,0.0,0.0,0.0,0.0
85658876,0.13539106,0.017035663,-0.065595396,0.08358598,-0.010960579,0.0043411255,0.0,0.0,0.0,0.10607624,0.0,0.0,0.0,0.0,0.0,0.28938118,0.28939173,0.5732333,0.52686745,0.52690256,4.0567565,0.0,0.0,0.0,0.090162694,0.0,0.0,0.0,0.0,0.0,0.0033545473,0.021216726,0.026813643,0.0,0.0,0.0,0.0,0.0,0.0
85866876,0.08458197,0.023709655,0.048118725,0.08908379,-0.013794899,0.2694702,0.0,0.0,0.0,0.09544021,0.0,0.0,0.0,0.0,0.0,0.28928745,0.2892836,0.5732462,0.52605975,0.5260858,4.056808,0.0,0.0,0.0,0.09016255,0.0,0.0,0.0,0.0,0.0,0.0033877057,0.016575594,0.02228431,0.0,0.0,0.0,0.0,0.0,0.0
86066870,0.08495867,0.05021721,-0.052263543,0.08739877,-0.0114007,0.035446167,0.0,0.0,0.0,0.14312702,0.0,0.0,0.0,0.0,0.0,0.28881875,0.28880894,0.5732986,0.52571183,0.52572995,4.0573196,0.0,0.0,0.0,0.09016244,0.0,0.0,0.0,0.0,0.0,0.0029289266,0.01629014,0.020148378,0.0,0.0,0.0,0.0,0.0,0.0
86266870,0.06955665,0.101700336,0.046491772,0.08022356,-0.022722721,0.09992218,0.0,0.0,0.0,0.15388584,0.0,0.0,0.0,0.0,0.0,0.28867635,0.28873155,0.5732273,0.52637315,0.52638435,4.0567093,0.0,0.0,0.0,0.09016239,0.0,0.0,0.0,0.0,0.0,0.0036724568,0.018180538,0.020012505,0.0,0.0,0.0,0.0,0.0,0.0
86474869,0.024377488,0.08213888,-0.050845094,0.071502924,-0.026565075,-0.067718506,0.0,0.0,0.0,0.16061199,0.0,0.0,0.0,0.0,0.0,0.28685477,0.28711993,0.57324135,0.5248072,0.52482176,4.0562644,0.0,0.0,0.0,0.090162136,0.0,0.0,0.0,0.0,0.0,0.004246596,0.014431468,0.01790203,0.0,0.0,0.0,0.0,0.0,0.0
86674889,-0.0025592893,0.069410026,-0.03920883,0.06452024,-0.020934105,-0.04763794,0.0,0.0,0.0,0.09780979,0.0,0.0,0.0,0.0,0.0,0.28512248,0.2855567,0.5731575,0.52509993,0.5251272,4.0557823,0.0,0.0,0.0,0.0901618,0.0,0.0,0.0,0.0,0.0,0.0039897673,0.013361392,0.02091896,0.0,0.0,0.0,0.0,0.0,0.0
86874870,-0.0144607425,0.040871516,0.007162437,0.077147126,-0.020768642,0.47865295,0.0,0.0,0.0,0.10364431,0.0,0.0,0.0,0.0,0.0,0.28386053,0.28427133,0.5732015,0.52450025,0.5245401,4.0560927,0.0,0.0,0.0,0.09016169,0.0,0.0,0.0,0.0,0.0,0.0028018905,0.010269134,0.01627108,0.0,0.0,0.0,0.0,0.0,0.0
87082918,-0.011403352,0.15050426,0.08010479,0.068297386,-0.019979954,0.14635468,0.0,0.0,0.0,0.17208374,0.0,0.0,0.0,0.0,0.0,0.28209344,0.28242064,0.5732262,0.5224959,0.52254033,4.0564933,0.0,0.0,0.0,0.09016145,0.0,0.0,0.0,0.0,0.0,0.0028589654,0.014289385,0.022159766,0.0,0.0,0.0,0.0,0.0,0.0
87282887,0.0067548454,0.097563334,-0.0812146,0.07387686,-0.024963379,0.1507721,0.0,0.0,0.0,0.14289677,0.0,0.0,0.0,0.0,0.0,0.28039634,0.28064978,0.57324326,0.5205024,0.5205498,4.056546,0.0,0.0,0.0,0.09016118,0.0,0.0,0.0,0.0,0.0,0.002622371,0.010967131,0.016948888,0.0,0.0,0.0,0.0,0.0,0.0
87490869,0.047896236,0.07029136,-0.067225054,0.079957366,-0.027223587,-0.03215027,0.0,0.0,0.0,0.051937282,0.0,0.0,0.0,0.0,0.0,0.2791496,0.27933815,0.5732471,0.5196094,0.51966125,4.056333,0.0,0.0,0.0,0.09016104,0.0,0.0,0.0,0.0,0.0,0.0021532208,0.006448049,0.014298512,0.0,0.0,0.0,0.0,0.0,0.0
87690870,0.042913646,0.072892115,-0.044305503,0.07789183,-0.017278194,0.17708588,0.0,0.0,0.0,0.10868335,0.0,0.0,0.0,0.0,0.0,0.27800736,0.27814025,0.57330006,0.51905656,0.5191113,4.0565934,0.0,0.0,0.0,0.0901609,0.0,0.0,0.0,0.0,0.0,0.0020665745,0.004678408,0.011541156,0.0,0.0,0.0,0.0,0.0,0.0
87890903,0.02484855,0.028062122,0.13843289,0.07079697,-0.018819332,0.08288574,0.0,0.0,0.0,0.09604728,0.0,0.0,0.0,0.0,0.0,0.27647617,0.27656227,0.57322973,0.5166144,0.5166653,4.0562015,0.0,0.0,0.0,0.09016066,0.0,0.0,0.0,0.0,0.0,0.0021510958,0.0011447364,0.0027862384,0.0,0.0,0.0,0.0,0.0,0.0
88098893,0.04715118,0.029527051,-0.08774018,0.07751036,-0.022545338,0.2108612,0.0,0.0,0.0,0.058202803,0.0,0.0,0.0,0.0,0.0,0.27517584,0.27522206,0.5731735,0.5142701,0.51431656,4.056339,0.0,0.0,0.0,0.09016053,0.0,0.0,0.0,0.0,0.0,0.0017210459,0.00392054,0.007856209,0.0,0.0,0.0,0.0,0.0,0.0
88298869,0.035396505,0.08150607,-0.13846487,0.068630695,-0.022111416,-0.11872101,0.0,0.0,0.0,0.0874244,0.0,0.0,0.0,0.0,0.0,0.27430964,0.27432063,0.57323474,0.5135149,0.51355785,4.056334,0.0,0.0,0.0,0.090160415,0.0,0.0,0.0,0.0,0.0,0.0017751956,0.007860672,0.021691391,0.0,0.0,0.0,0.0,0.0,0.0
88498876,0.03702063,0.04755059,0.06397167,0.064370394,-0.019878864,-0.15097046,0.0,0.0,0.0,0.084504426,0.0,0.0,0.0,0.0,0.0,0.27290526,0.27289218,0.5732231,0.51052946,0.51056546,4.056123,0.0,0.0,0.0,0.090160154,0.0,0.0,0.0,0.0,0.0,0.0021185272,0.008603156,0.02602971,0.0,0.0,0.0,0.0,0.0,0.0
88706876,0.024426788,0.039672658,0.03503199,0.049997926,-0.0189929,0.0072784424,0.0,0.0,0.0,0.119059086,0.0,0.0,0.0,0.0,0.0,0.2717166,0.27168706,0.57320255,0.5100167,0.51004654,4.056512,0.0,0.0,0.0,0.09016001,0.0,0.0,0.0,0.0,0.0,0.0020580138,0.0076202173,0.021655926,0.0,0.0,0.0,0.0,0.0,0.0
88906870,-0.011094943,0.007869631,0.031054407,0.042614102,-0.014080524,-0.28948975,0.0,0.0,0.0,0.07686615,0.0,0.0,0.0,0.0,0.0,0.27064517,0.2706031,0.5732676,0.50813675,0.5081603,4.0567617,0.0,0.0,0.0,0.09016,0.0,0.0,0.0,0.0,0.0,0.0015452611,0.01140641,0.029664285,0.0,0.0,0.0,0.0,0.0,0.0
89114907,0.03694816,0.04972905,0.010623887,0.046548367,-0.009468079,-0.29177856,0.0,0.0,0.0,0.06993979,0.0,0.0,0.0,0.0,0.0,0.2697201,0.26966438,0.57320184,0.5071249,0.5071418,4.0566535,0.0,0.0,0.0,0.090159826,0.0,0.0,0.0,0.0,0.0,0.0019165347,0.0058777793,0.010662634,0.0,0.0,0.0,0.0,0.0,0.0
89314870,-0.016989812,0.004567787,0.0090625975,0.03476584,-0.010631084,-0.18946075,0.0,0.0,0.0,0.07507491,0.0,0.0,0.0,0.0,0.0,0.26907313,0.26900497,0.57322013,0.505754,0.50576365,4.057083,0.0,0.0,0.0,0.09015953,0.0,0.0,0.0,0.0,0.0,0.00150604,0.009602174,0.020738492,0.0,0.0,0.0,0.0,0.0,0.0
89514870,-0.018151194,0.023841009,0.0021541705,0.026305199,-0.010969162,-0.26844025,0.0,0.0,0.0,0.065817595,0.0,0.0,0.0,0.0,0.0,0.26834774,0.26827163,0.5733649,0.5051736,0.5051759,4.0573506,0.0,0.0,0.0,0.09015941,0.0,0.0,0.0,0.0,0.0,0.0012204751,0.0105008865,0.023422292,0.0,0.0,0.0,0.0,0.0,0.0
89722869,0.029399991,0.022582024,-0.15790343,0.024376392,-0.010315418,-0.21347809,0.0,0.0,0.0,0.06248784,0.0,0.0,0.0,0.0,0.0,0.26779374,0.26771003,0.5733225,0.504616,0.504611,4.0570517,0.0,0.0,0.0,0.09015924,0.0,0.0,0.0,0.0,0.0,0.0016203469,0.011131117,0.027938005,0.0,0.0,0.0,0.0,0.0,0.0
89922909,0.016758382,0.0111386925,0.023929834,0.024753094,-0.01006794,-0.19313812,0.0,0.0,0.0,0.065900326,0.0,0.0,0.0,0.0,0.0,0.26715374,0.26707083,0.5733413,0.5023426,0.5023312,4.057348,0.0,0.0,0.0,0.090159126,0.0,0.0,0.0,0.0,0.0,0.0016578776,0.00769215,0.022244174,0.0,0.0,0.0,0.0,0.0,0.0
90122870,-0.038779885,0.11302166,-0.022572547,0.01859653,-0.0014791489,-0.041511536,0.0,0.0,0.0,0.202061,0.0,0.0,0.0,0.0,0.0,0.26658964,0.26652724,0.57330257,0.50186235,0.50184554,4.0577965,0.0,0.0,0.0,0.090159,0.0,0.0,0.0,0.0,0.0,0.0024856108,0.007460514,0.021014882,0.0,0.0,0.0,0.0,0.0,0.0
90330869,0.068898916,0.07509572,-0.029434055,0.034463167,-0.00733757,0.023292542,0.0,0.0,0.0,0.20522022,0.0,0.0,0.0,0.0,0.0,0.2662076,0.26622617,0.57331747,0.5008491,0.5008336,4.057716,0.0,0.0,0.0,0.0901587,0.0,0.0,0.0,0.0,0.0,0.0035621317,0.0062285815,0.01617687,0.0,0.0,0.0,0.0,0.0,0.0
90530870,-0.0021420717,0.15875056,-0.22359277,0.034337044,-0.010418892,-0.21256256,0.0,0.0,0.0,0.16180986,0.0,0.0,0.0,0.0,0.0,0.26562524,0.26575765,0.5733043,0.49851254,0.49851012,4.0581,0.0,0.0,0.0,0.090158485,0.0,0.0,0.0,0.0,0.0,0.004157769,0.00961914,0.0145192575,0.0,0.0,0.0,0.0,0.0,0.0
90738870,-0.032874286,-0.015723705,-0.016164988,0.03621316,-0.022976875,-0.04762268,0.0,0.0,0.0,0.008339703,0.0,0.0,0.0,0.0,0.0,0.26520923,0.26540187,0.573335,0.4966334,0.49665225,4.0573707,0.0,0.0,0.0,0.09015833,0.0,0.0,0.0,0.0,0.0,0.0027056823,0.009476712,0.014599811,0.0,0.0,0.0,0.0,0.0,0.0
90938904,-0.038220108,0.0862937,0.031151295,0.049393058,-0.011512756,0.26866913,0.0,0.0,0.0,-0.02833128,0.0,0.0,0.0,0.0,0.0,0.26493508,0.26510862,0.5732396,0.49646446,0.49650314,4.0568438,0.0,0.0,0.0,0.09015816,0.0,0.0,0.0,0.0,0.0,0.0011387721,0.01252822,0.03169932,0.0,0.0,0.0,0.0,0.0,0.0
91138870,-0.031986833,-0.022309422,-0.109007716,0.03455472,-0.022650719,0.2392044,0.0,0.0,0.0,0.009867072,0.0,0.0,0.0,0.0,0.0,0.26454884,0.26466444,0.5731676,0.49553508,0.49558336,4.056304,0.0,0.0,0.0,0.09015803,0.0,0.0,0.0,0.0,0.0,0.00029864124,0.014859583,0.042147275,0.0,0.0,0.0,0.0,0.0,0.0
91346876,-0.07152963,0.09898421,-0.17355701,0.019755006,-0.018194199,-0.0116119385,0.0,0.0,0.0,-0.011539757,0.0,0.0,0.0,0.0,0.0,0.2642824,0.26433665,0.5731356,0.49507338,0.49512586,4.056691,0.0,0.0,0.0,0.09015793,0.0,0.0,0.0,0.0,0.0,0.00011051113,0.0068279784,0.019874997,0.0,0.0,0.0,0.0,0.0,0.0
91546893,-0.08910376,0.056441694,-0.014579356,0.0010179281,-0.015590191,0.09803772,0.0,0.0,0.0,0.026211917,0.0,0.0,0.0,0.0,0.0,0.26400316,0.26402038,0.57311666,0.49463654,0.49468756,4.056192,0.0,0.0,0.0,0.0901577,0.0,0.0,0.0,0.0,0.0,0.00042185312,0.008810399,0.019029263,0.0,0.0,0.0,0.0,0.0,0.0
91746870,-0.015974939,0.098407045,-0.08020103,-0.0019466877,-0.006300926,-0.024276733,0.0,0.0,0.0,0.1133315,0.0,0.0,0.0,0.0,0.0,0.26374272,0.2637396,0.5731104,0.49422184,0.49426806,4.0560575,0.0,0.0,0.0,0.090157606,0.0,0.0,0.0,0.0,0.0,0.0013111441,0.007860034,0.020346692,0.0,0.0,0.0,0.0,0.0,0.0
91954869,-0.010746896,0.030028343,0.10218786,-0.010490656,0.0031003952,0.32683563,0.0,0.0,0.0,-0.0020626783,0.0,0.0,0.0,0.0,0.0,0.26351008,0.263493,0.57311165,0.49383128,0.49387065,4.0559053,0.0,0.0,0.0,0.090157494,0.0,0.0,0.0,0.0,0.0,0.0012340962,0.004759066,0.011151649,0.0,0.0,0.0,0.0,0.0,0.0
92154917,-0.022697955,0.0347649,-0.039694734,-0.004878044,0.0029945374,0.095939636,0.0,0.0,0.0,-0.0015506744,0.0,0.0,0.0,0.0,0.0,0.26339555,0.26336795,0.57319635,0.49347124,0.49350232,4.056336,0.0,0.0,0.0,0.09015738,0.0,0.0,0.0,0.0,0.0,0.00084184884,0.0056506284,0.014024447,0.0,0.0,0.0,0.0,0.0,0.0
92362870,0.031221822,0.077598244,0.012728823,-0.019519567,0.014778137,-0.14110565,0.0,0.0,0.0,0.02283156,0.0,0.0,0.0,0.0,0.0,0.26322374,0.26317555,0.57322305,0.49120316,0.49121577,4.0566325,0.0,0.0,0.0,0.090157196,0.0,0.0,0.0,0.0,0.0,0.0010855262,0.0049017305,0.016534062,0.0,0.0,0.0,0.0,0.0,0.0
92562870,-0.018389583,0.071060985,-0.10992258,-0.016869545,0.016051292,-0.22141266,0.0,0.0,0.0,-0.06255376,0.0,0.0,0.0,0.0,0.0,0.2632245,0.26313677,0.5732059,0.49097207,0.4909741,4.056741,0.0,0.0,0.0,0.090157084,0.0,0.0,0.0,0.0,0.0,0.00019896917,0.006501388,0.018334283,0.0,0.0,0.0,0.0,0.0,0.0
92762905,-0.018389583,0.071060985,-0.10992258,-0.016869545,0.016051292,-0.21337128,0.0,0.0,0.0,-0.052792072,0.0,0.0,0.0,0.0,0.0,0.2632245,0.26313677,0.5732059,0.49097207,0.4909741,4.056536,0.0,0.0,0.0,0.09015692,0.0,0.0,0.0,0.0,0.0,0.0012069441,0.0065665236,0.017388072,0.0,0.0,0.0,0.0,0.0,0.0
92970897,0.001317054,0.037700742,-0.010485699,-0.015108347,0.008468151,0.2155075,0.0,0.0,0.0,-0.004747987,0.0,0.0,0.0,0.0,0.0,0.2633283,0.2631332,0.57320404,0.48955262,0.489522,4.056662,0.0,0.0,0.0,0.09015674,0.0,0.0,0.0,0.0,0.0,0.0010515779,0.005912446,0.011527897,0.0,0.0,0.0,0.0,0.0,0.0
93170869,-0.055127442,0.040277123,0.020597486,-0.011292458,0.015203476,0.0871582,0.0,0.0,0.0,0.03943044,0.0,0.0,0.0,0.0,0.0,0.26331443,0.26312545,0.57318926,0.48803383,0.48798558,4.0561743,0.0,0.0,0.0,0.09015647,0.0,0.0,0.0,0.0,0.0,0.00012464827,0.0063278424,0.01091003,0.0,0.0,0.0,0.0,0.0,0.0
93370870,-0.011492491,0.09046608,-0.17328808,-0.014717817,0.019914627,0.022621155,0.0,0.0,0.0,0.040138006,0.0,0.0,0.0,0.0,0.0,0.26332527,0.26316956,0.5731837,0.48784673,0.48778325,4.055752,0.0,0.0,0.0,0.0901563,0.0,0.0,0.0,0.0,0.0,0.00082849927,0.006341438,0.013649666,0.0,0.0,0.0,0.0,0.0,0.0
93578869,-0.06901237,0.08076325,0.10299644,-0.019726515,0.023818493,0.091560364,0.0,0.0,0.0,0.07742101,0.0,0.0,0.0,0.0,0.0,0.2632911,0.26318642,0.57325566,0.48768875,0.48761478,4.0561776,0.0,0.0,0.0,0.09015593,0.0,0.0,0.0,0.0,0.0,0.0017755857,0.00857319,0.017733833,0.0,0.0,0.0,0.0,0.0,0.0
