timestamp,lat,lon,alt,alt_ellipsoid,delta_alt,vel_n,vel_e,vel_d,yaw,eph,epv,terrain_alt,lat_lon_reset_counter,alt_reset_counter,terrain_alt_valid,dead_reckoning
50798118,49.08973513218717,2.1104826815755096,86.822556,132.50122,-0.0,0.009623731,-0.016578645,0.00048281395,0.47261718,0.7167931,1.5014354,0.0,2,0,0,0
51006915,49.089735087886694,2.1104827118483165,86.820564,132.50412,-0.0,0.0068561165,-0.015563355,0.0023936792,0.47178522,0.7171291,1.501244,0.0,2,0,0,0
51207670,49.089735055474584,2.1104827447015477,86.820885,132.50958,-0.0,0.004994814,-0.013782483,0.00258149,0.4709572,0.71701086,1.5012133,0.0,2,0,0,0
51407670,49.089735031718945,2.11048276700717,86.82208,132.5154,-0.0,0.0028260024,-0.01223254,0.0017047885,0.4705168,0.71684587,1.5014136,0.0,2,0,0,0
51610876,49.0897350173061,2.1104827827344517,86.827324,132.52563,-0.0,0.0010536812,-0.011796459,-0.0008737766,0.4701825,0.717117,1.5012261,0.0,2,0,0,0
51818105,49.08973500783734,2.11048279651997,86.83006,132.53337,-0.0,-0.00064648344,-0.0108437445,-0.0026211133,0.4694936,0.7172087,1.5010071,0.0,2,0,0,0
52018870,49.08973500469569,2.1104828146950743,86.83317,132.5414,-0.0,-0.0017919465,-0.009334566,-0.0053887996,0.4686783,0.7170956,1.5012217,0.0,2,0,0,0
52224487,49.08973501931088,2.1104828299136402,86.83331,132.5473,-0.0,-0.0017957906,-0.0076162517,-0.007034103,0.46778113,0.7172621,1.5012879,0.0,2,0,0,0
52423670,49.08973504398408,2.1104828382712677,86.831474,132.54979,-0.0,-0.0012147038,-0.0077355797,-0.0064441077,0.4670451,0.71701914,1.5012321,0.0,2,0,0,0
52630876,49.08973507358219,2.110482855869922,86.83047,132.55322,-0.0,-0.001222325,-0.007534173,-0.0065347794,0.46605402,0.7173875,1.5013148,0.0,2,0,0,0
52831670,49.08973510572843,2.1104828733636,86.84082,132.56824,-0.0,-0.0006845109,-0.007856683,-0.009435617,0.4649343,0.7172911,1.5012858,0.0,2,0,0,0
53031680,49.08973515861341,2.110482878289327,86.84921,132.5811,-0.0,-1.6149897e-05,-0.007759945,-0.011949645,0.46375102,0.71720177,1.5012667,0.0,2,0,0,0
53238070,49.08973522151326,2.110482860512647,86.85511,132.59103,-0.0,0.0016023054,-0.008165281,-0.012702972,0.46267483,0.71752256,1.5011033,0.0,2,0,0,0
53439714,49.08973529408818,2.1104828395580153,86.858406,132.59853,-0.0,0.0043687015,-0.008745137,-0.013962206,0.46178904,0.717267,1.5010635,0.0,2,0,0,0
53646106,49.08973537631523,2.110482830075117,86.86016,132.60385,-0.0,0.006162987,-0.0089076515,-0.014057005,0.46094352,0.7176742,1.500938,0.0,2,0,0,0
53847678,49.08973543952183,2.110482832881255,86.85752,132.60497,-0.0,0.007058598,-0.0084201805,-0.012350197,0.46015027,0.717654,1.5009644,0.0,2,0,0,0
54047695,49.089735497628425,2.1104828116037107,86.852165,132.60289,-0.0,0.008044445,-0.009263823,-0.010761989,0.45933065,0.7176165,1.5009763,0.0,2,0,0,0
54250898,49.08973555403109,2.110482768944462,86.84197,132.59639,-0.0,0.007587405,-0.010817506,-0.0071681826,0.4583396,0.7178289,1.5010852,0.0,2,0,0,0
54451707,49.08973561029185,2.1104827231567813,86.83318,132.59056,-0.0,0.0074228835,-0.012334655,-0.0046399897,0.45702237,0.71755975,1.5012788,0.0,2,0,0,0
54651670,49.089735670561886,2.1104826923525426,86.82038,132.58041,-0.0,0.007897904,-0.012818983,-0.00072502013,0.45606577,0.7175457,1.5015056,0.0,2,0,0,0
54859670,49.089735735300735,2.1104826609648955,86.812065,132.57513,-0.0,0.008798983,-0.013373212,0.0006431131,0.45519626,0.7179157,1.5013099,0.0,2,0,0,0
55059670,49.08973579019285,2.1104826272389046,86.80421,132.57025,-0.0,0.009029584,-0.014185213,0.004667345,0.4543132,0.71779215,1.5012805,0.0,2,0,0,0
55259670,49.08973584026397,2.110482582101957,86.80206,132.57115,-0.0,0.0084491065,-0.015176103,0.004867479,0.45355496,0.71773934,1.5012585,0.0,2,0,0,0
55467670,49.089735897532606,2.110482540243641,86.798706,132.57057,-0.0,0.009155506,-0.015099616,0.005366984,0.45283788,0.71810323,1.5013418,0.0,2,0,0,0
55671669,49.08973595574118,2.1104825067429513,86.79282,132.56757,-0.0,0.008746882,-0.014936287,0.0069942377,0.4519737,0.71839976,1.5016521,0.0,2,0,0,0
55871712,49.08973601795034,2.110482460044858,86.79046,132.56805,-0.0,0.008551834,-0.01613163,0.006717501,0.45133576,0.71799433,1.5015295,0.0,2,0,0,0
56071670,49.08973606773467,2.110482406865214,86.79047,132.57115,-0.0,0.008173295,-0.017040497,0.0055411523,0.45052582,0.71798384,1.5012593,0.0,2,0,0,0
56279670,49.089736107591065,2.1104823469028005,86.79642,132.58066,-0.0,0.0060135317,-0.018125042,0.0021713658,0.44947448,0.7182801,1.5015638,0.0,2,0,0,0
56479670,49.08973614014503,2.1104822789230653,86.80173,132.58939,-0.0,0.0037050096,-0.019445688,-0.00010371297,0.44868788,0.7181923,1.5012681,0.0,2,0,0,0
56687672,49.08973616186405,2.1104822027563674,86.81425,132.6055,-0.0,0.003335628,-0.020743456,-0.005870475,0.4478038,0.71855223,1.501332,0.0,2,0,0,0
56887715,49.0897361820302,2.1104821272610708,86.82858,132.62308,-0.0,0.0019899725,-0.021498648,-0.011822227,0.44701037,0.71846956,1.5013129,0.0,2,0,0,0
57087670,49.08973619270177,2.1104820512531677,86.83678,132.63419,-0.0,-9.356548e-05,-0.022119075,-0.013842616,0.4463475,0.71839607,1.5010614,0.0,2,0,0,0
57295669,49.08973620030479,2.110481984605797,86.8455,132.64536,-0.0,-0.001545081,-0.022331651,-0.017055638,0.4457177,0.7188265,1.5009239,0.0,2,0,0,0
57495669,49.08973620728668,2.1104818920172908,86.84654,132.6486,-0.0,-0.0032757886,-0.023528716,-0.015849177,0.44494087,0.71874774,1.500944,0.0,2,0,0,0
57694940,49.08973621718354,2.110481791745015,86.844894,132.64914,-0.0,-0.0046129073,-0.025549479,-0.012892725,0.44422147,0.7186276,1.5009712,0.0,2,0,0,0
57903681,49.08973623743651,2.1104816981012156,86.83927,132.64539,-0.0,-0.005502021,-0.025891904,-0.011227759,0.44368848,0.7189904,1.5008622,0.0,2,0,0,0
58103670,49.08973624983224,2.1104816261693995,86.83499,132.64316,-0.0,-0.0067184847,-0.024536984,-0.009024157,0.44341353,0.7189251,1.5011239,0.0,2,0,0,0
58311673,49.08973625856054,2.1104815545821856,86.835175,132.64606,-0.0,-0.008180689,-0.024559826,-0.009129929,0.44326812,0.7192007,1.5012084,0.0,2,0,0,0
58511682,49.089736266336296,2.110481497322155,86.837494,132.65039,-0.0,-0.00894275,-0.02445651,-0.0095240325,0.44297308,0.71914303,1.5014412,0.0,2,0,0,0
58711718,49.089736283375856,2.1104814493283213,86.838974,132.65352,-0.0,-0.010200684,-0.023659179,-0.010041644,0.44228768,0.71909606,1.5016541,0.0,2,0,0,0
58919703,49.089736315699724,2.110481401981948,86.830215,132.64937,-0.0,-0.009271824,-0.022501742,-0.0059932773,0.44137475,0.7195011,1.5014488,0.0,2,0,0,0
59119677,49.08973633533183,2.110481400868642,86.82203,132.6437,-0.0,-0.00982371,-0.01989541,-0.0051052943,0.44059226,0.71938723,1.5016465,0.0,2,0,0,0
59319670,49.089736358595054,2.1104814033451125,86.81595,132.64026,-0.0,-0.010860234,-0.016464679,-0.005181387,0.4401158,0.7193464,1.5015957,0.0,2,0,0,0
59527670,49.08973638664535,2.1104813722336146,86.81474,132.64194,-0.0,-0.01098395,-0.014439024,-0.005220701,0.43982664,0.7197564,1.5014031,0.0,2,0,0,0
59727717,49.08973640479263,2.1104813407920426,86.81173,132.64192,-0.0,-0.011540864,-0.013090219,-0.005408202,0.43960696,0.71970713,1.5013632,0.0,2,0,0,0
59927670,49.089736413514224,2.1104812626786686,86.81011,132.64326,-0.0,-0.01300862,-0.01314355,-0.003690041,0.4391331,0.7197194,1.5015697,0.0,2,0,0,0
60127670,49.089736406632845,2.110481223607862,86.80613,132.64258,-0.0,-0.014734613,-0.012076289,-0.0019416991,0.43862182,0.71965444,1.5015118,0.0,2,0,0,0
60335701,49.08973640259274,2.1104811944521438,86.80428,132.64418,-0.0,-0.016149305,-0.009940572,-0.0012703844,0.43803924,0.72004724,1.5015393,0.0,2,0,0,0
60535678,49.08973634765239,2.11048113032534,86.80625,132.64978,-0.0,-0.02081059,-0.009776639,-0.0032356149,0.43776372,0.72020245,1.5014843,0.0,2,0,0,0
60743674,49.08973629839993,2.1104810782973673,86.81131,132.65808,-0.0,-0.0249903,-0.009727603,-0.0043018693,0.43767166,0.7210959,1.5015154,0.0,2,0,0,0
60943678,49.08973627554972,2.1104810284916087,86.813644,132.66415,-0.0,-0.026467208,-0.008767316,-0.0062299166,0.4372406,0.7216666,1.501467,0.0,2,0,0,0
61143669,49.089736256505375,2.1104809844296972,86.81552,132.66977,-0.0,-0.027892621,-0.008098591,-0.0051840893,0.4367503,0.72213805,1.5014377,0.0,2,0,0,0
61351670,49.08973621645535,2.1104809703316003,86.823,132.68057,-0.0,-0.029504778,-0.0067012142,-0.006779135,0.43616295,0.7229551,1.5012646,0.0,2,0,0,0
61551703,49.08973618482726,2.110480962112817,86.82649,132.6878,-0.0,-0.030652853,-0.005240272,-0.007401201,0.43551812,0.72323614,1.5012561,0.0,2,0,0,0
61751677,49.08973615421738,2.1104809596250913,86.826645,132.69182,-0.0,-0.03150975,-0.0032243687,-0.006723688,0.43496278,0.7234471,1.5012407,0.0,2,0,0,0
61951675,49.08973611930499,2.110480989489146,86.831215,132.69998,-0.0,-0.03203233,-0.0007006091,-0.008928699,0.43446213,0.72363013,1.5014577,0.0,2,0,0,0
62151669,49.089736071747346,2.1104809726918354,86.83475,132.70657,-0.0,-0.0337954,-0.00041161032,-0.00987091,0.43382564,0.7236428,1.5014166,0.0,2,0,0,0
62359670,49.08973601525583,2.110480927994845,86.834236,132.70886,-0.0,-0.03504514,-0.00022176025,-0.008593736,0.43314007,0.72408205,1.501236,0.0,2,0,0,0
62559669,49.08973598383694,2.110480921910692,86.82934,132.7062,-0.0,-0.03576697,0.00045287222,-0.006198671,0.43262058,0.7240602,1.5012228,0.0,2,0,0,0
62759676,49.089735930155456,2.110480885275121,86.817566,132.69624,-0.0,-0.03700936,0.00043151435,-0.0017526003,0.43212548,0.72395265,1.5012194,0.0,2,0,0,0
62967676,49.089735886740854,2.1104808358665554,86.80814,132.68832,-0.0,-0.03779084,0.0008152647,0.00034487405,0.43154988,0.7134347,1.5011241,0.0,2,0,0,0
63167670,49.08973584001876,2.1104807685401092,86.80379,132.68541,-0.0,-0.03933017,0.0004981779,0.0007107621,0.43115494,0.71330833,1.5011094,0.0,2,0,0,0
63367670,49.089735774058404,2.1104806856244562,86.8099,132.69315,-0.0,-0.041586366,-0.00057605334,-0.0026663318,0.43064022,0.724071,1.5015197,0.0,2,0,0,0
63567670,49.08973574361176,2.110480610100561,86.81474,132.69911,-0.0,-0.04143519,-0.0014186674,-0.003484642,0.43015215,0.7130413,1.5010529,0.0,2,0,0,0
63767670,49.08973572534695,2.110480543349135,86.816536,132.70209,-0.0,-0.0398027,-0.0012679899,-0.003177024,0.42993158,0.71287626,1.5010412,0.0,2,0,0,0
63975676,49.089735697551,2.1104804951740985,86.818504,132.70477,-0.0,-0.038868796,-0.0009821093,-0.002444999,0.42959234,0.7131083,1.5008942,0.0,2,0,0,0
64175694,49.08973565320556,2.1104804518430864,86.81787,132.70471,-0.0,-0.03992731,-0.00072138745,-0.0017095718,0.42938578,0.7238599,1.501323,0.0,2,0,0,0
64383670,49.089735619784285,2.110480419238328,86.820595,132.70819,-0.0,-0.038785025,0.00037881243,-0.0035096286,0.4292802,0.7130975,1.5009724,0.0,2,0,0,0
64583670,49.08973559710736,2.110480396547022,86.81918,132.70798,-0.0,-0.03755162,0.0021214895,-0.0029097404,0.42906135,0.71292204,1.5009705,0.0,2,0,0,0
64783670,49.0897355869343,2.1104803572014443,86.81766,132.70718,-0.0,-0.035861317,0.0029172194,-0.00093120104,0.42894572,0.71275187,1.5009792,0.0,2,0,0,0
64983670,49.089735578994116,2.1104803164313903,86.820885,132.71086,-0.0,-0.034323975,0.0036425774,-0.0034171396,0.42882863,0.71256316,1.5009925,0.0,2,0,0,0
65191670,49.0897355566876,2.110480297138861,86.82548,132.71623,-0.0,-0.03394267,0.0038585307,-0.004959728,0.42883885,0.7127318,1.5010923,0.0,2,0,0,0
65391676,49.08973551968319,2.1104802773400952,86.82535,132.71658,-0.0,-0.03489684,0.0047057695,-0.004796871,0.4287973,0.71250975,1.5013257,0.0,2,0,0,0
65595715,49.08973548384694,2.110480251159359,86.83163,132.72388,-0.0,-0.034940407,0.005097953,-0.0069376295,0.42850283,0.71269035,1.5011365,0.0,2,0,0,0
65795698,49.08973543962734,2.1104802378729652,86.835686,132.72845,-0.0,-0.03476222,0.0057662977,-0.009798455,0.4283039,0.712459,1.5011002,0.0,2,0,0,0
66003676,49.08973539665937,2.110480252605424,86.8361,132.73016,-0.0,-0.03443359,0.007805356,-0.008678688,0.4280779,0.71271896,1.5011948,0.0,2,0,0,0
66203670,49.08973536745378,2.1104802692151874,86.83698,132.73264,-0.0,-0.034112558,0.008760737,-0.010121531,0.4278184,0.71255314,1.5011798,0.0,2,0,0,0
66403712,49.08973533306282,2.110480274977553,86.84305,132.74124,-0.0,-0.034294214,0.009894477,-0.012487781,0.42755646,0.71239173,1.5011709,0.0,2,0,0,0
66603670,49.0897352975088,2.1104802883778246,86.85123,132.75146,-0.0,-0.03369692,0.011362896,-0.01574887,0.42722213,0.7122996,1.5011555,0.0,2,0,0,0
66811670,49.089735282866656,2.110480318576071,86.85765,132.76,-0.0,-0.032448597,0.013756726,-0.016954962,0.42673805,0.71257746,1.5014684,0.0,2,0,0,0
67011669,49.089735280558884,2.1104803592643484,86.86413,132.76909,-0.0,-0.030361107,0.015844498,-0.019573167,0.4266485,0.71254987,1.5014269,0.0,2,0,0,0
67211676,49.08973529218286,2.1104804033778257,86.8624,132.77048,-0.0,-0.028040444,0.018781392,-0.018021917,0.42669386,0.71248335,1.5011518,0.0,2,0,0,0
67419724,49.08973530292183,2.1104804594994815,86.86227,132.77284,-0.0,-0.026034167,0.0219557,-0.018823963,0.42678815,0.7128841,1.5009937,0.0,2,0,0,0
67619670,49.089735307676484,2.1104805044694515,86.872154,132.78542,-0.0,-0.024499463,0.023307994,-0.02204874,0.4265723,0.71283394,1.5012276,0.0,2,0,0,0
67827670,49.08973533432546,2.1104805237644104,86.88171,132.79759,-0.0,-0.021422151,0.023513654,-0.02404955,0.42625752,0.7131765,1.5010622,0.0,2,0,0,0
68027670,49.08973535930828,2.1104805345609052,86.8934,132.81107,-0.0,-0.01843542,0.024066482,-0.027757773,0.42578515,0.71312535,1.5012867,0.0,2,0,0,0
68227670,49.08973536922391,2.110480541656968,86.90277,132.82236,-0.0,-0.015782453,0.024792345,-0.02947468,0.42527807,0.71303326,1.5012684,0.0,2,0,0,0
69035670,49.08973534588953,2.110480533970334,86.90045,132.82271,-0.0,-0.010717042,0.027993793,-0.025293887,0.42419302,0.71340257,1.5010945,0.0,2,0,0,0
69243669,49.089735346140394,2.110480525256186,86.89898,132.82094,-0.0,-0.009292022,0.028516678,-0.024564119,0.42385995,0.7137517,1.500962,0.0,2,0,0,0
69443670,49.089735332571806,2.1104805033169067,86.899445,132.8209,-0.0,-0.00852385,0.027710678,-0.023987385,0.42346948,0.7136761,1.5011991,0.0,2,0,0,0
69651670,49.089735307266416,2.1104804399905275,86.90227,132.8233,-0.0,-0.008388235,0.025616856,-0.022947652,0.42313236,0.7141263,1.5012681,0.0,2,0,0,0
69851676,49.08973527462643,2.110480364898358,86.90267,132.82307,-0.0,-0.008909945,0.022346875,-0.021618458,0.42292503,0.71403676,1.5012481,0.0,2,0,0,0
70051670,49.08973524323688,2.110480288550918,86.90118,132.82037,-0.0,-0.009229752,0.019628467,-0.020130489,0.42266265,0.713959,1.5012379,0.0,2,0,0,0
70259670,49.089735219338046,2.1104802211619584,86.895065,132.81294,-0.0,-0.008131448,0.016315788,-0.017561935,0.42261407,0.71417737,1.5010872,0.0,2,0,0,0
70459670,49.08973521127899,2.1104801591283238,86.88737,132.80371,-0.0,-0.009185347,0.016360508,-0.014077412,0.42249042,0.71410924,1.5010922,0.0,2,0,0,0
70659678,49.08973520669024,2.110480107987016,86.8847,132.79942,-0.0,-0.0085122585,0.01568055,-0.014853018,0.4224608,0.7140795,1.5008675,0.0,2,0,0,0
70867670,49.089735201640906,2.110480055363487,86.88579,132.79921,-0.0,-0.0062664305,0.016247943,-0.0125118755,0.4223107,0.71442086,1.5009849,0.0,2,0,0,0
71067678,49.08973519337655,2.1104799878704457,86.8949,132.80717,-0.0,0.0055685816,0.014096442,-0.026945673,0.4229348,0.7143368,1.501014,0.0,2,0,0,0
71275711,49.08973517405964,2.110479903820676,86.91722,132.82793,-0.0,-0.00063836493,0.008559546,-0.016244827,0.42273328,0.71467775,1.5009049,0.0,2,0,0,0
71475670,49.08973518630943,2.110479860295727,86.940155,132.84944,-0.0,0.03333957,0.042180512,-0.15050392,0.42334762,0.71458995,1.5009459,0.0,2,0,0,0
71675717,49.08973525643264,2.1104798693182634,86.99559,132.90314,-0.0,0.023721378,0.029688647,-0.10860049,0.42806017,0.7145248,1.5009855,0.0,2,0,0,0
71883675,49.08973532841711,2.1104798797984525,87.04847,132.95374,-0.0,0.01439875,0.03581417,0.24340683,0.43463552,0.7148909,1.5011032,0.0,2,0,0,0
72083670,49.08973527231329,2.1104794995195593,87.11219,133.01529,-0.0,-0.044501692,-0.12329085,-0.28772652,0.43926567,0.7148464,1.5011085,0.0,2,0,0,0
72283670,49.08973517422594,2.110479043986263,87.20459,133.1048,-0.0,-0.048213024,-0.109940745,0.004648692,0.4408827,0.7150101,1.50112,0.0,2,0,0,0
72486886,49.08973503265128,2.110478758999504,87.254005,133.15045,-0.0,-0.068475716,-0.092661805,0.019846205,0.43955722,0.7155125,1.5009009,0.0,2,0,0,0
72687670,49.08973495161943,2.110478649432592,87.3092,133.20145,-0.0,0.0044251583,-0.026499862,-0.04626082,0.43396357,0.7162752,1.5012064,0.0,2,0,0,0
72895670,49.089734965829386,2.11047858099059,87.350494,133.2365,-0.0,-0.03885929,0.021649338,-0.113285884,0.43607652,0.7172856,1.5010731,0.0,2,0,0,0
73095676,49.08973493450899,2.1104785897853127,87.37871,133.25789,-0.0,-0.034452017,0.0074971337,-0.12194473,0.43505117,0.7176637,1.5010716,0.0,2,0,0,0
73295677,49.08973488996521,2.1104786155602873,87.39869,133.27066,-0.0,-0.02762812,0.013450101,-0.14144191,0.43674514,0.7179564,1.5010756,0.0,2,0,0,0
73499670,49.089734831393194,2.1104787885106733,87.42815,133.29314,-0.0,-0.016697614,0.06490888,-0.15377119,0.44233808,0.7186108,1.5011775,0.0,2,0,0,0
73700470,49.089734770009144,2.110478891685669,87.4456,133.30301,-0.0,-0.041763365,-0.0015614998,-0.11639146,0.4326535,0.7187494,1.5011631,0.0,2,0,0,0
73907689,49.08973475471506,2.110478913125899,87.45612,133.30585,-0.0,-0.014628427,0.004316868,-0.11430572,0.4294035,0.71938634,1.5010405,0.0,2,0,0,0
74106869,49.08973473723226,2.1104789361250247,87.47841,133.32085,-0.0,-0.012217732,0.030411774,-0.13488302,0.4338081,0.7194499,1.5012761,0.0,2,0,0,0
74311670,49.089734703560545,2.110479003675849,87.498314,133.33296,-0.0,-0.024590736,0.006206188,-0.110838875,0.43204975,0.7199201,1.5013634,0.0,2,0,0,0
74511727,49.089734679146446,2.1104790188605476,87.49982,133.32693,-0.0,-0.0064919465,-0.018738208,-0.0999207,0.4302302,0.7197471,1.5012925,0.0,2,0,0,0
74714112,49.089734642407905,2.1104790405124714,87.50856,133.32826,-0.0,-0.020586606,0.035108585,-0.12098632,0.4341571,0.71992254,1.501308,0.0,2,0,0,0
74914889,49.08973459490936,2.1104790791720673,87.52044,133.33243,-0.0,-0.029986236,0.008176467,-0.11046172,0.43587616,0.7199086,1.5013045,0.0,2,0,0,0
75122870,49.08973455505263,2.1104791420443134,87.53374,133.33098,-0.0,-0.029796686,0.019048166,-0.09908856,0.43687856,0.72038764,1.5011593,0.0,2,0,0,0
75322870,49.08973454330249,2.1104792089985294,87.53529,133.32474,-0.0,-0.046891734,0.017124424,-0.096058965,0.43719274,0.7204484,1.5014116,0.0,2,0,0,0
75530870,49.0897345277643,2.11047929473561,87.53091,133.31259,-0.0,-0.043280553,0.029312903,-0.093515135,0.4395616,0.7207325,1.5014657,0.0,2,0,0,0
75730869,49.08973453742172,2.1104793871420413,87.52513,133.29895,-0.0,-0.04562403,0.03327598,-0.08478016,0.43752307,0.72051054,1.5016477,0.0,2,0,0,0
75930870,49.089734580427574,2.11047947283666,87.491035,133.2574,-0.0,-0.023398673,0.060854144,-0.12315927,0.43792477,0.7206878,1.5016468,0.0,2,0,0,0
76139670,49.089734609319386,2.1104797487759743,87.48865,133.24747,-0.0,-0.01429968,0.115472995,-0.10725967,0.434622,0.72107947,1.5016824,0.0,2,0,0,0
76337270,49.08973463579402,2.1104801122581036,87.4793,133.23064,-0.0,0.005088973,0.16488855,-0.06607713,0.42468518,0.7210452,1.5018948,0.0,2,0,0,0
76542870,49.089734705617985,2.1104805692244675,87.45922,133.20277,-0.0,0.026590405,0.16972636,-0.034210883,0.4125878,0.72121733,1.5018642,0.0,2,0,0,0
76746137,49.089734777651906,2.1104809603612296,87.44465,133.18112,-0.0,0.014460263,0.15850635,-0.044580985,0.40031916,0.7209698,1.5017654,0.0,2,0,0,0
76946870,49.08973484809492,2.1104812650535973,87.428276,133.1572,-0.0,0.027004821,0.13430229,-0.06965527,0.38517514,0.72108,1.5015,0.0,2,0,0,0
77146870,49.089734980364305,2.1104816424186574,87.41281,133.13481,-0.0,0.057289924,0.16139288,-0.04937152,0.39187288,0.72096044,1.5014609,0.0,2,0,0,0
77354114,49.08973524351587,2.110482190248944,87.40131,133.11696,-0.0,0.15942138,0.23151849,-0.07701041,0.40118775,0.7212749,1.5017713,0.0,2,0,0,0
77554120,49.08973572268871,2.1104828964736737,87.38326,133.09319,-0.0,0.30543092,0.30997983,0.008598701,0.41112366,0.721171,1.5017133,0.0,2,0,0,0
77755732,49.08973639398659,2.1104837419447224,87.34464,133.05042,-0.0,0.38737315,0.35582885,-0.053409025,0.41741613,0.72095126,1.5018911,0.0,2,0,0,0
77954869,49.08973711375433,2.1104846922491447,87.31807,133.01984,-0.0,0.39219803,0.3864501,-0.11247535,0.42301604,0.7208807,1.5018336,0.0,2,0,0,0
78162870,49.08973786937251,2.110485642798749,87.32084,133.01877,-0.0,0.42031962,0.2985742,-0.13172396,0.42138752,0.72125345,1.5018791,0.0,2,0,0,0
78363670,49.08973866975546,2.110486126689079,87.33509,133.03021,-0.0,0.48271337,0.09716871,-0.08365892,0.42145285,0.7210668,1.5018044,0.0,2,0,0,0
78562896,49.08973954093907,2.1104861184170987,87.353386,133.04654,-0.0,0.48386204,0.0024972397,-0.109534234,0.42630062,0.72098696,1.5017363,0.0,2,0,0,0
78771701,49.08974045790725,2.1104859478657234,87.36162,133.05331,-0.0,0.44595912,-0.0006037646,-0.017696809,0.4345585,0.7106626,1.5015688,0.0,2,0,0,0
78970870,49.089741290638756,2.1104858597802605,87.34312,133.03537,-0.0,0.468616,0.053135768,-0.0390478,0.4441119,0.7105578,1.5015223,0.0,2,0,0,0
79170876,49.08974216202069,2.1104859695341256,87.32336,133.01738,-0.0,0.5180015,0.11987413,-0.00022707356,0.44723412,0.71040106,1.5017263,0.0,2,0,0,0
79378870,49.089743223094466,2.110486279624691,87.30263,132.99954,-0.0,0.59870225,0.20926918,-0.08016362,0.44263515,0.71064246,1.5017484,0.0,2,0,0,0
79578869,49.08974433551581,2.110486708978754,87.301094,133.00226,-0.0,0.6172921,0.1608738,-0.13341051,0.43384477,0.71051365,1.5016805,0.0,2,0,0,0
79786878,49.08974554147463,2.1104866680608816,87.310356,133.01741,-0.0,0.65484405,-0.13933326,-0.13246241,0.42185026,0.7107461,1.5016934,0.0,2,0,0,0
79986870,49.08974677313652,2.1104856356392556,87.32996,133.0434,-0.0,0.69884336,-0.5442558,-0.09190898,0.4254236,0.71070945,1.501892,0.0,2,0,0,0
80186870,49.089748056993464,2.1104835624188985,87.33998,133.06178,-0.0,0.7477457,-0.93682367,-0.038372267,0.4271682,0.7105798,1.501557,0.0,2,0,0,0
80386910,49.08974944622999,2.1104804238886596,87.344475,133.07419,-0.0,0.8024254,-1.2886301,-0.031025918,0.42672813,0.71044195,1.501748,0.0,2,0,0,0
80594876,49.08975098379439,2.1104762184742856,87.34803,133.08757,-0.0,0.868607,-1.590616,-0.027754363,0.42744836,0.71074635,1.5017563,0.0,2,0,0,0
81194870,49.08975513166481,2.1104622418099273,87.31829,133.0931,-0.0,0.6899295,-1.607954,-0.018934319,0.43117473,0.7103588,1.5019727,0.0,2,0,0,0
81402887,49.08975619560188,2.1104577292872415,87.31468,133.10257,-0.0,0.6028252,-1.5186605,-0.024530757,0.42966354,0.7106814,1.5019646,0.0,2,0,0,0
81602876,49.08975704220785,2.1104536379241763,87.312874,133.11594,-0.0,0.50623083,-1.4421767,-0.041509375,0.42665374,0.710524,1.5018704,0.0,2,0,0,0
81802889,49.08975769540713,2.110449756051474,87.31953,133.13762,-0.0,0.4059458,-1.3724962,-0.023662912,0.42529517,0.71041304,1.5017723,0.0,2,0,0,0
82002869,49.08975821115133,2.1104460774335676,87.33383,133.16696,-0.0,0.32885304,-1.3082916,-0.038108096,0.4238221,0.7102925,1.5019386,0.0,2,0,0,0
82210924,49.08975861728221,2.1104424825810453,87.363304,133.21371,-0.0,0.23749094,-1.2554942,-0.01705584,0.42239586,0.7104802,1.5016905,0.0,2,0,0,0
82410873,49.089758859497145,2.1104392347079535,87.37574,133.24089,-0.0,0.1501234,-1.1775234,0.03960795,0.4015494,0.71040183,1.5013783,0.0,2,0,0,0
82618870,49.08975897710049,2.110436112456816,87.40621,133.28754,-0.0,0.07141782,-1.0968772,-0.09914455,0.2102514,0.7107206,1.5016661,0.0,2,0,0,0
82818870,49.08975900883921,2.1104332508560755,87.43806,133.33443,-0.0,0.021359721,-1.0567575,0.036058933,0.05550405,0.7106685,1.5015869,0.0,2,0,0,0
83018876,49.08975892933512,2.1104304572755233,87.47402,133.3846,-0.0,-0.0390496,-1.0340492,0.041336093,0.0006014648,0.71069795,1.501528,0.0,2,0,0,0
83226893,49.089758724312425,2.1104276596286407,87.49876,133.42413,-0.0,-0.10579728,-0.9830586,0.09443955,-0.059599195,0.711292,1.5015786,0.0,2,0,0,0
84442876,49.089755533117916,2.1104138335455387,87.54976,133.55643,-0.0,-0.3963757,-0.7931886,0.15384994,-0.6884589,0.7166064,1.5014592,0.0,2,0,0,0
84642870,49.08975466706889,2.110411765670929,87.54516,133.56424,-0.0,-0.4251762,-0.76259804,0.13940495,-0.70649964,0.71797514,1.5016625,0.0,2,0,0,0
84850869,49.08975366968418,2.110409659135637,87.54976,133.58197,-0.0,-0.47289097,-0.7316517,0.11862879,-0.7955269,0.7198661,1.5017011,0.0,2,0,0,0
85050870,49.08975263166787,2.11040766461506,87.533585,133.5774,-0.0,-0.51411015,-0.7053391,0.21271771,-0.8867394,0.72125435,1.5016348,0.0,2,0,0,0
85250870,49.089751502714954,2.110405703549772,87.509,133.56363,-0.0,-0.5616427,-0.714133,0.17927979,-0.93930954,0.72271806,1.5018178,0.0,2,0,0,0
85458870,49.08975022581562,2.1104036773950785,87.497154,133.56255,-0.0,-0.6010601,-0.6906115,0.101786606,-0.94804734,0.7247527,1.501831,0.0,2,0,0,0
85658876,49.08974887007163,2.11040177013085,87.4889,133.56451,-0.0,-0.6453327,-0.6678319,0.12592919,-0.9434599,0.72601485,1.5017494,0.0,2,0,0,0
85866876,49.08974737750623,2.1103998767820022,87.46448,133.55054,-0.0,-0.61023897,-0.6084602,0.14774254,-0.9331723,0.72791785,1.5017661,0.0,2,0,0,0
86066870,49.08974620326055,2.1103984768900634,87.46276,133.55907,-0.0,-0.345348,-0.35818893,-0.035129793,-0.9264882,0.7289174,1.5019319,0.0,2,0,0,0
86266870,49.089745677478135,2.1103978608174203,87.48272,133.58836,-0.0,0.031357594,-0.023911325,0.04231782,-0.92563367,0.7294767,1.5018336,0.0,2,0,0,0
86474869,49.08974580118922,2.1103979633957275,87.47507,133.58862,-0.0,0.28582835,0.1719193,0.1540652,-0.9304011,0.7306865,1.5015901,0.0,2,0,0,0
86674889,49.08974625906629,2.110398399135918,87.46117,133.58163,-0.0,0.34535664,0.22619213,0.065548986,-0.93277025,0.7310157,1.5015318,0.0,2,0,0,0
86874870,49.08974673663844,2.1103988517509547,87.44961,133.57655,-0.0,0.29717597,0.19577904,0.06324477,-0.9364886,0.73106104,1.5017318,0.0,2,0,0,0
87082918,49.08974716034732,2.110399182489847,87.43712,133.5698,-0.0,0.23658058,0.15796766,0.09699242,-0.9413807,0.7317865,1.5017632,0.0,2,0,0,0
87282887,49.08974746584056,2.1103993613158205,87.4263,133.5653,-0.0,0.17434788,0.12763222,0.055726044,-0.94209564,0.7317818,1.5016814,0.0,2,0,0,0
87490869,49.089747640469845,2.1103994726818187,87.41704,133.56253,-0.0,0.11584353,0.08424863,0.053195562,-0.9410225,0.7322086,1.5017112,0.0,2,0,0,0
87690870,49.08974767334932,2.110399489353639,87.41498,133.56648,-0.0,0.054284662,0.028926538,-0.038312472,-0.94115627,0.7316491,1.5018961,0.0,2,0,0,0
87890903,49.089747585740355,2.110399390874478,87.44924,133.60527,-0.0,-0.008079324,-0.014292867,-0.25163582,-0.9391557,0.731151,1.5015697,0.0,2,0,0,0
88098893,49.089747372283675,2.110399192829207,87.519424,133.67914,-0.0,-0.06528711,-0.064789146,-0.33992732,-0.9363041,0.7313364,1.5016142,0.0,2,0,0,0
88298869,49.08974707614317,2.110398913559439,87.59163,133.7546,-0.0,-0.11943378,-0.084964216,-0.35048684,-0.92971176,0.7306202,1.5018114,0.0,2,0,0,0
88498876,49.08974670130481,2.1103985792713122,87.609886,133.77483,-0.0,-0.16079652,-0.10263398,0.08239835,-0.92633814,0.7300658,1.5017422,0.0,2,0,0,0
88706876,49.089746262503205,2.1103981794613933,87.57132,133.73921,-0.0,-0.18972473,-0.13464582,0.12345845,-0.9257791,0.7300625,1.5017698,0.0,2,0,0,0
88906870,49.08974581182513,2.110397752646472,87.54508,133.7163,-0.0,-0.22185147,-0.17080852,0.035894778,-0.924583,0.7294002,1.5019515,0.0,2,0,0,0
89114907,49.08974528627862,2.110397215139878,87.53799,133.71524,-0.0,-0.2564732,-0.19525127,0.014715131,-0.9240207,0.7294037,1.5017161,0.0,2,0,0,0
89314870,49.08974474869698,2.1103966461754693,87.53551,133.71564,-0.0,-0.28911886,-0.21434835,-0.10173371,-0.9249507,0.7286986,1.5021579,0.0,2,0,0,0
89514870,49.089744180777714,2.1103960401610635,87.57288,133.75302,-0.0,-0.32923788,-0.21939652,-0.33184814,-0.9245665,0.7280123,1.5020425,0.0,2,0,0,0
89722869,49.08974356568183,2.110395445383568,87.62865,133.81299,-0.0,-0.27958283,-0.16739044,-0.35462847,-0.92349344,0.72789526,1.5020458,0.0,2,0,0,0
89922909,49.089743239743036,2.110395249080359,87.68394,133.87009,-0.0,-0.0078018256,0.047748927,-0.38283336,-0.92480356,0.72728527,1.5019408,0.0,2,0,0,0
90122870,49.089743610315764,2.11039577752438,87.745865,133.932,-0.0,0.44567072,0.4007406,-0.39154112,-0.9258601,0.72668105,1.5020859,0.0,2,0,0,0
90330869,49.089744822416534,2.110397312690095,87.805374,133.99493,-0.0,0.86524445,0.7169888,-0.3374706,-0.9277601,0.7264258,1.5020599,0.0,2,0,0,0
90530870,49.089746471606844,2.1103993032998387,87.860756,134.05241,-0.0,0.99029684,0.8189164,-0.3866304,-0.9292024,0.7257251,1.5021843,0.0,2,0,0,0
90738870,49.089748233969765,2.1104015137543173,87.936554,134.1305,-0.0,0.88677245,0.7526754,-0.34716523,-0.9329846,0.72553456,1.5021492,0.0,2,0,0,0
90938904,49.089749628787565,2.11040328587543,88.03018,134.22629,-0.0,0.66079867,0.5898136,-0.43169942,-0.9323053,0.7248113,1.5017776,0.0,2,0,0,0
91138870,49.08975061732942,2.1104046336305995,88.1325,134.32935,-0.0,0.4607616,0.41043845,-0.3397144,-0.93124497,0.7242074,1.5017017,0.0,2,0,0,0
91346876,49.08975140668811,2.1104056630554635,88.20546,134.40239,-0.0,0.36541146,0.34147668,-0.14879191,-0.9280943,0.72411317,1.5017283,0.0,2,0,0,0
91546893,49.08975208834387,2.1104064979316552,88.22427,134.42117,-0.0,0.32633373,0.29451498,0.021676974,-0.92649305,0.72355956,1.5016656,0.0,2,0,0,0
91746870,49.08975268525204,2.1104071916209155,88.19801,134.39488,-0.0,0.2715527,0.26903847,0.06181292,-0.92704284,0.72303367,1.5016214,0.0,2,0,0,0
91954869,49.08975321520049,2.11040782057417,88.17982,134.37637,-0.0,0.23517957,0.22284356,0.042380136,-0.92807615,0.72300833,1.5016712,0.0,2,0,0,0
92154917,49.089753650744086,2.110408325765418,88.167854,134.36368,-0.0,0.2108349,0.17603189,0.013554743,-0.92790073,0.7225641,1.5016134,0.0,2,0,0,0
92362870,49.089754109532265,2.1104085902228764,88.15658,134.35173,-0.0,0.26305166,0.017448608,-0.02122453,-0.92533743,0.7116467,1.5017018,0.0,2,0,0,0
92562870,49.08975469642446,2.1104082466674496,88.154205,134.34952,-0.0,0.3812692,-0.22638007,-0.05820311,-0.9244658,0.71140397,1.5016379,0.0,2,0,0,0
92762905,49.08975548519438,2.1104072659592386,88.14786,134.34294,-0.0,0.45993078,-0.4142027,0.00023909056,-0.92369574,0.7220073,1.5017776,0.0,2,0,0,0
92970897,49.089756389385784,2.110405934748523,88.13187,134.32751,-0.0,0.43965268,-0.4702757,0.011327609,-0.91980076,0.7112585,1.5016131,0.0,2,0,0,0
93170869,49.089757164254934,2.1104046094379405,88.13164,134.32733,-0.0,0.35959038,-0.44402346,-0.053703938,-0.9176092,0.711013,1.5015548,0.0,2,0,0,0
93370870,49.08975777964229,2.1104034030963996,88.14781,134.34357,-0.0,0.25235212,-0.36227235,-0.05172189,-0.91444296,0.7108053,1.5015169,0.0,2,0,0,0
93578869,49.08975819496984,2.1104023482884915,88.15388,134.34915,-0.0,0.14428979,-0.28419262,0.04249602,-0.9129159,0.7110223,1.501562,0.0,2,0,0,0
93778896,49.0897584514889,2.110401470166045,88.15135,134.34616,-0.0,0.07386,-0.27040178,-0.027990095,-0.91511405,0.7108482,1.5017451,0.0,2,0,0,0
93986876,49.08975861037838,2.1104005996462782,88.14915,134.3432,-0.0,0.029037168,-0.2525905,-0.037101768,-0.9186393,0.711095,1.502022,0.0,2,0,0,0
94186876,49.08975866687619,2.1103998199707226,88.14473,134.338,-0.0,-0.013429411,-0.24394293,-0.013335502,-0.9217763,0.71085876,1.5016656,0.0,2,0,0,0
94386869,49.089758621303915,2.110399079807549,88.13262,134.32526,-0.0,-0.05737773,-0.23711604,-0.024592945,-0.9244952,0.71076035,1.5015942,0.0,2,0,0,0
94594870,49.08975852265534,2.110398328433838,88.12105,134.31291,-0.0,-0.08953486,-0.24635093,-0.015924234,-0.9259838,0.71105623,1.5018716,0.0,2,0,0,0
94794893,49.08975837594354,2.1103976249542042,88.11044,134.30124,-0.0,-0.12801705,-0.23141083,0.019255424,-0.92700326,0.71098775,1.5017785,0.0,2,0,0,0
94994869,49.08975815616556,2.110396944446002,88.10139,134.29118,-0.0,-0.15964289,-0.22952764,-0.019693693,-0.92646646,0.7109633,1.5019295,0.0,2,0,0,0
95194876,49.089757872082366,2.1103962588695593,88.09978,134.28838,-0.0,-0.1880998,-0.2387658,-0.0714718,-0.92671794,0.71091056,1.5018206,0.0,2,0,0,0
95394870,49.089757528057355,2.110395603677165,88.10201,134.28961,-0.0,-0.21851082,-0.23381874,-0.0624854,-0.9289075,0.71085155,1.5019541,0.0,2,0,0,0
95598070,49.08975712803999,2.110394935676474,88.10864,134.2951,-0.0,-0.25061378,-0.2363779,-0.057850607,-0.93062955,0.7111,1.5021222,0.0,2,0,0,0
95804470,49.08975669130402,2.110394214765895,88.11855,134.30443,-0.0,-0.28971368,-0.21740708,-0.19149867,-0.9310002,0.71213996,1.502132,0.0,2,0,0,0
96010073,49.08975619346195,2.110393555062045,88.177376,134.36258,-0.0,-0.30772373,-0.2290167,-0.47076988,-0.93233275,0.7130995,1.5018245,0.0,2,0,0,0
96210069,49.089755660927544,2.1103928735067172,88.29287,134.47662,-0.0,-0.34182084,-0.23706074,-0.7470664,-0.93271995,0.7134734,1.5016989,0.0,2,0,0,0
96409296,49.08975507320696,2.1103921479209857,88.43071,134.6129,-0.0,-0.37396947,-0.25011086,-0.77328646,-0.93366426,0.71394,1.5016271,0.0,2,0,0,0
96614070,49.089754408650755,2.110391410332443,88.606575,134.78697,-0.0,-0.39901185,-0.2500653,-1.0047463,-1.0189227,0.71438545,1.501819,0.0,2,0,0,0
96818078,49.08975369039857,2.110390616965919,88.81926,134.99783,-0.0,-0.4295664,-0.246354,-1.1273407,-1.0047873,0.715062,1.5015999,0.0,2,0,0,0
97018074,49.08975294683037,2.1103898031819828,89.04864,135.22478,-0.0,-0.45527014,-0.25131094,-1.3544307,-0.99672955,0.71503514,1.5017723,0.0,2,0,0,0
97218093,49.089752181788484,2.110388965745788,89.329834,135.50244,-0.0,-0.48375976,-0.25128284,-1.5265073,-0.9960424,0.7147705,1.5019352,0.0,2,0,0,0
97426069,49.08975133904257,2.1103880742014747,89.64152,135.8108,-0.0,-0.5120212,-0.27069175,-1.4681696,-1.0003802,0.7149486,1.5017046,0.0,2,0,0,0
97626077,49.08975046659802,2.1103871586447713,89.93305,136.09967,-0.0,-0.5417113,-0.2811566,-1.4565929,-1.0054702,0.714633,1.5018783,0.0,2,0,0,0
97826076,49.08974954028811,2.1103862442275987,90.21419,136.37741,-0.0,-0.5678505,-0.28013512,-1.4484929,-1.0066797,0.71439236,1.5017993,0.0,2,0,0,0
98026085,49.089748557313726,2.110385369329327,90.50061,136.66214,-0.0,-0.59696597,-0.26828906,-1.5012592,-1.0024621,0.7142455,1.5017409,0.0,2,0,0,0
98233328,49.0897474701894,2.110384509800059,90.79872,136.9582,-0.0,-0.60717237,-0.25677046,-1.4639757,-0.9974367,0.71454805,1.501546,0.0,2,0,0,0
98434071,49.089746380817026,2.1103837577081554,91.08322,137.24115,-0.0,-0.61790764,-0.22180825,-1.448318,-0.9947546,0.71461713,1.5015261,0.0,2,0,0,0
98642073,49.089745232863294,2.110383044748808,91.381454,137.53818,-0.0,-0.62810105,-0.193461,-1.4930624,-0.99684966,0.71528125,1.5016106,0.0,2,0,0,0
98842070,49.08974413827001,2.1103824207147714,91.65987,137.81606,-0.0,-0.615818,-0.17715794,-1.4311197,-1.0017015,0.715659,1.5015901,0.0,2,0,0,0
99042070,49.089743070245994,2.110381845681346,91.92925,138.08554,-0.0,-0.6203255,-0.16455884,-1.4683101,-1.0044044,0.7161346,1.5018297,0.0,2,0,0,0
99250092,49.08974194119789,2.1103812917793032,92.23164,138.38823,-0.0,-0.62457603,-0.16526543,-1.5840477,-1.0030583,0.7171722,1.5018964,0.0,2,0,0,0
99450076,49.089740813027305,2.1103807903092062,92.545975,138.70201,-0.0,-0.636785,-0.15969132,-1.6478721,-1.0010277,0.7177953,1.5018694,0.0,2,0,0,0
99650080,49.08973965971067,2.1103802769933795,92.878265,139.03455,-0.0,-0.6557417,-0.15541416,-1.7723912,-1.0005603,0.7184986,1.5018336,0.0,2,0,0,0
99850079,49.089738449367445,2.1103797750847604,93.232346,139.3884,-0.0,-0.68505204,-0.14874816,-1.8798121,-1.0007349,0.7191824,1.5018086,0.0,2,0,0,0
100050116,49.08973718444701,2.1103792842297397,93.60657,139.76347,-0.0,-0.7056712,-0.1404822,-1.9506402,-1.0018104,0.71978307,1.5017961,0.0,2,0,0,0
100258070,49.08973582641941,2.1103787698601324,94.01391,140.17131,-0.0,-0.73180974,-0.13957585,-2.0290623,-1.0038079,0.72076327,1.501896,0.0,2,0,0,0
100458076,49.089734478933046,2.110378307136656,94.42826,140.58641,-0.0,-0.76688623,-0.13920803,-2.1799188,-1.0048997,0.72125065,1.5019003,0.0,2,0,0,0
100658073,49.08973307574762,2.1103778748692736,94.86723,141.0257,-0.0,-0.7906668,-0.14284039,-2.2930868,-1.0045689,0.72164714,1.5018936,0.0,2,0,0,0
100858104,49.089731628419095,2.110377410070255,95.32522,141.48375,-0.0,-0.801164,-0.16482174,-2.4028165,-1.0043997,0.7219514,1.5018834,0.0,2,0,0,0
101066080,49.08973012491286,2.110376826381187,95.81669,141.97528,-0.0,-0.78400296,-0.21389481,-2.5223997,-1.0055001,0.7227215,1.5019877,0.0,2,0,0,0
101266070,49.08972868369496,2.110376203467954,96.32205,142.48064,-0.0,-0.7969727,-0.22970833,-2.6857946,-1.0053936,0.7228546,1.5019913,0.0,2,0,0,0
101466078,49.08972722243969,2.1103755747333977,96.860275,143.01822,-0.0,-0.8115645,-0.23241358,-2.8630672,-1.0046439,0.72292894,1.5019977,0.0,2,0,0,0
101674069,49.08972565434247,2.1103749128583673,97.45401,143.6119,-0.0,-0.8292403,-0.23890671,-2.90396,-1.0053042,0.7234465,1.5018498,0.0,2,0,0,0
101874104,49.089724112908314,2.1103742582584375,97.9739,144.13203,-0.0,-0.84440535,-0.2340882,-2.2963383,-1.0082165,0.7234197,1.5021158,0.0,2,0,0,0
102082095,49.089722496890914,2.1103735600473086,98.36607,144.52625,-0.0,-0.85456806,-0.24985805,-1.6389064,-1.0102593,0.72373414,1.5019381,0.0,2,0,0,0
102282090,49.089720904163286,2.1103728868046825,98.63498,144.79927,-0.0,-0.87780714,-0.24426521,-1.2192851,-1.0118003,0.72339886,1.501923,0.0,2,0,0,0
102482070,49.08971930485959,2.110372242695312,98.84446,145.0149,-0.0,-0.8824735,-0.24883907,-0.84512925,-1.0131097,0.72300273,1.5019022,0.0,2,0,0,0
102690070,49.08971762786044,2.1103715652555226,98.949745,145.12798,-0.0,-0.8940524,-0.24312408,-0.05822477,-1.0138198,0.72302645,1.501983,0.0,2,0,0,0
102890092,49.089715980550295,2.110370935513219,98.93241,145.1196,-0.0,-0.9075606,-0.25291246,0.12639198,-1.0122643,0.7225094,1.5019656,0.0,2,0,0,0
103090085,49.08971432316907,2.11037029615159,98.94129,145.13849,-0.0,-0.9164671,-0.2580463,0.02112099,-1.0103115,0.721895,1.50195,0.0,2,0,0,0
103290101,49.08971265579178,2.110369623269499,98.958595,145.16547,-0.0,-0.9299472,-0.25100425,0.020640643,-1.0078025,0.7213923,1.5019393,0.0,2,0,0,0
103498079,49.08971090016982,2.1103689028473087,98.959984,145.17583,-0.0,-0.93748534,-0.26048768,0.036144253,-1.0068617,0.7213469,1.501768,0.0,2,0,0,0
103698070,49.08970918181962,2.110368186956478,98.96643,145.19125,-0.0,-0.9352843,-0.2801582,0.068788365,-1.0072876,0.7208475,1.5017579,0.0,2,0,0,0
103906073,49.0897073508822,2.1103674300607724,98.95593,145.18936,-0.0,-0.95162135,-0.28239325,0.086464144,-1.0084616,0.7208096,1.5018544,0.0,2,0,0,0
104106070,49.08970557680551,2.110366685017336,98.966576,145.20726,-0.0,-0.9666848,-0.27945065,0.040009692,-1.0077316,0.72029155,1.5015903,0.0,2,0,0,0
104306076,49.089703789724545,2.1103659508309907,98.97617,145.22342,-0.0,-0.97922325,-0.2941214,0.047238227,-1.0071731,0.7197452,1.5018368,0.0,2,0,0,0
104514076,49.0897019018192,2.1103651903602336,98.98707,145.2405,-0.0,-0.9871312,-0.2841121,0.06683217,-1.00659,0.7198035,1.5019113,0.0,2,0,0,0
104714108,49.08970004413137,2.110364449141335,98.974495,145.24017,-0.0,-1.0024004,-0.2855,0.17911822,-1.0061277,0.7194334,1.5018879,0.0,2,0,0,0
104914079,49.089698143232454,2.1103636787959545,98.962204,145.22787,-0.0,-1.0125765,-0.30484194,0.05993233,-1.004426,0.71914935,1.5016134,0.0,2,0,0,0
105122069,49.08969615710353,2.1103628632154914,98.95091,145.22739,-0.0,-1.0212084,-0.30981985,0.15884462,-1.0035983,0.7192331,1.5017062,0.0,2,0,0,0
105322070,49.08969422646736,2.110362061320813,98.91619,145.19814,-0.0,-1.0353216,-0.30224174,0.25885904,-1.0043764,0.71897864,1.5016872,0.0,2,0,0,0
105530074,49.08969221359439,2.1103611932104487,98.861374,145.14838,-0.0,-1.0489478,-0.311409,0.31889942,-1.0049503,0.7191601,1.5017569,0.0,2,0,0,0
105730069,49.08969027854979,2.1103603373059117,98.801094,145.09229,-0.0,-1.0615416,-0.32378876,0.32483077,-1.0053535,0.7189439,1.5017308,0.0,2,0,0,0
105930077,49.08968830895862,2.110359487059217,98.73394,145.0293,-0.0,-1.0685701,-0.3351039,0.38078055,-1.0060496,0.71873826,1.5017059,0.0,2,0,0,0
106138070,49.089686265008304,2.110358594628923,98.64355,144.94382,-0.0,-1.0783925,-0.34042788,0.49121803,-1.007179,0.7190373,1.501527,0.0,2,0,0,0
106338078,49.08968430189672,2.1103577001947382,98.55603,144.85963,-0.0,-1.0926745,-0.34099087,0.44546762,-1.0090762,0.718761,1.501508,0.0,2,0,0,0
106538074,49.08968232999405,2.110356740932944,98.47861,144.78583,-0.0,-1.098823,-0.3524593,0.46767896,-1.0119058,0.71870774,1.5014923,0.0,2,0,0,0
106738079,49.0896803467445,2.1103557746253343,98.395905,144.70593,-0.0,-1.1062464,-0.3551236,0.5501681,-1.0130786,0.7186025,1.5017328,0.0,2,0,0,0
106946070,49.08967826080729,2.110354774502885,98.28171,144.5946,-0.0,-1.1242801,-0.36280388,0.6588603,-1.0127932,0.71899384,1.5015402,0.0,2,0,0,0
107146083,49.08967623952905,2.1103537584550076,98.16892,144.48338,-0.0,-1.1297208,-0.38486865,0.62725866,-1.0117259,0.7189106,1.5017651,0.0,2,0,0,0
107346078,49.08967419484093,2.1103527150748698,98.05495,144.37103,-0.0,-1.1441087,-0.3773083,0.6306725,-1.0111092,0.7188398,1.5017165,0.0,2,0,0,0
107553304,49.08967208253917,2.11035165724955,97.9217,144.23851,-0.0,-1.1527044,-0.39022613,0.7312719,-1.0112367,0.7192383,1.5017629,0.0,2,0,0,0
107754078,49.08966999574427,2.1103506466895308,97.78008,144.0971,-0.0,-1.1646155,-0.40236264,0.75734377,-1.0090842,0.7192374,1.5017331,0.0,2,0,0,0
107954870,49.08966789632889,2.1103496479688673,97.64875,143.96605,-0.0,-1.166693,-0.40220895,0.72288936,-1.0053833,0.71925205,1.5016942,0.0,2,0,0,0
108154082,49.089665785052034,2.1103486199645425,97.5048,143.8222,-0.0,-1.1707289,-0.39691395,0.78422153,-1.0009791,0.71949595,1.5016506,0.0,2,0,0,0
108354076,49.08966365504828,2.110347672503834,97.3479,143.66577,-0.0,-1.1834733,-0.39696798,0.78776145,-0.99998415,0.7199169,1.5018579,0.0,2,0,0,0
108553269,49.08966154394727,2.110346689721896,97.1909,143.50919,-0.0,-1.1942278,-0.40001094,0.8243508,-0.99946463,0.72054684,1.5017874,0.0,2,0,0,0
108761311,49.0896593324785,2.110345610576269,97.02771,143.34541,-0.0,-1.2016122,-0.39412028,0.8775731,-1.0009054,0.72156966,1.5017995,0.0,2,0,0,0
108961287,49.08965720677576,2.110344564944445,96.86533,143.182,-0.0,-1.2126809,-0.38709036,0.81636643,-1.0016234,0.7116487,1.5017654,0.0,2,0,0,0
109168510,49.08965498646455,2.110343539402999,96.692986,143.00826,-0.0,-1.2143301,-0.38261524,0.7633466,-1.0035505,0.7123713,1.5017838,0.0,2,0,0,0
109369269,49.089652824525686,2.1103425161271776,96.544,142.85684,-0.0,-1.2246743,-0.3805811,0.74275184,-1.0059844,0.7127067,1.5016904,0.0,2,0,0,0
109569282,49.08965063995326,2.1103415751237034,96.40098,142.71103,-0.0,-1.2345549,-0.37262955,0.6482503,-1.006751,0.7129404,1.5016121,0.0,2,0,0,0
111193270,49.08963756441943,2.110339602147152,96.02099,142.2894,-0.0,-0.74778724,0.02449628,0.41731623,-1.0013734,0.7148745,1.5012398,0.0,2,0,0,0
111393270,49.089636163869585,2.1103397923514833,95.93136,142.19415,-0.0,-0.7841599,0.025744267,0.5151982,-1.0036492,0.7148378,1.5012236,0.0,2,0,0,0
111601270,49.089634646497856,2.110339955878577,95.8212,142.07843,-0.0,-0.8213063,0.013430921,0.56190985,-1.0047501,0.7151804,1.5013088,0.0,2,0,0,0
111801272,49.0896331342892,2.110340080797186,95.709656,141.96228,-0.0,-0.8495073,0.0021530718,0.56325483,-1.0059984,0.71509254,1.5012819,0.0,2,0,0,0
112001305,49.08963158935217,2.1103401637940076,95.5997,141.84781,-0.0,-0.87324864,-0.020734197,0.59918666,-1.0072516,0.7150398,1.5012658,0.0,2,0,0,0
112201277,49.089629994302065,2.1103402292023765,95.46839,141.71194,-0.0,-0.90869665,-0.023699667,0.70872456,-1.0079148,0.714863,1.5010123,0.0,2,0,0,0
112409276,49.089628275980566,2.1103403405404837,95.31402,141.55363,-0.0,-0.9400744,-0.019392282,0.6839034,-1.0063834,0.71514225,1.5011085,0.0,2,0,0,0
112609270,49.089626570137995,2.1103404485520385,95.174484,141.4114,-0.0,-0.9754622,-0.02519752,0.6949312,-1.0052749,0.7149341,1.5011111,0.0,2,0,0,0
112809269,49.08962482644682,2.1103404933862233,95.032845,141.26752,-0.0,-1.0004501,-0.022834118,0.71478033,-1.0045863,0.71478707,1.5013528,0.0,2,0,0,0
113009270,49.08962300359361,2.110340513559936,94.88547,141.1173,-0.0,-1.0190897,-0.04278869,0.81349295,-1.0045642,0.7146245,1.5010905,0.0,2,0,0,0
113217270,49.08962106181725,2.110340508614914,94.704735,140.93382,-0.0,-1.0391438,-0.045697,0.8596651,-1.0037338,0.7148784,1.5011836,0.0,2,0,0,0
113417279,49.08961914357501,2.1103404581202385,94.52337,140.74939,-0.0,-1.066122,-0.04351015,0.84025186,-1.0025189,0.7147003,1.5009449,0.0,2,0,0,0
113625289,49.089617081305946,2.11034039890371,94.34005,140.56288,-0.0,-1.0974026,-0.04823462,0.7721101,-1.002506,0.7150206,1.5010467,0.0,2,0,0,0
113825275,49.08961506727164,2.1103403285026503,94.17345,140.39291,-0.0,-1.1076741,-0.06237053,0.81500447,-1.0032636,0.7148683,1.5010529,0.0,2,0,0,0
114025289,49.08961304522671,2.110340182914685,94.00225,140.21786,-0.0,-1.1289471,-0.068128094,0.80407596,-1.0028288,0.71477187,1.5010618,0.0,2,0,0,0
114233287,49.08961091805832,2.1103399608304487,93.83225,140.04344,-0.0,-1.1458386,-0.07746018,0.7765888,-1.001443,0.71503097,1.5009292,0.0,2,0,0,0
114433270,49.08960884704948,2.110339732577628,93.67835,139.8848,-0.0,-1.1607169,-0.08670194,0.7787153,-0.99977523,0.71479833,1.5009474,0.0,2,0,0,0
114633292,49.08960674764351,2.110339481104837,93.52584,139.72748,-0.0,-1.1671522,-0.095628664,0.7820704,-0.9987507,0.714613,1.5009624,0.0,2,0,0,0
114833276,49.08960463270525,2.1103391838991863,93.359116,139.555,-0.0,-1.1812621,-0.103201054,0.7958166,-0.9978334,0.71430326,1.5009822,0.0,2,0,0,0
115041269,49.089602434779835,2.110338905906339,93.183685,139.37378,-0.0,-1.188106,-0.110726535,0.75365883,-0.99803483,0.71436024,1.5010892,0.0,2,0,0,0
115241273,49.08960031682268,2.110338667857565,93.01944,139.20311,-0.0,-1.2018341,-0.106511004,0.76457715,-1.0008025,0.71392775,1.5010992,0.0,2,0,0,0
115449277,49.08959811735344,2.1103383508765376,92.84195,139.01944,-0.0,-1.2094393,-0.10189203,0.7728004,-1.0051237,0.71393454,1.5009668,0.0,2,0,0,0
115649272,49.089595974258145,2.110338001599451,92.683685,138.8542,-0.0,-1.2128505,-0.11038145,0.72183245,-1.0071962,0.7135081,1.5009886,0.0,2,0,0,0
115849270,49.08959380575896,2.110337656343088,92.52626,138.69006,-0.0,-1.2170327,-0.12744759,0.7691974,-1.0090029,0.7130796,1.5010078,0.0,2,0,0,0
116057270,49.089591528697184,2.1103373088213746,92.36835,138.5251,-0.0,-1.2288711,-0.13524374,0.71840346,-1.0083116,0.71305835,1.5013455,0.0,2,0,0,0
116257276,49.08958933146637,2.1103369492899904,92.22316,138.37253,-0.0,-1.246218,-0.13117446,0.6968435,-1.0061644,0.712508,1.5013204,0.0,2,0,0,0
116457304,49.08958713769186,2.110336526725268,92.07714,138.2199,-0.0,-1.2446083,-0.1384802,0.7036909,-1.0048853,0.7120779,1.5012877,0.0,2,0,0,0
116657270,49.089584931618475,2.110336094298969,91.93079,138.06638,-0.0,-1.2509192,-0.14300083,0.7083797,-1.004667,0.71158993,1.5014939,0.0,2,0,0,0
116865305,49.08958262833787,2.1103356307557557,91.77907,137.90771,-0.0,-1.2555802,-0.14695182,0.64474225,-1.0044442,0.7115379,1.5015367,0.0,2,0,0,0
117065269,49.08958039159453,2.1103351664658923,91.639336,137.76079,-0.0,-1.2601318,-0.16699588,0.72280353,-1.0042261,0.7110775,1.5012459,0.0,2,0,0,0
117265276,49.08957811742288,2.1103346718054476,91.50831,137.62242,-0.0,-1.2486933,-0.16342837,0.53755933,-1.0035996,0.7107496,1.5012189,0.0,2,0,0,0
117469317,49.08957589001089,2.1103342163688614,91.43183,137.53714,-0.0,-1.1237093,-0.09712216,0.35908207,-1.003428,0.7103499,1.5014371,0.0,2,0,0,0
117668493,49.08957407854723,2.1103340965152184,91.37168,137.46849,-0.0,-0.84151196,0.08856728,0.34731138,-1.0035079,0.710067,1.501658,0.0,2,0,0,0
117875718,49.08957285674272,2.110334617771676,91.30421,137.39212,-0.0,-0.4301847,0.34340674,0.31502843,-1.0028858,0.710114,1.5014504,0.0,2,0,0,0
118074090,49.08957241391736,2.1103359067936807,91.2593,137.338,-0.0,-0.03490482,0.6117634,0.22942579,-1.0071687,0.70969397,1.5016448,0.0,2,0,0,0
118276470,49.08957261968968,2.1103379721336437,91.22365,137.29108,-0.0,0.32142946,0.8517219,0.23502003,-1.009066,0.70905423,1.5017744,0.0,2,0,0,0
118475714,49.08957341057548,2.1103406841760033,91.19902,137.25534,-0.0,0.6539955,1.0672656,0.19643635,-1.013236,0.70874685,1.5014681,0.0,2,0,0,0
118684470,49.08957482896047,2.110344192259899,91.177155,137.22293,-0.0,0.9829838,1.2838423,0.15248603,-1.0160502,0.7088712,1.5014962,0.0,2,0,0,0
118883719,49.08957675213014,2.1103481097647383,91.183495,137.21725,-0.0,1.274402,1.4453324,-0.01644188,-1.021849,0.70886064,1.5016812,0.0,2,0,0,0
119092470,49.089579143634076,2.1103525948045654,91.20784,137.22849,-0.0,1.3779266,1.4961206,0.05042986,-1.0256871,0.70962805,1.5019433,0.0,2,0,0,0
119292470,49.08958144719324,2.110356947086034,91.23158,137.23892,-0.0,1.3328996,1.4591844,0.02078156,-1.0250121,0.71012247,1.501826,0.0,2,0,0,0
119492476,49.08958357697301,2.1103611150484687,91.26906,137.26257,-0.0,1.2549319,1.3258268,0.03017953,-1.022343,0.71054715,1.5019702,0.0,2,0,0,0
119700510,49.08958564985523,2.110365053246746,91.30016,137.27856,-0.0,1.1688712,1.2053322,0.08038739,-1.023748,0.7112216,1.501695,0.0,2,0,0,0
119900469,49.0895874935701,2.1103684682283683,91.30199,137.264,-0.0,1.0729209,1.0820894,0.1333194,-1.0219921,0.71127874,1.5016016,0.0,2,0,0,0
120100470,49.08958922129464,2.110371574781821,91.28872,137.23491,-0.0,1.0563358,0.97307557,0.09171581,-1.018219,0.7113577,1.5015265,0.0,2,0,0,0
120308489,49.089591161564165,2.110374439403736,91.27755,137.20634,-0.0,1.1922133,0.87539434,0.09372535,-1.0172979,0.7117811,1.5018039,0.0,2,0,0,0
120508471,49.089593296890826,2.1103768553203497,91.26088,137.15292,-0.0,1.2880908,0.7768849,0.081625916,-1.0138949,0.7116628,1.5016986,0.0,2,0,0,0
120716469,49.089595570532104,2.110379122500137,91.243065,137.11583,-0.0,1.2225959,0.6877138,0.08332564,-1.0150151,0.7119223,1.5019436,0.0,2,0,0,0
120916520,49.08959757947356,2.1103811511413118,91.21581,137.06854,-0.0,1.0972881,0.6271676,0.06331534,-1.017263,0.7116935,1.5018331,0.0,2,0,0,0
121116470,49.08959936430832,2.1103830282567704,91.188934,137.02159,-0.0,1.0035089,0.5778504,0.03752913,-1.0177267,0.71140194,1.5017322,0.0,2,0,0,0
121324470,49.08960112011968,2.1103847258327186,91.16321,136.97586,-0.0,0.9975906,0.479737,0.028873928,-1.0162516,0.7114876,1.5014862,0.0,2,0,0,0
121524482,49.08960284308234,2.1103860333169577,91.1399,136.93256,-0.0,1.0214837,0.37167567,-0.01749011,-1.0142244,0.7111497,1.5016618,0.0,2,0,0,0
121724469,49.089604614270904,2.1103869924543393,91.132774,136.90532,-0.0,1.0092926,0.26659086,-0.012063078,-1.0118586,0.71083707,1.5018197,0.0,2,0,0,0
121932470,49.0896064087362,2.1103877330768843,91.13035,136.88301,-0.0,0.92576987,0.21038145,-0.030844403,-1.008786,0.71093655,1.501568,0.0,2,0,0,0
122132476,49.089607999232676,2.110388303511024,91.114815,136.84659,-0.0,0.8611678,0.20868015,-0.033569187,-1.0049222,0.7106203,1.501746,0.0,2,0,0,0
122340476,49.089609695392916,2.1103889829339653,91.10814,136.82062,-0.0,0.96248853,0.30459192,-0.10015254,-1.0024352,0.7106612,1.5014999,0.0,2,0,0,0
122540496,49.0896116663648,2.1103899755000053,91.11172,136.80386,-0.0,1.1314282,0.4393396,-0.05787697,-1.0003809,0.7103558,1.501431,0.0,2,0,0,0
122740470,49.08961382405798,2.110391182101685,91.10029,136.77325,-0.0,1.1648191,0.49131745,-0.051210344,-1.0018723,0.7099617,1.5013813,0.0,2,0,0,0
122948470,49.08961594057493,2.1103924668502865,91.0944,136.74655,-0.0,1.0603696,0.4653488,-0.056815874,-1.0028112,0.7100164,1.5011948,0.0,2,0,0,0
123148476,49.089617814374016,2.110393588430268,91.08631,136.71776,-0.0,0.9793257,0.40416253,-0.05256923,-1.0034084,0.7096051,1.5011722,0.0,2,0,0,0
123348516,49.08961968775266,2.110394472662663,91.081894,136.69455,-0.0,1.049413,0.30623218,-0.0831075,-1.0050052,0.7092102,1.5013992,0.0,2,0,0,0
123548470,49.08962180659327,2.110394982335104,91.07998,136.67178,-0.0,1.2427642,0.17332494,-0.07265369,-1.0024374,0.7088919,1.5013638,0.0,2,0,0,0
123756469,49.089624271344995,2.11039508553778,91.07979,136.6525,-0.0,1.3038406,0.051262166,-0.09598257,-0.9939399,0.7088999,1.5016603,0.0,2,0,0,0
123956470,49.08962665247472,2.110394969793474,91.09387,136.64618,-0.0,1.1771171,0.034359083,-0.08946008,-0.98883563,0.7085166,1.5013535,0.0,2,0,0,0
124156474,49.08962858105168,2.110394951455087,91.12134,136.65234,-0.0,0.7647356,0.08987541,-0.17734364,-0.9932053,0.7080935,1.5013165,0.0,2,0,0,0
124356490,49.089629551408244,2.11039511983502,91.16653,136.67961,-0.0,0.23481268,0.17318556,-0.2190115,-0.9741311,0.70767367,1.5012919,0.0,2,0,0,0
124564470,49.089629790403954,2.1103954037992936,91.17982,136.6725,-0.0,-0.06144173,0.19995172,-0.0036611594,-0.97303843,0.69818276,1.5014122,0.0,2,0,0,0
124764476,49.08962973433029,2.1103955802877117,91.14548,136.6196,-0.0,-0.1545351,0.17725793,0.045983665,-0.9839029,0.6980272,1.5013529,0.0,2,0,0,0
124964471,49.089629504040104,2.1103956986803873,91.11302,136.56844,-0.0,-0.21604276,0.17096372,0.003640882,-0.9942708,0.69789386,1.5013012,0.0,2,0,0,0
125164504,49.089629277343484,2.1103957741493042,91.09001,136.52731,-0.0,-0.13892436,0.15884297,-0.050547954,-1.0009686,0.7073387,1.5014564,0.0,2,0,0,0
125372470,49.089629367397805,2.110395802142903,91.08201,136.5021,-0.0,0.1330908,0.14175019,-0.064721964,-1.0071948,0.6980386,1.501088,0.0,2,0,0,0
125572469,49.08962986040642,2.1103957553483026,91.083336,136.48842,-0.0,0.28251588,0.106409706,-0.082451865,-1.002166,0.6979646,1.5010557,0.0,2,0,0,0
125778083,49.08963045714896,2.1103956385527765,91.0751,136.46558,-0.0,0.24561784,0.07683786,-0.07495566,-1.0063323,0.6981851,1.5011289,0.0,2,0,0,0
125983670,49.089630926511774,2.1103954529092057,91.06508,136.44287,-0.0,0.17351066,0.027844971,-0.025781907,-1.0092238,0.69837636,1.5009507,0.0,2,0,0,0
126186891,49.08963124827125,2.1103951528287346,91.073555,136.43802,-0.0,0.09573347,-0.011933584,-0.07883475,-1.0073773,0.6981978,1.5009305,0.0,2,0,0,0
126383670,49.08963144399753,2.110394746273994,91.05209,136.40485,-0.0,0.04561724,-0.04931205,0.26144278,-1.0062311,0.69820476,1.5011928,0.0,2,0,0,0
126591689,49.089631513296084,2.110394255194708,90.96802,136.3105,-0.0,-0.026223982,-0.08625119,0.43226188,-1.0063602,0.69825214,1.5012068,0.0,2,0,0,0
126791676,49.08963145202444,2.110393696989576,90.86863,136.20108,-0.0,-0.09199482,-0.12037501,0.4746487,-1.0062304,0.6982246,1.501187,0.0,2,0,0,0
126991670,49.08963128480607,2.1103931241493012,90.767815,136.09085,-0.0,-0.15495783,-0.11979414,0.58150905,-1.0052172,0.69814587,1.5013944,0.0,2,0,0,0
127191672,49.089631018622285,2.1103925312322818,90.64465,135.95848,-0.0,-0.21178845,-0.14331993,0.6511695,-1.0042033,0.69803447,1.5011147,0.0,2,0,0,0
127599693,49.089630139811526,2.110391280951044,90.36016,135.65688,-0.0,-0.30878255,-0.14996338,0.6820232,-1.008289,0.6982367,1.5011761,0.0,2,0,0,0
127807682,49.08962953090677,2.1103906049374244,90.21032,135.49957,-0.0,-0.36349618,-0.1688083,0.68380916,-1.0134783,0.69851226,1.5010225,0.0,2,0,0,0
128007676,49.08962885573063,2.110389927417845,90.073715,135.35551,-0.0,-0.40392035,-0.18080792,0.6428074,-1.0166974,0.69849867,1.5012506,0.0,2,0,0,0
128207696,49.08962811870864,2.1103892578414185,89.940475,135.21478,-0.0,-0.43840882,-0.19371451,0.66539264,-1.0167476,0.6982848,1.5009921,0.0,2,0,0,0
128415685,49.08962728240387,2.1103885295208844,89.79567,135.06473,-0.0,-0.4771925,-0.20065814,0.6534199,-1.0143545,0.69854885,1.5010794,0.0,2,0,0,0
128615670,49.089626399528186,2.110387819535548,89.64848,134.91205,-0.0,-0.4941575,-0.22279546,0.7263759,-1.0140277,0.6984523,1.5010612,0.0,2,0,0,0
128815670,49.089625474721515,2.110387119706644,89.48889,134.74805,-0.0,-0.5291413,-0.2098507,0.7265089,-1.0130131,0.69842046,1.5010529,0.0,2,0,0,0
129015676,49.08962448259716,2.1103864728466477,89.336464,134.5918,-0.0,-0.55056113,-0.22732748,0.6645297,-1.013798,0.6983221,1.5010543,0.0,2,0,0,0
129223681,49.08962336974855,2.1103857872736813,89.19621,134.44841,-0.0,-0.58386344,-0.22319837,0.62220937,-1.0132082,0.69860387,1.5011361,0.0,2,0,0,0
129423706,49.08962222472911,2.1103850835228797,89.13687,134.3866,-0.0,-0.6167354,-0.21230872,-0.026102632,-1.0082238,0.69857454,1.5013483,0.0,2,0,0,0
129623670,49.08962111849305,2.1103843864512455,89.16541,134.4126,-0.0,-0.49706113,-0.22604205,-0.11176671,-1.0071983,0.69879013,1.5010759,0.0,2,0,0,0
129831670,49.08962033079186,2.1103836647707217,89.17824,134.42365,-0.0,-0.21587364,-0.23950648,0.014499383,-1.009854,0.69980735,1.5011576,0.0,2,0,0,0
130031670,49.089620082224194,2.110382885471164,89.180534,134.42589,-0.0,0.01560887,-0.29651922,0.014421253,-1.006011,0.7006048,1.5011489,0.0,2,0,0,0
130239670,49.089620167320376,2.110381887662583,89.18707,134.43361,-0.0,0.16083837,-0.3742345,-0.012631205,-1.0039214,0.7015688,1.5012168,0.0,2,0,0,0
130439676,49.089620529268984,2.1103806693609526,89.2023,134.4509,-0.0,0.34801072,-0.47948807,0.037467193,-0.9995246,0.7021902,1.5014261,0.0,2,0,0,0
130639670,49.08962130023537,2.1103792060755446,89.21587,134.46738,-0.0,0.598895,-0.5480363,0.100967295,-0.99548495,0.7026952,1.5013741,0.0,2,0,0,0
130847670,49.08962265951335,2.110377500955648,89.23456,134.48967,-0.0,0.9389293,-0.6312447,0.0073825647,-0.9938198,0.70340383,1.501423,0.0,2,0,0,0
131047670,49.089624545017024,2.1103756971132097,89.26952,134.52931,-0.0,1.2175086,-0.6962117,0.06571243,-0.98915136,0.70362896,1.5013691,0.0,2,0,0,0
131247671,49.08962686049977,2.1103737423326585,89.28819,134.55313,-0.0,1.420503,-0.7688145,0.08892145,-0.98391384,0.70365626,1.5015666,0.0,2,0,0,0
131455670,49.08962959834542,2.110371514174838,89.317055,134.58783,-0.0,1.5687811,-0.85680795,0.10633706,-0.9828553,0.7039484,1.5013492,0.0,2,0,0,0
131655670,49.08963246980572,2.110369123999766,89.33805,134.61436,-0.0,1.6876467,-0.9717892,0.1295603,-0.9841066,0.7037371,1.5013022,0.0,2,0,0,0
131863676,49.089635692022675,2.1103662627362065,89.34159,134.62292,-0.0,1.8156911,-1.0904883,0.14242125,-0.98234224,0.7039308,1.5015876,0.0,2,0,0,0
132063670,49.089639042793976,2.110363169598545,89.34931,134.63544,-0.0,1.9486564,-1.2078848,0.12448077,-0.980019,0.703707,1.5012792,0.0,2,0,0,0
132871670,49.08965348937399,2.1103489778850544,89.35647,134.65543,-0.0,1.8275851,-1.2614869,0.18652634,-1.0013765,0.70302993,1.5016159,0.0,2,0,0,0
133071712,49.08965676618016,2.110345815962505,89.350555,134.65137,-0.0,1.7853569,-1.0946515,0.12269723,-1.0061262,0.7028066,1.5015357,0.0,2,0,0,0
133279696,49.08966031719791,2.110343196744634,89.342,134.64389,-0.0,2.0009422,-0.76084334,0.08424934,-1.0086372,0.70296305,1.5013152,0.0,2,0,0,0
133482087,49.08966441392886,2.110341743676584,89.33288,134.63489,-0.0,2.4527533,-0.29275244,0.033956915,-1.0034984,0.7027511,1.5012674,0.0,2,0,0,0
133687678,49.0896694734061,2.1103416330494476,89.33385,134.6348,-0.0,2.9584365,0.19242993,0.032723367,-1.0026836,0.70278144,1.5015181,0.0,2,0,0,0
133887670,49.08967521764913,2.110342816053728,89.32219,134.62059,-0.0,3.4167516,0.60315514,0.07933198,-1.0058686,0.70265335,1.5014904,0.0,2,0,0,0
134087718,49.08968167665017,2.1103452135476575,89.316826,134.61267,-0.0,3.8221142,1.0065576,0.08493164,-1.0104681,0.7025774,1.5016893,0.0,2,0,0,0
134286102,49.08968869179338,2.1103486599530927,89.32288,134.61496,-0.0,4.1437726,1.3172656,0.04041691,-1.0171819,0.70242083,1.501592,0.0,2,0,0,0
134491715,49.089696321785134,2.110352858359482,89.32928,134.61469,-0.0,4.214367,1.4796059,0.11792193,-1.0233694,0.70545375,1.5015874,0.0,2,0,0,0
134698869,49.08970369726621,2.110357125445896,89.34242,134.62782,-0.0,4.0417166,1.4703861,0.041369706,-1.0243156,0.71653986,1.501751,0.0,2,0,0,0
134898870,49.089710541842585,2.110361193690488,89.38633,134.662,-0.0,3.8074558,1.3896012,0.07614686,-1.0270106,0.71839195,1.5016706,0.0,2,0,0,0
135098876,49.089716776321076,2.1103649763943007,89.435326,134.703,-0.0,3.3450062,1.2161893,-0.016895734,-1.0249077,0.7194474,1.5016003,0.0,2,0,0,0
135306905,49.08972234149412,2.1103683562386286,89.49393,134.75206,-0.0,2.893084,1.0433341,0.12298939,-1.0174308,0.72026026,1.5013673,0.0,2,0,0,0
135506869,49.089727106339524,2.110371123423826,89.494736,134.74258,-0.0,2.6020148,0.9531516,0.2900107,-1.0155593,0.72006345,1.5015495,0.0,2,0,0,0
135706870,49.08973155066104,2.110373631142013,89.45148,134.68724,-0.0,2.439065,0.87193155,0.25824222,-1.0119987,0.71930075,1.5017209,0.0,2,0,0,0
135914869,49.089735978938336,2.110375810092199,89.39451,134.61768,-0.0,2.3670053,0.6852843,0.22965926,-1.0073059,0.71858126,1.5014797,0.0,2,0,0,0
136114869,49.08974023062582,2.1103770682333027,89.31783,134.52919,-0.0,2.3945,0.35273302,0.15376723,-1.0036167,0.7173006,1.5014184,0.0,2,0,0,0
136322869,49.089744740572485,2.110377526209338,89.23594,134.43434,-0.0,2.3828561,0.12496005,0.08000074,-1.0017966,0.71618724,1.5012172,0.0,2,0,0,0
