timestamp,roll_body,pitch_body,yaw_body,yaw_sp_move_rate,q_d[0],q_d[1],q_d[2],q_d[3],thrust_body[0],thrust_body[1],thrust_body[2],q_d_valid,roll_reset_integral,pitch_reset_integral,yaw_reset_integral,fw_control_yaw,apply_flaps
9384698,0.0,-0.0,0.457007,0.0,0.9740065,0.0,0.0,0.22652017,0.0,0.0,-0.49463174,1,0,0,0,0,0
51482043,0.0,0.0,0.4703788,0.0,0.9724702,0.0,0.0,0.2330272,0.0,0.0,-0.0,1,0,0,0,0,0
51500391,0.0,0.0,0.47036597,0.0,0.9724717,0.0,0.0,0.23302093,0.0,0.0,-0.0,1,0,0,0,0,0
51520389,0.0,0.0,0.47033238,0.0,0.97247565,0.0,0.0,0.23300463,0.0,0.0,-0.0,1,0,0,0,0,0
51541605,0.0,0.0,0.4703144,0.0,0.97247773,0.0,0.0,0.23299585,0.0,0.0,-0.0,1,0,0,0,0,0
51560674,0.0,0.0,0.47029054,0.0,0.97248054,0.0,0.0,0.23298429,0.0,0.0,-0.0,1,0,0,0,0,0
51581220,0.0,0.0,0.47025257,0.0,0.97248495,0.0,0.0,0.23296581,0.0,0.0,-0.0,1,0,0,0,0,0
51600555,0.0,0.0,0.47020757,0.0,0.9724902,0.0,0.0,0.23294394,0.0,0.0,-0.0,1,0,0,0,0,0
51620632,0.0,0.0,0.47016853,0.0,0.9724947,0.0,0.0,0.23292494,0.0,0.0,-0.0,1,0,0,0,0,0
51640645,0.0,0.0,0.47013068,0.0,0.97249913,0.0,0.0,0.23290654,0.0,0.0,-0.0,1,0,0,0,0,0
51660645,0.0,0.0,0.47008327,0.0,0.9725046,0.0,0.0,0.23288348,0.0,0.0,-0.0,1,0,0,0,0,0
51680670,0.0,0.0,0.47004238,0.0,0.9725094,0.0,0.0,0.23286363,0.0,0.0,-0.0,1,0,0,0,0,0
51700680,0.0,0.0,0.46996284,0.0,0.9725187,0.0,0.0,0.23282489,0.0,0.0,-0.0,1,0,0,0,0,0
51720690,0.0,0.0,0.46987015,0.0,0.9725295,0.0,0.0,0.23277988,0.0,0.0,-0.0,1,0,0,0,0,0
51740723,0.0,0.0,0.46980277,0.0,0.9725373,0.0,0.0,0.23274706,0.0,0.0,-0.0,1,0,0,0,0,0
51760748,0.0,0.0,0.46973324,0.0,0.9725454,0.0,0.0,0.23271325,0.0,0.0,-0.0,1,0,0,0,0,0
51781029,0.0,0.0,0.46967223,0.0,0.9725525,0.0,0.0,0.23268363,0.0,0.0,-0.0,1,0,0,0,0,0
51800748,0.0,0.0,0.46957734,0.0,0.9725635,0.0,0.0,0.23263747,0.0,0.0,-0.0,1,0,0,0,0,0
51820750,0.0,0.0,0.4694936,0.0,0.9725733,0.0,0.0,0.23259677,0.0,0.0,-0.0,1,0,0,0,0,0
51840756,0.0,0.0,0.4694269,0.0,0.972581,0.0,0.0,0.2325643,0.0,0.0,-0.0,1,0,0,0,0,0
51860759,0.0,0.0,0.46934468,0.0,0.97259057,0.0,0.0,0.23252432,0.0,0.0,-0.0,1,0,0,0,0,0
51880757,0.0,0.0,0.469247,0.0,0.97260195,0.0,0.0,0.23247685,0.0,0.0,-0.0,1,0,0,0,0,0
51900794,0.0,0.0,0.46916446,0.0,0.97261155,0.0,0.0,0.23243669,0.0,0.0,-0.0,1,0,0,0,0,0
51920771,0.0,0.0,0.46909755,0.0,0.97261935,0.0,0.0,0.23240414,0.0,0.0,-0.0,1,0,0,0,0,0
51940785,0.0,0.0,0.46901044,0.0,0.9726294,0.0,0.0,0.23236178,0.0,0.0,-0.0,1,0,0,0,0,0
51960832,0.0,0.0,0.46895,0.0,0.97263646,0.0,0.0,0.23233242,0.0,0.0,-0.0,1,0,0,0,0,0
51980838,0.0,0.0,0.4688573,0.0,0.97264725,0.0,0.0,0.23228732,0.0,0.0,-0.0,1,0,0,0,0,0
52000835,0.0,0.0,0.46878195,0.0,0.97265595,0.0,0.0,0.23225066,0.0,0.0,-0.0,1,0,0,0,0,0
52020821,0.0,0.0,0.4686783,0.0,0.972668,0.0,0.0,0.23220025,0.0,0.0,-0.0,1,0,0,0,0,0
52040886,0.0,0.0,0.46857682,0.0,0.9726798,0.0,0.0,0.23215091,0.0,0.0,-0.0,1,0,0,0,0,0
52060999,0.0,0.0,0.46846104,0.0,0.97269326,0.0,0.0,0.2320946,0.0,0.0,-0.0,1,0,0,0,0,0
52080880,0.0,0.0,0.4683664,0.0,0.9727042,0.0,0.0,0.23204856,0.0,0.0,-0.0,1,0,0,0,0,0
52100895,0.0,0.0,0.46826446,0.0,0.97271603,0.0,0.0,0.23199898,0.0,0.0,-0.0,1,0,0,0,0,0
52120924,0.0,0.0,0.46818456,0.0,0.97272533,0.0,0.0,0.23196012,0.0,0.0,-0.0,1,0,0,0,0,0
52140932,0.0,0.0,0.4681152,0.0,0.9727333,0.0,0.0,0.2319264,0.0,0.0,-0.0,1,0,0,0,0,0
52161000,0.0,0.0,0.46804363,0.0,0.97274166,0.0,0.0,0.23189157,0.0,0.0,-0.0,1,0,0,0,0,0
52180999,0.0,0.0,0.46796313,0.0,0.97275096,0.0,0.0,0.23185243,0.0,0.0,-0.0,1,0,0,0,0,0
52201013,0.0,0.0,0.46788535,0.0,0.97276,0.0,0.0,0.23181458,0.0,0.0,-0.0,1,0,0,0,0,0
52221033,0.0,0.0,0.46781564,0.0,0.97276807,0.0,0.0,0.23178071,0.0,0.0,-0.0,1,0,0,0,0,0
52241050,0.0,0.0,0.46773934,0.0,0.97277695,0.0,0.0,0.23174359,0.0,0.0,-0.0,1,0,0,0,0,0
52261343,0.0,0.0,0.46764535,0.0,0.9727878,0.0,0.0,0.23169789,0.0,0.0,-0.0,1,0,0,0,0,0
52281359,0.0,0.0,0.46756294,0.0,0.9727974,0.0,0.0,0.23165777,0.0,0.0,-0.0,1,0,0,0,0,0
52301202,0.0,0.0,0.4674808,0.0,0.9728069,0.0,0.0,0.23161785,0.0,0.0,-0.0,1,0,0,0,0,0
52321493,0.0,0.0,0.4674161,0.0,0.9728143,0.0,0.0,0.23158637,0.0,0.0,-0.0,1,0,0,0,0,0
52341219,0.0,0.0,0.4673556,0.0,0.9728214,0.0,0.0,0.23155694,0.0,0.0,-0.0,1,0,0,0,0,0
52361985,0.0,0.0,0.4672935,0.0,0.97282857,0.0,0.0,0.23152676,0.0,0.0,-0.0,1,0,0,0,0,0
52381318,0.0,0.0,0.46719858,0.0,0.97283953,0.0,0.0,0.23148054,0.0,0.0,-0.0,1,0,0,0,0,0
52401350,0.0,0.0,0.4671112,0.0,0.9728496,0.0,0.0,0.23143804,0.0,0.0,-0.0,1,0,0,0,0,0
52421398,0.0,0.0,0.46705046,0.0,0.9728567,0.0,0.0,0.23140852,0.0,0.0,-0.0,1,0,0,0,0,0
52441965,0.0,0.0,0.46697396,0.0,0.9728656,0.0,0.0,0.23137131,0.0,0.0,-0.0,1,0,0,0,0,0
52461419,0.0,0.0,0.46686962,0.0,0.9728776,0.0,0.0,0.23132053,0.0,0.0,-0.0,1,0,0,0,0,0
52481466,0.0,0.0,0.46676734,0.0,0.9728894,0.0,0.0,0.23127076,0.0,0.0,-0.0,1,0,0,0,0,0
52501452,0.0,0.0,0.46667635,0.0,0.9728999,0.0,0.0,0.23122652,0.0,0.0,-0.0,1,0,0,0,0,0
52521502,0.0,0.0,0.46659833,0.0,0.972909,0.0,0.0,0.23118857,0.0,0.0,-0.0,1,0,0,0,0,0
52541485,0.0,0.0,0.4665215,0.0,0.97291785,0.0,0.0,0.23115121,0.0,0.0,-0.0,1,0,0,0,0,0
52561523,0.0,0.0,0.4664279,0.0,0.97292864,0.0,0.0,0.23110567,0.0,0.0,-0.0,1,0,0,0,0,0
52581519,0.0,0.0,0.46632633,0.0,0.9729404,0.0,0.0,0.23105626,0.0,0.0,-0.0,1,0,0,0,0,0
52601544,0.0,0.0,0.46620995,0.0,0.97295386,0.0,0.0,0.23099962,0.0,0.0,-0.0,1,0,0,0,0,0
52621545,0.0,0.0,0.46611285,0.0,0.97296506,0.0,0.0,0.23095238,0.0,0.0,-0.0,1,0,0,0,0,0
52641569,0.0,0.0,0.46599883,0.0,0.97297823,0.0,0.0,0.23089693,0.0,0.0,-0.0,1,0,0,0,0,0
52661562,0.0,0.0,0.4658762,0.0,0.97299236,0.0,0.0,0.23083726,0.0,0.0,-0.0,1,0,0,0,0,0
52681565,0.0,0.0,0.465772,0.0,0.9730044,0.0,0.0,0.23078656,0.0,0.0,-0.0,1,0,0,0,0,0
52701564,0.0,0.0,0.46568435,0.0,0.97301453,0.0,0.0,0.23074397,0.0,0.0,-0.0,1,0,0,0,0,0
52721570,0.0,0.0,0.4655764,0.0,0.973027,0.0,0.0,0.23069143,0.0,0.0,-0.0,1,0,0,0,0,0
52741582,0.0,0.0,0.4654569,0.0,0.97304076,0.0,0.0,0.23063329,0.0,0.0,-0.0,1,0,0,0,0,0
52761591,0.0,0.0,0.46535638,0.0,0.9730523,0.0,0.0,0.23058441,0.0,0.0,-0.0,1,0,0,0,0,0
52781602,0.0,0.0,0.4652464,0.0,0.973065,0.0,0.0,0.23053087,0.0,0.0,-0.0,1,0,0,0,0,0
52801594,0.0,0.0,0.4651434,0.0,0.9730769,0.0,0.0,0.23048078,0.0,0.0,-0.0,1,0,0,0,0,0
52821629,0.0,0.0,0.46499887,0.0,0.97309357,0.0,0.0,0.23041041,0.0,0.0,-0.0,1,0,0,0,0,0
52841638,0.0,0.0,0.46490476,0.0,0.97310436,0.0,0.0,0.23036465,0.0,0.0,-0.0,1,0,0,0,0,0
52861698,0.0,0.0,0.46479532,0.0,0.973117,0.0,0.0,0.23031138,0.0,0.0,-0.0,1,0,0,0,0,0
52881748,0.0,0.0,0.46468848,0.0,0.97312933,0.0,0.0,0.23025943,0.0,0.0,-0.0,1,0,0,0,0,0
52901780,0.0,0.0,0.46457487,0.0,0.9731424,0.0,0.0,0.23020412,0.0,0.0,-0.0,1,0,0,0,0,0
52921748,0.0,0.0,0.46444315,0.0,0.9731575,0.0,0.0,0.23014006,0.0,0.0,-0.0,1,0,0,0,0,0
52941755,0.0,0.0,0.4643293,0.0,0.97317064,0.0,0.0,0.23008464,0.0,0.0,-0.0,1,0,0,0,0,0
52961800,0.0,0.0,0.46418682,0.0,0.973187,0.0,0.0,0.23001532,0.0,0.0,-0.0,1,0,0,0,0,0
52981814,0.0,0.0,0.46406284,0.0,0.97320133,0.0,0.0,0.229955,0.0,0.0,-0.0,1,0,0,0,0,0
53001836,0.0,0.0,0.46394473,0.0,0.97321486,0.0,0.0,0.2298975,0.0,0.0,-0.0,1,0,0,0,0,0
53021930,0.0,0.0,0.4638476,0.0,0.9732261,0.0,0.0,0.22985026,0.0,0.0,-0.0,1,0,0,0,0,0
53041932,0.0,0.0,0.46371365,0.0,0.97324145,0.0,0.0,0.22978505,0.0,0.0,-0.0,1,0,0,0,0,0
53061937,0.0,0.0,0.46359906,0.0,0.97325456,0.0,0.0,0.22972928,0.0,0.0,-0.0,1,0,0,0,0,0
53081969,0.0,0.0,0.46348852,0.0,0.97326726,0.0,0.0,0.22967553,0.0,0.0,-0.0,1,0,0,0,0,0
53101986,0.0,0.0,0.46338156,0.0,0.97327954,0.0,0.0,0.22962345,0.0,0.0,-0.0,1,0,0,0,0,0
53122004,0.0,0.0,0.46324566,0.0,0.97329515,0.0,0.0,0.22955732,0.0,0.0,-0.0,1,0,0,0,0,0
53142211,0.0,0.0,0.4631535,0.0,0.9733057,0.0,0.0,0.22951251,0.0,0.0,-0.0,1,0,0,0,0,0
53162129,0.0,0.0,0.46305257,0.0,0.9733173,0.0,0.0,0.22946335,0.0,0.0,-0.0,1,0,0,0,0,0
53182175,0.0,0.0,0.4629663,0.0,0.9733272,0.0,0.0,0.22942136,0.0,0.0,-0.0,1,0,0,0,0,0
53202164,0.0,0.0,0.46287695,0.0,0.9733375,0.0,0.0,0.22937788,0.0,0.0,-0.0,1,0,0,0,0,0
53222445,0.0,0.0,0.4627567,0.0,0.97335124,0.0,0.0,0.22931935,0.0,0.0,-0.0,1,0,0,0,0,0
53242239,0.0,0.0,0.4626631,0.0,0.973362,0.0,0.0,0.22927383,0.0,0.0,-0.0,1,0,0,0,0,0
53262919,0.0,0.0,0.46258426,0.0,0.973371,0.0,0.0,0.22923543,0.0,0.0,-0.0,1,0,0,0,0,0
53282275,0.0,0.0,0.46251252,0.0,0.9733792,0.0,0.0,0.22920053,0.0,0.0,-0.0,1,0,0,0,0,0
53302252,0.0,0.0,0.46243128,0.0,0.97338855,0.0,0.0,0.22916098,0.0,0.0,-0.0,1,0,0,0,0,0
53322277,0.0,0.0,0.46234497,0.0,0.97339845,0.0,0.0,0.22911897,0.0,0.0,-0.0,1,0,0,0,0,0
53342293,0.0,0.0,0.46225944,0.0,0.9734082,0.0,0.0,0.22907735,0.0,0.0,-0.0,1,0,0,0,0,0
53362329,0.0,0.0,0.4621585,0.0,0.9734198,0.0,0.0,0.2290282,0.0,0.0,-0.0,1,0,0,0,0,0
53382346,0.0,0.0,0.46206188,0.0,0.9734308,0.0,0.0,0.2289812,0.0,0.0,-0.0,1,0,0,0,0,0
53402350,0.0,0.0,0.4619717,0.0,0.9734412,0.0,0.0,0.22893733,0.0,0.0,-0.0,1,0,0,0,0,0
53422395,0.0,0.0,0.4618797,0.0,0.97345173,0.0,0.0,0.22889255,0.0,0.0,-0.0,1,0,0,0,0,0
53442400,0.0,0.0,0.46178907,0.0,0.97346205,0.0,0.0,0.22884841,0.0,0.0,-0.0,1,0,0,0,0,0
53462384,0.0,0.0,0.46170378,0.0,0.9734719,0.0,0.0,0.22880691,0.0,0.0,-0.0,1,0,0,0,0,0
53482583,0.0,0.0,0.4616231,0.0,0.9734811,0.0,0.0,0.22876766,0.0,0.0,-0.0,1,0,0,0,0,0
53502426,0.0,0.0,0.4615544,0.0,0.9734889,0.0,0.0,0.22873421,0.0,0.0,-0.0,1,0,0,0,0,0
53522426,0.0,0.0,0.46148682,0.0,0.9734967,0.0,0.0,0.22870128,0.0,0.0,-0.0,1,0,0,0,0,0
53542429,0.0,0.0,0.4613908,0.0,0.9735076,0.0,0.0,0.22865455,0.0,0.0,-0.0,1,0,0,0,0,0
53562434,0.0,0.0,0.46130908,0.0,0.973517,0.0,0.0,0.22861476,0.0,0.0,-0.0,1,0,0,0,0,0
53582581,0.0,0.0,0.46123174,0.0,0.9735258,0.0,0.0,0.22857712,0.0,0.0,-0.0,1,0,0,0,0,0
53602438,0.0,0.0,0.46115816,0.0,0.9735342,0.0,0.0,0.2285413,0.0,0.0,-0.0,1,0,0,0,0,0
53622447,0.0,0.0,0.46107668,0.0,0.9735435,0.0,0.0,0.22850165,0.0,0.0,-0.0,1,0,0,0,0,0
53642464,0.0,0.0,0.46097684,0.0,0.97355497,0.0,0.0,0.22845306,0.0,0.0,-0.0,1,0,0,0,0,0
53662463,0.0,0.0,0.46089262,0.0,0.97356457,0.0,0.0,0.22841206,0.0,0.0,-0.0,1,0,0,0,0,0
53682472,0.0,0.0,0.4608271,0.0,0.973572,0.0,0.0,0.22838017,0.0,0.0,-0.0,1,0,0,0,0,0
53702503,0.0,0.0,0.4607703,0.0,0.9735785,0.0,0.0,0.22835255,0.0,0.0,-0.0,1,0,0,0,0,0
53722515,0.0,0.0,0.46065715,0.0,0.97359145,0.0,0.0,0.22829744,0.0,0.0,-0.0,1,0,0,0,0,0
53742545,0.0,0.0,0.46056467,0.0,0.973602,0.0,0.0,0.22825243,0.0,0.0,-0.0,1,0,0,0,0,0
53762594,0.0,0.0,0.46049076,0.0,0.9736104,0.0,0.0,0.22821642,0.0,0.0,-0.0,1,0,0,0,0,0
53782641,0.0,0.0,0.46042103,0.0,0.9736184,0.0,0.0,0.2281825,0.0,0.0,-0.0,1,0,0,0,0,0
53802731,0.0,0.0,0.4603282,0.0,0.97362894,0.0,0.0,0.22813728,0.0,0.0,-0.0,1,0,0,0,0,0
53822729,0.0,0.0,0.4602506,0.0,0.9736378,0.0,0.0,0.22809955,0.0,0.0,-0.0,1,0,0,0,0,0
53842759,0.0,0.0,0.46017924,0.0,0.973646,0.0,0.0,0.22806476,0.0,0.0,-0.0,1,0,0,0,0,0
53862764,0.0,0.0,0.4600956,0.0,0.9736555,0.0,0.0,0.22802407,0.0,0.0,-0.0,1,0,0,0,0,0
53882763,0.0,0.0,0.46003452,0.0,0.9736625,0.0,0.0,0.22799434,0.0,0.0,-0.0,1,0,0,0,0,0
53902744,0.0,0.0,0.45996594,0.0,0.9736703,0.0,0.0,0.22796094,0.0,0.0,-0.0,1,0,0,0,0,0
53922786,0.0,0.0,0.45988423,0.0,0.9736796,0.0,0.0,0.22792117,0.0,0.0,-0.0,1,0,0,0,0,0
53942791,0.0,0.0,0.45977384,0.0,0.9736922,0.0,0.0,0.22786742,0.0,0.0,-0.0,1,0,0,0,0,0
53962894,0.0,0.0,0.45971838,0.0,0.9736985,0.0,0.0,0.22784042,0.0,0.0,-0.0,1,0,0,0,0,0
53983369,0.0,0.0,0.45959133,0.0,0.9737129,0.0,0.0,0.22777857,0.0,0.0,-0.0,1,0,0,0,0,0
54002907,0.0,0.0,0.45951986,0.0,0.9737211,0.0,0.0,0.22774377,0.0,0.0,-0.0,1,0,0,0,0,0
54022927,0.0,0.0,0.45943895,0.0,0.9737303,0.0,0.0,0.22770439,0.0,0.0,-0.0,1,0,0,0,0,0
54042973,0.0,0.0,0.459365,0.0,0.97373873,0.0,0.0,0.22766839,0.0,0.0,-0.0,1,0,0,0,0,0
54063827,0.0,0.0,0.45925564,0.0,0.9737512,0.0,0.0,0.22761516,0.0,0.0,-0.0,1,0,0,0,0,0
54083238,0.0,0.0,0.45919403,0.0,0.97375816,0.0,0.0,0.22758514,0.0,0.0,-0.0,1,0,0,0,0,0
54103043,0.0,0.0,0.45909107,0.0,0.9737699,0.0,0.0,0.22753501,0.0,0.0,-0.0,1,0,0,0,0,0
54123065,0.0,0.0,0.45896706,0.0,0.973784,0.0,0.0,0.22747463,0.0,0.0,-0.0,1,0,0,0,0,0
54143356,0.0,0.0,0.45888174,0.0,0.97379375,0.0,0.0,0.2274331,0.0,0.0,-0.0,1,0,0,0,0,0
54163120,0.0,0.0,0.45879072,0.0,0.97380406,0.0,0.0,0.22738877,0.0,0.0,-0.0,1,0,0,0,0,0
54183419,0.0,0.0,0.45870847,0.0,0.9738135,0.0,0.0,0.22734874,0.0,0.0,-0.0,1,0,0,0,0,0
54203157,0.0,0.0,0.45861343,0.0,0.9738242,0.0,0.0,0.22730245,0.0,0.0,-0.0,1,0,0,0,0,0
54223158,0.0,0.0,0.458521,0.0,0.9738347,0.0,0.0,0.22725745,0.0,0.0,-0.0,1,0,0,0,0,0
54243317,0.0,0.0,0.45839253,0.0,0.9738493,0.0,0.0,0.22719492,0.0,0.0,-0.0,1,0,0,0,0,0
54263171,0.0,0.0,0.45829138,0.0,0.9738608,0.0,0.0,0.22714564,0.0,0.0,-0.0,1,0,0,0,0,0
54283175,0.0,0.0,0.45815557,0.0,0.97387624,0.0,0.0,0.22707953,0.0,0.0,-0.0,1,0,0,0,0,0
54303186,0.0,0.0,0.4579925,0.0,0.9738947,0.0,0.0,0.2270001,0.0,0.0,-0.0,1,0,0,0,0,0
54323178,0.0,0.0,0.4578555,0.0,0.9739103,0.0,0.0,0.22693336,0.0,0.0,-0.0,1,0,0,0,0,0
54343391,0.0,0.0,0.4577443,0.0,0.9739229,0.0,0.0,0.22687924,0.0,0.0,-0.0,1,0,0,0,0,0
54363387,0.0,0.0,0.45762053,0.0,0.973937,0.0,0.0,0.22681898,0.0,0.0,-0.0,1,0,0,0,0,0
54383260,0.0,0.0,0.45748344,0.0,0.97395253,0.0,0.0,0.22675222,0.0,0.0,-0.0,1,0,0,0,0,0
54403790,0.0,0.0,0.457328,0.0,0.9739701,0.0,0.0,0.22667651,0.0,0.0,-0.0,1,0,0,0,0,0
54423278,0.0,0.0,0.45721468,0.0,0.97398293,0.0,0.0,0.22662133,0.0,0.0,-0.0,1,0,0,0,0,0
54443278,0.0,0.0,0.4570974,0.0,0.9739962,0.0,0.0,0.2265642,0.0,0.0,-0.0,1,0,0,0,0,0
54463285,0.0,0.0,0.45697048,0.0,0.9740106,0.0,0.0,0.22650239,0.0,0.0,-0.0,1,0,0,0,0,0
54483330,0.0,0.0,0.45687327,0.0,0.9740216,0.0,0.0,0.22645506,0.0,0.0,-0.0,1,0,0,0,0,0
54503338,0.0,0.0,0.45677447,0.0,0.9740328,0.0,0.0,0.22640698,0.0,0.0,-0.0,1,0,0,0,0,0
54523345,0.0,0.0,0.45666867,0.0,0.9740448,0.0,0.0,0.22635542,0.0,0.0,-0.0,1,0,0,0,0,0
54543336,0.0,0.0,0.4565869,0.0,0.97405404,0.0,0.0,0.22631557,0.0,0.0,-0.0,1,0,0,0,0,0
54563369,0.0,0.0,0.45649272,0.0,0.97406465,0.0,0.0,0.2262697,0.0,0.0,-0.0,1,0,0,0,0,0
54583383,0.0,0.0,0.45641366,0.0,0.97407365,0.0,0.0,0.22623125,0.0,0.0,-0.0,1,0,0,0,0,0
54603392,0.0,0.0,0.4563123,0.0,0.9740851,0.0,0.0,0.22618185,0.0,0.0,-0.0,1,0,0,0,0,0
54623427,0.0,0.0,0.45621696,0.0,0.9740959,0.0,0.0,0.22613543,0.0,0.0,-0.0,1,0,0,0,0,0
54643433,0.0,0.0,0.45611143,0.0,0.9741078,0.0,0.0,0.22608404,0.0,0.0,-0.0,1,0,0,0,0,0
54663471,0.0,0.0,0.45602638,0.0,0.9741174,0.0,0.0,0.22604258,0.0,0.0,-0.0,1,0,0,0,0,0
54683605,0.0,0.0,0.45595542,0.0,0.97412544,0.0,0.0,0.22600804,0.0,0.0,-0.0,1,0,0,0,0,0
54703603,0.0,0.0,0.45584875,0.0,0.9741375,0.0,0.0,0.22595607,0.0,0.0,-0.0,1,0,0,0,0,0
54723601,0.0,0.0,0.45578814,0.0,0.97414434,0.0,0.0,0.22592656,0.0,0.0,-0.0,1,0,0,0,0,0
54743588,0.0,0.0,0.45572412,0.0,0.9741516,0.0,0.0,0.22589538,0.0,0.0,-0.0,1,0,0,0,0,0
54763586,0.0,0.0,0.45561847,0.0,0.9741635,0.0,0.0,0.22584392,0.0,0.0,-0.0,1,0,0,0,0,0
54783586,0.0,0.0,0.45554936,0.0,0.97417134,0.0,0.0,0.22581023,0.0,0.0,-0.0,1,0,0,0,0,0
54803615,0.0,0.0,0.45545334,0.0,0.9741821,0.0,0.0,0.22576348,0.0,0.0,-0.0,1,0,0,0,0,0
54823612,0.0,0.0,0.45537397,0.0,0.97419107,0.0,0.0,0.22572483,0.0,0.0,-0.0,1,0,0,0,0,0
54843918,0.0,0.0,0.45528415,0.0,0.97420126,0.0,0.0,0.22568107,0.0,0.0,-0.0,1,0,0,0,0,0
54863915,0.0,0.0,0.45519626,0.0,0.97421116,0.0,0.0,0.22563827,0.0,0.0,-0.0,1,0,0,0,0,0
54883949,0.0,0.0,0.45512256,0.0,0.9742195,0.0,0.0,0.22560233,0.0,0.0,-0.0,1,0,0,0,0,0
54904061,0.0,0.0,0.4550381,0.0,0.97422904,0.0,0.0,0.2255612,0.0,0.0,-0.0,1,0,0,0,0,0
54924069,0.0,0.0,0.45492992,0.0,0.9742412,0.0,0.0,0.22550853,0.0,0.0,-0.0,1,0,0,0,0,0
54944060,0.0,0.0,0.45484138,0.0,0.97425115,0.0,0.0,0.22546539,0.0,0.0,-0.0,1,0,0,0,0,0
54964100,0.0,0.0,0.45474195,0.0,0.9742624,0.0,0.0,0.22541697,0.0,0.0,-0.0,1,0,0,0,0,0
54984140,0.0,0.0,0.45464975,0.0,0.9742728,0.0,0.0,0.22537202,0.0,0.0,-0.0,1,0,0,0,0,0
55004165,0.0,0.0,0.45455965,0.0,0.9742829,0.0,0.0,0.22532815,0.0,0.0,-0.0,1,0,0,0,0,0
55024139,0.0,0.0,0.45446533,0.0,0.9742936,0.0,0.0,0.22528219,0.0,0.0,-0.0,1,0,0,0,0,0
55044124,0.0,0.0,0.4543853,0.0,0.9743026,0.0,0.0,0.2252432,0.0,0.0,-0.0,1,0,0,0,0,0
55064155,0.0,0.0,0.4543132,0.0,0.9743107,0.0,0.0,0.22520809,0.0,0.0,-0.0,1,0,0,0,0,0
55084124,0.0,0.0,0.4542582,0.0,0.9743169,0.0,0.0,0.22518133,0.0,0.0,-0.0,1,0,0,0,0,0
55104149,0.0,0.0,0.4541837,0.0,0.97432524,0.0,0.0,0.22514501,0.0,0.0,-0.0,1,0,0,0,0,0
55124157,0.0,0.0,0.45409977,0.0,0.9743347,0.0,0.0,0.22510411,0.0,0.0,-0.0,1,0,0,0,0,0
55144145,0.0,0.0,0.45400766,0.0,0.9743451,0.0,0.0,0.22505924,0.0,0.0,-0.0,1,0,0,0,0,0
55164166,0.0,0.0,0.45393294,0.0,0.9743535,0.0,0.0,0.22502282,0.0,0.0,-0.0,1,0,0,0,0,0
55184126,0.0,0.0,0.45385098,0.0,0.9743627,0.0,0.0,0.22498292,0.0,0.0,-0.0,1,0,0,0,0,0
55204140,0.0,0.0,0.45376602,0.0,0.9743723,0.0,0.0,0.22494154,0.0,0.0,-0.0,1,0,0,0,0,0
55224153,0.0,0.0,0.4537093,0.0,0.97437865,0.0,0.0,0.22491388,0.0,0.0,-0.0,1,0,0,0,0,0
55244132,0.0,0.0,0.45364267,0.0,0.9743861,0.0,0.0,0.22488143,0.0,0.0,-0.0,1,0,0,0,0,0
55264170,0.0,0.0,0.45355496,0.0,0.974396,0.0,0.0,0.22483869,0.0,0.0,-0.0,1,0,0,0,0,0
55284195,0.0,0.0,0.45350254,0.0,0.9744019,0.0,0.0,0.22481315,0.0,0.0,-0.0,1,0,0,0,0,0
55304216,0.0,0.0,0.45342052,0.0,0.97441113,0.0,0.0,0.2247732,0.0,0.0,-0.0,1,0,0,0,0,0
55324187,0.0,0.0,0.45335,0.0,0.97441906,0.0,0.0,0.22473882,0.0,0.0,-0.0,1,0,0,0,0,0
55344203,0.0,0.0,0.45328635,0.0,0.9744262,0.0,0.0,0.22470781,0.0,0.0,-0.0,1,0,0,0,0,0
55364215,0.0,0.0,0.453218,0.0,0.97443384,0.0,0.0,0.22467452,0.0,0.0,-0.0,1,0,0,0,0,0
55384247,0.0,0.0,0.45313528,0.0,0.97444314,0.0,0.0,0.22463422,0.0,0.0,-0.0,1,0,0,0,0,0
55404385,0.0,0.0,0.45307338,0.0,0.9744501,0.0,0.0,0.22460407,0.0,0.0,-0.0,1,0,0,0,0,0
55424244,0.0,0.0,0.45301843,0.0,0.9744563,0.0,0.0,0.22457728,0.0,0.0,-0.0,1,0,0,0,0,0
55444243,0.0,0.0,0.45294428,0.0,0.9744646,0.0,0.0,0.22454116,0.0,0.0,-0.0,1,0,0,0,0,0
55464345,0.0,0.0,0.45286173,0.0,0.9744739,0.0,0.0,0.22450094,0.0,0.0,-0.0,1,0,0,0,0,0
55485006,0.0,0.0,0.45275837,0.0,0.97448546,0.0,0.0,0.22445056,0.0,0.0,-0.0,1,0,0,0,0,0
55504612,0.0,0.0,0.4526601,0.0,0.9744965,0.0,0.0,0.2244027,0.0,0.0,-0.0,1,0,0,0,0,0
55525176,0.0,0.0,0.45258108,0.0,0.9745054,0.0,0.0,0.22436419,0.0,0.0,-0.0,1,0,0,0,0,0
55544575,0.0,0.0,0.45249194,0.0,0.9745154,0.0,0.0,0.22432077,0.0,0.0,-0.0,1,0,0,0,0,0
55565346,0.0,0.0,0.45238197,0.0,0.9745277,0.0,0.0,0.22426717,0.0,0.0,-0.0,1,0,0,0,0,0
55584662,0.0,0.0,0.45231667,0.0,0.974535,0.0,0.0,0.22423536,0.0,0.0,-0.0,1,0,0,0,0,0
55604584,0.0,0.0,0.45225316,0.0,0.97454214,0.0,0.0,0.2242044,0.0,0.0,-0.0,1,0,0,0,0,0
55624600,0.0,0.0,0.45217246,0.0,0.9745512,0.0,0.0,0.2241651,0.0,0.0,-0.0,1,0,0,0,0,0
55644671,0.0,0.0,0.45208305,0.0,0.9745612,0.0,0.0,0.22412154,0.0,0.0,-0.0,1,0,0,0,0,0
55665128,0.0,0.0,0.45201328,0.0,0.974569,0.0,0.0,0.2240875,0.0,0.0,-0.0,1,0,0,0,0,0
55684641,0.0,0.0,0.45192352,0.0,0.9745791,0.0,0.0,0.2240438,0.0,0.0,-0.0,1,0,0,0,0,0
55704646,0.0,0.0,0.4518411,0.0,0.97458833,0.0,0.0,0.22400364,0.0,0.0,-0.0,1,0,0,0,0,0
55724646,0.0,0.0,0.45176786,0.0,0.97459656,0.0,0.0,0.22396791,0.0,0.0,-0.0,1,0,0,0,0,0
55745307,0.0,0.0,0.45170736,0.0,0.9746033,0.0,0.0,0.22393845,0.0,0.0,-0.0,1,0,0,0,0,0
55764737,0.0,0.0,0.4516614,0.0,0.9746085,0.0,0.0,0.22391604,0.0,0.0,-0.0,1,0,0,0,0,0
55785053,0.0,0.0,0.45161563,0.0,0.97461355,0.0,0.0,0.22389375,0.0,0.0,-0.0,1,0,0,0,0,0
55804740,0.0,0.0,0.45156628,0.0,0.9746191,0.0,0.0,0.2238697,0.0,0.0,-0.0,1,0,0,0,0,0
55825348,0.0,0.0,0.45150995,0.0,0.9746254,0.0,0.0,0.22384226,0.0,0.0,-0.0,1,0,0,0,0,0
55844792,0.0,0.0,0.45144445,0.0,0.97463274,0.0,0.0,0.22381033,0.0,0.0,-0.0,1,0,0,0,0,0
55865199,0.0,0.0,0.45136148,0.0,0.974642,0.0,0.0,0.2237699,0.0,0.0,-0.0,1,0,0,0,0,0
55884799,0.0,0.0,0.4513093,0.0,0.9746478,0.0,0.0,0.22374445,0.0,0.0,-0.0,1,0,0,0,0,0
55905574,0.0,0.0,0.45126528,0.0,0.97465277,0.0,0.0,0.22372302,0.0,0.0,-0.0,1,0,0,0,0,0
55924828,0.0,0.0,0.45120853,0.0,0.97465914,0.0,0.0,0.22369537,0.0,0.0,-0.0,1,0,0,0,0,0
55945199,0.0,0.0,0.4511594,0.0,0.9746646,0.0,0.0,0.22367144,0.0,0.0,-0.0,1,0,0,0,0,0
55964833,0.0,0.0,0.45110083,0.0,0.9746711,0.0,0.0,0.22364289,0.0,0.0,-0.0,1,0,0,0,0,0
55985365,0.0,0.0,0.45101017,0.0,0.9746813,0.0,0.0,0.22359869,0.0,0.0,-0.0,1,0,0,0,0,0
56004837,0.0,0.0,0.450918,0.0,0.97469157,0.0,0.0,0.22355376,0.0,0.0,-0.0,1,0,0,0,0,0
56025486,0.0,0.0,0.45078778,0.0,0.9747062,0.0,0.0,0.2234903,0.0,0.0,-0.0,1,0,0,0,0,0
56044847,0.0,0.0,0.45066833,0.0,0.9747195,0.0,0.0,0.22343208,0.0,0.0,-0.0,1,0,0,0,0,0
56065038,0.0,0.0,0.4505737,0.0,0.9747301,0.0,0.0,0.22338597,0.0,0.0,-0.0,1,0,0,0,0,0
56084889,0.0,0.0,0.45046845,0.0,0.9747418,0.0,0.0,0.22333467,0.0,0.0,-0.0,1,0,0,0,0,0
56105316,0.0,0.0,0.45038196,0.0,0.9747515,0.0,0.0,0.22329253,0.0,0.0,-0.0,1,0,0,0,0,0
56124930,0.0,0.0,0.4502768,0.0,0.9747632,0.0,0.0,0.22324125,0.0,0.0,-0.0,1,0,0,0,0,0
56145342,0.0,0.0,0.45015413,0.0,0.9747769,0.0,0.0,0.22318147,0.0,0.0,-0.0,1,0,0,0,0,0
56165012,0.0,0.0,0.4500362,0.0,0.9747901,0.0,0.0,0.22312403,0.0,0.0,-0.0,1,0,0,0,0,0
56185019,0.0,0.0,0.4499414,0.0,0.97480065,0.0,0.0,0.2230778,0.0,0.0,-0.0,1,0,0,0,0,0
56205054,0.0,0.0,0.44985247,0.0,0.97481054,0.0,0.0,0.22303447,0.0,0.0,-0.0,1,0,0,0,0,0
56225610,0.0,0.0,0.44974515,0.0,0.9748225,0.0,0.0,0.22298215,0.0,0.0,-0.0,1,0,0,0,0,0
56245157,0.0,0.0,0.4496535,0.0,0.9748328,0.0,0.0,0.22293746,0.0,0.0,-0.0,1,0,0,0,0,0
56265338,0.0,0.0,0.44955298,0.0,0.9748439,0.0,0.0,0.22288848,0.0,0.0,-0.0,1,0,0,0,0,0
56285176,0.0,0.0,0.4494599,0.0,0.97485435,0.0,0.0,0.22284314,0.0,0.0,-0.0,1,0,0,0,0,0
56305204,0.0,0.0,0.44938055,0.0,0.9748632,0.0,0.0,0.22280443,0.0,0.0,-0.0,1,0,0,0,0,0
56325196,0.0,0.0,0.44928712,0.0,0.97487354,0.0,0.0,0.22275892,0.0,0.0,-0.0,1,0,0,0,0,0
56345307,0.0,0.0,0.44919237,0.0,0.9748841,0.0,0.0,0.22271271,0.0,0.0,-0.0,1,0,0,0,0,0
56365381,0.0,0.0,0.44910282,0.0,0.9748941,0.0,0.0,0.22266908,0.0,0.0,-0.0,1,0,0,0,0,0
56385340,0.0,0.0,0.44901904,0.0,0.97490346,0.0,0.0,0.2226282,0.0,0.0,-0.0,1,0,0,0,0,0
56405342,0.0,0.0,0.4489325,0.0,0.97491306,0.0,0.0,0.22258604,0.0,0.0,-0.0,1,0,0,0,0,0
56425419,0.0,0.0,0.44886616,0.0,0.97492045,0.0,0.0,0.2225537,0.0,0.0,-0.0,1,0,0,0,0,0
56445427,0.0,0.0,0.44880563,0.0,0.9749272,0.0,0.0,0.22252418,0.0,0.0,-0.0,1,0,0,0,0,0
56465446,0.0,0.0,0.44873276,0.0,0.9749353,0.0,0.0,0.22248867,0.0,0.0,-0.0,1,0,0,0,0,0
56485471,0.0,0.0,0.44867676,0.0,0.97494155,0.0,0.0,0.22246137,0.0,0.0,-0.0,1,0,0,0,0,0
56505449,0.0,0.0,0.44857967,0.0,0.9749523,0.0,0.0,0.22241406,0.0,0.0,-0.0,1,0,0,0,0,0
56525466,0.0,0.0,0.44848937,0.0,0.97496235,0.0,0.0,0.22237003,0.0,0.0,-0.0,1,0,0,0,0,0
56545596,0.0,0.0,0.44841516,0.0,0.97497064,0.0,0.0,0.22233388,0.0,0.0,-0.0,1,0,0,0,0,0
56565537,0.0,0.0,0.44832736,0.0,0.97498035,0.0,0.0,0.22229105,0.0,0.0,-0.0,1,0,0,0,0,0
56585516,0.0,0.0,0.44822276,0.0,0.974992,0.0,0.0,0.22224005,0.0,0.0,-0.0,1,0,0,0,0,0
56605533,0.0,0.0,0.44813532,0.0,0.9750017,0.0,0.0,0.22219744,0.0,0.0,-0.0,1,0,0,0,0,0
56625542,0.0,0.0,0.4480523,0.0,0.97501093,0.0,0.0,0.22215694,0.0,0.0,-0.0,1,0,0,0,0,0
56645550,0.0,0.0,0.44797054,0.0,0.97502005,0.0,0.0,0.22211713,0.0,0.0,-0.0,1,0,0,0,0,0
56665544,0.0,0.0,0.44787714,0.0,0.97503036,0.0,0.0,0.22207156,0.0,0.0,-0.0,1,0,0,0,0,0
56685557,0.0,0.0,0.44781613,0.0,0.97503716,0.0,0.0,0.22204185,0.0,0.0,-0.0,1,0,0,0,0,0
56705562,0.0,0.0,0.44774017,0.0,0.97504556,0.0,0.0,0.22200479,0.0,0.0,-0.0,1,0,0,0,0,0
56725562,0.0,0.0,0.44766787,0.0,0.9750536,0.0,0.0,0.22196953,0.0,0.0,-0.0,1,0,0,0,0,0
56745600,0.0,0.0,0.44759166,0.0,0.9750621,0.0,0.0,0.22193243,0.0,0.0,-0.0,1,0,0,0,0,0
56765665,0.0,0.0,0.4475034,0.0,0.97507185,0.0,0.0,0.22188935,0.0,0.0,-0.0,1,0,0,0,0,0
56785660,0.0,0.0,0.4474345,0.0,0.9750795,0.0,0.0,0.22185577,0.0,0.0,-0.0,1,0,0,0,0,0
56805713,0.0,0.0,0.44737238,0.0,0.9750864,0.0,0.0,0.2218255,0.0,0.0,-0.0,1,0,0,0,0,0
56825772,0.0,0.0,0.44728136,0.0,0.9750965,0.0,0.0,0.2217811,0.0,0.0,-0.0,1,0,0,0,0,0
56845802,0.0,0.0,0.44719413,0.0,0.9751062,0.0,0.0,0.22173858,0.0,0.0,-0.0,1,0,0,0,0,0
56865794,0.0,0.0,0.44711414,0.0,0.975115,0.0,0.0,0.22169957,0.0,0.0,-0.0,1,0,0,0,0,0
56885795,0.0,0.0,0.44703582,0.0,0.9751237,0.0,0.0,0.22166139,0.0,0.0,-0.0,1,0,0,0,0,0
56905696,0.0,0.0,0.4469511,0.0,0.9751331,0.0,0.0,0.2216201,0.0,0.0,-0.0,1,0,0,0,0,0
56925812,0.0,0.0,0.4468847,0.0,0.97514045,0.0,0.0,0.22158769,0.0,0.0,-0.0,1,0,0,0,0,0
56945740,0.0,0.0,0.44682366,0.0,0.97514725,0.0,0.0,0.22155793,0.0,0.0,-0.0,1,0,0,0,0,0
56965791,0.0,0.0,0.4467597,0.0,0.9751543,0.0,0.0,0.22152676,0.0,0.0,-0.0,1,0,0,0,0,0
56985783,0.0,0.0,0.4467059,0.0,0.97516024,0.0,0.0,0.22150055,0.0,0.0,-0.0,1,0,0,0,0,0
57005813,0.0,0.0,0.44665006,0.0,0.97516644,0.0,0.0,0.2214733,0.0,0.0,-0.0,1,0,0,0,0,0
57025823,0.0,0.0,0.44657528,0.0,0.9751747,0.0,0.0,0.22143684,0.0,0.0,-0.0,1,0,0,0,0,0
57045850,0.0,0.0,0.44649208,0.0,0.97518396,0.0,0.0,0.22139627,0.0,0.0,-0.0,1,0,0,0,0,0
57065960,0.0,0.0,0.4464276,0.0,0.97519106,0.0,0.0,0.22136483,0.0,0.0,-0.0,1,0,0,0,0,0
57086000,0.0,0.0,0.44636136,0.0,0.9751984,0.0,0.0,0.22133252,0.0,0.0,-0.0,1,0,0,0,0,0
57106007,0.0,0.0,0.44631118,0.0,0.97520393,0.0,0.0,0.22130805,0.0,0.0,-0.0,1,0,0,0,0,0
57126198,0.0,0.0,0.44627386,0.0,0.9752081,0.0,0.0,0.22128987,0.0,0.0,-0.0,1,0,0,0,0,0
57146164,0.0,0.0,0.44624174,0.0,0.9752117,0.0,0.0,0.22127421,0.0,0.0,-0.0,1,0,0,0,0,0
57166160,0.0,0.0,0.44619915,0.0,0.9752163,0.0,0.0,0.22125344,0.0,0.0,-0.0,1,0,0,0,0,0
57186163,0.0,0.0,0.44612318,0.0,0.97522473,0.0,0.0,0.2212164,0.0,0.0,-0.0,1,0,0,0,0,0
57206182,0.0,0.0,0.44604516,0.0,0.9752334,0.0,0.0,0.22117835,0.0,0.0,-0.0,1,0,0,0,0,0
57226183,0.0,0.0,0.4459944,0.0,0.975239,0.0,0.0,0.2211536,0.0,0.0,-0.0,1,0,0,0,0,0
57246230,0.0,0.0,0.44592565,0.0,0.9752466,0.0,0.0,0.2211201,0.0,0.0,-0.0,1,0,0,0,0,0
57266232,0.0,0.0,0.44584236,0.0,0.9752558,0.0,0.0,0.22107947,0.0,0.0,-0.0,1,0,0,0,0,0
57286243,0.0,0.0,0.44576645,0.0,0.9752642,0.0,0.0,0.22104248,0.0,0.0,-0.0,1,0,0,0,0,0
57306245,0.0,0.0,0.44569346,0.0,0.97527224,0.0,0.0,0.22100687,0.0,0.0,-0.0,1,0,0,0,0,0
57326240,0.0,0.0,0.44561487,0.0,0.97528094,0.0,0.0,0.22096851,0.0,0.0,-0.0,1,0,0,0,0,0
57346287,0.0,0.0,0.4455633,0.0,0.97528666,0.0,0.0,0.22094338,0.0,0.0,-0.0,1,0,0,0,0,0
57366278,0.0,0.0,0.44548818,0.0,0.97529495,0.0,0.0,0.22090678,0.0,0.0,-0.0,1,0,0,0,0,0
57386324,0.0,0.0,0.4453906,0.0,0.97530574,0.0,0.0,0.22085916,0.0,0.0,-0.0,1,0,0,0,0,0
57406314,0.0,0.0,0.44531146,0.0,0.97531444,0.0,0.0,0.22082058,0.0,0.0,-0.0,1,0,0,0,0,0
57426340,0.0,0.0,0.44520968,0.0,0.9753257,0.0,0.0,0.22077096,0.0,0.0,-0.0,1,0,0,0,0,0
57446363,0.0,0.0,0.4451361,0.0,0.9753338,0.0,0.0,0.22073506,0.0,0.0,-0.0,1,0,0,0,0,0
57466366,0.0,0.0,0.44507062,0.0,0.975341,0.0,0.0,0.22070312,0.0,0.0,-0.0,1,0,0,0,0,0
57486373,0.0,0.0,0.44499266,0.0,0.97534966,0.0,0.0,0.22066508,0.0,0.0,-0.0,1,0,0,0,0,0
57506372,0.0,0.0,0.44491506,0.0,0.9753582,0.0,0.0,0.2206273,0.0,0.0,-0.0,1,0,0,0,0,0
57526380,0.0,0.0,0.44485116,0.0,0.9753652,0.0,0.0,0.2205961,0.0,0.0,-0.0,1,0,0,0,0,0
57546402,0.0,0.0,0.44475278,0.0,0.9753761,0.0,0.0,0.22054812,0.0,0.0,-0.0,1,0,0,0,0,0
57566400,0.0,0.0,0.44466227,0.0,0.9753861,0.0,0.0,0.220504,0.0,0.0,-0.0,1,0,0,0,0,0
57586404,0.0,0.0,0.4445905,0.0,0.975394,0.0,0.0,0.22046897,0.0,0.0,-0.0,1,0,0,0,0,0
57606408,0.0,0.0,0.44447958,0.0,0.9754062,0.0,0.0,0.22041486,0.0,0.0,-0.0,1,0,0,0,0,0
57626433,0.0,0.0,0.44440034,0.0,0.97541493,0.0,0.0,0.22037624,0.0,0.0,-0.0,1,0,0,0,0,0
57646433,0.0,0.0,0.44433203,0.0,0.9754225,0.0,0.0,0.22034295,0.0,0.0,-0.0,1,0,0,0,0,0
57666511,0.0,0.0,0.4442841,0.0,0.9754278,0.0,0.0,0.22031955,0.0,0.0,-0.0,1,0,0,0,0,0
57686521,0.0,0.0,0.44422993,0.0,0.9754337,0.0,0.0,0.22029313,0.0,0.0,-0.0,1,0,0,0,0,0
57706552,0.0,0.0,0.44419622,0.0,0.9754374,0.0,0.0,0.22027667,0.0,0.0,-0.0,1,0,0,0,0,0
57726546,0.0,0.0,0.44413427,0.0,0.97544426,0.0,0.0,0.22024646,0.0,0.0,-0.0,1,0,0,0,0,0
57746578,0.0,0.0,0.44404334,0.0,0.9754543,0.0,0.0,0.22020212,0.0,0.0,-0.0,1,0,0,0,0,0
57766579,0.0,0.0,0.44398332,0.0,0.9754609,0.0,0.0,0.22017282,0.0,0.0,-0.0,1,0,0,0,0,0
57786591,0.0,0.0,0.44394308,0.0,0.9754653,0.0,0.0,0.22015323,0.0,0.0,-0.0,1,0,0,0,0,0
57806608,0.0,0.0,0.44388148,0.0,0.9754721,0.0,0.0,0.22012322,0.0,0.0,-0.0,1,0,0,0,0,0
57826613,0.0,0.0,0.44384032,0.0,0.9754766,0.0,0.0,0.2201031,0.0,0.0,-0.0,1,0,0,0,0,0
57846648,0.0,0.0,0.44379574,0.0,0.9754815,0.0,0.0,0.22008136,0.0,0.0,-0.0,1,0,0,0,0,0
57866733,0.0,0.0,0.44376093,0.0,0.9754854,0.0,0.0,0.22006436,0.0,0.0,-0.0,1,0,0,0,0,0
57886757,0.0,0.0,0.4437194,0.0,0.9754899,0.0,0.0,0.22004412,0.0,0.0,-0.0,1,0,0,0,0,0
57906767,0.0,0.0,0.44368848,0.0,0.9754933,0.0,0.0,0.22002906,0.0,0.0,-0.0,1,0,0,0,0,0
57926815,0.0,0.0,0.44365793,0.0,0.97549665,0.0,0.0,0.22001414,0.0,0.0,-0.0,1,0,0,0,0,0
57946904,0.0,0.0,0.44362733,0.0,0.97550005,0.0,0.0,0.2199992,0.0,0.0,-0.0,1,0,0,0,0,0
57966921,0.0,0.0,0.4435863,0.0,0.9755046,0.0,0.0,0.21997923,0.0,0.0,-0.0,1,0,0,0,0,0
57986930,0.0,0.0,0.44355407,0.0,0.97550815,0.0,0.0,0.2199635,0.0,0.0,-0.0,1,0,0,0,0,0
58006955,0.0,0.0,0.44353554,0.0,0.9755101,0.0,0.0,0.21995445,0.0,0.0,-0.0,1,0,0,0,0,0
58026934,0.0,0.0,0.44350624,0.0,0.97551334,0.0,0.0,0.21994016,0.0,0.0,-0.0,1,0,0,0,0,0
58046945,0.0,0.0,0.44347933,0.0,0.9755163,0.0,0.0,0.21992703,0.0,0.0,-0.0,1,0,0,0,0,0
58066991,0.0,0.0,0.44347975,0.0,0.97551626,0.0,0.0,0.21992724,0.0,0.0,-0.0,1,0,0,0,0,0
58087007,0.0,0.0,0.44345933,0.0,0.9755185,0.0,0.0,0.21991727,0.0,0.0,-0.0,1,0,0,0,0,0
58107020,0.0,0.0,0.44341353,0.0,0.97552353,0.0,0.0,0.21989493,0.0,0.0,-0.0,1,0,0,0,0,0
58127040,0.0,0.0,0.44340557,0.0,0.9755245,0.0,0.0,0.21989107,0.0,0.0,-0.0,1,0,0,0,0,0
58147037,0.0,0.0,0.44337824,0.0,0.97552747,0.0,0.0,0.21987775,0.0,0.0,-0.0,1,0,0,0,0,0
58167040,0.0,0.0,0.44337955,0.0,0.9755273,0.0,0.0,0.21987839,0.0,0.0,-0.0,1,0,0,0,0,0
58187078,0.0,0.0,0.44336432,0.0,0.975529,0.0,0.0,0.21987095,0.0,0.0,-0.0,1,0,0,0,0,0
58207137,0.0,0.0,0.4433475,0.0,0.9755308,0.0,0.0,0.21986273,0.0,0.0,-0.0,1,0,0,0,0,0
58227137,0.0,0.0,0.44334626,0.0,0.975531,0.0,0.0,0.21986216,0.0,0.0,-0.0,1,0,0,0,0,0
58247180,0.0,0.0,0.44333574,0.0,0.9755321,0.0,0.0,0.219857,0.0,0.0,-0.0,1,0,0,0,0,0
58267180,0.0,0.0,0.44331717,0.0,0.97553414,0.0,0.0,0.21984795,0.0,0.0,-0.0,1,0,0,0,0,0
58287190,0.0,0.0,0.44330516,0.0,0.9755355,0.0,0.0,0.2198421,0.0,0.0,-0.0,1,0,0,0,0,0
58307202,0.0,0.0,0.44327128,0.0,0.9755392,0.0,0.0,0.21982555,0.0,0.0,-0.0,1,0,0,0,0,0
58327216,0.0,0.0,0.44326246,0.0,0.97554016,0.0,0.0,0.21982129,0.0,0.0,-0.0,1,0,0,0,0,0
58347218,0.0,0.0,0.44325727,0.0,0.9755407,0.0,0.0,0.21981873,0.0,0.0,-0.0,1,0,0,0,0,0
58367222,0.0,0.0,0.44322512,0.0,0.9755443,0.0,0.0,0.21980302,0.0,0.0,-0.0,1,0,0,0,0,0
58387227,0.0,0.0,0.443225,0.0,0.9755443,0.0,0.0,0.21980296,0.0,0.0,-0.0,1,0,0,0,0,0
58407236,0.0,0.0,0.44320014,0.0,0.975547,0.0,0.0,0.21979085,0.0,0.0,-0.0,1,0,0,0,0,0
58427235,0.0,0.0,0.44317213,0.0,0.9755501,0.0,0.0,0.21977721,0.0,0.0,-0.0,1,0,0,0,0,0
58447240,0.0,0.0,0.44314343,0.0,0.9755533,0.0,0.0,0.21976319,0.0,0.0,-0.0,1,0,0,0,0,0
58467269,0.0,0.0,0.44310176,0.0,0.9755578,0.0,0.0,0.2197429,0.0,0.0,-0.0,1,0,0,0,0,0
58487277,0.0,0.0,0.44304746,0.0,0.9755638,0.0,0.0,0.21971639,0.0,0.0,-0.0,1,0,0,0,0,0
58507316,0.0,0.0,0.44298688,0.0,0.97557044,0.0,0.0,0.21968684,0.0,0.0,-0.0,1,0,0,0,0,0
58527333,0.0,0.0,0.44292757,0.0,0.975577,0.0,0.0,0.21965791,0.0,0.0,-0.0,1,0,0,0,0,0
58547334,0.0,0.0,0.4428431,0.0,0.97558624,0.0,0.0,0.21961671,0.0,0.0,-0.0,1,0,0,0,0,0
58567430,0.0,0.0,0.44276613,0.0,0.9755947,0.0,0.0,0.21957915,0.0,0.0,-0.0,1,0,0,0,0,0
58587424,0.0,0.0,0.44270048,0.0,0.9756019,0.0,0.0,0.21954711,0.0,0.0,-0.0,1,0,0,0,0,0
58607439,0.0,0.0,0.4426274,0.0,0.9756099,0.0,0.0,0.21951148,0.0,0.0,-0.0,1,0,0,0,0,0
58627422,0.0,0.0,0.44254407,0.0,0.9756191,0.0,0.0,0.21947081,0.0,0.0,-0.0,1,0,0,0,0,0
58647447,0.0,0.0,0.44247285,0.0,0.9756269,0.0,0.0,0.21943611,0.0,0.0,-0.0,1,0,0,0,0,0
58667455,0.0,0.0,0.44242316,0.0,0.9756323,0.0,0.0,0.21941184,0.0,0.0,-0.0,1,0,0,0,0,0
58687565,0.0,0.0,0.44236144,0.0,0.9756391,0.0,0.0,0.21938175,0.0,0.0,-0.0,1,0,0,0,0,0
58707566,0.0,0.0,0.44230667,0.0,0.9756451,0.0,0.0,0.219355,0.0,0.0,-0.0,1,0,0,0,0,0
58727598,0.0,0.0,0.4422418,0.0,0.9756522,0.0,0.0,0.21932337,0.0,0.0,-0.0,1,0,0,0,0,0
58747619,0.0,0.0,0.44214615,0.0,0.9756627,0.0,0.0,0.21927673,0.0,0.0,-0.0,1,0,0,0,0,0
58767900,0.0,0.0,0.4420328,0.0,0.9756751,0.0,0.0,0.21922141,0.0,0.0,-0.0,1,0,0,0,0,0
58787982,0.0,0.0,0.44193336,0.0,0.975686,0.0,0.0,0.21917291,0.0,0.0,-0.0,1,0,0,0,0,0
58807978,0.0,0.0,0.4418432,0.0,0.9756959,0.0,0.0,0.21912897,0.0,0.0,-0.0,1,0,0,0,0,0
58827991,0.0,0.0,0.4417738,0.0,0.97570354,0.0,0.0,0.2190951,0.0,0.0,-0.0,1,0,0,0,0,0
58848046,0.0,0.0,0.44171092,0.0,0.97571045,0.0,0.0,0.21906441,0.0,0.0,-0.0,1,0,0,0,0,0
58868032,0.0,0.0,0.44162917,0.0,0.9757194,0.0,0.0,0.2190245,0.0,0.0,-0.0,1,0,0,0,0,0
58888050,0.0,0.0,0.44154665,0.0,0.9757284,0.0,0.0,0.21898429,0.0,0.0,-0.0,1,0,0,0,0,0
58908044,0.0,0.0,0.44143617,0.0,0.9757405,0.0,0.0,0.21893038,0.0,0.0,-0.0,1,0,0,0,0,0
58928120,0.0,0.0,0.44135574,0.0,0.9757493,0.0,0.0,0.2188911,0.0,0.0,-0.0,1,0,0,0,0,0
58948158,0.0,0.0,0.44127247,0.0,0.9757584,0.0,0.0,0.2188505,0.0,0.0,-0.0,1,0,0,0,0,0
58968112,0.0,0.0,0.44116354,0.0,0.9757703,0.0,0.0,0.21879734,0.0,0.0,-0.0,1,0,0,0,0,0
58988111,0.0,0.0,0.44105965,0.0,0.9757817,0.0,0.0,0.21874665,0.0,0.0,-0.0,1,0,0,0,0,0
59008148,0.0,0.0,0.44097993,0.0,0.9757904,0.0,0.0,0.21870777,0.0,0.0,-0.0,1,0,0,0,0,0
59028104,0.0,0.0,0.44091743,0.0,0.97579724,0.0,0.0,0.2186773,0.0,0.0,-0.0,1,0,0,0,0,0
59048135,0.0,0.0,0.44084066,0.0,0.9758057,0.0,0.0,0.21863984,0.0,0.0,-0.0,1,0,0,0,0,0
59068161,0.0,0.0,0.4407737,0.0,0.975813,0.0,0.0,0.21860714,0.0,0.0,-0.0,1,0,0,0,0,0
59088145,0.0,0.0,0.4407251,0.0,0.9758183,0.0,0.0,0.21858342,0.0,0.0,-0.0,1,0,0,0,0,0
59108135,0.0,0.0,0.44064707,0.0,0.9758268,0.0,0.0,0.21854536,0.0,0.0,-0.0,1,0,0,0,0,0
59128176,0.0,0.0,0.44057992,0.0,0.97583413,0.0,0.0,0.21851258,0.0,0.0,-0.0,1,0,0,0,0,0
59148181,0.0,0.0,0.44052118,0.0,0.97584057,0.0,0.0,0.21848394,0.0,0.0,-0.0,1,0,0,0,0,0
59168169,0.0,0.0,0.44046342,0.0,0.9758469,0.0,0.0,0.21845578,0.0,0.0,-0.0,1,0,0,0,0,0
59188164,0.0,0.0,0.4404058,0.0,0.97585315,0.0,0.0,0.21842764,0.0,0.0,-0.0,1,0,0,0,0,0
59208249,0.0,0.0,0.44035745,0.0,0.97585845,0.0,0.0,0.21840402,0.0,0.0,-0.0,1,0,0,0,0,0
59228153,0.0,0.0,0.440303,0.0,0.97586435,0.0,0.0,0.21837749,0.0,0.0,-0.0,1,0,0,0,0,0
59248260,0.0,0.0,0.4402805,0.0,0.9758668,0.0,0.0,0.21836649,0.0,0.0,-0.0,1,0,0,0,0,0
59268178,0.0,0.0,0.44025898,0.0,0.9758692,0.0,0.0,0.21835598,0.0,0.0,-0.0,1,0,0,0,0,0
59288261,0.0,0.0,0.44020233,0.0,0.9758754,0.0,0.0,0.21832836,0.0,0.0,-0.0,1,0,0,0,0,0
59308167,0.0,0.0,0.440144,0.0,0.9758817,0.0,0.0,0.21829988,0.0,0.0,-0.0,1,0,0,0,0,0
59328172,0.0,0.0,0.44011188,0.0,0.9758853,0.0,0.0,0.21828425,0.0,0.0,-0.0,1,0,0,0,0,0
59348281,0.0,0.0,0.44008029,0.0,0.97588867,0.0,0.0,0.21826881,0.0,0.0,-0.0,1,0,0,0,0,0
59368282,0.0,0.0,0.4400716,0.0,0.9758896,0.0,0.0,0.21826456,0.0,0.0,-0.0,1,0,0,0,0,0
59388283,0.0,0.0,0.44004098,0.0,0.97589296,0.0,0.0,0.21824962,0.0,0.0,-0.0,1,0,0,0,0,0
59408282,0.0,0.0,0.44001707,0.0,0.9758956,0.0,0.0,0.21823795,0.0,0.0,-0.0,1,0,0,0,0,0
59428464,0.0,0.0,0.43998048,0.0,0.97589964,0.0,0.0,0.21822011,0.0,0.0,-0.0,1,0,0,0,0,0
59449481,0.0,0.0,0.4399437,0.0,0.97590363,0.0,0.0,0.21820217,0.0,0.0,-0.0,1,0,0,0,0,0
59468631,0.0,0.0,0.43990004,0.0,0.97590834,0.0,0.0,0.21818087,0.0,0.0,-0.0,1,0,0,0,0,0
59489040,0.0,0.0,0.43986744,0.0,0.975912,0.0,0.0,0.21816494,0.0,0.0,-0.0,1,0,0,0,0,0
59508664,0.0,0.0,0.43984267,0.0,0.97591466,0.0,0.0,0.21815287,0.0,0.0,-0.0,1,0,0,0,0,0
59529428,0.0,0.0,0.43982664,0.0,0.9759164,0.0,0.0,0.21814507,0.0,0.0,-0.0,1,0,0,0,0,0
59548612,0.0,0.0,0.43981233,0.0,0.97591794,0.0,0.0,0.21813807,0.0,0.0,-0.0,1,0,0,0,0,0
59569991,0.0,0.0,0.43981674,0.0,0.97591746,0.0,0.0,0.21814018,0.0,0.0,-0.0,1,0,0,0,0,0
59588647,0.0,0.0,0.4398058,0.0,0.97591865,0.0,0.0,0.21813487,0.0,0.0,-0.0,1,0,0,0,0,0
59609338,0.0,0.0,0.43979946,0.0,0.97591937,0.0,0.0,0.21813178,0.0,0.0,-0.0,1,0,0,0,0,0
59628629,0.0,0.0,0.43977588,0.0,0.9759219,0.0,0.0,0.21812026,0.0,0.0,-0.0,1,0,0,0,0,0
59649443,0.0,0.0,0.43975976,0.0,0.97592366,0.0,0.0,0.21811241,0.0,0.0,-0.0,1,0,0,0,0,0
59668663,0.0,0.0,0.43973047,0.0,0.9759269,0.0,0.0,0.21809809,0.0,0.0,-0.0,1,0,0,0,0,0
59688656,0.0,0.0,0.43968016,0.0,0.97593236,0.0,0.0,0.21807355,0.0,0.0,-0.0,1,0,0,0,0,0
59708691,0.0,0.0,0.43962952,0.0,0.9759379,0.0,0.0,0.21804887,0.0,0.0,-0.0,1,0,0,0,0,0
59729607,0.0,0.0,0.43960696,0.0,0.97594035,0.0,0.0,0.21803784,0.0,0.0,-0.0,1,0,0,0,0,0
59748779,0.0,0.0,0.4395622,0.0,0.9759452,0.0,0.0,0.218016,0.0,0.0,-0.0,1,0,0,0,0,0
59769298,0.0,0.0,0.43950874,0.0,0.975951,0.0,0.0,0.21798992,0.0,0.0,-0.0,1,0,0,0,0,0
59788787,0.0,0.0,0.43945408,0.0,0.975957,0.0,0.0,0.21796322,0.0,0.0,-0.0,1,0,0,0,0,0
59809023,0.0,0.0,0.43940854,0.0,0.9759619,0.0,0.0,0.21794103,0.0,0.0,-0.0,1,0,0,0,0,0
59828791,0.0,0.0,0.4393626,0.0,0.97596693,0.0,0.0,0.21791857,0.0,0.0,-0.0,1,0,0,0,0,0
59849615,0.0,0.0,0.43930212,0.0,0.9759736,0.0,0.0,0.2178891,0.0,0.0,-0.0,1,0,0,0,0,0
59868798,0.0,0.0,0.43925667,0.0,0.9759785,0.0,0.0,0.2178669,0.0,0.0,-0.0,1,0,0,0,0,0
59889067,0.0,0.0,0.43921903,0.0,0.9759826,0.0,0.0,0.21784854,0.0,0.0,-0.0,1,0,0,0,0,0
59908823,0.0,0.0,0.4391725,0.0,0.9759877,0.0,0.0,0.21782584,0.0,0.0,-0.0,1,0,0,0,0,0
59929424,0.0,0.0,0.4391331,0.0,0.97599196,0.0,0.0,0.21780661,0.0,0.0,-0.0,1,0,0,0,0,0
59948820,0.0,0.0,0.43908197,0.0,0.9759975,0.0,0.0,0.21778165,0.0,0.0,-0.0,1,0,0,0,0,0
59970978,0.0,0.0,0.4390244,0.0,0.9760038,0.0,0.0,0.21775359,0.0,0.0,-0.0,1,0,0,0,0,0
59988827,0.0,0.0,0.4389705,0.0,0.97600967,0.0,0.0,0.21772724,0.0,0.0,-0.0,1,0,0,0,0,0
60009428,0.0,0.0,0.43891641,0.0,0.97601557,0.0,0.0,0.21770088,0.0,0.0,-0.0,1,0,0,0,0,0
60028834,0.0,0.0,0.43885806,0.0,0.9760219,0.0,0.0,0.2176724,0.0,0.0,-0.0,1,0,0,0,0,0
60049460,0.0,0.0,0.43880966,0.0,0.9760272,0.0,0.0,0.21764876,0.0,0.0,-0.0,1,0,0,0,0,0
60068898,0.0,0.0,0.4387514,0.0,0.9760335,0.0,0.0,0.21762031,0.0,0.0,-0.0,1,0,0,0,0,0
60089031,0.0,0.0,0.43871644,0.0,0.9760373,0.0,0.0,0.21760327,0.0,0.0,-0.0,1,0,0,0,0,0
60108933,0.0,0.0,0.4386653,0.0,0.97604287,0.0,0.0,0.21757835,0.0,0.0,-0.0,1,0,0,0,0,0
60129590,0.0,0.0,0.43862182,0.0,0.9760476,0.0,0.0,0.21755709,0.0,0.0,-0.0,1,0,0,0,0,0
60148930,0.0,0.0,0.43856722,0.0,0.97605354,0.0,0.0,0.21753044,0.0,0.0,-0.0,1,0,0,0,0,0
60170432,0.0,0.0,0.4385125,0.0,0.9760595,0.0,0.0,0.21750373,0.0,0.0,-0.0,1,0,0,0,0,0
60188924,0.0,0.0,0.43843904,0.0,0.9760675,0.0,0.0,0.21746792,0.0,0.0,-0.0,1,0,0,0,0,0
60209315,0.0,0.0,0.43838316,0.0,0.97607356,0.0,0.0,0.21744059,0.0,0.0,-0.0,1,0,0,0,0,0
60228973,0.0,0.0,0.4383077,0.0,0.9760818,0.0,0.0,0.21740381,0.0,0.0,-0.0,1,0,0,0,0,0
60249626,0.0,0.0,0.43827426,0.0,0.97608536,0.0,0.0,0.21738751,0.0,0.0,-0.0,1,0,0,0,0,0
60269025,0.0,0.0,0.43822983,0.0,0.9760902,0.0,0.0,0.21736579,0.0,0.0,-0.0,1,0,0,0,0,0
60289336,0.0,0.0,0.4381832,0.0,0.97609526,0.0,0.0,0.21734302,0.0,0.0,-0.0,1,0,0,0,0,0
60309159,0.0,0.0,0.4381157,0.0,0.9761026,0.0,0.0,0.21731009,0.0,0.0,-0.0,1,0,0,0,0,0
60329486,0.0,0.0,0.43805382,0.0,0.9761093,0.0,0.0,0.2172799,0.0,0.0,-0.0,1,0,0,0,0,0
60349181,0.0,0.0,0.4380196,0.0,0.9761131,0.0,0.0,0.21726319,0.0,0.0,-0.0,1,0,0,0,0,0
60369229,0.0,0.0,0.43797353,0.0,0.9761181,0.0,0.0,0.21724068,0.0,0.0,-0.0,1,0,0,0,0,0
60389214,0.0,0.0,0.437927,0.0,0.97612315,0.0,0.0,0.21721801,0.0,0.0,-0.0,1,0,0,0,0,0
60409422,0.0,0.0,0.4378773,0.0,0.9761285,0.0,0.0,0.21719374,0.0,0.0,-0.0,1,0,0,0,0,0
60429456,0.0,0.0,0.4378392,0.0,0.97613263,0.0,0.0,0.21717513,0.0,0.0,-0.0,1,0,0,0,0,0
60449814,0.0,0.0,0.43782246,0.0,0.9761345,0.0,0.0,0.21716696,0.0,0.0,-0.0,1,0,0,0,0,0
60469460,0.0,0.0,0.4378094,0.0,0.9761359,0.0,0.0,0.21716061,0.0,0.0,-0.0,1,0,0,0,0,0
60489431,0.0,0.0,0.43778843,0.0,0.9761382,0.0,0.0,0.21715036,0.0,0.0,-0.0,1,0,0,0,0,0
60509439,0.0,0.0,0.43776914,0.0,0.97614026,0.0,0.0,0.21714094,0.0,0.0,-0.0,1,0,0,0,0,0
60529442,0.0,0.0,0.43777984,0.0,0.9761391,0.0,0.0,0.21714616,0.0,0.0,-0.0,1,0,0,0,0,0
60549450,0.0,0.0,0.43773645,0.0,0.97614384,0.0,0.0,0.21712501,0.0,0.0,-0.0,1,0,0,0,0,0
60570103,0.0,0.0,0.437729,0.0,0.9761446,0.0,0.0,0.21712135,0.0,0.0,-0.0,1,0,0,0,0,0
60589488,0.0,0.0,0.43774155,0.0,0.9761433,0.0,0.0,0.21712744,0.0,0.0,-0.0,1,0,0,0,0,0
60609506,0.0,0.0,0.4377435,0.0,0.97614306,0.0,0.0,0.21712844,0.0,0.0,-0.0,1,0,0,0,0,0
60629534,0.0,0.0,0.43774834,0.0,0.9761425,0.0,0.0,0.21713078,0.0,0.0,-0.0,1,0,0,0,0,0
60649591,0.0,0.0,0.4377506,0.0,0.9761423,0.0,0.0,0.21713188,0.0,0.0,-0.0,1,0,0,0,0,0
60669580,0.0,0.0,0.43772438,0.0,0.9761451,0.0,0.0,0.21711911,0.0,0.0,-0.0,1,0,0,0,0,0
60689622,0.0,0.0,0.43771586,0.0,0.97614604,0.0,0.0,0.21711494,0.0,0.0,-0.0,1,0,0,0,0,0
60709577,0.0,0.0,0.43772188,0.0,0.9761454,0.0,0.0,0.21711788,0.0,0.0,-0.0,1,0,0,0,0,0
60729579,0.0,0.0,0.4376954,0.0,0.9761483,0.0,0.0,0.21710497,0.0,0.0,-0.0,1,0,0,0,0,0
60749591,0.0,0.0,0.43766642,0.0,0.9761514,0.0,0.0,0.2170908,0.0,0.0,-0.0,1,0,0,0,0,0
60770327,0.0,0.0,0.4376466,0.0,0.9761536,0.0,0.0,0.21708116,0.0,0.0,-0.0,1,0,0,0,0,0
60789646,0.0,0.0,0.4376073,0.0,0.9761578,0.0,0.0,0.21706195,0.0,0.0,-0.0,1,0,0,0,0,0
60809636,0.0,0.0,0.437585,0.0,0.9761602,0.0,0.0,0.21705106,0.0,0.0,-0.0,1,0,0,0,0,0
60829639,0.0,0.0,0.43753335,0.0,0.9761659,0.0,0.0,0.21702586,0.0,0.0,-0.0,1,0,0,0,0,0
60849670,0.0,0.0,0.437487,0.0,0.9761709,0.0,0.0,0.21700324,0.0,0.0,-0.0,1,0,0,0,0,0
60869657,0.0,0.0,0.4374222,0.0,0.97617793,0.0,0.0,0.2169716,0.0,0.0,-0.0,1,0,0,0,0,0
60889762,0.0,0.0,0.43737963,0.0,0.9761825,0.0,0.0,0.21695085,0.0,0.0,-0.0,1,0,0,0,0,0
60909697,0.0,0.0,0.4373476,0.0,0.97618604,0.0,0.0,0.21693519,0.0,0.0,-0.0,1,0,0,0,0,0
60929743,0.0,0.0,0.43728122,0.0,0.97619325,0.0,0.0,0.21690279,0.0,0.0,-0.0,1,0,0,0,0,0
60949745,0.0,0.0,0.4372334,0.0,0.97619843,0.0,0.0,0.21687946,0.0,0.0,-0.0,1,0,0,0,0,0
60970300,0.0,0.0,0.43719727,0.0,0.9762023,0.0,0.0,0.21686181,0.0,0.0,-0.0,1,0,0,0,0,0
60989822,0.0,0.0,0.43715984,0.0,0.97620636,0.0,0.0,0.21684353,0.0,0.0,-0.0,1,0,0,0,0,0
61009940,0.0,0.0,0.43711177,0.0,0.9762116,0.0,0.0,0.2168201,0.0,0.0,-0.0,1,0,0,0,0,0
61029935,0.0,0.0,0.43706283,0.0,0.9762169,0.0,0.0,0.21679617,0.0,0.0,-0.0,1,0,0,0,0,0
61049980,0.0,0.0,0.43702725,0.0,0.9762208,0.0,0.0,0.21677881,0.0,0.0,-0.0,1,0,0,0,0,0
61069986,0.0,0.0,0.43700126,0.0,0.9762236,0.0,0.0,0.21676615,0.0,0.0,-0.0,1,0,0,0,0,0
61089986,0.0,0.0,0.4369368,0.0,0.97623056,0.0,0.0,0.2167347,0.0,0.0,-0.0,1,0,0,0,0,0
61109989,0.0,0.0,0.43686384,0.0,0.9762385,0.0,0.0,0.21669911,0.0,0.0,-0.0,1,0,0,0,0,0
61129992,0.0,0.0,0.43680173,0.0,0.97624516,0.0,0.0,0.21666875,0.0,0.0,-0.0,1,0,0,0,0,0
61150114,0.0,0.0,0.436736,0.0,0.9762523,0.0,0.0,0.21663667,0.0,0.0,-0.0,1,0,0,0,0,0
61170429,0.0,0.0,0.43665957,0.0,0.9762606,0.0,0.0,0.21659939,0.0,0.0,-0.0,1,0,0,0,0,0
61190174,0.0,0.0,0.43661767,0.0,0.97626513,0.0,0.0,0.2165789,0.0,0.0,-0.0,1,0,0,0,0,0
61210166,0.0,0.0,0.43656385,0.0,0.976271,0.0,0.0,0.21655266,0.0,0.0,-0.0,1,0,0,0,0,0
61230208,0.0,0.0,0.43650815,0.0,0.976277,0.0,0.0,0.21652548,0.0,0.0,-0.0,1,0,0,0,0,0
61250259,0.0,0.0,0.43646243,0.0,0.97628194,0.0,0.0,0.21650313,0.0,0.0,-0.0,1,0,0,0,0,0
61270270,0.0,0.0,0.43642902,0.0,0.9762855,0.0,0.0,0.21648684,0.0,0.0,-0.0,1,0,0,0,0,0
61290270,0.0,0.0,0.43636814,0.0,0.97629213,0.0,0.0,0.21645711,0.0,0.0,-0.0,1,0,0,0,0,0
61310249,0.0,0.0,0.43630818,0.0,0.97629863,0.0,0.0,0.21642783,0.0,0.0,-0.0,1,0,0,0,0,0
61330314,0.0,0.0,0.4362398,0.0,0.976306,0.0,0.0,0.21639445,0.0,0.0,-0.0,1,0,0,0,0,0
61350285,0.0,0.0,0.43617344,0.0,0.9763132,0.0,0.0,0.21636206,0.0,0.0,-0.0,1,0,0,0,0,0
61370458,0.0,0.0,0.43612614,0.0,0.9763183,0.0,0.0,0.21633898,0.0,0.0,-0.0,1,0,0,0,0,0
61390340,0.0,0.0,0.4360527,0.0,0.9763263,0.0,0.0,0.21630315,0.0,0.0,-0.0,1,0,0,0,0,0
61410343,0.0,0.0,0.43599966,0.0,0.976332,0.0,0.0,0.21627721,0.0,0.0,-0.0,1,0,0,0,0,0
61430354,0.0,0.0,0.43592876,0.0,0.9763397,0.0,0.0,0.21624264,0.0,0.0,-0.0,1,0,0,0,0,0
61450355,0.0,0.0,0.4358645,0.0,0.9763466,0.0,0.0,0.21621124,0.0,0.0,-0.0,1,0,0,0,0,0
61470355,0.0,0.0,0.43579933,0.0,0.9763537,0.0,0.0,0.21617946,0.0,0.0,-0.0,1,0,0,0,0,0
61490368,0.0,0.0,0.43572128,0.0,0.9763621,0.0,0.0,0.21614133,0.0,0.0,-0.0,1,0,0,0,0,0
61510363,0.0,0.0,0.43564624,0.0,0.9763702,0.0,0.0,0.2161047,0.0,0.0,-0.0,1,0,0,0,0,0
61530370,0.0,0.0,0.43559784,0.0,0.9763754,0.0,0.0,0.21608108,0.0,0.0,-0.0,1,0,0,0,0,0
61550399,0.0,0.0,0.4355259,0.0,0.9763832,0.0,0.0,0.21604596,0.0,0.0,-0.0,1,0,0,0,0,0
61570434,0.0,0.0,0.43547964,0.0,0.9763882,0.0,0.0,0.21602336,0.0,0.0,-0.0,1,0,0,0,0,0
61590435,0.0,0.0,0.43540335,0.0,0.97639644,0.0,0.0,0.21598613,0.0,0.0,-0.0,1,0,0,0,0,0
61610426,0.0,0.0,0.4353463,0.0,0.9764026,0.0,0.0,0.21595827,0.0,0.0,-0.0,1,0,0,0,0,0
61630429,0.0,0.0,0.43528697,0.0,0.97640896,0.0,0.0,0.2159293,0.0,0.0,-0.0,1,0,0,0,0,0
61650427,0.0,0.0,0.4352553,0.0,0.9764124,0.0,0.0,0.21591385,0.0,0.0,-0.0,1,0,0,0,0,0
61670438,0.0,0.0,0.43518,0.0,0.9764206,0.0,0.0,0.21587707,0.0,0.0,-0.0,1,0,0,0,0,0
61690473,0.0,0.0,0.43511492,0.0,0.97642756,0.0,0.0,0.21584532,0.0,0.0,-0.0,1,0,0,0,0,0
61710510,0.0,0.0,0.43505022,0.0,0.9764346,0.0,0.0,0.21581374,0.0,0.0,-0.0,1,0,0,0,0,0
61730513,0.0,0.0,0.43500802,0.0,0.9764391,0.0,0.0,0.21579312,0.0,0.0,-0.0,1,0,0,0,0,0
61750548,0.0,0.0,0.43496665,0.0,0.9764436,0.0,0.0,0.21577293,0.0,0.0,-0.0,1,0,0,0,0,0
61770566,0.0,0.0,0.4349284,0.0,0.9764477,0.0,0.0,0.21575421,0.0,0.0,-0.0,1,0,0,0,0,0
61790596,0.0,0.0,0.43488193,0.0,0.9764527,0.0,0.0,0.21573155,0.0,0.0,-0.0,1,0,0,0,0,0
61810614,0.0,0.0,0.4348226,0.0,0.9764591,0.0,0.0,0.21570258,0.0,0.0,-0.0,1,0,0,0,0,0
61830617,0.0,0.0,0.43478227,0.0,0.97646344,0.0,0.0,0.21568291,0.0,0.0,-0.0,1,0,0,0,0,0
61850779,0.0,0.0,0.434735,0.0,0.97646856,0.0,0.0,0.21565984,0.0,0.0,-0.0,1,0,0,0,0,0
61870662,0.0,0.0,0.43468377,0.0,0.9764741,0.0,0.0,0.21563482,0.0,0.0,-0.0,1,0,0,0,0,0
61890812,0.0,0.0,0.43464106,0.0,0.9764787,0.0,0.0,0.21561398,0.0,0.0,-0.0,1,0,0,0,0,0
61910904,0.0,0.0,0.4345976,0.0,0.9764834,0.0,0.0,0.21559273,0.0,0.0,-0.0,1,0,0,0,0,0
61930813,0.0,0.0,0.43454537,0.0,0.976489,0.0,0.0,0.21556723,0.0,0.0,-0.0,1,0,0,0,0,0
61950924,0.0,0.0,0.43447694,0.0,0.9764964,0.0,0.0,0.21553381,0.0,0.0,-0.0,1,0,0,0,0,0
61970916,0.0,0.0,0.43441984,0.0,0.97650254,0.0,0.0,0.21550594,0.0,0.0,-0.0,1,0,0,0,0,0
61990922,0.0,0.0,0.43435943,0.0,0.97650903,0.0,0.0,0.21547645,0.0,0.0,-0.0,1,0,0,0,0,0
62010918,0.0,0.0,0.43431365,0.0,0.976514,0.0,0.0,0.21545412,0.0,0.0,-0.0,1,0,0,0,0,0
62030986,0.0,0.0,0.43424764,0.0,0.97652113,0.0,0.0,0.21542189,0.0,0.0,-0.0,1,0,0,0,0,0
62050954,0.0,0.0,0.43418482,0.0,0.9765278,0.0,0.0,0.2153912,0.0,0.0,-0.0,1,0,0,0,0,0
62070992,0.0,0.0,0.43410072,0.0,0.9765369,0.0,0.0,0.21535014,0.0,0.0,-0.0,1,0,0,0,0,0
62090994,0.0,0.0,0.43403724,0.0,0.9765438,0.0,0.0,0.21531913,0.0,0.0,-0.0,1,0,0,0,0,0
62111025,0.0,0.0,0.4339756,0.0,0.97655034,0.0,0.0,0.21528906,0.0,0.0,-0.0,1,0,0,0,0,0
62131026,0.0,0.0,0.43389815,0.0,0.97655874,0.0,0.0,0.21525125,0.0,0.0,-0.0,1,0,0,0,0,0
62151074,0.0,0.0,0.43383548,0.0,0.9765655,0.0,0.0,0.21522063,0.0,0.0,-0.0,1,0,0,0,0,0
62171074,0.0,0.0,0.43375483,0.0,0.9765741,0.0,0.0,0.21518123,0.0,0.0,-0.0,1,0,0,0,0,0
62191103,0.0,0.0,0.43369332,0.0,0.97658074,0.0,0.0,0.2151512,0.0,0.0,-0.0,1,0,0,0,0,0
62211123,0.0,0.0,0.43362418,0.0,0.9765882,0.0,0.0,0.21511745,0.0,0.0,-0.0,1,0,0,0,0,0
62231121,0.0,0.0,0.43355465,0.0,0.9765957,0.0,0.0,0.21508354,0.0,0.0,-0.0,1,0,0,0,0,0
62251130,0.0,0.0,0.43347466,0.0,0.9766043,0.0,0.0,0.21504444,0.0,0.0,-0.0,1,0,0,0,0,0
62271130,0.0,0.0,0.43342894,0.0,0.9766092,0.0,0.0,0.21502215,0.0,0.0,-0.0,1,0,0,0,0,0
62291143,0.0,0.0,0.43336147,0.0,0.97661644,0.0,0.0,0.21498919,0.0,0.0,-0.0,1,0,0,0,0,0
62311139,0.0,0.0,0.43329266,0.0,0.97662383,0.0,0.0,0.21495555,0.0,0.0,-0.0,1,0,0,0,0,0
62331179,0.0,0.0,0.43322852,0.0,0.97663075,0.0,0.0,0.21492426,0.0,0.0,-0.0,1,0,0,0,0,0
62351185,0.0,0.0,0.43316537,0.0,0.9766375,0.0,0.0,0.21489342,0.0,0.0,-0.0,1,0,0,0,0,0
62371184,0.0,0.0,0.4331219,0.0,0.9766422,0.0,0.0,0.21487218,0.0,0.0,-0.0,1,0,0,0,0,0
62391183,0.0,0.0,0.43307576,0.0,0.97664714,0.0,0.0,0.21484965,0.0,0.0,-0.0,1,0,0,0,0,0
62411214,0.0,0.0,0.4330244,0.0,0.9766526,0.0,0.0,0.21482459,0.0,0.0,-0.0,1,0,0,0,0,0
62431241,0.0,0.0,0.4329834,0.0,0.97665703,0.0,0.0,0.21480455,0.0,0.0,-0.0,1,0,0,0,0,0
62451290,0.0,0.0,0.43292224,0.0,0.97666365,0.0,0.0,0.21477471,0.0,0.0,-0.0,1,0,0,0,0,0
62471358,0.0,0.0,0.43284985,0.0,0.9766714,0.0,0.0,0.21473934,0.0,0.0,-0.0,1,0,0,0,0,0
62491371,0.0,0.0,0.43279797,0.0,0.976677,0.0,0.0,0.214714,0.0,0.0,-0.0,1,0,0,0,0,0
62511360,0.0,0.0,0.4327416,0.0,0.976683,0.0,0.0,0.21468648,0.0,0.0,-0.0,1,0,0,0,0,0
62531351,0.0,0.0,0.43269357,0.0,0.97668815,0.0,0.0,0.21466303,0.0,0.0,-0.0,1,0,0,0,0,0
62551399,0.0,0.0,0.432645,0.0,0.9766934,0.0,0.0,0.2146393,0.0,0.0,-0.0,1,0,0,0,0,0
62571404,0.0,0.0,0.43260723,0.0,0.97669744,0.0,0.0,0.21462086,0.0,0.0,-0.0,1,0,0,0,0,0
62591400,0.0,0.0,0.43257084,0.0,0.9767013,0.0,0.0,0.2146031,0.0,0.0,-0.0,1,0,0,0,0,0
62611402,0.0,0.0,0.43252662,0.0,0.9767061,0.0,0.0,0.21458149,0.0,0.0,-0.0,1,0,0,0,0,0
62631421,0.0,0.0,0.4324593,0.0,0.97671336,0.0,0.0,0.21454863,0.0,0.0,-0.0,1,0,0,0,0,0
62651450,0.0,0.0,0.4324134,0.0,0.97671825,0.0,0.0,0.21452619,0.0,0.0,-0.0,1,0,0,0,0,0
62671453,0.0,0.0,0.4323772,0.0,0.9767221,0.0,0.0,0.2145085,0.0,0.0,-0.0,1,0,0,0,0,0
62691560,0.0,0.0,0.43232796,0.0,0.9767274,0.0,0.0,0.21448445,0.0,0.0,-0.0,1,0,0,0,0,0
62711575,0.0,0.0,0.4322821,0.0,0.9767324,0.0,0.0,0.21446206,0.0,0.0,-0.0,1,0,0,0,0,0
62731606,0.0,0.0,0.43221566,0.0,0.9767394,0.0,0.0,0.21442963,0.0,0.0,-0.0,1,0,0,0,0,0
62751939,0.0,0.0,0.43215,0.0,0.9767465,0.0,0.0,0.21439753,0.0,0.0,-0.0,1,0,0,0,0,0
62771998,0.0,0.0,0.43210727,0.0,0.9767511,0.0,0.0,0.21437667,0.0,0.0,-0.0,1,0,0,0,0,0
62792014,0.0,0.0,0.43207544,0.0,0.9767545,0.0,0.0,0.21436116,0.0,0.0,-0.0,1,0,0,0,0,0
62812054,0.0,0.0,0.4320251,0.0,0.97675985,0.0,0.0,0.21433657,0.0,0.0,-0.0,1,0,0,0,0,0
62832036,0.0,0.0,0.43198705,0.0,0.97676396,0.0,0.0,0.214318,0.0,0.0,-0.0,1,0,0,0,0,0
62852019,0.0,0.0,0.43192026,0.0,0.9767711,0.0,0.0,0.21428539,0.0,0.0,-0.0,1,0,0,0,0,0
62872049,0.0,0.0,0.43186972,0.0,0.97677654,0.0,0.0,0.21426068,0.0,0.0,-0.0,1,0,0,0,0,0
62892050,0.0,0.0,0.4318089,0.0,0.97678304,0.0,0.0,0.21423098,0.0,0.0,-0.0,1,0,0,0,0,0
62912131,0.0,0.0,0.43172532,0.0,0.976792,0.0,0.0,0.21419016,0.0,0.0,-0.0,1,0,0,0,0,0
62932125,0.0,0.0,0.4316703,0.0,0.9767979,0.0,0.0,0.21416329,0.0,0.0,-0.0,1,0,0,0,0,0
62952138,0.0,0.0,0.4316055,0.0,0.97680485,0.0,0.0,0.21413164,0.0,0.0,-0.0,1,0,0,0,0,0
62972121,0.0,0.0,0.43154988,0.0,0.97681075,0.0,0.0,0.21410444,0.0,0.0,-0.0,1,0,0,0,0,0
62992243,0.0,0.0,0.43149316,0.0,0.97681683,0.0,0.0,0.2140768,0.0,0.0,-0.0,1,0,0,0,0,0
63012205,0.0,0.0,0.43144146,0.0,0.97682244,0.0,0.0,0.21405153,0.0,0.0,-0.0,1,0,0,0,0,0
63032216,0.0,0.0,0.43139818,0.0,0.97682697,0.0,0.0,0.21403039,0.0,0.0,-0.0,1,0,0,0,0,0
63052177,0.0,0.0,0.4313446,0.0,0.97683275,0.0,0.0,0.21400419,0.0,0.0,-0.0,1,0,0,0,0,0
63072192,0.0,0.0,0.4313109,0.0,0.9768364,0.0,0.0,0.21398775,0.0,0.0,-0.0,1,0,0,0,0,0
63092226,0.0,0.0,0.4312755,0.0,0.97684014,0.0,0.0,0.21397044,0.0,0.0,-0.0,1,0,0,0,0,0
63112200,0.0,0.0,0.43123785,0.0,0.9768442,0.0,0.0,0.2139521,0.0,0.0,-0.0,1,0,0,0,0,0
63132201,0.0,0.0,0.43119836,0.0,0.9768484,0.0,0.0,0.21393277,0.0,0.0,-0.0,1,0,0,0,0,0
63152205,0.0,0.0,0.43117353,0.0,0.97685105,0.0,0.0,0.21392067,0.0,0.0,-0.0,1,0,0,0,0,0
63172211,0.0,0.0,0.43115497,0.0,0.9768531,0.0,0.0,0.21391156,0.0,0.0,-0.0,1,0,0,0,0,0
63192196,0.0,0.0,0.43109682,0.0,0.9768593,0.0,0.0,0.21388318,0.0,0.0,-0.0,1,0,0,0,0,0
63212184,0.0,0.0,0.43106243,0.0,0.9768629,0.0,0.0,0.21386641,0.0,0.0,-0.0,1,0,0,0,0,0
63232162,0.0,0.0,0.4310111,0.0,0.97686845,0.0,0.0,0.2138413,0.0,0.0,-0.0,1,0,0,0,0,0
63252168,0.0,0.0,0.43094727,0.0,0.97687525,0.0,0.0,0.21381015,0.0,0.0,-0.0,1,0,0,0,0,0
63272163,0.0,0.0,0.43090105,0.0,0.9768802,0.0,0.0,0.21378756,0.0,0.0,-0.0,1,0,0,0,0,0
63292176,0.0,0.0,0.4308686,0.0,0.97688365,0.0,0.0,0.21377172,0.0,0.0,-0.0,1,0,0,0,0,0
63312180,0.0,0.0,0.4308179,0.0,0.9768891,0.0,0.0,0.21374694,0.0,0.0,-0.0,1,0,0,0,0,0
63332170,0.0,0.0,0.43076742,0.0,0.9768945,0.0,0.0,0.2137223,0.0,0.0,-0.0,1,0,0,0,0,0
63352259,0.0,0.0,0.43069014,0.0,0.9769027,0.0,0.0,0.21368454,0.0,0.0,-0.0,1,0,0,0,0,0
63372318,0.0,0.0,0.43064022,0.0,0.976908,0.0,0.0,0.21366015,0.0,0.0,-0.0,1,0,0,0,0,0
63392314,0.0,0.0,0.43055677,0.0,0.97691697,0.0,0.0,0.21361943,0.0,0.0,-0.0,1,0,0,0,0,0
63412330,0.0,0.0,0.43050417,0.0,0.97692263,0.0,0.0,0.21359369,0.0,0.0,-0.0,1,0,0,0,0,0
63432340,0.0,0.0,0.43046415,0.0,0.97692686,0.0,0.0,0.21357419,0.0,0.0,-0.0,1,0,0,0,0,0
63452322,0.0,0.0,0.43041834,0.0,0.97693175,0.0,0.0,0.21355177,0.0,0.0,-0.0,1,0,0,0,0,0
63472326,0.0,0.0,0.43037105,0.0,0.9769368,0.0,0.0,0.21352866,0.0,0.0,-0.0,1,0,0,0,0,0
63492366,0.0,0.0,0.43033403,0.0,0.9769408,0.0,0.0,0.2135106,0.0,0.0,-0.0,1,0,0,0,0,0
63512398,0.0,0.0,0.4303031,0.0,0.976944,0.0,0.0,0.2134955,0.0,0.0,-0.0,1,0,0,0,0,0
63532542,0.0,0.0,0.43023497,0.0,0.97695136,0.0,0.0,0.21346219,0.0,0.0,-0.0,1,0,0,0,0,0
63553346,0.0,0.0,0.43018785,0.0,0.97695637,0.0,0.0,0.2134392,0.0,0.0,-0.0,1,0,0,0,0,0
63572645,0.0,0.0,0.43013674,0.0,0.97696185,0.0,0.0,0.21341424,0.0,0.0,-0.0,1,0,0,0,0,0
63593508,0.0,0.0,0.4301067,0.0,0.976965,0.0,0.0,0.21339956,0.0,0.0,-0.0,1,0,0,0,0,0
63612677,0.0,0.0,0.43005854,0.0,0.97697014,0.0,0.0,0.21337602,0.0,0.0,-0.0,1,0,0,0,0,0
63633350,0.0,0.0,0.4300502,0.0,0.97697103,0.0,0.0,0.21337196,0.0,0.0,-0.0,1,0,0,0,0,0
63652645,0.0,0.0,0.43003005,0.0,0.97697324,0.0,0.0,0.21336211,0.0,0.0,-0.0,1,0,0,0,0,0
63673052,0.0,0.0,0.43000913,0.0,0.97697544,0.0,0.0,0.21335188,0.0,0.0,-0.0,1,0,0,0,0,0
63692679,0.0,0.0,0.4299887,0.0,0.9769776,0.0,0.0,0.21334192,0.0,0.0,-0.0,1,0,0,0,0,0
63713522,0.0,0.0,0.42997345,0.0,0.9769792,0.0,0.0,0.21333447,0.0,0.0,-0.0,1,0,0,0,0,0
63732718,0.0,0.0,0.42994976,0.0,0.97698176,0.0,0.0,0.21332288,0.0,0.0,-0.0,1,0,0,0,0,0
63753436,0.0,0.0,0.42993772,0.0,0.9769831,0.0,0.0,0.21331702,0.0,0.0,-0.0,1,0,0,0,0,0
63772737,0.0,0.0,0.4299252,0.0,0.9769844,0.0,0.0,0.21331088,0.0,0.0,-0.0,1,0,0,0,0,0
63793051,0.0,0.0,0.42988884,0.0,0.97698826,0.0,0.0,0.21329312,0.0,0.0,-0.0,1,0,0,0,0,0
63812755,0.0,0.0,0.42988744,0.0,0.97698843,0.0,0.0,0.21329248,0.0,0.0,-0.0,1,0,0,0,0,0
63833018,0.0,0.0,0.429857,0.0,0.97699165,0.0,0.0,0.21327756,0.0,0.0,-0.0,1,0,0,0,0,0
63852763,0.0,0.0,0.42983282,0.0,0.9769942,0.0,0.0,0.2132658,0.0,0.0,-0.0,1,0,0,0,0,0
63873356,0.0,0.0,0.42979017,0.0,0.97699875,0.0,0.0,0.21324493,0.0,0.0,-0.0,1,0,0,0,0,0
63892815,0.0,0.0,0.42977887,0.0,0.97699994,0.0,0.0,0.21323942,0.0,0.0,-0.0,1,0,0,0,0,0
63913565,0.0,0.0,0.4297437,0.0,0.97700375,0.0,0.0,0.21322227,0.0,0.0,-0.0,1,0,0,0,0,0
63932815,0.0,0.0,0.42971843,0.0,0.97700644,0.0,0.0,0.2132099,0.0,0.0,-0.0,1,0,0,0,0,0
63953406,0.0,0.0,0.4296593,0.0,0.97701275,0.0,0.0,0.21318102,0.0,0.0,-0.0,1,0,0,0,0,0
63972861,0.0,0.0,0.42960274,0.0,0.9770188,0.0,0.0,0.21315336,0.0,0.0,-0.0,1,0,0,0,0,0
63993453,0.0,0.0,0.42955375,0.0,0.97702396,0.0,0.0,0.21312943,0.0,0.0,-0.0,1,0,0,0,0,0
64012847,0.0,0.0,0.4295338,0.0,0.9770261,0.0,0.0,0.2131197,0.0,0.0,-0.0,1,0,0,0,0,0
64033445,0.0,0.0,0.42951143,0.0,0.9770285,0.0,0.0,0.2131088,0.0,0.0,-0.0,1,0,0,0,0,0
64052888,0.0,0.0,0.42948288,0.0,0.9770316,0.0,0.0,0.21309482,0.0,0.0,-0.0,1,0,0,0,0,0
64073330,0.0,0.0,0.42945197,0.0,0.97703487,0.0,0.0,0.21307974,0.0,0.0,-0.0,1,0,0,0,0,0
64092903,0.0,0.0,0.42943946,0.0,0.9770362,0.0,0.0,0.21307361,0.0,0.0,-0.0,1,0,0,0,0,0
64113036,0.0,0.0,0.42943656,0.0,0.9770365,0.0,0.0,0.2130722,0.0,0.0,-0.0,1,0,0,0,0,0
64132927,0.0,0.0,0.42942584,0.0,0.9770376,0.0,0.0,0.21306697,0.0,0.0,-0.0,1,0,0,0,0,0
64153570,0.0,0.0,0.42942154,0.0,0.9770381,0.0,0.0,0.21306483,0.0,0.0,-0.0,1,0,0,0,0,0
64172968,0.0,0.0,0.4293963,0.0,0.97704077,0.0,0.0,0.21305253,0.0,0.0,-0.0,1,0,0,0,0,0
64193170,0.0,0.0,0.4293601,0.0,0.97704464,0.0,0.0,0.21303482,0.0,0.0,-0.0,1,0,0,0,0,0
64213006,0.0,0.0,0.4293574,0.0,0.97704494,0.0,0.0,0.21303353,0.0,0.0,-0.0,1,0,0,0,0,0
64233569,0.0,0.0,0.42934278,0.0,0.97704643,0.0,0.0,0.21302637,0.0,0.0,-0.0,1,0,0,0,0,0
64253039,0.0,0.0,0.42934093,0.0,0.9770466,0.0,0.0,0.21302547,0.0,0.0,-0.0,1,0,0,0,0,0
64273333,0.0,0.0,0.42933917,0.0,0.9770468,0.0,0.0,0.21302463,0.0,0.0,-0.0,1,0,0,0,0,0
64293368,0.0,0.0,0.429334,0.0,0.9770474,0.0,0.0,0.2130221,0.0,0.0,-0.0,1,0,0,0,0,0
64313397,0.0,0.0,0.42934543,0.0,0.9770462,0.0,0.0,0.21302767,0.0,0.0,-0.0,1,0,0,0,0,0
64333214,0.0,0.0,0.429325,0.0,0.97704834,0.0,0.0,0.21301769,0.0,0.0,-0.0,1,0,0,0,0,0
64353213,0.0,0.0,0.42929852,0.0,0.9770512,0.0,0.0,0.21300475,0.0,0.0,-0.0,1,0,0,0,0,0
64373212,0.0,0.0,0.42928535,0.0,0.97705257,0.0,0.0,0.21299832,0.0,0.0,-0.0,1,0,0,0,0,0
64393314,0.0,0.0,0.42927873,0.0,0.9770533,0.0,0.0,0.21299508,0.0,0.0,-0.0,1,0,0,0,0,0
64413363,0.0,0.0,0.42926,0.0,0.97705525,0.0,0.0,0.21298592,0.0,0.0,-0.0,1,0,0,0,0,0
64433548,0.0,0.0,0.4292589,0.0,0.9770554,0.0,0.0,0.2129854,0.0,0.0,-0.0,1,0,0,0,0,0
64453399,0.0,0.0,0.42923892,0.0,0.9770575,0.0,0.0,0.21297564,0.0,0.0,-0.0,1,0,0,0,0,0
64473543,0.0,0.0,0.42921543,0.0,0.9770601,0.0,0.0,0.21296416,0.0,0.0,-0.0,1,0,0,0,0,0
64493434,0.0,0.0,0.42916805,0.0,0.977065,0.0,0.0,0.21294104,0.0,0.0,-0.0,1,0,0,0,0,0
64513441,0.0,0.0,0.42914134,0.0,0.97706795,0.0,0.0,0.21292795,0.0,0.0,-0.0,1,0,0,0,0,0
64533504,0.0,0.0,0.42912096,0.0,0.97707003,0.0,0.0,0.21291803,0.0,0.0,-0.0,1,0,0,0,0,0
64553490,0.0,0.0,0.4290844,0.0,0.97707397,0.0,0.0,0.21290013,0.0,0.0,-0.0,1,0,0,0,0,0
64573528,0.0,0.0,0.42906812,0.0,0.9770757,0.0,0.0,0.2128922,0.0,0.0,-0.0,1,0,0,0,0,0
64593532,0.0,0.0,0.42905214,0.0,0.97707736,0.0,0.0,0.21288438,0.0,0.0,-0.0,1,0,0,0,0,0
64613542,0.0,0.0,0.42902267,0.0,0.9770805,0.0,0.0,0.21287002,0.0,0.0,-0.0,1,0,0,0,0,0
64633556,0.0,0.0,0.4290103,0.0,0.9770819,0.0,0.0,0.21286395,0.0,0.0,-0.0,1,0,0,0,0,0
64653564,0.0,0.0,0.4289991,0.0,0.977083,0.0,0.0,0.21285847,0.0,0.0,-0.0,1,0,0,0,0,0
64673556,0.0,0.0,0.42901942,0.0,0.97708094,0.0,0.0,0.21286842,0.0,0.0,-0.0,1,0,0,0,0,0
64693576,0.0,0.0,0.4290247,0.0,0.9770803,0.0,0.0,0.212871,0.0,0.0,-0.0,1,0,0,0,0,0
64713635,0.0,0.0,0.4290073,0.0,0.9770822,0.0,0.0,0.21286248,0.0,0.0,-0.0,1,0,0,0,0,0
64733566,0.0,0.0,0.42899764,0.0,0.9770832,0.0,0.0,0.21285775,0.0,0.0,-0.0,1,0,0,0,0,0
64753571,0.0,0.0,0.42898035,0.0,0.97708505,0.0,0.0,0.21284932,0.0,0.0,-0.0,1,0,0,0,0,0
64773583,0.0,0.0,0.42897293,0.0,0.9770858,0.0,0.0,0.21284568,0.0,0.0,-0.0,1,0,0,0,0,0
64793597,0.0,0.0,0.42893088,0.0,0.9770903,0.0,0.0,0.21282516,0.0,0.0,-0.0,1,0,0,0,0,0
64813593,0.0,0.0,0.4289068,0.0,0.97709286,0.0,0.0,0.2128134,0.0,0.0,-0.0,1,0,0,0,0,0
64833633,0.0,0.0,0.42889196,0.0,0.9770945,0.0,0.0,0.21280612,0.0,0.0,-0.0,1,0,0,0,0,0
64853661,0.0,0.0,0.42887622,0.0,0.9770961,0.0,0.0,0.21279846,0.0,0.0,-0.0,1,0,0,0,0,0
64873704,0.0,0.0,0.42886114,0.0,0.97709775,0.0,0.0,0.21279107,0.0,0.0,-0.0,1,0,0,0,0,0
64893728,0.0,0.0,0.42884284,0.0,0.97709966,0.0,0.0,0.21278213,0.0,0.0,-0.0,1,0,0,0,0,0
64913733,0.0,0.0,0.42884058,0.0,0.97709996,0.0,0.0,0.21278106,0.0,0.0,-0.0,1,0,0,0,0,0
64933730,0.0,0.0,0.4288295,0.0,0.9771011,0.0,0.0,0.21277562,0.0,0.0,-0.0,1,0,0,0,0,0
64953830,0.0,0.0,0.42883548,0.0,0.97710043,0.0,0.0,0.21277854,0.0,0.0,-0.0,1,0,0,0,0,0
64973783,0.0,0.0,0.4288331,0.0,0.97710073,0.0,0.0,0.21277738,0.0,0.0,-0.0,1,0,0,0,0,0
64993793,0.0,0.0,0.4288259,0.0,0.97710145,0.0,0.0,0.21277387,0.0,0.0,-0.0,1,0,0,0,0,0
65013809,0.0,0.0,0.42881143,0.0,0.97710305,0.0,0.0,0.2127668,0.0,0.0,-0.0,1,0,0,0,0,0
65033818,0.0,0.0,0.42879152,0.0,0.97710514,0.0,0.0,0.21275705,0.0,0.0,-0.0,1,0,0,0,0,0
65053850,0.0,0.0,0.42880875,0.0,0.9771033,0.0,0.0,0.21276547,0.0,0.0,-0.0,1,0,0,0,0,0
65073923,0.0,0.0,0.42881495,0.0,0.97710264,0.0,0.0,0.2127685,0.0,0.0,-0.0,1,0,0,0,0,0
65093950,0.0,0.0,0.42880493,0.0,0.9771037,0.0,0.0,0.21276362,0.0,0.0,-0.0,1,0,0,0,0,0
65114115,0.0,0.0,0.42879874,0.0,0.97710437,0.0,0.0,0.2127606,0.0,0.0,-0.0,1,0,0,0,0,0
65134155,0.0,0.0,0.42878297,0.0,0.97710603,0.0,0.0,0.21275291,0.0,0.0,-0.0,1,0,0,0,0,0
65154240,0.0,0.0,0.4287984,0.0,0.9771044,0.0,0.0,0.21276043,0.0,0.0,-0.0,1,0,0,0,0,0
65174047,0.0,0.0,0.4288198,0.0,0.9771021,0.0,0.0,0.2127709,0.0,0.0,-0.0,1,0,0,0,0,0
65194157,0.0,0.0,0.42883885,0.0,0.9771001,0.0,0.0,0.2127802,0.0,0.0,-0.0,1,0,0,0,0,0
65214160,0.0,0.0,0.4288626,0.0,0.9770976,0.0,0.0,0.2127918,0.0,0.0,-0.0,1,0,0,0,0,0
65234153,0.0,0.0,0.4288615,0.0,0.9770977,0.0,0.0,0.2127913,0.0,0.0,-0.0,1,0,0,0,0,0
65254178,0.0,0.0,0.42886353,0.0,0.97709745,0.0,0.0,0.21279226,0.0,0.0,-0.0,1,0,0,0,0,0
65274170,0.0,0.0,0.42885736,0.0,0.97709817,0.0,0.0,0.21278924,0.0,0.0,-0.0,1,0,0,0,0,0
65294232,0.0,0.0,0.42885134,0.0,0.97709876,0.0,0.0,0.21278629,0.0,0.0,-0.0,1,0,0,0,0,0
65314272,0.0,0.0,0.42885715,0.0,0.97709817,0.0,0.0,0.2127891,0.0,0.0,-0.0,1,0,0,0,0,0
65334331,0.0,0.0,0.42883584,0.0,0.97710043,0.0,0.0,0.21277873,0.0,0.0,-0.0,1,0,0,0,0,0
65354300,0.0,0.0,0.42882326,0.0,0.97710174,0.0,0.0,0.21277258,0.0,0.0,-0.0,1,0,0,0,0,0
65374306,0.0,0.0,0.42880997,0.0,0.9771032,0.0,0.0,0.21276605,0.0,0.0,-0.0,1,0,0,0,0,0
