timestamp,ref_timestamp,ref_lat,ref_lon,x,y,z,delta_xy[0],delta_xy[1],delta_z,vx,vy,vz,z_deriv,delta_vxy[0],delta_vxy[1],delta_vz,ax,ay,az,heading,delta_heading,ref_alt,dist_bottom,eph,epv,evh,evv,vxy_max,vz_max,hagl_min,hagl_max,xy_valid,z_valid,v_xy_valid,v_z_valid,xy_reset_counter,z_reset_counter,vxy_reset_counter,vz_reset_counter,heading_reset_counter,xy_global,z_global,dist_bottom_valid
65728849,15448849,49.0896588,2.1104546,-0.63633883,-4.7181664,-0.050403412,0.0018455337,0.0027404597,0.0,0.029719511,0.006043737,0.02906649,0.0042660283,0.029180843,-0.008581807,0.052221604,0.015944807,0.028028702,-0.027021956,0.5781419,0.00507739,86.623116,0.1,0.22854751,0.3909037,0.1245976,0.10504599,inf,inf,inf,inf,1,1,1,1,2,0,2,1,3,1,1,1
65828849,15448849,49.0896588,2.1104546,-0.63822025,-4.718599,-0.051982015,0.0018455337,0.0027404597,0.0,0.027612694,0.006902852,0.028803136,0.0021517028,0.029180843,-0.008581807,0.052221604,-0.005772556,0.030728834,0.027685104,0.57820123,0.00507739,86.623116,0.1,0.23719552,0.39271423,0.12908988,0.10648413,inf,inf,inf,inf,1,1,1,1,2,0,2,1,3,1,1,1
65928852,15448849,49.0896588,2.1104546,-0.63953125,-4.7188373,-0.054789323,0.0018455337,0.0027404597,0.0,0.025721667,0.007944792,0.028110385,-0.0013657993,0.029180843,-0.008581807,0.052221604,0.007598065,0.016712327,-0.005907167,0.57817525,0.00507739,86.623116,0.1,0.22859567,0.390156,0.12456962,0.104960516,inf,inf,inf,inf,1,1,1,1,2,0,2,1,3,1,1,1
66028861,15448849,49.0896588,2.1104546,-0.6409821,-4.7190404,-0.058809288,0.0018455337,0.0027404597,0.0,0.024312519,0.00872729,0.026944079,-0.0061027603,0.029180843,-0.008581807,0.052221604,0.02368562,0.01706564,-0.0008720363,0.5780564,0.00507739,86.623116,0.1,0.23723844,0.39195645,0.12906022,0.106395565,inf,inf,inf,inf,1,1,1,1,2,0,2,1,3,1,1,1
66128849,15448849,49.0896588,2.1104546,-0.6417179,-4.7188487,-0.063439496,0.0018455337,0.0027404597,0.0,0.022873314,0.00968118,0.024318269,-0.012332469,0.029180843,-0.008581807,0.052221604,0.026725588,0.020119714,0.024188865,0.5778743,0.00507739,86.623116,0.1,0.22863247,0.38941363,0.12454663,0.10487609,inf,inf,inf,inf,1,1,1,1,2,0,2,1,3,1,1,1
66228849,15448849,49.0896588,2.1104546,-0.6421392,-4.718288,-0.06969483,0.0018455337,0.0027404597,0.0,0.022833996,0.009611451,0.022756265,-0.01838501,0.029180843,-0.008581807,0.052221604,-0.009118428,-0.025155907,-0.0052430346,0.57779604,0.00507739,86.623116,0.1,0.23727034,0.39120397,0.12903848,0.10630806,inf,inf,inf,inf,1,1,1,1,2,0,2,1,3,1,1,1
66328849,15448849,49.0896588,2.1104546,-0.6424968,-4.7175956,-0.07541403,0.0018455337,0.0027404597,0.0,0.021966506,0.010440672,0.020553242,-0.023869488,0.029180843,-0.008581807,0.052221604,-0.0019893614,0.013247464,0.026949305,0.5778324,0.00507739,86.623116,0.1,0.22870377,0.39110345,0.12454359,0.105053745,inf,inf,inf,inf,1,1,1,1,2,0,2,1,3,1,1,1
66428849,15448849,49.0896588,2.1104546,-0.6436263,-4.7167645,-0.080906525,0.0018455337,0.0027404597,0.0,0.021468708,0.011114654,0.019691113,-0.027291328,0.029180843,-0.008581807,0.052221604,-0.004763205,0.006351621,0.0037966263,0.57792693,0.00507739,86.623116,0.1,0.23733887,0.39291757,0.12903145,0.10649284,inf,inf,inf,inf,1,1,1,1,2,0,2,1,3,1,1,1
66528849,15448849,49.0896588,2.1104546,-0.64379746,-4.7156115,-0.08544105,0.0018455337,0.0027404597,0.0,0.020981923,0.012286601,0.017818017,-0.030305268,0.029180843,-0.008581807,0.052221604,0.00032925772,0.001657565,0.019946914,0.5780375,0.00507739,86.623116,0.1,0.22876164,0.3903653,0.12453252,0.10497164,inf,inf,inf,inf,1,1,1,1,2,0,2,1,3,1,1,1
66628858,15448849,49.0896588,2.1104546,-0.64319444,-4.713924,-0.088570654,0.0018455337,0.0027404597,0.0,0.020867022,0.0143686095,0.017057074,-0.03063081,0.029180843,-0.008581807,0.052221604,0.0048492053,0.0063982406,-0.0038021812,0.578187,0.00507739,86.623116,0.1,0.23739365,0.39217776,0.12902261,0.1064099,inf,inf,inf,inf,1,1,1,1,2,0,2,1,3,1,1,1
66728849,15448849,49.0896588,2.1104546,-0.64261365,-4.712936,-0.0912383,0.0018455337,0.0027404597,0.0,0.020825973,0.014420927,0.01665549,-0.030168502,0.029180843,-0.008581807,0.052221604,-0.0017984661,-0.00053578196,-0.00027073018,0.5782382,0.00507739,86.623116,0.1,0.22880782,0.38963974,0.12452932,0.10489235,inf,inf,inf,inf,1,1,1,1,2,0,2,1,3,1,1,1
67828849,15448849,49.0896588,2.1104546,-0.64774656,-4.718923,-0.09455241,0.0018455337,0.0027404597,0.0,0.013157683,0.009043609,0.01941658,-0.011384083,0.029180843,-0.008581807,0.052221604,0.012019054,0.0018668302,0.00045821746,0.57817817,0.00507739,86.623116,0.1,0.23746714,0.39268976,0.12902531,0.10646513,inf,inf,inf,inf,1,1,1,1,2,0,2,1,3,1,1,1
67928850,15448849,49.0896588,2.1104546,-0.64906245,-4.7186937,-0.0974228,0.0018455337,0.0027404597,0.0,0.012050426,0.009524102,0.019592563,-0.013025501,0.029180843,-0.008581807,0.052221604,-0.008803896,0.02322423,0.002077286,0.5782912,0.00507739,86.623116,0.1,0.22882715,0.39013287,0.124527,0.10494266,inf,inf,inf,inf,1,1,1,1,2,0,2,1,3,1,1,1
68028849,15448849,49.0896588,2.1104546,-0.6508744,-4.7184258,-0.10364001,0.0018455337,0.0027404597,0.0,0.010722007,0.009952991,0.018333519,-0.019022707,0.029180843,-0.008581807,0.052221604,-0.006898934,0.0031491385,0.019494254,0.57834506,0.00507739,86.623116,0.1,0.23744309,0.39193437,0.12901975,0.10637726,inf,inf,inf,inf,1,1,1,1,2,0,2,1,3,1,1,1
68128849,15448849,49.0896588,2.1104546,-0.6523584,-4.7177935,-0.1095887,0.0018455337,0.0027404597,0.0,0.009690102,0.009765555,0.016189806,-0.0249419,0.029180843,-0.008581807,0.052221604,-0.010317063,0.0025572681,-0.03139619,0.57841164,0.00507739,86.623116,0.1,0.22880743,0.3893928,0.12452136,0.10485894,inf,inf,inf,inf,1,1,1,1,2,0,2,1,3,1,1,1
68228852,15448849,49.0896588,2.1104546,-0.6541304,-4.7167225,-0.11530742,0.0018455337,0.0027404597,0.0,0.008694511,0.009986513,0.014672296,-0.029302608,0.029180843,-0.008581807,0.052221604,0.007618853,0.004737506,-0.018965347,0.5783582,0.00507739,86.623116,0.1,0.23742099,0.39117566,0.12900995,0.1062883,inf,inf,inf,inf,1,1,1,1,2,0,2,1,3,1,1,1
68328849,15448849,49.0896588,2.1104546,-0.6557119,-4.7157464,-0.11898025,0.0018455337,0.0027404597,0.0,0.0076280897,0.010071265,0.013434903,-0.030869406,0.029180843,-0.008581807,0.052221604,0.0036178376,0.0014805924,0.03651138,0.57833445,0.00507739,86.623116,0.1,0.22878914,0.39107618,0.12451924,0.10503535,inf,inf,inf,inf,1,1,1,1,2,0,2,1,3,1,1,1
68428849,15448849,49.0896588,2.1104546,-0.6577964,-4.7150054,-0.12169495,0.0018455337,0.0027404597,0.0,0.0066957874,0.009796296,0.012981049,-0.030615887,0.029180843,-0.008581807,0.052221604,0.014599305,-0.0006908122,-0.0063346727,0.5784349,0.00507739,86.623116,0.1,0.23740096,0.39289108,0.12901263,0.106474146,inf,inf,inf,inf,1,1,1,1,2,0,2,1,3,1,1,1
68528852,15448849,49.0896588,2.1104546,-0.6593399,-4.7144723,-0.12456882,0.0018455337,0.0027404597,0.0,0.0058080605,0.010682246,0.013244499,-0.029841295,0.029180843,-0.008581807,0.052221604,0.0081343595,0.002248784,-0.02203917,0.5785272,0.00507739,86.623116,0.101174496,0.22877273,0.39034027,0.12452158,0.10495425,inf,inf,inf,inf,1,1,1,1,2,0,2,1,3,1,1,1
68628849,15448849,49.0896588,2.1104546,-0.660764,-4.7144957,-0.12619327,0.0018455337,0.0027404597,0.0,0.0046016406,0.010087385,0.012625561,-0.02883272,0.029180843,-0.008581807,0.052221604,0.0039763525,-0.02326846,0.016149689,0.5785297,0.00507739,86.623116,0.1008782,0.23738323,0.3921533,0.1290088,0.10639226,inf,inf,inf,inf,1,1,1,1,2,0,2,1,3,1,1,1
68728849,15448849,49.0896588,2.1104546,-0.662222,-4.7137437,-0.12794268,0.0018455337,0.0027404597,0.0,0.0037093249,0.009990555,0.012723714,-0.02748632,0.029180843,-0.008581807,0.052221604,0.008828212,0.018031824,0.0044381213,0.5785988,0.00507739,86.623116,0.1,0.22885704,0.3896153,0.12460726,0.104887396,inf,inf,inf,inf,1,1,1,1,2,0,2,1,3,1,1,1
68828849,15448849,49.0896588,2.1104546,-0.6639448,-4.7121487,-0.13049178,0.0018455337,0.0027404597,0.0,0.0032180937,0.01040438,0.011764949,-0.028058097,0.029180843,-0.008581807,0.052221604,0.0066321227,-0.003374066,0.007884015,0.57862425,0.00507739,86.623116,0.1,0.23747702,0.39139387,0.12910084,0.106315784,inf,inf,inf,inf,1,1,1,1,2,0,2,1,3,1,1,1
68928899,15448849,49.0896588,2.1104546,-0.6651846,-4.7111416,-0.13420135,0.0018455337,0.0027404597,0.0,0.0034468512,0.010823776,0.012304881,-0.028264092,0.029180843,-0.008581807,0.052221604,0.008483921,0.006808428,0.03694356,0.5786899,0.00507739,86.623116,0.1,0.2289343,0.39129376,0.12468279,0.10507392,inf,inf,inf,inf,1,1,1,1,2,0,2,1,3,1,1,1
69028849,15448849,49.0896588,2.1104546,-0.66612166,-4.7107296,-0.13823567,0.0018455337,0.0027404597,0.0,0.0034790188,0.010921493,0.01131007,-0.03018135,0.029180843,-0.008581807,0.052221604,0.014304874,-0.0077959825,0.0021507933,0.5787966,0.00507739,86.623116,0.1,0.23756254,0.39310503,0.12917714,0.10651201,inf,inf,inf,inf,1,1,1,1,2,0,2,1,3,1,1,1
69128849,15448849,49.0896588,2.1104546,-0.66669744,-4.7106104,-0.14219117,0.0018455337,0.0027404597,0.0,0.003011532,0.010718862,0.010668129,-0.03147403,0.029180843,-0.008581807,0.052221604,-0.009920406,0.01699301,0.008086671,0.5788419,0.00507739,86.623116,0.1,0.22900482,0.39054155,0.12474213,0.104999915,inf,inf,inf,inf,1,1,1,1,2,0,2,1,3,1,1,1
69228849,15448849,49.0896588,2.1104546,-0.6670892,-4.710875,-0.14613542,0.0018455337,0.0027404597,0.0,0.0027069799,0.010115637,0.009310376,-0.033305507,0.029180843,-0.008581807,0.052221604,0.00044568797,-0.0054136585,0.005586256,0.57877904,0.00507739,86.623116,0.1,0.23763995,0.3923433,0.12923667,0.10643518,inf,inf,inf,inf,1,1,1,1,2,0,2,1,3,1,1,1
69328849,15448849,49.0896588,2.1104546,-0.66677463,-4.7105794,-0.15034355,0.0018455337,0.0027404597,0.0,0.0031749932,0.010471448,0.009013144,-0.034210812,0.029180843,-0.008581807,0.052221604,0.002814251,0.010246255,0.021106703,0.57873946,0.00507739,86.623116,0.1,0.22896923,0.3897884,0.12470413,0.10491287,inf,inf,inf,inf,1,1,1,1,2,0,2,1,3,1,1,1
69428849,15448849,49.0896588,2.1104546,-0.6654837,-4.709533,-0.15481263,0.0018455337,0.0027404597,0.0,0.0047003226,0.010662127,0.008560461,-0.03544952,0.029180843,-0.008581807,0.052221604,0.013683932,0.002779986,0.032036766,0.5787196,0.00507739,86.623116,0.1,0.23759979,0.3915799,0.12919949,0.106345154,inf,inf,inf,inf,1,1,1,1,2,0,2,1,3,1,1,1
69528851,15448849,49.0896588,2.1104546,-0.6641599,-4.708519,-0.16002753,0.0018455337,0.0027404597,0.0,0.0065237954,0.009677832,0.0078264605,-0.037583508,0.029180843,-0.008581807,0.052221604,-0.005285873,-0.0068980358,0.0014474584,0.57881516,0.00507739,86.623116,0.1,0.22903569,0.38904744,0.12476081,0.1048408,inf,inf,inf,inf,1,1,1,1,2,0,2,1,3,1,1,1
69628889,15448849,49.0896588,2.1104546,-0.6628874,-4.707531,-0.16498122,0.0018455337,0.0027404597,0.0,0.00687476,0.01006131,0.0066672177,-0.039606497,0.029180843,-0.008581807,0.052221604,0.003870336,-0.0054334197,0.013289412,0.5789866,0.00507739,86.623116,0.1,0.23767279,0.39329776,0.12925224,0.10654255,inf,inf,inf,inf,1,1,1,1,2,0,2,1,3,1,1,1
69728893,15448849,49.0896588,2.1104546,-0.6623182,-4.7058954,-0.16792947,0.0018455337,0.0027404597,0.0,0.0071474775,0.010811062,0.0065337634,-0.03848268,0.029180843,-0.008581807,0.052221604,0.0006969218,0.0033421349,-0.0036681872,0.5790032,0.00507739,86.623116,0.10473914,0.22905163,0.39074042,0.124797344,0.105031624,inf,inf,inf,inf,1,1,1,1,2,0,2,1,3,1,1,1
69828849,15448849,49.0896588,2.1104546,-0.66264504,-4.703517,-0.16947375,0.0018455337,0.0027404597,0.0,0.0056860186,0.012606683,0.006535435,-0.036070827,0.029180843,-0.008581807,0.052221604,-0.004584774,0.024607452,-0.003676575,0.5789506,0.00507739,86.623116,0.10349775,0.2376928,0.39254695,0.12929252,0.10646831,inf,inf,inf,inf,1,1,1,1,2,0,2,1,3,1,1,1
69928851,15448849,49.0896588,2.1104546,-0.66347265,-4.7007456,-0.17134699,0.0018455337,0.0027404597,0.0,0.004611253,0.0140927555,0.007050952,-0.033755872,0.029180843,-0.008581807,0.052221604,0.009502773,-0.0034039554,-0.005456343,0.57893026,0.00507739,86.623116,0.10311671,0.22896808,0.38999748,0.12473624,0.10494683,inf,inf,inf,inf,1,1,1,1,2,0,2,1,3,1,1,1
70028884,15448849,49.0896588,2.1104546,-0.66548765,-4.6972027,-0.17390396,0.0018455337,0.0027404597,0.0,0.0028247654,0.015455759,0.0057085156,-0.034140825,0.029180843,-0.008581807,0.052221604,-0.009030524,0.010772525,0.0128337005,0.57891005,0.00507739,86.623116,0.1,0.23760217,0.39180213,0.12923244,0.10638264,inf,inf,inf,inf,1,1,1,1,2,0,2,1,3,1,1,1
70128849,15448849,49.0896588,2.1104546,-0.6670264,-4.6943135,-0.1776834,0.0018455337,0.0027404597,0.0,0.0018814099,0.016310308,0.005197097,-0.034938116,0.029180843,-0.008581807,0.052221604,-0.0099453265,0.009075941,0.003280635,0.57886565,0.00507739,86.623116,0.1,0.22889324,0.38926727,0.12468889,0.104865044,inf,inf,inf,inf,1,1,1,1,2,0,2,1,3,1,1,1
70228851,15448849,49.0896588,2.1104546,-0.6682392,-4.692252,-0.18292555,0.0018455337,0.0027404597,0.0,0.0013588754,0.017317317,0.0036136312,-0.03806276,0.029180843,-0.008581807,0.052221604,-0.0012163214,0.025668694,0.003052512,0.57888556,0.00507739,86.623116,0.1,0.23752157,0.3910617,0.1291853,0.10629771,inf,inf,inf,inf,1,1,1,1,2,0,2,1,3,1,1,1
70328869,15448849,49.0896588,2.1104546,-0.6694488,-4.690376,-0.18795982,0.0018455337,0.0027404597,0.0,0.0007248372,0.018144425,0.0019007302,-0.040811043,0.029180843,-0.008581807,0.052221604,-0.004801714,0.0068962965,0.006388684,0.5788906,0.00507739,86.623116,0.1,0.2288268,0.3885493,0.12465403,0.104786016,inf,inf,inf,inf,1,1,1,1,2,0,2,1,3,1,1,1
70428849,15448849,49.0896588,2.1104546,-0.67109364,-4.6889424,-0.19309026,0.0018455337,0.0027404597,0.0,-2.9641404e-05,0.018495757,0.0014457116,-0.042118344,0.029180843,-0.008581807,0.052221604,0.004193421,0.020920858,0.03131758,0.5788264,0.00507739,86.623116,0.1,0.23745047,0.39279243,0.12914698,0.106486574,inf,inf,inf,inf,1,1,1,1,2,0,2,1,3,1,1,1
70528849,15448849,49.0896588,2.1104546,-0.67251456,-4.6876254,-0.19730945,0.0018455337,0.0027404597,0.0,-0.0013161406,0.018428544,0.0007680355,-0.042620044,0.029180843,-0.008581807,0.052221604,0.0043487977,0.0251836,-0.00044126378,0.5788005,0.00507739,86.623116,0.104542546,0.22876786,0.3902464,0.12462711,0.10496643,inf,inf,inf,inf,1,1,1,1,2,0,2,1,3,1,1,1
70628849,15448849,49.0896588,2.1104546,-0.67397773,-4.6866746,-0.19962315,0.0018455337,0.0027404597,0.0,-0.0022257795,0.01777206,0.0010266935,-0.040358666,0.029180843,-0.008581807,0.052221604,-0.007458558,-0.015667103,-0.019345623,0.57878435,0.00507739,86.623116,0.10462282,0.23738764,0.3920628,0.12911382,0.10640516,inf,inf,inf,inf,1,1,1,1,2,0,2,1,3,1,1,1
70728849,15448849,49.0896588,2.1104546,-0.6755857,-4.685425,-0.20213328,0.0018455337,0.0027404597,0.0,-0.003050126,0.017520227,0.00035901956,-0.03941863,0.029180843,-0.008581807,0.052221604,-0.002554328,0.0066979066,0.0071777003,0.57880735,0.00507739,86.623116,0.10426175,0.22871602,0.38953048,0.12459912,0.10488859,inf,inf,inf,inf,1,1,1,1,2,0,2,1,3,1,1,1
70828849,15448849,49.0896588,2.1104546,-0.67783964,-4.683703,-0.20453015,0.0018455337,0.0027404597,0.0,-0.0042754603,0.017396394,0.0004231548,-0.037866224,0.029180843,-0.008581807,0.052221604,-0.008015919,-0.017074686,0.0008961155,0.5789688,0.00507739,86.623116,0.103065856,0.23733267,0.3913366,0.12909262,0.10632416,inf,inf,inf,inf,1,1,1,1,2,0,2,1,3,1,1,1
70928849,15448849,49.0896588,2.1104546,-0.6799358,-4.682923,-0.20599678,0.0018455337,0.0027404597,0.0,-0.0054983296,0.016893817,0.0013871811,-0.034613207,0.029180843,-0.008581807,0.052221604,-0.016433509,0.004900103,0.01102518,0.5792001,0.00507739,86.623116,0.108776055,0.22867057,0.38881767,0.12457685,0.10481094,inf,inf,inf,inf,1,1,1,1,2,0,2,1,3,1,1,1
71028854,15448849,49.0896588,2.1104546,-0.6823254,-4.6838026,-0.20680068,0.0018455337,0.0027404597,0.0,-0.008046498,0.016505824,0.0011939381,-0.03224109,0.029180843,-0.008581807,0.052221604,-0.002968873,0.010377287,0.0043273894,0.5793834,0.00507739,86.623116,0.10352636,0.23728468,0.39061365,0.12906995,0.10624332,inf,inf,inf,inf,1,1,1,1,2,0,2,1,3,1,1,1
71128849,15448849,49.0896588,2.1104546,-0.68457156,-4.685205,-0.2077029,0.0018455337,0.0027404597,0.0,-0.009746403,0.015794165,0.0021224862,-0.029091425,0.029180843,-0.008581807,0.052221604,-0.026968602,0.022077546,0.02662148,0.57950807,0.00507739,86.623116,0.11192698,0.22863084,0.39052477,0.12455813,0.10499332,inf,inf,inf,inf,1,1,1,1,2,0,2,1,3,1,1,1
71228849,15448849,49.0896588,2.1104546,-0.68692106,-4.6882663,-0.20831095,0.0018455337,0.0027404597,0.0,-0.011543712,0.013761555,0.002146759,-0.026924543,0.029180843,-0.008581807,0.052221604,-0.0060422136,-0.0021598006,-0.011778067,0.57952565,0.00507739,86.623116,0.10515081,0.23724285,0.39234444,0.12905206,0.10643253,inf,inf,inf,inf,1,1,1,1,2,0,2,1,3,1,1,1
71328849,15448849,49.0896588,2.1104546,-0.6884285,-4.690545,-0.20950378,0.0018455337,0.0027404597,0.0,-0.012313077,0.011682391,0.0031777555,-0.024640081,0.029180843,-0.008581807,0.052221604,-0.009869308,-0.026869245,-0.01737425,0.579553,0.00507739,86.623116,0.1067634,0.2285961,0.38981345,0.12454508,0.104916364,inf,inf,inf,inf,1,1,1,1,2,0,2,1,3,1,1,1
71428849,15448849,49.0896588,2.1104546,-0.6886256,-4.69245,-0.2104989,0.0018455337,0.0027404597,0.0,-0.011771161,0.00881615,0.0046643,-0.021955498,0.029180843,-0.008581807,0.052221604,0.0033286891,0.01888697,0.03142215,0.5796283,0.00507739,86.623116,0.1025426,0.23720656,0.39162284,0.12903476,0.10635247,inf,inf,inf,inf,1,1,1,1,2,0,2,1,3,1,1,1
71528849,15448849,49.0896588,2.1104546,-0.68819624,-4.6941805,-0.21081452,0.0018455337,0.0027404597,0.0,-0.011195149,0.0073862798,0.005315413,-0.01958081,0.029180843,-0.008581807,0.052221604,-0.020953368,0.008390353,0.025362048,0.5797135,0.00507739,86.623116,0.11264781,0.2286209,0.38911182,0.12461586,0.10485329,inf,inf,inf,inf,1,1,1,1,2,0,2,1,3,1,1,1
71628851,15448849,49.0896588,2.1104546,-0.6870495,-4.695787,-0.2087079,0.0018455337,0.0027404597,0.0,-0.0100208195,0.0070669544,0.0076160682,-0.013674704,0.029180843,-0.008581807,0.052221604,-0.011309717,-0.0129277585,-0.010980229,0.5797658,0.00507739,86.623116,0.108259626,0.23723905,0.39092007,0.12910144,0.10628861,inf,inf,inf,inf,1,1,1,1,2,0,2,1,3,1,1,1
71728851,15448849,49.0896588,2.1104546,-0.68606126,-4.6967635,-0.20602906,0.0018455337,0.0027404597,0.0,-0.0097851185,0.007581263,0.009492354,-0.008151479,0.029180843,-0.008581807,0.052221604,-0.0083728125,0.01739223,-0.01525324,0.57983005,0.00507739,86.623116,0.11684904,0.22854756,0.3908284,0.12457589,0.10503644,inf,inf,inf,inf,1,1,1,1,2,0,2,1,3,1,1,1
71828893,15448849,49.0896588,2.1104546,-0.68501437,-4.6971936,-0.20384164,0.0018455337,0.0027404597,0.0,-0.008991687,0.008086155,0.011307881,-0.0038370322,0.029180843,-0.008581807,0.052221604,-0.007851033,-0.005575297,0.01203089,0.57986754,0.00507739,86.623116,0.10505507,0.23716186,0.39264342,0.12906596,0.10647408,inf,inf,inf,inf,1,1,1,1,2,0,2,1,3,1,1,1
71928849,15448849,49.0896588,2.1104546,-0.6840964,-4.6975994,-0.20369214,0.0018455337,0.0027404597,0.0,-0.008747199,0.008343628,0.011677485,-0.0033519035,0.029180843,-0.008581807,0.052221604,-0.00739455,-0.004837753,0.0018855525,0.57981914,0.00507739,86.623116,0.10189747,0.2284389,0.3900965,0.12453857,0.10495309,inf,inf,inf,inf,1,1,1,1,2,0,2,1,3,1,1,1
72028849,15448849,49.0896588,2.1104546,-0.6830151,-4.69846,-0.20355292,0.0018455337,0.0027404597,0.0,-0.0073558353,0.007272502,0.01321022,-0.001867894,0.029180843,-0.008581807,0.052221604,-0.0035570764,-0.004599778,0.0067894966,0.5798178,0.00507739,86.623116,0.10168726,0.23704875,0.39190114,0.12902847,0.106387675,inf,inf,inf,inf,1,1,1,1,2,0,2,1,3,1,1,1
72128849,15448849,49.0896588,2.1104546,-0.6821858,-4.699704,-0.2035245,0.0018455337,0.0027404597,0.0,-0.006291315,0.0063895085,0.013931321,-0.0013279426,0.029180843,-0.008581807,0.052221604,0.008185306,0.0015572626,0.021755505,0.5798353,0.00507739,86.623116,0.1,0.22830023,0.38936055,0.124496505,0.10486856,inf,inf,inf,inf,1,1,1,1,2,0,2,1,3,1,1,1
72228849,15448849,49.0896588,2.1104546,-0.68151206,-4.702084,-0.204114,0.0018455337,0.0027404597,0.0,-0.0061633275,0.0048073297,0.014514017,-0.0016186254,0.029180843,-0.008581807,0.052221604,-0.02751422,-0.00093626877,-0.025980365,0.57992435,0.00507739,86.623116,0.1,0.2369051,0.39115465,0.12898679,0.10630013,inf,inf,inf,inf,1,1,1,1,2,0,2,1,3,1,1,1
72328849,15448849,49.0896588,2.1104546,-0.6808321,-4.704044,-0.20483886,0.0018455337,0.0027404597,0.0,-0.00622709,0.0038855725,0.016169189,-0.0007676474,0.029180843,-0.008581807,0.052221604,0.021117304,0.035168927,0.03125574,0.5800176,0.00507739,86.623116,0.10188856,0.22828063,0.39106214,0.12455259,0.10505991,inf,inf,inf,inf,1,1,1,1,2,0,2,1,3,1,1,1
72428851,15448849,49.0896588,2.1104546,-0.6800439,-4.705604,-0.20500687,0.0018455337,0.0027404597,0.0,-0.0067744753,0.0038224214,0.015594687,-0.0016606838,0.029180843,-0.008581807,0.052221604,-0.010990347,0.012204665,-0.007208626,0.580013,0.00507739,86.623116,0.1,0.2368925,0.39288053,0.12904526,0.10649871,inf,inf,inf,inf,1,1,1,1,2,0,2,1,3,1,1,1
72528849,15448849,49.0896588,2.1104546,-0.6796571,-4.707172,-0.20602322,0.0018455337,0.0027404597,0.0,-0.0069861254,0.00427825,0.016961323,-0.0013475417,0.029180843,-0.008581807,0.052221604,-0.018639531,0.014361856,5.444029e-05,0.5800045,0.00507739,86.623116,0.1,0.2282245,0.3903361,0.12458945,0.1049904,inf,inf,inf,inf,1,1,1,1,2,0,2,1,3,1,1,1
72628850,15448849,49.0896588,2.1104546,-0.6796574,-4.708916,-0.20762204,0.0018455337,0.0027404597,0.0,-0.007922991,0.0039429907,0.016252222,-0.0036411933,0.029180843,-0.008581807,0.052221604,-0.015807167,0.010378712,0.013744642,0.57981205,0.00507739,86.623116,0.1,0.23684141,0.39215326,0.1290884,0.10642844,inf,inf,inf,inf,1,1,1,1,2,0,2,1,3,1,1,1
72728849,15448849,49.0896588,2.1104546,-0.6794743,-4.710125,-0.20994045,0.0018455337,0.0027404597,0.0,-0.008072278,0.003991279,0.017896445,-0.004175551,0.029180843,-0.008581807,0.052221604,0.008033072,0.015351508,-0.00539739,0.57953167,0.00507739,86.623116,0.1,0.22803578,0.38961554,0.12452814,0.104909234,inf,inf,inf,inf,1,1,1,1,2,0,2,1,3,1,1,1
72828849,15448849,49.0896588,2.1104546,-0.678623,-4.7110434,-0.21287245,0.0018455337,0.0027404597,0.0,-0.0072028353,0.0030587846,0.016945694,-0.007612581,0.029180843,-0.008581807,0.052221604,0.023328608,0.0022515529,0.030242462,0.5793515,0.00507739,86.623116,0.1,0.23664549,0.3914139,0.12901664,0.106341854,inf,inf,inf,inf,1,1,1,1,2,0,2,1,3,1,1,1
72928849,15448849,49.0896588,2.1104546,-0.67801166,-4.711578,-0.21588564,0.0018455337,0.0027404597,0.0,-0.0057701115,0.0022775256,0.017564515,-0.009286802,0.029180843,-0.008581807,0.052221604,-0.0058768657,-0.0073866053,-0.04009176,0.57932025,0.00507739,86.623116,0.1,0.22797346,0.38889712,0.124566935,0.104840234,inf,inf,inf,inf,1,1,1,1,2,0,2,1,3,1,1,1
73028849,15448849,49.0896588,2.1104546,-0.67764014,-4.7118034,-0.2190369,0.0018455337,0.0027404597,0.0,-0.0061459383,0.0028609254,0.017197281,-0.011756185,0.029180843,-0.008581807,0.052221604,-0.032214347,0.03398335,0.058542,0.5793213,0.00507739,86.623116,0.1,0.23658848,0.39069405,0.12905787,0.10627222,inf,inf,inf,inf,1,1,1,1,2,0,2,1,3,1,1,1
73128854,15448849,49.0896588,2.1104546,-0.6768107,-4.712199,-0.22071876,0.0018455337,0.0027404597,0.0,-0.0057728034,0.00386267,0.017428063,-0.012050518,0.029180843,-0.008581807,0.052221604,-0.017070245,0.014492012,0.02684942,0.57927847,0.00507739,86.623116,0.10151864,0.22788009,0.39060852,0.12459381,0.105033554,inf,inf,inf,inf,1,1,1,1,2,0,2,1,3,1,1,1
73228876,15448849,49.0896588,2.1104546,-0.6752931,-4.713026,-0.22136056,0.0018455337,0.0027404597,0.0,-0.0042848485,0.0038104388,0.020408804,-0.008568482,0.029180843,-0.008581807,0.052221604,0.012077128,0.0258816,0.026105369,0.5792792,0.00507739,86.623116,0.1,0.23649879,0.39243817,0.12907451,0.106474824,inf,inf,inf,inf,1,1,1,1,2,0,2,1,3,1,1,1
73328849,15448849,49.0896588,2.1104546,-0.6744036,-4.713506,-0.2218018,0.0018455337,0.0027404597,0.0,-0.004042265,0.0038391743,0.019464988,-0.009089067,0.029180843,-0.008581807,0.052221604,0.009798479,-0.01793902,-0.03083479,0.5793464,0.00507739,86.623116,0.1,0.22770408,0.3898932,0.1245234,0.104952864,inf,inf,inf,inf,1,1,1,1,2,0,2,1,3,1,1,1
73428849,15448849,49.0896588,2.1104546,-0.6743298,-4.713897,-0.22261573,0.0018455337,0.0027404597,0.0,-0.0038627447,0.0035247195,0.021395383,-0.0072735664,0.029180843,-0.008581807,0.052221604,0.015347239,0.010027736,0.006328334,0.57940143,0.00507739,86.623116,0.1,0.23631594,0.39168712,0.12900943,0.10638422,inf,inf,inf,inf,1,1,1,1,2,0,2,1,3,1,1,1
73528851,15448849,49.0896588,2.1104546,-0.6748084,-4.714091,-0.22450295,0.0018455337,0.0027404597,0.0,-0.004734833,0.0042074537,0.020242916,-0.009544812,0.029180843,-0.008581807,0.052221604,-0.020629255,0.0071719093,0.05290455,0.57942617,0.00507739,86.623116,0.1,0.22760768,0.3891558,0.1245458,0.104878,inf,inf,inf,inf,1,1,1,1,2,0,2,1,3,1,1,1
73628849,15448849,49.0896588,2.1104546,-0.6759302,-4.714071,-0.22665401,0.0018455337,0.0027404597,0.0,-0.0055992207,0.005313881,0.020032203,-0.010990967,0.029180843,-0.008581807,0.052221604,-0.016541792,-0.012370465,-0.057775993,0.5795224,0.00507739,86.623116,0.1,0.2362234,0.39341027,0.12903446,0.106579304,inf,inf,inf,inf,1,1,1,1,2,0,2,1,3,1,1,1
73728849,15448849,49.0896588,2.1104546,-0.67632926,-4.7146964,-0.22946252,0.0018455337,0.0027404597,0.0,-0.006318402,0.005396376,0.019634575,-0.013013581,0.029180843,-0.008581807,0.052221604,0.021891778,0.028639104,0.02656709,0.57946867,0.00507739,86.623116,0.1,0.22748458,0.39084584,0.12455749,0.10506444,inf,inf,inf,inf,1,1,1,1,2,0,2,1,3,1,1,1
73828849,15448849,49.0896588,2.1104546,-0.67586285,-4.7161074,-0.23336858,0.0018455337,0.0027404597,0.0,-0.0066239373,0.004798301,0.01859912,-0.016525181,0.029180843,-0.008581807,0.052221604,-0.008223381,0.00996303,-0.010152587,0.5793857,0.00507739,86.623116,0.1,0.23610328,0.3926624,0.12905903,0.106502324,inf,inf,inf,inf,1,1,1,1,2,0,2,1,3,1,1,1
73928908,15448849,49.0896588,2.1104546,-0.6752149,-4.718028,-0.23551796,0.0018455337,0.0027404597,0.0,-0.0060273153,0.0035420463,0.01915148,-0.01630324,0.029180843,-0.008581807,0.052221604,-0.0074251117,0.001301473,0.032372456,0.57932556,0.00507739,86.623116,0.1,0.22738416,0.39011255,0.12457409,0.10499074,inf,inf,inf,inf,1,1,1,1,2,0,2,1,3,1,1,1
74028859,15448849,49.0896588,2.1104546,-0.6742347,-4.720811,-0.23659585,0.0018455337,0.0027404597,0.0,-0.0051434385,0.0012400722,0.019040802,-0.015720699,0.029180843,-0.008581807,0.052221604,0.008834878,0.026000345,0.022175102,0.57934606,0.00507739,86.623116,0.1,0.23600614,0.3919193,0.12906712,0.10642579,inf,inf,inf,inf,1,1,1,1,2,0,2,1,3,1,1,1
74128849,15448849,49.0896588,2.1104546,-0.6741289,-4.7232885,-0.23708488,0.0018455337,0.0027404597,0.0,-0.0050454545,0.0006082854,0.01992082,-0.013683989,0.029180843,-0.008581807,0.052221604,0.017327392,-0.0011871558,-0.012528095,0.57944757,0.00507739,86.623116,0.10041006,0.22725715,0.38938388,0.1245747,0.10491761,inf,inf,inf,inf,1,1,1,1,2,0,2,1,3,1,1,1
74228849,15448849,49.0896588,2.1104546,-0.6749608,-4.7255654,-0.23737341,0.0018455337,0.0027404597,0.0,-0.0060693067,0.000581783,0.020766007,-0.011735501,0.029180843,-0.008581807,0.052221604,-0.014395021,0.021199299,0.010139306,0.57955027,0.00507739,86.623116,0.1,0.23588108,0.39118075,0.12906839,0.10634965,inf,inf,inf,inf,1,1,1,1,2,0,2,1,3,1,1,1
74328849,15448849,49.0896588,2.1104546,-0.67559755,-4.727411,-0.23780526,0.0018455337,0.0027404597,0.0,-0.0065435646,0.00015206571,0.020519368,-0.011112754,0.029180843,-0.008581807,0.052221604,-0.004263771,0.010746955,-0.011571503,0.5795486,0.00507739,86.623116,0.10057266,0.22715262,0.3910863,0.1245756,0.10510602,inf,inf,inf,inf,1,1,1,1,2,0,2,1,3,1,1,1
74428856,15448849,49.0896588,2.1104546,-0.6760371,-4.72899,-0.23769124,0.0018455337,0.0027404597,0.0,-0.0075699314,0.00023801293,0.021640874,-0.008736031,0.029180843,-0.008581807,0.052221604,-0.008928279,-0.0042622974,0.010809461,0.57953775,0.00507739,86.623116,0.1,0.2357789,0.39290738,0.12907109,0.106545195,inf,inf,inf,inf,1,1,1,1,2,0,2,1,3,1,1,1
74528852,15448849,49.0896588,2.1104546,-0.6762971,-4.730189,-0.23922855,0.0018455337,0.0027404597,0.0,-0.006930881,0.00011465926,0.021038394,-0.009959635,0.029180843,-0.008581807,0.052221604,-0.0035774992,0.010712579,-0.01147396,0.579501,0.00507739,86.623116,0.1,0.22702149,0.3903607,0.124572575,0.10503353,inf,inf,inf,inf,1,1,1,1,2,0,2,1,3,1,1,1
74628879,15448849,49.0896588,2.1104546,-0.67624784,-4.7311716,-0.2421483,0.0018455337,0.0027404597,0.0,-0.006927931,0.0005537834,0.021393169,-0.011427607,0.029180843,-0.008581807,0.052221604,-0.01217947,0.014083365,0.0014972646,0.57955563,0.00507739,86.623116,0.1,0.23564914,0.39218035,0.1290635,0.1064719,inf,inf,inf,inf,1,1,1,1,2,0,2,1,3,1,1,1
74728849,15448849,49.0896588,2.1104546,-0.6765202,-4.7324395,-0.24488097,0.0018455337,0.0027404597,0.0,-0.007475703,0.00062262133,0.020246342,-0.013944398,0.029180843,-0.008581807,0.052221604,-0.0003010876,0.012979028,-0.01194347,0.5795902,0.00507739,86.623116,0.1,0.2268119,0.3896403,0.12447867,0.10494957,inf,inf,inf,inf,1,1,1,1,2,0,2,1,3,1,1,1
74828849,15448849,49.0896588,2.1104546,-0.6771516,-4.734757,-0.24734358,0.0018455337,0.0027404597,0.0,-0.0077119693,9.6473974e-05,0.020922897,-0.014186191,0.029180843,-0.008581807,0.052221604,0.00795082,0.009434241,0.027740482,0.5796014,0.00507739,86.623116,0.1,0.23543058,0.39144924,0.12896837,0.10638461,inf,inf,inf,inf,1,1,1,1,2,0,2,1,3,1,1,1
74928851,15448849,49.0896588,2.1104546,-0.6781389,-4.7368484,-0.24967106,0.0018455337,0.0027404597,0.0,-0.008186988,-0.0015906746,0.019991273,-0.01576081,0.029180843,-0.008581807,0.052221604,-0.00068568,-0.0071994634,0.009151359,0.57954377,0.00507739,86.623116,0.1,0.22663108,0.39133856,0.1244011,0.10512377,inf,inf,inf,inf,1,1,1,1,2,0,2,1,3,1,1,1
75028852,15448849,49.0896588,2.1104546,-0.6796803,-4.739251,-0.25036362,0.0018455337,0.0027404597,0.0,-0.00824488,-0.0035404358,0.021542246,-0.013292255,0.029180843,-0.008581807,0.052221604,-0.0007463331,-0.018947171,-0.004150908,0.5796279,0.00507739,86.623116,0.1,0.23524287,0.39315403,0.12888935,0.10656141,inf,inf,inf,inf,1,1,1,1,2,0,2,1,3,1,1,1
75128852,15448849,49.0896588,2.1104546,-0.68104297,-4.7413263,-0.25137052,0.0018455337,0.0027404597,0.0,-0.009342732,-0.0045590634,0.020822363,-0.01360987,0.029180843,-0.008581807,0.052221604,-0.022245536,0.0034268317,-0.020957092,0.5797167,0.00507739,86.623116,0.1,0.22647569,0.39057973,0.12433583,0.10503137,inf,inf,inf,inf,1,1,1,1,2,0,2,1,3,1,1,1
75228854,15448849,49.0896588,2.1104546,-0.682168,-4.743268,-0.2541999,0.0018455337,0.0027404597,0.0,-0.009911211,-0.004515445,0.019607909,-0.016122526,0.029180843,-0.008581807,0.052221604,-0.02535009,0.032359965,-0.03225489,0.57975376,0.00507739,86.623116,0.1,0.23508231,0.39238447,0.12882653,0.10646608,inf,inf,inf,inf,1,1,1,1,2,0,2,1,3,1,1,1
75328864,15448849,49.0896588,2.1104546,-0.68331504,-4.745298,-0.25782913,0.0018455337,0.0027404597,0.0,-0.011055263,-0.0042586145,0.018171592,-0.019382583,0.029180843,-0.008581807,0.052221604,-0.0006782695,0.0018569021,-0.0057783853,0.57972896,0.00507739,86.623116,0.1,0.22634241,0.38983443,0.12428829,0.10494291,inf,inf,inf,inf,1,1,1,1,2,0,2,1,3,1,1,1
75428852,15448849,49.0896588,2.1104546,-0.68451166,-4.748146,-0.2616759,0.0018455337,0.0027404597,0.0,-0.011692176,-0.005103891,0.01731592,-0.021902231,0.029180843,-0.008581807,0.052221604,-0.0017143462,-0.015694903,0.006788035,0.5796538,0.00507739,86.623116,0.1,0.2349454,0.39162868,0.12877922,0.10637452,inf,inf,inf,inf,1,1,1,1,2,0,2,1,3,1,1,1
75528855,15448849,49.0896588,2.1104546,-0.6854675,-4.750652,-0.26462573,0.0018455337,0.0027404597,0.0,-0.011348355,-0.006532704,0.016641796,-0.023120819,0.029180843,-0.008581807,0.052221604,-0.014230567,-0.0078221895,-0.019359315,0.57948905,0.00507739,86.623116,0.1,0.22622879,0.38908592,0.124251984,0.10485353,inf,inf,inf,inf,1,1,1,1,2,0,2,1,3,1,1,1
75628852,15448849,49.0896588,2.1104546,-0.6859768,-4.7531514,-0.26829907,0.0018455337,0.0027404597,0.0,-0.011452472,-0.0077686924,0.014921748,-0.025858646,0.029180843,-0.008581807,0.052221604,-0.011721908,0.017095212,-0.027262742,0.57939297,0.00507739,86.623116,0.1,0.23482922,0.39333853,0.12873937,0.106554694,inf,inf,inf,inf,1,1,1,1,2,0,2,1,3,1,1,1
75728864,15448849,49.0896588,2.1104546,-0.68699527,-4.756111,-0.27148348,0.0018455337,0.0027404597,0.0,-0.011933935,-0.009398487,0.014020963,-0.02694634,0.029180843,-0.008581807,0.052221604,-0.02107943,-0.023385016,0.009437073,0.57933295,0.00507739,86.623116,0.1,0.22613235,0.39077157,0.12421555,0.10502843,inf,inf,inf,inf,1,1,1,1,2,0,2,1,3,1,1,1
75828866,15448849,49.0896588,2.1104546,-0.68880135,-4.760387,-0.27341363,0.0018455337,0.0027404597,0.0,-0.012863655,-0.010697482,0.013236365,-0.026636705,0.029180843,-0.008581807,0.052221604,-0.0024792529,0.02048624,-0.00077953545,0.579379,0.00507739,86.623116,0.1,0.234731,0.3925787,0.12870972,0.10646429,inf,inf,inf,inf,1,1,1,1,2,0,2,1,3,1,1,1
75928863,15448849,49.0896588,2.1104546,-0.6904869,-4.764416,-0.27562094,0.0018455337,0.0027404597,0.0,-0.014027095,-0.011161836,0.013072761,-0.026103966,0.029180843,-0.008581807,0.052221604,-0.010566822,0.012207375,0.011553117,0.5793505,0.00507739,86.623116,0.1,0.22605062,0.3900272,0.12419433,0.10494237,inf,inf,inf,inf,1,1,1,1,2,0,2,1,3,1,1,1
76028888,15448849,49.0896588,2.1104546,-0.69197935,-4.768887,-0.2786129,0.0018455337,0.0027404597,0.0,-0.01531064,-0.012020576,0.012908736,-0.0263917,0.029180843,-0.008581807,0.052221604,-0.004455274,0.03428318,0.020949207,0.57926285,0.00507739,86.623116,0.1,0.2346483,0.39183226,0.12868282,0.10637737,inf,inf,inf,inf,1,1,1,1,2,0,2,1,3,1,1,1
76128864,15448849,49.0896588,2.1104546,-0.6930974,-4.772791,-0.27956882,0.0018455337,0.0027404597,0.0,-0.015998377,-0.013080061,0.013445541,-0.023963632,0.029180843,-0.008581807,0.052221604,-0.00062804186,0.00829356,0.008649673,0.5791903,0.00507739,86.623116,0.1056999,0.22608207,0.3893023,0.12426297,0.10487303,inf,inf,inf,inf,1,1,1,1,2,0,2,1,3,1,1,1
76228849,15448849,49.0896588,2.1104546,-0.69365567,-4.776359,-0.27888304,0.0018455337,0.0027404597,0.0,-0.015201045,-0.013893415,0.01394378,-0.020339686,0.029180843,-0.008581807,0.052221604,0.018257469,-0.009407645,-0.015492926,0.5791689,0.00507739,86.623116,0.10222593,0.23468988,0.39109775,0.12875342,0.10630507,inf,inf,inf,inf,1,1,1,1,2,0,2,1,3,1,1,1
76328849,15448849,49.0896588,2.1104546,-0.694549,-4.779009,-0.27958065,0.0018455337,0.0027404597,0.0,-0.0152323535,-0.014861702,0.014874126,-0.018050814,0.029180843,-0.008581807,0.052221604,-0.026739197,-0.017695107,0.0061428146,0.5791489,0.00507739,86.623116,0.1,0.22601517,0.3910002,0.12422497,0.10505116,inf,inf,inf,inf,1,1,1,1,2,0,2,1,3,1,1,1
76428849,15448849,49.0896588,2.1104546,-0.6959166,-4.780528,-0.28140575,0.0018455337,0.0027404597,0.0,-0.015284053,-0.014374819,0.014921298,-0.017940892,0.029180843,-0.008581807,0.052221604,-0.024917742,-0.008724216,0.023557056,0.5792146,0.00507739,86.623116,0.1,0.23462093,0.3928108,0.12871622,0.10648813,inf,inf,inf,inf,1,1,1,1,2,0,2,1,3,1,1,1
76528858,15448849,49.0896588,2.1104546,-0.69762456,-4.781936,-0.28301856,0.0018455337,0.0027404597,0.0,-0.01641668,-0.013234283,0.014014908,-0.018605905,0.029180843,-0.008581807,0.052221604,-0.015879858,0.008921059,-0.007445725,0.57929325,0.00507739,86.623116,0.1,0.2260584,0.39025405,0.124287575,0.104976885,inf,inf,inf,inf,1,1,1,1,2,0,2,1,3,1,1,1
76628850,15448849,49.0896588,2.1104546,-0.6997729,-4.7832003,-0.28447008,0.0018455337,0.0027404597,0.0,-0.018126573,-0.011568661,0.013866569,-0.018298984,0.029180843,-0.008581807,0.052221604,-0.014120755,0.0069795614,0.008802508,0.5793194,0.00507739,86.623116,0.1,0.23467346,0.39204654,0.12877586,0.1064088,inf,inf,inf,inf,1,1,1,1,2,0,2,1,3,1,1,1
76728859,15448849,49.0896588,2.1104546,-0.70131016,-4.784706,-0.28682387,0.0018455337,0.0027404597,0.0,-0.019190403,-0.010899817,0.0127050355,-0.01981732,0.029180843,-0.008581807,0.052221604,-0.026880434,0.017147701,0.009335885,0.57929015,0.00507739,86.623116,0.1,0.22600058,0.3894986,0.12424363,0.10488759,inf,inf,inf,inf,1,1,1,1,2,0,2,1,3,1,1,1
76828865,15448849,49.0896588,2.1104546,-0.7014924,-4.78706,-0.2903264,0.0018455337,0.0027404597,0.0,-0.018439805,-0.011439652,0.011516711,-0.022247132,0.029180843,-0.008581807,0.052221604,-0.018970925,-0.009426353,-0.0016927433,0.5792112,0.00507739,86.623116,0.1,0.23461288,0.39128068,0.12873699,0.106316544,inf,inf,inf,inf,1,1,1,1,2,0,2,1,3,1,1,1
76928853,15448849,49.0896588,2.1104546,-0.7019054,-4.789038,-0.2915447,0.0018455337,0.0027404597,0.0,-0.017835936,-0.011999543,0.011400951,-0.02113945,0.029180843,-0.008581807,0.052221604,-0.003580589,0.0032164168,0.017329173,0.5792044,0.00507739,86.623116,0.10505518,0.22595039,0.39116907,0.12421344,0.105059095,inf,inf,inf,inf,1,1,1,1,2,0,2,1,3,1,1,1
77028849,15448849,49.0896588,2.1104546,-0.7023177,-4.790707,-0.29119325,0.0018455337,0.0027404597,0.0,-0.017182002,-0.012269118,0.012581114,-0.017422834,0.029180843,-0.008581807,0.052221604,-0.011501683,0.008709495,-0.007888119,0.5792249,0.00507739,86.623116,0.10459575,0.23456062,0.39298302,0.12870309,0.10649761,inf,inf,inf,inf,1,1,1,1,2,0,2,1,3,1,1,1
77128849,15448849,49.0896588,2.1104546,-0.7027621,-4.7919807,-0.29106525,0.0018455337,0.0027404597,0.0,-0.01665112,-0.011462427,0.01279871,-0.015284317,0.029180843,-0.008581807,0.052221604,0.010497293,-0.008623896,-0.009487013,0.57921565,0.00507739,86.623116,0.1028828,0.22590715,0.39041904,0.12418285,0.10497351,inf,inf,inf,inf,1,1,1,1,2,0,2,1,3,1,1,1
77228853,15448849,49.0896588,2.1104546,-0.70295334,-4.7927613,-0.29130527,0.0018455337,0.0027404597,0.0,-0.01610568,-0.010580626,0.01317135,-0.013602702,0.029180843,-0.008581807,0.052221604,-0.020014137,0.00024583505,0.017379208,0.5791739,0.00507739,86.623116,0.10284677,0.23451538,0.39222267,0.12866952,0.106409065,inf,inf,inf,inf,1,1,1,1,2,0,2,1,3,1,1,1
77328849,15448849,49.0896588,2.1104546,-0.7034829,-4.793568,-0.29102528,0.0018455337,0.0027404597,0.0,-0.01631723,-0.00918796,0.013635367,-0.011532722,0.029180843,-0.008581807,0.052221604,0.002310797,-0.011270101,0.029919323,0.57903075,0.00507739,86.623116,0.101793826,0.22596999,0.3896809,0.124245994,0.10490274,inf,inf,inf,inf,1,1,1,1,2,0,2,1,3,1,1,1
77428851,15448849,49.0896588,2.1104546,-0.7043166,-4.79447,-0.29093948,0.0018455337,0.0027404597,0.0,-0.016804611,-0.008516955,0.013274335,-0.010640051,0.029180843,-0.008581807,0.052221604,-0.00047564114,0.014141554,-0.03074352,0.5788105,0.00507739,86.623116,0.10247782,0.2345874,0.39147505,0.12873577,0.10633545,inf,inf,inf,inf,1,1,1,1,2,0,2,1,3,1,1,1
77528853,15448849,49.0896588,2.1104546,-0.70517445,-4.7955832,-0.2903203,0.0018455337,0.0027404597,0.0,-0.01679514,-0.008434564,0.012570452,-0.009621242,0.029180843,-0.008581807,0.052221604,-0.015764957,-0.007039694,-0.019137748,0.57868767,0.00507739,86.623116,0.10442686,0.22592856,0.38894114,0.12420862,0.10481864,inf,inf,inf,inf,1,1,1,1,2,0,2,1,3,1,1,1
77628881,15448849,49.0896588,2.1104546,-0.70578206,-4.7974014,-0.28942636,0.0018455337,0.0027404597,0.0,-0.016316323,-0.009272536,0.013210458,-0.007184492,0.029180843,-0.008581807,0.052221604,-0.016915182,0.0019527315,0.009852823,0.5786855,0.00507739,86.623116,0.10383648,0.2345431,0.39319137,0.12869981,0.106520325,inf,inf,inf,inf,1,1,1,1,2,0,2,1,3,1,1,1
77728854,15448849,49.0896588,2.1104546,-0.70629567,-4.7992206,-0.28897384,0.0018455337,0.0027404597,0.0,-0.015466216,-0.009847904,0.013869406,-0.005447814,0.029180843,-0.008581807,0.052221604,-0.0022039325,0.0007266852,-0.005752263,0.5786809,0.00507739,86.623116,0.10341212,0.22599235,0.3906396,0.12427122,0.10501137,inf,inf,inf,inf,1,1,1,1,2,0,2,1,3,1,1,1
77828850,15448849,49.0896588,2.1104546,-0.7066354,-4.801097,-0.28887928,0.0018455337,0.0027404597,0.0,-0.015073741,-0.009630053,0.014300522,-0.0044752317,0.029180843,-0.008581807,0.052221604,-0.004152064,-0.008351523,-0.00066607434,0.57871,0.00507739,86.623116,0.10108721,0.23461531,0.39245635,0.12876078,0.10645052,inf,inf,inf,inf,1,1,1,1,2,0,2,1,3,1,1,1
77928855,15448849,49.0896588,2.1104546,-0.7070092,-4.8036213,-0.28837007,0.0018455337,0.0027404597,0.0,-0.015103385,-0.010069032,0.015689984,-0.0022836295,0.029180843,-0.008581807,0.052221604,-0.01662151,0.00024865486,0.0019242303,0.57870626,0.00507739,86.623116,0.10327369,0.22605164,0.38991833,0.12431812,0.10494428,inf,inf,inf,inf,1,1,1,1,2,0,2,1,3,1,1,1
78028849,15448849,49.0896588,2.1104546,-0.70735,-4.80703,-0.2874247,0.0018455337,0.0027404597,0.0,-0.015690206,-0.010837328,0.015198509,-0.0017076447,0.029180843,-0.008581807,0.052221604,-0.011940871,0.02148038,-0.0078122136,0.57864535,0.00507739,86.623116,0.10218945,0.2346816,0.3917005,0.12881012,0.10637369,inf,inf,inf,inf,1,1,1,1,2,0,2,1,3,1,1,1
78128899,15448849,49.0896588,2.1104546,-0.7070457,-4.8107443,-0.2855144,0.0018455337,0.0027404597,0.0,-0.014968406,-0.011703084,0.015489498,0.0005421891,0.029180843,-0.008581807,0.052221604,0.013612411,-0.00800724,0.032519694,0.5785274,0.00507739,86.623116,0.10778803,0.22610623,0.38916135,0.124354266,0.10486654,inf,inf,inf,inf,1,1,1,1,2,0,2,1,3,1,1,1
78228882,15448849,49.0896588,2.1104546,-0.70578223,-4.815027,-0.2828203,0.0018455337,0.0027404597,0.0,-0.013290845,-0.0135025475,0.016696572,0.0041241725,0.029180843,-0.008581807,0.052221604,-0.007094212,0.00396451,-0.020153379,0.5784058,0.00507739,86.623116,0.104263306,0.23474208,0.39340422,0.1288503,0.10656581,inf,inf,inf,inf,1,1,1,1,2,0,2,1,3,1,1,1
78328849,15448849,49.0896588,2.1104546,-0.705034,-4.8183737,-0.28156003,0.0018455337,0.0027404597,0.0,-0.012707959,-0.014685968,0.01656901,0.004677077,0.029180843,-0.008581807,0.052221604,0.0034726982,-0.024040293,-0.013177286,0.57838875,0.00507739,86.623116,0.101059705,0.22615582,0.39084107,0.12438711,0.10505256,inf,inf,inf,inf,1,1,1,1,2,0,2,1,3,1,1,1
78428859,15448849,49.0896588,2.1104546,-0.7046807,-4.8208485,-0.28033233,0.0018455337,0.0027404597,0.0,-0.0117023885,-0.015399534,0.017649047,0.006306865,0.029180843,-0.008581807,0.052221604,0.01352824,-0.021875918,0.025145687,0.5784085,0.00507739,86.623116,0.10219252,0.23479658,0.39264634,0.1288824,0.106488846,inf,inf,inf,inf,1,1,1,1,2,0,2,1,3,1,1,1
78528849,15448849,49.0896588,2.1104546,-0.7043423,-4.8229237,-0.27818704,0.0018455337,0.0027404597,0.0,-0.011982171,-0.014875058,0.01861619,0.0085281925,0.029180843,-0.008581807,0.052221604,-0.024156801,0.0039614034,-0.023634922,0.57845944,0.00507739,86.623116,0.104394644,0.22620077,0.3900901,0.124413945,0.104976855,inf,inf,inf,inf,1,1,1,1,2,0,2,1,3,1,1,1
78628849,15448849,49.0896588,2.1104546,-0.7039422,-4.8245263,-0.2753973,0.0018455337,0.0027404597,0.0,-0.011581882,-0.013499407,0.020162148,0.011697601,0.029180843,-0.008581807,0.052221604,0.0053964346,-0.00091065414,-0.0034533842,0.5784263,0.00507739,86.623116,0.10230151,0.23484561,0.39188576,0.12890285,0.106410265,inf,inf,inf,inf,1,1,1,1,2,0,2,1,3,1,1,1
78728849,15448849,49.0896588,2.1104546,-0.7037986,-4.8262115,-0.27231324,0.0018455337,0.0027404597,0.0,-0.011429824,-0.013617851,0.020925196,0.01416284,0.029180843,-0.008581807,0.052221604,-0.00769433,0.018647162,-0.010303208,0.5784678,0.00507739,86.623116,0.1104286,0.22614029,0.38933808,0.12433559,0.1048881,inf,inf,inf,inf,1,1,1,1,2,0,2,1,3,1,1,1
78828849,15448849,49.0896588,2.1104546,-0.703736,-4.828349,-0.26709068,0.0018455337,0.0027404597,0.0,-0.011273501,-0.0138325,0.022816207,0.019470775,0.029180843,-0.008581807,0.052221604,0.0014579899,-0.02237924,0.0011263982,0.5783882,0.00507739,86.623116,0.10514739,0.2347773,0.39112347,0.12882416,0.10631845,inf,inf,inf,inf,1,1,1,1,2,0,2,1,3,1,1,1
78928892,15448849,49.0896588,2.1104546,-0.7037252,-4.830712,-0.2625543,0.0018455337,0.0027404597,0.0,-0.010227419,-0.014678569,0.024678253,0.023537084,0.029180843,-0.008581807,0.052221604,-0.00429906,-0.0064328522,0.0073349937,0.5783574,0.00507739,86.623116,0.10674724,0.22608432,0.39101723,0.124272555,0.10506173,inf,inf,inf,inf,1,1,1,1,2,0,2,1,3,1,1,1
79028849,15448849,49.0896588,2.1104546,-0.70342726,-4.8337893,-0.25850305,0.0018455337,0.0027404597,0.0,-0.009598606,-0.016292656,0.025784435,0.025892366,0.029180843,-0.008581807,0.052221604,-0.017930059,-0.019352848,-0.05339019,0.5783619,0.00507739,86.623116,0.100367755,0.23471469,0.39283454,0.12876055,0.10650145,inf,inf,inf,inf,1,1,1,1,2,0,2,1,3,1,1,1
79128849,15448849,49.0896588,2.1104546,-0.7032663,-4.8354197,-0.25628117,0.0018455337,0.0027404597,0.0,-0.00994116,-0.015765611,0.026692914,0.02608249,0.029180843,-0.008581807,0.052221604,-0.01761615,0.015932126,0.0020591512,0.5783732,0.00507739,86.623116,0.1,0.22613375,0.39028502,0.12430658,0.10499173,inf,inf,inf,inf,1,1,1,1,2,0,2,1,3,1,1,1
79228849,15448849,49.0896588,2.1104546,-0.7031464,-4.8354015,-0.2547432,0.0018455337,0.0027404597,0.0,-0.009756844,-0.014010968,0.026899634,0.024915082,0.029180843,-0.008581807,0.052221604,-0.008480926,-0.008333772,-0.020698255,0.5784152,0.00507739,86.623116,0.1,0.23476908,0.39209285,0.1288009,0.106428474,inf,inf,inf,inf,1,1,1,1,2,0,2,1,3,1,1,1
79328849,15448849,49.0896588,2.1104546,-0.70294607,-4.835394,-0.25434682,0.0018455337,0.0027404597,0.0,-0.009516644,-0.012372394,0.02701046,0.022607906,0.029180843,-0.008581807,0.052221604,-0.007277387,0.0013130793,-0.011769871,0.5783464,0.00507739,86.623116,0.1,0.22617856,0.38955742,0.12434107,0.10492166,inf,inf,inf,inf,1,1,1,1,2,0,2,1,3,1,1,1
79428849,15448849,49.0896588,2.1104546,-0.7025144,-4.835373,-0.25472757,0.0018455337,0.0027404597,0.0,-0.008730795,-0.010840952,0.027185356,0.019972455,0.029180843,-0.008581807,0.052221604,0.0041948524,0.012179008,0.04474129,0.5782371,0.00507739,86.623116,0.1,0.23481822,0.39133912,0.12883262,0.10635092,inf,inf,inf,inf,1,1,1,1,2,0,2,1,3,1,1,1
79528849,15448849,49.0896588,2.1104546,-0.7025478,-4.835518,-0.25389612,0.0018455337,0.0027404597,0.0,-0.009134616,-0.009652831,0.026843341,0.018423954,0.029180843,-0.008581807,0.052221604,-0.0053537595,0.012799659,-0.008679821,0.5781539,0.00507739,86.623116,0.1,0.2261181,0.39122528,0.12427526,0.105091125,inf,inf,inf,inf,1,1,1,1,2,0,2,1,3,1,1,1
79628874,15448849,49.0896588,2.1104546,-0.70308065,-4.835934,-0.25196096,0.0018455337,0.0027404597,0.0,-0.009403729,-0.008760301,0.027466489,0.019063767,0.029180843,-0.008581807,0.052221604,-0.009936105,0.011365233,0.023677554,0.57809305,0.00507739,86.623116,0.1,0.23475043,0.39303038,0.12876396,0.10652757,inf,inf,inf,inf,1,1,1,1,2,0,2,1,3,1,1,1
79728849,15448849,49.0896588,2.1104546,-0.70232177,-4.8359184,-0.24943365,0.0018455337,0.0027404597,0.0,-0.009394845,-0.007377461,0.027793894,0.019986005,0.029180843,-0.008581807,0.052221604,-0.026880698,0.0029204504,0.0039333664,0.57806206,0.00507739,86.623116,0.101649925,0.2260626,0.39046377,0.12422077,0.10500124,inf,inf,inf,inf,1,1,1,1,2,0,2,1,3,1,1,1
79828852,15448849,49.0896588,2.1104546,-0.6988591,-4.835113,-0.24668331,0.0018455337,0.0027404597,0.0,-0.0074111926,-0.0052990196,0.028659882,0.021480141,0.029180843,-0.008581807,0.052221604,-0.019725002,0.015702521,-0.009621454,0.57808566,0.00507739,86.623116,0.1,0.23468874,0.39225867,0.1287104,0.10643475,inf,inf,inf,inf,1,1,1,1,2,0,2,1,3,1,1,1
79928852,15448849,49.0896588,2.1104546,-0.6958413,-4.8345327,-0.24382205,0.0018455337,0.0027404597,0.0,-0.0052427994,-0.003938704,0.028761487,0.022213086,0.029180843,-0.008581807,0.052221604,-0.013803939,0.014154782,-0.009003471,0.5780201,0.00507739,86.623116,0.10059734,0.22601199,0.3897001,0.12417683,0.10491082,inf,inf,inf,inf,1,1,1,1,2,0,2,1,3,1,1,1
80028855,15448849,49.0896588,2.1104546,-0.6926294,-4.8342423,-0.23998822,0.0018455337,0.0027404597,0.0,-0.003558178,-0.002660055,0.029628323,0.02451788,0.029180843,-0.008581807,0.052221604,-0.0028062696,-0.0042798645,-0.018290052,0.5779624,0.00507739,86.623116,0.1,0.23463279,0.39148474,0.1286648,0.10634134,inf,inf,inf,inf,1,1,1,1,2,0,2,1,3,1,1,1
80128852,15448849,49.0896588,2.1104546,-0.6899016,-4.834098,-0.23652777,0.0018455337,0.0027404597,0.0,-0.002095685,-0.0022233452,0.029722808,0.02543276,0.029180843,-0.008581807,0.052221604,-0.001335554,0.011130894,-0.00063964265,0.5778906,0.00507739,86.623116,0.1,0.22596596,0.38895068,0.12414373,0.10482423,inf,inf,inf,inf,1,1,1,1,2,0,2,1,3,1,1,1
80228902,15448849,49.0896588,2.1104546,-0.68717706,-4.8342514,-0.23379777,0.0018455337,0.0027404597,0.0,-0.0006019534,-0.001803428,0.029769147,0.025492985,0.029180843,-0.008581807,0.052221604,-0.004599757,-0.0090395985,-0.018181326,0.57786113,0.00507739,86.623116,0.1,0.2345825,0.39319146,0.12863198,0.10652374,inf,inf,inf,inf,1,1,1,1,2,0,2,1,3,1,1,1
80328863,15448849,49.0896588,2.1104546,-0.6843405,-4.834777,-0.2306796,0.0018455337,0.0027404597,0.0,0.00076638645,-0.0021959445,0.03038829,0.02652876,0.029180843,-0.008581807,0.052221604,-0.0025989814,-0.008159207,-0.018794233,0.57793313,0.00507739,86.623116,0.1,0.22592461,0.3906251,0.1241154,0.10499892,inf,inf,inf,inf,1,1,1,1,2,0,2,1,3,1,1,1
80428859,15448849,49.0896588,2.1104546,-0.68051815,-4.8359957,-0.22735478,0.0018455337,0.0027404597,0.0,0.0024169232,-0.002066536,0.031680718,0.028342593,0.029180843,-0.008581807,0.052221604,-0.013962876,0.0014789287,0.0076561575,0.5780233,0.00507739,86.623116,0.1,0.23453748,0.3924316,0.12860407,0.10643596,inf,inf,inf,inf,1,1,1,1,2,0,2,1,3,1,1,1
80528849,15448849,49.0896588,2.1104546,-0.67724335,-4.837441,-0.22630277,0.0018455337,0.0027404597,0.0,0.0033755507,-0.0019251407,0.031602986,0.026396716,0.029180843,-0.008581807,0.052221604,0.022523891,0.004624099,-0.012695233,0.5781063,0.00507739,86.623116,0.1,0.2258876,0.3898807,0.12409313,0.10491532,inf,inf,inf,inf,1,1,1,1,2,0,2,1,3,1,1,1
80628857,15448849,49.0896588,2.1104546,-0.6739954,-4.839586,-0.22781493,0.0018455337,0.0027404597,0.0,0.0042268513,-0.0021536313,0.030769378,0.021517996,0.029180843,-0.008581807,0.052221604,-0.011764799,0.012752409,-0.0067655155,0.5781075,0.00507739,86.623116,0.1,0.23449731,0.39167714,0.12857626,0.10634928,inf,inf,inf,inf,1,1,1,1,2,0,2,1,3,1,1,1
80728874,15448849,49.0896588,2.1104546,-0.67082936,-4.84075,-0.22974803,0.0018455337,0.0027404597,0.0,0.005127289,-0.0019299019,0.029462289,0.016293561,0.029180843,-0.008581807,0.052221604,-0.020160891,0.014241727,-0.004224569,0.57814205,0.00507739,86.623116,0.1,0.2259548,0.38915622,0.12416092,0.1048483,inf,inf,inf,inf,1,1,1,1,2,0,2,1,3,1,1,1
80828849,15448849,49.0896588,2.1104546,-0.6675048,-4.840979,-0.2315169,0.0018455337,0.0027404597,0.0,0.0061819605,-0.0022015118,0.027683733,0.011420295,0.029180843,-0.008581807,0.052221604,-0.0027508524,-0.010033276,0.008255799,0.5780787,0.00507739,86.623116,0.1,0.23457266,0.39340532,0.12864944,0.10654951,inf,inf,inf,inf,1,1,1,1,2,0,2,1,3,1,1,1
80928849,15448849,49.0896588,2.1104546,-0.6646657,-4.8407288,-0.23217921,0.0018455337,0.0027404597,0.0,0.0073286765,-0.0017915401,0.027043086,0.009212311,0.029180843,-0.008581807,0.052221604,-0.00021343355,-0.0020470552,-0.017803352,0.57811165,0.00507739,86.623116,0.1,0.22591622,0.39082766,0.12413246,0.105021626,inf,inf,inf,inf,1,1,1,1,2,0,2,1,3,1,1,1
81028851,15448849,49.0896588,2.1104546,-0.6619615,-4.839643,-0.23302932,0.0018455337,0.0027404597,0.0,0.008202317,-0.001171661,0.025912834,0.0066054333,0.029180843,-0.008581807,0.052221604,-0.002316184,-0.011030549,-0.02983008,0.578219,0.00507739,86.623116,0.1,0.2345306,0.39262167,0.1286253,0.10645542,inf,inf,inf,inf,1,1,1,1,2,0,2,1,3,1,1,1
81128859,15448849,49.0896588,2.1104546,-0.6597525,-4.839085,-0.23328312,0.0018455337,0.0027404597,0.0,0.008401904,0.00061402057,0.025883669,0.0058749486,0.029180843,-0.008581807,0.052221604,-0.0032931108,0.015079821,0.017962795,0.57829154,0.00507739,86.623116,0.1,0.22598203,0.39006767,0.124201916,0.104946,inf,inf,inf,inf,1,1,1,1,2,0,2,1,3,1,1,1
81228861,15448849,49.0896588,2.1104546,-0.6579536,-4.8390636,-0.23335718,0.0018455337,0.0027404597,0.0,0.007545017,0.0011934562,0.024865216,0.004478492,0.029180843,-0.008581807,0.052221604,-0.01653273,-0.011117297,-0.014248256,0.5783525,0.00507739,86.623116,0.1,0.23460422,0.39185247,0.12869425,0.10637712,inf,inf,inf,inf,1,1,1,1,2,0,2,1,3,1,1,1
81328868,15448849,49.0896588,2.1104546,-0.6553513,-4.838895,-0.2342702,0.0018455337,0.0027404597,0.0,0.007759737,0.0014780698,0.023506276,0.002074483,0.029180843,-0.008581807,0.052221604,0.01234834,-0.003081503,0.0021985918,0.5784227,0.00507739,86.623116,0.1,0.22604257,0.38931417,0.12425831,0.104871206,inf,inf,inf,inf,1,1,1,1,2,0,2,1,3,1,1,1
81428849,15448849,49.0896588,2.1104546,-0.65162265,-4.8385534,-0.23639525,0.0018455337,0.0027404597,0.0,0.008694505,0.0026507278,0.022237366,-0.001146783,0.029180843,-0.008581807,0.052221604,-0.0096897585,-0.0011376672,0.004521446,0.5784479,0.00507739,86.623116,0.1,0.2346714,0.39356276,0.12875238,0.10657229,inf,inf,inf,inf,1,1,1,1,2,0,2,1,3,1,1,1
81528851,15448849,49.0896588,2.1104546,-0.64763254,-4.8377814,-0.23779115,0.0018455337,0.0027404597,0.0,0.010498125,0.0031731923,0.0222465,-0.0021411697,0.029180843,-0.008581807,0.052221604,-0.0103816,0.00090097194,0.01017649,0.57838833,0.00507739,86.623116,0.1,0.22609776,0.39099196,0.12430552,0.10505789,inf,inf,inf,inf,1,1,1,1,2,0,2,1,3,1,1,1
81628851,15448849,49.0896588,2.1104546,-0.6430427,-4.8365774,-0.23971373,0.0018455337,0.0027404597,0.0,0.012501755,0.003992432,0.021399984,-0.0043133753,0.029180843,-0.008581807,0.052221604,0.015700944,0.019179797,0.012287567,0.5784016,0.00507739,86.623116,0.1,0.23473236,0.39280018,0.12879795,0.10649569,inf,inf,inf,inf,1,1,1,1,2,0,2,1,3,1,1,1
81728851,15448849,49.0896588,2.1104546,-0.63930035,-4.8357387,-0.23994707,0.0018455337,0.0027404597,0.0,0.013545338,0.0046434538,0.020746652,-0.004387576,0.029180843,-0.008581807,0.052221604,0.0099961655,-0.0070889625,0.0029509857,0.57840836,0.00507739,86.623116,0.1,0.226148,0.3902528,0.12434108,0.10498684,inf,inf,inf,inf,1,1,1,1,2,0,2,1,3,1,1,1
81828849,15448849,49.0896588,2.1104546,-0.63633186,-4.8353457,-0.23830214,0.0018455337,0.0027404597,0.0,0.013453904,0.004863992,0.021217864,-0.001607131,0.029180843,-0.008581807,0.052221604,-0.010901346,-0.00039089046,0.000794373,0.5784363,0.00507739,86.623116,0.100809306,0.23478723,0.39205185,0.12883429,0.106421806,inf,inf,inf,inf,1,1,1,1,2,0,2,1,3,1,1,1
81928862,15448849,49.0896588,2.1104546,-0.6330634,-4.835586,-0.23724675,0.0018455337,0.0027404597,0.0,0.013701322,0.0054743844,0.021674126,0.00019661628,0.029180843,-0.008581807,0.052221604,-0.002085832,0.0058364384,0.027563658,0.57845545,0.00507739,86.623116,0.1,0.22619314,0.3895109,0.12437359,0.10491386,inf,inf,inf,inf,1,1,1,1,2,0,2,1,3,1,1,1
82028850,15448849,49.0896588,2.1104546,-0.62928426,-4.8366165,-0.2368864,0.0018455337,0.0027404597,0.0,0.014402145,0.004608033,0.021265138,0.00029221678,0.029180843,-0.008581807,0.052221604,0.0050006695,0.01855637,0.0010717986,0.5785072,0.00507739,86.623116,0.1,0.23483641,0.39130047,0.1288657,0.10634583,inf,inf,inf,inf,1,1,1,1,2,0,2,1,3,1,1,1
82128852,15448849,49.0896588,2.1104546,-0.62650716,-4.837958,-0.23641153,0.0018455337,0.0027404597,0.0,0.013874526,0.004045264,0.021252902,0.00088441605,0.029180843,-0.008581807,0.052221604,-0.0033054745,0.0061962497,0.0024786445,0.57848537,0.00507739,86.623116,0.1,0.22627895,0.3887823,0.12440679,0.10484322,inf,inf,inf,inf,1,1,1,1,2,0,2,1,3,1,1,1
82228849,15448849,49.0896588,2.1104546,-0.6247014,-4.8397727,-0.23493959,0.0018455337,0.0027404597,0.0,0.013088483,0.0026805978,0.021729272,0.0028114791,0.029180843,-0.008581807,0.052221604,0.0036156424,0.005286068,-0.015918313,0.578426,0.00507739,86.623116,0.1,0.234927,0.3930258,0.12890072,0.10654383,inf,inf,inf,inf,1,1,1,1,2,0,2,1,3,1,1,1
82328895,15448849,49.0896588,2.1104546,-0.62341887,-4.8420763,-0.23397262,0.0018455337,0.0027404597,0.0,0.012283338,0.0013188728,0.021773243,0.0036375348,0.029180843,-0.008581807,0.052221604,0.005935704,0.017957922,-0.0049899835,0.57849604,0.00507739,86.623116,0.1,0.22635396,0.3904742,0.12443214,0.105032235,inf,inf,inf,inf,1,1,1,1,2,0,2,1,3,1,1,1
82428853,15448849,49.0896588,2.1104546,-0.6226232,-4.8450394,-0.23320988,0.0018455337,0.0027404597,0.0,0.0111055495,-0.00040176144,0.02131144,0.0036505247,0.029180843,-0.008581807,0.052221604,-0.00066028594,-0.0007611186,-0.025780734,0.5784887,0.00507739,86.623116,0.1,0.23500572,0.39227054,0.12892646,0.10646617,inf,inf,inf,inf,1,1,1,1,2,0,2,1,3,1,1,1
82528854,15448849,49.0896588,2.1104546,-0.6208745,-4.847347,-0.23255923,0.0018455337,0.0027404597,0.0,0.01005006,-0.0013178819,0.020825326,0.0035292362,0.029180843,-0.008581807,0.052221604,-0.028045097,0.008372853,-0.025035763,0.5783673,0.00507739,86.623116,0.1,0.22646414,0.38971764,0.12446245,0.104953706,inf,inf,inf,inf,1,1,1,1,2,0,2,1,3,1,1,1
82628851,15448849,49.0896588,2.1104546,-0.6179699,-4.8490295,-0.23152079,0.0018455337,0.0027404597,0.0,0.010525754,-0.001334292,0.021407632,0.0048223906,0.029180843,-0.008581807,0.052221604,0.008445511,0.010731532,-0.017277915,0.5783008,0.00507739,86.623116,0.1,0.23512039,0.3914961,0.12895805,0.106382504,inf,inf,inf,inf,1,1,1,1,2,0,2,1,3,1,1,1
82728851,15448849,49.0896588,2.1104546,-0.6150722,-4.850154,-0.23027773,0.0018455337,0.0027404597,0.0,0.011049342,-0.0021695215,0.020671774,0.0049124537,0.029180843,-0.008581807,0.052221604,-0.001476124,-0.008253053,-0.030400049,0.5781227,0.00507739,86.623116,0.10045256,0.22645852,0.39138502,0.124397494,0.10512217,inf,inf,inf,inf,1,1,1,1,2,0,2,1,3,1,1,1
82828851,15448849,49.0896588,2.1104546,-0.6115539,-4.850657,-0.22901855,0.0018455337,0.0027404597,0.0,0.01200398,-0.0022694652,0.020553645,0.005561416,0.029180843,-0.008581807,0.052221604,0.004695448,-0.008716097,-0.011160414,0.5780576,0.00507739,86.623116,0.1,0.23510732,0.39319536,0.12888971,0.10656035,inf,inf,inf,inf,1,1,1,1,2,0,2,1,3,1,1,1
82928851,15448849,49.0896588,2.1104546,-0.60733956,-4.850851,-0.22749066,0.0018455337,0.0027404597,0.0,0.013219807,-0.0018877354,0.020726705,0.006678906,0.029180843,-0.008581807,0.052221604,-0.00417374,0.006060498,-0.013814311,0.57806844,0.00507739,86.623116,0.10144323,0.22654937,0.390635,0.1244328,0.105046585,inf,inf,inf,inf,1,1,1,1,2,0,2,1,3,1,1,1
83028851,15448849,49.0896588,2.1104546,-0.6021586,-4.850704,-0.22543745,0.0018455337,0.0027404597,0.0,0.014935553,-0.0012542205,0.021486394,0.008719849,0.029180843,-0.008581807,0.052221604,0.0029424105,-0.0005972263,0.053610735,0.5781709,0.00507739,86.623116,0.1,0.23520218,0.39243585,0.12892504,0.10648186,inf,inf,inf,inf,1,1,1,1,2,0,2,1,3,1,1,1
83128849,15448849,49.0896588,2.1104546,-0.5982025,-4.8509164,-0.22440536,0.0018455337,0.0027404597,0.0,0.015342084,-0.0005410213,0.022359502,0.009587352,0.029180843,-0.008581807,0.052221604,-0.0030659875,-0.0016567088,-0.011615898,0.5782258,0.00507739,86.623116,0.1,0.22658296,0.38986626,0.124448776,0.104965106,inf,inf,inf,inf,1,1,1,1,2,0,2,1,3,1,1,1
83228887,15448849,49.0896588,2.1104546,-0.5953837,-4.8515315,-0.22368483,0.0018455337,0.0027404597,0.0,0.015138382,0.0002296099,0.022570303,0.0094585065,0.029180843,-0.008581807,0.052221604,0.004774587,0.008272435,0.014545818,0.57826036,0.00507739,86.623116,0.1,0.23523708,0.39164087,0.1289395,0.10639311,inf,inf,inf,inf,1,1,1,1,2,0,2,1,3,1,1,1
83328852,15448849,49.0896588,2.1104546,-0.59232694,-4.8534117,-0.22500968,0.0018455337,0.0027404597,0.0,0.014524139,-0.0007529792,0.02135657,0.0058925776,0.029180843,-0.008581807,0.052221604,-0.019679457,0.016856745,-0.016053211,0.5783079,0.00507739,86.623116,0.1,0.22661203,0.39152375,0.12445869,0.10514298,inf,inf,inf,inf,1,1,1,1,2,0,2,1,3,1,1,1
83428858,15448849,49.0896588,2.1104546,-0.58879435,-4.856865,-0.22831407,0.0018455337,0.0027404597,0.0,0.015058562,-0.0027732179,0.01979736,0.0005690676,0.029180843,-0.008581807,0.052221604,-0.013334832,-0.0070888205,-0.010937152,0.5783482,0.00507739,86.623116,0.1,0.23526704,0.39332253,0.12894833,0.106578395,inf,inf,inf,inf,1,1,1,1,2,0,2,1,3,1,1,1
83528855,15448849,49.0896588,2.1104546,-0.5855751,-4.8595047,-0.23175858,0.0018455337,0.0027404597,0.0,0.015441188,-0.0040845554,0.018958844,-0.0035790228,0.029180843,-0.008581807,0.052221604,0.0066893464,0.0016195541,0.014822256,0.57840014,0.00507739,86.623116,0.1,0.22663683,0.39074755,0.12446597,0.10506068,inf,inf,inf,inf,1,1,1,1,2,0,2,1,3,1,1,1
83628844,15448849,49.0896588,2.1104546,-0.5824889,-4.8613954,-0.2364651,0.0018455337,0.0027404597,0.0,0.015453508,-0.004479345,0.017731804,-0.008817671,0.029180843,-0.008581807,0.052221604,0.0009868166,-0.0022350857,-0.010950379,0.57841635,0.00507739,86.623116,0.1,0.23529251,0.39253694,0.12895952,0.10649342,inf,inf,inf,inf,1,1,1,1,2,0,2,1,3,1,1,1
