timestamp,timestamp_sample,accel_device_id,gyro_device_id,delta_angle[0],delta_angle[1],delta_angle[2],delta_velocity[0],delta_velocity[1],delta_velocity[2],delta_angle_dt,delta_velocity_dt,delta_velocity_clipping
66128535,66128007,2359306,2359306,2.7583952e-05,-9.3661635e-07,1.0311407e-05,0.0002609971,0.0016377727,-0.049413733,4999,4999,0
66628518,66628014,2359306,2359306,1.8943652e-05,1.2209208e-06,-1.9501833e-06,0.00019320086,0.0018104193,-0.049540397,5005,5005,0
68128526,68128013,2359306,2359306,1.7228931e-05,1.080402e-05,-1.2750232e-06,0.0002442791,0.0017190258,-0.049434938,5000,5000,0
68628640,68628015,2359306,2359306,2.5158035e-05,1.0194422e-05,-1.2417527e-06,0.00027150175,0.0016239339,-0.049341336,4999,4999,0
69128533,69128019,2359306,2359306,2.9230018e-06,4.8196744e-06,-4.708725e-06,0.00023888414,0.0018324153,-0.049441814,4999,4999,0
69633536,69633029,2359306,2359306,-3.581432e-05,-6.4741016e-06,9.064392e-06,0.00031117586,0.0017607498,-0.049569275,4997,4997,0
70128534,70128027,2359306,2359306,-7.057445e-06,5.07402e-06,3.595658e-06,0.0002662524,0.0017422354,-0.049471498,5000,5000,0
70628543,70628031,2359306,2359306,6.659202e-06,5.4022024e-07,-2.5247302e-06,0.00025479932,0.0016602249,-0.049482465,5000,5000,0
71128606,71128039,2359306,2359306,2.9409628e-05,9.638163e-06,1.3703905e-05,0.00024099713,0.0017051882,-0.049274046,5001,5001,0
71628561,71628057,2359306,2359306,-3.316632e-05,-3.2241185e-06,1.8904137e-06,9.61188e-05,0.0016508471,-0.049363922,5013,5013,0
72128615,72128049,2359306,2359306,-3.0618157e-05,4.0229634e-06,-4.134441e-06,0.00017963606,0.0017387769,-0.049286563,4996,4996,0
72628564,72628056,2359306,2359306,7.446474e-05,9.604445e-07,-4.638668e-06,0.00020612139,0.0017788475,-0.04949716,5000,5000,0
73128570,73128066,2359306,2359306,1.3238291e-05,6.359958e-06,5.270864e-06,5.9356807e-05,0.0016753203,-0.049434293,5001,5001,0
73628656,73628072,2359306,2359306,-3.4816399e-06,2.6674388e-07,-1.684802e-06,0.00024817872,0.001708298,-0.04956615,4993,4993,0
74128611,74128081,2359306,2359306,-7.65882e-06,-4.788621e-06,-8.478297e-07,0.0002480953,0.0017749675,-0.049225394,4990,4990,0
74628615,74628104,2359306,2359306,3.6010215e-06,6.925591e-06,8.434358e-06,0.00023199042,0.0018411926,-0.049334165,5002,5002,0
75128689,75128125,2359306,2359306,-2.9849089e-05,1.1967418e-05,4.5464126e-06,0.00029225953,0.0016700978,-0.04962963,5021,5021,0
75628636,75628123,2359306,2359306,-2.1543726e-06,-3.3231688e-06,2.0712212e-06,0.00033678673,0.001652622,-0.049432945,5010,5010,0
76128727,76128134,2359306,2359306,2.8726996e-05,8.0797315e-07,-3.107532e-06,0.00012529304,0.0018046829,-0.049574833,5012,5012,0
76628646,76628137,2359306,2359306,-1.5865267e-07,8.185785e-06,-5.280727e-06,0.00021025498,0.0018785335,-0.04915172,4996,4996,0
77128676,77128149,2359306,2359306,-4.12954e-05,7.0103138e-06,5.515099e-06,0.00017152824,0.0016050652,-0.049333982,5001,5001,0
77633686,77633169,2359306,2359306,-2.5702914e-06,9.584285e-06,1.7733956e-06,0.0002209249,0.0017219576,-0.049263045,4995,4995,0
78128679,78128175,2359306,2359306,1.2516935e-05,-2.0973912e-06,5.6463164e-06,0.00022030658,0.0017090128,-0.04939385,5003,5003,0
78628743,78628189,2359306,2359306,4.2974734e-06,4.698253e-06,6.0388784e-06,0.00025552622,0.0017895414,-0.049372394,5000,5000,0
79128759,79128204,2359306,2359306,-1.7338727e-05,-9.408152e-07,1.5286834e-05,0.00015241199,0.0017222258,-0.049327005,5002,5002,0
79628738,79628228,2359306,2359306,-1.9830715e-05,8.367098e-06,1.3208767e-05,0.00036943163,0.0016552368,-0.049319062,5008,5008,0
80128752,80128235,2359306,2359306,4.3099276e-06,1.2333529e-06,7.94932e-06,0.00021274482,0.0016163443,-0.049288068,4993,4993,0
80633782,80633251,2359306,2359306,2.5343012e-05,8.451037e-06,3.9095326e-06,0.00038075904,0.0017231434,-0.04916005,4976,4976,0
81128829,81128274,2359306,2359306,-8.780092e-06,-5.6031035e-07,6.4084206e-06,0.00024822814,0.0017248744,-0.049450282,5001,5001,0
81628832,81628284,2359306,2359306,-8.933689e-06,4.2430447e-06,5.389327e-06,0.00027517483,0.0016504137,-0.0494235,4996,4996,0
82128816,82128301,2359306,2359306,1.1680567e-05,6.1821797e-06,-5.525296e-06,0.00024046998,0.0016545054,-0.04938528,5000,5000,0
82633829,82633322,2359306,2359306,4.1061894e-06,6.933513e-06,6.710392e-06,0.00023317724,0.0016562829,-0.049263757,5000,5000,0
83128933,83128338,2359306,2359306,1.3816081e-05,8.870968e-06,-4.5170677e-07,0.00022485247,0.0017429652,-0.049321562,4992,4992,0
83628934,83628358,2359306,2359306,-9.775774e-06,-4.13152e-06,1.2313124e-05,0.0003032176,0.0016958318,-0.049168978,4995,4995,0
85128982,85128422,2359306,2359306,-1.0549724e-05,3.711742e-06,-2.4486922e-06,0.00018804857,0.0017547235,-0.049324,4999,4999,0
85629024,85628444,2359306,2359306,6.6335207e-07,7.105708e-06,1.4465594e-06,0.00022312922,0.0015882631,-0.049109537,4988,4988,0
86129027,86128465,2359306,2359306,6.0144716e-06,-9.694542e-07,5.519094e-06,0.0002603437,0.0017820867,-0.04924894,4996,4996,0
86629024,86628489,2359306,2359306,-2.5598752e-05,7.198848e-06,9.554641e-06,0.00027843408,0.0016554049,-0.04924111,4998,4998,0
87129047,87128512,2359306,2359306,-9.1863085e-06,1.0153701e-06,1.6642452e-06,5.9260725e-05,0.0018312718,-0.04919058,4997,4997,0
87629050,87628536,2359306,2359306,-5.010491e-06,1.4101956e-05,-4.3455086e-07,0.0003238937,0.0015781107,-0.049145006,4992,4992,0
88129074,88128561,2359306,2359306,-3.9550858e-05,4.505393e-06,1.9711717e-05,9.762996e-05,0.0017077398,-0.049417756,5000,5000,0
88629108,88628587,2359306,2359306,7.511062e-05,2.9761052e-06,-6.9838543e-06,0.00025011736,0.001699125,-0.049241755,4996,4996,0
89129159,89128622,2359306,2359306,-2.3637955e-05,1.4583347e-06,2.1104293e-06,0.00018308051,0.0018714182,-0.04941092,5009,5009,0
89629178,89628661,2359306,2359306,-5.854627e-05,1.0339592e-05,1.0866496e-05,0.0002287341,0.0017839842,-0.04956887,5022,5022,0
90129191,90128667,2359306,2359306,-3.0076559e-05,4.890991e-06,5.285123e-06,0.0002867264,0.0017923575,-0.049107935,5000,5000,0
90629213,90628694,2359306,2359306,-5.370332e-06,1.8979447e-06,-7.7249274e-07,0.00016381571,0.0017821875,-0.049394973,5000,5000,0
91129441,91128723,2359306,2359306,-6.858599e-06,1.2025645e-05,-3.1530512e-06,0.0002852319,0.0016072064,-0.0494532,5000,5000,0
91629433,91628759,2359306,2359306,-1.6929298e-05,5.0492863e-06,-1.7195309e-06,0.00020872109,0.0014835122,-0.049365915,5007,5007,0
93129553,93128854,2359306,2359306,7.8845045e-07,1.3400818e-05,8.636029e-06,0.00027404423,0.0016880604,-0.049334347,4999,4999,0
93629562,93628874,2359306,2359306,-1.0377141e-05,1.3202429e-05,-1.5079427e-06,0.0002950448,0.0017825107,-0.04937227,5000,5000,0
94129566,94128916,2359306,2359306,1.8848867e-05,4.5288944e-06,-1.5435165e-06,0.00022134189,0.0017238089,-0.049346983,5011,5011,0
94629683,94628951,2359306,2359306,2.8127188e-06,3.7625337e-06,2.3809607e-06,0.00021470626,0.0015995776,-0.04935785,5014,5014,0
95129619,95128976,2359306,2359306,-1.170318e-05,-4.9935607e-06,4.0936857e-06,0.00022321215,0.0015489897,-0.04925409,5006,5006,0
95629625,95629006,2359306,2359306,5.4418168e-05,1.2923919e-06,-8.435264e-06,0.00036940753,0.0016012415,-0.04911282,4988,4988,0
96129748,96129040,2359306,2359306,5.593232e-05,1.5869802e-05,-1.5123874e-05,0.00023521656,0.0017301355,-0.049269833,5003,5003,0
96629665,96629072,2359306,2359306,-2.3909613e-05,-4.1818575e-06,2.4938674e-06,0.00023010382,0.0017006806,-0.049396686,5001,5001,0
97129752,97129124,2359306,2359306,-5.439077e-05,7.318528e-06,6.2575796e-06,0.00028900182,0.0016285891,-0.04938348,5014,5014,0
97629919,97629153,2359306,2359306,2.8933398e-05,1.2744741e-05,-7.740441e-06,0.00019226794,0.0015825083,-0.0493419,5008,5008,0
98129735,98129180,2359306,2359306,6.852034e-05,-4.147594e-06,-1.3040784e-05,0.00028809134,0.0016685696,-0.049231,4999,4999,0
98629811,98629222,2359306,2359306,2.5946845e-06,1.8597186e-05,-2.9734863e-07,0.00024150973,0.001698943,-0.04914958,4997,4997,0
99129830,99129253,2359306,2359306,-1.6795166e-05,8.866228e-06,1.0490291e-05,0.00014032221,0.0016162826,-0.04930618,4987,4987,0
100631309,100629380,2359306,2359306,4.6246758e-05,1.2921174e-05,-2.8097784e-07,0.00023302402,0.0014128943,-0.049478557,5012,5012,0
101130922,101129408,2359306,2359306,7.665772e-05,1.0846911e-06,-2.7441142e-06,0.000299903,0.0016962308,-0.049133476,5000,5000,0
101630740,101629448,2359306,2359306,6.248704e-05,2.6208556e-05,-2.2109705e-05,0.00039592566,0.0023167543,-0.048961733,5000,5000,0
102130994,102129489,2359306,2359306,-2.215751e-05,1.5711645e-05,6.6770826e-06,0.00027984468,0.0020262569,-0.048241153,4994,4994,0
102631181,102629543,2359306,2359306,1.812655e-05,1.1531069e-05,-1.5234671e-05,0.00025074653,0.0021979392,-0.049629398,5014,5014,0
103130913,103129571,2359306,2359306,-4.3157743e-05,1.0565946e-05,-3.2411005e-09,0.00011034302,0.00214069,-0.048541825,5000,5000,0
103631123,103629613,2359306,2359306,5.689606e-05,3.8457583e-06,4.5181594e-07,0.00029306978,0.0017268368,-0.049933854,4999,4999,0
104130877,104129656,2359306,2359306,-4.59185e-05,2.4454865e-05,1.3555272e-05,0.00026755675,0.0018773853,-0.048389815,5001,5001,0
104631075,104629700,2359306,2359306,6.210418e-06,1.4292892e-05,-1.7088898e-05,0.00021602234,0.0014225978,-0.049176835,5002,5002,0
105131048,105129742,2359306,2359306,0.0001389492,1.4066403e-05,-1.4862653e-05,0.00017040942,0.0017081326,-0.048880868,4996,4996,0
105630858,105629796,2359306,2359306,-6.5325185e-05,6.290294e-06,9.013305e-06,0.0002838901,0.0017968256,-0.049146116,4994,4994,0
106130880,106129832,2359306,2359306,-0.00010138433,-1.7863711e-06,1.6582626e-05,0.00017984577,0.0019350055,-0.049896423,4998,4998,0
106631062,106629876,2359306,2359306,-0.00011388775,-5.5719365e-06,5.8920964e-06,0.00011285366,0.0015402593,-0.04927457,5000,5000,0
107130927,107129921,2359306,2359306,2.288583e-05,7.706833e-06,-5.442333e-06,0.00022991044,0.0016755774,-0.049141288,4993,4993,0
107630839,107629968,2359306,2359306,3.4388402e-05,7.5278836e-06,-6.457544e-06,0.00010926824,0.00158095,-0.049176946,4999,4999,0
108130995,108130015,2359306,2359306,5.092696e-05,1.67758e-06,-1.1932756e-05,5.1350635e-05,0.0018067379,-0.049310654,4991,4991,0
108630994,108630062,2359306,2359306,9.334694e-06,4.083612e-06,-3.0455606e-06,0.00021814313,0.0017253828,-0.04915276,5001,5001,0
109130916,109130111,2359306,2359306,7.72823e-06,-7.594781e-07,4.1708913e-06,0.00021614366,0.0016275806,-0.049307656,4998,4998,0
109630865,109630157,2359306,2359306,9.681252e-06,-3.2712824e-06,-1.5645319e-05,0.00029304944,0.0018212455,-0.04933279,4992,4992,0
110130888,110130206,2359306,2359306,-2.9016428e-05,7.268983e-07,-5.1453158e-06,0.00021316145,0.0016150619,-0.048891906,4999,4999,0
110630961,110630255,2359306,2359306,1.6584807e-05,1.3042023e-05,-7.98297e-06,0.00022381762,0.0009868706,-0.04912789,4999,4999,0
111630911,111630355,2359306,2359306,-0.00015645211,-3.5555552e-06,1.5933105e-05,8.845713e-05,0.0018393757,-0.048822965,5000,5000,0
112130929,112130406,2359306,2359306,-7.7259116e-05,2.5613017e-06,3.3625078e-05,0.00017156311,0.0014130747,-0.049724847,5003,5003,0
112631014,112630457,2359306,2359306,-3.6593374e-05,-3.449422e-07,-3.2360464e-07,9.239092e-05,0.0014073246,-0.049549844,5002,5002,0
113131029,113130517,2359306,2359306,0.00015838878,-1.3023845e-06,-1.9758329e-05,0.00021229319,0.0018044963,-0.049506795,5011,5011,0
114131183,114130613,2359306,2359306,-5.0292034e-05,-3.5569756e-06,1.0731694e-05,0.00029201186,0.001488826,-0.049240455,5001,5001,0
114631193,114630666,2359306,2359306,-4.4407996e-05,5.8205046e-06,-5.072578e-06,0.00025319387,0.0015392047,-0.049177535,5002,5002,0
115131231,115130722,2359306,2359306,6.8795252e-06,9.995275e-06,7.6778537e-07,0.00029835026,0.0018085532,-0.049154405,5003,5003,0
115631352,115630774,2359306,2359306,-6.5461645e-06,9.566766e-06,-7.5599833e-06,0.00029944186,0.001759035,-0.049135525,5000,5000,0
116131441,116130858,2359306,2359306,-2.1126072e-05,1.4960971e-05,1.5975631e-05,0.0001297895,0.0017355253,-0.04946273,5029,5029,0
116631473,116630884,2359306,2359306,-5.2125408e-05,1.87283e-05,1.2746381e-05,0.00017111821,0.0015681351,-0.049217552,5000,5000,0
117131498,117130942,2359306,2359306,-2.5037638e-05,9.967594e-06,7.8465955e-06,5.6597877e-05,0.0016573176,-0.04910699,5006,5006,0
117631543,117630995,2359306,2359306,5.3968495e-05,1.0254291e-06,4.410048e-06,0.0002894953,0.0016563272,-0.049026154,5003,5003,0
120131952,120131282,2359306,2359306,-0.00011682466,-6.5137147e-06,2.1793236e-05,0.00035822485,0.0016125604,-0.048958465,4998,4998,0
120632044,120631341,2359306,2359306,6.2754094e-05,1.095995e-05,-8.540238e-06,0.00030846844,0.0016539341,-0.048948925,4994,4994,0
121132162,121131421,2359306,2359306,9.970159e-06,2.415796e-06,-1.2264447e-05,0.00019846008,0.0017596976,-0.049560715,5011,5011,0
121632087,121631460,2359306,2359306,-8.096203e-05,-1.1639688e-06,1.999729e-05,0.00018056842,0.0016542244,-0.049551193,5004,5004,0
122632144,122631580,2359306,2359306,1.6161328e-05,8.24524e-06,-2.8429663e-06,0.0002984317,0.001961502,-0.04934759,5000,5000,0
123132157,123131640,2359306,2359306,-5.7098583e-05,-3.0619974e-06,1.2605555e-05,0.00013470362,0.001707632,-0.04918872,4999,4999,0
123632249,123631709,2359306,2359306,-4.182933e-05,-1.229097e-06,1.7714381e-05,0.0003214962,0.0016106642,-0.049536858,5010,5010,0
124132288,124131764,2359306,2359306,4.635945e-05,4.27884e-06,-1.37606685e-05,0.00016617338,0.0017766037,-0.049283497,4991,4991,0
124632452,124631852,2359306,2359306,1.5171708e-05,1.12966845e-05,-3.335607e-06,0.00040573077,0.0016821666,-0.049196746,5012,5012,0
125132399,125131892,2359306,2359306,7.219051e-05,1.9037276e-05,4.0398254e-06,0.00032251497,0.0017955013,-0.048938688,5004,5004,0
125632475,125631951,2359306,2359306,-1.5085218e-05,4.85163e-06,-7.788817e-06,0.00024775887,0.0020166815,-0.049265224,5000,5000,0
126132565,126132016,2359306,2359306,-7.3058516e-05,-4.45903e-06,1.0792866e-05,0.0002480296,0.0015849645,-0.049092043,5003,5003,0
126632648,126632078,2359306,2359306,3.283786e-05,-1.198645e-06,-7.85203e-06,0.00017989667,0.0014524146,-0.049339715,4998,4998,0
127132650,127132145,2359306,2359306,1.4251307e-05,5.7231687e-06,-2.3773462e-06,0.00022064224,0.0020062462,-0.049178183,5002,5002,0
127632714,127632210,2359306,2359306,-8.810608e-06,9.332025e-06,1.0251174e-06,0.00022593286,0.0016527374,-0.04952531,5003,5003,0
128132804,128132286,2359306,2359306,2.4306602e-05,7.009483e-06,-1.2119546e-05,0.0004568588,0.0019031452,-0.04886911,5008,5008,0
128632967,128632339,2359306,2359306,-7.882069e-05,7.967585e-06,1.341991e-05,0.0002698516,0.00176011,-0.048897956,4988,4988,0
129132919,129132405,2359306,2359306,-4.659944e-05,1.4938995e-05,-6.097347e-06,0.00021028344,0.0020015333,-0.048919573,4986,4986,0
129632998,129632474,2359306,2359306,0.00011353231,1.2696662e-05,1.4025663e-05,0.00010357204,0.0016978248,-0.049092636,5001,5001,0
130133050,130132539,2359306,2359306,2.1702088e-05,1.0193479e-05,-1.5145626e-05,0.00023283088,0.0019296702,-0.04864776,4998,4998,0
130633180,130632616,2359306,2359306,-1.9184241e-05,-1.9205254e-06,1.371935e-05,0.00018247805,0.0014923991,-0.04907176,4983,4983,0
131133230,131132675,2359306,2359306,2.5849e-05,4.4041835e-06,-3.1284756e-06,0.00025174615,0.0019822347,-0.04878032,4998,4998,0
131633269,131632756,2359306,2359306,-3.706851e-05,1.8108557e-06,4.6175046e-06,0.0002181284,0.0016580377,-0.049508713,5013,5013,0
132128375,132127811,2359306,2359306,5.5002685e-05,8.604441e-07,-6.720574e-06,0.00028765312,0.001781508,-0.04893307,5000,5000,0
132633509,132632881,2359306,2359306,1.5818947e-05,-8.049768e-06,-4.030469e-06,0.0002768923,0.001962387,-0.04930762,5000,5000,0
133128467,133127950,2359306,2359306,6.874731e-06,5.9876816e-06,-3.0759502e-06,0.00036098345,0.0019931702,-0.049167648,5000,5000,0
133628574,133628021,2359306,2359306,-3.4716424e-05,1.1199857e-05,1.6369378e-05,0.00030670367,0.0015471976,-0.048915036,5001,5001,0
134128627,134128091,2359306,2359306,-6.750975e-05,1.0210269e-05,1.2613227e-05,0.000115547744,0.0017098653,-0.0493746,5001,5001,0
134628669,134628165,2359306,2359306,4.75703e-05,1.6776553e-06,-8.41104e-07,0.00032643994,0.0015700647,-0.048903443,5002,5002,0
135128747,135128236,2359306,2359306,5.8329013e-05,1.1843123e-05,-1.2302051e-05,0.0002257243,0.001987069,-0.04905895,5003,5003,0
135628819,135628305,2359306,2359306,4.003916e-05,9.850296e-06,-1.3100532e-05,0.0002838311,0.0019306131,-0.048972372,5000,5000,0
136128973,136128378,2359306,2359306,-4.654539e-05,6.4258074e-06,5.040067e-06,0.000283504,0.0019065157,-0.04928359,4998,4998,0
136629010,136628450,2359306,2359306,-6.622252e-05,2.5234763e-06,1.8235718e-06,0.00020344861,0.0017673472,-0.049242068,4998,4998,0
137129036,137128523,2359306,2359306,2.3812077e-06,6.795291e-06,1.6238882e-06,0.00032293232,0.0015420896,-0.048686445,4980,4980,0
137629109,137628596,2359306,2359306,5.341607e-05,-5.802032e-07,-1.5984675e-05,0.00022836718,0.0016796261,-0.049269103,5000,5000,0
138129202,138128680,2359306,2359306,1.5765278e-05,1.1484144e-05,-4.0798445e-06,8.503797e-05,0.0018300059,-0.049224317,5001,5001,0
138629436,138628745,2359306,2359306,-5.1225055e-05,1.0290571e-05,-5.9410568e-06,0.00017220397,0.0018906092,-0.04908799,4999,4999,0
139129508,139128819,2359306,2359306,-9.4411735e-05,-7.950118e-06,1.6257902e-05,0.00019643796,0.0014212272,-0.049574703,5000,5000,0
139629641,139628898,2359306,2359306,0.0001193906,4.0781478e-07,-1.8194702e-05,0.0002829278,0.0013195772,-0.049163945,5004,5004,0
140129601,140128973,2359306,2359306,0.00013604932,-9.3336475e-06,-8.92698e-06,0.00031994373,0.0019277339,-0.04907513,4996,4996,0
140629756,140629051,2359306,2359306,-3.14536e-05,4.605411e-07,-7.1612253e-06,0.00033528995,0.0020598734,-0.049040664,5006,5006,0
142629895,142629362,2359306,2359306,1.9924195e-05,2.0871378e-06,-6.9393914e-06,0.00024940696,0.0017590954,-0.049146015,4999,4999,0
143130896,143129432,2359306,2359306,-3.0969837e-05,1.0079171e-05,2.7029762e-06,0.00026078153,0.0018059813,-0.048956152,5001,5001,0
143630860,143629511,2359306,2359306,-2.6975298e-05,9.530036e-06,3.3111958e-06,0.000274163,0.0015491123,-0.049115818,5001,5001,0
144130976,144129589,2359306,2359306,-1.6485681e-05,9.095525e-06,4.892406e-06,0.00028992275,0.0016369736,-0.04902138,5000,5000,0
144631133,144629668,2359306,2359306,-4.879653e-06,-3.0130457e-06,-7.4422765e-06,0.00029451065,0.0018097735,-0.04898838,5000,5000,0
145130924,145129758,2359306,2359306,3.1565753e-05,-5.789656e-06,8.1406e-06,0.00024352245,0.0017918772,-0.049056243,5010,5010,0
145630903,145629830,2359306,2359306,1.9814006e-05,1.9624217e-06,-7.865201e-07,0.00013225863,0.0018387667,-0.04925211,5002,5002,0
146130912,146129908,2359306,2359306,-5.5478133e-05,4.558249e-06,-2.2465003e-06,0.00025527723,0.0016746012,-0.04885024,4987,4987,0
146631080,146629988,2359306,2359306,8.243435e-06,1.0912453e-05,7.990737e-06,0.0002985837,0.0017507708,-0.04913967,4998,4998,0
147130923,147130069,2359306,2359306,2.038251e-05,1.4735597e-06,6.2279714e-06,0.00019256712,0.0016586485,-0.049151678,5000,5000,0
147630857,147630150,2359306,2359306,-3.7020935e-05,-1.12350135e-05,-1.1402059e-06,0.00023886253,0.001745258,-0.049014512,4989,4989,0
148130878,148130243,2359306,2359306,-2.7959755e-05,5.2093055e-06,-1.6085207e-07,0.00015363628,0.0017117113,-0.049151033,5011,5011,0
148630842,148630314,2359306,2359306,1.4964801e-05,1.0824673e-05,-3.673893e-06,0.00018561371,0.0016517874,-0.049137034,5002,5002,0
149132220,149130402,2359306,2359306,2.4149918e-05,4.765133e-06,-3.032677e-06,0.00031211108,0.0017199353,-0.049195394,5004,5004,0
149631170,149630479,2359306,2359306,-1.5051713e-06,1.2827932e-05,-9.444235e-06,0.00017277618,0.0015442698,-0.04921448,5001,5001,0
150131128,150130562,2359306,2359306,1.2111392e-05,1.2847628e-05,2.5194263e-06,0.00022802425,0.0016213846,-0.049286403,5002,5002,0
152631521,152631000,2359306,2359306,2.4570618e-05,3.054313e-06,-2.7477672e-06,0.00032592844,0.0017927213,-0.049098916,5019,5019,0
153131582,153131070,2359306,2359306,-1.7386283e-05,3.875951e-06,-3.6771582e-06,0.00028860904,0.0017817339,-0.04902887,5003,5003,0
153631674,153631156,2359306,2359306,-6.981755e-06,7.777639e-07,2.721736e-06,0.00021518325,0.0018817134,-0.049087204,5004,5004,0
154131768,154131242,2359306,2359306,-1.3262766e-05,2.1468602e-06,3.834936e-06,0.00012097416,0.0017159409,-0.049081482,4994,4994,0
154632056,154631346,2359306,2359306,2.9930603e-05,-4.419522e-06,-4.992686e-06,0.00014621174,0.0018011461,-0.04917172,5013,5013,0
155132172,155131414,2359306,2359306,-1.42664785e-05,1.0152568e-06,4.68108e-06,0.0002191961,0.0016259454,-0.04918688,4996,4996,0
155632086,155631503,2359306,2359306,9.9745565e-05,9.875042e-06,-1.9056455e-05,0.00027516572,0.0017431357,-0.04904173,5004,5004,0
156132119,156131595,2359306,2359306,-2.2680477e-05,1.223291e-07,-6.1177325e-06,0.00021743533,0.0018762997,-0.049254917,5005,5005,0
156632309,156631678,2359306,2359306,-0.00012354717,-8.090458e-06,1.1241605e-05,0.00020022111,0.0016388817,-0.049152005,5002,5002,0
157132300,157131764,2359306,2359306,5.349792e-07,-3.19563e-06,9.876637e-07,0.00014862,0.0014491752,-0.048990745,4977,4977,0
157632388,157631873,2359306,2359306,3.63941e-05,9.308885e-06,-1.63873e-05,7.361113e-05,0.0018741209,-0.0494094,5020,5020,0
158132458,158131943,2359306,2359306,-0.00012714672,1.1222675e-06,6.448084e-06,0.00033025348,0.0015416181,-0.048865333,5001,5001,0
158632539,158632035,2359306,2359306,0.00014684921,8.731056e-06,-1.4448642e-05,0.00015644392,0.0016863812,-0.04908574,5004,5004,0
159132675,159132156,2359306,2359306,6.8984715e-05,1.4120837e-05,-9.478127e-06,0.00025331957,0.0018886734,-0.049500395,5037,5037,0
159632735,159632214,2359306,2359306,-8.765615e-05,1.2529746e-05,9.907458e-06,0.00034612886,0.0018162439,-0.049163107,5004,5004,0
160132939,160132308,2359306,2359306,1.3374985e-05,-8.136227e-06,-1.5262736e-06,0.0002498489,0.0016729146,-0.048862,5008,5008,0
160632920,160632392,2359306,2359306,0.0001002165,4.817948e-07,-1.0590416e-05,0.0002104312,0.001999011,-0.04922257,5000,5000,0
161133008,161132494,2359306,2359306,-7.252671e-05,6.4060196e-06,3.1745553e-06,0.00019109886,0.0019382391,-0.04921339,5009,5009,0
161633087,161632575,2359306,2359306,-6.229211e-05,1.0425814e-05,5.5426517e-06,0.00029937646,0.0017894278,-0.048638776,4995,4995,0
162133200,162132676,2359306,2359306,1.5122366e-05,7.1969894e-06,-3.0454428e-06,0.00031266373,0.0016977743,-0.048844144,5005,5005,0
162633334,162632759,2359306,2359306,-4.919506e-05,3.1328502e-06,-2.3958278e-06,0.00011090578,0.0017862382,-0.04902639,5001,5001,0
163128380,163127850,2359306,2359306,5.483808e-06,4.927394e-07,-3.933238e-06,0.00011196357,0.0016786285,-0.049269337,4998,4998,0
163628499,163627943,2359306,2359306,4.794906e-05,1.7831624e-05,6.1479193e-07,0.0004627133,0.0016912713,-0.04885778,5001,5001,0
164128548,164128044,2359306,2359306,-1.475979e-06,6.7169544e-06,-6.1078e-06,0.000584034,0.0016928035,-0.048792124,5009,5009,0
164628655,164628134,2359306,2359306,-4.1620784e-05,5.421737e-06,7.6930455e-06,1.5661039e-05,0.0017516015,-0.04927946,5005,5005,0
165128785,165128227,2359306,2359306,-2.8524308e-05,9.621548e-07,8.805888e-06,0.0003422867,0.0016438556,-0.049099613,5004,5004,0
166129005,166128413,2359306,2359306,2.0462336e-05,-4.5661222e-06,-3.2722885e-06,0.0002530049,0.0019437073,-0.04886978,4998,4998,0
166629026,166628507,2359306,2359306,-5.6099878e-05,5.05375e-06,4.6887712e-06,0.00010898993,0.0017902026,-0.0489603,5000,5000,0
167129121,167128603,2359306,2359306,1.3959156e-05,2.4277454e-06,4.4183203e-06,0.0001837536,0.0017251079,-0.049255412,4998,4998,0
167629233,167628698,2359306,2359306,-1.5322257e-05,1.5513811e-05,-8.526983e-06,0.0012366886,0.0024063224,-0.04949339,5001,5001,0
168129469,168128803,2359306,2359306,-1.3399322e-05,3.6388108e-06,3.3470888e-06,0.00044576527,0.001670338,-0.048805095,5007,5007,0
168629601,168628894,2359306,2359306,4.368201e-05,3.2346572e-06,-6.7131427e-06,0.000108908425,0.0016682778,-0.048870545,5000,5000,0
169129618,169128990,2359306,2359306,-4.793848e-05,-9.174489e-06,8.120816e-06,0.00032370555,0.0018570333,-0.04899462,5004,5004,0
171130810,171129378,2359306,2359306,-7.283985e-05,4.4451785e-06,1.6406395e-05,0.0003448167,0.0018394751,-0.049273614,5001,5001,0
171631110,171629477,2359306,2359306,-2.0824322e-05,1.7487178e-05,3.0433848e-06,0.0006521615,0.0020025426,-0.048640188,4999,4999,0
172130987,172129575,2359306,2359306,-9.061687e-05,6.262927e-06,7.9685715e-06,0.00047590016,0.0021053664,-0.048920162,5001,5001,0
172630839,172629674,2359306,2359306,-1.2299063e-05,8.059126e-06,-1.3388855e-08,0.00012296648,0.001523162,-0.049227238,5002,5002,0
173130949,173129783,2359306,2359306,7.998778e-05,1.7405195e-05,-1.2803787e-05,0.00025592934,0.0019266247,-0.048670672,5011,5011,0
173630830,173629877,2359306,2359306,4.9388942e-05,1.975642e-05,-9.975188e-06,0.00016924851,0.002075723,-0.04901226,4993,4993,0
174130972,174129972,2359306,2359306,-0.00012539368,6.354618e-06,2.4456502e-05,4.4970795e-05,0.001989647,-0.049044184,5000,5000,0
174630948,174630072,2359306,2359306,-3.510265e-05,8.650123e-06,-5.1716693e-06,0.0003783623,0.0013567316,-0.048911784,5000,5000,0
175130899,175130173,2359306,2359306,4.106553e-05,1.1912707e-06,8.4824313e-07,0.0001751947,0.0017849618,-0.049709123,5004,5004,0
175630902,175630280,2359306,2359306,-5.1512194e-05,-1.3408169e-06,1.1747371e-05,0.00026238294,0.0016908622,-0.048709963,5001,5001,0
176130982,176130374,2359306,2359306,-1.3671571e-05,3.4663171e-06,-4.6419714e-06,0.00017422938,0.0015246414,-0.04927505,5001,5001,0
176631018,176630476,2359306,2359306,1.0834175e-07,-4.087152e-06,-4.883126e-06,0.00026848508,0.0017145791,-0.04875598,4997,4997,0
177131094,177130581,2359306,2359306,-1.685859e-05,5.700129e-06,-4.6786427e-06,0.0002211385,0.0016253403,-0.049141597,5006,5006,0
177631237,177630679,2359306,2359306,8.3370753e-07,3.4932561e-06,-1.0888516e-05,0.00015358119,0.0017401023,-0.049271867,5003,5003,0
178131304,178130794,2359306,2359306,-9.075678e-06,1.5409155e-07,-9.263815e-06,0.00032195973,0.0017762756,-0.048826054,5003,5003,0
178631483,178630884,2359306,2359306,-1.2005388e-05,-1.23630825e-05,1.9613964e-07,0.00021818369,0.0018268374,-0.049131528,5000,5000,0
179131547,179130995,2359306,2359306,-4.016007e-05,-3.49127e-06,-5.909861e-06,0.00064167485,0.0022139228,-0.04908819,5011,5011,0
179631606,179631091,2359306,2359306,-4.3511034e-05,-1.6414049e-06,3.131316e-06,0.00010058151,0.0014004117,-0.049069673,5003,5003,0
180131714,180131200,2359306,2359306,4.3244512e-05,3.4918367e-07,7.2287276e-06,0.0003965435,0.0016753215,-0.04833659,5009,5009,0
180632006,180631299,2359306,2359306,3.3049422e-05,9.608584e-06,4.0869136e-06,0.00029634818,0.0018567252,-0.049281325,5004,5004,0
181132172,181131401,2359306,2359306,-5.571711e-05,1.0899595e-05,1.2919468e-05,0.00026493575,0.0015974113,-0.049116742,5002,5002,0
181632170,181631507,2359306,2359306,-4.4044227e-05,-6.1651344e-06,9.031588e-06,8.79379e-05,0.0015726787,-0.049139973,4993,4993,0
182132130,182131612,2359306,2359306,1.9123447e-05,-7.5725774e-07,-3.2227038e-07,0.00016956219,0.0016065978,-0.048886348,5001,5001,0
182632294,182631718,2359306,2359306,3.2612334e-05,1.7105764e-06,1.1683873e-06,-0.00017073931,0.0019470301,-0.048220083,5005,5005,0
183132377,183131821,2359306,2359306,-2.2365131e-05,3.0170324e-06,5.979632e-06,6.854724e-05,0.0017432378,-0.048694633,4983,4983,0
185132749,185132245,2359306,2359306,-1.148348e-06,-2.0424116e-06,8.2412325e-06,0.0009048625,0.001577185,-0.049129847,5003,5003,0
185632867,185632351,2359306,2359306,3.7277427e-05,-1.7516514e-06,-2.3322476e-05,0.00029160207,0.0016397686,-0.04905554,4999,4999,0
186133022,186132458,2359306,2359306,6.5830604e-06,-3.4025988e-06,-1.5538873e-05,0.00019561117,0.0016961357,-0.04901571,4999,4999,0
186633114,186632565,2359306,2359306,-2.5095973e-05,1.1131179e-05,4.1608922e-07,0.00030127252,0.0017155206,-0.04906775,5001,5001,0
187133185,187132674,2359306,2359306,-2.2508964e-05,6.580034e-06,-5.264038e-07,0.00036094285,0.001827717,-0.048911903,5001,5001,0
187633301,187632781,2359306,2359306,-7.403057e-05,1.461935e-05,6.53169e-06,0.00021188268,0.0016646095,-0.04903039,5002,5002,0
188128395,188127891,2359306,2359306,3.874891e-05,-1.4686294e-06,-5.565467e-06,0.00018776994,0.0014258642,-0.04906414,5004,5004,0
188628548,188627996,2359306,2359306,3.978956e-05,5.3711274e-06,-6.279493e-06,0.00022375256,0.0020044965,-0.048966706,5001,5001,0
189128673,189128118,2359306,2359306,-8.94543e-05,-3.059046e-06,2.4449832e-06,0.00024907995,0.0017514551,-0.04905589,5012,5012,0
189628773,189628217,2359306,2359306,-3.6806923e-05,8.279653e-06,7.685464e-06,0.00020050652,0.0015727592,-0.04915422,5004,5004,0
190128830,190128326,2359306,2359306,4.3795106e-05,1.0853963e-05,-4.723454e-06,0.00020834908,0.0019372826,-0.04927748,4990,4990,0
190629014,190628434,2359306,2359306,5.698615e-05,7.5571825e-06,-1.04771625e-05,0.00023996082,0.0019469961,-0.04910711,4996,4996,0
191129050,191128544,2359306,2359306,-2.0370751e-05,5.547382e-06,-2.9524665e-07,0.00021716637,0.0017480532,-0.049132165,5000,5000,0
191629176,191628655,2359306,2359306,9.948411e-07,1.5817857e-05,-4.521863e-06,0.0003248814,0.0017463476,-0.048857424,5000,5000,0
192129489,192128766,2359306,2359306,-1.17640075e-05,-5.085685e-06,2.197963e-06,0.00022497844,0.0017392803,-0.048768997,5002,5002,0
192629616,192628877,2359306,2359306,4.2181036e-06,-5.1386883e-06,1.5423141e-06,0.00032122215,0.001668562,-0.049105182,5001,5001,0
193129630,193128990,2359306,2359306,2.1955022e-05,1.18783455e-05,-3.8276676e-06,0.0002656721,0.0018152393,-0.048742834,4991,4991,0
193629749,193629108,2359306,2359306,-3.7633747e-06,9.722411e-07,4.667172e-06,0.00029661134,0.0018203048,-0.04936212,5011,5011,0
194129897,194129211,2359306,2359306,-3.790352e-05,3.5989756e-06,1.3319061e-07,0.00022425159,0.0016325442,-0.04906994,4999,4999,0
194630956,194629345,2359306,2359306,1.4740552e-05,2.5100526e-06,-4.5694565e-06,0.00026105475,0.0017741853,-0.048841767,4981,4981,0
195130844,195129436,2359306,2359306,-2.7316544e-05,7.1212175e-06,-3.7197635e-06,0.0003168676,0.0016440204,-0.049097393,5001,5001,0
197130947,197129889,2359306,2359306,-1.2089561e-05,-1.6418669e-06,-6.18713e-07,0.00014430724,0.0017238634,-0.04902715,5001,5001,0
197630908,197630003,2359306,2359306,-3.734872e-05,-1.040327e-06,3.7126415e-06,0.00034990595,0.00181143,-0.04884898,5000,5000,0
198131032,198130117,2359306,2359306,4.8672257e-05,3.421693e-06,-1.7147546e-05,0.00020330252,0.001571491,-0.049086854,4992,4992,0
198630986,198630234,2359306,2359306,4.1811974e-05,3.039307e-06,-5.4760894e-06,0.000205468,0.0018273145,-0.049073365,5004,5004,0
199131031,199130352,2359306,2359306,-6.0514634e-05,-9.393149e-06,-3.0901523e-07,0.00025869583,0.0018258457,-0.04904905,4999,4999,0
199630999,199630461,2359306,2359306,-5.961112e-05,-5.279177e-06,1.0231823e-06,0.00022888601,0.0017092655,-0.049071137,4997,4997,0
200131099,200130580,2359306,2359306,3.3350938e-05,-4.742355e-06,-3.8103722e-06,0.00017494487,0.001648397,-0.048977412,5006,5006,0
200631258,200630698,2359306,2359306,5.3679352e-05,6.597528e-06,-1.0354865e-05,0.00020593793,0.001862615,-0.04908969,5009,5009,0
201131331,201130808,2359306,2359306,-3.1875035e-05,-4.42596e-07,5.636463e-06,0.00032002127,0.0018492826,-0.04891488,5000,5000,0
201631495,201630924,2359306,2359306,-4.8833786e-05,-5.264224e-06,1.7928174e-07,0.00012552131,0.0018248654,-0.049159557,5002,5002,0
202131561,202131042,2359306,2359306,-4.5720455e-05,9.548321e-06,-1.0699949e-05,0.00017976412,0.0015278981,-0.049001995,5005,5005,0
202631671,202631158,2359306,2359306,5.148848e-05,7.678184e-06,-9.518361e-06,0.00026898267,0.0016643238,-0.049010787,5004,5004,0
203131960,203131281,2359306,2359306,2.1071619e-05,2.0780067e-06,-1.1819297e-05,0.00019548912,0.0017996453,-0.049057968,5002,5002,0
203632080,203631402,2359306,2359306,-3.7060086e-05,7.850245e-06,-1.5840313e-06,0.00020015016,0.0017495449,-0.048952162,5000,5000,0
204132080,204131520,2359306,2359306,-3.3116943e-05,6.8617474e-06,6.778903e-06,0.00019203608,0.0016875564,-0.049144164,5003,5003,0
204632199,204631625,2359306,2359306,2.926051e-05,1.1075798e-06,-2.4359597e-06,0.00020139346,0.0016137654,-0.049065046,4998,4998,0
205132269,205131746,2359306,2359306,2.9378265e-05,6.3150087e-06,-1.0115445e-05,0.00024352092,0.0016818146,-0.04916913,5004,5004,0
205632389,205631884,2359306,2359306,-1.3293915e-05,4.7732834e-07,-1.9675078e-06,0.00020272507,0.0016508105,-0.049289618,5023,5023,0
206132512,206131980,2359306,2359306,-3.4391207e-05,-2.4581097e-06,2.5671784e-06,0.0002595398,0.0016272928,-0.04880076,4984,4984,0
206632625,206632118,2359306,2359306,2.6400237e-06,-4.1587027e-06,-3.2863747e-06,0.00034354522,0.001665734,-0.04884559,5005,5005,0
207132772,207132221,2359306,2359306,2.3417631e-05,7.1564373e-06,-3.34873e-07,0.0003712489,0.0017704207,-0.048943307,5001,5001,0
209128311,209127696,2359306,2359306,1.8266883e-05,4.165303e-07,-6.262756e-06,0.00021816268,0.0018639172,-0.049190022,4999,4999,0
209633334,209632818,2359306,2359306,-1.3679253e-05,1.163962e-06,-3.3510987e-06,0.00017010848,0.0018124437,-0.049111623,4997,4997,0
210128506,210127938,2359306,2359306,-3.7547576e-05,-1.0282716e-07,1.27518315e-05,0.00021088937,0.0017188223,-0.049103536,4995,4995,0
210628567,210628059,2359306,2359306,-7.987337e-06,1.43500365e-05,6.4704195e-06,0.00021403503,0.0017034139,-0.04909081,5001,5001,0
211128696,211128192,2359306,2359306,1.466263e-05,4.094146e-06,-1.0606473e-05,0.00036754116,0.0018187878,-0.049005434,5011,5011,0
211628830,211628304,2359306,2359306,-3.0130261e-06,4.4113913e-06,-8.858879e-06,0.00039738667,0.001661643,-0.048948586,5003,5003,0
212128987,212128424,2359306,2359306,-1.865514e-05,8.144399e-06,6.1692674e-07,0.00018201167,0.0016945862,-0.048906744,4997,4997,0
212629072,212628546,2359306,2359306,-1.351076e-05,-2.7647013e-06,-3.930442e-06,0.00035109493,0.001720119,-0.048825096,5001,5001,0
213129190,213128669,2359306,2359306,1.6912555e-06,3.8741023e-06,-9.167997e-07,0.00024254578,0.0016694242,-0.049059737,5001,5001,0
213629499,213628791,2359306,2359306,1.1759967e-05,3.5191144e-06,-1.0773307e-05,0.00027794315,0.0016760359,-0.049004246,5001,5001,0
214129716,214128916,2359306,2359306,-7.940073e-06,5.1162833e-06,3.928615e-06,0.00025493652,0.0017310361,-0.04892704,5000,5000,0
214629642,214629041,2359306,2359306,-1.2552662e-05,7.1806844e-06,-5.72144e-06,0.00021532665,0.0016200175,-0.04905815,5004,5004,0
215129827,215129163,2359306,2359306,2.4722688e-06,2.0344801e-07,5.830412e-06,0.00024160967,0.0016417694,-0.04891948,4996,4996,0
215629897,215629287,2359306,2359306,4.3159725e-06,6.9082375e-06,-5.757129e-06,0.00033837656,0.0017205512,-0.048703417,4990,4990,0
216130809,216129411,2359306,2359306,-1.6078226e-05,1.0431436e-05,5.995574e-06,0.00019941626,0.0017109214,-0.049001962,5001,5001,0
216630852,216629536,2359306,2359306,1.1799359e-05,-9.287926e-06,-3.2019632e-06,0.000279816,0.0018090557,-0.04888181,4988,4988,0
217132411,217129662,2359306,2359306,-2.5818395e-05,-2.906043e-06,5.0043213e-06,0.0002520407,0.0017709295,-0.048982095,5002,5002,0
217630926,217629785,2359306,2359306,-1.9966224e-05,-4.8073794e-06,5.477835e-06,9.7556665e-05,0.0018485015,-0.048823137,4990,4990,0
218130940,218129910,2359306,2359306,7.8161975e-06,-8.083466e-07,-1.2384967e-07,0.00021641074,0.0016872068,-0.049004003,4990,4990,0
218630851,218630036,2359306,2359306,5.0413128e-06,1.1063196e-06,-5.4731368e-06,0.00027383538,0.0017211403,-0.049030244,4999,4999,0
219131182,219130161,2359306,2359306,-2.1737238e-05,2.2667098e-06,7.937294e-06,0.0002934264,0.001739352,-0.04886852,4993,4993,0
220130973,220130413,2359306,2359306,1.5364179e-06,1.2005215e-06,-1.0083147e-06,0.00018519328,0.0016951181,-0.048960354,5003,5003,0
220631286,220630540,2359306,2359306,-7.356679e-06,5.158499e-06,2.7369688e-06,0.0002920548,0.0017658453,-0.049070716,5003,5003,0
221131177,221130667,2359306,2359306,-1.7012344e-05,-5.9569237e-07,-6.092973e-07,0.00028476215,0.0016607539,-0.048939962,5004,5004,0
221631368,221630794,2359306,2359306,-1.6005788e-05,2.1766314e-06,5.525829e-06,0.00020282873,0.0017347201,-0.04881582,5000,5000,0
222631559,222631048,2359306,2359306,-7.541518e-08,2.1927847e-06,8.760356e-06,0.00026044244,0.00167827,-0.0488698,5003,5003,0
223131693,223131177,2359306,2359306,-2.157293e-06,1.1621787e-05,1.2475215e-06,0.00030415,0.0017508159,-0.048941623,5004,5004,0
223632023,223631309,2359306,2359306,-2.5997366e-05,1.7615694e-05,-5.156435e-06,0.00015990506,0.0017212136,-0.048901398,4994,4994,0
224132083,224131441,2359306,2359306,-5.126298e-06,1.0121388e-07,-5.7797793e-06,0.00028220357,0.0016905083,-0.049096085,5012,5012,0
224632065,224631561,2359306,2359306,2.1271114e-06,5.7744483e-06,-8.633188e-06,0.0002711004,0.0016911953,-0.049081855,5000,5000,0
225132332,225131690,2359306,2359306,8.807727e-06,3.9402507e-06,-1.2807641e-05,0.00023366767,0.0017258142,-0.049048554,5002,5002,0
225632347,225631830,2359306,2359306,-1.6094018e-05,6.970345e-06,7.3573585e-07,0.00018183929,0.0018442802,-0.0486681,4994,4994,0
226132485,226131947,2359306,2359306,-5.0074336e-06,5.4647353e-06,-7.876177e-06,0.00031522985,0.0017719397,-0.048747543,4996,4996,0
228133087,228132466,2359306,2359306,2.6135579e-06,7.3055758e-06,-1.4343583e-05,0.0003257676,0.0016764686,-0.048881005,4995,4995,0
228633108,228632596,2359306,2359306,1.3940494e-05,-4.7428784e-06,-4.5745523e-06,0.0002854145,0.001798216,-0.048892822,5000,5000,0
229128364,229127726,2359306,2359306,-1.1350641e-05,3.5703997e-07,-4.734934e-06,0.00030388572,0.001766095,-0.04880308,4999,4999,0
229633428,229632858,2359306,2359306,-2.5008032e-05,-1.4078572e-06,-1.032914e-06,0.00020169716,0.0016564704,-0.048874673,5001,5001,0
230128542,230127988,2359306,2359306,-2.4671847e-06,9.961894e-07,-7.515074e-07,0.00019634099,0.0017628315,-0.04892539,5000,5000,0
230628645,230628134,2359306,2359306,1.07951555e-05,1.0513976e-05,-9.881033e-06,0.0002575798,0.001718741,-0.048938874,4993,4993,0
231128814,231128252,2359306,2359306,2.8874113e-06,8.8997376e-07,-7.518365e-07,0.00023857936,0.0017407502,-0.04903426,5002,5002,0
231628954,231628384,2359306,2359306,7.78744e-06,-1.0570274e-06,-4.1525673e-06,0.00012165819,0.0016424042,-0.049133543,4999,4999,0
232129049,232128516,2359306,2359306,-1.3828935e-05,4.0855207e-06,-3.848372e-06,0.00022250098,0.0017091006,-0.048895612,5000,5000,0
232629167,232628648,2359306,2359306,-1.5827365e-05,5.227943e-06,5.883358e-06,0.00018781592,0.0016968619,-0.04908979,5001,5001,0
233129463,233128791,2359306,2359306,-4.987315e-06,3.7530224e-06,-5.277432e-06,0.0002662452,0.0017497815,-0.0489814,5011,5011,0
233629560,233628925,2359306,2359306,2.792841e-06,1.0137942e-05,-1.120421e-05,0.000117676675,0.0017403295,-0.049164392,5012,5012,0
234129690,234129051,2359306,2359306,-4.587793e-06,5.719477e-06,-2.3939565e-06,0.00018186004,0.0017507239,-0.049046095,5005,5005,0
234629731,234629182,2359306,2359306,-2.245932e-05,-1.3382572e-06,8.09244e-06,0.00022091052,0.0017270852,-0.048892748,4999,4999,0
235130833,235129341,2359306,2359306,-3.0639362e-06,-7.2340714e-07,-4.006747e-06,0.00027979427,0.0017572083,-0.048823643,4996,4996,0
235631129,235629450,2359306,2359306,-9.0044305e-06,1.4341449e-06,-8.114553e-06,0.00020576242,0.0016969296,-0.04887488,5001,5001,0
236131123,236129586,2359306,2359306,1.6477603e-05,9.559929e-06,-9.585372e-06,0.00032049464,0.0018298101,-0.04892063,5002,5002,0
236630930,236629735,2359306,2359306,-3.419606e-05,2.685929e-06,2.2231798e-06,0.00021519113,0.0017409179,-0.048835974,4991,4991,0
237131026,237129858,2359306,2359306,-4.341991e-05,9.291861e-06,-2.583674e-07,0.00021231867,0.0017761665,-0.049026202,5004,5004,0
237630842,237629989,2359306,2359306,5.711198e-06,6.534302e-07,-9.173187e-06,0.00022215664,0.0016638995,-0.04889386,4993,4993,0
238130850,238130124,2359306,2359306,1.4539078e-05,-2.5464435e-06,5.2676746e-06,0.00030730612,0.0016254488,-0.04873101,4990,4990,0
238630913,238630266,2359306,2359306,1.95441e-06,2.6531568e-06,-9.7315715e-06,0.0001840963,0.0017530551,-0.04898224,5008,5008,0
239130986,239130396,2359306,2359306,8.546845e-07,-1.3397431e-06,-6.6619173e-06,0.00014487232,0.0016861337,-0.048965376,5000,5000,0
239631055,239630532,2359306,2359306,-3.622835e-05,-7.1372456e-06,3.5871446e-06,0.00031165243,0.0016575564,-0.04902134,5001,5001,0
240131187,240130673,2359306,2359306,-2.2953265e-05,1.8453552e-06,4.651727e-06,0.00022321047,0.001771576,-0.049040426,5008,5008,0
240631333,240630806,2359306,2359306,3.3061635e-05,1.8834669e-06,-1.4086431e-05,0.0003753655,0.001736856,-0.048754457,5004,5004,0
241131507,241130943,2359306,2359306,4.249736e-05,1.1783435e-05,-1.5125443e-05,0.00024094545,0.0018073809,-0.049060505,5005,5005,0
241631588,241631079,2359306,2359306,-5.1921834e-05,-1.386966e-07,1.3037204e-06,0.00022951093,0.0017371611,-0.048998185,5004,5004,0
242131735,242131224,2359306,2359306,-4.0975654e-05,-1.7553465e-07,1.0068608e-05,0.00029331064,0.0016223227,-0.048777398,5001,5001,0
243632150,243631629,2359306,2359306,-1.1324849e-05,1.8401821e-06,-2.7183626e-06,0.00023773598,0.0017766462,-0.04886208,5001,5001,0
244132291,244131770,2359306,2359306,-2.3037239e-05,5.8372457e-06,-3.869405e-06,0.00027511056,0.001741422,-0.048981454,5006,5006,0
244632449,244631912,2359306,2359306,-7.695622e-06,6.493473e-06,8.2106374e-07,0.0002576463,0.0017761061,-0.04912079,5008,5008,0
245132547,245132043,2359306,2359306,2.353456e-06,1.2181983e-05,-1.6236851e-06,0.00029645435,0.0017109211,-0.048775967,5002,5002,0
245632701,245632197,2359306,2359306,3.991989e-06,4.301859e-06,2.6024904e-06,0.00015354299,0.0017034772,-0.048965245,5017,5017,0
246132839,246132332,2359306,2359306,-4.8996417e-06,3.7197725e-07,-4.939329e-06,0.00020728176,0.0016654511,-0.048786767,4998,4998,0
246633019,246632458,2359306,2359306,-2.138361e-05,5.7399106e-06,-1.3511394e-05,0.00028758563,0.0016502135,-0.048837923,4994,4994,0
247133116,247132599,2359306,2359306,3.9130433e-07,-2.9766757e-06,1.6525963e-06,0.00017027184,0.0016744623,-0.048918758,5001,5001,0
248633528,248633021,2359306,2359306,-0.0002463823,-0.0009691052,-5.4472748e-05,-0.015956331,0.0022450367,-0.04583162,5005,5005,0
249128731,249128160,2359306,2359306,0.00023219624,-0.00014933314,-0.00022640785,-0.011108419,0.0037842651,-0.057354048,5003,5003,0
249628920,249628311,2359306,2359306,0.0004091171,-0.00024400726,-0.00010749871,-0.014861616,0.0020254122,-0.07049644,4998,4998,0
250129008,250128445,2359306,2359306,-0.0006643929,-9.765911e-05,-2.1055157e-05,-0.0074250954,0.0038512212,-0.037895206,5007,5007,0
250629091,250628580,2359306,2359306,-0.00060549594,-0.0006711262,0.0001259974,-0.008089461,-0.0023945682,-0.029195182,5002,5002,0
251129406,251128725,2359306,2359306,0.0014313783,-0.0013284632,-0.00023123308,-0.008754001,0.005174702,-0.047235887,5004,5004,0
251629519,251628864,2359306,2359306,-0.0010797936,-7.3871954e-05,0.00027646995,-0.010740121,0.00096365967,-0.04203543,5002,5002,0
252129680,252129011,2359306,2359306,-0.00036970075,0.0003447184,2.9899382e-05,-0.013226525,-0.001097475,-0.05028196,5007,5007,0
252629785,252629149,2359306,2359306,0.00010229717,0.00015376882,-0.0022315972,-0.018467255,0.0005404889,-0.044144996,5001,5001,0
253132421,253129290,2359306,2359306,-0.0014551505,-4.7070993e-05,-0.0024545407,-0.025174534,0.0024280138,-0.04624946,5001,5001,0
253629947,253629433,2359306,2359306,-0.00092932093,-0.00019972591,-0.001564482,-0.017958459,-0.0027599758,-0.046877827,5001,5001,0
254131090,254129582,2359306,2359306,0.0010617314,-0.00016438501,-0.00180779,-0.019777907,0.008374921,-0.05754479,5005,5005,0
256631105,256630293,2359306,2359306,-0.0013281709,0.00014635449,0.00013636863,-0.020984545,-0.00088565325,-0.061595123,5002,5002,0
257131045,257130437,2359306,2359306,3.91769e-05,-0.00034108193,0.0011080692,-0.017138718,0.004373646,-0.059179608,4990,4990,0
257631104,257630588,2359306,2359306,0.0008279783,-0.0003519817,0.0013308999,-0.0134515995,0.0048753335,-0.048856974,5010,5010,0
258131239,258130725,2359306,2359306,0.0005691212,-0.00020682826,0.0016072502,-0.013907956,0.0039856466,-0.03880246,5001,5001,0
258631456,258630871,2359306,2359306,0.0006182958,0.0011815663,0.002260211,-0.01585235,-0.0029387716,-0.048460897,5004,5004,0
259131539,259131015,2359306,2359306,0.00033840453,0.0020126463,0.0012146917,-0.010126935,0.0010885377,-0.04655675,5001,5001,0
259631666,259631162,2359306,2359306,0.00019193073,0.0019151345,-0.00029969154,-0.0019228981,0.0016585864,-0.047429617,5005,5005,0
260132039,260131306,2359306,2359306,-2.3501661e-05,0.0007338061,4.88379e-05,0.0026467796,0.002555352,-0.057343956,5002,5002,0
260632068,260631459,2359306,2359306,2.2586251e-05,0.0002462379,4.695484e-05,-0.0016921633,0.00059421326,-0.04622436,4998,4998,0
261132114,261131598,2359306,2359306,3.697198e-06,4.911038e-05,-1.0442819e-05,-0.0023237874,0.001263,-0.04853245,5001,5001,0
261632350,261631754,2359306,2359306,6.8250876e-07,-1.4333049e-05,-8.257412e-06,-0.0009148647,0.00081702694,-0.04951619,5014,5014,0
262132409,262131904,2359306,2359306,1.0382526e-05,2.8257995e-07,-5.8007417e-06,-0.000760898,0.00093584345,-0.04866443,5016,5016,0
262632542,262632035,2359306,2359306,-4.1709467e-05,-2.654267e-06,-4.110778e-06,-0.0008604875,0.0009587253,-0.049007017,5002,5002,0
263132686,263132183,2359306,2359306,-8.107954e-06,-2.212926e-06,-1.1820109e-05,-0.0007655841,0.0008520434,-0.04900737,5000,5000,0
263632868,263632349,2359306,2359306,8.936142e-06,5.046398e-06,-9.9734225e-06,-0.00069579645,0.0008642724,-0.04890006,5011,5011,0
264132989,264132475,2359306,2359306,-2.745772e-06,1.0379682e-06,-1.8554277e-06,-0.0006223775,0.0009157266,-0.048975155,4998,4998,0
264633149,264632625,2359306,2359306,-1.778514e-05,-2.2067593e-06,-8.301433e-06,-0.0006862897,0.00082793104,-0.04911869,4999,4999,0
265128282,265127769,2359306,2359306,-0.0001707485,-0.0014003514,-0.0005918976,0.0032814234,0.0013238442,-0.05114673,4999,4999,0
265633438,265632935,2359306,2359306,-3.3872722e-05,-0.0015328003,-0.0010627601,-0.006344732,0.0028202327,-0.05296803,5018,5018,0
266133588,266133068,2359306,2359306,-0.00020948445,-0.0011495022,-0.0017069456,-0.009437618,-0.00058487995,-0.04962797,5003,5003,0
266633756,266633239,2359306,2359306,-0.000852896,-0.0006616792,-0.000977679,-0.024921143,-0.005904406,-0.06235544,5023,5023,0
267128970,267128361,2359306,2359306,-0.0010709967,-5.96112e-06,-0.001314465,-0.014212751,-0.002741514,-0.035727732,4998,4998,0
267629047,267628510,2359306,2359306,0.0010296585,-0.0002294563,-0.00054824125,-0.017171131,-0.0041610794,-0.055984046,4995,4995,0
268129178,268128659,2359306,2359306,0.00035690385,0.0016130572,-0.0002270871,-0.014677031,0.001552759,-0.053893965,5001,5001,0
268629521,268628808,2359306,2359306,0.00014334042,-0.00040655446,0.0013533512,-0.010201669,0.0013495584,-0.03000774,5002,5002,0
269129678,269128972,2359306,2359306,0.0009887617,-0.00068513356,0.0017772223,-0.023634883,0.0038500205,-0.050203342,5014,5014,0
270132118,270129258,2359306,2359306,0.00043955186,0.0016042582,0.0022109093,-0.006205744,4.8879294e-05,-0.042573262,4951,4951,0
270629965,270629410,2359306,2359306,9.767166e-05,0.0016498665,0.0002462149,-0.0051377015,-0.00015464978,-0.048620485,5004,5004,0
271130793,271129559,2359306,2359306,0.00016719788,0.00083721976,5.7649613e-06,0.0003095189,0.0026564735,-0.028990274,5002,5002,0
271630885,271629721,2359306,2359306,-8.9229565e-05,0.00020045058,-2.0626756e-05,-0.0024278974,0.00017776551,-0.053203057,5012,5012,0
272131010,272129860,2359306,2359306,-0.00010586314,2.8300234e-05,1.3124051e-05,-0.00056288997,0.0006027597,-0.04865528,5002,5002,0
272630808,272630010,2359306,2359306,1.9578923e-05,-6.967395e-06,-1.6465468e-05,-0.00019709142,0.00056026847,-0.04818591,5000,5000,0
273130941,273130161,2359306,2359306,5.4750202e-05,-1.4287964e-05,-1.3821951e-05,0.0001794324,0.0007087554,-0.049301434,5000,5000,0
273631092,273630312,2359306,2359306,-2.5542611e-05,-1.7103042e-05,-9.547731e-06,0.0002335154,0.00088417553,-0.048858702,5001,5001,0
274131054,274130464,2359306,2359306,-9.5161784e-05,-1.09942985e-05,1.0432348e-06,0.00028022318,0.00077111216,-0.048983023,5003,5003,0
274631203,274630615,2359306,2359306,1.4938262e-05,1.1314661e-05,-4.7323792e-06,0.00032026146,0.0006531039,-0.048886314,5003,5003,0
275131343,275130768,2359306,2359306,3.7033016e-05,1.6898645e-06,-1.4855381e-05,0.00033952805,0.0007624864,-0.04902723,5001,5001,0
275631491,275630919,2359306,2359306,-2.5748799e-05,-3.5719627e-06,-6.8164013e-06,0.00025637262,0.0008872979,-0.04907062,5001,5001,0
277132046,277131378,2359306,2359306,-2.736403e-05,6.0028565e-06,-7.277324e-06,0.0002995329,0.0006339567,-0.048841767,5003,5003,0
277632084,277631531,2359306,2359306,-1.5128787e-05,5.994034e-06,-2.2667396e-06,0.00029667182,0.0009862361,-0.048848584,4994,4994,0
278132249,278131684,2359306,2359306,-7.012619e-05,-4.916103e-06,-1.2117175e-06,0.00022697283,0.00056094007,-0.048668694,5002,5002,0
278632357,278631840,2359306,2359306,4.3962114e-05,1.0080298e-06,-7.933338e-06,0.00020671115,0.00078822416,-0.048730478,4997,4997,0
279132597,279132001,2359306,2359306,0.00020011047,-1.2367701e-06,-3.250345e-05,0.00020390289,0.00095065206,-0.049033746,5015,5015,0
279632655,279632144,2359306,2359306,-9.673635e-05,2.6838013e-06,3.991798e-06,0.00012835585,0.0011414739,-0.049022406,5002,5002,0
280132853,280132295,2359306,2359306,-0.00015685018,-5.241804e-06,1.5053466e-05,0.0002667019,0.00051841565,-0.048836842,5001,5001,0
280633019,280632449,2359306,2359306,5.56142e-05,-3.3633016e-06,-1.0449564e-05,0.0002638873,0.0004605692,-0.048813846,4998,4998,0
281133138,281132606,2359306,2359306,0.00015006404,-5.388318e-07,-2.1549435e-05,0.000118002106,0.000733677,-0.04893192,5001,5001,0
281633284,281632770,2359306,2359306,-2.342209e-05,1.1252506e-06,-9.392907e-06,0.00029839695,0.000866295,-0.049023878,5005,5005,0
282128424,282127911,2359306,2359306,-2.4701847e-05,5.4768393e-06,9.582108e-06,0.00010478224,0.00070082623,-0.048676204,4996,4996,0
282633576,282633069,2359306,2359306,-2.4859311e-05,2.655685e-06,1.4769629e-06,0.00023948487,0.00069220073,-0.048956137,5001,5001,0
283128786,283128225,2359306,2359306,2.6619218e-05,3.2790576e-06,-5.1390525e-06,0.00022724157,0.0006733251,-0.048909597,5003,5003,0
283628954,283628377,2359306,2359306,3.0071626e-05,7.042313e-06,-2.7358956e-06,0.00011680143,0.0007393398,-0.048849907,5000,5000,0
284129126,284128532,2359306,2359306,-6.7809764e-05,1.1493748e-05,-4.198484e-06,0.00022137044,0.0009591681,-0.04880269,5001,5001,0
284629213,284628688,2359306,2359306,-4.3967473e-05,5.3316585e-06,-1.0112001e-05,0.000256923,0.00060333044,-0.048845172,4995,4995,0
285129555,285128866,2359306,2359306,1.6133736e-05,1.1527153e-05,-1.6375823e-06,0.00016875615,0.00056942366,-0.049081117,5014,5014,0
285629663,285629003,2359306,2359306,1.1101968e-05,1.4200849e-05,3.014972e-06,0.00015956444,0.0007704557,-0.04902669,5004,5004,0
286129799,286129160,2359306,2359306,-1.6164146e-05,-4.7419194e-06,-4.1864732e-06,0.00016500753,0.0008257618,-0.04905057,5002,5002,0
286630943,286629351,2359306,2359306,-1.0303809e-05,2.1508392e-06,-4.6399923e-06,0.00025155395,0.00060039037,-0.048923384,5003,5003,0
287130941,287129472,2359306,2359306,4.5721804e-06,-3.865319e-07,-2.077036e-06,0.00018910422,0.00078605925,-0.04913915,5002,5002,0
289130946,289130103,2359306,2359306,2.5836815e-05,-4.772639e-06,-8.815157e-06,0.00024639932,0.0005799038,-0.048784748,4992,4992,0
289630973,289630259,2359306,2359306,2.1469014e-05,-2.7684737e-06,-6.015342e-06,0.00017682432,0.00087349984,-0.04882479,4984,4984,0
290131026,290130417,2359306,2359306,-7.268073e-05,-3.5480642e-07,8.147983e-06,0.0002843839,0.00081889343,-0.049040053,4988,4988,0
290631184,290630576,2359306,2359306,-1.975815e-05,3.9801716e-06,-5.209297e-07,0.00024718343,0.0005936555,-0.048827317,5004,5004,0
291131272,291130745,2359306,2359306,4.374461e-05,6.560697e-06,-1.6015534e-05,0.00030329995,0.0006341229,-0.048992317,5010,5010,0
291631539,291630894,2359306,2359306,-2.4281817e-05,-1.2643163e-06,-2.8458305e-07,0.00026726513,0.0006902947,-0.048973925,5005,5005,0
292131562,292131053,2359306,2359306,-4.8625247e-05,1.1238116e-05,3.7004033e-06,0.00045403096,0.0006677339,-0.048901834,5005,5005,0
292631735,292631227,2359306,2359306,-4.2677184e-05,1.4202229e-06,-9.381941e-06,0.00016720255,0.00071437814,-0.049217824,5020,5020,0
293132310,293131383,2359306,2359306,7.6041597e-06,3.0539375e-06,-1.4822804e-05,0.00022027288,0.00066560693,-0.048894003,5015,5015,0
293632088,293631529,2359306,2359306,2.2355729e-05,8.2201854e-07,-7.061706e-06,0.00025509938,0.0007962213,-0.048781622,4994,4994,0
294132205,294131688,2359306,2359306,-9.443218e-06,-2.9518942e-06,-5.8843166e-06,0.0001232682,0.0006591067,-0.0490533,5001,5001,0
294632390,294631877,2359306,2359306,-3.0481995e-05,-3.8066742e-06,-1.8512651e-06,0.00019232379,0.00073704583,-0.0493124,5030,5030,0
295132519,295132009,2359306,2359306,2.515582e-05,1.2053588e-05,-3.3455693e-05,0.00025259738,0.00079754234,-0.049049728,5003,5003,0
295632673,295632169,2359306,2359306,-0.00016343496,-0.0005661688,0.0014128351,-0.007899718,0.00015250182,-0.045414988,5003,5003,0
296132842,296132330,2359306,2359306,0.00010724168,-0.00018416543,-0.00034373262,0.0034064874,0.000278737,-0.04934427,5001,5001,0
296633009,296632492,2359306,2359306,-8.983272e-05,-1.7829534e-06,-3.3757777e-05,0.00022123201,0.0007479895,-0.049363595,5002,5002,0
297133163,297132651,2359306,2359306,-7.92715e-06,-1.289342e-05,9.66324e-06,0.0004394107,0.0008524167,-0.049255118,5002,5002,0
297633331,297632811,2359306,2359306,5.17818e-05,-6.744518e-06,-2.2493889e-05,0.00043200437,0.0014374763,-0.048764076,5002,5002,0
298128483,298127980,2359306,2359306,-0.000100447614,1.1036045e-05,9.603849e-06,0.00021331233,0.001366051,-0.04897273,5011,5011,0
298628661,298628144,2359306,2359306,-7.978619e-05,-5.6996923e-06,1.0358738e-05,0.00027885442,0.0010291196,-0.04903132,5014,5014,0
299128939,299128299,2359306,2359306,6.363099e-05,5.7675566e-06,-1.6256658e-05,0.0004044218,0.001072042,-0.048873737,5006,5006,0
301129597,301128945,2359306,2359306,5.9869e-05,-2.5070137e-06,-1.8643786e-05,0.00038124423,0.0011629458,-0.04871093,5001,5001,0
301629669,301629109,2359306,2359306,-1.2685388e-05,-8.333152e-06,-4.9158907e-06,0.0003445742,0.0010810371,-0.048681207,4991,4991,0
302129944,302129275,2359306,2359306,7.922369e-05,5.25888e-06,-1.2965179e-05,0.00034560054,0.0013993894,-0.048816755,5000,5000,0
302630783,302629442,2359306,2359306,-1.9857753e-05,-3.5341668e-06,-9.074259e-06,0.00045385072,0.0012024646,-0.04891611,5006,5006,0
303132067,303129596,2359306,2359306,-5.3007538e-05,9.136524e-06,2.1361413e-06,0.00026007893,0.001438309,-0.04915786,5002,5002,0
303631352,303629767,2359306,2359306,-4.7589652e-05,-1.233393e-06,-4.1242743e-06,0.0004003155,0.0012567771,-0.049000464,5010,5010,0
304132126,304129923,2359306,2359306,-1.5007696e-05,2.1552298e-06,7.69519e-07,0.00042427328,0.0009814925,-0.048732597,4988,4988,0
304631015,304630087,2359306,2359306,3.485055e-05,1.3253205e-05,-1.0114699e-05,0.00045832244,0.0010639583,-0.0490764,5002,5002,0
305132275,305130251,2359306,2359306,-2.4354867e-05,-4.3259797e-06,-3.2121238e-06,0.00043299203,0.0013075903,-0.04844765,4980,4980,0
305630921,305630415,2359306,2359306,-5.211662e-05,-2.3184047e-07,-4.9744217e-06,0.0004133936,0.0011789055,-0.04886246,5004,5004,0
306132131,306130579,2359306,2359306,-2.9026982e-05,-3.878505e-06,-1.7947108e-05,0.00035638272,0.0010866182,-0.048869275,5003,5003,0
306631257,306630744,2359306,2359306,6.623531e-05,3.6231172e-06,-1.2697164e-05,0.00035284946,0.0011914653,-0.048759714,5001,5001,0
307131474,307130909,2359306,2359306,-3.1191397e-05,-3.3218441e-06,-6.801277e-06,0.00040109953,0.0013506983,-0.048921756,5004,5004,0
307631599,307631075,2359306,2359306,-4.6745394e-05,1.056398e-05,-3.9615293e-06,0.0003465302,0.001295354,-0.048933607,5005,5005,0
308131777,308131246,2359306,2359306,-5.352094e-05,-3.278677e-08,-3.9743113e-06,0.00034512303,0.0011048287,-0.049110178,5011,5011,0
308632067,308631408,2359306,2359306,2.329135e-05,-2.3651753e-06,-8.273019e-06,0.00029373905,0.0012037857,-0.048908267,5007,5007,0
309132144,309131577,2359306,2359306,2.1223452e-05,6.7091905e-06,-3.9286506e-06,0.0002902232,0.0012490207,-0.048934285,5004,5004,0
309632293,309631734,2359306,2359306,-2.2606759e-05,5.1604384e-06,-2.7650594e-06,0.0002262308,0.0012481165,-0.04891864,5002,5002,0
310132438,310131926,2359306,2359306,-3.8653594e-05,8.682226e-06,8.860679e-06,0.00029740026,0.001206034,-0.049335893,5028,5028,0
310632624,310632066,2359306,2359306,-9.675174e-06,6.1579926e-06,1.1133838e-05,0.0004967086,0.0012016223,-0.049005214,5002,5002,0
312633241,312632732,2359306,2359306,-3.205527e-05,-1.8560828e-06,-3.4827463e-07,0.00042326795,0.0011637579,-0.049008265,4991,4991,0
313128434,313127898,2359306,2359306,-4.761339e-05,5.1655875e-06,-7.254246e-06,0.00014222407,0.0014095915,-0.048650786,5001,5001,0
313628584,313628074,2359306,2359306,3.4989418e-05,-3.7429052e-06,-1.5146207e-06,0.00046992273,0.0012411502,-0.04901202,5011,5011,0
314128759,314128248,2359306,2359306,-5.8720274e-05,-9.995709e-06,3.0002232e-06,0.0001713327,0.0013231749,-0.04909679,5016,5016,0
314628959,314628400,2359306,2359306,1.163069e-05,1.2684412e-05,-1.1639819e-05,1.7629502e-05,0.0013484613,-0.048646737,4999,4999,0
315129087,315128569,2359306,2359306,4.440687e-05,6.486275e-06,-7.706414e-06,0.00033622427,0.0011916949,-0.048746865,5003,5003,0
315629434,315628736,2359306,2359306,-2.305715e-05,1.6233098e-05,-8.5537595e-06,0.0004798848,0.0011698141,-0.04887071,5002,5002,0
316129599,316128920,2359306,2359306,-2.1674903e-05,-4.3209125e-06,8.005972e-06,0.0003395498,0.001103981,-0.049147923,5015,5015,0
316629612,316629073,2359306,2359306,2.2368655e-05,-8.102557e-06,-1.2692288e-05,0.00037754825,0.0011472908,-0.04881433,5001,5001,0
317130964,317129249,2359306,2359306,-6.3728135e-07,2.2710717e-06,-1.2367439e-05,0.00028159225,0.0012579297,-0.048752703,4999,4999,0
317630984,317629412,2359306,2359306,-1.6566777e-05,1.1837254e-06,-1.0766048e-06,0.00028568823,0.0012640877,-0.048927132,5003,5003,0
318130944,318129581,2359306,2359306,-2.1222117e-05,4.9416876e-06,-4.6857795e-06,0.0004053387,0.0011677813,-0.04883874,5002,5002,0
318630926,318629749,2359306,2359306,-2.3690563e-05,8.139242e-06,-2.9107102e-06,0.0004182252,0.0010820122,-0.048811633,5001,5001,0
319131175,319129919,2359306,2359306,3.6905156e-05,7.2328835e-06,-1.0215902e-05,0.00036879824,0.0011892354,-0.048798688,4982,4982,0
319630887,319630089,2359306,2359306,-2.4712735e-06,-4.5413603e-06,-6.5996956e-06,0.0003051968,0.0012728332,-0.04875808,5001,5001,0
320131008,320130258,2359306,2359306,-1.0668504e-05,-5.7278016e-06,-5.7332604e-06,0.00022273579,0.0012504521,-0.049001276,5001,5001,0
320631119,320630428,2359306,2359306,1.285184e-05,-6.418377e-06,-1.3295398e-05,0.0003656772,0.0011535909,-0.04884885,5002,5002,0
321131107,321130598,2359306,2359306,-0.00011070363,1.696764e-05,5.218353e-06,0.00040071548,0.0012612371,-0.04879237,5004,5004,0
321631441,321630768,2359306,2359306,-5.2701373e-05,2.1409932e-07,8.31285e-07,0.00040947666,0.0009226195,-0.04889477,5000,5000,0
322132578,322130939,2359306,2359306,2.348106e-05,1.6694965e-05,-5.007318e-06,0.00031811217,0.0010463772,-0.048939127,5004,5004,0
322631631,322631113,2359306,2359306,5.766001e-05,8.030553e-06,-1.5972953e-05,0.00040607873,0.0013338625,-0.048826944,5002,5002,0
324132146,324131622,2359306,2359306,1.0143195e-05,5.6401764e-06,-8.830536e-06,0.0003519,0.0011864593,-0.048629604,4993,4993,0
324632330,324631800,2359306,2359306,8.134886e-06,3.899103e-06,-1.8322062e-05,0.00029244568,0.0012054945,-0.048875056,5009,5009,0
325132475,325131965,2359306,2359306,-6.65663e-05,2.7579286e-05,-5.6016447e-06,0.00017676415,0.0011563924,-0.048667442,5002,5002,0
325632642,325632138,2359306,2359306,-5.085377e-05,-1.8570594e-05,3.6897367e-05,0.00037253468,0.0012138489,-0.048449505,5002,5002,0
326132820,326132310,2359306,2359306,-8.758293e-06,-5.160976e-06,-4.1223175e-05,-0.00020086257,0.0009992014,-0.047846008,5003,5003,0
326633009,326632479,2359306,2359306,-4.2846583e-05,-3.403338e-05,4.513384e-05,0.0007781919,0.00091054203,-0.047306754,4999,4999,0
327133285,327132651,2359306,2359306,-3.9366252e-05,-4.3059903e-05,9.84303e-05,0.0015361102,0.00068846793,-0.050332434,4993,4993,0
327633350,327632824,2359306,2359306,-1.237688e-05,-5.9991624e-05,-3.3042532e-05,-0.001069304,0.0024468366,-0.04696639,4995,4995,0
