timestamp,time_utc_usec,lat,lon,alt,alt_ellipsoid,s_variance_m_s,c_variance_rad,eph,epv,hdop,vdop,noise_per_ms,jamming_indicator,vel_m_s,vel_n_m_s,vel_e_m_s,vel_d_m_s,cog_rad,timestamp_time_relative,heading,heading_offset,fix_type,vel_ned_valid,satellites_used
65852522,1626773725200481,490896528,21103897,86874,132900,0.24200001,0.5264918,0.51100004,0.82600003,0.62,0.96,103,3,0.004,0.003,-0.003,-0.022000002,4.5905104,0,nan,0.0,3,1,18
66045373,1626773725400481,490896528,21103897,86873,132899,0.23900001,0.5265042,0.51100004,0.827,0.62,0.96,103,3,0.025,0.020000001,0.015000001,-0.033,4.5905104,0,nan,0.0,3,1,18
66246203,1626773725600481,490896528,21103897,86866,132891,0.16100001,0.5265126,0.512,0.82800007,0.62,0.96,103,3,0.020000001,-0.014,0.014,-0.009000001,4.5905104,0,nan,0.0,3,1,18
66446152,1626773725800481,490896528,21103898,86868,132893,0.21200001,0.5265236,0.512,0.82900006,0.62,0.96,103,3,0.045,0.039,0.023000002,0.060000002,4.5905104,0,nan,0.0,3,1,18
66646219,1626773726000481,490896528,21103897,86843,132869,0.22200002,0.5265353,0.512,0.83000004,0.62,0.96,103,3,0.031000001,0.0,-0.031000001,0.045,4.5905104,0,nan,0.0,3,1,18
67845486,1626773727200481,490896527,21103898,86841,132866,0.238,0.52660453,0.51100004,0.83000004,0.62,0.96,104,3,0.0050000004,-0.0050000004,-0.001,-0.064,4.5905104,0,nan,0.0,3,1,18
68045441,1626773727400481,490896527,21103898,86847,132872,0.17600001,0.52661383,0.51100004,0.83000004,0.62,0.96,104,3,0.020000001,-0.003,0.020000001,-0.010000001,4.5905104,0,nan,0.0,3,1,18
68251640,1626773727600480,490896527,21103899,86845,132870,0.24100001,0.5266264,0.51100004,0.83000004,0.62,0.96,104,3,0.014,-0.014,-0.003,0.037,4.5905104,0,nan,0.0,3,1,18
68446164,1626773727800480,490896526,21103899,86850,132876,0.224,0.5266379,0.51100004,0.83100003,0.62,0.96,104,3,0.024,0.015000001,-0.019000001,0.05,4.5905104,0,nan,0.0,3,1,18
68641473,1626773728000480,490896526,21103900,86837,132862,0.194,0.52664816,0.51100004,0.83100003,0.62,0.96,104,3,0.030000001,-0.004,0.030000001,-0.024,4.5905104,0,nan,0.0,3,1,18
68841441,1626773728200480,490896526,21103900,86841,132867,0.15200001,0.52665603,0.51100004,0.83100003,0.62,0.96,104,3,0.027,0.014,-0.023000002,-0.0050000004,4.5905104,0,nan,0.0,3,1,18
69042223,1626773728400480,490896526,21103900,86839,132865,0.18100001,0.5266655,0.51100004,0.83100003,0.62,0.96,104,3,0.030000001,0.019000001,-0.023000002,0.023000002,4.5905104,0,nan,0.0,3,1,18
69246145,1626773728600480,490896527,21103900,86845,132870,0.177,0.52667457,0.51100004,0.83100003,0.62,0.96,104,3,0.049000002,0.044000003,0.020000001,0.003,4.5905104,0,nan,0.0,3,1,18
69441631,1626773728800480,490896527,21103900,86835,132861,0.19500001,0.5266848,0.51100004,0.83100003,0.62,0.96,104,3,0.018000001,0.018000001,0.006,0.016,4.5905104,0,nan,0.0,3,1,18
69641677,1626773729000480,490896527,21103901,86844,132870,0.21400002,0.52669585,0.51000005,0.83100003,0.62,0.96,104,3,0.037,-0.016,0.033,0.052,4.5905104,0,nan,0.0,3,1,18
69845297,1626773729200480,490896527,21103902,86848,132874,0.165,0.52670455,0.51000005,0.83100003,0.62,0.96,104,3,0.05,-0.032,0.039,0.020000001,4.5905104,0,nan,0.0,3,1,18
70046163,1626773729400480,490896527,21103903,86856,132882,0.16800001,0.5267133,0.51000005,0.83100003,0.62,0.96,104,3,0.015000001,0.007,-0.013,-0.007,4.5905104,0,nan,0.0,3,1,18
70246148,1626773729600480,490896527,21103903,86868,132894,0.23300001,0.52672535,0.51000005,0.83100003,0.62,0.96,104,3,0.020000001,-0.018000001,-0.008,0.032,4.5905104,0,nan,0.0,3,1,18
70446170,1626773729800480,490896527,21103903,86869,132894,0.24100001,0.5267379,0.51000005,0.83100003,0.62,0.96,104,3,0.011000001,-0.008,-0.007,0.057000004,4.5905104,0,nan,0.0,3,1,18
70646172,1626773730000480,490896526,21103903,86869,132895,0.15200001,0.5267458,0.51000005,0.83000004,0.62,0.96,104,3,0.033,-0.023000002,0.023000002,0.004,4.5905104,0,nan,0.0,3,1,18
70846163,1626773730200480,490896526,21103903,86881,132906,0.21400002,0.52675694,0.51000005,0.83000004,0.62,0.96,104,3,0.054,-0.016,-0.052,0.055000003,4.5905104,0,nan,0.0,3,1,18
71045363,1626773730400480,490896526,21103901,86878,132904,0.21200001,0.5267681,0.51000005,0.83000004,0.62,0.96,104,3,0.066,-0.013,-0.064,0.067,4.5905104,0,nan,0.0,3,1,18
71246221,1626773730600480,490896526,21103900,86862,132888,0.19600001,0.5267782,0.51000005,0.83000004,0.62,0.96,104,3,0.036000002,0.035,0.0050000004,0.035,4.5905104,0,nan,0.0,3,1,18
71441327,1626773730800480,490896527,21103900,86868,132893,0.23,0.52679026,0.509,0.83000004,0.62,0.96,104,3,0.029000001,0.028,-0.008,0.104,4.5905104,0,nan,0.0,3,1,18
71652097,1626773731000480,490896527,21103900,86860,132885,0.22900002,0.5268021,0.509,0.82800007,0.62,0.96,104,3,0.012,0.009000001,0.009000001,0.09200001,4.5905104,0,nan,0.0,3,1,18
71846169,1626773731200479,490896527,21103900,86871,132897,0.19000001,0.5268121,0.508,0.82600003,0.62,0.96,104,3,0.021000002,0.012,-0.017,0.021000002,4.5905104,0,nan,0.0,3,1,18
72046226,1626773731400479,490896527,21103899,86882,132908,0.17400001,0.52682114,0.507,0.82400006,0.62,0.96,104,3,0.040000003,0.0,-0.040000003,0.020000001,4.5905104,0,nan,0.0,3,1,18
72241547,1626773731600479,490896527,21103898,86890,132915,0.216,0.52683234,0.507,0.822,0.62,0.96,104,2,0.015000001,0.015000001,0.002,0.052,4.5905104,0,nan,0.0,3,1,18
72442184,1626773731800479,490896527,21103898,86902,132928,0.21400002,0.5268435,0.50600004,0.82000005,0.62,0.96,104,2,0.022000002,-0.004,-0.021000002,0.038000003,4.5905104,0,nan,0.0,3,1,18
72646215,1626773732000479,490896527,21103897,86913,132939,0.18300001,0.5268529,0.505,0.818,0.62,0.96,104,2,0.029000001,0.027,0.010000001,0.027,4.5905104,0,nan,0.0,3,1,18
72841535,1626773732200479,490896527,21103898,86917,132943,0.22000001,0.52686447,0.505,0.81700003,0.62,0.96,104,2,0.013,-0.002,0.013,0.044000003,4.5905104,0,nan,0.0,3,1,18
73041481,1626773732400479,490896527,21103897,86914,132940,0.21400002,0.52687544,0.504,0.81600004,0.62,0.96,104,2,0.042000003,0.040000003,-0.013,0.095000006,4.5905104,0,nan,0.0,3,1,18
73245239,1626773732600479,490896527,21103897,86901,132926,0.22100002,0.52688694,0.504,0.814,0.62,0.96,104,4,0.017,-0.015000001,0.008,0.042000003,4.5905104,0,nan,0.0,3,1,18
73441512,1626773732800479,490896527,21103897,86932,132958,0.171,0.52689606,0.503,0.81200004,0.62,0.96,104,4,0.025,-0.023000002,0.010000001,0.018000001,4.5905104,0,nan,0.0,3,1,18
73642080,1626773733000479,490896527,21103896,86932,132957,0.141,0.52690333,0.50200003,0.81000006,0.62,0.96,104,4,0.045,0.036000002,-0.028,-0.009000001,4.5905104,0,nan,0.0,3,1,18
73841485,1626773733200479,490896527,21103895,86940,132965,0.19900002,0.52691364,0.50200003,0.809,0.62,0.96,104,4,0.042000003,0.025,-0.034,0.060000002,4.5905104,0,nan,0.0,3,1,18
74041599,1626773733400479,490896527,21103894,86939,132965,0.19800001,0.52692395,0.50100005,0.80700004,0.62,0.96,104,4,0.029000001,-0.029000001,-0.001,0.037,4.5905104,0,nan,0.0,3,1,18
74241623,1626773733600479,490896527,21103894,86953,132978,0.22100002,0.5269355,0.50100005,0.80600005,0.62,0.96,104,5,0.010000001,0.009000001,0.004,0.047000002,4.5905104,0,nan,0.0,3,1,18
74442157,1626773733800479,490896527,21103894,86960,132985,0.172,0.52694434,0.5,0.80500007,0.62,0.96,104,5,0.015000001,0.013,0.008,-0.003,4.5905104,0,nan,0.0,3,1,18
74646171,1626773734000479,490896527,21103893,86975,133000,0.21300001,0.52695554,0.5,0.80300003,0.62,0.96,104,5,0.032,-0.010000001,-0.031000001,0.048,4.5905104,0,nan,0.0,3,1,18
74851757,1626773734200479,490896527,21103892,86987,133012,0.22000001,0.5269669,0.499,0.80200005,0.62,0.96,104,5,0.027,-0.027,-0.0050000004,0.060000002,4.5905104,0,nan,0.0,3,1,18
75045392,1626773734400479,490896526,21103892,86994,133020,0.20700002,0.5269777,0.499,0.80100006,0.62,0.96,104,5,0.006,0.0050000004,0.004,-0.012,4.5905104,0,nan,0.0,3,1,18
75245586,1626773734600478,490896526,21103891,87012,133038,0.16800001,0.5269864,0.499,0.8,0.62,0.96,104,5,0.029000001,-0.002,-0.029000001,-0.014,4.5905104,0,nan,0.0,3,1,18
75445699,1626773734800478,490896526,21103890,87024,133050,0.208,0.52699727,0.49800003,0.799,0.62,0.96,104,5,0.011000001,0.011000001,0.001,-0.015000001,4.5905104,0,nan,0.0,3,1,18
75651764,1626773735000478,490896526,21103889,87036,133061,0.201,0.5270077,0.49800003,0.79800004,0.62,0.96,104,5,0.056,-0.031000001,-0.046000004,0.051000003,4.5905104,0,nan,0.0,3,1,18
75846203,1626773735200478,490896526,21103888,87035,133060,0.162,0.5270161,0.49800003,0.79700005,0.62,0.96,104,5,0.032,-0.004,-0.032,0.0050000004,4.5905104,0,nan,0.0,3,1,18
76041591,1626773735400478,490896526,21103887,87044,133070,0.223,0.5270278,0.497,0.79600006,0.62,0.96,104,5,0.014,0.013,-0.006,0.069000006,4.5905104,0,nan,0.0,3,1,18
76246266,1626773735600478,490896526,21103887,87047,133072,0.147,0.5270353,0.497,0.79600006,0.62,0.96,104,5,0.041,-0.026,0.032,-0.008,4.5905104,0,nan,0.0,3,1,18
76441557,1626773735800478,490896525,21103887,87066,133092,0.20300001,0.52704597,0.497,0.795,0.62,0.96,104,5,0.024,-0.024,0.001,-0.033,4.5905104,0,nan,0.0,3,1,18
76645456,1626773736000478,490896525,21103886,87074,133100,0.14500001,0.5270535,0.497,0.795,0.62,0.96,104,5,0.044000003,0.036000002,-0.026,0.003,4.5905104,0,nan,0.0,3,1,18
76845509,1626773736200478,490896525,21103885,87073,133099,0.224,0.527065,0.497,0.795,0.62,0.96,104,5,0.015000001,-0.003,0.015000001,0.051000003,4.5905104,0,nan,0.0,3,1,18
77052299,1626773736400478,490896525,21103885,87062,133087,0.17,0.5270739,0.497,0.795,0.62,0.96,104,5,0.023000002,0.004,0.022000002,0.009000001,4.5905104,0,nan,0.0,3,1,18
77241584,1626773736600478,490896525,21103885,87081,133106,0.14400001,0.5270814,0.49600002,0.794,0.62,0.96,104,2,0.012,-0.012,0.002,0.001,4.5905104,0,nan,0.0,3,1,18
77445429,1626773736800478,490896525,21103884,87064,133090,0.223,0.52709305,0.49600002,0.79300004,0.62,0.96,104,2,0.011000001,0.0,-0.011000001,0.058000002,4.5905104,0,nan,0.0,3,1,18
77642173,1626773737000478,490896525,21103883,87056,133082,0.21700001,0.52710426,0.49600002,0.79200006,0.62,0.96,104,2,0.004,0.0,0.004,0.030000001,4.5905104,0,nan,0.0,3,1,18
77841675,1626773737200478,490896525,21103882,87055,133081,0.18,0.5271137,0.49600002,0.79200006,0.62,0.96,104,2,0.035,-0.001,-0.035,0.020000001,4.5905104,0,nan,0.0,3,1,18
78041395,1626773737400478,490896525,21103881,87051,133077,0.192,0.52712363,0.49600002,0.79200006,0.62,0.96,104,2,0.052,0.040000003,-0.034,0.054,4.5905104,0,nan,0.0,3,1,18
78242394,1626773737600478,490896525,21103881,87053,133078,0.19700001,0.52713394,0.49600002,0.791,0.62,0.96,104,3,0.024,-0.008,0.023000002,0.027,4.5905104,0,nan,0.0,3,1,18
78441564,1626773737800478,490896525,21103881,87060,133086,0.21400002,0.5271451,0.49500003,0.791,0.62,0.96,104,3,0.015000001,0.009000001,0.011000001,0.026,4.5905104,0,nan,0.0,3,1,18
78651695,1626773738000478,490896526,21103881,87045,133071,0.24000001,0.5271575,0.49600002,0.79200006,0.62,0.96,104,3,0.020000001,-0.010000001,-0.017,0.08800001,4.5905104,0,nan,0.0,3,1,18
78846205,1626773738200477,490896526,21103880,87061,133087,0.238,0.5271699,0.49600002,0.794,0.62,0.96,104,3,0.027,-0.003,-0.027,0.051000003,4.5905104,0,nan,0.0,3,1,18
79041646,1626773738400477,490896526,21103880,87072,133097,0.172,0.52717876,0.497,0.79700005,0.62,0.96,104,3,0.061000004,-0.006,0.061000004,0.029000001,4.5905104,0,nan,0.0,3,1,18
79242143,1626773738600477,490896526,21103881,87079,133105,0.25800002,0.52719223,0.49800003,0.799,0.62,0.96,104,2,0.006,0.003,0.0050000004,-0.039,4.5905104,0,nan,0.0,3,1,18
79446236,1626773738800477,490896526,21103881,87080,133105,0.25500003,0.52720547,0.49800003,0.80100006,0.62,0.96,104,2,0.026,-0.025,-0.006,0.055000003,4.5905104,0,nan,0.0,3,1,18
79646441,1626773739000477,490896527,21103881,87082,133108,0.18900001,0.5272154,0.499,0.80300003,0.62,0.96,104,2,0.086,0.081,0.029000001,0.058000002,4.5905104,0,nan,0.0,3,1,18
79851987,1626773739200477,490896528,21103881,87092,133118,0.24100001,0.5272278,0.499,0.804,0.62,0.96,104,2,0.011000001,0.011000001,-0.001,0.056,4.5905104,0,nan,0.0,3,1,18
80046304,1626773739400477,490896529,21103881,87100,133126,0.19600001,0.52723813,0.499,0.804,0.62,0.96,104,2,0.004,-0.003,-0.003,-0.009000001,4.5905104,0,nan,0.0,3,1,18
80251728,1626773739600477,490896529,21103880,87124,133149,0.186,0.5272477,0.499,0.80300003,0.62,0.96,104,2,0.040000003,0.036000002,-0.016,0.035,4.5905104,0,nan,0.0,3,1,18
80446285,1626773739800477,490896530,21103879,87127,133152,0.19700001,0.52725804,0.499,0.80200005,0.62,0.96,104,2,0.024,0.004,-0.024,-0.027,4.5905104,0,nan,0.0,3,1,18
80642335,1626773740000477,490896530,21103879,87137,133163,0.16900001,0.52726674,0.49800003,0.80200005,0.62,0.96,104,2,0.043,0.020000001,0.037,0.006,4.5905104,0,nan,0.0,3,1,18
80851642,1626773740200477,490896531,21103880,87146,133172,0.16000001,0.5272751,0.49800003,0.80100006,0.62,0.96,104,2,0.040000003,-0.0050000004,0.039,0.011000001,4.5905104,0,nan,0.0,3,1,18
81041602,1626773740400477,490896531,21103880,87143,133169,0.18300001,0.52728474,0.49800003,0.80100006,0.62,0.96,104,2,0.016,-0.013,-0.011000001,-0.010000001,4.5905104,0,nan,0.0,3,1,18
81241614,1626773740600477,490896532,21103880,87154,133179,0.194,0.5272948,0.49800003,0.80200005,0.62,0.96,104,3,0.05,0.047000002,0.014,-0.014,4.5905104,0,nan,0.0,3,1,18
81441589,1626773740800477,490896533,21103880,87168,133194,0.18900001,0.52730465,0.499,0.80300003,0.62,0.96,104,3,0.046000004,0.033,0.033,-0.003,4.5905104,0,nan,0.0,3,1,18
81641418,1626773741000477,490896534,21103881,87180,133206,0.25300002,0.5273177,0.499,0.80500007,0.62,0.96,104,3,0.024,-0.024,-0.0050000004,0.064,4.5905104,0,nan,0.0,3,1,18
81841497,1626773741200477,490896535,21103880,87175,133201,0.16800001,0.5273264,0.5,0.80700004,0.62,0.96,104,3,0.032,0.019000001,-0.025,-0.011000001,4.5905104,0,nan,0.0,3,1,18
82042112,1626773741400477,490896535,21103879,87192,133217,0.245,0.52733916,0.50100005,0.81000006,0.62,0.96,104,3,0.041,-0.037,-0.018000001,0.036000002,4.5905104,0,nan,0.0,3,1,18
82242473,1626773741600477,490896535,21103878,87179,133205,0.215,0.52735037,0.50100005,0.813,0.62,0.96,105,3,0.045,-0.032,-0.032,0.017,4.5905104,0,nan,0.0,3,1,18
82441543,1626773741800476,490896535,21103878,87182,133207,0.20600002,0.527361,0.50200003,0.814,0.62,0.96,105,3,0.043,0.041,0.012,0.043,4.5905104,0,nan,0.0,3,1,18
82646197,1626773742000476,490896536,21103878,87179,133204,0.215,0.5273722,0.50200003,0.814,0.62,0.96,105,3,0.029000001,0.017,0.023000002,0.038000003,4.5905104,0,nan,0.0,3,1,18
82841683,1626773742200476,490896537,21103878,87179,133205,0.21200001,0.52738315,0.50200003,0.813,0.62,0.96,105,3,0.052,0.048,0.021000002,0.074,4.5905104,0,nan,0.0,3,1,18
83041437,1626773742400476,490896537,21103878,87174,133199,0.16800001,0.5273919,0.50100005,0.813,0.62,0.96,105,3,0.030000001,-0.028,-0.011000001,0.0,4.5905104,0,nan,0.0,3,1,18
83241521,1626773742600476,490896537,21103877,87186,133212,0.19000001,0.5274017,0.50100005,0.81200004,0.62,0.96,105,2,0.074,0.031000001,-0.067,-0.067,4.5905104,0,nan,0.0,3,1,18
83441660,1626773742800476,490896538,21103876,87185,133210,0.18900001,0.5274116,0.50100005,0.813,0.62,0.96,105,2,0.019000001,0.003,0.019000001,-0.009000001,4.5905104,0,nan,0.0,3,1,18
83646178,1626773743000476,490896538,21103877,87172,133198,0.156,0.5274196,0.50200003,0.813,0.62,0.96,105,2,0.015000001,-0.007,0.013,-0.003,4.5905104,0,nan,0.0,3,1,18
85246159,1626773744600476,490896540,21103880,87119,133145,0.164,0.5275018,0.50600004,0.823,0.62,0.96,111,3,0.040000003,0.0,-0.040000003,-0.006,4.5905104,0,nan,0.0,3,1,18
85452061,1626773744800476,490896541,21103879,87127,133152,0.201,0.5275123,0.507,0.82400006,0.62,0.96,111,3,0.011000001,0.008,-0.008,0.011000001,4.5905104,0,nan,0.0,3,1,18
85646171,1626773745000476,490896541,21103879,87119,133144,0.193,0.52752227,0.508,0.82600003,0.62,0.96,111,3,0.015000001,0.015000001,0.002,0.011000001,4.5905104,0,nan,0.0,3,1,18
85843154,1626773745200475,490896542,21103879,87112,133137,0.18,0.5275317,0.508,0.827,0.62,0.96,111,3,0.032,0.031000001,-0.007,0.019000001,4.5905104,0,nan,0.0,3,1,18
86041510,1626773745400475,490896542,21103879,87122,133147,0.24200001,0.52754426,0.508,0.82800007,0.62,0.96,111,3,0.006,-0.0050000004,-0.003,0.023000002,4.5905104,0,nan,0.0,3,1,18
86241527,1626773745600475,490896543,21103879,87122,133147,0.23500001,0.5275565,0.509,0.82900006,0.62,0.96,112,13,0.016,0.015000001,-0.004,0.060000002,4.5905104,0,nan,0.0,3,1,18
86442168,1626773745800475,490896543,21103879,87122,133148,0.23300001,0.5275685,0.509,0.83000004,0.62,0.96,112,13,0.002,0.0,0.002,-0.034,4.5905104,0,nan,0.0,3,1,18
86641670,1626773746000475,490896543,21103879,87113,133138,0.20500001,0.5275792,0.51000005,0.83100003,0.62,0.96,112,13,0.037,0.031000001,-0.021000002,0.043,4.5905104,0,nan,0.0,3,1,18
86842106,1626773746200475,490896544,21103878,87114,133140,0.17300001,0.52758825,0.51000005,0.83100003,0.62,0.96,112,13,0.034,0.020000001,-0.027,0.018000001,4.5905104,0,nan,0.0,3,1,18
87042207,1626773746400475,490896544,21103878,87110,133136,0.21700001,0.5275994,0.51000005,0.83100003,0.62,0.96,112,13,0.021000002,-0.007,-0.020000001,-0.035,4.5905104,0,nan,0.0,3,1,18
87241552,1626773746600475,490896544,21103878,87115,133140,0.177,0.52760863,0.51000005,0.83000004,0.62,0.96,112,14,0.031000001,0.011000001,0.029000001,0.012,4.5905104,0,nan,0.0,3,1,18
87441527,1626773746800475,490896544,21103879,87098,133124,0.216,0.52761984,0.51000005,0.82900006,0.62,0.96,112,14,0.047000002,-0.030000001,0.036000002,0.11400001,4.5905104,0,nan,0.0,3,1,18
87642116,1626773747000475,490896543,21103880,87080,133106,0.22000001,0.52763134,0.51000005,0.82800007,0.62,0.96,112,14,0.029000001,0.021000002,0.020000001,0.071,4.5905104,0,nan,0.0,3,1,18
87846156,1626773747200475,490896543,21103879,87072,133098,0.21100001,0.5276423,0.51000005,0.82800007,0.62,0.96,112,14,0.040000003,-0.026,-0.031000001,0.040000003,4.5905104,0,nan,0.0,3,1,18
88045372,1626773747400475,490896543,21103879,87068,133094,0.15100001,0.5276502,0.51000005,0.827,0.62,0.96,112,14,0.031000001,0.025,-0.018000001,0.006,4.5905104,0,nan,0.0,3,1,18
88246159,1626773747600475,490896543,21103879,87061,133087,0.238,0.5276624,0.51000005,0.82800007,0.62,0.96,112,8,0.012,0.003,-0.012,0.044000003,4.5905104,0,nan,0.0,3,1,18
88452314,1626773747800475,490896544,21103879,87058,133084,0.172,0.52767146,0.51100004,0.82900006,0.62,0.96,112,8,0.027,0.026,-0.007,-0.001,4.5905104,0,nan,0.0,3,1,18
88651644,1626773748000475,490896545,21103880,87059,133085,0.18900001,0.5276813,0.512,0.83100003,0.62,0.96,112,8,0.041,0.037,0.017,0.007,4.5905104,0,nan,0.0,3,1,18
88841471,1626773748200475,490896545,21103880,87061,133087,0.187,0.5276908,0.512,0.83300006,0.62,0.96,112,8,0.025,-0.025,-0.002,0.0,4.5905104,0,nan,0.0,3,1,18
89042114,1626773748400475,490896545,21103880,87067,133093,0.215,0.52770203,0.513,0.836,0.62,0.96,112,8,0.026,0.026,0.0,0.039,4.5905104,0,nan,0.0,3,1,18
89241628,1626773748600475,490896546,21103881,87072,133098,0.24000001,0.5277144,0.514,0.83800006,0.62,0.96,111,4,0.016,0.009000001,0.013,0.051000003,4.5905104,0,nan,0.0,3,1,18
89441428,1626773748800474,490896546,21103881,87065,133091,0.261,0.527728,0.514,0.84000003,0.62,0.96,111,4,0.008,-0.008,-0.001,0.044000003,4.5905104,0,nan,0.0,3,1,18
89641465,1626773749000474,490896546,21103881,87062,133087,0.19000001,0.5277378,0.51500005,0.84200007,0.62,0.96,111,4,0.024,-0.017,0.018000001,0.013,4.5905104,0,nan,0.0,3,1,18
89842830,1626773749200474,490896546,21103881,87075,133100,0.19000001,0.52774775,0.51600003,0.845,0.62,0.96,111,4,0.025,0.002,-0.025,-0.018000001,4.5905104,0,nan,0.0,3,1,18
90046246,1626773749400474,490896546,21103881,87059,133084,0.24900001,0.5277607,0.517,0.84700006,0.62,0.96,111,4,0.046000004,-0.024,-0.039,0.056,4.5905104,0,nan,0.0,3,1,18
90241488,1626773749600474,490896546,21103880,87050,133076,0.263,0.5277743,0.517,0.84900004,0.62,0.96,111,4,0.025,-0.023000002,-0.011000001,0.066,4.5905104,0,nan,0.0,3,1,18
90446165,1626773749800474,490896546,21103880,87033,133058,0.26000002,0.5277879,0.518,0.85200006,0.62,0.96,111,4,0.019000001,-0.019000001,0.0050000004,0.07700001,4.5905104,0,nan,0.0,3,1,18
90652015,1626773750000474,490896546,21103880,87011,133037,0.26200002,0.52780133,0.51900005,0.85400003,0.62,0.96,111,4,0.029000001,-0.020000001,-0.021000002,0.091000006,4.5905104,0,nan,0.0,3,1,18
90846175,1626773750200474,490896546,21103879,87024,133050,0.24700001,0.52781427,0.51900005,0.85600007,0.62,0.96,111,4,0.027,0.019000001,-0.019000001,0.094000004,4.5905104,0,nan,0.0,3,1,18
91051988,1626773750400474,490896547,21103880,87037,133063,0.259,0.5278277,0.52000004,0.85800004,0.62,0.96,111,4,0.008,-0.0050000004,0.006,0.072000004,4.5905104,0,nan,0.0,3,1,18
91246307,1626773750600474,490896547,21103880,87045,133070,0.20700002,0.5278385,0.521,0.86,0.62,0.96,112,4,0.029000001,-0.017,0.024,0.024,4.5905104,0,nan,0.0,3,1,18
91452386,1626773750800474,490896547,21103881,87049,133074,0.19000001,0.52784824,0.521,0.86200005,0.62,0.96,112,4,0.015000001,-0.012,-0.008,-0.002,4.5905104,0,nan,0.0,3,1,18
91641532,1626773751000474,490896547,21103881,87046,133072,0.224,0.52786,0.522,0.864,0.62,0.96,112,4,0.020000001,0.018000001,0.008,0.035,4.5905104,0,nan,0.0,3,1,18
91847198,1626773751200474,490896547,21103881,87035,133061,0.25800002,0.5278732,0.522,0.86500007,0.62,0.96,112,4,0.032,-0.012,-0.029000001,0.079,4.5905104,0,nan,0.0,3,1,18
93041533,1626773752400473,490896548,21103879,87029,133055,0.2,0.5279476,0.526,0.87500006,0.62,0.96,111,3,0.045,0.040000003,0.020000001,0.037,4.5905104,0,nan,0.0,3,1,18
93246150,1626773752600473,490896549,21103880,87025,133051,0.24000001,0.52796,0.526,0.87700003,0.62,0.96,111,3,0.026,0.010000001,0.024,0.069000006,4.5905104,0,nan,0.0,3,1,18
93446232,1626773752800473,490896549,21103880,87025,133050,0.25,0.52797306,0.527,0.87900007,0.62,0.96,111,3,0.004,0.002,-0.004,0.05,4.5905104,0,nan,0.0,3,1,18
93646184,1626773753000473,490896549,21103880,87020,133046,0.25,0.527986,0.528,0.88100004,0.62,0.96,111,3,0.001,0.0,0.001,0.059000004,4.5905104,0,nan,0.0,3,1,18
93847173,1626773753200473,490896549,21103880,87020,133046,0.224,0.5279977,0.528,0.882,0.62,0.96,111,3,0.045,-0.018000001,0.041,0.059000004,4.5905104,0,nan,0.0,3,1,18
94046186,1626773753400473,490896549,21103881,87054,133079,0.245,0.5280104,0.52900004,0.88400006,0.62,0.96,111,3,0.023000002,-0.009000001,0.021000002,0.059000004,4.5905104,0,nan,0.0,3,1,18
94246173,1626773753600473,490896549,21103882,87065,133091,0.178,0.52801967,0.52900004,0.88500005,0.62,0.96,111,3,0.008,0.0,-0.008,0.008,4.5905104,0,nan,0.0,3,1,18
94442359,1626773753800473,490896549,21103881,87077,133103,0.20500001,0.52803034,0.53000003,0.887,0.62,0.96,111,3,0.016,0.0,-0.016,0.010000001,4.5905104,0,nan,0.0,3,1,18
94656384,1626773754000473,490896549,21103881,87106,133132,0.23200001,0.5280424,0.53000003,0.8880001,0.62,0.96,111,3,0.020000001,-0.018000001,-0.009000001,0.011000001,4.5905104,0,nan,0.0,3,1,18
94846227,1626773754200473,490896548,21103881,87124,133150,0.24100001,0.5280548,0.531,0.89000005,0.62,0.96,111,3,0.020000001,-0.007,0.019000001,-0.039,4.5905104,0,nan,0.0,3,1,18
95042498,1626773754400473,490896548,21103881,87140,133166,0.163,0.5280633,0.531,0.89100003,0.62,0.96,111,3,0.022000002,0.020000001,-0.010000001,0.002,4.5905104,0,nan,0.0,3,1,18
95246170,1626773754600473,490896549,21103881,87159,133184,0.18900001,0.5280731,0.531,0.89300007,0.62,0.96,111,3,0.047000002,0.041,0.022000002,0.017,4.5905104,0,nan,0.0,3,1,18
95452282,1626773754800473,490896550,21103881,87172,133197,0.22100002,0.5280846,0.532,0.89400005,0.62,0.96,111,3,0.022000002,0.013,0.018000001,-0.011000001,4.5905104,0,nan,0.0,3,1,18
95651673,1626773755000473,490896550,21103882,87204,133230,0.224,0.52809614,0.532,0.89500004,0.62,0.96,111,3,0.030000001,-0.014,0.026,-0.040000003,4.5905104,0,nan,0.0,3,1,18
95847296,1626773755200473,490896550,21103883,87221,133247,0.23900001,0.5281087,0.532,0.896,0.62,0.96,111,3,0.002,-0.002,0.0,-0.030000001,4.5905104,0,nan,0.0,3,1,18
96042493,1626773755400473,490896550,21103883,87230,133255,0.19800001,0.52811897,0.53300005,0.897,0.62,0.96,111,3,0.046000004,0.045,-0.008,0.043,4.5905104,0,nan,0.0,3,1,18
96246212,1626773755600473,490896551,21103882,87240,133265,0.163,0.5281274,0.53300005,0.89900005,0.62,0.96,111,4,0.042000003,0.022000002,-0.036000002,0.014,4.5905104,0,nan,0.0,3,1,18
96441476,1626773755800472,490896551,21103882,87251,133276,0.26200002,0.52814096,0.53300005,0.90000004,0.62,0.96,111,4,0.044000003,-0.036000002,-0.026,0.141,4.5905104,0,nan,0.0,3,1,18
96642207,1626773756000472,490896551,21103881,87240,133266,0.23900001,0.52815336,0.53400004,0.901,0.62,0.96,111,4,0.030000001,-0.024,-0.018000001,0.022000002,4.5905104,0,nan,0.0,3,1,18
96842420,1626773756200472,490896551,21103881,87252,133277,0.24900001,0.5281663,0.53400004,0.90200007,0.62,0.96,111,4,0.048,-0.040000003,-0.026,0.046000004,4.5905104,0,nan,0.0,3,1,18
97042396,1626773756400472,490896550,21103881,87262,133288,0.24800001,0.5281792,0.53400004,0.90300006,0.62,0.96,111,4,0.014,0.001,-0.014,0.031000001,4.5905104,0,nan,0.0,3,1,18
97246150,1626773756600472,490896550,21103881,87261,133287,0.26200002,0.5281928,0.535,0.90400004,0.62,0.96,112,6,0.030000001,-0.028,-0.009000001,0.085,4.5905104,0,nan,0.0,3,1,18
97446174,1626773756800472,490896550,21103881,87250,133275,0.259,0.5282064,0.535,0.90500003,0.62,0.96,112,6,0.067,-0.053000003,-0.041,0.113000005,4.5905104,0,nan,0.0,3,1,18
97646199,1626773757000472,490896549,21103881,87264,133289,0.26200002,0.5282199,0.535,0.906,0.62,0.96,112,6,0.026,-0.024,-0.009000001,0.078,4.5905104,0,nan,0.0,3,1,18
97846170,1626773757200472,490896549,21103881,87271,133296,0.24800001,0.5282328,0.536,0.90700006,0.62,0.96,112,6,0.045,-0.024,-0.038000003,0.053000003,4.5905104,0,nan,0.0,3,1,18
98046169,1626773757400472,490896549,21103880,87268,133294,0.21800001,0.52824414,0.536,0.90800005,0.62,0.96,112,6,0.033,0.032,-0.006,0.049000002,4.5905104,0,nan,0.0,3,1,18
98246173,1626773757600472,490896550,21103881,87276,133302,0.259,0.52825755,0.536,0.90900004,0.62,0.96,112,5,0.016,-0.016,0.0050000004,0.126,4.5905104,0,nan,0.0,3,1,18
98451794,1626773757800472,490896549,21103882,87284,133309,0.21800001,0.5282689,0.536,0.91,0.62,0.96,112,5,0.058000002,-0.057000004,0.013,0.036000002,4.5905104,0,nan,0.0,3,1,18
98652003,1626773758000472,490896549,21103883,87292,133318,0.18300001,0.52827835,0.537,0.9110001,0.62,0.96,112,5,0.033,-0.013,0.030000001,0.019000001,4.5905104,0,nan,0.0,3,1,18
98847235,1626773758200472,490896549,21103884,87295,133321,0.18300001,0.52828777,0.537,0.91200006,0.62,0.96,112,5,0.048,0.024,0.041,0.007,4.5905104,0,nan,0.0,3,1,18
99042348,1626773758400472,490896549,21103885,87300,133326,0.20700002,0.52829856,0.537,0.91300005,0.62,0.96,112,5,0.028,-0.028,-0.003,0.008,4.5905104,0,nan,0.0,3,1,18
99246157,1626773758600472,490896549,21103885,87315,133341,0.263,0.5283124,0.537,0.91400003,0.62,0.96,112,4,0.027,-0.023000002,-0.014,0.104,4.5905104,0,nan,0.0,3,1,18
100047187,1626773759400471,490896549,21103886,87322,133348,0.16900001,0.5283574,0.53800005,0.91700006,0.62,0.96,112,4,0.013,-0.011000001,0.008,0.002,4.5905104,0,nan,0.0,3,1,18
100652014,1626773760000471,490896550,21103888,87323,133348,0.2,0.5283883,0.53900003,0.92,0.62,0.96,111,4,0.037,-0.034,0.015000001,0.017,4.5905104,0,nan,0.0,3,1,18
100846168,1626773760200471,490896550,21103889,87308,133334,0.26200002,0.5284019,0.53900003,0.92100006,0.62,0.96,111,4,0.008,-0.008,0.001,0.051000003,4.5905104,0,nan,0.0,3,1,18
101051669,1626773760400471,490896551,21103889,87308,133334,0.19800001,0.5284122,0.53900003,0.92100006,0.62,0.96,111,4,0.029000001,0.013,0.026,0.024,4.5905104,0,nan,0.0,3,1,18
101246206,1626773760600471,490896551,21103889,87299,133325,0.245,0.5284249,0.54,0.92200005,0.62,0.96,111,4,0.037,-0.033,-0.018000001,0.030000001,4.5905104,0,nan,0.0,3,1,18
101447315,1626773760800471,490896551,21103889,87297,133322,0.259,0.5284384,0.54,0.92300004,0.62,0.96,111,4,0.012,-0.002,-0.012,0.075,4.5905104,0,nan,0.0,3,1,18
101646181,1626773761000471,490896552,21103890,87304,133329,0.192,0.52844834,0.54,0.92300004,0.62,0.96,111,4,0.060000002,0.042000003,0.043,0.002,4.5905104,0,nan,0.0,3,1,18
101846169,1626773761200471,490896553,21103891,87289,133315,0.177,0.5284574,0.54,0.924,0.62,0.96,111,4,0.025,0.025,-0.002,0.009000001,4.5905104,0,nan,0.0,3,1,18
102046173,1626773761400471,490896554,21103891,87300,133326,0.20500001,0.528468,0.54,0.9250001,0.62,0.96,111,4,0.017,0.017,0.002,-0.004,4.5905104,0,nan,0.0,3,1,18
102252750,1626773761600471,490896554,21103892,87303,133328,0.202,0.52847856,0.541,0.9250001,0.62,0.96,111,4,0.040000003,0.038000003,0.014,-0.0050000004,4.5905104,0,nan,0.0,3,1,18
102452477,1626773761800471,490896555,21103892,87301,133327,0.24400002,0.52849126,0.541,0.92600006,0.62,0.96,111,4,0.044000003,0.027,0.035,-0.040000003,4.5905104,0,nan,0.0,3,1,18
102641595,1626773762000471,490896556,21103893,87304,133330,0.23700002,0.5285035,0.541,0.92600006,0.62,0.96,111,4,0.018000001,0.016,0.009000001,0.048,4.5905104,0,nan,0.0,3,1,18
102846167,1626773762200471,490896556,21103893,87305,133330,0.155,0.5285115,0.541,0.92700005,0.62,0.96,111,4,0.025,-0.017,0.019000001,-0.0050000004,4.5905104,0,nan,0.0,3,1,18
103045579,1626773762400471,490896557,21103893,87309,133334,0.252,0.5285248,0.541,0.92800003,0.62,0.96,111,4,0.017,0.016,-0.006,-0.029000001,4.5905104,0,nan,0.0,3,1,18
103251999,1626773762600471,490896557,21103893,87301,133327,0.194,0.5285347,0.541,0.92800003,0.62,0.96,112,4,0.029000001,0.015000001,-0.025,0.022000002,4.5905104,0,nan,0.0,3,1,18
103446233,1626773762800470,490896558,21103892,87287,133312,0.24700001,0.52854764,0.54200006,0.929,0.62,0.96,112,4,0.012,0.011000001,-0.004,0.049000002,4.5905104,0,nan,0.0,3,1,18
103646183,1626773763000470,490896558,21103892,87281,133306,0.19600001,0.5285578,0.54200006,0.929,0.62,0.96,112,4,0.030000001,0.018000001,0.024,-0.002,4.5905104,0,nan,0.0,3,1,18
103846176,1626773763200470,490896559,21103893,87277,133302,0.266,0.52857155,0.54200006,0.93000007,0.62,0.96,112,4,0.026,-0.022000002,-0.014,0.076000005,4.5905104,0,nan,0.0,3,1,18
104041470,1626773763400470,490896559,21103892,87280,133305,0.252,0.5285845,0.54200006,0.93100005,0.62,0.96,112,4,0.040000003,0.007,-0.039,0.106000006,4.5905104,0,nan,0.0,3,1,18
104246170,1626773763600470,490896560,21103892,87270,133296,0.26500002,0.52859825,0.54200006,0.93100005,0.62,0.96,112,4,0.009000001,-0.008,-0.001,0.036000002,4.5905104,0,nan,0.0,3,1,18
104446175,1626773763800470,490896560,21103892,87267,133293,0.261,0.52861184,0.54300004,0.93200004,0.62,0.96,112,4,0.018000001,-0.018000001,0.001,0.038000003,4.5905104,0,nan,0.0,3,1,18
104651573,1626773764000470,490896560,21103891,87251,133277,0.22600001,0.52862376,0.54300004,0.933,0.62,0.96,112,4,0.044000003,-0.026,-0.035,0.023000002,4.5905104,0,nan,0.0,3,1,18
104847702,1626773764200470,490896560,21103891,87246,133272,0.25500003,0.5286368,0.54300004,0.934,0.62,0.96,112,4,0.023000002,0.015000001,0.017,-0.028,4.5905104,0,nan,0.0,3,1,18
105046169,1626773764400470,490896561,21103891,87249,133274,0.20700002,0.52864766,0.54300004,0.93500006,0.62,0.96,112,4,0.030000001,0.019000001,0.024,0.030000001,4.5905104,0,nan,0.0,3,1,18
105252499,1626773764600470,490896561,21103892,87251,133277,0.24000001,0.52866,0.54300004,0.93600005,0.62,0.96,112,10,0.033,-0.024,-0.022000002,0.023000002,4.5905104,0,nan,0.0,3,1,18
105441646,1626773764800470,490896561,21103891,87249,133274,0.23700002,0.52867246,0.544,0.93600005,0.62,0.96,112,10,0.021000002,0.017,-0.012,0.045,4.5905104,0,nan,0.0,3,1,18
105646227,1626773765000470,490896561,21103890,87238,133264,0.18100001,0.5286817,0.544,0.93700004,0.62,0.96,112,10,0.038000003,-0.014,-0.036000002,-0.015000001,4.5905104,0,nan,0.0,3,1,18
105852079,1626773765200470,490896561,21103890,87234,133260,0.245,0.52869445,0.544,0.93700004,0.62,0.96,112,10,0.029000001,-0.023000002,-0.017,0.024,4.5905104,0,nan,0.0,3,1,18
106046174,1626773765400470,490896561,21103889,87233,133259,0.24900001,0.5287073,0.544,0.938,0.62,0.96,112,10,0.035,-0.008,-0.034,0.058000002,4.5905104,0,nan,0.0,3,1,18
106246483,1626773765600470,490896561,21103888,87226,133252,0.23900001,0.5287197,0.544,0.938,0.62,0.96,111,4,0.013,0.010000001,-0.008,-0.018000001,4.5905104,0,nan,0.0,3,1,18
106446173,1626773765800470,490896561,21103887,87230,133256,0.254,0.5287328,0.544,0.93900007,0.62,0.96,111,4,0.066,-0.059000004,-0.028,0.076000005,4.5905104,0,nan,0.0,3,1,18
106651775,1626773766000470,490896561,21103887,87221,133246,0.256,0.52874625,0.544,0.93900007,0.62,0.96,111,4,0.012,-0.010000001,0.0050000004,0.029000001,4.5905104,0,nan,0.0,3,1,18
106846161,1626773766200469,490896561,21103888,87216,133242,0.21900001,0.52875763,0.544,0.94000006,0.62,0.96,111,4,0.015000001,-0.014,0.006,0.011000001,4.5905104,0,nan,0.0,3,1,18
107052002,1626773766400469,490896561,21103888,87223,133249,0.21700001,0.5287688,0.545,0.94000006,0.62,0.96,111,4,0.041,-0.024,-0.033,0.017,4.5905104,0,nan,0.0,3,1,18
107246177,1626773766600469,490896561,21103887,87211,133236,0.25800002,0.5287822,0.545,0.94000006,0.62,0.96,111,4,0.032,-0.020000001,-0.025,0.055000003,4.5905104,0,nan,0.0,3,1,18
107451749,1626773766800469,490896561,21103888,87220,133246,0.22700001,0.5287941,0.545,0.94100004,0.62,0.96,111,4,0.028,0.006,0.027,-0.024,4.5905104,0,nan,0.0,3,1,18
107651744,1626773767000469,490896562,21103888,87246,133271,0.261,0.5288075,0.545,0.94100004,0.62,0.96,111,4,0.018000001,0.018000001,0.002,-0.043,4.5905104,0,nan,0.0,3,1,18
107851763,1626773767200469,490896562,21103889,87252,133277,0.20300001,0.52881813,0.545,0.94100004,0.62,0.96,111,4,0.028,-0.023000002,-0.016,0.003,4.5905104,0,nan,0.0,3,1,18
108051786,1626773767400469,490896562,21103888,87256,133281,0.19000001,0.52882797,0.545,0.94200003,0.62,0.96,111,4,0.032,-0.021000002,-0.024,-0.003,4.5905104,0,nan,0.0,3,1,18
108241652,1626773767600469,490896563,21103889,87253,133279,0.21900001,0.5288393,0.545,0.94200003,0.62,0.96,112,4,0.034,0.019000001,0.029000001,0.047000002,4.5905104,0,nan,0.0,3,1,18
108452298,1626773767800469,490896562,21103889,87254,133279,0.25800002,0.5288527,0.546,0.943,0.62,0.96,112,4,0.071,-0.07,-0.015000001,0.08400001,4.5905104,0,nan,0.0,3,1,18
108646159,1626773768000469,490896562,21103889,87250,133276,0.261,0.5288662,0.546,0.943,0.62,0.96,112,4,0.024,-0.024,-0.004,0.040000003,4.5905104,0,nan,0.0,3,1,18
108846168,1626773768200469,490896562,21103889,87250,133276,0.162,0.5288746,0.546,0.94400007,0.62,0.96,112,4,0.05,0.043,-0.026,0.014,4.5905104,0,nan,0.0,3,1,18
109051690,1626773768400469,490896563,21103889,87254,133280,0.24800001,0.52888745,0.546,0.943,0.62,0.96,112,4,0.024,-0.008,-0.023000002,0.041,4.5905104,0,nan,0.0,3,1,18
109252352,1626773768600469,490896562,21103889,87254,133279,0.20600002,0.5288981,0.546,0.94200003,0.62,0.96,112,4,0.030000001,-0.030000001,0.001,0.013,4.5905104,0,nan,0.0,3,1,18
109451667,1626773768800469,490896562,21103889,87267,133293,0.16900001,0.5289068,0.545,0.94200003,0.62,0.96,112,4,0.029000001,0.026,-0.013,-0.004,4.5905104,0,nan,0.0,3,1,18
109646178,1626773769000469,490896563,21103890,87272,133297,0.25500003,0.5289201,0.545,0.94100004,0.62,0.96,112,4,0.003,-0.003,0.002,0.048,4.5905104,0,nan,0.0,3,1,18
109846318,1626773769200469,490896563,21103890,87273,133298,0.23500001,0.5289323,0.545,0.94100004,0.62,0.96,112,4,0.019000001,-0.018000001,-0.007,0.014,4.5905104,0,nan,0.0,3,1,18
110047276,1626773769400469,490896562,21103890,87284,133310,0.259,0.52894574,0.545,0.94100004,0.62,0.96,112,4,0.017,-0.012,-0.012,0.042000003,4.5905104,0,nan,0.0,3,1,18
110247187,1626773769600468,490896562,21103890,87267,133293,0.194,0.5289559,0.545,0.94200003,0.62,0.96,112,4,0.037,-0.0050000004,-0.037,0.015000001,4.5905104,0,nan,0.0,3,1,18
110446196,1626773769800468,490896562,21103889,87270,133295,0.19600001,0.528966,0.545,0.94200003,0.62,0.96,112,4,0.032,-0.003,-0.032,0.014,4.5905104,0,nan,0.0,3,1,18
110646181,1626773770000468,490896562,21103889,87275,133300,0.238,0.5289782,0.546,0.94200003,0.62,0.96,112,4,0.026,-0.019000001,0.017,0.037,4.5905104,0,nan,0.0,3,1,18
110846146,1626773770200468,490896562,21103889,87284,133310,0.263,0.528992,0.546,0.943,0.62,0.96,112,4,0.010000001,-0.010000001,0.0,0.034,4.5905104,0,nan,0.0,3,1,18
111451752,1626773770800468,490896562,21103889,87286,133312,0.23600002,0.52903056,0.546,0.94400007,0.62,0.96,112,4,0.071,0.064,0.030000001,-0.043,4.5905104,0,nan,0.0,3,1,18
111651701,1626773771000468,490896562,21103889,87295,133320,0.261,0.52904415,0.546,0.94400007,0.62,0.96,112,4,0.039,-0.032,-0.022000002,0.058000002,4.5905104,0,nan,0.0,3,1,18
111846180,1626773771200468,490896561,21103888,87289,133315,0.259,0.52905744,0.546,0.94500005,0.62,0.96,112,4,0.033,-0.032,0.008,0.07300001,4.5905104,0,nan,0.0,3,1,18
112046177,1626773771400468,490896561,21103889,87282,133308,0.22700001,0.5290693,0.546,0.94500005,0.62,0.96,112,4,0.035,0.011000001,0.033,0.056,4.5905104,0,nan,0.0,3,1,18
112251664,1626773771600468,490896561,21103890,87286,133312,0.193,0.52907926,0.54700005,0.94500005,0.62,0.96,112,5,0.026,0.0,0.026,-0.011000001,4.5905104,0,nan,0.0,3,1,18
112446164,1626773771800468,490896561,21103890,87279,133305,0.256,0.5290927,0.54700005,0.94600004,0.62,0.96,112,5,0.008,-0.001,-0.008,0.016,4.5905104,0,nan,0.0,3,1,18
112652082,1626773772000468,490896561,21103889,87272,133298,0.202,0.5291032,0.54700005,0.94600004,0.62,0.96,112,5,0.020000001,-0.003,-0.020000001,-0.018000001,4.5905104,0,nan,0.0,3,1,18
112846184,1626773772200468,490896561,21103889,87276,133301,0.25300002,0.5291163,0.54700005,0.94600004,0.62,0.96,112,5,0.017,0.013,-0.010000001,0.115,4.5905104,0,nan,0.0,3,1,18
113046173,1626773772400468,490896561,21103888,87260,133286,0.26000002,0.5291297,0.54700005,0.94600004,0.62,0.96,112,5,0.014,-0.0050000004,-0.013,0.10700001,4.5905104,0,nan,0.0,3,1,18
113246251,1626773772600468,490896561,21103888,87254,133280,0.263,0.52914333,0.54700005,0.94600004,0.62,0.96,112,5,0.028,-0.025,-0.012,0.062000003,4.5905104,0,nan,0.0,3,1,18
113446289,1626773772800468,490896560,21103888,87247,133273,0.21000001,0.5291543,0.54700005,0.94600004,0.62,0.96,112,5,0.020000001,-0.015000001,0.013,-0.023000002,4.5905104,0,nan,0.0,3,1,18
113856582,1626773773200467,490896560,21103888,87284,133310,0.256,0.52918017,0.54700005,0.94600004,0.62,0.96,112,5,0.024,-0.020000001,0.013,0.08800001,4.5905104,0,nan,0.0,3,1,18
114052281,1626773773400467,490896560,21103887,87267,133293,0.23400001,0.5291924,0.54700005,0.94600004,0.62,0.96,112,5,0.020000001,-0.003,-0.020000001,0.022000002,4.5905104,0,nan,0.0,3,1,18
114249353,1626773773600467,490896560,21103886,87259,133284,0.186,0.529202,0.54700005,0.94500005,0.62,0.96,112,5,0.043,0.041,-0.011000001,0.029000001,4.5905104,0,nan,0.0,3,1,18
114446268,1626773773800467,490896561,21103886,87267,133293,0.23700002,0.52921414,0.54700005,0.94500005,0.62,0.96,112,5,0.031000001,0.017,0.026,0.07700001,4.5905104,0,nan,0.0,3,1,18
114646235,1626773774000467,490896561,21103886,87271,133296,0.22100002,0.5292257,0.54700005,0.94500005,0.62,0.96,112,5,0.031000001,0.026,0.018000001,0.047000002,4.5905104,0,nan,0.0,3,1,18
114846459,1626773774200467,490896561,21103887,87278,133304,0.19700001,0.5292358,0.54700005,0.94400007,0.62,0.96,112,5,0.039,0.026,0.029000001,0.028,4.5905104,0,nan,0.0,3,1,18
115045246,1626773774400467,490896562,21103887,87271,133296,0.245,0.5292486,0.54700005,0.943,0.62,0.96,112,5,0.023000002,0.017,-0.016,0.080000006,4.5905104,0,nan,0.0,3,1,18
115252417,1626773774600467,490896561,21103886,87266,133292,0.186,0.52925813,0.546,0.943,0.62,0.96,112,4,0.048,-0.039,-0.027,-0.010000001,4.5905104,0,nan,0.0,3,1,18
115446431,1626773774800467,490896561,21103885,87254,133280,0.21200001,0.52926916,0.546,0.94200003,0.62,0.96,112,4,0.023000002,0.021000002,-0.010000001,0.030000001,4.5905104,0,nan,0.0,3,1,18
115646432,1626773775000467,490896561,21103885,87266,133291,0.23400001,0.5292814,0.546,0.94100004,0.62,0.96,112,4,0.043,-0.042000003,-0.008,0.037,4.5905104,0,nan,0.0,3,1,18
115846172,1626773775200467,490896560,21103885,87271,133296,0.24900001,0.52929413,0.546,0.94000006,0.62,0.96,112,4,0.006,-0.001,0.006,-0.078,4.5905104,0,nan,0.0,3,1,18
116052392,1626773775400467,490896560,21103884,87282,133307,0.22200002,0.52930564,0.546,0.93900007,0.62,0.96,112,4,0.007,-0.004,-0.0050000004,-0.019000001,4.5905104,0,nan,0.0,3,1,18
116246221,1626773775600467,490896560,21103884,87286,133312,0.19900002,0.52931595,0.545,0.93900007,0.62,0.96,112,4,0.036000002,-0.035,-0.010000001,0.006,4.5905104,0,nan,0.0,3,1,18
116445259,1626773775800467,490896560,21103884,87282,133308,0.21000001,0.5293269,0.545,0.93900007,0.62,0.96,112,4,0.026,0.008,0.024,-0.013,4.5905104,0,nan,0.0,3,1,18
116645380,1626773776000467,490896560,21103884,87281,133306,0.259,0.5293402,0.545,0.938,0.62,0.96,112,4,0.016,-0.013,-0.010000001,0.065000005,4.5905104,0,nan,0.0,3,1,18
116846171,1626773776200467,490896560,21103884,87274,133300,0.24800001,0.5293531,0.545,0.938,0.62,0.96,112,4,0.009000001,0.008,-0.003,0.069000006,4.5905104,0,nan,0.0,3,1,18
117046169,1626773776400467,490896559,21103885,87288,133314,0.164,0.52936167,0.545,0.93700004,0.62,0.96,112,4,0.044000003,-0.040000003,0.019000001,0.0,4.5905104,0,nan,0.0,3,1,18
117246165,1626773776600466,490896559,21103884,87290,133315,0.16600001,0.52937037,0.545,0.93700004,0.62,0.96,112,4,0.064,-0.001,-0.064,0.002,4.5905104,0,nan,0.0,3,1,18
117446209,1626773776800466,490896559,21103883,87299,133324,0.24800001,0.5293831,0.545,0.93700004,0.62,0.96,112,4,0.010000001,0.003,-0.009000001,-0.038000003,4.5905104,0,nan,0.0,3,1,18
117652320,1626773777000466,490896559,21103883,87308,133334,0.18,0.52939254,0.545,0.93600005,0.62,0.96,112,4,0.021000002,0.008,0.020000001,0.008,4.5905104,0,nan,0.0,3,1,18
117841671,1626773777200466,490896560,21103884,87314,133339,0.23700002,0.52940476,0.545,0.93600005,0.62,0.96,112,4,0.021000002,-0.010000001,0.019000001,0.043,4.5905104,0,nan,0.0,3,1,18
120051986,1626773779400466,490896560,21103884,87402,133428,0.23700002,0.52952254,0.545,0.934,0.62,0.96,112,5,0.020000001,-0.006,-0.019000001,0.022000002,4.5905104,0,nan,0.0,3,1,18
120252548,1626773779600466,490896560,21103884,87423,133448,0.26200002,0.5295362,0.545,0.93500006,0.62,0.96,112,5,0.010000001,-0.002,-0.010000001,0.044000003,4.5905104,0,nan,0.0,3,1,18
120446171,1626773779800466,490896560,21103883,87434,133460,0.25500003,0.5295493,0.545,0.93500006,0.62,0.96,112,5,0.022000002,-0.013,-0.018000001,0.032,4.5905104,0,nan,0.0,3,1,18
120652378,1626773780000465,490896560,21103882,87439,133464,0.23300001,0.5295615,0.545,0.93600005,0.62,0.96,112,5,0.048,0.017,-0.045,0.074,4.5905104,0,nan,0.0,3,1,18
120851699,1626773780200465,490896560,21103881,87437,133463,0.24700001,0.5295742,0.545,0.93600005,0.62,0.96,112,5,0.012,0.008,-0.009000001,0.039,4.5905104,0,nan,0.0,3,1,18
121051643,1626773780400465,490896560,21103881,87443,133468,0.22900002,0.52958614,0.545,0.93600005,0.62,0.96,112,5,0.034,-0.033,-0.006,0.019000001,4.5905104,0,nan,0.0,3,1,18
121252080,1626773780600465,490896559,21103881,87456,133482,0.20700002,0.52959675,0.545,0.93600005,0.62,0.96,112,4,0.004,-0.003,-0.001,-0.011000001,4.5905104,0,nan,0.0,3,1,18
121447204,1626773780800465,490896559,21103881,87478,133503,0.23,0.5296088,0.545,0.93600005,0.62,0.96,112,4,0.001,-0.001,-0.001,0.007,4.5905104,0,nan,0.0,3,1,18
121651640,1626773781000465,490896559,21103881,87501,133526,0.186,0.5296184,0.546,0.93700004,0.62,0.96,112,4,0.023000002,0.020000001,-0.010000001,-0.007,4.5905104,0,nan,0.0,3,1,18
121846160,1626773781200465,490896560,21103882,87511,133537,0.22000001,0.52962977,0.545,0.93700004,0.62,0.96,112,4,0.045,0.041,0.020000001,-0.019000001,4.5905104,0,nan,0.0,3,1,18
122446320,1626773781800465,490896560,21103883,87512,133537,0.21100001,0.5296631,0.545,0.93700004,0.62,0.96,112,5,0.038000003,-0.013,-0.036000002,-0.045,4.5905104,0,nan,0.0,3,1,18
122651751,1626773782000465,490896560,21103883,87500,133526,0.24200001,0.52967566,0.545,0.93700004,0.62,0.96,112,5,0.020000001,0.016,-0.012,0.058000002,4.5905104,0,nan,0.0,3,1,18
122852455,1626773782200465,490896560,21103883,87497,133523,0.238,0.5296879,0.545,0.93700004,0.62,0.96,112,5,0.020000001,-0.011000001,0.017,0.037,4.5905104,0,nan,0.0,3,1,18
123051672,1626773782400465,490896560,21103884,87496,133522,0.177,0.52969694,0.545,0.93600005,0.62,0.96,112,5,0.039,0.039,-0.0050000004,0.017,4.5905104,0,nan,0.0,3,1,18
123246176,1626773782600465,490896561,21103883,87499,133525,0.208,0.5297078,0.545,0.93600005,0.62,0.96,112,5,0.026,0.021000002,-0.015000001,-0.019000001,4.5905104,0,nan,0.0,3,1,18
123452524,1626773782800465,490896561,21103884,87494,133519,0.22700001,0.5297194,0.545,0.93600005,0.62,0.96,112,5,0.030000001,0.020000001,0.023000002,-0.018000001,4.5905104,0,nan,0.0,3,1,18
123651577,1626773783000465,490896562,21103884,87509,133535,0.18800001,0.52972925,0.545,0.93600005,0.62,0.96,112,5,0.026,0.023000002,-0.012,0.021000002,4.5905104,0,nan,0.0,3,1,18
123856309,1626773783200465,490896562,21103883,87505,133530,0.23200001,0.5297413,0.545,0.93600005,0.62,0.96,112,5,0.044000003,0.027,-0.035,-0.066,4.5905104,0,nan,0.0,3,1,18
124052530,1626773783400465,490896562,21103882,87518,133543,0.25500003,0.52975434,0.545,0.93500006,0.62,0.96,112,5,0.025,-0.022000002,-0.011000001,0.034,4.5905104,0,nan,0.0,3,1,18
124252041,1626773783600464,490896562,21103882,87513,133538,0.24000001,0.5297669,0.545,0.93500006,0.62,0.96,112,5,0.021000002,-0.002,0.021000002,0.054,4.5905104,0,nan,0.0,3,1,18
124451682,1626773783800464,490896561,21103882,87502,133528,0.19800001,0.52977705,0.545,0.93500006,0.62,0.96,112,5,0.017,-0.007,-0.015000001,-0.014,4.5905104,0,nan,0.0,3,1,18
124652534,1626773784000464,490896561,21103882,87521,133546,0.252,0.52979016,0.545,0.934,0.62,0.96,112,5,0.022000002,-0.018000001,0.013,0.07,4.5905104,0,nan,0.0,3,1,18
124846205,1626773784200464,490896561,21103882,87507,133533,0.18,0.5297994,0.545,0.934,0.62,0.96,112,5,0.029000001,-0.010000001,0.027,0.016,4.5905104,0,nan,0.0,3,1,18
125046168,1626773784400464,490896560,21103883,87514,133540,0.15,0.52980727,0.545,0.933,0.62,0.96,112,5,0.010000001,-0.004,0.009000001,-0.001,4.5905104,0,nan,0.0,3,1,18
125246155,1626773784600464,490896560,21103882,87522,133548,0.155,0.52981526,0.545,0.933,0.62,0.96,112,5,0.048,0.035,-0.033,0.010000001,4.5905104,0,nan,0.0,3,1,18
125452702,1626773784800464,490896561,21103882,87539,133564,0.187,0.5298251,0.545,0.933,0.62,0.96,112,5,0.028,0.027,0.0050000004,0.014,4.5905104,0,nan,0.0,3,1,18
125646153,1626773785000464,490896561,21103882,87530,133556,0.25100002,0.52983797,0.545,0.933,0.62,0.96,112,5,0.012,-0.007,0.010000001,-0.064,4.5905104,0,nan,0.0,3,1,18
125846210,1626773785200464,490896561,21103882,87540,133565,0.22200002,0.52984947,0.545,0.933,0.62,0.96,112,5,0.009000001,-0.0050000004,-0.007,-0.019000001,4.5905104,0,nan,0.0,3,1,18
126045482,1626773785400464,490896561,21103882,87547,133572,0.187,0.52985907,0.545,0.93200004,0.62,0.96,112,5,0.009000001,0.002,-0.008,0.009000001,4.5905104,0,nan,0.0,3,1,18
126246245,1626773785600464,490896560,21103882,87555,133580,0.208,0.5298699,0.545,0.93200004,0.62,0.96,112,4,0.020000001,-0.016,-0.012,0.004,4.5905104,0,nan,0.0,3,1,18
126445387,1626773785800464,490896560,21103882,87555,133581,0.24800001,0.52988267,0.545,0.933,0.62,0.96,112,4,0.023000002,-0.002,0.022000002,-0.052,4.5905104,0,nan,0.0,3,1,18
126646287,1626773786000464,490896560,21103882,87549,133574,0.25,0.52989554,0.545,0.933,0.62,0.96,112,4,0.029000001,-0.003,0.029000001,-0.075,4.5905104,0,nan,0.0,3,1,18
126851741,1626773786200464,490896560,21103883,87547,133572,0.21100001,0.5299066,0.545,0.933,0.62,0.96,112,4,0.017,0.001,0.017,0.018000001,4.5905104,0,nan,0.0,3,1,18
127052030,1626773786400464,490896560,21103883,87551,133576,0.26000002,0.52992,0.545,0.933,0.62,0.96,112,4,0.006,-0.002,-0.0050000004,0.10700001,4.5905104,0,nan,0.0,3,1,18
127246177,1626773786600464,490896560,21103883,87547,133573,0.259,0.5299333,0.545,0.933,0.62,0.96,112,4,0.024,-0.015000001,-0.019000001,0.063,4.5905104,0,nan,0.0,3,1,18
127445498,1626773786800464,490896560,21103883,87547,133573,0.20600002,0.52994406,0.545,0.93200004,0.62,0.96,112,4,0.016,0.0050000004,0.016,-0.008,4.5905104,0,nan,0.0,3,1,18
127651749,1626773787000463,490896560,21103883,87550,133576,0.259,0.52995735,0.545,0.93200004,0.62,0.96,112,4,0.017,-0.017,-0.002,0.085,4.5905104,0,nan,0.0,3,1,18
127847168,1626773787200463,490896559,21103883,87543,133569,0.252,0.5299704,0.545,0.93200004,0.62,0.96,112,4,0.008,-0.007,-0.003,0.014,4.5905104,0,nan,0.0,3,1,18
128051581,1626773787400463,490896559,21103883,87544,133569,0.238,0.52998286,0.544,0.93200004,0.62,0.96,112,4,0.033,0.0050000004,-0.032,0.053000003,4.5905104,0,nan,0.0,3,1,18
128246176,1626773787600463,490896559,21103883,87552,133578,0.19500001,0.52999276,0.544,0.93200004,0.62,0.96,112,5,0.055000003,0.036000002,0.042000003,-0.0050000004,4.5905104,0,nan,0.0,3,1,18
128446241,1626773787800463,490896560,21103884,87565,133590,0.22000001,0.53000426,0.544,0.93200004,0.62,0.96,112,5,0.024,-0.003,0.024,-0.024,4.5905104,0,nan,0.0,3,1,18
128652128,1626773788000463,490896559,21103884,87569,133595,0.162,0.5300125,0.544,0.93200004,0.62,0.96,112,5,0.018000001,-0.014,0.011000001,0.002,4.5905104,0,nan,0.0,3,1,18
128851699,1626773788200463,490896559,21103884,87571,133596,0.187,0.53002226,0.544,0.93200004,0.62,0.96,112,5,0.042000003,0.038000003,0.016,0.013,4.5905104,0,nan,0.0,3,1,18
129042110,1626773788400463,490896560,21103885,87572,133598,0.19800001,0.5300326,0.544,0.93200004,0.62,0.96,112,5,0.064,0.042000003,0.049000002,-0.008,4.5905104,0,nan,0.0,3,1,18
129245639,1626773788600463,490896560,21103885,87577,133603,0.15200001,0.53004044,0.544,0.93100005,0.62,0.96,112,4,0.054,0.034,-0.042000003,0.007,4.5905104,0,nan,0.0,3,1,18
129446162,1626773788800463,490896561,21103885,87597,133623,0.20300001,0.5300509,0.544,0.93100005,0.62,0.96,112,4,0.042000003,0.002,0.042000003,0.040000003,4.5905104,0,nan,0.0,3,1,18
129645501,1626773789000463,490896560,21103885,87594,133620,0.20700002,0.53006154,0.544,0.93100005,0.62,0.96,112,4,0.025,-0.022000002,-0.012,-0.026,4.5905104,0,nan,0.0,3,1,18
129851675,1626773789200463,490896560,21103884,87609,133634,0.224,0.5300732,0.544,0.93100005,0.62,0.96,112,4,0.025,-0.014,-0.020000001,-0.042000003,4.5905104,0,nan,0.0,3,1,18
130051957,1626773789400463,490896560,21103885,87625,133650,0.23600002,0.53008544,0.544,0.93200004,0.62,0.96,112,4,0.059000004,0.044000003,0.039,-0.043,4.5905104,0,nan,0.0,3,1,18
130246149,1626773789600463,490896561,21103886,87623,133649,0.193,0.5300954,0.545,0.93200004,0.62,0.96,112,5,0.029000001,0.020000001,0.021000002,0.017,4.5905104,0,nan,0.0,3,1,18
130446235,1626773789800463,490896561,21103886,87628,133654,0.177,0.53010464,0.545,0.93200004,0.62,0.96,112,5,0.011000001,0.010000001,-0.0050000004,-0.003,4.5905104,0,nan,0.0,3,1,18
130652550,1626773790000463,490896561,21103886,87627,133652,0.24300002,0.5301172,0.545,0.93200004,0.62,0.96,112,5,0.014,0.014,0.001,0.056,4.5905104,0,nan,0.0,3,1,18
130851694,1626773790200463,490896561,21103886,87615,133640,0.22000001,0.53012854,0.545,0.93200004,0.62,0.96,112,5,0.015000001,0.015000001,0.0,-0.008,4.5905104,0,nan,0.0,3,1,18
131049314,1626773790400462,490896561,21103886,87612,133637,0.2,0.53013885,0.545,0.93200004,0.62,0.96,112,5,0.020000001,-0.019000001,-0.007,-0.017,4.5905104,0,nan,0.0,3,1,18
131246206,1626773790600462,490896560,21103886,87609,133635,0.23700002,0.53015107,0.545,0.93200004,0.62,0.96,112,4,0.010000001,-0.004,-0.009000001,0.011000001,4.5905104,0,nan,0.0,3,1,18
131452367,1626773790800462,490896560,21103887,87603,133629,0.19100001,0.53016084,0.545,0.93200004,0.62,0.96,112,4,0.024,0.010000001,0.022000002,0.017,4.5905104,0,nan,0.0,3,1,18
131647161,1626773791000462,490896560,21103887,87604,133629,0.194,0.530171,0.545,0.93200004,0.62,0.96,112,4,0.018000001,-0.018000001,-0.003,0.002,4.5905104,0,nan,0.0,3,1,18
131851652,1626773791200462,490896560,21103887,87606,133631,0.19800001,0.5301811,0.545,0.93200004,0.62,0.96,112,4,0.039,0.038000003,0.006,-0.0050000004,4.5905104,0,nan,0.0,3,1,18
132052064,1626773791400462,490896560,21103887,87604,133629,0.15200001,0.53018916,0.545,0.93200004,0.62,0.96,112,4,0.022000002,0.012,-0.019000001,-0.001,4.5905104,0,nan,0.0,3,1,18
132251770,1626773791600462,490896560,21103886,87602,133628,0.254,0.5302022,0.545,0.933,0.62,0.96,112,5,0.047000002,-0.045,-0.014,0.071,4.5905104,0,nan,0.0,3,1,18
132451648,1626773791800462,490896559,21103886,87596,133622,0.17500001,0.53021127,0.545,0.933,0.62,0.96,112,5,0.029000001,0.014,-0.026,0.013,4.5905104,0,nan,0.0,3,1,18
132652080,1626773792000462,490896559,21103885,87591,133617,0.23300001,0.53022337,0.545,0.933,0.62,0.96,112,5,0.028,0.021000002,-0.019000001,0.054,4.5905104,0,nan,0.0,3,1,18
132852453,1626773792200462,490896559,21103885,87587,133613,0.224,0.5302348,0.545,0.934,0.62,0.96,112,5,0.039,-0.039,0.001,0.024,4.5905104,0,nan,0.0,3,1,18
133045358,1626773792400462,490896559,21103885,87594,133620,0.231,0.5302469,0.545,0.934,0.62,0.96,112,5,0.019000001,0.008,0.017,0.039,4.5905104,0,nan,0.0,3,1,18
133252099,1626773792600462,490896558,21103885,87572,133597,0.246,0.5302596,0.545,0.93500006,0.62,0.96,112,4,0.006,-0.003,0.0050000004,-0.044000003,4.5905104,0,nan,0.0,3,1,18
133651595,1626773793000462,490896558,21103884,87577,133602,0.24000001,0.53028387,0.546,0.93600005,0.62,0.96,112,4,0.031000001,-0.029000001,-0.012,0.025,4.5905104,0,nan,0.0,3,1,18
133851658,1626773793200462,490896557,21103884,87573,133599,0.24700001,0.5302966,0.546,0.93600005,0.62,0.96,112,4,0.031000001,-0.030000001,-0.0050000004,0.034,4.5905104,0,nan,0.0,3,1,18
134051630,1626773793400462,490896557,21103885,87582,133607,0.18800001,0.5303062,0.546,0.93600005,0.62,0.96,112,4,0.037,0.032,0.018000001,0.013,4.5905104,0,nan,0.0,3,1,18
134251728,1626773793600462,490896557,21103885,87576,133602,0.21700001,0.53031754,0.546,0.93600005,0.62,0.96,112,4,0.021000002,0.018000001,0.011000001,-0.007,4.5905104,0,nan,0.0,3,1,18
134446172,1626773793800461,490896557,21103886,87575,133600,0.238,0.53033,0.546,0.93600005,0.62,0.96,112,4,0.023000002,0.022000002,0.002,0.066,4.5905104,0,nan,0.0,3,1,18
134656426,1626773794000461,490896557,21103886,87562,133587,0.26200002,0.5303434,0.546,0.93600005,0.62,0.96,112,4,0.031000001,-0.024,-0.020000001,0.07700001,4.5905104,0,nan,0.0,3,1,18
134851713,1626773794200461,490896556,21103886,87552,133578,0.256,0.53035665,0.546,0.93700004,0.62,0.96,112,4,0.020000001,-0.018000001,0.008,0.052,4.5905104,0,nan,0.0,3,1,18
135051944,1626773794400461,490896556,21103886,87556,133581,0.22100002,0.53036803,0.546,0.93700004,0.62,0.96,112,4,0.039,0.039,-0.003,0.063,4.5905104,0,nan,0.0,3,1,18
135246305,1626773794600461,490896556,21103887,87553,133579,0.264,0.5303818,0.546,0.93700004,0.62,0.96,112,5,0.0050000004,-0.002,-0.0050000004,0.030000001,4.5905104,0,nan,0.0,3,1,18
135451748,1626773794800461,490896556,21103887,87545,133571,0.259,0.53039527,0.546,0.938,0.62,0.96,112,5,0.0050000004,-0.003,0.004,0.063,4.5905104,0,nan,0.0,3,1,18
135651985,1626773795000461,490896556,21103888,87554,133580,0.171,0.530404,0.546,0.938,0.62,0.96,112,5,0.033,0.0050000004,0.033,0.009000001,4.5905104,0,nan,0.0,3,1,18
135842197,1626773795200461,490896556,21103888,87546,133572,0.24900001,0.5304169,0.546,0.938,0.62,0.96,112,5,0.013,-0.0050000004,0.012,0.041,4.5905104,0,nan,0.0,3,1,18
136046178,1626773795400461,490896555,21103889,87547,133573,0.22600001,0.5304286,0.546,0.93900007,0.62,0.96,112,5,0.031000001,-0.031000001,-0.001,0.018000001,4.5905104,0,nan,0.0,3,1,18
136251770,1626773795600461,490896555,21103889,87548,133573,0.22600001,0.5304403,0.546,0.93900007,0.62,0.96,112,4,0.011000001,-0.002,0.011000001,0.016,4.5905104,0,nan,0.0,3,1,18
136446165,1626773795800461,490896555,21103890,87559,133585,0.172,0.53044915,0.546,0.93900007,0.62,0.96,112,4,0.034,0.008,0.033,0.004,4.5905104,0,nan,0.0,3,1,18
136651733,1626773796000461,490896555,21103890,87558,133584,0.163,0.53045756,0.54700005,0.94000006,0.62,0.96,112,4,0.019000001,0.011000001,-0.016,-0.0050000004,4.5905104,0,nan,0.0,3,1,18
136852039,1626773796200461,490896556,21103889,87568,133594,0.24900001,0.53047043,0.54700005,0.94100004,0.62,0.96,112,4,0.015000001,0.014,-0.003,-0.019000001,4.5905104,0,nan,0.0,3,1,18
137052095,1626773796400461,490896556,21103889,87571,133596,0.263,0.5304841,0.54700005,0.94100004,0.62,0.96,112,4,0.014,-0.009000001,-0.011000001,0.08400001,4.5905104,0,nan,0.0,3,1,18
137251639,1626773796600461,490896556,21103890,87567,133593,0.164,0.5304924,0.54700005,0.94200003,0.62,0.96,112,4,0.010000001,-0.003,0.009000001,-0.002,4.5905104,0,nan,0.0,3,1,18
137451997,1626773796800461,490896555,21103890,87583,133608,0.21800001,0.5305038,0.54700005,0.94200003,0.62,0.96,112,4,0.011000001,-0.009000001,-0.0050000004,0.004,4.5905104,0,nan,0.0,3,1,18
137652042,1626773797000461,490896555,21103890,87602,133628,0.22000001,0.53051513,0.54700005,0.943,0.62,0.96,112,4,0.012,0.011000001,-0.004,0.018000001,4.5905104,0,nan,0.0,3,1,18
137856470,1626773797200461,490896555,21103890,87606,133632,0.17400001,0.5305241,0.54700005,0.94400007,0.62,0.96,112,4,0.041,-0.039,0.009000001,-0.003,4.5905104,0,nan,0.0,3,1,18
138051976,1626773797400460,490896555,21103890,87605,133631,0.19900002,0.5305344,0.54700005,0.94400007,0.62,0.96,112,4,0.027,0.011000001,-0.024,-0.020000001,4.5905104,0,nan,0.0,3,1,18
138251981,1626773797600460,490896554,21103890,87598,133623,0.2,0.53054464,0.54800004,0.94500005,0.62,0.96,112,4,0.030000001,-0.024,0.017,0.015000001,4.5905104,0,nan,0.0,3,1,18
138446477,1626773797800460,490896554,21103891,87600,133626,0.18100001,0.5305541,0.54800004,0.94500005,0.62,0.96,112,4,0.055000003,0.026,0.048,0.021000002,4.5905104,0,nan,0.0,3,1,18
138651762,1626773798000460,490896554,21103893,87584,133609,0.22700001,0.5305659,0.54800004,0.94600004,0.62,0.96,112,4,0.040000003,0.022000002,0.033,0.068,4.5905104,0,nan,0.0,4,1,18
138852410,1626773798200460,490896555,21103893,87578,133603,0.245,0.5305785,0.54800004,0.947,0.62,0.96,112,4,0.016,-0.007,0.014,0.033,4.5905104,0,nan,0.0,4,1,18
139052007,1626773798400460,490896554,21103893,87576,133601,0.261,0.53059196,0.54800004,0.947,0.62,0.96,112,4,0.053000003,-0.044000003,-0.030000001,0.065000005,4.5905104,0,nan,0.0,4,1,18
139252450,1626773798600460,490896554,21103894,87570,133595,0.18200001,0.5306014,0.54800004,0.9480001,0.62,0.96,112,5,0.051000003,0.029000001,0.042000003,0.0050000004,4.5905104,0,nan,0.0,4,1,18
139451589,1626773798800460,490896554,21103894,87568,133594,0.257,0.5306146,0.54800004,0.9480001,0.62,0.96,112,5,0.038000003,-0.007,-0.037,0.078,4.5905104,0,nan,0.0,4,1,18
139651604,1626773799000460,490896554,21103893,87557,133583,0.20300001,0.5306251,0.54800004,0.9480001,0.62,0.96,112,5,0.043,-0.024,-0.035,0.010000001,4.5905104,0,nan,0.0,4,1,18
139911798,1626773799200460,490896546,21103889,87627,133653,0.17300001,0.53063416,1.085,1.1420001,0.62,0.96,112,5,0.032,-0.010000001,-0.030000001,-0.004,4.5905104,0,nan,0.0,4,1,18
140051733,1626773799400460,490896540,21103885,87682,133707,0.25100002,0.5306471,1.0500001,1.113,0.62,0.96,112,5,0.018000001,-0.001,0.018000001,-0.028,4.5905104,0,nan,0.0,4,1,18
140251716,1626773799600460,490896535,21103883,87706,133731,0.246,0.53065985,1.0170001,1.0910001,0.62,0.96,112,4,0.013,0.008,0.010000001,0.042000003,4.5905104,0,nan,0.0,4,1,18
140451723,1626773799800460,490896532,21103881,87729,133755,0.163,0.5306682,0.98800004,1.074,0.62,0.96,112,4,0.030000001,-0.013,0.027,-0.008,4.5905104,0,nan,0.0,4,1,18
140652601,1626773800000460,490896528,21103879,87740,133766,0.27,0.53068215,0.9620001,1.0600001,0.62,0.96,112,4,0.019000001,0.019000001,0.0,-0.075,4.5905104,0,nan,0.0,4,1,18
140852425,1626773800200460,490896526,21103877,87757,133782,0.26700002,0.530696,0.938,1.0480001,0.62,0.96,112,4,0.030000001,0.023000002,0.019000001,-0.044000003,4.5905104,0,nan,0.0,4,1,18
142461685,1626773801800459,490896505,21103866,87743,133769,0.25300002,0.5307808,0.8,0.99000007,0.62,0.96,104,4,0.05,0.018000001,0.046000004,-0.07700001,4.5905104,0,nan,0.0,4,1,18
142672614,1626773802000459,490896503,21103864,87732,133758,0.254,0.5307939,0.78800005,0.9850001,0.62,0.96,104,4,0.026,-0.023000002,-0.012,0.026,4.5905104,0,nan,0.0,4,1,18
142857391,1626773802200459,490896500,21103862,87718,133743,0.21100001,0.5308049,0.776,0.98100007,0.62,0.96,104,4,0.031000001,-0.029000001,-0.012,-0.036000002,4.5905104,0,nan,0.0,4,1,18
143062501,1626773802400459,490896498,21103860,87725,133750,0.179,0.5308141,0.76500005,0.97700006,0.62,0.96,104,4,0.030000001,-0.030000001,0.006,0.0,4.5905104,0,nan,0.0,4,1,18
