timestamp,data_rate,rate_multiplier,rate_rx,rate_tx,rate_txerr,type,mode,flow_control,forwarding,mavlink_v2,ftp,streams,_padding0[0],_padding0[1],_padding0[2],_padding0[3],_padding0[4],heartbeats[0].timestamp,heartbeats[0].system_id,heartbeats[0].component_id,heartbeats[0].type,heartbeats[0].state,heartbeats[0]._padding0[0],heartbeats[0]._padding0[1],heartbeats[0]._padding0[2],heartbeats[0]._padding0[3],heartbeats[1].timestamp,heartbeats[1].system_id,heartbeats[1].component_id,heartbeats[1].type,heartbeats[1].state,heartbeats[1]._padding0[0],heartbeats[1]._padding0[1],heartbeats[1]._padding0[2],heartbeats[1]._padding0[3],heartbeats[2].timestamp,heartbeats[2].system_id,heartbeats[2].component_id,heartbeats[2].type,heartbeats[2].state,heartbeats[2]._padding0[0],heartbeats[2]._padding0[1],heartbeats[2]._padding0[2],heartbeats[2]._padding0[3],heartbeats[3].timestamp,heartbeats[3].system_id,heartbeats[3].component_id,heartbeats[3].type,heartbeats[3].state,heartbeats[3]._padding0[0],heartbeats[3]._padding0[1],heartbeats[3]._padding0[2],heartbeats[3]._padding0[3]
65835281,1200.0,0.69277924,0.04158811,1.1674377,0.0,0,0,1,1,1,1,38,0,0,0,0,0,65827364,255,190,6,4,0,0,0,0,0,0,0,0,0,0,0,0,0,0,0,0,0,0,0,0,0,0,0,0,0,0,0,0,0,0,0
67927290,1200.0,0.69277924,0.041595936,1.0785232,0.0,0,0,1,1,1,1,38,0,0,0,0,0,67925387,255,190,6,4,0,0,0,0,0,0,0,0,0,0,0,0,0,0,0,0,0,0,0,0,0,0,0,0,0,0,0,0,0,0,0
68847222,1200.0,0.69277924,0.041994456,1.1458488,0.0,0,0,1,1,1,1,38,0,0,0,0,0,68837467,255,190,6,4,0,0,0,0,0,0,0,0,0,0,0,0,0,0,0,0,0,0,0,0,0,0,0,0,0,0,0,0,0,0,0
69857330,1200.0,0.69277924,0.041578475,1.2631936,0.0,0,0,1,1,1,1,38,0,0,0,0,0,69855646,255,190,6,4,0,0,0,0,0,0,0,0,0,0,0,0,0,0,0,0,0,0,0,0,0,0,0,0,0,0,0,0,0,0,0
70907222,1200.0,0.69277924,0.041595522,0.9240148,0.0,0,0,1,1,1,1,38,0,0,0,0,0,70901488,255,190,6,4,0,0,0,0,0,0,0,0,0,0,0,0,0,0,0,0,0,0,0,0,0,0,0,0,0,0,0,0,0,0,0
71837338,1200.0,0.69277924,0.041580904,1.1464449,0.0,0,0,1,1,1,1,38,0,0,0,0,0,71836474,255,190,6,4,0,0,0,0,0,0,0,0,0,0,0,0,0,0,0,0,0,0,0,0,0,0,0,0,0,0,0,0,0,0,0
72867325,1200.0,0.69277924,0.04158741,1.2832687,0.0,0,0,1,1,1,1,38,0,0,0,0,0,72861318,255,190,6,4,0,0,0,0,0,0,0,0,0,0,0,0,0,0,0,0,0,0,0,0,0,0,0,0,0,0,0,0,0,0,0
74017300,1200.0,0.69277924,0.041996974,0.9449319,0.0,0,0,1,1,1,1,38,0,0,0,0,0,74016299,255,190,6,4,0,0,0,0,0,0,0,0,0,0,0,0,0,0,0,0,0,0,0,0,0,0,0,0,0,0,0,0,0,0,0
74848704,1200.0,0.69277924,0.041997604,1.1059369,0.0,0,0,1,1,1,1,38,0,0,0,0,0,74847312,255,190,6,4,0,0,0,0,0,0,0,0,0,0,0,0,0,0,0,0,0,0,0,0,0,0,0,0,0,0,0,0,0,0,0
75865537,1200.0,0.69277924,0.041746553,1.3686906,0.0,0,0,1,1,1,1,38,0,0,0,0,0,75865340,255,190,6,4,0,0,0,0,0,0,0,0,0,0,0,0,0,0,0,0,0,0,0,0,0,0,0,0,0,0,0,0,0,0,0
76937430,1200.0,0.69277924,0.041837044,0.83972925,0.0,0,0,1,1,1,1,38,0,0,0,0,0,76936543,255,190,6,4,0,0,0,0,0,0,0,0,0,0,0,0,0,0,0,0,0,0,0,0,0,0,0,0,0,0,0,0,0,0,0
77898351,1200.0,0.69277924,0.041587945,1.1466391,0.0,0,0,1,1,1,1,38,0,0,0,0,0,77893312,255,190,6,4,0,0,0,0,0,0,0,0,0,0,0,0,0,0,0,0,0,0,0,0,0,0,0,0,0,0,0,0,0,0,0
78903300,1200.0,0.69277924,0.041779112,1.3180315,0.0,0,0,1,1,1,1,38,0,0,0,0,0,77893312,255,190,6,4,0,0,0,0,0,0,0,0,0,0,0,0,0,0,0,0,0,0,0,0,0,0,0,0,0,0,0,0,0,0,0
80033371,1200.0,0.69277924,0.02098208,1.1280366,0.0,0,0,1,1,1,1,38,0,0,0,0,0,80027331,255,190,6,4,0,0,0,0,0,0,0,0,0,0,0,0,0,0,0,0,0,0,0,0,0,0,0,0,0,0,0,0,0,0,0
80885580,1200.0,0.69277924,0.041587077,0.92382723,0.0,0,0,1,1,1,1,38,0,0,0,0,0,80876490,255,190,6,4,0,0,0,0,0,0,0,0,0,0,0,0,0,0,0,0,0,0,0,0,0,0,0,0,0,0,0,0,0,0,0
81877437,1200.0,0.69277924,0.041877422,1.3041825,0.0,0,0,1,1,1,1,38,0,0,0,0,0,81877313,255,190,6,4,0,0,0,0,0,0,0,0,0,0,0,0,0,0,0,0,0,0,0,0,0,0,0,0,0,0,0,0,0,0,0
82817347,1200.0,0.69277924,0.041958038,1.0839161,0.0,0,0,1,1,1,1,38,0,0,0,0,0,82808305,255,190,6,4,0,0,0,0,0,0,0,0,0,0,0,0,0,0,0,0,0,0,0,0,0,0,0,0,0,0,0,0,0,0,0
84888475,1200.0,0.69277924,0.041996386,1.4588745,0.0,0,0,1,1,1,1,38,0,0,0,0,0,84882312,255,190,6,4,0,0,0,0,0,0,0,0,0,0,0,0,0,0,0,0,0,0,0,0,0,0,0,0,0,0,0,0,0,0,0
85808650,1200.0,0.69277924,0.04194907,0.9937935,0.0,0,0,1,1,1,1,38,0,0,0,0,0,85807316,255,190,6,4,0,0,0,0,0,0,0,0,0,0,0,0,0,0,0,0,0,0,0,0,0,0,0,0,0,0,0,0,0,0,0
86873342,1200.0,0.69277924,0.041596595,1.213234,0.0,0,0,1,1,1,1,38,0,0,0,0,0,86866648,255,190,6,4,0,0,0,0,0,0,0,0,0,0,0,0,0,0,0,0,0,0,0,0,0,0,0,0,0,0,0,0,0,0,0
87895465,1200.0,0.69277924,0.041793287,1.0189601,0.0,0,0,1,1,1,1,38,0,0,0,0,0,87887312,255,190,6,4,0,0,0,0,0,0,0,0,0,0,0,0,0,0,0,0,0,0,0,0,0,0,0,0,0,0,0,0,0,0,0
88815313,1200.0,0.69277924,0.041909933,1.1974267,0.0,0,0,1,1,1,1,38,0,0,0,0,0,88812374,255,190,6,4,0,0,0,0,0,0,0,0,0,0,0,0,0,0,0,0,0,0,0,0,0,0,0,0,0,0,0,0,0,0,0
89897320,1200.0,0.69277924,0.041996807,1.0489203,0.0,0,0,1,1,1,1,38,0,0,0,0,0,89892329,255,190,6,4,0,0,0,0,0,0,0,0,0,0,0,0,0,0,0,0,0,0,0,0,0,0,0,0,0,0,0,0,0,0,0
90807282,1200.0,0.69277924,0.04192805,1.168994,0.0,0,0,1,1,1,1,38,0,0,0,0,0,90803305,255,190,6,4,0,0,0,0,0,0,0,0,0,0,0,0,0,0,0,0,0,0,0,0,0,0,0,0,0,0,0,0,0,0,0
92878360,1200.0,0.69277924,0.04199857,1.3579538,0.0,0,0,1,1,1,1,38,0,0,0,0,0,92871996,255,190,6,4,0,0,0,0,0,0,0,0,0,0,0,0,0,0,0,0,0,0,0,0,0,0,0,0,0,0,0,0,0,0,0
93898237,1200.0,0.69277924,0.06799748,0.9039665,0.0,0,0,1,1,1,1,38,0,0,0,0,0,93897612,255,190,6,4,0,0,0,0,0,0,0,0,0,0,0,0,0,0,0,0,0,0,0,0,0,0,0,0,0,0,0,0,0,0,0
94828457,1200.0,0.69277924,0.041590005,1.1991785,0.0,0,0,1,1,1,1,38,0,0,0,0,0,94822351,255,190,6,4,0,0,0,0,0,0,0,0,0,0,0,0,0,0,0,0,0,0,0,0,0,0,0,0,0,0,0,0,0,0,0
95878222,1200.0,0.69277924,0.041578516,1.3117032,0.0,0,0,1,1,1,1,38,0,0,0,0,0,95873307,255,190,6,4,0,0,0,0,0,0,0,0,0,0,0,0,0,0,0,0,0,0,0,0,0,0,0,0,0,0,0,0,0,0,0
96848504,1200.0,0.69277924,0.041589797,0.9149756,0.0,0,0,1,1,1,1,38,0,0,0,0,0,96845522,255,190,6,4,0,0,0,0,0,0,0,0,0,0,0,0,0,0,0,0,0,0,0,0,0,0,0,0,0,0,0,0,0,0,0
97828370,1200.0,0.69277924,0.041996345,1.1059037,0.0,0,0,1,1,1,1,38,0,0,0,0,0,97827307,255,190,6,4,0,0,0,0,0,0,0,0,0,0,0,0,0,0,0,0,0,0,0,0,0,0,0,0,0,0,0,0,0,0,0
99808555,1200.0,0.69277924,0.04159264,0.83482367,0.0,0,0,1,1,1,1,38,0,0,0,0,0,99803481,255,190,6,4,0,0,0,0,0,0,0,0,0,0,0,0,0,0,0,0,0,0,0,0,0,0,0,0,0,0,0,0,0,0,0
100838385,1200.0,0.69277924,0.041576296,1.1463178,0.0,0,0,1,1,1,1,38,0,0,0,0,0,100832504,255,190,6,4,0,0,0,0,0,0,0,0,0,0,0,0,0,0,0,0,0,0,0,0,0,0,0,0,0,0,0,0,0,0,0
101888578,1200.0,0.69277924,0.041587204,1.3119773,0.0,0,0,1,1,1,1,38,0,0,0,0,0,101883311,255,190,6,4,0,0,0,0,0,0,0,0,0,0,0,0,0,0,0,0,0,0,0,0,0,0,0,0,0,0,0,0,0,0,0
102828493,1200.0,0.69277924,0.041993365,1.0968267,0.0,0,0,1,1,1,1,38,0,0,0,0,0,102825642,255,190,6,4,0,0,0,0,0,0,0,0,0,0,0,0,0,0,0,0,0,0,0,0,0,0,0,0,0,0,0,0,0,0,0
103838286,1200.0,0.69277924,0.06733099,0.9446143,0.0,0,0,1,1,1,1,38,0,0,0,0,0,103837465,255,190,6,4,0,0,0,0,0,0,0,0,0,0,0,0,0,0,0,0,0,0,0,0,0,0,0,0,0,0,0,0,0,0,0
104908437,1200.0,0.69277924,0.041592844,1.3349322,0.0,0,0,1,1,1,1,38,0,0,0,0,0,104906305,255,190,6,4,0,0,0,0,0,0,0,0,0,0,0,0,0,0,0,0,0,0,0,0,0,0,0,0,0,0,0,0,0,0,0
105918460,1200.0,0.69277924,0.041578352,1.1156858,0.0,0,0,1,1,1,1,38,0,0,0,0,0,105918307,255,190,6,4,0,0,0,0,0,0,0,0,0,0,0,0,0,0,0,0,0,0,0,0,0,0,0,0,0,0,0,0,0,0,0
106848538,1200.0,0.69277924,0.041999914,0.88399816,0.0,0,0,1,1,1,1,38,0,0,0,0,0,106842978,255,190,6,4,0,0,0,0,0,0,0,0,0,0,0,0,0,0,0,0,0,0,0,0,0,0,0,0,0,0,0,0,0,0,0
107908372,1200.0,0.69277924,0.0419916,1.3967205,0.0,0,0,1,1,1,1,38,0,0,0,0,0,107901560,255,190,6,4,0,0,0,0,0,0,0,0,0,0,0,0,0,0,0,0,0,0,0,0,0,0,0,0,0,0,0,0,0,0,0
108818284,1200.0,0.69277924,0.0415947,1.1072114,0.0,0,0,1,1,1,1,38,0,0,0,0,0,108813478,255,190,6,4,0,0,0,0,0,0,0,0,0,0,0,0,0,0,0,0,0,0,0,0,0,0,0,0,0,0,0,0,0,0,0
109848557,1200.0,0.69277924,0.041996095,1.1018975,0.0,0,0,1,1,1,1,38,0,0,0,0,0,109848405,255,190,6,4,0,0,0,0,0,0,0,0,0,0,0,0,0,0,0,0,0,0,0,0,0,0,0,0,0,0,0,0,0,0,0
110908510,1200.0,0.69277924,0.041580286,1.013767,0.0,0,0,1,1,1,1,38,0,0,0,0,0,110901619,255,190,6,4,0,0,0,0,0,0,0,0,0,0,0,0,0,0,0,0,0,0,0,0,0,0,0,0,0,0,0,0,0,0,0
111845549,1200.0,0.69277924,0.06270067,1.2341083,0.0,0,0,1,1,1,1,38,0,0,0,0,0,111835676,255,190,6,4,0,0,0,0,0,0,0,0,0,0,0,0,0,0,0,0,0,0,0,0,0,0,0,0,0,0,0,0,0,0,0
114017661,1200.0,0.69277924,0.02099832,1.1709063,0.0,0,0,1,1,1,1,38,0,0,0,0,0,114011707,255,190,6,4,0,0,0,0,0,0,0,0,0,0,0,0,0,0,0,0,0,0,0,0,0,0,0,0,0,0,0,0,0,0,0
115027311,1200.0,0.69277924,0.062997855,1.0239651,0.0,0,0,1,1,1,1,38,0,0,0,0,0,114011707,255,190,6,4,0,0,0,0,0,0,0,0,0,0,0,0,0,0,0,0,0,0,0,0,0,0,0,0,0,0,0,0,0,0,0
116037308,1200.0,0.69277924,0.0,1.3447821,0.0,0,0,1,1,1,1,38,0,0,0,0,0,114011707,255,190,6,4,0,0,0,0,0,0,0,0,0,0,0,0,0,0,0,0,0,0,0,0,0,0,0,0,0,0,0,0,0,0,0
117017520,1200.0,0.69277924,0.020989986,0.8905752,0.0,0,0,1,1,1,1,38,0,0,0,0,0,117016573,255,190,6,4,0,0,0,0,0,0,0,0,0,0,0,0,0,0,0,0,0,0,0,0,0,0,0,0,0,0,0,0,0,0,0
120027509,1200.0,0.69277924,0.041595522,0.95669705,0.0,0,0,1,1,1,1,38,0,0,0,0,0,120022305,255,190,6,4,0,0,0,0,0,0,0,0,0,0,0,0,0,0,0,0,0,0,0,0,0,0,0,0,0,0,0,0,0,0,0
120857506,1200.0,0.69277924,0.0629949,1.0639138,0.0,0,0,1,1,1,1,38,0,0,0,0,0,120855844,255,190,6,4,0,0,0,0,0,0,0,0,0,0,0,0,0,0,0,0,0,0,0,0,0,0,0,0,0,0,0,0,0,0,0
121878233,1200.0,0.69277924,0.020988729,1.4182383,0.0,0,0,1,1,1,1,38,0,0,0,0,0,121872331,255,190,6,4,0,0,0,0,0,0,0,0,0,0,0,0,0,0,0,0,0,0,0,0,0,0,0,0,0,0,0,0,0,0,0
122808423,1200.0,0.69277924,0.04197498,0.8424978,0.0,0,0,1,1,1,1,38,0,0,0,0,0,122803650,255,190,6,4,0,0,0,0,0,0,0,0,0,0,0,0,0,0,0,0,0,0,0,0,0,0,0,0,0,0,0,0,0,0,0
123868382,1200.0,0.69277924,0.08813748,1.1992639,0.0,0,0,1,1,1,1,38,0,0,0,0,0,123861485,255,190,6,4,0,0,0,0,0,0,0,0,0,0,0,0,0,0,0,0,0,0,0,0,0,0,0,0,0,0,0,0,0,0,0
124883544,1200.0,0.69277924,0.041790128,1.2367887,0.0,0,0,1,1,1,1,38,0,0,0,0,0,124876399,255,190,6,4,0,0,0,0,0,0,0,0,0,0,0,0,0,0,0,0,0,0,0,0,0,0,0,0,0,0,0,0,0,0,0
125955630,1200.0,0.69277924,0.020953065,1.1763649,0.0,0,0,1,1,1,1,38,0,0,0,0,0,125952773,255,190,6,4,0,0,0,0,0,0,0,0,0,0,0,0,0,0,0,0,0,0,0,0,0,0,0,0,0,0,0,0,0,0,0
126877876,1200.0,0.69277924,0.06285806,0.8490827,0.0,0,0,1,1,1,1,38,0,0,0,0,0,126868339,255,190,6,4,0,0,0,0,0,0,0,0,0,0,0,0,0,0,0,0,0,0,0,0,0,0,0,0,0,0,0,0,0,0,0
127888426,1200.0,0.69277924,0.041971374,1.4290253,0.0,0,0,1,1,1,1,38,0,0,0,0,0,127882315,255,190,6,4,0,0,0,0,0,0,0,0,0,0,0,0,0,0,0,0,0,0,0,0,0,0,0,0,0,0,0,0,0,0,0
128808586,1200.0,0.69277924,0.041588645,1.0139707,0.0,0,0,1,1,1,1,38,0,0,0,0,0,128806315,255,190,6,4,0,0,0,0,0,0,0,0,0,0,0,0,0,0,0,0,0,0,0,0,0,0,0,0,0,0,0,0,0,0,0
129903222,1200.0,0.69277924,0.04199966,0.9659922,0.0,0,0,1,1,1,1,38,0,0,0,0,0,129902135,255,190,6,4,0,0,0,0,0,0,0,0,0,0,0,0,0,0,0,0,0,0,0,0,0,0,0,0,0,0,0,0,0,0,0
130887596,1200.0,0.69277924,0.041629083,1.2716694,0.0,0,0,1,1,1,1,38,0,0,0,0,0,130887304,255,190,6,4,0,0,0,0,0,0,0,0,0,0,0,0,0,0,0,0,0,0,0,0,0,0,0,0,0,0,0,0,0,0,0
131817588,1200.0,0.69277924,0.041584197,1.18812,0.0,0,0,1,1,1,1,38,0,0,0,0,0,131812538,255,190,6,4,0,0,0,0,0,0,0,0,0,0,0,0,0,0,0,0,0,0,0,0,0,0,0,0,0,0,0,0,0,0,0
132867307,1200.0,0.69277924,0.041993234,1.0408324,0.0,0,0,1,1,1,1,38,0,0,0,0,0,132862679,255,190,6,4,0,0,0,0,0,0,0,0,0,0,0,0,0,0,0,0,0,0,0,0,0,0,0,0,0,0,0,0,0,0,0
133897232,1200.0,0.69277924,0.06732947,1.1485615,0.0,0,0,1,1,1,1,38,0,0,0,0,0,133892459,255,190,6,4,0,0,0,0,0,0,0,0,0,0,0,0,0,0,0,0,0,0,0,0,0,0,0,0,0,0,0,0,0,0,0
134817417,1200.0,0.69277924,0.041585885,1.0931147,0.0,0,0,1,1,1,1,38,0,0,0,0,0,134817355,255,190,6,4,0,0,0,0,0,0,0,0,0,0,0,0,0,0,0,0,0,0,0,0,0,0,0,0,0,0,0,0,0,0,0
135867596,1200.0,0.69277924,0.04199945,1.1309853,0.0,0,0,1,1,1,1,38,0,0,0,0,0,135861484,255,190,6,4,0,0,0,0,0,0,0,0,0,0,0,0,0,0,0,0,0,0,0,0,0,0,0,0,0,0,0,0,0,0,0
136897886,1200.0,0.69277924,0.041990552,1.1207478,0.0,0,0,1,1,1,1,38,0,0,0,0,0,136897398,255,190,6,4,0,0,0,0,0,0,0,0,0,0,0,0,0,0,0,0,0,0,0,0,0,0,0,0,0,0,0,0,0,0,0
137827783,1200.0,0.69277924,0.04159754,1.0954019,0.0,0,0,1,1,1,1,38,0,0,0,0,0,137822313,255,190,6,4,0,0,0,0,0,0,0,0,0,0,0,0,0,0,0,0,0,0,0,0,0,0,0,0,0,0,0,0,0,0,0
138888590,1200.0,0.69277924,0.041951627,1.2745304,0.0,0,0,1,1,1,1,38,0,0,0,0,0,138887301,255,190,6,4,0,0,0,0,0,0,0,0,0,0,0,0,0,0,0,0,0,0,0,0,0,0,0,0,0,0,0,0,0,0,0
139827136,1200.0,0.69277924,0.041708704,0.9662516,0.0,0,0,1,1,1,1,38,0,0,0,0,0,139826322,255,190,6,4,0,0,0,0,0,0,0,0,0,0,0,0,0,0,0,0,0,0,0,0,0,0,0,0,0,0,0,0,0,0,0
141897308,1200.0,0.69277924,0.04158527,1.3228076,0.0,0,0,1,1,1,1,38,0,0,0,0,0,141895644,255,190,6,4,0,0,0,0,0,0,0,0,0,0,0,0,0,0,0,0,0,0,0,0,0,0,0,0,0,0,0,0,0,0,0
142827223,1200.0,0.69277924,0.041576665,0.89587814,0.0,0,0,1,1,1,1,38,0,0,0,0,0,142823704,255,190,6,4,0,0,0,0,0,0,0,0,0,0,0,0,0,0,0,0,0,0,0,0,0,0,0,0,0,0,0,0,0,0,0
143837401,1200.0,0.69277924,0.06731613,1.1344748,0.0,0,0,1,1,1,1,38,0,0,0,0,0,143833307,255,190,6,4,0,0,0,0,0,0,0,0,0,0,0,0,0,0,0,0,0,0,0,0,0,0,0,0,0,0,0,0,0,0,0
144887952,1200.0,0.69277924,0.0419874,1.336599,0.0,0,0,1,1,1,1,38,0,0,0,0,0,144887308,255,190,6,4,0,0,0,0,0,0,0,0,0,0,0,0,0,0,0,0,0,0,0,0,0,0,0,0,0,0,0,0,0,0,0
145817582,1200.0,0.69277924,0.041614894,0.9036377,0.0,0,0,1,1,1,1,38,0,0,0,0,0,145816397,255,190,6,4,0,0,0,0,0,0,0,0,0,0,0,0,0,0,0,0,0,0,0,0,0,0,0,0,0,0,0,0,0,0,0
146838392,1200.0,0.69277924,0.04195477,1.0878272,0.0,0,0,1,1,1,1,38,0,0,0,0,0,146838312,255,190,6,4,0,0,0,0,0,0,0,0,0,0,0,0,0,0,0,0,0,0,0,0,0,0,0,0,0,0,0,0,0,0,0
147923287,1200.0,0.69277924,0.041792955,1.3582711,0.0,0,0,1,1,1,1,38,0,0,0,0,0,147914175,255,190,6,4,0,0,0,0,0,0,0,0,0,0,0,0,0,0,0,0,0,0,0,0,0,0,0,0,0,0,0,0,0,0,0
148863504,1200.0,0.69277924,0.041583333,1.0465139,0.0,0,0,1,1,1,1,38,0,0,0,0,0,148856307,255,190,6,4,0,0,0,0,0,0,0,0,0,0,0,0,0,0,0,0,0,0,0,0,0,0,0,0,0,0,0,0,0,0,0
151835525,1200.0,0.69277924,0.04191834,1.074906,0.0,0,0,1,1,1,1,38,0,0,0,0,0,151826480,255,190,6,4,0,0,0,0,0,0,0,0,0,0,0,0,0,0,0,0,0,0,0,0,0,0,0,0,0,0,0,0,0,0,0
152857453,1200.0,0.69277924,0.06793173,0.94405115,0.0,0,0,1,1,1,1,38,0,0,0,0,0,152847526,255,190,6,4,0,0,0,0,0,0,0,0,0,0,0,0,0,0,0,0,0,0,0,0,0,0,0,0,0,0,0,0,0,0,0
153907223,1200.0,0.69277924,0.0419435,1.3232175,0.0,0,0,1,1,1,1,38,0,0,0,0,0,153898314,255,190,6,4,0,0,0,0,0,0,0,0,0,0,0,0,0,0,0,0,0,0,0,0,0,0,0,0,0,0,0,0,0,0,0
154848502,1200.0,0.69277924,0.041964788,1.1570292,0.0,0,0,1,1,1,1,38,0,0,0,0,0,154847816,255,190,6,4,0,0,0,0,0,0,0,0,0,0,0,0,0,0,0,0,0,0,0,0,0,0,0,0,0,0,0,0,0,0,0
155852617,1200.0,0.69277924,0.041822337,1.0575076,0.0,0,0,1,1,1,1,38,0,0,0,0,0,155852381,255,190,6,4,0,0,0,0,0,0,0,0,0,0,0,0,0,0,0,0,0,0,0,0,0,0,0,0,0,0,0,0,0,0,0
156923504,1200.0,0.69277924,0.041975066,1.1173363,0.0,0,0,1,1,1,1,38,0,0,0,0,0,156916331,255,190,6,4,0,0,0,0,0,0,0,0,0,0,0,0,0,0,0,0,0,0,0,0,0,0,0,0,0,0,0,0,0,0,0
157833564,1200.0,0.69277924,0.04199735,1.1459278,0.0,0,0,1,1,1,1,38,0,0,0,0,0,157828309,255,190,6,4,0,0,0,0,0,0,0,0,0,0,0,0,0,0,0,0,0,0,0,0,0,0,0,0,0,0,0,0,0,0,0
158863598,1200.0,0.69277924,0.04159091,1.223961,0.0,0,0,1,1,1,1,38,0,0,0,0,0,158858299,255,190,6,4,0,0,0,0,0,0,0,0,0,0,0,0,0,0,0,0,0,0,0,0,0,0,0,0,0,0,0,0,0,0,0
159913474,1200.0,0.69277924,0.041999873,1.0129969,0.0,0,0,1,1,1,1,38,0,0,0,0,0,159913304,255,190,6,4,0,0,0,0,0,0,0,0,0,0,0,0,0,0,0,0,0,0,0,0,0,0,0,0,0,0,0,0,0,0,0
160837697,1200.0,0.69277924,0.041832503,0.9910319,0.0,0,0,1,1,1,1,38,0,0,0,0,0,160837498,255,190,6,4,0,0,0,0,0,0,0,0,0,0,0,0,0,0,0,0,0,0,0,0,0,0,0,0,0,0,0,0,0,0,0
161807222,1200.0,0.69277924,0.041832503,0.9910319,0.0,0,0,1,1,1,1,38,0,0,0,0,0,161803308,255,190,6,4,0,0,0,0,0,0,0,0,0,0,0,0,0,0,0,0,0,0,0,0,0,0,0,0,0,0,0,0,0,0,0
162947624,1200.0,0.69277924,0.046536494,0.8634005,0.0,0,0,1,1,1,1,38,0,0,0,0,0,162941256,255,190,6,4,0,0,0,0,0,0,0,0,0,0,0,0,0,0,0,0,0,0,0,0,0,0,0,0,0,0,0,0,0,0,0
163867222,1200.0,0.69277924,0.04199983,1.1999952,0.0,0,0,1,1,1,1,38,0,0,0,0,0,163858309,255,190,6,4,0,0,0,0,0,0,0,0,0,0,0,0,0,0,0,0,0,0,0,0,0,0,0,0,0,0,0,0,0,0,0
165927548,1200.0,0.69277924,0.020998424,0.9979251,0.0,0,0,1,1,1,1,38,0,0,0,0,0,165923095,255,190,6,4,0,0,0,0,0,0,0,0,0,0,0,0,0,0,0,0,0,0,0,0,0,0,0,0,0,0,0,0,0,0,0
166847779,1200.0,0.69277924,0.06299817,1.0639691,0.0,0,0,1,1,1,1,38,0,0,0,0,0,166847633,255,190,6,4,0,0,0,0,0,0,0,0,0,0,0,0,0,0,0,0,0,0,0,0,0,0,0,0,0,0,0,0,0,0,0
167878222,1200.0,0.69277924,0.020971645,1.417084,0.0,0,0,1,1,1,1,38,0,0,0,0,0,167873307,255,190,6,4,0,0,0,0,0,0,0,0,0,0,0,0,0,0,0,0,0,0,0,0,0,0,0,0,0,0,0,0,0,0,0
170883253,1200.0,0.69277924,0.020899868,1.2768824,0.0,0,0,1,1,1,1,38,0,0,0,0,0,170878309,255,190,6,4,0,0,0,0,0,0,0,0,0,0,0,0,0,0,0,0,0,0,0,0,0,0,0,0,0,0,0,0,0,0,0
171813683,1200.0,0.69277924,0.020899868,1.2768824,0.0,0,0,1,1,1,1,38,0,0,0,0,0,171806307,255,190,6,4,0,0,0,0,0,0,0,0,0,0,0,0,0,0,0,0,0,0,0,0,0,0,0,0,0,0,0,0,0,0,0
172866400,1200.0,0.69277924,0.06283374,1.1359941,0.0,0,0,1,1,1,1,38,0,0,0,0,0,172858307,255,190,6,4,0,0,0,0,0,0,0,0,0,0,0,0,0,0,0,0,0,0,0,0,0,0,0,0,0,0,0,0,0,0,0
173888375,1200.0,0.69277924,0.020960635,1.4273194,0.0,0,0,1,1,1,1,38,0,0,0,0,0,173885560,255,190,6,4,0,0,0,0,0,0,0,0,0,0,0,0,0,0,0,0,0,0,0,0,0,0,0,0,0,0,0,0,0,0,0
174808510,1200.0,0.69277924,0.020960635,1.4273194,0.0,0,0,1,1,1,1,38,0,0,0,0,0,174808360,255,190,6,4,0,0,0,0,0,0,0,0,0,0,0,0,0,0,0,0,0,0,0,0,0,0,0,0,0,0,0,0,0,0,0
175868593,1200.0,0.69277924,0.06236889,1.013742,0.0,0,0,1,1,1,1,38,0,0,0,0,0,175862319,255,190,6,4,0,0,0,0,0,0,0,0,0,0,0,0,0,0,0,0,0,0,0,0,0,0,0,0,0,0,0,0,0,0,0
176897458,1200.0,0.69277924,0.041628916,1.2320178,0.0,0,0,1,1,1,1,38,0,0,0,0,0,176888586,255,190,6,4,0,0,0,0,0,0,0,0,0,0,0,0,0,0,0,0,0,0,0,0,0,0,0,0,0,0,0,0,0,0,0
177817336,1200.0,0.69277924,0.041628916,1.2320178,0.0,0,0,1,1,1,1,38,0,0,0,0,0,177815254,255,190,6,4,0,0,0,0,0,0,0,0,0,0,0,0,0,0,0,0,0,0,0,0,0,0,0,0,0,0,0,0,0,0,0
178887223,1200.0,0.69277924,0.041999787,1.2399937,0.0,0,0,1,1,1,1,38,0,0,0,0,0,178881683,255,190,6,4,0,0,0,0,0,0,0,0,0,0,0,0,0,0,0,0,0,0,0,0,0,0,0,0,0,0,0,0,0,0,0
179903722,1200.0,0.69277924,0.04176179,1.2250124,0.0,0,0,1,1,1,1,38,0,0,0,0,0,179895537,255,190,6,4,0,0,0,0,0,0,0,0,0,0,0,0,0,0,0,0,0,0,0,0,0,0,0,0,0,0,0,0,0,0,0
180823223,1200.0,0.69277924,0.04176179,1.2250124,0.0,0,0,1,1,1,1,38,0,0,0,0,0,180821552,255,190,6,4,0,0,0,0,0,0,0,0,0,0,0,0,0,0,0,0,0,0,0,0,0,0,0,0,0,0,0,0,0,0,0
181926061,1200.0,0.69277924,0.04159569,1.3449273,0.0,0,0,1,1,1,1,38,0,0,0,0,0,181925469,255,190,6,4,0,0,0,0,0,0,0,0,0,0,0,0,0,0,0,0,0,0,0,0,0,0,0,0,0,0,0,0,0,0,0
184923516,1200.0,0.69277924,0.04195209,1.0757715,0.0,0,0,1,1,1,1,38,0,0,0,0,0,184917307,255,190,6,4,0,0,0,0,0,0,0,0,0,0,0,0,0,0,0,0,0,0,0,0,0,0,0,0,0,0,0,0,0,0,0
185913365,1200.0,0.69277924,0.04179832,1.3096807,0.0,0,0,1,1,1,1,38,0,0,0,0,0,185905433,255,190,6,4,0,0,0,0,0,0,0,0,0,0,0,0,0,0,0,0,0,0,0,0,0,0,0,0,0,0,0,0,0,0,0
186834074,1200.0,0.69277924,0.041995168,0.9328927,0.0,0,0,1,1,1,1,38,0,0,0,0,0,186831991,255,190,6,4,0,0,0,0,0,0,0,0,0,0,0,0,0,0,0,0,0,0,0,0,0,0,0,0,0,0,0,0,0,0,0
187886312,1200.0,0.69277924,0.041995127,1.1178703,0.0,0,0,1,1,1,1,38,0,0,0,0,0,187881602,255,190,6,4,0,0,0,0,0,0,0,0,0,0,0,0,0,0,0,0,0,0,0,0,0,0,0,0,0,0,0,0,0,0,0
188807540,1200.0,0.69277924,0.041833874,1.3307157,0.0,0,0,1,1,1,1,38,0,0,0,0,0,188806301,255,190,6,4,0,0,0,0,0,0,0,0,0,0,0,0,0,0,0,0,0,0,0,0,0,0,0,0,0,0,0,0,0,0,0
189837357,1200.0,0.69277924,0.041589387,0.87535757,0.0,0,0,1,1,1,1,38,0,0,0,0,0,189835526,255,190,6,4,0,0,0,0,0,0,0,0,0,0,0,0,0,0,0,0,0,0,0,0,0,0,0,0,0,0,0,0,0,0,0
190997390,1200.0,0.69277924,0.020998383,1.336897,0.0,0,0,1,1,1,1,38,0,0,0,0,0,190992045,255,190,6,4,0,0,0,0,0,0,0,0,0,0,0,0,0,0,0,0,0,0,0,0,0,0,0,0,0,0,0,0,0,0,0
191827223,1200.0,0.69277924,0.020998383,1.336897,0.0,0,0,1,1,1,1,38,0,0,0,0,0,191822967,255,190,6,4,0,0,0,0,0,0,0,0,0,0,0,0,0,0,0,0,0,0,0,0,0,0,0,0,0,0,0,0,0,0,0
192847595,1200.0,0.69277924,0.06298425,0.911772,0.0,0,0,1,1,1,1,38,0,0,0,0,0,192841650,255,190,6,4,0,0,0,0,0,0,0,0,0,0,0,0,0,0,0,0,0,0,0,0,0,0,0,0,0,0,0,0,0,0,0
193888436,1200.0,0.69277924,0.06735327,1.0994431,0.0,0,0,1,1,1,1,38,0,0,0,0,0,193883312,255,190,6,4,0,0,0,0,0,0,0,0,0,0,0,0,0,0,0,0,0,0,0,0,0,0,0,0,0,0,0,0,0,0,0
196913609,1200.0,0.69277924,0.041999873,0.93299717,0.0,0,0,1,1,1,1,38,0,0,0,0,0,196905541,255,190,6,4,0,0,0,0,0,0,0,0,0,0,0,0,0,0,0,0,0,0,0,0,0,0,0,0,0,0,0,0,0,0,0
197883235,1200.0,0.69277924,0.04199429,1.3478166,0.0,0,0,1,1,1,1,38,0,0,0,0,0,197878314,255,190,6,4,0,0,0,0,0,0,0,0,0,0,0,0,0,0,0,0,0,0,0,0,0,0,0,0,0,0,0,0,0,0,0
198853336,1200.0,0.69277924,0.041589882,1.0952002,0.0,0,0,1,1,1,1,38,0,0,0,0,0,198852056,255,190,6,4,0,0,0,0,0,0,0,0,0,0,0,0,0,0,0,0,0,0,0,0,0,0,0,0,0,0,0,0,0,0,0
199926422,1200.0,0.69277924,0.04158111,0.91478443,0.0,0,0,1,1,1,1,38,0,0,0,0,0,199926314,255,190,6,4,0,0,0,0,0,0,0,0,0,0,0,0,0,0,0,0,0,0,0,0,0,0,0,0,0,0,0,0,0,0,0
200827220,1200.0,0.69277924,0.04186565,1.3207616,0.0,0,0,1,1,1,1,38,0,0,0,0,0,200822141,255,190,6,4,0,0,0,0,0,0,0,0,0,0,0,0,0,0,0,0,0,0,0,0,0,0,0,0,0,0,0,0,0,0,0
201857467,1200.0,0.69277924,0.04196454,1.1570222,0.0,0,0,1,1,1,1,38,0,0,0,0,0,201855520,255,190,6,4,0,0,0,0,0,0,0,0,0,0,0,0,0,0,0,0,0,0,0,0,0,0,0,0,0,0,0,0,0,0,0
202917523,1200.0,0.69277924,0.041589428,1.0516183,0.0,0,0,1,1,1,1,38,0,0,0,0,0,202913258,255,190,6,4,0,0,0,0,0,0,0,0,0,0,0,0,0,0,0,0,0,0,0,0,0,0,0,0,0,0,0,0,0,0,0
203848441,1200.0,0.69277924,0.06799973,1.1389954,0.0,0,0,1,1,1,1,38,0,0,0,0,0,203842458,255,190,6,4,0,0,0,0,0,0,0,0,0,0,0,0,0,0,0,0,0,0,0,0,0,0,0,0,0,0,0,0,0,0,0
204868436,1200.0,0.69277924,0.041949112,1.1446115,0.0,0,0,1,1,1,1,38,0,0,0,0,0,204861507,255,190,6,4,0,0,0,0,0,0,0,0,0,0,0,0,0,0,0,0,0,0,0,0,0,0,0,0,0,0,0,0,0,0,0
205938223,1200.0,0.69277924,0.04159136,1.2635852,0.0,0,0,1,1,1,1,38,0,0,0,0,0,205932519,255,190,6,4,0,0,0,0,0,0,0,0,0,0,0,0,0,0,0,0,0,0,0,0,0,0,0,0,0,0,0,0,0,0,0
208928480,1200.0,0.69277924,0.041592762,1.3844448,0.0,0,0,1,1,1,1,38,0,0,0,0,0,208925457,255,190,6,4,0,0,0,0,0,0,0,0,0,0,0,0,0,0,0,0,0,0,0,0,0,0,0,0,0,0,0,0,0,0,0
209843744,1200.0,0.69277924,0.04199131,0.8828172,0.0,0,0,1,1,1,1,38,0,0,0,0,0,209842406,255,190,6,4,0,0,0,0,0,0,0,0,0,0,0,0,0,0,0,0,0,0,0,0,0,0,0,0,0,0,0,0,0,0,0
210877364,1200.0,0.69277924,0.04171177,1.2314904,0.0,0,0,1,1,1,1,38,0,0,0,0,0,210871793,255,190,6,4,0,0,0,0,0,0,0,0,0,0,0,0,0,0,0,0,0,0,0,0,0,0,0,0,0,0,0,0,0,0,0
211927290,1200.0,0.69277924,0.04191771,1.2116215,0.0,0,0,1,1,1,1,38,0,0,0,0,0,211922836,255,190,6,4,0,0,0,0,0,0,0,0,0,0,0,0,0,0,0,0,0,0,0,0,0,0,0,0,0,0,0,0,0,0,0
212868495,1200.0,0.69277924,0.041998025,0.96595454,0.0,0,0,1,1,1,1,38,0,0,0,0,0,212867705,255,190,6,4,0,0,0,0,0,0,0,0,0,0,0,0,0,0,0,0,0,0,0,0,0,0,0,0,0,0,0,0,0,0,0
213883226,1200.0,0.69277924,0.06792955,1.083876,0.0,0,0,1,1,1,1,38,0,0,0,0,0,213877376,255,190,6,4,0,0,0,0,0,0,0,0,0,0,0,0,0,0,0,0,0,0,0,0,0,0,0,0,0,0,0,0,0,0,0
214946096,1200.0,0.69277924,0.041796155,1.4121131,0.0,0,0,1,1,1,1,38,0,0,0,0,0,214945583,255,190,6,4,0,0,0,0,0,0,0,0,0,0,0,0,0,0,0,0,0,0,0,0,0,0,0,0,0,0,0,0,0,0,0
215867613,1200.0,0.69277924,0.041851006,0.82705563,0.0,0,0,1,1,1,1,38,0,0,0,0,0,215861645,255,190,6,4,0,0,0,0,0,0,0,0,0,0,0,0,0,0,0,0,0,0,0,0,0,0,0,0,0,0,0,0,0,0,0
216888386,1200.0,0.69277924,0.041945048,1.1694679,0.0,0,0,1,1,1,1,38,0,0,0,0,0,216882307,255,190,6,4,0,0,0,0,0,0,0,0,0,0,0,0,0,0,0,0,0,0,0,0,0,0,0,0,0,0,0,0,0,0,0
217808487,1200.0,0.69277924,0.04199626,1.2428893,0.0,0,0,1,1,1,1,38,0,0,0,0,0,217807302,255,190,6,4,0,0,0,0,0,0,0,0,0,0,0,0,0,0,0,0,0,0,0,0,0,0,0,0,0,0,0,0,0,0,0
219888614,1200.0,0.69277924,0.041995168,0.8509021,0.0,0,0,1,1,1,1,38,0,0,0,0,0,219888461,255,190,6,4,0,0,0,0,0,0,0,0,0,0,0,0,0,0,0,0,0,0,0,0,0,0,0,0,0,0,0,0,0,0,0
220818350,1200.0,0.69277924,0.041594658,1.4161991,0.0,0,0,1,1,1,1,38,0,0,0,0,0,220812394,255,190,6,4,0,0,0,0,0,0,0,0,0,0,0,0,0,0,0,0,0,0,0,0,0,0,0,0,0,0,0,0,0,0,0
221878489,1200.0,0.69277924,0.04199479,1.023873,0.0,0,0,1,1,1,1,38,0,0,0,0,0,221876472,255,190,6,4,0,0,0,0,0,0,0,0,0,0,0,0,0,0,0,0,0,0,0,0,0,0,0,0,0,0,0,0,0,0,0
222903222,1200.0,0.69277924,0.041580822,0.9959597,0.0,0,0,1,1,1,1,38,0,0,0,0,0,222893314,255,190,6,4,0,0,0,0,0,0,0,0,0,0,0,0,0,0,0,0,0,0,0,0,0,0,0,0,0,0,0,0,0,0,0
223823227,1200.0,0.69277924,0.06767549,1.2898153,0.0,0,0,1,1,1,1,38,0,0,0,0,0,223818310,255,190,6,4,0,0,0,0,0,0,0,0,0,0,0,0,0,0,0,0,0,0,0,0,0,0,0,0,0,0,0,0,0,0,0
224873367,1200.0,0.69277924,0.041584156,1.2277226,0.0,0,0,1,1,1,1,38,0,0,0,0,0,224873304,255,190,6,4,0,0,0,0,0,0,0,0,0,0,0,0,0,0,0,0,0,0,0,0,0,0,0,0,0,0,0,0,0,0,0
227898302,1200.0,0.69277924,0.041998614,1.0239662,0.0,0,0,1,1,1,1,38,0,0,0,0,0,227895269,255,190,6,4,0,0,0,0,0,0,0,0,0,0,0,0,0,0,0,0,0,0,0,0,0,0,0,0,0,0,0,0,0,0,0
228818288,1200.0,0.69277924,0.041591197,1.3447821,0.0,0,0,1,1,1,1,38,0,0,0,0,0,228815641,255,190,6,4,0,0,0,0,0,0,0,0,0,0,0,0,0,0,0,0,0,0,0,0,0,0,0,0,0,0,0,0,0,0,0
229835294,1200.0,0.69277924,0.041568145,0.88183856,0.0,0,0,1,1,1,1,38,0,0,0,0,0,229828491,255,190,6,4,0,0,0,0,0,0,0,0,0,0,0,0,0,0,0,0,0,0,0,0,0,0,0,0,0,0,0,0,0,0,0
230917601,1200.0,0.69277924,0.041710485,1.1629281,0.0,0,0,1,1,1,1,38,0,0,0,0,0,230916450,255,190,6,4,0,0,0,0,0,0,0,0,0,0,0,0,0,0,0,0,0,0,0,0,0,0,0,0,0,0,0,0,0,0,0
231817494,1200.0,0.69277924,0.04192868,1.2199248,0.0,0,0,1,1,1,1,38,0,0,0,0,0,231815541,255,190,6,4,0,0,0,0,0,0,0,0,0,0,0,0,0,0,0,0,0,0,0,0,0,0,0,0,0,0,0,0,0,0,0
232837286,1200.0,0.69277924,0.041996766,0.93292814,0.0,0,0,1,1,1,1,38,0,0,0,0,0,232835240,255,190,6,4,0,0,0,0,0,0,0,0,0,0,0,0,0,0,0,0,0,0,0,0,0,0,0,0,0,0,0,0,0,0,0
233973275,1200.0,0.69277924,0.06799435,1.178902,0.0,0,0,1,1,1,1,38,0,0,0,0,0,233966305,255,190,6,4,0,0,0,0,0,0,0,0,0,0,0,0,0,0,0,0,0,0,0,0,0,0,0,0,0,0,0,0,0,0,0
234833572,1200.0,0.69277924,0.041755892,1.2884675,0.0,0,0,1,1,1,1,38,0,0,0,0,0,234825545,255,190,6,4,0,0,0,0,0,0,0,0,0,0,0,0,0,0,0,0,0,0,0,0,0,0,0,0,0,0,0,0,0,0,0
235843222,1200.0,0.69277924,0.041580122,0.91476274,0.0,0,0,1,1,1,1,38,0,0,0,0,0,235842176,255,190,6,4,0,0,0,0,0,0,0,0,0,0,0,0,0,0,0,0,0,0,0,0,0,0,0,0,0,0,0,0,0,0,0
236933468,1200.0,0.69277924,0.04199492,1.1058662,0.0,0,0,1,1,1,1,38,0,0,0,0,0,236932371,255,190,6,4,0,0,0,0,0,0,0,0,0,0,0,0,0,0,0,0,0,0,0,0,0,0,0,0,0,0,0,0,0,0,0
237823235,1200.0,0.69277924,0.041590787,1.3239734,0.0,0,0,1,1,1,1,38,0,0,0,0,0,237822363,255,190,6,4,0,0,0,0,0,0,0,0,0,0,0,0,0,0,0,0,0,0,0,0,0,0,0,0,0,0,0,0,0,0,0
238853486,1200.0,0.69277924,0.041579876,0.9345572,0.0,0,0,1,1,1,1,38,0,0,0,0,0,238844873,255,190,6,4,0,0,0,0,0,0,0,0,0,0,0,0,0,0,0,0,0,0,0,0,0,0,0,0,0,0,0,0,0,0,0
239907794,1200.0,0.69277924,0.04199739,1.0889324,0.0,0,0,1,1,1,1,38,0,0,0,0,0,239907304,255,190,6,4,0,0,0,0,0,0,0,0,0,0,0,0,0,0,0,0,0,0,0,0,0,0,0,0,0,0,0,0,0,0,0
240827223,1200.0,0.69277924,0.041839957,1.3597987,0.0,0,0,1,1,1,1,38,0,0,0,0,0,240822321,255,190,6,4,0,0,0,0,0,0,0,0,0,0,0,0,0,0,0,0,0,0,0,0,0,0,0,0,0,0,0,0,0,0,0
242928485,1200.0,0.69277924,0.04158428,0.96336913,0.0,0,0,1,1,1,1,38,0,0,0,0,0,242921488,255,190,6,4,0,0,0,0,0,0,0,0,0,0,0,0,0,0,0,0,0,0,0,0,0,0,0,0,0,0,0,0,0,0,0
243848431,1200.0,0.69277924,0.06793254,1.3566527,0.0,0,0,1,1,1,1,38,0,0,0,0,0,243847558,255,190,6,4,0,0,0,0,0,0,0,0,0,0,0,0,0,0,0,0,0,0,0,0,0,0,0,0,0,0,0,0,0,0,0
244858470,1200.0,0.69277924,0.04157617,1.1057281,0.0,0,0,1,1,1,1,38,0,0,0,0,0,244855740,255,190,6,4,0,0,0,0,0,0,0,0,0,0,0,0,0,0,0,0,0,0,0,0,0,0,0,0,0,0,0,0,0,0,0
245908580,1200.0,0.69277924,0.041589264,0.87535495,0.0,0,0,1,1,1,1,38,0,0,0,0,0,245907658,255,190,6,4,0,0,0,0,0,0,0,0,0,0,0,0,0,0,0,0,0,0,0,0,0,0,0,0,0,0,0,0,0,0,0
247861688,1200.0,0.69277924,0.04199731,1.1179284,0.0,0,0,1,1,1,1,38,0,0,0,0,0,247861631,255,190,6,4,0,0,0,0,0,0,0,0,0,0,0,0,0,0,0,0,0,0,0,0,0,0,0,0,0,0,0,0,0,0,0
248917198,1200.0,0.69277924,0.041784476,1.0854015,0.0,0,0,1,1,1,1,38,0,0,0,0,0,248912443,255,190,6,4,0,0,0,0,0,0,0,0,0,0,0,0,0,0,0,0,0,0,0,0,0,0,0,0,0,0,0,0,0,0,0
249878968,1200.0,0.69277924,0.041847423,1.1248986,0.0,0,0,1,1,1,1,38,0,0,0,0,0,249878341,255,190,6,4,0,0,0,0,0,0,0,0,0,0,0,0,0,0,0,0,0,0,0,0,0,0,0,0,0,0,0,0,0,0,0
250868499,1200.0,0.69277924,0.041958332,1.1049027,0.0,0,0,1,1,1,1,38,0,0,0,0,0,250866309,255,190,6,4,0,0,0,0,0,0,0,0,0,0,0,0,0,0,0,0,0,0,0,0,0,0,0,0,0,0,0,0,0,0,0
252028424,1200.0,0.69277924,0.04199391,1.3158091,0.0,0,0,1,1,1,1,38,0,0,0,0,0,252022310,255,190,6,4,0,0,0,0,0,0,0,0,0,0,0,0,0,0,0,0,0,0,0,0,0,0,0,0,0,0,0,0,0,0,0
252858430,1200.0,0.69277924,0.04158325,0.9554247,0.0,0,0,1,1,1,1,38,0,0,0,0,0,252856648,255,190,6,4,0,0,0,0,0,0,0,0,0,0,0,0,0,0,0,0,0,0,0,0,0,0,0,0,0,0,0,0,0,0,0
255883637,1200.0,0.69277924,0.04158428,0.91782445,0.0,0,0,1,1,1,1,38,0,0,0,0,0,255883304,255,190,6,4,0,0,0,0,0,0,0,0,0,0,0,0,0,0,0,0,0,0,0,0,0,0,0,0,0,0,0,0,0,0,0
256883223,1200.0,0.69277924,0.04199118,1.1087672,0.0,0,0,1,1,1,1,38,0,0,0,0,0,256875980,255,190,6,4,0,0,0,0,0,0,0,0,0,0,0,0,0,0,0,0,0,0,0,0,0,0,0,0,0,0,0,0,0,0,0
257943698,1200.0,0.69277924,0.041591074,1.3269534,0.0,0,0,1,1,1,1,38,0,0,0,0,0,257943316,255,190,6,4,0,0,0,0,0,0,0,0,0,0,0,0,0,0,0,0,0,0,0,0,0,0,0,0,0,0,0,0,0,0,0
258853223,1200.0,0.69277924,0.04158222,0.8761968,0.0,0,0,1,1,1,1,38,0,0,0,0,0,258844312,255,190,6,4,0,0,0,0,0,0,0,0,0,0,0,0,0,0,0,0,0,0,0,0,0,0,0,0,0,0,0,0,0,0,0
259887651,1200.0,0.69277924,0.04158782,1.1080184,0.0,0,0,1,1,1,1,38,0,0,0,0,0,259882321,255,190,6,4,0,0,0,0,0,0,0,0,0,0,0,0,0,0,0,0,0,0,0,0,0,0,0,0,0,0,0,0,0,0,0
260817439,1200.0,0.69277924,0.041828666,1.3594316,0.0,0,0,1,1,1,1,38,0,0,0,0,0,260812387,255,190,6,4,0,0,0,0,0,0,0,0,0,0,0,0,0,0,0,0,0,0,0,0,0,0,0,0,0,0,0,0,0,0,0
261968433,1200.0,0.69277924,0.04199836,1.0169603,0.0,0,0,1,1,1,1,38,0,0,0,0,0,261962470,255,190,6,4,0,0,0,0,0,0,0,0,0,0,0,0,0,0,0,0,0,0,0,0,0,0,0,0,0,0,0,0,0,0,0
262893296,1200.0,0.69277924,0.04195762,1.0119778,0.0,0,0,1,1,1,1,38,0,0,0,0,0,262888302,255,190,6,4,0,0,0,0,0,0,0,0,0,0,0,0,0,0,0,0,0,0,0,0,0,0,0,0,0,0,0,0,0,0,0
263815779,1200.0,0.69277924,0.04179458,1.2289596,0.0,0,0,1,1,1,1,38,0,0,0,0,0,263813309,255,190,6,4,0,0,0,0,0,0,0,0,0,0,0,0,0,0,0,0,0,0,0,0,0,0,0,0,0,0,0,0,0,0,0
264975897,1200.0,0.69277924,0.04189363,1.1760141,0.0,0,0,1,1,1,1,38,0,0,0,0,0,264971767,255,190,6,4,0,0,0,0,0,0,0,0,0,0,0,0,0,0,0,0,0,0,0,0,0,0,0,0,0,0,0,0,0,0,0
265896541,1200.0,0.69277924,0.041594535,0.8427845,0.0,0,0,1,1,1,1,38,0,0,0,0,0,265895572,255,190,6,4,0,0,0,0,0,0,0,0,0,0,0,0,0,0,0,0,0,0,0,0,0,0,0,0,0,0,0,0,0,0,0
266827222,1200.0,0.69277924,0.04193056,1.448601,0.0,0,0,1,1,1,1,38,0,0,0,0,0,266821681,255,190,6,4,0,0,0,0,0,0,0,0,0,0,0,0,0,0,0,0,0,0,0,0,0,0,0,0,0,0,0,0,0,0,0
267877291,1200.0,0.69277924,0.041997522,1.0369388,0.0,0,0,1,1,1,1,38,0,0,0,0,0,267872091,255,190,6,4,0,0,0,0,0,0,0,0,0,0,0,0,0,0,0,0,0,0,0,0,0,0,0,0,0,0,0,0,0,0,0
269827247,1200.0,0.69277924,0.041997436,1.2859215,0.0,0,0,1,1,1,1,38,0,0,0,0,0,269825588,255,190,6,4,0,0,0,0,0,0,0,0,0,0,0,0,0,0,0,0,0,0,0,0,0,0,0,0,0,0,0,0,0,0,0
270908379,1200.0,0.69277924,0.04196085,1.1978823,0.0,0,0,1,1,1,1,38,0,0,0,0,0,270901308,255,190,6,4,0,0,0,0,0,0,0,0,0,0,0,0,0,0,0,0,0,0,0,0,0,0,0,0,0,0,0,0,0,0,0
271828370,1200.0,0.69277924,0.041580122,1.0385131,0.0,0,0,1,1,1,1,38,0,0,0,0,0,271822116,255,190,6,4,0,0,0,0,0,0,0,0,0,0,0,0,0,0,0,0,0,0,0,0,0,0,0,0,0,0,0,0,0,0,0
272848523,1200.0,0.69277924,0.041589018,1.1595414,0.0,0,0,1,1,1,1,38,0,0,0,0,0,272838340,255,190,6,4,0,0,0,0,0,0,0,0,0,0,0,0,0,0,0,0,0,0,0,0,0,0,0,0,0,0,0,0,0,0,0
273898291,1200.0,0.69277924,0.06799612,1.084938,0.0,0,0,1,1,1,1,38,0,0,0,0,0,273891737,255,190,6,4,0,0,0,0,0,0,0,0,0,0,0,0,0,0,0,0,0,0,0,0,0,0,0,0,0,0,0,0,0,0,0
274913432,1200.0,0.69277924,0.041797448,1.3514508,0.0,0,0,1,1,1,1,38,0,0,0,0,0,274911728,255,190,6,4,0,0,0,0,0,0,0,0,0,0,0,0,0,0,0,0,0,0,0,0,0,0,0,0,0,0,0,0,0,0,0
276886515,1200.0,0.69277924,0.04191458,1.208537,0.0,0,0,1,1,1,1,38,0,0,0,0,0,276886407,255,190,6,4,0,0,0,0,0,0,0,0,0,0,0,0,0,0,0,0,0,0,0,0,0,0,0,0,0,0,0,0,0,0,0
277838222,1200.0,0.69277924,0.041879177,1.2394242,0.0,0,0,1,1,1,1,38,0,0,0,0,0,277832366,255,190,6,4,0,0,0,0,0,0,0,0,0,0,0,0,0,0,0,0,0,0,0,0,0,0,0,0,0,0,0,0,0,0,0
278848491,1200.0,0.69277924,0.04199773,1.0059456,0.0,0,0,1,1,1,1,38,0,0,0,0,0,278841315,255,190,6,4,0,0,0,0,0,0,0,0,0,0,0,0,0,0,0,0,0,0,0,0,0,0,0,0,0,0,0,0,0,0,0
279909080,1200.0,0.69277924,0.041580576,1.013774,0.0,0,0,1,1,1,1,38,0,0,0,0,0,279903538,255,190,6,4,0,0,0,0,0,0,0,0,0,0,0,0,0,0,0,0,0,0,0,0,0,0,0,0,0,0,0,0,0,0,0
280818235,1200.0,0.69277924,0.041996893,1.458892,0.0,0,0,1,1,1,1,38,0,0,0,0,0,280816486,255,190,6,4,0,0,0,0,0,0,0,0,0,0,0,0,0,0,0,0,0,0,0,0,0,0,0,0,0,0,0,0,0,0,0
281848509,1200.0,0.69277924,0.04199664,0.79293656,0.0,0,0,1,1,1,1,38,0,0,0,0,0,281845429,255,190,6,4,0,0,0,0,0,0,0,0,0,0,0,0,0,0,0,0,0,0,0,0,0,0,0,0,0,0,0,0,0,0,0
282923281,1200.0,0.69277924,0.041456502,1.223954,0.0,0,0,1,1,1,1,38,0,0,0,0,0,282922301,255,190,6,4,0,0,0,0,0,0,0,0,0,0,0,0,0,0,0,0,0,0,0,0,0,0,0,0,0,0,0,0,0,0,0
283825469,1200.0,0.69277924,0.06774905,1.2593354,0.0,0,0,1,1,1,1,38,0,0,0,0,0,283824316,255,190,6,4,0,0,0,0,0,0,0,0,0,0,0,0,0,0,0,0,0,0,0,0,0,0,0,0,0,0,0,0,0,0,0
284857531,1200.0,0.69277924,0.041995294,1.0988768,0.0,0,0,1,1,1,1,38,0,0,0,0,0,284851969,255,190,6,4,0,0,0,0,0,0,0,0,0,0,0,0,0,0,0,0,0,0,0,0,0,0,0,0,0,0,0,0,0,0,0
285947307,1200.0,0.69277924,0.041918717,0.92919827,0.0,0,0,1,1,1,1,38,0,0,0,0,0,285945438,255,190,6,4,0,0,0,0,0,0,0,0,0,0,0,0,0,0,0,0,0,0,0,0,0,0,0,0,0,0,0,0,0,0,0
288918092,1200.0,0.69277924,0.041589756,0.9238867,0.0,0,0,1,1,1,1,38,0,0,0,0,0,288911743,255,190,6,4,0,0,0,0,0,0,0,0,0,0,0,0,0,0,0,0,0,0,0,0,0,0,0,0,0,0,0,0,0,0,0
289848474,1200.0,0.69277924,0.04194325,1.3751394,0.0,0,0,1,1,1,1,38,0,0,0,0,0,289847311,255,190,6,4,0,0,0,0,0,0,0,0,0,0,0,0,0,0,0,0,0,0,0,0,0,0,0,0,0,0,0,0,0,0,0
290867292,1200.0,0.69277924,0.041675348,1.0686749,0.0,0,0,1,1,1,1,38,0,0,0,0,0,290862301,255,190,6,4,0,0,0,0,0,0,0,0,0,0,0,0,0,0,0,0,0,0,0,0,0,0,0,0,0,0,0,0,0,0,0
291993474,1200.0,0.69277924,0.041963533,0.8832325,0.0,0,0,1,1,1,1,38,0,0,0,0,0,291985375,255,190,6,4,0,0,0,0,0,0,0,0,0,0,0,0,0,0,0,0,0,0,0,0,0,0,0,0,0,0,0,0,0,0,0
292853222,1200.0,0.69277924,0.04175,1.356875,0.0,0,0,1,1,1,1,38,0,0,0,0,0,292852010,255,190,6,4,0,0,0,0,0,0,0,0,0,0,0,0,0,0,0,0,0,0,0,0,0,0,0,0,0,0,0,0,0,0,0
293873234,1200.0,0.69277924,0.06798946,1.1388234,0.0,0,0,1,1,1,1,38,0,0,0,0,0,293866495,255,190,6,4,0,0,0,0,0,0,0,0,0,0,0,0,0,0,0,0,0,0,0,0,0,0,0,0,0,0,0,0,0,0,0
294916499,1200.0,0.69277924,0.04159017,1.1199638,0.0,0,0,1,1,1,1,38,0,0,0,0,0,294911748,255,190,6,4,0,0,0,0,0,0,0,0,0,0,0,0,0,0,0,0,0,0,0,0,0,0,0,0,0,0,0,0,0,0,0
295848427,1200.0,0.69277924,0.04178655,1.115303,0.0,0,0,1,1,1,1,38,0,0,0,0,0,295843299,255,190,6,4,0,0,0,0,0,0,0,0,0,0,0,0,0,0,0,0,0,0,0,0,0,0,0,0,0,0,0,0,0,0,0
296878270,1200.0,0.69277924,0.04158317,1.1346265,0.0,0,0,1,1,1,1,38,0,0,0,0,0,296872432,255,190,6,4,0,0,0,0,0,0,0,0,0,0,0,0,0,0,0,0,0,0,0,0,0,0,0,0,0,0,0,0,0,0,0
297915728,1200.0,0.69277924,0.041796904,1.2698298,0.0,0,0,1,1,1,1,38,0,0,0,0,0,297915326,255,190,6,4,0,0,0,0,0,0,0,0,0,0,0,0,0,0,0,0,0,0,0,0,0,0,0,0,0,0,0,0,0,0,0
300957605,1200.0,0.69277924,0.041580454,1.283054,0.0,0,0,1,1,1,1,38,0,0,0,0,0,300948361,255,190,6,4,0,0,0,0,0,0,0,0,0,0,0,0,0,0,0,0,0,0,0,0,0,0,0,0,0,0,0,0,0,0,0
301848736,1200.0,0.69277924,0.04158704,0.91491485,0.0,0,0,1,1,1,1,38,0,0,0,0,0,301845496,255,190,6,4,0,0,0,0,0,0,0,0,0,0,0,0,0,0,0,0,0,0,0,0,0,0,0,0,0,0,0,0,0,0,0
302888499,1200.0,0.69277924,0.041956574,1.1048565,0.0,0,0,1,1,1,1,38,0,0,0,0,0,302883612,255,190,6,4,0,0,0,0,0,0,0,0,0,0,0,0,0,0,0,0,0,0,0,0,0,0,0,0,0,0,0,0,0,0,0
303818223,1200.0,0.69277924,0.06730854,1.4649504,0.0,0,0,1,1,1,1,38,0,0,0,0,0,303812006,255,190,6,4,0,0,0,0,0,0,0,0,0,0,0,0,0,0,0,0,0,0,0,0,0,0,0,0,0,0,0,0,0,0,0
304878362,1200.0,0.69277924,0.041600015,0.75375265,0.0,0,0,1,1,1,1,38,0,0,0,0,0,304876303,255,190,6,4,0,0,0,0,0,0,0,0,0,0,0,0,0,0,0,0,0,0,0,0,0,0,0,0,0,0,0,0,0,0,0
305891958,1200.0,0.69277924,0.041996807,1.2399057,0.0,0,0,1,1,1,1,38,0,0,0,0,0,305888305,255,190,6,4,0,0,0,0,0,0,0,0,0,0,0,0,0,0,0,0,0,0,0,0,0,0,0,0,0,0,0,0,0,0,0
306823273,1200.0,0.69277924,0.041794203,1.2369094,0.0,0,0,1,1,1,1,38,0,0,0,0,0,306813359,255,190,6,4,0,0,0,0,0,0,0,0,0,0,0,0,0,0,0,0,0,0,0,0,0,0,0,0,0,0,0,0,0,0,0
307885544,1200.0,0.69277924,0.04158206,1.1672678,0.0,0,0,1,1,1,1,38,0,0,0,0,0,307885336,255,190,6,4,0,0,0,0,0,0,0,0,0,0,0,0,0,0,0,0,0,0,0,0,0,0,0,0,0,0,0,0,0,0,0
308895581,1200.0,0.69277924,0.041912485,0.8492268,0.0,0,0,1,1,1,1,38,0,0,0,0,0,308893686,255,190,6,4,0,0,0,0,0,0,0,0,0,0,0,0,0,0,0,0,0,0,0,0,0,0,0,0,0,0,0,0,0,0,0
309828490,1200.0,0.69277924,0.04191186,1.4589318,0.0,0,0,1,1,1,1,38,0,0,0,0,0,309818324,255,190,6,4,0,0,0,0,0,0,0,0,0,0,0,0,0,0,0,0,0,0,0,0,0,0,0,0,0,0,0,0,0,0,0
311823521,1200.0,0.69277924,0.041581318,1.0167621,0.0,0,0,1,1,1,1,38,0,0,0,0,0,311822311,255,190,6,4,0,0,0,0,0,0,0,0,0,0,0,0,0,0,0,0,0,0,0,0,0,0,0,0,0,0,0,0,0,0,0
312827307,1200.0,0.69277924,0.04162376,1.2715068,0.0,0,0,1,1,1,1,38,0,0,0,0,0,312825270,255,190,6,4,0,0,0,0,0,0,0,0,0,0,0,0,0,0,0,0,0,0,0,0,0,0,0,0,0,0,0,0,0,0,0
313908549,1200.0,0.69277924,0.067945234,1.1260923,0.0,0,0,1,1,1,1,38,0,0,0,0,0,313903310,255,190,6,4,0,0,0,0,0,0,0,0,0,0,0,0,0,0,0,0,0,0,0,0,0,0,0,0,0,0,0,0,0,0,0
314865515,1200.0,0.69277924,0.04170104,1.1060705,0.0,0,0,1,1,1,1,38,0,0,0,0,0,314861707,255,190,6,4,0,0,0,0,0,0,0,0,0,0,0,0,0,0,0,0,0,0,0,0,0,0,0,0,0,0,0,0,0,0,0
315837502,1200.0,0.69277924,0.041921478,1.1039323,0.0,0,0,1,1,1,1,38,0,0,0,0,0,315829097,255,190,6,4,0,0,0,0,0,0,0,0,0,0,0,0,0,0,0,0,0,0,0,0,0,0,0,0,0,0,0,0,0,0,0
316897644,1200.0,0.69277924,0.041998442,1.1579571,0.0,0,0,1,1,1,1,38,0,0,0,0,0,316887556,255,190,6,4,0,0,0,0,0,0,0,0,0,0,0,0,0,0,0,0,0,0,0,0,0,0,0,0,0,0,0,0,0,0,0
317918297,1200.0,0.69277924,0.041954894,1.0898284,0.0,0,0,1,1,1,1,38,0,0,0,0,0,317911735,255,190,6,4,0,0,0,0,0,0,0,0,0,0,0,0,0,0,0,0,0,0,0,0,0,0,0,0,0,0,0,0,0,0,0
318838288,1200.0,0.69277924,0.041997984,1.0889477,0.0,0,0,1,1,1,1,38,0,0,0,0,0,318835608,255,190,6,4,0,0,0,0,0,0,0,0,0,0,0,0,0,0,0,0,0,0,0,0,0,0,0,0,0,0,0,0,0,0,0
319888485,1200.0,0.69277924,0.04158951,1.1347995,0.0,0,0,1,1,1,1,38,0,0,0,0,0,319885503,255,190,6,4,0,0,0,0,0,0,0,0,0,0,0,0,0,0,0,0,0,0,0,0,0,0,0,0,0,0,0,0,0,0,0
320843223,1200.0,0.69277924,0.041792788,1.2906011,0.0,0,0,1,1,1,1,38,0,0,0,0,0,320841511,255,190,6,4,0,0,0,0,0,0,0,0,0,0,0,0,0,0,0,0,0,0,0,0,0,0,0,0,0,0,0,0,0,0,0
321843223,1200.0,0.69277924,0.04158535,0.9633939,0.0,0,0,1,1,1,1,38,0,0,0,0,0,321841524,255,190,6,4,0,0,0,0,0,0,0,0,0,0,0,0,0,0,0,0,0,0,0,0,0,0,0,0,0,0,0,0,0,0,0
323825396,1200.0,0.69277924,0.06799904,1.3359812,0.0,0,0,1,1,1,1,38,0,0,0,0,0,323822334,255,190,6,4,0,0,0,0,0,0,0,0,0,0,0,0,0,0,0,0,0,0,0,0,0,0,0,0,0,0,0,0,0,0,0
324848517,1200.0,0.69277924,0.041948736,0.91488194,0.0,0,0,1,1,1,1,38,0,0,0,0,0,324845473,255,190,6,4,0,0,0,0,0,0,0,0,0,0,0,0,0,0,0,0,0,0,0,0,0,0,0,0,0,0,0,0,0,0,0
325908374,1200.0,0.69277924,0.041926794,1.1080652,0.0,0,0,1,1,1,1,38,0,0,0,0,0,325903309,255,190,6,4,0,0,0,0,0,0,0,0,0,0,0,0,0,0,0,0,0,0,0,0,0,0,0,0,0,0,0,0,0,0,0
326828375,1200.0,0.69277924,0.041578557,1.3691225,0.0,0,0,1,1,1,1,38,0,0,0,0,0,326822135,255,190,6,4,0,0,0,0,0,0,0,0,0,0,0,0,0,0,0,0,0,0,0,0,0,0,0,0,0,0,0,0,0,0,0
327857551,1200.0,0.69277924,0.041796904,0.84290427,0.0,0,0,1,1,1,1,38,0,0,0,0,0,327851976,255,190,6,4,0,0,0,0,0,0,0,0,0,0,0,0,0,0,0,0,0,0,0,0,0,0,0,0,0,0,0,0,0,0,0
328937609,1200.0,0.69277924,0.04183392,1.1593971,0.0,0,0,1,1,1,1,38,0,0,0,0,0,328931533,255,190,6,4,0,0,0,0,0,0,0,0,0,0,0,0,0,0,0,0,0,0,0,0,0,0,0,0,0,0,0,0,0,0,0
329847655,1200.0,0.69277924,0.06299199,1.3308309,0.0,0,0,1,1,1,1,38,0,0,0,0,0,329842349,255,190,6,4,0,0,0,0,0,0,0,0,0,0,0,0,0,0,0,0,0,0,0,0,0,0,0,0,0,0,0,0,0,0,0
330857375,1200.0,0.69277924,0.020795412,1.0922543,0.0,0,0,1,1,1,1,38,0,0,0,0,0,330855295,255,190,6,4,0,0,0,0,0,0,0,0,0,0,0,0,0,0,0,0,0,0,0,0,0,0,0,0,0,0,0,0,0,0,0
332848509,1200.0,0.69277924,0.041959465,1.3317134,0.0,0,0,1,1,1,1,38,0,0,0,0,0,332841648,255,190,6,4,0,0,0,0,0,0,0,0,0,0,0,0,0,0,0,0,0,0,0,0,0,0,0,0,0,0,0,0,0,0,0
333868437,1200.0,0.69277924,0.067995034,1.0909203,0.0,0,0,1,1,1,1,38,0,0,0,0,0,333861613,255,190,6,4,0,0,0,0,0,0,0,0,0,0,0,0,0,0,0,0,0,0,0,0,0,0,0,0,0,0,0,0,0,0,0
334943018,1200.0,0.69277924,0.04199739,0.92094284,0.0,0,0,1,1,1,1,38,0,0,0,0,0,334942395,255,190,6,4,0,0,0,0,0,0,0,0,0,0,0,0,0,0,0,0,0,0,0,0,0,0,0,0,0,0,0,0,0,0,0
335865434,1200.0,0.69277924,0.06257325,1.4540831,0.0,0,0,1,1,1,1,38,0,0,0,0,0,335856520,255,190,6,4,0,0,0,0,0,0,0,0,0,0,0,0,0,0,0,0,0,0,0,0,0,0,0,0,0,0,0,0,0,0,0
338857451,1200.0,0.69277924,0.04197825,1.0604507,0.0,0,0,1,1,1,1,38,0,0,0,0,0,338848314,255,190,6,4,0,0,0,0,0,0,0,0,0,0,0,0,0,0,0,0,0,0,0,0,0,0,0,0,0,0,0,0,0,0,0
339878353,1200.0,0.69277924,0.020987868,1.2043039,0.0,0,0,1,1,1,1,38,0,0,0,0,0,339873996,255,190,6,4,0,0,0,0,0,0,0,0,0,0,0,0,0,0,0,0,0,0,0,0,0,0,0,0,0,0,0,0,0,0,0
340927579,1200.0,0.69277924,0.062376976,1.0445669,0.0,0,0,1,1,1,1,38,0,0,0,0,0,340925374,255,190,6,4,0,0,0,0,0,0,0,0,0,0,0,0,0,0,0,0,0,0,0,0,0,0,0,0,0,0,0,0,0,0,0
341858961,1200.0,0.69277924,0.04161679,1.1632884,0.0,0,0,1,1,1,1,38,0,0,0,0,0,341853991,255,190,6,4,0,0,0,0,0,0,0,0,0,0,0,0,0,0,0,0,0,0,0,0,0,0,0,0,0,0,0,0,0,0,0
342887307,1200.0,0.69277924,0.04160022,1.0796248,0.0,0,0,1,1,1,1,38,0,0,0,0,0,342885507,255,190,6,4,0,0,0,0,0,0,0,0,0,0,0,0,0,0,0,0,0,0,0,0,0,0,0,0,0,0,0,0,0,0,0
343955298,1200.0,0.69277924,0.06745008,1.3529692,0.0,0,0,1,1,1,1,38,0,0,0,0,0,343947301,255,190,6,4,0,0,0,0,0,0,0,0,0,0,0,0,0,0,0,0,0,0,0,0,0,0,0,0,0,0,0,0,0,0,0
344875667,1200.0,0.69277924,0.041996595,0.89592737,0.0,0,0,1,1,1,1,38,0,0,0,0,0,344867611,255,190,6,4,0,0,0,0,0,0,0,0,0,0,0,0,0,0,0,0,0,0,0,0,0,0,0,0,0,0,0,0,0,0,0
345885945,1200.0,0.69277924,0.041999366,1.2049818,0.0,0,0,1,1,1,1,38,0,0,0,0,0,345882743,255,190,6,4,0,0,0,0,0,0,0,0,0,0,0,0,0,0,0,0,0,0,0,0,0,0,0,0,0,0,0,0,0,0,0
346938354,1200.0,0.69277924,0.020940611,1.2534451,0.0,0,0,1,1,1,1,38,0,0,0,0,0,346935548,255,190,6,4,0,0,0,0,0,0,0,0,0,0,0,0,0,0,0,0,0,0,0,0,0,0,0,0,0,0,0,0,0,0,0
347878372,1200.0,0.69277924,0.06299546,0.97193,0.0,0,0,1,1,1,1,38,0,0,0,0,0,347873530,255,190,6,4,0,0,0,0,0,0,0,0,0,0,0,0,0,0,0,0,0,0,0,0,0,0,0,0,0,0,0,0,0,0,0
348888655,1200.0,0.69277924,0.04199727,1.028933,0.0,0,0,1,1,1,1,38,0,0,0,0,0,348886305,255,190,6,4,0,0,0,0,0,0,0,0,0,0,0,0,0,0,0,0,0,0,0,0,0,0,0,0,0,0,0,0,0,0,0
349817228,1200.0,0.69277924,0.041630074,1.4511054,0.0,0,0,1,1,1,1,38,0,0,0,0,0,349813489,255,190,6,4,0,0,0,0,0,0,0,0,0,0,0,0,0,0,0,0,0,0,0,0,0,0,0,0,0,0,0,0,0,0,0
350897439,1200.0,0.69277924,0.04158778,0.7574917,0.0,0,0,1,1,1,1,38,0,0,0,0,0,350887309,255,190,6,4,0,0,0,0,0,0,0,0,0,0,0,0,0,0,0,0,0,0,0,0,0,0,0,0,0,0,0,0,0,0,0
351897528,1200.0,0.69277924,0.04198073,1.2444288,0.0,0,0,1,1,1,1,38,0,0,0,0,0,351893409,255,190,6,4,0,0,0,0,0,0,0,0,0,0,0,0,0,0,0,0,0,0,0,0,0,0,0,0,0,0,0,0,0,0,0
352818715,1200.0,0.69277924,0.041973263,1.2681922,0.0,0,0,1,1,1,1,38,0,0,0,0,0,352817426,255,190,6,4,0,0,0,0,0,0,0,0,0,0,0,0,0,0,0,0,0,0,0,0,0,0,0,0,0,0,0,0,0,0,0
353978295,1200.0,0.69277924,0.041584443,1.2049588,0.0,0,0,1,1,1,1,38,0,0,0,0,0,353975524,255,190,6,4,0,0,0,0,0,0,0,0,0,0,0,0,0,0,0,0,0,0,0,0,0,0,0,0,0,0,0,0,0,0,0
354908468,1200.0,0.69277924,0.04158222,0.84748524,0.0,0,0,1,1,1,1,38,0,0,0,0,0,354901682,255,190,6,4,0,0,0,0,0,0,0,0,0,0,0,0,0,0,0,0,0,0,0,0,0,0,0,0,0,0,0,0,0,0,0
355908624,1200.0,0.69277924,0.03399398,1.4327463,0.0,0,0,1,1,1,1,38,0,0,0,0,0,354901682,255,190,6,4,0,0,0,0,0,0,0,0,0,0,0,0,0,0,0,0,0,0,0,0,0,0,0,0,0,0,0,0,0,0,0
357927223,1200.0,0.69277924,0.0,1.0218611,0.0,0,0,1,1,1,1,38,0,0,0,0,0,354901682,255,190,6,4,0,0,0,0,0,0,0,0,0,0,0,0,0,0,0,0,0,0,0,0,0,0,0,0,0,0,0,0,0,0,0
359988498,1200.0,0.69277924,0.020983087,1.2040296,0.0,0,0,1,1,1,1,38,0,0,0,0,0,359988348,255,190,6,4,0,0,0,0,0,0,0,0,0,0,0,0,0,0,0,0,0,0,0,0,0,0,0,0,0,0,0,0,0,0,0
360995722,1200.0,0.69277924,0.06236722,1.0137148,0.0,0,0,1,1,1,1,38,0,0,0,0,0,359988348,255,190,6,4,0,0,0,0,0,0,0,0,0,0,0,0,0,0,0,0,0,0,0,0,0,0,0,0,0,0,0,0,0,0,0
361997222,1200.0,0.69277924,0.020814871,1.1547298,0.0,0,0,1,1,1,1,38,0,0,0,0,0,359988348,255,190,6,4,0,0,0,0,0,0,0,0,0,0,0,0,0,0,0,0,0,0,0,0,0,0,0,0,0,0,0,0,0,0,0
362997347,1200.0,0.69277924,0.02099792,1.129888,0.0,0,0,1,1,1,1,38,0,0,0,0,0,362995570,255,190,6,4,0,0,0,0,0,0,0,0,0,0,0,0,0,0,0,0,0,0,0,0,0,0,0,0,0,0,0,0,0,0,0
363927687,1200.0,0.69277924,0.041997183,1.1369238,0.0,0,0,1,1,1,1,38,0,0,0,0,0,363922192,255,190,6,4,0,0,0,0,0,0,0,0,0,0,0,0,0,0,0,0,0,0,0,0,0,0,0,0,0,0,0,0,0,0,0
364847551,1200.0,0.69277924,0.041595276,1.0814772,0.0,0,0,1,1,1,1,38,0,0,0,0,0,364846299,255,190,6,4,0,0,0,0,0,0,0,0,0,0,0,0,0,0,0,0,0,0,0,0,0,0,0,0,0,0,0,0,0,0,0
366008430,1200.0,0.69277924,0.041948777,1.1735669,0.0,0,0,1,1,1,1,38,0,0,0,0,0,366002324,255,190,6,4,0,0,0,0,0,0,0,0,0,0,0,0,0,0,0,0,0,0,0,0,0,0,0,0,0,0,0,0,0,0,0
366853489,1200.0,0.69277924,0.04179641,1.3155917,0.0,0,0,1,1,1,1,38,0,0,0,0,0,366847785,255,190,6,4,0,0,0,0,0,0,0,0,0,0,0,0,0,0,0,0,0,0,0,0,0,0,0,0,0,0,0,0,0,0,0
367856630,1200.0,0.69277924,0.041867238,0.96693385,0.0,0,0,1,1,1,1,38,0,0,0,0,0,367853640,255,190,6,4,0,0,0,0,0,0,0,0,0,0,0,0,0,0,0,0,0,0,0,0,0,0,0,0,0,0,0,0,0,0,0
368908433,1200.0,0.69277924,0.04192445,1.1209799,0.0,0,0,1,1,1,1,38,0,0,0,0,0,368904888,255,190,6,4,0,0,0,0,0,0,0,0,0,0,0,0,0,0,0,0,0,0,0,0,0,0,0,0,0,0,0,0,0,0,0
369837284,1200.0,0.69277924,0.041625574,1.327063,0.0,0,0,1,1,1,1,38,0,0,0,0,0,369833395,255,190,6,4,0,0,0,0,0,0,0,0,0,0,0,0,0,0,0,0,0,0,0,0,0,0,0,0,0,0,0,0,0,0,0
370867225,1200.0,0.69277924,0.0415807,0.8811148,0.0,0,0,1,1,1,1,38,0,0,0,0,0,370861456,255,190,6,4,0,0,0,0,0,0,0,0,0,0,0,0,0,0,0,0,0,0,0,0,0,0,0,0,0,0,0,0,0,0,0
372015708,1200.0,0.69277924,0.041656584,1.1415887,0.0,0,0,1,1,1,1,38,0,0,0,0,0,372015295,255,190,6,4,0,0,0,0,0,0,0,0,0,0,0,0,0,0,0,0,0,0,0,0,0,0,0,0,0,0,0,0,0,0,0
372948428,1200.0,0.69277924,0.041879304,1.359083,0.0,0,0,1,1,1,1,38,0,0,0,0,0,372941619,255,190,6,4,0,0,0,0,0,0,0,0,0,0,0,0,0,0,0,0,0,0,0,0,0,0,0,0,0,0,0,0,0,0,0
373868455,1200.0,0.69277924,0.041595772,0.9091647,0.0,0,0,1,1,1,1,38,0,0,0,0,0,373865583,255,190,6,4,0,0,0,0,0,0,0,0,0,0,0,0,0,0,0,0,0,0,0,0,0,0,0,0,0,0,0,0,0,0,0
374928489,1200.0,0.69277924,0.041996554,1.0919105,0.0,0,0,1,1,1,1,38,0,0,0,0,0,374923305,255,190,6,4,0,0,0,0,0,0,0,0,0,0,0,0,0,0,0,0,0,0,0,0,0,0,0,0,0,0,0,0,0,0,0
375848606,1200.0,0.69277924,0.062361848,1.3561227,0.0,0,0,1,1,1,1,38,0,0,0,0,0,375845423,255,190,6,4,0,0,0,0,0,0,0,0,0,0,0,0,0,0,0,0,0,0,0,0,0,0,0,0,0,0,0,0,0,0,0
376873391,1200.0,0.69277924,0.020900035,1.0579399,0.0,0,0,1,1,1,1,38,0,0,0,0,0,376871639,255,190,6,4,0,0,0,0,0,0,0,0,0,0,0,0,0,0,0,0,0,0,0,0,0,0,0,0,0,0,0,0,0,0,0
377925537,1200.0,0.69277924,0.041915122,0.93610436,0.0,0,0,1,1,1,1,38,0,0,0,0,0,377925322,255,190,6,4,0,0,0,0,0,0,0,0,0,0,0,0,0,0,0,0,0,0,0,0,0,0,0,0,0,0,0,0,0,0,0
378877520,1200.0,0.69277924,0.041907635,1.3480289,0.0,0,0,1,1,1,1,38,0,0,0,0,0,378873543,255,190,6,4,0,0,0,0,0,0,0,0,0,0,0,0,0,0,0,0,0,0,0,0,0,0,0,0,0,0,0,0,0,0,0
379877450,1200.0,0.69277924,0.041993447,1.1108266,0.0,0,0,1,1,1,1,38,0,0,0,0,0,379875648,255,190,6,4,0,0,0,0,0,0,0,0,0,0,0,0,0,0,0,0,0,0,0,0,0,0,0,0,0,0,0,0,0,0,0
381868387,1200.0,0.69277924,0.062376913,1.3485295,0.0,0,0,1,1,1,1,38,0,0,0,0,0,381865379,255,190,6,4,0,0,0,0,0,0,0,0,0,0,0,0,0,0,0,0,0,0,0,0,0,0,0,0,0,0,0,0,0,0,0
382888690,1200.0,0.69277924,0.046988674,1.1837147,0.0,0,0,1,1,1,1,38,0,0,0,0,0,382881491,255,190,6,4,0,0,0,0,0,0,0,0,0,0,0,0,0,0,0,0,0,0,0,0,0,0,0,0,0,0,0,0,0,0,0
383985359,1200.0,0.69277924,0.041716494,1.0588044,0.0,0,0,1,1,1,1,38,0,0,0,0,0,383978357,255,190,6,4,0,0,0,0,0,0,0,0,0,0,0,0,0,0,0,0,0,0,0,0,0,0,0,0,0,0,0,0,0,0,0
384865490,1200.0,0.69277924,0.041716494,1.0588044,0.0,0,0,1,1,1,1,38,0,0,0,0,0,384856403,255,190,6,4,0,0,0,0,0,0,0,0,0,0,0,0,0,0,0,0,0,0,0,0,0,0,0,0,0,0,0,0,0,0,0
386818309,1200.0,0.69277924,0.041921146,1.1089141,0.0,0,0,1,1,1,1,38,0,0,0,0,0,386815664,255,190,6,4,0,0,0,0,0,0,0,0,0,0,0,0,0,0,0,0,0,0,0,0,0,0,0,0,0,0,0,0,0,0,0
387878303,1200.0,0.69277924,0.04195846,1.2407715,0.0,0,0,1,1,1,1,38,0,0,0,0,0,387875883,255,190,6,4,0,0,0,0,0,0,0,0,0,0,0,0,0,0,0,0,0,0,0,0,0,0,0,0,0,0,0,0,0,0,0
390977577,1200.0,0.69277924,0.020792942,0.8475599,0.0,0,0,1,1,1,1,38,0,0,0,0,0,390973686,255,190,6,4,0,0,0,0,0,0,0,0,0,0,0,0,0,0,0,0,0,0,0,0,0,0,0,0,0,0,0,0,0,0,0
391907561,1200.0,0.69277924,0.020792942,0.8475599,0.0,0,0,1,1,1,1,38,0,0,0,0,0,391898322,255,190,6,4,0,0,0,0,0,0,0,0,0,0,0,0,0,0,0,0,0,0,0,0,0,0,0,0,0,0,0,0,0,0,0
392828427,1200.0,0.69277924,0.062360797,1.2323681,0.0,0,0,1,1,1,1,38,0,0,0,0,0,392823499,255,190,6,4,0,0,0,0,0,0,0,0,0,0,0,0,0,0,0,0,0,0,0,0,0,0,0,0,0,0,0,0,0,0,0
393988371,1200.0,0.69277924,0.020792326,0.9623876,0.0,0,0,1,1,1,1,38,0,0,0,0,0,393981463,255,190,6,4,0,0,0,0,0,0,0,0,0,0,0,0,0,0,0,0,0,0,0,0,0,0,0,0,0,0,0,0,0,0,0
394988568,1200.0,0.69277924,0.04158362,1.0584022,0.0,0,0,1,1,1,1,38,0,0,0,0,0,393981463,255,190,6,4,0,0,0,0,0,0,0,0,0,0,0,0,0,0,0,0,0,0,0,0,0,0,0,0,0,0,0,0,0,0,0
395988632,1200.0,0.69277924,0.020786088,1.4094948,0.0,0,0,1,1,1,1,38,0,0,0,0,0,393981463,255,190,6,4,0,0,0,0,0,0,0,0,0,0,0,0,0,0,0,0,0,0,0,0,0,0,0,0,0,0,0,0,0,0,0
397001478,1200.0,0.69277924,0.020797309,0.8596221,0.0,0,0,1,1,1,1,38,0,0,0,0,0,393981463,255,190,6,4,0,0,0,0,0,0,0,0,0,0,0,0,0,0,0,0,0,0,0,0,0,0,0,0,0,0,0,0,0,0,0
397913516,1200.0,0.69277924,0.020797309,0.8596221,0.0,0,0,1,1,1,1,38,0,0,0,0,0,397913388,255,190,6,4,0,0,0,0,0,0,0,0,0,0,0,0,0,0,0,0,0,0,0,0,0,0,0,0,0,0,0,0,0,0,0
398838294,1200.0,0.69277924,0.041799027,1.1683824,0.0,0,0,1,1,1,1,38,0,0,0,0,0,398837320,255,190,6,4,0,0,0,0,0,0,0,0,0,0,0,0,0,0,0,0,0,0,0,0,0,0,0,0,0,0,0,0,0,0,0
399998441,1200.0,0.69277924,0.020997185,1.1448466,0.0,0,0,1,1,1,1,38,0,0,0,0,0,399993555,255,190,6,4,0,0,0,0,0,0,0,0,0,0,0,0,0,0,0,0,0,0,0,0,0,0,0,0,0,0,0,0,0,0,0
400828537,1200.0,0.69277924,0.020997185,1.1448466,0.0,0,0,1,1,1,1,38,0,0,0,0,0,400826302,255,190,6,4,0,0,0,0,0,0,0,0,0,0,0,0,0,0,0,0,0,0,0,0,0,0,0,0,0,0,0,0,0,0,0
401838238,1200.0,0.69277924,0.062996976,0.89595693,0.0,0,0,1,1,1,1,38,0,0,0,0,0,400826302,255,190,6,4,0,0,0,0,0,0,0,0,0,0,0,0,0,0,0,0,0,0,0,0,0,0,0,0,0,0,0,0,0,0,0
402843291,1200.0,0.69277924,0.020797864,1.4102933,0.0,0,0,1,1,1,1,38,0,0,0,0,0,400826302,255,190,6,4,0,0,0,0,0,0,0,0,0,0,0,0,0,0,0,0,0,0,0,0,0,0,0,0,0,0,0,0,0,0,0
403927676,1200.0,0.69277924,0.020843402,1.051103,0.0,0,0,1,1,1,1,38,0,0,0,0,0,403926308,255,190,6,4,0,0,0,0,0,0,0,0,0,0,0,0,0,0,0,0,0,0,0,0,0,0,0,0,0,0,0,0,0,0,0
404857526,1200.0,0.69277924,0.041936047,0.97051996,0.0,0,0,1,1,1,1,38,0,0,0,0,0,404853565,255,190,6,4,0,0,0,0,0,0,0,0,0,0,0,0,0,0,0,0,0,0,0,0,0,0,0,0,0,0,0,0,0,0,0
405917390,1200.0,0.69277924,0.041576542,1.2750139,0.0,0,0,1,1,1,1,38,0,0,0,0,0,405916451,255,190,6,4,0,0,0,0,0,0,0,0,0,0,0,0,0,0,0,0,0,0,0,0,0,0,0,0,0,0,0,0,0,0,0
406828652,1200.0,0.69277924,0.0419963,1.2048938,0.0,0,0,1,1,1,1,38,0,0,0,0,0,406828369,255,190,6,4,0,0,0,0,0,0,0,0,0,0,0,0,0,0,0,0,0,0,0,0,0,0,0,0,0,0,0,0,0,0,0
407857565,1200.0,0.69277924,0.04197049,0.9833087,0.0,0,0,1,1,1,1,38,0,0,0,0,0,407857312,255,190,6,4,0,0,0,0,0,0,0,0,0,0,0,0,0,0,0,0,0,0,0,0,0,0,0,0,0,0,0,0,0,0,0
408925934,1200.0,0.69277924,0.041628297,1.2339817,0.0,0,0,1,1,1,1,38,0,0,0,0,0,408925397,255,190,6,4,0,0,0,0,0,0,0,0,0,0,0,0,0,0,0,0,0,0,0,0,0,0,0,0,0,0,0,0,0,0,0
409827223,1200.0,0.69277924,0.041662574,1.020733,0.0,0,0,1,1,1,1,38,0,0,0,0,0,409825439,255,190,6,4,0,0,0,0,0,0,0,0,0,0,0,0,0,0,0,0,0,0,0,0,0,0,0,0,0,0,0,0,0,0,0
410867311,1200.0,0.69277924,0.041918676,1.4012815,0.0,0,0,1,1,1,1,38,0,0,0,0,0,410862856,255,190,6,4,0,0,0,0,0,0,0,0,0,0,0,0,0,0,0,0,0,0,0,0,0,0,0,0,0,0,0,0,0,0,0
411917433,1200.0,0.69277924,0.04198648,0.88771415,0.0,0,0,1,1,1,1,38,0,0,0,0,0,411913421,255,190,6,4,0,0,0,0,0,0,0,0,0,0,0,0,0,0,0,0,0,0,0,0,0,0,0,0,0,0,0,0,0,0,0
412888511,1200.0,0.69277924,0.04159742,1.2023635,0.0,0,0,1,1,1,1,38,0,0,0,0,0,412886299,255,190,6,4,0,0,0,0,0,0,0,0,0,0,0,0,0,0,0,0,0,0,0,0,0,0,0,0,0,0,0,0,0,0,0
415028494,1200.0,0.69277924,0.02079286,1.0218205,0.0,0,0,1,1,1,1,38,0,0,0,0,0,415025171,255,190,6,4,0,0,0,0,0,0,0,0,0,0,0,0,0,0,0,0,0,0,0,0,0,0,0,0,0,0,0,0,0,0,0
415956498,1200.0,0.69277924,0.041574977,1.0581821,0.0,0,0,1,1,1,1,38,0,0,0,0,0,415948308,255,190,6,4,0,0,0,0,0,0,0,0,0,0,0,0,0,0,0,0,0,0,0,0,0,0,0,0,0,0,0,0,0,0,0
416877446,1200.0,0.69277924,0.041630857,1.4114842,0.0,0,0,1,1,1,1,38,0,0,0,0,0,416873662,255,190,6,4,0,0,0,0,0,0,0,0,0,0,0,0,0,0,0,0,0,0,0,0,0,0,0,0,0,0,0,0,0,0,0
418037462,1200.0,0.69277924,0.041589428,0.79713064,0.0,0,0,1,1,1,1,38,0,0,0,0,0,418033464,255,190,6,4,0,0,0,0,0,0,0,0,0,0,0,0,0,0,0,0,0,0,0,0,0,0,0,0,0,0,0,0,0,0,0
419038304,1200.0,0.69277924,0.041972928,1.1642491,0.0,0,0,1,1,1,1,38,0,0,0,0,0,418033464,255,190,6,4,0,0,0,0,0,0,0,0,0,0,0,0,0,0,0,0,0,0,0,0,0,0,0,0,0,0,0,0,0,0,0
419888411,1200.0,0.69277924,0.020990659,1.3274093,0.0,0,0,1,1,1,1,38,0,0,0,0,0,419881634,255,190,6,4,0,0,0,0,0,0,0,0,0,0,0,0,0,0,0,0,0,0,0,0,0,0,0,0,0,0,0,0,0,0,0
421038305,1200.0,0.69277924,0.0419979,0.9179541,0.0,0,0,1,1,1,1,38,0,0,0,0,0,421037188,255,190,6,4,0,0,0,0,0,0,0,0,0,0,0,0,0,0,0,0,0,0,0,0,0,0,0,0,0,0,0,0,0,0,0
423821425,1200.0,0.69277924,0.041995715,1.0838894,0.0,0,0,1,1,1,1,38,0,0,0,0,0,423813302,255,190,6,4,0,0,0,0,0,0,0,0,0,0,0,0,0,0,0,0,0,0,0,0,0,0,0,0,0,0,0,0,0,0,0
424973324,1200.0,0.69277924,0.041795243,0.9732321,0.0,0,0,1,1,1,1,38,0,0,0,0,0,424970496,255,190,6,4,0,0,0,0,0,0,0,0,0,0,0,0,0,0,0,0,0,0,0,0,0,0,0,0,0,0,0,0,0,0,0
425903239,1200.0,0.69277924,0.041957118,1.3725972,0.0,0,0,1,1,1,1,38,0,0,0,0,0,425898926,255,190,6,4,0,0,0,0,0,0,0,0,0,0,0,0,0,0,0,0,0,0,0,0,0,0,0,0,0,0,0,0,0,0,0
426823306,1200.0,0.69277924,0.041587368,1.1089965,0.0,0,0,1,1,1,1,38,0,0,0,0,0,426821132,255,190,6,4,0,0,0,0,0,0,0,0,0,0,0,0,0,0,0,0,0,0,0,0,0,0,0,0,0,0,0,0,0,0,0
427873385,1200.0,0.69277924,0.041999705,0.8899937,0.0,0,0,1,1,1,1,38,0,0,0,0,0,427870360,255,190,6,4,0,0,0,0,0,0,0,0,0,0,0,0,0,0,0,0,0,0,0,0,0,0,0,0,0,0,0,0,0,0,0
428883621,1200.0,0.69277924,0.041993447,1.3657868,0.0,0,0,1,1,1,1,38,0,0,0,0,0,427870360,255,190,6,4,0,0,0,0,0,0,0,0,0,0,0,0,0,0,0,0,0,0,0,0,0,0,0,0,0,0,0,0,0,0,0
429893324,1200.0,0.69277924,0.020795435,1.1071093,0.0,0,0,1,1,1,1,38,0,0,0,0,0,427870360,255,190,6,4,0,0,0,0,0,0,0,0,0,0,0,0,0,0,0,0,0,0,0,0,0,0,0,0,0,0,0,0,0,0,0
430983297,1200.0,0.69277924,0.02079037,1.1197098,0.0,0,0,1,1,1,1,38,0,0,0,0,0,430982810,255,190,6,4,0,0,0,0,0,0,0,0,0,0,0,0,0,0,0,0,0,0,0,0,0,0,0,0,0,0,0,0,0,0,0
431913389,1200.0,0.69277924,0.041586917,1.0782893,0.0,0,0,1,1,1,1,38,0,0,0,0,0,431907667,255,190,6,4,0,0,0,0,0,0,0,0,0,0,0,0,0,0,0,0,0,0,0,0,0,0,0,0,0,0,0,0,0,0,0
432833367,1200.0,0.69277924,0.0419992,1.1049789,0.0,0,0,1,1,1,1,38,0,0,0,0,0,432832427,255,190,6,4,0,0,0,0,0,0,0,0,0,0,0,0,0,0,0,0,0,0,0,0,0,0,0,0,0,0,0,0,0,0,0
433888371,1200.0,0.69277924,0.041579258,1.3236064,0.0,0,0,1,1,1,1,38,0,0,0,0,0,433887305,255,190,6,4,0,0,0,0,0,0,0,0,0,0,0,0,0,0,0,0,0,0,0,0,0,0,0,0,0,0,0,0,0,0,0
434921234,1200.0,0.69277924,0.04179458,0.9274416,0.0,0,0,1,1,1,1,38,0,0,0,0,0,434913305,255,190,6,4,0,0,0,0,0,0,0,0,0,0,0,0,0,0,0,0,0,0,0,0,0,0,0,0,0,0,0,0,0,0,0
435842934,1200.0,0.69277924,0.041874543,1.1246306,0.0,0,0,1,1,1,1,38,0,0,0,0,0,435838392,255,190,6,4,0,0,0,0,0,0,0,0,0,0,0,0,0,0,0,0,0,0,0,0,0,0,0,0,0,0,0,0,0,0,0
440003288,1200.0,0.69277924,0.041587286,1.3624786,0.0,0,0,1,1,1,1,38,0,0,0,0,0,440001307,255,190,6,4,0,0,0,0,0,0,0,0,0,0,0,0,0,0,0,0,0,0,0,0,0,0,0,0,0,0,0,0,0,0,0
440933547,1200.0,0.69277924,0.041580986,0.86627054,0.0,0,0,1,1,1,1,38,0,0,0,0,0,440927321,255,190,6,4,0,0,0,0,0,0,0,0,0,0,0,0,0,0,0,0,0,0,0,0,0,0,0,0,0,0,0,0,0,0,0
441943299,1200.0,0.69277924,0.04157193,1.1452078,0.0,0,0,1,1,1,1,38,0,0,0,0,0,440927321,255,190,6,4,0,0,0,0,0,0,0,0,0,0,0,0,0,0,0,0,0,0,0,0,0,0,0,0,0,0,0,0,0,0,0
443013379,1200.0,0.69277924,0.02079978,1.3113767,0.0,0,0,1,1,1,1,38,0,0,0,0,0,443008404,255,190,6,4,0,0,0,0,0,0,0,0,0,0,0,0,0,0,0,0,0,0,0,0,0,0,0,0,0,0,0,0,0,0,0
443943301,1200.0,0.69277924,0.041584156,1.1069306,0.0,0,0,1,1,1,1,38,0,0,0,0,0,443938377,255,190,6,4,0,0,0,0,0,0,0,0,0,0,0,0,0,0,0,0,0,0,0,0,0,0,0,0,0,0,0,0,0,0,0
444859007,1200.0,0.69277924,0.041583825,0.9227649,0.0,0,0,1,1,1,1,38,0,0,0,0,0,444858374,255,190,6,4,0,0,0,0,0,0,0,0,0,0,0,0,0,0,0,0,0,0,0,0,0,0,0,0,0,0,0,0,0,0,0
445931661,1200.0,0.69277924,0.041664846,1.3362511,0.0,0,0,1,1,1,1,38,0,0,0,0,0,445931538,255,190,6,4,0,0,0,0,0,0,0,0,0,0,0,0,0,0,0,0,0,0,0,0,0,0,0,0,0,0,0,0,0,0,0
446943719,1200.0,0.69277924,0.04191834,1.0429683,0.0,0,0,1,1,1,1,38,0,0,0,0,0,446940459,255,190,6,4,0,0,0,0,0,0,0,0,0,0,0,0,0,0,0,0,0,0,0,0,0,0,0,0,0,0,0,0,0,0,0
447873292,1200.0,0.69277924,0.041999955,0.8509991,0.0,0,0,1,1,1,1,38,0,0,0,0,0,447867091,255,190,6,4,0,0,0,0,0,0,0,0,0,0,0,0,0,0,0,0,0,0,0,0,0,0,0,0,0,0,0,0,0,0,0
448923222,1200.0,0.69277924,0.041581273,1.4434642,0.0,0,0,1,1,1,1,38,0,0,0,0,0,448920423,255,190,6,4,0,0,0,0,0,0,0,0,0,0,0,0,0,0,0,0,0,0,0,0,0,0,0,0,0,0,0,0,0,0,0
449843742,1200.0,0.69277924,0.04199773,1.0239446,0.0,0,0,1,1,1,1,38,0,0,0,0,0,449843306,255,190,6,4,0,0,0,0,0,0,0,0,0,0,0,0,0,0,0,0,0,0,0,0,0,0,0,0,0,0,0,0,0,0,0
450873302,1200.0,0.69277924,0.041589305,1.184305,0.0,0,0,1,1,1,1,38,0,0,0,0,0,450870729,255,190,6,4,0,0,0,0,0,0,0,0,0,0,0,0,0,0,0,0,0,0,0,0,0,0,0,0,0,0,0,0,0,0,0
452033343,1200.0,0.69277924,0.041998148,1.0239549,0.0,0,0,1,1,1,1,38,0,0,0,0,0,452026460,255,190,6,4,0,0,0,0,0,0,0,0,0,0,0,0,0,0,0,0,0,0,0,0,0,0,0,0,0,0,0,0,0,0,0
452883644,1200.0,0.69277924,0.041583,1.2276887,0.0,0,0,1,1,1,1,38,0,0,0,0,0,452877217,255,190,6,4,0,0,0,0,0,0,0,0,0,0,0,0,0,0,0,0,0,0,0,0,0,0,0,0,0,0,0,0,0,0,0
453878460,1200.0,0.69277924,0.041794036,1.0647528,0.0,0,0,1,1,1,1,38,0,0,0,0,0,453877258,255,190,6,4,0,0,0,0,0,0,0,0,0,0,0,0,0,0,0,0,0,0,0,0,0,0,0,0,0,0,0,0,0,0,0
454942451,1200.0,0.69277924,0.041999787,1.2359937,0.0,0,0,1,1,1,1,38,0,0,0,0,0,454940667,255,190,6,4,0,0,0,0,0,0,0,0,0,0,0,0,0,0,0,0,0,0,0,0,0,0,0,0,0,0,0,0,0,0,0
455862384,1200.0,0.69277924,0.041826252,1.0595983,0.0,0,0,1,1,1,1,38,0,0,0,0,0,455860545,255,190,6,4,0,0,0,0,0,0,0,0,0,0,0,0,0,0,0,0,0,0,0,0,0,0,0,0,0,0,0,0,0,0,0
