timestamp,timestamp_sample,accel_device_id,gyro_device_id,delta_angle[0],delta_angle[1],delta_angle[2],delta_velocity[0],delta_velocity[1],delta_velocity[2],delta_angle_dt,delta_velocity_dt,delta_velocity_clipping
65635674,65635563,1114146,2228258,-1.208678e-05,-1.4510698e-06,-2.463511e-05,-0.0010958507,0.0014634451,-0.04138888,4975,4220,0
66132036,66131926,1114146,2228258,3.8961244e-07,1.3995714e-05,-2.7201802e-05,0.0007623577,0.001679791,-0.06506521,5065,6645,0
66632026,66631921,1114146,2228258,2.6439311e-05,-3.5271554e-05,-4.2877935e-05,-3.489072e-05,0.0018049083,-0.041384447,5054,4243,0
68133184,68133077,1114146,2228258,1.1925491e-05,-3.945713e-05,-1.753436e-05,6.855383e-05,0.00038411785,-0.048816256,5010,5080,0
68629605,68629377,1114146,2228258,7.7713485e-06,-2.0703e-05,-4.3971173e-05,-0.0004546969,0.0015023232,-0.049837425,4965,5106,0
69130804,69129371,1114146,2228258,1.4986583e-05,3.1268642e-05,-3.0448668e-05,-0.0006952645,0.00061507005,-0.048724663,4612,5032,0
69632021,69631909,1114146,2228258,-1.4920465e-05,-1.1726999e-05,-3.5042573e-05,0.00041540148,0.0014065993,-0.05157409,5053,5250,0
70131085,70130762,1114146,2228258,6.9121947e-06,-4.8896156e-05,-2.8389783e-05,-2.646028e-05,0.0009438349,-0.040869918,4954,4192,0
70630901,70630587,1114146,2228258,3.8309117e-06,2.1028525e-05,-3.466822e-05,-0.00028961423,0.002029855,-0.062140133,5760,6260,0
71128299,71128194,1114146,2228258,2.6501699e-05,-4.3785683e-05,-1.2816155e-05,0.00020660301,0.0018025463,-0.040852677,5014,4195,0
71628790,71627305,1114146,2228258,-8.834915e-06,-2.3267918e-05,-3.5187248e-05,-0.00089428294,0.0022032869,-0.052011814,5054,5253,0
72129570,72127755,1114146,2228258,-1.9923016e-05,1.2758475e-05,-1.1803357e-05,-0.000852106,0.0019332838,-0.050562512,5003,5268,0
72630800,72629690,1114146,2228258,7.1730334e-05,3.0677872e-06,-3.1025662e-05,-0.0013245032,0.0017655325,-0.06643868,5314,6734,0
73131054,73130194,1114146,2228258,1.0637012e-05,-3.5650013e-05,-2.666979e-05,-0.00010889784,0.001174403,-0.06157929,5009,6300,0
73632031,73631902,1114146,2228258,-2.1366108e-05,-4.7007077e-05,1.8627901e-06,0.00019109265,0.002255625,-0.04943845,5049,5051,0
74130862,74129379,1114146,2228258,-1.1055612e-05,-5.2634377e-06,-1.4412238e-05,-0.00056966086,0.0023889656,-0.058214407,4628,6031,0
74629683,74629541,1114146,2228258,-5.5321607e-06,-6.81422e-07,-6.8831636e-05,-0.00049486716,0.0004936791,-0.050982278,5721,5195,0
75130854,75130757,1114146,2228258,-6.914026e-05,-5.222565e-05,-2.5763502e-06,-0.00011646903,0.0013787631,-0.035255123,4966,3525,0
75630807,75630582,1114146,2228258,-1.2365438e-05,2.767856e-05,-1.9903167e-05,-0.00021566851,0.0016198201,-0.0513893,5761,5270,0
76132033,76131928,1114146,2228258,-2.4754314e-05,-5.211677e-05,2.420428e-05,0.0007943358,0.0020939587,-0.049134824,5043,5043,0
76630771,76628682,1114146,2228258,2.140665e-05,-3.5131732e-05,-6.2096675e-05,-0.0001255069,0.0016723494,-0.050859008,5001,5203,0
77131549,77131379,1114146,2228258,-1.8981202e-05,4.7194142e-05,-1.398961e-05,0.0003270536,0.0031366982,-0.062264595,5041,6379,0
77629650,77629445,1114146,2228258,-2.6546304e-05,-2.8078894e-05,-1.4298726e-05,-0.0004609115,0.0018760663,-0.055212,5069,5687,0
78132052,78131898,1114146,2228258,2.800611e-05,-1.4798883e-05,1.3378722e-05,0.00028360853,0.0012347533,-0.029747982,5045,3000,0
78629552,78629368,1114146,2228258,-6.311228e-06,6.874343e-06,-2.6031386e-05,-5.3739735e-05,0.0013021545,-0.05139684,4988,5266,0
79130873,79129785,1114146,2228258,-2.3158984e-05,-1.2854766e-05,-2.0363636e-06,-0.00023169476,0.0019646455,-0.04956137,5039,5093,0
79630815,79630251,1114146,2228258,-1.335967e-05,1.36522785e-05,-5.4787415e-07,-0.00062821736,0.0017451517,-0.04973492,5004,5043,0
80131019,80130787,1114146,2228258,-1.6358948e-05,-2.7798362e-05,-1.7651519e-05,-0.00029633212,0.0014088703,-0.043153014,4991,4487,0
80630948,80629433,1114146,2228258,5.0822426e-05,2.7904969e-06,8.100339e-07,-0.0008263215,0.0011643015,-0.04550903,4616,4702,0
81132039,81131904,1114146,2228258,-5.7686602e-06,1.687374e-07,-4.019728e-05,-9.3402494e-05,0.0020117506,-0.049231764,4993,5086,0
81632365,81632252,1114146,2228258,2.061835e-05,1.5521233e-05,1.761443e-05,-4.895401e-05,0.0014025402,-0.048044037,5279,4948,0
82131528,82131366,1114146,2228258,1.5578737e-05,-4.558831e-05,-3.0883104e-05,-0.00040266465,0.001120756,-0.040721208,5027,4201,0
82629572,82629371,1114146,2228258,1.1086157e-05,-1.989628e-05,2.06103e-05,-7.7030396e-05,0.0009520892,-0.04906474,4947,5011,0
83132458,83132348,1114146,2228258,6.8054605e-06,-6.179893e-05,-3.1914704e-05,8.44438e-05,0.0032046412,-0.061068673,4998,6302,0
83629586,83629371,1114146,2228258,-3.4397817e-05,-3.0210012e-06,-8.94443e-06,-0.0006138809,0.0012879017,-0.04045155,4975,4205,0
85127007,85126910,1114146,2228258,-1.3894476e-05,-2.0088142e-05,-2.549744e-05,-0.0003468009,0.0007370633,-0.040055335,4977,4073,0
85631515,85629820,1114146,2228258,1.2177369e-05,-5.321975e-05,-1.2413483e-05,-0.0003233685,0.0011221872,-0.046691418,4967,4714,0
86129695,86129478,1114146,2228258,1.583176e-05,-3.0170522e-05,-3.6281148e-05,0.00011716239,0.0013630154,-0.041122463,5035,4192,0
86632168,86632011,1114146,2228258,-1.49748885e-05,-3.152696e-06,-4.7790168e-06,-0.0008286814,0.002306341,-0.0521346,5124,5201,0
87132848,87132745,1114146,2228258,-3.9544724e-05,3.314995e-05,-2.6036687e-05,-0.00041532857,0.00056430616,-0.045131132,5004,4528,0
87628414,87628260,1114146,2228258,2.5603065e-06,9.312615e-06,-2.5196723e-05,-0.0004973392,0.0013599704,-0.051309478,5019,5256,0
88128949,88128742,1114146,2228258,-2.2521832e-05,-3.08948e-05,-5.4480075e-05,0.0004790623,0.00106594,-0.04035313,4995,4192,0
88632062,88631900,1114146,2228258,6.817765e-05,-8.4791545e-06,-4.559283e-05,0.00014468338,0.001894805,-0.049498085,5038,5091,0
89129540,89129372,1114146,2228258,-2.9667675e-05,-7.531471e-06,-1.9378604e-06,0.00019565459,0.0019337512,-0.051119525,4998,5254,0
89633208,89633104,1114146,2228258,-2.8255348e-05,-4.1982363e-05,1.1925335e-05,-0.000713907,0.0014237601,-0.05068725,5696,5195,0
90130850,90130746,1114146,2228258,-1.3601003e-05,-1.00241605e-05,-6.0514736e-08,-0.00057782204,0.0015142278,-0.058887936,5003,5952,0
90630911,90629814,1114146,2228258,-1.0367496e-05,-4.6604047e-05,-1.7665723e-05,-0.00048456018,0.0012448272,-0.043550435,5004,4481,0
91132125,91131952,1114146,2228258,-2.3112114e-05,-1.6987507e-05,-6.4035785e-06,0.00012436655,0.0010791786,-0.050458886,5080,5131,0
91632204,91631950,1114146,2228258,1.387469e-06,1.1232754e-05,-3.6260404e-05,-0.0001528802,0.0010435639,-0.049423452,5081,5079,0
93130799,93130166,1114146,2228258,-1.5096376e-05,-0.00010535841,-3.7441587e-05,0.0016142096,0.0022209089,-0.05566734,5687,5785,0
93632056,93631957,1114146,2228258,-1.4253097e-05,-1.60624e-05,-3.221017e-05,3.0486135e-05,0.0010433692,-0.029948248,5003,3023,0
94129659,94129447,1114146,2228258,1.1788506e-05,-1.9288118e-05,-3.0785137e-05,-0.00014223048,0.0011121734,-0.051756613,5004,5247,0
94632486,94632380,1114146,2228258,-1.4936773e-05,2.7779317e-05,-2.1392718e-05,0.00062499434,0.0008969755,-0.049805596,4977,5058,0
95130874,95130736,1114146,2228258,8.114703e-06,-1.4520896e-05,-1.3717662e-05,0.00032355607,0.0023242864,-0.058924098,4991,5963,0
95632767,95632668,1114146,2228258,0.000100232595,-5.6261943e-05,-4.3394325e-06,-4.389531e-05,0.0018872943,-0.051437337,5666,5260,0
96129698,96129372,1114146,2228258,6.8283785e-05,-7.640426e-06,-7.79129e-06,-0.00024301512,0.0030053086,-0.055492543,5002,5669,0
96632136,96631906,1114146,2228258,-8.5149295e-06,-2.0752757e-05,-1.5300646e-05,-0.00043572346,0.00104523,-0.050610807,5049,5060,0
97131497,97131362,1114146,2228258,-7.2626295e-05,-3.1397143e-05,-4.5441193e-06,-0.00025544883,0.0018511007,-0.051428385,5025,5250,0
97629747,97629377,1114146,2228258,2.2253907e-05,-3.955998e-05,-2.238935e-05,-0.0005683324,0.00063183176,-0.0499088,5003,5032,0
98132508,98132344,1114146,2228258,6.679846e-05,-2.750695e-05,-2.3427676e-05,0.00028540316,0.0024287105,-0.05182951,5001,5250,0
98629587,98629414,1114146,2228258,3.680821e-05,2.0800119e-06,-1.8054936e-05,-0.00027925093,0.001784554,-0.05415194,5026,5597,0
99129585,99129417,1114146,2228258,-5.3129548e-05,-1.0021692e-05,-4.566848e-06,0.00042956302,0.0022869701,-0.051431973,5003,5250,0
100629656,100629451,1114146,2228258,6.863788e-05,-7.985646e-06,-1.41201235e-05,-0.00077879056,0.0016512363,-0.05005824,5027,5140,0
101132073,101131970,1114146,2228258,8.941408e-05,-3.021979e-05,-2.9630779e-05,0.0006411706,0.0012865481,-0.041049715,5105,4205,0
101632009,101631862,1114146,2228258,8.481874e-05,-1.8455814e-05,-2.4760207e-05,-1.3777739e-05,0.0008599523,-0.03874735,4931,3972,0
102131486,102131359,1114146,2228258,-4.3624955e-06,3.4103432e-05,-3.322565e-05,-4.711398e-05,0.0022738064,-0.051663175,5022,5252,0
102629722,102629370,1114146,2228258,-7.942048e-06,-1.2920783e-05,-2.9986903e-05,-0.00039762008,0.0012856516,-0.050145093,4987,5170,0
103132446,103132339,1114146,2228258,-4.5780882e-05,-2.4857836e-05,-5.1749015e-05,-0.0006347623,0.0014022609,-0.05462749,5470,5709,0
103631069,103629945,1114146,2228258,5.2045e-05,2.4293777e-05,-3.4471894e-05,-0.00025216085,0.0012025954,-0.050458834,4997,5070,0
104129584,104129414,1114146,2228258,-3.0007843e-05,3.501099e-05,-2.4257817e-05,-0.0002641579,0.0019118332,-0.055746853,5041,5696,0
104631164,104630944,1114146,2228258,2.1077834e-05,-2.428789e-06,-2.849232e-05,-0.00030051687,0.0007307539,-0.051151536,4948,5252,0
105132035,105131900,1114146,2228258,0.00013932107,2.1012813e-05,-2.9088002e-05,8.65476e-05,0.0019861294,-0.04861141,5044,5050,0
105632835,105631231,1114146,2228258,-8.194607e-05,-2.8001807e-05,-1.3819146e-05,0.0010739558,0.0020772112,-0.0651358,5011,6714,0
106131969,106131864,1114146,2228258,-8.8650806e-05,8.353778e-06,1.5715699e-07,0.00063023553,0.001594871,-0.042175934,5011,4244,0
106631995,106631896,1114146,2228258,-0.00013578506,6.216926e-06,-2.4160336e-05,-0.00013610003,0.0011692899,-0.040465135,5035,4183,0
107130825,107129900,1114146,2228258,4.0595103e-05,-5.8056616e-05,-1.4171086e-06,0.0007480619,0.0010682223,-0.03092926,5039,3208,0
107633340,107633230,1114146,2228258,3.6312667e-05,-2.078273e-05,1.9183295e-05,-0.00065692706,0.0016676163,-0.04959954,5005,5230,0
108129602,108129440,1114146,2228258,3.6304085e-05,-4.0070405e-05,-1.761309e-05,-4.9757913e-05,0.0020216433,-0.049575806,4999,5088,0
108629640,108629393,1114146,2228258,3.4660607e-05,1.2273988e-05,5.8037476e-06,0.00020587519,0.0013809189,-0.06163883,5889,6487,0
109129581,109129371,1114146,2228258,2.0471267e-05,-5.383357e-05,5.1862025e-07,-0.00028964566,0.0007304885,-0.055344123,4991,5616,0
109628996,109628795,1114146,2228258,-2.409837e-05,-1.8406039e-05,-8.69739e-06,-0.0002237292,0.0011619696,-0.052319482,5007,5276,0
110132081,110131947,1114146,2228258,-2.6908287e-05,-6.7760707e-06,6.399974e-06,0.0005237761,0.0008020292,-0.048710816,5095,5098,0
110629596,110629378,1114146,2228258,-4.5557667e-06,1.1137423e-05,-1.5304588e-05,0.00032450206,0.0011935679,-0.050784416,4981,5202,0
111632002,111631896,1114146,2228258,-0.0001430856,-4.4789624e-05,-1.9620778e-05,0.0005328639,0.0019464968,-0.051510416,5027,5255,0
112132831,112132720,1114146,2228258,-4.9249895e-05,-5.388452e-05,6.2148124e-06,0.00013800323,0.0010368279,-0.052382804,5720,5206,0
112629544,112629370,1114146,2228258,-7.022609e-05,1.146179e-05,-2.7333648e-05,0.00022090536,0.002067876,-0.06181404,6875,6294,0
113132032,113131898,1114146,2228258,0.00015396968,-7.0201495e-05,-4.53398e-05,-0.00017911343,0.0018777149,-0.048919983,5003,5071,0
114129591,114129391,1114146,2228258,-6.266212e-05,3.240225e-06,9.091704e-06,-0.00035690764,0.0009584046,-0.04970267,4981,5042,0
114628951,114628788,1114146,2228258,-2.5358253e-05,-4.798215e-07,7.967847e-06,-0.00026213803,0.0010514554,-0.04198147,5005,4200,0
115131022,115130766,1114146,2228258,-2.1182364e-05,1.8994322e-05,-4.0141686e-06,-0.00035229835,0.0022341327,-0.061427392,5769,6303,0
115629669,115629410,1114146,2228258,1.6874656e-05,1.9384488e-05,-2.631183e-05,-0.00036275346,0.00089645025,-0.031056436,5072,3121,0
116132056,116131948,1114146,2228258,-4.0206756e-05,-1.825085e-05,-3.7638856e-05,-0.00029778114,0.0039586737,-0.06547844,5953,6712,0
116632048,116631944,1114146,2228258,-6.924895e-05,-3.774961e-05,1.1426784e-05,-0.00036316927,0.0010450479,-0.05273385,5064,5343,0
117130827,117129860,1114146,2228258,1.2234233e-06,-3.9125453e-06,-1.6976954e-06,-0.0005906511,0.0018310942,-0.05700997,5428,5698,0
117629538,117629371,1114146,2228258,4.283013e-05,-1.0607161e-05,-4.408881e-05,-0.00016612344,0.0014685926,-0.051203568,4986,5234,0
120132080,120131909,1114146,2228258,-0.00012752092,-7.660874e-05,-1.4710013e-05,0.00043152174,0.0020031244,-0.049727608,5030,5074,0
120629724,120629430,1114146,2228258,3.357293e-05,2.9732935e-06,-8.311672e-06,-0.00046995844,0.0018635171,-0.040805437,4977,4151,0
121129048,121128857,1114146,2228258,5.9043346e-06,-4.9940885e-05,-7.262531e-06,0.00079232146,0.0014867231,-0.052404337,5001,5244,0
121632178,121632008,1114146,2228258,-9.725193e-05,3.2532742e-05,-9.960564e-06,-0.00037585033,0.0014545512,-0.057350513,5152,5842,0
122629701,122629413,1114146,2228258,3.96443e-06,-4.790867e-06,4.1744293e-06,-0.00018113374,0.002219897,-0.045642007,5035,4684,0
123132012,123131874,1114146,2228258,-3.2485386e-05,-2.324987e-07,2.1367878e-05,-0.0007318908,0.001620168,-0.04909859,5003,5004,0
123632888,123632781,1114146,2228258,-4.759903e-05,-1.6949174e-05,-1.64218e-05,-0.00028116663,0.0014743963,-0.05160662,5006,5245,0
124129632,124129431,1114146,2228258,7.26563e-05,-2.0316798e-05,-1.413471e-05,-0.00054665946,0.0023994476,-0.04816084,5010,5011,0
124629643,124629491,1114146,2228258,-3.1846475e-06,2.1753896e-05,1.2866116e-06,8.195994e-06,0.0014606641,-0.049302187,5004,4993,0
125132052,125131959,1114146,2228258,6.654216e-05,-2.9718527e-05,-1.0384823e-05,-0.00014451022,0.0008208301,-0.03920229,5095,4095,0
125629604,125629387,1114146,2228258,-1.0632098e-05,1.641927e-05,-3.5761965e-05,-0.00038635082,0.002145187,-0.04071418,5017,4198,0
126132123,126131945,1114146,2228258,-8.418246e-05,9.294128e-07,-5.136591e-07,-0.0004753912,0.0014227553,-0.063852206,5955,6513,0
126632020,126631912,1114146,2228258,3.3856442e-05,-2.1509075e-05,-4.748988e-05,-0.00029117256,0.001171489,-0.05591089,5023,5638,0
127131535,127131298,1114146,2228258,-8.05339e-08,-4.64046e-05,-2.0165182e-05,0.00049339444,0.0034680925,-0.0618936,5026,6358,0
127633369,127633253,1114146,2228258,-1.6589202e-05,-3.9017108e-05,-9.363766e-07,-0.00031125333,0.0021229258,-0.061003108,5762,6216,0
128132040,128131900,1114146,2228258,2.3850685e-05,2.8721497e-05,-6.0465576e-05,0.00038329477,0.0015333892,-0.049074024,5036,5039,0
128633039,128632845,1114146,2228258,-0.00012553639,4.4034205e-05,-5.1409174e-06,0.00023572169,0.0012176479,-0.058357913,5011,5968,0
129129627,129129396,1114146,2228258,-6.254637e-05,-3.0162205e-06,-2.4197458e-05,0.00025950986,0.0021596786,-0.048643626,5032,5035,0
129633950,129633797,1114146,2228258,8.836738e-05,6.032967e-06,1.39859785e-05,-0.0007401655,0.001792103,-0.051612463,5027,5237,0
130132014,130131913,1114146,2228258,3.5662877e-05,-5.867159e-06,-3.270912e-05,-2.8703755e-05,0.0010317822,-0.030705629,5057,3159,0
130629584,130629410,1114146,2228258,-4.5524623e-05,-3.1244057e-05,-2.7420817e-06,0.00054689636,0.0015406546,-0.061358944,4976,6293,0
131132060,131131919,1114146,2228258,8.263442e-06,5.017834e-05,-4.8085287e-05,-0.0007093704,0.0011699725,-0.06496969,5939,6467,0
131632053,131631894,1114146,2228258,-2.8359575e-05,7.8963685e-06,-2.2476604e-05,-0.00019378819,0.0014573608,-0.054491445,4999,5593,0
132132873,132132705,1114146,2228258,7.8786834e-05,5.8992773e-05,-3.4558252e-05,-0.00045983237,0.0031875893,-0.061983585,5725,6303,0
132633451,132633209,1114146,2228258,9.80193e-06,-3.116798e-05,-6.328407e-05,9.7222866e-05,0.002800232,-0.063113905,5726,6371,0
133132143,133131966,1114146,2228258,-6.205603e-06,-3.7199414e-05,1.054634e-05,-0.00057430327,0.0018209069,-0.050807875,5107,5143,0
133632955,133632782,1114146,2228258,-5.9012906e-05,-1.2002764e-05,-4.697017e-06,0.00020713448,0.0012702898,-0.051450774,5013,5253,0
134129640,134129370,1114146,2228258,-8.713716e-05,3.475175e-05,-1.7456028e-05,-6.1647193e-06,0.0010744426,-0.04980402,4986,5123,0
134628934,134628765,1114146,2228258,6.922871e-05,-2.430871e-05,-2.3415138e-05,-0.0007532158,0.0017400531,-0.05127454,5693,5250,0
135131964,135131862,1114146,2228258,5.4132393e-05,9.810845e-06,-1.35945e-05,-0.0005294851,0.0021749546,-0.050026394,4991,5198,0
135629574,135629398,1114146,2228258,6.697113e-05,-3.5507724e-06,-5.087843e-05,0.0002966023,0.0020730244,-0.06443064,5023,6683,0
136132528,136132418,1114146,2228258,-5.9770853e-05,-3.1911753e-05,-1.7645323e-05,-0.00083686673,0.0029342517,-0.061797597,6440,6339,0
136632082,136631947,1114146,2228258,-5.1005754e-05,-2.7210332e-05,-2.1199874e-06,-0.0011109085,0.0018490845,-0.050003026,4987,5056,0
137130724,137129836,1114146,2228258,-2.0470163e-05,-6.349179e-06,-8.787682e-06,-6.8165806e-05,0.0020662649,-0.04866495,5465,4997,0
137633309,137633198,1114146,2228258,7.463323e-05,-1.907044e-05,-1.8298899e-05,-0.00020390675,0.0012736407,-0.050624125,5705,5251,0
138131996,138131897,1114146,2228258,2.3331575e-05,5.321108e-06,-1.4256368e-05,7.892331e-05,0.0019295372,-0.04061886,5026,4186,0
138631496,138631364,1114146,2228258,-7.0212394e-05,-1.8891664e-05,-1.3446299e-06,-0.00068061793,0.0020632981,-0.051591367,5026,5210,0
139129770,139129428,1114146,2228258,-9.4530085e-05,-1.5525733e-05,1.4914353e-05,-0.00049974315,0.0016237163,-0.050883137,5005,5177,0
139628975,139628762,1114146,2228258,0.00015613106,-4.440603e-05,-6.169385e-05,-6.9816466e-05,0.001720839,-0.05177726,5701,5250,0
140129696,140129481,1114146,2228258,0.00014356483,-2.6114123e-05,-1.6933907e-05,0.00021518205,0.0014526244,-0.06387957,5941,6509,0
140629640,140629402,1114146,2228258,-1.625478e-05,-1.4238165e-05,-1.1193021e-05,0.00016006843,0.002494211,-0.05435967,5028,5583,0
142629685,142629432,1114146,2228258,4.3591815e-05,-1.9185984e-07,-3.475437e-05,0.00036778883,0.0014484059,-0.04908183,4998,4995,0
143132067,143131909,1114146,2228258,-1.691157e-05,-1.0846429e-05,-2.6979442e-06,-5.171562e-05,0.0010580979,-0.041044928,5032,4203,0
143631484,143631353,1114146,2228258,-8.520672e-06,6.3057364e-06,9.004066e-06,-3.0780462e-05,0.0014505514,-0.041549057,5016,4266,0
144129552,144129387,1114146,2228258,-2.7181602e-06,-1.4868048e-05,1.1273223e-05,-0.0006670675,0.00066567597,-0.030540489,5005,3143,0
144628944,144628755,1114146,2228258,9.135023e-06,-2.7854003e-06,-1.4872141e-05,-0.0004955139,0.0025442657,-0.06244923,5718,6300,0
145132041,145131906,1114146,2228258,4.947764e-05,-8.9525895e-07,-3.060736e-05,0.0009728796,0.0029703577,-0.055248633,5036,5755,0
145629569,145629369,1114146,2228258,-6.8862405e-06,8.480865e-05,-9.827685e-06,0.00037178985,0.0009823573,-0.048436914,4958,5019,0
146132029,146131918,1114146,2228258,-5.9974e-05,-4.7766247e-05,2.71967e-06,0.00010983302,0.002700349,-0.06191994,5953,6306,0
146632051,146631913,1114146,2228258,-8.3817395e-06,4.4566905e-06,1.9645695e-06,-0.000782062,0.0014348914,-0.049775247,5052,5051,0
147131429,147131260,1114146,2228258,-3.2191485e-06,-3.709692e-05,-3.1636697e-05,-0.0004272277,0.0008869346,-0.04132278,5008,4196,0
147633326,147633209,1114146,2228258,-2.0111132e-05,-5.0881597e-05,-2.960165e-06,-0.0005088749,0.0019219429,-0.05220855,5742,5247,0
148132017,148131913,1114146,2228258,-3.02481e-05,-2.0238282e-05,-1.1100846e-05,-5.9100275e-05,0.0023098844,-0.05054284,5055,5253,0
148632920,148632763,1114146,2228258,-6.6049283e-06,-5.1096504e-05,-2.6810054e-05,-0.0001879808,0.0017635492,-0.05133224,5013,5241,0
149129551,149129378,1114146,2228258,-2.2087985e-05,-7.743801e-06,-5.7664423e-05,-9.166918e-05,0.0012304452,-0.0513799,5001,5248,0
149628919,149627346,1114146,2228258,-2.176794e-05,-8.958431e-06,-1.0393914e-05,-0.00055938354,0.0027181716,-0.06612683,5482,6640,0
150131062,150130684,1114146,2228258,1.14692875e-05,-4.0548082e-05,-6.5182885e-06,-0.0005693647,0.0020954947,-0.059421174,5698,6103,0
152632035,152631931,1114146,2228258,2.8631868e-05,-3.352486e-05,-3.357797e-05,0.00011163513,0.0024666009,-0.053954888,4921,5518,0
153132009,153131904,1114146,2228258,-1.147438e-05,-3.4903285e-05,-3.6660196e-05,5.6115132e-05,0.0019102836,-0.05634836,5051,5739,0
153632848,153631345,1114146,2228258,-1.9943134e-05,-1.6358392e-07,-1.1204874e-05,-0.0009852952,0.0015046513,-0.052723557,5005,5276,0
154132075,154131908,1114146,2228258,7.468447e-07,-1.877418e-05,-3.119454e-05,-0.000465366,0.0017304413,-0.05203053,5001,5245,0
154632442,154632338,1114146,2228258,3.174837e-05,2.7e-05,-1.0211316e-05,-0.0007555265,0.0019435665,-0.037694424,5366,3874,0
155132236,155131992,1114146,2228258,-4.353398e-05,1.2615122e-05,-1.9723397e-05,0.000398516,0.0013822349,-0.049843583,5062,5065,0
155629655,155629391,1114146,2228258,9.309929e-05,-1.7298198e-06,-2.7536875e-05,-0.00053312746,0.0011939784,-0.03667174,4922,3786,0
156131146,156130251,1114146,2228258,-2.8662025e-05,-5.676056e-05,3.6320928e-06,-2.3167111e-05,0.0018496116,-0.0508272,5004,5201,0
156632011,156631906,1114146,2228258,-8.430899e-05,-2.7167594e-05,-1.9440218e-05,-0.00017098039,0.00016300158,-0.040685292,5040,4139,0
157130870,157129852,1114146,2228258,2.972754e-06,1.6523536e-05,-2.1528678e-05,0.000541267,0.0011641573,-0.06163483,5402,6293,0
157633295,157633178,1114146,2228258,4.526905e-05,3.382621e-06,-3.790474e-05,-0.00018939104,0.0019068666,-0.051613346,4986,5213,0
158132112,158131995,1114146,2228258,-0.00011929318,2.5966187e-05,-1.7164484e-05,1.4333808e-06,0.0011815965,-0.056500006,5129,5679,0
158631490,158631362,1114146,2228258,0.00014085666,-4.236351e-05,-3.3297958e-05,0.00023118767,0.001639011,-0.051918946,5026,5252,0
159128352,159128245,1114146,2228258,8.289684e-05,-4.3174685e-05,-3.066088e-05,-0.00035956365,0.0014380841,-0.050653465,5647,5249,0
159632489,159632343,1114146,2228258,-6.869737e-05,-2.119348e-05,-9.203382e-06,-0.00092064287,0.0014893601,-0.039847974,4997,4093,0
160132045,160131908,1114146,2228258,-8.654229e-06,-3.6842503e-05,-1.388374e-06,-0.00012385147,0.0008212618,-0.049202047,5042,5044,0
160629604,160629384,1114146,2228258,0.00011331615,1.967952e-05,-9.480098e-05,-0.0006167495,0.0019142964,-0.039761297,5010,3994,0
161128975,161127406,1114146,2228258,-5.88928e-05,5.458631e-07,-2.362585e-05,0.0001531092,0.0016414237,-0.05118483,5031,5242,0
161630940,161630742,1114146,2228258,-6.891323e-05,-4.2538682e-05,-4.442149e-05,-0.0011463674,0.0018330049,-0.051440552,4999,5293,0
162131416,162131242,1114146,2228258,1.5185059e-05,-5.7428126e-05,-4.4724825e-07,-0.00071127876,0.0011787306,-0.05091291,5007,5240,0
162632031,162631896,1114146,2228258,-4.439729e-05,-4.0390165e-05,1.1218422e-05,-0.00036195182,0.0018091904,-0.049650073,4967,5033,0
163132060,163131898,1114146,2228258,-2.7672882e-06,-1.8325118e-05,-4.0273724e-05,-0.001132282,0.0015394795,-0.054862328,5001,5592,0
163631498,163631347,1114146,2228258,1.8010849e-05,3.1984453e-06,1.6472035e-05,-0.0006903272,0.0011726499,-0.04122851,5011,4235,0
164129596,164129371,1114146,2228258,8.930091e-08,-5.3721735e-05,1.8594219e-05,-4.690854e-05,0.0015774452,-0.054543283,4933,5511,0
164632502,164632338,1114146,2228258,-5.2046016e-05,-4.5289435e-05,-1.9621606e-05,-0.0008088962,0.0012501501,-0.05061812,4991,5140,0
165130947,165130667,1114146,2228258,-1.3636608e-06,-1.99876e-05,-2.9211942e-06,-0.00021266243,0.0010101594,-0.062510945,5681,6304,0
166130802,166130236,1114146,2228258,5.744616e-05,2.0042462e-05,-5.6277106e-05,0.00024125971,0.001762975,-0.049204357,5004,5017,0
166631984,166631882,1114146,2228258,-5.501249e-05,5.2868734e-05,-2.443941e-05,-0.00039850984,0.001451744,-0.051810622,5023,5182,0
167130814,167129806,1114146,2228258,4.8759244e-05,-8.707279e-06,-7.4148784e-06,0.00023062118,0.0018362632,-0.046051804,5005,4655,0
167629541,167629379,1114146,2228258,-6.97915e-05,4.3733407e-06,-1.4538451e-05,0.00048648193,0.0020478377,-0.041475497,5008,4216,0
168132350,168132237,1114146,2228258,1.3168258e-05,3.6571764e-06,-2.1759659e-05,-2.8615466e-05,0.0020550976,-0.049438585,5346,5109,0
168631537,168631353,1114146,2228258,7.094422e-05,-1.6545948e-05,8.241727e-06,0.00039494183,0.00082533713,-0.031989668,5025,3232,0
169128342,169128235,1114146,2228258,-4.8884856e-05,-2.7584549e-05,-3.935267e-05,0.0011885895,0.0017069845,-0.060972307,4986,6204,0
171130879,171130231,1114146,2228258,-7.990078e-05,-1.6230597e-05,-2.7010625e-08,-0.0006491748,0.00094052136,-0.04941302,4986,5010,0
171631176,171630734,1114146,2228258,-2.442519e-05,-4.742185e-05,-9.050416e-06,-0.00010162638,0.0028056283,-0.057406534,4988,5893,0
172130942,172129423,1114146,2228258,-9.693367e-05,-5.261568e-06,-1.7435452e-05,0.00021210019,0.0016938058,-0.04464067,4623,4531,0
172632057,172631897,1114146,2228258,2.1478876e-05,3.0162446e-05,-9.137884e-06,-0.00039509608,0.0006860517,-0.03976874,5031,4052,0
173132397,173132237,1114146,2228258,6.11557e-05,-7.283903e-05,-1.715678e-05,-0.0010061283,0.0012110213,-0.048040453,5012,5032,0
173630904,173630619,1114146,2228258,2.7236756e-05,-8.0875525e-06,-1.229135e-05,-0.0011332983,0.0022697141,-0.05952257,5679,6183,0
174129579,174129378,1114146,2228258,-0.00011679773,1.4897671e-06,2.090314e-05,0.00024403361,0.0014464854,-0.049898002,4995,4995,0
174628833,174628729,1114146,2228258,-1.1944467e-05,2.178612e-06,-1.0559006e-05,-0.00011062513,0.00016266674,-0.052079692,5009,5298,0
175129580,175129406,1114146,2228258,4.3353444e-05,3.2705422e-05,-1.727077e-05,-0.0010151748,0.00019601696,-0.05775402,5035,5740,0
175630835,175629734,1114146,2228258,-2.3795994e-05,1.9312329e-05,-1.3388484e-05,-6.862031e-05,0.001546262,-0.05134056,5361,5280,0
176128960,176128795,1114146,2228258,-5.580422e-06,-5.2127758e-05,-2.2951894e-05,-0.0007845579,0.0014543303,-0.05193227,5005,5248,0
176632066,176631964,1114146,2228258,1.0491225e-05,9.428165e-06,-1.0472811e-05,-0.00036799745,0.0012653125,-0.055680823,5097,5743,0
177130846,177129796,1114146,2228258,-4.750716e-05,2.803118e-06,-7.279075e-06,-0.00016262777,0.0025105479,-0.04951689,4997,5021,0
177632158,177631903,1114146,2228258,-9.595729e-06,3.3186112e-05,-1.774064e-05,-0.00048294582,0.002837618,-0.062500276,5028,6409,0
178132332,178132228,1114146,2228258,2.3799867e-05,-6.0256043e-05,-2.1674e-05,-0.00020610672,0.0008032749,-0.028786048,5006,2911,0
178631052,178630582,1114146,2228258,-2.389575e-06,-4.4995075e-05,2.9606045e-07,0.00041950637,0.0013707877,-0.050527897,5007,5257,0
179128389,179128225,1114146,2228258,-9.375151e-05,-2.3214832e-05,-7.276871e-06,0.00018514006,0.00094813085,-0.041585017,5010,4191,0
179633130,179633013,1114146,2228258,-5.5900036e-05,-8.594951e-06,-1.6017375e-05,-0.00019752729,0.00094220537,-0.06213623,5667,6337,0
180127888,180127790,1114146,2228258,6.498897e-05,3.572772e-06,-5.7167326e-05,-0.00082432,0.0009625472,-0.04094517,5003,4212,0
180630752,180629730,1114146,2228258,5.749551e-05,6.1369205e-06,-2.330292e-05,0.00041633166,0.0017173674,-0.061147794,5009,6299,0
181129773,181129507,1114146,2228258,-6.476341e-05,-2.2421425e-05,9.794134e-07,-0.00078660203,0.0014525321,-0.052151244,5722,5230,0
181629648,181629381,1114146,2228258,-2.6463224e-05,3.443461e-06,-7.878623e-06,0.0002011762,0.0012825028,-0.039230864,4907,4011,0
182130822,182130506,1114146,2228258,4.1811127e-05,-6.5546534e-05,-4.7401085e-05,-0.00045855393,0.0012546531,-0.058612786,5718,5914,0
182632010,182631905,1114146,2228258,8.043547e-05,-0.00011229772,-8.1750746e-05,-2.5888336e-05,0.0016865928,-0.05130337,5033,5256,0
183132441,183131944,1114146,2228258,-6.8124464e-05,-5.387619e-05,1.8656627e-06,-0.0007358507,0.0009675401,-0.038569223,4729,4008,0
185128604,185128503,1114146,2228258,-2.239783e-06,-7.608169e-05,1.47019255e-05,-9.095864e-06,0.0012809819,-0.051046368,5718,5218,0
185630858,185629403,1114146,2228258,4.0764004e-05,-1.0357366e-05,8.051143e-06,-0.00051547453,0.0017499392,-0.045946963,4651,4681,0
186132040,186131901,1114146,2228258,1.4389816e-05,-1.3270639e-05,-3.357922e-05,-0.000148818,0.0018123451,-0.061521016,6683,6304,0
186630926,186630001,1114146,2228258,-9.371351e-06,-2.0917564e-06,-5.2849114e-06,0.0006357026,0.0011342014,-0.06136706,5616,6296,0
187129585,187129381,1114146,2228258,-2.6680762e-05,-4.200285e-05,-1.5350557e-05,7.2804864e-06,0.0018095152,-0.049309537,4996,4996,0
187631164,187631003,1114146,2228258,-4.2276984e-05,1.0584466e-05,-3.698023e-05,0.0001470225,0.000774449,-0.03372508,4981,3414,0
188131988,188131898,1114146,2228258,2.294544e-05,-2.7033007e-05,-1.4935138e-05,7.7671546e-05,0.00026540094,-0.039941728,5035,4144,0
188632119,188632002,1114146,2228258,6.871525e-05,-2.8894516e-05,-2.4958501e-06,-0.00023243409,0.001750279,-0.06251496,5003,6301,0
189130774,189129373,1114146,2228258,-0.00010855972,-4.1207564e-05,-1.1886254e-05,-0.00033387798,0.00152834,-0.04970981,4984,5167,0
189632029,189631924,1114146,2228258,-6.6856956e-05,-4.823751e-06,-4.00517e-05,-0.0008246146,0.0015938423,-0.055657316,5053,5658,0
190132184,190132073,1114146,2228258,6.278682e-05,-3.5886205e-05,-4.5483575e-05,0.00031255692,0.0013637539,-0.052035257,5005,5294,0
190629648,190629487,1114146,2228258,8.6655615e-05,-3.8065267e-05,-2.148327e-05,0.0006051081,0.0020776838,-0.04564578,5042,4651,0
191129648,191129497,1114146,2228258,2.9820962e-06,-6.050189e-05,-5.46704e-06,-0.000663711,0.0011477192,-0.051887747,5005,5227,0
191632078,191631901,1114146,2228258,-1.7547856e-05,-1.74364e-05,-3.3245542e-05,-0.0001881874,0.0015509255,-0.049142517,5033,5036,0
192132047,192131943,1114146,2228258,-2.4428353e-05,-2.3786345e-06,8.819651e-06,-5.903056e-06,0.00097646104,-0.05517298,5020,5590,0
192631129,192631017,1114146,2228258,2.7233427e-05,-2.8835182e-05,-4.1042273e-05,0.00033207206,0.00032737583,-0.051708948,5024,5272,0
193132091,193131995,1114146,2228258,3.3713848e-05,2.6739252e-05,-1.7533634e-05,-0.00048187387,0.0012782426,-0.041180257,5139,4175,0
193630995,193630582,1114146,2228258,1.0719228e-05,-4.13354e-05,-1.9867226e-05,0.0003683664,0.0014603492,-0.05160268,5022,5279,0
194132609,194132497,1114146,2228258,-2.590762e-05,4.8393304e-05,-8.264571e-06,-0.00010753499,0.0022672287,-0.05054762,5004,5065,0
194632149,194631961,1114146,2228258,1.9608418e-05,5.4176995e-05,-2.3306751e-05,-0.00071679824,0.0012271752,-0.065734684,5004,6711,0
195128593,195128490,1114146,2228258,-2.3512619e-05,-3.1103806e-05,-2.4895458e-05,-0.00017165067,0.00096092315,-0.05249663,5002,5252,0
197129596,197129370,1114146,2228258,-1.6684768e-05,3.8089005e-05,-5.8016767e-06,0.00020584172,0.0016711778,-0.050585497,4985,5123,0
197631096,197630995,1114146,2228258,-5.239901e-05,-1.2893039e-05,-1.555384e-05,-0.00021888615,0.0019231094,-0.05948926,5004,5980,0
198131988,198131883,1114146,2228258,5.8613292e-05,-3.5881454e-05,-5.0383802e-05,0.00044072996,0.0026931812,-0.05027503,5026,5233,0
198630938,198630582,1114146,2228258,4.6052577e-05,-2.3023067e-05,-4.8759634e-05,-0.00047764793,0.0021501428,-0.05211078,5027,5251,0
199132612,199132501,1114146,2228258,-3.966325e-05,2.3641533e-05,-5.1291972e-06,-0.00054083054,0.00259742,-0.0497374,5010,5080,0
199632080,199631943,1114146,2228258,-3.2335825e-05,1.1369691e-05,1.4209106e-05,4.3463868e-05,0.0011033313,-0.051367566,5058,5126,0
200130796,200128554,1114146,2228258,4.7639704e-05,1.1068335e-05,-4.5028166e-05,-0.0002395981,0.0010111142,-0.049849976,5006,5204,0
200629571,200629371,1114146,2228258,6.089516e-05,-1.37096085e-05,-6.42381e-06,-0.001661979,0.0014157096,-0.05068408,4963,5024,0
201128179,201128057,1114146,2228258,5.1734473e-06,-6.193793e-05,-7.4786108e-06,-0.00038928402,0.002114835,-0.059279125,5004,6050,0
201632953,201631931,1114146,2228258,-4.2256204e-05,-2.6613334e-05,-7.63144e-06,8.747367e-05,0.0016747492,-0.04884935,5014,5014,0
202129544,202129375,1114146,2228258,-5.8654805e-05,-2.2471879e-05,-2.3004568e-05,-0.00015640167,0.0006047512,-0.041549154,4998,4181,0
202629009,202628840,1114146,2228258,4.607594e-05,-3.1814638e-05,-4.7653626e-05,-0.00061147386,0.00075610104,-0.052090034,5005,5201,0
203132033,203131920,1114146,2228258,5.2085652e-05,-1.7437718e-05,-1.3104053e-05,0.00014972014,0.002176773,-0.051093515,5052,5290,0
203632155,203631999,1114146,2228258,-6.863149e-05,2.835348e-05,-3.0846404e-05,6.347143e-07,0.0014978383,-0.04047031,4971,4146,0
204127590,204127487,1114146,2228258,-3.3318483e-05,-2.6164014e-05,-2.0957457e-05,-0.0003245773,0.0008524663,-0.048496682,5010,5005,0
204632157,204631910,1114146,2228258,1.4335436e-05,-2.928891e-05,-3.1371876e-06,-0.00037402456,0.0010791639,-0.050699815,5023,5090,0
205128612,205128505,1114146,2228258,1.0369795e-05,4.052879e-05,-5.7138395e-06,-0.0011352733,0.0021908924,-0.051092774,5030,5213,0
205629733,205629422,1114146,2228258,-2.5128942e-05,-5.1057705e-05,-4.146995e-06,-0.001037474,0.002239984,-0.04911182,4943,4943,0
206128931,206128765,1114146,2228258,-5.4590768e-05,-5.806467e-05,7.142777e-07,-0.0010123571,0.0012795685,-0.050741345,5720,5256,0
206632008,206631906,1114146,2228258,2.3451079e-05,-8.266762e-06,-2.0022144e-05,-2.01166e-05,0.0010185586,-0.04048576,5045,4092,0
207129532,207129370,1114146,2228258,6.207634e-05,-2.8272265e-05,-5.2792344e-05,0.00022217943,0.0011683105,-0.041200403,4975,4198,0
209129571,209129371,1114146,2228258,2.072736e-05,-1.0648299e-05,-3.7394832e-06,-0.00021389885,0.0025478336,-0.05573474,4973,5714,0
209632419,209632268,1114146,2228258,-2.1254044e-05,-1.0408115e-05,-3.6072484e-05,0.0003364705,0.0010931818,-0.048035197,5402,4994,0
210132921,210132806,1114146,2228258,-1.7378254e-06,-7.6282086e-05,-2.992235e-05,0.00015489433,0.0023564966,-0.05587272,5046,5794,0
210632070,210631953,1114146,2228258,1.1463848e-06,-5.338288e-05,3.72209e-07,-0.000271498,0.0019893805,-0.065941416,5010,6729,0
211128927,211128760,1114146,2228258,3.2860007e-07,-4.5782097e-05,-3.802979e-05,-0.00053029886,0.0015950229,-0.051078763,5005,5254,0
211629595,211629407,1114146,2228258,6.173995e-07,-1.8006625e-05,-3.2943815e-05,-9.703813e-05,0.001538634,-0.053893846,5013,5566,0
212129589,212129428,1114146,2228258,1.0275649e-05,2.2165368e-05,-7.1392324e-06,0.0003562922,0.0013278592,-0.04142773,5000,4201,0
212630868,212630261,1114146,2228258,8.782953e-06,-5.0755934e-05,-5.272021e-06,0.00023636065,0.0014431665,-0.051309954,5005,5220,0
213131997,213131862,1114146,2228258,2.6812622e-05,2.6954096e-06,-1.9033463e-05,-2.861325e-07,0.0019638496,-0.05506561,4998,5609,0
213629640,213629393,1114146,2228258,4.914267e-06,-2.034728e-05,-2.5140424e-05,-0.0005417857,0.002134957,-0.07522271,5974,7520,0
214129803,214129436,1114146,2228258,5.0643186e-05,8.384175e-06,-4.4365323e-05,-0.0002960076,0.0014159163,-0.054788366,5000,5678,0
214632378,214632263,1114146,2228258,-2.8808476e-05,-4.8430527e-05,-3.8170347e-05,-0.00048306194,0.0010610089,-0.040106855,5008,4041,0
215131021,215130616,1114146,2228258,-2.1423271e-05,3.666247e-05,-4.5927463e-05,-0.00012796253,0.0020781567,-0.07068121,5719,7335,0
215629644,215629419,1114146,2228258,-2.0014228e-05,-3.7401252e-05,-2.1430773e-05,-0.0014151516,0.0010900858,-0.049026877,4977,5014,0
216130936,216130186,1114146,2228258,-3.300707e-05,-7.4244203e-06,-2.2630089e-05,-0.0005712085,0.0010020732,-0.057989776,5004,5961,0
216632010,216631904,1114146,2228258,3.1802432e-07,-3.9947765e-05,-5.925735e-05,0.0005472773,0.0009823684,-0.052025963,5043,5252,0
217132367,217129797,1114146,2228258,-4.3157474e-05,-6.5053995e-05,-4.2368973e-07,-0.0002405439,0.00073369354,-0.045529954,5045,4654,0
217633226,217633122,1114146,2228258,1.2373777e-05,-4.698111e-05,-1.4175047e-05,-0.00011999634,0.0012267963,-0.05258504,5008,5251,0
218132309,218132199,1114146,2228258,-1.1203887e-06,-4.2510565e-05,-8.271866e-06,-1.4561537e-05,0.0009032256,-0.05023598,5307,5076,0
218631435,218631258,1114146,2228258,3.751244e-05,-1.4404965e-05,1.1117108e-05,-0.00067721127,0.001665934,-0.041415654,5008,4202,0
219129569,219129368,1114146,2228258,-2.0463393e-05,-2.8573986e-05,2.5434651e-06,-0.001086753,0.00053344894,-0.049693175,4960,5026,0
220127854,220127750,1114146,2228258,-9.549166e-06,-5.2899544e-05,-3.8471455e-05,-0.00016587209,0.0010465104,-0.048902374,5003,4987,0
220631209,220629681,1114146,2228258,-2.4737528e-06,4.193526e-06,-1.5117213e-05,-0.00027641625,0.0010858948,-0.050905768,5299,5172,0
221128936,221128763,1114146,2228258,-1.8491077e-05,-3.503574e-05,-1.5285019e-05,-0.00016890398,0.001360284,-0.06294758,5018,6306,0
221629567,221629398,1114146,2228258,1.3751983e-05,-5.0394898e-05,8.492633e-06,-0.00055176485,0.0015578102,-0.04825175,4987,4990,0
222631144,222630971,1114146,2228258,4.779969e-07,1.6815807e-06,-4.5574834e-05,-6.775361e-06,0.0017277745,-0.061307847,5713,6293,0
223132292,223131904,1114146,2228258,2.0690286e-05,-4.045707e-05,2.130099e-06,-0.00032388087,0.0021608316,-0.0487552,4721,5051,0
223632092,223631966,1114146,2228258,-1.393648e-05,-4.485181e-05,-3.3900928e-05,-0.00095251575,0.0022976957,-0.053066105,5004,5522,0
224129689,224129436,1114146,2228258,-5.4942116e-06,-1.4156704e-05,-1.2803767e-05,-0.0003838476,0.0007524446,-0.04896792,5002,5002,0
224628792,224628678,1114146,2228258,1.3440447e-05,-1.3045769e-05,-2.2496213e-05,0.0005578074,0.0018289005,-0.052612465,5005,5284,0
225132239,225132048,1114146,2228258,-1.96572e-06,-3.552106e-05,-3.5870503e-06,-0.00012721891,0.002209596,-0.05003241,5018,5095,0
225629583,225629419,1114146,2228258,-1.8680665e-05,4.01711e-05,1.1195908e-05,-0.0007644908,0.0010242871,-0.04178352,5012,4191,0
226133156,226133038,1114146,2228258,4.8602933e-06,-2.6972995e-05,5.698976e-07,-0.0007924324,0.0006131473,-0.050172847,5008,5185,0
228132052,228131920,1114146,2228258,1.7829403e-05,-2.0780999e-05,-2.3604793e-05,-0.00037060629,0.001082738,-0.05018739,5046,5048,0
228630983,228630588,1114146,2228258,4.2153926e-05,-1.558239e-05,-4.459737e-05,-1.9699737e-05,0.0010924926,-0.05123561,5015,5279,0
229131139,229131033,1114146,2228258,-2.3642804e-05,-4.13678e-06,-1.743046e-05,-0.00016057355,0.00035481167,-0.041831706,5008,4221,0
229631969,229631867,1114146,2228258,5.007085e-06,-6.20959e-05,-2.2074042e-05,0.00053341006,0.0010433556,-0.04101387,5012,4190,0
230132292,230131344,1114146,2228258,1.3118821e-05,-3.661414e-05,-2.8247403e-05,-0.0014101644,0.0012989688,-0.062086802,5747,6250,0
230629560,230629391,1114146,2228258,-1.4720578e-05,-2.3801142e-05,-1.6117896e-05,-0.00025370938,0.0016880874,-0.040220715,5005,4201,0
231132046,231131911,1114146,2228258,2.1458434e-05,4.242551e-06,-2.953126e-05,2.7942762e-05,0.0016161511,-0.04969833,5025,5093,0
231632035,231631900,1114146,2228258,3.5322413e-05,1.8689541e-05,-1.8438592e-05,-0.0005117637,0.0016726272,-0.054795895,5040,5700,0
232129580,232129382,1114146,2228258,-1.6331996e-05,2.2702348e-05,-5.3995893e-05,-0.00036384238,0.0017983334,-0.04975894,4969,5032,0
232629713,232629529,1114146,2228258,-4.9903724e-07,-4.4426044e-05,-3.5362467e-05,-0.0007438553,0.0014370837,-0.056011546,5004,5667,0
233132043,233131902,1114146,2228258,5.1115276e-05,1.952287e-05,-4.009395e-05,-8.730551e-05,0.002047393,-0.0610696,6872,6301,0
233629723,233629440,1114146,2228258,6.10406e-05,-3.4756806e-05,-2.8412705e-05,-0.00033293292,0.0006281213,-0.051197734,4999,5166,0
234132154,234132032,1114146,2228258,1.4784886e-05,-5.054197e-05,3.6396789e-06,0.00029383766,0.0020043799,-0.06576747,6012,6686,0
234631998,234631893,1114146,2228258,1.3872452e-05,-3.1039926e-05,3.6707826e-07,-0.00075565215,0.0019463426,-0.051646907,5040,5274,0
235130892,235129881,1114146,2228258,-6.202777e-06,-1.4968926e-05,-2.731706e-05,-0.00020787392,0.0016430459,-0.044395473,4978,4574,0
235629737,235629489,1114146,2228258,-1.4552144e-05,2.2973145e-05,-1.5840802e-05,-0.0012506299,0.0016576215,-0.061358046,5114,6259,0
236132445,236132342,1114146,2228258,1.6714643e-05,-4.6024263e-05,-3.7225178e-05,0.00011097984,0.0016334967,-0.04950242,5452,5072,0
236632147,236631910,1114146,2228258,-3.4873676e-05,-2.939558e-05,-1.4793234e-05,0.0005640234,0.0016499007,-0.06495276,5009,6657,0
237129574,237129376,1114146,2228258,-5.1475206e-05,-4.9239534e-05,-1.6640783e-05,-0.00029997504,0.0015215771,-0.049708575,5001,5001,0
237628970,237628805,1114146,2228258,8.3237455e-06,-5.0556595e-05,-6.785514e-07,4.7765992e-05,0.0010308302,-0.040827256,5005,4163,0
238131991,238131897,1114146,2228258,1.9573945e-05,-5.1987903e-05,-2.5488976e-05,9.741562e-05,0.0009305493,-0.03974097,5022,4081,0
238632811,238632665,1114146,2228258,2.3697454e-05,5.428148e-05,-2.8242517e-05,-0.00014096568,0.00025139796,-0.028456815,5712,2875,0
239129664,239129388,1114146,2228258,-4.382056e-06,-6.6445864e-05,-3.131458e-05,0.00052686903,0.0015826295,-0.039401155,5015,4079,0
239632036,239631931,1114146,2228258,-2.604597e-05,-3.6687343e-05,6.275723e-07,-0.0004985831,0.0014970099,-0.057245936,5062,5715,0
240131478,240131314,1114146,2228258,-2.6310827e-05,-5.7388665e-05,-3.7119284e-05,6.513792e-05,0.0011070787,-0.060814578,4962,6282,0
240633395,240633237,1114146,2228258,5.3016513e-05,-2.4465346e-05,-2.3101056e-05,-0.00087991974,0.0024253165,-0.051344063,5005,5253,0
241132444,241132337,1114146,2228258,5.284883e-05,2.4027968e-05,-2.7721399e-05,0.00011999817,0.00079275266,-0.05008097,4990,5033,0
241629536,241629374,1114146,2228258,-4.7188707e-05,-3.1909407e-05,-4.0777355e-05,2.9891737e-05,0.0013953105,-0.03060596,4986,3063,0
242130726,242129735,1114146,2228258,-3.5620837e-05,-3.7907255e-05,1.6272917e-06,-0.0005466409,0.00053223135,-0.04922278,5362,4997,0
243630841,243629801,1114146,2228258,-8.068357e-06,-3.1680334e-05,9.043546e-07,0.00081247324,0.0011015522,-0.051739994,5005,5256,0
244129768,244129417,1114146,2228258,2.172402e-06,-4.582106e-05,3.5037622e-06,-0.0011120941,0.0012561288,-0.04038506,4972,4106,0
244632407,244631982,1114146,2228258,-1.8127884e-06,3.402492e-05,-2.3921022e-05,-0.00030309637,0.0015776812,-0.04573923,4757,4620,0
245132842,245132739,1114146,2228258,-1.0197161e-05,-1.9038362e-05,-4.999163e-05,-0.0008618477,0.0017530487,-0.052598733,5014,5248,0
245631275,245631094,1114146,2228258,4.237746e-05,-6.815565e-06,-5.87801e-05,-0.00031403702,0.0019141948,-0.07367503,6682,7373,0
246133192,246133017,1114146,2228258,-1.4265432e-05,-7.3668666e-06,1.737181e-06,-0.00069973856,0.0013988524,-0.05976333,5638,6204,0
246629543,246629375,1114146,2228258,-2.5173977e-05,-3.7829053e-05,-3.639144e-05,0.00017960215,0.0011242398,-0.040821135,5004,4198,0
247131275,247131165,1114146,2228258,1.5290929e-05,-8.035228e-06,9.264225e-06,0.00027000342,0.0012028808,-0.052323606,5015,5303,0
248629575,248629408,1114146,2228258,-0.00018129172,-0.00094474974,-8.382196e-05,-0.018176803,0.0011587222,-0.052029252,5026,5729,0
249132027,249131903,1114146,2228258,0.00010976561,-0.00030494228,-0.00020566395,-0.007219204,0.0017603178,-0.033686597,4992,2935,0
249632040,249631904,1114146,2228258,0.00047867044,-0.0002556338,-8.4976826e-05,-0.016262949,0.0018442383,-0.07214453,5002,5070,0
250129664,250129453,1114146,2228258,-0.00055971893,-0.0001320819,-7.405914e-05,-0.006450439,0.004979255,-0.03794955,4971,5060,0
250631014,250629375,1114146,2228258,-0.0005204132,-0.00064581947,9.114277e-05,-0.008211145,-0.004164028,-0.028339608,4716,5022,0
251132004,251131905,1114146,2228258,0.0013921965,-0.0013739524,-0.00020384269,-0.0059839617,0.002667345,-0.029372675,5044,3091,0
251627135,251626940,1114146,2228258,-0.00091351726,-0.00015123894,0.00021817851,-0.011348677,0.0022943725,-0.04055267,4852,5012,0
252129808,252129385,1114146,2228258,-0.00031528532,0.00030583204,1.8638573e-05,-0.013675559,-0.0017948082,-0.0517623,5004,5109,0
252631157,252630937,1114146,2228258,8.894185e-05,0.00017543761,-0.0021112703,-0.022838946,-0.0008842113,-0.053168245,5007,6068,0
253128692,253128575,1114146,2228258,-0.0014837949,-6.5519096e-05,-0.002375888,-0.030880965,0.0018041681,-0.06008783,5005,6195,0
253629687,253629404,1114146,2228258,-0.00092089846,-0.00016459571,-0.0014785483,-0.019705232,-0.0041952436,-0.054766934,5035,5638,0
254129891,254129428,1114146,2228258,0.0010652835,-0.000103552404,-0.0016249646,-0.021047316,0.008829287,-0.06265869,4799,5248,0
256628597,256628500,1114146,2228258,-0.0012487243,-2.4040008e-05,4.6146648e-05,-0.019119477,-0.0019830698,-0.053429317,5004,4280,0
257129649,257129446,1114146,2228258,0.0001783738,-0.00048221607,0.0009966213,-0.014328298,-4.66045e-05,-0.049064875,5064,4191,0
257628953,257628785,1114146,2228258,0.001107171,-0.00034541238,0.0013616655,-0.011327791,0.004557638,-0.043096654,5661,4250,0
258130886,258130766,1114146,2228258,0.0006417517,-0.0003252677,0.0017533505,-0.01575606,0.004180756,-0.04396316,5737,5962,0
258629618,258629374,1114146,2228258,0.00065200846,0.0010671879,0.0020427532,-0.021967977,-0.004679057,-0.06552443,4926,6619,0
259129076,259128859,1114146,2228258,0.0002943201,0.0019471257,0.0011046417,-0.0077166837,0.00066372764,-0.030408783,5006,3270,0
259632052,259631917,1114146,2228258,0.00016504378,0.0018818346,-0.0003226931,-0.0018610659,0.0012847785,-0.04867812,5061,5060,0
260132864,260132759,1114146,2228258,-4.1301708e-05,0.000710394,1.0725507e-05,0.0029953916,0.0027586897,-0.056935806,5049,5017,0
260629685,260629445,1114146,2228258,-1.2703582e-05,0.0002286227,2.9189773e-06,-0.0015420758,-0.00018861784,-0.03483454,4992,3805,0
261130966,261130860,1114146,2228258,4.3974138e-05,3.9013834e-05,-3.8459464e-05,-0.002851285,0.00088828366,-0.05065534,4998,5264,0
261629602,261629434,1114146,2228258,4.3917316e-06,-4.6617493e-05,-2.2247382e-07,-0.00085940835,0.0010924712,-0.05582385,5030,5718,0
262129589,262129371,1114146,2228258,2.081537e-05,-4.918883e-05,-4.5776964e-05,-0.0012946293,0.0012521228,-0.041241914,4941,4198,0
262628964,262628783,1114146,2228258,-3.984737e-05,-3.2048145e-05,-1.3682718e-05,-0.0005829036,0.0012659024,-0.041131698,5005,4225,0
263132035,263131894,1114146,2228258,-2.9934406e-06,2.0528598e-05,-1.4153827e-05,-0.0015268652,0.0013635232,-0.06629624,5040,6742,0
263631433,263629785,1114146,2228258,1.5608852e-05,-2.1418859e-05,-2.5773763e-05,-0.0013932373,0.0008945851,-0.050077043,5008,5027,0
264133309,264133142,1114146,2228258,3.759962e-05,1.8906362e-06,-4.0446408e-05,-0.0022089533,0.00035784196,-0.051465254,4984,5251,0
264632372,264632213,1114146,2228258,-5.209856e-05,-1.0467626e-05,-2.313899e-06,-0.00057872175,0.0006375609,-0.039544474,5005,4009,0
265132117,265131995,1114146,2228258,-0.00019907678,-0.0015981013,-0.0006708639,0.004229872,0.0013218992,-0.06328718,5714,6377,0
265633323,265633213,1114146,2228258,-0.000103046375,-0.0015171033,-0.0009322976,-0.0058672954,-0.00073629786,-0.058221087,5006,5231,0
266133151,266131913,1114146,2228258,-0.00031876296,-0.0011520119,-0.0013943108,-0.010792551,-0.0018816588,-0.044778045,4636,4233,0
266633611,266633500,1114146,2228258,-0.0009841687,-0.00055704283,-0.0008658495,-0.02518589,-0.008998786,-0.065896936,5010,5298,0
267130807,267129399,1114146,2228258,-0.00096704625,-5.526499e-05,-0.0011434816,-0.0140508795,-0.003273658,-0.035435934,4685,5249,0
267632097,267631962,1114146,2228258,0.0010392222,-6.510033e-05,-0.00051541766,-0.018336687,-0.0040899324,-0.055582445,5055,5124,0
268132067,268131901,1114146,2228258,0.00040845346,0.0019866806,-0.00032997967,-0.02322535,0.002466874,-0.08235721,6201,7564,0
268629657,268629415,1114146,2228258,0.00017066982,-0.000427893,0.0012756053,-0.012043378,0.0015093989,-0.031202313,4991,5057,0
269131105,269130993,1114146,2228258,0.0010392502,-0.0007709919,0.0016705542,-0.02472475,0.0034608562,-0.053531464,4981,5249,0
270132256,270130582,1114146,2228258,0.00047549527,0.001548792,0.0020451837,-0.0070120995,0.000117553005,-0.04573944,4981,5243,0
270629724,270629372,1114146,2228258,2.6176842e-05,0.001985229,0.00024468682,-0.006567997,-0.00030292544,-0.061422564,6162,6262,0
271132032,271131927,1114146,2228258,0.00016496591,0.00073940755,-2.9931809e-05,-0.00028846352,0.0025096184,-0.033121884,5066,5705,0
271628595,271628487,1114146,2228258,-0.0001096485,0.00013550355,-4.835283e-05,-0.0023768551,1.4456953e-05,-0.054197054,5007,5132,0
272132033,272131919,1114146,2228258,-0.00015584918,1.16224655e-05,1.1966792e-06,-0.001465263,0.00013606361,-0.061395682,5794,6276,0
272628173,272628055,1114146,2228258,7.080939e-06,-1.6752887e-05,-5.189266e-05,0.0003105545,0.0005940535,-0.0495138,5005,5251,0
273132032,273131894,1114146,2228258,8.259883e-05,-2.7302478e-05,-3.990682e-05,0.000110865454,0.00047374528,-0.049933396,5042,5045,0
273629588,273629387,1114146,2228258,2.0484675e-05,-4.0995637e-05,-3.519216e-05,0.00036189763,-0.00055154494,-0.04874241,5006,5007,0
274130928,274130303,1114146,2228258,-0.00010377839,-2.1250784e-05,-1.9165916e-05,-0.0010342005,0.0002803203,-0.057391066,5752,5834,0
274632098,274631894,1114146,2228258,7.228999e-05,-1.1232027e-05,-1.9090492e-05,-0.0002992622,0.00029164084,-0.04168273,5019,4196,0
275132114,275131998,1114146,2228258,4.856637e-05,8.378402e-07,-6.132615e-05,-0.0012594017,0.00043207253,-0.049459416,5018,5047,0
275629592,275629418,1114146,2228258,-4.325525e-06,1.9912915e-05,-2.7294316e-06,-0.00017399159,4.0229377e-05,-0.039607435,4985,4124,0
277129651,277129451,1114146,2228258,2.9068295e-05,5.122242e-06,3.5701557e-06,-0.00034780696,0.00054976373,-0.0558316,4987,5697,0
277628990,277628768,1114146,2228258,-1.5799846e-05,5.8698915e-06,-1.8313602e-06,-0.0010357766,2.938343e-05,-0.051734794,5008,5253,0
278132042,278131908,1114146,2228258,-2.978023e-05,-1.1987554e-05,-2.7242491e-05,-0.00037922765,-0.00056000456,-0.048350345,5032,5034,0
278630865,278629816,1114146,2228258,7.584948e-05,5.351398e-06,1.1338366e-05,0.0003693266,5.256376e-06,-0.049572363,5404,5045,0
279130893,279130270,1114146,2228258,0.00019290122,-3.9649243e-05,-3.0947038e-05,-0.0010945316,0.0010542356,-0.04992554,4995,5008,0
279632020,279631909,1114146,2228258,-0.000107233456,-1.080198e-05,-2.224835e-05,-0.00072608277,0.0007611315,-0.06281939,5048,6297,0
280131435,280131267,1114146,2228258,-0.00012845185,-4.448889e-05,-1.726644e-05,-0.00025557756,-0.00025643272,-0.050513886,5007,5240,0
280629536,280629371,1114146,2228258,5.492082e-05,7.594553e-06,-7.68469e-06,-0.00052440615,-0.0008081988,-0.040858418,5002,4212,0
281132372,281131893,1114146,2228258,0.0001134488,-3.1654414e-05,-4.4835328e-05,-0.0003240736,0.00014224924,-0.049602307,4633,5066,0
281632929,281632814,1114146,2228258,-7.863929e-06,-7.635381e-06,-5.790555e-06,-0.00038394897,0.0013238773,-0.049158163,5004,5184,0
282130759,282129692,1114146,2228258,-9.848804e-06,-5.408616e-05,-1.5378422e-05,-0.0007438416,0.0008884764,-0.04949688,5279,5020,0
282632013,282631914,1114146,2228258,1.8800655e-06,-4.8185055e-05,-5.0009578e-05,0.0004903907,-0.0006571806,-0.03988747,5028,4130,0
283130906,283130694,1114146,2228258,5.758916e-05,-1.3854039e-05,-2.4625497e-05,-0.00064331543,0.00085202756,-0.05066161,5009,5252,0
283630825,283629380,1114146,2228258,8.155589e-05,-3.446202e-05,-3.72656e-05,-3.218322e-05,0.0012110741,-0.062458936,4620,6302,0
284131144,284130978,1114146,2228258,-6.69123e-05,-2.9187418e-06,2.021539e-06,0.00023555208,0.0005237681,-0.052006736,5707,5250,0
284632291,284631865,1114146,2228258,-4.0990202e-05,-4.693066e-05,-1.9482222e-05,-0.0007724857,-0.00039748932,-0.04129286,4675,4201,0
285129693,285129482,1114146,2228258,2.5371988e-05,-9.0475464e-07,-5.005501e-05,0.00016316869,0.0005998501,-0.05729368,5036,5711,0
285629734,285629463,1114146,2228258,3.3847235e-05,-3.224634e-05,-2.5680816e-05,0.0007276354,0.0010878902,-0.041398946,5092,4198,0
286132049,286131910,1114146,2228258,-1.5870317e-05,-1.3130674e-05,8.0866e-06,-8.7294866e-05,0.000959684,-0.048866883,5024,5090,0
286631090,286630619,1114146,2228258,1.7512975e-05,-1.7248078e-06,-2.0558024e-05,-0.0007441758,-0.00028663757,-0.051787272,5009,5249,0
287129622,287129374,1114146,2228258,2.1172405e-05,-4.510817e-05,-1.50829865e-05,-0.0006335698,-0.0007070482,-0.04871896,4981,4982,0
289129746,289129564,1114146,2228258,5.150103e-05,-8.679565e-06,-7.246004e-06,-6.470807e-05,-0.00018329752,-0.04923743,5027,5087,0
289632040,289631929,1114146,2228258,2.4508417e-05,-1.6035525e-05,-1.5495665e-05,-0.00053616404,0.00094050757,-0.066239394,5033,6786,0
290129610,290129427,1114146,2228258,-4.9858652e-05,1.09952125e-05,-2.5750865e-05,-0.00035853515,0.00021232493,-0.06411679,5012,6571,0
290631252,290631108,1114146,2228258,-5.5272358e-06,-2.9819186e-05,-1.2555376e-05,0.00018710589,0.0005251565,-0.05152303,5056,5333,0
291132091,291131955,1114146,2228258,6.668428e-05,8.714174e-07,-1.42611525e-05,-0.000641917,0.00017813109,-0.049190268,4997,4999,0
291632859,291632758,1114146,2228258,-1.2390894e-05,-4.3976008e-05,-8.936123e-06,-0.0013519044,-0.00039168182,-0.05038059,5008,5247,0
292128428,292128252,1114146,2228258,-1.01965e-05,-3.0200723e-05,-1.38469995e-05,-0.0009922946,0.00030261397,-0.06227721,5720,6337,0
292628979,292628776,1114146,2228258,5.496131e-06,-2.272861e-05,-3.8067374e-05,0.00022777625,-2.199357e-05,-0.05068787,5746,5141,0
293129720,293129484,1114146,2228258,4.131198e-05,-6.3011525e-05,-2.3603967e-05,-0.0007693389,0.00033312503,-0.056647755,5034,5765,0
293629613,293629383,1114146,2228258,4.5049328e-05,-4.1634074e-05,-4.4508914e-05,0.00012929483,0.0006709096,-0.04122392,5013,4196,0
294130846,294130251,1114146,2228258,1.1372112e-05,-1.3888007e-05,-1.7577015e-05,-0.0002062022,-0.0009633729,-0.06258415,5002,6380,0
294632114,294631944,1114146,2228258,-3.7012087e-05,-1.7682014e-05,-4.5073506e-05,0.00030895413,0.00037485495,-0.05690564,5039,5740,0
295130908,295129822,1114146,2228258,2.1020871e-05,-3.0037138e-06,-5.1768442e-05,-2.1071888e-05,-0.00016024463,-0.049600743,5005,5022,0
295629570,295629370,1114146,2228258,-0.000105527106,-0.00067267916,0.0012755565,-0.009330025,0.00017079979,-0.05183291,4988,5665,0
296132421,296132260,1114146,2228258,0.00017314978,-0.0002100152,-0.00031632607,0.0030713375,0.0006484769,-0.04951904,5015,5049,0
296630883,296630609,1114146,2228258,-8.5151485e-05,-1.7163915e-05,-6.332562e-05,0.0005657701,0.0006071233,-0.061202552,5712,6267,0
297129614,297129382,1114146,2228258,2.1558757e-05,-1.5121946e-05,9.596177e-06,2.5538364e-05,0.000570359,-0.048820283,5000,5028,0
297633150,297633040,1114146,2228258,8.7322456e-05,-2.8632987e-05,-8.0199956e-05,0.00030410034,0.00026647342,-0.050048944,5697,5262,0
298132060,298131897,1114146,2228258,-7.041403e-05,-7.156772e-06,-1.1678964e-05,0.0002311979,0.0016591105,-0.051506065,5029,5186,0
298630887,298629448,1114146,2228258,-4.2926837e-05,-3.8982005e-05,-2.364703e-05,-0.00019002859,0.00045691602,-0.051044676,4706,5204,0
299132061,299131910,1114146,2228258,0.00011557675,-1.7417546e-05,-4.560383e-05,-0.0010253368,0.00044908092,-0.07391468,6670,7509,0
301132293,301131957,1114146,2228258,5.7773e-05,-4.0600393e-05,-2.7353604e-05,0.00035016504,0.00054484897,-0.049531225,5017,5062,0
301628552,301628455,1114146,2228258,2.0848538e-05,9.120288e-06,8.569368e-06,-0.00039537394,0.00028283845,-0.041913547,4980,4199,0
302129807,302129423,1114146,2228258,0.00011501273,-8.764768e-06,-7.878813e-05,0.0006544249,0.0010512895,-0.049381,5000,5084,0
302633139,302633033,1114146,2228258,-3.455498e-05,2.442983e-05,-1.6930982e-05,0.00081157964,0.00039694025,-0.045134224,5008,4677,0
303132025,303129960,1114146,2228258,-1.7685856e-05,1.0887081e-05,3.4036107e-06,0.0002788001,0.0006573242,-0.049797267,4878,4993,0
303629587,303629406,1114146,2228258,-3.201609e-05,1.31913885e-05,1.969518e-06,-0.00036151332,0.0007521106,-0.054539975,5021,5690,0
304129682,304129527,1114146,2228258,1.06104635e-05,-6.38317e-05,-1.3412633e-05,6.1923936e-05,0.0003332962,-0.030664125,5005,3101,0
304630973,304630026,1114146,2228258,5.126236e-05,-1.5420741e-05,-3.940716e-05,0.00025192573,0.0001775642,-0.05226306,5003,5163,0
305132224,305130531,1114146,2228258,-3.8697553e-06,-2.635985e-05,-5.7062816e-06,0.0003547285,0.00035650973,-0.051659994,5005,5250,0
305631961,305631856,1114146,2228258,-4.4284436e-05,-2.441698e-06,-4.85902e-07,0.0003629908,0.0008005912,-0.04119915,5836,4152,0
306132309,306131892,1114146,2228258,-6.292101e-06,-2.0547137e-05,-2.315572e-05,0.0006226329,0.0009070025,-0.051201154,5002,5256,0
306632851,306632743,1114146,2228258,7.647014e-05,-7.433047e-06,-1.0620413e-05,0.0005618507,4.2338295e-05,-0.041495573,5002,4168,0
307129565,307129399,1114146,2228258,-4.1666255e-05,2.3190672e-05,-7.497035e-06,-1.6900498e-05,-0.00020416266,-0.03102898,4958,3123,0
307632443,307632340,1114146,2228258,-4.3283708e-05,-4.2696163e-05,3.1590018e-06,0.00023680089,0.0004597077,-0.0443751,4979,4514,0
308130910,308130667,1114146,2228258,1.4318837e-06,-2.4350535e-05,-5.843974e-06,0.00085594074,0.00026229804,-0.057546858,5680,5913,0
308629631,308629433,1114146,2228258,3.140096e-05,1.6816787e-06,-3.7796715e-05,8.795537e-05,0.00041397105,-0.055677745,4967,5677,0
309130791,309130236,1114146,2228258,6.654e-05,5.9875033e-06,-3.4430203e-05,-4.777886e-05,7.541124e-05,-0.051469013,4990,5245,0
309632035,309631900,1114146,2228258,-3.0569593e-06,-6.8092177e-06,1.1708644e-05,0.00021132402,0.0007213887,-0.048038285,5020,5020,0
310129671,310129384,1114146,2228258,-4.972131e-05,-9.9630215e-06,2.122908e-06,-0.00043902188,-0.00011498482,-0.062205072,5968,6301,0
310630869,310630342,1114146,2228258,1.8949408e-05,-2.967643e-05,-3.5097168e-05,0.00085688266,0.001010061,-0.05168582,5000,5281,0
312630974,312630162,1114146,2228258,-3.0671523e-05,-4.0125662e-05,2.4953017e-06,0.00033578332,0.001669544,-0.050530907,5005,5145,0
313129573,313129373,1114146,2228258,-3.108924e-05,2.8618927e-06,-3.3724093e-06,-0.0011080566,0.0012385488,-0.04896111,4943,5035,0
313629574,313629368,1114146,2228258,3.7428836e-05,6.6450057e-06,-1.3227508e-05,-0.00019395325,0.00096480607,-0.064742334,6013,6560,0
314131198,314130948,1114146,2228258,-7.090379e-05,2.095161e-05,-1.03306265e-05,0.00038300618,0.0005387526,-0.062039826,5712,6293,0
314632297,314631935,1114146,2228258,1.2822293e-05,-2.5117826e-05,-3.9872943e-05,-0.0010523952,0.0003938971,-0.049595114,4775,5025,0
315129535,315129375,1114146,2228258,7.277125e-05,-3.349968e-05,-4.4149027e-05,-0.00062598276,0.00067753444,-0.04034753,4996,4125,0
315631132,315631020,1114146,2228258,-4.697218e-06,-2.6249825e-05,1.5134151e-06,0.00032355628,0.0005809427,-0.050851274,5010,5249,0
316132065,316131919,1114146,2228258,-1.2113371e-05,-6.407071e-05,-4.5177738e-05,0.0001643345,0.00035143917,-0.041259572,4965,4199,0
316632233,316632069,1114146,2228258,2.7108337e-05,-6.608811e-05,-2.7502232e-05,-0.00062090554,-0.00013446668,-0.052216724,4978,5226,0
317131027,317129416,1114146,2228258,2.5749458e-05,-2.885852e-05,-2.8795028e-05,-0.00018562571,0.0002917929,-0.04127062,4995,4198,0
317632121,317631973,1114146,2228258,-4.132427e-05,-4.023839e-05,-1.5644728e-05,7.8269804e-05,0.00073049916,-0.05074285,5013,5132,0
318130899,318129945,1114146,2228258,1.4957699e-05,-4.972151e-06,-2.5570982e-05,0.00045934514,0.0005283184,-0.059579235,5000,6076,0
318629583,318629385,1114146,2228258,1.5133413e-06,2.6057864e-05,8.583888e-06,-0.0006907041,0.0008881181,-0.04909577,4983,5044,0
319128970,319128799,1114146,2228258,6.907126e-05,-7.4820484e-05,-6.0473176e-05,-0.0005395819,-0.00066177425,-0.058906235,5707,6098,0
319632122,319631912,1114146,2228258,1.3156981e-05,-1.9207813e-05,-3.9945608e-05,6.066204e-05,0.000608928,-0.04059802,5057,4048,0
320129540,320129374,1114146,2228258,2.5359137e-05,-5.273933e-05,-2.1751388e-05,-0.00022178439,9.278696e-05,-0.030407557,4996,3151,0
320631050,320630338,1114146,2228258,6.7529596e-05,-3.2390137e-06,-6.311347e-06,-6.2078e-05,0.0005743335,-0.060889505,5008,6176,0
321132051,321131946,1114146,2228258,-7.97922e-05,1.7975866e-05,-9.944268e-06,0.0007912986,0.00030349396,-0.055678416,5079,5780,0
321631515,321631352,1114146,2228258,-3.824311e-05,-1.4608342e-05,3.6891277e-06,0.0007760162,3.083442e-05,-0.062134888,5012,6343,0
322129783,322129545,1114146,2228258,4.77515e-05,-3.956614e-05,-2.8423541e-05,-7.909785e-05,0.00057669455,-0.06758079,5103,6886,0
322628917,322627362,1114146,2228258,8.958703e-05,-6.3874635e-05,-4.8573314e-05,0.0011309349,0.00088872924,-0.05418971,5424,5561,0
324133184,324133084,1114146,2228258,3.0317171e-05,4.818036e-06,-4.613356e-05,0.00016590935,0.00089974154,-0.039914634,5006,4160,0
324632041,324631941,1114146,2228258,3.1302807e-05,-3.5465215e-05,-2.6659021e-05,6.545216e-05,0.0005056752,-0.029325396,5022,3033,0
325132295,325129837,1114146,2228258,-4.4681874e-05,5.4538108e-05,-2.0937976e-05,0.00094051176,0.0010267948,-0.051685743,5048,5260,0
