timestamp,timestamp_sample,baro_device_id,baro_alt_meter,baro_temp_celcius,baro_pressure_pa,rho
65701546,65681332,3997706,22.523132,39.09,101054.75,1.2006975
65751978,65734125,3997706,22.356665,39.09,101056.75,1.2007214
65812154,65789463,3997706,22.398943,39.09,101056.25,1.2007154
65862449,65842250,3997706,22.462358,39.1,101055.49,1.2007064
65912709,65895040,3997706,22.398943,39.1,101056.25,1.2007154
65972988,65950303,3997706,22.54427,39.1,101054.5,1.2006947
66023658,66003265,3997706,22.420082,39.11,101056.0,1.2007124
66073998,66056253,3997706,22.483496,39.11,101055.25,1.2007035
66134211,66111535,3997706,22.356665,39.12,101056.75,1.2007214
66184741,66164313,3997706,22.377804,39.12,101056.5,1.2007184
66234857,66217105,3997706,22.459717,39.12,101055.5,1.2007065
66295113,66272427,3997706,22.523132,39.129997,101054.75,1.2006975
66345406,66325200,3997706,22.377804,39.129997,101056.5,1.2007184
66396085,66378216,3997706,22.501993,39.129997,101055.0,1.2007005
66456494,66433751,3997706,22.501993,39.14,101055.0,1.2007005
66506945,66486577,3997706,22.377804,39.14,101056.5,1.2007184
66557105,66539386,3997706,22.501993,39.14,101055.0,1.2007005
66617451,66594684,3997706,22.377804,39.149998,101056.49,1.2007183
66667650,66647481,3997706,22.232477,39.149998,101058.25,1.2007391
66717893,66700230,3997706,22.356665,39.149998,101056.75,1.2007214
67432581,67412330,3997706,22.483496,39.2,101055.25,1.2007035
67804983,67787246,3997706,22.459717,39.23,101055.5,1.2007065
67865324,67842623,3997706,22.671103,39.239998,101053.0,1.2006768
67916114,67895694,3997706,22.356665,39.239998,101056.75,1.2007214
67966468,67948708,3997706,22.459717,39.25,101055.5,1.2007065
68026955,68004072,3997706,22.459717,39.25,101055.5,1.2007065
68077076,68056875,3997706,22.274754,39.26,101057.74,1.2007332
68127302,68109634,3997706,22.335527,39.26,101056.99,1.2007242
68187662,68164956,3997706,22.483496,39.27,101055.25,1.2007035
68237940,68217729,3997706,22.441221,39.26,101055.75,1.2007095
68288582,68270578,3997706,22.628824,39.26,101053.5,1.2006828
68348945,68326182,3997706,22.420082,39.27,101056.0,1.2007124
68399445,68379048,3997706,22.501993,39.28,101054.99,1.2007005
68449840,68431917,3997706,22.335527,39.28,101056.99,1.2007242
68512143,68487208,3997706,22.314388,39.28,101057.25,1.2007273
68571026,68546037,3997706,22.438578,39.29,101055.79,1.2007099
68630901,68607811,3997706,22.377804,39.3,101056.49,1.2007183
68681225,68660915,3997706,22.54427,39.3,101054.5,1.2006947
68731563,68713861,3997706,22.649963,39.3,101053.25,1.2006798
68792030,68769193,3997706,22.398943,39.309998,101056.25,1.2007154
68842150,68821970,3997706,22.523132,39.309998,101054.75,1.2006975
68892498,68874775,3997706,22.586548,39.309998,101054.0,1.2006887
68952753,68930076,3997706,22.420082,39.32,101055.99,1.2007123
69002988,68982825,3997706,22.54427,39.32,101054.5,1.2006947
69053769,69035920,3997706,22.671103,39.32,101053.0,1.2006768
69113988,69091302,3997706,22.441221,39.329998,101055.75,1.2007095
69164476,69144087,3997706,22.441221,39.34,101055.75,1.2007095
69214706,69196926,3997706,22.565409,39.34,101054.25,1.2006917
69274977,69252208,3997706,22.731876,39.34,101052.25,1.2006679
69325219,69305033,3997706,22.628824,39.34,101053.5,1.2006828
69375479,69357808,3997706,22.607685,39.35,101053.75,1.2006857
69436196,69413404,3997706,22.420082,39.36,101055.99,1.2007123
69486501,69466291,3997706,22.398943,39.36,101056.25,1.2007154
69536992,69519127,3997706,22.420082,39.36,101056.0,1.2007124
69597164,69574444,3997706,22.459717,39.37,101055.5,1.2007065
69647523,69627247,3997706,22.483496,39.37,101055.25,1.2007035
69697759,69680091,3997706,22.501993,39.37,101055.0,1.2007005
69758095,69735370,3997706,22.523132,39.379997,101054.75,1.2006975
69808770,69788463,3997706,22.586548,39.379997,101054.0,1.2006887
69859057,69841366,3997706,22.628824,39.379997,101053.5,1.2006828
69919577,69896694,3997706,22.607685,39.39,101053.75,1.2006857
69969713,69949516,3997706,22.54427,39.399998,101054.5,1.2006947
70020590,70002251,3997706,22.774153,39.39,101051.75,1.2006619
70080657,70057525,3997706,22.459717,39.399998,101055.5,1.2007065
70130869,70110324,3997706,22.628824,39.41,101053.5,1.2006828
70181218,70163437,3997706,22.858706,39.41,101050.75,1.2006501
70241598,70218871,3997706,22.441221,39.42,101055.75,1.2007095
70292037,70271662,3997706,22.586548,39.42,101054.0,1.2006887
70342169,70324449,3997706,22.607685,39.42,101053.75,1.2006857
70402520,70379737,3997706,22.459717,39.43,101055.5,1.2007065
70452766,70432575,3997706,22.459717,39.43,101055.5,1.2007065
70502988,70485327,3997706,22.565409,39.43,101054.25,1.2006917
70563744,70540928,3997706,22.420082,39.44,101056.0,1.2007124
70614000,70593793,3997706,22.483496,39.45,101055.25,1.2007035
70664467,70646572,3997706,22.54427,39.45,101054.5,1.2006947
70724598,70701882,3997706,22.356665,39.45,101056.75,1.2007214
70774940,70754670,3997706,22.586548,39.45,101054.0,1.2006887
70825175,70807422,3997706,22.607685,39.46,101053.75,1.2006857
70885474,70862761,3997706,22.628824,39.46,101053.5,1.2006828
70936176,70915766,3997706,22.441221,39.469997,101055.75,1.2007095
70986487,70968790,3997706,22.710737,39.469997,101052.5,1.2006708
71046993,71024077,3997706,22.649963,39.469997,101053.25,1.2006798
71097111,71076867,3997706,22.523132,39.48,101054.75,1.2006975
71147323,71129653,3997706,22.523132,39.48,101054.75,1.2006975
71207726,71184997,3997706,22.523132,39.489998,101054.75,1.2006975
71257973,71237799,3997706,22.671103,39.489998,101053.0,1.2006768
71308635,71290759,3997706,22.649963,39.489998,101053.25,1.2006798
71368998,71346259,3997706,22.356665,39.5,101056.75,1.2007214
71419479,71399086,3997706,22.483496,39.5,101055.25,1.2007035
71469828,71451906,3997706,22.501993,39.51,101055.0,1.2007005
71530897,71507167,3997706,22.377804,39.51,101056.5,1.2007184
71590900,71565969,3997706,22.821714,39.51,101051.19,1.2006552
71651034,71627815,3997706,22.774153,39.52,101051.75,1.2006619
71701142,71680759,3997706,22.54427,39.53,101054.51,1.2006947
71751512,71733773,3997706,22.607685,39.53,101053.75,1.2006857
71811780,71789089,3997706,22.398943,39.53,101056.25,1.2007154
71862108,71841910,3997706,22.441221,39.54,101055.75,1.2007095
71912359,71894693,3997706,22.459717,39.54,101055.5,1.2007065
71972750,71949959,3997706,22.586548,39.54,101054.0,1.2006887
72022904,72002728,3997706,22.523132,39.55,101054.75,1.2006975
72073697,72055609,3997706,22.689598,39.55,101052.75,1.2006738
72133947,72111213,3997706,22.441221,39.559998,101055.75,1.2007095
72184189,72164000,3997706,22.586548,39.559998,101054.0,1.2006887
72234626,72216788,3997706,22.483496,39.559998,101055.25,1.2007035
72294872,72272074,3997706,22.710737,39.57,101052.5,1.2006708
72345011,72324830,3997706,22.483496,39.57,101055.25,1.2007035
72395309,72377612,3997706,22.586548,39.57,101054.0,1.2006887
72455641,72432932,3997706,22.877203,39.579998,101050.5,1.2006471
72506323,72486120,3997706,22.441221,39.579998,101055.75,1.2007095
72556609,72538921,3997706,22.753014,39.59,101052.0,1.2006649
72617030,72594221,3997706,22.628824,39.59,101053.5,1.2006828
72667210,72647038,3997706,22.689598,39.59,101052.75,1.2006738
72717484,72699799,3997706,22.586548,39.6,101054.0,1.2006887
72777825,72755078,3997706,22.774153,39.6,101051.75,1.2006619
72828126,72807879,3997706,22.54427,39.61,101054.5,1.2006947
72878788,72860998,3997706,22.649963,39.61,101053.25,1.2006798
72939156,72916453,3997706,22.607685,39.61,101053.75,1.2006857
72989629,72969269,3997706,22.671103,39.62,101053.0,1.2006768
73039760,73022054,3997706,22.565409,39.62,101054.25,1.2006917
73101966,73077327,3997706,22.54427,39.629997,101054.5,1.2006947
73160500,73136093,3997706,22.570694,39.629997,101054.2,1.2006911
73220784,73197935,3997706,22.731876,39.64,101052.25,1.2006679
73271367,73251168,3997706,22.753014,39.64,101051.99,1.2006649
73321634,73303963,3997706,22.483496,39.649998,101055.25,1.2007035
73382044,73359260,3997706,22.689598,39.649998,101052.75,1.2006738
73432333,73412070,3997706,22.501993,39.649998,101055.0,1.2007005
73482551,73464877,3997706,22.483496,39.66,101055.25,1.2007035
73542897,73520183,3997706,22.731876,39.66,101052.25,1.2006679
73593181,73572968,3997706,22.586548,39.66,101054.0,1.2006887
73643798,73626139,3997706,22.649963,39.67,101053.25,1.2006798
73704155,73681439,3997706,22.377804,39.67,101056.49,1.2007183
73754638,73734273,3997706,22.607685,39.68,101053.75,1.2006857
73804867,73787100,3997706,22.501993,39.68,101055.0,1.2007005
73865062,73842369,3997706,22.671103,39.69,101053.0,1.2006768
73915404,73895149,3997706,22.377804,39.68,101056.5,1.2007184
73965729,73947948,3997706,22.462358,39.7,101055.49,1.2007064
74026494,74003750,3997706,22.689598,39.7,101052.75,1.2006738
74076951,74056559,3997706,22.607685,39.7,101053.75,1.2006857
74127060,74109369,3997706,22.54427,39.7,101054.5,1.2006947
74187359,74164663,3997706,22.523132,39.71,101054.75,1.2006975
74237667,74217458,3997706,22.523132,39.71,101054.75,1.2006975
74287978,74270255,3997706,22.689598,39.71,101052.75,1.2006738
74348736,74325629,3997706,22.689598,39.719997,101052.75,1.2006738
74398981,74378757,3997706,22.628824,39.73,101053.5,1.2006828
74449224,74431539,3997706,22.628824,39.73,101053.5,1.2006828
74509695,74486886,3997706,22.586548,39.73,101054.0,1.2006887
74560552,74539684,3997706,22.79529,39.73,101051.49,1.2006589
74610761,74592443,3997706,22.607685,39.739998,101053.75,1.2006857
74670880,74647720,3997706,22.607685,39.739998,101053.75,1.2006857
74731226,74706602,3997706,22.81907,39.75,101051.2,1.2006555
74791532,74768811,3997706,22.523132,39.76,101054.75,1.2006975
74841953,74821614,3997706,22.420082,39.75,101056.0,1.2007124
74892130,74874432,3997706,22.54427,39.76,101054.5,1.2006947
74952454,74929763,3997706,22.586548,39.77,101054.0,1.2006887
75002694,74982523,3997706,22.689598,39.77,101052.75,1.2006738
75052959,75035273,3997706,22.628824,39.77,101053.5,1.2006828
75113787,75090688,3997706,22.671103,39.77,101053.0,1.2006768
75164002,75143822,3997706,22.54427,39.78,101054.5,1.2006947
75214242,75196579,3997706,22.586548,39.78,101054.0,1.2006887
75274639,75251888,3997706,22.295893,39.79,101057.5,1.2007303
75324928,75304667,3997706,22.607685,39.79,101053.75,1.2006857
75375137,75357459,3997706,22.607685,39.79,101053.75,1.2006857
75435503,75412756,3997706,22.523132,39.8,101054.75,1.2006975
75486240,75465811,3997706,22.671103,39.8,101053.0,1.2006768
75536547,75518854,3997706,22.586548,39.809998,101054.0,1.2006887
75597026,75574162,3997706,22.628824,39.82,101053.5,1.2006828
75647129,75626945,3997706,22.54427,39.82,101054.5,1.2006947
75697410,75679716,3997706,22.565409,39.82,101054.25,1.2006917
75757729,75735030,3997706,22.710737,39.82,101052.5,1.2006708
75808021,75787828,3997706,22.689598,39.829998,101052.75,1.2006738
75858912,75840700,3997706,22.441221,39.829998,101055.75,1.2007095
75919103,75896387,3997706,22.523132,39.84,101054.75,1.2006975
75969564,75949201,3997706,22.483496,39.84,101055.25,1.2007035
76019791,76002012,3997706,22.54427,39.84,101054.5,1.2006947
76080552,76057266,3997706,22.671103,39.85,101053.0,1.2006768
76130867,76110019,3997706,22.607685,39.85,101053.75,1.2006857
76200809,76170331,3997706,22.620897,39.86,101053.59,1.2006838
76251301,76230865,3997706,22.586548,39.85,101054.0,1.2006887
76301587,76283909,3997706,22.398943,39.86,101056.25,1.2007154
76362039,76339207,3997706,22.314388,39.87,101057.25,1.2007273
76412259,76391991,3997706,22.441221,39.879997,101055.75,1.2007095
76462453,76444784,3997706,22.501993,39.87,101055.0,1.2007005
76522761,76500070,3997706,22.774153,39.879997,101051.75,1.2006619
76573060,76552839,3997706,22.837568,39.879997,101051.0,1.2006531
76623946,76606012,3997706,22.586548,39.89,101054.0,1.2006887
76684179,76661462,3997706,22.295893,39.899998,101057.49,1.2007302
76734661,76714270,3997706,22.501993,39.899998,101055.0,1.2007005
76784926,76767051,3997706,22.523132,39.899998,101054.75,1.2006975
76845036,76822295,3997706,22.483496,39.91,101055.25,1.2007035
76895248,76875040,3997706,22.565409,39.91,101054.25,1.2006917
76945602,76927860,3997706,22.523132,39.91,101054.75,1.2006975
77006336,76983387,3997706,22.607685,39.92,101053.75,1.2006857
77056612,77036442,3997706,22.420082,39.92,101055.99,1.2007123
77106975,77089200,3997706,22.398943,39.93,101056.25,1.2007154
77167239,77144525,3997706,22.54427,39.93,101054.5,1.2006947
77217581,77197344,3997706,22.459717,39.93,101055.5,1.2007065
77267794,77250139,3997706,22.483496,39.93,101055.25,1.2007035
77328204,77305444,3997706,22.565409,39.93,101054.25,1.2006917
77378946,77358576,3997706,22.689598,39.95,101052.75,1.2006738
77489749,77466876,3997706,22.607685,39.95,101053.75,1.2006857
77540708,77519657,3997706,22.565409,39.95,101054.25,1.2006917
77590842,77572400,3997706,22.628824,39.96,101053.5,1.2006828
77651355,77627652,3997706,22.565409,39.969997,101054.26,1.2006917
77702094,77680418,3997706,22.483496,39.969997,101055.25,1.2007035
77771508,77741102,3997706,22.369877,39.969997,101056.59,1.2007195
77821730,77801546,3997706,22.565409,39.98,101054.25,1.2006917
77872146,77854353,3997706,22.462358,39.989998,101055.49,1.2007064
77932354,77909649,3997706,22.398943,39.989998,101056.25,1.2007154
77982660,77962472,3997706,22.398943,39.989998,101056.25,1.2007154
78032893,78015230,3997706,22.649963,39.989998,101053.25,1.2006798
78093275,78070482,3997706,22.523132,39.989998,101054.75,1.2006975
78143958,78123580,3997706,22.753014,40.0,101052.0,1.2006649
78194197,78176504,3997706,22.459717,40.01,101055.5,1.2007065
78254627,78231821,3997706,22.377804,40.01,101056.5,1.2007184
78304841,78284580,3997706,22.420082,40.01,101056.0,1.2007124
78355058,78337389,3997706,22.335527,40.02,101056.99,1.2007242
78415380,78392663,3997706,22.398943,40.02,101056.25,1.2007154
78465642,78445450,3997706,22.565409,40.02,101054.25,1.2006917
78516488,78498564,3997706,22.54427,40.03,101054.5,1.2006947
78576709,78554017,3997706,22.274754,40.04,101057.74,1.2007332
78627006,78606800,3997706,22.501993,40.04,101055.0,1.2007005
78677337,78659598,3997706,22.54427,40.04,101054.5,1.2006947
78737664,78714956,3997706,22.398943,40.05,101056.25,1.2007154
78787916,78767738,3997706,22.459717,40.05,101055.5,1.2007065
78838333,78820495,3997706,22.774153,40.05,101051.75,1.2006619
78899008,78876267,3997706,22.607685,40.059998,101053.75,1.2006857
78949479,78929126,3997706,22.523132,40.059998,101054.75,1.2006975
78999821,78981966,3997706,22.607685,40.059998,101053.75,1.2006857
79060652,79037259,3997706,22.420082,40.07,101056.0,1.2007124
79110926,79090012,3997706,22.483496,40.07,101055.25,1.2007035
79180824,79150322,3997706,22.454433,40.079998,101055.59,1.2007077
79231244,79210739,3997706,22.314388,40.09,101057.25,1.2007273
79281560,79263869,3997706,22.459717,40.09,101055.5,1.2007065
79342040,79319181,3997706,22.483496,40.09,101055.25,1.2007035
79392231,79371995,3997706,22.441221,40.09,101055.75,1.2007095
79442543,79424779,3997706,22.501993,40.09,101055.0,1.2007005
79502764,79480081,3997706,22.459717,40.1,101055.5,1.2007065
79553079,79532836,3997706,22.314388,40.11,101057.25,1.2007273
79603353,79585627,3997706,22.628824,40.11,101053.5,1.2006828
79664112,79641327,3997706,22.649963,40.12,101053.25,1.2006798
79714523,79694132,3997706,22.274754,40.12,101057.75,1.2007332
79764854,79746958,3997706,22.459717,40.12,101055.5,1.2007065
79824958,79802204,3997706,22.377804,40.12,101056.5,1.2007184
79875138,79854967,3997706,22.441221,40.14,101055.75,1.2007095
79925467,79907732,3997706,22.253614,40.129997,101057.99,1.2007362
79985836,79963054,3997706,22.31703,40.14,101057.24,1.2007272
80036539,80016341,3997706,22.420082,40.14,101056.0,1.2007124
80086936,80069118,3997706,22.335527,40.149998,101057.0,1.2007244
80147136,80124386,3997706,22.420082,40.149998,101055.99,1.2007123
80197429,80177176,3997706,22.335527,40.149998,101056.99,1.2007242
80247684,80230012,3997706,22.501993,40.149998,101055.0,1.2007005
80308004,80285314,3997706,22.689598,40.16,101052.75,1.2006738
80358340,80338103,3997706,22.523132,40.16,101054.75,1.2006975
80409000,80391323,3997706,22.628824,40.17,101053.5,1.2006828
80469502,80446630,3997706,22.483496,40.17,101055.25,1.2007035
80519846,80499449,3997706,22.628824,40.18,101053.5,1.2006828
80570849,80552188,3997706,22.501993,40.18,101055.0,1.2007005
80631040,80607470,3997706,22.398943,40.19,101056.25,1.2007154
80690802,80666310,3997706,22.401587,40.19,101056.2,1.2007148
80750895,80728107,3997706,22.356665,40.2,101056.75,1.2007214
80801548,80781342,3997706,22.565409,40.2,101054.25,1.2006917
80851983,80834133,3997706,22.483496,40.2,101055.25,1.2007035
80912348,80889421,3997706,22.232477,40.21,101058.25,1.2007391
80962390,80942165,3997706,22.420082,40.21,101055.99,1.2007123
81012632,80994943,3997706,22.335527,40.219997,101056.99,1.2007242
81072941,81050230,3997706,22.441221,40.219997,101055.75,1.2007095
81123317,81103025,3997706,22.565409,40.219997,101054.25,1.2006917
81174011,81156149,3997706,22.731876,40.219997,101052.25,1.2006679
81234415,81211548,3997706,22.314388,40.23,101057.25,1.2007273
81284618,81264375,3997706,22.377804,40.239998,101056.5,1.2007184
81334927,81317148,3997706,22.54427,40.239998,101054.5,1.2006947
81395123,81372431,3997706,22.501993,40.239998,101054.99,1.2007005
81445412,81425208,3997706,22.565409,40.239998,101054.25,1.2006917
81495649,81477990,3997706,22.377804,40.25,101056.5,1.2007184
81556408,81533367,3997706,22.441221,40.26,101055.75,1.2007095
81606699,81586482,3997706,22.377804,40.26,101056.49,1.2007183
81657053,81639281,3997706,22.377804,40.26,101056.49,1.2007183
81717251,81694570,3997706,22.523132,40.27,101054.75,1.2006975
81767575,81747380,3997706,22.335527,40.27,101056.99,1.2007242
81817816,81800154,3997706,22.501993,40.27,101055.0,1.2007005
81878077,81855404,3997706,22.523132,40.28,101054.75,1.2006975
81928985,81908285,3997706,22.483496,40.28,101055.25,1.2007035
81979164,81961468,3997706,22.295893,40.29,101057.49,1.2007302
82039635,82016810,3997706,22.501993,40.3,101055.0,1.2007005
82090845,82069574,3997706,22.523132,40.29,101054.75,1.2006975
82160563,82129889,3997706,22.38573,40.3,101056.4,1.2007172
82210874,82190248,3997706,22.459717,40.3,101055.5,1.2007065
82260941,82243036,3997706,22.628824,40.3,101053.5,1.2006828
82321500,82298549,3997706,22.462358,40.309998,101055.49,1.2007064
82371758,82351576,3997706,22.483496,40.32,101055.25,1.2007035
82422019,82404355,3997706,22.483496,40.32,101055.25,1.2007035
82482314,82459622,3997706,22.462358,40.32,101055.49,1.2007064
82532621,82512384,3997706,22.420082,40.329998,101056.0,1.2007124
82582850,82565183,3997706,22.483496,40.329998,101055.25,1.2007035
82643111,82620430,3997706,22.54427,40.34,101054.49,1.2006946
82693426,82673177,3997706,22.459717,40.34,101055.5,1.2007065
82744132,82726443,3997706,22.671103,40.34,101053.0,1.2006768
82804658,82781803,3997706,22.459717,40.35,101055.5,1.2007065
82855165,82834561,3997706,22.483496,40.35,101055.25,1.2007035
82925144,82894878,3997706,22.570694,40.36,101054.2,1.2006911
82975452,82955237,3997706,22.295893,40.36,101057.49,1.2007302
83025726,83008040,3997706,22.501993,40.36,101055.0,1.2007005
83086665,83063770,3997706,22.523132,40.37,101054.75,1.2006975
83136984,83116730,3997706,22.459717,40.37,101055.5,1.2007065
83187165,83169491,3997706,22.501993,40.37,101055.0,1.2007005
83247532,83224771,3997706,22.459717,40.379997,101055.5,1.2007065
83297746,83277556,3997706,22.54427,40.379997,101054.5,1.2006947
83348007,83330332,3997706,22.586548,40.379997,101054.0,1.2006887
83408498,83385600,3997706,22.79529,40.39,101051.5,1.200659
83459035,83438596,3997706,22.565409,40.39,101054.25,1.2006917
83509499,83491617,3997706,22.377804,40.399998,101056.5,1.2007184
83569723,83546976,3997706,22.420082,40.41,101055.99,1.2007123
83620799,83599727,3997706,22.377804,40.41,101056.49,1.2007183
83670899,83652510,3997706,22.607685,40.41,101053.75,1.2006857
85140550,85117069,3997706,22.356665,40.52,101056.75,1.2007214
85191024,85169812,3997706,22.501993,40.53,101055.0,1.2007005
85260628,85230087,3997706,22.470285,40.53,101055.4,1.2007053
85312219,85290418,3997706,22.649963,40.53,101053.25,1.2006798
85380892,85350682,3997706,22.335527,40.53,101057.0,1.2007244
85431584,85411179,3997706,22.523132,40.54,101054.75,1.2006975
85482051,85464168,3997706,22.483496,40.55,101055.25,1.2007035
85542188,85519507,3997706,22.147923,40.55,101059.24,1.200751
85592463,85572284,3997706,22.314388,40.559998,101057.25,1.2007273
85642821,85625087,3997706,22.420082,40.559998,101055.99,1.2007123
85703110,85680390,3997706,22.420082,40.57,101056.0,1.2007124
85753340,85733168,3997706,22.420082,40.559998,101056.0,1.2007124
85804096,85786162,3997706,22.441221,40.57,101055.75,1.2007095
85864537,85841669,3997706,22.314388,40.579998,101057.25,1.2007273
85914850,85894456,3997706,22.377804,40.579998,101056.49,1.2007183
85965062,85947228,3997706,22.501993,40.579998,101055.0,1.2007005
86025185,86002495,3997706,22.356665,40.59,101056.75,1.2007214
86075506,86055289,3997706,22.356665,40.59,101056.75,1.2007214
86125779,86108086,3997706,22.54427,40.59,101054.5,1.2006947
86186138,86163369,3997706,22.54427,40.6,101054.5,1.2006947
86236726,86216536,3997706,22.356665,40.6,101056.75,1.2007214
86287081,86269298,3997706,22.335527,40.61,101056.99,1.2007242
86347344,86324595,3997706,22.295893,40.61,101057.49,1.2007302
86397545,86377374,3997706,22.441221,40.61,101055.75,1.2007095
86447891,86430163,3997706,22.314388,40.62,101057.25,1.2007273
86508164,86485467,3997706,22.295893,40.629997,101057.49,1.2007302
86558445,86538236,3997706,22.356665,40.62,101056.75,1.2007214
86609154,86591367,3997706,22.377804,40.629997,101056.5,1.2007184
86669648,86646804,3997706,22.1902,40.64,101058.74,1.200745
86719859,86699586,3997706,22.54427,40.64,101054.5,1.2006947
86771054,86752349,3997706,22.54427,40.64,101054.49,1.2006946
86830903,86807624,3997706,22.356665,40.649998,101056.75,1.2007214
86890895,86866460,3997706,22.602402,40.649998,101053.8,1.2006862
86951283,86928235,3997706,22.356665,40.649998,101056.75,1.2007214
87001644,86981225,3997706,22.483496,40.66,101055.25,1.2007035
87052033,87034262,3997706,22.459717,40.66,101055.5,1.2007065
87112399,87089639,3997706,22.356665,40.67,101056.74,1.2007213
87162663,87142460,3997706,22.441221,40.67,101055.75,1.2007095
87212961,87195247,3997706,22.483496,40.67,101055.25,1.2007035
87273328,87250536,3997706,22.81643,40.68,101051.25,1.200656
87323502,87303312,3997706,22.356665,40.68,101056.75,1.2007214
87374213,87356412,3997706,22.483496,40.68,101055.25,1.2007035
87434697,87411869,3997706,22.565409,40.69,101054.25,1.2006917
87484961,87464659,3997706,22.501993,40.69,101055.0,1.2007005
87535098,87517425,3997706,22.671103,40.7,101053.0,1.2006768
87595494,87572723,3997706,22.483496,40.7,101055.24,1.2007035
87645811,87625535,3997706,22.335527,40.7,101057.0,1.2007244
87696094,87678329,3997706,22.54427,40.71,101054.5,1.2006947
87756735,87733931,3997706,22.377804,40.719997,101056.49,1.2007183
87807086,87786829,3997706,22.377804,40.719997,101056.5,1.2007184
87857330,87839636,3997706,22.420082,40.719997,101056.0,1.2007124
87917722,87894950,3997706,22.1902,40.719997,101058.75,1.2007451
87967971,87947735,3997706,22.459717,40.73,101055.5,1.2007065
88018161,88000504,3997706,22.1902,40.73,101058.74,1.200745
88078497,88055811,3997706,22.274754,40.739998,101057.75,1.2007332
88129206,88108796,3997706,22.295893,40.739998,101057.49,1.2007302
88179713,88161870,3997706,22.126783,40.75,101059.5,1.200754
88240769,88217198,3997706,22.295893,40.75,101057.49,1.2007302
88290907,88269945,3997706,22.169062,40.75,101059.0,1.2007481
88360748,88330261,3997706,22.301178,40.76,101057.41,1.2007291
88410932,88390597,3997706,22.274754,40.76,101057.74,1.2007332
88461055,88443357,3997706,22.253614,40.77,101057.99,1.2007362
88521926,88498971,3997706,22.295893,40.77,101057.49,1.2007302
88572084,88551849,3997706,22.253614,40.78,101057.99,1.2007362
88622354,88604652,3997706,22.356665,40.78,101056.75,1.2007214
88682675,88659984,3997706,22.356665,40.78,101056.75,1.2007214
88732985,88712741,3997706,22.274754,40.78,101057.74,1.2007332
88783345,88765537,3997706,22.295893,40.78,101057.49,1.2007302
88843518,88820826,3997706,22.147923,40.79,101059.25,1.2007511
88894381,88873798,3997706,22.565409,40.8,101054.25,1.2006917
88944635,88926805,3997706,22.483496,40.8,101055.25,1.2007035
89005029,88982123,3997706,22.565409,40.809998,101054.25,1.2006917
89055365,89034878,3997706,22.441221,40.809998,101055.75,1.2007095
89125408,89095169,3997706,22.335527,40.809998,101057.0,1.2007244
89175709,89155533,3997706,22.253614,40.82,101058.0,1.2007362
89225964,89208302,3997706,22.335527,40.82,101057.0,1.2007244
89286670,89263661,3997706,22.356665,40.82,101056.75,1.2007214
89337033,89316737,3997706,22.54427,40.829998,101054.5,1.2006947
89387268,89369543,3997706,22.253614,40.829998,101058.0,1.2007362
89447573,89424871,3997706,22.295893,40.829998,101057.49,1.2007302
89497804,89477623,3997706,22.295893,40.84,101057.5,1.2007303
89548135,89530374,3997706,22.253614,40.84,101057.99,1.2007362
89608354,89585652,3997706,22.377804,40.85,101056.49,1.2007183
89658687,89638418,3997706,22.105644,40.85,101059.75,1.200757
89709701,89691581,3997706,22.483496,40.85,101055.25,1.2007035
89769813,89747027,3997706,22.087149,40.86,101060.0,1.20076
89820826,89799797,3997706,22.420082,40.86,101055.99,1.2007123
89871031,89852549,3997706,22.335527,40.87,101056.99,1.2007242
89930920,89907809,3997706,22.232477,40.87,101058.25,1.2007391
89990819,89966614,3997706,22.401587,40.87,101056.2,1.2007148
90051124,90028424,3997706,22.523132,40.879997,101054.75,1.2006975
90101939,90081409,3997706,22.314388,40.879997,101057.25,1.2007273
90152098,90134402,3997706,22.483496,40.89,101055.25,1.2007035
90212396,90189674,3997706,22.253614,40.89,101057.99,1.2007362
90262716,90242473,3997706,22.335527,40.899998,101056.99,1.2007242
90312888,90295231,3997706,22.295893,40.899998,101057.5,1.2007303
90373238,90350494,3997706,22.126783,40.899998,101059.5,1.200754
90423503,90403310,3997706,22.314388,40.899998,101057.25,1.2007273
90473820,90456075,3997706,22.314388,40.91,101057.25,1.2007273
90534658,90511818,3997706,22.459717,40.91,101055.5,1.2007065
90584920,90564621,3997706,22.420082,40.92,101056.0,1.2007124
90635078,90617401,3997706,22.314388,40.93,101057.25,1.2007273
90695430,90672704,3997706,22.335527,40.93,101056.99,1.2007242
90745781,90725511,3997706,22.356665,40.93,101056.75,1.2007214
90795989,90778326,3997706,22.295893,40.93,101057.49,1.2007302
90856938,90833754,3997706,22.1902,40.94,101058.74,1.200745
90907106,90886902,3997706,22.1902,40.94,101058.75,1.2007451
90957401,90939689,3997706,22.377804,40.95,101056.5,1.2007184
91017746,90995006,3997706,22.211338,40.95,101058.5,1.2007421
91068173,91047815,3997706,22.377804,40.96,101056.49,1.2007183
91118295,91100569,3997706,22.253614,40.96,101058.0,1.2007362
91178704,91155925,3997706,22.147923,40.96,101059.24,1.200751
91229585,91208969,3997706,22.211338,40.969997,101058.5,1.2007421
91279958,91262002,3997706,22.377804,40.969997,101056.5,1.2007184
91340660,91317262,3997706,22.274754,40.969997,101057.75,1.2007332
91390849,91370023,3997706,22.441221,40.98,101055.75,1.2007095
91460570,91430329,3997706,22.554838,40.989998,101054.39,1.2006934
91512352,91490627,3997706,22.108288,40.989998,101059.74,1.2007569
91581171,91550941,3997706,22.354023,40.989998,101056.8,1.200722
91632048,91611461,3997706,22.54427,40.989998,101054.5,1.2006947
91682124,91664456,3997706,22.441221,41.0,101055.75,1.2007095
91742521,91719738,3997706,22.295893,41.0,101057.49,1.2007302
91792705,91772536,3997706,22.232477,41.01,101058.24,1.2007391
91843006,91825295,3997706,22.232477,41.01,101058.25,1.2007391
91903357,91880602,3997706,22.108288,41.01,101059.74,1.2007569
91953590,91933413,3997706,22.356665,41.02,101056.75,1.2007214
92003897,91986160,3997706,22.335527,41.02,101057.0,1.2007244
93090911,93066546,3997706,22.301178,41.1,101057.41,1.2007291
93151034,93128336,3997706,22.314388,41.1,101057.25,1.2007273
93201306,93181125,3997706,22.398943,41.11,101056.25,1.2007154
93252093,93234245,3997706,22.314388,41.11,101057.25,1.2007273
93312411,93289683,3997706,22.335527,41.12,101056.99,1.2007242
93362731,93342522,3997706,22.377804,41.12,101056.49,1.2007183
93412996,93395323,3997706,22.314388,41.12,101057.25,1.2007273
93473285,93450593,3997706,22.398943,41.129997,101056.25,1.2007154
93523609,93503399,3997706,22.169062,41.129997,101059.0,1.2007481
93573957,93556182,3997706,22.274754,41.14,101057.75,1.2007332
93634750,93611935,3997706,22.126783,41.14,101059.5,1.200754
93684916,93664710,3997706,22.274754,41.14,101057.75,1.2007332
93735191,93717457,3997706,22.211338,41.149998,101058.5,1.2007421
93795464,93772764,3997706,22.441221,41.149998,101055.75,1.2007095
93845722,93825535,3997706,22.314388,41.149998,101057.25,1.2007273
93896012,93878295,3997706,22.335527,41.16,101057.0,1.2007244
93956273,93933587,3997706,22.398943,41.16,101056.25,1.2007154
94007087,93986594,3997706,22.483496,41.17,101055.25,1.2007035
94057314,94039647,3997706,22.274754,41.17,101057.74,1.2007332
94117681,94094953,3997706,22.335527,41.18,101057.0,1.2007244
94167916,94147744,3997706,22.295893,41.18,101057.49,1.2007302
94218142,94200484,3997706,22.420082,41.18,101056.0,1.2007124
94278501,94255754,3997706,22.147923,41.18,101059.25,1.2007511
94328752,94308553,3997706,22.420082,41.19,101056.0,1.2007124
94379743,94361483,3997706,22.295893,41.19,101057.5,1.2007303
94439888,94417117,3997706,22.54427,41.2,101054.5,1.2006947
94490935,94469887,3997706,22.295893,41.2,101057.49,1.2007302
94560698,94530190,3997706,22.219265,41.2,101058.4,1.2007409
94610870,94590475,3997706,22.274754,41.2,101057.75,1.2007332
94661042,94643235,3997706,22.295893,41.2,101057.49,1.2007302
94722361,94698524,3997706,22.335527,41.219997,101057.0,1.2007244
94782098,94757559,3997706,22.354023,41.219997,101056.8,1.200722
94842466,94819713,3997706,22.420082,41.23,101056.0,1.2007124
94892773,94872547,3997706,22.501993,41.23,101055.0,1.2007005
94943002,94925346,3997706,22.274754,41.23,101057.75,1.2007332
95003291,94980606,3997706,22.356665,41.23,101056.75,1.2007214
95053617,95033377,3997706,22.169062,41.239998,101059.0,1.2007481
95103801,95086140,3997706,22.377804,41.239998,101056.5,1.2007184
95164713,95141508,3997706,22.523132,41.25,101054.75,1.2006975
95214827,95194584,3997706,22.398943,41.25,101056.25,1.2007154
95265073,95247334,3997706,22.232477,41.26,101058.25,1.2007391
95325342,95302595,3997706,22.31703,41.26,101057.24,1.2007272
95375606,95355428,3997706,22.253614,41.26,101057.99,1.2007362
95425860,95408187,3997706,22.356665,41.27,101056.74,1.2007213
95486201,95463464,3997706,22.147923,41.27,101059.24,1.200751
95536574,95516284,3997706,22.377804,41.27,101056.5,1.2007184
95587243,95569410,3997706,22.649963,41.27,101053.25,1.2006798
95647558,95624846,3997706,22.356665,41.28,101056.75,1.2007214
95697849,95677631,3997706,22.523132,41.28,101054.75,1.2006975
95748138,95730445,3997706,22.314388,41.28,101057.25,1.2007273
95808412,95785729,3997706,22.314388,41.29,101057.25,1.2007273
95858792,95838485,3997706,22.126783,41.3,101059.5,1.200754
95908991,95891309,3997706,22.565409,41.29,101054.25,1.2006917
95969848,95946910,3997706,22.295893,41.309998,101057.49,1.2007302
96020874,95999763,3997706,22.335527,41.309998,101057.0,1.2007244
96070935,96052504,3997706,22.356665,41.309998,101056.75,1.2007214
96130929,96107811,3997706,22.126783,41.32,101059.5,1.200754
96191024,96166592,3997706,22.13471,41.32,101059.41,1.200753
96251274,96228380,3997706,22.398943,41.32,101056.25,1.2007154
96301467,96281188,3997706,22.501993,41.329998,101055.0,1.2007005
96352158,96334112,3997706,22.253614,41.329998,101057.99,1.2007362
96412407,96389694,3997706,22.314388,41.329998,101057.25,1.2007273
96462658,96442486,3997706,22.335527,41.34,101057.0,1.2007244
96512970,96495256,3997706,22.398943,41.34,101056.25,1.2007154
96573289,96550575,3997706,22.295893,41.35,101057.49,1.2007302
96623614,96603374,3997706,22.232477,41.35,101058.25,1.2007391
96673903,96656150,3997706,22.295893,41.35,101057.5,1.2007303
96734797,96711613,3997706,22.377804,41.36,101056.5,1.2007184
96784889,96764696,3997706,22.523132,41.36,101054.75,1.2006975
96835120,96817451,3997706,22.232477,41.37,101058.25,1.2007391
96895555,96872745,3997706,22.54427,41.37,101054.5,1.2006947
96945749,96925564,3997706,22.441221,41.37,101055.75,1.2007095
96996021,96978345,3997706,22.420082,41.37,101056.0,1.2007124
97056436,97033625,3997706,22.441221,41.379997,101055.75,1.2007095
97106692,97086471,3997706,22.54427,41.379997,101054.5,1.2006947
97157343,97139680,3997706,22.169062,41.39,101059.0,1.2007481
97217685,97194985,3997706,22.377804,41.399998,101056.49,1.2007183
97267974,97247749,3997706,22.211338,41.399998,101058.5,1.2007421
97318207,97300545,3997706,22.398943,41.399998,101056.25,1.2007154
97378666,97355868,3997706,22.356665,41.399998,101056.75,1.2007214
97428955,97408665,3997706,22.232477,41.41,101058.24,1.2007391
97479214,97461500,3997706,22.441221,41.41,101055.75,1.2007095
97540800,97517217,3997706,22.232477,41.42,101058.25,1.2007391
97591131,97569972,3997706,22.06601,41.42,101060.24,1.2007629
97660844,97630236,3997706,22.303818,41.42,101057.39,1.200729
97712323,97690557,3997706,22.420082,41.43,101056.0,1.2007124
97781056,97750837,3997706,22.369877,41.43,101056.6,1.2007196
97831437,97811139,3997706,22.335527,41.43,101057.0,1.2007244
97881632,97863968,3997706,22.295893,41.44,101057.49,1.2007302
97942445,97919578,3997706,22.523132,41.44,101054.75,1.2006975
97992679,97972485,3997706,22.253614,41.45,101057.99,1.2007362
98043004,98025280,3997706,22.253614,41.45,101058.0,1.2007362
98103268,98080587,3997706,22.274754,41.46,101057.75,1.2007332
98153558,98133371,3997706,22.253614,41.46,101058.0,1.2007362
98203933,98186131,3997706,22.253614,41.46,101057.99,1.2007362
98264153,98241455,3997706,22.105644,41.46,101059.75,1.200757
98315011,98294444,3997706,22.335527,41.469997,101057.0,1.2007244
98365125,98347399,3997706,22.126783,41.469997,101059.5,1.200754
98425343,98402646,3997706,22.1902,41.48,101058.75,1.2007451
98475653,98455456,3997706,22.314388,41.48,101057.25,1.2007273
98525919,98508249,3997706,22.211338,41.48,101058.5,1.2007421
98586188,98563510,3997706,22.087149,41.489998,101060.0,1.20076
98636544,98616324,3997706,22.314388,41.489998,101057.25,1.2007273
98686996,98669125,3997706,22.459717,41.489998,101055.5,1.2007065
98747525,98724831,3997706,22.274754,41.5,101057.74,1.2007332
98797786,98777588,3997706,22.211338,41.51,101058.5,1.2007421
98848071,98830357,3997706,22.356665,41.51,101056.75,1.2007214
98908450,98885669,3997706,22.295893,41.51,101057.49,1.2007302
98958693,98938481,3997706,22.1902,41.52,101058.75,1.2007451
99008997,98991293,3997706,22.274754,41.51,101057.75,1.2007332
99069529,99046615,3997706,22.169062,41.52,101059.0,1.2007481
99120921,99099866,3997706,22.274754,41.52,101057.75,1.2007332
99170985,99152627,3997706,22.232477,41.53,101058.24,1.2007391
99231005,99207909,3997706,22.377804,41.53,101056.49,1.2007183
99290960,99266663,3997706,22.23776,41.53,101058.19,1.2007384
99351120,99328434,3997706,22.232477,41.54,101058.25,1.2007391
100579560,100561647,3997706,22.274754,41.62,101057.75,1.2007332
100640794,100617420,3997706,22.459717,41.629997,101055.5,1.2007065
100690935,100670158,3997706,22.335527,41.64,101057.0,1.2007244
100760790,100730468,3997706,22.184914,41.64,101058.805,1.2007458
100811112,100790799,3997706,22.169062,41.64,101059.0,1.2007481
100861213,100843547,3997706,22.441221,41.64,101055.75,1.2007095
100921579,100898841,3997706,22.398943,41.649998,101056.25,1.2007154
100972117,100951682,3997706,22.398943,41.649998,101056.25,1.2007154
101022554,101004776,3997706,22.441221,41.649998,101055.75,1.2007095
101082852,101060171,3997706,22.335527,41.66,101057.0,1.2007244
101133208,101112949,3997706,22.211338,41.66,101058.5,1.2007421
101183467,101165764,3997706,22.06601,41.66,101060.25,1.200763
101243750,101221070,3997706,22.420082,41.67,101055.99,1.2007123
101294066,101273858,3997706,22.459717,41.67,101055.5,1.2007065
101344611,101326700,3997706,22.523132,41.67,101054.75,1.2006975
101405196,101382494,3997706,22.398943,41.68,101056.25,1.2007154
101455503,101435308,3997706,22.1902,41.68,101058.75,1.2007451
101505806,101488081,3997706,22.314388,41.69,101057.25,1.2007273
101566078,101543396,3997706,22.377804,41.69,101056.5,1.2007184
101616422,101596160,3997706,22.356665,41.7,101056.75,1.2007214
101666661,101648972,3997706,22.147923,41.7,101059.25,1.2007511
101727039,101704311,3997706,22.483496,41.7,101055.25,1.2007035
101777722,101757523,3997706,22.335527,41.71,101057.0,1.2007244
101827966,101810301,3997706,22.441221,41.71,101055.75,1.2007095
101888358,101865567,3997706,22.169062,41.71,101059.0,1.2007481
101938544,101918367,3997706,22.169062,41.719997,101059.0,1.2007481
101988808,101971139,3997706,22.147923,41.71,101059.25,1.2007511
102049175,102026449,3997706,22.441221,41.719997,101055.75,1.2007095
102099657,102079326,3997706,22.295893,41.73,101057.49,1.2007302
102151017,102132545,3997706,22.002594,41.73,101061.0,1.2007718
102210953,102187808,3997706,22.441221,41.739998,101055.75,1.2007095
102261088,102240554,3997706,22.356665,41.739998,101056.75,1.2007214
102312296,102293330,3997706,22.211338,41.739998,101058.5,1.2007421
102371416,102348613,3997706,22.335527,41.739998,101056.99,1.2007242
102421595,102401403,3997706,22.441221,41.75,101055.75,1.2007095
102472145,102454216,3997706,22.211338,41.75,101058.5,1.2007421
102532615,102509609,3997706,22.377804,41.76,101056.49,1.2007183
102582843,102562667,3997706,22.274754,41.76,101057.75,1.2007332
102633114,102615445,3997706,22.105644,41.76,101059.75,1.200757
102693460,102670723,3997706,22.126783,41.77,101059.5,1.200754
102743678,102723513,3997706,22.1902,41.77,101058.75,1.2007451
102793994,102776303,3997706,22.295893,41.77,101057.5,1.2007303
102854486,102831597,3997706,22.1902,41.78,101058.75,1.2007451
102904790,102884398,3997706,22.377804,41.78,101056.49,1.2007183
102955327,102937646,3997706,22.314388,41.79,101057.25,1.2007273
103015666,102992984,3997706,22.314388,41.79,101057.25,1.2007273
103065994,103045781,3997706,22.211338,41.8,101058.5,1.2007421
103116267,103098580,3997706,22.356665,41.8,101056.75,1.2007214
103176579,103153878,3997706,22.314388,41.8,101057.25,1.2007273
103227028,103206703,3997706,22.420082,41.8,101056.0,1.2007124
103277185,103259496,3997706,22.274754,41.8,101057.74,1.2007332
103337859,103315164,3997706,22.274754,41.809998,101057.75,1.2007332
103388083,103367918,3997706,22.356665,41.809998,101056.75,1.2007214
103438389,103420657,3997706,22.377804,41.82,101056.5,1.2007184
103498687,103475977,3997706,22.295893,41.82,101057.49,1.2007302
103548970,103528731,3997706,22.295893,41.829998,101057.49,1.2007302
103599392,103581532,3997706,22.274754,41.829998,101057.75,1.2007332
103659845,103636881,3997706,22.087149,41.829998,101060.0,1.20076
103712362,103689880,3997706,22.1902,41.84,101058.75,1.2007451
103780776,103750409,3997706,22.285322,41.84,101057.6,1.2007315
103831037,103810678,3997706,22.54427,41.85,101054.5,1.2006947
103881258,103863509,3997706,22.398943,41.85,101056.25,1.2007154
103941522,103918821,3997706,22.169062,41.85,101059.0,1.2007481
103992038,103971641,3997706,22.565409,41.85,101054.25,1.2006917
104042120,104024458,3997706,22.232477,41.86,101058.24,1.2007391
104102828,104080044,3997706,22.253614,41.86,101057.99,1.2007362
104153167,104132905,3997706,22.523132,41.86,101054.75,1.2006975
104203323,104185657,3997706,22.253614,41.87,101058.0,1.2007362
104263670,104240986,3997706,22.1902,41.87,101058.75,1.2007451
104313960,104293732,3997706,22.232477,41.879997,101058.25,1.2007391
104364184,104346512,3997706,22.274754,41.879997,101057.75,1.2007332
104424597,104401807,3997706,22.126783,41.879997,101059.5,1.200754
104475299,104454705,3997706,22.483496,41.879997,101055.25,1.2007035
104525480,104507808,3997706,22.501993,41.89,101054.99,1.2007005
104585830,104563103,3997706,22.335527,41.89,101057.0,1.2007244
104636181,104615897,3997706,22.459717,41.899998,101055.5,1.2007065
104686318,104668651,3997706,22.211338,41.899998,101058.5,1.2007421
104746662,104723963,3997706,22.253614,41.91,101057.99,1.2007362
104797025,104776748,3997706,22.274754,41.91,101057.74,1.2007332
104847315,104829527,3997706,22.314388,41.91,101057.25,1.2007273
104907931,104885133,3997706,22.462358,41.92,101055.49,1.2007064
104958157,104937986,3997706,22.232477,41.92,101058.25,1.2007391
105008527,104990776,3997706,22.274754,41.92,101057.75,1.2007332
105068819,105046112,3997706,22.356665,41.93,101056.75,1.2007214
105119120,105098914,3997706,22.211338,41.93,101058.5,1.2007421
105169600,105151714,3997706,22.501993,41.93,101055.0,1.2007005
105229717,105207019,3997706,22.253614,41.93,101058.0,1.2007362
105280698,105259957,3997706,22.335527,41.94,101056.99,1.2007242
105330983,105312936,3997706,22.335527,41.94,101056.99,1.2007242
105391180,105368176,3997706,22.420082,41.95,101055.99,1.2007123
105451286,105426989,3997706,22.48614,41.95,101055.195,1.2007029
105511534,105488828,3997706,22.377804,41.96,101056.49,1.2007183
105561943,105541606,3997706,22.169062,41.96,101059.0,1.2007481
105612091,105594402,3997706,22.1902,41.96,101058.75,1.2007451
105672913,105649869,3997706,22.335527,41.96,101056.99,1.2007242
105723117,105702940,3997706,22.147923,41.969997,101059.25,1.2007511
105773369,105755696,3997706,22.169062,41.969997,101059.0,1.2007481
105833722,105810995,3997706,22.1902,41.98,101058.75,1.2007451
105884002,105863798,3997706,22.459717,41.98,101055.5,1.2007065
105934479,105916603,3997706,22.420082,41.98,101056.0,1.2007124
105994692,105971919,3997706,22.295893,41.989998,101057.5,1.2007303
106044990,106024662,3997706,22.314388,41.989998,101057.25,1.2007273
106095670,106077795,3997706,22.335527,41.989998,101056.99,1.2007242
106155891,106133190,3997706,22.274754,42.0,101057.74,1.2007332
106206174,106185952,3997706,22.420082,42.0,101056.0,1.2007124
106256484,106238729,3997706,22.232477,42.01,101058.24,1.2007391
106316701,106294027,3997706,22.253614,42.01,101058.0,1.2007362
106367028,106346781,3997706,22.314388,42.01,101057.25,1.2007273
106417273,106399595,3997706,22.147923,42.01,101059.25,1.2007511
106478088,106455099,3997706,22.126783,42.02,101059.5,1.200754
106528286,106508048,3997706,22.274754,42.02,101057.75,1.2007332
106578522,106560839,3997706,22.295893,42.03,101057.5,1.2007303
106638915,106616147,3997706,22.274754,42.03,101057.75,1.2007332
106689180,106668966,3997706,22.314388,42.04,101057.25,1.2007273
106739629,106721809,3997706,22.356665,42.03,101056.75,1.2007214
106799963,106777100,3997706,22.356665,42.04,101056.75,1.2007214
106850960,106830091,3997706,22.274754,42.04,101057.75,1.2007332
106920842,106890605,3997706,22.335527,42.05,101057.0,1.2007244
106971175,106950936,3997706,22.169062,42.059998,101059.0,1.2007481
107021458,107003735,3997706,22.126783,42.059998,101059.5,1.200754
107081746,107059055,3997706,22.377804,42.059998,101056.49,1.2007183
107132130,107111854,3997706,22.147923,42.059998,101059.25,1.2007511
107182466,107164691,3997706,22.211338,42.059998,101058.5,1.2007421
107243127,107220320,3997706,22.483496,42.07,101055.25,1.2007035
107293402,107273208,3997706,22.211338,42.07,101058.5,1.2007421
107343735,107326002,3997706,22.232477,42.079998,101058.25,1.2007391
107403990,107381285,3997706,22.253614,42.079998,101057.99,1.2007362
107454232,107434059,3997706,22.002594,42.079998,101061.0,1.2007718
107504608,107486846,3997706,22.314388,42.09,101057.25,1.2007273
107565008,107542149,3997706,22.295893,42.09,101057.5,1.2007303
107615597,107595158,3997706,22.314388,42.09,101057.25,1.2007273
107665831,107648152,3997706,22.54427,42.1,101054.5,1.2006947
107726106,107703424,3997706,22.295893,42.1,101057.49,1.2007302
107776470,107756204,3997706,22.232477,42.1,101058.25,1.2007391
107826706,107809030,3997706,22.147923,42.11,101059.25,1.2007511
107887110,107864316,3997706,22.54427,42.11,101054.5,1.2006947
107937337,107917094,3997706,22.398943,42.11,101056.25,1.2007154
107987606,107969893,3997706,22.232477,42.11,101058.25,1.2007391
108048279,108025586,3997706,22.441221,42.12,101055.75,1.2007095
108098549,108078364,3997706,22.1902,42.129997,101058.75,1.2007451
108148925,108131148,3997706,22.356665,42.129997,101056.75,1.2007214
108209183,108186460,3997706,22.335527,42.129997,101056.99,1.2007242
108259789,108239337,3997706,22.335527,42.129997,101056.99,1.2007242
108310975,108292168,3997706,22.1902,42.129997,101058.75,1.2007451
108371036,108347596,3997706,22.398943,42.14,101056.25,1.2007154
108431024,108406731,3997706,22.303818,42.14,101057.39,1.200729
108491188,108468508,3997706,22.105644,42.149998,101059.75,1.200757
108541529,108521324,3997706,22.377804,42.149998,101056.5,1.2007184
108591757,108574094,3997706,22.253614,42.16,101057.99,1.2007362
108652133,108629380,3997706,22.211338,42.17,101058.5,1.2007421
108702405,108682183,3997706,22.147923,42.16,101059.25,1.2007511
108752687,108734988,3997706,22.501993,42.16,101055.0,1.2007005
108813354,108790660,3997706,22.126783,42.17,101059.5,1.200754
108863606,108843434,3997706,22.274754,42.18,101057.75,1.2007332
108913977,108896191,3997706,22.253614,42.18,101057.99,1.2007362
108974200,108951519,3997706,22.295893,42.18,101057.49,1.2007302
109024645,109004319,3997706,22.1902,42.19,101058.75,1.2007451
109074835,109057118,3997706,22.108288,42.19,101059.74,1.2007569
109135166,109112397,3997706,22.274754,42.19,101057.74,1.2007332
109185860,109165529,3997706,22.211338,42.2,101058.5,1.2007421
109236059,109218398,3997706,22.169062,42.2,101059.0,1.2007481
109296452,109273673,3997706,22.147923,42.2,101059.25,1.2007511
109346670,109326470,3997706,22.295893,42.2,101057.49,1.2007302
109397032,109379250,3997706,22.441221,42.21,101055.75,1.2007095
109457307,109434562,3997706,22.147923,42.21,101059.25,1.2007511
109507561,109487381,3997706,22.335527,42.21,101057.0,1.2007244
109558241,109540363,3997706,22.274754,42.219997,101057.74,1.2007332
109618571,109595868,3997706,22.377804,42.219997,101056.5,1.2007184
109668975,109648665,3997706,22.356665,42.23,101056.75,1.2007214
109719225,109701544,3997706,22.1902,42.23,101058.75,1.2007451
109779617,109756869,3997706,22.147923,42.23,101059.25,1.2007511
109830951,109809649,3997706,22.398943,42.23,101056.25,1.2007154
109951116,109930431,3997706,22.420082,42.239998,101056.0,1.2007124
110021158,109990922,3997706,22.285322,42.25,101057.6,1.2007315
110071523,110051265,3997706,22.087149,42.25,101060.0,1.20076
110121925,110104076,3997706,22.274754,42.25,101057.74,1.2007332
110182068,110159373,3997706,22.377804,42.26,101056.49,1.2007183
110232360,110212121,3997706,22.31703,42.26,101057.24,1.2007272
110282568,110264899,3997706,22.377804,42.26,101056.49,1.2007183
110343277,110320269,3997706,22.441221,42.27,101055.75,1.2007095
110393548,110373367,3997706,22.356665,42.27,101056.75,1.2007214
110443820,110426120,3997706,22.087149,42.27,101060.0,1.20076
110504210,110481467,3997706,22.314388,42.28,101057.25,1.2007273
110554611,110534292,3997706,22.295893,42.28,101057.5,1.2007303
110604872,110587041,3997706,22.356665,42.29,101056.75,1.2007214
110665053,110642335,3997706,22.420082,42.29,101056.0,1.2007124
110715355,110695120,3997706,22.628824,42.29,101053.5,1.2006828
110766039,110748189,3997706,22.335527,42.29,101057.0,1.2007244
110826269,110803578,3997706,22.232477,42.3,101058.25,1.2007391
110876588,110856383,3997706,22.377804,42.309998,101056.5,1.2007184
110927015,110909264,3997706,22.607685,42.309998,101053.75,1.2006857
111359751,111339546,3997706,22.335527,42.329998,101057.0,1.2007244
111470959,111447588,3997706,22.459717,42.34,101055.5,1.2007065
111521047,111500585,3997706,22.441221,42.34,101055.75,1.2007095
111571238,111553564,3997706,22.398943,42.35,101056.25,1.2007154
111631553,111608857,3997706,22.459717,42.35,101055.5,1.2007065
111682052,111661671,3997706,22.1902,42.36,101058.75,1.2007451
111732140,111714472,3997706,22.398943,42.36,101056.25,1.2007154
111792486,111769769,3997706,22.483496,42.36,101055.25,1.2007035
111842763,111822564,3997706,22.211338,42.36,101058.5,1.2007421
111893471,111875586,3997706,22.586548,42.36,101054.0,1.2006887
111953772,111931072,3997706,22.211338,42.37,101058.5,1.2007421
112004064,111983852,3997706,22.087149,42.37,101060.0,1.20076
112054530,112036686,3997706,22.232477,42.379997,101058.25,1.2007391
112114706,112091976,3997706,22.108288,42.379997,101059.74,1.2007569
112164979,112144713,3997706,22.459717,42.379997,101055.5,1.2007065
112215209,112197501,3997706,22.211338,42.379997,101058.5,1.2007421
112276045,112252929,3997706,22.377804,42.39,101056.49,1.2007183
112326204,112306031,3997706,22.398943,42.399998,101056.25,1.2007154
112376567,112358858,3997706,22.1902,42.399998,101058.75,1.2007451
112437019,112414201,3997706,22.274754,42.399998,101057.75,1.2007332
112487212,112467019,3997706,22.377804,42.399998,101056.49,1.2007183
112537535,112519794,3997706,22.335527,42.41,101056.99,1.2007242
112597793,112575111,3997706,22.169062,42.41,101058.99,1.200748
112648057,112627858,3997706,22.169062,42.41,101059.0,1.2007481
112698730,112681037,3997706,22.31703,42.42,101057.24,1.2007272
112759063,112736355,3997706,22.377804,42.42,101056.49,1.2007183
112809531,112789148,3997706,22.253614,42.43,101057.99,1.2007362
112859778,112841955,3997706,22.295893,42.43,101057.5,1.2007303
112920690,112897206,3997706,22.398943,42.43,101056.25,1.2007154
112970887,112949973,3997706,22.274754,42.43,101057.75,1.2007332
113040703,113010327,3997706,22.253614,42.44,101057.99,1.2007362
113091238,113071069,3997706,22.253614,42.44,101057.99,1.2007362
113141594,113123910,3997706,22.002594,42.45,101061.01,1.2007719
113202080,113179207,3997706,22.274754,42.45,101057.75,1.2007332
113252274,113232045,3997706,22.087149,42.45,101060.0,1.20076
113302597,113284899,3997706,22.420082,42.45,101056.0,1.2007124
113362918,113340214,3997706,22.1902,42.46,101058.74,1.200745
113413568,113393092,3997706,22.295893,42.46,101057.5,1.2007303
113463820,113446152,3997706,22.126783,42.469997,101059.5,1.200754
113684962,113662281,3997706,22.314388,42.48,101057.25,1.2007273
113735250,113715053,3997706,22.211338,42.48,101058.5,1.2007421
113785533,113767856,3997706,22.295893,42.48,101057.5,1.2007303
113846259,113823463,3997706,22.335527,42.489998,101057.0,1.2007244
113896594,113876384,3997706,22.274754,42.489998,101057.75,1.2007332
113947040,113929224,3997706,22.31703,42.5,101057.24,1.2007272
114007217,113984530,3997706,22.232477,42.5,101058.25,1.2007391
114057611,114037341,3997706,22.211338,42.5,101058.5,1.2007421
114107856,114090186,3997706,22.274754,42.51,101057.75,1.2007332
114168208,114145450,3997706,22.105644,42.51,101059.75,1.200757
114218811,114198522,3997706,22.253614,42.51,101057.99,1.2007362
114269081,114251414,3997706,22.398943,42.51,101056.25,1.2007154
114329572,114306730,3997706,22.1902,42.52,101058.75,1.2007451
114380548,114359545,3997706,22.169062,42.52,101059.0,1.2007481
114430930,114412300,3997706,22.211338,42.53,101058.5,1.2007421
114490915,114467577,3997706,22.232477,42.52,101058.25,1.2007391
114550793,114526403,3997706,22.118856,42.53,101059.586,1.200755
114611416,114588549,3997706,22.232477,42.54,101058.25,1.2007391
114661621,114641443,3997706,22.274754,42.54,101057.75,1.2007332
114712275,114694224,3997706,22.377804,42.54,101056.49,1.2007183
114772193,114749511,3997706,22.314388,42.54,101057.25,1.2007273
114822451,114802272,3997706,22.295893,42.55,101057.5,1.2007303
114872739,114855043,3997706,22.398943,42.55,101056.25,1.2007154
114933019,114910330,3997706,22.335527,42.55,101056.99,1.2007242
114983303,114963084,3997706,22.356665,42.559998,101056.75,1.2007214
115033991,115016303,3997706,22.211338,42.559998,101058.5,1.2007421
115094493,115071579,3997706,22.1902,42.57,101058.75,1.2007451
115144738,115124380,3997706,22.169062,42.57,101059.0,1.2007481
115194861,115177186,3997706,22.211338,42.57,101058.5,1.2007421
115255270,115232519,3997706,22.441221,42.57,101055.75,1.2007095
115305517,115285319,3997706,22.377804,42.579998,101056.5,1.2007184
115355803,115338095,3997706,22.356665,42.579998,101056.75,1.2007214
115416562,115393823,3997706,22.335527,42.59,101057.0,1.2007244
115467018,115446700,3997706,22.356665,42.59,101056.75,1.2007214
115517180,115499504,3997706,22.274754,42.59,101057.75,1.2007332
115577510,115554805,3997706,22.253614,42.6,101057.99,1.2007362
115627807,115607608,3997706,22.356665,42.59,101056.75,1.2007214
115678040,115660383,3997706,22.253614,42.6,101057.99,1.2007362
115839508,115821654,3997706,22.356665,42.61,101056.75,1.2007214
115899713,115877008,3997706,22.147923,42.62,101059.24,1.200751
115950716,115929782,3997706,22.211338,42.62,101058.5,1.2007421
116020567,115990075,3997706,22.219265,42.62,101058.4,1.2007409
116070980,116050422,3997706,22.211338,42.629997,101058.5,1.2007421
116141497,116110808,3997706,22.169062,42.629997,101059.0,1.2007481
116191674,116171501,3997706,22.356665,42.64,101056.74,1.2007213
116242040,116224299,3997706,22.023733,42.64,101060.74,1.2007688
116302314,116279596,3997706,22.108288,42.64,101059.74,1.2007569
116352549,116332377,3997706,22.147923,42.64,101059.25,1.2007511
116402887,116385194,3997706,22.274754,42.64,101057.74,1.2007332
116463249,116440505,3997706,22.211338,42.649998,101058.5,1.2007421
116513964,116493396,3997706,22.169062,42.649998,101059.0,1.2007481
116564224,116546539,3997706,22.06601,42.66,101060.25,1.200763
116624615,116601867,3997706,22.126783,42.66,101059.5,1.200754
116674884,116654610,3997706,22.232477,42.66,101058.25,1.2007391
116725030,116707354,3997706,22.002594,42.67,101061.0,1.2007718
116785367,116762646,3997706,22.232477,42.67,101058.24,1.2007391
116835650,116815477,3997706,22.232477,42.67,101058.24,1.2007391
116885875,116868217,3997706,22.1902,42.67,101058.75,1.2007451
116946657,116923828,3997706,22.169062,42.68,101059.0,1.2007481
116997087,116976719,3997706,22.1902,42.68,101058.75,1.2007451
117047226,117029494,3997706,22.108288,42.69,101059.74,1.2007569
117107506,117084798,3997706,22.169062,42.69,101059.0,1.2007481
117157813,117137579,3997706,22.126783,42.69,101059.5,1.200754
117208061,117190391,3997706,22.274754,42.7,101057.74,1.2007332
117268351,117245663,3997706,22.044872,42.69,101060.5,1.200766
117319062,117298652,3997706,22.169062,42.7,101059.0,1.2007481
117369518,117351648,3997706,22.126783,42.7,101059.5,1.200754
117429778,117407010,3997706,22.06601,42.71,101060.25,1.200763
117480553,117459766,3997706,22.295893,42.71,101057.5,1.2007303
117530870,117512500,3997706,22.335527,42.71,101057.0,1.2007244
117590853,117567813,3997706,22.335527,42.719997,101056.99,1.2007242
117651048,117626636,3997706,22.219265,42.719997,101058.4,1.2007409
117712293,117688542,3997706,22.232477,42.73,101058.24,1.2007391
117771821,117747621,3997706,22.087149,42.73,101059.99,1.2007599
117832164,117809420,3997706,22.126783,42.73,101059.5,1.200754
117882356,117862178,3997706,22.377804,42.739998,101056.5,1.2007184
118687423,118667203,3997706,22.023733,42.79,101060.76,1.200769
120045765,120023030,3997706,22.211338,42.87,101058.5,1.2007421
120095990,120075823,3997706,22.126783,42.87,101059.5,1.200754
120146223,120128562,3997706,22.06601,42.87,101060.24,1.2007629
120207073,120184041,3997706,22.356665,42.87,101056.75,1.2007214
120257237,120237073,3997706,22.023733,42.87,101060.74,1.2007688
120307533,120289852,3997706,22.169062,42.879997,101059.0,1.2007481
120367813,120345129,3997706,22.1902,42.879997,101058.75,1.2007451
120418078,120397898,3997706,22.253614,42.89,101057.99,1.2007362
120468410,120450703,3997706,22.356665,42.89,101056.75,1.2007214
120528711,120506022,3997706,22.147923,42.89,101059.25,1.2007511
120579626,120559028,3997706,22.105644,42.89,101059.75,1.200757
120629917,120612033,3997706,22.002594,42.899998,101061.0,1.2007718
120690923,120667286,3997706,21.960318,42.899998,101061.5,1.2007778
120750926,120726084,3997706,22.184914,42.899998,101058.805,1.2007458
120810819,120787907,3997706,22.274754,42.91,101057.75,1.2007332
120860880,120840643,3997706,22.087149,42.91,101060.0,1.20076
120912281,120893429,3997706,22.274754,42.91,101057.75,1.2007332
120971496,120948710,3997706,22.087149,42.92,101059.99,1.2007599
121022183,121001944,3997706,22.31703,42.92,101057.24,1.2007272
121072403,121054690,3997706,22.105644,42.93,101059.75,1.200757
121132757,121110000,3997706,22.232477,42.93,101058.25,1.2007391
121182957,121162786,3997706,21.981457,42.93,101061.26,1.2007749
121233216,121215547,3997706,22.105644,42.93,101059.75,1.200757
121293514,121270821,3997706,22.087149,42.94,101060.0,1.20076
121343794,121323581,3997706,22.274754,42.94,101057.75,1.2007332
121394652,121376466,3997706,22.314388,42.93,101057.25,1.2007273
121454806,121432062,3997706,22.253614,42.95,101057.99,1.2007362
121505016,121484793,3997706,22.105644,42.95,101059.75,1.200757
121555227,121537559,3997706,22.044872,42.95,101060.5,1.200766
121615679,121592873,3997706,22.108288,42.95,101059.74,1.2007569
121665911,121645677,3997706,22.002594,42.96,101061.0,1.2007718
121716144,121698475,3997706,21.981457,42.96,101061.26,1.2007749
121776559,121753746,3997706,22.147923,42.96,101059.25,1.2007511
121827162,121806880,3997706,22.06601,42.969997,101060.24,1.2007629
121877410,121859743,3997706,22.044872,42.969997,101060.5,1.200766
121937738,121915037,3997706,22.108288,42.98,101059.74,1.2007569
121987991,121967815,3997706,22.1902,42.98,101058.75,1.2007451
122312079,122289929,3997706,22.232477,42.989998,101058.24,1.2007391
122380656,122350232,3997706,22.219265,43.0,101058.4,1.2007409
122430836,122410523,3997706,22.087149,43.01,101060.0,1.20076
122481038,122463289,3997706,22.232477,43.01,101058.25,1.2007391
122541320,122518628,3997706,22.1902,43.01,101058.75,1.2007451
122591632,122571399,3997706,22.002594,43.02,101061.0,1.2007718
122642319,122624507,3997706,22.087149,43.01,101060.0,1.20076
122702709,122679938,3997706,21.899546,43.02,101062.24,1.2007866
122752931,122732744,3997706,22.06601,43.02,101060.25,1.200763
122803293,122785537,3997706,22.126783,43.03,101059.5,1.200754
122863569,122840826,3997706,22.211338,43.02,101058.5,1.2007421
122913775,122893594,3997706,22.147923,43.03,101059.25,1.2007511
122964041,122946359,3997706,22.126783,43.04,101059.5,1.200754
123024817,123001857,3997706,22.126783,43.04,101059.5,1.200754
123074981,123054804,3997706,22.232477,43.04,101058.25,1.2007391
123125286,123107591,3997706,22.1902,43.04,101058.74,1.200745
123185627,123162937,3997706,22.314388,43.05,101057.25,1.2007273
123235916,123215718,3997706,22.1902,43.05,101058.75,1.2007451
123286229,123268501,3997706,22.087149,43.05,101060.0,1.20076
123346555,123323806,3997706,22.169062,43.059998,101059.0,1.2007481
123397276,123376856,3997706,22.126783,43.059998,101059.5,1.200754
123447570,123429893,3997706,21.960318,43.059998,101061.5,1.2007778
123507896,123485183,3997706,22.044872,43.07,101060.5,1.200766
123558266,123537979,3997706,22.335527,43.059998,101057.0,1.2007244
123608405,123590746,3997706,22.044872,43.07,101060.5,1.200766
123668738,123646007,3997706,22.253614,43.079998,101057.99,1.2007362
123719008,123698805,3997706,22.169062,43.07,101059.0,1.2007481
123769492,123751592,3997706,22.002594,43.079998,101061.0,1.2007718
123830876,123807369,3997706,22.126783,43.079998,101059.5,1.200754
123890823,123866187,3997706,22.118856,43.09,101059.6,1.2007552
123951013,123927990,3997706,22.274754,43.09,101057.75,1.2007332
124010971,123986766,3997706,22.153206,43.09,101059.195,1.2007505
124071315,124048612,3997706,22.295893,43.1,101057.5,1.2007303
124121661,124101464,3997706,22.1902,43.1,101058.75,1.2007451
124172467,124154481,3997706,22.087149,43.1,101060.0,1.20076
124232749,124210008,3997706,22.126783,43.11,101059.5,1.200754
124282948,124262780,3997706,22.129427,43.11,101059.49,1.2007539
124333222,124315552,3997706,21.941822,43.12,101061.74,1.2007806
124393573,124370831,3997706,22.295893,43.11,101057.5,1.2007303
124443798,124423597,3997706,22.483496,43.12,101055.25,1.2007035
124494099,124476421,3997706,22.169062,43.12,101059.0,1.2007481
124555020,124531845,3997706,22.147923,43.129997,101059.24,1.200751
124605229,124584986,3997706,22.295893,43.129997,101057.5,1.2007303
124655549,124637796,3997706,22.1902,43.129997,101058.75,1.2007451
124715800,124693115,3997706,22.087149,43.14,101060.0,1.20076
124766111,124745882,3997706,22.023733,43.14,101060.74,1.2007688
124816329,124798651,3997706,22.126783,43.14,101059.5,1.200754
124876696,124854001,3997706,22.232477,43.14,101058.24,1.2007391
