timestamp,gps_hvel[0],gps_hvel[1],gps_vvel,gps_hpos[0],gps_hpos[1],gps_vpos,ev_hvel[0],ev_hvel[1],ev_vvel,ev_hpos[0],ev_hpos[1],ev_vpos,fake_hvel[0],fake_hvel[1],fake_vvel,fake_hpos[0],fake_hpos[1],fake_vpos,rng_vpos,baro_vpos,aux_hvel[0],aux_hvel[1],aux_vvel,flow[0],flow[1],heading,mag_field[0],mag_field[1],mag_field[2],drag[0],drag[1],airspeed,beta,hagl
65628862,0.0988186,0.09881763,0.21409628,0.28965643,0.28965423,0.0,0.0,0.0,0.0,0.0,0.0,0.0,nan,nan,nan,nan,nan,nan,0.0,12.404271,0.0,0.0,nan,0.0,0.0,0.09016586,0.0,0.0,0.0,0.0,0.0,0.0,0.0,0.0
65828849,0.09881316,0.09881252,0.21407874,0.28967398,0.28967193,0.0,0.0,0.0,0.0,0.0,0.0,0.0,nan,nan,nan,nan,nan,nan,0.0,12.404566,0.0,0.0,nan,0.0,0.0,0.0901655,0.0,0.0,0.0,0.0,0.0,0.0,0.0,0.0
66028861,0.0988089,0.098808564,0.21411918,0.2896876,0.28968576,0.0,0.0,0.0,0.0,0.0,0.0,0.0,nan,nan,nan,nan,nan,nan,0.0,12.404499,0.0,0.0,nan,0.0,0.0,0.09016517,0.0,0.0,0.0,0.0,0.0,0.0,0.0,0.0
66228849,0.09880444,0.09880434,0.2140995,0.28969806,0.2896964,0.0,0.0,0.0,0.0,0.0,0.0,0.0,nan,nan,nan,nan,nan,nan,0.0,12.404977,0.0,0.0,nan,0.0,0.0,0.09016482,0.0,0.0,0.0,0.0,0.0,0.0,0.0,0.0
66428849,0.09880187,0.09880197,0.21408057,0.29072884,0.29072735,0.0,0.0,0.0,0.0,0.0,0.0,0.0,nan,nan,nan,nan,nan,nan,0.0,12.404192,0.0,0.0,nan,0.0,0.0,0.090164475,0.0,0.0,0.0,0.0,0.0,0.0,0.0,0.0
66628858,0.098800674,0.09880093,0.21406138,0.29074508,0.29074377,0.0,0.0,0.0,0.0,0.0,0.0,0.0,nan,nan,nan,nan,nan,nan,0.0,12.404139,0.0,0.0,nan,0.0,0.0,0.09016414,0.0,0.0,0.0,0.0,0.0,0.0,0.0,0.0
67428849,0.098806426,0.09880707,0.21405159,0.28977165,0.28977096,0.0,0.0,0.0,0.0,0.0,0.0,0.0,nan,nan,nan,nan,nan,nan,0.0,12.404312,0.0,0.0,nan,0.0,0.0,0.09016283,0.0,0.0,0.0,0.0,0.0,0.0,0.0,0.0
67828849,0.098801136,0.098801784,0.21407446,0.28975895,0.28975853,0.0,0.0,0.0,0.0,0.0,0.0,0.0,nan,nan,nan,nan,nan,nan,0.0,12.404547,0.0,0.0,nan,0.0,0.0,0.090162195,0.0,0.0,0.0,0.0,0.0,0.0,0.0,0.0
68028849,0.09879964,0.09880032,0.21411502,0.28975305,0.28975275,0.0,0.0,0.0,0.0,0.0,0.0,0.0,nan,nan,nan,nan,nan,nan,0.0,12.404482,0.0,0.0,nan,0.0,0.0,0.09016188,0.0,0.0,0.0,0.0,0.0,0.0,0.0,0.0
68228852,0.09879864,0.09879931,0.2140955,0.28974763,0.2897474,0.0,0.0,0.0,0.0,0.0,0.0,0.0,nan,nan,nan,nan,nan,nan,0.0,12.404954,0.0,0.0,nan,0.0,0.0,0.09016158,0.0,0.0,0.0,0.0,0.0,0.0,0.0,0.0
68428849,0.09879811,0.098798774,0.21407628,0.2897426,0.2897424,0.0,0.0,0.0,0.0,0.0,0.0,0.0,nan,nan,nan,nan,nan,nan,0.0,12.404171,0.0,0.0,nan,0.0,0.0,0.090161264,0.0,0.0,0.0,0.0,0.0,0.0,0.0,0.0
68628849,0.098797694,0.09879836,0.21405733,0.28973803,0.28973794,0.0,0.0,0.0,0.0,0.0,0.0,0.0,nan,nan,nan,nan,nan,nan,0.0,12.4041195,0.0,0.0,nan,0.0,0.0,0.09016097,0.0,0.0,0.0,0.0,0.0,0.0,0.0,0.0
68828849,0.09873668,0.09873732,0.2140565,0.28953168,0.28953165,0.0,0.0,0.0,0.0,0.0,0.0,0.0,nan,nan,nan,nan,nan,nan,0.0,12.405129,0.0,0.0,nan,0.0,0.0,0.09016067,0.0,0.0,0.0,0.0,0.0,0.0,0.0,0.0
69028849,0.09874915,0.098749764,0.21403953,0.28955248,0.2895525,0.0,0.0,0.0,0.0,0.0,0.0,0.0,nan,nan,nan,nan,nan,nan,0.0,12.404341,0.0,0.0,nan,0.0,0.0,0.09016037,0.0,0.0,0.0,0.0,0.0,0.0,0.0,0.0
69228849,0.098759115,0.09875973,0.21408229,0.28957152,0.2895716,0.0,0.0,0.0,0.0,0.0,0.0,0.0,nan,nan,nan,nan,nan,nan,0.0,12.404808,0.0,0.0,nan,0.0,0.0,0.09016008,0.0,0.0,0.0,0.0,0.0,0.0,0.0,0.0
69428849,0.09882802,0.09882861,0.21410833,0.28979182,0.28979194,0.0,0.0,0.0,0.0,0.0,0.0,0.0,nan,nan,nan,nan,nan,nan,0.0,12.404737,0.0,0.0,nan,0.0,0.0,0.09015979,0.0,0.0,0.0,0.0,0.0,0.0,0.0,0.0
69628889,0.098762155,0.098762706,0.21404578,0.28957993,0.28958008,0.0,0.0,0.0,0.0,0.0,0.0,0.0,nan,nan,nan,nan,nan,nan,0.0,12.403959,0.0,0.0,nan,0.0,0.0,0.090159506,0.0,0.0,0.0,0.0,0.0,0.0,0.0,0.0
69828849,0.09876975,0.09877032,0.21402963,0.28857523,0.2885754,0.0,0.0,0.0,0.0,0.0,0.0,0.0,nan,nan,nan,nan,nan,nan,0.0,12.404432,0.0,0.0,nan,0.0,0.0,0.09015922,0.0,0.0,0.0,0.0,0.0,0.0,0.0,0.0
70028884,0.0988355,0.098836035,0.21411589,0.28878263,0.28878284,0.0,0.0,0.0,0.0,0.0,0.0,0.0,nan,nan,nan,nan,nan,nan,0.0,12.404376,0.0,0.0,nan,0.0,0.0,0.09015893,0.0,0.0,0.0,0.0,0.0,0.0,0.0,0.0
70228851,0.09882776,0.09882823,0.21409684,0.28876197,0.28876218,0.0,0.0,0.0,0.0,0.0,0.0,0.0,nan,nan,nan,nan,nan,nan,0.0,12.404862,0.0,0.0,nan,0.0,0.0,0.09015866,0.0,0.0,0.0,0.0,0.0,0.0,0.0,0.0
70428849,0.0988212,0.098821655,0.21407846,0.28874362,0.28874385,0.0,0.0,0.0,0.0,0.0,0.0,0.0,nan,nan,nan,nan,nan,nan,0.0,12.404092,0.0,0.0,nan,0.0,0.0,0.09015839,0.0,0.0,0.0,0.0,0.0,0.0,0.0,0.0
70628849,0.098816775,0.09881719,0.21406014,0.28872734,0.28872755,0.0,0.0,0.0,0.0,0.0,0.0,0.0,nan,nan,nan,nan,nan,nan,0.0,12.404047,0.0,0.0,nan,0.0,0.0,0.09015812,0.0,0.0,0.0,0.0,0.0,0.0,0.0,0.0
70828849,0.09881203,0.09881241,0.214102,0.288713,0.28871325,0.0,0.0,0.0,0.0,0.0,0.0,0.0,nan,nan,nan,nan,nan,nan,0.0,12.404543,0.0,0.0,nan,0.0,0.0,0.09015785,0.0,0.0,0.0,0.0,0.0,0.0,0.0,0.0
71028854,0.098808624,0.09880899,0.21408446,0.28870043,0.28870067,0.0,0.0,0.0,0.0,0.0,0.0,0.0,nan,nan,nan,nan,nan,nan,0.0,12.404504,0.0,0.0,nan,0.0,0.0,0.09015759,0.0,0.0,0.0,0.0,0.0,0.0,0.0,0.0
71228849,0.09880525,0.0988056,0.21406645,0.28868943,0.28868967,0.0,0.0,0.0,0.0,0.0,0.0,0.0,nan,nan,nan,nan,nan,nan,0.0,12.404271,0.0,0.0,nan,0.0,0.0,0.09015732,0.0,0.0,0.0,0.0,0.0,0.0,0.0,0.0
71428849,0.09880292,0.098803185,0.21404846,0.28867984,0.28868005,0.0,0.0,0.0,0.0,0.0,0.0,0.0,nan,nan,nan,nan,nan,nan,0.0,12.404233,0.0,0.0,nan,0.0,0.0,0.09015707,0.0,0.0,0.0,0.0,0.0,0.0,0.0,0.0
71628851,0.09874052,0.098740764,0.21404825,0.28745028,0.2874505,0.0,0.0,0.0,0.0,0.0,0.0,0.0,nan,nan,nan,nan,nan,nan,0.0,12.404209,0.0,0.0,nan,0.0,0.0,0.09015681,0.0,0.0,0.0,0.0,0.0,0.0,0.0,0.0
71828893,0.09880994,0.098810196,0.21407652,0.28765935,0.2876596,0.0,0.0,0.0,0.0,0.0,0.0,0.0,nan,nan,nan,nan,nan,nan,0.0,12.404509,0.0,0.0,nan,0.0,0.0,0.090156555,0.0,0.0,0.0,0.0,0.0,0.0,0.0,0.0
72028849,0.09880509,0.09880531,0.21405704,0.28662464,0.28662482,0.0,0.0,0.0,0.0,0.0,0.0,0.0,nan,nan,nan,nan,nan,nan,0.0,12.404455,0.0,0.0,nan,0.0,0.0,0.0901563,0.0,0.0,0.0,0.0,0.0,0.0,0.0,0.0
72228849,0.098799944,0.09880014,0.21409777,0.28558362,0.2855838,0.0,0.0,0.0,0.0,0.0,0.0,0.0,nan,nan,nan,nan,nan,nan,0.0,12.404937,0.0,0.0,nan,0.0,0.0,0.09015606,0.0,0.0,0.0,0.0,0.0,0.0,0.0,0.0
72428851,0.09873366,0.098733865,0.21403627,0.28534865,0.28534883,0.0,0.0,0.0,0.0,0.0,0.0,0.0,nan,nan,nan,nan,nan,nan,0.0,12.404161,0.0,0.0,nan,0.0,0.0,0.09015582,0.0,0.0,0.0,0.0,0.0,0.0,0.0,0.0
72628850,0.098741114,0.09874131,0.21408,0.28433198,0.28433216,0.0,0.0,0.0,0.0,0.0,0.0,0.0,nan,nan,nan,nan,nan,nan,0.0,12.404119,0.0,0.0,nan,0.0,0.0,0.09015557,0.0,0.0,0.0,0.0,0.0,0.0,0.0,0.0
72828849,0.09880754,0.0988077,0.21410692,0.28351048,0.28351066,0.0,0.0,0.0,0.0,0.0,0.0,0.0,nan,nan,nan,nan,nan,nan,0.0,12.404604,0.0,0.0,nan,0.0,0.0,0.09015534,0.0,0.0,0.0,0.0,0.0,0.0,0.0,0.0
73028849,0.098737806,0.09873794,0.21404561,0.28326362,0.2832638,0.0,0.0,0.0,0.0,0.0,0.0,0.0,nan,nan,nan,nan,nan,nan,0.0,12.404568,0.0,0.0,nan,0.0,0.0,0.0901551,0.0,0.0,0.0,0.0,0.0,0.0,0.0,0.0
73228876,0.09874342,0.09874359,0.21403007,0.28224078,0.28224093,0.0,0.0,0.0,0.0,0.0,0.0,0.0,nan,nan,nan,nan,nan,nan,0.0,12.40381,0.0,0.0,nan,0.0,0.0,0.09015487,0.0,0.0,0.0,0.0,0.0,0.0,0.0,0.0
73428849,0.09880778,0.09880792,0.2141173,0.28242126,0.28242138,0.0,0.0,0.0,0.0,0.0,0.0,0.0,nan,nan,nan,nan,nan,nan,0.0,12.404822,0.0,0.0,nan,0.0,0.0,0.09015463,0.0,0.0,0.0,0.0,0.0,0.0,0.0,0.0
73628849,0.098737694,0.098737836,0.21405458,0.28117073,0.28117085,0.0,0.0,0.0,0.0,0.0,0.0,0.0,nan,nan,nan,nan,nan,nan,0.0,12.404046,0.0,0.0,nan,0.0,0.0,0.09015441,0.0,0.0,0.0,0.0,0.0,0.0,0.0,0.0
73828849,0.0987413,0.09874143,0.21403728,0.2801438,0.28014392,0.0,0.0,0.0,0.0,0.0,0.0,0.0,nan,nan,nan,nan,nan,nan,0.0,12.404524,0.0,0.0,nan,0.0,0.0,0.09015419,0.0,0.0,0.0,0.0,0.0,0.0,0.0,0.0
74028859,0.098743305,0.098743424,0.21408045,0.2801156,0.28011572,0.0,0.0,0.0,0.0,0.0,0.0,0.0,nan,nan,nan,nan,nan,nan,0.0,12.404469,0.0,0.0,nan,0.0,0.0,0.09015396,0.0,0.0,0.0,0.0,0.0,0.0,0.0,0.0
74228849,0.098745264,0.09874538,0.21406344,0.27908972,0.27908984,0.0,0.0,0.0,0.0,0.0,0.0,0.0,nan,nan,nan,nan,nan,nan,0.0,12.404958,0.0,0.0,nan,0.0,0.0,0.09015375,0.0,0.0,0.0,0.0,0.0,0.0,0.0,0.0
74428856,0.098745205,0.09874534,0.21404698,0.27906048,0.2790606,0.0,0.0,0.0,0.0,0.0,0.0,0.0,nan,nan,nan,nan,nan,nan,0.0,12.4041815,0.0,0.0,nan,0.0,0.0,0.09015353,0.0,0.0,0.0,0.0,0.0,0.0,0.0,0.0
74628879,0.098745845,0.098745964,0.21409008,0.27803546,0.27803555,0.0,0.0,0.0,0.0,0.0,0.0,0.0,nan,nan,nan,nan,nan,nan,0.0,12.4041395,0.0,0.0,nan,0.0,0.0,0.090153314,0.0,0.0,0.0,0.0,0.0,0.0,0.0,0.0
74828849,0.09880561,0.098805726,0.21411638,0.27820656,0.27820665,0.0,0.0,0.0,0.0,0.0,0.0,0.0,nan,nan,nan,nan,nan,nan,0.0,12.404633,0.0,0.0,nan,0.0,0.0,0.0901531,0.0,0.0,0.0,0.0,0.0,0.0,0.0,0.0
75028852,0.09879277,0.09879288,0.21409695,0.27815655,0.27815664,0.0,0.0,0.0,0.0,0.0,0.0,0.0,nan,nan,nan,nan,nan,nan,0.0,12.404378,0.0,0.0,nan,0.0,0.0,0.0901529,0.0,0.0,0.0,0.0,0.0,0.0,0.0,0.0
75228854,0.098782,0.09878213,0.21407531,0.27811357,0.27811366,0.0,0.0,0.0,0.0,0.0,0.0,0.0,nan,nan,nan,nan,nan,nan,0.0,12.40484,0.0,0.0,nan,0.0,0.0,0.090152696,0.0,0.0,0.0,0.0,0.0,0.0,0.0,0.0
75428852,0.09877377,0.09877393,0.21411493,0.2780767,0.2780768,0.0,0.0,0.0,0.0,0.0,0.0,0.0,nan,nan,nan,nan,nan,nan,0.0,12.404776,0.0,0.0,nan,0.0,0.0,0.09015249,0.0,0.0,0.0,0.0,0.0,0.0,0.0,0.0
75628852,0.09876758,0.09876771,0.21409461,0.27804527,0.27804536,0.0,0.0,0.0,0.0,0.0,0.0,0.0,nan,nan,nan,nan,nan,nan,0.0,12.403991,0.0,0.0,nan,0.0,0.0,0.090152286,0.0,0.0,0.0,0.0,0.0,0.0,0.0,0.0
75828866,0.09876172,0.09876187,0.21407466,0.2780186,0.27801868,0.0,0.0,0.0,0.0,0.0,0.0,0.0,nan,nan,nan,nan,nan,nan,0.0,12.404458,0.0,0.0,nan,0.0,0.0,0.09015208,0.0,0.0,0.0,0.0,0.0,0.0,0.0,0.0
76028888,0.09875791,0.09875807,0.2141149,0.27799597,0.27799603,0.0,0.0,0.0,0.0,0.0,0.0,0.0,nan,nan,nan,nan,nan,nan,0.0,12.4044,0.0,0.0,nan,0.0,0.0,0.09015188,0.0,0.0,0.0,0.0,0.0,0.0,0.0,0.0
76228849,0.098694056,0.09869422,0.21405298,0.277777,0.27777705,0.0,0.0,0.0,0.0,0.0,0.0,0.0,nan,nan,nan,nan,nan,nan,0.0,12.404891,0.0,0.0,nan,0.0,0.0,0.09015169,0.0,0.0,0.0,0.0,0.0,0.0,0.0,0.0
76428849,0.09876364,0.09876379,0.21407998,0.2779857,0.27798575,0.0,0.0,0.0,0.0,0.0,0.0,0.0,nan,nan,nan,nan,nan,nan,0.0,12.404643,0.0,0.0,nan,0.0,0.0,0.0901515,0.0,0.0,0.0,0.0,0.0,0.0,0.0,0.0
76628850,0.09869802,0.09869819,0.21407728,0.27776983,0.27776992,0.0,0.0,0.0,0.0,0.0,0.0,0.0,nan,nan,nan,nan,nan,nan,0.0,12.405111,0.0,0.0,nan,0.0,0.0,0.09015132,0.0,0.0,0.0,0.0,0.0,0.0,0.0,0.0
76828865,0.09876682,0.098767,0.21410228,0.27798128,0.27798134,0.0,0.0,0.0,0.0,0.0,0.0,0.0,nan,nan,nan,nan,nan,nan,0.0,12.405038,0.0,0.0,nan,0.0,0.0,0.09015113,0.0,0.0,0.0,0.0,0.0,0.0,0.0,0.0
77028849,0.09876147,0.09876163,0.21408184,0.27796745,0.27796754,0.0,0.0,0.0,0.0,0.0,0.0,0.0,nan,nan,nan,nan,nan,nan,0.0,12.404243,0.0,0.0,nan,0.0,0.0,0.090150945,0.0,0.0,0.0,0.0,0.0,0.0,0.0,0.0
77228853,0.09875682,0.098757006,0.21406181,0.27795556,0.27795565,0.0,0.0,0.0,0.0,0.0,0.0,0.0,nan,nan,nan,nan,nan,nan,0.0,12.404712,0.0,0.0,nan,0.0,0.0,0.090150766,0.0,0.0,0.0,0.0,0.0,0.0,0.0,0.0
77428851,0.09869205,0.09869224,0.21406011,0.27774522,0.2777453,0.0,0.0,0.0,0.0,0.0,0.0,0.0,nan,nan,nan,nan,nan,nan,0.0,12.404654,0.0,0.0,nan,0.0,0.0,0.09015059,0.0,0.0,0.0,0.0,0.0,0.0,0.0,0.0
77628881,0.09876116,0.09876136,0.21408632,0.27796116,0.27796125,0.0,0.0,0.0,0.0,0.0,0.0,0.0,nan,nan,nan,nan,nan,nan,0.0,12.403874,0.0,0.0,nan,0.0,0.0,0.0901504,0.0,0.0,0.0,0.0,0.0,0.0,0.0,0.0
77828850,0.09869638,0.098696575,0.21402492,0.27775094,0.27775103,0.0,0.0,0.0,0.0,0.0,0.0,0.0,nan,nan,nan,nan,nan,nan,0.0,12.404361,0.0,0.0,nan,0.0,0.0,0.09015024,0.0,0.0,0.0,0.0,0.0,0.0,0.0,0.0
78028849,0.09870433,0.09870453,0.21406944,0.27776673,0.27776682,0.0,0.0,0.0,0.0,0.0,0.0,0.0,nan,nan,nan,nan,nan,nan,0.0,12.4053755,0.0,0.0,nan,0.0,0.0,0.09015006,0.0,0.0,0.0,0.0,0.0,0.0,0.0,0.0
78228882,0.09871035,0.09871057,0.21405186,0.2777813,0.2777814,0.0,0.0,0.0,0.0,0.0,0.0,0.0,nan,nan,nan,nan,nan,nan,0.0,12.404578,0.0,0.0,nan,0.0,0.0,0.09014989,0.0,0.0,0.0,0.0,0.0,0.0,0.0,0.0
78428859,0.09871643,0.09871665,0.2140345,0.2777946,0.2777947,0.0,0.0,0.0,0.0,0.0,0.0,0.0,nan,nan,nan,nan,nan,nan,0.0,12.404511,0.0,0.0,nan,0.0,0.0,0.090149716,0.0,0.0,0.0,0.0,0.0,0.0,0.0,0.0
78628849,0.09872047,0.0987207,0.21407713,0.27780667,0.27780676,0.0,0.0,0.0,0.0,0.0,0.0,0.0,nan,nan,nan,nan,nan,nan,0.0,12.404982,0.0,0.0,nan,0.0,0.0,0.09014955,0.0,0.0,0.0,0.0,0.0,0.0,0.0,0.0
78828849,0.098783545,0.098783776,0.21410279,0.27801865,0.27801874,0.0,0.0,0.0,0.0,0.0,0.0,0.0,nan,nan,nan,nan,nan,nan,0.0,12.404912,0.0,0.0,nan,0.0,0.0,0.09014939,0.0,0.0,0.0,0.0,0.0,0.0,0.0,0.0
79028849,0.09877323,0.098773465,0.21408243,0.27800345,0.27800357,0.0,0.0,0.0,0.0,0.0,0.0,0.0,nan,nan,nan,nan,nan,nan,0.0,12.404125,0.0,0.0,nan,0.0,0.0,0.090149224,0.0,0.0,0.0,0.0,0.0,0.0,0.0,0.0
79228849,0.09870417,0.0987044,0.21408021,0.2777889,0.277789,0.0,0.0,0.0,0.0,0.0,0.0,0.0,nan,nan,nan,nan,nan,nan,0.0,12.404608,0.0,0.0,nan,0.0,0.0,0.09014907,0.0,0.0,0.0,0.0,0.0,0.0,0.0,0.0
79428849,0.09870935,0.09870958,0.21406443,0.27780092,0.27780104,0.0,0.0,0.0,0.0,0.0,0.0,0.0,nan,nan,nan,nan,nan,nan,0.0,12.405086,0.0,0.0,nan,0.0,0.0,0.0901489,0.0,0.0,0.0,0.0,0.0,0.0,0.0,0.0
79628874,0.09877429,0.09877453,0.2140893,0.27801272,0.2780128,0.0,0.0,0.0,0.0,0.0,0.0,0.0,nan,nan,nan,nan,nan,nan,0.0,12.404818,0.0,0.0,nan,0.0,0.0,0.090148754,0.0,0.0,0.0,0.0,0.0,0.0,0.0,0.0
79828852,0.098765105,0.098765336,0.21406828,0.27799764,0.27799776,0.0,0.0,0.0,0.0,0.0,0.0,0.0,nan,nan,nan,nan,nan,nan,0.0,12.40474,0.0,0.0,nan,0.0,0.0,0.09014859,0.0,0.0,0.0,0.0,0.0,0.0,0.0,0.0
80028855,0.09875786,0.09875807,0.2141078,0.2779839,0.27798402,0.0,0.0,0.0,0.0,0.0,0.0,0.0,nan,nan,nan,nan,nan,nan,0.0,12.405202,0.0,0.0,nan,0.0,0.0,0.09014844,0.0,0.0,0.0,0.0,0.0,0.0,0.0,0.0
80228902,0.09875212,0.09875232,0.2140876,0.27797136,0.2779715,0.0,0.0,0.0,0.0,0.0,0.0,0.0,nan,nan,nan,nan,nan,nan,0.0,12.404409,0.0,0.0,nan,0.0,0.0,0.0901483,0.0,0.0,0.0,0.0,0.0,0.0,0.0,0.0
80428859,0.09874758,0.09874779,0.21406776,0.2779601,0.2779602,0.0,0.0,0.0,0.0,0.0,0.0,0.0,nan,nan,nan,nan,nan,nan,0.0,12.404342,0.0,0.0,nan,0.0,0.0,0.09014814,0.0,0.0,0.0,0.0,0.0,0.0,0.0,0.0
80628857,0.098743565,0.09874378,0.21410844,0.27795002,0.2779501,0.0,0.0,0.0,0.0,0.0,0.0,0.0,nan,nan,nan,nan,nan,nan,0.0,12.404816,0.0,0.0,nan,0.0,0.0,0.090148,0.0,0.0,0.0,0.0,0.0,0.0,0.0,0.0
80828849,0.098679565,0.09867977,0.21404707,0.27774093,0.27774104,0.0,0.0,0.0,0.0,0.0,0.0,0.0,nan,nan,nan,nan,nan,nan,0.0,12.404045,0.0,0.0,nan,0.0,0.0,0.09014785,0.0,0.0,0.0,0.0,0.0,0.0,0.0,0.0
81028851,0.09875001,0.09875021,0.21407306,0.2779577,0.27795783,0.0,0.0,0.0,0.0,0.0,0.0,0.0,nan,nan,nan,nan,nan,nan,0.0,12.405031,0.0,0.0,nan,0.0,0.0,0.09014772,0.0,0.0,0.0,0.0,0.0,0.0,0.0,0.0
81228861,0.09868609,0.0986863,0.2140699,0.2777481,0.2777482,0.0,0.0,0.0,0.0,0.0,0.0,0.0,nan,nan,nan,nan,nan,nan,0.0,12.404956,0.0,0.0,nan,0.0,0.0,0.09014758,0.0,0.0,0.0,0.0,0.0,0.0,0.0,0.0
81428849,0.09869524,0.09869546,0.214053,0.27776426,0.27776438,0.0,0.0,0.0,0.0,0.0,0.0,0.0,nan,nan,nan,nan,nan,nan,0.0,12.40417,0.0,0.0,nan,0.0,0.0,0.090147436,0.0,0.0,0.0,0.0,0.0,0.0,0.0,0.0
81628851,0.09870335,0.09870356,0.21403576,0.27777904,0.27777913,0.0,0.0,0.0,0.0,0.0,0.0,0.0,nan,nan,nan,nan,nan,nan,0.0,12.404634,0.0,0.0,nan,0.0,0.0,0.0901473,0.0,0.0,0.0,0.0,0.0,0.0,0.0,0.0
81828849,0.09870916,0.09870937,0.21407902,0.27779254,0.27779263,0.0,0.0,0.0,0.0,0.0,0.0,0.0,nan,nan,nan,nan,nan,nan,0.0,12.404575,0.0,0.0,nan,0.0,0.0,0.09014716,0.0,0.0,0.0,0.0,0.0,0.0,0.0,0.0
82028850,0.09871438,0.09871459,0.21406256,0.27780467,0.27780476,0.0,0.0,0.0,0.0,0.0,0.0,0.0,nan,nan,nan,nan,nan,nan,0.0,12.405054,0.0,0.0,nan,0.0,0.0,0.090147026,0.0,0.0,0.0,0.0,0.0,0.0,0.0,0.0
82228849,0.09871829,0.09871849,0.21404615,0.2788167,0.2788168,0.0,0.0,0.0,0.0,0.0,0.0,0.0,nan,nan,nan,nan,nan,nan,0.0,12.404277,0.0,0.0,nan,0.0,0.0,0.0901469,0.0,0.0,0.0,0.0,0.0,0.0,0.0,0.0
82428853,0.098722965,0.09872315,0.21408978,0.2788371,0.2788372,0.0,0.0,0.0,0.0,0.0,0.0,0.0,nan,nan,nan,nan,nan,nan,0.0,12.40475,0.0,0.0,nan,0.0,0.0,0.09014677,0.0,0.0,0.0,0.0,0.0,0.0,0.0,0.0
82628851,0.0987266,0.098726794,0.214072,0.27985784,0.27985793,0.0,0.0,0.0,0.0,0.0,0.0,0.0,nan,nan,nan,nan,nan,nan,0.0,12.405211,0.0,0.0,nan,0.0,0.0,0.09014664,0.0,0.0,0.0,0.0,0.0,0.0,0.0,0.0
82828851,0.09879186,0.09879205,0.21409656,0.28008533,0.2800854,0.0,0.0,0.0,0.0,0.0,0.0,0.0,nan,nan,nan,nan,nan,nan,0.0,12.404412,0.0,0.0,nan,0.0,0.0,0.09014652,0.0,0.0,0.0,0.0,0.0,0.0,0.0,0.0
83028851,0.09872182,0.098722,0.21409322,0.27988166,0.27988175,0.0,0.0,0.0,0.0,0.0,0.0,0.0,nan,nan,nan,nan,nan,nan,0.0,12.404882,0.0,0.0,nan,0.0,0.0,0.0901464,0.0,0.0,0.0,0.0,0.0,0.0,0.0,0.0
83228887,0.09872645,0.09872665,0.21407527,0.2789002,0.2789003,0.0,0.0,0.0,0.0,0.0,0.0,0.0,nan,nan,nan,nan,nan,nan,0.0,12.405328,0.0,0.0,nan,0.0,0.0,0.09014627,0.0,0.0,0.0,0.0,0.0,0.0,0.0,0.0
83428858,0.09872799,0.09872819,0.21405563,0.27890816,0.27890825,0.0,0.0,0.0,0.0,0.0,0.0,0.0,nan,nan,nan,nan,nan,nan,0.0,12.405051,0.0,0.0,nan,0.0,0.0,0.090146154,0.0,0.0,0.0,0.0,0.0,0.0,0.0,0.0
83628844,0.09872962,0.0987298,0.21409658,0.278915,0.27891508,0.0,0.0,0.0,0.0,0.0,0.0,0.0,nan,nan,nan,nan,nan,nan,0.0,12.4049635,0.0,0.0,nan,0.0,0.0,0.090146035,0.0,0.0,0.0,0.0,0.0,0.0,0.0,0.0
85228916,0.09875645,0.09875661,0.21409239,0.28417656,0.28417668,0.0,0.0,0.0,0.0,0.0,0.0,0.0,nan,nan,nan,nan,nan,nan,0.0,12.40494,0.0,0.0,nan,0.0,0.0,0.09014515,0.0,0.0,0.0,0.0,0.0,0.0,0.0,0.0
85428935,0.098757066,0.09875723,0.21407285,0.28420097,0.28420106,0.0,0.0,0.0,0.0,0.0,0.0,0.0,nan,nan,nan,nan,nan,nan,0.0,12.404679,0.0,0.0,nan,0.0,0.0,0.09014504,0.0,0.0,0.0,0.0,0.0,0.0,0.0,0.0
85628944,0.09875737,0.098757535,0.21411301,0.28523427,0.28523436,0.0,0.0,0.0,0.0,0.0,0.0,0.0,nan,nan,nan,nan,nan,nan,0.0,12.404928,0.0,0.0,nan,0.0,0.0,0.09014493,0.0,0.0,0.0,0.0,0.0,0.0,0.0,0.0
85828849,0.098758936,0.09875911,0.21408983,0.2862766,0.2862767,0.0,0.0,0.0,0.0,0.0,0.0,0.0,nan,nan,nan,nan,nan,nan,0.0,12.405332,0.0,0.0,nan,0.0,0.0,0.090144835,0.0,0.0,0.0,0.0,0.0,0.0,0.0,0.0
86028850,0.09870084,0.09870101,0.21408513,0.28610867,0.28610876,0.0,0.0,0.0,0.0,0.0,0.0,0.0,nan,nan,nan,nan,nan,nan,0.0,12.405218,0.0,0.0,nan,0.0,0.0,0.09014473,0.0,0.0,0.0,0.0,0.0,0.0,0.0,0.0
86228849,0.09871492,0.09871509,0.2140665,0.28616092,0.286161,0.0,0.0,0.0,0.0,0.0,0.0,0.0,nan,nan,nan,nan,nan,nan,0.0,12.405646,0.0,0.0,nan,0.0,0.0,0.090144634,0.0,0.0,0.0,0.0,0.0,0.0,0.0,0.0
86428852,0.098726176,0.09872635,0.21404834,0.28722346,0.28722352,0.0,0.0,0.0,0.0,0.0,0.0,0.0,nan,nan,nan,nan,nan,nan,0.0,12.404829,0.0,0.0,nan,0.0,0.0,0.09014454,0.0,0.0,0.0,0.0,0.0,0.0,0.0,0.0
86628862,0.098736346,0.09873652,0.21409078,0.2872733,0.28727338,0.0,0.0,0.0,0.0,0.0,0.0,0.0,nan,nan,nan,nan,nan,nan,0.0,12.404732,0.0,0.0,nan,0.0,0.0,0.09014444,0.0,0.0,0.0,0.0,0.0,0.0,0.0,0.0
86828849,0.09874531,0.09874548,0.21407333,0.2883352,0.2883353,0.0,0.0,0.0,0.0,0.0,0.0,0.0,nan,nan,nan,nan,nan,nan,0.0,12.405181,0.0,0.0,nan,0.0,0.0,0.09014434,0.0,0.0,0.0,0.0,0.0,0.0,0.0,0.0
87028849,0.09875195,0.09875211,0.21405657,0.28838256,0.28838265,0.0,0.0,0.0,0.0,0.0,0.0,0.0,nan,nan,nan,nan,nan,nan,0.0,12.404386,0.0,0.0,nan,0.0,0.0,0.090144254,0.0,0.0,0.0,0.0,0.0,0.0,0.0,0.0
87228849,0.09875866,0.09875883,0.2140993,0.28842303,0.28842312,0.0,0.0,0.0,0.0,0.0,0.0,0.0,nan,nan,nan,nan,nan,nan,0.0,12.405351,0.0,0.0,nan,0.0,0.0,0.090144165,0.0,0.0,0.0,0.0,0.0,0.0,0.0,0.0
87428849,0.09876305,0.09876321,0.21408056,0.28845757,0.2884577,0.0,0.0,0.0,0.0,0.0,0.0,0.0,nan,nan,nan,nan,nan,nan,0.0,12.40525,0.0,0.0,nan,0.0,0.0,0.09014407,0.0,0.0,0.0,0.0,0.0,0.0,0.0,0.0
87628849,0.098766685,0.09876685,0.21406265,0.2884868,0.2884869,0.0,0.0,0.0,0.0,0.0,0.0,0.0,nan,nan,nan,nan,nan,nan,0.0,12.404444,0.0,0.0,nan,0.0,0.0,0.090143986,0.0,0.0,0.0,0.0,0.0,0.0,0.0,0.0
87828862,0.09876934,0.0987695,0.2140445,0.28851146,0.28851157,0.0,0.0,0.0,0.0,0.0,0.0,0.0,nan,nan,nan,nan,nan,nan,0.0,12.404886,0.0,0.0,nan,0.0,0.0,0.0901439,0.0,0.0,0.0,0.0,0.0,0.0,0.0,0.0
88028849,0.09883232,0.09883249,0.21406968,0.28873578,0.28873587,0.0,0.0,0.0,0.0,0.0,0.0,0.0,nan,nan,nan,nan,nan,nan,0.0,12.404799,0.0,0.0,nan,0.0,0.0,0.090143815,0.0,0.0,0.0,0.0,0.0,0.0,0.0,0.0
88228874,0.09882163,0.0988218,0.21410948,0.2887281,0.28872818,0.0,0.0,0.0,0.0,0.0,0.0,0.0,nan,nan,nan,nan,nan,nan,0.0,12.405252,0.0,0.0,nan,0.0,0.0,0.09014372,0.0,0.0,0.0,0.0,0.0,0.0,0.0,0.0
88428849,0.09881316,0.098813325,0.2140896,0.2887198,0.2887199,0.0,0.0,0.0,0.0,0.0,0.0,0.0,nan,nan,nan,nan,nan,nan,0.0,12.404455,0.0,0.0,nan,0.0,0.0,0.090143636,0.0,0.0,0.0,0.0,0.0,0.0,0.0,0.0
88628890,0.098805964,0.09880613,0.21406996,0.28973222,0.2897323,0.0,0.0,0.0,0.0,0.0,0.0,0.0,nan,nan,nan,nan,nan,nan,0.0,12.404904,0.0,0.0,nan,0.0,0.0,0.09014355,0.0,0.0,0.0,0.0,0.0,0.0,0.0,0.0
88828854,0.09880135,0.09880152,0.21410927,0.29075727,0.29075736,0.0,0.0,0.0,0.0,0.0,0.0,0.0,nan,nan,nan,nan,nan,nan,0.0,12.405343,0.0,0.0,nan,0.0,0.0,0.09014347,0.0,0.0,0.0,0.0,0.0,0.0,0.0,0.0
89028858,0.09873952,0.09873968,0.21404588,0.29056567,0.29056576,0.0,0.0,0.0,0.0,0.0,0.0,0.0,nan,nan,nan,nan,nan,nan,0.0,12.40454,0.0,0.0,nan,0.0,0.0,0.0901434,0.0,0.0,0.0,0.0,0.0,0.0,0.0,0.0
89228849,0.098749496,0.09874967,0.21408865,0.2916239,0.29162398,0.0,0.0,0.0,0.0,0.0,0.0,0.0,nan,nan,nan,nan,nan,nan,0.0,12.404996,0.0,0.0,nan,0.0,0.0,0.090143315,0.0,0.0,0.0,0.0,0.0,0.0,0.0,0.0
89428849,0.09875928,0.09875945,0.21407098,0.2926902,0.29269028,0.0,0.0,0.0,0.0,0.0,0.0,0.0,nan,nan,nan,nan,nan,nan,0.0,12.405428,0.0,0.0,nan,0.0,0.0,0.09014324,0.0,0.0,0.0,0.0,0.0,0.0,0.0,0.0
89628864,0.09876923,0.0987694,0.21405162,0.2927346,0.29273465,0.0,0.0,0.0,0.0,0.0,0.0,0.0,nan,nan,nan,nan,nan,nan,0.0,12.405144,0.0,0.0,nan,0.0,0.0,0.09014317,0.0,0.0,0.0,0.0,0.0,0.0,0.0,0.0
89828849,0.09877678,0.09877696,0.21409291,0.29380202,0.29380208,0.0,0.0,0.0,0.0,0.0,0.0,0.0,nan,nan,nan,nan,nan,nan,0.0,12.405045,0.0,0.0,nan,0.0,0.0,0.090143085,0.0,0.0,0.0,0.0,0.0,0.0,0.0,0.0
90028849,0.09878382,0.098784,0.21407491,0.29487634,0.2948764,0.0,0.0,0.0,0.0,0.0,0.0,0.0,nan,nan,nan,nan,nan,nan,0.0,12.404959,0.0,0.0,nan,0.0,0.0,0.09014301,0.0,0.0,0.0,0.0,0.0,0.0,0.0,0.0
90228851,0.098851815,0.09885199,0.2140998,0.29616117,0.29616123,0.0,0.0,0.0,0.0,0.0,0.0,0.0,nan,nan,nan,nan,nan,nan,0.0,12.405212,0.0,0.0,nan,0.0,0.0,0.090142936,0.0,0.0,0.0,0.0,0.0,0.0,0.0,0.0
90428849,0.09878533,0.09878551,0.2140949,0.29598325,0.2959833,0.0,0.0,0.0,0.0,0.0,0.0,0.0,nan,nan,nan,nan,nan,nan,0.0,12.405102,0.0,0.0,nan,0.0,0.0,0.09014287,0.0,0.0,0.0,0.0,0.0,0.0,0.0,0.0
90628849,0.09885343,0.09885362,0.21411824,0.2972685,0.29726857,0.0,0.0,0.0,0.0,0.0,0.0,0.0,nan,nan,nan,nan,nan,nan,0.0,12.405534,0.0,0.0,nan,0.0,0.0,0.090142794,0.0,0.0,0.0,0.0,0.0,0.0,0.0,0.0
90828849,0.0988473,0.098847486,0.21409681,0.29833037,0.29833043,0.0,0.0,0.0,0.0,0.0,0.0,0.0,nan,nan,nan,nan,nan,nan,0.0,12.404713,0.0,0.0,nan,0.0,0.0,0.09014273,0.0,0.0,0.0,0.0,0.0,0.0,0.0,0.0
91028851,0.09884368,0.098843865,0.2140754,0.29836044,0.2983605,0.0,0.0,0.0,0.0,0.0,0.0,0.0,nan,nan,nan,nan,nan,nan,0.0,12.404618,0.0,0.0,nan,0.0,0.0,0.09014266,0.0,0.0,0.0,0.0,0.0,0.0,0.0,0.0
91228853,0.09884041,0.098840594,0.21411528,0.2994237,0.29942375,0.0,0.0,0.0,0.0,0.0,0.0,0.0,nan,nan,nan,nan,nan,nan,0.0,12.405063,0.0,0.0,nan,0.0,0.0,0.09014259,0.0,0.0,0.0,0.0,0.0,0.0,0.0,0.0
91428849,0.09883839,0.098838575,0.2140953,0.30049452,0.30049458,0.0,0.0,0.0,0.0,0.0,0.0,0.0,nan,nan,nan,nan,nan,nan,0.0,12.404981,0.0,0.0,nan,0.0,0.0,0.090142526,0.0,0.0,0.0,0.0,0.0,0.0,0.0,0.0
91628849,0.09883788,0.098838076,0.21407565,0.30052918,0.30052927,0.0,0.0,0.0,0.0,0.0,0.0,0.0,nan,nan,nan,nan,nan,nan,0.0,12.4047165,0.0,0.0,nan,0.0,0.0,0.090142466,0.0,0.0,0.0,0.0,0.0,0.0,0.0,0.0
91828854,0.09877667,0.098776855,0.21407305,0.30139604,0.30139613,0.0,0.0,0.0,0.0,0.0,0.0,0.0,nan,nan,nan,nan,nan,nan,0.0,12.404969,0.0,0.0,nan,0.0,0.0,0.0901424,0.0,0.0,0.0,0.0,0.0,0.0,0.0,0.0
93228916,0.098790474,0.09879066,0.21404728,0.30581638,0.30581647,0.0,0.0,0.0,0.0,0.0,0.0,0.0,nan,nan,nan,nan,nan,nan,0.0,12.404378,0.0,0.0,nan,0.0,0.0,0.090141974,0.0,0.0,0.0,0.0,0.0,0.0,0.0,0.0
93428898,0.09886621,0.0988664,0.21407288,0.30608255,0.30608264,0.0,0.0,0.0,0.0,0.0,0.0,0.0,nan,nan,nan,nan,nan,nan,0.0,12.405334,0.0,0.0,nan,0.0,0.0,0.09014192,0.0,0.0,0.0,0.0,0.0,0.0,0.0,0.0
93628858,0.09886611,0.098866306,0.2141121,0.30716375,0.30716383,0.0,0.0,0.0,0.0,0.0,0.0,0.0,nan,nan,nan,nan,nan,nan,0.0,12.405225,0.0,0.0,nan,0.0,0.0,0.09014186,0.0,0.0,0.0,0.0,0.0,0.0,0.0,0.0
93828858,0.09886622,0.09886641,0.21409203,0.30825222,0.3082523,0.0,0.0,0.0,0.0,0.0,0.0,0.0,nan,nan,nan,nan,nan,nan,0.0,12.404414,0.0,0.0,nan,0.0,0.0,0.09014181,0.0,0.0,0.0,0.0,0.0,0.0,0.0,0.0
94028849,0.098867826,0.09886801,0.21407191,0.30829015,0.30829024,0.0,0.0,0.0,0.0,0.0,0.0,0.0,nan,nan,nan,nan,nan,nan,0.0,12.404848,0.0,0.0,nan,0.0,0.0,0.09014176,0.0,0.0,0.0,0.0,0.0,0.0,0.0,0.0
94228849,0.09886954,0.098869726,0.21405266,0.3093788,0.3093789,0.0,0.0,0.0,0.0,0.0,0.0,0.0,nan,nan,nan,nan,nan,nan,0.0,12.40476,0.0,0.0,nan,0.0,0.0,0.090141706,0.0,0.0,0.0,0.0,0.0,0.0,0.0,0.0
94428849,0.09887212,0.09887231,0.21409367,0.3094153,0.30941537,0.0,0.0,0.0,0.0,0.0,0.0,0.0,nan,nan,nan,nan,nan,nan,0.0,12.405211,0.0,0.0,nan,0.0,0.0,0.09014166,0.0,0.0,0.0,0.0,0.0,0.0,0.0,0.0
94628870,0.09881295,0.09881313,0.21403253,0.31029868,0.31029877,0.0,0.0,0.0,0.0,0.0,0.0,0.0,nan,nan,nan,nan,nan,nan,0.0,12.404422,0.0,0.0,nan,0.0,0.0,0.0901416,0.0,0.0,0.0,0.0,0.0,0.0,0.0,0.0
94828849,0.09894926,0.098949455,0.21410236,0.3107732,0.31077325,0.0,0.0,0.0,0.0,0.0,0.0,0.0,nan,nan,nan,nan,nan,nan,0.0,12.404864,0.0,0.0,nan,0.0,0.0,0.09014155,0.0,0.0,0.0,0.0,0.0,0.0,0.0,0.0
95028850,0.098875746,0.09887593,0.21409701,0.3116287,0.3116288,0.0,0.0,0.0,0.0,0.0,0.0,0.0,nan,nan,nan,nan,nan,nan,0.0,12.405111,0.0,0.0,nan,0.0,0.0,0.090141505,0.0,0.0,0.0,0.0,0.0,0.0,0.0,0.0
95228852,0.09881812,0.09881831,0.21409276,0.31145734,0.31145743,0.0,0.0,0.0,0.0,0.0,0.0,0.0,nan,nan,nan,nan,nan,nan,0.0,12.404991,0.0,0.0,nan,0.0,0.0,0.09014145,0.0,0.0,0.0,0.0,0.0,0.0,0.0,0.0
95428850,0.09889346,0.09889365,0.21411705,0.31171757,0.31171763,0.0,0.0,0.0,0.0,0.0,0.0,0.0,nan,nan,nan,nan,nan,nan,0.0,12.405407,0.0,0.0,nan,0.0,0.0,0.09014141,0.0,0.0,0.0,0.0,0.0,0.0,0.0,0.0
95628855,0.098893456,0.09889364,0.2140961,0.31280282,0.3128029,0.0,0.0,0.0,0.0,0.0,0.0,0.0,nan,nan,nan,nan,nan,nan,0.0,12.405297,0.0,0.0,nan,0.0,0.0,0.090141356,0.0,0.0,0.0,0.0,0.0,0.0,0.0,0.0
95828849,0.09889404,0.09889422,0.21407568,0.31283125,0.31283134,0.0,0.0,0.0,0.0,0.0,0.0,0.0,nan,nan,nan,nan,nan,nan,0.0,12.405013,0.0,0.0,nan,0.0,0.0,0.09014131,0.0,0.0,0.0,0.0,0.0,0.0,0.0,0.0
96028851,0.09889427,0.098894455,0.21405578,0.3128548,0.31285492,0.0,0.0,0.0,0.0,0.0,0.0,0.0,nan,nan,nan,nan,nan,nan,0.0,12.404913,0.0,0.0,nan,0.0,0.0,0.09014127,0.0,0.0,0.0,0.0,0.0,0.0,0.0,0.0
96228858,0.09883467,0.09883486,0.21405421,0.31373233,0.31373242,0.0,0.0,0.0,0.0,0.0,0.0,0.0,nan,nan,nan,nan,nan,nan,0.0,12.404832,0.0,0.0,nan,0.0,0.0,0.09014123,0.0,0.0,0.0,0.0,0.0,0.0,0.0,0.0
96428849,0.098909296,0.09890949,0.21408108,0.31398982,0.31398988,0.0,0.0,0.0,0.0,0.0,0.0,0.0,nan,nan,nan,nan,nan,nan,0.0,12.405089,0.0,0.0,nan,0.0,0.0,0.09014118,0.0,0.0,0.0,0.0,0.0,0.0,0.0,0.0
96628849,0.098848164,0.09884836,0.214078,0.3138021,0.31380218,0.0,0.0,0.0,0.0,0.0,0.0,0.0,nan,nan,nan,nan,nan,nan,0.0,12.4049835,0.0,0.0,nan,0.0,0.0,0.09014113,0.0,0.0,0.0,0.0,0.0,0.0,0.0,0.0
96828861,0.098859705,0.09885989,0.21406054,0.31490925,0.31490934,0.0,0.0,0.0,0.0,0.0,0.0,0.0,nan,nan,nan,nan,nan,nan,0.0,12.405426,0.0,0.0,nan,0.0,0.0,0.090141095,0.0,0.0,0.0,0.0,0.0,0.0,0.0,0.0
97028895,0.09887075,0.09887093,0.2140438,0.31495437,0.31495446,0.0,0.0,0.0,0.0,0.0,0.0,0.0,nan,nan,nan,nan,nan,nan,0.0,12.404616,0.0,0.0,nan,0.0,0.0,0.09014105,0.0,0.0,0.0,0.0,0.0,0.0,0.0,0.0
97228849,0.09887988,0.09888006,0.21408683,0.3149935,0.31499356,0.0,0.0,0.0,0.0,0.0,0.0,0.0,nan,nan,nan,nan,nan,nan,0.0,12.404533,0.0,0.0,nan,0.0,0.0,0.09014101,0.0,0.0,0.0,0.0,0.0,0.0,0.0,0.0
97428884,0.09894761,0.09894779,0.21411315,0.31630456,0.31630462,0.0,0.0,0.0,0.0,0.0,0.0,0.0,nan,nan,nan,nan,nan,nan,0.0,12.404982,0.0,0.0,nan,0.0,0.0,0.09014097,0.0,0.0,0.0,0.0,0.0,0.0,0.0,0.0
97628853,0.098942354,0.09894253,0.21409386,0.3163193,0.31631938,0.0,0.0,0.0,0.0,0.0,0.0,0.0,nan,nan,nan,nan,nan,nan,0.0,12.404904,0.0,0.0,nan,0.0,0.0,0.09014094,0.0,0.0,0.0,0.0,0.0,0.0,0.0,0.0
97828849,0.098937444,0.09893762,0.21407482,0.31633067,0.31633076,0.0,0.0,0.0,0.0,0.0,0.0,0.0,nan,nan,nan,nan,nan,nan,0.0,12.404645,0.0,0.0,nan,0.0,0.0,0.090140894,0.0,0.0,0.0,0.0,0.0,0.0,0.0,0.0
98028850,0.098933086,0.09893326,0.21411535,0.3174102,0.3174103,0.0,0.0,0.0,0.0,0.0,0.0,0.0,nan,nan,nan,nan,nan,nan,0.0,12.405608,0.0,0.0,nan,0.0,0.0,0.09014086,0.0,0.0,0.0,0.0,0.0,0.0,0.0,0.0
98228895,0.09893061,0.09893078,0.21409298,0.31742665,0.31742674,0.0,0.0,0.0,0.0,0.0,0.0,0.0,nan,nan,nan,nan,nan,nan,0.0,12.405306,0.0,0.0,nan,0.0,0.0,0.09014082,0.0,0.0,0.0,0.0,0.0,0.0,0.0,0.0
98428849,0.09892898,0.09892915,0.21407081,0.3174398,0.31743988,0.0,0.0,0.0,0.0,0.0,0.0,0.0,nan,nan,nan,nan,nan,nan,0.0,12.405187,0.0,0.0,nan,0.0,0.0,0.09014078,0.0,0.0,0.0,0.0,0.0,0.0,0.0,0.0
98628849,0.098927535,0.09892771,0.2141096,0.31745023,0.3174503,0.0,0.0,0.0,0.0,0.0,0.0,0.0,nan,nan,nan,nan,nan,nan,0.0,12.405609,0.0,0.0,nan,0.0,0.0,0.090140745,0.0,0.0,0.0,0.0,0.0,0.0,0.0,0.0
98828852,0.09892548,0.09892564,0.21408872,0.31853133,0.31853142,0.0,0.0,0.0,0.0,0.0,0.0,0.0,nan,nan,nan,nan,nan,nan,0.0,12.404788,0.0,0.0,nan,0.0,0.0,0.090140715,0.0,0.0,0.0,0.0,0.0,0.0,0.0,0.0
99028852,0.09892471,0.098924875,0.21406834,0.31854776,0.31854784,0.0,0.0,0.0,0.0,0.0,0.0,0.0,nan,nan,nan,nan,nan,nan,0.0,12.404686,0.0,0.0,nan,0.0,0.0,0.09014068,0.0,0.0,0.0,0.0,0.0,0.0,0.0,0.0
99228849,0.09886402,0.098864175,0.21406609,0.31835335,0.31835344,0.0,0.0,0.0,0.0,0.0,0.0,0.0,nan,nan,nan,nan,nan,nan,0.0,12.405135,0.0,0.0,nan,0.0,0.0,0.09014064,0.0,0.0,0.0,0.0,0.0,0.0,0.0,0.0
100628849,0.09893368,0.09893383,0.2140941,0.3208178,0.3208179,0.0,0.0,0.0,0.0,0.0,0.0,0.0,nan,nan,nan,nan,nan,nan,0.0,12.405185,0.0,0.0,nan,0.0,0.0,0.090140425,0.0,0.0,0.0,0.0,0.0,0.0,0.0,0.0
100828859,0.09893499,0.098935135,0.21407557,0.32083166,0.32083172,0.0,0.0,0.0,0.0,0.0,0.0,0.0,nan,nan,nan,nan,nan,nan,0.0,12.404391,0.0,0.0,nan,0.0,0.0,0.090140395,0.0,0.0,0.0,0.0,0.0,0.0,0.0,0.0
101028851,0.09893642,0.09893657,0.21405734,0.3208432,0.32084328,0.0,0.0,0.0,0.0,0.0,0.0,0.0,nan,nan,nan,nan,nan,nan,0.0,12.404841,0.0,0.0,nan,0.0,0.0,0.090140365,0.0,0.0,0.0,0.0,0.0,0.0,0.0,0.0
101228890,0.09893705,0.0989372,0.21409781,0.3208528,0.32085285,0.0,0.0,0.0,0.0,0.0,0.0,0.0,nan,nan,nan,nan,nan,nan,0.0,12.405281,0.0,0.0,nan,0.0,0.0,0.09014034,0.0,0.0,0.0,0.0,0.0,0.0,0.0,0.0
101428853,0.098936796,0.09893693,0.21407816,0.32193977,0.32193983,0.0,0.0,0.0,0.0,0.0,0.0,0.0,nan,nan,nan,nan,nan,nan,0.0,12.404475,0.0,0.0,nan,0.0,0.0,0.09014031,0.0,0.0,0.0,0.0,0.0,0.0,0.0,0.0
101628849,0.098939165,0.09893931,0.21405894,0.3219564,0.32195646,0.0,0.0,0.0,0.0,0.0,0.0,0.0,nan,nan,nan,nan,nan,nan,0.0,12.404926,0.0,0.0,nan,0.0,0.0,0.090140276,0.0,0.0,0.0,0.0,0.0,0.0,0.0,0.0
101828881,0.09894184,0.09894199,0.21410002,0.3219703,0.32197037,0.0,0.0,0.0,0.0,0.0,0.0,0.0,nan,nan,nan,nan,nan,nan,0.0,12.404846,0.0,0.0,nan,0.0,0.0,0.09014026,0.0,0.0,0.0,0.0,0.0,0.0,0.0,0.0
102028852,0.09894363,0.09894378,0.21408127,0.321982,0.32198206,0.0,0.0,0.0,0.0,0.0,0.0,0.0,nan,nan,nan,nan,nan,nan,0.0,12.404053,0.0,0.0,nan,0.0,0.0,0.09014023,0.0,0.0,0.0,0.0,0.0,0.0,0.0,0.0
102228856,0.098943844,0.098944,0.21406281,0.32199177,0.32199183,0.0,0.0,0.0,0.0,0.0,0.0,0.0,nan,nan,nan,nan,nan,nan,0.0,12.404513,0.0,0.0,nan,0.0,0.0,0.0901402,0.0,0.0,0.0,0.0,0.0,0.0,0.0,0.0
102428849,0.09894367,0.09894382,0.214045,0.323081,0.32308105,0.0,0.0,0.0,0.0,0.0,0.0,0.0,nan,nan,nan,nan,nan,nan,0.0,12.40445,0.0,0.0,nan,0.0,0.0,0.09014018,0.0,0.0,0.0,0.0,0.0,0.0,0.0,0.0
102628849,0.09894712,0.09894729,0.21408758,0.32309774,0.3230978,0.0,0.0,0.0,0.0,0.0,0.0,0.0,nan,nan,nan,nan,nan,nan,0.0,12.404931,0.0,0.0,nan,0.0,0.0,0.09014016,0.0,0.0,0.0,0.0,0.0,0.0,0.0,0.0
102828849,0.09888656,0.09888673,0.2140275,0.32290354,0.3229036,0.0,0.0,0.0,0.0,0.0,0.0,0.0,nan,nan,nan,nan,nan,nan,0.0,12.4041605,0.0,0.0,nan,0.0,0.0,0.09014013,0.0,0.0,0.0,0.0,0.0,0.0,0.0,0.0
103028857,0.098962076,0.09896224,0.21405599,0.3231485,0.32314855,0.0,0.0,0.0,0.0,0.0,0.0,0.0,nan,nan,nan,nan,nan,nan,0.0,12.404112,0.0,0.0,nan,0.0,0.0,0.09014011,0.0,0.0,0.0,0.0,0.0,0.0,0.0,0.0
103228897,0.098960444,0.098960616,0.21409832,0.32315648,0.32315654,0.0,0.0,0.0,0.0,0.0,0.0,0.0,nan,nan,nan,nan,nan,nan,0.0,12.404598,0.0,0.0,nan,0.0,0.0,0.09014008,0.0,0.0,0.0,0.0,0.0,0.0,0.0,0.0
103428851,0.09895871,0.09895888,0.21408121,0.32316288,0.3231629,0.0,0.0,0.0,0.0,0.0,0.0,0.0,nan,nan,nan,nan,nan,nan,0.0,12.404557,0.0,0.0,nan,0.0,0.0,0.09014006,0.0,0.0,0.0,0.0,0.0,0.0,0.0,0.0
103628854,0.098959096,0.09895926,0.21406409,0.32425088,0.32425094,0.0,0.0,0.0,0.0,0.0,0.0,0.0,nan,nan,nan,nan,nan,nan,0.0,12.403791,0.0,0.0,nan,0.0,0.0,0.09014004,0.0,0.0,0.0,0.0,0.0,0.0,0.0,0.0
103828849,0.09895546,0.098955624,0.21404698,0.32426515,0.3242652,0.0,0.0,0.0,0.0,0.0,0.0,0.0,nan,nan,nan,nan,nan,nan,0.0,12.404287,0.0,0.0,nan,0.0,0.0,0.090140015,0.0,0.0,0.0,0.0,0.0,0.0,0.0,0.0
104028849,0.098958194,0.09895836,0.2140901,0.3242769,0.32427695,0.0,0.0,0.0,0.0,0.0,0.0,0.0,nan,nan,nan,nan,nan,nan,0.0,12.404778,0.0,0.0,nan,0.0,0.0,0.09014,0.0,0.0,0.0,0.0,0.0,0.0,0.0,0.0
104228854,0.0988969,0.09889706,0.21402906,0.3240779,0.32407796,0.0,0.0,0.0,0.0,0.0,0.0,0.0,nan,nan,nan,nan,nan,nan,0.0,12.404533,0.0,0.0,nan,0.0,0.0,0.09013998,0.0,0.0,0.0,0.0,0.0,0.0,0.0,0.0
104428857,0.098969124,0.09896929,0.2140558,0.3243195,0.32431957,0.0,0.0,0.0,0.0,0.0,0.0,0.0,nan,nan,nan,nan,nan,nan,0.0,12.404474,0.0,0.0,nan,0.0,0.0,0.09013996,0.0,0.0,0.0,0.0,0.0,0.0,0.0,0.0
104628852,0.09896819,0.09896835,0.2140974,0.32540885,0.3254089,0.0,0.0,0.0,0.0,0.0,0.0,0.0,nan,nan,nan,nan,nan,nan,0.0,12.404959,0.0,0.0,nan,0.0,0.0,0.09013994,0.0,0.0,0.0,0.0,0.0,0.0,0.0,0.0
104828849,0.09896712,0.09896727,0.2140788,0.32542226,0.32542232,0.0,0.0,0.0,0.0,0.0,0.0,0.0,nan,nan,nan,nan,nan,nan,0.0,12.4041815,0.0,0.0,nan,0.0,0.0,0.09013992,0.0,0.0,0.0,0.0,0.0,0.0,0.0,0.0
105028852,0.09896849,0.09896865,0.2140609,0.32543308,0.32543316,0.0,0.0,0.0,0.0,0.0,0.0,0.0,nan,nan,nan,nan,nan,nan,0.0,12.404136,0.0,0.0,nan,0.0,0.0,0.090139896,0.0,0.0,0.0,0.0,0.0,0.0,0.0,0.0
105228849,0.09896616,0.09896631,0.21410261,0.32544214,0.32544222,0.0,0.0,0.0,0.0,0.0,0.0,0.0,nan,nan,nan,nan,nan,nan,0.0,12.404623,0.0,0.0,nan,0.0,0.0,0.09013987,0.0,0.0,0.0,0.0,0.0,0.0,0.0,0.0
105428896,0.09896524,0.098965384,0.21408485,0.32544953,0.3254496,0.0,0.0,0.0,0.0,0.0,0.0,0.0,nan,nan,nan,nan,nan,nan,0.0,12.404584,0.0,0.0,nan,0.0,0.0,0.090139866,0.0,0.0,0.0,0.0,0.0,0.0,0.0,0.0
105628853,0.09890263,0.09890277,0.21402518,0.3263335,0.32633358,0.0,0.0,0.0,0.0,0.0,0.0,0.0,nan,nan,nan,nan,nan,nan,0.0,12.404358,0.0,0.0,nan,0.0,0.0,0.09013984,0.0,0.0,0.0,0.0,0.0,0.0,0.0,0.0
105828849,0.098976545,0.09897669,0.21411188,0.32658195,0.326582,0.0,0.0,0.0,0.0,0.0,0.0,0.0,nan,nan,nan,nan,nan,nan,0.0,12.404826,0.0,0.0,nan,0.0,0.0,0.09013982,0.0,0.0,0.0,0.0,0.0,0.0,0.0,0.0
106028852,0.09897439,0.09897453,0.21409231,0.3265923,0.3265924,0.0,0.0,0.0,0.0,0.0,0.0,0.0,nan,nan,nan,nan,nan,nan,0.0,12.404766,0.0,0.0,nan,0.0,0.0,0.0901398,0.0,0.0,0.0,0.0,0.0,0.0,0.0,0.0
106228849,0.09897309,0.09897322,0.21407309,0.32660073,0.32660082,0.0,0.0,0.0,0.0,0.0,0.0,0.0,nan,nan,nan,nan,nan,nan,0.0,12.404517,0.0,0.0,nan,0.0,0.0,0.09013979,0.0,0.0,0.0,0.0,0.0,0.0,0.0,0.0
106428852,0.09897276,0.0989729,0.21405406,0.32660735,0.32660744,0.0,0.0,0.0,0.0,0.0,0.0,0.0,nan,nan,nan,nan,nan,nan,0.0,12.404461,0.0,0.0,nan,0.0,0.0,0.09013977,0.0,0.0,0.0,0.0,0.0,0.0,0.0,0.0
106628849,0.09897252,0.09897268,0.21409507,0.32661256,0.32661265,0.0,0.0,0.0,0.0,0.0,0.0,0.0,nan,nan,nan,nan,nan,nan,0.0,12.404941,0.0,0.0,nan,0.0,0.0,0.090139754,0.0,0.0,0.0,0.0,0.0,0.0,0.0,0.0
106828875,0.098971814,0.09897196,0.2140766,0.32661656,0.32661662,0.0,0.0,0.0,0.0,0.0,0.0,0.0,nan,nan,nan,nan,nan,nan,0.0,12.404164,0.0,0.0,nan,0.0,0.0,0.09013974,0.0,0.0,0.0,0.0,0.0,0.0,0.0,0.0
107028849,0.09896914,0.098969296,0.21405873,0.32661977,0.32661983,0.0,0.0,0.0,0.0,0.0,0.0,0.0,nan,nan,nan,nan,nan,nan,0.0,12.40412,0.0,0.0,nan,0.0,0.0,0.09013972,0.0,0.0,0.0,0.0,0.0,0.0,0.0,0.0
107228849,0.09896894,0.09896911,0.21410042,0.32771116,0.32771125,0.0,0.0,0.0,0.0,0.0,0.0,0.0,nan,nan,nan,nan,nan,nan,0.0,12.40513,0.0,0.0,nan,0.0,0.0,0.09013971,0.0,0.0,0.0,0.0,0.0,0.0,0.0,0.0
107428849,0.09896899,0.09896916,0.21408087,0.32772315,0.3277232,0.0,0.0,0.0,0.0,0.0,0.0,0.0,nan,nan,nan,nan,nan,nan,0.0,12.404336,0.0,0.0,nan,0.0,0.0,0.090139695,0.0,0.0,0.0,0.0,0.0,0.0,0.0,0.0
107628849,0.09896999,0.09897016,0.21406114,0.32773304,0.3277331,0.0,0.0,0.0,0.0,0.0,0.0,0.0,nan,nan,nan,nan,nan,nan,0.0,12.404803,0.0,0.0,nan,0.0,0.0,0.09013968,0.0,0.0,0.0,0.0,0.0,0.0,0.0,0.0
107828853,0.09897081,0.09897099,0.2141019,0.32774127,0.32774132,0.0,0.0,0.0,0.0,0.0,0.0,0.0,nan,nan,nan,nan,nan,nan,0.0,12.404738,0.0,0.0,nan,0.0,0.0,0.09013967,0.0,0.0,0.0,0.0,0.0,0.0,0.0,0.0
108028849,0.09897142,0.09897159,0.21408337,0.3277481,0.32774818,0.0,0.0,0.0,0.0,0.0,0.0,0.0,nan,nan,nan,nan,nan,nan,0.0,12.40396,0.0,0.0,nan,0.0,0.0,0.09013966,0.0,0.0,0.0,0.0,0.0,0.0,0.0,0.0
108228874,0.0989717,0.09897187,0.21406454,0.32775375,0.32775384,0.0,0.0,0.0,0.0,0.0,0.0,0.0,nan,nan,nan,nan,nan,nan,0.0,12.404432,0.0,0.0,nan,0.0,0.0,0.09013964,0.0,0.0,0.0,0.0,0.0,0.0,0.0,0.0
108428849,0.09891108,0.098911256,0.21406354,0.3275491,0.32754916,0.0,0.0,0.0,0.0,0.0,0.0,0.0,nan,nan,nan,nan,nan,nan,0.0,12.4043865,0.0,0.0,nan,0.0,0.0,0.09013963,0.0,0.0,0.0,0.0,0.0,0.0,0.0,0.0
108628863,0.0989839,0.09898408,0.21409173,0.32887778,0.32887787,0.0,0.0,0.0,0.0,0.0,0.0,0.0,nan,nan,nan,nan,nan,nan,0.0,12.404149,0.0,0.0,nan,0.0,0.0,0.09013961,0.0,0.0,0.0,0.0,0.0,0.0,0.0,0.0
108828849,0.09898345,0.09898363,0.21407224,0.32888877,0.3288889,0.0,0.0,0.0,0.0,0.0,0.0,0.0,nan,nan,nan,nan,nan,nan,0.0,12.404603,0.0,0.0,nan,0.0,0.0,0.090139605,0.0,0.0,0.0,0.0,0.0,0.0,0.0,0.0
109028852,0.098982885,0.098983064,0.21411255,0.32889795,0.328898,0.0,0.0,0.0,0.0,0.0,0.0,0.0,nan,nan,nan,nan,nan,nan,0.0,12.404532,0.0,0.0,nan,0.0,0.0,0.0901396,0.0,0.0,0.0,0.0,0.0,0.0,0.0,0.0
109228849,0.09898152,0.09898171,0.21409331,0.32890552,0.32890558,0.0,0.0,0.0,0.0,0.0,0.0,0.0,nan,nan,nan,nan,nan,nan,0.0,12.405,0.0,0.0,nan,0.0,0.0,0.090139575,0.0,0.0,0.0,0.0,0.0,0.0,0.0,0.0
109428849,0.098980576,0.09898076,0.21407437,0.3289117,0.32891178,0.0,0.0,0.0,0.0,0.0,0.0,0.0,nan,nan,nan,nan,nan,nan,0.0,12.404213,0.0,0.0,nan,0.0,0.0,0.09013956,0.0,0.0,0.0,0.0,0.0,0.0,0.0,0.0
109628884,0.098980665,0.09898085,0.2140557,0.32782564,0.32782573,0.0,0.0,0.0,0.0,0.0,0.0,0.0,nan,nan,nan,nan,nan,nan,0.0,12.404688,0.0,0.0,nan,0.0,0.0,0.090139546,0.0,0.0,0.0,0.0,0.0,0.0,0.0,0.0
109828849,0.098979354,0.09897954,0.21409728,0.32781938,0.32781947,0.0,0.0,0.0,0.0,0.0,0.0,0.0,nan,nan,nan,nan,nan,nan,0.0,12.40463,0.0,0.0,nan,0.0,0.0,0.090139546,0.0,0.0,0.0,0.0,0.0,0.0,0.0,0.0
110028849,0.098977715,0.09897791,0.21407951,0.3278138,0.3278139,0.0,0.0,0.0,0.0,0.0,0.0,0.0,nan,nan,nan,nan,nan,nan,0.0,12.403858,0.0,0.0,nan,0.0,0.0,0.09013953,0.0,0.0,0.0,0.0,0.0,0.0,0.0,0.0
110228849,0.098977014,0.0989772,0.2140609,0.32780865,0.32780874,0.0,0.0,0.0,0.0,0.0,0.0,0.0,nan,nan,nan,nan,nan,nan,0.0,12.405382,0.0,0.0,nan,0.0,0.0,0.090139516,0.0,0.0,0.0,0.0,0.0,0.0,0.0,0.0
110428852,0.098975055,0.098975234,0.2140998,0.32780415,0.32780424,0.0,0.0,0.0,0.0,0.0,0.0,0.0,nan,nan,nan,nan,nan,nan,0.0,12.404556,0.0,0.0,nan,0.0,0.0,0.0901395,0.0,0.0,0.0,0.0,0.0,0.0,0.0,0.0
110628849,0.09897666,0.098976836,0.21407819,0.32779995,0.32780004,0.0,0.0,0.0,0.0,0.0,0.0,0.0,nan,nan,nan,nan,nan,nan,0.0,12.404986,0.0,0.0,nan,0.0,0.0,0.0901395,0.0,0.0,0.0,0.0,0.0,0.0,0.0,0.0
110828858,0.098976575,0.09897675,0.21411783,0.32888734,0.32888743,0.0,0.0,0.0,0.0,0.0,0.0,0.0,nan,nan,nan,nan,nan,nan,0.0,12.404886,0.0,0.0,nan,0.0,0.0,0.090139486,0.0,0.0,0.0,0.0,0.0,0.0,0.0,0.0
111628852,0.098979264,0.09897942,0.21409985,0.3289098,0.32890987,0.0,0.0,0.0,0.0,0.0,0.0,0.0,nan,nan,nan,nan,nan,nan,0.0,12.404906,0.0,0.0,nan,0.0,0.0,0.09013944,0.0,0.0,0.0,0.0,0.0,0.0,0.0,0.0
111828899,0.098979115,0.09897924,0.214082,0.3289136,0.3289137,0.0,0.0,0.0,0.0,0.0,0.0,0.0,nan,nan,nan,nan,nan,nan,0.0,12.404842,0.0,0.0,nan,0.0,0.0,0.090139434,0.0,0.0,0.0,0.0,0.0,0.0,0.0,0.0
112028867,0.09898047,0.0989806,0.21406417,0.32891667,0.32891676,0.0,0.0,0.0,0.0,0.0,0.0,0.0,nan,nan,nan,nan,nan,nan,0.0,12.404058,0.0,0.0,nan,0.0,0.0,0.09013943,0.0,0.0,0.0,0.0,0.0,0.0,0.0,0.0
112228849,0.09898215,0.09898229,0.21404654,0.32891917,0.32891923,0.0,0.0,0.0,0.0,0.0,0.0,0.0,nan,nan,nan,nan,nan,nan,0.0,12.404533,0.0,0.0,nan,0.0,0.0,0.09013942,0.0,0.0,0.0,0.0,0.0,0.0,0.0,0.0
112428856,0.09898185,0.09898198,0.2140894,0.33001435,0.33001444,0.0,0.0,0.0,0.0,0.0,0.0,0.0,nan,nan,nan,nan,nan,nan,0.0,12.404478,0.0,0.0,nan,0.0,0.0,0.09013941,0.0,0.0,0.0,0.0,0.0,0.0,0.0,0.0
112628849,0.09898343,0.098983556,0.21407196,0.33002618,0.33002624,0.0,0.0,0.0,0.0,0.0,0.0,0.0,nan,nan,nan,nan,nan,nan,0.0,12.404236,0.0,0.0,nan,0.0,0.0,0.090139404,0.0,0.0,0.0,0.0,0.0,0.0,0.0,0.0
112828852,0.09898424,0.098984376,0.21405464,0.33003637,0.33003646,0.0,0.0,0.0,0.0,0.0,0.0,0.0,nan,nan,nan,nan,nan,nan,0.0,12.404182,0.0,0.0,nan,0.0,0.0,0.0901394,0.0,0.0,0.0,0.0,0.0,0.0,0.0,0.0
113028849,0.09898319,0.09898332,0.21409746,0.33004522,0.3300453,0.0,0.0,0.0,0.0,0.0,0.0,0.0,nan,nan,nan,nan,nan,nan,0.0,12.4041395,0.0,0.0,nan,0.0,0.0,0.09013939,0.0,0.0,0.0,0.0,0.0,0.0,0.0,0.0
113228871,0.098983265,0.09898339,0.21408074,0.33005273,0.33005282,0.0,0.0,0.0,0.0,0.0,0.0,0.0,nan,nan,nan,nan,nan,nan,0.0,12.40391,0.0,0.0,nan,0.0,0.0,0.09013938,0.0,0.0,0.0,0.0,0.0,0.0,0.0,0.0
113428849,0.09898448,0.0989846,0.21406294,0.3300591,0.33005917,0.0,0.0,0.0,0.0,0.0,0.0,0.0,nan,nan,nan,nan,nan,nan,0.0,12.404377,0.0,0.0,nan,0.0,0.0,0.090139374,0.0,0.0,0.0,0.0,0.0,0.0,0.0,0.0
113828899,0.09892442,0.098924555,0.21404332,0.32985926,0.32985932,0.0,0.0,0.0,0.0,0.0,0.0,0.0,nan,nan,nan,nan,nan,nan,0.0,12.404789,0.0,0.0,nan,0.0,0.0,0.09013936,0.0,0.0,0.0,0.0,0.0,0.0,0.0,0.0
114028852,0.09905735,0.099057496,0.21411292,0.3303092,0.33030924,0.0,0.0,0.0,0.0,0.0,0.0,0.0,nan,nan,nan,nan,nan,nan,0.0,12.404003,0.0,0.0,nan,0.0,0.0,0.09013935,0.0,0.0,0.0,0.0,0.0,0.0,0.0,0.0
114228851,0.098981455,0.098981604,0.21404922,0.33007377,0.33007383,0.0,0.0,0.0,0.0,0.0,0.0,0.0,nan,nan,nan,nan,nan,nan,0.0,12.404478,0.0,0.0,nan,0.0,0.0,0.090139344,0.0,0.0,0.0,0.0,0.0,0.0,0.0,0.0
114428849,0.09898297,0.09898312,0.21409139,0.33007643,0.33007646,0.0,0.0,0.0,0.0,0.0,0.0,0.0,nan,nan,nan,nan,nan,nan,0.0,12.404428,0.0,0.0,nan,0.0,0.0,0.09013934,0.0,0.0,0.0,0.0,0.0,0.0,0.0,0.0
114628851,0.098982915,0.09898307,0.21407378,0.3300786,0.33007866,0.0,0.0,0.0,0.0,0.0,0.0,0.0,nan,nan,nan,nan,nan,nan,0.0,12.403663,0.0,0.0,nan,0.0,0.0,0.09013933,0.0,0.0,0.0,0.0,0.0,0.0,0.0,0.0
114828849,0.09898405,0.098984204,0.21405621,0.3300803,0.33008036,0.0,0.0,0.0,0.0,0.0,0.0,0.0,nan,nan,nan,nan,nan,nan,0.0,12.404665,0.0,0.0,nan,0.0,0.0,0.09013932,0.0,0.0,0.0,0.0,0.0,0.0,0.0,0.0
115028849,0.09898257,0.09898274,0.21409686,0.33008185,0.3300819,0.0,0.0,0.0,0.0,0.0,0.0,0.0,nan,nan,nan,nan,nan,nan,0.0,12.405129,0.0,0.0,nan,0.0,0.0,0.09013932,0.0,0.0,0.0,0.0,0.0,0.0,0.0,0.0
115228856,0.09898393,0.098984085,0.21407779,0.33008298,0.330083,0.0,0.0,0.0,0.0,0.0,0.0,0.0,nan,nan,nan,nan,nan,nan,0.0,12.404341,0.0,0.0,nan,0.0,0.0,0.090139315,0.0,0.0,0.0,0.0,0.0,0.0,0.0,0.0
115428862,0.09898341,0.09898357,0.21405898,0.32899082,0.32899088,0.0,0.0,0.0,0.0,0.0,0.0,0.0,nan,nan,nan,nan,nan,nan,0.0,12.404275,0.0,0.0,nan,0.0,0.0,0.09013931,0.0,0.0,0.0,0.0,0.0,0.0,0.0,0.0
115628857,0.09898282,0.09898298,0.21410054,0.3289815,0.32898155,0.0,0.0,0.0,0.0,0.0,0.0,0.0,nan,nan,nan,nan,nan,nan,0.0,12.404752,0.0,0.0,nan,0.0,0.0,0.0901393,0.0,0.0,0.0,0.0,0.0,0.0,0.0,0.0
115828849,0.09898281,0.098982975,0.2140827,0.32897338,0.32897347,0.0,0.0,0.0,0.0,0.0,0.0,0.0,nan,nan,nan,nan,nan,nan,0.0,12.404695,0.0,0.0,nan,0.0,0.0,0.0901393,0.0,0.0,0.0,0.0,0.0,0.0,0.0,0.0
116028842,0.09898161,0.098981775,0.21406451,0.32896647,0.32896656,0.0,0.0,0.0,0.0,0.0,0.0,0.0,nan,nan,nan,nan,nan,nan,0.0,12.403921,0.0,0.0,nan,0.0,0.0,0.09013929,0.0,0.0,0.0,0.0,0.0,0.0,0.0,0.0
116228859,0.098982394,0.09898256,0.21404696,0.32896045,0.32896054,0.0,0.0,0.0,0.0,0.0,0.0,0.0,nan,nan,nan,nan,nan,nan,0.0,12.404934,0.0,0.0,nan,0.0,0.0,0.090139285,0.0,0.0,0.0,0.0,0.0,0.0,0.0,0.0
116428853,0.098982796,0.09898296,0.2140878,0.32786438,0.32786447,0.0,0.0,0.0,0.0,0.0,0.0,0.0,nan,nan,nan,nan,nan,nan,0.0,12.4051895,0.0,0.0,nan,0.0,0.0,0.09013928,0.0,0.0,0.0,0.0,0.0,0.0,0.0,0.0
116628853,0.09898232,0.09898248,0.21406582,0.3278498,0.3278499,0.0,0.0,0.0,0.0,0.0,0.0,0.0,nan,nan,nan,nan,nan,nan,0.0,12.405083,0.0,0.0,nan,0.0,0.0,0.09013927,0.0,0.0,0.0,0.0,0.0,0.0,0.0,0.0
116828910,0.09898128,0.09898146,0.21410532,0.32783738,0.32783747,0.0,0.0,0.0,0.0,0.0,0.0,0.0,nan,nan,nan,nan,nan,nan,0.0,12.405523,0.0,0.0,nan,0.0,0.0,0.09013927,0.0,0.0,0.0,0.0,0.0,0.0,0.0,0.0
117028892,0.09898086,0.09898104,0.2140846,0.3278268,0.32782686,0.0,0.0,0.0,0.0,0.0,0.0,0.0,nan,nan,nan,nan,nan,nan,0.0,12.404709,0.0,0.0,nan,0.0,0.0,0.09013926,0.0,0.0,0.0,0.0,0.0,0.0,0.0,0.0
117228926,0.09898054,0.09898072,0.21406479,0.32781783,0.32781792,0.0,0.0,0.0,0.0,0.0,0.0,0.0,nan,nan,nan,nan,nan,nan,0.0,12.404622,0.0,0.0,nan,0.0,0.0,0.09013926,0.0,0.0,0.0,0.0,0.0,0.0,0.0,0.0
117428850,0.09898035,0.09898053,0.21410526,0.32781032,0.3278104,0.0,0.0,0.0,0.0,0.0,0.0,0.0,nan,nan,nan,nan,nan,nan,0.0,12.405073,0.0,0.0,nan,0.0,0.0,0.090139255,0.0,0.0,0.0,0.0,0.0,0.0,0.0,0.0
117628849,0.09897914,0.09897932,0.21408628,0.32780403,0.32780412,0.0,0.0,0.0,0.0,0.0,0.0,0.0,nan,nan,nan,nan,nan,nan,0.0,12.404997,0.0,0.0,nan,0.0,0.0,0.09013925,0.0,0.0,0.0,0.0,0.0,0.0,0.0,0.0
117828849,0.09897965,0.09897983,0.21406808,0.32779872,0.3277988,0.0,0.0,0.0,0.0,0.0,0.0,0.0,nan,nan,nan,nan,nan,nan,0.0,12.404738,0.0,0.0,nan,0.0,0.0,0.090139255,0.0,0.0,0.0,0.0,0.0,0.0,0.0,0.0
120028849,0.09898555,0.098985694,0.21408978,0.32779193,0.32779202,0.0,0.0,0.0,0.0,0.0,0.0,0.0,nan,nan,nan,nan,nan,nan,0.0,12.405189,0.0,0.0,nan,0.0,0.0,0.09013921,0.0,0.0,0.0,0.0,0.0,0.0,0.0,0.0
120228849,0.09898325,0.09898339,0.21407072,0.32779023,0.3277903,0.0,0.0,0.0,0.0,0.0,0.0,0.0,nan,nan,nan,nan,nan,nan,0.0,12.404381,0.0,0.0,nan,0.0,0.0,0.09013921,0.0,0.0,0.0,0.0,0.0,0.0,0.0,0.0
120428868,0.09898171,0.09898184,0.21405204,0.32778868,0.32778874,0.0,0.0,0.0,0.0,0.0,0.0,0.0,nan,nan,nan,nan,nan,nan,0.0,12.404824,0.0,0.0,nan,0.0,0.0,0.0901392,0.0,0.0,0.0,0.0,0.0,0.0,0.0,0.0
120628885,0.098980665,0.0989808,0.21409352,0.32778725,0.32778734,0.0,0.0,0.0,0.0,0.0,0.0,0.0,nan,nan,nan,nan,nan,nan,0.0,12.404744,0.0,0.0,nan,0.0,0.0,0.0901392,0.0,0.0,0.0,0.0,0.0,0.0,0.0,0.0
120828899,0.098979816,0.098979935,0.21407528,0.3277861,0.32778618,0.0,0.0,0.0,0.0,0.0,0.0,0.0,nan,nan,nan,nan,nan,nan,0.0,12.403957,0.0,0.0,nan,0.0,0.0,0.0901392,0.0,0.0,0.0,0.0,0.0,0.0,0.0,0.0
121028849,0.09898064,0.09898078,0.21405728,0.3277849,0.327785,0.0,0.0,0.0,0.0,0.0,0.0,0.0,nan,nan,nan,nan,nan,nan,0.0,12.404934,0.0,0.0,nan,0.0,0.0,0.09013919,0.0,0.0,0.0,0.0,0.0,0.0,0.0,0.0
121228849,0.098979704,0.09897984,0.21409813,0.32778388,0.32778397,0.0,0.0,0.0,0.0,0.0,0.0,0.0,nan,nan,nan,nan,nan,nan,0.0,12.40538,0.0,0.0,nan,0.0,0.0,0.090139195,0.0,0.0,0.0,0.0,0.0,0.0,0.0,0.0
121428850,0.09897936,0.098979495,0.21407877,0.32778293,0.32778302,0.0,0.0,0.0,0.0,0.0,0.0,0.0,nan,nan,nan,nan,nan,nan,0.0,12.404574,0.0,0.0,nan,0.0,0.0,0.09013918,0.0,0.0,0.0,0.0,0.0,0.0,0.0,0.0
121628849,0.098978795,0.09897893,0.21406025,0.32778206,0.32778212,0.0,0.0,0.0,0.0,0.0,0.0,0.0,nan,nan,nan,nan,nan,nan,0.0,12.404494,0.0,0.0,nan,0.0,0.0,0.09013919,0.0,0.0,0.0,0.0,0.0,0.0,0.0,0.0
121828886,0.09897828,0.09897841,0.21410161,0.32887226,0.32887232,0.0,0.0,0.0,0.0,0.0,0.0,0.0,nan,nan,nan,nan,nan,nan,0.0,12.404951,0.0,0.0,nan,0.0,0.0,0.09013919,0.0,0.0,0.0,0.0,0.0,0.0,0.0,0.0
122428849,0.09898891,0.09898904,0.21405095,0.32781184,0.3278119,0.0,0.0,0.0,0.0,0.0,0.0,0.0,nan,nan,nan,nan,nan,nan,0.0,12.404572,0.0,0.0,nan,0.0,0.0,0.09013918,0.0,0.0,0.0,0.0,0.0,0.0,0.0,0.0
122628862,0.09898695,0.09898707,0.2140935,0.32780814,0.3278082,0.0,0.0,0.0,0.0,0.0,0.0,0.0,nan,nan,nan,nan,nan,nan,0.0,12.405038,0.0,0.0,nan,0.0,0.0,0.09013917,0.0,0.0,0.0,0.0,0.0,0.0,0.0,0.0
122828852,0.09898572,0.09898585,0.21407436,0.32780468,0.32780474,0.0,0.0,0.0,0.0,0.0,0.0,0.0,nan,nan,nan,nan,nan,nan,0.0,12.404771,0.0,0.0,nan,0.0,0.0,0.09013917,0.0,0.0,0.0,0.0,0.0,0.0,0.0,0.0
123028849,0.09898489,0.09898502,0.21405497,0.32780147,0.32780156,0.0,0.0,0.0,0.0,0.0,0.0,0.0,nan,nan,nan,nan,nan,nan,0.0,12.404691,0.0,0.0,nan,0.0,0.0,0.09013917,0.0,0.0,0.0,0.0,0.0,0.0,0.0,0.0
123228863,0.098982796,0.09898293,0.2140964,0.32779863,0.32779866,0.0,0.0,0.0,0.0,0.0,0.0,0.0,nan,nan,nan,nan,nan,nan,0.0,12.405156,0.0,0.0,nan,0.0,0.0,0.09013917,0.0,0.0,0.0,0.0,0.0,0.0,0.0,0.0
123428858,0.09898089,0.09898103,0.21407764,0.32779604,0.32779607,0.0,0.0,0.0,0.0,0.0,0.0,0.0,nan,nan,nan,nan,nan,nan,0.0,12.404366,0.0,0.0,nan,0.0,0.0,0.09013917,0.0,0.0,0.0,0.0,0.0,0.0,0.0,0.0
123628849,0.098980635,0.09898077,0.21405953,0.32779357,0.32779363,0.0,0.0,0.0,0.0,0.0,0.0,0.0,nan,nan,nan,nan,nan,nan,0.0,12.404303,0.0,0.0,nan,0.0,0.0,0.090139166,0.0,0.0,0.0,0.0,0.0,0.0,0.0,0.0
123828852,0.098980054,0.09898019,0.21410121,0.32779142,0.32779148,0.0,0.0,0.0,0.0,0.0,0.0,0.0,nan,nan,nan,nan,nan,nan,0.0,12.404775,0.0,0.0,nan,0.0,0.0,0.09013916,0.0,0.0,0.0,0.0,0.0,0.0,0.0,0.0
124028849,0.099041715,0.09904185,0.21412618,0.32800058,0.32800066,0.0,0.0,0.0,0.0,0.0,0.0,0.0,nan,nan,nan,nan,nan,nan,0.0,12.403994,0.0,0.0,nan,0.0,0.0,0.090139166,0.0,0.0,0.0,0.0,0.0,0.0,0.0,0.0
124228849,0.09896613,0.098966256,0.21406186,0.32776314,0.3277632,0.0,0.0,0.0,0.0,0.0,0.0,0.0,nan,nan,nan,nan,nan,nan,0.0,12.405505,0.0,0.0,nan,0.0,0.0,0.09013916,0.0,0.0,0.0,0.0,0.0,0.0,0.0,0.0
124428849,0.098967806,0.098967925,0.21410097,0.3277638,0.3277639,0.0,0.0,0.0,0.0,0.0,0.0,0.0,nan,nan,nan,nan,nan,nan,0.0,12.405393,0.0,0.0,nan,0.0,0.0,0.09013916,0.0,0.0,0.0,0.0,0.0,0.0,0.0,0.0
124628854,0.09896859,0.098968714,0.21407959,0.32776454,0.32776463,0.0,0.0,0.0,0.0,0.0,0.0,0.0,nan,nan,nan,nan,nan,nan,0.0,12.4045725,0.0,0.0,nan,0.0,0.0,0.09013916,0.0,0.0,0.0,0.0,0.0,0.0,0.0,0.0
124828852,0.098970816,0.09897094,0.21405923,0.3277653,0.32776535,0.0,0.0,0.0,0.0,0.0,0.0,0.0,nan,nan,nan,nan,nan,nan,0.0,12.405005,0.0,0.0,nan,0.0,0.0,0.09013915,0.0,0.0,0.0,0.0,0.0,0.0,0.0,0.0
125028849,0.09897166,0.09897178,0.21409957,0.32776606,0.32776615,0.0,0.0,0.0,0.0,0.0,0.0,0.0,nan,nan,nan,nan,nan,nan,0.0,12.405448,0.0,0.0,nan,0.0,0.0,0.09013916,0.0,0.0,0.0,0.0,0.0,0.0,0.0,0.0
125228851,0.098973006,0.09897313,0.21407966,0.32776684,0.3277669,0.0,0.0,0.0,0.0,0.0,0.0,0.0,nan,nan,nan,nan,nan,nan,0.0,12.404638,0.0,0.0,nan,0.0,0.0,0.09013915,0.0,0.0,0.0,0.0,0.0,0.0,0.0,0.0
125428852,0.098973215,0.09897335,0.2140606,0.32776764,0.32776773,0.0,0.0,0.0,0.0,0.0,0.0,0.0,nan,nan,nan,nan,nan,nan,0.0,12.404553,0.0,0.0,nan,0.0,0.0,0.09013916,0.0,0.0,0.0,0.0,0.0,0.0,0.0,0.0
125628852,0.09897461,0.09897474,0.21410213,0.32776842,0.3277685,0.0,0.0,0.0,0.0,0.0,0.0,0.0,nan,nan,nan,nan,nan,nan,0.0,12.405013,0.0,0.0,nan,0.0,0.0,0.09013916,0.0,0.0,0.0,0.0,0.0,0.0,0.0,0.0
125828853,0.09897505,0.098975174,0.21408324,0.3277692,0.32776928,0.0,0.0,0.0,0.0,0.0,0.0,0.0,nan,nan,nan,nan,nan,nan,0.0,12.404737,0.0,0.0,nan,0.0,0.0,0.09013915,0.0,0.0,0.0,0.0,0.0,0.0,0.0,0.0
126028857,0.09897559,0.098975725,0.21406315,0.3277699,0.32777,0.0,0.0,0.0,0.0,0.0,0.0,0.0,nan,nan,nan,nan,nan,nan,0.0,12.40464,0.0,0.0,nan,0.0,0.0,0.09013914,0.0,0.0,0.0,0.0,0.0,0.0,0.0,0.0
126228849,0.098976016,0.09897616,0.21410383,0.32777065,0.32777074,0.0,0.0,0.0,0.0,0.0,0.0,0.0,nan,nan,nan,nan,nan,nan,0.0,12.4050865,0.0,0.0,nan,0.0,0.0,0.09013915,0.0,0.0,0.0,0.0,0.0,0.0,0.0,0.0
126428901,0.09897692,0.09897705,0.21408519,0.3277713,0.3277714,0.0,0.0,0.0,0.0,0.0,0.0,0.0,nan,nan,nan,nan,nan,nan,0.0,12.405002,0.0,0.0,nan,0.0,0.0,0.09013915,0.0,0.0,0.0,0.0,0.0,0.0,0.0,0.0
126628874,0.09897698,0.09897711,0.2140663,0.3277719,0.327772,0.0,0.0,0.0,0.0,0.0,0.0,0.0,nan,nan,nan,nan,nan,nan,0.0,12.404736,0.0,0.0,nan,0.0,0.0,0.09013915,0.0,0.0,0.0,0.0,0.0,0.0,0.0,0.0
126828897,0.098976485,0.09897662,0.21404767,0.32777253,0.3277726,0.0,0.0,0.0,0.0,0.0,0.0,0.0,nan,nan,nan,nan,nan,nan,0.0,12.404656,0.0,0.0,nan,0.0,0.0,0.09013914,0.0,0.0,0.0,0.0,0.0,0.0,0.0,0.0
127028849,0.098976746,0.09897688,0.21408974,0.32777306,0.32777312,0.0,0.0,0.0,0.0,0.0,0.0,0.0,nan,nan,nan,nan,nan,nan,0.0,12.40459,0.0,0.0,nan,0.0,0.0,0.09013914,0.0,0.0,0.0,0.0,0.0,0.0,0.0,0.0
127228860,0.09897702,0.098977156,0.21407211,0.32777357,0.32777366,0.0,0.0,0.0,0.0,0.0,0.0,0.0,nan,nan,nan,nan,nan,nan,0.0,12.404862,0.0,0.0,nan,0.0,0.0,0.09013914,0.0,0.0,0.0,0.0,0.0,0.0,0.0,0.0
127428894,0.0989777,0.09897784,0.21405259,0.32777405,0.3277741,0.0,0.0,0.0,0.0,0.0,0.0,0.0,nan,nan,nan,nan,nan,nan,0.0,12.404776,0.0,0.0,nan,0.0,0.0,0.09013914,0.0,0.0,0.0,0.0,0.0,0.0,0.0,0.0
127628862,0.09897895,0.098979086,0.21409342,0.32777438,0.32777444,0.0,0.0,0.0,0.0,0.0,0.0,0.0,nan,nan,nan,nan,nan,nan,0.0,12.405227,0.0,0.0,nan,0.0,0.0,0.09013914,0.0,0.0,0.0,0.0,0.0,0.0,0.0,0.0
127828852,0.0989786,0.098978736,0.21407466,0.3277748,0.32777488,0.0,0.0,0.0,0.0,0.0,0.0,0.0,nan,nan,nan,nan,nan,nan,0.0,12.404425,0.0,0.0,nan,0.0,0.0,0.09013914,0.0,0.0,0.0,0.0,0.0,0.0,0.0,0.0
128028849,0.09897835,0.09897848,0.21405572,0.32777518,0.32777527,0.0,0.0,0.0,0.0,0.0,0.0,0.0,nan,nan,nan,nan,nan,nan,0.0,12.404349,0.0,0.0,nan,0.0,0.0,0.090139136,0.0,0.0,0.0,0.0,0.0,0.0,0.0,0.0
128228854,0.0989776,0.098977745,0.21409753,0.3266865,0.32668656,0.0,0.0,0.0,0.0,0.0,0.0,0.0,nan,nan,nan,nan,nan,nan,0.0,12.40481,0.0,0.0,nan,0.0,0.0,0.09013914,0.0,0.0,0.0,0.0,0.0,0.0,0.0,0.0
128428858,0.09897603,0.09897617,0.21407948,0.3266767,0.32667676,0.0,0.0,0.0,0.0,0.0,0.0,0.0,nan,nan,nan,nan,nan,nan,0.0,12.404745,0.0,0.0,nan,0.0,0.0,0.090139136,0.0,0.0,0.0,0.0,0.0,0.0,0.0,0.0
128628849,0.09897551,0.09897565,0.21406165,0.3266682,0.3266683,0.0,0.0,0.0,0.0,0.0,0.0,0.0,nan,nan,nan,nan,nan,nan,0.0,12.403967,0.0,0.0,nan,0.0,0.0,0.090139136,0.0,0.0,0.0,0.0,0.0,0.0,0.0,0.0
128828851,0.09897516,0.0989753,0.21404444,0.32666093,0.326661,0.0,0.0,0.0,0.0,0.0,0.0,0.0,nan,nan,nan,nan,nan,nan,0.0,12.404973,0.0,0.0,nan,0.0,0.0,0.090139136,0.0,0.0,0.0,0.0,0.0,0.0,0.0,0.0
129028849,0.09897505,0.09897519,0.21408609,0.32665473,0.3266548,0.0,0.0,0.0,0.0,0.0,0.0,0.0,nan,nan,nan,nan,nan,nan,0.0,12.404179,0.0,0.0,nan,0.0,0.0,0.090139136,0.0,0.0,0.0,0.0,0.0,0.0,0.0,0.0
129228849,0.09891496,0.0989151,0.21402411,0.3264401,0.3264402,0.0,0.0,0.0,0.0,0.0,0.0,0.0,nan,nan,nan,nan,nan,nan,0.0,12.404638,0.0,0.0,nan,0.0,0.0,0.09013914,0.0,0.0,0.0,0.0,0.0,0.0,0.0,0.0
129428849,0.09898666,0.09898682,0.21411093,0.32666916,0.32666925,0.0,0.0,0.0,0.0,0.0,0.0,0.0,nan,nan,nan,nan,nan,nan,0.0,12.404562,0.0,0.0,nan,0.0,0.0,0.090139136,0.0,0.0,0.0,0.0,0.0,0.0,0.0,0.0
129628854,0.09898327,0.09898343,0.21409193,0.32666314,0.3266632,0.0,0.0,0.0,0.0,0.0,0.0,0.0,nan,nan,nan,nan,nan,nan,0.0,12.40503,0.0,0.0,nan,0.0,0.0,0.090139136,0.0,0.0,0.0,0.0,0.0,0.0,0.0,0.0
129828888,0.09898038,0.098980546,0.21407363,0.3266579,0.32665795,0.0,0.0,0.0,0.0,0.0,0.0,0.0,nan,nan,nan,nan,nan,nan,0.0,12.404241,0.0,0.0,nan,0.0,0.0,0.090139136,0.0,0.0,0.0,0.0,0.0,0.0,0.0,0.0
130028849,0.09898001,0.09898017,0.21405512,0.3266531,0.32665318,0.0,0.0,0.0,0.0,0.0,0.0,0.0,nan,nan,nan,nan,nan,nan,0.0,12.404181,0.0,0.0,nan,0.0,0.0,0.090139136,0.0,0.0,0.0,0.0,0.0,0.0,0.0,0.0
130228854,0.09897672,0.09897688,0.21409732,0.32664907,0.32664916,0.0,0.0,0.0,0.0,0.0,0.0,0.0,nan,nan,nan,nan,nan,nan,0.0,12.404662,0.0,0.0,nan,0.0,0.0,0.090139136,0.0,0.0,0.0,0.0,0.0,0.0,0.0,0.0
130428886,0.09897606,0.09897622,0.21408005,0.32773462,0.32773468,0.0,0.0,0.0,0.0,0.0,0.0,0.0,nan,nan,nan,nan,nan,nan,0.0,12.404616,0.0,0.0,nan,0.0,0.0,0.090139136,0.0,0.0,0.0,0.0,0.0,0.0,0.0,0.0
130628897,0.09897756,0.098977715,0.21406281,0.32774165,0.3277417,0.0,0.0,0.0,0.0,0.0,0.0,0.0,nan,nan,nan,nan,nan,nan,0.0,12.403847,0.0,0.0,nan,0.0,0.0,0.090139136,0.0,0.0,0.0,0.0,0.0,0.0,0.0,0.0
130828849,0.0989784,0.09897855,0.21404567,0.3277477,0.3277478,0.0,0.0,0.0,0.0,0.0,0.0,0.0,nan,nan,nan,nan,nan,nan,0.0,12.404332,0.0,0.0,nan,0.0,0.0,0.090139136,0.0,0.0,0.0,0.0,0.0,0.0,0.0,0.0
131028849,0.09897841,0.09897855,0.21408835,0.327753,0.32775307,0.0,0.0,0.0,0.0,0.0,0.0,0.0,nan,nan,nan,nan,nan,nan,0.0,12.404292,0.0,0.0,nan,0.0,0.0,0.09013913,0.0,0.0,0.0,0.0,0.0,0.0,0.0,0.0
131228849,0.09897797,0.09897811,0.21407127,0.3277575,0.32775757,0.0,0.0,0.0,0.0,0.0,0.0,0.0,nan,nan,nan,nan,nan,nan,0.0,12.404062,0.0,0.0,nan,0.0,0.0,0.09013913,0.0,0.0,0.0,0.0,0.0,0.0,0.0,0.0
131428853,0.09897785,0.098978,0.21405412,0.32776132,0.32776138,0.0,0.0,0.0,0.0,0.0,0.0,0.0,nan,nan,nan,nan,nan,nan,0.0,12.404023,0.0,0.0,nan,0.0,0.0,0.09013913,0.0,0.0,0.0,0.0,0.0,0.0,0.0,0.0
131628852,0.098979175,0.09897933,0.21409696,0.32776448,0.32776457,0.0,0.0,0.0,0.0,0.0,0.0,0.0,nan,nan,nan,nan,nan,nan,0.0,12.403994,0.0,0.0,nan,0.0,0.0,0.090139136,0.0,0.0,0.0,0.0,0.0,0.0,0.0,0.0
131828879,0.09897893,0.098979086,0.2140804,0.32776722,0.32776728,0.0,0.0,0.0,0.0,0.0,0.0,0.0,nan,nan,nan,nan,nan,nan,0.0,12.404505,0.0,0.0,nan,0.0,0.0,0.090139136,0.0,0.0,0.0,0.0,0.0,0.0,0.0,0.0
132028849,0.09897778,0.09897794,0.21406423,0.32776946,0.32776955,0.0,0.0,0.0,0.0,0.0,0.0,0.0,nan,nan,nan,nan,nan,nan,0.0,12.403749,0.0,0.0,nan,0.0,0.0,0.09013913,0.0,0.0,0.0,0.0,0.0,0.0,0.0,0.0
132228849,0.09897914,0.09897929,0.2140474,0.32777113,0.32777122,0.0,0.0,0.0,0.0,0.0,0.0,0.0,nan,nan,nan,nan,nan,nan,0.0,12.4037285,0.0,0.0,nan,0.0,0.0,0.09013913,0.0,0.0,0.0,0.0,0.0,0.0,0.0,0.0
132428853,0.09897894,0.098979086,0.21409075,0.32777256,0.32777262,0.0,0.0,0.0,0.0,0.0,0.0,0.0,nan,nan,nan,nan,nan,nan,0.0,12.404239,0.0,0.0,nan,0.0,0.0,0.090139136,0.0,0.0,0.0,0.0,0.0,0.0,0.0,0.0
132628849,0.09897865,0.0989788,0.21407434,0.3277737,0.32777378,0.0,0.0,0.0,0.0,0.0,0.0,0.0,nan,nan,nan,nan,nan,nan,0.0,12.403493,0.0,0.0,nan,0.0,0.0,0.090139136,0.0,0.0,0.0,0.0,0.0,0.0,0.0,0.0
132828850,0.098978266,0.098978415,0.21405731,0.32777467,0.32777473,0.0,0.0,0.0,0.0,0.0,0.0,0.0,nan,nan,nan,nan,nan,nan,0.0,12.404,0.0,0.0,nan,0.0,0.0,0.09013913,0.0,0.0,0.0,0.0,0.0,0.0,0.0,0.0
133028849,0.09897791,0.09897806,0.21404068,0.32777548,0.32777554,0.0,0.0,0.0,0.0,0.0,0.0,0.0,nan,nan,nan,nan,nan,nan,0.0,12.403981,0.0,0.0,nan,0.0,0.0,0.090139136,0.0,0.0,0.0,0.0,0.0,0.0,0.0,0.0
133228852,0.098977014,0.098977156,0.21408412,0.3277761,0.32777616,0.0,0.0,0.0,0.0,0.0,0.0,0.0,nan,nan,nan,nan,nan,nan,0.0,12.4037695,0.0,0.0,nan,0.0,0.0,0.09013913,0.0,0.0,0.0,0.0,0.0,0.0,0.0,0.0
133428891,0.09897778,0.09897792,0.21406583,0.32777652,0.3277766,0.0,0.0,0.0,0.0,0.0,0.0,0.0,nan,nan,nan,nan,nan,nan,0.0,12.404259,0.0,0.0,nan,0.0,0.0,0.09013913,0.0,0.0,0.0,0.0,0.0,0.0,0.0,0.0
133628849,0.09897757,0.09897773,0.21410745,0.32886788,0.32886794,0.0,0.0,0.0,0.0,0.0,0.0,0.0,nan,nan,nan,nan,nan,nan,0.0,12.404216,0.0,0.0,nan,0.0,0.0,0.090139136,0.0,0.0,0.0,0.0,0.0,0.0,0.0,0.0
133828849,0.098979,0.09897916,0.21408904,0.32887828,0.32887837,0.0,0.0,0.0,0.0,0.0,0.0,0.0,nan,nan,nan,nan,nan,nan,0.0,12.404709,0.0,0.0,nan,0.0,0.0,0.09013913,0.0,0.0,0.0,0.0,0.0,0.0,0.0,0.0
134028849,0.098979846,0.09898,0.21407078,0.3288872,0.32888725,0.0,0.0,0.0,0.0,0.0,0.0,0.0,nan,nan,nan,nan,nan,nan,0.0,12.403942,0.0,0.0,nan,0.0,0.0,0.09013913,0.0,0.0,0.0,0.0,0.0,0.0,0.0,0.0
134228852,0.09898026,0.09898042,0.21405263,0.3288948,0.32889485,0.0,0.0,0.0,0.0,0.0,0.0,0.0,nan,nan,nan,nan,nan,nan,0.0,12.404439,0.0,0.0,nan,0.0,0.0,0.09013913,0.0,0.0,0.0,0.0,0.0,0.0,0.0,0.0
134428849,0.09897978,0.098979935,0.2140946,0.32890126,0.32890135,0.0,0.0,0.0,0.0,0.0,0.0,0.0,nan,nan,nan,nan,nan,nan,0.0,12.404403,0.0,0.0,nan,0.0,0.0,0.09013913,0.0,0.0,0.0,0.0,0.0,0.0,0.0,0.0
134628851,0.09897951,0.09897967,0.21407716,0.32890674,0.3289068,0.0,0.0,0.0,0.0,0.0,0.0,0.0,nan,nan,nan,nan,nan,nan,0.0,12.403646,0.0,0.0,nan,0.0,0.0,0.09013912,0.0,0.0,0.0,0.0,0.0,0.0,0.0,0.0
134828894,0.099040955,0.09904112,0.21410136,0.32912266,0.32912272,0.0,0.0,0.0,0.0,0.0,0.0,0.0,nan,nan,nan,nan,nan,nan,0.0,12.405183,0.0,0.0,nan,0.0,0.0,0.09013913,0.0,0.0,0.0,0.0,0.0,0.0,0.0,0.0
