timestamp,gps_hvel[0],gps_hvel[1],gps_vvel,gps_hpos[0],gps_hpos[1],gps_vpos,ev_hvel[0],ev_hvel[1],ev_vvel,ev_hpos[0],ev_hpos[1],ev_vpos,fake_hvel[0],fake_hvel[1],fake_vvel,fake_hpos[0],fake_hpos[1],fake_vpos,rng_vpos,baro_vpos,aux_hvel[0],aux_hvel[1],aux_vvel,flow[0],flow[1],heading,mag_field[0],mag_field[1],mag_field[2],drag[0],drag[1],airspeed,beta,hagl
65628862,0.0010857432,3.798949e-05,0.00021338063,0.000106317864,0.011299414,0.0,0.0,0.15287893,0.0,0.0,4.011016e-11,0.0,nan,nan,nan,nan,nan,nan,0.0,0.00022086815,0.0,0.0,nan,0.0,0.15287893,0.00045105175,0.0,0.0,0.0,0.0,0.0,0.0,0.0,0.0
65828849,0.00053498097,3.7910348e-05,6.820447e-07,7.9787496e-05,0.01133887,0.0,0.0,0.15422447,0.0,0.0,3.9960067e-11,0.0,nan,nan,nan,nan,nan,nan,0.0,0.00012629617,0.0,0.0,nan,0.0,0.15422447,0.0010339029,0.0,0.0,0.0,0.0,0.0,0.0,0.0,0.0
66028861,0.00018925212,3.7828813e-05,0.0004362589,6.7864195e-05,0.011320016,0.0,0.0,0.15362985,0.0,0.0,3.981282e-11,0.0,nan,nan,nan,nan,nan,nan,0.0,0.0001696869,0.0,0.0,nan,0.0,0.15362985,7.3966856e-07,0.0,0.0,0.0,0.0,0.0,0.0,0.0,0.0
66228849,3.0830353e-05,3.775238e-05,0.000595751,6.629019e-05,0.011301403,0.0,0.0,0.15304054,0.0,0.0,3.9668345e-11,0.0,nan,nan,nan,nan,nan,nan,0.0,0.00018142894,0.0,0.0,nan,0.0,0.15304054,0.0022954266,0.0,0.0,0.0,0.0,0.0,0.0,0.0,0.0
66428849,0.0005385069,3.7677517e-05,0.00013596847,7.821755e-05,0.011340724,0.0,0.0,0.15438423,0.0,0.0,3.9526604e-11,0.0,nan,nan,nan,nan,nan,nan,0.0,0.0001379783,0.0,0.0,nan,0.0,0.15438423,0.00025063197,0.0,0.0,0.0,0.0,0.0,0.0,0.0,0.0
66628858,0.00014915792,3.7599817e-05,0.00036979726,6.143852e-05,0.011323066,0.0,0.0,0.1538034,0.0,0.0,3.9387542e-11,0.0,nan,nan,nan,nan,nan,nan,0.0,0.0001979605,0.0,0.0,nan,0.0,0.1538034,0.00069442147,0.0,0.0,0.0,0.0,0.0,0.0,0.0,0.0
67428849,0.0009407056,3.730148e-05,0.00053244305,0.00010803199,0.011314126,0.0,0.0,0.15344648,0.0,0.0,3.8857032e-11,0.0,nan,nan,nan,nan,nan,nan,0.0,0.00014170409,0.0,0.0,nan,0.0,0.15344648,0.00046159266,0.0,0.0,0.0,0.0,0.0,0.0,0.0,0.0
67828849,6.764787e-05,3.715837e-05,0.0003900818,0.00013734301,0.011334823,0.0,0.0,0.15420526,0.0,0.0,3.8606594e-11,0.0,nan,nan,nan,nan,nan,nan,0.0,0.00016492313,0.0,0.0,nan,0.0,0.15420526,8.162632e-05,0.0,0.0,0.0,0.0,0.0,0.0,0.0,0.0
68028849,0.00012472873,3.708681e-05,0.0013374338,0.00011881275,0.011316121,0.0,0.0,0.15361254,0.0,0.0,3.8484937e-11,0.0,nan,nan,nan,nan,nan,nan,0.0,0.00050274195,0.0,0.0,nan,0.0,0.15361254,0.0028373431,0.0,0.0,0.0,0.0,0.0,0.0,0.0,0.0
68228852,7.4601005e-05,3.701585e-05,0.00010803842,9.689009e-05,0.011297202,0.0,0.0,0.15301839,0.0,0.0,3.8365595e-11,0.0,nan,nan,nan,nan,nan,nan,0.0,4.5676646e-07,0.0,0.0,nan,0.0,0.15301839,0.002919156,0.0,0.0,0.0,0.0,0.0,0.0,0.0,0.0
68428849,0.00020841943,3.6947204e-05,0.00011776281,7.9584766e-05,0.011336744,0.0,0.0,0.1543634,0.0,0.0,3.824853e-11,0.0,nan,nan,nan,nan,nan,nan,0.0,7.932939e-05,0.0,0.0,nan,0.0,0.1543634,2.6201511e-05,0.0,0.0,0.0,0.0,0.0,0.0,0.0,0.0
68628849,0.00033795898,3.6877493e-05,0.0002717943,0.00013587695,0.011319312,0.0,0.0,0.15378422,0.0,0.0,3.81337e-11,0.0,nan,nan,nan,nan,nan,nan,0.0,7.4653644e-06,0.0,0.0,nan,0.0,0.15378422,3.7933165e-05,0.0,0.0,0.0,0.0,0.0,0.0,0.0,0.0
68828849,0.00018507444,3.6810638e-05,0.00027323855,0.00012842745,0.011303047,0.0,0.0,0.15318915,0.0,0.0,3.802108e-11,0.0,nan,nan,nan,nan,nan,nan,0.0,0.00020326761,0.0,0.0,nan,0.0,0.15318915,1.6158208e-07,0.0,0.0,0.0,0.0,0.0,0.0,0.0,0.0
69028849,0.00048010296,3.6743415e-05,4.3881788e-05,0.000101684665,0.011344809,0.0,0.0,0.15453157,0.0,0.0,3.7910616e-11,0.0,nan,nan,nan,nan,nan,nan,0.0,0.00015722841,0.0,0.0,nan,0.0,0.15453157,0.00012961931,0.0,0.0,0.0,0.0,0.0,0.0,0.0,0.0
69228849,0.00042285977,3.667468e-05,3.348704e-05,9.689274e-05,0.011328448,0.0,0.0,0.15393327,0.0,0.0,3.780227e-11,0.0,nan,nan,nan,nan,nan,nan,0.0,0.00042237504,0.0,0.0,nan,0.0,0.15393327,0.0002317822,0.0,0.0,0.0,0.0,0.0,0.0,0.0,0.0
69428849,0.00058845186,3.6609035e-05,6.808383e-06,3.3447785e-05,0.011309291,0.0,0.0,0.15333481,0.0,0.0,3.7696e-11,0.0,nan,nan,nan,nan,nan,nan,0.0,0.00054975366,0.0,0.0,nan,0.0,0.15333481,0.0028004728,0.0,0.0,0.0,0.0,0.0,0.0,0.0,0.0
69628889,3.5613928e-05,3.6544414e-05,1.762432e-05,5.553461e-05,0.011351315,0.0,0.0,0.15468313,0.0,0.0,3.7591763e-11,0.0,nan,nan,nan,nan,nan,nan,0.0,2.6648204e-05,0.0,0.0,nan,0.0,0.15468313,0.0011000735,0.0,0.0,0.0,0.0,0.0,0.0,0.0,0.0
69828849,0.0002856639,3.6478028e-05,0.00038790182,6.147974e-05,0.011335501,0.0,0.0,0.15409312,0.0,0.0,3.748955e-11,0.0,nan,nan,nan,nan,nan,nan,0.0,7.942808e-05,0.0,0.0,nan,0.0,0.15409312,0.0037919611,0.0,0.0,0.0,0.0,0.0,0.0,0.0,0.0
70028884,0.0006273709,3.6414658e-05,2.6059644e-05,4.2303574e-05,0.011317266,0.0,0.0,0.15350892,0.0,0.0,3.7389303e-11,0.0,nan,nan,nan,nan,nan,nan,0.0,0.00028209123,0.0,0.0,nan,0.0,0.15350892,0.0013508189,0.0,0.0,0.0,0.0,0.0,0.0,0.0,0.0
70228851,0.00039610377,3.6352343e-05,3.402869e-05,1.8741099e-05,0.011299203,0.0,0.0,0.15292925,0.0,0.0,3.7290997e-11,0.0,nan,nan,nan,nan,nan,nan,0.0,3.9899114e-05,0.0,0.0,nan,0.0,0.15292925,0.0002452,0.0,0.0,0.0,0.0,0.0,0.0,0.0,0.0
70428849,0.000240958,3.628957e-05,0.00015991104,1.8004219e-05,0.01133939,0.0,0.0,0.1542859,0.0,0.0,3.71946e-11,0.0,nan,nan,nan,nan,nan,nan,0.0,2.3718381e-05,0.0,0.0,nan,0.0,0.1542859,7.446309e-05,0.0,0.0,0.0,0.0,0.0,0.0,0.0,0.0
70628849,0.00022582605,3.622921e-05,0.00060135854,1.1064806e-05,0.011322058,0.0,0.0,0.15371326,0.0,0.0,3.7100063e-11,0.0,nan,nan,nan,nan,nan,nan,0.0,3.4617227e-05,0.0,0.0,nan,0.0,0.15371326,0.0031856527,0.0,0.0,0.0,0.0,0.0,0.0,0.0,0.0
70828849,0.00018831072,3.6168913e-05,4.3896253e-07,4.049656e-05,0.0113048265,0.0,0.0,0.15314433,0.0,0.0,3.700736e-11,0.0,nan,nan,nan,nan,nan,nan,0.0,0.00010773141,0.0,0.0,nan,0.0,0.15314433,6.652303e-05,0.0,0.0,0.0,0.0,0.0,0.0,0.0,0.0
71028854,0.0019600037,3.610692e-05,0.00054047734,2.022701e-05,0.011287644,0.0,0.0,0.15257901,0.0,0.0,3.691647e-11,0.0,nan,nan,nan,nan,nan,nan,0.0,0.00022915937,0.0,0.0,nan,0.0,0.15257901,0.0023821273,0.0,0.0,0.0,0.0,0.0,0.0,0.0,0.0
71228849,0.0023213546,3.604496e-05,0.00076354045,9.58131e-06,0.011327883,0.0,0.0,0.15393417,0.0,0.0,3.6827336e-11,0.0,nan,nan,nan,nan,nan,nan,0.0,0.0002673808,0.0,0.0,nan,0.0,0.15393417,0.00036968422,0.0,0.0,0.0,0.0,0.0,0.0,0.0,0.0
71428849,0.0008174757,3.598793e-05,0.00017413891,4.2987626e-06,0.011310848,0.0,0.0,0.15336844,0.0,0.0,3.673994e-11,0.0,nan,nan,nan,nan,nan,nan,0.0,0.0002990828,0.0,0.0,nan,0.0,0.15336844,0.0015471416,0.0,0.0,0.0,0.0,0.0,0.0,0.0,0.0
71628851,0.0005129277,3.5929068e-05,0.0018579701,5.3348354e-06,0.01129727,0.0,0.0,0.1528185,0.0,0.0,3.6654263e-11,0.0,nan,nan,nan,nan,nan,nan,0.0,6.4026215e-05,0.0,0.0,nan,0.0,0.1528185,0.005912821,0.0,0.0,0.0,0.0,0.0,0.0,0.0,0.0
71828893,7.8604964e-05,3.5868936e-05,0.0012491401,3.2945995e-06,0.01133673,0.0,0.0,0.15416886,0.0,0.0,3.6570264e-11,0.0,nan,nan,nan,nan,nan,nan,0.0,0.0005631003,0.0,0.0,nan,0.0,0.15416886,0.0011170242,0.0,0.0,0.0,0.0,0.0,0.0,0.0,0.0
72028849,0.00024823184,3.5812864e-05,1.2777804e-05,5.2509567e-06,0.011318337,0.0,0.0,0.15358649,0.0,0.0,3.6487906e-11,0.0,nan,nan,nan,nan,nan,nan,0.0,1.95043e-05,0.0,0.0,nan,0.0,0.15358649,0.00036618824,0.0,0.0,0.0,0.0,0.0,0.0,0.0,0.0
72228849,0.00089912757,3.5757606e-05,8.55959e-06,1.7530596e-05,0.011299717,0.0,0.0,0.15300196,0.0,0.0,3.6407148e-11,0.0,nan,nan,nan,nan,nan,nan,0.0,0.0003364429,0.0,0.0,nan,0.0,0.15300196,0.00089081546,0.0,0.0,0.0,0.0,0.0,0.0,0.0,0.0
72428851,0.00013943813,3.569895e-05,0.00028361005,2.1410511e-05,0.011341975,0.0,0.0,0.15435511,0.0,0.0,3.6327993e-11,0.0,nan,nan,nan,nan,nan,nan,0.0,4.3741613e-05,0.0,0.0,nan,0.0,0.15435511,0.005667186,0.0,0.0,0.0,0.0,0.0,0.0,0.0,0.0
72628850,0.00022450912,3.564075e-05,9.104531e-05,1.8575314e-05,0.011327012,0.0,0.0,0.15378419,0.0,0.0,3.6250385e-11,0.0,nan,nan,nan,nan,nan,nan,0.0,0.000827101,0.0,0.0,nan,0.0,0.15378419,0.00046833383,0.0,0.0,0.0,0.0,0.0,0.0,0.0,0.0
72828849,0.00042991154,3.558937e-05,2.3665038e-05,3.2577154e-05,0.01130859,0.0,0.0,0.15320483,0.0,0.0,3.6174296e-11,0.0,nan,nan,nan,nan,nan,nan,0.0,0.00030731905,0.0,0.0,nan,0.0,0.15320483,6.911022e-05,0.0,0.0,0.0,0.0,0.0,0.0,0.0,0.0
73028849,3.0780506e-05,3.5539124e-05,0.00015293158,8.859325e-06,0.011293786,0.0,0.0,0.15264185,0.0,0.0,3.6099707e-11,0.0,nan,nan,nan,nan,nan,nan,0.0,0.00022267258,0.0,0.0,nan,0.0,0.15264185,4.6402136e-05,0.0,0.0,0.0,0.0,0.0,0.0,0.0,0.0
73228876,0.00078210875,3.548415e-05,0.0011849524,3.767291e-05,0.011336888,0.0,0.0,0.15400772,0.0,0.0,3.602659e-11,0.0,nan,nan,nan,nan,nan,nan,0.0,0.00010617627,0.0,0.0,nan,0.0,0.15400772,0.009905819,0.0,0.0,0.0,0.0,0.0,0.0,0.0,0.0
73428849,7.195239e-05,3.543182e-05,0.00010261814,2.5098057e-05,0.011317602,0.0,0.0,0.15341881,0.0,0.0,3.5954913e-11,0.0,nan,nan,nan,nan,nan,nan,0.0,0.00043129377,0.0,0.0,nan,0.0,0.15341881,0.0007116579,0.0,0.0,0.0,0.0,0.0,0.0,0.0,0.0
73628849,0.00015374055,3.5378496e-05,1.7588727e-07,2.4894616e-05,0.011359148,0.0,0.0,0.15477164,0.0,0.0,3.5884656e-11,0.0,nan,nan,nan,nan,nan,nan,0.0,3.7827594e-05,0.0,0.0,nan,0.0,0.15477164,0.00075783045,0.0,0.0,0.0,0.0,0.0,0.0,0.0,0.0
73828849,0.00072951807,3.5326062e-05,0.00013600747,6.151999e-05,0.011342745,0.0,0.0,0.15418378,0.0,0.0,3.581579e-11,0.0,nan,nan,nan,nan,nan,nan,0.0,0.00019805798,0.0,0.0,nan,0.0,0.15418378,0.00033256342,0.0,0.0,0.0,0.0,0.0,0.0,0.0,0.0
74028859,0.0005717868,3.527727e-05,0.0003584993,7.3374395e-05,0.01132645,0.0,0.0,0.15360075,0.0,0.0,3.5748276e-11,0.0,nan,nan,nan,nan,nan,nan,0.0,0.00023765507,0.0,0.0,nan,0.0,0.15360075,0.0020803476,0.0,0.0,0.0,0.0,0.0,0.0,0.0,0.0
74228849,0.00027609285,3.522781e-05,6.301735e-05,7.831698e-05,0.011310248,0.0,0.0,0.1530224,0.0,0.0,3.5682107e-11,0.0,nan,nan,nan,nan,nan,nan,0.0,0.00013820398,0.0,0.0,nan,0.0,0.1530224,0.00054240116,0.0,0.0,0.0,0.0,0.0,0.0,0.0,0.0
74428856,9.2769136e-05,3.5177574e-05,0.00014489623,6.110792e-05,0.011351879,0.0,0.0,0.15437621,0.0,0.0,3.5617252e-11,0.0,nan,nan,nan,nan,nan,nan,0.0,4.906342e-05,0.0,0.0,nan,0.0,0.15437621,0.0008416725,0.0,0.0,0.0,0.0,0.0,0.0,0.0,0.0
74628879,0.00014997262,3.513009e-05,0.00010118186,5.2286003e-05,0.011336267,0.0,0.0,0.15380542,0.0,0.0,3.5553685e-11,0.0,nan,nan,nan,nan,nan,nan,0.0,0.00015438373,0.0,0.0,nan,0.0,0.15380542,0.010242696,0.0,0.0,0.0,0.0,0.0,0.0,0.0,0.0
74828849,0.00041738604,3.5081564e-05,0.00016661966,9.355328e-05,0.011317686,0.0,0.0,0.1532325,0.0,0.0,3.5491384e-11,0.0,nan,nan,nan,nan,nan,nan,0.0,0.00012081079,0.0,0.0,nan,0.0,0.1532325,0.00030943108,0.0,0.0,0.0,0.0,0.0,0.0,0.0,0.0
75028852,0.00015123944,3.503608e-05,0.0003338814,9.805491e-05,0.011355333,0.0,0.0,0.15457009,0.0,0.0,3.543032e-11,0.0,nan,nan,nan,nan,nan,nan,0.0,1.0870124e-07,0.0,0.0,nan,0.0,0.15457009,0.0009161276,0.0,0.0,0.0,0.0,0.0,0.0,0.0,0.0
75228854,9.4331095e-05,3.4989247e-05,0.00019679649,7.330373e-05,0.011335026,0.0,0.0,0.15396558,0.0,0.0,3.5370488e-11,0.0,nan,nan,nan,nan,nan,nan,0.0,0.00013890391,0.0,0.0,nan,0.0,0.15396558,0.00038432897,0.0,0.0,0.0,0.0,0.0,0.0,0.0,0.0
75428852,0.00024771356,3.494115e-05,0.00018477793,0.00010930911,0.011315538,0.0,0.0,0.15337302,0.0,0.0,3.5311858e-11,0.0,nan,nan,nan,nan,nan,nan,0.0,5.871974e-05,0.0,0.0,nan,0.0,0.15337302,0.0013553532,0.0,0.0,0.0,0.0,0.0,0.0,0.0,0.0
75628852,0.00019922342,3.4897126e-05,0.0001653141,0.00011178215,0.011353903,0.0,0.0,0.15471521,0.0,0.0,3.52544e-11,0.0,nan,nan,nan,nan,nan,nan,0.0,2.501339e-05,0.0,0.0,nan,0.0,0.15471521,0.00081982324,0.0,0.0,0.0,0.0,0.0,0.0,0.0,0.0
75828866,0.0006269602,3.485251e-05,0.0002737944,0.00014627255,0.011334646,0.0,0.0,0.15411803,0.0,0.0,3.5198098e-11,0.0,nan,nan,nan,nan,nan,nan,0.0,3.8118673e-05,0.0,0.0,nan,0.0,0.15411803,4.4418797e-05,0.0,0.0,0.0,0.0,0.0,0.0,0.0,0.0
76028888,0.00014969631,3.4805627e-05,1.263271e-05,0.000121365716,0.011316146,0.0,0.0,0.15353252,0.0,0.0,3.5142937e-11,0.0,nan,nan,nan,nan,nan,nan,0.0,1.461076e-08,0.0,0.0,nan,0.0,0.15353252,6.368843e-06,0.0,0.0,0.0,0.0,0.0,0.0,0.0,0.0
76228849,0.0002994137,3.4762503e-05,0.0006148939,0.00011572755,0.011300769,0.0,0.0,0.15295745,0.0,0.0,3.5088883e-11,0.0,nan,nan,nan,nan,nan,nan,0.0,0.00017821172,0.0,0.0,nan,0.0,0.15295745,0.0014146693,0.0,0.0,0.0,0.0,0.0,0.0,0.0,0.0
76428849,0.0008372307,3.4720262e-05,9.715665e-05,7.959978e-05,0.011339721,0.0,0.0,0.15430032,0.0,0.0,3.5035915e-11,0.0,nan,nan,nan,nan,nan,nan,0.0,6.5758446e-05,0.0,0.0,nan,0.0,0.15430032,0.0013318979,0.0,0.0,0.0,0.0,0.0,0.0,0.0,0.0
76628850,5.729424e-05,3.4675686e-05,0.00041359934,8.549481e-05,0.011322832,0.0,0.0,0.1537005,0.0,0.0,3.498402e-11,0.0,nan,nan,nan,nan,nan,nan,0.0,9.951332e-06,0.0,0.0,nan,0.0,0.1537005,0.0021011883,0.0,0.0,0.0,0.0,0.0,0.0,0.0,0.0
76828865,0.0011699069,3.46322e-05,1.4301033e-05,0.00011558415,0.011303207,0.0,0.0,0.15310057,0.0,0.0,3.4933164e-11,0.0,nan,nan,nan,nan,nan,nan,0.0,8.309498e-05,0.0,0.0,nan,0.0,0.15310057,4.4856944e-05,0.0,0.0,0.0,0.0,0.0,0.0,0.0,0.0
77028849,0.00026419444,3.4592387e-05,0.00030491757,0.00011811615,0.011341741,0.0,0.0,0.15443565,0.0,0.0,3.4883346e-11,0.0,nan,nan,nan,nan,nan,nan,0.0,3.8475723e-06,0.0,0.0,nan,0.0,0.15443565,0.009448574,0.0,0.0,0.0,0.0,0.0,0.0,0.0,0.0
77228853,0.00041330865,3.4551053e-05,2.2449217e-06,0.000103005106,0.0113228895,0.0,0.0,0.15383862,0.0,0.0,3.483454e-11,0.0,nan,nan,nan,nan,nan,nan,0.0,3.1636291e-06,0.0,0.0,nan,0.0,0.15383862,0.004281747,0.0,0.0,0.0,0.0,0.0,0.0,0.0,0.0
77428851,3.9650844e-05,3.4508117e-05,2.8752711e-05,9.841543e-05,0.011307229,0.0,0.0,0.15325272,0.0,0.0,3.4786743e-11,0.0,nan,nan,nan,nan,nan,nan,0.0,3.5170658e-06,0.0,0.0,nan,0.0,0.15325272,0.0033277238,0.0,0.0,0.0,0.0,0.0,0.0,0.0,0.0
77628881,9.7827935e-05,3.446909e-05,0.00037054587,0.00013267256,0.0113465795,0.0,0.0,0.15459944,0.0,0.0,3.4739912e-11,0.0,nan,nan,nan,nan,nan,nan,0.0,3.0243247e-05,0.0,0.0,nan,0.0,0.15459944,0.0033756467,0.0,0.0,0.0,0.0,0.0,0.0,0.0,0.0
77828850,9.809955e-05,3.4429053e-05,4.9176902e-05,0.00015292167,0.011331714,0.0,0.0,0.15402198,0.0,0.0,3.469404e-11,0.0,nan,nan,nan,nan,nan,nan,0.0,4.3642114e-05,0.0,0.0,nan,0.0,0.15402198,2.9342864e-05,0.0,0.0,0.0,0.0,0.0,0.0,0.0,0.0
78028849,0.00026906322,3.4388846e-05,5.1427883e-06,0.00018879582,0.0113153625,0.0,0.0,0.15342928,0.0,0.0,3.4649113e-11,0.0,nan,nan,nan,nan,nan,nan,0.0,7.274637e-07,0.0,0.0,nan,0.0,0.15342928,0.0038639246,0.0,0.0,0.0,0.0,0.0,0.0,0.0,0.0
78228882,0.0011739369,3.4349654e-05,0.00026035108,0.00017091207,0.011356272,0.0,0.0,0.15476689,0.0,0.0,3.4605104e-11,0.0,nan,nan,nan,nan,nan,nan,0.0,0.00014361565,0.0,0.0,nan,0.0,0.15476689,8.798489e-06,0.0,0.0,0.0,0.0,0.0,0.0,0.0,0.0
78428859,0.0005881835,3.4312587e-05,1.9281151e-05,9.356246e-05,0.011339875,0.0,0.0,0.15417115,0.0,0.0,3.4561996e-11,0.0,nan,nan,nan,nan,nan,nan,0.0,1.31904435e-05,0.0,0.0,nan,0.0,0.15417115,3.0359206e-05,0.0,0.0,0.0,0.0,0.0,0.0,0.0,0.0
78628849,0.00024145829,3.427353e-05,1.26998475e-05,8.758739e-05,0.011323144,0.0,0.0,0.15357445,0.0,0.0,3.4519783e-11,0.0,nan,nan,nan,nan,nan,nan,0.0,5.5734996e-05,0.0,0.0,nan,0.0,0.15357445,0.0003378844,0.0,0.0,0.0,0.0,0.0,0.0,0.0,0.0
78828849,9.446322e-06,3.423553e-05,0.0008674325,7.18617e-05,0.011303614,0.0,0.0,0.15297757,0.0,0.0,3.4478437e-11,0.0,nan,nan,nan,nan,nan,nan,0.0,4.7643174e-05,0.0,0.0,nan,0.0,0.15297757,0.004787528,0.0,0.0,0.0,0.0,0.0,0.0,0.0,0.0
79028849,8.018412e-05,3.4199875e-05,0.00012912713,8.464904e-05,0.01134256,0.0,0.0,0.15431899,0.0,0.0,3.4437946e-11,0.0,nan,nan,nan,nan,nan,nan,0.0,0.00041127103,0.0,0.0,nan,0.0,0.15431899,8.7117754e-05,0.0,0.0,0.0,0.0,0.0,0.0,0.0,0.0
79228849,0.0023929905,3.4163626e-05,1.2400851e-06,4.3006432e-05,0.011327021,0.0,0.0,0.1537368,0.0,0.0,3.43983e-11,0.0,nan,nan,nan,nan,nan,nan,0.0,4.4514197e-09,0.0,0.0,nan,0.0,0.1537368,0.00147191,0.0,0.0,0.0,0.0,0.0,0.0,0.0,0.0
79428849,9.42387e-05,3.4126308e-05,0.0008063145,3.226913e-05,0.011310518,0.0,0.0,0.15314631,0.0,0.0,3.4359477e-11,0.0,nan,nan,nan,nan,nan,nan,0.0,4.137689e-06,0.0,0.0,nan,0.0,0.15314631,0.001226996,0.0,0.0,0.0,0.0,0.0,0.0,0.0,0.0
79628874,0.00010716012,3.4091336e-05,0.00017957216,2.5569163e-05,0.011348122,0.0,0.0,0.15447287,0.0,0.0,3.4321455e-11,0.0,nan,nan,nan,nan,nan,nan,0.0,2.3197676e-05,0.0,0.0,nan,0.0,0.15447287,0.00046311942,0.0,0.0,0.0,0.0,0.0,0.0,0.0,0.0
79828852,0.0034014876,3.4055705e-05,0.00017922184,9.4417235e-05,0.011328355,0.0,0.0,0.15386686,0.0,0.0,3.4284228e-11,0.0,nan,nan,nan,nan,nan,nan,0.0,0.00018490056,0.0,0.0,nan,0.0,0.15386686,0.0011554814,0.0,0.0,0.0,0.0,0.0,0.0,0.0,0.0
80028855,7.278958e-05,3.4019853e-05,0.00013867764,8.299443e-05,0.011308481,0.0,0.0,0.15326029,0.0,0.0,3.4247775e-11,0.0,nan,nan,nan,nan,nan,nan,0.0,4.9292594e-06,0.0,0.0,nan,0.0,0.15326029,0.0014419896,0.0,0.0,0.0,0.0,0.0,0.0,0.0,0.0
80228902,1.949028e-06,3.3986737e-05,0.0002960039,0.0001413393,0.011347306,0.0,0.0,0.15459953,0.0,0.0,3.4212085e-11,0.0,nan,nan,nan,nan,nan,nan,0.0,1.3032427e-06,0.0,0.0,nan,0.0,0.15459953,0.0009424101,0.0,0.0,0.0,0.0,0.0,0.0,0.0,0.0
80428859,0.0005299492,3.3953085e-05,6.7650844e-06,0.00011654205,0.011328613,0.0,0.0,0.15400255,0.0,0.0,3.4177137e-11,0.0,nan,nan,nan,nan,nan,nan,0.0,3.8945993e-05,0.0,0.0,nan,0.0,0.15400255,0.00077702117,0.0,0.0,0.0,0.0,0.0,0.0,0.0,0.0
80628857,0.000166086,3.3918186e-05,0.000599797,0.00014469947,0.0113101695,0.0,0.0,0.15341099,0.0,0.0,3.414293e-11,0.0,nan,nan,nan,nan,nan,nan,0.0,2.1124102e-05,0.0,0.0,nan,0.0,0.15341099,0.0054679033,0.0,0.0,0.0,0.0,0.0,0.0,0.0,0.0
80828849,0.0007177794,3.388607e-05,8.156733e-05,0.000109398716,0.011352798,0.0,0.0,0.15476775,0.0,0.0,3.410945e-11,0.0,nan,nan,nan,nan,nan,nan,0.0,1.60866e-07,0.0,0.0,nan,0.0,0.15476775,0.0004712536,0.0,0.0,0.0,0.0,0.0,0.0,0.0,0.0
81028851,0.00063459476,3.3855387e-05,4.3638775e-05,0.00015442217,0.011332757,0.0,0.0,0.15415178,0.0,0.0,3.4076665e-11,0.0,nan,nan,nan,nan,nan,nan,0.0,2.0710617e-05,0.0,0.0,nan,0.0,0.15415178,0.00029794298,0.0,0.0,0.0,0.0,0.0,0.0,0.0,0.0
81228861,0.00016085454,3.3823293e-05,0.0002293636,0.00012526057,0.011316091,0.0,0.0,0.15354836,0.0,0.0,3.404458e-11,0.0,nan,nan,nan,nan,nan,nan,0.0,5.2102682e-06,0.0,0.0,nan,0.0,0.15354836,0.0002153225,0.0,0.0,0.0,0.0,0.0,0.0,0.0,0.0
81428849,0.0006721431,3.3791926e-05,0.00026174326,0.00021518301,0.011357653,0.0,0.0,0.15489165,0.0,0.0,3.401318e-11,0.0,nan,nan,nan,nan,nan,nan,0.0,2.8767106e-05,0.0,0.0,nan,0.0,0.15489165,0.0019282778,0.0,0.0,0.0,0.0,0.0,0.0,0.0,0.0
81628851,0.00038426236,3.3761513e-05,0.00010090394,0.00022089318,0.011341333,0.0,0.0,0.15429199,0.0,0.0,3.3982456e-11,0.0,nan,nan,nan,nan,nan,nan,0.0,7.9097e-05,0.0,0.0,nan,0.0,0.15429199,0.0013059167,0.0,0.0,0.0,0.0,0.0,0.0,0.0,0.0
81828849,0.00057010114,3.3730852e-05,0.00036735527,0.00024323502,0.011325601,0.0,0.0,0.15370464,0.0,0.0,3.395238e-11,0.0,nan,nan,nan,nan,nan,nan,0.0,1.6634735e-06,0.0,0.0,nan,0.0,0.15370464,0.00041522842,0.0,0.0,0.0,0.0,0.0,0.0,0.0,0.0
82028850,0.00035287917,3.370088e-05,0.00020359406,0.000359713,0.0113094365,0.0,0.0,0.15311605,0.0,0.0,3.3922948e-11,0.0,nan,nan,nan,nan,nan,nan,0.0,4.753504e-05,0.0,0.0,nan,0.0,0.15311605,0.020591617,0.0,0.0,0.0,0.0,0.0,0.0,0.0,0.0
82228849,0.0010482454,3.3671884e-05,4.412039e-05,0.0002453084,0.011351587,0.0,0.0,0.15446927,0.0,0.0,3.389414e-11,0.0,nan,nan,nan,nan,nan,nan,0.0,3.5106445e-05,0.0,0.0,nan,0.0,0.15446927,0.00015092037,0.0,0.0,0.0,0.0,0.0,0.0,0.0,0.0
82428853,0.00071480114,3.364277e-05,4.0404743e-06,0.00023975261,0.011335045,0.0,0.0,0.15387617,0.0,0.0,3.3865955e-11,0.0,nan,nan,nan,nan,nan,nan,0.0,0.00017335443,0.0,0.0,nan,0.0,0.15387617,0.0015265446,0.0,0.0,0.0,0.0,0.0,0.0,0.0,0.0
82628851,0.0004608725,3.3612992e-05,8.699339e-05,0.00022979526,0.011317237,0.0,0.0,0.15326919,0.0,0.0,3.3838387e-11,0.0,nan,nan,nan,nan,nan,nan,0.0,1.4507303e-05,0.0,0.0,nan,0.0,0.15326919,4.9530358e-05,0.0,0.0,0.0,0.0,0.0,0.0,0.0,0.0
82828851,0.0002635524,3.358462e-05,5.1804564e-05,0.0002399616,0.011355108,0.0,0.0,0.1546026,0.0,0.0,3.3811405e-11,0.0,nan,nan,nan,nan,nan,nan,0.0,7.485862e-05,0.0,0.0,nan,0.0,0.1546026,1.2010102e-05,0.0,0.0,0.0,0.0,0.0,0.0,0.0,0.0
83028851,0.00051156804,3.3557644e-05,0.00051412574,0.0002879412,0.011338386,0.0,0.0,0.1540059,0.0,0.0,3.3785013e-11,0.0,nan,nan,nan,nan,nan,nan,0.0,2.9806375e-05,0.0,0.0,nan,0.0,0.1540059,0.0010619196,0.0,0.0,0.0,0.0,0.0,0.0,0.0,0.0
83228887,0.0008316305,3.35292e-05,9.605389e-05,0.00015509444,0.011319493,0.0,0.0,0.15338257,0.0,0.0,3.37592e-11,0.0,nan,nan,nan,nan,nan,nan,0.0,5.7952777e-05,0.0,0.0,nan,0.0,0.15338257,0.000717308,0.0,0.0,0.0,0.0,0.0,0.0,0.0,0.0
83428858,0.0017802455,3.3502303e-05,0.0014752762,0.00014605257,0.011358954,0.0,0.0,0.15470262,0.0,0.0,3.373395e-11,0.0,nan,nan,nan,nan,nan,nan,0.0,1.1140439e-05,0.0,0.0,nan,0.0,0.15470262,0.0027902059,0.0,0.0,0.0,0.0,0.0,0.0,0.0,0.0
83628844,0.0002670018,3.3475815e-05,0.000121358935,0.00017263314,0.011340848,0.0,0.0,0.15408525,0.0,0.0,3.3709244e-11,0.0,nan,nan,nan,nan,nan,nan,0.0,7.736104e-05,0.0,0.0,nan,0.0,0.15408525,8.59772e-05,0.0,0.0,0.0,0.0,0.0,0.0,0.0,0.0
85228916,6.382437e-05,3.327295e-05,1.1484013e-05,8.614886e-05,0.011294199,0.0,0.0,0.1530044,0.0,0.0,3.35302e-11,0.0,nan,nan,nan,nan,nan,nan,0.0,8.832114e-07,0.0,0.0,nan,0.0,0.1530044,0.0017945544,0.0,0.0,0.0,0.0,0.0,0.0,0.0,0.0
85428935,0.0011751133,3.3249635e-05,0.000104871135,6.882885e-05,0.011333336,0.0,0.0,0.15433408,0.0,0.0,3.3509993e-11,0.0,nan,nan,nan,nan,nan,nan,0.0,1.3956334e-05,0.0,0.0,nan,0.0,0.15433408,2.601994e-06,0.0,0.0,0.0,0.0,0.0,0.0,0.0,0.0
85628944,0.00012129925,3.3225202e-05,6.064922e-06,0.00013042046,0.011369991,0.0,0.0,0.15564187,0.0,0.0,3.3490245e-11,0.0,nan,nan,nan,nan,nan,nan,0.0,4.4811262e-05,0.0,0.0,nan,0.0,0.15564187,0.003643934,0.0,0.0,0.0,0.0,0.0,0.0,0.0,0.0
85828849,2.674202e-05,3.3201777e-05,7.423604e-06,9.317931e-05,0.011347892,0.0,0.0,0.1549767,0.0,0.0,3.3470945e-11,0.0,nan,nan,nan,nan,nan,nan,0.0,1.2406118e-06,0.0,0.0,nan,0.0,0.1549767,0.0013373467,0.0,0.0,0.0,0.0,0.0,0.0,0.0,0.0
86028850,0.00022468266,3.318019e-05,5.5044035e-07,0.00014284103,0.011329957,0.0,0.0,0.1543338,0.0,0.0,3.345208e-11,0.0,nan,nan,nan,nan,nan,nan,0.0,2.2490864e-05,0.0,0.0,nan,0.0,0.1543338,0.0004433002,0.0,0.0,0.0,0.0,0.0,0.0,0.0,0.0
86228849,9.066504e-05,3.3157517e-05,5.1177863e-06,8.104965e-05,0.011311993,0.0,0.0,0.1536934,0.0,0.0,3.3433645e-11,0.0,nan,nan,nan,nan,nan,nan,0.0,4.22164e-06,0.0,0.0,nan,0.0,0.1536934,0.0017827842,0.0,0.0,0.0,0.0,0.0,0.0,0.0,0.0
86428852,7.855531e-05,3.313534e-05,0.0003265087,0.00014954826,0.011352907,0.0,0.0,0.1550119,0.0,0.0,3.3415617e-11,0.0,nan,nan,nan,nan,nan,nan,0.0,3.1393727e-06,0.0,0.0,nan,0.0,0.1550119,0.0011056674,0.0,0.0,0.0,0.0,0.0,0.0,0.0,0.0
86628862,2.8901495e-05,3.3114913e-05,0.0005749159,0.0001012433,0.0113361515,0.0,0.0,0.15438603,0.0,0.0,3.3398e-11,0.0,nan,nan,nan,nan,nan,nan,0.0,1.8025312e-05,0.0,0.0,nan,0.0,0.15438603,0.0007466222,0.0,0.0,0.0,0.0,0.0,0.0,0.0,0.0
86828849,0.00036834698,3.309226e-05,0.00010537913,7.760191e-05,0.0113196215,0.0,0.0,0.15376809,0.0,0.0,3.3380795e-11,0.0,nan,nan,nan,nan,nan,nan,0.0,0.00011523803,0.0,0.0,nan,0.0,0.15376809,1.7626397e-05,0.0,0.0,0.0,0.0,0.0,0.0,0.0,0.0
87028849,0.0004927183,3.3071843e-05,3.6478823e-06,0.00010788498,0.011361362,0.0,0.0,0.1551033,0.0,0.0,3.336398e-11,0.0,nan,nan,nan,nan,nan,nan,0.0,1.4813089e-06,0.0,0.0,nan,0.0,0.1551033,0.00046346465,0.0,0.0,0.0,0.0,0.0,0.0,0.0,0.0
87228849,0.00023734117,3.3053057e-05,0.0005807149,6.5925575e-05,0.011343319,0.0,0.0,0.15446487,0.0,0.0,3.3347564e-11,0.0,nan,nan,nan,nan,nan,nan,0.0,1.8390427e-05,0.0,0.0,nan,0.0,0.15446487,3.4130797e-05,0.0,0.0,0.0,0.0,0.0,0.0,0.0,0.0
87428849,0.0003078279,3.3031334e-05,8.087122e-06,5.4922828e-05,0.011325647,0.0,0.0,0.15383516,0.0,0.0,3.333153e-11,0.0,nan,nan,nan,nan,nan,nan,0.0,0.000603548,0.0,0.0,nan,0.0,0.15383516,0.00038554927,0.0,0.0,0.0,0.0,0.0,0.0,0.0,0.0
87628849,0.0005689819,3.301142e-05,0.0017397668,3.5205914e-05,0.011366401,0.0,0.0,0.15516089,0.0,0.0,3.331587e-11,0.0,nan,nan,nan,nan,nan,nan,0.0,0.000117225325,0.0,0.0,nan,0.0,0.15516089,2.8079912e-09,0.0,0.0,0.0,0.0,0.0,0.0,0.0,0.0
87828862,0.00013258147,3.299171e-05,0.00044483296,6.5401587e-06,0.011349281,0.0,0.0,0.15453818,0.0,0.0,3.330056e-11,0.0,nan,nan,nan,nan,nan,nan,0.0,4.4027206e-06,0.0,0.0,nan,0.0,0.15453818,0.0043862467,0.0,0.0,0.0,0.0,0.0,0.0,0.0,0.0
88028849,0.0006965621,3.297045e-05,4.646915e-05,1.07073e-05,0.011329874,0.0,0.0,0.15392359,0.0,0.0,3.3285635e-11,0.0,nan,nan,nan,nan,nan,nan,0.0,9.004233e-06,0.0,0.0,nan,0.0,0.15392359,0.00011546189,0.0,0.0,0.0,0.0,0.0,0.0,0.0,0.0
88228874,0.000274922,3.2950808e-05,7.206635e-05,5.520631e-06,0.011310316,0.0,0.0,0.15330945,0.0,0.0,3.3271053e-11,0.0,nan,nan,nan,nan,nan,nan,0.0,2.4392892e-05,0.0,0.0,nan,0.0,0.15330945,0.0005902669,0.0,0.0,0.0,0.0,0.0,0.0,0.0,0.0
88428849,0.00012600515,3.292921e-05,6.896751e-05,8.3159483e-07,0.011349317,0.0,0.0,0.15464301,0.0,0.0,3.325682e-11,0.0,nan,nan,nan,nan,nan,nan,0.0,9.608407e-06,0.0,0.0,nan,0.0,0.15464301,0.00022265594,0.0,0.0,0.0,0.0,0.0,0.0,0.0,0.0
88628890,0.00028543017,3.2909385e-05,0.00014844596,2.3337281e-05,0.011329832,0.0,0.0,0.15402679,0.0,0.0,3.32429e-11,0.0,nan,nan,nan,nan,nan,nan,0.0,2.629622e-05,0.0,0.0,nan,0.0,0.15402679,0.0041747564,0.0,0.0,0.0,0.0,0.0,0.0,0.0,0.0
88828854,0.00056494644,3.289429e-05,7.472644e-05,5.2557658e-05,0.011309329,0.0,0.0,0.15339816,0.0,0.0,3.322933e-11,0.0,nan,nan,nan,nan,nan,nan,0.0,1.1027996e-06,0.0,0.0,nan,0.0,0.15339816,0.011805727,0.0,0.0,0.0,0.0,0.0,0.0,0.0,0.0
89028858,0.00029581558,3.2878197e-05,0.00011762763,2.2571672e-05,0.011350595,0.0,0.0,0.15472618,0.0,0.0,3.3216072e-11,0.0,nan,nan,nan,nan,nan,nan,0.0,0.000114487135,0.0,0.0,nan,0.0,0.15472618,0.0020180708,0.0,0.0,0.0,0.0,0.0,0.0,0.0,0.0
89228849,0.000241186,3.2855318e-05,3.581618e-05,2.8774859e-05,0.011334179,0.0,0.0,0.15411614,0.0,0.0,3.320315e-11,0.0,nan,nan,nan,nan,nan,nan,0.0,3.6805835e-05,0.0,0.0,nan,0.0,0.15411614,0.0062212213,0.0,0.0,0.0,0.0,0.0,0.0,0.0,0.0
89428849,1.609791e-05,3.2838172e-05,0.000121576624,5.8021735e-05,0.0113155525,0.0,0.0,0.15348065,0.0,0.0,3.319053e-11,0.0,nan,nan,nan,nan,nan,nan,0.0,3.0880035e-06,0.0,0.0,nan,0.0,0.15348065,0.0007159708,0.0,0.0,0.0,0.0,0.0,0.0,0.0,0.0
89628864,7.033245e-05,3.282505e-05,6.0532217e-05,4.109485e-05,0.011355318,0.0,0.0,0.15479194,0.0,0.0,3.317821e-11,0.0,nan,nan,nan,nan,nan,nan,0.0,2.0535424e-06,0.0,0.0,nan,0.0,0.15479194,0.00029133665,0.0,0.0,0.0,0.0,0.0,0.0,0.0,0.0
89828849,0.00013009593,3.2806653e-05,3.9223145e-05,3.7409325e-05,0.011337566,0.0,0.0,0.15416434,0.0,0.0,3.316619e-11,0.0,nan,nan,nan,nan,nan,nan,0.0,0.00014339488,0.0,0.0,nan,0.0,0.15416434,0.0002733514,0.0,0.0,0.0,0.0,0.0,0.0,0.0,0.0
90028849,0.0005381404,3.279168e-05,0.0003898055,3.9396462e-05,0.011320545,0.0,0.0,0.15355128,0.0,0.0,3.3154465e-11,0.0,nan,nan,nan,nan,nan,nan,0.0,1.4026923e-06,0.0,0.0,nan,0.0,0.15355128,9.17546e-06,0.0,0.0,0.0,0.0,0.0,0.0,0.0,0.0
90228851,0.0009029381,3.27739e-05,0.00017351794,3.1409392e-05,0.011357367,0.0,0.0,0.1548598,0.0,0.0,3.314303e-11,0.0,nan,nan,nan,nan,nan,nan,0.0,0.00015134946,0.0,0.0,nan,0.0,0.1548598,0.0004373807,0.0,0.0,0.0,0.0,0.0,0.0,0.0,0.0
90428849,0.00014917,3.275641e-05,0.00028359803,3.925695e-05,0.0113387825,0.0,0.0,0.15422058,0.0,0.0,3.3131876e-11,0.0,nan,nan,nan,nan,nan,nan,0.0,4.037831e-06,0.0,0.0,nan,0.0,0.15422058,0.00010096117,0.0,0.0,0.0,0.0,0.0,0.0,0.0,0.0
90628849,5.7734116e-05,3.274196e-05,0.0004350554,4.8089474e-05,0.011317661,0.0,0.0,0.15358421,0.0,0.0,3.312099e-11,0.0,nan,nan,nan,nan,nan,nan,0.0,2.5993259e-06,0.0,0.0,nan,0.0,0.15358421,0.0034808046,0.0,0.0,0.0,0.0,0.0,0.0,0.0,0.0
90828849,0.00026755343,3.272648e-05,0.0006334645,5.4488795e-05,0.011355054,0.0,0.0,0.15489678,0.0,0.0,3.311037e-11,0.0,nan,nan,nan,nan,nan,nan,0.0,4.384166e-06,0.0,0.0,nan,0.0,0.15489678,0.007047518,0.0,0.0,0.0,0.0,0.0,0.0,0.0,0.0
91028851,0.00037257484,3.271162e-05,0.00063305127,6.2183986e-05,0.01133544,0.0,0.0,0.15427414,0.0,0.0,3.310002e-11,0.0,nan,nan,nan,nan,nan,nan,0.0,1.7993301e-05,0.0,0.0,nan,0.0,0.15427414,0.0004608235,0.0,0.0,0.0,0.0,0.0,0.0,0.0,0.0
91228853,1.1793865e-05,3.269733e-05,0.00019235308,0.00011062339,0.01131576,0.0,0.0,0.15365224,0.0,0.0,3.308992e-11,0.0,nan,nan,nan,nan,nan,nan,0.0,5.192414e-05,0.0,0.0,nan,0.0,0.15365224,0.00011303139,0.0,0.0,0.0,0.0,0.0,0.0,0.0,0.0
91428849,0.0002448815,3.2680688e-05,6.0380717e-05,9.788211e-05,0.011296941,0.0,0.0,0.1530443,0.0,0.0,3.3080084e-11,0.0,nan,nan,nan,nan,nan,nan,0.0,5.7533012e-05,0.0,0.0,nan,0.0,0.1530443,0.00027622376,0.0,0.0,0.0,0.0,0.0,0.0,0.0,0.0
91628849,3.824743e-05,3.2666343e-05,0.00036087845,9.953192e-05,0.011335942,0.0,0.0,0.15437065,0.0,0.0,3.307049e-11,0.0,nan,nan,nan,nan,nan,nan,0.0,0.00030489074,0.0,0.0,nan,0.0,0.15437065,0.00013023341,0.0,0.0,0.0,0.0,0.0,0.0,0.0,0.0
91828854,0.0003606686,3.265235e-05,3.7823734e-06,9.593122e-05,0.011375435,0.0,0.0,0.15568143,0.0,0.0,3.3061144e-11,0.0,nan,nan,nan,nan,nan,nan,0.0,0.00029019744,0.0,0.0,nan,0.0,0.15568143,0.00065692724,0.0,0.0,0.0,0.0,0.0,0.0,0.0,0.0
93228916,0.0010292251,3.2555567e-05,1.9493129e-05,8.189858e-05,0.011352787,0.0,0.0,0.15509427,0.0,0.0,3.3002056e-11,0.0,nan,nan,nan,nan,nan,nan,0.0,0.00010704593,0.0,0.0,nan,0.0,0.15509427,2.7936887e-08,0.0,0.0,0.0,0.0,0.0,0.0,0.0,0.0
93428898,0.00025941618,3.254307e-05,9.1342445e-05,0.000111414454,0.011332429,0.0,0.0,0.15444823,0.0,0.0,3.2994465e-11,0.0,nan,nan,nan,nan,nan,nan,0.0,6.267566e-05,0.0,0.0,nan,0.0,0.15444823,0.00040954325,0.0,0.0,0.0,0.0,0.0,0.0,0.0,0.0
93628858,2.3047993e-05,3.2532305e-05,1.2276831e-06,8.404123e-05,0.011312628,0.0,0.0,0.15381125,0.0,0.0,3.298707e-11,0.0,nan,nan,nan,nan,nan,nan,0.0,0.00016498646,0.0,0.0,nan,0.0,0.15381125,0.0022933704,0.0,0.0,0.0,0.0,0.0,0.0,0.0,0.0
93828858,1.2376191e-05,3.2519707e-05,2.1875217e-05,6.902382e-05,0.011351348,0.0,0.0,0.15512916,0.0,0.0,3.2979872e-11,0.0,nan,nan,nan,nan,nan,nan,0.0,5.4116736e-06,0.0,0.0,nan,0.0,0.15512916,7.3608267e-06,0.0,0.0,0.0,0.0,0.0,0.0,0.0,0.0
94028849,0.0006477098,3.2504788e-05,1.6428738e-05,5.7433062e-05,0.011332427,0.0,0.0,0.15449958,0.0,0.0,3.297287e-11,0.0,nan,nan,nan,nan,nan,nan,0.0,7.6211465e-05,0.0,0.0,nan,0.0,0.15449958,0.009155321,0.0,0.0,0.0,0.0,0.0,0.0,0.0,0.0
94228849,8.270601e-05,3.2494023e-05,1.8375196e-05,6.140887e-05,0.011314317,0.0,0.0,0.15388434,0.0,0.0,3.2966043e-11,0.0,nan,nan,nan,nan,nan,nan,0.0,4.223128e-05,0.0,0.0,nan,0.0,0.15388434,0.00581879,0.0,0.0,0.0,0.0,0.0,0.0,0.0,0.0
94428849,0.00010480517,3.2482716e-05,0.00029015486,5.9487265e-05,0.01129603,0.0,0.0,0.15326981,0.0,0.0,3.295941e-11,0.0,nan,nan,nan,nan,nan,nan,0.0,7.982126e-07,0.0,0.0,nan,0.0,0.15326981,9.445386e-06,0.0,0.0,0.0,0.0,0.0,0.0,0.0,0.0
94628870,0.00023230739,3.2470823e-05,0.00022330089,5.0511444e-05,0.011339077,0.0,0.0,0.15460825,0.0,0.0,3.2952942e-11,0.0,nan,nan,nan,nan,nan,nan,0.0,0.0004621252,0.0,0.0,nan,0.0,0.15460825,0.00086171465,0.0,0.0,0.0,0.0,0.0,0.0,0.0,0.0
94828849,0.00010559101,3.246041e-05,0.00018273019,4.458283e-05,0.011317696,0.0,0.0,0.15398636,0.0,0.0,3.2946642e-11,0.0,nan,nan,nan,nan,nan,nan,0.0,5.2131214e-05,0.0,0.0,nan,0.0,0.15398636,0.0046409215,0.0,0.0,0.0,0.0,0.0,0.0,0.0,0.0
95028850,7.305492e-05,3.2447933e-05,0.0011680711,9.328128e-06,0.011355104,0.0,0.0,0.15528904,0.0,0.0,3.2940522e-11,0.0,nan,nan,nan,nan,nan,nan,0.0,0.00018933366,0.0,0.0,nan,0.0,0.15528904,0.0017624579,0.0,0.0,0.0,0.0,0.0,0.0,0.0,0.0
95228852,0.0003538337,3.2438526e-05,0.00020409173,1.0633192e-05,0.011337422,0.0,0.0,0.15464051,0.0,0.0,3.2934572e-11,0.0,nan,nan,nan,nan,nan,nan,0.0,8.3641174e-07,0.0,0.0,nan,0.0,0.15464051,7.3471892e-06,0.0,0.0,0.0,0.0,0.0,0.0,0.0,0.0
95428850,0.00094698265,3.2427604e-05,4.5949393e-05,3.8847877e-05,0.011316784,0.0,0.0,0.153989,0.0,0.0,3.2928785e-11,0.0,nan,nan,nan,nan,nan,nan,0.0,6.012596e-06,0.0,0.0,nan,0.0,0.153989,0.00021712025,0.0,0.0,0.0,0.0,0.0,0.0,0.0,0.0
95628855,9.440418e-05,3.241604e-05,0.000315224,5.951646e-05,0.011297151,0.0,0.0,0.15335338,0.0,0.0,3.2923154e-11,0.0,nan,nan,nan,nan,nan,nan,0.0,6.683713e-06,0.0,0.0,nan,0.0,0.15335338,0.0022703386,0.0,0.0,0.0,0.0,0.0,0.0,0.0,0.0
95828849,9.399994e-05,3.2409054e-05,0.0008723758,4.1341464e-05,0.011335675,0.0,0.0,0.15466124,0.0,0.0,3.291768e-11,0.0,nan,nan,nan,nan,nan,nan,0.0,7.415384e-05,0.0,0.0,nan,0.0,0.15466124,9.6541e-07,0.0,0.0,0.0,0.0,0.0,0.0,0.0,0.0
96028851,5.8905942e-05,3.2397213e-05,0.0005422319,4.2313382e-05,0.011317008,0.0,0.0,0.15403347,0.0,0.0,3.291236e-11,0.0,nan,nan,nan,nan,nan,nan,0.0,2.5409601e-05,0.0,0.0,nan,0.0,0.15403347,0.00042081956,0.0,0.0,0.0,0.0,0.0,0.0,0.0,0.0
96228858,0.000865536,3.238554e-05,0.000105343504,3.5342277e-05,0.011302012,0.0,0.0,0.15342599,0.0,0.0,3.2907194e-11,0.0,nan,nan,nan,nan,nan,nan,0.0,6.5541564e-05,0.0,0.0,nan,0.0,0.15342599,0.0024865828,0.0,0.0,0.0,0.0,0.0,0.0,0.0,0.0
96428849,0.0009201735,3.238007e-05,8.019411e-06,5.247305e-05,0.011340523,0.0,0.0,0.15473714,0.0,0.0,3.2902164e-11,0.0,nan,nan,nan,nan,nan,nan,0.0,0.00011391262,0.0,0.0,nan,0.0,0.15473714,0.00440512,0.0,0.0,0.0,0.0,0.0,0.0,0.0,0.0
96628849,0.00062390184,3.23697e-05,0.0028004895,2.9863164e-05,0.011323782,0.0,0.0,0.15410371,0.0,0.0,3.2897282e-11,0.0,nan,nan,nan,nan,nan,nan,0.0,6.0269245e-05,0.0,0.0,nan,0.0,0.15410371,0.0016532353,0.0,0.0,0.0,0.0,0.0,0.0,0.0,0.0
96828861,0.0002524361,3.2357213e-05,7.4762215e-07,4.2174903e-05,0.01130725,0.0,0.0,0.15347889,0.0,0.0,3.289254e-11,0.0,nan,nan,nan,nan,nan,nan,0.0,2.986068e-05,0.0,0.0,nan,0.0,0.15347889,0.0035814247,0.0,0.0,0.0,0.0,0.0,0.0,0.0,0.0
97028895,0.00055085495,3.2350352e-05,0.000103423576,4.9721933e-05,0.011348757,0.0,0.0,0.15480058,0.0,0.0,3.2887932e-11,0.0,nan,nan,nan,nan,nan,nan,0.0,3.3074245e-06,0.0,0.0,nan,0.0,0.15480058,8.964526e-05,0.0,0.0,0.0,0.0,0.0,0.0,0.0,0.0
97228849,7.498259e-05,3.2341984e-05,1.7611746e-05,1.9552903e-05,0.011333149,0.0,0.0,0.1541895,0.0,0.0,3.2883456e-11,0.0,nan,nan,nan,nan,nan,nan,0.0,0.00017990971,0.0,0.0,nan,0.0,0.1541895,0.0021961613,0.0,0.0,0.0,0.0,0.0,0.0,0.0,0.0
97428884,0.0002125144,3.2328742e-05,0.0007851012,1.6573471e-05,0.011314191,0.0,0.0,0.15357314,0.0,0.0,3.2879113e-11,0.0,nan,nan,nan,nan,nan,nan,0.0,3.5356456e-07,0.0,0.0,nan,0.0,0.15357314,0.00048583144,0.0,0.0,0.0,0.0,0.0,0.0,0.0,0.0
97628853,0.00081230095,3.2321153e-05,0.0015123503,2.6841848e-05,0.011295953,0.0,0.0,0.1529704,0.0,0.0,3.2874894e-11,0.0,nan,nan,nan,nan,nan,nan,0.0,0.00020465415,0.0,0.0,nan,0.0,0.1529704,0.0014701566,0.0,0.0,0.0,0.0,0.0,0.0,0.0,0.0
97828849,3.401671e-05,3.2316126e-05,0.0004828877,1.2819675e-05,0.011335456,0.0,0.0,0.15430002,0.0,0.0,3.2870796e-11,0.0,nan,nan,nan,nan,nan,nan,0.0,4.929096e-05,0.0,0.0,nan,0.0,0.15430002,0.00047406228,0.0,0.0,0.0,0.0,0.0,0.0,0.0,0.0
98028850,0.00039071846,3.2304735e-05,0.00010169325,2.222049e-05,0.01131445,0.0,0.0,0.15365617,0.0,0.0,3.2866827e-11,0.0,nan,nan,nan,nan,nan,nan,0.0,4.3937296e-05,0.0,0.0,nan,0.0,0.15365617,0.0005209709,0.0,0.0,0.0,0.0,0.0,0.0,0.0,0.0
98228895,0.0009710611,3.2295313e-05,6.699834e-05,3.3358265e-05,0.01135101,0.0,0.0,0.15495044,0.0,0.0,3.286297e-11,0.0,nan,nan,nan,nan,nan,nan,0.0,1.8297716e-05,0.0,0.0,nan,0.0,0.15495044,0.0004113024,0.0,0.0,0.0,0.0,0.0,0.0,0.0,0.0
98428849,4.237467e-05,3.2291013e-05,0.0017268836,6.5315835e-05,0.011330305,0.0,0.0,0.1543026,0.0,0.0,3.285922e-11,0.0,nan,nan,nan,nan,nan,nan,0.0,1.0815918e-05,0.0,0.0,nan,0.0,0.1543026,0.002019131,0.0,0.0,0.0,0.0,0.0,0.0,0.0,0.0
98628849,0.000701222,3.228306e-05,5.3213876e-07,5.4380063e-05,0.0113097355,0.0,0.0,0.15365738,0.0,0.0,3.2855593e-11,0.0,nan,nan,nan,nan,nan,nan,0.0,7.9764526e-05,0.0,0.0,nan,0.0,0.15365738,0.00088263093,0.0,0.0,0.0,0.0,0.0,0.0,0.0,0.0
98828852,0.0004263525,3.227409e-05,5.0495437e-05,7.530612e-05,0.011348077,0.0,0.0,0.15497015,0.0,0.0,3.285207e-11,0.0,nan,nan,nan,nan,nan,nan,0.0,8.156554e-05,0.0,0.0,nan,0.0,0.15497015,0.0020966986,0.0,0.0,0.0,0.0,0.0,0.0,0.0,0.0
99028852,0.0008006978,3.2267348e-05,0.00015399785,7.979248e-05,0.011328972,0.0,0.0,0.15433955,0.0,0.0,3.2848647e-11,0.0,nan,nan,nan,nan,nan,nan,0.0,0.00012523335,0.0,0.0,nan,0.0,0.15433955,6.4680324e-05,0.0,0.0,0.0,0.0,0.0,0.0,0.0,0.0
99228849,6.9990885e-05,3.225755e-05,0.0001252188,7.438883e-05,0.011313168,0.0,0.0,0.1537229,0.0,0.0,3.284534e-11,0.0,nan,nan,nan,nan,nan,nan,0.0,1.7869638e-07,0.0,0.0,nan,0.0,0.1537229,7.941347e-05,0.0,0.0,0.0,0.0,0.0,0.0,0.0,0.0
100628849,3.0226513e-05,3.2206954e-05,0.00024869622,0.00010739557,0.011296461,0.0,0.0,0.15324363,0.0,0.0,3.2824868e-11,0.0,nan,nan,nan,nan,nan,nan,0.0,2.2724724e-05,0.0,0.0,nan,0.0,0.15324363,0.00016172921,0.0,0.0,0.0,0.0,0.0,0.0,0.0,0.0
100828859,0.00019041305,3.2206484e-05,1.475393e-05,9.666737e-05,0.011336661,0.0,0.0,0.15457767,0.0,0.0,3.2822297e-11,0.0,nan,nan,nan,nan,nan,nan,0.0,0.00026846677,0.0,0.0,nan,0.0,0.15457767,0.00010761294,0.0,0.0,0.0,0.0,0.0,0.0,0.0,0.0
101028851,0.00011285951,3.2195985e-05,0.00014388557,0.0001144463,0.011318484,0.0,0.0,0.15396373,0.0,0.0,3.281982e-11,0.0,nan,nan,nan,nan,nan,nan,0.0,0.00024040752,0.0,0.0,nan,0.0,0.15396373,1.5427985e-06,0.0,0.0,0.0,0.0,0.0,0.0,0.0,0.0
101228890,0.00020319644,3.2185875e-05,1.1770428e-09,0.00019901118,0.011299098,0.0,0.0,0.15333751,0.0,0.0,3.2817422e-11,0.0,nan,nan,nan,nan,nan,nan,0.0,8.2470564e-05,0.0,0.0,nan,0.0,0.15333751,0.0037345658,0.0,0.0,0.0,0.0,0.0,0.0,0.0,0.0
101428853,0.0007057915,3.2185017e-05,5.952904e-06,0.00015307424,0.011338365,0.0,0.0,0.15466039,0.0,0.0,3.2815094e-11,0.0,nan,nan,nan,nan,nan,nan,0.0,0.00019779972,0.0,0.0,nan,0.0,0.15466039,0.0032130433,0.0,0.0,0.0,0.0,0.0,0.0,0.0,0.0
101628849,0.00035857304,3.217218e-05,0.0005215303,0.00016686627,0.011320247,0.0,0.0,0.15404688,0.0,0.0,3.2812857e-11,0.0,nan,nan,nan,nan,nan,nan,0.0,7.7574805e-07,0.0,0.0,nan,0.0,0.15404688,0.0006066487,0.0,0.0,0.0,0.0,0.0,0.0,0.0,0.0
101828881,0.00088347046,3.2162417e-05,7.3828756e-05,0.0002482288,0.0113022635,0.0,0.0,0.15344034,0.0,0.0,3.28107e-11,0.0,nan,nan,nan,nan,nan,nan,0.0,3.1508932e-06,0.0,0.0,nan,0.0,0.15344034,0.0034738511,0.0,0.0,0.0,0.0,0.0,0.0,0.0,0.0
102028852,0.00029723387,3.2155564e-05,1.5343963e-05,0.00026710838,0.011341945,0.0,0.0,0.15477154,0.0,0.0,3.280861e-11,0.0,nan,nan,nan,nan,nan,nan,0.0,0.00021584009,0.0,0.0,nan,0.0,0.15477154,0.0058398494,0.0,0.0,0.0,0.0,0.0,0.0,0.0,0.0
102228856,0.0001345419,3.2148357e-05,8.9761255e-05,0.0002995989,0.011324495,0.0,0.0,0.15416966,0.0,0.0,3.280659e-11,0.0,nan,nan,nan,nan,nan,nan,0.0,0.00021424062,0.0,0.0,nan,0.0,0.15416966,0.0023246957,0.0,0.0,0.0,0.0,0.0,0.0,0.0,0.0
102428849,0.0003979607,3.2144162e-05,0.000100309335,0.00021362877,0.011307648,0.0,0.0,0.1535804,0.0,0.0,3.280464e-11,0.0,nan,nan,nan,nan,nan,nan,0.0,9.127641e-05,0.0,0.0,nan,0.0,0.1535804,0.0030836156,0.0,0.0,0.0,0.0,0.0,0.0,0.0,0.0
102628849,7.913423e-05,3.2140008e-05,0.0005252405,0.00022580389,0.011290922,0.0,0.0,0.15299639,0.0,0.0,3.280276e-11,0.0,nan,nan,nan,nan,nan,nan,0.0,4.4773557e-07,0.0,0.0,nan,0.0,0.15299639,0.00093529833,0.0,0.0,0.0,0.0,0.0,0.0,0.0,0.0
102828849,6.212312e-05,3.2133128e-05,0.00025251432,0.0002503237,0.011334669,0.0,0.0,0.1543506,0.0,0.0,3.280095e-11,0.0,nan,nan,nan,nan,nan,nan,0.0,2.654834e-05,0.0,0.0,nan,0.0,0.1543506,0.00059566775,0.0,0.0,0.0,0.0,0.0,0.0,0.0,0.0
103028857,0.00048611398,3.213279e-05,4.387153e-05,0.00017053717,0.011318391,0.0,0.0,0.1537753,0.0,0.0,3.2799197e-11,0.0,nan,nan,nan,nan,nan,nan,0.0,8.388365e-08,0.0,0.0,nan,0.0,0.1537753,0.00040225964,0.0,0.0,0.0,0.0,0.0,0.0,0.0,0.0
103228897,0.00033450586,3.2123826e-05,0.00027532733,0.0002542706,0.011301616,0.0,0.0,0.15319799,0.0,0.0,3.2797515e-11,0.0,nan,nan,nan,nan,nan,nan,0.0,2.1169298e-07,0.0,0.0,nan,0.0,0.15319799,0.0006066763,0.0,0.0,0.0,0.0,0.0,0.0,0.0,0.0
103428851,0.00087290927,3.2120523e-05,3.9576225e-05,0.00017209844,0.011285278,0.0,0.0,0.15263163,0.0,0.0,3.2795884e-11,0.0,nan,nan,nan,nan,nan,nan,0.0,1.5237315e-05,0.0,0.0,nan,0.0,0.15263163,0.0016214313,0.0,0.0,0.0,0.0,0.0,0.0,0.0,0.0
103628854,0.00021720935,3.2117092e-05,0.000372336,0.00020993139,0.011326354,0.0,0.0,0.15398744,0.0,0.0,3.2794305e-11,0.0,nan,nan,nan,nan,nan,nan,0.0,9.873989e-05,0.0,0.0,nan,0.0,0.15398744,0.00035448177,0.0,0.0,0.0,0.0,0.0,0.0,0.0,0.0
103828849,1.4344182e-05,3.211466e-05,4.5822162e-05,0.00014071802,0.011310081,0.0,0.0,0.1534214,0.0,0.0,3.2792786e-11,0.0,nan,nan,nan,nan,nan,nan,0.0,4.722633e-05,0.0,0.0,nan,0.0,0.1534214,0.0018566756,0.0,0.0,0.0,0.0,0.0,0.0,0.0,0.0
104028849,0.00077569915,3.2115542e-05,0.0008660589,0.0001751806,0.011292886,0.0,0.0,0.15284598,0.0,0.0,3.279132e-11,0.0,nan,nan,nan,nan,nan,nan,0.0,0.00012601663,0.0,0.0,nan,0.0,0.15284598,1.5230276e-05,0.0,0.0,0.0,0.0,0.0,0.0,0.0,0.0
104228854,0.0011201958,3.211164e-05,0.0016830668,0.00015310597,0.011335333,0.0,0.0,0.15419133,0.0,0.0,3.2789913e-11,0.0,nan,nan,nan,nan,nan,nan,0.0,4.824283e-06,0.0,0.0,nan,0.0,0.15419133,2.4674544e-06,0.0,0.0,0.0,0.0,0.0,0.0,0.0,0.0
104428857,0.0004016076,3.2106505e-05,7.4484524e-05,0.0001998767,0.011317389,0.0,0.0,0.15360476,0.0,0.0,3.2788564e-11,0.0,nan,nan,nan,nan,nan,nan,0.0,5.488515e-08,0.0,0.0,nan,0.0,0.15360476,0.00105627,0.0,0.0,0.0,0.0,0.0,0.0,0.0,0.0
104628852,0.0006655889,3.2106116e-05,0.00010253443,0.00015688532,0.01129957,0.0,0.0,0.15302294,0.0,0.0,3.2787256e-11,0.0,nan,nan,nan,nan,nan,nan,0.0,0.00028033805,0.0,0.0,nan,0.0,0.15302294,0.005001035,0.0,0.0,0.0,0.0,0.0,0.0,0.0,0.0
104828849,0.0008422348,3.2105505e-05,1.0641967e-05,0.00013726791,0.011339654,0.0,0.0,0.1543736,0.0,0.0,3.2785996e-11,0.0,nan,nan,nan,nan,nan,nan,0.0,0.00022667658,0.0,0.0,nan,0.0,0.1543736,3.090599e-05,0.0,0.0,0.0,0.0,0.0,0.0,0.0,0.0
105028852,0.00013720198,3.2096923e-05,0.00028118963,0.00012820608,0.011322696,0.0,0.0,0.1537996,0.0,0.0,3.27848e-11,0.0,nan,nan,nan,nan,nan,nan,0.0,4.0967592e-05,0.0,0.0,nan,0.0,0.1537996,0.0011228936,0.0,0.0,0.0,0.0,0.0,0.0,0.0,0.0
105228849,0.00024573682,3.2089432e-05,7.029033e-05,0.00016724576,0.011305265,0.0,0.0,0.1532232,0.0,0.0,3.278364e-11,0.0,nan,nan,nan,nan,nan,nan,0.0,7.6838194e-05,0.0,0.0,nan,0.0,0.1532232,0.0012576114,0.0,0.0,0.0,0.0,0.0,0.0,0.0,0.0
105428896,0.00070199993,3.2092357e-05,2.427894e-05,0.000107258464,0.011288424,0.0,0.0,0.15265734,0.0,0.0,3.2782506e-11,0.0,nan,nan,nan,nan,nan,nan,0.0,5.5152886e-05,0.0,0.0,nan,0.0,0.15265734,0.0006398824,0.0,0.0,0.0,0.0,0.0,0.0,0.0,0.0
105628853,6.0666203e-05,3.2086657e-05,0.00019186067,0.000100006124,0.011332012,0.0,0.0,0.15401989,0.0,0.0,3.2781434e-11,0.0,nan,nan,nan,nan,nan,nan,0.0,0.000255828,0.0,0.0,nan,0.0,0.15401989,0.0030550556,0.0,0.0,0.0,0.0,0.0,0.0,0.0,0.0
105828849,0.0004875,3.2077718e-05,0.00015198595,5.826432e-05,0.011312783,0.0,0.0,0.15342154,0.0,0.0,3.278041e-11,0.0,nan,nan,nan,nan,nan,nan,0.0,5.055905e-05,0.0,0.0,nan,0.0,0.15342154,3.4442735e-07,0.0,0.0,0.0,0.0,0.0,0.0,0.0,0.0
106028852,0.00061696046,3.207772e-05,2.0920535e-05,5.1411826e-05,0.011294327,0.0,0.0,0.15283512,0.0,0.0,3.2779418e-11,0.0,nan,nan,nan,nan,nan,nan,0.0,0.00020666013,0.0,0.0,nan,0.0,0.15283512,1.5123816e-05,0.0,0.0,0.0,0.0,0.0,0.0,0.0,0.0
106228849,0.0002059032,3.207024e-05,0.00037492914,5.2210467e-05,0.011333713,0.0,0.0,0.15417643,0.0,0.0,3.2778478e-11,0.0,nan,nan,nan,nan,nan,nan,0.0,3.814391e-05,0.0,0.0,nan,0.0,0.15417643,0.0001698129,0.0,0.0,0.0,0.0,0.0,0.0,0.0,0.0
106428852,3.1318385e-05,3.2063683e-05,0.00018179916,4.240553e-05,0.011315653,0.0,0.0,0.15359181,0.0,0.0,3.277758e-11,0.0,nan,nan,nan,nan,nan,nan,0.0,1.1754669e-06,0.0,0.0,nan,0.0,0.15359181,0.00016367246,0.0,0.0,0.0,0.0,0.0,0.0,0.0,0.0
106628849,0.0019158465,3.2069936e-05,0.0008288312,2.752532e-05,0.0112974085,0.0,0.0,0.15300533,0.0,0.0,3.27767e-11,0.0,nan,nan,nan,nan,nan,nan,0.0,1.8897033e-05,0.0,0.0,nan,0.0,0.15300533,0.0014797242,0.0,0.0,0.0,0.0,0.0,0.0,0.0,0.0
106828875,0.0002584851,3.2063337e-05,5.0735114e-05,5.2996424e-05,0.011337582,0.0,0.0,0.15435739,0.0,0.0,3.2775876e-11,0.0,nan,nan,nan,nan,nan,nan,0.0,1.8041774e-05,0.0,0.0,nan,0.0,0.15435739,0.0013363446,0.0,0.0,0.0,0.0,0.0,0.0,0.0,0.0
107028849,0.00028111512,3.205521e-05,5.106847e-06,4.6371482e-05,0.0113206,0.0,0.0,0.15378506,0.0,0.0,3.277509e-11,0.0,nan,nan,nan,nan,nan,nan,0.0,1.6256372e-05,0.0,0.0,nan,0.0,0.15378506,7.35934e-06,0.0,0.0,0.0,0.0,0.0,0.0,0.0,0.0
107228849,0.00029617175,3.205546e-05,9.614689e-07,4.537715e-05,0.011301819,0.0,0.0,0.1531906,0.0,0.0,3.2774332e-11,0.0,nan,nan,nan,nan,nan,nan,0.0,0.00010022644,0.0,0.0,nan,0.0,0.1531906,0.0007678919,0.0,0.0,0.0,0.0,0.0,0.0,0.0,0.0
107428849,0.00016499379,3.2052634e-05,0.00027426577,5.209836e-05,0.011340733,0.0,0.0,0.15452667,0.0,0.0,3.2773603e-11,0.0,nan,nan,nan,nan,nan,nan,0.0,0.00026697575,0.0,0.0,nan,0.0,0.15452667,0.008648697,0.0,0.0,0.0,0.0,0.0,0.0,0.0,0.0
107628849,0.00094018097,3.2049382e-05,0.00032456615,5.532751e-05,0.011322133,0.0,0.0,0.15392834,0.0,0.0,3.2772906e-11,0.0,nan,nan,nan,nan,nan,nan,0.0,0.0001285482,0.0,0.0,nan,0.0,0.15392834,0.0011386926,0.0,0.0,0.0,0.0,0.0,0.0,0.0,0.0
107828853,0.0001662923,3.2049782e-05,0.0006432513,0.000108041226,0.011303894,0.0,0.0,0.15333553,0.0,0.0,3.2772236e-11,0.0,nan,nan,nan,nan,nan,nan,0.0,0.0003640218,0.0,0.0,nan,0.0,0.15333553,6.331642e-05,0.0,0.0,0.0,0.0,0.0,0.0,0.0,0.0
108028849,0.00025628883,3.2043874e-05,1.1729469e-05,7.2004696e-05,0.011343771,0.0,0.0,0.15468328,0.0,0.0,3.277161e-11,0.0,nan,nan,nan,nan,nan,nan,0.0,1.3662513e-05,0.0,0.0,nan,0.0,0.15468328,6.0131257e-05,0.0,0.0,0.0,0.0,0.0,0.0,0.0,0.0
108228874,0.00016452816,3.204148e-05,2.8974766e-05,7.617464e-05,0.0113259675,0.0,0.0,0.15409245,0.0,0.0,3.2771005e-11,0.0,nan,nan,nan,nan,nan,nan,0.0,0.00016020461,0.0,0.0,nan,0.0,0.15409245,0.0004998434,0.0,0.0,0.0,0.0,0.0,0.0,0.0,0.0
108428849,0.00089600415,3.204226e-05,0.00028187362,0.00016420925,0.011311762,0.0,0.0,0.15351899,0.0,0.0,3.2770425e-11,0.0,nan,nan,nan,nan,nan,nan,0.0,4.5297416e-05,0.0,0.0,nan,0.0,0.15351899,0.0015953548,0.0,0.0,0.0,0.0,0.0,0.0,0.0,0.0
108628863,0.0019483566,3.2040345e-05,0.0009957331,4.671907e-05,0.011351632,0.0,0.0,0.1548709,0.0,0.0,3.276987e-11,0.0,nan,nan,nan,nan,nan,nan,0.0,2.8902088e-05,0.0,0.0,nan,0.0,0.1548709,0.0021742436,0.0,0.0,0.0,0.0,0.0,0.0,0.0,0.0
108828849,0.00010238661,3.203945e-05,0.00012338263,9.220481e-05,0.011332357,0.0,0.0,0.15426008,0.0,0.0,3.2769346e-11,0.0,nan,nan,nan,nan,nan,nan,0.0,1.17884255e-07,0.0,0.0,nan,0.0,0.15426008,5.8392594e-05,0.0,0.0,0.0,0.0,0.0,0.0,0.0,0.0
109028852,0.0011317065,3.203768e-05,6.236614e-07,0.00010053221,0.01131392,0.0,0.0,0.15366195,0.0,0.0,3.2768847e-11,0.0,nan,nan,nan,nan,nan,nan,0.0,1.5962833e-05,0.0,0.0,nan,0.0,0.15366195,0.00057375565,0.0,0.0,0.0,0.0,0.0,0.0,0.0,0.0
109228849,9.64517e-06,3.2034884e-05,0.00010843376,0.00012347277,0.011295275,0.0,0.0,0.1530628,0.0,0.0,3.2768368e-11,0.0,nan,nan,nan,nan,nan,nan,0.0,2.733015e-05,0.0,0.0,nan,0.0,0.1530628,0.0031284294,0.0,0.0,0.0,0.0,0.0,0.0,0.0,0.0
109428849,0.00021651808,3.2033222e-05,6.6474645e-06,6.6695415e-05,0.011335069,0.0,0.0,0.15440425,0.0,0.0,3.2767913e-11,0.0,nan,nan,nan,nan,nan,nan,0.0,2.7333024e-06,0.0,0.0,nan,0.0,0.15440425,0.0009555424,0.0,0.0,0.0,0.0,0.0,0.0,0.0,0.0
109628884,0.0005288945,3.203133e-05,8.825903e-05,6.0303006e-05,0.011317446,0.0,0.0,0.15381418,0.0,0.0,3.2767487e-11,0.0,nan,nan,nan,nan,nan,nan,0.0,8.901905e-06,0.0,0.0,nan,0.0,0.15381418,0.001343346,0.0,0.0,0.0,0.0,0.0,0.0,0.0,0.0
109828849,0.00016997091,3.202778e-05,0.00019887708,0.000113000155,0.011299976,0.0,0.0,0.1532292,0.0,0.0,3.2767077e-11,0.0,nan,nan,nan,nan,nan,nan,0.0,8.209369e-05,0.0,0.0,nan,0.0,0.1532292,0.0029061295,0.0,0.0,0.0,0.0,0.0,0.0,0.0,0.0
110028849,3.2324107e-05,3.2029977e-05,1.9366885e-06,9.654495e-05,0.0113404635,0.0,0.0,0.15458183,0.0,0.0,3.2766678e-11,0.0,nan,nan,nan,nan,nan,nan,0.0,0.000132715,0.0,0.0,nan,0.0,0.15458183,0.00039396217,0.0,0.0,0.0,0.0,0.0,0.0,0.0,0.0
110228849,1.7373253e-06,3.2029086e-05,0.00012895088,9.005708e-05,0.011321029,0.0,0.0,0.15396544,0.0,0.0,3.2766307e-11,0.0,nan,nan,nan,nan,nan,nan,0.0,3.912543e-05,0.0,0.0,nan,0.0,0.15396544,0.0010086655,0.0,0.0,0.0,0.0,0.0,0.0,0.0,0.0
110428852,0.0002019456,3.2026073e-05,4.7319622e-06,9.076786e-05,0.011358004,0.0,0.0,0.15527374,0.0,0.0,3.2765946e-11,0.0,nan,nan,nan,nan,nan,nan,0.0,4.6526766e-05,0.0,0.0,nan,0.0,0.15527374,0.00067887973,0.0,0.0,0.0,0.0,0.0,0.0,0.0,0.0
110628849,9.765073e-05,3.203054e-05,1.2552157e-07,6.70825e-05,0.011337773,0.0,0.0,0.1546374,0.0,0.0,3.276562e-11,0.0,nan,nan,nan,nan,nan,nan,0.0,4.2687832e-05,0.0,0.0,nan,0.0,0.1546374,3.5324967e-05,0.0,0.0,0.0,0.0,0.0,0.0,0.0,0.0
110828858,0.00044692447,3.2034844e-05,9.6820244e-05,8.343957e-05,0.011318212,0.0,0.0,0.15400903,0.0,0.0,3.276529e-11,0.0,nan,nan,nan,nan,nan,nan,0.0,0.00015732473,0.0,0.0,nan,0.0,0.15400903,0.0014431711,0.0,0.0,0.0,0.0,0.0,0.0,0.0,0.0
111628852,0.0025516197,3.202602e-05,0.00065618183,5.339785e-05,0.011302512,0.0,0.0,0.1534993,0.0,0.0,3.2764215e-11,0.0,nan,nan,nan,nan,nan,nan,0.0,0.00019075524,0.0,0.0,nan,0.0,0.1534993,2.3998648e-05,0.0,0.0,0.0,0.0,0.0,0.0,0.0,0.0
111828899,0.00031893814,3.201473e-05,0.00038472225,2.7456337e-05,0.011285526,0.0,0.0,0.15290932,0.0,0.0,3.2764007e-11,0.0,nan,nan,nan,nan,nan,nan,0.0,2.7060141e-06,0.0,0.0,nan,0.0,0.15290932,0.0015306753,0.0,0.0,0.0,0.0,0.0,0.0,0.0,0.0
112028867,0.00018330301,3.201604e-05,0.00069460436,1.0861197e-05,0.011326107,0.0,0.0,0.15424953,0.0,0.0,3.2763785e-11,0.0,nan,nan,nan,nan,nan,nan,0.0,2.877e-08,0.0,0.0,nan,0.0,0.15424953,0.00026421674,0.0,0.0,0.0,0.0,0.0,0.0,0.0,0.0
112228849,0.00057226693,3.2016582e-05,0.0003685301,2.6618924e-05,0.011309437,0.0,0.0,0.15366231,0.0,0.0,3.276359e-11,0.0,nan,nan,nan,nan,nan,nan,0.0,1.91213e-06,0.0,0.0,nan,0.0,0.15366231,0.008513906,0.0,0.0,0.0,0.0,0.0,0.0,0.0,0.0
112428856,0.00032767685,3.2012376e-05,0.0001249665,3.181914e-05,0.011292822,0.0,0.0,0.1530802,0.0,0.0,3.2763417e-11,0.0,nan,nan,nan,nan,nan,nan,0.0,9.08029e-05,0.0,0.0,nan,0.0,0.1530802,1.4663605e-05,0.0,0.0,0.0,0.0,0.0,0.0,0.0,0.0
112628849,6.368753e-05,3.2013064e-05,3.3263314e-06,1.3578139e-05,0.011333419,0.0,0.0,0.15442546,0.0,0.0,3.2763233e-11,0.0,nan,nan,nan,nan,nan,nan,0.0,1.3060459e-05,0.0,0.0,nan,0.0,0.15442546,0.0008700492,0.0,0.0,0.0,0.0,0.0,0.0,0.0,0.0
112828852,0.00027298307,3.2014304e-05,0.00016935752,7.719983e-06,0.011317073,0.0,0.0,0.15384525,0.0,0.0,3.276308e-11,0.0,nan,nan,nan,nan,nan,nan,0.0,7.0694273e-06,0.0,0.0,nan,0.0,0.15384525,0.0004070059,0.0,0.0,0.0,0.0,0.0,0.0,0.0,0.0
113028849,0.00020467567,3.200646e-05,0.0019014173,7.924692e-06,0.011301184,0.0,0.0,0.15327613,0.0,0.0,3.2762945e-11,0.0,nan,nan,nan,nan,nan,nan,0.0,2.7724158e-05,0.0,0.0,nan,0.0,0.15327613,0.0044034943,0.0,0.0,0.0,0.0,0.0,0.0,0.0,0.0
113228871,9.187746e-05,3.200283e-05,0.0014474076,4.4093254e-06,0.011342024,0.0,0.0,0.15463196,0.0,0.0,3.2762813e-11,0.0,nan,nan,nan,nan,nan,nan,0.0,1.1753409e-05,0.0,0.0,nan,0.0,0.15463196,0.005424731,0.0,0.0,0.0,0.0,0.0,0.0,0.0,0.0
113428849,0.00013086881,3.2009935e-05,0.00029572035,6.229319e-06,0.011324322,0.0,0.0,0.15403731,0.0,0.0,3.2762695e-11,0.0,nan,nan,nan,nan,nan,nan,0.0,3.0025602e-05,0.0,0.0,nan,0.0,0.15403731,7.805681e-05,0.0,0.0,0.0,0.0,0.0,0.0,0.0,0.0
113828899,8.345431e-05,3.2000324e-05,6.8058456e-05,5.5292213e-07,0.011291505,0.0,0.0,0.15285735,0.0,0.0,3.2762508e-11,0.0,nan,nan,nan,nan,nan,nan,0.0,5.5055498e-05,0.0,0.0,nan,0.0,0.15285735,0.006996861,0.0,0.0,0.0,0.0,0.0,0.0,0.0,0.0
114028852,1.2445697e-05,3.2005897e-05,0.0007649287,2.239764e-06,0.011328798,0.0,0.0,0.15419655,0.0,0.0,3.2762425e-11,0.0,nan,nan,nan,nan,nan,nan,0.0,8.277837e-05,0.0,0.0,nan,0.0,0.15419655,1.3612748e-08,0.0,0.0,0.0,0.0,0.0,0.0,0.0,0.0
114228851,0.0002790686,3.200688e-05,5.147515e-06,1.7437018e-05,0.0113114305,0.0,0.0,0.15360844,0.0,0.0,3.276236e-11,0.0,nan,nan,nan,nan,nan,nan,0.0,3.9613537e-06,0.0,0.0,nan,0.0,0.15360844,7.807437e-05,0.0,0.0,0.0,0.0,0.0,0.0,0.0,0.0
114428849,0.0012733473,3.2000502e-05,3.6935228e-06,2.9209745e-05,0.01129464,0.0,0.0,0.15303178,0.0,0.0,3.27623e-11,0.0,nan,nan,nan,nan,nan,nan,0.0,0.00016532277,0.0,0.0,nan,0.0,0.15303178,1.7638278e-05,0.0,0.0,0.0,0.0,0.0,0.0,0.0,0.0
114628851,0.00034539777,3.2001004e-05,0.0005017407,2.3855984e-05,0.011335519,0.0,0.0,0.15438755,0.0,0.0,3.2762237e-11,0.0,nan,nan,nan,nan,nan,nan,0.0,6.953853e-06,0.0,0.0,nan,0.0,0.15438755,2.659625e-06,0.0,0.0,0.0,0.0,0.0,0.0,0.0,0.0
114828849,0.0005435377,3.2000316e-05,7.888507e-05,2.8935523e-05,0.011317491,0.0,0.0,0.15379205,0.0,0.0,3.276221e-11,0.0,nan,nan,nan,nan,nan,nan,0.0,4.4164924e-05,0.0,0.0,nan,0.0,0.15379205,0.0017541503,0.0,0.0,0.0,0.0,0.0,0.0,0.0,0.0
115028849,0.00041719142,3.1996326e-05,1.0030199e-06,1.0349773e-05,0.011298736,0.0,0.0,0.1531892,0.0,0.0,3.2762185e-11,0.0,nan,nan,nan,nan,nan,nan,0.0,0.00018475931,0.0,0.0,nan,0.0,0.1531892,0.00021034498,0.0,0.0,0.0,0.0,0.0,0.0,0.0,0.0
115228856,0.00025200786,3.199468e-05,0.0005251145,2.5987634e-05,0.011338489,0.0,0.0,0.15453026,0.0,0.0,3.2762158e-11,0.0,nan,nan,nan,nan,nan,nan,0.0,9.958101e-06,0.0,0.0,nan,0.0,0.15453026,0.00014091014,0.0,0.0,0.0,0.0,0.0,0.0,0.0,0.0
115428862,0.00052469503,3.1995343e-05,0.00031513485,3.6291167e-05,0.011320753,0.0,0.0,0.15393701,0.0,0.0,3.276213e-11,0.0,nan,nan,nan,nan,nan,nan,0.0,0.00026081887,0.0,0.0,nan,0.0,0.15393701,5.965874e-05,0.0,0.0,0.0,0.0,0.0,0.0,0.0,0.0
115628857,0.00027014283,3.199514e-05,1.2188663e-06,4.725335e-05,0.011303205,0.0,0.0,0.1533489,0.0,0.0,3.276212e-11,0.0,nan,nan,nan,nan,nan,nan,0.0,0.00012248682,0.0,0.0,nan,0.0,0.1533489,0.0012132783,0.0,0.0,0.0,0.0,0.0,0.0,0.0,0.0
115828849,0.00062606245,3.1995078e-05,2.6804311e-05,3.375861e-05,0.011285818,0.0,0.0,0.15276583,0.0,0.0,3.2762137e-11,0.0,nan,nan,nan,nan,nan,nan,0.0,2.677537e-05,0.0,0.0,nan,0.0,0.15276583,0.00017611604,0.0,0.0,0.0,0.0,0.0,0.0,0.0,0.0
116028842,1.2400834e-05,3.199436e-05,0.002028478,2.4146355e-05,0.011326502,0.0,0.0,0.15411545,0.0,0.0,3.276215e-11,0.0,nan,nan,nan,nan,nan,nan,0.0,0.000102923805,0.0,0.0,nan,0.0,0.15411545,0.0040289997,0.0,0.0,0.0,0.0,0.0,0.0,0.0,0.0
116228859,1.5981796e-05,3.1992102e-05,0.00026200703,5.294814e-05,0.011308878,0.0,0.0,0.15352714,0.0,0.0,3.2762168e-11,0.0,nan,nan,nan,nan,nan,nan,0.0,2.8525992e-06,0.0,0.0,nan,0.0,0.15352714,0.00054218585,0.0,0.0,0.0,0.0,0.0,0.0,0.0,0.0
116428853,0.00034506287,3.199092e-05,1.8232451e-05,4.063412e-05,0.011346173,0.0,0.0,0.154838,0.0,0.0,3.2762182e-11,0.0,nan,nan,nan,nan,nan,nan,0.0,8.135957e-05,0.0,0.0,nan,0.0,0.154838,0.000458114,0.0,0.0,0.0,0.0,0.0,0.0,0.0,0.0
116628853,0.0002108738,3.1994347e-05,0.0001334497,2.8252729e-05,0.011325646,0.0,0.0,0.15420184,0.0,0.0,3.2762192e-11,0.0,nan,nan,nan,nan,nan,nan,0.0,2.9857927e-06,0.0,0.0,nan,0.0,0.15420184,6.0197026e-06,0.0,0.0,0.0,0.0,0.0,0.0,0.0,0.0
116828910,5.6656198e-05,3.1993823e-05,0.00051495293,3.5629106e-05,0.011305709,0.0,0.0,0.15357351,0.0,0.0,3.2762213e-11,0.0,nan,nan,nan,nan,nan,nan,0.0,1.2871911e-05,0.0,0.0,nan,0.0,0.15357351,0.0009392395,0.0,0.0,0.0,0.0,0.0,0.0,0.0,0.0
117028892,9.247973e-05,3.198934e-05,0.0005264716,2.387903e-05,0.011344191,0.0,0.0,0.15489355,0.0,0.0,3.276227e-11,0.0,nan,nan,nan,nan,nan,nan,0.0,1.7252087e-05,0.0,0.0,nan,0.0,0.15489355,0.0003580129,0.0,0.0,0.0,0.0,0.0,0.0,0.0,0.0
117228926,0.00042800282,3.1990363e-05,6.336017e-05,5.88355e-06,0.011325628,0.0,0.0,0.15427786,0.0,0.0,3.2762314e-11,0.0,nan,nan,nan,nan,nan,nan,0.0,8.489332e-06,0.0,0.0,nan,0.0,0.15427786,0.00015681106,0.0,0.0,0.0,0.0,0.0,0.0,0.0,0.0
117428850,0.0017480067,3.1987565e-05,4.669469e-05,2.5675825e-05,0.011306955,0.0,0.0,0.1536625,0.0,0.0,3.2762362e-11,0.0,nan,nan,nan,nan,nan,nan,0.0,4.148884e-05,0.0,0.0,nan,0.0,0.1536625,3.3431446e-05,0.0,0.0,0.0,0.0,0.0,0.0,0.0,0.0
117628849,5.279991e-05,3.1986103e-05,0.0005988198,1.6582e-05,0.011289024,0.0,0.0,0.15306036,0.0,0.0,3.276241e-11,0.0,nan,nan,nan,nan,nan,nan,0.0,6.0223785e-05,0.0,0.0,nan,0.0,0.15306036,0.00012759559,0.0,0.0,0.0,0.0,0.0,0.0,0.0,0.0
117828849,0.00019915133,3.1990265e-05,7.9523315e-06,1.0540496e-05,0.011328966,0.0,0.0,0.15439259,0.0,0.0,3.2762452e-11,0.0,nan,nan,nan,nan,nan,nan,0.0,9.946164e-06,0.0,0.0,nan,0.0,0.15439259,0.007905961,0.0,0.0,0.0,0.0,0.0,0.0,0.0,0.0
120028849,2.436589e-05,3.1990236e-05,3.6284066e-05,4.3869386e-05,0.011292134,0.0,0.0,0.15324704,0.0,0.0,3.2763063e-11,0.0,nan,nan,nan,nan,nan,nan,0.0,3.4251785e-05,0.0,0.0,nan,0.0,0.15324704,0.0005064398,0.0,0.0,0.0,0.0,0.0,0.0,0.0,0.0
120228849,0.0002503534,3.1991178e-05,8.956282e-06,4.743331e-06,0.011331841,0.0,0.0,0.15456733,0.0,0.0,3.2763122e-11,0.0,nan,nan,nan,nan,nan,nan,0.0,2.4101266e-05,0.0,0.0,nan,0.0,0.15456733,2.7506558e-05,0.0,0.0,0.0,0.0,0.0,0.0,0.0,0.0
120428868,6.330903e-05,3.1985426e-05,0.0001466893,5.0818103e-06,0.011313704,0.0,0.0,0.15394709,0.0,0.0,3.2763188e-11,0.0,nan,nan,nan,nan,nan,nan,0.0,3.068809e-05,0.0,0.0,nan,0.0,0.15394709,0.0016430719,0.0,0.0,0.0,0.0,0.0,0.0,0.0,0.0
120628885,0.00020083295,3.198376e-05,3.508737e-05,8.243875e-06,0.01129625,0.0,0.0,0.15334074,0.0,0.0,3.2763247e-11,0.0,nan,nan,nan,nan,nan,nan,0.0,0.00018359501,0.0,0.0,nan,0.0,0.15334074,0.0006300704,0.0,0.0,0.0,0.0,0.0,0.0,0.0,0.0
120828899,0.0010500138,3.198751e-05,0.00058304664,2.0200301e-05,0.01133674,0.0,0.0,0.15467624,0.0,0.0,3.2763292e-11,0.0,nan,nan,nan,nan,nan,nan,0.0,3.81376e-05,0.0,0.0,nan,0.0,0.15467624,0.00020914208,0.0,0.0,0.0,0.0,0.0,0.0,0.0,0.0
121028849,5.157034e-05,3.1988544e-05,7.301562e-05,2.0463254e-05,0.011318329,0.0,0.0,0.1540547,0.0,0.0,3.2763344e-11,0.0,nan,nan,nan,nan,nan,nan,0.0,9.323273e-07,0.0,0.0,nan,0.0,0.1540547,0.0002857721,0.0,0.0,0.0,0.0,0.0,0.0,0.0,0.0
121228849,0.0003705931,3.1987074e-05,1.3621325e-07,1.3090978e-05,0.011299753,0.0,0.0,0.1534342,0.0,0.0,3.27634e-11,0.0,nan,nan,nan,nan,nan,nan,0.0,7.658307e-09,0.0,0.0,nan,0.0,0.1534342,0.0040072133,0.0,0.0,0.0,0.0,0.0,0.0,0.0,0.0
121428850,5.132178e-06,3.1988227e-05,0.00016792181,8.781438e-06,0.011339291,0.0,0.0,0.15475853,0.0,0.0,3.2763448e-11,0.0,nan,nan,nan,nan,nan,nan,0.0,2.0399071e-09,0.0,0.0,nan,0.0,0.15475853,0.0009105669,0.0,0.0,0.0,0.0,0.0,0.0,0.0,0.0
121628849,9.784128e-06,3.198992e-05,2.145411e-05,6.939901e-06,0.011321841,0.0,0.0,0.15415053,0.0,0.0,3.2763497e-11,0.0,nan,nan,nan,nan,nan,nan,0.0,6.9539616e-05,0.0,0.0,nan,0.0,0.15415053,0.0002502817,0.0,0.0,0.0,0.0,0.0,0.0,0.0,0.0
121828886,0.0002425172,3.198616e-05,0.00010810531,5.2247115e-06,0.011304112,0.0,0.0,0.15354265,0.0,0.0,3.2763556e-11,0.0,nan,nan,nan,nan,nan,nan,0.0,3.5194436e-05,0.0,0.0,nan,0.0,0.15354265,0.0044622123,0.0,0.0,0.0,0.0,0.0,0.0,0.0,0.0
122428849,0.00076283637,3.1988497e-05,0.000396997,7.1416866e-06,0.011313521,0.0,0.0,0.15369934,0.0,0.0,3.2763722e-11,0.0,nan,nan,nan,nan,nan,nan,0.0,7.996092e-05,0.0,0.0,nan,0.0,0.15369934,0.0008381993,0.0,0.0,0.0,0.0,0.0,0.0,0.0,0.0
122628862,0.0007364556,3.1986587e-05,0.0006135367,1.3158342e-06,0.011295684,0.0,0.0,0.15310049,0.0,0.0,3.2763778e-11,0.0,nan,nan,nan,nan,nan,nan,0.0,3.6143752e-05,0.0,0.0,nan,0.0,0.15310049,9.647598e-06,0.0,0.0,0.0,0.0,0.0,0.0,0.0,0.0
122828852,9.033088e-05,3.198513e-05,0.00046911868,3.1765264e-06,0.011334688,0.0,0.0,0.15442401,0.0,0.0,3.2763837e-11,0.0,nan,nan,nan,nan,nan,nan,0.0,3.3330396e-06,0.0,0.0,nan,0.0,0.15442401,0.00060792436,0.0,0.0,0.0,0.0,0.0,0.0,0.0,0.0
123028849,6.4424705e-05,3.19913e-05,0.00014114821,4.2269844e-06,0.011316471,0.0,0.0,0.15381674,0.0,0.0,3.276389e-11,0.0,nan,nan,nan,nan,nan,nan,0.0,3.3127882e-05,0.0,0.0,nan,0.0,0.15381674,0.00055762817,0.0,0.0,0.0,0.0,0.0,0.0,0.0,0.0
123228863,0.0005600459,3.198939e-05,4.566412e-06,1.2105611e-05,0.011298528,0.0,0.0,0.1532158,0.0,0.0,3.2763944e-11,0.0,nan,nan,nan,nan,nan,nan,0.0,4.9247876e-05,0.0,0.0,nan,0.0,0.1532158,8.754277e-05,0.0,0.0,0.0,0.0,0.0,0.0,0.0,0.0
123428858,0.0001440356,3.198702e-05,0.00019770963,1.656656e-06,0.011338429,0.0,0.0,0.1545533,0.0,0.0,3.2764007e-11,0.0,nan,nan,nan,nan,nan,nan,0.0,1.7697179e-05,0.0,0.0,nan,0.0,0.1545533,0.0002710352,0.0,0.0,0.0,0.0,0.0,0.0,0.0,0.0
123628849,0.00012516133,3.199292e-05,0.00014617782,1.4355216e-05,0.0113213435,0.0,0.0,0.15396257,0.0,0.0,3.276406e-11,0.0,nan,nan,nan,nan,nan,nan,0.0,8.119352e-05,0.0,0.0,nan,0.0,0.15396257,0.0005984578,0.0,0.0,0.0,0.0,0.0,0.0,0.0,0.0
123828852,0.00014710115,3.1993113e-05,2.8109189e-05,8.349084e-06,0.0113039585,0.0,0.0,0.15337083,0.0,0.0,3.2764114e-11,0.0,nan,nan,nan,nan,nan,nan,0.0,6.252424e-05,0.0,0.0,nan,0.0,0.15337083,0.00016515981,0.0,0.0,0.0,0.0,0.0,0.0,0.0,0.0
124028849,0.00064554095,3.199028e-05,0.0009962928,1.5918109e-06,0.011341539,0.0,0.0,0.15471472,0.0,0.0,3.2764173e-11,0.0,nan,nan,nan,nan,nan,nan,0.0,3.7087034e-08,0.0,0.0,nan,0.0,0.15471472,0.00013944221,0.0,0.0,0.0,0.0,0.0,0.0,0.0,0.0
124228849,0.00041402254,3.1993954e-05,0.00014715355,1.30812e-06,0.011321759,0.0,0.0,0.154086,0.0,0.0,3.2764225e-11,0.0,nan,nan,nan,nan,nan,nan,0.0,9.9053665e-05,0.0,0.0,nan,0.0,0.154086,0.004486444,0.0,0.0,0.0,0.0,0.0,0.0,0.0,0.0
