timestamp,yaw_composite,yaw_variance,yaw[0],yaw[1],yaw[2],yaw[3],yaw[4],innov_vn[0],innov_vn[1],innov_vn[2],innov_vn[3],innov_vn[4],innov_ve[0],innov_ve[1],innov_ve[2],innov_ve[3],innov_ve[4],weight[0],weight[1],weight[2],weight[3],weight[4]
333958849,-0.27929807,3.6295922,-2.515927,-1.25929,-0.0026533161,1.2539834,2.5106208,0.0,0.0,0.0,0.0,0.0,0.0,0.0,0.0,0.0,0.0,0.2,0.2,0.2,0.2,0.2
333968849,0.24106483,3.6127708,-2.516566,-1.2599285,-0.003291816,1.2533443,2.5099816,0.0,0.0,0.0,0.0,0.0,0.0,0.0,0.0,0.0,0.0,0.2,0.2,0.2,0.2,0.2
334158864,0.38070515,1.123533,-2.448233,-0.92255443,0.11867941,0.9731656,2.1966484,-2.0362248,-1.010633,-0.053273678,-0.48717213,-1.712698,-0.5050975,-1.1784993,-0.41119885,0.7364099,0.678386,0.032243785,0.1354395,0.43185127,0.33055192,0.06991355
334358849,0.3849143,0.1462346,-2.2760928,-0.32059702,0.2874811,0.58775043,1.6030192,-3.5211926,-1.2755737,-0.34741783,-0.84063435,-2.7828755,-1.234865,-1.9488952,-0.512712,0.8143549,1.144073,0.000100893674,0.013712088,0.6359422,0.34991148,0.0003332829
334558852,0.38413662,0.06525025,-2.1207404,0.00079965295,0.34475648,0.46672595,1.2377949,-3.9720035,-0.34424973,-0.19987011,-0.2880516,-2.0600133,-1.6845322,-1.6482844,-0.17529535,0.5180962,1.9429147,5.2518753e-05,0.00234497,0.6681522,0.3293978,5.2518753e-05
334758851,0.42772543,0.034578342,-1.9542913,0.26345307,0.41638544,0.45017347,0.94307286,-4.967689,-0.11545563,-0.33589745,-0.3087101,-1.6879101,-2.5380495,-1.4105047,-0.17184043,0.23938942,2.2055223,4.8451446e-05,0.0007103315,0.6601081,0.33908463,4.8451446e-05
334958893,0.4990892,0.022817336,-1.7872478,0.4476552,0.4991327,0.49912852,0.8159738,-5.0830154,0.037014008,-0.410738,-0.34513474,-1.1188955,-3.574907,-0.96596265,-0.18368578,-0.004813671,1.8004684,4.4918444e-05,0.00042901884,0.6414559,0.3580252,4.4918444e-05
335158864,0.5605979,0.016382946,-1.6044493,0.58702195,0.56799424,0.54901975,0.7359187,-5.614565,-0.23967648,-0.68983936,-0.6106148,-1.0096283,-4.38739,-0.5551126,-0.06761432,0.008230209,1.6050293,5.582785e-05,0.0005123779,0.6110217,0.3883543,5.582785e-05
335358860,0.59617454,0.0126874,-1.4442291,0.6679555,0.60802597,0.5806434,0.6847906,-5.438555,-0.47182846,-0.83781147,-0.73512745,-0.8691368,-5.328217,-0.32238197,-0.07887077,-0.06368303,1.2478075,6.538172e-05,0.0007263286,0.5667156,0.43242744,6.538172e-05
335558849,0.60411114,0.010867014,-1.3052734,0.7066841,0.6209844,0.58785254,0.642462,-4.5841856,-0.9346094,-1.1754675,-1.0514364,-1.0240507,-6.092385,-0.41159916,-0.2915988,-0.29209185,0.7392669,0.00012941322,0.0009753014,0.4906385,0.50812733,0.00012941322
335758852,0.68211067,0.009533828,-1.070713,0.798323,0.7030921,0.6689645,0.70369357,-3.19633,-1.2645464,-1.3666477,-1.2162933,-1.0917463,-6.3547273,-0.41408348,-0.3235488,-0.31785727,0.52635,0.00018294304,0.0009121675,0.3867691,0.6119404,0.00019537013
335958870,0.64654404,0.007946173,-0.9161646,0.7530947,0.66747415,0.6385933,0.67159784,-1.4770565,-1.436718,-1.3952389,-1.216217,-1.0633402,-6.55026,-0.52338743,-0.41035223,-0.38498688,0.35158682,0.00017464354,0.00051885936,0.27886274,0.7201026,0.00034118354
336158854,0.6221454,0.006375835,-0.7430566,0.70451486,0.6384127,0.61801136,0.6542199,-0.20363617,-1.2994347,-1.1717472,-0.987483,-0.8564768,-6.7401905,-0.5849924,-0.48322344,-0.45174074,0.21675396,0.0001069126,0.00026170036,0.20565619,0.79341733,0.0005578484
336358858,0.6176291,0.0052780504,-0.5629811,0.67750484,0.6286051,0.61554337,0.6526992,0.26667118,-1.1211519,-0.9885845,-0.82896423,-0.7353487,-6.7978,-0.5129318,-0.4581566,-0.4339323,0.18056297,7.837924e-05,0.00015450903,0.16220011,0.83676153,0.0008055085
336558914,0.6373861,0.0044950945,-0.38636306,0.6812939,0.64419013,0.63627756,0.6717751,0.8748703,-0.7601795,-0.6477175,-0.5177126,-0.45231152,-6.763427,-0.64628696,-0.61878395,-0.5977011,-0.03856373,6.2437364e-05,0.000112276306,0.14040314,0.8581323,0.001289895
336758850,0.661591,0.003939072,-0.22405486,0.69322336,0.66524315,0.6610459,0.6940582,1.2080727,-0.68166256,-0.5925894,-0.4896183,-0.44122028,-6.450838,-0.74115753,-0.72329235,-0.7029619,-0.20627499,6.934753e-05,8.7401444e-05,0.124468245,0.8731486,0.0022263795
336958854,0.6712168,0.0035019445,-0.07863175,0.6917018,0.67208445,0.6710467,0.7026724,1.2273045,-0.8588829,-0.7895813,-0.70809174,-0.67220116,-5.850599,-0.5879803,-0.5757475,-0.5562973,-0.11628246,7.258389e-05,7.258389e-05,0.109789975,0.8867729,0.003292058
338758857,2.9102879,3.7141051,-2.5175688,-1.2609318,-0.004293412,1.2523447,2.508981,0.0,0.0,0.0,0.0,0.0,0.0,0.0,0.0,0.0,0.0,0.2,0.2,0.2,0.2,0.2
338958861,0.8842796,1.411962,-2.6535378,-1.078913,0.17660044,1.114562,2.1753578,-0.83363914,-1.5687904,-0.8490372,0.33096695,0.34049606,1.7307701,0.7350931,-0.27176,0.10162544,1.3392725,0.05106788,0.08303534,0.2975469,0.40363714,0.1647128
339158885,0.8107455,0.18081094,-2.8920317,-0.69437194,0.45287433,0.9306337,1.6318538,-1.0312996,-2.621769,-1.184515,0.38123703,0.9348297,3.2803755,1.2878227,-0.2720852,0.1731968,1.9167404,0.000113051334,0.00053102965,0.28664327,0.68717927,0.02553332
339358849,0.7181967,0.07129461,-3.1099942,-0.42796165,0.51858723,0.77859217,1.2413118,-0.88336563,-3.0795956,-0.7031765,0.31376457,1.3706932,4.2448516,0.7081809,-0.38139582,0.109717846,1.4429364,6.0983217e-05,6.0983217e-05,0.23715347,0.7604383,0.0022861783
339558849,0.61564624,0.037189435,2.9778173,-0.2704781,0.4812384,0.64975524,0.9683953,-0.75595665,-3.1666431,-0.3014698,0.37843513,1.6092396,5.1705136,-0.20197344,-0.591794,-0.14537764,0.8200741,5.6545687e-05,5.6545687e-05,0.20325585,0.7963932,0.00023776844
339758849,0.52143705,0.02237714,2.819261,-0.15485281,0.426299,0.543396,0.7682701,-0.7051544,-2.9267502,-0.083747864,0.4165764,1.600872,6.209201,-0.7723346,-0.553669,-0.16914368,0.5105195,5.2364343e-05,5.2364343e-05,0.1878795,0.8119634,5.2364343e-05
339958849,0.4753991,0.014049391,2.7088983,-0.0185647,0.40717322,0.48973167,0.6439631,-0.8565254,-2.7152004,0.0065231323,0.41547203,1.5341988,7.6584573,-1.2777255,-0.5772295,-0.23680687,0.2767191,5.181508e-05,5.181508e-05,0.17398751,0.8258571,5.181508e-05
340158849,0.44529328,0.00947122,2.640802,0.10008319,0.39642024,0.4561128,0.56261533,-0.8260269,-2.1269875,0.22615433,0.5507889,1.5407696,9.2556,-1.451663,-0.41837168,-0.1265943,0.22346282,5.1594274e-05,5.1594274e-05,0.18179263,0.81805253,5.1594274e-05
340358852,0.38934174,0.006812966,2.5465817,0.15021737,0.35330755,0.39767772,0.4716742,-0.8532486,-1.671896,0.18967247,0.44888687,1.3115139,10.608303,-1.4446409,-0.32376623,-0.096221924,0.106858015,4.530826e-05,4.530826e-05,0.1885716,0.81129247,4.530826e-05
340558849,0.30616748,0.004954376,2.419329,0.1479064,0.27894443,0.3125893,0.3608939,-0.13767624,-1.3467922,0.22736168,0.46661377,1.2555885,12.7393875,-1.5024351,-0.43137527,-0.2530502,-0.149665,4.8927224e-05,4.8927224e-05,0.19195686,0.8078964,4.8927224e-05
340758849,0.18906547,0.0035401674,2.2510145,0.089411795,0.16848494,0.1939358,0.21955732,2.236988,-1.1051083,0.263834,0.5125885,1.2425194,15.866929,-1.5921459,-0.675236,-0.5486206,-0.544886,6.589594e-05,6.589594e-05,0.19343902,0.80636334,6.589594e-05
340958852,0.07355302,0.0026036995,2.0915084,0.008889125,0.05782883,0.07745102,0.08718058,4.749962,-0.7150688,0.33146477,0.557518,1.1415405,18.30168,-1.4988792,-0.71183634,-0.627321,-0.70419407,7.258504e-05,7.258504e-05,0.20176284,0.79801947,7.258504e-05
341158851,-0.015036777,0.0021536609,1.9636797,-0.061482325,-0.027871022,-0.011763744,-0.011168961,6.9295177,-0.44609833,0.34160042,0.53746223,0.9722557,19.952726,-1.6564789,-0.9794893,-0.9244795,-1.0425463,0.000110589586,0.000110589586,0.20914918,0.7905191,0.000110589586
341358852,-0.08375455,0.0018294425,1.8612984,-0.11931148,-0.09455197,-0.080881305,-0.085781254,8.811689,-0.2807808,0.33794022,0.5090256,0.8278694,21.25476,-1.6327181,-1.0525694,-1.0162396,-1.1444387,0.0001259222,0.0001259222,0.21832682,0.7812955,0.0001259222
341558849,-0.14272399,0.0015220114,1.7756802,-0.17089778,-0.15191768,-0.14005923,-0.14843097,10.2116165,-0.0864315,0.4092865,0.55672264,0.78918076,22.282095,-1.4573956,-0.9588556,-0.93367195,-1.0584526,0.00010868434,0.00010868434,0.23294984,0.76672405,0.00010868434
341758851,-0.1994038,0.0012958985,1.6922791,-0.2225488,-0.20747669,-0.19696371,-0.2073153,11.209278,-0.17989922,0.22375488,0.35142326,0.5202522,23.015202,-1.3747196,-0.9502573,-0.93393326,-1.0503483,9.106204e-05,9.106204e-05,0.23999153,0.7597353,9.106204e-05
341958851,-0.26370385,0.0012395296,1.6023672,-0.28343996,-0.2709255,-0.26147157,-0.27307826,12.924715,-0.15096474,0.18873215,0.30405045,0.4217682,23.753738,-1.4105902,-1.0499144,-1.0414562,-1.1425543,0.000110038374,0.000110038374,0.2468394,0.75283045,0.000110038374
342158849,-0.33255908,0.0012773583,1.5077558,-0.349936,-0.33909568,-0.33053362,-0.34290695,15.019352,-0.17977142,0.11337471,0.22011185,0.29465675,24.409714,-1.494277,-1.1907835,-1.190052,-1.2727785,0.00015119757,0.00015119757,0.2529858,0.7465606,0.00015119757
342358853,-0.40285346,0.0012003833,1.4124079,-0.41840866,-0.40875828,-0.40098092,-0.41382045,17.023533,-0.2002182,0.054546356,0.15188217,0.19330788,24.821686,-1.4538965,-1.1996937,-1.205143,-1.269125,0.00015356246,0.00015356246,0.25929186,0.74024755,0.00015356246
342558852,-0.46944046,0.0013381977,1.3224691,-0.48368376,-0.47481787,-0.467736,-0.480857,19.317856,-0.13485336,0.089883804,0.17943001,0.19291687,25.053747,-1.528799,-1.3173132,-1.3281765,-1.3734274,0.00021856953,0.00021856953,0.26984403,0.72950035,0.00021856953
342758901,-0.5253102,0.00131568,1.24373,-0.5384683,-0.5302,-0.52372104,-0.5369171,21.158945,-0.20002174,-0.001291275,0.07959366,0.07294464,25.140392,-1.5127068,-1.338067,-1.3524599,-1.3821507,0.00023147953,0.00023147953,0.27925804,0.7200475,0.00023147953
342958852,-0.57011586,0.0011595954,1.1774125,-0.5822585,-0.5745074,-0.5685832,-0.58175266,23.04682,-0.15865135,0.01795578,0.09096336,0.069122314,25.168673,-1.4254332,-1.2819853,-1.2989111,-1.3145247,0.00019779187,0.00019779187,0.2905921,0.7087948,0.00021751942
343158852,-0.6198639,0.0012497365,1.1059915,-0.6312473,-0.6238998,-0.6184635,-0.6314762,24.95117,-0.25455284,-0.09674454,-0.030622482,-0.06506348,24.96743,-1.4607353,-1.34478,-1.3641434,-1.3659687,0.00024285741,0.00024285741,0.3005218,0.69874966,0.00024285741
343358875,-0.686725,0.001058315,1.0188755,-0.69732517,-0.69033676,-0.68534905,-0.6981713,26.802866,-0.18601418,-0.04550743,0.01354599,-0.028232574,24.637707,-1.360899,-1.2682171,-1.2891273,-1.2790947,0.00019070935,0.00019070935,0.31263086,0.68674296,0.0002448072
343558904,-0.7488986,0.0011490536,0.93657523,-0.75895756,-0.75224364,-0.74763596,-0.7602103,28.330816,-0.2953272,-0.17048931,-0.118190765,-0.16428089,24.037401,-1.3956432,-1.3225822,-1.3443985,-1.3244057,0.00023335732,0.00023335732,0.32303354,0.67624784,0.00025187022
343758853,-0.8005469,0.0011413362,0.86497515,-0.81012875,-0.8036413,-0.79936093,-0.8116488,29.723537,-0.39601898,-0.2850027,-0.23879814,-0.28676128,23.356344,-1.3689556,-1.3125229,-1.3347931,-1.3064117,0.00024086084,0.00024086084,0.33165032,0.6676051,0.00026292237
343958852,-0.84091383,0.0011134513,0.8056903,-0.8500688,-0.84378,-0.839786,-0.85179025,30.996428,-0.3963995,-0.297637,-0.2568531,-0.305048,22.65043,-1.3515968,-1.3086452,-1.3306599,-1.2963696,0.00023945644,0.00023945644,0.3406501,0.65859234,0.00027870314
344158854,-0.87846,0.0009832236,0.7498952,-0.887203,-0.88109064,-0.877345,-0.8890675,32.026413,-0.4154415,-0.32815266,-0.29251194,-0.33899498,21.889439,-1.2699013,-1.2381687,-1.2596321,-1.2209816,0.0001977703,0.00020528906,0.34885818,0.6504414,0.0002973174
344358852,-0.9121539,0.0009781366,0.69844425,-0.92057294,-0.91461504,-0.9110912,-0.9225363,33.07927,-0.4449892,-0.36775875,-0.3365383,-0.38092518,20.916416,-1.2542133,-1.2325592,-1.253828,-1.2103481,0.000201409,0.000201409,0.35704863,0.6422279,0.0003206789
344558859,-0.94411147,0.00094335916,0.6492379,-0.95223767,-0.9464139,-0.94308376,-0.9542615,33.88311,-0.48856163,-0.42072487,-0.3936758,-0.43472004,19.904478,-1.2126274,-1.1991425,-1.2198467,-1.1732082,0.00019243918,0.00019243918,0.36464524,0.63462245,0.00034747113
344758899,-0.8989169,0.00093215145,0.67762625,-0.9067385,-0.90107733,-0.89793396,-0.9088101,34.610783,-0.542429,-0.48308086,-0.4597597,-0.4969988,18.75439,-1.1801414,-1.1738625,-1.1941719,-1.1443825,0.0001917691,0.0001917691,0.3718203,0.6274178,0.0003784275
344958849,-0.92673916,0.0008877127,0.63384223,-0.9343182,-0.92876863,-0.92577595,-0.9364104,35.054836,-0.5505085,-0.49899673,-0.47908497,-0.51207924,17.731155,-1.1400566,-1.1387825,-1.1579895,-1.1079063,0.00017623178,0.00018179973,0.37869078,0.6205388,0.0004124696
345158853,-0.95870507,0.0007921867,0.5863102,-0.966065,-0.9606074,-0.95773554,-0.9681474,35.15288,-0.63602734,-0.5917835,-0.57500935,-0.6033001,16.856873,-0.9980717,-1.0002823,-1.0181351,-0.96925926,0.0001374744,0.00017292418,0.3833065,0.6159411,0.00044198
345358852,-0.99485165,0.00078065944,0.5364081,-1.0020555,-0.9966723,-0.9938997,-1.0041385,35.108017,-0.578557,-0.5409603,-0.5269861,-0.55041885,15.945599,-1.0095348,-1.013794,-1.0300465,-0.9839668,0.00013157038,0.0001681082,0.3884632,0.6107618,0.00047528947
345558857,-1.0254834,0.0006771407,0.49304482,-1.0325123,-1.0271963,-1.024504,-1.0345972,35.062187,-0.4772458,-0.4444232,-0.4323206,-0.45332003,15.553211,-0.86847305,-0.87345123,-0.88785934,-0.8460083,8.439636e-05,0.00016544542,0.3926598,0.60658675,0.0005035359
345758849,-1.0489969,0.00067715335,0.45787245,-1.0559245,-1.0506612,-1.0480285,-1.0580096,34.80537,-0.5071621,-0.47809887,-0.46738672,-0.48694992,15.303917,-0.8278351,-0.8325958,-0.8450661,-0.8083191,8.0228645e-05,0.00016256789,0.3957154,0.6035151,0.0005267353
346158849,-1.0804986,0.0006507377,0.4061033,-1.0872569,-1.082075,-1.079529,-1.0893483,34.344597,-0.40070152,-0.37854576,-0.37042665,-0.3859806,14.628382,-0.7048569,-0.7097111,-0.7194519,-0.6898174,5.7390487e-05,0.00015986117,0.40060768,0.59861034,0.0005646962
346358880,-1.0757384,0.00065023464,0.40201393,-1.0824403,-1.0772861,-1.0747693,-1.0845336,34.051197,-0.37902164,-0.3593874,-0.35216188,-0.36657572,14.440756,-0.6390209,-0.64348793,-0.6519604,-0.6259346,5.0512226e-05,0.00015882825,0.40228623,0.5969257,0.0005787579
346758853,-1.0126834,0.0006730418,0.44954476,-1.0193182,-1.0141985,-1.011719,-1.0214145,33.455826,-0.3631115,-0.3471918,-0.34121132,-0.35445404,14.124109,-0.59207535,-0.59565926,-0.60202026,-0.5822563,4.632403e-05,0.00015674012,0.404673,0.5945238,0.0006000822
346958849,-0.9554888,0.0006760386,0.50002414,-0.96209663,-0.95698774,-0.95452046,-0.96419525,33.204727,-0.26462173,-0.25042963,-0.24505568,-0.25739145,13.974445,-0.53261185,-0.5358257,-0.5413437,-0.5241127,3.9763887e-05,0.00015637091,0.40562972,0.5935662,0.0006079664
347158849,-0.8988257,0.000686329,0.5507625,-0.90541595,-0.9003142,-0.8978555,-0.9075165,32.86006,-0.22120047,-0.20840454,-0.20351171,-0.21520758,13.922106,-0.4803543,-0.48285675,-0.48747063,-0.4731388,3.6285877e-05,0.00015606027,0.4063503,0.5928436,0.00061377673
347358849,-0.8542282,0.0006962671,0.590759,-0.8608027,-0.8557085,-0.8532552,-0.86290586,32.426468,-0.1521635,-0.14007282,-0.13535309,-0.14744091,14.23265,-0.40361786,-0.404253,-0.40748978,-0.39803123,3.23023e-05,0.0001556371,0.4067421,0.5924535,0.00061650015
347558890,-0.87015647,0.0007066982,0.5717361,-0.87673813,-0.8716333,-0.8691779,-0.87884134,32.003613,-0.0020542145,0.009262085,0.01376152,0.0016231537,14.632811,-0.27791023,-0.27663612,-0.27853584,-0.27387428,2.8359644e-05,0.00015565015,0.40708464,0.592113,0.0006182095
347758879,-0.8644718,0.00072421785,0.5756069,-0.8710338,-0.86594486,-0.8634948,-0.87314135,31.429783,-0.046085358,-0.03550434,-0.031230927,-0.043281555,14.904892,-0.24819756,-0.24545479,-0.24629974,-0.24542236,2.781863e-05,0.00015524727,0.4071253,0.5920738,0.0006178095
347958849,-0.87401736,0.00074137456,0.5650258,-0.8805578,-0.8754858,-0.8730416,-0.8826718,31.152016,0.07735729,0.08757591,0.09178734,0.07930851,15.15897,-0.19272614,-0.18918228,-0.18933105,-0.1908474,2.7229846e-05,0.00015540289,0.40736535,0.59183335,0.0006187224
348158849,-0.89460385,0.0007572206,0.5430741,-0.9011192,-0.8960664,-0.8936296,-0.903237,30.946873,0.054739,0.06507015,0.069438934,0.05576992,15.378391,-0.120931625,-0.11735535,-0.117227554,-0.11954689,2.6249516e-05,0.00015554132,0.40753204,0.5916667,0.00061941793
348358852,-0.91582435,0.000775793,0.5191763,-0.9223092,-0.91727996,-0.91485393,-0.9244342,31.149471,0.15505028,0.16586018,0.17054558,0.15513039,15.363168,-0.11868477,-0.11628342,-0.116493225,-0.11720848,2.6874706e-05,0.00015628399,0.40801463,0.5911796,0.00062259985
348558858,-0.9346336,0.00079467986,0.49588764,-0.94107914,-0.93607956,-0.9336683,-0.9432141,31.504196,0.2521143,0.26327515,0.26820564,0.25138187,15.17335,-0.11278725,-0.11223984,-0.113155365,-0.11086273,2.8038772e-05,0.00015770628,0.40885973,0.5903256,0.0006288661
348758849,-0.9606408,0.0008070276,0.46215037,-0.96703357,-0.9620721,-0.9596806,-0.96917,31.95145,0.18004942,0.191751,0.19700766,0.1785016,14.821629,-0.08664322,-0.088804245,-0.09086037,-0.08382797,2.6807307e-05,0.0001589132,0.40958112,0.5895988,0.0006344571
348958854,-0.9987101,0.0008268,0.41253844,-1.005021,-1.000122,-0.99776477,-1.0071552,32.939873,0.38382483,0.39579678,0.4012437,0.38165283,14.122463,-0.014064789,-0.020313263,-0.024206161,-0.009674072,3.0947907e-05,0.00016131792,0.4109184,0.58824384,0.0006454084
349158849,-1.0384381,0.00083549856,0.35815647,-1.0446377,-1.0398207,-1.0375081,-1.0467584,33.573128,0.38985777,0.40148973,0.40681648,0.3873701,13.326007,-0.033187866,-0.04250145,-0.04776001,-0.02758789,3.1337284e-05,0.00016384355,0.4123266,0.58682096,0.0006572627
349358849,-1.0907295,0.0008350169,0.28863317,-1.0968065,-1.0920792,-1.0898143,-1.0988953,33.8694,0.26380587,0.27486897,0.27995586,0.26115942,12.731903,0.030838013,0.019767761,0.013774872,0.037107468,2.8211278e-05,0.000165237,0.41310096,0.5860421,0.0006635384
349558851,-1.127769,0.00083845865,0.23061776,-1.1336886,-1.129083,-1.1268803,-1.1357238,34.592255,0.3005681,0.31146526,0.3165021,0.29767227,11.974958,0.14208412,0.12828445,0.12107468,0.14948845,2.9832276e-05,0.0001659912,0.41350308,0.58563507,0.000666104
349758912,-1.160038,0.00084540574,0.17908089,-1.1658057,-1.1613168,-1.1591746,-1.1678038,34.825127,0.419487,0.42986298,0.4346695,0.41655207,11.533272,0.01928711,0.006044388,-0.0008029938,0.026313782,3.279624e-05,0.00016815714,0.41468737,0.58443534,0.00067639904
349958849,-1.2047385,0.000851502,0.11609531,-1.2103658,-1.2059841,-1.2038971,-1.212331,34.98117,0.46329188,0.4735782,0.47835565,0.46013832,11.399941,0.033765793,0.021526337,0.0152339935,0.040266037,3.462449e-05,0.0001704514,0.41591868,0.5831887,0.0006874971
350158852,-1.2520361,0.00085148256,0.04959407,-1.257517,-1.2532458,-1.251215,-1.2594439,35.29373,0.425483,0.43589687,0.4407456,0.42204595,11.086637,0.066185,0.05375862,0.047437668,0.07273483,3.3654647e-05,0.00017236693,0.4169381,0.58215916,0.000696742
350358854,-1.3059152,0.00085484376,-0.024976838,-1.3112285,-1.307087,-1.3051219,-1.3131113,35.922607,0.4960035,0.5067228,0.51172626,0.49223673,10.542315,0.0523777,0.038864136,0.03208542,0.05940628,3.6748235e-05,0.00017479257,0.41821706,0.58086264,0.0007088083
350558899,-1.3715645,0.0008526479,-0.11545887,-1.3766406,-1.3726845,-1.3708125,-1.3784584,37.07304,0.60559475,0.61641014,0.62146866,0.6016084,9.241875,-0.00920105,-0.026388168,-0.03487587,-0.00040245056,4.306791e-05,0.00017827173,0.420038,0.57901394,0.000726693
350758849,-1.4266956,0.00082609506,-0.19962884,-1.431463,-1.4277425,-1.4259875,-1.4331894,38.01495,0.5519223,0.56209314,0.5668505,0.5480578,7.655464,-0.066295624,-0.08693504,-0.097011566,-0.055753708,4.1142597e-05,0.000181874,0.42191657,0.5771149,0.0007455751
350958852,-1.4838971,0.0007967647,-0.28727865,-1.4883479,-1.4848706,-1.4832351,-1.4899718,38.481762,0.50102425,0.5098784,0.5140114,0.49761724,6.3475857,-0.066625595,-0.08833122,-0.09885788,-0.0554657,3.9406743e-05,0.00018491098,0.4234875,0.57552654,0.0007615675
351158849,-1.5520436,0.00078401424,-0.38967875,-1.5561615,-1.5529547,-1.55145,-1.5576481,39.134003,0.7105179,0.71745396,0.72068214,0.7078886,4.889084,0.19186974,0.1686058,0.15738297,0.20389557,5.41034e-05,0.00018533747,0.42374343,0.57525486,0.00076228747
351358884,-1.6172726,0.0007427126,-0.48923302,-1.621038,-1.6181037,-1.6167307,-1.622388,39.33306,0.67044544,0.67530775,0.6775584,0.668725,3.0684776,0.09482193,0.070905685,0.05940628,0.10713005,5.0368508e-05,0.00018600341,0.42413142,0.57486755,0.00076465646
351558849,-1.6753789,0.0007101767,-0.5784662,-1.6788371,-1.676141,-1.6748828,-1.6800745,39.134624,0.6379261,0.64107037,0.6425147,0.63694143,1.7221336,-0.048700333,-0.071107864,-0.081861496,-0.03717804,4.859046e-05,0.0001875828,0.42495772,0.5740335,0.0007726046
351758929,-1.7302338,0.0006898586,-0.6629831,-1.7334325,-1.7309419,-1.729782,-1.7345672,38.893593,0.6862707,0.68797493,0.68874454,0.6858902,0.71876144,0.031555176,0.010808945,0.0008735657,0.04225731,5.217874e-05,0.00018796144,0.4251857,0.5738003,0.0007738103
351958850,-1.7782736,0.00067318184,-0.7368023,-1.7812575,-1.7789345,-1.7778553,-1.7823131,38.467472,0.67354584,0.6742859,0.6746073,0.6735563,-0.13345909,-0.09727287,-0.11584854,-0.124736786,-0.087703705,5.2434396e-05,0.00018908895,0.4257681,0.5732108,0.000779577
352158849,-1.8203548,0.0006680964,-0.8047605,-1.8231682,-1.820984,-1.8199704,-1.8241458,38.09649,0.73430634,0.7342329,0.73417854,0.734642,-0.5028782,0.23851013,0.22168922,0.2136612,0.24719048,5.9043305e-05,0.00018743916,0.42499873,0.5739854,0.0007694344
352358849,-1.8461121,0.0006537881,-0.8530549,-1.8487753,-1.8467042,-1.845744,-1.8496931,37.60188,0.6526766,0.6521969,0.6519537,0.65315056,-1.1014862,0.10398674,0.088871,0.08165741,0.11170578,5.1684092e-05,0.00018672517,0.42467925,0.57431746,0.00076488685
352558851,-1.8584487,0.0006565505,-0.885676,-1.8609972,-1.8590198,-1.8581039,-1.8618654,37.279724,0.72648144,0.72578526,0.72544765,0.7270136,-1.5045624,0.07025337,0.05665779,0.050182343,0.077157974,5.7129317e-05,0.00018618647,0.42443624,0.574559,0.00076144125
352758896,-1.8653755,0.00065898435,-0.9114154,-1.8678255,-1.8659267,-1.865048,-1.8686508,36.929047,0.7459059,0.74504375,0.7446337,0.7464781,-1.8307724,0.10038376,0.088020325,0.082136154,0.10663223,5.9327394e-05,0.00018547942,0.42410874,0.57488936,0.00075711997
352958849,-1.8751847,0.0006684763,-0.93794674,-1.8775554,-1.8757229,-1.8748755,-1.8783466,36.64585,0.82186985,0.82101727,0.8206091,0.8224125,-2.1149483,0.018514633,0.007417679,0.0021362305,0.024101257,6.598836e-05,0.0001851619,0.42396507,0.5750286,0.0007550739
353158852,-1.891378,0.00068348425,-0.97020775,-1.893684,-1.8919095,-1.8910892,-1.8944438,36.412216,0.91887474,0.91800594,0.9175968,0.91940117,-2.245922,0.13032341,0.12020111,0.11538696,0.13540268,7.731377e-05,0.00018437157,0.4235868,0.5754012,0.00075038447
353358854,-1.9214385,0.00068511785,-1.0152256,-1.9236716,-1.9219508,-1.9211555,-1.9244047,36.041267,0.8769922,0.8760023,0.87554264,0.87754726,-2.6590004,0.04159546,0.032138824,0.027643204,0.046308517,7.190562e-05,0.00018391796,0.42337894,0.5756175,0.0007476599
353558849,-1.9631763,0.00070035015,-1.0710373,-1.9653522,-1.9636825,-1.9629108,-1.9660622,35.793724,0.960186,0.95910835,0.9586115,0.96075535,-3.0487728,-0.03773117,-0.04657936,-0.050783157,-0.033332825,8.208401e-05,0.0001836784,0.4232713,0.57571685,0.00074619096
353758849,-2.0139785,0.0007112029,-1.1356744,-2.016096,-2.0144749,-2.0137253,-2.0167844,35.507835,0.9925442,0.9913988,0.9908714,0.99312115,-3.2747173,0.03976059,0.031454086,0.027507782,0.043880463,8.642281e-05,0.00018315078,0.4230226,0.57596475,0.00074313587
353958849,-2.0563035,0.0007148444,-1.191647,-2.0583596,-2.0567837,-2.0560546,-2.0590267,35.098953,0.95181847,0.95046234,0.9498377,0.9524689,-3.596634,0.08837128,0.08044243,0.076675415,0.09228325,8.134371e-05,0.000182432,0.42268142,0.5763157,0.00073905004
354158852,-2.09059,0.0007169991,-1.2392612,-2.0925872,-2.091053,-2.0903435,-2.093234,34.611656,0.8821392,0.8805418,0.87980175,0.8828726,-3.8949566,0.1361103,0.12856865,0.12499237,0.13980865,7.381693e-05,0.00018155061,0.4222577,0.57675284,0.000734104
354358858,-2.1219628,0.0007444871,-1.283706,-2.1239257,-2.1224356,-2.121746,-2.1245508,34.30492,1.0962801,1.094202,1.0932398,1.0971937,-4.458645,0.040245056,0.032888412,0.029413223,0.043815613,0.000103018545,0.00018062878,0.42180255,0.5771848,0.0007290363
354558852,-2.1453233,0.0007378642,-1.3194511,-2.1472194,-2.1457713,-2.1451006,-2.1478236,33.65707,0.9782162,0.97571754,0.9745636,0.9792805,-4.8663692,0.04037857,0.033323288,0.029989243,0.043777466,8.4613224e-05,0.0001796732,0.4213451,0.5776668,0.0007238258
354758849,-2.166867,0.00074978644,-1.3522441,-2.1687188,-2.1673098,-2.166657,-2.1693034,33.139038,1.0299549,1.0271568,1.0258579,1.0311241,-5.191889,-0.024887085,-0.03144455,-0.03453636,-0.021751404,9.2112015e-05,0.00017873604,0.42088437,0.57812595,0.0007187898
354958857,-2.1845422,0.0007634779,-1.380244,-2.1863568,-2.1849818,-2.1843448,-2.186923,32.64521,1.085062,1.0821095,1.08074,1.0862751,-5.2487907,0.059734344,0.053783417,0.050979614,0.06255913,0.000100898884,0.00017752421,0.42028233,0.578727,0.0007122981
355158849,-2.1980717,0.0007785717,-1.4026666,-2.1998553,-2.1985102,-2.1978865,-2.2004051,32.168907,1.1374359,1.134409,1.1330109,1.1386547,-5.378092,-0.0076999664,-0.013034821,-0.015550613,-0.005186081,0.00011010921,0.00017638458,0.41971466,0.5792926,0.00070626434
355358852,-2.1994052,0.0007761307,-1.4113681,-2.2011442,-2.1998227,-2.1992092,-2.2016792,31.48226,1.0070496,1.0039139,1.0024662,1.008295,-5.334841,0.078575134,0.073825836,0.07159233,0.0807991,8.947219e-05,0.00017522808,0.41914344,0.5798917,0.00070014154
355558876,-2.1944788,0.00078526145,-1.4123907,-2.1961908,-2.1948879,-2.1942832,-2.1967132,30.940704,0.9664459,0.96336174,0.9619427,0.96765137,-5.2905235,0.081243515,0.07706833,0.07510567,0.083179474,8.466743e-05,0.00017415988,0.41860896,0.58043766,0.00069452374
355758849,-2.191241,0.0007983451,-1.4142009,-2.1929333,-2.191646,-2.1910486,-2.1934447,30.460161,0.95798874,0.95498085,0.9535904,0.9591427,-5.2215557,0.13091087,0.12718582,0.12543297,0.13262558,8.4621075e-05,0.00017309244,0.41806763,0.5809857,0.00068893813
355958965,-2.190232,0.0008141202,-1.4174787,-2.1919081,-2.1906357,-2.1900449,-2.1924093,30.015438,0.99114037,0.98815536,0.9867821,0.99227524,-5.322191,0.052007675,0.048606873,0.047016144,0.053562164,8.819493e-05,0.00017211863,0.41757235,0.5814835,0.000683883
356158856,-2.1926756,0.0008332575,-1.4238608,-2.194339,-2.193082,-2.192498,-2.1948304,29.586231,1.0588493,1.0557938,1.0543919,1.0599957,-5.52104,-0.039606094,-0.042816162,-0.044315338,-0.038145065,9.7681244e-05,0.00017117214,0.41708815,0.581964,0.0006790164
356358907,-2.1998267,0.00083959167,-1.4345777,-2.201462,-2.200221,-2.1996439,-2.2019448,29.010286,0.96738625,0.9642658,0.9628296,0.9685478,-5.6447296,-0.02571106,-0.028787613,-0.030231476,-0.024318695,8.5915264e-05,0.00017029309,0.41664192,0.5824274,0.00067450484
356558892,-2.2115753,0.00085849914,-1.4499998,-2.2131958,-2.2119727,-2.211403,-2.2136698,28.585058,1.0419598,1.0387421,1.03726,1.0431519,-5.902046,-0.100818634,-0.1038456,-0.10527229,-0.099458694,9.6536045e-05,0.00016940062,0.41617963,0.58288443,0.00066995726
356758852,-2.2347875,0.00086666585,-1.4766539,-2.2363787,-2.235175,-2.234614,-2.2368445,28.036753,0.96720695,0.96393585,0.9624367,0.96840286,-6.180954,-0.202425,-0.20540047,-0.20681,-0.20108604,8.9407e-05,0.00016866786,0.4158072,0.58326846,0.00066626054
356958852,-2.2689886,0.00087376696,-1.5142851,-2.2705483,-2.2693646,-2.2688122,-2.2710075,27.52855,0.8876362,0.8844223,0.8829498,0.88879204,-6.266567,-0.14619446,-0.14909935,-0.15047646,-0.14490509,8.03222e-05,0.0001679858,0.41545957,0.5836293,0.00066282484
357158851,-2.3139694,0.00088993146,-1.5630212,-2.315507,-2.314345,-2.3138018,-2.31596,27.154991,0.9423847,0.93922806,0.9377861,0.9435005,-6.4731636,-0.20131111,-0.2041874,-0.20554924,-0.20004272,8.743836e-05,0.00016732138,0.41511592,0.5839698,0.00065951044
357358891,-2.3592758,0.0008987992,-1.6122955,-2.360781,-2.3596427,-2.3591099,-2.361228,26.599922,0.87246895,0.8692093,0.867712,0.8736191,-6.835943,-0.30134583,-0.30431175,-0.30571938,-0.3000412,8.366561e-05,0.0001667919,0.41484496,0.5842477,0.00065689965
360158891,-2.808834,0.0008479199,-2.141332,-2.8096614,-2.8090718,-2.8087869,-2.8099337,16.171783,0.6195774,0.6140766,0.6115322,0.621315,-11.1977415,-0.95973396,-0.9616084,-0.96251297,-0.95886755,0.00011458252,0.00016046998,0.4115864,0.5875107,0.00062772236
360358863,-2.8633604,0.0008232109,-2.1987212,-2.8641167,-2.8635824,-2.863323,-2.8643732,14.911405,0.57269096,0.5670223,0.5643902,0.5744686,-11.341276,-0.97994566,-0.98151493,-0.98227406,-0.97921133,0.00011345906,0.00016003764,0.41136026,0.5877404,0.0006257996
360558849,-2.9124744,0.0008168805,-2.2501044,-2.9131875,-2.9127147,-2.9124837,-2.9134264,13.329365,0.39858818,0.39266968,0.38991737,0.4004326,-11.876822,-1.306329,-1.3076608,-1.3083036,-1.3056996,0.00017088185,0.00017088185,0.41126317,0.58776987,0.00062526966
360758849,-2.9460652,0.0007559386,-2.2859654,-2.946665,-2.9462407,-2.9460318,-2.9468894,12.627815,0.4262085,0.42093468,0.41849136,0.4278412,-11.347366,-0.8509915,-0.85206294,-0.85258055,-0.8504753,8.653834e-05,0.00017052605,0.411115,0.5880043,0.00062376197
360958849,-2.985696,0.00074702076,-2.327396,-2.9862537,-2.9858656,-2.9856734,-2.986468,12.276231,0.38538933,0.3809986,0.37896538,0.38673973,-11.215024,-0.9307687,-0.931674,-0.93211293,-0.93032503,9.291484e-05,0.0001702875,0.41099682,0.58811706,0.0006228037
361158851,-3.0409906,0.000734795,-2.3847568,-3.0415027,-3.0411465,-3.040969,-3.041708,11.55781,0.33694267,0.33291435,0.33104515,0.33818054,-11.143217,-0.8835273,-0.8843355,-0.8847282,-0.88312554,8.4980704e-05,0.00017010787,0.41091248,0.5882103,0.0006220973
361358882,-3.083996,0.00072481896,-2.43,-3.084469,-3.0841427,-3.0839791,-3.0846653,10.587452,0.2726307,0.26873207,0.2669258,0.2738247,-11.141745,-0.8907777,-0.8914757,-0.8918152,-0.89042675,8.3422085e-05,0.00016998609,0.41085553,0.58826935,0.000621644
361558860,-3.1247447,0.00071107317,-2.4734516,-3.1251755,-3.124876,-3.1247249,-3.1253636,9.869936,0.34571266,0.34204674,0.3403473,0.34683228,-10.870285,-0.72988653,-0.7304647,-0.730746,-0.7295945,7.0664944e-05,0.00016974176,0.4107374,0.5884016,0.00062060275
361758858,3.108659,0.0007029131,-2.5252433,3.1082594,3.108531,3.1086688,3.1080801,8.591526,0.17317581,0.16951752,0.16781616,0.17429352,-10.839646,-0.8717427,-0.8721598,-0.87236166,-0.8715421,7.8005796e-05,0.0001696663,0.41069916,0.5884329,0.00062031276
361958855,3.0549262,0.0006922196,-2.5805306,3.0545585,3.0548031,3.0549285,3.0543883,7.503088,0.090911865,0.08740997,0.08577728,0.0919857,-10.602817,-0.9283891,-0.928643,-0.92876387,-0.928287,8.199555e-05,0.00016964793,0.41069025,0.5884379,0.0006202447
362158849,3.0003645,0.0006822781,-2.6362073,3.0000265,3.000248,3.0003624,2.9998646,6.691246,0.08577347,0.082567215,0.08107376,0.08675194,-10.218179,-0.934649,-0.9347706,-0.9348252,-0.9346349,8.198857e-05,0.00016960439,0.4106681,0.5884602,0.00062002166
362358854,2.9509885,0.0006729554,-2.6855626,2.9506788,2.9508812,2.9509869,2.9505246,5.9957237,0.060253143,0.05738449,0.056051254,0.061120987,-9.690069,-0.88585854,-0.8858714,-0.88587046,-0.885926,7.530276e-05,0.0001695594,0.41064602,0.5884894,0.00061975105
362558850,2.9202266,0.00066285,-2.7146142,2.9199462,2.920133,2.9202309,2.9197986,5.3723392,0.04719162,0.04465294,0.043476105,0.04796028,-8.9710245,-0.72956276,-0.7294817,-0.7294297,-0.7297087,5.9848146e-05,0.00016950532,0.41062045,0.5885308,0.0006194108
362758867,2.9103045,0.0006608332,-2.721435,2.9100435,2.9102163,2.9103074,2.909901,4.7690964,0.02627182,0.024036407,0.022996902,0.026947021,-8.337035,-0.7126193,-0.7124634,-0.7123718,-0.7128334,5.7399142e-05,0.00016944912,0.4105883,0.5885659,0.00061902916
362958849,2.9115171,0.0006598681,-2.7163544,2.9112754,2.911436,2.9115217,2.911137,4.385931,0.12365723,0.1217041,0.120801926,0.124240875,-7.685067,-0.6195154,-0.619329,-0.6192212,-0.6197634,5.0785828e-05,0.00016931983,0.41051966,0.58864194,0.00061831425
363158855,2.9267824,0.00066212914,-2.6961124,2.9265568,2.9267073,2.926788,2.9264219,3.927803,0.07826233,0.076574326,0.0757885,0.07876778,-7.047207,-0.53605556,-0.53585625,-0.5357399,-0.5363221,4.5246004e-05,0.00016922994,0.41047072,0.58869696,0.0006177835
363358851,2.947666,0.0006708171,-2.6700284,2.9474492,2.9475906,2.9476674,2.9473164,3.4855995,0.031669617,0.030208588,0.029521942,0.0321064,-6.593724,-0.6357012,-0.6354947,-0.635376,-0.6359801,4.925965e-05,0.0001691598,0.41042817,0.5887362,0.00061730936
363558849,2.9577644,0.0006810473,-2.6550207,2.9575553,2.95769,2.9577637,2.9574246,3.2481346,0.06765747,0.06641579,0.06583023,0.06802368,-6.173343,-0.66111803,-0.660934,-0.66082764,-0.66137886,5.015262e-05,0.00016907585,0.4103793,0.5887847,0.00061677216
363758851,2.953954,0.000691012,-2.6538494,2.9537535,2.9538841,2.953956,2.953625,3.0787697,0.081897736,0.080862045,0.08037567,0.082201004,-5.6780696,-0.57065105,-0.5704951,-0.5704036,-0.57088614,4.4332726e-05,0.00016900325,0.41033944,0.5888309,0.000616316
363958855,2.9353533,0.00070729206,-2.6678128,2.9351537,2.9352818,2.9353526,2.935027,2.798006,-0.016841888,-0.017692566,-0.018102646,-0.016588211,-5.3461547,-0.6519327,-0.6517978,-0.6517186,-0.6521449,4.791479e-05,0.00016897015,0.41031727,0.58884984,0.00061602966
364158877,2.9075766,0.00072404934,-2.6915307,2.9073777,2.907505,2.9075751,2.9072523,2.6482544,-0.03699112,-0.037679672,-0.03801155,-0.03678131,-5.0187335,-0.6657729,-0.6656685,-0.665607,-0.6659508,4.8330658e-05,0.00016894986,0.41030353,0.58886343,0.0006158162
364358950,2.8783166,0.0007394293,-2.717554,2.878121,2.8782485,2.8783183,2.8779967,2.4743137,-0.06262398,-0.063194275,-0.06347656,-0.062452316,-4.6722927,-0.5804844,-0.5804162,-0.5803728,-0.58062077,4.291552e-05,0.00016894825,0.41030225,0.5888701,0.00061572227
364558849,2.8555617,0.0007570778,-2.7382388,2.8553667,2.8554947,2.855565,2.8552437,2.3867111,0.020938873,0.020458221,0.020217896,0.02108574,-4.399955,-0.54306316,-0.5430274,-0.5430026,-0.54315853,4.0610576e-05,0.00016893448,0.41029397,0.58888084,0.00061560073
364758859,2.8440068,0.0007750361,-2.7485077,2.843813,2.8439405,2.8440106,2.8436906,1.9348164,-0.041103363,-0.041582108,-0.041820526,-0.040960312,-4.0972958,-0.51725626,-0.5172286,-0.5172081,-0.5173402,3.9473878e-05,0.00016893663,0.4102942,0.5888818,0.0006155597
364958861,2.8402994,0.0007919132,-2.7515645,2.8401084,2.840235,2.8403041,2.8399868,1.3930397,-0.15068245,-0.15117645,-0.1514225,-0.15053368,-3.7143812,-0.44092083,-0.44089365,-0.44087315,-0.44100332,3.726289e-05,0.00016896545,0.41030955,0.5888685,0.0006156463
365158849,2.8436055,0.0008093338,-2.748751,2.8434162,2.8435407,2.843609,2.843295,0.8617439,-0.17752647,-0.17806625,-0.17833519,-0.17736816,-3.3913693,-0.47035408,-0.47031546,-0.47029066,-0.47044182,3.8628765e-05,0.00016900097,0.41032767,0.58884895,0.00061575836
365358889,2.8498166,0.00082416023,-2.7440166,2.8496323,2.849754,2.8498213,2.8495116,0.449049,-0.19000435,-0.1905632,-0.19084167,-0.18984032,-2.9726028,-0.40559006,-0.40554714,-0.4055214,-0.4056778,3.6377936e-05,0.00016904264,0.41035062,0.5888281,0.0006159043
365558849,2.8520024,0.0008402424,-2.7443676,2.8518195,2.851939,2.8520048,2.8516998,0.0383873,-0.21614265,-0.21673203,-0.21701622,-0.21598434,-2.6745872,-0.47821856,-0.4781618,-0.47812986,-0.4783182,3.920552e-05,0.00016908885,0.41037366,0.5888019,0.0006160544
365758855,2.8530545,0.0008562413,-2.7461746,2.8528728,2.85299,2.853055,2.852754,-0.2005291,-0.27121353,-0.2717743,-0.2720394,-0.27106476,-2.4073997,-0.51396656,-0.5139108,-0.51387835,-0.51406527,4.1707022e-05,0.000169146,0.41040176,0.5887711,0.00061624846
365958858,2.8337395,0.0008721053,-2.7680657,2.833559,2.8336759,2.8337402,2.8334415,-0.15632057,-0.21804237,-0.21853065,-0.21876335,-0.21791077,-2.2148447,-0.5304003,-0.5303612,-0.53033924,-0.5304785,4.11801e-05,0.00016918646,0.41042274,0.58875054,0.0006163785
366158850,2.8017907,0.00089104415,-2.8031437,2.8016057,2.8017232,2.8017876,2.8014898,-0.40530586,-0.33106804,-0.33153725,-0.33176422,-0.33094215,-2.1017027,-0.59195614,-0.5919256,-0.59191036,-0.5920229,4.7346766e-05,0.00016925123,0.4104554,0.5887114,0.0006166172
366358896,2.7752545,0.00090403715,-2.8339832,2.7750719,2.7751894,2.7752538,2.7749577,-0.69039917,-0.3203621,-0.32087517,-0.32110977,-0.32022285,-1.8657594,-0.5422888,-0.54225063,-0.5422325,-0.54236317,4.3935084e-05,0.00016932047,0.41049188,0.58867794,0.00061687495
366558852,2.7532413,0.0009179014,-2.8630648,2.7530568,2.7531729,2.753236,2.7529445,-1.2285023,-0.40354347,-0.40415764,-0.4044342,-0.40337563,-1.7381201,-0.60003185,-0.5999775,-0.599946,-0.6001291,5.081401e-05,0.00016942009,0.41053843,0.58862406,0.0006172501
366758869,2.7280369,0.00092289847,-2.8972378,2.7278585,2.7279727,2.728035,2.7277484,-1.5746822,-0.42018127,-0.4208641,-0.42116547,-0.41999626,-1.447257,-0.48495293,-0.48488426,-0.48484516,-0.48506546,4.5053315e-05,0.0001695388,0.41059774,0.58856994,0.00061771297
366958856,2.679882,0.0009253219,-2.9592133,2.679703,2.6798162,2.6798778,2.679597,-2.061758,-0.4203663,-0.4211521,-0.42150307,-0.42015076,-1.2640705,-0.562644,-0.56254005,-0.56248,-0.56280136,4.947447e-05,0.00016966386,0.41065595,0.5885067,0.0006181697
367158849,2.6255832,0.00092098094,-3.0325444,2.625403,2.6255147,2.6255746,2.6253018,-2.594328,-0.52459717,-0.52547455,-0.5258579,-0.52436256,-0.9898901,-0.58533096,-0.5851908,-0.5851126,-0.5855398,5.7059853e-05,0.00016983572,0.41073424,0.5884201,0.0006187937
367358849,2.56325,0.0009086942,-3.1186762,2.5630689,2.5631793,2.563238,2.5629745,-2.9989586,-0.6030235,-0.6039486,-0.6043606,-0.60277176,-0.6613598,-0.5978708,-0.5977011,-0.59760475,-0.5981369,6.4280954e-05,0.00017004253,0.4108303,0.58831584,0.00061953237
367558850,2.4966054,0.00088888174,3.0695508,2.4964232,2.4965324,2.4965897,2.4963365,-3.342516,-0.7023792,-0.7033272,-0.7037544,-0.70212746,-0.23633003,-0.57731533,-0.5771208,-0.57700443,-0.57764244,7.2491755e-05,0.00017029185,0.41094664,0.5881902,0.0006204167
367758864,2.4336114,0.0008624457,2.975998,2.4334328,2.433541,2.4335964,2.4333544,-3.3921394,-0.70064354,-0.7015667,-0.7019768,-0.70040894,0.12842941,-0.58438396,-0.58418083,-0.58405495,-0.58475876,7.3258445e-05,0.000170531,0.4110568,0.5880781,0.0006212069
367958853,2.3777707,0.0008337436,2.8882017,2.3775954,2.3777022,2.3777559,2.377525,-3.3675442,-0.7221956,-0.72306824,-0.7234583,-0.7219887,0.5046177,-0.58004284,-0.5798378,-0.57970524,-0.58046246,7.560107e-05,0.00017076387,0.4111627,0.587969,0.00062192144
368158867,2.3361816,0.0008088031,2.8173125,2.3360102,2.3361151,2.336167,2.335947,-3.1738853,-0.7654238,-0.7662096,-0.7665596,-0.765254,0.73272896,-0.54626083,-0.5460777,-0.54595375,-0.5466881,7.7732235e-05,0.00017099305,0.41126648,0.5878622,0.0006226094
368358858,2.3008206,0.0007873157,2.7573745,2.300659,2.3007627,2.3008132,2.3006017,-2.8041344,-0.6923075,-0.692996,-0.693305,-0.6921692,0.84381485,-0.48089027,-0.4807415,-0.48063087,-0.48130417,6.403068e-05,0.0001711816,0.41135657,0.5877852,0.00062315154
368558898,2.2731714,0.00077611726,2.7088473,2.2730107,2.2731135,2.2731633,2.2729583,-2.5573235,-0.70694923,-0.7075577,-0.7078295,-0.70683765,0.77817917,-0.52231216,-0.522192,-0.52209854,-0.52269745,6.836148e-05,0.00017134967,0.41143027,0.58770645,0.00062359497
368758849,2.249135,0.00076797704,2.6673908,2.248979,2.2490816,2.2491302,2.248931,-2.2791061,-0.65405846,-0.6545973,-0.65484047,-0.6539688,0.7504635,-0.49744606,-0.4973507,-0.49726868,-0.49780083,6.12505e-05,0.00017149137,0.41149575,0.5876477,0.0006239493
368958852,2.2301617,0.0007653424,2.6333234,2.2300065,2.2301085,2.2301564,2.229962,-2.1659517,-0.7130461,-0.7135353,-0.7137537,-0.7129717,0.74303055,-0.45906448,-0.4589901,-0.45891953,-0.45939827,6.419452e-05,0.00017163508,0.41155908,0.5875807,0.0006243348
369158849,2.2124336,0.000765041,2.6031606,2.2122824,2.2123842,2.2124314,2.2122412,-1.9577932,-0.66339016,-0.66383076,-0.66403294,-0.6633272,0.69034386,-0.41547585,-0.41540527,-0.41534805,-0.41576767,5.7095578e-05,0.00017175799,0.4116196,0.58752686,0.0006246733
369358849,2.1961708,0.000768029,2.5763185,2.196022,2.1961238,2.1961708,2.1959834,-1.769144,-0.5972042,-0.59760666,-0.5977926,-0.5971527,0.59716415,-0.42417145,-0.42411232,-0.42406464,-0.42443848,5.2493542e-05,0.00017185864,0.411669,0.58748174,0.0006249276
369558849,2.1684315,0.0007738122,2.5394242,2.1682816,2.168385,2.1684322,2.1682456,-1.6928835,-0.61277294,-0.61315155,-0.61332417,-0.6127291,0.5387497,-0.3981228,-0.3980751,-0.39803123,-0.39837265,5.232464e-05,0.00017195682,0.41171506,0.58743554,0.0006251861
369758850,2.1273928,0.0007748862,2.4864247,2.1272378,2.1273441,2.1273923,2.1272058,-1.8848686,-0.69417286,-0.6945839,-0.6947727,-0.6941271,0.7127075,-0.3826294,-0.38258934,-0.38254356,-0.3829136,5.813106e-05,0.0001720804,0.4117716,0.58737266,0.00062553026
369958860,2.0934033,0.0007771055,2.4377935,2.0932302,2.0933385,2.0933862,2.0932026,-2.2175627,-0.98975277,-0.99018,-0.99037266,-0.98971176,0.7288265,-0.4813385,-0.48129845,-0.48124886,-0.48163795,0.000109406275,0.00017225707,0.41183692,0.5872554,0.0006260301
370158859,2.0470958,0.0007700377,2.3776474,2.0469294,2.0470405,2.047089,2.0469065,-2.026648,-0.86540365,-0.8658166,-0.8659997,-0.86536837,0.75411606,-0.45474434,-0.45471764,-0.45466805,-0.45503807,8.304069e-05,0.00017241879,0.41191804,0.5872,0.0006264774
370358852,1.9829599,0.00076968735,2.2990324,1.9827751,1.982891,1.9829404,1.9827574,-2.142695,-1.0371137,-1.0375113,-1.0376868,-1.0370841,0.7027626,-0.5330963,-0.53307724,-0.5330353,-0.53339577,0.0001286154,0.00017259512,0.41198218,0.58708954,0.0006269419
370558851,1.9191812,0.0007636679,2.2205734,1.9189919,1.9191121,1.9191624,1.9189793,-2.108038,-1.0687485,-1.0691276,-1.0692954,-1.0687256,0.76882553,-0.50333023,-0.5033207,-0.50328255,-0.5036316,0.00013380911,0.00017277809,0.41206333,0.5870027,0.0006274327
370758854,1.882553,0.00075274624,2.169437,1.8823746,1.8824962,1.8825468,1.8823656,-1.9256263,-0.96476746,-0.96512604,-0.96528244,-0.9647522,0.9172764,-0.3995571,-0.3995571,-0.39952087,-0.39986038,9.6267555e-05,0.00017294256,0.4121494,0.58695346,0.00062788476
370958893,1.8662724,0.00074715854,2.1411018,1.8661023,1.8662242,1.8662742,1.866096,-1.6832838,-0.8349676,-0.83529806,-0.8354416,-0.8349595,0.89315224,-0.3161087,-0.31611443,-0.31608772,-0.31638336,7.004026e-05,0.00017307424,0.41221777,0.5869108,0.00062825356
371158852,1.8604373,0.0007472359,2.1232834,1.860258,1.8603792,1.8604289,1.8602539,-1.8045728,-1.0324104,-1.0327184,-1.0328524,-1.0324075,0.7770214,-0.4096279,-0.40963936,-0.40961838,-0.40989685,0.00011178256,0.00017321442,0.41226742,0.58681893,0.0006286174
371358884,1.8743112,0.000743983,2.1261282,1.8741401,1.8742596,1.8743083,1.8741378,-1.6366925,-0.9387636,-0.9390507,-0.9391761,-0.9387655,0.7231426,-0.425848,-0.42586136,-0.4258461,-0.4261036,9.296088e-05,0.00017334297,0.41233224,0.5867725,0.0006289363
371558852,1.8826354,0.00074163615,2.124868,1.8824747,1.8825928,1.8826408,1.8824738,-1.3558698,-0.75027466,-0.7505288,-0.7506399,-0.7502799,0.8001938,-0.30788803,-0.3079052,-0.30789375,-0.308136,6.0542945e-05,0.00017343725,0.41238627,0.5867506,0.00062917214
371758849,1.8827654,0.0007461847,2.1163945,1.8825977,1.8827153,1.8827629,1.8825985,-1.493504,-0.9691584,-0.9693847,-0.96948457,-0.9691663,0.6172848,-0.40213776,-0.40215683,-0.4021473,-0.40236473,9.625941e-05,0.00017353306,0.41241843,0.5866823,0.0006293901
371958870,1.8575877,0.0007592858,2.0839534,1.8573904,1.8575095,1.8575574,1.8573934,-1.7450193,-1.3035003,-1.3036984,-1.3037852,-1.3035098,0.4214611,-0.46539497,-0.46541405,-0.46540642,-0.46559715,0.00022375541,0.00022375541,0.4124002,0.5865227,0.00062957243
372158908,1.8009671,0.000766443,2.0231652,1.8007896,1.8009123,1.8009611,1.800795,-1.46035,-1.0900319,-1.0902104,-1.0902884,-1.0900421,0.3030815,-0.35843277,-0.3584442,-0.3584442,-0.35858536,0.000119130455,0.00022389335,0.4124856,0.58654153,0.0006298749
372358849,1.7369329,0.00078098266,1.9570049,1.7367587,1.7368845,1.7369344,1.7367659,-0.838397,-0.5257118,-0.5258703,-0.52593994,-0.5257213,0.114536285,-0.37062836,-0.370636,-0.3706398,-0.37074852,8.785974e-05,0.00022394981,0.41251722,0.586541,0.00062997034
372558852,1.6724161,0.0007920883,1.8877615,1.6722362,1.6723639,1.6724145,1.6722451,-1.3972921,-1.0586865,-1.0588477,-1.0589175,-1.058697,0.40775108,-0.28883743,-0.2888527,-0.28884888,-0.28899956,0.00010590842,0.00022404503,0.41254553,0.5864943,0.00063016365
372758880,1.6246142,0.0007911242,1.8314557,1.624432,1.6245607,1.6246115,1.6244433,-1.4263928,-1.0825167,-1.0826671,-1.0827317,-1.0825275,0.6298504,-0.34573174,-0.34576225,-0.34575462,-0.3459568,0.000116426425,0.00022413957,0.41257426,0.58645487,0.00063031603
373158856,1.5319127,0.0007481319,1.7095557,1.5317211,1.5318509,1.5319015,1.5317389,-1.5056863,-1.2937965,-1.2938542,-1.2938805,-1.2937999,1.1858292,-0.17370415,-0.17375565,-0.1737423,-0.17400932,0.00018218395,0.0002242607,0.41259304,0.5863701,0.00063046615
373358849,1.48412,0.00071862526,1.6448635,1.4839113,1.484041,1.484091,1.4839325,-1.5738101,-1.4750891,-1.4750757,-1.4750748,-1.4750848,1.1736374,-0.19831276,-0.19836617,-0.19835281,-0.19861794,0.00031078493,0.00031078493,0.41250256,0.58624554,0.00063025363
373558849,1.4200875,0.00069026503,1.563888,1.4198406,1.4199688,1.420018,1.4198645,-1.6788974,-1.6932206,-1.6931229,-1.693089,-1.6932011,1.1977634,-0.13064194,-0.13068962,-0.13067627,-0.13093185,0.00062743394,0.00062743394,0.41221195,0.58590364,0.00062960613
373758849,1.3518901,0.00066442334,1.4803305,1.3516059,1.3517312,1.3517789,1.3516316,-1.7217121,-1.8250847,-1.8249102,-1.8248463,-1.8250465,1.0718002,-0.14105606,-0.14110184,-0.14108658,-0.14132309,0.0010229618,0.0010229618,0.41166338,0.5852677,0.0010229618
373958852,1.2878026,0.00063386786,1.4036245,1.2875714,1.2876925,1.2877386,1.287598,-1.5278339,-1.687727,-1.6874866,-1.687397,-1.6876698,0.9414768,-0.12130737,-0.121349335,-0.12133789,-0.12153816,0.0007202181,0.0010222216,0.41171214,0.585523,0.0010223916
374158853,1.236001,0.0006110229,1.3406212,1.2357901,1.2359071,1.235951,1.2358172,-1.4951696,-1.7048073,-1.7044964,-1.7043791,-1.7047291,0.8762131,-0.07987213,-0.07991409,-0.07990265,-0.08008385,0.00065430487,0.0010209079,0.41163886,0.58566463,0.0010213498
374358867,1.208565,0.00060760806,1.3035817,1.2082441,1.2083577,1.2084005,1.2082717,-1.7599754,-1.9830875,-1.9827423,-1.9826117,-1.982996,0.8833599,0.06339264,0.063352585,0.063360214,0.06320381,0.0019215835,0.0019215835,0.41024175,0.5839935,0.0019215835
374558864,1.1852009,0.00060396496,1.2729602,1.1848338,1.1849443,1.1849858,1.1848617,-1.5884705,-1.8029184,-1.8025646,-1.8024311,-1.8028173,0.63051796,-0.05840683,-0.058444977,-0.058441162,-0.058568954,0.002648992,0.0019170564,0.4098233,0.5836928,0.0019177835
374758849,1.1468349,0.0006044688,1.2285858,1.1464188,1.1465247,1.1465642,1.146446,-1.5670748,-1.7788477,-1.7784748,-1.7783375,-1.778738,0.6509361,0.05840683,0.05837059,0.058372498,0.058271408,0.0035076607,0.00191214,0.4093489,0.5833177,0.0019137085
374958882,1.0896084,0.0006098585,1.1661938,1.0891184,1.089217,1.0892539,1.0891434,-1.6615381,-1.8743906,-1.8739986,-1.8738546,-1.8742714,0.67702484,0.16575432,0.16571999,0.16571999,0.16563988,0.0048149168,0.0019059964,0.40867683,0.5826937,0.001908561
375158852,1.0287714,0.0006243846,1.101378,1.0281354,1.028226,1.02826,1.028158,-1.4663677,-1.6606836,-1.6603098,-1.6601706,-1.6605682,0.46100426,0.03261566,0.032583237,0.03258133,0.032520294,0.0071960036,0.001898359,0.40758255,0.5814213,0.0019017196
375358861,0.9772668,0.00064911635,1.0465188,0.97636557,0.9764485,0.9764798,0.9763856,-1.4754028,-1.656434,-1.6560736,-1.6559362,-1.6563215,0.34236717,-0.022868156,-0.022900581,-0.022907257,-0.022953987,0.011431617,0.0018872949,0.40572894,0.57906073,0.0018913981
375558849,0.940468,0.0006847001,1.0067563,0.93913686,0.9392136,0.93924284,0.9391548,-1.3773985,-1.564928,-1.5645494,-1.5644035,-1.5648069,0.3105564,0.0024871826,0.0024576187,0.002450943,0.0024137497,0.018340088,0.0018711578,0.4027782,0.5751345,0.0018760064
375758849,0.9216298,0.00073056,0.9852621,0.9196814,0.91975397,0.9197818,0.919698,-1.0700531,-1.2684355,-1.2680302,-1.2678766,-1.2683048,0.2148962,-0.045230865,-0.045258522,-0.045267105,-0.045293808,0.028415255,0.0018494297,0.39854684,0.5693337,0.0018548855
375958858,0.9249147,0.0007960912,0.9857177,0.9219554,0.9220264,0.92205364,0.92197144,-0.97111416,-1.1836882,-1.1832495,-1.1830845,-1.1835423,0.13915348,-0.0843935,-0.08442211,-0.08442974,-0.08444977,0.045139506,0.0018150926,0.39159018,0.5596342,0.00182112
376158857,0.94435954,0.00087827456,1.0020325,0.93996894,0.94004005,0.94006747,0.93998533,-0.86846733,-1.0911608,-1.0906992,-1.0905285,-1.0910091,0.13570976,-0.058649063,-0.058677673,-0.058685303,-0.058699608,0.06947624,0.0017664644,0.3815197,0.5454647,0.0017729653
376358887,0.9685328,0.0009708296,1.0228326,0.96232843,0.96239984,0.9624277,0.9623451,-0.7589903,-0.982954,-0.9824877,-0.982316,-0.9828005,0.123716354,-0.04455471,-0.044582367,-0.044589996,-0.044600487,0.10128853,0.0017039859,0.36839738,0.5268993,0.001710821
376558849,0.9895468,0.0010674715,1.0402777,0.98118824,0.9812598,0.9812874,0.9812051,-0.71469975,-0.933341,-0.9328861,-0.9327173,-0.9331932,0.15424919,0.011005402,0.010980606,0.010971069,0.010965347,0.14023262,0.0016282839,0.35236236,0.5041414,0.001635318
376758852,1.0033789,0.0011553714,1.0506064,0.9927608,0.9928317,0.9928592,0.99277765,-0.6494303,-0.8582058,-0.8577709,-0.8576107,-0.85806656,0.19456673,0.07725239,0.07723045,0.07722187,0.07721901,0.18238483,0.0015468829,0.33502728,0.47948703,0.0015539896
376958899,1.0098215,0.0012392076,1.0535135,0.99669886,0.9967683,0.99679524,0.99671537,-0.63949966,-0.83348465,-0.8330784,-0.8329325,-0.83335495,0.17870045,0.0869503,0.08693504,0.086927414,0.08692551,0.22987215,0.0014556989,0.31551883,0.4516906,0.0014627486
377158852,1.0097524,0.0013216014,1.0496355,0.9936493,0.9937168,0.99374306,0.99366516,-0.7096281,-0.8867798,-0.8864069,-0.88627815,-0.8866606,0.16794586,0.10154629,0.10153961,0.101532936,0.10153103,0.28661788,0.0013472298,0.29222658,0.4184542,0.0013540814
377358849,1.0000724,0.0013787595,1.0366246,0.9813342,0.9813985,0.98142374,0.9813488,-0.63113785,-0.79347324,-0.79313374,-0.7930155,-0.7933645,0.24382877,0.20126724,0.20127201,0.20126724,0.20126152,0.33799714,0.0012492845,0.27114618,0.3883515,0.0012558869
377558880,0.9838286,0.0014258059,1.0168594,0.96213293,0.9621934,0.96221745,0.96214604,-0.6917734,-0.8400202,-0.83971214,-0.8396063,-0.83992195,0.1932993,0.1710949,0.17110825,0.17110634,0.17109871,0.39564127,0.0011397031,0.24750698,0.35456607,0.0011459399
377758926,0.968319,0.0014381467,0.99808997,0.94442874,0.94444364,0.9444521,0.9444231,-0.630682,-0.7614832,-0.7612152,-0.7611227,-0.7613983,0.24289894,0.23391342,0.23393059,0.23392963,0.23392105,0.4450134,0.0010460205,0.22726612,0.3256226,0.001051896
377958849,0.9564934,0.0014542309,0.9840888,0.9307472,0.9307631,0.9307721,0.93074226,-0.5343714,-0.6459265,-0.6456976,-0.6456175,-0.64585304,0.36007214,0.36001873,0.3600359,0.36003685,0.3600273,0.48246685,0.000975046,0.21191455,0.303663,0.0009806226
378158854,0.9457598,0.0014666746,0.971569,0.9184366,0.91845334,0.91846275,0.9184319,-0.5257778,-0.6178446,-0.6176567,-0.61758995,-0.6177864,0.30633068,0.31351852,0.31353855,0.3135395,0.31352997,0.5140403,0.0009152789,0.19897528,0.2851486,0.00092058233
378358850,0.9343286,0.0014770449,0.958649,0.90566087,0.90567887,0.9056886,0.9056567,-0.52646923,-0.6048317,-0.6046705,-0.60461426,-0.6047821,0.2721491,0.28030205,0.2803192,0.28032017,0.28031158,0.5408074,0.00086464017,0.18800704,0.2694512,0.0008697051
378558849,0.9271237,0.0014860872,0.9501603,0.89728314,0.8973019,0.897312,0.8972794,-0.5418768,-0.60967636,-0.6095371,-0.6094885,-0.60963345,0.28375435,0.28969097,0.28970337,0.28970242,0.2896986,0.564121,0.0008205539,0.1784546,0.2557784,0.0008254064
378758880,0.923981,0.0014965315,0.9461751,0.89339954,0.89341843,0.8934287,0.89339584,-0.39600086,-0.45392227,-0.45380402,-0.45376015,-0.45388412,0.4306841,0.43560314,0.43561363,0.43561172,0.43560982,0.57924545,0.0007919699,0.1722577,0.24690828,0.0007966799
378958869,0.9224715,0.0015085383,0.9439584,0.89123803,0.89125705,0.89126724,0.8912345,-0.48774433,-0.5324631,-0.5323725,-0.53233624,-0.53243446,0.35678005,0.35769367,0.3577013,0.3576975,0.3576975,0.5922238,0.00076743873,0.16693965,0.239297,0.00077202776
379158855,0.9149493,0.0015247898,0.93611836,0.8834192,0.88343906,0.8834497,0.883416,-0.4152031,-0.44464397,-0.4445858,-0.44455814,-0.44462776,0.42576218,0.42063808,0.42064095,0.42063618,0.42063713,0.59808236,0.00075635506,0.16453806,0.23586234,0.00076089124
379358849,0.90203995,0.0015437043,0.9231202,0.87042665,0.87044823,0.8704592,0.87042403,-0.4590273,-0.47644424,-0.476408,-0.47638988,-0.4764347,0.47826576,0.4672289,0.4672222,0.46721745,0.4672222,0.5997126,0.0007532401,0.16386819,0.23490816,0.0007577711
379558849,0.8854816,0.001565258,0.9067509,0.8540664,0.8540902,0.8541019,0.85406464,-0.35138035,-0.3610735,-0.36105347,-0.36104107,-0.36107063,0.5115404,0.49171448,0.49170208,0.49169636,0.49170303,0.5960319,0.000760135,0.16537336,0.23706993,0.00076471944
379758858,0.8674109,0.0015870954,0.88900065,0.83635306,0.83637935,0.83639187,0.8363524,-0.46891403,-0.4744358,-0.47442436,-0.47441483,-0.4744377,0.49152946,0.46265888,0.46263885,0.46263218,0.46264076,0.589639,0.0007721294,0.16798866,0.24082346,0.0007768
379958875,0.84985995,0.0016089265,0.8719239,0.8193452,0.81937385,0.81938714,0.81934565,-0.4477024,-0.4520359,-0.45202637,-0.45201874,-0.4520378,0.5181036,0.4810791,0.48104954,0.48104286,0.48105526,0.5800552,0.0007901198,0.17191033,0.24644941,0.0007949194
380158857,0.8319818,0.0016302082,0.854698,0.80222136,0.8022527,0.8022667,0.802223,-0.35030746,-0.3550682,-0.35505676,-0.35505104,-0.3550701,0.559721,0.5141735,0.5141401,0.5141306,0.51414585,0.5667753,0.0008150568,0.17734496,0.25424463,0.0008200343
380358849,0.8270683,0.001655348,0.85070795,0.79815507,0.79819065,0.7982062,0.7981585,-0.3078289,-0.31640625,-0.31638718,-0.31638336,-0.31640434,0.605526,0.55094624,0.55091,0.5508995,0.5509186,0.54978293,0.00084696506,0.18429919,0.26421875,0.00085216964
380558858,0.80555254,0.0016686937,0.8300872,0.7778257,0.7778585,0.7778731,0.77782786,-0.27542877,-0.29167557,-0.29164124,-0.2916317,-0.29166985,0.60313225,0.5365486,0.5365019,0.5364914,0.5365124,0.5301629,0.0008837913,0.19232857,0.27573553,0.0008892667
381758849,0.57178277,0.0016385805,0.60163337,0.55239505,0.5524592,0.5524841,0.55241036,-0.1626358,-0.2156353,-0.2155323,-0.21548653,-0.21560669,0.4841776,0.39172363,0.39165783,0.3916359,0.391675,0.39280406,0.0011412174,0.24852002,0.35638598,0.0011487491
381958852,0.5306135,0.0016223079,0.56094587,0.51233083,0.5123995,0.51242596,0.5123483,-0.05678177,-0.11691666,-0.11679268,-0.11674118,-0.11688042,0.44613743,0.35278702,0.35271835,0.3526926,0.35273457,0.3750127,0.0011745242,0.25579652,0.36683384,0.0011823389
382158853,0.49305314,0.0016050285,0.5236165,0.47568014,0.4757526,0.4757803,0.47569937,-0.008787155,-0.078071594,-0.077926636,-0.07787132,-0.07803345,0.34905672,0.25541162,0.25533962,0.25531578,0.25535774,0.36126363,0.001200262,0.26142013,0.3749077,0.0012082952
382358851,0.4624759,0.0015879631,0.49297976,0.44578657,0.44586185,0.44589058,0.44580722,-0.020721436,-0.09861374,-0.09844971,-0.098386765,-0.09857178,0.27537155,0.18272638,0.18265295,0.18262768,0.18267155,0.35240087,0.0012168144,0.2650436,0.38011375,0.0012249989
382558851,0.43354195,0.0015665421,0.4640465,0.41765618,0.41773388,0.4177633,0.417678,0.054851532,-0.031513214,-0.031332016,-0.031259537,-0.031463623,0.2707634,0.1791048,0.1790309,0.17900419,0.17905092,0.34111622,0.0012379524,0.26965955,0.38674006,0.0012463114
382758849,0.41109732,0.0015457503,0.441286,0.39575866,0.3958379,0.39586776,0.39578137,0.09665108,0.0012397766,0.0014438629,0.001531601,0.0013027191,0.11423445,0.021823883,0.02174759,0.021720886,0.02177,0.33552757,0.0012484491,0.27194664,0.39002043,0.0012568817
382958849,0.39228648,0.0015232152,0.42227095,0.37761077,0.3776909,0.37772098,0.37763396,0.12787056,0.030416489,0.030630112,0.030723572,0.030485153,0.14528751,0.056149006,0.056072712,0.05604601,0.05609703,0.32716456,0.001264172,0.2753699,0.39492863,0.001272713
383158856,0.37613282,0.001500116,0.40586275,0.36208257,0.3621633,0.36219347,0.36210626,0.18981552,0.08800316,0.088228226,0.08831978,0.08807373,0.06261206,-0.025184631,-0.025262833,-0.02529192,-0.02523756,0.31942484,0.0012787941,0.27854085,0.39946815,0.0012874111
383358852,0.36265466,0.0014812264,0.39193374,0.3490148,0.34909582,0.34912598,0.34903872,0.13490677,0.03281212,0.033039093,0.033132553,0.032884598,0.018496513,-0.06603241,-0.066110134,-0.06613922,-0.066084385,0.31626034,0.0012847873,0.2798379,0.40132362,0.0012934271
383558855,0.34947944,0.0014670269,0.37823027,0.33610243,0.3361838,0.3362139,0.3361267,0.122205734,0.023517609,0.023736954,0.023828506,0.02358818,-0.04097414,-0.121705055,-0.12178421,-0.12181187,-0.12175703,0.315953,0.001285419,0.27996576,0.4015018,0.001294039
383758851,0.33649233,0.0014592655,0.36447775,0.32308918,0.32317078,0.32320094,0.32311362,0.011993408,-0.08301163,-0.08279419,-0.082704544,-0.08293915,-0.08811998,-0.16513443,-0.16521263,-0.16523981,-0.16518545,0.3222369,0.0012735939,0.27739292,0.39781442,0.0012821269
383958855,0.30115336,0.0014392934,0.32784215,0.28810057,0.28807124,0.2880632,0.28807938,0.02981186,-0.060956955,-0.06075096,-0.06065941,-0.06088257,-0.13818598,-0.21066236,-0.21073818,-0.21076536,-0.210711,0.32903516,0.0012608315,0.27461073,0.39382398,0.0012692624
384558849,0.2579449,0.0014405743,0.28279725,0.24464755,0.24461335,0.2446038,0.24462461,0.023130417,-0.054311752,-0.054121017,-0.054052353,-0.054246902,-0.2398057,-0.29445863,-0.29452205,-0.2945459,-0.29449797,0.3492518,0.0012228914,0.26633838,0.38195586,0.0012310164
384758849,0.24498506,0.0014483557,0.26920107,0.23142518,0.2313896,0.23137964,0.23140165,-0.05965805,-0.13154793,-0.13136482,-0.13130188,-0.13148308,-0.26424575,-0.31284547,-0.31290388,-0.31292677,-0.31288147,0.35967198,0.0012032945,0.26207334,0.37584013,0.0012112813
384958881,0.23458274,0.001458499,0.2581822,0.22071755,0.22068095,0.2206706,0.22069363,-0.09024811,-0.15777588,-0.15760803,-0.1575489,-0.15771866,-0.30090666,-0.34347463,-0.34352708,-0.34354925,-0.3435073,0.37081614,0.0011823296,0.2575117,0.3692996,0.0011901709
385358909,0.24318144,0.0014783791,0.26577482,0.22883646,0.2287995,0.22878908,0.22881253,0.011602402,-0.05745697,-0.057289124,-0.057231903,-0.057397842,-0.37892485,-0.41181755,-0.4118619,-0.4118805,-0.41184497,0.3890723,0.001148055,0.25004193,0.35858214,0.0011556342
385558849,0.27349296,0.0015021294,0.29612657,0.2583955,0.25847697,0.258507,0.2584206,-0.00784111,-0.08329964,-0.08311653,-0.08305359,-0.0832386,-0.43511224,-0.46828055,-0.46832585,-0.46834564,-0.46830916,0.39856908,0.0011302303,0.2461564,0.3530067,0.001137671
385758857,0.33029193,0.0014851503,0.3517405,0.31551296,0.31548083,0.31547198,0.3154914,-0.0009441376,-0.08830261,-0.08809471,-0.08801651,-0.08823776,-0.3818953,-0.42047238,-0.4205246,-0.42054653,-0.4205048,0.40856633,0.001111457,0.24206547,0.34713805,0.0011187544
385958849,0.3440857,0.0014772115,0.3649495,0.32931885,0.32928675,0.32927775,0.32929742,0.019388199,-0.074991226,-0.07476425,-0.07467842,-0.07492256,-0.20643091,-0.25010872,-0.25016832,-0.25019205,-0.25014496,0.41506356,0.0010992435,0.2394062,0.3433246,0.0011064508
386158858,0.30010414,0.0014692906,0.32054794,0.2855574,0.28552088,0.2855102,0.28553423,0.029306412,-0.06016922,-0.059957504,-0.059869766,-0.060106277,-0.01290226,-0.053229094,-0.05328667,-0.05330968,-0.05326426,0.41645437,0.0010966026,0.23883578,0.34250942,0.0011037968
386358888,0.21446817,0.0014695745,0.23439358,0.19991592,0.19987339,0.19986048,0.19989046,-0.100149155,-0.17772293,-0.17753792,-0.17746353,-0.17766571,-0.040778518,-0.070617914,-0.07066381,-0.070683,-0.07064557,0.42292145,0.0010843654,0.23618548,0.33871722,0.0010914982
