timestamp,lat,lon,alt,alt_ellipsoid,delta_alt,eph,epv,terrain_alt,lat_lon_reset_counter,alt_reset_counter,terrain_alt_valid,dead_reckoning
65828849,49.08965306032926,2.110389801023446,86.675095,132.85628,-0.0,0.6358945,0.932706,86.58468,2,0,1,0
66028861,49.08965303549143,2.1103897949598,86.68192,132.86398,-0.0,0.63591045,0.93238723,86.59618,2,0,1,0
66228849,49.08965302508534,2.11038980529295,86.69281,132.87553,-0.0,0.6359224,0.93207115,86.610085,2,0,1,0
66428849,49.08965301171175,2.110389826214623,86.704025,132.88702,-0.0,0.63594794,0.93279165,86.61561,2,0,1,0
66628858,49.08965301559536,2.1103898652225364,86.711685,132.89478,-0.0,0.6359684,0.9324803,86.6176,2,0,1,0
67428849,49.08965302157965,2.1103898235167313,86.71355,132.89433,-0.0,0.636016,0.9322888,86.61309,2,0,1,0
67828849,49.08965297465708,2.1103897965707485,86.71767,132.89708,-0.0,0.6359958,0.9326957,86.62036,2,0,1,0
68028849,49.08965294652798,2.1103898034006088,86.72675,132.90553,-0.0,0.63598686,0.93237793,86.64172,2,0,1,0
68228852,49.08965291724587,2.1103898267909917,86.73843,132.91652,-0.0,0.6359786,0.9320592,86.64733,2,0,1,0
68428849,49.089652884276894,2.1103898503712792,86.74481,132.9219,-0.0,0.6359711,0.93278044,86.64664,2,0,1,0
68628849,49.08965285758867,2.110389857371392,86.749306,132.92549,-0.0,0.6359645,0.93246996,86.64843,2,0,1,0
68828849,49.089652828983056,2.1103898896019104,86.75361,132.92856,-0.0,0.6359995,0.93215084,86.65716,2,0,1,0
69028849,49.089652809405905,2.1103899090895246,86.76135,132.93506,-0.0,0.63603145,0.9328706,86.66554,2,0,1,0
69228849,49.08965280070441,2.11038990709232,86.76925,132.94151,-0.0,0.63606036,0.9325499,86.67434,2,0,1,0
69428849,49.08965281514312,2.110389925519074,86.77793,132.94872,-0.0,0.6360454,0.932229,86.68488,2,0,1,0
69628889,49.08965283849239,2.1103899530151407,86.78809,132.95714,-0.0,0.63607264,0.93295187,86.6908,2,0,1,0
69828849,49.08965284067195,2.110390008138297,86.79259,132.95987,-0.0,0.6360801,0.9326356,86.689095,2,0,1,0
70028884,49.08965281510784,2.1103900948502425,86.79702,132.96254,-0.0,0.63604623,0.9323223,86.69742,2,0,1,0
70228851,49.089652790362784,2.1103901628341943,86.80604,132.96992,-0.0,0.63601613,0.9320114,86.71069,2,0,1,0
70428849,49.08965276469197,2.110390208285623,86.81621,132.97855,-0.0,0.6359896,0.93273896,86.717255,2,0,1,0
70628849,49.089652738754744,2.1103902394291287,86.82274,132.98335,-0.0,0.6359661,0.93243194,86.71812,2,0,1,0
70828849,49.08965270402383,2.1103902802378607,86.827644,132.98648,-0.0,0.6359456,0.9321268,86.72458,2,0,1,0
71028854,49.08965266368218,2.110390278869329,86.82992,132.98712,-0.0,0.6359277,0.9318235,86.72639,2,0,1,0
71228849,49.08965262235259,2.110390217571225,86.83143,132.98697,-0.0,0.6359121,0.9325504,86.72627,2,0,1,0
71428849,49.089652607023496,2.110390160116909,86.83362,132.98717,-0.0,0.6358986,0.932247,86.73107,2,0,1,0
71628851,49.089652621197374,2.110390114292245,86.831825,132.98354,-0.0,0.6359107,0.931952,86.723564,2,0,1,0
71828893,49.089652639499825,2.1103900949748873,86.82696,132.9766,-0.0,0.6358819,0.9326762,86.7219,2,0,1,0
72028849,49.08965265747958,2.1103900775827147,86.82667,132.97476,-0.0,0.6358397,0.9323639,86.72498,2,0,1,0
72228849,49.08965267099681,2.1103900278160057,86.82723,132.974,-0.0,0.6357862,0.9320504,86.731445,2,0,1,0
72428851,49.089652684200466,2.1103899794768153,86.828125,132.97372,-0.0,0.63578147,0.93277603,86.72871,2,0,1,0
72628850,49.0896526876761,2.110389933992674,86.830734,132.97542,-0.0,0.63576245,0.93246996,86.73744,2,0,1,0
72828849,49.089652696978476,2.1103899047809236,86.83599,132.97992,-0.0,0.6356895,0.93215925,86.74541,2,0,1,0
73028849,49.089652705817734,2.1103898943430033,86.842155,132.98535,-0.0,0.6356683,0.9318572,86.75128,2,0,1,0
73228876,49.08965272692526,2.1103898775532657,86.844475,132.98674,-0.0,0.6356349,0.9325898,86.74625,2,0,1,0
73428849,49.08965273558816,2.1103898655896036,86.84573,132.98676,-0.0,0.6355669,0.93227404,86.75248,2,0,1,0
73628849,49.08965272119556,2.1103898632060596,86.84977,132.99022,-0.0,0.63553244,0.9329993,86.75486,2,0,1,0
73828849,49.08965272180126,2.1103898352384878,86.85648,132.99626,-0.0,0.63548785,0.9326842,86.765594,2,0,1,0
74028859,49.089652736443625,2.1103897706465418,86.85971,132.99886,-0.0,0.63545173,0.93237156,86.76347,2,0,1,0
74228849,49.08965272991358,2.1103897053539606,86.86049,132.99895,-0.0,0.6354053,0.9320614,86.76407,2,0,1,0
74428856,49.08965272023431,2.1103896583244497,86.86081,132.99884,-0.0,0.6353674,0.93278736,86.7613,2,0,1,0
74628879,49.089652718338876,2.1103896283662134,86.865265,133.00302,-0.0,0.63531923,0.93248135,86.77301,2,0,1,0
74828849,49.08965271021092,2.110389579129941,86.87046,133.00815,-0.0,0.63523823,0.9321741,86.777176,2,0,1,0
75028852,49.089652687470036,2.1103895174127247,86.87348,133.01123,-0.0,0.6351687,0.93289125,86.77433,2,0,1,0
75228854,49.08965266509739,2.1103894622503057,86.87731,133.01523,-0.0,0.63510925,0.9325672,86.78432,2,0,1,0
75428852,49.08965264402038,2.1103893952617474,86.88479,133.02313,-0.0,0.6350586,0.9322495,86.789825,2,0,1,0
75628852,49.089652630844,2.110389326524796,86.89141,133.03029,-0.0,0.6350156,0.93296903,86.796326,2,0,1,0
75828866,49.0896526054422,2.110389227161701,86.89653,133.03601,-0.0,0.6349793,0.93264896,86.79732,2,0,1,0
76028888,49.08965257686169,2.110389110432654,86.901726,133.04167,-0.0,0.63494873,0.932335,86.80392,2,0,1,0
76228849,49.0896525617861,2.110389007821615,86.902,133.04248,-0.0,0.63496405,0.93202657,86.799774,2,0,1,0
76428849,49.089652541453106,2.110388950570302,86.90452,133.04561,-0.0,0.6349386,0.93274665,86.80596,2,0,1,0
76628850,49.08965250677253,2.110388913873961,86.907585,133.04958,-0.0,0.63495797,0.9324251,86.80784,2,0,1,0
76828865,49.08965249130836,2.1103888608724555,86.913445,133.05646,-0.0,0.6349356,0.93210334,86.81524,2,0,1,0
77028849,49.08965248388635,2.11038881078491,86.91431,133.05817,-0.0,0.6349163,0.93281925,86.809715,2,0,1,0
77228853,49.08965247817003,2.110388782575061,86.91442,133.05887,-0.0,0.6348996,0.9324991,86.81158,2,0,1,0
77428851,49.089652465909786,2.1103887591127015,86.914055,133.0594,-0.0,0.6349262,0.93218493,86.81158,2,0,1,0
77628881,49.08965245273074,2.110388718854085,86.912544,133.05852,-0.0,0.63490987,0.932907,86.80871,2,0,1,0
77828850,49.08965244505625,2.1103886681051667,86.911995,133.05843,-0.0,0.6349365,0.93259746,86.810905,2,0,1,0
78028849,49.08965243862966,2.110388586625315,86.91054,133.05742,-0.0,0.634961,0.93227965,86.80835,2,0,1,0
78228882,49.089652452728984,2.1103884768046144,86.90594,133.05322,-0.0,0.63498336,0.93299675,86.801674,2,0,1,0
78428859,49.08965246263545,2.1103883968635797,86.90345,133.05124,-0.0,0.6350035,0.93267745,86.801254,2,0,1,0
78628849,49.08965246927692,2.110388346356927,86.89851,133.047,-0.0,0.6350216,0.9323575,86.79621,2,0,1,0
78828849,49.089652471131046,2.1103882938596135,86.890205,133.0392,-0.0,0.6349964,0.93203735,86.78506,2,0,1,0
79028849,49.08965247390769,2.1103882191506385,86.88162,133.03157,-0.0,0.6349732,0.93275666,86.78125,2,0,1,0
79228849,49.08965247643348,2.1103881970110057,86.87786,133.0291,-0.0,0.6349934,0.9324446,86.78154,2,0,1,0
79428849,49.089652482117074,2.110388197403893,86.877846,133.03061,-0.0,0.63501155,0.93212783,86.78517,2,0,1,0
79628874,49.08965247702472,2.110388189696611,86.87508,133.02936,-0.0,0.63498646,0.93283916,86.77826,2,0,1,0
79828852,49.08965251499012,2.110388200972645,86.8698,133.02567,-0.0,0.63496363,0.9325143,86.77375,2,0,1,0
80028855,49.08965257101515,2.1103882129296725,86.863106,133.0209,-0.0,0.63494295,0.932189,86.763435,2,0,1,0
80228902,49.089652620049186,2.1103882128051903,86.85691,133.01677,-0.0,0.6349244,0.93290704,86.759895,2,0,1,0
80428859,49.0896526799342,2.1103881888516156,86.85047,133.01306,-0.0,0.6349078,0.932587,86.7534,2,0,1,0
80628857,49.089652738594886,2.1103881395497712,86.85093,133.01624,-0.0,0.63489294,0.9322698,86.76412,2,0,1,0
80828849,49.08965279696614,2.11038812041571,86.85463,133.02281,-0.0,0.6349208,0.93299717,86.76544,2,0,1,0
81028851,49.089652846818176,2.1103881387638364,86.85615,133.02745,-0.0,0.6349052,0.932667,86.764694,2,0,1,0
81228861,49.08965288286186,2.1103881467199104,86.856476,133.03046,-0.0,0.6349324,0.9323435,86.762115,2,0,1,0
81428849,49.089652939797624,2.110388153726461,86.85951,133.03647,-0.0,0.63495725,0.93306357,86.767456,2,0,1,0
81628851,49.08965301695916,2.110388180862301,86.86283,133.04294,-0.0,0.6349798,0.9327422,86.771,2,0,1,0
81828849,49.08965307731109,2.1103881977763472,86.86142,133.04477,-0.0,0.63500005,0.9324273,86.760605,2,0,1,0
82028850,49.08965314069162,2.110388180325179,86.86,133.04648,-0.0,0.6350183,0.9321116,86.76406,2,0,1,0
82228849,49.08965318190643,2.110388136982264,86.858055,133.04796,-0.0,0.6350518,0.93283725,86.75891,2,0,1,0
82428853,49.089653200595876,2.1103880646568296,86.85632,133.04938,-0.0,0.6350809,0.93251926,86.760254,2,0,1,0
82628851,49.0896532424443,2.110388009861026,86.85464,133.05084,-0.0,0.6351233,0.93219376,86.75695,2,0,1,0
82828851,49.08965330014442,2.110387987511775,86.852135,133.05147,-0.0,0.6351185,0.9329087,86.75374,2,0,1,0
83028851,49.089653384638396,2.110387986863385,86.84856,133.0509,-0.0,0.6351536,0.9325888,86.74891,2,0,1,0
83228887,49.089653445566555,2.1103879755020913,86.8468,133.05212,-0.0,0.6351665,0.93225455,86.75157,2,0,1,0
83428858,49.08965350482598,2.110387902259847,86.85143,133.05995,-0.0,0.6351776,0.9329623,86.76198,2,0,1,0
83628844,49.08965356153227,2.110387840044857,86.85958,133.07109,-0.0,0.6351871,0.9326314,86.773,2,0,1,0
85228916,49.08965382738019,2.110388091274622,86.8665,133.0928,-0.0,0.63525194,0.9320517,86.764565,2,0,1,0
85428935,49.089653849848744,2.1103880921651537,86.86441,133.09177,-0.0,0.63528425,0.93276477,86.76564,2,0,1,0
85628944,49.08965387846616,2.1103880703987357,86.8645,133.09311,-0.0,0.63532794,0.93346554,86.76673,2,0,1,0
85828849,49.089653914623476,2.1103880549513674,86.86233,133.09192,-0.0,0.6353814,0.93310916,86.761024,2,0,1,0
86028850,49.089653968554195,2.110388038639607,86.85905,133.08954,-0.0,0.6354669,0.9327646,86.757324,2,0,1,0
86228849,49.08965401347521,2.11038802699676,86.855034,133.08667,-0.0,0.6355412,0.93242127,86.75322,2,0,1,0
86428852,49.089654058402644,2.110388018490524,86.849594,133.08244,-0.0,0.6356224,0.93312806,86.747475,2,0,1,0
86628862,49.08965409844142,2.110388011490392,86.84648,133.08066,-0.0,0.63569224,0.9327926,86.748474,2,0,1,0
86828849,49.08965414510025,2.110387992022385,86.840904,133.07623,-0.0,0.63576883,0.9324613,86.73749,2,0,1,0
87028849,49.08965419867234,2.110387948168689,86.83621,133.07285,-0.0,0.6358344,0.933177,86.73759,2,0,1,0
87228849,49.0896542393881,2.110387892966895,86.83736,133.07526,-0.0,0.63589007,0.93283486,86.745605,2,0,1,0
87428849,49.08965427374811,2.110387877048055,86.83909,133.07828,-0.0,0.6359371,0.93249726,86.749855,2,0,1,0
87628849,49.08965428426678,2.110387910444111,86.83649,133.07658,-0.0,0.6359767,0.93320787,86.73683,2,0,1,0
87828862,49.0896542955161,2.110387962496128,86.832184,133.07288,-0.0,0.6360097,0.93287414,86.73212,2,0,1,0
88028849,49.089654290326195,2.1103879793316835,86.827255,133.06848,-0.0,0.6359958,0.9325447,86.728226,2,0,1,0
88228874,49.08965429256414,2.1103879642969003,86.82178,133.06352,-0.0,0.6359812,0.93221533,86.721466,2,0,1,0
88428849,49.08965429804724,2.1103879428055397,86.812904,133.05515,-0.0,0.6359663,0.93293035,86.709564,2,0,1,0
88628890,49.089654314079056,2.110387926120579,86.80374,133.0466,-0.0,0.6359687,0.9326,86.70309,2,0,1,0
88828854,49.08965435225269,2.1103879344826426,86.7967,133.04034,-0.0,0.6359861,0.9322629,86.69923,2,0,1,0
89028858,49.08965437967154,2.110387945699756,86.7914,133.03595,-0.0,0.63604045,0.93297493,86.693825,2,0,1,0
89228849,49.08965440847634,2.1103879623388186,86.788185,133.03389,-0.0,0.6361046,0.93264794,86.696014,2,0,1,0
89428849,49.08965443893347,2.1103879989565866,86.78366,133.03065,-0.0,0.6361769,0.9323072,86.68693,2,0,1,0
89628864,49.08965446143285,2.110388028515353,86.77807,133.02628,-0.0,0.6362391,0.93301016,86.6808,2,0,1,0
89828849,49.08965446980203,2.1103880664166077,86.77208,133.02151,-0.0,0.6363093,0.93267375,86.67416,2,0,1,0
90028849,49.0896544769115,2.110388077574815,86.76851,133.01955,-0.0,0.63638616,0.93234503,86.6755,2,0,1,0
90228851,49.08965447368642,2.1103880518271034,86.76379,133.01614,-0.0,0.63642746,0.9330465,86.66923,2,0,1,0
90428849,49.089654457922066,2.1103880187977557,86.75796,133.0115,-0.0,0.63650125,0.9327039,86.66085,2,0,1,0
90628849,49.0896544387882,2.110388002302742,86.748024,133.00253,-0.0,0.6365398,0.93236274,86.64718,2,0,1,0
90828849,49.089654418513376,2.1103879817019777,86.73665,132.99191,-0.0,0.6365871,0.93306637,86.63738,2,0,1,0
91028851,49.08965441632204,2.1103879474284444,86.723946,132.98036,-0.0,0.63662505,0.93273264,86.62358,2,0,1,0
91228853,49.089654427857546,2.1103879234029033,86.70992,132.96808,-0.0,0.63667196,0.9323992,86.61289,2,0,1,0
91428849,49.08965443468051,2.1103879318566836,86.69892,132.9591,-0.0,0.63672674,0.9320731,86.60672,2,0,1,0
91628849,49.089654438168246,2.1103879460074455,86.69396,132.95654,-0.0,0.6367718,0.9327844,86.61083,2,0,1,0
91828854,49.08965445564977,2.110387965698007,86.69142,132.95619,-0.0,0.63686585,0.9334867,86.60691,2,0,1,0
93228916,49.08965458840343,2.1103878994033547,86.63397,132.91486,-0.0,0.6372335,0.93317217,86.54104,2,0,1,0
93428898,49.08965463365895,2.110387931555197,86.6254,132.90909,-0.0,0.637278,0.932826,86.536606,2,0,1,0
93628858,49.089654672772554,2.11038795981084,86.620026,132.90656,-0.0,0.63733095,0.93248445,86.53592,2,0,1,0
93828858,49.089654705064255,2.1103879750813133,86.61446,132.9038,-0.0,0.6373912,0.9331909,86.52561,2,0,1,0
94028849,49.08965471981791,2.1103880186533432,86.60854,132.90076,-0.0,0.6374413,0.93285346,86.52193,2,0,1,0
94228849,49.089654724345586,2.1103880777119963,86.60558,132.90135,-0.0,0.6374993,0.93252367,86.52161,2,0,1,0
94428849,49.08965473015974,2.1103881210679463,86.60615,132.90572,-0.0,0.63754755,0.9321941,86.524284,2,0,1,0
94628870,49.089654738981835,2.1103881351073803,86.60917,132.9126,-0.0,0.6376445,0.9329117,86.52954,2,0,1,0
94828849,49.08965474033132,2.110388133169097,86.61302,132.92114,-0.0,0.6376471,0.9325784,86.530334,2,0,1,0
95028850,49.08965473589669,2.110388145571487,86.619896,132.93234,-0.0,0.6377027,0.93327653,86.540184,2,0,1,0
95228852,49.089654742952554,2.110388150502309,86.62908,132.94609,-0.0,0.63778985,0.93292904,86.544815,2,0,1,0
95428850,49.08965477577842,2.1103881655174006,86.636566,132.9584,-0.0,0.6378248,0.93257976,86.55036,2,0,1,0
95628855,49.08965481650416,2.1103881983764605,86.64319,132.96992,-0.0,0.6378698,0.93223894,86.5537,2,0,1,0
95828849,49.08965484545797,2.1103882439653323,86.65212,132.98404,-0.0,0.63790685,0.9329401,86.56701,2,0,1,0
96028851,49.08965486614985,2.1103882815784476,86.66429,133.00131,-0.0,0.63793725,0.9326036,86.57487,2,0,1,0
96228858,49.08965490375048,2.110388306546872,86.67159,133.01353,-0.0,0.63801914,0.93227786,86.5765,2,0,1,0
96428849,49.089654951430205,2.110388290857203,86.674255,133.02132,-0.0,0.6380497,0.9329808,86.573586,2,0,1,0
96628849,49.0896549740748,2.110388243415107,86.66982,133.02185,-0.0,0.63811517,0.93264127,86.56085,2,0,1,0
96828861,49.08965497083738,2.110388193262071,86.66569,133.02263,-0.0,0.63818854,0.93230623,86.56169,2,0,1,0
97028895,49.089654947919875,2.110388136220303,86.66321,133.02525,-0.0,0.638252,0.9330148,86.56076,2,0,1,0
97228849,49.08965493166745,2.1103880795190353,86.66469,133.03198,-0.0,0.6383067,0.9326873,86.56815,2,0,1,0
97428884,49.08965490914822,2.1103880412576457,86.66421,133.03668,-0.0,0.6383292,0.9323568,86.56159,2,0,1,0
97628853,49.08965486349254,2.1103879923684783,86.65776,133.03502,-0.0,0.6383463,0.9320335,86.55327,2,0,1,0
97828849,49.08965481505296,2.1103879454568863,86.64868,133.03104,-0.0,0.63835895,0.9327465,86.54165,2,0,1,0
98028850,49.08965477139349,2.110387897255283,86.64132,133.02899,-0.0,0.63838446,0.9324013,86.54145,2,0,1,0
98228895,49.08965475640961,2.1103878643372544,86.63715,133.03015,-0.0,0.6384048,0.9330951,86.539154,2,0,1,0
98428849,49.089654754405906,2.1103878559096607,86.62829,133.02673,-0.0,0.6384208,0.9327479,86.52297,2,0,1,0
98628849,49.08965472661343,2.1103878781279075,86.618706,133.02298,-0.0,0.6384331,0.93240196,86.519905,2,0,1,0
98828852,49.08965469574736,2.11038794144297,86.61207,133.02228,-0.0,0.6384589,0.93310565,86.51675,2,0,1,0
99028852,49.089654695827825,2.110388039751834,86.61098,133.02702,-0.0,0.63847995,0.9327677,86.52187,2,0,1,0
99228849,49.089654694019835,2.1103881349633795,86.61212,133.034,-0.0,0.6385377,0.9324371,86.522224,2,0,1,0
100628849,49.08965471187226,2.110388551739769,86.621445,133.08444,-0.0,0.6386673,0.93218005,86.53154,2,0,1,0
100828859,49.089654722590105,2.1103886248967942,86.62616,133.09442,-0.0,0.6386855,0.9328953,86.53466,2,0,1,0
101028851,49.08965473148621,2.110388688558861,86.628296,133.1012,-0.0,0.63870054,0.9325662,86.53193,2,0,1,0
101228890,49.08965475306123,2.1103887730443427,86.6312,133.10889,-0.0,0.63871294,0.9322304,86.53843,2,0,1,0
101428853,49.089654771226236,2.1103888239896973,86.63315,133.11502,-0.0,0.6387395,0.93293965,86.535446,2,0,1,0
101628849,49.08965479021725,2.1103888455006703,86.6344,133.12042,-0.0,0.6387619,0.9326108,86.535255,2,0,1,0
101828881,49.089654837341676,2.110388906202878,86.636246,133.12642,-0.0,0.63878024,0.93228555,86.53939,2,0,1,0
102028852,49.089654909109626,2.110388965726368,86.64,133.13394,-0.0,0.6387955,0.93299925,86.54549,2,0,1,0
102228856,49.08965498968385,2.110389016331131,86.64328,133.14105,-0.0,0.63880825,0.9326766,86.54705,2,0,1,0
102428849,49.089655080876454,2.110389073994893,86.64712,133.14874,-0.0,0.63883525,0.93236065,86.55111,2,0,1,0
102628849,49.08965518014659,2.1103891444539236,86.65398,133.15915,-0.0,0.6388579,0.9320474,86.560524,2,0,1,0
102828849,49.089655271792694,2.110389223432237,86.658264,133.16664,-0.0,0.6389176,0.93277365,86.55557,2,0,1,0
103028857,49.0896553426861,2.1103892904534742,86.65897,133.1707,-0.0,0.63892996,0.9324652,86.555786,2,0,1,0
103228897,49.08965540760107,2.110389337744845,86.66316,133.17813,-0.0,0.6389397,0.93215555,86.564064,2,0,1,0
103428851,49.08965547305555,2.110389350356687,86.66738,133.18542,-0.0,0.6389475,0.93185174,86.567696,2,0,1,0
103628854,49.089655540548286,2.110389343127331,86.66875,133.18922,-0.0,0.63896966,0.9325789,86.5655,2,0,1,0
103828849,49.08965560529785,2.1103893550974453,86.671,133.19382,-0.0,0.63898855,0.9322754,86.56737,2,0,1,0
104028849,49.089655656972404,2.110389354508035,86.66846,133.19344,-0.0,0.639004,0.9319667,86.564545,2,0,1,0
104228854,49.089655704571705,2.110389312677756,86.6631,133.19025,-0.0,0.6390573,0.93268824,86.554695,2,0,1,0
104428857,49.089655745567825,2.1103892764527874,86.65917,133.1885,-0.0,0.639064,0.93237376,86.55482,2,0,1,0
104628852,49.08965577465052,2.1103892552626142,86.65472,133.18616,-0.0,0.6390851,0.9320617,86.55315,2,0,1,0
104828849,49.08965579219528,2.110389205194677,86.65471,133.18802,-0.0,0.6391024,0.932786,86.55801,2,0,1,0
105028852,49.08965581927398,2.110389169775161,86.65777,133.19272,-0.0,0.6391163,0.9324782,86.563446,2,0,1,0
105228849,49.089655859820674,2.1103891785170203,86.66117,133.19772,-0.0,0.6391277,0.9321691,86.564926,2,0,1,0
105428896,49.089655894604675,2.11038916951968,86.663506,133.20169,-0.0,0.6391369,0.9318656,86.5672,2,0,1,0
105628853,49.08965593515133,2.11038913599259,86.66504,133.20459,-0.0,0.63920116,0.9325963,86.56847,2,0,1,0
105828849,49.089655962432914,2.1103890804830447,86.66848,133.20923,-0.0,0.63921726,0.9322755,86.572586,2,0,1,0
106028852,49.08965597366393,2.110389009493459,86.669075,133.21086,-0.0,0.6392303,0.9319609,86.57054,2,0,1,0
106228849,49.08965598193924,2.1103889222249292,86.66854,133.21126,-0.0,0.6392407,0.93268025,86.56741,2,0,1,0
106428852,49.089655991633165,2.1103888557470896,86.670555,133.21408,-0.0,0.63924867,0.9323668,86.574196,2,0,1,0
106628849,49.089655980382226,2.1103887751185106,86.66866,133.21303,-0.0,0.6392547,0.93205225,86.5632,2,0,1,0
106828875,49.08965596637044,2.1103887061327224,86.66419,133.20926,-0.0,0.6392592,0.9327773,86.561104,2,0,1,0
107028849,49.089655953398314,2.1103886762530784,86.66324,133.20894,-0.0,0.63926286,0.93247044,86.56511,2,0,1,0
107228849,49.08965593726571,2.110388636099235,86.66261,133.20914,-0.0,0.6392817,0.9321516,86.56453,2,0,1,0
107428849,49.08965592099426,2.110388578566338,86.65942,133.20647,-0.0,0.6392975,0.932868,86.559525,2,0,1,0
107628849,49.089655916549425,2.1103885628439976,86.6589,133.20677,-0.0,0.63931054,0.9325472,86.56029,2,0,1,0
107828853,49.08965593908926,2.1103885623201077,86.66218,133.21133,-0.0,0.6393213,0.93222934,86.5732,2,0,1,0
108028849,49.08965595697254,2.1103885586596123,86.66778,133.21823,-0.0,0.63933015,0.9329519,86.5725,2,0,1,0
108228874,49.08965596074276,2.110388543821274,86.67433,133.22601,-0.0,0.6393375,0.93263525,86.58166,2,0,1,0
108428849,49.08965598350908,2.1103885589346034,86.67721,133.22989,-0.0,0.639384,0.93232775,86.579094,2,0,1,0
108628863,49.08965597333751,2.110388572509138,86.674904,133.22862,-0.0,0.6394013,0.9330525,86.57044,2,0,1,0
108828849,49.089655947823196,2.1103885795027018,86.670105,133.22475,-0.0,0.6394157,0.9327251,86.56575,2,0,1,0
109028852,49.089655958229294,2.110388569601735,86.66659,133.22227,-0.0,0.6394275,0.9324044,86.56583,2,0,1,0
109228849,49.08965598099962,2.110388547985934,86.662766,133.21965,-0.0,0.6394371,0.9320831,86.56003,2,0,1,0
109428849,49.08965598510969,2.1103885387136074,86.658615,133.2167,-0.0,0.6394447,0.9328024,86.557945,2,0,1,0
109628884,49.08965600014016,2.110388532610619,86.65696,133.21658,-0.0,0.63943446,0.93248606,86.560295,2,0,1,0
109828849,49.08965602039702,2.1103885470625783,86.65578,133.21696,-0.0,0.63942516,0.9321723,86.55975,2,0,1,0
110028849,49.08965603267069,2.110388568095539,86.654915,133.21773,-0.0,0.6394168,0.93289757,86.55854,2,0,1,0
110228849,49.08965603621979,2.110388580962844,86.65469,133.21936,-0.0,0.63940924,0.9325671,86.55656,2,0,1,0
110428852,49.08965603447983,2.1103885737466754,86.65415,133.22029,-0.0,0.6394027,0.9332683,86.558334,2,0,1,0
110628849,49.08965603129547,2.110388549793184,86.65666,133.22429,-0.0,0.63939685,0.9329273,86.5611,2,0,1,0
110828858,49.08965603009287,2.1103885359305417,86.6572,133.22633,-0.0,0.63940805,0.9325905,86.56244,2,0,1,0
111628852,49.089656034419825,2.110388645698839,86.66873,133.24467,-0.0,0.6394387,0.9323172,86.58025,2,0,1,0
111828899,49.0896560534146,2.110388676318428,86.67429,133.25172,-0.0,0.63944376,0.9320007,86.579636,2,0,1,0
112028867,49.08965603916031,2.1103887019941325,86.67497,133.25363,-0.0,0.63944787,0.93271947,86.57444,2,0,1,0
112228849,49.08965603015329,2.110388748971285,86.67273,133.25247,-0.0,0.6394511,0.9324046,86.56886,2,0,1,0
112428856,49.08965602515478,2.110388825592357,86.670456,133.25143,-0.0,0.63947004,0.93209237,86.57274,2,0,1,0
112628849,49.089656020065675,2.1103888880692105,86.67075,133.25278,-0.0,0.63948625,0.93281376,86.57204,2,0,1,0
112828852,49.08965602112222,2.110388902927187,86.672806,133.25575,-0.0,0.63950026,0.9325027,86.575745,2,0,1,0
113028849,49.08965602933994,2.1103888985529453,86.669106,133.25293,-0.0,0.6395121,0.9321975,86.56479,2,0,1,0
113228871,49.08965602850077,2.1103888921225655,86.661095,133.24559,-0.0,0.6395224,0.93292445,86.5538,2,0,1,0
113428849,49.08965601829165,2.11038886477709,86.6501,133.2353,-0.0,0.6395309,0.9326057,86.54254,2,0,1,0
113828899,49.08965597059451,2.1103888680447294,86.64159,133.22873,-0.0,0.63958436,0.93197286,86.54617,2,0,1,0
114028852,49.08965594175034,2.1103888901843986,86.63637,133.22527,-0.0,0.63954496,0.93269104,86.537186,2,0,1,0
114228851,49.08965592010782,2.1103888808269793,86.63269,133.22293,-0.0,0.63954926,0.9323757,86.5371,2,0,1,0
114428849,49.089655925785515,2.110388850672283,86.62941,133.22086,-0.0,0.6395527,0.93206644,86.53592,2,0,1,0
114628851,49.08965594816641,2.110388843351311,86.62402,133.2169,-0.0,0.6395555,0.93279344,86.524956,2,0,1,0
114828849,49.08965598512138,2.1103888481642255,86.616745,133.21123,-0.0,0.63955766,0.9324742,86.51943,2,0,1,0
115028849,49.08965602637376,2.110388876537735,86.61315,133.2095,-0.0,0.63955957,0.9321509,86.52339,2,0,1,0
115228856,49.08965606898821,2.1103888873357417,86.61039,133.20847,-0.0,0.6395608,0.9328699,86.516045,2,0,1,0
115428862,49.08965608039989,2.1103888589359694,86.60926,133.20908,-0.0,0.63954586,0.9325519,86.52043,2,0,1,0
115628857,49.08965608844392,2.110388811042063,86.6119,133.21309,-0.0,0.6395329,0.9322365,86.52479,2,0,1,0
115828849,49.08965607660255,2.1103887606860416,86.61402,133.21677,-0.0,0.6395218,0.93192375,86.52445,2,0,1,0
116028842,49.089656057485286,2.1103887213507333,86.622505,133.22682,-0.0,0.6395123,0.9326476,86.54038,2,0,1,0
116228859,49.08965604047492,2.1103886846478184,86.63133,133.23727,-0.0,0.63950413,0.9323321,86.54263,2,0,1,0
116428853,49.089656008387706,2.1103886456137464,86.63656,133.24393,-0.0,0.63948095,0.93303484,86.54096,2,0,1,0
116628853,49.08965598590574,2.1103886271280685,86.63885,133.24748,-0.0,0.63946104,0.9326939,86.54184,2,0,1,0
116828910,49.08965596979244,2.110388602847182,86.63598,133.24579,-0.0,0.6394441,0.93235695,86.530914,2,0,1,0
117028892,49.089655960495136,2.1103885796336503,86.627975,133.23889,-0.0,0.63942987,0.93306464,86.52029,2,0,1,0
117228926,49.08965593506926,2.1103885750761027,86.62216,133.23459,-0.0,0.6394179,0.9327346,86.51925,2,0,1,0
117428850,49.0896559096565,2.1103885243664937,86.6183,133.23236,-0.0,0.6394079,0.9324047,86.51753,2,0,1,0
117628849,49.08965589123982,2.110388463264804,86.61743,133.23334,-0.0,0.63939965,0.93208176,86.52176,2,0,1,0
117828849,49.08965588435574,2.110388428762087,86.61957,133.23755,-0.0,0.6393928,0.9327961,86.52484,2,0,1,0
120028849,49.08965593887881,2.1103884532590156,86.58467,133.2323,-0.0,0.6393875,0.9321819,86.486336,2,0,1,0
120228849,49.08965594620966,2.1103884484525905,86.58305,133.23471,-0.0,0.63938487,0.9328898,86.4862,2,0,1,0
120428868,49.08965594899999,2.110388436737769,86.580124,133.23607,-0.0,0.63938266,0.9325573,86.48058,2,0,1,0
120628885,49.08965594150001,2.110388419142633,86.5771,133.2374,-0.0,0.6393807,0.93223214,86.4817,2,0,1,0
120828899,49.08965594422037,2.11038836026732,86.572426,133.2374,-0.0,0.63937896,0.9329482,86.46987,2,0,1,0
121028849,49.0896559562927,2.1103882926304363,86.5649,133.23439,-0.0,0.63937724,0.932615,86.46432,2,0,1,0
121228849,49.0896559485287,2.1103882405718646,86.560715,133.2349,-0.0,0.6393757,0.93228227,86.46494,2,0,1,0
121428850,49.08965593337517,2.1103882044975797,86.559235,133.23837,-0.0,0.6393742,0.9329923,86.46485,2,0,1,0
121628849,49.08965592283103,2.1103881758162615,86.55965,133.24396,-0.0,0.6393729,0.93266636,86.46883,2,0,1,0
121828886,49.08965592471599,2.110388150913267,86.56108,133.25116,-0.0,0.6393881,0.93234044,86.46644,2,0,1,0
122428849,49.08965600771659,2.110388210161716,86.56754,133.27477,-0.0,0.6394168,0.9324244,86.47985,2,0,1,0
122628862,49.089656026823135,2.110388226912112,86.57682,133.28929,-0.0,0.6394112,0.9321033,86.488754,2,0,1,0
122828852,49.089656038389215,2.1103882270496097,86.58015,133.29745,-0.0,0.6394059,0.9328129,86.47944,2,0,1,0
123028849,49.08965604250706,2.1103882388691946,86.57597,133.29782,-0.0,0.6394011,0.9324874,86.471825,2,0,1,0
123228863,49.089656062889894,2.1103882528889693,86.57223,133.29855,-0.0,0.6393968,0.93216515,86.47126,2,0,1,0
123428858,49.08965609088043,2.1103882610284055,86.5732,133.30392,-0.0,0.63939285,0.93288225,86.47742,2,0,1,0
123628849,49.089656121702326,2.110388285446786,86.57565,133.31082,-0.0,0.63938934,0.9325656,86.4776,2,0,1,0
123828852,49.08965616067038,2.1103883033692927,86.575714,133.31534,-0.0,0.6393861,0.9322483,86.47683,2,0,1,0
124028849,49.08965620255634,2.110388292558077,86.578995,133.32301,-0.0,0.6393425,0.9329688,86.48395,2,0,1,0
124228849,49.0896562240198,2.110388262671838,86.58125,133.32957,-0.0,0.63934374,0.93263173,86.48359,2,0,1,0
124428849,49.089656232088764,2.110388251860668,86.58002,133.33249,-0.0,0.63934505,0.93228847,86.476685,2,0,1,0
124628854,49.08965622673401,2.110388242437744,86.57919,133.33557,-0.0,0.63934654,0.9329919,86.48268,2,0,1,0
124828852,49.08965620970678,2.110388238246887,86.57801,133.33861,-0.0,0.63934785,0.9326527,86.47691,2,0,1,0
125028849,49.08965618919586,2.1103882589852203,86.57491,133.33928,-0.0,0.6393492,0.9323176,86.47407,2,0,1,0
125228851,49.08965616217289,2.1103882961858607,86.572716,133.34111,-0.0,0.63935053,0.93302613,86.47275,2,0,1,0
125428852,49.089656155067985,2.1103882932260616,86.57192,133.34445,-0.0,0.63935196,0.932698,86.47127,2,0,1,0
125628852,49.08965617150341,2.110388275585056,86.5705,133.34756,-0.0,0.6393533,0.9323733,86.471016,2,0,1,0
125828853,49.08965617830922,2.1103882780799297,86.57397,133.35507,-0.0,0.63935447,0.933079,86.48095,2,0,1,0
126028857,49.08965617442777,2.1103882772286626,86.579414,133.36472,-0.0,0.63935566,0.9327435,86.48449,2,0,1,0
126228849,49.08965617306301,2.110388257053508,86.582924,133.37234,-0.0,0.6393568,0.9324119,86.487495,2,0,1,0
126428901,49.0896561567972,2.110388231129011,86.585625,133.3792,-0.0,0.6393578,0.9320841,86.487434,2,0,1,0
126628874,49.08965613163534,2.1103882333096116,86.58981,133.38739,-0.0,0.63935876,0.932794,86.49453,2,0,1,0
126828897,49.08965610903575,2.1103882585465947,86.597916,133.39923,-0.0,0.63935965,0.93246907,86.50325,2,0,1,0
127028849,49.08965609052638,2.110388294483412,86.60031,133.40517,-0.0,0.6393605,0.932151,86.497025,2,0,1,0
127228860,49.08965607176804,2.110388324408936,86.59456,133.40283,-0.0,0.6393613,0.9328612,86.48262,2,0,1,0
127428894,49.08965604888113,2.1103883282920783,86.58477,133.39636,-0.0,0.6393621,0.9325316,86.47106,2,0,1,0
127628862,49.08965603052855,2.110388340000373,86.57678,133.3919,-0.0,0.63936263,0.9322021,86.468346,2,0,1,0
127828852,49.08965601276052,2.1103883455074746,86.564766,133.38371,-0.0,0.63936317,0.9329132,86.45435,2,0,1,0
128028849,49.08965598931451,2.1103883476749763,86.55494,133.37755,-0.0,0.6393636,0.93259007,86.449646,2,0,1,0
128228854,49.08965596932191,2.110388328449343,86.54722,133.37376,-0.0,0.63934773,0.9322667,86.44393,2,0,1,0
128428858,49.089655971746424,2.1103883409433997,86.54187,133.3724,-0.0,0.6393342,0.9319501,86.44374,2,0,1,0
128628849,49.08965598110244,2.1103883829111165,86.540245,133.37515,-0.0,0.6393227,0.93267095,86.44692,2,0,1,0
128828851,49.08965597955546,2.110388419725376,86.54076,133.38019,-0.0,0.6393128,0.9323523,86.44791,2,0,1,0
129028849,49.08965598542643,2.110388467927032,86.541145,133.38487,-0.0,0.6393042,0.9330668,86.44585,2,0,1,0
129228849,49.089656021630184,2.1103885393552875,86.543106,133.3909,-0.0,0.6393375,0.9327431,86.44976,2,0,1,0
129428849,49.08965606775273,2.1103885654238064,86.54461,133.39671,-0.0,0.63932747,0.93241954,86.452354,2,0,1,0
129628854,49.089656100844486,2.110388605433566,86.54401,133.40063,-0.0,0.63931876,0.93209916,86.445526,2,0,1,0
129828888,49.089656107696406,2.110388630618124,86.54488,133.4059,-0.0,0.63931125,0.93281645,86.453674,2,0,1,0
130028849,49.08965609956256,2.110388609572061,86.5506,133.41629,-0.0,0.6393044,0.9325015,86.461395,2,0,1,0
130228854,49.08965610660315,2.1103886201540227,86.55863,133.42899,-0.0,0.6392988,0.9321891,86.46758,2,0,1,0
130428886,49.08965612949277,2.11038865943694,86.561935,133.43655,-0.0,0.6393103,0.9318827,86.464775,2,0,1,0
130628897,49.08965615353835,2.1103886857477736,86.56471,133.44366,-0.0,0.6393201,0.9326081,86.467155,2,0,1,0
130828849,49.08965617940914,2.1103886935728977,86.564644,133.44788,-0.0,0.6393285,0.93229884,86.46145,2,0,1,0
131028849,49.08965620441823,2.1103886957403346,86.56326,133.45033,-0.0,0.6393356,0.9319952,86.46153,2,0,1,0
131228849,49.089656206796896,2.110388694122914,86.565056,133.45581,-0.0,0.6393416,0.9327224,86.46529,2,0,1,0
131428853,49.08965619228716,2.1103886834492873,86.564545,133.45883,-0.0,0.63934684,0.93241894,86.45926,2,0,1,0
131628852,49.08965617783641,2.1103886933830007,86.559616,133.45741,-0.0,0.63935107,0.9321208,86.451515,2,0,1,0
131828879,49.089656156528115,2.110388702419613,86.55225,133.45341,-0.0,0.63935465,0.93182415,86.44712,2,0,1,0
132028849,49.089656151003446,2.1103887137022537,86.5503,133.45511,-0.0,0.63935745,0.9325574,86.45079,2,0,1,0
132228849,49.0896561528316,2.1103887132635184,86.55246,133.46075,-0.0,0.63935953,0.93226355,86.45405,2,0,1,0
132428853,49.089656128007164,2.110388689139801,86.54986,133.46149,-0.0,0.63936126,0.9319673,86.445305,2,0,1,0
132628849,49.0896561012846,2.1103886436229553,86.547104,133.46194,-0.0,0.63936275,0.9327044,86.444534,2,0,1,0
132828850,49.08965608496437,2.110388591734649,86.54212,133.46008,-0.0,0.63936394,0.9324072,86.436325,2,0,1,0
133028849,49.089656051572696,2.110388545752887,86.53563,133.45667,-0.0,0.63936484,0.9321147,86.43033,2,0,1,0
133228852,49.089656018061504,2.110388532001608,86.52923,133.45343,-0.0,0.63936555,0.93285173,86.42649,2,0,1,0
133428891,49.08965598591185,2.1103885318183,86.5255,133.4527,-0.0,0.6393661,0.93254405,86.42696,2,0,1,0
133628849,49.089655960999224,2.1103885075308764,86.51915,133.44934,-0.0,0.63938284,0.9322383,86.41459,2,0,1,0
133828849,49.089655925428566,2.110388467429445,86.511925,133.44519,-0.0,0.63939714,0.9319309,86.411835,2,0,1,0
134028849,49.08965586875036,2.1103884341316728,86.50802,133.44437,-0.0,0.63940924,0.93265975,86.411865,2,0,1,0
134228852,49.089655835755906,2.110388421559078,86.506454,133.44606,-0.0,0.6394195,0.93235564,86.41129,2,0,1,0
134428849,49.089655821719774,2.110388432704217,86.50502,133.44775,-0.0,0.63942814,0.93205327,86.41082,2,0,1,0
134628851,49.089655816793865,2.11038845755483,86.500595,133.44629,-0.0,0.6394354,0.93278635,86.40111,2,0,1,0
134828894,49.089655800841406,2.110388460180699,86.49366,133.44232,-0.0,0.6394008,0.9324627,86.39403,2,0,1,0
135028852,49.089655765103785,2.1103884646335556,86.4871,133.43845,-0.0,0.6394093,0.9331707,86.39171,2,0,1,0
135228849,49.08965574536501,2.110388477029418,86.48043,133.43465,-0.0,0.63941664,0.9328383,86.38203,2,0,1,0
135428882,49.089655730602004,2.110388487126838,86.47364,133.43068,-0.0,0.6394232,0.9325094,86.37889,2,0,1,0
135628849,49.08965571108838,2.110388501231793,86.46574,133.42567,-0.0,0.639429,0.9321838,86.372314,2,0,1,0
135828851,49.08965568869062,2.1103885542333525,86.464165,133.42722,-0.0,0.639434,0.93289787,86.37675,2,0,1,0
136028849,49.089655669655166,2.110388610168523,86.465294,133.43109,-0.0,0.639479,0.93258095,86.37949,2,0,1,0
136228864,49.08965563146413,2.1103886607930895,86.46697,133.43567,-0.0,0.63947904,0.9332921,86.379234,2,0,1,0
136428901,49.08965558749917,2.1103887194851056,86.46778,133.4393,-0.0,0.63947874,0.932939,86.379585,2,0,1,0
136628932,49.08965556023019,2.1103887922165465,86.468346,133.44269,-0.0,0.63947827,0.93259084,86.37873,2,0,1,0
136828969,49.089655545765524,2.1103888446614936,86.4684,133.44565,-0.0,0.6394939,0.93329316,86.376915,2,0,1,0
137028849,49.089655543164405,2.1103888790594505,86.4697,133.44994,-0.0,0.6395071,0.93294936,86.38268,2,0,1,0
137228849,49.08965554058634,2.110388891907119,86.46839,133.45154,-0.0,0.6395182,0.9326134,86.37311,2,0,1,0
137428862,49.08965553523,2.11038890801582,86.46646,133.45242,-0.0,0.6395277,0.93227786,86.3704,2,0,1,0
137628853,49.08965551964714,2.1103889293631326,86.46646,133.45555,-0.0,0.6395354,0.93298846,86.37369,2,0,1,0
137828849,49.08965550620735,2.110388944954532,86.46679,133.45932,-0.0,0.6395419,0.932649,86.37479,2,0,1,0
138028849,49.08965547864083,2.1103889590856904,86.46877,133.46484,-0.0,0.63950664,0.9333369,86.37543,2,0,1,0
138228855,49.08965545376253,2.1103889627658394,86.47266,133.47197,-0.0,0.6395146,0.9329814,86.382576,2,0,1,0
138428867,49.08965542387926,2.110388977060707,86.47822,133.48053,-0.0,0.6395378,0.9326276,86.38698,2,0,1,0
138628849,49.08965540789626,2.1103890328714563,86.482735,133.48787,-0.0,0.6395581,0.9322825,86.39235,2,0,1,0
138828849,49.0896554101994,2.110389122543178,86.483765,133.49136,-0.0,0.63957554,0.93298066,86.382095,2,0,1,0
139028907,49.08965540934285,2.1103892191233076,86.47994,133.48979,-0.0,0.6395907,0.9326403,86.3775,2,0,1,0
139228898,49.089655385453845,2.1103892588319226,86.471725,133.48381,-0.0,0.63960344,0.9323079,86.36647,2,0,1,0
139428849,49.08965537235794,2.110389317039327,86.468254,133.48259,-0.0,0.63961416,0.9330082,86.37502,2,0,1,0
139628851,49.08965535944751,2.1103893612727673,86.464836,133.48138,-0.0,0.63962334,0.9326448,86.36407,2,0,1,0
139828849,49.08965534069261,2.110389342800181,86.46054,133.47914,-0.0,0.63963115,0.9333343,86.364044,2,0,1,0
140028849,49.08965531232255,2.1103893027904155,86.4594,133.48254,-0.0,0.6430743,0.9329621,86.36768,2,0,1,0
140228853,49.0896552622443,2.110389273951992,86.46316,133.48944,-0.0,0.646473,0.93261045,86.37441,2,0,1,0
140428903,49.08965520690941,2.1103892547395016,86.46515,133.49626,-0.0,0.6496568,0.93226755,86.36857,2,0,1,0
140628849,49.08965513318361,2.1103892443802685,86.46598,133.50227,-0.0,0.6525792,0.93296766,86.370964,2,0,1,0
140828849,49.08965504401056,2.110389230118299,86.47143,133.51302,-0.0,0.6552066,0.93262976,86.382416,2,0,1,0
142428849,49.089653712622855,2.1103885022690774,86.49203,133.5707,-0.0,0.6647621,0.9329359,86.39326,2,0,1,0
142628869,49.089653493363116,2.110388410639721,86.49831,133.58093,-0.0,0.66478586,0.93259203,86.40561,2,0,1,0
142828849,49.0896532476853,2.1103883067324336,86.50604,133.59236,-0.0,0.6645998,0.933278,86.40849,2,0,1,0
143028850,49.08965295978217,2.110388144938684,86.5109,133.59999,-0.0,0.6643039,0.9329118,86.412605,2,0,1,0
143228887,49.08965264847832,2.1103879704872024,86.51465,133.60678,-0.0,0.663883,0.93255174,86.409225,2,0,1,0
143428852,49.089652378347,2.1103878303681363,86.51912,133.61372,-0.0,0.6633509,0.9332422,86.421074,2,0,1,0
143628915,49.08965214295465,2.110387695526913,86.52327,133.62036,-0.0,0.6627346,0.93288857,86.41954,2,0,1,0
143828849,49.08965189908217,2.1103875381990167,86.5203,133.61946,-0.0,0.6620599,0.9325438,86.408485,2,0,1,0
144028849,49.08965165707617,2.110387357493871,86.51579,133.6167,-0.0,0.6613352,0.93324167,86.406265,2,0,1,0
144228858,49.08965140691811,2.1103871755314745,86.51122,133.61346,-0.0,0.660568,0.9328881,86.40467,2,0,1,0
144428849,49.08965113910886,2.1103869768055876,86.506805,133.60988,-0.0,0.65978044,0.93253654,86.400276,2,0,1,0
144628864,49.08965086373664,2.110386765664233,86.50408,133.60788,-0.0,0.65897685,0.9321937,86.4027,2,0,1,0
144828849,49.08965061319531,2.1103865795109638,86.50538,133.60976,-0.0,0.6581763,0.9328922,86.40552,2,0,1,0
145028852,49.08965040454694,2.1103864194000237,86.50615,133.61101,-0.0,0.65738004,0.93255085,86.402,2,0,1,0
145228849,49.089650185418996,2.110386241811824,86.503876,133.60886,-0.0,0.65658903,0.9322177,86.403984,2,0,1,0
145428894,49.0896499651,2.1103860622526045,86.50327,133.6084,-0.0,0.6558194,0.9329259,86.40133,2,0,1,0
145628849,49.08964975382126,2.110385870435053,86.50062,133.60541,-0.0,0.65506953,0.9325861,86.39592,2,0,1,0
145828852,49.08964955338174,2.1103856651149995,86.499825,133.60394,-0.0,0.6543377,0.9322473,86.40314,2,0,1,0
146028857,49.0896493570922,2.1103854613861666,86.50244,133.60548,-0.0,0.6536223,0.9329508,86.40488,2,0,1,0
146228849,49.089649168564485,2.1103852497012023,86.50613,133.60814,-0.0,0.65293753,0.9326164,86.41094,2,0,1,0
146428849,49.08964900104834,2.110384999911953,86.51013,133.61118,-0.0,0.6522796,0.93228614,86.414696,2,0,1,0
146628852,49.089648853424556,2.1103847549945742,86.51475,133.61423,-0.0,0.65164524,0.93195987,86.41902,2,0,1,0
146828880,49.0896487188351,2.1103845778319044,86.51561,133.61342,-0.0,0.65103143,0.9326719,86.41372,2,0,1,0
147028854,49.089648594748766,2.1103844139490677,86.51477,133.61057,-0.0,0.6504911,0.9323552,86.41614,2,0,1,0
147228849,49.08964848649484,2.110384273875641,86.51225,133.60535,-0.0,0.64992034,0.93203163,86.4065,2,0,1,0
147428890,49.08964837604853,2.1103841302465187,86.50741,133.59747,-0.0,0.6493768,0.9327374,86.40387,2,0,1,0
147628849,49.08964825938525,2.110383971477856,86.503525,133.58995,-0.0,0.6488566,0.93241,86.40149,2,0,1,0
147828849,49.08964815017608,2.1103838110721216,86.49932,133.5815,-0.0,0.64834005,0.93208283,86.40064,2,0,1,0
148028849,49.0896480498255,2.1103836672007015,86.49323,133.57077,-0.0,0.6478425,0.9327968,86.38948,2,0,1,0
148228851,49.08964796279437,2.1103835262563306,86.48767,133.56035,-0.0,0.64736104,0.93247575,86.38773,2,0,1,0
148428849,49.08964788649795,2.1103834108763055,86.481544,133.54901,-0.0,0.64690936,0.93215793,86.38113,2,0,1,0
148628849,49.089647819382776,2.110383302339187,86.4786,133.54092,-0.0,0.6464668,0.9328684,86.38563,2,0,1,0
148828850,49.08964776691215,2.110383207199764,86.477264,133.5337,-0.0,0.6459673,0.93251187,86.38184,2,0,1,0
149028853,49.089647725178374,2.1103831197217757,86.47341,133.52463,-0.0,0.6455595,0.93217,86.37842,2,0,1,0
149228849,49.089647674956964,2.110383023613209,86.46935,133.51442,-0.0,0.64513034,0.93286526,86.371796,2,0,1,0
149428849,49.089647629237184,2.1103829134586434,86.46881,133.50757,-0.0,0.6447207,0.9325247,86.37768,2,0,1,0
149628854,49.08964758549647,2.1103828042928607,86.47122,133.50388,-0.0,0.64438426,0.9321914,86.38356,2,0,1,0
149828849,49.089647567697824,2.110382717417277,86.47523,133.50092,-0.0,0.64405614,0.93289864,86.38563,2,0,1,0
150028849,49.08964755324512,2.1103826326043875,86.476776,133.49527,-0.0,0.6437347,0.93257236,86.3839,2,0,1,0
150228849,49.089647506135954,2.1103825303404635,86.47993,133.49109,-0.0,0.64343494,0.9332672,86.38756,2,0,1,0
150428889,49.089647443552465,2.1103824607588693,86.480865,133.48483,-0.0,0.643137,0.93291,86.38565,2,0,1,0
152228881,49.08964716578747,2.110382409368621,86.47112,133.40445,-0.0,0.6409431,0.9319709,86.36729,2,0,1,0
152428937,49.08964713577581,2.1103824088579017,86.46847,133.39372,-0.0,0.64073676,0.9326863,86.3722,2,0,1,0
152628852,49.08964711726323,2.11038241939406,86.46765,133.38506,-0.0,0.64054865,0.93236923,86.37095,2,0,1,0
152828850,49.08964710151125,2.1103824384101952,86.46749,133.37657,-0.0,0.6403593,0.93205523,86.37593,2,0,1,0
153028849,49.08964707345612,2.1103824501119552,86.47156,133.37279,-0.0,0.64018524,0.9327776,86.37852,2,0,1,0
153228854,49.0896470387981,2.1103824676154734,86.47262,133.3661,-0.0,0.6400075,0.9324476,86.37984,2,0,1,0
153428849,49.08964702994385,2.1103825013978983,86.4766,133.36272,-0.0,0.63988346,0.9331533,86.38313,2,0,1,0
153628849,49.08964703745162,2.110382536241116,86.481575,133.3599,-0.0,0.6397265,0.932813,86.38941,2,0,1,0
153828858,49.08964704704883,2.1103825515247125,86.48667,133.35687,-0.0,0.63956255,0.932477,86.39302,2,0,1,0
154028855,49.08964704333088,2.110382545605102,86.48527,133.34734,-0.0,0.6394091,0.9321451,86.383865,2,0,1,0
154228849,49.089647020166545,2.1103825385592203,86.48256,133.33669,-0.0,0.63924783,0.93285257,86.3811,2,0,1,0
154428856,49.08964697735109,2.1103825126282203,86.47996,133.3261,-0.0,0.63909644,0.9325274,86.38044,2,0,1,0
154628872,49.08964692115932,2.1103824604518606,86.47353,133.31198,-0.0,0.6389535,0.93220574,86.36778,2,0,1,0
154828898,49.08964687991334,2.110382403252973,86.467026,133.29771,-0.0,0.6387604,0.9329141,86.3674,2,0,1,0
155028853,49.08964686616608,2.110382335603042,86.46648,133.29036,-0.0,0.63862014,0.9325808,86.37195,2,0,1,0
155228849,49.08964687720627,2.110382258490856,86.46708,133.28375,-0.0,0.6384869,0.9322516,86.374214,2,0,1,0
155428891,49.08964689134472,2.110382171327105,86.469025,133.27846,-0.0,0.63835967,0.93296057,86.37459,2,0,1,0
155628857,49.08964688809416,2.110382110402209,86.47151,133.27391,-0.0,0.6382375,0.93263435,86.37629,2,0,1,0
155828896,49.08964688019401,2.110382062541075,86.47212,133.2674,-0.0,0.6381194,0.9323116,86.37507,2,0,1,0
156028849,49.089646870042486,2.110381985022929,86.47266,133.26123,-0.0,0.63802826,0.9319952,86.37467,2,0,1,0
156228863,49.08964686165559,2.1103819003213515,86.47474,133.2564,-0.0,0.63793856,0.93271756,86.38058,2,0,1,0
156428896,49.089646859365594,2.110381832383281,86.477486,133.25212,-0.0,0.637809,0.9323964,86.381775,2,0,1,0
156628849,49.0896468488131,2.1103817463262193,86.478165,133.2462,-0.0,0.6377007,0.93206805,86.382385,2,0,1,0
156828858,49.08964683602642,2.1103816510557762,86.47828,133.23979,-0.0,0.637634,0.9327836,86.37818,2,0,1,0
157028849,49.08964684508863,2.1103816182032027,86.475815,133.23038,-0.0,0.6375238,0.93245786,86.375725,2,0,1,0
157228850,49.08964686973565,2.110381624116234,86.47946,133.22763,-0.0,0.6374551,0.9321421,86.38688,2,0,1,0
157428849,49.089646884449884,2.110381640519574,86.481804,133.22354,-0.0,0.6373835,0.93286145,86.38446,2,0,1,0
157628852,49.08964688233253,2.110381644311013,86.48132,133.21693,-0.0,0.6372681,0.93254447,86.37997,2,0,1,0
157828853,49.08964687642862,2.110381652293336,86.48276,133.21236,-0.0,0.63715386,0.9332507,86.385735,2,0,1,0
158028849,49.08964686315635,2.1103816710017003,86.48881,133.21246,-0.0,0.6370577,0.9329011,86.396965,2,0,1,0
158228849,49.08964685945662,2.110381683155254,86.49167,133.20938,-0.0,0.6369601,0.9325598,86.39257,2,0,1,0
158428850,49.089646855761195,2.1103817029440655,86.49614,133.20764,-0.0,0.63686126,0.93221927,86.40318,2,0,1,0
158628849,49.08964684243103,2.1103817197076005,86.49967,133.20486,-0.0,0.6367784,0.9329237,86.39781,2,0,1,0
158828851,49.089646816065496,2.1103817351615044,86.49714,133.196,-0.0,0.6367328,0.9325935,86.38932,2,0,1,0
159028883,49.089646806249604,2.1103817541579866,86.4972,133.18958,-0.0,0.63665706,0.93226415,86.39564,2,0,1,0
159228849,49.089646806253896,2.110381768406975,86.49523,133.18118,-0.0,0.6365764,0.9329767,86.38967,2,0,1,0
159428850,49.08964679098433,2.110381768400449,86.49409,133.1739,-0.0,0.63650894,0.9326396,86.39429,2,0,1,0
159628864,49.08964679240912,2.110381780128359,86.49764,133.17136,-0.0,0.63645256,0.93230313,86.40235,2,0,1,0
159828849,49.08964679474304,2.11038179644659,86.50002,133.16788,-0.0,0.63638866,0.93301,86.39829,2,0,1,0
160028902,49.08964679067881,2.1103818130725975,86.50298,133.16495,-0.0,0.6363353,0.93267703,86.406525,2,0,1,0
160228849,49.0896467715305,2.110381814899587,86.504906,133.16122,-0.0,0.63631445,0.93235093,86.4061,2,0,1,0
160428886,49.089646753845514,2.110381792177192,86.5067,133.15721,-0.0,0.6362594,0.9320255,86.40568,2,0,1,0
160628852,49.0896467275357,2.1103817594425385,86.51097,133.15576,-0.0,0.6362366,0.93274283,86.41395,2,0,1,0
160828849,49.08964670277078,2.1103817562666745,86.51373,133.15213,-0.0,0.636139,0.93241304,86.40932,2,0,1,0
161028849,49.089646701784496,2.11038178346155,86.51352,133.14627,-0.0,0.63607764,0.93207955,86.40774,2,0,1,0
161228849,49.08964671252669,2.110381807788276,86.50933,133.13646,-0.0,0.6360496,0.9327906,86.40266,2,0,1,0
161428849,49.08964671371242,2.1103818214348236,86.505,133.12616,-0.0,0.63598824,0.9324604,86.40061,2,0,1,0
161628849,49.089646720173825,2.110381822842687,86.504875,133.12047,-0.0,0.63596004,0.9321404,86.404076,2,0,1,0
161828864,49.08964671129383,2.1103818273806363,86.50361,133.11346,-0.0,0.6358981,0.9328526,86.40134,2,0,1,0
162028862,49.08964667583066,2.11038182815993,86.50198,133.10608,-0.0,0.6358458,0.93253195,86.39869,2,0,1,0
162228849,49.089646653934615,2.1103818539600594,86.497574,133.09631,-0.0,0.6358251,0.93221736,86.392426,2,0,1,0
162428851,49.08964664862466,2.110381903333858,86.494644,133.08777,-0.0,0.6357696,0.932926,86.39446,2,0,1,0
162628858,49.08964662319079,2.1103819384652462,86.49235,133.07993,-0.0,0.63572264,0.93259674,86.390816,2,0,1,0
162828849,49.08964659297649,2.110381954829362,86.48916,133.07106,-0.0,0.63566566,0.932271,86.39097,2,0,1,0
163028849,49.08964656515617,2.110381984113168,86.487434,133.06354,-0.0,0.6356581,0.9319517,86.38965,2,0,1,0
163228860,49.08964652987745,2.110382040709728,86.48524,133.05547,-0.0,0.6356138,0.93266356,86.38728,2,0,1,0
163428849,49.08964650676999,2.110382122189612,86.483444,133.04794,-0.0,0.635559,0.9323434,86.38413,2,0,1,0
163628849,49.08964651638227,2.1103822174404145,86.48473,133.04356,-0.0,0.63551265,0.9320298,86.39294,2,0,1,0
163828852,49.08964654660626,2.11038229787905,86.486015,133.03912,-0.0,0.63547355,0.9327411,86.38982,2,0,1,0
164028879,49.08964657393778,2.110382370021059,86.484695,133.03189,-0.0,0.63544065,0.9324154,86.38621,2,0,1,0
164228890,49.08964657831189,2.1103824415148256,86.487305,133.02856,-0.0,0.63541305,0.9320895,86.39407,2,0,1,0
164428849,49.08964656921109,2.1103825092499164,86.488914,133.02452,-0.0,0.6354304,0.93280435,86.390686,2,0,1,0
164628851,49.089646543070714,2.110382546155881,86.48876,133.01825,-0.0,0.6354075,0.9324844,86.38913,2,0,1,0
165228849,49.08964650108076,2.110382563633216,86.48578,132.99954,-0.0,0.6353139,0.93257064,86.38597,2,0,1,0
165428877,49.08964649391501,2.1103825776857663,86.4829,132.99141,-0.0,0.63529193,0.9322542,86.37901,2,0,1,0
165828854,49.089646459174475,2.110382648079484,86.47245,132.97043,-0.0,0.63527733,0.93264323,86.366394,2,0,1,0
166028866,49.089646442978676,2.1103826795307423,86.46683,132.9595,-0.0,0.63524616,0.93232167,86.36746,2,0,1,0
166228924,49.089646434679764,2.11038272174731,86.46796,132.95538,-0.0,0.6352195,0.932003,86.37439,2,0,1,0
166428849,49.0896464391439,2.1103827481040014,86.46828,132.95042,-0.0,0.63519704,0.9327196,86.370094,2,0,1,0
166628849,49.089646445282625,2.11038278941689,86.47078,132.94771,-0.0,0.6351779,0.93240607,86.37668,2,0,1,0
166828855,49.089646449287926,2.1103828418945443,86.47532,132.94669,-0.0,0.63506347,0.9320889,86.383545,2,0,1,0
167028856,49.08964645772197,2.11038288514571,86.48027,132.94678,-0.0,0.63508326,0.9317867,86.38413,2,0,1,0
167228851,49.08964644492034,2.11038290835272,86.47987,132.94061,-0.0,0.63510346,0.93251425,86.37666,2,0,1,0
167428852,49.08964644401122,2.11038292442867,86.47694,132.93204,-0.0,0.6351233,0.9322126,86.37234,2,0,1,0
167628849,49.08964644506937,2.110382927951626,86.46934,132.91891,-0.0,0.63514274,0.9319129,86.35916,2,0,1,0
167828853,49.0896464424224,2.110382913938379,86.46214,132.90588,-0.0,0.63512075,0.93263894,86.35899,2,0,1,0
168028859,49.08964643730966,2.1103828845302046,86.45717,132.8955,-0.0,0.6351017,0.9323362,86.357315,2,0,1,0
168228862,49.08964642010818,2.1103828405521954,86.45524,132.88835,-0.0,0.63510835,0.9320418,86.35647,2,0,1,0
168428916,49.089646413192206,2.1103827863850975,86.45289,132.8805,-0.0,0.6350754,0.93277234,86.352325,2,0,1,0
168628849,49.08964640521271,2.110382711669599,86.4454,132.86774,-0.0,0.6350873,0.9324636,86.340416,2,0,1,0
168828862,49.089646401747714,2.1103826292468053,86.43606,132.85303,-0.0,0.6350585,0.9321504,86.32969,2,0,1,0
169028899,49.08964640206394,2.11038258164759,86.427155,132.83896,-0.0,0.63503325,0.931843,86.32366,2,0,1,0
169228849,49.08964639853144,2.110382559920508,86.416885,132.82343,-0.0,0.6350112,0.9325664,86.31317,2,0,1,0
169428849,49.089646369660464,2.110382573684967,86.40843,132.80997,-0.0,0.6349921,0.9322558,86.311104,2,0,1,0
170828849,49.08964630484837,2.110382884779229,86.37649,132.74353,-0.0,0.6348488,0.9320746,86.28636,2,0,1,0
171028852,49.0896463354765,2.1103829262426914,86.37648,132.73921,-0.0,0.6348373,0.93278813,86.28393,2,0,1,0
171228849,49.08964637945843,2.110383005037697,86.376305,132.7351,-0.0,0.6348681,0.9324663,86.283356,2,0,1,0
171428852,49.089646421222234,2.1103831029994273,86.37548,132.73018,-0.0,0.63485616,0.9321479,86.2801,2,0,1,0
171628852,49.08964646969616,2.110383208327928,86.372086,132.72289,-0.0,0.6348458,0.9318357,86.27529,2,0,1,0
171828857,49.08964653809248,2.110383321049372,86.36883,132.71617,-0.0,0.6348367,0.93255436,86.271355,2,0,1,0
172028849,49.08964659285305,2.110383428014926,86.3634,132.70728,-0.0,0.63482875,0.9322432,86.26452,2,0,1,0
172228849,49.089646632588504,2.1103835228989833,86.35959,132.70023,-0.0,0.6348219,0.9319309,86.26548,2,0,1,0
172428849,49.089646639165736,2.110383620264875,86.355545,132.69302,-0.0,0.6348159,0.9326552,86.25841,2,0,1,0
172628893,49.08964663561187,2.1103837017054414,86.35349,132.68794,-0.0,0.6348681,0.9323503,86.25846,2,0,1,0
172828858,49.0896466428795,2.1103837578173685,86.34909,132.68027,-0.0,0.63483393,0.9320411,86.25091,2,0,1,0
173028879,49.08964667121338,2.1103838019525205,86.341934,132.67027,-0.0,0.6348428,0.9327705,86.24143,2,0,1,0
173228851,49.08964667981038,2.1103838412878346,86.336945,132.66219,-0.0,0.63485014,0.9324506,86.24565,2,0,1,0
173428850,49.08964666495787,2.110383868698822,86.33457,132.65677,-0.0,0.63483924,0.9321335,86.24172,2,0,1,0
173628849,49.08964665140149,2.110383896352093,86.32862,132.64761,-0.0,0.63482964,0.93285453,86.23226,2,0,1,0
173828849,49.08964664764709,2.110383914130592,86.32449,132.64012,-0.0,0.63480425,0.9325386,86.229706,2,0,1,0
174028894,49.0896466458503,2.110383918786399,86.32052,132.63269,-0.0,0.63478243,0.9322287,86.2257,2,0,1,0
174228849,49.08964664542576,2.1103839224206773,86.31403,132.62267,-0.0,0.63476384,0.93191755,86.21808,2,0,1,0
174428849,49.08964663259947,2.1103839324853526,86.31107,132.61613,-0.0,0.6347308,0.9326426,86.22225,2,0,1,0
174628851,49.08964660827622,2.11038391498192,86.30976,132.61148,-0.0,0.6347028,0.93232846,86.217,2,0,1,0
174828852,49.089646578507896,2.11038387731644,86.311165,132.60979,-0.0,0.63467926,0.9330359,86.223114,2,0,1,0
175028855,49.089646561233536,2.110383854685719,86.313896,132.6097,-0.0,0.63465965,0.9326993,86.22587,2,0,1,0
175228849,49.08964653910162,2.1103838441168783,86.31667,132.60973,-0.0,0.6346262,0.93236315,86.22511,2,0,1,0
175428880,49.08964651839664,2.110383847901795,86.31902,132.60933,-0.0,0.6345979,0.9320343,86.22374,2,0,1,0
175628849,49.089646517203434,2.1103838748740302,86.3205,132.60829,-0.0,0.6345744,0.93274176,86.22762,2,0,1,0
175828849,49.08964651460689,2.110383904485212,86.32688,132.61212,-0.0,0.6345952,0.9324188,86.23721,2,0,1,0
176028874,49.08964651805255,2.1103839224143104,86.33223,132.61485,-0.0,0.6345753,0.93313104,86.236984,2,0,1,0
176228851,49.08964654410184,2.1103839637992015,86.33739,132.61746,-0.0,0.6345991,0.93279666,86.242455,2,0,1,0
176428849,49.08964658513019,2.110384009309467,86.340935,132.61801,-0.0,0.6346216,0.9324662,86.24136,2,0,1,0
176628852,49.08964662718665,2.110384066318455,86.33618,132.6101,-0.0,0.63460225,0.93213296,86.22895,2,0,1,0
176828900,49.089646667957695,2.1103841336212907,86.33065,132.60143,-0.0,0.6345852,0.93284214,86.22544,2,0,1,0
177028851,49.08964670532919,2.110384193472225,86.32409,132.59206,-0.0,0.6345703,0.93251526,86.21895,2,0,1,0
177228850,49.089646720192476,2.1103842513914586,86.322105,132.58748,-0.0,0.6345573,0.93219185,86.22672,2,0,1,0
177428852,49.08964672005529,2.1103843175418615,86.322845,132.58577,-0.0,0.63454586,0.9318751,86.224815,2,0,1,0
177628853,49.089646718976816,2.1103843847072437,86.321236,132.58194,-0.0,0.63453597,0.9325905,86.22105,2,0,1,0
177828849,49.08964671930812,2.110384441775225,86.32192,132.58069,-0.0,0.6345274,0.9322581,86.22709,2,0,1,0
178028849,49.08964674073895,2.1103845198892466,86.32652,132.58392,-0.0,0.6345199,0.9329677,86.23368,2,0,1,0
178228849,49.08964676869229,2.110384610438382,86.330956,132.5874,-0.0,0.6345538,0.93264157,86.23476,2,0,1,0
178428849,49.08964679512649,2.1103847024739713,86.330894,132.58678,-0.0,0.6345443,0.9323192,86.22746,2,0,1,0
178628851,49.08964681808396,2.110384806558343,86.332634,132.58827,-0.0,0.6345358,0.9319966,86.23519,2,0,1,0
178828898,49.08964683692252,2.1103848933880864,86.33202,132.58774,-0.0,0.6344877,0.9327095,86.229195,2,0,1,0
179028929,49.08964686676589,2.1103849333454545,86.32846,132.5842,-0.0,0.6344848,0.9323958,86.225006,2,0,1,0
179228849,49.089646899931616,2.1103849575346363,86.32749,132.58383,-0.0,0.6344824,0.9320708,86.22888,2,0,1,0
179428849,49.08964691499642,2.1103849799165273,86.32932,132.58636,-0.0,0.6344804,0.93277955,86.233925,2,0,1,0
179628863,49.08964690954814,2.1103849714561984,86.33007,132.58809,-0.0,0.6344788,0.9324538,86.22968,2,0,1,0
179828851,49.0896469257386,2.1103849501678216,86.3287,132.5877,-0.0,0.6344372,0.9321282,86.227325,2,0,1,0
180028849,49.089646941024235,2.110384954188424,86.32667,132.58658,-0.0,0.6344401,0.93284416,86.22469,2,0,1,0
180228850,49.089646929014854,2.110384945158407,86.32722,132.5883,-0.0,0.634443,0.9325237,86.22821,2,0,1,0
180428863,49.08964691510788,2.1103849139953135,86.32914,132.59167,-0.0,0.6344461,0.9322098,86.233765,2,0,1,0
180628866,49.08964690448146,2.1103848994582175,86.330795,132.59512,-0.0,0.63444895,0.93292165,86.23102,2,0,1,0
180828883,49.0896468910623,2.1103848921700363,86.33291,132.59909,-0.0,0.6344921,0.93258834,86.236115,2,0,1,0
181028926,49.08964687083762,2.110384917511785,86.33812,132.60655,-0.0,0.6345313,0.9322486,86.2429,2,0,1,0
181228852,49.089646850948505,2.11038495486302,86.34064,132.61127,-0.0,0.6344858,0.9329483,86.237915,2,0,1,0
181428849,49.0896468440626,2.1103849903021485,86.3423,132.61496,-0.0,0.6344848,0.9326095,86.24238,2,0,1,0
181628849,49.08964684493956,2.1103850051928634,86.343575,132.61845,-0.0,0.634484,0.93227834,86.24294,2,0,1,0
181828849,49.08964683117841,2.110385002580132,86.34115,132.61812,-0.0,0.6344832,0.9329861,86.23531,2,0,1,0
182028849,49.08964680101235,2.110384971567671,86.33526,132.6144,-0.0,0.63448256,0.93265814,86.22845,2,0,1,0
182228849,49.08964676043856,2.1103849221415514,86.332146,132.61319,-0.0,0.6344819,0.9323335,86.22978,2,0,1,0
182428849,49.08964673383501,2.1103849012002915,86.32915,132.61208,-0.0,0.63448143,0.9330349,86.22565,2,0,1,0
182628852,49.08964668813138,2.1103848794863644,86.32429,132.60904,-0.0,0.63448083,0.9326997,86.22038,2,0,1,0
182828849,49.08964662954033,2.110384856993215,86.32094,132.60767,-0.0,0.63448036,0.93236834,86.22192,2,0,1,0
183028849,49.08964657149175,2.1103848459987877,86.32137,132.61029,-0.0,0.63448006,0.9320409,86.22594,2,0,1,0
183228849,49.089646517338046,2.110384849914716,86.32287,132.6137,-0.0,0.63447964,0.93275356,86.22598,2,0,1,0
185028856,49.08964584458388,2.110384250246756,86.31003,132.61325,-0.0,0.6344813,0.9320095,86.20799,2,0,1,0
185228902,49.08964581364802,2.110384141270857,86.30528,132.6098,-0.0,0.6344811,0.93273956,86.20329,2,0,1,0
185428856,49.08964579717765,2.110384030959095,86.29894,132.60489,-0.0,0.63448083,0.9324247,86.19641,2,0,1,0
185628852,49.08964578312591,2.110383920090728,86.29144,132.59894,-0.0,0.6344806,0.9321089,86.191315,2,0,1,0
185828849,49.0896457606755,2.1103837987189844,86.28866,132.59778,-0.0,0.63448036,0.93283063,86.192894,2,0,1,0
186028854,49.089645724065136,2.1103836455751614,86.28394,132.5948,-0.0,0.63448,0.93251604,86.18434,2,0,1,0
186228852,49.08964568220909,2.1103834914098196,86.2794,132.59198,-0.0,0.63447964,0.9322074,86.18306,2,0,1,0
186428849,49.08964566646881,2.1103833680408504,86.27678,132.59103,-0.0,0.63451964,0.9319007,86.1809,2,0,1,0
186628849,49.089645678926274,2.110383278938823,86.27552,132.59149,-0.0,0.6345559,0.9326298,86.17996,2,0,1,0
186828853,49.089645691264714,2.110383186235259,86.269646,132.58754,-0.0,0.634548,0.93231696,86.1686,2,0,1,0
187028849,49.08964569354603,2.1103830986131493,86.26476,132.58488,-0.0,0.6345406,0.93302536,86.1665,2,0,1,0
187228849,49.08964569960858,2.1103830258359126,86.261505,132.5839,-0.0,0.6345337,0.93268996,86.164215,2,0,1,0
187428855,49.089645726837084,2.1103829339901474,86.26169,132.58629,-0.0,0.6345678,0.93235797,86.1676,2,0,1,0
187628876,49.08964577410479,2.11038282488972,86.26287,132.58986,-0.0,0.63455796,0.93203014,86.16967,2,0,1,0
187828849,49.08964582457373,2.110382720327223,86.26314,132.59288,-0.0,0.63458925,0.9327417,86.16456,2,0,1,0
188028849,49.08964587149302,2.1103826104082644,86.2658,132.59862,-0.0,0.6346175,0.9324196,86.17249,2,0,1,0
188228849,49.089645919275334,2.11038249957255,86.26629,132.60236,-0.0,0.6346428,0.9321042,86.16481,2,0,1,0
188428849,49.08964598288145,2.1103823817563794,86.261955,132.60132,-0.0,0.6346246,0.93282324,86.15804,2,0,1,0
188628850,49.08964605445201,2.1103822316573346,86.25731,132.60013,-0.0,0.6346484,0.9325093,86.15251,2,0,1,0
188828849,49.08964611307189,2.1103820704262866,86.25158,132.59827,-0.0,0.63462895,0.9321949,86.14755,2,0,1,0
189028869,49.089646167520314,2.1103818756485695,86.24734,132.59781,-0.0,0.63461107,0.931883,86.147644,2,0,1,0
189228849,49.089646204883074,2.110381689134766,86.24604,132.60019,-0.0,0.6346354,0.93260974,86.146484,2,0,1,0
189428896,49.08964625070775,2.1103815399525123,86.2442,132.60226,-0.0,0.63461655,0.93229866,86.14446,2,0,1,0
189628849,49.08964631277008,2.110381403054747,86.242226,132.60405,-0.0,0.6345994,0.93199325,86.14129,2,0,1,0
189828849,49.08964638133455,2.110381279299306,86.2354,132.60123,-0.0,0.6345838,0.9327221,86.129654,2,0,1,0
190028851,49.08964645136135,2.1103811711941756,86.22965,132.60014,-0.0,0.63452905,0.93240315,86.12825,2,0,1,0
190228853,49.089646521805186,2.1103810821444458,86.22648,132.60123,-0.0,0.6345203,0.9320864,86.132614,2,0,1,0
