timestamp,accel_device_id,gyro_device_id,accel_clipping[0],accel_clipping[1],accel_clipping[2],accel_error_count,gyro_error_count,accel_vibration_metric,gyro_vibration_metric,gyro_coning_vibration,accel_rate_hz,gyro_rate_hz
66584518,2359330,2359330,0,0,0,0,0,0.0002486554,1.2024569e-05,1.7980993e-10,400,400
68559487,2359330,2359330,0,0,0,0,0,0.00024117195,1.239051e-05,1.2224821e-10,400,400
69599436,2359330,2359330,0,0,0,0,0,0.00023452142,1.216784e-05,1.6728677e-10,400,400
70529482,2359330,2359330,0,0,0,0,0,0.00024004368,1.2143402e-05,1.9640786e-10,400,400
71574457,2359330,2359330,0,0,0,0,0,0.00023563024,1.2583525e-05,2.8189187e-10,400,400
72609474,2359330,2359330,0,0,0,0,0,0.0002559598,1.1689293e-05,2.7626137e-10,400,400
73544405,2359330,2359330,0,0,0,0,0,0.0002461859,1.2752092e-05,2.2040955e-10,400,400
74559535,2359330,2359330,0,0,0,0,0,0.00023321818,1.313397e-05,1.6618333e-10,400,400
75599523,2359330,2359330,0,0,0,0,0,0.0002352181,1.3219358e-05,2.894731e-10,400,400
76534441,2359330,2359330,0,0,0,0,0,0.00021573566,1.37718525e-05,2.344771e-10,400,400
77564457,2359330,2359330,0,0,0,0,0,0.00022787615,1.2865573e-05,2.1250596e-10,400,400
78614451,2359330,2359330,0,0,0,0,0,0.0002526874,1.2456163e-05,1.4945797e-10,400,400
79534523,2359330,2359330,0,0,0,0,0,0.00023250119,1.2269272e-05,1.2948619e-10,400,400
80574478,2359330,2359330,0,0,0,0,0,0.00024460672,1.3123919e-05,1.5373794e-10,400,400
81619498,2359330,2359330,0,0,0,0,0,0.00026176815,1.2485185e-05,1.2087706e-10,400,400
82544505,2359330,2359330,0,0,0,0,0,0.00025253376,1.2419542e-05,1.03442414e-10,400,400
83579503,2359330,2359330,0,0,0,0,0,0.00024153714,1.335425e-05,1.2625694e-10,400,400
85554570,2359330,2359330,0,0,0,0,0,0.00025783217,1.23942855e-05,9.676302e-11,400,400
86594525,2359330,2359330,0,0,0,0,0,0.0004562632,1.2542658e-05,1.5322534e-10,400,400
87624475,2359330,2359330,0,0,0,0,0,0.00027036387,1.2180789e-05,1.5668974e-10,400,400
88569479,2359330,2359330,0,0,0,0,0,0.0002297438,1.2629243e-05,2.1913274e-10,400,400
89599463,2359330,2359330,0,0,0,0,0,0.00024540542,1.2487351e-05,4.3814335e-10,400,400
90629495,2359330,2359330,0,0,0,0,0,0.00025429,1.2670058e-05,2.2006034e-10,400,400
91559519,2359330,2359330,0,0,0,0,0,0.00022842312,1.3062386e-05,1.7999115e-10,400,400
93624625,2359330,2359330,0,0,0,0,0,0.00034278262,1.2282275e-05,1.6149342e-10,400,400
94559573,2359330,2359330,0,0,0,0,0,0.0003133414,1.2852492e-05,1.7792987e-10,400,400
95604567,2359330,2359330,0,0,0,0,0,0.00025289805,1.2696088e-05,2.9334815e-10,400,400
96539605,2359330,2359330,0,0,0,0,0,0.00024795378,1.2414491e-05,3.838848e-10,400,400
97579494,2359330,2359330,0,0,0,0,0,0.000252016,1.1720836e-05,3.836234e-10,400,400
98629491,2359330,2359330,0,0,0,0,0,0.0002552127,1.26314835e-05,3.0469524e-10,400,400
100599617,2359330,2359330,0,0,0,0,0,0.0002507449,1.2670958e-05,7.6153e-10,400,400
101544577,2359330,2359330,0,0,0,0,0,0.00026049872,1.4212273e-05,8.2168644e-10,400,400
102574567,2359330,2359330,0,0,0,0,0,0.0002985688,1.5350686e-05,5.3759913e-10,400,400
103614529,2359330,2359330,0,0,0,0,0,0.00039280392,1.5221716e-05,4.672112e-10,400,400
104549503,2359330,2359330,0,0,0,0,0,0.00034689932,1.524167e-05,5.194958e-10,400,400
105579492,2359330,2359330,0,0,0,0,0,0.00028285105,1.435237e-05,7.1599593e-10,400,400
106629481,2359330,2359330,0,0,0,0,0,0.00027154,1.4050861e-05,8.5390556e-10,400,400
107554487,2359330,2359330,0,0,0,0,0,0.0002591702,1.3573025e-05,5.669796e-10,400,400
108589485,2359330,2359330,0,0,0,0,0,0.00026029765,1.3172653e-05,2.88936e-10,400,400
109609448,2359330,2359330,0,0,0,0,0,0.00024082286,1.235494e-05,2.099183e-10,400,400
110534552,2359330,2359330,0,0,0,0,0,0.00026848423,1.319778e-05,6.6401046e-10,400,400
111569535,2359330,2359330,0,0,0,0,0,0.0002544363,1.3264783e-05,9.535037e-10,400,400
112594483,2359330,2359330,0,0,0,0,0,0.00027182573,1.394819e-05,6.320222e-10,400,400
114549495,2359330,2359330,0,0,0,0,0,0.0002559809,1.3789318e-05,5.989573e-10,400,400
115589501,2359330,2359330,0,0,0,0,0,0.00024281486,1.291207e-05,2.404048e-10,400,400
116614561,2359330,2359330,0,0,0,0,0,0.00026347724,1.3266644e-05,2.952464e-10,400,400
117544626,2359330,2359330,0,0,0,0,0,0.00043441373,1.2487594e-05,3.888759e-10,400,400
120549515,2359330,2359330,0,0,0,0,0,0.00024881057,1.3420979e-05,5.450016e-10,400,400
121579599,2359330,2359330,0,0,0,0,0,0.0002899777,1.2548012e-05,2.991347e-10,400,400
122629489,2359330,2359330,0,0,0,0,0,0.00023358264,1.2625738e-05,3.563491e-10,400,400
123574472,2359330,2359330,0,0,0,0,0,0.00023268665,1.3047403e-05,5.746681e-10,400,400
124624555,2359330,2359330,0,0,0,0,0,0.0002649351,1.3033967e-05,3.487867e-10,400,400
125554536,2359330,2359330,0,0,0,0,0,0.0002606037,1.253657e-05,4.767023e-10,400,400
126599499,2359330,2359330,0,0,0,0,0,0.00025653737,1.3082868e-05,4.924849e-10,400,400
127544475,2359330,2359330,0,0,0,0,0,0.0002939895,1.2799484e-05,4.375699e-10,400,400
128579484,2359330,2359330,0,0,0,0,0,0.00024261468,1.277527e-05,3.5021006e-10,400,400
129624449,2359330,2359330,0,0,0,0,0,0.00024683517,1.3515622e-05,6.8956063e-10,400,400
130549492,2359330,2359330,0,0,0,0,0,0.00026826002,1.3257084e-05,6.1812994e-10,400,400
131599501,2359330,2359330,0,0,0,0,0,0.0002563118,1.3068077e-05,5.091757e-10,400,400
132544464,2359330,2359330,0,0,0,0,0,0.00023968122,1.2494429e-05,4.2331597e-10,400,400
133569478,2359330,2359330,0,0,0,0,0,0.0002567902,1.3267591e-05,3.6705208e-10,400,400
134599532,2359330,2359330,0,0,0,0,0,0.00022435919,1.2531844e-05,4.765727e-10,400,400
135534528,2359330,2359330,0,0,0,0,0,0.00023485822,1.2889807e-05,4.673699e-10,400,400
136564600,2359330,2359330,0,0,0,0,0,0.000342676,1.3002308e-05,4.9501514e-10,400,400
137604497,2359330,2359330,0,0,0,0,0,0.00029955673,1.3338447e-05,4.2961792e-10,400,400
138539485,2359330,2359330,0,0,0,0,0,0.0002599033,1.2589268e-05,3.047247e-10,400,400
139574634,2359330,2359330,0,0,0,0,0,0.00032918624,1.3337971e-05,8.290651e-10,400,400
140604607,2359330,2359330,0,0,0,0,0,0.00027208196,1.3788853e-05,9.842037e-10,400,400
142579533,2359330,2359330,0,0,0,0,0,0.00022208435,1.2433509e-05,3.931358e-10,400,400
143619565,2359330,2359330,0,0,0,0,0,0.00022994715,1.189672e-05,2.4895286e-10,400,400
144549467,2359330,2359330,0,0,0,0,0,0.00025808765,1.2230962e-05,1.7236486e-10,400,400
145584476,2359330,2359330,0,0,0,0,0,0.0002493955,1.2979723e-05,2.728323e-10,400,400
146614480,2359330,2359330,0,0,0,0,0,0.00024531188,1.2720771e-05,2.8920738e-10,400,400
147539564,2359330,2359330,0,0,0,0,0,0.00023906644,1.33178155e-05,2.3415914e-10,400,400
148574477,2359330,2359330,0,0,0,0,0,0.000214525,1.2074328e-05,2.541299e-10,400,400
149599516,2359330,2359330,0,0,0,0,0,0.00022185977,1.150271e-05,1.4399965e-10,400,400
152589697,2359330,2359330,0,0,0,0,0,0.00037256815,1.279013e-05,3.1904582e-10,400,400
153624480,2359330,2359330,0,0,0,0,0,0.0002636266,1.2419596e-05,1.6790791e-10,400,400
154549526,2359330,2359330,0,0,0,0,0,0.0002472495,1.2862934e-05,1.445358e-10,400,400
155584592,2359330,2359330,0,0,0,0,0,0.0002554066,1.282596e-05,3.1396571e-10,400,400
156619533,2359330,2359330,0,0,0,0,0,0.00024942393,1.2769671e-05,5.6155397e-10,400,400
157554579,2359330,2359330,0,0,0,0,0,0.00023967582,1.2714989e-05,4.076128e-10,400,400
158584445,2359330,2359330,0,0,0,0,0,0.00024429016,1.2954011e-05,7.0840367e-10,400,400
159609505,2359330,2359330,0,0,0,0,0,0.00022662897,1.341676e-05,8.267941e-10,400,400
160544481,2359330,2359330,0,0,0,0,0,0.00022146064,1.2649472e-05,5.0019977e-10,400,400
161584515,2359330,2359330,0,0,0,0,0,0.00024431816,1.3900962e-05,6.2285177e-10,400,400
162624508,2359330,2359330,0,0,0,0,0,0.000246688,1.3650823e-05,2.7530073e-10,400,400
163554458,2359330,2359330,0,0,0,0,0,0.00052071654,1.703749e-05,3.1615563e-10,400,400
164579607,2359330,2359330,0,0,0,0,0,0.00058062567,1.6326687e-05,3.2723058e-10,400,400
166544511,2359330,2359330,0,0,0,0,0,0.00096847856,3.1383173e-05,1.4034512e-09,400,400
167589461,2359330,2359330,0,0,0,0,0,0.0013510042,3.4774723e-05,7.7007795e-10,400,400
168624591,2359330,2359330,0,0,0,0,0,0.0014984348,3.8439553e-05,7.653522e-10,400,400
171609536,2359330,2359330,0,0,0,0,0,0.0006556484,2.0523225e-05,7.451867e-10,400,400
172539435,2359330,2359330,0,0,0,0,0,0.000924202,2.797811e-05,1.9290176e-09,400,400
173564493,2359330,2359330,0,0,0,0,0,0.0006808827,2.5039817e-05,1.3713815e-09,400,400
174604480,2359330,2359330,0,0,0,0,0,0.0010210496,2.7294407e-05,2.4928255e-09,400,400
175549478,2359330,2359330,0,0,0,0,0,0.001047309,3.4171037e-05,1.8523633e-09,400,400
176569411,2359330,2359330,0,0,0,0,0,0.0003487657,1.5150365e-05,4.232122e-10,400,400
177609601,2359330,2359330,0,0,0,0,0,0.00025534688,1.2914339e-05,1.6688126e-10,400,400
178539496,2359330,2359330,0,0,0,0,0,0.00026913063,1.2827075e-05,1.0784949e-10,400,400
179559510,2359330,2359330,0,0,0,0,0,0.000998231,2.7499016e-05,1.2040624e-09,400,400
180609485,2359330,2359330,0,0,0,0,0,0.0011188093,3.1548316e-05,1.1912064e-09,400,400
181534521,2359330,2359330,0,0,0,0,0,0.0010634648,4.093787e-05,1.4541938e-09,400,400
182584469,2359330,2359330,0,0,0,0,0,0.0009074238,3.4315435e-05,8.304928e-10,400,400
185604464,2359330,2359330,0,0,0,0,0,0.0006058083,1.9637779e-05,3.986307e-10,400,400
186624491,2359330,2359330,0,0,0,0,0,0.00027952704,1.3604779e-05,2.4623006e-10,400,400
187564471,2359330,2359330,0,0,0,0,0,0.00023932841,1.2488405e-05,1.6051152e-10,400,400
188594527,2359330,2359330,0,0,0,0,0,0.00023864229,1.2854125e-05,5.470599e-10,400,400
189534498,2359330,2359330,0,0,0,0,0,0.0002450802,1.2365706e-05,5.722486e-10,400,400
190554582,2359330,2359330,0,0,0,0,0,0.00028984467,1.2977984e-05,3.525571e-10,400,400
191594486,2359330,2359330,0,0,0,0,0,0.00026582502,1.2952551e-05,2.847441e-10,400,400
192604640,2359330,2359330,0,0,0,0,0,0.00022554155,1.1696315e-05,2.2696389e-10,400,400
193544597,2359330,2359330,0,0,0,0,0,0.00024780724,1.2364273e-05,2.1036221e-10,400,400
194574553,2359330,2359330,0,0,0,0,0,0.0002464667,1.2997721e-05,2.6212674e-10,400,400
197589482,2359330,2359330,0,0,0,0,0,0.00025164682,1.2299056e-05,1.6941407e-10,400,400
198629482,2359330,2359330,0,0,0,0,0,0.00023676595,1.2940714e-05,3.890798e-10,400,400
199574522,2359330,2359330,0,0,0,0,0,0.00023711214,1.3198118e-05,4.38949e-10,400,400
200624484,2359330,2359330,0,0,0,0,0,0.00025580346,1.2128064e-05,3.6087763e-10,400,400
201559594,2359330,2359330,0,0,0,0,0,0.00025128,1.2175693e-05,3.3913325e-10,400,400
202599485,2359330,2359330,0,0,0,0,0,0.0002604646,1.3097412e-05,4.1328838e-10,400,400
203534539,2359330,2359330,0,0,0,0,0,0.0002683457,1.2222025e-05,2.973154e-10,400,400
204574485,2359330,2359330,0,0,0,0,0,0.00023528095,1.24865965e-05,2.4329802e-10,400,400
205599549,2359330,2359330,0,0,0,0,0,0.00023159552,1.3380078e-05,2.1802479e-10,400,400
206544477,2359330,2359330,0,0,0,0,0,0.0002392464,1.26772065e-05,2.2522956e-10,400,400
209569489,2359330,2359330,0,0,0,0,0,0.00026808638,1.1996227e-05,1.6323608e-10,400,400
210609508,2359330,2359330,0,0,0,0,0,0.00024373442,1.2568525e-05,2.1172193e-10,400,400
211554407,2359330,2359330,0,0,0,0,0,0.0002313175,1.2118412e-05,1.4539535e-10,400,400
212579465,2359330,2359330,0,0,0,0,0,0.00029491348,1.2815993e-05,1.6496177e-10,400,400
213614539,2359330,2359330,0,0,0,0,0,0.0002441653,1.2063603e-05,1.2052735e-10,400,400
214529577,2359330,2359330,0,0,0,0,0,0.00027846842,1.2934563e-05,1.4070431e-10,400,400
215569533,2359330,2359330,0,0,0,0,0,0.00024660872,1.2268261e-05,9.7311985e-11,400,400
216589601,2359330,2359330,0,0,0,0,0,0.00023545738,1.2391541e-05,1.3419035e-10,400,400
217529502,2359330,2359330,0,0,0,0,0,0.00024761862,1.3007449e-05,2.076644e-10,400,400
218564480,2359330,2359330,0,0,0,0,0,0.00022434021,1.3017266e-05,1.4511313e-10,400,400
220554478,2359330,2359330,0,0,0,0,0,0.00023970632,1.3494071e-05,1.1574624e-10,400,400
221584480,2359330,2359330,0,0,0,0,0,0.00024779185,1.231342e-05,1.2141241e-10,400,400
222609554,2359330,2359330,0,0,0,0,0,0.0003017111,1.2890344e-05,1.1153797e-10,400,400
223554477,2359330,2359330,0,0,0,0,0,0.00023750192,1.2582991e-05,1.7343783e-10,400,400
224584558,2359330,2359330,0,0,0,0,0,0.00026754424,1.2551307e-05,1.2874227e-10,400,400
225624542,2359330,2359330,0,0,0,0,0,0.00025476204,1.238155e-05,1.5858917e-10,400,400
228534491,2359330,2359330,0,0,0,0,0,0.00023457149,1.239683e-05,1.352978e-10,400,400
229584532,2359330,2359330,0,0,0,0,0,0.00022871415,1.2816226e-05,1.3646048e-10,400,400
230529501,2359330,2359330,0,0,0,0,0,0.0002496066,1.2305122e-05,1.1760436e-10,400,400
231559539,2359330,2359330,0,0,0,0,0,0.0002308055,1.31917295e-05,1.461385e-10,400,400
232584451,2359330,2359330,0,0,0,0,0,0.00028243917,1.3009601e-05,1.586474e-10,400,400
233604556,2359330,2359330,0,0,0,0,0,0.0002840308,1.2696595e-05,1.06938444e-10,400,400
234539501,2359330,2359330,0,0,0,0,0,0.00024636407,1.1993066e-05,9.9135804e-11,400,400
235569525,2359330,2359330,0,0,0,0,0,0.0002513918,1.262138e-05,9.5892454e-11,400,400
236599491,2359330,2359330,0,0,0,0,0,0.00022686129,1.2500632e-05,2.5319172e-10,400,400
237624555,2359330,2359330,0,0,0,0,0,0.00024471473,1.2954811e-05,3.0469058e-10,400,400
238569517,2359330,2359330,0,0,0,0,0,0.00023745919,1.2603741e-05,1.8379878e-10,400,400
239609480,2359330,2359330,0,0,0,0,0,0.00022341177,1.2433355e-05,1.7264976e-10,400,400
240529509,2359330,2359330,0,0,0,0,0,0.00022530805,1.1508429e-05,2.0091515e-10,400,400
241559539,2359330,2359330,0,0,0,0,0,0.0003120072,1.3345766e-05,3.5265543e-10,400,400
243609486,2359330,2359330,0,0,0,0,0,0.00023588829,1.2768151e-05,2.61788e-10,400,400
244534539,2359330,2359330,0,0,0,0,0,0.0002497574,1.2264941e-05,2.0848945e-10,400,400
245574513,2359330,2359330,0,0,0,0,0,0.00024916328,1.2862762e-05,1.4398599e-10,400,400
246604524,2359330,2359330,0,0,0,0,0,0.00022707233,1.2581975e-05,1.5024572e-10,400,400
248569470,2359330,2359330,0,0,0,0,0,0.00068300724,3.7230016e-05,2.2136609e-08,400,400
249594493,2359330,2359330,0,0,0,0,0,0.0033486173,0.00019091573,1.16875974e-07,400,400
250529501,2359330,2359330,0,0,0,0,0,0.0058030793,0.0003320101,2.1671357e-07,400,400
251559659,2359330,2359330,0,0,0,0,0,0.0044202507,0.00026300224,2.1061766e-07,400,400
252599518,2359330,2359330,0,0,0,0,0,0.001295432,8.211392e-05,5.4310657e-08,400,400
253534611,2359330,2359330,0,0,0,0,0,0.0018138064,0.00013734143,2.1576737e-07,400,400
256629505,2359330,2359330,0,0,0,0,0,0.003525343,0.00025420674,1.6950857e-07,400,400
257574540,2359330,2359330,0,0,0,0,0,0.0033358422,0.0002855261,2.8332903e-07,400,400
258624524,2359330,2359330,0,0,0,0,0,0.0016420961,0.00011393962,1.6687603e-07,400,400
259569496,2359330,2359330,0,0,0,0,0,0.0006222672,4.8022874e-05,6.57342e-08,400,400
260599558,2359330,2359330,0,0,0,0,0,0.0020863826,0.00016177239,5.439312e-08,400,400
261544487,2359330,2359330,0,0,0,0,0,0.00074709917,4.0387273e-05,8.758199e-09,400,400
262574498,2359330,2359330,0,0,0,0,0,0.00035972937,1.6364515e-05,1.2784509e-09,400,400
263624477,2359330,2359330,0,0,0,0,0,0.00028211705,1.3472513e-05,3.2166814e-10,400,400
264559531,2359330,2359330,0,0,0,0,0,0.00025103625,1.2508902e-05,1.7205848e-10,400,400
265589438,2359330,2359330,0,0,0,0,0,0.0012124153,6.4256965e-05,8.717923e-08,400,400
266624449,2359330,2359330,0,0,0,0,0,0.0048519475,0.00027354676,4.752929e-07,400,400
267549573,2359330,2359330,0,0,0,0,0,0.0064685377,0.00030008538,4.4908273e-07,400,400
268579591,2359330,2359330,0,0,0,0,0,0.0053512896,0.0003076162,3.0968573e-07,400,400
270544600,2359330,2359330,0,0,0,0,0,0.0011451248,7.5846176e-05,1.5884392e-07,400,400
271584518,2359330,2359330,0,0,0,0,0,0.0018874595,0.00013627458,5.600665e-08,400,400
272629430,2359330,2359330,0,0,0,0,0,0.0007141883,3.4225224e-05,8.134341e-09,400,400
273559524,2359330,2359330,0,0,0,0,0,0.00036202703,1.683139e-05,1.6803249e-09,400,400
274599480,2359330,2359330,0,0,0,0,0,0.00026347124,1.42705185e-05,6.6278855e-10,400,400
275529569,2359330,2359330,0,0,0,0,0,0.00025993554,1.3103403e-05,3.4366546e-10,400,400
277604582,2359330,2359330,0,0,0,0,0,0.00023790989,1.3406389e-05,3.0335404e-10,400,400
278534541,2359330,2359330,0,0,0,0,0,0.00024939523,1.42785075e-05,5.035441e-10,400,400
279564528,2359330,2359330,0,0,0,0,0,0.00024564748,1.4004038e-05,1.2193074e-09,400,400
280609456,2359330,2359330,0,0,0,0,0,0.00025353412,1.4651633e-05,1.0834689e-09,400,400
281539509,2359330,2359330,0,0,0,0,0,0.00021949373,1.3662698e-05,9.0752744e-10,400,400
282569501,2359330,2359330,0,0,0,0,0,0.0002486222,1.38951e-05,3.3972183e-10,400,400
283619526,2359330,2359330,0,0,0,0,0,0.00025093887,1.2474579e-05,2.410197e-10,400,400
284559510,2359330,2359330,0,0,0,0,0,0.00026802343,1.3234891e-05,3.7226025e-10,400,400
285579626,2359330,2359330,0,0,0,0,0,0.00026829992,1.3347002e-05,2.4692404e-10,400,400
286609565,2359330,2359330,0,0,0,0,0,0.00025827574,1.3454637e-05,2.508325e-10,400,400
289534461,2359330,2359330,0,0,0,0,0,0.00024515478,1.3373987e-05,3.6513595e-10,400,400
290564440,2359330,2359330,0,0,0,0,0,0.00022357896,1.3152313e-05,4.3395582e-10,400,400
291594500,2359330,2359330,0,0,0,0,0,0.00024759394,1.3042873e-05,3.3253295e-10,400,400
292619531,2359330,2359330,0,0,0,0,0,0.00029693035,1.288348e-05,1.7444673e-10,400,400
293544515,2359330,2359330,0,0,0,0,0,0.00029920545,1.3147629e-05,1.7007293e-10,400,400
294564535,2359330,2359330,0,0,0,0,0,0.00024381506,1.305225e-05,1.6336733e-10,400,400
295584452,2359330,2359330,0,0,0,0,0,0.00033092528,2.5503166e-05,9.941224e-09,400,400
296619469,2359330,2359330,0,0,0,0,0,0.00041443223,3.06706e-05,1.503617e-08,400,400
297544484,2359330,2359330,0,0,0,0,0,0.0002746575,1.6145417e-05,2.8418368e-09,400,400
298589486,2359330,2359330,0,0,0,0,0,0.00023601335,1.3729246e-05,9.556966e-10,400,400
301594484,2359330,2359330,0,0,0,0,0,0.00027020543,1.3604368e-05,3.4931646e-10,400,400
302624556,2359330,2359330,0,0,0,0,0,0.00025948483,1.3674947e-05,5.3253846e-10,400,400
303549521,2359330,2359330,0,0,0,0,0,0.00028837577,1.2864707e-05,4.1141526e-10,400,400
304594487,2359330,2359330,0,0,0,0,0,0.00025561,1.31929355e-05,4.0192705e-10,400,400
305629480,2359330,2359330,0,0,0,0,0,0.00025089146,1.266885e-05,3.154699e-10,400,400
306569518,2359330,2359330,0,0,0,0,0,0.00024244636,1.2642367e-05,3.7753065e-10,400,400
307619540,2359330,2359330,0,0,0,0,0,0.00027480823,1.294709e-05,2.9251357e-10,400,400
308554576,2359330,2359330,0,0,0,0,0,0.0002401485,1.2619423e-05,2.835415e-10,400,400
309589486,2359330,2359330,0,0,0,0,0,0.00023783326,1.2873393e-05,2.5691038e-10,400,400
310619464,2359330,2359330,0,0,0,0,0,0.00022691142,1.2841597e-05,2.3449265e-10,400,400
312589542,2359330,2359330,0,0,0,0,0,0.00046337314,1.5176167e-05,2.9786204e-10,400,400
313624485,2359330,2359330,0,0,0,0,0,0.0008254963,3.0245299e-05,6.717169e-10,400,400
314544464,2359330,2359330,0,0,0,0,0,0.00069233315,2.3111754e-05,6.5760386e-10,400,400
315579487,2359330,2359330,0,0,0,0,0,0.0005176688,2.025729e-05,4.2129564e-10,400,400
316614563,2359330,2359330,0,0,0,0,0,0.00029514785,1.3597787e-05,2.4142213e-10,400,400
317554556,2359330,2359330,0,0,0,0,0,0.00026399377,1.26960185e-05,1.9468523e-10,400,400
318594421,2359330,2359330,0,0,0,0,0,0.00027799915,1.2396732e-05,2.4677074e-10,400,400
319529506,2359330,2359330,0,0,0,0,0,0.00023848595,1.301088e-05,2.5572894e-10,400,400
320564449,2359330,2359330,0,0,0,0,0,0.00023695632,1.3086471e-05,2.5388688e-10,400,400
321594514,2359330,2359330,0,0,0,0,0,0.00025910107,1.3784897e-05,7.056843e-10,400,400
322529538,2359330,2359330,0,0,0,0,0,0.00031109256,1.32489085e-05,3.9239012e-10,400,400
324599577,2359330,2359330,0,0,0,0,0,0.00027323136,1.25724655e-05,2.6200886e-10,400,400
325534533,2359330,2359330,0,0,0,0,0,0.00032380898,1.5444783e-05,5.923377e-10,400,400
326564522,2359330,2359330,0,0,0,0,0,0.0027096996,9.4578594e-05,6.2233045e-09,400,400
327594524,2359330,2359330,0,0,0,0,0,0.0073734676,0.00025230498,2.0969741e-08,400,400
328539526,2359330,2359330,0,0,0,0,0,0.009674404,0.00035833492,2.5551415e-08,400,400
329574519,2359330,2359330,0,0,0,0,0,0.013146718,0.00036452097,4.690175e-08,400,400
330604655,2359330,2359330,0,0,0,0,0,0.013187136,0.0004047121,7.017535e-08,400,400
331539495,2359330,2359330,0,0,0,0,0,0.008786174,0.00039892417,8.6954564e-08,400,400
333594490,2359330,2359330,0,0,0,0,0,0.025707504,0.0011431243,1.080759e-06,400,400
334629509,2359330,2359330,0,0,0,0,0,0.03926036,0.0016123356,2.1448745e-06,400,400
335574547,2359330,2359330,0,0,0,0,0,0.023574356,0.0010600096,2.303191e-06,400,400
336604556,2359330,2359330,0,0,0,0,0,0.0126049565,0.0005606487,1.1642122e-06,400,400
339579562,2359330,2359330,0,0,0,0,0,0.0069987387,0.00047125196,9.3484067e-07,400,400
340609606,2359330,2359330,0,0,0,0,0,0.0059782946,0.00040704157,9.0292144e-07,400,400
341554473,2359330,2359330,0,0,0,0,0,0.005870697,0.0003713521,6.3098196e-07,400,400
342604480,2359330,2359330,0,0,0,0,0,0.0065784287,0.0004282161,6.543254e-07,400,400
343619613,2359330,2359330,0,0,0,0,0,0.007342554,0.00046997672,6.7237573e-07,400,400
344559577,2359330,2359330,0,0,0,0,0,0.007196895,0.0004875748,5.47221e-07,400,400
345594429,2359330,2359330,0,0,0,0,0,0.007899848,0.0004937295,3.9536195e-07,400,400
346614556,2359330,2359330,0,0,0,0,0,0.0076409187,0.00045073737,3.888064e-07,400,400
347544502,2359330,2359330,0,0,0,0,0,0.007759874,0.00042404624,4.5355924e-07,400,400
348589494,2359330,2359330,0,0,0,0,0,0.0076449076,0.00043944543,4.329512e-07,400,400
349534495,2359330,2359330,0,0,0,0,0,0.007320038,0.00043125835,5.1520976e-07,400,400
350574584,2359330,2359330,0,0,0,0,0,0.005316594,0.0003299375,4.4873067e-07,400,400
351619531,2359330,2359330,0,0,0,0,0,0.004943022,0.00033716182,6.6974667e-07,400,400
352539507,2359330,2359330,0,0,0,0,0,0.0035849651,0.0002572146,2.8295233e-07,400,400
353574484,2359330,2359330,0,0,0,0,0,0.0039473376,0.00026441898,3.542745e-07,400,400
354614456,2359330,2359330,0,0,0,0,0,0.005035955,0.00030457517,3.3240434e-07,400,400
355539531,2359330,2359330,0,0,0,0,0,0.0051346114,0.00029050163,2.19142e-07,400,400
356574518,2359330,2359330,0,0,0,0,0,0.004454349,0.00024599407,2.0464132e-07,400,400
358629639,2359330,2359330,0,0,0,0,0,0.0049842084,0.00028681377,2.4972888e-07,400,400
360604458,2359330,2359330,0,0,0,0,0,0.0057866112,0.00032715575,4.683019e-07,400,400
361629479,2359330,2359330,0,0,0,0,0,0.0059617315,0.00033383234,6.278049e-07,400,400
362574513,2359330,2359330,0,0,0,0,0,0.0058672545,0.00034870286,5.2415163e-07,400,400
363624526,2359330,2359330,0,0,0,0,0,0.004797684,0.00029851656,2.0583296e-07,400,400
364554532,2359330,2359330,0,0,0,0,0,0.0036264376,0.0002267341,1.8698395e-07,400,400
365589573,2359330,2359330,0,0,0,0,0,0.0046098176,0.0002925207,1.7309863e-07,400,400
366629510,2359330,2359330,0,0,0,0,0,0.0032167076,0.00020842027,2.7213338e-07,400,400
367569520,2359330,2359330,0,0,0,0,0,0.0044034617,0.0002945916,5.075937e-07,400,400
368594450,2359330,2359330,0,0,0,0,0,0.0042505586,0.00025356506,2.3990233e-07,400,400
369529487,2359330,2359330,0,0,0,0,0,0.004529871,0.00027202506,2.419561e-07,400,400
370559531,2359330,2359330,0,0,0,0,0,0.0055435984,0.000360655,5.318308e-07,400,400
371589505,2359330,2359330,0,0,0,0,0,0.005555554,0.00033780324,4.1708046e-07,400,400
372614609,2359330,2359330,0,0,0,0,0,0.005690278,0.00031308984,5.383797e-07,400,400
373559556,2359330,2359330,0,0,0,0,0,0.0056219944,0.00035580937,7.3653416e-07,400,400
374609474,2359330,2359330,0,0,0,0,0,0.0056486004,0.00032788294,5.296514e-07,400,400
375544548,2359330,2359330,0,0,0,0,0,0.007380267,0.0004730218,5.410073e-07,400,400
376584498,2359330,2359330,0,0,0,0,0,0.005775948,0.00040277216,2.6484145e-07,400,400
377614546,2359330,2359330,0,0,0,0,0,0.00814258,0.00042787468,2.784061e-07,400,400
378539506,2359330,2359330,0,0,0,0,0,0.009196911,0.00052672724,1.9704504e-07,400,400
379564479,2359330,2359330,0,0,0,0,0,0.007848016,0.0005014166,2.4252503e-07,400,400
380594447,2359330,2359330,0,0,0,0,0,0.0052000587,0.00036736694,2.6954072e-07,400,400
382564456,2359330,2359330,0,0,0,0,0,0.0058255796,0.00038383924,2.921157e-07,400,400
383599521,2359330,2359330,0,0,0,0,0,0.0074720006,0.0005019281,2.7169352e-07,400,400
384629481,2359330,2359330,0,0,0,0,0,0.0065379585,0.00045487328,2.8650348e-07,400,400
385549639,2359330,2359330,0,0,0,0,0,0.005157907,0.00035899883,8.182833e-07,400,400
387534528,2359330,2359330,0,0,0,0,0,0.0050231465,0.00033863587,9.484811e-07,400,400
388584493,2359330,2359330,0,0,0,0,0,0.006084768,0.00038333438,1.0172895e-06,400,400
391579496,2359330,2359330,0,0,0,0,0,0.011260664,0.00061276375,1.7204321e-06,400,400
392614583,2359330,2359330,0,0,0,0,0,0.00803927,0.0004828715,6.488595e-07,400,400
393529627,2359330,2359330,0,0,0,0,0,0.009232182,0.00054746476,6.2786273e-07,400,400
394559500,2359330,2359330,0,0,0,0,0,0.010478913,0.00057304604,7.863666e-07,400,400
395609453,2359330,2359330,0,0,0,0,0,0.008892942,0.0005054454,6.108571e-07,400,400
396534534,2359330,2359330,0,0,0,0,0,0.008924834,0.00048059068,4.3625053e-07,400,400
397549548,2359330,2359330,0,0,0,0,0,0.009139521,0.0005088915,3.6794674e-07,400,400
398574688,2359330,2359330,0,0,0,0,0,0.011515692,0.0006361812,6.538468e-07,400,400
399614555,2359330,2359330,0,0,0,0,0,0.012631223,0.0006507117,1.0461076e-06,400,400
400544482,2359330,2359330,0,0,0,0,0,0.011009102,0.0005939996,1.2899447e-06,400,400
401589457,2359330,2359330,0,0,0,0,0,0.0111798905,0.00059497345,1.0688105e-06,400,400
402619570,2359330,2359330,0,0,0,0,0,0.010412401,0.0005773792,6.9222114e-07,400,400
403544435,2359330,2359330,0,0,0,0,0,0.011966404,0.00062530546,9.5007056e-07,400,400
404574486,2359330,2359330,0,0,0,0,0,0.010538331,0.00059133326,8.410735e-07,400,400
405604589,2359330,2359330,0,0,0,0,0,0.008992528,0.00047388554,5.9667246e-07,400,400
406534547,2359330,2359330,0,0,0,0,0,0.008578164,0.00045799115,3.150345e-07,400,400
407579509,2359330,2359330,0,0,0,0,0,0.0101579,0.0005423828,7.486096e-07,400,400
408609487,2359330,2359330,0,0,0,0,0,0.010417376,0.00051880453,7.2314776e-07,400,400
409539493,2359330,2359330,0,0,0,0,0,0.00786014,0.00041157447,5.089623e-07,400,400
410579497,2359330,2359330,0,0,0,0,0,0.010399498,0.00044566864,3.7786762e-07,400,400
411604590,2359330,2359330,0,0,0,0,0,0.011191674,0.00043429332,4.015902e-07,400,400
412534548,2359330,2359330,0,0,0,0,0,0.009077159,0.00038568836,4.020086e-07,400,400
413584475,2359330,2359330,0,0,0,0,0,0.011046676,0.00040591758,8.330585e-07,400,400
415559506,2359330,2359330,0,0,0,0,0,0.007117191,0.00040331867,6.958599e-07,400,400
416609472,2359330,2359330,0,0,0,0,0,0.006763111,0.00045377322,4.2858716e-07,400,400
417534486,2359330,2359330,0,0,0,0,0,0.006847465,0.0004564603,3.9179886e-07,400,400
418564676,2359330,2359330,0,0,0,0,0,0.005642642,0.00035269678,7.234107e-07,400,400
419594548,2359330,2359330,0,0,0,0,0,0.005887208,0.00041670576,9.74439e-07,400,400
420534514,2359330,2359330,0,0,0,0,0,0.007255257,0.00049575744,1.0900715e-06,400,400
421569524,2359330,2359330,0,0,0,0,0,0.008837106,0.0005501477,1.9549339e-06,400,400
424589577,2359330,2359330,0,0,0,0,0,0.0057614516,0.00038039737,7.026702e-07,400,400
425629560,2359330,2359330,0,0,0,0,0,0.0060717855,0.00038035447,8.4747364e-07,400,400
426569476,2359330,2359330,0,0,0,0,0,0.006100415,0.00039966204,1.1275658e-06,400,400
427599582,2359330,2359330,0,0,0,0,0,0.006763956,0.00042648465,8.654417e-07,400,400
428534436,2359330,2359330,0,0,0,0,0,0.009380365,0.00035227428,6.6692263e-07,400,400
429554484,2359330,2359330,0,0,0,0,0,0.005226096,0.00017500728,3.062014e-07,400,400
430569498,2359330,2359330,0,0,0,0,0,0.0034679277,0.00012705065,2.0223237e-07,400,400
431594473,2359330,2359330,0,0,0,0,0,0.0034668455,0.00011313022,2.4633403e-07,400,400
432614501,2359330,2359330,0,0,0,0,0,0.004667322,0.000131599,2.1257952e-07,400,400
433549446,2359330,2359330,0,0,0,0,0,0.0035388332,0.00012000477,2.1575646e-07,400,400
434589501,2359330,2359330,0,0,0,0,0,0.0025490467,9.885934e-05,1.1678751e-07,400,400
435624473,2359330,2359330,0,0,0,0,0,0.002025118,7.520457e-05,3.8602575e-08,400,400
436559507,2359330,2359330,0,0,0,0,0,0.0026196532,8.310615e-05,4.1232163e-08,400,400
440584498,2359330,2359330,0,0,0,0,0,0.0023239863,8.7563756e-05,7.559699e-08,400,400
441619496,2359330,2359330,0,0,0,0,0,0.002602069,9.128896e-05,6.814447e-08,400,400
442559518,2359330,2359330,0,0,0,0,0,0.003025419,9.737129e-05,7.718681e-08,400,400
443599543,2359330,2359330,0,0,0,0,0,0.0029900824,0.00011389107,9.746429e-08,400,400
444534415,2359330,2359330,0,0,0,0,0,0.0034315253,0.00012497051,1.1925944e-07,400,400
445569481,2359330,2359330,0,0,0,0,0,0.00265247,9.789426e-05,1.5392555e-07,400,400
446619510,2359330,2359330,0,0,0,0,0,0.0024583547,9.753878e-05,1.565476e-07,400,400
447564492,2359330,2359330,0,0,0,0,0,0.0018949149,6.744122e-05,5.9040776e-08,400,400
448599528,2359330,2359330,0,0,0,0,0,0.0015531188,8.0027094e-05,6.153962e-08,400,400
449539499,2359330,2359330,0,0,0,0,0,0.0015250667,7.062559e-05,5.002324e-08,400,400
450569551,2359330,2359330,0,0,0,0,0,0.001228882,9.383252e-05,1.1430218e-07,400,400
451594604,2359330,2359330,2,17,10,0,0,0.0635554,0.0034764707,9.1011556e-05,400,400
452529509,2359330,2359330,2,17,10,0,0,0.018353492,0.0011496481,1.6802698e-05,400,400
453564424,2359330,2359330,2,17,10,0,0,0.002840123,0.00017553467,2.114995e-06,400,400
454599457,2359330,2359330,2,17,10,0,0,0.00058704,3.2921693e-05,2.642439e-07,400,400
455619495,2359330,2359330,2,17,10,0,0,0.00038127744,1.599792e-05,3.4145927e-08,400,400
456549556,2359330,2359330,2,17,10,0,0,0.0003205199,1.292088e-05,5.377101e-09,400,400
