timestamp,states[0],states[1],states[2],states[3],states[4],states[5],states[6],states[7],states[8],states[9],states[10],states[11],states[12],states[13],states[14],states[15],states[16],states[17],states[18],states[19],states[20],states[21],states[22],states[23],vibe[0],vibe[1],vibe[2],covariances[0],covariances[1],covariances[2],covariances[3],covariances[4],covariances[5],covariances[6],covariances[7],covariances[8],covariances[9],covariances[10],covariances[11],covariances[12],covariances[13],covariances[14],covariances[15],covariances[16],covariances[17],covariances[18],covariances[19],covariances[20],covariances[21],covariances[22],covariances[23],output_tracking_error[0],output_tracking_error[1],output_tracking_error[2],control_mode_flags,pos_horiz_accuracy,pos_vert_accuracy,mag_test_ratio,vel_test_ratio,pos_test_ratio,hgt_test_ratio,tas_test_ratio,hagl_test_ratio,beta_test_ratio,time_slip,gps_check_fail_flags,filter_fault_flags,innovation_check_flags,solution_status_flags,n_states,pre_flt_fail_innov_heading,pre_flt_fail_innov_vel_horiz,pre_flt_fail_innov_vel_vert,pre_flt_fail_innov_height,pre_flt_fail_mag_field_disturbed,health_flags,timeout_flags
65628862,0.9584178,-0.012239211,-0.0027930357,0.28509265,0.0253562,0.0025942137,0.026471676,-0.6451863,-4.7232757,-0.06248524,5.89802e-06,8.312488e-06,-3.7826044e-07,0.0,0.0,-0.00016625602,0.26390266,0.004461732,0.37808567,0.0,0.0,0.0,0.0,0.0,2.4765273e-10,1.277335e-05,0.0002293791,3.3944716e-06,3.4357986e-06,3.4405289e-06,3.798949e-05,0.008336646,0.008335989,0.011299414,0.02811848,0.028116303,0.15287893,1.9619915e-11,1.9574663e-11,4.011016e-11,0.0,0.0,5.0000082e-08,0.0,0.0,0.0,0.0,0.0,0.0,0.0,0.0,0.00023048058,0.005346574,0.012014635,67240471,0.23713875,0.39099735,0.021237979,0.032950617,0.010311055,0.010311055,0.0,0.0,0.0,0.0,0,0,0,895,24,0,0,0,0,0,0,0
65828849,0.958462,-0.012109554,-0.0026819455,0.28495046,0.023789868,0.003048443,0.02652474,-0.6469418,-4.722035,-0.061565407,5.862086e-06,8.268644e-06,-2.9258885e-07,0.0,0.0,-0.00016576037,0.26390266,0.004461732,0.37808567,0.0,0.0,0.0,0.0,0.0,2.7353658e-10,1.2834339e-05,0.00022471344,3.3863864e-06,3.4349914e-06,3.4391724e-06,3.7910348e-05,0.008332288,0.008331909,0.01133887,0.02813184,0.028129878,0.15422447,1.9614584e-11,1.9570132e-11,3.9960067e-11,0.0,0.0,5.0000263e-08,0.0,0.0,0.0,0.0,0.0,0.0,0.0,0.0,0.00025027097,0.0032672922,0.0069874,67240471,0.23719552,0.39271423,0.03215436,0.023129655,0.008932385,0.008932385,0.0,0.0,0.0,0.0,0,0,0,895,24,0,0,0,0,0,0,0
66028861,0.9584219,-0.012715295,-0.0028720999,0.28505713,0.022195388,0.0050618877,0.023181485,-0.6470472,-4.7225018,-0.07306845,5.8508986e-06,8.232923e-06,-3.0879863e-07,0.0,0.0,-0.00016083106,0.26390266,0.004461732,0.37808567,0.0,0.0,0.0,0.0,0.0,2.347336e-10,1.2438297e-05,0.00021741785,3.3808494e-06,3.4344457e-06,3.4387294e-06,3.7828813e-05,0.008328341,0.008328199,0.011320016,0.028141916,0.028140161,0.15362985,1.9609507e-11,1.9565948e-11,3.981282e-11,0.0,0.0,5.0000178e-08,0.0,0.0,0.0,0.0,0.0,0.0,0.0,0.0,0.00014879674,0.0035426954,0.0106034875,67240471,0.23723844,0.39195645,0.00086003984,0.020886812,0.008237973,0.008237973,0.0,0.0,0.0,0.0,0,0,0,895,24,0,0,0,0,0,0,0
66228849,0.95844597,-0.012544232,-0.0028334802,0.28498414,0.022128811,0.008412252,0.018912386,-0.6451037,-4.7205253,-0.08696545,5.8363e-06,8.2293145e-06,-3.0062876e-07,0.0,0.0,-0.00015526397,0.26390266,0.004461732,0.37808567,0.0,0.0,0.0,0.0,0.0,2.3857852e-10,1.2063535e-05,0.00022529738,3.371944e-06,3.4339969e-06,3.437761e-06,3.775238e-05,0.008325441,0.008325489,0.011301403,0.02814938,0.028147832,0.15304054,1.9604679e-11,1.9562098e-11,3.9668345e-11,0.0,0.0,5e-08,0.0,0.0,0.0,0.0,0.0,0.0,0.0,0.0,6.418215e-05,0.0041277655,0.014066188,67240471,0.23727034,0.39120397,0.04791061,0.02440801,0.008141879,0.008141879,0.0,0.0,0.0,0.0,0,0,0,895,24,0,0,0,0,0,0,0
66428849,0.9584648,-0.0121146785,-0.0026568533,0.28494105,0.01946063,0.009580714,0.016318226,-0.6476104,-4.7187476,-0.0924918,5.8012374e-06,8.185316e-06,-3.302036e-07,0.0,0.0,-0.00015254732,0.26390266,0.004461732,0.37808567,0.0,0.0,0.0,0.0,0.0,2.0057887e-10,1.1551702e-05,0.00023316462,3.362631e-06,3.4337459e-06,3.4368559e-06,3.7677517e-05,0.008324457,0.008324659,0.011340724,0.028165545,0.028164197,0.15438423,1.9600136e-11,1.9558603e-11,3.9526604e-11,0.0,0.0,5.0000352e-08,0.0,0.0,0.0,0.0,0.0,0.0,0.0,0.0,0.00016545075,0.0027146959,0.00876433,67240471,0.23733887,0.39291757,0.01583136,0.023205752,0.008844068,0.008844068,0.0,0.0,0.0,0.0,0,0,0,895,24,0,0,0,0,0,0,0
66628858,0.9584154,-0.01244103,-0.0027908378,0.28509185,0.022325361,0.012329183,0.017836578,-0.64327514,-4.7151437,-0.09448114,5.7950424e-06,8.211501e-06,-4.0800208e-07,0.0,0.0,-0.00015409022,0.26390266,0.004461732,0.37808567,0.0,0.0,0.0,0.0,0.0,1.7473303e-10,1.2030451e-05,0.00024202777,3.3562892e-06,3.4336076e-06,3.4367315e-06,3.7599817e-05,0.008323249,0.008323587,0.011323066,0.028178455,0.028177286,0.1538034,1.959572e-11,1.9555284e-11,3.9387542e-11,0.0,0.0,5.0000263e-08,0.0,0.0,0.0,0.0,0.0,0.0,0.0,0.0,0.00028381235,0.0022183873,0.0048645753,67240471,0.23739365,0.39217776,0.026351878,0.019230112,0.0078382725,0.0078382725,0.0,0.0,0.0,0.0,0,0,0,895,24,0,0,0,0,0,0,0
67828849,0.9584281,-0.0122677125,-0.0024510892,0.28506002,0.012141135,0.008189433,0.020886289,-0.6499386,-4.7204933,-0.097245455,5.8163655e-06,7.964539e-06,-4.162176e-07,0.0,0.0,-0.00015935891,0.26390266,0.004461732,0.37808567,0.0,0.0,0.0,0.0,0.0,1.250347e-10,1.2424639e-05,0.00021899081,3.3136673e-06,3.4336751e-06,3.4357959e-06,3.715837e-05,0.008323458,0.008324071,0.011334823,0.028195474,0.028195169,0.15420526,1.9572035e-11,1.9538768e-11,3.8606594e-11,0.0,0.0,5.0000263e-08,0.0,0.0,0.0,0.0,0.0,0.0,0.0,0.0,0.00012821422,0.0008067451,0.000427399,67240471,0.23746714,0.39268976,0.009034729,0.019750489,0.011719343,0.011719343,0.0,0.0,0.0,0.0,0,0,0,895,24,0,0,0,0,0,0,0
68028849,0.9583735,-0.0125135705,-0.0024970048,0.2852325,0.01075203,0.008512137,0.01367876,-0.65264666,-4.719833,-0.118608564,5.8043925e-06,7.933422e-06,-5.2941385e-07,0.0,0.0,-0.00015132045,0.26390266,0.004461732,0.37808567,0.0,0.0,0.0,0.0,0.0,1.173582e-10,1.2425428e-05,0.00022530598,3.3072147e-06,3.4334344e-06,3.4356917e-06,3.708681e-05,0.0083227325,0.008323364,0.011316121,0.028189715,0.028189505,0.15361254,1.9568056e-11,1.9536003e-11,3.8484937e-11,0.0,0.0,5.0000175e-08,0.0,0.0,0.0,0.0,0.0,0.0,0.0,0.0,0.00032249017,0.0036842215,0.012515546,67240471,0.23744309,0.39193437,0.053266715,0.036570944,0.010900126,0.010900126,0.0,0.0,0.0,0.0,0,0,0,895,24,0,0,0,0,0,0,0
68228852,0.9584162,-0.0124164475,-0.0024571912,0.2850935,0.008675305,0.010810935,0.012959538,-0.65497494,-4.71657,-0.12421678,5.7807483e-06,7.916415e-06,-4.1257923e-07,0.0,0.0,-0.0001489318,0.26390266,0.004461732,0.37808567,0.0,0.0,0.0,0.0,0.0,1.452768e-10,1.2374726e-05,0.00023904331,3.3012998e-06,3.433217e-06,3.4353827e-06,3.701585e-05,0.008321477,0.008322089,0.011297202,0.028184429,0.028184298,0.15301839,1.9564208e-11,1.953337e-11,3.8365595e-11,0.0,0.0,5e-08,0.0,0.0,0.0,0.0,0.0,0.0,0.0,0.0,0.00016982501,0.002554536,0.0070552453,67240471,0.23742099,0.39117566,0.054029215,0.010394153,0.009843277,0.009843277,0.0,0.0,0.0,0.0,0,0,0,895,24,0,0,0,0,0,0,0
68428849,0.9583686,-0.012093024,-0.0023137545,0.28526837,0.0063535976,0.009748534,0.012695076,-0.65853775,-4.71569,-0.12352314,5.770436e-06,7.878805e-06,-5.5467075e-07,0.0,0.0,-0.00014994248,0.26390266,0.004461732,0.37808567,0.0,0.0,0.0,0.0,0.0,1.2946932e-10,1.2452561e-05,0.00025728537,3.2940866e-06,3.4330028e-06,3.4349187e-06,3.6947204e-05,0.00832182,0.008322439,0.011336744,0.02817964,0.02817958,0.1543634,1.9560475e-11,1.9530839e-11,3.824853e-11,0.0,0.0,5.0000356e-08,0.0,0.0,0.0,0.0,0.0,0.0,0.0,0.0,0.0002832035,0.00014285698,0.0010394749,67240471,0.23740096,0.39289108,0.005118741,0.014436739,0.008921029,0.008921029,0.0,0.0,0.0,0.0,0,0,0,895,24,0,0,0,0,0,0,0
68628849,0.958347,-0.012191613,-0.0023379382,0.28533643,0.0066048712,0.007780138,0.013712946,-0.65938056,-4.7169995,-0.12531507,5.801387e-06,7.860052e-06,-5.785308e-07,0.0,0.0,-0.00015128442,0.26390266,0.004461732,0.37808567,0.0,0.0,0.0,0.0,0.0,1.254024e-10,1.2137058e-05,0.00024381842,3.2884313e-06,3.4328436e-06,3.4348009e-06,3.6877493e-05,0.008321331,0.008321941,0.011319312,0.028175395,0.0281754,0.15378422,1.9556846e-11,1.9528395e-11,3.81337e-11,0.0,0.0,5.0000263e-08,0.0,0.0,0.0,0.0,0.0,0.0,0.0,0.0,0.00028722765,0.0022436802,0.0036623224,67240471,0.23738323,0.3921533,0.006158991,0.018383661,0.011656627,0.011656627,0.0,0.0,0.0,0.0,0,0,0,895,24,0,0,0,0,0,0,0
68828849,0.9583467,-0.012017171,-0.002276798,0.2853453,0.00440647,0.011289476,0.010866444,-0.6625664,-4.711322,-0.13404241,5.7602074e-06,7.858541e-06,-6.1876466e-07,0.0,0.0,-0.00014767445,0.26390266,0.004461732,0.37808567,0.0,0.0,0.0,0.0,0.0,1.258186e-10,1.22869615e-05,0.00022741966,3.2809276e-06,3.435011e-06,3.4368857e-06,3.6810638e-05,0.008333226,0.008333803,0.011303047,0.028197639,0.028197696,0.15318915,1.9555923e-11,1.9528625e-11,3.802108e-11,0.0,0.0,5e-08,0.0,0.0,0.0,0.0,0.0,0.0,0.0,0.0,0.00019122816,0.0019161599,0.003689092,67240471,0.23747702,0.39139387,0.00040197273,0.016529929,0.011332584,0.011332584,0.0,0.0,0.0,0.0,0,0,0,895,24,0,0,0,0,0,0,0
69028849,0.9583558,-0.012060956,-0.0022780246,0.2853132,0.004697269,0.008846484,0.008933749,-0.66326714,-4.7126966,-0.14242887,5.7988245e-06,7.838247e-06,-6.0165286e-07,0.0,0.0,-0.00014535281,0.26390266,0.004461732,0.37808567,0.0,0.0,0.0,0.0,0.0,1.552064e-10,1.3116428e-05,0.00022859007,3.2744704e-06,3.436685e-06,3.4385794e-06,3.6743415e-05,0.008343083,0.008343651,0.011344809,0.028217928,0.02821803,0.15453157,1.9554485e-11,1.9528323e-11,3.7910616e-11,0.0,0.0,5.0000356e-08,0.0,0.0,0.0,0.0,0.0,0.0,0.0,0.0,8.541469e-05,0.0025273936,0.0042695096,67240471,0.23756254,0.39310503,0.011385048,0.021911252,0.010083881,0.010083881,0.0,0.0,0.0,0.0,0,0,0,895,24,0,0,0,0,0,0,0
69228849,0.9583375,-0.012489504,-0.0024395778,0.2853547,0.006062448,0.0074789594,0.008978639,-0.6631972,-4.714042,-0.15122718,5.837838e-06,7.8239345e-06,-5.7823286e-07,0.0,0.0,-0.00014450785,0.26390266,0.004461732,0.37808567,0.0,0.0,0.0,0.0,0.0,1.4355508e-10,1.23390355e-05,0.00022009505,3.269966e-06,3.4379882e-06,3.440176e-06,3.667468e-05,0.0083507765,0.008351338,0.011328448,0.0282363,0.028236449,0.15393327,1.9552665e-11,1.9527612e-11,3.780227e-11,0.0,0.0,5.0000175e-08,0.0,0.0,0.0,0.0,0.0,0.0,0.0,0.0,0.00013711899,0.0032358612,0.006018698,67240471,0.23763995,0.3923433,0.015224395,0.020563554,0.009843411,0.009843411,0.0,0.0,0.0,0.0,0,0,0,895,24,0,0,0,0,0,0,0
69428849,0.9583093,-0.012337397,-0.002439831,0.2854559,0.008397549,0.010455911,0.0064738933,-0.65883553,-4.709924,-0.16176888,5.84485e-06,7.873688e-06,-6.516093e-07,0.0,0.0,-0.00014241399,0.26390266,0.004461732,0.37808567,0.0,0.0,0.0,0.0,0.0,1.5358607e-10,1.2240744e-05,0.00022621018,3.2636326e-06,3.4365694e-06,3.438691e-06,3.6609035e-05,0.008345997,0.008346513,0.011309291,0.02822674,0.02822692,0.15333481,1.9547945e-11,1.9523994e-11,3.7696e-11,0.0,0.0,5.0000086e-08,0.0,0.0,0.0,0.0,0.0,0.0,0.0,0.0,0.00023814279,0.0047140364,0.009629329,67240471,0.23759979,0.3915799,0.052919492,0.024258027,0.005783406,0.005783406,0.0,0.0,0.0,0.0,0,0,0,895,24,0,0,0,0,0,0,0
69628889,0.95833313,-0.012086355,-0.0023351903,0.28538793,0.009842519,0.010598878,0.007198352,-0.6579448,-4.7078404,-0.16768454,5.85275e-06,7.875135e-06,-6.1664855e-07,0.0,0.0,-0.00014189248,0.26390266,0.004461732,0.37808567,0.0,0.0,0.0,0.0,0.0,1.7910758e-10,1.2343225e-05,0.00023083149,3.257169e-06,3.4377065e-06,3.4397046e-06,3.6544414e-05,0.008352813,0.008353329,0.011351315,0.028244076,0.02824428,0.15468313,1.9546205e-11,1.9523312e-11,3.7591763e-11,0.0,0.0,5.000044e-08,0.0,0.0,0.0,0.0,0.0,0.0,0.0,0.0,0.00011345702,0.003512646,0.006524816,67240471,0.23767279,0.39329776,0.033167355,0.0059677404,0.0074521545,0.0074521545,0.0,0.0,0.0,0.0,0,0,0,895,24,0,0,0,0,0,0,0
69828849,0.95830244,-0.012574669,-0.002453303,0.28546897,0.0073292744,0.013297884,0.00818883,-0.6614015,-4.7018,-0.165976,5.801813e-06,7.858686e-06,-6.29173e-07,0.0,0.0,-0.0001443303,0.26390266,0.004461732,0.37808567,0.0,0.0,0.0,0.0,0.0,1.7324253e-10,1.2202129e-05,0.00022849854,3.252609e-06,3.4384589e-06,3.4409036e-06,3.6478028e-05,0.008358026,0.008358528,0.011335501,0.028248824,0.02824905,0.15409312,1.954408e-11,1.9522222e-11,3.748955e-11,0.0,0.0,5.0000263e-08,0.0,0.0,0.0,0.0,0.0,0.0,0.0,0.0,8.900072e-05,0.0028071075,0.0062377094,67240471,0.2376928,0.39254695,0.061578903,0.019695222,0.007840902,0.007840902,0.0,0.0,0.0,0.0,0,0,0,895,24,0,0,0,0,0,0,0
70028884,0.9583321,-0.012520858,-0.0023765138,0.2853718,0.0018142264,0.01790014,0.0068610627,-0.66680056,-4.694633,-0.17430608,5.740419e-06,7.829374e-06,-5.759912e-07,0.0,0.0,-0.00014358679,0.26390266,0.004461732,0.37808567,0.0,0.0,0.0,0.0,0.0,1.8838112e-10,1.2309453e-05,0.00025352972,3.2462563e-06,3.4366294e-06,3.4391417e-06,3.6414658e-05,0.008350294,0.008350728,0.011317266,0.028227275,0.028227516,0.15350892,1.9539195e-11,1.9518352e-11,3.7389303e-11,0.0,0.0,5.0000178e-08,0.0,0.0,0.0,0.0,0.0,0.0,0.0,0.0,0.00023157007,0.0032820196,0.0052592144,67240471,0.23760217,0.39180213,0.036753487,0.025047373,0.00650412,0.00650412,0.0,0.0,0.0,0.0,0,0,0,895,24,0,0,0,0,0,0,0
70228851,0.95832175,-0.01229051,-0.0022723374,0.28541782,0.0016455532,0.016016593,0.003298513,-0.66701716,-4.6937895,-0.18757778,5.772175e-06,7.812359e-06,-6.229572e-07,0.0,0.0,-0.00014078275,0.26390266,0.004461732,0.37808567,0.0,0.0,0.0,0.0,0.0,1.5310406e-10,1.2532907e-05,0.00026124853,3.239854e-06,3.4351337e-06,3.4375182e-06,3.6352343e-05,0.0083442135,0.00834463,0.011299203,0.028208124,0.028208373,0.15292925,1.9534784e-11,1.9514935e-11,3.7290997e-11,0.0,0.0,5e-08,0.0,0.0,0.0,0.0,0.0,0.0,0.0,0.0,8.6331725e-05,0.0010885883,0.0048332196,67240471,0.23752157,0.3910617,0.015658863,0.019902356,0.004329099,0.004329099,0.0,0.0,0.0,0.0,0,0,0,895,24,0,0,0,0,0,0,0
70428849,0.9583221,-0.012368687,-0.0022710818,0.28541306,-0.00033654005,0.015822062,0.002400833,-0.670347,-4.692508,-0.19413534,5.780272e-06,7.771489e-06,-6.1042084e-07,0.0,0.0,-0.00014130706,0.26390266,0.004461732,0.37808567,0.0,0.0,0.0,0.0,0.0,1.6166234e-10,1.2115823e-05,0.00024697007,3.234378e-06,3.433946e-06,3.4364311e-06,3.628957e-05,0.008339278,0.008339664,0.01133939,0.028191239,0.028191486,0.1542859,1.9530785e-11,1.9511892e-11,3.71946e-11,0.0,0.0,5.0000352e-08,0.0,0.0,0.0,0.0,0.0,0.0,0.0,0.0,0.00012468851,0.0010039689,0.0014413439,67240471,0.23745047,0.39279243,0.0086292,0.015522822,0.004243138,0.004243138,0.0,0.0,0.0,0.0,0,0,0,895,24,0,0,0,0,0,0,0
70628849,0.9583174,-0.012017408,-0.0021566567,0.2854449,-0.0011851268,0.016006172,0.0038058986,-0.6721945,-4.691197,-0.19500034,5.7958787e-06,7.746482e-06,-6.6259577e-07,0.0,0.0,-0.00014405463,0.26390266,0.004461732,0.37808567,0.0,0.0,0.0,0.0,0.0,2.0157467e-10,1.2150924e-05,0.0002528576,3.2276187e-06,3.4329382e-06,3.43521e-06,3.622921e-05,0.008335013,0.008335366,0.011322058,0.028176319,0.028176576,0.15371326,1.9527087e-11,1.9509125e-11,3.7100063e-11,0.0,0.0,5.0000263e-08,0.0,0.0,0.0,0.0,0.0,0.0,0.0,0.0,0.00019446173,0.0024390267,0.0050094444,67240471,0.23738764,0.3920628,0.056441586,0.024522612,0.0033263804,0.0033263804,0.0,0.0,0.0,0.0,0,0,0,895,24,0,0,0,0,0,0,0
70828849,0.9582943,-0.011552911,-0.0019585083,0.2855431,-0.0041784006,0.01746096,0.0009594105,-0.67698354,-4.686304,-0.2014643,5.7660795e-06,7.725972e-06,-7.4024365e-07,0.0,0.0,-0.00014312511,0.26390266,0.004461732,0.37808567,0.0,0.0,0.0,0.0,0.0,2.1872827e-10,1.27925305e-05,0.0002419963,3.221605e-06,3.432105e-06,3.4341515e-06,3.6168913e-05,0.008332285,0.0083326185,0.0113048265,0.028163271,0.028163524,0.15314433,1.9523695e-11,1.9506634e-11,3.700736e-11,0.0,0.0,5.0000086e-08,0.0,0.0,0.0,0.0,0.0,0.0,0.0,0.0,0.00040031428,0.00082334154,0.002889206,67240471,0.23733267,0.3913366,0.0081561655,0.013722635,0.006363691,0.006363691,0.0,0.0,0.0,0.0,0,0,0,895,24,0,0,0,0,0,0,0
71028854,0.9582318,-0.012097289,-0.0020754791,0.28572944,-0.006087393,0.011235509,0.0024018758,-0.6805897,-4.691282,-0.20327432,5.829798e-06,7.662208e-06,-8.282497e-07,0.0,0.0,-0.00014557487,0.26390266,0.004461732,0.37808567,0.0,0.0,0.0,0.0,0.0,2.3490698e-10,1.2472813e-05,0.0002349556,3.2173284e-06,3.4314676e-06,3.4339141e-06,3.610692e-05,0.008329363,0.0083296895,0.011287644,0.028151883,0.028152134,0.15257901,1.9520543e-11,1.9504346e-11,3.691647e-11,0.0,0.0,5e-08,0.0,0.0,0.0,0.0,0.0,0.0,0.0,0.0,0.0005258716,0.0037714292,0.0059653814,67240471,0.23728468,0.39061365,0.048807044,0.04427193,0.0044974447,0.0044974447,0.0,0.0,0.0,0.0,0,0,0,895,24,0,0,0,0,0,0,0
71228849,0.9581984,-0.012854503,-0.0022528754,0.28580675,-0.009076394,0.0064574573,0.0047349976,-0.6836667,-4.6990848,-0.20316014,5.909099e-06,7.5971916e-06,-8.276674e-07,0.0,0.0,-0.00014879552,0.26390266,0.004461732,0.37808567,0.0,0.0,0.0,0.0,0.0,2.6490032e-10,1.2444176e-05,0.00023969675,3.2136309e-06,3.4309692e-06,3.433981e-06,3.604496e-05,0.008327083,0.008327349,0.011327883,0.028141959,0.028142206,0.15393417,1.9517611e-11,1.9502254e-11,3.6827336e-11,0.0,0.0,5.0000263e-08,0.0,0.0,0.0,0.0,0.0,0.0,0.0,0.0,0.00040975178,0.0060503003,0.010197513,67240471,0.23724285,0.39234444,0.019227173,0.04818044,0.003095369,0.003095369,0.0,0.0,0.0,0.0,0,0,0,895,24,0,0,0,0,0,0,0
71428849,0.9582377,-0.012186677,-0.0021087078,0.28570524,-0.007059774,0.0077375467,0.0051266784,-0.6805383,-4.698476,-0.2079563,5.9452786e-06,7.64189e-06,-7.988546e-07,0.0,0.0,-0.00014954514,0.26390266,0.004461732,0.37808567,0.0,0.0,0.0,0.0,0.0,2.576424e-10,1.2558019e-05,0.00025030214,3.2068374e-06,3.4305208e-06,3.433076e-06,3.598793e-05,0.008324872,0.008325097,0.011310848,0.028133355,0.028133597,0.15336844,1.9514862e-11,1.950032e-11,3.673994e-11,0.0,0.0,5.0000175e-08,0.0,0.0,0.0,0.0,0.0,0.0,0.0,0.0,0.000184449,0.004626866,0.008063102,67240471,0.23720656,0.39162284,0.03933372,0.028591532,0.0020733457,0.0020733457,0.0,0.0,0.0,0.0,0,0,0,895,24,0,0,0,0,0,0,0
71628851,0.9581965,-0.012099155,-0.0021361865,0.28584686,-0.0045432816,0.004811927,0.010023726,-0.67729545,-4.6996317,-0.20044827,5.989227e-06,7.670858e-06,-8.726179e-07,0.0,0.0,-0.00015558407,0.26390266,0.004461732,0.37808567,0.0,0.0,0.0,0.0,0.0,2.7578642e-10,1.223929e-05,0.00022948711,3.202159e-06,3.4323764e-06,3.4349055e-06,3.5929068e-05,0.008333471,0.008333712,0.01129727,0.028141065,0.028141301,0.1528185,1.9514747e-11,1.9500975e-11,3.6654263e-11,0.0,0.0,5.0000086e-08,0.0,0.0,0.0,0.0,0.0,0.0,0.0,0.0,0.00021432694,0.0059309388,0.01264741,67240471,0.23723905,0.39092007,0.07689487,0.04310418,0.0023097263,0.0023097263,0.0,0.0,0.0,0.0,0,0,0,895,24,0,0,0,0,0,0,0
71828893,0.9581423,-0.012851744,-0.0023791622,0.28599426,-0.004295423,0.0065805847,0.013353156,-0.6765897,-4.6985493,-0.19878657,5.995775e-06,7.688879e-06,-9.13654e-07,0.0,0.0,-0.00015977642,0.26390266,0.004461732,0.37808567,0.0,0.0,0.0,0.0,0.0,2.258482e-10,1.1470929e-05,0.00023226505,3.1988104e-06,3.4315287e-06,3.4346951e-06,3.5868936e-05,0.0083289035,0.008329118,0.01133673,0.028122764,0.028122984,0.15416886,1.9511635e-11,1.949862e-11,3.6570264e-11,0.0,0.0,5.0000263e-08,0.0,0.0,0.0,0.0,0.0,0.0,0.0,0.0,0.00030959226,0.004777326,0.0096434895,67240471,0.23716186,0.39264342,0.03342191,0.035343178,0.0018151032,0.0018151032,0.0,0.0,0.0,0.0,0,0,0,895,24,0,0,0,0,0,0,0
72028849,0.9581806,-0.012691189,-0.002339497,0.2858732,-0.0041517173,0.0063571115,0.012838474,-0.67558193,-4.70074,-0.20186566,6.037704e-06,7.686793e-06,-8.538379e-07,0.0,0.0,-0.00015936054,0.26390266,0.004461732,0.37808567,0.0,0.0,0.0,0.0,0.0,2.5193714e-10,1.1765241e-05,0.00023145755,3.1928528e-06,3.4307213e-06,3.4337975e-06,3.5812864e-05,0.008324083,0.008324261,0.011318337,0.028095951,0.028096158,0.15358649,1.9508697e-11,1.9496411e-11,3.6487906e-11,0.0,0.0,5.0000178e-08,0.0,0.0,0.0,0.0,0.0,0.0,0.0,0.0,9.882192e-05,0.0033651881,0.0072248387,67240471,0.23704875,0.39190114,0.019136045,0.015755374,0.0022914966,0.0022914966,0.0,0.0,0.0,0.0,0,0,0,895,24,0,0,0,0,0,0,0
72228849,0.95821154,-0.012413647,-0.0022126476,0.28578258,-0.00415804,0.0021417157,0.01225826,-0.67612463,-4.7064667,-0.20832597,6.096043e-06,7.654248e-06,-8.151325e-07,0.0,0.0,-0.00015839179,0.26390266,0.004461732,0.37808567,0.0,0.0,0.0,0.0,0.0,2.643349e-10,1.1855389e-05,0.00026447998,3.1869317e-06,3.42997e-06,3.4328666e-06,3.5757606e-05,0.008318706,0.008318887,0.011299717,0.028061917,0.02806211,0.15300196,1.9505918e-11,1.949434e-11,3.6407148e-11,0.0,0.0,5e-08,0.0,0.0,0.0,0.0,0.0,0.0,0.0,0.0,0.00024621998,0.0031112134,0.006067193,67240471,0.2369051,0.39115465,0.029846532,0.029985456,0.0041869553,0.0041869553,0.0,0.0,0.0,0.0,0,0,0,895,24,0,0,0,0,0,0,0
72428851,0.9581919,-0.013205793,-0.0024761683,0.2858111,-0.002862264,0.0018110094,0.014923511,-0.67475885,-4.707322,-0.20558836,6.1138603e-06,7.6702745e-06,-7.620285e-07,0.0,0.0,-0.00016042676,0.26390266,0.004461732,0.37808567,0.0,0.0,0.0,0.0,0.0,2.854629e-10,1.20081495e-05,0.0002574377,3.1841892e-06,3.4317984e-06,3.4353695e-06,3.569895e-05,0.008326249,0.008326431,0.011341975,0.028058935,0.028059125,0.15435511,1.9506003e-11,1.94951e-11,3.6327993e-11,0.0,0.0,5.0000363e-08,0.0,0.0,0.0,0.0,0.0,0.0,0.0,0.0,0.00025557028,0.0022483387,0.004872051,67240471,0.2368925,0.39288053,0.07528071,0.016840726,0.0046271496,0.0046271496,0.0,0.0,0.0,0.0,0,0,0,895,24,0,0,0,0,0,0,0
72628850,0.9581542,-0.0139206955,-0.0026986627,0.28590155,-0.004694107,0.0011683287,0.014502332,-0.675938,-4.7109137,-0.21432409,6.1419305e-06,7.64922e-06,-7.4310736e-07,0.0,0.0,-0.00015987382,0.26390266,0.004461732,0.37808567,0.0,0.0,0.0,0.0,0.0,2.8135008e-10,1.152068e-05,0.00025136373,3.1817694e-06,3.43316e-06,3.4373522e-06,3.564075e-05,0.008331831,0.008331985,0.011327012,0.028046835,0.02804702,0.15378419,1.9505614e-11,1.9495365e-11,3.6250385e-11,0.0,0.0,5.000027e-08,0.0,0.0,0.0,0.0,0.0,0.0,0.0,0.0,0.00014765444,0.0015630263,0.005235338,67240471,0.23684141,0.39215326,0.021641022,0.014983628,0.004309909,0.004309909,0.0,0.0,0.0,0.0,0,0,0,895,24,0,0,0,0,0,0,0
72828849,0.95823705,-0.013122994,-0.0024856126,0.28566292,-0.0043604793,0.004036863,0.014937387,-0.67321646,-4.7110434,-0.2222952,6.1626647e-06,7.684862e-06,-6.4715067e-07,0.0,0.0,-0.0001589185,0.26390266,0.004461732,0.37808567,0.0,0.0,0.0,0.0,0.0,3.9637404e-10,1.2081983e-05,0.0002419954,3.1745435e-06,3.4317286e-06,3.4353154e-06,3.558937e-05,0.008322585,0.008322706,0.01130859,0.028000457,0.028000632,0.15320483,1.9502231e-11,1.9492628e-11,3.6174296e-11,0.0,0.0,5.000009e-08,0.0,0.0,0.0,0.0,0.0,0.0,0.0,0.0,0.00032726224,0.0030883478,0.008168521,67240471,0.23664549,0.3914139,0.008313255,0.020734308,0.00570764,0.00570764,0.0,0.0,0.0,0.0,0,0,0,895,24,0,0,0,0,0,0,0
73028849,0.95828754,-0.012171929,-0.0021570139,0.2855386,-0.004373966,0.0045726565,0.015119279,-0.6743295,-4.709952,-0.22816622,6.15638e-06,7.690996e-06,-6.4132325e-07,0.0,0.0,-0.00015913986,0.26390266,0.004461732,0.37808567,0.0,0.0,0.0,0.0,0.0,3.357572e-10,1.22789415e-05,0.0002588414,3.1669372e-06,3.4329719e-06,3.4359132e-06,3.5539124e-05,0.008327898,0.008328035,0.011293786,0.027986974,0.027987137,0.15264185,1.950189e-11,1.9492895e-11,3.6099707e-11,0.0,0.0,5e-08,0.0,0.0,0.0,0.0,0.0,0.0,0.0,0.0,0.0001659788,0.0025577955,0.0075191287,67240471,0.23658848,0.39069405,0.0068119112,0.012366551,0.0029764618,0.0029764618,0.0,0.0,0.0,0.0,0,0,0,895,24,0,0,0,0,0,0,0
73228876,0.95825386,-0.012628617,-0.0023046916,0.2856306,-0.0011664213,0.0032834245,0.021166038,-0.6700365,-4.712936,-0.22313459,6.2104446e-06,7.723175e-06,-6.5290504e-07,0.0,0.0,-0.00016350775,0.26390266,0.004461732,0.37808567,0.0,0.0,0.0,0.0,0.0,2.6448338e-10,1.1965815e-05,0.0002593621,3.163632e-06,3.4338589e-06,3.437192e-06,3.548415e-05,0.008330049,0.008330181,0.011336888,0.027965762,0.027965914,0.15400772,1.950115e-11,1.9492746e-11,3.602659e-11,0.0,0.0,5.000036e-08,0.0,0.0,0.0,0.0,0.0,0.0,0.0,0.0,0.0001312348,0.0030723696,0.004636398,67240471,0.23649879,0.39243817,0.09952798,0.03442314,0.0061378265,0.0061378265,0.0,0.0,0.0,0.0,0,0,0,895,24,0,0,0,0,0,0,0
73428849,0.9582779,-0.012456465,-0.0022148036,0.2855582,-0.0031509057,0.0043788855,0.019814864,-0.6728832,-4.7130537,-0.22936526,6.1992314e-06,7.7055865e-06,-6.01023e-07,0.0,0.0,-0.00016330213,0.26390266,0.004461732,0.37808567,0.0,0.0,0.0,0.0,0.0,2.2025702e-10,1.2421693e-05,0.00024307417,3.1588652e-06,3.4321956e-06,3.4354744e-06,3.543182e-05,0.008321651,0.00832178,0.011317602,0.027922539,0.027922682,0.15341881,1.9497612e-11,1.9489792e-11,3.5954913e-11,0.0,0.0,5.000009e-08,0.0,0.0,0.0,0.0,0.0,0.0,0.0,0.0,0.000115337854,0.0012760906,0.0040506623,67240471,0.23631594,0.39168712,0.026676917,0.010130061,0.005009796,0.005009796,0.0,0.0,0.0,0.0,0,0,0,895,24,0,0,0,0,0,0,0
73628849,0.9582241,-0.012575366,-0.002249356,0.285733,-0.0057333154,0.0049040862,0.020016229,-0.6765837,-4.712837,-0.23174492,6.1810433e-06,7.686001e-06,-6.7387236e-07,0.0,0.0,-0.00016234607,0.26390266,0.004461732,0.37808567,0.0,0.0,0.0,0.0,0.0,2.1097764e-10,1.310833e-05,0.00024715243,3.1554846e-06,3.4331379e-06,3.4365733e-06,3.5378496e-05,0.00832488,0.00832501,0.011359148,0.027900675,0.027900817,0.15477164,1.9497024e-11,1.948976e-11,3.5884656e-11,0.0,0.0,5.0000452e-08,0.0,0.0,0.0,0.0,0.0,0.0,0.0,0.0,0.00013746072,0.0021383355,0.0031715324,67240471,0.2362234,0.39341027,0.02752872,0.012399215,0.0049894503,0.0049894503,0.0,0.0,0.0,0.0,0,0,0,895,24,0,0,0,0,0,0,0
73828849,0.95822805,-0.012947627,-0.0024070977,0.28570208,-0.0037097863,0.0027370208,0.014507664,-0.672684,-4.7180667,-0.24247758,6.2542517e-06,7.7030345e-06,-6.2131653e-07,0.0,0.0,-0.00015884642,0.26390266,0.004461732,0.37808567,0.0,0.0,0.0,0.0,0.0,2.2319444e-10,1.3023881e-05,0.0002368141,3.1517513e-06,3.433763e-06,3.4374991e-06,3.5326062e-05,0.008328062,0.008328173,0.011342745,0.027872311,0.027872445,0.15418378,1.9496132e-11,1.94894e-11,3.581579e-11,0.0,0.0,5.000027e-08,0.0,0.0,0.0,0.0,0.0,0.0,0.0,0.0,0.00013068164,0.0029568528,0.006852013,67240471,0.23610328,0.3926624,0.01823632,0.027009591,0.007843468,0.007843468,0.0,0.0,0.0,0.0,0,0,0,895,24,0,0,0,0,0,0,0
74028859,0.95823115,-0.012538618,-0.0022688864,0.28571126,-0.0023190547,8.79197e-05,0.018140964,-0.6704814,-4.7244296,-0.24035865,6.321023e-06,7.703247e-06,-6.670271e-07,0.0,0.0,-0.00016092442,0.26390266,0.004461732,0.37808567,0.0,0.0,0.0,0.0,0.0,2.2029444e-10,1.3381473e-05,0.00023993658,3.145697e-06,3.4342318e-06,3.4376617e-06,3.527727e-05,0.008329108,0.008329214,0.01132645,0.027849386,0.027849518,0.15360075,1.949512e-11,1.9488904e-11,3.5748276e-11,0.0,0.0,5.000018e-08,0.0,0.0,0.0,0.0,0.0,0.0,0.0,0.0,0.0002573835,0.0028232588,0.0044997795,67240471,0.23600614,0.3919193,0.045610826,0.023912063,0.008565886,0.008565886,0.0,0.0,0.0,0.0,0,0,0,895,24,0,0,0,0,0,0,0
74228849,0.9582309,-0.012436967,-0.0022043209,0.28571662,-0.0058011133,-0.0014588439,0.019018069,-0.6751437,-4.7270656,-0.24095276,6.308208e-06,7.668004e-06,-6.82591e-07,0.0,0.0,-0.00016127338,0.26390266,0.004461732,0.37808567,0.0,0.0,0.0,0.0,0.0,1.7950356e-10,1.3099919e-05,0.00023085772,3.1406703e-06,3.4344691e-06,3.437878e-06,3.522781e-05,0.008329264,0.008329387,0.011310248,0.02781988,0.027820002,0.1530224,1.9493884e-11,1.9488165e-11,3.5682107e-11,0.0,0.0,5e-08,0.0,0.0,0.0,0.0,0.0,0.0,0.0,0.0,0.0001882016,0.0010954291,0.0019874747,67240471,0.23588108,0.39118075,0.023289507,0.016616043,0.008849688,0.008849688,0.0,0.0,0.0,0.0,0,0,0,895,24,0,0,0,0,0,0,0
74428856,0.9582017,-0.012529517,-0.002208642,0.2858106,-0.00588174,-2.4557246e-05,0.021023199,-0.6748349,-4.728739,-0.23818429,6.3184916e-06,7.684461e-06,-7.195369e-07,0.0,0.0,-0.00016253504,0.26390266,0.004461732,0.37808567,0.0,0.0,0.0,0.0,0.0,1.7839312e-10,1.297481e-05,0.00024894925,3.1369136e-06,3.4346508e-06,3.438193e-06,3.5177574e-05,0.00832962,0.008329727,0.011351879,0.02779579,0.027795902,0.15437621,1.949262e-11,1.9487384e-11,3.5617252e-11,0.0,0.0,5.000036e-08,0.0,0.0,0.0,0.0,0.0,0.0,0.0,0.0,0.0001635962,0.0007466688,0.0028303175,67240471,0.2357789,0.39290738,0.029011592,0.012037285,0.007817156,0.007817156,0.0,0.0,0.0,0.0,0,0,0,895,24,0,0,0,0,0,0,0
74628879,0.9581984,-0.012296633,-0.0021451868,0.285832,-0.0059711616,0.0012446807,0.018791888,-0.67407954,-4.729679,-0.24989302,6.3277016e-06,7.707872e-06,-7.646542e-07,0.0,0.0,-0.00015908011,0.26390266,0.004461732,0.37808567,0.0,0.0,0.0,0.0,0.0,1.5719864e-10,1.2924599e-05,0.00023868821,3.1313284e-06,3.4346415e-06,3.4380594e-06,3.513009e-05,0.008328643,0.008328743,0.011336267,0.027765203,0.027765313,0.15380542,1.9491195e-11,1.9486432e-11,3.5553685e-11,0.0,0.0,5.000027e-08,0.0,0.0,0.0,0.0,0.0,0.0,0.0,0.0,0.00023047742,0.002406768,0.004934598,67240471,0.23564914,0.39218035,0.101206206,0.012246331,0.0072309063,0.0072309063,0.0,0.0,0.0,0.0,0,0,0,895,24,0,0,0,0,0,0,0
74828849,0.9581877,-0.012503272,-0.0021816168,0.2858591,-0.007089735,-0.0018341584,0.019207142,-0.6761975,-4.7361293,-0.25405666,6.3664315e-06,7.674433e-06,-7.7661616e-07,0.0,0.0,-0.00015950287,0.26390266,0.004461732,0.37808567,0.0,0.0,0.0,0.0,0.0,1.9691158e-10,1.2859087e-05,0.00022632684,3.1271e-06,3.4322716e-06,3.4358713e-06,3.5081564e-05,0.008316369,0.008316473,0.011317686,0.027713729,0.027713833,0.1532325,1.9487165e-11,1.948287e-11,3.5491384e-11,0.0,0.0,5.0000093e-08,0.0,0.0,0.0,0.0,0.0,0.0,0.0,0.0,0.00026606844,0.0012286757,0.004003314,67240471,0.23543058,0.39144924,0.017590653,0.020430028,0.009672294,0.009672294,0.0,0.0,0.0,0.0,0,0,0,895,24,0,0,0,0,0,0,0
75028852,0.95820254,-0.012016122,-0.0019589458,0.28583187,-0.010146584,-0.0022994468,0.02104731,-0.68033004,-4.739577,-0.2512168,6.3634793e-06,7.646062e-06,-8.0994687e-07,0.0,0.0,-0.00016155242,0.26390266,0.004461732,0.37808567,0.0,0.0,0.0,0.0,0.0,2.0640768e-10,1.2929327e-05,0.00022428035,3.1210081e-06,3.4303791e-06,3.4336658e-06,3.503608e-05,0.00830618,0.008306284,0.011355333,0.027669558,0.027669651,0.15457009,1.9483755e-11,1.9479906e-11,3.543032e-11,0.0,0.0,5.000036e-08,0.0,0.0,0.0,0.0,0.0,0.0,0.0,0.0,0.00022113489,0.0016594108,0.0032933939,67240471,0.23524287,0.39315403,0.0302676,0.018272422,0.009902268,0.009902268,0.0,0.0,0.0,0.0,0,0,0,895,24,0,0,0,0,0,0,0
75228854,0.9582229,-0.01203822,-0.001945836,0.28576252,-0.00895388,-0.004265493,0.018337816,-0.6812811,-4.741736,-0.2612028,6.371937e-06,7.660266e-06,-7.691201e-07,0.0,0.0,-0.00015784116,0.26390266,0.004461732,0.37808567,0.0,0.0,0.0,0.0,0.0,2.3934435e-10,1.2564553e-05,0.00024808027,3.1164805e-06,3.4289042e-06,3.4322693e-06,3.4989247e-05,0.00829807,0.008298207,0.011335026,0.027631799,0.027631892,0.15396558,1.9480854e-11,1.9477423e-11,3.5370488e-11,0.0,0.0,5.000018e-08,0.0,0.0,0.0,0.0,0.0,0.0,0.0,0.0,6.485291e-05,0.0019358976,0.0040881746,67240471,0.23508231,0.39238447,0.01960431,0.014028417,0.00856176,0.00856176,0.0,0.0,0.0,0.0,0,0,0,895,24,0,0,0,0,0,0,0
75428852,0.9582167,-0.0126794465,-0.0021241554,0.28575417,-0.0096239485,-0.0064671515,0.015544642,-0.6830452,-4.7485642,-0.2667065,6.4113283e-06,7.642663e-06,-7.2843267e-07,0.0,0.0,-0.00015490197,0.26390266,0.004461732,0.37808567,0.0,0.0,0.0,0.0,0.0,2.7113434e-10,1.3108388e-05,0.00024775628,3.1133754e-06,3.4277455e-06,3.431631e-06,3.494115e-05,0.0082919765,0.008292109,0.011315538,0.027599623,0.027599718,0.15337302,1.9478332e-11,1.9475298e-11,3.5311858e-11,0.0,0.0,5.0000093e-08,0.0,0.0,0.0,0.0,0.0,0.0,0.0,0.0,0.0001710462,0.001960868,0.0027442027,67240471,0.2349454,0.39162868,0.03681512,0.01573892,0.0104551,0.0104551,0.0,0.0,0.0,0.0,0,0,0,895,24,0,0,0,0,0,0,0
75628852,0.9582721,-0.012050471,-0.0019165361,0.28559706,-0.009785521,-0.0062056137,0.013179603,-0.68306607,-4.7518,-0.27321228,6.427115e-06,7.663571e-06,-6.625924e-07,0.0,0.0,-0.00015200222,0.26390266,0.004461732,0.37808567,0.0,0.0,0.0,0.0,0.0,2.7954083e-10,1.318046e-05,0.00024274836,3.10782e-06,3.4267898e-06,3.430228e-06,3.4897126e-05,0.008286848,0.008286976,0.011353903,0.027572332,0.027572429,0.15471521,1.9476091e-11,1.9473447e-11,3.52544e-11,0.0,0.0,5.000045e-08,0.0,0.0,0.0,0.0,0.0,0.0,0.0,0.0,0.000328795,0.0022352438,0.002756061,67240471,0.23482922,0.39333853,0.028632555,0.014114653,0.010572708,0.010572708,0.0,0.0,0.0,0.0,0,0,0,895,24,0,0,0,0,0,0,0
75828866,0.9582852,-0.011837815,-0.0017766571,0.2855631,-0.012868123,-0.012417211,0.013320831,-0.6883259,-4.761442,-0.2742057,6.4632577e-06,7.604282e-06,-6.548429e-07,0.0,0.0,-0.00015345478,0.26390266,0.004461732,0.37808567,0.0,0.0,0.0,0.0,0.0,2.611681e-10,1.25391925e-05,0.00024771882,3.1031318e-06,3.426044e-06,3.429333e-06,3.485251e-05,0.008283024,0.008283169,0.011334646,0.027549276,0.02754937,0.15411803,1.947411e-11,1.947184e-11,3.5198098e-11,0.0,0.0,5.000027e-08,0.0,0.0,0.0,0.0,0.0,0.0,0.0,0.0,0.00022667731,0.001985908,0.00357158,67240471,0.234731,0.3925787,0.0066647427,0.025039174,0.012094319,0.012094319,0.0,0.0,0.0,0.0,0,0,0,895,24,0,0,0,0,0,0,0
76028888,0.95824414,-0.012417076,-0.0019601395,0.28567508,-0.013450291,-0.015065644,0.011860783,-0.6898412,-4.7694054,-0.28079906,6.4989454e-06,7.5959106e-06,-6.76292e-07,0.0,0.0,-0.00015171037,0.26390266,0.004461732,0.37808567,0.0,0.0,0.0,0.0,0.0,2.3420169e-10,1.2522555e-05,0.00023282757,3.1006987e-06,3.4254347e-06,3.4291843e-06,3.4805627e-05,0.00827956,0.00827971,0.011316146,0.027529867,0.027529962,0.15353252,1.9472297e-11,1.9470385e-11,3.5142937e-11,0.0,0.0,5.000018e-08,0.0,0.0,0.0,0.0,0.0,0.0,0.0,0.0,0.00016284634,0.0015170784,0.0027615859,67240471,0.2346483,0.39183226,0.0025236567,0.0122350445,0.011016611,0.011016611,0.0,0.0,0.0,0.0,0,0,0,895,24,0,0,0,0,0,0,0
76228849,0.95827895,-0.012279742,-0.0019138476,0.28556436,-0.013433,-0.013522672,0.014663864,-0.68923986,-4.7741632,-0.2766571,6.5184045e-06,7.625345e-06,-6.303009e-07,0.0,0.0,-0.00015492325,0.26390266,0.004461732,0.37808567,0.0,0.0,0.0,0.0,0.0,2.4325209e-10,1.3130608e-05,0.00022320852,3.0956753e-06,3.4272607e-06,3.4309417e-06,3.4762503e-05,0.008288654,0.008288792,0.011300769,0.02753963,0.027539711,0.15295745,1.9473232e-11,1.9471662e-11,3.5088883e-11,0.0,0.0,5e-08,0.0,0.0,0.0,0.0,0.0,0.0,0.0,0.0,0.00010697293,0.0018126625,0.004749203,67240471,0.23468988,0.39109775,0.03761209,0.024797054,0.0107576735,0.0107576735,0.0,0.0,0.0,0.0,0,0,0,895,24,0,0,0,0,0,0,0
76428849,0.95828456,-0.011861248,-0.001809802,0.28556418,-0.015163708,-0.010601069,0.013109837,-0.6934261,-4.773663,-0.2828447,6.4662822e-06,7.641447e-06,-6.6203256e-07,0.0,0.0,-0.00015244863,0.26390266,0.004461732,0.37808567,0.0,0.0,0.0,0.0,0.0,2.2294702e-10,1.3327988e-05,0.00021706309,3.0905176e-06,3.4263337e-06,3.4297684e-06,3.4720262e-05,0.008283856,0.008284008,0.011339721,0.02752345,0.027523534,0.15430032,1.9471105e-11,1.9469879e-11,3.5035915e-11,0.0,0.0,5.000027e-08,0.0,0.0,0.0,0.0,0.0,0.0,0.0,0.0,8.3675186e-05,0.0034389412,0.0044413484,67240471,0.23462093,0.3928108,0.036495175,0.028934939,0.008921871,0.008921871,0.0,0.0,0.0,0.0,0,0,0,895,24,0,0,0,0,0,0,0
76628850,0.9582808,-0.012257635,-0.001925482,0.28555915,-0.016755426,-0.01056702,0.012397155,-0.69820267,-4.7768955,-0.28471932,6.453186e-06,7.63346e-06,-6.2295754e-07,0.0,0.0,-0.00014935207,0.26390266,0.004461732,0.37808567,0.0,0.0,0.0,0.0,0.0,2.1255514e-10,1.3446793e-05,0.000217383,3.087693e-06,3.427934e-06,3.4317256e-06,3.4675686e-05,0.00829153,0.0082916925,0.011322832,0.027535772,0.027535856,0.1537005,1.947182e-11,1.9470913e-11,3.498402e-11,0.0,0.0,5.000009e-08,0.0,0.0,0.0,0.0,0.0,0.0,0.0,0.0,9.008936e-05,0.0031726628,0.00472188,67240471,0.23467346,0.39204654,0.04583872,0.020337142,0.00924634,0.00924634,0.0,0.0,0.0,0.0,0,0,0,895,24,0,0,0,0,0,0,0
76828865,0.9582385,-0.012542013,-0.0020547279,0.2856877,-0.014813791,-0.0111505175,0.010775165,-0.69520026,-4.7838244,-0.2921254,6.516753e-06,7.676664e-06,-6.837091e-07,0.0,0.0,-0.00014748014,0.26390266,0.004461732,0.37808567,0.0,0.0,0.0,0.0,0.0,2.2492523e-10,1.3055022e-05,0.0002552516,3.084483e-06,3.4268057e-06,3.4308252e-06,3.46322e-05,0.008286532,0.00828668,0.011303207,0.02752156,0.027521642,0.15310057,1.9469521e-11,1.9468935e-11,3.4933164e-11,0.0,0.0,5e-08,0.0,0.0,0.0,0.0,0.0,0.0,0.0,0.0,0.00018086603,0.002596665,0.003462291,67240471,0.23461288,0.39128068,0.0066975327,0.034203902,0.010751007,0.010751007,0.0,0.0,0.0,0.0,0,0,0,895,24,0,0,0,0,0,0,0
77028849,0.958299,-0.011979688,-0.0018760425,0.2855104,-0.015379805,-0.009687105,0.012346252,-0.6971814,-4.7857933,-0.2865975,6.50609e-06,7.700542e-06,-6.193036e-07,0.0,0.0,-0.00015008329,0.26390266,0.004461732,0.37808567,0.0,0.0,0.0,0.0,0.0,2.1069119e-10,1.3044093e-05,0.0002539126,3.0788217e-06,3.4258696e-06,3.4295035e-06,3.4592387e-05,0.008282165,0.0082823215,0.011341741,0.0275093,0.027509388,0.15443565,1.9467499e-11,1.9467218e-11,3.4883346e-11,0.0,0.0,5.0000363e-08,0.0,0.0,0.0,0.0,0.0,0.0,0.0,0.0,0.00015900879,0.0027784763,0.007431841,67240471,0.23456062,0.39298302,0.097203776,0.017461888,0.010868126,0.010868126,0.0,0.0,0.0,0.0,0,0,0,895,24,0,0,0,0,0,0,0
77228853,0.95836544,-0.012015952,-0.0018787729,0.28528562,-0.014170431,-0.008168469,0.013011597,-0.6980752,-4.7866335,-0.2884585,6.4935703e-06,7.73539e-06,-4.7678475e-07,0.0,0.0,-0.00014929572,0.26390266,0.004461732,0.37808567,0.0,0.0,0.0,0.0,0.0,2.1273684e-10,1.2455935e-05,0.00025264773,3.074746e-06,3.4251018e-06,3.4288323e-06,3.4551053e-05,0.008277837,0.008278008,0.0113228895,0.027498685,0.027498784,0.15383862,1.9465709e-11,1.9465712e-11,3.483454e-11,0.0,0.0,5.0000178e-08,0.0,0.0,0.0,0.0,0.0,0.0,0.0,0.0,0.000595636,0.003277275,0.0068536536,67240471,0.23451538,0.39222267,0.06543506,0.020329993,0.010149143,0.010149143,0.0,0.0,0.0,0.0,0,0,0,895,24,0,0,0,0,0,0,0
77428851,0.95834386,-0.012499825,-0.0020509062,0.28533608,-0.014794742,-0.0074302903,0.01303803,-0.70080495,-4.789705,-0.28846166,6.4916485e-06,7.739313e-06,-4.6097173e-07,0.0,0.0,-0.00014827849,0.26390266,0.004461732,0.37808567,0.0,0.0,0.0,0.0,0.0,2.0021935e-10,1.2917378e-05,0.0002447918,3.0724918e-06,3.4268487e-06,3.4309983e-06,3.4508117e-05,0.00828636,0.0082865385,0.011307229,0.027515573,0.027515672,0.15325272,1.9466716e-11,1.9466989e-11,3.4786743e-11,0.0,0.0,5.000009e-08,0.0,0.0,0.0,0.0,0.0,0.0,0.0,0.0,0.000425644,0.0020857903,0.0057040304,67240471,0.2345874,0.39147505,0.057686426,0.0062968917,0.0099204555,0.0099204555,0.0,0.0,0.0,0.0,0,0,0,895,24,0,0,0,0,0,0,0
77628881,0.95833963,-0.012293984,-0.0019711074,0.2853599,-0.015196717,-0.007814454,0.014669136,-0.70188755,-4.7947583,-0.28558987,6.5160693e-06,7.7493405e-06,-5.119815e-07,0.0,0.0,-0.00015061512,0.26390266,0.004461732,0.37808567,0.0,0.0,0.0,0.0,0.0,1.972512e-10,1.2700072e-05,0.00025258414,3.0674894e-06,3.4258442e-06,3.4298507e-06,3.446909e-05,0.00828173,0.008281908,0.0113465795,0.027505182,0.027505286,0.15459944,1.9464695e-11,1.9465237e-11,3.4739912e-11,0.0,0.0,5.0000452e-08,0.0,0.0,0.0,0.0,0.0,0.0,0.0,0.0,5.945854e-05,0.001722546,0.006178512,67240471,0.2345431,0.39319137,0.058100317,0.019249568,0.011518357,0.011518357,0.0,0.0,0.0,0.0,0,0,0,895,24,0,0,0,0,0,0,0
77828850,0.9583862,-0.0121511305,-0.0019122644,0.28521025,-0.01413559,-0.008889878,0.014633274,-0.70280766,-4.798343,-0.28779206,6.5246777e-06,7.766839e-06,-4.0547133e-07,0.0,0.0,-0.00015074264,0.26390266,0.004461732,0.37808567,0.0,0.0,0.0,0.0,0.0,1.9238194e-10,1.2526279e-05,0.00025492825,3.06398e-06,3.4273542e-06,3.4312845e-06,3.4429053e-05,0.008289576,0.008289764,0.011331714,0.027522122,0.027522221,0.15402198,1.9465493e-11,1.9466288e-11,3.469404e-11,0.0,0.0,5.000027e-08,0.0,0.0,0.0,0.0,0.0,0.0,0.0,0.0,0.00024723474,0.0013336419,0.0037021353,67240471,0.23461531,0.39245635,0.0054169055,0.0099045215,0.0123661505,0.0123661505,0.0,0.0,0.0,0.0,0,0,0,895,24,0,0,0,0,0,0,0
78028849,0.9583728,-0.012643336,-0.0020408307,0.28523278,-0.013450994,-0.012237433,0.015193654,-0.70367336,-4.807151,-0.28523526,6.572982e-06,7.756918e-06,-4.0624678e-07,0.0,0.0,-0.00015092718,0.26390266,0.004461732,0.37808567,0.0,0.0,0.0,0.0,0.0,1.7762639e-10,1.2740294e-05,0.0002558063,3.060714e-06,3.428514e-06,3.4328361e-06,3.4388846e-05,0.008295928,0.008296118,0.0113153625,0.027537681,0.027537776,0.15342928,1.9465905e-11,1.946694e-11,3.4649113e-11,0.0,0.0,5e-08,0.0,0.0,0.0,0.0,0.0,0.0,0.0,0.0,0.00021227801,0.0015798747,0.005249884,67240471,0.2346816,0.3917005,0.062160473,0.016403146,0.013740299,0.013740299,0.0,0.0,0.0,0.0,0,0,0,895,24,0,0,0,0,0,0,0
78228882,0.9583762,-0.012662695,-0.002073272,0.28522018,-0.010304481,-0.01541817,0.017349465,-0.69936115,-4.8159075,-0.278557,6.645848e-06,7.794443e-06,-3.8543297e-07,0.0,0.0,-0.00015332457,0.26390266,0.004461732,0.37808567,0.0,0.0,0.0,0.0,0.0,1.8880146e-10,1.2383003e-05,0.00026807142,3.0573922e-06,3.4294012e-06,3.4337172e-06,3.4349654e-05,0.008301103,0.008301296,0.011356272,0.027551867,0.02755197,0.15476689,1.9466026e-11,1.9467298e-11,3.4605104e-11,0.0,0.0,5.0000363e-08,0.0,0.0,0.0,0.0,0.0,0.0,0.0,0.0,0.00024650252,0.003660067,0.008713847,67240471,0.23474208,0.39340422,0.0029662247,0.03426276,0.0130733345,0.0130733345,0.0,0.0,0.0,0.0,0,0,0,895,24,0,0,0,0,0,0,0
78428859,0.95841354,-0.012305724,-0.0019750923,0.28511068,-0.010595048,-0.013292452,0.017424142,-0.70119953,-4.8168697,-0.2781398,6.6135785e-06,7.818441e-06,-3.440982e-07,0.0,0.0,-0.0001534211,0.26390266,0.004461732,0.37808567,0.0,0.0,0.0,0.0,0.0,1.6386861e-10,1.2451713e-05,0.00026289368,3.052712e-06,3.4300285e-06,3.4341094e-06,3.4312587e-05,0.008305233,0.008305437,0.011339875,0.027564665,0.027564771,0.15417115,1.9465875e-11,1.9467376e-11,3.4561996e-11,0.0,0.0,5.000027e-08,0.0,0.0,0.0,0.0,0.0,0.0,0.0,0.0,0.00016077141,0.001761161,0.00540674,67240471,0.23479658,0.39264634,0.005509919,0.024252495,0.009672769,0.009672769,0.0,0.0,0.0,0.0,0,0,0,895,24,0,0,0,0,0,0,0
78628849,0.9583907,-0.012527799,-0.002076838,0.28517753,-0.009521148,-0.012812921,0.019378915,-0.70074034,-4.8191195,-0.2730958,6.608483e-06,7.853854e-06,-3.5585964e-07,0.0,0.0,-0.0001540506,0.26390266,0.004461732,0.37808567,0.0,0.0,0.0,0.0,0.0,1.47702e-10,1.235954e-05,0.00024805526,3.0501126e-06,3.4304785e-06,3.4347754e-06,3.427353e-05,0.008307866,0.008308079,0.011323144,0.027576178,0.027576279,0.15357445,1.9465549e-11,1.9467263e-11,3.4519783e-11,0.0,0.0,5.000009e-08,0.0,0.0,0.0,0.0,0.0,0.0,0.0,0.0,9.8079254e-05,0.0023675812,0.0064166356,67240471,0.23484561,0.39188576,0.018381633,0.015538928,0.009358813,0.009358813,0.0,0.0,0.0,0.0,0,0,0,895,24,0,0,0,0,0,0,0
78828849,0.95836335,-0.012680815,-0.0021646172,0.28526157,-0.01050624,-0.012607277,0.024501147,-0.70149744,-4.824459,-0.26194328,6.6228768e-06,7.851041e-06,-3.9457265e-07,0.0,0.0,-0.0001585842,0.26390266,0.004461732,0.37808567,0.0,0.0,0.0,0.0,0.0,1.5354688e-10,1.22618585e-05,0.00024177211,3.0470667e-06,3.4284653e-06,3.4328841e-06,3.423553e-05,0.00829773,0.008297936,0.011303614,0.027560135,0.027560245,0.15297757,1.9462506e-11,1.9464432e-11,3.4478437e-11,0.0,0.0,5e-08,0.0,0.0,0.0,0.0,0.0,0.0,0.0,0.0,0.00013058532,0.0026801026,0.009104086,67240471,0.2347773,0.39112347,0.06919196,0.029452207,0.008477128,0.008477128,0.0,0.0,0.0,0.0,0,0,0,895,24,0,0,0,0,0,0,0
79028849,0.9583884,-0.012395213,-0.0020658688,0.2851906,-0.010312571,-0.015420093,0.026299523,-0.70135605,-4.831365,-0.2581353,6.653783e-06,7.84852e-06,-3.7671813e-07,0.0,0.0,-0.00015977307,0.26390266,0.004461732,0.37808567,0.0,0.0,0.0,0.0,0.0,1.4319808e-10,1.2513603e-05,0.00023698097,3.0425892e-06,3.4268633e-06,3.431044e-06,3.4199875e-05,0.008289535,0.008289745,0.01134256,0.027545435,0.02754555,0.15431899,1.9459986e-11,1.9462114e-11,3.4437946e-11,0.0,0.0,5.000036e-08,0.0,0.0,0.0,0.0,0.0,0.0,0.0,0.0,0.000100365265,0.0014567242,0.004682861,67240471,0.23471469,0.39283454,0.009333689,0.011363412,0.009200491,0.009200491,0.0,0.0,0.0,0.0,0,0,0,895,24,0,0,0,0,0,0,0
79228849,0.95843726,-0.0123301,-0.0021091206,0.28502905,-0.009296963,-0.010233245,0.02612633,-0.7015089,-4.8267784,-0.25842816,6.5806685e-06,7.905136e-06,-2.7519047e-07,0.0,0.0,-0.00015916697,0.26390266,0.004461732,0.37808567,0.0,0.0,0.0,0.0,0.0,1.3531172e-10,1.2415465e-05,0.00024417616,3.0389463e-06,3.4279599e-06,3.432172e-06,3.4163626e-05,0.008294727,0.008294944,0.011327021,0.0275582,0.02755832,0.1537368,1.9460484e-11,1.9462803e-11,3.43983e-11,0.0,0.0,5.000018e-08,0.0,0.0,0.0,0.0,0.0,0.0,0.0,0.0,0.0002798329,0.0040747076,0.0061836834,67240471,0.23476908,0.39209285,0.03836548,0.048918203,0.006557929,0.006557929,0.0,0.0,0.0,0.0,0,0,0,895,24,0,0,0,0,0,0,0
79428849,0.9584207,-0.012533234,-0.0021620435,0.2850756,-0.008690217,-0.0085528,0.023733575,-0.70053273,-4.8284507,-0.26205304,6.579461e-06,7.930686e-06,-2.672619e-07,0.0,0.0,-0.00015448654,0.26390266,0.004461732,0.37808567,0.0,0.0,0.0,0.0,0.0,1.3322606e-10,1.2493532e-05,0.00022791889,3.036718e-06,3.428814e-06,3.4332224e-06,3.4126308e-05,0.008298816,0.00829903,0.011310518,0.027569737,0.027569855,0.15314631,1.9460728e-11,1.946323e-11,3.4359477e-11,0.0,0.0,5e-08,0.0,0.0,0.0,0.0,0.0,0.0,0.0,0.0,0.00024488216,0.0034950762,0.005805356,67240471,0.23481822,0.39133912,0.035028502,0.028395677,0.0056805923,0.0056805923,0.0,0.0,0.0,0.0,0,0,0,895,24,0,0,0,0,0,0,0
79628874,0.95845956,-0.012317499,-0.0020737292,0.2849548,-0.00990001,-0.008177151,0.026644837,-0.70307696,-4.8311944,-0.25514284,6.5717377e-06,7.913752e-06,-1.9721077e-07,0.0,0.0,-0.00015639422,0.26390266,0.004461732,0.37808567,0.0,0.0,0.0,0.0,0.0,1.268928e-10,1.3048844e-05,0.0002289036,3.0329927e-06,3.427126e-06,3.4313753e-06,3.4091336e-05,0.00828997,0.008290186,0.011348122,0.027553821,0.027553944,0.15447287,1.9458159e-11,1.9460841e-11,3.4321455e-11,0.0,0.0,5.000027e-08,0.0,0.0,0.0,0.0,0.0,0.0,0.0,0.0,0.00029575377,0.0019911649,0.0037440504,67240471,0.23475043,0.39303038,0.02152021,0.013400454,0.005056596,0.005056596,0.0,0.0,0.0,0.0,0,0,0,895,24,0,0,0,0,0,0,0
79828852,0.9584587,-0.012304767,-0.002193886,0.2849575,-0.0018960861,-0.004230647,0.028346496,-0.69102305,-4.829241,-0.25063363,6.605138e-06,8.0453465e-06,-1.7506144e-07,0.0,0.0,-0.00015788202,0.26390266,0.004461732,0.37808567,0.0,0.0,0.0,0.0,0.0,1.1812079e-10,1.293711e-05,0.0002209411,3.0302836e-06,3.425811e-06,3.4300726e-06,3.4055705e-05,0.008283085,0.0082832845,0.011328355,0.027539339,0.027539466,0.15386686,1.9456043e-11,1.9458903e-11,3.4284228e-11,0.0,0.0,5.000018e-08,0.0,0.0,0.0,0.0,0.0,0.0,0.0,0.0,0.00028174996,0.0050413907,0.008259115,67240471,0.23468874,0.39225867,0.033992372,0.058322273,0.0097168535,0.0097168535,0.0,0.0,0.0,0.0,0,0,0,895,24,0,0,0,0,0,0,0
80028855,0.9584466,-0.012480583,-0.002263269,0.28499007,-0.0009459054,-0.0027505867,0.030784244,-0.6873158,-4.830942,-0.24032025,6.620396e-06,8.065902e-06,-1.585701e-07,0.0,0.0,-0.00015994947,0.26390266,0.004461732,0.37808567,0.0,0.0,0.0,0.0,0.0,1.3244582e-10,1.2844594e-05,0.00022710372,3.0281312e-06,3.424789e-06,3.4292073e-06,3.4019853e-05,0.008277222,0.00827741,0.011308481,0.027526211,0.02752634,0.15326029,1.945428e-11,1.9457316e-11,3.4247775e-11,0.0,0.0,5e-08,0.0,0.0,0.0,0.0,0.0,0.0,0.0,0.0,0.00019635781,0.0029243066,0.007194724,67240471,0.23463279,0.39148474,0.037973538,0.011776147,0.009110128,0.009110128,0.0,0.0,0.0,0.0,0,0,0,895,24,0,0,0,0,0,0,0
80228902,0.9584664,-0.012277366,-0.002206361,0.2849327,-0.00030214552,-0.0020526322,0.028951386,-0.6844858,-4.832644,-0.23677829,6.628626e-06,8.069512e-06,-1.440375e-07,0.0,0.0,-0.00015750738,0.26390266,0.004461732,0.37808567,0.0,0.0,0.0,0.0,0.0,1.3382567e-10,1.2782658e-05,0.00022543849,3.024039e-06,3.4240006e-06,3.4282657e-06,3.3986737e-05,0.008273002,0.008273186,0.011347306,0.027514407,0.02751454,0.15459953,1.9452795e-11,1.9456001e-11,3.4212085e-11,0.0,0.0,5.000036e-08,0.0,0.0,0.0,0.0,0.0,0.0,0.0,0.0,8.612901e-05,0.000911166,0.0035591002,67240471,0.2345825,0.39319146,0.030698698,0.017204763,0.01188862,0.01188862,0.0,0.0,0.0,0.0,0,0,0,895,24,0,0,0,0,0,0,0
80428859,0.9584462,-0.0123337405,-0.0022426995,0.2849978,0.004346882,-0.0039266637,0.02958488,-0.6769951,-4.836545,-0.23028557,6.679902e-06,8.1049875e-06,-1.8435074e-07,0.0,0.0,-0.00015788373,0.26390266,0.004461732,0.37808567,0.0,0.0,0.0,0.0,0.0,1.6184377e-10,1.2840042e-05,0.00025191664,3.0207977e-06,3.4233842e-06,3.427691e-06,3.3953085e-05,0.008269409,0.008269598,0.011328613,0.027503852,0.02750398,0.15400255,1.9451525e-11,1.9454896e-11,3.4177137e-11,0.0,0.0,5.000027e-08,0.0,0.0,0.0,0.0,0.0,0.0,0.0,0.0,0.00020779434,0.0021516408,0.00470478,67240471,0.23453748,0.3924316,0.0278751,0.023020625,0.010795464,0.010795464,0.0,0.0,0.0,0.0,0,0,0,895,24,0,0,0,0,0,0,0
80628857,0.9583977,-0.012799601,-0.0023851586,0.28513947,0.0050123306,-0.005798835,0.027002236,-0.6728373,-4.8419147,-0.24100667,6.712731e-06,8.096775e-06,-2.3375976e-07,0.0,0.0,-0.00015253374,0.26390266,0.004461732,0.37808567,0.0,0.0,0.0,0.0,0.0,1.5123629e-10,1.26748255e-05,0.0002454735,3.0189747e-06,3.422924e-06,3.4276063e-06,3.3918186e-05,0.0082658315,0.008266022,0.0113101695,0.027494432,0.027494555,0.15341099,1.945044e-11,1.9453968e-11,3.414293e-11,0.0,0.0,5.0000093e-08,0.0,0.0,0.0,0.0,0.0,0.0,0.0,0.0,0.0002917406,0.0036186317,0.008979794,67240471,0.23449731,0.39167714,0.07394527,0.024490753,0.0120291095,0.0120291095,0.0,0.0,0.0,0.0,0,0,0,895,24,0,0,0,0,0,0,0
80828849,0.9584123,-0.012746845,-0.0023912145,0.28509226,0.0069110966,-0.0009130228,0.026278025,-0.66711444,-4.839188,-0.24232255,6.6868397e-06,8.147792e-06,-2.1959728e-07,0.0,0.0,-0.00015050604,0.26390266,0.004461732,0.37808567,0.0,0.0,0.0,0.0,0.0,2.019e-10,1.281869e-05,0.0002589331,3.015229e-06,3.4249333e-06,3.4296252e-06,3.388607e-05,0.008275246,0.008275432,0.011352798,0.027512105,0.02751223,0.15476775,1.945211e-11,1.9455784e-11,3.410945e-11,0.0,0.0,5.000045e-08,0.0,0.0,0.0,0.0,0.0,0.0,0.0,0.0,0.00013531912,0.0024324649,0.0065642023,67240471,0.23457266,0.39340532,0.021708377,0.026791405,0.010459384,0.010459384,0.0,0.0,0.0,0.0,0,0,0,895,24,0,0,0,0,0,0,0
81028851,0.958394,-0.012266697,-0.0022257215,0.28517663,0.006704488,0.0021691953,0.02435679,-0.6637808,-4.8355074,-0.24157497,6.64375e-06,8.173269e-06,-3.1119347e-07,0.0,0.0,-0.00014910323,0.26390266,0.004461732,0.37808567,0.0,0.0,0.0,0.0,0.0,1.718007e-10,1.2629772e-05,0.00023964982,3.010852e-06,3.4241707e-06,3.4285283e-06,3.3855387e-05,0.008272138,0.008272329,0.011332757,0.027502242,0.027502362,0.15415178,1.9450705e-11,1.945452e-11,3.4076665e-11,0.0,0.0,5.000018e-08,0.0,0.0,0.0,0.0,0.0,0.0,0.0,0.0,0.00034497204,0.0031713478,0.005851705,67240471,0.2345306,0.39262167,0.017261025,0.025191164,0.012426672,0.012426672,0.0,0.0,0.0,0.0,0,0,0,895,24,0,0,0,0,0,0,0
81228861,0.95838743,-0.012339887,-0.0022147142,0.28519556,0.006354799,0.00025017356,0.023275416,-0.6617786,-4.8382783,-0.23900273,6.6530074e-06,8.148287e-06,-3.1864388e-07,0.0,0.0,-0.00014694723,0.26390266,0.004461732,0.37808567,0.0,0.0,0.0,0.0,0.0,1.426241e-10,1.2609036e-05,0.00025396937,3.0079545e-06,3.4258996e-06,3.4303214e-06,3.3823293e-05,0.008281005,0.008281204,0.011316091,0.027519513,0.02751963,0.15354836,1.9452072e-11,1.9456008e-11,3.404458e-11,0.0,0.0,5.0000093e-08,0.0,0.0,0.0,0.0,0.0,0.0,0.0,0.0,0.00021087192,0.0025076156,0.0029403283,67240471,0.23460422,0.39185247,0.014673872,0.015144755,0.011191987,0.011191987,0.0,0.0,0.0,0.0,0,0,0,895,24,0,0,0,0,0,0,0
81428849,0.9583878,-0.012447858,-0.0022997377,0.2851889,0.010281415,0.0021799966,0.020239668,-0.65145105,-4.8376513,-0.24433877,6.6778944e-06,8.210819e-06,-3.1832266e-07,0.0,0.0,-0.00014358578,0.26390266,0.004461732,0.37808567,0.0,0.0,0.0,0.0,0.0,1.2885602e-10,1.2199843e-05,0.00025961004,3.0047684e-06,3.4272375e-06,3.431762e-06,3.3791926e-05,0.008288491,0.008288686,0.011357653,0.027535276,0.027535392,0.15489165,1.9452998e-11,1.9457056e-11,3.401318e-11,0.0,0.0,5.000045e-08,0.0,0.0,0.0,0.0,0.0,0.0,0.0,0.0,0.00012635443,0.0020442165,0.0048337444,67240471,0.2346714,0.39356276,0.04391216,0.025925724,0.0146691175,0.0146691175,0.0,0.0,0.0,0.0,0,0,0,895,24,0,0,0,0,0,0,0
81628851,0.95837945,-0.01231016,-0.0023273516,0.28522277,0.013057723,0.0055798586,0.019101596,-0.64248854,-4.8345666,-0.24788933,6.6710404e-06,8.267614e-06,-3.5437606e-07,0.0,0.0,-0.00014129779,0.26390266,0.004461732,0.37808567,0.0,0.0,0.0,0.0,0.0,1.2160797e-10,1.2502741e-05,0.0002587902,3.0012754e-06,3.428247e-06,3.4326874e-06,3.3761513e-05,0.008294362,0.008294549,0.011341333,0.027549583,0.027549693,0.15429199,1.945355e-11,1.9457727e-11,3.3982456e-11,0.0,0.0,5.000027e-08,0.0,0.0,0.0,0.0,0.0,0.0,0.0,0.0,0.00017919249,0.0025537184,0.006105691,67240471,0.23473236,0.39280018,0.03613747,0.019602612,0.014862476,0.014862476,0.0,0.0,0.0,0.0,0,0,0,895,24,0,0,0,0,0,0,0
81828849,0.9583741,-0.012387797,-0.0022769426,0.28523788,0.0120034935,0.004412635,0.02242418,-0.6401546,-4.835647,-0.23749283,6.6659677e-06,8.22963e-06,-3.6509343e-07,0.0,0.0,-0.0001445198,0.26390266,0.004461732,0.37808567,0.0,0.0,0.0,0.0,0.0,1.0605232e-10,1.21336825e-05,0.00026479512,2.9983346e-06,3.4290006e-06,3.4335214e-06,3.3730852e-05,0.0082990425,0.008299232,0.011325601,0.027562462,0.02756258,0.15370464,1.9453843e-11,1.9458133e-11,3.395238e-11,0.0,0.0,5.000018e-08,0.0,0.0,0.0,0.0,0.0,0.0,0.0,0.0,0.00011190793,0.0022495333,0.0045954743,67240471,0.23478723,0.39205185,0.020377154,0.02387679,0.015595994,0.015595994,0.0,0.0,0.0,0.0,0,0,0,895,24,0,0,0,0,0,0,0
82028850,0.95836437,-0.012484556,-0.00228552,0.28526592,0.014411108,0.0016969752,0.020310195,-0.6316623,-4.839945,-0.24094422,6.7161504e-06,8.228459e-06,-3.918194e-07,0.0,0.0,-0.00014164287,0.26390266,0.004461732,0.37808567,0.0,0.0,0.0,0.0,0.0,1.2375903e-10,1.2611495e-05,0.00025964738,2.9951748e-06,3.4295444e-06,3.4341233e-06,3.370088e-05,0.008303093,0.008303275,0.0113094365,0.027574014,0.027574126,0.15311605,1.9453909e-11,1.945831e-11,3.3922948e-11,0.0,0.0,5e-08,0.0,0.0,0.0,0.0,0.0,0.0,0.0,0.0,0.00017666144,0.0022462134,0.0026587248,67240471,0.23483641,0.39130047,0.1434978,0.018785078,0.018966101,0.018966101,0.0,0.0,0.0,0.0,0,0,0,895,24,0,0,0,0,0,0,0
82228849,0.95839125,-0.012300502,-0.0021366214,0.28518516,0.010589665,-2.2378768e-05,0.02152674,-0.630937,-4.84385,-0.23579797,6.7149804e-06,8.16608e-06,-3.5937495e-07,0.0,0.0,-0.00014257693,0.26390266,0.004461732,0.37808567,0.0,0.0,0.0,0.0,0.0,1.2102985e-10,1.2774319e-05,0.00025143393,2.9917016e-06,3.4300601e-06,3.4344923e-06,3.3671884e-05,0.008307609,0.008307785,0.011351587,0.027595295,0.027595405,0.15446927,1.9453933e-11,1.945844e-11,3.389414e-11,0.0,0.0,5.000036e-08,0.0,0.0,0.0,0.0,0.0,0.0,0.0,0.0,0.00017966393,0.0042455383,0.005942832,67240471,0.234927,0.3930258,0.012284965,0.032376617,0.015662324,0.015662324,0.0,0.0,0.0,0.0,0,0,0,895,24,0,0,0,0,0,0,0
82428853,0.9584181,-0.01232422,-0.0020806924,0.285094,0.0072392626,-0.0037780623,0.021197237,-0.6299321,-4.850021,-0.23714004,6.733835e-06,8.103744e-06,-3.0977915e-07,0.0,0.0,-0.00014150562,0.26390266,0.004461732,0.37808567,0.0,0.0,0.0,0.0,0.0,1.12324615e-10,1.2581884e-05,0.0002363971,2.988617e-06,3.430401e-06,3.4348368e-06,3.364277e-05,0.00831093,0.008311104,0.011335045,0.027613793,0.027613899,0.15387617,1.9453779e-11,1.9458388e-11,3.3865955e-11,0.0,0.0,5.0000178e-08,0.0,0.0,0.0,0.0,0.0,0.0,0.0,0.0,0.00030835473,0.0051847943,0.007344847,67240471,0.23500572,0.39227054,0.03907102,0.026735766,0.015483947,0.015483947,0.0,0.0,0.0,0.0,0,0,0,895,24,0,0,0,0,0,0,0
82628851,0.95842624,-0.012507695,-0.0021500634,0.28505805,0.0116035985,-0.0028912628,0.022034103,-0.62008864,-4.850268,-0.23383163,6.7524725e-06,8.159368e-06,-2.6475854e-07,0.0,0.0,-0.00014248562,0.26390266,0.004461732,0.37808567,0.0,0.0,0.0,0.0,0.0,1.1330727e-10,1.2655757e-05,0.00023186284,2.9865005e-06,3.430722e-06,3.435328e-06,3.3612992e-05,0.008315001,0.008315178,0.011317237,0.027640745,0.027640851,0.15326919,1.9453616e-11,1.945832e-11,3.3838387e-11,0.0,0.0,5e-08,0.0,0.0,0.0,0.0,0.0,0.0,0.0,0.0,0.000305787,0.0010435511,0.0019610403,67240471,0.23512039,0.3914961,0.0070377807,0.02146794,0.015159,0.015159,0.0,0.0,0.0,0.0,0,0,0,895,24,0,0,0,0,0,0,0
82828851,0.95840555,-0.012408618,-0.002114698,0.2851326,0.012502155,-0.00043563757,0.022204349,-0.61285245,-4.8489933,-0.23062006,6.7404444e-06,8.195071e-06,-3.1546227e-07,0.0,0.0,-0.00014319734,0.26390266,0.004461732,0.37808567,0.0,0.0,0.0,0.0,0.0,1.2189542e-10,1.3188184e-05,0.00023775152,2.9836133e-06,3.4285288e-06,3.433087e-06,3.358462e-05,0.008306192,0.008306365,0.011355108,0.027637668,0.02763778,0.1546026,1.9450695e-11,1.9455496e-11,3.3811405e-11,0.0,0.0,5.0000363e-08,0.0,0.0,0.0,0.0,0.0,0.0,0.0,0.0,0.00012561947,0.0014791989,0.0023623283,67240471,0.23510732,0.39319536,0.0034655593,0.016234297,0.015490694,0.015490694,0.0,0.0,0.0,0.0,0,0,0,895,24,0,0,0,0,0,0,0
83028851,0.95840555,-0.012300478,-0.0021350468,0.28513676,0.017752828,0.00019855745,0.02349235,-0.60121053,-4.848032,-0.22579648,6.754676e-06,8.260193e-06,-3.5167753e-07,0.0,0.0,-0.00014600574,0.26390266,0.004461732,0.37808567,0.0,0.0,0.0,0.0,0.0,1.0907078e-10,1.3170426e-05,0.00022758338,2.9797623e-06,3.429115e-06,3.4335987e-06,3.3557644e-05,0.008310741,0.008310922,0.011338386,0.02765998,0.027660085,0.1540059,1.9450892e-11,1.9455786e-11,3.3785013e-11,0.0,0.0,5.0000178e-08,0.0,0.0,0.0,0.0,0.0,0.0,0.0,0.0,0.0003079,0.0032748184,0.005342741,67240471,0.23520218,0.39243585,0.032587107,0.02267434,0.01696883,0.01696883,0.0,0.0,0.0,0.0,0,0,0,895,24,0,0,0,0,0,0,0
83228887,0.9583829,-0.012416091,-0.0021194583,0.28520828,0.014044335,-0.0010305635,0.021611586,-0.59997797,-4.851096,-0.2284558,6.74517e-06,8.209757e-06,-3.8096246e-07,0.0,0.0,-0.00014377925,0.26390266,0.004461732,0.37808567,0.0,0.0,0.0,0.0,0.0,1.1363366e-10,1.3433702e-05,0.00023717432,2.9776716e-06,3.429395e-06,3.4339778e-06,3.35292e-05,0.008312606,0.008312786,0.011319493,0.027668186,0.027668297,0.15338257,1.9450799e-11,1.9455776e-11,3.37592e-11,0.0,0.0,5e-08,0.0,0.0,0.0,0.0,0.0,0.0,0.0,0.0,0.00026839442,0.0016947042,0.0022747382,67240471,0.23523708,0.39164087,0.026782606,0.028838005,0.012453692,0.012453692,0.0,0.0,0.0,0.0,0,0,0,895,24,0,0,0,0,0,0,0
83428858,0.95836294,-0.012384702,-0.002090041,0.2852766,0.015685456,-0.006795417,0.017260244,-0.59174424,-4.8616605,-0.23886642,6.840794e-06,8.188171e-06,-4.378519e-07,0.0,0.0,-0.00013701177,0.26390266,0.004461732,0.37808567,0.0,0.0,0.0,0.0,0.0,1.3995127e-10,1.39233825e-05,0.00023091542,2.9746382e-06,3.4296215e-06,3.4341056e-06,3.3502303e-05,0.008313751,0.008313921,0.011358954,0.027675234,0.02767535,0.15470262,1.9450648e-11,1.9455706e-11,3.373395e-11,0.0,0.0,5.000027e-08,0.0,0.0,0.0,0.0,0.0,0.0,0.0,0.0,0.00038504688,0.004846402,0.009087172,67240471,0.23526704,0.39332253,0.0528224,0.042192955,0.012085221,0.012085221,0.0,0.0,0.0,0.0,0,0,0,895,24,0,0,0,0,0,0,0
83628844,0.9584028,-0.01207406,-0.0020058865,0.28515673,0.014992122,-0.005098505,0.013755222,-0.5865898,-4.8615403,-0.24988551,6.8152995e-06,8.198305e-06,-3.7012921e-07,0.0,0.0,-0.0001336844,0.26390266,0.004461732,0.37808567,0.0,0.0,0.0,0.0,0.0,1.2494808e-10,1.3140274e-05,0.00025551798,2.9717255e-06,3.4297918e-06,3.4340535e-06,3.3475815e-05,0.008315195,0.008315363,0.011340848,0.027681222,0.027681343,0.15408525,1.9450441e-11,1.945558e-11,3.3709244e-11,0.0,0.0,5.0000178e-08,0.0,0.0,0.0,0.0,0.0,0.0,0.0,0.0,7.3963594e-05,0.00310876,0.010993796,67240471,0.23529251,0.39253694,0.009272389,0.01634019,0.013138993,0.013138993,0.0,0.0,0.0,0.0,0,0,0,895,24,0,0,0,0,0,0,0
85228916,0.9582851,-0.011829424,-0.0020535856,0.28556204,0.008154404,0.013507874,0.01704905,-0.5564792,-4.844853,-0.24144736,6.689802e-06,8.260771e-06,-6.35136e-07,0.0,0.0,-0.00013165099,0.26390266,0.004461732,0.37808567,0.0,0.0,0.0,0.0,0.0,9.2129124e-11,1.2794558e-05,0.00025887426,2.9522298e-06,3.4227376e-06,3.4270113e-06,3.327295e-05,0.008282882,0.008283032,0.011294199,0.02772242,0.027722528,0.1530044,1.943988e-11,1.944568e-11,3.35302e-11,0.0,0.0,5e-08,0.0,0.0,0.0,0.0,0.0,0.0,0.0,0.0,0.00043664698,0.0013379575,0.0052565094,67240471,0.23546751,0.39115775,0.04236218,0.007989015,0.009281641,0.009281641,0.0,0.0,0.0,0.0,0,0,0,895,24,0,0,0,0,0,0,0
85428935,0.9582825,-0.011904462,-0.0020241127,0.28556788,0.0069446214,0.009331391,0.016983667,-0.5536548,-4.8494477,-0.24252243,6.748917e-06,8.219859e-06,-6.563709e-07,0.0,0.0,-0.00012973428,0.26390266,0.004461732,0.37808567,0.0,0.0,0.0,0.0,0.0,9.3890874e-11,1.2382461e-05,0.00026396973,2.9494825e-06,3.4227012e-06,3.427007e-06,3.3249635e-05,0.008282776,0.008282927,0.011333336,0.027742954,0.027743066,0.15433408,1.9439535e-11,1.9445424e-11,3.3509993e-11,0.0,0.0,5.000027e-08,0.0,0.0,0.0,0.0,0.0,0.0,0.0,0.0,0.00035156356,0.0035087802,0.004903746,67240471,0.23555471,0.39285377,0.0016130698,0.034279924,0.008296316,0.008296316,0.0,0.0,0.0,0.0,0,0,0,895,24,0,0,0,0,0,0,0
