timestamp,gps_hvel[0],gps_hvel[1],gps_vvel,gps_hpos[0],gps_hpos[1],gps_vpos,ev_hvel[0],ev_hvel[1],ev_vvel,ev_hpos[0],ev_hpos[1],ev_vpos,fake_hvel[0],fake_hvel[1],fake_vvel,fake_hpos[0],fake_hpos[1],fake_vpos,rng_vpos,baro_vpos,aux_hvel[0],aux_hvel[1],aux_vvel,flow[0],flow[1],heading,mag_field[0],mag_field[1],mag_field[2],drag[0],drag[1],airspeed,beta,hagl
65628862,0.051790833,0.034465402,0.03379497,0.027746916,0.0070943832,0.0,0.0,0.0,0.0,0.0,0.0,0.0,nan,nan,nan,nan,nan,nan,0.0,0.26171112,0.0,0.0,nan,0.0,0.0,-0.01658088,0.0,0.0,0.0,0.0,0.0,0.0,0.0,0.0
65828849,0.03635353,-0.008402782,-0.001910571,0.02403766,0.0028777122,0.0,0.0,0.0,0.0,0.0,0.0,0.0,nan,nan,nan,nan,nan,nan,0.0,0.19790459,0.0,0.0,nan,0.0,0.0,0.02510345,0.0,0.0,0.0,0.0,0.0,0.0,0.0,0.0
66028861,0.02162163,0.0072231046,0.048324786,0.02216947,0.004210472,0.0,0.0,0.0,0.0,0.0,0.0,0.0,nan,nan,nan,nan,nan,nan,0.0,0.22939491,0.0,0.0,nan,0.0,0.0,-0.0006714463,0.0,0.0,0.0,0.0,0.0,0.0,0.0,0.0
66228849,0.0025513172,-0.008726644,0.056469016,0.021911263,0.0038990974,0.0,0.0,0.0,0.0,0.0,0.0,0.0,nan,nan,nan,nan,nan,nan,0.0,0.2372036,0.0,0.0,nan,0.0,0.0,-0.037404478,0.0,0.0,0.0,0.0,0.0,0.0,0.0,0.0
66428849,0.036471047,-0.0047484264,0.026976012,0.023843288,0.006137371,0.0,0.0,0.0,0.0,0.0,0.0,0.0,nan,nan,nan,nan,nan,nan,0.0,0.20685196,0.0,0.0,nan,0.0,0.0,-0.012359738,0.0,0.0,0.0,0.0,0.0,0.0,0.0,0.0
66628858,-0.019194337,-0.012677806,-0.04448576,0.02113229,0.00072193146,0.0,0.0,0.0,0.0,0.0,0.0,0.0,nan,nan,nan,nan,nan,nan,0.0,0.2477665,0.0,0.0,nan,0.0,0.0,0.020573199,0.0,0.0,0.0,0.0,0.0,0.0,0.0,0.0
67428849,0.04820471,0.044017345,-0.053378433,0.027975261,0.007303238,0.0,0.0,0.0,0.0,0.0,0.0,0.0,nan,nan,nan,nan,nan,nan,0.0,0.20962715,0.0,0.0,nan,0.0,0.0,-0.016773224,0.0,0.0,0.0,0.0,0.0,0.0,0.0,0.0
67828849,0.012926413,-0.0038875742,-0.04569096,0.031542182,0.0044493675,0.0,0.0,0.0,0.0,0.0,0.0,0.0,nan,nan,nan,nan,nan,nan,0.0,0.22615242,0.0,0.0,nan,0.0,0.0,-0.007053435,0.0,0.0,0.0,0.0,0.0,0.0,0.0,0.0
68028849,0.017552175,0.009179863,0.084611565,0.029336989,-0.0011548996,0.0,0.0,0.0,0.0,0.0,0.0,0.0,nan,nan,nan,nan,nan,nan,0.0,0.39484978,0.0,0.0,nan,0.0,0.0,-0.041585386,0.0,0.0,0.0,0.0,0.0,0.0,0.0,0.0
68228852,0.0135743115,-0.0109045,0.02404711,0.026492298,-0.00046348572,0.0,0.0,0.0,0.0,0.0,0.0,0.0,nan,nan,nan,nan,nan,nan,0.0,-0.0119018555,0.0,0.0,nan,0.0,0.0,0.042180598,0.0,0.0,0.0,0.0,0.0,0.0,0.0,0.0
68428849,0.0226889,0.013839345,-0.025104892,0.024009943,-0.0043005943,0.0,0.0,0.0,0.0,0.0,0.0,0.0,nan,nan,nan,nan,nan,nan,0.0,0.1568451,0.0,0.0,nan,0.0,0.0,-0.0039961934,0.0,0.0,0.0,0.0,0.0,0.0,0.0,0.0
68628849,-0.008609271,0.02889195,-0.038137764,0.03137225,-0.0035133362,0.0,0.0,0.0,0.0,0.0,0.0,0.0,nan,nan,nan,nan,nan,nan,0.0,0.048114777,0.0,0.0,nan,0.0,0.0,0.0048083067,0.0,0.0,0.0,0.0,0.0,0.0,0.0,0.0
68828849,0.010589011,-0.021373907,0.038238883,0.030489266,-0.012318134,0.0,0.0,0.0,0.0,0.0,0.0,0.0,nan,nan,nan,nan,nan,nan,0.0,0.25107574,0.0,0.0,nan,0.0,0.0,-0.00031381845,0.0,0.0,0.0,0.0,0.0,0.0,0.0,0.0
69028849,-0.009978568,0.03442748,0.015323542,0.027130723,-0.0064206123,0.0,0.0,0.0,0.0,0.0,0.0,0.0,nan,nan,nan,nan,nan,nan,0.0,0.22081184,0.0,0.0,nan,0.0,0.0,0.008888245,0.0,0.0,0.0,0.0,0.0,0.0,0.0,0.0
69228849,-0.013785945,0.032311577,-0.013387477,0.026484609,-0.0079574585,0.0,0.0,0.0,0.0,0.0,0.0,0.0,nan,nan,nan,nan,nan,nan,0.0,0.3619213,0.0,0.0,nan,0.0,0.0,-0.011885583,0.0,0.0,0.0,0.0,0.0,0.0,0.0,0.0
69428849,-0.03812989,-0.011850456,0.006036828,0.015566707,-0.009308815,0.0,0.0,0.0,0.0,0.0,0.0,0.0,nan,nan,nan,nan,nan,nan,0.0,0.41290283,0.0,0.0,nan,0.0,0.0,-0.041313827,0.0,0.0,0.0,0.0,0.0,0.0,0.0,0.0
69628889,-0.009377244,0.004893793,-0.0097113475,0.020051003,-0.0050678253,0.0,0.0,0.0,0.0,0.0,0.0,0.0,nan,nan,nan,nan,nan,nan,0.0,0.090904236,0.0,0.0,nan,0.0,0.0,0.02589345,0.0,0.0,0.0,0.0,0.0,0.0,0.0,0.0
69828849,0.026558874,-0.022891829,-0.045558337,0.021060348,-0.01028204,0.0,0.0,0.0,0.0,0.0,0.0,0.0,nan,nan,nan,nan,nan,nan,0.0,0.15694427,0.0,0.0,nan,0.0,0.0,-0.048074007,0.0,0.0,0.0,0.0,0.0,0.0,0.0,0.0
70028884,0.03937211,-0.025159633,-0.011810783,0.017476082,-0.011165619,0.0,0.0,0.0,0.0,0.0,0.0,0.0,nan,nan,nan,nan,nan,nan,0.0,0.29576874,0.0,0.0,nan,0.0,0.0,0.02869302,0.0,0.0,0.0,0.0,0.0,0.0,0.0,0.0
70228851,-0.0050971224,0.031283475,0.013495773,0.011631548,-0.01089859,0.0,0.0,0.0,0.0,0.0,0.0,0.0,nan,nan,nan,nan,nan,nan,0.0,0.11123657,0.0,0.0,nan,0.0,0.0,0.012224674,0.0,0.0,0.0,0.0,0.0,0.0,0.0,0.0
70428849,0.019724231,0.024398703,-0.029254705,0.011400223,-0.010238171,0.0,0.0,0.0,0.0,0.0,0.0,0.0,nan,nan,nan,nan,nan,nan,0.0,0.085762024,0.0,0.0,nan,0.0,0.0,-0.0067366958,0.0,0.0,0.0,0.0,0.0,0.0,0.0,0.0
70628849,0.007817883,0.02361964,-0.056728937,0.007916868,-0.008936882,0.0,0.0,0.0,0.0,0.0,0.0,0.0,nan,nan,nan,nan,nan,nan,0.0,0.103609085,0.0,0.0,nan,0.0,0.0,-0.04406309,0.0,0.0,0.0,0.0,0.0,0.0,0.0,0.0
70828849,0.021568127,-0.006652504,-0.0015328303,0.017096698,-0.007648945,0.0,0.0,0.0,0.0,0.0,0.0,0.0,nan,nan,nan,nan,nan,nan,0.0,0.18278122,0.0,0.0,nan,0.0,0.0,0.0063673854,0.0,0.0,0.0,0.0,0.0,0.0,0.0,0.0
71028854,0.011690224,0.06958196,-0.053783778,0.012082577,-0.0026474,0.0,0.0,0.0,0.0,0.0,0.0,0.0,nan,nan,nan,nan,nan,nan,0.0,0.26658058,0.0,0.0,nan,0.0,0.0,-0.038102806,0.0,0.0,0.0,0.0,0.0,0.0,0.0,0.0
71228849,0.0064434535,0.07572365,-0.06392347,0.008315682,0.0064525604,0.0,0.0,0.0,0.0,0.0,0.0,0.0,nan,nan,nan,nan,nan,nan,0.0,0.28795242,0.0,0.0,nan,0.0,0.0,-0.015010297,0.0,0.0,0.0,0.0,0.0,0.0,0.0,0.0
71428849,-0.044935785,0.0023672055,-0.030526286,0.0049743652,0.005569935,0.0,0.0,0.0,0.0,0.0,0.0,0.0,nan,nan,nan,nan,nan,nan,0.0,0.30454445,0.0,0.0,nan,0.0,0.0,0.030707061,0.0,0.0,0.0,0.0,0.0,0.0,0.0,0.0
71628851,-0.035583265,0.015725622,-0.09971149,-0.002764523,0.0061917305,0.0,0.0,0.0,0.0,0.0,0.0,0.0,nan,nan,nan,nan,nan,nan,0.0,0.14090729,0.0,0.0,nan,0.0,0.0,-0.060030222,0.0,0.0,0.0,0.0,0.0,0.0,0.0,0.0
71828893,-0.013934625,-0.00390014,-0.08176362,0.00062149763,0.0048675537,0.0,0.0,0.0,0.0,0.0,0.0,0.0,nan,nan,nan,nan,nan,nan,0.0,0.417881,0.0,0.0,nan,0.0,0.0,-0.026091754,0.0,0.0,0.0,0.0,0.0,0.0,0.0,0.0
72028849,-0.016880082,0.024762182,-0.008269188,0.0013312697,0.006134033,0.0,0.0,0.0,0.0,0.0,0.0,0.0,nan,nan,nan,nan,nan,nan,0.0,0.07777214,0.0,0.0,nan,0.0,0.0,-0.01493907,0.0,0.0,0.0,0.0,0.0,0.0,0.0,0.0
72228849,-0.0044376235,0.047125876,-0.006768658,0.0023676753,0.011187553,0.0,0.0,0.0,0.0,0.0,0.0,0.0,nan,nan,nan,nan,nan,nan,0.0,0.3230152,0.0,0.0,nan,0.0,0.0,-0.023300469,0.0,0.0,0.0,0.0,0.0,0.0,0.0,0.0
72428851,-0.018552113,0.00034029246,-0.038956013,0.0018947124,0.0123586655,0.0,0.0,0.0,0.0,0.0,0.0,0.0,nan,nan,nan,nan,nan,nan,0.0,0.11646652,0.0,0.0,nan,0.0,0.0,-0.058769763,0.0,0.0,0.0,0.0,0.0,0.0,0.0,0.0
72628850,0.0007600975,0.023541626,-0.022074295,0.0033070445,0.011490822,0.0,0.0,0.0,0.0,0.0,0.0,0.0,nan,nan,nan,nan,nan,nan,0.0,0.50644493,0.0,0.0,nan,0.0,0.0,0.016894579,0.0,0.0,0.0,0.0,0.0,0.0,0.0,0.0
72828849,-0.032587767,-0.0074342852,-0.01125483,0.0019421577,0.01519537,0.0,0.0,0.0,0.0,0.0,0.0,0.0,nan,nan,nan,nan,nan,nan,0.0,0.3087139,0.0,0.0,nan,0.0,0.0,0.0064899325,0.0,0.0,0.0,0.0,0.0,0.0,0.0,0.0
73028849,-0.0025306742,-0.008716656,-0.028606964,0.0047531724,0.007920742,0.0,0.0,0.0,0.0,0.0,0.0,0.0,nan,nan,nan,nan,nan,nan,0.0,0.26278114,0.0,0.0,nan,0.0,0.0,-0.005317867,0.0,0.0,0.0,0.0,0.0,0.0,0.0,0.0
73228876,-0.043939758,0.016947068,-0.079626545,0.0036790967,0.016304016,0.0,0.0,0.0,0.0,0.0,0.0,0.0,nan,nan,nan,nan,nan,nan,0.0,0.1814518,0.0,0.0,nan,0.0,0.0,0.07769859,0.0,0.0,0.0,0.0,0.0,0.0,0.0,0.0
73428849,0.013331781,-0.004230655,-0.02343732,0.008134007,0.013311863,0.0,0.0,0.0,0.0,0.0,0.0,0.0,nan,nan,nan,nan,nan,nan,0.0,0.36572266,0.0,0.0,nan,0.0,0.0,0.020825863,0.0,0.0,0.0,0.0,0.0,0.0,0.0,0.0
73628849,0.019480752,-0.0053270143,0.0009701736,0.005161166,0.013228416,0.0,0.0,0.0,0.0,0.0,0.0,0.0,nan,nan,nan,nan,nan,nan,0.0,0.108306885,0.0,0.0,nan,0.0,0.0,-0.021490812,0.0,0.0,0.0,0.0,0.0,0.0,0.0,0.0
73828849,-0.042436294,0.033550676,0.026977152,0.0012823939,0.020757198,0.0,0.0,0.0,0.0,0.0,0.0,0.0,nan,nan,nan,nan,nan,nan,0.0,0.24783134,0.0,0.0,nan,0.0,0.0,0.01423651,0.0,0.0,0.0,0.0,0.0,0.0,0.0,0.0
74028859,-0.028957006,0.037569996,-0.04380288,0.005323291,0.022667885,0.0,0.0,0.0,0.0,0.0,0.0,0.0,nan,nan,nan,nan,nan,nan,0.0,0.27147675,0.0,0.0,nan,0.0,0.0,-0.03560686,0.0,0.0,0.0,0.0,0.0,0.0,0.0,0.0
74228849,0.026106924,0.00079310284,-0.01836417,0.0076188445,0.023375988,0.0,0.0,0.0,0.0,0.0,0.0,0.0,nan,nan,nan,nan,nan,nan,0.0,0.20702744,0.0,0.0,nan,0.0,0.0,0.018181324,0.0,0.0,0.0,0.0,0.0,0.0,0.0,0.0
74428856,-0.015133165,-0.005015497,-0.027845377,0.002711296,0.020647526,0.0,0.0,0.0,0.0,0.0,0.0,0.0,nan,nan,nan,nan,nan,nan,0.0,0.123348236,0.0,0.0,nan,0.0,0.0,-0.022648335,0.0,0.0,0.0,0.0,0.0,0.0,0.0,0.0
74628879,-0.019241344,-0.0078000533,0.023271244,0.0030329823,0.01906395,0.0,0.0,0.0,0.0,0.0,0.0,0.0,nan,nan,nan,nan,nan,nan,0.0,0.2188034,0.0,0.0,nan,0.0,0.0,-0.07900804,0.0,0.0,0.0,0.0,0.0,0.0,0.0,0.0
74828849,0.0043302076,0.03210924,-0.029864695,0.0037449002,0.025508404,0.0,0.0,0.0,0.0,0.0,0.0,0.0,nan,nan,nan,nan,nan,nan,0.0,0.19355965,0.0,0.0,nan,0.0,0.0,-0.013732374,0.0,0.0,0.0,0.0,0.0,0.0,0.0,0.0
75028852,0.01932703,0.0036317855,-0.04227381,0.0014939308,0.026112556,0.0,0.0,0.0,0.0,0.0,0.0,0.0,nan,nan,nan,nan,nan,nan,0.0,0.0058059692,0.0,0.0,nan,0.0,0.0,-0.023628771,0.0,0.0,0.0,0.0,0.0,0.0,0.0,0.0
75228854,-0.015262876,-0.0069592698,0.032453533,0.008272052,0.022575855,0.0,0.0,0.0,0.0,0.0,0.0,0.0,nan,nan,nan,nan,nan,nan,0.0,0.20755005,0.0,0.0,nan,0.0,0.0,0.015304327,0.0,0.0,0.0,0.0,0.0,0.0,0.0,0.0
75428852,-0.007645107,0.024732389,0.031449847,0.007370949,0.027566433,0.0,0.0,0.0,0.0,0.0,0.0,0.0,nan,nan,nan,nan,nan,nan,0.0,-0.13494492,0.0,0.0,nan,0.0,0.0,0.028740108,0.0,0.0,0.0,0.0,0.0,0.0,0.0,0.0
75628852,-0.022179278,-0.006949453,0.029745948,0.0055240393,0.027874947,0.0,0.0,0.0,0.0,0.0,0.0,0.0,nan,nan,nan,nan,nan,nan,0.0,0.08807182,0.0,0.0,nan,0.0,0.0,-0.022352278,0.0,0.0,0.0,0.0,0.0,0.0,0.0,0.0
75828866,0.021300979,0.039344557,-0.03827938,0.0055606365,0.031885147,0.0,0.0,0.0,0.0,0.0,0.0,0.0,nan,nan,nan,nan,nan,nan,0.0,0.108724594,0.0,0.0,nan,0.0,0.0,0.0052028894,0.0,0.0,0.0,0.0,0.0,0.0,0.0,0.0
76028888,-0.009379048,0.0192248,0.008223217,3.4868717e-05,0.02904272,0.0,0.0,0.0,0.0,0.0,0.0,0.0,nan,nan,nan,nan,nan,nan,0.0,-0.002128601,0.0,0.0,nan,0.0,0.0,-0.0019701123,0.0,0.0,0.0,0.0,0.0,0.0,0.0,0.0
76228849,-0.027180117,-0.008231852,-0.057362854,-0.0014064908,0.028348923,0.0,0.0,0.0,0.0,0.0,0.0,0.0,nan,nan,nan,nan,nan,nan,0.0,0.23509026,0.0,0.0,nan,0.0,0.0,0.029362142,0.0,0.0,0.0,0.0,0.0,0.0,0.0,0.0
76428849,0.012042995,-0.045466494,0.02280312,-0.0009407401,0.023519993,0.0,0.0,0.0,0.0,0.0,0.0,0.0,nan,nan,nan,nan,nan,nan,0.0,0.14280319,0.0,0.0,nan,0.0,0.0,-0.028490186,0.0,0.0,0.0,0.0,0.0,0.0,0.0,0.0
76628850,0.008530076,-0.011889951,0.04704844,0.0060436726,0.024365902,0.0,0.0,0.0,0.0,0.0,0.0,0.0,nan,nan,nan,nan,nan,nan,0.0,0.055553436,0.0,0.0,nan,0.0,0.0,0.035784245,0.0,0.0,0.0,0.0,0.0,0.0,0.0,0.0
76828865,-0.053746626,0.016298722,0.00874912,0.00093603134,0.02834177,0.0,0.0,0.0,0.0,0.0,0.0,0.0,nan,nan,nan,nan,nan,nan,0.0,-0.16053009,0.0,0.0,nan,0.0,0.0,-0.00522846,0.0,0.0,0.0,0.0,0.0,0.0,0.0,0.0
77028849,-0.012574855,-0.0255403,-0.04039719,0.00410378,0.028649807,0.0,0.0,0.0,0.0,0.0,0.0,0.0,nan,nan,nan,nan,nan,nan,0.0,0.034542084,0.0,0.0,nan,0.0,0.0,0.075882494,0.0,0.0,0.0,0.0,0.0,0.0,0.0,0.0
77228853,-0.01933499,-0.03194414,0.003466093,0.0021185875,0.026753902,0.0,0.0,0.0,0.0,0.0,0.0,0.0,nan,nan,nan,nan,nan,nan,0.0,-0.03132248,0.0,0.0,nan,0.0,0.0,0.051082075,0.0,0.0,0.0,0.0,0.0,0.0,0.0,0.0
77428851,-0.0023181876,-0.009890944,0.012404444,0.0014555454,0.026141167,0.0,0.0,0.0,0.0,0.0,0.0,0.0,nan,nan,nan,nan,nan,nan,0.0,0.03302574,0.0,0.0,nan,0.0,0.0,0.045033038,0.0,0.0,0.0,0.0,0.0,0.0,0.0,0.0
77628881,-0.015541558,0.004188148,-0.044533357,-0.0014998913,0.03036356,0.0,0.0,0.0,0.0,0.0,0.0,0.0,nan,nan,nan,nan,nan,nan,0.0,0.09684181,0.0,0.0,nan,0.0,0.0,-0.045356095,0.0,0.0,0.0,0.0,0.0,0.0,0.0,0.0
77828850,-0.015558013,-0.012081003,-0.016221192,-0.002441883,0.032586098,0.0,0.0,0.0,0.0,0.0,0.0,0.0,nan,nan,nan,nan,nan,nan,0.0,0.116334915,0.0,0.0,nan,0.0,0.0,-0.004228711,0.0,0.0,0.0,0.0,0.0,0.0,0.0,0.0
78028849,-0.013057,0.02576711,-0.005246222,-0.003264606,0.036208153,0.0,0.0,0.0,0.0,0.0,0.0,0.0,nan,nan,nan,nan,nan,nan,0.0,0.0150203705,0.0,0.0,nan,0.0,0.0,-0.04852557,0.0,0.0,0.0,0.0,0.0,0.0,0.0,0.0
78228882,-0.05382372,0.021555426,-0.037325807,-0.004097283,0.034451485,0.0,0.0,0.0,0.0,0.0,0.0,0.0,nan,nan,nan,nan,nan,nan,0.0,0.21103859,0.0,0.0,nan,0.0,0.0,0.0023155808,0.0,0.0,0.0,0.0,0.0,0.0,0.0,0.0
78428859,-0.002501496,-0.038099706,-0.010157302,0.00043421984,0.02549076,0.0,0.0,0.0,0.0,0.0,0.0,0.0,nan,nan,nan,nan,nan,nan,0.0,-0.063957214,0.0,0.0,nan,0.0,0.0,-0.0043013096,0.0,0.0,0.0,0.0,0.0,0.0,0.0,0.0
78628849,-0.0200442,-0.02441154,-0.008244311,-0.0014314055,0.024663925,0.0,0.0,0.0,0.0,0.0,0.0,0.0,nan,nan,nan,nan,nan,nan,0.0,0.13147163,0.0,0.0,nan,0.0,0.0,0.01434958,0.0,0.0,0.0,0.0,0.0,0.0,0.0,0.0
78828849,-0.00040806644,0.0048299674,-0.06813951,-0.012123048,0.02234888,0.0,0.0,0.0,0.0,0.0,0.0,0.0,nan,nan,nan,nan,nan,nan,0.0,0.12155342,0.0,0.0,nan,0.0,0.0,-0.054014504,0.0,0.0,0.0,0.0,0.0,0.0,0.0,0.0
79028849,-0.008093586,0.014071303,-0.02628871,-0.012952089,0.024255276,0.0,0.0,0.0,0.0,0.0,0.0,0.0,nan,nan,nan,nan,nan,nan,0.0,0.35712242,0.0,0.0,nan,0.0,0.0,0.00728631,0.0,0.0,0.0,0.0,0.0,0.0,0.0,0.0
79228849,-0.0037364233,-0.07684378,-0.0025762264,-0.012647569,0.01728201,0.0,0.0,0.0,0.0,0.0,0.0,0.0,nan,nan,nan,nan,nan,nan,0.0,-0.0011749268,0.0,0.0,nan,0.0,0.0,0.029949844,0.0,0.0,0.0,0.0,0.0,0.0,0.0,0.0
79428849,-0.012808967,-0.0152498055,0.06568928,-0.012762845,0.014970303,0.0,0.0,0.0,0.0,0.0,0.0,0.0,nan,nan,nan,nan,nan,nan,0.0,0.035821915,0.0,0.0,nan,0.0,0.0,0.027344823,0.0,0.0,0.0,0.0,0.0,0.0,0.0,0.0
79628874,0.01626704,-0.0025603967,-0.031001806,-0.011821508,0.013330936,0.0,0.0,0.0,0.0,0.0,0.0,0.0,nan,nan,nan,nan,nan,nan,0.0,0.08481789,0.0,0.0,nan,0.0,0.0,-0.016799629,0.0,0.0,0.0,0.0,0.0,0.0,0.0,0.0
79828852,-0.09164446,-0.036843214,-0.03097003,-0.025616288,0.010632038,0.0,0.0,0.0,0.0,0.0,0.0,0.0,nan,nan,nan,nan,nan,nan,0.0,0.23945999,0.0,0.0,nan,0.0,0.0,0.026535928,0.0,0.0,0.0,0.0,0.0,0.0,0.0,0.0
80028855,-0.013405729,-0.0025948547,-0.027245168,-0.024016201,0.012916565,0.0,0.0,0.0,0.0,0.0,0.0,0.0,nan,nan,nan,nan,nan,nan,0.0,0.03909874,0.0,0.0,nan,0.0,0.0,0.029643774,0.0,0.0,0.0,0.0,0.0,0.0,0.0,0.0
80228902,0.0021935739,0.00071499473,0.03980288,-0.03134018,0.011321068,0.0,0.0,0.0,0.0,0.0,0.0,0.0,nan,nan,nan,nan,nan,nan,0.0,0.020103455,0.0,0.0,nan,0.0,0.0,-0.023964703,0.0,0.0,0.0,0.0,0.0,0.0,0.0,0.0
80428859,-0.036170155,0.014142952,-0.006017031,-0.02845788,0.016954422,0.0,0.0,0.0,0.0,0.0,0.0,0.0,nan,nan,nan,nan,nan,nan,0.0,0.10989761,0.0,0.0,nan,0.0,0.0,-0.021760464,0.0,0.0,0.0,0.0,0.0,0.0,0.0,0.0
80628857,0.00035998644,0.020248432,0.056661624,-0.031709313,0.02018261,0.0,0.0,0.0,0.0,0.0,0.0,0.0,nan,nan,nan,nan,nan,nan,0.0,0.08093834,0.0,0.0,nan,0.0,0.0,-0.057724714,0.0,0.0,0.0,0.0,0.0,0.0,0.0,0.0
80828849,-0.015065807,-0.042080373,0.020892132,-0.027561069,0.014731407,0.0,0.0,0.0,0.0,0.0,0.0,0.0,nan,nan,nan,nan,nan,nan,0.0,-0.007062912,0.0,0.0,nan,0.0,0.0,-0.016946435,0.0,0.0,0.0,0.0,0.0,0.0,0.0,0.0
81028851,0.011523499,-0.039581046,0.01528225,-0.03275776,0.010504246,0.0,0.0,0.0,0.0,0.0,0.0,0.0,nan,nan,nan,nan,nan,nan,0.0,0.080142975,0.0,0.0,nan,0.0,0.0,0.013474643,0.0,0.0,0.0,0.0,0.0,0.0,0.0,0.0
81228861,0.019921161,0.012958504,0.03503564,-0.029491901,0.014383793,0.0,0.0,0.0,0.0,0.0,0.0,0.0,nan,nan,nan,nan,nan,nan,0.0,0.040197372,0.0,0.0,nan,0.0,0.0,-0.011454999,0.0,0.0,0.0,0.0,0.0,0.0,0.0,0.0
81428849,-0.040723864,-0.013055817,0.03742557,-0.03865558,0.011512756,0.0,0.0,0.0,0.0,0.0,0.0,0.0,nan,nan,nan,nan,nan,nan,0.0,-0.09445,0.0,0.0,nan,0.0,0.0,0.034279525,0.0,0.0,0.0,0.0,0.0,0.0,0.0,0.0
81628851,-0.022974288,-0.030792883,0.023236314,-0.039166152,0.012249947,0.0,0.0,0.0,0.0,0.0,0.0,0.0,nan,nan,nan,nan,nan,nan,0.0,0.15661812,0.0,0.0,nan,0.0,0.0,-0.028210282,0.0,0.0,0.0,0.0,0.0,0.0,0.0,0.0
81828849,0.037508067,0.010470029,-0.04434046,-0.041100144,0.008289337,0.0,0.0,0.0,0.0,0.0,0.0,0.0,nan,nan,nan,nan,nan,nan,0.0,-0.022712708,0.0,0.0,nan,0.0,0.0,-0.015907168,0.0,0.0,0.0,0.0,0.0,0.0,0.0,0.0
82028850,-0.0069459006,0.029510304,0.03300828,-0.04998249,0.014421463,0.0,0.0,0.0,0.0,0.0,0.0,0.0,nan,nan,nan,nan,nan,nan,0.0,0.12141609,0.0,0.0,nan,0.0,0.0,0.11201966,0.0,0.0,0.0,0.0,0.0,0.0,0.0,0.0
82228849,0.050862804,0.020405566,-0.015365383,-0.04135096,0.017229557,0.0,0.0,0.0,0.0,0.0,0.0,0.0,nan,nan,nan,nan,nan,nan,0.0,0.1043396,0.0,0.0,nan,0.0,0.0,0.009590089,0.0,0.0,0.0,0.0,0.0,0.0,0.0,0.0
82428853,0.042002168,0.032276317,0.004650334,-0.040881515,0.020468712,0.0,0.0,0.0,0.0,0.0,0.0,0.0,nan,nan,nan,nan,nan,nan,0.0,0.23186302,0.0,0.0,nan,0.0,0.0,0.030500233,0.0,0.0,0.0,0.0,0.0,0.0,0.0,0.0
82628851,-0.033726983,-0.0156678,-0.0215771,-0.04009676,0.014018059,0.0,0.0,0.0,0.0,0.0,0.0,0.0,nan,nan,nan,nan,nan,nan,0.0,0.06707573,0.0,0.0,nan,0.0,0.0,-0.005493939,0.0,0.0,0.0,0.0,0.0,0.0,0.0,0.0
82828851,-0.0063120723,-0.025513174,-0.01665171,-0.04099077,0.013820648,0.0,0.0,0.0,0.0,0.0,0.0,0.0,nan,nan,nan,nan,nan,nan,0.0,0.15236282,0.0,0.0,nan,0.0,0.0,-0.0027053356,0.0,0.0,0.0,0.0,0.0,0.0,0.0,0.0
83028851,-0.035532705,-0.021810858,-0.052457325,-0.044885814,0.015274525,0.0,0.0,0.0,0.0,0.0,0.0,0.0,nan,nan,nan,nan,nan,nan,0.0,0.09614372,0.0,0.0,nan,0.0,0.0,-0.025438607,0.0,0.0,0.0,0.0,0.0,0.0,0.0,0.0
83228887,0.04530561,0.011325076,0.02267309,-0.032884598,0.01629591,0.0,0.0,0.0,0.0,0.0,0.0,0.0,nan,nan,nan,nan,nan,nan,0.0,0.13406372,0.0,0.0,nan,0.0,0.0,0.020907402,0.0,0.0,0.0,0.0,0.0,0.0,0.0,0.0
83428858,-0.017261742,0.06628733,0.08885257,-0.03191209,0.020432472,0.0,0.0,0.0,0.0,0.0,0.0,0.0,nan,nan,nan,nan,nan,nan,0.0,0.058778763,0.0,0.0,nan,0.0,0.0,-0.04123491,0.0,0.0,0.0,0.0,0.0,0.0,0.0,0.0
83628844,0.01211698,-0.025671499,0.025486533,-0.03469509,0.016734123,0.0,0.0,0.0,0.0,0.0,0.0,0.0,nan,nan,nan,nan,nan,nan,0.0,0.15489197,0.0,0.0,nan,0.0,0.0,0.0072383285,0.0,0.0,0.0,0.0,0.0,0.0,0.0,0.0
85228916,0.012552956,0.011155621,0.007840025,-0.024739385,0.005168915,0.0,0.0,0.0,0.0,0.0,0.0,0.0,nan,nan,nan,nan,nan,nan,0.0,0.016550064,0.0,0.0,nan,0.0,0.0,-0.033069134,0.0,0.0,0.0,0.0,0.0,0.0,0.0,0.0
85428935,0.00741422,0.05386347,0.023690749,-0.022114038,0.0059895515,0.0,0.0,0.0,0.0,0.0,0.0,0.0,nan,nan,nan,nan,nan,nan,0.0,0.06578827,0.0,0.0,nan,0.0,0.0,-0.0012592077,0.0,0.0,0.0,0.0,0.0,0.0,0.0,0.0
85628944,-0.001198662,0.0173055,0.00569776,-0.03049606,0.008323669,0.0,0.0,0.0,0.0,0.0,0.0,0.0,nan,nan,nan,nan,nan,nan,0.0,0.11788559,0.0,0.0,nan,0.0,0.0,0.047122598,0.0,0.0,0.0,0.0,0.0,0.0,0.0,0.0
85828849,-0.008125598,0.0065791057,0.006303408,-0.02582395,0.0071020126,0.0,0.0,0.0,0.0,0.0,0.0,0.0,nan,nan,nan,nan,nan,nan,0.0,0.019615173,0.0,0.0,nan,0.0,0.0,0.028547347,0.0,0.0,0.0,0.0,0.0,0.0,0.0,0.0
86028850,-0.023545895,0.016708305,-0.0017163996,-0.031964064,0.007296562,0.0,0.0,0.0,0.0,0.0,0.0,0.0,nan,nan,nan,nan,nan,nan,0.0,-0.083517075,0.0,0.0,nan,0.0,0.0,-0.016435862,0.0,0.0,0.0,0.0,0.0,0.0,0.0,0.0
86228849,0.014958268,0.011756368,-0.005233418,-0.02407968,0.0063643456,0.0,0.0,0.0,0.0,0.0,0.0,0.0,nan,nan,nan,nan,nan,nan,0.0,-0.03618431,0.0,0.0,nan,0.0,0.0,-0.032960415,0.0,0.0,0.0,0.0,0.0,0.0,0.0,0.0
86428852,-0.006781648,0.0139243305,-0.041799717,-0.03276956,0.006114006,0.0,0.0,0.0,0.0,0.0,0.0,0.0,nan,nan,nan,nan,nan,nan,0.0,-0.031202316,0.0,0.0,nan,0.0,0.0,0.025957048,0.0,0.0,0.0,0.0,0.0,0.0,0.0,0.0
86628862,0.008372208,0.00844635,0.05547166,-0.026965022,0.0058116913,0.0,0.0,0.0,0.0,0.0,0.0,0.0,nan,nan,nan,nan,nan,nan,0.0,-0.07476616,0.0,0.0,nan,0.0,0.0,0.021330118,0.0,0.0,0.0,0.0,0.0,0.0,0.0,0.0
86828849,-0.023520019,0.03015485,-0.023748085,-0.023651302,0.0061326027,0.0,0.0,0.0,0.0,0.0,0.0,0.0,nan,nan,nan,nan,nan,nan,0.0,-0.18904686,0.0,0.0,nan,0.0,0.0,-0.0032773614,0.0,0.0,0.0,0.0,0.0,0.0,0.0,0.0
87028849,-0.011755461,0.034877274,0.004418295,-0.027889132,0.010743618,0.0,0.0,0.0,0.0,0.0,0.0,0.0,nan,nan,nan,nan,nan,nan,0.0,-0.021432877,0.0,0.0,nan,0.0,0.0,0.01680547,0.0,0.0,0.0,0.0,0.0,0.0,0.0,0.0
87228849,0.016408436,0.024207197,0.05575183,-0.021802783,0.0065603256,0.0,0.0,0.0,0.0,0.0,0.0,0.0,nan,nan,nan,nan,nan,nan,0.0,0.07552147,0.0,0.0,nan,0.0,0.0,-0.00456053,0.0,0.0,0.0,0.0,0.0,0.0,0.0,0.0
87428849,-0.0032182634,-0.027569037,0.0065789353,-0.019901574,0.003460884,0.0,0.0,0.0,0.0,0.0,0.0,0.0,nan,nan,nan,nan,nan,nan,0.0,0.43264198,0.0,0.0,nan,0.0,0.0,-0.015327871,0.0,0.0,0.0,0.0,0.0,0.0,0.0,0.0
87628849,0.03748215,-0.031566948,-0.096490815,-0.015934587,-0.00018501282,0.0,0.0,0.0,0.0,0.0,0.0,0.0,nan,nan,nan,nan,nan,nan,0.0,0.19066429,0.0,0.0,nan,0.0,0.0,4.1365623e-05,0.0,0.0,0.0,0.0,0.0,0.0,0.0,0.0
87828862,-0.018093497,-0.010812961,-0.04878884,-0.006868243,-0.0020999908,0.0,0.0,0.0,0.0,0.0,0.0,0.0,nan,nan,nan,nan,nan,nan,0.0,-0.036951065,0.0,0.0,nan,0.0,0.0,0.051699698,0.0,0.0,0.0,0.0,0.0,0.0,0.0,0.0
88028849,0.029573537,0.04148583,-0.015769936,-0.003235519,0.008791447,0.0,0.0,0.0,0.0,0.0,0.0,0.0,nan,nan,nan,nan,nan,nan,0.0,0.052843094,0.0,0.0,nan,0.0,0.0,-0.008388042,0.0,0.0,0.0,0.0,0.0,0.0,0.0,0.0
88228874,-0.025780642,0.026061602,0.019640576,-0.0063126087,0.0045399666,0.0,0.0,0.0,0.0,0.0,0.0,0.0,nan,nan,nan,nan,nan,nan,0.0,-0.086977005,0.0,0.0,nan,0.0,0.0,-0.018965542,0.0,0.0,0.0,0.0,0.0,0.0,0.0,0.0
88428849,-0.0021805235,0.017642979,-0.019212773,-0.0024499893,0.002170086,0.0,0.0,0.0,0.0,0.0,0.0,0.0,nan,nan,nan,nan,nan,nan,0.0,-0.05458641,0.0,0.0,nan,0.0,0.0,-0.011648178,0.0,0.0,0.0,0.0,0.0,0.0,0.0,0.0
88628890,-0.026552873,0.012600191,0.02818591,-0.013001502,0.0008869171,0.0,0.0,0.0,0.0,0.0,0.0,0.0,nan,nan,nan,nan,nan,nan,0.0,-0.09030533,0.0,0.0,nan,0.0,0.0,0.050437808,0.0,0.0,0.0,0.0,0.0,0.0,0.0,0.0
88828854,-0.037355546,-0.010890119,0.019999765,-0.019545794,-0.0068945885,0.0,0.0,0.0,0.0,0.0,0.0,0.0,nan,nan,nan,nan,nan,nan,0.0,0.018493652,0.0,0.0,nan,0.0,0.0,-0.08481777,0.0,0.0,0.0,0.0,0.0,0.0,0.0,0.0
89028858,0.027022531,0.010554344,0.025088698,-0.012804836,-0.003390789,0.0,0.0,0.0,0.0,0.0,0.0,0.0,nan,nan,nan,nan,nan,nan,0.0,-0.18842506,0.0,0.0,nan,0.0,0.0,-0.035067797,0.0,0.0,0.0,0.0,0.0,0.0,0.0,0.0
89228849,-0.02440133,0.006110645,-0.013845431,-0.014483988,-0.002922058,0.0,0.0,0.0,0.0,0.0,0.0,0.0,nan,nan,nan,nan,nan,nan,0.0,0.10683823,0.0,0.0,nan,0.0,0.0,0.06157124,0.0,0.0,0.0,0.0,0.0,0.0,0.0,0.0
89428849,-0.006304399,-0.004732076,-0.025507854,-0.020604849,-0.0093102455,0.0,0.0,0.0,0.0,0.0,0.0,0.0,nan,nan,nan,nan,nan,nan,0.0,0.030946732,0.0,0.0,nan,0.0,0.0,0.020887554,0.0,0.0,0.0,0.0,0.0,0.0,0.0,0.0
89628864,0.009580432,0.01317829,-0.01799793,-0.01734206,-0.0056824684,0.0,0.0,0.0,0.0,0.0,0.0,0.0,nan,nan,nan,nan,nan,nan,0.0,-0.02523613,0.0,0.0,nan,0.0,0.0,-0.013324082,0.0,0.0,0.0,0.0,0.0,0.0,0.0,0.0
89828849,0.017923767,-0.008102519,0.014489131,-0.01657629,-0.00452137,0.0,0.0,0.0,0.0,0.0,0.0,0.0,nan,nan,nan,nan,nan,nan,0.0,-0.21088028,0.0,0.0,nan,0.0,0.0,-0.012906253,0.0,0.0,0.0,0.0,0.0,0.0,0.0,0.0
90028849,-0.003431385,0.036455337,0.045674823,-0.017041922,-0.0010347366,0.0,0.0,0.0,0.0,0.0,0.0,0.0,nan,nan,nan,nan,nan,nan,0.0,0.020856857,0.0,0.0,nan,0.0,0.0,-0.0023645759,0.0,0.0,0.0,0.0,0.0,0.0,0.0,0.0
90228851,0.022769235,0.047238022,-0.030475464,-0.015249789,-0.0033159256,0.0,0.0,0.0,0.0,0.0,0.0,0.0,nan,nan,nan,nan,nan,nan,0.0,0.21665192,0.0,0.0,nan,0.0,0.0,-0.016325593,0.0,0.0,0.0,0.0,0.0,0.0,0.0,0.0
90428849,0.019193623,0.015170625,-0.038960524,-0.01704362,-0.00046634674,0.0,0.0,0.0,0.0,0.0,0.0,0.0,nan,nan,nan,nan,nan,nan,0.0,0.03538704,0.0,0.0,nan,0.0,0.0,0.007843614,0.0,0.0,0.0,0.0,0.0,0.0,0.0,0.0
90628849,0.01194489,-0.0011298647,-0.048257977,-0.018904686,-0.0014715195,0.0,0.0,0.0,0.0,0.0,0.0,0.0,nan,nan,nan,nan,nan,nan,0.0,0.028392792,0.0,0.0,nan,0.0,0.0,-0.046055198,0.0,0.0,0.0,0.0,0.0,0.0,0.0,0.0
90828849,0.011200584,0.025713315,-0.058228586,-0.020159155,-0.00022602081,0.0,0.0,0.0,0.0,0.0,0.0,0.0,nan,nan,nan,nan,nan,nan,0.0,0.036872864,0.0,0.0,nan,0.0,0.0,0.065532506,0.0,0.0,0.0,0.0,0.0,0.0,0.0,0.0
91028851,-0.03034249,0.021744926,-0.05820668,-0.021536738,0.004524708,0.0,0.0,0.0,0.0,0.0,0.0,0.0,nan,nan,nan,nan,nan,nan,0.0,-0.0746994,0.0,0.0,nan,0.0,0.0,0.016757369,0.0,0.0,0.0,0.0,0.0,0.0,0.0,0.0
91228853,-0.0049862345,-0.005398409,-0.032088056,-0.028776407,-0.005537033,0.0,0.0,0.0,0.0,0.0,0.0,0.0,nan,nan,nan,nan,nan,nan,0.0,0.12689781,0.0,0.0,nan,0.0,0.0,0.0082992315,0.0,0.0,0.0,0.0,0.0,0.0,0.0,0.0
91428849,0.0077454504,-0.024598647,0.017977227,-0.027116895,-0.004302025,0.0,0.0,0.0,0.0,0.0,0.0,0.0,nan,nan,nan,nan,nan,nan,0.0,0.13357544,0.0,0.0,nan,0.0,0.0,-0.012973845,0.0,0.0,0.0,0.0,0.0,0.0,0.0,0.0
91628849,0.0007613888,0.0097215,0.043947496,-0.027346045,-0.008040905,0.0,0.0,0.0,0.0,0.0,0.0,0.0,nan,nan,nan,nan,nan,nan,0.0,0.3074932,0.0,0.0,nan,0.0,0.0,-0.008908391,0.0,0.0,0.0,0.0,0.0,0.0,0.0,0.0
91828854,-0.02984361,-0.007380881,0.0044991784,-0.02688554,-0.008237839,0.0,0.0,0.0,0.0,0.0,0.0,0.0,nan,nan,nan,nan,nan,nan,0.0,0.29999542,0.0,0.0,nan,0.0,0.0,0.02000767,0.0,0.0,0.0,0.0,0.0,0.0,0.0,0.0
93228916,-0.05041766,-0.022214849,0.010213289,-0.025022954,0.00073719025,0.0,0.0,0.0,0.0,0.0,0.0,0.0,nan,nan,nan,nan,nan,nan,0.0,-0.18219757,0.0,0.0,nan,0.0,0.0,0.00013047457,0.0,0.0,0.0,0.0,0.0,0.0,0.0,0.0
93428898,-0.01688067,-0.025321703,-0.022109918,-0.029198468,-0.004283428,0.0,0.0,0.0,0.0,0.0,0.0,0.0,nan,nan,nan,nan,nan,nan,0.0,0.13941956,0.0,0.0,nan,0.0,0.0,0.015797436,0.0,0.0,0.0,0.0,0.0,0.0,0.0,0.0
93628858,-0.0075476244,0.0062777083,-0.0025635026,-0.025403947,-0.00054883957,0.0,0.0,0.0,0.0,0.0,0.0,0.0,nan,nan,nan,nan,nan,nan,0.0,0.22620201,0.0,0.0,nan,0.0,0.0,0.03738296,0.0,0.0,0.0,0.0,0.0,0.0,0.0,0.0
93828858,-0.0055307937,0.0012366151,-0.010820478,-0.023063362,-0.0008263588,0.0,0.0,0.0,0.0,0.0,0.0,0.0,nan,nan,nan,nan,nan,nan,0.0,-0.040966034,0.0,0.0,nan,0.0,0.0,-0.0021178722,0.0,0.0,0.0,0.0,0.0,0.0,0.0,0.0
94028849,0.01335702,-0.040011805,-0.009376742,-0.021039277,-0.00061798096,0.0,0.0,0.0,0.0,0.0,0.0,0.0,nan,nan,nan,nan,nan,nan,0.0,0.15373611,0.0,0.0,nan,0.0,0.0,0.07469183,0.0,0.0,0.0,0.0,0.0,0.0,0.0,0.0
94228849,0.001629814,-0.014297832,-0.009916224,-0.021793693,-0.0020961761,0.0,0.0,0.0,0.0,0.0,0.0,0.0,nan,nan,nan,nan,nan,nan,0.0,0.11444092,0.0,0.0,nan,0.0,0.0,0.059545994,0.0,0.0,0.0,0.0,0.0,0.0,0.0,0.0
94428849,-0.008863449,0.016095286,0.03940822,-0.021451265,-0.0059142113,0.0,0.0,0.0,0.0,0.0,0.0,0.0,nan,nan,nan,nan,nan,nan,0.0,-0.015733719,0.0,0.0,nan,0.0,0.0,0.002399087,0.0,0.0,0.0,0.0,0.0,0.0,0.0,0.0
94628870,-0.008424847,0.023955699,0.034566477,-0.01979497,0.0013933182,0.0,0.0,0.0,0.0,0.0,0.0,0.0,nan,nan,nan,nan,nan,nan,0.0,0.37856293,0.0,0.0,nan,0.0,0.0,-0.022914886,0.0,0.0,0.0,0.0,0.0,0.0,0.0,0.0
94828849,0.009172909,0.016161816,0.031274177,-0.018611252,-0.00019359589,0.0,0.0,0.0,0.0,0.0,0.0,0.0,nan,nan,nan,nan,nan,nan,0.0,0.12714958,0.0,0.0,nan,0.0,0.0,-0.053178728,0.0,0.0,0.0,0.0,0.0,0.0,0.0,0.0
95028850,-0.00253056,-0.013438167,0.079069674,-0.008524835,-0.0010390282,0.0,0.0,0.0,0.0,0.0,0.0,0.0,nan,nan,nan,nan,nan,nan,0.0,0.2423172,0.0,0.0,nan,0.0,0.0,-0.03277141,0.0,0.0,0.0,0.0,0.0,0.0,0.0,0.0
95228852,-0.02956568,0.018573139,0.033050932,-0.009099156,0.0020546913,0.0,0.0,0.0,0.0,0.0,0.0,0.0,nan,nan,nan,nan,nan,nan,0.0,-0.016105652,0.0,0.0,nan,0.0,0.0,-0.0021159053,0.0,0.0,0.0,0.0,0.0,0.0,0.0,0.0
95428850,-0.048386566,-0.01543755,0.01568323,-0.0173994,0.0011467934,0.0,0.0,0.0,0.0,0.0,0.0,0.0,nan,nan,nan,nan,nan,nan,0.0,0.043182373,0.0,0.0,nan,0.0,0.0,0.011502326,0.0,0.0,0.0,0.0,0.0,0.0,0.0,0.0
95628855,-0.015277398,-0.010171259,0.04107561,-0.021573663,0.004363537,0.0,0.0,0.0,0.0,0.0,0.0,0.0,nan,nan,nan,nan,nan,nan,0.0,-0.045528412,0.0,0.0,nan,0.0,0.0,-0.03719467,0.0,0.0,0.0,0.0,0.0,0.0,0.0,0.0
95828849,0.0116510065,-0.015244713,0.068329066,-0.017981172,-0.00020170212,0.0,0.0,0.0,0.0,0.0,0.0,0.0,nan,nan,nan,nan,nan,nan,0.0,0.15164757,0.0,0.0,nan,0.0,0.0,0.00076699257,0.0,0.0,0.0,0.0,0.0,0.0,0.0,0.0
96028851,5.320029e-05,0.012068006,0.0538674,-0.018191993,-0.0032367706,0.0,0.0,0.0,0.0,0.0,0.0,0.0,nan,nan,nan,nan,nan,nan,0.0,-0.08876991,0.0,0.0,nan,0.0,0.0,-0.016013384,0.0,0.0,0.0,0.0,0.0,0.0,0.0,0.0
96228858,-0.04624526,0.018319985,-0.02374301,-0.016649336,-0.0023961067,0.0,0.0,0.0,0.0,0.0,0.0,0.0,nan,nan,nan,nan,nan,nan,0.0,0.14256859,0.0,0.0,nan,0.0,0.0,-0.038925707,0.0,0.0,0.0,0.0,0.0,0.0,0.0,0.0
96428849,-0.020804873,0.0477006,0.006551344,-0.020295322,0.005142212,0.0,0.0,0.0,0.0,0.0,0.0,0.0,nan,nan,nan,nan,nan,nan,0.0,0.18795586,0.0,0.0,nan,0.0,0.0,-0.051810026,0.0,0.0,0.0,0.0,0.0,0.0,0.0,0.0
96628849,0.039265618,0.032996003,-0.12242581,-0.015306145,0.00040769577,0.0,0.0,0.0,0.0,0.0,0.0,0.0,nan,nan,nan,nan,nan,nan,0.0,0.13671494,0.0,0.0,nan,0.0,0.0,0.031739652,0.0,0.0,0.0,0.0,0.0,0.0,0.0,0.0
96828861,0.024977868,0.02078261,0.0020002276,-0.018221736,0.0044283867,0.0,0.0,0.0,0.0,0.0,0.0,0.0,nan,nan,nan,nan,nan,nan,0.0,0.09623337,0.0,0.0,nan,0.0,0.0,0.046715677,0.0,0.0,0.0,0.0,0.0,0.0,0.0,0.0
97028895,0.036899675,0.028445289,-0.02352508,-0.019786447,0.0018749237,0.0,0.0,0.0,0.0,0.0,0.0,0.0,nan,nan,nan,nan,nan,nan,0.0,0.03202629,0.0,0.0,nan,0.0,0.0,-0.0073909163,0.0,0.0,0.0,0.0,0.0,0.0,0.0,0.0
97228849,-0.007757208,0.013614591,-0.009708814,-0.012408704,-0.0016307831,0.0,0.0,0.0,0.0,0.0,0.0,0.0,nan,nan,nan,nan,nan,nan,0.0,0.23620415,0.0,0.0,nan,0.0,0.0,-0.036581933,0.0,0.0,0.0,0.0,0.0,0.0,0.0,0.0
97428884,0.022928035,0.005329808,-0.06482679,-0.011447996,-0.0036025047,0.0,0.0,0.0,0.0,0.0,0.0,0.0,nan,nan,nan,nan,nan,nan,0.0,0.010471344,0.0,0.0,nan,0.0,0.0,-0.017205894,0.0,0.0,0.0,0.0,0.0,0.0,0.0,0.0
97628853,0.044824928,0.03907836,-0.08997012,-0.014569312,-0.00457716,0.0,0.0,0.0,0.0,0.0,0.0,0.0,nan,nan,nan,nan,nan,nan,0.0,0.25192833,0.0,0.0,nan,0.0,0.0,-0.029930651,0.0,0.0,0.0,0.0,0.0,0.0,0.0,0.0
97828849,0.009172685,0.0044367895,-0.050836526,-0.010068834,-0.009749889,0.0,0.0,0.0,0.0,0.0,0.0,0.0,nan,nan,nan,nan,nan,nan,0.0,0.123636246,0.0,0.0,nan,0.0,0.0,-0.016996205,0.0,0.0,0.0,0.0,0.0,0.0,0.0,0.0
98028850,0.00870697,0.031086592,-0.023331355,-0.013278753,-0.010515213,0.0,0.0,0.0,0.0,0.0,0.0,0.0,nan,nan,nan,nan,nan,nan,0.0,0.11673355,0.0,0.0,nan,0.0,0.0,0.017817259,0.0,0.0,0.0,0.0,0.0,0.0,0.0,0.0
98228895,-0.04900706,-0.001769363,-0.018936655,-0.01627022,-0.0077137947,0.0,0.0,0.0,0.0,0.0,0.0,0.0,nan,nan,nan,nan,nan,nan,0.0,0.075330734,0.0,0.0,nan,0.0,0.0,-0.015831232,0.0,0.0,0.0,0.0,0.0,0.0,0.0,0.0
98428849,0.0008098157,-0.010237297,-0.09613472,-0.022767216,-0.01530695,0.0,0.0,0.0,0.0,0.0,0.0,0.0,nan,nan,nan,nan,nan,nan,0.0,-0.05791664,0.0,0.0,nan,0.0,0.0,0.0350765,0.0,0.0,0.0,0.0,0.0,0.0,0.0,0.0
98628849,0.041644376,-0.01811842,-0.0016877204,-0.012580365,-0.020774364,0.0,0.0,0.0,0.0,0.0,0.0,0.0,nan,nan,nan,nan,nan,nan,0.0,0.15728378,0.0,0.0,nan,0.0,0.0,0.023191214,0.0,0.0,0.0,0.0,0.0,0.0,0.0,0.0
98828852,-0.0068554822,-0.032471985,0.016439665,-0.020196855,-0.02448845,0.0,0.0,0.0,0.0,0.0,0.0,0.0,nan,nan,nan,nan,nan,nan,0.0,0.15904427,0.0,0.0,nan,0.0,0.0,0.035743892,0.0,0.0,0.0,0.0,0.0,0.0,0.0,0.0
99028852,-0.04449966,-0.038012553,0.02870804,-0.021399051,-0.025207996,0.0,0.0,0.0,0.0,0.0,0.0,0.0,nan,nan,nan,nan,nan,nan,0.0,0.19707108,0.0,0.0,nan,0.0,0.0,-0.0062779784,0.0,0.0,0.0,0.0,0.0,0.0,0.0,0.0
99228849,0.013152547,0.009266666,0.025886819,-0.016951293,-0.024332047,0.0,0.0,0.0,0.0,0.0,0.0,0.0,nan,nan,nan,nan,nan,nan,0.0,0.0074443817,0.0,0.0,nan,0.0,0.0,0.006956339,0.0,0.0,0.0,0.0,0.0,0.0,0.0,0.0
100628849,-0.008646416,-0.0025502546,0.03648438,-0.02934894,-0.024839878,0.0,0.0,0.0,0.0,0.0,0.0,0.0,nan,nan,nan,nan,nan,nan,0.0,0.08395004,0.0,0.0,nan,0.0,0.0,0.009927213,0.0,0.0,0.0,0.0,0.0,0.0,0.0,0.0
100828859,0.021701679,0.0046060737,0.0088860225,-0.027845085,-0.018447876,0.0,0.0,0.0,0.0,0.0,0.0,0.0,nan,nan,nan,nan,nan,nan,0.0,0.28853798,0.0,0.0,nan,0.0,0.0,0.008097768,0.0,0.0,0.0,0.0,0.0,0.0,0.0,0.0
101028851,-0.0033256626,0.016707733,-0.027748767,-0.030298233,-0.02081728,0.0,0.0,0.0,0.0,0.0,0.0,0.0,nan,nan,nan,nan,nan,nan,0.0,0.2730484,0.0,0.0,nan,0.0,0.0,0.00096958876,0.0,0.0,0.0,0.0,0.0,0.0,0.0,0.0
101228890,-0.022418551,-0.00903644,-7.93729e-05,-0.039954126,-0.017625809,0.0,0.0,0.0,0.0,0.0,0.0,0.0,nan,nan,nan,nan,nan,nan,0.0,0.15992737,0.0,0.0,nan,0.0,0.0,0.047703803,0.0,0.0,0.0,0.0,0.0,0.0,0.0,0.0
101428853,0.02495076,0.041781828,-0.005644437,-0.035100102,-0.010481834,0.0,0.0,0.0,0.0,0.0,0.0,0.0,nan,nan,nan,nan,nan,nan,0.0,0.24766922,0.0,0.0,nan,0.0,0.0,0.044247746,0.0,0.0,0.0,0.0,0.0,0.0,0.0,0.0
101628849,-0.0050235,0.029781273,-0.052829493,-0.036648214,-0.010406971,0.0,0.0,0.0,0.0,0.0,0.0,0.0,nan,nan,nan,nan,nan,nan,0.0,0.015510559,0.0,0.0,nan,0.0,0.0,0.019226551,0.0,0.0,0.0,0.0,0.0,0.0,0.0,0.0
101828881,-0.046747245,-0.02708368,0.019878844,-0.04469964,-0.017246246,0.0,0.0,0.0,0.0,0.0,0.0,0.0,nan,nan,nan,nan,nan,nan,0.0,-0.031259537,0.0,0.0,nan,0.0,0.0,-0.046008527,0.0,0.0,0.0,0.0,0.0,0.0,0.0,0.0
102028852,-0.027115215,0.023279393,0.009062084,-0.046369195,-0.015232086,0.0,0.0,0.0,0.0,0.0,0.0,0.0,nan,nan,nan,nan,nan,nan,0.0,0.25871277,0.0,0.0,nan,0.0,0.0,-0.059653163,0.0,0.0,0.0,0.0,0.0,0.0,0.0,0.0
102228856,-0.013743633,0.018242884,0.0219172,-0.04910916,-0.012735367,0.0,0.0,0.0,0.0,0.0,0.0,0.0,nan,nan,nan,nan,nan,nan,0.0,0.2577572,0.0,0.0,nan,0.0,0.0,0.037637055,0.0,0.0,0.0,0.0,0.0,0.0,0.0,0.0
102428849,-0.03137503,0.005981026,0.02316825,-0.041538954,-0.017152786,0.0,0.0,0.0,0.0,0.0,0.0,0.0,nan,nan,nan,nan,nan,nan,0.0,0.16824341,0.0,0.0,nan,0.0,0.0,0.04334736,0.0,0.0,0.0,0.0,0.0,0.0,0.0,0.0
102628849,-0.013991162,-0.012535268,0.053020626,-0.042707354,-0.01185894,0.0,0.0,0.0,0.0,0.0,0.0,0.0,nan,nan,nan,nan,nan,nan,0.0,0.0117836,0.0,0.0,nan,0.0,0.0,0.023873031,0.0,0.0,0.0,0.0,0.0,0.0,0.0,0.0
102828849,0.0014993437,0.012392691,-0.036757655,-0.04495287,-0.012356281,0.0,0.0,0.0,0.0,0.0,0.0,0.0,nan,nan,nan,nan,nan,nan,0.0,-0.09073448,0.0,0.0,nan,0.0,0.0,-0.01905173,0.0,0.0,0.0,0.0,0.0,0.0,0.0,0.0
103028857,0.03467955,0.0067148022,0.015322339,-0.03711766,-0.0077848434,0.0,0.0,0.0,0.0,0.0,0.0,0.0,nan,nan,nan,nan,nan,nan,0.0,-0.0051002502,0.0,0.0,nan,0.0,0.0,-0.015656173,0.0,0.0,0.0,0.0,0.0,0.0,0.0,0.0
103228897,0.003775781,0.028767563,0.038388513,-0.04532361,-0.0031905174,0.0,0.0,0.0,0.0,0.0,0.0,0.0,nan,nan,nan,nan,nan,nan,0.0,0.008102417,0.0,0.0,nan,0.0,0.0,0.019226968,0.0,0.0,0.0,0.0,0.0,0.0,0.0,0.0
103428851,0.004703842,0.046470992,-0.014553802,-0.03728801,-0.0022072792,0.0,0.0,0.0,0.0,0.0,0.0,0.0,nan,nan,nan,nan,nan,nan,0.0,0.068740845,0.0,0.0,nan,0.0,0.0,0.03143269,0.0,0.0,0.0,0.0,0.0,0.0,0.0,0.0
103628854,0.009302654,0.023181284,-0.044638485,-0.041252404,0.003481388,0.0,0.0,0.0,0.0,0.0,0.0,0.0,nan,nan,nan,nan,nan,nan,0.0,0.17498207,0.0,0.0,nan,0.0,0.0,-0.014697015,0.0,0.0,0.0,0.0,0.0,0.0,0.0,0.0
103828849,0.005159905,-0.0059570074,0.01565894,-0.033774972,0.0034685135,0.0,0.0,0.0,0.0,0.0,0.0,0.0,nan,nan,nan,nan,nan,nan,0.0,-0.121017456,0.0,0.0,nan,0.0,0.0,-0.033635676,0.0,0.0,0.0,0.0,0.0,0.0,0.0,0.0
104028849,0.043806903,0.032984596,-0.068083525,-0.037685215,0.0001578331,0.0,0.0,0.0,0.0,0.0,0.0,0.0,nan,nan,nan,nan,nan,nan,0.0,0.19768715,0.0,0.0,nan,0.0,0.0,0.0030463934,0.0,0.0,0.0,0.0,0.0,0.0,0.0,0.0
104228854,0.017088652,0.05262701,-0.094898,-0.035220116,0.0062098503,0.0,0.0,0.0,0.0,0.0,0.0,0.0,nan,nan,nan,nan,nan,nan,0.0,0.038679123,0.0,0.0,nan,0.0,0.0,-0.0012261868,0.0,0.0,0.0,0.0,0.0,0.0,0.0,0.0
104428857,0.031522512,0.007852201,-0.019964872,-0.04025665,0.0011725426,0.0,0.0,0.0,0.0,0.0,0.0,0.0,nan,nan,nan,nan,nan,nan,0.0,-0.004125595,0.0,0.0,nan,0.0,0.0,0.025369942,0.0,0.0,0.0,0.0,0.0,0.0,0.0,0.0
104628852,0.040580824,0.006712178,-0.02342667,-0.035725296,0.0016160011,0.0,0.0,0.0,0.0,0.0,0.0,0.0,nan,nan,nan,nan,nan,nan,0.0,0.29485512,0.0,0.0,nan,0.0,0.0,0.0552029,0.0,0.0,0.0,0.0,0.0,0.0,0.0,0.0
104828849,0.045649085,0.041258544,-0.007546886,-0.03341782,0.009468079,0.0,0.0,0.0,0.0,0.0,0.0,0.0,nan,nan,nan,nan,nan,nan,0.0,0.2651291,0.0,0.0,nan,0.0,0.0,-0.0043396354,0.0,0.0,0.0,0.0,0.0,0.0,0.0,0.0
105028852,0.003598936,-0.01842464,0.038791656,-0.03229648,0.0040302277,0.0,0.0,0.0,0.0,0.0,0.0,0.0,nan,nan,nan,nan,nan,nan,0.0,0.11271286,0.0,0.0,nan,0.0,0.0,0.026157796,0.0,0.0,0.0,0.0,0.0,0.0,0.0,0.0
105228849,0.0007264763,-0.024657488,-0.019396741,-0.036887944,0.0058341026,0.0,0.0,0.0,0.0,0.0,0.0,0.0,nan,nan,nan,nan,nan,nan,0.0,0.15436554,0.0,0.0,nan,0.0,0.0,0.027682483,0.0,0.0,0.0,0.0,0.0,0.0,0.0,0.0
105428896,0.04167541,0.027844131,-0.0113992905,-0.029541165,0.0016765594,0.0,0.0,0.0,0.0,0.0,0.0,0.0,nan,nan,nan,nan,nan,nan,0.0,0.13078117,0.0,0.0,nan,0.0,0.0,0.019746125,0.0,0.0,0.0,0.0,0.0,0.0,0.0,0.0
105628853,0.0013472345,0.012247506,-0.032040216,-0.028563678,0.005785942,0.0,0.0,0.0,0.0,0.0,0.0,0.0,nan,nan,nan,nan,nan,nan,0.0,0.2816639,0.0,0.0,nan,0.0,0.0,-0.043146074,0.0,0.0,0.0,0.0,0.0,0.0,0.0,0.0
105828849,0.034731492,0.031862587,0.028522797,-0.021810591,0.010337353,0.0,0.0,0.0,0.0,0.0,0.0,0.0,nan,nan,nan,nan,nan,nan,0.0,0.12521744,0.0,0.0,nan,0.0,0.0,0.0004581213,0.0,0.0,0.0,0.0,0.0,0.0,0.0,0.0
106028852,0.0390715,0.01076553,-0.010581736,-0.020488232,0.004105091,0.0,0.0,0.0,0.0,0.0,0.0,0.0,nan,nan,nan,nan,nan,nan,0.0,0.25315857,0.0,0.0,nan,0.0,0.0,0.0030357242,0.0,0.0,0.0,0.0,0.0,0.0,0.0,0.0
106228849,0.022571484,0.022167973,-0.044794597,-0.02064702,0.007951736,0.0,0.0,0.0,0.0,0.0,0.0,0.0,nan,nan,nan,nan,nan,nan,0.0,0.108760834,0.0,0.0,nan,0.0,0.0,-0.010172248,0.0,0.0,0.0,0.0,0.0,0.0,0.0,0.0
106428852,0.0047598938,-0.008802942,0.031190883,-0.018607765,0.008565426,0.0,0.0,0.0,0.0,0.0,0.0,0.0,nan,nan,nan,nan,nan,nan,0.0,0.01909256,0.0,0.0,nan,0.0,0.0,-0.009986639,0.0,0.0,0.0,0.0,0.0,0.0,0.0,0.0
106628849,0.06885059,0.014935546,-0.066604935,-0.01499176,0.013286114,0.0,0.0,0.0,0.0,0.0,0.0,0.0,nan,nan,nan,nan,nan,nan,0.0,-0.076553345,0.0,0.0,nan,0.0,0.0,0.030027688,0.0,0.0,0.0,0.0,0.0,0.0,0.0,0.0
106828875,0.016748404,-0.025289709,-0.016478168,-0.020802349,0.007042408,0.0,0.0,0.0,0.0,0.0,0.0,0.0,nan,nan,nan,nan,nan,nan,0.0,0.074798584,0.0,0.0,nan,0.0,0.0,0.028535843,0.0,0.0,0.0,0.0,0.0,0.0,0.0,0.0
107028849,0.02110853,-0.02637317,0.005227727,-0.01945883,-0.0018005371,0.0,0.0,0.0,0.0,0.0,0.0,0.0,nan,nan,nan,nan,nan,nan,0.0,0.07100105,0.0,0.0,nan,0.0,0.0,0.0021176338,0.0,0.0,0.0,0.0,0.0,0.0,0.0,0.0
107228849,0.027070187,0.01719179,-0.0022685397,-0.019281209,-0.0019154549,0.0,0.0,0.0,0.0,0.0,0.0,0.0,nan,nan,nan,nan,nan,nan,0.0,0.17630386,0.0,0.0,nan,0.0,0.0,0.02163124,0.0,0.0,0.0,0.0,0.0,0.0,0.0,0.0
107428849,0.020204745,0.0055334326,-0.038312875,-0.020660251,-0.00013637543,0.0,0.0,0.0,0.0,0.0,0.0,0.0,nan,nan,nan,nan,nan,nan,0.0,0.287735,0.0,0.0,nan,0.0,0.0,0.072595,0.0,0.0,0.0,0.0,0.0,0.0,0.0,0.0
107628849,-0.007626785,-0.048231177,0.041676432,-0.021291226,-0.012339592,0.0,0.0,0.0,0.0,0.0,0.0,0.0,nan,nan,nan,nan,nan,nan,0.0,-0.19966316,0.0,0.0,nan,0.0,0.0,0.02634114,0.0,0.0,0.0,0.0,0.0,0.0,0.0,0.0
107828853,-0.020284282,-0.018534617,0.05867736,-0.02975297,-0.0087533,0.0,0.0,0.0,0.0,0.0,0.0,0.0,nan,nan,nan,nan,nan,nan,0.0,0.3359909,0.0,0.0,nan,0.0,0.0,-0.0062114,0.0,0.0,0.0,0.0,0.0,0.0,0.0,0.0
108028849,0.025181971,-0.0030550305,0.007923201,-0.024289608,-0.016326904,0.0,0.0,0.0,0.0,0.0,0.0,0.0,nan,nan,nan,nan,nan,nan,0.0,-0.06509018,0.0,0.0,nan,0.0,0.0,0.0060531497,0.0,0.0,0.0,0.0,0.0,0.0,0.0,0.0
108228874,0.02017649,0.005028527,0.012452379,-0.024983257,-0.010903358,0.0,0.0,0.0,0.0,0.0,0.0,0.0,nan,nan,nan,nan,nan,nan,0.0,0.22289276,0.0,0.0,nan,0.0,0.0,-0.01745212,0.0,0.0,0.0,0.0,0.0,0.0,0.0,0.0
108428849,-0.022377169,-0.0470704,-0.03883905,-0.03666967,-0.021255493,0.0,0.0,0.0,0.0,0.0,0.0,0.0,nan,nan,nan,nan,nan,nan,0.0,0.11852074,0.0,0.0,nan,0.0,0.0,-0.031178832,0.0,0.0,0.0,0.0,0.0,0.0,0.0,0.0
108628863,0.06943629,-0.0004541492,-0.07300312,-0.01959902,-0.016758442,0.0,0.0,0.0,0.0,0.0,0.0,0.0,nan,nan,nan,nan,nan,nan,0.0,0.09467125,0.0,0.0,nan,0.0,0.0,0.03639865,0.0,0.0,0.0,0.0,0.0,0.0,0.0,0.0
108828849,0.015917428,-0.012118671,-0.025696691,-0.027534127,-0.018209934,0.0,0.0,0.0,0.0,0.0,0.0,0.0,nan,nan,nan,nan,nan,nan,0.0,0.006046295,0.0,0.0,nan,0.0,0.0,0.0059649944,0.0,0.0,0.0,0.0,0.0,0.0,0.0,0.0
109028852,-0.052919652,0.009893268,0.0018271133,-0.028751016,-0.018144608,0.0,0.0,0.0,0.0,0.0,0.0,0.0,nan,nan,nan,nan,nan,nan,0.0,0.07035828,0.0,0.0,nan,0.0,0.0,-0.018697977,0.0,0.0,0.0,0.0,0.0,0.0,0.0,0.0
109228849,0.0025164015,0.004885426,-0.024090942,-0.03186333,-0.021113396,0.0,0.0,0.0,0.0,0.0,0.0,0.0,nan,nan,nan,nan,nan,nan,0.0,-0.092063904,0.0,0.0,nan,0.0,0.0,0.043661058,0.0,0.0,0.0,0.0,0.0,0.0,0.0,0.0
109428849,0.02314686,-0.019224191,0.0059645865,-0.019200861,-0.023418427,0.0,0.0,0.0,0.0,0.0,0.0,0.0,nan,nan,nan,nan,nan,nan,0.0,-0.02911377,0.0,0.0,nan,0.0,0.0,0.024129927,0.0,0.0,0.0,0.0,0.0,0.0,0.0,0.0
109628884,-0.036176763,-0.0042426214,0.021732666,-0.02203533,-0.022231102,0.0,0.0,0.0,0.0,0.0,0.0,0.0,nan,nan,nan,nan,nan,nan,0.0,-0.052541733,0.0,0.0,nan,0.0,0.0,0.028610468,0.0,0.0,0.0,0.0,0.0,0.0,0.0,0.0
109828849,-0.0043375115,-0.020508317,-0.03262631,-0.028116107,-0.030431747,0.0,0.0,0.0,0.0,0.0,0.0,0.0,nan,nan,nan,nan,nan,nan,0.0,0.15955734,0.0,0.0,nan,0.0,0.0,-0.042081237,0.0,0.0,0.0,0.0,0.0,0.0,0.0,0.0
110028849,0.008943386,-0.007460966,0.0032194927,-0.026476681,-0.028128624,0.0,0.0,0.0,0.0,0.0,0.0,0.0,nan,nan,nan,nan,nan,nan,0.0,0.2028656,0.0,0.0,nan,0.0,0.0,-0.01549381,0.0,0.0,0.0,0.0,0.0,0.0,0.0,0.0
110228849,0.0018210178,-0.0020733764,-0.026269441,-0.015923351,-0.027166843,0.0,0.0,0.0,0.0,0.0,0.0,0.0,nan,nan,nan,nan,nan,nan,0.0,-0.110155106,0.0,0.0,nan,0.0,0.0,-0.024791598,0.0,0.0,0.0,0.0,0.0,0.0,0.0,0.0
110428852,-0.005687675,0.022353753,0.0050326735,-0.01659134,-0.027273655,0.0,0.0,0.0,0.0,0.0,0.0,0.0,nan,nan,nan,nan,nan,nan,0.0,0.120119095,0.0,0.0,nan,0.0,0.0,-0.020338893,0.0,0.0,0.0,0.0,0.0,0.0,0.0,0.0
110628849,-0.009318842,0.01554442,0.00081962533,-0.016470075,-0.02344656,0.0,0.0,0.0,0.0,0.0,0.0,0.0,nan,nan,nan,nan,nan,nan,0.0,-0.1150589,0.0,0.0,nan,0.0,0.0,0.0046395063,0.0,0.0,0.0,0.0,0.0,0.0,0.0,0.0
110828858,0.0049283328,-0.03325475,-0.022765622,-0.016440243,-0.026192665,0.0,0.0,0.0,0.0,0.0,0.0,0.0,nan,nan,nan,nan,nan,nan,0.0,0.22088432,0.0,0.0,nan,0.0,0.0,0.029654443,0.0,0.0,0.0,0.0,0.0,0.0,0.0,0.0
111628852,-0.07946028,-0.037908178,0.059263907,-0.020954162,-0.020207882,0.0,0.0,0.0,0.0,0.0,0.0,0.0,nan,nan,nan,nan,nan,nan,0.0,0.24322319,0.0,0.0,nan,0.0,0.0,0.0038240552,0.0,0.0,0.0,0.0,0.0,0.0,0.0,0.0
111828899,0.028092798,0.013125958,-0.045376785,-0.010703981,-0.015025616,0.0,0.0,0.0,0.0,0.0,0.0,0.0,nan,nan,nan,nan,nan,nan,0.0,-0.028968811,0.0,0.0,nan,0.0,0.0,-0.030540228,0.0,0.0,0.0,0.0,0.0,0.0,0.0,0.0
112028867,0.021297546,-0.013268938,-0.060969234,-0.003607899,-0.009450436,0.0,0.0,0.0,0.0,0.0,0.0,0.0,nan,nan,nan,nan,nan,nan,0.0,-0.002986908,0.0,0.0,nan,0.0,0.0,0.012688518,0.0,0.0,0.0,0.0,0.0,0.0,0.0,0.0
112228849,-0.024627507,-0.0376312,-0.044407938,-0.008616298,-0.0147948265,0.0,0.0,0.0,0.0,0.0,0.0,0.0,nan,nan,nan,nan,nan,nan,0.0,0.02435112,0.0,0.0,nan,0.0,0.0,0.07202697,0.0,0.0,0.0,0.0,0.0,0.0,0.0,0.0
112428856,-0.010422489,-0.028475473,0.025862135,-0.007254392,-0.01620245,0.0,0.0,0.0,0.0,0.0,0.0,0.0,nan,nan,nan,nan,nan,nan,0.0,0.16780663,0.0,0.0,nan,0.0,0.0,0.002989173,0.0,0.0,0.0,0.0,0.0,0.0,0.0,0.0
112628849,-0.010953192,0.012553901,-0.0042192247,-0.0075410604,-0.010584354,0.0,0.0,0.0,0.0,0.0,0.0,0.0,nan,nan,nan,nan,nan,nan,0.0,0.063640594,0.0,0.0,nan,0.0,0.0,0.023025155,0.0,0.0,0.0,0.0,0.0,0.0,0.0,0.0
112828852,-0.010230968,0.025990892,0.03010472,-0.007981032,-0.0027079582,0.0,0.0,0.0,0.0,0.0,0.0,0.0,nan,nan,nan,nan,nan,nan,0.0,-0.046821594,0.0,0.0,nan,0.0,0.0,0.015748203,0.0,0.0,0.0,0.0,0.0,0.0,0.0,0.0
113028849,-0.02250525,0.011988652,-0.10088219,-0.008086264,-0.005091667,0.0,0.0,0.0,0.0,0.0,0.0,0.0,nan,nan,nan,nan,nan,nan,0.0,0.09272194,0.0,0.0,nan,0.0,0.0,0.051799953,0.0,0.0,0.0,0.0,0.0,0.0,0.0,0.0
113228871,-0.0030935244,0.015078414,-0.0880145,-0.0060318112,0.0013170242,0.0,0.0,0.0,0.0,0.0,0.0,0.0,nan,nan,nan,nan,nan,nan,0.0,0.0603714,0.0,0.0,nan,0.0,0.0,0.057493627,0.0,0.0,0.0,0.0,0.0,0.0,0.0,0.0
113428849,0.012530808,0.01799583,-0.03978152,-0.0071694553,3.528595e-05,0.0,0.0,0.0,0.0,0.0,0.0,0.0,nan,nan,nan,nan,nan,nan,0.0,-0.096494675,0.0,0.0,nan,0.0,0.0,-0.006896615,0.0,0.0,0.0,0.0,0.0,0.0,0.0,0.0
113828899,-0.006678815,-0.01436635,-0.01908367,-0.0021353364,0.00021266937,0.0,0.0,0.0,0.0,0.0,0.0,0.0,nan,nan,nan,nan,nan,nan,0.0,0.13066673,0.0,0.0,nan,0.0,0.0,0.06529534,0.0,0.0,0.0,0.0,0.0,0.0,0.0,0.0
114028852,0.003758099,-0.0055516656,-0.0639885,-0.004300624,0.0029063225,0.0,0.0,0.0,0.0,0.0,0.0,0.0,nan,nan,nan,nan,nan,nan,0.0,0.16021729,0.0,0.0,nan,0.0,0.0,9.10759e-05,0.0,0.0,0.0,0.0,0.0,0.0,0.0,0.0
114228851,-0.013368918,0.02627863,0.0052483846,-0.007536024,0.011995316,0.0,0.0,0.0,0.0,0.0,0.0,0.0,nan,nan,nan,nan,nan,nan,0.0,0.03504944,0.0,0.0,nan,0.0,0.0,0.00689739,0.0,0.0,0.0,0.0,0.0,0.0,0.0,0.0
114428849,-0.0561337,0.013163993,-0.0044462103,-0.008253843,0.015525341,0.0,0.0,0.0,0.0,0.0,0.0,0.0,nan,nan,nan,nan,nan,nan,0.0,0.22642517,0.0,0.0,nan,0.0,0.0,0.0032783747,0.0,0.0,0.0,0.0,0.0,0.0,0.0,0.0
114628851,-0.029235458,-0.024492137,-0.051819284,-0.014030635,0.012599945,0.0,0.0,0.0,0.0,0.0,0.0,0.0,nan,nan,nan,nan,nan,nan,0.0,0.04643631,0.0,0.0,nan,0.0,0.0,-0.001273036,0.0,0.0,0.0,0.0,0.0,0.0,0.0,0.0
114828849,-0.036674775,-0.012756265,-0.02054619,-0.011418015,0.015452385,0.0,0.0,0.0,0.0,0.0,0.0,0.0,nan,nan,nan,nan,nan,nan,0.0,0.1170311,0.0,0.0,nan,0.0,0.0,0.032693684,0.0,0.0,0.0,0.0,0.0,0.0,0.0,0.0
115028849,-0.03213047,-0.024166966,0.0023170207,-0.0072594285,0.009241581,0.0,0.0,0.0,0.0,0.0,0.0,0.0,nan,nan,nan,nan,nan,nan,0.0,0.23937225,0.0,0.0,nan,0.0,0.0,-0.011321306,0.0,0.0,0.0,0.0,0.0,0.0,0.0,0.0
115228856,-0.021470401,0.024972368,-0.05301305,-0.014644176,0.012880325,0.0,0.0,0.0,0.0,0.0,0.0,0.0,nan,nan,nan,nan,nan,nan,0.0,0.055570602,0.0,0.0,nan,0.0,0.0,-0.009266198,0.0,0.0,0.0,0.0,0.0,0.0,0.0,0.0
115428862,0.03603335,0.034308247,0.04106624,-0.000116318464,0.017276764,0.0,0.0,0.0,0.0,0.0,0.0,0.0,nan,nan,nan,nan,nan,nan,0.0,0.28439713,0.0,0.0,nan,0.0,0.0,0.006029308,0.0,0.0,0.0,0.0,0.0,0.0,0.0,0.0
115628857,-0.025855124,0.014639284,-0.0025542118,-0.0055549443,0.019713879,0.0,0.0,0.0,0.0,0.0,0.0,0.0,nan,nan,nan,nan,nan,nan,0.0,0.1948986,0.0,0.0,nan,0.0,0.0,0.02719009,0.0,0.0,0.0,0.0,0.0,0.0,0.0,0.0
115828849,0.03936033,0.010483649,-0.0119774155,-0.0025330782,0.016662598,0.0,0.0,0.0,0.0,0.0,0.0,0.0,nan,nan,nan,nan,nan,nan,0.0,0.09112358,0.0,0.0,nan,0.0,0.0,0.010359287,0.0,0.0,0.0,0.0,0.0,0.0,0.0,0.0
116028842,-0.005539527,-0.0043692817,0.10419035,0.0029024482,0.014091969,0.0,0.0,0.0,0.0,0.0,0.0,0.0,nan,nan,nan,nan,nan,nan,0.0,0.17865181,0.0,0.0,nan,0.0,0.0,0.049548328,0.0,0.0,0.0,0.0,0.0,0.0,0.0,0.0
116228859,-0.0011221585,0.006288718,0.037443895,0.002158463,0.020867348,0.0,0.0,0.0,0.0,0.0,0.0,0.0,nan,nan,nan,nan,nan,nan,0.0,0.029743195,0.0,0.0,nan,0.0,0.0,-0.018176258,0.0,0.0,0.0,0.0,0.0,0.0,0.0,0.0
116428853,0.029221263,0.010626978,0.009878443,0.0010058284,0.018249989,0.0,0.0,0.0,0.0,0.0,0.0,0.0,nan,nan,nan,nan,nan,nan,0.0,-0.1588459,0.0,0.0,nan,0.0,0.0,-0.016707718,0.0,0.0,0.0,0.0,0.0,0.0,0.0,0.0
116628853,-0.017200187,-0.022843387,0.026724063,-0.004327953,0.015217304,0.0,0.0,0.0,0.0,0.0,0.0,0.0,nan,nan,nan,nan,nan,nan,0.0,0.03042984,0.0,0.0,nan,0.0,0.0,0.0019152164,0.0,0.0,0.0,0.0,0.0,0.0,0.0,0.0
116828910,0.0055666096,0.011840517,-0.05250099,-0.003418684,0.017088413,0.0,0.0,0.0,0.0,0.0,0.0,0.0,nan,nan,nan,nan,nan,nan,0.0,0.06318283,0.0,0.0,nan,0.0,0.0,-0.023923159,0.0,0.0,0.0,0.0,0.0,0.0,0.0,0.0
117028892,-0.01512756,0.002243438,-0.053082354,-0.0051692724,0.013989449,0.0,0.0,0.0,0.0,0.0,0.0,0.0,nan,nan,nan,nan,nan,nan,0.0,0.07314491,0.0,0.0,nan,0.0,0.0,-0.014769971,0.0,0.0,0.0,0.0,0.0,0.0,0.0,0.0
117228926,0.032543797,-0.01752186,0.018414112,0.006943941,0.00510931,0.0,0.0,0.0,0.0,0.0,0.0,0.0,nan,nan,nan,nan,nan,nan,0.0,-0.051309586,0.0,0.0,nan,0.0,0.0,-0.0097750425,0.0,0.0,0.0,0.0,0.0,0.0,0.0,0.0
117428850,-0.009182585,0.06576827,0.015809475,0.00032812357,0.014505863,0.0,0.0,0.0,0.0,0.0,0.0,0.0,nan,nan,nan,nan,nan,nan,0.0,-0.11343193,0.0,0.0,nan,0.0,0.0,-0.0045134425,0.0,0.0,0.0,0.0,0.0,0.0,0.0,0.0
117628849,-0.011430321,0.0051028496,0.05661252,-0.0002837181,0.011657238,0.0,0.0,0.0,0.0,0.0,0.0,0.0,nan,nan,nan,nan,nan,nan,0.0,0.13666344,0.0,0.0,nan,0.0,0.0,0.0088175535,0.0,0.0,0.0,0.0,0.0,0.0,0.0,0.0
117828849,-0.017881975,-0.02219908,0.0065236883,-0.00069227815,0.009294033,0.0,0.0,0.0,0.0,0.0,0.0,0.0,nan,nan,nan,nan,nan,nan,0.0,0.055538177,0.0,0.0,nan,0.0,0.0,-0.0694077,0.0,0.0,0.0,0.0,0.0,0.0,0.0,0.0
120028849,-0.005207899,-0.0077651055,0.013935609,-0.018960506,0.0032629967,0.0,0.0,0.0,0.0,0.0,0.0,0.0,nan,nan,nan,nan,nan,nan,0.0,-0.10306549,0.0,0.0,nan,0.0,0.0,0.01756686,0.0,0.0,0.0,0.0,0.0,0.0,0.0,0.0
120228849,0.001991908,0.024890173,-0.00692329,-0.006234616,0.005104542,0.0,0.0,0.0,0.0,0.0,0.0,0.0,nan,nan,nan,nan,nan,nan,0.0,0.086452484,0.0,0.0,nan,0.0,0.0,-0.0040940046,0.0,0.0,0.0,0.0,0.0,0.0,0.0,0.0
120428868,0.00063197676,0.012516433,-0.028017469,-0.006453216,0.002216339,0.0,0.0,0.0,0.0,0.0,0.0,0.0,nan,nan,nan,nan,nan,nan,0.0,-0.09755516,0.0,0.0,nan,0.0,0.0,-0.031641603,0.0,0.0,0.0,0.0,0.0,0.0,0.0,0.0
120628885,0.010467077,0.022292715,-0.013703994,-0.0062867105,0.008219242,0.0,0.0,0.0,0.0,0.0,0.0,0.0,nan,nan,nan,nan,nan,nan,0.0,0.23861313,0.0,0.0,nan,0.0,0.0,-0.019594073,0.0,0.0,0.0,0.0,0.0,0.0,0.0,0.0
120828899,-0.022475883,0.050973102,-0.055860512,-0.0079060495,0.01286602,0.0,0.0,0.0,0.0,0.0,0.0,0.0,nan,nan,nan,nan,nan,nan,0.0,-0.10874939,0.0,0.0,nan,0.0,0.0,0.011288881,0.0,0.0,0.0,0.0,0.0,0.0,0.0,0.0
121028849,-0.011296532,0.008841854,-0.019767096,-0.0051830113,0.012949467,0.0,0.0,0.0,0.0,0.0,0.0,0.0,nan,nan,nan,nan,nan,nan,0.0,-0.017004013,0.0,0.0,nan,0.0,0.0,-0.013195932,0.0,0.0,0.0,0.0,0.0,0.0,0.0,0.0
121228849,0.030282501,0.004731027,0.0008538589,-0.0037105978,0.01035738,0.0,0.0,0.0,0.0,0.0,0.0,0.0,nan,nan,nan,nan,nan,nan,0.0,0.0015411377,0.0,0.0,nan,0.0,0.0,0.049414158,0.0,0.0,0.0,0.0,0.0,0.0,0.0,0.0
121428850,-0.0035636346,0.0003171122,0.029978532,0.0031076372,0.008482933,0.0,0.0,0.0,0.0,0.0,0.0,0.0,nan,nan,nan,nan,nan,nan,0.0,0.0007953644,0.0,0.0,nan,0.0,0.0,-0.02355516,0.0,0.0,0.0,0.0,0.0,0.0,0.0,0.0
121628849,-0.00492042,0.0006132395,0.010715027,0.0020266473,0.0075411797,0.0,0.0,0.0,0.0,0.0,0.0,0.0,nan,nan,nan,nan,nan,nan,0.0,0.14685059,0.0,0.0,nan,0.0,0.0,-0.012349367,0.0,0.0,0.0,0.0,0.0,0.0,0.0,0.0
121828886,-0.024496906,0.0076365853,0.024054896,0.0014390945,0.0065541267,0.0,0.0,0.0,0.0,0.0,0.0,0.0,nan,nan,nan,nan,nan,nan,0.0,-0.104473114,0.0,0.0,nan,0.0,0.0,0.05214411,0.0,0.0,0.0,0.0,0.0,0.0,0.0,0.0
122428849,-0.031801578,-0.043448947,0.046091642,-0.0014739633,-0.0076503754,0.0,0.0,0.0,0.0,0.0,0.0,0.0,nan,nan,nan,nan,nan,nan,0.0,0.1574707,0.0,0.0,nan,0.0,0.0,0.022599757,0.0,0.0,0.0,0.0,0.0,0.0,0.0,0.0
122628862,0.01690629,0.042690627,0.057304934,0.0032838285,-0.00048542023,0.0,0.0,0.0,0.0,0.0,0.0,0.0,nan,nan,nan,nan,nan,nan,0.0,0.10587311,0.0,0.0,nan,0.0,0.0,0.0024245977,0.0,0.0,0.0,0.0,0.0,0.0,0.0,0.0
122828852,-0.01276772,0.014951154,-0.05010646,0.001462996,-0.0051021576,0.0,0.0,0.0,0.0,0.0,0.0,0.0,nan,nan,nan,nan,nan,nan,0.0,-0.03215027,0.0,0.0,nan,0.0,0.0,-0.019246638,0.0,0.0,0.0,0.0,0.0,0.0,0.0,0.0
123028849,0.012587344,-0.012626441,-0.027483393,0.0034601986,-0.005885601,0.0,0.0,0.0,0.0,0.0,0.0,0.0,nan,nan,nan,nan,nan,nan,0.0,0.10135841,0.0,0.0,nan,0.0,0.0,0.018433273,0.0,0.0,0.0,0.0,0.0,0.0,0.0,0.0
123228863,-0.03722731,0.009781983,-0.004943815,0.0018153191,-0.009960175,0.0,0.0,0.0,0.0,0.0,0.0,0.0,nan,nan,nan,nan,nan,nan,0.0,0.12358475,0.0,0.0,nan,0.0,0.0,0.007303655,0.0,0.0,0.0,0.0,0.0,0.0,0.0,0.0
123428858,-0.014093474,0.018879084,0.032528915,-0.0036845803,-0.0022854805,0.0,0.0,0.0,0.0,0.0,0.0,0.0,nan,nan,nan,nan,nan,nan,0.0,0.07408142,0.0,0.0,nan,0.0,0.0,0.012851179,0.0,0.0,0.0,0.0,0.0,0.0,0.0,0.0
123628849,-0.014777776,-0.017598696,0.02796907,-0.00028294325,-0.010846138,0.0,0.0,0.0,0.0,0.0,0.0,0.0,nan,nan,nan,nan,nan,nan,0.0,-0.15867805,0.0,0.0,nan,0.0,0.0,0.019096196,0.0,0.0,0.0,0.0,0.0,0.0,0.0,0.0
123828852,-0.016044525,0.019078849,-0.012266022,-0.008271575,-0.006190777,0.0,0.0,0.0,0.0,0.0,0.0,0.0,nan,nan,nan,nan,nan,nan,0.0,0.1392479,0.0,0.0,nan,0.0,0.0,0.010031879,0.0,0.0,0.0,0.0,0.0,0.0,0.0,0.0
124028849,-0.017720789,0.03997986,0.07302951,-0.003612876,0.000395298,0.0,0.0,0.0,0.0,0.0,0.0,0.0,nan,nan,nan,nan,nan,nan,0.0,0.0033912659,0.0,0.0,nan,0.0,0.0,0.009217799,0.0,0.0,0.0,0.0,0.0,0.0,0.0,0.0
124228849,0.03200555,0.015539143,-0.028062413,0.0009830594,0.003273964,0.0,0.0,0.0,0.0,0.0,0.0,0.0,nan,nan,nan,nan,nan,nan,0.0,0.17527199,0.0,0.0,nan,0.0,0.0,0.052285492,0.0,0.0,0.0,0.0,0.0,0.0,0.0,0.0
124428849,0.010025303,-0.018185334,-0.04678956,-0.0013438165,0.0015611649,0.0,0.0,0.0,0.0,0.0,0.0,0.0,nan,nan,nan,nan,nan,nan,0.0,0.013736725,0.0,0.0,nan,0.0,0.0,-0.01928538,0.0,0.0,0.0,0.0,0.0,0.0,0.0,0.0
124628854,0.015561987,0.01782267,0.025854457,0.010259569,0.0043182373,0.0,0.0,0.0,0.0,0.0,0.0,0.0,nan,nan,nan,nan,nan,nan,0.0,0.36590576,0.0,0.0,nan,0.0,0.0,-0.01604706,0.0,0.0,0.0,0.0,0.0,0.0,0.0,0.0
124828852,0.024325665,-0.010501113,-0.06174253,0.008627951,0.0021529198,0.0,0.0,0.0,0.0,0.0,0.0,0.0,nan,nan,nan,nan,nan,nan,0.0,0.07480621,0.0,0.0,nan,0.0,0.0,0.04768449,0.0,0.0,0.0,0.0,0.0,0.0,0.0,0.0
125028849,0.01509952,-0.025627457,-0.0045387726,0.005621344,0.0039129257,0.0,0.0,0.0,0.0,0.0,0.0,0.0,nan,nan,nan,nan,nan,nan,0.0,0.12074852,0.0,0.0,nan,0.0,0.0,-0.001958251,0.0,0.0,0.0,0.0,0.0,0.0,0.0,0.0
125228851,0.009082667,-0.0049455566,0.012405481,0.015304357,8.6307526e-05,0.0,0.0,0.0,0.0,0.0,0.0,0.0,nan,nan,nan,nan,nan,nan,0.0,0.07878113,0.0,0.0,nan,0.0,0.0,-0.0014289021,0.0,0.0,0.0,0.0,0.0,0.0,0.0,0.0
125428852,-0.033892788,0.04070888,0.001927645,0.013225883,0.009241581,0.0,0.0,0.0,0.0,0.0,0.0,0.0,nan,nan,nan,nan,nan,nan,0.0,-0.1523571,0.0,0.0,nan,0.0,0.0,0.0012177229,0.0,0.0,0.0,0.0,0.0,0.0,0.0,0.0
125628852,-0.022849813,-0.0019004988,-0.003065695,0.00560382,0.0042977333,0.0,0.0,0.0,0.0,0.0,0.0,0.0,nan,nan,nan,nan,nan,nan,0.0,-0.04219246,0.0,0.0,nan,0.0,0.0,0.036854446,0.0,0.0,0.0,0.0,0.0,0.0,0.0,0.0
125828853,0.014437664,-0.008948713,0.075271234,0.009239912,0.0044908524,0.0,0.0,0.0,0.0,0.0,0.0,0.0,nan,nan,nan,nan,nan,nan,0.0,-0.07653046,0.0,0.0,nan,0.0,0.0,-0.0021888614,0.0,0.0,0.0,0.0,0.0,0.0,0.0,0.0
126028857,0.009114932,0.0121490685,0.025731698,0.007590711,0.0058908463,0.0,0.0,0.0,0.0,0.0,0.0,0.0,nan,nan,nan,nan,nan,nan,0.0,-0.18700218,0.0,0.0,nan,0.0,0.0,0.01628977,0.0,0.0,0.0,0.0,0.0,0.0,0.0,0.0
126228849,0.0006133148,0.01256286,-0.0033070561,0.0063185394,0.004737854,0.0,0.0,0.0,0.0,0.0,0.0,0.0,nan,nan,nan,nan,nan,nan,0.0,0.19003296,0.0,0.0,nan,0.0,0.0,-0.0053566694,0.0,0.0,0.0,0.0,0.0,0.0,0.0,0.0
126428901,0.021163516,0.011444609,0.00050369045,0.017568886,0.0030369759,0.0,0.0,0.0,0.0,0.0,0.0,0.0,nan,nan,nan,nan,nan,nan,0.0,0.08579826,0.0,0.0,nan,0.0,0.0,0.05313444,0.0,0.0,0.0,0.0,0.0,0.0,0.0,0.0
126628874,0.0034153757,-0.022812432,0.05639537,0.013820052,0.0011315346,0.0,0.0,0.0,0.0,0.0,0.0,0.0,nan,nan,nan,nan,nan,nan,0.0,0.2256813,0.0,0.0,nan,0.0,0.0,0.03159082,0.0,0.0,0.0,0.0,0.0,0.0,0.0,0.0
126828897,0.0012926585,-0.025566215,0.07803535,0.012104988,0.004155159,0.0,0.0,0.0,0.0,0.0,0.0,0.0,nan,nan,nan,nan,nan,nan,0.0,-0.16298103,0.0,0.0,nan,0.0,0.0,-0.01708734,0.0,0.0,0.0,0.0,0.0,0.0,0.0,0.0
127028849,-0.00211166,-0.013409652,-0.018333169,0.010445714,0.0005340576,0.0,0.0,0.0,0.0,0.0,0.0,0.0,nan,nan,nan,nan,nan,nan,0.0,-0.04966736,0.0,0.0,nan,0.0,0.0,0.031116247,0.0,0.0,0.0,0.0,0.0,0.0,0.0,0.0
127228860,0.00027043838,0.009307327,-0.106431864,0.009474665,0.002896309,0.0,0.0,0.0,0.0,0.0,0.0,0.0,nan,nan,nan,nan,nan,nan,0.0,0.13332939,0.0,0.0,nan,0.0,0.0,0.055049658,0.0,0.0,0.0,0.0,0.0,0.0,0.0,0.0
127428894,0.011172657,0.02527836,-0.057483006,0.007940024,0.002482891,0.0,0.0,0.0,0.0,0.0,0.0,0.0,nan,nan,nan,nan,nan,nan,0.0,-0.004837036,0.0,0.0,nan,0.0,0.0,-0.007923901,0.0,0.0,0.0,0.0,0.0,0.0,0.0,0.0
127628862,-0.009912158,-0.012245393,0.014445445,0.0049042404,-2.861023e-05,0.0,0.0,0.0,0.0,0.0,0.0,0.0,nan,nan,nan,nan,nan,nan,0.0,-0.08484459,0.0,0.0,nan,0.0,0.0,-0.04379034,0.0,0.0,0.0,0.0,0.0,0.0,0.0,0.0
127828852,0.011916222,0.008453417,-0.07709837,0.0045733154,0.0028467178,0.0,0.0,0.0,0.0,0.0,0.0,0.0,nan,nan,nan,nan,nan,nan,0.0,0.075941086,0.0,0.0,nan,0.0,0.0,-0.020972073,0.0,0.0,0.0,0.0,0.0,0.0,0.0,0.0
128028849,0.001994376,0.0062748957,-0.002022896,0.012664914,0.0024929047,0.0,0.0,0.0,0.0,0.0,0.0,0.0,nan,nan,nan,nan,nan,nan,0.0,-0.13051796,0.0,0.0,nan,0.0,0.0,0.015209079,0.0,0.0,0.0,0.0,0.0,0.0,0.0,0.0
128228854,-0.011381486,0.036961768,-0.039655715,0.010043442,0.002295971,0.0,0.0,0.0,0.0,0.0,0.0,0.0,nan,nan,nan,nan,nan,nan,0.0,-0.14318275,0.0,0.0,nan,0.0,0.0,0.023561478,0.0,0.0,0.0,0.0,0.0,0.0,0.0,0.0
128428858,-0.042758174,-0.037844025,0.021133775,0.009127945,-0.0017676353,0.0,0.0,0.0,0.0,0.0,0.0,0.0,nan,nan,nan,nan,nan,nan,0.0,0.004283905,0.0,0.0,nan,0.0,0.0,0.014990509,0.0,0.0,0.0,0.0,0.0,0.0,0.0,0.0
128628849,-0.00070020976,-0.014409452,0.03875396,0.0016596317,-0.0029249191,0.0,0.0,0.0,0.0,0.0,0.0,0.0,nan,nan,nan,nan,nan,nan,0.0,0.1264267,0.0,0.0,nan,0.0,0.0,0.0007878542,0.0,0.0,0.0,0.0,0.0,0.0,0.0,0.0
128828851,0.011374954,-0.0004895441,0.009596406,0.012168288,0.00095796585,0.0,0.0,0.0,0.0,0.0,0.0,0.0,nan,nan,nan,nan,nan,nan,0.0,0.12573433,0.0,0.0,nan,0.0,0.0,-0.054560065,0.0,0.0,0.0,0.0,0.0,0.0,0.0,0.0
129028849,-0.04009887,-0.008674819,-0.0026243273,0.009101331,0.0026607513,0.0,0.0,0.0,0.0,0.0,0.0,0.0,nan,nan,nan,nan,nan,nan,0.0,0.0630455,0.0,0.0,nan,0.0,0.0,0.037327528,0.0,0.0,0.0,0.0,0.0,0.0,0.0,0.0
129228849,-0.04423263,-0.03468813,0.015505651,0.0019913316,-0.0019001961,0.0,0.0,0.0,0.0,0.0,0.0,0.0,nan,nan,nan,nan,nan,nan,0.0,-0.0021896362,0.0,0.0,nan,0.0,0.0,0.009161174,0.0,0.0,0.0,0.0,0.0,0.0,0.0,0.0
129428849,-0.030208977,0.056265563,0.001275952,0.0077641904,0.005738735,0.0,0.0,0.0,0.0,0.0,0.0,0.0,nan,nan,nan,nan,nan,nan,0.0,0.18530464,0.0,0.0,nan,0.0,0.0,-0.021843433,0.0,0.0,0.0,0.0,0.0,0.0,0.0,0.0
129628854,0.005428157,-0.030779086,-0.030263256,0.0011823475,0.00031518936,0.0,0.0,0.0,0.0,0.0,0.0,0.0,nan,nan,nan,nan,nan,nan,0.0,0.042617798,0.0,0.0,nan,0.0,0.0,0.021091878,0.0,0.0,0.0,0.0,0.0,0.0,0.0,0.0
129828888,0.026928462,0.028837254,0.039570116,0.012663573,0.0070724487,0.0,0.0,0.0,0.0,0.0,0.0,0.0,nan,nan,nan,nan,nan,nan,0.0,0.33090782,0.0,0.0,nan,0.0,0.0,-0.010906458,0.0,0.0,0.0,0.0,0.0,0.0,0.0,0.0
130028849,0.016815137,0.033822544,0.050773136,0.008901179,0.013022423,0.0,0.0,0.0,0.0,0.0,0.0,0.0,nan,nan,nan,nan,nan,nan,0.0,0.19755173,0.0,0.0,nan,0.0,0.0,0.0060438514,0.0,0.0,0.0,0.0,0.0,0.0,0.0,0.0
130228854,-0.039773263,-0.031646866,0.052216027,0.0067840815,0.0020594597,0.0,0.0,0.0,0.0,0.0,0.0,0.0,nan,nan,nan,nan,nan,nan,0.0,0.020282745,0.0,0.0,nan,0.0,0.0,-0.021201193,0.0,0.0,0.0,0.0,0.0,0.0,0.0,0.0
130428886,-0.013802993,-0.008067571,-0.010279545,0.0011512041,0.0006108284,0.0,0.0,0.0,0.0,0.0,0.0,0.0,nan,nan,nan,nan,nan,nan,0.0,0.13014603,0.0,0.0,nan,0.0,0.0,0.0050597787,0.0,0.0,0.0,0.0,0.0,0.0,0.0,0.0
130628897,-0.0016949959,0.019979695,0.008365904,0.004168004,0.0042791367,0.0,0.0,0.0,0.0,0.0,0.0,0.0,nan,nan,nan,nan,nan,nan,0.0,0.08477974,0.0,0.0,nan,0.0,0.0,-0.017192364,0.0,0.0,0.0,0.0,0.0,0.0,0.0,0.0
130828849,-0.0056441734,0.011469593,-0.05306605,0.005662918,0.004058838,0.0,0.0,0.0,0.0,0.0,0.0,0.0,nan,nan,nan,nan,nan,nan,0.0,0.047813416,0.0,0.0,nan,0.0,0.0,0.056425035,0.0,0.0,0.0,0.0,0.0,0.0,0.0,0.0
131028849,-0.0029484695,0.010052346,0.013745381,0.007925779,0.004356861,0.0,0.0,0.0,0.0,0.0,0.0,0.0,nan,nan,nan,nan,nan,nan,0.0,-0.035173416,0.0,0.0,nan,0.0,0.0,-0.056041777,0.0,0.0,0.0,0.0,0.0,0.0,0.0,0.0
131228849,0.031402282,0.015814686,0.022694351,0.010020733,0.00452137,0.0,0.0,0.0,0.0,0.0,0.0,0.0,nan,nan,nan,nan,nan,nan,0.0,-0.23163414,0.0,0.0,nan,0.0,0.0,0.055637777,0.0,0.0,0.0,0.0,0.0,0.0,0.0,0.0
131428853,0.012705388,0.019050518,-0.0066782683,0.0182828,0.0038318634,0.0,0.0,0.0,0.0,0.0,0.0,0.0,nan,nan,nan,nan,nan,nan,0.0,-0.07568741,0.0,0.0,nan,0.0,0.0,-0.044414043,0.0,0.0,0.0,0.0,0.0,0.0,0.0,0.0
131628852,-0.003493749,-0.014683779,-0.0142704155,0.016284257,-0.0044350624,0.0,0.0,0.0,0.0,0.0,0.0,0.0,nan,nan,nan,nan,nan,nan,0.0,-0.046447754,0.0,0.0,nan,0.0,0.0,-0.01335156,0.0,0.0,0.0,0.0,0.0,0.0,0.0,0.0
