timestamp,timestamp_sample,accel_device_id,gyro_device_id,delta_angle[0],delta_angle[1],delta_angle[2],delta_velocity[0],delta_velocity[1],delta_velocity[2],delta_angle_dt,delta_velocity_dt,delta_velocity_clipping
66129510,66128849,2359330,2359330,3.7036967e-05,8.149781e-06,-3.875473e-06,0.00024846377,0.0012461676,-0.048974056,5000,5000,0
66629484,66628858,2359330,2359330,-5.853704e-07,-5.754623e-06,6.939923e-07,0.000120818804,0.0012699404,-0.04920107,5009,5009,0
68129417,68128849,2359330,2359330,1.612611e-05,3.8031135e-06,-3.2816233e-06,7.697135e-05,0.0012699547,-0.049248397,5000,5000,0
68629454,68628849,2359330,2359330,2.1610564e-05,1.578222e-05,-9.181496e-06,7.217008e-05,0.0010892664,-0.049016107,5000,5000,0
69129476,69128849,2359330,2359330,6.040203e-06,1.9568704e-07,-1.0571102e-05,0.00012326984,0.0013373696,-0.04904725,5000,5000,0
69629502,69628889,2359330,2359330,-2.6557978e-05,5.532873e-06,1.065711e-05,0.00012102196,0.0012112848,-0.04902268,5000,5000,0
70129481,70128849,2359330,2359330,-5.3446274e-06,-9.4348746e-07,-6.252912e-07,0.00010852882,0.0012831823,-0.049011976,4994,4994,0
70629444,70628849,2359330,2359330,1.77528e-05,6.141815e-06,-1.12371035e-05,6.1129984e-05,0.0010999179,-0.04918969,5000,5000,0
71129445,71128849,2359330,2359330,2.8619195e-05,-3.4856396e-06,-2.0074558e-06,8.670937e-05,0.001410347,-0.048954953,5000,5000,0
71629486,71628851,2359330,2359330,-3.2783468e-05,3.415051e-07,5.1763936e-06,5.8741167e-05,0.0012394531,-0.049169954,5002,5002,0
72129478,72128849,2359330,2359330,-2.963373e-05,9.551128e-06,1.40492975e-05,0.00017550793,0.0012211645,-0.04898855,5000,5000,0
72629473,72628850,2359330,2359330,7.011665e-05,4.444117e-06,-8.172229e-06,9.803279e-05,0.0014065803,-0.049024243,5000,5000,0
73129414,73128854,2359330,2359330,1.2416965e-05,1.1956321e-05,-1.2613626e-05,0.00010936612,0.0013474829,-0.049011525,5005,5005,0
73629479,73628849,2359330,2359330,-1.1053095e-05,-7.2460216e-06,-3.8928106e-06,3.3364122e-05,0.0012790207,-0.04937692,4999,4999,0
74129478,74128849,2359330,2359330,-1.1756725e-06,7.5328785e-06,3.0988733e-06,0.00020917706,0.0011850371,-0.049142644,4998,4998,0
74629462,74628879,2359330,2359330,-8.859308e-06,4.4641392e-06,-1.8946823e-06,0.0001318019,0.0013247925,-0.04920508,5012,5012,0
75129490,75128852,2359330,2359330,-3.5464393e-05,-1.3709682e-06,1.6691788e-06,7.202341e-05,0.0012882174,-0.049151402,4995,4995,0
75629444,75628852,2359330,2359330,-1.0204889e-05,-8.097445e-06,6.500215e-07,0.00015855378,0.0012575266,-0.049219485,4999,4999,0
76129457,76128864,2359330,2359330,2.3201546e-05,1.0371101e-05,-4.2882275e-06,0.0001868047,0.0012232978,-0.049199183,5015,5015,0
76629518,76628850,2359330,2359330,5.1340417e-06,5.7546863e-06,-3.8488574e-06,0.00012108753,0.0013004745,-0.049026944,4998,4998,0
77129481,77128849,2359330,2359330,-2.611282e-05,-6.3266352e-06,1.6666175e-07,0.00018341011,0.0011376298,-0.049141936,5000,5000,0
77629556,77628881,2359330,2359330,-6.1072815e-06,6.7917745e-06,4.270087e-06,9.721364e-05,0.0012529304,-0.04935691,5032,5032,0
78129509,78128899,2359330,2359330,1.970483e-05,9.895944e-06,-5.7855127e-06,0.00019916553,0.001160648,-0.0494028,5048,5048,0
78629444,78628849,2359330,2359330,6.945855e-06,3.4187071e-06,1.618534e-06,0.00017245083,0.0012342946,-0.04909207,4998,4998,0
79129454,79128849,2359330,2359330,-1.6395858e-05,9.224804e-06,4.2768565e-06,0.000121552504,0.00134771,-0.04908414,5000,5000,0
79629576,79628874,2359330,2359330,1.3178496e-05,6.624206e-06,-8.354057e-06,0.0001370137,0.0012835697,-0.04898588,5001,5001,0
80129508,80128852,2359330,2359330,9.403898e-06,-3.2437026e-06,2.3688808e-06,0.00016101376,0.0012456893,-0.04872632,4962,4962,0
80629577,80628857,2359330,2359330,2.2836195e-05,6.764931e-06,-6.331035e-06,0.00012037873,0.0013572563,-0.0491834,5006,5006,0
81129456,81128859,2359330,2359330,-3.6587132e-06,4.89362e-06,-8.6766595e-06,0.00016304539,0.001300408,-0.04909732,5010,5010,0
81629430,81628851,2359330,2359330,-1.7615808e-06,1.0722397e-05,4.316299e-06,0.00025050752,0.0012609547,-0.04904532,5002,5002,0
82129545,82128852,2359330,2359330,8.3974965e-06,-1.9896813e-06,-4.7639264e-06,0.00014133392,0.00124303,-0.049105667,5003,5003,0
82629478,82628851,2359330,2359330,1.4683531e-05,7.2521148e-06,3.3974266e-06,0.00021731171,0.001246855,-0.049017373,4984,4984,0
83129506,83128849,2359330,2359330,-3.1590685e-07,9.486826e-06,-2.9982018e-06,0.00012774789,0.0012290132,-0.049098767,4995,4995,0
83629449,83628844,2359330,2359330,-7.674359e-06,2.5479278e-06,7.99774e-06,0.00015026615,0.0011894818,-0.049051777,4991,4991,0
85129530,85128897,2359330,2359330,5.0869858e-06,3.9035135e-06,-5.381817e-06,7.4402364e-05,0.0013134857,-0.04922912,5002,5002,0
85629603,85628944,2359330,2359330,8.425238e-06,1.0005148e-05,-9.908189e-06,0.00015840848,0.0013057188,-0.049071275,5009,5009,0
86129551,86128849,2359330,2359330,8.2269835e-06,3.7119528e-06,1.8303047e-06,0.0002209177,0.0012378942,-0.049017172,5000,5000,0
86629591,86628862,2359330,2359330,-2.1286729e-05,4.942629e-06,2.9740927e-06,0.00010020401,0.0012651435,-0.04908963,5013,5013,0
87129505,87128849,2359330,2359330,-1.0472317e-05,3.2558908e-06,1.3083047e-05,0.000102233185,0.0012026437,-0.049110003,5000,5000,0
87629477,87628849,2359330,2359330,-1.4446093e-06,-1.6064628e-07,1.0986675e-05,0.00011008599,0.0011485865,-0.04917671,5000,5000,0
88129526,88128871,2359330,2359330,-3.308389e-05,-9.381643e-06,3.6061153e-06,0.0001391095,0.0012886917,-0.04934187,5020,5020,0
88629480,88628890,2359330,2359330,8.48608e-05,5.8500527e-06,-4.465688e-06,-3.3217555e-05,0.0012497684,-0.049453266,5041,5041,0
89129446,89128849,2359330,2359330,-2.4438745e-05,6.720865e-06,-2.796813e-07,0.00011863977,0.0015423215,-0.04913779,5000,5000,0
89629428,89628864,2359330,2359330,-5.039872e-05,2.6963908e-06,1.3268281e-05,0.00016164951,0.0012593294,-0.04922821,5011,5011,0
90129482,90128849,2359330,2359330,-2.0209143e-05,3.496983e-06,9.329904e-06,0.0001607852,0.0012955646,-0.048753235,4992,4992,0
90629498,90628849,2359330,2359330,-4.5845198e-07,1.209143e-05,-5.408864e-07,0.00014483476,0.0013790863,-0.048626136,4959,4959,0
91129486,91128852,2359330,2359330,-5.367287e-07,6.420068e-06,5.204884e-06,0.00012751932,0.0011693388,-0.04906381,5000,5000,0
91629475,91628849,2359330,2359330,-2.3043303e-06,9.469056e-06,-5.3247604e-06,6.388651e-05,0.0011350118,-0.049017716,5000,5000,0
93129598,93128899,2359330,2359330,2.9582527e-06,-1.4691915e-06,6.5934196e-06,0.0001102608,0.0012869535,-0.049110968,5008,5008,0
93629604,93628858,2359330,2359330,-1.6521457e-05,-1.1385015e-07,1.3479284e-05,0.0001363111,0.001085049,-0.049146626,5009,5009,0
94129523,94128849,2359330,2359330,4.1286774e-05,3.050041e-06,-6.0789152e-06,6.711556e-05,0.0011947482,-0.04916025,5000,5000,0
94629560,94628870,2359330,2359330,1.7635026e-05,3.9664556e-06,-2.9009477e-06,0.00013883522,0.0011504493,-0.049193516,5016,5016,0
95129549,95128849,2359330,2359330,3.9910387e-06,8.070569e-06,-4.6254963e-06,4.982774e-05,0.0010729836,-0.048670407,4965,4965,0
95629555,95628855,2359330,2359330,7.2634306e-05,1.4873778e-05,-9.708118e-06,0.00010065781,0.0012314719,-0.04906791,5006,5006,0
96129552,96128849,2359330,2359330,6.2325664e-05,-9.916985e-07,-9.006779e-06,0.00023000757,0.0013538924,-0.049110122,5000,5000,0
96629451,96628849,2359330,2359330,-2.4885458e-05,8.976709e-06,2.1549358e-06,0.000105906656,0.0012142317,-0.049025703,5000,5000,0
97129444,97128852,2359330,2359330,-6.72296e-05,-5.061773e-06,1.1791005e-05,0.00014867449,0.0010939589,-0.04895046,4988,4988,0
97629514,97628853,2359330,2359330,3.212047e-05,5.994709e-06,-5.8644187e-06,8.312215e-05,0.0011287987,-0.049312327,5004,5004,0
98129510,98128855,2359330,2359330,6.402324e-05,3.9762153e-06,-7.564543e-06,0.00013517398,0.0012774748,-0.049235452,5006,5006,0
98629494,98628849,2359330,2359330,1.7635346e-05,4.1327053e-06,-2.4926478e-06,0.00014180502,0.0010774268,-0.04893664,4992,4992,0
99129493,99128890,2359330,2359330,-1.2726943e-05,4.3802575e-06,7.876549e-06,8.322141e-05,0.0012128659,-0.049602583,5041,5041,0
100629562,100628849,2359330,2359330,6.0099508e-05,7.356437e-06,-1.2936081e-05,0.00012676475,0.00086350436,-0.049185116,5000,5000,0
101129620,101128858,2359330,2359330,7.800067e-05,1.6931139e-05,-5.830432e-06,0.00016302394,0.0012587161,-0.048579324,4957,4957,0
101629500,101628849,2359330,2359330,6.7190165e-05,6.935622e-06,-2.2634325e-05,0.00027348293,0.0018197115,-0.048858,5000,5000,0
102129439,102128852,2359330,2359330,-7.2451367e-06,1.7501125e-05,8.351479e-06,0.000227139,0.0015975873,-0.048044827,4996,4996,0
102629446,102628849,2359330,2359330,9.186464e-06,3.129661e-06,-9.830329e-06,3.603874e-05,0.0018044021,-0.049350657,4987,4987,0
103129523,103128849,2359330,2359330,-4.003254e-05,1.7014754e-05,8.3679715e-06,-1.1242581e-05,0.0017127214,-0.048120476,4995,4995,0
103629575,103628854,2359330,2359330,7.3234725e-05,1.2527735e-05,-9.918417e-06,7.330584e-05,0.0013315545,-0.049732395,5002,5002,0
104129491,104128853,2359330,2359330,-4.7389276e-05,1.9849233e-05,7.0212127e-07,0.00023897874,0.0014652798,-0.048265766,5004,5004,0
104629412,104628852,2359330,2359330,1.014716e-05,1.5319774e-05,-2.4793337e-05,0.00011066067,0.0008656259,-0.0489822,5003,5003,0
105129461,105128849,2359330,2359330,0.00014960053,6.998023e-06,-3.121124e-05,0.00018627453,0.0012862381,-0.04885876,5000,5000,0
105629482,105628853,2359330,2359330,-6.490959e-05,1.23741065e-05,1.655658e-05,0.0002285632,0.0013128188,-0.048980523,5004,5004,0
106129495,106128855,2359330,2359330,-0.00010003287,-5.74298e-06,1.5396688e-05,0.0001857163,0.0014415866,-0.049802,5003,5003,0
106629484,106628849,2359330,2359330,-0.00011960978,-2.2312913e-06,1.2258217e-05,2.512286e-05,0.0010228308,-0.049308162,5000,5000,0
107129447,107128849,2359330,2359330,1.7150895e-05,1.5087257e-05,1.1693338e-06,1.161753e-05,0.0011572713,-0.048972186,5000,5000,0
107629440,107628849,2359330,2359330,3.7544018e-05,1.210179e-05,9.729452e-06,0.00015928771,0.00095959037,-0.049053602,5000,5000,0
108129511,108128849,2359330,2359330,4.9899623e-05,2.3324508e-06,-1.5335612e-05,2.2853386e-05,0.0012416645,-0.04933026,5000,5000,0
108629540,108628863,2359330,2359330,1.9238838e-05,8.271597e-06,-6.2139115e-06,0.00017307127,0.0011549417,-0.04858575,4964,4964,0
109129477,109128852,2359330,2359330,1.1728082e-06,8.297469e-06,-5.798732e-06,5.6880366e-05,0.0011833683,-0.049140677,5000,5000,0
109629453,109628884,2359330,2359330,1.237526e-05,-4.3203977e-06,9.142936e-06,0.00010577379,0.0013397748,-0.049481697,5033,5033,0
110129452,110128849,2359330,2359330,-2.9234487e-05,1.76918e-06,1.00092175e-05,0.00018866388,0.0010212618,-0.04870439,4999,4999,0
110629456,110628849,2359330,2359330,3.486111e-05,-1.1261792e-06,-2.3220082e-06,8.369076e-05,0.0005065461,-0.04898293,4998,4998,0
111629506,111628852,2359330,2359330,-0.00015919002,-3.1305015e-06,5.663843e-06,7.5793185e-05,0.0013784097,-0.048245136,4954,4954,0
112129471,112128849,2359330,2359330,-5.947365e-05,-8.186009e-06,2.9076362e-05,0.00012246023,0.0008843572,-0.049337663,5000,5000,0
112629447,112628849,2359330,2359330,-2.3968527e-05,1.0553335e-05,2.1373003e-06,4.685883e-05,0.000857284,-0.04939722,5000,5000,0
113129473,113128849,2359330,2359330,0.00016525551,1.5888374e-05,-1.8349076e-05,0.000109481705,0.001254655,-0.049152974,5000,5000,0
114129501,114128852,2359330,2359330,-6.55343e-05,4.3828377e-06,1.1975392e-05,0.00010676346,0.0009775241,-0.048974097,5000,5000,0
114629448,114628851,2359330,2359330,-2.2862921e-05,1.0809856e-06,-5.563585e-06,0.00018861561,0.0009666241,-0.04882103,4987,4987,0
115129462,115128849,2359330,2359330,2.4584695e-06,6.5869212e-06,5.177438e-06,0.0002851882,0.0013918291,-0.04876416,5000,5000,0
115629483,115628857,2359330,2359330,-6.2931795e-06,1.349876e-05,-6.7473093e-06,0.00017714771,0.0012348678,-0.049285598,5008,5008,0
116129486,116128881,2359330,2359330,-2.4595536e-06,8.652026e-06,-7.256081e-06,6.5861976e-05,0.0013722916,-0.048897058,5002,5002,0
116629487,116628853,2359330,2359330,-4.8712205e-05,2.4008975e-07,9.924743e-06,4.6056007e-06,0.0009751022,-0.04906689,5000,5000,0
117129538,117128917,2359330,2359330,-7.167559e-06,7.011076e-06,6.9851274e-07,5.9200265e-05,0.0011543253,-0.049052045,5014,5014,0
117629444,117628849,2359330,2359330,7.327185e-05,-2.2991803e-06,-8.4020385e-06,5.37975e-05,0.0010639349,-0.0491204,5000,5000,0
120129488,120128889,2359330,2359330,-9.3875555e-05,-5.5544837e-07,1.4417672e-05,0.0003851755,0.0011217004,-0.049256988,5040,5040,0
120629507,120628885,2359330,2359330,6.29899e-05,2.2275865e-06,-8.219244e-06,0.00017986781,0.001155576,-0.0487128,4988,4988,0
121129633,121128945,2359330,2359330,2.0391588e-05,-7.531826e-07,-1.157684e-05,-2.2133874e-05,0.0012868332,-0.049310986,5003,5003,0
121629544,121628849,2359330,2359330,-6.573206e-05,-5.026093e-06,7.4133495e-06,-3.6886326e-05,0.001137491,-0.049721267,5000,5000,0
122629492,122628862,2359330,2359330,3.161215e-05,-1.9303095e-06,-9.684374e-06,0.0002776382,0.0015623334,-0.049349338,5013,5013,0
123129491,123128849,2359330,2359330,-6.18512e-05,3.0203503e-06,-3.3353203e-06,0.00015535508,0.0012863535,-0.04900482,5000,5000,0
123629449,123628849,2359330,2359330,-3.8665818e-05,-3.838232e-06,3.4937386e-06,0.00019345661,0.0011415622,-0.049180698,5000,5000,0
124129538,124128849,2359330,2359330,6.074164e-05,1.533977e-05,-1.3820799e-05,0.0001815962,0.0012974847,-0.04919231,5000,5000,0
124629549,124628854,2359330,2359330,2.8474113e-05,7.667931e-06,-6.9960715e-06,0.00024113359,0.0010741655,-0.04908455,4992,4992,0
125129532,125128849,2359330,2359330,7.96533e-05,1.2139055e-05,-9.763316e-06,0.00016571382,0.0013078459,-0.04865897,5000,5000,0
125629511,125628852,2359330,2359330,-9.931903e-06,-8.7276715e-07,-4.6366526e-06,9.3606264e-05,0.0015190911,-0.049165204,5003,5003,0
126129458,126128899,2359330,2359330,-6.426163e-05,-4.0583477e-06,5.177805e-06,0.00013977588,0.0011374886,-0.048979826,5005,5005,0
126629625,126628874,2359330,2359330,5.9731312e-05,4.8186785e-06,-6.8849768e-06,5.1705374e-05,0.0010219414,-0.049595617,5025,5025,0
127129471,127128849,2359330,2359330,1.5098379e-05,-3.2785301e-06,4.963625e-06,0.00020032945,0.0014795108,-0.0488308,5000,5000,0
127629449,127628862,2359330,2359330,-6.4217656e-06,8.530569e-06,2.6518335e-06,9.374726e-05,0.0011330771,-0.049179345,5013,5013,0
128129479,128128858,2359330,2359330,4.178328e-05,3.3152367e-06,-1.4000257e-05,0.0003889709,0.0014472296,-0.048695996,5009,5009,0
128629441,128628849,2359330,2359330,-6.6643195e-05,1.3038784e-05,9.0088115e-06,8.800641e-05,0.0013011065,-0.049054813,5000,5000,0
129129536,129128862,2359330,2359330,-5.051444e-05,1.1581695e-05,-4.271122e-06,4.9353417e-05,0.001332699,-0.049216703,5013,5013,0
129629456,129628854,2359330,2359330,0.00011335139,6.7236265e-06,9.832171e-07,-5.446794e-05,0.0012108168,-0.04870059,4998,4998,0
130129487,130128849,2359330,2359330,1.2293472e-05,4.2729e-06,-1.5739755e-05,7.134539e-05,0.0014771154,-0.04855846,5000,5000,0
130629486,130628897,2359330,2359330,-1.5336138e-05,-8.561949e-06,1.0596585e-05,-5.1424897e-05,0.0010098247,-0.049524173,5037,5037,0
131129464,131128907,2359330,2359330,3.520798e-05,-8.7816925e-06,-1.0239113e-05,0.0002522449,0.001521595,-0.048660163,5008,5008,0
131629564,131628852,2359330,2359330,-2.925786e-06,-4.1733765e-06,-4.7318645e-06,7.5354685e-05,0.0011324462,-0.049406484,5003,5003,0
132129434,132128849,2359330,2359330,5.980635e-05,-5.7763764e-08,-6.594192e-06,7.883427e-05,0.0012735833,-0.048792098,5000,5000,0
132629504,132628849,2359330,2359330,4.209113e-05,-4.133115e-06,-6.6615607e-06,0.00015431191,0.0014353779,-0.048825473,4956,4956,0
133129489,133128852,2359330,2359330,1.6050973e-05,7.821927e-06,-3.6546833e-06,-3.7346617e-06,0.0014105979,-0.049107827,5003,5003,0
133629439,133628849,2359330,2359330,-3.2591786e-05,-1.4899207e-06,8.327228e-06,0.0002010831,0.001160255,-0.04866533,4991,4991,0
134129444,134128849,2359330,2359330,-7.10533e-05,4.972177e-06,1.37933885e-05,4.020105e-06,0.001163741,-0.04899188,4991,4991,0
134629453,134628851,2359330,2359330,6.255235e-05,1.3092763e-05,-9.486613e-06,0.00019277146,0.0010555589,-0.048783947,5002,5002,0
135129481,135128852,2359330,2359330,7.095403e-05,1.2123716e-05,-2.3399e-05,0.00014824278,0.0013757125,-0.049018558,5000,5000,0
135629474,135628849,2359330,2359330,5.8168902e-05,9.893956e-06,-4.3188115e-06,0.00020467825,0.0015806281,-0.04880767,4993,4993,0
136129456,136128889,2359330,2359330,-3.2345917e-05,-3.504802e-06,4.368574e-06,0.00013294759,0.0015531846,-0.049180705,4985,4985,0
136629520,136628932,2359330,2359330,-5.9074435e-05,-4.790722e-06,3.6775505e-06,1.30506305e-05,0.0011538856,-0.04915347,4997,4997,0
137129475,137128849,2359330,2359330,1.1168289e-05,1.807591e-05,2.1673177e-06,0.00013424933,0.0011392267,-0.048875675,5000,5000,0
137629485,137628853,2359330,2359330,6.952051e-05,1.8204585e-07,-6.1532833e-06,1.2390375e-05,0.0012946354,-0.049161103,5003,5003,0
138129485,138128849,2359330,2359330,1.4335693e-05,1.0044321e-05,-5.096691e-06,4.152274e-05,0.0013187269,-0.049077086,4995,4995,0
138629478,138628849,2359330,2359330,-3.6849873e-05,-2.0150737e-06,-5.93534e-06,6.69744e-06,0.001416396,-0.048997045,5000,5000,0
139129549,139128866,2359330,2359330,-7.282847e-05,4.856067e-06,1.0538491e-05,-8.178087e-05,0.0008991633,-0.049497116,5001,5001,0
139629595,139628851,2359330,2359330,0.00012913086,-1.634634e-06,-1.32956e-05,0.00011108441,0.00085248746,-0.0489171,5002,5002,0
140129554,140128849,2359330,2359330,0.00014875887,9.26362e-06,-2.5956662e-05,5.8737478e-05,0.0013411412,-0.04930978,5000,5000,0
140629549,140628849,2359330,2359330,-1.9949233e-05,4.7955004e-06,-8.904846e-06,0.00017574274,0.0014430057,-0.048777774,5000,5000,0
142629539,142628869,2359330,2359330,3.28573e-05,4.1184016e-06,-6.0727375e-06,4.4633507e-05,0.0013512195,-0.049336817,5008,5008,0
143129568,143128849,2359330,2359330,-2.6720336e-05,4.6052483e-06,9.713264e-06,5.5842218e-05,0.0013878903,-0.04857016,4959,4959,0
143629577,143628915,2359330,2359330,-1.1153764e-05,2.200215e-06,4.4095636e-06,0.00014836097,0.001209576,-0.049118508,5022,5022,0
144129463,144128862,2359330,2359330,-1.7865255e-05,1.1554782e-05,7.5352e-06,5.1314622e-05,0.0011884001,-0.049346734,5013,5013,0
144629574,144628864,2359330,2359330,7.064189e-06,4.9421237e-06,-1.3120626e-06,6.418545e-05,0.0011448049,-0.049335968,5015,5015,0
145129567,145128933,2359330,2359330,4.2594307e-05,3.3637439e-06,-9.373962e-06,0.00012846495,0.0011224847,-0.049706426,5084,5084,0
145629475,145628849,2359330,2359330,8.431105e-06,3.4340203e-06,2.972647e-07,0.00011531685,0.0012872685,-0.04901212,5000,5000,0
146129475,146128879,2359330,2359330,-4.3643744e-05,8.677577e-06,9.221137e-06,9.987404e-05,0.0012940846,-0.04902128,5005,5005,0
146629459,146628852,2359330,2359330,1.2028199e-05,1.5848163e-05,-1.3924623e-06,0.00011825375,0.0011803485,-0.048923545,4999,4999,0
147129459,147128849,2359330,2359330,2.7338085e-05,4.370407e-06,-1.2158645e-05,4.045007e-05,0.0011696307,-0.049084548,5000,5000,0
147629488,147628849,2359330,2359330,-2.7971379e-05,1.4426885e-06,2.846675e-06,0.000128988,0.0012776608,-0.049061313,5000,5000,0
148129497,148128852,2359330,2359330,-1.64559e-05,6.223816e-06,-1.282362e-05,3.8572496e-05,0.0012402765,-0.04910275,5000,5000,0
148629471,148628849,2359330,2359330,1.884983e-05,1.2516116e-05,-8.282702e-06,0.00014972416,0.0010922496,-0.049108423,5000,5000,0
149129454,149128849,2359330,2359330,1.47742685e-05,8.09587e-06,-5.6755407e-06,8.367478e-05,0.0012244385,-0.0490204,5000,5000,0
149629416,149628854,2359330,2359330,-3.290684e-08,-1.4612909e-06,-1.0455927e-05,0.0001306411,0.0011715422,-0.048999857,5002,5002,0
150129500,150128849,2359330,2359330,2.0685542e-05,8.628166e-06,1.276688e-06,0.00018177269,0.001107627,-0.04902728,4999,4999,0
152629420,152628852,2359330,2359330,4.5384397e-05,7.817698e-06,-4.0137097e-06,0.00016576746,0.0013775103,-0.048976336,5000,5000,0
153129504,153128849,2359330,2359330,-1.3577597e-05,2.3550626e-06,-1.4920408e-06,0.00016881575,0.0012938968,-0.048981924,4993,4993,0
153629502,153628849,2359330,2359330,-3.2818102e-06,-5.7992106e-06,3.5985008e-06,0.00017399574,0.0012958327,-0.04834523,4949,4949,0
154129481,154128849,2359330,2359330,-3.0304838e-05,-1.5232275e-06,-4.324143e-07,7.223848e-05,0.0012536538,-0.04888339,5000,5000,0
154629514,154628872,2359330,2359330,1.0432085e-05,-1.4972888e-06,5.4550424e-06,0.0001416888,0.0012983859,-0.04881681,4981,4981,0
155129575,155128850,2359330,2359330,-1.3791514e-05,7.030677e-06,4.503995e-06,0.00011591361,0.001160933,-0.04918453,5001,5001,0
155629563,155628857,2359330,2359330,0.000111308786,2.2339855e-06,-2.0020623e-05,0.00020383457,0.0010970046,-0.04862585,4968,4968,0
156129655,156128893,2359330,2359330,-2.2265225e-05,1.2934985e-05,-2.1409335e-06,-3.1684285e-06,0.0015083002,-0.049404036,5029,5029,0
156629480,156628849,2359330,2359330,-0.00010468193,-8.15707e-06,9.6648055e-06,0.00011321151,0.0010804026,-0.048807364,5000,5000,0
157129488,157128849,2359330,2359330,2.9081331e-05,-4.0868872e-07,-1.404872e-05,8.983903e-05,0.000975757,-0.048914466,4990,4990,0
157629493,157628852,2359330,2359330,5.7497513e-05,3.606543e-06,2.8480338e-06,2.8895774e-06,0.0012512159,-0.04916056,5000,5000,0
158129538,158128858,2359330,2359330,-0.000120864315,5.449051e-06,1.0962988e-06,0.00016346807,0.0009909874,-0.049265463,5009,5009,0
158629484,158628849,2359330,2359330,0.00016874299,4.5055817e-06,-3.289136e-05,7.525778e-05,0.0011421584,-0.04878349,4979,4979,0
159129480,159128849,2359330,2359330,7.729869e-05,1.1814182e-05,-1.0148528e-05,0.0001572506,0.0014734534,-0.048912663,4996,4996,0
159629424,159628864,2359330,2359330,-8.493629e-05,6.956048e-06,6.5441945e-06,8.5566026e-05,0.0014793432,-0.04852184,4957,4957,0
160129443,160128849,2359330,2359330,1.5269223e-05,4.092414e-06,2.7368185e-06,8.018883e-05,0.0011727763,-0.048726548,5000,5000,0
160629512,160628852,2359330,2359330,0.00011128905,1.1051418e-05,-4.614198e-06,2.1683203e-05,0.0014696475,-0.049296927,5003,5003,0
161129465,161128876,2359330,2359330,-6.4611035e-05,3.2998805e-06,-2.996309e-06,-8.780779e-06,0.0014143278,-0.04915615,5003,5003,0
161629487,161628849,2359330,2359330,-3.4758355e-05,-2.0056023e-06,-4.195428e-06,7.446659e-05,0.0011473325,-0.04882561,5000,5000,0
162129525,162128890,2359330,2359330,1.6370826e-05,8.608258e-06,2.614195e-06,0.00015435366,0.0011825745,-0.049314395,5041,5041,0
162629453,162628858,2359330,2359330,-4.49458e-05,-2.229558e-06,1.2842763e-05,0.00010723776,0.0011412471,-0.049105227,5009,5009,0
163129529,163128852,2359330,2359330,1.0212334e-05,1.2817505e-05,-1.1927971e-05,-0.00020148215,0.0011464397,-0.04904184,4952,4952,0
163629472,163628849,2359330,2359330,3.9359777e-05,5.925852e-06,-1.4249479e-05,0.00027410814,0.0011913917,-0.048806097,5000,5000,0
164129502,164128849,2359330,2359330,1.0451136e-05,-5.1866696e-06,5.571047e-06,0.00017883966,0.0011821971,-0.048309695,4932,4932,0
164629511,164628851,2359330,2359330,-4.5633147e-05,1.7231465e-06,-4.438096e-06,-0.00015231984,0.0013517344,-0.04923622,5000,5000,0
165129447,165128853,2359330,2359330,-2.2965905e-05,-5.801835e-07,6.8125826e-07,9.9984725e-05,0.0012288775,-0.049354464,5001,5001,0
166129579,166128932,2359330,2359330,2.0066025e-05,1.0174538e-05,-6.63219e-06,0.00019891288,0.0013824208,-0.048950173,5028,5028,0
166629500,166628849,2359330,2359330,-5.2858646e-05,3.6722219e-07,5.7188395e-06,-6.949047e-05,0.0012190893,-0.049013548,5000,5000,0
167129500,167128863,2359330,2359330,2.013319e-05,6.879911e-07,-5.7688835e-06,0.0005395006,0.001119866,-0.049562197,5011,5011,0
167629455,167628849,2359330,2359330,-3.630328e-05,2.4993302e-05,-3.9348606e-06,-0.00013137286,0.0021642835,-0.049484808,5000,5000,0
168129511,168128856,2359330,2359330,-1.3700249e-05,6.69688e-06,3.445398e-06,0.0005109279,0.0011313338,-0.048838265,5006,5006,0
168629545,168628849,2359330,2359330,4.9739447e-05,1.4949031e-05,-1.4792874e-06,7.14267e-05,0.0013054744,-0.04912385,5000,5000,0
169129547,169128852,2359330,2359330,-2.6757867e-05,-9.406852e-06,-8.917952e-07,-0.00013117045,0.0012008819,-0.049067616,5000,5000,0
171129559,171128854,2359330,2359330,-5.840944e-05,-9.511147e-06,-4.7074033e-07,-0.00021310462,0.0014151938,-0.04908329,5005,5005,0
171629526,171628852,2359330,2359330,-8.035234e-06,2.6648771e-05,4.5509455e-06,0.00019893382,0.00149687,-0.048664685,4983,4983,0
172129498,172128868,2359330,2359330,-9.452118e-05,-3.5700294e-05,-1.7229955e-07,0.0014587181,0.0018938738,-0.04873665,5019,5019,0
172629486,172628893,2359330,2359330,-4.5722136e-06,7.538227e-06,5.161352e-06,-0.00017990783,0.001167897,-0.049303833,5041,5041,0
173129456,173128849,2359330,2359330,9.582072e-05,-2.89036e-05,-8.991936e-06,0.0011437811,0.0012808457,-0.048528373,5000,5000,0
173629446,173628849,2359330,2359330,5.1542665e-05,2.6204634e-05,-1.840973e-05,-0.00021175618,0.0018118793,-0.048904426,5000,5000,0
174129484,174128851,2359330,2359330,-0.00011057427,4.203531e-07,2.540395e-05,0.00013209243,0.0015907687,-0.049220003,5002,5002,0
174629509,174628851,2359330,2359330,-4.030852e-05,1.3400594e-05,-6.262922e-06,-0.00040484275,0.0008069007,-0.048185308,4933,4933,0
175129486,175128850,2359330,2359330,5.4683394e-05,1.712609e-05,-2.5952195e-06,-0.00014522852,0.0010923413,-0.04984116,5001,5001,0
175629441,175628849,2359330,2359330,-3.846927e-05,-5.0133565e-07,1.389915e-05,6.3697145e-05,0.0012214317,-0.048684232,5000,5000,0
176129414,176128851,2359330,2359330,-3.8958824e-06,5.677781e-06,-1.1761606e-06,7.596337e-05,0.0009535689,-0.04936454,4999,4999,0
176629480,176628852,2359330,2359330,7.696515e-06,3.1913435e-06,1.0848187e-06,0.00012887834,0.0011012742,-0.04897821,5000,5000,0
177129477,177128849,2359330,2359330,-6.9894054e-06,-5.736655e-07,-1.0285365e-05,8.153603e-05,0.0011682527,-0.049041055,5000,5000,0
177629499,177628853,2359330,2359330,6.9397656e-06,7.629688e-06,3.4906793e-06,0.00013167012,0.0011647786,-0.04895971,5001,5001,0
178129454,178128852,2359330,2359330,6.8582613e-06,5.459718e-06,1.0204637e-06,5.2419193e-05,0.0011716449,-0.04889364,5002,5002,0
178629465,178628851,2359330,2359330,3.3572232e-06,1.4008901e-06,9.008994e-06,0.00015280124,0.0012289052,-0.04888392,4992,4992,0
179129518,179128853,2359330,2359330,-4.090067e-05,1.9158513e-05,-4.240459e-06,-0.0005427499,0.0022126792,-0.049077526,5001,5001,0
179629512,179628863,2359330,2359330,-3.759064e-05,3.351738e-05,6.54385e-06,0.00061810313,0.001037676,-0.049413025,5014,5014,0
180129515,180128849,2359330,2359330,7.388639e-05,2.790841e-05,-1.4546406e-05,-8.1580496e-05,0.0010777654,-0.0481905,5000,5000,0
180629485,180628866,2359330,2359330,5.161229e-05,8.41599e-06,-7.648431e-06,-0.00042629638,0.0013856979,-0.049234625,5004,5004,0
181129471,181128849,2359330,2359330,-4.3394437e-05,-1.7553815e-06,5.8697066e-07,5.338022e-05,0.0012322043,-0.04946521,4998,4998,0
181629553,181628849,2359330,2359330,-3.983297e-05,6.7538494e-06,8.237026e-06,0.0005440779,0.0011928305,-0.049411867,5000,5000,0
182129479,182128852,2359330,2359330,1.7373166e-05,7.61275e-06,-3.8648664e-06,0.00044213928,0.0010192586,-0.049000405,5000,5000,0
182629482,182628852,2359330,2359330,5.215164e-05,-7.3329385e-05,-1.7315651e-05,0.00089069264,0.001554286,-0.049676582,4976,4976,0
183129537,183128899,2359330,2359330,-1.4443227e-05,-8.107967e-06,-4.2932725e-06,-0.00034656012,0.0011100806,-0.049381383,5050,5050,0
185129515,185128849,2359330,2359330,1.5311687e-05,2.7662e-06,6.316039e-06,-0.0010267183,0.001393561,-0.04910407,4959,4959,0
185629478,185628852,2359330,2359330,4.8794547e-05,9.495162e-06,-4.8014126e-06,0.00020409441,0.0011110257,-0.04868803,4968,4968,0
186129409,186128849,2359330,2359330,8.963988e-06,4.1677717e-06,-6.7941432e-06,0.00019386802,0.0013815956,-0.04915316,4999,4999,0
186629443,186628849,2359330,2359330,-1.5847369e-05,3.0111355e-06,5.3835797e-06,0.00011725703,0.0012318153,-0.048993077,5000,5000,0
187129487,187128853,2359330,2359330,-5.9474987e-06,8.7748646e-07,2.58665e-06,0.0001006402,0.0012269466,-0.048932474,4993,4993,0
187629475,187628876,2359330,2359330,-6.1540115e-05,5.8691294e-06,3.407545e-06,0.00018732356,0.0011045625,-0.049185555,5005,5005,0
188129477,188128849,2359330,2359330,3.783424e-05,3.276635e-06,9.280955e-07,0.0001282764,0.001077532,-0.048911646,5000,5000,0
188629447,188628850,2359330,2359330,5.1157975e-05,5.9954264e-06,-6.8434374e-06,0.000102392165,0.0015407617,-0.049120307,5001,5001,0
189129445,189128852,2359330,2359330,-7.5586344e-05,-9.685817e-07,7.508975e-06,6.251168e-05,0.0012974951,-0.04908781,4999,4999,0
189629521,189628849,2359330,2359330,-3.227139e-05,-6.2438094e-06,1.6340128e-06,0.0001745831,0.00095345854,-0.049100794,5000,5000,0
190129495,190128858,2359330,2359330,5.118374e-05,3.781146e-06,-1.539999e-05,7.158299e-05,0.0011908547,-0.049073692,5004,5004,0
190629563,190628917,2359330,2359330,7.6312535e-05,1.4615506e-06,-1.1045628e-05,0.00016512926,0.0013280929,-0.049138166,5003,5003,0
191129404,191128840,2359330,2359330,-6.5809404e-06,4.632911e-06,-5.72978e-06,8.7101456e-05,0.0012054518,-0.049005922,4990,4990,0
191629443,191628849,2359330,2359330,1.09161565e-05,6.1600003e-06,8.291488e-07,7.080032e-05,0.0011122711,-0.04910046,5000,5000,0
192129534,192128849,2359330,2359330,-1.9920794e-06,2.3464963e-06,-3.0350654e-06,2.7566406e-05,0.0011948136,-0.04858378,4955,4955,0
192629658,192628948,2359330,2359330,7.00146e-06,4.0831324e-06,-9.246637e-06,-1.7300905e-05,0.0009731189,-0.04949994,5029,5029,0
193129560,193128852,2359330,2359330,3.3758737e-05,1.3143778e-05,-1.1548451e-05,9.250774e-06,0.0012917061,-0.049029645,5000,5000,0
193629479,193628890,2359330,2359330,3.0186393e-07,1.58261e-07,5.35944e-06,0.00010034536,0.001321685,-0.049553007,5029,5029,0
194129450,194128849,2359330,2359330,-3.7728194e-05,-5.3720246e-06,-5.432206e-06,4.2392556e-05,0.0012227361,-0.048975047,5000,5000,0
194629566,194628853,2359330,2359330,3.262682e-05,8.735156e-06,-1.0981896e-05,4.317423e-05,0.0011219223,-0.049205024,5004,5004,0
195129535,195128849,2359330,2359330,-1.5656022e-05,4.6583864e-06,4.6738533e-06,2.8132648e-05,0.0011630717,-0.049092807,5000,5000,0
197129445,197128849,2359330,2359330,-1.0273603e-05,4.297273e-06,1.9615677e-06,-4.711838e-06,0.0011231747,-0.04904862,4991,4991,0
197629494,197628899,2359330,2359330,-2.217207e-05,-3.2919465e-06,1.9676256e-07,6.0522252e-05,0.0010395694,-0.049098253,5005,5005,0
198129495,198128849,2359330,2359330,6.150679e-05,3.4607913e-07,-1.7675482e-05,6.972107e-05,0.001019175,-0.049108747,5000,5000,0
198629486,198628852,2359330,2359330,6.054266e-05,3.5799649e-06,-1.2903242e-05,0.00012927495,0.0013236988,-0.048943773,5000,5000,0
199129455,199128851,2359330,2359330,-3.9106922e-05,6.347278e-06,2.3757059e-07,0.0001321837,0.0014363118,-0.04896991,5002,5002,0
199629468,199628849,2359330,2359330,-4.0026305e-05,9.055804e-06,7.6753995e-06,5.133983e-05,0.0011542746,-0.04919148,5000,5000,0
200129479,200128850,2359330,2359330,4.06933e-05,2.6648918e-06,-5.188355e-06,0.00010312663,0.0010920238,-0.049227197,5001,5001,0
200629477,200628852,2359330,2359330,6.375761e-05,1.00164725e-05,-1.20828e-05,0.00010466994,0.0012145726,-0.049135678,4995,4995,0
201129446,201128849,2359330,2359330,-1.47922065e-05,-4.174255e-06,8.95037e-06,5.935809e-05,0.0013217772,-0.048988514,4990,4990,0
201629496,201628895,2359330,2359330,-4.8976126e-05,-5.1169974e-07,-2.198559e-06,-5.018521e-05,0.0012221605,-0.0486368,4965,4965,0
202129451,202128849,2359330,2359330,-2.562453e-05,3.4830166e-06,3.099548e-06,6.5592314e-05,0.0009971068,-0.049075287,4999,4999,0
202629523,202628898,2359330,2359330,6.28062e-05,9.046809e-06,-5.736323e-06,2.602837e-05,0.0010770672,-0.048913393,5005,5005,0
203129490,203128850,2359330,2359330,3.7900638e-05,-7.703785e-06,-6.304635e-06,0.00013768263,0.0012495718,-0.0488875,5001,5001,0
203629517,203628849,2359330,2359330,-2.8256567e-05,5.938125e-06,1.0467701e-06,9.6446405e-05,0.0012662665,-0.049140688,4994,4994,0
204129546,204128890,2359330,2359330,-9.378865e-06,-1.704123e-06,4.0393174e-06,0.00010756034,0.0010754836,-0.049367078,5032,5032,0
204629483,204628849,2359330,2359330,1.6327343e-05,1.06349935e-05,-5.8867863e-06,3.780979e-05,0.0011492132,-0.049242303,4999,4999,0
205129575,205128849,2359330,2359330,3.1503525e-05,9.157554e-06,-4.2629663e-06,1.165958e-05,0.0012653029,-0.04923417,5000,5000,0
205629528,205628852,2359330,2359330,-1.3613658e-05,2.1944898e-06,-4.9334e-06,-6.9550806e-05,0.0012312516,-0.048751228,4960,4960,0
206129577,206128854,2359330,2359330,-2.0403644e-05,-8.5915127e-07,-8.6014725e-06,0.00010162937,0.0011357622,-0.048589673,4964,4964,0
206629545,206628857,2359330,2359330,2.0796155e-05,5.4601874e-06,-4.0034047e-06,4.0445426e-05,0.0011721633,-0.049118992,5005,5005,0
207129444,207128849,2359330,2359330,3.4743898e-05,4.2846395e-06,-1.3809388e-06,2.270446e-05,0.0010478602,-0.04905165,4997,4997,0
209129477,209128850,2359330,2359330,2.4815978e-05,3.608868e-06,-6.4024475e-06,0.0001663367,0.0011796623,-0.049015544,5001,5001,0
209629469,209628849,2359330,2359330,-1.8951387e-07,5.4181282e-06,-3.1514398e-06,4.0982177e-05,0.001261524,-0.049021315,4996,4996,0
210129403,210128849,2359330,2359330,-2.7168384e-05,1.2869451e-06,2.5768452e-06,0.000105297804,0.0011384618,-0.049011286,5000,5000,0
210629498,210628858,2359330,2359330,1.3959139e-05,-4.1549865e-07,-4.4481135e-06,0.00011174748,0.0011651434,-0.04909786,5009,5009,0
211129447,211128851,2359330,2359330,2.3502715e-05,8.385253e-06,-1.5553598e-05,9.9974786e-05,0.0012091255,-0.04909871,5000,5000,0
211629496,211628858,2359330,2359330,1.2710127e-05,9.039772e-06,-1.0013249e-05,1.1426237e-05,0.0012528856,-0.048989203,4997,4997,0
212129501,212128915,2359330,2359330,-2.4418457e-06,2.039881e-06,3.745334e-06,5.3497923e-05,0.0012063332,-0.049246248,5010,5010,0
212629459,212628888,2359330,2359330,2.0983189e-05,-2.7756932e-06,-1.2411266e-05,4.8084614e-05,0.001240761,-0.04940243,5009,5009,0
213129509,213128849,2359330,2359330,2.2889391e-05,2.3763796e-06,-7.79214e-06,0.000183701,0.0012025132,-0.048998613,5000,5000,0
213629543,213628857,2359330,2359330,8.182452e-06,1.0990104e-06,-1.2644579e-06,2.3325832e-05,0.0011988131,-0.04901375,5008,5008,0
214129662,214128849,2359330,2359330,-5.4572056e-06,-8.729513e-06,3.4791508e-06,5.8933336e-05,0.0011688859,-0.04904002,5000,5000,0
214629575,214628890,2359330,2359330,-5.7539155e-06,1.1729458e-06,-8.33206e-07,3.4273406e-05,0.0011728576,-0.049472217,5041,5041,0
215129517,215128875,2359330,2359330,-1.524474e-06,-4.445311e-07,-3.8170624e-06,-5.1765022e-05,0.0010667042,-0.049259115,5026,5026,0
215629553,215628849,2359330,2359330,2.6577566e-06,7.2589573e-06,-5.919408e-06,0.000109610875,0.0012093574,-0.049175456,5000,5000,0
216129547,216128866,2359330,2359330,-6.2680083e-06,2.8935792e-06,3.659009e-06,5.2890817e-05,0.0011698062,-0.04931448,5017,5017,0
216629503,216628850,2359330,2359330,2.2062548e-05,-2.9300363e-06,-7.230133e-06,6.736101e-05,0.0012584216,-0.048523933,4960,4960,0
217129469,217128849,2359330,2359330,-1.8259976e-05,-1.7540049e-07,-4.1261496e-06,9.4897325e-05,0.0012542533,-0.049036007,5000,5000,0
217629438,217628879,2359330,2359330,-3.978941e-06,-7.098648e-07,1.3046145e-05,4.7446447e-05,0.0012423581,-0.04922983,4995,4995,0
218129453,218128850,2359330,2359330,1.8488014e-05,4.3840146e-06,4.573457e-07,0.00015994905,0.0012246802,-0.04907083,4990,4990,0
218629483,218628852,2359330,2359330,2.0796628e-05,3.4597838e-06,-1.4864396e-05,0.000105745785,0.0012387973,-0.049110774,5003,5003,0
219129475,219128849,2359330,2359330,-1.08741015e-05,1.3703013e-05,-4.7476408e-07,5.3459717e-05,0.001199485,-0.049049575,5000,5000,0
220129445,220128849,2359330,2359330,1.1985407e-05,1.2931219e-05,-1.3416095e-05,0.00016566824,0.0011519361,-0.049015187,5000,5000,0
220629443,220628849,2359330,2359330,-3.6011437e-07,3.8279586e-06,-1.0447351e-06,0.00014473508,0.001271083,-0.049030207,5000,5000,0
221129503,221128852,2359330,2359330,-1.0984426e-05,9.678956e-06,6.055593e-06,0.00012226305,0.0011257041,-0.048856884,5001,5001,0
221629473,221628849,2359330,2359330,-5.641952e-06,2.4872948e-06,5.0888775e-06,5.8166614e-05,0.0011716984,-0.049083743,4998,4998,0
222629442,222628869,2359330,2359330,2.5840714e-06,3.4532507e-06,6.041351e-06,-8.321913e-05,0.00120219,-0.049151663,5000,5000,0
223129473,223128853,2359330,2359330,7.435998e-06,1.3548299e-06,-2.9538737e-06,3.1564425e-05,0.0011778903,-0.049177613,5004,5004,0
223629517,223628851,2359330,2359330,4.6133787e-06,-1.2096723e-06,5.8525494e-08,6.559564e-05,0.001123723,-0.04882021,4991,4991,0
224129539,224128849,2359330,2359330,3.4427007e-06,6.6830276e-06,-4.0297928e-06,0.000112828166,0.0011689533,-0.049136586,5000,5000,0
224629564,224628857,2359330,2359330,2.1337253e-05,5.065167e-06,-3.519222e-07,0.00010268814,0.00118787,-0.048978694,5000,5000,0
225129497,225128898,2359330,2359330,3.023993e-05,5.8840137e-06,-1.3751821e-05,-2.213127e-06,0.0011391675,-0.049531642,5049,5049,0
225629496,225628853,2359330,2359330,-1.2013375e-05,1.1987839e-06,-2.7788967e-06,6.798486e-06,0.001144882,-0.04908542,5004,5004,0
226129422,226128849,2359330,2359330,1.1277388e-05,8.380264e-06,-1.6388245e-05,-2.8059294e-06,0.0011833316,-0.048885744,4999,4999,0
228129450,228128849,2359330,2359330,2.6620717e-05,7.944447e-06,-9.296815e-06,1.6777583e-05,0.0010960499,-0.049008135,5000,5000,0
228629451,228628850,2359330,2359330,1.4980717e-05,1.5133088e-05,-9.522943e-06,1.6860004e-05,0.0010826524,-0.049106367,5001,5001,0
229129482,229128852,2359330,2359330,1.4944832e-05,1.4116454e-05,-1.2988372e-05,8.889888e-06,0.0011615569,-0.048856102,4988,4988,0
229629481,229628852,2359330,2359330,-1.2683695e-05,5.182692e-07,-2.9332286e-06,2.771888e-05,0.0012153059,-0.049045008,5000,5000,0
230129490,230128849,2359330,2359330,6.3800275e-07,-8.154118e-08,2.1089754e-07,1.3858922e-05,0.0011794349,-0.04908649,4997,4997,0
230629465,230628876,2359330,2359330,2.3516008e-05,8.357133e-06,-1.0522184e-07,0.00010990386,0.0011070987,-0.04926199,5025,5025,0
231129423,231128858,2359330,2359330,2.7370877e-06,-3.6540619e-06,-1.3198124e-06,5.4989873e-06,0.0010393313,-0.048919152,4999,4999,0
231629495,231628868,2359330,2359330,2.2836739e-05,5.8323876e-06,-4.0932764e-06,3.3138123e-05,0.0011612457,-0.048993137,4979,4979,0
232129486,232128856,2359330,2359330,7.035879e-06,8.575531e-06,1.9398856e-06,-3.0969084e-05,0.001146311,-0.04914475,5007,5007,0
232629475,232628864,2359330,2359330,3.3494068e-06,-2.5061422e-06,-1.4262948e-05,0.0001539291,0.0012021551,-0.04915948,5005,5005,0
233129505,233128866,2359330,2359330,-4.0224436e-06,-1.6274349e-06,-1.494803e-06,4.2653406e-05,0.0011371261,-0.04916633,5002,5002,0
233629513,233628849,2359330,2359330,1.6561877e-05,1.1016574e-05,-3.7751306e-06,2.531226e-05,0.0011301044,-0.049132235,5000,5000,0
234129567,234128849,2359330,2359330,-9.623818e-07,-1.6874391e-06,-1.2015109e-05,7.949706e-05,0.001219226,-0.04889584,5000,5000,0
234629482,234628849,2359330,2359330,3.3789775e-06,7.414467e-07,-7.796949e-07,0.0001549174,0.0011472376,-0.048560172,4960,4960,0
235129512,235128849,2359330,2359330,2.2380088e-06,3.6235647e-06,-7.0678166e-06,7.946019e-05,0.0011350323,-0.04919144,5000,5000,0
235629570,235628876,2359330,2359330,-2.746256e-06,-2.0757577e-06,-5.300952e-06,0.00020483193,0.0012391135,-0.049301594,5027,5027,0
236129414,236128850,2359330,2359330,4.2251646e-05,1.1974354e-05,-3.948308e-06,-5.1031973e-05,0.0010459995,-0.049168,5001,5001,0
236629452,236628855,2359330,2359330,-3.3784483e-05,1.03654e-06,-9.71241e-07,0.00018263157,0.0012253729,-0.04890898,5006,5006,0
237129482,237128852,2359330,2359330,-4.848422e-05,6.836354e-06,1.5528232e-06,6.9455215e-05,0.0010899532,-0.04910197,5000,5000,0
237629483,237628863,2359330,2359330,2.4041383e-05,-4.207734e-06,-1.2057892e-05,3.4938614e-05,0.0010427864,-0.04857745,4952,4952,0
238129481,238128849,2359330,2359330,2.666658e-05,1.1303831e-06,-8.736874e-06,2.7918666e-05,0.0011265444,-0.049107965,5000,5000,0
238629454,238628858,2359330,2359330,3.3929362e-05,5.7275856e-06,-1.28575875e-05,3.491407e-05,0.0011912562,-0.04910124,5009,5009,0
239129462,239128862,2359330,2359330,1.4073032e-05,8.287631e-07,-8.789898e-06,4.001418e-06,0.0012474288,-0.04933051,5013,5013,0
239629565,239628874,2359330,2359330,-1.9003073e-05,5.4782936e-06,-9.582861e-06,7.437535e-05,0.0011761809,-0.049414456,5025,5025,0
240129437,240128849,2359330,2359330,-1.983443e-05,-4.712883e-06,-3.6458046e-06,4.255997e-05,0.0010761853,-0.049000647,5000,5000,0
240629476,240628849,2359330,2359330,3.6961963e-05,3.4079796e-06,-5.6829103e-06,2.7875176e-05,0.0011316799,-0.049125746,5000,5000,0
241129522,241128931,2359330,2359330,6.694431e-05,4.4342733e-06,-5.031858e-06,8.304033e-06,0.0011140768,-0.049406964,5013,5013,0
241629451,241628849,2359330,2359330,-3.2070617e-05,8.979013e-06,7.1387326e-06,4.5330355e-05,0.0012838347,-0.048991993,4996,4996,0
242129476,242128849,2359330,2359330,-3.995359e-05,-3.6216281e-06,6.7004896e-07,-5.6954144e-05,0.0010484097,-0.04904846,5000,5000,0
243629453,243628849,2359330,2359330,-8.6274895e-06,4.360922e-06,-8.761402e-06,0.00013520523,0.0012274683,-0.049048413,5000,5000,0
244129493,244128849,2359330,2359330,-2.2180098e-05,-2.4320768e-06,6.815246e-08,5.1623043e-05,0.0012932788,-0.048894133,4990,4990,0
244629544,244628849,2359330,2359330,8.408359e-06,4.6966366e-06,-1.0623377e-05,0.00017493879,0.0011733721,-0.04915789,5000,5000,0
245129482,245128849,2359330,2359330,1.0723558e-05,3.293368e-06,-7.982042e-06,8.1136335e-05,0.0011048388,-0.048900604,5000,5000,0
245629470,245628849,2359330,2359330,1.0289818e-05,-7.54426e-06,-1.078018e-05,-2.959095e-05,0.0010600532,-0.0486748,4959,4959,0
246129528,246128899,2359330,2359330,1.6514286e-06,1.6664755e-05,3.625815e-06,-2.598248e-05,0.0012473129,-0.049724136,5050,5050,0
246629452,246628849,2359330,2359330,1.8911392e-06,3.9139954e-06,-6.842355e-06,4.1197392e-05,0.0012006166,-0.049020138,5000,5000,0
247129548,247128852,2359330,2359330,1.6710463e-05,1.6424974e-06,-2.4190917e-06,6.1472914e-05,0.0010510018,-0.048525743,4956,4956,0
248629482,248628849,2359330,2359330,-0.00018017755,-0.0009823292,-5.4389533e-05,-0.015734732,0.0006601753,-0.044826265,4997,4997,0
249129446,249128852,2359330,2359330,0.00019657712,-0.00016461605,-0.00020687173,-0.012087686,0.001785072,-0.05797249,4999,4999,0
249629450,249628851,2359330,2359330,0.0004318749,-0.00020720653,-0.00011359675,-0.016417382,0.0005239855,-0.07133313,5000,5000,0
250129573,250128935,2359330,2359330,-0.00059198955,-0.00016008304,-3.0602707e-05,-0.0076386645,0.0038974388,-0.037356865,5025,5025,0
250629483,250628849,2359330,2359330,-0.00057500927,-0.00067111634,0.00014145228,-0.007783426,-0.005984956,-0.028561067,5000,5000,0
251129510,251128851,2359330,2359330,0.0014573287,-0.0013108437,-0.00022811533,-0.00886983,0.0041440134,-0.0480429,5002,5002,0
251629561,251628849,2359330,2359330,-0.0010584347,-7.689769e-05,0.000289779,-0.011462641,-0.0013504236,-0.04023081,4948,4948,0
252129529,252128849,2359330,2359330,-0.0003465692,0.0003350518,2.4201567e-05,-0.013274735,-0.0015512537,-0.050234202,5000,5000,0
252629467,252628862,2359330,2359330,0.0001075094,0.00013634174,-0.0022531708,-0.01906219,-0.00022240207,-0.044206817,5013,5013,0
253129523,253128849,2359330,2359330,-0.0014946264,-9.067763e-05,-0.002440896,-0.025499366,0.0008036067,-0.046848677,5000,5000,0
253629531,253628849,2359330,2359330,-0.0009080865,-0.00023218218,-0.0015417747,-0.017934594,-0.0041123796,-0.047319394,5000,5000,0
254129528,254128852,2359330,2359330,0.0011388513,-0.00015959349,-0.0018175167,-0.019623114,0.008102745,-0.05823212,4970,4970,0
256629508,256628893,2359330,2359330,-0.0013382056,4.7161495e-05,0.00012583747,-0.021701517,-0.0024707054,-0.061619006,5044,5044,0
257129557,257128879,2359330,2359330,0.000104109226,-0.00036283044,0.0010970521,-0.017084545,0.0003573708,-0.05719997,5028,5028,0
257629414,257628851,2359330,2359330,0.00092236756,-0.00029760427,0.0012905189,-0.013160307,0.0035358267,-0.049342524,5001,5001,0
258129482,258128852,2359330,2359330,0.0005485275,-0.00019668679,0.0016296841,-0.013778723,0.002734935,-0.037297294,5000,5000,0
258629505,258628849,2359330,2359330,0.0006397835,0.0011947979,0.0022208847,-0.015837248,-0.0036407518,-0.04802541,4962,4962,0
259129624,259128982,2359330,2359330,0.0003274368,0.002046206,0.001211033,-0.010699691,0.0005307232,-0.04727024,5098,5098,0
259629452,259628850,2359330,2359330,0.00016007085,0.0018450622,-0.00029347942,-0.0018943502,0.0009936446,-0.045842674,5001,5001,0
260129458,260128854,2359330,2359330,-2.3527798e-05,0.0007881426,4.035197e-05,0.0024824606,0.0020063503,-0.05679437,5002,5002,0
260629543,260628849,2359330,2359330,3.7224236e-05,0.00023154405,3.406245e-05,-0.0018733979,-0.00010368645,-0.04694884,4998,4998,0
261129489,261128850,2359330,2359330,3.840478e-05,4.2907188e-05,-2.1188509e-05,-0.0023153527,0.0004947011,-0.048327737,5001,5001,0
261629510,261628849,2359330,2359330,1.4091963e-05,-1.777209e-05,-7.431498e-06,-0.0011858053,0.00021417734,-0.049528107,5000,5000,0
262129495,262128850,2359330,2359330,2.0568084e-05,-1.0832833e-05,-2.3385458e-06,-0.001002185,0.000366225,-0.04898454,5001,5001,0
262629429,262628859,2359330,2359330,-1.9560988e-05,-5.449343e-06,-3.2685084e-06,-0.0010091391,0.00046050726,-0.04912366,5005,5005,0
263129482,263128849,2359330,2359330,-2.6196112e-06,3.5704309e-06,9.072579e-07,-0.00091616757,0.00036812812,-0.049173668,5000,5000,0
263629479,263628853,2359330,2359330,3.360855e-05,8.641283e-06,-7.2698535e-06,-0.0009172506,0.00040012583,-0.048933674,5003,5003,0
264129470,264128874,2359330,2359330,1.1170824e-05,-1.7861375e-06,-2.330983e-06,-0.00097521086,0.0003966527,-0.048639704,4942,4942,0
264629455,264628849,2359330,2359330,-1.0053379e-05,9.013568e-06,-1.6999016e-05,-0.00088075077,0.00039382378,-0.048936892,5000,5000,0
265129445,265128849,2359330,2359330,-0.00012737713,-0.0013889162,-0.0005950964,0.0028484901,0.00075167883,-0.05133143,4998,4998,0
265629504,265628849,2359330,2359330,-2.6101556e-05,-0.0013647351,-0.0010587693,-0.006498725,-0.0024195106,-0.057482317,5000,5000,0
266129483,266128856,2359330,2359330,-0.0003754719,-0.001217987,-0.0016422994,-0.01249979,-0.0038470328,-0.055321436,5007,5007,0
266629489,266628858,2359330,2359330,-0.00084506645,-0.00030448977,-0.00091562327,-0.020826621,-0.0099402545,-0.058798406,5009,5009,0
267129480,267128882,2359330,2359330,-0.0011177366,-4.5975085e-05,-0.0013096906,-0.014139167,-0.0035683794,-0.03442773,5029,5029,0
267629414,267628849,2359330,2359330,0.0010979963,-0.00018505237,-0.00054153585,-0.017638002,-0.0035945317,-0.054709572,5000,5000,0
268129448,268128849,2359330,2359330,0.0003622393,0.0016356803,-0.00023876157,-0.015279016,0.0017239995,-0.05491068,5000,5000,0
268629566,268628866,2359330,2359330,0.00014301424,-0.00036342602,0.0013588874,-0.010608285,0.002449119,-0.02979562,5010,5010,0
269129631,269128899,2359330,2359330,0.0010211123,-0.0006615337,0.0017710017,-0.023993788,0.003705829,-0.051758677,5004,5004,0
270129466,270128849,2359330,2359330,0.00046451404,0.0016484885,0.0022289092,-0.0066851084,-0.00035805363,-0.042818174,5000,5000,0
270629500,270628849,2359330,2359330,6.604279e-05,0.0016521913,0.00022476772,-0.005355886,-0.00079936854,-0.049141467,5000,5000,0
271129493,271128850,2359330,2359330,0.00023789197,0.0007662287,-1.6389484e-05,0.0010890448,0.0018782382,-0.026841123,5001,5001,0
271629480,271628850,2359330,2359330,-9.290144e-05,0.00019228242,-1.9065508e-05,-0.0026868568,-0.00047593983,-0.052799914,4988,4988,0
272129480,272128852,2359330,2359330,-8.873415e-05,1.3245556e-05,1.9593866e-05,-0.0009714842,4.2309275e-05,-0.04903162,5000,5000,0
272629433,272628855,2359330,2359330,2.7833612e-05,1.7620052e-06,-1.3047591e-05,-0.00029057983,-5.694823e-05,-0.04822907,5006,5006,0
273129455,273128849,2359330,2359330,8.427708e-05,-6.773265e-06,-2.8812237e-05,-0.00013137044,0.0001163693,-0.04973866,5000,5000,0
273629494,273628858,2359330,2359330,-5.2100163e-06,-1.20654395e-05,-8.518445e-06,5.9127724e-05,0.00036342855,-0.04906361,5009,5009,0
274129490,274128885,2359330,2359330,-8.72491e-05,-1.34269385e-05,7.739487e-06,-1.8894525e-05,-8.5766915e-06,-0.04928277,4996,4996,0
274629482,274628849,2359330,2359330,2.707949e-05,1.433161e-05,-5.0387525e-06,8.452315e-05,5.5281296e-05,-0.049269214,4997,4997,0
275129439,275128849,2359330,2359330,6.046453e-05,8.706441e-06,-1.2255139e-05,2.8076765e-05,0.00021294785,-0.04894751,5000,5000,0
275629491,275628902,2359330,2359330,-3.0095274e-05,8.380412e-06,-1.6943291e-06,1.5064341e-05,0.00026357194,-0.049106624,4989,4989,0
277129557,277128849,2359330,2359330,-1.8375105e-06,-6.37911e-07,-3.236704e-06,1.0259011e-05,4.996441e-05,-0.04901829,5000,5000,0
277629569,277628897,2359330,2359330,-1.2786804e-05,2.613659e-06,9.730307e-06,-4.615449e-06,0.00038790662,-0.04943346,5046,5046,0
278129452,278128849,2359330,2359330,-4.8361744e-05,1.18511625e-05,1.7963437e-06,6.3543453e-06,-4.3315984e-05,-0.048996236,5000,5000,0
278629526,278628855,2359330,2359330,8.3726816e-05,6.1642254e-07,-2.4148854e-05,8.081338e-06,-8.73274e-06,-0.049195345,5006,5006,0
279129586,279128890,2359330,2359330,0.00021723706,1.9710897e-05,-2.601157e-05,-1.3888351e-05,0.0004164614,-0.049110003,5006,5006,0
279629516,279628849,2359330,2359330,-9.434086e-05,-9.585169e-06,1.1423178e-05,-9.890637e-06,0.0004285757,-0.04866617,4956,4956,0
280129474,280128849,2359330,2359330,-0.00012973016,4.346587e-06,2.2451592e-05,2.7750313e-05,-0.0001173364,-0.049072117,5000,5000,0
280629447,280628849,2359330,2359330,8.011736e-05,3.8094934e-06,-1.1048311e-05,-1.374752e-05,-9.231244e-05,-0.049120594,5000,5000,0
281129468,281128852,2359330,2359330,0.00015970357,1.4458928e-05,-2.691069e-05,1.4484472e-05,8.8758425e-05,-0.049030315,4994,4994,0
281629481,281628849,2359330,2359330,-1.913161e-05,5.453807e-06,-7.367396e-06,-0.000101488295,0.00028790804,-0.049319573,5000,5000,0
282129472,282128849,2359330,2359330,-1.5495632e-05,-5.062178e-06,-1.0197218e-05,-4.712527e-05,0.00015880333,-0.04915303,5000,5000,0
282629443,282628849,2359330,2359330,-1.8783368e-06,-1.3690181e-05,4.0816126e-06,1.7799059e-05,0.000133402,-0.049131844,5000,5000,0
283129447,283128852,2359330,2359330,4.6737787e-05,1.0598479e-06,-1.9209816e-05,-2.0525255e-05,8.599741e-05,-0.049024537,5002,5002,0
283629452,283628856,2359330,2359330,5.272727e-05,4.1309986e-06,-6.1924625e-06,2.4131115e-05,0.00013508114,-0.049090736,5002,5002,0
284129496,284128884,2359330,2359330,-5.262021e-05,-1.6533186e-05,1.312492e-05,-4.042101e-05,0.00017997327,-0.04905764,4997,4997,0
284629475,284628849,2359330,2359330,-1.7250675e-05,8.149183e-06,-6.608865e-07,-9.727502e-05,-1.3140878e-05,-0.0489725,4998,4998,0
285129600,285128903,2359330,2359330,4.4945235e-05,1.0589818e-05,-7.9288675e-06,8.068287e-05,-2.5652684e-05,-0.049160488,5014,5014,0
285629540,285628849,2359330,2359330,2.1288097e-05,-6.3177686e-06,-3.5338028e-06,-7.541872e-05,0.00011536126,-0.04916949,5000,5000,0
286129482,286128849,2359330,2359330,-7.5257226e-06,7.270959e-06,2.001776e-06,-0.00017098441,0.00018627766,-0.049075723,5000,5000,0
286629532,286628849,2359330,2359330,-7.394062e-06,3.962843e-06,4.129797e-06,-8.307022e-05,-6.4428394e-05,-0.049010515,5000,5000,0
287129528,287128849,2359330,2359330,3.6030473e-05,3.7468149e-06,-3.0353306e-06,-6.6657696e-05,1.5698532e-05,-0.04906602,5000,5000,0
289129433,289128879,2359330,2359330,4.702111e-05,2.9584437e-06,-1.1174832e-05,5.603761e-05,3.3722674e-05,-0.049209557,5005,5005,0
289629485,289628849,2359330,2359330,4.1957293e-05,1.5723761e-05,-1.750761e-05,1.8918381e-05,0.00029674577,-0.04899833,4991,4991,0
290129500,290128849,2359330,2359330,-4.25729e-05,-1.9547603e-07,-3.024481e-08,6.2925246e-05,9.565963e-05,-0.048579548,4959,4959,0
290629473,290628849,2359330,2359330,-8.890637e-06,1.2351528e-05,1.631623e-05,3.305707e-05,-6.739993e-05,-0.049122766,5000,5000,0
291129435,291128852,2359330,2359330,4.702293e-05,1.0397328e-05,-1.2393213e-05,-4.241924e-05,-5.2238556e-05,-0.049134877,5000,5000,0
291629459,291628860,2359330,2359330,-1.080012e-05,2.3484658e-06,-2.7504384e-06,1.7639199e-05,0.0001297062,-0.049164046,4994,4994,0
292129498,292128853,2359330,2359330,-1.314488e-05,-6.828527e-06,6.5215686e-06,1.8407654e-05,0.00021647033,-0.049150705,5004,5004,0
292629594,292628855,2359330,2359330,-2.3936305e-05,2.5877653e-06,3.490362e-06,-2.7601654e-05,1.587272e-05,-0.049199212,5006,5006,0
293129560,293128849,2359330,2359330,3.0478908e-05,5.099888e-06,-4.633905e-06,-0.000106690364,4.6551813e-05,-0.04908284,5000,5000,0
293629528,293628862,2359330,2359330,2.3477825e-05,3.513081e-06,-8.710051e-06,-0.00011219344,9.416186e-05,-0.04932058,5013,5013,0
294129436,294128874,2359330,2359330,1.0211077e-05,-5.607907e-07,6.5338924e-07,2.2511931e-05,2.854829e-05,-0.049094137,5005,5005,0
294629578,294628861,2359330,2359330,-1.710823e-05,-2.18351e-06,-8.354701e-06,-6.4395026e-05,1.744032e-05,-0.049035776,5012,5012,0
295129472,295128849,2359330,2359330,3.7546375e-05,1.6383052e-05,-2.220208e-05,3.3038974e-05,0.00023603566,-0.049256768,5000,5000,0
295629476,295628849,2359330,2359330,-0.000111497364,-0.0006019809,0.0013950234,-0.008166243,-0.0008951418,-0.04503403,4999,4999,0
296129464,296128859,2359330,2359330,0.0001243078,-0.00018023112,-0.0003490812,0.0034376641,-0.00031661338,-0.049298007,5010,5010,0
296629421,296628849,2359330,2359330,-6.545126e-05,5.892072e-06,-4.8929724e-05,-0.00015236768,6.165107e-05,-0.049344886,4997,4997,0
297129524,297128858,2359330,2359330,1.8949568e-05,8.730164e-07,6.658799e-07,0.00025866515,0.00019697996,-0.049429297,5008,5008,0
297629499,297628849,2359330,2359330,6.743691e-05,9.086277e-06,-1.37732395e-05,0.00018988905,0.00062668516,-0.048865743,5000,5000,0
298129478,298128851,2359330,2359330,-8.400008e-05,2.83954e-06,3.281622e-06,0.00013730078,0.00066138874,-0.048948158,4995,4995,0
298629550,298628890,2359330,2359330,-6.471571e-05,1.5148544e-06,9.592648e-06,0.00014389583,0.00038414836,-0.049408305,5041,5041,0
299129447,299128874,2359330,2359330,9.8418095e-05,5.6126987e-06,-2.1339412e-05,0.00012649782,0.0005143582,-0.049050022,5006,5006,0
301129551,301128858,2359330,2359330,8.675543e-05,3.9268043e-06,-1.1493558e-05,-6.4661835e-06,0.00060632615,-0.04917317,5009,5009,0
301629445,301628852,2359330,2359330,1.2586767e-05,3.883581e-06,5.123698e-06,9.296483e-05,0.0005864943,-0.04907475,5000,5000,0
302129501,302128849,2359330,2359330,0.00011540043,4.7111207e-06,-2.0153508e-05,-7.949612e-06,0.0007642787,-0.04890075,5000,5000,0
302629553,302628849,2359330,2359330,-1.2977895e-05,-6.7002143e-06,-1.4664169e-05,0.00012198348,0.00059697893,-0.04914325,5000,5000,0
303129469,303128849,2359330,2359330,-4.6263547e-05,2.0268062e-06,-9.299665e-06,6.8138484e-05,0.00078514643,-0.049211614,5000,5000,0
303629480,303628849,2359330,2359330,-1.8195053e-05,-1.248645e-06,-1.1738301e-05,0.00010831342,0.00063641294,-0.04880021,4987,4987,0
304129438,304128870,2359330,2359330,-3.1421323e-06,3.4647817e-06,-8.552624e-06,0.00017619022,0.00046086678,-0.049120087,5010,5010,0
304629466,304628850,2359330,2359330,6.060686e-05,1.7533856e-06,-1.6563212e-05,0.00017193475,0.0005405262,-0.048847035,4983,4983,0
305129536,305128913,2359330,2359330,-2.4633068e-06,-4.7862995e-06,1.6225431e-06,0.00017136941,0.00053272635,-0.04961278,5064,5064,0
305629483,305628849,2359330,2359330,-3.930562e-05,-3.2313804e-07,-3.9797924e-06,0.0001647225,0.00050186523,-0.048954114,5000,5000,0
306129479,306128849,2359330,2359330,1.7326288e-06,4.848337e-06,-8.124597e-06,-9.641714e-05,0.0004724785,-0.04902886,4987,4987,0
306629440,306628849,2359330,2359330,8.280354e-05,1.850581e-06,-2.5256253e-05,2.7431732e-05,0.00052804284,-0.04911357,5000,5000,0
307129473,307128872,2359330,2359330,-1.3811608e-05,7.2408147e-06,3.3638903e-06,-1.28843585e-05,0.0005348245,-0.048986133,4958,4958,0
307629516,307628851,2359330,2359330,-1.1380766e-05,7.1757518e-06,-3.4906295e-06,5.2854844e-05,0.00068117346,-0.049061164,5002,5002,0
308129528,308128852,2359330,2359330,-2.6610183e-05,-1.0495836e-06,-1.7596898e-06,0.000114582646,0.00047818094,-0.048955362,5000,5000,0
308629540,308628849,2359330,2359330,3.0893047e-05,4.7960293e-06,-9.25581e-06,0.000110381625,0.0005345352,-0.049125724,5000,5000,0
309129456,309128887,2359330,2359330,3.5225712e-05,8.10068e-06,-7.636106e-06,9.311635e-05,0.0006599521,-0.049370147,5033,5033,0
309629489,309628861,2359330,2359330,-4.9766277e-07,3.3430738e-06,-1.3271907e-07,8.621195e-05,0.0007110047,-0.04896706,5001,5001,0
310129568,310128849,2359330,2359330,-2.2427806e-05,-1.9573947e-06,-4.269044e-06,4.6352074e-05,0.00052420533,-0.049198274,5000,5000,0
310629496,310628849,2359330,2359330,9.9443405e-06,1.1092335e-05,-5.31069e-06,9.406875e-05,0.0005589412,-0.049125247,5000,5000,0
312629414,312628852,2359330,2359330,-9.831455e-06,1.3717191e-05,2.1463012e-07,0.00016127297,0.00048014772,-0.04908251,4999,4999,0
313129479,313128849,2359330,2359330,-2.2615563e-05,-6.30693e-06,-1.7528302e-05,-0.00059871265,0.0009903765,-0.048867736,5000,5000,0
313629474,313628849,2359330,2359330,7.001125e-05,2.13296e-06,-8.581586e-06,-1.7891194e-05,0.00059522345,-0.049041595,4986,4986,0
314129448,314128857,2359330,2359330,-5.5648856e-05,-8.735023e-06,-2.9600972e-06,-0.00029076467,0.00070423924,-0.049147733,5001,5001,0
314629485,314628872,2359330,2359330,3.5894278e-05,-5.388039e-05,-1.0495209e-05,-0.0005400234,-4.0099825e-05,-0.049293656,4999,4999,0
315129451,315128849,2359330,2359330,5.393077e-05,1.6336659e-05,-9.1818565e-06,-0.00028259185,0.0005606285,-0.049123563,5000,5000,0
315629479,315628852,2359330,2359330,-6.6569705e-06,5.0716335e-07,-5.7394195e-06,-4.839908e-05,0.0005285818,-0.04917445,4997,4997,0
316129556,316128862,2359330,2359330,-9.370529e-06,-2.9752302e-06,-8.424312e-06,0.0001574542,0.00046261563,-0.04931643,5011,5011,0
316629542,316628849,2359330,2359330,4.0868894e-05,7.647053e-06,-1.03696875e-05,0.0001417532,0.000682363,-0.048890594,5000,5000,0
317129492,317128849,2359330,2359330,1.6839658e-05,4.682679e-06,-5.7431453e-06,5.8616926e-05,0.000603068,-0.049218867,5000,5000,0
317629525,317628853,2359330,2359330,-4.037091e-06,3.0482477e-06,-3.7753352e-06,0.00016495619,0.0005937173,-0.049137592,5004,5004,0
318129493,318128849,2359330,2359330,-1.18267935e-05,6.3499515e-06,-1.2426367e-05,9.790406e-05,0.00060660124,-0.048627835,4951,4951,0
318629492,318628849,2359330,2359330,1.4969651e-06,1.7144663e-05,3.9233523e-06,0.000112896065,0.0004283431,-0.049059838,5000,5000,0
319129451,319128854,2359330,2359330,6.4560554e-05,9.071034e-06,-2.1531994e-05,6.8473804e-05,0.0005755238,-0.048949424,4997,4997,0
319629501,319628899,2359330,2359330,2.6694339e-05,2.2391444e-06,-2.5350726e-06,0.00014391699,0.0006024202,-0.04949795,5048,5048,0
320129451,320128849,2359330,2359330,1.7682227e-05,-5.317419e-07,8.095902e-07,-9.3561175e-06,0.00072886876,-0.04906127,5000,5000,0
320629412,320628853,2359330,2359330,2.7213637e-05,6.9784196e-06,-9.467554e-06,0.00011989571,0.0006011376,-0.04894376,5000,5000,0
321129478,321128851,2359330,2359330,-0.00010836438,-7.3284314e-06,7.3345914e-06,0.00018671225,0.00073380827,-0.048800014,5001,5001,0
321629525,321628849,2359330,2359330,-2.2483653e-05,-2.2751556e-07,-3.4622426e-06,8.706356e-05,0.00047809168,-0.0485995,4951,4951,0
322129621,322128959,2359330,2359330,3.7247366e-05,2.7133146e-06,-1.1353056e-05,4.3465778e-05,0.00033920325,-0.04965586,5056,5056,0
322629488,322628854,2359330,2359330,6.589207e-05,7.2803236e-06,-1.1628483e-05,3.9879225e-05,0.0005416031,-0.049074154,5002,5002,0
324129469,324128849,2359330,2359330,3.6543275e-05,7.498031e-06,-1.1756022e-05,0.00012838474,0.00053886883,-0.04929878,5000,5000,0
324629522,324628849,2359330,2359330,2.7792108e-05,2.6332573e-06,-1.2305616e-05,7.6468204e-05,0.00073798955,-0.049146928,5000,5000,0
325129510,325128849,2359330,2359330,-3.8299313e-05,2.7150973e-05,5.0339163e-06,-5.0545357e-05,0.00041943736,-0.04886319,4996,4996,0
325629451,325628852,2359330,2359330,-1.3585933e-05,-1.3958302e-05,3.0760126e-05,-3.940927e-06,0.0005300839,-0.048382636,4973,4973,0
326129496,326128849,2359330,2359330,3.294398e-05,4.381675e-05,-3.2964635e-05,0.0011475165,0.00013429858,-0.048942912,5000,5000,0
326629515,326628852,2359330,2359330,4.11831e-05,-4.891499e-05,3.6524998e-05,-0.0009053747,0.00071689836,-0.04551554,5000,5000,0
327129480,327128849,2359330,2359330,-5.1486022e-05,0.00011403861,5.800474e-05,0.00087302265,0.0005740481,-0.05147204,5000,5000,0
327629473,327628849,2359330,2359330,-0.00010255221,-0.00012288064,-5.6345784e-06,0.00058947905,0.003646219,-0.05321892,5000,5000,0
