timestamp,magnetometer_ga[0],magnetometer_ga[1],magnetometer_ga[2]
65679726,0.2166424,-0.1482079,0.3721776
65699728,0.2182097,-0.14674772,0.37069744
65719759,0.2119405,-0.1511282,0.38845927
65739724,0.2103732,-0.13652663,0.38845927
65759788,0.20410402,-0.13652663,0.37069744
65779832,0.2182097,-0.15258835,0.38845927
65799800,0.2182097,-0.14236727,0.3721776
65819840,0.20880592,-0.14674772,0.38845927
65839842,0.20880592,-0.14236727,0.39437988
65859842,0.2119405,-0.14382742,0.3810585
65879775,0.2182097,-0.14966805,0.3780982
65899736,0.2182097,-0.14966805,0.37957835
65919730,0.2103732,-0.14674772,0.3869791
65939729,0.21977697,-0.14236727,0.39289978
65959727,0.2276135,-0.14236727,0.38845927
65979722,0.20880592,-0.12776569,0.37957835
65999735,0.21507509,-0.14674772,0.37957835
66019730,0.2119405,-0.14236727,0.3914196
66039734,0.2182097,-0.15696883,0.39586005
66059719,0.21507509,-0.15696883,0.38253868
66079723,0.19783482,-0.15258835,0.38253868
66099721,0.2166424,-0.15404852,0.3721776
66119721,0.21977697,-0.14966805,0.3780982
66139744,0.2166424,-0.1511282,0.3810585
66159731,0.22604617,-0.14382742,0.385499
66179731,0.2182097,-0.14236727,0.37957835
66199735,0.20410402,-0.13360633,0.39289978
66219813,0.21977697,-0.14236727,0.39586005
66239790,0.20880592,-0.14236727,0.385499
66259810,0.2229116,-0.15404852,0.38845927
66279824,0.20410402,-0.13944694,0.37957835
66299758,0.19940212,-0.15404852,0.37513793
66319721,0.22447887,-0.15258835,0.37957835
66339726,0.20096943,-0.13360633,0.38845927
66359740,0.20880592,-0.1482079,0.37957835
66379755,0.21507509,-0.15696883,0.38845927
66399754,0.20410402,-0.14236727,0.37365776
66419765,0.20410402,-0.14674772,0.38253868
66439716,0.20567133,-0.13360633,0.37513793
66459737,0.20567133,-0.13360633,0.37957835
66479784,0.2166424,-0.158429,0.38845927
66499770,0.2166424,-0.1511282,0.38845927
66519788,0.22447887,-0.15258835,0.38253868
66539784,0.2166424,-0.14382742,0.3810585
66559725,0.21507509,-0.13360633,0.3780982
66579738,0.2119405,-0.1482079,0.3914196
66599738,0.2182097,-0.14236727,0.385499
66619725,0.2182097,-0.158429,0.3692173
66639794,0.21507509,-0.14966805,0.36773717
66659743,0.2166424,-0.1613493,0.37957835
66679813,0.19783482,-0.13360633,0.37957835
66699786,0.2119405,-0.1379868,0.37957835
66719772,0.2182097,-0.1613493,0.3914196
67419722,0.21977697,-0.14966805,0.37957835
67799737,0.20880592,-0.14236727,0.3869791
67819737,0.2166424,-0.14382742,0.3810585
67839729,0.20567133,-0.14382742,0.3914196
67859709,0.19940212,-0.1482079,0.40030053
67879730,0.2119405,-0.14382742,0.366257
67899788,0.22447887,-0.14236727,0.38253868
67919783,0.2119405,-0.13360633,0.3721776
67939843,0.23231538,-0.1482079,0.3721776
67959812,0.2166424,-0.14236727,0.38845927
67979808,0.2276135,-0.14674772,0.3869791
67999723,0.2229116,-0.1379868,0.3810585
68019741,0.2182097,-0.15258835,0.37069744
68039736,0.2166424,-0.14382742,0.385499
68059740,0.20880592,-0.12922585,0.37069744
68079747,0.20880592,-0.14966805,0.38253868
68099747,0.20096943,-0.16280948,0.3869791
68119734,0.20880592,-0.1482079,0.38845927
68139724,0.20410402,-0.15988915,0.39289978
68159734,0.2166424,-0.14236727,0.3810585
68179722,0.21977697,-0.13944694,0.39289978
68199722,0.2229116,-0.14382742,0.37513793
68219742,0.2025367,-0.1482079,0.37513793
68239725,0.19940212,-0.1511282,0.3810585
68259722,0.21977697,-0.14966805,0.3869791
68279730,0.20880592,-0.14236727,0.37365776
68299741,0.20880592,-0.15258835,0.37957835
68319789,0.2166424,-0.1511282,0.385499
68339767,0.2119405,-0.14382742,0.37957835
68359809,0.20567133,-0.158429,0.3721776
68379778,0.19783482,-0.13652663,0.38845927
68399793,0.20410402,-0.13944694,0.3780982
68419816,0.20880592,-0.13944694,0.36773717
68439731,0.2276135,-0.12922585,0.38253868
68459735,0.20567133,-0.1379868,0.37513793
68479729,0.2119405,-0.12776569,0.3721776
68499719,0.20880592,-0.1482079,0.3914196
68519720,0.2119405,-0.1482079,0.3810585
68539726,0.2182097,-0.14382742,0.366257
68559740,0.20880592,-0.1482079,0.37957835
68579774,0.21977697,-0.14674772,0.3780982
68599743,0.20880592,-0.15258835,0.38253868
68619749,0.20096943,-0.15258835,0.37957835
68639805,0.2119405,-0.1379868,0.37957835
68659797,0.2103732,-0.14236727,0.3780982
68679812,0.21507509,-0.13944694,0.38253868
68699722,0.23231538,-0.1482079,0.385499
68719721,0.21507509,-0.14674772,0.38253868
68739795,0.2182097,-0.1482079,0.3721776
68759771,0.2103732,-0.13360633,0.37957835
68779887,0.21507509,-0.15696883,0.3780982
68799780,0.2119405,-0.14382742,0.37957835
68819776,0.21507509,-0.14236727,0.3869791
68839725,0.22447887,-0.15696883,0.38253868
68859743,0.2166424,-0.14382742,0.38845927
68879735,0.21507509,-0.12922585,0.36773717
68899728,0.20880592,-0.1379868,0.38845927
68919721,0.21507509,-0.14236727,0.37365776
68939721,0.20567133,-0.15404852,0.3692173
68959721,0.19940212,-0.1511282,0.3914196
68979721,0.21977697,-0.13360633,0.38253868
68999733,0.2103732,-0.14674772,0.37069744
69019722,0.2166424,-0.12776569,0.3692173
69039733,0.2103732,-0.14966805,0.38253868
69059735,0.20410402,-0.14236727,0.3869791
69079765,0.2103732,-0.12922585,0.37365776
69099776,0.20410402,-0.14966805,0.37957835
69119806,0.2182097,-0.15696883,0.37957835
69139720,0.20880592,-0.1379868,0.37957835
69159842,0.19783482,-0.14674772,0.37365776
69179741,0.2119405,-0.13214615,0.366257
69199803,0.22447887,-0.15258835,0.36773717
69219786,0.20410402,-0.14236727,0.3869791
69239742,0.20880592,-0.15988915,0.37957835
69259777,0.20880592,-0.15404852,0.37957835
69279734,0.2103732,-0.15988915,0.37957835
69299732,0.20880592,-0.13652663,0.3780982
69319734,0.2166424,-0.1511282,0.3810585
69339784,0.2166424,-0.12776569,0.3810585
69359789,0.2166424,-0.14236727,0.366257
69379790,0.2025367,-0.1379868,0.3810585
69399735,0.2103732,-0.13360633,0.3780982
69419726,0.2103732,-0.16280948,0.37957835
69439733,0.21977697,-0.13360633,0.37957835
69459723,0.2229116,-0.14236727,0.3810585
69479724,0.21977697,-0.13944694,0.3869791
69499733,0.2103732,-0.15258835,0.37365776
69519726,0.2166424,-0.1511282,0.37957835
69539735,0.21507509,-0.13652663,0.38253868
69559732,0.21507509,-0.15696883,0.36773717
69579789,0.22447887,-0.14674772,0.3780982
69599752,0.2103732,-0.13944694,0.38845927
69619815,0.21977697,-0.13944694,0.37365776
69639772,0.2025367,-0.1379868,0.3914196
69659747,0.20567133,-0.15404852,0.37513793
69679737,0.22604617,-0.1379868,0.38845927
69699722,0.20567133,-0.1482079,0.37513793
69719738,0.20096943,-0.14966805,0.36773717
69739730,0.21977697,-0.14674772,0.38845927
69759741,0.2229116,-0.1482079,0.3810585
69779747,0.21507509,-0.13652663,0.3780982
69799760,0.21507509,-0.14966805,0.3780982
69819776,0.2276135,-0.13944694,0.37069744
69839795,0.2166424,-0.14236727,0.366257
69859724,0.22447887,-0.14236727,0.36477685
69879724,0.20880592,-0.1379868,0.385499
69899723,0.20410402,-0.14674772,0.3914196
69919741,0.20410402,-0.15258835,0.3780982
69939734,0.2182097,-0.15258835,0.38253868
69959719,0.21977697,-0.14674772,0.37957835
69979736,0.2182097,-0.14236727,0.37957835
69999833,0.2103732,-0.14966805,0.37957835
70019877,0.21977697,-0.14674772,0.38253868
70039822,0.2119405,-0.1511282,0.37957835
70059817,0.2276135,-0.14966805,0.38253868
70079789,0.20880592,-0.14966805,0.36773717
70099790,0.2182097,-0.14236727,0.3721776
70119799,0.2025367,-0.14236727,0.37957835
70139733,0.2182097,-0.14382742,0.38845927
70159831,0.22604617,-0.158429,0.385499
70179762,0.21507509,-0.13652663,0.3780982
70199749,0.2103732,-0.13944694,0.3869791
70219727,0.2119405,-0.1379868,0.3810585
70239780,0.2103732,-0.14236727,0.37957835
70259753,0.2182097,-0.14966805,0.37957835
70279785,0.21977697,-0.14966805,0.38845927
70299737,0.23231538,-0.1511282,0.3810585
70319747,0.21507509,-0.14236727,0.3780982
70339737,0.20880592,-0.14966805,0.36181653
70359734,0.22447887,-0.14966805,0.3869791
70379732,0.20880592,-0.1511282,0.37957835
70399744,0.21977697,-0.12922585,0.3869791
70419799,0.2025367,-0.14382742,0.3721776
70439747,0.20880592,-0.15988915,0.38253868
70459806,0.19940212,-0.1482079,0.3810585
70479785,0.2182097,-0.14236727,0.3780982
70499749,0.2119405,-0.1511282,0.37957835
70519765,0.2103732,-0.15696883,0.3780982
70539783,0.2229116,-0.14382742,0.385499
70559733,0.2182097,-0.14966805,0.36181653
70579734,0.2103732,-0.15988915,0.38253868
70599741,0.2182097,-0.14966805,0.38845927
70619727,0.20567133,-0.1482079,0.385499
70639721,0.2119405,-0.14236727,0.3810585
70659721,0.20880592,-0.13944694,0.3869791
70679730,0.2119405,-0.1379868,0.37513793
70699729,0.22604617,-0.1511282,0.3810585
70719760,0.2276135,-0.13944694,0.38253868
70739726,0.21507509,-0.15988915,0.37365776
70759742,0.2119405,-0.1482079,0.37513793
70779778,0.2103732,-0.15696883,0.38845927
70799790,0.2182097,-0.1511282,0.3692173
70819842,0.2182097,-0.15988915,0.3869791
70839803,0.2119405,-0.1482079,0.3692173
70859743,0.20410402,-0.14966805,0.37069744
70879860,0.20567133,-0.1511282,0.37957835
70899797,0.22447887,-0.14236727,0.38253868
70919741,0.22918077,-0.1379868,0.385499
70939735,0.20567133,-0.1511282,0.3914196
70959731,0.20880592,-0.158429,0.38845927
70979733,0.20567133,-0.1482079,0.385499
70999742,0.21977697,-0.15988915,0.37069744
71019726,0.2166424,-0.12776569,0.37513793
71039753,0.22447887,-0.13652663,0.38253868
71059734,0.20880592,-0.14674772,0.3780982
71079761,0.2166424,-0.14382742,0.36181653
71099748,0.20880592,-0.15404852,0.37513793
71119746,0.2276135,-0.15258835,0.37957835
71139732,0.21507509,-0.14966805,0.37957835
71159748,0.2025367,-0.14382742,0.385499
71179732,0.2182097,-0.14236727,0.36181653
71199750,0.2182097,-0.14382742,0.37957835
71219750,0.21507509,-0.13360633,0.36773717
71239829,0.2119405,-0.14382742,0.3810585
71259803,0.22447887,-0.14236727,0.38845927
71279807,0.20880592,-0.13652663,0.3780982
71299833,0.23231538,-0.158429,0.38845927
71319861,0.21977697,-0.15258835,0.37365776
71339739,0.2182097,-0.14236727,0.37957835
71359743,0.2182097,-0.1482079,0.37957835
71379733,0.2166424,-0.1511282,0.3692173
71399739,0.20410402,-0.13944694,0.3780982
71419734,0.2025367,-0.15404852,0.3692173
71439749,0.21977697,-0.15258835,0.37957835
71459726,0.20880592,-0.15988915,0.37365776
71479773,0.21507509,-0.15258835,0.3780982
71499773,0.2166424,-0.14382742,0.37957835
71519806,0.20880592,-0.14674772,0.3869791
71539790,0.20567133,-0.13360633,0.3810585
71559746,0.20410402,-0.14674772,0.38253868
71579737,0.21977697,-0.14236727,0.39289978
71599749,0.20880592,-0.14674772,0.38845927
71619754,0.2229116,-0.1482079,0.38845927
71639720,0.2166424,-0.158429,0.366257
71659850,0.2229116,-0.15988915,0.38845927
71679777,0.20880592,-0.13214615,0.3692173
71699749,0.20410402,-0.13944694,0.38253868
71719811,0.21507509,-0.14236727,0.38253868
71739775,0.2025367,-0.13360633,0.37513793
71759749,0.21507509,-0.15258835,0.37957835
71779758,0.22604617,-0.14236727,0.3810585
71799744,0.2119405,-0.1511282,0.3914196
71819719,0.21977697,-0.13652663,0.3780982
71839756,0.22447887,-0.14674772,0.38253868
71859744,0.19783482,-0.13944694,0.3780982
71879720,0.22604617,-0.14382742,0.37957835
71899737,0.2119405,-0.14236727,0.37513793
71919741,0.20880592,-0.1379868,0.385499
71939755,0.2229116,-0.1379868,0.385499
71959777,0.20880592,-0.14966805,0.3780982
71979801,0.20880592,-0.13944694,0.3780982
71999727,0.20410402,-0.14236727,0.3780982
72019740,0.21507509,-0.14674772,0.37069744
72039729,0.21977697,-0.13944694,0.39289978
72059733,0.2119405,-0.1511282,0.385499
72079720,0.20880592,-0.12922585,0.3869791
72099781,0.2276135,-0.14966805,0.37365776
72119737,0.2103732,-0.13944694,0.38845927
72139822,0.23074807,-0.14236727,0.3780982
72159803,0.22447887,-0.15988915,0.3869791
72179778,0.2119405,-0.13360633,0.37957835
72199781,0.21507509,-0.14674772,0.3780982
72219779,0.2119405,-0.14236727,0.3973402
72239801,0.22447887,-0.14674772,0.38845927
72259733,0.20410402,-0.15696883,0.37365776
72279720,0.2119405,-0.1482079,0.3721776
72299720,0.2182097,-0.14966805,0.38253868
72319740,0.2182097,-0.1482079,0.3810585
72339726,0.2119405,-0.1379868,0.36181653
72359737,0.19626753,-0.14236727,0.37513793
72379723,0.21507509,-0.13652663,0.38845927
72399720,0.22604617,-0.1482079,0.3810585
72419737,0.2119405,-0.15988915,0.3721776
72439720,0.2229116,-0.14382742,0.38845927
72459731,0.2182097,-0.14382742,0.3721776
72479719,0.2182097,-0.13214615,0.3810585
72499734,0.21507509,-0.13944694,0.37069744
72519816,0.21977697,-0.13360633,0.3869791
72539753,0.21507509,-0.14966805,0.37957835
72559803,0.2119405,-0.1482079,0.3810585
72579787,0.2229116,-0.1511282,0.37513793
72599758,0.20410402,-0.13652663,0.36477685
72619722,0.22447887,-0.15258835,0.37957835
72639740,0.2166424,-0.1379868,0.385499
72659772,0.2119405,-0.14236727,0.37513793
72679793,0.20410402,-0.13360633,0.38845927
72699720,0.20880592,-0.158429,0.37957835
72719728,0.2229116,-0.14236727,0.3721776
72739725,0.21507509,-0.13652663,0.37957835
72759733,0.2182097,-0.15258835,0.37957835
72779720,0.2182097,-0.15696883,0.3780982
72799728,0.22604617,-0.13360633,0.3692173
72819741,0.19783482,-0.14674772,0.37365776
72839741,0.2182097,-0.14236727,0.3721776
72859815,0.22604617,-0.15404852,0.37513793
72879768,0.2103732,-0.14236727,0.37957835
72899737,0.2103732,-0.13360633,0.37069744
72919833,0.20567133,-0.1482079,0.3721776
72939795,0.21507509,-0.13652663,0.39586005
72959835,0.2166424,-0.1482079,0.385499
72979853,0.2182097,-0.15258835,0.37365776
72999774,0.20567133,-0.1511282,0.385499
73019751,0.2103732,-0.15696883,0.38845927
73039740,0.21507509,-0.15696883,0.37957835
73059794,0.2229116,-0.12776569,0.3810585
73079727,0.20567133,-0.15988915,0.37513793
73099723,0.2103732,-0.13944694,0.3780982
73119719,0.21507509,-0.14674772,0.38845927
73139726,0.22447887,-0.13360633,0.37069744
73159727,0.2166424,-0.14236727,0.37957835
73179747,0.2103732,-0.14236727,0.37365776
73199741,0.2229116,-0.14382742,0.385499
73219731,0.2103732,-0.14236727,0.37069744
73239719,0.22447887,-0.14236727,0.38253868
73259742,0.21507509,-0.13944694,0.37365776
73279723,0.23074807,-0.14236727,0.3869791
73299719,0.21507509,-0.14966805,0.37365776
73319724,0.19626753,-0.1482079,0.385499
73339735,0.22918077,-0.1482079,0.37513793
73359808,0.20410402,-0.14966805,0.38845927
73379799,0.19940212,-0.1482079,0.385499
73399802,0.2119405,-0.1511282,0.3810585
73419825,0.20880592,-0.14236727,0.38253868
73439827,0.2182097,-0.14966805,0.37365776
73459725,0.21507509,-0.15258835,0.37957835
73479719,0.2166424,-0.12776569,0.38845927
73499723,0.21507509,-0.15258835,0.39289978
73519733,0.22447887,-0.14674772,0.3869791
73539766,0.2103732,-0.13944694,0.39586005
73559758,0.23701727,-0.13214615,0.37513793
73579778,0.20410402,-0.15258835,0.37069744
73599765,0.20567133,-0.14382742,0.36181653
73619781,0.2229116,-0.15404852,0.38845927
73639796,0.20880592,-0.1482079,0.3721776
73659790,0.20880592,-0.1379868,0.3721776
73679785,0.22604617,-0.1511282,0.37513793
73699734,0.20096943,-0.15258835,0.37365776
73719734,0.20567133,-0.1482079,0.3692173
73739722,0.2182097,-0.13652663,0.38845927
73759734,0.2182097,-0.13360633,0.37365776
73779780,0.2119405,-0.158429,0.3810585
73799754,0.2229116,-0.16572978,0.37957835
73819824,0.2119405,-0.1482079,0.37957835
73839783,0.22447887,-0.13944694,0.38253868
73859772,0.2025367,-0.1482079,0.3721776
73879722,0.20567133,-0.1482079,0.3721776
73899749,0.2119405,-0.1482079,0.3810585
73919756,0.2182097,-0.15258835,0.38253868
73939726,0.2166424,-0.14382742,0.39437988
73959731,0.20567133,-0.15404852,0.37513793
73979739,0.21507509,-0.13360633,0.37957835
73999728,0.2103732,-0.13652663,0.3780982
74019745,0.2182097,-0.15696883,0.36477685
74039731,0.2182097,-0.14236727,0.37365776
74059739,0.2182097,-0.14236727,0.37957835
74079759,0.2103732,-0.13944694,0.37365776
74099770,0.20410402,-0.15696883,0.37957835
74119789,0.2119405,-0.14236727,0.3721776
74139732,0.2166424,-0.1482079,0.38845927
74159732,0.2182097,-0.15258835,0.37069744
74179727,0.2229116,-0.14382742,0.385499
74199782,0.22447887,-0.13944694,0.38253868
74219740,0.2025367,-0.1511282,0.3810585
74239819,0.2166424,-0.1482079,0.3692173
74259788,0.2166424,-0.15404852,0.3810585
74279783,0.21977697,-0.14966805,0.3780982
74299787,0.21507509,-0.13944694,0.37365776
74319781,0.2166424,-0.13360633,0.3810585
74339811,0.2166424,-0.1379868,0.366257
74359844,0.2103732,-0.14236727,0.37957835
74379801,0.2276135,-0.15258835,0.37365776
74399791,0.20880592,-0.1482079,0.3973402
74419760,0.20567133,-0.1482079,0.37957835
74439741,0.2119405,-0.1613493,0.385499
74459731,0.20410402,-0.16280948,0.37957835
74479744,0.19783482,-0.14674772,0.38253868
74499725,0.2119405,-0.1511282,0.385499
74519739,0.2182097,-0.14966805,0.38253868
74539756,0.2119405,-0.1379868,0.3721776
74559752,0.2182097,-0.14382742,0.3973402
74579768,0.2119405,-0.1482079,0.38845927
74599842,0.2182097,-0.14236727,0.39437988
74619786,0.2103732,-0.13944694,0.37069744
74639738,0.20567133,-0.1379868,0.3973402
74659840,0.2166424,-0.1511282,0.37513793
74679789,0.20567133,-0.14236727,0.3692173
74699777,0.20096943,-0.14674772,0.36477685
74719783,0.2103732,-0.13944694,0.37365776
74739763,0.2182097,-0.14966805,0.37365776
74759729,0.2229116,-0.14382742,0.37513793
74779744,0.19940212,-0.1482079,0.37513793
74799760,0.21507509,-0.14966805,0.38253868
74819777,0.2229116,-0.14382742,0.37957835
74839805,0.2103732,-0.13944694,0.37957835
74859740,0.2119405,-0.1511282,0.3914196
74879742,0.2182097,-0.12922585,0.37069744
74899734,0.21977697,-0.13360633,0.37957835
74919752,0.2103732,-0.14674772,0.37365776
74939745,0.2276135,-0.15258835,0.38845927
74959741,0.2166424,-0.15404852,0.37957835
74979752,0.22447887,-0.13360633,0.37957835
74999772,0.2166424,-0.1482079,0.3721776
75019833,0.2025367,-0.14382742,0.37957835
75039796,0.2025367,-0.1511282,0.385499
75059843,0.2025367,-0.13360633,0.3869791
75079862,0.21507509,-0.13360633,0.37957835
75099816,0.20880592,-0.1482079,0.3810585
75119792,0.20096943,-0.14966805,0.38845927
75139773,0.21507509,-0.14236727,0.37957835
75159738,0.20410402,-0.14674772,0.37365776
75179739,0.2229116,-0.158429,0.3810585
75199744,0.2103732,-0.13944694,0.3780982
75219736,0.2119405,-0.13214615,0.3810585
75239747,0.23701727,-0.14236727,0.37513793
75259755,0.22604617,-0.14382742,0.3692173
75279760,0.21977697,-0.14236727,0.38253868
75299747,0.2182097,-0.14236727,0.3780982
75319758,0.2166424,-0.14236727,0.3810585
75339759,0.20880592,-0.14236727,0.37957835
75359755,0.2229116,-0.14382742,0.37513793
75379780,0.2119405,-0.14236727,0.3810585
75399748,0.2182097,-0.14236727,0.3780982
75419772,0.2166424,-0.13360633,0.37513793
75439849,0.20410402,-0.13944694,0.39289978
75459791,0.22604617,-0.15988915,0.38845927
75479751,0.22447887,-0.14674772,0.38253868
75499824,0.22447887,-0.13652663,0.37957835
75519818,0.20096943,-0.14236727,0.3869791
75539782,0.20880592,-0.1511282,0.3721776
75559800,0.2182097,-0.14382742,0.3810585
75579749,0.2182097,-0.14236727,0.38845927
75599758,0.2166424,-0.15404852,0.3810585
75619770,0.2182097,-0.14236727,0.36477685
75639765,0.2025367,-0.14236727,0.37513793
75659766,0.22447887,-0.14966805,0.37957835
75679759,0.2166424,-0.1379868,0.39437988
75699756,0.2166424,-0.14236727,0.385499
75719771,0.21977697,-0.14236727,0.37957835
75739803,0.21977697,-0.15696883,0.39586005
75759813,0.2025367,-0.1511282,0.37957835
75779792,0.2025367,-0.14236727,0.3810585
75799801,0.2103732,-0.14674772,0.37069744
75819816,0.19940212,-0.1482079,0.3914196
75839883,0.22447887,-0.13944694,0.38253868
75859841,0.2182097,-0.1482079,0.3692173
75879792,0.21977697,-0.14236727,0.37957835
75899760,0.19626753,-0.14382742,0.385499
75919861,0.20880592,-0.14236727,0.3914196
75939813,0.2103732,-0.14236727,0.37365776
75959772,0.20880592,-0.1511282,0.3914196
75979751,0.20880592,-0.1379868,0.366257
75999758,0.2119405,-0.13214615,0.36181653
76019753,0.21507509,-0.13944694,0.38253868
76039762,0.2229116,-0.14382742,0.37957835
76059759,0.2166424,-0.1379868,0.3810585
76079759,0.2103732,-0.14236727,0.38253868
76099828,0.2103732,-0.13652663,0.35441574
76119785,0.20880592,-0.1482079,0.37513793
76139756,0.21507509,-0.14674772,0.3869791
76159758,0.21977697,-0.14674772,0.3869791
76179763,0.2182097,-0.1511282,0.37957835
76199754,0.2229116,-0.1482079,0.385499
76219808,0.21977697,-0.13944694,0.37365776
76239767,0.20096943,-0.15258835,0.3780982
76259789,0.20410402,-0.14674772,0.3780982
76279872,0.20880592,-0.13652663,0.3780982
76299846,0.2229116,-0.14382742,0.37957835
76319751,0.20567133,-0.1379868,0.3780982
76339869,0.20410402,-0.15696883,0.3780982
76359882,0.20880592,-0.15258835,0.38253868
76379790,0.2103732,-0.13944694,0.38845927
76399789,0.2229116,-0.1379868,0.3810585
76419765,0.2103732,-0.13944694,0.36477685
76439793,0.2182097,-0.1379868,0.37957835
76459787,0.23701727,-0.1482079,0.3914196
76479813,0.20880592,-0.158429,0.3721776
76499812,0.21507509,-0.14236727,0.37365776
76519825,0.22447887,-0.15696883,0.38253868
76539802,0.20880592,-0.15258835,0.36773717
76559762,0.2103732,-0.14674772,0.38253868
76579773,0.21507509,-0.15696883,0.36773717
76599772,0.2119405,-0.13360633,0.37957835
76619756,0.20880592,-0.13944694,0.38253868
76639775,0.2103732,-0.14674772,0.36477685
76659776,0.20880592,-0.14382742,0.38845927
76679772,0.2229116,-0.15988915,0.3914196
76699833,0.2025367,-0.12776569,0.3810585
76719792,0.2182097,-0.13944694,0.3780982
76739774,0.20880592,-0.14674772,0.38845927
76759842,0.20567133,-0.14236727,0.3810585
76779824,0.20880592,-0.14236727,0.3810585
76799797,0.2229116,-0.1482079,0.38845927
76819776,0.2103732,-0.13360633,0.38845927
76839785,0.20880592,-0.14382742,0.39437988
76859773,0.2119405,-0.121925056,0.3810585
76879772,0.2166424,-0.14236727,0.3810585
76899771,0.2229116,-0.12776569,0.37513793
76919788,0.22604617,-0.158429,0.3810585
76939797,0.20880592,-0.14236727,0.37069744
76959781,0.2166424,-0.14382742,0.3810585
76979797,0.21507509,-0.13944694,0.38253868
76999812,0.2119405,-0.14236727,0.37513793
77019834,0.2119405,-0.13214615,0.37513793
77039773,0.2166424,-0.121925056,0.3810585
77059784,0.2182097,-0.13214615,0.37957835
77079770,0.19940212,-0.1482079,0.37957835
77099779,0.20096943,-0.14674772,0.38253868
77119830,0.2119405,-0.13360633,0.37513793
77139796,0.2182097,-0.13944694,0.37957835
77159841,0.21977697,-0.14236727,0.37365776
77179853,0.2166424,-0.1379868,0.37957835
77199852,0.2103732,-0.13944694,0.37069744
77219838,0.2103732,-0.15696883,0.37365776
77239821,0.20880592,-0.14382742,0.366257
77259821,0.23231538,-0.14236727,0.3810585
77279837,0.20410402,-0.16718994,0.3780982
77299835,0.22604617,-0.15404852,0.3692173
77319835,0.2166424,-0.14382742,0.3810585
77339862,0.2182097,-0.14236727,0.37957835
77359781,0.2166424,-0.1511282,0.37957835
77379798,0.2276135,-0.13944694,0.39289978
77399794,0.20880592,-0.14382742,0.3721776
77439806,0.20880592,-0.14236727,0.36181653
77459786,0.21507509,-0.15988915,0.3869791
77479777,0.2229116,-0.15404852,0.3914196
77499778,0.2119405,-0.13214615,0.366257
77519795,0.20880592,-0.13652663,0.3869791
77539886,0.2229116,-0.14236727,0.385499
77559897,0.20880592,-0.13360633,0.3810585
77579854,0.20567133,-0.14382742,0.3692173
77599920,0.2103732,-0.13944694,0.3780982
77619817,0.2229116,-0.14382742,0.37513793
77639796,0.22604617,-0.12484538,0.38845927
77659796,0.21507509,-0.14674772,0.38253868
77679792,0.21507509,-0.15988915,0.3780982
77699828,0.19783482,-0.13360633,0.39289978
77719877,0.2166424,-0.14382742,0.37513793
77739837,0.20096943,-0.14674772,0.38253868
77759854,0.2182097,-0.1482079,0.3810585
77779799,0.2025367,-0.1379868,0.3914196
77799799,0.22447887,-0.13360633,0.3780982
77819805,0.2119405,-0.13360633,0.3721776
77839808,0.2229116,-0.14382742,0.3810585
77859796,0.20567133,-0.15404852,0.3692173
77879799,0.2103732,-0.14236727,0.3869791
77899818,0.2182097,-0.13944694,0.37069744
77919861,0.2119405,-0.1379868,0.38845927
77939880,0.2166424,-0.14382742,0.366257
77959918,0.2166424,-0.14382742,0.3721776
77979903,0.20880592,-0.1511282,0.37957835
77999887,0.2119405,-0.14382742,0.3810585
78019910,0.2119405,-0.14236727,0.3721776
78039854,0.20567133,-0.14236727,0.37513793
78059852,0.2103732,-0.14236727,0.3869791
78079805,0.2182097,-0.14966805,0.3780982
78099798,0.21507509,-0.14966805,0.3869791
78119796,0.2119405,-0.14236727,0.3692173
78139810,0.20567133,-0.1511282,0.3810585
78159810,0.2229116,-0.1379868,0.3810585
78179804,0.2182097,-0.13360633,0.37957835
78199815,0.2229116,-0.1482079,0.3914196
78219807,0.20567133,-0.13360633,0.37513793
78239801,0.21977697,-0.14236727,0.38253868
78259855,0.21507509,-0.14674772,0.37957835
78279821,0.2119405,-0.14236727,0.37957835
78299751,0.2119405,-0.1511282,0.385499
78319821,0.20880592,-0.14236727,0.37365776
78339805,0.2229116,-0.1482079,0.366257
78359864,0.20880592,-0.1482079,0.3692173
78379838,0.20410402,-0.15988915,0.3869791
78399886,0.22604617,-0.12484538,0.3810585
78419865,0.2166424,-0.15404852,0.3721776
78439896,0.20567133,-0.1379868,0.37957835
78459842,0.2166424,-0.14236727,0.3810585
78479868,0.2182097,-0.14674772,0.38845927
78499884,0.20567133,-0.14382742,0.38845927
78519826,0.20880592,-0.1511282,0.385499
78539808,0.20880592,-0.14236727,0.3914196
78559824,0.20880592,-0.14382742,0.366257
78579842,0.22604617,-0.15404852,0.38845927
78599726,0.2182097,-0.14236727,0.38253868
78619823,0.2119405,-0.1482079,0.37513793
78639862,0.2229116,-0.14236727,0.3810585
78659858,0.20880592,-0.158429,0.385499
78679856,0.2229116,-0.1379868,0.385499
78699878,0.22918077,-0.1379868,0.37957835
78719853,0.2119405,-0.14382742,0.3721776
78739853,0.2103732,-0.12922585,0.36181653
78759920,0.20410402,-0.13944694,0.37365776
78779885,0.20880592,-0.15258835,0.38253868
78799837,0.2103732,-0.13652663,0.38845927
78819799,0.19783482,-0.15258835,0.37365776
78839853,0.20096943,-0.14674772,0.3869791
78859974,0.20880592,-0.13944694,0.3780982
78879831,0.2119405,-0.1379868,0.37957835
78899850,0.2182097,-0.158429,0.37957835
78919740,0.21977697,-0.14674772,0.37957835
78939815,0.22604617,-0.1379868,0.39437988
78959817,0.2229116,-0.1379868,0.37513793
78979802,0.21977697,-0.1379868,0.37365776
78999728,0.22447887,-0.14966805,0.37365776
79019815,0.19626753,-0.1379868,0.3810585
79039729,0.21977697,-0.12922585,0.3869791
79059734,0.21507509,-0.13652663,0.37957835
79079748,0.2119405,-0.1511282,0.38845927
79099769,0.22447887,-0.15258835,0.37365776
79119900,0.2182097,-0.13214615,0.38845927
79139821,0.2166424,-0.14382742,0.3810585
79159727,0.2119405,-0.15404852,0.36181653
79179742,0.20880592,-0.13944694,0.37365776
79199728,0.2119405,-0.14382742,0.37513793
79219729,0.2103732,-0.14966805,0.37365776
79239828,0.2166424,-0.14382742,0.3810585
79259742,0.23074807,-0.14674772,0.37957835
79279939,0.22447887,-0.13360633,0.37069744
79299852,0.2166424,-0.1379868,0.37513793
79319837,0.2182097,-0.14236727,0.40030053
79339816,0.2119405,-0.1379868,0.385499
79359853,0.2229116,-0.13214615,0.3914196
79379859,0.21977697,-0.15988915,0.38253868
79399879,0.2119405,-0.1511282,0.3810585
79419731,0.22447887,-0.14674772,0.3869791
79439734,0.22447887,-0.14674772,0.38253868
79459737,0.2119405,-0.1482079,0.3721776
79479730,0.2166424,-0.14236727,0.37957835
79499739,0.2025367,-0.13360633,0.3721776
79519736,0.21977697,-0.14236727,0.37957835
79539732,0.2103732,-0.14674772,0.3780982
79559745,0.21507509,-0.14966805,0.37365776
79579744,0.20880592,-0.13944694,0.38253868
79599736,0.22447887,-0.14966805,0.39586005
79619729,0.21977697,-0.13944694,0.39289978
79639744,0.2119405,-0.158429,0.385499
79659790,0.20880592,-0.13360633,0.37513793
79679739,0.20567133,-0.14382742,0.3721776
79699902,0.20880592,-0.14236727,0.38253868
79719753,0.20880592,-0.14382742,0.3810585
79739829,0.22918077,-0.13214615,0.3810585
79759731,0.2119405,-0.13214615,0.366257
79779739,0.2103732,-0.14966805,0.38845927
79799754,0.2182097,-0.14966805,0.37365776
79819772,0.2182097,-0.158429,0.3721776
79839785,0.21507509,-0.14966805,0.37365776
79859733,0.2103732,-0.13360633,0.36773717
79879739,0.20410402,-0.13652663,0.3869791
79899732,0.2182097,-0.1379868,0.3721776
79919743,0.20880592,-0.13360633,0.37957835
79939739,0.2119405,-0.15404852,0.3721776
79959743,0.2182097,-0.14236727,0.37513793
79979733,0.20880592,-0.1379868,0.385499
79999744,0.21977697,-0.14966805,0.38253868
80019778,0.2182097,-0.14236727,0.385499
80039744,0.20880592,-0.14674772,0.36773717
80059828,0.22604617,-0.15988915,0.3810585
80079899,0.20880592,-0.15404852,0.3810585
80099895,0.2182097,-0.14382742,0.3810585
80119921,0.2103732,-0.15258835,0.38253868
80139879,0.21507509,-0.14966805,0.38253868
80159889,0.2229116,-0.1511282,0.3721776
80179732,0.2103732,-0.13652663,0.38845927
80199731,0.20567133,-0.1482079,0.3721776
80219730,0.22447887,-0.14674772,0.3780982
80239733,0.2103732,-0.13652663,0.37069744
80259729,0.2182097,-0.15404852,0.37957835
80279746,0.2182097,-0.14382742,0.37957835
80299737,0.2182097,-0.1686501,0.385499
80319745,0.19626753,-0.14236727,0.3721776
80339736,0.2119405,-0.12484538,0.3721776
80359729,0.20880592,-0.14236727,0.37957835
80379743,0.2025367,-0.14236727,0.38845927
80399727,0.21507509,-0.14674772,0.38253868
80419743,0.20880592,-0.14236727,0.3692173
80439735,0.22447887,-0.14966805,0.3780982
80459726,0.20880592,-0.15988915,0.3973402
80479729,0.2119405,-0.1511282,0.3810585
80499788,0.20880592,-0.1482079,0.3692173
80519795,0.2119405,-0.1379868,0.3810585
80539894,0.19940212,-0.14236727,0.3721776
80559830,0.21507509,-0.123385206,0.36477685
80579900,0.22447887,-0.12922585,0.38253868
80599728,0.19783482,-0.14236727,0.38253868
80619739,0.2103732,-0.15258835,0.38253868
80639738,0.20880592,-0.14236727,0.3810585
80659728,0.20880592,-0.14674772,0.3780982
80679730,0.20410402,-0.13944694,0.38253868
80699817,0.2103732,-0.14966805,0.37069744
80719752,0.2166424,-0.15404852,0.3810585
80739719,0.2119405,-0.1511282,0.3692173
80759730,0.2119405,-0.1482079,0.37513793
80779788,0.20096943,-0.15696883,0.3780982
80799787,0.2119405,-0.14236727,0.38845927
80819788,0.20880592,-0.1613493,0.385499
80839787,0.2182097,-0.13944694,0.37957835
80859727,0.2166424,-0.14236727,0.3810585
80879729,0.20880592,-0.14674772,0.38845927
80899728,0.2276135,-0.15696883,0.37365776
80919788,0.2103732,-0.14236727,0.38253868
80939741,0.2229116,-0.1511282,0.3721776
80959936,0.2182097,-0.14236727,0.3869791
80979739,0.20880592,-0.14236727,0.37957835
80999773,0.2166424,-0.13360633,0.3810585
81019729,0.22604617,-0.1482079,0.3810585
81039729,0.20880592,-0.15404852,0.3810585
81059735,0.2229116,-0.15404852,0.3810585
81079743,0.20096943,-0.15988915,0.3780982
81099731,0.2103732,-0.14674772,0.3869791
81119745,0.2103732,-0.14966805,0.3869791
81139736,0.22447887,-0.15258835,0.38253868
81159738,0.22918077,-0.1482079,0.366257
81179729,0.23388267,-0.13360633,0.3869791
81199727,0.2182097,-0.14236727,0.37365776
81219740,0.2103732,-0.14966805,0.37365776
81239768,0.20880592,-0.14382742,0.385499
81259782,0.2119405,-0.13360633,0.37957835
81279795,0.23701727,-0.14236727,0.37513793
81299732,0.20567133,-0.1613493,0.3721776
81319739,0.21977697,-0.14236727,0.37365776
81339849,0.21507509,-0.15258835,0.37957835
81359737,0.2182097,-0.13944694,0.37069744
81379819,0.20880592,-0.14382742,0.3810585
81399754,0.20880592,-0.14674772,0.37069744
81419740,0.2119405,-0.1482079,0.385499
81439735,0.2166424,-0.1482079,0.37513793
81459726,0.20410402,-0.14674772,0.37957835
81479745,0.2025367,-0.14236727,0.385499
81499792,0.2166424,-0.14382742,0.3721776
81519792,0.2119405,-0.14382742,0.38845927
81539790,0.20880592,-0.1482079,0.385499
81559727,0.20880592,-0.14236727,0.37957835
81579740,0.2166424,-0.15404852,0.39437988
81599742,0.2182097,-0.14674772,0.37957835
81619728,0.21507509,-0.13360633,0.37365776
81639734,0.2182097,-0.14382742,0.3721776
81659728,0.2119405,-0.1482079,0.37513793
81679732,0.19626753,-0.14236727,0.3810585
81699738,0.2119405,-0.1511282,0.3721776
81719757,0.2119405,-0.1482079,0.385499
81739742,0.21977697,-0.15696883,0.39289978
81759789,0.20410402,-0.14236727,0.37365776
81779741,0.2182097,-0.14236727,0.3869791
81799813,0.20880592,-0.14236727,0.3721776
81819740,0.20880592,-0.1482079,0.3810585
81839753,0.20880592,-0.15696883,0.38845927
81859726,0.21977697,-0.11608443,0.37365776
81879743,0.23074807,-0.14236727,0.3780982
81899732,0.2119405,-0.1482079,0.3692173
81919731,0.2103732,-0.13944694,0.3780982
81939751,0.2182097,-0.1511282,0.3810585
81959765,0.23231538,-0.14236727,0.37513793
81979792,0.2119405,-0.14382742,0.3721776
81999794,0.2103732,-0.14674772,0.37957835
82019729,0.20880592,-0.1482079,0.37957835
82039729,0.22604617,-0.14382742,0.3810585
82059754,0.2103732,-0.13944694,0.37069744
82079796,0.20880592,-0.14236727,0.37957835
82099761,0.21977697,-0.15988915,0.37365776
82119734,0.2182097,-0.13214615,0.39437988
82139753,0.19626753,-0.14236727,0.385499
82159728,0.2182097,-0.14674772,0.3869791
82179809,0.21507509,-0.14236727,0.3780982
82199754,0.20880592,-0.13214615,0.36181653
82220019,0.21977697,-0.14674772,0.3780982
82239810,0.23231538,-0.14382742,0.385499
82259821,0.2103732,-0.13360633,0.3780982
82279728,0.19940212,-0.1379868,0.385499
82299733,0.2229116,-0.13360633,0.3692173
82319730,0.2103732,-0.14236727,0.37365776
82339728,0.2103732,-0.14674772,0.38253868
82359729,0.2229116,-0.1511282,0.38845927
82379727,0.2182097,-0.13652663,0.3780982
82399726,0.2119405,-0.14236727,0.3810585
82419727,0.21977697,-0.15696883,0.37957835
82439727,0.22604617,-0.1379868,0.3810585
82459735,0.2166424,-0.1482079,0.37957835
82479740,0.2182097,-0.13360633,0.38845927
82499726,0.20410402,-0.15258835,0.37069744
82519730,0.2182097,-0.14966805,0.3780982
82539750,0.18999833,-0.13944694,0.37365776
82559731,0.21507509,-0.14236727,0.37069744
82579739,0.21507509,-0.14674772,0.38253868
82599789,0.2229116,-0.14382742,0.3914196
82619778,0.2166424,-0.16572978,0.3810585
82639853,0.2166424,-0.15404852,0.3810585
82659752,0.20880592,-0.14236727,0.37957835
82679770,0.20567133,-0.1482079,0.385499
82699792,0.22447887,-0.14674772,0.37957835
82719735,0.2276135,-0.15258835,0.37069744
82739735,0.21977697,-0.14236727,0.38845927
82759733,0.2182097,-0.15696883,0.37365776
82779727,0.21507509,-0.13360633,0.37957835
82799726,0.22447887,-0.14674772,0.3780982
82819730,0.2103732,-0.15988915,0.37957835
82839731,0.2166424,-0.15404852,0.37957835
82859776,0.2119405,-0.1511282,0.37957835
82879775,0.20410402,-0.13360633,0.36181653
82899742,0.20880592,-0.14382742,0.366257
82919744,0.21507509,-0.14382742,0.37957835
82939789,0.2229116,-0.14236727,0.385499
82959813,0.20096943,-0.15696883,0.3780982
82979802,0.20410402,-0.13652663,0.37957835
82999741,0.2103732,-0.14236727,0.37365776
83019788,0.2119405,-0.1482079,0.3810585
83039747,0.2166424,-0.158429,0.37957835
83059863,0.2103732,-0.13652663,0.37957835
83079786,0.2182097,-0.13944694,0.3780982
83099758,0.2103732,-0.13944694,0.37365776
83119730,0.2119405,-0.1511282,0.3810585
83139730,0.21507509,-0.15258835,0.38253868
83159751,0.2182097,-0.14382742,0.38845927
83179735,0.20880592,-0.15258835,0.39289978
83199740,0.2182097,-0.15404852,0.38845927
83219754,0.2166424,-0.1482079,0.3810585
83239739,0.2119405,-0.1482079,0.37513793
83259741,0.20880592,-0.15404852,0.37957835
83279742,0.22918077,-0.14382742,0.3692173
83299744,0.2229116,-0.14236727,0.3810585
83319755,0.2182097,-0.14674772,0.38845927
83339735,0.22918077,-0.1511282,0.38845927
83359744,0.20096943,-0.13652663,0.37957835
83379758,0.2119405,-0.1379868,0.37957835
83399777,0.2166424,-0.15404852,0.3914196
83419794,0.2276135,-0.13652663,0.3780982
83439826,0.20880592,-0.13944694,0.38845927
83459742,0.20880592,-0.13944694,0.38845927
83479863,0.21507509,-0.13944694,0.37069744
83499757,0.21977697,-0.14674772,0.3780982
83519780,0.20567133,-0.1511282,0.3810585
83539771,0.20410402,-0.14236727,0.39586005
83559773,0.2103732,-0.14236727,0.3869791
83579746,0.20880592,-0.16280948,0.35885626
83599769,0.2025367,-0.14382742,0.37513793
83619744,0.2166424,-0.14236727,0.3721776
83639802,0.21977697,-0.15988915,0.38845927
83659787,0.22447887,-0.14236727,0.3780982
83679792,0.2229116,-0.14382742,0.3810585
83699870,0.2103732,-0.13360633,0.37957835
84499737,0.21977697,-0.15258835,0.3780982
84519738,0.2166424,-0.1511282,0.3721776
85059758,0.20880592,-0.1511282,0.37513793
85099852,0.21507509,-0.14236727,0.37365776
85119861,0.2103732,-0.14236727,0.37365776
85139796,0.2182097,-0.14966805,0.38253868
85159871,0.2166424,-0.14382742,0.37957835
85179736,0.2119405,-0.14382742,0.37513793
85199751,0.20880592,-0.14674772,0.37957835
85219731,0.20096943,-0.14236727,0.37365776
85239737,0.2166424,-0.1482079,0.37513793
85259730,0.20880592,-0.14236727,0.4017807
85279730,0.19783482,-0.14966805,0.3780982
85299726,0.2182097,-0.1482079,0.3914196
85319727,0.2119405,-0.1379868,0.3692173
85339737,0.2182097,-0.15404852,0.385499
85359729,0.20880592,-0.14236727,0.3780982
85379727,0.20880592,-0.14236727,0.36181653
85399732,0.2119405,-0.1482079,0.3692173
85419746,0.2182097,-0.13652663,0.3869791
85439728,0.2182097,-0.13944694,0.38253868
85459726,0.2182097,-0.13360633,0.3810585
85479729,0.2166424,-0.13214615,0.3810585
85499733,0.2025367,-0.13214615,0.3810585
85519751,0.2182097,-0.13944694,0.3780982
85539812,0.2276135,-0.13652663,0.37069744
85559791,0.2119405,-0.1379868,0.37957835
85579836,0.2182097,-0.13360633,0.37957835
85599817,0.20096943,-0.15696883,0.37957835
85619740,0.2182097,-0.14674772,0.37069744
85639722,0.21507509,-0.13652663,0.37069744
85659721,0.22604617,-0.14382742,0.38845927
85679728,0.2276135,-0.14674772,0.37365776
85699721,0.2166424,-0.1511282,0.37957835
85719728,0.22447887,-0.13944694,0.36773717
85739754,0.2182097,-0.1511282,0.37957835
85759725,0.2119405,-0.14236727,0.3810585
85779735,0.2119405,-0.1482079,0.37957835
85799784,0.2166424,-0.14236727,0.37513793
85819794,0.18999833,-0.13652663,0.3780982
85839797,0.2119405,-0.14382742,0.37957835
85859740,0.2119405,-0.1482079,0.3721776
85879732,0.2182097,-0.13944694,0.38253868
85899734,0.20410402,-0.14236727,0.37069744
85919752,0.2229116,-0.15988915,0.37957835
85939744,0.20410402,-0.14674772,0.3780982
85959786,0.20880592,-0.13214615,0.3914196
85979739,0.20096943,-0.14236727,0.36773717
85999833,0.21507509,-0.14674772,0.39289978
86019742,0.2103732,-0.14674772,0.37069744
86039770,0.23231538,-0.14382742,0.37513793
86059731,0.2103732,-0.15258835,0.37957835
86079740,0.2166424,-0.1482079,0.3721776
86099732,0.20567133,-0.1511282,0.3810585
86119731,0.21507509,-0.14966805,0.3869791
86139735,0.21977697,-0.13944694,0.38253868
86159733,0.2182097,-0.14236727,0.3780982
86179735,0.19940212,-0.14236727,0.37513793
86199735,0.21507509,-0.13652663,0.37957835
86219737,0.2229116,-0.1379868,0.37513793
86239763,0.20567133,-0.14236727,0.3973402
86259777,0.2182097,-0.13944694,0.37365776
86279786,0.2166424,-0.1379868,0.3810585
86299742,0.21507509,-0.13360633,0.37365776
86319739,0.20880592,-0.1482079,0.385499
86339733,0.2166424,-0.1511282,0.385499
86359727,0.20410402,-0.13944694,0.37957835
86379778,0.2025367,-0.1379868,0.3810585
86399738,0.22604617,-0.1511282,0.3721776
86419818,0.2182097,-0.1482079,0.385499
86439784,0.20410402,-0.15258835,0.38253868
86459770,0.2229116,-0.14382742,0.38845927
86479757,0.22604617,-0.14382742,0.3692173
86499790,0.2103732,-0.13652663,0.37365776
86519786,0.2229116,-0.15404852,0.3810585
86539791,0.20880592,-0.12922585,0.37069744
86559729,0.23074807,-0.14236727,0.37957835
86579732,0.19940212,-0.1379868,0.3692173
86599741,0.20880592,-0.15988915,0.3780982
86619748,0.22604617,-0.158429,0.37957835
86639787,0.2276135,-0.15696883,0.37365776
86659722,0.20880592,-0.14236727,0.3692173
86679730,0.2103732,-0.14236727,0.37365776
86699743,0.2166424,-0.1379868,0.3914196
86719734,0.2182097,-0.14966805,0.3869791
86739738,0.22447887,-0.14674772,0.3780982
86759721,0.20880592,-0.1482079,0.3721776
86779737,0.20880592,-0.14236727,0.3558959
86799780,0.2166424,-0.14382742,0.3692173
86819739,0.20880592,-0.14674772,0.3869791
86839824,0.20880592,-0.14966805,0.3780982
86859774,0.2182097,-0.14236727,0.3780982
86879756,0.2182097,-0.13360633,0.37957835
86899721,0.20567133,-0.158429,0.366257
86919736,0.2182097,-0.14674772,0.38253868
86939749,0.21507509,-0.14966805,0.3780982
86959763,0.21977697,-0.13652663,0.37957835
86979781,0.2119405,-0.1379868,0.3721776
86999725,0.20880592,-0.14236727,0.39437988
87019726,0.20880592,-0.14966805,0.37957835
87039727,0.2166424,-0.1379868,0.385499
87059718,0.21507509,-0.14674772,0.3869791
87079729,0.2229116,-0.1482079,0.385499
87099744,0.2119405,-0.14382742,0.3810585
87119735,0.2166424,-0.15404852,0.37513793
87139732,0.2229116,-0.14382742,0.37957835
87159754,0.2166424,-0.1511282,0.37957835
87179749,0.19470023,-0.13360633,0.38845927
87199830,0.21977697,-0.14966805,0.3780982
87219802,0.23388267,-0.14236727,0.3869791
87239838,0.2166424,-0.1379868,0.385499
87259856,0.2166424,-0.1511282,0.37957835
87279828,0.2182097,-0.15404852,0.40030053
87299745,0.2276135,-0.13652663,0.3780982
87319736,0.2182097,-0.14674772,0.36773717
87339740,0.21507509,-0.14674772,0.37069744
87359743,0.20880592,-0.14382742,0.39437988
87379750,0.21507509,-0.14966805,0.37365776
87399748,0.21507509,-0.13944694,0.38253868
87419744,0.2276135,-0.14236727,0.38253868
87439760,0.23231538,-0.14382742,0.385499
87459745,0.2103732,-0.14236727,0.37957835
87479733,0.20880592,-0.15258835,0.37957835
87499738,0.2103732,-0.13944694,0.36773717
87519749,0.21507509,-0.14236727,0.37365776
87539736,0.21507509,-0.14674772,0.3869791
87559739,0.20880592,-0.14236727,0.37069744
87579749,0.21977697,-0.14236727,0.3869791
87599744,0.20880592,-0.1511282,0.3810585
87619740,0.2119405,-0.14236727,0.38845927
87639817,0.2103732,-0.14966805,0.38253868
87659789,0.2182097,-0.13214615,0.38845927
87679823,0.19940212,-0.14382742,0.385499
87699794,0.2166424,-0.14382742,0.3914196
87719809,0.2119405,-0.1511282,0.385499
87739755,0.21507509,-0.14236727,0.38845927
87759735,0.2182097,-0.14382742,0.3692173
87779755,0.22604617,-0.14382742,0.37957835
87799768,0.2103732,-0.15988915,0.3869791
87819739,0.2025367,-0.14236727,0.37957835
87839761,0.2182097,-0.14236727,0.37365776
87859753,0.20880592,-0.14382742,0.3692173
87879770,0.2182097,-0.1482079,0.3810585
87899773,0.2182097,-0.15404852,0.37513793
87919791,0.2276135,-0.14966805,0.37365776
87939809,0.2182097,-0.14236727,0.37069744
87959794,0.2182097,-0.1379868,0.3810585
87979789,0.2182097,-0.1482079,0.38845927
87999800,0.21507509,-0.12922585,0.37365776
88019754,0.2166424,-0.14382742,0.385499
88039832,0.2229116,-0.1511282,0.3810585
88059786,0.21507509,-0.1511282,0.37365776
88079836,0.21507509,-0.14674772,0.37957835
88099932,0.21507509,-0.15988915,0.37069744
88119796,0.20880592,-0.1482079,0.3692173
88139775,0.21507509,-0.14236727,0.3780982
88159771,0.22918077,-0.14382742,0.385499
88179770,0.2103732,-0.15258835,0.39289978
88199773,0.2166424,-0.1482079,0.37513793
88219768,0.2182097,-0.14236727,0.3810585
88239767,0.20567133,-0.13214615,0.37513793
88259770,0.21507509,-0.14966805,0.37957835
88279770,0.2103732,-0.13944694,0.36773717
88299771,0.20096943,-0.15696883,0.39586005
88319774,0.2166424,-0.14236727,0.385499
88339771,0.21977697,-0.14966805,0.37365776
88359770,0.2103732,-0.14236727,0.38845927
88379770,0.20880592,-0.13944694,0.37365776
88399780,0.2119405,-0.1482079,0.36181653
88419791,0.2119405,-0.1482079,0.385499
88439869,0.19470023,-0.13652663,0.3869791
88459880,0.2182097,-0.13360633,0.3810585
88479849,0.20410402,-0.14236727,0.3780982
88499873,0.20880592,-0.12776569,0.37957835
88519894,0.2276135,-0.13944694,0.37365776
88539790,0.22447887,-0.13360633,0.3869791
88559775,0.22918077,-0.14382742,0.38845927
88579773,0.20410402,-0.14966805,0.36477685
88599790,0.20880592,-0.13652663,0.38845927
88619771,0.22604617,-0.14236727,0.385499
88639796,0.20410402,-0.14966805,0.3780982
88659832,0.19783482,-0.15988915,0.38253868
88679849,0.2119405,-0.1511282,0.37513793
88699844,0.20410402,-0.14966805,0.37069744
88719836,0.2182097,-0.15258835,0.37069744
88739835,0.2182097,-0.15696883,0.38253868
88759834,0.19626753,-0.1379868,0.37957835
88779784,0.2182097,-0.13652663,0.39882037
88799799,0.2229116,-0.14382742,0.3914196
88819792,0.2166424,-0.1482079,0.37513793
88839776,0.21507509,-0.12630552,0.38253868
88859782,0.20096943,-0.14674772,0.38845927
88879835,0.2182097,-0.15696883,0.3780982
88899788,0.2166424,-0.1511282,0.37957835
88919849,0.22447887,-0.15696883,0.36773717
88939862,0.2182097,-0.14674772,0.37957835
88959791,0.20880592,-0.14674772,0.36477685
88979809,0.21977697,-0.15258835,0.3869791
88999745,0.2182097,-0.158429,0.37957835
89019736,0.2166424,-0.15988915,0.3810585
89039740,0.2182097,-0.15404852,0.39437988
89059730,0.2103732,-0.12630552,0.37957835
89079738,0.2182097,-0.14236727,0.37957835
89099758,0.20880592,-0.14966805,0.3780982
89119785,0.20567133,-0.1379868,0.385499
89139787,0.20880592,-0.1482079,0.37957835
89159729,0.23231538,-0.1482079,0.3721776
89179730,0.21507509,-0.13944694,0.37365776
89199728,0.2182097,-0.1379868,0.3810585
89219727,0.2166424,-0.14382742,0.37513793
89239727,0.2103732,-0.13944694,0.3869791
89259736,0.2182097,-0.14236727,0.3780982
89279739,0.21977697,-0.13944694,0.3869791
89299826,0.2119405,-0.1379868,0.3973402
89319784,0.2103732,-0.14236727,0.39289978
89339732,0.21507509,-0.13944694,0.37069744
89359887,0.21977697,-0.14966805,0.37957835
89379862,0.22447887,-0.14966805,0.37957835
89399860,0.2229116,-0.14236727,0.3721776
89419841,0.22604617,-0.14236727,0.3810585
89439728,0.2119405,-0.15988915,0.3721776
89459730,0.21507509,-0.14966805,0.38253868
89479728,0.2166424,-0.1482079,0.37957835
89499737,0.2182097,-0.14674772,0.37365776
89519729,0.22447887,-0.13652663,0.3780982
89539752,0.2166424,-0.1379868,0.37957835
89579756,0.2182097,-0.14966805,0.37957835
89599747,0.20567133,-0.1379868,0.3914196
89619839,0.2166424,-0.158429,0.366257
89639737,0.21507509,-0.14674772,0.37069744
89659719,0.21507509,-0.14966805,0.37365776
89679726,0.2166424,-0.1482079,0.37957835
89699726,0.21977697,-0.14674772,0.3780982
89719742,0.2166424,-0.16572978,0.3914196
89739843,0.21507509,-0.13652663,0.3780982
89759766,0.2025367,-0.1482079,0.38845927
89779851,0.21507509,-0.15258835,0.3780982
89799750,0.20410402,-0.15696883,0.38253868
89819760,0.2166424,-0.1482079,0.36181653
89839788,0.23231538,-0.158429,0.3721776
89859726,0.20880592,-0.14236727,0.3780982
89879742,0.2119405,-0.14236727,0.37957835
89899727,0.20880592,-0.14236727,0.366257
89919741,0.20410402,-0.15988915,0.3869791
89939742,0.2182097,-0.14236727,0.36477685
89959727,0.2103732,-0.15988915,0.37957835
89979728,0.21507509,-0.15988915,0.37957835
89999743,0.2276135,-0.12922585,0.3780982
90019770,0.22447887,-0.13944694,0.38253868
90039729,0.20567133,-0.1379868,0.3810585
90059745,0.2025367,-0.14236727,0.37513793
90079771,0.20880592,-0.15258835,0.37957835
90099773,0.21977697,-0.14236727,0.3780982
90119792,0.2229116,-0.14236727,0.38845927
90139727,0.2103732,-0.15258835,0.38845927
90159784,0.19783482,-0.14966805,0.3869791
90179753,0.22447887,-0.14674772,0.37365776
90199895,0.2166424,-0.14382742,0.37957835
90219756,0.2166424,-0.14382742,0.38845927
90239779,0.2229116,-0.14236727,0.3810585
90259726,0.20410402,-0.13652663,0.36477685
90279749,0.2166424,-0.13360633,0.37513793
90299738,0.20880592,-0.1482079,0.3810585
90319744,0.2025367,-0.13214615,0.3810585
90339733,0.2119405,-0.1511282,0.385499
90359752,0.20880592,-0.14236727,0.38253868
90379727,0.22604617,-0.1511282,0.3810585
90399726,0.2166424,-0.14382742,0.3810585
90419730,0.2119405,-0.1511282,0.37957835
90439727,0.20880592,-0.1511282,0.3810585
90459726,0.20410402,-0.15258835,0.38253868
90479726,0.21977697,-0.13944694,0.39586005
90499746,0.20410402,-0.13652663,0.37069744
90519746,0.2119405,-0.1379868,0.36181653
90539778,0.2103732,-0.15258835,0.3869791
90559779,0.22604617,-0.15404852,0.38845927
90579823,0.20567133,-0.1482079,0.3810585
90599738,0.21977697,-0.14966805,0.39289978
90619875,0.20880592,-0.1482079,0.3721776
90639746,0.20880592,-0.1379868,0.3914196
90659752,0.2276135,-0.13360633,0.37957835
90679743,0.20880592,-0.14966805,0.38253868
90699742,0.22447887,-0.14236727,0.37957835
90719743,0.2182097,-0.13214615,0.385499
90739753,0.2103732,-0.14966805,0.3869791
90759749,0.20410402,-0.14236727,0.37365776
90779740,0.2182097,-0.14382742,0.3810585
90799797,0.21507509,-0.13944694,0.3780982
90819773,0.20880592,-0.15258835,0.37069744
90839786,0.2182097,-0.14236727,0.37957835
90859738,0.2182097,-0.14236727,0.3780982
90879746,0.2166424,-0.13214615,0.37957835
90899756,0.2103732,-0.14966805,0.37365776
90919740,0.21507509,-0.14236727,0.38845927
90939745,0.22604617,-0.1379868,0.38845927
90959741,0.21977697,-0.14674772,0.38253868
90979737,0.20880592,-0.1379868,0.37957835
90999786,0.21977697,-0.12922585,0.38253868
91019738,0.2025367,-0.1379868,0.3692173
91039832,0.21507509,-0.14674772,0.37365776
91059749,0.21507509,-0.14236727,0.37365776
91079764,0.21977697,-0.14674772,0.38253868
91099748,0.2119405,-0.14236727,0.3721776
91119740,0.2229116,-0.1379868,0.3810585
91139735,0.20880592,-0.14236727,0.37957835
91159731,0.2119405,-0.1511282,0.3914196
91179809,0.21507509,-0.14674772,0.36773717
91199733,0.21507509,-0.14236727,0.37069744
91219733,0.22447887,-0.13652663,0.37365776
91239752,0.20880592,-0.15696883,0.37365776
91259773,0.20410402,-0.14236727,0.38845927
91279815,0.2103732,-0.13652663,0.36181653
91299740,0.2166424,-0.1379868,0.36181653
91319733,0.2182097,-0.13652663,0.38845927
91339730,0.2119405,-0.1482079,0.37957835
91359730,0.2119405,-0.1482079,0.37513793
91379735,0.21507509,-0.13360633,0.3780982
91399746,0.19626753,-0.1511282,0.3692173
91419789,0.2182097,-0.15258835,0.37069744
91439749,0.2182097,-0.14966805,0.37957835
91459881,0.20880592,-0.14382742,0.37513793
91479784,0.20880592,-0.15696883,0.3780982
91499771,0.20880592,-0.14236727,0.37957835
91519785,0.2229116,-0.12776569,0.39437988
91539804,0.2119405,-0.1482079,0.385499
91559791,0.21977697,-0.15988915,0.37957835
91579726,0.20880592,-0.14382742,0.3692173
91599737,0.21507509,-0.14966805,0.37365776
91619762,0.2119405,-0.158429,0.385499
91639745,0.19783482,-0.15696883,0.37957835
91659736,0.21507509,-0.13944694,0.38253868
91679738,0.2229116,-0.15404852,0.37513793
91699750,0.20567133,-0.14382742,0.37513793
91719731,0.2276135,-0.14236727,0.3869791
91739730,0.2166424,-0.14236727,0.38845927
91759755,0.2119405,-0.1379868,0.366257
91779743,0.2229116,-0.1482079,0.3721776
91799732,0.2229116,-0.13214615,0.39437988
91819727,0.2103732,-0.13360633,0.38845927
91839793,0.20567133,-0.1482079,0.385499
91859741,0.21507509,-0.14674772,0.36773717
91879822,0.2119405,-0.14236727,0.385499
91899751,0.20880592,-0.14382742,0.37957835
91919749,0.2229116,-0.15404852,0.39437988
91939740,0.20410402,-0.15696883,0.36773717
91959757,0.2166424,-0.158429,0.3810585
91979777,0.2119405,-0.14236727,0.3973402
91999800,0.2182097,-0.13214615,0.36477685
93039730,0.20880592,-0.14674772,0.37069744
93059729,0.2119405,-0.14382742,0.37957835
93079731,0.20410402,-0.12922585,0.38253868
93099785,0.19470023,-0.14674772,0.3780982
93119736,0.21977697,-0.15696883,0.37365776
93139813,0.19940212,-0.15404852,0.37513793
93159739,0.22447887,-0.13944694,0.3869791
93179753,0.21507509,-0.14236727,0.37957835
93199734,0.2182097,-0.13360633,0.3692173
93219737,0.2166424,-0.14236727,0.3810585
93239757,0.2229116,-0.1482079,0.3692173
93259744,0.2166424,-0.14236727,0.3973402
93279732,0.2103732,-0.14236727,0.38253868
93299736,0.21977697,-0.14382742,0.37957835
93319747,0.21977697,-0.14236727,0.3869791
93339734,0.2182097,-0.1482079,0.37513793
93359734,0.22447887,-0.13652663,0.37365776
93379747,0.20410402,-0.13360633,0.3780982
93399791,0.2103732,-0.15696883,0.3869791
93419796,0.20880592,-0.15404852,0.3810585
93439729,0.20567133,-0.13360633,0.37513793
93459730,0.21977697,-0.13652663,0.36477685
93479738,0.22447887,-0.14674772,0.3780982
93499733,0.21507509,-0.14674772,0.3780982
93519795,0.21507509,-0.14236727,0.37957835
93539742,0.2182097,-0.14236727,0.385499
93559809,0.20567133,-0.1482079,0.3810585
93579775,0.20880592,-0.158429,0.366257
93599758,0.21977697,-0.14674772,0.3780982
93619725,0.21507509,-0.13652663,0.37957835
93639733,0.2166424,-0.14236727,0.3692173
93659797,0.2103732,-0.14236727,0.36181653
93679778,0.22604617,-0.1482079,0.38845927
93699799,0.2229116,-0.14382742,0.36181653
93719727,0.20410402,-0.13944694,0.3869791
93739727,0.20567133,-0.16572978,0.37957835
93759739,0.22447887,-0.15696883,0.35885626
93779743,0.22447887,-0.14236727,0.38253868
93799727,0.20410402,-0.14966805,0.37365776
93819734,0.2182097,-0.13944694,0.3780982
93839731,0.20880592,-0.14236727,0.36773717
93859726,0.22447887,-0.12922585,0.38253868
93879740,0.2119405,-0.13360633,0.3721776
93899727,0.19313292,-0.13360633,0.366257
93919737,0.2166424,-0.13360633,0.38845927
93939780,0.2166424,-0.1482079,0.3692173
93959736,0.2025367,-0.1482079,0.385499
93979821,0.22918077,-0.1482079,0.3692173
93999745,0.20567133,-0.14236727,0.37513793
94019749,0.2229116,-0.14236727,0.366257
94039731,0.2119405,-0.15988915,0.385499
94059747,0.23074807,-0.13652663,0.37069744
94079736,0.2119405,-0.14382742,0.3810585
94099756,0.21507509,-0.12922585,0.38253868
94119780,0.21507509,-0.13652663,0.38253868
94139794,0.2182097,-0.14674772,0.38253868
94159735,0.19940212,-0.1482079,0.3721776
94179738,0.2182097,-0.14966805,0.36773717
94199726,0.2166424,-0.14382742,0.3721776
94219724,0.20880592,-0.15404852,0.37957835
94239789,0.2103732,-0.15696883,0.37957835
94259754,0.2119405,-0.14236727,0.37513793
94279732,0.20410402,-0.15258835,0.37069744
94299753,0.20096943,-0.14674772,0.37957835
94319886,0.2276135,-0.13944694,0.37069744
94339735,0.2182097,-0.1482079,0.3810585
94359788,0.20880592,-0.1482079,0.385499
94379797,0.21977697,-0.15696883,0.38253868
94399877,0.2182097,-0.14382742,0.3810585
94419797,0.2103732,-0.15258835,0.3780982
94439821,0.23074807,-0.12922585,0.38253868
94459729,0.2025367,-0.14382742,0.37513793
94479727,0.19940212,-0.15404852,0.37957835
94499732,0.23074807,-0.14674772,0.38845927
94519726,0.2229116,-0.1482079,0.37957835
94539744,0.21507509,-0.13652663,0.38845927
94559726,0.2025367,-0.15988915,0.37957835
94579727,0.2229116,-0.1379868,0.3721776
94599741,0.2119405,-0.13360633,0.3721776
94619729,0.2103732,-0.13652663,0.37957835
94639730,0.21507509,-0.13360633,0.38253868
94659746,0.20880592,-0.15696883,0.36773717
94679726,0.21507509,-0.1482079,0.38253868
94699733,0.2182097,-0.14674772,0.37365776
94719726,0.23701727,-0.13652663,0.3869791
94739733,0.20880592,-0.14236727,0.37957835
94759726,0.21977697,-0.12630552,0.37069744
94779784,0.2182097,-0.12776569,0.37513793
94799774,0.2119405,-0.1482079,0.3810585
94819818,0.20567133,-0.14382742,0.39437988
94839781,0.20567133,-0.14236727,0.38845927
94859799,0.20880592,-0.1511282,0.37513793
94879729,0.2119405,-0.1511282,0.38845927
94899729,0.2119405,-0.14382742,0.3810585
94919729,0.2229116,-0.14236727,0.37513793
94939729,0.21507509,-0.15258835,0.38845927
94959730,0.2119405,-0.14382742,0.3692173
94979730,0.2166424,-0.14236727,0.3914196
94999730,0.2166424,-0.13360633,0.385499
95019743,0.2166424,-0.14236727,0.3721776
95039724,0.21507509,-0.13944694,0.3869791
95059735,0.20096943,-0.13652663,0.36773717
95079772,0.2119405,-0.13360633,0.3692173
95099786,0.21977697,-0.15258835,0.37365776
95119784,0.2182097,-0.13944694,0.37957835
95139804,0.2166424,-0.14382742,0.3914196
95159732,0.20567133,-0.1482079,0.3721776
95179738,0.22604617,-0.14382742,0.37513793
95199787,0.2119405,-0.14236727,0.37513793
95219744,0.20567133,-0.158429,0.37957835
95239813,0.2229116,-0.14382742,0.3692173
95259742,0.2182097,-0.14382742,0.37957835
95279770,0.21507509,-0.14236727,0.37365776
95299730,0.20880592,-0.15988915,0.38253868
95319735,0.21507509,-0.13944694,0.37365776
95339733,0.2166424,-0.1482079,0.3721776
95359737,0.2182097,-0.14236727,0.3810585
95379736,0.19626753,-0.13214615,0.366257
95399729,0.20880592,-0.13652663,0.37365776
95419729,0.2103732,-0.14674772,0.3780982
95439726,0.19940212,-0.14382742,0.3692173
95459741,0.20410402,-0.14966805,0.3780982
95479740,0.2182097,-0.13652663,0.39289978
95499731,0.2229116,-0.13360633,0.37513793
95519746,0.2166424,-0.1379868,0.3810585
95539762,0.2182097,-0.14236727,0.37513793
95559782,0.2229116,-0.14236727,0.38845927
95579726,0.2182097,-0.14966805,0.38253868
95599727,0.2103732,-0.15258835,0.3780982
95619838,0.21977697,-0.16718994,0.37365776
95639745,0.20096943,-0.14236727,0.38253868
95659808,0.2119405,-0.14236727,0.3721776
95679784,0.2182097,-0.13652663,0.36477685
95699722,0.2119405,-0.1379868,0.385499
95719716,0.21507509,-0.13360633,0.3780982
95739724,0.2103732,-0.15696883,0.37069744
95759773,0.20880592,-0.14236727,0.3721776
95779742,0.21507509,-0.13652663,0.3869791
95799785,0.23231538,-0.1482079,0.385499
95819793,0.20410402,-0.12922585,0.37069744
95839805,0.2025367,-0.14382742,0.37513793
95859847,0.2119405,-0.1482079,0.3914196
95879793,0.2119405,-0.14382742,0.37957835
95899732,0.23074807,-0.15988915,0.3780982
95919726,0.21977697,-0.14236727,0.3869791
95939728,0.2182097,-0.14966805,0.37365776
95959729,0.21977697,-0.13652663,0.37069744
95979753,0.20880592,-0.15988915,0.3869791
95999740,0.2166424,-0.1511282,0.3914196
96019739,0.2182097,-0.1511282,0.39437988
96039786,0.2182097,-0.14674772,0.38253868
96059736,0.2182097,-0.15988915,0.38845927
96079814,0.20880592,-0.13944694,0.37957835
96099747,0.19313292,-0.15404852,0.37957835
96119750,0.2103732,-0.14236727,0.36477685
96139726,0.2166424,-0.15404852,0.37513793
96159726,0.21507509,-0.14674772,0.3780982
96179726,0.2276135,-0.13652663,0.3780982
96199732,0.21507509,-0.14674772,0.3780982
96219732,0.2025367,-0.15988915,0.3810585
96239745,0.20880592,-0.13360633,0.36477685
96259765,0.2119405,-0.158429,0.37513793
96279778,0.2103732,-0.14674772,0.37957835
96299730,0.21507509,-0.14966805,0.38845927
96319729,0.2182097,-0.14382742,0.385499
96339726,0.2025367,-0.1379868,0.3721776
96359726,0.2103732,-0.13652663,0.37957835
96379727,0.20880592,-0.12776569,0.385499
96399736,0.20880592,-0.14382742,0.37957835
96419726,0.2166424,-0.14382742,0.37513793
96439743,0.22604617,-0.1511282,0.37957835
96459786,0.2119405,-0.13360633,0.3810585
96479739,0.20410402,-0.14674772,0.37957835
96499826,0.20410402,-0.12922585,0.3869791
96519785,0.2182097,-0.1511282,0.37957835
96539796,0.2103732,-0.14966805,0.38845927
96559784,0.20880592,-0.14382742,0.37513793
96579728,0.20410402,-0.15696883,0.3780982
96599730,0.2119405,-0.14382742,0.38845927
96619726,0.2229116,-0.14382742,0.366257
96639735,0.19626753,-0.13214615,0.3810585
96659741,0.2103732,-0.12922585,0.3780982
96679747,0.2103732,-0.14674772,0.3869791
96699727,0.21977697,-0.15258835,0.3780982
96719742,0.22447887,-0.13652663,0.37957835
96739732,0.2119405,-0.13214615,0.37957835
96759745,0.21507509,-0.14966805,0.37365776
96779739,0.21507509,-0.13652663,0.38253868
96799743,0.2182097,-0.15258835,0.38845927
96819729,0.20410402,-0.14966805,0.3780982
96839740,0.2166424,-0.14382742,0.3721776
96859732,0.2166424,-0.1482079,0.37957835
96879780,0.20410402,-0.13652663,0.37957835
96899771,0.2182097,-0.1511282,0.38845927
96919816,0.2182097,-0.1511282,0.385499
96939743,0.2182097,-0.14236727,0.37957835
96959753,0.2229116,-0.1379868,0.3810585
96979772,0.21507509,-0.14236727,0.3780982
96999802,0.2103732,-0.14236727,0.37069744
97019736,0.2103732,-0.13944694,0.37069744
97039732,0.2182097,-0.13944694,0.37365776
97059741,0.2103732,-0.15258835,0.37365776
97079738,0.22447887,-0.14674772,0.37365776
97099729,0.2182097,-0.14236727,0.3810585
97119729,0.2103732,-0.14966805,0.38253868
97139732,0.21507509,-0.14236727,0.37957835
97159744,0.2182097,-0.13652663,0.3780982
97179792,0.2166424,-0.1482079,0.38845927
97199719,0.2166424,-0.1482079,0.385499
97219746,0.20880592,-0.14236727,0.385499
97239773,0.20096943,-0.14674772,0.38253868
97259804,0.20410402,-0.14382742,0.3869791
97279835,0.20410402,-0.15696883,0.3914196
97299839,0.20880592,-0.14382742,0.37957835
97319738,0.20567133,-0.1613493,0.3810585
97339868,0.2103732,-0.14236727,0.3869791
97359752,0.20880592,-0.1379868,0.3810585
97379788,0.2229116,-0.13214615,0.3810585
97399790,0.2103732,-0.14236727,0.39289978
97419746,0.20880592,-0.15258835,0.36773717
97439748,0.2103732,-0.14674772,0.37365776
97459730,0.20567133,-0.1482079,0.37957835
97479727,0.2119405,-0.14382742,0.37957835
97499738,0.2103732,-0.15258835,0.37365776
97519778,0.22447887,-0.13652663,0.37365776
97539732,0.21977697,-0.13944694,0.3869791
97559727,0.2229116,-0.1482079,0.3692173
97579732,0.2166424,-0.14382742,0.3810585
97599733,0.20567133,-0.13360633,0.3721776
97619737,0.20880592,-0.14236727,0.38845927
97639736,0.2166424,-0.14236727,0.3721776
97659755,0.21507509,-0.14966805,0.38253868
97679756,0.2166424,-0.1511282,0.37957835
97699838,0.2166424,-0.13360633,0.3721776
97719815,0.2103732,-0.14966805,0.3780982
97739735,0.21977697,-0.12922585,0.37069744
97759834,0.18999833,-0.12922585,0.37957835
97779745,0.22604617,-0.15404852,0.3721776
