timestamp,indicated_airspeed_m_s,true_airspeed_m_s,air_temperature_celsius,confidence
65628903,-2.9348466,-3.014188,29.935,1.0
65682462,-2.9559927,-3.0361624,29.984999,1.0
65693161,-2.9572337,-3.0373619,29.97,1.0
65703901,-2.956219,-3.0362134,29.945,1.0
65714599,-2.9533987,-3.0335667,29.994999,1.0
65725309,-2.9494958,-3.0292833,29.939999,1.0
65736022,-2.9450977,-3.024666,29.92,1.0
65746723,-2.9403467,-3.0199862,29.96,1.0
65757628,-2.9353628,-3.014862,29.965,1.0
65768325,-2.9305713,-3.0099409,29.965,1.0
65779017,-2.926513,-3.0058224,29.974998,1.0
65789727,-2.9230351,-3.0022006,29.965,1.0
65800493,-2.9196742,-2.9986746,29.949999,1.0
65811259,-2.9167264,-2.995704,29.96,1.0
65822078,-2.9145162,-2.9934092,29.955,1.0
65832770,-2.912722,-2.9914675,29.935,1.0
65843505,-2.9111938,-2.9900463,29.965,1.0
65854199,-2.910136,-2.9887621,29.925,1.0
65864915,-2.9091432,-2.9879265,29.96,1.0
65875631,-2.907353,-2.9859893,29.939999,1.0
65886323,-2.904567,-2.9832263,29.96,1.0
65897090,-2.901323,-2.9796736,29.914999,1.0
65907804,-2.8982682,-2.9767814,29.965,1.0
65918529,-2.8958945,-2.974136,29.925,1.0
65929230,-2.894449,-2.9727004,29.935,1.0
65940229,-2.89365,-2.9719293,29.945,1.0
65951063,-2.8929303,-2.97119,29.945,1.0
65961954,-2.8918526,-2.969985,29.925,1.0
65972666,-2.8902023,-2.9685364,29.97,1.0
65983367,-2.8880544,-2.966428,29.99,1.0
65994062,-2.885701,-2.9639618,29.98,1.0
66004768,-2.8839278,-2.9619205,29.935,1.0
66015464,-2.8835406,-2.9615474,29.939999,1.0
66026259,-2.8843386,-2.9623697,29.945,1.0
66037009,-2.885576,-2.9635913,29.935,1.0
66047772,-2.88689,-2.9649165,29.929998,1.0
66058499,-2.888,-2.9661546,29.949999,1.0
66069251,-2.8884773,-2.9666204,29.945,1.0
66080172,-2.8882341,-2.9664304,29.955,1.0
66090867,-2.8875575,-2.9657106,29.949999,1.0
66101655,-2.887122,-2.9654102,29.98,1.0
66112361,-2.8876588,-2.9658148,29.949999,1.0
66123068,-2.8891447,-2.967537,29.99,1.0
66133770,-2.8910887,-2.9693644,29.96,1.0
66144465,-2.8934321,-2.9715998,29.925,1.0
66155161,-2.896338,-2.9745107,29.91,1.0
66165889,-2.8994718,-2.9778767,29.939999,1.0
66176690,-2.9023511,-2.9809813,29.97,1.0
66187394,-2.9047258,-2.98335,29.955,1.0
66198094,-2.9064202,-2.9851148,29.96,1.0
66208824,-2.9074318,-2.9858832,29.904999,1.0
66219571,-2.9077792,-2.9864368,29.945,1.0
66230294,-2.9073877,-2.9861577,29.97,1.0
66241011,-2.9064424,-2.984931,29.914999,1.0
66251709,-2.9053216,-2.9839275,29.945,1.0
66262410,-2.9041011,-2.9828708,29.984999,1.0
66273110,-2.9026225,-2.9813027,29.974998,1.0
66283894,-2.9006615,-2.9790187,29.92,1.0
66294595,-2.897841,-2.9764407,29.984999,1.0
66305300,-2.8942273,-2.9725685,29.949999,1.0
66316032,-2.8905578,-2.9687018,29.929998,1.0
66326723,-2.887401,-2.9655817,29.955,1.0
66337417,-2.8849585,-2.9630978,29.96,1.0
66348130,-2.8833613,-2.9615536,29.984999,1.0
66358829,-2.8826842,-2.9605653,29.925,1.0
66369640,-2.883176,-2.9613144,29.974998,1.0
66380336,-2.8852122,-2.9633327,29.96,1.0
66391032,-2.8886957,-2.9668126,29.939999,1.0
66401742,-2.8931746,-2.9715571,29.965,1.0
66412434,-2.8982708,-2.9766934,29.945,1.0
66423131,-2.9038963,-2.98252,29.955,1.0
66433896,-2.910186,-2.9889803,29.955,1.0
66444635,-2.916672,-2.9957159,29.97,1.0
66455353,-2.9228837,-3.00217,29.984999,1.0
66466051,-2.9285808,-3.0078235,29.945,1.0
66476900,-2.9326174,-3.0119445,29.939999,1.0
66487614,-2.9340637,-3.0133553,29.925,1.0
66498307,-2.933048,-3.0125608,29.974998,1.0
66509006,-2.9299588,-3.0093403,29.97,1.0
66519708,-2.9255908,-3.0048292,29.965,1.0
66530450,-2.9210296,-3.0000455,29.945,1.0
66541157,-2.916899,-2.9958773,29.96,1.0
66552001,-2.913447,-2.9924307,29.98,1.0
66562756,-2.9110622,-2.9897323,29.925,1.0
66573491,-2.9103394,-2.9890637,29.939999,1.0
66584211,-2.9109128,-2.9896772,29.945,1.0
66594904,-2.9113648,-2.9901416,29.945,1.0
66605620,-2.911052,-2.989919,29.965,1.0
66616393,-2.9103818,-2.9891098,29.945,1.0
66627096,-2.9102268,-2.9887536,29.904999,1.0
66648505,-2.9145591,-2.9936225,29.99,1.0
66659473,-2.9182785,-2.9972944,29.96,1.0
66670262,-2.9216726,-3.0008285,29.974998,1.0
66681013,-2.9241648,-3.0033882,29.974998,1.0
66691729,-2.9254534,-3.0046623,29.965,1.0
66702611,-2.9258902,-3.0049124,29.925,1.0
66713310,-2.9259884,-3.0051124,29.945,1.0
66724020,-2.9253879,-3.0044935,29.939999,1.0
66734713,-2.9238336,-3.0029712,29.955,1.0
67421464,-2.9438763,-3.0238202,30.005,1.0
67796712,-2.9240875,-3.0033298,29.965,1.0
67807524,-2.9188313,-2.9979017,29.965,1.0
67818267,-2.9139063,-2.992547,29.904999,1.0
67829061,-2.9093893,-2.9881053,29.945,1.0
67839773,-2.9052155,-2.983843,29.949999,1.0
67850468,-2.9013262,-2.979824,29.945,1.0
67861165,-2.8976653,-2.9762359,29.98,1.0
67871982,-2.8940735,-2.9724855,29.96,1.0
67882681,-2.8904254,-2.968665,29.945,1.0
67893385,-2.886737,-2.9650726,29.984999,1.0
67904465,-2.8833532,-2.9615235,29.97,1.0
67915163,-2.8806415,-2.9587321,29.98,1.0
67925865,-2.8786404,-2.9565063,29.945,1.0
67936559,-2.877248,-2.9553685,30.005,1.0
67947267,-2.8764765,-2.954381,29.965,1.0
67958064,-2.8766494,-2.9545584,29.965,1.0
67968759,-2.878316,-2.9562886,29.965,1.0
67979465,-2.881405,-2.9593396,29.939999,1.0
67990159,-2.8850412,-2.963245,29.974998,1.0
68000858,-2.8886478,-2.9668026,29.945,1.0
68011559,-2.892119,-2.9703677,29.945,1.0
68022290,-2.8954873,-2.9739008,29.96,1.0
68033148,-2.8991115,-2.9775496,29.945,1.0
68043905,-2.9033666,-2.981895,29.939999,1.0
68054612,-2.908078,-2.9868815,29.97,1.0
68065326,-2.9130986,-2.9918406,29.929998,1.0
68076078,-2.9186332,-2.9976895,29.97,1.0
68086946,-2.9243846,-3.0035965,29.97,1.0
68097657,-2.929465,-3.0088892,29.984999,1.0
68108361,-2.9328947,-3.012238,29.949999,1.0
68119061,-2.9344118,-3.0141442,30.019999,1.0
68129763,-2.935072,-3.0146596,29.984999,1.0
68140460,-2.9360337,-3.0154233,29.939999,1.0
68151157,-2.937196,-3.0167663,29.97,1.0
68161915,-2.937715,-3.017175,29.945,1.0
68172647,-2.9370735,-3.016541,29.949999,1.0
68183366,-2.9352357,-3.0147529,29.97,1.0
68194061,-2.9325376,-3.0119333,29.955,1.0
68204767,-2.9295893,-3.0088553,29.945,1.0
68215490,-2.9266498,-3.0061092,30.0,1.0
68226240,-2.9238083,-3.003042,29.97,1.0
68236983,-2.9220045,-3.0011322,29.96,1.0
68247687,-2.9224732,-3.0015645,29.949999,1.0
68258392,-2.9252136,-3.004354,29.945,1.0
68269159,-2.9290576,-3.0082276,29.929998,1.0
68279888,-2.9327528,-3.0121224,29.949999,1.0
68290583,-2.9358912,-3.0154533,29.965,1.0
68301287,-2.9391577,-3.0188084,29.965,1.0
68312093,-2.94307,-3.0227022,29.939999,1.0
68322786,-2.9474595,-3.027435,29.984999,1.0
68333513,-2.9518585,-3.0317035,29.935,1.0
68344210,-2.955694,-3.0359933,30.005,1.0
68354908,-2.958763,-3.0388324,29.949999,1.0
68365638,-2.9608262,-3.0409763,29.955,1.0
68376395,-2.9614093,-3.0413246,29.904999,1.0
68387096,-2.96041,-3.0405488,29.955,1.0
68397804,-2.9584446,-3.0386457,29.974998,1.0
68408509,-2.9566624,-3.03679,29.97,1.0
68419535,-2.9556165,-3.035591,29.945,1.0
68430230,-2.9551678,-3.03513,29.945,1.0
68440998,-2.955515,-3.0353863,29.925,1.0
68451718,-2.9565685,-3.0365884,29.955,1.0
68462592,-2.9573743,-3.0375667,29.984999,1.0
68473294,-2.9569936,-3.037075,29.965,1.0
68484012,-2.9550679,-3.0349722,29.939999,1.0
68494703,-2.9518,-3.031641,29.945,1.0
68505401,-2.9477108,-3.027541,29.965,1.0
68516173,-2.9433334,-3.0230415,29.965,1.0
68526973,-2.9389784,-3.0185685,29.965,1.0
68537682,-2.9346673,-3.0139418,29.925,1.0
68548380,-2.9303055,-3.009611,29.955,1.0
68559077,-2.9260402,-3.0050814,29.925,1.0
68569796,-2.9221995,-3.0013566,29.965,1.0
68580554,-2.918914,-2.9980319,29.974998,1.0
68591251,-2.9161575,-2.9952006,29.974998,1.0
68601959,-2.913893,-2.992825,29.965,1.0
68612649,-2.9120767,-2.9910831,29.99,1.0
68623353,-2.910661,-2.9895303,29.97,1.0
68634047,-2.9095964,-2.9883773,29.96,1.0
68644768,-2.908835,-2.987718,29.984999,1.0
68655465,-2.9083292,-2.9870262,29.949999,1.0
68666156,-2.9081452,-2.986788,29.939999,1.0
68676959,-2.9086523,-2.9874077,29.96,1.0
68687659,-2.910331,-2.989309,29.99,1.0
68698360,-2.9131813,-2.992113,29.965,1.0
68709061,-2.9163995,-2.99532,29.945,1.0
68719831,-2.9189222,-2.9980097,29.965,1.0
68730581,-2.920288,-2.999209,29.92,1.0
68741286,-2.9206169,-2.999769,29.965,1.0
68752078,-2.9202502,-2.9993923,29.965,1.0
68762787,-2.9195812,-2.9986064,29.945,1.0
68773501,-2.9187012,-2.9978013,29.965,1.0
68784201,-2.9177964,-2.996872,29.965,1.0
68794898,-2.9174478,-2.9964447,29.96,1.0
68805610,-2.9180832,-2.9970727,29.955,1.0
68816311,-2.9199986,-2.9990647,29.96,1.0
68827009,-2.9228327,-3.0020003,29.965,1.0
68837733,-2.9256248,-3.004769,29.945,1.0
68848510,-2.9277518,-3.007025,29.955,1.0
68859406,-2.9285407,-3.0079596,29.98,1.0
68870112,-2.9277358,-3.0071328,29.98,1.0
68881044,-2.9258432,-3.0050404,29.949999,1.0
68891763,-2.923612,-3.0027354,29.945,1.0
68902603,-2.9221733,-3.0013316,29.96,1.0
68913308,-2.9220426,-3.001148,29.949999,1.0
68924037,-2.9224818,-3.001599,29.949999,1.0
68934737,-2.922688,-3.0017862,29.945,1.0
68945442,-2.9226003,-3.0017455,29.955,1.0
68956158,-2.9230547,-3.002232,29.965,1.0
68966956,-2.9251103,-3.0044425,29.984999,1.0
68977655,-2.9285438,-3.00787,29.965,1.0
68988358,-2.9320498,-3.0113716,29.945,1.0
68999050,-2.9346309,-3.0142212,29.984999,1.0
69009744,-2.936098,-3.0156507,29.965,1.0
69020468,-2.9368846,-3.0163846,29.949999,1.0
69031179,-2.9373431,-3.017079,29.994999,1.0
69041933,-2.9373183,-3.0168052,29.945,1.0
69052690,-2.9365983,-3.0161874,29.965,1.0
69063394,-2.9354768,-3.0150852,29.974998,1.0
69074164,-2.9344082,-3.0139875,29.974998,1.0
69084867,-2.933414,-3.0129912,29.98,1.0
69095581,-2.9323988,-3.0118988,29.97,1.0
69106292,-2.9313993,-3.0109715,29.99,1.0
69117010,-2.930443,-3.0096753,29.935,1.0
69127706,-2.929441,-3.0086956,29.945,1.0
69138495,-2.9281077,-3.0074255,29.965,1.0
69149194,-2.926235,-3.0055516,29.974998,1.0
69159902,-2.9238973,-3.0029771,29.939999,1.0
69170617,-2.9212756,-3.0004828,29.98,1.0
69181326,-2.9186263,-2.9976134,29.949999,1.0
69192082,-2.9163673,-2.995367,29.965,1.0
69202844,-2.914697,-2.9936514,29.965,1.0
69213558,-2.9135299,-2.9924529,29.965,1.0
69224422,-2.9130054,-2.991813,29.939999,1.0
69235159,-2.913427,-2.9922955,29.949999,1.0
69245890,-2.9147794,-2.9937835,29.97,1.0
69256653,-2.9164734,-2.9954736,29.96,1.0
69267355,-2.9182653,-2.9974375,29.984999,1.0
69278075,-2.9208415,-2.9999154,29.945,1.0
69288771,-2.924263,-3.0035784,29.974998,1.0
69299496,-2.9277864,-3.007247,29.984999,1.0
69310195,-2.9313848,-3.0108438,29.965,1.0
69320893,-2.935254,-3.014569,29.914999,1.0
69331697,-2.9388816,-3.0183756,29.935,1.0
69342412,-2.9417765,-3.0214982,29.965,1.0
69353170,-2.9438043,-3.0235062,29.949999,1.0
69363901,-2.9448884,-3.0248442,29.994999,1.0
69374602,-2.9448912,-3.0246685,29.96,1.0
69385298,-2.9437406,-3.0233123,29.925,1.0
69396075,-2.941633,-3.021347,29.965,1.0
69406939,-2.9390736,-3.018619,29.945,1.0
69417741,-2.9366815,-3.0163858,29.99,1.0
69428504,-2.9343839,-3.0138023,29.945,1.0
69439516,-2.9316854,-3.011171,29.98,1.0
69450257,-2.928546,-3.0079217,29.974998,1.0
69461013,-2.9252734,-3.004412,29.945,1.0
69471709,-2.9222193,-3.001374,29.965,1.0
69482576,-2.9195368,-2.9985943,29.96,1.0
69493341,-2.917224,-2.9962397,29.965,1.0
69504083,-2.915266,-2.99413,29.945,1.0
69514781,-2.9136422,-2.9926593,29.984999,1.0
69525487,-2.9122152,-2.9911938,29.984999,1.0
69536246,-2.9108746,-2.9896975,29.96,1.0
69546990,-2.9097514,-2.9884698,29.945,1.0
69557738,-2.9090497,-2.9879463,29.984999,1.0
69568503,-2.9088025,-2.9874954,29.945,1.0
69579405,-2.9086921,-2.9875298,29.974998,1.0
69590105,-2.9084702,-2.987277,29.97,1.0
69600857,-2.9082797,-2.9870641,29.965,1.0
69611558,-2.9083388,-2.986977,29.935,1.0
69622251,-2.9088066,-2.9876053,29.965,1.0
69632984,-2.9096823,-2.9883816,29.939999,1.0
69643678,-2.9109523,-2.9898093,29.965,1.0
69654449,-2.912594,-2.991598,29.984999,1.0
69665149,-2.9143589,-2.993312,29.965,1.0
69675845,-2.9159436,-2.9949396,29.965,1.0
69686553,-2.9171216,-2.9963224,30.0,1.0
69697245,-2.9177332,-2.9968057,29.97,1.0
69707945,-2.9177825,-2.9970295,30.005,1.0
69718641,-2.9175088,-2.9966989,29.994999,1.0
69729464,-2.917106,-2.9961367,29.965,1.0
69740160,-2.9166164,-2.995634,29.965,1.0
69750855,-2.916076,-2.9951286,29.974998,1.0
69761568,-2.9154036,-2.9944415,29.974998,1.0
69772285,-2.9144323,-2.9934192,29.97,1.0
69782998,-2.9132621,-2.9922173,29.97,1.0
69793749,-2.912195,-2.9909241,29.929998,1.0
69804482,-2.91135,-2.9900067,29.92,1.0
69815197,-2.910592,-2.9894369,29.96,1.0
69825895,-2.909705,-2.9884021,29.935,1.0
69836705,-2.9085274,-2.98739,29.974998,1.0
69847403,-2.9069436,-2.9857385,29.97,1.0
69858107,-2.9053178,-2.984076,29.97,1.0
69868811,-2.9043698,-2.9831023,29.97,1.0
69879508,-2.9040809,-2.982978,30.005,1.0
69890217,-2.9038665,-2.9825363,29.96,1.0
69900922,-2.903496,-2.982205,29.97,1.0
69911689,-2.9031277,-2.9819252,29.99,1.0
69922394,-2.902882,-2.981448,29.945,1.0
69933089,-2.9026282,-2.9811873,29.945,1.0
69943797,-2.9023764,-2.981125,29.984999,1.0
69954497,-2.9022436,-2.9808903,29.965,1.0
69965206,-2.9020967,-2.9808133,29.98,1.0
69975910,-2.9018328,-2.9806294,30.0,1.0
69986668,-2.901488,-2.9802754,30.0,1.0
69997363,-2.9010918,-2.9797702,29.98,1.0
70008088,-2.9006689,-2.9793112,29.974998,1.0
70018788,-2.9002383,-2.9788935,29.98,1.0
70029510,-2.8998158,-2.9784753,29.974998,1.0
70040212,-2.8995223,-2.9780512,29.949999,1.0
70050910,-2.899557,-2.9782343,29.98,1.0
70061677,-2.8999527,-2.978616,29.974998,1.0
70072399,-2.9006116,-2.9791455,29.945,1.0
70083096,-2.901452,-2.9800515,29.965,1.0
70093803,-2.9024048,-2.9810548,29.97,1.0
70104506,-2.9034135,-2.9821398,29.98,1.0
70115210,-2.9044337,-2.9830403,29.949999,1.0
70126013,-2.9054306,-2.9840887,29.955,1.0
70136707,-2.9062681,-2.984929,29.945,1.0
70147406,-2.9068484,-2.9856727,29.974998,1.0
70158131,-2.907323,-2.985988,29.939999,1.0
70168901,-2.9078116,-2.9865146,29.945,1.0
70179628,-2.9082956,-2.986913,29.925,1.0
70190344,-2.9087608,-2.9875298,29.945,1.0
70201042,-2.9091973,-2.9881017,29.97,1.0
70211744,-2.9094884,-2.9884007,29.97,1.0
70222581,-2.9095492,-2.9883397,29.945,1.0
70233291,-2.9095416,-2.9884307,29.965,1.0
70244068,-2.9094818,-2.988098,29.925,1.0
70254769,-2.9091642,-2.987821,29.935,1.0
70265463,-2.9086595,-2.987352,29.945,1.0
70276164,-2.9081361,-2.986913,29.965,1.0
70286937,-2.9075058,-2.9862409,29.96,1.0
70297666,-2.906813,-2.985506,29.949999,1.0
70308365,-2.906423,-2.985081,29.945,1.0
70319056,-2.9064975,-2.9852312,29.96,1.0
70329770,-2.9067054,-2.9853709,29.945,1.0
70340464,-2.9066799,-2.985324,29.939999,1.0
70351167,-2.906366,-2.9850998,29.96,1.0
70361897,-2.9058418,-2.9845126,29.949999,1.0
70372639,-2.905172,-2.9838,29.945,1.0
70383346,-2.9045217,-2.9831567,29.949999,1.0
70394051,-2.9041266,-2.9829476,29.99,1.0
70404745,-2.9039392,-2.9826553,29.974998,1.0
70415456,-2.9038072,-2.9824705,29.965,1.0
70426162,-2.9037216,-2.982407,29.97,1.0
70436958,-2.9035642,-2.9824178,30.005,1.0
70447655,-2.9032466,-2.9819684,29.98,1.0
70458348,-2.9028168,-2.9814286,29.96,1.0
70469044,-2.9023137,-2.9809365,29.965,1.0
70479738,-2.9017708,-2.980428,29.974998,1.0
70490516,-2.901324,-2.979822,29.945,1.0
70501388,-2.901185,-2.9797957,29.965,1.0
70512129,-2.901286,-2.9799974,29.984999,1.0
70522826,-2.9013476,-2.9799135,29.955,1.0
70533555,-2.9012675,-2.9797084,29.929998,1.0
70544425,-2.9010808,-2.9796886,29.965,1.0
70555147,-2.9009287,-2.9794834,29.955,1.0
70565852,-2.901028,-2.979535,29.949999,1.0
70576542,-2.9013164,-2.9801013,30.005,1.0
70587272,-2.9015207,-2.9801886,29.98,1.0
70598005,-2.9015443,-2.9800897,29.955,1.0
70608786,-2.9015386,-2.980035,29.945,1.0
70619493,-2.9016209,-2.9802532,29.97,1.0
70630191,-2.9016578,-2.9802914,29.97,1.0
70640892,-2.9016585,-2.9802675,29.965,1.0
70651671,-2.901852,-2.9804661,29.965,1.0
70662372,-2.902297,-2.9808607,29.949999,1.0
70673086,-2.9029202,-2.981574,29.965,1.0
70683785,-2.9036608,-2.9821873,29.935,1.0
70694580,-2.904358,-2.9830506,29.965,1.0
70705291,-2.90478,-2.983386,29.945,1.0
70716015,-2.9048688,-2.983354,29.92,1.0
70726709,-2.9046993,-2.983516,29.994999,1.0
70737410,-2.904447,-2.9831586,29.974998,1.0
70748120,-2.9043593,-2.9828963,29.939999,1.0
70758830,-2.90451,-2.9831736,29.965,1.0
70769598,-2.904729,-2.9834971,29.984999,1.0
70780294,-2.9047732,-2.9835095,29.97,1.0
70791015,-2.9045727,-2.9835496,30.019999,1.0
70801726,-2.904191,-2.9828868,29.965,1.0
70812473,-2.903792,-2.982477,29.965,1.0
70823167,-2.9035022,-2.982327,29.994999,1.0
70833908,-2.9031954,-2.9818432,29.96,1.0
70844606,-2.902775,-2.981436,29.965,1.0
70855303,-2.9022808,-2.9809284,29.965,1.0
70866058,-2.9017456,-2.980428,29.974998,1.0
70876747,-2.9011955,-2.979789,29.96,1.0
70887577,-2.9006512,-2.9792585,29.965,1.0
70898295,-2.9001281,-2.978623,29.945,1.0
70909003,-2.8996382,-2.978316,29.984999,1.0
70919699,-2.8992987,-2.9778202,29.955,1.0
70930416,-2.8993053,-2.977827,29.955,1.0
70941115,-2.8995771,-2.9780488,29.949999,1.0
70951954,-2.899823,-2.978399,29.97,1.0
70962667,-2.9000413,-2.9785988,29.965,1.0
70973369,-2.9003422,-2.9788096,29.945,1.0
70984077,-2.9005864,-2.9791586,29.965,1.0
70994824,-2.9006698,-2.9794152,29.99,1.0
71005520,-2.9006271,-2.9791257,29.939999,1.0
71016292,-2.9004896,-2.979304,30.005,1.0
71027005,-2.9002833,-2.9790182,29.99,1.0
71037714,-2.9000309,-2.978538,29.945,1.0
71048410,-2.8997514,-2.9785345,30.005,1.0
71059202,-2.8994594,-2.9780626,29.97,1.0
71069898,-2.899057,-2.9776738,29.974998,1.0
71080599,-2.8983624,-2.9770832,30.0,1.0
71091298,-2.8975759,-2.9760544,29.955,1.0
71102007,-2.897404,-2.975905,29.965,1.0
71112705,-2.8982594,-2.977078,30.025,1.0
71123411,-2.8998744,-2.9785159,29.98,1.0
71134176,-2.9017994,-2.9805176,29.984999,1.0
71144888,-2.903681,-2.9824502,29.984999,1.0
71155594,-2.9053612,-2.9842253,29.994999,1.0
71166386,-2.9069436,-2.985752,29.974998,1.0
71177099,-2.9085116,-2.987338,29.97,1.0
71187807,-2.9099095,-2.9887738,29.97,1.0
71198538,-2.911024,-2.9899678,29.98,1.0
71209455,-2.911887,-2.990805,29.97,1.0
71220153,-2.9125302,-2.9915643,29.99,1.0
71230889,-2.9129848,-2.992056,29.994999,1.0
71241594,-2.9131713,-2.992124,29.97,1.0
71252296,-2.913037,-2.9920602,29.984999,1.0
71262999,-2.9127712,-2.9917884,29.98,1.0
71273747,-2.9124126,-2.9913955,29.974998,1.0
71284462,-2.9117746,-2.990691,29.965,1.0
71295172,-2.910943,-2.989787,29.955,1.0
71305868,-2.9102077,-2.989127,29.974998,1.0
71316566,-2.9096792,-2.9885595,29.97,1.0
71327268,-2.9093258,-2.9881227,29.955,1.0
71338012,-2.9091175,-2.987958,29.965,1.0
71348816,-2.9090266,-2.9878893,29.97,1.0
71359614,-2.909029,-2.9878917,29.97,1.0
71370323,-2.9091024,-2.988088,30.005,1.0
71381034,-2.909228,-2.987946,29.949999,1.0
71391756,-2.90928,-2.9881718,29.984999,1.0
71402459,-2.9089448,-2.987852,29.99,1.0
71413157,-2.9082139,-2.9868796,29.945,1.0
71423897,-2.9076412,-2.9864368,29.97,1.0
71434598,-2.9075372,-2.9863055,29.965,1.0
71445298,-2.9075758,-2.986271,29.949999,1.0
71456027,-2.907613,-2.98626,29.939999,1.0
71466721,-2.9077575,-2.9865563,29.97,1.0
71477613,-2.9077601,-2.986341,29.925,1.0
71488358,-2.9075444,-2.9864147,29.984999,1.0
71499068,-2.9072776,-2.9860423,29.965,1.0
71509772,-2.9068704,-2.9856238,29.965,1.0
71520510,-2.9063685,-2.9852068,29.984999,1.0
71531271,-2.906029,-2.984861,29.99,1.0
71542009,-2.9059346,-2.9847639,29.99,1.0
71552734,-2.906031,-2.984838,29.984999,1.0
71563430,-2.9061606,-2.9848974,29.97,1.0
71574225,-2.9062018,-2.985063,29.994999,1.0
71585136,-2.9062839,-2.98495,29.955,1.0
71595851,-2.9065042,-2.9854026,29.984999,1.0
71606552,-2.9067142,-2.9856184,29.984999,1.0
71617299,-2.9066894,-2.9855437,29.974998,1.0
71628098,-2.9063766,-2.9852717,29.984999,1.0
71638897,-2.905852,-2.9847083,29.98,1.0
71649622,-2.9051821,-2.9839463,29.965,1.0
71660319,-2.9045315,-2.9833682,29.984999,1.0
71671029,-2.9041357,-2.9829617,29.984999,1.0
71681742,-2.9040575,-2.9829304,29.994999,1.0
71692621,-2.904225,-2.9830043,29.974998,1.0
71703345,-2.9045756,-2.9832742,29.965,1.0
71714067,-2.9050555,-2.9838655,29.984999,1.0
71724780,-2.9055092,-2.9843316,29.984999,1.0
71735480,-2.905709,-2.9844384,29.965,1.0
71746181,-2.9055984,-2.9843247,29.965,1.0
71756950,-2.9053633,-2.984144,29.974998,1.0
71767655,-2.90526,-2.9841363,29.994999,1.0
71778349,-2.9053707,-2.9843729,30.019999,1.0
71789047,-2.9055316,-2.9842923,29.97,1.0
71799766,-2.9056165,-2.9844778,29.99,1.0
71810472,-2.9057505,-2.984357,29.945,1.0
71821176,-2.9060273,-2.9847643,29.97,1.0
71832069,-2.9064052,-2.9851525,29.97,1.0
71842768,-2.9067385,-2.9854949,29.97,1.0
71853525,-2.9068081,-2.9854183,29.939999,1.0
71864420,-2.9065633,-2.9853961,29.984999,1.0
71875147,-2.9060853,-2.9848065,29.965,1.0
71885849,-2.9055536,-2.9841127,29.935,1.0
71896545,-2.9052167,-2.9840376,29.99,1.0
71907268,-2.9050403,-2.9840286,30.025,1.0
71918016,-2.904772,-2.9834614,29.965,1.0
71928774,-2.9044418,-2.9832451,29.99,1.0
71939510,-2.9042945,-2.9828727,29.945,1.0
71950207,-2.9044015,-2.983278,30.005,1.0
71960914,-2.9045906,-2.9831028,29.929998,1.0
71971626,-2.9046164,-2.983422,29.984999,1.0
71982316,-2.9045165,-2.9832704,29.974998,1.0
71993010,-2.904543,-2.9833221,29.98,1.0
72003758,-2.9047754,-2.9833887,29.945,1.0
72014464,-2.9051588,-2.9839547,29.98,1.0
72025221,-2.905645,-2.9843194,29.955,1.0
72035921,-2.9060855,-2.9848216,29.965,1.0
72046683,-2.9062572,-2.9850225,29.97,1.0
72057406,-2.906108,-2.984943,29.984999,1.0
72068124,-2.9057171,-2.9843938,29.955,1.0
72078822,-2.9052641,-2.9839091,29.945,1.0
72089565,-2.9049966,-2.983856,29.99,1.0
72100267,-2.9049897,-2.9839227,30.005,1.0
72111040,-2.9051826,-2.9839482,29.97,1.0
72121749,-2.9055228,-2.9845195,30.015,1.0
72132564,-2.9059646,-2.9846826,29.965,1.0
72143259,-2.906361,-2.9852378,29.994999,1.0
72154014,-2.9066002,-2.98536,29.97,1.0
72164741,-2.9067116,-2.9854498,29.965,1.0
72175474,-2.9066117,-2.985495,29.994999,1.0
72186178,-2.9062433,-2.985093,29.984999,1.0
72196969,-2.9056807,-2.9844906,29.98,1.0
72207674,-2.9050968,-2.983817,29.965,1.0
72218428,-2.9047344,-2.9836907,30.015,1.0
72229207,-2.904663,-2.9836426,30.019999,1.0
72239906,-2.9048169,-2.9836588,29.994999,1.0
72250619,-2.9051383,-2.9838414,29.965,1.0
72261318,-2.9055781,-2.9842932,29.965,1.0
72272019,-2.9059849,-2.9848094,29.984999,1.0
72282720,-2.9062438,-2.9850016,29.97,1.0
72293410,-2.9064913,-2.9851077,29.939999,1.0
72304236,-2.906832,-2.985597,29.96,1.0
72315142,-2.9072335,-2.9860833,29.974998,1.0
72325863,-2.907559,-2.9862945,29.949999,1.0
72336557,-2.9075968,-2.9865797,30.0,1.0
72347321,-2.907523,-2.9864383,29.994999,1.0
72358144,-2.9076948,-2.986664,30.005,1.0
72368919,-2.9079401,-2.9868424,29.99,1.0
72379622,-2.908014,-2.9867952,29.965,1.0
72390319,-2.9080646,-2.9869456,29.984999,1.0
72401033,-2.908205,-2.9872067,30.005,1.0
72411731,-2.9084103,-2.9872696,29.974998,1.0
72422590,-2.9086585,-2.9873524,29.939999,1.0
72433319,-2.9089317,-2.987682,29.949999,1.0
72444033,-2.9093258,-2.9883087,29.994999,1.0
72454739,-2.9099095,-2.9887626,29.955,1.0
72465437,-2.91051,-2.9895027,29.98,1.0
72476181,-2.9109955,-2.9901495,30.01,1.0
72486910,-2.9113774,-2.9902704,29.955,1.0
72497609,-2.9116683,-2.9906924,29.98,1.0
72508314,-2.91188,-2.9907336,29.96,1.0
72519021,-2.9120247,-2.9909315,29.97,1.0
72529731,-2.9121137,-2.9908257,29.929998,1.0
72540443,-2.9120474,-2.9909794,29.974998,1.0
72551152,-2.9117546,-2.9906046,29.96,1.0
72561949,-2.9115167,-2.9904902,29.974998,1.0
72572640,-2.9115477,-2.9904723,29.965,1.0
72583347,-2.911564,-2.990588,29.984999,1.0
72594038,-2.91135,-2.990368,29.984999,1.0
72604734,-2.9110754,-2.9900858,29.984999,1.0
72615465,-2.910763,-2.9896688,29.97,1.0
72626162,-2.9103217,-2.9891663,29.96,1.0
72636930,-2.9099052,-2.9888124,29.974998,1.0
72647658,-2.9096303,-2.9887767,30.025,1.0
72658396,-2.909473,-2.9884176,29.984999,1.0
72669096,-2.90941,-2.9883893,29.99,1.0
72679818,-2.909312,-2.9881403,29.96,1.0
72690613,-2.9090803,-2.9877794,29.935,1.0
72701312,-2.908863,-2.987852,29.994999,1.0
72712009,-2.9087737,-2.9876864,29.98,1.0
72722715,-2.9086752,-2.9876895,30.005,1.0
72733415,-2.908353,-2.987088,29.949999,1.0
72744244,-2.9078703,-2.986715,29.974998,1.0
72755164,-2.9073884,-2.986171,29.965,1.0
72765871,-2.906923,-2.9856436,29.955,1.0
72776564,-2.9065943,-2.9855115,29.99,1.0
72787266,-2.9064903,-2.9854538,30.0,1.0
72798040,-2.906562,-2.9853802,29.97,1.0
72808811,-2.9067657,-2.9856384,29.98,1.0
72819569,-2.9070647,-2.98597,29.984999,1.0
72830283,-2.907317,-2.9861147,29.97,1.0
72841104,-2.9073062,-2.9860787,29.965,1.0
72851944,-2.9069843,-2.9857483,29.965,1.0
72862654,-2.906544,-2.985296,29.965,1.0
72873348,-2.9062467,-2.984843,29.935,1.0
72884071,-2.9061775,-2.9849875,29.974998,1.0
72894783,-2.9062855,-2.9851477,29.984999,1.0
72905494,-2.9065259,-2.9852223,29.949999,1.0
72916191,-2.9068604,-2.985689,29.974998,1.0
72926904,-2.907256,-2.9861443,29.984999,1.0
72937681,-2.9073567,-2.9862897,29.994999,1.0
72948374,-2.9067895,-2.9856088,29.974998,1.0
72959071,-2.9062772,-2.9851317,29.984999,1.0
72969778,-2.9068115,-2.985656,29.98,1.0
72980495,-2.9082396,-2.9870737,29.97,1.0
72991240,-2.9098687,-2.9886591,29.949999,1.0
73001957,-2.9112709,-2.9902475,29.98,1.0
73012654,-2.912346,-2.9912777,29.965,1.0
73023405,-2.9131374,-2.991967,29.939999,1.0
73034110,-2.9136865,-2.9927533,29.984999,1.0
73044821,-2.914033,-2.9929423,29.955,1.0
73055526,-2.914214,-2.993079,29.945,1.0
73066291,-2.9142618,-2.993128,29.945,1.0
73077079,-2.9142065,-2.9932685,29.984999,1.0
73087848,-2.9141836,-2.9931464,29.965,1.0
73098559,-2.9142954,-2.9932365,29.96,1.0
73109402,-2.914288,-2.9931762,29.949999,1.0
73120120,-2.9139707,-2.9931216,30.005,1.0
73130947,-2.913535,-2.9927483,30.019999,1.0
73141732,-2.9131322,-2.9921618,29.984999,1.0
73152431,-2.9126573,-2.991674,29.984999,1.0
73163171,-2.9119227,-2.9907756,29.955,1.0
73173914,-2.9110122,-2.9900873,30.005,1.0
73184628,-2.9102147,-2.9892185,29.994999,1.0
73195346,-2.909638,-2.9886756,30.005,1.0
73206112,-2.9092488,-2.9882514,30.0,1.0
73216980,-2.9090157,-2.9879377,29.984999,1.0
73227671,-2.908909,-2.9879065,29.994999,1.0
73238380,-2.908903,-2.987851,29.984999,1.0
73249079,-2.908974,-2.9880962,30.019999,1.0
73259778,-2.9091017,-2.9882522,30.025,1.0
73270544,-2.9091592,-2.9881673,29.994999,1.0
73281289,-2.9089417,-2.9878945,29.984999,1.0
73292090,-2.9084108,-2.9874477,30.005,1.0
73302792,-2.9077659,-2.9865634,29.96,1.0
73313618,-2.907273,-2.9861314,29.974998,1.0
73324458,-2.9070222,-2.985875,29.984999,1.0
73335154,-2.9069645,-2.9857664,29.974998,1.0
73345868,-2.9070568,-2.985812,29.965,1.0
73356561,-2.907261,-2.9860215,29.965,1.0
73367278,-2.9075444,-2.986411,29.984999,1.0
73378003,-2.9078798,-2.986805,29.994999,1.0
73388703,-2.9082444,-2.9872658,30.005,1.0
73399469,-2.9086196,-2.9875524,29.984999,1.0
73410188,-2.9089916,-2.987762,29.949999,1.0
73420899,-2.90924,-2.9880664,29.96,1.0
73431616,-2.9091659,-2.987883,29.945,1.0
73442367,-2.9088473,-2.987556,29.945,1.0
73453134,-2.9085712,-2.9874694,29.984999,1.0
73463894,-2.9084456,-2.9873402,29.984999,1.0
73474622,-2.9083297,-2.9870982,29.96,1.0
73485321,-2.908115,-2.9869235,29.97,1.0
73496042,-2.9079409,-2.9867692,29.974998,1.0
73506890,-2.9078038,-2.9866283,29.974998,1.0
73517592,-2.9075892,-2.986457,29.984999,1.0
73528303,-2.907322,-2.9862812,30.005,1.0
73539032,-2.906913,-2.9857135,29.974998,1.0
73549741,-2.9062986,-2.9850037,29.949999,1.0
73560455,-2.9055457,-2.9845257,30.01,1.0
73571163,-2.90482,-2.9836326,29.98,1.0
73581910,-2.9043577,-2.9831824,29.984999,1.0
73592668,-2.9041116,-2.982707,29.945,1.0
73603403,-2.9038193,-2.9825788,29.98,1.0
73614095,-2.9033904,-2.9821384,29.98,1.0
73624816,-2.9029806,-2.9816928,29.974998,1.0
73635545,-2.902818,-2.981575,29.984999,1.0
73646298,-2.9029596,-2.981805,30.0,1.0
73657063,-2.90333,-2.9819155,29.945,1.0
73667776,-2.9038641,-2.9825623,29.965,1.0
73678471,-2.9045064,-2.9833202,29.984999,1.0
73689490,-2.905212,-2.9841924,30.015,1.0
73700193,-2.9058335,-2.9845371,29.965,1.0
73710890,-2.9061518,-2.9849133,29.974998,1.0
73721727,-2.9061184,-2.9848297,29.965,1.0
73732423,-2.905816,-2.9846172,29.984999,1.0
73743138,-2.9054275,-2.9841447,29.97,1.0
73753888,-2.905204,-2.9841032,30.0,1.0
73764588,-2.905115,-2.9840856,30.015,1.0
73775296,-2.9049113,-2.983778,29.994999,1.0
73786113,-2.9046261,-2.9835835,30.015,1.0
73796963,-2.904398,-2.983226,29.99,1.0
73807663,-2.9042199,-2.983,29.984999,1.0
73818357,-2.904086,-2.9828384,29.98,1.0
73829072,-2.9038804,-2.9827003,29.994999,1.0
73839803,-2.9035163,-2.9822035,29.97,1.0
73850501,-2.9031518,-2.9820015,30.005,1.0
73861215,-2.9031286,-2.982076,30.025,1.0
73871927,-2.9035873,-2.9824784,30.005,1.0
73882681,-2.9041808,-2.9828913,29.965,1.0
73893402,-2.9046392,-2.9835095,29.994999,1.0
73904098,-2.9050896,-2.983726,29.945,1.0
73914805,-2.9055197,-2.9842887,29.98,1.0
73925505,-2.9057014,-2.9844258,29.97,1.0
73936238,-2.9056866,-2.9844844,29.984999,1.0
73947001,-2.9057422,-2.984517,29.98,1.0
73957732,-2.9060693,-2.9848037,29.97,1.0
73968433,-2.9067037,-2.985593,29.994999,1.0
73979138,-2.9074438,-2.9861565,29.955,1.0
73989867,-2.908132,-2.9872084,30.025,1.0
74000563,-2.9087586,-2.9874823,29.949999,1.0
74011308,-2.909319,-2.988181,29.974998,1.0
74022074,-2.9098108,-2.9886618,29.97,1.0
74032839,-2.9102347,-2.989088,29.96,1.0
74043564,-2.9105933,-2.9896293,29.994999,1.0
74054427,-2.910781,-2.989748,29.98,1.0
74065144,-2.9106126,-2.9895751,29.98,1.0
74075935,-2.9101768,-2.9890382,29.965,1.0
74086631,-2.909769,-2.9886937,29.98,1.0
74097345,-2.9095051,-2.988472,29.99,1.0
74108143,-2.90936,-2.9883227,29.99,1.0
74118891,-2.9092002,-2.9879618,29.949999,1.0
74129594,-2.9089248,-2.987914,30.0,1.0
74140295,-2.908679,-2.9874642,29.96,1.0
74151059,-2.9085734,-2.9873557,29.96,1.0
74161877,-2.9085786,-2.98746,29.98,1.0
74172723,-2.9086683,-2.9874778,29.965,1.0
74183451,-2.9088202,-2.987634,29.965,1.0
74194422,-2.9090145,-2.9880273,30.005,1.0
74205143,-2.9092357,-2.988131,29.98,1.0
74215843,-2.9094703,-2.9881997,29.945,1.0
74226551,-2.9097078,-2.988665,29.99,1.0
74237246,-2.9098306,-2.9888408,30.0,1.0
74247943,-2.909752,-2.9888337,30.015,1.0
74258675,-2.9096308,-2.9885123,29.974998,1.0
74269454,-2.909591,-2.9884467,29.97,1.0
74280153,-2.9096148,-2.9884713,29.97,1.0
74290848,-2.9096863,-2.988525,29.96,1.0
74301544,-2.9097922,-2.9887323,29.98,1.0
74312257,-2.9098115,-2.988678,29.965,1.0
74323001,-2.9095445,-2.9885273,29.99,1.0
74333719,-2.9089565,-2.9878983,29.984999,1.0
74344441,-2.9082506,-2.9870749,29.965,1.0
74355195,-2.9076962,-2.9866536,29.994999,1.0
74365901,-2.907385,-2.9863832,30.005,1.0
74376606,-2.90727,-2.9861417,29.98,1.0
74387310,-2.9073083,-2.986255,29.994999,1.0
74398026,-2.9074636,-2.9863539,29.984999,1.0
74408778,-2.9075933,-2.986487,29.984999,1.0
74419488,-2.9075897,-2.9865575,30.0,1.0
74430183,-2.907594,-2.986217,29.929998,1.0
74440931,-2.907714,-2.986611,29.984999,1.0
74451628,-2.907809,-2.9867337,29.99,1.0
74462335,-2.9076624,-2.986435,29.96,1.0
74473037,-2.9072254,-2.9858878,29.939999,1.0
74483733,-2.9065795,-2.985372,29.97,1.0
74494520,-2.9059038,-2.9846287,29.96,1.0
74505220,-2.9055555,-2.9842956,29.965,1.0
74515926,-2.905689,-2.9845731,29.994999,1.0
74526629,-2.9060776,-2.9848983,29.98,1.0
74537392,-2.906539,-2.985323,29.97,1.0
74548153,-2.9070423,-2.9859383,29.99,1.0
74558945,-2.9075618,-2.9864228,29.98,1.0
74569664,-2.9080772,-2.9868171,29.945,1.0
74580361,-2.9085734,-2.9875236,29.984999,1.0
74591072,-2.9090395,-2.9879038,29.965,1.0
74601946,-2.9094677,-2.9883683,29.97,1.0
74612639,-2.9098537,-2.9886084,29.945,1.0
74623356,-2.9100857,-2.9891174,30.0,1.0
74634119,-2.9099727,-2.988804,29.96,1.0
74644823,-2.9095995,-2.9884207,29.96,1.0
74655541,-2.9092577,-2.9879465,29.935,1.0
74666231,-2.9090602,-2.9878914,29.965,1.0
74676988,-2.90898,-2.9876862,29.939999,1.0
74687683,-2.9088817,-2.987807,29.984999,1.0
74698378,-2.9085538,-2.9874456,29.98,1.0
74709084,-2.9080596,-2.9868886,29.97,1.0
74719820,-2.9076734,-2.9867134,30.015,1.0
74730529,-2.907492,-2.9864168,29.984999,1.0
74741228,-2.9074726,-2.9865696,30.019999,1.0
74751965,-2.9074686,-2.9864917,30.005,1.0
74762664,-2.9073665,-2.9863868,30.005,1.0
74773357,-2.9073021,-2.986222,29.984999,1.0
74784061,-2.9073787,-2.9863994,30.005,1.0
74794774,-2.907451,-2.9863224,29.984999,1.0
74805483,-2.907298,-2.986067,29.965,1.0
74816212,-2.9069774,-2.985836,29.984999,1.0
74826980,-2.9066482,-2.9854488,29.974998,1.0
74837695,-2.9063225,-2.9850404,29.96,1.0
74848408,-2.9061198,-2.985109,30.019999,1.0
74859109,-2.9061272,-2.9847476,29.945,1.0
74869864,-2.9062955,-2.9852157,30.005,1.0
74880578,-2.9065819,-2.9854608,29.994999,1.0
74891373,-2.9069495,-2.9858112,29.984999,1.0
74902150,-2.907258,-2.986128,29.984999,1.0
74912896,-2.9072921,-2.9860399,29.96,1.0
74923609,-2.907115,-2.9861782,30.025,1.0
74934424,-2.9070013,-2.9859874,30.01,1.0
74945129,-2.9070494,-2.9858892,29.98,1.0
74955853,-2.90722,-2.9860961,29.984999,1.0
74966546,-2.9074788,-2.9862638,29.965,1.0
74977239,-2.9077973,-2.9866893,29.984999,1.0
74987969,-2.9080417,-2.9867928,29.955,1.0
74998676,-2.908112,-2.9869387,29.97,1.0
75009455,-2.9081566,-2.9870768,29.984999,1.0
75020160,-2.90829,-2.9872878,30.0,1.0
75030860,-2.9084868,-2.987416,29.984999,1.0
75041575,-2.9087262,-2.9875634,29.965,1.0
75052284,-2.9089909,-2.9878733,29.974998,1.0
75063005,-2.9092665,-2.9883537,30.015,1.0
75073735,-2.9095418,-2.9884639,29.98,1.0
75084483,-2.9098084,-2.9887872,29.99,1.0
75095181,-2.91006,-2.9891195,30.005,1.0
75105942,-2.910292,-2.9893332,30.0,1.0
75116636,-2.9105017,-2.9896052,30.01,1.0
75127362,-2.9106882,-2.9896488,29.98,1.0
75138150,-2.910851,-2.9899147,30.0,1.0
75148905,-2.91099,-2.9900575,30.0,1.0
75159614,-2.911107,-2.9902024,30.005,1.0
75170309,-2.9112031,-2.9902296,29.994999,1.0
75181073,-2.9112806,-2.9903584,30.005,1.0
75191773,-2.9113414,-2.9904702,30.015,1.0
75202624,-2.911387,-2.9902701,29.965,1.0
75213317,-2.9113104,-2.99052,30.029999,1.0
75224038,-2.9110327,-2.9898646,29.955,1.0
75234735,-2.9107192,-2.989789,30.005,1.0
75245455,-2.910498,-2.9895864,30.01,1.0
75256165,-2.9103541,-2.9893155,29.984999,1.0
75266943,-2.9102743,-2.989209,29.98,1.0
75277660,-2.910246,-2.9891033,29.974998,1.0
75288354,-2.9102576,-2.9891894,29.99,1.0
75299051,-2.9103,-2.9891837,29.98,1.0
75309743,-2.9102545,-2.9892848,30.01,1.0
75320462,-2.9099243,-2.988921,30.005,1.0
75331165,-2.9093857,-2.9883492,29.99,1.0
75341920,-2.9089239,-2.9878995,29.994999,1.0
75352686,-2.9085355,-2.9876482,30.025,1.0
75363386,-2.9081054,-2.9869604,29.974998,1.0
75374081,-2.9077668,-2.9867356,30.0,1.0
75384799,-2.9076188,-2.9864604,29.974998,1.0
75395503,-2.9076211,-2.9863641,29.955,1.0
75406240,-2.907739,-2.9865594,29.97,1.0
75416987,-2.907941,-2.9868655,29.99,1.0
75427686,-2.9082017,-2.9869852,29.96,1.0
75438420,-2.9083893,-2.987311,29.99,1.0
75449128,-2.908405,-2.9872286,29.97,1.0
75459868,-2.9083986,-2.9874928,30.025,1.0
75470564,-2.9084852,-2.987434,29.994999,1.0
75481266,-2.9086404,-2.9877908,30.035,1.0
75491975,-2.9089527,-2.9880388,30.015,1.0
75502673,-2.9095953,-2.9886248,30.0,1.0
75513389,-2.9104702,-2.9895482,30.005,1.0
75524088,-2.9112766,-2.990278,29.984999,1.0
75534796,-2.9118955,-2.9909973,30.005,1.0
75545537,-2.9123516,-2.9914165,29.994999,1.0
75556247,-2.9126685,-2.9918406,30.015,1.0
75566970,-2.9128692,-2.9917755,29.96,1.0
75577677,-2.9129746,-2.9921057,30.005,1.0
75588400,-2.9130034,-2.9920368,29.984999,1.0
75599148,-2.912973,-2.9919386,29.97,1.0
75609932,-2.912898,-2.9919853,29.994999,1.0
75620665,-2.9126813,-2.9916146,29.965,1.0
75631423,-2.912254,-2.9912498,29.98,1.0
75642128,-2.9117877,-2.9906967,29.965,1.0
75652861,-2.9114158,-2.990448,29.994999,1.0
75663595,-2.9111278,-2.990103,29.984999,1.0
75674452,-2.9108038,-2.989573,29.945,1.0
75685187,-2.9102426,-2.9891198,29.97,1.0
75695894,-2.9094076,-2.9883153,29.98,1.0
75706612,-2.9083886,-2.9872687,29.98,1.0
75717310,-2.9071507,-2.9859972,29.98,1.0
75728029,-2.905564,-2.9843428,29.974998,1.0
75738737,-2.9037588,-2.9825132,29.98,1.0
75749433,-2.9021723,-2.980957,29.994999,1.0
75760154,-2.901133,-2.9797683,29.965,1.0
75770850,-2.9006562,-2.9794753,30.005,1.0
75781548,-2.9007351,-2.9793594,29.965,1.0
75792276,-2.9014573,-2.980126,29.97,1.0
75802999,-2.9026492,-2.9813254,29.965,1.0
75813720,-2.9039433,-2.9826753,29.97,1.0
75824502,-2.9051652,-2.983955,29.974998,1.0
75835217,-2.9062936,-2.985114,29.974998,1.0
75845919,-2.907315,-2.9861882,29.98,1.0
75856627,-2.9082224,-2.9870017,29.965,1.0
75867334,-2.9090142,-2.988012,30.005,1.0
75878031,-2.909693,-2.9886355,29.99,1.0
75888739,-2.9102635,-2.9892952,30.005,1.0
75899454,-2.9107337,-2.9897044,29.99,1.0
75910161,-2.911112,-2.9899695,29.965,1.0
75920935,-2.9114084,-2.990412,29.99,1.0
75931649,-2.9116328,-2.9906178,29.984999,1.0
75942375,-2.9117947,-2.990981,30.025,1.0
75953073,-2.9119039,-2.9907236,29.949999,1.0
75963815,-2.9119694,-2.9909635,29.984999,1.0
75974572,-2.9119992,-2.9908884,29.965,1.0
75985296,-2.912001,-2.9911118,30.01,1.0
75996092,-2.9119806,-2.9908693,29.965,1.0
76006947,-2.9119449,-2.9911282,30.025,1.0
76017660,-2.9118977,-2.9911294,30.035,1.0
76028357,-2.9118435,-2.9909859,30.015,1.0
76039056,-2.9117858,-2.9907296,29.974998,1.0
76049783,-2.911727,-2.990743,29.99,1.0
76060520,-2.9116693,-2.9906096,29.974998,1.0
76071250,-2.911614,-2.9906762,30.0,1.0
76081951,-2.911453,-2.9904592,29.984999,1.0
76092670,-2.9109964,-2.9900641,30.0,1.0
76103372,-2.9102182,-2.9891663,29.98,1.0
76114072,-2.9093273,-2.9882758,29.984999,1.0
76124767,-2.9085975,-2.9875262,29.984999,1.0
76135465,-2.9081233,-2.9871264,30.005,1.0
76146168,-2.9078603,-2.9865856,29.949999,1.0
76156931,-2.9076571,-2.9864504,29.965,1.0
76167629,-2.9072871,-2.9860704,29.965,1.0
76178331,-2.9066906,-2.9858024,30.035,1.0
76189030,-2.906049,-2.984922,29.99,1.0
76199774,-2.9056125,-2.9843752,29.97,1.0
76210597,-2.905457,-2.9842176,29.97,1.0
76221407,-2.9055216,-2.9843578,29.984999,1.0
76232144,-2.9057524,-2.9846199,29.99,1.0
76242836,-2.9061038,-2.9849558,29.984999,1.0
76253658,-2.906536,-2.9854677,30.0,1.0
76264482,-2.907017,-2.985691,29.945,1.0
76275195,-2.90752,-2.9864047,29.984999,1.0
76285891,-2.908024,-2.986873,29.974998,1.0
76296591,-2.9085135,-2.9874742,29.994999,1.0
76307298,-2.908976,-2.9878669,29.984999,1.0
76318002,-2.9094038,-2.9884295,30.01,1.0
76328697,-2.9096816,-2.988616,29.99,1.0
76339450,-2.9096167,-2.9885495,29.99,1.0
76350183,-2.909181,-2.9881513,30.0,1.0
76360885,-2.9084759,-2.987437,30.005,1.0
76371585,-2.907695,-2.986536,29.984999,1.0
76382289,-2.9071004,-2.9860733,30.015,1.0
76393016,-2.9067771,-2.9858644,30.039999,1.0
76403734,-2.9066715,-2.985436,29.974998,1.0
76414463,-2.9067364,-2.985574,29.984999,1.0
76425160,-2.9069295,-2.985846,30.0,1.0
76435899,-2.9072149,-2.9858682,29.945,1.0
76446593,-2.907562,-2.9862986,29.96,1.0
76457301,-2.9079454,-2.9869142,30.005,1.0
76468022,-2.9083445,-2.9870887,29.955,1.0
76478720,-2.9087436,-2.9876957,29.994999,1.0
76489463,-2.90913,-2.988019,29.98,1.0
76500158,-2.9094942,-2.988319,29.965,1.0
76510853,-2.909721,-2.9886012,29.974998,1.0
76521553,-2.909615,-2.9885898,29.984999,1.0
76532258,-2.909149,-2.9881356,29.99,1.0
76543039,-2.9084208,-2.987363,29.984999,1.0
76553736,-2.9075143,-2.9865057,30.0,1.0
76564482,-2.9064999,-2.985562,30.019999,1.0
76575185,-2.9054341,-2.9844294,30.01,1.0
76585895,-2.904472,-2.983269,29.974998,1.0
76596586,-2.9038396,-2.9827669,30.005,1.0
76607312,-2.9034793,-2.9822986,29.984999,1.0
76618027,-2.9031193,-2.9820025,30.0,1.0
76628742,-2.9027705,-2.9815016,29.98,1.0
76639509,-2.902661,-2.9814875,30.0,1.0
76650205,-2.9027386,-2.9814932,29.984999,1.0
76660984,-2.9027371,-2.9815164,29.99,1.0
76671684,-2.9025648,-2.9813395,29.99,1.0
76682393,-2.9022675,-2.9810562,30.005,1.0
76693097,-2.901993,-2.9807744,30.005,1.0
76703894,-2.9019651,-2.980672,29.99,1.0
76714594,-2.9021273,-2.9807897,29.98,1.0
76725313,-2.9022093,-2.981021,30.01,1.0
76736029,-2.9021175,-2.9808404,29.984999,1.0
76746946,-2.9018958,-2.9806373,29.99,1.0
76757651,-2.901581,-2.980314,29.99,1.0
76768350,-2.901205,-2.9796824,29.939999,1.0
76779047,-2.9009042,-2.9796188,29.99,1.0
76789767,-2.90089,-2.9796083,29.99,1.0
76800487,-2.9012058,-2.9801044,30.025,1.0
76811208,-2.9017646,-2.9804327,29.974998,1.0
76821975,-2.9024923,-2.9812047,29.98,1.0
76832673,-2.9033258,-2.9820118,29.97,1.0
76843389,-2.9042144,-2.9829981,29.984999,1.0
76854107,-2.9051178,-2.983894,29.98,1.0
76864814,-2.9058936,-2.9846172,29.965,1.0
76875523,-2.9063282,-2.985162,29.984999,1.0
76886225,-2.906378,-2.985164,29.974998,1.0
76896954,-2.9062417,-2.9851863,30.005,1.0
76907647,-2.906186,-2.9851785,30.015,1.0
76918347,-2.9063044,-2.9852507,30.005,1.0
76929052,-2.9065523,-2.9853084,29.965,1.0
76939766,-2.9068913,-2.9857306,29.98,1.0
76950494,-2.9071796,-2.9860191,29.98,1.0
76961212,-2.9073107,-2.9861538,29.98,1.0
76972061,-2.9074268,-2.986421,30.01,1.0
76982769,-2.9076376,-2.986613,30.005,1.0
76993478,-2.9079142,-2.9868724,30.0,1.0
77004175,-2.9082327,-2.987027,29.965,1.0
77014872,-2.9085734,-2.9875886,30.005,1.0
77025570,-2.9089203,-2.987822,29.98,1.0
77036289,-2.9091513,-2.9882808,30.025,1.0
77047110,-2.9091768,-2.988184,30.0,1.0
77057876,-2.9091537,-2.9881022,29.994999,1.0
77068625,-2.9092035,-2.988203,30.005,1.0
77079480,-2.9093084,-2.988409,30.025,1.0
77090180,-2.9094515,-2.988359,29.984999,1.0
77100949,-2.9096196,-2.988655,30.01,1.0
77111647,-2.9098015,-2.9887147,29.984999,1.0
77122355,-2.9099884,-2.9890301,30.01,1.0
77133107,-2.9101732,-2.9890964,29.984999,1.0
77143798,-2.9103508,-2.9893773,30.005,1.0
77154520,-2.910517,-2.989548,30.005,1.0
77165231,-2.9106696,-2.9897308,30.005,1.0
77175967,-2.9108067,-2.9897485,29.98,1.0
77186710,-2.910818,-2.989908,30.01,1.0
77197413,-2.9105136,-2.9894722,29.984999,1.0
77208202,-2.9099767,-2.988896,29.98,1.0
77218905,-2.9094977,-2.988463,29.994999,1.0
77229611,-2.909078,-2.9881794,30.025,1.0
77240313,-2.9083877,-2.9873476,30.0,1.0
77251141,-2.907292,-2.9862223,30.0,1.0
77261946,-2.9060292,-2.9850478,30.025,1.0
77272636,-2.904788,-2.9834816,29.965,1.0
77283346,-2.9037116,-2.9824743,29.984999,1.0
77294037,-2.9029052,-2.9818428,30.025,1.0
77304730,-2.902331,-2.981081,29.99,1.0
77315426,-2.901953,-2.98084,30.019999,1.0
77326130,-2.901627,-2.9804466,30.005,1.0
77336921,-2.9013507,-2.9800398,29.98,1.0
77347683,-2.9013414,-2.9800792,29.99,1.0
77358373,-2.9016473,-2.9803445,29.98,1.0
77369069,-2.9021845,-2.980822,29.965,1.0
77379767,-2.902882,-2.9816592,29.984999,1.0
77390463,-2.9035707,-2.982342,29.98,1.0
77401162,-2.904011,-2.9830155,30.025,1.0
77411957,-2.9041376,-2.983072,30.01,1.0
77433412,-2.9038286,-2.9827533,30.015,1.0
77444120,-2.9036968,-2.9824457,29.98,1.0
77454826,-2.903505,-2.9825191,30.035,1.0
77465541,-2.903273,-2.9820843,29.994999,1.0
77476236,-2.9032373,-2.982195,30.025,1.0
77486963,-2.9034634,-2.9822552,29.99,1.0
77497662,-2.9038825,-2.9825983,29.97,1.0
77508358,-2.9043267,-2.9831283,29.984999,1.0
77519053,-2.904556,-2.9834623,30.005,1.0
77529772,-2.904504,-2.983335,29.99,1.0
77540587,-2.9042382,-2.9831777,30.015,1.0
77551291,-2.9038167,-2.9825728,29.98,1.0
77562038,-2.903399,-2.9819713,29.945,1.0
77572728,-2.903217,-2.9818828,29.965,1.0
77583424,-2.9033318,-2.98205,29.974998,1.0
77594127,-2.9035597,-2.9822457,29.965,1.0
77604858,-2.9037576,-2.9824982,29.974998,1.0
77615626,-2.9039264,-2.9827702,29.994999,1.0
77626400,-2.9039574,-2.9826787,29.97,1.0
77637146,-2.903772,-2.9826608,30.005,1.0
77647842,-2.903427,-2.9823062,30.005,1.0
77658544,-2.90297,-2.9817765,29.994999,1.0
77669459,-2.9025517,-2.9812975,29.984999,1.0
77680183,-2.9023957,-2.9810145,29.96,1.0
77690879,-2.902556,-2.9814005,30.005,1.0
77701580,-2.9028435,-2.981558,29.98,1.0
77712298,-2.9029992,-2.9816935,29.974998,1.0
77722999,-2.9029393,-2.9817305,29.994999,1.0
77733745,-2.9027164,-2.9814522,29.984999,1.0
77744455,-2.9024851,-2.9813375,30.01,1.0
77755178,-2.9024749,-2.9812043,29.984999,1.0
77765878,-2.9026341,-2.981417,29.994999,1.0
77776572,-2.9028082,-2.981379,29.955,1.0
77787283,-2.9030983,-2.981874,29.994999,1.0
77798003,-2.903578,-2.9823666,29.994999,1.0
77808737,-2.904188,-2.9830668,30.01,1.0
77819521,-2.9048784,-2.9837022,29.994999,1.0
77830219,-2.9054992,-2.9844975,30.019999,1.0
77840935,-2.905937,-2.9849226,30.015,1.0
77851643,-2.906331,-2.9854012,30.029999,1.0
77862337,-2.9066792,-2.9856358,30.005,1.0
77873034,-2.906762,-2.9856777,30.0,1.0
77883736,-2.9066384,-2.9856248,30.015,1.0
77894455,-2.9064708,-2.9854772,30.019999,1.0
77905151,-2.9062746,-2.985399,30.045,1.0
77915858,-2.9061723,-2.985146,30.015,1.0
77926557,-2.9062555,-2.9850836,29.984999,1.0
77937247,-2.9064775,-2.9853003,29.984999,1.0
77947954,-2.906799,-2.9856799,29.994999,1.0
77958808,-2.9071872,-2.986054,29.99,1.0
77969512,-2.9076135,-2.9865658,30.005,1.0
77980212,-2.9080563,-2.9868977,29.98,1.0
77990961,-2.9084976,-2.9874246,29.994999,1.0
78001662,-2.9089239,-2.9878378,29.99,1.0
78012359,-2.9093251,-2.9883237,30.005,1.0
78023054,-2.9095855,-2.9885173,29.99,1.0
78033759,-2.90951,-2.9884596,29.984999,1.0
78044506,-2.9091797,-2.988293,30.019999,1.0
78055252,-2.9088838,-2.9879398,30.01,1.0
78065964,-2.9087336,-2.9877856,30.01,1.0
78076656,-2.9086995,-2.9877505,30.01,1.0
78087385,-2.9087553,-2.9875612,29.96,1.0
78098089,-2.9088783,-2.9878378,29.994999,1.0
78108797,-2.909049,-2.9880629,30.005,1.0
78119515,-2.9092507,-2.98827,30.005,1.0
78130231,-2.9093604,-2.9882836,29.984999,1.0
78140962,-2.9091768,-2.9880373,29.965,1.0
78151684,-2.908664,-2.9875355,29.97,1.0
78162408,-2.9079154,-2.986988,30.015,1.0
78173227,-2.9070091,-2.985885,29.98,1.0
78183930,-2.9060104,-2.9848592,29.98,1.0
78194666,-2.904972,-2.983864,30.005,1.0
78205376,-2.9039357,-2.9828975,30.025,1.0
78216166,-2.9029331,-2.9817202,29.994999,1.0
78226937,-2.9019878,-2.9807742,30.0,1.0
78237742,-2.9011157,-2.9799273,30.01,1.0
78248435,-2.9003274,-2.979142,30.015,1.0
78259139,-2.8997376,-2.9784725,30.005,1.0
78269867,-2.899539,-2.978342,30.019999,1.0
78280569,-2.8997557,-2.9785893,30.025,1.0
78291333,-2.9001744,-2.978872,29.994999,1.0
78302155,-2.900624,-2.9795058,30.029999,1.0
78312867,-2.9010837,-2.9797642,29.984999,1.0
78323561,-2.9014266,-2.98019,30.0,1.0
78334433,-2.9015589,-2.9803996,30.015,1.0
78345197,-2.9016364,-2.9804301,30.005,1.0
78355894,-2.901779,-2.9807584,30.045,1.0
78366589,-2.9018571,-2.980716,30.019999,1.0
78377297,-2.9017737,-2.980581,30.01,1.0
78388026,-2.9015687,-2.9803214,30.0,1.0
78398761,-2.9012773,-2.9799976,29.994999,1.0
78409460,-2.9009287,-2.979664,30.0,1.0
78420158,-2.900547,-2.9792337,29.99,1.0
78430906,-2.9001522,-2.9787793,29.98,1.0
78441649,-2.8998697,-2.9786856,30.019999,1.0
78452367,-2.8997917,-2.978237,29.945,1.0
78463060,-2.8998735,-2.9784682,29.974998,1.0
78473770,-2.9001849,-2.978965,30.005,1.0
78484484,-2.900772,-2.9794698,29.984999,1.0
78495191,-2.9015524,-2.9803698,30.005,1.0
78505896,-2.902456,-2.981126,29.97,1.0
78516595,-2.9034255,-2.9822898,30.005,1.0
78527298,-2.9044151,-2.983159,29.974998,1.0
78538009,-2.9052794,-2.9841943,30.005,1.0
78548703,-2.9059107,-2.9848428,30.005,1.0
78559433,-2.9064538,-2.9851787,29.96,1.0
78570128,-2.907022,-2.985861,29.98,1.0
78580851,-2.9075918,-2.9863985,29.98,1.0
78591588,-2.9081447,-2.9871879,30.025,1.0
78602297,-2.9086678,-2.9876268,30.005,1.0
78613054,-2.909151,-2.988197,30.019999,1.0
78623755,-2.9095895,-2.9885736,30.005,1.0
78634481,-2.9099793,-2.9889898,30.0,1.0
78645181,-2.9103198,-2.9895616,30.045,1.0
78655881,-2.9106119,-2.9898367,30.039999,1.0
78666578,-2.9108577,-2.9900646,30.035,1.0
78677287,-2.9110606,-2.9901817,30.015,1.0
78688015,-2.9112241,-2.990325,30.01,1.0
78698757,-2.9113524,-2.9904075,30.0,1.0
78709450,-2.9114497,-2.990409,29.98,1.0
78720157,-2.91152,-2.9905057,29.984999,1.0
78730857,-2.911568,-2.990555,29.984999,1.0
78741566,-2.911487,-2.9904459,29.984999,1.0
78752281,-2.911091,-2.9899652,29.97,1.0
78763012,-2.910356,-2.9895308,30.035,1.0
78773783,-2.9093845,-2.9883602,30.0,1.0
78784483,-2.9082615,-2.9871576,29.99,1.0
78795189,-2.9071674,-2.98602,29.984999,1.0
78805905,-2.9063494,-2.9853034,30.01,1.0
78816599,-2.9058783,-2.9847207,29.99,1.0
78827407,-2.9056876,-2.9845002,29.984999,1.0
78838146,-2.905718,-2.9844885,29.965,1.0
78848946,-2.9059167,-2.9848897,30.005,1.0
78859688,-2.906238,-2.9853182,30.025,1.0
78870392,-2.9066434,-2.9856362,30.005,1.0
78881163,-2.9071002,-2.9861789,30.019999,1.0
78891952,-2.9075823,-2.986674,30.019999,1.0
78902654,-2.9080684,-2.9869716,29.984999,1.0
78913357,-2.9085424,-2.9874585,29.984999,1.0
78924096,-2.9089923,-2.9878466,29.97,1.0
78934804,-2.90941,-2.9884727,30.01,1.0
78945518,-2.9097896,-2.988626,29.965,1.0
78956283,-2.910128,-2.9891713,30.005,1.0
78967081,-2.910425,-2.989476,30.005,1.0
78977789,-2.91068,-2.989787,30.015,1.0
78988482,-2.9108956,-2.98991,29.994999,1.0
78999177,-2.911074,-2.9901917,30.015,1.0
79009893,-2.9112184,-2.9903057,30.005,1.0
79020596,-2.9112225,-2.990433,30.029999,1.0
79031295,-2.9108996,-2.9900768,30.025,1.0
79042084,-2.910227,-2.9893858,30.025,1.0
79052787,-2.9094167,-2.9883318,29.98,1.0
79063496,-2.9087458,-2.9877572,30.01,1.0
79074193,-2.908312,-2.987435,30.035,1.0
79084894,-2.9080741,-2.9870427,30.005,1.0
79095596,-2.9079936,-2.9869354,30.0,1.0
79106287,-2.908036,-2.986905,29.984999,1.0
79117015,-2.9081712,-2.9871535,30.005,1.0
79127709,-2.9083734,-2.9872873,29.99,1.0
79138407,-2.9086204,-2.9876888,30.019999,1.0
79149147,-2.908894,-2.987945,30.015,1.0
79159865,-2.9091797,-2.9881892,30.005,1.0
79170576,-2.9094656,-2.9883351,29.974998,1.0
79181298,-2.9097424,-2.9886637,29.984999,1.0
79192119,-2.910004,-2.9890556,30.01,1.0
79202821,-2.9101355,-2.9892645,30.025,1.0
79213535,-2.9099445,-2.9890683,30.025,1.0
79224231,-2.9094024,-2.9886594,30.054998,1.0
79235106,-2.9086084,-2.9874742,29.984999,1.0
79245806,-2.9076457,-2.98651,29.99,1.0
79256522,-2.9065838,-2.985592,30.025,1.0
79267271,-2.9054792,-2.9843094,29.994999,1.0
79278001,-2.904376,-2.9832504,30.01,1.0
79288751,-2.9033086,-2.982303,30.035,1.0
79299450,-2.9023018,-2.9808998,29.96,1.0
79310199,-2.901373,-2.9800684,29.984999,1.0
79320957,-2.9005327,-2.9792056,29.984999,1.0
79331654,-2.899787,-2.9785626,30.01,1.0
79342347,-2.8991368,-2.9779227,30.015,1.0
79353048,-2.89858,-2.9773018,30.005,1.0
79363767,-2.8981125,-2.9767725,29.994999,1.0
79374468,-2.897728,-2.9765491,30.029999,1.0
79385164,-2.8974187,-2.97606,29.994999,1.0
79395869,-2.8971772,-2.9758537,30.005,1.0
79406570,-2.896995,-2.9757645,30.025,1.0
79417270,-2.896864,-2.9755564,30.01,1.0
79428023,-2.896776,-2.975417,30.0,1.0
79438778,-2.8967242,-2.9753149,29.99,1.0
79449479,-2.8968115,-2.9754152,29.99,1.0
79460183,-2.8973336,-2.976148,30.029999,1.0
79470880,-2.8985019,-2.9773235,30.025,1.0
79481590,-2.9001286,-2.9788961,30.005,1.0
79492307,-2.901835,-2.9805748,29.99,1.0
79503030,-2.903438,-2.9822388,29.994999,1.0
79513765,-2.9049125,-2.9837782,30.0,1.0
79524468,-2.906242,-2.9851682,30.005,1.0
79535216,-2.9074187,-2.9862537,29.98,1.0
79545926,-2.908442,-2.9873292,29.984999,1.0
79556620,-2.9092057,-2.9881866,30.005,1.0
79567438,-2.909528,-2.9886162,30.025,1.0
79578154,-2.9093919,-2.9883533,30.0,1.0
79588898,-2.9089093,-2.9877834,29.984999,1.0
79599607,-2.9082856,-2.987266,30.01,1.0
79610303,-2.907793,-2.9866676,29.98,1.0
79621039,-2.9075263,-2.9864182,29.984999,1.0
79631738,-2.9074404,-2.9864042,30.0,1.0
79642641,-2.9074965,-2.986437,29.994999,1.0
79653370,-2.9076588,-2.9865794,29.99,1.0
79664073,-2.9078977,-2.9870746,30.039999,1.0
79674780,-2.9081879,-2.9871016,29.984999,1.0
79685481,-2.9085083,-2.987628,30.025,1.0
79696215,-2.9088416,-2.9877732,29.984999,1.0
79706908,-2.9091744,-2.9880657,29.974998,1.0
79717662,-2.9094968,-2.9884782,30.005,1.0
79728368,-2.9098005,-2.988741,29.994999,1.0
79739061,-2.9100807,-2.989201,30.029999,1.0
79749762,-2.910334,-2.9893873,30.015,1.0
79760462,-2.9105592,-2.9895694,30.005,1.0
79771231,-2.9107554,-2.989977,30.039999,1.0
79781981,-2.9109232,-2.9901,30.029999,1.0
79792692,-2.9110644,-2.9901953,30.019999,1.0
79803394,-2.9111803,-2.9901419,29.984999,1.0
79814091,-2.9112737,-2.990287,29.994999,1.0
79824796,-2.9113467,-2.9905841,30.039999,1.0
79835616,-2.911292,-2.9902418,29.984999,1.0
79846331,-2.910922,-2.9899359,30.0,1.0
79857095,-2.9103222,-2.9893444,30.005,1.0
79867797,-2.909784,-2.9885943,29.965,1.0
79878492,-2.90942,-2.9884536,30.01,1.0
79889187,-2.9092004,-2.9881048,29.984999,1.0
79899899,-2.9090986,-2.9881973,30.025,1.0
79910597,-2.9090903,-2.9878929,29.965,1.0
79921311,-2.9091537,-2.9880815,29.99,1.0
79932026,-2.9092698,-2.988389,30.035,1.0
79942758,-2.9093137,-2.988385,30.025,1.0
79953483,-2.9090805,-2.988072,30.01,1.0
79964191,-2.908533,-2.9875095,30.01,1.0
79974968,-2.907762,-2.9867177,30.01,1.0
79985787,-2.9068434,-2.9858093,30.015,1.0
79996522,-2.9058404,-2.9847052,30.0,1.0
80007257,-2.904914,-2.9837782,30.005,1.0
80018017,-2.9042947,-2.9831424,30.005,1.0
80028731,-2.9039307,-2.98267,29.984999,1.0
80039495,-2.9035532,-2.9823744,30.0,1.0
80050190,-2.9030676,-2.9818757,30.0,1.0
80060911,-2.9026244,-2.9814448,30.005,1.0
80071612,-2.902337,-2.9811254,30.0,1.0
80082326,-2.9020689,-2.9808006,29.99,1.0
80093060,-2.9017131,-2.980494,30.005,1.0
80103763,-2.9013014,-2.9801202,30.015,1.0
80114481,-2.90086,-2.979667,30.015,1.0
80125187,-2.9004095,-2.979229,30.019999,1.0
80135887,-2.9000762,-2.9788375,30.01,1.0
80146644,-2.9000633,-2.9787652,29.994999,1.0
80157356,-2.9004061,-2.9792895,30.029999,1.0
80168070,-2.9010108,-2.979861,30.019999,1.0
80178784,-2.9017968,-2.9805458,29.994999,1.0
80189487,-2.9026968,-2.9816177,30.025,1.0
80200191,-2.9035466,-2.9823039,29.99,1.0
80210891,-2.904111,-2.9830801,30.029999,1.0
80221590,-2.9043293,-2.983009,29.97,1.0
80232333,-2.9042761,-2.9830532,29.99,1.0
80243062,-2.904016,-2.982712,29.974998,1.0
80253802,-2.9036062,-2.9824188,29.994999,1.0
80264508,-2.9029841,-2.981854,30.01,1.0
80275260,-2.9019988,-2.9808662,30.015,1.0
80286007,-2.9007657,-2.9795997,30.015,1.0
80296913,-2.8996015,-2.9782321,29.98,1.0
80307671,-2.898636,-2.9774454,30.015,1.0
80318365,-2.8978539,-2.976691,30.025,1.0
80329079,-2.8971257,-2.9757714,29.99,1.0
80339835,-2.8962417,-2.9748385,29.984999,1.0
80350555,-2.8951554,-2.9739926,30.039999,1.0
80361281,-2.893948,-2.9725022,29.994999,1.0
80372069,-2.8926854,-2.9712791,30.01,1.0
80382780,-2.89142,-2.9699304,30.0,1.0
80393480,-2.8901916,-2.968693,30.005,1.0
80404192,-2.88903,-2.9674754,30.0,1.0
80414890,-2.887956,-2.9663906,30.0,1.0
80425607,-2.8869824,-2.9654884,30.019999,1.0
80436304,-2.8862271,-2.9644434,29.965,1.0
80447076,-2.8858838,-2.9643843,30.025,1.0
80457800,-2.8859775,-2.9643583,30.0,1.0
80468494,-2.8864033,-2.9647212,29.99,1.0
80479196,-2.8870697,-2.9655278,30.015,1.0
80489894,-2.8878996,-2.9662335,29.984999,1.0
80500589,-2.8888285,-2.9671876,29.984999,1.0
80511391,-2.8898041,-2.9684591,30.039999,1.0
80522091,-2.8907847,-2.9695897,30.06,1.0
80532798,-2.891739,-2.9702518,29.994999,1.0
80543529,-2.8926425,-2.9712288,30.005,1.0
80554229,-2.8935895,-2.9720054,29.965,1.0
80565099,-2.8947606,-2.9734046,30.005,1.0
80575809,-2.8961766,-2.9748614,30.01,1.0
80586564,-2.8976254,-2.9764233,30.025,1.0
80597268,-2.8988335,-2.9775906,30.01,1.0
80608025,-2.89971,-2.9783921,29.99,1.0
80618744,-2.9003046,-2.979175,30.025,1.0
80629518,-2.9006648,-2.979447,30.005,1.0
80640238,-2.9008346,-2.9795537,29.994999,1.0
80650989,-2.9008532,-2.9795482,29.99,1.0
80661693,-2.9007554,-2.9795463,30.01,1.0
80672390,-2.9006813,-2.9795682,30.029999,1.0
80683092,-2.900848,-2.9797149,30.025,1.0
80693795,-2.901304,-2.980184,30.025,1.0
80704539,-2.9019666,-2.980717,29.994999,1.0
80715253,-2.9027677,-2.9814665,29.98,1.0
80725953,-2.9036486,-2.9823956,29.984999,1.0
80736709,-2.9045634,-2.983409,30.0,1.0
80747419,-2.9054759,-2.984174,29.965,1.0
80758118,-2.9063573,-2.9853666,30.025,1.0
80768900,-2.907188,-2.985924,29.965,1.0
80779611,-2.907953,-2.9869564,30.015,1.0
80790313,-2.9086444,-2.9875436,29.99,1.0
80801060,-2.909258,-2.9882846,30.005,1.0
80812007,-2.9097922,-2.988858,30.01,1.0
80822708,-2.910249,-2.9892282,29.99,1.0
80833403,-2.9106326,-2.989647,29.994999,1.0
80844098,-2.9109478,-2.9900203,30.005,1.0
80854810,-2.9113104,-2.990378,30.005,1.0
80865508,-2.911808,-2.9907413,29.974998,1.0
80876293,-2.9122834,-2.9913774,30.005,1.0
80887002,-2.9126174,-2.9917204,30.005,1.0
80897764,-2.9128325,-2.9919167,30.0,1.0
80908454,-2.91295,-2.9920375,30.0,1.0
80919150,-2.9129891,-2.9920578,30.005,1.0
80929869,-2.912967,-2.992035,30.005,1.0
80940567,-2.912789,-2.9918277,30.0,1.0
80951306,-2.9122777,-2.9913764,30.015,1.0
80962093,-2.9114177,-2.990502,30.01,1.0
80972798,-2.9103172,-2.989347,30.005,1.0
80983489,-2.9090662,-2.9879632,29.984999,1.0
80994181,-2.9078488,-2.986885,30.019999,1.0
81004892,-2.9069152,-2.9858525,30.005,1.0
81015590,-2.9063375,-2.9853182,30.019999,1.0
81026286,-2.906051,-2.9851222,30.039999,1.0
81037094,-2.9059966,-2.985017,30.029999,1.0
81047787,-2.9061213,-2.9850469,30.01,1.0
81058485,-2.90638,-2.9853864,30.025,1.0
81069199,-2.9067326,-2.985724,30.019999,1.0
81079901,-2.9071465,-2.9861183,30.01,1.0
81090597,-2.907594,-2.9866025,30.015,1.0
81101295,-2.9080532,-2.987025,30.005,1.0
81112015,-2.9085073,-2.9876883,30.045,1.0
81122712,-2.9089432,-2.9879117,29.994999,1.0
81133402,-2.9093513,-2.9882817,29.984999,1.0
81144161,-2.9097257,-2.9887154,29.994999,1.0
81154868,-2.9100623,-2.9890614,29.994999,1.0
81165578,-2.9103594,-2.9893172,29.984999,1.0
81176288,-2.9106169,-2.9897099,30.005,1.0
81187001,-2.9108362,-2.9899352,30.005,1.0
81197712,-2.9110196,-2.9901974,30.019999,1.0
81208425,-2.9111693,-2.9902773,30.005,1.0
81219128,-2.9112885,-2.9904244,30.01,1.0
81229874,-2.911381,-2.990495,30.019999,1.0
81240573,-2.9114501,-2.9904177,29.99,1.0
81251301,-2.911389,-2.990454,30.01,1.0
81262071,-2.9110115,-2.990189,30.035,1.0
81272768,-2.9102933,-2.9894516,30.035,1.0
81283496,-2.9094458,-2.9884934,30.015,1.0
81294422,-2.9088552,-2.98801,30.039999,1.0
81305169,-2.9088092,-2.9877903,30.005,1.0
81315867,-2.9092913,-2.98831,30.01,1.0
81326568,-2.9100533,-2.9891667,30.025,1.0
81337312,-2.910786,-2.9898748,30.01,1.0
81348024,-2.9114735,-2.990458,29.984999,1.0
81358786,-2.9123242,-2.9914303,30.005,1.0
81369497,-2.913492,-2.9925313,29.984999,1.0
81380198,-2.9150848,-2.99434,30.019999,1.0
81390896,-2.9170625,-2.9964702,30.039999,1.0
81401597,-2.919272,-2.9984608,29.984999,1.0
81412295,-2.9214797,-3.0007284,29.984999,1.0
81423003,-2.9233987,-3.0026994,29.984999,1.0
81433790,-2.9248185,-3.0041578,29.984999,1.0
81444500,-2.92603,-3.0055506,30.015,1.0
81455203,-2.9274802,-3.0070019,30.005,1.0
81465904,-2.9286315,-3.0082092,30.01,1.0
81476596,-2.9287555,-3.0083365,30.01,1.0
81487292,-2.9278705,-3.0073032,29.984999,1.0
81498022,-2.926349,-3.0058312,30.01,1.0
81508760,-2.9246047,-3.0040147,30.005,1.0
81519589,-2.922853,-3.0021162,29.984999,1.0
81530290,-2.9211502,-3.0005653,30.025,1.0
81541023,-2.919538,-2.998687,29.98,1.0
81551739,-2.9179363,-2.9972641,30.025,1.0
81562578,-2.9161737,-2.9953167,29.994999,1.0
81573334,-2.914233,-2.9933972,30.01,1.0
81584090,-2.912216,-2.9913254,30.01,1.0
81594788,-2.9102032,-2.9892335,30.005,1.0
81605488,-2.9082565,-2.9872227,30.005,1.0
81616181,-2.9064212,-2.985436,30.025,1.0
81627029,-2.9047284,-2.983525,29.99,1.0
81637744,-2.903198,-2.9820268,30.005,1.0
81648490,-2.9018397,-2.9806316,30.005,1.0
81659208,-2.9006557,-2.9794402,30.01,1.0
81669905,-2.8996425,-2.9787188,30.074999,1.0
81680654,-2.8987918,-2.9775991,30.025,1.0
81691354,-2.8980923,-2.976684,29.984999,1.0
81702089,-2.8975306,-2.9763036,30.025,1.0
81712794,-2.8970919,-2.9757795,30.01,1.0
81723485,-2.8967614,-2.9754415,30.005,1.0
81734214,-2.896524,-2.9752462,30.015,1.0
81745086,-2.8963654,-2.9748871,29.974998,1.0
81755842,-2.896272,-2.9749632,30.01,1.0
81766556,-2.8962317,-2.9749377,30.019999,1.0
81777272,-2.896233,-2.975037,30.039999,1.0
81788029,-2.8963768,-2.9750867,30.019999,1.0
81798791,-2.896845,-2.9755428,30.015,1.0
81809515,-2.8975477,-2.9762647,30.015,1.0
81820214,-2.8981872,-2.9769511,30.015,1.0
81830912,-2.8987582,-2.9775867,30.025,1.0
81841651,-2.899479,-2.978278,30.015,1.0
81852357,-2.9005122,-2.979364,30.019999,1.0
81863049,-2.901972,-2.981011,30.05,1.0
81873787,-2.9037125,-2.982553,30.0,1.0
81884486,-2.905393,-2.984504,30.045,1.0
81895238,-2.9069748,-2.9859567,30.01,1.0
81905937,-2.9087608,-2.9877667,30.005,1.0
81916640,-2.9108665,-2.9899297,30.005,1.0
81927366,-2.9130402,-2.992204,30.015,1.0
81938060,-2.9149792,-2.9942946,30.035,1.0
81948824,-2.916568,-2.9958525,30.019999,1.0
81959571,-2.9178398,-2.9971833,30.025,1.0
81970290,-2.9187188,-2.998111,30.029999,1.0
81981027,-2.919161,-2.9985816,30.039999,1.0
81991732,-2.9192548,-2.9984305,29.99,1.0
82002672,-2.9190788,-2.998324,30.005,1.0
