timestamp,voltage_v,voltage_filtered_v,current_a,current_filtered_a,average_current_a,discharged_mah,remaining,scale,temperature,cell_count,voltage_cell_v[0],voltage_cell_v[1],voltage_cell_v[2],voltage_cell_v[3],voltage_cell_v[4],voltage_cell_v[5],voltage_cell_v[6],voltage_cell_v[7],voltage_cell_v[8],voltage_cell_v[9],max_cell_voltage_delta,capacity,cycle_count,run_time_to_empty,average_time_to_empty,serial_number,state_of_health,max_error,connected,source,priority,id,is_powering_off,warning
65930795,25.42,25.488592,0.0,0.0,0.0,0.0,1.0,1.0,nan,6,4.248099,4.248099,4.248099,4.248099,4.248099,4.248099,0.0,0.0,0.0,0.0,0.0,0,0,0,0,0,0,0,1,0,0,1,0,0
66229212,25.4282,25.486044,0.0,0.0,0.0,0.0,1.0,1.0,nan,6,4.247674,4.247674,4.247674,4.247674,4.247674,4.247674,0.0,0.0,0.0,0.0,0.0,0,0,0,0,0,0,0,1,0,0,1,0,0
66529206,25.4692,25.48245,0.0,0.0,0.0,0.0,1.0,1.0,nan,6,4.247075,4.247075,4.247075,4.247075,4.247075,4.247075,0.0,0.0,0.0,0.0,0.0,0,0,0,0,0,0,0,1,0,0,1,0,0
68029206,25.502,25.47096,0.0,0.0,0.0,0.0,1.0,1.0,nan,6,4.24516,4.24516,4.24516,4.24516,4.24516,4.24516,0.0,0.0,0.0,0.0,0.0,0,0,0,0,0,0,0,1,0,0,1,0,0
68330734,25.4692,25.47429,0.0,0.0,0.0,0.0,1.0,1.0,nan,6,4.245715,4.245715,4.245715,4.245715,4.245715,4.245715,0.0,0.0,0.0,0.0,0.0,0,0,0,0,0,0,0,1,0,0,1,0,0
68629208,25.4856,25.47415,0.0,0.0,0.0,0.0,1.0,1.0,nan,6,4.245692,4.245692,4.245692,4.245692,4.245692,4.245692,0.0,0.0,0.0,0.0,0.0,0,0,0,0,0,0,0,1,0,0,1,0,0
68929207,25.4364,25.476555,0.0,0.0,0.0,0.0,1.0,1.0,nan,6,4.2460923,4.2460923,4.2460923,4.2460923,4.2460923,4.2460923,0.0,0.0,0.0,0.0,0.0,0,0,0,0,0,0,0,1,0,0,1,0,0
69229209,25.4692,25.476147,0.0,0.0,0.0,0.0,1.0,1.0,nan,6,4.2460246,4.2460246,4.2460246,4.2460246,4.2460246,4.2460246,0.0,0.0,0.0,0.0,0.0,0,0,0,0,0,0,0,1,0,0,1,0,0
69529209,25.461,25.474014,0.0,0.0,0.0,0.0,1.0,1.0,nan,6,4.245669,4.245669,4.245669,4.245669,4.245669,4.245669,0.0,0.0,0.0,0.0,0.0,0,0,0,0,0,0,0,1,0,0,1,0,0
69829209,25.493801,25.473097,0.0,0.0,0.0,0.0,1.0,1.0,nan,6,4.2455163,4.2455163,4.2455163,4.2455163,4.2455163,4.2455163,0.0,0.0,0.0,0.0,0.0,0,0,0,0,0,0,0,1,0,0,1,0,0
70129207,25.502,25.473873,0.0,0.0,0.0,0.0,1.0,1.0,nan,6,4.2456455,4.2456455,4.2456455,4.2456455,4.2456455,4.2456455,0.0,0.0,0.0,0.0,0.0,0,0,0,0,0,0,0,1,0,0,1,0,0
70429214,25.4692,25.475462,0.0,0.0,0.0,0.0,1.0,1.0,nan,6,4.24591,4.24591,4.24591,4.24591,4.24591,4.24591,0.0,0.0,0.0,0.0,0.0,0,0,0,0,0,0,0,1,0,0,1,0,0
70729216,25.502,25.477127,0.0,0.0,0.0,0.0,1.0,1.0,nan,6,4.2461877,4.2461877,4.2461877,4.2461877,4.2461877,4.2461877,0.0,0.0,0.0,0.0,0.0,0,0,0,0,0,0,0,1,0,0,1,0,0
71029206,25.493801,25.475527,0.0,0.0,0.0,0.0,1.0,1.0,nan,6,4.245921,4.245921,4.245921,4.245921,4.245921,4.245921,0.0,0.0,0.0,0.0,0.0,0,0,0,0,0,0,0,1,0,0,1,0,0
71329230,25.4692,25.472685,0.0,0.0,0.0,0.0,1.0,1.0,nan,6,4.2454476,4.2454476,4.2454476,4.2454476,4.2454476,4.2454476,0.0,0.0,0.0,0.0,0.0,0,0,0,0,0,0,0,1,0,0,1,0,0
71629207,25.502,25.471588,0.0,0.0,0.0,0.0,1.0,1.0,nan,6,4.2452645,4.2452645,4.2452645,4.2452645,4.2452645,4.2452645,0.0,0.0,0.0,0.0,0.0,0,0,0,0,0,0,0,1,0,0,1,0,0
71929208,25.4528,25.473585,0.0,0.0,0.0,0.0,1.0,1.0,nan,6,4.2455974,4.2455974,4.2455974,4.2455974,4.2455974,4.2455974,0.0,0.0,0.0,0.0,0.0,0,0,0,0,0,0,0,1,0,0,1,0,0
72231198,25.4774,25.47246,0.0,0.0,0.0,0.0,1.0,1.0,nan,6,4.24541,4.24541,4.24541,4.24541,4.24541,4.24541,0.0,0.0,0.0,0.0,0.0,0,0,0,0,0,0,0,1,0,0,1,0,0
72530808,25.4692,25.47369,0.0,0.0,0.0,0.0,1.0,1.0,nan,6,4.245615,4.245615,4.245615,4.245615,4.245615,4.245615,0.0,0.0,0.0,0.0,0.0,0,0,0,0,0,0,0,1,0,0,1,0,0
72829217,25.461,25.47249,0.0,0.0,0.0,0.0,1.0,1.0,nan,6,4.245415,4.245415,4.245415,4.245415,4.245415,4.245415,0.0,0.0,0.0,0.0,0.0,0,0,0,0,0,0,0,1,0,0,1,0,0
73129206,25.493801,25.47251,0.0,0.0,0.0,0.0,1.0,1.0,nan,6,4.245418,4.245418,4.245418,4.245418,4.245418,4.245418,0.0,0.0,0.0,0.0,0.0,0,0,0,0,0,0,0,1,0,0,1,0,0
73429218,25.4282,25.472261,0.0,0.0,0.0,0.0,1.0,1.0,nan,6,4.245377,4.245377,4.245377,4.245377,4.245377,4.245377,0.0,0.0,0.0,0.0,0.0,0,0,0,0,0,0,0,1,0,0,1,0,0
73729207,25.493801,25.473026,0.0,0.0,0.0,0.0,1.0,1.0,nan,6,4.2455044,4.2455044,4.2455044,4.2455044,4.2455044,4.2455044,0.0,0.0,0.0,0.0,0.0,0,0,0,0,0,0,0,1,0,0,1,0,0
74029209,25.4528,25.47235,0.0,0.0,0.0,0.0,1.0,1.0,nan,6,4.2453914,4.2453914,4.2453914,4.2453914,4.2453914,4.2453914,0.0,0.0,0.0,0.0,0.0,0,0,0,0,0,0,0,1,0,0,1,0,0
74329208,25.4856,25.473392,0.0,0.0,0.0,0.0,1.0,1.0,nan,6,4.2455654,4.2455654,4.2455654,4.2455654,4.2455654,4.2455654,0.0,0.0,0.0,0.0,0.0,0,0,0,0,0,0,0,1,0,0,1,0,0
74629214,25.4774,25.473545,0.0,0.0,0.0,0.0,1.0,1.0,nan,6,4.2455907,4.2455907,4.2455907,4.2455907,4.2455907,4.2455907,0.0,0.0,0.0,0.0,0.0,0,0,0,0,0,0,0,1,0,0,1,0,0
74929208,25.493801,25.474598,0.0,0.0,0.0,0.0,1.0,1.0,nan,6,4.245766,4.245766,4.245766,4.245766,4.245766,4.245766,0.0,0.0,0.0,0.0,0.0,0,0,0,0,0,0,0,1,0,0,1,0,0
75229207,25.461,25.47249,0.0,0.0,0.0,0.0,1.0,1.0,nan,6,4.245415,4.245415,4.245415,4.245415,4.245415,4.245415,0.0,0.0,0.0,0.0,0.0,0,0,0,0,0,0,0,1,0,0,1,0,0
75529208,25.4692,25.474413,0.0,0.0,0.0,0.0,1.0,1.0,nan,6,4.2457356,4.2457356,4.2457356,4.2457356,4.2457356,4.2457356,0.0,0.0,0.0,0.0,0.0,0,0,0,0,0,0,0,1,0,0,1,0,0
75829213,25.518398,25.47505,0.0,0.0,0.0,0.0,1.0,1.0,nan,6,4.2458415,4.2458415,4.2458415,4.2458415,4.2458415,4.2458415,0.0,0.0,0.0,0.0,0.0,0,0,0,0,0,0,0,1,0,0,1,0,0
76129206,25.4856,25.474508,0.0,0.0,0.0,0.0,1.0,1.0,nan,6,4.2457514,4.2457514,4.2457514,4.2457514,4.2457514,4.2457514,0.0,0.0,0.0,0.0,0.0,0,0,0,0,0,0,0,1,0,0,1,0,0
76429212,25.4774,25.476234,0.0,0.0,0.0,0.0,1.0,1.0,nan,6,4.246039,4.246039,4.246039,4.246039,4.246039,4.246039,0.0,0.0,0.0,0.0,0.0,0,0,0,0,0,0,0,1,0,0,1,0,0
76729213,25.4856,25.477549,0.0,0.0,0.0,0.0,1.0,1.0,nan,6,4.2462583,4.2462583,4.2462583,4.2462583,4.2462583,4.2462583,0.0,0.0,0.0,0.0,0.0,0,0,0,0,0,0,0,1,0,0,1,0,0
77029216,25.4856,25.479132,0.0,0.0,0.0,0.0,1.0,1.0,nan,6,4.246522,4.246522,4.246522,4.246522,4.246522,4.246522,0.0,0.0,0.0,0.0,0.0,0,0,0,0,0,0,0,1,0,0,1,0,0
77329207,25.4856,25.478167,0.0,0.0,0.0,0.0,1.0,1.0,nan,6,4.2463613,4.2463613,4.2463613,4.2463613,4.2463613,4.2463613,0.0,0.0,0.0,0.0,0.0,0,0,0,0,0,0,0,1,0,0,1,0,0
77629210,25.534801,25.47915,0.0,0.0,0.0,0.0,1.0,1.0,nan,6,4.2465253,4.2465253,4.2465253,4.2465253,4.2465253,4.2465253,0.0,0.0,0.0,0.0,0.0,0,0,0,0,0,0,0,1,0,0,1,0,0
77929207,25.502,25.47834,0.0,0.0,0.0,0.0,1.0,1.0,nan,6,4.24639,4.24639,4.24639,4.24639,4.24639,4.24639,0.0,0.0,0.0,0.0,0.0,0,0,0,0,0,0,0,1,0,0,1,0,0
78229209,25.5102,25.477877,0.0,0.0,0.0,0.0,1.0,1.0,nan,6,4.2463126,4.2463126,4.2463126,4.2463126,4.2463126,4.2463126,0.0,0.0,0.0,0.0,0.0,0,0,0,0,0,0,0,1,0,0,1,0,0
78530732,25.5102,25.478537,0.0,0.0,0.0,0.0,1.0,1.0,nan,6,4.246423,4.246423,4.246423,4.246423,4.246423,4.246423,0.0,0.0,0.0,0.0,0.0,0,0,0,0,0,0,0,1,0,0,1,0,0
78829213,25.4774,25.477884,0.0,0.0,0.0,0.0,1.0,1.0,nan,6,4.246314,4.246314,4.246314,4.246314,4.246314,4.246314,0.0,0.0,0.0,0.0,0.0,0,0,0,0,0,0,0,1,0,0,1,0,0
79129206,25.493801,25.47824,0.0,0.0,0.0,0.0,1.0,1.0,nan,6,4.246373,4.246373,4.246373,4.246373,4.246373,4.246373,0.0,0.0,0.0,0.0,0.0,0,0,0,0,0,0,0,1,0,0,1,0,0
79429210,25.4692,25.480362,0.0,0.0,0.0,0.0,1.0,1.0,nan,6,4.246727,4.246727,4.246727,4.246727,4.246727,4.246727,0.0,0.0,0.0,0.0,0.0,0,0,0,0,0,0,0,1,0,0,1,0,0
79729212,25.4692,25.477955,0.0,0.0,0.0,0.0,1.0,1.0,nan,6,4.246326,4.246326,4.246326,4.246326,4.246326,4.246326,0.0,0.0,0.0,0.0,0.0,0,0,0,0,0,0,0,1,0,0,1,0,0
80029214,25.4774,25.479012,0.0,0.0,0.0,0.0,1.0,1.0,nan,6,4.246502,4.246502,4.246502,4.246502,4.246502,4.246502,0.0,0.0,0.0,0.0,0.0,0,0,0,0,0,0,0,1,0,0,1,0,0
80329215,25.518398,25.478802,0.0,0.0,0.0,0.0,1.0,1.0,nan,6,4.246467,4.246467,4.246467,4.246467,4.246467,4.246467,0.0,0.0,0.0,0.0,0.0,0,0,0,0,0,0,0,1,0,0,1,0,0
80629231,25.4364,25.476917,0.0,0.0,0.0,0.0,1.0,1.0,nan,6,4.246153,4.246153,4.246153,4.246153,4.246153,4.246153,0.0,0.0,0.0,0.0,0.0,0,0,0,0,0,0,0,1,0,0,1,0,0
80930731,25.502,25.477558,0.0,0.0,0.0,0.0,1.0,1.0,nan,6,4.2462597,4.2462597,4.2462597,4.2462597,4.2462597,4.2462597,0.0,0.0,0.0,0.0,0.0,0,0,0,0,0,0,0,1,0,0,1,0,0
81230911,25.4774,25.477032,0.0,0.0,0.0,0.0,1.0,1.0,nan,6,4.246172,4.246172,4.246172,4.246172,4.246172,4.246172,0.0,0.0,0.0,0.0,0.0,0,0,0,0,0,0,0,1,0,0,1,0,0
81529218,25.4364,25.478344,0.0,0.0,0.0,0.0,1.0,1.0,nan,6,4.246391,4.246391,4.246391,4.246391,4.246391,4.246391,0.0,0.0,0.0,0.0,0.0,0,0,0,0,0,0,0,1,0,0,1,0,0
81829214,25.4774,25.478193,0.0,0.0,0.0,0.0,1.0,1.0,nan,6,4.2463655,4.2463655,4.2463655,4.2463655,4.2463655,4.2463655,0.0,0.0,0.0,0.0,0.0,0,0,0,0,0,0,0,1,0,0,1,0,0
82129216,25.4856,25.478104,0.0,0.0,0.0,0.0,1.0,1.0,nan,6,4.246351,4.246351,4.246351,4.246351,4.246351,4.246351,0.0,0.0,0.0,0.0,0.0,0,0,0,0,0,0,0,1,0,0,1,0,0
82429210,25.493801,25.479092,0.0,0.0,0.0,0.0,1.0,1.0,nan,6,4.2465153,4.2465153,4.2465153,4.2465153,4.2465153,4.2465153,0.0,0.0,0.0,0.0,0.0,0,0,0,0,0,0,0,1,0,0,1,0,0
82729210,25.493801,25.475107,0.0,0.0,0.0,0.0,1.0,1.0,nan,6,4.245851,4.245851,4.245851,4.245851,4.245851,4.245851,0.0,0.0,0.0,0.0,0.0,0,0,0,0,0,0,0,1,0,0,1,0,0
83029215,25.493801,25.477442,0.0,0.0,0.0,0.0,1.0,1.0,nan,6,4.24624,4.24624,4.24624,4.24624,4.24624,4.24624,0.0,0.0,0.0,0.0,0.0,0,0,0,0,0,0,0,1,0,0,1,0,0
83329207,25.4692,25.479193,0.0,0.0,0.0,0.0,1.0,1.0,nan,6,4.246532,4.246532,4.246532,4.246532,4.246532,4.246532,0.0,0.0,0.0,0.0,0.0,0,0,0,0,0,0,0,1,0,0,1,0,0
83629207,25.4282,25.477829,0.0,0.0,0.0,0.0,1.0,1.0,nan,6,4.246305,4.246305,4.246305,4.246305,4.246305,4.246305,0.0,0.0,0.0,0.0,0.0,0,0,0,0,0,0,0,1,0,0,1,0,0
85129222,25.493801,25.477186,0.0,0.0,0.0,0.0,1.0,1.0,nan,6,4.2461977,4.2461977,4.2461977,4.2461977,4.2461977,4.2461977,0.0,0.0,0.0,0.0,0.0,0,0,0,0,0,0,0,1,0,0,1,0,0
85429210,25.4774,25.477627,0.0,0.0,0.0,0.0,1.0,1.0,nan,6,4.246271,4.246271,4.246271,4.246271,4.246271,4.246271,0.0,0.0,0.0,0.0,0.0,0,0,0,0,0,0,0,1,0,0,1,0,0
85729217,25.4774,25.4726,0.0,0.0,0.0,0.0,1.0,1.0,nan,6,4.2454333,4.2454333,4.2454333,4.2454333,4.2454333,4.2454333,0.0,0.0,0.0,0.0,0.0,0,0,0,0,0,0,0,1,0,0,1,0,0
86029209,25.4692,25.473583,0.0,0.0,0.0,0.0,1.0,1.0,nan,6,4.2455974,4.2455974,4.2455974,4.2455974,4.2455974,4.2455974,0.0,0.0,0.0,0.0,0.0,0,0,0,0,0,0,0,1,0,0,1,0,0
86329215,25.4774,25.475452,0.0,0.0,0.0,0.0,1.0,1.0,nan,6,4.2459087,4.2459087,4.2459087,4.2459087,4.2459087,4.2459087,0.0,0.0,0.0,0.0,0.0,0,0,0,0,0,0,0,1,0,0,1,0,0
86629320,25.4528,25.474102,0.0,0.0,0.0,0.0,1.0,1.0,nan,6,4.2456837,4.2456837,4.2456837,4.2456837,4.2456837,4.2456837,0.0,0.0,0.0,0.0,0.0,0,0,0,0,0,0,0,1,0,0,1,0,0
86929209,25.4856,25.475216,0.0,0.0,0.0,0.0,1.0,1.0,nan,6,4.245869,4.245869,4.245869,4.245869,4.245869,4.245869,0.0,0.0,0.0,0.0,0.0,0,0,0,0,0,0,0,1,0,0,1,0,0
87229227,25.4856,25.477123,0.0,0.0,0.0,0.0,1.0,1.0,nan,6,4.246187,4.246187,4.246187,4.246187,4.246187,4.246187,0.0,0.0,0.0,0.0,0.0,0,0,0,0,0,0,0,1,0,0,1,0,0
87529213,25.42,25.477877,0.0,0.0,0.0,0.0,1.0,1.0,nan,6,4.2463126,4.2463126,4.2463126,4.2463126,4.2463126,4.2463126,0.0,0.0,0.0,0.0,0.0,0,0,0,0,0,0,0,1,0,0,1,0,0
87830677,25.4774,25.478212,0.0,0.0,0.0,0.0,1.0,1.0,nan,6,4.246369,4.246369,4.246369,4.246369,4.246369,4.246369,0.0,0.0,0.0,0.0,0.0,0,0,0,0,0,0,0,1,0,0,1,0,0
88130801,25.461,25.479996,0.0,0.0,0.0,0.0,1.0,1.0,nan,6,4.246666,4.246666,4.246666,4.246666,4.246666,4.246666,0.0,0.0,0.0,0.0,0.0,0,0,0,0,0,0,0,1,0,0,1,0,0
88429209,25.5102,25.480217,0.0,0.0,0.0,0.0,1.0,1.0,nan,6,4.2467027,4.2467027,4.2467027,4.2467027,4.2467027,4.2467027,0.0,0.0,0.0,0.0,0.0,0,0,0,0,0,0,0,1,0,0,1,0,0
88729220,25.4774,25.47925,0.0,0.0,0.0,0.0,1.0,1.0,nan,6,4.2465415,4.2465415,4.2465415,4.2465415,4.2465415,4.2465415,0.0,0.0,0.0,0.0,0.0,0,0,0,0,0,0,0,1,0,0,1,0,0
89029225,25.543,25.481365,0.0,0.0,0.0,0.0,1.0,1.0,nan,6,4.2468944,4.2468944,4.2468944,4.2468944,4.2468944,4.2468944,0.0,0.0,0.0,0.0,0.0,0,0,0,0,0,0,0,1,0,0,1,0,0
89330894,25.4692,25.480919,0.0,0.0,0.0,0.0,1.0,1.0,nan,6,4.24682,4.24682,4.24682,4.24682,4.24682,4.24682,0.0,0.0,0.0,0.0,0.0,0,0,0,0,0,0,0,1,0,0,1,0,0
89630728,25.4856,25.478199,0.0,0.0,0.0,0.0,1.0,1.0,nan,6,4.2463665,4.2463665,4.2463665,4.2463665,4.2463665,4.2463665,0.0,0.0,0.0,0.0,0.0,0,0,0,0,0,0,0,1,0,0,1,0,0
89931001,25.4856,25.478424,0.0,0.0,0.0,0.0,1.0,1.0,nan,6,4.246404,4.246404,4.246404,4.246404,4.246404,4.246404,0.0,0.0,0.0,0.0,0.0,0,0,0,0,0,0,0,1,0,0,1,0,0
90230705,25.502,25.480137,0.0,0.0,0.0,0.0,1.0,1.0,nan,6,4.2466893,4.2466893,4.2466893,4.2466893,4.2466893,4.2466893,0.0,0.0,0.0,0.0,0.0,0,0,0,0,0,0,0,1,0,0,1,0,0
90530873,25.493801,25.481678,0.0,0.0,0.0,0.0,1.0,1.0,nan,6,4.2469463,4.2469463,4.2469463,4.2469463,4.2469463,4.2469463,0.0,0.0,0.0,0.0,0.0,0,0,0,0,0,0,0,1,0,0,1,0,0
90830838,25.493801,25.482737,0.0,0.0,0.0,0.0,1.0,1.0,nan,6,4.247123,4.247123,4.247123,4.247123,4.247123,4.247123,0.0,0.0,0.0,0.0,0.0,0,0,0,0,0,0,0,1,0,0,1,0,0
91130788,25.461,25.483501,0.0,0.0,0.0,0.0,1.0,1.0,nan,6,4.24725,4.24725,4.24725,4.24725,4.24725,4.24725,0.0,0.0,0.0,0.0,0.0,0,0,0,0,0,0,0,1,0,0,1,0,0
91431186,25.502,25.48522,0.0,0.0,0.0,0.0,1.0,1.0,nan,6,4.2475367,4.2475367,4.2475367,4.2475367,4.2475367,4.2475367,0.0,0.0,0.0,0.0,0.0,0,0,0,0,0,0,0,1,0,0,1,0,0
91730774,25.4856,25.482868,0.0,0.0,0.0,0.0,1.0,1.0,nan,6,4.2471447,4.2471447,4.2471447,4.2471447,4.2471447,4.2471447,0.0,0.0,0.0,0.0,0.0,0,0,0,0,0,0,0,1,0,0,1,0,0
93229205,25.518398,25.474329,0.0,0.0,0.0,0.0,1.0,1.0,nan,6,4.2457213,4.2457213,4.2457213,4.2457213,4.2457213,4.2457213,0.0,0.0,0.0,0.0,0.0,0,0,0,0,0,0,0,1,0,0,1,0,0
93529242,25.502,25.476383,0.0,0.0,0.0,0.0,1.0,1.0,nan,6,4.2460637,4.2460637,4.2460637,4.2460637,4.2460637,4.2460637,0.0,0.0,0.0,0.0,0.0,0,0,0,0,0,0,0,1,0,0,1,0,0
93829251,25.461,25.477736,0.0,0.0,0.0,0.0,1.0,1.0,nan,6,4.2462893,4.2462893,4.2462893,4.2462893,4.2462893,4.2462893,0.0,0.0,0.0,0.0,0.0,0,0,0,0,0,0,0,1,0,0,1,0,0
94129208,25.4282,25.47786,0.0,0.0,0.0,0.0,1.0,1.0,nan,6,4.2463098,4.2463098,4.2463098,4.2463098,4.2463098,4.2463098,0.0,0.0,0.0,0.0,0.0,0,0,0,0,0,0,0,1,0,0,1,0,0
94429209,25.461,25.47876,0.0,0.0,0.0,0.0,1.0,1.0,nan,6,4.24646,4.24646,4.24646,4.24646,4.24646,4.24646,0.0,0.0,0.0,0.0,0.0,0,0,0,0,0,0,0,1,0,0,1,0,0
94729214,25.493801,25.479834,0.0,0.0,0.0,0.0,1.0,1.0,nan,6,4.246639,4.246639,4.246639,4.246639,4.246639,4.246639,0.0,0.0,0.0,0.0,0.0,0,0,0,0,0,0,0,1,0,0,1,0,0
95029222,25.4856,25.480318,0.0,0.0,0.0,0.0,1.0,1.0,nan,6,4.24672,4.24672,4.24672,4.24672,4.24672,4.24672,0.0,0.0,0.0,0.0,0.0,0,0,0,0,0,0,0,1,0,0,1,0,0
95329210,25.5102,25.477974,0.0,0.0,0.0,0.0,1.0,1.0,nan,6,4.246329,4.246329,4.246329,4.246329,4.246329,4.246329,0.0,0.0,0.0,0.0,0.0,0,0,0,0,0,0,0,1,0,0,1,0,0
95629225,25.4528,25.478737,0.0,0.0,0.0,0.0,1.0,1.0,nan,6,4.246456,4.246456,4.246456,4.246456,4.246456,4.246456,0.0,0.0,0.0,0.0,0.0,0,0,0,0,0,0,0,1,0,0,1,0,0
95929219,25.493801,25.478941,0.0,0.0,0.0,0.0,1.0,1.0,nan,6,4.24649,4.24649,4.24649,4.24649,4.24649,4.24649,0.0,0.0,0.0,0.0,0.0,0,0,0,0,0,0,0,1,0,0,1,0,0
96229207,25.4282,25.478647,0.0,0.0,0.0,0.0,1.0,1.0,nan,6,4.2464414,4.2464414,4.2464414,4.2464414,4.2464414,4.2464414,0.0,0.0,0.0,0.0,0.0,0,0,0,0,0,0,0,1,0,0,1,0,0
96529209,25.518398,25.481842,0.0,0.0,0.0,0.0,1.0,1.0,nan,6,4.2469735,4.2469735,4.2469735,4.2469735,4.2469735,4.2469735,0.0,0.0,0.0,0.0,0.0,0,0,0,0,0,0,0,1,0,0,1,0,0
96829215,25.461,25.47929,0.0,0.0,0.0,0.0,1.0,1.0,nan,6,4.246548,4.246548,4.246548,4.246548,4.246548,4.246548,0.0,0.0,0.0,0.0,0.0,0,0,0,0,0,0,0,1,0,0,1,0,0
97130875,25.4364,25.482393,0.0,0.0,0.0,0.0,1.0,1.0,nan,6,4.2470655,4.2470655,4.2470655,4.2470655,4.2470655,4.2470655,0.0,0.0,0.0,0.0,0.0,0,0,0,0,0,0,0,1,0,0,1,0,0
97429259,25.518398,25.483248,0.0,0.0,0.0,0.0,1.0,1.0,nan,6,4.247208,4.247208,4.247208,4.247208,4.247208,4.247208,0.0,0.0,0.0,0.0,0.0,0,0,0,0,0,0,0,1,0,0,1,0,0
97730981,25.493801,25.483309,0.0,0.0,0.0,0.0,1.0,1.0,nan,6,4.247218,4.247218,4.247218,4.247218,4.247218,4.247218,0.0,0.0,0.0,0.0,0.0,0,0,0,0,0,0,0,1,0,0,1,0,0
98031103,25.4856,25.482632,0.0,0.0,0.0,0.0,1.0,1.0,nan,6,4.247105,4.247105,4.247105,4.247105,4.247105,4.247105,0.0,0.0,0.0,0.0,0.0,0,0,0,0,0,0,0,1,0,0,1,0,0
98330945,25.4774,25.478418,0.0,0.0,0.0,0.0,1.0,1.0,nan,6,4.246403,4.246403,4.246403,4.246403,4.246403,4.246403,0.0,0.0,0.0,0.0,0.0,0,0,0,0,0,0,0,1,0,0,1,0,0
98631168,25.42,25.476126,0.0,0.0,0.0,0.0,1.0,1.0,nan,6,4.246021,4.246021,4.246021,4.246021,4.246021,4.246021,0.0,0.0,0.0,0.0,0.0,0,0,0,0,0,0,0,1,0,0,1,0,0
98929216,25.5102,25.476412,0.0,0.0,0.0,0.0,1.0,1.0,nan,6,4.2460685,4.2460685,4.2460685,4.2460685,4.2460685,4.2460685,0.0,0.0,0.0,0.0,0.0,0,0,0,0,0,0,0,1,0,0,1,0,0
99231049,25.493801,25.47761,0.0,0.0,0.0,0.0,1.0,1.0,nan,6,4.2462683,4.2462683,4.2462683,4.2462683,4.2462683,4.2462683,0.0,0.0,0.0,0.0,0.0,0,0,0,0,0,0,0,1,0,0,1,0,0
100729212,25.4528,25.470266,0.0,0.0,0.0,0.0,1.0,1.0,nan,6,4.245044,4.245044,4.245044,4.245044,4.245044,4.245044,0.0,0.0,0.0,0.0,0.0,0,0,0,0,0,0,0,1,0,0,1,0,0
101029206,25.502,25.472479,0.0,0.0,0.0,0.0,1.0,1.0,nan,6,4.2454133,4.2454133,4.2454133,4.2454133,4.2454133,4.2454133,0.0,0.0,0.0,0.0,0.0,0,0,0,0,0,0,0,1,0,0,1,0,0
101329221,25.5102,25.471886,0.0,0.0,0.0,0.0,1.0,1.0,nan,6,4.245314,4.245314,4.245314,4.245314,4.245314,4.245314,0.0,0.0,0.0,0.0,0.0,0,0,0,0,0,0,0,1,0,0,1,0,0
101629207,25.493801,25.472185,0.0,0.0,0.0,0.0,1.0,1.0,nan,6,4.245364,4.245364,4.245364,4.245364,4.245364,4.245364,0.0,0.0,0.0,0.0,0.0,0,0,0,0,0,0,0,1,0,0,1,0,0
101929213,25.518398,25.474483,0.0,0.0,0.0,0.0,1.0,1.0,nan,6,4.245747,4.245747,4.245747,4.245747,4.245747,4.245747,0.0,0.0,0.0,0.0,0.0,0,0,0,0,0,0,0,1,0,0,1,0,0
102229212,25.4774,25.475086,0.0,0.0,0.0,0.0,1.0,1.0,nan,6,4.2458477,4.2458477,4.2458477,4.2458477,4.2458477,4.2458477,0.0,0.0,0.0,0.0,0.0,0,0,0,0,0,0,0,1,0,0,1,0,0
102529212,25.493801,25.476982,0.0,0.0,0.0,0.0,1.0,1.0,nan,6,4.246164,4.246164,4.246164,4.246164,4.246164,4.246164,0.0,0.0,0.0,0.0,0.0,0,0,0,0,0,0,0,1,0,0,1,0,0
102829210,25.4528,25.471996,0.0,0.0,0.0,0.0,1.0,1.0,nan,6,4.2453327,4.2453327,4.2453327,4.2453327,4.2453327,4.2453327,0.0,0.0,0.0,0.0,0.0,0,0,0,0,0,0,0,1,0,0,1,0,0
103129227,25.4856,25.473248,0.0,0.0,0.0,0.0,1.0,1.0,nan,6,4.245541,4.245541,4.245541,4.245541,4.245541,4.245541,0.0,0.0,0.0,0.0,0.0,0,0,0,0,0,0,0,1,0,0,1,0,0
103429209,25.4692,25.471985,0.0,0.0,0.0,0.0,1.0,1.0,nan,6,4.245331,4.245331,4.245331,4.245331,4.245331,4.245331,0.0,0.0,0.0,0.0,0.0,0,0,0,0,0,0,0,1,0,0,1,0,0
103729207,25.42,25.470833,0.0,0.0,0.0,0.0,1.0,1.0,nan,6,4.2451386,4.2451386,4.2451386,4.2451386,4.2451386,4.2451386,0.0,0.0,0.0,0.0,0.0,0,0,0,0,0,0,0,1,0,0,1,0,0
104029211,25.4774,25.473108,0.0,0.0,0.0,0.0,1.0,1.0,nan,6,4.245518,4.245518,4.245518,4.245518,4.245518,4.245518,0.0,0.0,0.0,0.0,0.0,0,0,0,0,0,0,0,1,0,0,1,0,0
104329225,25.461,25.472158,0.0,0.0,0.0,0.0,1.0,1.0,nan,6,4.24536,4.24536,4.24536,4.24536,4.24536,4.24536,0.0,0.0,0.0,0.0,0.0,0,0,0,0,0,0,0,1,0,0,1,0,0
104629207,25.4856,25.475452,0.0,0.0,0.0,0.0,1.0,1.0,nan,6,4.2459087,4.2459087,4.2459087,4.2459087,4.2459087,4.2459087,0.0,0.0,0.0,0.0,0.0,0,0,0,0,0,0,0,1,0,0,1,0,0
104929223,25.4774,25.473497,0.0,0.0,0.0,0.0,1.0,1.0,nan,6,4.245583,4.245583,4.245583,4.245583,4.245583,4.245583,0.0,0.0,0.0,0.0,0.0,0,0,0,0,0,0,0,1,0,0,1,0,0
105229206,25.4118,25.473803,0.0,0.0,0.0,0.0,1.0,1.0,nan,6,4.2456336,4.2456336,4.2456336,4.2456336,4.2456336,4.2456336,0.0,0.0,0.0,0.0,0.0,0,0,0,0,0,0,0,1,0,0,1,0,0
105529217,25.502,25.473604,0.0,0.0,0.0,0.0,1.0,1.0,nan,6,4.2456007,4.2456007,4.2456007,4.2456007,4.2456007,4.2456007,0.0,0.0,0.0,0.0,0.0,0,0,0,0,0,0,0,1,0,0,1,0,0
105829210,25.4856,25.473213,0.0,0.0,0.0,0.0,1.0,1.0,nan,6,4.2455354,4.2455354,4.2455354,4.2455354,4.2455354,4.2455354,0.0,0.0,0.0,0.0,0.0,0,0,0,0,0,0,0,1,0,0,1,0,0
106129218,25.4446,25.47393,0.0,0.0,0.0,0.0,1.0,1.0,nan,6,4.245655,4.245655,4.245655,4.245655,4.245655,4.245655,0.0,0.0,0.0,0.0,0.0,0,0,0,0,0,0,0,1,0,0,1,0,0
106429211,25.4692,25.474504,0.0,0.0,0.0,0.0,1.0,1.0,nan,6,4.245751,4.245751,4.245751,4.245751,4.245751,4.245751,0.0,0.0,0.0,0.0,0.0,0,0,0,0,0,0,0,1,0,0,1,0,0
106729222,25.4446,25.473736,0.0,0.0,0.0,0.0,1.0,1.0,nan,6,4.2456226,4.2456226,4.2456226,4.2456226,4.2456226,4.2456226,0.0,0.0,0.0,0.0,0.0,0,0,0,0,0,0,0,1,0,0,1,0,0
107029227,25.4692,25.474722,0.0,0.0,0.0,0.0,1.0,1.0,nan,6,4.245787,4.245787,4.245787,4.245787,4.245787,4.245787,0.0,0.0,0.0,0.0,0.0,0,0,0,0,0,0,0,1,0,0,1,0,0
107329218,25.5102,25.475908,0.0,0.0,0.0,0.0,1.0,1.0,nan,6,4.2459846,4.2459846,4.2459846,4.2459846,4.2459846,4.2459846,0.0,0.0,0.0,0.0,0.0,0,0,0,0,0,0,0,1,0,0,1,0,0
107629206,25.543,25.476704,0.0,0.0,0.0,0.0,1.0,1.0,nan,6,4.246117,4.246117,4.246117,4.246117,4.246117,4.246117,0.0,0.0,0.0,0.0,0.0,0,0,0,0,0,0,0,1,0,0,1,0,0
107929204,25.4856,25.47609,0.0,0.0,0.0,0.0,1.0,1.0,nan,6,4.246015,4.246015,4.246015,4.246015,4.246015,4.246015,0.0,0.0,0.0,0.0,0.0,0,0,0,0,0,0,0,1,0,0,1,0,0
108229219,25.461,25.475718,0.0,0.0,0.0,0.0,1.0,1.0,nan,6,4.245953,4.245953,4.245953,4.245953,4.245953,4.245953,0.0,0.0,0.0,0.0,0.0,0,0,0,0,0,0,0,1,0,0,1,0,0
108530861,25.4528,25.474566,0.0,0.0,0.0,0.0,1.0,1.0,nan,6,4.245761,4.245761,4.245761,4.245761,4.245761,4.245761,0.0,0.0,0.0,0.0,0.0,0,0,0,0,0,0,0,1,0,0,1,0,0
108829207,25.4364,25.472748,0.0,0.0,0.0,0.0,1.0,1.0,nan,6,4.245458,4.245458,4.245458,4.245458,4.245458,4.245458,0.0,0.0,0.0,0.0,0.0,0,0,0,0,0,0,0,1,0,0,1,0,0
109129203,25.461,25.4724,0.0,0.0,0.0,0.0,1.0,1.0,nan,6,4.2454,4.2454,4.2454,4.2454,4.2454,4.2454,0.0,0.0,0.0,0.0,0.0,0,0,0,0,0,0,0,1,0,0,1,0,0
109429206,25.4692,25.47386,0.0,0.0,0.0,0.0,1.0,1.0,nan,6,4.245643,4.245643,4.245643,4.245643,4.245643,4.245643,0.0,0.0,0.0,0.0,0.0,0,0,0,0,0,0,0,1,0,0,1,0,0
109730921,25.4364,25.474096,0.0,0.0,0.0,0.0,1.0,1.0,nan,6,4.2456827,4.2456827,4.2456827,4.2456827,4.2456827,4.2456827,0.0,0.0,0.0,0.0,0.0,0,0,0,0,0,0,0,1,0,0,1,0,0
110029221,25.502,25.471964,0.0,0.0,0.0,0.0,1.0,1.0,nan,6,4.2453275,4.2453275,4.2453275,4.2453275,4.2453275,4.2453275,0.0,0.0,0.0,0.0,0.0,0,0,0,0,0,0,0,1,0,0,1,0,0
110329217,25.493801,25.473534,0.0,0.0,0.0,0.0,1.0,1.0,nan,6,4.245589,4.245589,4.245589,4.245589,4.245589,4.245589,0.0,0.0,0.0,0.0,0.0,0,0,0,0,0,0,0,1,0,0,1,0,0
110629217,25.4774,25.475008,0.0,0.0,0.0,0.0,1.0,1.0,nan,6,4.245835,4.245835,4.245835,4.245835,4.245835,4.245835,0.0,0.0,0.0,0.0,0.0,0,0,0,0,0,0,0,1,0,0,1,0,0
110929214,25.4856,25.473946,0.0,0.0,0.0,0.0,1.0,1.0,nan,6,4.2456574,4.2456574,4.2456574,4.2456574,4.2456574,4.2456574,0.0,0.0,0.0,0.0,0.0,0,0,0,0,0,0,0,1,0,0,1,0,0
111529203,25.493801,25.47028,0.0,0.0,0.0,0.0,1.0,1.0,nan,6,4.2450466,4.2450466,4.2450466,4.2450466,4.2450466,4.2450466,0.0,0.0,0.0,0.0,0.0,0,0,0,0,0,0,0,1,0,0,1,0,0
111829204,25.493801,25.470102,0.0,0.0,0.0,0.0,1.0,1.0,nan,6,4.245017,4.245017,4.245017,4.245017,4.245017,4.245017,0.0,0.0,0.0,0.0,0.0,0,0,0,0,0,0,0,1,0,0,1,0,0
112129212,25.502,25.473627,0.0,0.0,0.0,0.0,1.0,1.0,nan,6,4.2456045,4.2456045,4.2456045,4.2456045,4.2456045,4.2456045,0.0,0.0,0.0,0.0,0.0,0,0,0,0,0,0,0,1,0,0,1,0,0
112429214,25.4774,25.473152,0.0,0.0,0.0,0.0,1.0,1.0,nan,6,4.2455254,4.2455254,4.2455254,4.2455254,4.2455254,4.2455254,0.0,0.0,0.0,0.0,0.0,0,0,0,0,0,0,0,1,0,0,1,0,0
112729211,25.4692,25.472809,0.0,0.0,0.0,0.0,1.0,1.0,nan,6,4.245468,4.245468,4.245468,4.245468,4.245468,4.245468,0.0,0.0,0.0,0.0,0.0,0,0,0,0,0,0,0,1,0,0,1,0,0
113029204,25.4774,25.47151,0.0,0.0,0.0,0.0,1.0,1.0,nan,6,4.2452517,4.2452517,4.2452517,4.2452517,4.2452517,4.2452517,0.0,0.0,0.0,0.0,0.0,0,0,0,0,0,0,0,1,0,0,1,0,0
113329210,25.493801,25.474775,0.0,0.0,0.0,0.0,1.0,1.0,nan,6,4.2457957,4.2457957,4.2457957,4.2457957,4.2457957,4.2457957,0.0,0.0,0.0,0.0,0.0,0,0,0,0,0,0,0,1,0,0,1,0,0
113929209,25.4364,25.474178,0.0,0.0,0.0,0.0,1.0,1.0,nan,6,4.2456965,4.2456965,4.2456965,4.2456965,4.2456965,4.2456965,0.0,0.0,0.0,0.0,0.0,0,0,0,0,0,0,0,1,0,0,1,0,0
114229223,25.4856,25.474146,0.0,0.0,0.0,0.0,1.0,1.0,nan,6,4.245691,4.245691,4.245691,4.245691,4.245691,4.245691,0.0,0.0,0.0,0.0,0.0,0,0,0,0,0,0,0,1,0,0,1,0,0
114529213,25.4856,25.473629,0.0,0.0,0.0,0.0,1.0,1.0,nan,6,4.245605,4.245605,4.245605,4.245605,4.245605,4.245605,0.0,0.0,0.0,0.0,0.0,0,0,0,0,0,0,0,1,0,0,1,0,0
114829218,25.4364,25.473917,0.0,0.0,0.0,0.0,1.0,1.0,nan,6,4.2456527,4.2456527,4.2456527,4.2456527,4.2456527,4.2456527,0.0,0.0,0.0,0.0,0.0,0,0,0,0,0,0,0,1,0,0,1,0,0
115129216,25.4692,25.476542,0.0,0.0,0.0,0.0,1.0,1.0,nan,6,4.2460904,4.2460904,4.2460904,4.2460904,4.2460904,4.2460904,0.0,0.0,0.0,0.0,0.0,0,0,0,0,0,0,0,1,0,0,1,0,0
115429205,25.4692,25.477179,0.0,0.0,0.0,0.0,1.0,1.0,nan,6,4.2461963,4.2461963,4.2461963,4.2461963,4.2461963,4.2461963,0.0,0.0,0.0,0.0,0.0,0,0,0,0,0,0,0,1,0,0,1,0,0
116029212,25.502,25.475258,0.0,0.0,0.0,0.0,1.0,1.0,nan,6,4.2458763,4.2458763,4.2458763,4.2458763,4.2458763,4.2458763,0.0,0.0,0.0,0.0,0.0,0,0,0,0,0,0,0,1,0,0,1,0,0
116329218,25.4528,25.475887,0.0,0.0,0.0,0.0,1.0,1.0,nan,6,4.245981,4.245981,4.245981,4.245981,4.245981,4.245981,0.0,0.0,0.0,0.0,0.0,0,0,0,0,0,0,0,1,0,0,1,0,0
116629223,25.5102,25.478102,0.0,0.0,0.0,0.0,1.0,1.0,nan,6,4.2463503,4.2463503,4.2463503,4.2463503,4.2463503,4.2463503,0.0,0.0,0.0,0.0,0.0,0,0,0,0,0,0,0,1,0,0,1,0,0
116929222,25.4692,25.479063,0.0,0.0,0.0,0.0,1.0,1.0,nan,6,4.2465105,4.2465105,4.2465105,4.2465105,4.2465105,4.2465105,0.0,0.0,0.0,0.0,0.0,0,0,0,0,0,0,0,1,0,0,1,0,0
117229211,25.4774,25.476183,0.0,0.0,0.0,0.0,1.0,1.0,nan,6,4.2460303,4.2460303,4.2460303,4.2460303,4.2460303,4.2460303,0.0,0.0,0.0,0.0,0.0,0,0,0,0,0,0,0,1,0,0,1,0,0
117529207,25.4692,25.477167,0.0,0.0,0.0,0.0,1.0,1.0,nan,6,4.2461944,4.2461944,4.2461944,4.2461944,4.2461944,4.2461944,0.0,0.0,0.0,0.0,0.0,0,0,0,0,0,0,0,1,0,0,1,0,0
117830757,25.4856,25.476463,0.0,0.0,0.0,0.0,1.0,1.0,nan,6,4.246077,4.246077,4.246077,4.246077,4.246077,4.246077,0.0,0.0,0.0,0.0,0.0,0,0,0,0,0,0,0,1,0,0,1,0,0
120230940,25.4856,25.476713,0.0,0.0,0.0,0.0,1.0,1.0,nan,6,4.246119,4.246119,4.246119,4.246119,4.246119,4.246119,0.0,0.0,0.0,0.0,0.0,0,0,0,0,0,0,0,1,0,0,1,0,0
120529207,25.502,25.47884,0.0,0.0,0.0,0.0,1.0,1.0,nan,6,4.2464733,4.2464733,4.2464733,4.2464733,4.2464733,4.2464733,0.0,0.0,0.0,0.0,0.0,0,0,0,0,0,0,0,1,0,0,1,0,0
120829210,25.4364,25.479364,0.0,0.0,0.0,0.0,1.0,1.0,nan,6,4.2465606,4.2465606,4.2465606,4.2465606,4.2465606,4.2465606,0.0,0.0,0.0,0.0,0.0,0,0,0,0,0,0,0,1,0,0,1,0,0
121129212,25.493801,25.47909,0.0,0.0,0.0,0.0,1.0,1.0,nan,6,4.246515,4.246515,4.246515,4.246515,4.246515,4.246515,0.0,0.0,0.0,0.0,0.0,0,0,0,0,0,0,0,1,0,0,1,0,0
121429213,25.4364,25.476307,0.0,0.0,0.0,0.0,1.0,1.0,nan,6,4.2460513,4.2460513,4.2460513,4.2460513,4.2460513,4.2460513,0.0,0.0,0.0,0.0,0.0,0,0,0,0,0,0,0,1,0,0,1,0,0
121729203,25.461,25.475937,0.0,0.0,0.0,0.0,1.0,1.0,nan,6,4.2459893,4.2459893,4.2459893,4.2459893,4.2459893,4.2459893,0.0,0.0,0.0,0.0,0.0,0,0,0,0,0,0,0,1,0,0,1,0,0
122329207,25.4774,25.4773,0.0,0.0,0.0,0.0,1.0,1.0,nan,6,4.246217,4.246217,4.246217,4.246217,4.246217,4.246217,0.0,0.0,0.0,0.0,0.0,0,0,0,0,0,0,0,1,0,0,1,0,0
122629225,25.493801,25.478956,0.0,0.0,0.0,0.0,1.0,1.0,nan,6,4.246493,4.246493,4.246493,4.246493,4.246493,4.246493,0.0,0.0,0.0,0.0,0.0,0,0,0,0,0,0,0,1,0,0,1,0,0
122930819,25.461,25.478846,0.0,0.0,0.0,0.0,1.0,1.0,nan,6,4.2464743,4.2464743,4.2464743,4.2464743,4.2464743,4.2464743,0.0,0.0,0.0,0.0,0.0,0,0,0,0,0,0,0,1,0,0,1,0,0
123231166,25.4856,25.48018,0.0,0.0,0.0,0.0,1.0,1.0,nan,6,4.246697,4.246697,4.246697,4.246697,4.246697,4.246697,0.0,0.0,0.0,0.0,0.0,0,0,0,0,0,0,0,1,0,0,1,0,0
123530965,25.461,25.474634,0.0,0.0,0.0,0.0,1.0,1.0,nan,6,4.2457724,4.2457724,4.2457724,4.2457724,4.2457724,4.2457724,0.0,0.0,0.0,0.0,0.0,0,0,0,0,0,0,0,1,0,0,1,0,0
123829203,25.42,25.474653,0.0,0.0,0.0,0.0,1.0,1.0,nan,6,4.2457757,4.2457757,4.2457757,4.2457757,4.2457757,4.2457757,0.0,0.0,0.0,0.0,0.0,0,0,0,0,0,0,0,1,0,0,1,0,0
124129217,25.4774,25.47545,0.0,0.0,0.0,0.0,1.0,1.0,nan,6,4.2459083,4.2459083,4.2459083,4.2459083,4.2459083,4.2459083,0.0,0.0,0.0,0.0,0.0,0,0,0,0,0,0,0,1,0,0,1,0,0
124429208,25.461,25.474236,0.0,0.0,0.0,0.0,1.0,1.0,nan,6,4.245706,4.245706,4.245706,4.245706,4.245706,4.245706,0.0,0.0,0.0,0.0,0.0,0,0,0,0,0,0,0,1,0,0,1,0,0
124729205,25.4774,25.47428,0.0,0.0,0.0,0.0,1.0,1.0,nan,6,4.245713,4.245713,4.245713,4.245713,4.245713,4.245713,0.0,0.0,0.0,0.0,0.0,0,0,0,0,0,0,0,1,0,0,1,0,0
125029219,25.493801,25.472975,0.0,0.0,0.0,0.0,1.0,1.0,nan,6,4.245496,4.245496,4.245496,4.245496,4.245496,4.245496,0.0,0.0,0.0,0.0,0.0,0,0,0,0,0,0,0,1,0,0,1,0,0
125330978,25.4774,25.475067,0.0,0.0,0.0,0.0,1.0,1.0,nan,6,4.2458444,4.2458444,4.2458444,4.2458444,4.2458444,4.2458444,0.0,0.0,0.0,0.0,0.0,0,0,0,0,0,0,0,1,0,0,1,0,0
125629209,25.4774,25.473831,0.0,0.0,0.0,0.0,1.0,1.0,nan,6,4.2456384,4.2456384,4.2456384,4.2456384,4.2456384,4.2456384,0.0,0.0,0.0,0.0,0.0,0,0,0,0,0,0,0,1,0,0,1,0,0
125929207,25.42,25.471067,0.0,0.0,0.0,0.0,1.0,1.0,nan,6,4.2451777,4.2451777,4.2451777,4.2451777,4.2451777,4.2451777,0.0,0.0,0.0,0.0,0.0,0,0,0,0,0,0,0,1,0,0,1,0,0
126229211,25.493801,25.473255,0.0,0.0,0.0,0.0,1.0,1.0,nan,6,4.2455425,4.2455425,4.2455425,4.2455425,4.2455425,4.2455425,0.0,0.0,0.0,0.0,0.0,0,0,0,0,0,0,0,1,0,0,1,0,0
126529210,25.5102,25.47518,0.0,0.0,0.0,0.0,1.0,1.0,nan,6,4.2458634,4.2458634,4.2458634,4.2458634,4.2458634,4.2458634,0.0,0.0,0.0,0.0,0.0,0,0,0,0,0,0,0,1,0,0,1,0,0
126829215,25.4856,25.475592,0.0,0.0,0.0,0.0,1.0,1.0,nan,6,4.245932,4.245932,4.245932,4.245932,4.245932,4.245932,0.0,0.0,0.0,0.0,0.0,0,0,0,0,0,0,0,1,0,0,1,0,0
127129218,25.518398,25.472853,0.0,0.0,0.0,0.0,1.0,1.0,nan,6,4.2454753,4.2454753,4.2454753,4.2454753,4.2454753,4.2454753,0.0,0.0,0.0,0.0,0.0,0,0,0,0,0,0,0,1,0,0,1,0,0
127429207,25.4364,25.470776,0.0,0.0,0.0,0.0,1.0,1.0,nan,6,4.245129,4.245129,4.245129,4.245129,4.245129,4.245129,0.0,0.0,0.0,0.0,0.0,0,0,0,0,0,0,0,1,0,0,1,0,0
127729207,25.461,25.471458,0.0,0.0,0.0,0.0,1.0,1.0,nan,6,4.245243,4.245243,4.245243,4.245243,4.245243,4.245243,0.0,0.0,0.0,0.0,0.0,0,0,0,0,0,0,0,1,0,0,1,0,0
128029209,25.4774,25.473211,0.0,0.0,0.0,0.0,1.0,1.0,nan,6,4.2455354,4.2455354,4.2455354,4.2455354,4.2455354,4.2455354,0.0,0.0,0.0,0.0,0.0,0,0,0,0,0,0,0,1,0,0,1,0,0
128331008,25.5102,25.47426,0.0,0.0,0.0,0.0,1.0,1.0,nan,6,4.24571,4.24571,4.24571,4.24571,4.24571,4.24571,0.0,0.0,0.0,0.0,0.0,0,0,0,0,0,0,0,1,0,0,1,0,0
128629236,25.4774,25.471462,0.0,0.0,0.0,0.0,1.0,1.0,nan,6,4.2452435,4.2452435,4.2452435,4.2452435,4.2452435,4.2452435,0.0,0.0,0.0,0.0,0.0,0,0,0,0,0,0,0,1,0,0,1,0,0
128929221,25.5102,25.472517,0.0,0.0,0.0,0.0,1.0,1.0,nan,6,4.2454195,4.2454195,4.2454195,4.2454195,4.2454195,4.2454195,0.0,0.0,0.0,0.0,0.0,0,0,0,0,0,0,0,1,0,0,1,0,0
129230892,25.4692,25.472353,0.0,0.0,0.0,0.0,1.0,1.0,nan,6,4.2453923,4.2453923,4.2453923,4.2453923,4.2453923,4.2453923,0.0,0.0,0.0,0.0,0.0,0,0,0,0,0,0,0,1,0,0,1,0,0
129529208,25.4528,25.47185,0.0,0.0,0.0,0.0,1.0,1.0,nan,6,4.2453084,4.2453084,4.2453084,4.2453084,4.2453084,4.2453084,0.0,0.0,0.0,0.0,0.0,0,0,0,0,0,0,0,1,0,0,1,0,0
129829222,25.4774,25.470633,0.0,0.0,0.0,0.0,1.0,1.0,nan,6,4.2451053,4.2451053,4.2451053,4.2451053,4.2451053,4.2451053,0.0,0.0,0.0,0.0,0.0,0,0,0,0,0,0,0,1,0,0,1,0,0
130129208,25.4692,25.468988,0.0,0.0,0.0,0.0,1.0,1.0,nan,6,4.2448316,4.2448316,4.2448316,4.2448316,4.2448316,4.2448316,0.0,0.0,0.0,0.0,0.0,0,0,0,0,0,0,0,1,0,0,1,0,0
130429218,25.493801,25.469727,0.0,0.0,0.0,0.0,1.0,1.0,nan,6,4.2449546,4.2449546,4.2449546,4.2449546,4.2449546,4.2449546,0.0,0.0,0.0,0.0,0.0,0,0,0,0,0,0,0,1,0,0,1,0,0
130729226,25.502,25.47064,0.0,0.0,0.0,0.0,1.0,1.0,nan,6,4.2451067,4.2451067,4.2451067,4.2451067,4.2451067,4.2451067,0.0,0.0,0.0,0.0,0.0,0,0,0,0,0,0,0,1,0,0,1,0,0
131029207,25.5102,25.472328,0.0,0.0,0.0,0.0,1.0,1.0,nan,6,4.245388,4.245388,4.245388,4.245388,4.245388,4.245388,0.0,0.0,0.0,0.0,0.0,0,0,0,0,0,0,0,1,0,0,1,0,0
131330968,25.4774,25.473543,0.0,0.0,0.0,0.0,1.0,1.0,nan,6,4.2455907,4.2455907,4.2455907,4.2455907,4.2455907,4.2455907,0.0,0.0,0.0,0.0,0.0,0,0,0,0,0,0,0,1,0,0,1,0,0
131629207,25.461,25.471142,0.0,0.0,0.0,0.0,1.0,1.0,nan,6,4.24519,4.24519,4.24519,4.24519,4.24519,4.24519,0.0,0.0,0.0,0.0,0.0,0,0,0,0,0,0,0,1,0,0,1,0,0
131929207,25.42,25.472805,0.0,0.0,0.0,0.0,1.0,1.0,nan,6,4.2454677,4.2454677,4.2454677,4.2454677,4.2454677,4.2454677,0.0,0.0,0.0,0.0,0.0,0,0,0,0,0,0,0,1,0,0,1,0,0
132229212,25.4774,25.473654,0.0,0.0,0.0,0.0,1.0,1.0,nan,6,4.245609,4.245609,4.245609,4.245609,4.245609,4.245609,0.0,0.0,0.0,0.0,0.0,0,0,0,0,0,0,0,1,0,0,1,0,0
132529207,25.4364,25.473915,0.0,0.0,0.0,0.0,1.0,1.0,nan,6,4.2456527,4.2456527,4.2456527,4.2456527,4.2456527,4.2456527,0.0,0.0,0.0,0.0,0.0,0,0,0,0,0,0,0,1,0,0,1,0,0
132830999,25.4446,25.472286,0.0,0.0,0.0,0.0,1.0,1.0,nan,6,4.245381,4.245381,4.245381,4.245381,4.245381,4.245381,0.0,0.0,0.0,0.0,0.0,0,0,0,0,0,0,0,1,0,0,1,0,0
133129211,25.4774,25.46996,0.0,0.0,0.0,0.0,1.0,1.0,nan,6,4.244993,4.244993,4.244993,4.244993,4.244993,4.244993,0.0,0.0,0.0,0.0,0.0,0,0,0,0,0,0,0,1,0,0,1,0,0
133429213,25.4446,25.470182,0.0,0.0,0.0,0.0,1.0,1.0,nan,6,4.2450304,4.2450304,4.2450304,4.2450304,4.2450304,4.2450304,0.0,0.0,0.0,0.0,0.0,0,0,0,0,0,0,0,1,0,0,1,0,0
133729214,25.493801,25.469563,0.0,0.0,0.0,0.0,1.0,1.0,nan,6,4.244927,4.244927,4.244927,4.244927,4.244927,4.244927,0.0,0.0,0.0,0.0,0.0,0,0,0,0,0,0,0,1,0,0,1,0,0
134029206,25.4118,25.470104,0.0,0.0,0.0,0.0,1.0,1.0,nan,6,4.2450175,4.2450175,4.2450175,4.2450175,4.2450175,4.2450175,0.0,0.0,0.0,0.0,0.0,0,0,0,0,0,0,0,1,0,0,1,0,0
134329208,25.4774,25.473068,0.0,0.0,0.0,0.0,1.0,1.0,nan,6,4.2455115,4.2455115,4.2455115,4.2455115,4.2455115,4.2455115,0.0,0.0,0.0,0.0,0.0,0,0,0,0,0,0,0,1,0,0,1,0,0
134629206,25.493801,25.47362,0.0,0.0,0.0,0.0,1.0,1.0,nan,6,4.245603,4.245603,4.245603,4.245603,4.245603,4.245603,0.0,0.0,0.0,0.0,0.0,0,0,0,0,0,0,0,1,0,0,1,0,0
134929224,25.461,25.4761,0.0,0.0,0.0,0.0,1.0,1.0,nan,6,4.246017,4.246017,4.246017,4.246017,4.246017,4.246017,0.0,0.0,0.0,0.0,0.0,0,0,0,0,0,0,0,1,0,0,1,0,0
135229207,25.502,25.47604,0.0,0.0,0.0,0.0,1.0,1.0,nan,6,4.2460065,4.2460065,4.2460065,4.2460065,4.2460065,4.2460065,0.0,0.0,0.0,0.0,0.0,0,0,0,0,0,0,0,1,0,0,1,0,0
135529224,25.4528,25.475185,0.0,0.0,0.0,0.0,1.0,1.0,nan,6,4.2458644,4.2458644,4.2458644,4.2458644,4.2458644,4.2458644,0.0,0.0,0.0,0.0,0.0,0,0,0,0,0,0,0,1,0,0,1,0,0
135830921,25.461,25.472095,0.0,0.0,0.0,0.0,1.0,1.0,nan,6,4.2453494,4.2453494,4.2453494,4.2453494,4.2453494,4.2453494,0.0,0.0,0.0,0.0,0.0,0,0,0,0,0,0,0,1,0,0,1,0,0
136129221,25.4856,25.47338,0.0,0.0,0.0,0.0,1.0,1.0,nan,6,4.245563,4.245563,4.245563,4.245563,4.245563,4.245563,0.0,0.0,0.0,0.0,0.0,0,0,0,0,0,0,0,1,0,0,1,0,0
136429215,25.543,25.475819,0.0,0.0,0.0,0.0,1.0,1.0,nan,6,4.24597,4.24597,4.24597,4.24597,4.24597,4.24597,0.0,0.0,0.0,0.0,0.0,0,0,0,0,0,0,0,1,0,0,1,0,0
136729214,25.493801,25.474396,0.0,0.0,0.0,0.0,1.0,1.0,nan,6,4.245733,4.245733,4.245733,4.245733,4.245733,4.245733,0.0,0.0,0.0,0.0,0.0,0,0,0,0,0,0,0,1,0,0,1,0,0
137029210,25.5102,25.476377,0.0,0.0,0.0,0.0,1.0,1.0,nan,6,4.2460628,4.2460628,4.2460628,4.2460628,4.2460628,4.2460628,0.0,0.0,0.0,0.0,0.0,0,0,0,0,0,0,0,1,0,0,1,0,0
137329212,25.5102,25.475733,0.0,0.0,0.0,0.0,1.0,1.0,nan,6,4.2459555,4.2459555,4.2459555,4.2459555,4.2459555,4.2459555,0.0,0.0,0.0,0.0,0.0,0,0,0,0,0,0,0,1,0,0,1,0,0
137630837,25.493801,25.475258,0.0,0.0,0.0,0.0,1.0,1.0,nan,6,4.2458763,4.2458763,4.2458763,4.2458763,4.2458763,4.2458763,0.0,0.0,0.0,0.0,0.0,0,0,0,0,0,0,0,1,0,0,1,0,0
137931030,25.42,25.474352,0.0,0.0,0.0,0.0,1.0,1.0,nan,6,4.245725,4.245725,4.245725,4.245725,4.245725,4.245725,0.0,0.0,0.0,0.0,0.0,0,0,0,0,0,0,0,1,0,0,1,0,0
138230909,25.534801,25.477491,0.0,0.0,0.0,0.0,1.0,1.0,nan,6,4.2462487,4.2462487,4.2462487,4.2462487,4.2462487,4.2462487,0.0,0.0,0.0,0.0,0.0,0,0,0,0,0,0,0,1,0,0,1,0,0
138531179,25.4364,25.47692,0.0,0.0,0.0,0.0,1.0,1.0,nan,6,4.2461534,4.2461534,4.2461534,4.2461534,4.2461534,4.2461534,0.0,0.0,0.0,0.0,0.0,0,0,0,0,0,0,0,1,0,0,1,0,0
138830776,25.4856,25.478064,0.0,0.0,0.0,0.0,1.0,1.0,nan,6,4.246344,4.246344,4.246344,4.246344,4.246344,4.246344,0.0,0.0,0.0,0.0,0.0,0,0,0,0,0,0,0,1,0,0,1,0,0
139129213,25.493801,25.476538,0.0,0.0,0.0,0.0,1.0,1.0,nan,6,4.2460895,4.2460895,4.2460895,4.2460895,4.2460895,4.2460895,0.0,0.0,0.0,0.0,0.0,0,0,0,0,0,0,0,1,0,0,1,0,0
139429204,25.502,25.4738,0.0,0.0,0.0,0.0,1.0,1.0,nan,6,4.2456336,4.2456336,4.2456336,4.2456336,4.2456336,4.2456336,0.0,0.0,0.0,0.0,0.0,0,0,0,0,0,0,0,1,0,0,1,0,0
139729215,25.4774,25.474232,0.0,0.0,0.0,0.0,1.0,1.0,nan,6,4.245705,4.245705,4.245705,4.245705,4.245705,4.245705,0.0,0.0,0.0,0.0,0.0,0,0,0,0,0,0,0,1,0,0,1,0,0
140030832,25.461,25.472013,0.0,0.0,0.0,0.0,1.0,1.0,nan,6,4.2453356,4.2453356,4.2453356,4.2453356,4.2453356,4.2453356,0.0,0.0,0.0,0.0,0.0,0,0,0,0,0,0,0,1,0,0,1,0,0
140329207,25.502,25.47371,0.0,0.0,0.0,0.0,1.0,1.0,nan,6,4.2456183,4.2456183,4.2456183,4.2456183,4.2456183,4.2456183,0.0,0.0,0.0,0.0,0.0,0,0,0,0,0,0,0,1,0,0,1,0,0
140629225,25.493801,25.473194,0.0,0.0,0.0,0.0,1.0,1.0,nan,6,4.2455325,4.2455325,4.2455325,4.2455325,4.2455325,4.2455325,0.0,0.0,0.0,0.0,0.0,0,0,0,0,0,0,0,1,0,0,1,0,0
142429208,25.493801,25.47023,0.0,0.0,0.0,0.0,1.0,1.0,nan,6,4.2450385,4.2450385,4.2450385,4.2450385,4.2450385,4.2450385,0.0,0.0,0.0,0.0,0.0,0,0,0,0,0,0,0,1,0,0,1,0,0
142729207,25.4692,25.47013,0.0,0.0,0.0,0.0,1.0,1.0,nan,6,4.245022,4.245022,4.245022,4.245022,4.245022,4.245022,0.0,0.0,0.0,0.0,0.0,0,0,0,0,0,0,0,1,0,0,1,0,0
143029218,25.4118,25.47069,0.0,0.0,0.0,0.0,1.0,1.0,nan,6,4.245115,4.245115,4.245115,4.245115,4.245115,4.245115,0.0,0.0,0.0,0.0,0.0,0,0,0,0,0,0,0,1,0,0,1,0,0
143329210,25.5102,25.469803,0.0,0.0,0.0,0.0,1.0,1.0,nan,6,4.244967,4.244967,4.244967,4.244967,4.244967,4.244967,0.0,0.0,0.0,0.0,0.0,0,0,0,0,0,0,0,1,0,0,1,0,0
143629215,25.534801,25.471973,0.0,0.0,0.0,0.0,1.0,1.0,nan,6,4.245329,4.245329,4.245329,4.245329,4.245329,4.245329,0.0,0.0,0.0,0.0,0.0,0,0,0,0,0,0,0,1,0,0,1,0,0
143929218,25.502,25.471903,0.0,0.0,0.0,0.0,1.0,1.0,nan,6,4.245317,4.245317,4.245317,4.245317,4.245317,4.245317,0.0,0.0,0.0,0.0,0.0,0,0,0,0,0,0,0,1,0,0,1,0,0
144229221,25.461,25.471426,0.0,0.0,0.0,0.0,1.0,1.0,nan,6,4.245238,4.245238,4.245238,4.245238,4.245238,4.245238,0.0,0.0,0.0,0.0,0.0,0,0,0,0,0,0,0,1,0,0,1,0,0
144529209,25.4118,25.47006,0.0,0.0,0.0,0.0,1.0,1.0,nan,6,4.24501,4.24501,4.24501,4.24501,4.24501,4.24501,0.0,0.0,0.0,0.0,0.0,0,0,0,0,0,0,0,1,0,0,1,0,0
144829205,25.4528,25.47153,0.0,0.0,0.0,0.0,1.0,1.0,nan,6,4.245255,4.245255,4.245255,4.245255,4.245255,4.245255,0.0,0.0,0.0,0.0,0.0,0,0,0,0,0,0,0,1,0,0,1,0,0
145129206,25.493801,25.470608,0.0,0.0,0.0,0.0,1.0,1.0,nan,6,4.2451015,4.2451015,4.2451015,4.2451015,4.2451015,4.2451015,0.0,0.0,0.0,0.0,0.0,0,0,0,0,0,0,0,1,0,0,1,0,0
145429207,25.4446,25.47192,0.0,0.0,0.0,0.0,1.0,1.0,nan,6,4.24532,4.24532,4.24532,4.24532,4.24532,4.24532,0.0,0.0,0.0,0.0,0.0,0,0,0,0,0,0,0,1,0,0,1,0,0
145729214,25.543,25.47145,0.0,0.0,0.0,0.0,1.0,1.0,nan,6,4.2452416,4.2452416,4.2452416,4.2452416,4.2452416,4.2452416,0.0,0.0,0.0,0.0,0.0,0,0,0,0,0,0,0,1,0,0,1,0,0
146029224,25.4528,25.471394,0.0,0.0,0.0,0.0,1.0,1.0,nan,6,4.245232,4.245232,4.245232,4.245232,4.245232,4.245232,0.0,0.0,0.0,0.0,0.0,0,0,0,0,0,0,0,1,0,0,1,0,0
146329218,25.4774,25.47241,0.0,0.0,0.0,0.0,1.0,1.0,nan,6,4.245402,4.245402,4.245402,4.245402,4.245402,4.245402,0.0,0.0,0.0,0.0,0.0,0,0,0,0,0,0,0,1,0,0,1,0,0
146629212,25.4446,25.472122,0.0,0.0,0.0,0.0,1.0,1.0,nan,6,4.2453537,4.2453537,4.2453537,4.2453537,4.2453537,4.2453537,0.0,0.0,0.0,0.0,0.0,0,0,0,0,0,0,0,1,0,0,1,0,0
146929209,25.4528,25.472439,0.0,0.0,0.0,0.0,1.0,1.0,nan,6,4.2454066,4.2454066,4.2454066,4.2454066,4.2454066,4.2454066,0.0,0.0,0.0,0.0,0.0,0,0,0,0,0,0,0,1,0,0,1,0,0
147229213,25.4774,25.47091,0.0,0.0,0.0,0.0,1.0,1.0,nan,6,4.2451515,4.2451515,4.2451515,4.2451515,4.2451515,4.2451515,0.0,0.0,0.0,0.0,0.0,0,0,0,0,0,0,0,1,0,0,1,0,0
147529207,25.4774,25.46895,0.0,0.0,0.0,0.0,1.0,1.0,nan,6,4.244825,4.244825,4.244825,4.244825,4.244825,4.244825,0.0,0.0,0.0,0.0,0.0,0,0,0,0,0,0,0,1,0,0,1,0,0
147829224,25.4856,25.469624,0.0,0.0,0.0,0.0,1.0,1.0,nan,6,4.2449374,4.2449374,4.2449374,4.2449374,4.2449374,4.2449374,0.0,0.0,0.0,0.0,0.0,0,0,0,0,0,0,0,1,0,0,1,0,0
148129214,25.502,25.470211,0.0,0.0,0.0,0.0,1.0,1.0,nan,6,4.245035,4.245035,4.245035,4.245035,4.245035,4.245035,0.0,0.0,0.0,0.0,0.0,0,0,0,0,0,0,0,1,0,0,1,0,0
148429207,25.461,25.47262,0.0,0.0,0.0,0.0,1.0,1.0,nan,6,4.2454367,4.2454367,4.2454367,4.2454367,4.2454367,4.2454367,0.0,0.0,0.0,0.0,0.0,0,0,0,0,0,0,0,1,0,0,1,0,0
148729211,25.4774,25.471539,0.0,0.0,0.0,0.0,1.0,1.0,nan,6,4.2452564,4.2452564,4.2452564,4.2452564,4.2452564,4.2452564,0.0,0.0,0.0,0.0,0.0,0,0,0,0,0,0,0,1,0,0,1,0,0
149031251,25.4282,25.47053,0.0,0.0,0.0,0.0,1.0,1.0,nan,6,4.245088,4.245088,4.245088,4.245088,4.245088,4.245088,0.0,0.0,0.0,0.0,0.0,0,0,0,0,0,0,0,1,0,0,1,0,0
149329221,25.4692,25.47115,0.0,0.0,0.0,0.0,1.0,1.0,nan,6,4.2451916,4.2451916,4.2451916,4.2451916,4.2451916,4.2451916,0.0,0.0,0.0,0.0,0.0,0,0,0,0,0,0,0,1,0,0,1,0,0
149629218,25.4528,25.470205,0.0,0.0,0.0,0.0,1.0,1.0,nan,6,4.245034,4.245034,4.245034,4.245034,4.245034,4.245034,0.0,0.0,0.0,0.0,0.0,0,0,0,0,0,0,0,1,0,0,1,0,0
149929214,25.493801,25.470926,0.0,0.0,0.0,0.0,1.0,1.0,nan,6,4.2451544,4.2451544,4.2451544,4.2451544,4.2451544,4.2451544,0.0,0.0,0.0,0.0,0.0,0,0,0,0,0,0,0,1,0,0,1,0,0
150229215,25.4774,25.469658,0.0,0.0,0.0,0.0,1.0,1.0,nan,6,4.244943,4.244943,4.244943,4.244943,4.244943,4.244943,0.0,0.0,0.0,0.0,0.0,0,0,0,0,0,0,0,1,0,0,1,0,0
150529206,25.4856,25.470644,0.0,0.0,0.0,0.0,1.0,1.0,nan,6,4.245107,4.245107,4.245107,4.245107,4.245107,4.245107,0.0,0.0,0.0,0.0,0.0,0,0,0,0,0,0,0,1,0,0,1,0,0
151729213,25.4692,25.465883,0.0,0.0,0.0,0.0,1.0,1.0,nan,6,4.2443137,4.2443137,4.2443137,4.2443137,4.2443137,4.2443137,0.0,0.0,0.0,0.0,0.0,0,0,0,0,0,0,0,1,0,0,1,0,0
152329215,25.502,25.46746,0.0,0.0,0.0,0.0,1.0,1.0,nan,6,4.244577,4.244577,4.244577,4.244577,4.244577,4.244577,0.0,0.0,0.0,0.0,0.0,0,0,0,0,0,0,0,1,0,0,1,0,0
152630704,25.42,25.468214,0.0,0.0,0.0,0.0,1.0,1.0,nan,6,4.2447023,4.2447023,4.2447023,4.2447023,4.2447023,4.2447023,0.0,0.0,0.0,0.0,0.0,0,0,0,0,0,0,0,1,0,0,1,0,0
152929214,25.4692,25.470879,0.0,0.0,0.0,0.0,1.0,1.0,nan,6,4.2451463,4.2451463,4.2451463,4.2451463,4.2451463,4.2451463,0.0,0.0,0.0,0.0,0.0,0,0,0,0,0,0,0,1,0,0,1,0,0
153229213,25.4528,25.470789,0.0,0.0,0.0,0.0,1.0,1.0,nan,6,4.2451315,4.2451315,4.2451315,4.2451315,4.2451315,4.2451315,0.0,0.0,0.0,0.0,0.0,0,0,0,0,0,0,0,1,0,0,1,0,0
153529210,25.502,25.472265,0.0,0.0,0.0,0.0,1.0,1.0,nan,6,4.2453775,4.2453775,4.2453775,4.2453775,4.2453775,4.2453775,0.0,0.0,0.0,0.0,0.0,0,0,0,0,0,0,0,1,0,0,1,0,0
153829238,25.5102,25.473927,0.0,0.0,0.0,0.0,1.0,1.0,nan,6,4.2456546,4.2456546,4.2456546,4.2456546,4.2456546,4.2456546,0.0,0.0,0.0,0.0,0.0,0,0,0,0,0,0,0,1,0,0,1,0,0
154130791,25.461,25.476017,0.0,0.0,0.0,0.0,1.0,1.0,nan,6,4.2460027,4.2460027,4.2460027,4.2460027,4.2460027,4.2460027,0.0,0.0,0.0,0.0,0.0,0,0,0,0,0,0,0,1,0,0,1,0,0
154430927,25.502,25.475595,0.0,0.0,0.0,0.0,1.0,1.0,nan,6,4.2459326,4.2459326,4.2459326,4.2459326,4.2459326,4.2459326,0.0,0.0,0.0,0.0,0.0,0,0,0,0,0,0,0,1,0,0,1,0,0
154729212,25.4774,25.475615,0.0,0.0,0.0,0.0,1.0,1.0,nan,6,4.245936,4.245936,4.245936,4.245936,4.245936,4.245936,0.0,0.0,0.0,0.0,0.0,0,0,0,0,0,0,0,1,0,0,1,0,0
155029209,25.4528,25.475601,0.0,0.0,0.0,0.0,1.0,1.0,nan,6,4.2459335,4.2459335,4.2459335,4.2459335,4.2459335,4.2459335,0.0,0.0,0.0,0.0,0.0,0,0,0,0,0,0,0,1,0,0,1,0,0
155331006,25.4856,25.474115,0.0,0.0,0.0,0.0,1.0,1.0,nan,6,4.245686,4.245686,4.245686,4.245686,4.245686,4.245686,0.0,0.0,0.0,0.0,0.0,0,0,0,0,0,0,0,1,0,0,1,0,0
155630895,25.4528,25.472406,0.0,0.0,0.0,0.0,1.0,1.0,nan,6,4.245401,4.245401,4.245401,4.245401,4.245401,4.245401,0.0,0.0,0.0,0.0,0.0,0,0,0,0,0,0,0,1,0,0,1,0,0
155929209,25.5102,25.47349,0.0,0.0,0.0,0.0,1.0,1.0,nan,6,4.2455816,4.2455816,4.2455816,4.2455816,4.2455816,4.2455816,0.0,0.0,0.0,0.0,0.0,0,0,0,0,0,0,0,1,0,0,1,0,0
156229239,25.493801,25.473162,0.0,0.0,0.0,0.0,1.0,1.0,nan,6,4.245527,4.245527,4.245527,4.245527,4.245527,4.245527,0.0,0.0,0.0,0.0,0.0,0,0,0,0,0,0,0,1,0,0,1,0,0
156531041,25.518398,25.475098,0.0,0.0,0.0,0.0,1.0,1.0,nan,6,4.2458496,4.2458496,4.2458496,4.2458496,4.2458496,4.2458496,0.0,0.0,0.0,0.0,0.0,0,0,0,0,0,0,0,1,0,0,1,0,0
156830789,25.4856,25.472506,0.0,0.0,0.0,0.0,1.0,1.0,nan,6,4.2454176,4.2454176,4.2454176,4.2454176,4.2454176,4.2454176,0.0,0.0,0.0,0.0,0.0,0,0,0,0,0,0,0,1,0,0,1,0,0
157130912,25.4446,25.473146,0.0,0.0,0.0,0.0,1.0,1.0,nan,6,4.2455244,4.2455244,4.2455244,4.2455244,4.2455244,4.2455244,0.0,0.0,0.0,0.0,0.0,0,0,0,0,0,0,0,1,0,0,1,0,0
157430895,25.4446,25.473606,0.0,0.0,0.0,0.0,1.0,1.0,nan,6,4.245601,4.245601,4.245601,4.245601,4.245601,4.245601,0.0,0.0,0.0,0.0,0.0,0,0,0,0,0,0,0,1,0,0,1,0,0
157729215,25.4774,25.47016,0.0,0.0,0.0,0.0,1.0,1.0,nan,6,4.2450266,4.2450266,4.2450266,4.2450266,4.2450266,4.2450266,0.0,0.0,0.0,0.0,0.0,0,0,0,0,0,0,0,1,0,0,1,0,0
158029207,25.4856,25.47305,0.0,0.0,0.0,0.0,1.0,1.0,nan,6,4.245508,4.245508,4.245508,4.245508,4.245508,4.245508,0.0,0.0,0.0,0.0,0.0,0,0,0,0,0,0,0,1,0,0,1,0,0
158329212,25.5102,25.474598,0.0,0.0,0.0,0.0,1.0,1.0,nan,6,4.245766,4.245766,4.245766,4.245766,4.245766,4.245766,0.0,0.0,0.0,0.0,0.0,0,0,0,0,0,0,0,1,0,0,1,0,0
158629229,25.4528,25.47498,0.0,0.0,0.0,0.0,1.0,1.0,nan,6,4.24583,4.24583,4.24583,4.24583,4.24583,4.24583,0.0,0.0,0.0,0.0,0.0,0,0,0,0,0,0,0,1,0,0,1,0,0
158929219,25.4856,25.472237,0.0,0.0,0.0,0.0,1.0,1.0,nan,6,4.245373,4.245373,4.245373,4.245373,4.245373,4.245373,0.0,0.0,0.0,0.0,0.0,0,0,0,0,0,0,0,1,0,0,1,0,0
159229206,25.4774,25.471628,0.0,0.0,0.0,0.0,1.0,1.0,nan,6,4.245271,4.245271,4.245271,4.245271,4.245271,4.245271,0.0,0.0,0.0,0.0,0.0,0,0,0,0,0,0,0,1,0,0,1,0,0
159529213,25.4364,25.471613,0.0,0.0,0.0,0.0,1.0,1.0,nan,6,4.245269,4.245269,4.245269,4.245269,4.245269,4.245269,0.0,0.0,0.0,0.0,0.0,0,0,0,0,0,0,0,1,0,0,1,0,0
159829219,25.461,25.470814,0.0,0.0,0.0,0.0,1.0,1.0,nan,6,4.245136,4.245136,4.245136,4.245136,4.245136,4.245136,0.0,0.0,0.0,0.0,0.0,0,0,0,0,0,0,0,1,0,0,1,0,0
160129207,25.4282,25.471626,0.0,0.0,0.0,0.0,1.0,1.0,nan,6,4.245271,4.245271,4.245271,4.245271,4.245271,4.245271,0.0,0.0,0.0,0.0,0.0,0,0,0,0,0,0,0,1,0,0,1,0,0
160429207,25.502,25.472143,0.0,0.0,0.0,0.0,1.0,1.0,nan,6,4.245357,4.245357,4.245357,4.245357,4.245357,4.245357,0.0,0.0,0.0,0.0,0.0,0,0,0,0,0,0,0,1,0,0,1,0,0
160729216,25.493801,25.47148,0.0,0.0,0.0,0.0,1.0,1.0,nan,6,4.2452464,4.2452464,4.2452464,4.2452464,4.2452464,4.2452464,0.0,0.0,0.0,0.0,0.0,0,0,0,0,0,0,0,1,0,0,1,0,0
161029208,25.4856,25.471746,0.0,0.0,0.0,0.0,1.0,1.0,nan,6,4.245291,4.245291,4.245291,4.245291,4.245291,4.245291,0.0,0.0,0.0,0.0,0.0,0,0,0,0,0,0,0,1,0,0,1,0,0
161329206,25.4774,25.47165,0.0,0.0,0.0,0.0,1.0,1.0,nan,6,4.245275,4.245275,4.245275,4.245275,4.245275,4.245275,0.0,0.0,0.0,0.0,0.0,0,0,0,0,0,0,0,1,0,0,1,0,0
161629211,25.4364,25.469767,0.0,0.0,0.0,0.0,1.0,1.0,nan,6,4.2449613,4.2449613,4.2449613,4.2449613,4.2449613,4.2449613,0.0,0.0,0.0,0.0,0.0,0,0,0,0,0,0,0,1,0,0,1,0,0
161929212,25.461,25.468332,0.0,0.0,0.0,0.0,1.0,1.0,nan,6,4.244722,4.244722,4.244722,4.244722,4.244722,4.244722,0.0,0.0,0.0,0.0,0.0,0,0,0,0,0,0,0,1,0,0,1,0,0
162229213,25.4774,25.471115,0.0,0.0,0.0,0.0,1.0,1.0,nan,6,4.245186,4.245186,4.245186,4.245186,4.245186,4.245186,0.0,0.0,0.0,0.0,0.0,0,0,0,0,0,0,0,1,0,0,1,0,0
162529204,25.502,25.473671,0.0,0.0,0.0,0.0,1.0,1.0,nan,6,4.2456117,4.2456117,4.2456117,4.2456117,4.2456117,4.2456117,0.0,0.0,0.0,0.0,0.0,0,0,0,0,0,0,0,1,0,0,1,0,0
162829214,25.543,25.474596,0.0,0.0,0.0,0.0,1.0,1.0,nan,6,4.245766,4.245766,4.245766,4.245766,4.245766,4.245766,0.0,0.0,0.0,0.0,0.0,0,0,0,0,0,0,0,1,0,0,1,0,0
163129204,24.837801,25.44406,0.0,0.0,0.0,0.0,1.0,1.0,nan,6,4.2406764,4.2406764,4.2406764,4.2406764,4.2406764,4.2406764,0.0,0.0,0.0,0.0,0.0,0,0,0,0,0,0,0,1,0,0,1,0,0
163429212,25.2478,25.419708,0.0,0.0,0.0,0.0,1.0,1.0,nan,6,4.236618,4.236618,4.236618,4.236618,4.236618,4.236618,0.0,0.0,0.0,0.0,0.0,0,0,0,0,0,0,0,1,0,0,1,0,0
163729208,25.075598,25.408602,0.0,0.0,0.0,0.0,1.0,1.0,nan,6,4.234767,4.234767,4.234767,4.234767,4.234767,4.234767,0.0,0.0,0.0,0.0,0.0,0,0,0,0,0,0,0,1,0,0,1,0,0
164029210,25.2642,25.405888,0.0,0.0,0.0,0.0,1.0,1.0,nan,6,4.2343144,4.2343144,4.2343144,4.2343144,4.2343144,4.2343144,0.0,0.0,0.0,0.0,0.0,0,0,0,0,0,0,0,1,0,0,1,0,0
164329218,25.338,25.396158,0.0,0.0,0.0,0.0,1.0,1.0,nan,6,4.232693,4.232693,4.232693,4.232693,4.232693,4.232693,0.0,0.0,0.0,0.0,0.0,0,0,0,0,0,0,0,1,0,0,1,0,0
164629209,25.502,25.404606,0.0,0.0,0.0,0.0,1.0,1.0,nan,6,4.234101,4.234101,4.234101,4.234101,4.234101,4.234101,0.0,0.0,0.0,0.0,0.0,0,0,0,0,0,0,0,1,0,0,1,0,0
165229205,25.338,25.405605,0.0,0.0,0.0,0.0,1.0,1.0,nan,6,4.2342677,4.2342677,4.2342677,4.2342677,4.2342677,4.2342677,0.0,0.0,0.0,0.0,0.0,0,0,0,0,0,0,0,1,0,0,1,0,0
165829228,25.42,25.387997,0.0,0.0,0.0,0.0,1.0,1.0,nan,6,4.231333,4.231333,4.231333,4.231333,4.231333,4.231333,0.0,0.0,0.0,0.0,0.0,0,0,0,0,0,0,0,1,0,0,1,0,0
166129210,25.3872,25.397396,0.0,0.0,0.0,0.0,1.0,1.0,nan,6,4.232899,4.232899,4.232899,4.232899,4.232899,4.232899,0.0,0.0,0.0,0.0,0.0,0,0,0,0,0,0,0,1,0,0,1,0,0
166429239,25.3954,25.396776,0.0,0.0,0.0,0.0,1.0,1.0,nan,6,4.232796,4.232796,4.232796,4.232796,4.232796,4.232796,0.0,0.0,0.0,0.0,0.0,0,0,0,0,0,0,0,1,0,0,1,0,0
166729210,25.379,25.382002,0.0,0.0,0.0,0.0,1.0,1.0,nan,6,4.230334,4.230334,4.230334,4.230334,4.230334,4.230334,0.0,0.0,0.0,0.0,0.0,0,0,0,0,0,0,0,1,0,0,1,0,0
167029222,25.3954,25.365461,0.0,0.0,0.0,0.0,1.0,1.0,nan,6,4.2275767,4.2275767,4.2275767,4.2275767,4.2275767,4.2275767,0.0,0.0,0.0,0.0,0.0,0,0,0,0,0,0,0,1,0,0,1,0,0
167330896,25.379,25.377779,0.0,0.0,0.0,0.0,1.0,1.0,nan,6,4.22963,4.22963,4.22963,4.22963,4.22963,4.22963,0.0,0.0,0.0,0.0,0.0,0,0,0,0,0,0,0,1,0,0,1,0,0
167630892,25.4118,25.372166,0.0,0.0,0.0,0.0,1.0,1.0,nan,6,4.2286944,4.2286944,4.2286944,4.2286944,4.2286944,4.2286944,0.0,0.0,0.0,0.0,0.0,0,0,0,0,0,0,0,1,0,0,1,0,0
167930817,25.4446,25.368437,0.0,0.0,0.0,0.0,1.0,1.0,nan,6,4.2280726,4.2280726,4.2280726,4.2280726,4.2280726,4.2280726,0.0,0.0,0.0,0.0,0.0,0,0,0,0,0,0,0,1,0,0,1,0,0
168230816,25.362598,25.374813,0.0,0.0,0.0,0.0,1.0,1.0,nan,6,4.2291355,4.2291355,4.2291355,4.2291355,4.2291355,4.2291355,0.0,0.0,0.0,0.0,0.0,0,0,0,0,0,0,0,1,0,0,1,0,0
168529211,25.198599,25.361574,0.0,0.0,0.0,0.0,1.0,1.0,nan,6,4.226929,4.226929,4.226929,4.226929,4.226929,4.226929,0.0,0.0,0.0,0.0,0.0,0,0,0,0,0,0,0,1,0,0,1,0,0
168829224,25.4364,25.346985,0.0,0.0,0.0,0.0,1.0,1.0,nan,6,4.2244973,4.2244973,4.2244973,4.2244973,4.2244973,4.2244973,0.0,0.0,0.0,0.0,0.0,0,0,0,0,0,0,0,1,0,0,1,0,0
169129222,25.321598,25.345087,0.0,0.0,0.0,0.0,1.0,1.0,nan,6,4.224181,4.224181,4.224181,4.224181,4.224181,4.224181,0.0,0.0,0.0,0.0,0.0,0,0,0,0,0,0,0,1,0,0,1,0,0
169429212,25.379,25.342705,0.0,0.0,0.0,0.0,1.0,1.0,nan,6,4.223784,4.223784,4.223784,4.223784,4.223784,4.223784,0.0,0.0,0.0,0.0,0.0,0,0,0,0,0,0,0,1,0,0,1,0,0
170929207,25.4282,25.356657,0.0,0.0,0.0,0.0,1.0,1.0,nan,6,4.2261095,4.2261095,4.2261095,4.2261095,4.2261095,4.2261095,0.0,0.0,0.0,0.0,0.0,0,0,0,0,0,0,0,1,0,0,1,0,0
171229212,25.4692,25.359432,0.0,0.0,0.0,0.0,1.0,1.0,nan,6,4.226572,4.226572,4.226572,4.226572,4.226572,4.226572,0.0,0.0,0.0,0.0,0.0,0,0,0,0,0,0,0,1,0,0,1,0,0
171529219,25.4118,25.378176,0.0,0.0,0.0,0.0,1.0,1.0,nan,6,4.229696,4.229696,4.229696,4.229696,4.229696,4.229696,0.0,0.0,0.0,0.0,0.0,0,0,0,0,0,0,0,1,0,0,1,0,0
171829215,25.4364,25.368637,0.0,0.0,0.0,0.0,1.0,1.0,nan,6,4.228106,4.228106,4.228106,4.228106,4.228106,4.228106,0.0,0.0,0.0,0.0,0.0,0,0,0,0,0,0,0,1,0,0,1,0,0
172129233,25.288801,25.37213,0.0,0.0,0.0,0.0,1.0,1.0,nan,6,4.2286882,4.2286882,4.2286882,4.2286882,4.2286882,4.2286882,0.0,0.0,0.0,0.0,0.0,0,0,0,0,0,0,0,1,0,0,1,0,0
172429214,25.3954,25.367674,0.0,0.0,0.0,0.0,1.0,1.0,nan,6,4.227946,4.227946,4.227946,4.227946,4.227946,4.227946,0.0,0.0,0.0,0.0,0.0,0,0,0,0,0,0,0,1,0,0,1,0,0
172729219,25.3298,25.375435,0.0,0.0,0.0,0.0,1.0,1.0,nan,6,4.229239,4.229239,4.229239,4.229239,4.229239,4.229239,0.0,0.0,0.0,0.0,0.0,0,0,0,0,0,0,0,1,0,0,1,0,0
173029207,25.4282,25.367233,0.0,0.0,0.0,0.0,1.0,1.0,nan,6,4.2278724,4.2278724,4.2278724,4.2278724,4.2278724,4.2278724,0.0,0.0,0.0,0.0,0.0,0,0,0,0,0,0,0,1,0,0,1,0,0
173329226,25.198599,25.36948,0.0,0.0,0.0,0.0,1.0,1.0,nan,6,4.2282467,4.2282467,4.2282467,4.2282467,4.2282467,4.2282467,0.0,0.0,0.0,0.0,0.0,0,0,0,0,0,0,0,1,0,0,1,0,0
173629222,25.4528,25.35744,0.0,0.0,0.0,0.0,1.0,1.0,nan,6,4.22624,4.22624,4.22624,4.22624,4.22624,4.22624,0.0,0.0,0.0,0.0,0.0,0,0,0,0,0,0,0,1,0,0,1,0,0
173929209,25.2724,25.366135,0.0,0.0,0.0,0.0,1.0,1.0,nan,6,4.2276893,4.2276893,4.2276893,4.2276893,4.2276893,4.2276893,0.0,0.0,0.0,0.0,0.0,0,0,0,0,0,0,0,1,0,0,1,0,0
174229204,25.0264,25.355734,0.0,0.0,0.0,0.0,1.0,1.0,nan,6,4.2259555,4.2259555,4.2259555,4.2259555,4.2259555,4.2259555,0.0,0.0,0.0,0.0,0.0,0,0,0,0,0,0,0,1,0,0,1,0,0
174529213,25.3872,25.361794,0.0,0.0,0.0,0.0,1.0,1.0,nan,6,4.2269654,4.2269654,4.2269654,4.2269654,4.2269654,4.2269654,0.0,0.0,0.0,0.0,0.0,0,0,0,0,0,0,0,1,0,0,1,0,0
174829203,25.3954,25.35882,0.0,0.0,0.0,0.0,1.0,1.0,nan,6,4.22647,4.22647,4.22647,4.22647,4.22647,4.22647,0.0,0.0,0.0,0.0,0.0,0,0,0,0,0,0,0,1,0,0,1,0,0
175129226,25.461,25.359821,0.0,0.0,0.0,0.0,1.0,1.0,nan,6,4.226637,4.226637,4.226637,4.226637,4.226637,4.226637,0.0,0.0,0.0,0.0,0.0,0,0,0,0,0,0,0,1,0,0,1,0,0
175429217,25.502,25.36688,0.0,0.0,0.0,0.0,1.0,1.0,nan,6,4.2278132,4.2278132,4.2278132,4.2278132,4.2278132,4.2278132,0.0,0.0,0.0,0.0,0.0,0,0,0,0,0,0,0,1,0,0,1,0,0
175729237,25.4692,25.395046,0.0,0.0,0.0,0.0,1.0,1.0,nan,6,4.2325077,4.2325077,4.2325077,4.2325077,4.2325077,4.2325077,0.0,0.0,0.0,0.0,0.0,0,0,0,0,0,0,0,1,0,0,1,0,0
176029203,25.534801,25.416048,0.0,0.0,0.0,0.0,1.0,1.0,nan,6,4.236008,4.236008,4.236008,4.236008,4.236008,4.236008,0.0,0.0,0.0,0.0,0.0,0,0,0,0,0,0,0,1,0,0,1,0,0
176329210,25.4692,25.427967,0.0,0.0,0.0,0.0,1.0,1.0,nan,6,4.2379947,4.2379947,4.2379947,4.2379947,4.2379947,4.2379947,0.0,0.0,0.0,0.0,0.0,0,0,0,0,0,0,0,1,0,0,1,0,0
176629204,25.461,25.440058,0.0,0.0,0.0,0.0,1.0,1.0,nan,6,4.24001,4.24001,4.24001,4.24001,4.24001,4.24001,0.0,0.0,0.0,0.0,0.0,0,0,0,0,0,0,0,1,0,0,1,0,0
176929208,25.502,25.449106,0.0,0.0,0.0,0.0,1.0,1.0,nan,6,4.2415175,4.2415175,4.2415175,4.2415175,4.2415175,4.2415175,0.0,0.0,0.0,0.0,0.0,0,0,0,0,0,0,0,1,0,0,1,0,0
177229219,25.4528,25.454884,0.0,0.0,0.0,0.0,1.0,1.0,nan,6,4.2424808,4.2424808,4.2424808,4.2424808,4.2424808,4.2424808,0.0,0.0,0.0,0.0,0.0,0,0,0,0,0,0,0,1,0,0,1,0,0
177530752,25.518398,25.462048,0.0,0.0,0.0,0.0,1.0,1.0,nan,6,4.2436748,4.2436748,4.2436748,4.2436748,4.2436748,4.2436748,0.0,0.0,0.0,0.0,0.0,0,0,0,0,0,0,0,1,0,0,1,0,0
177829209,25.4446,25.463234,0.0,0.0,0.0,0.0,1.0,1.0,nan,6,4.243872,4.243872,4.243872,4.243872,4.243872,4.243872,0.0,0.0,0.0,0.0,0.0,0,0,0,0,0,0,0,1,0,0,1,0,0
178129206,25.5102,25.466887,0.0,0.0,0.0,0.0,1.0,1.0,nan,6,4.244481,4.244481,4.244481,4.244481,4.244481,4.244481,0.0,0.0,0.0,0.0,0.0,0,0,0,0,0,0,0,1,0,0,1,0,0
178429209,25.461,25.468714,0.0,0.0,0.0,0.0,1.0,1.0,nan,6,4.244786,4.244786,4.244786,4.244786,4.244786,4.244786,0.0,0.0,0.0,0.0,0.0,0,0,0,0,0,0,0,1,0,0,1,0,0
178729206,25.338,25.451147,0.0,0.0,0.0,0.0,1.0,1.0,nan,6,4.241858,4.241858,4.241858,4.241858,4.241858,4.241858,0.0,0.0,0.0,0.0,0.0,0,0,0,0,0,0,0,1,0,0,1,0,0
179029207,25.4118,25.433556,0.0,0.0,0.0,0.0,1.0,1.0,nan,6,4.238926,4.238926,4.238926,4.238926,4.238926,4.238926,0.0,0.0,0.0,0.0,0.0,0,0,0,0,0,0,0,1,0,0,1,0,0
179329216,25.2642,25.40984,0.0,0.0,0.0,0.0,1.0,1.0,nan,6,4.2349734,4.2349734,4.2349734,4.2349734,4.2349734,4.2349734,0.0,0.0,0.0,0.0,0.0,0,0,0,0,0,0,0,1,0,0,1,0,0
179629226,25.461,25.409636,0.0,0.0,0.0,0.0,1.0,1.0,nan,6,4.234939,4.234939,4.234939,4.234939,4.234939,4.234939,0.0,0.0,0.0,0.0,0.0,0,0,0,0,0,0,0,1,0,0,1,0,0
179929227,25.403599,25.40276,0.0,0.0,0.0,0.0,1.0,1.0,nan,6,4.2337933,4.2337933,4.2337933,4.2337933,4.2337933,4.2337933,0.0,0.0,0.0,0.0,0.0,0,0,0,0,0,0,0,1,0,0,1,0,0
180230687,25.2642,25.390884,0.0,0.0,0.0,0.0,1.0,1.0,nan,6,4.231814,4.231814,4.231814,4.231814,4.231814,4.231814,0.0,0.0,0.0,0.0,0.0,0,0,0,0,0,0,0,1,0,0,1,0,0
180531096,25.4282,25.38526,0.0,0.0,0.0,0.0,1.0,1.0,nan,6,4.2308764,4.2308764,4.2308764,4.2308764,4.2308764,4.2308764,0.0,0.0,0.0,0.0,0.0,0,0,0,0,0,0,0,1,0,0,1,0,0
180829214,25.346199,25.376389,0.0,0.0,0.0,0.0,1.0,1.0,nan,6,4.2293983,4.2293983,4.2293983,4.2293983,4.2293983,4.2293983,0.0,0.0,0.0,0.0,0.0,0,0,0,0,0,0,0,1,0,0,1,0,0
181129207,25.305199,25.357443,0.0,0.0,0.0,0.0,1.0,1.0,nan,6,4.2262406,4.2262406,4.2262406,4.2262406,4.2262406,4.2262406,0.0,0.0,0.0,0.0,0.0,0,0,0,0,0,0,0,1,0,0,1,0,0
181429219,25.4364,25.36316,0.0,0.0,0.0,0.0,1.0,1.0,nan,6,4.2271934,4.2271934,4.2271934,4.2271934,4.2271934,4.2271934,0.0,0.0,0.0,0.0,0.0,0,0,0,0,0,0,0,1,0,0,1,0,0
181729259,25.3954,25.372324,0.0,0.0,0.0,0.0,1.0,1.0,nan,6,4.2287207,4.2287207,4.2287207,4.2287207,4.2287207,4.2287207,0.0,0.0,0.0,0.0,0.0,0,0,0,0,0,0,0,1,0,0,1,0,0
182029216,25.4856,25.352814,0.0,0.0,0.0,0.0,1.0,1.0,nan,6,4.225469,4.225469,4.225469,4.225469,4.225469,4.225469,0.0,0.0,0.0,0.0,0.0,0,0,0,0,0,0,0,1,0,0,1,0,0
182331290,25.354399,25.365845,0.0,0.0,0.0,0.0,1.0,1.0,nan,6,4.2276406,4.2276406,4.2276406,4.2276406,4.2276406,4.2276406,0.0,0.0,0.0,0.0,0.0,0,0,0,0,0,0,0,1,0,0,1,0,0
182630857,25.354399,25.363472,0.0,0.0,0.0,0.0,1.0,1.0,nan,6,4.2272453,4.2272453,4.2272453,4.2272453,4.2272453,4.2272453,0.0,0.0,0.0,0.0,0.0,0,0,0,0,0,0,0,1,0,0,1,0,0
182930804,25.1658,25.352474,0.0,0.0,0.0,0.0,1.0,1.0,nan,6,4.2254124,4.2254124,4.2254124,4.2254124,4.2254124,4.2254124,0.0,0.0,0.0,0.0,0.0,0,0,0,0,0,0,0,1,0,0,1,0,0
183229209,24.9854,25.336245,0.0,0.0,0.0,0.0,1.0,1.0,nan,6,4.2227073,4.2227073,4.2227073,4.2227073,4.2227073,4.2227073,0.0,0.0,0.0,0.0,0.0,0,0,0,0,0,0,0,1,0,0,1,0,0
185031004,25.2396,25.349716,0.0,0.0,0.0,0.0,1.0,1.0,nan,6,4.2249527,4.2249527,4.2249527,4.2249527,4.2249527,4.2249527,0.0,0.0,0.0,0.0,0.0,0,0,0,0,0,0,0,1,0,0,1,0,0
185329207,25.493801,25.356777,0.0,0.0,0.0,0.0,1.0,1.0,nan,6,4.2261295,4.2261295,4.2261295,4.2261295,4.2261295,4.2261295,0.0,0.0,0.0,0.0,0.0,0,0,0,0,0,0,0,1,0,0,1,0,0
185629205,25.4856,25.386854,0.0,0.0,0.0,0.0,1.0,1.0,nan,6,4.2311425,4.2311425,4.2311425,4.2311425,4.2311425,4.2311425,0.0,0.0,0.0,0.0,0.0,0,0,0,0,0,0,0,1,0,0,1,0,0
185929214,25.493801,25.408895,0.0,0.0,0.0,0.0,1.0,1.0,nan,6,4.234816,4.234816,4.234816,4.234816,4.234816,4.234816,0.0,0.0,0.0,0.0,0.0,0,0,0,0,0,0,0,1,0,0,1,0,0
186229215,25.493801,25.42451,0.0,0.0,0.0,0.0,1.0,1.0,nan,6,4.237418,4.237418,4.237418,4.237418,4.237418,4.237418,0.0,0.0,0.0,0.0,0.0,0,0,0,0,0,0,0,1,0,0,1,0,0
186529216,25.4774,25.435877,0.0,0.0,0.0,0.0,1.0,1.0,nan,6,4.2393126,4.2393126,4.2393126,4.2393126,4.2393126,4.2393126,0.0,0.0,0.0,0.0,0.0,0,0,0,0,0,0,0,1,0,0,1,0,0
186829208,25.4856,25.446054,0.0,0.0,0.0,0.0,1.0,1.0,nan,6,4.241009,4.241009,4.241009,4.241009,4.241009,4.241009,0.0,0.0,0.0,0.0,0.0,0,0,0,0,0,0,0,1,0,0,1,0,0
187129210,25.4774,25.453466,0.0,0.0,0.0,0.0,1.0,1.0,nan,6,4.2422442,4.2422442,4.2422442,4.2422442,4.2422442,4.2422442,0.0,0.0,0.0,0.0,0.0,0,0,0,0,0,0,0,1,0,0,1,0,0
187429206,25.526598,25.457962,0.0,0.0,0.0,0.0,1.0,1.0,nan,6,4.242994,4.242994,4.242994,4.242994,4.242994,4.242994,0.0,0.0,0.0,0.0,0.0,0,0,0,0,0,0,0,1,0,0,1,0,0
187729213,25.493801,25.460615,0.0,0.0,0.0,0.0,1.0,1.0,nan,6,4.243436,4.243436,4.243436,4.243436,4.243436,4.243436,0.0,0.0,0.0,0.0,0.0,0,0,0,0,0,0,0,1,0,0,1,0,0
188029210,25.4446,25.462473,0.0,0.0,0.0,0.0,1.0,1.0,nan,6,4.2437453,4.2437453,4.2437453,4.2437453,4.2437453,4.2437453,0.0,0.0,0.0,0.0,0.0,0,0,0,0,0,0,0,1,0,0,1,0,0
188329221,25.4528,25.464748,0.0,0.0,0.0,0.0,1.0,1.0,nan,6,4.244125,4.244125,4.244125,4.244125,4.244125,4.244125,0.0,0.0,0.0,0.0,0.0,0,0,0,0,0,0,0,1,0,0,1,0,0
188629211,25.4692,25.466684,0.0,0.0,0.0,0.0,1.0,1.0,nan,6,4.244447,4.244447,4.244447,4.244447,4.244447,4.244447,0.0,0.0,0.0,0.0,0.0,0,0,0,0,0,0,0,1,0,0,1,0,0
188929212,25.4856,25.467491,0.0,0.0,0.0,0.0,1.0,1.0,nan,6,4.2445817,4.2445817,4.2445817,4.2445817,4.2445817,4.2445817,0.0,0.0,0.0,0.0,0.0,0,0,0,0,0,0,0,1,0,0,1,0,0
189229210,25.4692,25.467144,0.0,0.0,0.0,0.0,1.0,1.0,nan,6,4.244524,4.244524,4.244524,4.244524,4.244524,4.244524,0.0,0.0,0.0,0.0,0.0,0,0,0,0,0,0,0,1,0,0,1,0,0
189529226,25.518398,25.468699,0.0,0.0,0.0,0.0,1.0,1.0,nan,6,4.244783,4.244783,4.244783,4.244783,4.244783,4.244783,0.0,0.0,0.0,0.0,0.0,0,0,0,0,0,0,0,1,0,0,1,0,0
189830937,25.4364,25.469683,0.0,0.0,0.0,0.0,1.0,1.0,nan,6,4.244947,4.244947,4.244947,4.244947,4.244947,4.244947,0.0,0.0,0.0,0.0,0.0,0,0,0,0,0,0,0,1,0,0,1,0,0
190129213,25.4692,25.469528,0.0,0.0,0.0,0.0,1.0,1.0,nan,6,4.244921,4.244921,4.244921,4.244921,4.244921,4.244921,0.0,0.0,0.0,0.0,0.0,0,0,0,0,0,0,0,1,0,0,1,0,0
190429213,25.4446,25.46962,0.0,0.0,0.0,0.0,1.0,1.0,nan,6,4.2449365,4.2449365,4.2449365,4.2449365,4.2449365,4.2449365,0.0,0.0,0.0,0.0,0.0,0,0,0,0,0,0,0,1,0,0,1,0,0
190729224,25.4692,25.468552,0.0,0.0,0.0,0.0,1.0,1.0,nan,6,4.2447586,4.2447586,4.2447586,4.2447586,4.2447586,4.2447586,0.0,0.0,0.0,0.0,0.0,0,0,0,0,0,0,0,1,0,0,1,0,0
191029209,25.4774,25.46979,0.0,0.0,0.0,0.0,1.0,1.0,nan,6,4.244965,4.244965,4.244965,4.244965,4.244965,4.244965,0.0,0.0,0.0,0.0,0.0,0,0,0,0,0,0,0,1,0,0,1,0,0
