timestamp,rollspeed_integ,pitchspeed_integ,yawspeed_integ,additional_integ1
65629742,7.6922384e-05,1.5491688e-08,-0.00013138761,0.0
65689778,7.931125e-05,1.1438722e-06,-0.0001320235,0.0
65709783,8.1087775e-05,6.6869626e-07,-0.00013132874,0.0
65729768,8.1641185e-05,4.365962e-07,-0.00013322063,0.0
65749769,8.0540274e-05,9.351523e-07,-0.00013095433,0.0
65769856,8.012493e-05,1.5435835e-06,-0.00013282266,0.0
65789764,8.016402e-05,-1.0890792e-06,-0.00013210988,0.0
65809714,8.117183e-05,1.5560438e-06,-0.00013191579,0.0
65829686,7.916517e-05,-3.5377477e-07,-0.00013177753,0.0
65849749,7.70859e-05,-3.6655095e-08,-0.0001305456,0.0
65869729,7.8067525e-05,-9.475684e-07,-0.00013060632,0.0
65889718,7.5084026e-05,1.0751158e-06,-0.00013260581,0.0
65909714,7.5028125e-05,6.004451e-07,-0.00013099772,0.0
65929721,7.144547e-05,1.3756762e-06,-0.00013014603,0.0
65949713,7.1398754e-05,9.135195e-08,-0.0001307994,0.0
65969691,7.184533e-05,-2.1113692e-07,-0.00013179299,0.0
65989714,6.882395e-05,-1.2974799e-06,-0.00012871478,0.0
66009693,6.997814e-05,-2.474939e-07,-0.00012981633,0.0
66029839,6.5747e-05,5.135486e-07,-0.00013017109,0.0
66049855,6.669456e-05,8.6261406e-07,-0.00013035141,0.0
66069815,6.6552544e-05,7.457781e-07,-0.00012991669,0.0
66089800,6.536974e-05,7.502645e-07,-0.00012791614,0.0
66109771,6.495043e-05,4.7374115e-07,-0.00012754927,0.0
66129775,6.501897e-05,-8.982415e-07,-0.00013060818,0.0
66149748,6.736401e-05,-2.0954799e-06,-0.00012928911,0.0
66169785,6.623979e-05,-2.5265823e-07,-0.00013008695,0.0
66189832,6.853221e-05,-6.614634e-07,-0.00013038488,0.0
66209836,6.992078e-05,1.3487337e-06,-0.00013062528,0.0
66229801,6.936938e-05,1.8857507e-06,-0.00013165222,0.0
66249824,7.1542505e-05,-4.2068342e-07,-0.00013074686,0.0
66269691,7.175385e-05,3.678953e-07,-0.00013019858,0.0
66289837,7.414745e-05,-1.2594155e-07,-0.00013189457,0.0
66309681,7.512141e-05,3.419194e-07,-0.00013049392,0.0
66329652,7.5833814e-05,-6.230625e-07,-0.00013153993,0.0
66349664,7.942775e-05,1.8355966e-07,-0.00013283736,0.0
66369808,7.910417e-05,1.1188766e-06,-0.00013265763,0.0
66389615,7.779108e-05,-4.3623353e-07,-0.00013197519,0.0
66409625,7.6990276e-05,-6.6246184e-07,-0.00013210891,0.0
66429668,7.816565e-05,9.782183e-07,-0.0001314377,0.0
66449740,7.649175e-05,1.6358063e-06,-0.00013024428,0.0
66469811,7.8294914e-05,7.515038e-07,-0.00013161052,0.0
66489773,7.692535e-05,-3.4918682e-07,-0.00013245938,0.0
66509740,7.570968e-05,1.0809727e-06,-0.0001316248,0.0
66529717,7.4488285e-05,-3.5195228e-07,-0.00013210897,0.0
66549730,7.388248e-05,4.386061e-07,-0.00013165001,0.0
66569702,7.252839e-05,1.8407357e-07,-0.00013162846,0.0
66589691,7.0615104e-05,8.063669e-07,-0.00013228536,0.0
66614716,6.9662994e-05,-1.3094461e-06,-0.00013159026,0.0
66629716,7.082188e-05,6.8556227e-07,-0.00013096203,0.0
66649735,6.827382e-05,7.2589904e-07,-0.00013084164,0.0
66669774,6.858155e-05,-3.7646322e-07,-0.0001306703,0.0
66689763,6.738193e-05,-3.2594195e-07,-0.00012931696,0.0
66709700,6.439418e-05,-9.615346e-07,-0.00013018947,0.0
66729771,6.768092e-05,-3.7557925e-07,-0.00013035408,0.0
67429732,7.044212e-05,-1.0219109e-06,-0.00013012404,0.0
67809735,7.638347e-05,-2.436173e-07,-0.00013061623,0.0
67829694,7.641765e-05,9.1754464e-07,-0.00013196899,0.0
67849683,7.2569106e-05,-1.1755359e-06,-0.00013205878,0.0
67869771,7.2992545e-05,-1.0173706e-07,-0.00013241875,0.0
67889673,7.3786265e-05,-1.382917e-07,-0.00013169265,0.0
67909717,7.4377276e-05,-2.2988146e-08,-0.00013264127,0.0
67929725,7.240949e-05,7.6828945e-07,-0.00013196211,0.0
67949745,7.1208546e-05,3.3375468e-07,-0.000131017,0.0
67969695,7.111232e-05,-2.0717665e-09,-0.00012893853,0.0
67989734,7.162485e-05,-1.159129e-06,-0.00013000859,0.0
68009779,7.023961e-05,1.5311922e-07,-0.00013145564,0.0
68029675,6.984002e-05,4.2898407e-07,-0.00013076002,0.0
68049720,6.951093e-05,-4.670926e-07,-0.00013281878,0.0
68069682,6.88458e-05,-1.4817639e-06,-0.00012992023,0.0
68089719,7.061831e-05,9.784155e-07,-0.00013141961,0.0
68109701,6.896337e-05,1.8573085e-07,-0.00013184622,0.0
68129799,6.843102e-05,7.700717e-07,-0.00013138671,0.0
68149749,6.804555e-05,-2.4267078e-07,-0.0001308592,0.0
68169790,6.8094036e-05,-7.2875866e-07,-0.0001305295,0.0
68189820,6.8809364e-05,-1.8939176e-06,-0.00013126587,0.0
68209792,6.8292306e-05,-1.7185975e-07,-0.00012991973,0.0
68229788,6.81818e-05,-3.9506895e-07,-0.00012940342,0.0
68249769,7.019738e-05,6.874843e-07,-0.00012910544,0.0
68269775,7.104125e-05,1.0887718e-06,-0.00013062934,0.0
68289762,7.350157e-05,9.710667e-07,-0.00013117275,0.0
68309763,7.275789e-05,1.0268205e-06,-0.00013250227,0.0
68329640,7.2355855e-05,-6.497662e-07,-0.00013087026,0.0
68349852,7.456445e-05,9.135971e-07,-0.00013337398,0.0
68369848,7.4333104e-05,1.6256547e-06,-0.00012956843,0.0
68389861,7.175427e-05,3.8897733e-07,-0.00013146458,0.0
68409910,7.507936e-05,-6.472363e-07,-0.0001321698,0.0
68429886,7.3647716e-05,2.9436742e-07,-0.00013192874,0.0
68449997,7.390714e-05,7.430546e-07,-0.0001313621,0.0
68469936,7.41923e-05,2.4864315e-07,-0.00013291245,0.0
68489806,7.501e-05,4.5970347e-07,-0.00013127492,0.0
68509661,7.228805e-05,2.1176368e-06,-0.00013156043,0.0
68529692,7.1977964e-05,2.0924608e-07,-0.00012958272,0.0
68549722,7.034145e-05,-1.5003783e-06,-0.00012989702,0.0
68569850,7.2434894e-05,1.4611155e-06,-0.00012986411,0.0
68589752,7.031809e-05,-1.1733233e-06,-0.0001288526,0.0
68609795,6.98981e-05,-1.9180072e-06,-0.00013055874,0.0
68629790,6.867233e-05,-4.6448585e-07,-0.00012946663,0.0
68649731,6.881937e-05,-3.2862977e-07,-0.00013133137,0.0
68669716,6.925091e-05,-1.4603064e-06,-0.00013221994,0.0
68689737,7.068934e-05,4.2039764e-07,-0.00013113966,0.0
68709750,7.125951e-05,5.555482e-07,-0.00013128298,0.0
68729753,6.989707e-05,-2.4057704e-06,-0.0001305892,0.0
68749760,7.226975e-05,1.5872723e-06,-0.00013136056,0.0
68769779,7.339057e-05,9.714656e-07,-0.000129593,0.0
68789735,7.348791e-05,1.1238975e-06,-0.00013008674,0.0
68809741,7.600184e-05,-4.064281e-07,-0.00013182858,0.0
68829733,7.495652e-05,5.025192e-07,-0.00013225357,0.0
68849726,7.4346586e-05,1.8620517e-07,-0.00013085839,0.0
68869778,7.710232e-05,1.403577e-06,-0.0001305597,0.0
68889826,7.8995494e-05,6.707677e-07,-0.00013275143,0.0
68909700,7.725521e-05,4.0158335e-07,-0.00013169451,0.0
68929730,7.932461e-05,9.782685e-07,-0.00013212742,0.0
68949746,7.733624e-05,6.484285e-07,-0.00013174978,0.0
68969820,7.8681405e-05,5.510273e-07,-0.00013217266,0.0
68989792,7.8437944e-05,-2.410457e-07,-0.00013179232,0.0
69009834,7.673453e-05,-4.3220516e-07,-0.00013249752,0.0
69029782,7.628113e-05,-7.059249e-09,-0.00013239686,0.0
69049767,7.435489e-05,1.600465e-06,-0.00013327187,0.0
69069773,7.570146e-05,1.2993971e-06,-0.0001324495,0.0
69089839,7.494093e-05,-3.3133244e-07,-0.00013246409,0.0
69109828,7.227049e-05,1.5495971e-07,-0.00012920126,0.0
69129697,7.178867e-05,-4.9034394e-08,-0.00013122712,0.0
69149844,7.114812e-05,1.3679859e-06,-0.0001300637,0.0
69169716,7.123124e-05,9.636018e-07,-0.0001308175,0.0
69189781,6.8444286e-05,-3.5770313e-07,-0.0001306007,0.0
69209693,6.826234e-05,-1.0547927e-06,-0.00012921215,0.0
69229686,6.788322e-05,-1.8801857e-07,-0.00013035916,0.0
69249696,6.912547e-05,-4.95699e-07,-0.00013071606,0.0
69269694,6.749818e-05,1.5115363e-07,-0.00013200138,0.0
69289715,6.7377136e-05,-2.0798896e-06,-0.00012995259,0.0
69309790,6.694122e-05,1.3870246e-06,-0.00013157532,0.0
69329668,6.855308e-05,8.231163e-07,-0.00013122222,0.0
69349699,6.810859e-05,-5.888175e-07,-0.00013000301,0.0
69369679,6.9429465e-05,-8.084213e-07,-0.00013087207,0.0
69389725,6.910527e-05,-1.2315876e-06,-0.00013072707,0.0
69409734,7.08132e-05,5.152264e-07,-0.00013036984,0.0
69429779,7.283717e-05,-1.4106064e-06,-0.00013159962,0.0
69449801,7.278498e-05,-5.3590446e-07,-0.00013074942,0.0
69469744,7.3935196e-05,5.904603e-07,-0.00013091844,0.0
69489749,7.522082e-05,3.2799818e-07,-0.00013023168,0.0
69509725,7.8654455e-05,4.668017e-07,-0.00013242726,0.0
69529725,7.996959e-05,-1.1175707e-06,-0.00013134452,0.0
69549830,7.86049e-05,1.814681e-07,-0.0001328765,0.0
69569728,8.058598e-05,-5.194083e-07,-0.00013202711,0.0
69589780,8.20512e-05,2.1153424e-07,-0.00013281654,0.0
69609758,7.931026e-05,-1.6023671e-07,-0.00013315362,0.0
69629789,7.942371e-05,4.929333e-07,-0.00013098221,0.0
69649774,7.911451e-05,-6.810373e-07,-0.00013052038,0.0
69669750,7.9010606e-05,3.1572304e-07,-0.00012939938,0.0
69689750,7.734162e-05,-7.067171e-07,-0.00013114547,0.0
69709831,7.6912416e-05,-1.4322031e-06,-0.00013285638,0.0
69729929,7.5427786e-05,4.272352e-07,-0.00013275963,0.0
69749782,7.251693e-05,-8.3742e-07,-0.00013182296,0.0
69769788,7.254601e-05,-6.034123e-08,-0.00013092607,0.0
69789837,7.081488e-05,4.591866e-07,-0.00013019494,0.0
69809845,6.8814916e-05,5.257192e-07,-0.00013020134,0.0
69829735,6.761357e-05,-8.649429e-09,-0.00012913988,0.0
69849876,6.8725385e-05,-1.0242265e-06,-0.00013145739,0.0
69869721,6.77823e-05,-4.6194805e-07,-0.00013010771,0.0
69889899,6.8833564e-05,-8.7532544e-07,-0.00012948395,0.0
69909726,6.778549e-05,-1.3809918e-07,-0.0001310789,0.0
69929802,6.7847526e-05,-1.0494706e-06,-0.00013216809,0.0
69949742,6.859478e-05,-3.7556356e-07,-0.00013047903,0.0
69969816,6.8984846e-05,-1.0737665e-07,-0.00013188236,0.0
69989759,7.0039656e-05,7.979019e-07,-0.00013045486,0.0
70009695,6.994087e-05,-1.8260538e-06,-0.00012990522,0.0
70029807,7.14423e-05,9.535929e-07,-0.00013222278,0.0
70049715,7.084805e-05,9.0707026e-08,-0.00012867582,0.0
70069775,7.361534e-05,-9.726797e-08,-0.00013039033,0.0
70089692,7.331202e-05,7.034485e-07,-0.00013201233,0.0
70109679,7.1502654e-05,1.6145714e-06,-0.00012993268,0.0
70129698,7.51965e-05,-4.2379716e-07,-0.00013106808,0.0
70149699,7.524054e-05,-7.336254e-07,-0.00013354326,0.0
70169681,7.3220544e-05,-1.1096998e-06,-0.00013180428,0.0
70189733,7.310864e-05,-9.141084e-07,-0.00013128166,0.0
70209729,7.4621945e-05,1.518469e-06,-0.00013120791,0.0
70229803,7.363874e-05,2.5047717e-07,-0.00013079871,0.0
70249806,7.207858e-05,-1.4018204e-06,-0.00013022133,0.0
70269825,7.181135e-05,2.1995122e-07,-0.00013066106,0.0
70289750,7.0663395e-05,-2.5772576e-07,-0.00012989076,0.0
70309700,7.036194e-05,1.0240823e-06,-0.0001326164,0.0
70329920,6.890883e-05,9.725262e-07,-0.00013095846,0.0
70349880,6.7894245e-05,8.100922e-07,-0.00012889133,0.0
70369791,6.9302914e-05,-3.4078712e-07,-0.00013200495,0.0
70389749,6.733095e-05,5.937863e-07,-0.00012988108,0.0
70409763,6.744329e-05,-1.0629286e-06,-0.00013112898,0.0
70429771,6.7018926e-05,5.4139633e-07,-0.00012928114,0.0
70449759,6.547628e-05,3.237399e-07,-0.00013095526,0.0
70469763,6.4270374e-05,1.0726203e-06,-0.00012930669,0.0
70489900,6.486509e-05,-1.0848771e-06,-0.00013200122,0.0
70509834,6.463935e-05,-1.16067305e-07,-0.00013087432,0.0
70529685,6.585608e-05,1.2052544e-07,-0.00013097654,0.0
70549755,6.7397465e-05,-3.580868e-08,-0.00013026955,0.0
70569673,6.648306e-05,-6.095995e-08,-0.00013259174,0.0
70589760,6.897532e-05,-1.1907069e-06,-0.00013086612,0.0
70609658,6.810204e-05,-9.964223e-07,-0.00012934505,0.0
70629698,6.959727e-05,-1.5872791e-06,-0.00013178575,0.0
70649654,7.0400456e-05,8.094403e-07,-0.00013031704,0.0
70669733,7.294683e-05,3.295847e-07,-0.0001287709,0.0
70689785,7.162006e-05,-3.6378704e-08,-0.00013155023,0.0
70709721,7.3919146e-05,-1.2364883e-06,-0.00013122089,0.0
70729720,7.588608e-05,-1.1659246e-07,-0.00013195221,0.0
70749740,7.775341e-05,-4.2331112e-07,-0.00013219219,0.0
70769842,7.801808e-05,-2.3583516e-07,-0.00013089858,0.0
70789690,8.0848906e-05,1.4080866e-06,-0.00013218762,0.0
70809716,8.308564e-05,1.6134153e-06,-0.00013091075,0.0
70829700,8.32818e-05,-3.9509038e-07,-0.00013153894,0.0
70849697,8.209876e-05,1.634213e-06,-0.00013268621,0.0
70869720,8.395752e-05,5.726803e-07,-0.00013290916,0.0
70889734,8.250152e-05,-7.190965e-07,-0.0001310438,0.0
70909695,8.441731e-05,1.0831217e-06,-0.0001328861,0.0
70929696,8.355904e-05,1.5475418e-06,-0.00013226956,0.0
70949725,8.226828e-05,1.0986483e-06,-0.0001314718,0.0
70969721,8.229965e-05,5.769481e-07,-0.00013382919,0.0
70989739,8.083724e-05,-1.14854096e-07,-0.00013229596,0.0
71009687,7.950778e-05,1.2551216e-07,-0.00013150398,0.0
71029695,7.621446e-05,6.505807e-07,-0.00013064871,0.0
71049738,7.4704316e-05,-5.5411505e-07,-0.00013161555,0.0
71069821,7.039235e-05,-4.7131198e-07,-0.00013126871,0.0
71089811,6.8744754e-05,1.8298108e-06,-0.00012852714,0.0
71109852,6.700345e-05,1.0189158e-07,-0.00013166513,0.0
71129766,6.603316e-05,-5.87077e-07,-0.00013140438,0.0
71149845,6.489015e-05,-4.4132776e-07,-0.00012856984,0.0
71169848,6.315048e-05,5.1960717e-07,-0.00012991093,0.0
71189793,6.281311e-05,-7.310465e-07,-0.00012902587,0.0
71209869,6.233494e-05,1.6634073e-06,-0.00012993933,0.0
71229681,6.239367e-05,-2.9237999e-09,-0.0001316295,0.0
71249836,6.176329e-05,-4.3306213e-07,-0.00013087763,0.0
71269664,6.139602e-05,-3.0972862e-07,-0.00012952014,0.0
71289832,6.4808024e-05,5.26848e-07,-0.00013105744,0.0
71309859,6.577923e-05,6.0049564e-07,-0.0001292096,0.0
71329722,6.8582594e-05,9.887347e-07,-0.0001297679,0.0
71349677,6.958629e-05,2.784086e-07,-0.000131085,0.0
71369738,7.1669405e-05,6.490509e-07,-0.00013193772,0.0
71389635,7.199831e-05,1.4329441e-07,-0.00013178101,0.0
71409687,7.626845e-05,-4.0978458e-07,-0.00013218586,0.0
71429713,7.788817e-05,7.3693315e-07,-0.00013245219,0.0
71449831,7.776943e-05,4.625358e-07,-0.00013290244,0.0
71469989,8.154127e-05,-1.9182369e-06,-0.000131385,0.0
71489811,8.1279446e-05,-4.425543e-07,-0.0001303753,0.0
71509878,8.168434e-05,-5.8326486e-07,-0.00013332929,0.0
71529746,8.135736e-05,-4.0609984e-07,-0.00013359675,0.0
71549714,8.259803e-05,4.7883833e-07,-0.00013149553,0.0
71569733,8.1672355e-05,1.0127748e-06,-0.00013337945,0.0
71589763,8.264218e-05,4.6520835e-08,-0.00013215854,0.0
71609699,8.205321e-05,-6.4700936e-07,-0.00013033905,0.0
71629700,8.02569e-05,1.0226837e-06,-0.0001322367,0.0
71649807,7.935089e-05,5.787838e-07,-0.0001322071,0.0
71669725,7.735445e-05,3.4042895e-07,-0.00013151986,0.0
71689746,7.710193e-05,-6.6979084e-08,-0.00013099995,0.0
71709766,7.488579e-05,-7.7055586e-07,-0.00013150081,0.0
71729828,7.1777664e-05,9.30285e-07,-0.00012975701,0.0
71749874,7.010764e-05,9.53731e-07,-0.00013168457,0.0
71769816,7.002631e-05,-2.6141433e-07,-0.0001310899,0.0
71789828,6.8410496e-05,-2.2562345e-07,-0.00013026151,0.0
71809753,6.6329965e-05,3.1021426e-07,-0.0001294249,0.0
71829747,6.814287e-05,-3.7284158e-07,-0.00013274186,0.0
71849713,6.6216155e-05,3.4247907e-07,-0.00013009632,0.0
71869732,6.4628395e-05,-4.698497e-07,-0.00013105324,0.0
71889875,6.569438e-05,-4.209728e-07,-0.00012876336,0.0
71909827,6.54637e-05,7.281489e-07,-0.00012990563,0.0
71929792,6.49646e-05,-7.741144e-07,-0.00013048422,0.0
71949935,6.628743e-05,8.447023e-07,-0.00012996653,0.0
71969835,6.739196e-05,-4.9879765e-07,-0.00012854119,0.0
71989837,6.952811e-05,3.7065453e-07,-0.00013042497,0.0
72009838,7.075436e-05,-2.2101372e-07,-0.00013219545,0.0
72029718,7.239563e-05,2.0667713e-07,-0.00013220933,0.0
72049733,7.480437e-05,1.4787481e-07,-0.00013127305,0.0
72069731,7.518849e-05,-4.193755e-07,-0.00013158347,0.0
72089794,7.824239e-05,-1.4536989e-06,-0.0001307452,0.0
72109678,8.03068e-05,1.0469065e-06,-0.00013153498,0.0
72129766,7.959431e-05,-5.9267404e-07,-0.00013265002,0.0
72149700,7.9193866e-05,2.0070046e-07,-0.00012836106,0.0
72169778,8.1679784e-05,3.021299e-07,-0.00013075735,0.0
72189793,8.373959e-05,2.754759e-07,-0.00013317105,0.0
72209694,8.420858e-05,1.3608858e-06,-0.00013364093,0.0
72229699,8.493613e-05,3.8033178e-07,-0.00013478217,0.0
72249692,8.606447e-05,8.991257e-07,-0.00013338382,0.0
72269648,8.648364e-05,3.6367385e-07,-0.0001326287,0.0
72289667,8.223886e-05,3.833683e-08,-0.00013205495,0.0
72309656,8.475025e-05,1.836512e-07,-0.00013254028,0.0
72329752,8.298903e-05,7.74308e-07,-0.0001336305,0.0
72349769,8.1375845e-05,-8.647102e-07,-0.00013151151,0.0
72369807,8.105492e-05,5.5477386e-07,-0.00013120692,0.0
72389799,8.022636e-05,1.0061539e-06,-0.0001327929,0.0
72409692,7.904957e-05,1.3161734e-06,-0.00013187001,0.0
72429744,7.8823105e-05,6.663501e-07,-0.00013366737,0.0
72449794,7.417171e-05,-2.3058729e-07,-0.00013207311,0.0
72469789,7.1955925e-05,-2.0342956e-07,-0.00013094165,0.0
72489802,7.1722134e-05,7.3452924e-07,-0.00013161682,0.0
72509803,6.9720234e-05,7.213102e-07,-0.00013103432,0.0
72529775,6.690337e-05,-5.26321e-07,-0.0001299131,0.0
72549758,6.385715e-05,-1.1478637e-06,-0.00013107351,0.0
72569796,6.35601e-05,-1.1934986e-06,-0.00012886792,0.0
72589848,5.954857e-05,-7.133497e-07,-0.00012927451,0.0
72609809,5.7552912e-05,9.426127e-07,-0.00012880594,0.0
72629749,5.7203433e-05,-1.1744583e-07,-0.0001283178,0.0
72649774,5.5171025e-05,5.292269e-07,-0.00012644543,0.0
72669822,5.693067e-05,-1.5509535e-06,-0.00012996644,0.0
72689736,5.5832275e-05,-1.6567319e-06,-0.00012989466,0.0
72709731,5.45536e-05,-1.2723716e-06,-0.00012867786,0.0
72729652,5.6088782e-05,5.1792256e-07,-0.00012849666,0.0
72749653,5.8049878e-05,4.1626336e-07,-0.0001290234,0.0
72769731,6.17567e-05,6.0757395e-07,-0.0001286468,0.0
72789762,6.141695e-05,-9.1802394e-07,-0.00013106606,0.0
72809733,6.532714e-05,-3.4993136e-07,-0.00013055844,0.0
72829771,6.767637e-05,-8.7777255e-07,-0.00013159179,0.0
72849724,7.1828625e-05,-1.341113e-06,-0.00013102566,0.0
72869765,7.5122414e-05,3.5026534e-07,-0.00013175275,0.0
72889746,7.7219804e-05,5.6640204e-08,-0.0001333081,0.0
72909718,7.860414e-05,1.0243814e-06,-0.00013028961,0.0
72929697,8.1344086e-05,3.6101045e-07,-0.00013328755,0.0
72949698,7.988838e-05,-1.5186693e-07,-0.0001311401,0.0
72969740,8.087561e-05,3.40893e-07,-0.00013166084,0.0
72989830,7.800501e-05,5.3534603e-07,-0.0001318063,0.0
73009764,7.651828e-05,-4.1518138e-07,-0.00013097467,0.0
73029789,7.50185e-05,-1.5623428e-07,-0.00013210594,0.0
73049771,7.257048e-05,-2.0497112e-06,-0.00013220942,0.0
73069714,7.336239e-05,-5.545507e-07,-0.00013337737,0.0
73089825,7.269911e-05,-1.3314301e-06,-0.00013172813,0.0
73109906,7.1868126e-05,1.0534116e-07,-0.0001304657,0.0
73129679,7.02847e-05,-3.601469e-08,-0.00012989511,0.0
73149694,7.107186e-05,5.6171115e-07,-0.00013087595,0.0
73169761,7.0522365e-05,-3.5747559e-07,-0.00013072552,0.0
73189834,6.946161e-05,-8.831794e-07,-0.00013266681,0.0
73209853,6.995453e-05,-7.616686e-07,-0.00013066421,0.0
73229840,6.944467e-05,1.3951318e-06,-0.0001314211,0.0
73249910,7.14257e-05,9.1612463e-07,-0.00013218723,0.0
73269938,6.994013e-05,1.1670128e-06,-0.00013014149,0.0
73289743,6.822352e-05,-5.305022e-07,-0.00013046854,0.0
73309828,7.1508686e-05,-1.0157585e-06,-0.0001326007,0.0
73329831,7.16358e-05,-1.16489765e-07,-0.0001316507,0.0
73349850,7.223314e-05,7.358212e-08,-0.0001308882,0.0
73369829,7.326228e-05,1.6384507e-06,-0.0001314202,0.0
73389780,7.5021366e-05,2.0326232e-07,-0.00013152363,0.0
73409837,7.690515e-05,4.6514398e-07,-0.0001320362,0.0
73429671,7.8703364e-05,-8.5609963e-07,-0.00013212355,0.0
73449690,7.900537e-05,-7.782635e-08,-0.00013257463,0.0
73469681,7.972461e-05,7.5159477e-07,-0.00013225603,0.0
73489789,7.76155e-05,6.6325345e-07,-0.00013076817,0.0
73509728,7.925334e-05,1.0992001e-06,-0.00013251342,0.0
73529628,7.80471e-05,4.7602816e-07,-0.00013156961,0.0
73549619,7.75307e-05,-8.192069e-07,-0.0001315594,0.0
73569663,7.780865e-05,7.8031644e-07,-0.00013195492,0.0
73589740,7.496279e-05,3.756073e-07,-0.00013144604,0.0
73609738,7.341948e-05,1.8906775e-06,-0.00013386505,0.0
73629788,7.483569e-05,2.2194345e-07,-0.00013114561,0.0
73649735,7.1616225e-05,1.5611646e-07,-0.0001310533,0.0
73669832,7.138729e-05,-2.161013e-06,-0.00012858267,0.0
73689777,7.0938804e-05,1.5274617e-06,-0.00013178481,0.0
73709680,6.745057e-05,-2.0389662e-06,-0.00013017734,0.0
73729680,6.506985e-05,-4.6018522e-07,-0.00013077904,0.0
73749694,6.80998e-05,1.8281471e-06,-0.00013007052,0.0
73769685,6.733767e-05,-7.754455e-09,-0.0001298281,0.0
73789728,6.6450695e-05,-3.700663e-07,-0.00013086836,0.0
73809733,6.730974e-05,-1.5645091e-06,-0.00013222813,0.0
73829767,6.437036e-05,3.6532947e-07,-0.00012884707,0.0
73849729,6.4720225e-05,-3.756935e-07,-0.0001294418,0.0
73869714,6.653075e-05,1.1076365e-06,-0.00013012509,0.0
73889807,6.349805e-05,4.8426947e-09,-0.00012926689,0.0
73909735,6.781564e-05,2.8395104e-07,-0.0001322461,0.0
73929750,7.0481e-05,-4.1144517e-07,-0.00013073208,0.0
73949756,7.0893315e-05,-4.3918526e-08,-0.00012973901,0.0
73969747,7.282435e-05,1.017026e-06,-0.00013213,0.0
73989727,7.375386e-05,-6.38401e-08,-0.00013140221,0.0
74009778,7.364735e-05,-3.094341e-07,-0.0001305797,0.0
74029757,7.499948e-05,-1.1571393e-07,-0.0001308989,0.0
74049890,7.579015e-05,-7.7427325e-07,-0.00013087064,0.0
74069875,7.629483e-05,-4.6982322e-07,-0.00013256898,0.0
74089849,7.482642e-05,-1.0042244e-06,-0.0001325069,0.0
74109849,7.515712e-05,-1.1641266e-06,-0.00013254078,0.0
74129760,7.513411e-05,-7.8738104e-08,-0.00013132114,0.0
74149756,7.376046e-05,3.9056974e-07,-0.00013259599,0.0
74169673,7.3469906e-05,-5.682636e-07,-0.0001317082,0.0
74189684,7.370483e-05,-3.1023347e-07,-0.00013227947,0.0
74209691,7.305417e-05,-4.7089776e-07,-0.00013085284,0.0
74229692,7.23696e-05,-8.461757e-07,-0.00013063932,0.0
74249748,6.963079e-05,9.0752127e-07,-0.00012985394,0.0
74269749,7.048871e-05,-7.5045676e-07,-0.00012999694,0.0
74289671,7.248048e-05,-1.5349187e-08,-0.0001302407,0.0
74309669,7.083391e-05,8.581239e-07,-0.00012986477,0.0
74329761,6.9994145e-05,-1.239231e-06,-0.00013066501,0.0
74349721,6.927076e-05,5.1406648e-08,-0.00013085772,0.0
74369672,6.9168935e-05,-3.256949e-07,-0.00013169863,0.0
74389691,6.754691e-05,4.1809946e-07,-0.00013269745,0.0
74409673,7.01555e-05,1.1426094e-06,-0.00013000848,0.0
74429780,7.055504e-05,1.9121335e-07,-0.00013053099,0.0
74449814,7.103991e-05,-3.625757e-08,-0.00013104417,0.0
74469882,7.049429e-05,-1.7741953e-06,-0.00013048139,0.0
74489835,7.287396e-05,6.361647e-07,-0.00013093934,0.0
74509808,7.381348e-05,1.4778177e-06,-0.00012954725,0.0
74529831,7.586542e-05,9.859336e-07,-0.00013007947,0.0
74549805,7.5853604e-05,8.3076714e-07,-0.0001324014,0.0
74569731,7.580537e-05,-3.6622205e-07,-0.0001331453,0.0
74589740,7.56498e-05,-5.847353e-07,-0.00013082892,0.0
74609721,7.4412405e-05,-2.0952561e-06,-0.00013134014,0.0
74629790,7.446832e-05,5.974768e-07,-0.0001317058,0.0
74649900,7.4662225e-05,-5.183728e-07,-0.00013098761,0.0
74669821,7.2361334e-05,6.9022957e-07,-0.0001311152,0.0
74689823,7.184495e-05,-1.336606e-06,-0.0001303146,0.0
74709892,6.8909234e-05,1.988124e-07,-0.00013119163,0.0
74729724,6.8573085e-05,-1.3869964e-06,-0.00012944874,0.0
74749754,6.523268e-05,8.1212846e-07,-0.00013008501,0.0
74769834,6.607472e-05,6.6727165e-07,-0.00013265162,0.0
74789650,6.3734595e-05,1.1917813e-06,-0.00013055046,0.0
74809861,6.503719e-05,-1.4096549e-06,-0.00013039667,0.0
74829671,6.491631e-05,-1.6041757e-06,-0.00012850655,0.0
74849866,6.280274e-05,-1.1046661e-06,-0.00012964197,0.0
74869727,6.503287e-05,-1.0840697e-06,-0.00012877943,0.0
74889864,6.554854e-05,-3.673878e-07,-0.00013032004,0.0
74909787,6.693845e-05,1.8404619e-07,-0.00013040709,0.0
74929716,6.772158e-05,1.3802143e-07,-0.00013094208,0.0
74949733,7.077919e-05,-1.4006639e-06,-0.00013148219,0.0
74969717,7.3846684e-05,-1.5032433e-06,-0.0001315663,0.0
74989692,7.593637e-05,3.3831287e-07,-0.00013113816,0.0
75009749,7.6736396e-05,-3.4951276e-07,-0.00013191321,0.0
75029699,7.804083e-05,1.212567e-06,-0.00013092572,0.0
75049690,7.915598e-05,1.06150836e-07,-0.0001325479,0.0
75069768,8.0614336e-05,-7.909601e-07,-0.00013232445,0.0
75089700,8.108463e-05,-1.4954409e-06,-0.00012966896,0.0
75109720,8.2611354e-05,-4.392417e-07,-0.00013258871,0.0
75129718,8.0935206e-05,1.3255889e-06,-0.00013189913,0.0
75149731,8.135239e-05,5.242893e-07,-0.00013073621,0.0
75169737,8.0633785e-05,7.349577e-07,-0.00013141868,0.0
75189695,8.0384074e-05,-1.4520787e-06,-0.0001331418,0.0
75209671,7.925398e-05,1.5429562e-07,-0.00013202157,0.0
75229700,7.6038814e-05,1.5200784e-06,-0.00013148096,0.0
75249839,7.542729e-05,2.1470042e-07,-0.00013044277,0.0
75269738,7.169805e-05,5.5775228e-08,-0.0001312075,0.0
75289763,7.1163326e-05,5.81722e-07,-0.0001324775,0.0
75309840,6.882005e-05,2.0518542e-07,-0.00012970742,0.0
75329769,6.6848486e-05,-4.6363206e-07,-0.00013066844,0.0
75349785,6.4293825e-05,-1.640356e-07,-0.00013038202,0.0
75369756,6.204902e-05,-9.552497e-07,-0.00012904643,0.0
75389757,6.3637795e-05,2.6021104e-07,-0.0001297791,0.0
75409848,6.328479e-05,-6.129746e-07,-0.00013070172,0.0
75429843,6.0192066e-05,-1.2426859e-06,-0.00012975109,0.0
75449851,6.1039944e-05,-1.2523269e-07,-0.00012902917,0.0
75469818,6.301667e-05,6.9247557e-07,-0.00012944025,0.0
75489758,6.398153e-05,-9.853696e-07,-0.000130145,0.0
75509823,6.440041e-05,3.66627e-07,-0.00012921765,0.0
75529679,6.730681e-05,1.4991843e-07,-0.00013097413,0.0
75549867,6.7457884e-05,-2.6574057e-07,-0.00013118687,0.0
75569838,6.96066e-05,1.5151245e-06,-0.00012995668,0.0
75589827,7.058653e-05,-1.129919e-06,-0.0001323422,0.0
75609959,7.3868294e-05,-2.0357659e-06,-0.00013270583,0.0
75629666,7.436846e-05,1.162269e-06,-0.00013151795,0.0
75649660,7.679369e-05,8.720015e-07,-0.00013095443,0.0
75669667,7.620355e-05,6.796475e-07,-0.0001317986,0.0
75689761,7.756668e-05,-8.041544e-07,-0.00013169595,0.0
75709750,7.8770405e-05,-2.2989029e-07,-0.00013176717,0.0
75729765,8.016062e-05,-3.5146318e-08,-0.0001325775,0.0
75749768,7.9422396e-05,4.994103e-07,-0.0001333604,0.0
75769781,7.946873e-05,1.6303835e-06,-0.0001320918,0.0
75789690,8.1155136e-05,-2.41013e-07,-0.00013236246,0.0
75809701,8.07529e-05,1.0287108e-06,-0.0001320062,0.0
75829698,7.958619e-05,1.3015195e-07,-0.00013178885,0.0
75849715,7.850248e-05,-1.7531384e-07,-0.00013148194,0.0
75869716,7.638811e-05,4.3404313e-07,-0.00013234263,0.0
75889760,7.5917604e-05,-1.3987866e-06,-0.00013330583,0.0
75909752,7.1984294e-05,-3.692633e-07,-0.00013170516,0.0
75929734,7.184602e-05,-8.879808e-07,-0.00012939812,0.0
75949713,7.101142e-05,-6.0492897e-07,-0.0001305776,0.0
75969794,7.068422e-05,-5.713355e-07,-0.00013069299,0.0
75989804,6.977635e-05,-7.616038e-07,-0.0001313005,0.0
76009825,6.8144334e-05,-9.868766e-07,-0.00012880647,0.0
76029786,6.754301e-05,5.8832967e-07,-0.00013009262,0.0
76049940,6.747413e-05,5.865694e-07,-0.0001302421,0.0
76069718,6.676588e-05,-4.308687e-07,-0.00013003599,0.0
76089746,6.620113e-05,1.7181858e-07,-0.00012939276,0.0
76109792,6.649191e-05,-9.286788e-08,-0.0001307355,0.0
76129802,6.5547145e-05,-9.114313e-07,-0.00013105838,0.0
76149835,6.699215e-05,3.5384596e-07,-0.00013129752,0.0
76169845,6.8656205e-05,1.0935331e-06,-0.00012990339,0.0
76189952,6.959472e-05,1.0639066e-06,-0.00013210846,0.0
76209937,6.922497e-05,-1.6707672e-07,-0.00013034852,0.0
76229661,7.0157745e-05,-7.7119796e-07,-0.00013056897,0.0
76249821,7.220721e-05,-7.9643115e-07,-0.00013234094,0.0
76269837,7.27845e-05,1.4116264e-06,-0.00013013606,0.0
76289725,7.401855e-05,-2.0150235e-08,-0.00013146878,0.0
76309830,7.604995e-05,-1.2652462e-06,-0.00013199696,0.0
76329700,7.5504046e-05,-8.527204e-07,-0.00012992944,0.0
76349791,7.5863434e-05,1.5488466e-06,-0.0001297211,0.0
76369677,7.9179874e-05,-4.2301733e-07,-0.00013232806,0.0
76389677,7.9528356e-05,5.524863e-07,-0.0001312011,0.0
76409690,7.9185236e-05,3.1068478e-07,-0.00013435789,0.0
76429722,7.936129e-05,-2.179133e-07,-0.00013176401,0.0
76449740,7.901319e-05,1.5989784e-06,-0.0001324851,0.0
76469754,8.176807e-05,7.132595e-08,-0.00013361595,0.0
76489857,7.941236e-05,-1.0387548e-06,-0.00013155624,0.0
76509671,7.759434e-05,1.248775e-06,-0.00013253394,0.0
76529738,7.7887635e-05,1.9493756e-07,-0.00013268738,0.0
76549739,7.7765355e-05,7.0964455e-07,-0.00013140129,0.0
76569762,7.6515156e-05,-4.619561e-07,-0.00013110321,0.0
76589714,7.487329e-05,9.999463e-07,-0.00013064011,0.0
76609744,7.315297e-05,-2.1423575e-07,-0.000131044,0.0
76629724,7.1745024e-05,1.0328133e-06,-0.00013146659,0.0
76649844,6.999624e-05,-3.7816082e-07,-0.00012909574,0.0
76669697,6.991438e-05,8.193636e-07,-0.00013149448,0.0
76689724,6.801553e-05,-1.4530998e-06,-0.00013089254,0.0
76709723,6.5687804e-05,6.234459e-07,-0.0001299602,0.0
76729755,6.5211774e-05,-5.2413264e-07,-0.00013034302,0.0
76749752,6.6716406e-05,-8.62112e-07,-0.00012930411,0.0
76769798,6.5580076e-05,1.0316626e-07,-0.00012910503,0.0
76789816,6.550085e-05,5.028257e-07,-0.00013115704,0.0
76809742,6.524615e-05,2.3815055e-07,-0.00012731818,0.0
76829840,6.5402885e-05,-1.5499025e-06,-0.00013062489,0.0
76849756,6.615522e-05,-7.0004705e-07,-0.00013087601,0.0
76869838,6.863443e-05,-9.881062e-07,-0.0001317227,0.0
76889700,6.803663e-05,-1.0831349e-06,-0.00013082045,0.0
76909861,7.066899e-05,-6.3245403e-07,-0.0001309444,0.0
76929649,7.03113e-05,-1.0269383e-06,-0.00013017119,0.0
76949727,7.1721e-05,-1.7381647e-07,-0.00013060657,0.0
76969723,7.309451e-05,-1.021388e-06,-0.0001317946,0.0
76989735,7.266249e-05,7.834896e-07,-0.0001295664,0.0
77009700,7.610124e-05,-1.5577683e-06,-0.00013134617,0.0
77029860,7.780217e-05,1.8613662e-07,-0.00013268662,0.0
77049850,7.914131e-05,3.4576114e-08,-0.00013032484,0.0
77069688,7.83497e-05,-2.2563029e-07,-0.00013238982,0.0
77089732,7.804905e-05,5.362207e-07,-0.0001315008,0.0
77109684,7.9927224e-05,-3.6939178e-07,-0.00013249292,0.0
77129694,7.890691e-05,1.721184e-06,-0.0001320188,0.0
77149693,8.105501e-05,9.779915e-08,-0.00013206883,0.0
77169695,7.87428e-05,-4.0630388e-07,-0.0001318798,0.0
77189755,7.8645826e-05,1.3944566e-06,-0.0001317387,0.0
77209690,7.665008e-05,2.2553849e-08,-0.00013089176,0.0
77229821,7.8415746e-05,-2.0474406e-06,-0.00013037688,0.0
77249695,7.564755e-05,1.0285547e-06,-0.00013166202,0.0
77269683,7.28744e-05,-2.8900874e-07,-0.0001312466,0.0
77289697,7.508319e-05,2.6018898e-07,-0.00013107015,0.0
77309662,7.246792e-05,8.857109e-07,-0.00013159418,0.0
77329667,7.14088e-05,-1.0515249e-06,-0.00013086149,0.0
77349716,6.934455e-05,-1.2016143e-06,-0.00012993865,0.0
77369763,7.08021e-05,-1.03369544e-07,-0.00013105701,0.0
77389870,6.9342546e-05,-4.790733e-07,-0.00013141567,0.0
77409792,6.821937e-05,1.6125891e-07,-0.0001300859,0.0
77429755,6.619844e-05,4.3981512e-07,-0.00013096113,0.0
77449871,6.7230874e-05,-6.1734636e-07,-0.00012951372,0.0
77469871,6.904522e-05,9.8142486e-08,-0.00013099592,0.0
77489852,6.8301815e-05,-9.3921864e-07,-0.00013021601,0.0
77509848,6.805479e-05,-1.0865773e-06,-0.00013071639,0.0
77529871,6.8460235e-05,-1.491541e-06,-0.00013086693,0.0
77549778,6.9986636e-05,1.1386021e-06,-0.00013244958,0.0
77569745,7.113697e-05,7.578535e-08,-0.00013053631,0.0
77589773,7.122577e-05,4.781004e-07,-0.00013236054,0.0
77609868,7.2742456e-05,-1.0965498e-06,-0.00013065845,0.0
77629908,7.5431715e-05,-1.8717046e-06,-0.0001311203,0.0
77649900,7.155447e-05,6.654792e-07,-0.00013152591,0.0
77669940,7.571981e-05,1.0499629e-06,-0.00013072211,0.0
77689855,7.648459e-05,3.744513e-07,-0.00013009898,0.0
77709936,8.035046e-05,-7.91581e-07,-0.00013249759,0.0
77729669,7.6494056e-05,6.294313e-08,-0.00013156938,0.0
77749669,7.9272024e-05,6.9074315e-07,-0.0001329236,0.0
77769675,7.924553e-05,-3.3279068e-07,-0.00013098703,0.0
77789750,7.85761e-05,3.5794073e-07,-0.00013101543,0.0
77809732,7.625089e-05,1.5339168e-06,-0.00013142083,0.0
77829966,7.889704e-05,-8.72921e-07,-0.00013285792,0.0
77849735,7.803612e-05,-9.094353e-09,-0.00013030622,0.0
77869798,7.7663506e-05,-3.062094e-07,-0.00013153005,0.0
77889793,7.539758e-05,6.2704015e-07,-0.00013188615,0.0
77909697,7.579543e-05,-7.7053863e-07,-0.00013225552,0.0
77929715,7.3606454e-05,-5.867368e-08,-0.00013265324,0.0
77949699,7.311703e-05,-1.450733e-07,-0.00013010488,0.0
77969807,7.291746e-05,-5.427152e-07,-0.00013201822,0.0
77989688,7.090844e-05,-7.7580535e-07,-0.00013065315,0.0
78009717,7.062923e-05,-3.7047815e-07,-0.00013229072,0.0
78029727,6.922846e-05,-1.4236502e-07,-0.0001307464,0.0
78049769,6.875698e-05,4.683464e-08,-0.00012877016,0.0
78069788,6.74756e-05,-1.0571057e-06,-0.00013166286,0.0
78089714,6.636126e-05,6.620614e-07,-0.00013082087,0.0
78109727,6.8400404e-05,-3.7959066e-07,-0.00013018484,0.0
78129768,6.822943e-05,-1.5217834e-06,-0.00013123933,0.0
78149701,6.757178e-05,-6.1554704e-07,-0.00012894406,0.0
78169689,6.73721e-05,-1.5998681e-06,-0.00012974869,0.0
78189695,6.935623e-05,1.049586e-06,-0.00013021314,0.0
78209782,7.109137e-05,2.0389477e-06,-0.00013126146,0.0
78229848,6.929234e-05,3.4371487e-07,-0.000131012,0.0
78249773,7.1336355e-05,-1.1608541e-06,-0.00013044577,0.0
78269901,7.407088e-05,1.1928578e-06,-0.00013129531,0.0
78289847,7.1486174e-05,7.4776773e-07,-0.00013029149,0.0
78309765,7.3758936e-05,-1.1943714e-06,-0.00013204063,0.0
78329815,7.445783e-05,-2.4793619e-07,-0.00013100123,0.0
78349753,7.510414e-05,3.6671727e-07,-0.00013180645,0.0
78369829,7.62431e-05,-4.2586558e-07,-0.00013196963,0.0
78389775,7.5221855e-05,-9.0537134e-07,-0.00013017641,0.0
78409882,7.665913e-05,-1.7631885e-06,-0.00013161905,0.0
78429688,7.7565e-05,4.3697025e-08,-0.00013032994,0.0
78449856,7.715669e-05,1.3683032e-06,-0.00013103327,0.0
78469653,7.737237e-05,1.1127034e-06,-0.00013292517,0.0
78489688,7.754701e-05,8.5602505e-07,-0.00013149827,0.0
78509690,7.493748e-05,1.2687266e-06,-0.00013121901,0.0
78529647,7.728494e-05,-3.3596118e-07,-0.00013163945,0.0
78549697,7.692728e-05,-4.7197158e-08,-0.00013254075,0.0
78569662,7.468341e-05,3.880052e-07,-0.00013064173,0.0
78589630,7.365023e-05,1.3236994e-06,-0.00013035625,0.0
78609646,7.298334e-05,3.1413276e-07,-0.00013075647,0.0
78629802,7.098884e-05,8.498026e-07,-0.00013068758,0.0
78649737,7.182719e-05,-6.3380656e-07,-0.00013157849,0.0
78669769,6.971888e-05,5.303397e-07,-0.00013174023,0.0
78689728,6.95346e-05,-1.7153834e-06,-0.00013155125,0.0
78709788,6.880779e-05,4.84955e-07,-0.00013086211,0.0
78729713,6.922759e-05,-5.0905488e-08,-0.00013198493,0.0
78749720,6.829859e-05,-3.7242535e-07,-0.00012998802,0.0
78769687,6.916986e-05,1.9995286e-07,-0.0001302092,0.0
78789695,6.7819135e-05,5.096327e-07,-0.00012892448,0.0
78809747,6.9531816e-05,-3.195e-07,-0.00012998848,0.0
78829740,6.873212e-05,-9.479632e-08,-0.00012961244,0.0
78849811,6.942798e-05,5.8210236e-07,-0.00013038647,0.0
78869804,7.045423e-05,-1.4798989e-09,-0.00013078586,0.0
78889854,7.058204e-05,-5.1622686e-07,-0.00013074437,0.0
78909800,7.099023e-05,5.250154e-07,-0.00013140298,0.0
78929744,7.10537e-05,2.740561e-07,-0.00013127415,0.0
78949807,7.180031e-05,7.598945e-07,-0.00013001788,0.0
78969828,7.406639e-05,-9.990598e-07,-0.00013247665,0.0
78989894,7.418133e-05,4.837834e-07,-0.00013276558,0.0
79009846,7.595962e-05,-8.170591e-07,-0.00013104167,0.0
79029841,7.47491e-05,-1.4785874e-06,-0.0001315265,0.0
79049907,7.482678e-05,1.1531024e-06,-0.00012942895,0.0
79069845,7.574972e-05,5.220738e-07,-0.0001306986,0.0
79089804,7.637791e-05,-1.940705e-06,-0.00013223832,0.0
79109846,7.7537516e-05,8.1390647e-07,-0.00013112533,0.0
79129735,7.584016e-05,-7.9007225e-07,-0.00013140506,0.0
79149860,7.5405595e-05,6.450015e-07,-0.00013220366,0.0
79169687,7.50107e-05,-2.9790314e-07,-0.00013252992,0.0
79189890,7.49075e-05,8.22356e-07,-0.0001320687,0.0
79209885,7.7213954e-05,-9.601471e-07,-0.00013195648,0.0
79229754,7.224459e-05,-2.7304486e-07,-0.00013273179,0.0
79249698,7.381054e-05,-8.8376174e-07,-0.00013105563,0.0
79269744,7.2964984e-05,-2.757489e-07,-0.00013221338,0.0
79289743,7.057539e-05,2.8929782e-07,-0.00013077322,0.0
79309738,6.92337e-05,3.793639e-08,-0.00013157829,0.0
79329672,7.021092e-05,-8.497521e-07,-0.00013031125,0.0
79349693,7.0185786e-05,-5.171328e-07,-0.00013120663,0.0
79369774,7.0104965e-05,-3.5279072e-08,-0.00013074068,0.0
79389678,6.925245e-05,4.172854e-07,-0.00013106648,0.0
79409686,7.0184986e-05,-3.2843786e-07,-0.00013072323,0.0
79429690,7.030462e-05,-7.176389e-07,-0.00013013478,0.0
79449813,6.97457e-05,7.5978966e-07,-0.00013127874,0.0
79469759,7.0243106e-05,9.573022e-07,-0.0001316005,0.0
79489742,7.019085e-05,2.3684795e-07,-0.0001292374,0.0
79509773,6.980752e-05,-3.7140737e-07,-0.00013105164,0.0
79529732,7.285903e-05,-9.95967e-07,-0.00013275577,0.0
79549748,7.213558e-05,1.0362805e-06,-0.00013324297,0.0
79569747,7.209114e-05,-6.985966e-07,-0.00013230585,0.0
79589809,7.399629e-05,-2.512963e-07,-0.00013173503,0.0
79609880,7.4071315e-05,1.254709e-06,-0.00013120833,0.0
79629796,7.352869e-05,-3.2358764e-07,-0.00013102825,0.0
79649801,7.476911e-05,-1.067456e-06,-0.0001309439,0.0
79669762,7.548619e-05,-5.69494e-07,-0.00013175346,0.0
79689811,7.633183e-05,4.9620155e-08,-0.00013212259,0.0
79709759,7.363715e-05,4.4072704e-07,-0.00013159006,0.0
79729776,7.499102e-05,-6.5456226e-07,-0.00013051627,0.0
79749918,7.520214e-05,-5.9425224e-07,-0.00013220646,0.0
79769804,7.444509e-05,4.0454188e-07,-0.00013288848,0.0
79789758,7.464712e-05,-2.7417067e-07,-0.00013213721,0.0
79809811,7.40169e-05,2.6687994e-08,-0.0001326553,0.0
79829626,7.458649e-05,-5.0171593e-07,-0.00013182068,0.0
79849859,7.318389e-05,4.0808956e-07,-0.00013017922,0.0
79869654,7.419565e-05,-8.948421e-07,-0.0001312334,0.0
79889855,7.049237e-05,1.0282955e-06,-0.0001301978,0.0
79909786,7.28114e-05,-1.5880953e-06,-0.00013120347,0.0
79929747,7.084415e-05,-5.7079495e-07,-0.00012937146,0.0
79949726,6.83142e-05,-1.6295527e-07,-0.00013148673,0.0
79969695,7.01425e-05,1.5310081e-06,-0.0001304951,0.0
79989728,6.8975016e-05,7.598011e-07,-0.00013077303,0.0
80009698,6.983367e-05,-3.6255094e-07,-0.00013059551,0.0
80029721,6.723654e-05,-1.8981457e-06,-0.00013094295,0.0
80049755,6.967986e-05,1.1060273e-06,-0.00012923742,0.0
80069765,6.8933296e-05,5.9193144e-07,-0.00013159563,0.0
80089791,6.9138965e-05,-7.309956e-07,-0.00013149033,0.0
80109687,7.005719e-05,-5.2920626e-07,-0.0001308415,0.0
80129740,7.125546e-05,8.34065e-07,-0.00012932811,0.0
80149701,7.179352e-05,4.0309493e-07,-0.00013201496,0.0
80169693,7.331597e-05,4.1706312e-07,-0.0001296607,0.0
80189765,7.466354e-05,1.5210583e-07,-0.00013357865,0.0
80209695,7.325387e-05,-7.571137e-07,-0.00013009821,0.0
80229713,7.690693e-05,-7.401879e-07,-0.00013213172,0.0
80249784,7.72577e-05,-5.1765295e-07,-0.00013137206,0.0
80269660,7.604973e-05,2.7318217e-07,-0.00013047944,0.0
80289694,7.6795135e-05,3.736342e-07,-0.00013093122,0.0
80309778,7.9289595e-05,-2.6961095e-07,-0.00013388867,0.0
80329779,7.804794e-05,-9.679468e-07,-0.00013155365,0.0
80349824,7.913846e-05,4.243378e-07,-0.00013172656,0.0
80369760,7.717017e-05,1.122353e-06,-0.00013124604,0.0
80389787,7.8719306e-05,-5.5133887e-07,-0.00013289406,0.0
80409753,7.8214034e-05,-1.1828809e-06,-0.00013122987,0.0
80429852,7.731704e-05,6.1049246e-07,-0.00013166868,0.0
80449770,7.680043e-05,4.1124204e-07,-0.00013143737,0.0
80469906,7.6955934e-05,-4.517511e-07,-0.00013148364,0.0
80489869,7.7590164e-05,4.7824227e-07,-0.00013127404,0.0
80509860,7.606768e-05,4.5648972e-07,-0.00013113883,0.0
80529844,7.3234485e-05,-6.935972e-07,-0.00013159539,0.0
80549850,7.245264e-05,-6.962793e-07,-0.00012941417,0.0
80569697,7.2075134e-05,3.8774206e-07,-0.00013053225,0.0
80589832,7.014887e-05,-8.01822e-07,-0.00013010633,0.0
80609913,7.0954266e-05,-7.25542e-07,-0.00013201055,0.0
80629864,6.884368e-05,8.545198e-07,-0.0001306093,0.0
80649881,6.962133e-05,1.7605565e-07,-0.00013204136,0.0
80669730,6.8215166e-05,-1.9445113e-06,-0.0001319635,0.0
80689631,6.677958e-05,-1.096377e-07,-0.00013004096,0.0
80709645,6.509415e-05,-6.236125e-07,-0.00012894206,0.0
80729778,6.650842e-05,-1.1144257e-06,-0.00013090337,0.0
80749713,6.7410816e-05,3.2133707e-07,-0.00012971341,0.0
80769826,6.879341e-05,-9.1962687e-07,-0.00012983615,0.0
80789835,6.675818e-05,-7.052482e-07,-0.0001308361,0.0
80809747,6.7043584e-05,-1.3939153e-07,-0.00012989732,0.0
80829729,6.772953e-05,6.190383e-08,-0.000130026,0.0
80849724,7.0207934e-05,-5.7103034e-07,-0.00013048922,0.0
80869698,7.145035e-05,-5.466306e-07,-0.0001297643,0.0
80889742,6.9494e-05,-4.7983724e-07,-0.00013201112,0.0
80909735,7.169665e-05,2.2403977e-07,-0.00013247423,0.0
80929722,7.306729e-05,-2.914857e-07,-0.00013102467,0.0
80949738,7.348591e-05,-1.8310802e-06,-0.00013188865,0.0
80969737,7.600752e-05,2.3140012e-07,-0.00013095354,0.0
80989732,7.450031e-05,5.817341e-07,-0.00013199591,0.0
81009731,7.498153e-05,-7.9541616e-07,-0.0001307872,0.0
81029726,7.332615e-05,1.7291212e-06,-0.00013025492,0.0
81049847,7.408323e-05,-1.6464121e-07,-0.00013065901,0.0
81069732,7.539168e-05,3.9901277e-08,-0.00013042054,0.0
81089692,7.4024676e-05,1.8860662e-07,-0.00013052339,0.0
81109729,7.39383e-05,-1.8621137e-07,-0.00013156275,0.0
81129728,7.623042e-05,-1.9740942e-07,-0.00013090235,0.0
81149797,7.5005075e-05,3.077928e-07,-0.00013083073,0.0
81169781,7.2671115e-05,-8.54461e-07,-0.0001300315,0.0
81189801,7.326473e-05,-1.2797186e-07,-0.0001301526,0.0
81209865,7.2882365e-05,3.0876572e-07,-0.00013050521,0.0
81229907,7.371049e-05,-1.0430066e-07,-0.00013212967,0.0
81249834,7.2939176e-05,1.4931526e-07,-0.00013100402,0.0
81269829,7.253084e-05,5.8126915e-07,-0.0001309135,0.0
81289835,7.0784554e-05,7.0276855e-07,-0.00012970145,0.0
81309843,7.1296556e-05,9.892331e-07,-0.00013251488,0.0
81329729,7.057209e-05,1.0010565e-06,-0.00013169363,0.0
81349717,7.087136e-05,-3.8079996e-08,-0.00013060817,0.0
81369783,7.1469534e-05,1.4134764e-07,-0.0001316629,0.0
81389738,7.126606e-05,8.265721e-07,-0.00012898774,0.0
81409684,7.096177e-05,-6.1377233e-07,-0.00013019382,0.0
81429745,7.1472525e-05,-1.8572631e-07,-0.00013011666,0.0
81449684,7.055007e-05,-1.1195507e-06,-0.0001279357,0.0
81469716,7.0596514e-05,6.093614e-07,-0.00013055318,0.0
81489723,7.3056755e-05,-6.633896e-07,-0.00013214213,0.0
81509686,7.362867e-05,-1.5293135e-06,-0.00012962175,0.0
81529715,7.229355e-05,-7.6612577e-07,-0.00013123758,0.0
81549659,7.313258e-05,1.011852e-06,-0.00013081875,0.0
81569745,7.4302836e-05,-2.4447634e-06,-0.00013087313,0.0
81589733,7.205488e-05,2.145435e-07,-0.00013172445,0.0
81609775,7.426979e-05,9.983839e-07,-0.00013119877,0.0
81629723,7.5000135e-05,-1.145846e-06,-0.00013073879,0.0
81649764,7.556913e-05,1.0189569e-06,-0.00013157986,0.0
81669762,7.329406e-05,5.522438e-07,-0.00013113162,0.0
81689731,7.567525e-05,-9.915793e-07,-0.00013123598,0.0
81709721,7.2859715e-05,-6.7321264e-07,-0.00013019459,0.0
81729686,7.3031486e-05,-9.625641e-07,-0.00013033123,0.0
81749823,7.470483e-05,9.139642e-08,-0.00013279042,0.0
81769801,7.401568e-05,-4.525091e-08,-0.00013062834,0.0
81789824,7.271446e-05,6.598191e-07,-0.00013108112,0.0
81809862,7.219225e-05,-4.2947633e-07,-0.00012915379,0.0
81829737,7.235551e-05,1.0706308e-07,-0.00013033471,0.0
81849745,7.1735805e-05,-4.6020304e-07,-0.000131637,0.0
81869751,7.14527e-05,-1.1599807e-07,-0.00013071545,0.0
81889738,7.1356044e-05,-5.891302e-07,-0.00012979381,0.0
81909833,7.253897e-05,-1.061653e-06,-0.0001316495,0.0
81929809,6.971091e-05,-1.223864e-06,-0.00013144613,0.0
81949684,7.111292e-05,-7.443561e-07,-0.00013121823,0.0
81969858,6.9900394e-05,-5.334152e-07,-0.00012966739,0.0
81989650,6.826101e-05,4.3501652e-07,-0.00013050697,0.0
82009906,6.952864e-05,-1.6192423e-08,-0.00013115835,0.0
82029864,6.908175e-05,-4.6623995e-07,-0.00013195419,0.0
82049971,7.0710455e-05,1.2616446e-06,-0.0001299553,0.0
82069772,7.001947e-05,-6.184416e-08,-0.00013068777,0.0
82089781,7.0163886e-05,-9.571359e-07,-0.00013067175,0.0
82109743,7.098934e-05,-1.4074633e-06,-0.00013196797,0.0
82129766,7.2470124e-05,1.2972826e-06,-0.00013074558,0.0
82149771,7.274744e-05,6.321521e-08,-0.00013155064,0.0
82169754,7.154029e-05,-8.7607015e-07,-0.00013064273,0.0
82189697,7.390581e-05,3.2180915e-07,-0.00013046924,0.0
82209693,7.414847e-05,1.2665419e-06,-0.00013151979,0.0
82229801,7.3972646e-05,-8.8163733e-07,-0.00012923863,0.0
82249762,7.410923e-05,1.0992999e-06,-0.00013201305,0.0
82269692,7.489637e-05,7.879565e-07,-0.0001319534,0.0
82289689,7.545555e-05,-1.0162765e-06,-0.0001313685,0.0
82309691,7.392062e-05,-7.82587e-07,-0.00013284992,0.0
82329695,7.497792e-05,1.1236291e-07,-0.00013285152,0.0
82349687,7.4779586e-05,-9.347298e-07,-0.0001322174,0.0
82369714,7.5613636e-05,3.14184e-07,-0.0001309046,0.0
82389691,7.540521e-05,8.627748e-08,-0.00013125814,0.0
82409793,7.399843e-05,-8.2137603e-07,-0.00013160634,0.0
82429741,7.539971e-05,-1.541845e-07,-0.00013194019,0.0
82449862,7.315475e-05,-9.540743e-07,-0.0001299168,0.0
82469752,7.306836e-05,1.4394071e-07,-0.00013147507,0.0
82489784,7.304761e-05,-2.1245887e-07,-0.0001301968,0.0
82509788,7.230678e-05,-6.122155e-07,-0.0001308319,0.0
82529762,7.285567e-05,6.928698e-07,-0.00013057837,0.0
82549760,7.186355e-05,-7.4139643e-07,-0.00013250065,0.0
82569819,7.06543e-05,-7.790215e-07,-0.00013013805,0.0
82589851,7.064864e-05,1.9025674e-07,-0.00013221754,0.0
82609831,7.12376e-05,-8.1389373e-07,-0.00013094989,0.0
82629831,6.962707e-05,-4.745674e-08,-0.00013164578,0.0
82649875,7.171173e-05,-3.528301e-07,-0.0001275332,0.0
82669840,7.055304e-05,2.8604836e-07,-0.00013018235,0.0
82689740,7.125734e-05,3.5077278e-07,-0.00013086693,0.0
82709683,6.8859066e-05,4.4369204e-07,-0.00012974409,0.0
82729680,7.071405e-05,4.7320788e-07,-0.00012901486,0.0
82749744,7.180237e-05,5.221613e-07,-0.00013282958,0.0
82769650,7.201671e-05,-5.6572594e-07,-0.0001300077,0.0
82789760,7.207775e-05,-1.3091933e-07,-0.00013069973,0.0
82809734,7.332423e-05,-2.9472366e-07,-0.0001308778,0.0
82829753,7.1719485e-05,-1.1800627e-06,-0.00013070692,0.0
82849720,7.319988e-05,-1.8294013e-07,-0.00013132334,0.0
82869753,7.2703595e-05,-3.7012086e-07,-0.00012999155,0.0
82889714,7.348463e-05,-3.2384142e-07,-0.00013089807,0.0
82909723,7.278456e-05,-1.2550037e-06,-0.00013147434,0.0
82929737,7.3490686e-05,6.5387917e-07,-0.00013028833,0.0
82949692,7.381474e-05,1.1837479e-06,-0.00013135881,0.0
82969697,7.5118114e-05,1.3345349e-06,-0.00013166622,0.0
82989689,7.395066e-05,-6.591872e-07,-0.0001311556,0.0
83009691,7.582888e-05,6.1997775e-07,-0.00013234292,0.0
83029687,7.3307514e-05,-8.653004e-08,-0.00013284174,0.0
83049685,7.445884e-05,-3.7408248e-07,-0.00013190355,0.0
83069737,7.4732285e-05,1.1329994e-06,-0.00012869274,0.0
83089715,7.43246e-05,7.5277376e-07,-0.00013127147,0.0
83109744,7.207868e-05,-3.417783e-07,-0.00012990192,0.0
83129736,7.250645e-05,-4.0121196e-07,-0.00013114889,0.0
83149696,7.0121656e-05,-3.5588798e-07,-0.00013144957,0.0
83169725,7.122639e-05,-3.5893578e-07,-0.00013167498,0.0
83189795,7.0107206e-05,-6.713873e-08,-0.00013079376,0.0
83209886,6.9885224e-05,5.500293e-07,-0.0001295576,0.0
83229748,6.8939175e-05,3.5692233e-07,-0.0001301514,0.0
83249784,7.044775e-05,-4.6964124e-07,-0.00013076747,0.0
83269842,6.759119e-05,-1.9428602e-07,-0.00013029242,0.0
83289774,6.675563e-05,6.669222e-07,-0.00013168703,0.0
83309779,6.687456e-05,-1.3084355e-08,-0.00013129301,0.0
83329776,6.93737e-05,7.162868e-07,-0.00013012197,0.0
83349841,6.962649e-05,4.3156456e-07,-0.00012880699,0.0
83369841,7.026831e-05,-5.8362224e-07,-0.00013118985,0.0
83389767,7.063208e-05,1.8429839e-08,-0.00013129691,0.0
83409851,6.986552e-05,-6.6113546e-07,-0.00013130232,0.0
83429668,7.007723e-05,7.65133e-07,-0.00013044501,0.0
83449894,7.1824164e-05,-2.870952e-07,-0.00013299454,0.0
83469669,7.190882e-05,1.2783289e-07,-0.00013119778,0.0
83489855,7.200923e-05,-9.800494e-07,-0.0001314708,0.0
83509923,7.336426e-05,-1.0019247e-06,-0.00012988626,0.0
83529786,7.305755e-05,-6.930182e-07,-0.0001295128,0.0
83549800,7.393068e-05,-4.9103784e-07,-0.00013123271,0.0
83569826,7.570027e-05,-8.701716e-07,-0.00013126792,0.0
83589770,7.5527634e-05,9.514606e-07,-0.00013191414,0.0
83609732,7.6295946e-05,-9.979003e-07,-0.0001310238,0.0
83629849,7.458423e-05,-1.0382745e-06,-0.00013170998,0.0
83649742,7.590645e-05,8.9842706e-07,-0.00013114091,0.0
83669789,7.478776e-05,-6.3818374e-07,-0.00013132142,0.0
83689754,7.423572e-05,8.1730644e-07,-0.00013022698,0.0
83709762,7.3099116e-05,-6.6802535e-08,-0.00013229591,0.0
84509768,7.048305e-05,-2.7986943e-07,-0.00013065954,0.0
85109838,7.2414594e-05,-1.7134467e-06,-0.00013105606,0.0
85129829,7.1412156e-05,-6.1883185e-07,-0.00012996754,0.0
85149827,7.226939e-05,-2.780185e-07,-0.00013032851,0.0
85169891,7.292163e-05,-1.4351417e-06,-0.00012954311,0.0
85189810,7.189395e-05,3.672022e-07,-0.0001308734,0.0
85209910,7.279519e-05,-1.280179e-07,-0.00013011011,0.0
85229816,7.3079944e-05,6.216363e-07,-0.00013208452,0.0
85249766,7.4143296e-05,5.2722567e-07,-0.00013015092,0.0
85269766,7.559808e-05,1.0103597e-06,-0.00013174102,0.0
85289769,7.676591e-05,5.832862e-07,-0.00013175768,0.0
85309838,7.568165e-05,4.0404694e-07,-0.0001319762,0.0
85329865,7.5514254e-05,-5.166533e-07,-0.00013106859,0.0
85349846,7.687471e-05,-8.5817504e-07,-0.00013290826,0.0
85369850,7.521295e-05,-8.376061e-08,-0.00013302728,0.0
85389855,7.5950906e-05,5.8201965e-07,-0.00013024181,0.0
85409852,7.504744e-05,5.312407e-07,-0.00013090493,0.0
85429869,7.729412e-05,8.0545533e-07,-0.00013178369,0.0
85449852,7.6782846e-05,-1.03584604e-07,-0.00013236547,0.0
85469874,7.729048e-05,1.0924186e-06,-0.00013172433,0.0
85489840,7.682315e-05,-7.492512e-08,-0.00013138657,0.0
85509917,7.20219e-05,2.8170484e-07,-0.00013236467,0.0
85529895,7.412335e-05,1.502415e-06,-0.00013069935,0.0
85549896,7.282298e-05,1.4737364e-07,-0.00013016375,0.0
85569979,7.4081916e-05,4.4601737e-08,-0.00013317696,0.0
85589934,7.313335e-05,-1.1055788e-06,-0.00012966896,0.0
85609950,7.195153e-05,-1.3868477e-07,-0.00013223708,0.0
85629872,7.243643e-05,-1.6886007e-07,-0.00013171473,0.0
85649953,7.202474e-05,1.3260027e-06,-0.00013116731,0.0
85669762,7.064615e-05,-4.906562e-07,-0.0001305339,0.0
85689783,7.080447e-05,7.85802e-07,-0.00012960634,0.0
85709775,6.846899e-05,-1.3141266e-06,-0.00012759994,0.0
85729730,6.942601e-05,1.7611347e-08,-0.00013038501,0.0
85749862,7.131738e-05,-1.8488935e-06,-0.00013190415,0.0
85769792,7.180387e-05,-2.7873395e-07,-0.0001321947,0.0
85789811,7.1881055e-05,5.025378e-07,-0.0001337602,0.0
85809848,7.1428505e-05,2.40538e-07,-0.00013146547,0.0
85829808,7.107417e-05,-9.396208e-07,-0.00012852023,0.0
85849801,7.1675684e-05,1.7014548e-06,-0.000130336,0.0
85869785,7.270284e-05,1.8631566e-07,-0.00013397806,0.0
85889814,7.529067e-05,3.9107292e-07,-0.00013410441,0.0
85909821,7.47286e-05,-2.0051718e-06,-0.00013204082,0.0
85929751,7.393476e-05,-1.020275e-06,-0.00012763543,0.0
85949792,7.568746e-05,-8.8379005e-07,-0.00013404078,0.0
85969799,7.666155e-05,-2.9931567e-07,-0.00013421835,0.0
85989795,7.739861e-05,1.5862436e-06,-0.00013319941,0.0
86009838,7.328612e-05,-9.857282e-07,-0.0001282877,0.0
86029801,7.3955125e-05,-3.015941e-07,-0.00012908706,0.0
86049804,7.492682e-05,1.3317278e-06,-0.0001319703,0.0
86069814,7.284397e-05,1.3960811e-06,-0.00013325296,0.0
86089831,7.382584e-05,3.7364208e-07,-0.00013126225,0.0
86109797,7.398446e-05,4.0599647e-07,-0.00013445805,0.0
86129950,7.081928e-05,-1.1295936e-06,-0.00013064954,0.0
86149922,7.123795e-05,-1.2413984e-06,-0.00013196874,0.0
86169945,7.011799e-05,1.9510685e-07,-0.00013234213,0.0
86189989,7.004687e-05,6.057359e-07,-0.00013409073,0.0
86209886,6.813802e-05,-3.27763e-08,-0.0001297146,0.0
86229876,6.636479e-05,-1.0150625e-06,-0.00013123381,0.0
86249858,6.613333e-05,-1.5567595e-07,-0.0001311084,0.0
86269845,6.707007e-05,-1.38368e-06,-0.00012862914,0.0
86289947,6.655652e-05,-9.689923e-07,-0.00012876997,0.0
86309827,6.7281624e-05,-5.4476e-07,-0.00013010933,0.0
86329877,6.724566e-05,8.498911e-07,-0.00012938131,0.0
86349914,6.9386326e-05,6.7102496e-07,-0.00013170975,0.0
86369763,6.886115e-05,-5.406623e-07,-0.0001307389,0.0
86389912,7.055463e-05,-3.741343e-07,-0.00012965508,0.0
86409844,7.023637e-05,-1.2536483e-06,-0.0001305661,0.0
86429835,7.126183e-05,1.0013498e-07,-0.00012813383,0.0
86449767,7.456215e-05,-1.0095785e-06,-0.00013209546,0.0
86469697,7.4830714e-05,2.6732323e-07,-0.00013017659,0.0
86489691,7.646853e-05,2.2184565e-07,-0.00013146378,0.0
86509793,7.740023e-05,3.7939304e-07,-0.00013174138,0.0
86529809,7.986588e-05,-1.1799074e-06,-0.00013503683,0.0
86549658,7.8373334e-05,4.808421e-07,-0.00013143952,0.0
86569675,7.856985e-05,-1.3494108e-06,-0.0001317187,0.0
86589657,7.789028e-05,-4.1451116e-07,-0.00013204539,0.0
86609754,7.914282e-05,-6.286643e-07,-0.00013157276,0.0
86629896,7.666907e-05,-1.3750589e-07,-0.00013298693,0.0
86649841,7.627188e-05,4.347825e-08,-0.00012997689,0.0
86669851,7.7125645e-05,-1.6786416e-07,-0.00013198807,0.0
86689912,7.381563e-05,4.0021504e-07,-0.00013147034,0.0
86709954,7.3401956e-05,-2.6707104e-07,-0.00013152165,0.0
86729837,7.403593e-05,8.0821303e-07,-0.00013088288,0.0
86749747,7.074708e-05,-1.0115981e-06,-0.00013051434,0.0
86769999,7.0961134e-05,7.305058e-07,-0.00013080602,0.0
86789875,6.694986e-05,-6.177897e-07,-0.0001307406,0.0
86809865,6.896073e-05,4.4377165e-07,-0.00013065255,0.0
86829830,6.724646e-05,-2.2576742e-07,-0.0001286072,0.0
86849848,6.692984e-05,3.9024198e-07,-0.0001300033,0.0
86869847,6.566152e-05,-4.5052434e-07,-0.00012923454,0.0
86889834,6.644868e-05,-4.3401593e-07,-0.00012981861,0.0
86909803,6.563745e-05,-5.0505423e-07,-0.0001286234,0.0
86929874,6.764074e-05,-1.4543035e-06,-0.000130308,0.0
86950025,6.767815e-05,2.546603e-07,-0.00013102991,0.0
86969688,6.6877634e-05,-1.0118337e-06,-0.00012966814,0.0
86989658,6.724143e-05,1.9112478e-07,-0.00013031554,0.0
87009864,6.800088e-05,1.3386057e-07,-0.0001308681,0.0
87029748,6.9040645e-05,-8.293755e-07,-0.00013138368,0.0
87049751,7.211689e-05,7.3414805e-07,-0.00013053846,0.0
87069888,7.3243864e-05,-7.4544323e-07,-0.00012996537,0.0
87089718,7.336086e-05,-4.2636438e-07,-0.000130481,0.0
87109725,7.626711e-05,-4.865595e-07,-0.00013238758,0.0
87129711,7.6166e-05,8.7877623e-07,-0.00013221258,0.0
87149713,7.733897e-05,9.506402e-07,-0.00013107473,0.0
87169686,7.847677e-05,2.018054e-06,-0.00013106075,0.0
87189719,7.841721e-05,-3.9274877e-07,-0.00013220611,0.0
87209780,7.889344e-05,-3.2778814e-08,-0.0001325527,0.0
87229695,8.0014484e-05,2.1360636e-06,-0.0001308125,0.0
87249696,7.878278e-05,1.6742912e-06,-0.00013295938,0.0
87269723,7.787389e-05,3.2899183e-07,-0.0001309774,0.0
87289690,7.821047e-05,-3.7742214e-07,-0.00013259098,0.0
87309697,7.624084e-05,-1.8396852e-07,-0.00013066204,0.0
87329696,7.599896e-05,-5.835151e-07,-0.00013165343,0.0
87349722,7.336162e-05,6.7398713e-07,-0.00013072566,0.0
87369828,7.2655086e-05,-1.865507e-07,-0.0001329586,0.0
87389682,7.062098e-05,-8.2893955e-08,-0.00013035226,0.0
87409682,6.908771e-05,-5.006401e-07,-0.00013106059,0.0
87429677,6.7275905e-05,-1.0906133e-06,-0.0001301444,0.0
87449795,6.747513e-05,-3.8395547e-07,-0.00012930884,0.0
87469756,6.872924e-05,-3.4667174e-08,-0.00013018148,0.0
87489861,6.8395595e-05,1.0676961e-06,-0.00013007564,0.0
87509907,6.914055e-05,-1.2305046e-06,-0.00013085055,0.0
87529796,7.04606e-05,-1.416088e-06,-0.00013082918,0.0
87549794,7.28683e-05,-1.1118016e-07,-0.00013111338,0.0
87569742,7.1001195e-05,1.2115419e-06,-0.00012997328,0.0
87589757,7.251437e-05,-1.2352574e-07,-0.00013113995,0.0
87609778,7.316688e-05,2.2000313e-07,-0.00013109755,0.0
87629769,7.4258576e-05,-3.9323467e-07,-0.0001319457,0.0
87649911,7.6015516e-05,9.747065e-07,-0.00013311527,0.0
87669834,7.527555e-05,6.4188174e-07,-0.00013162695,0.0
87689768,7.4838295e-05,2.1263757e-07,-0.0001309949,0.0
87709753,7.632375e-05,-4.2467065e-07,-0.00013084349,0.0
87729688,7.6784825e-05,1.0320144e-06,-0.00013350279,0.0
87749827,7.8272045e-05,3.477867e-07,-0.00013100813,0.0
87769773,7.783103e-05,-5.359349e-08,-0.00013155764,0.0
87789741,7.633022e-05,3.907643e-07,-0.00013251575,0.0
87809676,7.448072e-05,-2.4668509e-08,-0.0001333823,0.0
87829633,7.299202e-05,8.251629e-08,-0.00013200674,0.0
87849613,7.2598275e-05,1.4787453e-07,-0.00013100373,0.0
87869608,7.2694376e-05,-3.2122725e-07,-0.0001307752,0.0
87889732,7.1180286e-05,6.498282e-07,-0.00013218231,0.0
87909741,6.971664e-05,-9.760013e-07,-0.00013047169,0.0
87929741,7.041275e-05,3.8958206e-07,-0.0001291204,0.0
87949679,6.9290334e-05,3.5008097e-07,-0.00013264769,0.0
87969718,7.045911e-05,-1.8102737e-07,-0.0001312862,0.0
87989680,7.040542e-05,3.4416192e-07,-0.0001304571,0.0
88009697,7.017582e-05,-1.293672e-06,-0.00013289016,0.0
88029726,7.435155e-05,8.11438e-07,-0.00013094977,0.0
88049698,7.534984e-05,1.4499595e-06,-0.00013186618,0.0
88069728,7.5825745e-05,6.0470677e-07,-0.00013199009,0.0
88089759,7.560306e-05,1.3171142e-06,-0.00013291302,0.0
88109749,7.8835605e-05,1.2050347e-06,-0.00013009508,0.0
88129740,8.0533406e-05,8.095025e-07,-0.00013209465,0.0
88149765,8.234747e-05,1.6648919e-06,-0.00013273516,0.0
88169876,8.290663e-05,8.0648e-07,-0.00013150954,0.0
88189846,8.31113e-05,-7.423603e-07,-0.00013339565,0.0
88209965,8.3806684e-05,8.2805565e-07,-0.00013224564,0.0
88229717,7.938398e-05,4.4941746e-07,-0.00013289323,0.0
88249721,8.2272105e-05,1.4220665e-06,-0.000131207,0.0
88269867,8.2089995e-05,-2.406888e-07,-0.00013012577,0.0
88289847,8.1911676e-05,1.0096554e-06,-0.00012949567,0.0
88309847,8.182848e-05,-1.0176431e-06,-0.00013117421,0.0
88329856,8.133655e-05,-5.842447e-07,-0.00013139432,0.0
88349807,7.875988e-05,4.7884015e-07,-0.00013419383,0.0
88369894,7.820926e-05,2.0583975e-06,-0.00013232288,0.0
88389791,7.875205e-05,2.6578138e-07,-0.00013293272,0.0
88409825,7.724675e-05,1.2549559e-06,-0.00013226883,0.0
88429660,7.463788e-05,-2.1083335e-09,-0.00013099157,0.0
88449825,7.47905e-05,-7.253788e-07,-0.00013082044,0.0
88469844,7.324035e-05,-4.755998e-07,-0.00013081857,0.0
88489697,7.324575e-05,1.545751e-06,-0.00013156071,0.0
88509728,6.877312e-05,7.643004e-07,-0.00012979338,0.0
88529771,6.517029e-05,5.645713e-07,-0.00012911957,0.0
88549675,6.378892e-05,2.6490886e-07,-0.00013050657,0.0
88569680,6.173812e-05,-8.449494e-07,-0.00013057608,0.0
88589687,6.0297898e-05,-1.1761368e-06,-0.0001275059,0.0
88609692,5.843565e-05,-4.4828977e-07,-0.00012863355,0.0
88629691,5.5729553e-05,-7.487433e-07,-0.00013022909,0.0
88649686,5.5570086e-05,-6.683828e-07,-0.00012854904,0.0
88669742,5.4187894e-05,-1.0196035e-06,-0.00012958632,0.0
88689682,5.6291483e-05,-1.1999239e-06,-0.00012843176,0.0
88709740,5.831456e-05,-1.3536132e-06,-0.00012906457,0.0
88729736,6.015806e-05,3.7436152e-07,-0.00012900353,0.0
88749754,5.8684276e-05,1.7363673e-06,-0.0001286804,0.0
88769743,6.4108346e-05,-5.6662293e-07,-0.00013019786,0.0
88789746,6.9170426e-05,-7.6677844e-07,-0.00013083205,0.0
88809760,7.2072515e-05,-6.027787e-07,-0.00013154978,0.0
88829775,7.661148e-05,7.368464e-07,-0.00013188744,0.0
88849737,7.8662924e-05,2.0855542e-07,-0.0001313235,0.0
88869728,8.476222e-05,-6.48021e-07,-0.00013084414,0.0
88889729,8.5591186e-05,1.5475362e-06,-0.00013109295,0.0
88909797,8.823432e-05,-1.3959357e-07,-0.00013233443,0.0
88929766,9.230052e-05,6.706302e-07,-0.00013391465,0.0
88949855,9.43811e-05,4.5131046e-07,-0.00013127965,0.0
88969807,9.651264e-05,-1.6241619e-07,-0.0001353062,0.0
88989769,9.643636e-05,9.884469e-07,-0.00013469504,0.0
89009793,9.464327e-05,-6.075728e-08,-0.0001343467,0.0
89029781,9.496605e-05,9.348214e-07,-0.00013422103,0.0
89049945,9.1374204e-05,-4.1138455e-07,-0.00013218985,0.0
89069787,8.860278e-05,-6.54644e-07,-0.00013101834,0.0
89089671,8.380578e-05,-1.8998659e-06,-0.00013235903,0.0
89109821,8.4443534e-05,1.8576968e-06,-0.00013257554,0.0
89129837,8.0283964e-05,-8.171086e-07,-0.00013055166,0.0
89149837,7.5158794e-05,2.9842386e-07,-0.00013120988,0.0
89169864,7.301441e-05,1.1453052e-07,-0.00013054193,0.0
89189712,6.797042e-05,-1.4021734e-06,-0.00012962575,0.0
89209722,6.646472e-05,-2.5668685e-06,-0.00012995563,0.0
89229713,6.338215e-05,1.4342464e-06,-0.00013094381,0.0
89249712,5.898281e-05,-5.563067e-07,-0.00012931724,0.0
89269731,5.7001995e-05,1.854944e-07,-0.00012943047,0.0
89289687,5.597525e-05,-1.851837e-06,-0.0001287218,0.0
89309683,5.5829518e-05,-5.1015803e-07,-0.00012830591,0.0
89329693,5.2454918e-05,-1.2641788e-06,-0.00012920146,0.0
89349722,5.4630244e-05,-7.412585e-07,-0.00012861464,0.0
89369749,5.4221706e-05,-2.7424707e-07,-0.0001277693,0.0
89389717,5.5833312e-05,3.565685e-07,-0.00012989008,0.0
89409792,5.6301833e-05,-2.8423378e-07,-0.00013027534,0.0
89429696,5.8396963e-05,8.51465e-07,-0.00012943122,0.0
89449681,6.12881e-05,9.2962085e-07,-0.00013010824,0.0
89469698,6.589095e-05,-1.6866449e-07,-0.00013037265,0.0
89489654,6.808465e-05,-1.4692762e-06,-0.00012872247,0.0
89509847,7.156408e-05,1.17123044e-07,-0.00013098,0.0
89529683,7.596266e-05,1.088373e-06,-0.00012985931,0.0
89549781,7.905636e-05,1.2845127e-06,-0.0001322792,0.0
89569826,8.230268e-05,-1.1220408e-06,-0.00013347961,0.0
89589778,8.264967e-05,-4.89052e-07,-0.00013201637,0.0
89609749,8.4342886e-05,-9.09926e-07,-0.00013372213,0.0
89629765,8.411956e-05,-4.971581e-07,-0.00013290792,0.0
89649773,8.068597e-05,1.4428781e-06,-0.00013067112,0.0
89669787,8.243019e-05,1.1326758e-06,-0.00013130097,0.0
89689903,7.778165e-05,2.2223401e-07,-0.00013118311,0.0
89710070,7.5251526e-05,-3.8472726e-07,-0.000131065,0.0
89729958,7.303356e-05,-9.709623e-07,-0.00013017665,0.0
89749942,7.003068e-05,-1.7038752e-06,-0.00013013814,0.0
89769916,6.508483e-05,2.75317e-07,-0.00013002443,0.0
89789830,6.201583e-05,1.9168801e-06,-0.00012896741,0.0
