timestamp,roll,pitch,yaw,thrust_body[0],thrust_body[1],thrust_body[2]
133185502,0.004280746,0.03823133,3.3041008,0.0,0.0,0.0
133189476,0.0043623396,0.03827352,3.3040724,0.0,0.0,0.0
133193459,0.0043874667,0.038265295,3.3040652,0.0,0.0,0.0
133197523,0.004366866,0.038277674,3.3040419,0.0,0.0,0.0
133201501,0.0043664984,0.038325626,3.3040423,0.0,0.0,0.0
133205488,0.0043636495,0.038348608,3.3040102,0.0,0.0,0.0
133209501,0.0043665553,0.03838482,3.3039937,0.0,0.0,0.0
133213472,0.004335804,0.038401313,3.3039722,0.0,0.0,0.0
133217522,0.004343808,0.038402863,3.3039682,0.0,0.0,0.0
133221555,0.0043698545,0.038428273,3.3039496,0.0,0.0,0.0
133225497,0.00432908,0.03848332,3.303936,0.0,0.0,0.0
133229500,0.0043363567,0.0385145,3.303938,0.0,0.0,0.0
133233460,0.004368088,0.03852026,3.3039546,0.0,0.0,0.0
133237489,0.0043508583,0.038524423,3.303955,0.0,0.0,0.0
133241491,0.0043464955,0.0385117,3.3039644,0.0,0.0,0.0
133245508,0.0043201926,0.0385451,3.3039725,0.0,0.0,0.0
133249493,0.004264142,0.038541254,3.3039713,0.0,0.0,0.0
133253464,0.0042853435,0.038568575,3.30396,0.0,0.0,0.0
133257523,0.004302263,0.038624033,3.3039644,0.0,0.0,0.0
133261510,0.004327913,0.038625516,3.3039768,0.0,0.0,0.0
133265492,0.0043385956,0.038624015,3.3039742,0.0,0.0,0.0
133269543,0.0043809675,0.038645633,3.303983,0.0,0.0,0.0
133273460,0.0044617136,0.03866101,3.3039908,0.0,0.0,0.0
133277525,0.004483693,0.03862592,3.3039997,0.0,0.0,0.0
133281493,0.0044479766,0.03862412,3.3040023,0.0,0.0,0.0
133285493,0.0044184043,0.03866369,3.304017,0.0,0.0,0.0
133289541,0.004424244,0.038676616,3.3040342,0.0,0.0,0.0
133293475,0.004425766,0.038650345,3.3040473,0.0,0.0,0.0
133297516,0.0044640056,0.038711037,3.3040495,0.0,0.0,0.0
133301459,0.0044486593,0.038753025,3.3040612,0.0,0.0,0.0
133305473,0.0044223904,0.038804613,3.304076,0.0,0.0,0.0
133309539,0.0044441563,0.038866017,3.304076,0.0,0.0,0.0
133313456,0.0044627604,0.038913578,3.304068,0.0,0.0,0.0
133317515,0.0044830586,0.038935132,3.3040724,0.0,0.0,0.0
133321466,0.004520095,0.038986772,3.304089,0.0,0.0,0.0
133325472,0.004545824,0.03904063,3.3040946,0.0,0.0,0.0
133329523,0.0045965593,0.039045304,3.3040853,0.0,0.0,0.0
133333462,0.004660137,0.039035436,3.304089,0.0,0.0,0.0
133337532,0.00463709,0.03901957,3.3040872,0.0,0.0,0.0
133341462,0.004601326,0.039034445,3.3040752,0.0,0.0,0.0
133345479,0.0045935265,0.03905347,3.304076,0.0,0.0,0.0
133349535,0.004614215,0.03908393,3.304069,0.0,0.0,0.0
133353500,0.0046430365,0.03912366,3.3040648,0.0,0.0,0.0
133357526,0.004642985,0.0391082,3.3040643,0.0,0.0,0.0
133361459,0.004620749,0.03911857,3.3040724,0.0,0.0,0.0
133365482,0.004645712,0.03917677,3.3040776,0.0,0.0,0.0
133369506,0.0046931254,0.03920083,3.304102,0.0,0.0,0.0
133373492,0.0046887537,0.03921299,3.3041131,0.0,0.0,0.0
133377514,0.0046369242,0.039292276,3.3041244,0.0,0.0,0.0
133381460,0.0045898724,0.03930407,3.304126,0.0,0.0,0.0
133385469,0.004642008,0.039367713,3.3041415,0.0,0.0,0.0
133389510,0.004721226,0.039366942,3.304138,0.0,0.0,0.0
133393503,0.004780578,0.039335024,3.3041477,0.0,0.0,0.0
133397528,0.0048048333,0.039397914,3.304141,0.0,0.0,0.0
133401459,0.004838608,0.039430022,3.3041255,0.0,0.0,0.0
133405465,0.0048595453,0.039468296,3.3041139,0.0,0.0,0.0
133409487,0.004867218,0.039476253,3.304094,0.0,0.0,0.0
133413523,0.0048535597,0.039501432,3.304084,0.0,0.0,0.0
133721470,0.005049316,0.04056022,3.3041322,0.0,0.0,0.0
133725503,0.0050376346,0.040618103,3.3041341,0.0,0.0,0.0
133729511,0.005042615,0.040683344,3.3041232,0.0,0.0,0.0
133733504,0.005043905,0.04069254,3.304125,0.0,0.0,0.0
133737496,0.005023809,0.040673345,3.3041193,0.0,0.0,0.0
133741520,0.0050734477,0.040721748,3.3041193,0.0,0.0,0.0
133745472,0.005060721,0.040795185,3.3041115,0.0,0.0,0.0
133749506,0.005093019,0.040810883,3.3040915,0.0,0.0,0.0
133753555,0.005091344,0.04085034,3.3040907,0.0,0.0,0.0
133757507,0.0051030116,0.040874653,3.304084,0.0,0.0,0.0
133813545,0.005124872,0.041048847,3.3039608,0.0,0.0,0.0
133817502,0.005092519,0.041052468,3.3039577,0.0,0.0,0.0
133821517,0.0050817076,0.041061763,3.3039408,0.0,0.0,0.0
133825477,0.005144523,0.0410925,3.3039463,0.0,0.0,0.0
133829498,0.005218748,0.041120503,3.3039339,0.0,0.0,0.0
133833527,0.005240226,0.0411113,3.3039317,0.0,0.0,0.0
133837562,0.005247802,0.041134603,3.303918,0.0,0.0,0.0
133841500,0.005233122,0.041149896,3.3039079,0.0,0.0,0.0
133845473,0.0051816255,0.041110054,3.3038943,0.0,0.0,0.0
133849490,0.0051999306,0.041086655,3.3038857,0.0,0.0,0.0
133853530,0.0051782597,0.041064814,3.3038838,0.0,0.0,0.0
133857571,0.0051957397,0.041083153,3.3038888,0.0,0.0,0.0
133861510,0.0052500376,0.041050754,3.3038814,0.0,0.0,0.0
133865493,0.0052893604,0.0410753,3.303859,0.0,0.0,0.0
133869483,0.0052948776,0.04108923,3.3038504,0.0,0.0,0.0
133873515,0.005307805,0.041129053,3.3038297,0.0,0.0,0.0
133877531,0.0053248676,0.041153606,3.3038275,0.0,0.0,0.0
133881490,0.0053695263,0.041173954,3.3038359,0.0,0.0,0.0
133885463,0.0054424857,0.041203197,3.3038125,0.0,0.0,0.0
133889465,0.0054877475,0.04122293,3.3038087,0.0,0.0,0.0
133893467,0.0055205044,0.041217215,3.3037977,0.0,0.0,0.0
133897550,0.005558125,0.041207418,3.3037853,0.0,0.0,0.0
133901501,0.0055609867,0.041209895,3.3037882,0.0,0.0,0.0
133905466,0.0055224802,0.041291237,3.303785,0.0,0.0,0.0
133909501,0.0055202013,0.04130531,3.303785,0.0,0.0,0.0
133913472,0.0055091195,0.041329518,3.3037846,0.0,0.0,0.0
133916690,0.0055212495,0.04131972,3.3037796,0.0,0.0,0.0
133921489,0.005531268,0.041338596,3.3037765,0.0,0.0,0.0
133925459,0.005525591,0.041375954,3.303766,0.0,0.0,0.0
133929503,0.0055211186,0.0414108,3.303754,0.0,0.0,0.0
133933462,0.0055765626,0.0414362,3.3037605,0.0,0.0,0.0
133937567,0.005610656,0.04147567,3.303763,0.0,0.0,0.0
133941562,-0.005147479,0.041561447,2.3210514e-06,0.0,0.0,-0.0
133945459,-0.0051436727,0.041583985,6.85658e-06,0.0,0.0,-0.0
133949531,-0.0051118275,0.041659206,-1.8270403e-06,0.0,0.0,-0.0
133953473,-0.0051323604,0.041678466,-2.2050239e-05,0.0,0.0,-0.0
133957538,-0.0051230243,0.041681655,-6.9008097e-06,0.0,0.0,-0.0
133961534,-0.005096236,0.041684274,2.7016063e-06,0.0,0.0,-0.0
133965461,-0.0050537097,0.041696645,-1.6044261e-06,0.0,0.0,-0.0
133969498,-0.0050516096,0.041717026,-1.52110615e-05,0.0,0.0,-0.0
133973486,-0.0050471593,0.041762277,-1.3675354e-05,0.0,0.0,-0.0
133977562,-0.0049944785,0.041793976,-7.223589e-06,0.0,0.0,-0.0
133981535,-0.004944415,0.04181931,-3.784858e-05,0.0,0.0,-0.0
133985474,-0.004956129,0.04185222,-3.784858e-05,0.0,0.0,-0.0
133989508,-0.0049845586,0.041898925,-4.1235893e-05,0.0,0.0,-0.0
133993472,-0.0049593793,0.04190683,-5.6196834e-05,0.0,0.0,-0.0
133997513,-0.0049980907,0.041975543,-6.3101024e-06,0.0,0.0,-0.0
134001549,-0.0050089145,0.042008936,-1.1027404e-05,0.0,0.0,-0.0
134005488,-0.004967679,0.04202311,-2.2251808e-05,0.0,0.0,-0.0
134009491,-0.004964165,0.042007007,-5.0083225e-05,0.0,0.0,-0.0
134013467,-0.0049664453,0.04198893,-6.7379166e-05,0.0,0.0,-0.0
134017555,-0.004951724,0.04200457,-6.604532e-06,0.0,0.0,-0.0
134021527,-0.0049175397,0.041983265,2.0316493e-06,0.0,0.0,-0.0
134025510,-0.004887201,0.04196538,2.3246437e-05,0.0,0.0,-0.0
134029515,-0.004883701,0.041974187,1.7911714e-05,0.0,0.0,-0.0
134033494,-0.00491014,0.042005222,-1.4277539e-06,0.0,0.0,-0.0
134037575,-0.00491733,0.041989047,-6.6119146e-06,0.0,0.0,-0.0
134041458,-0.004902141,0.041999232,-7.5066005e-06,0.0,0.0,-0.0
134045497,-0.004887713,0.04199232,-9.200316e-06,0.0,0.0,-0.0
134049495,-0.004859522,0.04198683,1.26793e-05,0.0,0.0,-0.0
134053458,-0.0048172073,0.041983996,2.6855987e-05,0.0,0.0,-0.0
134057525,-0.0047996785,0.041981872,-6.1772043e-06,0.0,0.0,-0.0
134061471,-0.0047811847,0.042032845,-9.358784e-06,0.0,0.0,-0.0
134065499,-0.004752605,0.042037774,3.6550064e-06,0.0,0.0,-0.0
134069500,-0.0047233137,0.04205925,1.2004454e-06,0.0,0.0,-0.0
134073476,-0.004732368,0.042078752,-1.36886765e-05,0.0,0.0,-0.0
134077536,-0.004796446,0.04208998,-6.9469493e-06,0.0,0.0,-0.0
134081464,-0.004810286,0.04209794,-4.2726057e-05,0.0,0.0,-0.0
134085501,-0.0048547843,0.04211147,-5.335749e-05,0.0,0.0,-0.0
134089541,-0.0048776423,0.042097576,-4.1166146e-05,0.0,0.0,-0.0
134093465,-0.004917012,0.04211407,-3.086037e-05,0.0,0.0,-0.0
134097521,-0.0049240617,0.042207938,-7.0067654e-06,0.0,0.0,-0.0
134101462,-0.0049420404,0.042273093,-1.2753143e-05,0.0,0.0,-0.0
134105503,-0.0049272156,0.04228063,-2.7009928e-06,0.0,0.0,-0.0
134109541,-0.0049679214,0.042340636,2.2954002e-05,0.0,0.0,-0.0
134113465,-0.004966729,0.042441964,4.560886e-05,0.0,0.0,-0.0
134117600,-0.0049933125,0.042457465,-7.307658e-06,0.0,0.0,-0.0
134121471,-0.005053239,0.042457607,-6.1835003e-06,0.0,0.0,-0.0
134125491,-0.0050453274,0.04248215,-1.3173709e-05,0.0,0.0,-0.0
134129540,-0.0050459723,0.042508494,-7.877182e-06,0.0,0.0,-0.0
134133461,-0.0050186343,0.04253785,-1.9489034e-05,0.0,0.0,-0.0
134137518,-0.0049910564,0.042608824,-6.925014e-06,0.0,0.0,-0.0
134141459,-0.004954901,0.042640775,-9.101802e-06,0.0,0.0,-0.0
134145508,-0.0049605523,0.042667914,-1.3843284e-05,0.0,0.0,-0.0
134149522,-0.00498589,0.042725362,-1.4024928e-05,0.0,0.0,-0.0
134153475,-0.0049637696,0.042772382,1.4815976e-06,0.0,0.0,-0.0
134157542,-0.00493345,0.042830527,-7.540536e-06,0.0,0.0,-0.0
134161456,-0.0048858994,0.042866457,1.3056586e-05,0.0,0.0,-0.0
134165514,-0.0048827087,0.04289402,1.1630538e-05,0.0,0.0,-0.0
134173477,-0.004900898,0.042936023,3.2892753e-05,0.0,0.0,-0.0
134177523,-0.0049133906,0.042988908,-7.0596643e-06,0.0,0.0,-0.0
134181461,-0.0049009477,0.04304488,-1.3882156e-05,0.0,0.0,-0.0
134185484,-0.004869142,0.043070897,-2.2106586e-05,0.0,0.0,-0.0
134189540,-0.004820462,0.04313036,-2.3073235e-05,0.0,0.0,-0.0
134193523,-0.004802623,0.043179397,-2.9114847e-06,0.0,0.0,-0.0
134197534,-0.004773715,0.04319789,-6.966484e-06,0.0,0.0,-0.0
134201458,-0.0047668465,0.043233484,1.3874217e-05,0.0,0.0,-0.0
134205509,-0.004759498,0.043263596,1.1213952e-05,0.0,0.0,-0.0
134209463,-0.0047236425,0.04327172,-1.33633575e-05,0.0,0.0,-0.0
134213501,-0.004729243,0.043288235,-3.0042005e-05,0.0,0.0,-0.0
134217521,-0.0047299736,0.04331957,-6.4729375e-06,0.0,0.0,-0.0
134221481,-0.004708463,0.043342452,7.894717e-06,0.0,0.0,-0.0
134225496,-0.004658602,0.04335223,-2.9055322e-05,0.0,0.0,-0.0
134229501,-0.004625893,0.04335642,-4.7657264e-05,0.0,0.0,-0.0
134233495,-0.0046229325,0.043352745,-6.905342e-05,0.0,0.0,-0.0
134237537,-0.004606569,0.043352395,-6.640545e-06,0.0,0.0,-0.0
134241459,-0.0046037673,0.043313622,-9.300891e-06,0.0,0.0,-0.0
134245503,-0.0045795795,0.043305937,-7.099948e-06,0.0,0.0,-0.0
134249462,-0.0045687635,0.043318294,-8.553908e-08,0.0,0.0,-0.0
134253501,-0.0045276717,0.04333585,-2.7458955e-06,0.0,0.0,-0.0
134257621,-0.0045355307,0.04329911,-6.562359e-06,0.0,0.0,-0.0
134261466,-0.0045463047,0.04328432,-2.1040503e-05,0.0,0.0,-0.0
134265497,-0.0045426707,0.043383494,-3.5107118e-05,0.0,0.0,-0.0
134269458,-0.004591688,0.04340326,-5.8584876e-05,0.0,0.0,-0.0
134273510,-0.0045746034,0.043416817,-6.591486e-05,0.0,0.0,-0.0
134277573,-0.004538456,0.043416984,-6.578439e-06,0.0,0.0,-0.0
134281474,-0.004526402,0.04340536,-1.0013701e-05,0.0,0.0,-0.0
134285522,-0.004514735,0.043355174,-2.334183e-08,0.0,0.0,-0.0
134289458,-0.0044465163,0.043346085,-1.3013715e-05,0.0,0.0,-0.0
134293521,-0.0044100406,0.04331538,-1.1238267e-06,0.0,0.0,-0.0
134297575,-0.004437442,0.043366894,-5.772474e-06,0.0,0.0,-0.0
134301479,-0.004458742,0.043436244,-4.853629e-06,0.0,0.0,-0.0
134305514,-0.0045021195,0.043480918,-2.3130592e-06,0.0,0.0,-0.0
134309471,-0.0045180446,0.04357002,5.657939e-06,0.0,0.0,-0.0
134313487,-0.004544246,0.043658786,-6.642996e-06,0.0,0.0,-0.0
134317561,-0.004537004,0.043719847,-6.818608e-06,0.0,0.0,-0.0
134321468,-0.004563264,0.043756366,-9.612818e-06,0.0,0.0,-0.0
134325514,-0.0045974534,0.04378995,-1.8296912e-05,0.0,0.0,-0.0
134329455,-0.0046226084,0.043781407,-5.8889567e-05,0.0,0.0,-0.0
134333486,-0.0046451613,0.04388075,-7.879859e-05,0.0,0.0,-0.0
134337571,-0.00466503,0.04394527,-6.4999977e-06,0.0,0.0,-0.0
134341481,-0.004687989,0.04399288,8.849153e-06,0.0,0.0,-0.0
134345500,-0.0047362912,0.043982722,1.6590893e-05,0.0,0.0,-0.0
134349463,-0.0048062354,0.04401151,3.379169e-05,0.0,0.0,-0.0
134353488,-0.0048400797,0.04405155,3.2351578e-05,0.0,0.0,-0.0
134357563,-0.004807283,0.044096727,-6.6402044e-06,0.0,0.0,-0.0
134361505,-0.0047903494,0.044142038,-2.0066042e-05,0.0,0.0,-0.0
134365510,-0.004795869,0.044171046,-2.6089805e-05,0.0,0.0,-0.0
134369466,-0.004732359,0.044192184,-1.7090151e-05,0.0,0.0,-0.0
134373510,-0.004679361,0.044205084,-1.0195343e-05,0.0,0.0,-0.0
134377528,-0.0047178427,0.04419882,-6.6509865e-06,0.0,0.0,-0.0
134381499,-0.004720628,0.04420587,1.054973e-05,0.0,0.0,-0.0
134385513,-0.004747733,0.044167705,4.0665545e-06,0.0,0.0,-0.0
134389462,-0.004780345,0.04415673,-2.6702514e-06,0.0,0.0,-0.0
134393491,-0.004829776,0.044190362,6.8608033e-06,0.0,0.0,-0.0
134397520,-0.004809901,0.044179633,-7.1189206e-06,0.0,0.0,-0.0
134401535,-0.0048202034,0.044210956,-1.0807849e-05,0.0,0.0,-0.0
134405489,-0.004824889,0.044291887,-1.2707386e-05,0.0,0.0,-0.0
134409461,-0.0048438534,0.044266246,1.16894535e-05,0.0,0.0,-0.0
134413506,-0.004860475,0.04429324,4.7999703e-05,0.0,0.0,-0.0
134417501,-0.004882137,0.04432882,-6.8188388e-06,0.0,0.0,-0.0
134421548,-0.004917325,0.044350285,-4.0864907e-06,0.0,0.0,-0.0
134425500,-0.0048849913,0.044367097,-1.084728e-05,0.0,0.0,-0.0
134428733,-0.0048756944,0.044427898,-2.291867e-05,0.0,0.0,-0.0
134433492,-0.0048197554,0.04446457,-2.132063e-05,0.0,0.0,-0.0
134437495,-0.0048121684,0.044509515,-7.5089065e-06,0.0,0.0,-0.0
134441526,-0.004829889,0.044519387,-2.2580352e-05,0.0,0.0,-0.0
134445533,-0.0048113572,0.044513077,-2.1939284e-05,0.0,0.0,-0.0
134449456,-0.0048015895,0.044501938,-2.693445e-05,0.0,0.0,-0.0
134453519,-0.0048198663,0.044482883,-1.939873e-05,0.0,0.0,-0.0
134457490,-0.00482319,0.04445297,-7.3467836e-06,0.0,0.0,-0.0
134461511,-0.004888487,0.044437267,1.8445787e-06,0.0,0.0,-0.0
134465562,-0.0048442953,0.044424772,-3.5641202e-07,0.0,0.0,-0.0
134469467,-0.0048451596,0.044415902,-1.2609592e-05,0.0,0.0,-0.0
134473493,-0.004826126,0.044464298,-2.3906303e-05,0.0,0.0,-0.0
134477486,-0.0048517464,0.044507373,-6.867959e-06,0.0,0.0,-0.0
134481516,-0.004857763,0.04452536,-4.944779e-06,0.0,0.0,-0.0
134485502,-0.004849973,0.044520773,-2.1505543e-06,0.0,0.0,-0.0
134489454,-0.0048894794,0.044525824,1.4614754e-05,0.0,0.0,-0.0
134493509,-0.00491213,0.044551283,6.873169e-06,0.0,0.0,-0.0
134497496,-0.004898533,0.04455967,-6.7266683e-06,0.0,0.0,-0.0
134501502,-0.0048849285,0.044570547,-9.31507e-06,0.0,0.0,-0.0
134505497,-0.0049018986,0.044640202,3.9048036e-06,0.0,0.0,-0.0
134509484,-0.0049022203,0.044660054,9.674853e-06,0.0,0.0,-0.0
134513513,-0.0049075168,0.044663057,8.78017e-06,0.0,0.0,-0.0
134517497,-0.00485977,0.04471849,-7.1457825e-06,0.0,0.0,-0.0
134521493,-0.004859029,0.04473794,-1.8624161e-05,0.0,0.0,-0.0
134525504,-0.0048474083,0.044782676,-2.0911133e-05,0.0,0.0,-0.0
134529545,-0.0048769056,0.044824876,-2.984895e-05,0.0,0.0,-0.0
134533490,-0.004943193,0.044872552,-2.2471082e-05,0.0,0.0,-0.0
134537511,-0.004972151,0.044903878,-7.3506403e-06,0.0,0.0,-0.0
134541505,-0.004946001,0.044929594,-1.3034799e-05,0.0,0.0,-0.0
134545472,-0.004945028,0.044961914,-7.4941154e-06,0.0,0.0,-0.0
134549511,-0.0049663424,0.044999484,3.9843244e-06,0.0,0.0,-0.0
134553512,-0.0049899444,0.045059714,1.2983929e-05,0.0,0.0,-0.0
134557522,-0.0049639796,0.045050446,-7.5536304e-06,0.0,0.0,-0.0
134561498,-0.0049650213,0.045051955,-1.1122719e-05,0.0,0.0,-0.0
134565516,-0.004977127,0.045108948,-1.1654165e-05,0.0,0.0,-0.0
134569507,-0.0049836976,0.0451444,-3.3332676e-06,0.0,0.0,-0.0
134573500,-0.00495462,0.045191336,1.168999e-05,0.0,0.0,-0.0
134577489,-0.00495,0.045227665,-7.411313e-06,0.0,0.0,-0.0
134581503,-0.004895637,0.045278035,1.9707488e-05,0.0,0.0,-0.0
134585473,-0.0048825354,0.045273423,2.319056e-05,0.0,0.0,-0.0
134589514,-0.004858219,0.045287807,2.3396356e-05,0.0,0.0,-0.0
134593550,-0.004852726,0.04536669,2.2477514e-05,0.0,0.0,-0.0
134597521,-0.004847677,0.045390278,-6.7475376e-06,0.0,0.0,-0.0
134601494,-0.0047946475,0.045403436,-1.958199e-06,0.0,0.0,-0.0
134605458,-0.0047600023,0.045424897,7.13739e-06,0.0,0.0,-0.0
134609506,-0.004774126,0.045482926,1.9002962e-05,0.0,0.0,-0.0
134613493,-0.004804251,0.045510594,8.118034e-06,0.0,0.0,-0.0
134617525,-0.00481992,0.04556375,-7.080528e-06,0.0,0.0,-0.0
134621560,-0.0048498902,0.045524746,-1.3563608e-05,0.0,0.0,-0.0
134625468,-0.004858617,0.045538526,1.51628155e-05,0.0,0.0,-0.0
134629524,-0.0048743133,0.045581654,7.5663695e-07,0.0,0.0,-0.0
134633562,-0.0049267304,0.045591738,-1.4688263e-05,0.0,0.0,-0.0
134637530,-0.004922669,0.045611434,-6.917011e-06,0.0,0.0,-0.0
134641505,-0.004890795,0.04567089,-1.319432e-05,0.0,0.0,-0.0
134645458,-0.004892439,0.045758627,-2.8060065e-05,0.0,0.0,-0.0
134649492,-0.0048555858,0.045826543,-2.8701119e-05,0.0,0.0,-0.0
134653502,-0.0048405463,0.045841977,-3.6925798e-05,0.0,0.0,-0.0
134657540,-0.0048506227,0.04581178,-7.922811e-06,0.0,0.0,-0.0
134661524,-0.004837188,0.045825467,-2.3429693e-05,0.0,0.0,-0.0
134665462,-0.0048361286,0.045877203,-2.9779043e-05,0.0,0.0,-0.0
134669526,-0.004840002,0.045910165,-3.8960807e-05,0.0,0.0,-0.0
134673494,-0.0048245927,0.045892872,-3.6396003e-05,0.0,0.0,-0.0
134677584,-0.004792795,0.045919653,-7.3451597e-06,0.0,0.0,-0.0
134681516,-0.0047858087,0.045913205,-3.1967993e-06,0.0,0.0,-0.0
134685468,-0.0047699567,0.045931697,2.7791002e-06,0.0,0.0,-0.0
134689489,-0.004775855,0.04596396,-1.6330796e-05,0.0,0.0,-0.0
134693498,-0.0047542555,0.045976777,-3.442623e-05,0.0,0.0,-0.0
134697560,-0.0047048847,0.046040826,-6.980517e-06,0.0,0.0,-0.0
134701497,-0.004693555,0.046129122,-1.923389e-05,0.0,0.0,-0.0
134705478,-0.004686002,0.04621176,-7.114318e-06,0.0,0.0,-0.0
134709498,-0.0047110817,0.046280723,-9.702761e-06,0.0,0.0,-0.0
134713470,-0.004719006,0.04629157,-2.1085632e-05,0.0,0.0,-0.0
134717585,-0.004732857,0.046355013,-6.9130115e-06,0.0,0.0,-0.0
134721531,-0.0047631627,0.046412833,-1.27073745e-05,0.0,0.0,-0.0
134725491,-0.004795569,0.046468236,-1.1980317e-05,0.0,0.0,-0.0
134729489,-0.004817263,0.046501268,-1.5669302e-05,0.0,0.0,-0.0
134733513,-0.0047919685,0.046564914,-1.4908405e-05,0.0,0.0,-0.0
134737555,-0.0047964505,0.04659521,-6.5760432e-06,0.0,0.0,-0.0
134741459,-0.0047631385,0.046612218,8.337892e-06,0.0,0.0,-0.0
134745468,-0.0047819894,0.04664111,2.3203966e-05,0.0,0.0,-0.0
134749510,-0.0048112087,0.046688896,6.003076e-06,0.0,0.0,-0.0
134753474,-0.004798994,0.046709094,-9.116696e-06,0.0,0.0,-0.0
134757570,-0.004773,0.04671833,-7.5880853e-06,0.0,0.0,-0.0
134761477,-0.00481166,0.04679526,-1.8559474e-05,0.0,0.0,-0.0
134765465,-0.0048617492,0.04682346,-2.8344364e-05,0.0,0.0,-0.0
134769495,-0.004882559,0.04685582,-3.0885032e-05,0.0,0.0,-0.0
134773461,-0.0048755105,0.04687143,-4.2798976e-05,0.0,0.0,-0.0
134777560,-0.0048379665,0.046887703,-7.047976e-06,0.0,0.0,-0.0
134781498,-0.0048280936,0.046886966,-1.4498099e-05,0.0,0.0,-0.0
134785467,-0.004883704,0.04689269,-4.7254754e-05,0.0,0.0,-0.0
134789537,-0.004878348,0.046934176,-8.7959554e-05,0.0,0.0,-0.0
134793469,-0.0048870766,0.046948563,-0.00012271201,0.0,0.0,-0.0
134797563,-0.004893265,0.04697441,-6.846668e-06,0.0,0.0,-0.0
134801495,-0.004877438,0.04697003,3.9193765e-06,0.0,0.0,-0.0
134805460,-0.0048864284,0.04698543,-5.540244e-06,0.0,0.0,-0.0
134809506,-0.0048401076,0.04697658,-1.0899738e-05,0.0,0.0,-0.0
134813464,-0.004854913,0.047028717,-4.645506e-06,0.0,0.0,-0.0
134817562,-0.0048831906,0.0470484,-7.645794e-06,0.0,0.0,-0.0
134821542,-0.004945479,0.04708151,-2.1665812e-05,0.0,0.0,-0.0
134825468,-0.0049405224,0.047085308,-2.4000763e-05,0.0,0.0,-0.0
134829499,-0.004971209,0.04708404,-4.0016163e-05,0.0,0.0,-0.0
134833460,-0.004971249,0.04710251,-6.162055e-05,0.0,0.0,-0.0
134837564,-0.0049686255,0.047148682,-7.844947e-06,0.0,0.0,-0.0
134841508,-0.0049524293,0.047151376,-7.639082e-06,0.0,0.0,-0.0
134845462,-0.0049448656,0.04717858,-1.712321e-05,0.0,0.0,-0.0
134849503,-0.0049953326,0.047157634,-4.275576e-06,0.0,0.0,-0.0
134853468,-0.0050340663,0.047150217,-1.9688376e-05,0.0,0.0,-0.0
134857534,-0.0050394647,0.047174428,-8.175583e-06,0.0,0.0,-0.0
134861498,-0.005064572,0.047148135,-2.3851755e-05,0.0,0.0,-0.0
134865490,-0.005083657,0.04711883,-1.842076e-05,0.0,0.0,-0.0
134869496,-0.0051140534,0.047075197,-1.5626238e-05,0.0,0.0,-0.0
134873461,-0.0051330216,0.0470477,-1.8989756e-05,0.0,0.0,-0.0
134877568,-0.005121461,0.047039535,-8.2145625e-06,0.0,0.0,-0.0
134881469,-0.0050951038,0.04705063,-3.1307645e-05,0.0,0.0,-0.0
134885510,-0.0050968593,0.047017403,-5.0917406e-05,0.0,0.0,-0.0
134889465,-0.005073627,0.047009446,-5.4013417e-05,0.0,0.0,-0.0
134893465,-0.005031101,0.047045514,-6.200973e-05,0.0,0.0,-0.0
134897515,-0.005105612,0.047067367,-8.040346e-06,0.0,0.0,-0.0
134901476,-0.0051416517,0.04708807,1.7836873e-06,0.0,0.0,-0.0
134905515,-0.00512431,0.047133774,-4.4708954e-06,0.0,0.0,-0.0
134909458,-0.005096761,0.047194008,1.933557e-05,0.0,0.0,-0.0
134913466,-0.005090896,0.047176898,3.33084e-05,0.0,0.0,-0.0
134917545,-0.0050876276,0.047181405,-6.9671414e-06,0.0,0.0,-0.0
134921499,-0.0050252452,0.047191266,-1.0354995e-05,0.0,0.0,-0.0
134925543,-0.004988637,0.047223978,-1.4757489e-05,0.0,0.0,-0.0
134929481,-0.0049654157,0.047278855,-1.7781389e-05,0.0,0.0,-0.0
134933472,-0.0049666567,0.047314435,-2.4906338e-05,0.0,0.0,-0.0
134937544,-0.0049926704,0.0473503,-7.755203e-06,0.0,0.0,-0.0
134941461,-0.0050552124,0.047405545,-1.2545154e-05,0.0,0.0,-0.0
134945521,-0.005100631,0.047442332,-4.4872127e-06,0.0,0.0,-0.0
134949507,-0.0051293406,0.04744554,-1.0368214e-05,0.0,0.0,-0.0
134953470,-0.005118892,0.047471043,-2.2790504e-05,0.0,0.0,-0.0
134957527,-0.005116632,0.047493752,-8.628632e-06,0.0,0.0,-0.0
134961479,-0.0050666025,0.04753649,-2.4137493e-05,0.0,0.0,-0.0
134965509,-0.0050309426,0.047581792,-4.8270038e-05,0.0,0.0,-0.0
134969515,-0.00504752,0.04764162,-6.467379e-05,0.0,0.0,-0.0
134973509,-0.0050621103,0.047646508,-5.6701694e-05,0.0,0.0,-0.0
134977536,-0.005118827,0.0477108,-8.0272e-06,0.0,0.0,-0.0
134981468,-0.005119412,0.047732696,3.241331e-05,0.0,0.0,-0.0
134985502,-0.0051063877,0.04772522,6.0502425e-05,0.0,0.0,-0.0
134989511,-0.0050845062,0.04773144,7.4111296e-05,0.0,0.0,-0.0
134993506,-0.0051091397,0.04775191,8.1623686e-05,0.0,0.0,-0.0
134997541,-0.005131559,0.04776113,-7.710798e-06,0.0,0.0,-0.0
135001476,-0.0051704207,0.047769174,1.2381684e-05,0.0,0.0,-0.0
135005525,-0.005153311,0.047779612,2.2966458e-05,0.0,0.0,-0.0
135009512,-0.005149924,0.047782246,1.9616833e-05,0.0,0.0,-0.0
135013478,-0.005188087,0.047812764,2.4406696e-05,0.0,0.0,-0.0
135017539,-0.005170894,0.047883026,-8.3784325e-06,0.0,0.0,-0.0
135021512,-0.005147764,0.047922593,-8.837951e-06,0.0,0.0,-0.0
135025488,-0.0051187654,0.04797399,-1.680973e-05,0.0,0.0,-0.0
135029499,-0.005134949,0.047953736,-5.583926e-06,0.0,0.0,-0.0
135033502,-0.0051228167,0.048003353,1.335026e-06,0.0,0.0,-0.0
135037526,-0.0051671495,0.04801489,-7.3491196e-06,0.0,0.0,-0.0
135041459,-0.005152442,0.047985267,2.8576485e-05,0.0,0.0,-0.0
135045506,-0.005108048,0.048009012,6.476937e-05,0.0,0.0,-0.0
135049471,-0.0051119835,0.04805543,7.0683884e-05,0.0,0.0,-0.0
135053532,-0.0051135775,0.048118323,7.8947196e-05,0.0,0.0,-0.0
135057490,-0.005097993,0.048095807,-8.145011e-06,0.0,0.0,-0.0
135061460,-0.005063369,0.04813271,1.9095198e-05,0.0,0.0,-0.0
135065497,-0.005012361,0.048153564,2.9133917e-05,0.0,0.0,-0.0
135069470,-0.005021713,0.048188414,3.877489e-05,0.0,0.0,-0.0
135073524,-0.005033802,0.04821507,5.719658e-05,0.0,0.0,-0.0
135077497,-0.0050402284,0.048265968,-8.259824e-06,0.0,0.0,-0.0
135081488,-0.005057335,0.048278086,-9.05891e-06,0.0,0.0,-0.0
135085496,-0.0050831037,0.048299227,1.9415113e-05,0.0,0.0,-0.0
135089485,-0.0051392727,0.04829271,5.6004228e-05,0.0,0.0,-0.0
135093542,-0.0051790946,0.04833318,9.6090145e-05,0.0,0.0,-0.0
135097573,-0.0052023022,0.04844805,-8.047568e-06,0.0,0.0,-0.0
135101457,-0.005266941,0.048492175,1.6891508e-06,0.0,0.0,-0.0
135105513,-0.0052989307,0.048536636,-3.0045614e-06,0.0,0.0,-0.0
135109469,-0.005337639,0.04855384,3.2727312e-06,0.0,0.0,-0.0
135113519,-0.005340046,0.048634503,1.4037918e-05,0.0,0.0,-0.0
135116680,-0.0053975703,0.048687413,1.2574167e-05,0.0,0.0,-0.0
135121484,-0.0054201027,0.048731733,-8.303145e-06,0.0,0.0,-0.0
135125498,-0.0054442505,0.048798922,2.7571376e-05,0.0,0.0,-0.0
135129469,-0.005443685,0.04883647,5.2742453e-05,0.0,0.0,-0.0
135133533,-0.005418018,0.04889344,6.6760986e-05,0.0,0.0,-0.0
135136699,-0.0054034316,0.048917167,8.077948e-05,0.0,0.0,-0.0
135141473,-0.005420191,0.048962355,-8.387932e-06,0.0,0.0,-0.0
135145507,-0.0053981147,0.048952334,-1.5669788e-05,0.0,0.0,-0.0
135149466,-0.0053792023,0.048991088,-2.948245e-05,0.0,0.0,-0.0
135153491,-0.0053796293,0.048996087,-5.7567246e-05,0.0,0.0,-0.0
135157533,-0.005397777,0.049029328,-3.9314567e-05,0.0,0.0,-0.0
135161507,-0.0054323873,0.04905143,4.971111e-06,0.0,0.0,-0.0
135165468,-0.0054758145,0.049129836,3.266837e-05,0.0,0.0,-0.0
135169456,-0.005476744,0.04919947,4.966247e-05,0.0,0.0,-0.0
135173500,-0.005490931,0.049261134,3.6443118e-05,0.0,0.0,-0.0
135177537,-0.0055333124,0.049262274,5.1863375e-05,0.0,0.0,-0.0
135182307,-0.0055062314,0.049304605,-8.356279e-06,0.0,0.0,-0.0
135186289,-0.0054638134,0.049325846,-1.8805611e-05,0.0,0.0,-0.0
135190275,-0.0054388815,0.049341783,-1.9059235e-05,0.0,0.0,-0.0
135194347,-0.0054310854,0.049350373,-9.867874e-06,0.0,0.0,-0.0
135197523,-0.005450634,0.049356595,-2.5145148e-06,0.0,0.0,-0.0
135201532,-0.0054820348,0.049406584,-1.14930735e-05,0.0,0.0,-0.0
135205465,-0.005491106,0.04944572,1.4136662e-05,0.0,0.0,-0.0
135208701,-0.005499352,0.049487516,2.4767538e-05,0.0,0.0,-0.0
135212731,-0.005499835,0.04956246,2.471969e-05,0.0,0.0,-0.0
135217562,-0.005499069,0.04964219,1.5442869e-05,0.0,0.0,-0.0
135221551,-0.0054882057,0.04965534,-1.1410405e-05,0.0,0.0,-0.0
135225461,-0.005483448,0.049678788,-6.66912e-06,0.0,0.0,-0.0
135229471,-0.005507788,0.049725965,-1.0817209e-05,0.0,0.0,-0.0
135233502,-0.0055044903,0.049748976,-2.7746196e-06,0.0,0.0,-0.0
135237539,-0.005479031,0.04981901,1.8468613e-06,0.0,0.0,-0.0
135241525,-0.0055202553,0.04986846,-2.4659544e-06,0.0,0.0,-0.0
135245467,-0.005541173,0.04993063,7.911237e-06,0.0,0.0,-0.0
135249478,-0.005562384,0.049980972,2.7723032e-05,0.0,0.0,-0.0
135253490,-0.0055450886,0.05001709,4.5477474e-05,0.0,0.0,-0.0
135257484,-0.0055294903,0.050006755,2.584775e-05,0.0,0.0,-0.0
135261538,-0.0055260197,0.050074182,9.063066e-06,0.0,0.0,-0.0
135265462,-0.005488523,0.050103594,-4.193322e-07,0.0,0.0,-0.0
135269468,-0.0054813176,0.050080936,-5.3422345e-06,0.0,0.0,-0.0
135273505,-0.0054437104,0.050082773,1.7468828e-05,0.0,0.0,-0.0
135277506,-0.0054035094,0.050067995,4.401659e-05,0.0,0.0,-0.0
135281509,-0.0054297014,0.05005812,1.6709735e-05,0.0,0.0,-0.0
135285501,-0.0054469965,0.05004887,3.4851186e-05,0.0,0.0,-0.0
135289507,-0.0054757074,0.050058264,6.203944e-05,0.0,0.0,-0.0
135293512,-0.005431221,0.0500903,8.180256e-05,0.0,0.0,-0.0
135297507,-0.005422256,0.05018758,7.523416e-05,0.0,0.0,-0.0
135301511,-0.0054156664,0.050278775,-1.7825048e-05,0.0,0.0,-0.0
135305492,-0.005420028,0.050342023,-1.9169222e-05,0.0,0.0,-0.0
135309472,-0.005455006,0.05039177,-9.940781e-06,0.0,0.0,-0.0
135313474,-0.0054458347,0.05049618,2.9245215e-05,0.0,0.0,-0.0
135317494,-0.0054081,0.050586075,2.7805314e-05,0.0,0.0,-0.0
135321499,-0.005403721,0.050605122,1.1162898e-05,0.0,0.0,-0.0
135325506,-0.005349797,0.050621677,2.2204436e-05,0.0,0.0,-0.0
135329476,-0.0053142426,0.050693464,4.7372778e-05,0.0,0.0,-0.0
135333526,-0.0053844745,0.0507625,7.263672e-05,0.0,0.0,-0.0
135337551,-0.0054069143,0.050759595,8.0037564e-05,0.0,0.0,-0.0
135341513,-0.0053849807,0.05077004,3.1671166e-06,0.0,0.0,-0.0
135344698,-0.0053634127,0.050784715,1.0060673e-05,0.0,0.0,-0.0
135348722,-0.0053644073,0.050831787,2.4766265e-05,0.0,0.0,-0.0
135351872,-0.005350401,0.050932437,3.894074e-05,0.0,0.0,-0.0
135359892,-0.0053522703,0.051109955,-8.725304e-06,0.0,0.0,-0.0
135364658,-0.005354288,0.051116046,-1.57834e-06,0.0,0.0,-0.0
135368712,-0.005319273,0.05116885,3.344085e-06,0.0,0.0,-0.0
135373466,-0.0053039384,0.05122691,6.1377746e-06,0.0,0.0,-0.0
135377542,-0.005246708,0.051278844,3.8033736e-06,0.0,0.0,-0.0
135381496,-0.0052064364,0.051286247,-1.2785579e-05,0.0,0.0,-0.0
135385472,-0.0052628415,0.051303014,-1.1938883e-05,0.0,0.0,-0.0
135389527,-0.0052566472,0.051295098,1.050638e-05,0.0,0.0,-0.0
135393459,-0.0052778465,0.051257074,2.3312468e-05,0.0,0.0,-0.0
135396677,-0.005317894,0.05131261,2.754594e-05,0.0,0.0,-0.0
135400663,-0.0053926995,0.051345803,-9.787044e-06,0.0,0.0,-0.0
135404667,-0.005413791,0.051351953,7.89329e-06,0.0,0.0,-0.0
135408707,-0.005423292,0.051404744,3.6843925e-05,0.0,0.0,-0.0
135415959,-0.005388299,0.051458206,5.5854012e-05,0.0,0.0,-0.0
135420661,-0.005412106,0.051485866,-9.692373e-06,0.0,0.0,-0.0
135424675,-0.0054085446,0.05150368,-3.717778e-06,0.0,0.0,-0.0
135428693,-0.00540103,0.051557392,3.191977e-05,0.0,0.0,-0.0
135432702,-0.00538522,0.051607765,6.792043e-05,0.0,0.0,-0.0
135436741,-0.0053713443,0.051657677,7.2756695e-05,0.0,0.0,-0.0
135440661,-0.005387801,0.051716562,-8.814534e-06,0.0,0.0,-0.0
135444666,-0.005401757,0.051767126,-2.5865183e-06,0.0,0.0,-0.0
135448707,-0.0054321676,0.051802166,1.5781878e-05,0.0,0.0,-0.0
135452712,-0.005481514,0.051814914,2.2469085e-05,0.0,0.0,-0.0
135457518,-0.0055143153,0.05177803,2.487516e-05,0.0,0.0,-0.0
135464711,-0.0054894285,0.051790833,-7.852744e-06,0.0,0.0,-0.0
135471902,-0.0054681827,0.051819485,-4.138459e-05,0.0,0.0,-0.0
135476731,-0.005481357,0.051860444,-5.370676e-05,0.0,0.0,-0.0
135480670,-0.005524639,0.051849194,-8.79086e-06,0.0,0.0,-0.0
135484669,-0.0055093938,0.051851004,8.984554e-06,0.0,0.0,-0.0
135488697,-0.0055046817,0.051861897,1.8006096e-05,0.0,0.0,-0.0
135492712,-0.0054911138,0.05186988,1.1476594e-05,0.0,0.0,-0.0
135499938,-0.0054419464,0.051945865,-9.7524735e-06,0.0,0.0,-0.0
135504701,-0.0054025208,0.052020058,-8.929718e-06,0.0,0.0,-0.0
135508659,-0.0054232622,0.052086364,-1.7018721e-05,0.0,0.0,-0.0
135511885,-0.0054766773,0.05216203,-1.502393e-05,0.0,0.0,-0.0
135516726,-0.005481744,0.052242927,-1.545927e-05,0.0,0.0,-0.0
135520712,-0.005459766,0.0523325,-9.747907e-06,0.0,0.0,-0.0
135527890,-0.005497099,0.052446157,-2.4088928e-05,0.0,0.0,-0.0
135531910,-0.005509523,0.052500393,-3.6712783e-05,0.0,0.0,-0.0
135536718,-0.005481761,0.052508898,-3.879352e-05,0.0,0.0,-0.0
135539896,-0.0054820664,0.05250416,-9.38486e-06,0.0,0.0,-0.0
135543922,-0.0054775425,0.052545916,-2.4247222e-05,0.0,0.0,-0.0
135548682,-0.005489033,0.05259917,-3.4852408e-05,0.0,0.0,-0.0
135555937,-0.0054627075,0.05268361,-4.4974364e-05,0.0,0.0,-0.0
135560711,-0.0054384274,0.052743535,-9.67306e-06,0.0,0.0,-0.0
135564684,-0.005429011,0.05280378,-2.2225233e-05,0.0,0.0,-0.0
135568655,-0.005442391,0.052878294,-1.6614034e-05,0.0,0.0,-0.0
135571917,-0.005477874,0.052911874,-1.04337705e-05,0.0,0.0,-0.0
135576717,-0.0054578595,0.05292376,-1.4461465e-05,0.0,0.0,-0.0
135583958,-0.0054077925,0.05294486,-1.0199623e-05,0.0,0.0,-0.0
135587902,-0.0054050344,0.05295491,-2.9810572e-06,0.0,0.0,-0.0
135591885,-0.00544143,0.052969545,-1.4940132e-05,0.0,0.0,-0.0
135596702,-0.0054308926,0.052947767,-1.7551954e-05,0.0,0.0,-0.0
135599888,-0.005415116,0.05299542,-8.821344e-06,0.0,0.0,-0.0
135604747,-0.0054585133,0.052972525,-9.318613e-06,0.0,0.0,-0.0
135611927,-0.005535108,0.053048857,-3.1605323e-05,0.0,0.0,-0.0
135616704,-0.0055165677,0.053077992,-4.0880663e-05,0.0,0.0,-0.0
135620722,-0.0055130497,0.053127002,-9.689533e-06,0.0,0.0,-0.0
135624729,-0.0054887105,0.0531743,1.6419395e-05,0.0,0.0,-0.0
135628674,-0.005475356,0.053169362,2.4231005e-05,0.0,0.0,-0.0
135632672,-0.005471882,0.053183973,1.9236903e-05,0.0,0.0,-0.0
135636703,-0.0054906313,0.053256907,-1.3326242e-06,0.0,0.0,-0.0
135640709,-0.005465085,0.053252358,-9.144271e-06,0.0,0.0,-0.12
135644731,-0.0055042338,0.053230852,-2.8442107e-06,0.0,0.0,-0.12
135648661,-0.0055281995,0.053238187,-8.352556e-07,0.0,0.0,-0.12
135652678,-0.0055028554,0.053276505,4.001108e-06,0.0,0.0,-0.12
135656659,-0.005485433,0.053262666,1.2587589e-05,0.0,0.0,-0.12
135660687,-0.0055148187,0.05325442,1.1099909e-05,0.0,0.0,-0.12
135664733,-0.005566369,0.053255323,1.245374e-05,0.0,0.0,-0.12
135668665,-0.005576005,0.05331429,4.8716806e-06,0.0,0.0,-0.12
135672681,-0.005554492,0.05336999,-1.5674004e-05,0.0,0.0,-0.12
135676672,-0.0055804015,0.053359095,-3.2301916e-05,0.0,0.0,-0.12
135680681,-0.0056333444,0.053373206,-4.281153e-05,0.0,0.0,-0.12
135684714,-0.0056098234,0.053395685,-4.2218402e-05,0.0,0.0,-0.12
135687893,-0.0055996333,0.053428445,-3.099597e-05,0.0,0.0,-0.12
135695895,-0.005622904,0.053474035,1.1595954e-06,0.0,0.0,-0.12
135699912,-0.00563767,0.053548947,1.2467882e-05,0.0,0.0,-0.12
135704713,-0.0056338506,0.053634617,-3.2809473e-07,0.0,0.0,-0.12
135708688,-0.005635839,0.05367917,8.440156e-06,0.0,0.0,-0.12
135712698,-0.0056554326,0.053724684,2.6278085e-05,0.0,0.0,-0.12
135716675,-0.0056836507,0.053845126,5.4018165e-05,0.0,0.0,-0.12
135723949,-0.0057125418,0.05398017,5.95335e-05,0.0,0.0,-0.12
135727901,-0.0057738353,0.054002352,6.578554e-05,0.0,0.0,-0.12
135732686,-0.00579181,0.054052614,7.20616e-05,0.0,0.0,-0.12
135736666,-0.0057871863,0.0541018,8.6766224e-05,0.0,0.0,-0.12
135740701,-0.0057866564,0.054134548,0.00013098966,0.0,0.0,-0.12
135744711,-0.0057830233,0.054179907,0.0001635554,0.0,0.0,-0.12
135751956,-0.005887042,0.054276526,0.00023170932,0.0,0.0,-0.12
135756657,-0.005923015,0.05432701,0.0002537413,0.0,0.0,-0.12
135760665,-0.005901271,0.054442436,0.00028974086,0.0,0.0,-0.12
135764707,-0.005918932,0.054492176,0.00032789222,0.0,0.0,-0.12
135767891,-0.0059348294,0.054570965,0.000381388,0.0,0.0,-0.12
135772746,-0.005904096,0.054610465,0.00043564377,0.0,0.0,-0.12
135779943,-0.005939726,0.054734383,0.0005723538,0.0,0.0,-0.12
135784656,-0.005917396,0.054794725,0.00061309035,0.0,0.0,-0.12
135788680,-0.005869429,0.05480411,0.0006901722,0.0,0.0,-0.12
135792726,-0.0058899825,0.05484098,0.0007363364,0.0,0.0,-0.12
135796658,-0.0059616934,0.0548418,0.00073610654,0.0,0.0,-0.12
135800717,-0.0059054266,0.054781746,0.00072319293,0.0,0.0,-0.12
135804660,-0.0059086676,0.05476228,0.00065673946,0.0,0.0,-0.12
135808708,-0.0059308754,0.054896854,0.00058050413,0.0,0.0,-0.12
135812741,-0.0059693204,0.054864354,0.00045745948,0.0,0.0,-0.12
135816670,-0.00604207,0.054929737,0.00033970678,0.0,0.0,-0.12
135820682,-0.006035499,0.05492564,0.00016554027,0.0,0.0,-0.12
135824665,-0.006012484,0.05496773,-2.6107407e-05,0.0,0.0,-0.12
135827910,-0.006028382,0.0550012,-0.00022298722,0.0,0.0,-0.12
135832741,-0.006026813,0.0550871,-0.0003998352,0.0,0.0,-0.12
135836662,-0.006073473,0.054909717,-0.0006220829,0.0,0.0,-0.12
135840710,-0.005946971,0.054991726,-0.0008593743,0.0,0.0,-0.12
135844665,-0.006170157,0.05493824,-0.0010976349,0.0,0.0,-0.12
135848678,-0.006044829,0.05499369,-0.0012824885,0.0,0.0,-0.12
135852714,-0.0059359507,0.054906435,-0.0014746324,0.0,0.0,-0.12
135856707,-0.0060515073,0.054844484,-0.0016348235,0.0,0.0,-0.12
135860691,-0.006186929,0.055086948,-0.0017752755,0.0,0.0,-0.129037
135864656,-0.006290779,0.05483604,-0.0019152861,0.0,0.0,-0.129037
135868674,-0.006044507,0.05491875,-0.0020218107,0.0,0.0,-0.129037
135872719,-0.0061485968,0.05495428,-0.002098177,0.0,0.0,-0.129037
135876692,-0.0063712737,0.054937735,-0.0021641501,0.0,0.0,-0.129037
135880716,-0.0064340034,0.05489392,-0.0021981965,0.0,0.0,-0.13941899
135884690,-0.0061619487,0.054900415,-0.0021846103,0.0,0.0,-0.13941899
135887919,-0.0061498387,0.054901257,-0.0021600008,0.0,0.0,-0.13941899
135892716,-0.00635741,0.054991703,-0.0020871172,0.0,0.0,-0.13941899
135896707,-0.0062392494,0.054786485,-0.0019672345,0.0,0.0,-0.13941899
135900696,-0.006224963,0.054879438,-0.0018556427,0.0,0.0,-0.15040866
135904664,-0.0062715467,0.055040598,-0.0016942814,0.0,0.0,-0.15040866
135908671,-0.006137055,0.0550187,-0.0015090238,0.0,0.0,-0.15040866
135912741,-0.006290152,0.055196423,-0.0013051454,0.0,0.0,-0.15040866
135916717,-0.0062463903,0.05522017,-0.0010622903,0.0,0.0,-0.15040866
135920755,-0.0061466605,0.05525818,-0.0008289066,0.0,0.0,-0.16046226
135924662,-0.0062463866,0.05553489,-0.00057528814,0.0,0.0,-0.16046226
135928662,-0.0061599864,0.055366885,-0.0002660039,0.0,0.0,-0.16046226
135932726,-0.00621602,0.055574156,-1.8463279e-05,0.0,0.0,-0.16046226
135936706,-0.0062111425,0.05565123,0.00022740861,0.0,0.0,-0.16046226
135940756,-0.0062146517,0.055461794,0.00046879076,0.0,0.0,-0.17112327
135944674,-0.0060272464,0.055612396,0.00069087534,0.0,0.0,-0.17112327
135948662,-0.0061557367,0.055744737,0.0008889254,0.0,0.0,-0.17112327
135952683,-0.006279678,0.05572947,0.0010781289,0.0,0.0,-0.17112327
135956731,-0.006091559,0.055630095,0.0012418255,0.0,0.0,-0.17112327
135960737,-0.006213786,0.055789705,0.0013519753,0.0,0.0,-0.18180111
135964667,-0.006302018,0.055689227,0.0014418367,0.0,0.0,-0.18180111
135968709,-0.0061910134,0.055628896,0.0014866022,0.0,0.0,-0.18180111
135972689,-0.0063825017,0.05569944,0.0015061987,0.0,0.0,-0.18180111
135976707,-0.0064519383,0.055463344,0.0014810883,0.0,0.0,-0.18180111
135980747,-0.0062965,0.055753645,0.0014126034,0.0,0.0,-0.19288722
135984664,-0.0066892356,0.055403795,0.0013237699,0.0,0.0,-0.19288722
135988694,-0.0065022437,0.055419758,0.001163883,0.0,0.0,-0.19288722
135992668,-0.0068117795,0.05552473,0.0009431272,0.0,0.0,-0.19288722
135995905,-0.0069918907,0.05513323,0.0007673386,0.0,0.0,-0.19288722
136000747,-0.0069518588,0.05511637,0.0005084857,0.0,0.0,-0.20311415
136004666,-0.0069919256,0.05513191,0.000119021046,0.0,0.0,-0.20311415
136008700,-0.0070513273,0.054888796,-0.00021137689,0.0,0.0,-0.20311415
136012673,-0.00737666,0.05468835,-0.0005831388,0.0,0.0,-0.20311415
136016710,-0.007600184,0.05448486,-0.00093812804,0.0,0.0,-0.20311415
136020743,-0.0070240344,0.05448018,-0.0012381562,0.0,0.0,-0.21381122
136024719,-0.007236039,0.054193273,-0.001547846,0.0,0.0,-0.21381122
136028718,-0.0073118317,0.054128733,-0.001678423,0.0,0.0,-0.21381122
136032664,-0.0075087915,0.053580433,-0.0019142469,0.0,0.0,-0.21381122
136036695,-0.0064388462,0.053951018,-0.0019490769,0.0,0.0,-0.21381122
136040707,-0.006794442,0.053299643,-0.0019743878,0.0,0.0,-0.22472394
136044689,-0.0075829923,0.05334582,-0.0020161625,0.0,0.0,-0.22472394
136048713,-0.006571085,0.053155333,-0.0019430413,0.0,0.0,-0.22472394
136052689,-0.005075314,0.052920647,-0.0017327316,0.0,0.0,-0.22472394
136056665,-0.0064843707,0.052808534,-0.0015515016,0.0,0.0,-0.22472394
136060715,-0.006796497,0.05278861,-0.0012611181,0.0,0.0,-0.23543677
136064712,-0.005295396,0.053250752,-0.0009591176,0.0,0.0,-0.23543677
136068689,-0.0048891,0.053608563,-0.00068609137,0.0,0.0,-0.23543677
136072663,-0.004997871,0.05287713,-0.0002857942,0.0,0.0,-0.23543677
136076687,-0.0047855303,0.053376168,-9.8053526e-05,0.0,0.0,-0.23543677
136080713,-0.00517666,0.054002393,0.00016032651,0.0,0.0,-0.24582338
136084697,-0.0043680677,0.054439772,0.00038752976,0.0,0.0,-0.24582338
136088741,-0.0044250987,0.05355619,0.00056238635,0.0,0.0,-0.24582338
136092674,-0.0040783994,0.05361765,0.00084541773,0.0,0.0,-0.24582338
136096684,-0.004966985,0.054667357,0.00089456886,0.0,0.0,-0.24582338
136100668,-0.0049186912,0.055385083,0.001177738,0.0,0.0,-0.25735873
136104703,-0.0038773764,0.05490155,0.0012738864,0.0,0.0,-0.25735873
136108741,-0.0027925973,0.05443505,0.0012865306,0.0,0.0,-0.25735873
136112659,-0.0050161807,0.055464458,0.0012625712,0.0,0.0,-0.25735873
136116691,-0.005821872,0.055682484,0.0012894002,0.0,0.0,-0.25735873
136120667,-0.0040070903,0.055069625,0.0013027567,0.0,0.0,-0.26801914
136124745,-0.0034909775,0.053692847,0.0012128068,0.0,0.0,-0.26801914
136128751,-0.0053584673,0.055430654,0.001371415,0.0,0.0,-0.26801914
136132659,-0.005981675,0.056005564,0.0011382782,0.0,0.0,-0.26801914
136136709,-0.0030590068,0.054601736,0.001129641,0.0,0.0,-0.26801914
136140681,-0.0045211622,0.052657273,0.00091959233,0.0,0.0,-0.27856392
136144694,-0.0062607513,0.055051275,0.0007930316,0.0,0.0,-0.27856392
136148732,-0.0044348924,0.055124518,0.0008058354,0.0,0.0,-0.27856392
136152656,-0.0040910286,0.051976945,0.0007403925,0.0,0.0,-0.27856392
136156707,-0.004999008,0.053112164,0.000850688,0.0,0.0,-0.27856392
136160666,-0.0049356846,0.05477279,0.0004198401,0.0,0.0,-0.28989774
136164724,-0.0031942427,0.052740395,0.00032417593,0.0,0.0,-0.28989774
136168735,-0.004300953,0.05084701,0.00034448612,0.0,0.0,-0.28989774
136172673,-0.004706828,0.05428815,-1.0364258e-05,0.0,0.0,-0.28989774
136176703,-0.004052096,0.05317704,3.9481074e-05,0.0,0.0,-0.28989774
136180665,-0.003330956,0.05149756,0.00017079324,0.0,0.0,-0.30122232
136184713,-0.0028417138,0.053696312,-0.0002839909,0.0,0.0,-0.30122232
136188744,-0.002848694,0.053046707,-0.000246332,0.0,0.0,-0.30122232
136191904,-0.0051045823,0.052046064,-0.00023010478,0.0,0.0,-0.30122232
136196693,-0.0044458746,0.054905124,-0.00028830624,0.0,0.0,-0.30122232
136200664,-0.002255815,0.05180511,-0.0002648021,0.0,0.0,-0.31228563
136204698,-0.0025107071,0.053063057,-0.0003891134,0.0,0.0,-0.31228563
136208711,-0.0028034043,0.056541648,-0.0005938993,0.0,0.0,-0.31228563
136212707,-0.00537716,0.05058386,-0.00067795714,0.0,0.0,-0.31228563
136216702,-0.0029701132,0.054605495,-0.0004955882,0.0,0.0,-0.31228563
136220692,-0.0031844904,0.05609052,-0.0006662136,0.0,0.0,-0.32242712
136224692,-0.0037606705,0.053488504,-0.0006468554,0.0,0.0,-0.32242712
136228731,-0.002093981,0.057195477,-0.0007483132,0.0,0.0,-0.32242712
136232712,-0.0042355238,0.054370493,-0.0009591036,0.0,0.0,-0.32242712
136236689,-0.0057247425,0.05358154,-0.0007021046,0.0,0.0,-0.32242712
136240659,-0.0043106494,0.05774457,-0.0008768581,0.0,0.0,-0.33463836
136244678,-0.0045972075,0.054883525,-0.00089084695,0.0,0.0,-0.33463836
136248727,-0.0038723957,0.056072924,-0.00068372866,0.0,0.0,-0.33463836
136252718,-0.005033593,0.055208523,-0.0012461616,0.0,0.0,-0.33463836
136256754,-0.009209736,0.052764554,-0.0007807837,0.0,0.0,-0.33463836
136260663,-0.007349671,0.055045865,-0.0008418248,0.0,0.0,-0.3456849
136264703,-0.0037290943,0.055499684,-0.0009999837,0.0,0.0,-0.3456849
136268665,-0.007569745,0.053678446,-0.00080275885,0.0,0.0,-0.3456849
136272711,-0.008793343,0.053095534,-0.0012292077,0.0,0.0,-0.3456849
136276744,-0.009784485,0.051895663,-0.0009916194,0.0,0.0,-0.3456849
136280663,-0.009119673,0.052067015,-0.00082043244,0.0,0.0,-0.35601264
136284686,-0.0056383293,0.054892745,-0.0012838809,0.0,0.0,-0.35601264
136288675,-0.008593361,0.051744808,-0.0011727934,0.0,0.0,-0.35601264
136292728,-0.010748473,0.05052756,-0.0011288733,0.0,0.0,-0.35601264
136296744,-0.00866031,0.052464355,-0.0013241648,0.0,0.0,-0.35601264
136300663,-0.008230136,0.051755402,-0.001194723,0.0,0.0,-0.36827105
136304709,-0.00796369,0.053632338,-0.0014448402,0.0,0.0,-0.36827105
136311939,-0.009011661,0.05224252,-0.0014089032,0.0,0.0,-0.36827105
136316739,-0.010587579,0.05296775,-0.0015109134,0.0,0.0,-0.36827105
136320662,-0.0063394383,0.054322448,-0.0016224245,0.0,0.0,-0.37883538
136324687,-0.009061063,0.050738383,-0.0020381853,0.0,0.0,-0.37883538
136328660,-0.0075782426,0.052351322,-0.0014724835,0.0,0.0,-0.37883538
136332681,-0.0095964605,0.05351492,-0.0019760681,0.0,0.0,-0.37883538
136336729,-0.008547414,0.05539144,-0.001942311,0.0,0.0,-0.37883538
136340674,-0.011879535,0.0530363,-0.0024309368,0.0,0.0,-0.38838136
136344717,-0.009302128,0.049580626,-0.0016422104,0.0,0.0,-0.38838136
136348670,-0.008695263,0.05307442,-0.0023229758,0.0,0.0,-0.38838136
136352724,-0.0075369603,0.05575539,-0.0019796824,0.0,0.0,-0.38838136
136356754,-0.015611495,0.054569118,-0.0029207717,0.0,0.0,-0.38838136
136360733,-0.012507895,0.047283977,-0.0017129227,0.0,0.0,-0.399064
136364697,-0.008449204,0.051941432,-0.0027007312,0.0,0.0,-0.399064
136368665,-0.008274651,0.05509608,-0.0022625015,0.0,0.0,-0.399064
136372715,-0.016089598,0.054150093,-0.0029304882,0.0,0.0,-0.399064
136376662,-0.016596442,0.04766316,-0.0020880334,0.0,0.0,-0.399064
136380708,-0.009882515,0.051078677,-0.00274365,0.0,0.0,-0.41121444
136384714,-0.009140441,0.05545848,-0.0027093524,0.0,0.0,-0.41121444
136388674,-0.015604571,0.051837113,-0.0027810866,0.0,0.0,-0.41121444
136392697,-0.017059024,0.04892821,-0.0024953727,0.0,0.0,-0.41121444
136396662,-0.010281815,0.053595755,-0.0029151358,0.0,0.0,-0.41121444
136400695,-0.010924729,0.05835281,-0.0032447756,0.0,0.0,-0.42165947
136404693,-0.016278522,0.050732873,-0.0028787514,0.0,0.0,-0.42165947
136408657,-0.014446028,0.049007908,-0.0031581782,0.0,0.0,-0.42165947
136412696,-0.009374922,0.054327447,-0.0030491413,0.0,0.0,-0.42165947
136416671,-0.016805898,0.06040855,-0.0037330375,0.0,0.0,-0.42165947
136420711,-0.020545725,0.04934209,-0.0030924417,0.0,0.0,-0.43078685
136424734,-0.014044364,0.048528288,-0.0035705916,0.0,0.0,-0.43078685
136428660,-0.0138225015,0.05547728,-0.0034052632,0.0,0.0,-0.43078685
136432711,-0.021618534,0.05673435,-0.003948284,0.0,0.0,-0.43078685
136436682,-0.024454506,0.045124464,-0.0032951448,0.0,0.0,-0.43078685
136440721,-0.017434312,0.04745353,-0.0032375176,0.0,0.0,-0.44239098
136444760,-0.020628909,0.056500874,-0.0040384103,0.0,0.0,-0.44239098
136448660,-0.023141915,0.04870236,-0.0030607586,0.0,0.0,-0.44239098
136452693,-0.023798997,0.040420268,-0.00358081,0.0,0.0,-0.44239098
136456662,-0.021284267,0.049808905,-0.0031842403,0.0,0.0,-0.44239098
136460698,-0.021762224,0.051803637,-0.0035199923,0.0,0.0,-0.4500327
136464742,-0.022325922,0.03882819,-0.0034101715,0.0,0.0,-0.4500327
136468662,-0.018518757,0.037615784,-0.0026728201,0.0,0.0,-0.4500327
136472709,-0.018463278,0.051330645,-0.0034837371,0.0,0.0,-0.4500327
136476660,-0.019698603,0.039401527,-0.0031236524,0.0,0.0,-0.4500327
136480716,-0.011678492,0.031256415,-0.0022445302,0.0,0.0,-0.46144098
136484742,-0.013664725,0.044071067,-0.0027927998,0.0,0.0,-0.46144098
136488659,-0.013670859,0.04678064,-0.0027477215,0.0,0.0,-0.46144098
136492687,-0.010206048,0.031784497,-0.0026711223,0.0,0.0,-0.46144098
136496659,-0.0048146364,0.03668939,-0.0018881531,0.0,0.0,-0.46144098
136500709,-0.0075652744,0.046420977,-0.0026929828,0.0,0.0,-0.47130644
136504758,-0.008153723,0.036516786,-0.002495672,0.0,0.0,-0.47130644
136508673,-0.0023361105,0.029935569,-0.0018252266,0.0,0.0,-0.47130644
136512710,-0.001837508,0.0428141,-0.0023884492,0.0,0.0,-0.47130644
136516667,-0.0068426416,0.038144387,-0.0024821893,0.0,0.0,-0.47130644
136520686,-0.005921392,0.027548978,-0.001866846,0.0,0.0,-0.48187235
136524741,-0.003881157,0.03412804,-0.0022614205,0.0,0.0,-0.48187235
136528712,-0.006049903,0.03363766,-0.0025638554,0.0,0.0,-0.48187235
136532701,-0.0089996215,0.024471596,-0.0021068284,0.0,0.0,-0.48187235
136536663,-0.0104861315,0.025327189,-0.0023719273,0.0,0.0,-0.48187235
136540692,-0.010329818,0.029421546,-0.002695216,0.0,0.0,-0.49178532
136544663,-0.012862406,0.018405346,-0.0025863482,0.0,0.0,-0.49178532
136548704,-0.011963237,0.017065117,-0.0022384434,0.0,0.0,-0.49178532
136552698,-0.014292602,0.024332467,-0.0030169857,0.0,0.0,-0.49178532
136556685,-0.015032388,0.017500903,-0.0027468794,0.0,0.0,-0.49178532
136560712,-0.013631524,0.010357387,-0.0024839633,0.0,0.0,-0.499931
136564664,-0.010950227,0.02224875,-0.003175079,0.0,0.0,-0.499931
136568704,-0.014078284,0.014223304,-0.00352202,0.0,0.0,-0.499931
136572708,-0.010347433,0.0066922405,-0.002498413,0.0,0.0,-0.499931
136576669,-0.007207147,0.01616889,-0.0037418285,0.0,0.0,-0.499931
136580735,-0.007875172,0.012493361,-0.0037408832,0.0,0.0,-0.50742877
136584682,-0.003210565,0.0061635333,-0.003022007,0.0,0.0,-0.50742877
136588725,0.00046995637,0.012543344,-0.0041616256,0.0,0.0,-0.50742877
136592741,-0.0004321895,0.01076672,-0.004251876,0.0,0.0,-0.50742877
136596685,0.0020127294,0.006427693,-0.0036253422,0.0,0.0,-0.50742877
136600727,0.006967933,0.013070716,-0.004888082,0.0,0.0,-0.5169255
136604669,0.007907349,0.011932334,-0.005050063,0.0,0.0,-0.5169255
136608709,0.0077702017,0.007588945,-0.004847323,0.0,0.0,-0.5169255
136612758,0.013611355,0.012766602,-0.00558333,0.0,0.0,-0.5169255
136616665,0.012247959,0.0096290065,-0.0060438253,0.0,0.0,-0.5169255
136620702,0.01177246,0.0050617787,-0.0059434427,0.0,0.0,-0.520839
136624657,0.021235658,0.0082611125,-0.0066929837,0.0,0.0,-0.520839
136628687,0.014112264,0.005360985,-0.0074198633,0.0,0.0,-0.520839
136632729,0.01190101,-0.0038089086,-0.006735221,0.0,0.0,-0.520839
136636676,0.024256896,-0.0029850001,-0.007857159,0.0,0.0,-0.520839
136640715,0.01380701,-0.007898222,-0.00871203,0.0,0.0,-0.5241413
136644675,0.012620431,-0.018943023,-0.0075388537,0.0,0.0,-0.5241413
136648703,0.024277592,-0.017791644,-0.008876441,0.0,0.0,-0.5241413
136652732,0.010073239,-0.027656278,-0.009742484,0.0,0.0,-0.5241413
136656657,0.013340403,-0.03817129,-0.008742561,0.0,0.0,-0.5241413
136660692,0.022931773,-0.038181197,-0.010419071,0.0,0.0,-0.5222628
136664664,0.011367199,-0.050064936,-0.0106496075,0.0,0.0,-0.5222628
136668721,0.01831525,-0.05872078,-0.010553349,0.0,0.0,-0.5222628
136672740,0.022482676,-0.058217622,-0.011910659,0.0,0.0,-0.5222628
136676666,0.01301818,-0.07171368,-0.0114889275,0.0,0.0,-0.5222628
136680701,0.026806235,-0.07587541,-0.012234058,0.0,0.0,-0.5264347
136684663,0.028997751,-0.07507448,-0.013456615,0.0,0.0,-0.5264347
136688704,0.023195557,-0.08889876,-0.012808878,0.0,0.0,-0.5264347
136692696,0.039365124,-0.08543031,-0.013889445,0.0,0.0,-0.5264347
136696709,0.036904506,-0.084216155,-0.014829569,0.0,0.0,-0.5264347
136700707,0.035108227,-0.09659663,-0.014677221,0.0,0.0,-0.523527
136704660,0.053464003,-0.08747746,-0.01589801,0.0,0.0,-0.523527
136708697,0.04850595,-0.08821147,-0.016243184,0.0,0.0,-0.523527
136712702,0.049914073,-0.09604679,-0.016278327,0.0,0.0,-0.523527
136716727,0.06487427,-0.083573475,-0.017773505,0.0,0.0,-0.523527
136720690,0.05584021,-0.08528583,-0.018140374,0.0,0.0,-0.5247582
136724673,0.059627533,-0.08699797,-0.017937588,0.0,0.0,-0.5247582
136728723,0.07201987,-0.07634191,-0.019197706,0.0,0.0,-0.5247582
136732676,0.0632609,-0.080742404,-0.019519402,0.0,0.0,-0.5247582
136736700,0.06752646,-0.075117804,-0.019910088,0.0,0.0,-0.5247582
136740717,0.0720809,-0.066330664,-0.021061685,0.0,0.0,-0.5228478
136744671,0.06324159,-0.07351961,-0.02102333,0.0,0.0,-0.5228478
136748703,0.07176169,-0.064367115,-0.021996884,0.0,0.0,-0.5228478
136752685,0.07474889,-0.05944752,-0.022817481,0.0,0.0,-0.5228478
136756758,0.0680356,-0.065655805,-0.022763452,0.0,0.0,-0.5228478
136760707,0.07481788,-0.05386864,-0.024171185,0.0,0.0,-0.5284964
136764672,0.07237754,-0.055737033,-0.024712417,0.0,0.0,-0.5284964
136768706,0.07042945,-0.06252909,-0.02455697,0.0,0.0,-0.5284964
136772691,0.08018774,-0.049313527,-0.026088154,0.0,0.0,-0.5284964
136776699,0.07197947,-0.058418542,-0.026134985,0.0,0.0,-0.5284964
136780753,0.072722726,-0.057339463,-0.02635164,0.0,0.0,-0.5297902
136784667,0.07984649,-0.05109376,-0.02796971,0.0,0.0,-0.5297902
136788693,0.07441759,-0.06355386,-0.027643763,0.0,0.0,-0.5297902
136792662,0.07474359,-0.05637424,-0.028475437,0.0,0.0,-0.5297902
136796702,0.074280225,-0.05948147,-0.029777464,0.0,0.0,-0.5297902
136800734,0.07323359,-0.07311751,-0.029034434,0.0,0.0,-0.5311106
136804679,0.07768165,-0.061135106,-0.030241663,0.0,0.0,-0.5311106
136808715,0.07305945,-0.06983485,-0.031289812,0.0,0.0,-0.5311106
136812662,0.07325689,-0.0773591,-0.030696865,0.0,0.0,-0.5311106
136816736,0.07605406,-0.066626646,-0.03204155,0.0,0.0,-0.5311106
136820761,0.073427364,-0.08117433,-0.03238307,0.0,0.0,-0.53271455
136824666,0.0785438,-0.0813913,-0.03264221,0.0,0.0,-0.53271455
136828690,0.07725284,-0.07695897,-0.03411745,0.0,0.0,-0.53271455
136832668,0.07414931,-0.08905707,-0.03372663,0.0,0.0,-0.53271455
136836708,0.0824935,-0.082008675,-0.03461127,0.0,0.0,-0.53271455
136840748,0.07884096,-0.08416559,-0.03621642,0.0,0.0,-0.5362759
136844678,0.07708309,-0.09355215,-0.035878934,0.0,0.0,-0.5362759
136848708,0.08644735,-0.08320575,-0.036987226,0.0,0.0,-0.5362759
136852660,0.0778816,-0.088272706,-0.037996337,0.0,0.0,-0.5362759
136856708,0.07539924,-0.09351204,-0.037783198,0.0,0.0,-0.5362759
136860703,0.083487384,-0.08243656,-0.03915586,0.0,0.0,-0.535348
136864719,0.07278975,-0.08912706,-0.03975196,0.0,0.0,-0.535348
136868709,0.07398654,-0.08887704,-0.039816596,0.0,0.0,-0.535348
136872657,0.07670813,-0.080101304,-0.040893193,0.0,0.0,-0.535348
136876693,0.06441962,-0.08678204,-0.04100153,0.0,0.0,-0.535348
136880692,0.06922273,-0.081291504,-0.041836414,0.0,0.0,-0.5414549
136884740,0.06661179,-0.075846545,-0.043131612,0.0,0.0,-0.5414549
136888691,0.060105406,-0.08264806,-0.042501338,0.0,0.0,-0.5414549
136892673,0.06819492,-0.07093211,-0.043865953,0.0,0.0,-0.5414549
136896701,0.059641574,-0.068519466,-0.045204334,0.0,0.0,-0.5414549
136900696,0.05816594,-0.07653159,-0.044837594,0.0,0.0,-0.5415125
136904745,0.067710906,-0.06327494,-0.0462123,0.0,0.0,-0.5415125
136908713,0.057384465,-0.066750914,-0.046725295,0.0,0.0,-0.5415125
136912657,0.06307046,-0.06854833,-0.04710069,0.0,0.0,-0.5415125
136916697,0.06940535,-0.057836033,-0.048217114,0.0,0.0,-0.5415125
136920670,0.0603143,-0.06536104,-0.04826036,0.0,0.0,-0.54138786
136924739,0.06843911,-0.058449093,-0.04887941,0.0,0.0,-0.54138786
136928705,0.065998,-0.060557634,-0.049754877,0.0,0.0,-0.54138786
136932662,0.06865325,-0.06260525,-0.04947369,0.0,0.0,-0.54138786
136936705,0.07499461,-0.04983648,-0.050610125,0.0,0.0,-0.54138786
136940665,0.06664187,-0.05645994,-0.051079,0.0,0.0,-0.5443334
136944705,0.0723748,-0.055289563,-0.051038057,0.0,0.0,-0.5443334
136948754,0.07522051,-0.049026232,-0.05204242,0.0,0.0,-0.5443334
136952675,0.0742124,-0.052584544,-0.052001324,0.0,0.0,-0.5443334
136956699,0.07974301,-0.045058116,-0.05242437,0.0,0.0,-0.5443334
136960672,0.07339651,-0.04405312,-0.053333193,0.0,0.0,-0.54373974
136964702,0.0779491,-0.043795504,-0.053223245,0.0,0.0,-0.54373974
136968697,0.084548526,-0.037511177,-0.053960524,0.0,0.0,-0.54373974
136972693,0.081827305,-0.039733883,-0.054421328,0.0,0.0,-0.54373974
136976730,0.088405006,-0.03530825,-0.05434495,0.0,0.0,-0.54373974
136980674,0.084609605,-0.030881722,-0.055573925,0.0,0.0,-0.54331064
136984743,0.08723141,-0.03271293,-0.05528779,0.0,0.0,-0.54331064
136988715,0.09534381,-0.03073135,-0.05541549,0.0,0.0,-0.54331064
136992664,0.09278557,-0.030396726,-0.05655584,0.0,0.0,-0.54331064
136996724,0.09898517,-0.029249566,-0.056061555,0.0,0.0,-0.54331064
137000687,0.09847218,-0.028323248,-0.056672536,0.0,0.0,-0.54659665
137004706,0.101015754,-0.028280381,-0.056942184,0.0,0.0,-0.54659665
137008711,0.10368068,-0.028507879,-0.05714824,0.0,0.0,-0.54659665
137012662,0.10210017,-0.029709643,-0.057796653,0.0,0.0,-0.54659665
137016687,0.10880733,-0.02845408,-0.057369065,0.0,0.0,-0.54659665
137020663,0.10539417,-0.03086453,-0.058196396,0.0,0.0,-0.5432036
137024715,0.108235694,-0.031063842,-0.058414478,0.0,0.0,-0.5432036
137028708,0.107049555,-0.031674806,-0.05834388,0.0,0.0,-0.5432036
137032728,0.105839536,-0.03440398,-0.058849126,0.0,0.0,-0.5432036
137036705,0.112170085,-0.03178875,-0.05893193,0.0,0.0,-0.5432036
137040665,0.103015,-0.037701033,-0.05954155,0.0,0.0,-0.5376177
137044699,0.10726241,-0.03455005,-0.059679147,0.0,0.0,-0.5376177
137048673,0.10311796,-0.038068317,-0.059849404,0.0,0.0,-0.5376177
137052745,0.102251075,-0.04006518,-0.060027216,0.0,0.0,-0.5376177
137056689,0.10730426,-0.03353244,-0.060929112,0.0,0.0,-0.5376177
137060690,0.09686658,-0.043213777,-0.060976014,0.0,0.0,-0.5255643
137064712,0.100848444,-0.033224072,-0.06141389,0.0,0.0,-0.5255643
137068712,0.095509306,-0.038791876,-0.06227556,0.0,0.0,-0.5255643
137072731,0.097542256,-0.041687004,-0.061620183,0.0,0.0,-0.5255643
137076660,0.10194313,-0.03404437,-0.06228384,0.0,0.0,-0.5255643
137080690,0.093814716,-0.043660358,-0.062187165,0.0,0.0,-0.51111424
137084703,0.09700984,-0.032703184,-0.062061176,0.0,0.0,-0.51111424
137088688,0.09250362,-0.038386315,-0.06300208,0.0,0.0,-0.51111424
137092696,0.09475406,-0.041998584,-0.06209705,0.0,0.0,-0.51111424
137096660,0.09809984,-0.033857126,-0.062241077,0.0,0.0,-0.51111424
137100669,0.091545,-0.043912947,-0.06258597,0.0,0.0,-0.5040201
137104709,0.09627167,-0.035940833,-0.061803434,0.0,0.0,-0.5040201
137108666,0.092400774,-0.036265187,-0.06300579,0.0,0.0,-0.5040201
137112730,0.09453857,-0.04139731,-0.06218025,0.0,0.0,-0.5040201
137116700,0.098555624,-0.03388969,-0.062089574,0.0,0.0,-0.5040201
137120686,0.09449631,-0.041102886,-0.06269106,0.0,0.0,-0.49422064
137124714,0.09816913,-0.03861003,-0.061781935,0.0,0.0,-0.49422064
137128680,0.09654068,-0.03286761,-0.06263255,0.0,0.0,-0.49422064
137132719,0.09715743,-0.03860108,-0.062359385,0.0,0.0,-0.49422064
137136701,0.10184643,-0.032378454,-0.061977025,0.0,0.0,-0.49422064
137140676,0.09891411,-0.03334711,-0.06265499,0.0,0.0,-0.48701116
137144707,0.10191808,-0.03529408,-0.062115762,0.0,0.0,-0.48701116
137148663,0.101941064,-0.02864407,-0.062359717,0.0,0.0,-0.48701116
137152709,0.09983742,-0.02982116,-0.062364027,0.0,0.0,-0.48701116
137156705,0.10469918,-0.02666637,-0.061962765,0.0,0.0,-0.48701116
137160670,0.10295124,-0.02273026,-0.0624774,0.0,0.0,-0.4839473
137164707,0.10357243,-0.022115132,-0.06221345,0.0,0.0,-0.4839473
137168685,0.10449569,-0.01978703,-0.06207049,0.0,0.0,-0.4839473
137172735,0.10111317,-0.01916656,-0.06226611,0.0,0.0,-0.4839473
137176695,0.10370275,-0.017033398,-0.062163744,0.0,0.0,-0.4839473
137180682,0.103304856,-0.013763743,-0.062101245,0.0,0.0,-0.47871768
137184694,0.10118622,-0.012983205,-0.062198423,0.0,0.0,-0.47871768
137188660,0.10371408,-0.011217329,-0.062336337,0.0,0.0,-0.47871768
137192718,0.09848635,-0.014324883,-0.061985224,0.0,0.0,-0.47871768
137196700,0.09835892,-0.011268224,-0.062159777,0.0,0.0,-0.47871768
137200720,0.099143244,-0.0099873105,-0.062427655,0.0,0.0,-0.47741905
137204704,0.09403964,-0.015913336,-0.061805274,0.0,0.0,-0.47741905
137208657,0.09720756,-0.010310787,-0.062137723,0.0,0.0,-0.47741905
137212716,0.0930953,-0.013244543,-0.062306736,0.0,0.0,-0.47741905
137216683,0.08770613,-0.020236436,-0.061652552,0.0,0.0,-0.47741905
137220711,0.09157597,-0.01280668,-0.06204273,0.0,0.0,-0.4743325
137224663,0.08556444,-0.020145344,-0.061950184,0.0,0.0,-0.4743325
137228673,0.08529842,-0.023177603,-0.061332405,0.0,0.0,-0.4743325
137232710,0.08684208,-0.015309096,-0.062015474,0.0,0.0,-0.4743325
137236709,0.07967444,-0.026164511,-0.06150843,0.0,0.0,-0.4743325
137240726,0.081214815,-0.027205387,-0.06090971,0.0,0.0,-0.47476488
137244689,0.07871327,-0.021348452,-0.06190942,0.0,0.0,-0.47476488
137248670,0.075057596,-0.03372042,-0.061154034,0.0,0.0,-0.47476488
137252714,0.08057349,-0.029679423,-0.060687702,0.0,0.0,-0.47476488
137256675,0.073291235,-0.025581852,-0.061871935,0.0,0.0,-0.47476488
137260713,0.07060387,-0.039917666,-0.060771942,0.0,0.0,-0.475856
137264667,0.07597704,-0.03469822,-0.060591165,0.0,0.0,-0.475856
137268677,0.06822954,-0.032889098,-0.061568767,0.0,0.0,-0.475856
137272711,0.06939661,-0.04642907,-0.060390323,0.0,0.0,-0.475856
137276666,0.07336907,-0.03931331,-0.060483277,0.0,0.0,-0.475856
137280741,0.06374751,-0.037796065,-0.061107196,0.0,0.0,-0.47623637
137284712,0.06583781,-0.050199155,-0.05998572,0.0,0.0,-0.47623637
137288692,0.06948701,-0.042688422,-0.060187582,0.0,0.0,-0.47623637
137292707,0.061907325,-0.041046437,-0.060438856,0.0,0.0,-0.47623637
137296666,0.06528744,-0.051829703,-0.0593939,0.0,0.0,-0.47623637
137300711,0.06792099,-0.041671753,-0.05950429,0.0,0.0,-0.48029405
137304700,0.05948388,-0.039186876,-0.05967062,0.0,0.0,-0.48029405
137308666,0.06440447,-0.049368702,-0.058661398,0.0,0.0,-0.48029405
137312715,0.06872356,-0.038723346,-0.058770727,0.0,0.0,-0.48029405
137316660,0.06139791,-0.038822476,-0.05877404,0.0,0.0,-0.48029405
137320700,0.06725359,-0.046985075,-0.057782337,0.0,0.0,-0.48101965
137324702,0.068404414,-0.035625078,-0.05788421,0.0,0.0,-0.48101965
137328665,0.06122815,-0.03658523,-0.057661537,0.0,0.0,-0.48101965
137332711,0.067337394,-0.045128666,-0.056970883,0.0,0.0,-0.48101965
137336689,0.06841077,-0.03646639,-0.05704137,0.0,0.0,-0.48101965
137340707,0.06299511,-0.039100762,-0.056605615,0.0,0.0,-0.4869634
137344698,0.06715272,-0.04406243,-0.0563329,0.0,0.0,-0.4869634
137348752,0.06422196,-0.0388539,-0.05629963,0.0,0.0,-0.4869634
137352696,0.05983618,-0.043076605,-0.05581909,0.0,0.0,-0.4869634
137356661,0.065342255,-0.042509347,-0.05586655,0.0,0.0,-0.4869634
137360707,0.06151191,-0.040997468,-0.05586607,0.0,0.0,-0.4913079
137364700,0.05659774,-0.047939934,-0.0552495,0.0,0.0,-0.4913079
