timestamp,error_count,device_id,x,y,z,temperature,scaling,x_raw,y_raw,z_raw,is_external
133181914,0,263178,0.0981586,0.18222998,0.35453814,48.02549,0.0015,96,-96,-252,0
133291543,0,263178,0.060317256,0.18048857,0.36211112,48.040466,0.0015,97,-75,-257,0
133391514,0,263178,0.08554481,0.18048857,0.36514032,48.010513,0.0015,97,-89,-259,0
133895513,0,263178,0.06572315,0.17874713,0.36059654,48.00752,0.0015,98,-78,-256,0
134005161,0,263178,0.08374284,0.18919572,0.35150898,48.034477,0.0015,92,-88,-250,0
134106714,0,263178,0.056713317,0.18048857,0.35605276,48.04346,0.0015,97,-73,-253,0
134206740,0,263178,0.074733004,0.1770057,0.36211112,48.040466,0.0015,99,-83,-257,0
134307514,0,263178,0.058515284,0.17526427,0.36665493,48.00153,0.0015,100,-74,-260,0
134407514,0,263178,0.060317256,0.17352283,0.36514032,48.05245,0.0015,101,-75,-259,0
134509120,0,263178,0.07833694,0.17352283,0.34393597,48.022495,0.0015,101,-85,-245,0
134609113,0,263178,0.067525126,0.18397142,0.36816952,48.040466,0.0015,95,-79,-261,0
134709914,0,263178,0.07653497,0.17874713,0.35756737,48.058437,0.0015,98,-84,-254,0
134809933,0,263178,0.089148745,0.18397142,0.35605276,48.046455,0.0015,95,-91,-253,0
134901163,0,263178,0.08194087,0.1770057,0.36211112,48.03148,0.0015,99,-87,-257,0
135011528,0,263178,0.06572315,0.17178139,0.36059654,48.046455,0.0015,102,-78,-256,0
135112352,0,263178,0.07653497,0.19616146,0.35756737,48.02549,0.0015,88,-84,-254,0
135222713,0,263178,0.07293103,0.19964433,0.36665493,48.022495,0.0015,86,-82,-260,0
135323529,0,263178,0.07293103,0.17178139,0.35150898,48.00153,0.0015,102,-82,-250,0
135423514,0,263178,0.07112906,0.1770057,0.35605276,48.073414,0.0015,99,-81,-253,0
135513914,0,263178,0.09635662,0.18397142,0.36211112,48.058437,0.0015,95,-95,-257,0
135625914,0,263178,0.074733004,0.19093716,0.36816952,48.079403,0.0015,91,-83,-261,0
135725114,0,263178,0.08734678,0.17874713,0.35756737,48.055443,0.0015,98,-90,-254,0
135825914,0,263178,0.06932709,0.19267859,0.36059654,48.06143,0.0015,90,-80,-256,0
135925914,0,263178,0.09275269,0.17352283,0.36211112,48.058437,0.0015,101,-93,-257,0
136028314,0,263178,0.08374284,0.19267859,0.33636302,48.079403,0.0015,90,-88,-240,0
136137133,0,263178,0.09275269,0.18745428,0.3378776,48.04346,0.0015,93,-93,-241,0
136239523,0,263178,0.06572315,0.19267859,0.32727543,48.040466,0.0015,90,-78,-234,0
136339513,0,263178,0.07833694,0.18397142,0.31364408,48.09438,0.0015,95,-85,-225,0
136439537,0,263178,0.089148745,0.22228296,0.31061488,48.06143,0.0015,73,-91,-223,0
136539514,0,263178,0.06572315,0.20661005,0.3060711,48.07641,0.0015,82,-78,-220,0
136641916,0,263178,0.056713317,0.22228296,0.3015273,48.08839,0.0015,73,-73,-217,0
136741933,0,263178,0.07653497,0.20661005,0.29092512,48.097374,0.0015,82,-84,-210,0
136841914,0,263178,0.08194087,0.21183436,0.28335217,48.079403,0.0015,79,-87,-205,0
136953114,0,263178,0.07833694,0.22576581,0.28335217,48.08839,0.0015,71,-85,-205,0
137053114,0,263178,0.074733004,0.21183436,0.28032294,48.07641,0.0015,79,-83,-203,0
137153114,0,263178,0.08374284,0.19964433,0.3060711,48.06742,0.0015,86,-88,-220,0
137255536,0,263178,0.074733004,0.18397142,0.32879004,48.091385,0.0015,95,-83,-235,0
137355513,0,263178,0.07653497,0.19964433,0.2969835,48.09438,0.0015,86,-84,-214,0
137455513,0,263178,0.07112906,0.18048857,0.34999436,48.103363,0.0015,97,-81,-249,0
137565119,0,263178,0.06392119,0.17178139,0.34999436,48.08839,0.0015,102,-77,-249,0
137656314,0,263178,0.09095072,0.20312718,0.29092512,48.11834,0.0015,84,-92,-210,0
137766765,0,263178,0.06572315,0.18222998,0.33636302,48.13032,0.0015,96,-78,-240,0
137867566,0,263178,0.08554481,0.20486861,0.31667328,48.109356,0.0015,83,-89,-227,0
137969114,0,263178,0.07833694,0.21183436,0.2984981,48.11834,0.0015,79,-85,-215,0
138069145,0,263178,0.08554481,0.20138577,0.31364408,48.115345,0.0015,85,-89,-225,0
138169114,0,263178,0.107168436,0.20835148,0.27729377,48.124332,0.0015,81,-101,-201,0
138269914,0,263178,0.058515284,0.20661005,0.3000127,48.115345,0.0015,82,-74,-216,0
139294721,0,263178,0.06932709,0.21009292,0.29395434,48.19322,0.0015,80,-80,-212,0
139396356,0,263178,0.07653497,0.19616146,0.29395434,48.19921,0.0015,88,-84,-212,0
139496362,0,263178,0.09095072,0.19964433,0.31818786,48.151287,0.0015,86,-92,-228,0
139597123,0,263178,0.08554481,0.20835148,0.28335217,48.196217,0.0015,81,-89,-205,0
139697114,0,263178,0.07653497,0.22402439,0.3000127,48.184235,0.0015,72,-84,-216,0
139798713,0,263178,0.07112906,0.22228296,0.2924397,48.196217,0.0015,73,-81,-211,0
139908315,0,263178,0.067525126,0.20486861,0.32879004,48.19322,0.0015,83,-79,-235,0
140009920,0,263178,0.07833694,0.21531722,0.3045565,48.18723,0.0015,77,-85,-219,0
140109923,0,263178,0.06211922,0.19267859,0.31515867,48.178246,0.0015,90,-76,-226,0
140210715,0,263178,0.060317256,0.18745428,0.3015273,48.184235,0.0015,93,-75,-217,0
140310721,0,263178,0.056713317,0.20486861,0.31364408,48.160275,0.0015,83,-73,-225,0
140413139,0,263178,0.06392119,0.19442002,0.2924397,48.175247,0.0015,89,-77,-211,0
140521920,0,263178,0.08194087,0.20486861,0.2984981,48.2052,0.0015,83,-87,-215,0
140624314,0,263178,0.07833694,0.19093716,0.32273164,48.184235,0.0015,91,-85,-231,0
140723535,0,263178,0.08194087,0.21183436,0.28032294,48.226166,0.0015,79,-87,-203,0
140824336,0,263178,0.06392119,0.20835148,0.2924397,48.217182,0.0015,81,-77,-211,0
140924314,0,263178,0.049505442,0.22228296,0.2924397,48.19921,0.0015,73,-69,-211,0
141025164,0,263178,0.07293103,0.20661005,0.3000127,48.217182,0.0015,82,-82,-216,0
141126749,0,263178,0.07293103,0.21357578,0.29395434,48.208195,0.0015,78,-82,-212,0
141226714,0,263178,0.053109378,0.19790289,0.3045565,48.22916,0.0015,87,-71,-219,0
141326749,0,263178,0.09996056,0.21183436,0.28638133,48.208195,0.0015,79,-97,-207,0
141426714,0,263178,0.08734678,0.22402439,0.27275,48.241142,0.0015,72,-90,-198,0
141537925,0,263178,0.07293103,0.16829853,0.36059654,48.238148,0.0015,104,-82,-256,0
141637913,0,263178,0.08194087,0.18745428,0.35605276,48.244137,0.0015,93,-87,-253,0
141740314,0,263178,0.089148745,0.20486861,0.31970245,48.277084,0.0015,83,-91,-229,0
141839513,0,263178,0.07833694,0.22228296,0.2924397,48.238148,0.0015,73,-85,-211,0
141940314,0,263178,0.074733004,0.21183436,0.3075857,48.265102,0.0015,79,-83,-221,0
142040362,0,263178,0.07833694,0.21880008,0.265177,48.22317,0.0015,75,-85,-193,0
142141139,0,263178,0.06211922,0.21357578,0.28486675,48.25612,0.0015,78,-76,-206,0
142242713,0,263178,0.06572315,0.18222998,0.32121703,48.277084,0.0015,96,-78,-230,0
142351514,0,263178,0.06572315,0.19267859,0.34545058,48.28008,0.0015,90,-78,-246,0
142453917,0,263178,0.07293103,0.18919572,0.33636302,48.259113,0.0015,92,-82,-240,0
142553114,0,263178,0.074733004,0.22576581,0.3045565,48.2681,0.0015,71,-83,-219,0
142653914,0,263178,0.06211922,0.21705866,0.28486675,48.24713,0.0015,76,-76,-206,0
142753943,0,263178,0.056713317,0.22228296,0.32576084,48.25612,0.0015,73,-73,-233,0
142845114,0,263178,0.058515284,0.20312718,0.28789595,48.27409,0.0015,84,-74,-208,0
142956314,0,263178,0.04770347,0.21009292,0.30910027,48.277084,0.0015,80,-68,-222,0
143055531,0,263178,0.015268039,0.20312718,0.3333338,48.301044,0.0015,84,-50,-238,0
143156332,0,263178,-0.013563457,0.21705866,0.30910027,48.28008,0.0015,76,-34,-222,0
143256314,0,263178,-0.011761488,0.20835148,0.3015273,48.289066,0.0015,81,-35,-217,0
143367514,0,263178,-0.024375267,0.21357578,0.28789595,48.262108,0.0015,78,-28,-208,0
143467514,0,263178,-0.08924613,0.20312718,0.30910027,48.295055,0.0015,84,8,-222,0
143569913,0,263178,-0.10366188,0.20312718,0.31818786,48.27409,0.0015,84,16,-228,0
143669113,0,263178,-0.092850074,0.19267859,0.28183755,48.319016,0.0015,90,10,-204,0
143769914,0,263178,-0.100057945,0.17526427,0.32121703,48.32501,0.0015,100,14,-230,0
143869914,0,263178,-0.112671725,0.21531722,0.23791426,48.328003,0.0015,77,21,-175,0
143969914,0,263178,-0.11807763,0.17526427,0.2969835,48.28607,0.0015,100,24,-214,0
144072329,0,263178,-0.119879596,0.18397142,0.31364408,48.35496,0.0015,95,25,-225,0
144181131,0,263178,-0.087444164,0.19093716,0.29546893,48.351963,0.0015,91,7,-213,0
144272331,0,263178,-0.1252855,0.18919572,0.30910027,48.330997,0.0015,92,28,-222,0
144382732,0,263178,-0.12168156,0.17178139,0.28789595,48.31602,0.0015,102,26,-208,0
144483531,0,263178,-0.100057945,0.18919572,0.27880836,48.313026,0.0015,92,14,-202,0
144583522,0,263178,-0.10546385,0.17352283,0.2984981,48.34897,0.0015,101,17,-215,0
144674714,0,263178,-0.0910481,0.19442002,0.28638133,48.363945,0.0015,89,9,-207,0
144794714,0,263178,-0.08023629,0.17003997,0.31364408,48.328003,0.0015,103,3,-225,0
144885114,0,263178,-0.12888944,0.15784994,0.3333338,48.357956,0.0015,110,30,-238,0
144997113,0,263178,-0.085642196,0.17526427,0.31818786,48.34897,0.0015,100,6,-228,0
145096314,0,263178,-0.100057945,0.16829853,0.31212947,48.387905,0.0015,104,14,-224,0
145197114,0,263178,-0.10906779,0.1770057,0.3075857,48.36095,0.0015,99,19,-221,0
145297164,0,263178,-0.092850074,0.18571286,0.27275,48.36095,0.0015,94,10,-198,0
145399513,0,263178,-0.107265815,0.17874713,0.3000127,48.375927,0.0015,98,18,-216,0
145498722,0,263178,-0.107265815,0.16829853,0.31515867,48.336987,0.0015,104,18,-226,0
145599553,0,263178,-0.10546385,0.19442002,0.3045565,48.351963,0.0015,89,17,-219,0
145699514,0,263178,-0.119879596,0.18397142,0.2924397,48.36095,0.0015,95,25,-211,0
145809913,0,263178,-0.100057945,0.19964433,0.28486675,48.37892,0.0015,86,14,-206,0
145910714,0,263178,-0.107265815,0.19267859,0.3030419,48.387905,0.0015,90,18,-218,0
146010713,0,263178,-0.085642196,0.18222998,0.30910027,48.396893,0.0015,96,6,-222,0
146113131,0,263178,-0.107265815,0.17526427,0.3060711,48.393898,0.0015,100,18,-220,0
146221916,0,263178,-0.100057945,0.19616146,0.31212947,48.405876,0.0015,88,14,-224,0
146324313,0,263178,-0.07122645,0.18919572,0.3060711,48.414864,0.0015,92,-2,-220,0
146423514,0,263178,-0.09465204,0.16655709,0.3045565,48.393898,0.0015,105,11,-219,0
146524314,0,263178,-0.0910481,0.16655709,0.3075857,48.42984,0.0015,105,9,-221,0
146624313,0,263178,-0.09825598,0.19093716,0.31364408,48.42984,0.0015,91,13,-225,0
146724340,0,263178,-0.10546385,0.18745428,0.31061488,48.41786,0.0015,93,17,-223,0
146826713,0,263178,-0.100057945,0.20661005,0.2606332,48.432835,0.0015,82,14,-190,0
146925949,0,263178,-0.11086976,0.19616146,0.2636624,48.408875,0.0015,88,20,-192,0
147026718,0,263178,-0.08023629,0.19790289,0.2984981,48.408875,0.0015,87,3,-215,0
147137151,0,263178,-0.100057945,0.24143872,0.21519533,48.420853,0.0015,62,14,-160,0
147237913,0,263178,-0.087444164,0.23273155,0.2318559,48.45979,0.0015,67,7,-171,0
147337914,0,263178,-0.09465204,0.17003997,0.32273164,48.486748,0.0015,103,11,-231,0
147428314,0,263178,-0.08384023,0.18048857,0.32273164,48.474766,0.0015,97,5,-231,0
147539513,0,263178,-0.11807763,0.19267859,0.32121703,48.44781,0.0015,90,24,-230,0
147639517,0,263178,-0.12348354,0.19790289,0.29546893,48.456795,0.0015,87,27,-213,0
147740314,0,263178,-0.092850074,0.19267859,0.27880836,48.450806,0.0015,90,10,-202,0
147840313,0,263178,-0.11086976,0.19964433,0.3060711,48.456795,0.0015,86,20,-220,0
147942713,0,263178,-0.10546385,0.16655709,0.31667328,48.465782,0.0015,105,17,-227,0
148051514,0,263178,-0.11086976,0.19964433,0.29395434,48.465782,0.0015,86,20,-212,0
148142714,0,263178,-0.08203826,0.19267859,0.29092512,48.462788,0.0015,90,4,-210,0
148253135,0,263178,-0.10366188,0.19267859,0.28486675,48.47177,0.0015,90,16,-206,0
148353944,0,263178,-0.100057945,0.17874713,0.2969835,48.4538,0.0015,98,14,-214,0
148453913,0,263178,-0.10366188,0.18571286,0.2697208,48.52868,0.0015,94,16,-196,0
148553932,0,263178,-0.09825598,0.19442002,0.27729377,48.49573,0.0015,89,13,-201,0
148655514,0,263178,-0.10185991,0.20138577,0.28941053,48.483753,0.0015,85,15,-209,0
148755514,0,263178,-0.100057945,0.18222998,0.31212947,48.513702,0.0015,96,14,-224,0
148856314,0,263178,-0.08023629,0.19093716,0.26820618,48.507713,0.0015,91,3,-195,0
148956313,0,263178,-0.07663236,0.20138577,0.26820618,48.510708,0.0015,85,1,-195,0
149058718,0,263178,-0.10366188,0.19267859,0.25154564,48.501724,0.0015,90,16,-184,0
149167514,0,263178,-0.107265815,0.21357578,0.2697208,48.510708,0.0015,78,18,-196,0
149258714,0,263178,-0.13069141,0.21183436,0.265177,48.525684,0.0015,79,31,-193,0
149369113,0,263178,-0.107265815,0.19964433,0.2636624,48.510708,0.0015,86,18,-192,0
149469131,0,263178,-0.112671725,0.20835148,0.25911862,48.531673,0.0015,81,21,-189,0
149569932,0,263178,-0.11086976,0.21357578,0.23639968,48.53467,0.0015,78,20,-174,0
149669914,0,263178,-0.087444164,0.20486861,0.23791426,48.552643,0.0015,83,7,-175,0
149771513,0,263178,-0.067622505,0.19267859,0.257604,48.555637,0.0015,90,-4,-188,0
149881162,0,263178,-0.05500873,0.24318014,0.19550559,48.52868,0.0015,61,-11,-147,0
149982714,0,263178,-0.09825598,0.21183436,0.22882669,48.519695,0.0015,79,13,-169,0
150082714,0,263178,-0.08023629,0.25014588,0.1924764,48.55863,0.0015,57,3,-145,0
150183519,0,263178,-0.092850074,0.23447298,0.18187423,48.549644,0.0015,66,10,-138,0
150283517,0,263178,-0.0910481,0.18397142,0.28638133,48.525684,0.0015,95,9,-207,0
150373913,0,263178,-0.11807763,0.22054152,0.257604,48.57361,0.0015,74,24,-188,0
150485132,0,263178,-0.09825598,0.18745428,0.28032294,48.537666,0.0015,93,13,-203,0
150585135,0,263178,-0.100057945,0.21357578,0.2606332,48.52868,0.0015,78,14,-190,0
150685936,0,263178,-0.10906779,0.19442002,0.2924397,48.543655,0.0015,89,19,-211,0
150785914,0,263178,-0.10185991,0.17352283,0.2621478,48.52269,0.0015,101,15,-191,0
150897121,0,263178,-0.09825598,0.20835148,0.23488508,48.53467,0.0015,81,13,-173,0
150997143,0,263178,-0.112671725,0.20138577,0.25306025,48.54665,0.0015,85,21,-185,0
151088314,0,263178,-0.100057945,0.22054152,0.25154564,48.567616,0.0015,74,14,-184,0
151198753,0,263178,-0.087444164,0.18397142,0.2621478,48.55863,0.0015,95,7,-191,0
151298718,0,263178,-0.09825598,0.18048857,0.31364408,48.55863,0.0015,97,13,-225,0
151399514,0,263178,-0.07663236,0.20138577,0.26820618,48.567616,0.0015,85,1,-195,0
151499514,0,263178,-0.085642196,0.22054152,0.24245808,48.561626,0.0015,74,6,-178,0
151610714,0,263178,-0.09645401,0.20661005,0.2666916,48.570614,0.0015,82,12,-194,0
151710732,0,263178,-0.09645401,0.16481566,0.32121703,48.59757,0.0015,106,12,-230,0
151813163,0,263178,-0.10185991,0.16655709,0.34393597,48.567616,0.0015,105,15,-245,0
151912353,0,263178,-0.092850074,0.16481566,0.34847978,48.57361,0.0015,106,10,-248,0
152013163,0,263178,-0.10366188,0.17526427,0.35756737,48.600563,0.0015,100,16,-254,0
152113114,0,263178,-0.112671725,0.17003997,0.35302356,48.56462,0.0015,103,21,-251,0
152213915,0,263178,-0.09645401,0.17178139,0.3393922,48.579597,0.0015,102,12,-242,0
152314714,0,263178,-0.09645401,0.18919572,0.35150898,48.63351,0.0015,92,12,-250,0
152414714,0,263178,-0.073028415,0.18397142,0.29546893,48.636505,0.0015,95,-1,-213,0
152525914,0,263178,-0.092850074,0.18919572,0.2666916,48.59757,0.0015,92,10,-194,0
152625913,0,263178,-0.112671725,0.18745428,0.3075857,48.62752,0.0015,93,21,-221,0
152726750,0,263178,-0.092850074,0.18919572,0.28183755,48.603558,0.0015,92,10,-204,0
152826714,0,263178,-0.10366188,0.24840444,0.13643634,48.606556,0.0015,58,16,-108,0
152928320,0,263178,-0.10366188,0.16481566,0.34545058,48.62752,0.0015,106,16,-246,0
153028313,0,263178,-0.06942448,0.17352283,0.3318192,48.606556,0.0015,101,-3,-237,0
153128313,0,263178,-0.11627566,0.19790289,0.2924397,48.59158,0.0015,87,23,-211,0
153229114,0,263178,-0.107265815,0.18919572,0.3030419,48.645493,0.0015,92,18,-218,0
153329113,0,263178,-0.09645401,0.19964433,0.2757792,48.65747,0.0015,86,12,-200,0
153440313,0,263178,-0.11807763,0.20312718,0.27880836,48.669453,0.0015,84,24,-202,0
153540342,0,263178,-0.100057945,0.19616146,0.3060711,48.65148,0.0015,88,14,-220,0
153641918,0,263178,-0.10366188,0.18222998,0.31212947,48.66047,0.0015,96,16,-224,0
153741914,0,263178,-0.09825598,0.17352283,0.31667328,48.67544,0.0015,101,13,-227,0
153842726,0,263178,-0.087444164,0.20138577,0.28638133,48.636505,0.0015,85,7,-207,0
153942714,0,263178,-0.09825598,0.19093716,0.3015273,48.65148,0.0015,91,13,-217,0
154044314,0,263178,-0.087444164,0.18745428,0.3075857,48.669453,0.0015,93,7,-221,0
154144314,0,263178,-0.10366188,0.17526427,0.28789595,48.66646,0.0015,100,16,-208,0
154244380,0,263178,-0.10366188,0.18222998,0.3030419,48.669453,0.0015,96,16,-218,0
154345131,0,263178,-0.107265815,0.19267859,0.30910027,48.687424,0.0015,90,18,-222,0
154455538,0,263178,-0.10906779,0.20486861,0.3045565,48.687424,0.0015,83,19,-219,0
154546732,0,263178,-0.092850074,0.21357578,0.2606332,48.67544,0.0015,78,10,-190,0
154656313,0,263178,-0.112671725,0.1770057,0.3015273,48.687424,0.0015,99,21,-217,0
154757920,0,263178,-0.11447369,0.19616146,0.27880836,48.72636,0.0015,88,22,-202,0
154857914,0,263178,-0.11807763,0.18919572,0.29395434,48.717377,0.0015,92,24,-212,0
154957914,0,263178,-0.042394955,0.18222998,0.28789595,48.72037,0.0015,96,-18,-208,0
155058714,0,263178,-0.0225733,0.18745428,0.3378776,48.723366,0.0015,93,-29,-241,0
155160314,0,263178,0.026079852,0.18222998,0.28789595,48.77129,0.0015,96,-56,-208,0
155260313,0,263178,0.056713317,0.19093716,0.33484843,48.723366,0.0015,91,-73,-239,0
155369931,0,263178,0.024277883,0.20835148,0.2924397,48.705395,0.0015,81,-55,-211,0
155461113,0,263178,-0.03518708,0.26581877,0.21822453,48.75332,0.0015,48,-22,-162,0
155571531,0,263178,-0.067622505,0.35289043,0.15158232,48.762302,0.0015,-2,-4,-118,0
155672383,0,263178,-0.100057945,0.40165055,0.18490341,48.756313,0.0015,-30,14,-140,0
155772325,0,263178,-0.09825598,0.3999091,0.13795096,48.732353,0.0015,-29,13,-109,0
155873932,0,263178,-0.112671725,0.403392,0.1167466,48.75332,0.0015,-31,21,-95,0
155973914,0,263178,-0.10185991,0.42428917,0.10462984,48.762302,0.0015,-43,15,-87,0
156073914,0,263178,-0.14690913,0.41906485,0.14552392,48.759308,0.0015,-40,40,-114,0
156174714,0,263178,-0.08924613,0.35985616,0.21216615,48.75332,0.0015,-6,8,-158,0
156276314,0,263178,-0.12708747,0.20835148,0.28032294,48.741337,0.0015,81,29,-203,0
156385914,0,263178,-0.08924613,0.20312718,0.28183755,48.756313,0.0015,84,8,-204,0
156485926,0,263178,-0.15772092,0.21009292,0.25457484,48.750324,0.0015,80,46,-186,0
156587513,0,263178,-0.2460174,0.23273155,0.17127205,48.780273,0.0015,67,95,-131,0
156687513,0,263178,-0.26944298,0.19964433,0.20610777,48.801243,0.0015,86,108,-154,0
156788314,0,263178,-0.28025478,0.21009292,0.18793261,48.780273,0.0015,80,114,-142,0
156898771,0,263178,-0.2964725,0.20835148,0.2257975,48.762302,0.0015,81,123,-167,0
156999547,0,263178,-0.28746265,0.19616146,0.20610777,48.7653,0.0015,88,118,-154,0
157099514,0,263178,-0.16853274,0.23795585,0.2333705,48.816216,0.0015,64,52,-172,0
157210714,0,263178,-0.073028415,0.20486861,0.25003102,48.774284,0.0015,83,-1,-183,0
157310714,0,263178,-0.13970125,0.33895895,0.23942886,48.79525,0.0015,6,36,-176,0
157412326,0,263178,-0.087444164,0.39294338,0.17127205,48.79525,0.0015,-25,7,-131,0
157512325,0,263178,-0.10546385,0.403392,0.14400934,48.798244,0.0015,-31,17,-113,0
157612344,0,263178,-0.11086976,0.42254773,0.12431958,48.780273,0.0015,-42,20,-100,0
157713119,0,263178,-0.09465204,0.4312549,0.113717414,48.786266,0.0015,-47,11,-93,0
157813114,0,263178,-0.09825598,0.403392,0.1530969,48.792255,0.0015,-31,13,-119,0
157924315,0,263178,-0.09645401,0.35985616,0.20004937,48.792255,0.0015,-6,12,-150,0
158024341,0,263178,-0.10185991,0.2605945,0.25608942,48.78926,0.0015,51,15,-187,0
158125966,0,263178,-0.10906779,0.21880008,0.2984981,48.825203,0.0015,75,19,-215,0
158225931,0,263178,-0.07483038,0.18571286,0.29395434,48.786266,0.0015,94,0,-212,0
158326720,0,263178,-0.100057945,0.16829853,0.32727543,48.804237,0.0015,104,14,-234,0
158426714,0,263178,-0.08023629,0.17003997,0.31970245,48.831192,0.0015,103,3,-229,0
158528331,0,263178,-0.10906779,0.18048857,0.31970245,48.801243,0.0015,97,19,-229,0
158628318,0,263178,-0.10366188,0.17526427,0.33030462,48.831192,0.0015,100,16,-236,0
158728314,0,263178,-0.08023629,0.107348375,0.31061488,48.837185,0.0015,139,3,-223,0
158829114,0,263178,-0.09645401,0.08819262,0.33030462,48.810226,0.0015,150,12,-236,0
158939516,0,263178,-0.100057945,0.04291536,0.3757425,48.825203,0.0015,176,14,-266,0
159040313,0,263178,-0.11627566,0.055105392,0.3318192,48.82221,0.0015,169,23,-237,0
159140314,0,263178,-0.07483038,0.053363957,0.31515867,48.819214,0.0015,170,0,-226,0
159241914,0,263178,-0.09825598,0.062071122,0.32879004,48.84018,0.0015,165,13,-235,0
159351535,0,263178,-0.087444164,0.07600258,0.3378776,48.84018,0.0015,157,7,-241,0
159441966,0,263178,-0.065820545,0.09689978,0.29546893,48.84617,0.0015,145,-5,-213,0
159553120,0,263178,-0.0910481,0.07948545,0.3378776,48.867134,0.0015,155,9,-241,0
159653167,0,263178,-0.08023629,0.07948545,0.32879004,48.861145,0.0015,155,3,-235,0
159753915,0,263178,-0.065820545,0.11779697,0.31667328,48.86414,0.0015,133,-5,-227,0
159855531,0,263178,-0.073028415,0.13172844,0.3075857,48.90907,0.0015,125,-1,-221,0
159955513,0,263178,-0.08924613,0.17526427,0.2757792,48.879116,0.0015,100,8,-200,0
160065114,0,263178,-0.078434326,0.19616146,0.3045565,48.88211,0.0015,88,2,-219,0
160778714,0,263178,-0.10906779,0.19616146,0.3075857,48.912064,0.0015,88,19,-221,0
160880379,0,263178,-0.10546385,0.18397142,0.32576084,48.90607,0.0015,95,17,-233,0
160980313,0,263178,-0.10906779,0.19442002,0.31061488,48.894093,0.0015,89,19,-223,0
161081157,0,263178,-0.10366188,0.21357578,0.27275,48.93902,0.0015,78,16,-198,0
161182751,0,263178,-0.085642196,0.18919572,0.32727543,48.912064,0.0015,92,6,-234,0
161282714,0,263178,-0.09465204,0.19093716,0.28941053,48.936024,0.0015,91,11,-209,0
161382714,0,263178,-0.09825598,0.19790289,0.2984981,48.92404,0.0015,87,13,-215,0
161484315,0,263178,-0.11086976,0.18919572,0.32121703,48.92704,0.0015,92,20,-230,0
161583514,0,263178,-0.10906779,0.19790289,0.28638133,48.959984,0.0015,87,19,-207,0
161685114,0,263178,-0.09645401,0.19267859,0.31818786,48.912064,0.0015,90,12,-228,0
161794714,0,263178,-0.107265815,0.19616146,0.27880836,48.980953,0.0015,88,18,-202,0
161896314,0,263178,-0.11627566,0.1770057,0.32273164,48.942013,0.0015,99,23,-231,0
161996323,0,263178,-0.100057945,0.21009292,0.29395434,48.93902,0.0015,80,14,-212,0
162096314,0,263178,-0.12888944,0.20661005,0.29395434,48.95699,0.0015,82,30,-212,0
162197114,0,263178,-0.10906779,0.19442002,0.265177,48.95699,0.0015,89,19,-193,0
162297942,0,263178,-0.1433052,0.19616146,0.3030419,48.953995,0.0015,88,38,-218,0
162398713,0,263178,-0.13249338,0.21009292,0.28789595,48.980953,0.0015,80,32,-208,0
162498714,0,263178,-0.107265815,0.21357578,0.27275,48.948006,0.0015,78,18,-198,0
162600318,0,263178,-0.119879596,0.22924867,0.3045565,48.96897,0.0015,69,25,-219,0
162699543,0,263178,-0.112671725,0.23273155,0.28032294,48.986942,0.0015,67,21,-203,0
162801114,0,263178,-0.13609731,0.24840444,0.28789595,48.97496,0.0015,58,34,-208,0
162910714,0,263178,-0.08203826,0.2518873,0.2303413,48.94501,0.0015,56,4,-170,0
163012325,0,263178,-0.13970125,0.28671595,0.2757792,48.995926,0.0015,36,36,-200,0
163112326,0,263178,-0.13429534,0.2605945,0.27426457,48.995926,0.0015,51,33,-199,0
163212325,0,263178,-0.08384023,0.25362873,0.2621478,48.983948,0.0015,55,5,-191,0
163313114,0,263178,-0.119879596,0.2605945,0.2621478,48.959984,0.0015,51,25,-191,0
163414714,0,263178,-0.11807763,0.2623359,0.2606332,49.01989,0.0015,50,24,-190,0
163514713,0,263178,-0.11627566,0.24318014,0.28941053,49.03786,0.0015,61,23,-209,0
163625914,0,263178,-0.10906779,0.22924867,0.29546893,49.03786,0.0015,69,19,-213,0
163725935,0,263178,-0.13249338,0.22054152,0.28183755,49.01989,0.0015,74,32,-204,0
163825914,0,263178,-0.1252855,0.22750725,0.27275,49.004913,0.0015,70,28,-198,0
163927514,0,263178,-0.13429534,0.21183436,0.29546893,48.986942,0.0015,79,33,-213,0
164026716,0,263178,-0.13069141,0.21183436,0.2984981,49.010902,0.0015,79,31,-215,0
164128314,0,263178,-0.13069141,0.21183436,0.3075857,48.983948,0.0015,79,31,-221,0
164228313,0,263178,-0.12348354,0.20486861,0.28638133,49.02588,0.0015,83,27,-207,0
164328314,0,263178,-0.11447369,0.18222998,0.3000127,49.034866,0.0015,96,22,-216,0
164429114,0,263178,-0.11807763,0.19964433,0.3030419,49.040855,0.0015,86,24,-218,0
164530720,0,263178,-0.11086976,0.20661005,0.27880836,49.03786,0.0015,82,20,-202,0
164641115,0,263178,-0.09645401,0.19267859,0.28183755,49.073803,0.0015,90,12,-204,0
164741914,0,263178,-0.12168156,0.19267859,0.3000127,49.058826,0.0015,90,26,-216,0
164841913,0,263178,-0.12708747,0.21531722,0.28335217,49.058826,0.0015,77,29,-205,0
164941921,0,263178,-0.13970125,0.18919572,0.3060711,49.028873,0.0015,92,36,-220,0
165041914,0,263178,-0.14510715,0.19442002,0.3075857,49.064816,0.0015,89,39,-221,0
165142713,0,263178,-0.12708747,0.20138577,0.29546893,49.064816,0.0015,85,29,-213,0
165244314,0,263178,-0.10906779,0.20138577,0.28638133,49.052837,0.0015,85,19,-207,0
165344315,0,263178,-0.14150321,0.21183436,0.3045565,49.040855,0.0015,79,37,-219,0
165444314,0,263178,-0.11627566,0.21531722,0.28032294,49.100758,0.0015,77,23,-203,0
165545958,0,263178,-0.100057945,0.21009292,0.27880836,49.06781,0.0015,80,14,-202,0
165655514,0,263178,-0.13609731,0.19964433,0.31515867,49.08578,0.0015,86,34,-226,0
165757121,0,263178,-0.13069141,0.21531722,0.27729377,49.100758,0.0015,77,31,-201,0
165857914,0,263178,-0.12168156,0.21009292,0.28183755,49.11274,0.0015,80,26,-204,0
165957926,0,263178,-0.13609731,0.20661005,0.31212947,49.06781,0.0015,82,34,-224,0
166057934,0,263178,-0.11807763,0.21009292,0.28789595,49.091774,0.0015,80,24,-208,0
166157932,0,263178,-0.112671725,0.22576581,0.3015273,49.082787,0.0015,71,21,-217,0
166259550,0,263178,-0.10546385,0.21531722,0.27729377,49.079792,0.0015,77,17,-201,0
166360348,0,263178,-0.09825598,0.20138577,0.28941053,49.100758,0.0015,85,13,-209,0
166460313,0,263178,-0.08924613,0.21009292,0.27880836,49.06781,0.0015,80,8,-202,0
166560314,0,263178,-0.11807763,0.21009292,0.28789595,49.109745,0.0015,80,24,-208,0
166671514,0,263178,-0.12888944,0.17874713,0.29395434,49.11873,0.0015,98,30,-212,0
166771514,0,263178,-0.11086976,0.20661005,0.29092512,49.109745,0.0015,82,20,-210,0
166871518,0,263178,-0.12888944,0.21705866,0.27275,49.06781,0.0015,76,30,-198,0
166973917,0,263178,-0.12708747,0.20835148,0.3015273,49.09477,0.0015,81,29,-217,0
167073913,0,263178,-0.11086976,0.22054152,0.29395434,49.08578,0.0015,74,20,-212,0
167173913,0,263178,-0.12168156,0.22054152,0.30910027,49.109745,0.0015,74,26,-222,0
167273914,0,263178,-0.10906779,0.21531722,0.27426457,49.145687,0.0015,77,19,-199,0
167376355,0,263178,-0.12888944,0.20312718,0.2969835,49.121723,0.0015,84,30,-214,0
167485114,0,263178,-0.10366188,0.19964433,0.24548726,49.097763,0.0015,86,16,-180,0
167586736,0,263178,-0.12888944,0.18919572,0.2757792,49.1367,0.0015,92,30,-200,0
167687537,0,263178,-0.15051307,0.20661005,0.28789595,49.127716,0.0015,82,42,-208,0
167787514,0,263178,-0.16673079,0.20835148,0.3045565,49.145687,0.0015,81,51,-219,0
167887529,0,263178,-0.1252855,0.20661005,0.29395434,49.12472,0.0015,82,28,-212,0
167988332,0,263178,-0.13429534,0.19442002,0.28335217,49.12472,0.0015,89,33,-205,0
168089939,0,263178,-0.11807763,0.19616146,0.28486675,49.12472,0.0015,88,24,-206,0
168199514,0,263178,-0.11086976,0.20661005,0.29395434,49.166653,0.0015,82,20,-212,0
168301113,0,263178,-0.12168156,0.22054152,0.2969835,49.12472,0.0015,74,26,-214,0
168401114,0,263178,-0.1378993,0.21183436,0.3015273,49.121723,0.0015,79,35,-217,0
168501114,0,263178,-0.10366188,0.21009292,0.29395434,49.15467,0.0015,80,16,-212,0
168601113,0,263178,-0.10185991,0.20835148,0.2924397,49.121723,0.0015,81,15,-211,0
168703514,0,263178,-0.09645401,0.20661005,0.29395434,49.133705,0.0015,82,12,-212,0
168803514,0,263178,-0.11447369,0.19964433,0.3030419,49.15767,0.0015,86,22,-218,0
168903532,0,263178,-0.085642196,0.19964433,0.2757792,49.178635,0.0015,86,6,-200,0
169014732,0,263178,-0.05500873,0.21531722,0.26820618,49.184624,0.0015,77,-11,-195,0
169114713,0,263178,-0.10546385,0.22924867,0.3015273,49.15767,0.0015,69,17,-217,0
169214714,0,263178,-0.0910481,0.20138577,0.27729377,49.15767,0.0015,85,9,-201,0
169315514,0,263178,-0.11447369,0.18222998,0.30910027,49.18762,0.0015,96,22,-222,0
169417118,0,263178,-0.100057945,0.19964433,0.31212947,49.208584,0.0015,86,14,-224,0
169517118,0,263178,-0.09465204,0.23969728,0.27426457,49.202595,0.0015,63,11,-199,0
169617114,0,263178,-0.10366188,0.23447298,0.27880836,49.196606,0.0015,66,16,-202,0
169718714,0,263178,-0.11807763,0.23099011,0.2969835,49.196606,0.0015,68,24,-214,0
169818744,0,263178,-0.08384023,0.23273155,0.28335217,49.21757,0.0015,67,5,-205,0
169928333,0,263178,-0.085642196,0.22054152,0.28486675,49.1996,0.0015,74,6,-206,0
170030714,0,263178,-0.11807763,0.23795585,0.3030419,49.20559,0.0015,64,24,-218,0
170130713,0,263178,-0.087444164,0.23621441,0.265177,49.19361,0.0015,65,7,-193,0
170230714,0,263178,-0.107265815,0.22750725,0.29395434,49.214577,0.0015,70,18,-212,0
170330746,0,263178,-0.0910481,0.21183436,0.3015273,49.214577,0.0015,79,9,-217,0
170431550,0,263178,-0.11627566,0.22228296,0.28941053,49.17264,0.0015,73,23,-209,0
170533121,0,263178,-0.08023629,0.21183436,0.28941053,49.226555,0.0015,79,3,-209,0
170633128,0,263178,-0.087444164,0.22924867,0.2621478,49.235542,0.0015,69,7,-191,0
170733119,0,263178,-0.10906779,0.20486861,0.28335217,49.202595,0.0015,83,19,-205,0
170834725,0,263178,-0.12168156,0.19267859,0.31818786,49.24153,0.0015,90,26,-228,0
170944314,0,263178,-0.09825598,0.19442002,0.31667328,49.202595,0.0015,89,13,-227,0
171045119,0,263178,-0.119879596,0.1770057,0.3015273,49.220566,0.0015,99,25,-217,0
171146714,0,263178,-0.11627566,0.19093716,0.2984981,49.220566,0.0015,91,23,-215,0
171246714,0,263178,-0.12708747,0.19093716,0.28032294,49.226555,0.0015,91,29,-203,0
171346777,0,263178,-0.11447369,0.17526427,0.3000127,49.277473,0.0015,100,22,-216,0
171446714,0,263178,-0.12708747,0.18048857,0.28941053,49.247524,0.0015,97,29,-209,0
171548402,0,263178,-0.112671725,0.18397142,0.28941053,49.256508,0.0015,95,21,-209,0
171657914,0,263178,-0.087444164,0.1770057,0.3015273,49.24153,0.0015,99,7,-217,0
171758715,0,263178,-0.11447369,0.18919572,0.3030419,49.26849,0.0015,92,22,-218,0
171860314,0,263178,-0.107265815,0.19964433,0.28486675,49.25052,0.0015,86,18,-206,0
171960320,0,263178,-0.11447369,0.19267859,0.2969835,49.226555,0.0015,90,22,-214,0
172060314,0,263178,-0.1378993,0.20138577,0.31970245,49.271484,0.0015,85,35,-229,0
172161134,0,263178,-0.09465204,0.17003997,0.3015273,49.283466,0.0015,103,11,-217,0
172262714,0,263178,-0.100057945,0.19616146,0.28789595,49.26849,0.0015,88,14,-208,0
172665114,0,263178,-0.10546385,0.17003997,0.2924397,49.28646,0.0015,103,17,-211,0
172773914,0,263178,-0.13429534,0.20486861,0.2924397,49.29245,0.0015,83,33,-211,0
172875532,0,263178,-0.11807763,0.18222998,0.31515867,49.27448,0.0015,96,24,-226,0
172976330,0,263178,-0.13970125,0.19616146,0.31515867,49.28646,0.0015,88,36,-226,0
173076313,0,263178,-0.11807763,0.18222998,0.3030419,49.307426,0.0015,96,24,-218,0
173176314,0,263178,-0.107265815,0.18571286,0.3393922,49.325397,0.0015,94,18,-242,0
173277114,0,263178,-0.119879596,0.16655709,0.2924397,49.253513,0.0015,105,25,-211,0
173378717,0,263178,-0.13609731,0.18222998,0.31818786,49.262497,0.0015,96,34,-228,0
173478714,0,263178,-0.112671725,0.20835148,0.27426457,49.29844,0.0015,81,21,-199,0
173578715,0,263178,-0.11807763,0.19267859,0.30910027,49.280468,0.0015,90,24,-222,0
173680320,0,263178,-0.12168156,0.20312718,0.29092512,49.28646,0.0015,84,26,-210,0
173781114,0,263178,-0.100057945,0.19964433,0.31818786,49.33438,0.0015,86,14,-228,0
173890715,0,263178,-0.0910481,0.20138577,0.265177,49.283466,0.0015,85,9,-193,0
173991558,0,263178,-0.08924613,0.18571286,0.27880836,49.295444,0.0015,94,8,-202,0
174092328,0,263178,-0.10906779,0.20835148,0.28638133,49.325397,0.0015,81,19,-207,0
174192325,0,263178,-0.11086976,0.22054152,0.2969835,49.31042,0.0015,74,20,-214,0
174292325,0,263178,-0.085642196,0.20312718,0.2969835,49.28646,0.0015,84,6,-214,0
174393114,0,263178,-0.12888944,0.22054152,0.28486675,49.295444,0.0015,74,30,-206,0
174494714,0,263178,-0.11807763,0.21357578,0.29395434,49.33738,0.0015,78,24,-212,0
174594714,0,263178,-0.07663236,0.21183436,0.28335217,49.304432,0.0015,79,1,-205,0
174694714,0,263178,-0.1252855,0.22054152,0.29092512,49.33738,0.0015,74,28,-210,0
174795519,0,263178,-0.11807763,0.21009292,0.31212947,49.346363,0.0015,80,24,-224,0
174905914,0,263178,-0.08023629,0.19442002,0.28941053,49.33738,0.0015,89,3,-209,0
175006714,0,263178,-0.09825598,0.22576581,0.27123538,49.349358,0.0015,71,13,-197,0
175108313,0,263178,-0.1433052,0.21357578,0.29092512,49.352352,0.0015,78,38,-210,0
175208314,0,263178,-0.09825598,0.19442002,0.3045565,49.349358,0.0015,89,13,-219,0
175308314,0,263178,-0.112671725,0.21183436,0.27729377,49.33738,0.0015,79,21,-201,0
175409914,0,263178,-0.08023629,0.19442002,0.25306025,49.364334,0.0015,89,3,-185,0
175510738,0,263178,-0.11447369,0.20661005,0.3000127,49.325397,0.0015,82,22,-216,0
175610740,0,263178,-0.09645401,0.18571286,0.28486675,49.34337,0.0015,94,12,-206,0
175710713,0,263178,-0.10546385,0.19442002,0.29546893,49.3853,0.0015,89,17,-213,0
175810714,0,263178,-0.11447369,0.19964433,0.29395434,49.370323,0.0015,86,22,-212,0
175921926,0,263178,-0.092850074,0.20312718,0.28486675,49.364334,0.0015,84,10,-206,0
176021914,0,263178,-0.112671725,0.22924867,0.28335217,49.37931,0.0015,69,21,-205,0
176122714,0,263178,-0.12168156,0.21009292,0.3030419,49.349358,0.0015,80,26,-218,0
176224315,0,263178,-0.09825598,0.20835148,0.28638133,49.364334,0.0015,81,13,-207,0
176324313,0,263178,-0.092850074,0.21357578,0.31212947,49.376316,0.0015,78,10,-224,0
176424314,0,263178,-0.13069141,0.20835148,0.2984981,49.35535,0.0015,81,31,-215,0
176525118,0,263178,-0.08384023,0.20486861,0.27123538,49.37332,0.0015,83,5,-197,0
176626714,0,263178,-0.10366188,0.19267859,0.2969835,49.406265,0.0015,90,16,-214,0
176726714,0,263178,-0.11627566,0.19790289,0.2984981,49.39728,0.0015,87,23,-215,0
176837940,0,263178,-0.085642196,0.19267859,0.31818786,49.382305,0.0015,90,6,-228,0
176937916,0,263178,-0.100057945,0.17178139,0.3030419,49.388294,0.0015,102,14,-218,0
177037914,0,263178,-0.119879596,0.19790289,0.3045565,49.394287,0.0015,87,25,-219,0
177139515,0,263178,-0.107265815,0.18571286,0.28183755,49.409264,0.0015,94,18,-204,0
177238716,0,263178,-0.100057945,0.17526427,0.28789595,49.406265,0.0015,100,14,-208,0
177340314,0,263178,-0.12708747,0.18397142,0.31364408,49.406265,0.0015,95,29,-225,0
177440314,0,263178,-0.1252855,0.19616146,0.3030419,49.451195,0.0015,88,28,-218,0
177541120,0,263178,-0.10185991,0.16655709,0.3075857,49.406265,0.0015,105,15,-221,0
177641114,0,263178,-0.11447369,0.19616146,0.2969835,49.400276,0.0015,88,22,-214,0
177742714,0,263178,-0.10366188,0.19267859,0.30910027,49.457184,0.0015,90,16,-222,0
177852324,0,263178,-0.13069141,0.17352283,0.3075857,49.418247,0.0015,101,31,-221,0
177953914,0,263178,-0.07663236,0.19093716,0.27729377,49.37332,0.0015,91,1,-201,0
178053914,0,263178,-0.11807763,0.18222998,0.31212947,49.42124,0.0015,96,24,-224,0
178154714,0,263178,-0.10906779,0.19093716,0.32576084,49.42124,0.0015,91,19,-233,0
178254722,0,263178,-0.09465204,0.1770057,0.31970245,49.418247,0.0015,99,11,-229,0
178345161,0,263178,-0.119879596,0.19442002,0.28638133,49.451195,0.0015,89,25,-207,0
178465926,0,263178,-0.10546385,0.18048857,0.31667328,49.43023,0.0015,97,17,-227,0
178557122,0,263178,-0.10546385,0.19442002,0.31061488,49.43622,0.0015,89,17,-223,0
178667513,0,263178,-0.09645401,0.17874713,0.2969835,49.406265,0.0015,98,12,-214,0
178768314,0,263178,-0.11627566,0.19790289,0.2984981,49.45419,0.0015,87,23,-215,0
178868314,0,263178,-0.112671725,0.21183436,0.3045565,49.463177,0.0015,79,21,-219,0
178959514,0,263178,-0.12348354,0.19093716,0.2924397,49.445206,0.0015,91,27,-211,0
179069914,0,263178,-0.13429534,0.19442002,0.3045565,49.418247,0.0015,89,33,-219,0
179170714,0,263178,-0.112671725,0.20486861,0.28941053,49.439213,0.0015,83,21,-209,0
179281162,0,263178,-0.092850074,0.20661005,0.2666916,49.439213,0.0015,82,10,-194,0
179381941,0,263178,-0.07663236,0.23273155,0.18944721,49.433224,0.0015,67,1,-143,0
179481914,0,263178,-0.119879596,0.20486861,0.28638133,49.47815,0.0015,83,25,-207,0
179573115,0,263178,-0.10185991,0.18745428,0.31364408,49.47216,0.0015,93,15,-225,0
179784314,0,263178,-0.073028415,0.19790289,0.27426457,49.484142,0.0015,87,-1,-199,0
180800314,0,263178,-0.12348354,0.19093716,0.28941053,49.47815,0.0015,91,27,-209,0
180900314,0,263178,-0.10366188,0.18919572,0.2969835,49.481148,0.0015,92,16,-214,0
181001115,0,263178,-0.092850074,0.19267859,0.29092512,49.532063,0.0015,90,10,-210,0
181111514,0,263178,-0.11447369,0.20312718,0.3000127,49.52308,0.0015,84,22,-216,0
181213157,0,263178,-0.11807763,0.18571286,0.3060711,49.508102,0.0015,94,24,-220,0
181313914,0,263178,-0.092850074,0.17526427,0.31212947,49.52308,0.0015,100,10,-224,0
181413951,0,263178,-0.11627566,0.18397142,0.31364408,49.51709,0.0015,95,23,-225,0
181513934,0,263178,-0.12708747,0.19093716,0.28335217,49.52308,0.0015,91,29,-205,0
181614720,0,263178,-0.10366188,0.17874713,0.3030419,49.538055,0.0015,98,16,-218,0
181716347,0,263178,-0.119879596,0.19790289,0.28032294,49.49912,0.0015,87,25,-203,0
181816321,0,263178,-0.107265815,0.19267859,0.2666916,49.529068,0.0015,90,18,-194,0
181916314,0,263178,-0.1252855,0.19267859,0.28789595,49.544044,0.0015,90,28,-208,0
182017114,0,263178,-0.11447369,0.19964433,0.2757792,49.508102,0.0015,86,22,-200,0
182118736,0,263178,-0.13609731,0.19267859,0.2757792,49.520084,0.0015,90,34,-200,0
182228339,0,263178,-0.11807763,0.19616146,0.2757792,49.538055,0.0015,88,24,-200,0
182329945,0,263178,-0.11086976,0.19267859,0.2697208,49.526073,0.0015,90,20,-196,0
182429946,0,263178,-0.13609731,0.19267859,0.257604,49.526073,0.0015,90,34,-188,0
182529916,0,263178,-0.13970125,0.18919572,0.28183755,49.526073,0.0015,92,36,-204,0
182630714,0,263178,-0.119879596,0.20138577,0.25003102,49.520084,0.0015,85,25,-183,0
182732326,0,263178,-0.10185991,0.20138577,0.2318559,49.544044,0.0015,85,15,-171,0
182832325,0,263178,-0.13069141,0.20138577,0.265177,49.550034,0.0015,85,31,-193,0
182932325,0,263178,-0.13069141,0.1770057,0.27729377,49.54704,0.0015,99,31,-201,0
183033163,0,263178,-0.12888944,0.18571286,0.2303413,49.553032,0.0015,94,30,-170,0
183134714,0,263178,-0.1252855,0.19964433,0.24851644,49.529068,0.0015,86,28,-182,0
183234713,0,263178,-0.10906779,0.19790289,0.21670994,49.58298,0.0015,87,19,-161,0
183344314,0,263178,-0.092850074,0.17178139,0.24851644,49.538055,0.0015,102,10,-182,0
183445959,0,263178,-0.1252855,0.19267859,0.257604,49.573997,0.0015,90,28,-188,0
183545914,0,263178,-0.12888944,0.16829853,0.2969835,49.550034,0.0015,104,30,-214,0
183646714,0,263178,-0.112671725,0.18397142,0.25003102,49.573997,0.0015,95,21,-183,0
183746714,0,263178,-0.14150321,0.19093716,0.28638133,49.579987,0.0015,91,37,-207,0
183848314,0,263178,-0.1433052,0.15436707,0.24851644,49.550034,0.0015,112,38,-182,0
183948313,0,263178,-0.1595229,0.1770057,0.25911862,49.56501,0.0015,99,47,-189,0
184049114,0,263178,-0.13249338,0.17526427,0.257604,49.58598,0.0015,100,32,-188,0
184149114,0,263178,-0.13970125,0.18222998,0.27880836,49.56801,0.0015,96,36,-202,0
184250713,0,263178,-0.13970125,0.19616146,0.24851644,49.562016,0.0015,88,36,-182,0
184360314,0,263178,-0.13970125,0.18222998,0.24851644,49.532063,0.0015,96,36,-182,0
184462713,0,263178,-0.13249338,0.18571286,0.2757792,49.571003,0.0015,94,32,-200,0
184561913,0,263178,-0.16312684,0.16307423,0.265177,49.55902,0.0015,107,49,-193,0
184662714,0,263178,-0.16673079,0.17003997,0.25911862,49.544044,0.0015,103,51,-189,0
184762714,0,263178,-0.16312684,0.1456599,0.34393597,49.612934,0.0015,117,49,-245,0
184865114,0,263178,-0.13609731,0.13346988,0.34847978,49.556026,0.0015,124,34,-248,0
184964314,0,263178,-0.1433052,0.129987,0.36362574,49.58598,0.0015,126,38,-258,0
185065114,0,263178,-0.1433052,0.129987,0.35150898,49.588974,0.0015,126,38,-250,0
185165114,0,263178,-0.1378993,0.1352113,0.36816952,49.562016,0.0015,123,35,-261,0
185276328,0,263178,-0.13069141,0.1352113,0.36211112,49.56801,0.0015,123,31,-257,0
185376314,0,263178,-0.14690913,0.14391847,0.35453814,49.553032,0.0015,118,40,-252,0
185478761,0,263178,-0.15591897,0.15959138,0.2984981,49.594963,0.0015,109,45,-215,0
185577913,0,263178,-0.15591897,0.1770057,0.27426457,49.594963,0.0015,99,45,-199,0
185678714,0,263178,-0.1378993,0.17352283,0.27426457,49.58598,0.0015,101,35,-199,0
185778719,0,263178,-0.14871109,0.13172844,0.31667328,49.594963,0.0015,125,41,-227,0
185881113,0,263178,-0.154117,0.14740133,0.3060711,49.56801,0.0015,116,44,-220,0
185981113,0,263178,-0.1378993,0.15959138,0.31061488,49.556026,0.0015,109,35,-223,0
186081113,0,263178,-0.14510715,0.18048857,0.28335217,49.612934,0.0015,97,39,-205,0
186191532,0,263178,-0.13970125,0.15436707,0.3000127,49.61593,0.0015,112,36,-216,0
186292351,0,263178,-0.14690913,0.16829853,0.3000127,49.60395,0.0015,104,40,-216,0
186392326,0,263178,-0.12888944,0.15436707,0.27275,49.618923,0.0015,112,30,-198,0
186494741,0,263178,-0.14510715,0.14914277,0.31364408,49.630905,0.0015,115,39,-225,0
186603514,0,263178,-0.14150321,0.16307423,0.31061488,49.62791,0.0015,107,37,-223,0
186705914,0,263178,-0.15772092,0.1508842,0.2969835,49.597958,0.0015,114,46,-214,0
186805940,0,263178,-0.13429534,0.16655709,0.29546893,49.624916,0.0015,105,33,-213,0
186905914,0,263178,-0.16132487,0.14043559,0.32727543,49.62791,0.0015,120,48,-234,0
187005957,0,263178,-0.13429534,0.15262564,0.29546893,49.618923,0.0015,113,33,-213,0
187108337,0,263178,-0.16492881,0.14391847,0.3060711,49.630905,0.0015,118,50,-220,0
187208313,0,263178,-0.154117,0.15436707,0.3000127,49.594963,0.0015,112,44,-216,0
187308314,0,263178,-0.12708747,0.16307423,0.2984981,49.61593,0.0015,107,29,-215,0
187408314,0,263178,-0.15231504,0.17352283,0.28638133,49.58598,0.0015,101,43,-207,0
187510744,0,263178,-0.22078983,0.15262564,0.2984981,49.657864,0.0015,113,81,-215,0
187610713,0,263178,-0.25863117,0.13695274,0.29395434,49.612934,0.0015,122,102,-212,0
187720314,0,263178,-0.2568292,0.17003997,0.27275,49.630905,0.0015,103,101,-198,0
187810720,0,263178,-0.267641,0.16307423,0.25306025,49.6339,0.0015,107,107,-185,0
187921913,0,263178,-0.2568292,0.1352113,0.28335217,49.630905,0.0015,123,101,-205,0
188023514,0,263178,-0.23340361,0.16829853,0.24548726,49.648876,0.0015,104,88,-180,0
188122743,0,263178,-0.22259182,0.1508842,0.28486675,49.654865,0.0015,114,82,-206,0
188224325,0,263178,-0.15772092,0.16829853,0.3060711,49.666847,0.0015,104,46,-220,0
188324313,0,263178,-0.154117,0.17874713,0.2969835,49.65187,0.0015,98,44,-214,0
188425114,0,263178,-0.15591897,0.14217703,0.3318192,49.70279,0.0015,119,45,-237,0
188525119,0,263178,-0.13249338,0.16829853,0.3030419,49.663853,0.0015,104,32,-218,0
188626714,0,263178,-0.15591897,0.17003997,0.28032294,49.639893,0.0015,103,45,-203,0
188736314,0,263178,-0.13970125,0.19616146,0.2757792,49.624916,0.0015,88,36,-200,0
188837914,0,263178,-0.154117,0.19267859,0.29395434,49.68482,0.0015,90,44,-212,0
188937913,0,263178,-0.13609731,0.20312718,0.29092512,49.68482,0.0015,84,34,-210,0
189037947,0,263178,-0.15772092,0.21357578,0.2757792,49.642887,0.0015,78,46,-200,0
189138714,0,263178,-0.13429534,0.22228296,0.27123538,49.70878,0.0015,73,33,-197,0
189240353,0,263178,-0.13249338,0.18919572,0.2636624,49.642887,0.0015,92,32,-192,0
189340314,0,263178,-0.13069141,0.21531722,0.26820618,49.681824,0.0015,77,31,-195,0
189440335,0,263178,-0.15772092,0.19267859,0.28183755,49.67883,0.0015,90,46,-204,0
189541136,0,263178,-0.15772092,0.22750725,0.28486675,49.642887,0.0015,70,46,-206,0
189651516,0,263178,-0.154117,0.22402439,0.2757792,49.672836,0.0015,72,44,-200,0
189752342,0,263178,-0.15051307,0.23447298,0.27275,49.687813,0.0015,66,42,-198,0
189852366,0,263178,-0.154117,0.22750725,0.27880836,49.68482,0.0015,70,44,-202,0
189953919,0,263178,-0.16673079,0.21183436,0.31364408,49.705784,0.0015,79,51,-225,0
190053913,0,263178,-0.14510715,0.21531722,0.2924397,49.70279,0.0015,77,39,-211,0
190153914,0,263178,-0.14690913,0.19616146,0.2757792,49.693806,0.0015,88,40,-200,0
190254714,0,263178,-0.15051307,0.19964433,0.29395434,49.67883,0.0015,86,42,-212,0
190356313,0,263178,-0.16853274,0.19616146,0.28183755,49.72076,0.0015,88,52,-204,0
190456313,0,263178,-0.14150321,0.19790289,0.29546893,49.70279,0.0015,87,37,-213,0
190556313,0,263178,-0.154117,0.19964433,0.28789595,49.70878,0.0015,86,44,-208,0
190657914,0,263178,-0.14150321,0.17352283,0.28941053,49.699795,0.0015,101,37,-209,0
190767558,0,263178,-0.15591897,0.18397142,0.3075857,49.690807,0.0015,95,45,-221,0
190869114,0,263178,-0.17574063,0.20661005,0.28789595,49.72675,0.0015,82,56,-208,0
190969924,0,263178,-0.15231504,0.1770057,0.31667328,49.681824,0.0015,99,43,-227,0
191069931,0,263178,-0.15051307,0.17874713,0.30910027,49.699795,0.0015,98,42,-222,0
191169914,0,263178,-0.14150321,0.19442002,0.27426457,49.72675,0.0015,89,37,-199,0
191269914,0,263178,-0.17393865,0.20835148,0.29546893,49.690807,0.0015,81,55,-213,0
191370714,0,263178,-0.12888944,0.20312718,0.27275,49.6968,0.0015,84,30,-198,0
191472325,0,263178,-0.14510715,0.22576581,0.28032294,49.711777,0.0015,71,39,-203,0
191572326,0,263178,-0.17033473,0.20138577,0.28941053,49.693806,0.0015,85,53,-209,0
191681914,0,263178,-0.154117,0.19093716,0.28789595,49.72675,0.0015,91,44,-208,0
191783533,0,263178,-0.1937603,0.18571286,0.27880836,49.729748,0.0015,94,66,-202,0
191883514,0,263178,-0.21178,0.18222998,0.28486675,49.71477,0.0015,96,76,-206,0
191983514,0,263178,-0.16853274,0.15784994,0.28183755,49.717766,0.0015,110,52,-204,0
192085913,0,263178,-0.20096818,0.14740133,0.28183755,49.729748,0.0015,116,70,-204,0
192185913,0,263178,-0.20457211,0.14043559,0.28486675,49.756702,0.0015,120,72,-206,0
192285914,0,263178,-0.22259182,0.14740133,0.27880836,49.74472,0.0015,116,82,-202,0
192385914,0,263178,-0.2568292,0.12127984,0.2924397,49.71477,0.0015,131,101,-211,0
192488314,0,263178,-0.24241345,0.14914277,0.25306025,49.711777,0.0015,115,93,-185,0
192588322,0,263178,-0.23520559,0.16655709,0.26820618,49.73873,0.0015,105,89,-195,0
192688314,0,263178,-0.24241345,0.14914277,0.2984981,49.74772,0.0015,115,93,-215,0
192799515,0,263178,-0.22979967,0.14740133,0.29092512,49.750713,0.0015,116,86,-210,0
192899514,0,263178,-0.20457211,0.17874713,0.2666916,49.74472,0.0015,98,72,-194,0
192999514,0,263178,-0.16492881,0.17178139,0.2969835,49.78366,0.0015,102,50,-214,0
193099514,0,263178,-0.12888944,0.1508842,0.28486675,49.77168,0.0015,114,30,-206,0
193201914,0,263178,-0.14510715,0.15959138,0.31364408,49.750713,0.0015,109,39,-225,0
193301913,0,263178,-0.14150321,0.14914277,0.31667328,49.753708,0.0015,115,37,-227,0
193401914,0,263178,-0.15051307,0.15436707,0.3030419,49.711777,0.0015,112,42,-218,0
193501920,0,263178,-0.14510715,0.1456599,0.3318192,49.756702,0.0015,117,39,-237,0
193604314,0,263178,-0.1433052,0.15784994,0.31515867,49.735737,0.0015,110,38,-226,0
193713114,0,263178,-0.13069141,0.16655709,0.3045565,49.786655,0.0015,105,31,-219,0
193815537,0,263178,-0.13970125,0.16829853,0.3030419,49.756702,0.0015,104,36,-218,0
193915514,0,263178,-0.15051307,0.15436707,0.31515867,49.780663,0.0015,112,42,-226,0
194015514,0,263178,-0.15772092,0.14043559,0.32121703,49.753708,0.0015,120,46,-230,0
194115513,0,263178,-0.10906779,0.14914277,0.31667328,49.76269,0.0015,115,19,-227,0
194226740,0,263178,-0.119879596,0.16655709,0.2924397,49.76269,0.0015,105,25,-211,0
194326714,0,263178,-0.13429534,0.17003997,0.2924397,49.798634,0.0015,103,33,-211,0
194427514,0,263178,-0.1433052,0.15784994,0.31212947,49.801632,0.0015,110,38,-224,0
194529134,0,263178,-0.15051307,0.1508842,0.32121703,49.83158,0.0015,114,42,-230,0
194628314,0,263178,-0.13249338,0.15784994,0.3030419,49.759697,0.0015,110,32,-218,0
194729113,0,263178,-0.15772092,0.15784994,0.32121703,49.74772,0.0015,110,46,-230,0
194829113,0,263178,-0.13970125,0.14391847,0.29092512,49.81361,0.0015,118,36,-210,0
194931513,0,263178,-0.14871109,0.14217703,0.3378776,49.77168,0.0015,119,41,-241,0
195040326,0,263178,-0.16853274,0.17526427,0.3030419,49.76569,0.0015,100,52,-218,0
195142713,0,263178,-0.14871109,0.1770057,0.28638133,49.798634,0.0015,99,41,-207,0
195242717,0,263178,-0.17213668,0.19616146,0.29395434,49.78965,0.0015,88,54,-212,0
195342714,0,263178,-0.15231504,0.18397142,0.27426457,49.804626,0.0015,95,43,-199,0
195442714,0,263178,-0.19195834,0.15959138,0.27426457,49.76269,0.0015,109,65,-199,0
195545113,0,263178,-0.21538393,0.16829853,0.28183755,49.83158,0.0015,104,78,-204,0
195653914,0,263178,-0.23340361,0.1508842,0.29092512,49.78366,0.0015,114,88,-210,0
195754714,0,263178,-0.22979967,0.17178139,0.28789595,49.810616,0.0015,102,86,-208,0
195856313,0,263178,-0.22439377,0.1456599,0.265177,49.786655,0.0015,117,83,-193,0
195956335,0,263178,-0.20096818,0.1508842,0.2757792,49.825592,0.0015,114,70,-200,0
196056314,0,263178,-0.16492881,0.17874713,0.27880836,49.786655,0.0015,98,50,-202,0
196157965,0,263178,-0.16853274,0.22054152,0.2666916,49.78965,0.0015,74,52,-194,0
196267514,0,263178,-0.13970125,0.22402439,0.2666916,49.834576,0.0015,72,36,-194,0
196367523,0,263178,-0.14871109,0.246663,0.2621478,49.76569,0.0015,59,41,-191,0
196469914,0,263178,-0.1378993,0.24318014,0.25003102,49.78366,0.0015,61,35,-183,0
196569914,0,263178,-0.13609731,0.24143872,0.2666916,49.804626,0.0015,62,34,-194,0
196669918,0,263178,-0.12168156,0.23795585,0.25457484,49.81361,0.0015,64,26,-186,0
196769914,0,263178,-0.1433052,0.21009292,0.2757792,49.819603,0.0015,80,38,-200,0
196872361,0,263178,-0.154117,0.22402439,0.27880836,49.80762,0.0015,72,44,-202,0
196972367,0,263178,-0.16132487,0.20661005,0.3000127,49.80762,0.0015,82,48,-216,0
198188314,0,263178,-0.13970125,0.15436707,0.3060711,49.85854,0.0015,112,36,-220,0
198288337,0,263178,-0.16492881,0.1508842,0.30910027,49.837574,0.0015,114,50,-222,0
198399514,0,263178,-0.1378993,0.15262564,0.31061488,49.834576,0.0015,113,35,-223,0
198499539,0,263178,-0.15051307,0.15784994,0.29395434,49.873516,0.0015,110,42,-212,0
198601914,0,263178,-0.119879596,0.14914277,0.2924397,49.852547,0.0015,115,25,-211,0
198701958,0,263178,-0.13069141,0.1561085,0.31364408,49.84057,0.0015,111,31,-225,0
198801952,0,263178,-0.1252855,0.16481566,0.29092512,49.85854,0.0015,106,28,-210,0
198901947,0,263178,-0.12708747,0.14914277,0.3075857,49.852547,0.0015,115,29,-221,0
199004317,0,263178,-0.13609731,0.16133279,0.29395434,49.852547,0.0015,108,34,-212,0
199113114,0,263178,-0.1433052,0.15784994,0.31818786,49.86453,0.0015,110,38,-228,0
199213929,0,263178,-0.1433052,0.14043559,0.2969835,49.84057,0.0015,120,38,-214,0
199315513,0,263178,-0.15231504,0.15262564,0.3045565,49.903465,0.0015,113,43,-219,0
199415515,0,263178,-0.13069141,0.15262564,0.28335217,49.8825,0.0015,113,31,-205,0
199515514,0,263178,-0.13249338,0.14043559,0.31212947,49.849552,0.0015,120,32,-224,0
199615514,0,263178,-0.14510715,0.1561085,0.29546893,49.891487,0.0015,111,39,-213,0
199717954,0,263178,-0.13069141,0.1561085,0.2984981,49.91844,0.0015,111,31,-215,0
199817114,0,263178,-0.13970125,0.15784994,0.3030419,49.852547,0.0015,110,36,-218,0
199917914,0,263178,-0.1252855,0.15784994,0.3030419,49.88849,0.0015,110,28,-218,0
200028313,0,263178,-0.12348354,0.16307423,0.3075857,49.870518,0.0015,107,27,-221,0
200129114,0,263178,-0.16492881,0.15784994,0.2969835,49.85854,0.0015,110,50,-214,0
200229159,0,263178,-0.13069141,0.1456599,0.28638133,49.90047,0.0015,117,31,-207,0
200331513,0,263178,-0.15591897,0.17003997,0.2924397,49.86453,0.0015,103,45,-211,0
200431513,0,263178,-0.18475047,0.18397142,0.25003102,49.873516,0.0015,95,61,-183,0
200531527,0,263178,-0.26403707,0.15262564,0.24700184,49.8825,0.0015,113,105,-181,0
200642718,0,263178,-0.2748489,0.1770057,0.23791426,49.867523,0.0015,99,111,-175,0
200742714,0,263178,-0.28385875,0.15436707,0.21519533,49.87651,0.0015,112,116,-160,0
200842715,0,263178,-0.2279977,0.18397142,0.24094348,49.843563,0.0015,95,85,-177,0
200943515,0,263178,-0.16673079,0.16307423,0.28335217,49.903465,0.0015,107,51,-205,0
201045117,0,263178,-0.15591897,0.13869418,0.31061488,49.921436,0.0015,121,45,-223,0
201145122,0,263178,-0.1433052,0.16829853,0.27880836,49.90047,0.0015,104,38,-202,0
201245134,0,263178,-0.15591897,0.17003997,0.3015273,49.897476,0.0015,103,45,-217,0
201345163,0,263178,-0.13609731,0.20661005,0.2969835,49.90047,0.0015,82,34,-214,0
201456314,0,263178,-0.11447369,0.2518873,0.2606332,49.867523,0.0015,56,22,-190,0
201556322,0,263178,-0.112671725,0.26407734,0.25306025,49.92443,0.0015,49,21,-185,0
201658713,0,263178,-0.13429534,0.28149167,0.23791426,49.861534,0.0015,39,33,-175,0
201757935,0,263178,-0.11807763,0.3145789,0.24245808,49.885494,0.0015,20,24,-178,0
201858755,0,263178,-0.1378993,0.2884574,0.24700184,49.915447,0.0015,35,35,-181,0
201958760,0,263178,-0.12708747,0.2780088,0.24700184,49.903465,0.0015,41,29,-181,0
202061122,0,263178,-0.15051307,0.28671595,0.24851644,49.90047,0.0015,36,42,-182,0
202169914,0,263178,-0.10546385,0.2710431,0.23791426,49.92443,0.0015,45,17,-175,0
202261114,0,263178,-0.14871109,0.25362873,0.28638133,49.885494,0.0015,55,41,-207,0
202371513,0,263178,-0.1433052,0.21705866,0.28486675,49.8825,0.0015,76,38,-206,0
202472325,0,263178,-0.13970125,0.16829853,0.2666916,49.90946,0.0015,104,36,-194,0
202572331,0,263178,-0.1433052,0.15784994,0.3000127,49.90047,0.0015,110,38,-216,0
202673118,0,263178,-0.1595229,0.1456599,0.3015273,49.91844,0.0015,117,47,-217,0
202774713,0,263178,-0.154117,0.15436707,0.3060711,49.921436,0.0015,112,44,-220,0
202873961,0,263178,-0.14510715,0.1456599,0.29546893,49.897476,0.0015,117,39,-213,0
202974727,0,263178,-0.14150321,0.14217703,0.31970245,49.93342,0.0015,119,37,-229,0
203074738,0,263178,-0.16853274,0.14391847,0.2969835,49.930424,0.0015,118,52,-214,0
203185934,0,263178,-0.12888944,0.15436707,0.29395434,49.95139,0.0015,112,30,-212,0
203285914,0,263178,-0.14150321,0.1352113,0.31667328,49.921436,0.0015,123,37,-227,0
203388314,0,263178,-0.12708747,0.12127984,0.3045565,49.90047,0.0015,131,29,-219,0
203487514,0,263178,-0.13609731,0.129987,0.29395434,49.92443,0.0015,126,34,-212,0
203588314,0,263178,-0.16853274,0.109089814,0.3060711,49.879505,0.0015,138,52,-220,0
203688334,0,263178,-0.16312684,0.10386551,0.32576084,49.91844,0.0015,141,49,-233,0
203790732,0,263178,-0.18114652,0.107348375,0.2924397,49.93342,0.0015,139,59,-211,0
203899515,0,263178,-0.20817606,0.11257267,0.28486675,49.90946,0.0015,136,74,-206,0
203990775,0,263178,-0.24421543,0.14740133,0.24548726,49.954384,0.0015,116,94,-180,0
204101113,0,263178,-0.24781936,0.14391847,0.2697208,49.95139,0.0015,118,96,-196,0
204201914,0,263178,-0.26403707,0.16307423,0.24700184,49.96337,0.0015,107,105,-181,0
204301914,0,263178,-0.267641,0.14914277,0.23488508,49.9454,0.0015,115,107,-173,0
204393114,0,263178,-0.26043314,0.1561085,0.25608942,49.95738,0.0015,111,103,-187,0
204504314,0,263178,-0.22979967,0.16481566,0.2757792,49.92743,0.0015,106,86,-200,0
204613924,0,263178,-0.17934456,0.17526427,0.2757792,49.966366,0.0015,100,58,-200,0
204715514,0,263178,-0.15051307,0.15436707,0.29395434,49.966366,0.0015,112,42,-212,0
204814713,0,263178,-0.1378993,0.15959138,0.3015273,49.921436,0.0015,109,35,-217,0
204915514,0,263178,-0.14690913,0.16133279,0.3060711,49.936413,0.0015,108,40,-220,0
205015514,0,263178,-0.14510715,0.17003997,0.2984981,49.948395,0.0015,103,39,-215,0
205117921,0,263178,-0.13970125,0.1508842,0.29395434,49.9454,0.0015,114,36,-212,0
205217114,0,263178,-0.154117,0.15436707,0.3060711,49.930424,0.0015,112,44,-220,0
205317914,0,263178,-0.1433052,0.15784994,0.2969835,49.921436,0.0015,110,38,-214,0
205417935,0,263178,-0.1252855,0.16133279,0.31515867,49.984337,0.0015,108,28,-226,0
205520313,0,263178,-0.16132487,0.16133279,0.31515867,49.948395,0.0015,108,48,-226,0
205629118,0,263178,-0.14150321,0.16655709,0.28032294,49.960373,0.0015,105,37,-203,0
205731514,0,263178,-0.12708747,0.15959138,0.3075857,49.954384,0.0015,109,29,-221,0
205830713,0,263178,-0.12888944,0.15436707,0.28486675,49.90646,0.0015,112,30,-206,0
205931514,0,263178,-0.14871109,0.18048857,0.28032294,49.930424,0.0015,97,41,-203,0
206031514,0,263178,-0.1433052,0.15784994,0.31212947,49.98733,0.0015,110,38,-224,0
206133925,0,263178,-0.13429534,0.13172844,0.2984981,49.999313,0.0015,125,33,-215,0
206233914,0,263178,-0.12168156,0.16829853,0.25457484,49.999313,0.0015,104,26,-186,0
206333914,0,263178,-0.15591897,0.15262564,0.3075857,49.96337,0.0015,113,45,-221,0
206433945,0,263178,-0.16312684,0.15959138,0.27123538,49.99332,0.0015,109,49,-197,0
206536314,0,263178,-0.17574063,0.15784994,0.32121703,49.95139,0.0015,110,56,-230,0
206636318,0,263178,-0.10546385,0.16307423,0.28335217,49.95139,0.0015,107,17,-205,0
206745914,0,263178,-0.1595229,0.17874713,0.3045565,49.96936,0.0015,98,47,-219,0
206847514,0,263178,-0.16492881,0.17874713,0.32121703,49.972355,0.0015,98,50,-230,0
206947515,0,263178,-0.12708747,0.19093716,0.25306025,49.984337,0.0015,91,29,-185,0
207047514,0,263178,-0.1433052,0.21357578,0.2697208,49.98733,0.0015,78,38,-196,0
207148315,0,263178,-0.14510715,0.19790289,0.28638133,49.984337,0.0015,87,39,-207,0
207249913,0,263178,-0.13970125,0.19964433,0.257604,49.98733,0.0015,86,36,-188,0
207349914,0,263178,-0.17213668,0.20312718,0.28486675,49.96936,0.0015,84,54,-206,0
207449938,0,263178,-0.1595229,0.20486861,0.29546893,49.978348,0.0015,83,47,-213,0
207561158,0,263178,-0.17393865,0.21880008,0.25911862,49.96337,0.0015,75,55,-189,0
207661113,0,263178,-0.15051307,0.22750725,0.27275,49.948395,0.0015,70,42,-198,0
207761914,0,263178,-0.1433052,0.21009292,0.2757792,49.96936,0.0015,80,38,-200,0
207863514,0,263178,-0.15772092,0.17526427,0.28486675,49.97535,0.0015,100,46,-206,0
207963514,0,263178,-0.12888944,0.15436707,0.31212947,49.960373,0.0015,112,30,-224,0
208063514,0,263178,-0.13970125,0.17874713,0.27880836,49.972355,0.0015,98,36,-202,0
208163519,0,263178,-0.14690913,0.15436707,0.29395434,49.948395,0.0015,112,40,-212,0
208265913,0,263178,-0.16673079,0.1456599,0.33484843,49.999313,0.0015,117,51,-239,0
208365913,0,263178,-0.15772092,0.1508842,0.3060711,49.97535,0.0015,114,46,-220,0
208465913,0,263178,-0.16492881,0.14043559,0.30910027,50.005302,0.0015,120,50,-222,0
208565914,0,263178,-0.16853274,0.15436707,0.31818786,49.960373,0.0015,112,52,-228,0
208677114,0,263178,-0.17934456,0.1508842,0.31818786,49.98733,0.0015,114,58,-228,0
208777132,0,263178,-0.15231504,0.14217703,0.3015273,49.972355,0.0015,119,43,-217,0
208879547,0,263178,-0.1595229,0.16655709,0.28638133,49.981342,0.0015,105,47,-207,0
208979514,0,263178,-0.16673079,0.15959138,0.28941053,50.02028,0.0015,109,51,-209,0
209079520,0,263178,-0.17574063,0.15784994,0.31515867,49.981342,0.0015,110,56,-226,0
209179566,0,263178,-0.16132487,0.16133279,0.31212947,49.978348,0.0015,108,48,-224,0
209281913,0,263178,-0.14150321,0.17352283,0.2984981,50.005302,0.0015,101,37,-215,0
209381931,0,263178,-0.1252855,0.18571286,0.27880836,49.972355,0.0015,94,28,-202,0
209481927,0,263178,-0.14871109,0.15262564,0.31364408,49.978348,0.0015,113,41,-225,0
209581914,0,263178,-0.1595229,0.1561085,0.28335217,49.98733,0.0015,111,47,-205,0
209683539,0,263178,-0.15051307,0.15784994,0.3030419,49.99332,0.0015,110,42,-218,0
209793114,0,263178,-0.17033473,0.15959138,0.3075857,49.98733,0.0015,109,53,-221,0
209895514,0,263178,-0.1433052,0.15784994,0.29092512,49.99332,0.0015,110,38,-210,0
209995514,0,263178,-0.13249338,0.14391847,0.28183755,50.029263,0.0015,118,32,-204,0
210095514,0,263178,-0.15231504,0.15262564,0.2924397,50.01129,0.0015,113,43,-211,0
210195513,0,263178,-0.14510715,0.15959138,0.28638133,49.99632,0.0015,109,39,-207,0
210296323,0,263178,-0.1829485,0.17874713,0.2636624,49.984337,0.0015,98,60,-192,0
210406731,0,263178,-0.21898787,0.18571286,0.24245808,49.98733,0.0015,94,80,-178,0
210507535,0,263178,-0.22078983,0.19093716,0.23488508,49.981342,0.0015,91,81,-173,0
210609114,0,263178,-0.24421543,0.18571286,0.23942886,49.999313,0.0015,94,94,-176,0
210709120,0,263178,-0.22259182,0.17526427,0.25154564,49.99632,0.0015,100,82,-184,0
210809162,0,263178,-0.20997801,0.17003997,0.28638133,49.990326,0.0015,103,75,-207,0
210910732,0,263178,-0.17934456,0.19616146,0.27275,50.017284,0.0015,88,58,-198,0
211011535,0,263178,-0.16132487,0.16829853,0.28486675,50.02028,0.0015,104,48,-206,0
211111514,0,263178,-0.17574063,0.18571286,0.31515867,49.984337,0.0015,94,56,-226,0
211222714,0,263178,-0.15231504,0.1770057,0.31364408,50.005302,0.0015,99,43,-225,0
211322714,0,263178,-0.16673079,0.18048857,0.3075857,49.999313,0.0015,97,51,-221,0
