timestamp,error_count,device_id,x,y,z,integral_dt,x_integral,y_integral,z_integral,temperature,scaling,x_raw,y_raw,z_raw
133185271,0,2360354,-0.0014345201,-0.0007568316,-0.00020232948,4000,-1.0359389e-05,-5.928928e-06,7.021348e-06,42.493397,0.0010642195,1,7,5
133289287,0,2360354,0.00055160944,-0.00027161083,-0.0010146826,3996,-1.0043333e-06,3.4972566e-06,-4.0501577e-06,42.52335,0.0010642195,-1,5,3
133389275,0,2360354,-0.0013230505,-0.00015169689,-0.00029930292,3992,-9.969294e-06,5.975152e-06,-2.2924949e-06,42.52934,0.0010642195,1,4,3
133901271,0,2360354,-0.0004393689,-0.0006170479,-0.00061923213,3943,7.874444e-06,-2.8785344e-06,-3.107275e-06,42.511368,0.0010642195,-1,5,4
134005294,0,2360354,-0.0003812023,-0.000171319,0.00040502186,4023,-9.751446e-07,5.1781676e-06,7.917983e-06,42.54731,0.0010642195,-2,3,5
134105278,0,2360354,0.00018311452,0.00016796078,-0.0009795837,4007,5.4076268e-06,-1.2470676e-06,-1.0022196e-05,42.52335,0.0010642195,-2,7,1
134205277,0,2360354,-0.0006649897,-0.00026295043,-0.0002995107,4006,-5.684052e-06,1.7328389e-06,9.58728e-06,42.54132,0.0010642195,1,5,5
134309271,0,2360354,0.000910725,-0.000954148,-0.0004123274,3995,3.275027e-06,-6.7750225e-06,4.464826e-06,42.54731,0.0010642195,-1,7,4
134409271,0,2360354,0.00026187813,-0.00031763213,-0.0010260199,4000,1.9919387e-06,-1.6752466e-06,-1.2545399e-05,42.544315,0.0010642195,-1,6,0
134509287,0,2360354,7.668802e-05,0.000882285,-0.00043772595,4016,2.7843e-07,6.4197407e-06,2.1628786e-07,42.532333,0.0010642195,1,6,4
134613271,0,2360354,0.0002734386,-0.00097240123,0.00023650963,3991,2.40771e-06,-5.9168583e-06,9.123028e-06,42.532333,0.0010642195,-2,4,6
134713284,0,2360354,8.7709166e-05,-0.00034547443,-0.00026121954,4013,1.5793257e-06,-3.3904712e-06,-2.3357586e-06,42.52035,0.0010642195,-3,6,3
134817342,0,2360354,0.0005265499,-0.0005681834,-0.00083631,4071,9.369777e-06,-3.3776148e-06,6.3209933e-07,42.52934,0.0010642195,-2,5,3
134917303,0,2360354,-0.0008403208,0.0012383417,-0.0010611031,4025,-1.0423563e-05,4.761325e-06,2.2335512e-07,42.568275,0.0010642195,3,3,4
135017306,0,2360354,-0.0001518192,-0.00077888946,0.00059480686,4027,-3.9773336e-06,-3.8281914e-06,3.6354586e-06,42.499386,0.0010642195,0,7,3
135121271,0,2360354,0.00082378864,-0.00013406067,0.00026259353,4780,2.3021591e-06,-2.5898955e-06,-8.805689e-06,42.54132,0.0010642195,0,5,1
135221271,0,2360354,-0.00039621198,-0.0008433998,0.00053310464,3896,-1.6703191e-06,-8.45279e-08,3.0256416e-07,42.511368,0.0010642195,-1,5,5
135321275,0,2360354,-0.0011947661,6.979724e-05,-0.0004176254,3978,-9.854517e-06,5.526387e-06,-2.1395415e-07,42.54132,0.0010642195,1,5,2
135424471,0,2360354,-0.00018629168,-0.00032087826,-0.00059859833,4000,-2.2191757e-06,-5.483551e-06,-1.1683916e-05,42.535328,0.0010642195,0,7,0
135527702,0,2360354,0.0003474904,-0.000541011,0.00018653511,3223,8.001387e-07,-3.2456424e-07,2.941664e-06,42.544315,0.0010642195,0,5,4
135628471,0,2360354,-0.0008591331,0.0001430938,-0.0009202379,4001,-1.0577177e-06,9.2454195e-07,6.124518e-07,42.568275,0.0010642195,-2,8,4
135727711,0,2360354,0.0011206913,0.00017120331,-0.00048143842,4009,1.4559047e-06,3.3842574e-07,-1.9626464e-06,42.538322,0.0010642195,1,7,2
135827723,0,2360354,6.709262e-05,-0.0010602815,0.01758449,3253,-3.584104e-07,-1.0041629e-05,6.354151e-05,42.556293,0.0010642195,-4,0,21
135932481,0,2360354,-8.0699356e-05,-0.0017210701,-0.023156565,4011,-3.1146478e-06,-4.3801533e-06,-8.561278e-05,42.544315,0.0010642195,8,-3,-21
136032471,0,2360354,-0.004023657,0.007792986,0.017079482,3993,-0.00016533492,-5.4124845e-05,1.6326729e-05,42.5533,0.0010642195,25,9,11
136136471,0,2360354,-0.01559594,0.026345156,0.009152621,4001,0.00022458997,0.00030587753,7.553689e-05,42.52035,0.0010642195,-67,41,-2
136240471,0,2360354,0.006106823,-0.01950966,0.00067413505,4000,4.3506876e-05,0.0004428474,5.091235e-06,42.532333,0.0010642195,-53,-107,31
136340477,0,2360354,0.033747904,0.037023615,0.0054012393,4006,-0.00040025142,0.0005390039,-0.00027782563,42.544315,0.0010642195,190,88,-51
136444471,0,2360354,0.013906761,-0.04890284,0.0059782956,4000,0.00038273004,0.0012025546,-0.0003512892,42.50238,0.0010642195,-166,-521,-138
136544473,0,2360354,0.041662235,0.14698696,0.00028467074,3977,-0.00013999862,0.00021307533,-0.00012697464,42.562286,0.0010642195,-5,280,-4
136644471,0,2360354,-0.014643332,0.20971388,0.029222194,4001,-0.0017927517,-0.00017723061,0.00048167497,42.556293,0.0010642195,235,-69,-68
136748477,0,2360354,-0.095504165,-0.1694857,0.06308518,4006,-0.00046244034,-0.00075459277,0.00028437504,42.526344,0.0010642195,-372,-331,-16
136848470,0,2360354,-0.04853744,-0.028690813,0.07103461,3999,0.0013176851,0.00077204674,0.00036704043,42.556293,0.0010642195,-313,-540,-21
136948471,0,2360354,-0.0476905,-0.056626324,0.04489398,3995,0.00015694025,0.0005523696,-1.3900553e-05,42.54132,0.0010642195,195,20,-81
137052516,0,2360354,0.0037787927,0.003334305,0.02227468,4032,-0.00078197016,-0.0010054332,0.00030307999,42.526344,0.0010642195,-123,-35,129
137152481,0,2360354,-0.01565332,-0.05339831,-0.004267416,4006,-0.000750334,-0.0004726334,-0.00015219658,42.562286,0.0010642195,158,258,-29
137256478,0,2360354,0.09625105,0.056857012,0.003693495,4001,0.00042395294,0.0022117805,-0.00037573112,42.556293,0.0010642195,175,-389,-107
137360471,0,2360354,0.067626454,0.03903486,-0.018446425,4000,0.0007607331,0.0010739552,-0.00021677697,42.52335,0.0010642195,65,-138,-7
137460477,0,2360354,-0.087903716,-0.095772415,-0.0064725364,3997,0.0009296516,-0.0020816294,0.00036453316,42.568275,0.0010642195,-313,44,96
137564475,0,2360354,0.054664176,0.043059047,-0.021098062,4005,-0.0008756712,7.1768604e-06,2.5793348e-05,42.544315,0.0010642195,210,155,83
137664481,0,2360354,-0.006218527,0.115324624,-0.024793252,4010,-9.802972e-05,-0.001226154,0.00018987665,42.526344,0.0010642195,65,353,-20
137764471,0,2360354,0.11693629,-0.033712864,-0.027852029,3994,0.0008352292,0.00061120925,6.581095e-05,42.574265,0.0010642195,192,-250,-73
137868487,0,2360354,-0.064248465,-0.049638182,-0.014243432,4016,0.00048602175,0.001470452,-0.00017852744,42.54731,0.0010642195,37,-446,-182
137968484,0,2360354,0.07238375,-0.0041252444,-0.005241001,4007,0.0010369594,0.00032021606,8.160845e-05,42.562286,0.0010642195,138,-265,-89
138068497,0,2360354,-0.067042924,-0.008378096,-0.017504927,4020,-0.00060112856,-0.0014670687,0.00013043421,42.550304,0.0010642195,-470,247,-15
138172492,0,2360354,-0.08217941,-0.07229851,-0.02487963,4021,3.6516692e-05,0.00035943865,-0.00037675558,42.574265,0.0010642195,-14,-33,-128
138272477,0,2360354,0.02993529,-0.005670972,-0.01701361,4006,-0.00034499023,0.0008894534,-0.00017014063,42.56528,0.0010642195,482,-130,9
139292503,0,2360354,-0.04807259,-0.0018371502,0.0005027193,4032,0.001871262,0.0010408016,-0.00021893036,42.562286,0.0010642195,-106,-257,-71
139392471,0,2360354,0.04829688,-0.12567337,0.009627255,4000,-0.0006027549,0.00031019954,-0.00012684117,42.5533,0.0010642195,335,-90,-18
139496500,0,2360354,0.051984116,0.03217989,0.0142421285,4029,-0.0003108154,0.0012642255,-0.00026704327,42.508373,0.0010642195,122,-212,-84
139596477,0,2360354,-0.005440359,0.05886896,-0.002767212,4006,-0.0010505199,-0.0011971291,0.0003386637,42.5533,0.0010642195,76,241,111
139696477,0,2360354,0.011564349,-0.08525398,-0.010639062,3987,-0.0007172233,-0.0010802344,8.134114e-05,42.526344,0.0010642195,-197,227,35
139800470,0,2360354,-0.08519041,-0.013746604,-0.0028204971,4000,0.0011831315,-0.0012888794,0.00019321789,42.562286,0.0010642195,-370,-206,-22
139900482,0,2360354,0.14333639,0.021935811,-0.018834643,4780,-0.0006201084,-0.0011582889,0.00015367036,42.550304,0.0010642195,-377,273,27
140003670,0,2360354,-0.24335386,0.046454623,-0.017496368,4000,-0.00032261622,-0.00089904334,0.00018202391,42.568275,0.0010642195,-4,-37,37
140103671,0,2360354,0.067748435,-0.068699874,-0.004552218,4000,0.0012367221,0.001544225,-0.00037359362,42.56528,0.0010642195,31,-12,-124
140202893,0,2360354,-0.03930903,-0.077308774,-0.009675594,3216,0.0015158895,-0.000182596,-0.00015484364,42.577263,0.0010642195,-646,-311,-57
140308477,0,2360354,-0.05402582,-0.07694437,-0.013466197,4006,0.0019964334,8.804463e-05,-0.00020710826,42.568275,0.0010642195,-390,-477,-104
140411708,0,2360354,-0.05454552,-0.022861267,-0.0056629675,4031,0.0012461897,-0.00020565445,-0.00022684045,42.601223,0.0010642195,-745,-290,-76
140511707,0,2360354,-0.11212264,0.016361661,-0.011410076,3236,0.0001630519,-0.0004153872,-0.00015665972,42.58924,0.0010642195,-470,194,-44
140615677,0,2360354,0.069143414,0.056882843,-0.012783562,4006,-0.00014806753,0.0007701337,-0.00014605504,42.568275,0.0010642195,458,224,68
140715671,0,2360354,-0.049072713,-0.03465569,-0.0039823037,4000,0.0012988017,0.00069151784,-0.00020438689,42.595234,0.0010642195,-335,-280,-5
140819708,0,2360354,0.06796341,0.022953598,0.013329115,4037,0.0013366904,0.00093247136,-8.0228136e-05,42.56528,0.0010642195,-261,16,-1
140923671,0,2360354,-0.026523026,0.045515545,0.0072065964,4000,-0.00045930757,-0.0009772292,0.00024816167,42.562286,0.0010642195,493,346,204
141023671,0,2360354,0.0015663103,-0.09585094,0.0254498,3997,0.00069068396,0.0018795909,-0.00014814919,42.57127,0.0010642195,108,-345,21
141127702,0,2360354,0.10644904,0.011118463,0.026648844,4006,-0.00027732426,0.00083805074,5.2805375e-05,42.544315,0.0010642195,522,-151,34
141227677,0,2360354,0.08274842,0.04508857,0.018049655,4006,-0.00022662227,0.0011927283,-3.4117187e-05,42.586246,0.0010642195,213,-218,23
141327677,0,2360354,0.016821126,-0.030167175,0.00568506,3975,1.7135928e-05,-0.0013007079,0.0003678825,42.601223,0.0010642195,-142,183,154
141431671,0,2360354,0.0004553682,-0.004270373,-0.0046651806,4000,-0.0007698515,-0.0015244748,0.00013738345,42.586246,0.0010642195,277,426,122
141531671,0,2360354,-0.011441197,0.07631739,-0.004941369,3955,-0.0010415709,0.00028155893,0.00017291661,42.604218,0.0010642195,247,182,115
141631681,0,2360354,0.0936919,0.045951206,0.0055575194,4010,0.00052215543,0.00038548102,-2.3676264e-05,42.562286,0.0010642195,57,16,6
141735725,0,2360354,0.083970524,-0.08751556,-0.003437152,4054,-5.335905e-05,0.000731525,-7.457203e-05,42.577263,0.0010642195,222,-97,-67
141835671,0,2360354,-0.074255675,0.07589551,0.0028825277,3993,-0.000614432,-0.0010794488,0.00013170988,42.583252,0.0010642195,-197,139,102
141939677,0,2360354,0.09067814,-0.07063459,0.015552933,4006,0.00071601046,0.00072223274,7.6969816e-05,42.613205,0.0010642195,547,-228,-77
142043670,0,2360354,-0.04968834,-0.089804314,0.007606245,3993,2.72163e-05,-0.00017284078,7.948529e-05,42.55929,0.0010642195,-29,-80,2
142143671,0,2360354,0.106914125,0.052991953,-0.0013808055,3992,-0.0006386778,0.00065436825,-0.00010624111,42.5533,0.0010642195,176,-156,-36
142247683,0,2360354,0.0021210455,-0.04955045,-0.0056291427,4012,0.0003987982,-0.00054089125,0.00025850747,42.583252,0.0010642195,-217,-417,-50
142347671,0,2360354,0.002484839,-0.08495264,-0.041464966,3997,-0.0009431346,0.0017282249,-0.00040825517,42.595234,0.0010642195,643,-296,-21
142447674,0,2360354,-0.15473618,0.029389098,-0.034054313,3999,8.8305285e-05,6.809755e-05,-0.0004476846,42.59823,0.0010642195,-243,-299,-60
142551704,0,2360354,0.1762709,-0.04809707,-0.3468477,4033,0.000408428,-0.001584734,-0.0013711433,42.59823,0.0010642195,-453,395,-258
142651684,0,2360354,-0.080787875,0.087130316,-0.3787163,4014,-0.0014793667,-5.8649188e-05,-0.0015817469,42.613205,0.0010642195,557,91,-433
142751727,0,2360354,0.035795618,-0.07949503,-0.44522798,4056,2.4075918e-05,-1.4760737e-05,-0.0017182864,42.59823,0.0010642195,-239,-453,-616
142855671,0,2360354,0.02753729,0.01964454,-0.64851934,4000,0.0007114221,0.0007423085,-0.00253671,42.604218,0.0010642195,-211,-494,-683
142955671,0,2360354,-0.065514654,0.086332254,-0.6968729,3996,0.00044002902,-0.0011787476,-0.0023566042,42.550304,0.0010642195,-268,129,-468
143059701,0,2360354,0.01816392,0.03205764,-0.72617286,4014,-0.00057846267,-0.0008616383,-0.0026847734,42.595234,0.0010642195,56,362,-600
143163713,0,2360354,0.009693603,0.20408571,-0.73384637,4042,0.00047436255,0.0019028552,-0.0031993403,42.604218,0.0010642195,25,-282,-797
143263674,0,2360354,0.010084626,0.0069318493,-0.9038527,3992,0.0001143618,8.569242e-05,-0.0038374693,42.610207,0.0010642195,12,364,-870
143367708,0,2360354,-0.12216375,-0.024918867,-1.1422552,4031,0.0015311115,5.674786e-05,-0.004423361,42.601223,0.0010642195,-466,-99,-1021
143467671,0,2360354,0.009442763,0.13238876,-1.3941311,3994,-0.0011436304,0.00027627192,-0.0058744196,42.580257,0.0010642195,449,316,-1343
143567683,0,2360354,0.055390973,-0.098253936,-1.243166,3981,0.00024947457,0.00041337757,-0.0049008653,42.6162,0.0010642195,316,80,-1101
143671677,0,2360354,0.15241213,0.044035994,-0.7702627,3977,0.00046468608,0.0024760682,-0.0035529733,42.592236,0.0010642195,-19,-267,-769
143771677,0,2360354,-0.010438314,-0.11054218,-0.24699739,4007,0.0013252308,0.0009425951,-0.0011388533,42.595234,0.0010642195,-316,58,-162
143871687,0,2360354,-0.07558557,-0.0075939633,-0.03818861,4017,-0.0012941415,0.0013762595,-0.00046672946,42.607212,0.0010642195,271,-156,-12
143975671,0,2360354,-0.1604822,-0.032236047,0.07270462,4000,-0.0014630747,-0.0014067956,0.00050141016,42.601223,0.0010642195,-55,228,89
144075670,0,2360354,0.06680522,-0.08766432,0.120772906,3999,0.00041365516,-0.0017178877,0.00058650476,42.568275,0.0010642195,-351,435,172
144179694,0,2360354,0.0013193644,0.02035316,0.1363805,4016,-0.00190441,-0.0008258366,0.00073856895,42.58924,0.0010642195,371,284,74
144279681,0,2360354,-0.07521154,0.031856183,0.123459704,4001,0.001938625,2.3606624e-05,0.00044696123,42.601223,0.0010642195,-486,-186,39
144379674,0,2360354,0.00076999376,0.014857957,0.119527735,3972,-0.0018011378,-0.000501195,0.00035287553,42.607212,0.0010642195,171,522,105
144483671,0,2360354,-0.19024168,0.04897971,0.09494241,4000,-0.0010190253,-0.000981649,0.00027858393,42.59823,0.0010642195,-279,262,167
144587671,0,2360354,-0.016337702,-0.02715357,0.06936362,4000,-0.0017726885,7.1110444e-05,0.00043659186,42.625183,0.0010642195,411,-21,56
144690883,0,2360354,0.07868103,0.0812321,0.04513008,4012,0.00055150676,0.0009796018,0.00016281633,42.592236,0.0010642195,435,211,72
144794870,0,2360354,-0.02895176,0.0015614555,0.027835824,3952,0.0008343498,-0.001722258,0.0002908241,42.610207,0.0010642195,-568,213,-10
144894871,0,2360354,0.054031882,0.0062112366,0.022375306,4000,-0.00044553692,-0.0011267804,0.00019098277,42.604218,0.0010642195,-230,496,44
144998871,0,2360354,-0.056310043,-0.062133893,0.0036082906,3983,-0.0007070377,-0.0015449976,-0.00010297027,42.610207,0.0010642195,-235,202,-27
145098877,0,2360354,-0.055149563,0.031667437,0.0058528013,3998,0.000625101,0.00088535104,-0.00033135284,42.601223,0.0010642195,-434,-444,-100
145198871,0,2360354,0.058466077,-0.091835365,0.006627393,3980,-0.00018578015,0.0011161304,0.00014320711,42.6162,0.0010642195,594,-530,-81
145298871,0,2360354,-0.01726585,0.057570986,-0.008882587,4000,-0.0007380723,-0.00073032704,0.00022117168,42.628178,0.0010642195,199,363,190
145402878,0,2360354,0.072129786,-0.0053952304,-0.006755045,4008,-0.0002545533,0.0004916311,-2.4046192e-05,42.6162,0.0010642195,188,166,77
145502871,0,2360354,-0.06739367,-0.0063746264,0.0045607984,3982,0.0008382745,8.864059e-06,4.9104823e-05,42.631176,0.0010642195,159,-469,-64
145606871,0,2360354,0.12233024,-0.08201376,-0.010051392,3951,-0.00071779854,-0.0009362038,0.00016621621,42.610207,0.0010642195,357,504,66
145706874,0,2360354,-0.020649072,0.18167923,-0.009846967,4003,-0.0014829071,-0.00090671406,-0.00023674453,42.625183,0.0010642195,-194,588,39
145810871,0,2360354,-0.0042938255,-0.058371242,0.006106132,3981,0.0007470923,0.00092386483,-0.00029234862,42.613205,0.0010642195,-60,-293,95
145910898,0,2360354,0.016532646,0.13151272,0.007569247,4021,-0.0010998435,-0.00031500743,-3.7940343e-05,42.619194,0.0010642195,-46,-19,36
146010870,0,2360354,-0.10964442,-0.099687934,-0.007317613,3999,0.00027375206,-0.0020513758,0.00027767973,42.607212,0.0010642195,-49,329,55
146114877,0,2360354,0.021568384,-0.065584905,-0.00870918,4006,-0.00034683986,-0.0014443916,0.00044960136,42.610207,0.0010642195,110,250,217
146218871,0,2360354,0.01674936,0.12458087,-0.022890924,4000,0.0003025005,0.00056898914,-0.00031269068,42.6162,0.0010642195,-461,461,143
146322877,0,2360354,-0.0018310712,-0.08358556,-0.007908235,3961,0.0002777991,0.0004250854,-5.9249687e-05,42.595234,0.0010642195,393,1,-200
146422886,0,2360354,0.08079918,0.095701665,-0.029443359,4015,2.2803353e-05,-0.0013884004,3.944071e-05,42.619194,0.0010642195,-201,376,141
146526935,0,2360354,-0.038489442,0.020904385,-0.015465948,4065,0.00051431026,0.00035986726,-0.0003191688,42.64016,0.0010642195,72,-47,-64
146626871,0,2360354,-0.027970191,-0.0073721255,-0.026139919,4000,-0.00067126047,-0.0011876435,-9.766402e-06,42.655136,0.0010642195,84,311,180
146730871,0,2360354,0.021399021,-0.029684229,-0.0067567937,4000,0.00037607088,0.0005706691,-0.0003461943,42.64615,0.0010642195,-203,-140,11
146830871,0,2360354,0.0360589,0.08881669,-0.002846906,3993,-0.00035901606,-0.00048084598,0.00022789519,42.613205,0.0010642195,281,-210,-48
146930881,0,2360354,-0.08324749,-0.009382698,-0.009850384,3997,-0.0017874851,-0.00014138476,-0.000806142,42.62219,0.0010642195,285,121,-40
147034877,0,2360354,-0.119974904,-0.10410874,-0.0152280945,4003,-0.00020268674,-0.00074919115,-3.47618e-05,42.6162,0.0010642195,-124,371,129
147134874,0,2360354,-0.047153816,0.02513348,0.007691482,4003,0.0010680294,-7.136112e-06,7.997587e-05,42.6162,0.0010642195,-319,152,1
147238871,0,2360354,-0.059030667,-0.049050026,0.022447612,3996,0.00025301118,-0.00086290087,0.000671733,42.6162,0.0010642195,-138,-206,102
147338871,0,2360354,0.09087676,-0.02358249,0.012827072,3956,0.001948323,0.00043438617,0.00039925624,42.604218,0.0010642195,-597,-111,115
147438871,0,2360354,-0.035072815,-3.2371358e-05,0.0038342425,4000,-0.00027043666,-0.0007901935,0.00011238261,42.643154,0.0010642195,-406,1,0
147542870,0,2360354,-0.096927226,-0.03745181,-0.021828255,3993,0.0024791937,-0.001833023,8.716206e-05,42.613205,0.0010642195,-760,155,110
147642871,0,2360354,-0.09680857,0.030419573,-0.012424912,3994,-0.00034723565,-0.00012367875,-2.7619084e-05,42.64615,0.0010642195,-326,-183,72
147742871,0,2360354,-0.13418359,-0.06489444,-0.017538942,3997,0.00013661911,0.0008400962,-0.00029990968,42.637165,0.0010642195,-359,-639,-50
147846890,0,2360354,0.060452785,0.004868675,-0.03196131,4019,-0.0018870853,-0.0014837835,-1.51739705e-05,42.628178,0.0010642195,471,568,77
147946896,0,2360354,0.09194349,-0.04985189,-0.017214714,4025,-0.0012884035,0.000872494,-0.00019813825,42.673107,0.0010642195,527,-247,-62
148050871,0,2360354,0.014137878,0.061006222,-0.020444952,4000,0.0012428727,-0.00018992132,-8.972144e-05,42.625183,0.0010642195,126,91,17
148150893,0,2360354,0.020317461,0.08014847,-0.013842635,4022,-0.00090040575,0.0011059043,-0.00013156756,42.631176,0.0010642195,269,-254,-14
148250885,0,2360354,-0.07759659,-0.10164859,-0.008730321,4014,-0.0015808685,-0.00059546914,8.924641e-05,42.628178,0.0010642195,526,307,47
148354884,0,2360354,-0.05390839,0.0027681442,-0.006928756,4002,-0.00025530523,-0.00016237388,-3.146737e-07,42.66412,0.0010642195,-328,-351,7
148454870,0,2360354,-0.050172858,0.054992303,-0.03665661,3996,-0.0014798369,-0.0003650114,-0.00021869017,42.65214,0.0010642195,306,558,35
148554874,0,2360354,0.06543099,0.0009842864,-0.05876508,4003,0.0014689536,0.00016766458,-0.00040058905,42.65813,0.0010642195,-268,177,46
148658870,0,2360354,0.03765016,-0.004941495,-0.009938044,3999,0.00078926823,-0.0008460564,0.00014091289,42.667118,0.0010642195,-46,24,-9
148758871,0,2360354,-0.13140146,-0.053645536,-0.016633349,3966,6.35444e-05,0.00037723337,0.00022586671,42.65214,0.0010642195,-313,-648,-14
148862134,0,2360354,0.02153851,0.027862135,-0.024227692,3250,-0.0005081681,-5.5670336e-07,-0.00019728806,42.63417,0.0010642195,361,186,26
148962888,0,2360354,-0.059483584,-0.109193444,-0.017401071,4017,-0.0011659248,-0.0025539522,0.00030417836,42.637165,0.0010642195,61,406,60
149062078,0,2360354,0.023112563,0.08060344,0.013483711,4738,0.00069862336,0.0017712957,-0.00016919358,42.65813,0.0010642195,-88,-461,-157
149166870,0,2360354,-0.05301006,-0.040862434,0.01701501,3999,0.0007548103,0.00093906076,-4.440411e-05,42.619194,0.0010642195,99,-55,-126
149270871,0,2360354,-0.072081074,-0.08319218,-0.0030459724,3992,-0.0014001712,-5.220056e-05,-0.00014523377,42.661125,0.0010642195,-70,-44,49
149370078,0,2360354,0.025090596,-0.022729684,-0.011133256,4004,0.0011825996,-0.0006222908,0.00021316831,42.637165,0.0010642195,-481,74,157
149474071,0,2360354,-0.071617045,0.06541035,-0.0016917045,3994,-0.001364118,-0.0010673814,-0.00014044715,42.64016,0.0010642195,64,426,50
149574071,0,2360354,-0.13542208,0.04576218,0.012103163,4000,0.000575348,0.00016906654,7.1138325e-05,42.65813,0.0010642195,-101,-195,29
149677323,0,2360354,0.0069857487,-0.068230696,0.01761833,3245,0.00021991585,-0.00016620371,0.00013417528,42.655136,0.0010642195,103,-55,13
149777335,0,2360354,0.016901242,-0.1686539,0.017806092,3265,0.00091438746,-9.004802e-05,0.00016068034,42.619194,0.0010642195,-149,30,125
149878071,0,2360354,-0.13970166,-0.12794316,-0.007455086,3993,0.00070186215,-0.0007792006,0.00040030055,42.65214,0.0010642195,-573,-326,225
149982079,0,2360354,-0.110540405,-0.032538515,0.030836087,4008,-0.000393884,0.001037439,-0.000300178,42.679096,0.0010642195,866,425,-245
150082077,0,2360354,-0.06350199,0.062277798,0.008218383,4730,-0.0009286156,0.0010808053,-0.00047675552,42.670113,0.0010642195,394,139,-105
150182070,0,2360354,-0.072279595,0.00036959638,0.013254006,4000,3.0368468e-05,0.0015587275,6.292013e-05,42.625183,0.0010642195,-57,-542,-33
150286071,0,2360354,-0.055488348,-0.027987245,-0.02175089,3996,-0.0017067827,-0.0025819303,-0.00013371171,42.66412,0.0010642195,39,696,140
150386071,0,2360354,-0.048467483,-0.01907005,-0.012899602,3999,-0.0012128311,0.00029807194,-0.00022771071,42.65813,0.0010642195,419,36,-90
150490071,0,2360354,0.16647224,0.07919823,0.0020356248,4001,3.034461e-05,0.00052895036,-0.00022202921,42.6761,0.0010642195,487,379,-107
150590071,0,2360354,-0.03511561,-0.04130097,-0.007983999,3994,-0.0006587724,-8.4275656e-05,-0.0003929913,42.65214,0.0010642195,-296,149,69
150690087,0,2360354,0.08786639,0.054693386,0.0061526312,3974,-0.0008685562,-0.00038823584,-0.00033154548,42.628178,0.0010642195,589,703,-42
150794107,0,2360354,-0.0044974647,-0.05976418,0.011861576,4035,0.0010499168,0.00019793138,0.00045285153,42.65813,0.0010642195,-227,-314,23
150894071,0,2360354,0.035355985,-0.08715101,0.008711765,4000,-0.000511978,-0.0005486361,-1.2038614e-05,42.619194,0.0010642195,-299,-36,67
150994071,0,2360354,-0.030400045,-0.023550056,0.027075792,3999,0.00019120412,0.00041851975,0.00012532478,42.65813,0.0010642195,468,181,-112
151098093,0,2360354,0.049016237,0.011435746,0.013115117,4023,-4.8383554e-05,0.00069281185,-0.00011828841,42.670113,0.0010642195,406,232,-64
151198071,0,2360354,0.11987766,0.021319386,-0.006585092,3987,0.0017171126,0.00034901904,0.00020425266,42.6761,0.0010642195,-323,-182,85
151302072,0,2360354,-0.055547282,-0.11944363,-0.003288991,3925,0.0020333873,0.001484644,0.00028425956,42.65813,0.0010642195,-589,-631,60
151402071,0,2360354,0.06486434,0.105626605,0.005388131,3994,-0.00064373575,-0.00020047424,-0.000259454,42.65214,0.0010642195,456,489,-13
151502071,0,2360354,-0.08652894,-0.04125837,-0.017519407,4001,-0.0005410751,5.241116e-05,7.554916e-05,42.66412,0.0010642195,-567,-326,245
151606097,0,2360354,-0.0011163332,0.0015895858,-0.005294628,4020,0.0002853523,-0.0004341738,0.00017585162,42.64615,0.0010642195,-544,-388,209
151706070,0,2360354,-0.03608926,-0.07497107,0.0044466574,3954,-0.0005304045,-0.00015612353,2.6719e-05,42.655136,0.0010642195,16,-18,-18
151806078,0,2360354,0.21057145,-0.03351465,0.001049476,3998,1.829692e-05,0.0012166935,-2.4076571e-05,42.68509,0.0010642195,413,-119,-14
151910071,0,2360354,0.09911222,-0.0077452166,-0.0054526757,3997,0.0011299682,0.00061975967,-0.00023132528,42.667118,0.0010642195,-241,-2,-53
152010077,0,2360354,0.03858158,-0.08689869,-0.015493509,4001,-0.00039433304,-1.1697611e-05,-0.00020944623,42.649147,0.0010642195,-62,0,57
152114098,0,2360354,0.023161158,-0.0767715,-0.013710739,4021,0.00014588097,-0.00011892471,-0.00011354959,42.70006,0.0010642195,-39,13,-27
152214071,0,2360354,-0.060843125,-0.028768888,-0.02002536,4000,-0.00031770277,-0.000309445,-4.61853e-05,42.65813,0.0010642195,69,81,-4
152314071,0,2360354,-0.09851389,-0.007317986,-0.02133759,4000,-0.00039363294,1.179752e-05,-8.535178e-05,42.69108,0.0010642195,75,-58,-19
152418071,0,2360354,-0.110987045,0.19607127,-0.0026944932,4001,-0.00023287626,0.0013996246,1.9083198e-05,42.694073,0.0010642195,52,-383,-7
152518070,0,2360354,-0.12654139,0.16443212,0.012816273,3992,-8.4727515e-05,0.0011139627,-0.00020635157,42.631176,0.0010642195,22,-73,-75
152618101,0,2360354,0.011789051,0.03457985,0.005060531,4024,-0.001169863,-0.0001665094,0.00028392675,42.69108,0.0010642195,477,599,72
152722071,0,2360354,-0.041738782,0.06194551,0.0075217336,3991,-6.962116e-05,-0.0016884974,0.00044827422,42.637165,0.0010642195,-346,361,9
152822080,0,2360354,-0.1110498,0.19090351,0.030991042,4009,-0.000456818,-0.00015389215,0.0002365208,42.68509,0.0010642195,-339,-580,215
152926071,0,2360354,0.11767701,-0.37186274,0.022308512,3994,0.0011945405,-0.0017869826,0.00013636175,42.679096,0.0010642195,-71,677,110
153030077,0,2360354,-0.04582257,-0.22107875,0.015553051,3999,9.634223e-05,-0.0017587888,0.0001655477,42.70006,0.0010642195,-243,190,-44
153130071,0,2360354,-0.018422617,0.49808943,-0.0056511965,3987,0.00018671605,0.0026564545,0.000116321076,42.66412,0.0010642195,179,-424,-75
153234071,0,2360354,-0.05049865,-0.10568488,-0.0013006431,3981,0.000919548,-0.0010590844,0.00014638955,42.694073,0.0010642195,-338,-210,43
153333271,0,2360354,0.12837826,0.047070432,0.022318613,4000,0.0013550268,0.00078028144,-5.2845216e-06,42.70006,0.0010642195,-3,-148,-145
153437346,0,2360354,-0.060414053,0.05635013,0.003952837,4073,0.00012921005,0.00042470355,3.1351447e-05,42.6761,0.0010642195,-281,-376,52
153537298,0,2360354,-0.0034388786,-0.024632476,-0.008479211,3221,0.0004933802,-0.0011464689,0.00033638964,42.6761,0.0010642195,-176,198,68
153637298,0,2360354,-0.06816739,-0.08484639,0.00015201335,3965,0.00085532485,-0.00013730444,-4.9316335e-05,42.673107,0.0010642195,-568,-302,26
153737317,0,2360354,-0.15526013,0.03568677,-0.024743846,4034,-0.0023378334,-0.00020829681,-0.00023694141,42.6761,0.0010642195,187,519,-22
153841277,0,2360354,0.11865353,0.013666008,-0.0011525105,3980,-0.0007488331,-0.0010431642,0.00016931808,42.667118,0.0010642195,248,434,128
153941297,0,2360354,-0.057017807,-0.1492238,0.0032290982,3948,-0.0002490831,0.0014672801,-0.00024019487,42.65813,0.0010642195,444,-189,-49
154045271,0,2360354,-0.028128294,0.14724968,-0.015668139,4000,-0.0008737481,-0.0022804355,0.00044718082,42.679096,0.0010642195,-4,399,104
154145319,0,2360354,0.03187889,-0.17560242,-0.005374282,4048,0.001306131,0.0008314391,0.00010989351,42.661125,0.0010642195,117,-509,26
154248523,0,2360354,-0.1307935,0.039744664,-0.008460786,3253,0.00079854985,-0.0013662487,0.0002079584,42.724026,0.0010642195,-529,-108,93
154349271,0,2360354,0.0007762749,0.06480111,-0.017278137,3994,-0.0017114317,-0.0017545132,0.00028226193,42.679096,0.0010642195,223,480,124
154449270,0,2360354,0.14571169,0.027400233,0.0067670844,3965,0.0011271178,0.001454776,-0.00015162831,42.6761,0.0010642195,247,-399,-38
154553277,0,2360354,-0.077079944,-0.1781114,-0.00026359846,3990,0.0012237572,0.00044201856,-0.00012473193,42.69108,0.0010642195,-84,-404,-110
154657323,0,2360354,0.046352524,0.03969628,-0.0008257484,4046,0.0015340153,0.0025721206,-8.67371e-05,42.6761,0.0010642195,-39,-711,-10
154757328,0,2360354,0.1431318,0.047149632,-0.0073598935,4057,-0.0012793926,-0.00025339375,1.6721326e-05,42.673107,0.0010642195,230,264,252
154861277,0,2360354,-0.15443698,-0.1796548,-0.0008123803,3980,-0.0017368167,-0.0020847048,0.00021468308,42.73301,0.0010642195,812,653,130
154961271,0,2360354,-0.022420982,-1.3909348,0.014007085,3927,0.0011532019,-0.005718135,0.00018150611,42.670113,0.0010642195,-281,1462,138
155061314,0,2360354,0.10391897,-1.4703017,0.007420267,3997,0.0016722708,-0.006347025,0.00065562734,42.70006,0.0010642195,-264,779,64
155165284,0,2360354,-0.14637929,-0.4917868,-0.00014691825,4011,-0.0007002475,-0.0023486374,5.6006094e-05,42.70006,0.0010642195,-430,689,63
155265277,0,2360354,-0.15484995,-0.36778423,-0.01692985,4006,0.0002861854,-0.0028140715,0.0002630218,42.70006,0.0010642195,-126,180,71
155369284,0,2360354,0.32771695,1.6574386,-0.020208571,4007,0.0028141201,0.0073068445,0.00025035927,42.706055,0.0010642195,-473,-2011,23
155469270,0,2360354,2.463702,1.3389562,-0.05801105,3999,0.01024829,0.005406194,-0.0003540396,42.736008,0.0010642195,-1916,-1288,-245
155569271,0,2360354,1.7615263,0.4733944,-0.07850901,3957,0.007167604,0.001614545,-0.00035373773,42.661125,0.0010642195,-2135,-667,14
155673271,0,2360354,0.98609585,0.0912328,-0.08956522,3994,0.0055462914,0.0007106026,4.8566628e-05,42.694073,0.0010642195,-1098,-585,-110
155777297,0,2360354,0.19315189,0.07522744,-0.063901775,4003,0.001897461,0.0013740234,-0.0003264015,42.712044,0.0010642195,124,-381,-10
155877297,0,2360354,0.12781696,0.13244827,-0.045759276,4026,0.0009736449,0.0017344824,-0.00042681274,42.70905,0.0010642195,139,-416,-202
155981271,0,2360354,-0.068578646,-0.13271847,-0.023193425,3968,-0.0014399438,-0.0019876778,0.00018043748,42.68209,0.0010642195,34,182,-65
156081270,0,2360354,-0.080750205,0.05454547,-0.02533286,3919,-0.0019878303,-0.0018832847,-2.1493008e-05,42.694073,0.0010642195,454,759,158
156181295,0,2360354,-3.329226,0.07040868,-0.04182167,3964,-0.012364604,0.00012273279,-0.0002558213,42.694073,0.0010642195,2892,300,102
156281271,0,2360354,-2.33908,0.20406628,-0.064480074,3954,-0.008819863,-0.0007100008,0.00016961199,42.68509,0.0010642195,1800,338,244
156385323,0,2360354,0.17267233,-0.055208392,-0.050363336,4036,0.002168744,-0.00055148016,-0.00085515575,42.70905,0.0010642195,-1016,577,443
156489273,0,2360354,-0.26795357,1.528407,-0.07637052,4002,-0.0016501528,0.0062624672,-0.0007734703,42.72103,0.0010642195,395,-1476,-292
156593270,0,2360354,0.48996332,2.5121994,-0.10400566,3992,0.003984155,0.011032499,1.717195e-05,42.68209,0.0010642195,-811,-2888,108
156693271,0,2360354,0.18939802,0.2539042,-0.033925336,4001,0.0009189252,0.002053083,-0.0003969238,42.66412,0.0010642195,-153,-80,70
156797340,0,2360354,-0.0019703577,0.73764557,-0.072908975,4069,-0.0012296134,0.0029465843,-0.0004507889,42.694073,0.0010642195,778,-691,115
156897330,0,2360354,-0.18870886,-0.71208984,0.00651512,4059,-0.0016537693,-0.0031891714,-0.00055340223,42.694073,0.0010642195,-440,215,-432
157001270,0,2360354,-0.37169784,-0.41687232,0.01768021,3967,-0.00012747728,-0.0023144402,-0.00023421824,42.69108,0.0010642195,-583,490,206
157105277,0,2360354,-0.1405084,-3.9237866,0.14957939,4006,0.00013890772,-0.014795328,0.0002870649,42.70306,0.0010642195,87,3250,-178
157209271,0,2360354,1.8121067,0.17283466,0.05647677,3994,0.0100880535,8.06435e-05,0.00075227144,42.71504,0.0010642195,-1377,664,199
157313277,0,2360354,2.6381638,-0.43081486,0.019981978,3955,0.007103263,-0.0035437697,-7.161319e-05,42.712044,0.0010642195,-1739,523,-150
157413283,0,2360354,0.890203,-0.22684531,0.0036443705,4013,0.0059218933,-0.0007511942,0.000372823,42.730015,0.0010642195,-1480,24,142
157517319,0,2360354,0.40119216,-0.06632919,-0.0020090071,4048,0.002306646,-0.00029159573,-0.00026196835,42.718033,0.0010642195,-1265,-497,-118
157617338,0,2360354,0.100544095,0.0897341,-0.011613995,4067,0.0013153196,-0.00043022467,-7.91914e-05,42.724026,0.0010642195,-278,-344,90
157719711,0,2360354,0.06517863,0.032201298,-0.023599323,3240,0.0014527731,0.0016030718,-7.85063e-05,42.712044,0.0010642195,30,-17,64
157820470,0,2360354,-0.16346847,0.079010345,-0.04074018,4762,0.0006572908,-0.00011311017,-1.4592663e-05,42.71504,0.0010642195,160,239,178
157920511,0,2360354,-2.7111845,-0.10203119,-0.055928502,4035,-0.011282536,-0.0026103507,0.00013378462,42.70006,0.0010642195,2556,441,194
158022871,0,2360354,-2.2238848,0.16262396,-0.029257966,4000,-0.010532179,0.0005672703,-0.00010444864,42.673107,0.0010642195,2317,287,-72
158125277,0,2360354,-0.694607,-0.090403676,0.010281486,4006,-0.0049586706,-0.0017482952,5.1422347e-05,42.712044,0.0010642195,1043,823,-222
158227713,0,2360354,-0.18070297,0.0021670326,0.056301717,3234,0.00080889236,0.00059583614,0.00024518173,42.70006,0.0010642195,157,-32,546
158328471,0,2360354,-0.16616695,0.059403192,0.05268831,4760,-0.00079290755,0.0021779146,-0.00040844307,42.718033,0.0010642195,301,616,646
158428471,0,2360354,0.009988217,0.022090947,0.10763649,3976,-0.0018789578,0.00037550644,5.0465143e-05,42.68509,0.0010642195,-132,-546,-633
158532481,0,2360354,-0.02008316,0.093477,0.056815602,4010,0.00039122405,0.0013272671,0.00066733913,42.756973,0.0010642195,640,-274,327
158632480,0,2360354,-0.41384974,0.0003432137,0.057870798,4009,-0.0024050088,-2.2057897e-05,-0.00017108492,42.68209,0.0010642195,87,638,7
158732471,0,2360354,-1.3771517,0.01887139,0.075893246,3979,-0.006404856,0.0016868556,-0.00014700697,42.706055,0.0010642195,1763,-533,-385
158836523,0,2360354,-0.7148352,0.19878921,0.06638027,4052,-0.0030469764,0.00017708,0.00015834473,42.697067,0.0010642195,292,-448,-26
158936481,0,2360354,-0.32801223,0.07872361,0.08330772,4010,-0.000940662,-0.0011264478,0.0004637047,42.72103,0.0010642195,257,-138,-33
159040471,0,2360354,-0.101775795,0.046199407,0.0727602,4000,-0.00052257325,-0.0006128741,0.00032213214,42.70306,0.0010642195,110,77,117
159144500,0,2360354,-0.06366223,0.13990067,0.063576475,4016,-0.0006318457,0.0013468188,0.00012355804,42.74499,0.0010642195,643,537,48
159248470,0,2360354,-0.006221398,-0.04098778,0.006627898,3997,0.0006975498,-0.0018113626,0.00033042952,42.697067,0.0010642195,-1,29,164
159348472,0,2360354,0.17989157,-0.1541641,-0.016654748,4002,0.0021168594,-0.0008345383,-7.6148004e-05,42.70905,0.0010642195,-748,178,-117
159452491,0,2360354,0.021111058,-0.0729044,-0.07327149,4020,0.001108234,0.0006424156,-0.0001985516,42.736008,0.0010642195,-721,-156,310
159552471,0,2360354,0.2336614,-0.08870003,-0.091731876,3985,0.0010225303,0.0003887112,-0.00024611613,42.706055,0.0010642195,-86,-402,-107
159656470,0,2360354,0.20648445,0.065185785,-0.09252061,3999,0.00082328904,0.0013299724,-0.00038188125,42.688084,0.0010642195,-168,-507,-476
159756477,0,2360354,0.5355092,0.06291408,-0.1020782,4006,0.0012721897,3.4845074e-05,-0.0007900982,42.65214,0.0010642195,-441,494,-141
159856477,0,2360354,1.2752415,-0.101262316,-0.106555864,3958,0.006505592,-2.7970238e-05,-7.426151e-05,42.70006,0.0010642195,-879,-635,100
159960471,0,2360354,0.18949725,0.07583122,-0.08911353,4000,0.0011426045,-0.00025091865,-0.00037281474,42.697067,0.0010642195,-495,-118,-347
160064494,0,2360354,0.23419508,-0.039273154,-0.093674004,3997,0.00035306395,-0.00087141333,-0.00029432014,42.730015,0.0010642195,-149,488,-45
160776487,0,2360354,-0.10403083,0.0882958,-0.0094364,4016,0.0009101739,-0.00019187784,0.00015045943,42.72702,0.0010642195,-159,-119,17
160876471,0,2360354,0.0792455,0.014443333,0.027885735,4000,-0.001351147,-0.0016302513,0.00019101707,42.68209,0.0010642195,190,519,-59
160976487,0,2360354,-0.03840713,-0.05597704,0.04332933,4016,0.0006405152,0.001100021,-6.627727e-05,42.72702,0.0010642195,216,-191,43
161080471,0,2360354,-0.06588852,-0.07597378,0.037596554,3996,0.0008873093,-0.0003573411,7.621199e-05,42.730015,0.0010642195,-683,-282,98
161180471,0,2360354,0.11768323,0.029285187,0.03115484,3993,-0.0013905847,0.00033087083,0.0001839114,42.68209,0.0010642195,992,314,-77
161280481,0,2360354,-0.111038536,-0.008232338,0.03133247,4010,1.0595221e-05,0.00026380538,0.0005053643,42.72103,0.0010642195,-6,-516,-48
161384503,0,2360354,0.023391936,0.040478643,0.008263689,4012,0.0004703093,-0.0012104661,0.00010663016,42.730015,0.0010642195,-445,332,-70
161484471,0,2360354,-0.060796577,-0.038933385,0.008628727,4000,0.0021049608,-0.00035115858,0.00022932814,42.6761,0.0010642195,-105,-145,231
161588475,0,2360354,-0.08857507,-0.08998095,-0.007518927,4004,-2.1436229e-06,-0.0015240674,4.442357e-05,42.739002,0.0010642195,-429,-85,216
161688470,0,2360354,0.059859656,-0.007005067,0.0030545844,4000,0.0020118358,0.00040392377,0.00019001715,42.712044,0.0010642195,-295,-454,-239
161788481,0,2360354,-0.07427371,0.13324334,-0.015624183,4004,0.0008539163,0.001480451,-0.0006411573,42.72702,0.0010642195,-119,144,1
161890916,0,2360354,0.12586933,-0.025657168,-0.020854838,3245,-0.0006137307,-0.0019133622,-3.5884907e-05,42.70905,0.0010642195,-692,626,42
161992525,0,2360354,-0.060726766,-0.002127461,-0.0073405844,3254,-0.00018451369,-0.0005165425,0.0007588571,42.736008,0.0010642195,-11,194,-172
162095670,0,2360354,0.053488277,0.04716375,-0.018661672,3973,0.0008674091,0.00012760534,-0.0004253036,42.697067,0.0010642195,-298,426,117
162195671,0,2360354,0.018553162,0.40525022,-0.0060976488,3994,-0.0010444096,0.00019611267,0.0001691346,42.724026,0.0010642195,-254,-310,-92
162294905,0,2360354,0.038434897,-0.0018201023,-0.0045848577,3235,0.0013543509,0.00047300672,-0.00018410113,42.72702,0.0010642195,-693,-584,91
162399688,0,2360354,0.020277508,0.095893204,0.0018607384,4001,-4.1268595e-05,0.000121310564,0.00010445849,42.706055,0.0010642195,-491,-255,-46
162499671,0,2360354,0.0435521,-0.13171217,0.0038328227,4000,0.0008256098,-0.001352168,0.0001946569,42.724026,0.0010642195,-572,346,56
162603677,0,2360354,0.5604312,-0.28444755,-0.009046289,4006,0.0038992884,-0.0013439893,-0.00024110642,42.712044,0.0010642195,-758,190,141
162707673,0,2360354,-0.047150243,0.009437887,-0.0019988262,4002,-0.0005014139,-0.0009572334,0.00012561104,42.736008,0.0010642195,-664,279,-40
162807671,0,2360354,-0.009526119,-0.13616844,0.0032056011,3994,-0.0012057134,-0.0015003842,4.5890905e-05,42.736008,0.0010642195,-258,521,-224
162911702,0,2360354,0.18048319,0.059164025,0.0029777952,4026,0.00024238252,0.0011084874,-0.000468952,42.724026,0.0010642195,-503,-140,-121
163011677,0,2360354,0.16794915,-0.043457877,-0.00017635235,3988,-7.968955e-05,0.001035307,-0.000383736,42.756973,0.0010642195,50,-79,105
163111681,0,2360354,0.3271077,0.028077818,-0.002610698,4001,0.00125095,-0.0021961064,0.00023052118,42.697067,0.0010642195,-899,686,16
163215671,0,2360354,-0.073490575,0.032436766,-0.0053227567,4000,0.0005141895,0.001764639,-0.000101911886,42.688084,0.0010642195,801,-321,117
163315671,0,2360354,-0.0053223306,0.022904389,-0.012718263,4000,-0.0003403624,-6.863144e-05,-0.00011551379,42.736008,0.0010642195,33,564,34
163415713,0,2360354,-0.09222359,0.016991444,0.0032973476,4042,-0.0014645405,0.0009288925,-0.00018274946,42.76895,0.0010642195,433,154,-190
163519678,0,2360354,-0.51442504,-0.042722065,-0.0035205872,4001,-0.0027952984,-0.0019549634,0.00018649428,42.69108,0.0010642195,342,520,-76
163623670,0,2360354,-0.17156257,0.32286707,-0.027788948,3985,-0.0027373652,0.0010408467,-0.00027696975,42.70006,0.0010642195,520,132,-94
163723708,0,2360354,-0.16579905,0.24185444,-0.02808492,4038,-0.00069358025,-0.0003533429,0.00034343573,42.72103,0.0010642195,474,388,432
163827693,0,2360354,-0.2637418,0.0075187334,0.011164012,4016,-0.00019522946,0.001130175,3.07761e-05,42.75098,0.0010642195,-41,-491,-50
163927671,0,2360354,-0.105297305,-0.04744145,-0.01081897,4000,-0.0005923891,0.0014930338,-0.0003510989,42.718033,0.0010642195,732,-232,-219
164031677,0,2360354,-0.10190307,0.06733898,-0.0012192648,3999,-0.0016983204,0.0006549527,0.00048601278,42.72103,0.0010642195,676,-157,18
164131693,0,2360354,-0.13928832,-0.09285577,-0.0031782058,4023,-0.0013447548,-0.0020527872,-0.00027113265,42.756973,0.0010642195,-506,881,-113
164231670,0,2360354,0.013545586,-0.20123024,0.017603423,3986,0.0009349534,-0.00047087515,-0.00061694824,42.741997,0.0010642195,-636,-312,-134
164335670,0,2360354,-0.061482437,-0.10159408,0.00085412886,3986,-0.0012946002,0.00032564302,-0.00035180792,42.747986,0.0010642195,253,289,262
164435722,0,2360354,-0.16449407,-0.057995655,0.020906527,4051,0.00029367127,3.2388736e-05,-0.0002840746,42.73301,0.0010642195,-633,161,57
164535697,0,2360354,0.13942641,0.025618872,0.0057145474,4026,0.00037442066,0.0009462732,-0.00024491287,42.75098,0.0010642195,48,-3,84
164639671,0,2360354,0.03332247,0.09363024,0.032504585,4000,4.8175236e-05,0.0014735694,-0.00055250543,42.74499,0.0010642195,-865,-603,-313
164739671,0,2360354,-0.0676908,-0.028932765,0.0147983655,3997,0.0017073661,0.0009975542,-0.00016416781,42.74499,0.0010642195,-62,-349,159
164843702,0,2360354,0.0808324,-0.055215295,0.009062591,4031,0.0015175096,-6.6388784e-05,-0.00015351686,42.765957,0.0010642195,-644,-276,65
164943671,0,2360354,0.0010990301,0.07139069,0.009174172,3965,0.002087414,0.0017151559,-0.0003883425,42.739002,0.0010642195,-421,-305,254
165043670,0,2360354,0.03843265,0.069810666,-2.8122471e-05,3976,-1.7563094e-05,0.0011657351,-0.0006076083,42.76895,0.0010642195,196,56,-281
165147691,0,2360354,-0.10799571,-0.0324206,0.015868774,4020,-0.00012602514,5.1098275e-05,0.0004320955,42.783928,0.0010642195,-391,-145,-136
165247677,0,2360354,-0.001795173,0.012459588,-0.004258706,4006,0.0011228566,0.000509536,0.0002835228,42.762962,0.0010642195,446,-297,69
165347684,0,2360354,0.008677726,-0.0639096,0.01065745,4013,0.00013329422,0.00032587256,4.4962453e-05,42.75398,0.0010642195,151,-199,145
165451671,0,2360354,0.038709737,0.030763734,0.0350038,4000,0.00096646487,0.0025622079,-0.00016374336,42.71504,0.0010642195,-137,-1003,-199
165551681,0,2360354,0.05518631,-0.11094356,0.019282823,4000,-0.0010187726,0.00010198458,1.8348695e-05,42.706055,0.0010642195,523,-350,84
165655708,0,2360354,0.13317975,0.0083657885,0.05299052,4037,-0.001277839,0.0019854058,0.00047222938,42.74499,0.0010642195,1108,-459,-317
165755671,0,2360354,0.00858225,0.12698738,0.022859478,3994,0.0010476318,-0.00023382237,0.0006221524,42.712044,0.0010642195,-317,-131,345
165855677,0,2360354,0.045635145,0.09457988,0.033577453,3969,-0.0007656757,0.0008312611,-0.0001147955,42.730015,0.0010642195,119,247,-80
165958892,0,2360354,-0.117199264,-0.08152259,0.026490731,4006,0.00033429387,0.0011817378,2.0536077e-05,42.74499,0.0010642195,206,47,188
166059671,0,2360354,0.013332915,-0.02387991,0.0053657964,3980,-0.00019583227,-0.0016070217,-0.0003953525,42.724026,0.0010642195,-792,235,168
166159703,0,2360354,0.0122647695,0.011921026,0.006834141,4032,3.6920945e-05,0.00038227576,0.0007897247,42.762962,0.0010642195,908,-203,-52
166262871,0,2360354,0.020034747,-0.095930964,-0.006285678,4756,0.0021178918,-0.00060970435,-0.00012895415,42.72702,0.0010642195,-222,218,378
166362871,0,2360354,-0.17348607,0.10214534,-0.03555247,3955,-0.0014387682,-0.001198715,-9.820217e-05,42.759968,0.0010642195,-73,8,311
166466875,0,2360354,0.026166761,0.10503998,-0.03917769,4004,-0.00023617393,-0.00013197746,6.468582e-05,42.765957,0.0010642195,85,99,100
166566871,0,2360354,-0.03746725,-0.055451855,-0.026408624,3994,0.0012824188,-0.000121910554,-0.0002015938,42.747986,0.0010642195,-417,-8,-42
166666873,0,2360354,0.08541704,0.06843748,-0.036500584,3996,-0.0017699945,-0.00023490663,0.00026453668,42.774944,0.0010642195,590,251,-303
166770884,0,2360354,0.023929365,-0.008319167,-0.023643179,4013,0.0002023528,0.0007780038,0.000241071,42.783928,0.0010642195,709,-222,-13
166870876,0,2360354,0.048845597,0.019159613,-0.00049266784,4005,-0.0025258134,-0.0010305989,3.584235e-05,42.77195,0.0010642195,337,317,-454
166974871,0,2360354,-0.0074963956,0.039302345,0.00097026874,3966,-0.000402134,0.0015878851,0.00021897217,42.759968,0.0010642195,699,-1,-366
167074871,0,2360354,0.11905223,0.06654725,-0.013724064,4000,-0.00012206451,-0.0013244001,0.00012556542,42.792915,0.0010642195,-158,170,100
167174871,0,2360354,-0.12283407,-0.049574576,-0.025028657,3987,0.0011202737,-0.0010262451,4.128071e-05,42.759968,0.0010642195,-228,84,324
167278872,0,2360354,0.049792375,-0.03714845,-0.007185446,3965,-0.00053120137,0.00043422988,2.3427585e-05,42.780933,0.0010642195,-64,151,-308
167378878,0,2360354,-0.07146662,0.036953427,-0.017045418,4002,0.00055294635,0.00024912687,-0.00035144435,42.747986,0.0010642195,-628,-29,-150
167482902,0,2360354,-0.21836336,0.2604185,-0.023814395,4032,-0.00061115436,0.00043917316,-0.00017062278,42.756973,0.0010642195,-229,21,165
167582877,0,2360354,-0.041638963,-0.14621808,-0.00358901,4007,0.0005853826,-3.2307016e-05,0.0006290262,42.730015,0.0010642195,408,-106,10
167682871,0,2360354,0.039438743,0.1965638,-0.0059507885,4000,-0.00015077651,0.0010782204,-0.00027488547,42.759968,0.0010642195,334,135,178
167786870,0,2360354,-0.098402984,-0.04541394,0.013284864,4000,0.00092119066,-0.000480753,-0.00026600316,42.74499,0.0010642195,-325,-376,-1
167886871,0,2360354,0.0042864583,-0.109905206,0.010993098,4001,-0.0013040287,-0.0023049128,-0.00047045588,42.756973,0.0010642195,-981,445,-117
167986880,0,2360354,0.057821725,-0.16944851,0.027396506,4009,0.00066797173,0.0017022238,3.192245e-05,42.780933,0.0010642195,701,-767,-88
168090871,0,2360354,0.06791301,-0.24324423,0.04569164,3994,0.00063082844,0.0007041148,1.833034e-05,42.75398,0.0010642195,-50,-281,-364
168190878,0,2360354,-0.059706144,0.057126787,0.029442718,4007,1.4910828e-06,-0.00097525335,0.0003646641,42.762962,0.0010642195,-476,62,-6
168294878,0,2360354,-0.05866533,-0.078605026,0.023251774,3999,0.0001688179,-0.0006084764,0.00047946014,42.762962,0.0010642195,70,-232,-12
168398870,0,2360354,0.05528488,-0.078639925,0.0065197493,3979,0.0011396841,-0.0008007728,0.00052280043,42.783928,0.0010642195,30,-160,182
168498915,0,2360354,-0.040316287,-0.025312578,-0.014921701,4044,-0.0017134307,-0.0006329372,-0.0004633309,42.79591,0.0010642195,-75,609,-66
168598873,0,2360354,0.008579411,-0.044500425,-0.007475054,3998,-8.939068e-05,0.0009833289,0.0005233706,42.76895,0.0010642195,954,18,-203
168702907,0,2360354,-0.021252789,-0.10799381,-0.027191749,4037,0.00019294786,8.0198166e-05,-0.00073959224,42.774944,0.0010642195,-87,212,3
168802871,0,2360354,0.038782105,0.09415297,-0.031180141,3993,-0.00048682722,-0.00063787925,-0.0003977146,42.739002,0.0010642195,38,285,104
168906877,0,2360354,0.16710283,-0.09013279,-0.02047611,3968,0.002253209,0.0013810667,0.00049167016,42.77794,0.0010642195,-105,-453,194
169006877,0,2360354,0.083423495,-0.12591666,-0.015984405,4007,0.00093208236,0.00029100853,3.2993274e-05,42.74499,0.0010642195,288,287,-109
169106874,0,2360354,0.19536878,0.032964077,-0.031451765,3986,0.0010088796,-0.0016141257,-0.00015228773,42.756973,0.0010642195,-966,286,176
169210871,0,2360354,-0.2240757,0.08877852,-0.036349934,3963,-0.00090369873,0.0016491201,-0.000856714,42.759968,0.0010642195,-152,434,-104
169310874,0,2360354,0.020407908,0.03776685,-0.02242554,4003,-0.00047944338,-0.00082727085,0.00042497533,42.759968,0.0010642195,426,562,136
169410870,0,2360354,0.24796188,-0.051550746,7.681124e-05,3964,0.0025291916,-0.0012064904,0.00015400343,42.75098,0.0010642195,-1060,-369,-6
169514916,0,2360354,0.26076132,0.07970527,0.00358182,4039,-0.0005101111,-0.0006770146,-0.000125759,42.78992,0.0010642195,77,308,-189
169614871,0,2360354,0.07727217,0.0065257554,0.002487965,3986,0.00010262991,-0.001399087,0.00068168144,42.774944,0.0010642195,147,236,-103
169718878,0,2360354,0.05428421,0.025746278,0.003104674,4007,-0.0006844557,0.00071559305,-0.00010705136,42.75098,0.0010642195,391,296,136
169818881,0,2360354,-0.15972124,-0.013833819,-0.014289332,4011,-0.0005872111,-0.0009725195,-0.00050062506,42.756973,0.0010642195,-353,250,314
169918876,0,2360354,0.09530343,0.00261359,0.032853678,4005,-0.00029800055,0.0015780466,-0.0004930903,42.76895,0.0010642195,-156,-439,-571
170020519,0,2360354,-0.027856216,0.026156005,0.021315083,3221,-0.00031058386,-0.0006057685,0.00021355697,42.756973,0.0010642195,-133,102,-226
170122871,0,2360354,0.008251254,0.042223547,0.015718844,4000,-0.00020696942,-0.0001194722,0.00037293448,42.77195,0.0010642195,488,-153,-414
170226071,0,2360354,0.07517792,-0.019051058,0.014183369,4782,0.0016776811,0.0011540204,0.0002042603,42.780933,0.0010642195,31,-530,-349
170326071,0,2360354,-0.14144312,-0.020345537,-0.027334122,3959,-0.0016781391,-0.0009779405,0.00028628405,42.765957,0.0010642195,889,303,-98
170426070,0,2360354,-0.1082993,-0.098108806,-0.019614907,3984,0.0010449575,0.00059690257,0.00022201893,42.81987,0.0010642195,446,-585,42
170530077,0,2360354,-0.23843092,0.16496456,-0.053708963,4006,-0.0014449253,-0.0003235974,-0.00072096,42.774944,0.0010642195,-402,246,-68
170630071,0,2360354,-0.42579922,-0.15632358,-0.030470217,3993,-0.0024571342,-0.0011078492,4.6980607e-05,42.77794,0.0010642195,384,67,-50
170734071,0,2360354,-0.2835752,-0.009557353,-0.011367022,4000,-0.0011304409,-0.0004169011,-0.0003329705,42.759968,0.0010642195,256,169,-154
170834086,0,2360354,-0.2599611,-0.06792994,-0.0010091992,4016,-0.00095113623,-0.00023245484,5.2454354e-05,42.780933,0.0010642195,390,-510,-443
170937330,0,2360354,0.039188154,0.08915052,-0.0056175995,3257,-0.0010407652,-0.0004411182,-0.00041115066,42.79591,0.0010642195,10,281,155
171037334,0,2360354,-0.014492561,0.06491995,0.00644183,3250,-0.00017288615,-4.5483936e-05,0.00032130897,42.774944,0.0010642195,121,66,355
171137335,0,2360354,-0.07557845,-0.14534461,-0.006948816,3250,-0.001275396,-0.0010144078,-0.00023107018,42.78992,0.0010642195,-169,-53,2
171238093,0,2360354,0.044583887,0.11542145,0.012273952,4023,0.0010532301,0.0011449069,0.00014183606,42.78992,0.0010642195,-49,-361,-77
171342071,0,2360354,0.052343365,-0.005327203,-0.014597112,4000,-0.0005664636,0.0004872158,-0.00043773235,42.759968,0.0010642195,-26,43,-311
171442071,0,2360354,-0.087439515,0.18281825,-0.016107107,3984,0.00032045954,0.002805089,-0.00066815765,42.78992,0.0010642195,-433,-518,-31
171546079,0,2360354,0.19063678,-0.12720306,-0.018548993,3974,-0.0010502479,0.0002268677,-0.00018965067,42.74499,0.0010642195,-29,256,-83
171646095,0,2360354,-0.042690102,0.17869945,-0.04084634,4013,-0.0015635742,0.00032084345,-0.0001467343,42.792915,0.0010642195,672,403,304
171746085,0,2360354,0.12833443,-0.0152013805,0.026552865,3991,0.002324858,0.0018265838,0.0002040197,42.822865,0.0010642195,-89,-1013,-64
171850075,0,2360354,-0.11994874,-0.1287456,0.033766318,3998,-0.00013059682,-0.00035381812,0.00019254144,42.77794,0.0010642195,-310,-346,37
171950071,0,2360354,-0.04037996,0.0039010318,0.02832292,3993,-0.002055601,6.563137e-05,0.000296168,42.765957,0.0010642195,815,566,104
172050071,0,2360354,0.1113258,0.054263327,0.049178712,3970,-0.00030733948,0.00041407466,0.00015609802,42.798904,0.0010642195,607,118,-299
172154113,0,2360354,-0.06443423,0.05653175,0.05033095,4041,0.0029076391,0.00056156935,0.00040155117,42.76895,0.0010642195,-751,-268,112
172254110,0,2360354,-0.019425347,-0.12429109,0.049367853,4040,0.0004778147,0.00018139192,0.00022962906,42.780933,0.0010642195,273,64,205
172358071,0,2360354,0.037351247,0.10452571,0.052293137,4001,0.00226753,-8.5565924e-05,0.0004158262,42.79591,0.0010642195,-207,-395,-5
172666077,0,2360354,0.025709074,0.04336255,0.019777287,4007,0.001688263,0.0016026351,0.000244342,42.78992,0.0010642195,103,-1014,123
172766077,0,2360354,0.053227298,0.021607509,0.013984843,4007,0.00075340684,0.0023396588,-0.00025927273,42.780933,0.0010642195,68,-455,22
172866101,0,2360354,-0.028220657,0.11778904,-0.008150463,4020,-0.00015650711,0.0019841495,-0.00011678948,42.783928,0.0010642195,447,-13,184
172970078,0,2360354,0.026018966,0.011964608,-0.02055668,3987,0.000980339,-0.00016226906,0.00018630868,42.780933,0.0010642195,-86,-84,304
173070070,0,2360354,0.02287842,-0.22871499,-0.015201246,3999,0.002284285,-0.00046993923,8.661546e-05,42.78992,0.0010642195,-8,141,169
173170071,0,2360354,0.11425021,0.103251465,-0.027390253,3982,-0.0014187539,-0.00076062675,0.0002952626,42.80789,0.0010642195,385,577,-182
173274071,0,2360354,-0.050467595,0.073376596,-0.05219199,3941,-0.0007664889,-0.0012464789,-0.0002713011,42.81987,0.0010642195,-356,736,-78
173374071,0,2360354,-0.030404111,0.015190286,-0.071819626,3987,-0.0010282842,-0.0022206523,-1.6901346e-05,42.79591,0.0010642195,-84,698,18
173478077,0,2360354,0.00885955,0.17893621,-0.07757258,3974,0.001183452,-0.0003620028,-0.00010445748,42.816875,0.0010642195,74,-174,30
173578084,0,2360354,0.11134139,-0.018268993,-0.06644857,3991,0.0030067014,0.0008257159,-0.00042718087,42.792915,0.0010642195,-217,-269,-216
173678078,0,2360354,-0.11327553,-0.09072079,-0.084472895,3997,-0.0004952134,-0.0022829983,-0.00016562389,42.792915,0.0010642195,-18,695,-77
173782071,0,2360354,0.09477407,-0.20097592,-0.07636209,4000,-0.0006105895,-0.0010592812,-0.0002047655,42.8019,0.0010642195,568,656,122
173882080,0,2360354,0.009037219,-0.017638495,-0.01003266,4010,-0.00011852909,-0.001850192,7.160479e-05,42.810886,0.0010642195,-56,539,-34
173982077,0,2360354,0.033258,0.1288996,0.0028708738,3964,-0.0010769744,-0.00038062947,0.0006103136,42.759968,0.0010642195,559,584,84
174085305,0,2360354,0.15261461,-0.062092483,0.07438172,4027,-0.0010639845,-0.000745582,0.00056919095,42.76895,0.0010642195,134,-195,72
174185317,0,2360354,0.008891484,0.10191882,0.08832164,4046,-0.0011219962,-0.00074174104,0.0005742894,42.774944,0.0010642195,-43,556,-52
174290071,0,2360354,0.0634741,0.04082936,0.07674041,3950,0.0014971498,0.0011038767,2.0394025e-05,42.786922,0.0010642195,-11,-175,-48
174390071,0,2360354,0.027072627,-0.065315835,0.05196809,4000,-0.0006533808,0.0005539581,0.00021626576,42.843834,0.0010642195,187,428,-101
174493296,0,2360354,0.14951827,0.16798247,0.02538599,4025,-0.0005318195,-0.0008973418,0.0002111054,42.81388,0.0010642195,-239,135,-109
174596521,0,2360354,-0.2071285,-0.09839791,-0.00018742286,3249,-0.0013465945,-0.0010687315,5.095898e-05,42.792915,0.0010642195,696,713,73
174697343,0,2360354,0.18201701,0.054854188,0.018332731,4072,0.00046149836,0.001428273,0.00036829858,42.810886,0.0010642195,512,-123,-77
174801294,0,2360354,0.24960831,0.019509345,0.00065459387,3960,-0.00026703835,-0.0015543455,0.0005441184,42.786922,0.0010642195,129,352,141
174901271,0,2360354,0.02775299,0.040620204,0.011406607,3960,-0.0014201945,0.00046631118,0.00013463492,42.816875,0.0010642195,894,-445,-147
175001278,0,2360354,0.20470236,-0.009919016,0.0069049266,3970,-4.9408824e-05,0.000461071,-0.00011051041,42.843834,0.0010642195,-92,207,-31
175105271,0,2360354,0.024896385,0.0058719306,0.013713476,3989,0.00046835086,0.0011468641,-6.0550232e-05,42.810886,0.0010642195,172,-315,-20
175205272,0,2360354,-0.047699124,-0.09172675,0.027935544,3970,0.00094013446,0.00175661,0.00010260736,42.783928,0.0010642195,210,-461,-11
175305277,0,2360354,-0.08868117,0.084664,0.009965657,4007,-7.934253e-05,-0.001736077,0.00050268346,42.786922,0.0010642195,-95,472,51
175409287,0,2360354,-0.22393368,0.15320322,0.01296668,4017,-0.0010535261,-0.000101945494,0.0005139826,42.81987,0.0010642195,-197,-165,54
175509271,0,2360354,0.01903628,-0.0754662,-0.007696515,3994,0.000116595555,0.00046747152,-0.00038920465,42.792915,0.0010642195,607,147,41
175613271,0,2360354,0.09165392,0.090252,-0.008922619,4000,0.00074436585,0.00033744753,2.820429e-05,42.759968,0.0010642195,65,155,-59
175713291,0,2360354,-0.11624629,-0.04219949,-0.0089175785,4020,0.00017149102,0.0010687541,-0.00017329527,42.852818,0.0010642195,247,79,-62
175813302,0,2360354,0.110273935,-0.069122605,-0.008069395,3999,0.002567378,0.00081837474,0.00014442048,42.79591,0.0010642195,-425,-628,188
175917297,0,2360354,-0.038807325,-0.00048989797,0.014096855,4027,0.0017793754,-6.723921e-06,3.3940105e-05,42.822865,0.0010642195,-497,-337,143
176021271,0,2360354,0.016938193,-0.056188196,-0.007869152,3925,-0.001011323,-0.001543662,0.00021083583,42.816875,0.0010642195,353,300,278
176121274,0,2360354,0.04316027,0.1643544,0.018871035,3941,0.0009841701,-1.7499557e-05,4.4656827e-06,42.8019,0.0010642195,-865,-88,-109
176225284,0,2360354,-0.0055230586,0.0036697504,0.0010286696,4013,-0.00048613473,0.00039161922,5.1525076e-05,42.80789,0.0010642195,239,-261,96
176325281,0,2360354,-0.0419672,0.054404445,0.005915855,4011,-0.0018419129,-0.0008499034,-0.00019847603,42.798904,0.0010642195,229,328,65
176425305,0,2360354,0.056254767,0.0010991918,0.0097769685,4034,-0.0017479873,-0.00053883734,0.00026621003,42.798904,0.0010642195,648,132,-193
176529271,0,2360354,-0.22821312,-0.03546053,0.0051453975,3995,-0.00043930302,0.0009199764,-3.436656e-05,42.78992,0.0010642195,60,-407,-148
176629273,0,2360354,-0.045108326,-0.083294585,0.00075343583,4002,0.00085827295,0.0012328058,-0.0002855728,42.852818,0.0010642195,39,11,-176
176733280,0,2360354,-0.11495219,0.024461294,-0.012175361,4009,-0.0013319739,-0.00050488266,0.00013043037,42.804893,0.0010642195,81,181,82
176837304,0,2360354,-0.053815458,-0.04206089,-0.0120212305,4033,0.0018383064,0.00044265523,-2.0200883e-05,42.825863,0.0010642195,-419,-298,20
176937338,0,2360354,0.01307274,0.05046598,-0.037494298,4067,-0.00028101867,-0.0010531484,0.0001544049,42.8019,0.0010642195,-391,342,177
177041295,0,2360354,-0.076374665,0.0032207735,-0.03367885,3998,-0.00056307326,-0.0013809354,-8.9819296e-05,42.81987,0.0010642195,-80,363,-7
177141270,0,2360354,0.036446895,-0.051757466,0.00014387709,3959,0.0019462697,0.0011821567,-9.032831e-05,42.834846,0.0010642195,-17,-466,-171
177241274,0,2360354,-0.14828417,-0.07286206,-0.021580111,3938,0.0016471946,-0.0006247518,-0.00026016726,42.80789,0.0010642195,-620,-289,79
177345277,0,2360354,0.040974457,-0.1378847,-0.025215676,3969,0.002518445,-0.0011474817,4.208157e-06,42.834846,0.0010642195,-668,-213,276
177445286,0,2360354,-0.07616541,0.12536256,-0.02336634,4015,-0.002336612,-0.00076193834,5.1698273e-05,42.828857,0.0010642195,314,373,-4
177545284,0,2360354,0.09276391,-0.0016005434,-0.009133759,4013,-0.00026819715,0.0012229816,-0.00034256955,42.84683,0.0010642195,562,-316,-25
177649271,0,2360354,-0.03625216,0.01919325,-0.014348354,4000,-0.0011204685,-0.0014740812,0.00032320822,42.804893,0.0010642195,21,543,-29
177749271,0,2360354,0.057336804,0.094543934,-0.03290085,3987,-0.0011803731,-0.0008165394,0.00031652433,42.825863,0.0010642195,500,462,204
177853315,0,2360354,-0.0006305579,0.050968803,-0.0063016033,4044,-0.0013412127,0.0003817227,0.00031958992,42.792915,0.0010642195,767,-32,32
177957296,0,2360354,-0.10085802,-0.12011181,0.0088448115,3995,0.0010737157,-0.0004467869,5.9693375e-05,42.81388,0.0010642195,-215,-198,-225
178057343,0,2360354,-0.01840459,0.014964626,0.0062230467,4072,0.0020932746,1.1666123e-05,-0.00052156445,42.80789,0.0010642195,-1118,-109,128
178160482,0,2360354,-0.18541253,-0.018406486,-4.328565e-05,4005,0.001478073,0.00023988768,-0.00023002499,42.83784,0.0010642195,-905,26,90
178261270,0,2360354,0.05392949,-0.041207206,0.02267563,3929,-0.001080891,5.110484e-05,0.00017827252,42.822865,0.0010642195,-401,-34,54
178360471,0,2360354,-0.034460258,0.0032535233,0.0135039985,4000,-0.0017283198,0.00073757273,-3.566962e-05,42.828857,0.0010642195,430,-39,53
178463711,0,2360354,0.059188172,0.018817548,0.004545721,3215,0.00014400796,0.00011754729,7.7707655e-06,42.83784,0.0010642195,325,228,-74
178563706,0,2360354,0.12376979,0.066575065,0.009815718,3229,-0.0005308659,-0.00033483078,8.502798e-05,42.843834,0.0010642195,412,127,192
178668500,0,2360354,0.011214851,-0.013691972,0.01913581,4030,-0.0015343236,0.00023651138,2.5954636e-05,42.79591,0.0010642195,331,-3,84
178772484,0,2360354,0.0062255147,0.00011967591,0.01720802,4002,-0.0009273132,-0.0015927034,0.00047045408,42.786922,0.0010642195,119,100,-14
178872470,0,2360354,0.08171388,-0.10204902,0.008872572,3969,-0.00017099378,0.000703102,-0.00046147962,42.81987,0.0010642195,-61,-122,-216
178976516,0,2360354,0.0005036793,0.04847096,0.015746927,4045,0.0018921229,0.0012053886,0.00015389474,42.84683,0.0010642195,430,-504,43
179076477,0,2360354,-0.047816932,0.0106798215,0.0132776685,3999,-0.0001666684,-0.00086889503,0.00047468746,42.80789,0.0010642195,-231,282,14
179176477,0,2360354,-0.040670794,0.038947653,0.0033286242,3965,-0.0024675399,-0.0011727776,-3.9196126e-05,42.83784,0.0010642195,351,400,231
179280471,0,2360354,0.087389454,-0.02565115,0.031207126,4000,-0.0015911289,-0.00031966114,0.00055462855,42.816875,0.0010642195,255,211,-83
