timestamp,timestamp_sample,xyz[0],xyz[1],xyz[2]
68282822,68282350,-0.00480159,-0.00036756566,0.001393384
68285327,68284853,-0.0052104522,-0.0001402655,0.0016784664
68287862,68287391,-0.005392927,1.0839143e-05,0.002038633
68290313,68289847,-0.0051772683,8.72892e-05,0.0023302312
68292862,68292396,-0.0049658655,1.0131769e-05,0.0025083208
68295338,68294871,-0.004848044,-0.00032997868,0.0025521987
68297819,68297347,-0.0047920435,-0.0007819927,0.0025001012
68300313,68299847,-0.0047093336,-0.0011910445,0.002529409
68302822,68302347,-0.004671793,-0.0013793745,0.0026098662
68305321,68304853,-0.0046233097,-0.0012032165,0.0024196212
68307819,68307347,-0.004339366,-0.00078418356,0.0019614287
68310313,68309847,-0.004151169,-0.00036045964,0.0014716376
68312867,68312397,-0.004201774,-5.1205272e-05,0.001067419
68315323,68314856,-0.0043102545,0.000105417974,0.0007850652
68317834,68317356,-0.0043282537,8.3965635e-05,0.0005458622
68320352,68319884,-0.0041278093,-8.349665e-05,0.00039923753
68322821,68322347,-0.003964302,-0.00024040307,0.0003436966
68325340,68324850,-0.0038909535,-0.00025247358,0.00023167732
68327823,68327351,-0.003452845,-0.0002805719,0.00011918444
68330318,68329847,-0.0025955313,-0.0004740844,6.089837e-05
68332881,68332411,-0.001957071,-0.0005581495,-2.646707e-05
68335325,68334854,-0.0018740821,-0.00036993987,0.000123335
68337811,68337347,-0.0020653629,5.191375e-07,0.0005681418
68340354,68339887,-0.0021776555,0.00032064173,0.00091624435
68342815,68342347,-0.0022516146,0.00040432398,0.0011750119
68345326,68344850,-0.0024491884,0.00046792414,0.0013745294
68347815,68347350,-0.0026337313,0.00053969043,0.0013187865
68350322,68349851,-0.002854923,0.00048668036,0.00089557417
68352866,68352396,-0.0031132656,0.00036516544,0.00017801498
68355341,68354873,-0.003232973,0.00023689441,-0.00062670873
68357814,68357349,-0.0033795605,0.00027188435,-0.001205697
68360335,68359847,-0.0033590463,0.0004789468,-0.0013900117
68362825,68362356,-0.0027587996,0.0005036179,-0.0013069384
68365326,68364851,-0.0019096966,0.00010566268,-0.0010528534
68367813,68367347,-0.0010675212,-0.00053528143,-0.00084029255
68370337,68369873,-0.0005363566,-0.00096473494,-0.0007179252
68372837,68372375,-0.00062004843,-0.0009300189,-0.00048206482
68375331,68374856,-0.0008265008,-0.0006589256,-0.00019932925
68377815,68377350,-0.00086524885,-0.00031904207,7.4945754e-05
68380326,68379847,-0.0007212044,8.984667e-05,0.00039632633
68382856,68382391,-0.00015784145,0.00034552527,0.00037654632
68385320,68384850,0.0005507236,0.00031452294,-0.00012781359
68387814,68387347,0.0008504474,3.1024447e-05,-0.00044728338
68390315,68389847,0.00079382904,-0.0003586124,-0.00034575624
68395327,68394853,0.0009251658,-0.0008819327,8.00281e-05
68397818,68397350,0.00093562226,-0.0009121998,6.4178814e-05
68400332,68399847,0.00077492173,-0.00071661215,-0.00012581653
68402825,68402347,0.00052157143,-0.0004493408,-0.00036747858
68405323,68404850,0.00027855363,-0.0003169688,-0.00045283113
68407815,68407347,0.00011214876,-0.00020364825,-0.00033447103
68410322,68409856,0.00012744415,-0.00013187717,-0.0003431286
68412821,68412353,0.00045455407,-0.00016678797,-0.0004394087
68415326,68414850,0.0011213195,-0.00016321703,-0.00031052766
68417826,68417360,0.0018474705,-0.00023783918,-5.4752738e-05
68420346,68419863,0.0021111409,-0.00024816307,2.9324634e-05
68422833,68422355,0.0019715389,-2.7497614e-05,4.0134505e-06
68425323,68424852,0.0019708655,0.00022700714,6.356373e-05
68427817,68427349,0.0023920343,0.00045492832,6.198098e-05
68430319,68429847,0.0029941017,0.0005098383,8.118434e-06
68432828,68432359,0.0035043354,0.00029037351,3.2638778e-05
68435324,68434850,0.0041159224,2.8688308e-05,-2.3884451e-05
68437828,68437349,0.004460258,-0.00016077617,-8.263986e-05
68440358,68439847,0.0041052,-0.0003770102,0.00022164718
68442815,68442347,0.0035798524,-0.0004819408,0.00074328796
68445358,68444897,0.0032914425,-0.00041955366,0.0008876065
68447825,68447357,0.0031780966,-0.00044494282,0.00063259044
68450312,68449847,0.0032837084,-0.0003968128,0.00042142393
68452855,68452393,0.0038095724,-6.105353e-05,0.00032757624
68455329,68454853,0.004433152,0.00016920464,0.00021356768
68457832,68457366,0.004446567,-1.5017467e-05,6.618748e-05
68460335,68459856,0.0039536897,-0.0002803523,-0.00025697576
68462848,68462383,0.0035371815,-0.00023667332,-0.00077994517
68465317,68464850,0.0032332344,8.819882e-05,-0.0010309938
68467850,68467388,0.0032338738,0.00045401262,-0.00088037504
68470327,68469847,0.0036513135,0.00069256645,-0.00054158055
68472821,68472356,0.0037353984,0.00081809465,-0.00010785567
68475322,68474850,0.003487569,0.00072833215,0.00012459846
68477814,68477349,0.0035746603,0.00028498546,2.2206445e-05
68480312,68479847,0.003690419,-0.00034379182,-0.00020353311
68482815,68482347,0.0036601836,-0.00063877547,-0.00040906155
68485318,68484850,0.0038830093,-0.00036915203,-0.00060024933
68487817,68487349,0.0045938967,-7.8288385e-06,-0.0008397355
68490339,68489865,0.005694235,0.00011408744,-0.0010424844
68492840,68492371,0.0064452123,0.0001305823,-0.00089431903
68495343,68494863,0.006411423,0.00011972108,-0.0003809405
68497854,68497392,0.006033485,0.00013460682,6.6977285e-05
68500312,68499847,0.005802111,0.00031466657,0.00010397767
68502869,68502401,0.0056133736,0.0005908172,-3.573781e-05
68505318,68504850,0.0053728,0.00070160406,7.910608e-05
68507863,68507394,0.0052186605,0.0006300081,0.00029153368
68510330,68509850,0.004875483,0.00056907104,0.00030673383
68512848,68512383,0.004626605,0.0006046116,0.00011593618
68515335,68514852,0.0047919517,0.0008530863,-0.00014183574
68517854,68517377,0.0047451323,0.001123242,-0.00029241
68520333,68519847,0.00435874,0.0010527854,-0.00022995402
68522872,68522407,0.0039828857,0.00090646435,1.2989053e-06
68525321,68524849,0.0038634574,0.0010389375,0.0001946909
68527836,68527366,0.0042054895,0.0011325809,0.00035867607
68530326,68529850,0.0048558335,0.0008603424,0.0005073885
68532900,68532431,0.005304288,0.00037635028,0.0004832117
68535346,68534870,0.0053412695,-0.00020533807,0.00041647942
68537847,68537376,0.005063582,-0.00069997116,0.00041348118
68540327,68539847,0.004638277,-0.0007294856,0.00030142846
68542934,68542453,0.004484739,-0.00037309813,0.00030087755
68545318,68544849,0.0046720244,3.828482e-05,0.0004900436
68547856,68547390,0.0047311876,0.00034157073,0.0004019208
68550346,68549887,0.004455903,0.00035790808,0.00010015546
68552846,68552380,0.004049165,0.00017237547,-9.197358e-05
68555334,68554857,0.003613485,0.00013351148,-0.00015218393
68557850,68557380,0.0033723926,0.00028191996,-0.00018913616
68560315,68559847,0.0033362552,0.00043137948,-0.00037534782
68562819,68562350,0.0032956093,0.00048599485,-0.00056658866
68565319,68564850,0.0033741002,0.00025780423,-0.00059785554
68567822,68567353,0.003435536,-0.0003707406,-0.0006533004
68570326,68569847,0.0032672205,-0.00087552285,-0.0007440534
68572849,68572381,0.003024762,-0.00068231515,-0.00063402834
68575325,68574850,0.0029374978,-6.0888135e-05,-0.00040766707
68577834,68577354,0.003306386,0.000437945,-0.0002871722
68580316,68579847,0.0039642365,0.0005945978,-9.692117e-05
68582823,68582355,0.0041960194,0.000447898,0.00031991603
68585318,68584850,0.0039873742,0.00024468673,0.0006643607
68587814,68587347,0.0039110878,0.00010511295,0.00062721665
68590326,68589858,0.00397528,-3.242648e-05,0.00026450364
68595318,68594849,0.004037422,-0.00028382536,-0.000239471
68597822,68597349,0.0044152467,-0.00025954845,-6.6107496e-05
68600314,68599847,0.005064297,-0.000156626,-2.6298663e-05
68602868,68602394,0.005396898,-9.4304414e-05,-0.00012244313
68605322,68604850,0.0049583246,-1.7529806e-05,-0.00016070902
68607811,68607347,0.004166803,-2.4210336e-05,-0.00024218672
68610323,68609847,0.0034809953,-0.000108446904,-0.0005038998
68612868,68612399,0.0027958946,-0.00014409875,-0.00072000676
68615326,68614850,0.0022222376,-0.00020177726,-0.00068880443
68617828,68617349,0.0019814027,-0.00020592996,-0.00050683296
68620340,68619847,0.0020118582,-0.000103981554,-0.00039998244
68622872,68622347,0.0021271117,4.6458495e-05,-0.000531666
68625322,68624850,0.0023759129,0.00023743835,-0.0007095887
68627812,68627347,0.0028847153,0.00037974247,-0.0008189345
68630316,68629847,0.003255486,0.00046616828,-0.0009951089
68632916,68632396,0.003220628,0.00052791374,-0.0010602765
68635332,68634857,0.002983177,0.00065111805,-0.0008548957
68637817,68637349,0.0028037298,0.00084846705,-0.0005684307
68640329,68639847,0.0027688458,0.00089248887,-0.00044095068
68642820,68642349,0.0027609435,0.00080170465,-0.00057869015
68645331,68644850,0.0026973984,0.00074937125,-0.00084965164
68647812,68647347,0.002620416,0.00061425124,-0.00093616167
68650327,68649854,0.002398955,0.0003546503,-0.00064318546
68652870,68652402,0.0020368514,0.00012799067,-0.00026132562
68655350,68654877,0.0019198725,-9.097242e-05,-0.000109439185
68657814,68657349,0.0020062807,-0.00033184647,-3.708349e-05
68660336,68659847,0.0019939758,-0.00055766804,0.00010420102
68662815,68662347,0.001915676,-0.00082928216,0.00012441353
68665335,68664850,0.0019126418,-0.0010164313,6.650307e-05
68667822,68667355,0.0020323216,-0.0009629858,0.00013051955
68670313,68669847,0.0021207368,-0.000709888,1.2825324e-05
68672864,68672396,0.0020424912,-0.0006068417,-0.0002891269
68675343,68674849,0.0018440924,-0.00090448593,-0.0004496144
68677814,68677349,0.0013764566,-0.0011901561,-0.00055346946
68680313,68679847,0.00090704014,-0.0011287846,-0.0005615614
68682824,68682356,0.0007688617,-0.00091476046,-0.0002852886
68685343,68684864,0.00079900824,-0.0009033923,0.00017258638
68687837,68687349,0.0010571819,-0.0010282759,0.00054291607
68690313,68689847,0.001406367,-0.0008828631,0.0007949485
68692864,68692396,0.0014612378,-0.00043051358,0.0009554809
68695374,68694871,0.0010802615,-2.9103276e-05,0.00089707074
68697814,68697349,0.0003078361,6.159137e-06,0.0007074279
68700313,68699847,-0.0004388346,-0.00026891375,0.00054926856
68702815,68702347,-0.0006661249,-0.0006550839,0.00036369683
68705320,68704850,-0.000588059,-0.0010358725,0.00010770763
68707857,68707392,-0.0005360761,-0.0012772986,-8.250288e-05
68710324,68709847,-0.00031554498,-0.0014114117,-1.4172287e-05
68712861,68712396,-5.7063335e-06,-0.001446148,0.00031576867
68715366,68714884,-8.9942105e-06,-0.0012764374,0.0005461105
68717827,68717356,-0.00029066214,-0.0009470674,0.00054667547
68720338,68719847,-0.00042658433,-0.0005707011,0.00049122475
68722815,68722347,-0.00031817143,-8.7257285e-05,0.00035850747
68725327,68724853,-0.00031624376,0.00040567154,0.00023689134
68727821,68727354,-0.0006450441,0.0005222442,0.00023245133
68730330,68729850,-0.0012385476,0.00038042953,0.00022659276
68732861,68732396,-0.001771692,0.00027154022,0.0002486989
68735382,68734905,-0.0020124936,0.00012058411,0.00043313397
68737823,68737349,-0.0020016066,-0.00018307757,0.00074543303
68740327,68739847,-0.0019339357,-0.00046633068,0.0009057814
68742831,68742347,-0.0022095244,-0.00046804262,0.0007242542
68745333,68744865,-0.002755212,-0.0001126106,0.00055054115
68747825,68747347,-0.0029173456,0.00045736105,0.00061732676
68750325,68749859,-0.0026078762,0.0007237542,0.00055968197
68752861,68752396,-0.002358015,0.00046393127,0.00024075262
68755380,68754913,-0.0023159792,-1.593227e-05,-2.739385e-05
68757814,68757349,-0.0023948,-0.00049037585,-3.9778795e-05
68760372,68759890,-0.0027796547,-0.0009050117,0.00023668267
68762815,68762347,-0.00326485,-0.001295806,0.00071288826
68765331,68764850,-0.0035399518,-0.0015318334,0.0011289925
68767820,68767355,-0.0037698108,-0.001323377,0.0012026288
68770329,68769847,-0.004027041,-0.0008531645,0.0010139353
68772861,68772396,-0.004392629,-0.00047224938,0.00077469903
68775329,68774850,-0.0047262404,-0.00022473204,0.000555498
68777814,68777349,-0.0047901594,-0.00015165178,0.0005045034
68780313,68779847,-0.004797001,-0.00015323551,0.0005392271
68782815,68782347,-0.0044487333,-5.3593078e-05,0.0004274675
68785319,68784850,-0.0037430995,0.000117763026,0.0002457109
68787809,68787347,-0.0034083477,0.0003144191,0.00024372575
68790317,68789847,-0.003335493,0.00050973153,0.00036861683
68795332,68794862,-0.004025327,0.00043228,0.0006322799
68797829,68797349,-0.004713297,0.00038072286,0.0005847007
68800339,68799858,-0.0050088656,0.0003203745,0.0005738033
68802841,68802351,-0.005136302,0.00021936811,0.0006123403
68805320,68804849,-0.005628359,0.0002989298,0.00050121645
68807809,68807347,-0.006446576,0.00040322304,0.00046590663
68810310,68809847,-0.0070908763,0.00019953566,0.0006850721
68812862,68812396,-0.007176126,-0.00029830672,0.0010433397
68815337,68814859,-0.006800827,-0.00087569194,0.0013250055
68817824,68817349,-0.006291745,-0.0012390531,0.0013216715
68820332,68819849,-0.005836403,-0.0012521219,0.001115838
68822820,68822347,-0.0056019058,-0.0010672148,0.0009363424
68825321,68824852,-0.0055062817,-0.00084790256,0.0009760597
68827821,68827356,-0.0056315707,-0.0006375055,0.0013349599
68830323,68829847,-0.0060269567,-0.00028582127,0.0018620937
68832823,68832358,-0.0062821223,0.00019268694,0.002383383
68835346,68834878,-0.0064386544,0.00037558918,0.0028368575
68837811,68837349,-0.006633752,0.00032565597,0.0029520777
68840341,68839849,-0.006918699,0.00036485563,0.0025671823
68842818,68842347,-0.007463866,0.00018772186,0.0020598327
68845315,68844850,-0.007939982,-0.00036920223,0.0016806136
68847815,68847349,-0.007902528,-0.0008157587,0.0013031891
68850325,68849860,-0.0075702765,-0.0008447732,0.0010641521
68852834,68852364,-0.007257361,-0.000799175,0.0011171577
68855347,68854877,-0.006843529,-0.0009370855,0.0011112607
68857811,68857349,-0.006657573,-0.0010314962,0.0009252252
68860332,68859852,-0.0070416075,-0.0009568336,0.0007122965
68862812,68862347,-0.0074765123,-0.0009413374,0.00046905462
68865367,68864897,-0.007696833,-0.0010553862,0.0003015191
68867816,68867347,-0.00800338,-0.0011547303,0.00047907402
68870325,68869862,-0.00832767,-0.001260926,0.0010203428
68872835,68872370,-0.00829166,-0.0013650785,0.0014655244
68875351,68874879,-0.007818794,-0.0013196693,0.0015699539
68877811,68877349,-0.007327868,-0.0011362853,0.0016229628
68880348,68879872,-0.007120076,-0.0010876931,0.0017832046
68882812,68882347,-0.0070816907,-0.0013123734,0.0018622153
68885343,68884875,-0.0072050937,-0.0015198356,0.0018723982
68887812,68887350,-0.0075583877,-0.0014381178,0.0018126632
68890354,68889892,-0.00808589,-0.0011245148,0.0017085809
68892864,68892396,-0.008413708,-0.0006011024,0.001940536
68895363,68894884,-0.008307181,0.00013259676,0.002300089
68897812,68897350,-0.007937,0.0007208633,0.0022037423
68900362,68899892,-0.00757761,0.000849008,0.0018651881
68902824,68902349,-0.007703292,0.0006463332,0.0017089477
68905340,68904874,-0.008022209,0.00046737035,0.0015529352
68907812,68907350,-0.008065108,0.0004856703,0.0012747123
68910362,68909882,-0.008100938,0.00043208295,0.0011005822
68912861,68912396,-0.008079856,0.00014161324,0.0010242633
68915383,68914916,-0.007869146,-7.4379015e-05,0.0009278361
68917863,68917398,-0.007608596,-9.114205e-05,0.0009006003
68920338,68919853,-0.007391162,-0.00020207731,0.0011465374
68922823,68922350,-0.0073020007,-0.00059976167,0.0015862989
68925333,68924859,-0.0072254506,-0.001158835,0.0016310716
68927835,68927367,-0.0071055396,-0.0016555353,0.0012257482
68930347,68929860,-0.0070817624,-0.0018315114,0.0010116701
68932861,68932396,-0.0070191966,-0.0016285954,0.0010820036
68935379,68934904,-0.0068290667,-0.001339946,0.0012050483
68937818,68937353,-0.0067544677,-0.001219625,0.0012893751
68940326,68939850,-0.0069926544,-0.0012301529,0.0012833516
68942818,68942350,-0.007046013,-0.0011376974,0.0011667879
68945318,68944853,-0.006554697,-0.0008299562,0.00096566044
68947821,68947350,-0.006081095,-0.00032896447,0.00068158016
68950313,68949850,-0.0058657047,4.0680094e-05,0.00026096927
68952861,68952396,-0.0057294196,5.0529734e-06,-2.7415892e-06
68955329,68954860,-0.0056712865,-7.555069e-05,7.3331285e-05
68957832,68957355,-0.005615019,-2.405402e-07,0.00018801817
68960326,68959850,-0.0054554776,3.8611684e-05,0.00022206937
68962824,68962353,-0.0052473084,8.7891305e-05,0.00021124577
68965318,68964853,-0.005025876,0.0002606411,0.00018975012
68967818,68967350,-0.004935505,0.00042763876,0.00025207872
68970346,68969887,-0.005027272,0.00044385545,0.0003839941
68972861,68972396,-0.004972159,0.00034957478,0.00053096795
68975325,68974853,-0.004700339,0.0002613717,0.00064901746
68977824,68977351,-0.00452351,0.00021036438,0.0008262512
68980360,68979853,-0.004587205,6.911896e-05,0.0011239897
68982842,68982361,-0.004996114,-0.00020409976,0.001549713
68985332,68984853,-0.005520254,-0.00045630103,0.0019675351
68987836,68987352,-0.005733934,-0.0006605203,0.002143652
68990342,68989856,-0.005729353,-0.0008280225,0.0022312568
68995319,68994852,-0.005068075,-0.0011879597,0.0020064625
68997821,68997352,-0.0048757456,-0.0012033894,0.0016541267
69000333,68999847,-0.0048932675,-0.0009594614,0.0012868377
69002820,69002347,-0.004820354,-0.00047237088,0.0007279382
69005363,69004852,-0.004559955,-1.7729484e-05,0.00010706242
69007838,69007349,-0.0041812547,5.797732e-05,-0.00035383654
69010313,69009847,-0.0037053062,-0.00016574588,-0.0006316585
69012846,69012376,-0.0034579332,-0.00050641055,-0.00068214635
69015328,69014850,-0.0035712593,-0.00098064,-0.00060145656
69017826,69017350,-0.003995351,-0.0015029171,-0.0004009584
69020315,69019847,-0.0044548423,-0.0019432226,-2.4008208e-05
69022866,69022391,-0.00441143,-0.002113353,0.00045517553
69025323,69024850,-0.003825851,-0.0018309442,0.0009604361
69027840,69027349,-0.0029963478,-0.0012343923,0.0012240153
69030320,69029856,-0.002189487,-0.0005836082,0.001133557
69032839,69032368,-0.0015341265,-0.00013609711,0.0010985245
69035321,69034850,-0.0011850272,4.1718547e-05,0.0013967191
69037834,69037350,-0.0012273487,2.1056587e-05,0.0016516789
69040313,69039847,-0.0013219911,-6.936703e-05,0.0016051293
69042827,69042352,-0.0011825091,6.979082e-05,0.0014972806
69045321,69044850,-0.0011161646,0.00035640565,0.001343181
69047817,69047349,-0.0012954423,0.00053770764,0.0009275057
69050324,69049851,-0.001356592,0.0006680898,0.0003793981
69052870,69052396,-0.0012262276,0.00072006835,0.00012266618
69055324,69054850,-0.0014250375,0.00057891314,0.00025114405
69057814,69057349,-0.0019545383,0.00035309925,0.0005178932
69060313,69059847,-0.002167111,0.00021572017,0.000765957
69062850,69062377,-0.0018627901,0.0001654422,0.00081361464
69065324,69064850,-0.0013368465,0.0002657651,0.0006364418
69067812,69067347,-0.0009660945,0.0004559044,0.00050411513
69070313,69069847,-0.00067792734,0.00055546005,0.00047131788
69072866,69072396,-0.00024191604,0.0005266031,0.00026421915
69075349,69074888,0.0001621297,0.0004372205,-0.000144735
69077815,69077350,0.00041104606,0.0005123335,-0.0003978554
69080325,69079847,0.0005281716,0.00070403353,-0.0004975426
69082818,69082347,0.00057713356,0.0007935684,-0.0005181219
69085326,69084850,0.0008116043,0.0007039327,-0.00028687145
69087818,69087352,0.0013123343,0.00045515512,-0.00014506234
69090323,69089850,0.0017674383,7.698654e-05,-0.00029343076
69092829,69092361,0.0020168961,-0.00034579364,-0.0002236328
69095329,69094857,0.002228031,-0.000507416,0.00019149815
69097817,69097350,0.0023811595,-0.00033565357,0.00054347486
69100337,69099847,0.002522962,-2.4731598e-05,0.00063756795
69102818,69102347,0.0028965303,0.0003264929,0.00057281146
69105335,69104865,0.0032904674,0.00054478546,0.0006140922
69107856,69107394,0.0034218563,0.0003843861,0.0008051123
69110326,69109847,0.0035061375,-9.981562e-05,0.0010077207
69112858,69112396,0.0037893692,-0.00037658334,0.0011758786
69115334,69114860,0.0041906396,-0.00024292714,0.0011295681
69117820,69117349,0.0043831486,-0.00014967308,0.0009122992
69120330,69119851,0.0042693364,-0.00022445283,0.00074613944
69122818,69122347,0.004190489,-0.00028789687,0.0006703274
69125330,69124853,0.004210087,-0.00038304756,0.0005621051
69127837,69127375,0.0043713474,-0.0006538039,0.00032746728
69130326,69129847,0.0048111067,-0.0010818383,0.00010882123
69132861,69132399,0.005084971,-0.0013898875,0.00014118938
69135368,69134888,0.0050921035,-0.0011904276,0.00030701165
69137825,69137350,0.0049800654,-0.00058152265,0.00023607201
69140339,69139847,0.0047511477,-0.00013671991,0.0001115226
69142815,69142347,0.0046828385,0.00012925999,0.00023007361
69145318,69144850,0.004729663,0.00034222886,0.0004332968
69147815,69147350,0.0049095373,0.00033139382,0.00048699114
69150328,69149847,0.0053269183,0.00026114972,0.0003669992
69152839,69152374,0.0057466123,0.00032455186,0.00016132371
69155325,69154850,0.006141983,0.000340549,-8.544215e-05
69157829,69157351,0.0063835303,-3.7571088e-05,-0.00033071148
69160326,69159847,0.0062123016,-0.00061902835,-0.000519907
69162822,69162351,0.0057639848,-0.0007389023,-0.00051662256
69165319,69164851,0.005588221,-0.00027277254,-0.0003648187
69167838,69167364,0.005727118,0.00036786374,-0.00036747885
69170316,69169847,0.005536888,0.00088400685,-0.00060952007
69172820,69172355,0.005272144,0.0012708355,-0.0009690042
69175321,69174850,0.0053410186,0.0014976962,-0.0012759006
69177847,69177369,0.005416666,0.0015078472,-0.0012232774
69180369,69179890,0.0054914905,0.0014426652,-0.00080118334
69182839,69182371,0.0060236813,0.0013143664,-0.00046760042
69185318,69184850,0.006846939,0.0010272848,-0.0004783514
69187819,69187354,0.0074596787,0.0006002091,-0.00070108596
69190325,69189854,0.007944391,0.00019457894,-0.0009545815
69195319,69194849,0.008229913,-4.051509e-05,-0.00094099075
69197825,69197360,0.008443025,-0.00016886317,-0.0009080887
69200336,69199853,0.00850984,-0.00038528207,-0.00089757884
69202815,69202347,0.008138902,-0.00049809215,-0.0007200064
69205324,69204850,0.0076775714,-0.00038408928,-0.00048483082
69207873,69207408,0.007518001,-0.0002773027,-0.0002652731
69215323,69214850,0.007708224,0.00025826294,-0.0010858474
69217863,69217397,0.007403022,0.00045092052,-0.0013756907
69220312,69219847,0.0071947468,0.00067948684,-0.0015306378
69222859,69222394,0.0072535854,0.0007198597,-0.0016638562
69225325,69224850,0.007452202,0.00027671477,-0.0015878186
69227856,69227394,0.007673512,-0.00042056435,-0.001151554
69230318,69229847,0.007952087,-0.00093372026,-0.0006729834
69232886,69232424,0.008087934,-0.001122493,-0.0004997748
69235332,69234850,0.007946134,-0.0009079832,-0.0005200674
69237862,69237400,0.007841598,-0.0004048256,-0.0006056216
69240333,69239849,0.007876008,0.00023307635,-0.0009627001
69242872,69242391,0.007869791,0.00081876706,-0.0014130255
69245322,69244850,0.008213956,0.00092838914,-0.0015088422
69247860,69247391,0.008981892,0.00058566243,-0.0012905193
69250338,69249861,0.009447112,0.00014411315,-0.0009409584
69257854,69257371,0.009195082,0.00014752588,0.00031071607
69260323,69259847,0.00917787,0.00043095797,0.00027069444
69262853,69262374,0.009348804,0.0007856184,-3.3760934e-05
69265328,69264850,0.009345031,0.0010365311,-0.00067175005
69267837,69267369,0.008992084,0.000902815,-0.0015172074
69270317,69269847,0.008616967,0.00037353518,-0.0022236016
69272857,69272388,0.0084021045,-0.00015943292,-0.0026181482
69275351,69274864,0.008454748,-0.0003199113,-0.0027924322
69277818,69277353,0.00867842,-0.0003173681,-0.002832259
69280328,69279847,0.008757127,-0.00043240786,-0.0026402567
69282818,69282350,0.008907253,-0.00053201494,-0.0022133223
69285357,69284893,0.009246228,-0.0002793084,-0.0018160441
69287827,69287361,0.009611154,0.00018762286,-0.0016636953
69290313,69289847,0.009765486,0.00039921363,-0.0016494821
69292865,69292400,0.009492368,0.0003914261,-0.0015669813
69295339,69294863,0.009149748,0.0003363534,-0.0013952564
69297860,69297395,0.008952959,0.0001378134,-0.001119721
69300321,69299856,0.008791876,-0.00012874418,-0.0008954793
69302818,69302347,0.00866664,-0.000274887,-0.00079055363
69305317,69304850,0.008640871,-0.00033193902,-0.0006346476
69307812,69307347,0.008667723,-0.00027413978,-0.0005359894
69310312,69309847,0.0086931065,-0.00013208331,-0.00059108716
69312865,69312400,0.008656446,-0.00014428575,-0.00072990125
69315330,69314859,0.008305292,-0.00041393723,-0.00084055227
69317824,69317356,0.0078707645,-0.0007022363,-0.0008625423
69320334,69319847,0.0077795982,-0.00079675205,-0.0007877117
69322817,69322349,0.0078081083,-0.00090465904,-0.00059377716
69325334,69324850,0.007707526,-0.0009279935,-0.0004774787
69327826,69327359,0.0076722256,-0.0005889919,-0.00071219815
69330334,69329850,0.007865584,-0.00020006223,-0.0011736298
69332819,69332352,0.008126594,-0.00013201295,-0.0014327366
69335328,69334857,0.008086292,-0.00026749473,-0.0013092329
69337835,69337370,0.007615997,-0.00036414052,-0.000945444
69340338,69339857,0.007066712,-0.00020269598,-0.0004917643
69342815,69342347,0.0066620633,0.000106097104,-9.685488e-05
69345327,69344852,0.0061792554,-1.8961555e-05,0.00010777833
69347822,69347347,0.0056773326,-0.0005597882,8.977467e-05
69350322,69349847,0.0053095287,-0.0010638115,4.278455e-05
69352866,69352396,0.004965369,-0.0012111034,6.364295e-05
69355325,69354850,0.004655789,-0.0008495211,-2.8232069e-05
69357815,69357350,0.004621997,-0.00042956846,-0.000113180664
69360336,69359847,0.00490268,-0.00036901914,-0.00013256398
69362815,69362347,0.004975776,-0.00037860998,-0.00031147225
69365326,69364850,0.0046633757,-0.00021373651,-0.0005276598
69367825,69367353,0.0045644846,-9.529571e-05,-0.0004500031
69370342,69369871,0.0049060504,0.00010416392,-0.0001972224
69372868,69372397,0.00531201,0.0004259634,-7.724416e-05
69375325,69374850,0.0052704117,0.0004350185,2.2855329e-05
69377851,69377352,0.0046695047,0.00026028487,0.00015876695
69380313,69379847,0.004052654,0.00010351345,0.00023075865
69382829,69382347,0.0035414393,-7.8121106e-05,0.00028681007
69385332,69384850,0.0029838854,-0.00028698458,0.00023269093
69387829,69387356,0.0024740112,-0.0006342069,4.3873202e-05
69390364,69389887,0.0020779634,-0.0009054207,-0.00014964871
69395323,69394849,0.0012774334,-0.00071632885,-0.0010341664
69397820,69397354,0.00025572072,-0.0004051729,-0.0012136276
69400332,69399847,-0.0007712624,3.0413423e-05,-0.0012138088
69402827,69402353,-0.0013665219,0.0004962548,-0.001417426
69405317,69404849,-0.0015773547,0.0008306419,-0.0014489832
69407826,69407347,-0.0015206067,0.0009895638,-0.0009310714
69410336,69409857,-0.0013051953,0.0009930835,-6.430321e-05
69412823,69412355,-0.0008492794,0.0009062493,0.0007114147
69415323,69414850,-0.00038225442,0.0007540976,0.001316824
69417812,69417347,-0.00036935788,0.00062496035,0.0017698731
69420316,69419847,-0.0006001706,0.00065194623,0.0017098453
69422815,69422347,-0.0006257072,0.0003900009,0.0010262703
69425321,69424850,-0.00060712156,-0.00033153256,0.00027499173
69427812,69427347,-0.0010549638,-0.00091685815,-6.29227e-05
69430317,69429851,-0.0020034497,-0.0010163549,-3.392192e-05
69432870,69432397,-0.0029998198,-0.00071171374,0.00011329028
69435347,69434857,-0.0038795844,-0.0002477279,0.00023327523
69437818,69437353,-0.0046282755,0.00016005678,0.00029538493
69440313,69439847,-0.0049156514,0.00039631978,0.00026816604
69442859,69442391,-0.004703142,0.00050473533,0.00020118464
69445325,69444850,-0.004442304,0.000613297,0.00012392635
69447824,69447357,-0.004452993,0.0005336317,8.328188e-06
69450313,69449847,-0.0050030192,0.00017149778,-7.628273e-05
69452867,69452396,-0.0057433555,-0.00013494695,-8.266663e-05
69455342,69454879,-0.0059232833,-0.0003014402,-3.6410678e-05
69457856,69457391,-0.0058177616,-0.00043905026,7.6410266e-05
69460326,69459850,-0.00592925,-0.00054031727,0.0003429153
69462815,69462347,-0.006050477,-0.0006834255,0.00083186774
69465318,69464850,-0.0060103713,-0.0006893233,0.0013594445
69467812,69467347,-0.0060271593,-0.000528921,0.0016006256
69470340,69469876,-0.0064094844,-0.0006042685,0.0015221398
69472887,69472400,-0.0070078284,-0.0008439135,0.0013021535
69475320,69474850,-0.0071828915,-0.0008197312,0.0009193397
69477821,69477356,-0.006771121,-0.0007569944,0.0004069714
69480330,69479850,-0.006264378,-0.0011496546,3.777308e-05
69482819,69482347,-0.0061676577,-0.0015591133,-0.00014312261
69485329,69484850,-0.0064634928,-0.0015648176,-6.7752444e-05
69487819,69487347,-0.0067040143,-0.0015736186,0.00038979328
69490321,69489850,-0.006824361,-0.0016581663,0.0008785832
69492865,69492400,-0.007212178,-0.0014959365,0.0010443559
69495355,69494888,-0.007925877,-0.0010962182,0.0009448181
69497809,69497347,-0.008485018,-0.00071542343,0.0007177769
69500326,69499847,-0.008761544,-0.00058385375,0.0005310837
69502812,69502347,-0.009060683,-0.000814588,0.00050364755
69505327,69504850,-0.009356789,-0.0012547971,0.00038656648
69507809,69507347,-0.0093954345,-0.00131656,4.535076e-05
69510312,69509849,-0.009266577,-0.00092794304,-0.00027098958
69512861,69512396,-0.009555054,-0.00076441636,-0.00026147667
69515323,69514851,-0.010242583,-0.0009766669,9.458018e-05
69517809,69517347,-0.010538777,-0.0012980456,0.0003684059
69520310,69519847,-0.010295609,-0.0015433249,0.0003631061
69522812,69522347,-0.010104376,-0.0015520194,0.00050430757
69525325,69524850,-0.010175339,-0.0013810627,0.0010046845
69527821,69527347,-0.010175941,-0.0012988719,0.0014596181
69530325,69529847,-0.010010294,-0.0014038305,0.0018437575
69532822,69532358,-0.009802218,-0.0014491844,0.0022547608
69535356,69534889,-0.009811273,-0.0013346652,0.002335025
69537818,69537347,-0.010042427,-0.0011773714,0.0021386489
69540335,69539847,-0.009971766,-0.0009315687,0.001896539
69542812,69542347,-0.00959698,-0.00064291747,0.0014977355
69545327,69544849,-0.009299488,-0.00056538626,0.0010255633
69547837,69547372,-0.009129574,-0.0004899192,0.00077825366
69550312,69549849,-0.008993783,1.9964686e-05,0.00080274243
69552861,69552396,-0.008937804,0.00071649096,0.0011224597
69555346,69554868,-0.009090697,0.0011103695,0.0017487691
69557809,69557347,-0.009569212,0.00116383,0.00231656
69560314,69559847,-0.010493319,0.0010556808,0.002612369
69562815,69562347,-0.011300015,0.00083439535,0.002685762
69565333,69564864,-0.011436665,0.0005536075,0.002538766
69567809,69567347,-0.011223734,0.0002846911,0.0022955295
69570329,69569863,-0.01103858,6.3435975e-05,0.0021536334
69572865,69572396,-0.011234453,-6.679545e-05,0.0022100837
69575347,69574864,-0.011785343,-0.00025824495,0.002429233
69577829,69577349,-0.01204037,-0.00055891427,0.002454353
69580335,69579857,-0.011866053,-0.00078854215,0.0021025194
69582819,69582347,-0.011582704,-0.0010508564,0.0017734828
69585339,69584868,-0.011426798,-0.0013906311,0.0015940581
69587809,69587347,-0.011452454,-0.0015625642,0.0014947739
69590333,69589867,-0.011422936,-0.0015368849,0.001534807
69595341,69594876,-0.012017378,-0.0013372201,0.0018232446
69597811,69597347,-0.012155233,-0.0011206951,0.001952275
69600363,69599887,-0.0117837135,-0.000926977,0.002044234
69602817,69602348,-0.011601715,-0.0007796427,0.0020740328
69605351,69604888,-0.011689748,-0.0006146202,0.0020533912
69607821,69607355,-0.011774173,-0.0005197111,0.0022708825
69610370,69609902,-0.011900047,-0.00064503687,0.00289897
69612861,69612396,-0.012040685,-0.0009715492,0.0033482674
69615349,69614882,-0.0119036455,-0.0012111827,0.00323651
69617812,69617350,-0.011526685,-0.0011281914,0.0029480373
69620345,69619869,-0.011409768,-0.00085935666,0.0026803955
69622830,69622350,-0.011544171,-0.00075155334,0.0024504773
69625340,69624876,-0.011549844,-0.0009105327,0.002244692
69627823,69627361,-0.011148507,-0.0011781777,0.0018629592
69630356,69629885,-0.010520876,-0.0014477419,0.0013276374
69632864,69632399,-0.010008803,-0.001609234,0.0009079008
69635323,69634856,-0.009646328,-0.0014200065,0.00080850295
69637812,69637350,-0.00955298,-0.0009842935,0.0009526303
69640348,69639853,-0.009705763,-0.0007237943,0.0010915976
69642815,69642350,-0.0098532485,-0.0006786231,0.0011226332
69645324,69644856,-0.0096370755,-0.00065381796,0.0010780359
69647820,69647350,-0.008860556,-0.0006805326,0.0010242969
69650318,69649850,-0.007748801,-0.0008311823,0.0010494136
69652853,69652388,-0.0066340608,-0.0009696234,0.0010531098
69655324,69654855,-0.005970612,-0.0009171338,0.0007073107
69657817,69657354,-0.0059240153,-0.00055322447,0.00033657366
69660313,69659850,-0.006100146,-8.591516e-05,0.0004974018
69662828,69662350,-0.0061012893,0.00014617878,0.00082581566
69665320,69664853,-0.0060558026,0.00026960767,0.0010263487
69667812,69667350,-0.0061735334,0.00038497543,0.0012513177
69670350,69669872,-0.0060840356,0.00027442048,0.001448644
69672823,69672361,-0.005727122,-0.00019239142,0.0015844106
69675319,69674853,-0.0054415083,-0.00080548687,0.001625079
69677814,69677350,-0.005255612,-0.0011877065,0.0015134051
69680327,69679850,-0.005018163,-0.001192581,0.001223597
69682833,69682352,-0.00465386,-0.00093705975,0.0007888551
69685326,69684853,-0.004264244,-0.00055046275,0.00042700066
69687820,69687350,-0.004062672,-0.00011307038,0.00029620496
69690323,69689860,-0.0040520523,0.00030380097,0.00034502655
69692845,69692382,-0.004093462,0.00066891283,0.00038477368
69695335,69694858,-0.0040991902,0.00085162173,0.0002990833
69697817,69697347,-0.0038562417,0.0007289675,0.00019745914
69700336,69699862,-0.0032775044,0.00046297454,0.00023776221
69702821,69702347,-0.0025124927,0.00031864876,0.0004807958
69705367,69704902,-0.0018645677,0.00033568198,0.0007478539
69707823,69707353,-0.0014589819,0.00034321935,0.00082226057
69710387,69709927,-0.0012741612,7.9034246e-05,0.0006993999
69712861,69712396,-0.00134914,-0.0003958256,0.00047567353
69715330,69714857,-0.0013939986,-0.00062542304,0.00041589237
69717836,69717368,-0.0011194161,-0.00055781694,0.0006597804
69720351,69719847,-0.00072666875,-0.0005282615,0.00095063215
69722828,69722347,-0.00056553044,-0.00059825147,0.0009895166
69725332,69724850,-0.00063599064,-0.0006758995,0.0009967275
69727823,69727351,-0.0006474454,-0.0006443838,0.0012889277
69730322,69729847,-0.00016156529,-0.0004928038,0.0016148651
69732829,69732360,0.0008800947,-0.0003246944,0.0016865998
69735322,69734850,0.0016734785,-8.877855e-05,0.0015519426
69737817,69737347,0.0019193289,0.00010021806,0.0011679636
69740329,69739849,0.0020208005,-4.4388682e-05,0.0004706174
69742825,69742347,0.0017927065,-0.00055892655,-0.00011604152
69745324,69744850,0.0012005081,-0.0010417234,-0.00031887807
69747822,69747347,0.00068137,-0.0010444197,-0.00032480215
69750332,69749849,0.00048359565,-0.0006520921,-0.00022341796
69752869,69752396,0.0008087347,-0.00017326289,-9.457315e-05
69755328,69754850,0.0016012014,0.0001811404,-0.00016952952
69757869,69757395,0.0024790121,0.00018638532,-0.0003539783
69760336,69759862,0.0033718876,-7.8162535e-05,-0.00026056624
69762815,69762347,0.0043168147,-0.0002876394,-7.378817e-05
69765332,69764866,0.0048756516,-0.00026846986,-0.00011365956
69767820,69767347,0.004942421,-7.3718205e-05,-0.00014190002
69770333,69769860,0.004820684,8.893872e-05,-7.898111e-06
69772869,69772397,0.004624926,0.00023273402,2.809583e-06
69775325,69774856,0.0045839725,0.00021566951,-8.3761246e-05
69777815,69777350,0.004872101,-0.00012428137,-5.54295e-06
69780353,69779847,0.0053474875,-0.00039350812,9.060947e-05
69782831,69782350,0.005936054,-0.00042055768,4.7418922e-05
69785330,69784850,0.00666551,-0.0005355367,-8.169534e-05
69787822,69787347,0.00734451,-0.0010231762,-0.00020966082
69790328,69789847,0.007922813,-0.0018967456,-0.00032044025
69795323,69794849,0.008278688,-0.0035481616,-0.0009320083
69797832,69797370,0.0075480877,-0.0037212856,-0.0013269638
69800335,69799856,0.0068742484,-0.003455734,-0.0013196736
69802818,69802347,0.0067348303,-0.0029388468,-0.0009143998
69805323,69804850,0.0071078455,-0.0022827182,-0.00034226544
69807815,69807347,0.007857757,-0.0016049041,0.00030971845
69810347,69809887,0.0087580895,-0.0011821276,0.0008924549
69812858,69812396,0.00949899,-0.0011782876,0.0013164551
69815334,69814850,0.009979714,-0.0014028358,0.0014690467
69817818,69817350,0.010516489,-0.0015693769,0.0012654198
69820328,69819847,0.01112461,-0.0015560084,0.0010815111
69822838,69822358,0.011420948,-0.001391098,0.0012391008
69825324,69824850,0.0114006335,-0.0011615822,0.0015841201
69827822,69827354,0.011463104,-0.0010440735,0.0019240149
69830334,69829854,0.011799862,-0.0011695456,0.0023216542
69832856,69832394,0.012149319,-0.0013358932,0.002836975
69835323,69834850,0.012109501,-0.0014683064,0.003234741
69837817,69837350,0.011402835,-0.0018176993,0.0032562632
69840315,69839847,0.010257979,-0.002337751,0.0029778318
69842859,69842394,0.009311351,-0.002708549,0.0026940645
69845318,69844850,0.008845216,-0.0028748454,0.002836223
69847826,69847349,0.008889309,-0.0028653007,0.0035807241
69850319,69849850,0.009223136,-0.002515531,0.004683102
69852838,69852373,0.0095087215,-0.0019489772,0.0057257656
69855330,69854858,0.009721785,-0.0015105917,0.0063810945
69857815,69857350,0.009849094,-0.0013305675,0.006517842
69860313,69859847,0.009876884,-0.0014713793,0.0063119703
69862846,69862381,0.009758835,-0.0019734956,0.0061809756
69865319,69864850,0.009636931,-0.002584104,0.006053764
69867812,69867347,0.010126746,-0.003035111,0.005799599
69870315,69869847,0.011276897,-0.0033853175,0.005729908
69872842,69872364,0.012239168,-0.0036431472,0.0058280104
69875333,69874860,0.012656901,-0.003672871,0.005839962
69877825,69877357,0.012496203,-0.0035716335,0.005836045
69880312,69879847,0.011771096,-0.0035691184,0.005769738
69882848,69882380,0.011069347,-0.0035919687,0.005501322
69885318,69884850,0.010695751,-0.0033081726,0.0052994834
69887829,69887361,0.010558143,-0.0026287022,0.005498644
69890321,69889850,0.010538245,-0.0018274006,0.0059145917
69892867,69892404,0.010544969,-0.001094246,0.0059892577
69895321,69894851,0.0105968835,-0.00042364327,0.0054264357
69897872,69897388,0.01085423,0.00010490652,0.0044747028
69900312,69899847,0.011339389,0.0005041611,0.0031937556
69902820,69902352,0.011561052,0.00085580605,0.0014547927
69905320,69904850,0.011318104,0.0010410952,-0.0002980267
69907820,69907352,0.0107876165,0.0011474479,-0.0017328024
69910313,69909847,0.01049342,0.0013697384,-0.0028710882
69912819,69912353,0.011110148,0.0016183043,-0.0038749762
69915344,69914874,0.012255235,0.0017606164,-0.0047761956
69917812,69917347,0.013211892,0.0017857242,-0.0054900493
69920312,69919847,0.013742527,0.001698818,-0.006293946
69922817,69922349,0.013611485,0.0014089053,-0.0071050483
69925327,69924850,0.012817652,0.0010444693,-0.0076541253
69927812,69927347,0.0118489675,0.000953787,-0.008175204
69930335,69929856,0.011082112,0.0012364115,-0.008797223
69932838,69932370,0.010581817,0.0017401552,-0.009251105
69935331,69934859,0.010545566,0.0022492558,-0.0095325
69937869,69937395,0.010844805,0.0028226206,-0.009987743
69940330,69939847,0.01108667,0.0034517713,-0.010675965
69942871,69942391,0.011277223,0.0037312414,-0.0115114795
69945320,69944850,0.011550743,0.0034917495,-0.012324936
69947870,69947408,0.011933091,0.0030602908,-0.012932873
69950313,69949847,0.012152436,0.0028892583,-0.013433247
69952867,69952405,0.012173554,0.0030843993,-0.014040915
69955345,69954881,0.012317631,0.0034469904,-0.014877011
69957834,69957369,0.012349792,0.0039314497,-0.015765527
69960313,69959847,0.011966552,0.004744193,-0.01634857
69962837,69962369,0.011401525,0.005839362,-0.016582416
69965330,69964850,0.01097365,0.006921333,-0.016789965
69967859,69967394,0.010692465,0.0078941835,-0.0171973
69970322,69969856,0.010668979,0.008747985,-0.017803
69972846,69972379,0.0111648645,0.009333895,-0.018303053
69975346,69974871,0.011884119,0.00958057,-0.018555196
69977855,69977384,0.012169953,0.009726966,-0.018787893
69980326,69979847,0.011859223,0.009759265,-0.018897314
69982843,69982373,0.011459471,0.00949055,-0.01884564
69985334,69984862,0.011061433,0.009184377,-0.019025147
69987845,69987378,0.0106489165,0.008775767,-0.019602288
69990317,69989847,0.0103802895,0.007811609,-0.020293895
69995319,69994849,0.0101712,0.005557025,-0.020680403
69997831,69997353,0.010998727,0.0047086594,-0.020308912
70000345,69999847,0.012143419,0.003941609,-0.01974668
70002848,70002357,0.01324319,0.003520871,-0.019431572
70005325,70004850,0.014068008,0.0034936126,-0.019495305
70007811,70007347,0.01472746,0.0037920496,-0.019765863
70010313,70009847,0.015463705,0.0043348693,-0.020101123
70012868,70012402,0.016326087,0.004917763,-0.020404547
70015356,70014875,0.017084654,0.00538233,-0.020527368
70017821,70017356,0.017611029,0.0056237704,-0.020479852
70020387,70019902,0.017939216,0.005532351,-0.0203773
70022815,70022347,0.018159173,0.005001364,-0.020205466
70025332,70024851,0.018449271,0.004040329,-0.01996072
70027820,70027356,0.018849997,0.0027538757,-0.019452034
70030324,70029857,0.019243857,0.0009857605,-0.01848667
70032818,70032353,0.019363156,-0.0013748952,-0.017163215
70035333,70034850,0.019028533,-0.003842205,-0.015623552
70037823,70037349,0.018261185,-0.0059969784,-0.0138793485
70040317,70039847,0.016968729,-0.007711444,-0.012011747
70042827,70042347,0.015205432,-0.008603793,-0.010141356
70045326,70044850,0.013514222,-0.008507604,-0.008024835
70047812,70047347,0.012122314,-0.007993877,-0.005620745
70050325,70049847,0.010662419,-0.007727925,-0.003390569
70052848,70052379,0.0089553865,-0.007822283,-0.0015346436
70055330,70054850,0.0069746645,-0.0080135595,0.00021393503
70057819,70057350,0.00467731,-0.007882099,0.001918348
70060353,70059853,0.0024973485,-0.0073502967,0.003400043
70062845,70062376,0.0010935938,-0.006673498,0.0051058633
70065330,70064857,0.0005590205,-0.0059798537,0.007539488
70067812,70067347,0.0007395055,-0.0055601876,0.010349788
70070313,70069847,0.0016375714,-0.0056971405,0.0129528595
70072911,70072381,0.0030166942,-0.0064926795,0.015127853
70075332,70074850,0.004410176,-0.007815406,0.016897118
70077820,70077356,0.005666408,-0.009423538,0.018493332
70080313,70079847,0.007060546,-0.011284269,0.020370621
70082820,70082347,0.008608209,-0.013295962,0.02263741
70085330,70084850,0.010086283,-0.0152411945,0.02481611
70087822,70087357,0.011347519,-0.016617715,0.026599353
70090338,70089847,0.012251479,-0.017030912,0.028301992
70092862,70092388,0.012817538,-0.01651012,0.030164607
70095332,70094850,0.0130384965,-0.015135017,0.031972278
70097820,70097356,0.012441473,-0.013311194,0.033545695
70100334,70099847,0.010976804,-0.011496808,0.034825746
70102823,70102347,0.009390114,-0.009997242,0.035607688
70105330,70104853,0.0077367523,-0.009080831,0.035978727
70107815,70107347,0.0061814133,-0.008601898,0.036366172
70110314,70109847,0.0050537484,-0.008360989,0.03694161
70112833,70112363,0.0036141959,-0.0083478475,0.03760106
70115327,70114850,0.0015503839,-0.008419807,0.038183585
70117821,70117356,-0.00067674875,-0.008547891,0.038607165
70120313,70119847,-0.0029775528,-0.009076585,0.03859934
70122838,70122347,-0.005467601,-0.010305235,0.037978005
70125378,70124897,-0.0076985178,-0.012112914,0.037081137
70127812,70127347,-0.009075443,-0.014084628,0.03607604
70130372,70129870,-0.009894309,-0.015779793,0.03495869
70132880,70132398,-0.010684005,-0.016872972,0.033776227
70135332,70134849,-0.011685712,-0.017246548,0.032348976
70137824,70137347,-0.012862303,-0.017008303,0.030534215
70140332,70139847,-0.013710519,-0.016212465,0.02825946
70142884,70142347,-0.014031048,-0.014917719,0.025787707
70145323,70144849,-0.013745727,-0.013060443,0.023442134
70147812,70147347,-0.012970257,-0.010473292,0.021101885
70150322,70149849,-0.01216856,-0.0072458745,0.01862585
70152873,70152399,-0.011037444,-0.0035328327,0.015681319
70155324,70154848,-0.009169244,0.00017561716,0.012033248
70157812,70157347,-0.0074270293,0.003304773,0.0079302285
70160333,70159847,-0.006573295,0.0056714616,0.0037580759
70162815,70162347,-0.0058520823,0.0071354783,-0.00029097605
70165330,70164858,-0.0045109796,0.007639982,-0.0043313266
70167812,70167347,-0.0026406334,0.007332897,-0.008358779
70170324,70169849,-0.00042770093,0.0064556054,-0.012286578
70172861,70172396,0.0016615447,0.0051595876,-0.016176386
70175354,70174885,0.0031010448,0.0036064752,-0.019927606
70177852,70177387,0.003707681,0.0018635455,-0.023232099
70180312,70179847,0.0037817112,-7.475308e-05,-0.026145317
70182815,70182347,0.0041003907,-0.0018343577,-0.029167864
70185330,70184861,0.0048968736,-0.0028759073,-0.032589175
70187809,70187347,0.0059006186,-0.0028847703,-0.036198094
70190323,70189857,0.0067921146,-0.0018892149,-0.039586965
70195326,70194856,0.008985936,0.0024484,-0.045128915
70197826,70197349,0.010822555,0.0054605575,-0.047498316
70200329,70199853,0.012717267,0.008500774,-0.04958507
70202827,70202356,0.0143162105,0.011052939,-0.051447544
70205343,70204882,0.015121657,0.012854178,-0.053092
70207818,70207347,0.014861965,0.013918101,-0.054135118
70210310,70209847,0.013988938,0.014444866,-0.054214977
70212836,70212361,0.012841132,0.014582534,-0.053337093
70215336,70214857,0.011373178,0.0143880835,-0.0517239
70217834,70217369,0.009615949,0.013803551,-0.049382646
70220310,70219847,0.007864392,0.012760656,-0.046267763
70222812,70222347,0.0061989473,0.011511006,-0.042576402
70225325,70224857,0.004171695,0.010590948,-0.038631473
70227821,70227356,0.0015435192,0.010313873,-0.034736395
70230346,70229887,-0.0012659708,0.010828629,-0.03098401
70232862,70232397,-0.004004136,0.012433363,-0.027038556
70235340,70234867,-0.0069927145,0.01498226,-0.022500359
70237822,70237357,-0.010217535,0.017781412,-0.017459892
70240335,70239851,-0.013034677,0.02056719,-0.012178047
70242812,70242347,-0.01487243,0.023412025,-0.0067294473
70245317,70244850,-0.015679555,0.02587682,-0.0010583736
70247809,70247347,-0.015785458,0.027519768,0.0049436665
70250338,70249874,-0.015467224,0.028375005,0.011111208
70252874,70252396,-0.014629974,0.028412692,0.0169225
70255337,70254867,-0.01314568,0.027175326,0.022100013
70257811,70257349,-0.011167785,0.024603592,0.026873862
70260314,70259847,-0.009184064,0.021416713,0.031697094
70262812,70262347,-0.0077765314,0.01804366,0.036923304
70265333,70264864,-0.0065907696,0.014416244,0.042537116
70267829,70267364,-0.0050535267,0.010594331,0.048137814
70270325,70269849,-0.0034972655,0.006905399,0.05315489
70272818,70272352,-0.0022422578,0.0036246993,0.057300907
70275324,70274857,-0.0013447941,0.00084952137,0.060875412
70277820,70277349,-0.0008262289,-0.001235605,0.06409797
70280310,70279847,-0.00059152825,-0.0023223949,0.06667785
70282864,70282396,-0.00081664417,-0.0024641384,0.06857505
70285327,70284853,-0.0017523785,-0.001986045,0.06999848
70287823,70287354,-0.0033965497,-0.0011567837,0.0711453
70290332,70289866,-0.005503831,-0.00023874691,0.072127596
70292867,70292396,-0.0075938078,0.00056042284,0.072635405
70295346,70294876,-0.009571057,0.0012353038,0.07254196
70297818,70297356,-0.01166985,0.0017122127,0.07200168
70300338,70299862,-0.014021184,0.0018436286,0.07101999
70302822,70302354,-0.016669253,0.0018588714,0.06962469
70305345,70304883,-0.019333618,0.0016822348,0.06777124
70307812,70307349,-0.021683954,0.0009938924,0.06540652
70310348,70309888,-0.023609418,-8.005036e-05,0.062489793
70312861,70312396,-0.025122032,-0.0013276635,0.058899086
70315361,70314874,-0.02633778,-0.0026796975,0.054900013
70317831,70317350,-0.027035715,-0.0041735317,0.05079146
70320352,70319882,-0.026809368,-0.0058886013,0.04624047
70322829,70322351,-0.026005665,-0.0076130945,0.04112205
70325372,70324891,-0.024995344,-0.009019409,0.03572672
70327812,70327350,-0.02325679,-0.010092175,0.029991884
70330377,70329898,-0.020540869,-0.010845595,0.024001524
70332825,70332363,-0.017463697,-0.011293502,0.018053902
70335412,70334937,-0.014574504,-0.01132295,0.011933287
70337816,70337354,-0.01222203,-0.010674643,0.005635217
70340351,70339882,-0.010852797,-0.009336132,-0.0003593202
70342832,70342350,-0.01012871,-0.0074164714,-0.006120384
70345362,70344892,-0.009363935,-0.0051377467,-0.01178651
70347823,70347358,-0.008365795,-0.0029379835,-0.017106265
70350316,70349853,-0.0069373115,-0.0010608787,-0.02215793
70352861,70352396,-0.0053136377,0.00060097926,-0.02707024
70355352,70354871,-0.0039941305,0.0021273934,-0.031748652
70357824,70357362,-0.0030656783,0.0034236272,-0.036035422
70360312,70359850,-0.0025212266,0.0043326393,-0.040037338
70362819,70362350,-0.0024693254,0.004736274,-0.043987464
70365329,70364856,-0.0028010674,0.0045777527,-0.047553886
70367815,70367350,-0.0031425713,0.004070313,-0.050643627
70370313,70369850,-0.0030207045,0.0035150785,-0.053544182
70372884,70372396,-0.0021140454,0.0029706836,-0.056144208
70375320,70374853,-0.0007656945,0.0025190199,-0.05833771
70377815,70377353,0.00056995294,0.002272208,-0.060163893
70380352,70379858,0.0018016176,0.0021823545,-0.0616756
70382834,70382359,0.002971655,0.0021737851,-0.06300712
70385327,70384857,0.004039783,0.0021102696,-0.064141676
70387856,70387391,0.004653885,0.0018906185,-0.0649533
70390313,70389850,0.0045600943,0.0016939443,-0.065321125
70395334,70394865,0.0028977378,0.001784719,-0.065021776
70397824,70397347,0.0015679994,0.0020000131,-0.06452959
70400333,70399855,-0.00017557402,0.002263605,-0.06363014
70402828,70402352,-0.0021149572,0.0025182224,-0.06231918
70405320,70404853,-0.0039083427,0.0028304576,-0.06039261
70407825,70407356,-0.005455357,0.0031624066,-0.057981055
70410327,70409847,-0.0070527997,0.0029416073,-0.055344827
70412864,70412399,-0.009023246,0.00184298,-0.052424606
70415330,70414850,-0.010863067,0.00040713273,-0.04942341
70417828,70417357,-0.011713965,-0.0010149357,-0.04666251
70420334,70419859,-0.011555853,-0.0024686125,-0.04379297
70422838,70422347,-0.010948068,-0.0038542326,-0.04058357
70425320,70424850,-0.010149582,-0.005042844,-0.037606865
70427828,70427359,-0.009037256,-0.005991161,-0.034959055
70430312,70429847,-0.0075289165,-0.006856848,-0.03200985
70432874,70432396,-0.0060890443,-0.00795508,-0.028773632
70435366,70434875,-0.004970194,-0.009228517,-0.025604824
70437831,70437347,-0.003816624,-0.010260744,-0.022278758
70440371,70439899,-0.002337765,-0.01093066,-0.018737283
70442832,70442349,-0.00060594204,-0.01131739,-0.01522483
70445328,70444850,0.0010385225,-0.011346522,-0.011676411
70447819,70447347,0.0023715827,-0.011092397,-0.007980858
70450337,70449868,0.0036439144,-0.01080597,-0.0043410524
70452867,70452396,0.004967868,-0.010619459,-0.0008903347
70455332,70454856,0.005741709,-0.010342617,0.0023676255
70457818,70457347,0.0057692714,-0.0099403765,0.0052800477
70460326,70459847,0.0055278623,-0.009830163,0.0077457335
70462822,70462347,0.005234773,-0.009955421,0.009941317
70465357,70464892,0.004996641,-0.009932356,0.01213325
70467819,70467347,0.0048006694,-0.009662427,0.014251911
70470328,70469860,0.004379462,-0.009237009,0.016265823
70472833,70472365,0.0038739573,-0.008837907,0.01836956
70475321,70474850,0.0034665756,-0.008361504,0.020357054
70477819,70477355,0.0029635376,-0.0076112864,0.021903768
70480328,70479847,0.0022212947,-0.0066065732,0.02325882
70482818,70482347,0.001434098,-0.005482642,0.024683207
70485321,70484850,0.000802249,-0.004283113,0.025888527
70487841,70487347,-1.2411867e-05,-0.002927263,0.02675184
70490325,70489847,-0.001327453,-0.0016245795,0.027501369
70492851,70492383,-0.0028954307,-0.0007626376,0.028129293
70495323,70494850,-0.0042985324,-0.00040756742,0.028424937
70497817,70497350,-0.005367734,-0.00032700942,0.028403336
70500328,70499847,-0.006187878,-0.00037231442,0.028242728
70502825,70502347,-0.0069975858,-0.0005447878,0.027892213
70505321,70504850,-0.007902587,-0.0010633388,0.027364928
70507815,70507347,-0.00867277,-0.0020880767,0.026801711
70510328,70509849,-0.009015168,-0.003272523,0.026169468
70512820,70512350,-0.008643338,-0.0044610384,0.025409032
70515328,70514850,-0.00751532,-0.0057625836,0.024395894
70517817,70517350,-0.0059468066,-0.0069125667,0.023038182
70520337,70519847,-0.004001941,-0.007679016,0.021495838
70522828,70522350,-0.0018171998,-0.008008968,0.019917976
70525355,70524850,1.2061863e-05,-0.007951255,0.018334238
70527823,70527350,0.0012344016,-0.0077817594,0.016808007
70530378,70529859,0.0021876402,-0.0075748134,0.015387576
70532858,70532396,0.0031425464,-0.00733501,0.0141352145
70535331,70534850,0.0041651763,-0.0070467107,0.012930362
70537823,70537356,0.0055113635,-0.0065584164,0.011476143
70540326,70539847,0.00718118,-0.006079733,0.009861572
70542829,70542361,0.008758913,-0.005702562,0.008280496
70545360,70544895,0.009678389,-0.005293102,0.0066214567
70547826,70547356,0.009692316,-0.0049544503,0.0048466995
70550328,70549856,0.009360272,-0.0047247545,0.003169743
70552842,70552380,0.009084111,-0.0046769953,0.0016325852
70555326,70554850,0.008800544,-0.004681955,2.3905863e-05
70557831,70557366,0.008331555,-0.004358507,-0.0016335375
70560327,70559847,0.0074665886,-0.0036875487,-0.0030015064
70562871,70562393,0.006492243,-0.0029287492,-0.003960429
70565321,70564850,0.0057439036,-0.002122444,-0.00491523
70567825,70567358,0.005123421,-0.0011005756,-0.0060707764
70570312,70569847,0.004707523,3.113641e-05,-0.0072226864
70572820,70572355,0.0043444424,0.00075731607,-0.0083062695
70575346,70574866,0.0036878523,0.0006900051,-0.009424024
70577821,70577357,0.0030860999,0.00024305283,-0.010574488
70580312,70579847,0.0028349678,0.00010420031,-0.011510257
70582837,70582368,0.0026440495,0.00031762288,-0.012178366
70585318,70584850,0.0023223269,0.0004223893,-0.012814483
70587843,70587377,0.0021571813,0.0003389803,-0.013442223
70590316,70589850,0.0021600774,0.00044585683,-0.013863235
70595319,70594849,0.002434449,0.0018237825,-0.014410183
70597879,70597398,0.0025949527,0.0031022842,-0.014876943
70600312,70599847,0.0024647377,0.004612041,-0.015321524
70602829,70602361,0.0023820251,0.00621095,-0.015606239
70605320,70604850,0.0024984544,0.007912823,-0.015634915
70607841,70607366,0.002578286,0.009651273,-0.015534153
70610312,70609847,0.0023364276,0.01097575,-0.015415699
70612852,70612390,0.0021071057,0.011745828,-0.01506227
70615335,70614863,0.002165209,0.01222333,-0.0143734645
70617812,70617347,0.002439133,0.012486277,-0.013868362
70620341,70619853,0.0030105112,0.012671444,-0.013698269
70622822,70622350,0.0036257936,0.012880229,-0.013460928
70625324,70624852,0.0040500597,0.012910782,-0.013155228
70627828,70627347,0.004567755,0.012562443,-0.012913288
70630325,70629847,0.0054313876,0.011803616,-0.012458248
70632839,70632371,0.006548026,0.010821233,-0.011623069
70635323,70634853,0.007721526,0.009900861,-0.010787438
70637828,70637361,0.00859786,0.008947329,-0.010084039
70640331,70639847,0.009305253,0.007813679,-0.009240887
70642871,70642406,0.010197232,0.0066502923,-0.008339531
70645318,70644850,0.011028243,0.0055400217,-0.0077928463
70647846,70647380,0.011544636,0.004482849,-0.007487534
70650347,70649887,0.011555484,0.003453614,-0.0069411574
70652849,70652384,0.010865883,0.0026175892,-0.0062592668
70655328,70654850,0.0097129755,0.002044967,-0.005766073
70657846,70657379,0.008613573,0.0015499335,-0.0053144195
70660313,70659847,0.0076151197,0.0011832317,-0.00457426
70662858,70662391,0.0064501865,0.0010271608,-0.0037542782
70665320,70664850,0.0052223913,0.0009769351,-0.003213513
70667858,70667393,0.0043021715,0.0009025486,-0.002703479
70670331,70669858,0.003656022,0.00082519394,-0.0020450994
70672830,70672365,0.0031020716,0.0007795576,-0.0012875784
70675320,70674850,0.002718815,0.0006688042,-0.00046090817
70677837,70677372,0.0025361604,0.0005556491,0.00022495641
70680329,70679851,0.0024522431,0.0005347852,0.00069165
70682865,70682394,0.0023954315,0.0007339941,0.0010984914
70685324,70684850,0.0023663074,0.0013234391,0.0015482703
70687877,70687411,0.0023143522,0.0022648766,0.0019346197
70690322,70689847,0.0023633207,0.0034787403,0.002146066
70692848,70692380,0.0026378322,0.0049355845,0.0021845836
70695319,70694850,0.0029408846,0.006416748,0.0020551584
70697838,70697373,0.0027504356,0.007545465,0.001825181
70700329,70699847,0.0022524057,0.0084403725,0.0016934655
70702917,70702439,0.0020502137,0.0094094025,0.0017364029
70705324,70704850,0.0016797693,0.010284115,0.0017093536
70707824,70707359,0.00094359746,0.01105481,0.0014264182
70710318,70709847,0.00023525173,0.012136255,0.00096667104
70712872,70712399,-0.00047894576,0.013566052,0.00047295823
70715322,70714853,-0.0013168606,0.014841361,0.00014460347
70717812,70717347,-0.0024822725,0.015742762,0.000120656216
70720318,70719847,-0.003833729,0.016534897,0.000294561
70722819,70722347,-0.004766748,0.017497703,0.00041301045
70725326,70724855,-0.004812975,0.01863083,0.00035704058
70727820,70727347,-0.0041147936,0.019793566,0.0002693076
70730335,70729847,-0.0033435728,0.020816075,0.0002672306
70732842,70732373,-0.0026469727,0.021515105,0.00026110437
70735334,70734858,-0.0019010971,0.02179611,0.0001880946
70737823,70737349,-0.0012279133,0.021639908,0.0001092421
70740312,70739847,-0.000552216,0.021145947,6.6247834e-05
70742815,70742347,0.00013135542,0.020468596,-0.00010326495
70745328,70744850,0.00061968766,0.019785013,-0.0005969969
70747812,70747347,0.0009646672,0.019080227,-0.001370978
70750317,70749847,0.0013856563,0.018276898,-0.002320105
70752817,70752352,0.001695189,0.017419592,-0.0032582672
70755375,70754895,0.0015641083,0.016441556,-0.0041531054
70757812,70757347,0.0010621118,0.015346704,-0.004976801
70760337,70759847,0.00025318362,0.014299469,-0.0054860786
70762815,70762347,-0.00087239675,0.013455225,-0.005869753
70765328,70764850,-0.0020748598,0.012740841,-0.0064273397
70767815,70767350,-0.003221116,0.01194329,-0.007114941
70770316,70769847,-0.0042831497,0.011077714,-0.0077806055
70772864,70772396,-0.004879739,0.010290016,-0.008343563
70775338,70774859,-0.004751866,0.00974106,-0.009005207
70777823,70777358,-0.004187046,0.009430267,-0.009824975
70780312,70779847,-0.0036123442,0.009113795,-0.010585382
70782818,70782347,-0.0032912435,0.008667808,-0.011374544
70785335,70784850,-0.0031845174,0.008023048,-0.012273523
70787823,70787356,-0.0031311112,0.007227251,-0.012973695
70790313,70789847,-0.0032039431,0.0066135884,-0.013294368
70795338,70794862,-0.0026441405,0.0068497807,-0.013668762
70797817,70797349,-0.0019117977,0.0076993397,-0.014026466
70800349,70799849,-0.0012260326,0.00854358,-0.014727113
70802819,70802347,-0.00067644863,0.009249783,-0.01580783
70805336,70804854,-0.00040920364,0.010055017,-0.016890759
70807855,70807387,-0.00060206524,0.010734557,-0.01756191
70810350,70809877,-0.0011045522,0.010880831,-0.017846206
70812890,70812399,-0.0017855461,0.010694909,-0.018111465
70815356,70814869,-0.0025698363,0.010567322,-0.018540924
70817879,70817402,-0.0029712787,0.010514178,-0.019088434
70820339,70819847,-0.0029450923,0.010487728,-0.01971622
70822815,70822347,-0.0030658534,0.0105601745,-0.020170433
70825325,70824850,-0.003554515,0.010732493,-0.02025559
70827816,70827347,-0.0039721243,0.0108925365,-0.020008188
70830324,70829851,-0.004081365,0.010927142,-0.019366426
70832864,70832396,-0.0039971997,0.010816023,-0.01858239
70835336,70834850,-0.0037869925,0.010541677,-0.018051652
70837826,70837356,-0.0034799273,0.010264593,-0.017782584
70840325,70839847,-0.0031364502,0.010234765,-0.017439086
70842818,70842347,-0.0029176148,0.010267406,-0.016699746
70845324,70844850,-0.002772639,0.0101279095,-0.015816491
70847818,70847353,-0.0024887822,0.009871072,-0.015200375
70850315,70849847,-0.002059874,0.009400454,-0.014661309
70852867,70852396,-0.0017308505,0.008749515,-0.013862243
70855320,70854850,-0.0016376587,0.008380972,-0.012837446
70857830,70857347,-0.0015991236,0.008337514,-0.011710186
70860365,70859895,-0.001557676,0.008281117,-0.010538469
70862824,70862356,-0.0016220382,0.008184884,-0.009275822
70865319,70864849,-0.0018036717,0.0081826905,-0.007913526
70867815,70867347,-0.0019540254,0.008268968,-0.0066301003
70870324,70869847,-0.0019620077,0.008329394,-0.0055981027
70872861,70872396,-0.0021281159,0.008414602,-0.0047578327
70875324,70874850,-0.0025367679,0.008576028,-0.0038295586
70877841,70877356,-0.002848261,0.0085598435,-0.0027457445
70880315,70879847,-0.0030204605,0.008115588,-0.0015702806
70882827,70882347,-0.0031786556,0.0074061025,-0.00043259305
70885318,70884850,-0.0033158835,0.0065337745,0.0005740027
70887863,70887347,-0.0032590914,0.0052892677,0.0015628836
70890317,70889847,-0.0030109044,0.003692929,0.0025552192
70892866,70892400,-0.0027930443,0.0019130312,0.0036384326
70895344,70894874,-0.0025742734,0.00013550426,0.004724019
70897820,70897347,-0.0023317626,-0.0012336294,0.0055445777
70900340,70899850,-0.002272792,-0.0019881087,0.0063494556
70902824,70902356,-0.0026304657,-0.0022540574,0.007560637
70905326,70904854,-0.0031889493,-0.0022783873,0.008843551
70907809,70907347,-0.0034867928,-0.0023049184,0.009817229
70910328,70909860,-0.0035579593,-0.0023279428,0.010550679
70912878,70912409,-0.0035220573,-0.002338392,0.0110304365
70915375,70914891,-0.0034891965,-0.0024705627,0.011268667
