timestamp,q[0],q[1],q[2],q[3],delta_q_reset[0],delta_q_reset[1],delta_q_reset[2],delta_q_reset[3],quat_reset_counter
68282350,0.9553526,-0.007370231,0.0009256575,0.29537502,0.99997425,2.0154545e-09,6.882595e-10,-0.007182245,3
68287391,0.95535046,-0.0073829107,0.000921134,0.29538155,0.99997425,2.0154545e-09,6.882595e-10,-0.007182245,3
68292396,0.9553487,-0.0073939534,0.0009152751,0.29538697,0.99997425,2.0154545e-09,6.882595e-10,-0.007182245,3
68297347,0.9553472,-0.0074046585,0.0009059781,0.2953914,0.99997425,2.0154545e-09,6.882595e-10,-0.007182245,3
68302347,0.9553451,-0.0074157775,0.0008990015,0.29539782,0.99997425,2.0154545e-09,6.882595e-10,-0.007182245,3
68307347,0.95534515,-0.0074242577,0.00089762785,0.29539782,0.99997425,2.0154545e-09,6.882595e-10,-0.007182245,3
68312397,0.9553448,-0.007437111,0.00089335156,0.29539853,0.99997425,2.0154545e-09,6.882595e-10,-0.007182245,3
68317356,0.95534474,-0.00744706,0.00088813173,0.2953985,0.99997425,2.0154545e-09,6.882595e-10,-0.007182245,3
68322347,0.9553444,-0.0074562435,0.0008831333,0.29539916,0.99997425,2.0154545e-09,6.882595e-10,-0.007182245,3
68327351,0.9553446,-0.0074600913,0.00088012137,0.29539853,0.99997425,2.0154545e-09,6.882595e-10,-0.007182245,3
68332411,0.9553449,-0.007463827,0.00087717525,0.29539737,0.99997425,2.0154545e-09,6.882595e-10,-0.007182245,3
68337347,0.95534325,-0.0074732425,0.0008768392,0.2954025,0.99997425,2.0154545e-09,6.882595e-10,-0.007182245,3
68342347,0.9553424,-0.0074791675,0.00087378226,0.29540542,0.99997425,2.0154545e-09,6.882595e-10,-0.007182245,3
68347350,0.9553422,-0.007487398,0.0008722858,0.29540557,0.99997425,2.0154545e-09,6.882595e-10,-0.007182245,3
68352396,0.9553441,-0.0074969386,0.00086826546,0.2953996,0.99997425,2.0154545e-09,6.882595e-10,-0.007182245,3
68357349,0.95534533,-0.0075071603,0.00086647563,0.29539496,0.99997425,2.0154545e-09,6.882595e-10,-0.007182245,3
68362356,0.9553458,-0.0075072926,0.000865575,0.29539338,0.99997425,2.0154545e-09,6.882595e-10,-0.007182245,3
68367347,0.9553465,-0.0075048045,0.000858904,0.29539117,0.99997425,2.0154545e-09,6.882595e-10,-0.007182245,3
68372375,0.9553465,-0.0075123636,0.00085729844,0.295391,0.99997425,2.0154545e-09,6.882595e-10,-0.007182245,3
68377350,0.9553464,-0.0075144917,0.0008573085,0.29539144,0.99997425,2.0154545e-09,6.882595e-10,-0.007182245,3
68382391,0.9553473,-0.007509977,0.00085883547,0.29538864,0.99997425,2.0154545e-09,6.882595e-10,-0.007182245,3
68387347,0.95534766,-0.0075093973,0.0008548348,0.2953876,0.99997425,2.0154545e-09,6.882595e-10,-0.007182245,3
68392383,0.9553471,-0.007506837,0.00085201993,0.2953894,0.99997425,2.0154545e-09,6.882595e-10,-0.007182245,3
68397350,0.9553476,-0.0075058197,0.0008502672,0.29538795,0.99997425,2.0154545e-09,6.882595e-10,-0.007182245,3
68402347,0.95534825,-0.00750731,0.0008496095,0.2953855,0.99997425,2.0154545e-09,6.882595e-10,-0.007182245,3
68407347,0.9553483,-0.0075078495,0.000848428,0.2953857,0.99997425,2.0154545e-09,6.882595e-10,-0.007182245,3
68412353,0.95534927,-0.007503135,0.0008474697,0.29538244,0.99997425,2.0154545e-09,6.882595e-10,-0.007182245,3
68417360,0.95534915,-0.007495057,0.0008474516,0.2953834,0.99997425,2.0154545e-09,6.882595e-10,-0.007182245,3
68422355,0.9553497,-0.0074954643,0.0008493665,0.29538134,0.99997425,2.0154545e-09,6.882595e-10,-0.007182245,3
68427349,0.95535034,-0.0074858954,0.000853599,0.29537976,0.99997425,2.0154545e-09,6.882595e-10,-0.007182245,3
68432359,0.95535046,-0.0074756886,0.0008533035,0.29537922,0.99997425,2.0154545e-09,6.882595e-10,-0.007182245,3
68437349,0.9553512,-0.007465849,0.00085471873,0.29537746,0.99997425,2.0154545e-09,6.882595e-10,-0.007182245,3
68442347,0.95534974,-0.0074613583,0.000854435,0.29538193,0.99997425,2.0154545e-09,6.882595e-10,-0.007182245,3
68447357,0.955351,-0.0074529955,0.00085421436,0.29537815,0.99997425,2.0154545e-09,6.882595e-10,-0.007182245,3
68452393,0.9553511,-0.0074398564,0.00086140697,0.29537818,0.99997425,2.0154545e-09,6.882595e-10,-0.007182245,3
68457366,0.95535177,-0.0074331895,0.0008583406,0.29537633,0.99997425,2.0154545e-09,6.882595e-10,-0.007182245,3
68462383,0.955354,-0.0074272477,0.00086149696,0.2953694,0.99997425,2.0154545e-09,6.882595e-10,-0.007182245,3
68467388,0.95535386,-0.0074186996,0.0008667723,0.29536986,0.99997425,2.0154545e-09,6.882595e-10,-0.007182245,3
68472356,0.9553534,-0.0074130967,0.0008696225,0.29537126,0.99997425,2.0154545e-09,6.882595e-10,-0.007182245,3
68477349,0.95535475,-0.0074009993,0.0008682288,0.2953674,0.99997425,2.0154545e-09,6.882595e-10,-0.007182245,3
68482347,0.9553556,-0.007393911,0.0008692315,0.29536456,0.99997425,2.0154545e-09,6.882595e-10,-0.007182245,3
68487349,0.9553571,-0.0073772627,0.00087622006,0.29536048,0.99997425,2.0154545e-09,6.882595e-10,-0.007182245,3
68492371,0.955357,-0.007361286,0.0008800267,0.295361,0.99997425,2.0154545e-09,6.882595e-10,-0.007182245,3
68497392,0.9553567,-0.0073518213,0.0008829365,0.29536217,0.99997425,2.0154545e-09,6.882595e-10,-0.007182245,3
68502401,0.9553576,-0.0073405793,0.0008894486,0.29535955,0.99997425,2.0154545e-09,6.882595e-10,-0.007182245,3
68507394,0.9553572,-0.007328675,0.00089230936,0.29536125,0.99997425,2.0154545e-09,6.882595e-10,-0.007182245,3
68512383,0.955358,-0.0073192623,0.0008971063,0.29535842,0.99997425,2.0154545e-09,6.882595e-10,-0.007182245,3
68517377,0.95535856,-0.0073115495,0.0009033174,0.29535717,0.99997425,2.0154545e-09,6.882595e-10,-0.007182245,3
68522407,0.9553581,-0.007304415,0.0009059902,0.29535884,0.99997425,2.0154545e-09,6.882595e-10,-0.007182245,3
68527366,0.955358,-0.007290821,0.0009126511,0.29535943,0.99997425,2.0154545e-09,6.882595e-10,-0.007182245,3
68532431,0.9553584,-0.0072769565,0.00091309234,0.2953583,0.99997425,2.0154545e-09,6.882595e-10,-0.007182245,3
68537376,0.9553583,-0.0072681247,0.0009116956,0.29535905,0.99997425,2.0154545e-09,6.882595e-10,-0.007182245,3
68542453,0.95535815,-0.007257349,0.0009184771,0.29535982,0.99997425,2.0154545e-09,6.882595e-10,-0.007182245,3
68547390,0.9553589,-0.00724791,0.0009223575,0.29535758,0.99997425,2.0154545e-09,6.882595e-10,-0.007182245,3
68552380,0.95535916,-0.007240969,0.0009218188,0.29535657,0.99997425,2.0154545e-09,6.882595e-10,-0.007182245,3
68557380,0.9553597,-0.007233836,0.00092651503,0.29535544,0.99997425,2.0154545e-09,6.882595e-10,-0.007182245,3
68562350,0.95536065,-0.0072269053,0.0009288918,0.29535252,0.99997425,2.0154545e-09,6.882595e-10,-0.007182245,3
68567353,0.95536166,-0.0072168377,0.0009240594,0.29534945,0.99997425,2.0154545e-09,6.882595e-10,-0.007182245,3
68572381,0.9553618,-0.0072130216,0.00092969084,0.29534876,0.99997425,2.0154545e-09,6.882595e-10,-0.007182245,3
68577354,0.9553626,-0.0072012343,0.00093552715,0.29534677,0.99997425,2.0154545e-09,6.882595e-10,-0.007182245,3
68582355,0.95536155,-0.007193121,0.00093555514,0.29535004,0.99997425,2.0154545e-09,6.882595e-10,-0.007182245,3
68587347,0.9553626,-0.007183572,0.00093814963,0.29534712,0.99997425,2.0154545e-09,6.882595e-10,-0.007182245,3
68592406,0.9553639,-0.0071744733,0.00093933113,0.295343,0.99997425,2.0154545e-09,6.882595e-10,-0.007182245,3
68597349,0.95536363,-0.007160346,0.00094544864,0.29534426,0.99997425,2.0154545e-09,6.882595e-10,-0.007182245,3
68602394,0.9553647,-0.007148229,0.0009500241,0.2953411,0.99997425,2.0154545e-09,6.882595e-10,-0.007182245,3
68607347,0.9553655,-0.0071445582,0.0009515016,0.29533896,0.99997425,2.0154545e-09,6.882595e-10,-0.007182245,3
68612399,0.9553665,-0.007141073,0.000953524,0.2953356,0.99997425,2.0154545e-09,6.882595e-10,-0.007182245,3
68617349,0.9553665,-0.0071351808,0.0009564082,0.29533547,0.99997425,2.0154545e-09,6.882595e-10,-0.007182245,3
68622347,0.955368,-0.0071294173,0.0009606043,0.2953309,0.99997425,2.0154545e-09,6.882595e-10,-0.007182245,3
68627347,0.95536894,-0.007118703,0.00096640777,0.29532796,0.99997425,2.0154545e-09,6.882595e-10,-0.007182245,3
68632396,0.95536995,-0.007114627,0.00097034033,0.29532492,0.99997425,2.0154545e-09,6.882595e-10,-0.007182245,3
68637349,0.9553701,-0.0071095955,0.0009769063,0.29532456,0.99997425,2.0154545e-09,6.882595e-10,-0.007182245,3
68642349,0.9553716,-0.0071030776,0.0009806416,0.29531962,0.99997425,2.0154545e-09,6.882595e-10,-0.007182245,3
68647347,0.9553722,-0.007097425,0.0009838555,0.29531813,0.99997425,2.0154545e-09,6.882595e-10,-0.007182245,3
68652402,0.95537174,-0.0070951153,0.0009852544,0.29531965,0.99997425,2.0154545e-09,6.882595e-10,-0.007182245,3
68657349,0.95537186,-0.0070879683,0.000986473,0.2953191,0.99997425,2.0154545e-09,6.882595e-10,-0.007182245,3
68662347,0.9553722,-0.007083204,0.0009852737,0.29531842,0.99997425,2.0154545e-09,6.882595e-10,-0.007182245,3
68667355,0.9553719,-0.0070768264,0.0009882465,0.29531953,0.99997425,2.0154545e-09,6.882595e-10,-0.007182245,3
68672396,0.9553731,-0.0070728757,0.0009883674,0.29531562,0.99997425,2.0154545e-09,6.882595e-10,-0.007182245,3
68677349,0.95537364,-0.0070726383,0.0009853445,0.29531392,0.99997425,2.0154545e-09,6.882595e-10,-0.007182245,3
68682356,0.9553729,-0.0070689814,0.0009877341,0.29531625,0.99997425,2.0154545e-09,6.882595e-10,-0.007182245,3
68687349,0.95537233,-0.0070623537,0.0009866824,0.2953184,0.99997425,2.0154545e-09,6.882595e-10,-0.007182245,3
68692396,0.9553717,-0.0070618256,0.0009918932,0.29532042,0.99997425,2.0154545e-09,6.882595e-10,-0.007182245,3
68697349,0.95537174,-0.0070668273,0.0009889335,0.29532006,0.99997425,2.0154545e-09,6.882595e-10,-0.007182245,3
68702347,0.955372,-0.00706433,0.0009864669,0.29531968,0.99997425,2.0154545e-09,6.882595e-10,-0.007182245,3
68707392,0.9553723,-0.0070645516,0.000984296,0.29531872,0.99997425,2.0154545e-09,6.882595e-10,-0.007182245,3
68712396,0.95537096,-0.007061615,0.00098347,0.2953226,0.99997425,2.0154545e-09,6.882595e-10,-0.007182245,3
68717356,0.95537114,-0.0070658373,0.0009840479,0.29532194,0.99997425,2.0154545e-09,6.882595e-10,-0.007182245,3
68722347,0.95537144,-0.007065155,0.000988748,0.29532132,0.99997425,2.0154545e-09,6.882595e-10,-0.007182245,3
68727354,0.9553711,-0.007070348,0.0009874493,0.29532236,0.99997425,2.0154545e-09,6.882595e-10,-0.007182245,3
68732396,0.95537084,-0.007076698,0.0009873204,0.2953229,0.99997425,2.0154545e-09,6.882595e-10,-0.007182245,3
68737349,0.95536965,-0.0070786485,0.0009849538,0.29532674,0.99997425,2.0154545e-09,6.882595e-10,-0.007182245,3
68742347,0.9553702,-0.0070880298,0.0009845272,0.2953247,0.99997425,2.0154545e-09,6.882595e-10,-0.007182245,3
68747347,0.95536906,-0.007094539,0.0009898252,0.2953285,0.99997425,2.0154545e-09,6.882595e-10,-0.007182245,3
68752396,0.9553697,-0.0070981756,0.000985667,0.29532582,0.99997425,2.0154545e-09,6.882595e-10,-0.007182245,3
68757349,0.9553691,-0.007104071,0.0009816972,0.29532787,0.99997425,2.0154545e-09,6.882595e-10,-0.007182245,3
68762347,0.9553673,-0.0071134022,0.00097513635,0.29533356,0.99997425,2.0154545e-09,6.882595e-10,-0.007182245,3
68767355,0.9553669,-0.007123436,0.0009747287,0.2953346,0.99997425,2.0154545e-09,6.882595e-10,-0.007182245,3
68772396,0.95536655,-0.007136461,0.00097213837,0.29533535,0.99997425,2.0154545e-09,6.882595e-10,-0.007182245,3
68777349,0.95536566,-0.007145692,0.0009693019,0.29533806,0.99997425,2.0154545e-09,6.882595e-10,-0.007182245,3
68782347,0.95536566,-0.0071523357,0.00096987386,0.2953379,0.99997425,2.0154545e-09,6.882595e-10,-0.007182245,3
68787347,0.9553648,-0.007162191,0.0009702741,0.2953403,0.99997425,2.0154545e-09,6.882595e-10,-0.007182245,3
68792401,0.955364,-0.00717237,0.00096884585,0.2953429,0.99997425,2.0154545e-09,6.882595e-10,-0.007182245,3
68797349,0.9553637,-0.007186736,0.0009654123,0.29534346,0.99997425,2.0154545e-09,6.882595e-10,-0.007182245,3
68802351,0.95536274,-0.0071971784,0.00096173806,0.295346,0.99997425,2.0154545e-09,6.882595e-10,-0.007182245,3
68807347,0.95536196,-0.007218218,0.0009568118,0.29534844,0.99997425,2.0154545e-09,6.882595e-10,-0.007182245,3
68812396,0.95536,-0.0072289393,0.0009475382,0.29535452,0.99997425,2.0154545e-09,6.882595e-10,-0.007182245,3
68817349,0.9553592,-0.007238544,0.000941022,0.29535645,0.99997425,2.0154545e-09,6.882595e-10,-0.007182245,3
68822347,0.95535845,-0.007251328,0.0009365901,0.29535896,0.99997425,2.0154545e-09,6.882595e-10,-0.007182245,3
68827356,0.95535576,-0.0072657503,0.000931222,0.29536727,0.99997425,2.0154545e-09,6.882595e-10,-0.007182245,3
68832358,0.95535284,-0.0072809327,0.000930269,0.2953764,0.99997425,2.0154545e-09,6.882595e-10,-0.007182245,3
68837349,0.9553508,-0.0072965063,0.00092384097,0.2953826,0.99997425,2.0154545e-09,6.882595e-10,-0.007182245,3
68842347,0.9553498,-0.0073171067,0.0009149871,0.2953854,0.99997425,2.0154545e-09,6.882595e-10,-0.007182245,3
68847349,0.9553489,-0.007329928,0.0009071576,0.29538798,0.99997425,2.0154545e-09,6.882595e-10,-0.007182245,3
68852364,0.9553468,-0.0073445565,0.000901058,0.29539427,0.99997425,2.0154545e-09,6.882595e-10,-0.007182245,3
68857349,0.95534635,-0.007359348,0.00089325255,0.29539552,0.99997425,2.0154545e-09,6.882595e-10,-0.007182245,3
68862347,0.9553458,-0.0073777256,0.0008843063,0.29539654,0.99997425,2.0154545e-09,6.882595e-10,-0.007182245,3
68867347,0.9553438,-0.007396829,0.0008745765,0.29540268,0.99997425,2.0154545e-09,6.882595e-10,-0.007182245,3
68872370,0.9553417,-0.0074116136,0.00086549425,0.29540917,0.99997425,2.0154545e-09,6.882595e-10,-0.007182245,3
68877349,0.95534,-0.007425318,0.00085989916,0.29541454,0.99997425,2.0154545e-09,6.882595e-10,-0.007182245,3
68882347,0.955338,-0.0074403244,0.0008480149,0.29542044,0.99997425,2.0154545e-09,6.882595e-10,-0.007182245,3
68887350,0.9553364,-0.007460378,0.00084032083,0.2954251,0.99997425,2.0154545e-09,6.882595e-10,-0.007182245,3
68892396,0.9553335,-0.007480402,0.0008364849,0.29543445,0.99997425,2.0154545e-09,6.882595e-10,-0.007182245,3
68897350,0.95533246,-0.0074955695,0.0008349302,0.29543698,0.99997425,2.0154545e-09,6.882595e-10,-0.007182245,3
68902349,0.9553305,-0.007516438,0.00082591403,0.29544285,0.99997425,2.0154545e-09,6.882595e-10,-0.007182245,3
68907350,0.9553298,-0.0075336257,0.00082298013,0.29544482,0.99997425,2.0154545e-09,6.882595e-10,-0.007182245,3
68912396,0.9553284,-0.007550614,0.0008140853,0.29544884,0.99997425,2.0154545e-09,6.882595e-10,-0.007182245,3
68917398,0.95532715,-0.0075665303,0.00080985314,0.29545254,0.99997425,2.0154545e-09,6.882595e-10,-0.007182245,3
68922350,0.9553244,-0.007581679,0.00079870684,0.295461,0.99997425,2.0154545e-09,6.882595e-10,-0.007182245,3
68927367,0.95532435,-0.00759496,0.00078752567,0.29546076,0.99997425,2.0154545e-09,6.882595e-10,-0.007182245,3
68932396,0.95532215,-0.007610105,0.0007820592,0.29546785,0.99997425,2.0154545e-09,6.882595e-10,-0.007182245,3
68937353,0.9553203,-0.007624484,0.00077301374,0.2954731,0.99997425,2.0154545e-09,6.882595e-10,-0.007182245,3
68942350,0.9553191,-0.007638657,0.00076625345,0.2954766,0.99997425,2.0154545e-09,6.882595e-10,-0.007182245,3
68947350,0.9553184,-0.0076509896,0.0007649316,0.29547897,0.99997425,2.0154545e-09,6.882595e-10,-0.007182245,3
68952396,0.95531744,-0.007662675,0.0007570339,0.29548162,0.99997425,2.0154545e-09,6.882595e-10,-0.007182245,3
68957355,0.95531607,-0.0076751984,0.0007539993,0.2954856,0.99997425,2.0154545e-09,6.882595e-10,-0.007182245,3
68962353,0.9553151,-0.0076855225,0.0007505642,0.2954884,0.99997425,2.0154545e-09,6.882595e-10,-0.007182245,3
68967350,0.95531374,-0.0076973718,0.00074798265,0.29549283,0.99997425,2.0154545e-09,6.882595e-10,-0.007182245,3
68972396,0.95531213,-0.0077067986,0.00074375654,0.29549778,0.99997425,2.0154545e-09,6.882595e-10,-0.007182245,3
68977351,0.95531017,-0.0077166273,0.0007404889,0.2955039,0.99997425,2.0154545e-09,6.882595e-10,-0.007182245,3
68982361,0.955307,-0.0077312007,0.00073218043,0.29551345,0.99997425,2.0154545e-09,6.882595e-10,-0.007182245,3
68987352,0.95530474,-0.007741932,0.0007256834,0.2955208,0.99997425,2.0154545e-09,6.882595e-10,-0.007182245,3
68992396,0.95530206,-0.0077500213,0.0007187471,0.29552892,0.99997425,2.0154545e-09,6.882595e-10,-0.007182245,3
68997352,0.9553005,-0.0077610943,0.0007135357,0.2955336,0.99997425,2.0154545e-09,6.882595e-10,-0.007182245,3
69002347,0.9553002,-0.0077717677,0.0007134422,0.29553443,0.99997425,2.0154545e-09,6.882595e-10,-0.007182245,3
69007349,0.95529974,-0.0077777044,0.00070905354,0.29553613,0.99997425,2.0154545e-09,6.882595e-10,-0.007182245,3
69012376,0.95529866,-0.0077847196,0.0007028522,0.2955394,0.99997425,2.0154545e-09,6.882595e-10,-0.007182245,3
69017350,0.9552971,-0.007795893,0.00069248315,0.29554376,0.99997425,2.0154545e-09,6.882595e-10,-0.007182245,3
69022391,0.95529485,-0.0078006177,0.0006868695,0.29555133,0.99997425,2.0154545e-09,6.882595e-10,-0.007182245,3
69027349,0.95529294,-0.0078021795,0.00068878965,0.29555747,0.99997425,2.0154545e-09,6.882595e-10,-0.007182245,3
69032368,0.95529073,-0.007803359,0.0006887429,0.29556414,0.99997425,2.0154545e-09,6.882595e-10,-0.007182245,3
69037350,0.9552881,-0.0078083393,0.00068562437,0.29557276,0.99997425,2.0154545e-09,6.882595e-10,-0.007182245,3
69042352,0.95528615,-0.0078089605,0.00068826735,0.29557914,0.99997425,2.0154545e-09,6.882595e-10,-0.007182245,3
69047349,0.95528543,-0.007814576,0.00068804936,0.29558122,0.99997425,2.0154545e-09,6.882595e-10,-0.007182245,3
69052396,0.9552839,-0.007815314,0.00068940216,0.29558626,0.99997425,2.0154545e-09,6.882595e-10,-0.007182245,3
69057349,0.95528156,-0.007824073,0.00068590394,0.2955935,0.99997425,2.0154545e-09,6.882595e-10,-0.007182245,3
69062377,0.9552802,-0.007822952,0.00068722136,0.29559785,0.99997425,2.0154545e-09,6.882595e-10,-0.007182245,3
69067347,0.955279,-0.007825048,0.0006895533,0.29560173,0.99997425,2.0154545e-09,6.882595e-10,-0.007182245,3
69072396,0.9552787,-0.007821981,0.00069076417,0.295603,0.99997425,2.0154545e-09,6.882595e-10,-0.007182245,3
69077350,0.9552781,-0.007821466,0.0006940627,0.29560497,0.99997425,2.0154545e-09,6.882595e-10,-0.007182245,3
69082347,0.9552773,-0.007820395,0.000696205,0.29560715,0.99997425,2.0154545e-09,6.882595e-10,-0.007182245,3
69087352,0.9552765,-0.0078121345,0.0006975198,0.29561004,0.99997425,2.0154545e-09,6.882595e-10,-0.007182245,3
69092361,0.9552751,-0.0078062853,0.000696051,0.29561472,0.99997425,2.0154545e-09,6.882595e-10,-0.007182245,3
69097350,0.95527345,-0.007800724,0.00070065673,0.29562038,0.99997425,2.0154545e-09,6.882595e-10,-0.007182245,3
69102347,0.95527256,-0.007790811,0.0007068499,0.29562345,0.99997425,2.0154545e-09,6.882595e-10,-0.007182245,3
69107394,0.95527035,-0.0077826907,0.0007066374,0.29563072,0.99997425,2.0154545e-09,6.882595e-10,-0.007182245,3
69112396,0.95526844,-0.007770298,0.0007100617,0.29563737,0.99997425,2.0154545e-09,6.882595e-10,-0.007182245,3
69117349,0.9552675,-0.0077602617,0.00071311364,0.29564056,0.99997425,2.0154545e-09,6.882595e-10,-0.007182245,3
69122347,0.95526594,-0.007749772,0.0007155924,0.29564574,0.99997425,2.0154545e-09,6.882595e-10,-0.007182245,3
69127375,0.9552656,-0.0077358563,0.0007155637,0.29564732,0.99997425,2.0154545e-09,6.882595e-10,-0.007182245,3
69132399,0.9552641,-0.007722188,0.000715826,0.2956526,0.99997425,2.0154545e-09,6.882595e-10,-0.007182245,3
69137350,0.95526373,-0.0077129826,0.0007237968,0.2956539,0.99997425,2.0154545e-09,6.882595e-10,-0.007182245,3
69142347,0.95526206,-0.007700745,0.000728098,0.2956596,0.99997425,2.0154545e-09,6.882595e-10,-0.007182245,3
69147350,0.95526147,-0.007686683,0.0007317277,0.29566187,0.99997425,2.0154545e-09,6.882595e-10,-0.007182245,3
69152374,0.95526147,-0.0076713273,0.00073903176,0.2956626,0.99997425,2.0154545e-09,6.882595e-10,-0.007182245,3
69157351,0.95526147,-0.0076545565,0.0007392944,0.2956626,0.99997425,2.0154545e-09,6.882595e-10,-0.007182245,3
69162351,0.955261,-0.0076450994,0.00074376457,0.29566476,0.99997425,2.0154545e-09,6.882595e-10,-0.007182245,3
69167364,0.95526123,-0.0076298346,0.0007544757,0.2956639,0.99997425,2.0154545e-09,6.882595e-10,-0.007182245,3
69172355,0.95526254,-0.0076200846,0.0007620405,0.29566032,0.99997425,2.0154545e-09,6.882595e-10,-0.007182245,3
69177369,0.9552622,-0.0076072104,0.0007686078,0.29566142,0.99997425,2.0154545e-09,6.882595e-10,-0.007182245,3
69182371,0.95526206,-0.0075875036,0.0007773379,0.29566234,0.99997425,2.0154545e-09,6.882595e-10,-0.007182245,3
69187354,0.9552633,-0.007567905,0.0007819827,0.29565883,0.99997425,2.0154545e-09,6.882595e-10,-0.007182245,3
69192400,0.9552638,-0.0075491606,0.0007890715,0.2956579,0.99997425,2.0154545e-09,6.882595e-10,-0.007182245,3
69197360,0.9552645,-0.0075265886,0.00079460617,0.29565609,0.99997425,2.0154545e-09,6.882595e-10,-0.007182245,3
69202347,0.9552642,-0.0075119166,0.00079839065,0.2956571,0.99997425,2.0154545e-09,6.882595e-10,-0.007182245,3
69207408,0.9552643,-0.007492116,0.0008045202,0.29565778,0.99997425,2.0154545e-09,6.882595e-10,-0.007182245,3
69212370,0.9552661,-0.007473405,0.0008129807,0.29565227,0.99997425,2.0154545e-09,6.882595e-10,-0.007182245,3
69217397,0.9552671,-0.0074593676,0.0008193711,0.29564926,0.99997425,2.0154545e-09,6.882595e-10,-0.007182245,3
69222394,0.9552685,-0.0074400054,0.0008261009,0.29564515,0.99997425,2.0154545e-09,6.882595e-10,-0.007182245,3
69227394,0.9552678,-0.007418679,0.0008262936,0.29564804,0.99997425,2.0154545e-09,6.882595e-10,-0.007182245,3
69232424,0.9552685,-0.007399462,0.00083124684,0.29564616,0.99997425,2.0154545e-09,6.882595e-10,-0.007182245,3
69237400,0.9552692,-0.007382202,0.00084066624,0.29564458,0.99997425,2.0154545e-09,6.882595e-10,-0.007182245,3
69242391,0.9552709,-0.007365226,0.00085079845,0.2956392,0.99997425,2.0154545e-09,6.882595e-10,-0.007182245,3
69247391,0.9552707,-0.007336113,0.0008561851,0.29564062,0.99997425,2.0154545e-09,6.882595e-10,-0.007182245,3
69257371,0.95526963,-0.007296548,0.0008716098,0.2956451,0.99997425,2.0154545e-09,6.882595e-10,-0.007182245,3
69262374,0.9552705,-0.0072734114,0.0008834605,0.2956426,0.99997425,2.0154545e-09,6.882595e-10,-0.007182245,3
69267369,0.95527315,-0.007255948,0.00088758377,0.29563484,0.99997425,2.0154545e-09,6.882595e-10,-0.007182245,3
69272388,0.9552747,-0.0072348705,0.0008911844,0.29563037,0.99997425,2.0154545e-09,6.882595e-10,-0.007182245,3
69277353,0.9552762,-0.007212355,0.0008988663,0.29562566,0.99997425,2.0154545e-09,6.882595e-10,-0.007182245,3
69282350,0.9552765,-0.007189533,0.00090440066,0.2956253,0.99997425,2.0154545e-09,6.882595e-10,-0.007182245,3
69287361,0.95527786,-0.0071661347,0.00091650913,0.29562142,0.99997425,2.0154545e-09,6.882595e-10,-0.007182245,3
69292400,0.9552786,-0.007147714,0.0009216441,0.29561982,0.99997425,2.0154545e-09,6.882595e-10,-0.007182245,3
69297395,0.95527846,-0.007125889,0.00092679996,0.29562035,0.99997425,2.0154545e-09,6.882595e-10,-0.007182245,3
69302347,0.95527893,-0.007105823,0.00093276915,0.29561928,0.99997425,2.0154545e-09,6.882595e-10,-0.007182245,3
69307347,0.9552791,-0.0070849555,0.00093996426,0.29561958,0.99997425,2.0154545e-09,6.882595e-10,-0.007182245,3
69312400,0.95527965,-0.0070643816,0.00094480533,0.295618,0.99997425,2.0154545e-09,6.882595e-10,-0.007182245,3
69317356,0.95527977,-0.007047655,0.0009467956,0.29561803,0.99997425,2.0154545e-09,6.882595e-10,-0.007182245,3
69322349,0.9552794,-0.0070273895,0.00095027394,0.2956199,0.99997425,2.0154545e-09,6.882595e-10,-0.007182245,3
69327359,0.95528066,-0.0070098154,0.0009590401,0.29561618,0.99997425,2.0154545e-09,6.882595e-10,-0.007182245,3
69332352,0.95528114,-0.0069882246,0.00096330565,0.2956148,0.99997425,2.0154545e-09,6.882595e-10,-0.007182245,3
69337370,0.95528036,-0.0069752745,0.00096640224,0.29561773,0.99997425,2.0154545e-09,6.882595e-10,-0.007182245,3
69342347,0.9552796,-0.0069613587,0.0009739676,0.29562056,0.99997425,2.0154545e-09,6.882595e-10,-0.007182245,3
69347347,0.9552794,-0.006948374,0.00097056414,0.29562145,0.99997425,2.0154545e-09,6.882595e-10,-0.007182245,3
69352396,0.9552785,-0.0069377595,0.00097305904,0.2956245,0.99997425,2.0154545e-09,6.882595e-10,-0.007182245,3
69357350,0.9552781,-0.006925637,0.000978443,0.29562625,0.99997425,2.0154545e-09,6.882595e-10,-0.007182245,3
69362347,0.9552784,-0.006914772,0.00098037,0.29562584,0.99997425,2.0154545e-09,6.882595e-10,-0.007182245,3
69367353,0.9552774,-0.0069029713,0.0009841926,0.29562923,0.99997425,2.0154545e-09,6.882595e-10,-0.007182245,3
69372397,0.9552771,-0.0068890736,0.0009924512,0.29563048,0.99997425,2.0154545e-09,6.882595e-10,-0.007182245,3
69377352,0.9552761,-0.0068847616,0.0009923154,0.29563373,0.99997425,2.0154545e-09,6.882595e-10,-0.007182245,3
69382347,0.9552753,-0.006877793,0.0009933286,0.29563653,0.99997425,2.0154545e-09,6.882595e-10,-0.007182245,3
69387356,0.95527524,-0.0068728565,0.0009904528,0.2956368,0.99997425,2.0154545e-09,6.882595e-10,-0.007182245,3
69392355,0.9552759,-0.006869312,0.00099167,0.29563463,0.99997425,2.0154545e-09,6.882595e-10,-0.007182245,3
69397354,0.9552756,-0.006878252,0.0009904855,0.29563543,0.99997425,2.0154545e-09,6.882595e-10,-0.007182245,3
69402353,0.9552768,-0.0068827663,0.0009929687,0.29563156,0.99997425,2.0154545e-09,6.882595e-10,-0.007182245,3
69407347,0.95527494,-0.006885283,0.0009941899,0.29563713,0.99997425,2.0154545e-09,6.882595e-10,-0.007182245,3
69412355,0.9552732,-0.0068843164,0.0009957188,0.29564312,0.99997425,2.0154545e-09,6.882595e-10,-0.007182245,3
69417347,0.9552711,-0.006889429,0.0009953361,0.29564962,0.99997425,2.0154545e-09,6.882595e-10,-0.007182245,3
69422347,0.9552724,-0.0068893516,0.0009926537,0.2956456,0.99997425,2.0154545e-09,6.882595e-10,-0.007182245,3
69427347,0.9552716,-0.0068967924,0.0009860824,0.29564798,0.99997425,2.0154545e-09,6.882595e-10,-0.007182245,3
69432397,0.9552706,-0.0069104396,0.0009848804,0.29565075,0.99997425,2.0154545e-09,6.882595e-10,-0.007182245,3
69437353,0.9552701,-0.006925084,0.000982363,0.29565233,0.99997425,2.0154545e-09,6.882595e-10,-0.007182245,3
69442391,0.9552697,-0.0069324495,0.0009809142,0.2956531,0.99997425,2.0154545e-09,6.882595e-10,-0.007182245,3
69447357,0.95526963,-0.006945549,0.00097627286,0.29565325,0.99997425,2.0154545e-09,6.882595e-10,-0.007182245,3
69452396,0.95526904,-0.006964351,0.00096899236,0.29565448,0.99997425,2.0154545e-09,6.882595e-10,-0.007182245,3
69457391,0.95526844,-0.006975784,0.00096383144,0.2956566,0.99997425,2.0154545e-09,6.882595e-10,-0.007182245,3
69462347,0.9552661,-0.006990543,0.0009564465,0.2956634,0.99997425,2.0154545e-09,6.882595e-10,-0.007182245,3
69467347,0.9552651,-0.0070062317,0.00095237803,0.29566664,0.99997425,2.0154545e-09,6.882595e-10,-0.007182245,3
69472400,0.9552645,-0.00702674,0.0009411902,0.2956681,0.99997425,2.0154545e-09,6.882595e-10,-0.007182245,3
69477356,0.9552649,-0.0070367833,0.0009366577,0.29566613,0.99997425,2.0154545e-09,6.882595e-10,-0.007182245,3
69482347,0.95526475,-0.007052894,0.00092535914,0.2956668,0.99997425,2.0154545e-09,6.882595e-10,-0.007182245,3
69487347,0.95526254,-0.0070689963,0.00091619807,0.29567328,0.99997425,2.0154545e-09,6.882595e-10,-0.007182245,3
69492400,0.95526206,-0.0070904843,0.00090844603,0.2956747,0.99997425,2.0154545e-09,6.882595e-10,-0.007182245,3
69497347,0.9552617,-0.0071125953,0.0009014856,0.29567498,0.99997425,2.0154545e-09,6.882595e-10,-0.007182245,3
69502347,0.9552607,-0.0071345903,0.0008883947,0.2956778,0.99997425,2.0154545e-09,6.882595e-10,-0.007182245,3
69507347,0.95526147,-0.0071556717,0.00088112196,0.2956751,0.99997425,2.0154545e-09,6.882595e-10,-0.007182245,3
69512396,0.9552604,-0.007182899,0.000869589,0.29567736,0.99997425,2.0154545e-09,6.882595e-10,-0.007182245,3
69517347,0.95525974,-0.0072052283,0.00085678283,0.29567933,0.99997425,2.0154545e-09,6.882595e-10,-0.007182245,3
69522347,0.95525855,-0.007228803,0.00084728235,0.29568267,0.99997425,2.0154545e-09,6.882595e-10,-0.007182245,3
69527347,0.9552567,-0.007252095,0.00083635916,0.2956881,0.99997425,2.0154545e-09,6.882595e-10,-0.007182245,3
69532358,0.9552542,-0.007273812,0.00082610047,0.29569575,0.99997425,2.0154545e-09,6.882595e-10,-0.007182245,3
69537347,0.95525336,-0.0073005073,0.00081587257,0.29569793,0.99997425,2.0154545e-09,6.882595e-10,-0.007182245,3
69542347,0.95525295,-0.007320016,0.0008099198,0.29569852,0.99997425,2.0154545e-09,6.882595e-10,-0.007182245,3
69547372,0.95525205,-0.007342357,0.0008020603,0.29570085,0.99997425,2.0154545e-09,6.882595e-10,-0.007182245,3
69552396,0.9552499,-0.0073666456,0.0008014734,0.29570714,0.99997425,2.0154545e-09,6.882595e-10,-0.007182245,3
69557347,0.95524746,-0.0073946314,0.0007933502,0.29571474,0.99997425,2.0154545e-09,6.882595e-10,-0.007182245,3
69562347,0.95524555,-0.007425071,0.0007840392,0.29571968,0.99997425,2.0154545e-09,6.882595e-10,-0.007182245,3
69567347,0.95524436,-0.0074486653,0.00077617465,0.29572305,0.99997425,2.0154545e-09,6.882595e-10,-0.007182245,3
69572396,0.95524204,-0.007480012,0.0007663605,0.29572985,0.99997425,2.0154545e-09,6.882595e-10,-0.007182245,3
69577349,0.9552405,-0.0075069717,0.0007541465,0.29573408,0.99997425,2.0154545e-09,6.882595e-10,-0.007182245,3
69582347,0.95523953,-0.007531797,0.00074208033,0.29573667,0.99997425,2.0154545e-09,6.882595e-10,-0.007182245,3
69587347,0.9552382,-0.007560114,0.0007296704,0.29574051,0.99997425,2.0154545e-09,6.882595e-10,-0.007182245,3
69592396,0.9552362,-0.0075893365,0.00071754376,0.2957459,0.99997425,2.0154545e-09,6.882595e-10,-0.007182245,3
69597347,0.9552345,-0.0076165185,0.00070810784,0.29575107,0.99997425,2.0154545e-09,6.882595e-10,-0.007182245,3
69602348,0.95523286,-0.0076447176,0.0006977256,0.29575577,0.99997425,2.0154545e-09,6.882595e-10,-0.007182245,3
69607355,0.95523,-0.007673271,0.00068750937,0.29576388,0.99997425,2.0154545e-09,6.882595e-10,-0.007182245,3
69612396,0.95522714,-0.007701779,0.00067285466,0.29577276,0.99997425,2.0154545e-09,6.882595e-10,-0.007182245,3
69617350,0.9552255,-0.007726063,0.00066546805,0.29577705,0.99997425,2.0154545e-09,6.882595e-10,-0.007182245,3
69622350,0.95522374,-0.0077558076,0.0006535854,0.2957821,0.99997425,2.0154545e-09,6.882595e-10,-0.007182245,3
69627361,0.9552231,-0.007776516,0.0006418388,0.2957836,0.99997425,2.0154545e-09,6.882595e-10,-0.007182245,3
69632399,0.95522255,-0.007798276,0.00063092203,0.29578483,0.99997425,2.0154545e-09,6.882595e-10,-0.007182245,3
69637350,0.9552209,-0.007823362,0.00062482647,0.2957897,0.99997425,2.0154545e-09,6.882595e-10,-0.007182245,3
69642350,0.95522004,-0.007847018,0.0006142203,0.29579183,0.99997425,2.0154545e-09,6.882595e-10,-0.007182245,3
69647350,0.9552193,-0.007860144,0.00060784805,0.29579377,0.99997425,2.0154545e-09,6.882595e-10,-0.007182245,3
69652388,0.95521855,-0.007870335,0.00060155976,0.29579595,0.99997425,2.0154545e-09,6.882595e-10,-0.007182245,3
69657354,0.9552188,-0.007889989,0.0005984182,0.29579467,0.99997425,2.0154545e-09,6.882595e-10,-0.007182245,3
69662350,0.9552173,-0.007903538,0.00059391966,0.2957992,0.99997425,2.0154545e-09,6.882595e-10,-0.007182245,3
69667350,0.95521575,-0.007920842,0.0005901373,0.29580367,0.99997425,2.0154545e-09,6.882595e-10,-0.007182245,3
69672361,0.9552144,-0.007929608,0.00058168155,0.2958079,0.99997425,2.0154545e-09,6.882595e-10,-0.007182245,3
69677350,0.9552136,-0.007941487,0.00057487236,0.29581013,0.99997425,2.0154545e-09,6.882595e-10,-0.007182245,3
69682352,0.95521384,-0.007950601,0.0005730272,0.29580915,0.99997425,2.0154545e-09,6.882595e-10,-0.007182245,3
69687350,0.955213,-0.00796177,0.00057194516,0.2958113,0.99997425,2.0154545e-09,6.882595e-10,-0.007182245,3
69692382,0.9552126,-0.007973412,0.00057157176,0.2958127,0.99997425,2.0154545e-09,6.882595e-10,-0.007182245,3
69697347,0.9552124,-0.007979629,0.0005684698,0.295813,0.99997425,2.0154545e-09,6.882595e-10,-0.007182245,3
69702347,0.9552111,-0.007981327,0.000569079,0.29581717,0.99997425,2.0154545e-09,6.882595e-10,-0.007182245,3
69707353,0.9552107,-0.007985309,0.00056876556,0.29581842,0.99997425,2.0154545e-09,6.882595e-10,-0.007182245,3
69712396,0.95521075,-0.007989641,0.000562202,0.29581812,0.99997425,2.0154545e-09,6.882595e-10,-0.007182245,3
69717368,0.9552091,-0.007989359,0.0005636491,0.29582345,0.99997425,2.0154545e-09,6.882595e-10,-0.007182245,3
69722347,0.9552088,-0.007991242,0.0005603815,0.29582453,0.99997425,2.0154545e-09,6.882595e-10,-0.007182245,3
69727351,0.9552065,-0.007992507,0.00055943546,0.29583177,0.99997425,2.0154545e-09,6.882595e-10,-0.007182245,3
69732360,0.95520556,-0.007981732,0.00056296296,0.2958349,0.99997425,2.0154545e-09,6.882595e-10,-0.007182245,3
69737347,0.9552056,-0.007980613,0.00056417426,0.29583478,0.99997425,2.0154545e-09,6.882595e-10,-0.007182245,3
69742347,0.9552061,-0.007978115,0.0005578667,0.29583335,0.99997425,2.0154545e-09,6.882595e-10,-0.007182245,3
69747347,0.9552059,-0.0079789525,0.0005588169,0.29583424,0.99997425,2.0154545e-09,6.882595e-10,-0.007182245,3
69752396,0.95520574,-0.007972506,0.00056356826,0.29583496,0.99997425,2.0154545e-09,6.882595e-10,-0.007182245,3
69757395,0.9552065,-0.0079614865,0.0005646303,0.29583275,0.99997425,2.0154545e-09,6.882595e-10,-0.007182245,3
69762347,0.95520604,-0.007946474,0.00056798843,0.29583436,0.99997425,2.0154545e-09,6.882595e-10,-0.007182245,3
69767347,0.95520616,-0.007938899,0.00057261117,0.2958342,0.99997425,2.0154545e-09,6.882595e-10,-0.007182245,3
69772397,0.9552064,-0.007929751,0.0005766876,0.29583356,0.99997425,2.0154545e-09,6.882595e-10,-0.007182245,3
69777350,0.9552059,-0.007913441,0.00057716056,0.29583547,0.99997425,2.0154545e-09,6.882595e-10,-0.007182245,3
69782350,0.9552064,-0.007896129,0.0005832994,0.29583463,0.99997425,2.0154545e-09,6.882595e-10,-0.007182245,3
69787347,0.9552069,-0.007873733,0.0005820902,0.29583365,0.99997425,2.0154545e-09,6.882595e-10,-0.007182245,3
69792396,0.95520794,-0.007848721,0.00057644164,0.29583076,0.99997425,2.0154545e-09,6.882595e-10,-0.007182245,3
69797370,0.9552096,-0.007836189,0.00057350507,0.29582605,0.99997425,2.0154545e-09,6.882595e-10,-0.007182245,3
69802347,0.95520884,-0.007815192,0.0005767173,0.29582876,0.99997425,2.0154545e-09,6.882595e-10,-0.007182245,3
69807347,0.95520777,-0.007789117,0.00058394193,0.29583302,0.99997425,2.0154545e-09,6.882595e-10,-0.007182245,3
69812396,0.9552068,-0.007761164,0.0005857774,0.29583693,0.99997425,2.0154545e-09,6.882595e-10,-0.007182245,3
69817350,0.9552072,-0.007731304,0.0005902836,0.29583633,0.99997425,2.0154545e-09,6.882595e-10,-0.007182245,3
69822358,0.95520556,-0.007703611,0.0005970288,0.29584247,0.99997425,2.0154545e-09,6.882595e-10,-0.007182245,3
69827354,0.9552038,-0.0076736086,0.00060300704,0.29584894,0.99997425,2.0154545e-09,6.882595e-10,-0.007182245,3
69832394,0.9552008,-0.0076403953,0.0006083582,0.29585937,0.99997425,2.0154545e-09,6.882595e-10,-0.007182245,3
69837350,0.9551993,-0.0076184385,0.000606636,0.29586485,0.99997425,2.0154545e-09,6.882595e-10,-0.007182245,3
69842394,0.9551977,-0.0075957845,0.0006055649,0.29587033,0.99997425,2.0154545e-09,6.882595e-10,-0.007182245,3
69847349,0.95519286,-0.0075682322,0.0006079709,0.29588687,0.99997425,2.0154545e-09,6.882595e-10,-0.007182245,3
69852373,0.9551874,-0.007543383,0.00061504124,0.29590505,0.99997425,2.0154545e-09,6.882595e-10,-0.007182245,3
69857350,0.95518386,-0.0075178216,0.0006180986,0.29591745,0.99997425,2.0154545e-09,6.882595e-10,-0.007182245,3
69862381,0.95517933,-0.0074920435,0.000615143,0.29593238,0.99997425,2.0154545e-09,6.882595e-10,-0.007182245,3
69867347,0.955176,-0.007457823,0.000616657,0.29594395,0.99997425,2.0154545e-09,6.882595e-10,-0.007182245,3
69872364,0.9551715,-0.007421628,0.0006175592,0.29595953,0.99997425,2.0154545e-09,6.882595e-10,-0.007182245,3
69877357,0.9551675,-0.0073937634,0.00061824115,0.2959732,0.99997425,2.0154545e-09,6.882595e-10,-0.007182245,3
69882380,0.9551645,-0.0073665767,0.00061668426,0.2959835,0.99997425,2.0154545e-09,6.882595e-10,-0.007182245,3
69887361,0.95515954,-0.00733938,0.00062475784,0.29599988,0.99997425,2.0154545e-09,6.882595e-10,-0.007182245,3
69892404,0.95515627,-0.0073128655,0.0006330885,0.29601145,0.99997425,2.0154545e-09,6.882595e-10,-0.007182245,3
69897388,0.9551556,-0.007283866,0.0006435929,0.29601422,0.99997425,2.0154545e-09,6.882595e-10,-0.007182245,3
69902352,0.9551584,-0.0072575575,0.0006550095,0.29600564,0.99997425,2.0154545e-09,6.882595e-10,-0.007182245,3
69907352,0.9551613,-0.00723629,0.0006641412,0.29599693,0.99997425,2.0154545e-09,6.882595e-10,-0.007182245,3
69912353,0.9551656,-0.007200788,0.00068046316,0.29598373,0.99997425,2.0154545e-09,6.882595e-10,-0.007182245,3
69917347,0.9551706,-0.00716639,0.00069455703,0.29596844,0.99997425,2.0154545e-09,6.882595e-10,-0.007182245,3
69922349,0.9551773,-0.007138635,0.00070326286,0.29594737,0.99997425,2.0154545e-09,6.882595e-10,-0.007182245,3
69927347,0.95518416,-0.0071164262,0.000713947,0.2959258,0.99997425,2.0154545e-09,6.882595e-10,-0.007182245,3
69932370,0.95519143,-0.007092964,0.0007297079,0.29590285,0.99997425,2.0154545e-09,6.882595e-10,-0.007182245,3
69937395,0.95520014,-0.007065182,0.00074872473,0.29587552,0.99997425,2.0154545e-09,6.882595e-10,-0.007182245,3
69942391,0.95521027,-0.0070391726,0.0007645165,0.29584315,0.99997425,2.0154545e-09,6.882595e-10,-0.007182245,3
69947408,0.95522064,-0.007008245,0.0007778641,0.29581073,0.99997425,2.0154545e-09,6.882595e-10,-0.007182245,3
69952405,0.9552323,-0.006983015,0.00079717056,0.29577333,0.99997425,2.0154545e-09,6.882595e-10,-0.007182245,3
69957369,0.95524555,-0.0069573983,0.0008181665,0.2957313,0.99997425,2.0154545e-09,6.882595e-10,-0.007182245,3
69962369,0.95525753,-0.006939753,0.0008462249,0.29569295,0.99997425,2.0154545e-09,6.882595e-10,-0.007182245,3
69967394,0.95527136,-0.0069203908,0.0008764598,0.2956486,0.99997425,2.0154545e-09,6.882595e-10,-0.007182245,3
69972379,0.9552854,-0.006893823,0.00090919854,0.29560387,0.99997425,2.0154545e-09,6.882595e-10,-0.007182245,3
69977384,0.95529956,-0.0068729273,0.0009404706,0.29555836,0.99997425,2.0154545e-09,6.882595e-10,-0.007182245,3
69982373,0.9553129,-0.0068531325,0.0009669573,0.29551524,0.99997425,2.0154545e-09,6.882595e-10,-0.007182245,3
69987378,0.9553293,-0.00683449,0.0009921326,0.29546264,0.99997425,2.0154545e-09,6.882595e-10,-0.007182245,3
69992405,0.9553448,-0.006813642,0.001006523,0.29541343,0.99997425,2.0154545e-09,6.882595e-10,-0.007182245,3
69997353,0.9553583,-0.0067801266,0.001025249,0.2953699,0.99997425,2.0154545e-09,6.882595e-10,-0.007182245,3
70002357,0.9553731,-0.00674549,0.001045068,0.2953231,0.99997425,2.0154545e-09,6.882595e-10,-0.007182245,3
70007347,0.95538884,-0.006711572,0.0010688214,0.29527283,0.99997425,2.0154545e-09,6.882595e-10,-0.007182245,3
70012402,0.9554048,-0.0066707316,0.0010969713,0.29522192,0.99997425,2.0154545e-09,6.882595e-10,-0.007182245,3
70017356,0.9554197,-0.006631412,0.0011223527,0.29517454,0.99997425,2.0154545e-09,6.882595e-10,-0.007182245,3
70022347,0.95543456,-0.0065889293,0.0011415575,0.2951273,0.99997425,2.0154545e-09,6.882595e-10,-0.007182245,3
70027356,0.955448,-0.006539654,0.0011540566,0.2950851,0.99997425,2.0154545e-09,6.882595e-10,-0.007182245,3
70032353,0.95545816,-0.006488244,0.0011488543,0.29505306,0.99997425,2.0154545e-09,6.882595e-10,-0.007182245,3
70037349,0.95546573,-0.0064437557,0.0011379144,0.29502973,0.99997425,2.0154545e-09,6.882595e-10,-0.007182245,3
70042347,0.9554707,-0.006412503,0.001126687,0.29501438,0.99997425,2.0154545e-09,6.882595e-10,-0.007182245,3
70047347,0.9554711,-0.006382691,0.0011205783,0.29501367,0.99997425,2.0154545e-09,6.882595e-10,-0.007182245,3
70052379,0.9554708,-0.006363306,0.0011021191,0.2950154,0.99997425,2.0154545e-09,6.882595e-10,-0.007182245,3
70057350,0.9554671,-0.00635948,0.0010857711,0.295027,0.99997425,2.0154545e-09,6.882595e-10,-0.007182245,3
70062376,0.95546067,-0.0063530407,0.0010745879,0.2950484,0.99997425,2.0154545e-09,6.882595e-10,-0.007182245,3
70067347,0.95544845,-0.0063402043,0.0010638464,0.29508814,0.99997425,2.0154545e-09,6.882595e-10,-0.007182245,3
70072381,0.9554354,-0.006314468,0.0010450573,0.29513088,0.99997425,2.0154545e-09,6.882595e-10,-0.007182245,3
70077356,0.9554203,-0.006285494,0.0010189266,0.29518047,0.99997425,2.0154545e-09,6.882595e-10,-0.007182245,3
70082347,0.95539993,-0.0062427595,0.0009859857,0.2952474,0.99997425,2.0154545e-09,6.882595e-10,-0.007182245,3
70087357,0.955379,-0.0061975312,0.00095407065,0.2953163,0.99997425,2.0154545e-09,6.882595e-10,-0.007182245,3
70092388,0.95535386,-0.0061563803,0.00093381084,0.29539853,0.99997425,2.0154545e-09,6.882595e-10,-0.007182245,3
70097356,0.95532775,-0.0061287964,0.0009207457,0.29548347,0.99997425,2.0154545e-09,6.882595e-10,-0.007182245,3
70102347,0.95530176,-0.006107911,0.0009062992,0.29556808,0.99997425,2.0154545e-09,6.882595e-10,-0.007182245,3
70107347,0.95527434,-0.0060921805,0.0008877056,0.29565704,0.99997425,2.0154545e-09,6.882595e-10,-0.007182245,3
70112363,0.9552453,-0.0060850726,0.0008664025,0.295751,0.99997425,2.0154545e-09,6.882595e-10,-0.007182245,3
70117356,0.9552165,-0.006090854,0.00084137736,0.29584405,0.99997425,2.0154545e-09,6.882595e-10,-0.007182245,3
70122347,0.95519066,-0.0061051166,0.0007982498,0.29592744,0.99997425,2.0154545e-09,6.882595e-10,-0.007182245,3
70127347,0.95516557,-0.0061125276,0.0007478781,0.2960085,0.99997425,2.0154545e-09,6.882595e-10,-0.007182245,3
70132398,0.95514196,-0.0061282264,0.0006978601,0.2960842,0.99997425,2.0154545e-09,6.882595e-10,-0.007182245,3
70137347,0.9551228,-0.006153999,0.0006520122,0.29614547,0.99997425,2.0154545e-09,6.882595e-10,-0.007182245,3
70142347,0.95510757,-0.0061763832,0.00061666075,0.29619434,0.99997425,2.0154545e-09,6.882595e-10,-0.007182245,3
70147347,0.95509523,-0.0061971447,0.0006018618,0.29623365,0.99997425,2.0154545e-09,6.882595e-10,-0.007182245,3
70152399,0.9550889,-0.0062191775,0.000608653,0.29625362,0.99997425,2.0154545e-09,6.882595e-10,-0.007182245,3
70157347,0.95509005,-0.0062347827,0.0006231514,0.2962497,0.99997425,2.0154545e-09,6.882595e-10,-0.007182245,3
70162347,0.95509577,-0.006251155,0.00063642283,0.2962306,0.99997425,2.0154545e-09,6.882595e-10,-0.007182245,3
70167347,0.955108,-0.0062474622,0.0006480536,0.29619136,0.99997425,2.0154545e-09,6.882595e-10,-0.007182245,3
70172396,0.95512605,-0.0062350575,0.00065474526,0.29613367,0.99997425,2.0154545e-09,6.882595e-10,-0.007182245,3
70177387,0.9551471,-0.0062275995,0.00065081404,0.29606566,0.99997425,2.0154545e-09,6.882595e-10,-0.007182245,3
70182347,0.95517343,-0.006210734,0.00064305036,0.29598126,0.99997425,2.0154545e-09,6.882595e-10,-0.007182245,3
70187347,0.9552062,-0.0061902762,0.00064927345,0.29587582,0.99997425,2.0154545e-09,6.882595e-10,-0.007182245,3
70192396,0.95524156,-0.0061721415,0.00066992635,0.29576164,0.99997425,2.0154545e-09,6.882595e-10,-0.007182245,3
70197349,0.9552798,-0.006143613,0.0007113134,0.29563898,0.99997425,2.0154545e-09,6.882595e-10,-0.007182245,3
70202356,0.9553205,-0.006114597,0.0007574038,0.29550782,0.99997425,2.0154545e-09,6.882595e-10,-0.007182245,3
70207347,0.95536083,-0.0060981326,0.0007974032,0.29537734,0.99997425,2.0154545e-09,6.882595e-10,-0.007182245,3
70212361,0.95539725,-0.0060846345,0.00083658786,0.29525986,0.99997425,2.0154545e-09,6.882595e-10,-0.007182245,3
70217369,0.955429,-0.006080221,0.0008672885,0.29515713,0.99997425,2.0154545e-09,6.882595e-10,-0.007182245,3
70222347,0.955454,-0.00607856,0.00088925107,0.29507643,0.99997425,2.0154545e-09,6.882595e-10,-0.007182245,3
70227356,0.955474,-0.006100056,0.0009130459,0.2950108,0.99997425,2.0154545e-09,6.882595e-10,-0.007182245,3
70232397,0.95548785,-0.0061357943,0.0009516541,0.29496527,0.99997425,2.0154545e-09,6.882595e-10,-0.007182245,3
70237357,0.95549196,-0.0061940104,0.0009958846,0.29495054,0.99997425,2.0154545e-09,6.882595e-10,-0.007182245,3
70242347,0.95548844,-0.0062519135,0.0010541185,0.2949606,0.99997425,2.0154545e-09,6.882595e-10,-0.007182245,3
70247347,0.9554749,-0.0063054,0.0011115238,0.29500303,0.99997425,2.0154545e-09,6.882595e-10,-0.007182245,3
70252396,0.9554543,-0.006351848,0.001166112,0.2950687,0.99997425,2.0154545e-09,6.882595e-10,-0.007182245,3
70257349,0.95542836,-0.006376582,0.0011990184,0.2951519,0.99997425,2.0154545e-09,6.882595e-10,-0.007182245,3
70262347,0.9553923,-0.0064006117,0.001220835,0.2952679,0.99997425,2.0154545e-09,6.882595e-10,-0.007182245,3
70267364,0.95534855,-0.0064044814,0.0012272663,0.29540947,0.99997425,2.0154545e-09,6.882595e-10,-0.007182245,3
70272352,0.9553023,-0.006404809,0.0012242396,0.29555905,0.99997425,2.0154545e-09,6.882595e-10,-0.007182245,3
70277349,0.95525104,-0.006404529,0.0012171791,0.2957247,0.99997425,2.0154545e-09,6.882595e-10,-0.007182245,3
70282396,0.95519847,-0.0064108036,0.0012168739,0.29589397,0.99997425,2.0154545e-09,6.882595e-10,-0.007182245,3
70287354,0.95514494,-0.006432542,0.001215299,0.29606634,0.99997425,2.0154545e-09,6.882595e-10,-0.007182245,3
70292396,0.95509076,-0.0064614173,0.0012120921,0.2962406,0.99997425,2.0154545e-09,6.882595e-10,-0.007182245,3
70297356,0.9550392,-0.0065008677,0.0012062172,0.296406,0.99997425,2.0154545e-09,6.882595e-10,-0.007182245,3
70302354,0.95499,-0.0065559894,0.0011941574,0.29656324,0.99997425,2.0154545e-09,6.882595e-10,-0.007182245,3
70307349,0.9549453,-0.0066146045,0.0011718967,0.29670602,0.99997425,2.0154545e-09,6.882595e-10,-0.007182245,3
70312396,0.95490706,-0.0066756564,0.001142429,0.29682755,0.99997425,2.0154545e-09,6.882595e-10,-0.007182245,3
70317350,0.954875,-0.0067333668,0.0011057248,0.29692963,0.99997425,2.0154545e-09,6.882595e-10,-0.007182245,3
70322351,0.9548524,-0.006779114,0.00106324,0.2970015,0.99997425,2.0154545e-09,6.882595e-10,-0.007182245,3
70327350,0.95483834,-0.0068129417,0.0010239463,0.29704604,0.99997425,2.0154545e-09,6.882595e-10,-0.007182245,3
70332363,0.9548328,-0.0068293246,0.0009896125,0.2970639,0.99997425,2.0154545e-09,6.882595e-10,-0.007182245,3
70337354,0.9548373,-0.00684607,0.0009651752,0.29704884,0.99997425,2.0154545e-09,6.882595e-10,-0.007182245,3
70342350,0.9548489,-0.00687036,0.0009524983,0.2970111,0.99997425,2.0154545e-09,6.882595e-10,-0.007182245,3
70347358,0.9548679,-0.006884908,0.0009505214,0.2969496,0.99997425,2.0154545e-09,6.882595e-10,-0.007182245,3
70352396,0.95489454,-0.006891085,0.0009564709,0.29686394,0.99997425,2.0154545e-09,6.882595e-10,-0.007182245,3
70357362,0.9549258,-0.0069009955,0.00096639764,0.29676312,0.99997425,2.0154545e-09,6.882595e-10,-0.007182245,3
70362350,0.9549633,-0.006913389,0.0009721203,0.29664195,0.99997425,2.0154545e-09,6.882595e-10,-0.007182245,3
70367350,0.95500374,-0.006924219,0.0009731965,0.29651135,0.99997425,2.0154545e-09,6.882595e-10,-0.007182245,3
70372396,0.95504844,-0.0069207456,0.0009785232,0.2963672,0.99997425,2.0154545e-09,6.882595e-10,-0.007182245,3
70377353,0.9550942,-0.006915393,0.0009856065,0.2962203,0.99997425,2.0154545e-09,6.882595e-10,-0.007182245,3
70382359,0.955142,-0.006905315,0.0009941043,0.29606596,0.99997425,2.0154545e-09,6.882595e-10,-0.007182245,3
70387391,0.95519024,-0.0068956222,0.0009987197,0.29591054,0.99997425,2.0154545e-09,6.882595e-10,-0.007182245,3
70392396,0.95523685,-0.0068954187,0.001003562,0.2957601,0.99997425,2.0154545e-09,6.882595e-10,-0.007182245,3
70397347,0.9552821,-0.006903339,0.0010084253,0.29561377,0.99997425,2.0154545e-09,6.882595e-10,-0.007182245,3
70402352,0.9553246,-0.0069220946,0.0010106898,0.29547605,0.99997425,2.0154545e-09,6.882595e-10,-0.007182245,3
70407356,0.9553621,-0.006944366,0.0010142941,0.29535434,0.99997425,2.0154545e-09,6.882595e-10,-0.007182245,3
70412399,0.9553952,-0.0069768736,0.0009966646,0.29524606,0.99997425,2.0154545e-09,6.882595e-10,-0.007182245,3
70417357,0.95542526,-0.0069994936,0.0009804787,0.29514882,0.99997425,2.0154545e-09,6.882595e-10,-0.007182245,3
70422347,0.9554489,-0.007015756,0.00095957215,0.29507172,0.99997425,2.0154545e-09,6.882595e-10,-0.007182245,3
70427359,0.9554709,-0.0070255944,0.00093864545,0.29500017,0.99997425,2.0154545e-09,6.882595e-10,-0.007182245,3
70432396,0.95548624,-0.0070269257,0.00091053155,0.29495054,0.99997425,2.0154545e-09,6.882595e-10,-0.007182245,3
70437347,0.9554968,-0.0070229964,0.0008828791,0.29491672,0.99997425,2.0154545e-09,6.882595e-10,-0.007182245,3
70442349,0.95550245,-0.007007212,0.0008595397,0.29489872,0.99997425,2.0154545e-09,6.882595e-10,-0.007182245,3
70447347,0.95550203,-0.0069914404,0.0008402162,0.29490075,0.99997425,2.0154545e-09,6.882595e-10,-0.007182245,3
70452396,0.95549744,-0.006965853,0.0008215009,0.29491612,0.99997425,2.0154545e-09,6.882595e-10,-0.007182245,3
70457347,0.95548946,-0.0069521465,0.00080440845,0.29494232,0.99997425,2.0154545e-09,6.882595e-10,-0.007182245,3
70462347,0.95547885,-0.006934232,0.0007827866,0.2949771,0.99997425,2.0154545e-09,6.882595e-10,-0.007182245,3
70467347,0.9554648,-0.006918056,0.00076739216,0.29502335,0.99997425,2.0154545e-09,6.882595e-10,-0.007182245,3
70472365,0.9554471,-0.006906606,0.00075115025,0.29508066,0.99997425,2.0154545e-09,6.882595e-10,-0.007182245,3
70477355,0.955429,-0.006899609,0.0007411039,0.29513964,0.99997425,2.0154545e-09,6.882595e-10,-0.007182245,3
70482347,0.9554077,-0.006898921,0.0007353659,0.29520836,0.99997425,2.0154545e-09,6.882595e-10,-0.007182245,3
70487347,0.9553869,-0.006905133,0.0007356478,0.29527584,0.99997425,2.0154545e-09,6.882595e-10,-0.007182245,3
70492383,0.9553646,-0.006921845,0.00073097483,0.29534757,0.99997425,2.0154545e-09,6.882595e-10,-0.007182245,3
70497350,0.9553437,-0.006937246,0.0007252465,0.2954146,0.99997425,2.0154545e-09,6.882595e-10,-0.007182245,3
70502347,0.9553233,-0.0069575985,0.00071729464,0.29548022,0.99997425,2.0154545e-09,6.882595e-10,-0.007182245,3
70507347,0.95530343,-0.0069776205,0.0006979577,0.29554397,0.99997425,2.0154545e-09,6.882595e-10,-0.007182245,3
70512350,0.95528513,-0.0069871284,0.0006788753,0.2956028,0.99997425,2.0154545e-09,6.882595e-10,-0.007182245,3
70517350,0.9552702,-0.0069852844,0.0006582937,0.29565158,0.99997425,2.0154545e-09,6.882595e-10,-0.007182245,3
70522350,0.955257,-0.006973235,0.00064445613,0.29569408,0.99997425,2.0154545e-09,6.882595e-10,-0.007182245,3
70527350,0.95524615,-0.006964816,0.0006299402,0.29572973,0.99997425,2.0154545e-09,6.882595e-10,-0.007182245,3
70532396,0.9552365,-0.006948596,0.0006185231,0.2957613,0.99997425,2.0154545e-09,6.882595e-10,-0.007182245,3
70537356,0.9552302,-0.006924255,0.00061450084,0.29578197,0.99997425,2.0154545e-09,6.882595e-10,-0.007182245,3
70542361,0.95522594,-0.0068937168,0.00061144104,0.29579672,0.99997425,2.0154545e-09,6.882595e-10,-0.007182245,3
70547356,0.95522463,-0.006874878,0.00060672464,0.295801,0.99997425,2.0154545e-09,6.882595e-10,-0.007182245,3
70552380,0.955225,-0.006851075,0.00060175394,0.29580066,0.99997425,2.0154545e-09,6.882595e-10,-0.007182245,3
70557366,0.95522827,-0.0068338215,0.00060120795,0.2957905,0.99997425,2.0154545e-09,6.882595e-10,-0.007182245,3
70562393,0.9552312,-0.0068236543,0.00060239877,0.29578128,0.99997425,2.0154545e-09,6.882595e-10,-0.007182245,3
70567358,0.9552373,-0.0068156207,0.0006100486,0.29576167,0.99997425,2.0154545e-09,6.882595e-10,-0.007182245,3
70572355,0.9552444,-0.0068082176,0.0006157547,0.29573888,0.99997425,2.0154545e-09,6.882595e-10,-0.007182245,3
70577357,0.95525354,-0.006802873,0.0006136366,0.29570958,0.99997425,2.0154545e-09,6.882595e-10,-0.007182245,3
70582368,0.9552625,-0.006799314,0.0006205139,0.2956808,0.99997425,2.0154545e-09,6.882595e-10,-0.007182245,3
70587377,0.95527303,-0.006794374,0.0006219009,0.29564682,0.99997425,2.0154545e-09,6.882595e-10,-0.007182245,3
70592386,0.9552829,-0.006791948,0.0006315466,0.29561448,0.99997425,2.0154545e-09,6.882595e-10,-0.007182245,3
70597398,0.9552947,-0.006791522,0.0006503927,0.29557648,0.99997425,2.0154545e-09,6.882595e-10,-0.007182245,3
70602361,0.95530593,-0.0067938026,0.0006755547,0.2955402,0.99997425,2.0154545e-09,6.882595e-10,-0.007182245,3
70607366,0.95531666,-0.0067980755,0.0007095552,0.29550555,0.99997425,2.0154545e-09,6.882595e-10,-0.007182245,3
70612390,0.9553264,-0.00680328,0.0007391414,0.2954739,0.99997425,2.0154545e-09,6.882595e-10,-0.007182245,3
70617347,0.9553358,-0.006804507,0.00077162543,0.29544306,0.99997425,2.0154545e-09,6.882595e-10,-0.007182245,3
70622350,0.9553449,-0.006803301,0.00080786314,0.29541346,0.99997425,2.0154545e-09,6.882595e-10,-0.007182245,3
70627347,0.95535403,-0.006797965,0.00083836383,0.29538417,0.99997425,2.0154545e-09,6.882595e-10,-0.007182245,3
70632371,0.9553604,-0.0067819613,0.0008658208,0.29536387,0.99997425,2.0154545e-09,6.882595e-10,-0.007182245,3
70637361,0.955367,-0.0067655104,0.00089001865,0.29534295,0.99997425,2.0154545e-09,6.882595e-10,-0.007182245,3
70642406,0.9553716,-0.006739225,0.0009103906,0.2953283,0.99997425,2.0154545e-09,6.882595e-10,-0.007182245,3
70647380,0.95537716,-0.006714385,0.00092566805,0.2953112,0.99997425,2.0154545e-09,6.882595e-10,-0.007182245,3
70652384,0.95538026,-0.006698698,0.0009356057,0.29530144,0.99997425,2.0154545e-09,6.882595e-10,-0.007182245,3
70657379,0.9553834,-0.0066841203,0.00094314833,0.2952915,0.99997425,2.0154545e-09,6.882595e-10,-0.007182245,3
70662391,0.9553845,-0.00667706,0.0009498756,0.29528785,0.99997425,2.0154545e-09,6.882595e-10,-0.007182245,3
70667393,0.95538557,-0.0066698813,0.0009547599,0.29528487,0.99997425,2.0154545e-09,6.882595e-10,-0.007182245,3
70672365,0.95538485,-0.006665636,0.0009590544,0.29528734,0.99997425,2.0154545e-09,6.882595e-10,-0.007182245,3
70677372,0.9553836,-0.006659765,0.0009626391,0.29529122,0.99997425,2.0154545e-09,6.882595e-10,-0.007182245,3
70682394,0.955382,-0.0066560097,0.0009694931,0.29529652,0.99997425,2.0154545e-09,6.882595e-10,-0.007182245,3
70687411,0.95538,-0.0066553075,0.000984273,0.29530305,0.99997425,2.0154545e-09,6.882595e-10,-0.007182245,3
70692380,0.9553785,-0.0066529857,0.0010080985,0.2953077,0.99997425,2.0154545e-09,6.882595e-10,-0.007182245,3
70697373,0.9553776,-0.006657964,0.0010299673,0.29531077,0.99997425,2.0154545e-09,6.882595e-10,-0.007182245,3
70702439,0.9553756,-0.0066608116,0.001060537,0.29531687,0.99997425,2.0154545e-09,6.882595e-10,-0.007182245,3
70707359,0.9553753,-0.006674135,0.0010887594,0.2953175,0.99997425,2.0154545e-09,6.882595e-10,-0.007182245,3
70712399,0.95537555,-0.0066921683,0.0011299502,0.29531637,0.99997425,2.0154545e-09,6.882595e-10,-0.007182245,3
70717347,0.9553744,-0.006718335,0.0011649338,0.29531914,0.99997425,2.0154545e-09,6.882595e-10,-0.007182245,3
70722347,0.9553737,-0.0067461366,0.0012091781,0.2953205,0.99997425,2.0154545e-09,6.882595e-10,-0.007182245,3
70727347,0.9553734,-0.006764008,0.0012623213,0.29532054,0.99997425,2.0154545e-09,6.882595e-10,-0.007182245,3
70732373,0.95537305,-0.0067843334,0.0013142717,0.29532117,0.99997425,2.0154545e-09,6.882595e-10,-0.007182245,3
70737349,0.9553729,-0.0067998376,0.0013621798,0.29532114,0.99997425,2.0154545e-09,6.882595e-10,-0.007182245,3
70742347,0.95537335,-0.0068104626,0.0014081652,0.29531926,0.99997425,2.0154545e-09,6.882595e-10,-0.007182245,3
70747347,0.95537597,-0.0068210936,0.0014516398,0.29531032,0.99997425,2.0154545e-09,6.882595e-10,-0.007182245,3
70752352,0.9553796,-0.006828394,0.0014907708,0.29529828,0.99997425,2.0154545e-09,6.882595e-10,-0.007182245,3
70757347,0.95538414,-0.00684086,0.0015210516,0.29528317,0.99997425,2.0154545e-09,6.882595e-10,-0.007182245,3
70762347,0.9553884,-0.006860146,0.0015481747,0.29526836,0.99997425,2.0154545e-09,6.882595e-10,-0.007182245,3
70767350,0.95539486,-0.0068806536,0.0015688137,0.29524726,0.99997425,2.0154545e-09,6.882595e-10,-0.007182245,3
70772396,0.9554015,-0.006898758,0.0015874206,0.2952253,0.99997425,2.0154545e-09,6.882595e-10,-0.007182245,3
70777358,0.9554101,-0.006910323,0.0016090565,0.2951971,0.99997425,2.0154545e-09,6.882595e-10,-0.007182245,3
70782347,0.95541954,-0.006924438,0.0016243546,0.29516616,0.99997425,2.0154545e-09,6.882595e-10,-0.007182245,3
70787356,0.9554295,-0.006936318,0.00163464,0.29513332,0.99997425,2.0154545e-09,6.882595e-10,-0.007182245,3
70792400,0.9554393,-0.0069487276,0.0016509808,0.29510126,0.99997425,2.0154545e-09,6.882595e-10,-0.007182245,3
70797349,0.9554503,-0.006956237,0.0016760739,0.2950653,0.99997425,2.0154545e-09,6.882595e-10,-0.007182245,3
70802347,0.9554644,-0.0069639105,0.001699896,0.29501963,0.99997425,2.0154545e-09,6.882595e-10,-0.007182245,3
70807387,0.95547724,-0.0069784108,0.0017256851,0.29497743,0.99997425,2.0154545e-09,6.882595e-10,-0.007182245,3
70812399,0.9554907,-0.006994141,0.0017447352,0.2949332,0.99997425,2.0154545e-09,6.882595e-10,-0.007182245,3
70817402,0.9555057,-0.0070081213,0.001767719,0.29488435,0.99997425,2.0154545e-09,6.882595e-10,-0.007182245,3
70822347,0.95552033,-0.0070251897,0.0017904023,0.29483613,0.99997425,2.0154545e-09,6.882595e-10,-0.007182245,3
70827347,0.9555337,-0.0070443503,0.0018131541,0.29479223,0.99997425,2.0154545e-09,6.882595e-10,-0.007182245,3
70832396,0.9555459,-0.007059662,0.0018347054,0.29475242,0.99997425,2.0154545e-09,6.882595e-10,-0.007182245,3
70837356,0.95555884,-0.007072939,0.0018552836,0.2947099,0.99997425,2.0154545e-09,6.882595e-10,-0.007182245,3
70842347,0.9555689,-0.007087552,0.0018777556,0.2946767,0.99997425,2.0154545e-09,6.882595e-10,-0.007182245,3
70847353,0.9555798,-0.0070977686,0.0018976537,0.29464096,0.99997425,2.0154545e-09,6.882595e-10,-0.007182245,3
70852396,0.95558834,-0.0071062357,0.0019128222,0.29461303,0.99997425,2.0154545e-09,6.882595e-10,-0.007182245,3
70857347,0.95559496,-0.0071169864,0.0019330279,0.29459104,0.99997425,2.0154545e-09,6.882595e-10,-0.007182245,3
70862356,0.95559984,-0.0071276748,0.0019499281,0.2945751,0.99997425,2.0154545e-09,6.882595e-10,-0.007182245,3
70867347,0.9556029,-0.00713912,0.0019687314,0.29456475,0.99997425,2.0154545e-09,6.882595e-10,-0.007182245,3
70872396,0.95560545,-0.0071525513,0.0019870596,0.29455584,0.99997425,2.0154545e-09,6.882595e-10,-0.007182245,3
70877356,0.95560545,-0.007165745,0.0020032884,0.29455566,0.99997425,2.0154545e-09,6.882595e-10,-0.007182245,3
70882347,0.95560396,-0.0071776505,0.0020128537,0.29455978,0.99997425,2.0154545e-09,6.882595e-10,-0.007182245,3
70887347,0.95560133,-0.0071848338,0.0020147779,0.2945684,0.99997425,2.0154545e-09,6.882595e-10,-0.007182245,3
70892400,0.9555967,-0.007188977,0.0020075685,0.29458338,0.99997425,2.0154545e-09,6.882595e-10,-0.007182245,3
70897347,0.95559186,-0.007191167,0.0019997917,0.29459882,0.99997425,2.0154545e-09,6.882595e-10,-0.007182245,3
70902356,0.9555834,-0.007201095,0.0019932245,0.29462606,0.99997425,2.0154545e-09,6.882595e-10,-0.007182245,3
70907347,0.95557535,-0.0072069154,0.0019850011,0.29465252,0.99997425,2.0154545e-09,6.882595e-10,-0.007182245,3
70912409,0.95556664,-0.0072124377,0.0019768944,0.29468027,0.99997425,2.0154545e-09,6.882595e-10,-0.007182245,3
70917348,0.9555594,-0.007220177,0.0019650343,0.2947037,0.99997425,2.0154545e-09,6.882595e-10,-0.007182245,3
70922347,0.95555145,-0.0072291363,0.001958133,0.2947293,0.99997425,2.0154545e-09,6.882595e-10,-0.007182245,3
70927347,0.9555434,-0.007237301,0.0019544247,0.29475528,0.99997425,2.0154545e-09,6.882595e-10,-0.007182245,3
70932371,0.9555369,-0.007244898,0.0019467772,0.29477614,0.99997425,2.0154545e-09,6.882595e-10,-0.007182245,3
70937347,0.9555315,-0.0072517446,0.0019428749,0.2947939,0.99997425,2.0154545e-09,6.882595e-10,-0.007182245,3
70942347,0.95552564,-0.0072576986,0.0019468663,0.29481223,0.99997425,2.0154545e-09,6.882595e-10,-0.007182245,3
70947349,0.95552045,-0.0072634146,0.0019524755,0.29482895,0.99997425,2.0154545e-09,6.882595e-10,-0.007182245,3
70952362,0.955516,-0.0072647305,0.0019628261,0.29484347,0.99997425,2.0154545e-09,6.882595e-10,-0.007182245,3
70957347,0.955513,-0.007266491,0.001971109,0.29485306,0.99997425,2.0154545e-09,6.882595e-10,-0.007182245,3
70962347,0.9555118,-0.0072719506,0.0019832328,0.29485688,0.99997425,2.0154545e-09,6.882595e-10,-0.007182245,3
70967347,0.9555106,-0.0072816126,0.0019882694,0.29486015,0.99997425,2.0154545e-09,6.882595e-10,-0.007182245,3
70972396,0.9555093,-0.007291344,0.0019935537,0.2948641,0.99997425,2.0154545e-09,6.882595e-10,-0.007182245,3
70977358,0.9555107,-0.0072944285,0.0020070726,0.29485953,0.99997425,2.0154545e-09,6.882595e-10,-0.007182245,3
70982350,0.9555115,-0.007300333,0.0020213055,0.2948565,0.99997425,2.0154545e-09,6.882595e-10,-0.007182245,3
70987347,0.9555123,-0.007308417,0.0020325389,0.2948541,0.99997425,2.0154545e-09,6.882595e-10,-0.007182245,3
70992398,0.9555137,-0.0073079583,0.0020472084,0.29484925,0.99997425,2.0154545e-09,6.882595e-10,-0.007182245,3
70997349,0.95551467,-0.007308599,0.0020605237,0.29484597,0.99997425,2.0154545e-09,6.882595e-10,-0.007182245,3
71002350,0.95551544,-0.007312146,0.0020765509,0.29484352,0.99997425,2.0154545e-09,6.882595e-10,-0.007182245,3
71007350,0.9555142,-0.0073209195,0.0020868783,0.2948468,0.99997425,2.0154545e-09,6.882595e-10,-0.007182245,3
