timestamp,timestamp_sample,control[0],control[1],control[2],control[3],control[4],control[5],control[6],control[7]
68228159,68227353,0.059899118,-0.00013906458,-0.065896235,-0.0,0.0,0.0,0.0,0.0
68238209,68237350,0.059815317,6.0127377e-06,-0.065793216,-0.0,0.0,0.0,0.0,0.0
68283187,68282350,0.059670094,6.657533e-05,-0.065858744,-0.0,0.0,0.0,0.0,0.0
68288163,68287391,0.05973796,-1.9633399e-06,-0.06593315,-0.0,0.0,0.0,0.0,0.0
68293246,68292396,0.059688836,-1.835128e-06,-0.06598556,-0.0,0.0,0.0,0.0,0.0
68298173,68297347,0.0596682,0.00014162979,-0.065983176,-0.0,0.0,0.0,0.0,0.0
68303219,68302347,0.059655342,0.00024983918,-0.06599697,-0.0,0.0,0.0,0.0,0.0
68308126,68307347,0.05961757,0.00014203525,-0.06592328,-0.0,0.0,0.0,0.0,0.0
68313222,68312397,0.059602756,9.275131e-06,-0.06582303,-0.0,0.0,0.0,0.0,0.0
68318190,68317356,0.059615634,-1.52075e-05,-0.065761365,-0.0,0.0,0.0,0.0,0.0
68323241,68322347,0.059574805,4.3542517e-05,-0.06573924,-0.0,0.0,0.0,0.0,0.0
68328136,68327351,0.059516907,5.081884e-05,-0.06571407,-0.0,0.0,0.0,0.0,0.0
68333244,68332411,0.059347834,0.00010110236,-0.06569898,-0.0,0.0,0.0,0.0,0.0
68338182,68337347,0.059358172,-9.4021296e-08,-0.065763295,-0.0,0.0,0.0,0.0,0.0
68343194,68342347,0.05938035,-7.3233175e-05,-0.06583393,-0.0,0.0,0.0,0.0,0.0
68348129,68347350,0.059423815,-9.7751785e-05,-0.06585035,-0.0,0.0,0.0,0.0,0.0
68353233,68352396,0.059479,-6.614437e-05,-0.065721855,-0.0,0.0,0.0,0.0,0.0
68358186,68357349,0.059507754,-4.924218e-05,-0.065562196,-0.0,0.0,0.0,0.0,0.0
68363195,68362356,0.059438094,-9.1218586e-05,-0.0655521,-0.0,0.0,0.0,0.0,0.0
68368229,68367347,0.059245665,9.6951764e-05,-0.06560471,-0.0,0.0,0.0,0.0,0.0
68373182,68372375,0.0591954,0.00016845553,-0.06564637,-0.0,0.0,0.0,0.0,0.0
68378198,68377350,0.059222434,5.7784702e-05,-0.06570828,-0.0,0.0,0.0,0.0,0.0
68383194,68382391,0.059143078,-6.2586456e-05,-0.06574429,-0.0,0.0,0.0,0.0,0.0
68388224,68387347,0.05902721,-5.618996e-06,-0.065648444,-0.0,0.0,0.0,0.0,0.0
68393212,68392383,0.05903444,0.00012273579,-0.06568883,-0.0,0.0,0.0,0.0,0.0
68398218,68397350,0.0590177,0.0001652154,-0.06570685,-0.0,0.0,0.0,0.0,0.0
68403218,68402347,0.0590652,8.138654e-05,-0.065658584,-0.0,0.0,0.0,0.0,0.0
68408248,68407347,0.05911177,3.6885787e-05,-0.06566242,-0.0,0.0,0.0,0.0,0.0
68413222,68412353,0.059072953,3.0209696e-05,-0.06565065,-0.0,0.0,0.0,0.0,0.0
68418207,68417360,0.0589147,4.3079e-05,-0.06569438,-0.0,0.0,0.0,0.0,0.0
68423276,68422355,0.05890042,4.980474e-06,-0.06570074,-0.0,0.0,0.0,0.0,0.0
68428212,68427349,0.058852624,-8.239827e-05,-0.0657073,-0.0,0.0,0.0,0.0,0.0
68433356,68432359,0.058726475,-5.2594558e-05,-0.06570439,-0.0,0.0,0.0,0.0,0.0
68438295,68437349,0.05861757,2.9120221e-05,-0.06569076,-0.0,0.0,0.0,0.0,0.0
68443314,68442347,0.05871772,8.729131e-05,-0.06578482,-0.0,0.0,0.0,0.0,0.0
68448279,68447357,0.058763545,8.059127e-05,-0.06577256,-0.0,0.0,0.0,0.0,0.0
68453414,68452393,0.058692172,1.1058814e-05,-0.06573859,-0.0,0.0,0.0,0.0,0.0
68458190,68457366,0.058618877,2.7199474e-06,-0.06570723,-0.0,0.0,0.0,0.0,0.0
68463302,68462383,0.058722846,4.286836e-05,-0.06561224,-0.0,0.0,0.0,0.0,0.0
68468243,68467388,0.058757138,-8.223354e-05,-0.06560052,-0.0,0.0,0.0,0.0,0.0
68473242,68472356,0.058699608,-0.00014817152,-0.06568732,-0.0,0.0,0.0,0.0,0.0
68478202,68477349,0.058718238,-5.1617546e-05,-0.06570276,-0.0,0.0,0.0,0.0,0.0
68483196,68482347,0.05870859,0.00011569792,-0.06565388,-0.0,0.0,0.0,0.0,0.0
68488219,68487349,0.058602557,1.4180018e-06,-0.06560505,-0.0,0.0,0.0,0.0,0.0
68493275,68492371,0.05839248,-2.3652365e-05,-0.065599374,-0.0,0.0,0.0,0.0,0.0
68498202,68497392,0.05843925,-2.4381297e-05,-0.06570858,-0.0,0.0,0.0,0.0,0.0
68503279,68502401,0.058486816,-0.00010701295,-0.06569659,-0.0,0.0,0.0,0.0,0.0
68508227,68507394,0.05853144,-0.00011410923,-0.06573336,-0.0,0.0,0.0,0.0,0.0
68513294,68512383,0.058598656,-0.00010950878,-0.06571331,-0.0,0.0,0.0,0.0,0.0
68518208,68517377,0.058585256,-0.00020344568,-0.06566704,-0.0,0.0,0.0,0.0,0.0
68523280,68522407,0.05867239,-0.00016418948,-0.06570136,-0.0,0.0,0.0,0.0,0.0
68528228,68527366,0.058646068,-0.00020512826,-0.0657401,-0.0,0.0,0.0,0.0,0.0
68533288,68532431,0.058522735,-6.817195e-05,-0.065757036,-0.0,0.0,0.0,0.0,0.0
68538235,68537376,0.058548376,0.00012677361,-0.06574595,-0.0,0.0,0.0,0.0,0.0
68543307,68542453,0.058616042,6.758386e-05,-0.06573663,-0.0,0.0,0.0,0.0,0.0
68548232,68547390,0.058586024,-6.1862156e-05,-0.06574443,-0.0,0.0,0.0,0.0,0.0
68553239,68552380,0.05866428,-3.122112e-05,-0.065689705,-0.0,0.0,0.0,0.0,0.0
68558292,68557380,0.058741324,-5.106275e-05,-0.06567893,-0.0,0.0,0.0,0.0,0.0
68563203,68562350,0.058749605,-8.8022534e-05,-0.06563526,-0.0,0.0,0.0,0.0,0.0
68568231,68567353,0.058734193,6.715064e-05,-0.06562627,-0.0,0.0,0.0,0.0,0.0
68573250,68572381,0.058781236,0.00012358863,-0.06562911,-0.0,0.0,0.0,0.0,0.0
68578327,68577354,0.058748428,-7.9320125e-05,-0.065667085,-0.0,0.0,0.0,0.0,0.0
68583208,68582355,0.05864775,-8.1125625e-05,-0.06573679,-0.0,0.0,0.0,0.0,0.0
68588252,68587347,0.058679998,-1.9038394e-05,-0.06577148,-0.0,0.0,0.0,0.0,0.0
68593382,68592406,0.058673996,3.0978972e-05,-0.06568533,-0.0,0.0,0.0,0.0,0.0
68598329,68597349,0.058622006,4.7007383e-05,-0.06569142,-0.0,0.0,0.0,0.0,0.0
68603325,68602394,0.058511924,1.7081842e-05,-0.065687686,-0.0,0.0,0.0,0.0,0.0
68608314,68607347,0.05865038,4.384841e-06,-0.06567167,-0.0,0.0,0.0,0.0,0.0
68613368,68612399,0.058807593,2.610157e-05,-0.06561996,-0.0,0.0,0.0,0.0,0.0
68618344,68617349,0.058898624,3.729674e-05,-0.06564152,-0.0,0.0,0.0,0.0,0.0
68623304,68622347,0.058882788,-8.414774e-06,-0.06563996,-0.0,0.0,0.0,0.0,0.0
68628207,68627347,0.058796734,-6.878086e-05,-0.06560736,-0.0,0.0,0.0,0.0,0.0
68633404,68632396,0.058759287,-9.56242e-05,-0.06558122,-0.0,0.0,0.0,0.0,0.0
68638342,68637349,0.058805242,-0.00015366962,-0.06563461,-0.0,0.0,0.0,0.0,0.0
68643440,68642349,0.058810797,-0.00014520875,-0.06563467,-0.0,0.0,0.0,0.0,0.0
68648279,68647347,0.058826733,-0.00011125598,-0.065593995,-0.0,0.0,0.0,0.0,0.0
68653410,68652402,0.058893893,-2.3183895e-05,-0.06567217,-0.0,0.0,0.0,0.0,0.0
68658331,68657349,0.058895756,6.010174e-05,-0.06569482,-0.0,0.0,0.0,0.0,0.0
68663420,68662347,0.058906812,0.00015020337,-0.0657145,-0.0,0.0,0.0,0.0,0.0
68668296,68667355,0.058893707,0.00017442254,-0.06571546,-0.0,0.0,0.0,0.0,0.0
68673321,68672396,0.058893044,0.0001099198,-0.065668635,-0.0,0.0,0.0,0.0,0.0
68678279,68677349,0.0589674,0.00021555442,-0.06563631,-0.0,0.0,0.0,0.0,0.0
68683332,68682356,0.059037257,0.00016568742,-0.06566819,-0.0,0.0,0.0,0.0,0.0
68688234,68687349,0.05900428,0.00018624486,-0.065761924,-0.0,0.0,0.0,0.0,0.0
68693374,68692396,0.058959182,7.798133e-05,-0.065810226,-0.0,0.0,0.0,0.0,0.0
68698250,68697349,0.05908881,-1.1155084e-06,-0.06577956,-0.0,0.0,0.0,0.0,0.0
68703278,68702347,0.059200164,0.00011865178,-0.065741695,-0.0,0.0,0.0,0.0,0.0
68708177,68707392,0.05918612,0.00023136362,-0.06569222,-0.0,0.0,0.0,0.0,0.0
68713364,68712396,0.05912522,0.00026193485,-0.065736406,-0.0,0.0,0.0,0.0,0.0
68718184,68717356,0.059156917,0.00017152906,-0.06576148,-0.0,0.0,0.0,0.0,0.0
68723362,68722347,0.059160523,1.5804299e-05,-0.06574091,-0.0,0.0,0.0,0.0,0.0
68728185,68727354,0.059197914,-9.4592295e-05,-0.06572702,-0.0,0.0,0.0,0.0,0.0
68733217,68732396,0.059326485,-4.918529e-05,-0.06572978,-0.0,0.0,0.0,0.0,0.0
68738299,68737349,0.059351195,3.3157987e-05,-0.06578388,-0.0,0.0,0.0,0.0,0.0
68743214,68742347,0.059375536,8.477401e-05,-0.06578266,-0.0,0.0,0.0,0.0,0.0
68748128,68747347,0.05945599,-8.283952e-05,-0.06577056,-0.0,0.0,0.0,0.0,0.0
68753230,68752396,0.05939322,-8.4034655e-05,-0.06572906,-0.0,0.0,0.0,0.0,0.0
68758230,68757349,0.059395872,8.8814144e-05,-0.065694675,-0.0,0.0,0.0,0.0,0.0
68763180,68762347,0.05949545,0.0002347023,-0.06578137,-0.0,0.0,0.0,0.0,0.0
68768117,68767355,0.059552986,0.00023969905,-0.06583728,-0.0,0.0,0.0,0.0,0.0
68773229,68772396,0.059624292,8.5540516e-05,-0.06578953,-0.0,0.0,0.0,0.0,0.0
68778170,68777349,0.059668016,2.7466323e-05,-0.06575651,-0.0,0.0,0.0,0.0,0.0
68783275,68782347,0.059629966,9.7070215e-06,-0.06574894,-0.0,0.0,0.0,0.0,0.0
68788252,68787347,0.059511784,-5.694916e-05,-0.06572811,-0.0,0.0,0.0,0.0,0.0
68793294,68792401,0.059516538,-9.893932e-05,-0.06576039,-0.0,0.0,0.0,0.0,0.0
68798274,68797349,0.0596592,-6.8953974e-05,-0.065765485,-0.0,0.0,0.0,0.0,0.0
68803194,68802351,0.059708156,-3.9733146e-05,-0.06577005,-0.0,0.0,0.0,0.0,0.0
68808194,68807347,0.059856933,-7.303341e-05,-0.06575325,-0.0,0.0,0.0,0.0,0.0
68813169,68812396,0.05994073,5.403409e-05,-0.06582027,-0.0,0.0,0.0,0.0,0.0
68818217,68817349,0.059838615,0.00022441038,-0.06584935,-0.0,0.0,0.0,0.0,0.0
68823272,68822347,0.05976099,0.00019329878,-0.065806754,-0.0,0.0,0.0,0.0,0.0
68828199,68827356,0.059764545,0.00011546947,-0.065852344,-0.0,0.0,0.0,0.0,0.0
68833219,68832358,0.05983835,-3.490051e-05,-0.065971285,-0.0,0.0,0.0,0.0,0.0
68838266,68837349,0.05987812,-5.898378e-05,-0.066035606,-0.0,0.0,0.0,0.0,0.0
68843228,68842347,0.05997256,-3.4001034e-05,-0.06593441,-0.0,0.0,0.0,0.0,0.0
68848171,68847349,0.060022466,0.00014775466,-0.06584855,-0.0,0.0,0.0,0.0,0.0
68853156,68852364,0.059949387,0.00014475327,-0.06582776,-0.0,0.0,0.0,0.0,0.0
68858193,68857349,0.059880722,0.00018682628,-0.06580516,-0.0,0.0,0.0,0.0,0.0
68863154,68862347,0.059973996,0.0001704993,-0.06575366,-0.0,0.0,0.0,0.0,0.0
68868216,68867347,0.06003389,0.00020915054,-0.06575485,-0.0,0.0,0.0,0.0,0.0
68873154,68872370,0.060067046,0.0002472569,-0.06586754,-0.0,0.0,0.0,0.0,0.0
68878213,68877349,0.059956778,0.00020580429,-0.06588427,-0.0,0.0,0.0,0.0,0.0
68883166,68882347,0.059929132,0.00023770305,-0.06591196,-0.0,0.0,0.0,0.0,0.0
68888167,68887350,0.059983384,0.00026048004,-0.065906465,-0.0,0.0,0.0,0.0,0.0
68893248,68892396,0.060081314,0.00010888089,-0.06592214,-0.0,0.0,0.0,0.0,0.0
68898170,68897350,0.06002556,-0.0001305589,-0.0659496,-0.0,0.0,0.0,0.0,0.0
68903175,68902349,0.05999978,-0.00011706695,-0.065894574,-0.0,0.0,0.0,0.0,0.0
68908235,68907350,0.060040925,-8.7967135e-05,-0.06584529,-0.0,0.0,0.0,0.0,0.0
68913322,68912396,0.060043376,-2.5651163e-05,-0.06581802,-0.0,0.0,0.0,0.0,0.0
68918268,68917398,0.05998907,1.6508146e-05,-0.065802805,-0.0,0.0,0.0,0.0,0.0
68923326,68922350,0.05995338,0.000108625354,-0.06587938,-0.0,0.0,0.0,0.0,0.0
68928233,68927367,0.059932165,0.00029986515,-0.06584015,-0.0,0.0,0.0,0.0,0.0
68933348,68932396,0.059922557,0.00029498996,-0.065824136,-0.0,0.0,0.0,0.0,0.0
68938117,68937353,0.059891257,0.00022089276,-0.06584579,-0.0,0.0,0.0,0.0,0.0
68943207,68942350,0.059925064,0.00020606467,-0.06583292,-0.0,0.0,0.0,0.0,0.0
68948176,68947350,0.059815474,5.958369e-05,-0.06577787,-0.0,0.0,0.0,0.0,0.0
68953309,68952396,0.059776284,-9.1527204e-07,-0.06570132,-0.0,0.0,0.0,0.0,0.0
68958185,68957355,0.059761833,4.3565624e-08,-0.06572071,-0.0,0.0,0.0,0.0,0.0
68963157,68962353,0.059720702,-1.5919273e-05,-0.06572437,-0.0,0.0,0.0,0.0,0.0
68968176,68967350,0.05968526,-7.745578e-05,-0.065728985,-0.0,0.0,0.0,0.0,0.0
68973239,68972396,0.05969023,-6.3320345e-05,-0.06576196,-0.0,0.0,0.0,0.0,0.0
68978177,68977351,0.059637755,-3.8100115e-05,-0.06579311,-0.0,0.0,0.0,0.0,0.0
68983178,68982361,0.05969236,3.6968027e-05,-0.065876774,-0.0,0.0,0.0,0.0,0.0
68988185,68987352,0.059775878,0.0001196354,-0.065943755,-0.0,0.0,0.0,0.0,0.0
68993214,68992396,0.05974751,0.00018184204,-0.06595745,-0.0,0.0,0.0,0.0,0.0
68998232,68997352,0.059677787,0.00021795198,-0.0658872,-0.0,0.0,0.0,0.0,0.0
69003156,69002347,0.05967214,8.5557636e-05,-0.065783,-0.0,0.0,0.0,0.0,0.0
69008188,69007349,0.059599638,-1.0501169e-05,-0.06566027,-0.0,0.0,0.0,0.0,0.0
69013194,69012376,0.059517853,9.172669e-05,-0.06562362,-0.0,0.0,0.0,0.0,0.0
69018259,69017350,0.059578057,0.00027220708,-0.06565418,-0.0,0.0,0.0,0.0,0.0
69023193,69022391,0.05962643,0.00038280056,-0.06575322,-0.0,0.0,0.0,0.0,0.0
69028243,69027349,0.059464294,0.00022356762,-0.06583839,-0.0,0.0,0.0,0.0,0.0
69033190,69032368,0.059299126,2.4651172e-05,-0.065825745,-0.0,0.0,0.0,0.0,0.0
69038230,69037350,0.059263684,-3.813789e-06,-0.065887615,-0.0,0.0,0.0,0.0,0.0
69043235,69042352,0.059258904,-1.2640893e-05,-0.0658706,-0.0,0.0,0.0,0.0,0.0
69048240,69047349,0.059271656,-9.739194e-05,-0.06580573,-0.0,0.0,0.0,0.0,0.0
69053331,69052396,0.059264578,-0.00013042998,-0.06571559,-0.0,0.0,0.0,0.0,0.0
69058268,69057349,0.059345853,-6.395137e-05,-0.06575803,-0.0,0.0,0.0,0.0,0.0
69063255,69062377,0.05933661,-2.996676e-05,-0.0657936,-0.0,0.0,0.0,0.0,0.0
69068140,69067347,0.05923381,-8.25726e-05,-0.06575691,-0.0,0.0,0.0,0.0,0.0
69073239,69072396,0.059152756,-9.538679e-05,-0.065731734,-0.0,0.0,0.0,0.0,0.0
69078207,69077350,0.0590771,-9.279111e-05,-0.06565402,-0.0,0.0,0.0,0.0,0.0
69083166,69082347,0.059058886,-0.00014373453,-0.06564146,-0.0,0.0,0.0,0.0,0.0
69088167,69087352,0.05897547,-8.2440485e-05,-0.06568407,-0.0,0.0,0.0,0.0,0.0
69093275,69092361,0.058895476,6.263257e-05,-0.065675244,-0.0,0.0,0.0,0.0,0.0
69098213,69097350,0.05885379,6.079442e-05,-0.06576188,-0.0,0.0,0.0,0.0,0.0
69103259,69102347,0.058795348,-5.9135804e-05,-0.065765426,-0.0,0.0,0.0,0.0,0.0
69108218,69107394,0.05873639,-6.9625996e-05,-0.06579314,-0.0,0.0,0.0,0.0,0.0
69113212,69112396,0.05869397,6.820882e-05,-0.06583408,-0.0,0.0,0.0,0.0,0.0
69118230,69117349,0.0586258,2.7107953e-05,-0.065802835,-0.0,0.0,0.0,0.0,0.0
69123250,69122347,0.058648337,5.2145188e-05,-0.065776534,-0.0,0.0,0.0,0.0,0.0
69128206,69127375,0.05862822,0.00011842434,-0.065738365,-0.0,0.0,0.0,0.0,0.0
69133243,69132399,0.058547072,0.0002517509,-0.06571709,-0.0,0.0,0.0,0.0,0.0
69138239,69137350,0.05855795,0.00010532188,-0.06572595,-0.0,0.0,0.0,0.0,0.0
69143222,69142347,0.05859238,-2.3412129e-05,-0.06572648,-0.0,0.0,0.0,0.0,0.0
69148228,69147350,0.058566704,-6.0023925e-05,-0.06575583,-0.0,0.0,0.0,0.0,0.0
69153209,69152374,0.05847189,-5.8786205e-05,-0.06571938,-0.0,0.0,0.0,0.0,0.0
69158292,69157351,0.058398858,6.8048685e-06,-0.065662235,-0.0,0.0,0.0,0.0,0.0
69163211,69162351,0.05846958,0.00013383367,-0.065641716,-0.0,0.0,0.0,0.0,0.0
69168354,69167364,0.05847395,-6.6630404e-05,-0.065659,-0.0,0.0,0.0,0.0,0.0
69173209,69172355,0.058525335,-0.00023017751,-0.06559008,-0.0,0.0,0.0,0.0,0.0
69178337,69177369,0.058509238,-0.00027311358,-0.06556179,-0.0,0.0,0.0,0.0,0.0
69183231,69182371,0.058440097,-0.0002380652,-0.06564735,-0.0,0.0,0.0,0.0,0.0
69188155,69187354,0.058276672,-0.000108710585,-0.06562032,-0.0,0.0,0.0,0.0,0.0
69193266,69192400,0.058196105,-2.31265e-06,-0.06558332,-0.0,0.0,0.0,0.0,0.0
69198221,69197360,0.058164634,3.0583826e-05,-0.06559619,-0.0,0.0,0.0,0.0,0.0
69203223,69202347,0.05819955,9.021548e-05,-0.06561827,-0.0,0.0,0.0,0.0,0.0
69208259,69207408,0.058271114,5.0230257e-05,-0.065671876,-0.0,0.0,0.0,0.0,0.0
69213222,69212370,0.058240294,-3.3330314e-06,-0.06562915,-0.0,0.0,0.0,0.0,0.0
69218241,69217397,0.05828371,-8.167572e-05,-0.06554481,-0.0,0.0,0.0,0.0,0.0
69223287,69222394,0.05830028,-0.0001303841,-0.065511286,-0.0,0.0,0.0,0.0,0.0
69228258,69227394,0.058252607,7.6174714e-05,-0.06556957,-0.0,0.0,0.0,0.0,0.0
69233238,69232424,0.058205925,0.0002033191,-0.06564442,-0.0,0.0,0.0,0.0,0.0
69238279,69237400,0.058233183,7.3321855e-05,-0.06563099,-0.0,0.0,0.0,0.0,0.0
69243250,69242391,0.05823018,-0.00014829752,-0.06553963,-0.0,0.0,0.0,0.0,0.0
69248303,69247391,0.05810394,-0.00010607811,-0.065553784,-0.0,0.0,0.0,0.0,0.0
69253223,69252409,0.05804139,3.0511936e-05,-0.06564845,-0.0,0.0,0.0,0.0,0.0
69258247,69257371,0.058079213,-2.6719365e-05,-0.06573473,-0.0,0.0,0.0,0.0,0.0
69263229,69262374,0.058062293,-0.00014229566,-0.065696664,-0.0,0.0,0.0,0.0,0.0
69268240,69267369,0.058102716,-0.00016352136,-0.0655279,-0.0,0.0,0.0,0.0,0.0
69273224,69272388,0.058170076,2.887797e-05,-0.06540342,-0.0,0.0,0.0,0.0,0.0
69278245,69277353,0.058137953,5.7480796e-05,-0.065377705,-0.0,0.0,0.0,0.0,0.0
69283211,69282350,0.058112383,9.636085e-05,-0.06544886,-0.0,0.0,0.0,0.0,0.0
69288358,69287361,0.058032587,-3.3983655e-05,-0.065511666,-0.0,0.0,0.0,0.0,0.0
69293379,69292400,0.058046456,-7.090048e-05,-0.06552338,-0.0,0.0,0.0,0.0,0.0
69298365,69297395,0.058107164,-2.4961297e-05,-0.06557307,-0.0,0.0,0.0,0.0,0.0
69303291,69302347,0.058139116,4.9785933e-05,-0.06560934,-0.0,0.0,0.0,0.0,0.0
69308316,69307347,0.05813964,4.9653565e-05,-0.06563952,-0.0,0.0,0.0,0.0,0.0
69313388,69312400,0.058141634,2.6135474e-05,-0.065618865,-0.0,0.0,0.0,0.0,0.0
69318369,69317356,0.058229595,0.0001271856,-0.06560127,-0.0,0.0,0.0,0.0,0.0
69323352,69322349,0.058237217,0.00016385493,-0.06563277,-0.0,0.0,0.0,0.0,0.0
69328212,69327359,0.05825289,0.000106682484,-0.06561976,-0.0,0.0,0.0,0.0,0.0
69333250,69332352,0.05820103,2.3910636e-05,-0.06553744,-0.0,0.0,0.0,0.0,0.0
69338278,69337370,0.05825939,6.5956425e-05,-0.06559346,-0.0,0.0,0.0,0.0,0.0
69343326,69342347,0.058367215,-1.921629e-05,-0.06568882,-0.0,0.0,0.0,0.0,0.0
69348291,69347347,0.05847942,0.00010139163,-0.06571063,-0.0,0.0,0.0,0.0,0.0
69353407,69352396,0.05856102,0.00021937443,-0.065708935,-0.0,0.0,0.0,0.0,0.0
69358254,69357350,0.05859867,7.780114e-05,-0.06568635,-0.0,0.0,0.0,0.0,0.0
69363306,69362347,0.058559094,6.857547e-05,-0.065664954,-0.0,0.0,0.0,0.0,0.0
69368311,69367353,0.058605958,1.7260565e-05,-0.06564944,-0.0,0.0,0.0,0.0,0.0
69373315,69372397,0.058521558,-7.715684e-05,-0.0656928,-0.0,0.0,0.0,0.0,0.0
69378330,69377352,0.05859329,-4.7141457e-05,-0.06571727,-0.0,0.0,0.0,0.0,0.0
69383341,69382347,0.058722038,1.41495975e-05,-0.06573288,-0.0,0.0,0.0,0.0,0.0
69388386,69387356,0.058843534,0.00011487201,-0.065705635,-0.0,0.0,0.0,0.0,0.0
69393384,69392355,0.058920622,0.00016242266,-0.06564167,-0.0,0.0,0.0,0.0,0.0
69398388,69397354,0.05909544,7.338685e-05,-0.065562494,-0.0,0.0,0.0,0.0,0.0
69403300,69402353,0.059279766,-8.9884044e-05,-0.065539345,-0.0,0.0,0.0,0.0,0.0
69408409,69407347,0.059297193,-0.0001792334,-0.06559447,-0.0,0.0,0.0,0.0,0.0
69413255,69412355,0.059221134,-0.00016414604,-0.06578147,-0.0,0.0,0.0,0.0,0.0
69418352,69417347,0.059166353,-0.00011319481,-0.06590131,-0.0,0.0,0.0,0.0,0.0
69423194,69422347,0.059195604,-7.0638904e-05,-0.06581703,-0.0,0.0,0.0,0.0,0.0
69428397,69427347,0.05924438,0.00016606593,-0.065693274,-0.0,0.0,0.0,0.0,0.0
69433351,69432397,0.05946617,0.00012891713,-0.065714605,-0.0,0.0,0.0,0.0,0.0
69438416,69437353,0.059649676,-2.89887e-05,-0.06573282,-0.0,0.0,0.0,0.0,0.0
69443288,69442391,0.05965953,-9.1424496e-05,-0.065724276,-0.0,0.0,0.0,0.0,0.0
69448453,69447357,0.059629925,-9.664996e-05,-0.06570048,-0.0,0.0,0.0,0.0,0.0
69453339,69452396,0.05977775,2.4443449e-05,-0.06569205,-0.0,0.0,0.0,0.0,0.0
69458537,69457391,0.05978547,7.952249e-05,-0.06570897,-0.0,0.0,0.0,0.0,0.0
69463117,69462347,0.059811257,0.00012377868,-0.06579378,-0.0,0.0,0.0,0.0,0.0
69468258,69467347,0.059809346,9.580082e-05,-0.065882295,-0.0,0.0,0.0,0.0,0.0
69473392,69472400,0.059921674,0.00015286388,-0.06584978,-0.0,0.0,0.0,0.0,0.0
69478373,69477356,0.059893135,0.00013710311,-0.0657455,-0.0,0.0,0.0,0.0,0.0
69483216,69482347,0.059825156,0.00028239124,-0.06568392,-0.0,0.0,0.0,0.0,0.0
69488214,69487347,0.059886254,0.00028502167,-0.06574471,-0.0,0.0,0.0,0.0,0.0
69493303,69492400,0.059944898,0.00027096935,-0.065820485,-0.0,0.0,0.0,0.0,0.0
69498254,69497347,0.060087707,0.00012957254,-0.06578058,-0.0,0.0,0.0,0.0,0.0
69503118,69502347,0.060154032,0.00014754223,-0.06575765,-0.0,0.0,0.0,0.0,0.0
69508133,69507347,0.060192067,0.00023846193,-0.065705575,-0.0,0.0,0.0,0.0,0.0
69513228,69512396,0.060211062,0.00013846334,-0.065671995,-0.0,0.0,0.0,0.0,0.0
69518274,69517347,0.060321108,0.00023509421,-0.065740995,-0.0,0.0,0.0,0.0,0.0
69523306,69522347,0.06027262,0.00028110953,-0.06575772,-0.0,0.0,0.0,0.0,0.0
69528222,69527347,0.060280755,0.00023525818,-0.06586628,-0.0,0.0,0.0,0.0,0.0
69533375,69532358,0.06023848,0.00026248707,-0.06595691,-0.0,0.0,0.0,0.0,0.0
69538245,69537347,0.06026539,0.00021324848,-0.06594313,-0.0,0.0,0.0,0.0,0.0
69543226,69542347,0.06021497,0.00011644842,-0.0658706,-0.0,0.0,0.0,0.0,0.0
69548143,69547372,0.060162295,8.873937e-05,-0.065789506,-0.0,0.0,0.0,0.0,0.0
69553234,69552396,0.060140487,-0.00012977829,-0.06582859,-0.0,0.0,0.0,0.0,0.0
69558193,69557347,0.06021095,-0.00021078586,-0.06596233,-0.0,0.0,0.0,0.0,0.0
69563290,69562347,0.060408473,-0.00015112986,-0.066005595,-0.0,0.0,0.0,0.0,0.0
69568202,69567347,0.060399808,-5.156467e-05,-0.06596126,-0.0,0.0,0.0,0.0,0.0
69573301,69572396,0.0604019,1.2099063e-05,-0.06595285,-0.0,0.0,0.0,0.0,0.0
69578271,69577349,0.060491744,0.00010122742,-0.06597804,-0.0,0.0,0.0,0.0,0.0
69583243,69582347,0.06044056,0.0001903359,-0.06590188,-0.0,0.0,0.0,0.0,0.0
69588122,69587347,0.060425796,0.00028301938,-0.06587026,-0.0,0.0,0.0,0.0,0.0
69593212,69592396,0.060437698,0.00026458837,-0.06589122,-0.0,0.0,0.0,0.0,0.0
69598189,69597347,0.06050476,0.00020297355,-0.06592094,-0.0,0.0,0.0,0.0,0.0
69603181,69602348,0.06044277,0.00014121296,-0.06593611,-0.0,0.0,0.0,0.0,0.0
69608174,69607355,0.060462475,9.4133495e-05,-0.065958634,-0.0,0.0,0.0,0.0,0.0
69613201,69612396,0.060493372,0.00017598081,-0.06608197,-0.0,0.0,0.0,0.0,0.0
69618234,69617350,0.0604334,0.00020433197,-0.06603415,-0.0,0.0,0.0,0.0,0.0
69623215,69622350,0.060436215,0.00013612509,-0.065978855,-0.0,0.0,0.0,0.0,0.0
69628129,69627361,0.060391456,0.00021340034,-0.065912396,-0.0,0.0,0.0,0.0,0.0
69633215,69632399,0.06026243,0.00029148624,-0.065804586,-0.0,0.0,0.0,0.0,0.0
69638165,69637350,0.060209107,0.00017826931,-0.065807365,-0.0,0.0,0.0,0.0,0.0
69643165,69642350,0.060244083,0.0001229156,-0.06582798,-0.0,0.0,0.0,0.0,0.0
69648185,69647350,0.06013129,0.00012326147,-0.065816805,-0.0,0.0,0.0,0.0,0.0
69653176,69652388,0.059878945,0.00017563133,-0.06582109,-0.0,0.0,0.0,0.0,0.0
69658210,69657354,0.05979706,0.00010019854,-0.06573777,-0.0,0.0,0.0,0.0,0.0
69663172,69662350,0.0598177,-2.64765e-05,-0.06579415,-0.0,0.0,0.0,0.0,0.0
69668189,69667350,0.05982598,-6.972867e-05,-0.0658426,-0.0,0.0,0.0,0.0,0.0
69673169,69672361,0.05977544,3.4847373e-05,-0.065880746,-0.0,0.0,0.0,0.0,0.0
69678172,69677350,0.059721496,0.0002151204,-0.06587209,-0.0,0.0,0.0,0.0,0.0
69683228,69682352,0.059653338,0.00016972538,-0.0657901,-0.0,0.0,0.0,0.0,0.0
69688175,69687350,0.0595861,2.0479822e-05,-0.06573403,-0.0,0.0,0.0,0.0,0.0
69693215,69692382,0.059590153,-0.00012116165,-0.06574498,-0.0,0.0,0.0,0.0,0.0
69698178,69697347,0.059562106,-0.0001320285,-0.065721944,-0.0,0.0,0.0,0.0,0.0
69703161,69702347,0.05940999,-5.7715253e-05,-0.065755054,-0.0,0.0,0.0,0.0,0.0
69708190,69707353,0.05929038,-6.216607e-05,-0.06579401,-0.0,0.0,0.0,0.0,0.0
69713193,69712396,0.05927848,7.169774e-05,-0.0657556,-0.0,0.0,0.0,0.0,0.0
69718197,69717368,0.059251267,0.00010103108,-0.06577465,-0.0,0.0,0.0,0.0,0.0
69723201,69722347,0.059188444,0.00010835547,-0.0658123,-0.0,0.0,0.0,0.0,0.0
69728188,69727351,0.059198137,0.0001167146,-0.06584698,-0.0,0.0,0.0,0.0,0.0
69733159,69732360,0.059024643,5.881093e-05,-0.0658923,-0.0,0.0,0.0,0.0,0.0
69738192,69737347,0.05890623,-1.81517e-05,-0.065832786,-0.0,0.0,0.0,0.0,0.0
69743188,69742347,0.05892081,0.00010123558,-0.06568724,-0.0,0.0,0.0,0.0,0.0
69748183,69747347,0.05904709,0.00018917052,-0.06566352,-0.0,0.0,0.0,0.0,0.0
69753251,69752396,0.05903336,3.138415e-05,-0.06569096,-0.0,0.0,0.0,0.0,0.0
69758232,69757395,0.05884282,-3.3759003e-05,-0.06566017,-0.0,0.0,0.0,0.0,0.0
69763182,69762347,0.05863332,5.209558e-05,-0.06569078,-0.0,0.0,0.0,0.0,0.0
69768194,69767347,0.058562927,1.335221e-05,-0.0656843,-0.0,0.0,0.0,0.0,0.0
69773292,69772397,0.05859972,-4.2156567e-05,-0.06570205,-0.0,0.0,0.0,0.0,0.0
69778161,69777350,0.058570247,2.250915e-05,-0.06569856,-0.0,0.0,0.0,0.0,0.0
69783191,69782350,0.058450025,7.6173514e-05,-0.065705806,-0.0,0.0,0.0,0.0,0.0
69788167,69787347,0.05828995,0.0001853221,-0.06567652,-0.0,0.0,0.0,0.0,0.0
69793280,69792396,0.05817329,0.0005201057,-0.0656419,-0.0,0.0,0.0,0.0,0.0
69798178,69797370,0.058266502,0.0006739961,-0.06554897,-0.0,0.0,0.0,0.0,0.0
69803169,69802347,0.058358945,0.00053228345,-0.065595925,-0.0,0.0,0.0,0.0,0.0
69808152,69807347,0.058231674,0.00029068824,-0.065735616,-0.0,0.0,0.0,0.0,0.0
69813259,69812396,0.058045834,0.0002134303,-0.0658513,-0.0,0.0,0.0,0.0,0.0
69818180,69817350,0.057928976,0.00028423718,-0.065842986,-0.0,0.0,0.0,0.0,0.0
69823219,69822358,0.057826906,0.00025196513,-0.06584143,-0.0,0.0,0.0,0.0,0.0
69828163,69827354,0.057821963,0.00018910687,-0.06591893,-0.0,0.0,0.0,0.0,0.0
69833297,69832394,0.05774455,0.00024197566,-0.06602385,-0.0,0.0,0.0,0.0,0.0
69838219,69837350,0.057828296,0.00032921275,-0.06606923,-0.0,0.0,0.0,0.0,0.0
69843243,69842394,0.058067095,0.00049061276,-0.06600771,-0.0,0.0,0.0,0.0,0.0
69848201,69847349,0.058113858,0.00051894854,-0.066106066,-0.0,0.0,0.0,0.0,0.0
69853218,69852373,0.058044396,0.00035301902,-0.06635167,-0.0,0.0,0.0,0.0,0.0
69858232,69857350,0.058005106,0.00024099214,-0.06644037,-0.0,0.0,0.0,0.0,0.0
69863217,69862381,0.05801607,0.00035746314,-0.06640359,-0.0,0.0,0.0,0.0,0.0
69868208,69867347,0.057973415,0.0005497113,-0.06635846,-0.0,0.0,0.0,0.0,0.0
69873278,69872364,0.05773405,0.00065987895,-0.066363096,-0.0,0.0,0.0,0.0,0.0
69878276,69877357,0.05770454,0.00064690644,-0.06636335,-0.0,0.0,0.0,0.0,0.0
69883238,69882380,0.05786705,0.0006506139,-0.06632614,-0.0,0.0,0.0,0.0,0.0
69888209,69887361,0.057924595,0.00047611244,-0.06632468,-0.0,0.0,0.0,0.0,0.0
69893319,69892404,0.057926897,0.0001982059,-0.06638214,-0.0,0.0,0.0,0.0,0.0
69898290,69897388,0.057890993,-1.9000814e-05,-0.06620842,-0.0,0.0,0.0,0.0,0.0
69903209,69902352,0.057810422,-0.00015500095,-0.06586476,-0.0,0.0,0.0,0.0,0.0
69908229,69907352,0.057898767,-0.0002078315,-0.06550353,-0.0,0.0,0.0,0.0,0.0
69913250,69912353,0.057862133,-0.00029311574,-0.06526015,-0.0,0.0,0.0,0.0,0.0
69918255,69917347,0.057623237,-0.00032343686,-0.06507646,-0.0,0.0,0.0,0.0,0.0
69923198,69922349,0.05757793,-0.0002551886,-0.06489316,-0.0,0.0,0.0,0.0,0.0
69928193,69927347,0.057778142,-0.00017275424,-0.064771466,-0.0,0.0,0.0,0.0,0.0
69933245,69932370,0.05792245,-0.00031519463,-0.06464982,-0.0,0.0,0.0,0.0,0.0
69938279,69937395,0.05789259,-0.00051126303,-0.06456616,-0.0,0.0,0.0,0.0,0.0
69943283,69942391,0.057843085,-0.0006758177,-0.06439233,-0.0,0.0,0.0,0.0,0.0
69948235,69947408,0.05776883,-0.0005543068,-0.06423132,-0.0,0.0,0.0,0.0,0.0
69953277,69952405,0.05774125,-0.0005586598,-0.06410495,-0.0,0.0,0.0,0.0,0.0
69958222,69957369,0.05772081,-0.00071205193,-0.06390825,-0.0,0.0,0.0,0.0,0.0
69963246,69962369,0.05782901,-0.0010576544,-0.06381624,-0.0,0.0,0.0,0.0,0.0
69968203,69967394,0.057909902,-0.0014298783,-0.06374694,-0.0,0.0,0.0,0.0,0.0
69973284,69972379,0.05785571,-0.0016905701,-0.0636204,-0.0,0.0,0.0,0.0,0.0
69978234,69977384,0.05774176,-0.0017618076,-0.06356575,-0.0,0.0,0.0,0.0,0.0
69983269,69982373,0.057822287,-0.0017189523,-0.06355884,-0.0,0.0,0.0,0.0,0.0
69988203,69987378,0.057914592,-0.0015895207,-0.063473225,-0.0,0.0,0.0,0.0,0.0
69993297,69992405,0.05798074,-0.0011884699,-0.06335054,-0.0,0.0,0.0,0.0,0.0
69998254,69997353,0.05787411,-0.0008528008,-0.06339169,-0.0,0.0,0.0,0.0,0.0
70003268,70002357,0.057619803,-0.0006377209,-0.063492596,-0.0,0.0,0.0,0.0,0.0
70008183,70007347,0.05745098,-0.0006868264,-0.06345431,-0.0,0.0,0.0,0.0,0.0
70013286,70012402,0.057270102,-0.00089079066,-0.06338315,-0.0,0.0,0.0,0.0,0.0
70018242,70017356,0.05712293,-0.0010185471,-0.0633724,-0.0,0.0,0.0,0.0,0.0
70023255,70022347,0.057061072,-0.0009058619,-0.06340438,-0.0,0.0,0.0,0.0,0.0
70028185,70027356,0.056982778,-0.0004988013,-0.063490376,-0.0,0.0,0.0,0.0,0.0
70033299,70032353,0.056924336,0.00024902695,-0.063750185,-0.0,0.0,0.0,0.0,0.0
70038320,70037349,0.05704954,0.0010861973,-0.06412329,-0.0,0.0,0.0,0.0,0.0
70043319,70042347,0.05739677,0.0015583581,-0.06454806,-0.0,0.0,0.0,0.0,0.0
70048333,70047347,0.057747114,0.001447891,-0.06506176,-0.0,0.0,0.0,0.0,0.0
70053336,70052379,0.05810738,0.0014168671,-0.06552688,-0.0,0.0,0.0,0.0,0.0
70058367,70057350,0.058592632,0.0014275936,-0.06591762,-0.0,0.0,0.0,0.0,0.0
70063345,70062376,0.059000645,0.0012087764,-0.06628129,-0.0,0.0,0.0,0.0,0.0
70068105,70067347,0.059040044,0.0010070526,-0.066875584,-0.0,0.0,0.0,0.0,0.0
70073317,70072381,0.05878224,0.0011760362,-0.06742033,-0.0,0.0,0.0,0.0,0.0
70078345,70077356,0.058480307,0.0017067854,-0.06780097,-0.0,0.0,0.0,0.0,0.0
70083298,70082347,0.05814628,0.002408204,-0.068272315,-0.0,0.0,0.0,0.0,0.0
70088351,70087357,0.057835277,0.0030099212,-0.06872309,-0.0,0.0,0.0,0.0,0.0
70093392,70092388,0.057668507,0.0029905105,-0.06912889,-0.0,0.0,0.0,0.0,0.0
70098300,70097356,0.057710443,0.0024108943,-0.06951097,-0.0,0.0,0.0,0.0,0.0
70103315,70102347,0.05805744,0.0018107302,-0.06974603,-0.0,0.0,0.0,0.0,0.0
70108304,70107347,0.05842215,0.0015580188,-0.06983252,-0.0,0.0,0.0,0.0,0.0
70113157,70112363,0.05871408,0.001512034,-0.069973394,-0.0,0.0,0.0,0.0,0.0
70118166,70117356,0.0592013,0.0015482232,-0.07008692,-0.0,0.0,0.0,0.0,0.0
70123353,70122347,0.059745613,0.0018665147,-0.07001536,-0.0,0.0,0.0,0.0,0.0
70128308,70127347,0.06015571,0.002551078,-0.06979956,-0.0,0.0,0.0,0.0,0.0
70133480,70132398,0.060339388,0.0030563108,-0.06953997,-0.0,0.0,0.0,0.0,0.0
70138323,70137347,0.060585056,0.0030804335,-0.06916818,-0.0,0.0,0.0,0.0,0.0
70143439,70142347,0.06071879,0.0027019717,-0.068630554,-0.0,0.0,0.0,0.0,0.0
70148321,70147347,0.06059825,0.0018969749,-0.06809812,-0.0,0.0,0.0,0.0,0.0
70153370,70152399,0.06037957,0.0006399256,-0.06748376,-0.0,0.0,0.0,0.0,0.0
70158183,70157347,0.059967518,-0.0005985383,-0.06660003,-0.0,0.0,0.0,0.0,0.0
70163208,70162347,0.059789453,-0.0012924134,-0.06566735,-0.0,0.0,0.0,0.0,0.0
70168287,70167347,0.059424553,-0.0013281709,-0.06475066,-0.0,0.0,0.0,0.0,0.0
70173469,70172396,0.05893645,-0.0009345871,-0.063863486,-0.0,0.0,0.0,0.0,0.0
70178325,70177387,0.058703095,-0.00033753092,-0.063060485,-0.0,0.0,0.0,0.0,0.0
70183393,70182347,0.058658026,0.00033223152,-0.062385436,-0.0,0.0,0.0,0.0,0.0
70188241,70187347,0.058454055,0.00052250404,-0.061587412,-0.0,0.0,0.0,0.0,0.0
70193495,70192396,0.058256105,1.2281675e-05,-0.06086803,-0.0,0.0,0.0,0.0,0.0
70198172,70197349,0.05789419,-0.0009889858,-0.060302693,-0.0,0.0,0.0,0.0,0.0
70203215,70202356,0.057497915,-0.002001981,-0.059854794,-0.0,0.0,0.0,0.0,0.0
70208209,70207347,0.05743571,-0.0025208879,-0.05954919,-0.0,0.0,0.0,0.0,0.0
70213283,70212361,0.057665613,-0.0026413077,-0.05964019,-0.0,0.0,0.0,0.0,0.0
70218158,70217369,0.058032002,-0.002500193,-0.06008944,-0.0,0.0,0.0,0.0,0.0
70223393,70222347,0.058419846,-0.0020848738,-0.06086231,-0.0,0.0,0.0,0.0,0.0
70228224,70227356,0.058949266,-0.001868121,-0.061753664,-0.0,0.0,0.0,0.0,0.0
70233438,70232397,0.059580147,-0.0022521077,-0.06262899,-0.0,0.0,0.0,0.0,0.0
70238286,70237357,0.06028477,-0.0032204983,-0.063715644,-0.0,0.0,0.0,0.0,0.0
70243141,70242347,0.060814198,-0.00424045,-0.06493554,-0.0,0.0,0.0,0.0,0.0
70248140,70247347,0.060918134,-0.004984518,-0.06626215,-0.0,0.0,0.0,0.0,0.0
70253228,70252396,0.06078776,-0.0051465617,-0.06762471,-0.0,0.0,0.0,0.0,0.0
70258152,70257349,0.060392607,-0.0044560656,-0.068752445,-0.0,0.0,0.0,0.0,0.0
70263234,70262347,0.060008086,-0.0032681494,-0.06989577,-0.0,0.0,0.0,0.0,0.0
70268235,70267364,0.059699,-0.0019189387,-0.0711707,-0.0,0.0,0.0,0.0,0.0
70273312,70272352,0.059379093,-0.00065651385,-0.07221076,-0.0,0.0,0.0,0.0,0.0
70278285,70277349,0.059218343,0.00022379811,-0.07298343,-0.0,0.0,0.0,0.0,0.0
70283305,70282396,0.059218034,0.00044634313,-0.07349421,-0.0,0.0,0.0,0.0,0.0
70288177,70287354,0.05950976,0.0002095115,-0.07378253,-0.0,0.0,0.0,0.0,0.0
70293220,70292396,0.059988078,-0.000101511876,-0.07395541,-0.0,0.0,0.0,0.0,0.0
70298234,70297356,0.060449775,-0.00031010914,-0.07387991,-0.0,0.0,0.0,0.0,0.0
70303140,70302354,0.061018515,-0.00033668726,-0.073611446,-0.0,0.0,0.0,0.0,0.0
70308164,70307349,0.06158825,-0.00018001764,-0.07313204,-0.0,0.0,0.0,0.0,0.0
70313227,70312396,0.06197999,0.0002404871,-0.072394684,-0.0,0.0,0.0,0.0,0.0
70318222,70317350,0.062195458,0.00075588765,-0.07146987,-0.0,0.0,0.0,0.0,0.0
70323174,70322351,0.062079426,0.0013789234,-0.07037295,-0.0,0.0,0.0,0.0,0.0
70328148,70327350,0.06176704,0.0018279428,-0.06910821,-0.0,0.0,0.0,0.0,0.0
70333181,70332363,0.061109073,0.0020455683,-0.06775219,-0.0,0.0,0.0,0.0,0.0
70338217,70337354,0.060513075,0.0019334231,-0.066340476,-0.0,0.0,0.0,0.0,0.0
70343142,70342350,0.060275313,0.0013433016,-0.06500489,-0.0,0.0,0.0,0.0,0.0
70348208,70347358,0.060075212,0.00053214753,-0.0637569,-0.0,0.0,0.0,0.0,0.0
70353226,70352396,0.059728898,-0.0001088575,-0.062625326,-0.0,0.0,0.0,0.0,0.0
70358245,70357362,0.059472296,-0.0006200783,-0.061605282,-0.0,0.0,0.0,0.0,0.0
70363223,70362350,0.0594049,-0.00085784483,-0.06070215,-0.0,0.0,0.0,0.0,0.0
70368149,70367350,0.059481587,-0.0007372354,-0.059946038,-0.0,0.0,0.0,0.0,0.0
70373248,70372396,0.059365448,-0.00053809583,-0.05932166,-0.0,0.0,0.0,0.0,0.0
70378165,70377353,0.05905909,-0.00041153166,-0.05886375,-0.0,0.0,0.0,0.0,0.0
70383210,70382359,0.058786944,-0.00039372974,-0.05854131,-0.0,0.0,0.0,0.0,0.0
70388163,70387391,0.05859617,-0.00034245188,-0.058320474,-0.0,0.0,0.0,0.0,0.0
70393249,70392396,0.058681145,-0.00030280298,-0.058285292,-0.0,0.0,0.0,0.0,0.0
70398185,70397347,0.058945607,-0.0003622303,-0.058367673,-0.0,0.0,0.0,0.0,0.0
70403237,70402352,0.0593649,-0.00045611587,-0.058619466,-0.0,0.0,0.0,0.0,0.0
70408138,70407356,0.05974444,-0.00057279377,-0.059112377,-0.0,0.0,0.0,0.0,0.0
70413234,70412399,0.06015053,-0.0003338276,-0.059744295,-0.0,0.0,0.0,0.0,0.0
70418188,70417357,0.060454752,0.00018382062,-0.060397733,-0.0,0.0,0.0,0.0,0.0
70423234,70422347,0.060368307,0.0006980892,-0.061088946,-0.0,0.0,0.0,0.0,0.0
70428144,70427359,0.060151577,0.0010851652,-0.061728418,-0.0,0.0,0.0,0.0,0.0
70433214,70432396,0.059816997,0.00144093,-0.06243175,-0.0,0.0,0.0,0.0,0.0
70438201,70437347,0.059557375,0.0018583641,-0.06316796,-0.0,0.0,0.0,0.0,0.0
70443191,70442349,0.05919339,0.0020498673,-0.06397054,-0.0,0.0,0.0,0.0,0.0
70448150,70447347,0.05885501,0.0020091054,-0.06479354,-0.0,0.0,0.0,0.0,0.0
70453220,70452396,0.058560736,0.0019235666,-0.06560053,-0.0,0.0,0.0,0.0,0.0
70458201,70457347,0.058468286,0.0018003411,-0.06629902,-0.0,0.0,0.0,0.0,0.0
70463177,70462347,0.05852971,0.0018031757,-0.06683,-0.0,0.0,0.0,0.0,0.0
70468147,70467347,0.058579035,0.0017501072,-0.067319795,-0.0,0.0,0.0,0.0,0.0
70473191,70472365,0.05868459,0.0016008015,-0.067788206,-0.0,0.0,0.0,0.0,0.0
70478194,70477355,0.05878763,0.0013785771,-0.06818893,-0.0,0.0,0.0,0.0,0.0
70483165,70482347,0.05896144,0.0009930336,-0.068504795,-0.0,0.0,0.0,0.0,0.0
70488254,70487347,0.05912592,0.0005302004,-0.06874011,-0.0,0.0,0.0,0.0,0.0
70493177,70492383,0.05945408,0.00013813892,-0.068897784,-0.0,0.0,0.0,0.0,0.0
70498253,70497350,0.059733868,5.9227154e-05,-0.06892667,-0.0,0.0,0.0,0.0,0.0
70503176,70502347,0.05991956,9.8674325e-05,-0.068869576,-0.0,0.0,0.0,0.0,0.0
70508200,70507347,0.060109954,0.00037820288,-0.06874576,-0.0,0.0,0.0,0.0,0.0
70513181,70512350,0.06010666,0.0008080086,-0.06858762,-0.0,0.0,0.0,0.0,0.0
70518168,70517350,0.059800215,0.0012520385,-0.068318136,-0.0,0.0,0.0,0.0,0.0
70523226,70522350,0.05933099,0.0014506243,-0.06796361,-0.0,0.0,0.0,0.0,0.0
70528219,70527350,0.05898425,0.001409471,-0.06761023,-0.0,0.0,0.0,0.0,0.0
70533199,70532396,0.058768116,0.0013286296,-0.06730789,-0.0,0.0,0.0,0.0,0.0
70538176,70537356,0.058497716,0.0011878341,-0.06700324,-0.0,0.0,0.0,0.0,0.0
70543198,70542361,0.058129344,0.001032883,-0.06664143,-0.0,0.0,0.0,0.0,0.0
70548214,70547356,0.058023155,0.0008973693,-0.066250995,-0.0,0.0,0.0,0.0,0.0
70553198,70552380,0.058092646,0.00084714603,-0.06588656,-0.0,0.0,0.0,0.0,0.0
70558191,70557366,0.05817765,0.0007894209,-0.065514445,-0.0,0.0,0.0,0.0,0.0
70563278,70562393,0.058387205,0.0005304875,-0.065251105,-0.0,0.0,0.0,0.0,0.0
70568192,70567358,0.05854186,0.00019933308,-0.06500976,-0.0,0.0,0.0,0.0,0.0
70573293,70572355,0.058630828,-0.00013716836,-0.06475655,-0.0,0.0,0.0,0.0,0.0
70578221,70577357,0.05877388,-4.402305e-05,-0.064498946,-0.0,0.0,0.0,0.0,0.0
70583206,70582368,0.058824245,-5.7530233e-05,-0.06431691,-0.0,0.0,0.0,0.0,0.0
70588213,70587377,0.058879536,-6.139849e-05,-0.06417325,-0.0,0.0,0.0,0.0,0.0
70593251,70592386,0.058875613,-0.00016792546,-0.064099975,-0.0,0.0,0.0,0.0,0.0
70598276,70597398,0.058829837,-0.00056190963,-0.06401031,-0.0,0.0,0.0,0.0,0.0
70603219,70602361,0.058853302,-0.0011249066,-0.063926324,-0.0,0.0,0.0,0.0,0.0
70608243,70607366,0.058831625,-0.0017480976,-0.063935466,-0.0,0.0,0.0,0.0,0.0
70613302,70612390,0.058885448,-0.0021275263,-0.06398951,-0.0,0.0,0.0,0.0,0.0
70618226,70617347,0.058846723,-0.002261456,-0.06412364,-0.0,0.0,0.0,0.0,0.0
70623220,70622350,0.05871257,-0.0023329402,-0.064170994,-0.0,0.0,0.0,0.0,0.0
70628259,70627347,0.05860545,-0.002275364,-0.06423308,-0.0,0.0,0.0,0.0,0.0
70633234,70632371,0.058380824,-0.001960054,-0.06438032,-0.0,0.0,0.0,0.0,0.0
70638356,70637361,0.058147445,-0.0016205647,-0.06455438,-0.0,0.0,0.0,0.0,0.0
70643241,70642406,0.057966437,-0.0012046016,-0.064753935,-0.0,0.0,0.0,0.0,0.0
70648312,70647380,0.05781242,-0.00081192976,-0.06484901,-0.0,0.0,0.0,0.0,0.0
70653254,70652384,0.057889927,-0.00047411319,-0.064989306,-0.0,0.0,0.0,0.0,0.0
70658252,70657379,0.058145724,-0.00028072996,-0.065096445,-0.0,0.0,0.0,0.0,0.0
70663232,70662391,0.058391776,-0.00018604727,-0.06527414,-0.0,0.0,0.0,0.0,0.0
70668229,70667393,0.058635704,-0.00016347451,-0.06539329,-0.0,0.0,0.0,0.0,0.0
70673234,70672365,0.058771625,-0.00014119246,-0.06555339,-0.0,0.0,0.0,0.0,0.0
70678266,70677372,0.05883644,-0.00010064282,-0.06572617,-0.0,0.0,0.0,0.0,0.0
70683241,70682394,0.058852658,-0.0001329483,-0.06582582,-0.0,0.0,0.0,0.0,0.0
70688247,70687411,0.058861792,-0.00041023444,-0.065920696,-0.0,0.0,0.0,0.0,0.0
70693233,70692380,0.058824327,-0.0008939232,-0.065947816,-0.0,0.0,0.0,0.0,0.0
70698259,70697373,0.058811888,-0.0013666605,-0.06590763,-0.0,0.0,0.0,0.0,0.0
70703253,70702439,0.05889254,-0.0017044178,-0.06589948,-0.0,0.0,0.0,0.0,0.0
70708237,70707359,0.059016075,-0.0020021033,-0.06586037,-0.0,0.0,0.0,0.0,0.0
70713328,70712399,0.059179552,-0.002457273,-0.06575521,-0.0,0.0,0.0,0.0,0.0
70718254,70717347,0.059405725,-0.0028512233,-0.065712765,-0.0,0.0,0.0,0.0,0.0
70723437,70722347,0.05966613,-0.0031692716,-0.06574734,-0.0,0.0,0.0,0.0,0.0
70728312,70727347,0.059592053,-0.0035851095,-0.06573102,-0.0,0.0,0.0,0.0,0.0
70733335,70732373,0.05942569,-0.003897049,-0.065730765,-0.0,0.0,0.0,0.0,0.0
70738332,70737349,0.059263654,-0.003919411,-0.065712206,-0.0,0.0,0.0,0.0,0.0
70743248,70742347,0.059109557,-0.0037073651,-0.06568863,-0.0,0.0,0.0,0.0,0.0
70748283,70747347,0.059014898,-0.0034559062,-0.06554464,-0.0,0.0,0.0,0.0,0.0
70753283,70752352,0.05893197,-0.0031551432,-0.06533033,-0.0,0.0,0.0,0.0,0.0
70758323,70757347,0.05900375,-0.0027796545,-0.06513481,-0.0,0.0,0.0,0.0,0.0
70763178,70762347,0.059223637,-0.0024370775,-0.06503347,-0.0,0.0,0.0,0.0,0.0
70768214,70767350,0.059490554,-0.0021632365,-0.06489206,-0.0,0.0,0.0,0.0,0.0
70773361,70772396,0.05967973,-0.0018638857,-0.0647535,-0.0,0.0,0.0,0.0,0.0
70778339,70777358,0.05959964,-0.0017079765,-0.064583145,-0.0,0.0,0.0,0.0,0.0
70783309,70782347,0.0594983,-0.0015699352,-0.06440773,-0.0,0.0,0.0,0.0,0.0
70788343,70787356,0.059480425,-0.0013090505,-0.06422649,-0.0,0.0,0.0,0.0,0.0
70793360,70792400,0.05948404,-0.0011678564,-0.06417258,-0.0,0.0,0.0,0.0,0.0
70798315,70797349,0.059340928,-0.0013944545,-0.06410549,-0.0,0.0,0.0,0.0,0.0
70803332,70802347,0.059201337,-0.0016753628,-0.06390421,-0.0,0.0,0.0,0.0,0.0
70808214,70807387,0.05919354,-0.0019443933,-0.06370584,-0.0,0.0,0.0,0.0,0.0
70813427,70812399,0.059327584,-0.0019371442,-0.06364277,-0.0,0.0,0.0,0.0,0.0
70818365,70817402,0.05946217,-0.0019043876,-0.06353156,-0.0,0.0,0.0,0.0,0.0
70823383,70822347,0.059471983,-0.001912581,-0.06340736,-0.0,0.0,0.0,0.0,0.0
70828255,70827347,0.05957584,-0.0019729107,-0.06342699,-0.0,0.0,0.0,0.0,0.0
70833373,70832396,0.05957949,-0.0019591711,-0.06359007,-0.0,0.0,0.0,0.0,0.0
70838298,70837356,0.05951927,-0.001859082,-0.06367899,-0.0,0.0,0.0,0.0,0.0
70843314,70842347,0.05945588,-0.001859663,-0.063802704,-0.0,0.0,0.0,0.0,0.0
70848185,70847353,0.059407394,-0.0017879113,-0.06397341,-0.0,0.0,0.0,0.0,0.0
70853297,70852396,0.059321854,-0.0015848405,-0.06412631,-0.0,0.0,0.0,0.0,0.0
70858189,70857347,0.059305437,-0.00151004,-0.064368695,-0.0,0.0,0.0,0.0,0.0
70863374,70862356,0.059308954,-0.0014825036,-0.064646676,-0.0,0.0,0.0,0.0,0.0
70868203,70867347,0.059346393,-0.0014977,-0.06494685,-0.0,0.0,0.0,0.0,0.0
70873345,70872396,0.059367094,-0.0015241876,-0.06516104,-0.0,0.0,0.0,0.0,0.0
70878371,70877356,0.0594475,-0.0015503245,-0.06538741,-0.0,0.0,0.0,0.0,0.0
70883317,70882347,0.059485536,-0.0013414153,-0.06565103,-0.0,0.0,0.0,0.0,0.0
70888373,70887347,0.059494827,-0.0009580186,-0.065878004,-0.0,0.0,0.0,0.0,0.0
70893342,70892400,0.059442718,-0.0003465206,-0.066115275,-0.0,0.0,0.0,0.0,0.0
70898321,70897347,0.05938861,0.00022342641,-0.066328965,-0.0,0.0,0.0,0.0,0.0
70903155,70902356,0.059423544,0.00040827072,-0.06655975,-0.0,0.0,0.0,0.0,0.0
70908350,70907347,0.05952055,0.00041747364,-0.066815645,-0.0,0.0,0.0,0.0,0.0
70913335,70912409,0.05952571,0.00042357386,-0.06695554,-0.0,0.0,0.0,0.0,0.0
70918431,70917348,0.059535857,0.0004920844,-0.0669611,-0.0,0.0,0.0,0.0,0.0
70923244,70922347,0.0595724,0.00047927248,-0.06687038,-0.0,0.0,0.0,0.0,0.0
70928478,70927347,0.059594892,0.00031871875,-0.06689088,-0.0,0.0,0.0,0.0,0.0
70933227,70932371,0.059586827,0.00023516483,-0.06683293,-0.0,0.0,0.0,0.0,0.0
70938288,70937347,0.059533134,0.00018785855,-0.06667686,-0.0,0.0,0.0,0.0,0.0
70943167,70942347,0.059460603,2.1136899e-05,-0.06657864,-0.0,0.0,0.0,0.0,0.0
70948269,70947349,0.059397057,-0.000299325,-0.06651902,-0.0,0.0,0.0,0.0,0.0
70953159,70952362,0.05922594,-0.00056652026,-0.066429846,-0.0,0.0,0.0,0.0,0.0
70958234,70957347,0.05911944,-0.00068169116,-0.06632104,-0.0,0.0,0.0,0.0,0.0
70963165,70962347,0.059116535,-0.00078601344,-0.0661041,-0.0,0.0,0.0,0.0,0.0
70968233,70967347,0.059225406,-0.00084376126,-0.06591145,-0.0,0.0,0.0,0.0,0.0
70973192,70972396,0.059384055,-0.0007032448,-0.065822616,-0.0,0.0,0.0,0.0,0.0
70978178,70977358,0.05936651,-0.00071453664,-0.06569456,-0.0,0.0,0.0,0.0,0.0
70983178,70982350,0.05924492,-0.0009492411,-0.06555589,-0.0,0.0,0.0,0.0,0.0
70988160,70987347,0.059231102,-0.0010567779,-0.06550595,-0.0,0.0,0.0,0.0,0.0
70993268,70992398,0.059145447,-0.0010730292,-0.065478496,-0.0,0.0,0.0,0.0,0.0
70998244,70997349,0.05903003,-0.0009792304,-0.06550266,-0.0,0.0,0.0,0.0,0.0
71003199,71002350,0.059005465,-0.0009899532,-0.06554154,-0.0,0.0,0.0,0.0,0.0
71008170,71007350,0.059047744,-0.0009991423,-0.06562942,-0.0,0.0,0.0,0.0,0.0
71013243,71012397,0.059164077,-0.00092682935,-0.06585531,-0.0,0.0,0.0,0.0,0.0
71018192,71017398,0.05926853,-0.0010218602,-0.06609856,-0.0,0.0,0.0,0.0,0.0
71023225,71022350,0.059390366,-0.001187689,-0.06613889,-0.0,0.0,0.0,0.0,0.0
71028162,71027356,0.059385635,-0.0012646267,-0.066115424,-0.0,0.0,0.0,0.0,0.0
71033270,71032396,0.05933295,-0.0011413966,-0.06630609,-0.0,0.0,0.0,0.0,0.0
71038231,71037356,0.059245713,-0.00094490405,-0.066572785,-0.0,0.0,0.0,0.0,0.0
71043231,71042350,0.059157796,-0.0011309325,-0.06678737,-0.0,0.0,0.0,0.0,0.0
71048249,71047350,0.05913462,-0.0013560064,-0.06693702,-0.0,0.0,0.0,0.0,0.0
71053299,71052378,0.059201542,-0.0014538042,-0.0671267,-0.0,0.0,0.0,0.0,0.0
71058151,71057363,0.059307914,-0.0013822325,-0.06735526,-0.0,0.0,0.0,0.0,0.0
71063248,71062358,0.059422903,-0.0011400696,-0.06751273,-0.0,0.0,0.0,0.0,0.0
71068293,71067350,0.059509393,-0.0009508273,-0.06755819,-0.0,0.0,0.0,0.0,0.0
71073210,71072398,0.0595678,-0.0007268316,-0.067505084,-0.0,0.0,0.0,0.0,0.0
71078196,71077353,0.059624225,-0.0006116204,-0.06749326,-0.0,0.0,0.0,0.0,0.0
71083170,71082350,0.059634417,-0.0005517519,-0.067514814,-0.0,0.0,0.0,0.0,0.0
71088156,71087347,0.059634626,-0.00035296663,-0.06755714,-0.0,0.0,0.0,0.0,0.0
71093220,71092370,0.059555974,-0.00023622643,-0.06760305,-0.0,0.0,0.0,0.0,0.0
71098153,71097353,0.059428263,-0.00022196874,-0.06757414,-0.0,0.0,0.0,0.0,0.0
71103167,71102347,0.05943681,-0.00017451824,-0.06741789,-0.0,0.0,0.0,0.0,0.0
71108150,71107347,0.0593548,-0.000114939845,-0.067326136,-0.0,0.0,0.0,0.0,0.0
71113238,71112396,0.059326936,8.355414e-06,-0.06719474,-0.0,0.0,0.0,0.0,0.0
71118201,71117361,0.05950417,0.00017855682,-0.06704364,-0.0,0.0,0.0,0.0,0.0
71123212,71122394,0.05948328,0.00039591454,-0.066854425,-0.0,0.0,0.0,0.0,0.0
71128211,71127351,0.059532266,0.00056726387,-0.06667072,-0.0,0.0,0.0,0.0,0.0
71133236,71132401,0.05964708,0.00065762963,-0.06653832,-0.0,0.0,0.0,0.0,0.0
71138236,71137350,0.059648793,0.0007163457,-0.06646031,-0.0,0.0,0.0,0.0,0.0
71143220,71142365,0.05967308,0.00090911484,-0.06637157,-0.0,0.0,0.0,0.0,0.0
71148167,71147347,0.059799753,0.0010134996,-0.06624504,-0.0,0.0,0.0,0.0,0.0
71153253,71152358,0.059894644,0.0010939336,-0.066163,-0.0,0.0,0.0,0.0,0.0
71158230,71157364,0.05995234,0.0011836691,-0.06607912,-0.0,0.0,0.0,0.0,0.0
71163131,71162349,0.06006139,0.0010519681,-0.06596324,-0.0,0.0,0.0,0.0,0.0
71168181,71167368,0.06018002,0.0010815185,-0.06600046,-0.0,0.0,0.0,0.0,0.0
71173210,71172397,0.06023993,0.0011261695,-0.06603035,-0.0,0.0,0.0,0.0,0.0
71178222,71177354,0.060235027,0.0014467327,-0.06614925,-0.0,0.0,0.0,0.0,0.0
71183145,71182354,0.060210057,0.0014783448,-0.0662353,-0.0,0.0,0.0,0.0,0.0
71188174,71187347,0.06010439,0.0012390147,-0.066171825,-0.0,0.0,0.0,0.0,0.0
71193228,71192396,0.05687946,0.0009647373,-0.06620999,-0.0,0.0,0.0,0.0,0.0
71198222,71197350,0.05687415,0.00068373844,-0.066292785,-0.0,0.0,0.0,0.0,0.0
71203134,71202347,0.056754287,0.00056702236,-0.06637894,-0.0,0.0,0.0,0.0,0.0
71208167,71207360,0.05677954,0.0008558224,-0.06642482,-0.0,0.0,0.0,0.0,0.0
71213204,71212376,0.05694813,0.0013721708,-0.066415004,-0.0,0.0,0.0,0.0,0.0
71218297,71217397,0.056971088,0.001541847,-0.066335335,-0.0,0.0,0.0,0.0,0.0
71223233,71222347,0.05687946,0.0016389342,-0.06623863,-0.0,0.0,0.0,0.0,0.0
71228216,71227391,0.056833114,0.0016479391,-0.06618055,-0.0,0.0,0.0,0.0,0.0
71233233,71232373,0.05679095,0.0014114208,-0.06606644,-0.0,0.0,0.0,0.0,0.0
71238177,71237350,0.05359051,0.0010311038,-0.065907314,-0.0,0.0,0.0,0.0,0.0
71243271,71242347,0.053702343,0.00078097626,-0.06570996,-0.0,0.0,0.0,0.0,0.0
71248171,71247370,0.05366147,0.0006199237,-0.06559269,-0.0,0.0,0.0,0.0,0.0
71253217,71252398,0.053695243,0.00057185494,-0.065544754,-0.0,0.0,0.0,0.0,0.0
71258173,71257350,0.053772047,0.000732897,-0.06545688,-0.0,0.0,0.0,0.0,0.0
71263209,71262350,0.027578948,0.00094404,-0.06521784,-0.0,0.0,0.0,0.0,0.0
71268185,71267373,0.027635831,0.0010574198,-0.06502789,-0.0,0.0,0.0,0.0,0.0
71273227,71272400,0.02759206,0.0010740062,-0.0649181,-0.0,0.0,0.0,0.0,0.0
71278207,71277350,0.027480664,0.0010740353,-0.06472015,-0.0,0.0,0.0,0.0,0.0
71283216,71282350,0.0044898414,0.0009535437,-0.064613536,-0.0,0.0,0.0,0.0,0.0
71288170,71287372,0.0044336957,0.00065769354,-0.06448719,-0.0,0.0,0.0,0.0,0.0
71293200,71292358,0.004317089,0.0003323186,-0.06439857,-0.0,0.0,0.0,0.0,0.0
71298208,71297350,0.004165341,9.708127e-05,-0.0644164,-0.0,0.0,0.0,0.0,0.0
71303225,71302358,-0.032487143,-5.6111436e-05,-0.064482294,-0.0,0.0,0.0,0.0,0.0
71308247,71307364,-0.032556154,-0.00039537527,-0.064430706,-0.0,0.0,0.0,0.0,0.0
71313241,71312378,-0.032692224,-0.0006659888,-0.06424792,-0.0,0.0,0.0,0.0,0.0
71318234,71317367,-0.03283976,-0.0007772657,-0.06417651,-0.0,0.0,0.0,0.0,0.0
71323250,71322371,-0.08636009,-0.0007052384,-0.06422453,-0.0,0.0,0.0,0.0,0.0
71328228,71327353,-0.08637961,-0.00065421365,-0.06429126,-0.0,0.0,0.0,0.0,0.0
71333215,71332381,-0.08649761,-0.00062883337,-0.064273074,-0.0,0.0,0.0,0.0,0.0
71338231,71337350,-0.08650624,-0.0007224398,-0.06431744,-0.0,0.0,0.0,0.0,0.0
71343238,71342347,-0.24972904,-0.0008118512,-0.0643909,-0.0,0.0,0.0,0.0,0.0
71348253,71347347,-0.24964362,-0.00094423414,-0.064516805,-0.0,0.0,0.0,0.0,0.0
71353243,71352360,-0.24945574,-0.0014085663,-0.064589106,-0.0,0.0,0.0,0.0,0.0
71358282,71357406,-0.24943414,-0.0017434115,-0.06457792,-0.0,0.0,0.0,0.0,0.0
71363268,71362391,-0.24946238,-0.001948877,-0.06468918,-0.0,0.0,0.0,0.0,0.0
71368282,71367406,-0.36613524,-0.0017103056,-0.06488099,-0.0,0.0,0.0,0.0,0.0
71373346,71372392,-0.36631793,-0.0014432942,-0.065080374,-0.0,0.0,0.0,0.0,0.0
71378247,71377396,-0.36660847,-0.0011458792,-0.06526215,-0.0,0.0,0.0,0.0,0.0
71383300,71382391,-0.3668246,-0.0009424238,-0.065355055,-0.0,0.0,0.0,0.0,0.0
71388248,71387406,-0.40019858,-0.0011252426,-0.0655185,-0.0,0.0,0.0,0.0,0.0
71393329,71392380,-0.40027556,-0.0010424055,-0.065675646,-0.0,0.0,0.0,0.0,0.0
71398249,71397398,-0.40037304,-0.00096258416,-0.065717116,-0.0,0.0,0.0,0.0,0.0
71403316,71402392,-0.40037632,-0.00091669144,-0.06578515,-0.0,0.0,0.0,0.0,0.0
71408244,71407371,-0.40045416,-0.00081028166,-0.06577093,-0.0,0.0,0.0,0.0,0.0
71413334,71412376,-0.47045055,-0.0010701693,-0.06574293,-0.0,0.0,0.0,0.0,0.0
71418223,71417377,-0.47048208,-0.0012147763,-0.06571543,-0.0,0.0,0.0,0.0,0.0
71423405,71422350,-0.47052887,-0.0014623312,-0.06566054,-0.0,0.0,0.0,0.0,0.0
71428276,71427350,-0.47055304,-0.0017159018,-0.0657516,-0.0,0.0,0.0,0.0,0.0
71433351,71432369,-0.4872446,-0.0018950002,-0.065774664,-0.0,0.0,0.0,0.0,0.0
71438328,71437405,-0.48721528,-0.0023487222,-0.06578988,-0.0,0.0,0.0,0.0,0.0
71443378,71442347,-0.48718208,-0.0025091532,-0.0658455,-0.0,0.0,0.0,0.0,0.0
71448299,71447347,-0.48713735,-0.002559339,-0.06591514,-0.0,0.0,0.0,0.0,0.0
71453445,71452400,-0.493808,-0.0028269645,-0.06597286,-0.0,0.0,0.0,0.0,0.0
71458297,71457350,-0.49377072,-0.0031245283,-0.06597568,-0.0,0.0,0.0,0.0,0.0
71463191,71462347,-0.49394256,-0.0037985318,-0.06592885,-0.0,0.0,0.0,0.0,0.0
71468224,71467347,-0.49422327,-0.004371052,-0.06580907,-0.0,0.0,0.0,0.0,0.0
71473343,71472368,-0.4944343,-0.0050754347,-0.0656628,-0.0,0.0,0.0,0.0,0.0
71478340,71477360,-0.49818087,-0.0058825263,-0.06564891,-0.0,0.0,0.0,0.0,0.0
71483291,71482347,-0.49852082,-0.0065122703,-0.0656211,-0.0,0.0,0.0,0.0,0.0
71488304,71487347,-0.49876675,-0.0069649373,-0.06558786,-0.0,0.0,0.0,0.0,0.0
71493355,71492372,-0.4989103,-0.006999472,-0.06554122,-0.0,0.0,0.0,0.0,0.0
71498356,71497358,-0.3654911,-0.006704905,-0.065580204,-0.0,0.0,0.0,0.0,0.0
71503281,71502347,-0.36549425,-0.006339168,-0.06562844,-0.0,0.0,0.0,0.0,0.0
71508213,71507347,-0.3654329,-0.0056533455,-0.06567572,-0.0,0.0,0.0,0.0,0.0
71513271,71512396,-0.3652385,-0.0053669936,-0.0657123,-0.0,0.0,0.0,0.0,0.0
71518378,71517350,-0.36513415,-0.005266057,-0.065748125,-0.0,0.0,0.0,0.0,0.0
71523334,71522347,-0.30829406,-0.0050341887,-0.065733895,-0.0,0.0,0.0,0.0,0.0
71528285,71527347,-0.30811247,-0.0048427135,-0.06570825,-0.0,0.0,0.0,0.0,0.0
71533352,71532397,-0.30797443,-0.0044401526,-0.06576114,-0.0,0.0,0.0,0.0,0.0
71538322,71537350,-0.30785736,-0.0037435638,-0.065821454,-0.0,0.0,0.0,0.0,0.0
71543301,71542391,-0.15438111,-0.003096815,-0.06590661,-0.0,0.0,0.0,0.0,0.0
71548150,71547347,-0.15427725,-0.0022693006,-0.06603159,-0.0,0.0,0.0,0.0,0.0
71553300,71552397,-0.15434706,-0.0014118748,-0.06618883,-0.0,0.0,0.0,0.0,0.0
71558285,71557350,-0.15455495,-0.0003447425,-0.06618451,-0.0,0.0,0.0,0.0,0.0
71563272,71562349,-0.15466657,0.00029079744,-0.06602442,-0.0,0.0,0.0,0.0,0.0
71568288,71567347,-0.028118905,0.00036438438,-0.06585155,-0.0,0.0,0.0,0.0,0.0
71573357,71572382,-0.02852561,0.00034415707,-0.065723516,-0.0,0.0,0.0,0.0,0.0
71578318,71577350,-0.028993994,-0.00013948929,-0.065638006,-0.0,0.0,0.0,0.0,0.0
71583268,71582356,-0.029390436,-0.00052529114,-0.06547765,-0.0,0.0,0.0,0.0,0.0
71588275,71587347,-0.029608523,-0.0012370147,-0.065290846,-0.0,0.0,0.0,0.0,0.0
71593328,71592414,0.095607564,-0.0013930477,-0.06494934,-0.0,0.0,0.0,0.0,0.0
71598212,71597350,0.095764436,-0.0015095333,-0.06468289,-0.0,0.0,0.0,0.0,0.0
71603135,71602347,0.09586595,-0.001748496,-0.06456551,-0.0,0.0,0.0,0.0,0.0
71608163,71607347,0.09599202,-0.0023526181,-0.06439164,-0.0,0.0,0.0,0.0,0.0
71613232,71612399,0.09625877,-0.0027991636,-0.06420841,-0.0,0.0,0.0,0.0,0.0
71618222,71617350,0.14910927,-0.0034136085,-0.06413353,-0.0,0.0,0.0,0.0,0.0
71623157,71622347,0.14935672,-0.0032728333,-0.0641865,-0.0,0.0,0.0,0.0,0.0
71628162,71627347,0.14982936,-0.004341698,-0.06431656,-0.0,0.0,0.0,0.0,0.0
71633213,71632396,0.15033324,-0.00471899,-0.06453039,-0.0,0.0,0.0,0.0,0.0
71638175,71637350,0.15064074,-0.005019003,-0.06490408,-0.0,0.0,0.0,0.0,0.0
71643188,71642347,0.31158966,-0.0038787539,-0.06523505,-0.0,0.0,0.0,0.0,0.0
71648176,71647392,0.31204954,-0.0032572765,-0.065746985,-0.0,0.0,0.0,0.0,0.0
71653238,71652396,0.31232163,-0.0021041152,-0.06622079,-0.0,0.0,0.0,0.0,0.0
71658194,71657350,0.31241423,-0.0020734724,-0.066704646,-0.0,0.0,0.0,0.0,0.0
71663277,71662347,0.31237924,-0.0015234187,-0.06723534,-0.0,0.0,0.0,0.0,0.0
71668140,71667353,0.50267506,-0.0014977016,-0.06775564,-0.0,0.0,0.0,0.0,0.0
71673289,71672396,0.50258714,-0.0012067879,-0.06817067,-0.0,0.0,0.0,0.0,0.0
71678163,71677350,0.5023974,-0.0014211218,-0.0685752,-0.0,0.0,0.0,0.0,0.0
71683247,71682348,0.50209373,-0.0017013069,-0.06892808,-0.0,0.0,0.0,0.0,0.0
71688115,71687351,0.57423687,-0.0016199236,-0.06926975,-0.0,0.0,0.0,0.0,0.0
71693433,71692397,0.5741482,-0.0015189471,-0.069514155,-0.0,0.0,0.0,0.0,0.0
71698252,71697353,0.57416743,-0.0014760722,-0.06962323,-0.0,0.0,0.0,0.0,0.0
71703420,71702350,0.5744696,-0.0018152535,-0.06965656,-0.0,0.0,0.0,0.0,0.0
71708199,71707365,0.7423094,-0.0021661501,-0.069711186,-0.0,0.0,0.0,0.0,0.0
71713441,71712396,0.7427025,-0.0017738,-0.06965451,-0.0,0.0,0.0,0.0,0.0
71718254,71717353,0.7429875,-0.0012346935,-0.06951629,-0.0,0.0,0.0,0.0,0.0
71723282,71722350,0.7433036,-0.000691804,-0.0692655,-0.0,0.0,0.0,0.0,0.0
71728120,71727353,0.74341875,-0.0006333277,-0.06891147,-0.0,0.0,0.0,0.0,0.0
71733290,71732360,0.8091808,-0.0008404917,-0.068627,-0.0,0.0,0.0,0.0,0.0
71738174,71737353,0.80926675,-0.001549356,-0.068345174,-0.0,0.0,0.0,0.0,0.0
71743435,71742350,0.8092496,-0.00224237,-0.06801463,-0.0,0.0,0.0,0.0,0.0
71748272,71747350,0.80921614,-0.0031426337,-0.06765644,-0.0,0.0,0.0,0.0,0.0
71753291,71752384,0.8191272,-0.0034486358,-0.06732573,-0.0,0.0,0.0,0.0,0.0
71758297,71757353,0.81907797,-0.0034402253,-0.0670598,-0.0,0.0,0.0,0.0,0.0
71763316,71762350,0.8189385,-0.0028816715,-0.066847034,-0.0,0.0,0.0,0.0,0.0
71768204,71767351,0.8189525,-0.0021751116,-0.06666291,-0.0,0.0,0.0,0.0,0.0
71773162,71772371,0.81868947,-0.0014235458,-0.06650538,-0.0,0.0,0.0,0.0,0.0
71778174,71777353,0.729801,-0.00080416567,-0.06635398,-0.0,0.0,0.0,0.0,0.0
71783176,71782358,0.72975665,-0.0007252231,-0.06629431,-0.0,0.0,0.0,0.0,0.0
71788192,71787347,0.7298764,-0.00062261027,-0.06633772,-0.0,0.0,0.0,0.0,0.0
71793149,71792366,0.7301715,-0.00059228623,-0.06645026,-0.0,0.0,0.0,0.0,0.0
71798181,71797350,0.651643,-0.0006670092,-0.06653031,-0.0,0.0,0.0,0.0,0.0
71803176,71802369,0.6520036,-0.0004067331,-0.06666889,-0.0,0.0,0.0,0.0,0.0
71808242,71807347,0.65240216,-0.00041410964,-0.06683716,-0.0,0.0,0.0,0.0,0.0
71813189,71812396,0.6527889,-7.1393755e-05,-0.067056015,-0.0,0.0,0.0,0.0,0.0
71818208,71817350,0.65310335,-0.00014500269,-0.06715027,-0.0,0.0,0.0,0.0,0.0
71823214,71822347,0.39364445,-0.00015105789,-0.06712629,-0.0,0.0,0.0,0.0,0.0
71828186,71827347,0.3935952,-0.0006285867,-0.067146085,-0.0,0.0,0.0,0.0,0.0
71833273,71832396,0.39363068,-0.0010781494,-0.06720532,-0.0,0.0,0.0,0.0,0.0
71838171,71837350,0.39360183,-0.0013938093,-0.06727755,-0.0,0.0,0.0,0.0,0.0
71843185,71842347,0.39344203,-0.0016888847,-0.0673396,-0.0,0.0,0.0,0.0,0.0
71848171,71847358,0.13054065,-0.001665153,-0.067388535,-0.0,0.0,0.0,0.0,0.0
71853227,71852353,0.130452,-0.0015112686,-0.06736651,-0.0,0.0,0.0,0.0,0.0
71858187,71857398,0.13052638,-0.0013399936,-0.06739905,-0.0,0.0,0.0,0.0,0.0
71863209,71862350,0.13069785,-0.0009004946,-0.06744489,-0.0,0.0,0.0,0.0,0.0
71868162,71867353,0.045364775,-0.00069756573,-0.06746585,-0.0,0.0,0.0,0.0,0.0
71873302,71872399,0.04546842,-0.00050932704,-0.06746679,-0.0,0.0,0.0,0.0,0.0
71878142,71877349,0.045650855,-0.00029794135,-0.067460984,-0.0,0.0,0.0,0.0,0.0
71883249,71882389,0.04576621,0.0001723007,-0.06754696,-0.0,0.0,0.0,0.0,0.0
71888169,71887347,0.045928463,0.00054203457,-0.06747577,-0.0,0.0,0.0,0.0,0.0
71893242,71892352,-0.066578016,0.0008876803,-0.06739077,-0.0,0.0,0.0,0.0,0.0
71898170,71897363,-0.066445075,0.0012995676,-0.0673672,-0.0,0.0,0.0,0.0,0.0
71903162,71902347,-0.06631737,0.0013651135,-0.067372136,-0.0,0.0,0.0,0.0,0.0
71908187,71907357,-0.06643083,0.0012632179,-0.06731266,-0.0,0.0,0.0,0.0,0.0
71913212,71912364,-0.066518195,0.0011285368,-0.0671154,-0.0,0.0,0.0,0.0,0.0
71918161,71917349,-0.17328243,0.0011209525,-0.06692682,-0.0,0.0,0.0,0.0,0.0
71923200,71922349,-0.17352343,0.0011546398,-0.066824004,-0.0,0.0,0.0,0.0,0.0
71928178,71927353,-0.17362995,0.001111433,-0.06677526,-0.0,0.0,0.0,0.0,0.0
71933208,71932352,-0.17365775,0.0009960826,-0.06668494,-0.0,0.0,0.0,0.0,0.0
71938247,71937352,-0.17353208,0.00080214266,-0.066594705,-0.0,0.0,0.0,0.0,0.0
71943167,71942362,-0.26021472,0.0004999662,-0.066546895,-0.0,0.0,0.0,0.0,0.0
71948196,71947368,-0.26034027,0.00026062966,-0.06651847,-0.0,0.0,0.0,0.0,0.0
71953217,71952394,-0.2603499,2.86586e-05,-0.06652295,-0.0,0.0,0.0,0.0,0.0
71958282,71957349,-0.260351,-9.255396e-05,-0.066476904,-0.0,0.0,0.0,0.0,0.0
71963195,71962399,-0.26050255,0.00010293548,-0.06637904,-0.0,0.0,0.0,0.0,0.0
71968233,71967349,-0.32049164,-5.3477874e-05,-0.06629915,-0.0,0.0,0.0,0.0,0.0
71973271,71972404,-0.32056817,0.00017891944,-0.06639652,-0.0,0.0,0.0,0.0,0.0
71978240,71977349,-0.32058313,8.333175e-05,-0.06644059,-0.0,0.0,0.0,0.0,0.0
71983176,71982350,-0.32067728,0.00021473387,-0.06652223,-0.0,0.0,0.0,0.0,0.0
71988179,71987349,-0.32082567,5.018077e-05,-0.06658158,-0.0,0.0,0.0,0.0,0.0
71993242,71992400,-0.3441448,-0.00018111867,-0.06668499,-0.0,0.0,0.0,0.0,0.0
71998229,71997349,-0.34414935,-9.862862e-05,-0.066766284,-0.0,0.0,0.0,0.0,0.0
72003166,72002340,-0.34421417,-7.002406e-05,-0.066845484,-0.0,0.0,0.0,0.0,0.0
72008170,72007349,-0.3442518,0.00042425367,-0.06682233,-0.0,0.0,0.0,0.0,0.0
72013218,72012350,-0.3442222,0.0006798179,-0.06686788,-0.0,0.0,0.0,0.0,0.0
72018207,72017350,-0.34426364,0.0011896896,-0.06688299,-0.0,0.0,0.0,0.0,0.0
72023282,72022356,-0.34448138,0.0013367437,-0.06689298,-0.0,0.0,0.0,0.0,0.0
72028174,72027354,-0.20469464,0.0013758024,-0.06686076,-0.0,0.0,0.0,0.0,0.0
72033229,72032367,-0.20491284,0.0013969319,-0.06683298,-0.0,0.0,0.0,0.0,0.0
72038217,72037365,-0.1351118,0.0014430325,-0.0668817,-0.0,0.0,0.0,0.0,0.0
72043232,72042375,-0.13513325,0.0013442583,-0.06690201,-0.0,0.0,0.0,0.0,0.0
72048221,72047378,-0.13528265,0.0012501486,-0.066837125,-0.0,0.0,0.0,0.0,0.0
72053203,72052350,-0.13526514,0.0011545175,-0.0667115,-0.0,0.0,0.0,0.0,0.0
72058221,72057349,-0.13533911,0.0010456794,-0.06669804,-0.0,0.0,0.0,0.0,0.0
72063211,72062349,0.057073604,0.00082983245,-0.06667285,-0.0,0.0,0.0,0.0,0.0
72068216,72067417,0.057010435,0.0004992274,-0.066642635,-0.0,0.0,0.0,0.0,0.0
72073256,72072374,0.056787346,0.00013739377,-0.066534534,-0.0,0.0,0.0,0.0,0.0
72078307,72077399,0.056461614,0.00023015647,-0.06636816,-0.0,0.0,0.0,0.0,0.0
72083302,72082399,0.13841902,0.00029486552,-0.06617443,-0.0,0.0,0.0,0.0,0.0
72088244,72087382,0.13839823,0.0005450766,-0.06603598,-0.0,0.0,0.0,0.0,0.0
72093231,72092384,0.13837184,0.00066884136,-0.06593445,-0.0,0.0,0.0,0.0,0.0
72098378,72097396,0.1384875,0.00054742186,-0.065929145,-0.0,0.0,0.0,0.0,0.0
72103215,72102372,0.3685003,0.00061228767,-0.06585796,-0.0,0.0,0.0,0.0,0.0
72108387,72107384,0.36840963,0.00057777343,-0.0656458,-0.0,0.0,0.0,0.0,0.0
72113327,72112387,0.36807108,0.00048707076,-0.06556784,-0.0,0.0,0.0,0.0,0.0
72118384,72117378,0.3675566,0.001018744,-0.06538109,-0.0,0.0,0.0,0.0,0.0
72123323,72122394,0.43924743,0.0010555851,-0.06504704,-0.0,0.0,0.0,0.0,0.0
72128297,72127375,0.43905777,0.0010964565,-0.06477132,-0.0,0.0,0.0,0.0,0.0
72133259,72132394,0.43874758,0.0007829059,-0.06452379,-0.0,0.0,0.0,0.0,0.0
72138286,72137353,0.43822807,0.0013829779,-0.0642891,-0.0,0.0,0.0,0.0,0.0
72143270,72142358,0.43827775,0.0011761172,-0.06418277,-0.0,0.0,0.0,0.0,0.0
72148326,72147371,0.6058277,0.0013043042,-0.06403589,-0.0,0.0,0.0,0.0,0.0
72153247,72152361,0.60590154,0.0008874898,-0.063813426,-0.0,0.0,0.0,0.0,0.0
72158230,72157349,0.60585773,0.0012388035,-0.06361264,-0.0,0.0,0.0,0.0,0.0
72163230,72162353,0.6056618,0.0010926126,-0.06354352,-0.0,0.0,0.0,0.0,0.0
72168247,72167347,0.60564184,0.0009949675,-0.063494064,-0.0,0.0,0.0,0.0,0.0
72173237,72172376,0.6612555,0.0002978205,-0.06340688,-0.0,0.0,0.0,0.0,0.0
