timestamp,magnetometer_ga[0],magnetometer_ga[1],magnetometer_ga[2]
68295953,0.21507509,-0.14966805,0.38253868
68315927,0.19783482,-0.14674772,0.38845927
68335947,0.20096943,-0.13652663,0.37069744
68355955,0.20567133,-0.1379868,0.37957835
68375942,0.20410402,-0.14236727,0.37365776
68395936,0.2182097,-0.13944694,0.37069744
68415921,0.20410402,-0.13360633,0.38253868
68435924,0.20880592,-0.15404852,0.37513793
68455928,0.2103732,-0.14236727,0.36181653
68475917,0.20880592,-0.15988915,0.37365776
68495940,0.20410402,-0.13652663,0.3780982
68515932,0.19626753,-0.1379868,0.3692173
68535960,0.2103732,-0.14236727,0.37069744
68555982,0.20880592,-0.14236727,0.37957835
68575981,0.18216185,-0.1379868,0.3692173
68595923,0.19470023,-0.13652663,0.37365776
68615921,0.21507509,-0.14966805,0.37365776
68636001,0.20567133,-0.1482079,0.37957835
68655937,0.2025367,-0.14382742,0.3692173
68676081,0.2025367,-0.14236727,0.38845927
68695971,0.20410402,-0.14966805,0.37365776
68715966,0.20880592,-0.13214615,0.37957835
68735971,0.20567133,-0.14236727,0.3810585
68755975,0.20096943,-0.15988915,0.37069744
68775939,0.18999833,-0.14674772,0.3780982
68795963,0.20880592,-0.14966805,0.37957835
68816037,0.20880592,-0.1511282,0.3721776
68835981,0.19626753,-0.14382742,0.37513793
68856065,0.20096943,-0.14966805,0.37957835
68875925,0.2229116,-0.15404852,0.3914196
68895932,0.2166424,-0.13214615,0.37513793
68915970,0.2166424,-0.158429,0.37957835
68935919,0.21507509,-0.15258835,0.37957835
68955923,0.2166424,-0.14236727,0.385499
68975936,0.2166424,-0.13214615,0.37957835
68995927,0.20410402,-0.12922585,0.37957835
69015933,0.19313292,-0.12776569,0.3810585
69035928,0.2025367,-0.1379868,0.37957835
69055992,0.20567133,-0.158429,0.3692173
69075941,0.20567133,-0.15404852,0.37957835
69096042,0.2103732,-0.15404852,0.3780982
69115960,0.20880592,-0.1482079,0.3810585
69135973,0.20567133,-0.15404852,0.37513793
69155926,0.20567133,-0.1511282,0.3810585
69175933,0.20567133,-0.158429,0.37957835
69195920,0.2166424,-0.14236727,0.37957835
69215952,0.2119405,-0.1482079,0.3810585
69235934,0.20880592,-0.12922585,0.37957835
69255964,0.2025367,-0.13360633,0.3721776
69275992,0.19783482,-0.13652663,0.37957835
69295994,0.20880592,-0.13360633,0.36773717
69315936,0.20410402,-0.14674772,0.3780982
69335947,0.20880592,-0.14236727,0.37957835
69355923,0.20410402,-0.13652663,0.37069744
69375918,0.20410402,-0.13944694,0.37957835
69395916,0.20880592,-0.14236727,0.3869791
69415921,0.19313292,-0.14382742,0.37957835
69435951,0.21507509,-0.14674772,0.37365776
69455958,0.19940212,-0.14236727,0.3721776
69475982,0.2166424,-0.14236727,0.3692173
69495934,0.2103732,-0.15696883,0.35441574
69516028,0.2025367,-0.14382742,0.3692173
69535997,0.2182097,-0.14966805,0.36181653
69556050,0.21507509,-0.15696883,0.3780982
69576052,0.21507509,-0.13652663,0.38253868
69595916,0.2103732,-0.14674772,0.37957835
69615936,0.2166424,-0.14382742,0.37513793
69635936,0.2182097,-0.1482079,0.37957835
69655919,0.19783482,-0.14674772,0.37069744
69675932,0.21507509,-0.14236727,0.3780982
69695935,0.21977697,-0.14674772,0.36181653
69715932,0.2229116,-0.14382742,0.385499
69735926,0.20880592,-0.15404852,0.366257
69755922,0.20410402,-0.15258835,0.37957835
69775934,0.2103732,-0.13944694,0.3780982
69795919,0.19783482,-0.15258835,0.38253868
69815917,0.20880592,-0.13360633,0.36773717
69835918,0.2119405,-0.1379868,0.37513793
69855939,0.20880592,-0.15258835,0.37365776
69875952,0.2182097,-0.13360633,0.3780982
69895977,0.2025367,-0.1379868,0.3721776
69915976,0.2025367,-0.1482079,0.3810585
69936057,0.20567133,-0.1511282,0.3810585
69955977,0.20880592,-0.14382742,0.37513793
69975962,0.2103732,-0.13652663,0.37365776
69995990,0.2182097,-0.14236727,0.3721776
70015999,0.2182097,-0.14382742,0.37957835
70035929,0.2166424,-0.1511282,0.3603364
70055918,0.20410402,-0.15696883,0.3869791
70075918,0.20567133,-0.158429,0.37957835
70095915,0.22918077,-0.14382742,0.385499
70115927,0.20880592,-0.1511282,0.3692173
70135918,0.18216185,-0.14382742,0.38845927
70155918,0.20880592,-0.1511282,0.3810585
70175960,0.2229116,-0.1482079,0.37957835
70195965,0.22604617,-0.14382742,0.3721776
70215929,0.18999833,-0.1511282,0.3692173
70235972,0.21507509,-0.14674772,0.3780982
70256045,0.20567133,-0.14236727,0.3603364
70276097,0.20567133,-0.15404852,0.37365776
70295926,0.2025367,-0.14236727,0.366257
70316019,0.19940212,-0.12484538,0.37957835
70335949,0.19783482,-0.14966805,0.37365776
70356049,0.21507509,-0.13944694,0.37365776
70375940,0.2119405,-0.14236727,0.3721776
70395962,0.2182097,-0.1482079,0.37957835
70415933,0.2182097,-0.13944694,0.37365776
70435966,0.20096943,-0.14674772,0.36181653
70456034,0.2103732,-0.14236727,0.37957835
70475957,0.20880592,-0.1482079,0.37957835
70495941,0.2025367,-0.1482079,0.37513793
70515917,0.2166424,-0.1379868,0.37957835
70535933,0.20567133,-0.14236727,0.366257
70555932,0.2166424,-0.1482079,0.37513793
70575920,0.20880592,-0.14236727,0.36477685
70595922,0.20880592,-0.14236727,0.3780982
70615949,0.2166424,-0.1482079,0.3721776
70635972,0.20096943,-0.14674772,0.36181653
70655937,0.20880592,-0.14674772,0.3780982
70675956,0.2119405,-0.13360633,0.3721776
70695963,0.19313292,-0.14236727,0.37957835
70715982,0.19940212,-0.14236727,0.37513793
70736023,0.2103732,-0.15258835,0.38253868
70755939,0.20880592,-0.14236727,0.39289978
70776055,0.19470023,-0.14236727,0.3780982
70795965,0.20567133,-0.1482079,0.37957835
70815953,0.2119405,-0.12484538,0.3721776
70835930,0.2182097,-0.13360633,0.39289978
70855920,0.2182097,-0.14674772,0.36181653
70875924,0.21507509,-0.11900475,0.35885626
70895961,0.2025367,-0.14236727,0.3914196
70915980,0.18999833,-0.13214615,0.37513793
70935969,0.2119405,-0.12776569,0.3810585
70956030,0.19313292,-0.14382742,0.3558959
70976050,0.20880592,-0.14382742,0.385499
70996030,0.2025367,-0.14382742,0.3810585
71015930,0.2119405,-0.13360633,0.38845927
71035937,0.2166424,-0.13360633,0.366257
71055915,0.19626753,-0.1379868,0.37957835
71075925,0.21507509,-0.13652663,0.37069744
71095945,0.2182097,-0.13360633,0.37365776
71115916,0.2025367,-0.1379868,0.37513793
71135933,0.19313292,-0.1511282,0.3810585
71155984,0.2103732,-0.14966805,0.36773717
71175972,0.20567133,-0.1511282,0.3810585
71196037,0.20880592,-0.13944694,0.37069744
71215958,0.20880592,-0.12922585,0.36773717
71235981,0.20567133,-0.14382742,0.3810585
71255928,0.2103732,-0.14966805,0.37957835
71275934,0.22604617,-0.1482079,0.37513793
71295926,0.20410402,-0.14674772,0.37069744
71315937,0.2182097,-0.13944694,0.37957835
71335931,0.2182097,-0.14236727,0.3692173
71355969,0.2119405,-0.14382742,0.3692173
71375945,0.2166424,-0.1482079,0.385499
71395959,0.2166424,-0.14236727,0.3603364
71415968,0.20880592,-0.14674772,0.37365776
71435985,0.20567133,-0.14674772,0.366257
71456017,0.20880592,-0.15404852,0.3692173
71475933,0.20880592,-0.13360633,0.3603364
71495940,0.19626753,-0.14382742,0.3692173
71515939,0.20880592,-0.14236727,0.37957835
71535928,0.20880592,-0.15404852,0.385499
71555922,0.2182097,-0.13652663,0.37365776
71575978,0.20410402,-0.14674772,0.3780982
71595936,0.2103732,-0.12922585,0.37957835
71616086,0.19626753,-0.13360633,0.3721776
71635961,0.2103732,-0.14674772,0.36773717
71655943,0.19470023,-0.14236727,0.3780982
71675991,0.19940212,-0.1482079,0.37957835
71696049,0.2119405,-0.13360633,0.385499
71715977,0.18843102,-0.14236727,0.3869791
71735919,0.22604617,-0.1482079,0.385499
71755920,0.20880592,-0.14966805,0.3869791
71775945,0.2103732,-0.14674772,0.37957835
71795940,0.2119405,-0.14236727,0.37513793
71815965,0.20880592,-0.15404852,0.3810585
71835942,0.2103732,-0.12630552,0.3780982
71855930,0.21507509,-0.14236727,0.36773717
71875922,0.20096943,-0.13652663,0.37365776
71895934,0.2025367,-0.1482079,0.3721776
71915921,0.19626753,-0.1379868,0.3692173
71935944,0.2025367,-0.13214615,0.3810585
71955928,0.18999833,-0.1379868,0.3914196
71975929,0.2025367,-0.1511282,0.3810585
71996039,0.2119405,-0.1379868,0.3721776
72015952,0.19940212,-0.1482079,0.37957835
72036049,0.2229116,-0.15404852,0.36181653
72055968,0.20567133,-0.14236727,0.3721776
72075967,0.20410402,-0.14674772,0.37365776
72095950,0.2119405,-0.14382742,0.3692173
72115971,0.19470023,-0.14236727,0.36773717
72135974,0.20567133,-0.15404852,0.3721776
72156003,0.19940212,-0.14236727,0.3810585
72176024,0.20567133,-0.1511282,0.3692173
72195963,0.19940212,-0.1511282,0.37957835
72215954,0.20880592,-0.13944694,0.37069744
72235930,0.20880592,-0.13360633,0.36773717
72255956,0.21507509,-0.13652663,0.38253868
72275944,0.20880592,-0.14966805,0.37365776
72295965,0.18999833,-0.13360633,0.3780982
72315979,0.19940212,-0.1482079,0.37957835
72336029,0.2103732,-0.14966805,0.3780982
72356053,0.20880592,-0.1482079,0.385499
72376104,0.19626753,-0.1482079,0.3721776
72396058,0.2182097,-0.13944694,0.37957835
72416048,0.2182097,-0.1482079,0.3721776
72436093,0.20096943,-0.13944694,0.36773717
72456082,0.2166424,-0.13214615,0.366257
72476068,0.18999833,-0.1511282,0.3692173
72496060,0.20410402,-0.13944694,0.3780982
72516048,0.20096943,-0.14236727,0.37365776
72536055,0.20880592,-0.13360633,0.3721776
72556067,0.2166424,-0.1482079,0.37957835
72576061,0.18999833,-0.12922585,0.37069744
72595933,0.21977697,-0.13214615,0.38253868
72616054,0.20096943,-0.12922585,0.38253868
72636060,0.19626753,-0.14382742,0.3721776
72655928,0.2103732,-0.15696883,0.37365776
72675937,0.19783482,-0.14236727,0.37957835
72695925,0.20880592,-0.13360633,0.3810585
72715923,0.2166424,-0.13360633,0.37513793
72735941,0.19783482,-0.14674772,0.38253868
72755932,0.19626753,-0.14236727,0.37957835
72775930,0.19470023,-0.13652663,0.3529356
72795933,0.20410402,-0.14236727,0.36477685
72815948,0.19470023,-0.14966805,0.3780982
72836010,0.19470023,-0.15696883,0.36477685
72855990,0.20410402,-0.13652663,0.37365776
72876107,0.21507509,-0.13360633,0.3780982
72896004,0.20567133,-0.14236727,0.37513793
72915960,0.2025367,-0.13360633,0.3721776
72935947,0.20880592,-0.14674772,0.37069744
72955916,0.2119405,-0.14236727,0.38845927
72975916,0.19626753,-0.14382742,0.37957835
72995917,0.22918077,-0.13214615,0.3810585
73015922,0.2182097,-0.123385206,0.39289978
73035968,0.20567133,-0.13214615,0.37513793
73055976,0.19940212,-0.1482079,0.3721776
73075969,0.2025367,-0.14236727,0.37513793
73095989,0.19626753,-0.1379868,0.3692173
73116111,0.20567133,-0.14236727,0.37957835
73136107,0.20410402,-0.12630552,0.37365776
73156110,0.20096943,-0.13944694,0.37069744
73175943,0.20567133,-0.1379868,0.3692173
73195924,0.2166424,-0.1482079,0.3721776
73215966,0.2103732,-0.13360633,0.36477685
73235923,0.20880592,-0.14674772,0.3780982
73255994,0.19940212,-0.13360633,0.3721776
73275947,0.20880592,-0.13360633,0.36477685
73296068,0.19470023,-0.12922585,0.37957835
73315992,0.20096943,-0.13652663,0.36773717
73335949,0.20567133,-0.13214615,0.37513793
73355932,0.19940212,-0.15404852,0.3692173
73375931,0.19470023,-0.13944694,0.37069744
73395921,0.19940212,-0.14236727,0.366257
73415941,0.2182097,-0.12922585,0.37957835
73435953,0.20880592,-0.1482079,0.38845927
73455943,0.2119405,-0.13214615,0.38845927
73475954,0.2103732,-0.14236727,0.37069744
73495964,0.2166424,-0.15404852,0.3721776
73515931,0.2103732,-0.13944694,0.36477685
73535957,0.20880592,-0.14236727,0.38253868
73555974,0.19626753,-0.14236727,0.366257
73575979,0.19626753,-0.14382742,0.37957835
73595918,0.19940212,-0.14382742,0.385499
73615920,0.20880592,-0.14674772,0.37957835
73635928,0.19313292,-0.1482079,0.37513793
73655937,0.20410402,-0.14966805,0.37069744
73675983,0.2229116,-0.13360633,0.385499
73695948,0.2229116,-0.14382742,0.366257
73716049,0.20096943,-0.13360633,0.36477685
73735964,0.20880592,-0.13944694,0.3869791
73755959,0.19783482,-0.14966805,0.3780982
73775978,0.19783482,-0.158429,0.38253868
73795937,0.20096943,-0.14236727,0.39289978
73815987,0.20880592,-0.12922585,0.37365776
73835963,0.19783482,-0.12922585,0.37365776
73856030,0.20880592,-0.14236727,0.37513793
73875925,0.2025367,-0.13360633,0.3721776
73895936,0.20410402,-0.13944694,0.3780982
73915940,0.20880592,-0.14966805,0.3780982
73935917,0.22604617,-0.14382742,0.38845927
73955930,0.20096943,-0.14966805,0.38253868
73975953,0.19470023,-0.13944694,0.37365776
73995925,0.2103732,-0.16280948,0.37365776
74015945,0.19940212,-0.1379868,0.36181653
74035937,0.20410402,-0.14966805,0.37365776
74055936,0.2166424,-0.14236727,0.37513793
74075940,0.19313292,-0.12776569,0.3692173
74095980,0.20880592,-0.14382742,0.37513793
74115943,0.2229116,-0.14236727,0.38845927
74136021,0.19940212,-0.14236727,0.37957835
74155950,0.20880592,-0.1379868,0.366257
74175950,0.2103732,-0.13360633,0.3780982
74195916,0.20880592,-0.14236727,0.37957835
74215923,0.19783482,-0.12922585,0.36773717
74235932,0.2119405,-0.1482079,0.3692173
74255961,0.21507509,-0.15258835,0.37957835
74275977,0.19940212,-0.1379868,0.3692173
74296014,0.2025367,-0.14382742,0.37957835
74315938,0.19626753,-0.12776569,0.37513793
74335957,0.2103732,-0.12922585,0.37365776
74355960,0.20880592,-0.13944694,0.38253868
74375943,0.2103732,-0.14236727,0.3869791
74395923,0.20096943,-0.14674772,0.36773717
74415958,0.19626753,-0.14236727,0.37957835
74435976,0.2025367,-0.14236727,0.366257
74455954,0.2119405,-0.12776569,0.3721776
74475960,0.20410402,-0.13944694,0.37957835
74496022,0.2119405,-0.13214615,0.37957835
74516032,0.20410402,-0.13944694,0.37957835
74536077,0.20880592,-0.1379868,0.3692173
74556060,0.20880592,-0.1482079,0.3721776
74576071,0.2119405,-0.14236727,0.366257
74595954,0.20567133,-0.1482079,0.37957835
74615969,0.19783482,-0.14236727,0.37365776
74635971,0.21507509,-0.13944694,0.36477685
74655963,0.19470023,-0.15258835,0.36181653
74675967,0.19313292,-0.1482079,0.366257
74695992,0.20880592,-0.13944694,0.37365776
74716033,0.19626753,-0.1482079,0.38845927
74736046,0.19783482,-0.14674772,0.37957835
74755992,0.20096943,-0.13360633,0.37069744
74776061,0.2166424,-0.1379868,0.3721776
74795926,0.20880592,-0.13360633,0.3603364
74816058,0.2025367,-0.13214615,0.37513793
74836045,0.20880592,-0.14236727,0.38845927
74855939,0.2103732,-0.13652663,0.38253868
74875953,0.20567133,-0.14236727,0.3810585
74895933,0.20410402,-0.13652663,0.36773717
74915920,0.20880592,-0.12630552,0.37957835
74935995,0.19940212,-0.14382742,0.3692173
74955973,0.19940212,-0.1379868,0.37069744
74976086,0.20567133,-0.13360633,0.38845927
74995999,0.2025367,-0.13360633,0.3721776
75015996,0.19626753,-0.158429,0.366257
75035918,0.19626753,-0.1482079,0.385499
75055938,0.19940212,-0.1482079,0.385499
75075937,0.20880592,-0.1379868,0.37513793
75095918,0.19940212,-0.14236727,0.37513793
75115938,0.20096943,-0.15258835,0.38253868
75136124,0.20567133,-0.14382742,0.366257
75155942,0.20880592,-0.15258835,0.3780982
75175954,0.20880592,-0.14382742,0.39437988
75195952,0.2119405,-0.1482079,0.366257
75215941,0.20410402,-0.14674772,0.37957835
75235971,0.2103732,-0.14236727,0.37069744
75255983,0.20410402,-0.13944694,0.3780982
75276036,0.19626753,-0.117544584,0.37957835
75295920,0.2182097,-0.14236727,0.37365776
75315928,0.20880592,-0.13360633,0.366257
75335927,0.20567133,-0.1511282,0.37513793
75355980,0.19940212,-0.12776569,0.3692173
75375943,0.21507509,-0.13360633,0.37957835
75396029,0.2025367,-0.13214615,0.366257
75415957,0.20880592,-0.13360633,0.36773717
75435954,0.20880592,-0.13214615,0.3692173
75455931,0.2103732,-0.14674772,0.37365776
75475937,0.2119405,-0.1379868,0.3721776
75495954,0.2025367,-0.1511282,0.37513793
75515929,0.20096943,-0.13652663,0.37069744
75535940,0.2025367,-0.15404852,0.3810585
75555925,0.2166424,-0.1482079,0.38845927
75575955,0.18999833,-0.13214615,0.3810585
75595942,0.20880592,-0.14382742,0.37513793
75615933,0.2119405,-0.1511282,0.366257
75635929,0.19783482,-0.14236727,0.3869791
75655957,0.2025367,-0.1379868,0.3692173
75675952,0.19313292,-0.13214615,0.3810585
75695975,0.20880592,-0.15258835,0.38253868
75715994,0.20880592,-0.14236727,0.38253868
75735994,0.19626753,-0.1511282,0.38845927
75755944,0.20096943,-0.14236727,0.38253868
75775983,0.2103732,-0.13652663,0.37957835
75795934,0.20880592,-0.15988915,0.3914196
75816076,0.22447887,-0.123385206,0.3869791
75835982,0.2103732,-0.15258835,0.38845927
75855938,0.20880592,-0.15988915,0.37957835
75875922,0.22604617,-0.14382742,0.37957835
75895951,0.19470023,-0.14236727,0.37365776
75915936,0.21507509,-0.13652663,0.37957835
75935956,0.20567133,-0.14236727,0.37957835
75955971,0.21507509,-0.15258835,0.3780982
75975979,0.19940212,-0.14236727,0.3692173
75996039,0.19313292,-0.14236727,0.3692173
76016045,0.20567133,-0.14236727,0.3721776
76035922,0.19313292,-0.14236727,0.3692173
76055934,0.19783482,-0.14674772,0.37069744
76075937,0.2103732,-0.13360633,0.37957835
76095924,0.19783482,-0.13652663,0.37957835
76115960,0.19940212,-0.12776569,0.3529356
76135946,0.19940212,-0.121925056,0.385499
76155934,0.20880592,-0.13944694,0.37957835
76175948,0.20567133,-0.1482079,0.3810585
76195972,0.20880592,-0.13652663,0.3780982
76215949,0.20567133,-0.14236727,0.39437988
76236036,0.2103732,-0.13944694,0.36477685
76255968,0.20096943,-0.13944694,0.37957835
76275968,0.19940212,-0.15404852,0.37957835
76295966,0.2166424,-0.14382742,0.36181653
76316044,0.2166424,-0.14382742,0.385499
76335943,0.2166424,-0.14382742,0.37957835
76355929,0.2119405,-0.13360633,0.37957835
76375935,0.20567133,-0.1482079,0.38845927
76395954,0.20410402,-0.14966805,0.37365776
76415961,0.2166424,-0.14382742,0.37957835
76436014,0.2119405,-0.1482079,0.37957835
76455916,0.2025367,-0.12776569,0.385499
76475921,0.2182097,-0.1482079,0.3721776
76495931,0.20410402,-0.14966805,0.37957835
76515925,0.19783482,-0.14966805,0.36773717
76535924,0.20410402,-0.15988915,0.36773717
76555927,0.2103732,-0.13652663,0.37069744
76575920,0.18999833,-0.14236727,0.38845927
76595922,0.2182097,-0.13944694,0.38253868
76615975,0.19940212,-0.13360633,0.3692173
76635934,0.2025367,-0.1482079,0.3810585
76656084,0.18999833,-0.15988915,0.37365776
76676072,0.19940212,-0.14236727,0.37957835
76695998,0.20410402,-0.12922585,0.37365776
76716049,0.20410402,-0.14236727,0.36773717
76736058,0.2103732,-0.13652663,0.37957835
76755939,0.20880592,-0.12922585,0.3780982
76775925,0.19783482,-0.12922585,0.37069744
76795923,0.20096943,-0.14674772,0.37365776
76816012,0.20880592,-0.15404852,0.37513793
76835934,0.18372913,-0.14236727,0.3780982
76855922,0.20880592,-0.13360633,0.3721776
76875931,0.20567133,-0.13360633,0.3721776
76895928,0.20096943,-0.13360633,0.38253868
76915930,0.20880592,-0.13360633,0.3810585
76935922,0.19470023,-0.13944694,0.38253868
76955928,0.20410402,-0.13944694,0.37957835
76975932,0.20880592,-0.1482079,0.38845927
76995919,0.2182097,-0.13652663,0.37957835
77575921,0.19783482,-0.14236727,0.37957835
77615922,0.19940212,-0.15404852,0.3810585
77635922,0.20880592,-0.14382742,0.366257
77655926,0.2166424,-0.14236727,0.3810585
77675945,0.2119405,-0.13360633,0.37513793
77695927,0.19783482,-0.13360633,0.37365776
77715920,0.20410402,-0.15258835,0.37365776
77735919,0.2119405,-0.13214615,0.37957835
77755928,0.22447887,-0.11608443,0.38253868
77775946,0.20880592,-0.14382742,0.37957835
77795922,0.24485376,-0.14966805,0.34849516
77815949,0.23231538,-0.1379868,0.36181653
77836077,0.2182097,-0.14382742,0.3721776
77855976,0.2276135,-0.13944694,0.37365776
77876024,0.20880592,-0.13944694,0.37365776
77895940,0.2182097,-0.14236727,0.3721776
77916056,0.22918077,-0.1511282,0.3721776
77935980,0.2119405,-0.1482079,0.36181653
77955959,0.2103732,-0.14236727,0.36773717
77975939,0.25112292,-0.13652663,0.34849516
77995930,0.2276135,-0.15258835,0.3529356
78015925,0.23074807,-0.13944694,0.36477685
78035940,0.23388267,-0.13652663,0.36181653
78055937,0.22447887,-0.13944694,0.34849516
78075961,0.23388267,-0.13652663,0.36477685
78095957,0.23701727,-0.1511282,0.37957835
78116022,0.24171914,-0.1511282,0.366257
78136052,0.24485376,-0.13652663,0.36773717
78155930,0.23388267,-0.15696883,0.37365776
78175941,0.2182097,-0.1482079,0.36181653
78195940,0.23231538,-0.15404852,0.366257
78215939,0.24798834,-0.1511282,0.3721776
78235943,0.23701727,-0.1482079,0.3603364
78255973,0.2229116,-0.14382742,0.3603364
78275956,0.23231538,-0.14236727,0.366257
78295995,0.23858455,-0.13360633,0.3603364
78316004,0.22918077,-0.1482079,0.3692173
78336049,0.22604617,-0.13214615,0.36181653
78355994,0.2182097,-0.14236727,0.35441574
78375977,0.2229116,-0.1379868,0.36181653
78395966,0.2229116,-0.1379868,0.36181653
78415978,0.23388267,-0.14966805,0.37069744
78435982,0.23388267,-0.14236727,0.36773717
78455991,0.22918077,-0.1511282,0.37513793
78475984,0.22918077,-0.14382742,0.36181653
78495997,0.22447887,-0.13360633,0.37365776
78515999,0.22604617,-0.1511282,0.3692173
78536032,0.23231538,-0.15404852,0.3692173
78556037,0.24798834,-0.15404852,0.3603364
78576055,0.23701727,-0.15404852,0.3721776
78596046,0.23074807,-0.14236727,0.35441574
78615925,0.21507509,-0.13652663,0.37069744
78636049,0.22918077,-0.14382742,0.3810585
78655919,0.24171914,-0.14382742,0.366257
78676094,0.22918077,-0.15404852,0.3603364
78695928,0.23701727,-0.15404852,0.3721776
78716124,0.24642104,-0.15696883,0.35441574
78735936,0.22447887,-0.13944694,0.36181653
78756058,0.23701727,-0.1511282,0.34997532
78776037,0.23858455,-0.15404852,0.34997532
78796031,0.24171914,-0.14236727,0.3558959
78816034,0.2276135,-0.13944694,0.36773717
78835971,0.2276135,-0.13360633,0.35885626
78856077,0.22604617,-0.14236727,0.3721776
78876055,0.22918077,-0.1511282,0.3603364
78895920,0.24642104,-0.14382742,0.366257
78915967,0.23701727,-0.13944694,0.36477685
78935950,0.22918077,-0.13360633,0.36181653
78955943,0.24798834,-0.13360633,0.366257
78975924,0.24015187,-0.14674772,0.3529356
78995917,0.23701727,-0.14966805,0.35885626
79015915,0.24642104,-0.14966805,0.3529356
79035948,0.24171914,-0.15404852,0.366257
79055942,0.23231538,-0.1482079,0.3603364
79075949,0.25269023,-0.1511282,0.3529356
79095971,0.24642104,-0.15404852,0.3410944
79115926,0.25269023,-0.14236727,0.347015
79135982,0.24485376,-0.14236727,0.35441574
79155937,0.24485376,-0.14674772,0.36477685
79176119,0.25425756,-0.14966805,0.36181653
79195962,0.24015187,-0.13944694,0.35441574
79215963,0.24642104,-0.13652663,0.35885626
79235927,0.24171914,-0.1482079,0.3692173
79255944,0.24642104,-0.14382742,0.36181653
79275973,0.24171914,-0.1482079,0.3603364
79295971,0.24015187,-0.15696883,0.35441574
79315991,0.25582483,-0.158429,0.34997532
79336024,0.24171914,-0.14236727,0.3603364
79355927,0.24485376,-0.14236727,0.34849516
79375920,0.24015187,-0.12922585,0.3351738
79395920,0.25269023,-0.1511282,0.3692173
79415925,0.24015187,-0.13652663,0.34849516
79435943,0.23231538,-0.15988915,0.33665392
79455982,0.23388267,-0.14674772,0.36181653
79475963,0.25112292,-0.14236727,0.35441574
79495959,0.23701727,-0.13652663,0.34849516
79515958,0.23388267,-0.14966805,0.35885626
79536030,0.24642104,-0.1379868,0.3440547
79555991,0.24485376,-0.14674772,0.35885626
79576061,0.24798834,-0.1379868,0.34997532
79596056,0.25582483,-0.13944694,0.35885626
79615956,0.24171914,-0.15404852,0.3692173
79635943,0.24642104,-0.13652663,0.34849516
79655919,0.25425756,-0.14674772,0.3529356
79675918,0.24015187,-0.14674772,0.35441574
79695919,0.24485376,-0.15258835,0.3529356
79715932,0.24642104,-0.13360633,0.3603364
79855931,0.23231538,-0.13360633,0.34997532
79895922,0.23701727,-0.14236727,0.3529356
79915944,0.23701727,-0.1511282,0.3603364
79935995,0.23701727,-0.158429,0.36181653
79955935,0.24642104,-0.1482079,0.34997532
79976000,0.25425756,-0.14966805,0.3529356
79995977,0.24015187,-0.13652663,0.36773717
80016036,0.25582483,-0.12922585,0.36181653
80036009,0.24642104,-0.1482079,0.3440547
80055954,0.23701727,-0.13944694,0.35441574
80075929,0.23074807,-0.14966805,0.35441574
80095933,0.25425756,-0.14966805,0.3529356
80115929,0.24171914,-0.15404852,0.3603364
80135933,0.27463242,-0.14674772,0.34553483
80155937,0.24798834,-0.1511282,0.3529356
80175961,0.28403622,-0.14236727,0.34553483
80195956,0.26836318,-0.1482079,0.33665392
80215921,0.25112292,-0.14966805,0.35441574
80235974,0.27776697,-0.1482079,0.36181653
80255966,0.27463242,-0.14966805,0.33961424
80276043,0.27306512,-0.14236727,0.34997532
80296028,0.27619973,-0.15696883,0.34257454
80316070,0.27619973,-0.15988915,0.34257454
80335936,0.28403622,-0.14966805,0.34553483
80355925,0.28090158,-0.14236727,0.32333258
80375932,0.27463242,-0.1511282,0.327773
80395986,0.2950073,-0.1511282,0.3322135
80415992,0.29970917,-0.15696883,0.32333258
80436046,0.29187268,-0.1482079,0.3159318
80455954,0.29030538,-0.14674772,0.3351738
80475956,0.29657456,-0.14674772,0.32629287
80495948,0.30441102,-0.15988915,0.32629287
80515951,0.31694943,-0.16280948,0.30853105
80535963,0.31224757,-0.1511282,0.3188921
80555971,0.32008407,-0.14674772,0.32037222
80575964,0.31224757,-0.15988915,0.31445163
80595975,0.31851673,-0.1482079,0.32629287
80615974,0.32948783,-0.14966805,0.31001118
80635969,0.32792053,-0.13214615,0.32629287
80655992,0.31224757,-0.15696883,0.33369365
80675980,0.3232186,-0.14674772,0.32333258
80696007,0.32792053,-0.15404852,0.30705088
80716030,0.33889163,-0.158429,0.3026104
80736035,0.33105507,-0.15404852,0.30853105
80755916,0.33262238,-0.14236727,0.31741193
80775916,0.34045887,-0.1379868,0.3188921
80795916,0.34829542,-0.14382742,0.3188921
80816070,0.3561319,-0.13944694,0.30409056
80835939,0.34045887,-0.158429,0.30705088
80856040,0.34045887,-0.15258835,0.30853105
80875953,0.34829542,-0.1379868,0.3026104
80895941,0.35456458,-0.15404852,0.2966898
80915961,0.34359348,-0.15404852,0.30113026
80935932,0.34672812,-0.15988915,0.30113026
80955957,0.34045887,-0.13360633,0.30853105
80975964,0.3561319,-0.15696883,0.31001118
80996069,0.35456458,-0.15404852,0.3026104
81015923,0.35299727,-0.14966805,0.30409056
81035924,0.36083376,-0.15988915,0.30705088
81055924,0.34045887,-0.158429,0.2966898
81075934,0.34986266,-0.13944694,0.29816997
81095942,0.35769916,-0.1482079,0.3026104
81115935,0.3561319,-0.16280948,0.29076922
81135930,0.36553568,-0.15258835,0.29816997
81155951,0.36240107,-0.15696883,0.28484857
81175933,0.35769916,-0.158429,0.2966898
81195922,0.3561319,-0.15988915,0.30113026
81215932,0.37650672,-0.16280948,0.2804081
81235975,0.35456458,-0.1482079,0.2966898
81255954,0.37180486,-0.15258835,0.31001118
81276098,0.37180486,-0.15258835,0.28484857
81295965,0.36553568,-0.14236727,0.29076922
81315978,0.3561319,-0.15988915,0.31001118
81335941,0.36083376,-0.15988915,0.29076922
81355936,0.34986266,-0.15988915,0.29816997
81375937,0.37023756,-0.15988915,0.29076922
81395951,0.36553568,-0.15988915,0.29816997
81415959,0.36240107,-0.15988915,0.30113026
81435979,0.35926646,-0.15988915,0.29520965
81455988,0.36867023,-0.158429,0.2878089
81475928,0.36396837,-0.1511282,0.29965013
81495918,0.35926646,-0.15988915,0.29816997
81515917,0.35769916,-0.15404852,0.29965013
81535923,0.3561319,-0.14966805,0.30113026
81555927,0.35769916,-0.1613493,0.30853105
81575942,0.37180486,-0.15988915,0.29816997
81595932,0.37180486,-0.14966805,0.27596766
81615957,0.3749394,-0.1511282,0.3026104
81636039,0.35456458,-0.15988915,0.29076922
81655978,0.36553568,-0.15258835,0.31445163
81675986,0.36553568,-0.15988915,0.29520965
81696028,0.36867023,-0.1613493,0.30705088
81716053,0.36083376,-0.1686501,0.29076922
81736048,0.37807402,-0.14382742,0.29076922
81755926,0.38747782,-0.15404852,0.29076922
81775933,0.393747,-0.1379868,0.2937295
81795920,0.40001616,-0.1511282,0.26412645
81815939,0.4062854,-0.16280948,0.2804081
81835944,0.4078527,-0.14236727,0.2626463
81855941,0.40001616,-0.158429,0.2685669
81875934,0.41882375,-0.16718994,0.27300736
81895930,0.40001616,-0.1686501,0.27448753
81915945,0.4078527,-0.1613493,0.26412645
81935951,0.4062854,-0.17011026,0.27596766
81955934,0.41412187,-0.1511282,0.2685669
81975934,0.42195836,-0.15988915,0.24784477
84115948,1.4344325,-0.22705638,-0.25688738
84135922,1.4203268,-0.23289703,-0.2539271
84155923,1.4297307,-0.23143685,-0.27760953
84175979,1.4532402,-0.23873764,-0.2539271
84195951,1.4407017,-0.24603845,-0.27316904
84216054,1.446971,-0.24895875,-0.2509668
84236024,1.4485382,-0.22851655,-0.24948661
84255951,1.4375671,-0.2299767,-0.26724845
84275968,1.489288,-0.23435718,-0.28353015
84295985,1.4673457,-0.2372775,-0.27908972
84316036,1.4391345,-0.23435718,-0.27168888
84335927,1.4751823,-0.23435718,-0.27760953
84355932,1.4908552,-0.23873764,-0.30129197
84375929,1.4814515,-0.23873764,-0.29389122
84395923,1.4861534,-0.24603845,-0.28649047
84415927,1.4861534,-0.24895875,-0.30721256
84435923,1.4971246,-0.24311812,-0.27908972
84455919,1.4971246,-0.22267592,-0.28649047
84475956,1.4908552,-0.27086112,-0.27760953
84495975,1.4908552,-0.24165797,-0.28649047
84515997,1.5269032,-0.2372775,-0.29537138
84536026,1.5206338,-0.2372775,-0.3131332
84556081,1.5127975,-0.23289703,-0.28797063
84576051,1.5284704,-0.2577197,-0.31461334
84595972,1.5566818,-0.25625953,-0.320534
84615941,1.5253358,-0.24457827,-0.3057324
84636074,1.5566818,-0.26356032,-0.33237517
84655976,1.5488453,-0.24895875,-0.320534
84675972,1.5331724,-0.23873764,-0.32645458
84695932,1.5645182,-0.23435718,-0.3057324
84715931,1.5613836,-0.2547994,-0.330895
84735922,1.5786239,-0.24895875,-0.33977592
84755932,1.5786239,-0.25333923,-0.32645458
84775925,1.5895951,-0.25333923,-0.3604981
84795929,1.605268,-0.24457827,-0.3442164
84815929,1.5989988,-0.24895875,-0.3294149
84835949,1.5786239,-0.25625953,-0.33977592
84855936,1.6099699,-0.27378142,-0.35013703
84875951,1.6146717,-0.25917986,-0.3353355
84895945,1.620941,-0.26794082,-0.36345837
84915941,1.6272101,-0.25041893,-0.35013703
84935982,1.6287774,-0.25625953,-0.3516172
84955938,1.631912,-0.26356032,-0.3545775
84975963,1.636614,-0.25041893,-0.35901794
84996023,1.6350466,-0.26940095,-0.3604981
85016018,1.6554215,-0.2650205,-0.36493853
85036006,1.6522869,-0.2650205,-0.34717667
85056049,1.6601235,-0.26794082,-0.369379
85076070,1.6428832,-0.25041893,-0.369379
85095972,1.6413159,-0.28400254,-0.3442164
85115965,1.710277,-0.27378142,-0.39306146
85135975,1.6663926,-0.26064,-0.4123034
85155973,1.7024404,-0.28400254,-0.3812202
85176049,1.694604,-0.26356032,-0.4152637
85195987,1.6663926,-0.26064,-0.369379
85216062,1.678931,-0.2650205,-0.39602172
85236034,1.6852001,-0.25917986,-0.39306146
85256069,1.6899021,-0.26064,-0.39454162
85276067,1.6773638,-0.26064,-0.37233928
85296107,1.6726618,-0.2577197,-0.39454162
85316089,1.6820655,-0.2781619,-0.38418055
85336084,1.6710945,-0.2650205,-0.37677976
85356068,1.6710945,-0.27086112,-0.3871408
85376160,1.6679599,-0.26356032,-0.37677976
85395918,1.6710945,-0.2577197,-0.3975019
85415935,1.6773638,-0.25041893,-0.38418055
85435980,1.694604,-0.25333923,-0.3856607
85455936,1.6820655,-0.2577197,-0.369379
85476104,1.6663926,-0.26064,-0.3752996
85495966,1.6804982,-0.2547994,-0.38418055
85515957,1.663258,-0.24749859,-0.3812202
85536149,1.6742291,-0.25917986,-0.3516172
85555940,1.6742291,-0.26356032,-0.37085912
85575932,1.6726618,-0.24749859,-0.37825993
85595931,1.6773638,-0.2650205,-0.369379
85615930,1.678931,-0.27524158,-0.37974003
85635918,1.678931,-0.25333923,-0.37677976
85655916,1.6616906,-0.2650205,-0.36493853
85675939,1.6820655,-0.24457827,-0.3871408
85695961,1.663258,-0.25333923,-0.3752996
85716005,1.663258,-0.2577197,-0.38418055
85735992,1.6710945,-0.27378142,-0.37085912
85755916,1.6679599,-0.26356032,-0.37974003
85775939,1.6585561,-0.25917986,-0.39010113
85795916,1.6679599,-0.25917986,-0.39306146
85815928,1.6804982,-0.24603845,-0.37974003
85835935,1.6679599,-0.26356032,-0.38418055
85855983,1.6710945,-0.24895875,-0.39602172
85875944,1.6648252,-0.26940095,-0.37085912
85896173,1.6710945,-0.25041893,-0.39454162
85915972,1.6522869,-0.25041893,-0.3915813
85935960,1.663258,-0.2650205,-0.37233928
85955966,1.6679599,-0.27378142,-0.37974003
85975998,1.6522869,-0.2577197,-0.36345837
85995964,1.6679599,-0.23873764,-0.38418055
86016061,1.6522869,-0.2547994,-0.3752996
86035935,1.6491523,-0.2650205,-0.36493853
86055937,1.6554215,-0.25333923,-0.39898205
86075931,1.6710945,-0.27524158,-0.36493853
86095950,1.6710945,-0.24749859,-0.35901794
86115930,1.6569889,-0.26064,-0.36345837
86135953,1.6507196,-0.2650205,-0.37825993
86155950,1.6522869,-0.25917986,-0.37677976
86175942,1.6616906,-0.24895875,-0.37085912
86195921,1.6491523,-0.25333923,-0.37677976
86215947,1.6428832,-0.25041893,-0.3220141
86235924,1.6710945,-0.2650205,-0.37677976
86255930,1.6522869,-0.2577197,-0.369379
86275992,1.6601235,-0.2650205,-0.3752996
86295935,1.6428832,-0.23435718,-0.3812202
86316037,1.6428832,-0.25625953,-0.3604981
86335978,1.6554215,-0.25625953,-0.3664187
86355976,1.6428832,-0.2577197,-0.3664187
86375932,1.6507196,-0.2577197,-0.3664187
86395934,1.6350466,-0.25917986,-0.3664187
86415975,1.6460177,-0.26794082,-0.35901794
86435979,1.6428832,-0.2547994,-0.37825993
86455987,1.6460177,-0.26794082,-0.369379
86475931,1.636614,-0.24165797,-0.37825993
86495924,1.6428832,-0.27378142,-0.34865686
86515928,1.6460177,-0.24457827,-0.37233928
86535928,1.6460177,-0.25041893,-0.3812202
86555921,1.6507196,-0.27378142,-0.36345837
86575932,1.6507196,-0.24457827,-0.3752996
86595920,1.6381812,-0.2650205,-0.34125608
86615939,1.6287774,-0.24895875,-0.35753778
86635960,1.6381812,-0.25333923,-0.37085912
86655929,1.6272101,-0.2547994,-0.36345837
86676032,1.6381812,-0.27524158,-0.35753778
86696038,1.6522869,-0.26356032,-0.3664187
86716093,1.6444504,-0.25917986,-0.37085912
86736044,1.6350466,-0.25333923,-0.33977592
86756060,1.6569889,-0.2547994,-0.37825993
86775978,1.6601235,-0.26064,-0.3664187
86795917,1.636614,-0.26064,-0.35901794
86815934,1.6334794,-0.2547994,-0.369379
86835928,1.6428832,-0.26940095,-0.34865686
86855922,1.6428832,-0.25625953,-0.37974003
86875962,1.6413159,-0.25333923,-0.3442164
86895929,1.6444504,-0.24603845,-0.3604981
86915941,1.6413159,-0.25041893,-0.3442164
86935939,1.6413159,-0.2547994,-0.35753778
86955940,1.631912,-0.25333923,-0.34865686
86975951,1.6225083,-0.25625953,-0.3294149
86995926,1.6522869,-0.22705638,-0.3353355
87015941,1.636614,-0.22413607,-0.3131332
87035969,1.6444504,-0.22705638,-0.3353355
87055949,1.6350466,-0.2372775,-0.33977592
87075995,1.6444504,-0.27378142,-0.3545775
87096013,1.6256429,-0.27524158,-0.3545775
87116016,1.6084025,-0.34824947,-0.437466
87136007,1.6021334,-0.35847056,-0.41822404
87156050,1.5864605,-0.34386897,-0.369379
87176030,1.5676528,-0.2913033,-0.33977592
87196033,1.5692202,-0.24311812,-0.3220141
87215967,1.605268,-0.22413607,-0.22136371
87235969,1.6287774,-0.12922585,-0.26280797
87256083,1.5958642,-0.13944694,-0.22284387
87276096,1.5676528,-0.26794082,-0.2746492
87296044,1.547278,-0.28984314,-0.4152637
87316032,1.5394415,-0.3847534,-0.34569657
87336048,1.5660856,-0.54683083,-0.3604981
87355996,1.547278,-0.57749414,-0.39010113
87375939,1.5347396,-0.5979364,-0.32497442
87396058,1.5300378,-0.5366097,-0.29833165
87416064,1.5331724,-0.45776126,-0.25688738
87436107,1.605268,-0.31174552,-0.29833165
87456092,1.663258,-0.1686501,-0.2465263
87475931,1.6146717,-0.12484538,-0.27760953
87495926,1.573922,-0.117544584,-0.1429156
87515928,1.5613836,-0.23435718,-0.17695913
87535978,1.5394415,-0.36285102,-0.24060571
87555934,1.5222012,-0.603777,-0.3516172
87576095,1.5002592,-0.6198387,-0.20952249
87595962,1.5222012,-0.6767849,-0.12515377
87615957,1.4751823,-0.6578028,0.018421058
87635930,1.4830189,-0.6563427,0.024341667
87655957,1.5112301,-0.57165354,-0.040785052
87675930,1.4830189,-0.49426517,0.13091268
87695931,1.4328653,-0.5161676,0.25228524
87715946,1.4657785,-0.46214172,0.2878089
87735943,1.4532402,-0.45776126,0.34849516
87755954,1.4485382,-0.47528318,0.3410944
87775943,1.4407017,-0.4840441,0.28188828
87795929,1.415625,-0.520548,0.28188828
87815948,1.4203268,-0.51324725,0.24488446
87835969,1.3497984,-0.51178706,0.3973402
87855974,1.4015193,-0.5234684,0.32037222
87875991,1.3811444,-0.54683083,0.24488446
87896036,1.3545004,-0.5541316,0.4017807
87915927,1.3592023,-0.5322293,0.48318908
87935940,1.3592023,-0.5278488,0.4787486
87955982,1.3780098,-0.5307691,0.4861494
87975947,1.3874136,-0.5234684,0.4817089
87996023,1.3795772,-0.5161676,0.5083517
88015933,1.388981,-0.50594646,0.48910967
88035944,1.4030867,-0.5190879,0.48910967
88055947,1.4062213,-0.5220082,0.48910967
88075923,1.3623369,-0.5424504,0.53351426
88095958,1.3450966,-0.5176277,0.5127921
88116052,1.3529332,-0.5541316,0.43434405
88135966,1.3482312,-0.5366097,0.42398295
88156046,1.3482312,-0.49426517,0.38253868
88176042,1.3121834,-0.5234684,0.4565463
88195923,1.3388275,-0.5731137,0.48466924
88215927,1.3074814,-0.5278488,0.53943485
88235937,1.3278563,-0.548291,0.60900205
88255946,1.3168852,-0.548291,0.6282441
88275924,1.3356929,-0.54975116,0.6711685
88295932,1.3309909,-0.5220082,0.6312044
88315935,1.3450966,-0.5366097,0.59420055
88335951,1.3482312,-0.54391056,0.5838395
88355950,1.3309909,-0.5453707,0.5867998
88375972,1.3372601,-0.5366097,0.5956807
88395935,1.3325583,-0.5190879,0.55719674
88416053,1.3027797,-0.520548,0.569038
88435976,1.3403947,-0.5278488,0.5645975
88455945,1.3074814,-0.5161676,0.5645975
88475941,1.3137506,-0.50594646,0.55719674
88495958,1.3247217,-0.5307691,0.5542364
88516063,1.3545004,-0.520548,0.56607765
88535939,1.3231543,-0.5220082,0.5675578
88555959,1.3247217,-0.51324725,0.5838395
88575976,1.299645,-0.48696437,0.4861494
88595914,1.3215872,-0.4971855,0.44026464
88615926,1.2808374,-0.47528318,0.4787486
88636047,1.2933757,-0.49426517,0.53055394
88655944,1.2667317,-0.49864566,0.55127615
88675936,1.2651645,-0.51178706,0.58976007
88695928,1.2824048,-0.55705196,0.66080743
88715923,1.2824048,-0.5278488,0.72445405
88735918,1.3012123,-0.56435275,0.6933708
88755953,1.3215872,-0.5088668,0.6652479
88776021,1.3074814,-0.5322293,0.65932727
88795980,1.3059142,-0.5176277,0.6193631
88815962,1.2651645,-0.4840441,0.6460059
88836053,1.2698662,-0.5176277,0.59420055
88856052,1.2604625,-0.501566,0.5867998
88876071,1.2573279,-0.48988473,0.55719674
88895927,1.2510588,-0.501566,0.5675578
88915925,1.2573279,-0.5088668,0.55127615
88935942,1.252626,-0.46652222,0.55719674
88955923,1.2306839,-0.47236282,0.6119624
88975922,1.2009052,-0.50594646,0.637125
88995923,1.2275493,-0.4694425,0.64008534
89015959,1.2306839,-0.49572533,0.6430456
89036050,1.205607,-0.49572533,0.656367
89055971,1.1946361,-0.47236282,0.6741288
89075938,1.2009052,-0.45922142,0.6534067
89095936,1.2134436,-0.48696437,0.64156544
89115933,1.1993378,-0.47090265,0.64156544
89135947,1.1711266,-0.46652222,0.6489662
89155978,1.2165781,-0.47674334,0.6578471
89175926,1.1820976,-0.4796636,0.6489662
89195932,1.1820976,-0.4563011,0.6741288
89215986,1.1758285,-0.46652222,0.6534067
89235982,1.1695592,-0.46214172,0.6622876
89256025,1.1773958,-0.46068162,0.6578471
89275968,1.1554536,-0.4796636,0.6534067
89295978,1.1429152,-0.4504605,0.6652479
89316005,1.1397806,-0.47528318,0.6622876
89335921,1.1397806,-0.4563011,0.6622876
89355921,1.1429152,-0.45338076,0.6815296
89375921,1.1131365,-0.44608,0.6874502
89395926,1.1147039,-0.45776126,0.68893033
89415928,1.1178385,-0.4504605,0.6800494
89435922,1.0927616,-0.45338076,0.6933708
89455944,1.0880599,-0.4387792,0.694851
89475959,1.0833579,-0.4431597,0.6652479
89495957,1.062983,-0.4329386,0.6933708
89515940,1.067685,-0.44900033,0.6874502
89535967,1.0598484,-0.42271748,0.6933708
89556027,1.0316371,-0.4387792,0.7007716
89575978,1.0488774,-0.4256378,0.7037319
89596086,1.052012,-0.42125732,0.7081723
89615942,1.0269352,-0.43001825,0.6978113
89636002,1.0300698,-0.41979715,0.6933708
89655940,1.0269352,-0.4154167,0.7066922
89676052,1.0175315,-0.4256378,0.7096525
89695973,1.0441755,-0.4256378,0.6933708
89715963,1.0253679,-0.42855808,0.6992914
89735940,1.0190988,-0.4387792,0.70521206
89755925,1.0112622,-0.42855808,0.70521206
89775923,1.0128295,-0.43585894,0.6978113
89795934,1.0112622,-0.41395652,0.7007716
89815924,1.0222332,-0.4387792,0.7185334
89835939,1.0112622,-0.42855808,0.70521206
89855922,1.004993,-0.42855808,0.7081723
89875955,1.0285025,-0.4314784,0.7185334
89895921,1.0128295,-0.4329386,0.7126128
89915956,1.0238006,-0.43585894,0.7066922
89935924,1.0300698,-0.44900033,0.69189066
89955927,1.0190988,-0.4504605,0.6992914
89975938,1.0269352,-0.4431597,0.7066922
89995966,1.0441755,-0.43585894,0.7037319
90015979,1.0473101,-0.44608,0.7037319
90036052,1.0457428,-0.4387792,0.71409297
90055988,1.0488774,-0.44608,0.7037319
90075949,1.0488774,-0.46652222,0.71409297
90096061,1.0488774,-0.46506205,0.72445405
90116079,1.0473101,-0.45338076,0.72593415
90135959,1.0708196,-0.47528318,0.73037463
90155937,1.0535793,-0.48258394,0.7466563
90175930,1.0567138,-0.46652222,0.72593415
90195965,1.0692523,-0.47236282,0.7126128
90215974,1.067685,-0.47674334,0.7274143
90256024,1.0582811,-0.47528318,0.71409297
90276024,1.062983,-0.48258394,0.7229739
90296044,1.0817906,-0.4913449,0.7185334
90315941,1.0708196,-0.46652222,0.7185334
90335941,1.0708196,-0.47674334,0.72445405
90355957,1.0770887,-0.48258394,0.7066922
90375954,1.0739541,-0.49280506,0.7066922
90395943,1.0645504,-0.47528318,0.7081723
90415941,1.062983,-0.49572533,0.7126128
90435951,1.0817906,-0.48696437,0.7081723
90456017,1.1005982,-0.501566,0.70521206
90476016,1.0645504,-0.48696437,0.7274143
90516049,1.0645504,-0.510327,0.71113265
90535991,1.0849252,-0.5074066,0.7007716
90556051,1.0739541,-0.5263887,0.7096525
90575995,1.0880599,-0.510327,0.68893033
90596020,1.0880599,-0.5278488,0.694851
90616003,1.0974636,-0.5278488,0.7185334
90635996,1.1005982,-0.5234684,0.7007716
90655997,1.0958962,-0.5307691,0.68597
90676018,1.0958962,-0.5176277,0.694851
90696025,1.0958962,-0.5307691,0.68597
90716036,1.1053001,-0.53368944,0.68893033
90736068,1.1115693,-0.5234684,0.6800494
90755930,1.1053001,-0.5278488,0.7066922
90776075,1.1131365,-0.5424504,0.6933708
90795923,1.1053001,-0.5366097,0.68597
90815920,1.1178385,-0.5278488,0.7007716
90835916,1.1162711,-0.5366097,0.68448985
90855938,1.1178385,-0.53368944,0.6830097
90875932,1.1100019,-0.5424504,0.6815296
90896137,1.1131365,-0.5366097,0.6815296
90915954,1.1053001,-0.5322293,0.6815296
90936071,1.1162711,-0.5526715,0.68448985
90955971,1.1100019,-0.5424504,0.6622876
90975968,1.1178385,-0.5366097,0.666728
90995973,1.1100019,-0.5541316,0.6682082
91015971,1.1037328,-0.56289256,0.67856926
91035916,1.1209731,-0.5395301,0.66080743
91055924,1.1335114,-0.55705196,0.6652479
91075920,1.1538863,-0.54975116,0.6652479
91095929,1.1272422,-0.5672731,0.6711685
91115955,1.1335114,-0.5526715,0.6682082
91135931,1.1350788,-0.56289256,0.65932727
91155931,1.1491843,-0.5526715,0.656367
91175929,1.1460497,-0.5424504,0.656367
91195930,1.1429152,-0.5541316,0.6652479
91215943,1.1570209,-0.54975116,0.6800494
91235936,1.1507517,-0.5278488,0.666728
91255925,1.136646,-0.54391056,0.6711685
91275948,1.1585883,-0.5366097,0.67264867
91295933,1.1554536,-0.5220082,0.68448985
91316002,1.1570209,-0.54391056,0.6770891
91335943,1.1491843,-0.5453707,0.67856926
91356054,1.1476171,-0.53368944,0.6770891
91375956,1.1460497,-0.5278488,0.68448985
91395958,1.1397806,-0.5278488,0.67856926
91415963,1.1429152,-0.51178706,0.69189066
91435978,1.1476171,-0.5074066,0.6741288
91455976,1.1507517,-0.5074066,0.6800494
91476013,1.1335114,-0.50594646,0.6874502
91495929,1.1476171,-0.501566,0.68893033
91515967,1.1491843,-0.49572533,0.6815296
91535926,1.1397806,-0.501566,0.6741288
91555918,1.1460497,-0.48258394,0.7126128
91575927,1.1335114,-0.48112378,0.68597
91595948,1.141348,-0.48112378,0.694851
91615948,1.1617229,-0.46652222,0.69189066
91635973,1.141348,-0.46506205,0.6992914
91655935,1.136646,-0.45484093,0.69189066
91675951,1.1460497,-0.44608,0.67856926
91695974,1.1335114,-0.4563011,0.6741288
91716038,1.136646,-0.4387792,0.6770891
91736032,1.1178385,-0.4446198,0.7007716
91755937,1.1162711,-0.44900033,0.6933708
91776073,1.125675,-0.4431597,0.68448985
91795959,1.1068674,-0.4314784,0.68597
91815952,1.1005982,-0.42417765,0.68893033
91835939,1.1209731,-0.42855808,0.6992914
91855932,1.1209731,-0.41833705,0.6800494
91875941,1.1147039,-0.42125732,0.694851
91895926,1.1115693,-0.42125732,0.68893033
91915922,1.125675,-0.4154167,0.6978113
91935956,1.125675,-0.4154167,0.6978113
91955942,1.1115693,-0.4051956,0.694851
91975939,1.1053001,-0.41979715,0.69189066
91995915,1.0927616,-0.39643463,0.6978113
92015961,1.0958962,-0.41395652,0.6933708
92036063,1.1131365,-0.39351436,0.7096525
92055936,1.1131365,-0.4095761,0.6933708
92075935,1.1005982,-0.36869165,0.6830097
92095950,1.0958962,-0.38767368,0.6992914
92115939,1.1005982,-0.3847534,0.68893033
92135954,1.0958962,-0.36723152,0.7126128
92156009,1.1053001,-0.38183308,0.694851
92176007,1.0927616,-0.38767368,0.6874502
92196050,1.0958962,-0.36139086,0.6830097
92216045,1.0990309,-0.37307212,0.6933708
92235972,1.0802233,-0.3774526,0.6874502
92255929,1.0817906,-0.34824947,0.7185334
92275939,1.0958962,-0.37015182,0.7007716
92295933,1.0755213,-0.35847056,0.71409297
92315935,1.0770887,-0.36285102,0.6874502
92335961,1.1115693,-0.36869165,0.68893033
92355959,1.0958962,-0.3774526,0.7096525
92375953,1.0990309,-0.3511698,0.7096525
92396055,1.0864925,-0.3511698,0.6978113
92415972,1.067685,-0.34824947,0.7185334
92435973,1.0739541,-0.35262993,0.71705323
92456031,1.0817906,-0.35847056,0.7081723
92475982,1.0802233,-0.34094867,0.71705323
92495972,1.0958962,-0.36139086,0.7126128
92515979,1.0896271,-0.36723152,0.7318548
92535999,1.0911944,-0.35262993,0.7081723
92556037,1.0770887,-0.36577135,0.7007716
92576047,1.0974636,-0.34824947,0.70521206
92595983,1.0833579,-0.36285102,0.7037319
92616037,1.0817906,-0.35262993,0.71113265
92636020,1.067685,-0.35262993,0.6978113
92655940,1.0770887,-0.3511698,0.68448985
92675945,1.0896271,-0.34386897,0.7096525
92695928,1.0770887,-0.33510807,0.73037463
92715920,1.0864925,-0.36139086,0.72593415
92735929,1.0582811,-0.34240884,0.71409297
92755932,1.0849252,-0.35262993,0.6992914
92775918,1.067685,-0.33072755,0.6978113
92795916,1.0598484,-0.34678927,0.7007716
92815932,1.0473101,-0.3263471,0.6874502
92835942,1.067685,-0.33072755,0.7185334
92855966,1.067685,-0.3365682,0.72001356
92875978,1.052012,-0.3190463,0.73037463
92895916,1.0535793,-0.30736506,0.7007716
92916057,1.0473101,-0.33364788,0.7185334
92936169,1.0833579,-0.33364788,0.7229739
92955944,1.0316371,-0.30152443,0.72001356
92975920,1.062983,-0.29714394,0.7126128
92995975,1.0347717,-0.2854627,0.7333349
93015955,1.0238006,-0.27086112,0.7229739
93036163,1.0410409,-0.27378142,0.72445405
93055960,1.0316371,-0.25625953,0.73037463
93075979,1.0410409,-0.26940095,0.7007716
93095932,1.0238006,-0.23873764,0.7362952
93116114,1.0253679,-0.24895875,0.7274143
93136026,1.0285025,-0.23873764,0.71409297
93156027,0.99245465,-0.23873764,0.71409297
93175932,1.0175315,-0.24165797,0.7288945
93195935,0.99245465,-0.21683529,0.72001356
93215932,1.0253679,-0.22267592,0.72001356
93235923,1.0018584,-0.24457827,0.7229739
93255938,0.98305094,-0.2372775,0.7274143
93275933,0.99088734,-0.21829545,0.7096525
93295917,0.97991633,-0.22267592,0.7333349
93315932,0.98775274,-0.20807435,0.72593415
93335939,0.99715656,-0.20369388,0.7229739
93355930,0.98775274,-0.21829545,0.7288945
93375939,0.99558926,-0.21245483,0.71113265
93395938,0.97678167,-0.21245483,0.7362952
93415986,0.99088734,-0.21391498,0.72593415
93435954,0.98305094,-0.22121577,0.7288945
93456037,0.97364706,-0.19493292,0.7229739
93476026,0.97991633,-0.21245483,0.71113265
93495941,0.98305094,-0.2022337,0.7407357
93515924,0.98618543,-0.23289703,0.7333349
93535942,0.98305094,-0.21245483,0.71409297
93555956,0.98148364,-0.20807435,0.7407357
93575966,0.97678167,-0.23435718,0.7185334
93595974,0.97991633,-0.22705638,0.7333349
93615921,0.98305094,-0.22267592,0.743696
93635937,0.97991633,-0.2299767,0.7362952
93655931,0.97678167,-0.21391498,0.7407357
93675916,0.97678167,-0.22121577,0.7362952
93695921,0.98148364,-0.22851655,0.7229739
93715949,0.96581066,-0.23289703,0.743696
93735922,0.98148364,-0.23143685,0.7318548
93755935,0.96581066,-0.24603845,0.73037463
93775977,0.97207975,-0.25041893,0.7466563
93796026,0.96894515,-0.23873764,0.73037463
93815931,0.95797414,-0.23873764,0.7362952
93836037,0.95013756,-0.23873764,0.7274143
93856069,0.95170486,-0.25041893,0.7510967
93876063,0.96110874,-0.24749859,0.7466563
93896069,0.9548395,-0.24749859,0.7466563
93915970,0.95170486,-0.25041893,0.7362952
93935936,0.93759924,-0.2650205,0.7377754
93955928,0.94700307,-0.24749859,0.7466563
93975932,0.93446463,-0.2547994,0.7377754
93995932,0.92506087,-0.25917986,0.743696
94015935,0.93446463,-0.26064,0.74517614
94035925,0.93446463,-0.2810822,0.7510967
94055967,0.9328973,-0.27962208,0.7555372
94075945,0.94073385,-0.27086112,0.7510967
94095937,0.93603194,-0.2781619,0.7688586
94115941,0.92506087,-0.2810822,0.7466563
94135941,0.94073385,-0.28400254,0.7644182
94155923,0.9281955,-0.27378142,0.75405705
94175934,0.9328973,-0.28254238,0.77477926
94195938,0.92506087,-0.2810822,0.7703388
94215929,0.92506087,-0.28254238,0.7584975
94235923,0.88744575,-0.26794082,0.75405705
94255999,0.91722435,-0.28400254,0.76589835
94275968,0.90625334,-0.2854627,0.7496166
94296049,0.91565704,-0.2913033,0.7570174
94315989,0.92035896,-0.28254238,0.77181894
94336012,0.9328973,-0.2854627,0.7555372
94355925,0.9281955,-0.2913033,0.7570174
94375933,0.92192626,-0.28692284,0.75405705
94395930,0.91722435,-0.28692284,0.7466563
94415933,0.91095525,-0.27086112,0.7466563
94435980,0.9328973,-0.30006427,0.762938
94455923,0.92506087,-0.2810822,0.762938
94475933,0.93603194,-0.28984314,0.77181894
94495973,0.92349356,-0.28984314,0.7644182
94515927,0.93446463,-0.27086112,0.74517614
94535972,0.91408974,-0.27962208,0.743696
94555963,0.91565704,-0.28984314,0.762938
94575999,0.91722435,-0.2810822,0.7510967
94596083,0.92506087,-0.2956838,0.762938
94616055,0.92192626,-0.28400254,0.7510967
94635940,0.91722435,-0.27086112,0.75405705
94655930,0.92976284,-0.26356032,0.7496166
94675980,0.92506087,-0.27962208,0.7688586
94695940,0.93133,-0.2577197,0.762938
94716023,0.94073385,-0.26064,0.74517614
94736025,0.92506087,-0.27378142,0.7496166
94755974,0.92192626,-0.24457827,0.7377754
94775929,0.92035896,-0.25625953,0.7584975
94795933,0.91565704,-0.2547994,0.7466563
94815938,0.91565704,-0.23873764,0.7229739
94835932,0.92349356,-0.24311812,0.73925555
94855932,0.91565704,-0.24311812,0.7333349
94875935,0.9281955,-0.23143685,0.7377754
94895934,0.92506087,-0.23435718,0.75405705
94915934,0.93133,-0.22413607,0.7466563
94935919,0.9328973,-0.23289703,0.74517614
94955928,0.94073385,-0.24165797,0.7466563
94975934,0.92976284,-0.2299767,0.74517614
94995969,0.93446463,-0.22413607,0.7510967
95015982,0.93446463,-0.21391498,0.7288945
95035985,0.95170486,-0.23435718,0.7510967
95055920,0.93133,-0.22851655,0.72593415
95075927,0.9281955,-0.21391498,0.7510967
95095978,0.93759924,-0.20807435,0.72593415
95115933,0.93759924,-0.20807435,0.72593415
95136116,0.92506087,-0.21683529,0.7274143
95156037,0.93446463,-0.19493292,0.7377754
95175965,0.93759924,-0.21829545,0.7229739
95195932,0.9328973,-0.19347277,0.7185334
95215957,0.92976284,-0.19639309,0.71409297
95235934,0.9328973,-0.19347277,0.71113265
95255956,0.94386846,-0.19055246,0.71409297
95275969,0.94386846,-0.18763214,0.71705323
95295969,0.94386846,-0.19639309,0.71705323
95315917,0.94386846,-0.20807435,0.71113265
95335920,0.94700307,-0.19493292,0.7229739
95355916,0.93603194,-0.18325168,0.71113265
95375924,0.92506087,-0.19493292,0.71705323
95395926,0.92506087,-0.18617198,0.7288945
95415942,0.9281955,-0.17741103,0.72593415
95435916,0.9328973,-0.18033135,0.71409297
95455930,0.93446463,-0.17595088,0.6874502
95475979,0.92976284,-0.16718994,0.68597
95495957,0.9281955,-0.1613493,0.6978113
95515987,0.92506087,-0.15988915,0.69189066
95535943,0.9281955,-0.13360633,0.68448985
95556033,0.91095525,-0.14382742,0.6815296
95575961,0.92506087,-0.12630552,0.6800494
95595958,0.90625334,-0.123385206,0.6741288
95615918,0.90625334,-0.13360633,0.656367
95635931,0.90938795,-0.123385206,0.6800494
95655934,0.92349356,-0.11608443,0.6830097
95675932,0.8937149,-0.10294301,0.666728
95695953,0.90625334,-0.1102438,0.6800494
95715956,0.92035896,-0.09710238,0.6830097
95736001,0.91565704,-0.095642224,0.6622876
95755929,0.8952822,-0.09126175,0.6652479
95775939,0.89841676,-0.10732348,0.6652479
95795947,0.91565704,-0.09126175,0.65932727
95815919,0.91095525,-0.08834144,0.65932727
95835924,0.90625334,-0.08834144,0.637125
95855941,0.92035896,-0.09710238,0.6519265
95875939,0.8952822,-0.08542112,0.656367
95895924,0.91565704,-0.09856254,0.68448985
95915956,0.91408974,-0.10732348,0.6800494
95936070,0.91408974,-0.10732348,0.69189066
95955933,0.91565704,-0.09856254,0.6874502
95976023,0.91722435,-0.09126175,0.6933708
95996057,0.91408974,-0.10294301,0.6992914
96016057,0.93446463,-0.10732348,0.6933708
96035916,0.94700307,-0.105863325,0.7126128
96055936,0.94700307,-0.10732348,0.7096525
96075929,0.97207975,-0.13214615,0.7185334
96095938,0.99402195,-0.13360633,0.7466563
96115928,0.99715656,-0.14382742,0.7510967
96135931,1.020666,-0.13214615,0.79550135
96155934,1.0175315,-0.105863325,0.7910609
96175934,1.0457428,-0.123385206,0.8058624
96195919,1.0379062,-0.117544584,0.79550135
96215930,1.0567138,-0.121925056,0.7984617
96235924,1.0394735,-0.12922585,0.7836601
96255928,1.0457428,-0.12630552,0.7688586
96275929,1.067685,-0.12630552,0.7688586
96295944,1.0269352,-0.14236727,0.762938
96315926,1.0300698,-0.1511282,0.75405705
96335929,1.0347717,-0.14236727,0.77181894
96356005,1.0222332,-0.13652663,0.7496166
96375953,1.0300698,-0.14382742,0.7466563
96396027,1.0034257,-0.14382742,0.7362952
96416045,1.020666,-0.15404852,0.7185334
96435982,1.0081276,-0.12484538,0.7377754
96455987,1.0081276,-0.1482079,0.72593415
96476014,1.0112622,-0.1482079,0.7185334
96495946,1.0081276,-0.12776569,0.7185334
96515959,1.0018584,-0.14236727,0.7096525
96535969,0.97364706,-0.13360633,0.68893033
96556092,0.98775274,-0.117544584,0.6978113
96576021,0.97991633,-0.13652663,0.69189066
96596031,0.97678167,-0.121925056,0.6874502
96616030,0.97991633,-0.13652663,0.7081723
96636058,0.96737784,-0.121925056,0.69189066
96655980,0.99088734,-0.13360633,0.6874502
96676063,0.96894515,-0.12630552,0.68597
96696070,0.96424335,-0.117544584,0.7096525
96716153,0.97991633,-0.12630552,0.694851
96736092,0.96894515,-0.12630552,0.7007716
96756096,0.96267605,-0.11608443,0.68893033
96776025,0.97364706,-0.10732348,0.6933708
96795942,0.96581066,-0.11316411,0.69189066
96816076,0.95797414,-0.111703955,0.6874502
96836070,0.97364706,-0.111703955,0.68448985
96856063,0.96581066,-0.11900475,0.6992914
96875948,0.96267605,-0.11316411,0.69189066
96895933,0.94543576,-0.123385206,0.6770891
96915948,0.95327216,-0.09710238,0.70521206
96935944,0.95640683,-0.11900475,0.68597
96955939,0.94700307,-0.117544584,0.6978113
96975925,0.9548395,-0.12484538,0.6874502
96995942,0.95327216,-0.12630552,0.69189066
97015956,0.94073385,-0.121925056,0.6741288
97035919,0.94073385,-0.13214615,0.7066922
97055928,0.94700307,-0.12484538,0.7096525
97075936,0.95640683,-0.13360633,0.70521206
97095931,0.95797414,-0.1511282,0.7288945
97115937,0.95327216,-0.14236727,0.7274143
97135955,0.95013756,-0.13944694,0.72445405
97155982,0.93759924,-0.14382742,0.7229739
97175916,0.95170486,-0.15988915,0.7185334
97196032,0.95954144,-0.15988915,0.7362952
97215940,0.95327216,-0.15696883,0.73037463
97235964,0.92976284,-0.15988915,0.7274143
97256073,0.95013756,-0.15696883,0.71409297
97275953,0.92349356,-0.16280948,0.7274143
97295931,0.95170486,-0.17595088,0.74517614
97315929,0.93133,-0.1613493,0.7377754
97335937,0.93603194,-0.15988915,0.72445405
97355966,0.94700307,-0.15988915,0.7377754
97375920,0.93446463,-0.1686501,0.7318548
97395987,0.9328973,-0.15696883,0.743696
97415979,0.93446463,-0.17595088,0.7362952
97436025,0.93446463,-0.1686501,0.7288945
97456051,0.93446463,-0.1686501,0.7126128
97476068,0.94386846,-0.1613493,0.7318548
97495931,0.92192626,-0.1613493,0.7229739
97515929,0.92349356,-0.15988915,0.74517614
97535946,0.93603194,-0.15988915,0.72001356
97555937,0.94073385,-0.1686501,0.74517614
97595939,0.91565704,-0.17303057,0.7274143
97615986,0.94386846,-0.1715704,0.7377754
97635935,0.92976284,-0.16280948,0.73925555
97656046,0.94386846,-0.1511282,0.7407357
97675960,0.93446463,-0.15988915,0.7407357
97695945,0.91565704,-0.16280948,0.7362952
97715931,0.93446463,0.21245098,0.7407357
97735920,0.93446463,-0.15404852,0.7688586
97755927,0.92506087,-0.17011026,0.7496166
97775933,0.92349356,-0.17741103,0.72001356
97795937,0.9328973,-0.17303057,0.743696
97815935,0.92506087,-0.1817915,0.74517614
97835953,0.9281955,-0.18763214,0.74517614
97855954,0.92192626,-0.17595088,0.75405705
97875988,0.92035896,-0.19639309,0.7496166
97895918,0.92506087,-0.18033135,0.7496166
97915926,0.9281955,-0.17595088,0.7510967
97935928,0.92506087,-0.18325168,0.7496166
97955931,0.91565704,-0.18617198,0.7510967
97975930,0.93759924,-0.19785325,0.76589835
97995946,0.95170486,-0.18763214,0.7466563
98015920,0.92506087,-0.20661418,0.77181894
98035998,0.92976284,-0.20661418,0.762938
98055971,0.93759924,-0.2022337,0.76589835
98076091,0.93446463,-0.21391498,0.7792197
98096034,0.93916655,-0.20077355,0.7777395
98115976,0.94543576,-0.22267592,0.7688586
98136032,0.9281955,-0.20369388,0.77625936
98155983,0.94386846,-0.21829545,0.7792197
98176059,0.93916655,-0.21683529,0.78069985
98195937,0.95170486,-0.23873764,0.7851403
98215939,0.95640683,-0.2299767,0.78662044
98235939,0.96424335,-0.22413607,0.7910609
98255962,0.95327216,-0.2299767,0.78958076
98275938,0.93446463,-0.22851655,0.77625936
98295963,0.96110874,-0.23143685,0.7984617
98316022,0.95170486,-0.24749859,0.7792197
98335959,0.94386846,-0.22413607,0.7851403
98355954,0.95327216,-0.23873764,0.78958076
98375976,0.94386846,-0.23289703,0.78662044
98395966,0.95327216,-0.24603845,0.78069985
98415962,0.95327216,-0.23873764,0.7644182
98436019,0.95013756,-0.2372775,0.78069985
98456051,0.95013756,-0.2299767,0.792541
98476095,0.95013756,-0.23873764,0.7777395
98496075,0.9281955,-0.24165797,0.7851403
98516085,0.95640683,-0.24603845,0.7836601
98536055,0.95954144,-0.24311812,0.7777395
98555945,0.95013756,-0.25625953,0.8029021
98575987,0.95170486,-0.25041893,0.77181894
98595974,0.95797414,-0.24749859,0.7851403
98616002,0.95013756,-0.27378142,0.7984617
98635927,0.93603194,-0.25625953,0.78069985
98655922,0.94386846,-0.2650205,0.78958076
98675920,0.94700307,-0.2577197,0.7851403
98695918,0.95797414,-0.2650205,0.77625936
98715929,0.96581066,-0.25625953,0.78069985
98735938,0.95954144,-0.26940095,0.7984617
98755949,0.95640683,-0.26940095,0.78662044
98775956,0.94386846,-0.25041893,0.78958076
98795926,0.9548395,-0.2547994,0.7910609
98815933,0.94386846,-0.27962208,0.78958076
98835943,0.9548395,-0.26794082,0.7910609
98856037,0.9548395,-0.2547994,0.78218
98876092,0.94386846,-0.2547994,0.7792197
98895937,0.96581066,-0.2650205,0.78958076
98916136,0.95327216,-0.25333923,0.78958076
98935978,0.95797414,-0.2577197,0.7851403
98955941,0.95797414,-0.23435718,0.78958076
98975923,0.93759924,-0.24749859,0.78958076
98995921,0.95170486,-0.2577197,0.7910609
99015963,0.9548395,-0.23873764,0.7851403
99035923,0.9328973,-0.2372775,0.7777395
99055947,0.94386846,-0.24603845,0.78958076
99075922,0.93603194,-0.23289703,0.78662044
99095932,0.93916655,-0.2299767,0.77181894
99115929,0.92506087,-0.24457827,0.7851403
99135976,0.94073385,-0.23435718,0.75997764
99155944,0.91565704,-0.24311812,0.7644182
99175942,0.92506087,-0.24311812,0.77477926
99195921,0.92506087,-0.23873764,0.79550135
99215974,0.92506087,-0.23873764,0.7688586
99235930,0.92349356,-0.24311812,0.7777395
99255940,0.93759924,-0.22413607,0.762938
99275955,0.93446463,-0.25041893,0.7792197
99296026,0.90938795,-0.21683529,0.7688586
99316002,0.91565704,-0.22705638,0.7836601
99336043,0.90625334,-0.23873764,0.77477926
99356035,0.91565704,-0.24311812,0.78662044
99375948,0.91722435,-0.22851655,0.78218
99395931,0.90782064,-0.22851655,0.7910609
99415928,0.91095525,-0.22851655,0.7792197
99435928,0.90625334,-0.21829545,0.77625936
99455925,0.90938795,-0.2197556,0.7644182
99475960,0.91095525,-0.22851655,0.77181894
99495964,0.92035896,-0.21683529,0.78958076
99515976,0.90625334,-0.22851655,0.77625936
99535938,0.8937149,-0.2095345,0.7777395
99555981,0.90625334,-0.22413607,0.76589835
99575969,0.8921476,-0.22851655,0.77625936
99596017,0.89841676,-0.23143685,0.78218
99616067,0.91565704,-0.22121577,0.7851403
99635921,0.8921476,-0.21829545,0.7792197
99655920,0.90311867,-0.2372775,0.78662044
99675920,0.90782064,-0.23143685,0.7984617
99696030,0.88901305,-0.24603845,0.78662044
99715987,0.88744575,-0.22413607,0.7910609
99735954,0.89998406,-0.2197556,0.78069985
99756033,0.90782064,-0.23873764,0.79550135
99775951,0.89998406,-0.23289703,0.78662044
99795938,0.8952822,-0.24749859,0.78958076
99815957,0.89841676,-0.24749859,0.79550135
99835981,0.90311867,-0.2372775,0.77477926
99855919,0.8921476,-0.23143685,0.79550135
99875926,0.89684945,-0.23873764,0.8029021
99895919,0.89841676,-0.22851655,0.78958076
