timestamp,timestamp_sample,baro_device_id,baro_alt_meter,baro_temp_celcius,baro_pressure_pa,rho
68320869,68298163,3997706,22.06601,44.73,101060.25,1.200763
68371177,68350938,3997706,22.087149,44.719997,101060.0,1.20076
68421855,68404034,3997706,22.147923,44.73,101059.25,1.2007511
68482096,68459414,3997706,22.105644,44.73,101059.75,1.200757
68532498,68512196,3997706,22.087149,44.739998,101060.0,1.20076
68582682,68565010,3997706,22.044872,44.739998,101060.49,1.2007658
68643050,68620269,3997706,21.981457,44.739998,101061.24,1.2007748
68693268,68673003,3997706,21.68816,44.75,101064.75,1.2008164
68744633,68725767,3997706,22.06601,44.75,101060.24,1.2007629
68804427,68781061,3997706,21.899546,44.75,101062.24,1.2007866
68854475,68834281,3997706,21.918041,44.76,101062.0,1.2007837
68904769,68887052,3997706,22.232477,44.76,101058.24,1.2007391
68965113,68942385,3997706,22.023733,44.76,101060.76,1.200769
69015537,68995207,3997706,21.918041,44.77,101062.0,1.2007837
69065772,69048028,3997706,22.253614,44.77,101057.99,1.2007362
69126061,69103348,3997706,21.960318,44.77,101061.5,1.2007778
69176346,69156130,3997706,21.896902,44.77,101062.25,1.2007867
69226976,69209199,3997706,22.105644,44.78,101059.75,1.200757
69287323,69264592,3997706,21.960318,44.789997,101061.5,1.2007778
69337635,69317454,3997706,22.044872,44.789997,101060.5,1.200766
69388059,69370221,3997706,21.875763,44.789997,101062.5,1.2007897
69448329,69425512,3997706,21.960318,44.8,101061.5,1.2007778
69498469,69478271,3997706,22.06601,44.8,101060.25,1.200763
69548714,69531051,3997706,22.126783,44.8,101059.5,1.200754
69609473,69586421,3997706,21.81499,44.8,101063.25,1.2007986
69659729,69639498,3997706,22.105644,44.809998,101059.75,1.200757
69709993,69692262,3997706,21.941822,44.809998,101061.74,1.2007806
69770249,69747569,3997706,22.1902,44.82,101058.75,1.2007451
69820615,69800372,3997706,21.918041,44.809998,101062.0,1.2007837
69870885,69853133,3997706,22.023733,44.82,101060.74,1.2007688
69931123,69908423,3997706,22.253614,44.82,101057.99,1.2007362
69981478,69961261,3997706,22.211338,44.829998,101058.5,1.2007421
70032217,70014539,3997706,22.06601,44.829998,101060.25,1.200763
70092611,70069872,3997706,22.023733,44.829998,101060.76,1.200769
70143025,70122689,3997706,22.06601,44.84,101060.24,1.2007629
70193379,70175491,3997706,22.126783,44.84,101059.5,1.200754
70254119,70230766,3997706,21.941822,44.85,101061.74,1.2007806
70304272,70283549,3997706,22.044872,44.85,101060.49,1.2007658
70374079,70343836,3997706,21.952393,44.85,101061.6,1.200779
70424713,70404536,3997706,22.044872,44.85,101060.5,1.200766
70475001,70457308,3997706,21.899546,44.86,101062.24,1.2007866
70535544,70512670,3997706,21.896902,44.86,101062.26,1.2007868
70585694,70565514,3997706,22.023733,44.87,101060.74,1.2007688
70636083,70618298,3997706,22.044872,44.87,101060.5,1.200766
70696325,70673624,3997706,22.087149,44.87,101060.0,1.20076
70746634,70726434,3997706,21.918041,44.87,101062.0,1.2007837
70797298,70779627,3997706,22.023733,44.879997,101060.76,1.200769
70857678,70834948,3997706,21.960318,44.879997,101061.5,1.2007778
70908021,70887770,3997706,22.044872,44.89,101060.5,1.200766
70958390,70940540,3997706,22.002594,44.89,101061.0,1.2007718
71018551,70995829,3997706,21.960318,44.89,101061.5,1.2007778
71068852,71048621,3997706,22.002594,44.89,101061.0,1.2007718
71119049,71101388,3997706,22.002594,44.899998,101061.0,1.2007718
71179762,71156859,3997706,21.875763,44.91,101062.5,1.2007897
71230070,71209847,3997706,22.147923,44.91,101059.25,1.2007511
71280560,71262730,3997706,21.857267,44.91,101062.74,1.2007926
71340687,71318014,3997706,22.002594,44.91,101061.01,1.2007719
71391016,71370784,3997706,22.126783,44.91,101059.5,1.200754
71441236,71423571,3997706,22.169062,44.91,101059.0,1.2007481
71501543,71478855,3997706,21.93918,44.93,101061.75,1.2007807
71552285,71531727,3997706,22.126783,44.93,101059.5,1.200754
71602490,71584817,3997706,21.899546,44.93,101062.24,1.2007866
71662943,71640104,3997706,21.81499,44.93,101063.24,1.2007985
71713185,71692878,3997706,22.126783,44.93,101059.5,1.200754
71764429,71745639,3997706,22.105644,44.94,101059.75,1.200757
71824332,71800937,3997706,22.023733,44.94,101060.76,1.200769
71884373,71859745,3997706,22.103004,44.95,101059.8,1.2007576
71944234,71921508,3997706,22.087149,44.94,101060.0,1.20076
71995207,71974471,3997706,22.108288,44.95,101059.74,1.2007569
72065444,72035003,3997706,21.952393,44.96,101061.6,1.200779
72115580,72095382,3997706,22.06601,44.96,101060.24,1.2007629
72165825,72148155,3997706,21.941822,44.96,101061.74,1.2007806
72226187,72203462,3997706,21.81499,44.969997,101063.25,1.2007986
72276483,72256276,3997706,22.108288,44.969997,101059.74,1.2007569
72326779,72309055,3997706,22.126783,44.969997,101059.5,1.200754
72387572,72364451,3997706,21.918041,44.969997,101062.0,1.2007837
72437950,72417589,3997706,22.105644,44.98,101059.75,1.200757
72488063,72470394,3997706,22.023733,44.98,101060.75,1.200769
72548400,72525659,3997706,21.981457,44.989998,101061.24,1.2007748
72598696,72578446,3997706,22.087149,44.989998,101060.0,1.20076
72648913,72631231,3997706,21.93918,44.989998,101061.76,1.2007809
72709257,72686560,3997706,21.899546,45.0,101062.24,1.2007866
72759984,72739448,3997706,21.836128,45.0,101063.0,1.2007957
72810213,72792534,3997706,21.81499,45.0,101063.24,1.2007985
72870726,72847865,3997706,21.899546,45.01,101062.24,1.2007866
72920825,72900640,3997706,21.960318,45.01,101061.5,1.2007778
72971117,72953401,3997706,21.857267,45.01,101062.76,1.2007928
73031373,73008678,3997706,21.981457,45.01,101061.26,1.2007749
73081686,73061447,3997706,21.960318,45.02,101061.5,1.2007778
73131868,73114208,3997706,21.875763,45.02,101062.5,1.2007897
73192688,73169703,3997706,21.918041,45.03,101062.0,1.2007837
73242999,73222679,3997706,21.875763,45.03,101062.5,1.2007897
73293203,73275490,3997706,22.087149,45.03,101060.0,1.20076
73354079,73330759,3997706,21.899546,45.039997,101062.24,1.2007866
73404238,73383520,3997706,22.06601,45.039997,101060.24,1.2007629
73474050,73443821,3997706,22.002594,45.039997,101061.0,1.2007718
73524350,73504115,3997706,22.377804,45.039997,101056.49,1.2007183
73574664,73556891,3997706,22.087149,45.05,101060.0,1.20076
73635543,73612694,3997706,21.981457,45.05,101061.25,1.2007748
73685713,73665517,3997706,22.108288,45.05,101059.74,1.2007569
73736007,73718290,3997706,22.06601,45.059998,101060.25,1.200763
73796337,73773612,3997706,21.93918,45.059998,101061.76,1.2007809
73846602,73826432,3997706,22.044872,45.059998,101060.5,1.200766
73896862,73879196,3997706,21.960318,45.07,101061.5,1.2007778
73957231,73934498,3997706,21.875763,45.07,101062.5,1.2007897
74008063,73987727,3997706,22.232477,45.07,101058.24,1.2007391
74058388,74040532,3997706,21.93918,45.079998,101061.75,1.2007807
74118508,74095809,3997706,21.960318,45.079998,101061.5,1.2007778
74168823,74148606,3997706,21.93918,45.079998,101061.76,1.2007809
74219088,74201425,3997706,21.857267,45.09,101062.74,1.2007926
74279452,74256725,3997706,22.169062,45.09,101059.0,1.2007481
74329773,74309534,3997706,21.836128,45.09,101063.0,1.2007957
74380552,74362633,3997706,21.941822,45.1,101061.74,1.2007806
74440703,74418027,3997706,21.960318,45.1,101061.5,1.2007778
74490956,74470778,3997706,22.169062,45.11,101059.0,1.2007481
74541321,74523556,3997706,22.1902,45.11,101058.75,1.2007451
74601588,74578912,3997706,21.81499,45.12,101063.25,1.2007986
74651870,74631699,3997706,21.875763,45.11,101062.5,1.2007897
74702171,74684452,3997706,21.941822,45.12,101061.74,1.2007806
74763073,74739856,3997706,21.918041,45.12,101062.0,1.2007837
74813249,74792946,3997706,21.81499,45.12,101063.24,1.2007985
74864251,74845723,3997706,21.836128,45.129997,101063.0,1.2007957
74924288,74901035,3997706,21.878407,45.129997,101062.49,1.2007896
74984338,74959875,3997706,21.936537,45.14,101061.8,1.2007813
75044507,75021680,3997706,22.253614,45.14,101058.0,1.2007362
75094675,75074434,3997706,22.06601,45.14,101060.24,1.2007629
75145003,75127248,3997706,22.126783,45.14,101059.5,1.200754
75205694,75182987,3997706,22.126783,45.149998,101059.5,1.200754
75255943,75235770,3997706,22.002594,45.149998,101060.99,1.2007718
75306288,75288547,3997706,21.918041,45.149998,101062.0,1.2007837
75366563,75343862,3997706,21.93918,45.16,101061.75,1.2007807
75416789,75396622,3997706,22.002594,45.16,101061.0,1.2007718
75467046,75449390,3997706,21.68816,45.16,101064.75,1.2008164
75527524,75504686,3997706,21.878407,45.17,101062.49,1.2007896
75578204,75557853,3997706,22.087149,45.17,101060.0,1.20076
75628450,75610723,3997706,21.875763,45.17,101062.5,1.2007897
75688706,75666021,3997706,22.147923,45.18,101059.24,1.200751
75738992,75718799,3997706,22.126783,45.18,101059.5,1.200754
75789268,75771585,3997706,22.105644,45.19,101059.75,1.200757
75849563,75826868,3997706,22.044872,45.18,101060.5,1.200766
75899972,75879695,3997706,22.023733,45.19,101060.74,1.2007688
75950638,75932714,3997706,22.023733,45.19,101060.74,1.2007688
76010871,75988192,3997706,21.875763,45.2,101062.5,1.2007897
76061149,76040945,3997706,22.06601,45.2,101060.24,1.2007629
76111468,76093763,3997706,21.81499,45.2,101063.25,1.2007986
76171844,76149105,3997706,22.023733,45.2,101060.76,1.200769
76222059,76201860,3997706,21.875763,45.21,101062.5,1.2007897
76272351,76254659,3997706,21.981457,45.21,101061.26,1.2007749
76333253,76310114,3997706,21.793852,45.219997,101063.5,1.2008016
76384397,76363221,3997706,21.960318,45.219997,101061.5,1.2007778
76454203,76423555,3997706,22.068653,45.219997,101060.195,1.2007623
76504457,76483852,3997706,22.023733,45.23,101060.76,1.200769
76574355,76544137,3997706,21.754217,45.23,101063.99,1.2008075
76624626,76604439,3997706,21.875763,45.23,101062.5,1.2007897
76674978,76657206,3997706,22.044872,45.239998,101060.5,1.200766
76735249,76712510,3997706,22.002594,45.239998,101060.99,1.2007718
76785880,76765712,3997706,21.836128,45.25,101063.0,1.2007957
76836153,76818471,3997706,22.023733,45.25,101060.76,1.200769
76896529,76873758,3997706,21.857267,45.25,101062.74,1.2007926
76946789,76926550,3997706,21.960318,45.26,101061.5,1.2007778
76996989,76979321,3997706,21.857267,45.26,101062.75,1.2007927
77641275,77623599,3997706,22.002594,45.3,101061.0,1.2007718
77701778,77678954,3997706,22.06601,45.3,101060.25,1.200763
77751927,77731756,3997706,21.918041,45.3,101062.0,1.2007837
77802154,77784497,3997706,22.126783,45.3,101059.5,1.200754
77862500,77839759,3997706,21.918041,45.309998,101062.0,1.2007837
77912741,77892565,3997706,21.981457,45.309998,101061.24,1.2007748
77964511,77945464,3997706,22.06601,45.309998,101060.25,1.200763
78024531,78001042,3997706,21.918041,45.32,101062.0,1.2007837
78084383,78059825,3997706,21.918041,45.329998,101061.99,1.2007836
78144561,78121621,3997706,21.754217,45.329998,101063.99,1.2008075
78195538,78174372,3997706,21.896902,45.329998,101062.26,1.2007868
78264973,78234655,3997706,21.968245,45.34,101061.4,1.2007766
78315229,78295033,3997706,21.793852,45.329998,101063.49,1.2008015
78366060,78348018,3997706,21.941822,45.34,101061.74,1.2007806
78426448,78403714,3997706,22.023733,45.34,101060.74,1.2007688
78476722,78456532,3997706,22.06601,45.35,101060.24,1.2007629
78527032,78509305,3997706,21.68816,45.35,101064.75,1.2008164
78587269,78564573,3997706,21.981457,45.36,101061.24,1.2007748
78637598,78617391,3997706,21.981457,45.35,101061.24,1.2007748
78688085,78670187,3997706,21.918041,45.36,101062.0,1.2007837
78748715,78725613,3997706,22.044872,45.36,101060.5,1.200766
78798953,78778717,3997706,22.1902,45.37,101058.75,1.2007451
78849324,78831499,3997706,21.981457,45.37,101061.24,1.2007748
78909502,78886814,3997706,21.875763,45.379997,101062.5,1.2007897
78959753,78939573,3997706,22.147923,45.379997,101059.25,1.2007511
79010011,78992331,3997706,22.087149,45.379997,101060.0,1.20076
79070495,79047639,3997706,22.232477,45.379997,101058.25,1.2007391
79120687,79100463,3997706,22.044872,45.39,101060.5,1.200766
79171347,79153556,3997706,22.087149,45.39,101060.0,1.20076
79231730,79208973,3997706,22.023733,45.399998,101060.74,1.2007688
79281990,79261753,3997706,22.044872,45.399998,101060.5,1.200766
79332205,79314524,3997706,21.875763,45.399998,101062.5,1.2007897
79392553,79369814,3997706,21.93918,45.399998,101061.76,1.2007809
79442972,79422618,3997706,21.960318,45.41,101061.5,1.2007778
79493341,79475398,3997706,22.06601,45.41,101060.25,1.200763
79554310,79530775,3997706,21.896902,45.41,101062.26,1.2007868
79604415,79583872,3997706,21.836128,45.42,101062.99,1.2007955
79674457,79644172,3997706,21.754217,45.42,101063.99,1.2008075
79936337,79918330,3997706,22.023733,45.43,101060.76,1.200769
79996718,79973980,3997706,21.857267,45.44,101062.74,1.2007926
80046963,80026766,3997706,21.793852,45.44,101063.49,1.2008015
80097220,80079544,3997706,21.81499,45.45,101063.24,1.2007985
80157585,80134884,3997706,21.482058,45.45,101067.24,1.2008461
80208048,80187681,3997706,21.981457,45.45,101061.26,1.2007749
80258168,80240477,3997706,22.023733,45.46,101060.74,1.2007688
80318509,80295735,3997706,21.918041,45.46,101061.99,1.2007836
80369132,80348950,3997706,21.918041,45.469997,101062.0,1.2007837
80419454,80401763,3997706,22.1902,45.469997,101058.75,1.2007451
80479745,80457064,3997706,21.981457,45.469997,101061.26,1.2007749
80530071,80509839,3997706,21.93918,45.469997,101061.76,1.2007809
80580479,80562652,3997706,21.896902,45.48,101062.25,1.2007867
80640722,80617972,3997706,22.06601,45.48,101060.25,1.200763
80691052,80670728,3997706,21.918041,45.48,101062.0,1.2007837
80741584,80723805,3997706,22.169062,45.489998,101059.0,1.2007481
80801960,80779229,3997706,22.002594,45.489998,101061.0,1.2007718
80852223,80832030,3997706,22.044872,45.5,101060.5,1.200766
80902498,80884816,3997706,21.733078,45.5,101064.24,1.2008104
80963000,80940106,3997706,21.918041,45.5,101062.0,1.2007837
81013146,80992892,3997706,22.314388,45.5,101057.25,1.2007273
81064379,81045645,3997706,22.169062,45.51,101059.0,1.2007481
81124526,81101087,3997706,22.023733,45.51,101060.76,1.200769
81184436,81160177,3997706,22.169062,45.51,101059.0,1.2007481
81244696,81222011,3997706,22.087149,45.52,101060.0,1.20076
81295007,81274790,3997706,21.875763,45.52,101062.5,1.2007897
81345507,81327630,3997706,21.899546,45.52,101062.24,1.2007866
81405708,81382992,3997706,21.772713,45.53,101063.75,1.2008046
81456031,81435770,3997706,22.023733,45.53,101060.74,1.2007688
81506677,81488800,3997706,22.044872,45.53,101060.5,1.200766
81566976,81544286,3997706,21.960318,45.539997,101061.51,1.2007779
81617281,81597067,3997706,21.960318,45.539997,101061.5,1.2007778
81667622,81649911,3997706,22.06601,45.539997,101060.25,1.200763
81728068,81705255,3997706,21.981457,45.55,101061.24,1.2007748
81778350,81758072,3997706,22.044872,45.55,101060.5,1.200766
81828587,81810846,3997706,22.126783,45.55,101059.5,1.200754
81889371,81866412,3997706,21.941822,45.559998,101061.74,1.2007806
81939595,81919418,3997706,21.981457,45.559998,101061.24,1.2007748
81989932,81972168,3997706,22.087149,45.57,101060.0,1.20076
84164294,84139389,3997706,22.103004,45.7,101059.8,1.2007576
84224347,84201269,3997706,22.126783,45.7,101059.5,1.200754
84284358,84260046,3997706,22.052797,45.71,101060.39,1.2007647
84345042,84322326,3997706,21.918041,45.71,101061.99,1.2007836
84395548,84375126,3997706,21.709297,45.71,101064.5,1.2008134
84445617,84427948,3997706,21.669662,45.719997,101065.0,1.2008194
84505976,84483262,3997706,21.941822,45.719997,101061.74,1.2007806
84556276,84536040,3997706,21.648525,45.719997,101065.25,1.2008224
84606560,84588857,3997706,21.793852,45.719997,101063.49,1.2008015
84667375,84644269,3997706,21.960318,45.73,101061.5,1.2007778
84717646,84697463,3997706,21.941822,45.739998,101061.74,1.2007806
84768022,84750230,3997706,21.606247,45.73,101065.75,1.2008283
84828379,84805561,3997706,22.126783,45.75,101059.5,1.200754
84878546,84858345,3997706,22.274754,45.739998,101057.75,1.2007332
84928879,84911122,3997706,22.356665,45.75,101056.75,1.2007214
84989090,84966414,3997706,21.941822,45.75,101061.74,1.2007806
85039947,85019307,3997706,21.981457,45.75,101061.24,1.2007748
85090175,85072492,3997706,21.836128,45.75,101063.0,1.2007957
85150550,85127806,3997706,22.147923,45.76,101059.24,1.200751
85200811,85180581,3997706,21.93918,45.76,101061.76,1.2007809
85251013,85233349,3997706,21.981457,45.76,101061.25,1.2007748
85311370,85288643,3997706,22.169062,45.77,101059.0,1.2007481
85361655,85341476,3997706,22.023733,45.77,101060.74,1.2007688
85411956,85394239,3997706,22.023733,45.77,101060.74,1.2007688
85472636,85449955,3997706,21.836128,45.78,101063.0,1.2007957
85523172,85502722,3997706,22.253614,45.78,101057.99,1.2007362
85573236,85555511,3997706,21.918041,45.789997,101062.0,1.2007837
85633979,85610768,3997706,22.044872,45.789997,101060.5,1.200766
85684330,85663534,3997706,22.335527,45.789997,101057.0,1.2007244
85754059,85723832,3997706,21.918041,45.8,101062.0,1.2007837
85804414,85784131,3997706,22.295893,45.8,101057.49,1.2007302
85855090,85837018,3997706,21.93918,45.8,101061.75,1.2007807
85915531,85892681,3997706,21.981457,45.809998,101061.24,1.2007748
85965730,85945563,3997706,22.023733,45.809998,101060.76,1.200769
86015985,85998314,3997706,22.126783,45.82,101059.5,1.200754
86076366,86053615,3997706,21.878407,45.82,101062.49,1.2007896
86126567,86106388,3997706,22.398943,45.82,101056.25,1.2007154
86176787,86159133,3997706,21.941822,45.82,101061.74,1.2007806
86237279,86214427,3997706,21.93918,45.829998,101061.75,1.2007807
86338134,86320392,3997706,22.023733,45.829998,101060.76,1.200769
86398423,86375673,3997706,21.711939,45.84,101064.49,1.2008133
86448623,86428447,3997706,22.087149,45.84,101060.0,1.20076
86498939,86481219,3997706,21.899546,45.84,101062.24,1.2007866
86559178,86536493,3997706,22.06601,45.85,101060.25,1.200763
86609476,86589296,3997706,22.483496,45.85,101055.25,1.2007035
86660483,86642197,3997706,21.878407,45.86,101062.49,1.2007896
86720613,86697866,3997706,21.669662,45.86,101065.0,1.2008194
86770863,86750668,3997706,22.126783,45.86,101059.5,1.200754
86821091,86803434,3997706,21.793852,45.86,101063.5,1.2008016
86881463,86858714,3997706,22.087149,45.87,101060.0,1.20076
86931671,86911496,3997706,21.941822,45.87,101061.74,1.2007806
86981978,86964296,3997706,21.857267,45.879997,101062.75,1.2007927
87042404,87019581,3997706,22.253614,45.879997,101057.99,1.2007362
87093151,87072674,3997706,21.918041,45.879997,101062.0,1.2007837
87144372,87125566,3997706,22.126783,45.879997,101059.5,1.200754
87204247,87180862,3997706,21.899546,45.89,101062.24,1.2007866
87264427,87239641,3997706,21.785925,45.899998,101063.59,1.2008027
87324397,87301425,3997706,21.93918,45.89,101061.76,1.2007809
87384465,87360226,3997706,21.51905,45.899998,101066.8,1.2008407
87444763,87422069,3997706,21.81499,45.899998,101063.24,1.2007985
87495727,87475243,3997706,21.68816,45.91,101064.75,1.2008164
87545810,87528151,3997706,21.793852,45.91,101063.5,1.2008016
87606159,87583440,3997706,21.93918,45.92,101061.75,1.2007807
87656480,87636237,3997706,22.105644,45.92,101059.75,1.200757
87706692,87689024,3997706,22.274754,45.92,101057.74,1.2007332
87767032,87744298,3997706,21.711939,45.92,101064.49,1.2008133
87817257,87797060,3997706,22.023733,45.93,101060.74,1.2007688
87868170,87849975,3997706,21.793852,45.93,101063.5,1.2008016
87928324,87905610,3997706,21.627386,45.94,101065.5,1.2008253
87978570,87958390,3997706,21.772713,45.94,101063.74,1.2008045
88028815,88011146,3997706,21.733078,45.94,101064.24,1.2008104
88089150,88066435,3997706,22.06601,45.95,101060.25,1.200763
88139404,88119227,3997706,22.087149,45.95,101060.0,1.20076
88189660,88171992,3997706,22.671103,45.95,101053.0,1.2006768
88250050,88227257,3997706,22.126783,45.95,101059.5,1.200754
88300791,88280390,3997706,22.06601,45.96,101060.25,1.200763
88350979,88333300,3997706,21.648525,45.96,101065.25,1.2008224
88411287,88388581,3997706,21.93918,45.969997,101061.76,1.2007809
88461589,88441364,3997706,21.918041,45.969997,101061.99,1.2007836
88511816,88494157,3997706,21.981457,45.969997,101061.26,1.2007749
88572116,88549425,3997706,22.607685,45.98,101053.75,1.2006857
88622420,88602184,3997706,22.377804,45.98,101056.5,1.2007184
88672680,88654986,3997706,22.501993,45.98,101055.0,1.2007005
88734226,88710685,3997706,22.044872,45.989998,101060.49,1.2007658
88784297,88763480,3997706,22.295893,45.989998,101057.49,1.2007302
88854493,88823745,3997706,21.936537,46.0,101061.8,1.2007813
88914462,88890036,3997706,22.73716,46.0,101052.195,1.2006673
88974576,88951870,3997706,21.93918,46.01,101061.75,1.2007807
89024937,89004635,3997706,22.044872,46.0,101060.5,1.200766
89075133,89057440,3997706,22.335527,46.01,101056.99,1.2007242
89135900,89113076,3997706,22.274754,46.01,101057.75,1.2007332
89186171,89165986,3997706,22.274754,46.02,101057.75,1.2007332
89236489,89218787,3997706,22.274754,46.02,101057.75,1.2007332
89296830,89274081,3997706,22.335527,46.02,101057.0,1.2007244
89347042,89326873,3997706,22.54427,46.02,101054.5,1.2006947
89397283,89379615,3997706,22.1902,46.03,101058.74,1.200745
89457640,89434939,3997706,22.689598,46.03,101052.75,1.2006738
89508490,89487815,3997706,23.233917,46.039997,101046.25,1.2005966
89558636,89540964,3997706,22.858706,46.039997,101050.75,1.2006501
89619015,89596284,3997706,23.484938,46.05,101043.25,1.2005609
89669336,89649081,3997706,23.233917,46.039997,101046.25,1.2005966
89719561,89701884,3997706,24.026613,46.05,101036.75,1.2004837
89779951,89757172,3997706,23.691036,46.05,101040.75,1.2005312
89830204,89809968,3997706,24.1508,46.059998,101035.24,1.2004658
89881001,89862891,3997706,24.465237,46.059998,101031.5,1.2004213
89941203,89918496,3997706,24.589424,46.059998,101029.99,1.2004035
89991495,89971298,3997706,24.985773,46.07,101025.25,1.2003471
90041785,90024068,3997706,25.297567,46.07,101021.5,1.2003025
90102063,90079365,3997706,25.612005,46.07,101017.74,1.2002579
90152416,90132138,3997706,25.987213,46.079998,101013.24,1.2002044
90202671,90184957,3997706,26.069124,46.07,101012.26,1.2001927
90263176,90240271,3997706,26.674217,46.079998,101005.0,1.2001065
90314589,90293510,3997706,26.299007,46.09,101009.5,1.2001599
90365951,90346274,3997706,27.052069,46.09,101000.5,1.200053
90426061,90401509,3997706,27.197395,46.09,100998.75,1.2000322
90486237,90460308,3997706,27.427279,46.1,100996.0,1.1999996
90546177,90522111,3997706,28.177696,46.1,100986.99,1.1998925
90606950,90580935,3997706,28.011229,46.1,100988.99,1.1999162
90666098,90642794,3997706,28.365301,46.11,100984.75,1.1998659
90716228,90695942,3997706,28.888481,46.11,100978.5,1.1997917
90766528,90748848,3997706,28.846203,46.12,100979.0,1.1997975
90826898,90804140,3997706,29.305965,46.12,100973.5,1.1997322
90877152,90856931,3997706,29.451294,46.12,100971.75,1.1997114
90927466,90909708,3997706,29.932198,46.12,100966.0,1.1996431
90987930,90965068,3997706,30.162079,46.12,100963.24,1.1996104
91038197,91017882,3997706,30.183218,46.129997,100962.99,1.1996074
91088827,91071016,3997706,30.579565,46.129997,100958.25,1.199551
91149165,91126440,3997706,30.225492,46.14,100962.49,1.1996014
91199523,91179288,3997706,30.849081,46.14,100955.0,1.1995124
91249756,91232086,3997706,30.661476,46.14,100957.25,1.1995392
91310089,91287384,3997706,31.057823,46.149998,100952.5,1.1994827
91360538,91340167,3997706,31.538725,46.149998,100946.75,1.1994144
91410621,91392954,3997706,31.602142,46.149998,100946.0,1.1994054
91471455,91448456,3997706,31.686697,46.16,100944.99,1.1993935
91521806,91501509,3997706,31.623281,46.16,100945.74,1.1994025
91571994,91554318,3997706,31.853163,46.16,100942.99,1.1993698
91632289,91609600,3997706,31.665558,46.17,100945.24,1.1993965
91682592,91662393,3997706,32.12268,46.17,100939.75,1.1993312
91733077,91715208,3997706,32.12268,46.17,100939.75,1.1993312
91794432,91770539,3997706,31.789745,46.18,100943.74,1.1993786
91845836,91823658,3997706,32.312927,46.19,100937.49,1.1993043
91914305,91884036,3997706,32.521667,46.18,100934.99,1.1992747
91966155,91944338,3997706,32.64586,46.19,100933.5,1.1992569
92034964,92004640,3997706,32.788544,46.19,100931.8,1.1992368
92085180,92064965,3997706,32.709274,46.2,100932.75,1.1992481
92135564,92117779,3997706,33.063343,46.2,100928.5,1.1991975
92195755,92173065,3997706,33.39628,46.2,100924.5,1.19915
92246458,92225929,3997706,33.60502,46.2,100922.0,1.1991203
92296712,92278991,3997706,33.89832,46.21,100918.49,1.1990787
92356970,92334273,3997706,34.1282,46.219997,100915.75,1.199046
92407246,92387040,3997706,33.919456,46.21,100918.24,1.1990757
92457485,92439804,3997706,33.48083,46.219997,100923.5,1.1991382
92517986,92495117,3997706,33.668434,46.219997,100921.25,1.1991113
92568202,92547932,3997706,34.043644,46.219997,100916.75,1.1990579
92618389,92600698,3997706,34.085922,46.23,100916.25,1.199052
92679139,92656340,3997706,33.75299,46.23,100920.24,1.1990994
92729477,92709233,3997706,33.314365,46.239998,100925.49,1.1991618
92779745,92762028,3997706,33.356644,46.239998,100925.0,1.1991559
92839982,92817285,3997706,33.29323,46.239998,100925.75,1.1991649
92890453,92870081,3997706,33.314365,46.25,100925.5,1.1991619
92940607,92922919,3997706,32.791187,46.25,100931.75,1.1992362
93000900,92978205,3997706,33.356644,46.25,100925.0,1.1991559
93051716,93031080,3997706,33.356644,46.25,100925.0,1.1991559
93101910,93084191,3997706,33.544247,46.26,100922.75,1.1991292
93162180,93139487,3997706,33.89832,46.26,100918.49,1.1990787
93212506,93192280,3997706,34.085922,46.27,100916.25,1.199052
93262965,93245085,3997706,34.085922,46.27,100916.25,1.199052
93323093,93300361,3997706,34.25503,46.27,100914.24,1.1990281
93374111,93353157,3997706,34.587963,46.27,100910.24,1.1989806
93424620,93405926,3997706,34.691013,46.28,100909.0,1.1989659
93484647,93461375,3997706,34.418854,46.28,100912.25,1.1990044
93534687,93514381,3997706,34.315804,46.28,100913.5,1.1990193
93584896,93567183,3997706,34.442635,46.28,100912.0,1.1990016
93645215,93622509,3997706,34.587963,46.289997,100910.25,1.1989807
93695571,93675313,3997706,34.98431,46.289997,100905.5,1.1989243
93745799,93728128,3997706,34.860123,46.289997,100906.99,1.198942
93806110,93783406,3997706,35.31724,46.3,100901.5,1.1988767
93856862,93836409,3997706,35.547123,46.3,100898.75,1.1988441
93907096,93889413,3997706,35.5894,46.309998,100898.25,1.1988381
93967471,93944718,3997706,35.48635,46.309998,100899.5,1.198853
94017721,93997531,3997706,35.48635,46.309998,100899.5,1.198853
94068110,94050337,3997706,35.777008,46.309998,100896.0,1.1988114
94128359,94105611,3997706,35.819283,46.32,100895.49,1.1988053
94178575,94158386,3997706,36.00689,46.32,100893.25,1.1987787
94228884,94211176,3997706,36.572346,46.32,100886.49,1.1986984
94289665,94266919,3997706,37.259346,46.329998,100878.25,1.1986005
94339958,94319714,3997706,37.65834,46.329998,100873.5,1.198544
94390231,94372548,3997706,38.033546,46.34,100869.0,1.1984906
94450577,94427876,3997706,38.390263,46.34,100864.75,1.1984401
94500929,94480718,3997706,38.9108,46.35,100858.5,1.1983658
94551152,94533494,3997706,38.9108,46.34,100858.5,1.1983658
94612060,94588907,3997706,38.826244,46.34,100859.5,1.1983777
94662205,94642024,3997706,39.830326,46.35,100847.49,1.198235
94712520,94694799,3997706,40.353504,46.36,100841.25,1.1981609
94772973,94750096,3997706,40.31123,46.36,100841.75,1.1981668
94823105,94802889,3997706,40.435417,46.36,100840.25,1.198149
94873895,94855680,3997706,40.644157,46.37,100837.76,1.1981194
94934017,94910950,3997706,41.291527,46.37,100830.0,1.1980273
94984334,94963693,3997706,41.732796,46.37,100824.75,1.1979648
95034634,95016692,3997706,42.02345,46.379997,100821.25,1.1979232
95094968,95072209,3997706,42.044586,46.379997,100821.0,1.1979202
95145200,95125016,3997706,42.464718,46.379997,100815.99,1.1978607
95195569,95177872,3997706,42.882206,46.379997,100811.0,1.1978015
95255860,95233173,3997706,42.79765,46.39,100812.01,1.1978134
95306162,95285956,3997706,43.15436,46.39,100807.75,1.1977628
95356519,95338772,3997706,43.381603,46.39,100805.0,1.1977302
95417303,95394171,3997706,43.487293,46.399998,100803.75,1.1977153
95467546,95447308,3997706,43.717175,46.399998,100801.0,1.1976826
95517974,95500144,3997706,44.176937,46.399998,100795.49,1.1976172
95578315,95555457,3997706,44.42796,46.41,100792.49,1.1975815
95628421,95608204,3997706,44.845448,46.399998,100787.5,1.1975223
95678610,95660943,3997706,44.845448,46.41,100787.5,1.1975223
95738989,95716248,3997706,45.788754,46.42,100776.24,1.1973884
95789250,95769029,3997706,46.539177,46.42,100767.25,1.1972816
95839972,95822243,3997706,47.292236,46.42,100758.25,1.1971747
95900475,95877566,3997706,47.87883,46.43,100751.24,1.1970915
95950697,95930418,3997706,48.0453,46.43,100749.25,1.1970677
96000904,95983232,3997706,48.296314,46.43,100746.25,1.1970321
96061197,96038507,3997706,48.734943,46.44,100741.0,1.1969697
96111475,96091284,3997706,49.007103,46.44,100737.74,1.196931
96161843,96144067,3997706,49.152428,46.44,100736.0,1.1969104
96222494,96199680,3997706,49.279263,46.45,100734.5,1.1968925
96272741,96252565,3997706,49.424587,46.45,100732.75,1.1968718
96323126,96305356,3997706,49.530277,46.45,100731.49,1.1968567
96384608,96360656,3997706,49.55142,46.46,100731.25,1.1968539
96444274,96419464,3997706,49.87114,46.46,100727.41,1.1968082
96504201,96481267,3997706,49.488,46.46,100732.0,1.1968628
96554647,96534058,3997706,50.05346,46.469997,100725.25,1.1967826
96605895,96586909,3997706,50.2622,46.469997,100722.75,1.1967529
96665499,96642584,3997706,50.322975,46.469997,100722.0,1.196744
96715695,96695480,3997706,50.470947,46.48,100720.24,1.1967231
96765947,96748276,3997706,50.88843,46.469997,100715.25,1.1966637
96826277,96803577,3997706,51.05754,46.48,100713.24,1.1966399
96876537,96856350,3997706,51.45389,46.48,100708.5,1.1965836
96926860,96909147,3997706,51.53844,46.48,100707.49,1.1965716
96987596,96964678,3997706,51.93479,46.489998,100702.75,1.1965152
97038036,97017656,3997706,52.33114,46.489998,100698.0,1.1964588
97088169,97070447,3997706,52.457973,46.5,100696.5,1.196441
97148609,97125734,3997706,52.70899,46.5,100693.49,1.1964053
97198677,97178504,3997706,52.73013,46.5,100693.25,1.1964024
97248971,97231254,3997706,53.21103,46.5,100687.49,1.196334
97309301,97286604,3997706,53.065704,46.51,100689.24,1.1963547
97359603,97339375,3997706,52.917736,46.51,100691.0,1.1963756
97410438,97392459,3997706,53.35636,46.51,100685.75,1.1963133
97470645,97447925,3997706,53.546604,46.52,100683.5,1.1962866
97520904,97500718,3997706,54.13056,46.52,100676.49,1.1962032
97631538,97608799,3997706,54.402714,46.53,100673.25,1.1961647
97681791,97661618,3997706,54.590324,46.53,100671.0,1.196138
97732022,97714367,3997706,54.925896,46.53,100667.01,1.1960906
97792747,97769849,3997706,55.240334,46.539997,100663.24,1.1960459
97843146,97822856,3997706,56.03567,46.55,100653.75,1.1959331
97894071,97875699,3997706,56.225914,46.55,100651.49,1.1959063
97954455,97930999,3997706,56.43466,46.55,100649.0,1.1958766
98005598,97983764,3997706,56.83101,46.55,100644.24,1.1958201
98074297,98044082,3997706,56.8178,46.55,100644.41,1.195822
98124635,98104383,3997706,57.185078,46.559998,100640.0,1.1957697
98175404,98157260,3997706,57.457237,46.559998,100636.76,1.1957312
98235744,98212963,3997706,57.774315,46.57,100632.99,1.1956865
98285954,98265731,3997706,58.10725,46.57,100629.0,1.195639
98336149,98318485,3997706,57.85623,46.57,100631.99,1.1956745
98396559,98373772,3997706,58.902588,46.579998,100619.49,1.195526
98446783,98426607,3997706,58.73612,46.57,100621.5,1.1955498
98497018,98479360,3997706,59.11397,46.579998,100616.99,1.1954963
98557477,98534651,3997706,59.446903,46.579998,100613.0,1.1954489
98658678,98640720,3997706,59.594875,46.59,100611.25,1.1954281
98718712,98696024,3997706,59.909313,46.6,100607.49,1.1953834
98769024,98748778,3997706,60.0335,46.6,100606.0,1.1953657
98819284,98801555,3997706,60.43249,46.6,100601.24,1.1953092
98879555,98856860,3997706,60.411354,46.6,100601.49,1.1953121
98929790,98909620,3997706,60.8077,46.6,100596.75,1.1952558
98980678,98962638,3997706,61.22783,46.61,100591.75,1.1951964
99040927,99018213,3997706,61.5819,46.61,100587.5,1.1951458
99091244,99071002,3997706,61.980892,46.61,100582.75,1.1950895
99141516,99123801,3997706,62.419518,46.62,100577.5,1.1950271
99201807,99179110,3997706,62.691677,46.62,100574.25,1.1949885
99252042,99231873,3997706,63.175217,46.62,100568.49,1.1949201
99302424,99284635,3997706,63.52929,46.62,100564.24,1.1948695
99363286,99340054,3997706,63.592705,46.64,100563.5,1.1948607
99413427,99393157,3997706,64.05511,46.629997,100557.99,1.1947953
99464385,99445955,3997706,64.78703,46.64,100549.25,1.1946914
99524796,99501234,3997706,64.911224,46.629997,100547.75,1.1946737
99584729,99560000,3997706,65.96287,46.64,100535.195,1.1945244
99644601,99621817,3997706,66.37771,46.64,100530.25,1.1944656
99694852,99674595,3997706,66.69215,46.649998,100526.5,1.1944212
99745181,99727427,3997706,66.903534,46.649998,100524.0,1.1943914
99805870,99783143,3997706,67.26025,46.649998,100519.74,1.1943408
99856121,99835939,3997706,67.65659,46.66,100515.0,1.1942844
99906408,99888719,3997706,67.804565,46.66,100513.24,1.1942636
99966763,99944037,3997706,68.26433,46.66,100507.75,1.1941984
100016991,99996822,3997706,68.37002,46.67,100506.49,1.1941833
100067231,100049570,3997706,68.681816,46.67,100502.75,1.1941389
100127659,100104906,3997706,68.82978,46.67,100501.0,1.1941181
100178520,100157936,3997706,69.50093,46.67,100493.0,1.1940231
100228629,100210947,3997706,69.39524,46.68,100494.24,1.1940378
100288956,100266242,3997706,69.85764,46.69,100488.74,1.1939725
100339246,100319033,3997706,70.190575,46.69,100484.75,1.193925
100389520,100371849,3997706,70.23286,46.69,100484.25,1.1939191
100449890,100427163,3997706,70.63184,46.69,100479.5,1.1938627
100500160,100479956,3997706,70.56843,46.69,100480.25,1.1938716
100550923,100532981,3997706,70.90401,46.7,100476.24,1.1938239
100611187,100588490,3997706,71.44832,46.7,100469.74,1.1937467
100661464,100641267,3997706,71.93187,46.71,100464.0,1.1936785
100711754,100694064,3997706,72.22517,46.71,100460.5,1.1936369
100772050,100749364,3997706,72.60301,46.71,100456.0,1.1935835
100822318,100802130,3997706,72.978226,46.71,100451.49,1.1935298
100872667,100854985,3997706,73.46177,46.71,100445.74,1.1934615
100934455,100910389,3997706,74.15141,46.71,100437.51,1.1933638
100984705,100963480,3997706,74.864845,46.719997,100429.0,1.1932627
101054276,101023751,3997706,75.13435,46.73,100425.8,1.1932245
101104516,101084014,3997706,75.47257,46.73,100421.75,1.1931765
101174820,101144320,3997706,75.87157,46.73,100416.99,1.19312
101224827,101204600,3997706,76.730316,46.739998,100406.75,1.1929983
101275158,101257419,3997706,77.1293,46.739998,100401.99,1.1929418
101335665,101312793,3997706,77.34069,46.739998,100399.5,1.1929121
101386200,101366028,3997706,77.40147,46.75,100398.75,1.1929033
101436470,101418793,3997706,77.612854,46.75,100396.25,1.1928735
101496829,101474064,3997706,78.17831,46.75,100389.5,1.1927934
101547030,101526863,3997706,78.42933,46.75,100386.5,1.1927577
101597330,101579623,3997706,79.185036,46.76,100377.5,1.1926508
101657684,101634956,3997706,79.457184,46.76,100374.26,1.1926122
101708106,101687770,3997706,79.68708,46.76,100371.5,1.1925795
101758697,101740628,3997706,79.499466,46.76,100373.75,1.1926062
101819014,101796245,3997706,80.064926,46.77,100367.0,1.192526
101869323,101849061,3997706,80.00416,46.77,100367.74,1.1925348
101919577,101901894,3997706,80.6753,46.78,100359.75,1.1924398
101979913,101957170,3997706,80.6753,46.78,100359.75,1.1924398
102030168,102009962,3997706,81.19848,46.78,100353.5,1.1923656
102080609,102062780,3997706,81.65824,46.78,100348.0,1.1923002
102141211,102118192,3997706,81.76393,46.78,100346.75,1.1922854
102191532,102171318,3997706,82.604195,46.789997,100336.75,1.1921666
102241860,102224138,3997706,82.85521,46.789997,100333.75,1.1921309
102302239,102279462,3997706,83.21193,46.8,100329.5,1.1920804
102352487,102332238,3997706,83.381035,46.8,100327.5,1.1920567
102402928,102385024,3997706,84.1156,46.8,100318.74,1.1919526
102463216,102440387,3997706,84.28207,46.8,100316.75,1.191929
102514237,102493266,3997706,84.97436,46.809998,100308.5,1.1918309
102564518,102546349,3997706,84.807884,46.809998,100310.5,1.1918547
102624601,102601588,3997706,85.373344,46.809998,100303.75,1.1917745
102684577,102660372,3997706,85.167244,46.82,100306.2,1.1918036
102744969,102722178,3997706,85.814606,46.82,100298.5,1.1917121
102795181,102774973,3997706,86.42235,46.82,100291.25,1.191626
102845507,102827807,3997706,86.485756,46.829998,100290.5,1.191617
102905798,102883116,3997706,86.76056,46.82,100287.24,1.1915784
102956557,102936252,3997706,86.57031,46.829998,100289.49,1.1916051
103006849,102989129,3997706,87.19919,46.84,100281.99,1.1915159
103067105,103044428,3997706,87.32602,46.84,100280.5,1.1914983
103117455,103097207,3997706,88.187416,46.84,100270.24,1.1913763
103167695,103150019,3997706,88.12399,46.84,100271.0,1.1913854
103228124,103205345,3997706,88.33274,46.85,100268.49,1.1913556
103278332,103258093,3997706,89.10958,46.85,100259.25,1.1912458
103329085,103310973,3997706,89.15186,46.85,100258.75,1.1912398
103389362,103366591,3997706,89.67769,46.86,100252.5,1.1911656
103439577,103419393,3997706,89.75959,46.86,100251.5,1.1911536
103489792,103472137,3997706,89.84679,46.86,100250.49,1.1911417
103550088,103527401,3997706,90.391106,46.87,100243.99,1.1910645
103600539,103580168,3997706,90.62099,46.87,100241.25,1.1910319
103650646,103632972,3997706,90.68441,46.87,100240.5,1.191023
103710961,103688257,3997706,91.04112,46.87,100236.26,1.1909726
103761717,103741240,3997706,91.94479,46.879997,100225.5,1.1908448
103811907,103794200,3997706,91.77569,46.879997,100227.5,1.1908685
103872183,103849490,3997706,92.36492,46.879997,100220.49,1.1907853
103922485,103902280,3997706,92.763916,46.89,100215.75,1.1907289
103972761,103955078,3997706,92.763916,46.89,100215.75,1.1907289
104033171,104010398,3997706,93.03607,46.89,100212.5,1.1906903
104084331,104063141,3997706,92.97266,46.89,100213.24,1.1906991
104134510,104115897,3997706,93.64381,46.899998,100205.25,1.1906041
104194688,104171524,3997706,94.10621,46.899998,100199.75,1.1905388
104244913,104224447,3997706,94.8857,46.899998,100190.5,1.1904289
104294956,104277210,3997706,95.34546,46.91,100185.0,1.1903635
104355452,104332515,3997706,95.3666,46.91,100184.75,1.1903605
104405693,104385320,3997706,95.87128,46.91,100178.75,1.1902893
104455768,104438100,3997706,96.14608,46.91,100175.49,1.1902505
104516171,104493393,3997706,96.669266,46.92,100169.24,1.1901762
104566867,104546424,3997706,97.2585,46.92,100162.25,1.1900933
104617191,104599495,3997706,97.321915,46.92,100161.5,1.1900843
104677529,104654816,3997706,97.993065,46.92,100153.5,1.1899892
104727982,104707588,3997706,98.20445,46.93,100151.0,1.1899595
104778205,104760366,3997706,98.81482,46.93,100143.74,1.1898733
104838448,104815647,3997706,99.464836,46.93,100136.0,1.1897813
104888715,104868472,3997706,99.69472,46.93,100133.25,1.1897486
104939518,104921527,3997706,100.114845,46.94,100128.25,1.1896893
104999764,104977076,3997706,101.251045,46.94,100114.75,1.1895288
105050063,105029860,3997706,101.16649,46.94,100115.75,1.1895407
105100500,105082641,3997706,101.671165,46.95,100109.74,1.1894693
105160605,105137933,3997706,102.28155,46.95,100102.5,1.1893833
105210858,105190678,3997706,103.05839,46.95,100093.24,1.1892732
105261125,105243436,3997706,103.20636,46.95,100091.5,1.1892526
105321489,105298740,3997706,103.05839,46.96,100093.24,1.1892732
105372120,105351833,3997706,103.94092,46.96,100082.75,1.1891487
105422457,105404709,3997706,104.173454,46.96,100080.0,1.189116
105482719,105460033,3997706,104.46674,46.969997,100076.49,1.1890743
105533089,105512801,3997706,104.2765,46.969997,100078.75,1.1891011
105584190,105565573,3997706,104.86574,46.969997,100071.75,1.1890179
105644718,105620869,3997706,105.49725,46.969997,100064.24,1.1889287
105704681,105679643,3997706,106.007225,46.98,100058.19,1.1888568
105764688,105741430,3997706,105.832825,46.98,100060.25,1.1888813
105814944,105794645,3997706,106.3375,46.989998,100054.25,1.18881
106408672,106385926,3997706,110.03939,47.02,100010.25,1.1882873
107314469,107296629,3997706,113.070145,47.07,99974.25,1.1878594
107375137,107352165,3997706,113.257744,47.07,99972.0,1.1878327
107425586,107405187,3997706,113.469124,47.07,99969.49,1.1878029
107475704,107458013,3997706,113.257744,47.079998,99972.0,1.1878327
107536052,107513315,3997706,113.55368,47.079998,99968.5,1.1877911
107586290,107566107,3997706,113.363434,47.079998,99970.74,1.1878178
107636588,107618913,3997706,113.78621,47.079998,99965.75,1.1877584
107696907,107674186,3997706,113.825836,47.09,99965.25,1.1877525
107747572,107727069,3997706,113.511406,47.09,99968.99,1.187797
107798035,107780148,3997706,113.88926,47.09,99964.5,1.1877437
107908525,107888321,3997706,113.99495,47.09,99963.26,1.1877289
107958787,107941111,3997706,114.037224,47.1,99962.74,1.1877227
108019078,107996390,3997706,114.037224,47.1,99962.74,1.1877227
108069410,108049189,3997706,114.185196,47.11,99961.0,1.1877021
108119688,108101987,3997706,114.33317,47.11,99959.24,1.1876812
108180556,108157724,3997706,114.520775,47.12,99957.0,1.1876545
108230688,108210510,3997706,114.858986,47.11,99953.0,1.1876069
108280941,108263270,3997706,114.89862,47.12,99952.5,1.1876011
108341257,108318550,3997706,114.96468,47.12,99951.74,1.187592
108391550,108371327,3997706,115.2157,47.12,99948.75,1.1875565
108441792,108424127,3997706,115.27912,47.12,99948.0,1.1875476
108502066,108479383,3997706,115.67811,47.129997,99943.25,1.1874912
108552770,108532254,3997706,115.80494,47.129997,99941.74,1.1874732
108603255,108585413,3997706,116.14316,47.14,99937.74,1.1874257
108664359,108640701,3997706,116.16165,47.14,99937.5,1.1874229
108724376,108699529,3997706,116.76146,47.14,99930.4,1.1873385
108784292,108761323,3997706,116.856575,47.14,99929.25,1.1873248
108844397,108820117,3997706,117.21594,47.149998,99925.0,1.1872743
108904666,108881979,3997706,117.57265,47.149998,99920.74,1.1872237
108955666,108934871,3997706,117.97164,47.149998,99916.0,1.1871674
109005791,108987981,3997706,118.161896,47.149998,99913.75,1.1871406
109066073,109043329,3997706,118.5186,47.16,99909.5,1.1870902
109116350,109096159,3997706,118.60316,47.16,99908.5,1.1870782
109166620,109148950,3997706,118.7749,47.16,99906.49,1.1870544
109226958,109204220,3997706,119.30073,47.17,99900.25,1.1869802
109277189,109256996,3997706,119.382645,47.17,99899.25,1.1869683
109328185,109309952,3997706,120.01416,47.17,99891.75,1.1868793
109388368,109365615,3997706,120.08021,47.18,99890.99,1.1868702
109438609,109418403,3997706,120.3101,47.18,99888.25,1.1868377
109488846,109471180,3997706,120.68794,47.18,99883.75,1.1867841
109549256,109526482,3997706,120.835915,47.18,99881.99,1.1867633
109599472,109579273,3997706,121.21641,47.18,99877.5,1.1867099
109649725,109632054,3997706,121.55199,47.19,99873.5,1.1866624
109710094,109687327,3997706,122.080444,47.19,99867.24,1.186588
109760756,109740425,3997706,122.01703,47.2,99867.99,1.186597
109810991,109793311,3997706,122.542854,47.2,99861.74,1.1865227
109871304,109848594,3997706,122.58514,47.2,99861.24,1.1865168
109921637,109901387,3997706,122.984116,47.2,99856.5,1.1864604
109971854,109954197,3997706,123.34348,47.2,99852.25,1.18641
110032231,110009474,3997706,123.55222,47.21,99849.75,1.1863801
110082505,110062276,3997706,123.8693,47.21,99846.0,1.1863357
110133395,110115340,3997706,124.10182,47.21,99843.24,1.1863029
110194549,110170860,3997706,124.44004,47.219997,99839.24,1.1862553
110254201,110229688,3997706,124.305275,47.219997,99840.805,1.1862739
110314253,110291459,3997706,124.79675,47.23,99835.0,1.1862049
110364408,110344233,3997706,125.280304,47.219997,99829.25,1.1861366
110414674,110397004,3997706,125.259155,47.23,99829.5,1.1861396
110475086,110452334,3997706,125.721565,47.23,99824.0,1.1860743
110525945,110505413,3997706,125.82726,47.23,99822.75,1.1860594
110576198,110558449,3997706,126.27117,47.239998,99817.5,1.185997
110636469,110613742,3997706,126.33459,47.239998,99816.75,1.1859881
110686789,110666602,3997706,126.79699,47.239998,99811.24,1.1859226
110737011,110719356,3997706,127.02951,47.25,99808.5,1.1858901
110797309,110774610,3997706,127.17748,47.25,99806.75,1.1858693
110847656,110827423,3997706,127.38622,47.25,99804.25,1.1858395
110898097,110880237,3997706,127.87241,47.25,99798.5,1.1857712
110958619,110935940,3997706,128.16571,47.25,99795.0,1.1857297
111008908,110988714,3997706,128.25026,47.26,99793.99,1.1857177
111059289,111041500,3997706,128.67303,47.26,99789.0,1.1856585
111119496,111096808,3997706,128.82101,47.27,99787.24,1.1856375
111169808,111149622,3997706,129.07466,47.26,99784.24,1.1856018
111220127,111202429,3997706,129.28606,47.26,99781.74,1.1855721
111280565,111257731,3997706,129.74846,47.27,99776.24,1.1855068
111331191,111310997,3997706,130.10518,47.27,99772.0,1.1854564
111381512,111363796,3997706,129.9387,47.28,99774.0,1.1854801
111441775,111419065,3997706,130.37997,47.28,99768.74,1.1854177
111492021,111471848,3997706,130.77896,47.28,99764.0,1.1853614
111542254,111524595,3997706,130.8873,47.28,99762.74,1.1853464
111602624,111579894,3997706,131.13832,47.289997,99759.75,1.1853108
111653059,111632691,3997706,131.3497,47.289997,99757.25,1.1852812
111704398,111685589,3997706,131.39198,47.289997,99756.74,1.1852751
111764567,111741156,3997706,131.72755,47.3,99752.75,1.1852276
111824359,111799914,3997706,132.06314,47.3,99748.8,1.1851807
111884480,111861696,3997706,132.17146,47.3,99747.5,1.1851653
111934660,111914480,3997706,131.7487,47.3,99752.5,1.1852248
111984991,111967275,3997706,132.55196,47.3,99743.0,1.1851119
112045508,112022615,3997706,132.52818,47.309998,99743.25,1.1851149
112095758,112075452,3997706,132.44626,47.309998,99744.24,1.1851265
112146341,112128565,3997706,132.73956,47.309998,99740.75,1.185085
112206649,112183969,3997706,132.92981,47.32,99738.5,1.1850584
112256984,112236736,3997706,132.95094,47.32,99738.24,1.1850553
112307209,112289532,3997706,133.416,47.32,99732.74,1.1849899
112367547,112344824,3997706,133.39485,47.329998,99732.99,1.1849929
112418016,112397623,3997706,133.43713,47.329998,99732.5,1.1849871
112468120,112450386,3997706,133.79385,47.329998,99728.25,1.1849366
112528391,112505645,3997706,134.13206,47.329998,99724.25,1.1848891
112579005,112558822,3997706,134.06865,47.329998,99725.0,1.184898
112629320,112611594,3997706,134.17435,47.34,99723.75,1.1848831
112689545,112666865,3997706,134.1532,47.34,99724.0,1.1848861
112739810,112719627,3997706,134.21663,47.34,99723.25,1.1848772
112790130,112772420,3997706,134.59447,47.35,99718.75,1.1848238
112850620,112827747,3997706,134.61826,47.35,99718.49,1.1848207
112900746,112880577,3997706,134.9327,47.35,99714.75,1.1847762
112951470,112933563,3997706,135.03839,47.35,99713.5,1.1847613
113011808,112989060,3997706,134.80586,47.36,99716.25,1.184794
113062067,113041844,3997706,135.03839,47.36,99713.5,1.1847613
113112317,113094649,3997706,135.03839,47.36,99713.49,1.1847613
113172683,113149999,3997706,135.29205,47.37,99710.49,1.1847256
113223073,113202820,3997706,134.89041,47.37,99715.25,1.1847821
113274112,113255614,3997706,134.97496,47.37,99714.24,1.1847701
113334540,113311029,3997706,134.99611,47.37,99714.0,1.1847672
113394421,113370144,3997706,134.89569,47.379997,99715.195,1.1847814
113454700,113432012,3997706,134.9327,47.379997,99714.75,1.1847762
113505045,113484843,3997706,135.01724,47.379997,99713.74,1.1847643
113555523,113537650,3997706,134.91154,47.39,99715.0,1.1847792
113615675,113592977,3997706,134.76622,47.379997,99716.75,1.1847999
113665944,113645745,3997706,134.76622,47.39,99716.75,1.1847999
113716703,113698749,3997706,134.66054,47.399998,99717.99,1.1848147
113776945,113754231,3997706,134.76622,47.39,99716.75,1.1847999
113827170,113807003,3997706,134.89041,47.399998,99715.25,1.1847821
113877547,113859857,3997706,134.97496,47.399998,99714.25,1.1847702
113938007,113915160,3997706,135.05952,47.399998,99713.24,1.1847583
113988153,113967937,3997706,134.63675,47.41,99718.25,1.1848178
114038364,114020689,3997706,134.74245,47.41,99717.0,1.1848029
114099201,114076126,3997706,134.55484,47.41,99719.24,1.1848296
114149495,114129293,3997706,134.80586,47.41,99716.25,1.184794
114199779,114182102,3997706,134.89041,47.42,99715.25,1.1847821
114260101,114237395,3997706,134.59447,47.42,99718.75,1.1848238
114310521,114290198,3997706,134.55484,47.42,99719.24,1.1848296
114360647,114342991,3997706,134.63675,47.42,99718.25,1.1848178
114420942,114398259,3997706,134.66054,47.43,99717.99,1.1848147
114471217,114451027,3997706,134.13206,47.43,99724.25,1.1848891
114521983,114504168,3997706,134.59447,47.43,99718.75,1.1848238
114582281,114559596,3997706,134.61826,47.44,99718.49,1.1848207
114632578,114612381,3997706,134.74245,47.44,99717.0,1.1848029
114744478,114720465,3997706,134.74245,47.44,99717.0,1.1848029
114805587,114779253,3997706,134.55748,47.44,99719.2,1.1848291
114864173,114841062,3997706,134.74245,47.45,99717.0,1.1848029
114914568,114894124,3997706,134.97496,47.45,99714.24,1.1847701
114964790,114947126,3997706,135.35547,47.46,99709.75,1.1847168
115025155,115002446,3997706,135.10179,47.46,99712.75,1.1847525
115075591,115055269,3997706,135.52457,47.46,99707.75,1.184693
115125803,115108077,3997706,135.12294,47.46,99712.5,1.1847495
115186117,115163362,3997706,135.14407,47.46,99712.25,1.1847465
115236340,115216143,3997706,135.3766,47.46,99709.5,1.1847138
115287106,115269174,3997706,135.63026,47.469997,99706.49,1.1846781
115347473,115324717,3997706,135.56685,47.469997,99707.25,1.184687
115397711,115377518,3997706,135.60913,47.48,99706.74,1.184681
115448040,115430329,3997706,135.41887,47.48,99709.0,1.1847079
115508338,115485608,3997706,135.71217,47.48,99705.5,1.1846663
115558563,115538378,3997706,135.92357,47.48,99703.0,1.1846366
115608897,115591207,3997706,135.63026,47.48,99706.49,1.1846781
115669697,115646626,3997706,135.839,47.48,99704.0,1.1846485
115719936,115699710,3997706,136.34633,47.489998,99698.0,1.1845771
115770156,115752490,3997706,136.17722,47.489998,99699.99,1.1846008
115830562,115807767,3997706,136.45203,47.5,99696.75,1.1845623
115880756,115860535,3997706,136.57886,47.5,99695.25,1.1845444
115930968,115913296,3997706,136.53658,47.5,99695.74,1.1845503
115991328,115968593,3997706,136.59999,47.5,99694.99,1.1845415
116041594,116021429,3997706,136.97784,47.51,99690.5,1.184488
116092298,116074523,3997706,137.19188,47.51,99687.99,1.1844583
116152644,116129947,3997706,137.0624,47.51,99689.5,1.1844761
116202997,116182704,3997706,137.16809,47.51,99688.24,1.1844612
116253915,116235470,3997706,137.44289,47.51,99685.0,1.1844227
116314012,116290759,3997706,137.3372,47.51,99686.24,1.1844375
116364212,116343499,3997706,137.35834,47.52,99686.0,1.1844345
116434117,116403808,3997706,137.6437,47.52,99682.6,1.1843942
116484943,116464120,3997706,137.78111,47.53,99681.0,1.1843752
116535044,116517244,3997706,137.63315,47.53,99682.74,1.1843959
116595767,116572703,3997706,138.15897,47.53,99676.5,1.1843218
116655762,116631554,3997706,138.06648,47.53,99677.6,1.1843348
116716132,116693383,3997706,138.01099,47.539997,99678.25,1.1843425
116766360,116746181,3997706,138.15897,47.55,99676.5,1.1843218
116816637,116798979,3997706,138.58174,47.539997,99671.5,1.1842623
116877499,116854381,3997706,138.49718,47.539997,99672.5,1.1842742
116927690,116907515,3997706,138.75084,47.55,99669.49,1.1842384
116978101,116960269,3997706,138.68742,47.55,99670.24,1.1842474
117038387,117015572,3997706,138.5606,47.55,99671.75,1.1842653
117088534,117068331,3997706,139.25552,47.55,99663.5,1.1841673
117138849,117121119,3997706,139.34009,47.559998,99662.5,1.1841553
117199172,117176440,3997706,139.40614,47.559998,99661.74,1.1841464
117249605,117229309,3997706,139.17361,47.559998,99664.49,1.1841791
117300204,117282419,3997706,139.44577,47.559998,99661.24,1.1841404
117360580,117337864,3997706,139.385,47.57,99662.0,1.1841494
117410859,117390657,3997706,139.61488,47.57,99659.25,1.1841167
117461112,117443445,3997706,140.03764,47.57,99654.25,1.1840574
117521405,117498706,3997706,139.86855,47.57,99656.25,1.1840811
117571654,117551479,3997706,140.12221,47.579998,99653.25,1.1840454
117621876,117604221,3997706,140.37323,47.57,99650.25,1.1840098
117682232,117659471,3997706,140.20676,47.579998,99652.25,1.1840336
117733012,117712641,3997706,140.37323,47.579998,99650.25,1.1840098
117783152,117765450,3997706,140.5212,47.59,99648.5,1.183989
117844259,117820726,3997706,140.79599,47.59,99645.24,1.1839503
117904328,117879512,3997706,140.4974,47.59,99648.8,1.1839925
119191812,119174154,3997706,141.04967,47.649998,99642.24,1.1839147
119252095,119229405,3997706,140.90434,47.649998,99643.99,1.1839354
119302331,119282159,3997706,141.0708,47.66,99642.0,1.1839118
119353334,119335087,3997706,140.92284,47.66,99643.75,1.1839325
119413467,119390674,3997706,140.98624,47.66,99642.99,1.1839236
119464451,119443439,3997706,140.90434,47.67,99643.99,1.1839354
119534238,119503758,3997706,140.90169,47.67,99644.01,1.1839356
119634524,119616792,3997706,140.6903,47.67,99646.5,1.1839652
119694891,119672077,3997706,140.71144,47.67,99646.25,1.1839623
119745207,119724931,3997706,140.98624,47.68,99643.0,1.1839237
119795897,119778091,3997706,140.90434,47.68,99643.99,1.1839354
119856228,119833531,3997706,140.88055,47.68,99644.25,1.1839385
119906575,119886320,3997706,140.92284,47.69,99643.74,1.1839325
119956839,119939120,3997706,140.92284,47.69,99643.75,1.1839325
120017086,119994407,3997706,140.66916,47.69,99646.75,1.1839682
120067346,120047153,3997706,140.60576,47.69,99647.5,1.1839771
120117653,120099976,3997706,140.77486,47.69,99645.49,1.1839533
120178618,120155482,3997706,140.79599,47.7,99645.25,1.1839504
120228648,120208478,3997706,141.0708,47.7,99642.0,1.1839118
120278901,120261234,3997706,140.81714,47.7,99644.99,1.1839473
120339225,120316513,3997706,140.92284,47.7,99643.75,1.1839325
120389514,120369327,3997706,141.04967,47.7,99642.25,1.1839148
120439756,120422097,3997706,140.92284,47.7,99643.74,1.1839325
120500094,120477386,3997706,141.00739,47.71,99642.74,1.1839206
120550564,120530184,3997706,141.02852,47.71,99642.5,1.1839178
120601088,120583428,3997706,140.9651,47.71,99643.24,1.1839266
120661462,120638702,3997706,140.66916,47.719997,99646.75,1.1839682
120711701,120691487,3997706,140.64803,47.719997,99647.0,1.1839712
120761994,120744305,3997706,140.92284,47.719997,99643.75,1.1839325
120822277,120799590,3997706,141.30331,47.73,99639.24,1.183879
120872599,120852389,3997706,140.75636,47.719997,99645.74,1.1839563
120923158,120905178,3997706,141.09193,47.73,99641.75,1.1839088
120984383,120960697,3997706,141.40901,47.73,99638.0,1.1838642
121044459,121019650,3997706,140.98624,47.739998,99643.0,1.1839237
121104385,121081414,3997706,140.73259,47.739998,99646.0,1.1839594
121154563,121134173,3997706,140.94661,47.739998,99643.49,1.1839296
121204601,121186946,3997706,140.54498,47.739998,99648.25,1.1839861
121264984,121242243,3997706,141.09193,47.739998,99641.74,1.1839087
121315544,121295109,3997706,141.19763,47.75,99640.5,1.1838939
121365679,121347947,3997706,140.88055,47.739998,99644.24,1.1839384
121426359,121403642,3997706,140.8594,47.75,99644.49,1.1839414
121476619,121456445,3997706,140.60576,47.76,99647.5,1.1839771
121526894,121509207,3997706,140.60576,47.75,99647.5,1.1839771
121587167,121564489,3997706,140.58461,47.76,99647.75,1.1839801
121637491,121617267,3997706,140.20676,47.76,99652.25,1.1840336
121687915,121670091,3997706,140.29132,47.76,99651.24,1.1840216
121748231,121725375,3997706,140.20676,47.77,99652.25,1.1840336
121798801,121778378,3997706,140.07993,47.76,99653.75,1.1840514
121849016,121831349,3997706,140.16449,47.77,99652.75,1.1840395
121909416,121886672,3997706,140.05879,47.78,99654.0,1.1840544
121959670,121939485,3997706,140.10107,47.78,99653.5,1.1840484
122009951,121992234,3997706,140.10107,47.78,99653.5,1.1840484
122070402,122047511,3997706,139.5726,47.78,99659.75,1.1841227
122120586,122100320,3997706,140.29132,47.78,99651.24,1.1840216
122170742,122153077,3997706,139.57524,47.789997,99659.74,1.1841226
122231515,122208702,3997706,139.59373,47.789997,99659.5,1.1841197
122281819,122261578,3997706,139.784,47.789997,99657.25,1.184093
122332033,122314363,3997706,139.59373,47.789997,99659.5,1.1841197
122392328,122369630,3997706,139.69943,47.789997,99658.25,1.1841049
122442629,122422451,3997706,139.6783,47.8,99658.5,1.1841078
122493090,122475229,3997706,139.80513,47.8,99657.0,1.18409
122553217,122530507,3997706,139.88968,47.8,99656.0,1.1840781
122604382,122583241,3997706,139.82626,47.8,99656.75,1.184087
122674234,122643875,3997706,139.78928,47.809998,99657.195,1.1840923
122724495,122704239,3997706,140.31245,47.809998,99651.0,1.1840187
122774675,122757013,3997706,139.99538,47.809998,99654.75,1.1840633
122835015,122812285,3997706,140.33095,47.809998,99650.75,1.1840158
122885468,122865066,3997706,140.24904,47.82,99651.75,1.1840277
122935565,122917889,3997706,140.33359,47.82,99650.74,1.1840156
122995899,122973188,3997706,140.37323,47.82,99650.25,1.1840098
123046611,123026205,3997706,140.37323,47.82,99650.25,1.1840098
123096936,123079195,3997706,140.79599,47.829998,99645.24,1.1839503
123157251,123134503,3997706,140.60576,47.829998,99647.5,1.1839771
123207485,123187289,3997706,140.48157,47.829998,99649.0,1.183995
123257729,123240058,3997706,140.88055,47.829998,99644.25,1.1839385
123318185,123295381,3997706,140.81714,47.84,99644.99,1.1839473
123368381,123348168,3997706,140.84091,47.84,99644.74,1.1839443
123418797,123400964,3997706,141.21877,47.84,99640.25,1.183891
123479490,123456748,3997706,141.26105,47.84,99639.75,1.1838851
123529804,123509602,3997706,141.26105,47.84,99639.75,1.1838851
123580122,123562431,3997706,141.62039,47.85,99635.5,1.1838346
123640549,123617758,3997706,141.19763,47.85,99640.5,1.1838939
123690745,123670547,3997706,141.95598,47.85,99631.5,1.183787
123741130,123723326,3997706,141.49358,47.85,99636.99,1.1838523
123801868,123778784,3997706,141.81065,47.86,99633.24,1.1838077
123852128,123831919,3997706,141.89256,47.86,99632.25,1.1837959
123902454,123884712,3997706,142.08281,47.86,99629.99,1.1837691
123962719,123940031,3997706,141.97711,47.86,99631.25,1.183784
124013116,123992818,3997706,142.16736,47.86,99629.0,1.1837573
124064344,124045578,3997706,142.39989,47.87,99626.25,1.1837246
124124450,124100855,3997706,142.39989,47.87,99626.25,1.1837246
124184370,124159674,3997706,142.55579,47.87,99624.4,1.1837027
124244693,124222002,3997706,142.71696,47.879997,99622.5,1.18368
124295000,124274782,3997706,142.48444,47.879997,99625.25,1.1837127
124345435,124327583,3997706,142.80151,47.879997,99621.5,1.1836683
124405668,124382941,3997706,142.88608,47.879997,99620.49,1.1836562
124455861,124435686,3997706,142.8438,47.879997,99621.0,1.1836623
124506217,124488492,3997706,143.09746,47.879997,99617.99,1.1836265
124567030,124543926,3997706,142.99176,47.89,99619.25,1.1836414
124617266,124597070,3997706,143.49644,47.89,99613.24,1.1835701
124667590,124649905,3997706,143.09746,47.89,99618.0,1.1836267
124728076,124705195,3997706,142.80151,47.89,99621.5,1.1836683
124778180,124757978,3997706,143.13972,47.899998,99617.5,1.1836207
124828428,124810737,3997706,142.80151,47.899998,99621.5,1.1836683
124888790,124866043,3997706,142.92834,47.899998,99619.99,1.1836503
124939174,124918882,3997706,143.43567,47.91,99613.99,1.183579
124989773,124971979,3997706,143.13972,47.899998,99617.5,1.1836207
125050080,125027379,3997706,142.9495,47.91,99619.74,1.1836473
125100481,125080147,3997706,143.2877,47.91,99615.75,1.1836
125150611,125132949,3997706,142.92834,47.91,99619.99,1.1836503
125210910,125188218,3997706,142.86493,47.92,99620.74,1.1836592
125261213,125240970,3997706,143.13972,47.92,99617.5,1.1836207
125311420,125293752,3997706,143.03404,47.92,99618.74,1.1836355
125371789,125349023,3997706,142.99176,47.92,99619.24,1.1836414
125422455,125402231,3997706,143.20316,47.93,99616.75,1.1836118
125472716,125455045,3997706,142.88608,47.93,99620.49,1.1836562
125533077,125510339,3997706,142.82265,47.93,99621.25,1.1836653
125584175,125563120,3997706,142.61127,47.94,99623.75,1.183695
125653946,125623417,3997706,142.65619,47.94,99623.2,1.1836884
125704304,125683740,3997706,142.69582,47.94,99622.75,1.183683
125774601,125744039,3997706,142.50557,47.94,99625.0,1.1837099
125824969,125804537,3997706,142.569,47.94,99624.25,1.1837009
125875211,125857539,3997706,142.52672,47.95,99624.75,1.1837069
125935633,125912888,3997706,142.52672,47.95,99624.75,1.1837069
