timestamp,rollspeed_integ,pitchspeed_integ,yawspeed_integ,additional_integ1
68228156,8.467109e-05,-8.635835e-07,-0.00013305095,0.0
68293243,8.268767e-05,-1.14096395e-08,-0.0001340944,0.0
68313219,8.256292e-05,5.8181993e-08,-0.00013366282,0.0
68333241,8.017082e-05,6.354532e-07,-0.0001326821,0.0
68353230,8.126168e-05,-4.1459057e-07,-0.00013254715,0.0
68373178,7.815123e-05,1.0521304e-06,-0.00013132759,0.0
68393209,7.666932e-05,7.677886e-07,-0.00013195786,0.0
68413219,7.6598895e-05,1.8786163e-07,-0.000130801,0.0
68433352,7.322225e-05,-3.2732356e-07,-0.00013143764,0.0
68453411,7.3256386e-05,6.917975e-08,-0.00013245396,0.0
68473239,7.235012e-05,-9.144663e-07,-0.00013017874,0.0
68493272,7.007458e-05,-1.4755146e-07,-0.00013070506,0.0
68513291,7.1655544e-05,-6.786916e-07,-0.0001309802,0.0
68533284,7.197481e-05,-4.288982e-07,-0.00013339405,0.0
68553235,7.2318224e-05,-1.9353456e-07,-0.00013077303,0.0
68573247,7.4027856e-05,7.7190316e-07,-0.00013115566,0.0
68593378,7.3405514e-05,1.9467225e-07,-0.00013251939,0.0
68613365,7.464136e-05,1.6379707e-07,-0.00013168398,0.0
68633400,7.4114534e-05,-5.9972325e-07,-0.00013121922,0.0
68653407,7.5549004e-05,-1.455734e-07,-0.00013228387,0.0
68673318,7.5333366e-05,6.882951e-07,-0.00013188597,0.0
68693370,7.6083095e-05,4.888804e-07,-0.00013345628,0.0
68713360,7.70865e-05,1.628218e-06,-0.00013159901,0.0
68733213,7.9675316e-05,-3.0804878e-07,-0.00013252227,0.0
68753226,8.0452e-05,-5.2703757e-07,-0.00013269723,0.0
68773226,8.263225e-05,5.3563707e-07,-0.00013309257,0.0
68793291,8.1764905e-05,-6.2112525e-07,-0.00013314075,0.0
68813165,8.59255e-05,3.3888392e-07,-0.00013360898,0.0
68833215,8.411949e-05,-2.168595e-07,-0.00013387339,0.0
68853152,8.543854e-05,9.017691e-07,-0.00013279254,0.0
68873150,8.674378e-05,1.5427776e-06,-0.00013339809,0.0
68893244,8.7279535e-05,6.8246163e-07,-0.00013454822,0.0
68913318,8.69005e-05,-1.6078059e-07,-0.00013350793,0.0
68933344,8.540758e-05,1.8427963e-06,-0.00013312348,0.0
68953306,8.423193e-05,-5.736893e-09,-0.00013234191,0.0
68973236,8.337217e-05,-3.9688976e-07,-0.00013294785,0.0
68993210,8.39115e-05,1.1393307e-06,-0.00013484806,0.0
69013190,8.134555e-05,5.7278834e-07,-0.00013107515,0.0
69033186,7.904358e-05,1.5369105e-07,-0.00013287742,0.0
69053327,7.913491e-05,-8.176916e-07,-0.00013251058,0.0
69073233,7.804807e-05,-5.9823424e-07,-0.0001327239,0.0
69093257,7.488401e-05,3.8971808e-07,-0.00013112258,0.0
69113208,7.2784525e-05,4.2382572e-07,-0.00013251441,0.0
69133239,7.164011e-05,1.571129e-06,-0.00013192763,0.0
69153206,7.089219e-05,-3.6687342e-07,-0.00013195041,0.0
69173206,7.095935e-05,-1.4271166e-06,-0.00012981435,0.0
69193254,6.844411e-05,-1.4495607e-08,-0.000131163,0.0
69213219,6.775013e-05,-2.0545695e-08,-0.00012945132,0.0
69233234,6.832706e-05,1.2703814e-06,-0.00013135977,0.0
69273221,6.7822846e-05,1.800436e-07,-0.00012868027,0.0
69293376,6.685701e-05,-4.4378913e-07,-0.00013038484,0.0
69313384,6.799314e-05,1.6404208e-07,-0.00013169879,0.0
69333247,6.778102e-05,1.4830665e-07,-0.00012934538,0.0
69353403,7.213246e-05,1.3758439e-06,-0.00013249602,0.0
69373311,7.166762e-05,-4.834259e-07,-0.0001322049,0.0
69393381,7.4984906e-05,1.0086359e-06,-0.00013053099,0.0
69413251,7.809867e-05,-1.0211617e-06,-0.00013215,0.0
69433348,8.119719e-05,8.086848e-07,-0.00013257869,0.0
69453335,8.413089e-05,1.5299948e-07,-0.00013206771,0.0
69473388,8.580225e-05,9.594663e-07,-0.00013400908,0.0
69493299,8.603456e-05,1.7007677e-06,-0.00013371599,0.0
69513224,8.8628025e-05,8.683961e-07,-0.00013212669,0.0
69533372,8.823966e-05,1.6339193e-06,-0.00013396925,0.0
69553230,8.749145e-05,-8.099214e-07,-0.00013303685,0.0
69573298,9.053587e-05,7.588131e-08,-0.00013493442,0.0
69593209,9.08937e-05,1.6594103e-06,-0.00013431835,0.0
69613198,9.1306865e-05,1.1019554e-06,-0.00013601159,0.0
69633209,8.89493e-05,1.8241474e-06,-0.00013316437,0.0
69653172,8.512385e-05,1.0991166e-06,-0.00013332897,0.0
69673166,8.364509e-05,2.1691653e-07,-0.00013321346,0.0
69693212,8.2146005e-05,-7.573432e-07,-0.00013241351,0.0
69713190,7.921166e-05,4.491334e-07,-0.0001328061,0.0
69733155,7.616522e-05,3.6593875e-07,-0.00013327545,0.0
69753247,7.68545e-05,1.9683098e-07,-0.00013231629,0.0
69773289,7.253358e-05,-2.6444405e-07,-0.00013245315,0.0
69793277,6.825634e-05,3.26193e-06,-0.0001318259,0.0
69813255,6.698216e-05,1.3385642e-06,-0.00013391925,0.0
69833294,6.385729e-05,1.5149029e-06,-0.0001354048,0.0
69853214,6.66395e-05,2.203124e-06,-0.00013824044,0.0
69873275,6.3464446e-05,4.1124754e-06,-0.00013816323,0.0
69893315,6.5715714e-05,1.2416136e-06,-0.00013906222,0.0
69913246,6.453246e-05,-1.8209565e-06,-0.00012680457,0.0
69933241,6.541344e-05,-1.9666797e-06,-0.00012128643,0.0
69953273,6.3285224e-05,-3.4678674e-06,-0.00011527334,0.0
69973280,6.426463e-05,-1.0469131e-05,-0.00011021599,0.0
69993294,6.60452e-05,-7.4214136e-06,-0.00010844914,0.0
70013283,5.929679e-05,-5.593341e-06,-0.00010937347,0.0
70033296,5.520177e-05,1.545829e-06,-0.000111762856,0.0
70053333,6.73721e-05,8.856389e-06,-0.00013024034,0.0
70073314,7.412534e-05,7.353934e-06,-0.00014916487,0.0
70093388,6.298685e-05,1.8689043e-05,-0.00016609719,0.0
70113154,7.318595e-05,9.42138e-06,-0.00017399476,0.0
70133477,8.994617e-05,1.9175712e-05,-0.000170862,0.0
70153367,9.036573e-05,4.0157706e-06,-0.00015032738,0.0
70173465,7.588569e-05,-5.8614205e-06,-0.00011404693,0.0
70193492,6.908419e-05,7.7026584e-08,-8.4101215e-05,0.0
70213280,6.27474e-05,-1.6451288e-05,-7.133351e-05,0.0
70233434,8.2191604e-05,-1.4102232e-05,-0.000101546095,0.0
70253224,9.439327e-05,-3.227753e-05,-0.0001516481,0.0
70273308,7.93501e-05,-4.068e-06,-0.00019513263,0.0
70293217,8.6280226e-05,-6.3577176e-07,-0.00021464138,0.0
70313224,0.0001062704,1.5076615e-06,-0.0001992556,0.0
70333178,9.691647e-05,1.2738223e-05,-0.00015184298,0.0
70353222,8.362708e-05,-6.812401e-07,-0.00010144976,0.0
70373245,8.01272e-05,-3.3727654e-06,-6.860171e-05,0.0
70393245,7.270065e-05,-1.8826331e-06,-5.777861e-05,0.0
70413231,8.791929e-05,-2.0911834e-06,-7.278146e-05,0.0
70433210,8.448927e-05,9.015691e-06,-9.9499106e-05,0.0
70453216,7.212962e-05,1.2063971e-05,-0.00013141228,0.0
70473188,7.292184e-05,9.978439e-06,-0.0001523508,0.0
70493173,8.085381e-05,8.6414457e-07,-0.00016395607,0.0
70513177,8.679427e-05,5.02168e-06,-0.00015981957,0.0
70533195,7.415915e-05,8.327803e-06,-0.00014839346,0.0
70553194,6.711948e-05,5.286876e-06,-0.00013361352,0.0
70573289,7.20877e-05,-8.514695e-07,-0.00012172093,0.0
70593247,7.4686985e-05,-1.0448811e-06,-0.00011549804,0.0
70613299,7.500628e-05,-1.3277485e-05,-0.00011474164,0.0
70633231,6.998627e-05,-1.2232321e-05,-0.00011862931,0.0
70653250,6.484619e-05,-2.9471437e-06,-0.00012419616,0.0
70673231,7.311688e-05,-8.720912e-07,-0.00012896377,0.0
70693229,7.3591786e-05,-5.518107e-06,-0.00013276792,0.0
70713325,7.817774e-05,-1.5383905e-05,-0.000132724,0.0
70733332,8.04123e-05,-2.4330357e-05,-0.00013211575,0.0
70753279,7.518649e-05,-1.9616637e-05,-0.00012760049,0.0
70773358,8.3267245e-05,-1.168277e-05,-0.00012287217,0.0
70793357,8.128017e-05,-7.3172e-06,-0.00011702219,0.0
70813421,7.9216865e-05,-1.2060648e-05,-0.000111028996,0.0
70833369,8.231417e-05,-1.22872725e-05,-0.00011131367,0.0
70853293,7.964478e-05,-9.927856e-06,-0.00011653721,0.0
70873341,8.019084e-05,-9.559199e-06,-0.0001270187,0.0
70893338,8.1010345e-05,-2.1749734e-06,-0.00013666526,0.0
70913331,8.198495e-05,2.6633115e-06,-0.0001453278,0.0
70933224,8.198364e-05,1.4676186e-06,-0.00014302801,0.0
70953155,7.822358e-05,-3.5278522e-06,-0.00013871682,0.0
70973189,8.0360405e-05,-4.410518e-06,-0.00013363245,0.0
70993258,7.800562e-05,-6.732333e-06,-0.00013024338,0.0
71013240,7.813059e-05,-5.8104783e-06,-0.00013390675,0.0
71033266,7.970857e-05,-7.1457807e-06,-0.00013822145,0.0
71053296,7.82124e-05,-9.080092e-06,-0.00014606543,0.0
71073207,8.218119e-05,-4.55755e-06,-0.00015042273,0.0
71093217,8.16606e-05,-1.4739522e-06,-0.00015065957,0.0
71113235,7.978937e-05,5.2402385e-08,-0.00014734962,0.0
71133229,8.300612e-05,4.125246e-06,-0.000140815,0.0
71153250,8.482792e-05,6.809474e-06,-0.00013601418,0.0
71173206,8.85679e-05,7.0351584e-06,-0.00013517702,0.0
71193224,8.3838844e-05,6.0505117e-06,-0.00013750496,0.0
71213201,8.397831e-05,8.549903e-06,-0.00013865157,0.0
71233229,8.186409e-05,8.7352255e-06,-0.00013428212,0.0
71253214,8.019135e-05,3.5716607e-06,-0.00013031582,0.0
71273223,4.749786e-05,6.706643e-06,-0.00012405247,0.0
71293196,1.44603255e-05,2.058347e-06,-0.00011792112,0.0
71313237,-3.7195365e-05,-4.1480866e-06,-0.000117081116,0.0
71333211,-0.00011188756,-3.9275333e-06,-0.000117655196,0.0
71353239,-0.0003212372,-8.771465e-06,-0.00012044469,0.0
71373342,-0.00047307365,-8.939615e-06,-0.00012465294,0.0
71393325,-0.000521312,-6.4411092e-06,-0.00013021934,0.0
71413331,-0.0006175782,-6.6536204e-06,-0.00013168978,0.0
71433347,-0.00064235594,-1.1814635e-05,-0.00013236985,0.0
71453442,-0.0006544098,-1.7743741e-05,-0.0001352404,0.0
71473339,-0.00065653306,-3.1656014e-05,-0.00013130989,0.0
71493351,-0.0006727862,-4.3691e-05,-0.00013020373,0.0
71513267,-0.00049713755,-3.3660002e-05,-0.00013252963,0.0
71533348,-0.00041668193,-2.785264e-05,-0.000133044,0.0
71553296,-0.00021193922,-8.856553e-06,-0.00013732041,0.0
71573353,-5.352589e-05,2.152491e-06,-0.00013227764,0.0
71593219,0.0001006392,-8.767684e-06,-0.0001253431,0.0
71613228,0.00010685828,-1.7565791e-05,-0.000117564334,0.0
71633209,0.00019110946,-2.9595942e-05,-0.00012071397,0.0
71653235,0.00040953918,-1.3079431e-05,-0.0001363987,0.0
71673285,0.0006605181,-7.559636e-06,-0.00015692122,0.0
71693429,0.0007488821,-9.520707e-06,-0.00017043662,0.0
71713438,0.00097654556,-1.10852725e-05,-0.00017133325,0.0
71733286,0.001065405,-5.227709e-06,-0.00016033652,0.0
71753287,0.0010849364,-2.1564847e-05,-0.00014822198,0.0
71773158,0.0010775983,-8.877047e-06,-0.00013965931,0.0
71793146,0.0009631004,-3.692689e-06,-0.00013908399,0.0
71813185,0.00087960897,-4.4775797e-07,-0.00014596284,0.0
71833270,0.0005416297,-6.7617957e-06,-0.00014745542,0.0
71853224,0.00018994158,-9.377433e-06,-0.00014748836,0.0
71873298,8.37805e-05,-3.1924435e-06,-0.0001499811,0.0
71893239,-5.740003e-05,5.5190217e-06,-0.00014802114,0.0
71913208,-5.682963e-05,7.019299e-06,-0.00014534956,0.0
71933204,-0.00020040172,6.185619e-06,-0.00014085839,0.0
71953214,-0.0003152529,1.7892359e-07,-0.00013999948,0.0
71973258,-0.00039828217,1.1234484e-06,-0.0001395338,0.0
71993239,-0.00043111853,-1.1363635e-06,-0.00014230952,0.0
72013215,-0.00042765946,4.223311e-06,-0.00014272588,0.0
72033226,-0.0002526128,8.699016e-06,-0.00014271853,0.0
72053200,-0.00016331744,7.1310074e-06,-0.00014036657,0.0
72073252,8.142189e-05,8.4608365e-07,-0.00013821012,0.0
72093228,0.00018388794,4.1559456e-06,-0.00013350854,0.0
72113323,0.00048134578,3.0270883e-06,-0.00012990303,0.0
72133256,0.000561588,4.8811326e-06,-0.0001199383,0.0
72153243,0.00077255035,5.5014025e-06,-0.000112232716,0.0
72173234,0.00084684714,1.8604784e-06,-0.00010905287,0.0
72193199,0.0008388581,1.220053e-07,-0.00010847283,0.0
72213153,0.0008114266,7.04148e-06,-0.00011275148,0.0
72233306,0.0007091402,6.5795307e-06,-0.000118185,0.0
72253355,0.000292426,1.4680265e-05,-0.00012253139,0.0
72273374,0.00012902555,1.6666574e-05,-0.00012324021,0.0
72293354,-0.00016147427,1.5763842e-05,-0.0001234121,0.0
72313307,-0.00045611002,1.3979178e-05,-0.00012319244,0.0
72333348,-0.00055396545,1.4919232e-05,-0.00012398754,0.0
72353202,-0.0005445198,1.735119e-05,-0.000126452,0.0
72373226,-0.00075837644,1.0320313e-05,-0.00012859316,0.0
72393309,-0.00082493195,8.813936e-06,-0.00013057489,0.0
72413295,-0.00085312,7.1584445e-06,-0.00013745298,0.0
72433185,-0.0008154095,2.4634123e-06,-0.00013601931,0.0
72453240,-0.0006309842,2.504559e-06,-0.00013798107,0.0
72473256,-0.00044526142,-3.2937558e-06,-0.00013801156,0.0
72493239,2.3790015e-05,-5.9594868e-06,-0.0001295616,0.0
72513187,0.00016970203,-1.5797468e-05,-0.00012133755,0.0
72533194,0.0005185695,-3.3304084e-05,-0.000119111595,0.0
72553220,0.00062230305,-3.1928077e-05,-0.00012310057,0.0
72573207,0.00061572314,-2.9980927e-05,-0.00012377265,0.0
72593216,0.00080801727,-1.7785767e-05,-0.00012881153,0.0
72613197,0.0008435705,-1.771422e-05,-0.00013026959,0.0
72633179,0.00090047106,-1.8483232e-05,-0.00014047151,0.0
72653190,0.0008317316,-1.1699427e-05,-0.00014416981,0.0
72673237,0.0006267975,-5.6828185e-06,-0.00014736214,0.0
72693248,0.00048192815,7.2628172e-06,-0.00014824084,0.0
72713305,0.00047658655,1.0529128e-05,-0.00014132992,0.0
72733277,5.1003753e-05,1.5336182e-05,-0.0001317468,0.0
72753320,-0.0002418143,1.6230191e-05,-0.00012665073,0.0
72773249,-0.00047828574,1.0117462e-05,-0.00012085813,0.0
72793282,-0.00061312184,1.5176148e-05,-0.000120549135,0.0
72813302,-0.00067556294,2.072031e-05,-0.00012243328,0.0
72828279,-0.00067255273,2.8393773e-05,-0.00012265002,0.0
72853352,-0.0005722907,3.153836e-05,-0.00012054389,0.0
72873380,-0.00044446925,3.512876e-05,-0.000112266884,0.0
72893354,-2.8894761e-05,2.8034154e-05,-0.00010660903,0.0
72913535,7.872318e-05,1.1411941e-05,-9.6236254e-05,0.0
72933442,0.00036156873,7.307682e-06,-8.961449e-05,0.0
72953375,0.0004233773,-4.4237486e-06,-9.53832e-05,0.0
72973370,0.000467629,-1.8706143e-05,-0.00010951924,0.0
72993321,0.00044363813,-1.4567242e-06,-0.00014081562,0.0
73008419,0.00044715902,1.3460696e-05,-0.00016224843,0.0
73028420,0.00029184547,8.088524e-06,-0.00016918352,0.0
73053437,7.8559635e-05,8.442234e-06,-0.00017256898,0.0
73073422,4.419082e-05,5.7597595e-06,-0.00015644128,0.0
73093430,3.3985703e-05,-8.746763e-06,-0.00013883934,0.0
73113426,3.2191976e-05,-8.089397e-06,-0.00012960192,0.0
73133444,3.7330927e-05,-1.8997518e-07,-0.000119898286,0.0
73153420,3.9328188e-05,2.3407518e-05,-0.00012428535,0.0
73168154,3.649661e-05,2.3506285e-05,-0.00012764176,0.0
73193350,0.00010271622,6.110043e-06,-0.00013564502,0.0
73213283,9.7495555e-05,-1.0566278e-05,-0.00013533393,0.0
73233293,0.000107395324,1.5362795e-05,-0.00013654103,0.0
73253320,0.000114641305,2.063285e-05,-0.00013893616,0.0
73273388,0.00010088717,0.00010175782,-0.00014122708,0.0
73293411,0.00010828781,0.00032818288,-0.00014679747,0.0
73313474,0.00011291772,0.00048607402,-0.00014863466,0.0
73333392,9.321949e-05,0.0,-0.00013902997,0.0
73353291,0.00010002672,0.0,-0.00012948063,0.0
73373223,9.3760355e-05,0.0,-0.000117315714,0.0
73393173,6.877125e-05,0.0,-0.00010632228,0.0
73413244,7.045446e-05,0.0,-0.00011069628,0.0
73428202,7.0909555e-05,0.0,-0.00011711344,0.0
73453216,6.242364e-05,0.0,-0.00013669925,0.0
73468183,6.0359536e-05,0.0,-0.00014912346,0.0
73493225,5.387382e-05,0.00093532953,-0.00015867526,0.0
73508245,4.9241156e-05,0.0005168219,-0.00015798594,0.0
73533285,4.5559722e-05,0.00014369233,-0.00014469287,0.0
73548252,4.081251e-05,0.00014510554,-0.00013512128,0.0
73573316,3.7666916e-05,-1.2226366e-05,-0.00012675194,0.0
73593320,3.6522415e-05,-9.750164e-05,-0.00012829834,0.0
73613360,4.6325906e-05,-0.00043473748,-0.00012264933,0.0
73633395,4.6253448e-05,-0.0007314828,-0.00012824939,0.0
73653359,5.1155104e-05,-0.0010826152,-0.0001329762,0.0
73673348,5.8093563e-05,0.0,-0.00013489816,0.0
73693275,6.0974384e-05,0.0,-0.00013618836,0.0
73713362,7.227527e-05,0.0,-0.00013501078,0.0
73733298,7.389273e-05,0.0,-0.00013149666,0.0
73753375,7.9465215e-05,0.0,-0.00012895693,0.0
73773233,8.597509e-05,0.0,-0.0001324065,0.0
73793290,9.09185e-05,0.0,-0.00013293765,0.0
73813284,9.666302e-05,0.0,-0.00013717278,0.0
73833271,9.7642136e-05,-0.00082458986,-0.00013796429,0.0
73853247,9.957637e-05,-0.00062831724,-0.00012814082,0.0
73873162,0.00010199426,-0.00015018962,-0.00011400527,0.0
73893233,0.00010353507,-2.4490993e-05,-0.0001061931,0.0
73913189,0.00010346885,0.00035730144,-9.742612e-05,0.0
73933347,0.00010455786,0.00076139544,-9.183021e-05,0.0
73953244,9.9640936e-05,0.000763575,-9.10262e-05,0.0
73973252,9.6842086e-05,0.0,-7.295573e-05,0.0
73993226,9.476566e-05,0.0,-4.7014033e-05,0.0
74013253,9.149406e-05,0.0,-2.1604783e-05,0.0
74033250,8.492022e-05,0.0,-5.2591608e-05,0.0
74053255,8.138558e-05,0.0,-4.967795e-05,0.0
74073238,7.3934534e-05,0.0004296056,-0.00010163032,0.0
74093200,6.837266e-05,0.00022062694,-0.00010222979,0.0
74113233,6.0910676e-05,0.00021720922,-9.971717e-05,0.0
74133194,5.5917084e-05,-6.2098343e-06,-0.00010886712,0.0
74153229,5.675854e-05,1.93642e-06,-0.00012057951,0.0
74173258,5.329537e-05,4.4681265e-06,-0.00012755797,0.0
74193198,5.1039173e-05,2.3206856e-06,-0.00013396346,0.0
74213240,4.5781966e-05,-5.793985e-06,-0.00014121282,0.0
74233196,4.7849488e-05,-2.5573715e-06,-0.00013509176,0.0
74253249,4.652241e-05,-3.8904354e-06,-0.00015540153,0.0
74273239,4.387328e-05,-4.638531e-06,-0.00019488476,0.0
74293197,4.6132685e-05,-6.9307257e-06,-0.00019082238,0.0
74313358,4.5144297e-05,-7.771539e-06,-0.0003818082,0.0
74333348,4.87068e-05,-9.777828e-06,-0.000466541,0.0
74353313,5.4236643e-05,-8.842605e-06,-0.00071392016,0.0
74373416,6.0283324e-05,-8.218177e-06,-0.0008814525,0.0
74393391,5.702938e-05,-3.4316224e-06,-0.0008854649,0.0
74413394,6.428264e-05,5.013062e-06,-0.0008868134,0.0
74433430,7.5126205e-05,7.681049e-06,-0.00089177623,0.0
74453389,7.81031e-05,2.3625707e-06,-0.000817826,0.0
74473345,7.46979e-05,1.2797688e-05,-0.0005900191,0.0
74493392,8.10759e-05,3.275451e-05,-0.0005141025,0.0
74513202,8.926962e-05,3.5455607e-05,-0.0003756711,0.0
74533283,8.897879e-05,1.9332589e-05,-0.00024644914,0.0
74553275,8.478499e-05,1.2399596e-06,-5.086869e-05,0.0
74573307,8.523192e-05,1.0056758e-06,1.2381935e-06,0.0
74593322,9.0001544e-05,2.2210625e-06,0.00016961122,0.0
74613207,9.352698e-05,-1.4166486e-06,0.00017115194,0.0
74633220,9.167256e-05,3.2995147e-05,0.00061365357,0.0
74653280,8.768052e-05,4.9271308e-05,0.0007287098,0.0
74673218,8.648042e-05,5.0458893e-05,0.00072987325,0.0
74693174,8.507981e-05,4.1434454e-05,0.0007299508,0.0
74713183,8.487178e-05,3.9513543e-05,0.00073003623,0.0
74733194,7.5281525e-05,6.0812406e-05,0.00072904216,0.0
74753294,7.346873e-05,6.1307546e-05,0.0007333816,0.0
74773346,6.9499096e-05,3.1407817e-05,0.0003711862,0.0
74793361,6.931061e-05,2.9499777e-05,0.00023386056,0.0
74813463,6.580554e-05,1.5821287e-06,-6.170955e-05,0.0
74833321,6.1706254e-05,4.036881e-06,-0.00022348469,0.0
74853343,6.0197188e-05,3.6309504e-07,-0.0003445167,0.0
74873293,5.7277266e-05,-2.9825992e-06,-0.00044962027,0.0
74893298,5.6635647e-05,5.538756e-07,-0.0005471291,0.0
74913294,5.6298566e-05,4.8973357e-06,-0.00054222735,0.0
74933337,5.538431e-05,7.5493294e-06,-0.0006139136,0.0
74953367,5.777348e-05,-2.1819412e-06,-0.0006739348,0.0
74973319,5.4745073e-05,-3.0336203e-06,-0.00062835653,0.0
74993351,6.2046565e-05,-5.538841e-06,-0.0005858084,0.0
75013364,6.2381776e-05,-8.539577e-06,-0.00034124314,0.0
75033360,6.3099455e-05,-8.129459e-06,-0.00028418895,0.0
75053438,6.473099e-05,-2.8743869e-05,-0.00016500583,0.0
75073425,6.734166e-05,-2.472218e-05,-0.00016618124,0.0
75093548,7.313684e-05,-4.7886388e-06,-0.00013532341,0.0
75113462,7.559871e-05,-5.664731e-06,-0.00013424689,0.0
75133431,7.81253e-05,-3.133034e-06,-0.00013592614,0.0
75153450,8.3009356e-05,6.8346435e-07,-0.00013441463,0.0
75173387,8.375608e-05,4.9776025e-07,-0.00012960493,0.0
75193490,8.571322e-05,2.6014695e-07,-0.00012909817,0.0
75213403,8.4269894e-05,4.584236e-06,-0.00012843621,0.0
75233522,8.644919e-05,5.0580325e-06,-0.00013370968,0.0
75253455,8.759119e-05,5.1413344e-06,-0.00013710283,0.0
75273441,8.921483e-05,3.5111686e-06,-0.00014329329,0.0
75293468,8.354517e-05,-5.790329e-06,-0.00014121372,0.0
75313476,8.4398256e-05,-2.6462055e-06,-0.00013897741,0.0
75333352,8.8120614e-05,-1.873657e-06,-0.00013509735,0.0
75353354,8.341354e-05,1.6255217e-06,-0.00013199689,0.0
75373424,7.930276e-05,3.5521764e-06,-0.0001292616,0.0
75393388,7.771978e-05,4.7315507e-06,-0.00013077071,0.0
75413369,7.296425e-05,1.7941741e-06,-0.00012990097,0.0
75433375,7.550246e-05,-4.8458737e-06,-0.00013200712,0.0
75453279,6.681048e-05,-8.254562e-06,-0.00013386756,0.0
75473307,6.578424e-05,-2.5918314e-06,-0.00013548511,0.0
75493386,6.488861e-05,1.7585413e-06,-0.00013389577,0.0
75513378,6.42148e-05,1.0104944e-06,-0.00013034946,0.0
75533453,6.1793886e-05,-1.131729e-06,-0.0001267384,0.0
75553272,5.8133213e-05,-2.3631985e-06,-0.00012546669,0.0
75573327,5.8518555e-05,-5.867642e-07,-0.00012780324,0.0
75593345,6.147185e-05,3.964942e-06,-0.00013075392,0.0
75613368,6.0157538e-05,3.96927e-06,-0.00013329941,0.0
75633381,5.9125403e-05,4.415062e-06,-0.00013361518,0.0
75653408,6.0205126e-05,4.980958e-06,-0.00013027735,0.0
75673347,6.5552245e-05,3.3183737e-06,-0.00013175982,0.0
75693356,6.544485e-05,-6.3650894e-08,-0.00013074277,0.0
75713381,6.8006084e-05,1.7851722e-06,-0.0001295042,0.0
75733372,7.023345e-05,2.5300847e-06,-0.00012910111,0.0
75753468,7.2872754e-05,1.8084944e-06,-0.00012827107,0.0
75773458,7.727397e-05,-2.4069038e-06,-0.00013022526,0.0
75793398,7.641765e-05,-1.1603586e-06,-0.00013047765,0.0
75813427,7.997584e-05,1.5124051e-06,-0.00013405128,0.0
75833391,8.223269e-05,4.033377e-06,-0.00013543478,0.0
75853406,8.3743726e-05,4.403502e-06,-0.00013721897,0.0
75873447,8.594337e-05,2.510277e-06,-0.00013927316,0.0
75893478,8.560169e-05,8.446221e-07,-0.00013704781,0.0
75913385,8.669453e-05,3.1588902e-06,-0.00013549207,0.0
75933529,8.629251e-05,-5.1532652e-08,-0.00013118527,0.0
75953303,8.557408e-05,3.4062855e-06,-0.0001292897,0.0
75973472,8.303453e-05,5.995221e-06,-0.00012833117,0.0
75993436,8.3501094e-05,7.720903e-06,-0.00013163971,0.0
76013437,8.0547936e-05,-1.8406721e-06,-0.00013387136,0.0
76033364,7.502528e-05,1.0476476e-05,-0.00013490031,0.0
76053381,7.977459e-05,1.6187023e-07,-0.00013814161,0.0
76073391,6.714267e-05,1.212766e-05,-0.0001335644,0.0
76093372,6.896922e-05,8.123601e-06,-0.00013185304,0.0
76113406,6.631596e-05,1.5016055e-05,-0.00013270443,0.0
76133334,6.0598897e-05,1.0908829e-05,-0.00013263243,0.0
76153329,6.497271e-05,5.8290543e-06,-0.0001384203,0.0
76173336,6.5706074e-05,3.5984588e-06,-0.00014328129,0.0
76193359,6.5169275e-05,2.3316943e-06,-0.00014569848,0.0
76213299,5.960095e-05,-6.32158e-06,-0.00013982509,0.0
76233324,6.0365677e-05,-1.7908305e-05,-0.00013244849,0.0
76253341,5.9107726e-05,-1.6860473e-05,-0.00012416074,0.0
76273366,5.758747e-05,-1.3360603e-05,-0.00011826502,0.0
76293325,6.2323576e-05,-9.78038e-06,-0.00011816713,0.0
76313316,6.122442e-05,-1.8598956e-06,-0.00012472877,0.0
76333519,6.4936314e-05,7.3863424e-07,-0.00013577344,0.0
76353512,7.030632e-05,1.9600452e-06,-0.00014366873,0.0
76373437,7.296313e-05,9.814016e-07,-0.00014874521,0.0
76393483,7.727511e-05,-1.5247653e-07,-0.00014758254,0.0
76413375,7.728903e-05,-1.8549039e-06,-0.00014115043,0.0
76433516,8.214195e-05,-2.8687907e-06,-0.00012840326,0.0
76453508,7.992908e-05,-2.4654898e-06,-0.00011826749,0.0
76473449,7.7397366e-05,-6.5515255e-06,-0.00011526288,0.0
76493493,8.427456e-05,-8.917809e-06,-0.000120924284,0.0
76513478,8.490479e-05,-1.04015335e-05,-0.00013102448,0.0
76533463,8.689852e-05,-8.9763835e-06,-0.00014082424,0.0
76553458,8.9972666e-05,-3.815032e-06,-0.00015037307,0.0
76573378,8.961828e-05,-3.6265135e-06,-0.00014941864,0.0
76593379,8.90612e-05,4.6612863e-07,-0.00014442006,0.0
76613386,8.519616e-05,1.7482861e-06,-0.00013529438,0.0
76633401,8.657876e-05,3.6251724e-06,-0.0001285548,0.0
76653414,8.386631e-05,4.6272335e-06,-0.00012410851,0.0
76673501,8.1883605e-05,3.2126184e-06,-0.00012359643,0.0
76693430,7.670283e-05,4.236745e-06,-0.0001254146,0.0
76713461,7.5583455e-05,7.2477127e-07,-0.00013006204,0.0
76733411,7.3488765e-05,4.6665338e-07,-0.00013533833,0.0
76753321,7.408551e-05,2.1119432e-07,-0.0001372565,0.0
76773347,7.050398e-05,1.1898088e-06,-0.00013672494,0.0
76793316,6.555851e-05,-6.172763e-08,-0.00013366473,0.0
76813235,6.836315e-05,-3.480287e-06,-0.00012777995,0.0
76833339,6.4579675e-05,-7.340728e-06,-0.0001247509,0.0
76853311,6.203594e-05,-3.297361e-06,-0.00012373216,0.0
76873323,6.788508e-05,1.8374405e-06,-0.00012564578,0.0
76893375,6.8934685e-05,2.4410335e-06,-0.000131565,0.0
76913305,6.7370886e-05,5.2609403e-06,-0.00013602283,0.0
76933344,6.761809e-05,6.137477e-06,-0.00014117116,0.0
76953346,7.090947e-05,3.6475412e-06,-0.00013960556,0.0
76973360,7.115726e-05,1.7584641e-07,-0.0001349611,0.0
76993372,7.0936374e-05,-2.120523e-06,-0.00012748878,0.0
77013273,7.280824e-05,5.602255e-07,-0.00011886611,0.0
77573452,9.9876655e-05,-1.748493e-06,-0.00013166452,0.0
77613366,8.807362e-05,2.3447665e-06,-0.0001309582,0.0
77633206,9.804442e-05,1.3117109e-06,-0.00013136175,0.0
77653207,0.00010739798,-1.7479506e-06,-0.0001304945,0.0
77673233,0.00011033753,-2.196485e-06,-0.00013092747,0.0
77693203,0.00015319289,6.169193e-07,-0.00012982548,0.0
77713519,0.00018050653,3.3765602e-06,-0.00013247142,0.0
77733372,0.00019160898,1.7389812e-06,-0.00013082959,0.0
77753484,0.00021571189,1.8598981e-06,-0.00013209443,0.0
77773382,0.00022885749,2.6058385e-06,-0.00013132162,0.0
77793368,0.00022118246,2.6602802e-06,-0.00012809037,0.0
77813369,0.00018490288,-2.5762154e-06,-0.00013407702,0.0
77833353,0.0001945739,8.923277e-06,-0.00013300577,0.0
77853413,0.0001588808,2.6209716e-06,-0.00013148422,0.0
77873478,0.00015297919,7.427723e-06,-0.00013255699,0.0
77893448,0.00015574273,2.2078335e-07,-0.000135712,0.0
77913558,0.00014623192,-4.2252923e-06,-0.00013377715,0.0
77933532,0.00014548264,-6.716155e-06,-0.00013429725,0.0
77953712,0.00014474,-4.1862127e-06,-0.0001318149,0.0
77973690,0.00012270075,-8.6510835e-07,-0.00013518656,0.0
77993676,9.623911e-05,7.920359e-07,-0.0001353866,0.0
78013457,7.580808e-05,-6.627958e-06,-0.0001362771,0.0
78033584,7.1984374e-05,-7.035224e-06,-0.00013830075,0.0
78053452,6.298661e-05,-3.0481162e-06,-0.00013680084,0.0
78073276,5.88322e-05,1.1580478e-06,-0.0001329943,0.0
78093225,6.707565e-05,-5.884248e-06,-0.00012945429,0.0
78113475,6.5761255e-05,-2.2310558e-06,-0.00012653861,0.0
78133251,5.7112018e-05,6.0165453e-06,-0.00012362779,0.0
78153519,7.025843e-05,-1.5571399e-05,-0.0001235849,0.0
78173314,5.1655796e-05,-1.433068e-05,-0.00012203667,0.0
78193286,5.9494105e-05,-1.801981e-05,-0.00012410317,0.0
78213272,6.1735336e-05,-1.63922e-05,-0.00012599824,0.0
78233529,5.929652e-05,-9.889002e-06,-0.00013325506,0.0
78253519,6.544903e-05,-3.190793e-06,-0.00014121873,0.0
78273307,6.377613e-05,-1.4073041e-06,-0.00014314176,0.0
78293332,7.351006e-05,-2.0034665e-06,-0.00014456558,0.0
78313225,6.9172966e-05,-4.1458393e-06,-0.00014017573,0.0
78333244,7.7677316e-05,-7.106036e-06,-0.00013132833,0.0
78353257,7.385653e-05,2.4661192e-06,-0.00012459884,0.0
78373346,6.8710244e-05,1.4651897e-05,-0.00012134018,0.0
78393313,8.741166e-05,1.7504353e-06,-0.0001226508,0.0
78413311,8.461696e-05,5.2189157e-06,-0.00012714288,0.0
78433337,7.663578e-05,5.470618e-06,-0.0001338776,0.0
78453333,9.25483e-05,1.3569655e-07,-0.00014117686,0.0
78473287,0.00010021755,-3.6498448e-06,-0.00014387508,0.0
78493301,8.9430476e-05,7.1605136e-06,-0.00013880477,0.0
78513351,8.26097e-05,5.542766e-06,-0.00013150752,0.0
78533363,9.164761e-05,-2.6268683e-06,-0.0001245892,0.0
78553365,8.9547146e-05,-4.111003e-06,-0.00012044135,0.0
78573554,7.610248e-05,3.6505895e-07,-0.000121408724,0.0
78593659,8.3929874e-05,2.2304196e-06,-0.00012879648,0.0
78613280,8.4607054e-05,-1.7102369e-06,-0.00013253729,0.0
78633414,7.908145e-05,5.0408503e-06,-0.00014136868,0.0
78653422,7.4846066e-05,3.928278e-06,-0.00014224461,0.0
78673518,7.709098e-05,-3.832949e-06,-0.00013721547,0.0
78693525,8.330525e-05,-8.209257e-06,-0.0001322261,0.0
78713510,6.79291e-05,4.3292357e-06,-0.00012709285,0.0
78733370,6.495468e-05,6.372291e-06,-0.0001269784,0.0
78753406,7.2213006e-05,-2.4658027e-06,-0.00012903618,0.0
78773419,7.472788e-05,-5.2473847e-06,-0.00013140237,0.0
78793386,6.870017e-05,1.5700094e-06,-0.00013254615,0.0
78813418,6.3495805e-05,-2.434953e-06,-0.00013421362,0.0
78833298,7.300363e-05,-8.320391e-06,-0.00013000447,0.0
78853393,7.328087e-05,-4.879214e-06,-0.00012758824,0.0
78873289,7.203046e-05,2.150499e-06,-0.00012658694,0.0
78893255,6.8443806e-05,-1.0584592e-06,-0.00012780722,0.0
78913149,7.297444e-05,-7.457574e-06,-0.00012958042,0.0
78933207,8.463215e-05,-2.9913774e-06,-0.00013249344,0.0
78953342,7.369858e-05,4.7458666e-06,-0.00013437918,0.0
78973409,7.329121e-05,2.9896312e-06,-0.000133415,0.0
78993345,8.391133e-05,-6.1163023e-06,-0.0001311259,0.0
79013413,8.3650964e-05,-1.985898e-06,-0.00013045996,0.0
79033408,8.481884e-05,-9.695989e-07,-0.0001313937,0.0
79053341,7.156268e-05,2.3698678e-06,-0.00013081658,0.0
79073247,8.75339e-05,-4.671083e-06,-0.0001331974,0.0
79093312,8.328016e-05,-2.8588865e-09,-0.00013420508,0.0
79113313,8.535418e-05,4.290108e-06,-0.00013307433,0.0
79133325,7.990843e-05,4.5661673e-06,-0.00013306086,0.0
79153322,8.6321255e-05,-3.0749077e-06,-0.00013353367,0.0
79173333,9.0845606e-05,-3.2918474e-06,-0.00013414815,0.0
79193311,8.2266495e-05,3.2444889e-06,-0.00013122974,0.0
79213331,7.956752e-05,4.2208544e-06,-0.00013298551,0.0
79233307,8.1903105e-05,-1.9280249e-06,-0.00013276418,0.0
79253307,8.576167e-05,1.2482636e-06,-0.000131871,0.0
79273338,8.019196e-05,-1.2565636e-06,-0.00013110867,0.0
79293505,7.7832134e-05,5.584064e-06,-0.00013049155,0.0
79313440,7.085633e-05,-2.538113e-06,-0.00013397276,0.0
79333425,7.544361e-05,-4.344752e-06,-0.00013081123,0.0
79353375,7.716572e-05,1.4960084e-06,-0.00013149339,0.0
79373453,6.922657e-05,1.0211243e-06,-0.00013020005,0.0
79393160,6.171494e-05,-7.396542e-06,-0.00012606394,0.0
79413462,7.086173e-05,3.8886196e-06,-0.00012707485,0.0
79433492,7.001539e-05,1.001172e-05,-0.00013276044,0.0
79453486,6.751635e-05,2.67755e-06,-0.00013454974,0.0
79473566,5.9322512e-05,6.3097167e-07,-0.00013574258,0.0
79493530,6.1293635e-05,-4.277935e-06,-0.00013535628,0.0
79513479,7.7505385e-05,2.1925962e-07,-0.00013217489,0.0
79533314,6.4567124e-05,-2.0812413e-06,-0.00013032803,0.0
79553437,6.0170227e-05,8.784088e-06,-0.00012885027,0.0
79573283,6.6720255e-05,9.329046e-06,-0.00013191963,0.0
79593278,8.618586e-05,5.0254203e-06,-0.00013602564,0.0
79613170,8.170684e-05,-2.945362e-06,-0.00013684537,0.0
79633289,6.485329e-05,-6.0282923e-07,-0.00013223161,0.0
79653214,7.832209e-05,-5.0158674e-06,-0.00013391991,0.0
79673307,9.5136595e-05,-5.593394e-06,-0.00012893921,0.0
79693295,8.7912216e-05,2.0371474e-06,-0.00012587888,0.0
79713311,8.03933e-05,7.830932e-06,-0.00012651629,0.0
79853392,0.00010029488,-2.2911831e-06,-0.00013090114,0.0
79893374,8.229396e-05,2.4341025e-06,-0.00012552309,0.0
79913425,8.909587e-05,-4.8195164e-07,-0.00012988185,0.0
79933216,8.989582e-05,2.0051646e-06,-0.00013194118,0.0
79953215,8.196093e-05,-1.6576305e-06,-0.0001332107,0.0
79973216,7.6456054e-05,-2.6568412e-06,-0.00013088479,0.0
79993254,8.487883e-05,-3.2151206e-06,-0.00013029296,0.0
80013349,8.849106e-05,-3.6261304e-06,-0.00013173003,0.0
80033289,6.9408e-05,5.3083063e-06,-0.00013111187,0.0
80053453,7.576079e-05,7.0463984e-06,-0.00013156641,0.0
80073379,7.4565796e-05,1.392293e-06,-0.00013126056,0.0
80093252,7.951128e-05,-8.061635e-06,-0.00013171676,0.0
80113270,7.603401e-05,-2.819748e-06,-0.00013240764,0.0
80133153,6.015655e-05,1.4143998e-06,-0.00013117306,0.0
80153298,7.098627e-05,8.001525e-06,-0.00013402766,0.0
80173276,7.571493e-05,-1.5751211e-06,-0.00013645673,0.0
80193239,7.874068e-05,-1.7675914e-06,-0.000138214,0.0
80213473,6.6171735e-05,-2.982804e-06,-0.00013546889,0.0
80233240,6.227468e-05,-1.9282443e-06,-0.00013064289,0.0
80253205,6.883046e-05,-1.9829756e-06,-0.00012816286,0.0
80273256,7.222048e-05,2.1430137e-06,-0.00012683823,0.0
80293274,8.111502e-05,5.8538176e-06,-0.00012929138,0.0
80313250,8.686256e-05,-5.19825e-07,-0.0001340446,0.0
80333197,7.491558e-05,-6.6650477e-06,-0.00013593626,0.0
80353208,6.972878e-05,-3.7502775e-07,-0.00014062469,0.0
80373289,6.709093e-05,5.52036e-06,-0.00013936432,0.0
80393286,6.5675056e-05,1.21460025e-05,-0.0001365315,0.0
80413190,6.540398e-05,1.40846e-05,-0.0001332594,0.0
80433203,5.214744e-05,1.0179576e-05,-0.00012692332,0.0
80453222,4.4628832e-05,6.551481e-06,-0.00012614513,0.0
80473237,4.148823e-05,4.3045993e-06,-0.000122726,0.0
80493217,4.8843092e-05,6.169004e-06,-0.00012336245,0.0
80513379,4.9527804e-05,7.992398e-06,-0.00012836086,0.0
80533225,4.7644175e-05,9.081503e-06,-0.0001303876,0.0
80553275,6.528824e-05,3.7881473e-06,-0.00013453553,0.0
80573182,8.3158346e-05,-2.3275327e-06,-0.00013941525,0.0
80593192,8.831384e-05,-2.1687881e-06,-0.00013948539,0.0
80613192,8.64671e-05,1.5964828e-06,-0.00013981224,0.0
80633296,7.88052e-05,-6.7672505e-07,-0.00013754796,0.0
80653248,8.436487e-05,2.4093645e-06,-0.00013105923,0.0
80673239,7.765732e-05,1.6473858e-05,-0.00012781013,0.0
80693269,8.5816304e-05,3.3506913e-06,-0.00013080418,0.0
80713295,9.1579815e-05,-3.8684016e-06,-0.00013752063,0.0
80733309,8.6255495e-05,-9.958515e-07,-0.00013996864,0.0
80753368,8.720906e-05,2.1620633e-06,-0.00014109247,0.0
80773310,8.7549066e-05,1.0335646e-05,-0.000137083,0.0
80793411,8.651583e-05,2.5557256e-06,-0.00013464398,0.0
80813350,8.874866e-05,-1.3842986e-06,-0.0001346683,0.0
80833288,8.728914e-05,-4.230712e-06,-0.00013417855,0.0
80853313,8.085227e-05,4.992138e-06,-0.00012745094,0.0
80873175,9.441341e-05,-6.9813477e-06,-0.00012868915,0.0
80893425,8.754917e-05,-3.9748497e-06,-0.0001279009,0.0
80913359,9.6109885e-05,5.263213e-06,-0.00012934678,0.0
80933322,9.9978715e-05,4.7314948e-06,-0.000129434,0.0
80953396,9.207587e-05,2.2635566e-06,-0.0001311426,0.0
80973277,8.042542e-05,1.7573202e-06,-0.00012906374,0.0
80993309,8.744423e-05,-1.3916175e-06,-0.00012510014,0.0
81013248,9.959808e-05,-6.804946e-06,-0.00012848891,0.0
81033359,7.961081e-05,-1.086708e-06,-0.00013072278,0.0
81053327,7.7054436e-05,1.1052941e-05,-0.0001320928,0.0
81073232,9.704697e-05,-1.001808e-05,-0.00013828363,0.0
81093258,6.989147e-05,-6.522097e-06,-0.0001336274,0.0
81113287,6.0169736e-05,4.933849e-06,-0.00012820128,0.0
81133243,8.495665e-05,-8.136073e-06,-0.00012620118,0.0
81153235,8.3548e-05,2.5048068e-06,-0.00012469519,0.0
81173214,7.1355185e-05,4.0593727e-06,-0.00011852174,0.0
81193217,6.596404e-05,-7.530599e-06,-0.0001214555,0.0
81213247,7.151767e-05,5.07076e-06,-0.0001294218,0.0
81233199,7.691877e-05,5.3525578e-06,-0.00012903266,0.0
81253240,8.2078914e-05,-5.0308286e-06,-0.00012779188,0.0
81273214,8.526795e-05,-2.1065323e-06,-0.00012939986,0.0
81293221,8.648429e-05,1.4186654e-05,-0.00013081508,0.0
81313236,6.773551e-05,-1.9743693e-07,-0.00012688668,0.0
81333241,7.879808e-05,-2.8995642e-06,-0.00013755231,0.0
81353221,7.783398e-05,1.2732632e-05,-0.00013898888,0.0
81373224,9.228306e-05,7.0986716e-06,-0.00013457886,0.0
81393219,8.722556e-05,-5.481361e-06,-0.00013230208,0.0
81413225,7.551264e-05,1.4758462e-05,-0.00013227988,0.0
81433194,8.2185696e-05,3.4685636e-06,-0.00012845414,0.0
81453342,0.00010159367,-1.60551e-05,-0.0001336322,0.0
81473373,9.0410926e-05,1.0866275e-05,-0.0001365256,0.0
81493373,8.9625384e-05,1.5386715e-05,-0.0001381537,0.0
81513375,0.00010929264,-8.369035e-06,-0.0001491509,0.0
81533410,0.000106136016,2.5684521e-05,-0.0001500405,0.0
81553406,8.673476e-05,2.1325199e-05,-0.0001419134,0.0
81573177,8.904887e-05,-6.683862e-06,-0.00014202237,0.0
81593340,0.00012446487,2.1600672e-05,-0.00014336233,0.0
81613345,7.886599e-05,8.065564e-06,-0.00012930646,0.0
81633342,7.372691e-05,1.5784339e-06,-0.00013086018,0.0
81653277,0.000112278925,-5.8855685e-06,-0.00013417979,0.0
81673299,5.8872352e-05,-1.5272297e-05,-0.00011664809,0.0
81693413,7.837396e-05,-1.2296872e-05,-0.000119256045,0.0
81713188,9.363513e-05,-6.42676e-06,-0.000119966855,0.0
81733312,4.9741688e-05,1.0932167e-05,-0.000116424686,0.0
81753208,7.718952e-05,-1.1502779e-05,-0.00012843122,0.0
81773226,8.060965e-05,1.1315786e-05,-0.00013767202,0.0
81793221,6.410003e-05,1.402575e-05,-0.00013541502,0.0
81813229,6.744148e-05,-1.332368e-05,-0.00013836018,0.0
81833207,6.604446e-05,1.45563745e-05,-0.00013711474,0.0
81853165,8.248703e-05,6.656235e-06,-0.00012879477,0.0
81873174,6.778727e-05,-7.7737295e-06,-0.00012089934,0.0
81893149,6.1864615e-05,2.2791137e-05,-0.00011209088,0.0
81913157,7.214868e-05,-7.1993427e-06,-0.00011592468,0.0
81933270,7.1123024e-05,9.03439e-06,-0.000120727906,0.0
81953274,8.196562e-05,2.1108076e-06,-0.00012935282,0.0
81973232,4.7523285e-05,-1.7133874e-05,-0.00013482962,0.0
83233248,9.7443975e-05,-7.174483e-06,-0.00016850918,0.0
84133221,0.00015884066,-1.3902162e-05,-0.00012828373,0.0
84153221,0.00010222553,-9.151977e-07,-0.00011685875,0.0
84173242,8.870698e-05,-1.4744609e-06,-0.00011682937,0.0
84193296,0.00012539171,1.2361056e-05,-0.00013146018,0.0
84213206,8.334344e-05,1.40725215e-05,-0.00012667934,0.0
84233221,0.00014185699,-7.6144204e-07,-0.00014029953,0.0
84253239,0.000114455026,-4.1427993e-06,-0.00013430753,0.0
84273251,8.741915e-05,1.6956672e-05,-0.00013399415,0.0
84293296,8.544626e-05,8.3806635e-06,-0.00013281513,0.0
84313294,0.00012700255,2.079016e-06,-0.00014020252,0.0
84333376,0.00011499304,-6.194509e-06,-0.00013376097,0.0
84353304,0.00011164943,9.1806254e-07,-0.00012583775,0.0
84373283,9.1293805e-05,5.9346035e-06,-0.00012398076,0.0
84393327,9.8088e-05,-2.718766e-06,-0.000118911594,0.0
84413372,0.00011954875,-1.301193e-05,-0.00013025488,0.0
84433398,9.402105e-05,1.6736381e-05,-0.00012205285,0.0
84453320,3.2654585e-05,7.984962e-06,-0.000118555785,0.0
84473435,8.0665515e-05,-4.590623e-06,-0.00012534064,0.0
84493218,0.0001380635,-7.750879e-06,-0.00014040145,0.0
84513300,3.4649143e-05,-1.3345766e-06,-0.00012478924,0.0
84533163,5.596949e-06,7.393596e-06,-0.00012874111,0.0
84553176,2.507625e-06,-1.2195824e-05,-0.00012058206,0.0
84573293,2.5205707e-05,-3.6215818e-06,-0.000121302925,0.0
84593247,-1.1996278e-05,2.7846527e-06,-0.000115335475,0.0
84613305,-3.616862e-05,3.3028396e-06,-0.000112470196,0.0
84633250,-2.1398382e-05,-3.4093239e-06,-0.0001231371,0.0
84653282,6.321057e-05,2.1521253e-06,-0.00012203446,0.0
84673229,9.2147726e-05,8.295857e-06,-0.00012410914,0.0
84693213,3.3644064e-05,3.3310982e-05,-0.000113598995,0.0
84713208,6.9156165e-05,-1.4397657e-05,-0.00011388676,0.0
84733221,9.641772e-05,5.1532872e-05,-0.00012159342,0.0
84753226,6.4338776e-05,-2.159391e-05,-0.000115313735,0.0
84773206,6.5896544e-05,3.9094368e-05,-0.0001259671,0.0
84793167,0.00010228306,-7.692126e-07,-0.00013413362,0.0
84813174,8.009934e-05,-3.7754003e-06,-0.00013851338,0.0
84833165,5.772512e-05,2.308198e-06,-0.00012909385,0.0
84853253,0.000120350625,9.483919e-06,-0.00013886581,0.0
84873287,9.276004e-05,-1.2455736e-06,-0.00012851824,0.0
84893301,7.2547664e-05,-2.338593e-06,-0.00011798854,0.0
84913256,0.00010703779,1.1340615e-05,-0.00011842593,0.0
84933240,0.00010821086,-7.920401e-06,-0.00011982442,0.0
84953237,9.0462985e-05,-1.5269364e-06,-0.00011901221,0.0
84973212,2.9563555e-05,-9.10652e-06,-0.0001156541,0.0
84993224,0.00014463432,1.1277002e-05,-0.0001308056,0.0
85013234,0.00013461946,-8.662533e-06,-0.0001329875,0.0
85033389,-7.47613e-05,-1.1052192e-05,-9.58965e-05,0.0
85053410,0.000117946765,2.2997301e-05,-0.00012670048,0.0
85073446,0.00019867707,-2.3685207e-05,-0.00013518824,0.0
85093442,-3.488354e-05,2.0143407e-05,-0.000102097205,0.0
85113355,8.49288e-05,-2.0458136e-05,-0.0001273449,0.0
85133321,0.00011178286,3.377652e-05,-0.0001418737,0.0
85153284,3.3367094e-05,-1.5987502e-05,-0.00012655773,0.0
85173346,0.000107950276,1.4577286e-05,-0.00014578801,0.0
85193166,5.35807e-05,6.233245e-06,-0.00013316178,0.0
85213397,4.529243e-05,1.8655782e-06,-0.000121299,0.0
85233118,9.390851e-05,-8.16154e-06,-0.00011397456,0.0
85253302,5.973142e-05,-2.3292168e-06,-0.00011066143,0.0
85273305,2.0561381e-05,1.0396615e-05,-0.00010832624,0.0
85293311,6.185783e-05,1.2611525e-06,-0.00012372539,0.0
85313418,4.7595764e-05,-6.05258e-06,-0.00012931394,0.0
85333238,4.3131553e-05,6.520471e-06,-0.00013396482,0.0
85353278,4.849037e-05,5.6797776e-06,-0.0001345052,0.0
85373219,7.1086506e-05,-2.174633e-05,-0.0001339768,0.0
85393214,6.176171e-06,1.2703441e-05,-0.00011980502,0.0
85413219,5.736034e-05,-7.2201424e-06,-0.00011854756,0.0
85433272,0.00010670645,2.2660979e-05,-0.00012424895,0.0
85453230,4.634212e-05,-1.4388118e-05,-0.000113337686,0.0
85473240,5.5666438e-05,-8.0415675e-06,-0.000113703274,0.0
85493236,8.006238e-05,-1.3339559e-06,-0.00012352316,0.0
85513355,0.00011509216,1.14918685e-05,-0.00014044406,0.0
85533325,4.416452e-05,-2.3594323e-06,-0.0001326372,0.0
85553322,4.990151e-05,-7.733154e-06,-0.00013178079,0.0
85573345,0.00017629516,8.775699e-07,-0.00014021824,0.0
85593311,8.142829e-05,2.5030592e-06,-0.00012079822,0.0
85613249,3.9691568e-05,2.4071303e-06,-0.00011218298,0.0
85633222,9.7950564e-05,2.4062895e-06,-0.00012509433,0.0
85653254,0.00015342294,-1.1621686e-05,-0.00013892607,0.0
85673339,0.00010438967,1.1296396e-05,-0.00013083694,0.0
85693341,8.2108825e-05,8.498685e-06,-0.00013078381,0.0
85713312,8.7904096e-05,-1.5433628e-06,-0.00013238272,0.0
85733378,0.00014202866,1.08800405e-05,-0.00013955943,0.0
85753356,0.00013991944,-7.658023e-06,-0.00014267482,0.0
85773302,8.15821e-06,1.8014434e-05,-0.00012172853,0.0
85793400,0.000118308606,-1.730924e-05,-0.00013711209,0.0
85813328,0.00013439164,6.8981185e-06,-0.00013494193,0.0
85833365,5.5408193e-05,-1.0131661e-05,-0.00011905195,0.0
85853423,9.6951575e-05,5.3747676e-06,-0.0001223687,0.0
85873440,7.400376e-05,1.1450162e-05,-0.00012561229,0.0
85893387,7.151253e-05,-1.2824897e-06,-0.00013284571,0.0
85913425,7.2333954e-05,-1.0959503e-05,-0.00014200721,0.0
85933347,6.5657536e-05,1.9899011e-05,-0.00013610427,0.0
85953396,0.00010584984,-1.9795414e-05,-0.000143988,0.0
85973414,-1.0172163e-05,5.8477713e-06,-0.00011990064,0.0
85993431,0.00012534861,4.299385e-06,-0.00014153623,0.0
86013469,6.262221e-05,-1.252707e-06,-0.00012848816,0.0
86033199,5.98062e-06,2.2689312e-05,-0.00011554226,0.0
86053182,0.00011457828,-2.0100977e-05,-0.00013443382,0.0
86073160,2.979996e-05,7.873037e-06,-0.00011674967,0.0
86093200,6.8390174e-05,-1.6611978e-06,-0.00012540798,0.0
86113235,8.213151e-05,2.8950913e-07,-0.00012637312,0.0
86133238,6.4342596e-05,8.517003e-06,-0.00012411164,0.0
86153280,3.2194723e-05,-3.361745e-06,-0.00012514934,0.0
86173258,8.224886e-05,2.243551e-06,-0.000131573,0.0
86193241,0.000107076245,-4.898856e-06,-0.00014020628,0.0
86213221,-5.035364e-06,4.0400396e-06,-0.00012019389,0.0
86233253,7.086932e-05,1.3450185e-05,-0.00013120302,0.0
86253276,0.00011327379,-2.3201628e-05,-0.00012492527,0.0
86273291,6.8081754e-05,1.7363893e-05,-0.000114862574,0.0
86293224,7.9069025e-05,7.675337e-06,-0.00011784843,0.0
86313235,5.890295e-05,4.3440314e-06,-0.0001229416,0.0
86333232,5.573178e-05,-7.944835e-06,-0.00013122808,0.0
86353311,9.940325e-05,-1.0944445e-05,-0.0001335439,0.0
86373228,0.00016983617,-1.01616315e-05,-0.0001413481,0.0
86393200,1.6405005e-05,1.4560137e-05,-0.00011750435,0.0
86413211,4.324573e-05,-1.35839755e-05,-0.00012731191,0.0
86433270,6.0250215e-05,1.0970761e-05,-0.00013085725,0.0
86453327,0.00018405162,-2.6034946e-05,-0.00014165723,0.0
86473285,8.8211695e-05,1.4422616e-05,-0.00012637266,0.0
86493205,-6.889402e-05,6.0084385e-06,-0.00010303743,0.0
86513330,0.00016767858,-1.5437041e-05,-0.00014365667,0.0
86533400,0.000100308054,1.2016447e-06,-0.00013791077,0.0
86553354,2.214978e-05,7.630019e-06,-0.00012536571,0.0
86573343,0.000108502514,7.685428e-06,-0.00013341906,0.0
86593413,8.656762e-05,-1.6807795e-05,-0.00012865526,0.0
86613420,4.8199483e-05,-1.3636463e-05,-0.00012386576,0.0
86633341,6.884068e-05,1.6388822e-05,-0.00012304328,0.0
86653407,0.00013030651,2.0867174e-06,-0.000129272,0.0
86673222,2.6098109e-05,8.662879e-06,-0.000105595405,0.0
86693305,0.00011072932,-9.850257e-07,-0.00011754044,0.0
86713209,0.000103582686,-1.0839562e-05,-0.00011091471,0.0
86733256,4.9016973e-05,2.2289637e-06,-0.00010024875,0.0
86753325,0.00010799071,-3.961616e-06,-0.000113537586,0.0
86773360,6.94292e-05,9.449971e-07,-0.00010567599,0.0
86793302,0.00012138392,-9.063358e-06,-0.00011492078,0.0
86813272,0.00012461805,1.4319437e-05,-0.00012051368,0.0
86833217,9.797296e-05,3.4369602e-06,-0.00012843571,0.0
86853213,8.0671154e-05,5.8687678e-05,-0.0001453935,0.0
86873171,8.861297e-05,2.9714889e-05,-0.00015645442,0.0
86893155,0.000112041416,0.00010037253,-0.00016810329,0.0
86913162,2.7515614e-05,6.8195535e-05,-0.00014480366,0.0
86933286,8.8540364e-05,5.3587824e-05,-0.0001281237,0.0
86953241,0.00018706894,0.00010891848,-0.0001268254,0.0
86973247,1.5814743e-05,0.00014781462,-6.8195804e-05,0.0
86993273,-1.3944445e-05,0.00031674534,-6.4930114e-06,0.0
87013216,0.00013978158,0.0002851284,4.466889e-05,0.0
87033237,0.00012919954,0.00036629845,0.00012724928,0.0
87053335,5.947682e-05,0.00040267734,0.00019223968,0.0
87073267,0.00012494095,0.00026668422,0.00020271032,0.0
87093368,-8.000043e-05,3.799322e-05,0.00022600121,0.0
87113281,0.00013273423,-9.201589e-05,0.00015516373,0.0
87133321,0.00035043922,-0.0003834479,6.156045e-05,0.0
87153304,-0.00031907266,-0.0004035575,0.00015222745,0.0
87173375,0.00018336423,-0.0004605851,0.00010085929,0.0
87193345,0.00021592891,-0.00044345978,1.8159162e-05,0.0
87213318,-9.265051e-05,-4.9716957e-05,0.00012347811,0.0
87233343,0.0003906129,0.0004136743,-9.044006e-06,0.0
87253400,-0.00010776252,-4.9321436e-05,7.1998475e-05,0.0
87273237,-0.00018035775,0.0003255676,9.126852e-05,0.0
87293247,0.00019315544,0.0005570836,8.051036e-05,0.0
87313268,0.00014524201,-0.00027307705,0.00014267047,0.0
87333176,-0.00020527873,-1.8841383e-05,0.00017773359,0.0
87353379,0.00010585517,-0.00023507082,0.00018834302,0.0
87373255,6.928497e-05,-0.00020054076,0.0001493878,0.0
87393435,1.6899683e-05,-2.223652e-05,0.0002101305,0.0
87413271,0.00019347944,-6.557004e-05,0.00016282672,0.0
87433215,9.851012e-05,0.00039605596,0.00029060242,0.0
87453328,0.00035084377,0.00042378023,0.00018414184,0.0
87473291,7.450666e-05,0.0002042775,0.00021296971,0.0
87493311,-3.1057065e-05,3.0060148e-05,0.00019731947,0.0
87513250,0.00029605356,1.587375e-05,0.0003007202,0.0
87533278,0.00035073032,-0.00045597,0.00016684037,0.0
87553289,0.00027469383,-0.0005260991,0.00020149993,0.0
87573273,-3.4670793e-05,-0.00015988576,0.00022741337,0.0
87593250,-4.0271825e-05,6.179207e-05,0.00015325086,0.0
87613313,-0.0001212179,6.5052736e-05,0.00028738772,0.0
87633258,0.00040940722,-6.571241e-05,-2.7515633e-05,0.0
87653279,-7.2029165e-05,0.0005683534,0.000313472,0.0
87673267,-0.0002852737,-0.00022219462,0.00023469061,0.0
87693353,1.2147364e-05,0.00023748791,8.321676e-05,0.0
87713241,2.3390796e-05,9.620006e-05,0.00011229602,0.0
87733276,-0.00021395595,-0.00029079805,8.908197e-05,0.0
87753250,-0.000223001,0.00023638946,0.00014746418,0.0
87773336,0.00035938606,-0.00034547475,0.00014338171,0.0
87793357,0.0003878091,-0.000114127346,-1.9803107e-05,0.0
87813362,-0.00039423697,-0.00021565205,0.00014913388,0.0
87833367,-0.0002020496,-0.00048101685,0.00017803955,0.0
87853339,0.00016653682,-6.397065e-05,6.395415e-05,0.0
87873355,0.000126223,-0.00033824914,2.8797804e-05,0.0
87893382,-0.0005751264,-9.727201e-06,0.00017865188,0.0
87913387,-0.00016240853,0.000104133156,5.0675775e-05,0.0
87933305,-6.110211e-05,0.00014885628,8.0320766e-05,0.0
87953458,-1.9212976e-05,0.0005473538,7.088266e-05,0.0
87973414,0.00017095714,0.0010194568,0.00030857453,0.0
87993461,0.0007841386,0.002881528,0.0005770378,0.0
88013416,0.0019261437,0.0056634373,0.0006631698,0.0
88033440,0.0042086206,0.008096178,0.00058063713,0.0
88053401,0.0055949716,0.010977596,0.00066570827,0.0
88073341,0.0065390053,0.012281156,0.0009579976,0.0
88093242,0.0076745707,0.013379098,0.0008590254,0.0
88113297,0.007158341,0.012543424,0.0010721644,0.0
88133289,0.007160928,0.010349698,0.001283639,0.0
88153243,0.009167566,0.007679694,0.00048457942,0.0
88173459,0.010280619,0.0042036492,-4.728265e-05,0.0
88193496,0.009632611,0.0016302157,-0.00034581806,0.0
88213452,0.011056681,-0.0006169053,-0.0010757329,0.0
88233531,0.011795545,-0.0021520176,-0.0017079368,0.0
88253317,0.011982997,-0.0025766818,-0.0023302615,0.0
88273314,0.011527438,-0.0029323266,-0.0028363168,0.0
88293274,0.011056444,-0.0018940768,-0.003466246,0.0
88313282,0.011629953,-0.0009830018,-0.0042260634,0.0
88333278,0.011625767,0.0010364939,-0.004895766,0.0
88353287,0.010827909,0.002979042,-0.0054578274,0.0
88373310,0.009653133,0.005722501,-0.0060252626,0.0
88393279,0.009876314,0.008286176,-0.0068157087,0.0
88413300,0.009326239,0.011334522,-0.0074751195,0.0
88433315,0.008726908,0.014372911,-0.008162559,0.0
88453276,0.007430048,0.017603545,-0.008698039,0.0
88473295,0.007178549,0.020908656,-0.009463198,0.0
88493257,0.0069245435,0.024109045,-0.010123291,0.0
88513305,0.0070192832,0.027608214,-0.010853793,0.0
88533326,0.007829012,0.030049868,-0.011692587,0.0
88553337,0.007160203,0.031002091,-0.012110752,0.0
88573285,0.0068701766,0.030994749,-0.013185835,0.0
88593416,0.0079406565,0.028776728,-0.014492621,0.0
88613421,0.007429746,0.025802735,-0.015933476,0.0
88633450,0.0067860214,0.02248299,-0.017260974,0.0
88653379,0.0070448373,0.018884402,-0.019003706,0.0
88673442,0.0072953207,0.016589742,-0.020729642,0.0
88693536,0.0057693208,0.014725775,-0.022038495,0.0
88713591,0.0053992607,0.013579959,-0.023677155,0.0
88733470,0.0061009484,0.013776281,-0.02543643,0.0
88753487,0.006138432,0.0142805595,-0.027338656,0.0
88773334,0.0066200993,0.015620964,-0.029037729,0.0
88793360,0.006174717,0.0170589,-0.03074927,0.0
88813277,0.005763402,0.018560128,-0.032608155,0.0
88833308,0.0063056946,0.020351656,-0.034445085,0.0
88853311,0.008172933,0.021864086,-0.036473658,0.0
88873442,0.00852963,0.023217058,-0.03848357,0.0
88893220,0.008187073,0.023750842,-0.04038674,0.0
88913293,0.00744463,0.024421098,-0.04231607,0.0
88933249,0.0085678985,0.02477013,-0.044800844,0.0
88953310,0.007394602,0.025152957,-0.047168884,0.0
88973273,0.0048474614,0.025840083,-0.04909023,0.0
88993239,0.004787592,0.026426835,-0.05140964,0.0
89013220,0.0055163717,0.027714701,-0.053925343,0.0
89033314,0.006389348,0.028804842,-0.05641381,0.0
89053290,0.0052230996,0.030147668,-0.058478996,0.0
89073330,0.0028047962,0.03171778,-0.060562734,0.0
89093374,0.0012890887,0.033572506,-0.06273199,0.0
89113318,0.00053334614,0.035864502,-0.0650048,0.0
89133283,-0.00045702243,0.038185917,-0.06703823,0.0
89153311,-0.0014089873,0.040708046,-0.06908788,0.0
89173312,-0.0029190918,0.043712363,-0.071031384,0.0
89193287,-0.0041401004,0.046271533,-0.072978936,0.0
89213273,-0.0052405554,0.049165312,-0.07481205,0.0
89233328,-0.0056904703,0.051741127,-0.07663108,0.0
89253306,-0.0062346263,0.054345716,-0.07835249,0.0
89273319,-0.0066628153,0.05679714,-0.080093086,0.0
89293479,-0.0074382974,0.059107076,-0.0817247,0.0
89313441,-0.007994309,0.06099721,-0.08331139,0.0
89333320,-0.008417056,0.06252366,-0.08483649,0.0
89353409,-0.008727408,0.06364031,-0.08630432,0.0
89373505,-0.009274318,0.06455117,-0.08767206,0.0
89393455,-0.009951896,0.06492057,-0.08889971,0.0
89413307,-0.01058309,0.064985625,-0.0900844,0.0
89433418,-0.01118843,0.06506602,-0.09118289,0.0
89453504,-0.011773568,0.064926304,-0.09219904,0.0
89473412,-0.01246097,0.064789854,-0.09307881,0.0
89493441,-0.013124492,0.06464001,-0.09385301,0.0
89513517,-0.013660407,0.06436471,-0.09453552,0.0
89533462,-0.013997229,0.06412075,-0.095124945,0.0
89553396,-0.01445476,0.06391655,-0.095552035,0.0
89573319,-0.01477487,0.06356275,-0.09587798,0.0
89593376,-0.01489155,0.06313896,-0.0961687,0.0
89613331,-0.015013114,0.06272137,-0.09636859,0.0
89633295,-0.015303498,0.06222286,-0.096406564,0.0
89653330,-0.01560819,0.061922073,-0.09640808,0.0
89673499,-0.015631733,0.06160792,-0.09632698,0.0
89693425,-0.015426844,0.06146494,-0.09620356,0.0
89713446,-0.015360412,0.06139875,-0.09596959,0.0
89733425,-0.015252918,0.061432753,-0.095690474,0.0
89753367,-0.014909853,0.06150185,-0.09540138,0.0
89773355,-0.014572941,0.061663225,-0.09505638,0.0
89793185,-0.0142883705,0.061899193,-0.09474451,0.0
89813228,-0.014334554,0.062379047,-0.09434243,0.0
89833219,-0.014136925,0.06293933,-0.09399013,0.0
89853241,-0.013877495,0.06367745,-0.093635626,0.0
89873397,-0.013468305,0.06453792,-0.0932918,0.0
89893378,-0.013166426,0.06549114,-0.09287997,0.0
89913364,-0.012618711,0.06643792,-0.092522845,0.0
89933400,-0.011856506,0.06748397,-0.09212375,0.0
89953361,-0.010773444,0.06846459,-0.09173369,0.0
89973360,-0.009892255,0.069518626,-0.09125969,0.0
89993365,-0.008717133,0.0704559,-0.09084294,0.0
90013389,-0.007709499,0.071608,-0.090323105,0.0
90033362,-0.0063118897,0.07250289,-0.089861475,0.0
90053381,-0.0055379933,0.073784314,-0.089258134,0.0
90073443,-0.0042726607,0.074701235,-0.08871864,0.0
90093403,-0.00347499,0.07601833,-0.08808424,0.0
90113495,-0.0021835258,0.07701141,-0.08754239,0.0
90133482,-0.0012447608,0.07820039,-0.086939886,0.0
90153287,-0.00059978233,0.07931559,-0.08627051,0.0
90173480,0.00027288255,0.08011641,-0.085629605,0.0
90193429,0.0008718082,0.08127722,-0.084955625,0.0
90213503,0.0015586271,0.08191661,-0.0842457,0.0
90233244,0.0021277915,0.082773805,-0.08352617,0.0
90253505,0.0026776227,0.083398186,-0.08274691,0.0
90273516,0.0036543284,0.08397454,-0.08199159,0.0
90293468,0.0049769683,0.08462897,-0.08127879,0.0
90313520,0.006068194,0.08521178,-0.080490455,0.0
90333477,0.007339965,0.08568388,-0.07972762,0.0
90353333,0.008935166,0.0863462,-0.07900702,0.0
90373312,0.010526997,0.08689188,-0.07824054,0.0
90393299,0.012273153,0.08752652,-0.07749179,0.0
90413254,0.014135172,0.08826134,-0.076718576,0.0
90433326,0.015860502,0.088889346,-0.07597439,0.0
90453367,0.017552765,0.08968043,-0.075250395,0.0
90473312,0.01951808,0.09036832,-0.074540764,0.0
90513302,0.023599468,0.09192468,-0.07310936,0.0
90533254,0.025515333,0.09263231,-0.072379105,0.0
90553288,0.027677722,0.093314,-0.07167222,0.0
90573310,0.029992385,0.09399717,-0.07099302,0.0
90593306,0.032054286,0.09464854,-0.070286594,0.0
90613292,0.033648483,0.09534577,-0.06954607,0.0
90633253,0.034970954,0.0960241,-0.06882844,0.0
90653304,0.036316857,0.09670291,-0.068135954,0.0
90673306,0.037681922,0.09738463,-0.0674697,0.0
90693373,0.03886759,0.09813014,-0.066759154,0.0
90713410,0.039939854,0.098850265,-0.06603507,0.0
90733558,0.041119907,0.09957021,-0.06536478,0.0
90753582,0.04226488,0.10035196,-0.06467487,0.0
90773426,0.04333062,0.10106367,-0.06397616,0.0
90793542,0.044280067,0.10182025,-0.06325086,0.0
90813422,0.045377333,0.10253064,-0.06254356,0.0
90833442,0.046883427,0.103294685,-0.06190626,0.0
90853415,0.048679493,0.10395808,-0.061270066,0.0
90873424,0.05073723,0.10457006,-0.060643103,0.0
90893547,0.05298705,0.10517432,-0.06001739,0.0
90913365,0.055395354,0.10568411,-0.059402104,0.0
90933379,0.057821058,0.10620888,-0.058857463,0.0
90953423,0.06015261,0.10670806,-0.058306318,0.0
90973464,0.06246931,0.10718234,-0.057752945,0.0
90993241,0.06475636,0.107690364,-0.057213817,0.0
91013430,0.06694776,0.10822369,-0.05666768,0.0
91033279,0.06890892,0.108778015,-0.056166787,0.0
91053272,0.07068248,0.10932718,-0.055646244,0.0
91073212,0.07239182,0.109832816,-0.05515027,0.0
91093252,0.07392774,0.110400654,-0.05463096,0.0
91113325,0.075291924,0.11094413,-0.054100033,0.0
91133350,0.07652778,0.11151071,-0.053573776,0.0
91153398,0.07754918,0.112060875,-0.053025153,0.0
91173390,0.078403026,0.11268875,-0.052493606,0.0
91193278,0.0791125,0.11331879,-0.051946398,0.0
91213392,0.07984037,0.113950476,-0.051402055,0.0
91233319,0.0806427,0.11460339,-0.05086166,0.0
91253259,0.081456386,0.11526407,-0.050286554,0.0
91293321,0.08323203,0.11662547,-0.04912836,0.0
91313294,0.08432947,0.11731161,-0.048524402,0.0
91333369,0.08554173,0.11786981,-0.047888927,0.0
91353331,0.08666096,0.118386164,-0.047226835,0.0
91373301,0.087530985,0.11888424,-0.046537697,0.0
91393331,0.08803587,0.11930469,-0.04579592,0.0
91413351,0.088509135,0.11976729,-0.045062102,0.0
91433333,0.08911085,0.12007567,-0.044372257,0.0
91453447,0.08986309,0.120416544,-0.043732636,0.0
91473509,0.090518825,0.12070797,-0.043088462,0.0
91493512,0.09108893,0.12093863,-0.04247124,0.0
91513413,0.09166026,0.121183276,-0.041865,0.0
91533438,0.09222216,0.12139995,-0.041283768,0.0
91553375,0.09282111,0.121528395,-0.04073423,0.0
91573464,0.09329935,0.121629566,-0.040162362,0.0
91593361,0.09391801,0.12175495,-0.03961405,0.0
91613485,0.09463528,0.12178307,-0.03904327,0.0
91633517,0.09559204,0.121843666,-0.038525958,0.0
91653219,0.0964915,0.12185813,-0.03796435,0.0
91673451,0.09745854,0.1218718,-0.037418038,0.0
91693434,0.09843401,0.12195597,-0.036833473,0.0
91713445,0.09950254,0.12196539,-0.03627238,0.0
91733414,0.10031174,0.12199265,-0.035727963,0.0
91753353,0.1008319,0.12198212,-0.03514867,0.0
91773451,0.10132459,0.122013055,-0.034564033,0.0
91793237,0.101880185,0.1219918,-0.033969723,0.0
91813331,0.10253733,0.12201127,-0.033370007,0.0
91833240,0.103174575,0.12201025,-0.032766268,0.0
91853220,0.10391437,0.12207058,-0.032195754,0.0
91873342,0.10462805,0.12208794,-0.031599876,0.0
91893382,0.10543188,0.12214959,-0.031039111,0.0
91913202,0.10613464,0.12222092,-0.030434294,0.0
91933212,0.10698325,0.12232414,-0.02989221,0.0
91953187,0.10777525,0.122456625,-0.029324124,0.0
91973200,0.10866688,0.12258131,-0.028783375,0.0
91993384,0.10949027,0.12271441,-0.028209766,0.0
92013294,0.11036168,0.12283868,-0.027667176,0.0
92033252,0.11110271,0.1229931,-0.027131816,0.0
92053444,0.111811675,0.123172775,-0.026611004,0.0
92073187,0.1125817,0.12336344,-0.02610582,0.0
92093243,0.11338815,0.12354255,-0.025624782,0.0
92113215,0.11416718,0.12377864,-0.025166366,0.0
92133251,0.11477303,0.12397365,-0.024722822,0.0
92153235,0.11542593,0.1241565,-0.024313355,0.0
92173244,0.11617749,0.12433888,-0.023937337,0.0
92193316,0.11707666,0.12450863,-0.02360019,0.0
92213429,0.11770783,0.1246886,-0.023241986,0.0
92233319,0.118234515,0.12487789,-0.022905182,0.0
92253252,0.11883049,0.12501067,-0.022589365,0.0
92273346,0.11965368,0.12520342,-0.022322854,0.0
92293276,0.12038688,0.12538962,-0.022065887,0.0
92313343,0.12103554,0.12560016,-0.021820685,0.0
92333155,0.12161452,0.12579924,-0.021598844,0.0
92353227,0.12229571,0.12599657,-0.021412652,0.0
92373232,0.12296354,0.12624991,-0.0212655,0.0
92393190,0.123546034,0.12650214,-0.021133352,0.0
92413315,0.124033354,0.12675472,-0.021031648,0.0
92433204,0.12451833,0.12700418,-0.020945583,0.0
92453399,0.12522754,0.12727405,-0.020933615,0.0
92473241,0.12589267,0.12750623,-0.020918142,0.0
92493280,0.12666172,0.12780721,-0.02095139,0.0
92513228,0.12740639,0.12799968,-0.020968018,0.0
92533163,0.12837987,0.12828358,-0.021068048,0.0
92553206,0.12910096,0.12847565,-0.021137686,0.0
92573229,0.12983304,0.12877357,-0.021239055,0.0
92593267,0.1303473,0.12899567,-0.021295559,0.0
92613281,0.13113184,0.12926438,-0.021408364,0.0
92633289,0.13202222,0.12949792,-0.021537814,0.0
92653303,0.13288784,0.1297282,-0.021674568,0.0
92673162,0.13343659,0.12999503,-0.021787463,0.0
92693217,0.13388985,0.1302456,-0.021881834,0.0
92713221,0.13459091,0.13052014,-0.022017581,0.0
92733196,0.13525695,0.1307037,-0.022130234,0.0
92753221,0.13595012,0.13100317,-0.022266533,0.0
92773197,0.13649186,0.13117571,-0.022372495,0.0
92793224,0.13731655,0.13142094,-0.022532722,0.0
92813193,0.13820943,0.13156953,-0.02268383,0.0
92833257,0.13905369,0.13174303,-0.022810996,0.0
92853282,0.139717,0.13188586,-0.022891987,0.0
92873341,0.14011073,0.13187855,-0.022914056,0.0
92893309,0.1404002,0.13194665,-0.0229243,0.0
92913367,0.14037958,0.13179867,-0.022866629,0.0
92933405,0.14019497,0.13173245,-0.02279066,0.0
92953338,0.1398082,0.1314832,-0.022663519,0.0
92973345,0.13924895,0.13117465,-0.022495665,0.0
92993264,0.13859217,0.13088384,-0.022300258,0.0
93013357,0.1378455,0.1304776,-0.022042487,0.0
93033293,0.13725725,0.1301935,-0.021769399,0.0
93053365,0.1367844,0.1297816,-0.021453854,0.0
93073316,0.13666521,0.12943466,-0.021154124,0.0
93093233,0.13675955,0.12911697,-0.020866709,0.0
93113281,0.13675235,0.12872115,-0.020543288,0.0
93133238,0.1368054,0.1284624,-0.020229494,0.0
93153284,0.13690667,0.12813887,-0.019897899,0.0
93173169,0.13724726,0.1278872,-0.019590482,0.0
93193279,0.13769457,0.12767057,-0.019287305,0.0
93213175,0.13809666,0.12741953,-0.018978462,0.0
93233384,0.13852113,0.12727132,-0.01870023,0.0
93253251,0.13886921,0.12708043,-0.018416217,0.0
93273215,0.13928767,0.12702097,-0.018153232,0.0
93293370,0.13969873,0.12691744,-0.01789242,0.0
93313302,0.14003469,0.12681656,-0.017630447,0.0
93333340,0.14044039,0.12680508,-0.017412508,0.0
93353267,0.14074126,0.12673461,-0.017196104,0.0
93373234,0.14111006,0.12674816,-0.017007185,0.0
93393166,0.14158912,0.12673701,-0.016860504,0.0
93413191,0.14214894,0.12675084,-0.0167519,0.0
93433210,0.14277287,0.12685522,-0.01669104,0.0
93453232,0.14335977,0.12690641,-0.016647317,0.0
93473240,0.14412202,0.12708174,-0.016668996,0.0
93493286,0.1450809,0.12729485,-0.016754612,0.0
93513203,0.14588082,0.12750769,-0.01685461,0.0
