timestamp,gyro_rad[0],gyro_rad[1],gyro_rad[2],gyro_integral_dt,accelerometer_timestamp_relative,accelerometer_m_s2[0],accelerometer_m_s2[1],accelerometer_m_s2[2],accelerometer_integral_dt,accelerometer_clipping
68227353,-0.00396128,-0.0015307977,-0.0011852719,4999,0,0.054081198,0.12396146,-9.83197,4999,0
68282350,-0.0037234703,0.00035181173,8.7602144e-05,5000,0,0.09335911,0.13725045,-9.84639,5000,0
68287391,-0.0024389073,-0.00012765464,0.0010117647,5041,0,0.062146347,0.13306348,-9.865279,5041,0
68292396,-0.001987778,-0.0008283496,0.00054122356,5005,0,0.07648332,0.1328887,-9.84771,5005,0
68297347,-0.0022862013,-0.0022023132,0.00014006691,4951,0,0.07192934,0.1467681,-9.8303795,4951,0
68302347,-0.0021499419,-0.0012507144,0.0009658981,5000,0,0.07832701,0.12710026,-9.825148,5000,0
68307347,-0.00046511512,0.0005953026,-0.0017248903,5000,0,0.08495081,0.136871,-9.855927,5000,0
68312397,-0.002450103,3.3915063e-07,-0.0014103759,5050,0,0.08124643,0.13000117,-9.831464,5050,0
68317356,-0.0014858736,-0.0007073228,-0.0017473064,4959,0,0.07329861,0.12656268,-9.817979,4959,0
68322347,-0.001158825,-0.0007105675,-0.0014359498,4991,0,0.061742842,0.13920933,-9.855833,4991,0
68327351,0.001124271,-0.00057727605,-0.0020618686,5004,0,0.05688121,0.13431461,-9.847439,5004,0
68332411,0.0011687967,-0.000558085,-0.0022509303,5060,0,0.062279522,0.1380671,-9.827481,5060,0
68337347,-0.0006979897,0.0010998934,0.0003866252,4936,0,0.047349412,0.1567761,-9.808909,4936,0
68342347,0.00032700977,-0.00036009093,-0.0005718379,5000,0,0.055855785,0.15173179,-9.852604,5000,0
68347350,-0.00036290273,0.00051263446,-0.0015438873,5003,0,0.036424197,0.15242797,-9.858719,5003,0
68352396,-0.0011379615,-0.00027707033,-0.0040957155,5046,0,0.06787341,0.13239118,-9.853933,5046,0
68357349,-0.0011588394,0.0006558236,-0.0035881763,4953,0,0.06445497,0.1576311,-9.841013,4953,0
68362356,0.0028064726,-0.00021154524,-0.002271494,5007,0,0.04548074,0.14784026,-9.851084,5007,0
68367347,0.003138769,-0.0027313987,-0.0025150287,4991,0,0.05169686,0.15633287,-9.853792,4991,0
68372375,-0.000106907995,0.00038808628,-0.0016308337,5028,0,0.06679809,0.14623033,-9.833798,5028,0
68377350,0.0021705755,0.00036521672,-0.0013753955,4975,0,0.06366514,0.15278433,-9.839336,4975,0
68382391,0.004846003,0.00016593807,-0.0027023023,5041,0,0.054433867,0.14713088,-9.861026,5041,0
68387347,0.0027415883,-0.0015027517,-0.0024397695,4956,0,0.06440129,0.15033542,-9.834183,4956,0
68392383,0.0035889815,-0.0012700038,-0.0011985329,5036,0,0.06573678,0.12876604,-9.875186,5036,0
68397350,0.0031773946,-0.00061815383,-0.0025748422,4967,0,0.08282312,0.15146647,-9.842493,4967,0
68402347,0.0023295917,0.0001024528,-0.0029617993,4997,0,0.080301374,0.13787358,-9.830482,4997,0
68407347,0.0026164895,-0.00023462191,-0.001428897,5000,0,0.0824835,0.1360464,-9.816626,5000,0
68412353,0.004649957,-0.00075909734,-0.0028599782,5006,0,0.071808666,0.13488433,-9.846697,5006,0
68417360,0.0060324026,-0.00081968255,-0.0011215128,5007,0,0.08028263,0.13615666,-9.853213,5007,0
68422355,0.003031772,0.00093027676,-0.0023457354,4995,0,0.06669721,0.15551771,-9.851098,4995,0
68427349,0.0071146623,0.00062429416,-0.0020891079,4994,0,0.07546418,0.15930885,-9.849192,4994,0
68432359,0.006800673,-0.0011828212,-0.001632955,5010,0,0.06611691,0.1550088,-9.879641,5010,0
68437349,0.006883004,-0.00049598305,-0.00215992,4990,0,0.06253504,0.14657682,-9.875591,4990,0
68442347,0.0046174773,-0.0005302432,0.00047728824,4998,0,0.073282875,0.12747912,-9.845318,4998,0
68447357,0.006094521,-0.0009469636,-0.0030751196,5010,0,0.0664242,0.1361782,-9.825257,5010,0
68452393,0.008743981,0.001299049,-0.0014516995,5036,0,0.059517734,0.1562462,-9.884736,5036,0
68457366,0.005140184,-0.0018614706,-0.0022829936,4973,0,0.04746195,0.15808319,-9.826468,4973,0
68462383,0.005559402,0.00062470784,-0.0043772254,5017,0,0.040885925,0.11148438,-9.831449,5017,0
68467388,0.00679954,0.0010963612,-0.0012991151,5005,0,0.049227376,0.12836151,-9.839427,5005,0
68472356,0.005423607,0.0005199305,-0.0009271302,4968,0,0.08223238,0.14770553,-9.803038,4968,0
68477349,0.007377817,-0.0018706355,-0.0031786044,4993,0,0.06261894,0.14851922,-9.844093,4993,0
68482347,0.0057365275,-0.00036340844,-0.0027045058,4998,0,0.06767121,0.1409514,-9.826023,4998,0
68487349,0.010085229,0.00079048827,-0.0034156912,5002,0,0.07049027,0.13018456,-9.825091,5002,0
68492371,0.0094119515,-0.00035760287,-0.0014760668,5022,0,0.07298639,0.1497039,-9.796529,5022,0
68497392,0.006822442,5.5727018e-05,-0.0012332808,5021,0,0.07541665,0.119383864,-9.845227,5021,0
68502401,0.007946556,0.0012309641,-0.002796654,5009,0,0.05772471,0.11745485,-9.848769,5009,0
68507394,0.0077768103,-0.00026311356,-0.00096912263,4993,0,0.057124835,0.15204081,-9.803178,4993,0
68512383,0.007061855,0.0007863775,-0.0028608635,4989,0,0.07375904,0.15024137,-9.823426,4989,0
68517377,0.006559974,0.0015128446,-0.0022081556,4994,0,0.075414345,0.14908849,-9.845604,4994,0
68522407,0.0058768415,0.00021754777,-0.0009848222,5030,0,0.070776284,0.1278956,-9.847727,5030,0
68527366,0.008911022,0.0009806284,-0.0013647169,4959,0,0.06537746,0.12532936,-9.83675,4959,0
68532431,0.00811004,-0.0014133628,-0.0020700619,5065,0,0.07441081,0.13035929,-9.862339,5065,0
68537376,0.006124732,-0.0015713841,-0.0013564231,4945,0,0.08332924,0.14436334,-9.849143,4945,0
68542453,0.007656153,0.0013205343,-0.0012719539,5077,0,0.08635108,0.15663159,-9.869778,5077,0
68547390,0.006994562,0.00039498878,-0.002632913,4937,0,0.072809055,0.14167576,-9.819874,4937,0
68552380,0.0054378347,-0.0010088951,-0.0020836338,4990,0,0.084769785,0.14833575,-9.816957,4990,0
68557380,0.0061091087,0.0009608798,-0.002151757,5000,0,0.06268079,0.14440177,-9.861783,5000,0
68562350,0.0057919906,0.00010417096,-0.0029074654,4970,0,0.06614773,0.13460723,-9.857161,4970,0
68567353,0.0060906736,-0.0030320326,-0.0027945107,5003,0,0.082659684,0.1148452,-9.82781,5003,0
68572381,0.0049139485,0.001687194,-0.0017454434,5028,0,0.07695619,0.12700616,-9.850122,5028,0
68577354,0.008045262,0.0008302538,-0.0023409366,4973,0,0.051784564,0.13098669,-9.859154,4973,0
68582355,0.005903423,-0.00097397354,-0.000119757,5001,0,0.07254788,0.110836826,-9.840417,5001,0
68587347,0.0067648655,-0.00015951728,-0.002589909,4992,0,0.061562277,0.1441182,-9.870654,4992,0
68592406,0.0063476143,-0.000635588,-0.0030478751,5059,0,0.0653329,0.11452513,-9.862219,5059,0
68597349,0.008725748,2.7265705e-05,-0.0008622451,4943,0,0.045792956,0.13461109,-9.8611765,4943,0
68602394,0.0076228,-0.0003000944,-0.002684509,5045,0,0.046077672,0.14901948,-9.827975,5045,0
68607347,0.004121522,-0.0005040411,-0.002498464,4953,0,0.062669545,0.12567824,-9.858228,4953,0
68612399,0.0040412913,-0.00026344063,-0.0029468325,5052,0,0.04799972,0.10733459,-9.846033,5052,0
68617349,0.0051367534,-0.00024225765,-0.0016416359,4950,0,0.047830928,0.16044243,-9.846385,4950,0
68622347,0.0051998007,0.00028876367,-0.0034886317,4998,0,0.057380833,0.1581776,-9.814072,4998,0
68627347,0.0072683333,0.00030371448,-0.002774767,5000,0,0.058574405,0.13582025,-9.821535,5000,0
68632396,0.0044721984,0.00036913925,-0.002788192,5049,0,0.06731997,0.12761398,-9.826632,5049,0
68637349,0.0052233706,0.001260669,-0.0017177331,4953,0,0.09412301,0.120760106,-9.83463,4953,0
68642349,0.005413829,4.107473e-06,-0.003630091,5000,0,0.07251652,0.122558616,-9.815737,5000,0
68647347,0.0050131357,-0.00010731979,-0.0024900348,4998,0,0.05376807,0.12400587,-9.851334,4998,0
68652402,0.0034828444,-0.00041010117,-0.0012097701,5055,0,0.06810106,0.13700792,-9.847813,5055,0
68657349,0.0053928345,-0.0010701899,-0.0021045392,4947,0,0.07427034,0.095853366,-9.864906,4947,0
68662347,0.004142455,-0.0017018829,-0.002173804,4998,0,0.07345498,0.10630326,-9.821894,4998,0
68667355,0.005231937,-0.00031097617,-0.0013244647,5008,0,0.057499137,0.13026305,-9.835652,5008,0
68672396,0.0039541605,-0.0010924329,-0.003399525,5041,0,0.075965896,0.11519983,-9.827657,5041,0
68677349,0.002200235,-0.001897141,-0.0025429218,4953,0,0.08604838,0.13865004,-9.844908,4953,0
68682356,0.004115923,-0.00022553247,-0.00081981666,5007,0,0.060185537,0.119511425,-9.842155,5007,0
68687349,0.004849831,-0.0019006986,-0.00096638914,4993,0,0.073154636,0.11302227,-9.83776,4993,0
68692396,0.003226645,0.0012041896,-0.0009805453,5047,0,0.07772479,0.121079795,-9.833414,5047,0
68697349,0.00016997622,-0.0012676602,-0.0020295223,4953,0,0.057640888,0.10642685,-9.823825,4953,0
68702347,0.0030942818,-0.001953834,-0.0020423562,4998,0,0.054732148,0.108633615,-9.817789,4998,0
68707392,0.0020685932,-0.0015116261,-0.002203649,5045,0,0.06628128,0.09171549,-9.846892,5045,0
68712396,0.003443388,-0.0013961147,-0.00018516435,5004,0,0.05817794,0.12057284,-9.825396,5004,0
68717356,0.0008776442,-1.0856332e-05,-0.0021277668,4960,0,0.060714193,0.13230239,-9.804328,4960,0
68722347,0.003237509,0.0009868384,-0.002099948,4991,0,0.057465065,0.100675605,-9.875036,4991,0
68727354,0.0002702573,-0.00062356057,-0.0013698526,5007,0,0.0703548,0.0915987,-9.830606,5007,0
68732396,-2.8021737e-05,-3.930041e-05,-0.0015748452,5042,0,0.060556237,0.121553995,-9.837898,5042,0
68737349,0.0013858539,-0.0014444807,-0.00020796261,4953,0,0.05712542,0.1038732,-9.824418,4953,0
68742347,-0.0012309161,0.00020431165,-0.0026525825,4998,0,0.07179622,0.10729385,-9.846003,4998,0
68747347,0.00053295464,0.002034144,-0.0004637236,5000,0,0.035120375,0.09863634,-9.842874,5000,0
68752396,0.00052111567,-0.001882995,-0.0031540506,5049,0,0.041583195,0.09994981,-9.825363,5049,0
68757349,-0.00033396672,-0.0015976216,-0.0012355945,4953,0,0.05185977,0.11598842,-9.843925,4953,0
68762347,-0.0019559527,-0.0021774387,0.00029879046,4998,0,0.07282114,0.10861607,-9.826847,4998,0
68767355,-0.0014918618,0.000265634,-0.0016825724,5008,0,0.062221527,0.13068314,-9.863039,5008,0
68772396,-0.0028671392,-0.00021234901,-0.0018107634,5041,0,0.055099018,0.122130975,-9.835566,5041,0
68777349,-0.0014888585,-0.00075769506,-0.0010268665,4953,0,0.05038351,0.122400925,-9.83848,4953,0
68782347,-7.9683996e-05,0.00025423494,-0.0022078727,4998,0,0.070506126,0.122430615,-9.8313265,4998,0
68787347,-0.0013262583,0.00057414337,-0.001162753,5000,0,0.07776161,0.1378107,-9.79766,5000,0
68792401,-0.001642641,-8.63402e-05,-0.0010894657,5054,0,0.07458739,0.11094779,-9.823746,5054,0
68797349,-0.0037896007,0.00027814775,-0.0019839506,4948,0,0.055495027,0.108143985,-9.84712,4948,0
68802351,-0.0022762383,-0.00029610083,-0.0011178937,5002,0,0.07320059,0.105619766,-9.870601,5002,0
68807347,-0.006474247,0.0004922335,-0.0013292544,4996,0,0.049950883,0.11181462,-9.828047,4996,0
68812396,-0.0030096623,-0.0023758088,0.0002108683,5049,0,0.054350875,0.14206888,-9.867977,5049,0
68817349,-0.0023051219,-0.0014656388,-0.0015390061,4953,0,0.05077719,0.11126941,-9.861952,4953,0
68822347,-0.003253382,-0.00028170738,-0.0012938976,4998,0,0.05187767,0.13537593,-9.855712,4998,0
68827356,-0.0039831894,-0.00044689924,0.0010636824,5009,0,0.054837994,0.119541764,-9.8429575,5009,0
68832358,-0.0037581648,0.001326483,0.0014158977,5002,0,0.06499502,0.12662974,-9.849701,5002,0
68837349,-0.0045565995,-0.0006984284,0.00017283067,4991,0,0.07450992,0.12450801,-9.819473,4991,0
68842347,-0.006754621,-0.0010209132,-0.0012726845,4998,0,0.063066944,0.14155279,-9.827325,4998,0
68847349,-0.003650971,-0.001532712,-0.0013890796,5002,0,0.049848158,0.11907635,-9.85419,5002,0
68852364,-0.0041292096,-0.00066730345,0.00016560344,5015,0,0.072742924,0.13070065,-9.820415,5015,0
68857349,-0.004408403,-0.0012772648,-0.00196524,4985,0,0.07037279,0.1265777,-9.816132,4985,0
68862347,-0.00590346,-0.0012851077,-0.0020625915,4998,0,0.068952434,0.13115393,-9.857653,4998,0
68867347,-0.0062705823,-0.0014965399,-9.108996e-05,5000,0,0.07288973,0.13847612,-9.833094,5000,0
68872370,-0.004521089,-0.0017525789,6.806053e-05,5023,0,0.05836153,0.124373466,-9.846567,5023,0
68877349,-0.0037274635,-0.00053993467,-0.00040743453,4979,0,0.06525962,0.12502296,-9.821327,4979,0
68882347,-0.0049563325,-0.0027894168,-0.00019745858,4998,0,0.06589783,0.15407476,-9.849317,4998,0
68887350,-0.0063773002,-0.0005750855,-0.00047804508,5003,0,0.049273428,0.15421492,-9.846314,5003,0
68892396,-0.005860815,0.0008735292,0.0014637532,5046,0,0.043473545,0.1179774,-9.860644,5046,0
68897350,-0.0038164095,0.0012263282,-0.0013616227,4954,0,0.06317144,0.12700224,-9.85001,4954,0
68902349,-0.0068469266,-0.00097228424,2.6970192e-06,4999,0,0.0587654,0.14421667,-9.872331,4999,0
68907350,-0.004707701,0.00094333803,-0.0016128568,5001,0,0.06912069,0.14107305,-9.858272,5001,0
68912396,-0.0052853255,-0.0013518588,-0.0007816204,5046,0,0.08016224,0.14770147,-9.85682,5046,0
68917398,-0.0043661552,0.00030759993,-0.0009040462,5002,0,0.07601886,0.14993657,-9.84596,5002,0
68922350,-0.0049507557,-0.0024622674,0.0010785345,4952,0,0.05858651,0.14786577,-9.847719,4952,0
68927367,-0.004157215,-0.0026183827,-0.0029315013,5017,0,0.05408905,0.13447315,-9.834581,5017,0
68932396,-0.0041898773,-0.00024365158,0.00013256891,5029,0,0.076671734,0.1376593,-9.841437,5029,0
68937353,-0.004379472,-0.0016954783,-0.0006313678,4957,0,0.07255214,0.14764076,-9.833886,4957,0
68942350,-0.0039925757,-0.0008274691,-0.0013722634,4997,0,0.061204948,0.14567232,-9.82719,4997,0
68947350,-0.002633235,0.0010561981,-0.0020988379,5000,0,0.059111707,0.15385836,-9.806566,5000,0
68952396,-0.003129936,-0.0015202435,-0.0019859434,5046,0,0.049399093,0.15419382,-9.845254,5046,0
68957355,-0.0029284004,0.00043943868,-0.0014441704,4959,0,0.048709664,0.15680303,-9.850175,4959,0
68962353,-0.0021109735,2.6375796e-05,-0.0019208525,4998,0,0.056297325,0.15617764,-9.8568535,4998,0
68967350,-0.0025874749,0.0005440782,-0.0013372897,4997,0,0.054491445,0.13513325,-9.849673,4997,0
68972396,-0.0018338488,-0.0003693869,-0.0011080045,5046,0,0.060486704,0.13132407,-9.868042,5046,0
68977351,-0.00190161,3.576972e-05,-0.00061126985,4955,0,0.054487545,0.17064112,-9.8484125,4955,0
68982361,-0.004288183,-0.001337428,0.0008053279,5010,0,0.06290696,0.15483725,-9.819296,5010,0
68987352,-0.002601833,-0.0010994948,-0.00024001203,4991,0,0.062607616,0.13443857,-9.826968,4991,0
68992396,-0.00162237,-0.0015664193,0.00010339154,5044,0,0.06505201,0.1567099,-9.813728,5044,0
68997352,-0.0025998466,-0.00089812983,-0.0013337252,4956,0,0.06883855,0.14327961,-9.830506,4956,0
69002347,-0.0018161722,0.0010366146,-0.002930331,4995,0,0.052888177,0.122429386,-9.852803,4995,0
69007349,-0.0004973,-0.0011700842,-0.002726626,5002,0,0.052031964,0.15133932,-9.848438,5002,0
69012376,-0.0011171062,-0.0017313736,-0.0020448617,5027,0,0.06703586,0.16528238,-9.856373,5027,0
69017350,-0.0032136394,-0.0028640504,-0.0016088216,4974,0,0.06794719,0.16689228,-9.836498,4974,0
69022391,-0.00016768569,-0.001789957,-0.00026649522,5041,0,0.06293296,0.14766213,-9.853569,5041,0
69027349,0.0019569155,0.0007084727,-0.001001123,4958,0,0.07257162,0.14708824,-9.836292,4958,0
69032368,0.001848509,-9.568899e-05,-0.0007725206,5019,0,0.06510827,0.15840441,-9.843569,5019,0
69037350,4.9747243e-05,-0.00083475467,3.0934436e-05,4982,0,0.0629062,0.17352492,-9.82932,4982,0
69042352,0.00239825,0.000860926,-0.000879543,5002,0,0.037687235,0.16332607,-9.82329,5002,0
69047349,0.00017037253,0.00036602173,-0.0026729575,4997,0,0.06809245,0.15627667,-9.858537,4997,0
69052396,0.002200188,0.0003766495,-0.0014360317,5047,0,0.06555124,0.15140936,-9.834932,5047,0
69057349,-0.0014268208,-0.00054299954,-0.00051147176,4953,0,0.047655012,0.13627358,-9.838611,4953,0
69062377,0.0029214423,0.00014192623,-0.0017002831,5028,0,0.072044924,0.14331815,-9.846863,5028,0
69067347,0.0018477342,0.0009066542,-0.0015848988,4970,0,0.0692363,0.14571372,-9.8250885,4970,0
69072396,0.0036496946,-0.0001285977,-0.0026656725,5049,0,0.079459295,0.14686146,-9.820756,5049,0
69077350,0.002990814,0.0009695174,-0.0023842088,4954,0,0.0794473,0.16320822,-9.795876,4954,0
69082347,0.0030398623,0.0004529883,-0.0022849261,4997,0,0.079376586,0.16607243,-9.801052,4997,0
69087352,0.005695215,-0.00072082604,-0.0021221477,5005,0,0.056329682,0.1558059,-9.853467,5005,0
69092361,0.004441534,-0.0015029475,-0.0013789022,5009,0,0.064780846,0.16473985,-9.831993,5009,0
69097350,0.0050782533,0.0008405487,-0.0009431912,4989,0,0.06212608,0.16975729,-9.841398,4989,0
69102347,0.006925213,0.0009389755,-0.0020230105,4997,0,0.06253856,0.14665748,-9.82343,4997,0
69107394,0.005438675,-0.0013056226,-0.00033317407,5047,0,0.06422192,0.13576503,-9.841177,5047,0
69112396,0.007549775,-0.0004314504,-0.00058278395,5002,0,0.05914728,0.14463899,-9.834791,5002,0
69117349,0.0066815475,-0.00029648416,-0.0020163218,4953,0,0.05031077,0.15305668,-9.831997,4953,0
69122347,0.006724434,-0.00057249964,-0.0011716859,4998,0,0.044968396,0.14440362,-9.868442,4998,0
69127375,0.0077094743,-0.0019258957,-0.0024979261,5028,0,0.060792454,0.14636374,-9.871002,5028,0
69132399,0.007653607,-0.0017987506,-0.00097489037,5024,0,0.07126429,0.14947575,-9.850925,5024,0
69137350,0.0069745616,0.0016845329,-0.0026088615,4951,0,0.05148366,0.12908137,-9.840941,4951,0
69142347,0.007630296,-0.00010605245,-0.00075635914,4997,0,0.062088296,0.15794493,-9.811777,4997,0
69147350,0.008252657,-0.0005829286,-0.0018457298,5003,0,0.06374314,0.15584306,-9.844212,5003,0
69152374,0.009147708,0.0006687985,-0.0024773364,5024,0,0.0563304,0.14417255,-9.80119,5024,0
69157351,0.008948489,-0.0022042056,-0.0027743853,4977,0,0.07177849,0.13995875,-9.834684,4977,0
69162351,0.006608613,0.00027212212,-0.0018806038,5000,0,0.07126436,0.14344183,-9.805755,5000,0
69167364,0.009554211,0.0019599723,-0.0028250902,5013,0,0.05498988,0.14458714,-9.831345,5013,0
69172355,0.0071154595,0.0014256283,-0.004003115,4991,0,0.06396666,0.15100433,-9.82584,4991,0
69177369,0.0081609795,0.0006556404,-0.0019635132,5014,0,0.057846066,0.1450929,-9.856255,5014,0
69182371,0.0110465735,0.0006760847,-0.00205337,5002,0,0.05129499,0.14162982,-9.832326,5002,0
69187354,0.010574642,-0.00086456875,-0.0037616263,4983,0,0.058107123,0.1288617,-9.844457,4983,0
69192400,0.010407449,0.00016388262,-0.0026501664,5046,0,0.061543085,0.14499551,-9.858177,5046,0
69197360,0.011938524,-0.00085286354,-0.0030296256,4960,0,0.0816278,0.14300896,-9.838066,4960,0
69202347,0.008633948,-0.0005906216,-0.0018211169,4987,0,0.065217376,0.13808946,-9.850415,4987,0
69207408,0.01073407,-0.00029687042,-0.0018511966,5061,0,0.06602949,0.12754825,-9.854522,5061,0
69212370,0.010809096,0.00074294215,-0.0044704233,4962,0,0.061688695,0.11542385,-9.844339,4962,0
69217397,0.0086571565,0.0004886622,-0.0033489128,5027,0,0.05341705,0.13758542,-9.832284,5027,0
69222394,0.010786371,-5.763724e-06,-0.0038235383,4997,0,0.06277874,0.13494016,-9.848096,4997,0
69227394,0.010757365,-0.0027522936,-0.0011416161,5000,0,0.06390368,0.14549501,-9.854972,5000,0
69232424,0.010460087,-0.0006663433,-0.0030987223,5030,0,0.04337884,0.13942695,-9.849036,5030,0
69237400,0.010357608,0.0012727387,-0.0029544244,4976,0,0.07154791,0.14957753,-9.851936,4976,0
69242391,0.010305076,0.001586629,-0.0045291167,4991,0,0.06158128,0.14805824,-9.841282,4991,0
69247391,0.014363427,-0.0016810816,-0.0018620259,5000,0,0.059389543,0.14187579,-9.834658,5000,0
69257371,0.011075641,0.0011917908,-0.0018854819,4962,0,0.07382091,0.11694323,-9.851377,4962,0
69262374,0.012847136,0.0015059651,-0.0034271602,5003,0,0.061258886,0.117391005,-9.87556,5003,0
69267369,0.009796887,-0.0007582894,-0.0057802596,4995,0,0.058464874,0.13502479,-9.867505,4995,0
69272388,0.011062436,-0.0013886432,-0.0043852404,5019,0,0.04617664,0.12343893,-9.865875,5019,0
69277353,0.012224668,-2.809218e-06,-0.0044637034,4965,0,0.04522174,0.13961287,-9.855162,4965,0
69282350,0.012004672,-0.00087234157,-0.002624057,4997,0,0.0733032,0.12424117,-9.85899,4997,0
69287361,0.012978598,0.0015801048,-0.004097921,5011,0,0.0568759,0.119187646,-9.859748,5011,0
69292400,0.010202641,-0.0004952431,-0.003162436,5039,0,0.080580086,0.1209524,-9.838143,5039,0
69297395,0.0115988245,-0.0008993013,-0.002227344,4995,0,0.069958724,0.12810181,-9.843023,4995,0
69302347,0.0111147715,-0.00037847026,-0.0029288065,4952,0,0.0445477,0.12217115,-9.866914,4952,0
69307347,0.011464681,-4.9034395e-07,-0.0024970458,5000,0,0.047756832,0.12979548,-9.868986,5000,0
69312400,0.010965537,-0.00085140305,-0.003237118,5053,0,0.06005845,0.11677079,-9.851882,5053,0
69317356,0.009355678,-0.0015105605,-0.0026051744,4956,0,0.08536497,0.12161903,-9.860354,4956,0
69322349,0.010814318,-0.001354054,-0.0018211121,4993,0,0.07623133,0.12264098,-9.843206,4993,0
69327359,0.010388411,0.0010041847,-0.0042407922,5010,0,0.06975185,0.10625219,-9.83581,5010,0
69332352,0.01142423,-0.0011963184,-0.0032818129,4993,0,0.06766831,0.115232155,-9.832035,4993,0
69337370,0.007941457,-0.0006265713,-0.0014669027,5018,0,0.07609915,0.11161364,-9.860557,5018,0
69342347,0.008905642,0.00096945104,-0.0014895102,4977,0,0.044650227,0.121606566,-9.835699,4977,0
69347347,0.007220426,-0.0031039093,-0.0026179755,5000,0,0.054677878,0.11828788,-9.802949,5000,0
69352396,0.0069468217,-0.0005705422,-0.0016683053,5049,0,0.065269984,0.13483348,-9.811818,5049,0
69357350,0.008006253,0.0003596069,-0.0022296426,4954,0,0.07295183,0.095635645,-9.837648,4954,0
69362347,0.0070506586,-0.0008107513,-0.0031373282,4997,0,0.07009823,0.093937315,-9.845434,4997,0
69367353,0.0076174517,-0.00020526728,-0.0013631369,5006,0,0.06924188,0.1113291,-9.865656,5006,0
69372397,0.008881671,0.001236019,-0.0022371695,5044,0,0.06262803,0.08938023,-9.8668585,5044,0
69377352,0.0043378016,-0.00083758635,-0.0014485013,4955,0,0.055455517,0.1271704,-9.821173,4955,0
69382347,0.0054553505,-0.0007044956,-0.0016328599,4995,0,0.049870104,0.114984065,-9.828138,4995,0
69387356,0.0042109923,-0.0019366869,-0.0027222468,5009,0,0.07098387,0.12022367,-9.840345,5009,0
69392355,0.004174994,-0.00020532077,-0.0037356785,4999,0,0.06811827,0.08934288,-9.835576,4999,0
69397354,-0.00072556693,0.00041270087,-0.0024866448,4999,0,0.06050807,0.103939705,-9.844896,4999,0
69402353,0.0014033368,0.0013019223,-0.0044270023,4999,0,0.08276561,0.11895424,-9.868311,4999,0
69407347,0.0020059864,0.0005575317,-0.0001886719,4994,0,0.07471623,0.098159276,-9.8539095,4994,0
69412355,0.0033672764,0.00026065277,-3.7996553e-05,5008,0,0.05828989,0.12103832,-9.878583,5008,0
69417347,0.00082357787,0.00025098934,0.00020019496,4992,0,0.06441491,0.11206947,-9.833275,4992,0
69422347,0.0025468366,-0.0012142085,-0.0042219795,5000,0,0.062409718,0.11768802,-9.836542,5000,0
69427347,-0.0007938801,-0.0018275685,-0.0014087872,5000,0,0.062332682,0.12082431,-9.838513,5000,0
69432397,-0.0025006847,0.00094710034,-0.0012098805,5050,0,0.06514406,0.11076552,-9.845403,5050,0
69437353,-0.0030925623,0.0005826064,-0.0017397512,4956,0,0.055711184,0.10620518,-9.857635,4956,0
69442391,-0.00015175025,0.00012590241,-0.002025875,5038,0,0.058552705,0.1287722,-9.85963,5038,0
69447357,-0.0027432055,-0.0004141144,-0.0023114323,4966,0,0.076324806,0.12071605,-9.865167,4966,0
69452396,-0.005173156,-0.0007424699,-0.0018258027,5039,0,0.06192148,0.11626908,-9.850453,5039,0
69457391,-0.0021503882,-0.0008112306,-0.0014701841,4995,0,0.06896968,0.11917478,-9.855446,4995,0
69462347,-0.0037268323,-0.0012900344,0.000505248,4956,0,0.066263,0.108486794,-9.865882,4956,0
69467347,-0.00365323,0.00010713981,-0.00079456385,5000,0,0.08886071,0.117283374,-9.823498,5000,0
69472400,-0.0062625255,-0.0020173732,-0.0015393132,5053,0,0.06593623,0.1081165,-9.861335,5053,0
69477356,-0.0015579363,-0.0007281895,-0.0029642181,4956,0,0.058746867,0.10566547,-9.864991,4956,0
69482347,-0.004674474,-0.0026014533,-0.0018814973,4991,0,0.06900729,0.11970721,-9.825748,4991,0
69487347,-0.0044179168,-0.0017935854,0.0004960227,5000,0,0.071173534,0.114733845,-9.808935,5000,0
69492400,-0.006230587,-0.0005987029,-0.0016175993,5053,0,0.072418034,0.123963624,-9.814437,5053,0
69497347,-0.006515999,-0.0002256635,-0.0020943831,4947,0,0.07497949,0.12645483,-9.840267,4947,0
69502347,-0.0071300855,-0.0025866637,-0.001027594,5000,0,0.06620146,0.12963267,-9.859923,5000,0
69507347,-0.0060867006,-0.00045533112,-0.0032902223,5000,0,0.061254475,0.12539247,-9.843679,5000,0
69512396,-0.0088537065,-0.001356975,-0.0011918619,5049,0,0.069290094,0.118412346,-9.844846,5049,0
69517347,-0.007296279,-0.0024574958,-0.0013387864,4951,0,0.07644064,0.12609002,-9.817586,4951,0
69522347,-0.007311189,-0.001026769,-0.0007382697,5000,0,0.08046324,0.11337445,-9.825657,5000,0
69527347,-0.007376225,-0.0016093174,0.0002314928,5000,0,0.048689198,0.118269645,-9.868126,5000,0
69532358,-0.00668236,-0.00154461,0.001164323,5011,0,0.06267253,0.13625309,-9.835718,5011,0
69537347,-0.00860995,-0.00093292294,-0.0010871023,4989,0,0.08631231,0.10873347,-9.846665,4989,0
69542347,-0.005337694,-0.00014270039,-0.0017388277,5000,0,0.07167042,0.1261931,-9.837557,5000,0
69547372,-0.006613138,-0.0005379555,-0.0009720102,5025,0,0.07991831,0.12731504,-9.85391,5025,0
69552396,-0.006501639,0.0024453655,0.000704863,5024,0,0.06684152,0.14319563,-9.856908,5024,0
69557347,-0.0089328205,1.2858932e-05,0.0012650385,4951,0,0.07097916,0.1223227,-9.865544,4951,0
69562347,-0.009920629,-0.00014322907,0.00016336046,5000,0,0.06529504,0.13649373,-9.84543,5000,0
69567347,-0.007133199,-0.00039529786,-0.00045105247,5000,0,0.070763625,0.16098228,-9.819094,5000,0
69572396,-0.010224957,-0.00023117384,0.0009666739,5049,0,0.07512971,0.12848024,-9.847989,5049,0
69577349,-0.009025662,-0.0016781355,-7.862406e-05,4953,0,0.08260854,0.12794693,-9.875768,4953,0
69582347,-0.008108694,-0.0018543487,-0.00077130616,4998,0,0.08177934,0.14015174,-9.848724,4998,0
69587347,-0.009486653,-0.0015741467,-0.00042531666,5000,0,0.06520121,0.13979861,-9.843235,5000,0
69592396,-0.009701682,-0.0013503256,0.00024175063,5049,0,0.04956606,0.13659218,-9.818248,5049,0
69597347,-0.008817112,-0.000604855,0.00014681151,4951,0,0.06659337,0.15712835,-9.863761,4951,0
69602348,-0.009228121,-0.0008382896,-3.2878732e-05,5001,0,0.08523804,0.16602622,-9.839104,5001,0
69607355,-0.009343413,-0.000743395,0.001440252,5007,0,0.052281305,0.13570055,-9.885338,5007,0
69612396,-0.009779668,-0.002428563,0.0017149665,5041,0,0.058364056,0.12001915,-9.877688,5041,0
69617350,-0.0074612494,-0.00015924903,-0.00013999917,4954,0,0.07420943,0.14421837,-9.868045,4954,0
69622350,-0.010011067,-0.0012319697,0.00014507119,5000,0,0.058054492,0.14314899,-9.849489,5000,0
69627361,-0.0065282383,-0.0022336873,-0.00139475,5011,0,0.06253666,0.15046737,-9.843653,5011,0
69632399,-0.0067903055,-0.0017828507,-0.0015242436,5038,0,0.05861018,0.1574994,-9.84816,5038,0
69637350,-0.0076330258,0.00043180815,1.4805033e-05,4951,0,0.068645276,0.16429557,-9.835959,4951,0
69642350,-0.0075417585,-0.0014569891,-0.0011277541,5000,0,0.060944952,0.15144241,-9.846119,5000,0
69647350,-0.0030244438,-0.0010869754,-0.0010826522,5000,0,0.043268222,0.16508478,-9.856405,5000,0
69652388,-0.0018747553,-0.0013926093,-0.0009850294,5038,0,0.072910115,0.16726092,-9.841375,5038,0
69657354,-0.0051732548,0.0009348272,-0.0024232117,4966,0,0.068055056,0.14397158,-9.839812,4966,0
69662350,-0.002975417,-0.00033049932,1.2053814e-05,4996,0,0.040338162,0.14666025,-9.858628,4996,0
69667350,-0.0043286243,0.00038962736,-0.00021027666,5000,0,0.0594264,0.14509603,-9.864916,5000,0
69672361,-0.0016137346,-0.0024005566,-0.00031996958,5011,0,0.0579924,0.17196661,-9.8417225,5011,0
69677350,-0.002621982,-0.0014064542,-0.0011541651,4989,0,0.047301836,0.15713449,-9.868322,4989,0
69682352,-0.00096754736,0.00017595771,-0.002483992,5002,0,0.07723901,0.16165625,-9.867714,5002,0
69687350,-0.0016733956,0.0007008812,-0.0012149427,4998,0,0.067806795,0.14354116,-9.812075,4998,0
69692382,-0.0017538716,0.0010229655,-0.00154371,5032,0,0.037953824,0.15576422,-9.86285,5032,0
69697347,-2.4009812e-05,-0.0006571056,-0.0020252327,4965,0,0.05474148,0.18312694,-9.870368,4965,0
69702347,0.0021372144,0.00021885119,-0.0003938681,5000,0,0.05741953,0.15496032,-9.853255,5000,0
69707353,0.0011523884,0.0001438785,-0.0016027028,5006,0,0.059777867,0.15116504,-9.87231,5006,0
69712396,0.00028390388,-0.002179224,-0.0022516632,5043,0,0.08713091,0.16197671,-9.8546295,5043,0
69717368,0.0029981968,0.00029969812,0.00010645108,4972,0,0.07371736,0.16344634,-9.861767,4972,0
69722347,0.0016056853,-0.0012388334,-0.0016989032,4979,0,0.058297608,0.17108469,-9.843448,4979,0
69727351,0.002096073,-0.00043836745,0.0007674464,5004,0,0.067214854,0.16065145,-9.825061,5004,0
69732360,0.0072206766,-0.00014109306,-0.0009448095,5009,0,0.06988799,0.17074461,-9.863483,5009,0
69737347,0.003275494,0.00012561482,-0.002334825,4987,0,0.07407752,0.14630166,-9.846768,4987,0
69742347,0.0029063579,-0.002906863,-0.0028914586,5000,0,0.06174133,0.16532037,-9.892819,5000,0
69747347,0.00248069,0.00024931616,-0.0016987602,5000,0,0.063108794,0.15840517,-9.865871,5000,0
69752396,0.005664091,0.0008315279,-0.0017362974,5049,0,0.07394926,0.16583596,-9.864567,5049,0
69757395,0.0070285206,-0.0011032167,-0.0030146223,4999,0,0.070419334,0.15898842,-9.839993,4999,0
69762347,0.008899923,-0.0007168648,-0.0013996216,4952,0,0.07809745,0.1571917,-9.836964,4952,0
69767347,0.006118534,0.00065786403,-0.0021435379,5000,0,0.065174885,0.13166408,-9.826263,5000,0
69772397,0.0065958733,0.00026132085,-0.0023410153,5050,0,0.050078075,0.15314142,-9.837741,5050,0
69777350,0.00904356,-0.0019873267,-0.0013133046,4953,0,0.06781668,0.15322568,-9.836348,4953,0
69782350,0.010016744,8.5738306e-05,-0.0024464368,5000,0,0.06657614,0.15175088,-9.825457,5000,0
69787347,0.011090771,-0.003327031,-0.002429836,4997,0,0.039943963,0.1391879,-9.859318,4997,0
69792396,0.011453596,-0.005273688,-0.0032024968,5049,0,0.06697621,0.14167564,-9.881609,5049,0
69797370,0.0067328047,-0.0026735144,-0.004024706,4974,0,0.06823292,0.13869232,-9.838252,4974,0
69802347,0.0107039455,-0.0013429619,-0.00086096575,4977,0,0.044346556,0.13425598,-9.842276,4977,0
69807347,0.013065075,-0.00041135587,-0.00014777904,5000,0,0.050548576,0.11971345,-9.899326,5000,0
69812396,0.013022651,-0.0026655656,-0.0003283527,5049,0,0.03180661,0.105482146,-9.875037,5049,0
69817350,0.014322599,-0.0019010014,-0.0022163864,4954,0,0.087067835,0.11120374,-9.831429,4954,0
69822358,0.013598666,-0.00079066673,0.00063689967,5008,0,0.05998792,0.12155796,-9.811984,5008,0
69827354,0.014420269,-0.0013585135,0.0005940589,4996,0,0.007156752,0.087211825,-9.946548,4996,0
69832394,0.015437622,-0.0019734865,0.002232521,5040,0,0.084313326,0.09374099,-9.841047,5040,0
69837350,0.0105121005,-0.0033744616,0.00014452438,4956,0,0.10493009,0.14773022,-9.785545,4956,0
69842394,0.010673529,-0.0031511316,0.00015540063,5044,0,0.087936334,0.13193811,-9.8868,5044,0
69847349,0.013147245,-0.0024872331,0.004936683,4955,0,0.09031758,0.108993806,-9.864081,4955,0
69852373,0.012488356,-0.00036605584,0.0055905483,5024,0,0.07634955,0.12522542,-9.872333,5024,0
69857350,0.012404398,-0.0019780807,0.0031928297,4977,0,0.134513,0.11187368,-9.823603,4977,0
69862381,0.011645754,-0.0042728656,0.0041907043,5031,0,0.11124766,0.080161825,-9.8752365,5031,0
69867347,0.015575214,-0.0036073776,0.002937244,4966,0,0.07060588,0.12149921,-9.89053,4966,0
69872364,0.016094366,-0.0040484685,0.0045656953,5017,0,0.08928718,0.14624213,-9.826841,5017,0
69877357,0.012956713,-0.0031595144,0.0038054418,4993,0,0.102785856,0.17855164,-9.823182,4993,0
69882380,0.012363955,-0.0039028025,0.0023735806,5023,0,0.10559542,0.20255691,-9.836276,5023,0
69887361,0.0136022,-0.00026364464,0.005170982,4981,0,0.08185373,0.19145106,-9.827505,4981,0
69892404,0.013217727,-6.973324e-05,0.0030790418,5043,0,0.06952509,0.18469742,-9.811475,5043,0
69897388,0.014589584,0.0004923431,-0.0005566008,4984,0,0.092578776,0.21714143,-9.793469,4984,0
69902352,0.013730674,0.0011990365,-0.005336728,4964,0,0.09702312,0.23984642,-9.810108,4964,0
69907352,0.011434743,0.00091641303,-0.0055066673,5000,0,0.112893075,0.22814792,-9.757057,5000,0
69912353,0.017727118,0.0019904054,-0.0073851515,5001,0,0.051460095,0.2336982,-9.804754,5001,0
69917347,0.0170651,0.001277303,-0.008264634,4994,0,0.04673352,0.26045993,-9.834201,4994,0
69922349,0.013870107,1.9686238e-05,-0.010678454,5002,0,0.078151636,0.27114478,-9.797013,5002,0
69927347,0.011994362,0.0014367143,-0.011075669,4998,0,0.073852606,0.2593838,-9.773458,4998,0
69932370,0.013014036,0.0032162655,-0.011584952,5023,0,0.065529145,0.22246715,-9.819536,5023,0
69937395,0.015040009,0.0039556944,-0.013400938,5025,0,0.014533933,0.21556619,-9.801012,5025,0
69942391,0.014071641,0.0029693614,-0.015583376,4996,0,0.01215013,0.21303716,-9.794816,4996,0
69947408,0.015596389,0.0014442352,-0.015451021,5017,0,0.013805961,0.21324396,-9.795205,5017,0
69952405,0.014190058,0.004416508,-0.01755398,4997,0,-0.016487401,0.20633487,-9.754945,4997,0
69957369,0.014635086,0.005062531,-0.019630818,4964,0,-0.02904383,0.18807074,-9.798171,4964,0
69962369,0.012314737,0.008657819,-0.017926339,5000,0,-0.00069194654,0.19442087,-9.795953,5000,0
69967394,0.0131723415,0.00925967,-0.020596059,5025,0,0.013338701,0.17714824,-9.830161,5025,0
69972379,0.016335627,0.009439881,-0.020911282,4985,0,0.026742121,0.17003894,-9.816717,4985,0
69977384,0.013943777,0.009510078,-0.021159422,5005,0,-0.00975244,0.18278088,-9.803704,5005,0
69982373,0.012995417,0.0078322515,-0.02022717,4989,0,0.0004044658,0.1961747,-9.843931,4989,0
69987378,0.012381056,0.007460164,-0.023941932,5005,0,0.058935355,0.19726676,-9.857651,5005,0
69992405,0.011896764,0.003059995,-0.022474553,5027,0,0.056361597,0.19423833,-9.848723,5027,0
69997353,0.01744696,0.0033380475,-0.020411512,4948,0,0.055827428,0.15196802,-9.8911495,4948,0
70002357,0.0178158,0.0035923882,-0.021566687,5004,0,0.07899744,0.15019608,-9.937365,5004,0
70007347,0.018069947,0.005196358,-0.022910053,4990,0,0.1024414,0.13554326,-9.90832,4990,0
70012402,0.020975033,0.005983874,-0.022867864,5055,0,0.12637722,0.11511938,-9.946106,5055,0
70017356,0.020486226,0.0052066348,-0.021830512,4954,0,0.086517625,0.05892464,-9.962522,4954,0
70022347,0.020814344,0.0024288886,-0.021633726,4991,0,0.06822018,0.046828702,-9.967084,4991,0
70027356,0.022548266,-0.0009536251,-0.019614499,5009,0,0.045404527,-0.012731398,-10.0400915,5009,0
70032353,0.021315178,-0.008002363,-0.015448857,4997,0,0.09781562,-0.027526544,-9.953285,4997,0
70037349,0.017994428,-0.009406607,-0.011823511,4996,0,0.12886946,-0.036936153,-9.896074,4996,0
70042347,0.012882559,-0.007969455,-0.008468583,4998,0,0.08270461,-0.09055412,-9.996312,4998,0
70047347,0.012922158,-0.0058837193,-0.0020215595,5000,0,0.07325738,-0.16268893,-9.998895,5000,0
70052379,0.007433018,-0.00931992,-0.0010568023,5032,0,0.08512627,-0.14312051,-9.904235,5032,0
70057350,0.0017879588,-0.006803388,0.0031259707,4971,0,0.07003329,-0.1459134,-9.880471,4971,0
70062376,0.003360068,-0.00509592,0.0071636327,5026,0,0.030054199,-0.2247152,-9.939194,5026,0
70067347,0.0058937212,-0.005790572,0.015019239,4971,0,0.042983375,-0.22347978,-9.945817,4971,0
70072381,0.009773815,-0.010292896,0.016058115,5034,0,0.04910644,-0.1690207,-9.877668,5034,0
70077356,0.010262961,-0.013639238,0.019099277,4975,0,0.06449472,-0.17759962,-9.89525,4975,0
70082347,0.01467163,-0.017872019,0.026290841,4991,0,0.042762656,-0.16800214,-9.90909,4991,0
70087357,0.015699727,-0.017713906,0.026864672,5010,0,0.027074885,-0.12191108,-9.901011,5010,0
70092388,0.01544173,-0.012766073,0.032323018,5031,0,0.02437002,-0.09849291,-9.867474,5031,0
70097356,0.01127938,-0.008557508,0.03390821,4968,0,0.053440735,-0.07589903,-9.903969,4968,0
70102347,0.008498992,-0.008252822,0.033603005,4991,0,0.02874013,-0.024684168,-9.871512,4991,0
70107347,0.006031659,-0.009225568,0.035194635,5000,0,-0.0074698813,-0.008223806,-9.838353,5000,0
70112363,0.0024051308,-0.009223465,0.037171397,5016,0,-0.04170791,0.02227732,-9.7985325,5016,0
70117356,-0.002945431,-0.009165032,0.036961675,4993,0,-0.09001394,0.1019242,-9.864454,4993,0
70122347,-0.008329499,-0.015069725,0.032882832,4991,0,-0.10207533,0.17900908,-9.844686,4991,0
70127347,-0.0065396,-0.01862025,0.03183014,5000,0,-0.08570689,0.19335116,-9.769501,5000,0
70132398,-0.009556013,-0.017314916,0.0292981,5051,0,-0.11243695,0.25634253,-9.768611,5051,0
70137347,-0.013121498,-0.0148258535,0.023809433,4949,0,-0.10174948,0.3475502,-9.791084,4949,0
70142347,-0.010436805,-0.0110362405,0.018391512,5000,0,-0.037678253,0.39979228,-9.763619,5000,0
70147347,-0.0073606367,-0.0033600875,0.014594226,5000,0,-0.0094625065,0.4073462,-9.717212,5000,0
70152399,-0.005208775,0.0050325138,0.006489447,5052,0,-0.02445877,0.44661456,-9.736094,5052,0
70157347,-0.0018844865,0.0073988377,-0.0034595612,4948,0,-0.0023940124,0.48787722,-9.739939,4948,0
70162347,-0.002287752,0.006980613,-0.009756835,5000,0,0.02700032,0.5305551,-9.756364,5000,0
70167347,0.005215909,0.004019394,-0.01811799,5000,0,0.023229238,0.5709779,-9.791937,5000,0
70172396,0.007906443,0.0011332962,-0.025614697,5049,0,0.030822726,0.5932132,-9.7696,5049,0
70177387,0.0048650485,-0.0023131862,-0.030241173,4991,0,0.027242173,0.5563881,-9.808913,4991,0
70182347,0.008074355,-0.0048867497,-0.037382547,4960,0,0.07379686,0.542949,-9.800388,4960,0
70187347,0.011071059,0.00011439415,-0.04576719,5000,0,0.15074815,0.51756215,-9.774629,5000,0
70192396,0.011789662,0.0058657075,-0.048880406,5049,0,0.1595098,0.44270557,-9.780587,5049,0
70197349,0.018529164,0.012683341,-0.053389594,4953,0,0.14659573,0.37173647,-9.787165,4953,0
70202356,0.019079616,0.014305131,-0.05634199,5007,0,0.13529964,0.2718385,-9.753122,5007,0
70207347,0.013624795,0.013498682,-0.056277808,4991,0,0.14480156,0.18014707,-9.727968,4991,0
70212361,0.012324102,0.013445268,-0.050613835,5014,0,0.11969835,0.08243298,-9.705987,5014,0
70217369,0.007867925,0.011255482,-0.044523206,5008,0,0.15239567,-0.066029206,-9.725872,5008,0
70222347,0.0057957345,0.008244386,-0.03556223,4978,0,0.21956956,-0.1564372,-9.723728,4978,0
70227356,-0.0028628088,0.011583678,-0.02929052,5009,0,0.34715056,-0.27103415,-9.643213,5009,0
70232397,-0.0065272753,0.01874583,-0.020750595,5041,0,0.4237733,-0.381237,-9.614609,5041,0
70237357,-0.0146558955,0.023813982,-0.008054624,4960,0,0.46653605,-0.45926815,-9.693611,4960,0
70242347,-0.012822245,0.02893823,0.0024164391,4990,0,0.48701862,-0.51702756,-9.728353,4990,0
70247347,-0.011232966,0.027964098,0.015669743,5000,0,0.518482,-0.52184045,-9.717323,5000,0
70252396,-0.008812186,0.025748685,0.025139395,5049,0,0.5147779,-0.5289112,-9.763756,5049,0
70257349,-0.0032060775,0.015248517,0.032932214,4953,0,0.45391408,-0.5238361,-9.832633,4953,0
70262347,-0.004259205,0.01070905,0.046369392,4998,0,0.37686837,-0.44260854,-9.908047,4998,0
70267364,0.0016017816,0.0023669063,0.05701139,5017,0,0.34206358,-0.37247887,-9.928776,5017,0
70272352,0.0018360993,-0.001681055,0.060681958,4988,0,0.24104904,-0.26550126,-9.97319,4988,0
70277349,0.0015765503,-0.0033360932,0.067293584,4997,0,0.12063366,-0.15377156,-9.964699,4997,0
70282396,-0.00012909058,1.3429067e-05,0.06817318,5047,0,-0.031467464,-0.045062527,-9.963952,5047,0
70287354,-0.0062411344,0.0013596829,0.07054708,4958,0,-0.16985455,0.092692725,-9.932332,4958,0
70292396,-0.009030877,0.0015519683,0.07016389,5042,0,-0.26319754,0.20183824,-9.956845,5042,0
70297356,-0.013556982,0.0018309362,0.06758259,4960,0,-0.35281494,0.29899827,-9.935901,4960,0
70302354,-0.020166136,0.0013320232,0.063648656,4998,0,-0.41532105,0.41081408,-9.923871,4998,0
70307349,-0.022697778,-0.0021175933,0.05725592,4995,0,-0.44359568,0.5036905,-9.967199,4995,0
70312396,-0.024201559,-0.0044843294,0.0478523,5047,0,-0.45295858,0.5383081,-9.964817,5047,0
70317350,-0.024206886,-0.007712986,0.040479053,4954,0,-0.4456517,0.57386404,-10.017668,4954,0
70322351,-0.020058101,-0.011191711,0.027448162,5001,0,-0.4183846,0.5807284,-10.0567,5001,0
70327350,-0.015090814,-0.011325462,0.01586186,4999,0,-0.34302017,0.59191483,-10.09176,4999,0
70332363,-0.0077796048,-0.011403044,0.004680259,5013,0,-0.20576847,0.59189355,-10.115188,5013,0
70337354,-0.006727139,-0.0075416337,-0.0090809725,4991,0,-0.09168867,0.56244093,-10.152896,4991,0
70342350,-0.008178687,-0.00208208,-0.01853552,4996,0,-0.01464674,0.5333047,-10.170989,4996,0
70347358,-0.0031384807,0.00090485177,-0.028329508,5008,0,0.033087734,0.5259942,-10.134466,5008,0
70352396,0.0010213599,0.0029802986,-0.0381919,5038,0,0.09086739,0.4922107,-10.106351,5038,0
70357362,9.705459e-05,0.0050360053,-0.045138672,4966,0,0.17630312,0.44955903,-10.047217,4966,0
70362350,-0.0013305396,0.003753625,-0.053495385,4988,0,0.19899085,0.40881714,-9.978532,4988,0
70367350,-0.0012646286,0.0018033794,-0.057143304,5000,0,0.21869946,0.38022405,-9.886531,5000,0
70372396,0.0046823565,0.0017501038,-0.062246732,5046,0,0.22552031,0.3373179,-9.8308,5046,0
70377353,0.0057054823,0.002239485,-0.06455441,4957,0,0.20798862,0.28754705,-9.751034,4957,0
70382359,0.007629404,0.002217963,-0.06701389,5006,0,0.16431464,0.25764763,-9.684868,5006,0
70387391,0.0069987494,0.0007832858,-0.06750671,5032,0,0.12538132,0.22716346,-9.628605,5032,0
70392396,0.0034350127,0.0019830435,-0.06578638,5005,0,0.10304975,0.18630132,-9.621321,5005,0
70397347,0.0005428477,0.0025405416,-0.06476014,4951,0,0.07706713,0.1597309,-9.593248,4951,0
70402352,-0.003919607,0.0027858077,-0.06047305,5005,0,0.035042692,0.08280178,-9.646901,5005,0
70407356,-0.005119947,0.0036698987,-0.053761378,5004,0,0.021797013,0.04410469,-9.620028,5004,0
70412399,-0.0114588095,-0.0032401986,-0.047816552,5043,0,0.0070238006,-0.041126616,-9.576705,5043,0
70417357,-0.007685757,-0.003948238,-0.044013083,4958,0,-0.045685627,-0.09987079,-9.645097,4958,0
70422347,-0.0057869162,-0.0065367064,-0.035267755,4990,0,0.00058667175,-0.121845886,-9.671969,4990,0
70427359,-0.0033164332,-0.0072871903,-0.03281259,5012,0,-0.009931196,-0.16212593,-9.697771,5012,0
70432396,-0.0009372288,-0.01103319,-0.023560971,5037,0,-0.008984341,-0.17735209,-9.720831,5037,0
70437347,0.0011110946,-0.011717961,-0.017305518,4951,0,0.027243117,-0.19686355,-9.701229,4951,0
70442349,0.0061185886,-0.011391295,-0.010494487,5002,0,0.030093122,-0.1759889,-9.741228,5002,0
70447347,0.0065724454,-0.009915199,-0.0023196377,4998,0,0.07866942,-0.1394586,-9.78262,4998,0
70452396,0.010281763,-0.010767531,0.0032507062,5049,0,0.077169046,-0.15041384,-9.813099,5049,0
70457347,0.006076514,-0.008969343,0.007888115,4951,0,0.110234,-0.12821819,-9.899933,4951,0
70462347,0.0070812237,-0.011132031,0.011386115,5000,0,0.12928958,-0.11436029,-9.902937,5000,0
70467347,0.0071411743,-0.008576917,0.016154597,5000,0,0.13947093,-0.049786597,-9.974047,5000,0
70472365,0.0052044154,-0.008342737,0.020753961,5018,0,0.15471613,-0.03460961,-10.006194,5018,0
70477355,0.004261087,-0.0054953843,0.021554226,4990,0,0.16471604,-0.028729104,-10.035909,4990,0
70482347,0.0023412076,-0.0031239837,0.02568551,4992,0,0.19152293,0.02449714,-10.078724,4992,0
70487347,0.00041343065,-3.550692e-06,0.025381913,5000,0,0.18487968,0.05847255,-10.153264,5000,0
70492383,-0.004156173,-0.0006637626,0.026987186,5036,0,0.17979217,0.08921942,-10.13608,5036,0
70497350,-0.003830995,-0.0012226556,0.025391169,4967,0,0.1420818,0.09946039,-10.143017,4967,0
70502347,-0.0059631625,-0.0014761284,0.024635551,4997,0,0.15761077,0.112328574,-10.123846,4997,0
70507347,-0.0071740453,-0.0058566127,0.023610014,5000,0,0.13858125,0.12547594,-10.105261,5000,0
70512350,-0.0031180563,-0.0069850106,0.021545537,5003,0,0.13487041,0.12847328,-10.049602,5003,0
70517350,0.0010541572,-0.008877071,0.017338699,5000,0,0.09838663,0.15773776,-10.005622,5000,0
70522350,0.0057579423,-0.0074900053,0.014751927,5000,0,0.10801725,0.17735066,-9.933905,5000,0
70527350,0.0042994116,-0.0073034028,0.012034497,5000,0,0.08252725,0.17654869,-9.867168,5000,0
70532396,0.007585945,-0.006967201,0.010238424,5046,0,0.04863944,0.19977336,-9.76732,5046,0
70537356,0.011736135,-0.0051783333,0.005871184,4960,0,0.041593928,0.21958582,-9.727698,4960,0
70542361,0.014117877,-0.005481206,0.003322227,5005,0,0.05017208,0.20632607,-9.682218,5005,0
70547356,0.009485587,-0.0047117714,-0.00093762664,4995,0,0.0651452,0.23694408,-9.636573,4995,0
70552380,0.011297175,-0.0053537,-0.0029096915,5024,0,0.04156377,0.25443354,-9.593514,5024,0
70557366,0.009408532,-0.002895353,-0.006995272,4986,0,0.049285367,0.2729447,-9.546674,4986,0
70562393,0.006844506,-0.0013803899,-0.0065391846,5027,0,0.0764384,0.26869458,-9.558705,5027,0
70567358,0.006886202,0.0013699642,-0.010929726,4965,0,0.04281554,0.26728046,-9.5994425,4965,0
70572355,0.006374353,0.0007010634,-0.012185564,4997,0,0.011179001,0.2780469,-9.618767,4997,0
70577357,0.004658535,-0.002013637,-0.0148951085,5002,0,0.037325285,0.25787514,-9.598963,5002,0
70582368,0.0050318562,0.0016287848,-0.014629725,5011,0,0.01776664,0.26392886,-9.628736,5011,0
70587377,0.004912259,-0.0006038509,-0.016617037,5009,0,0.028957209,0.26447713,-9.674937,5009,0
70592386,0.00492688,0.0028386095,-0.015893757,5009,0,0.006421571,0.24274611,-9.657951,5009,0
70597398,0.0052002855,0.0065923007,-0.01820993,5012,0,0.0028354707,0.2285976,-9.700039,5012,0
70602361,0.0049562086,0.009407261,-0.017635675,4963,0,0.018562805,0.20054287,-9.672395,4963,0
70607366,0.0051913345,0.012948656,-0.016917855,5005,0,0.03456879,0.2054693,-9.718559,5005,0
70612390,0.0042974437,0.011322342,-0.015607502,5024,0,0.050951105,0.18267389,-9.75285,5024,0
70617347,0.0062224343,0.012129152,-0.015443498,4957,0,0.09179047,0.15282956,-9.726084,4957,0
70622350,0.007537661,0.013160272,-0.014772924,5003,0,0.103879206,0.13909966,-9.759623,5003,0
70627347,0.008440441,0.010506014,-0.01462261,4997,0,0.12714231,0.114415854,-9.823262,4997,0
70632371,0.012087033,0.008013757,-0.010793309,5024,0,0.1522427,0.093775816,-9.883775,5024,0
70637361,0.011948329,0.0067816745,-0.0111044515,4990,0,0.17794302,0.10208374,-9.922339,4990,0
70642406,0.015091948,0.0040907967,-0.008391439,5045,0,0.17232747,0.080348544,-9.96204,5045,0
70647380,0.014140916,0.0023837052,-0.009605718,4974,0,0.16919379,0.10098712,-9.99874,4974,0
70652384,0.009922126,0.0013919446,-0.0064913835,5004,0,0.17149879,0.0822502,-10.09811,5004,0
70657379,0.009225209,0.0006231427,-0.0065339203,4995,0,0.14699988,0.08925408,-10.1056385,4995,0
70662391,0.0062252777,0.0011801277,-0.003906947,5012,0,0.14242956,0.08446394,-10.127955,5012,0
70667393,0.0060592047,0.00047718929,-0.0037667772,5002,0,0.123720065,0.0814681,-10.101523,5002,0
70672365,0.0048884465,0.0005881445,-0.0014829335,4972,0,0.09779167,0.07292998,-10.078767,4972,0
70677372,0.0053833127,0.0001313671,-0.0008661555,5007,0,0.09158801,0.08555471,-10.029612,5007,0
70682394,0.00494745,0.0016198757,-0.0002729006,5022,0,0.069865026,0.057119265,-9.986473,5022,0
70687411,0.0047152685,0.0050058844,0.0004991991,5017,0,0.074383296,0.051647067,-9.964345,5017,0
70692380,0.0064568757,0.00834545,-0.000263931,4969,0,0.08304215,0.07139971,-9.901007,4969,0
70697373,0.0033959341,0.008437038,-0.00091631565,4993,0,0.069380425,0.061503675,-9.818323,4993,0
70702439,0.0051677907,0.0113406805,0.00038236685,5066,0,0.07207077,0.061641987,-9.7716255,5066,0
70707359,0.0009614761,0.012050605,-0.0019112007,4920,0,0.081263945,0.079051495,-9.733197,4920,0
70712399,0.000680254,0.017236065,-0.0025747034,5040,0,0.07631739,0.0880018,-9.73074,5040,0
70717347,-0.0032070274,0.016134627,-0.000956166,4948,0,0.040244523,0.08537906,-9.744129,4948,0
70722347,-0.0027017207,0.019702384,-0.0015109277,5000,0,0.053193804,0.08282656,-9.687648,5000,0
70727347,0.0021392356,0.021946404,-0.0019831937,5000,0,0.04330839,0.09531133,-9.680501,5000,0
70732373,0.0010580659,0.021666015,-0.0017467506,5026,0,0.020550348,0.10760647,-9.691862,5026,0
70737349,0.0024318802,0.019773742,-0.002043571,4976,0,0.021730635,0.10043182,-9.661294,4976,0
70742347,0.004062182,0.018379755,-0.002808845,4998,0,0.026561715,0.13055582,-9.674528,4998,0
70747347,0.003765237,0.017444352,-0.005730263,5000,0,0.0071576745,0.17367588,-9.708408,5000,0
70752352,0.004525716,0.0153834,-0.007030066,5005,0,0.037158165,0.17698947,-9.648283,5005,0
70757347,0.0015097881,0.012659783,-0.008344917,4995,0,0.049681917,0.17886935,-9.66049,4995,0
70762347,-0.0014716071,0.012245304,-0.008206029,5000,0,0.026196169,0.20637354,-9.652421,5000,0
70767350,-0.0026987782,0.009933382,-0.010838256,5003,0,0.025669465,0.20441835,-9.709049,5003,0
70772396,-0.0019977351,0.008799875,-0.011101485,5046,0,0.039509412,0.20521002,-9.748771,5046,0
70777358,0.0008475107,0.0093653165,-0.013893165,4962,0,0.047286946,0.20473233,-9.754857,4962,0
70782347,-0.00088094524,0.0071962476,-0.014982709,4989,0,0.06418155,0.20918876,-9.74797,4989,0
70787356,-0.0006165769,0.0050088614,-0.015696729,5009,0,0.05058929,0.20654929,-9.830677,5009,0
70792400,-0.000100631965,0.007327421,-0.015259557,5044,0,0.103319466,0.17059645,-9.84203,5044,0
70797349,0.0027677969,0.010547218,-0.017155316,4949,0,0.10568249,0.18004732,-9.89353,4949,0
70802347,0.0025441356,0.009997812,-0.021074468,4998,0,0.13037008,0.17463548,-9.94639,4998,0
70807387,0.00015959704,0.011463334,-0.019562855,5040,0,0.115051605,0.1616223,-9.998832,5040,0
70812399,-0.001097584,0.009107899,-0.020556841,5012,0,0.09865701,0.13918929,-10.047236,5012,0
70817402,3.5133155e-05,0.010443385,-0.022507375,5003,0,0.10633348,0.124971576,-10.071911,5003,0
70822347,-0.0012014197,0.010817137,-0.022484161,4945,0,0.12287888,0.110765025,-10.018933,4945,0
70827347,-0.0019892883,0.010970522,-0.020474441,5000,0,0.09313557,0.08808208,-10.082677,5000,0
70832396,-0.0006539327,0.009949149,-0.018603066,5049,0,0.07789205,0.054975107,-10.107805,5049,0
70837356,-1.6551733e-06,0.009528885,-0.020055255,4960,0,0.06361025,0.056246836,-10.0905285,4960,0
70842347,-0.00030535343,0.010328318,-0.016009312,4991,0,0.041906618,0.04713974,-10.004086,4991,0
70847353,0.0010715129,0.0088104885,-0.016815072,5006,0,0.013064143,0.044493448,-9.970147,5006,0
70852396,0.0011660567,0.006728538,-0.013468148,5043,0,0.004346623,0.019602574,-10.0001955,5043,0
70857347,0.000886223,0.009064171,-0.01117403,4951,0,0.010163443,0.02924363,-9.928744,4951,0
70862356,0.00050289824,0.007674677,-0.008535102,5009,0,0.004017149,0.02248686,-9.914928,5009,0
70867347,0.00042700098,0.008516764,-0.0063609853,4991,0,0.026924971,0.012950546,-9.877364,4991,0
70872396,-0.000382327,0.008466756,-0.005696146,5049,0,0.011337888,0.0077134995,-9.867783,5049,0
70877356,-0.0005695863,0.00776773,-0.0021319413,4960,0,0.055781238,0.015447416,-9.852788,4960,0
70882347,-0.0008676302,0.0050047347,-0.00031969062,4991,0,0.054946005,0.028673872,-9.842417,4991,0
70887347,3.005009e-05,0.0015155209,0.001447549,5000,0,0.091442876,0.03396949,-9.839622,5000,0
70892400,0.000109485074,-0.0023265362,0.0040572584,5053,0,0.11402856,0.031523436,-9.856638,5053,0
70897347,0.0007895445,-0.0028205812,0.0043319818,4947,0,0.119803496,0.03594698,-9.822954,4947,0
70902356,-0.0020490615,-0.0014450985,0.009199821,5009,0,0.14760393,0.059842065,-9.806574,5009,0
70907347,-0.00067959377,-0.0025584665,0.008763354,4991,0,0.16889548,0.071086064,-9.775944,4991,0
70912409,-0.00054030697,-0.0025169784,0.0091875065,5062,0,0.15771902,0.10230391,-9.777124,5062,0
70917348,-0.001861211,-0.003748181,0.007590229,4939,0,0.13741966,0.12207568,-9.786,4939,0
70922347,-0.0017242428,-0.0016692749,0.008413466,4999,0,0.1155616,0.13094506,-9.763649,4999,0
70927347,-0.001045918,-0.0005372636,0.008619342,5000,0,0.12408331,0.15076242,-9.73114,5000,0
70932371,-0.0012757395,-0.002086555,0.0064292015,5024,0,0.1179568,0.14781187,-9.672651,5024,0
70937347,-0.0005550642,-0.0007423736,0.005196954,4976,0,0.13472398,0.18171456,-9.719776,4976,0
70942347,0.0007181845,0.0021717907,0.0054547894,5000,0,0.10711297,0.16103728,-9.723757,5000,0
70947349,0.0010020635,0.0027726206,0.004646777,5002,0,0.10945936,0.17380126,-9.723058,5002,0
70952362,0.0032402228,0.0040623574,0.0037082303,5013,0,0.09248249,0.18478027,-9.731876,5013,0
70957347,0.0028484955,0.0033640957,0.001662942,4985,0,0.07611238,0.18986614,-9.772873,4985,0
70962347,0.0018891844,0.0052735433,-0.0007434753,5000,0,0.10103,0.17901534,-9.797723,5000,0
70967347,-0.00055333105,0.003068686,-0.0010936094,5000,0,0.11959679,0.17396554,-9.786008,5000,0
70972396,-0.00054065074,0.0031384968,-0.0008240833,5049,0,0.13642761,0.16127585,-9.805513,5049,0
70977358,0.0029992633,0.0055957455,-0.0043990514,4962,0,0.14451207,0.14363909,-9.826304,4962,0
70982350,0.0019822821,0.0061646183,-0.0037248374,4992,0,0.13135177,0.12192977,-9.880757,4992,0
70987347,0.0007895871,0.0052587655,-0.003079464,4997,0,0.10823755,0.13421287,-9.891839,4997,0
70992398,0.00442386,0.0055115223,-0.004057957,5051,0,0.13753411,0.109941706,-9.84755,5051,0
70997349,0.0042071133,0.0046413154,-0.003481222,4951,0,0.13516109,0.11253797,-9.860762,4951,0
71002350,0.003368699,0.005981373,-0.0031065468,5001,0,0.1304973,0.10738935,-9.912242,5001,0
71007350,0.0006872613,0.0043983012,-0.00038922927,5000,0,0.114851505,0.10118161,-9.89198,5000,0
71012397,0.002620826,0.0048906365,0.0024579854,5047,0,0.13457727,0.08364525,-9.8434305,5047,0
71017398,-0.00070087233,0.00730726,0.0020644949,5001,0,0.11271982,0.08325553,-9.840707,5001,0
71022350,0.000102180675,0.0069030486,0.00069161406,4952,0,0.094429806,0.05270657,-9.851827,4952,0
71027356,0.0018738728,0.006316842,0.0022541264,5006,0,0.08516012,0.05394096,-9.883196,5006,0
71032396,0.00038507275,0.00397786,0.007292792,5040,0,0.09624643,0.068197295,-9.830149,5040,0
71037356,0.0031573984,0.005482582,0.0073282328,4960,0,0.080490075,0.059150342,-9.880443,4960,0
71042350,0.002606155,0.008725054,0.008855398,4994,0,0.0685347,0.05094919,-9.871847,4994,0
71047350,0.0019296482,0.0077971383,0.009887905,5000,0,0.06602522,0.069073334,-9.887776,5000,0
71052378,0.000551685,0.007359489,0.013195335,5028,0,0.04665849,0.06303974,-9.886896,5028,0
71057363,-0.00020008929,0.0059488616,0.014051291,4985,0,0.043680836,0.07476927,-9.869788,4985,0
71062358,-0.0008614092,0.0045037596,0.014739417,4995,0,0.020476315,0.09799003,-9.855424,4995,0
71067350,-0.00077325513,0.004469271,0.013119203,4992,0,0.012803702,0.09786866,-9.866529,4992,0
71072398,-0.001822111,0.0020578832,0.013467839,5048,0,-0.0044057798,0.0965069,-9.885047,5048,0
71077353,-0.0029674491,0.0040373127,0.014653433,4955,0,-0.0031236764,0.11264634,-9.893942,4955,0
71082350,-0.0012226963,0.0016288391,0.013613662,4997,0,0.02636956,0.11395247,-9.856357,4997,0
71087347,-0.0006773081,0.00049242855,0.015221877,4997,0,0.030282905,0.12125763,-9.872291,4997,0
71092370,-0.00092456595,0.0011988214,0.0153921675,5023,0,0.041820094,0.14983805,-9.874857,5023,0
71097353,0.0009598513,0.0012192809,0.012035006,4983,0,0.042449765,0.16390182,-9.845925,4983,0
71102347,-0.0015570741,0.0002770082,0.012814824,4994,0,0.061787,0.15872604,-9.851692,4994,0
71107347,0.0032164177,-0.000101082864,0.011149536,5000,0,0.094585285,0.17194802,-9.861348,5000,0
71112396,-0.0011557101,-0.0014769403,0.009658338,5049,0,0.115459226,0.17477582,-9.861559,5049,0
71117361,-0.0023132472,-0.001931117,0.008413417,4965,0,0.1136123,0.16749382,-9.91276,4965,0
71122394,0.0011061725,-0.003941076,0.0062449155,5033,0,0.12887461,0.16762576,-9.875976,5033,0
71127351,-0.0036584986,-0.0037808453,0.0053558396,4957,0,0.12085109,0.17426197,-9.90142,4957,0
71132401,-0.0018471305,-0.0037915157,0.005086517,5050,0,0.11737355,0.17568035,-9.901721,5050,0
71137350,-0.0010944317,-0.0049349926,0.003872446,4949,0,0.10499119,0.15367559,-9.88137,4949,0
71142365,-0.0037777983,-0.0067471457,0.0029604263,5015,0,0.10141701,0.13530755,-9.874412,5015,0
71147347,-0.0044311513,-0.0053106006,0.001615174,4982,0,0.10780273,0.13681798,-9.89892,4982,0
71152358,-0.0051119537,-0.007673494,0.002403017,5011,0,0.08935692,0.13067885,-9.873616,5011,0
71157364,-0.0047817007,-0.0052983887,-0.00066843734,5006,0,0.044952184,0.11381159,-9.850166,5006,0
71162349,-0.007408385,-0.006018916,0.00069060177,4985,0,-0.0013377905,0.13096517,-9.878955,4985,0
71167368,-0.0071241385,-0.006384419,0.0013835246,5019,0,-0.0012848332,0.12245402,-9.830264,5019,0
71172397,-0.0072122966,-0.007830913,0.0015682046,5029,0,-0.029161226,0.07739445,-9.82832,5029,0
71177354,-0.0064492263,-0.010405629,0.0034474488,4957,0,0.012224134,0.08869623,-9.768652,4957,0
71182354,-0.007086584,-0.005985222,0.00245094,5000,0,0.00602593,0.10316159,-9.824354,5000,0
71187347,-0.005263429,-0.0051303753,0.0012923012,4993,0,-0.008079857,0.112597,-9.849409,4993,0
71192396,-0.0073750555,-0.004148748,0.0037739,5049,0,0.013437502,0.11377653,-9.839207,5049,0
71197350,-0.0050940635,-0.0023231648,0.004126113,4954,0,0.04806428,0.12751022,-9.833826,4954,0
71202347,-0.004824013,-0.004716963,0.0042395345,4997,0,0.036335967,0.15134868,-9.8368025,4997,0
71207360,-0.008135358,-0.008879572,0.004849166,5013,0,0.03426205,0.13571379,-9.876106,5013,0
71212376,-0.008235985,-0.010099984,0.003461505,5016,0,0.04298315,0.16291115,-9.848722,5016,0
71217397,-0.00565114,-0.007741422,0.0023688262,5021,0,0.073673785,0.17605184,-9.875899,5021,0
71222347,-0.0064954665,-0.009765561,0.0022284198,4950,0,0.07680582,0.18333021,-9.927323,4950,0
71227391,-0.005082645,-0.008568119,0.0019043622,5044,0,0.07742807,0.20588599,-9.913004,5044,0
71232373,-0.0063984757,-0.0047600437,-0.00056264526,4982,0,0.093332455,0.23295647,-9.832852,4982,0
71237350,-0.008439216,-0.004545103,-0.0019281207,4977,0,0.0981639,0.22214678,-9.854357,4977,0
71242347,-0.007221042,-0.0033404639,-0.003012152,4997,0,0.08034016,0.2242408,-9.8333,4997,0
71247370,-0.0059865387,-0.0038291654,-0.003736225,5023,0,0.08635936,0.24220441,-9.851647,5023,0
71252398,-0.009409478,-0.0035898662,-0.0028189388,5028,0,0.08003318,0.2460336,-9.862588,5028,0
71257350,-0.008696309,-0.006652458,-0.006405001,4952,0,0.07463164,0.2365995,-9.809566,4952,0
71262350,-0.009356686,-0.0054562897,-0.009124801,5000,0,0.10236334,0.23591302,-9.794227,5000,0
71267373,-0.009883019,-0.0065666554,-0.007556367,5023,0,0.09093789,0.22354792,-9.772725,5023,0
71272400,-0.0063497196,-0.0058657513,-0.011045755,5027,0,0.103334196,0.20610498,-9.821698,5027,0
71277350,-0.008394891,-0.0058953594,-0.012138192,4950,0,0.110595204,0.22053288,-9.798312,4950,0
71282350,-0.008245217,-0.0035230233,-0.011115435,5000,0,0.106683336,0.21065599,-9.793633,5000,0
71287372,-0.006500816,-0.0019593139,-0.015041782,5022,0,0.117445745,0.19767746,-9.773665,5022,0
71292358,-0.004825297,-8.8779925e-05,-0.012738144,4986,0,0.11008507,0.20495991,-9.742448,4986,0
71297350,-0.0042372453,-0.0009246756,-0.012440074,4992,0,0.1065451,0.17408149,-9.768075,4992,0
71302358,-0.005637234,0.0022619392,-0.011748021,5008,0,0.10370406,0.17706142,-9.771021,5008,0
71307364,-0.0018324379,0.0037401754,-0.016476085,5006,0,0.108440325,0.19501385,-9.748639,5006,0
71312378,-0.002986415,0.0042984844,-0.0153185185,5014,0,0.109157056,0.16697356,-9.743931,5014,0
71317367,0.0006979428,0.0035475113,-0.015031584,4989,0,0.14579558,0.17446357,-9.774753,4989,0
71322371,0.0009912021,0.0030797985,-0.013716955,5004,0,0.12995791,0.17501229,-9.752529,5004,0
71327353,-0.00041766858,0.00287952,-0.014354338,4982,0,0.15525182,0.1523607,-9.757003,4982,0
71332381,0.002426724,0.0040174485,-0.015026812,5028,0,0.1458043,0.16376245,-9.751553,5028,0
71337350,9.025375e-05,0.0044656442,-0.013109506,4969,0,0.17706008,0.14047655,-9.742821,4969,0
71342347,-0.0011097346,0.004457055,-0.012274276,4997,0,0.19484988,0.11848427,-9.7765875,4997,0
71347347,-0.0017423981,0.0076990235,-0.011242728,5000,0,0.17509542,0.13763282,-9.714142,5000,0
71352360,-0.0026610442,0.0096743805,-0.012226205,5013,0,0.22809704,0.11429063,-9.733494,5013,0
71357406,-0.002084829,0.011708685,-0.011896961,5046,0,0.12202559,0.09451263,-9.794144,5046,0
71362391,-0.0012914186,0.00915523,-0.00827049,4985,0,0.16635339,0.06431298,-9.810966,4985,0
71367406,-0.001615798,0.0061035077,-0.007542553,5015,0,0.12572378,0.08251066,-9.835759,5015,0
71372392,0.0037311974,0.007262917,-0.0055816057,4986,0,0.15546711,0.09260281,-9.838128,4986,0
71377396,0.004415425,0.00323928,-0.004906152,5004,0,0.14567497,0.09620862,-9.85225,5004,0
71382391,0.004436549,0.0069692535,-0.004538323,4995,0,0.07641537,0.09984695,-9.785653,4995,0
71387406,0.003935818,0.0067128143,-0.0010175281,5015,0,0.13912717,0.10369809,-9.822247,5015,0
71392380,0.0073883627,0.0039082123,-0.00238684,4974,0,0.07683378,0.15109362,-9.844918,4974,0
71397398,0.0057177455,0.005488932,-0.0012500903,5018,0,0.087961584,0.15813811,-9.859197,5018,0
71402392,0.006258978,0.003640688,-0.0011983037,4994,0,0.0732311,0.12582394,-9.80428,4994,0
71407371,0.007844869,0.005644291,-0.0018360211,4979,0,0.012065546,0.123118214,-9.859327,4979,0
71412376,0.005907849,0.007441524,-0.0018390737,5005,0,0.11475563,0.14012715,-9.893205,5005,0
71417377,0.007843454,0.00695588,-0.0020546364,5001,0,0.09549149,0.16090988,-9.870046,5001,0
