timestamp,timestamp_sample,accel_device_id,gyro_device_id,delta_angle[0],delta_angle[1],delta_angle[2],delta_velocity[0],delta_velocity[1],delta_velocity[2],delta_angle_dt,delta_velocity_dt,delta_velocity_clipping
68731697,68731191,2359306,2359306,-1.26305595e-05,2.4164385e-06,-5.577459e-06,0.00064384565,0.0012640487,-0.049084216,5001,5001,0
69231804,69231295,2359306,2359306,4.6365458e-05,1.0546177e-05,-1.4922494e-05,0.00052034017,0.0015283315,-0.04927313,5016,5016,0
69731880,69731376,2359306,2359306,1.08362765e-05,2.7262263e-06,1.7305994e-06,0.0006390187,0.0014194608,-0.0491376,5001,5001,0
70232048,70231456,2359306,2359306,-5.7459918e-05,8.496508e-05,-0.00010933943,0.0021707937,-0.0009815715,-0.0483184,5001,5001,0
70732057,70731549,2359306,2359306,-7.027361e-06,0.00010884017,-1.6495314e-06,0.00047581157,0.0011821298,-0.048361406,5003,5003,0
71232216,71231640,2359306,2359306,-5.521768e-05,-2.84142e-05,5.6564145e-06,0.00085168355,0.0018503726,-0.04936811,5004,5004,0
71732282,71731728,2359306,2359306,-4.663839e-05,5.092848e-05,0.000109784705,0.0011476893,0.0021867792,-0.04986878,4994,4994,0
72232343,72231822,2359306,2359306,0.00017270324,-4.2977586e-05,-6.367383e-05,0.001031598,0.0013416407,-0.049376853,5002,5002,0
72732474,72731911,2359306,2359306,-2.3088274e-05,-8.565984e-05,-1.5569578e-05,0.0009669365,0.002329469,-0.04891157,4998,4998,0
73232548,73232012,2359306,2359306,-0.0001706752,9.989021e-05,1.9564217e-05,0.0017657712,0.001223459,-0.049222764,5001,5001,0
73732620,73732096,2359306,2359306,1.0556781e-05,4.4952587e-05,-1.5023748e-05,0.001131985,0.0011394407,-0.04918411,5001,5001,0
74232693,74232189,2359306,2359306,0.00010090934,7.178672e-06,1.9890556e-05,0.0009924645,0.0017475443,-0.049019475,5000,5000,0
74732956,74732293,2359306,2359306,1.6142908e-06,-2.2167203e-06,-1.4634443e-05,0.00072950404,0.001488467,-0.049363587,5011,5011,0
75233048,75232393,2359306,2359306,-6.522968e-05,-1.38677215e-05,-1.3200825e-05,0.0011595149,0.0010335274,-0.04912757,5016,5016,0
75733172,75732475,2359306,2359306,1.3480599e-05,-1.0723517e-05,-1.5423351e-05,0.0010818192,0.0012962709,-0.049351625,5004,5004,0
76233098,76232567,2359306,2359306,4.6093315e-05,6.955549e-05,-5.1494726e-06,0.0011995934,0.0019120985,-0.048306003,4998,4998,0
76733250,76732663,2359306,2359306,-2.0511861e-06,1.80015e-06,6.794678e-06,0.0011827613,0.0013373354,-0.049053095,4999,4999,0
77734046,77732857,2359306,2359306,-1.832631e-05,-5.5363125e-06,-1.2394823e-05,0.0010828665,0.0012253544,-0.04905992,4986,4986,0
78234435,78232953,2359306,2359306,6.961325e-05,4.5443678e-05,6.4791466e-06,0.0007427876,0.0014681977,-0.04958028,5001,5001,0
78734338,78733051,2359306,2359306,2.2628383e-05,-2.7751134e-05,-4.079623e-05,0.0013843579,0.0011184369,-0.046682723,4995,4995,0
79234108,79233149,2359306,2359306,-2.901467e-06,-6.7570472e-06,4.038897e-06,0.0016749487,0.0015502156,-0.049437128,4999,4999,0
80234134,80233360,2359306,2359306,-6.617813e-06,1.9454792e-05,-1.17814025e-05,0.0012333082,0.0005082222,-0.04887646,5001,5001,0
80734398,80733446,2359306,2359306,5.9292328e-05,-4.8425466e-07,1.9899304e-05,0.0024483213,0.0022881872,-0.04993694,5000,5000,0
81234074,81233546,2359306,2359306,-5.0703846e-05,2.6422087e-05,-4.264106e-05,-0.00044595858,0.000803475,-0.047647618,4988,4988,0
81734208,81733646,2359306,2359306,5.4761604e-05,2.3766108e-05,-6.894003e-05,0.0028819349,0.0007907544,-0.052759502,4999,4999,0
83234464,83233950,2359306,2359306,-2.7952889e-05,1.8506694e-06,0.0001543212,0.0011134056,0.002761996,-0.047468025,5003,5003,0
84234666,84234157,2359306,2359306,-0.00013270897,2.8533548e-05,3.5564768e-05,0.00048595865,0.00047090216,-0.05417636,5001,5001,0
84729788,84729257,2359306,2359306,-9.3333234e-05,-0.00014689521,-4.5010285e-05,0.00046902176,-0.00081884966,-0.046474252,4984,4984,0
85229931,85229359,2359306,2359306,-2.494304e-05,9.931959e-06,-6.9705784e-05,9.341944e-05,0.0050790766,-0.052260008,4999,4999,0
85730022,85729464,2359306,2359306,-0.0003183226,-9.370878e-05,5.708778e-05,-0.0009551764,0.004681534,-0.04246364,5000,5000,0
86230082,86229568,2359306,2359306,-3.157078e-05,-6.817635e-05,1.22658985e-05,-0.0039815083,0.004428002,-0.04305088,4996,4996,0
86730205,86729674,2359306,2359306,5.1535306e-05,5.744514e-05,-4.7629364e-05,-0.00029269376,0.003683929,-0.04425787,4992,4992,0
87230491,87229779,2359306,2359306,-0.0016216241,-0.0017020892,-0.00038670545,0.03353399,0.0015239667,-0.06474375,4997,4997,0
87730544,87729892,2359306,2359306,0.0019689642,0.00090277253,-8.515171e-06,0.021955144,0.014396581,-0.056944676,5006,5006,0
88230674,88229995,2359306,2359306,0.00075904845,0.00057447504,0.00078184676,0.03353747,0.009389992,-0.015194617,5001,5001,0
88730614,88730108,2359306,2359306,-0.0011444738,0.000605785,0.0015099369,0.03431862,0.012682125,-0.029606646,4998,4998,0
89230771,89230207,2359306,2359306,0.0009935923,0.0015225746,0.0005386446,0.02862945,0.002631903,-0.057767227,5000,5000,0
89730850,89730334,2359306,2359306,5.5032637e-05,0.00064988976,-0.0011145175,0.025010182,-0.0062030526,-0.08990498,4997,4997,0
90731167,90730536,2359306,2359306,-0.0016547956,-0.0010984165,-0.0016589559,0.022409905,-0.011368083,-0.038984187,5002,5002,0
91236273,91235662,2359306,2359306,0.0013403145,-0.0009303031,-0.0016600857,0.0153454,-0.011059778,-0.02986859,5019,5019,0
91731325,91730756,2359306,2359306,0.0011890776,0.00047624408,-0.0018242211,0.014369415,-0.014885322,-0.06346104,5002,5002,0
92231379,92230870,2359306,2359306,0.00057778094,4.7339414e-05,-0.0014696585,0.01046023,-0.026189324,-0.045639012,4994,4994,0
92731575,92730978,2359306,2359306,0.00056395325,-0.00010662977,-9.732616e-05,0.0080501065,-0.015880372,-0.038098775,5001,5001,0
93231612,93231087,2359306,2359306,0.0015536078,0.0017019052,-0.0015247074,0.005682277,-0.021987883,-0.065351486,5001,5001,0
93731706,93731199,2359306,2359306,-0.0021286604,0.0003713362,0.00038125238,0.0060485643,-0.016713766,-0.06909887,5001,5001,0
94231879,94231312,2359306,2359306,-2.9695388e-05,0.0009960106,-0.0005406687,0.008164098,-0.017731475,-0.08358041,5001,5001,0
94731929,94731425,2359306,2359306,0.0017923752,0.00013745335,-0.00030626,0.0042937705,-0.019006154,-0.042368546,5000,5000,0
95232045,95231542,2359306,2359306,0.0014195679,2.9930688e-05,-0.00023497238,0.008851209,-0.012523281,-0.04929485,5005,5005,0
95732165,95731654,2359306,2359306,0.002885381,0.0007500408,-0.0018938418,0.013027971,-0.019444924,-0.07104688,5001,5001,0
96232304,96231767,2359306,2359306,0.0012622245,-0.00057548704,0.001336778,0.015036879,-0.024456041,-0.0073350295,4998,4998,0
96732478,96731892,2359306,2359306,0.001079748,0.0006085618,0.00035458236,0.009360144,-0.015218033,-0.034432683,5011,5011,0
97232530,97231997,2359306,2359306,-0.0009967549,3.715225e-05,0.00019340409,0.009063589,-0.012492779,-0.049666442,4997,4997,0
97732633,97732125,2359306,2359306,-0.000453022,0.0004974355,-0.00043893282,0.013299199,-0.02029734,-0.060307145,5012,5012,0
98232744,98232230,2359306,2359306,-0.0013809929,-0.000522078,0.00029924716,0.010556632,-0.022745404,-0.041806303,5002,5002,0
98733016,98732365,2359306,2359306,-0.0005714979,-0.00014722931,0.00019910265,0.013025391,-0.013182979,-0.047939975,5005,5005,0
99233133,99232467,2359306,2359306,0.0005532466,0.00088344235,-0.00072789495,0.010269659,-0.018151026,-0.053892568,5004,5004,0
99733120,99732582,2359306,2359306,-0.00017620703,-6.4665284e-05,-0.00032931456,0.011524996,-0.02026307,-0.046651322,4998,4998,0
100233462,100232705,2359306,2359306,-7.761434e-05,-0.0006160041,0.0007404013,0.013919455,-0.017768497,-0.022529075,5006,5006,0
100734107,100732826,2359306,2359306,-0.00013230513,0.00065238774,-0.00051906996,0.011613851,-0.017497504,-0.057894584,5007,5007,0
101234098,101232942,2359306,2359306,0.0010431961,-0.0005837254,-0.0001978104,0.012394581,-0.01985349,-0.034178667,5002,5002,0
101734482,101733059,2359306,2359306,-0.0007507678,-0.00046615905,0.00072488195,0.016451893,-0.014153832,-0.041866813,5001,5001,0
102234410,102233192,2359306,2359306,0.00018840078,0.00014084751,-0.00016466479,0.016584393,-0.013986836,-0.04695512,5005,5005,0
102734045,102733299,2359306,2359306,0.00071427674,-6.345663e-05,-0.00020532674,0.0139537295,-0.0154004,-0.033241507,5001,5001,0
103234379,103233433,2359306,2359306,-0.00072404416,-0.00015868567,-0.00021334039,0.019004438,-0.019329809,-0.05609613,5006,5006,0
103734447,103733541,2359306,2359306,-0.0020150307,0.00011143935,-3.7028098e-05,0.012839064,-0.013312571,-0.051711462,5000,5000,0
104234306,104233663,2359306,2359306,-0.0017505322,0.0005751236,-0.001046249,0.018316198,-0.014797526,-0.0718749,5003,5003,0
104734374,104733785,2359306,2359306,-0.0015839273,0.00064050546,-0.0017352806,0.01414861,-0.01438001,-0.052688647,4996,4996,0
105234505,105233916,2359306,2359306,-0.0015197474,0.0005978748,-0.0017736745,0.014562216,-0.016024157,-0.049005248,5011,5011,0
105734638,105734031,2359306,2359306,-0.00015707682,0.00092885783,-0.0019306322,0.014848661,-0.013396257,-0.055101383,5003,5003,0
107730053,107729540,2359306,2359306,0.0011050028,0.0011383423,-0.0011355975,0.009129953,-0.008491495,-0.05814756,5016,5016,0
108230158,108229649,2359306,2359306,0.0014807713,0.00059408863,-0.0007644346,0.009596219,-0.0044778013,-0.055754498,4998,4998,0
108730492,108729776,2359306,2359306,-0.0003771914,0.000520659,-0.00018540114,0.007048544,-0.0054050838,-0.06776448,5000,5000,0
109230538,109229923,2359306,2359306,0.00178874,0.00026691082,0.0005973536,0.010895503,0.007239819,-0.05001157,5021,5021,0
109730693,109730029,2359306,2359306,0.0023254175,-0.00028838264,0.00016502419,0.007896117,0.0083596865,-0.051949475,5004,5004,0
110230734,110230169,2359306,2359306,-0.00031889827,3.2247164e-05,1.2990318e-05,0.011308387,0.0055657537,-0.05220635,5017,5017,0
110730809,110730295,2359306,2359306,-0.0012363287,8.776925e-05,0.0007265133,0.006124299,0.005762933,-0.03936528,5010,5010,0
111230916,111230409,2359306,2359306,-0.0013403157,-0.00022843688,0.0012079728,0.009742524,0.008719921,-0.032353714,4999,4999,0
111731051,111730535,2359306,2359306,-0.0017489889,-0.00016054515,0.0001581742,0.010200028,0.0114328265,-0.0380414,4984,4984,0
112231188,112230663,2359306,2359306,-0.0031065543,0.00034663163,0.00015667288,0.01128497,0.010549733,-0.042994518,5000,5000,0
112731346,112730808,2359306,2359306,-0.0027584927,0.0003089652,-0.00045217798,0.007662853,0.014095259,-0.026376164,5016,5016,0
113231426,113230921,2359306,2359306,-0.0021896437,0.00085844315,-0.0013529392,0.011067528,0.015995147,-0.0400833,4996,4996,0
113731577,113731063,2359306,2359306,0.0017766869,0.0010805841,-0.0016385786,0.0037407763,0.010039048,-0.05304153,5007,5007,0
114231736,114231180,2359306,2359306,0.0015722059,0.0013096423,-0.0017607926,0.0011083429,0.008206003,-0.05944727,5001,5001,0
114731831,114731311,2359306,2359306,0.0013632978,0.0014279109,-0.0010253022,0.0016291374,0.011135883,-0.078274384,4999,4999,0
115231986,115231441,2359306,2359306,0.0015924731,0.00063222676,-0.0011415598,-0.014037169,0.008695413,-0.0546656,4998,4998,0
115732089,115731585,2359306,2359306,0.00030176452,0.00051738374,-0.000869774,-0.013111199,0.0043079183,-0.05781139,5014,5014,0
116232254,116231704,2359306,2359306,0.0008569016,0.0002261496,-0.0005967533,-0.011341614,0.003692931,-0.048727293,4992,4992,0
116732440,116731835,2359306,2359306,0.0016748976,-6.058599e-05,-0.00066790776,-0.0072576487,0.003844403,-0.05115498,4998,4998,0
117232533,117231980,2359306,2359306,-6.387387e-05,-0.00033847408,-0.0006260846,-0.00030297812,0.0022816965,-0.048676502,5011,5011,0
117732612,117732102,2359306,2359306,0.0007860315,-0.00049232703,-0.00035252137,-0.00081822654,0.0034152137,-0.026855132,5004,5004,0
119233120,119232503,2359306,2359306,0.0006097789,-0.00016452873,2.4023137e-05,-0.0010621083,0.0008425403,-0.04157674,5005,5005,0
119733255,119732637,2359306,2359306,-1.2165547e-05,4.1241958e-05,0.00022354563,0.0025576167,0.0016606875,-0.054883663,5002,5002,0
120233373,120232768,2359306,2359306,-0.0013681754,0.00012238874,0.00085828285,-0.0009870452,0.0029741453,-0.04536051,4997,4997,0
120734134,120732903,2359306,2359306,-0.0006868109,-0.0004355378,0.00078082783,0.005977347,0.007566389,-0.05117818,5001,5001,0
121234127,121233041,2359306,2359306,-0.00038277812,-0.00067254744,-0.00055630394,0.0007515792,0.006815003,-0.023962311,5003,5003,0
121734408,121733174,2359306,2359306,-0.00068720616,0.0013042929,-0.00039256515,0.0044056578,0.0050297854,-0.065699235,4993,4993,0
122234182,122233310,2359306,2359306,0.0004747423,0.0012926721,-0.00029270296,0.0040422073,0.005335007,-0.07495182,5001,5001,0
122734110,122733446,2359306,2359306,0.0011943296,0.00033566123,-0.0011621368,-0.0009486444,0.009138299,-0.049003385,5000,5000,0
123234507,123233582,2359306,2359306,-0.00084860565,0.00025264607,-0.0011661808,0.0037507145,0.003555436,-0.068252556,4991,4991,0
123734327,123733719,2359306,2359306,-0.0014999948,0.00027131927,-0.00064547337,-0.0021751353,-0.00025009975,-0.051595375,5000,5000,0
124234375,124233856,2359306,2359306,-0.00084234105,-5.6767563e-05,-5.96904e-05,0.002673219,0.0049752602,-0.045545667,4995,4995,0
124734500,124733993,2359306,2359306,0.0013037883,-0.00015771505,-0.0014441304,-0.0010733922,0.0049397144,-0.071073346,5003,5003,0
125234642,125234130,2359306,2359306,-0.0017596777,0.00025758953,-0.0013257231,0.0019881947,0.0032942852,-0.030004416,4996,4996,0
125729943,125729272,2359306,2359306,-0.000927099,0.00080923026,-0.0008581567,-0.0020267821,-0.0009291088,-0.06951051,4999,4999,0
126235013,126234428,2359306,2359306,0.0011886316,0.0005693776,-0.00065237697,-0.005686184,0.0026209243,-0.07253077,5024,5024,0
126730052,126729542,2359306,2359306,0.0013211851,-0.0003387408,-0.0007698589,0.0023289884,0.0053207013,-0.04122778,4998,4998,0
127230201,127229682,2359306,2359306,0.00025274625,3.6436646e-05,-0.00060065335,-0.0006078216,0.0023689063,-0.051253162,4986,4986,0
129230772,129230241,2359306,2359306,0.0011368777,0.00037372913,-0.0010056372,-0.0071314774,0.0100250775,-0.0482182,5000,5000,0
129730890,129730383,2359306,2359306,-0.00058440486,0.00047835286,-0.0007703489,-0.0039190217,0.0019411199,-0.044241693,5002,5002,0
130231162,130230527,2359306,2359306,-0.0017527165,0.0003814051,-0.00013156973,-0.0067639416,0.007094312,-0.040045083,4999,4999,0
130731205,130730664,2359306,2359306,-0.0011985444,0.0008801552,-0.0007468499,-0.0105664125,0.015237447,-0.044354927,4983,4983,0
131231319,131230809,2359306,2359306,0.00022528305,0.0010499321,-0.0012585276,-0.0041934066,0.0031706756,-0.06773154,5002,5002,0
131731459,131730955,2359306,2359306,0.00034071392,0.0009923113,-0.0013808396,-0.006659306,0.0035354185,-0.07068122,5006,5006,0
132231607,132231090,2359306,2359306,-0.00015503661,0.0010212925,-0.00074373157,-0.014104735,0.0059972615,-0.053637344,5000,5000,0
132731756,132731232,2359306,2359306,-0.00028070912,0.0003663169,-0.00073857355,-0.010651206,0.008614551,-0.042212173,5001,5001,0
133231879,133231375,2359306,2359306,-0.00034417326,9.834863e-05,-0.0011621177,-0.008994325,0.007571778,-0.032996085,5001,5001,0
133732038,133731534,2359306,2359306,-0.00040319297,0.0001742008,-0.0011502765,-0.0029643287,0.008529474,-0.047226507,5016,5016,0
134232192,134231665,2359306,2359306,0.0007435936,0.00042458667,-0.0011644738,-0.0061068595,0.00837218,-0.058363955,5004,5004,0
134732345,134731806,2359306,2359306,0.00053730945,0.0006525915,-0.0010610585,-0.011474,0.002341367,-0.058128383,4998,4998,0
135232525,135231954,2359306,2359306,0.0005576875,0.0005772796,-0.00051041116,-0.0041296636,0.006118509,-0.067511275,5004,5004,0
135732607,135732095,2359306,2359306,0.000976691,0.0003270312,-0.00043553283,-0.0053606,0.007877126,-0.06431623,5002,5002,0
136232750,136232239,2359306,2359306,0.0002994383,0.00017351848,-0.000565064,-0.008430487,0.0070571676,-0.06144794,4998,4998,0
136733074,136732386,2359306,2359306,-8.318299e-06,0.0001811175,-0.0003480274,-0.010487312,0.010078701,-0.0492025,5002,5002,0
137233197,137232530,2359306,2359306,-0.00023296705,0.00020062724,-0.00042148156,-0.0040503466,0.004828939,-0.071119905,4981,4981,0
137734105,137732686,2359306,2359306,-0.0006001591,-0.00034507885,5.376153e-05,-0.0045626773,0.0052558295,-0.029066153,4995,4995,0
138235011,138232835,2359306,2359306,0.0004342342,0.00014145205,-0.0006176949,-0.006121473,0.0009539807,-0.055857852,4977,4977,0
138734147,138732969,2359306,2359306,-0.0007178669,-0.00014702934,-0.00028340824,-0.0064567965,0.003450343,-0.04097226,5002,5002,0
139734490,139733279,2359306,2359306,-0.0005446481,7.845223e-05,-0.00044861768,-0.008075551,-0.0010146286,-0.037034255,5019,5019,0
140234440,140233410,2359306,2359306,0.0015177623,8.121265e-05,-0.001002945,-0.0059292875,0.0031945605,-0.05103726,4995,4995,0
140734092,140733557,2359306,2359306,0.0014074366,8.235704e-06,-0.001563429,-0.0036217817,-0.0036224595,-0.04911382,5000,5000,0
141234454,141233705,2359306,2359306,0.004027107,0.00075325096,-0.0018526802,-0.0062380643,-0.01471689,-0.04337867,4976,4976,0
141734757,141733853,2359306,2359306,0.0022055039,0.0006195145,-0.0011459748,-0.002678354,-0.0246728,-0.051200204,4997,4997,0
142234570,142234001,2359306,2359306,-0.0059499997,-0.000448776,0.003067177,-0.006438147,-0.01744846,-0.052223954,5001,5001,0
143234949,143234300,2359306,2359306,0.007065615,-6.571656e-05,-0.0033896654,-0.0006635409,-0.0023388634,-0.046779767,4997,4997,0
143735017,143734448,2359306,2359306,-0.0051494655,-0.001519052,0.00044667415,0.0022826388,-0.02625389,-0.051452376,5003,5003,0
144230120,144229594,2359306,2359306,-0.005945164,0.00021738787,0.0031807618,-0.0058981436,-0.0076663448,-0.06795184,4999,4999,0
144730406,144729744,2359306,2359306,0.005823316,-0.0003375188,-0.0012458231,-0.005973642,0.006488597,-0.061060183,4999,4999,0
146230772,146230195,2359306,2359306,0.00022080264,0.0047564716,-0.0019672166,-0.0007181083,-0.01759555,-0.12412391,5001,5001,0
146730936,146730355,2359306,2359306,0.0021153388,-0.0012886442,-0.0009674007,0.006545658,-0.021761559,-0.034639195,5003,5003,0
147231074,147230508,2359306,2359306,0.0020298497,-0.004026694,0.0011239942,0.019871572,-0.0016578271,0.07051566,5011,5011,0
147731164,147730648,2359306,2359306,0.0029792634,0.0029148515,-0.0007234392,0.006994078,-0.0017948343,-0.07704381,4999,4999,0
148231374,148230803,2359306,2359306,-0.002255904,0.004629847,-0.001888967,0.007837235,-0.015632167,-0.15577818,4997,4997,0
148731468,148730954,2359306,2359306,-0.0019266437,0.00026844657,-0.0002584386,0.011171098,-0.015488178,-0.09784812,5001,5001,0
149231667,149231105,2359306,2359306,-0.00033742498,-0.006766492,0.0015828691,0.0237601,0.00010773234,0.07287809,4994,4994,0
149731788,149731256,2359306,2359306,0.0014156788,-0.0024028793,0.0009159559,0.023641184,0.0033546977,0.032666612,5002,5002,0
150231952,150231408,2359306,2359306,0.0014572289,0.001926216,-0.0008150194,0.01045366,-0.0021808166,-0.071836226,5001,5001,0
150732077,150731564,2359306,2359306,-0.0014568374,0.0012326783,-0.0015683221,0.004782169,-0.014043788,-0.10029732,5004,5004,0
151232296,151231726,2359306,2359306,-0.0031794433,-0.00088719605,0.0005976422,0.007863947,-0.016015438,-0.051892936,5002,5002,0
151732500,151731882,2359306,2359306,-0.003141012,0.0006046018,0.00049101206,0.0021674528,-0.007304638,-0.07688501,5009,5009,0
152232529,152232022,2359306,2359306,0.00033388752,0.0018072288,-0.00085039093,0.0025885704,-0.0077675986,-0.075059414,5000,5000,0
152732684,152732177,2359306,2359306,-0.002617246,0.0018496652,-0.0007793637,0.00095152296,-0.0031097073,-0.092840284,5002,5002,0
153233025,153232364,2359306,2359306,-0.0011965447,0.0017168145,-0.00084597216,0.00033634034,-0.002247359,-0.0671187,5036,5036,0
153733057,153732487,2359306,2359306,-0.00018755277,0.0018699234,-0.001187056,0.0027473317,-0.0027722334,-0.058719084,5004,5004,0
154233171,154232639,2359306,2359306,-0.00025385077,0.0019528437,-0.0010303685,0.009925416,0.0038751327,-0.06704034,4999,4999,0
154734122,154732812,2359306,2359306,0.0021049283,0.0014820164,-0.0013965697,0.011351013,0.00979189,-0.062349133,4976,4976,0
155233504,155232950,2359306,2359306,0.002070281,0.00094105036,-0.0018820171,0.012010076,0.0049716164,-0.06503057,5002,5002,0
155734072,155733118,2359306,2359306,0.0023175955,-0.00040175408,-0.0016912145,0.011073012,0.0039493805,-0.05051117,5012,5012,0
156234086,156233261,2359306,2359306,-0.00021783519,-0.00041872467,-0.0009824578,0.008470787,0.006423194,-0.030034823,4995,4995,0
156734219,156733417,2359306,2359306,-0.00026440638,0.000279794,-0.00041062591,0.004020418,0.007707573,-0.035059553,5001,5001,0
158234403,158233887,2359306,2359306,-0.00096244673,0.0008083302,-0.00089991494,0.002058739,0.014728609,-0.053921103,4995,4995,0
158734617,158734048,2359306,2359306,0.0025788336,0.0006814035,-0.0016187071,-0.00080955925,0.011797963,-0.054931853,5005,5005,0
159234728,159234202,2359306,2359306,0.001217999,0.0011457362,-0.0013079364,-0.001586467,0.008339178,-0.07951241,5002,5002,0
159729947,159729356,2359306,2359306,0.0009635584,0.000834724,-0.0003445249,0.0013591979,0.0051260446,-0.0734525,4995,4995,0
160730187,160729670,2359306,2359306,0.00028709773,0.000741101,-8.949666e-05,0.0033414266,0.0068624513,-0.072532415,4998,4998,0
161230551,161229860,2359306,2359306,0.00092427025,-0.0015755494,-0.000556278,0.0056322636,0.0104678795,-0.032703727,5030,5030,0
161730603,161729990,2359306,2359306,-9.738027e-05,-0.0016690019,-0.0006008866,0.0074692806,0.0076156296,-0.009558533,5002,5002,0
162230663,162230148,2359306,2359306,-0.00024047693,6.904359e-05,-0.00033594872,0.0028938544,0.0013956195,-0.047997035,4996,4996,0
162730866,162730336,2359306,2359306,-0.002124476,-0.00032831365,-0.0014043044,-0.002786035,-0.012522198,-0.048935268,4999,4999,0
163230979,163230464,2359306,2359306,0.0011387735,0.000102723796,0.0020042907,0.0022372734,0.005868081,-0.055742748,5002,5002,0
163731183,163730622,2359306,2359306,-0.0002614902,1.1262485e-05,-0.0030212381,-0.0050291736,-0.000508114,-0.0349735,4999,4999,0
164231308,164230796,2359306,2359306,-0.0018764767,-0.00018462377,0.0007953201,-0.004225654,-0.011964535,-0.049564857,5004,5004,0
164731492,164730951,2359306,2359306,0.0028227265,-0.00023544322,0.0013450399,-0.008230348,0.013271356,-0.050391253,4993,4993,0
165231619,165231104,2359306,2359306,-0.00038115346,0.00048220993,-0.0033853713,-0.0036624689,-0.0011471068,-0.055710282,5002,5002,0
165731779,165731272,2359306,2359306,-0.002584658,-0.000366457,0.0003864672,-0.005495862,-0.015902488,-0.054226723,5000,5000,0
166231926,166231422,2359306,2359306,0.0021018607,0.00010949769,0.0017886172,-0.0035246136,0.009979396,-0.05547292,4999,4999,0
166732102,166731592,2359306,2359306,-0.0005793003,0.00063173927,-0.0035932048,-0.005638733,-0.00011272415,-0.06306437,5009,5009,0
167232246,167231743,2359306,2359306,-0.0020980446,-0.00018957844,0.0012954265,-0.0054082815,-0.013007742,-0.04562889,4992,4992,0
167732482,167731907,2359306,2359306,0.0028780394,-0.0006719297,0.00032278674,-0.0026609632,0.014311334,-0.043310784,5001,5001,0
168232583,168232072,2359306,2359306,-0.0017040883,0.00068340887,-0.004394626,-0.010171959,-0.0075909276,-0.059719447,5007,5007,0
169733297,169732553,2359306,2359306,-0.0012422766,0.0002917662,-0.0031232287,-0.0068278466,-0.010572841,-0.056893375,5002,5002,0
170234512,170232711,2359306,2359306,-0.0021258642,5.2848256e-05,-0.00030358115,-0.009203429,-0.015484918,-0.038002923,5001,5001,0
170734327,170732879,2359306,2359306,0.00022660228,0.0008732731,-0.00028718042,-0.012777048,-0.004230703,-0.062439322,5005,5005,0
171234047,171233051,2359306,2359306,0.0012955321,0.00046681776,-0.00089190167,-0.014263332,-8.513209e-05,-0.049640864,5015,5015,0
171734092,171733201,2359306,2359306,0.00065214233,0.0003803083,-0.0008499614,-0.013123249,-0.004135491,-0.049687386,5001,5001,0
172234060,172233363,2359306,2359306,0.0020399275,0.0001298798,-0.0010680058,-0.0048777987,-0.0039972225,-0.05008783,5001,5001,0
172734252,172733526,2359306,2359306,0.0008675191,0.0001282809,-0.001149726,-0.011904621,-0.009422074,-0.05298746,5000,5000,0
173234621,173233689,2359306,2359306,-0.0002476788,-0.00068298896,-0.00041807024,-0.0076544187,-0.00739317,-0.04272097,4997,4997,0
173734383,173733860,2359306,2359306,-0.00016607069,1.690421e-05,9.266287e-05,-0.010205689,-0.0037677905,-0.033147182,5007,5007,0
174234579,174234016,2359306,2359306,-7.20643e-05,4.7846035e-05,-0.00042865155,-0.0043238653,-0.0049393983,-0.063466735,5003,5003,0
174729690,174729187,2359306,2359306,0.0002901774,0.0002305945,-0.00028086218,-0.007296613,-0.0067705177,-0.0609682,5010,5010,0
175234948,175234348,2359306,2359306,-0.00018019853,0.00012687946,-1.2289534e-05,-0.012466691,-0.005392237,-0.048463896,5005,5005,0
175735032,175734509,2359306,2359306,0.0001695642,0.0004804133,-0.00024737077,-0.015400395,-0.0016639971,-0.044514842,5004,5004,0
176235207,176234684,2359306,2359306,0.00017408148,0.00041513273,-0.00055325555,-0.0081107225,-0.0029172935,-0.06129061,5015,5015,0
176730548,176729856,2359306,2359306,-0.00021921576,0.00022986873,-0.0006367562,-0.015519465,-0.0018546762,-0.046446554,5012,5012,0
177730760,177730180,2359306,2359306,-0.000711437,0.00011203007,5.630448e-05,-0.008026814,0.0012522272,-0.056241,5018,5018,0
179231170,179230662,2359306,2359306,-0.0007842139,0.00066141965,-0.0010262887,-0.0058116387,0.01684136,-0.039635103,5003,5003,0
179731385,179730827,2359306,2359306,-0.0010980822,0.000870247,-0.0010464328,-0.0034464668,0.012870947,-0.043127336,5002,5002,0
180231520,180231000,2359306,2359306,-0.0012647497,0.00087983825,-0.0010196373,-0.005258199,0.011179161,-0.037513644,5009,5009,0
180731716,180731156,2359306,2359306,-0.0010058518,0.0007970358,-0.0010748649,-0.0044654934,0.0077562323,-0.033126213,4993,4993,0
181231842,181231331,2359306,2359306,-0.00034777884,0.0013055007,-0.0006644432,-0.008568295,0.01245538,-0.04390592,5001,5001,0
181732007,181731493,2359306,2359306,3.6350553e-05,0.0014418095,-0.0016944532,-0.014537307,0.008828998,-0.05671043,5012,5012,0
182232190,182231663,2359306,2359306,0.0019523635,0.0014179377,-0.001489031,-0.01964724,0.017405264,-0.0794098,5009,5009,0
182732399,182731821,2359306,2359306,0.003922471,0.0012383029,-0.0017584387,-0.013979624,0.0029119877,-0.08897724,4987,4987,0
183232548,183231988,2359306,2359306,0.0016260678,-6.323452e-05,-0.0012416559,-0.016370403,-0.0016768497,-0.041303538,4998,4998,0
183732666,183732157,2359306,2359306,8.175196e-05,-9.475296e-05,-0.00041175046,-0.011370599,-0.0024540587,-0.049817987,5003,5003,0
184233082,184232335,2359306,2359306,-0.0006402056,1.8074783e-05,0.0003432285,-0.0053774733,-0.004819882,-0.049568634,5013,5013,0
184733184,184732493,2359306,2359306,0.00020872922,0.0001693816,0.00022048823,-0.009708017,0.0017638475,-0.059222855,5005,5005,0
185233353,185232657,2359306,2359306,0.0019613495,-0.00017204521,-0.0008409822,-0.015256772,0.0012258602,-0.05035562,4993,4993,0
185734527,185732826,2359306,2359306,0.0006885872,-0.00013950064,-0.0007038133,-0.013037935,-0.003300888,-0.030430796,4959,4959,0
186234308,186232997,2359306,2359306,-0.00016386434,0.00029761295,4.2272142e-05,-0.014342001,-0.004677843,-0.07823122,5004,5004,0
186734516,186733163,2359306,2359306,0.00079212367,0.00056728255,-0.0002884416,-0.01614468,-0.0034805618,-0.057728566,5002,5002,0
187234574,187233334,2359306,2359306,0.00033862746,0.00054723775,-0.00026258067,-0.010628578,-0.0038254634,-0.04166678,4994,4994,0
187734096,187733499,2359306,2359306,6.8373556e-05,-9.185402e-05,-0.00011895915,-0.01244293,-0.012663196,-0.03495174,5000,5000,0
188234333,188233668,2359306,2359306,0.00013567311,-0.0005350812,-2.5940733e-05,-0.00039020635,-0.0077380426,-0.024901511,4993,4993,0
188734404,188733845,2359306,2359306,0.0032089516,7.6940494e-05,-0.00063663087,-0.007287672,-0.008596338,-0.03529512,4995,4995,0
189234517,189234006,2359306,2359306,0.0024507754,0.00030082132,-0.0016611967,-0.0073261173,-0.023632158,-0.031901598,5004,5004,0
189734721,189734181,2359306,2359306,-0.005283099,-0.00031266216,0.0026595513,-0.006842889,-0.016670622,-0.054403145,5003,5003,0
190234945,190234345,2359306,2359306,-0.0014272316,0.00034506703,0.0016744026,-0.010858833,-0.00063651905,-0.061230205,5005,5005,0
190735039,190734513,2359306,2359306,0.00628631,0.0006716797,-0.0024417194,-0.009572784,-0.004746289,-0.054869264,5004,5004,0
191235223,191234684,2359306,2359306,-0.0030059514,-0.00067556737,-0.00034419438,0.0019724034,-0.022420738,-0.038217813,5005,5005,0
191730529,191729860,2359306,2359306,-0.0053887665,0.00020155247,0.0023957212,-0.0023069999,-0.015496229,-0.06978024,4986,4986,0
192235539,192235023,2359306,2359306,0.0003371609,0.0009359491,-0.00057456363,1.8637818e-05,-0.0008389937,-0.057904802,5001,5001,0
192730756,192730189,2359306,2359306,0.0041124043,0.0002978119,-0.0034422746,-0.0010451592,-0.018224835,-0.047407094,5001,5001,0
193230880,193230359,2359306,2359306,0.0019825802,-0.0010774871,0.00013968225,-0.0016109258,-0.01774213,-0.0050134403,5001,5001,0
193731085,193730529,2359306,2359306,-0.0026142306,0.0005200594,0.0014303204,0.0011775416,-0.014236874,-0.0739127,4999,4999,0
194231236,194230699,2359306,2359306,-0.0051848614,0.0012979114,-0.00017123522,-0.0037451996,-0.014089732,-0.0782698,4993,4993,0
194731435,194730873,2359306,2359306,-0.0045211692,0.000614999,-0.00038568204,0.0026595977,-0.009846208,-0.09721147,5003,5003,0
195231566,195231048,2359306,2359306,-0.0013791423,0.0003745893,-0.0014735087,0.005495457,-0.006745406,-0.040559296,5003,5003,0
195731740,195731213,2359306,2359306,0.0012997735,0.0012762912,-0.002569606,0.0063806833,-0.009047158,-0.06725306,5003,5003,0
196231891,196231387,2359306,2359306,0.00010812339,0.0010030663,-0.002581227,0.00070551166,-0.014876281,-0.042151112,5006,5006,0
196732073,196731557,2359306,2359306,-0.00065725413,0.001099953,-0.0018541252,0.00049566483,-0.018968882,-0.04206668,5005,5005,0
197232242,197231727,2359306,2359306,0.0006410462,0.0020242059,-0.0012831085,-0.0021508513,-0.012950975,-0.07268369,5001,5001,0
197732465,197731896,2359306,2359306,0.0004469978,0.0022504698,-0.0018151769,6.215431e-05,-0.011272887,-0.09893991,4998,4998,0
198232575,198232068,2359306,2359306,7.587652e-05,0.0005329171,-0.0015215337,-0.0013259754,-0.007209972,-0.062970586,4991,4991,0
198732754,198732240,2359306,2359306,-0.00022840248,0.00066779915,-0.00072715344,-0.0022535136,-0.009667813,-0.05195282,5002,5002,0
199233131,199232413,2359306,2359306,0.0008337393,0.00092925015,-0.00059996545,-0.0003055628,-0.0018711621,-0.065623306,4999,4999,0
200233424,200232760,2359306,2359306,-0.00041310667,-0.0005940629,-1.3922223e-05,0.0041874284,0.00023514467,-0.023061752,4995,4995,0
200734078,200732931,2359306,2359306,-0.0016355503,-0.00043586444,0.00053816574,0.003761092,0.009913466,-0.028086197,5002,5002,0
201234342,201233105,2359306,2359306,-0.00096684555,-3.9683994e-07,-0.00011893233,-0.00032881447,0.014057476,-0.047519423,4997,4997,0
201734250,201733275,2359306,2359306,-0.00079696975,0.0008454671,-0.0002893226,-0.0025838267,0.009926271,-0.0445934,5002,5002,0
202234137,202233449,2359306,2359306,-0.0005737644,0.0013409668,2.0848296e-05,0.00022218366,0.013620094,-0.0934319,4979,4979,0
202734131,202733622,2359306,2359306,6.741011e-06,8.459161e-05,-0.0017363642,0.00062793784,0.015338973,-0.047135156,4994,4994,0
203234310,203233795,2359306,2359306,-0.0018199302,0.0010827992,-0.00075038447,-0.006551635,0.010515184,-0.06955085,5004,5004,0
203734496,203733970,2359306,2359306,0.00031589076,0.0010163947,-0.00040944887,0.001010187,0.012982778,-0.0680996,4989,4989,0
204234657,204234143,2359306,2359306,-0.0016969733,0.00018889159,-0.0017099918,-0.00085832464,0.013888111,-0.050577756,5002,5002,0
204729922,204729311,2359306,2359306,0.002727076,0.0001145246,-0.00123438,0.00047352773,0.009143176,-0.011772593,4999,4999,0
205235028,205234493,2359306,2359306,0.0012733571,0.00057441473,-0.0008805523,-0.0020241574,0.006592003,-0.066216365,5008,5008,0
205730180,205729661,2359306,2359306,0.0014017621,-0.0002129071,-0.0005219587,0.0022642876,0.006404691,-0.038352966,5003,5003,0
206235576,206234846,2359306,2359306,0.0014724637,-0.0001683954,-0.00019408987,-0.0060160444,0.007989521,-0.040868603,5004,5004,0
206730583,206730010,2359306,2359306,-0.00055411935,0.00017043775,-0.00020233847,-0.0077289427,0.01309358,-0.041877326,5003,5003,0
207730863,207730356,2359306,2359306,-0.0008309554,0.00012930944,-0.00013163289,-0.008123242,0.008799202,-0.052879564,5000,5000,0
208231036,208230532,2359306,2359306,-0.002517902,0.00027409484,-0.0004847084,-0.0033066424,0.01258427,-0.022126466,5002,5002,0
208731282,208730715,2359306,2359306,0.00017459325,0.0010352257,-0.00029906092,-0.005685558,0.010262798,-0.074453525,5011,5011,0
209231386,209230880,2359306,2359306,0.00029549608,0.0002578805,-0.0006653795,-0.007953749,0.011805829,-0.05388126,5001,5001,0
211732279,211731755,2359306,2359306,-0.0005702182,0.00051642105,0.00020572366,-0.0068676216,-0.0008065025,-0.065725915,4999,4999,0
212232517,212231930,2359306,2359306,-0.00055991235,0.000470886,-8.399187e-05,-0.008359919,0.004618812,-0.0564896,4993,4993,0
212732616,212732109,2359306,2359306,-0.00027972605,-5.0152536e-05,-0.00072840357,-0.0019620562,0.008856238,-0.05461135,4999,4999,0
213232786,213232282,2359306,2359306,0.00027636412,-0.00018309872,-0.0009747664,0.00028927164,0.0018089712,-0.053788535,4996,4996,0
213733148,213732461,2359306,2359306,0.0015440703,-1.8420496e-06,-0.0012490711,-0.007316665,-0.0005785108,-0.04562721,5001,5001,0
214233313,214232642,2359306,2359306,-0.00073220994,-0.00011705996,-0.00072973414,-0.009968516,-0.003823163,-0.033863746,5004,5004,0
214733436,214732811,2359306,2359306,-0.0013120263,-0.00018142378,-0.00018598113,-0.007256461,-0.003684507,-0.042128623,4979,4979,0
215234453,215232987,2359306,2359306,-0.00065861613,0.00038909147,-0.00023675455,-0.010716005,0.0001083676,-0.05355089,5001,5001,0
215734340,215733163,2359306,2359306,0.00047560548,0.00026739892,-0.00035581063,-0.0125705525,0.00070131465,-0.047511455,4998,4998,0
216234031,216233341,2359306,2359306,0.00039730227,-8.604531e-06,-0.00047352258,-0.011474447,0.00064149866,-0.041336752,4992,4992,0
216734370,216733518,2359306,2359306,0.001073615,-2.796785e-05,-0.00033749203,-0.008570466,0.00015915558,-0.049164753,5001,5001,0
217234213,217233694,2359306,2359306,-0.0007899575,0.00015094344,-0.00028351136,-0.0044841394,-0.0006462446,-0.05565322,5000,5000,0
217734406,217733870,2359306,2359306,0.00014496599,-0.00011732231,-0.00026522463,-0.009671305,-0.0019261648,-0.04115961,4983,4983,0
218234568,218234047,2359306,2359306,-0.00033109912,-6.691222e-05,-0.0003655566,-0.0025838644,-0.0024481895,-0.052432284,5001,5001,0
218729738,218729234,2359306,2359306,-0.0005617386,-0.00018061108,-0.00044398164,-0.00873642,-0.0038723988,-0.03813821,5012,5012,0
219229962,219229402,2359306,2359306,-0.0015938346,-4.9601822e-05,-0.00037969934,-0.008797929,-0.0041955216,-0.043818403,5004,5004,0
219735108,219734580,2359306,2359306,-0.00071658415,-0.00017205415,-0.000454104,0.00087498245,-0.0020787362,-0.049323604,5004,5004,0
220235475,220234757,2359306,2359306,0.00028207985,0.0003482357,-0.00040741634,-0.015372086,-0.00014981332,-0.050669186,5003,5003,0
220730504,220729945,2359306,2359306,0.0016128035,0.00028765376,-0.00083370367,-0.01936722,-0.0020243179,-0.049798213,5012,5012,0
221230680,221230130,2359306,2359306,0.0020111217,-0.00032280173,-0.0011362103,-0.008781589,-0.0034307349,-0.048993662,4984,4984,0
221730851,221730334,2359306,2359306,-0.00063516025,-0.0002946093,-0.0005380522,-0.00898223,-0.0049814996,-0.03832381,5048,5048,0
222231069,222230467,2359306,2359306,-0.0007969176,-0.00013868227,0.00019432847,-0.008632237,-0.004900968,-0.04952364,5002,5002,0
222731169,222730652,2359306,2359306,-0.00018244104,-0.00013387157,9.666473e-05,-0.008084867,-0.0035989182,-0.040121667,4998,4998,0
223231335,223230824,2359306,2359306,0.002072694,-0.00019219265,-0.0004191314,-0.008215335,-0.0021829254,-0.042241316,4991,4991,0
223731571,223731006,2359306,2359306,-0.0001845195,-0.00025004052,-0.0005726868,-0.008326677,-0.006041131,-0.04465448,5004,5004,0
224236704,224236183,2359306,2359306,-0.0005677032,-0.0002609913,4.615191e-05,-0.008887648,-0.0067320243,-0.043769307,4995,4995,0
224731889,224731372,2359306,2359306,-0.00080774585,-5.902769e-05,0.00015071883,-0.0091567,-0.0065861032,-0.04631801,5017,5017,0
225232046,225231542,2359306,2359306,0.0003641372,-0.00011112993,-0.00015359615,-0.009466569,-0.00406032,-0.05087036,5009,5009,0
225732300,225731715,2359306,2359306,-0.00018328415,-5.624798e-05,-0.0004475745,-0.0088419365,-0.005269379,-0.052101225,4985,4985,0
226232458,226231893,2359306,2359306,-0.00034936387,-0.00010785354,-0.0003335244,-0.009305555,-0.005955162,-0.042598255,5002,5002,0
226732594,226732074,2359306,2359306,0.0004071022,-3.8281978e-05,-0.00030391902,-0.008883385,-0.006154564,-0.04726127,4992,4992,0
227232950,227232251,2359306,2359306,-0.0007534827,-9.901318e-05,-0.00014479266,-0.009322463,-0.0042893416,-0.051950987,5002,5002,0
227733115,227732434,2359306,2359306,-0.0006421864,-3.002851e-05,-0.00068486115,-0.010147103,-0.0052889143,-0.048343904,5005,5005,0
228233394,228232610,2359306,2359306,-0.0045985105,1.1044727e-05,0.0008082637,-0.01101202,-0.003326802,-0.060472544,4999,4999,0
231234252,231233690,2359306,2359306,-0.0015784467,7.0621245e-05,-0.00044006776,-0.013188132,-0.0029732399,-0.042603184,5000,5000,0
231734395,231733870,2359306,2359306,-0.0013820386,0.00039737392,-0.00011691428,-0.012882257,-0.0032346172,-0.042608052,5003,5003,0
232234667,232234051,2359306,2359306,0.0011841226,0.0011657217,-0.0008410974,-0.014996586,-0.001648335,-0.06921047,5002,5002,0
232729738,232729229,2359306,2359306,-0.0016119473,0.0011988552,-0.00088074466,-0.015423208,-0.0013300325,-0.065501876,5002,5002,0
233229988,233229416,2359306,2359306,0.0008036081,0.001565491,-0.00135525,-0.01547079,-0.0035588548,-0.08209375,5008,5008,0
233735126,233734595,2359306,2359306,0.001405073,0.0014787461,-0.0014714121,-0.016467506,-0.006667886,-0.076845415,5005,5005,0
234230286,234229769,2359306,2359306,0.0003288497,0.00087443384,-0.0013160475,-0.013847935,-0.0037840998,-0.08676905,4999,4999,0
234730570,234729952,2359306,2359306,-0.001538739,0.00021955799,-0.0005319296,-0.012681121,-0.0096699,-0.061980765,5001,5001,0
235235669,235235143,2359306,2359306,-0.00072390225,-0.00019318117,-0.00015453147,-0.010506849,-0.00079595495,-0.038228597,5010,5010,0
235730920,235730334,2359306,2359306,0.0017811324,-4.6702255e-05,-0.0013192211,-0.012237659,-0.003923425,-0.047266424,4993,4993,0
236231008,236230493,2359306,2359306,0.0029563643,-0.00054407306,-0.0017479899,-0.011461339,-0.004136725,-0.036990196,4999,4999,0
236731216,236730674,2359306,2359306,-0.002058167,-0.00054231856,-0.00072209956,-0.011435419,-0.011834366,-0.045309797,4998,4998,0
237231435,237230867,2359306,2359306,0.0011858884,-6.762914e-05,-7.370682e-05,-0.009926851,-0.010305616,-0.029457424,5009,5009,0
237731571,237731040,2359306,2359306,0.0018436109,0.00024789845,-0.00020829514,-0.011550714,-0.009259803,-0.044059902,5001,5001,0
238231751,238231238,2359306,2359306,0.00097146543,-1.2603803e-05,-0.00021546189,-0.011504479,-0.012198815,-0.046027046,5013,5013,0
238731917,238731401,2359306,2359306,0.00066833483,-0.00015748391,0.0005954701,-0.00947577,-0.013228447,-0.0332617,5002,5002,0
239232109,239231592,2359306,2359306,0.0013213899,0.0007757553,0.00062788755,-0.010845149,-0.010084422,-0.07806257,5011,5011,0
239732339,239731765,2359306,2359306,0.0002653741,0.0007355408,0.00023491347,-0.011131754,-0.011137966,-0.060085785,4999,4999,0
240232517,240231946,2359306,2359306,-0.0014717234,0.00031181885,0.0001765805,-0.009394547,-0.011743483,-0.056787767,5000,5000,0
240732649,240732129,2359306,2359306,-0.0011129891,-0.0005381694,0.0003466121,-0.008887569,-0.012041673,-0.06121311,5000,5000,0
241233018,241232311,2359306,2359306,-0.00061143783,-0.00022000044,0.00035979462,-0.009165131,-0.011865018,-0.03253461,4990,4990,0
241733140,241732498,2359306,2359306,0.00035224948,0.0008815943,-2.2608512e-05,-0.010789533,-0.009116772,-0.049282424,5003,5003,0
242734540,242732866,2359306,2359306,-0.00048194217,-0.00029401857,0.00025760842,-0.008601572,-0.011956279,-0.048627973,5008,5008,0
243234631,243233043,2359306,2359306,0.0019070469,0.00059500866,-0.00058658415,-0.007672815,-0.010778282,-0.03437621,5002,5002,0
243734191,243733225,2359306,2359306,0.0003539826,-0.00051814766,-0.0003432498,-0.005778616,-0.013711523,-0.042118624,5001,5001,0
244234330,244233408,2359306,2359306,-0.00042954172,-0.0008563357,0.0012735229,-0.00470922,-0.012222676,-0.03145757,5000,5000,0
244734401,244733591,2359306,2359306,0.0011501934,0.0017987556,0.00082608825,-0.0047542537,-0.009763181,-0.050461788,5000,5000,0
245234297,245233774,2359306,2359306,-0.0072119683,0.00042663506,0.0016241367,-0.006050951,-0.0082428865,-0.06396404,5000,5000,0
245734500,245733957,2359306,2359306,-0.0028880062,-5.5676308e-05,-7.3244046e-06,-0.0034248459,0.0019288334,-0.045988727,5002,5002,0
246234692,246234149,2359306,2359306,7.1848095e-05,0.0015965694,-0.0055707586,-0.014757358,-0.002954634,-0.054359213,4998,4998,0
246729887,246729320,2359306,2359306,0.0038137948,-0.0005999031,-0.024818351,-0.015707308,-0.076373465,-0.035770923,4984,4984,0
247235027,247234509,2359306,2359306,-0.00394983,-0.0021149586,0.00063099334,0.021046145,-0.0029692347,-0.04681376,5005,5005,0
247730193,247729687,2359306,2359306,0.0014796,-0.00019582442,0.0002147882,-0.002160054,-0.0046471143,-0.050858118,4986,4986,0
248230616,248229885,2359306,2359306,0.00019738487,1.3372531e-06,-3.430965e-05,-0.0031935151,-0.0017046429,-0.048756193,5015,5015,0
249230847,249230246,2359306,2359306,-1.2162318e-05,3.0662522e-07,-9.449965e-06,-0.0027948169,-0.0013159022,-0.048955735,5009,5009,0
249730929,249730422,2359306,2359306,-1.585052e-05,-3.397387e-06,-1.4886163e-05,-0.0029954533,-0.0013307977,-0.048875716,5001,5001,0
250231164,250230612,2359306,2359306,-2.830605e-07,2.37131e-06,-6.939653e-06,-0.003066086,-0.00132595,-0.048817743,5005,5005,0
250731322,250730796,2359306,2359306,-2.3188435e-05,4.348313e-06,-1.0521481e-05,-0.0029567578,-0.0012821613,-0.04881544,5006,5006,0
251231478,251230974,2359306,2359306,-2.2525392e-05,5.125948e-06,-1.9163912e-05,-0.0029545121,-0.0013452764,-0.04873704,4998,4998,0
251731666,251731159,2359306,2359306,-9.789429e-07,1.0669432e-05,-4.317507e-06,-0.003068677,-0.0014967808,-0.04879513,5002,5002,0
