timestamp,timestamp_sample,xyz[0],xyz[1],xyz[2]
68282820,68282350,-0.062051788,-0.0020612031,0.054334894
68285324,68284853,-0.16334888,0.09081109,0.11389632
68287859,68287391,-0.07189715,0.0595369,0.1419096
68290310,68289847,0.08780901,0.031127876,0.118728936
68292859,68292396,0.08293557,-0.030269684,0.069866456
68295335,68294871,0.047604695,-0.13741836,0.017728431
68297816,68297347,0.022617297,-0.18255816,-0.02104099
68300310,68299847,0.03308393,-0.16362071,0.011723116
68302820,68302347,0.015016273,-0.07533203,0.032182876
68305318,68304853,0.01934687,0.07029451,-0.0759158
68307817,68307347,0.11385064,0.16801642,-0.18371794
68310311,68309847,0.0752788,0.16948956,-0.19591641
68312865,68312397,-0.019845024,0.12127622,-0.15851712
68315321,68314856,-0.044115677,0.06369388,-0.11482464
68317831,68317356,-0.0071996823,-0.008580935,-0.09568119
68320349,68319884,0.0792897,-0.066242985,-0.05800026
68322818,68322347,0.06638538,-0.06370541,-0.022550115
68325337,68324850,0.02930429,-0.004822416,-0.044754006
68327813,68327351,0.17517336,-0.011234835,-0.04497916
68330316,68329847,0.343475,-0.07752905,-0.023351792
68332879,68332411,0.24900946,-0.03278669,-0.03407388
68335323,68334854,0.03397007,0.07704037,0.0613189
68337809,68337347,-0.07672713,0.14859967,0.1784223
68340351,68339887,-0.044209678,0.12603252,0.13704824
68342813,68342347,-0.030064682,0.03401717,0.105190046
68345323,68344850,-0.078934796,0.025409574,0.07971138
68347813,68347350,-0.073817186,0.028706517,-0.022297166
68350314,68349851,-0.08844129,-0.021195548,-0.16921726
68352864,68352396,-0.10150986,-0.04774653,-0.2819486
68355338,68354873,-0.04832754,-0.051784832,-0.32487836
68357812,68357349,-0.059203397,0.014131638,-0.23384015
68360332,68359847,0.0082122665,0.0828913,-0.07378494
68362823,68362356,0.23923743,0.009833046,0.03311016
68365323,68364851,0.34032184,-0.1595011,0.10183765
68367811,68367347,0.33741003,-0.2567885,0.085160606
68370335,68369873,0.21027893,-0.17001326,0.048443127
68372835,68372375,-0.03344998,0.013875316,0.09426874
68375328,68374856,-0.08321338,0.10926775,0.113960326
68377813,68377350,-0.015536497,0.13628049,0.109973945
68380313,68379847,0.05768701,0.163752,0.12870668
68382854,68382391,0.2214477,0.100502595,-0.0077751614
68385317,68384850,0.28815168,-0.012607698,-0.20510772
68387812,68387347,0.12003357,-0.11353564,-0.12794144
68390313,68389847,-0.022647344,-0.15585473,0.040610857
68395324,68394853,0.05167464,-0.08272576,0.07703518
68397816,68397350,0.0041876184,-0.012121391,-0.0063473308
68400330,68399847,-0.064357445,0.07832905,-0.07608944
68402822,68402347,-0.10134012,0.106908545,-0.09666482
68405320,68404850,-0.09709061,0.052885335,-0.034100097
68407812,68407347,-0.06664192,0.045382682,0.04740092
68410319,68409856,0.0060962085,0.028605452,-0.0034506076
68412819,68412353,0.13100119,-0.013981098,-0.03855831
68415323,68414850,0.2670266,0.0014300914,0.05161436
68417824,68417360,0.2893032,-0.02972994,0.10190235
68420344,68419863,0.105341725,-0.0041246046,0.03359064
68422831,68422355,-0.056020062,0.08854954,-0.010156976
68425320,68424852,-0.0002696621,0.10192422,0.023848733
68427814,68427349,0.16866991,0.09127801,-0.0006338621
68430316,68429847,0.24101979,0.02198157,-0.021562269
68432826,68432359,0.2031185,-0.08736655,0.009761284
68435321,68434850,0.24551864,-0.10505226,-0.022690978
68437826,68437349,0.13778934,-0.07581612,-0.023511568
68440356,68439847,-0.14213686,-0.086562864,0.12181226
68442812,68442347,-0.21013907,-0.041972242,0.20865631
68445356,68444897,-0.113101915,0.024465548,0.056595515
68447822,68447357,-0.046075575,-0.010320798,-0.103665076
68450310,68449847,0.042414356,0.019329326,-0.084805824
68452853,68452393,0.2065452,0.13187717,-0.036860835
68455327,68454853,0.25348756,0.09360088,-0.046344943
68457829,68457366,0.005338335,-0.07330764,-0.058647115
68460332,68459856,-0.19794269,-0.10656018,-0.12978442
68462845,68462383,-0.16482319,0.017284917,-0.20695268
68465315,68464850,-0.123205155,0.13168712,-0.101762705
68467848,68467388,0.00025191213,0.14413467,0.059345443
68470324,68469847,0.16975996,0.097012535,0.13777734
68472818,68472356,0.033513322,0.050031167,0.17286763
68475319,68474850,-0.09937023,-0.035991378,0.09320535
68477811,68477349,0.034850433,-0.17740963,-0.040973198
68480310,68479847,0.046340566,-0.2517123,-0.090368114
68482812,68482347,-0.012094155,-0.11799346,-0.082211375
68485316,68484850,0.08902344,0.107720114,-0.07638345
68487815,68487349,0.28446874,0.14458711,-0.0958328
68490336,68489865,0.43733644,0.048456386,-0.08058383
68492838,68492371,0.29967162,0.006582146,0.059124257
68495340,68494863,-0.013559115,-0.004358433,0.20601065
68497851,68497392,-0.14944173,0.005886017,0.17711261
68500310,68499847,-0.09424605,0.0733441,0.01507144
68502867,68502401,-0.07389866,0.10812475,-0.054704566
68505315,68504850,-0.098233424,0.045237597,0.046894196
68507861,68507394,-0.060589414,-0.028143061,0.08350141
68510328,68509850,-0.13973024,-0.024811514,0.0061889845
68512846,68512383,-0.09825417,0.014031011,-0.07532477
68515332,68514852,0.06696904,0.10063779,-0.10440338
68517852,68517377,-0.018542357,0.10699234,-0.05963337
68520320,68519847,-0.1564341,-0.028524913,0.025285821
68522870,68522407,-0.14681809,-0.05715667,0.09033317
68525318,68524849,-0.04890597,0.054247797,0.0791941
68527834,68527366,0.13588883,0.037204385,0.06515104
68530323,68529850,0.26181316,-0.10959682,0.059868123
68532897,68532431,0.17375228,-0.18752116,-0.009367215
68535344,68534870,0.015162534,-0.2384946,-0.027360512
68537844,68537376,-0.11080899,-0.19737953,-0.0011964276
68540313,68539847,-0.17211866,-0.011944325,-0.045347113
68545315,68544849,0.07816579,0.17169572,0.07895077
68547853,68547390,0.02328343,0.119356915,-0.034680355
68550344,68549887,-0.11024611,0.0065427907,-0.12085116
68552843,68552380,-0.16315198,-0.07442142,-0.07706741
68555332,68554857,-0.17589025,-0.015689943,-0.02430777
68557844,68557380,-0.09555783,0.058822226,-0.014646148
68560312,68559847,-0.014648322,0.06058351,-0.07548101
68562816,68562350,-0.01623889,0.021819966,-0.076404646
68565316,68564850,0.031396374,-0.09127625,-0.012506754
68567820,68567353,0.02454489,-0.2511166,-0.022151351
68570324,68569847,-0.067488216,-0.20239866,-0.03638854
68572846,68572381,-0.09568209,0.076246135,0.043419518
68575322,68574850,-0.035343956,0.2516918,0.091681354
68577832,68577354,0.14731959,0.19921452,0.048120953
68580314,68579847,0.26387903,0.06283705,0.07631409
68582820,68582355,0.09241743,-0.058492735,0.16620304
68585315,68584850,-0.0836253,-0.0814474,0.13805398
68587812,68587347,-0.03055126,-0.055896588,-0.0148754725
68590324,68589858,0.025564453,-0.054774765,-0.14444962
68595316,68594849,0.026584819,-0.04617333,-0.03810872
68597819,68597349,0.15112981,0.009710761,0.06934541
68600312,68599847,0.259828,0.04120194,0.015936282
68602865,68602394,0.13058536,0.024468627,-0.037748124
68605319,68604850,-0.1785722,0.03126002,-0.015580575
68607809,68607347,-0.3169891,-0.0026754225,-0.03263024
68610320,68609847,-0.27432302,-0.03369463,-0.10468525
68612866,68612399,-0.26845637,-0.01397016,-0.0846814
68615323,68614850,-0.23405018,-0.023532644,0.01273045
68617825,68617349,-0.09637251,-0.0016617426,0.07281771
68620338,68619847,0.012191919,0.04081201,0.042774428
68622869,68622347,0.0461014,0.060176022,-0.052673414
68625320,68624850,0.0994012,0.07630038,-0.071083784
68627809,68627347,0.20376551,0.05699004,-0.04379088
68630314,68629847,0.14830828,0.03457032,-0.07046974
68632913,68632396,-0.013675169,0.024223406,-0.025565973
68635329,68634857,-0.09648555,0.050062705,0.08345422
68637814,68637349,-0.072009325,0.07919302,0.11495385
68640314,68639847,-0.013964805,0.017622823,0.051032834
68642818,68642349,-0.0031583821,-0.03628466,-0.055051748
68645328,68644850,-0.025407864,-0.020924991,-0.10834126
68647809,68647347,-0.030829968,-0.05411294,-0.034645587
68650324,68649854,-0.08833708,-0.10355043,0.116863266
68652868,68652402,-0.14211287,-0.08895591,0.1498665
68655347,68654877,-0.047264196,-0.08846994,0.061368253
68657811,68657349,0.034954783,-0.09744096,0.029270101
68660333,68659847,-0.004925887,-0.09040095,0.056559052
68662812,68662347,-0.031319913,-0.10864565,0.008085006
68665333,68664850,-0.0012122449,-0.074769914,-0.023136422
68667819,68667355,0.047776382,0.021335512,0.02555548
68670310,68669847,0.03547958,0.101564124,-0.047228824
68672861,68672396,-0.03069656,0.04042617,-0.1184591
68675340,68674849,-0.08088008,-0.12133887,-0.065424986
68677811,68677349,-0.18705432,-0.114268064,-0.041542027
68680310,68679847,-0.1879169,0.024568247,-0.0032393564
68682821,68682356,-0.055073123,0.08530257,0.1101127
68685340,68684864,0.01202016,0.0045327474,0.1825658
68687834,68687349,0.1038928,-0.05025497,0.14902604
68690310,68689847,0.1397859,0.05821169,0.100893684
68692861,68692396,0.021526376,0.17746156,0.06297859
68695372,68694871,-0.1539298,0.16218598,-0.023600066
68697811,68697349,-0.31171325,0.01423019,-0.0765306
68700310,68699847,-0.2989074,-0.11011724,-0.06331439
68702812,68702347,-0.09091613,-0.15446807,-0.07422869
68705317,68704850,0.031188933,-0.15213287,-0.10227295
68707854,68707392,0.02044962,-0.09497484,-0.074827105
68710321,68709847,0.08982937,-0.054628566,0.027833235
68712859,68712396,0.12155302,-0.0136274425,0.12943937
68715364,68714884,-0.001321494,0.06821166,0.09258112
68717824,68717356,-0.11394333,0.1332403,0.00022854512
68720325,68719847,-0.05456531,0.15109044,-0.022260422
68722813,68722347,0.043365162,0.19337751,-0.05308691
68725324,68724853,0.0007692191,0.19669946,-0.048529983
68727819,68727354,-0.13146754,0.04661042,-0.0017752929
68730327,68729850,-0.23778187,-0.056816775,-0.0023471843
68732858,68732396,-0.20940469,-0.042768776,0.008682692
68735379,68734905,-0.09597513,-0.060165845,0.073509395
68737821,68737349,0.004454553,-0.12424783,0.12778194
68740314,68739847,0.02709005,-0.11339195,0.0641907
68742828,68742347,-0.11023548,-0.0006847782,-0.07261089
68745331,68744865,-0.21671467,0.14115648,-0.068988495
68747822,68747347,-0.065323815,0.22964206,0.02690798
68750323,68749859,0.12319642,0.10604822,-0.022947768
68752859,68752396,0.09848691,-0.102413446,-0.12571122
68755377,68754913,0.016700719,-0.190649,-0.106534146
68757811,68757349,-0.032356672,-0.19476338,-0.0050841323
68760369,68759890,-0.15145794,-0.16317822,0.10880026
68762812,68762347,-0.19747469,-0.15905343,0.19381587
68765328,68764850,-0.109908804,-0.094297804,0.16624221
68767818,68767355,-0.09176009,0.08321614,0.02939573
68770327,68769847,-0.10322246,0.1886888,-0.075719714
68772858,68772396,-0.14342403,0.14943708,-0.09385495
68775326,68774850,-0.13594596,0.10086281,-0.08932397
68777808,68777349,-0.02557783,0.0292438,-0.020406013
68780307,68779847,-0.0027387892,-0.0006339986,0.013900609
68782809,68782347,0.13930705,0.039856974,-0.044703845
68785316,68784850,0.28191522,0.068460286,-0.0726155
68787807,68787347,0.13406159,0.078756936,-0.0007950113
68790311,68789847,0.029141922,0.07812497,0.049956433
68795330,68794862,-0.23682311,-0.046295103,0.0475589
68797823,68797349,-0.2766264,-0.020730658,-0.019131152
68800337,68799858,-0.117803395,-0.024052756,-0.004343326
68802838,68802351,-0.051117767,-0.040516,0.015458068
68805318,68804849,-0.19698031,0.03185016,-0.044485122
68807806,68807347,-0.3275489,0.04175069,-0.014135234
68810308,68809847,-0.25772005,-0.08147495,0.08766618
68812859,68812396,-0.033444308,-0.1953089,0.14055222
68815335,68814859,0.15237466,-0.23442355,0.11435884
68817822,68817349,0.20445055,-0.14592817,-0.0013389632
68820316,68819849,0.1821369,-0.0052275136,-0.08233343
68822815,68822347,0.09387399,0.07402206,-0.0718557
68825315,68824852,0.03817326,0.08754978,0.01585521
68827815,68827356,-0.05003553,0.084024385,0.14333074
68830317,68829847,-0.15872581,0.14118195,0.21161534
68832818,68832358,-0.101619124,0.1905648,0.20760228
68835344,68834878,-0.062115893,0.072580256,0.1799502
68837808,68837349,-0.078954935,-0.020207694,0.046628978
68840339,68839849,-0.113978796,0.015679862,-0.15395814
68842815,68842347,-0.21824135,-0.07091024,-0.20310232
68845313,68844850,-0.19021825,-0.22250263,-0.15150581
68847812,68847349,0.014987622,-0.17869407,-0.15103023
68850320,68849860,0.13231847,-0.011554951,-0.09519593
68852831,68852364,0.12496627,0.018210141,0.021168388
68855345,68854877,0.1646764,-0.05487882,-0.0023466048
68857808,68857349,0.07522502,-0.03819204,-0.075257085
68860329,68859852,-0.15342972,0.02982925,-0.08506939
68862809,68862347,-0.17431055,0.006210909,-0.09749174
68865365,68864897,-0.086400256,-0.04472501,-0.06570021
68867813,68867347,-0.1251213,-0.040548645,0.0724714
68870322,68869862,-0.12894244,-0.042224925,0.21521622
68872833,68872370,0.014358262,-0.041528102,0.17750464
68875349,68874879,0.1884679,0.018098522,0.041621935
68877808,68877349,0.19875537,0.07424456,0.021461094
68880345,68879872,0.08235911,0.019259652,0.06351242
68882810,68882347,0.015509249,-0.090779915,0.03192353
68885340,68884875,-0.04881449,-0.08206571,0.004028025
68887810,68887350,-0.14274503,0.033017267,-0.024135366
68890351,68889892,-0.20751457,0.12336859,-0.040945034
68892862,68892396,-0.13091777,0.20903052,0.09263382
68895361,68894884,0.042816132,0.29489517,0.14451489
68897809,68897350,0.15011401,0.23855092,-0.03907004
68900360,68899892,0.14138077,0.05041097,-0.13318416
68902821,68902349,-0.051152617,-0.08248871,-0.063589916
68905338,68904874,-0.12630357,-0.07087638,-0.06178712
68907809,68907350,-0.017326135,0.007390927,-0.11236791
68910359,68909882,-0.014150807,-0.021164035,-0.06877175
68912858,68912396,0.008385978,-0.11554085,-0.03035754
68915381,68914916,0.08361503,-0.08571122,-0.03826477
68917860,68917398,0.10497585,-0.0067538414,-0.01097334
68920332,68919853,0.08856764,-0.045187477,0.10017804
68922820,68922350,0.035707477,-0.15926486,0.17611597
68925330,68924859,0.030510185,-0.22282715,0.017844811
68927832,68927367,0.047811422,-0.19804637,-0.16161218
68930344,68929860,0.009537557,-0.070588075,-0.08587168
68932858,68932396,0.024671052,0.08001419,0.027734023
68935376,68934904,0.0758094,0.115091495,0.04906089
68937816,68937353,0.03046098,0.04913064,0.03443317
68940313,68939850,-0.09538914,-0.0042162207,-0.0024123194
68942815,68942350,-0.021343492,0.036982216,-0.046625454
68945316,68944853,0.19629084,0.12294893,-0.08035457
68947818,68947350,0.18966849,0.20063746,-0.11376864
68950310,68949850,0.08615609,0.14785782,-0.16824436
68952858,68952396,0.0535291,-0.013993369,-0.1035785
68955326,68954860,0.023593001,-0.032712523,0.03087373
68957829,68957355,0.02255219,0.03018443,0.045966685
68960313,68959850,0.06394435,0.015572034,0.013647778
68962822,68962353,0.08316789,0.019688223,-0.00432425
68965316,68964853,0.088572875,0.06909992,-0.008598261
68967815,68967350,0.036191974,0.066879325,0.024961395
68970341,68969887,-0.03617144,0.006392071,0.051996604
68972858,68972396,0.021966072,-0.03757699,0.058578655
68975323,68974853,0.11063085,-0.035898693,0.048046194
68977822,68977351,0.07078816,-0.02041926,0.07095027
68980357,68979853,-0.02545764,-0.056453004,0.11900019
68982839,68982361,-0.1630418,-0.10893889,0.16974612
68985329,68984853,-0.21032904,-0.101204365,0.16766539
68987834,68987352,-0.085506335,-0.08172039,0.07047492
68990339,68989856,0.001829543,-0.06689385,0.034985967
68995316,68994852,0.16629663,-0.074941225,-0.09986558
68997819,68997352,0.076931715,-0.0061718747,-0.14093435
69000330,68999847,-0.007022807,0.09776673,-0.14721
69002818,69002347,0.029165484,0.1948362,-0.22355981
69005360,69004852,0.10395159,0.18149358,-0.2478546
69007835,69007349,0.15166217,0.030319106,-0.18458109
69010310,69009847,0.1905318,-0.089560926,-0.111217745
69012843,69012376,0.09781456,-0.13470331,-0.01996357
69015326,69014850,-0.04580684,-0.19168527,0.03261511
69017823,69017350,-0.16963668,-0.20891088,0.08019926
69020313,69019847,-0.18401733,-0.17633379,0.15096124
69022863,69022391,0.017064545,-0.06687516,0.18835838
69025320,69024850,0.23813708,0.114847004,0.205474
69027837,69027349,0.33193403,0.23871626,0.10547384
69030318,69029856,0.32184318,0.25958678,-0.036082294
69032836,69032368,0.2608919,0.17814933,-0.013946018
69035318,69034850,0.1406524,0.071642086,0.12014286
69037831,69037350,-0.016928604,-0.008264785,0.10198392
69040310,69039847,-0.037902445,-0.036212903,-0.018642211
69042825,69042352,0.055681426,0.05555203,-0.043053407
69045318,69044850,0.026559051,0.11473773,-0.06168917
69047815,69047349,-0.07173979,0.07254982,-0.16633666
69050322,69049851,-0.024440331,0.052111167,-0.21906781
69052867,69052396,0.051223747,0.020423798,-0.10087697
69055322,69054850,-0.081014626,-0.057520457,0.05235447
69057811,69057349,-0.21188506,-0.0903617,0.106742345
69060310,69059847,-0.08509718,-0.05499563,0.099304974
69062847,69062377,0.12028496,-0.019872718,0.018837012
69065321,69064850,0.21267432,0.040567286,-0.071642876
69067810,69067347,0.14847898,0.0761471,-0.052994266
69070311,69069847,0.11526686,0.039822258,-0.0131189
69072861,69072396,0.17105189,-0.011320899,-0.08124705
69075347,69074888,0.16213714,-0.03586781,-0.16410682
69077813,69077350,0.10110331,0.030508947,-0.102810875
69080312,69079847,0.046906505,0.07677213,-0.0399228
69082815,69082347,0.019584782,0.03581394,-0.008231704
69085324,69084850,0.09367589,-0.03581129,0.0923893
69087815,69087352,0.20013191,-0.09943149,0.056678303
69090321,69089850,0.18218732,-0.15138854,-0.05939488
69092826,69092361,0.099346034,-0.16837123,0.027796876
69095326,69094857,0.08458926,-0.06475256,0.16631849
69097814,69097350,0.061423395,0.068897896,0.14118601
69100335,69099847,0.05678914,0.12451822,0.037682455
69102815,69102347,0.14942735,0.1404898,-0.025902595
69105333,69104865,0.15644842,0.08669283,0.016394265
69107854,69107394,0.051952902,-0.06342403,0.07553186
69110323,69109847,0.03435842,-0.19739164,0.082596175
69112856,69112396,0.11111484,-0.108578935,0.06597013
69115331,69114860,0.16285323,0.054243587,-0.018794838
69117817,69117349,0.077343926,0.037466478,-0.08729164
69120328,69119851,-0.04548852,-0.02988799,-0.06641078
69122816,69122347,-0.031589407,-0.025418283,-0.030373415
69125327,69124853,0.007820359,-0.037969153,-0.043185275
69127835,69127375,0.063941464,-0.10735778,-0.093036406
69130324,69129847,0.17789617,-0.17315307,-0.088449046
69132858,69132399,0.10731357,-0.12070896,0.012683442
69135365,69134888,0.0028656225,0.08013659,0.06662205
69137823,69137350,-0.045506947,0.24732125,-0.028813826
69140337,69139847,-0.09167709,0.17813487,-0.049879618
69142812,69142347,-0.0273237,0.10639197,0.047420405
69145316,69144850,0.01870738,0.085085444,0.081191845
69147812,69147350,0.0719497,-0.0043340144,0.021477731
69150325,69149847,0.16715302,-0.0281314,-0.048054446
69152836,69152374,0.1660839,0.025089886,-0.08139117
69155323,69154850,0.1596812,0.006460886,-0.09966311
69157826,69157351,0.09658031,-0.15118757,-0.098068506
69160310,69159847,-0.06860127,-0.23295563,-0.07579948
69162819,69162351,-0.17904025,-0.047872987,0.0013116716
69165317,69164851,-0.07030554,0.18645191,0.060721546
69167836,69167364,0.05527138,0.2549289,-0.0010585549
69170313,69169847,-0.076613,0.20787077,-0.09747934
69172817,69172355,-0.10555974,0.15423791,-0.14333497
69175318,69174850,0.027605036,0.0909261,-0.12300459
69177844,69177369,0.03003081,0.0040298,0.020890519
69180367,69179890,0.029680412,-0.025855608,0.1674312
69182836,69182371,0.21450657,-0.05171257,0.13445503
69185316,69184850,0.33209276,-0.115805395,-0.004336823
69187816,69187354,0.24470426,-0.17055738,-0.0889515
69190323,69189854,0.19388497,-0.16225207,-0.101398215
69195316,69194849,0.021904904,-0.021756887,0.040880222
69197822,69197360,0.08487127,-0.05111433,0.013103168
69200326,69199853,0.02680102,-0.086810626,0.0042157476
69202812,69202347,-0.14873229,-0.045232594,0.07119985
69205321,69204850,-0.1843109,0.045546494,0.09395749
69207870,69207408,-0.062380955,0.041746125,0.08583179
69215320,69214850,-0.02786382,0.096717834,-0.18842268
69217860,69217397,-0.11982798,0.075640984,-0.113797925
69220310,69219847,-0.085010365,0.09329238,-0.06324374
69222856,69222394,0.023101151,0.015851133,-0.05230403
69225322,69224850,0.08086997,-0.1804336,0.030959936
69227853,69227394,0.086992994,-0.2740877,0.17148764
69230315,69229847,0.11356479,-0.20919526,0.19509606
69232883,69232424,0.052715316,-0.07325289,0.06721327
69235329,69234850,-0.058450278,0.08842115,-0.008364628
69237859,69237400,-0.040994264,0.1973167,-0.03355067
69240331,69239849,0.0140504595,0.26047444,-0.14580584
69242870,69242391,-0.002445546,0.23040546,-0.17715397
69245319,69244850,0.13996123,0.04457994,-0.03896571
69247857,69247391,0.30221802,-0.13487867,0.085920095
69250336,69249861,0.18834811,-0.1787649,0.14152262
69257852,69257371,-0.08583949,0.10845663,0.10643844
69260320,69259847,-0.006951443,0.11447176,-0.016163828
69262851,69262374,0.06764306,0.1403484,-0.120480955
69265326,69264850,-0.001523743,0.10133792,-0.2576693
69267835,69267369,-0.14011395,-0.053082984,-0.33563212
69270314,69269847,-0.151379,-0.21359153,-0.28506625
69272854,69272388,-0.08455829,-0.20974737,-0.1552722
69275348,69274864,0.021261688,-0.06481357,-0.07038933
69277816,69277353,0.08986421,0.0010217795,-0.016001144
69280325,69279847,0.03155854,-0.046126608,0.076985724
69282815,69282350,0.059978213,-0.039795075,0.17056905
69285354,69284893,0.13329741,0.099373385,0.15622424
69287824,69287361,0.14786293,0.18919419,0.061729647
69290310,69289847,0.062080555,0.085112944,0.005717322
69292862,69292400,-0.10697916,-0.0030503506,0.032315217
69295336,69294863,-0.139107,-0.022360003,0.06972186
69297857,69297395,-0.07772056,-0.078412324,0.10882124
69300319,69299856,-0.06545446,-0.10831272,0.09111813
69302815,69302347,-0.05027534,-0.058668327,0.0421219
69305315,69304850,-0.010295152,-0.02279346,0.062287662
69307809,69307347,0.010753661,0.023147477,0.039510693
69310309,69309847,0.010153279,0.056822587,-0.022039097
69312863,69312400,-0.014359805,-0.0047796457,-0.054372933
69315327,69314859,-0.14280368,-0.109658994,-0.04499838
69317821,69317356,-0.1740197,-0.11545818,-0.008806584
69320331,69319847,-0.036598247,-0.037942886,0.030040387
69322814,69322349,0.011394929,-0.043128297,0.07751181
69325332,69324850,-0.040216863,-0.009330053,0.046500787
69327823,69327359,-0.014069503,0.13511422,-0.093550995
69330332,69329850,0.07762299,0.15613395,-0.18523951
69332816,69332352,0.104320414,0.027197955,-0.1035599
69335326,69334857,-0.016088644,-0.054084543,0.049302887
69337833,69337370,-0.18714488,-0.038458332,0.1447628
69340335,69339857,-0.22086257,0.064915374,0.18242048
69342812,69342347,-0.16250943,0.12401329,0.15859815
69345324,69344852,-0.19273767,-0.049923617,0.0816899
69347820,69347347,-0.20117146,-0.21676418,-0.007215895
69350313,69349847,-0.14712158,-0.20160931,-0.018796049
69352863,69352396,-0.13501747,-0.0577842,0.008182972
69355323,69354850,-0.12615322,0.14734405,-0.03743888
69357813,69357350,-0.013516843,0.16798104,-0.03397944
69360334,69359847,0.112408064,0.02424883,-0.00776264
69362812,69362347,0.0292385,-0.0038363389,-0.07156331
69365323,69364850,-0.124810435,0.065870345,-0.08637136
69367822,69367353,-0.039509024,0.047319535,0.031025438
69370340,69369871,0.13564965,0.07921352,0.10038948
69372865,69372397,0.1607125,0.12739488,0.04749732
69375323,69374850,-0.016958196,0.0036914407,0.04080697
69377849,69377352,-0.24017067,-0.069837585,0.054321196
69380310,69379847,-0.24723479,-0.06283424,0.028854389
69382826,69382347,-0.20448583,-0.07265382,0.022420567
69385330,69384850,-0.22275427,-0.08344525,-0.02162171
69387826,69387356,-0.20346136,-0.1385564,-0.07534626
69390361,69389887,-0.15647875,-0.10715676,-0.076460645
69395320,69394849,-0.20723173,0.072339915,-0.20741485
69397817,69397354,-0.40786934,0.12421395,-0.0716412
69400313,69399847,-0.4119467,0.17472374,-7.266035e-05
69402824,69402353,-0.23753373,0.18589042,-0.081251904
69405315,69404849,-0.08446827,0.13396917,-0.012643096
69407824,69407347,0.022717392,0.06361964,0.20733058
69410334,69409857,0.08582128,0.0014022712,0.34532598
69412821,69412355,0.18251236,-0.034761485,0.31053558
69415321,69414850,0.18718436,-0.060982637,0.24264903
69417810,69417347,0.005164817,-0.05171696,0.18143736
69420313,69419847,-0.09232508,0.010794355,-0.024011126
69422812,69422347,-0.010214653,-0.10477813,-0.27343
69425319,69424850,0.0074253487,-0.28826743,-0.30015126
69427809,69427347,-0.17935212,-0.23441154,-0.13532817
69430314,69429851,-0.3787883,-0.03973512,0.011581781
69432867,69432397,-0.39134726,0.11965481,0.05782098
69435344,69434857,-0.35762787,0.18861213,0.04877437
69437815,69437353,-0.29995638,0.16337527,0.024883693
69440310,69439847,-0.115226895,0.09473256,-0.01091375
69442856,69442391,0.08353348,0.042616177,-0.026329167
69445323,69444850,0.10607495,0.0441487,-0.03141858
69447821,69447357,-0.0042637633,-0.031777132,-0.046110153
69450310,69449847,-0.220894,-0.1454353,-0.033980288
69452864,69452396,-0.29044184,-0.12022155,-0.0025044708
69455339,69454879,-0.07246387,-0.06705326,0.018629057
69457854,69457391,0.04200702,-0.05478108,0.044912796
69460313,69459850,-0.04533882,-0.04118219,0.10837943
69462812,69462347,-0.04854906,-0.057312075,0.19581597
69465316,69464850,0.01602299,-0.0023562824,0.21077774
69467809,69467347,-0.0067232763,0.064238,0.09658836
69470337,69469876,-0.15117641,-0.029793393,-0.031034326
69472885,69472400,-0.23706181,-0.09494652,-0.08715781
69475317,69474850,-0.0714543,0.009870333,-0.1562505
69477818,69477356,0.16431376,0.025034636,-0.20445661
69480327,69479850,0.20318498,-0.15744194,-0.14803462
69482816,69482347,0.038734555,-0.16398025,-0.072445214
69485326,69484850,-0.1181922,-0.0022790055,0.030111933
69487817,69487347,-0.0963242,-0.003524629,0.18323818
69490319,69489850,-0.048081063,-0.033778537,0.19528161
69492862,69492400,-0.15208498,0.06361951,0.065008916
69495352,69494888,-0.2868567,0.16065848,-0.04000717
69497806,69497347,-0.22738549,0.15485759,-0.0923307
69500310,69499847,-0.1106102,0.052627876,-0.07467729
69502809,69502347,-0.11965558,-0.092293695,-0.010974449
69505324,69504850,-0.11830066,-0.1758726,-0.046776295
69507806,69507347,-0.0154766645,-0.02473483,-0.13665028
69510309,69509849,0.051501915,0.15532252,-0.12643498
69512859,69512396,-0.11326155,0.06420364,0.003734946
69515320,69514851,-0.2800527,-0.08645644,0.14503333
69517807,69517347,-0.118667506,-0.12875749,0.10970581
69520307,69519847,0.09726733,-0.09811171,-0.0021199114
69522810,69522347,0.07649325,-0.0034777913,0.056480583
69525322,69524850,-0.0283512,0.068300724,0.19991086
69527815,69527347,-0.0002409429,0.032915793,0.18219209
69530322,69529847,0.06625876,-0.04198342,0.15365574
69532817,69532358,0.08286583,-0.018062085,0.16368115
69535353,69534889,-0.0035777357,0.0452466,0.031712435
69537815,69537347,-0.09404161,0.06399263,-0.07989264
69540333,69539847,0.028264523,0.09832107,-0.09684395
69545324,69544849,0.11890183,0.030987693,-0.1887179
69547835,69547372,0.0673461,0.029911632,-0.09802207
69550309,69549849,0.05482057,0.20584737,0.009886467
69552858,69552396,0.021978408,0.2734693,0.12552698
69555344,69554868,-0.061850064,0.15933596,0.2533614
69557806,69557347,-0.19302721,0.021565387,0.22904027
69560311,69559847,-0.36964267,-0.043259703,0.1183236
69562812,69562347,-0.3226787,-0.08851418,0.029357243
69565331,69564864,-0.054290887,-0.11155657,-0.05840127
69567807,69567347,0.085755564,-0.108303,-0.09796075
69570324,69569863,0.07359077,-0.08793924,-0.056397483
69572862,69572396,-0.07732845,-0.05141391,0.022285927
69575344,69574864,-0.22321326,-0.07757273,0.0887963
69577824,69577349,-0.1026265,-0.12099369,0.010108692
69580332,69579857,0.06950459,-0.091558166,-0.14028455
69582817,69582347,0.11379453,-0.1053471,-0.13214321
69585336,69584868,0.061842997,-0.13477772,-0.071172014
69587806,69587347,-0.010349364,-0.06935582,-0.04005011
69590327,69589867,0.011713599,0.010190175,0.015886165
69595338,69594876,-0.18868558,0.049796887,0.06269927
69597808,69597347,-0.055789277,0.08762644,0.0522179
69600360,69599887,0.1462675,0.076266974,0.036204293
69602814,69602348,0.07395292,0.059867658,0.012108424
69605349,69604888,-0.0346584,0.06496949,-0.008126615
69607818,69607355,-0.034221858,0.038471464,0.08816023
69610368,69609902,-0.04942043,-0.049205244,0.24659891
69612858,69612396,-0.056390572,-0.13091913,0.18015136
69615346,69614882,0.055124484,-0.0963932,-0.044954672
69617810,69617350,0.15273917,0.03362695,-0.11688522
69620342,69619869,0.046414174,0.10672279,-0.10624925
69622827,69622350,-0.05417287,0.043451563,-0.09267157
69625334,69624876,-0.0022460874,-0.06293721,-0.08146685
69627820,69627361,0.16150407,-0.1077042,-0.15361482
69630353,69629885,0.24866496,-0.1068004,-0.21209265
69632861,69632399,0.20368883,-0.06423713,-0.16695964
69635320,69634856,0.14752725,0.077015676,-0.04045496
69637809,69637350,0.03742916,0.17470448,0.057789635
69640346,69639853,-0.061040137,0.104074806,0.055520292
69642812,69642350,-0.05906495,0.018090181,0.012429166
69645321,69644856,0.086262174,0.009898298,-0.017796215
69647818,69647350,0.31135488,-0.010711564,-0.021547338
69650315,69649850,0.44470224,-0.06025988,0.010046689
69652850,69652388,0.4392199,-0.054547325,0.0014563383
69655321,69654855,0.2689293,0.02127668,-0.14016987
69657814,69657354,0.018646203,0.14562199,-0.14835414
69660310,69659850,-0.07056522,0.18722329,0.06443435
69662819,69662350,-0.00045727938,0.09283757,0.13136554
69665318,69664853,0.018172882,0.049312383,0.08011706
69667809,69667350,-0.047148906,0.046202548,0.09009572
69670347,69669872,0.035486825,-0.04383622,0.07824199
69672821,69672361,0.14339636,-0.18755,0.054546636
69675317,69674853,0.11461229,-0.24602547,0.016319588
69677811,69677350,0.07444781,-0.15307154,-0.044723205
69680314,69679850,0.09497963,-0.001949817,-0.115923256
69682830,69682352,0.14560477,0.10212681,-0.17375776
69685323,69684853,0.15578409,0.15457697,-0.14468388
69687817,69687350,0.080725566,0.17516714,-0.05238114
69690321,69689860,0.0042310245,0.16608422,0.019450832
69692842,69692382,-0.016419454,0.14477076,0.015760163
69695333,69694858,-0.002313449,0.073791966,-0.034608394
69697815,69697347,0.097608894,-0.049278527,-0.040829312
69700333,69699862,0.23011425,-0.1057626,0.016025078
69702818,69702347,0.30785176,-0.058078784,0.09780024
69705364,69704902,0.25359097,0.0066666226,0.10452371
69707820,69707353,0.16547771,0.0030752216,0.030357681
69710384,69709927,0.07180293,-0.10263602,-0.047731414
69712859,69712396,-0.030368084,-0.19232881,-0.09061417
69715327,69714857,-0.018227821,-0.093294375,-0.024291411
69717833,69717368,0.109351866,0.026923975,0.09712785
69720349,69719847,0.15842974,0.011922333,0.11732624
69722826,69722347,0.06445532,-0.027996,0.0155537855
69725330,69724850,-0.0281503,-0.031021984,0.0028808955
69727821,69727351,-0.0045800656,0.012601249,0.11683337
69730320,69729847,0.1946635,0.060729153,0.1305839
69732827,69732360,0.41450855,0.0668959,0.028545426
69735320,69734850,0.318628,0.09474532,-0.054079216
69737814,69737347,0.09845832,0.07568947,-0.15377611
69740326,69739849,0.040556177,-0.057796463,-0.2787155
69742822,69742347,-0.09131062,-0.20597993,-0.23485146
69745322,69744850,-0.23659547,-0.19288728,-0.08103738
69747820,69747347,-0.20790474,-0.0010798139,-0.002372481
69750329,69749849,-0.079046495,0.1568056,0.040521264
69752866,69752396,0.12765568,0.18799733,0.05058689
69755325,69754850,0.32292855,0.14441861,-0.030544568
69757866,69757395,0.3449158,0.0020608713,-0.072474964
69760333,69759862,0.36192763,-0.107234634,0.037864637
69762813,69762347,0.38025236,-0.08429653,0.07516221
69765329,69764866,0.2218487,0.0076099876,-0.015828261
69767817,69767347,0.026912257,0.078497246,-0.0113826925
69770331,69769860,-0.048442855,0.064726196,0.05332348
69772866,69772397,-0.0771612,0.05667927,0.004220613
69775323,69774856,-0.01665454,-0.0069396123,-0.035205703
69777813,69777350,0.11552862,-0.1363075,0.03136259
69780350,69779847,0.19038312,-0.10782008,0.03850718
69782828,69782350,0.23514444,-0.010806858,-0.017255513
69785327,69784850,0.29178244,-0.045991596,-0.051645704
69787819,69787347,0.27192625,-0.19529018,-0.051247694
69790326,69789847,0.23132133,-0.34942776,-0.04431177
69795320,69794849,-0.04023025,-0.2759101,-0.16541778
69797829,69797370,-0.28980592,-0.06867276,-0.15666619
69800332,69799856,-0.27105364,0.10681879,0.0029324861
69802815,69802347,-0.05596871,0.20750192,0.16269521
69805321,69804850,0.14902724,0.26213688,0.22857946
69807812,69807347,0.3003249,0.2714514,0.2611069
69810345,69809887,0.35446173,0.16644742,0.22942379
69812855,69812396,0.29529718,0.0015305204,0.1689917
69815331,69814850,0.19589387,-0.091502964,0.062180772
69817815,69817350,0.21471009,-0.06661643,-0.081450775
69820313,69819847,0.24354067,0.005353846,-0.073651835
69822835,69822358,0.11801612,0.06567516,0.06275973
69825322,69824850,-0.008152062,0.09210106,0.13845076
69827819,69827354,0.024948213,0.04692839,0.13574073
69830331,69829854,0.13470314,-0.050188832,0.15905574
69832853,69832394,0.13758165,-0.06549118,0.2028822
69835321,69834850,-0.016212447,-0.053914186,0.16195685
69837815,69837350,-0.28266644,-0.13975716,0.0086088665
69840312,69839847,-0.4584927,-0.20827061,-0.111506395
69842857,69842394,-0.3716639,-0.14558223,-0.11141235
69845315,69844850,-0.18979453,-0.0677103,0.05788212
69847823,69847349,0.017644444,0.0038193916,0.29791963
69850317,69849850,0.1334774,0.13985199,0.44077483
69852836,69852373,0.11319279,0.22455555,0.4132634
69855328,69854858,0.08573977,0.17641269,0.26371384
69857812,69857350,0.05108708,0.072240844,0.054874595
69860310,69859847,0.011129249,-0.056392387,-0.0824476
69862844,69862381,-0.046585977,-0.19815165,-0.051694836
69865317,69864850,-0.049373675,-0.24731,-0.051523563
69867809,69867347,0.19616145,-0.18061952,-0.10178812
69870312,69869847,0.4600603,-0.14008266,-0.027876347
69872840,69872364,0.38230884,-0.102435306,0.03897587
69875330,69874860,0.16736083,-0.011908597,0.004788326
69877822,69877357,-0.06435637,0.040543675,-0.0015687397
69880310,69879847,-0.29120773,0.0010100548,-0.02662928
69882845,69882380,-0.27704254,-0.009021016,-0.10596763
69885316,69884850,-0.15125358,0.114897214,-0.081716016
69887826,69887361,-0.0548019,0.27059752,0.07931523
69890318,69889850,-0.007994632,0.32193717,0.1671144
69892864,69892404,0.0026327912,0.2870613,0.029234922
69895318,69894851,0.021215657,0.27405098,-0.23000489
69897870,69897388,0.10143744,0.20833653,-0.3751411
69900310,69899847,0.19729911,0.16236462,-0.52092195
69902817,69902352,0.08848829,0.14037722,-0.6941968
69905317,69904850,-0.09725685,0.074175015,-0.7016891
69907818,69907352,-0.21202552,0.04250704,-0.5734515
69910311,69909847,-0.11791439,0.08909439,-0.4562268
69912816,69912353,0.2461007,0.09918831,-0.40059376
69915341,69914874,0.45421907,0.056450672,-0.3574849
69917810,69917347,0.38684082,0.0101527525,-0.28865898
69920310,69919847,0.212254,-0.034762453,-0.32155868
69922815,69922349,-0.0523748,-0.11587243,-0.3241816
69925325,69924850,-0.31740636,-0.14571609,-0.219543
69927810,69927347,-0.3879393,-0.0363165,-0.20868172
69930332,69929856,-0.30564195,0.11264428,-0.24791516
69932835,69932370,-0.1990037,0.20037535,-0.18054172
69935329,69934859,-0.014564404,0.20454024,-0.1130556
69937867,69937395,0.11799666,0.22609022,-0.17951207
69940327,69939847,0.098639674,0.2565868,-0.2806779
69942869,69942391,0.07490301,0.1098546,-0.32842556
69945317,69944850,0.11123226,-0.097394034,-0.33080775
69947868,69947408,0.14947145,-0.16867033,-0.23766129
69950311,69949847,0.08993238,-0.07012402,-0.2051552
69952865,69952405,0.0082555665,0.07628653,-0.23755607
69955342,69954881,0.05818961,0.1464423,-0.33768004
69957831,69957369,0.012926218,0.19471838,-0.35712066
69960311,69959847,-0.15465705,0.3279836,-0.23528786
69962834,69962369,-0.22403921,0.43424615,-0.09272236
69965328,69964850,-0.1724606,0.43610278,-0.083655365
69967856,69967394,-0.110528655,0.38240987,-0.16011573
69970319,69969856,-0.009539437,0.34679168,-0.2460197
69972844,69972379,0.19654597,0.23222747,-0.19819784
69975343,69974871,0.28862554,0.098987035,-0.1011808
69977853,69977384,0.11374217,0.05825528,-0.092597105
69980313,69979847,-0.12615924,0.013113763,-0.044425942
69982841,69982373,-0.15825514,-0.10637982,0.020456651
69985331,69984862,-0.15991883,-0.123010166,-0.07212006
69987843,69987378,-0.1639572,-0.16240473,-0.22938815
69990314,69989847,-0.108799905,-0.39050537,-0.28011647
69995316,69994849,0.04168088,-0.41094762,0.002348884
69997829,69997353,0.3304819,-0.3388041,0.14835924
70000343,69999847,0.45897847,-0.30755827,0.22543384
70002845,70002357,0.43815574,-0.16762471,0.1255408
70005322,70004850,0.33085373,-0.010933981,-0.025564486
70007809,70007347,0.26409766,0.11951821,-0.108353436
70010310,70009847,0.29449797,0.21712789,-0.13410375
70012865,70012402,0.33752698,0.22813849,-0.1187573
70015354,70014875,0.30673993,0.18785563,-0.049664762
70017818,70017356,0.21216212,0.09731571,0.019151988
70020384,70019902,0.12890294,-0.03590713,0.04027952
70022812,70022347,0.08996233,-0.21717262,0.07028
70025329,70024851,0.115853705,-0.38379994,0.097742006
70027818,70027356,0.15997036,-0.51355416,0.20306848
70030321,70029857,0.15748101,-0.7069633,0.3859913
70032815,70032353,0.04779595,-0.9457755,0.53023
70035331,70034850,-0.13400975,-0.9881097,0.61660534
70037820,70037349,-0.30706215,-0.86225426,0.6979605
70040315,70039847,-0.5173963,-0.6863353,0.74763876
70042812,70042347,-0.7053189,-0.35693944,0.74815637
70045324,70044850,-0.6756732,0.038429428,0.84559363
70047809,70047347,-0.5574318,0.20573764,0.9627914
70050323,70049847,-0.58395827,0.10638069,0.8920704
70052845,70052379,-0.67418337,-0.03726596,0.73298794
70055328,70054850,-0.8015872,-0.0774087,0.70764005
70057816,70057350,-0.91894174,0.052584335,0.6817652
70060350,70059853,-0.8709395,0.21246582,0.5919676
70062842,70062376,-0.55638313,0.26825154,0.676108
70065327,70064857,-0.21546687,0.2795826,0.98090476
70067809,70067347,0.07248394,0.16854058,1.1286345
70070310,70069847,0.35922635,-0.05478114,1.0412287
70072909,70072381,0.5442474,-0.31394595,0.858324
70075329,70074850,0.5643912,-0.5357336,0.7165918
70077818,70077356,0.5012898,-0.64171284,0.636957
70080310,70079847,0.5596699,-0.7469816,0.75362873
70082818,70082347,0.6190652,-0.8046769,0.9067155
70085327,70084850,0.59052104,-0.7771606,0.8704357
70087820,70087357,0.5030858,-0.54907095,0.7113053
70090335,70089847,0.3630359,-0.16594222,0.6837905
70092859,70092388,0.22277045,0.20495547,0.73302454
70095329,70094850,0.089747414,0.5585306,0.7342287
70097818,70097356,-0.23823759,0.7277825,0.62786007
70100331,70099847,-0.5879842,0.7283765,0.5138702
70102821,70102347,-0.6346762,0.5998265,0.31277686
70105328,70104853,-0.6597612,0.3656868,0.14806022
70107813,70107347,-0.6236323,0.19203393,0.15535088
70110311,70109847,-0.45106596,0.096363574,0.23017526
70112830,70112363,-0.5721592,0.005223328,0.2621029
70115324,70114850,-0.82984,-0.028934287,0.23422745
70117818,70117356,-0.88872015,-0.05111088,0.1690265
70120310,70119847,-0.9236467,-0.21224171,-0.0031420453
70122835,70122347,-0.9960193,-0.49146003,-0.24853349
70125375,70124897,-0.8748693,-0.70889354,-0.3517127
70127809,70127347,-0.5620104,-0.8047813,-0.41024417
70130370,70129870,-0.3245602,-0.67188483,-0.4428651
70132878,70132398,-0.31237987,-0.4324284,-0.46774644
70135329,70134849,-0.40869328,-0.15241772,-0.5823141
70137821,70137347,-0.47101322,0.09537444,-0.7264853
70140329,70139847,-0.3392864,0.318335,-0.90990216
70145321,70144849,0.11403714,0.7423166,-0.9374793
70147809,70147347,0.31043652,1.0356889,-0.93684936
70150319,70149849,0.32042226,1.2899352,-0.9896222
70152870,70152399,0.44357505,1.4560949,-1.154718
70155322,70154848,0.76284176,1.514271,-1.4896164
70157809,70157347,0.69716483,1.2521632,-1.6418647
70160331,70159847,0.34149364,0.9466754,-1.6688612
70162813,70162347,0.28848517,0.5856067,-1.6196208
70165327,70164858,0.53409106,0.20091736,-1.6090604
70167806,70167347,0.7514449,-0.12337686,-1.6181008
70170322,70169849,0.8844654,-0.35063607,-1.5698637
70172859,70172396,0.8202771,-0.5088409,-1.5272114
70175351,70174885,0.57834476,-0.62399054,-1.5071194
70177849,70177387,0.24246055,-0.6966146,-1.3207405
70180307,70179847,0.030093549,-0.78792626,-1.184235
70182812,70182347,0.1274718,-0.70384187,-1.2090192
70185327,70184861,0.31681895,-0.41429976,-1.360903
70187807,70187347,0.40375906,-0.0035651373,-1.4516975
70190321,70189857,0.35517767,0.39663562,-1.3501476
70195323,70194856,0.5436126,1.0228469,-1.0538347
70197824,70197349,0.7367105,1.2082461,-0.9504212
70200326,70199853,0.75667393,1.2141441,-0.83336854
70202825,70202356,0.638811,1.0196424,-0.7440966
70205341,70204882,0.3188626,0.7130797,-0.6510114
70207812,70207347,-0.10535204,0.4316115,-0.42317182
70210307,70209847,-0.34921056,0.21070614,-0.03194362
70212833,70212361,-0.4565659,0.05476058,0.3491978
70215333,70214857,-0.58812237,-0.077904984,0.646311
70217831,70217369,-0.69953376,-0.23269606,0.9320285
70220307,70219847,-0.706843,-0.42086157,1.2570149
70222810,70222347,-0.666178,-0.4998598,1.4765441
70225322,70224857,-0.8076702,-0.36655706,1.5716851
70227815,70227356,-1.051691,-0.11087435,1.5586545
70230344,70229887,-1.1100316,0.20338047,1.4825698
70232859,70232397,-1.0909026,0.6393362,1.5718944
70235337,70234867,-1.2099507,1.031942,1.8373268
70237817,70237357,-1.2951087,1.1241575,2.024284
70240333,70239851,-1.1295677,1.1169919,2.1178207
70242810,70242347,-0.73627913,1.1397575,2.1829324
70245314,70244850,-0.3224631,0.9847365,2.2657106
70247806,70247347,-0.042411916,0.6579688,2.4037006
70250335,70249874,0.12593347,0.33843976,2.4406576
70252871,70252396,0.33197847,0.014943259,2.3042395
70255334,70254867,0.6006857,-0.5007553,2.0953107
70257808,70257349,0.7968954,-1.0361538,1.9233882
70260311,70259847,0.7941236,-1.2757725,1.9308375
70262809,70262347,0.5630132,-1.3492212,2.090484
70265330,70264864,0.47110122,-1.4411664,2.2303581
70267824,70267364,0.61489713,-1.5287652,2.2402792
70270322,70269849,0.62626207,-1.4844797,2.018944
70272815,70272352,0.50140136,-1.310707,1.6564192
70275321,70274857,0.35826898,-1.1078554,1.4269483
70277818,70277349,0.20809197,-0.83672816,1.2931616
70280307,70279847,0.09395541,-0.435064,1.0327793
70282861,70282396,-0.08831538,-0.05560752,0.7442893
70285324,70284853,-0.38084427,0.19458425,0.57933795
70287820,70287354,-0.6574055,0.33157188,0.45854583
70290327,70289866,-0.83888584,0.3654605,0.39103982
70292865,70292396,-0.8260778,0.31587738,0.20071511
70295344,70294876,-0.7972778,0.27212942,-0.03767951
70297816,70297356,-0.84628755,0.19230196,-0.21785437
70300335,70299862,-0.93828183,0.0524405,-0.39173523
70302820,70302354,-1.0626279,0.0061167097,-0.5599117
70305343,70304883,-1.0535251,-0.069844455,-0.73287904
70307809,70307349,-0.9530965,-0.27913317,-0.9589284
70310345,70309888,-0.7583555,-0.4229786,-1.1487715
70312858,70312396,-0.6031153,-0.49745345,-1.4317013
70315356,70314874,-0.4906168,-0.54561496,-1.6138309
70317828,70317350,-0.28188005,-0.6033256,-1.6593505
70320349,70319882,0.08939446,-0.6773577,-1.7973893
70322826,70322351,0.3255178,-0.6984582,-2.073075
70325369,70324891,0.3977642,-0.55366725,-2.1241457
70327809,70327350,0.7070166,-0.4362608,-2.3321817
70330374,70329898,1.0659031,-0.2956909,-2.3510048
70332822,70332363,1.2483455,-0.1817065,-2.4128282
70335410,70334937,1.1224525,-0.011440723,-2.3778615
70337814,70337354,0.9733033,0.26822782,-2.6057384
70340349,70339882,0.54162705,0.52947456,-2.3712566
70345359,70344892,0.30085567,0.89642984,-2.2290032
70347820,70347358,0.4047609,0.89203703,-2.1572404
70350313,70349853,0.5725385,0.7523466,-2.0247154
70352858,70352396,0.6384875,0.65350294,-1.9316984
70355349,70354871,0.5331342,0.616733,-1.890268
70357821,70357362,0.3727227,0.52036685,-1.7209032
70360310,70359850,0.21883105,0.36535853,-1.6084869
70362816,70362350,0.020760484,0.1614539,-1.5800506
70365326,70364856,-0.13237908,-0.063256726,-1.423153
70367813,70367350,-0.13693018,-0.2034641,-1.2388697
70370310,70369850,0.048746727,-0.2220939,-1.1602223
70372882,70372396,0.35611117,-0.21382359,-1.0212197
70375317,70374853,0.54877937,-0.18382733,-0.89275664
70377813,70377353,0.53425896,-0.09872475,-0.7304728
70380349,70379858,0.49168247,-0.035869677,-0.6034762
70382831,70382359,0.46782783,-0.003426362,-0.5323933
70385325,70384857,0.4275933,-0.02542654,-0.45418715
70387853,70387391,0.24234492,-0.08668159,-0.32029265
70390310,70389850,-0.038141806,-0.07998135,-0.14958426
70395332,70394865,-0.4070006,0.045742877,0.09654975
70397822,70397347,-0.5357528,0.086742215,0.19830191
70400331,70399855,-0.6952047,0.105100386,0.35863197
70402825,70402352,-0.77668536,0.10196938,0.5250138
70405317,70404853,-0.71706736,0.12484414,0.7703203
70407823,70407356,-0.61806405,0.13262044,0.96346605
70410325,70409847,-0.64128566,-0.088638835,1.058301
70412862,70412399,-0.77211857,-0.43049654,1.1442873
70415327,70414850,-0.7506407,-0.585821,1.2244775
70417826,70417357,-0.33940893,-0.56723905,1.1012772
70420332,70419859,0.063194074,-0.58100593,1.1468982
70422835,70422347,0.2442865,-0.55692124,1.2899522
70425318,70424850,0.31901166,-0.4748747,1.1892546
70427825,70427359,0.4433344,-0.37796608,1.0553247
70430309,70429847,0.6062459,-0.347945,1.1853715
70432871,70432396,0.5648773,-0.43084812,1.2696035
70435364,70434875,0.45133135,-0.51368994,1.2782607
70437828,70437347,0.46665448,-0.41756743,1.3454958
70440368,70439899,0.5794902,-0.26250634,1.3877254
70442829,70442349,0.7068665,-0.15784891,1.4336541
70445326,70444850,0.65752274,-0.011648049,1.4188001
70447816,70447347,0.53386474,0.10177189,1.4799973
70450334,70449868,0.50469327,0.113616556,1.4437944
70452864,70452396,0.5237158,0.07377821,1.364999
70455329,70454856,0.31456953,0.11253746,1.324374
70457815,70457347,0.011064829,0.16147734,1.1691779
70460313,70459847,-0.09656362,0.044085458,0.98627436
70462820,70462347,-0.11723582,-0.050103292,0.87823343
70465355,70464892,-0.09356846,0.009062922,0.8612703
70467809,70467347,-0.079825535,0.10995069,0.86299837
70470326,70469860,-0.16761138,0.16928686,0.8013973
70472830,70472365,-0.20179828,0.15932234,0.839815
70475318,70474850,-0.16393629,0.19171116,0.7997966
70477817,70477355,-0.20081359,0.29948825,0.6174509
70480314,70479847,-0.29785028,0.4031754,0.54376084
70482815,70482347,-0.31487867,0.4495725,0.56975484
70485318,70484850,-0.25243667,0.4792365,0.48154995
70487839,70487347,-0.32625586,0.5429916,0.34574038
70490323,70489847,-0.5260164,0.5210734,0.29981136
70492849,70492383,-0.61828774,0.3398825,0.24760401
70495320,70494850,-0.5687482,0.14392792,0.11983973
70497815,70497350,-0.42768064,0.032223202,-0.008640438
70500314,70499847,-0.32845178,-0.018143773,-0.064320564
70502822,70502347,-0.32388306,-0.06898935,-0.14020577
70505318,70504850,-0.36156654,-0.20717181,-0.21066122
70507812,70507347,-0.30844346,-0.4103876,-0.22555761
70510326,70509849,-0.1368497,-0.4733998,-0.25269514
70512818,70512350,0.14867237,-0.4752161,-0.3040528
70515325,70514850,0.45120734,-0.5206181,-0.40525496
70517815,70517350,0.6274054,-0.45999324,-0.54308474
70520334,70519847,0.7788809,-0.306948,-0.6176791
70522825,70522350,0.87284905,-0.1318227,-0.63038814
70525352,70524850,0.73170465,0.023085251,-0.63349533
70527820,70527350,0.4889359,0.067798235,-0.61049235
70530375,70529859,0.3799277,0.08248144,-0.5661342
70532856,70532396,0.3763919,0.094522454,-0.49363878
70535328,70534850,0.4167196,0.117481366,-0.4909751
70537820,70537356,0.5371856,0.19485007,-0.5802946
70540313,70539847,0.6703399,0.1921652,-0.648162
70542826,70542361,0.6275786,0.15002814,-0.62890834
70545358,70544895,0.3628556,0.1615865,-0.65471166
70547823,70547356,0.005659081,0.13760737,-0.72115284
70550325,70549856,-0.1328174,0.091878325,-0.67078257
70552840,70552380,-0.10941417,0.018922009,-0.6090166
70555323,70554850,-0.11480455,-0.0020079995,-0.6512872
70557828,70557366,-0.18640257,0.12855639,-0.65876126
70560324,70559847,-0.34863618,0.27043876,-0.5513781
70562868,70562393,-0.38269657,0.29803595,-0.37663895
70565319,70564850,-0.3045745,0.32816648,-0.38860428
70567823,70567358,-0.24740131,0.4074436,-0.4607442
70570310,70569847,-0.1670944,0.45468542,-0.46280035
70572817,70572355,-0.14476904,0.28954533,-0.43205068
70575343,70574866,-0.26148552,-0.026806448,-0.44514325
70577819,70577357,-0.24157062,-0.17942683,-0.4618481
70580310,70579847,-0.100856245,-0.05576406,-0.3758107
70582834,70582368,-0.075731196,0.0846579,-0.26501763
70585316,70584850,-0.12962231,0.042210486,-0.25629193
70587840,70587377,-0.06535244,-0.03300713,-0.24841325
70590313,70589850,0.0011711202,0.043217365,-0.17024335
70595317,70594849,0.09855118,0.3640553,-0.13115011
70597876,70597398,0.06296731,0.5015699,-0.18311504
70600310,70599847,-0.053170666,0.616479,-0.18153565
70602826,70602361,-0.032900803,0.636002,-0.11325201
70605317,70604850,0.04677754,0.68375766,-0.011520861
70607838,70607366,0.03172956,0.69095767,0.04004835
70610310,70609847,-0.09748425,0.5338483,0.047744453
70612850,70612390,-0.0901777,0.30282265,0.13898131
70615333,70614863,0.023495087,0.19308618,0.2785302
70617809,70617347,0.1102753,0.1058562,0.20334251
70620338,70619853,0.2280041,0.07388926,0.06787431
70622819,70622350,0.24640869,0.08361464,0.09505048
70625321,70624852,0.16957079,0.012211419,0.12218193
70627825,70627347,0.20749307,-0.13961515,0.096970275
70630322,70629847,0.34545305,-0.3035307,0.18201582
70632836,70632371,0.4424083,-0.3892168,0.33089513
70635320,70634853,0.47280416,-0.37081835,0.33667648
70637823,70637361,0.34941548,-0.38019648,0.28046215
70640317,70639847,0.28455052,-0.45601353,0.3391599
70642868,70642406,0.3485654,-0.45462555,0.35222992
70645316,70644850,0.34002116,-0.45428422,0.22368433
70647843,70647380,0.204108,-0.41785482,0.12067677
70650344,70649887,0.0043267305,-0.41054448,0.21794043
70652846,70652384,-0.27617165,-0.3348117,0.27308396
70655326,70654850,-0.4675213,-0.23220694,0.19999756
70657844,70657379,-0.4347181,-0.19574277,0.17858967
70660310,70659847,-0.40455982,-0.14858255,0.29990247
70662855,70662391,-0.457914,-0.061348632,0.32231998
70665317,70664850,-0.49930668,-0.020425232,0.21991266
70667856,70667393,-0.36186385,-0.02925149,0.20056386
70670328,70669858,-0.2621296,-0.0313812,0.26709113
70672827,70672365,-0.22096148,-0.018203557,0.30216235
70675317,70674850,-0.15422796,-0.044568773,0.33266407
70677834,70677372,-0.072424546,-0.044867214,0.27195266
70680316,70679851,-0.033851266,-0.008416255,0.18825881
70682862,70682394,-0.022340389,0.07833618,0.1599848
70685322,70684850,-0.011858342,0.24000202,0.18313476
70687875,70687411,-0.020287085,0.36760545,0.1508588
70690319,70689847,0.020102002,0.498302,0.086800575
70692845,70692380,0.10837407,0.5751457,0.015206332
70695316,70694850,0.12269327,0.5996613,-0.052398868
70697835,70697373,-0.07548512,0.44737113,-0.09115236
70700327,70699847,-0.20130552,0.36172488,-0.053239867
70702915,70702439,-0.07800617,0.37385413,0.016565334
70705321,70704850,-0.15364766,0.36280054,-0.011219086
70707821,70707359,-0.29341242,0.3071724,-0.11276821
70710315,70709847,-0.28470486,0.4346645,-0.18478583
70712869,70712399,-0.27985796,0.56026495,-0.19346114
70715319,70714853,-0.34144855,0.519686,-0.1338039
70717809,70717347,-0.46728626,0.36142784,-0.009601948
70720316,70719847,-0.54058266,0.31685382,0.06956191
70722816,70722347,-0.3732075,0.38512275,0.047379777
70725324,70724855,-0.018431868,0.45180508,-0.022316534
70727818,70727347,0.28016907,0.4665874,-0.03520585
70730332,70729847,0.3084883,0.40900335,-0.0008308096
70732840,70732373,0.27577204,0.27673405,-0.0024252615
70735332,70734858,0.3001511,0.113080174,-0.029380195
70737820,70737349,0.27024642,-0.06270631,-0.031654954
70740309,70739847,0.2704953,-0.19774237,-0.017211476
70742812,70742347,0.2734286,-0.27094036,-0.06780511
70745326,70744850,0.19509877,-0.2731056,-0.19725609
70747809,70747347,0.1381576,-0.28225303,-0.3099644
70750315,70749847,0.16839565,-0.32133162,-0.3796508
70752815,70752352,0.123565964,-0.3422382,-0.37451586
70755372,70754895,-0.05154571,-0.38459924,-0.3518829
70757809,70757347,-0.20472941,-0.44651374,-0.3359281
70760334,70759847,-0.32357126,-0.418894,-0.20371097
70762812,70762347,-0.45023215,-0.33769757,-0.15346986
70765325,70764850,-0.48040873,-0.28541112,-0.2227673
70767812,70767350,-0.4585025,-0.31902045,-0.27504042
70770313,70769847,-0.42532387,-0.34664634,-0.26658577
70772861,70772396,-0.23404841,-0.30902225,-0.22085443
70775335,70774859,0.05191755,-0.22288103,-0.26863307
70777820,70777358,0.22601846,-0.124367155,-0.32803872
70780310,70779847,0.23089673,-0.12714817,-0.30550674
70782815,70782347,0.12844028,-0.17839484,-0.31566507
70785332,70784850,0.042639263,-0.25759497,-0.35916048
70787820,70787356,0.021311345,-0.31755665,-0.27939826
70790310,70789847,-0.02923805,-0.24635182,-0.12873262
70795336,70794862,0.20869257,0.16341987,-0.08671249
70797814,70797349,0.29446837,0.3415999,-0.14382961
70800346,70799849,0.27430603,0.33769608,-0.2802588
70802816,70802347,0.2200096,0.28270748,-0.4326329
70805333,70804854,0.10659952,0.32119408,-0.43196204
70807853,70807387,-0.0761396,0.26827496,-0.2649633
70810347,70809877,-0.20180199,0.058744386,-0.11417491
70812888,70812399,-0.27002138,-0.07371998,-0.105178155
70815353,70814869,-0.31752643,-0.05165447,-0.17387001
70817877,70817402,-0.15848497,-0.020980678,-0.21615067
70820337,70819847,0.01071021,-0.010818197,-0.25676316
70822812,70822347,-0.048304442,0.02897866,-0.18168539
70825322,70824850,-0.1952304,0.068844944,-0.03402174
70827813,70827347,-0.16724439,0.06409416,0.09907974
70830314,70829851,-0.04362655,0.01381995,0.25629446
70832862,70832396,0.03307092,-0.043661647,0.30806905
70835333,70834850,0.085659,-0.11179552,0.21627481
70837824,70837356,0.122532,-0.11056799,0.107369676
70840312,70839847,0.13788724,-0.011974468,0.13789555
70842815,70842347,0.087534174,0.013056397,0.2957359
70845322,70844850,0.057920784,-0.055731636,0.3528786
70847816,70847353,0.11340666,-0.1026118,0.2461512
70850312,70849847,0.17197604,-0.18869999,0.21614489
70852865,70852396,0.12907937,-0.25537056,0.31348228
70855317,70854850,0.037975494,-0.1501805,0.41760254
70857827,70857347,0.01543256,-0.017404208,0.45144606
70860363,70859895,0.016266711,-0.022133533,0.45985734
70862822,70862356,-0.02615286,-0.03910344,0.51306266
70865317,70864849,-0.0728574,-0.0008797692,0.54644835
70867812,70867347,-0.06018961,0.03453872,0.51378137
70870314,70869847,-0.0031929463,0.024170429,0.41279906
70872858,70872396,-0.065166,0.033427868,0.3296469
70875322,70874850,-0.16652486,0.065780826,0.37826982
70877839,70877356,-0.12429895,-0.0064583095,0.43248767
70880309,70879847,-0.06912864,-0.17834434,0.47188434
70882810,70882347,-0.063278064,-0.2837941,0.45507503
70885316,70884850,-0.054825336,-0.34851295,0.40215573
70887860,70887347,0.022744114,-0.4984008,0.3960276
70890315,70889847,0.0992748,-0.6385355,0.39693424
70892863,70892400,0.08533494,-0.6971789,0.4242904
70895341,70894874,0.08842802,-0.718483,0.43879813
70897817,70897347,0.09806341,-0.5536327,0.33180693
70900337,70899850,0.023559986,-0.30143002,0.32156524
70902822,70902356,-0.14272694,-0.10612478,0.48331255
70905323,70904854,-0.22357231,-0.00973974,0.5135767
70907807,70907347,-0.11947191,-0.010642218,0.39056447
70910325,70909860,-0.028319359,-0.009162113,0.29186234
70912876,70912409,0.014084746,-0.0040993355,0.18821411
70915373,70914891,0.01323964,-0.053251706,0.09598326
70917808,70917348,-0.05686469,-0.10031172,-0.064385585
70920315,70919850,-0.059901223,-0.03976863,-0.20632072
70922810,70922347,-0.06533879,0.068257704,-0.1191015
70925328,70924850,-0.07427213,0.1499113,0.03843315
70927822,70927347,-0.004775406,0.20472574,0.03365592
70930312,70929847,0.008149445,0.14329213,-0.052245334
70932833,70932371,0.021404183,0.040853336,-0.15270849
70935345,70934877,0.092296354,0.040627647,-0.26729366
70937806,70937347,0.09489866,0.06449305,-0.28005397
70940346,70939879,0.10370987,0.1040818,-0.19864757
70942815,70942347,0.15363917,0.266197,-0.14886877
70945320,70944849,0.0980526,0.3733998,-0.101955816
70947818,70947349,0.12567593,0.3340142,-0.10802299
70950333,70949851,0.2967768,0.30966365,-0.15948081
70952822,70952362,0.30464,0.2789222,-0.1547084
70955328,70954857,0.22031009,0.16777076,-0.14675573
70957816,70957347,0.15413357,0.08730775,-0.23480324
70960335,70959850,0.043793537,0.08718489,-0.360153
70962809,70962347,-0.032846324,0.14324167,-0.40506575
70965353,70964892,-0.124905586,0.14591756,-0.36609796
70967806,70967347,-0.26080176,-0.021397658,-0.31111637
70970310,70969847,-0.30285835,-0.16512685,-0.20135161
70972858,70972396,-0.24803756,-0.14249408,-0.113706574
70975337,70974858,-0.09105248,-0.07529376,-0.16078298
70977817,70977358,0.14656419,0.09925543,-0.2843733
70980335,70979847,0.24417715,0.26713768,-0.28232563
70982817,70982350,0.18640427,0.25200757,-0.20960158
70985310,70984845,0.071905755,0.16591316,-0.1394845
70987806,70987347,-0.02283192,0.07183542,-0.03702412
70990317,70989854,0.088811606,0.03239197,-0.05678421
70995320,70994851,0.21291211,-0.101954006,0.047718037
70997815,70997349,0.19216558,-0.10691382,0.047358245
71000334,70999849,0.06790078,-0.020707212,0.068439685
71002821,71002350,0.02124675,0.044235773,0.0638663
71005329,71004866,0.03396639,0.05714974,0.082263105
71007826,71007350,-0.184264,-0.0374593,0.22811605
71010336,71009857,-0.26985362,-0.09759978,0.3380399
71012862,71012397,-0.13419794,-0.06096808,0.444715
71015362,71014882,-0.1316374,0.038769443,0.5090004
71017860,71017398,-0.23786367,0.17035726,0.3524373
71020344,71019867,-0.2639691,0.20238443,0.15126711
71022823,71022350,-0.17210732,0.16764425,-0.0027477392
71025334,71024878,-0.06547054,0.12637822,-0.08258866
71027822,71027356,0.08663959,0.042312037,-0.0043081185
71030341,71029877,0.13278006,-0.06431076,0.21823841
71032858,71032396,0.053065006,-0.20583284,0.44447953
71035366,71034889,0.10701781,-0.29276982,0.5079892
71037815,71037356,0.19857486,-0.14365527,0.4459644
71040356,71039887,0.17481634,0.12126456,0.39871183
71042816,71042350,0.13639896,0.29230163,0.3536655
71045363,71044898,0.07686134,0.27669236,0.27220243
71047815,71047350,0.0036528513,0.21924348,0.25369123
71050361,71049889,-0.07727702,0.15396258,0.2783048
71052838,71052378,-0.15624899,0.059765916,0.38386506
71055340,71054881,-0.17591794,-0.0252138,0.42896986
71057822,71057363,-0.20216449,-0.1336097,0.38233644
71060357,71059890,-0.20779274,-0.25090152,0.3017533
71062835,71062358,-0.1967367,-0.28487393,0.25150728
71065321,71064856,-0.19045667,-0.23072417,0.16101366
71067826,71067350,-0.11461355,-0.18783234,-0.00051532686
71070380,71069914,-0.09867034,-0.21502182,-0.09596545
71072860,71072398,-0.10187278,-0.27603328,-0.095008396
71075320,71074856,-0.07175096,-0.20313413,-0.061486993
71077812,71077353,-0.13358513,-0.054607786,0.028596863
71080335,71079850,-0.054343067,-0.022629237,0.06296218
71082812,71082350,0.020817667,-0.109683536,0.008601695
71085321,71084853,-0.06090935,-0.21030457,0.050387416
71087822,71087347,0.06038641,-0.22899552,0.09876724
71090317,71089847,0.15835705,-0.16449443,0.06779134
71092833,71092370,0.118930966,-0.09248392,0.09028845
71095337,71094867,0.22568022,-0.029215304,0.06151205
71097812,71097353,0.22313736,-0.0022943092,-0.15987505
71100312,71099847,0.04979999,-0.041410528,-0.3259069
71102819,71102347,-0.079136156,-0.06348698,-0.22613518
71105318,71104850,0.04859751,-0.05541332,-0.142108
71107811,71107347,0.24066754,-0.076188564,-0.18159112
71110315,71109847,0.1579495,-0.10890326,-0.21575838
71112876,71112396,-0.05603322,-0.16024253,-0.24698754
71115321,71114849,-0.3178962,-0.20033135,-0.25854132
71117824,71117361,-0.31521702,-0.17847264,-0.2683488
71120331,71119858,-0.034637593,-0.22142163,-0.32255912
71122863,71122394,0.11042866,-0.25513422,-0.34583762
71125322,71124850,0.019746048,-0.21652843,-0.34200093
71127819,71127351,-0.196104,-0.16573018,-0.30299786
71130336,71129858,-0.25421464,-0.12523447,-0.27839002
71132869,71132401,-0.14147167,-0.07257495,-0.19279201
71135317,71134850,-0.054585237,-0.043805532,-0.12486206
71137823,71137350,0.04158616,-0.086948186,-0.14241877
71140362,71139870,0.024347803,-0.18747413,-0.14853302
71142843,71142365,-0.10642796,-0.23707797,-0.16946507
71145315,71144850,-0.22630408,-0.1677608,-0.21589313
71147832,71147347,-0.2231866,-0.06393528,-0.22791687
71150316,71149847,-0.16093552,-0.04013311,-0.19547734
71152842,71152358,-0.17064326,-0.13681373,-0.09568626
71155317,71154850,-0.1227167,-0.19342546,-0.08377512
71157830,71157364,-0.08063849,-0.00535103,-0.21013048
71160335,71159859,-0.1535107,0.18068573,-0.26884577
71162822,71162349,-0.2328916,0.11090799,-0.13818106
71165316,71164850,-0.23665684,-0.030000428,0.04368288
71167839,71167368,-0.17750646,-0.034896486,0.0835126
71170312,71169847,-0.13200812,0.006744669,0.03400548
71172862,71172397,-0.07781766,-0.10319876,0.06918248
