timestamp,x,y,z,r,flaps,aux1,aux2,aux3,aux4,aux5,aux6,mode_switch,return_switch,rattitude_switch,posctl_switch,loiter_switch,acro_switch,offboard_switch,kill_switch,arm_switch,transition_switch,gear_switch,mode_slot,data_source,stab_switch,man_switch
68215511,-0.0,0.043583535,-0.0,-0.14841849,-1.0,0.0,0.0,0.0,0.0,0.0,0.0,0,0,0,0,0,0,0,3,1,0,0,4,1,0,0
68286060,-0.0,0.043583535,-0.0,-0.14841849,-1.0,0.0,0.0,0.0,0.0,0.0,0.0,0,0,0,0,0,0,0,3,1,0,0,4,1,0,0
68306350,-0.0,0.043583535,-0.0,-0.14841849,-1.0,0.0,0.0,0.0,0.0,0.0,0.0,0,0,0,0,0,0,0,3,1,0,0,4,1,0,0
68329531,-0.0,0.043583535,-0.0,-0.14841849,-1.0,0.0,0.0,0.0,0.0,0.0,0.0,0,0,0,0,0,0,0,3,1,0,0,4,1,0,0
68355558,-0.0,0.043583535,-0.0,-0.14841849,-1.0,0.0,0.0,0.0,0.0,0.0,0.0,0,0,0,0,0,0,0,3,1,0,0,4,1,0,0
68375497,-0.0,0.043583535,-0.0,-0.14841849,-1.0,0.0,0.0,0.0,0.0,0.0,0.0,0,0,0,0,0,0,0,3,1,0,0,4,1,0,0
68397291,-0.0,0.043583535,-0.0,-0.14841849,-1.0,0.0,0.0,0.0,0.0,0.0,0.0,0,0,0,0,0,0,0,3,1,0,0,4,1,0,0
68419908,-0.0,0.043583535,-0.0,-0.14841849,-1.0,0.0,0.0,0.0,0.0,0.0,0.0,0,0,0,0,0,0,0,3,1,0,0,4,1,0,0
68439901,-0.0,0.043583535,-0.0,-0.14841849,-1.0,0.0,0.0,0.0,0.0,0.0,0.0,0,0,0,0,0,0,0,3,1,0,0,4,1,0,0
68466222,-0.0,0.043583535,-0.0,-0.14841849,-1.0,0.0,0.0,0.0,0.0,0.0,0.0,0,0,0,0,0,0,0,3,1,0,0,4,1,0,0
68489720,-0.0,0.043583535,-0.0,-0.14841849,-1.0,0.0,0.0,0.0,0.0,0.0,0.0,0,0,0,0,0,0,0,3,1,0,0,4,1,0,0
68509720,-0.0,0.043583535,-0.0,-0.14841849,-1.0,0.0,0.0,0.0,0.0,0.0,0.0,0,0,0,0,0,0,0,3,1,0,0,4,1,0,0
68529735,-0.0,0.043583535,-0.0,-0.14841849,-1.0,0.0,0.0,0.0,0.0,0.0,0.0,0,0,0,0,0,0,0,3,1,0,0,4,1,0,0
68555542,-0.0,0.043583535,-0.0,-0.14841849,-1.0,0.0,0.0,0.0,0.0,0.0,0.0,0,0,0,0,0,0,0,3,1,0,0,4,1,0,0
68575646,-0.0,0.043583535,-0.0,-0.14841849,-1.0,0.0,0.0,0.0,0.0,0.0,0.0,0,0,0,0,0,0,0,3,1,0,0,4,1,0,0
68597392,-0.0,0.043583535,-0.0,-0.14841849,-1.0,0.0,0.0,0.0,0.0,0.0,0.0,0,0,0,0,0,0,0,3,1,0,0,4,1,0,0
68619790,-0.0,0.043583535,-0.0,-0.14841849,-1.0,0.0,0.0,0.0,0.0,0.0,0.0,0,0,0,0,0,0,0,3,1,0,0,4,1,0,0
68646274,-0.0,0.043583535,-0.0,-0.14841849,-1.0,0.0,0.0,0.0,0.0,0.0,0.0,0,0,0,0,0,0,0,3,1,0,0,4,1,0,0
68666259,-0.0,0.043583535,-0.0,-0.14841849,-1.0,0.0,0.0,0.0,0.0,0.0,0.0,0,0,0,0,0,0,0,3,1,0,0,4,1,0,0
68686730,-0.0,0.043583535,-0.0,-0.14841849,-1.0,0.0,0.0,0.0,0.0,0.0,0.0,0,0,0,0,0,0,0,3,1,0,0,4,1,0,0
68709743,-0.0,0.043583535,-0.0,-0.14841849,-1.0,0.0,0.0,0.0,0.0,0.0,0.0,0,0,0,0,0,0,0,3,1,0,0,4,1,0,0
68729773,-0.0,0.043583535,-0.0,-0.14841849,-1.0,0.0,0.0,0.0,0.0,0.0,0.0,0,0,0,0,0,0,0,3,1,0,0,4,1,0,0
68755542,-0.0,0.043583535,-0.0,-0.14841849,-1.0,0.0,0.0,0.0,0.0,0.0,0.0,0,0,0,0,0,0,0,3,1,0,0,4,1,0,0
68776104,-0.0,0.043583535,-0.0,-0.14841849,-1.0,0.0,0.0,0.0,0.0,0.0,0.0,0,0,0,0,0,0,0,3,1,0,0,4,1,0,0
68797567,-0.0,0.043583535,-0.0,-0.14841849,-1.0,0.0,0.0,0.0,0.0,0.0,0.0,0,0,0,0,0,0,0,3,1,0,0,4,1,0,0
68819890,-0.0,0.043583535,-0.0,-0.14841849,-1.0,0.0,0.0,0.0,0.0,0.0,0.0,0,0,0,0,0,0,0,3,1,0,0,4,1,0,0
68839826,-0.0,0.043583535,-0.0,-0.14841849,-1.0,0.0,0.0,0.0,0.0,0.0,0.0,0,0,0,0,0,0,0,3,1,0,0,4,1,0,0
68866039,-0.0,0.043583535,-0.0,-0.14841849,-1.0,0.0,0.0,0.0,0.0,0.0,0.0,0,0,0,0,0,0,0,3,1,0,0,4,1,0,0
68889604,-0.0,0.043583535,-0.0,-0.14841849,-1.0,0.0,0.0,0.0,0.0,0.0,0.0,0,0,0,0,0,0,0,3,1,0,0,4,1,0,0
68909936,-0.0,0.043583535,-0.0,-0.14841849,-1.0,0.0,0.0,0.0,0.0,0.0,0.0,0,0,0,0,0,0,0,3,1,0,0,4,1,0,0
68929928,-0.0,0.043583535,-0.0,-0.14841849,-1.0,0.0,0.0,0.0,0.0,0.0,0.0,0,0,0,0,0,0,0,3,1,0,0,4,1,0,0
68956295,-0.0,0.043583535,-0.0,-0.14841849,-1.0,0.0,0.0,0.0,0.0,0.0,0.0,0,0,0,0,0,0,0,3,1,0,0,4,1,0,0
68988997,-0.0,0.043583535,-0.0,-0.14841849,-1.0,0.0,0.0,0.0,0.0,0.0,0.0,0,0,0,0,0,0,0,3,1,0,0,4,1,0,0
69006537,-0.0,0.043583535,-0.0,-0.14841849,-1.0,0.0,0.0,0.0,0.0,0.0,0.0,0,0,0,0,0,0,0,3,1,0,0,4,1,0,0
69029790,-0.0,0.043583535,-0.0,-0.14841849,-1.0,0.0,0.0,0.0,0.0,0.0,0.0,0,0,0,0,0,0,0,3,1,0,0,4,1,0,0
69049801,-0.0,0.043583535,-0.0,-0.14841849,-1.0,0.0,0.0,0.0,0.0,0.0,0.0,0,0,0,0,0,0,0,3,1,0,0,4,1,0,0
69075514,-0.0,0.043583535,-0.0,-0.14841849,-1.0,0.0,0.0,0.0,0.0,0.0,0.0,0,0,0,0,0,0,0,3,1,0,0,4,1,0,0
69099635,-0.0,0.043583535,-0.0,-0.14841849,-1.0,0.0,0.0,0.0,0.0,0.0,0.0,0,0,0,0,0,0,0,3,1,0,0,4,1,0,0
69119801,-0.0,0.043583535,-0.0,-0.14841849,-1.0,0.0,0.0,0.0,0.0,0.0,0.0,0,0,0,0,0,0,0,3,1,0,0,4,1,0,0
69139901,-0.0,0.043583535,-0.0,-0.14841849,-1.0,0.0,0.0,0.0,0.0,0.0,0.0,0,0,0,0,0,0,0,3,1,0,0,4,1,0,0
69166381,-0.0,0.043583535,-0.0,-0.14841849,-1.0,0.0,0.0,0.0,0.0,0.0,0.0,0,0,0,0,0,0,0,3,1,0,0,4,1,0,0
69189806,-0.0,0.043583535,-0.0,-0.14841849,-1.0,0.0,0.0,0.0,0.0,0.0,0.0,0,0,0,0,0,0,0,3,1,0,0,4,1,0,0
69209927,-0.0,0.043583535,-0.0,-0.14841849,-1.0,0.0,0.0,0.0,0.0,0.0,0.0,0,0,0,0,0,0,0,3,1,0,0,4,1,0,0
69229723,-0.0,0.043583535,-0.0,-0.14841849,-1.0,0.0,0.0,0.0,0.0,0.0,0.0,0,0,0,0,0,0,0,3,1,0,0,4,1,0,0
69249906,-0.0,0.043583535,-0.0,-0.14841849,-1.0,0.0,0.0,0.0,0.0,0.0,0.0,0,0,0,0,0,0,0,3,1,0,0,4,1,0,0
69275809,-0.0,0.043583535,-0.0,-0.14841849,-1.0,0.0,0.0,0.0,0.0,0.0,0.0,0,0,0,0,0,0,0,3,1,0,0,4,1,0,0
69300001,-0.0,0.043583535,-0.0,-0.14841849,-1.0,0.0,0.0,0.0,0.0,0.0,0.0,0,0,0,0,0,0,0,3,1,0,0,4,1,0,0
69320163,-0.0,0.043583535,-0.0,-0.14841849,-1.0,0.0,0.0,0.0,0.0,0.0,0.0,0,0,0,0,0,0,0,3,1,0,0,4,1,0,0
69340077,-0.0,0.043583535,-0.0,-0.14841849,-1.0,0.0,0.0,0.0,0.0,0.0,0.0,0,0,0,0,0,0,0,3,1,0,0,4,1,0,0
69366078,-0.0,0.043583535,-0.0,-0.14841849,-1.0,0.0,0.0,0.0,0.0,0.0,0.0,0,0,0,0,0,0,0,3,1,0,0,4,1,0,0
69386268,-0.0,0.043583535,-0.0,-0.14841849,-1.0,0.0,0.0,0.0,0.0,0.0,0.0,0,0,0,0,0,0,0,3,1,0,0,4,1,0,0
69409912,-0.0,0.043583535,-0.0,-0.14841849,-1.0,0.0,0.0,0.0,0.0,0.0,0.0,0,0,0,0,0,0,0,3,1,0,0,4,1,0,0
69435807,-0.0,0.043583535,-0.0,-0.14841849,-1.0,0.0,0.0,0.0,0.0,0.0,0.0,0,0,0,0,0,0,0,3,1,0,0,4,1,0,0
69460024,-0.0,0.043583535,-0.0,-0.14841849,-1.0,0.0,0.0,0.0,0.0,0.0,0.0,0,0,0,0,0,0,0,3,1,0,0,4,1,0,0
69486376,-0.0,0.043583535,-0.0,-0.14841849,-1.0,0.0,0.0,0.0,0.0,0.0,0.0,0,0,0,0,0,0,0,3,1,0,0,4,1,0,0
69509693,-0.0,0.043583535,-0.0,-0.14841849,-1.0,0.0,0.0,0.0,0.0,0.0,0.0,0,0,0,0,0,0,0,3,1,0,0,4,1,0,0
69529725,-0.0,0.043583535,-0.0,-0.14841849,-1.0,0.0,0.0,0.0,0.0,0.0,0.0,0,0,0,0,0,0,0,3,1,0,0,4,1,0,0
69555554,-0.0,0.043583535,-0.0,-0.14841849,-1.0,0.0,0.0,0.0,0.0,0.0,0.0,0,0,0,0,0,0,0,3,1,0,0,4,1,0,0
69579752,-0.0,0.043583535,-0.0,-0.14841849,-1.0,0.0,0.0,0.0,0.0,0.0,0.0,0,0,0,0,0,0,0,3,1,0,0,4,1,0,0
69606064,-0.0,0.043583535,-0.0,-0.14841849,-1.0,0.0,0.0,0.0,0.0,0.0,0.0,0,0,0,0,0,0,0,3,1,0,0,4,1,0,0
69626151,-0.0,0.043583535,-0.0,-0.14841849,-1.0,0.0,0.0,0.0,0.0,0.0,0.0,0,0,0,0,0,0,0,3,1,0,0,4,1,0,0
69649658,-0.0,0.043583535,-0.0,-0.14841849,-1.0,0.0,0.0,0.0,0.0,0.0,0.0,0,0,0,0,0,0,0,3,1,0,0,4,1,0,0
69669812,-0.0,0.043583535,-0.0,-0.14841849,-1.0,0.0,0.0,0.0,0.0,0.0,0.0,0,0,0,0,0,0,0,3,1,0,0,4,1,0,0
69695604,-0.0,0.043583535,-0.0,-0.14841849,-1.0,0.0,0.0,0.0,0.0,0.0,0.0,0,0,0,0,0,0,0,3,1,0,0,4,1,0,0
69719685,-0.0,0.043583535,-0.0,-0.14841849,-1.0,0.0,0.0,0.0,0.0,0.0,0.0,0,0,0,0,0,0,0,3,1,0,0,4,1,0,0
69740203,-0.0,0.043583535,-0.0,-0.14841849,-1.0,0.0,0.0,0.0,0.0,0.0,0.0,0,0,0,0,0,0,0,3,1,0,0,4,1,0,0
69765556,-0.0,0.043583535,-0.0,-0.14841849,-1.0,0.0,0.0,0.0,0.0,0.0,0.0,0,0,0,0,0,0,0,3,1,0,0,4,1,0,0
69786105,-0.0,0.043583535,-0.0,-0.14841849,-1.0,0.0,0.0,0.0,0.0,0.0,0.0,0,0,0,0,0,0,0,3,1,0,0,4,1,0,0
69809578,-0.0,0.043583535,-0.0,-0.14841849,-1.0,0.0,0.0,0.0,0.0,0.0,0.0,0,0,0,0,0,0,0,3,1,0,0,4,1,0,0
69829562,-0.0,0.043583535,-0.0,-0.14841849,-1.0,0.0,0.0,0.0,0.0,0.0,0.0,0,0,0,0,0,0,0,3,1,0,0,4,1,0,0
69849649,-0.0,0.043583535,-0.0,-0.14841849,-1.0,0.0,0.0,0.0,0.0,0.0,0.0,0,0,0,0,0,0,0,3,1,0,0,4,1,0,0
69869740,-0.0,0.043583535,-0.0,-0.14841849,-1.0,0.0,0.0,0.0,0.0,0.0,0.0,0,0,0,0,0,0,0,3,1,0,0,4,1,0,0
69889763,-0.0,0.043583535,-0.0,-0.14841849,-1.0,0.0,0.0,0.0,0.0,0.0,0.0,0,0,0,0,0,0,0,3,1,0,0,4,1,0,0
69909688,-0.0,0.043583535,-0.0,-0.14841849,-1.0,0.0,0.0,0.0,0.0,0.0,0.0,0,0,0,0,0,0,0,3,1,0,0,4,1,0,0
69935560,-0.0,0.043583535,-0.0,-0.14841849,-1.0,0.0,0.0,0.0,0.0,0.0,0.0,0,0,0,0,0,0,0,3,1,0,0,4,1,0,0
69955561,-0.0,0.043583535,-0.0,-0.14841849,-1.0,0.0,0.0,0.0,0.0,0.0,0.0,0,0,0,0,0,0,0,3,1,0,0,4,1,0,0
69975646,-0.0,0.043583535,-0.0,-0.14841849,-1.0,0.0,0.0,0.0,0.0,0.0,0.0,0,0,0,0,0,0,0,3,1,0,0,4,1,0,0
70006112,-0.0,0.043583535,-0.0,-0.14841849,-1.0,0.0,0.0,0.0,0.0,0.0,0.0,0,0,0,0,0,0,0,3,1,0,0,4,1,0,0
70019746,-0.0,0.043583535,-0.0,-0.14841849,-1.0,0.0,0.0,0.0,0.0,0.0,0.0,0,0,0,0,0,0,0,3,1,0,0,4,1,0,0
70039740,-0.0,0.043583535,-0.0,-0.14841849,-1.0,0.0,0.0,0.0,0.0,0.0,0.0,0,0,0,0,0,0,0,3,1,0,0,4,1,0,0
70059812,-0.0,0.043583535,-0.0,-0.14841849,-1.0,0.0,0.0,0.0,0.0,0.0,0.0,0,0,0,0,0,0,0,3,1,0,0,4,1,0,0
70086259,-0.0,0.043583535,-0.0,-0.14841849,-1.0,0.0,0.0,0.0,0.0,0.0,0.0,0,0,0,0,0,0,0,3,1,0,0,4,1,0,0
70109757,-0.0,0.043583535,-0.0,-0.14841849,-1.0,0.0,0.0,0.0,0.0,0.0,0.0,0,0,0,0,0,0,0,3,1,0,0,4,1,0,0
70129812,-0.0,0.043583535,-0.0,-0.14841849,-1.0,0.0,0.0,0.0,0.0,0.0,0.0,0,0,0,0,0,0,0,3,1,0,0,4,1,0,0
70149826,-0.0,0.043583535,-0.0,-0.14841849,-1.0,0.0,0.0,0.0,0.0,0.0,0.0,0,0,0,0,0,0,0,3,1,0,0,4,1,0,0
70175571,-0.0,0.043583535,-0.0,-0.14841849,-1.0,0.0,0.0,0.0,0.0,0.0,0.0,0,0,0,0,0,0,0,3,1,0,0,4,1,0,0
70197255,-0.0,0.043583535,-0.0,-0.14841849,-1.0,0.0,0.0,0.0,0.0,0.0,0.0,0,0,0,0,0,0,0,3,1,0,0,4,1,0,0
70220043,-0.0,0.043583535,-0.0,-0.14841849,-1.0,0.0,0.0,0.0,0.0,0.0,0.0,0,0,0,0,0,0,0,3,1,0,0,4,1,0,0
70239808,-0.0,0.043583535,-0.0,-0.14841849,-1.0,0.0,0.0,0.0,0.0,0.0,0.0,0,0,0,0,0,0,0,3,1,0,0,4,1,0,0
70266300,-0.0,0.043583535,-0.0,-0.14841849,-1.0,0.0,0.0,0.0,0.0,0.0,0.0,0,0,0,0,0,0,0,3,1,0,0,4,1,0,0
70286357,-0.0,0.043583535,-0.0,-0.14841849,-1.0,0.0,0.0,0.0,0.0,0.0,0.0,0,0,0,0,0,0,0,3,1,0,0,4,1,0,0
70309592,-0.0,0.043583535,-0.0,-0.14841849,-1.0,0.0,0.0,0.0,0.0,0.0,0.0,0,0,0,0,0,0,0,3,1,0,0,4,1,0,0
70335530,-0.0,0.043583535,-0.0,-0.14841849,-1.0,0.0,0.0,0.0,0.0,0.0,0.0,0,0,0,0,0,0,0,3,1,0,0,4,1,0,0
70355638,-0.0,0.043583535,-0.0,-0.14841849,-1.0,0.0,0.0,0.0,0.0,0.0,0.0,0,0,0,0,0,0,0,3,1,0,0,4,1,0,0
70379638,-0.0,0.043583535,-0.0,-0.14841849,-1.0,0.0,0.0,0.0,0.0,0.0,0.0,0,0,0,0,0,0,0,3,1,0,0,4,1,0,0
70399666,-0.0,0.043583535,-0.0,-0.14841849,-1.0,0.0,0.0,0.0,0.0,0.0,0.0,0,0,0,0,0,0,0,3,1,0,0,4,1,0,0
70419691,-0.0,0.043583535,-0.0,-0.14841849,-1.0,0.0,0.0,0.0,0.0,0.0,0.0,0,0,0,0,0,0,0,3,1,0,0,4,1,0,0
70439676,-0.0,0.043583535,-0.0,-0.14841849,-1.0,0.0,0.0,0.0,0.0,0.0,0.0,0,0,0,0,0,0,0,3,1,0,0,4,1,0,0
70459654,-0.0,0.043583535,-0.0,-0.14841849,-1.0,0.0,0.0,0.0,0.0,0.0,0.0,0,0,0,0,0,0,0,3,1,0,0,4,1,0,0
70479676,-0.0,0.043583535,-0.0,-0.14841849,-1.0,0.0,0.0,0.0,0.0,0.0,0.0,0,0,0,0,0,0,0,3,1,0,0,4,1,0,0
70499792,-0.0,0.043583535,-0.0,-0.14841849,-1.0,0.0,0.0,0.0,0.0,0.0,0.0,0,0,0,0,0,0,0,3,1,0,0,4,1,0,0
70526192,-0.0,0.043583535,-0.0,-0.14841849,-1.0,0.0,0.0,0.0,0.0,0.0,0.0,0,0,0,0,0,0,0,3,1,0,0,4,1,0,0
70549709,-0.0,0.043583535,-0.0,-0.14841849,-1.0,0.0,0.0,0.0,0.0,0.0,0.0,0,0,0,0,0,0,0,3,1,0,0,4,1,0,0
70575694,-0.0,0.043583535,-0.0,-0.14841849,-1.0,0.0,0.0,0.0,0.0,0.0,0.0,0,0,0,0,0,0,0,3,1,0,0,4,1,0,0
70597194,-0.0,0.043583535,-0.0,-0.14841849,-1.0,0.0,0.0,0.0,0.0,0.0,0.0,0,0,0,0,0,0,0,3,1,0,0,4,1,0,0
70619705,-0.0,0.043583535,-0.0,-0.14841849,-1.0,0.0,0.0,0.0,0.0,0.0,0.0,0,0,0,0,0,0,0,3,1,0,0,4,1,0,0
70639933,-0.0,0.043583535,-0.0,-0.14841849,-1.0,0.0,0.0,0.0,0.0,0.0,0.0,0,0,0,0,0,0,0,3,1,0,0,4,1,0,0
70666189,-0.0,0.043583535,-0.0,-0.14841849,-1.0,0.0,0.0,0.0,0.0,0.0,0.0,0,0,0,0,0,0,0,3,1,0,0,4,1,0,0
70686249,-0.0,0.043583535,-0.0,-0.14841849,-1.0,0.0,0.0,0.0,0.0,0.0,0.0,0,0,0,0,0,0,0,3,1,0,0,4,1,0,0
70709732,-0.0,0.043583535,-0.0,-0.14841849,-1.0,0.0,0.0,0.0,0.0,0.0,0.0,0,0,0,0,0,0,0,3,1,0,0,4,1,0,0
70729749,-0.0,0.043583535,-0.0,-0.14841849,-1.0,0.0,0.0,0.0,0.0,0.0,0.0,0,0,0,0,0,0,0,3,1,0,0,4,1,0,0
70755572,-0.0,0.043583535,-0.0,-0.14841849,-1.0,0.0,0.0,0.0,0.0,0.0,0.0,0,0,0,0,0,0,0,3,1,0,0,4,1,0,0
70775521,-0.0,0.043583535,-0.0,-0.14841849,-1.0,0.0,0.0,0.0,0.0,0.0,0.0,0,0,0,0,0,0,0,3,1,0,0,4,1,0,0
70797323,-0.0,0.043583535,-0.0,-0.14841849,-1.0,0.0,0.0,0.0,0.0,0.0,0.0,0,0,0,0,0,0,0,3,1,0,0,4,1,0,0
70819942,-0.0,0.043583535,-0.0,-0.14841849,-1.0,0.0,0.0,0.0,0.0,0.0,0.0,0,0,0,0,0,0,0,3,1,0,0,4,1,0,0
70846295,-0.0,0.043583535,-0.0,-0.14841849,-1.0,0.0,0.0,0.0,0.0,0.0,0.0,0,0,0,0,0,0,0,3,1,0,0,4,1,0,0
70869728,-0.0,0.043583535,-0.0,-0.14841849,-1.0,0.0,0.0,0.0,0.0,0.0,0.0,0,0,0,0,0,0,0,3,1,0,0,4,1,0,0
70889767,-0.0,0.043583535,-0.0,-0.14841849,-1.0,0.0,0.0,0.0,0.0,0.0,0.0,0,0,0,0,0,0,0,3,1,0,0,4,1,0,0
70915573,-0.0,0.043583535,-0.0,-0.14841849,-1.0,0.0,0.0,0.0,0.0,0.0,0.0,0,0,0,0,0,0,0,3,1,0,0,4,1,0,0
70935569,-0.0,0.043583535,-0.0,-0.14841849,-1.0,0.0,0.0,0.0,0.0,0.0,0.0,0,0,0,0,0,0,0,3,1,0,0,4,1,0,0
70959788,-0.0,0.043583535,-0.0,-0.14841849,-1.0,0.0,0.0,0.0,0.0,0.0,0.0,0,0,0,0,0,0,0,3,1,0,0,4,1,0,0
70985663,-0.0,0.043583535,-0.0,-0.14841849,-1.0,0.0,0.0,0.0,0.0,0.0,0.0,0,0,0,0,0,0,0,3,1,0,0,4,1,0,0
71014488,-0.0,0.043583535,-0.0,-0.14841849,-1.0,0.0,0.0,0.0,0.0,0.0,0.0,0,0,0,0,0,0,0,3,1,0,0,4,1,0,0
71029768,-0.0,0.043583535,-0.0,-0.14841849,-1.0,0.0,0.0,0.0,0.0,0.0,0.0,0,0,0,0,0,0,0,3,1,0,0,4,1,0,0
71049789,-0.0,0.043583535,-0.0,-0.14841849,-1.0,0.0,0.0,0.0,0.0,0.0,0.0,0,0,0,0,0,0,0,3,1,0,0,4,1,0,0
71069802,-0.0,0.043583535,-0.0,-0.14841849,-1.0,0.0,0.0,0.0,0.0,0.0,0.0,0,0,0,0,0,0,0,3,1,0,0,4,1,0,0
71095665,-0.0,0.043583535,-0.0,-0.14841849,-1.0,0.0,0.0,0.0,0.0,0.0,0.0,0,0,0,0,0,0,0,3,1,0,0,4,1,0,0
71115673,-0.0,0.043583535,-0.0,-0.14841849,-1.0,0.0,0.0,0.0,0.0,0.0,0.0,0,0,0,0,0,0,0,3,1,0,0,4,1,0,0
71140091,-0.0,0.043583535,-0.0,-0.14841849,-1.0,0.0,0.0,0.0,0.0,0.0,0.0,0,0,0,0,0,0,0,3,1,0,0,4,1,0,0
71166438,-0.0,0.043583535,-0.0,-0.14841849,-1.0,0.0,0.0,0.0,0.0,0.0,0.0,0,0,0,0,0,0,0,3,1,0,0,4,1,0,0
71189651,-0.0,0.041162226,-0.0,-0.14841849,-1.0,0.0,0.0,0.0,0.0,0.0,0.0,0,0,0,0,0,0,0,3,1,0,0,4,1,0,0
71215258,-0.0,0.041162226,-0.0,-0.14841849,-1.0,0.0,0.0,0.0,0.0,0.0,0.0,0,0,0,0,0,0,0,3,1,0,0,4,1,0,0
71235569,-0.0,0.03874092,-0.0,-0.14841849,-1.0,0.0,0.0,0.0,0.0,0.0,0.0,0,0,0,0,0,0,0,3,1,0,0,4,1,0,0
71259618,-0.0,0.01937046,-0.0,-0.14841849,-1.0,0.0,0.0,0.0,0.0,0.0,0.0,0,0,0,0,0,0,0,3,1,0,0,4,1,0,0
71279669,-0.0,0.0024213076,-0.0,-0.14841849,-1.0,0.0,0.0,0.0,0.0,0.0,0.0,0,0,0,0,0,0,0,3,1,0,0,4,1,0,0
71299634,-0.0,-0.024570024,-0.0,-0.14841849,-1.0,0.0,0.0,0.0,0.0,0.0,0.0,0,0,0,0,0,0,0,3,1,0,0,4,1,0,0
71319651,-0.0,-0.06388206,-0.0,-0.14841849,-1.0,0.0,0.0,0.0,0.0,0.0,0.0,0,0,0,0,0,0,0,3,1,0,0,4,1,0,0
71339815,-0.0,-0.18427518,-0.0,-0.14841849,-1.0,0.0,0.0,0.0,0.0,0.0,0.0,0,0,0,0,0,0,0,3,1,0,0,4,1,0,0
71366132,-0.0,-0.27027026,-0.0,-0.14841849,-1.0,0.0,0.0,0.0,0.0,0.0,0.0,0,0,0,0,0,0,0,3,1,0,0,4,1,0,0
71386251,-0.0,-0.2948403,-0.0,-0.14841849,-1.0,0.0,0.0,0.0,0.0,0.0,0.0,0,0,0,0,0,0,0,3,1,0,0,4,1,0,0
71409680,-0.0,-0.34643734,-0.0,-0.14841849,-1.0,0.0,0.0,0.0,0.0,0.0,0.0,0,0,0,0,0,0,0,3,1,0,0,4,1,0,0
71429710,-0.0,-0.35872236,-0.0,-0.14841849,-1.0,0.0,0.0,0.0,0.0,0.0,0.0,0,0,0,0,0,0,0,3,1,0,0,4,1,0,0
71449723,-0.0,-0.36363637,-0.0,-0.14841849,-1.0,0.0,0.0,0.0,0.0,0.0,0.0,0,0,0,0,0,0,0,3,1,0,0,4,1,0,0
71475584,-0.0,-0.36609337,-0.0,-0.14841849,-1.0,0.0,0.0,0.0,0.0,0.0,0.0,0,0,0,0,0,0,0,3,1,0,0,4,1,0,0
71496220,-0.0,-0.26781327,-0.0,-0.14841849,-1.0,0.0,0.0,0.0,0.0,0.0,0.0,0,0,0,0,0,0,0,3,1,0,0,4,1,0,0
71519898,-0.0,-0.22604422,-0.0,-0.14841849,-1.0,0.0,0.0,0.0,0.0,0.0,0.0,0,0,0,0,0,0,0,3,1,0,0,4,1,0,0
71539907,-0.0,-0.11302211,-0.0,-0.14841849,-1.0,0.0,0.0,0.0,0.0,0.0,0.0,0,0,0,0,0,0,0,3,1,0,0,4,1,0,0
71566245,-0.0,-0.01965602,-0.0,-0.14841849,-1.0,0.0,0.0,0.0,0.0,0.0,0.0,0,0,0,0,0,0,0,3,1,0,0,4,1,0,0
71589766,-0.0,0.07263923,-0.0,-0.14841849,-1.0,0.0,0.0,0.0,0.0,0.0,0.0,0,0,0,0,0,0,0,3,1,0,0,4,1,0,0
71615610,-0.0,0.111380145,-0.0,-0.14841849,-1.0,0.0,0.0,0.0,0.0,0.0,0.0,0,0,0,0,0,0,0,3,1,0,0,4,1,0,0
71639789,-0.0,0.23002422,-0.0,-0.14841849,-1.0,0.0,0.0,0.0,0.0,0.0,0.0,0,0,0,0,0,0,0,3,1,0,0,4,1,0,0
71666297,-0.0,0.37046006,-0.0,-0.14841849,-1.0,0.0,0.0,0.0,0.0,0.0,0.0,0,0,0,0,0,0,0,3,1,0,0,4,1,0,0
71686296,-0.0,0.42372882,-0.0,-0.14841849,-1.0,0.0,0.0,0.0,0.0,0.0,0.0,0,0,0,0,0,0,0,3,1,0,0,4,1,0,0
71706310,-0.0,0.5472155,-0.0,-0.14841849,-1.0,0.0,0.0,0.0,0.0,0.0,0.0,0,0,0,0,0,0,0,3,1,0,0,4,1,0,0
71729609,-0.0,0.5956417,-0.0,-0.14841849,-1.0,0.0,0.0,0.0,0.0,0.0,0.0,0,0,0,0,0,0,0,3,1,0,0,4,1,0,0
71749950,-0.0,0.6029056,-0.0,-0.14841849,-1.0,0.0,0.0,0.0,0.0,0.0,0.0,0,0,0,0,0,0,0,3,1,0,0,4,1,0,0
71775537,-0.0,0.53753024,-0.0,-0.14841849,-1.0,0.0,0.0,0.0,0.0,0.0,0.0,0,0,0,0,0,0,0,3,1,0,0,4,1,0,0
71797075,-0.0,0.47941887,-0.0,-0.14841849,-1.0,0.0,0.0,0.0,0.0,0.0,0.0,0,0,0,0,0,0,0,3,1,0,0,4,1,0,0
71819728,-0.0,0.2881356,-0.0,-0.14841849,-1.0,0.0,0.0,0.0,0.0,0.0,0.0,0,0,0,0,0,0,0,3,1,0,0,4,1,0,0
71846139,-0.0,0.09443099,-0.0,-0.14841849,-1.0,0.0,0.0,0.0,0.0,0.0,0.0,0,0,0,0,0,0,0,3,1,0,0,4,1,0,0
71866428,-0.0,0.031476997,-0.0,-0.14841849,-1.0,0.0,0.0,0.0,0.0,0.0,0.0,0,0,0,0,0,0,0,3,1,0,0,4,1,0,0
71889643,-0.0,-0.05159705,-0.0,-0.14841849,-1.0,0.0,0.0,0.0,0.0,0.0,0.0,0,0,0,0,0,0,0,3,1,0,0,4,1,0,0
71915651,-0.0,-0.13022113,-0.0,-0.14841849,-1.0,0.0,0.0,0.0,0.0,0.0,0.0,0,0,0,0,0,0,0,3,1,0,0,4,1,0,0
71939944,-0.0,-0.1941032,-0.0,-0.14841849,-1.0,0.0,0.0,0.0,0.0,0.0,0.0,0,0,0,0,0,0,0,3,1,0,0,4,1,0,0
71966291,-0.0,-0.23832923,-0.0,-0.14841849,-1.0,0.0,0.0,0.0,0.0,0.0,0.0,0,0,0,0,0,0,0,3,1,0,0,4,1,0,0
71989622,-0.0,-0.25552824,-0.0,-0.14841849,-1.0,0.0,0.0,0.0,0.0,0.0,0.0,0,0,0,0,0,0,0,3,1,0,0,4,1,0,0
72022670,-0.0,-0.15233415,-0.0,-0.14841849,-1.0,0.0,0.0,0.0,0.0,0.0,0.0,0,0,0,0,0,0,0,3,1,0,0,4,1,0,0
72035700,-0.0,-0.1007371,-0.0,-0.14841849,-1.0,0.0,0.0,0.0,0.0,0.0,0.0,0,0,0,0,0,0,0,3,1,0,0,4,1,0,0
72059760,-0.0,0.041162226,-0.0,-0.14841849,-1.0,0.0,0.0,0.0,0.0,0.0,0.0,0,0,0,0,0,0,0,3,1,0,0,4,1,0,0
72079764,-0.0,0.10169491,-0.0,-0.14841849,-1.0,0.0,0.0,0.0,0.0,0.0,0.0,0,0,0,0,0,0,0,3,1,0,0,4,1,0,0
72099793,-0.0,0.27118644,-0.0,-0.14841849,-1.0,0.0,0.0,0.0,0.0,0.0,0.0,0,0,0,0,0,0,0,3,1,0,0,4,1,0,0
72119976,-0.0,0.3244552,-0.0,-0.14841849,-1.0,0.0,0.0,0.0,0.0,0.0,0.0,0,0,0,0,0,0,0,3,1,0,0,4,1,0,0
72146313,-0.0,0.4479419,-0.0,-0.14841849,-1.0,0.0,0.0,0.0,0.0,0.0,0.0,0,0,0,0,0,0,0,3,1,0,0,4,1,0,0
72169683,-0.0,0.48910412,-0.0,-0.14841849,-1.0,0.0,0.0,0.0,0.0,0.0,0.0,0,0,0,0,0,0,0,3,1,0,0,4,1,0,0
72197417,-0.0,0.47699758,-0.0,-0.14841849,-1.0,0.0,0.0,0.0,0.0,0.0,0.0,0,0,0,0,0,0,0,3,1,0,0,4,1,0,0
72219699,-0.0,0.4213075,-0.0,-0.14841849,-1.0,0.0,0.0,0.0,0.0,0.0,0.0,0,0,0,0,0,0,0,3,1,0,0,4,1,0,0
72239677,-0.0,0.18401937,-0.0,-0.14841849,-1.0,0.0,0.0,0.0,0.0,0.0,0.0,0,0,0,0,0,0,0,3,1,0,0,4,1,0,0
72259943,-0.0,0.09443099,-0.0,-0.14841849,-1.0,0.0,0.0,0.0,0.0,0.0,0.0,0,0,0,0,0,0,0,3,1,0,0,4,1,0,0
72286240,-0.0,-0.07125307,-0.0,-0.14841849,-1.0,0.0,0.0,0.0,0.0,0.0,0.0,0,0,0,0,0,0,0,3,1,0,0,4,1,0,0
72309606,-0.0,-0.23587224,-0.0,-0.14841849,-1.0,0.0,0.0,0.0,0.0,0.0,0.0,0,0,0,0,0,0,0,3,1,0,0,4,1,0,0
72329657,-0.0,-0.2899263,-0.0,-0.14841849,-1.0,0.0,0.0,0.0,0.0,0.0,0.0,0,0,0,0,0,0,0,3,1,0,0,4,1,0,0
72355561,-0.0,-0.4152334,-0.0,-0.14841849,-1.0,0.0,0.0,0.0,0.0,0.0,0.0,0,0,0,0,0,0,0,3,1,0,0,4,1,0,0
72375794,-0.0,-0.45700246,-0.0,-0.14841849,-1.0,0.0,0.0,0.0,0.0,0.0,0.0,0,0,0,0,0,0,0,3,1,0,0,4,1,0,0
72397062,-0.0,-0.47420147,-0.0,-0.14841849,-1.0,0.0,0.0,0.0,0.0,0.0,0.0,0,0,0,0,0,0,0,3,1,0,0,4,1,0,0
72419934,-0.0,-0.46191648,-0.0,-0.14841849,-1.0,0.0,0.0,0.0,0.0,0.0,0.0,0,0,0,0,0,0,0,3,1,0,0,4,1,0,0
72446028,-0.0,-0.36363637,-0.0,-0.14841849,-1.0,0.0,0.0,0.0,0.0,0.0,0.0,0,0,0,0,0,0,0,3,1,0,0,4,1,0,0
72465709,-0.0,-0.26289925,-0.0,-0.14841849,-1.0,0.0,0.0,0.0,0.0,0.0,0.0,0,0,0,0,0,0,0,3,1,0,0,4,1,0,0
72486081,-0.0,0.0,-0.0,-0.14841849,-1.0,0.0,0.0,0.0,0.0,0.0,0.0,0,0,0,0,0,0,0,3,1,0,0,4,1,0,0
72509923,-0.0,0.08232445,-0.0,-0.14841849,-1.0,0.0,0.0,0.0,0.0,0.0,0.0,0,0,0,0,0,0,0,3,1,0,0,4,1,0,0
72529903,-0.0,0.27118644,-0.0,-0.14841849,-1.0,0.0,0.0,0.0,0.0,0.0,0.0,0,0,0,0,0,0,0,3,1,0,0,4,1,0,0
72549908,-0.0,0.32687652,-0.0,-0.14841849,-1.0,0.0,0.0,0.0,0.0,0.0,0.0,0,0,0,0,0,0,0,3,1,0,0,4,1,0,0
72575556,-0.0,0.43099272,-0.0,-0.14841849,-1.0,0.0,0.0,0.0,0.0,0.0,0.0,0,0,0,0,0,0,0,3,1,0,0,4,1,0,0
72597015,-0.0,0.45762712,-0.0,-0.14841849,-1.0,0.0,0.0,0.0,0.0,0.0,0.0,0,0,0,0,0,0,0,3,1,0,0,4,1,0,0
72619910,-0.0,0.4842615,-0.0,-0.14841849,-1.0,0.0,0.0,0.0,0.0,0.0,0.0,0,0,0,0,0,0,0,3,1,0,0,4,1,0,0
72645836,-0.0,0.4503632,-0.0,-0.14841849,-1.0,0.0,0.0,0.0,0.0,0.0,0.0,0,0,0,0,0,0,0,3,1,0,0,4,1,0,0
72669946,-0.0,0.34140435,-0.0,-0.14841849,-1.0,0.0,0.0,0.0,0.0,0.0,0.0,0,0,0,0,0,0,0,3,1,0,0,4,1,0,0
72689785,-0.0,0.2639225,-0.0,-0.14841849,-1.0,0.0,0.0,0.0,0.0,0.0,0.0,0,0,0,0,0,0,0,3,1,0,0,4,1,0,0
72715617,-0.0,0.026634382,-0.0,-0.14841849,-1.0,0.0,0.0,0.0,0.0,0.0,0.0,0,0,0,0,0,0,0,3,1,0,0,4,1,0,0
72739926,-0.0,-0.13267814,-0.0,-0.14841849,-1.0,0.0,0.0,0.0,0.0,0.0,0.0,0,0,0,0,0,0,0,3,1,0,0,4,1,0,0
72765709,-0.0,-0.25552824,-0.0,-0.14841849,-1.0,0.0,0.0,0.0,0.0,0.0,0.0,0,0,0,0,0,0,0,3,1,0,0,4,1,0,0
72789783,-0.0,-0.33415234,-0.0,-0.14841849,-1.0,0.0,0.0,0.0,0.0,0.0,0.0,0,0,0,0,0,0,0,3,1,0,0,4,1,0,0
72809745,-0.0,-0.36609337,-0.0,-0.14841849,-1.0,0.0,0.0,0.0,0.0,0.0,0.0,0,0,0,0,0,0,0,3,1,0,0,4,1,0,0
72835659,-0.0,-0.3046683,-0.0,-0.14841849,-1.0,0.0,0.0,0.0,0.0,0.0,0.0,0,0,0,0,0,0,0,3,1,0,0,4,1,0,0
72855833,-0.0,-0.22604422,-0.0,-0.14841849,-1.0,0.0,0.0,0.0,0.0,0.0,0.0,0,0,0,0,0,0,0,3,1,0,0,4,1,0,0
72879762,-0.0,0.004842615,-0.0,-0.14841849,-1.0,0.0,0.0,0.0,0.0,0.0,0.0,0,0,0,0,0,0,0,3,1,0,0,4,1,0,0
72899735,-0.0,0.070217915,-0.0,-0.14841849,-1.0,0.0,0.0,0.0,0.0,0.0,0.0,0,0,0,0,0,0,0,3,1,0,0,4,1,0,0
72919982,-0.0,0.23486683,-0.0,-0.14841849,-1.0,0.0,0.0,0.0,0.0,0.0,0.0,0,0,0,0,0,0,0,3,1,0,0,4,1,0,0
72940085,-0.0,0.2639225,-0.0,-0.14841849,-1.0,0.0,0.0,0.0,0.0,0.0,0.0,0,0,0,0,0,0,0,3,1,0,0,4,1,0,0
72966205,-0.0,0.29539952,-0.0,-0.14841849,-1.0,0.0,0.0,0.0,0.0,0.0,0.0,0,0,0,0,0,0,0,3,1,0,0,4,1,0,0
72989990,-0.0,0.2639225,-0.0,-0.14841849,-1.0,0.0,0.0,0.0,0.0,0.0,0.0,0,0,0,0,0,0,0,3,1,0,0,4,1,0,0
73009975,-0.0,0.18886198,-0.0,-0.14841849,-1.0,0.0,0.0,0.0,0.0,0.0,0.0,0,0,0,0,0,0,0,3,1,0,0,4,1,0,0
73038448,-0.0,0.053268764,-0.0,-0.14841849,-1.0,0.0,0.0,0.0,0.0,0.0,0.0,0,0,0,0,0,0,0,3,1,0,0,4,1,0,0
73055622,-0.0,0.02905569,-0.0,-0.14841849,-1.0,0.0,0.0,0.0,0.0,0.0,0.0,0,0,0,0,0,0,0,3,1,0,0,4,1,0,0
73075867,-0.0,0.01937046,-0.0,-0.14841849,-1.0,0.0,0.0,0.0,0.0,0.0,0.0,0,0,0,0,0,0,0,3,1,0,0,4,1,0,0
73099969,-0.0,0.01937046,-0.0,-0.14841849,-1.0,0.0,0.0,0.0,0.0,0.0,0.0,0,0,0,0,0,0,0,3,1,0,0,4,1,0,0
73119967,-0.0,0.016949153,-0.0,-0.14841849,-1.0,0.0,0.0,0.0,0.0,0.0,0.0,0,0,0,0,0,0,0,3,1,0,0,4,1,0,0
73145739,-0.0,0.012106538,-0.0,-0.14841849,-1.0,0.0,0.0,0.0,0.0,0.0,0.0,0,0,0,0,0,0,0,3,1,0,0,4,1,0,0
73169607,-0.0,0.041162226,-0.0,-0.14841849,-1.0,0.0,0.0,0.0,0.0,0.0,0.0,0,0,0,0,0,0,0,3,1,0,0,4,1,0,0
73189576,-0.0,0.041162226,-0.0,-0.14841849,-1.0,0.0,0.0,0.0,0.0,0.0,0.0,0,0,0,0,0,0,0,3,1,0,0,4,1,0,0
73209567,-0.0,0.041162226,-0.0,-0.14841849,-1.0,0.0,0.0,0.0,0.0,0.0,0.0,0,0,0,0,0,0,0,3,1,0,0,4,1,0,0
73229618,-0.02189781,0.041162226,-0.0,-0.14841849,-1.0,0.0,0.0,0.0,0.0,0.0,0.0,0,0,0,0,0,0,0,3,1,0,0,4,1,0,0
73255558,-0.06326034,0.041162226,-0.0,-0.14841849,-1.0,0.0,0.0,0.0,0.0,0.0,0.0,0,0,0,0,0,0,0,3,1,0,0,4,1,0,0
73275774,-0.18978103,0.041162226,-0.0,-0.14841849,-1.0,0.0,0.0,0.0,0.0,0.0,0.0,0,0,0,0,0,0,0,3,1,0,0,4,1,0,0
73295595,-0.28223845,0.041162226,-0.0,-0.14841849,-1.0,0.0,0.0,0.0,0.0,0.0,0.0,0,0,0,0,0,0,0,3,1,0,0,4,1,0,0
73315640,-0.8734793,0.041162226,-0.0,-0.14841849,-1.0,0.0,0.0,0.0,0.0,0.0,0.0,0,0,0,0,0,0,0,3,1,0,0,4,1,0,0
73339901,-1.0,0.041162226,-0.0,-0.14841849,-1.0,0.0,0.0,0.0,0.0,0.0,0.0,0,0,0,0,0,0,0,3,1,0,0,4,1,0,0
73366239,-1.0,0.041162226,-0.0,-0.14841849,-1.0,0.0,0.0,0.0,0.0,0.0,0.0,0,0,0,0,0,0,0,3,1,0,0,4,1,0,0
73389610,-1.0,0.041162226,-0.0,-0.14841849,-1.0,0.0,0.0,0.0,0.0,0.0,0.0,0,0,0,0,0,0,0,3,1,0,0,4,1,0,0
73409728,-1.0,0.041162226,-0.0,-0.14841849,-1.0,0.0,0.0,0.0,0.0,0.0,0.0,0,0,0,0,0,0,0,3,1,0,0,4,1,0,0
73435559,-0.99756694,0.041162226,-0.0,-0.14841849,-1.0,0.0,0.0,0.0,0.0,0.0,0.0,0,0,0,0,0,0,0,3,1,0,0,4,1,0,0
73459798,-0.8394161,0.041162226,-0.0,-0.14841849,-1.0,0.0,0.0,0.0,0.0,0.0,0.0,0,0,0,0,0,0,0,3,1,0,0,4,1,0,0
73479684,-0.5328467,0.041162226,-0.0,-0.14841849,-1.0,0.0,0.0,0.0,0.0,0.0,0.0,0,0,0,0,0,0,0,3,1,0,0,4,1,0,0
73499712,-0.2919708,0.041162226,-0.0,-0.14841849,-1.0,0.0,0.0,0.0,0.0,0.0,0.0,0,0,0,0,0,0,0,3,1,0,0,4,1,0,0
73526117,-0.0729927,0.041162226,-0.0,-0.14841849,-1.0,0.0,0.0,0.0,0.0,0.0,0.0,0,0,0,0,0,0,0,3,1,0,0,4,1,0,0
73549689,0.009779952,0.041162226,-0.0,-0.15328467,-1.0,0.0,0.0,0.0,0.0,0.0,0.0,0,0,0,0,0,0,0,3,1,0,0,4,1,0,0
73575516,0.051344745,0.041162226,-0.0,-0.15815085,-1.0,0.0,0.0,0.0,0.0,0.0,0.0,0,0,0,0,0,0,0,3,1,0,0,4,1,0,0
73597145,0.23960881,0.041162226,-0.0,-0.14841849,-1.0,0.0,0.0,0.0,0.0,0.0,0.0,0,0,0,0,0,0,0,3,1,0,0,4,1,0,0
73619898,0.40586796,0.041162226,-0.0,-0.14841849,-1.0,0.0,0.0,0.0,0.0,0.0,0.0,0,0,0,0,0,0,0,3,1,0,0,4,1,0,0
73639818,0.60880196,0.041162226,-0.0,-0.14841849,-1.0,0.0,0.0,0.0,0.0,0.0,0.0,0,0,0,0,0,0,0,3,1,0,0,4,1,0,0
73659899,0.7212714,0.041162226,-0.0,-0.14841849,-1.0,0.0,0.0,0.0,0.0,0.0,0.0,0,0,0,0,0,0,0,3,1,0,0,4,1,0,0
73685551,0.98533005,0.041162226,-0.0,-0.14841849,-1.0,0.0,0.0,0.0,0.0,0.0,0.0,0,0,0,0,0,0,0,3,1,0,0,4,1,0,0
73709900,1.0,0.041162226,-0.0,-0.14841849,-1.0,0.0,0.0,0.0,0.0,0.0,0.0,0,0,0,0,0,0,0,3,1,0,0,4,1,0,0
73735554,1.0,0.041162226,-0.0,-0.14841849,-1.0,0.0,0.0,0.0,0.0,0.0,0.0,0,0,0,0,0,0,0,3,1,0,0,4,1,0,0
73755534,1.0,0.041162226,-0.0,-0.14841849,-1.0,0.0,0.0,0.0,0.0,0.0,0.0,0,0,0,0,0,0,0,3,1,0,0,4,1,0,0
73775549,0.9804401,0.041162226,-0.0,-0.14841849,-1.0,0.0,0.0,0.0,0.0,0.0,0.0,0,0,0,0,0,0,0,3,1,0,0,4,1,0,0
73797323,0.85574573,0.041162226,-0.0,-0.14841849,-1.0,0.0,0.0,0.0,0.0,0.0,0.0,0,0,0,0,0,0,0,3,1,0,0,4,1,0,0
73819695,0.46454766,0.041162226,-0.0,-0.14841849,-1.0,0.0,0.0,0.0,0.0,0.0,0.0,0,0,0,0,0,0,0,3,1,0,0,4,1,0,0
73839908,0.35452324,0.041162226,-0.0,-0.13868614,-1.0,0.0,0.0,0.0,0.0,0.0,0.0,0,0,0,0,0,0,0,3,1,0,0,4,1,0,0
73859904,0.085574575,0.041162226,-0.0,-0.1216545,-1.0,0.0,0.0,0.0,0.0,0.0,0.0,0,0,0,0,0,0,0,3,1,0,0,4,1,0,0
73885849,0.019559903,0.041162226,-0.0,-0.11435523,-1.0,0.0,0.0,0.0,0.0,0.0,0.0,0,0,0,0,0,0,0,3,1,0,0,4,1,0,0
73909682,-0.19464721,0.041162226,-0.0,-0.10462287,-1.0,0.0,0.0,0.0,0.0,0.0,0.0,0,0,0,0,0,0,0,3,1,0,0,4,1,0,0
73929801,-0.42579076,0.041162226,-0.0,-0.097323604,-1.0,0.0,0.0,0.0,0.0,0.0,0.0,0,0,0,0,0,0,0,3,1,0,0,4,1,0,0
73955549,-0.79075426,0.041162226,-0.0,-0.07542579,-1.0,0.0,0.0,0.0,0.0,0.0,0.0,0,0,0,0,0,0,0,3,1,0,0,4,1,0,0
73979602,-1.0,0.041162226,-0.0,-0.04379562,-1.0,0.0,0.0,0.0,0.0,0.0,0.0,0,0,0,0,0,0,0,3,1,0,0,4,1,0,0
73999897,-1.0,0.041162226,-0.0,-0.01703163,-1.0,0.0,0.0,0.0,0.0,0.0,0.0,0,0,0,0,0,0,0,3,1,0,0,4,1,0,0
74026105,-0.7518248,0.041162226,-0.0,-0.05352798,-1.0,0.0,0.0,0.0,0.0,0.0,0.0,0,0,0,0,0,0,0,3,1,0,0,4,1,0,0
74058423,-0.55474454,0.041162226,-0.0,-0.09245742,-1.0,0.0,0.0,0.0,0.0,0.0,0.0,0,0,0,0,0,0,0,3,1,0,0,4,1,0,0
74069763,-0.24087591,0.041162226,-0.0,-0.11922141,-1.0,0.0,0.0,0.0,0.0,0.0,0.0,0,0,0,0,0,0,0,3,1,0,0,4,1,0,0
74089784,-0.12652068,0.041162226,-0.0,-0.12652068,-1.0,0.0,0.0,0.0,0.0,0.0,0.0,0,0,0,0,0,0,0,3,1,0,0,4,1,0,0
74115650,-0.0,0.041162226,-0.0,-0.14111923,-1.0,0.0,0.0,0.0,0.0,0.0,0.0,0,0,0,0,0,0,0,3,1,0,0,4,1,0,0
74139771,-0.0,0.041162226,-0.0,-0.14841849,-1.0,0.0,0.0,0.0,0.0,0.0,0.0,0,0,0,0,0,0,0,3,1,0,0,4,1,0,0
74165619,-0.0,0.041162226,-0.0,-0.14841849,-1.0,0.0,0.0,0.0,0.0,0.0,0.0,0,0,0,0,0,0,0,3,1,0,0,4,1,0,0
74185639,-0.0,0.041162226,-0.0,-0.14841849,-1.0,0.0,0.0,0.0,0.0,0.0,0.0,0,0,0,0,0,0,0,3,1,0,0,4,1,0,0
74209629,-0.0,0.041162226,-0.0,-0.14841849,-1.0,0.0,0.0,0.0,0.0,0.0,0.0,0,0,0,0,0,0,0,3,1,0,0,4,1,0,0
74229747,-0.0,0.041162226,-0.0,-0.14841849,-1.0,0.0,0.0,0.0,0.0,0.0,0.0,0,0,0,0,0,0,0,3,1,0,0,4,1,0,0
74249762,-0.0,0.041162226,-0.0,-0.17761557,-1.0,0.0,0.0,0.0,0.0,0.0,0.0,0,0,0,0,0,0,0,3,1,0,0,4,1,0,0
74269764,-0.0,0.041162226,-0.0,-0.23114355,-1.0,0.0,0.0,0.0,0.0,0.0,0.0,0,0,0,0,0,0,0,3,1,0,0,4,1,0,0
74295591,-0.0,0.041162226,-0.0,-0.45012164,-1.0,0.0,0.0,0.0,0.0,0.0,0.0,0,0,0,0,0,0,0,3,1,0,0,4,1,0,0
74315587,-0.0,0.041162226,-0.0,-0.54257905,-1.0,0.0,0.0,0.0,0.0,0.0,0.0,0,0,0,0,0,0,0,3,1,0,0,4,1,0,0
74339940,-0.0,0.041162226,-0.0,-0.81995136,-1.0,0.0,0.0,0.0,0.0,0.0,0.0,0,0,0,0,0,0,0,3,1,0,0,4,1,0,0
74366120,-0.0,0.041162226,-0.0,-1.0,-1.0,0.0,0.0,0.0,0.0,0.0,0.0,0,0,0,0,0,0,0,3,1,0,0,4,1,0,0
74389773,-0.0,0.041162226,-0.0,-1.0,-1.0,0.0,0.0,0.0,0.0,0.0,0.0,0,0,0,0,0,0,0,3,1,0,0,4,1,0,0
74409790,-0.0,0.041162226,-0.0,-1.0,-1.0,0.0,0.0,0.0,0.0,0.0,0.0,0,0,0,0,0,0,0,3,1,0,0,4,1,0,0
74435634,-0.0,0.041162226,-0.0,-0.92214113,-1.0,0.0,0.0,0.0,0.0,0.0,0.0,0,0,0,0,0,0,0,3,1,0,0,4,1,0,0
74459900,-0.00973236,0.041162226,-0.0,-0.6545012,-1.0,0.0,0.0,0.0,0.0,0.0,0.0,0,0,0,0,0,0,0,3,1,0,0,4,1,0,0
74479809,-0.01946472,0.041162226,-0.0,-0.56690997,-1.0,0.0,0.0,0.0,0.0,0.0,0.0,0,0,0,0,0,0,0,3,1,0,0,4,1,0,0
74499812,-0.02189781,0.041162226,-0.0,-0.4136253,-1.0,0.0,0.0,0.0,0.0,0.0,0.0,0,0,0,0,0,0,0,3,1,0,0,4,1,0,0
74526343,-0.0121654505,0.041162226,-0.0,-0.2725061,-1.0,0.0,0.0,0.0,0.0,0.0,0.0,0,0,0,0,0,0,0,3,1,0,0,4,1,0,0
74546353,-0.0,0.041162226,-0.0,-0.05596107,-1.0,0.0,0.0,0.0,0.0,0.0,0.0,0,0,0,0,0,0,0,3,1,0,0,4,1,0,0
74569609,-0.0,0.041162226,-0.0,0.0,-1.0,0.0,0.0,0.0,0.0,0.0,0.0,0,0,0,0,0,0,0,3,1,0,0,4,1,0,0
74589933,-0.0,0.041162226,-0.0,0.19070904,-1.0,0.0,0.0,0.0,0.0,0.0,0.0,0,0,0,0,0,0,0,3,1,0,0,4,1,0,0
74615531,-0.02189781,0.041162226,-0.0,0.6943765,-1.0,0.0,0.0,0.0,0.0,0.0,0.0,0,0,0,0,0,0,0,3,1,0,0,4,1,0,0
74639658,-0.02919708,0.041162226,-0.0,0.8190709,-1.0,0.0,0.0,0.0,0.0,0.0,0.0,0,0,0,0,0,0,0,3,1,0,0,4,1,0,0
74659646,-0.02919708,0.041162226,-0.0,0.8264059,-1.0,0.0,0.0,0.0,0.0,0.0,0.0,0,0,0,0,0,0,0,3,1,0,0,4,1,0,0
74686151,-0.02189781,0.041162226,-0.0,0.8264059,-1.0,0.0,0.0,0.0,0.0,0.0,0.0,0,0,0,0,0,0,0,3,1,0,0,4,1,0,0
74709901,-0.02189781,0.041162226,-0.0,0.8264059,-1.0,0.0,0.0,0.0,0.0,0.0,0.0,0,0,0,0,0,0,0,3,1,0,0,4,1,0,0
74729748,-0.03406326,0.041162226,-0.0,0.8264059,-1.0,0.0,0.0,0.0,0.0,0.0,0.0,0,0,0,0,0,0,0,3,1,0,0,4,1,0,0
74755647,-0.01703163,0.041162226,-0.0,0.41564792,-1.0,0.0,0.0,0.0,0.0,0.0,0.0,0,0,0,0,0,0,0,3,1,0,0,4,1,0,0
74779719,-0.01703163,0.041162226,-0.0,0.2616137,-1.0,0.0,0.0,0.0,0.0,0.0,0.0,0,0,0,0,0,0,0,3,1,0,0,4,1,0,0
74799701,-0.0,0.041162226,-0.0,-0.06812652,-1.0,0.0,0.0,0.0,0.0,0.0,0.0,0,0,0,0,0,0,0,3,1,0,0,4,1,0,0
74826144,-0.0,0.041162226,-0.0,-0.24817519,-1.0,0.0,0.0,0.0,0.0,0.0,0.0,0,0,0,0,0,0,0,3,1,0,0,4,1,0,0
74849784,-0.0,0.041162226,-0.0,-0.38442823,-1.0,0.0,0.0,0.0,0.0,0.0,0.0,0,0,0,0,0,0,0,3,1,0,0,4,1,0,0
74869938,-0.0,0.041162226,-0.0,-0.50851583,-1.0,0.0,0.0,0.0,0.0,0.0,0.0,0,0,0,0,0,0,0,3,1,0,0,4,1,0,0
74889920,-0.00243309,0.041162226,-0.0,-0.6155718,-1.0,0.0,0.0,0.0,0.0,0.0,0.0,0,0,0,0,0,0,0,3,1,0,0,4,1,0,0
74915669,-0.00486618,0.041162226,-0.0,-0.7007299,-1.0,0.0,0.0,0.0,0.0,0.0,0.0,0,0,0,0,0,0,0,3,1,0,0,4,1,0,0
74939919,-0.0,0.041162226,-0.0,-0.7712895,-1.0,0.0,0.0,0.0,0.0,0.0,0.0,0,0,0,0,0,0,0,3,1,0,0,4,1,0,0
74959914,-0.0,0.041162226,-0.0,-0.7177616,-1.0,0.0,0.0,0.0,0.0,0.0,0.0,0,0,0,0,0,0,0,3,1,0,0,4,1,0,0
74979784,-0.0,0.041162226,-0.0,-0.6593674,-1.0,0.0,0.0,0.0,0.0,0.0,0.0,0,0,0,0,0,0,0,3,1,0,0,4,1,0,0
75007253,-0.0,0.041162226,-0.0,-0.38686132,-1.0,0.0,0.0,0.0,0.0,0.0,0.0,0,0,0,0,0,0,0,3,1,0,0,4,1,0,0
75029944,-0.0,0.041162226,-0.0,-0.3211679,-1.0,0.0,0.0,0.0,0.0,0.0,0.0,0,0,0,0,0,0,0,3,1,0,0,4,1,0,0
75049950,0.012224939,0.041162226,-0.0,-0.18734793,-1.0,0.0,0.0,0.0,0.0,0.0,0.0,0,0,0,0,0,0,0,3,1,0,0,4,1,0,0
75084410,-0.0,0.041162226,-0.0,-0.15085158,-1.0,0.0,0.0,0.0,0.0,0.0,0.0,0,0,0,0,0,0,0,3,1,0,0,4,1,0,0
75099947,-0.0,0.041162226,-0.0,-0.14841849,-1.0,0.0,0.0,0.0,0.0,0.0,0.0,0,0,0,0,0,0,0,3,1,0,0,4,1,0,0
75120017,-0.0,0.041162226,-0.0,-0.14841849,-1.0,0.0,0.0,0.0,0.0,0.0,0.0,0,0,0,0,0,0,0,3,1,0,0,4,1,0,0
75146341,-0.0,0.041162226,-0.0,-0.14841849,-1.0,0.0,0.0,0.0,0.0,0.0,0.0,0,0,0,0,0,0,0,3,1,0,0,4,1,0,0
75169970,-0.0,0.041162226,-0.0,-0.14841849,-1.0,0.0,0.0,0.0,0.0,0.0,0.0,0,0,0,0,0,0,0,3,1,0,0,4,1,0,0
75197455,-0.0,0.041162226,-0.0,-0.14841849,-1.0,0.0,0.0,0.0,0.0,0.0,0.0,0,0,0,0,0,0,0,3,1,0,0,4,1,0,0
75219954,-0.0,0.041162226,-0.0,-0.14841849,-1.0,0.0,0.0,0.0,0.0,0.0,0.0,0,0,0,0,0,0,0,3,1,0,0,4,1,0,0
75246657,-0.0,0.041162226,-0.0,-0.14841849,-1.0,0.0,0.0,0.0,0.0,0.0,0.0,0,0,0,0,0,0,0,3,1,0,0,4,1,0,0
75269993,-0.0,0.041162226,-0.0,-0.14841849,-1.0,0.0,0.0,0.0,0.0,0.0,0.0,0,0,0,0,0,0,0,3,1,0,0,4,1,0,0
75289953,-0.0,0.041162226,-0.0,-0.14841849,-1.0,0.0,0.0,0.0,0.0,0.0,0.0,0,0,0,0,0,0,0,3,1,0,0,4,1,0,0
75315654,-0.0,0.041162226,-0.0,-0.14841849,-1.0,0.0,0.0,0.0,0.0,0.0,0.0,0,0,0,0,0,0,0,3,1,0,0,4,1,0,0
75340201,-0.0,0.041162226,-0.0,-0.14841849,-1.0,0.0,0.0,0.0,0.0,0.0,0.0,0,0,0,0,0,0,0,3,1,0,0,4,1,0,0
75366245,-0.0,0.041162226,-0.0,-0.14841849,-1.0,0.0,0.0,0.0,0.0,0.0,0.0,0,0,0,0,0,0,0,3,1,0,0,4,1,0,0
75386243,-0.0,0.041162226,-0.0,-0.14841849,-1.0,0.0,0.0,0.0,0.0,0.0,0.0,0,0,0,0,0,0,0,3,1,0,0,4,1,0,0
75406412,-0.0,0.041162226,-0.0,-0.14841849,-1.0,0.0,0.0,0.0,0.0,0.0,0.0,0,0,0,0,0,0,0,3,1,0,0,4,1,0,0
75430041,-0.0,0.041162226,-0.0,-0.14841849,-1.0,0.0,0.0,0.0,0.0,0.0,0.0,0,0,0,0,0,0,0,3,1,0,0,4,1,0,0
75455621,-0.0,0.041162226,-0.0,-0.14841849,-1.0,0.0,0.0,0.0,0.0,0.0,0.0,0,0,0,0,0,0,0,3,1,0,0,4,1,0,0
75479696,-0.0,0.041162226,-0.0,-0.14841849,-1.0,0.0,0.0,0.0,0.0,0.0,0.0,0,0,0,0,0,0,0,3,1,0,0,4,1,0,0
75499726,-0.0,0.041162226,-0.0,-0.14841849,-1.0,0.0,0.0,0.0,0.0,0.0,0.0,0,0,0,0,0,0,0,3,1,0,0,4,1,0,0
75526145,-0.0,0.041162226,-0.0,-0.14841849,-1.0,0.0,0.0,0.0,0.0,0.0,0.0,0,0,0,0,0,0,0,3,1,0,0,4,1,0,0
75546229,-0.0,0.041162226,-0.0,-0.14841849,-1.0,0.0,0.0,0.0,0.0,0.0,0.0,0,0,0,0,0,0,0,3,1,0,0,4,1,0,0
75566546,-0.0,0.041162226,-0.0,-0.14841849,-1.0,0.0,0.0,0.0,0.0,0.0,0.0,0,0,0,0,0,0,0,3,1,0,0,4,1,0,0
75589820,-0.0,0.041162226,-0.0,-0.14841849,-1.0,0.0,0.0,0.0,0.0,0.0,0.0,0,0,0,0,0,0,0,3,1,0,0,4,1,0,0
75609904,-0.0,0.041162226,-0.0,-0.14841849,-1.0,0.0,0.0,0.0,0.0,0.0,0.0,0,0,0,0,0,0,0,3,1,0,0,4,1,0,0
75635652,-0.0,0.041162226,-0.0,-0.14841849,-1.0,0.0,0.0,0.0,0.0,0.0,0.0,0,0,0,0,0,0,0,3,1,0,0,4,1,0,0
75655580,-0.0,0.041162226,-0.0,-0.14841849,-1.0,0.0,0.0,0.0,0.0,0.0,0.0,0,0,0,0,0,0,0,3,1,0,0,4,1,0,0
75675659,-0.0,0.041162226,-0.0,-0.14841849,-1.0,0.0,0.0,0.0,0.0,0.0,0.0,0,0,0,0,0,0,0,3,1,0,0,4,1,0,0
75699908,-0.0,0.041162226,-0.0,-0.14841849,-1.0,0.0,0.0,0.0,0.0,0.0,0.0,0,0,0,0,0,0,0,3,1,0,0,4,1,0,0
75719900,-0.0,0.041162226,-0.0,-0.14841849,-1.0,0.0,0.0,0.0,0.0,0.0,0.0,0,0,0,0,0,0,0,3,1,0,0,4,1,0,0
75739960,-0.0,0.041162226,-0.0,-0.14841849,-1.0,0.0,0.0,0.0,0.0,0.0,0.0,0,0,0,0,0,0,0,3,1,0,0,4,1,0,0
75766204,-0.0,0.041162226,-0.0,-0.14841849,-1.0,0.0,0.0,0.0,0.0,0.0,0.0,0,0,0,0,0,0,0,3,1,0,0,4,1,0,0
75786332,-0.0,0.041162226,-0.0,-0.14841849,-1.0,0.0,0.0,0.0,0.0,0.0,0.0,0,0,0,0,0,0,0,3,1,0,0,4,1,0,0
75809951,-0.0,0.041162226,-0.0,-0.14841849,-1.0,0.0,0.0,0.0,0.0,0.0,0.0,0,0,0,0,0,0,0,3,1,0,0,4,1,0,0
75835641,-0.0,0.041162226,-0.0,-0.14841849,-1.0,0.0,0.0,0.0,0.0,0.0,0.0,0,0,0,0,0,0,0,3,1,0,0,4,1,0,0
75859780,-0.0,0.041162226,-0.0,-0.14841849,-1.0,0.0,0.0,0.0,0.0,0.0,0.0,0,0,0,0,0,0,0,3,1,0,0,4,1,0,0
75879908,-0.0,0.041162226,-0.0,-0.14841849,-1.0,0.0,0.0,0.0,0.0,0.0,0.0,0,0,0,0,0,0,0,3,1,0,0,4,1,0,0
75900056,-0.0,0.041162226,-0.0,-0.14841849,-1.0,0.0,0.0,0.0,0.0,0.0,0.0,0,0,0,0,0,0,0,3,1,0,0,4,1,0,0
75926213,-0.0,0.041162226,-0.0,-0.14841849,-1.0,0.0,0.0,0.0,0.0,0.0,0.0,0,0,0,0,0,0,0,3,1,0,0,4,1,0,0
75946657,-0.0,0.041162226,-0.0,-0.14841849,-1.0,0.0,0.0,0.0,0.0,0.0,0.0,0,0,0,0,0,0,0,3,1,0,0,4,1,0,0
75969944,-0.0,0.041162226,-0.0,-0.14841849,-1.0,0.0,0.0,0.0,0.0,0.0,0.0,0,0,0,0,0,0,0,3,1,0,0,4,1,0,0
75997581,-0.0,0.041162226,-0.0,-0.14841849,-1.0,0.0,0.0,0.0,0.0,0.0,0.0,0,0,0,0,0,0,0,3,1,0,0,4,1,0,0
76019855,-0.0,0.041162226,-0.0,-0.14841849,-1.0,0.0,0.0,0.0,0.0,0.0,0.0,0,0,0,0,0,0,0,3,1,0,0,4,1,0,0
76040007,-0.0,0.041162226,-0.0,-0.14841849,-1.0,0.0,0.0,0.0,0.0,0.0,0.0,0,0,0,0,0,0,0,3,1,0,0,4,1,0,0
76066334,-0.0,0.041162226,-0.0,-0.14841849,-1.0,0.0,0.0,0.0,0.0,0.0,0.0,0,0,0,0,0,0,0,3,1,0,0,4,1,0,0
76098432,-0.0,0.041162226,-0.0,-0.14841849,-1.0,0.0,0.0,0.0,0.0,0.0,0.0,0,0,0,0,0,0,0,3,1,0,0,4,1,0,0
76109726,-0.0,0.041162226,-0.0,-0.14841849,-1.0,0.0,0.0,0.0,0.0,0.0,0.0,0,0,0,0,0,0,0,3,1,0,0,4,1,0,0
76129724,-0.0,0.041162226,-0.0,-0.14841849,-1.0,0.0,0.0,0.0,0.0,0.0,0.0,0,0,0,0,0,0,0,3,1,0,0,4,1,0,0
76150020,-0.0,0.041162226,-0.0,-0.14841849,-1.0,0.0,0.0,0.0,0.0,0.0,0.0,0,0,0,0,0,0,0,3,1,0,0,4,1,0,0
76175585,-0.0,0.041162226,-0.0,-0.14841849,-1.0,0.0,0.0,0.0,0.0,0.0,0.0,0,0,0,0,0,0,0,3,1,0,0,4,1,0,0
76197164,-0.0,0.041162226,-0.0,-0.14841849,-1.0,0.0,0.0,0.0,0.0,0.0,0.0,0,0,0,0,0,0,0,3,1,0,0,4,1,0,0
76219701,-0.0,0.041162226,-0.0,-0.14841849,-1.0,0.0,0.0,0.0,0.0,0.0,0.0,0,0,0,0,0,0,0,3,1,0,0,4,1,0,0
76239768,-0.0,0.041162226,-0.0,-0.14841849,-1.0,0.0,0.0,0.0,0.0,0.0,0.0,0,0,0,0,0,0,0,3,1,0,0,4,1,0,0
76259775,-0.0,0.041162226,-0.0,-0.14841849,-1.0,0.0,0.0,0.0,0.0,0.0,0.0,0,0,0,0,0,0,0,3,1,0,0,4,1,0,0
76286450,-0.0,0.041162226,-0.0,-0.14841849,-1.0,0.0,0.0,0.0,0.0,0.0,0.0,0,0,0,0,0,0,0,3,1,0,0,4,1,0,0
76309779,-0.0,0.041162226,-0.0,-0.14841849,-1.0,0.0,0.0,0.0,0.0,0.0,0.0,0,0,0,0,0,0,0,3,1,0,0,4,1,0,0
76329790,-0.0,0.041162226,-0.0,-0.14841849,-1.0,0.0,0.0,0.0,0.0,0.0,0.0,0,0,0,0,0,0,0,3,1,0,0,4,1,0,0
76355682,-0.0,0.041162226,-0.0,-0.14841849,-1.0,0.0,0.0,0.0,0.0,0.0,0.0,0,0,0,0,0,0,0,3,1,0,0,4,1,0,0
76375769,-0.0,0.041162226,-0.0,-0.14841849,-1.0,0.0,0.0,0.0,0.0,0.0,0.0,0,0,0,0,0,0,0,3,1,0,0,4,1,0,0
76397460,-0.0,0.041162226,-0.0,-0.14841849,-1.0,0.0,0.0,0.0,0.0,0.0,0.0,0,0,0,0,0,0,0,3,1,0,0,4,1,0,0
76419782,-0.0,0.041162226,-0.0,-0.14841849,-1.0,0.0,0.0,0.0,0.0,0.0,0.0,0,0,0,0,0,0,0,3,1,0,0,4,1,0,0
76446113,-0.0,0.041162226,-0.0,-0.14841849,-1.0,0.0,0.0,0.0,0.0,0.0,0.0,0,0,0,0,0,0,0,3,1,0,0,4,1,0,0
76466219,-0.0,0.041162226,-0.0,-0.14841849,-1.0,0.0,0.0,0.0,0.0,0.0,0.0,0,0,0,0,0,0,0,3,1,0,0,4,1,0,0
76486237,-0.0,0.041162226,-0.0,-0.14841849,-1.0,0.0,0.0,0.0,0.0,0.0,0.0,0,0,0,0,0,0,0,3,1,0,0,4,1,0,0
76509906,-0.0,0.041162226,-0.0,-0.14841849,-1.0,0.0,0.0,0.0,0.0,0.0,0.0,0,0,0,0,0,0,0,3,1,0,0,4,1,0,0
76529938,-0.0,0.041162226,-0.0,-0.14841849,-1.0,0.0,0.0,0.0,0.0,0.0,0.0,0,0,0,0,0,0,0,3,1,0,0,4,1,0,0
76549912,-0.0,0.041162226,-0.0,-0.14841849,-1.0,0.0,0.0,0.0,0.0,0.0,0.0,0,0,0,0,0,0,0,3,1,0,0,4,1,0,0
76575665,-0.0,0.041162226,-0.0,-0.14841849,-1.0,0.0,0.0,0.0,0.0,0.0,0.0,0,0,0,0,0,0,0,3,1,0,0,4,1,0,0
76597690,-0.0,0.041162226,-0.0,-0.14841849,-1.0,0.0,0.0,0.0,0.0,0.0,0.0,0,0,0,0,0,0,0,3,1,0,0,4,1,0,0
76619900,-0.0,0.041162226,-0.0,-0.14841849,-1.0,0.0,0.0,0.0,0.0,0.0,0.0,0,0,0,0,0,0,0,3,1,0,0,4,1,0,0
76646215,-0.0,0.041162226,-0.0,-0.14841849,-1.0,0.0,0.0,0.0,0.0,0.0,0.0,0,0,0,0,0,0,0,3,1,0,0,4,1,0,0
76666433,-0.0,0.041162226,-0.0,-0.14841849,-1.0,0.0,0.0,0.0,0.0,0.0,0.0,0,0,0,0,0,0,0,3,1,0,0,4,1,0,0
76689917,-0.0,0.041162226,-0.0,-0.14841849,-1.0,0.0,0.0,0.0,0.0,0.0,0.0,0,0,0,0,0,0,0,3,1,0,0,4,1,0,0
76716376,-0.0,0.041162226,-0.0,-0.14841849,-1.0,0.0,0.0,0.0,0.0,0.0,0.0,0,0,0,0,0,0,0,3,1,0,0,4,1,0,0
76740217,-0.0,0.041162226,-0.0,-0.14841849,-1.0,0.0,0.0,0.0,0.0,0.0,0.0,0,0,0,0,0,0,0,3,1,0,0,4,1,0,0
76766334,-0.0,0.041162226,-0.0,-0.14841849,-1.0,0.0,0.0,0.0,0.0,0.0,0.0,0,0,0,0,0,0,0,3,1,0,0,4,1,0,0
76789917,-0.0,0.041162226,-0.0,-0.14841849,-1.0,0.0,0.0,0.0,0.0,0.0,0.0,0,0,0,0,0,0,0,3,1,0,0,4,1,0,0
76809973,-0.0,0.041162226,-0.0,-0.14841849,-1.0,0.0,0.0,0.0,0.0,0.0,0.0,0,0,0,0,0,0,0,3,1,0,0,4,1,0,0
76835750,-0.0,0.041162226,-0.0,-0.14841849,-1.0,0.0,0.0,0.0,0.0,0.0,0.0,0,0,0,0,0,0,0,3,1,0,0,4,1,0,0
76855756,-0.0,0.043583535,-0.0,-0.14841849,-1.0,0.0,0.0,0.0,0.0,0.0,0.0,0,0,0,0,0,0,0,3,1,0,0,4,1,0,0
76879898,-0.0,0.043583535,-0.0,-0.14841849,-1.0,0.0,0.0,0.0,0.0,0.0,0.0,0,0,0,0,0,0,0,3,1,0,0,4,1,0,0
76899898,-0.0,0.043583535,-0.0,-0.14841849,-1.0,0.0,0.0,0.0,0.0,0.0,0.0,0,0,0,0,0,0,0,3,1,0,0,4,1,0,0
76926321,-0.0,0.043583535,0.01686747,-0.14841849,-1.0,0.0,0.0,0.0,0.0,0.0,0.0,0,0,0,0,0,0,0,3,1,0,0,4,1,0,0
76946344,-0.0,0.043583535,0.028915662,-0.14841849,-1.0,0.0,0.0,0.0,0.0,0.0,0.0,0,0,0,0,0,0,0,3,1,0,0,4,1,0,0
76969727,-0.0,0.043583535,0.030120483,-0.14841849,-1.0,0.0,0.0,0.0,0.0,0.0,0.0,0,0,0,0,0,0,0,3,1,0,0,4,1,0,0
76989819,-0.0,0.043583535,0.0373494,-0.14841849,-1.0,0.0,0.0,0.0,0.0,0.0,0.0,0,0,0,0,0,0,0,3,1,0,0,4,1,0,0
77579936,-0.0,0.053268764,0.24457832,-0.14841849,-1.0,0.0,0.0,0.0,0.0,0.0,0.0,0,0,0,0,0,0,0,3,1,0,0,4,1,0,0
77606311,-0.0,0.053268764,0.2614458,-0.14841849,-1.0,0.0,0.0,0.0,0.0,0.0,0.0,0,0,0,0,0,0,0,3,1,0,0,4,1,0,0
77626183,-0.0,0.05811138,0.2686747,-0.14841849,-1.0,0.0,0.0,0.0,0.0,0.0,0.0,0,0,0,0,0,0,0,3,1,0,0,4,1,0,0
77649965,-0.0,0.06295399,0.26987952,-0.14841849,-1.0,0.0,0.0,0.0,0.0,0.0,0.0,0,0,0,0,0,0,0,3,1,0,0,4,1,0,0
77675645,-0.0,0.08716707,0.2819277,-0.14841849,-1.0,0.0,0.0,0.0,0.0,0.0,0.0,0,0,0,0,0,0,0,3,1,0,0,4,1,0,0
77699750,-0.0,0.09927361,0.2939759,-0.14841849,-1.0,0.0,0.0,0.0,0.0,0.0,0.0,0,0,0,0,0,0,0,3,1,0,0,4,1,0,0
77719905,-0.0,0.10653753,0.3048193,-0.14841849,-1.0,0.0,0.0,0.0,0.0,0.0,0.0,0,0,0,0,0,0,0,3,1,0,0,4,1,0,0
77739901,-0.0,0.118644066,0.32289156,-0.14841849,-1.0,0.0,0.0,0.0,0.0,0.0,0.0,0,0,0,0,0,0,0,3,1,0,0,4,1,0,0
77759901,-0.0,0.12590799,0.3433735,-0.14841849,-1.0,0.0,0.0,0.0,0.0,0.0,0.0,0,0,0,0,0,0,0,3,1,0,0,4,1,0,0
77786114,-0.0,0.12590799,0.36024097,-0.14841849,-1.0,0.0,0.0,0.0,0.0,0.0,0.0,0,0,0,0,0,0,0,3,1,0,0,4,1,0,0
77806256,-0.0,0.111380145,0.3759036,-0.14841849,-1.0,0.0,0.0,0.0,0.0,0.0,0.0,0,0,0,0,0,0,0,3,1,0,0,4,1,0,0
77826314,-0.0,0.104116224,0.3759036,-0.14841849,-1.0,0.0,0.0,0.0,0.0,0.0,0.0,0,0,0,0,0,0,0,3,1,0,0,4,1,0,0
77846435,-0.0,0.09443099,0.37710842,-0.14841849,-1.0,0.0,0.0,0.0,0.0,0.0,0.0,0,0,0,0,0,0,0,3,1,0,0,4,1,0,0
77866275,-0.0,0.08958838,0.38072288,-0.14841849,-1.0,0.0,0.0,0.0,0.0,0.0,0.0,0,0,0,0,0,0,0,3,1,0,0,4,1,0,0
77889783,-0.0,0.07990315,0.38795182,-0.14841849,-1.0,0.0,0.0,0.0,0.0,0.0,0.0,0,0,0,0,0,0,0,3,1,0,0,4,1,0,0
77909952,-0.0,0.07748184,0.38795182,-0.14841849,-1.0,0.0,0.0,0.0,0.0,0.0,0.0,0,0,0,0,0,0,0,3,1,0,0,4,1,0,0
77930004,-0.0,0.07263923,0.38795182,-0.14841849,-1.0,0.0,0.0,0.0,0.0,0.0,0.0,0,0,0,0,0,0,0,3,1,0,0,4,1,0,0
77956251,-0.0,0.05811138,0.38795182,-0.14841849,-1.0,0.0,0.0,0.0,0.0,0.0,0.0,0,0,0,0,0,0,0,3,1,0,0,4,1,0,0
77980009,-0.0,0.046004843,0.38795182,-0.14841849,-1.0,0.0,0.0,0.0,0.0,0.0,0.0,0,0,0,0,0,0,0,3,1,0,0,4,1,0,0
78006304,-0.0,0.046004843,0.38795182,-0.14841849,-1.0,0.0,0.0,0.0,0.0,0.0,0.0,0,0,0,0,0,0,0,3,1,0,0,4,1,0,0
78026307,-0.0,0.046004843,0.38795182,-0.14841849,-1.0,0.0,0.0,0.0,0.0,0.0,0.0,0,0,0,0,0,0,0,3,1,0,0,4,1,0,0
78049987,-0.0,0.046004843,0.38795182,-0.14841849,-1.0,0.0,0.0,0.0,0.0,0.0,0.0,0,0,0,0,0,0,0,3,1,0,0,4,1,0,0
78075646,-0.0,0.046004843,0.38795182,-0.14841849,-1.0,0.0,0.0,0.0,0.0,0.0,0.0,0,0,0,0,0,0,0,3,1,0,0,4,1,0,0
78099949,-0.0,0.046004843,0.38795182,-0.14841849,-1.0,0.0,0.0,0.0,0.0,0.0,0.0,0,0,0,0,0,0,0,3,1,0,0,4,1,0,0
78126317,-0.0,0.046004843,0.38795182,-0.14841849,-1.0,0.0,0.0,0.0,0.0,0.0,0.0,0,0,0,0,0,0,0,3,1,0,0,4,1,0,0
78154942,-0.0,0.046004843,0.38795182,-0.14841849,-1.0,0.0,0.0,0.0,0.0,0.0,0.0,0,0,0,0,0,0,0,3,1,0,0,4,1,0,0
78169957,-0.0,0.043583535,0.38795182,-0.14841849,-1.0,0.0,0.0,0.0,0.0,0.0,0.0,0,0,0,0,0,0,0,3,1,0,0,4,1,0,0
78197189,-0.0,0.043583535,0.38795182,-0.14841849,-1.0,0.0,0.0,0.0,0.0,0.0,0.0,0,0,0,0,0,0,0,3,1,0,0,4,1,0,0
78219958,-0.0,0.043583535,0.38795182,-0.14841849,-1.0,0.0,0.0,0.0,0.0,0.0,0.0,0,0,0,0,0,0,0,3,1,0,0,4,1,0,0
78240037,-0.0,0.043583535,0.38795182,-0.14841849,-1.0,0.0,0.0,0.0,0.0,0.0,0.0,0,0,0,0,0,0,0,3,1,0,0,4,1,0,0
78266414,-0.0,0.043583535,0.38795182,-0.14841849,-1.0,0.0,0.0,0.0,0.0,0.0,0.0,0,0,0,0,0,0,0,3,1,0,0,4,1,0,0
78290088,-0.0,0.043583535,0.38795182,-0.14841849,-1.0,0.0,0.0,0.0,0.0,0.0,0.0,0,0,0,0,0,0,0,3,1,0,0,4,1,0,0
78315781,-0.0,0.043583535,0.38795182,-0.14841849,-1.0,0.0,0.0,0.0,0.0,0.0,0.0,0,0,0,0,0,0,0,3,1,0,0,4,1,0,0
78340114,-0.0,0.043583535,0.38795182,-0.14841849,-1.0,0.0,0.0,0.0,0.0,0.0,0.0,0,0,0,0,0,0,0,3,1,0,0,4,1,0,0
78366183,-0.0,0.043583535,0.38795182,-0.14841849,-1.0,0.0,0.0,0.0,0.0,0.0,0.0,0,0,0,0,0,0,0,3,1,0,0,4,1,0,0
78386199,-0.0,0.043583535,0.38795182,-0.14841849,-1.0,0.0,0.0,0.0,0.0,0.0,0.0,0,0,0,0,0,0,0,3,1,0,0,4,1,0,0
78406427,-0.0,0.043583535,0.38795182,-0.14841849,-1.0,0.0,0.0,0.0,0.0,0.0,0.0,0,0,0,0,0,0,0,3,1,0,0,4,1,0,0
78429984,-0.0,0.043583535,0.38795182,-0.14841849,-1.0,0.0,0.0,0.0,0.0,0.0,0.0,0,0,0,0,0,0,0,3,1,0,0,4,1,0,0
78455686,-0.0,0.043583535,0.38795182,-0.14841849,-1.0,0.0,0.0,0.0,0.0,0.0,0.0,0,0,0,0,0,0,0,3,1,0,0,4,1,0,0
78479915,-0.0,0.043583535,0.38795182,-0.14841849,-1.0,0.0,0.0,0.0,0.0,0.0,0.0,0,0,0,0,0,0,0,3,1,0,0,4,1,0,0
78506194,-0.0,0.043583535,0.38795182,-0.14841849,-1.0,0.0,0.0,0.0,0.0,0.0,0.0,0,0,0,0,0,0,0,3,1,0,0,4,1,0,0
78526282,-0.0,0.043583535,0.38795182,-0.14841849,-1.0,0.0,0.0,0.0,0.0,0.0,0.0,0,0,0,0,0,0,0,3,1,0,0,4,1,0,0
78549912,-0.0,0.043583535,0.38795182,-0.14841849,-1.0,0.0,0.0,0.0,0.0,0.0,0.0,0,0,0,0,0,0,0,3,1,0,0,4,1,0,0
78576223,-0.0,0.043583535,0.38795182,-0.14841849,-1.0,0.0,0.0,0.0,0.0,0.0,0.0,0,0,0,0,0,0,0,3,1,0,0,4,1,0,0
78597456,-0.0,0.043583535,0.38795182,-0.14841849,-1.0,0.0,0.0,0.0,0.0,0.0,0.0,0,0,0,0,0,0,0,3,1,0,0,4,1,0,0
78620023,-0.0,0.043583535,0.38795182,-0.14841849,-1.0,0.0,0.0,0.0,0.0,0.0,0.0,0,0,0,0,0,0,0,3,1,0,0,4,1,0,0
78639980,-0.0,0.043583535,0.38795182,-0.14841849,-1.0,0.0,0.0,0.0,0.0,0.0,0.0,0,0,0,0,0,0,0,3,1,0,0,4,1,0,0
78666205,-0.0,0.043583535,0.38795182,-0.14841849,-1.0,0.0,0.0,0.0,0.0,0.0,0.0,0,0,0,0,0,0,0,3,1,0,0,4,1,0,0
78686332,-0.0,0.043583535,0.38795182,-0.14841849,-1.0,0.0,0.0,0.0,0.0,0.0,0.0,0,0,0,0,0,0,0,3,1,0,0,4,1,0,0
78710049,-0.0,0.043583535,0.38795182,-0.14841849,-1.0,0.0,0.0,0.0,0.0,0.0,0.0,0,0,0,0,0,0,0,3,1,0,0,4,1,0,0
78735818,-0.0,0.043583535,0.38795182,-0.14841849,-1.0,0.0,0.0,0.0,0.0,0.0,0.0,0,0,0,0,0,0,0,3,1,0,0,4,1,0,0
78760115,-0.0,0.043583535,0.38795182,-0.14841849,-1.0,0.0,0.0,0.0,0.0,0.0,0.0,0,0,0,0,0,0,0,3,1,0,0,4,1,0,0
78779910,-0.0,0.043583535,0.38795182,-0.14841849,-1.0,0.0,0.0,0.0,0.0,0.0,0.0,0,0,0,0,0,0,0,3,1,0,0,4,1,0,0
78806296,-0.0,0.043583535,0.38795182,-0.14841849,-1.0,0.0,0.0,0.0,0.0,0.0,0.0,0,0,0,0,0,0,0,3,1,0,0,4,1,0,0
78826284,-0.0,0.043583535,0.38795182,-0.14841849,-1.0,0.0,0.0,0.0,0.0,0.0,0.0,0,0,0,0,0,0,0,3,1,0,0,4,1,0,0
78846273,-0.0,0.043583535,0.38795182,-0.14841849,-1.0,0.0,0.0,0.0,0.0,0.0,0.0,0,0,0,0,0,0,0,3,1,0,0,4,1,0,0
78869713,-0.0,0.043583535,0.38795182,-0.14841849,-1.0,0.0,0.0,0.0,0.0,0.0,0.0,0,0,0,0,0,0,0,3,1,0,0,4,1,0,0
78895753,-0.0,0.043583535,0.38795182,-0.14841849,-1.0,0.0,0.0,0.0,0.0,0.0,0.0,0,0,0,0,0,0,0,3,1,0,0,4,1,0,0
78919786,-0.0,0.043583535,0.38795182,-0.14841849,-1.0,0.0,0.0,0.0,0.0,0.0,0.0,0,0,0,0,0,0,0,3,1,0,0,4,1,0,0
78940010,-0.0,0.043583535,0.38795182,-0.14841849,-1.0,0.0,0.0,0.0,0.0,0.0,0.0,0,0,0,0,0,0,0,3,1,0,0,4,1,0,0
78966117,-0.0,0.043583535,0.38795182,-0.14841849,-1.0,0.0,0.0,0.0,0.0,0.0,0.0,0,0,0,0,0,0,0,3,1,0,0,4,1,0,0
78986258,-0.0,0.043583535,0.38795182,-0.14841849,-1.0,0.0,0.0,0.0,0.0,0.0,0.0,0,0,0,0,0,0,0,3,1,0,0,4,1,0,0
79006403,-0.0,0.043583535,0.38795182,-0.14841849,-1.0,0.0,0.0,0.0,0.0,0.0,0.0,0,0,0,0,0,0,0,3,1,0,0,4,1,0,0
79029774,-0.0,0.043583535,0.38795182,-0.14841849,-1.0,0.0,0.0,0.0,0.0,0.0,0.0,0,0,0,0,0,0,0,3,1,0,0,4,1,0,0
79049757,-0.0,0.043583535,0.38795182,-0.14841849,-1.0,0.0,0.0,0.0,0.0,0.0,0.0,0,0,0,0,0,0,0,3,1,0,0,4,1,0,0
79069887,-0.0,0.043583535,0.38795182,-0.14841849,-1.0,0.0,0.0,0.0,0.0,0.0,0.0,0,0,0,0,0,0,0,3,1,0,0,4,1,0,0
79095684,-0.0,0.043583535,0.38795182,-0.14841849,-1.0,0.0,0.0,0.0,0.0,0.0,0.0,0,0,0,0,0,0,0,3,1,0,0,4,1,0,0
79116168,-0.0,0.043583535,0.38795182,-0.14841849,-1.0,0.0,0.0,0.0,0.0,0.0,0.0,0,0,0,0,0,0,0,3,1,0,0,4,1,0,0
79139903,-0.0,0.043583535,0.38795182,-0.14841849,-1.0,0.0,0.0,0.0,0.0,0.0,0.0,0,0,0,0,0,0,0,3,1,0,0,4,1,0,0
79174942,-0.0,0.043583535,0.38795182,-0.14841849,-1.0,0.0,0.0,0.0,0.0,0.0,0.0,0,0,0,0,0,0,0,3,1,0,0,4,1,0,0
79189798,-0.0,0.043583535,0.38795182,-0.14841849,-1.0,0.0,0.0,0.0,0.0,0.0,0.0,0,0,0,0,0,0,0,3,1,0,0,4,1,0,0
79216150,-0.0,0.043583535,0.386747,-0.14841849,-1.0,0.0,0.0,0.0,0.0,0.0,0.0,0,0,0,0,0,0,0,3,1,0,0,4,1,0,0
79239900,-0.0,0.043583535,0.386747,-0.14841849,-1.0,0.0,0.0,0.0,0.0,0.0,0.0,0,0,0,0,0,0,0,3,1,0,0,4,1,0,0
79259941,-0.0,0.043583535,0.386747,-0.14841849,-1.0,0.0,0.0,0.0,0.0,0.0,0.0,0,0,0,0,0,0,0,3,1,0,0,4,1,0,0
79286298,-0.0,0.043583535,0.386747,-0.14841849,-1.0,0.0,0.0,0.0,0.0,0.0,0.0,0,0,0,0,0,0,0,3,1,0,0,4,1,0,0
79309804,-0.0,0.043583535,0.386747,-0.14841849,-1.0,0.0,0.0,0.0,0.0,0.0,0.0,0,0,0,0,0,0,0,3,1,0,0,4,1,0,0
79329797,-0.0,0.043583535,0.386747,-0.14841849,-1.0,0.0,0.0,0.0,0.0,0.0,0.0,0,0,0,0,0,0,0,3,1,0,0,4,1,0,0
79355625,-0.0,0.043583535,0.386747,-0.14841849,-1.0,0.0,0.0,0.0,0.0,0.0,0.0,0,0,0,0,0,0,0,3,1,0,0,4,1,0,0
79375620,-0.0,0.043583535,0.386747,-0.14841849,-1.0,0.0,0.0,0.0,0.0,0.0,0.0,0,0,0,0,0,0,0,3,1,0,0,4,1,0,0
79397147,-0.0,0.043583535,0.386747,-0.14841849,-1.0,0.0,0.0,0.0,0.0,0.0,0.0,0,0,0,0,0,0,0,3,1,0,0,4,1,0,0
79420089,-0.0,0.043583535,0.386747,-0.14841849,-1.0,0.0,0.0,0.0,0.0,0.0,0.0,0,0,0,0,0,0,0,3,1,0,0,4,1,0,0
79446200,-0.0,0.043583535,0.386747,-0.14841849,-1.0,0.0,0.0,0.0,0.0,0.0,0.0,0,0,0,0,0,0,0,3,1,0,0,4,1,0,0
79469937,-0.0,0.043583535,0.386747,-0.14841849,-1.0,0.0,0.0,0.0,0.0,0.0,0.0,0,0,0,0,0,0,0,3,1,0,0,4,1,0,0
79489898,-0.0,0.043583535,0.386747,-0.14841849,-1.0,0.0,0.0,0.0,0.0,0.0,0.0,0,0,0,0,0,0,0,3,1,0,0,4,1,0,0
79515677,-0.0,0.043583535,0.386747,-0.14841849,-1.0,0.0,0.0,0.0,0.0,0.0,0.0,0,0,0,0,0,0,0,3,1,0,0,4,1,0,0
79535670,-0.0,0.043583535,0.386747,-0.14841849,-1.0,0.0,0.0,0.0,0.0,0.0,0.0,0,0,0,0,0,0,0,3,1,0,0,4,1,0,0
79555815,-0.0,0.043583535,0.386747,-0.14841849,-1.0,0.0,0.0,0.0,0.0,0.0,0.0,0,0,0,0,0,0,0,3,1,0,0,4,1,0,0
79579713,-0.0,0.043583535,0.386747,-0.14841849,-1.0,0.0,0.0,0.0,0.0,0.0,0.0,0,0,0,0,0,0,0,3,1,0,0,4,1,0,0
79606284,-0.0,0.043583535,0.386747,-0.14841849,-1.0,0.0,0.0,0.0,0.0,0.0,0.0,0,0,0,0,0,0,0,3,1,0,0,4,1,0,0
79626381,-0.0,0.043583535,0.386747,-0.14841849,-1.0,0.0,0.0,0.0,0.0,0.0,0.0,0,0,0,0,0,0,0,3,1,0,0,4,1,0,0
79646397,-0.0,0.043583535,0.386747,-0.14841849,-1.0,0.0,0.0,0.0,0.0,0.0,0.0,0,0,0,0,0,0,0,3,1,0,0,4,1,0,0
79669654,-0.0,0.043583535,0.386747,-0.14841849,-1.0,0.0,0.0,0.0,0.0,0.0,0.0,0,0,0,0,0,0,0,3,1,0,0,4,1,0,0
79689920,-0.0,0.043583535,0.386747,-0.14841849,-1.0,0.0,0.0,0.0,0.0,0.0,0.0,0,0,0,0,0,0,0,3,1,0,0,4,1,0,0
79715547,-0.0,0.043583535,0.386747,-0.14841849,-1.0,0.0,0.0,0.0,0.0,0.0,0.0,0,0,0,0,0,0,0,3,1,0,0,4,1,0,0
79910036,-0.0,0.043583535,0.386747,-0.14841849,-1.0,0.0,0.0,0.0,0.0,0.0,0.0,0,0,0,0,0,0,0,3,1,0,0,4,1,0,0
79935582,-0.0,0.043583535,0.386747,-0.14841849,-1.0,0.0,0.0,0.0,0.0,0.0,0.0,0,0,0,0,0,0,0,3,1,0,0,4,1,0,0
79959943,-0.0,0.043583535,0.386747,-0.14841849,-1.0,0.0,0.0,0.0,0.0,0.0,0.0,0,0,0,0,0,0,0,3,1,0,0,4,1,0,0
79986404,-0.0,0.043583535,0.386747,-0.14841849,-1.0,0.0,0.0,0.0,0.0,0.0,0.0,0,0,0,0,0,0,0,3,1,0,0,4,1,0,0
80009716,-0.0,0.043583535,0.386747,-0.14841849,-1.0,0.0,0.0,0.0,0.0,0.0,0.0,0,0,0,0,0,0,0,3,1,0,0,4,1,0,0
80035679,-0.0,0.043583535,0.38795182,-0.14841849,-1.0,0.0,0.0,0.0,0.0,0.0,0.0,0,0,0,0,0,0,0,3,1,0,0,4,1,0,0
80060022,-0.0,0.043583535,0.41445783,-0.14841849,-1.0,0.0,0.0,0.0,0.0,0.0,0.0,0,0,0,0,0,0,0,3,1,0,0,4,1,0,0
80080021,-0.0,0.043583535,0.41445783,-0.14841849,-1.0,0.0,0.0,0.0,0.0,0.0,0.0,0,0,0,0,0,0,0,3,1,0,0,4,1,0,0
80100029,-0.0,0.043583535,0.41445783,-0.14841849,-1.0,0.0,0.0,0.0,0.0,0.0,0.0,0,0,0,0,0,0,0,3,1,0,0,4,1,0,0
80126197,-0.0,0.043583535,0.41566265,-0.14841849,-1.0,0.0,0.0,0.0,0.0,0.0,0.0,0,0,0,0,0,0,0,3,1,0,0,4,1,0,0
80146314,-0.0,0.043583535,0.41807228,-0.14841849,-1.0,0.0,0.0,0.0,0.0,0.0,0.0,0,0,0,0,0,0,0,3,1,0,0,4,1,0,0
80169951,-0.0,0.043583535,0.42048192,-0.14841849,-1.0,0.0,0.0,0.0,0.0,0.0,0.0,0,0,0,0,0,0,0,3,1,0,0,4,1,0,0
80206746,-0.0,0.043583535,0.43253013,-0.14841849,-1.0,0.0,0.0,0.0,0.0,0.0,0.0,0,0,0,0,0,0,0,3,1,0,0,4,1,0,0
80219988,-0.0,0.043583535,0.43493977,-0.14841849,-1.0,0.0,0.0,0.0,0.0,0.0,0.0,0,0,0,0,0,0,0,3,1,0,0,4,1,0,0
80246237,-0.0,0.043583535,0.44698796,-0.14841849,-1.0,0.0,0.0,0.0,0.0,0.0,0.0,0,0,0,0,0,0,0,3,1,0,0,4,1,0,0
80269740,-0.0,0.043583535,0.4554217,-0.14841849,-1.0,0.0,0.0,0.0,0.0,0.0,0.0,0,0,0,0,0,0,0,3,1,0,0,4,1,0,0
80290053,-0.0,0.043583535,0.4566265,-0.14841849,-1.0,0.0,0.0,0.0,0.0,0.0,0.0,0,0,0,0,0,0,0,3,1,0,0,4,1,0,0
80315687,-0.0,0.043583535,0.46144578,-0.14841849,-1.0,0.0,0.0,0.0,0.0,0.0,0.0,0,0,0,0,0,0,0,3,1,0,0,4,1,0,0
80340080,-0.0,0.043583535,0.46506023,-0.14841849,-1.0,0.0,0.0,0.0,0.0,0.0,0.0,0,0,0,0,0,0,0,3,1,0,0,4,1,0,0
80366174,-0.0,0.043583535,0.4686747,-0.14841849,-1.0,0.0,0.0,0.0,0.0,0.0,0.0,0,0,0,0,0,0,0,3,1,0,0,4,1,0,0
80389724,-0.0,0.043583535,0.47228914,-0.14841849,-1.0,0.0,0.0,0.0,0.0,0.0,0.0,0,0,0,0,0,0,0,3,1,0,0,4,1,0,0
80415797,-0.0,0.043583535,0.47469878,-0.14841849,-1.0,0.0,0.0,0.0,0.0,0.0,0.0,0,0,0,0,0,0,0,3,1,0,0,4,1,0,0
80439676,-0.0,0.043583535,0.486747,-0.14841849,-1.0,0.0,0.0,0.0,0.0,0.0,0.0,0,0,0,0,0,0,0,3,1,0,0,4,1,0,0
80466468,-0.0,0.043583535,0.49036145,-0.14841849,-1.0,0.0,0.0,0.0,0.0,0.0,0.0,0,0,0,0,0,0,0,3,1,0,0,4,1,0,0
80489656,-0.0,0.043583535,0.49036145,-0.14841849,-1.0,0.0,0.0,0.0,0.0,0.0,0.0,0,0,0,0,0,0,0,3,1,0,0,4,1,0,0
80509730,-0.0,0.043583535,0.49036145,-0.14841849,-1.0,0.0,0.0,0.0,0.0,0.0,0.0,0,0,0,0,0,0,0,3,1,0,0,4,1,0,0
80535671,-0.0,0.043583535,0.49036145,-0.14841849,-1.0,0.0,0.0,0.0,0.0,0.0,0.0,0,0,0,0,0,0,0,3,1,0,0,4,1,0,0
80559681,-0.0,0.043583535,0.49156627,-0.14841849,-1.0,0.0,0.0,0.0,0.0,0.0,0.0,0,0,0,0,0,0,0,3,1,0,0,4,1,0,0
80579781,-0.0,0.043583535,0.5036145,-0.14841849,-1.0,0.0,0.0,0.0,0.0,0.0,0.0,0,0,0,0,0,0,0,3,1,0,0,4,1,0,0
80606183,-0.0,0.043583535,0.5108434,-0.14841849,-1.0,0.0,0.0,0.0,0.0,0.0,0.0,0,0,0,0,0,0,0,3,1,0,0,4,1,0,0
80626231,-0.0,0.043583535,0.51566267,-0.14841849,-1.0,0.0,0.0,0.0,0.0,0.0,0.0,0,0,0,0,0,0,0,3,1,0,0,4,1,0,0
80649761,-0.0,0.043583535,0.51686746,-0.14841849,-1.0,0.0,0.0,0.0,0.0,0.0,0.0,0,0,0,0,0,0,0,3,1,0,0,4,1,0,0
80675638,-0.0,0.043583535,0.5180723,-0.14841849,-1.0,0.0,0.0,0.0,0.0,0.0,0.0,0,0,0,0,0,0,0,3,1,0,0,4,1,0,0
80695645,-0.0,0.043583535,0.52048194,-0.14841849,-1.0,0.0,0.0,0.0,0.0,0.0,0.0,0,0,0,0,0,0,0,3,1,0,0,4,1,0,0
80715661,-0.0,0.043583535,0.526506,-0.14841849,-1.0,0.0,0.0,0.0,0.0,0.0,0.0,0,0,0,0,0,0,0,3,1,0,0,4,1,0,0
80736172,-0.0,0.043583535,0.5313253,-0.14841849,-1.0,0.0,0.0,0.0,0.0,0.0,0.0,0,0,0,0,0,0,0,3,1,0,0,4,1,0,0
80759898,-0.0,0.043583535,0.5313253,-0.14841849,-1.0,0.0,0.0,0.0,0.0,0.0,0.0,0,0,0,0,0,0,0,3,1,0,0,4,1,0,0
80786355,-0.0,0.043583535,0.5313253,-0.14841849,-1.0,0.0,0.0,0.0,0.0,0.0,0.0,0,0,0,0,0,0,0,3,1,0,0,4,1,0,0
80809790,-0.0,0.043583535,0.5313253,-0.14841849,-1.0,0.0,0.0,0.0,0.0,0.0,0.0,0,0,0,0,0,0,0,3,1,0,0,4,1,0,0
80829794,-0.0,0.043583535,0.5313253,-0.14841849,-1.0,0.0,0.0,0.0,0.0,0.0,0.0,0,0,0,0,0,0,0,3,1,0,0,4,1,0,0
80849798,-0.0,0.043583535,0.5313253,-0.14841849,-1.0,0.0,0.0,0.0,0.0,0.0,0.0,0,0,0,0,0,0,0,3,1,0,0,4,1,0,0
80869916,-0.0,0.043583535,0.5313253,-0.14841849,-1.0,0.0,0.0,0.0,0.0,0.0,0.0,0,0,0,0,0,0,0,3,1,0,0,4,1,0,0
80896178,-0.0,0.043583535,0.5313253,-0.14841849,-1.0,0.0,0.0,0.0,0.0,0.0,0.0,0,0,0,0,0,0,0,3,1,0,0,4,1,0,0
80919901,-0.0,0.043583535,0.5313253,-0.14841849,-1.0,0.0,0.0,0.0,0.0,0.0,0.0,0,0,0,0,0,0,0,3,1,0,0,4,1,0,0
80939929,-0.0,0.043583535,0.5313253,-0.14841849,-1.0,0.0,0.0,0.0,0.0,0.0,0.0,0,0,0,0,0,0,0,3,1,0,0,4,1,0,0
80959909,-0.0,0.043583535,0.5313253,-0.14841849,-1.0,0.0,0.0,0.0,0.0,0.0,0.0,0,0,0,0,0,0,0,3,1,0,0,4,1,0,0
80986242,-0.0,0.043583535,0.5313253,-0.14841849,-1.0,0.0,0.0,0.0,0.0,0.0,0.0,0,0,0,0,0,0,0,3,1,0,0,4,1,0,0
81006297,-0.0,0.043583535,0.5313253,-0.14841849,-1.0,0.0,0.0,0.0,0.0,0.0,0.0,0,0,0,0,0,0,0,3,1,0,0,4,1,0,0
81029957,-0.0,0.043583535,0.5313253,-0.14841849,-1.0,0.0,0.0,0.0,0.0,0.0,0.0,0,0,0,0,0,0,0,3,1,0,0,4,1,0,0
81056086,-0.0,0.043583535,0.5313253,-0.14841849,-1.0,0.0,0.0,0.0,0.0,0.0,0.0,0,0,0,0,0,0,0,3,1,0,0,4,1,0,0
81079640,-0.0,0.043583535,0.5313253,-0.14841849,-1.0,0.0,0.0,0.0,0.0,0.0,0.0,0,0,0,0,0,0,0,3,1,0,0,4,1,0,0
81099648,-0.0,0.043583535,0.5313253,-0.14841849,-1.0,0.0,0.0,0.0,0.0,0.0,0.0,0,0,0,0,0,0,0,3,1,0,0,4,1,0,0
81126315,-0.0,0.043583535,0.5313253,-0.14841849,-1.0,0.0,0.0,0.0,0.0,0.0,0.0,0,0,0,0,0,0,0,3,1,0,0,4,1,0,0
81149935,-0.0,0.043583535,0.5313253,-0.14841849,-1.0,0.0,0.0,0.0,0.0,0.0,0.0,0,0,0,0,0,0,0,3,1,0,0,4,1,0,0
81169911,-0.0,0.043583535,0.5313253,-0.14841849,-1.0,0.0,0.0,0.0,0.0,0.0,0.0,0,0,0,0,0,0,0,3,1,0,0,4,1,0,0
81197237,-0.0,0.043583535,0.5313253,-0.14841849,-1.0,0.0,0.0,0.0,0.0,0.0,0.0,0,0,0,0,0,0,0,3,1,0,0,4,1,0,0
81228291,-0.0,0.043583535,0.5313253,-0.14841849,-1.0,0.0,0.0,0.0,0.0,0.0,0.0,0,0,0,0,0,0,0,3,1,0,0,4,1,0,0
81246180,-0.0,0.043583535,0.5313253,-0.14841849,-1.0,0.0,0.0,0.0,0.0,0.0,0.0,0,0,0,0,0,0,0,3,1,0,0,4,1,0,0
81266249,-0.0,0.043583535,0.5313253,-0.14841849,-1.0,0.0,0.0,0.0,0.0,0.0,0.0,0,0,0,0,0,0,0,3,1,0,0,4,1,0,0
81289902,-0.0,0.043583535,0.5313253,-0.14841849,-1.0,0.0,0.0,0.0,0.0,0.0,0.0,0,0,0,0,0,0,0,3,1,0,0,4,1,0,0
81309900,-0.0,0.043583535,0.5313253,-0.14841849,-1.0,0.0,0.0,0.0,0.0,0.0,0.0,0,0,0,0,0,0,0,3,1,0,0,4,1,0,0
81329921,-0.0,0.043583535,0.5313253,-0.14841849,-1.0,0.0,0.0,0.0,0.0,0.0,0.0,0,0,0,0,0,0,0,3,1,0,0,4,1,0,0
81355533,-0.0,0.043583535,0.5313253,-0.14841849,-1.0,0.0,0.0,0.0,0.0,0.0,0.0,0,0,0,0,0,0,0,3,1,0,0,4,1,0,0
81375742,-0.0,0.043583535,0.5313253,-0.14841849,-1.0,0.0,0.0,0.0,0.0,0.0,0.0,0,0,0,0,0,0,0,3,1,0,0,4,1,0,0
81397477,-0.0,0.043583535,0.5325301,-0.14841849,-1.0,0.0,0.0,0.0,0.0,0.0,0.0,0,0,0,0,0,0,0,3,1,0,0,4,1,0,0
81419898,-0.0,0.043583535,0.5325301,-0.14841849,-1.0,0.0,0.0,0.0,0.0,0.0,0.0,0,0,0,0,0,0,0,3,1,0,0,4,1,0,0
81446289,-0.0,0.043583535,0.5325301,-0.14841849,-1.0,0.0,0.0,0.0,0.0,0.0,0.0,0,0,0,0,0,0,0,3,1,0,0,4,1,0,0
81469986,-0.0,0.043583535,0.5325301,-0.14841849,-1.0,0.0,0.0,0.0,0.0,0.0,0.0,0,0,0,0,0,0,0,3,1,0,0,4,1,0,0
81496056,-0.0,0.043583535,0.5325301,-0.14841849,-1.0,0.0,0.0,0.0,0.0,0.0,0.0,0,0,0,0,0,0,0,3,1,0,0,4,1,0,0
81519901,-0.0,0.043583535,0.5325301,-0.14841849,-1.0,0.0,0.0,0.0,0.0,0.0,0.0,0,0,0,0,0,0,0,3,1,0,0,4,1,0,0
81539961,-0.0,0.043583535,0.5325301,-0.14841849,-1.0,0.0,0.0,0.0,0.0,0.0,0.0,0,0,0,0,0,0,0,3,1,0,0,4,1,0,0
81566162,-0.0,0.043583535,0.5325301,-0.14841849,-1.0,0.0,0.0,0.0,0.0,0.0,0.0,0,0,0,0,0,0,0,3,1,0,0,4,1,0,0
81589820,-0.0,0.043583535,0.5325301,-0.14841849,-1.0,0.0,0.0,0.0,0.0,0.0,0.0,0,0,0,0,0,0,0,3,1,0,0,4,1,0,0
81609958,-0.0,0.043583535,0.5325301,-0.14841849,-1.0,0.0,0.0,0.0,0.0,0.0,0.0,0,0,0,0,0,0,0,3,1,0,0,4,1,0,0
81635574,-0.0,0.043583535,0.5337349,-0.14841849,-1.0,0.0,0.0,0.0,0.0,0.0,0.0,0,0,0,0,0,0,0,3,1,0,0,4,1,0,0
81660016,-0.0,0.043583535,0.53975904,-0.14841849,-1.0,0.0,0.0,0.0,0.0,0.0,0.0,0,0,0,0,0,0,0,3,1,0,0,4,1,0,0
81679994,-0.0,0.043583535,0.54337347,-0.14841849,-1.0,0.0,0.0,0.0,0.0,0.0,0.0,0,0,0,0,0,0,0,3,1,0,0,4,1,0,0
81699962,-0.0,0.043583535,0.5554217,-0.14841849,-1.0,0.0,0.0,0.0,0.0,0.0,0.0,0,0,0,0,0,0,0,3,1,0,0,4,1,0,0
81719981,-0.0,0.043583535,0.5614458,-0.14841849,-1.0,0.0,0.0,0.0,0.0,0.0,0.0,0,0,0,0,0,0,0,3,1,0,0,4,1,0,0
81740032,-0.0,0.043583535,0.5686747,-0.14841849,-1.0,0.0,0.0,0.0,0.0,0.0,0.0,0,0,0,0,0,0,0,3,1,0,0,4,1,0,0
81766331,-0.0,0.043583535,0.5686747,-0.14841849,-1.0,0.0,0.0,0.0,0.0,0.0,0.0,0,0,0,0,0,0,0,3,1,0,0,4,1,0,0
81789959,-0.0,0.043583535,0.5686747,-0.14841849,-1.0,0.0,0.0,0.0,0.0,0.0,0.0,0,0,0,0,0,0,0,3,1,0,0,4,1,0,0
81809590,-0.0,0.043583535,0.56987953,-0.14841849,-1.0,0.0,0.0,0.0,0.0,0.0,0.0,0,0,0,0,0,0,0,3,1,0,0,4,1,0,0
81835549,-0.0,0.043583535,0.5710843,-0.14841849,-1.0,0.0,0.0,0.0,0.0,0.0,0.0,0,0,0,0,0,0,0,3,1,0,0,4,1,0,0
81860054,-0.0,0.043583535,0.5710843,-0.14841849,-1.0,0.0,0.0,0.0,0.0,0.0,0.0,0,0,0,0,0,0,0,3,1,0,0,4,1,0,0
81885818,-0.0,0.043583535,0.5710843,-0.14841849,-1.0,0.0,0.0,0.0,0.0,0.0,0.0,0,0,0,0,0,0,0,3,1,0,0,4,1,0,0
81906095,-0.0,0.043583535,0.57349396,-0.14841849,-1.0,0.0,0.0,0.0,0.0,0.0,0.0,0,0,0,0,0,0,0,3,1,0,0,4,1,0,0
81926071,-0.0,0.043583535,0.5795181,-0.14841849,-1.0,0.0,0.0,0.0,0.0,0.0,0.0,0,0,0,0,0,0,0,3,1,0,0,4,1,0,0
81946379,-0.0,0.043583535,0.58433735,-0.14841849,-1.0,0.0,0.0,0.0,0.0,0.0,0.0,0,0,0,0,0,0,0,3,1,0,0,4,1,0,0
81969599,-0.0,0.043583535,0.5891566,-0.14841849,-1.0,0.0,0.0,0.0,0.0,0.0,0.0,0,0,0,0,0,0,0,3,1,0,0,4,1,0,0
81989602,-0.0,0.043583535,0.5927711,-0.14841849,-1.0,0.0,0.0,0.0,0.0,0.0,0.0,0,0,0,0,0,0,0,3,1,0,0,4,1,0,0
83235654,-0.0,0.050847456,0.76144576,-0.14841849,-1.0,0.0,0.0,0.0,0.0,0.0,0.0,0,0,0,0,0,0,0,3,1,0,0,4,1,0,0
84135587,-0.0,0.065375306,1.0,-0.14841849,-1.0,0.0,0.0,0.0,0.0,0.0,0.0,0,0,0,0,0,0,0,3,1,0,0,4,1,0,0
84155593,-0.0,0.06295399,1.0,-0.14841849,-1.0,0.0,0.0,0.0,0.0,0.0,0.0,0,0,0,0,0,0,0,3,1,0,0,4,1,0,0
