timestamp,gps_hvel[0],gps_hvel[1],gps_vvel,gps_hpos[0],gps_hpos[1],gps_vpos,ev_hvel[0],ev_hvel[1],ev_vvel,ev_hpos[0],ev_hpos[1],ev_vpos,fake_hvel[0],fake_hvel[1],fake_vvel,fake_hpos[0],fake_hpos[1],fake_vpos,rng_vpos,baro_vpos,aux_hvel[0],aux_hvel[1],aux_vvel,flow[0],flow[1],heading,mag_field[0],mag_field[1],mag_field[2],drag[0],drag[1],airspeed,beta,hagl
68222354,-0.05072064,0.00052196346,-0.06823171,-0.049448133,0.0599133,0.0,0.0,0.0,0.0,0.0,0.0,0.0,nan,nan,nan,nan,nan,nan,0.0,0.102781296,0.0,0.0,nan,0.0,0.0,0.005204499,0.0,0.0,0.0,0.0,0.0,0.0,0.0,0.0
68432359,0.0025986386,-0.015508246,-0.006232377,-0.05832398,0.055915065,0.0,0.0,0.0,0.0,0.0,0.0,0.0,nan,nan,nan,nan,nan,nan,0.0,0.16787529,0.0,0.0,nan,0.0,0.0,0.015405834,0.0,0.0,0.0,0.0,0.0,0.0,0.0,0.0
68632396,0.092877164,0.0026338901,-0.026072267,-0.050101697,0.054045133,0.0,0.0,0.0,0.0,0.0,0.0,0.0,nan,nan,nan,nan,nan,nan,0.0,0.17142296,0.0,0.0,nan,0.0,0.0,0.008918464,0.0,0.0,0.0,0.0,0.0,0.0,0.0,0.0
68832358,-0.035388015,-0.079555355,0.0024110079,-0.055161536,0.04281105,0.0,0.0,0.0,0.0,0.0,0.0,0.0,nan,nan,nan,nan,nan,nan,0.0,0.047826767,0.0,0.0,nan,0.0,0.0,-0.013834238,0.0,0.0,0.0,0.0,0.0,0.0,0.0,0.0
69032368,0.04237371,0.012638234,-0.03545327,-0.031558394,0.044063427,0.0,0.0,0.0,0.0,0.0,0.0,0.0,nan,nan,nan,nan,nan,nan,0.0,-0.0015010834,0.0,0.0,nan,0.0,0.0,-0.034883916,0.0,0.0,0.0,0.0,0.0,0.0,0.0,0.0
69222394,0.0012734979,-0.0046564844,0.07474224,-0.04234934,0.04049501,0.0,0.0,0.0,0.0,0.0,0.0,0.0,nan,nan,nan,nan,nan,nan,0.0,0.32894135,0.0,0.0,nan,0.0,0.0,-0.051376283,0.0,0.0,0.0,0.0,0.0,0.0,0.0,0.0
69432397,-0.0106794285,0.0021851659,0.014746252,-0.035805464,0.046882622,0.0,0.0,0.0,0.0,0.0,0.0,0.0,nan,nan,nan,nan,nan,nan,0.0,0.035827637,0.0,0.0,nan,0.0,0.0,0.022907555,0.0,0.0,0.0,0.0,0.0,0.0,0.0,0.0
69632399,0.012159078,-0.010110028,-0.018251628,-0.038937926,0.04430285,0.0,0.0,0.0,0.0,0.0,0.0,0.0,nan,nan,nan,nan,nan,nan,0.0,0.043092728,0.0,0.0,nan,0.0,0.0,-0.015479445,0.0,0.0,0.0,0.0,0.0,0.0,0.0,0.0
69832394,0.021463702,-0.0620776,0.018972851,-0.032981098,0.035983555,0.0,0.0,0.0,0.0,0.0,0.0,0.0,nan,nan,nan,nan,nan,nan,0.0,0.19111061,0.0,0.0,nan,0.0,0.0,-0.03158456,0.0,0.0,0.0,0.0,0.0,0.0,0.0,0.0
70032353,0.0004872661,-0.01852394,0.058030296,-0.028752089,0.03609398,0.0,0.0,0.0,0.0,0.0,0.0,0.0,nan,nan,nan,nan,nan,nan,0.0,0.10352516,0.0,0.0,nan,0.0,0.0,-0.026052892,0.0,0.0,0.0,0.0,0.0,0.0,0.0,0.0
70232397,0.013655789,-0.0011146367,0.010992197,-0.033355325,0.031811222,0.0,0.0,0.0,0.0,0.0,0.0,0.0,nan,nan,nan,nan,nan,nan,0.0,0.14229393,0.0,0.0,nan,0.0,0.0,-0.054525316,0.0,0.0,0.0,0.0,0.0,0.0,0.0,0.0
70432396,0.03637947,0.045745224,0.03215063,-0.02810654,0.03213027,0.0,0.0,0.0,0.0,0.0,0.0,0.0,nan,nan,nan,nan,nan,nan,0.0,0.011857986,0.0,0.0,nan,0.0,0.0,-0.004277289,0.0,0.0,0.0,0.0,0.0,0.0,0.0,0.0
70632371,0.010907622,-0.009824592,0.035868607,-0.025913507,0.026359588,0.0,0.0,0.0,0.0,0.0,0.0,0.0,nan,nan,nan,nan,nan,nan,0.0,-0.03201294,0.0,0.0,nan,0.0,0.0,0.007978201,0.0,0.0,0.0,0.0,0.0,0.0,0.0,0.0
70832396,-0.015859712,-0.029661587,0.030618953,-0.03230837,0.02045986,0.0,0.0,0.0,0.0,0.0,0.0,0.0,nan,nan,nan,nan,nan,nan,0.0,0.113248825,0.0,0.0,nan,0.0,0.0,-0.01010406,0.0,0.0,0.0,0.0,0.0,0.0,0.0,0.0
71032396,0.04323013,0.06437918,0.051041953,-0.011646062,0.03373453,0.0,0.0,0.0,0.0,0.0,0.0,0.0,nan,nan,nan,nan,nan,nan,0.0,0.023658752,0.0,0.0,nan,0.0,0.0,0.00957346,0.0,0.0,0.0,0.0,0.0,0.0,0.0,0.0
71232373,-0.01820449,-0.028843552,0.024479186,-0.011502534,0.032573745,0.0,0.0,0.0,0.0,0.0,0.0,0.0,nan,nan,nan,nan,nan,nan,0.0,0.06477928,0.0,0.0,nan,0.0,0.0,-0.0065544248,0.0,0.0,0.0,0.0,0.0,0.0,0.0,0.0
71432369,0.012475663,-0.03278935,0.118473575,-0.014229268,0.035441294,0.0,0.0,0.0,0.0,0.0,0.0,0.0,nan,nan,nan,nan,nan,nan,0.0,-0.09526634,0.0,0.0,nan,0.0,0.0,-0.011464179,0.0,0.0,0.0,0.0,0.0,0.0,0.0,0.0
71632396,0.03582546,-0.060002472,0.020317128,-0.010048002,0.02518186,0.0,0.0,0.0,0.0,0.0,0.0,0.0,nan,nan,nan,nan,nan,nan,0.0,0.21486855,0.0,0.0,nan,0.0,0.0,-0.029729903,0.0,0.0,0.0,0.0,0.0,0.0,0.0,0.0
71832396,-0.0021034256,0.014422235,0.002134638,0.002321124,0.035664767,0.0,0.0,0.0,0.0,0.0,0.0,0.0,nan,nan,nan,nan,nan,nan,0.0,-0.13956833,0.0,0.0,nan,0.0,0.0,-0.023694336,0.0,0.0,0.0,0.0,0.0,0.0,0.0,0.0
72032367,0.0379631,-0.028725078,0.005047969,0.007916421,0.035056055,0.0,0.0,0.0,0.0,0.0,0.0,0.0,nan,nan,nan,nan,nan,nan,0.0,0.14801407,0.0,0.0,nan,0.0,0.0,0.027252972,0.0,0.0,0.0,0.0,0.0,0.0,0.0,0.0
72232392,0.031183392,0.00084724,0.023858286,0.0068965256,0.039842248,0.0,0.0,0.0,0.0,0.0,0.0,0.0,nan,nan,nan,nan,nan,nan,0.0,-0.009012222,0.0,0.0,nan,0.0,0.0,0.015220821,0.0,0.0,0.0,0.0,0.0,0.0,0.0,0.0
72432350,0.01637876,0.00037886295,0.048435602,0.015885413,0.041508615,0.0,0.0,0.0,0.0,0.0,0.0,0.0,nan,nan,nan,nan,nan,nan,0.0,0.1436634,0.0,0.0,nan,0.0,0.0,0.048770726,0.0,0.0,0.0,0.0,0.0,0.0,0.0,0.0
72622402,0.0055970196,-0.0054538767,0.040291693,0.013665229,0.042890146,0.0,0.0,0.0,0.0,0.0,0.0,0.0,nan,nan,nan,nan,nan,nan,0.0,0.13835144,0.0,0.0,nan,0.0,0.0,0.058906853,0.0,0.0,0.0,0.0,0.0,0.0,0.0,0.0
72822447,-0.035443164,0.004586827,-0.018520674,0.014868736,0.045238808,0.0,0.0,0.0,0.0,0.0,0.0,0.0,nan,nan,nan,nan,nan,nan,0.0,-0.03262329,0.0,0.0,nan,0.0,0.0,-0.025419116,0.0,0.0,0.0,0.0,0.0,0.0,0.0,0.0
73022347,0.027529001,-0.0271382,0.01792199,0.020433456,0.045232743,0.0,0.0,0.0,0.0,0.0,0.0,0.0,nan,nan,nan,nan,nan,nan,0.0,-0.06924248,0.0,0.0,nan,0.0,0.0,0.024094224,0.0,0.0,0.0,0.0,0.0,0.0,0.0,0.0
73232397,-0.017786548,-0.017644761,0.014751063,0.015511632,0.04285927,0.0,0.0,0.0,0.0,0.0,0.0,0.0,nan,nan,nan,nan,nan,nan,0.0,-0.0074825287,0.0,0.0,nan,0.0,0.0,-0.037840784,0.0,0.0,0.0,0.0,0.0,0.0,0.0,0.0
73422349,0.03829334,0.03183442,-0.003977904,0.018500596,0.0464343,0.0,0.0,0.0,0.0,0.0,0.0,0.0,nan,nan,nan,nan,nan,nan,0.0,-0.08922005,0.0,0.0,nan,0.0,0.0,0.015575886,0.0,0.0,0.0,0.0,0.0,0.0,0.0,0.0
73632396,-0.02991176,0.0005902585,0.056576855,0.0038282275,0.044154897,0.0,0.0,0.0,0.0,0.0,0.0,0.0,nan,nan,nan,nan,nan,nan,0.0,0.03159523,0.0,0.0,nan,0.0,0.0,0.053087533,0.0,0.0,0.0,0.0,0.0,0.0,0.0,0.0
73832399,0.01940279,-0.043411084,0.022352109,0.020440787,0.045434937,0.0,0.0,0.0,0.0,0.0,0.0,0.0,nan,nan,nan,nan,nan,nan,0.0,0.12768745,0.0,0.0,nan,0.0,0.0,-0.028342426,0.0,0.0,0.0,0.0,0.0,0.0,0.0,0.0
74032400,0.0241329,0.013188839,-0.043498356,0.029322684,0.05259545,0.0,0.0,0.0,0.0,0.0,0.0,0.0,nan,nan,nan,nan,nan,nan,0.0,0.06793022,0.0,0.0,nan,0.0,0.0,0.007655263,0.0,0.0,0.0,0.0,0.0,0.0,0.0,0.0
74232365,-0.016039606,0.030810192,0.017846141,0.025413722,0.051626846,0.0,0.0,0.0,0.0,0.0,0.0,0.0,nan,nan,nan,nan,nan,nan,0.0,-0.041906357,0.0,0.0,nan,0.0,0.0,0.029479623,0.0,0.0,0.0,0.0,0.0,0.0,0.0,0.0
74432406,0.013213488,0.0014112336,0.007923111,0.026174992,0.056417003,0.0,0.0,0.0,0.0,0.0,0.0,0.0,nan,nan,nan,nan,nan,nan,0.0,0.1905899,0.0,0.0,nan,0.0,0.0,-0.010531485,0.0,0.0,0.0,0.0,0.0,0.0,0.0,0.0
74632352,0.0071567255,-0.0003303839,0.027172795,0.022815764,0.057599872,0.0,0.0,0.0,0.0,0.0,0.0,0.0,nan,nan,nan,nan,nan,nan,0.0,-0.020746231,0.0,0.0,nan,0.0,0.0,0.05990559,0.0,0.0,0.0,0.0,0.0,0.0,0.0,0.0
74832404,-0.021613808,0.014447167,-0.04850037,0.020656765,0.05060923,0.0,0.0,0.0,0.0,0.0,0.0,0.0,nan,nan,nan,nan,nan,nan,0.0,-0.10105324,0.0,0.0,nan,0.0,0.0,-0.058614254,0.0,0.0,0.0,0.0,0.0,0.0,0.0,0.0
75032410,-0.00050034584,-0.0055989656,-0.0067655984,0.022092432,0.04963991,0.0,0.0,0.0,0.0,0.0,0.0,0.0,nan,nan,nan,nan,nan,nan,0.0,-0.13433647,0.0,0.0,nan,0.0,0.0,0.031142175,0.0,0.0,0.0,0.0,0.0,0.0,0.0,0.0
75232430,0.009398756,0.016047304,-0.04999091,0.020579398,0.051852196,0.0,0.0,0.0,0.0,0.0,0.0,0.0,nan,nan,nan,nan,nan,nan,0.0,0.29414177,0.0,0.0,nan,0.0,0.0,-0.03427726,0.0,0.0,0.0,0.0,0.0,0.0,0.0,0.0
75432396,0.023631137,-0.0051365276,-0.035931,0.02899766,0.050953418,0.0,0.0,0.0,0.0,0.0,0.0,0.0,nan,nan,nan,nan,nan,nan,0.0,0.040647507,0.0,0.0,nan,0.0,0.0,0.0067536235,0.0,0.0,0.0,0.0,0.0,0.0,0.0,0.0
75632377,0.018978983,0.011675051,-0.006328395,0.022805631,0.045243114,0.0,0.0,0.0,0.0,0.0,0.0,0.0,nan,nan,nan,nan,nan,nan,0.0,-0.2713833,0.0,0.0,nan,0.0,0.0,-0.0026392937,0.0,0.0,0.0,0.0,0.0,0.0,0.0,0.0
75832396,0.02927427,-0.0481193,-0.07030979,0.027757287,0.045688152,0.0,0.0,0.0,0.0,0.0,0.0,0.0,nan,nan,nan,nan,nan,nan,0.0,0.20274544,0.0,0.0,nan,0.0,0.0,0.0062723756,0.0,0.0,0.0,0.0,0.0,0.0,0.0,0.0
76032399,-0.016686598,-0.006890489,-0.02488159,0.029918969,0.04672849,0.0,0.0,0.0,0.0,0.0,0.0,0.0,nan,nan,nan,nan,nan,nan,0.0,0.0981617,0.0,0.0,nan,0.0,0.0,-0.049717188,0.0,0.0,0.0,0.0,0.0,0.0,0.0,0.0
76232361,0.019757606,0.020758318,0.07668505,0.026231825,0.050022155,0.0,0.0,0.0,0.0,0.0,0.0,0.0,nan,nan,nan,nan,nan,nan,0.0,0.11027336,0.0,0.0,nan,0.0,0.0,-0.031227827,0.0,0.0,0.0,0.0,0.0,0.0,0.0,0.0
76432400,0.00080793723,0.028883953,0.025112778,0.02873522,0.05673328,0.0,0.0,0.0,0.0,0.0,0.0,0.0,nan,nan,nan,nan,nan,nan,0.0,0.025144577,0.0,0.0,nan,0.0,0.0,-0.00078350306,0.0,0.0,0.0,0.0,0.0,0.0,0.0,0.0
76632399,-0.03244154,-0.0014420659,0.034511372,0.02189356,0.05463305,0.0,0.0,0.0,0.0,0.0,0.0,0.0,nan,nan,nan,nan,nan,nan,0.0,0.111312866,0.0,0.0,nan,0.0,0.0,0.04352379,0.0,0.0,0.0,0.0,0.0,0.0,0.0,0.0
76832359,-0.011430339,-0.056688096,0.07657173,0.030990183,0.04872629,0.0,0.0,0.0,0.0,0.0,0.0,0.0,nan,nan,nan,nan,nan,nan,0.0,0.08107376,0.0,0.0,nan,0.0,0.0,-0.09045696,0.0,0.0,0.0,0.0,0.0,0.0,0.0,0.0
77632383,-0.006409062,0.014094836,-0.060268372,0.023573518,0.04881096,0.0,0.0,0.0,0.0,0.0,0.0,0.0,nan,nan,nan,nan,nan,nan,0.0,-0.12015724,0.0,0.0,nan,0.0,0.0,0.05251676,0.0,0.0,0.0,0.0,0.0,0.0,0.0,0.0
77832384,-0.031477056,-0.014802936,-0.029431744,0.029442549,0.04937747,0.0,0.0,0.0,0.0,0.0,0.0,0.0,nan,nan,nan,nan,nan,nan,0.0,0.04816246,0.0,0.0,nan,0.0,0.0,0.023433447,0.0,0.0,0.0,0.0,0.0,0.0,0.0,0.0
78032400,0.011981012,0.0137682855,-0.0043460866,0.026807368,0.046155572,0.0,0.0,0.0,0.0,0.0,0.0,0.0,nan,nan,nan,nan,nan,nan,0.0,-0.038354874,0.0,0.0,nan,0.0,0.0,0.054362833,0.0,0.0,0.0,0.0,0.0,0.0,0.0,0.0
78232396,-0.035046242,-0.021193996,0.018057307,0.019210935,0.04677248,0.0,0.0,0.0,0.0,0.0,0.0,0.0,nan,nan,nan,nan,nan,nan,0.0,-0.04024315,0.0,0.0,nan,0.0,0.0,0.048169076,0.0,0.0,0.0,0.0,0.0,0.0,0.0,0.0
78432399,-0.019343173,0.036434278,-0.05301527,0.0178805,0.04508838,0.0,0.0,0.0,0.0,0.0,0.0,0.0,nan,nan,nan,nan,nan,nan,0.0,0.021503448,0.0,0.0,nan,0.0,0.0,0.028698921,0.0,0.0,0.0,0.0,0.0,0.0,0.0,0.0
78632399,-0.029429011,0.020149501,-0.011929017,0.01495111,0.043165863,0.0,0.0,0.0,0.0,0.0,0.0,0.0,nan,nan,nan,nan,nan,nan,0.0,0.12292099,0.0,0.0,nan,0.0,0.0,0.018184066,0.0,0.0,0.0,0.0,0.0,0.0,0.0,0.0
78832396,-0.0052253436,0.0077403747,-0.034993567,0.02496463,0.042680442,0.0,0.0,0.0,0.0,0.0,0.0,0.0,nan,nan,nan,nan,nan,nan,0.0,0.04080963,0.0,0.0,nan,0.0,0.0,0.06405252,0.0,0.0,0.0,0.0,0.0,0.0,0.0,0.0
79032372,-0.041445825,0.018205982,-0.025668096,0.019697368,0.050914556,0.0,0.0,0.0,0.0,0.0,0.0,0.0,nan,nan,nan,nan,nan,nan,0.0,0.045690536,0.0,0.0,nan,0.0,0.0,0.0385924,0.0,0.0,0.0,0.0,0.0,0.0,0.0,0.0
79232371,-0.042622596,0.023797434,0.004730491,0.019647598,0.04949057,0.0,0.0,0.0,0.0,0.0,0.0,0.0,nan,nan,nan,nan,nan,nan,0.0,0.29384613,0.0,0.0,nan,0.0,0.0,0.030450702,0.0,0.0,0.0,0.0,0.0,0.0,0.0,0.0
79432396,-0.027291518,-0.004138709,0.0016543483,0.020298779,0.046771675,0.0,0.0,0.0,0.0,0.0,0.0,0.0,nan,nan,nan,nan,nan,nan,0.0,0.10010719,0.0,0.0,nan,0.0,0.0,0.069358945,0.0,0.0,0.0,0.0,0.0,0.0,0.0,0.0
79632396,0.026949234,-0.0057799337,-0.00193294,0.03022325,0.047719,0.0,0.0,0.0,0.0,0.0,0.0,0.0,nan,nan,nan,nan,nan,nan,0.0,0.016609192,0.0,0.0,nan,0.0,0.0,0.03600198,0.0,0.0,0.0,0.0,0.0,0.0,0.0,0.0
80032399,-0.025843803,-0.021291345,0.031798758,0.008033276,0.03553483,0.0,0.0,0.0,0.0,0.0,0.0,0.0,nan,nan,nan,nan,nan,nan,0.0,-0.03713417,0.0,0.0,nan,0.0,0.0,0.07451755,0.0,0.0,0.0,0.0,0.0,0.0,0.0,0.0
80232399,-0.053526666,-0.053048845,0.007862157,0.007404208,0.032589674,0.0,0.0,0.0,0.0,0.0,0.0,0.0,nan,nan,nan,nan,nan,nan,0.0,-0.14207077,0.0,0.0,nan,0.0,0.0,0.06427795,0.0,0.0,0.0,0.0,0.0,0.0,0.0,0.0
80432363,0.006313917,0.019988945,0.0341736,0.010912895,0.03465259,0.0,0.0,0.0,0.0,0.0,0.0,0.0,nan,nan,nan,nan,nan,nan,0.0,0.09388161,0.0,0.0,nan,0.0,0.0,0.091619045,0.0,0.0,0.0,0.0,0.0,0.0,0.0,0.0
80632397,0.003633391,-0.008628473,0.018452443,0.018091679,0.034902632,0.0,0.0,0.0,0.0,0.0,0.0,0.0,nan,nan,nan,nan,nan,nan,0.0,0.04695511,0.0,0.0,nan,0.0,0.0,0.11904243,0.0,0.0,0.0,0.0,0.0,0.0,0.0,0.0
80832396,0.003802997,-0.02800804,-0.040334735,0.002179861,0.024021834,0.0,0.0,0.0,0.0,0.0,0.0,0.0,nan,nan,nan,nan,nan,nan,0.0,0.13270569,0.0,0.0,nan,0.0,0.0,0.11718321,0.0,0.0,0.0,0.0,0.0,0.0,0.0,0.0
81032371,-0.02996794,0.0067369845,0.0024969876,-0.0010111332,0.024073333,0.0,0.0,0.0,0.0,0.0,0.0,0.0,nan,nan,nan,nan,nan,nan,0.0,0.11281395,0.0,0.0,nan,0.0,0.0,0.15817401,0.0,0.0,0.0,0.0,0.0,0.0,0.0,0.0
81232366,0.009072001,0.014794812,-0.03523514,0.00028842688,0.019912153,0.0,0.0,0.0,0.0,0.0,0.0,0.0,nan,nan,nan,nan,nan,nan,0.0,0.23963547,0.0,0.0,nan,0.0,0.0,0.14186582,0.0,0.0,0.0,0.0,0.0,0.0,0.0,0.0
81432362,-0.04281855,-0.030300528,-0.01877603,-0.014480293,0.008098364,0.0,0.0,0.0,0.0,0.0,0.0,0.0,nan,nan,nan,nan,nan,nan,0.0,0.15483093,0.0,0.0,nan,0.0,0.0,0.1839115,0.0,0.0,0.0,0.0,0.0,0.0,0.0,0.0
81632369,0.046289686,0.0050734784,-0.0071963705,-0.009660304,0.010272592,0.0,0.0,0.0,0.0,0.0,0.0,0.0,nan,nan,nan,nan,nan,nan,0.0,0.09541321,0.0,0.0,nan,0.0,0.0,0.16446641,0.0,0.0,0.0,0.0,0.0,0.0,0.0,0.0
81832381,-0.02188925,-0.031196797,-0.032579552,-0.0275231,0.00031113625,0.0,0.0,0.0,0.0,0.0,0.0,0.0,nan,nan,nan,nan,nan,nan,0.0,0.1403389,0.0,0.0,nan,0.0,0.0,0.1766667,0.0,0.0,0.0,0.0,0.0,0.0,0.0,0.0
83232396,-0.031894412,0.019596491,-0.012770514,-0.044724643,-0.021122456,0.0,0.0,0.0,0.0,0.0,0.0,0.0,nan,nan,nan,nan,nan,nan,0.0,0.5664654,0.0,0.0,nan,0.0,0.0,0.30614182,0.0,0.0,0.0,0.0,0.0,0.0,0.0,0.0
84232369,0.03220336,0.022263417,0.05103358,-0.02428788,-0.010823876,0.0,0.0,0.0,0.0,0.0,0.0,0.0,nan,nan,nan,nan,nan,nan,0.0,-0.35936737,0.0,0.0,nan,0.0,0.0,0.33516708,0.0,0.0,0.0,0.0,0.0,0.0,0.0,0.0
84432400,0.032955125,0.0052617984,-0.022894902,-0.015462875,-0.010711551,0.0,0.0,0.0,0.0,0.0,0.0,0.0,nan,nan,nan,nan,nan,nan,0.0,0.1285572,0.0,0.0,nan,0.0,0.0,0.3373593,0.0,0.0,0.0,0.0,0.0,0.0,0.0,0.0
84632396,-0.010238888,0.018408153,-0.060814947,-0.019497693,-0.002443999,0.0,0.0,0.0,0.0,0.0,0.0,0.0,nan,nan,nan,nan,nan,nan,0.0,-0.24572945,0.0,0.0,nan,0.0,0.0,0.3417422,0.0,0.0,0.0,0.0,0.0,0.0,0.0,0.0
84832356,0.01148098,0.012475549,0.0076299645,-0.017862678,-0.0036156774,0.0,0.0,0.0,0.0,0.0,0.0,0.0,nan,nan,nan,nan,nan,nan,0.0,0.05171776,0.0,0.0,nan,0.0,0.0,0.32310998,0.0,0.0,0.0,0.0,0.0,0.0,0.0,0.0
85032401,0.002718801,0.0025642903,-0.032306932,-0.018442154,0.0034477115,0.0,0.0,0.0,0.0,0.0,0.0,0.0,nan,nan,nan,nan,nan,nan,0.0,0.36977005,0.0,0.0,nan,0.0,0.0,0.30764028,0.0,0.0,0.0,0.0,0.0,0.0,0.0,0.0
85232358,-0.033317596,0.014935615,-0.015443011,-0.018016338,0.0031680465,0.0,0.0,0.0,0.0,0.0,0.0,0.0,nan,nan,nan,nan,nan,nan,0.0,0.065258026,0.0,0.0,nan,0.0,0.0,0.30887076,0.0,0.0,0.0,0.0,0.0,0.0,0.0,0.0
85422412,-0.008039074,0.02640901,-0.046038568,-0.023475766,0.00904721,0.0,0.0,0.0,0.0,0.0,0.0,0.0,nan,nan,nan,nan,nan,nan,0.0,0.06901169,0.0,0.0,nan,0.0,0.0,0.3097964,0.0,0.0,0.0,0.0,0.0,0.0,0.0,0.0
85632409,-0.017745454,-0.004642303,-0.018732479,-0.02113384,0.00557974,0.0,0.0,0.0,0.0,0.0,0.0,0.0,nan,nan,nan,nan,nan,nan,0.0,-0.08193207,0.0,0.0,nan,0.0,0.0,0.30560103,0.0,0.0,0.0,0.0,0.0,0.0,0.0,0.0
85832468,0.017344989,0.022794837,0.05494933,-0.0171417,0.012773603,0.0,0.0,0.0,0.0,0.0,0.0,0.0,nan,nan,nan,nan,nan,nan,0.0,0.40387726,0.0,0.0,nan,0.0,0.0,0.29383004,0.0,0.0,0.0,0.0,0.0,0.0,0.0,0.0
86022347,0.0018029591,-0.0074913427,-0.025254715,-0.017443955,0.008156896,0.0,0.0,0.0,0.0,0.0,0.0,0.0,nan,nan,nan,nan,nan,nan,0.0,-0.0017852783,0.0,0.0,nan,0.0,0.0,0.29806647,0.0,0.0,0.0,0.0,0.0,0.0,0.0,0.0
86232357,0.03618439,0.0029752068,0.03804852,-0.015863836,0.000531435,0.0,0.0,0.0,0.0,0.0,0.0,0.0,nan,nan,nan,nan,nan,nan,0.0,-0.075777054,0.0,0.0,nan,0.0,0.0,0.28929904,0.0,0.0,0.0,0.0,0.0,0.0,0.0,0.0
86432430,-0.0113012865,-0.0021167842,0.08580314,-0.018715024,0.007234454,0.0,0.0,0.0,0.0,0.0,0.0,0.0,nan,nan,nan,nan,nan,nan,0.0,0.3215866,0.0,0.0,nan,0.0,0.0,0.28142864,0.0,0.0,0.0,0.0,0.0,0.0,0.0,0.0
86632399,-0.012722062,0.010585205,-0.061066568,-0.026610315,0.006799996,0.0,0.0,0.0,0.0,0.0,0.0,0.0,nan,nan,nan,nan,nan,nan,0.0,0.11368942,0.0,0.0,nan,0.0,0.0,0.269387,0.0,0.0,0.0,0.0,0.0,0.0,0.0,0.0
86832396,-0.014123481,-0.02589559,-0.006205105,-0.02218324,0.0046062768,0.0,0.0,0.0,0.0,0.0,0.0,0.0,nan,nan,nan,nan,nan,nan,0.0,-0.10889816,0.0,0.0,nan,0.0,0.0,0.2706018,0.0,0.0,0.0,0.0,0.0,0.0,0.0,0.0
87022351,0.006753348,-0.029056083,-0.051444,-0.025932968,-0.006353855,0.0,0.0,0.0,0.0,0.0,0.0,0.0,nan,nan,nan,nan,nan,nan,0.0,-0.19570541,0.0,0.0,nan,0.0,0.0,0.26626554,0.0,0.0,0.0,0.0,0.0,0.0,0.0,0.0
87232400,-0.24953717,0.031050533,-0.14066653,-0.05863288,-0.008788556,0.0,0.0,0.0,0.0,0.0,0.0,0.0,nan,nan,nan,nan,nan,nan,0.0,0.27827835,0.0,0.0,nan,0.0,0.0,0.26093918,0.0,0.0,0.0,0.0,0.0,0.0,0.0,0.0
87432399,-0.28515506,-0.077959895,-0.100711145,-0.09294026,-0.020529345,0.0,0.0,0.0,0.0,0.0,0.0,0.0,nan,nan,nan,nan,nan,nan,0.0,-0.1742096,0.0,0.0,nan,0.0,0.0,0.27436522,0.0,0.0,0.0,0.0,0.0,0.0,0.0,0.0
87632414,-0.19981217,-0.061863184,0.04086349,-0.097519934,-0.015387317,0.0,0.0,0.0,0.0,0.0,0.0,0.0,nan,nan,nan,nan,nan,nan,0.0,-0.15801811,0.0,0.0,nan,0.0,0.0,0.2371504,0.0,0.0,0.0,0.0,0.0,0.0,0.0,0.0
87822391,-0.13358688,0.022764325,0.16846088,-0.09019351,-0.01634702,0.0,0.0,0.0,0.0,0.0,0.0,0.0,nan,nan,nan,nan,nan,nan,0.0,0.11467552,0.0,0.0,nan,0.0,0.0,-0.027416617,0.0,0.0,0.0,0.0,0.0,0.0,0.0,0.0
88032397,-0.20764446,-0.08508611,0.041353643,-0.09980607,-0.025229216,0.0,0.0,0.0,0.0,0.0,0.0,0.0,nan,nan,nan,nan,nan,nan,0.0,-0.22403908,0.0,0.0,nan,0.0,0.0,-0.0125927925,0.0,0.0,0.0,0.0,0.0,0.0,0.0,0.0
88232399,-0.22365952,-0.10652423,-0.36761045,-0.10729241,-0.021634936,0.0,0.0,0.0,0.0,0.0,0.0,0.0,nan,nan,nan,nan,nan,nan,0.0,0.12149811,0.0,0.0,nan,0.0,0.0,0.0003543198,0.0,0.0,0.0,0.0,0.0,0.0,-0.031445462,0.0
88432402,0.051047325,-0.06901884,0.4665066,-0.083969116,-0.021510005,0.0,0.0,0.0,0.0,0.0,0.0,0.0,nan,nan,nan,nan,nan,nan,0.0,0.07051468,0.0,0.0,nan,0.0,0.0,0.0030426085,0.0,0.0,0.0,0.0,0.0,0.0,-0.04304054,0.0
88622351,-0.2034235,-0.044759274,-0.26000324,-0.120803356,-0.022673607,0.0,0.0,0.0,0.0,0.0,0.0,0.0,nan,nan,nan,nan,nan,nan,0.0,-0.118284225,0.0,0.0,nan,0.0,0.0,0.024038851,0.0,0.0,0.0,0.0,0.0,0.0,-0.068509415,0.0
88832397,0.26165295,-0.057993412,0.6807967,0.021306992,-0.003143549,0.0,0.0,0.0,0.0,0.0,0.0,0.0,nan,nan,nan,nan,nan,nan,0.0,0.389822,0.0,0.0,nan,0.0,0.0,0.061281413,0.0,0.0,0.0,0.0,0.0,0.0,-0.08625232,0.0
89032396,-0.1373148,-0.10712528,-0.22462052,-0.015130997,-0.016524315,0.0,0.0,0.0,0.0,0.0,0.0,0.0,nan,nan,nan,nan,nan,nan,0.0,-0.18322945,0.0,0.0,nan,0.0,0.0,0.11203647,0.0,0.0,0.0,0.0,0.0,0.9738693,-0.09588238,0.0
89232386,0.09346962,-0.04317999,0.21341911,-0.004303932,-0.009565353,0.0,0.0,0.0,0.0,0.0,0.0,0.0,nan,nan,nan,nan,nan,nan,0.0,0.18208122,0.0,0.0,nan,0.0,0.0,0.16566217,0.0,0.0,0.0,0.0,0.0,0.56504345,-0.11053703,0.0
89432359,0.1197176,0.032920837,0.23269969,-0.0097465515,-0.0037264824,0.0,0.0,0.0,0.0,0.0,0.0,0.0,nan,nan,nan,nan,nan,nan,0.0,0.08264732,0.0,0.0,nan,0.0,0.0,0.18317679,0.0,0.0,0.0,0.0,0.0,0.5464659,-0.11926011,0.0
89632358,0.14499187,0.13695383,0.5924752,-0.010900497,-0.0064086914,0.0,0.0,0.0,0.0,0.0,0.0,0.0,nan,nan,nan,nan,nan,nan,0.0,0.24684525,0.0,0.0,nan,0.0,0.0,0.19299176,0.0,0.0,0.0,0.0,0.0,0.22991467,-0.11141071,0.0
89832361,0.33228207,0.53039646,0.88458204,0.014966965,0.026600838,0.0,0.0,0.0,0.0,0.0,0.0,0.0,nan,nan,nan,nan,nan,nan,0.0,0.12281227,0.0,0.0,nan,0.0,0.0,0.1866554,0.0,0.0,0.0,0.0,0.0,0.30431366,-0.058239367,0.0
90032361,0.061089516,0.11508751,0.6268945,-0.14292336,-0.072805405,0.0,0.0,0.0,0.0,0.0,0.0,0.0,nan,nan,nan,nan,nan,nan,0.0,0.35582733,0.0,0.0,nan,0.0,0.0,0.1805835,-0.067676485,0.07543248,-0.048638165,0.0,0.0,1.1836281,-0.02213597,0.0
90232381,-0.07324982,0.08593178,0.14092779,-0.020685196,0.018363953,0.0,0.0,0.0,0.0,0.0,0.0,0.0,nan,nan,nan,nan,nan,nan,0.0,0.41266632,0.0,0.0,nan,0.0,0.0,0.1805835,-0.041175604,0.065093964,-0.06671888,0.0,0.0,1.4771528,0.0043289056,0.0
90432391,-0.062208176,0.07476044,-0.0122766495,0.10051727,0.10686588,0.0,0.0,0.0,0.0,0.0,0.0,0.0,nan,nan,nan,nan,nan,nan,0.0,0.7831383,0.0,0.0,nan,0.0,0.0,0.1805835,0.002327919,0.08139095,-0.08616096,0.0,0.0,1.2747736,0.07180245,0.0
90632355,-0.1006546,0.13026428,0.12804413,-0.065029144,0.022720337,0.0,0.0,0.0,0.0,0.0,0.0,0.0,nan,nan,nan,nan,nan,nan,0.0,0.57733154,0.0,0.0,nan,0.0,0.0,0.1805835,-0.009306908,0.0823431,-0.08999419,0.0,0.0,0.9698591,0.10962827,0.0
90832382,-0.093566895,0.027018547,-0.024823189,0.08087158,0.10138321,0.0,0.0,0.0,0.0,0.0,0.0,0.0,nan,nan,nan,nan,nan,nan,0.0,0.75639915,0.0,0.0,nan,0.0,0.0,0.1805835,0.02350986,0.07327154,-0.08883333,0.0,0.0,0.8948908,0.14254759,0.0
91032352,-0.072701454,0.012477398,-0.15948033,-0.07824707,0.014663696,0.0,0.0,0.0,0.0,0.0,0.0,0.0,nan,nan,nan,nan,nan,nan,0.0,1.018898,0.0,0.0,nan,0.0,0.0,0.1805835,0.028109431,0.056087434,-0.09898496,0.0,0.0,0.25230312,0.16669668,0.0
91232402,-0.14043427,0.10906553,-0.06355977,-0.079841614,0.027734756,0.0,0.0,0.0,0.0,0.0,0.0,0.0,nan,nan,nan,nan,nan,nan,0.0,1.1516876,0.0,0.0,nan,0.0,0.0,0.1805835,0.026723027,0.042639673,-0.09150869,0.0,0.0,0.6752186,0.17818469,0.0
91422394,-0.20102501,0.02452135,-0.18257165,-0.09180069,0.020488739,0.0,0.0,0.0,0.0,0.0,0.0,0.0,nan,nan,nan,nan,nan,nan,0.0,0.8821068,0.0,0.0,nan,0.0,0.0,0.1805835,0.041017175,0.059572637,-0.09840107,0.0,0.0,0.7871771,0.17743869,0.0
91632412,-0.1592617,0.034739494,-0.15190315,-0.09139633,0.018217087,0.0,0.0,0.0,0.0,0.0,0.0,0.0,nan,nan,nan,nan,nan,nan,0.0,1.3410511,0.0,0.0,nan,0.0,0.0,0.1805835,-0.013605237,0.07487059,-0.09357625,0.0,0.0,0.5832691,0.16888829,0.0
91832400,-0.103033066,0.0096030235,-0.2229895,-0.09192276,0.010189056,0.0,0.0,0.0,0.0,0.0,0.0,0.0,nan,nan,nan,nan,nan,nan,0.0,1.4659805,0.0,0.0,nan,0.0,0.0,0.1805835,-0.077536106,0.07295993,-0.08152467,0.0,0.0,0.015471458,0.16376875,0.0
92032352,-0.26685143,-0.012280703,0.067266226,-0.3079834,-0.029132843,0.0,0.0,0.0,0.0,0.0,0.0,0.0,nan,nan,nan,nan,nan,nan,0.0,1.4374237,0.0,0.0,nan,0.0,0.0,0.1805835,-0.13179207,0.08028644,-0.046009243,0.0,0.0,0.13584995,0.16718343,0.0
92232354,0.12788963,0.10227156,-0.079432726,-0.050548553,0.017065048,0.0,0.0,0.0,0.0,0.0,0.0,0.0,nan,nan,nan,nan,nan,nan,0.0,1.480753,0.0,0.0,nan,0.0,0.0,0.1805835,-0.17657751,0.10635844,-0.043849647,0.0,0.0,0.037111282,0.17850243,0.0
92432354,0.034049988,-0.08001101,-0.08971524,-0.06486893,0.0040626526,0.0,0.0,0.0,0.0,0.0,0.0,0.0,nan,nan,nan,nan,nan,nan,0.0,2.110756,0.0,0.0,nan,0.0,0.0,0.1805835,-0.15641469,0.08646247,-0.07053089,0.0,0.0,-0.26867104,0.18250804,0.0
92632400,-0.19166565,-0.035175443,-0.10426068,-0.29514313,-0.009336472,0.0,0.0,0.0,0.0,0.0,0.0,0.0,nan,nan,nan,nan,nan,nan,0.0,1.646452,0.0,0.0,nan,0.0,0.0,0.1805835,-0.16848087,0.118514165,-0.062315762,0.0,0.0,0.14134407,0.17315385,0.0
92832374,-0.10056877,-0.07812011,-0.122540385,-0.2691269,-0.019922256,0.0,0.0,0.0,0.0,0.0,0.0,0.0,nan,nan,nan,nan,nan,nan,0.0,1.6843262,0.0,0.0,nan,0.0,0.0,0.1805835,-0.1630866,0.12281552,-0.043026745,0.0,0.0,0.3102703,0.11970292,0.0
93032399,0.004386902,-0.13741618,-0.12527528,-0.024253845,-0.034528732,0.0,0.0,0.0,0.0,0.0,0.0,0.0,nan,nan,nan,nan,nan,nan,0.0,1.1287804,0.0,0.0,nan,0.0,0.0,0.1805835,-0.17502701,0.11905244,-0.076125205,0.0,0.0,0.5620861,0.087804325,0.0
93232400,-0.016550064,0.024492264,0.15294415,-0.022064209,-0.020311356,0.0,0.0,0.0,0.0,0.0,0.0,0.0,nan,nan,nan,nan,nan,nan,0.0,1.1021271,0.0,0.0,nan,0.0,0.0,0.1805835,-0.1822015,0.1429064,-0.10372633,0.0,0.0,0.5544262,0.07916372,0.0
93432399,0.06578064,-0.08372736,-0.14536667,-0.017463684,-0.025182724,0.0,0.0,0.0,0.0,0.0,0.0,0.0,nan,nan,nan,nan,nan,nan,0.0,1.624855,0.0,0.0,nan,0.0,0.0,0.1805835,-0.19080639,0.18866809,-0.10591847,0.0,0.0,0.2682743,0.10179704,0.0
93632375,-0.038347244,-0.15040195,-0.07372308,-0.016212463,-0.033302307,0.0,0.0,0.0,0.0,0.0,0.0,0.0,nan,nan,nan,nan,nan,nan,0.0,1.5254803,0.0,0.0,nan,0.0,0.0,0.1805835,-0.21848375,0.16914047,-0.097851574,0.0,0.0,0.7529907,0.15965411,0.0
93832397,0.006593704,-0.17813933,-0.13951993,-0.022735596,-0.038318634,0.0,0.0,0.0,0.0,0.0,0.0,0.0,nan,nan,nan,nan,nan,nan,0.0,1.2764091,0.0,0.0,nan,0.0,0.0,0.1805835,-0.22955197,0.16399698,-0.09443182,0.0,0.0,0.7380142,0.1621124,0.0
94032361,-0.033903122,-0.12087059,-0.080491066,-0.011856079,-0.045389175,0.0,0.0,0.0,0.0,0.0,0.0,0.0,nan,nan,nan,nan,nan,nan,0.0,1.5741978,0.0,0.0,nan,0.0,0.0,0.1805835,-0.2109583,0.16008723,-0.07662463,0.0,0.0,0.033773422,0.1462739,0.0
94232371,0.057359695,-0.037677526,-0.005568981,-0.011154175,-0.051158905,0.0,0.0,0.0,0.0,0.0,0.0,0.0,nan,nan,nan,nan,nan,nan,0.0,0.81723785,0.0,0.0,nan,0.0,0.0,0.1805835,-0.20870334,0.14363533,-0.050777137,0.0,0.0,-0.15151215,0.11948738,0.0
94432402,0.1464901,0.01920414,0.07766771,0.0058670044,-0.042430878,0.0,0.0,0.0,0.0,0.0,0.0,0.0,nan,nan,nan,nan,nan,nan,0.0,0.9781189,0.0,0.0,nan,0.0,0.0,0.1805835,-0.2208237,0.14236939,-0.048748076,0.0,0.0,0.25328827,0.07511497,0.0
94632357,0.042203903,0.14875484,-0.13253689,0.009757996,-0.031822205,0.0,0.0,0.0,0.0,0.0,0.0,0.0,nan,nan,nan,nan,nan,nan,0.0,0.9297714,0.0,0.0,nan,0.0,0.0,0.1805835,-0.24604917,0.14676058,-0.04351467,0.0,0.0,0.75562286,0.06861147,0.0
94832354,-0.026166916,0.0125103,-0.1865077,0.010940552,-0.04832077,0.0,0.0,0.0,0.0,0.0,0.0,0.0,nan,nan,nan,nan,nan,nan,0.0,0.734581,0.0,0.0,nan,0.0,0.0,0.1805835,-0.26454902,0.14921325,-0.035553694,0.0,0.0,0.947731,0.055486638,0.0
95032399,-0.03722191,0.10115194,-0.37553263,0.013015747,-0.045202255,0.0,0.0,0.0,0.0,0.0,0.0,0.0,nan,nan,nan,nan,nan,nan,0.0,-0.047132492,0.0,0.0,nan,0.0,0.0,0.1805835,-0.25748426,0.18378533,-0.047448575,0.0,0.0,1.1359749,0.02219692,0.0
95232365,-0.073349,0.12554741,-0.4070201,0.027374268,-0.05163765,0.0,0.0,0.0,0.0,0.0,0.0,0.0,nan,nan,nan,nan,nan,nan,0.0,0.18141937,0.0,0.0,nan,0.0,0.0,0.1805835,-0.27002525,0.206271,-0.065286994,0.0,0.0,1.0861015,0.011432125,0.0
95432400,-0.06072235,0.09716368,-0.2942195,0.029937744,-0.056165695,0.0,0.0,0.0,0.0,0.0,0.0,0.0,nan,nan,nan,nan,nan,nan,0.0,-0.42038536,0.0,0.0,nan,0.0,0.0,0.1805835,-0.28308135,0.20081003,-0.07780743,0.0,0.0,1.0943851,0.005941965,0.0
95632351,-0.08965683,0.12435818,-0.4345851,0.022628784,-0.06430435,0.0,0.0,0.0,0.0,0.0,0.0,0.0,nan,nan,nan,nan,nan,nan,0.0,-0.74331474,0.0,0.0,nan,0.0,0.0,0.1805835,-0.27260643,0.21805322,-0.07879102,0.0,0.0,0.6744175,0.013480448,0.0
95832357,0.030883789,-0.030669928,-0.08267927,0.035369873,-0.09916115,0.0,0.0,0.0,0.0,0.0,0.0,0.0,nan,nan,nan,nan,nan,nan,0.0,-0.9022865,0.0,0.0,nan,0.0,0.0,0.1805835,-0.30542195,0.23929274,-0.14899415,0.0,0.0,0.7012501,0.07050169,0.0
96032396,0.016563416,-0.107149124,-0.029704094,0.047836304,-0.10025787,0.0,0.0,0.0,0.0,0.0,0.0,0.0,nan,nan,nan,nan,nan,nan,0.0,0.5020828,0.0,0.0,nan,0.0,0.0,0.1805835,-0.35186088,0.26438382,-0.1690523,0.0,0.0,0.9523697,0.13261402,0.0
96232356,-0.022094727,0.09252858,-0.3303194,0.051727295,-0.07694626,0.0,0.0,0.0,0.0,0.0,0.0,0.0,nan,nan,nan,nan,nan,nan,0.0,0.56801033,0.0,0.0,nan,0.0,0.0,0.1805835,-0.3774997,0.2742582,-0.22628838,0.0,0.0,0.89040565,0.18408507,0.0
96432372,-0.14903831,0.12918758,-0.4594736,0.02720642,-0.07404232,0.0,0.0,0.0,0.0,0.0,0.0,0.0,nan,nan,nan,nan,nan,nan,0.0,0.17776299,0.0,0.0,nan,0.0,0.0,0.1805835,-0.43387854,0.28665534,-0.2857416,0.0,0.0,1.3722105,0.16322266,0.0
96632359,-0.1307106,0.041291237,-0.3079555,0.028823853,-0.08857918,0.0,0.0,0.0,0.0,0.0,0.0,0.0,nan,nan,nan,nan,nan,nan,0.0,-0.15263367,0.0,0.0,nan,0.0,0.0,0.1805835,-0.36027366,0.29712588,-0.2381624,0.0,0.0,1.3909702,0.13359094,0.0
96822388,-0.11001587,-0.07488632,-0.17368865,0.03703308,-0.107390404,0.0,0.0,0.0,0.0,0.0,0.0,0.0,nan,nan,nan,nan,nan,nan,0.0,-0.5299511,0.0,0.0,nan,0.0,0.0,0.1805835,-0.32692027,0.2705083,-0.18877283,0.0,0.0,0.8975601,0.12270505,0.0
97022426,-0.055933,-0.03132224,-0.12047458,0.04916382,-0.11098671,0.0,0.0,0.0,0.0,0.0,0.0,0.0,nan,nan,nan,nan,nan,nan,0.0,-0.1631298,0.0,0.0,nan,0.0,0.0,0.1805835,-0.3029186,0.26550496,-0.21447733,0.0,0.0,0.27307892,0.12710363,0.0
97222347,-0.014549255,0.00038456917,-0.114230156,0.06123352,-0.12343693,0.0,0.0,0.0,0.0,0.0,0.0,0.0,nan,nan,nan,nan,nan,nan,0.0,0.1487999,0.0,0.0,nan,0.0,0.0,0.1805835,-0.28643245,0.24142832,-0.18177944,0.0,0.0,-0.3488865,0.15292151,0.0
97432397,-0.009002686,-4.005432e-05,0.07538271,0.06739807,-0.114006996,0.0,0.0,0.0,0.0,0.0,0.0,0.0,nan,nan,nan,nan,nan,nan,0.0,0.16664696,0.0,0.0,nan,0.0,0.0,0.1805835,-0.28838527,0.23978075,-0.14644432,0.0,0.0,-0.022817612,0.1617695,0.0
97632356,0.07721329,0.05161774,0.02791357,0.06602478,-0.10072994,0.0,0.0,0.0,0.0,0.0,0.0,0.0,nan,nan,nan,nan,nan,nan,0.0,-0.37989998,0.0,0.0,nan,0.0,0.0,0.1805835,-0.2795177,0.24159677,-0.13183618,0.0,0.0,-0.071588516,0.17248073,0.0
97832384,0.077423096,0.005350828,0.13925648,-0.14013672,-0.09465027,0.0,0.0,0.0,0.0,0.0,0.0,0.0,nan,nan,nan,nan,nan,nan,0.0,-0.3403015,0.0,0.0,nan,0.0,0.0,0.1805835,-0.3137918,0.22642511,-0.1545257,0.0,0.0,0.011362076,0.19108544,0.0
98032360,0.05454254,0.08814633,0.0032887459,0.091674805,-0.09491444,0.0,0.0,0.0,0.0,0.0,0.0,0.0,nan,nan,nan,nan,nan,nan,0.0,0.32198715,0.0,0.0,nan,0.0,0.0,0.1805835,-0.30854338,0.24232998,-0.15430987,0.0,0.0,0.7185173,0.2406217,0.0
98232365,0.0073070526,0.16559806,-0.043492317,0.067474365,-0.07993698,0.0,0.0,0.0,0.0,0.0,0.0,0.0,nan,nan,nan,nan,nan,nan,0.0,-0.05164337,0.0,0.0,nan,0.0,0.0,0.1805835,-0.32127702,0.23712578,-0.13753223,0.0,0.0,0.853385,0.25388384,0.0
98432408,-0.01404953,0.104943335,-0.13286638,0.0687561,-0.07360554,0.0,0.0,0.0,0.0,0.0,0.0,0.0,nan,nan,nan,nan,nan,nan,0.0,0.07012558,0.0,0.0,nan,0.0,0.0,0.1805835,-0.3215229,0.23112847,-0.13730961,0.0,0.0,0.58085823,0.25376153,0.0
98622367,0.0057315826,0.12636107,-0.03570795,0.058929443,-0.06519127,0.0,0.0,0.0,0.0,0.0,0.0,0.0,nan,nan,nan,nan,nan,nan,0.0,-0.1802597,0.0,0.0,nan,0.0,0.0,0.1805835,-0.30330026,0.20657356,-0.12615407,0.0,0.0,0.28153992,0.2426622,0.0
98832420,-0.041208267,0.15749192,-0.01190567,0.061264038,-0.059438705,0.0,0.0,0.0,0.0,0.0,0.0,0.0,nan,nan,nan,nan,nan,nan,0.0,-0.54862213,0.0,0.0,nan,0.0,0.0,0.1805835,-0.28877085,0.2141583,-0.10714275,0.0,0.0,0.3685255,0.20632374,0.0
99032399,-0.027986526,0.19845223,-0.05081129,-0.14611816,-0.041638374,0.0,0.0,0.0,0.0,0.0,0.0,0.0,nan,nan,nan,nan,nan,nan,0.0,-0.90893555,0.0,0.0,nan,0.0,0.0,0.1805835,-0.29416126,0.20208922,-0.10012758,0.0,0.0,0.33323383,0.1930663,0.0
99232361,-0.05706787,0.16547805,0.06280756,-0.13893127,-0.036320686,0.0,0.0,0.0,0.0,0.0,0.0,0.0,nan,nan,nan,nan,nan,nan,0.0,-0.70116043,0.0,0.0,nan,0.0,0.0,0.1805835,-0.29724222,0.21764986,-0.11957139,0.0,0.0,-0.099435806,0.18692611,0.0
99432396,-0.034053802,0.14329982,0.04363966,0.07649231,-0.043437004,0.0,0.0,0.0,0.0,0.0,0.0,0.0,nan,nan,nan,nan,nan,nan,0.0,-0.36203384,0.0,0.0,nan,0.0,0.0,0.1805835,-0.31943637,0.21112905,-0.09669626,0.0,0.0,0.05853653,0.20511398,0.0
99632399,0.014011383,0.06799215,0.103279114,-0.11273193,-0.03619671,0.0,0.0,0.0,0.0,0.0,0.0,0.0,nan,nan,nan,nan,nan,nan,0.0,-0.0948143,0.0,0.0,nan,0.0,0.0,0.1805835,-0.32198608,0.22620253,-0.10669875,0.0,0.0,-0.4530077,0.22235228,0.0
99832397,0.08608627,0.097731054,0.11552572,-0.09399414,-0.028040886,0.0,0.0,0.0,0.0,0.0,0.0,0.0,nan,nan,nan,nan,nan,nan,0.0,0.2266922,0.0,0.0,nan,0.0,0.0,0.1805835,-0.34212184,0.23604219,-0.11934596,0.0,0.0,-0.2274971,0.24132536,0.0
100032402,-0.06456566,0.18490618,0.016674995,-0.08805847,-0.023946762,0.0,0.0,0.0,0.0,0.0,0.0,0.0,nan,nan,nan,nan,nan,nan,0.0,-0.052482605,0.0,0.0,nan,0.0,0.0,0.1805835,-0.3358912,0.22210532,-0.121693134,0.0,0.0,0.09548855,0.2515058,0.0
100232397,-0.12564468,0.14657569,-0.024076939,-0.09059143,-0.008385658,0.0,0.0,0.0,0.0,0.0,0.0,0.0,nan,nan,nan,nan,nan,nan,0.0,-0.66508484,0.0,0.0,nan,0.0,0.0,0.1805835,-0.3413694,0.22713424,-0.13045388,0.0,0.0,0.21330261,0.2345528,0.0
100432396,-0.20663643,0.15150249,-0.21693611,-0.10090637,-0.014678001,0.0,0.0,0.0,0.0,0.0,0.0,0.0,nan,nan,nan,nan,nan,nan,0.0,-0.8738098,0.0,0.0,nan,0.0,0.0,0.1805835,-0.33623582,0.22800818,-0.16276741,0.0,0.0,0.08243942,0.20698325,0.0
100632383,-0.20528984,0.088819265,-0.07908344,-0.10281372,-0.021450996,0.0,0.0,0.0,0.0,0.0,0.0,0.0,nan,nan,nan,nan,nan,nan,0.0,-1.0600777,0.0,0.0,nan,0.0,0.0,0.1805835,-0.33143383,0.21522065,-0.14678717,0.0,0.0,-0.24064445,0.1814877,0.0
100822355,-0.08309555,0.08236754,0.11111593,-0.09156799,-0.021968842,0.0,0.0,0.0,0.0,0.0,0.0,0.0,nan,nan,nan,nan,nan,nan,0.0,-1.0534172,0.0,0.0,nan,0.0,0.0,0.1805835,-0.31465828,0.22881359,-0.111915946,0.0,0.0,-0.34030628,0.1693651,0.0
101032398,-0.048549652,0.08808792,0.27365065,-0.076919556,-0.024659157,0.0,0.0,0.0,0.0,0.0,0.0,0.0,nan,nan,nan,nan,nan,nan,0.0,-0.88436127,0.0,0.0,nan,0.0,0.0,0.1805835,-0.32165933,0.22732173,-0.11844587,0.0,0.0,-0.75241756,0.1846494,0.0
101232412,-0.08854103,0.04461074,0.19777822,0.10217285,-0.02585888,0.0,0.0,0.0,0.0,0.0,0.0,0.0,nan,nan,nan,nan,nan,nan,0.0,-0.4221573,0.0,0.0,nan,0.0,0.0,0.1805835,-0.3634767,0.24556114,-0.13790983,0.0,0.0,0.05453682,0.20743208,0.0
101432391,-0.24621391,0.18739474,-0.1701088,0.067596436,-0.021048069,0.0,0.0,0.0,0.0,0.0,0.0,0.0,nan,nan,nan,nan,nan,nan,0.0,-0.03580475,0.0,0.0,nan,0.0,0.0,0.1805835,-0.34823406,0.26967832,-0.16784775,0.0,0.0,-0.35688782,0.22495225,0.0
101632399,-0.15668678,-0.0141227245,0.09448576,-0.11720276,-0.02679348,0.0,0.0,0.0,0.0,0.0,0.0,0.0,nan,nan,nan,nan,nan,nan,0.0,-0.7078934,0.0,0.0,nan,0.0,0.0,0.1805835,-0.34464067,0.26190755,-0.16840273,0.0,0.0,-0.9641266,0.20961504,0.0
101832396,-0.17674065,0.018307686,0.110601425,0.05354309,-0.06077051,0.0,0.0,0.0,0.0,0.0,0.0,0.0,nan,nan,nan,nan,nan,nan,0.0,-0.2728157,0.0,0.0,nan,0.0,0.0,0.1805835,-0.35219198,0.2418508,-0.17302352,0.0,0.0,-0.6065731,0.16287498,0.0
102032353,-0.22613144,0.054123998,-0.020454407,0.034057617,-0.061573505,0.0,0.0,0.0,0.0,0.0,0.0,0.0,nan,nan,nan,nan,nan,nan,0.0,-1.175869,0.0,0.0,nan,0.0,0.0,0.1805835,-0.34140223,0.23622216,-0.17735434,0.0,0.0,-0.08516693,0.14578824,0.0
102232396,-0.23845291,0.039609313,0.14640665,0.008758545,-0.058776855,0.0,0.0,0.0,0.0,0.0,0.0,0.0,nan,nan,nan,nan,nan,nan,0.0,-0.8685036,0.0,0.0,nan,0.0,0.0,0.1805835,-0.33414072,0.2454825,-0.17521387,0.0,0.0,-0.080272675,0.13758224,0.0
102432361,-0.22470093,0.03275287,0.01862669,-0.0018615723,-0.06752968,0.0,0.0,0.0,0.0,0.0,0.0,0.0,nan,nan,nan,nan,nan,nan,0.0,-0.6423454,0.0,0.0,nan,0.0,0.0,0.1805835,-0.32502222,0.25157028,-0.164128,0.0,0.0,-0.50038433,0.13630612,0.0
102632399,-0.16983032,-0.01662755,0.10027027,-0.0011291504,-0.07515335,0.0,0.0,0.0,0.0,0.0,0.0,0.0,nan,nan,nan,nan,nan,nan,0.0,-0.5636101,0.0,0.0,nan,0.0,0.0,0.1805835,-0.32227826,0.2555202,-0.14133704,0.0,0.0,-0.7105856,0.14565401,0.0
102822391,-0.24440384,0.051425695,0.05738783,-0.017486572,-0.06917715,0.0,0.0,0.0,0.0,0.0,0.0,0.0,nan,nan,nan,nan,nan,nan,0.0,-0.44760513,0.0,0.0,nan,0.0,0.0,0.1805835,-0.31640548,0.23599039,-0.16685027,0.0,0.0,-0.57178783,0.14863315,0.0
103032396,-0.25552368,-0.017891645,0.13963795,-0.20223999,-0.05680847,0.0,0.0,0.0,0.0,0.0,0.0,0.0,nan,nan,nan,nan,nan,nan,0.0,-0.6391487,0.0,0.0,nan,0.0,0.0,0.1805835,-0.3417067,0.23182099,-0.181449,0.0,0.0,-0.3038292,0.14540282,0.0
103232403,-0.23958015,0.048259735,0.021420002,-0.012054443,-0.0819149,0.0,0.0,0.0,0.0,0.0,0.0,0.0,nan,nan,nan,nan,nan,nan,0.0,-1.0164757,0.0,0.0,nan,0.0,0.0,0.1805835,-0.33699596,0.23243576,-0.1717431,0.0,0.0,-0.13484287,0.14713629,0.0
103432357,-0.18438339,0.014716864,0.20715046,-0.19366455,-0.060812473,0.0,0.0,0.0,0.0,0.0,0.0,0.0,nan,nan,nan,nan,nan,nan,0.0,-0.46889877,0.0,0.0,nan,0.0,0.0,0.1805835,-0.3538038,0.23546907,-0.15819073,0.0,0.0,0.10680294,0.14777206,0.0
103632421,-0.20630455,0.005076885,0.15781689,-0.18255615,-0.065689325,0.0,0.0,0.0,0.0,0.0,0.0,0.0,nan,nan,nan,nan,nan,nan,0.0,-0.7587166,0.0,0.0,nan,0.0,0.0,0.1805835,-0.3509007,0.23346451,-0.15878457,0.0,0.0,0.7288952,0.14727044,0.0
103832396,-0.27038383,0.008282423,0.19397211,-0.18118286,-0.070141554,0.0,0.0,0.0,0.0,0.0,0.0,0.0,nan,nan,nan,nan,nan,nan,0.0,-1.084835,0.0,0.0,nan,0.0,0.0,0.1805835,-0.33450854,0.21619618,-0.12286496,0.0,0.0,0.40917873,0.1391739,0.0
104032356,-0.1290474,0.05314994,0.305552,-0.14959717,-0.067353964,0.0,0.0,0.0,0.0,0.0,0.0,0.0,nan,nan,nan,nan,nan,nan,0.0,-0.8088875,0.0,0.0,nan,0.0,0.0,0.1805835,-0.3365379,0.20427594,-0.11412412,0.0,0.0,0.041355133,0.12273823,0.0
104232353,-0.16730309,0.06367445,0.30590725,0.029846191,-0.107406974,0.0,0.0,0.0,0.0,0.0,0.0,0.0,nan,nan,nan,nan,nan,nan,0.0,-1.6849632,0.0,0.0,nan,0.0,0.0,0.1805835,-0.3172204,0.15268552,-0.0859853,0.0,0.0,0.27709103,0.12505952,0.0
104432396,-0.22340393,0.12652683,0.1890006,0.017944336,-0.09330249,0.0,0.0,0.0,0.0,0.0,0.0,0.0,nan,nan,nan,nan,nan,nan,0.0,-0.9574852,0.0,0.0,nan,0.0,0.0,0.1805835,-0.3229426,0.1362448,-0.064555824,0.0,0.0,0.2436285,0.12189866,0.0
104632376,-0.15847874,0.18578291,0.3023939,0.022888184,-0.087327674,0.0,0.0,0.0,0.0,0.0,0.0,0.0,nan,nan,nan,nan,nan,nan,0.0,-1.4975777,0.0,0.0,nan,0.0,0.0,0.1805835,-0.35093957,0.121958554,-0.051907003,0.0,0.0,0.56134415,0.11288781,0.0
104832396,-0.20666122,0.23414087,0.23559284,0.020355225,-0.07884467,0.0,0.0,0.0,0.0,0.0,0.0,0.0,nan,nan,nan,nan,nan,nan,0.0,-1.4067879,0.0,0.0,nan,0.0,0.0,0.1805835,-0.3674057,0.11803138,-0.045336068,0.0,0.0,1.4504566,0.10606177,0.0
105032400,-0.2943821,0.22178555,0.21156693,0.010803223,-0.071932316,0.0,0.0,0.0,0.0,0.0,0.0,0.0,nan,nan,nan,nan,nan,nan,0.0,-1.2567787,0.0,0.0,nan,0.0,0.0,0.1805835,-0.37368768,0.112020016,-0.043095887,0.0,0.0,1.8496857,0.11047873,0.0
105232402,-0.30798435,0.2213602,0.198946,0.008300781,-0.059768677,0.0,0.0,0.0,0.0,0.0,0.0,0.0,nan,nan,nan,nan,nan,nan,0.0,-1.3993568,0.0,0.0,nan,0.0,0.0,0.1805835,-0.3869614,0.10601503,-0.031582177,0.0,0.0,2.3830118,0.10830616,0.0
105422392,-0.249609,0.28956318,0.16523933,0.0067443848,-0.03240633,0.0,0.0,0.0,0.0,0.0,0.0,0.0,nan,nan,nan,nan,nan,nan,0.0,-0.9936409,0.0,0.0,nan,0.0,0.0,0.1805835,-0.40728265,0.07998425,-0.037205577,0.0,0.0,2.0635004,0.1062257,0.0
105632377,-0.30826283,0.29916668,0.18401098,-0.00289917,-0.014717102,0.0,0.0,0.0,0.0,0.0,0.0,0.0,nan,nan,nan,nan,nan,nan,0.0,-1.3326988,0.0,0.0,nan,0.0,0.0,0.1805835,-0.4141124,0.066735566,-0.03221315,0.0,0.0,2.3132849,0.07439879,0.0
107422413,-0.1519413,0.17432022,0.14756465,-0.035125732,-0.11967468,0.0,0.0,0.0,0.0,0.0,0.0,0.0,nan,nan,nan,nan,nan,nan,0.0,-0.73208237,0.0,0.0,nan,0.0,0.0,0.1805835,-0.45645168,0.09922442,-0.0209952,0.0,0.0,3.3348465,-0.049691062,0.0
107632462,-0.068129,0.19289207,0.16718829,-0.025146484,-0.10618591,0.0,0.0,0.0,0.0,0.0,0.0,0.0,nan,nan,nan,nan,nan,nan,0.0,-0.78193283,0.0,0.0,nan,0.0,0.0,0.1805835,-0.458758,0.09184086,-0.024765491,0.0,0.0,4.1951065,-0.074998066,0.0
107832365,-0.06744623,0.1457901,0.21604812,0.0029907227,-0.095516205,0.0,0.0,0.0,0.0,0.0,0.0,0.0,nan,nan,nan,nan,nan,nan,0.0,-0.48618698,0.0,0.0,nan,0.0,0.0,0.1805835,-0.4777059,0.10909271,-0.026866734,0.0,0.0,4.679471,-0.11666082,0.0
108032396,-0.036403656,0.23091125,0.2823515,0.01638794,-0.073143005,0.0,0.0,0.0,0.0,0.0,0.0,0.0,nan,nan,nan,nan,nan,nan,0.0,-0.98090744,0.0,0.0,nan,0.0,0.0,0.1805835,-0.47660643,0.113477916,-0.047044635,0.0,0.0,5.1920137,-0.13034944,0.0
108232352,0.09845829,0.083498,0.2514851,0.051696777,-0.07229614,0.0,0.0,0.0,0.0,0.0,0.0,0.0,nan,nan,nan,nan,nan,nan,0.0,-0.9260521,0.0,0.0,nan,0.0,0.0,0.1805835,-0.4705754,0.10008395,-0.045289397,0.0,0.0,5.6992645,-0.14102814,0.0
108432398,0.10586071,0.069280624,0.23680282,0.11331177,0.16885376,0.0,0.0,0.0,0.0,0.0,0.0,0.0,nan,nan,nan,nan,nan,nan,0.0,-0.7203331,0.0,0.0,nan,0.0,0.0,0.1805835,-0.48941335,0.11630812,-0.06632376,0.0,0.0,6.141199,-0.15746823,0.0
108632400,0.09535694,-0.0025844574,0.4133942,0.13330078,0.14722443,0.0,0.0,0.0,0.0,0.0,0.0,0.0,nan,nan,nan,nan,nan,nan,0.0,-0.82803726,0.0,0.0,nan,0.0,0.0,0.1805835,-0.48448908,0.12658243,-0.060529232,0.0,0.0,6.108597,-0.16592321,0.0
108832391,0.1002388,-0.01877594,0.33403063,0.13894653,0.1304779,0.0,0.0,0.0,0.0,0.0,0.0,0.0,nan,nan,nan,nan,nan,nan,0.0,-0.8070717,0.0,0.0,nan,0.0,0.0,0.1805835,-0.50599444,0.11331588,-0.06113684,0.0,0.0,5.8879356,-0.172699,0.0
109032400,0.08916855,-0.061037064,0.23913527,0.06576538,-0.10218811,0.0,0.0,0.0,0.0,0.0,0.0,0.0,nan,nan,nan,nan,nan,nan,0.0,-0.5731621,0.0,0.0,nan,0.0,0.0,0.1805835,-0.50193524,0.09974785,-0.062365294,0.0,0.0,6.434452,-0.1834529,0.0
109232446,0.026268005,-0.07237244,0.051027298,0.1602478,0.11766052,0.0,0.0,0.0,0.0,0.0,0.0,0.0,nan,nan,nan,nan,nan,nan,0.0,-0.38498306,0.0,0.0,nan,0.0,0.0,0.1805835,-0.49571908,0.11759186,-0.04763794,0.0,0.0,6.7550573,-0.23610401,0.0
109422347,0.07383156,-0.07270241,0.17052555,0.15750122,0.0925293,0.0,0.0,0.0,0.0,0.0,0.0,0.0,nan,nan,nan,nan,nan,nan,0.0,-0.60695267,0.0,0.0,nan,0.0,0.0,0.1805835,-0.49265286,0.12379412,-0.077379525,0.0,0.0,7.2978296,-0.2742279,0.0
109632396,0.0497818,-0.046064377,0.11412668,0.1390686,0.06600189,0.0,0.0,0.0,0.0,0.0,0.0,0.0,nan,nan,nan,nan,nan,nan,0.0,-0.58581924,0.0,0.0,nan,0.0,0.0,0.1805835,-0.5063025,0.14309968,-0.07518172,0.0,0.0,6.5766315,-0.3101862,0.0
109832396,0.19821262,-0.15176392,0.15225697,0.13845825,0.024642944,0.0,0.0,0.0,0.0,0.0,0.0,0.0,nan,nan,nan,nan,nan,nan,0.0,-0.4955635,0.0,0.0,nan,0.0,0.0,0.1805835,-0.50905097,0.16027066,-0.09575933,0.0,0.0,6.444126,-0.3435273,0.0
110032402,0.053343773,-0.09376907,0.12210369,0.11502075,0.015075684,0.0,0.0,0.0,0.0,0.0,0.0,0.0,nan,nan,nan,nan,nan,nan,0.0,-0.7221184,0.0,0.0,nan,0.0,0.0,0.1805835,-0.49282098,0.17507535,-0.11812717,0.0,0.0,6.744212,-0.3567439,0.0
110232399,0.026431084,-0.06368637,-0.04864931,0.00091552734,-0.22065735,0.0,0.0,0.0,0.0,0.0,0.0,0.0,nan,nan,nan,nan,nan,nan,0.0,-0.5259819,0.0,0.0,nan,0.0,0.0,0.1805835,-0.50474226,0.17545713,-0.09659946,0.0,0.0,6.960246,-0.33451295,0.0
110432359,-0.010346413,-0.00879097,-0.0006518364,0.09817505,0.031829834,0.0,0.0,0.0,0.0,0.0,0.0,0.0,nan,nan,nan,nan,nan,nan,0.0,-0.87283707,0.0,0.0,nan,0.0,0.0,0.1805835,-0.501598,0.18248375,-0.08228135,0.0,0.0,7.0649986,-0.3079952,0.0
110632375,-0.023405075,-0.07552147,0.12350559,0.08004761,-0.0010375977,0.0,0.0,0.0,0.0,0.0,0.0,0.0,nan,nan,nan,nan,nan,nan,0.0,-0.45803452,0.0,0.0,nan,0.0,0.0,0.1805835,-0.49682248,0.18872099,-0.088593185,0.0,0.0,6.759095,-0.29212806,0.0
110832376,0.08182049,-0.15781403,0.037564754,0.08529663,-0.029457092,0.0,0.0,0.0,0.0,0.0,0.0,0.0,nan,nan,nan,nan,nan,nan,0.0,-0.407238,0.0,0.0,nan,0.0,0.0,0.1805835,-0.4932882,0.17175353,-0.09255785,0.0,0.0,6.57172,-0.29194704,0.0
111032372,0.066615105,-0.15603828,0.03679371,0.08605957,-0.041397095,0.0,0.0,0.0,0.0,0.0,0.0,0.0,nan,nan,nan,nan,nan,nan,0.0,-0.60295486,0.0,0.0,nan,0.0,0.0,0.1805835,-0.4873502,0.16730626,-0.09725076,0.0,0.0,6.457506,-0.29702953,0.0
111232381,0.07982445,-0.17189598,0.19209385,0.07791138,-0.05909729,0.0,0.0,0.0,0.0,0.0,0.0,0.0,nan,nan,nan,nan,nan,nan,0.0,-0.42061234,0.0,0.0,nan,0.0,0.0,0.1805835,-0.47459877,0.16293125,-0.076189995,0.0,0.0,6.224745,-0.31392384,0.0
111432383,0.029332161,-0.20780373,0.119665146,0.0637207,-0.074157715,0.0,0.0,0.0,0.0,0.0,0.0,0.0,nan,nan,nan,nan,nan,nan,0.0,-0.3752632,0.0,0.0,nan,0.0,0.0,0.1805835,-0.4940604,0.16744745,-0.07385868,0.0,0.0,5.9797134,-0.36640725,0.0
111632366,0.18160439,-0.14424515,0.034152985,-0.0065307617,-0.33842468,0.0,0.0,0.0,0.0,0.0,0.0,0.0,nan,nan,nan,nan,nan,nan,0.0,-0.4656639,0.0,0.0,nan,0.0,0.0,0.1805835,-0.4963355,0.15050933,-0.02542913,0.0,0.0,5.8023357,-0.38561124,0.0
111832410,0.17962694,-0.18524742,0.18353248,0.07009888,-0.092926025,0.0,0.0,0.0,0.0,0.0,0.0,0.0,nan,nan,nan,nan,nan,nan,0.0,-0.31107712,0.0,0.0,nan,0.0,0.0,0.1805835,-0.48016864,0.15616924,-0.01608193,0.0,0.0,5.9654255,-0.39637682,0.0
112032355,0.183218,-0.1707077,0.20994282,0.007965088,-0.35003662,0.0,0.0,0.0,0.0,0.0,0.0,0.0,nan,nan,nan,nan,nan,nan,0.0,-0.29393387,0.0,0.0,nan,0.0,0.0,0.1805835,-0.50280863,0.14495717,-0.00824976,0.0,0.0,6.1484346,-0.3975802,0.0
112232400,0.21424007,-0.18032837,0.29360223,0.0262146,-0.34179688,0.0,0.0,0.0,0.0,0.0,0.0,0.0,nan,nan,nan,nan,nan,nan,0.0,-0.42481613,0.0,0.0,nan,0.0,0.0,0.1805835,-0.49618664,0.14116691,0.006081164,0.0,0.0,6.1383142,-0.38901922,0.0
112432410,0.24693966,-0.15947342,0.18447709,0.042144775,-0.32977295,0.0,0.0,0.0,0.0,0.0,0.0,0.0,nan,nan,nan,nan,nan,nan,0.0,-0.6590004,0.0,0.0,nan,0.0,0.0,0.1805835,-0.4966699,0.09875518,0.01705414,0.0,0.0,6.2164135,-0.38928568,0.0
112632399,0.16897345,0.05885887,0.15606594,0.037475586,-0.29063416,0.0,0.0,0.0,0.0,0.0,0.0,0.0,nan,nan,nan,nan,nan,nan,0.0,-0.37418747,0.0,0.0,nan,0.0,0.0,0.1805835,-0.4961013,0.08416805,0.026529372,0.0,0.0,6.3212156,-0.3964744,0.0
112832381,0.18672132,0.035842896,0.07002151,0.050628662,-0.2811432,0.0,0.0,0.0,0.0,0.0,0.0,0.0,nan,nan,nan,nan,nan,nan,0.0,-0.41152573,0.0,0.0,nan,0.0,0.0,0.1805835,-0.49568036,0.056667596,0.033901215,0.0,0.0,6.310379,-0.39959064,0.0
113032396,0.26360703,-0.031461716,-0.06800449,0.07192993,-0.27824402,0.0,0.0,0.0,0.0,0.0,0.0,0.0,nan,nan,nan,nan,nan,nan,0.0,-0.17080307,0.0,0.0,nan,0.0,0.0,0.1805835,-0.50634634,0.018688798,0.049203813,0.0,0.0,6.4228687,-0.3918261,0.0
113232396,0.25524426,0.029180527,-0.09052557,0.070617676,-0.2551117,0.0,0.0,0.0,0.0,0.0,0.0,0.0,nan,nan,nan,nan,nan,nan,0.0,0.020870209,0.0,0.0,nan,0.0,0.0,0.1805835,-0.5017965,-0.011871636,0.044887483,0.0,0.0,6.748165,-0.37746328,0.0
113432396,0.28112602,0.049135208,-0.150402,0.10668945,-0.25494385,0.0,0.0,0.0,0.0,0.0,0.0,0.0,nan,nan,nan,nan,nan,nan,0.0,-0.13894272,0.0,0.0,nan,0.0,0.0,0.1805835,-0.5026378,-0.04215461,0.03568405,0.0,0.0,6.9732914,-0.35556704,0.0
113632380,0.33315563,0.012771606,-0.12657268,0.15338135,-0.26515198,0.0,0.0,0.0,0.0,0.0,0.0,0.0,nan,nan,nan,nan,nan,nan,0.0,-0.16071701,0.0,0.0,nan,0.0,0.0,0.1805835,-0.49218076,-0.08292085,0.055039108,0.0,0.0,7.6955013,-0.32632303,0.0
113832382,0.37967587,0.15744781,-0.01460129,0.16983032,-0.24107361,0.0,0.0,0.0,0.0,0.0,0.0,0.0,nan,nan,nan,nan,nan,nan,0.0,-0.23702621,0.0,0.0,nan,0.0,0.0,0.1805835,-0.512706,-0.06774163,0.022533178,0.0,0.0,8.231911,-0.3040594,0.0
114032396,0.4434824,0.22010612,-0.060736,0.32247925,0.012634277,0.0,0.0,0.0,0.0,0.0,0.0,0.0,nan,nan,nan,nan,nan,nan,0.0,0.15520096,0.0,0.0,nan,0.0,0.0,0.1805835,-0.5062239,-0.08439469,0.049863756,0.0,0.0,8.346867,-0.2989099,0.0
114232381,0.3946333,0.08704758,-0.12287581,0.33813477,0.0021820068,0.0,0.0,0.0,0.0,0.0,0.0,0.0,nan,nan,nan,nan,nan,nan,0.0,0.09382248,0.0,0.0,nan,0.0,0.0,0.1805835,-0.48220575,-0.063345134,0.052447498,0.0,0.0,8.559969,-0.2876045,0.0
114432396,0.39396667,-0.015081406,0.039902747,0.33596802,-0.025939941,0.0,0.0,0.0,0.0,0.0,0.0,0.0,nan,nan,nan,nan,nan,nan,0.0,0.13784409,0.0,0.0,nan,0.0,0.0,0.1805835,-0.47405237,-0.08947742,0.04287237,0.0,0.0,8.812403,-0.25206825,0.0
114632362,0.24142838,0.041002274,-0.065734446,0.15689087,-0.25022888,0.0,0.0,0.0,0.0,0.0,0.0,0.0,nan,nan,nan,nan,nan,nan,0.0,-0.13541794,0.0,0.0,nan,0.0,0.0,0.1805835,-0.4552363,-0.07430923,0.059592366,0.0,0.0,9.1704445,-0.23836753,0.0
114832396,0.23583603,-0.048036575,0.0779012,0.15414429,-0.23434448,0.0,0.0,0.0,0.0,0.0,0.0,0.0,nan,nan,nan,nan,nan,nan,0.0,0.48265457,0.0,0.0,nan,0.0,0.0,0.1805835,-0.47912714,-0.0732331,0.035078406,0.0,0.0,9.439915,-0.22953962,0.0
115032389,0.19973946,0.07810593,0.111261725,0.13720703,-0.21784973,0.0,0.0,0.0,0.0,0.0,0.0,0.0,nan,nan,nan,nan,nan,nan,0.0,0.4425621,0.0,0.0,nan,0.0,0.0,0.1805835,0.073021576,-0.2901087,0.2618146,0.0,0.0,9.289408,-0.22383013,0.0
115232396,0.12112808,-0.09163284,0.1704247,0.120788574,-0.22373962,0.0,0.0,0.0,0.0,0.0,0.0,0.0,nan,nan,nan,nan,nan,nan,0.0,0.9544716,0.0,0.0,nan,0.0,0.0,0.1805835,0.14625072,-0.3232798,0.30710036,0.0,0.0,9.193022,-0.2245538,0.0
115432387,0.0017204285,-0.13360405,0.15301085,0.081207275,-0.21591187,0.0,0.0,0.0,0.0,0.0,0.0,0.0,nan,nan,nan,nan,nan,nan,0.0,0.48907852,0.0,0.0,nan,0.0,0.0,0.1805835,0.12211035,-0.31289923,0.29875654,0.0,0.0,9.329502,-0.22131492,0.0
115632386,-0.0172081,-0.09858322,0.013959885,0.061157227,-0.20448303,0.0,0.0,0.0,0.0,0.0,0.0,0.0,nan,nan,nan,nan,nan,nan,0.0,0.023799896,0.0,0.0,nan,0.0,0.0,0.1805835,0.13758796,-0.32596427,0.29066032,0.0,0.0,9.5210705,-0.20878457,0.0
115832401,0.038656235,-0.1161108,0.0102517605,0.051086426,-0.19895935,0.0,0.0,0.0,0.0,0.0,0.0,0.0,nan,nan,nan,nan,nan,nan,0.0,-0.07830429,0.0,0.0,nan,0.0,0.0,0.1805835,0.10538413,-0.30951267,0.2659834,0.0,0.0,9.79352,-0.19670628,0.0
116032408,-0.011518478,-0.092853546,-0.05105281,0.028442383,-0.19221497,0.0,0.0,0.0,0.0,0.0,0.0,0.0,nan,nan,nan,nan,nan,nan,0.0,0.06079483,0.0,0.0,nan,0.0,0.0,0.1805835,0.11557871,-0.32708806,0.27237093,0.0,0.0,9.901219,-0.18712114,0.0
116232364,0.07930374,-0.07001877,-0.06567907,0.030670166,-0.17086792,0.0,0.0,0.0,0.0,0.0,0.0,0.0,nan,nan,nan,nan,nan,nan,0.0,0.010784149,0.0,0.0,nan,0.0,0.0,0.1805835,0.10281816,-0.3351882,0.26911032,0.0,0.0,9.83977,-0.18679921,0.0
116432383,0.019554138,-0.1360035,-0.12550855,0.20425415,-0.050445557,0.0,0.0,0.0,0.0,0.0,0.0,0.0,nan,nan,nan,nan,nan,nan,0.0,-0.0858345,0.0,0.0,nan,0.0,0.0,0.1805835,0.10682484,-0.31690854,0.2747506,0.0,0.0,9.710263,-0.19086808,0.0
116632393,0.07447815,-0.15785027,-0.066081285,0.16976929,-0.047714233,0.0,0.0,0.0,0.0,0.0,0.0,0.0,nan,nan,nan,nan,nan,nan,0.0,-0.33797836,0.0,0.0,nan,0.0,0.0,0.1805835,0.08724492,-0.30881193,0.2649706,0.0,0.0,9.741473,-0.19503406,0.0
116832357,-0.002784729,-0.14132118,-0.11405492,0.14537048,-0.046035767,0.0,0.0,0.0,0.0,0.0,0.0,0.0,nan,nan,nan,nan,nan,nan,0.0,-0.47738266,0.0,0.0,nan,0.0,0.0,0.1805835,0.07259766,-0.32504082,0.24764794,0.0,0.0,9.772207,-0.20455505,0.0
117022398,0.05000305,-0.10348654,-0.15785837,0.110076904,-0.03463745,0.0,0.0,0.0,0.0,0.0,0.0,0.0,nan,nan,nan,nan,nan,nan,0.0,-0.6036415,0.0,0.0,nan,0.0,0.0,0.1805835,0.045255564,-0.2847416,0.22552606,0.0,0.0,9.9236765,-0.20182888,0.0
117232460,0.08889198,-0.103144646,-0.15626836,-0.10702515,-0.10745239,0.0,0.0,0.0,0.0,0.0,0.0,0.0,nan,nan,nan,nan,nan,nan,0.0,-0.969738,0.0,0.0,nan,0.0,0.0,0.1805835,-0.0450515,-0.24513388,0.20675886,0.0,0.0,10.369027,-0.19248903,0.0
117432399,0.1385727,-0.07446289,-0.1237576,-0.09553528,-0.09371948,0.0,0.0,0.0,0.0,0.0,0.0,0.0,nan,nan,nan,nan,nan,nan,0.0,-0.9089012,0.0,0.0,nan,0.0,0.0,0.1805835,-0.054729104,-0.25834888,0.2119891,0.0,0.0,10.324082,-0.16884731,0.0
117632396,0.12662697,-0.04045248,-0.14245129,-0.091293335,-0.07548523,0.0,0.0,0.0,0.0,0.0,0.0,0.0,nan,nan,nan,nan,nan,nan,0.0,-0.5731392,0.0,0.0,nan,0.0,0.0,0.1805835,-0.07000783,-0.25548062,0.20730698,0.0,0.0,10.391797,-0.15854344,0.0
117832386,0.11431122,-0.033592224,-0.15729904,-0.07244873,-0.05859375,0.0,0.0,0.0,0.0,0.0,0.0,0.0,nan,nan,nan,nan,nan,nan,0.0,-0.8809166,0.0,0.0,nan,0.0,0.0,0.1805835,-0.06258406,-0.2590569,0.19848278,0.0,0.0,10.281457,-0.1528937,0.0
119232392,0.10892677,-0.0136733055,-0.06111324,-0.060134888,0.02734375,0.0,0.0,0.0,0.0,0.0,0.0,0.0,nan,nan,nan,nan,nan,nan,0.0,-0.5360069,0.0,0.0,nan,0.0,0.0,0.1805835,-0.09208202,-0.2288399,0.19780421,0.0,0.0,9.76023,-0.08911084,0.0
119432396,0.10288429,0.03706646,-0.09091702,-0.044143677,0.041381836,0.0,0.0,0.0,0.0,0.0,0.0,0.0,nan,nan,nan,nan,nan,nan,0.0,-0.6480751,0.0,0.0,nan,0.0,0.0,0.1805835,-0.046781838,-0.24158534,0.21385857,0.0,0.0,9.9786,-0.08668682,0.0
119632390,0.072683334,0.05898857,-0.053119853,-0.023620605,0.04866028,0.0,0.0,0.0,0.0,0.0,0.0,0.0,nan,nan,nan,nan,nan,nan,0.0,-0.5803642,0.0,0.0,nan,0.0,0.0,0.1805835,-0.059226125,-0.23394331,0.21647397,0.0,0.0,10.27545,-0.08430208,0.0
119832359,0.08953667,-0.020787716,-0.15712574,0.1650238,0.121154785,0.0,0.0,0.0,0.0,0.0,0.0,0.0,nan,nan,nan,nan,nan,nan,0.0,-0.732563,0.0,0.0,nan,0.0,0.0,0.1805835,-0.0603763,-0.21675804,0.1976062,0.0,0.0,10.033069,-0.0841954,0.0
120032379,0.022111893,-0.043421745,-0.063381314,-0.028167725,0.05001831,0.0,0.0,0.0,0.0,0.0,0.0,0.0,nan,nan,nan,nan,nan,nan,0.0,-0.4230919,0.0,0.0,nan,0.0,0.0,0.1805835,-0.06737545,-0.2144023,0.20901877,0.0,0.0,10.192601,-0.08594183,0.0
120232399,0.0010662079,0.02033329,0.04357697,-0.029541016,0.06915283,0.0,0.0,0.0,0.0,0.0,0.0,0.0,nan,nan,nan,nan,nan,nan,0.0,-0.63355637,0.0,0.0,nan,0.0,0.0,0.1805835,-0.10796049,-0.21375649,0.18554372,0.0,0.0,10.221399,-0.09891004,0.0
120432400,-0.016771317,-0.026827812,0.01960677,-0.016159058,0.06939697,0.0,0.0,0.0,0.0,0.0,0.0,0.0,nan,nan,nan,nan,nan,nan,0.0,-0.36092758,0.0,0.0,nan,0.0,0.0,0.1805835,-0.1382555,-0.19665964,0.18224603,0.0,0.0,10.239411,-0.116639405,0.0
120632377,0.15229607,-0.023875713,0.038386464,0.18771362,0.1430664,0.0,0.0,0.0,0.0,0.0,0.0,0.0,nan,nan,nan,nan,nan,nan,0.0,-0.24349594,0.0,0.0,nan,0.0,0.0,0.1805835,-0.12648857,-0.20731439,0.18841314,0.0,0.0,10.4108305,-0.1434349,0.0
120832392,0.044008255,-0.00278759,0.009144142,0.16497803,0.14013672,0.0,0.0,0.0,0.0,0.0,0.0,0.0,nan,nan,nan,nan,nan,nan,0.0,-0.518383,0.0,0.0,nan,0.0,0.0,0.1805835,-0.16618773,-0.17851941,0.15956014,0.0,0.0,10.230924,-0.17384194,0.0
121032356,-0.039409637,-0.032266617,-0.1029914,0.13745117,0.12911987,0.0,0.0,0.0,0.0,0.0,0.0,0.0,nan,nan,nan,nan,nan,nan,0.0,-0.43587112,0.0,0.0,nan,0.0,0.0,0.1805835,-0.13865447,-0.19421217,0.18616855,0.0,0.0,10.031993,-0.22007757,0.0
121232396,0.014167786,-0.11248875,-0.07585278,0.123413086,0.11453247,0.0,0.0,0.0,0.0,0.0,0.0,0.0,nan,nan,nan,nan,nan,nan,0.0,-0.16566086,0.0,0.0,nan,0.0,0.0,0.1805835,-0.15145022,-0.1946989,0.18051803,0.0,0.0,9.802698,-0.22507168,0.0
121432379,-0.060613632,-0.07778072,-0.12467617,-0.09869385,0.03302002,0.0,0.0,0.0,0.0,0.0,0.0,0.0,nan,nan,nan,nan,nan,nan,0.0,0.11103439,0.0,0.0,nan,0.0,0.0,0.1805835,-0.1511218,-0.20762995,0.17080289,0.0,0.0,10.311262,-0.21650045,0.0
121632399,-0.07979393,-0.050630093,-0.075876355,0.10105896,0.10046387,0.0,0.0,0.0,0.0,0.0,0.0,0.0,nan,nan,nan,nan,nan,nan,0.0,-0.096241,0.0,0.0,nan,0.0,0.0,0.1805835,-0.12373838,-0.221421,0.19574249,0.0,0.0,10.075101,-0.16762644,0.0
121832399,-0.004426956,-0.08159113,-0.024524093,0.08706665,0.08416748,0.0,0.0,0.0,0.0,0.0,0.0,0.0,nan,nan,nan,nan,nan,nan,0.0,-0.22438431,0.0,0.0,nan,0.0,0.0,0.1805835,-0.108183086,-0.23745123,0.18773621,0.0,0.0,10.148291,-0.14754333,0.0
122032409,0.016868591,-0.11226797,0.15544367,-0.120666504,-0.006378174,0.0,0.0,0.0,0.0,0.0,0.0,0.0,nan,nan,nan,nan,nan,nan,0.0,0.11714554,0.0,0.0,nan,0.0,0.0,0.1805835,-0.103307724,-0.2540716,0.18508416,0.0,0.0,10.177381,-0.14024876,0.0
122232400,-0.037395477,-0.10320711,0.20250344,-0.12631226,-0.008392334,0.0,0.0,0.0,0.0,0.0,0.0,0.0,nan,nan,nan,nan,nan,nan,0.0,-0.2714882,0.0,0.0,nan,0.0,0.0,0.1805835,-0.13391197,-0.25525984,0.15446943,0.0,0.0,10.275179,-0.14864185,0.0
122432396,-0.067064285,-0.20125198,0.18675825,0.08228302,0.04058838,0.0,0.0,0.0,0.0,0.0,0.0,0.0,nan,nan,nan,nan,nan,nan,0.0,-0.01784134,0.0,0.0,nan,0.0,0.0,0.1805835,-0.15504614,-0.26690048,0.1575154,0.0,0.0,10.592498,-0.17480399,0.0
122632396,-0.06877899,-0.19842958,0.17743903,0.056396484,0.031829834,0.0,0.0,0.0,0.0,0.0,0.0,0.0,nan,nan,nan,nan,nan,nan,0.0,-0.2096138,0.0,0.0,nan,0.0,0.0,0.1805835,-0.14610341,-0.25798646,0.13700074,0.0,0.0,10.585943,-0.17261815,0.0
122832372,0.0051956177,-0.11681986,0.022091866,-0.1604538,-0.016448975,0.0,0.0,0.0,0.0,0.0,0.0,0.0,nan,nan,nan,nan,nan,nan,0.0,-0.3263054,0.0,0.0,nan,0.0,0.0,0.1805835,-0.15772644,-0.25919566,0.13839358,0.0,0.0,10.435815,-0.15952238,0.0
123032371,-0.081207275,-0.0672555,-0.082336545,-0.16796112,-0.020751953,0.0,0.0,0.0,0.0,0.0,0.0,0.0,nan,nan,nan,nan,nan,nan,0.0,-0.18323135,0.0,0.0,nan,0.0,0.0,0.1805835,-0.13354824,-0.27995542,0.15744904,0.0,0.0,10.249778,-0.13567325,0.0
123232396,0.06920624,-0.007684231,-0.051290274,-0.14510345,-0.012878418,0.0,0.0,0.0,0.0,0.0,0.0,0.0,nan,nan,nan,nan,nan,nan,0.0,-0.36637497,0.0,0.0,nan,0.0,0.0,0.1805835,-0.14567485,-0.29760438,0.15289208,0.0,0.0,10.652089,-0.07874151,0.0
123432358,-0.0061016083,-0.0902729,-0.01817298,0.054008484,0.01171875,0.0,0.0,0.0,0.0,0.0,0.0,0.0,nan,nan,nan,nan,nan,nan,0.0,-0.28767776,0.0,0.0,nan,0.0,0.0,0.1805835,-0.16732791,-0.29274493,0.1466091,0.0,0.0,10.843084,-0.05286673,0.0
123632356,-0.024812698,-0.17880774,-0.040642023,0.04122162,-0.0030822754,0.0,0.0,0.0,0.0,0.0,0.0,0.0,nan,nan,nan,nan,nan,nan,0.0,-0.38186264,0.0,0.0,nan,0.0,0.0,0.1805835,-0.15572089,-0.29925394,0.14571491,0.0,0.0,11.241222,-0.034030773,0.0
123832384,0.0055007935,-0.04483998,-0.29658115,0.033088684,-0.007385254,0.0,0.0,0.0,0.0,0.0,0.0,0.0,nan,nan,nan,nan,nan,nan,0.0,-0.7801094,0.0,0.0,nan,0.0,0.0,0.1805835,-0.13296098,-0.30695903,0.13078073,0.0,0.0,10.995612,-0.02142015,0.0
124032396,0.05202675,-0.10469514,-0.03620243,-0.16925812,-0.04849243,0.0,0.0,0.0,0.0,0.0,0.0,0.0,nan,nan,nan,nan,nan,nan,0.0,-0.40808487,0.0,0.0,nan,0.0,0.0,0.1805835,-0.15186843,-0.3276892,0.13106143,0.0,0.0,11.6592045,-0.017667267,0.0
124232385,0.052524567,-0.09364781,-0.053553462,0.034461975,-0.050720215,0.0,0.0,0.0,0.0,0.0,0.0,0.0,nan,nan,nan,nan,nan,nan,0.0,-0.20651627,0.0,0.0,nan,0.0,0.0,0.1805835,-0.12016043,-0.34103498,0.11477518,0.0,0.0,10.9543495,-0.030627765,0.0
124432399,0.07491112,-0.12851107,0.0073884726,0.027648926,-0.05618286,0.0,0.0,0.0,0.0,0.0,0.0,0.0,nan,nan,nan,nan,nan,nan,0.0,-0.14935684,0.0,0.0,nan,0.0,0.0,0.1805835,-0.11841175,-0.35374585,0.11229676,0.0,0.0,10.752381,-0.05125116,0.0
124632396,0.13483047,-0.04866028,-0.16822869,0.042663574,-0.06472778,0.0,0.0,0.0,0.0,0.0,0.0,0.0,nan,nan,nan,nan,nan,nan,0.0,-0.22890854,0.0,0.0,nan,0.0,0.0,0.1805835,-0.13166732,-0.33753243,0.095632136,0.0,0.0,10.264381,-0.07191365,0.0
124832364,0.07749367,0.03785765,-0.16156301,-0.16132355,-0.050750732,0.0,0.0,0.0,0.0,0.0,0.0,0.0,nan,nan,nan,nan,nan,nan,0.0,-0.08047104,0.0,0.0,nan,0.0,0.0,0.1805835,-0.13063991,-0.35165706,0.11615053,0.0,0.0,10.773815,-0.0748975,0.0
125032380,0.074373245,-0.14575315,0.094920516,-0.13517761,-0.06121826,0.0,0.0,0.0,0.0,0.0,0.0,0.0,nan,nan,nan,nan,nan,nan,0.0,-0.37490463,0.0,0.0,nan,0.0,0.0,0.1805835,-0.10510212,-0.35634536,0.12855437,0.0,0.0,10.928276,-0.051792476,0.0
125232354,0.032777786,-0.09344339,-0.057807565,0.07120514,-0.084747314,0.0,0.0,0.0,0.0,0.0,0.0,0.0,nan,nan,nan,nan,nan,nan,0.0,-0.42065048,0.0,0.0,nan,0.0,0.0,0.1805835,-0.10572812,-0.36154953,0.12479159,0.0,0.0,11.583984,-0.024609003,0.0
125432461,0.15652275,-0.010598421,-0.033390135,-0.12541962,-0.047424316,0.0,0.0,0.0,0.0,0.0,0.0,0.0,nan,nan,nan,nan,nan,nan,0.0,-0.18383408,0.0,0.0,nan,0.0,0.0,0.1805835,-0.083150595,-0.3580055,0.10664186,0.0,0.0,11.901581,0.0036188497,0.0
125632357,0.092531204,-0.037296295,-0.22879016,-0.12740707,-0.051483154,0.0,0.0,0.0,0.0,0.0,0.0,0.0,nan,nan,nan,nan,nan,nan,0.0,-0.20745468,0.0,0.0,nan,0.0,0.0,0.1805835,-0.071008176,-0.38333407,0.12734365,0.0,0.0,11.795666,0.043883868,0.0
125832405,0.1291523,-0.00023078918,-0.04142058,-0.107414246,-0.0640564,0.0,0.0,0.0,0.0,0.0,0.0,0.0,nan,nan,nan,nan,nan,nan,0.0,-0.16625595,0.0,0.0,nan,0.0,0.0,0.1805835,-0.060932785,-0.39008337,0.12965858,0.0,0.0,11.474633,0.05443601,0.0
126022344,0.09312248,-0.10052776,0.17748094,-0.106884,-0.0881958,0.0,0.0,0.0,0.0,0.0,0.0,0.0,nan,nan,nan,nan,nan,nan,0.0,0.030841827,0.0,0.0,nan,0.0,0.0,0.1805835,-0.05640018,-0.39306363,0.10181528,0.0,0.0,10.866739,0.0574934,0.0
126232391,0.02346611,-0.016969204,0.016801238,-0.08667755,-0.08670044,0.0,0.0,0.0,0.0,0.0,0.0,0.0,nan,nan,nan,nan,nan,nan,0.0,-0.2352333,0.0,0.0,nan,0.0,0.0,0.1805835,-0.042500496,-0.40324455,0.12979046,0.0,0.0,11.072479,0.052283593,0.0
126422435,0.0632534,-0.1223464,0.20990983,-0.06896591,-0.100616455,0.0,0.0,0.0,0.0,0.0,0.0,0.0,nan,nan,nan,nan,nan,nan,0.0,0.25616837,0.0,0.0,nan,0.0,0.0,0.1805835,-0.028676122,-0.38487414,0.114207864,0.0,0.0,10.650204,0.044284757,0.0
126632398,0.17023087,-0.019219398,0.062719434,-0.043094635,-0.10177612,0.0,0.0,0.0,0.0,0.0,0.0,0.0,nan,nan,nan,nan,nan,nan,0.0,0.120853424,0.0,0.0,nan,0.0,0.0,0.1805835,-0.052832127,-0.37545133,0.11235097,0.0,0.0,10.986999,0.04467539,0.0
126832399,0.14664078,0.0054922104,0.02228567,-0.00488472,-0.094940186,0.0,0.0,0.0,0.0,0.0,0.0,0.0,nan,nan,nan,nan,nan,nan,0.0,0.105205536,0.0,0.0,nan,0.0,0.0,0.1805835,-0.031994075,-0.39240634,0.13301226,0.0,0.0,11.053234,0.050950557,0.0
127032397,0.17429161,0.06564045,-0.14487499,0.009315491,-0.08074951,0.0,0.0,0.0,0.0,0.0,0.0,0.0,nan,nan,nan,nan,nan,nan,0.0,-0.09132767,0.0,0.0,nan,0.0,0.0,0.1805835,-0.01851374,-0.3562798,0.1461201,0.0,0.0,11.431122,0.06895528,0.0
