timestamp,timestamp_sample,accel_device_id,gyro_device_id,delta_angle[0],delta_angle[1],delta_angle[2],delta_velocity[0],delta_velocity[1],delta_velocity[2],delta_angle_dt,delta_velocity_dt,delta_velocity_clipping
68731270,68731102,1114146,2228258,-1.3816665e-05,3.9884988e-05,-2.396765e-05,0.0006762036,-0.0006378087,-0.040345185,5009,4200,0
69230527,69230368,1114146,2228258,5.7925023e-05,2.0003832e-05,-5.2707106e-05,2.3836787e-05,6.266031e-05,-0.04854923,4960,5029,0
69730532,69730375,1114146,2228258,-2.7005673e-05,-1.5442889e-05,-1.79349e-05,-0.00038413578,0.00095122337,-0.055498436,4990,5622,0
70233136,70232906,1114146,2228258,-5.5707278e-05,9.531946e-05,-0.00014697236,0.0016776987,-0.0027312126,-0.049753398,5041,5087,0
70733073,70732891,1114146,2228258,-1.5666952e-05,8.120755e-05,-2.1869564e-05,-0.000893667,0.000855146,-0.047644645,5026,5029,0
71230559,71230373,1114146,2228258,-4.375072e-05,-4.157904e-05,-3.8725866e-06,0.0005738834,0.0014967175,-0.050356172,4995,5073,0
71734000,71733384,1114146,2228258,-4.832918e-05,2.6480935e-05,9.055344e-05,0.0010730233,0.0015013883,-0.04835715,4974,4696,0
72231895,72231738,1114146,2228258,0.00017101187,-7.0873044e-05,-6.386049e-05,0.00030592314,0.001427498,-0.06176857,4983,6300,0
72731018,72730811,1114146,2228258,7.4058694e-06,-5.7690242e-05,-3.273662e-05,0.00069407903,0.00066373375,-0.035140578,5008,3660,0
73230501,73230373,1114146,2228258,-0.00013925096,0.000111172754,-7.878981e-06,0.0014524406,-6.4001346e-05,-0.04058655,4874,4151,0
73733946,73733240,1114146,2228258,9.588695e-07,3.9815186e-05,-3.124189e-05,0.000875519,0.001156423,-0.04978848,5005,5078,0
74230536,74230380,1114146,2228258,0.00010668976,-6.9759975e-05,-6.801388e-06,0.00063159637,0.0012185801,-0.049436916,4953,5043,0
74730811,74730695,1114146,2228258,1.3916444e-05,8.88354e-06,-4.3093598e-05,0.00018287616,0.00038136062,-0.049032714,5284,5032,0
75233271,75232972,1114146,2228258,-6.785642e-05,-5.598646e-05,-4.081124e-05,0.00035506135,0.0003572438,-0.049285218,5014,5093,0
75730582,75730448,1114146,2228258,3.0898034e-05,-4.1967523e-05,-2.9285895e-05,0.0008455917,0.00019748516,-0.04088336,4993,4198,0
76230637,76230363,1114146,2228258,5.920029e-05,0.00011734832,-5.772846e-07,0.00034369848,0.0009683347,-0.03879418,4986,4123,0
76733050,76732898,1114146,2228258,1.795915e-05,-8.085282e-06,1.3136262e-05,5.783945e-05,-5.7797715e-05,-0.055816345,5042,5635,0
77730591,77730459,1114146,2228258,-3.5975843e-06,-3.4509e-05,-3.6010853e-05,0.0007785731,0.0006768412,-0.06567256,5025,6708,0
78233200,78233000,1114146,2228258,5.594857e-05,3.158778e-05,-3.824333e-05,0.001378335,0.0013052272,-0.062438317,5987,6400,0
78733089,78732863,1114146,2228258,8.457819e-05,-0.00010514448,-0.00010125244,0.0017401646,0.000116844036,-0.049038135,4969,5033,0
79230983,79230879,1114146,2228258,-1.574277e-05,9.492157e-06,-2.6737624e-05,0.0004858373,0.00094420946,-0.04048023,5001,4021,0
80234090,80233404,1114146,2228258,-5.9325994e-06,9.272416e-05,-4.179585e-05,-6.832716e-05,0.00023982665,-0.049459822,5001,5210,0
80731763,80731664,1114146,2228258,9.870536e-06,-0.0001731723,5.2259325e-06,0.0011509645,0.00092497753,-0.0397831,5009,4177,0
81230861,81230363,1114146,2228258,7.083441e-05,-0.00014880329,-3.0444471e-05,-0.002166309,0.0033790658,-0.049378432,4636,5246,0
81733124,81732966,1114146,2228258,0.00024955728,-2.6003976e-05,-0.00010901801,-0.0032924784,-0.00021688793,-0.053129427,5007,5570,0
83232145,83232045,1114146,2228258,-0.00011625318,5.7395304e-05,0.00016621222,0.00028943366,-0.000111314,-0.05317894,5034,5204,0
84230987,84230884,1114146,2228258,-0.00042481304,0.00015005938,2.3342387e-05,-0.0010159931,0.0027777194,-0.052556414,5512,5128,0
84730564,84730406,1114146,2228258,-9.4972755e-05,-0.0002105287,-2.3307666e-05,0.00092459895,0.00025954156,-0.038562097,5032,3921,0
85233823,85233321,1114146,2228258,-6.7342655e-05,4.0583087e-05,-9.178651e-05,0.00028203093,0.0024824056,-0.06585799,5451,6302,0
85730619,85730486,1114146,2228258,-0.00051166967,0.00023298056,3.9372742e-05,0.0007589544,0.002571735,-0.046758227,5040,4719,0
86232288,86232153,1114146,2228258,-6.867484e-05,-8.37092e-05,-6.114597e-05,-0.0011979523,0.0025215275,-0.069978535,6784,7342,0
86733062,86732883,1114146,2228258,3.2011078e-05,-0.00027940868,-4.6676058e-05,0.0009727682,0.000714046,-0.042219173,4985,5051,0
87233085,87232909,1114146,2228258,-0.0014930257,-0.0018422715,-0.00037536278,0.038679987,0.004527587,-0.06972377,5034,5709,0
87730636,87730438,1114146,2228258,0.0009960787,0.001322307,0.0002085578,0.023070233,0.0066852965,-0.046465617,4933,4997,0
88233153,88232984,1114146,2228258,0.00064169976,0.00022150477,0.00065268605,0.02864672,0.013602577,-0.016826091,5125,4119,0
88733171,88732884,1114146,2228258,-0.0015202761,0.0007993318,0.001430327,0.03712868,8.1263446e-05,-0.026140384,5007,5035,0
89230485,89230370,1114146,2228258,0.001334022,0.0012945886,0.00041515115,0.010662766,0.0021390987,-0.029267421,4988,2448,0
89730579,89730409,1114146,2228258,4.0709223e-05,0.00040211302,-0.0013043357,0.024935788,0.0013867206,-0.085423805,5000,5006,0
90733274,90732933,1114146,2228258,-0.0017725478,-0.0009362381,-0.0015200049,0.022254035,-0.01149182,-0.037485544,5054,5268,0
91235560,91235351,1114146,2228258,0.0010532635,-0.0006517614,-0.001365826,0.023218248,-0.017719302,-0.040866993,4907,6601,0
91734248,91732939,1114146,2228258,0.0011947919,0.00029675977,-0.0015760139,0.010922126,-0.020230649,-0.05802024,4569,5093,0
92233067,92232864,1114146,2228258,0.00092996337,-0.00020067363,-0.0014452575,0.010401207,-0.022649845,-0.053324,4964,5560,0
92730894,92730791,1114146,2228258,0.0008059966,-0.00025134982,-0.00022587433,0.0069693727,-0.018999686,-0.03244325,5001,5035,0
93233098,93232909,1114146,2228258,0.0016710542,0.0014340433,-0.0015523826,0.0031971978,-0.014639903,-0.042891268,5053,3158,0
93734356,93732907,1114146,2228258,-0.0025063516,0.00090026157,0.00047370934,0.007212543,-0.021558767,-0.069070116,4693,5139,0
94231692,94230374,1114146,2228258,0.00018233023,0.0008469687,-0.0005813971,0.0022996624,-0.022419432,-0.085995935,5005,5258,0
94732170,94730657,1114146,2228258,0.0017678582,0.00013985732,-0.00029047093,0.009544359,-0.019333877,-0.047327965,5281,5119,0
95233068,95232917,1114146,2228258,0.0016192807,-0.00022142408,-0.0003096944,0.011796067,-0.020945672,-0.069342114,5048,6745,0
95734067,95733074,1114146,2228258,0.0038808472,0.0006783017,-0.0023193352,0.013612981,-0.022034992,-0.078865245,6386,6261,0
96230534,96230401,1114146,2228258,0.0011770922,-0.00055143324,0.0012623024,0.018212024,-0.023227224,-0.012063366,5016,5616,0
96728064,96727919,1114146,2228258,0.0010896302,0.00044684054,0.00025619223,0.010435343,-0.013999319,-0.03396998,4960,4960,0
97233154,97232964,1114146,2228258,-0.0012229686,0.00026776656,0.00022585032,0.01091148,-0.01761123,-0.053393003,5107,5107,0
97733083,97732930,1114146,2228258,-0.000557458,0.00050019444,-0.0003769333,0.010943852,-0.021791007,-0.058979604,5005,5602,0
98230010,98229876,1114146,2228258,-0.0012050822,-0.0007143141,0.00026387835,0.00791325,-0.012943992,-0.026651362,5018,3183,0
98733246,98732940,1114146,2228258,-0.0002892412,-0.00043211374,3.288468e-05,0.010917936,-0.018913314,-0.045984548,4999,5160,0
99230993,99230441,1114146,2228258,0.0008522747,0.00034074672,-0.00076437066,0.00781174,-0.016167475,-0.042405635,4588,4194,0
99735609,99735399,1114146,2228258,-2.2959945e-05,-0.0003781477,-0.00039707162,0.010719375,-0.018338734,-0.041609306,5011,4179,0
100233095,100232943,1114146,2228258,6.456645e-06,-0.0005678875,0.0006752002,0.016599018,-0.01980847,-0.038263522,5086,5624,0
100730577,100730418,1114146,2228258,-0.00016800866,0.00077805895,-0.00038669727,0.015434197,-0.016102673,-0.063051656,4971,5039,0
101232279,101230363,1114146,2228258,0.0014116772,-0.00095731847,-0.00012388224,0.018516047,-0.02525767,-0.041371934,4657,5608,0
101733182,101732884,1114146,2228258,-0.0008127641,-0.0005888989,0.00072356145,0.016663112,-0.017429212,-0.040169477,5028,5096,0
102233136,102232946,1114146,2228258,0.00048887095,-0.00019441402,-0.00035280045,0.014166048,-0.016713833,-0.043156922,5090,5093,0
102730451,102730330,1114146,2228258,0.0007817474,-0.00029765867,-0.00015908586,0.015848272,-0.017008087,-0.040208597,4964,5249,0
103231486,103231283,1114146,2228258,-0.00069914846,-0.00046680574,-0.0004096356,0.018065514,-0.018878989,-0.050298568,5723,4997,0
103733008,103732868,1114146,2228258,-0.0022840183,0.0003168138,-1.672449e-05,0.009277469,-0.009213367,-0.033114035,5037,3145,0
104231005,104230851,1114146,2228258,-0.0018879334,0.00082695705,-0.0010200676,0.01652604,-0.012769061,-0.06601448,5005,4673,0
104730494,104730370,1114146,2228258,-0.0012686836,0.00029839235,-0.0017623467,0.012527969,-0.010720371,-0.04213849,4995,4198,0
105234396,105233288,1114146,2228258,-0.0017839526,0.0008445369,-0.0017376272,0.01892161,-0.015043672,-0.05530248,5391,5079,0
105732509,105732375,1114146,2228258,-0.00030234168,0.00091889175,-0.0017353424,0.017622044,-0.0100406865,-0.058567345,5011,5232,0
107730509,107730390,1114146,2228258,0.0010209181,0.0012517899,-0.001112527,0.011755568,-0.005549802,-0.055526476,5009,4168,0
108233041,108232895,1114146,2228258,0.0015281875,0.00038704608,-0.00065567275,0.009362489,-0.0077086654,-0.059914965,5024,5626,0
108733095,108732895,1114146,2228258,-0.00041200066,0.0006162023,-0.00025517825,0.007812714,-0.008106776,-0.073269024,5024,5323,0
109230628,109230462,1114146,2228258,0.0017726722,0.00012666386,0.00056467985,0.009824991,0.0015808877,-0.0524758,5018,5696,0
109730597,109730375,1114146,2228258,0.002483225,-0.00032971738,7.780974e-05,0.008788807,0.008682633,-0.045952644,4995,4201,0
110233166,110232908,1114146,2228258,-0.00060955854,0.00041183218,7.134911e-05,0.010150313,0.005029236,-0.04891243,5002,5081,0
110731022,110730919,1114146,2228258,-0.0013059279,0.00025012766,0.00064308225,0.009186169,0.00701188,-0.047416557,4997,5041,0
111230570,111230363,1114146,2228258,-0.0012729961,-0.0003392112,0.001194198,0.009722701,0.009702265,-0.026239669,4989,4985,0
111734160,111732863,1114146,2228258,-0.0013566756,-0.0005789543,9.286135e-05,0.0128781935,0.013401941,-0.045607574,4510,6307,0
112233238,112232912,1114146,2228258,-0.0032965352,0.00058840634,0.00020914857,0.011250742,0.0099727195,-0.04019297,5056,5096,0
112732331,112730853,1114146,2228258,-0.0030415258,0.00050951896,-0.00040749012,0.010028707,0.01495735,-0.041578103,5085,5241,0
113234278,113234130,1114146,2228258,-0.0024037294,0.000985594,-0.0012504068,0.0060340967,0.012723962,-0.032433532,4999,4438,0
113734113,113732900,1114146,2228258,0.0015557882,0.0012189434,-0.0014352171,0.007937466,0.010944494,-0.05473048,4664,4679,0
114233184,114232985,1114146,2228258,0.0013568546,0.001489722,-0.0016074744,0.0029460464,0.009834637,-0.067737475,5002,5251,0
114730732,114730413,1114146,2228258,0.001485567,0.0012890182,-0.001093495,-0.00043738828,0.0066933027,-0.087425925,5042,5747,0
115233131,115232943,1114146,2228258,0.0013015614,0.0009120763,-0.0011513527,-0.018406808,0.008118933,-0.054177042,5080,5080,0
115732517,115732370,1114146,2228258,0.00022252131,0.0007960932,-0.0011882095,-0.019112643,0.003559573,-0.071593024,7010,6237,0
116230537,116230381,1114146,2228258,0.00057674496,0.00028862822,-0.00054536836,-0.014465239,0.0019271987,-0.04863251,5012,5012,0
116734027,116733353,1114146,2228258,0.0018611115,-6.3184714e-05,-0.00064871396,-0.011454292,0.0036461297,-0.06400583,5520,6293,0
117230642,117230522,1114146,2228258,-0.00035595198,2.1557855e-06,-0.0005705671,-0.0012870451,0.0022823373,-0.05406703,5032,4755,0
117730534,117730395,1114146,2228258,0.00036168314,-4.5279794e-06,-0.00032109776,-0.0015636625,0.0013804744,-0.02728803,5005,4199,0
119230596,119230374,1114146,2228258,0.00017733904,0.00018237959,-5.448043e-06,-4.0377912e-05,3.476405e-05,-0.049902737,4897,5092,0
119730719,119730388,1114146,2228258,0.00020089539,-0.00042250246,0.00014997533,-0.00021006214,-0.0010645577,-0.06689173,5014,6749,0
120233123,120232935,1114146,2228258,-0.0012914937,0.00012559812,0.0007506389,0.006999596,0.00086645293,-0.057338737,5019,5022,0
120730573,120730386,1114146,2228258,-0.00035485346,-0.00075191306,0.00072024536,0.0049639116,0.006068595,-0.050836764,4999,5240,0
121230597,121230363,1114146,2228258,-0.00035551898,-0.0008175146,-0.00054825295,-0.0010807344,0.0077695074,-0.026761144,4991,5030,0
121733058,121732918,1114146,2228258,-0.0006844712,0.00087334827,-0.00044097946,-0.005866545,0.0025410724,-0.04530872,4984,4239,0
122233057,122232915,1114146,2228258,0.0009044037,0.0004941506,-0.000358679,0.00044354645,0.0042809607,-0.057548836,5059,4197,0
122730539,122730407,1114146,2228258,0.0010600714,0.0002483475,-0.0010716358,-0.0011786328,0.0051001348,-0.06772355,5032,6252,0
123231369,123231265,1114146,2228258,-0.0005089217,-0.00019141614,-0.0013678584,0.002922723,4.197973e-05,-0.043398816,5725,3201,0
123731864,123731761,1114146,2228258,-0.0016188689,0.0008580521,-0.0006143284,0.005729968,-0.0021842434,-0.06393676,4956,5239,0
124230935,124230831,1114146,2228258,-0.0006107509,-0.00028269886,-0.00011789974,0.0005490592,0.0031779965,-0.045652397,4997,5056,0
124730566,124730372,1114146,2228258,0.0009245536,0.00020403363,-0.0012696333,0.00044749246,0.005850218,-0.07507328,4957,5569,0
125233897,125233262,1114146,2228258,-0.0018146841,0.0002873049,-0.0013103156,-0.00048461987,0.003305599,-0.029492209,5005,5122,0
125731717,125731616,1114146,2228258,-0.0009674325,0.0010480249,-0.00082253723,0.0032076768,-0.0026213978,-0.063994445,5006,4200,0
126234059,126233544,1114146,2228258,0.0012511675,0.00089836016,-0.000671379,-0.000319979,0.0008483799,-0.07842813,5593,5001,0
126733064,126732919,1114146,2228258,0.0011558107,8.778672e-05,-0.0006826486,0.0029467952,0.003121512,-0.05238476,5063,5703,0
127234026,127233124,1114146,2228258,0.00027519342,6.762656e-05,-0.0006177057,0.00019440563,-0.0009965743,-0.06865078,5268,6295,0
129230607,129230406,1114146,2228258,0.00088916667,0.00096483197,-0.00087832357,0.0009451511,0.005944037,-0.061699845,5005,5004,0
129734080,129733469,1114146,2228258,-0.0005506096,0.0006281789,-0.0007851843,-0.0034171978,0.0029299886,-0.059667937,5004,6337,0
130230627,130230419,1114146,2228258,-0.002064126,0.00085495535,-0.00015597246,-0.0036135984,0.00846283,-0.05391095,5032,5648,0
130731012,130730901,1114146,2228258,-0.0013444484,0.0012347669,-0.0007579428,-0.0027085063,0.00793499,-0.057188865,5010,5250,0
131230497,131230376,1114146,2228258,0.00048843847,0.00062029035,-0.0012468128,-0.0057760887,0.0058285054,-0.05097394,4984,4155,0
131734180,131732918,1114146,2228258,-0.00012420544,0.0017362204,-0.0011583556,-0.013714959,0.004589913,-0.088445514,4538,6638,0
132233044,132232899,1114146,2228258,2.1190885e-06,0.0009955093,-0.00074772176,-0.006681899,0.005844913,-0.07031605,5043,5272,0
132732306,132730801,1114146,2228258,-0.00051097554,0.0007337169,-0.00069896644,-0.0068777446,0.008753851,-0.046517584,5048,4561,0
133233122,133232905,1114146,2228258,-0.0006007536,0.00074563414,-0.0010934164,-0.0027204438,0.0077014836,-0.04438207,5048,5092,0
133734724,133732908,1114146,2228258,-0.000816785,0.0007184115,-0.00094698137,-0.007178545,0.0062591922,-0.043862443,4724,5053,0
134230572,134230379,1114146,2228258,0.00085272104,4.215083e-05,-0.001135295,-0.013373564,0.00517367,-0.050047226,5007,5084,0
134730558,134730386,1114146,2228258,0.00063433126,0.00095015886,-0.0011962956,-0.008884695,0.0067185983,-0.08268015,6214,6437,0
135233130,135232963,1114146,2228258,0.00039725166,0.00064515154,-0.00045391233,-0.00669554,0.0032899433,-0.055004593,4991,4188,0
135731055,135730894,1114146,2228258,0.0012012694,9.400464e-05,-0.0005004515,-0.008892742,0.00573992,-0.06843681,5515,5715,0
136231486,136230381,1114146,2228258,0.000344016,-0.0003319579,-0.00057828985,-0.011712128,0.0057910937,-0.06706184,5010,5281,0
136734659,136733358,1114146,2228258,-0.00011704308,0.00040558673,-0.0003433005,-0.0040480536,0.007320912,-0.058572914,5406,5065,0
137230596,137230376,1114146,2228258,-2.3965351e-05,-6.99682e-05,-0.000542584,-0.0049965438,0.0013298764,-0.053084187,4882,3919,0
137730895,137730794,1114146,2228258,-0.00050927047,-0.0005372764,7.288092e-05,-0.0021663685,0.005915091,-0.03558069,5402,5031,0
138233043,138232902,1114146,2228258,0.00018381757,0.000415978,-0.00044907126,-0.0022802663,0.0017120754,-0.049209017,4978,4073,0
138734105,138733184,1114146,2228258,-0.0008567829,9.281261e-06,-0.00024445925,-0.0045204675,0.0029247378,-0.044044405,5272,4961,0
139734553,139734175,1114146,2228258,-0.0006011311,8.739917e-05,-0.00039909928,-0.0049466724,0.0008170282,-0.039355386,4984,4592,0
140233023,140232872,1114146,2228258,0.001513376,-9.7322416e-05,-0.0009399671,-0.008227642,0.0002454412,-0.047434054,4983,5255,0
140730566,140730427,1114146,2228258,0.0012235966,0.00045469328,-0.0013567428,-0.005338349,-0.004941321,-0.044440564,5065,4609,0
141231486,141230365,1114146,2228258,0.003905514,0.0009472513,-0.0015978263,-0.0040105633,-0.010192327,-0.02788911,5003,3104,0
141733050,141732874,1114146,2228258,0.0026139887,0.00033176053,-0.0012069232,-0.005386198,-0.027030824,-0.047561087,4972,5035,0
142233179,142232916,1114146,2228258,-0.00601252,-0.00036783042,0.0029462685,-0.004659172,-0.016487269,-0.06172686,5044,5663,0
143234397,143232967,1114146,2228258,0.0061590006,0.00018956157,-0.0028160855,-0.0024084584,-0.0053798375,-0.049869787,4562,5252,0
143733154,143732956,1114146,2228258,-0.0051697227,-0.001590884,0.00023230405,-0.0011846726,-0.028092021,-0.0451498,5026,5029,0
144230916,144230812,1114146,2228258,-0.006115816,0.00035018002,0.0029584588,-0.0056837723,-0.008245272,-0.06831916,5006,5220,0
144730545,144730331,1114146,2228258,0.0053132637,-1.8098843e-05,-0.0008958625,-0.004705338,0.0085607385,-0.07065046,4952,5211,0
146232212,146232107,1114146,2228258,0.00029915565,0.0044606226,-0.0019873846,-0.00121837,-0.016793355,-0.10368927,5019,4193,0
146733131,146732940,1114146,2228258,0.0021403283,-0.0014038297,-0.0009435351,0.0050703045,-0.014694823,-0.031493112,4966,3877,0
147233216,147232909,1114146,2228258,0.0026082175,-0.005045058,0.0014536092,0.030461213,0.00263569,0.101768896,6251,7524,0
147730530,147730371,1114146,2228258,0.0030591786,0.002669114,-0.000789752,0.003512355,-0.00246169,-0.07131515,5001,5002,0
148234033,148233375,1114146,2228258,-0.0027529234,0.0052759605,-0.0019081519,0.011285211,-0.026379265,-0.19739108,5508,6332,0
148731148,148731047,1114146,2228258,-0.001571414,-0.00018467254,-0.00047051246,0.0066827224,-0.01445816,-0.08548623,5031,4631,0
149230496,149230369,1114146,2228258,-0.00029256087,-0.006581066,0.0015374827,0.019577261,-0.0038901244,0.06636061,4988,4220,0
149730510,149730389,1114146,2228258,0.0015051989,-0.0024866837,0.0008939629,0.014433324,0.0033701842,0.01887209,5006,3104,0
150233136,150232916,1114146,2228258,0.001552004,0.001671069,-0.0008195253,0.0039685946,-0.0036840092,-0.073583625,5050,5647,0
150731723,150731618,1114146,2228258,-0.001834094,0.001492321,-0.0017657602,0.0043706074,-0.016086698,-0.10492169,5750,5017,0
151230519,151230363,1114146,2228258,-0.0031761846,-0.00088981196,0.0004525771,0.008006358,-0.019898115,-0.053461153,4981,5660,0
151733196,151732962,1114146,2228258,-0.003231355,0.0005387269,0.0004603734,0.00041503352,-0.009616711,-0.071914345,5086,5092,0
152231822,152231662,1114146,2228258,0.00041791465,0.0017317316,-0.0008835274,-0.00056517054,-0.009405154,-0.09286109,5006,6310,0
152731596,152730385,1114146,2228258,-0.002210742,0.0012914716,-0.0009647925,-9.3206545e-05,-0.0074789287,-0.09050245,4659,5040,0
153230622,153230518,1114146,2228258,-0.0011675294,0.0015872646,-0.0008728164,0.0026177333,-0.0023514277,-0.07001437,5001,5004,0
153733132,153732870,1114146,2228258,-0.0005586218,0.002213891,-0.00097235915,0.003972399,-0.0003900874,-0.039055023,5000,3103,0
154235654,154235442,1114146,2228258,-0.00043623496,0.0021135507,-0.00089686573,0.008502483,0.0008655841,-0.07134987,5037,5554,0
154734243,154733444,1114146,2228258,0.0022175354,0.0013419436,-0.0013991066,0.008417327,0.0066090687,-0.06873058,5002,5931,0
155233293,155232910,1114146,2228258,0.0022165156,0.0004853242,-0.0018551948,0.008156095,0.0059225326,-0.06552548,5001,5628,0
155729544,155729438,1114146,2228258,0.002709581,-0.000107215375,-0.0019354331,0.011235147,0.0048057656,-0.05970777,6432,6298,0
156230546,156230363,1114146,2228258,3.06958e-05,-0.0006468,-0.0010696105,0.0096639935,0.0020104616,-0.03351824,4950,5562,0
156734153,156733347,1114146,2228258,-0.0004121375,0.00049980724,-0.00036522138,0.006578445,0.0050623296,-0.034422494,5000,4093,0
158233093,158232947,1114146,2228258,-0.000752077,0.0005707035,-0.0010651265,0.0014328148,0.014330983,-0.053619508,5082,5734,0
158733975,158733185,1114146,2228258,0.0026296068,0.00067243713,-0.0015143846,0.0005645799,0.01371309,-0.07222544,5329,6277,0
159230528,159230402,1114146,2228258,0.001138013,0.0012697222,-0.0011703882,-0.0042914962,0.005532118,-0.083588645,5032,5680,0
159730528,159730381,1114146,2228258,0.0011635618,0.00046337995,-0.00040192713,-0.002957977,0.0045928108,-0.056688916,4995,4192,0
160730544,160730380,1114146,2228258,0.0003957641,0.00042851025,-0.00019275521,-0.0029445705,0.0048427866,-0.068336874,4975,5041,0
161230712,161230444,1114146,2228258,0.0009798153,-0.0016276932,-0.0004715849,0.0026141945,0.0072997566,-0.028692586,5018,5017,0
161733039,161732829,1114146,2228258,-0.00024510594,-0.0015010348,-0.00047748373,0.0038200913,0.0029598754,-0.0040249373,4956,3061,0
162233361,162232955,1114146,2228258,-0.00046553844,0.00037574262,-0.0002965677,0.0026504803,-0.00014382595,-0.046959493,5088,5085,0
162730523,162730409,1114146,2228258,-0.0024594797,2.204867e-05,-0.0012619005,0.000894668,-0.009988976,-0.046694547,4990,4131,0
163234130,163233430,1114146,2228258,0.00093862676,0.00017911592,0.0020021873,0.00013977775,0.003296101,-0.045057252,4970,4438,0
163733039,163732894,1114146,2228258,-6.278855e-05,-0.0002517415,-0.0029793265,-0.0006649604,0.00010317059,-0.045083813,5037,5274,0
164234827,164233653,1114146,2228258,-0.0019268928,3.527076e-05,0.000698348,-0.0029071164,-0.013276638,-0.05554752,5005,5225,0
164730503,164730382,1114146,2228258,0.002545393,0.00020618518,0.0013540974,-0.0020265963,0.008726424,-0.039101895,4808,3146,0
165233148,165232905,1114146,2228258,-0.00019970215,6.988674e-05,-0.0032961338,-0.008826849,-0.0006072773,-0.051570546,5035,5038,0
165733277,165733009,1114146,2228258,-0.0027297381,-0.00019895134,0.0004040805,-0.0042871307,-0.018654546,-0.063111454,4998,5515,0
166230753,166230378,1114146,2228258,0.0019514353,0.00013217874,0.0015793482,-0.003413358,0.008530591,-0.043020632,4739,3900,0
166733047,166732907,1114146,2228258,-0.00082931016,0.0007899142,-0.0032721928,-0.005698683,-0.0010722146,-0.049422286,5039,4198,0
167233185,167232909,1114146,2228258,-0.0021172126,-0.00060753734,0.001114928,-0.0070779705,-0.020127922,-0.06028286,5544,6229,0
167734464,167734309,1114146,2228258,0.0026148052,-0.0002751914,0.00035572553,-0.0017473903,0.015842237,-0.04640333,5009,5249,0
168229948,168228379,1114146,2228258,-0.0016505867,0.00034861008,-0.004619857,-0.008489873,-0.010280946,-0.07171377,5473,5726,0
169733228,169732911,1114146,2228258,-0.0010212098,0.00010118187,-0.003065823,-0.008351233,-0.014710697,-0.058713738,5035,5176,0
170234807,170233217,1114146,2228258,-0.002289175,0.000113766655,-0.00029683433,-0.0072643952,-0.018777031,-0.05600207,5353,6065,0
170730549,170730430,1114146,2228258,4.949929e-05,0.0013825075,-0.00018490641,-0.008290869,-0.004241782,-0.05520328,5010,4080,0
171230576,171230369,1114146,2228258,0.0010973304,0.00056553556,-0.0008190629,-0.012472904,-0.0011628774,-0.049942568,5007,5012,0
171731346,171731197,1114146,2228258,0.00068406796,0.00023466481,-0.0007838549,-0.012650868,-0.0038193266,-0.054885067,5020,5256,0
172231744,172231641,1114146,2228258,0.00238944,-0.00033046614,-0.0010833718,-0.010123859,-0.0077311373,-0.059741493,5003,6298,0
172730567,172730382,1114146,2228258,0.00080823846,0.00022735704,-0.001048244,-0.012259057,-0.010409486,-0.05418335,5020,5255,0
173233097,173232906,1114146,2228258,-0.00013121215,-0.00079078664,-0.00038115148,-0.0090714935,-0.009568461,-0.042650722,5014,5080,0
173733099,173732905,1114146,2228258,-0.00022633836,0.00034680296,0.000101857564,-0.009529064,-0.006355464,-0.049012493,5041,6701,0
174230550,174230393,1114146,2228258,-0.00031127714,0.00041840394,-0.00042211532,-0.007454877,-0.005955633,-0.0587665,4999,5065,0
174731394,174731292,1114146,2228258,0.00011521972,0.0005265258,-0.00017962967,-0.014582163,-0.008850941,-0.05585767,5013,5234,0
175233125,175232912,1114146,2228258,-0.00032574663,0.00032434243,3.8256858e-05,-0.010794222,-0.0066195712,-0.053824726,5018,5242,0
175731006,175730373,1114146,2228258,0.000111608395,0.00017816867,-0.00019044481,-0.014049137,-0.001673542,-0.047285944,4529,5249,0
176235536,176235396,1114146,2228258,0.00038957174,-0.00046216164,-0.0005694711,-0.018832259,-0.0028024656,-0.049255345,5072,5251,0
176734092,176732984,1114146,2228258,0.0001441956,-0.00034719982,-0.00065973995,-0.014429379,-0.0033818264,-0.06334498,4707,5820,0
177730817,177730393,1114146,2228258,-0.00035976214,-0.00050128053,-3.114888e-05,-0.009713905,0.0016720374,-0.05190569,4637,4678,0
179230564,179230408,1114146,2228258,-0.00092072884,0.00094103836,-0.0010036394,6.2180225e-05,0.010472709,-0.049544375,5042,5041,0
179732084,179731988,1114146,2228258,-0.0011028459,0.0006984565,-0.0010356412,0.0002331629,0.00609549,-0.034660537,4960,3470,0
180233051,180232908,1114146,2228258,-0.0013942864,0.0009771176,-0.0009640553,-0.0032647338,0.008867442,-0.038761098,5032,4144,0
180730965,180730856,1114146,2228258,-0.0010599551,0.00091361004,-0.0012281953,-0.0053411457,0.012464804,-0.042201754,5519,6309,0
181230484,181230363,1114146,2228258,-0.0004018454,0.001193357,-0.00063919445,-0.006115585,0.009299532,-0.024661217,4986,3098,0
181734313,181733277,1114146,2228258,0.00016616483,0.0015069459,-0.0017861922,-0.012539998,0.015170206,-0.070272975,5402,5666,0
182231808,182231631,1114146,2228258,0.0018920627,0.002002287,-0.0014824801,-0.015365948,0.010784925,-0.08435483,5719,5010,0
182730537,182730393,1114146,2228258,0.0040704594,0.0010087959,-0.0017159276,-0.020942332,0.002278593,-0.0965779,5028,5562,0
183233200,183233006,1114146,2228258,0.0015795141,3.3871904e-05,-0.0011247114,-0.013188795,-0.000560587,-0.04810741,5144,5144,0
183733060,183732882,1114146,2228258,0.00029944113,-0.00050424226,-0.00045701434,-0.015661135,-0.006284941,-0.04194626,5021,5024,0
184230586,184230431,1114146,2228258,-0.0004011459,-0.00033537418,0.0001781995,-0.007583606,-0.004200492,-0.036048528,5017,3953,0
184733252,184733002,1114146,2228258,0.00017727037,0.00019016516,0.00021381139,-0.01584923,0.0023389522,-0.059873123,5130,5277,0
185233015,185232862,1114146,2228258,0.0017344615,0.00016171666,-0.0006919214,-0.009779823,-0.0010427006,-0.047866903,5004,4214,0
185730638,185730471,1114146,2228258,0.0004662067,2.8246324e-05,-0.00055666873,-0.009575161,-0.0014339279,-0.028707793,5068,4201,0
186231441,186230364,1114146,2228258,5.4063697e-05,-0.00024539264,-0.000114737006,-0.0148889385,-0.0051906207,-0.06335384,4997,4194,0
186733240,186732925,1114146,2228258,0.0006445882,0.00084550696,-0.00021109005,-0.013421589,-0.0036899454,-0.06871296,5015,5602,0
187234639,187233821,1114146,2228258,0.0005392482,0.00018169261,-0.00037987356,-0.016331408,-0.0067469534,-0.04801658,4999,6303,0
187730533,187730357,1114146,2228258,0.00047100973,-0.00050753774,-0.00026357884,-0.012614403,-0.014412915,-0.041198876,4961,5561,0
188234257,188232947,1114146,2228258,0.0003798804,-0.0011140167,-8.018749e-05,-0.007933772,-0.013362357,-0.021484105,4601,6269,0
188733063,188732876,1114146,2228258,0.0030210481,0.00020533163,-0.0005251178,-0.004263501,-0.006767191,-0.032048542,4999,3902,0
189230898,189230790,1114146,2228258,0.0021035708,0.0005456515,-0.0015081572,-0.00715537,-0.023741793,-0.03458389,5028,5145,0
189731431,189731263,1114146,2228258,-0.005493448,-0.00023515105,0.0024981182,-0.006624208,-0.014811814,-0.049454212,5003,4272,0
190234479,190232857,1114146,2228258,-0.0015355619,0.000608886,0.0015857673,-0.0045853676,-0.001234171,-0.044593316,4667,3217,0
190735537,190735396,1114146,2228258,0.0059055137,0.0009695943,-0.0021002924,-0.0085602915,-0.00600131,-0.055373006,4982,5048,0
191235519,191235370,1114146,2228258,-0.0025926337,-0.00095279573,-0.00039487192,-0.0011149056,-0.032006785,-0.035608985,5013,5669,0
191733153,191732940,1114146,2228258,-0.0052067963,-2.1826494e-05,0.002085099,-0.003852541,-0.018688988,-0.071367756,4968,5035,0
192231014,192230910,1114146,2228258,0.00030610876,0.0010093619,-0.00052399776,-0.0038731352,-0.005160679,-0.058063462,5514,5031,0
192730493,192730359,1114146,2228258,0.0041703405,-3.8601054e-05,-0.0032101609,-0.008161366,-0.02027083,-0.036185548,4968,5033,0
193230582,193230486,1114146,2228258,0.0014606083,-0.0006126972,0.00026024893,0.0029556456,-0.02209371,-0.011860235,5013,4590,0
193733205,193732896,1114146,2228258,-0.0023917176,0.00025766826,0.0012350413,0.00020320926,-0.016729504,-0.07336887,5028,5031,0
194230454,194230361,1114146,2228258,-0.0054830397,0.0014535632,-0.00010819528,-0.00021313614,-0.0073130103,-0.04143107,4988,2452,0
194731570,194731360,1114146,2228258,-0.004292507,0.00035720615,-0.00049743813,-0.0019318808,-0.0121698715,-0.09125185,5001,5243,0
195233068,195232899,1114146,2228258,-0.0015591731,0.00057631085,-0.0013554563,0.005573605,-0.007828777,-0.037169583,5040,5276,0
195730505,195730401,1114146,2228258,0.0014241879,0.0009715707,-0.002534028,0.0029874425,-0.010447972,-0.07597498,5038,5581,0
196230519,196230411,1114146,2228258,-0.00020196801,0.0011113904,-0.0023621025,0.0024660684,-0.012118523,-0.039073225,5044,4235,0
196733146,196732878,1114146,2228258,-0.0008334934,0.0011463987,-0.001741244,0.0026627406,-0.016901229,-0.046804816,4984,5045,0
197231767,197231615,1114146,2228258,0.00039348853,0.0021772976,-0.0011358092,0.0015417081,-0.013309253,-0.082214594,5005,5253,0
197730647,197730503,1114146,2228258,0.00018337983,0.0024628262,-0.0016996167,-0.0009926684,-0.013146353,-0.102487385,5118,5127,0
198233079,198232914,1114146,2228258,-7.870622e-05,0.00061177294,-0.0013759639,0.0001024656,-0.010574308,-0.050683163,5050,4201,0
198733272,198732955,1114146,2228258,-0.00027229314,0.0006162323,-0.0007351979,-0.0024485295,-0.008030913,-0.059893664,5090,5139,0
199230538,199230439,1114146,2228258,0.00088841794,0.00078085944,-0.0006477146,-0.0010079506,-0.0018804107,-0.0410888,4938,3130,0
200233303,200233000,1114146,2228258,-0.0002521583,-0.000768483,-0.00014876282,0.001327817,0.0020855013,-0.027543876,5088,5784,0
200730989,200730891,1114146,2228258,-0.0016762395,-0.00042003806,0.00047971422,0.0026669318,0.008312585,-0.02525534,4997,5015,0
201230513,201230378,1114146,2228258,-0.0008815305,-0.00011241188,-0.0002631735,-0.0002827182,0.011294457,-0.048861507,5012,5726,0
201734208,201732966,1114146,2228258,-0.0008967466,0.0010582389,-0.00019169495,-0.0016344996,0.011968375,-0.05109611,4717,5104,0
202230419,202230323,1114146,2228258,-0.00069698726,0.0016395051,8.822659e-06,-0.00030320595,0.010222372,-0.08007344,4988,4168,0
202730785,202730677,1114146,2228258,0.00037083053,2.405457e-06,-0.0018125245,0.00017399453,0.014203255,-0.04470682,5308,4985,0
203233078,203232909,1114146,2228258,-0.0018579678,0.0009912554,-0.0007777772,-0.005290988,0.008467781,-0.061140735,5050,4210,0
203733301,203732912,1114146,2228258,0.00017893933,0.0012171124,-0.00032551688,-0.0024416985,0.015418623,-0.07219457,4806,5290,0
204230465,204230361,1114146,2228258,-0.0018211317,0.00022603395,-0.0015703134,-0.00034625555,0.013199523,-0.050483327,4985,5173,0
204734189,204733394,1114146,2228258,0.0031052472,7.349778e-05,-0.0012213814,0.00048820412,0.0113204215,-0.010680342,5494,5034,0
205233248,205232983,1114146,2228258,0.0015538632,0.000518013,-0.00094911194,-0.0070739035,0.007152934,-0.07177341,5096,5723,0
205730580,205730389,1114146,2228258,0.001644664,-0.0004426582,-0.0005144882,-0.0022214085,0.004924854,-0.02979516,4998,5066,0
206235700,206235437,1114146,2228258,0.0011656908,0.0001339817,-4.5676283e-05,-0.0012802914,0.008871077,-0.048707556,5003,5002,0
206733196,206732889,1114146,2228258,-0.0004750428,3.0852798e-06,-0.0002721199,-0.0048642936,0.010313083,-0.05072903,5006,5100,0
207734379,207734251,1114146,2228258,-0.00058847875,-8.015383e-05,-0.00028751872,-0.007018192,0.011366305,-0.06410919,5005,5617,0
208233177,208232946,1114146,2228258,-0.0022280933,-6.481569e-05,-0.0005534749,-0.003891864,0.01270197,-0.018829042,5009,4731,0
208733163,208732926,1114146,2228258,-1.9543817e-05,0.0012535467,-0.00021839434,-0.0059657735,0.0071751284,-0.056530476,5003,4198,0
209230521,209230422,1114146,2228258,0.00031940104,0.00018954008,-0.00063892023,-0.0068752915,0.008146083,-0.04739382,5054,4707,0
211733047,211732878,1114146,2228258,-0.00061031006,0.00026165906,0.00021508812,-0.016198516,-0.0015118277,-0.041301962,5004,4128,0
212230996,212230886,1114146,2228258,-0.00050448807,0.00038348034,-0.00012418143,-0.00959977,0.00434667,-0.05816878,5008,5258,0
212733127,212732950,1114146,2228258,-0.0002516848,-0.00033973288,-0.00068453845,-0.010797244,0.004813168,-0.04806004,5049,5049,0
213234239,213233339,1114146,2228258,0.0004669096,-0.0006314368,-0.00093715865,-0.010192137,0.0043294947,-0.046796497,4980,5691,0
213730596,213730482,1114146,2228258,0.0014004448,0.0003466868,-0.0011354989,-0.0032779993,-0.0013597248,-0.051957764,5011,5014,0
214232282,214232171,1114146,2228258,-0.0011415284,0.0004857981,-0.00060721877,-0.006706719,-0.00438965,-0.04463185,5008,5247,0
214733157,214732946,1114146,2228258,-0.0015464744,0.0002676874,-0.00017423856,-0.005046763,-0.0050311745,-0.043367546,5044,5040,0
215233455,215232938,1114146,2228258,-0.00078122044,0.00055147766,-0.00025542258,-0.014299052,-0.0030870826,-0.05337667,4773,5080,0
215733298,215732955,1114146,2228258,0.00013687399,0.00078181276,-0.00032741818,-0.011315941,-0.0009368151,-0.062264327,5714,5585,0
216230720,216230604,1114146,2228258,0.0004848983,-0.00022762519,-0.0004859488,-0.012800114,0.00044551442,-0.040976636,5218,4986,0
216733309,216732969,1114146,2228258,0.0009241917,2.402412e-05,-0.00034603948,-0.008925257,-0.00059598096,-0.040375385,5106,4199,0
217230508,217230403,1114146,2228258,-0.0007529551,0.00034094675,-0.00032690613,-0.0049581598,-0.003592319,-0.058822718,5007,5248,0
217730483,217730381,1114146,2228258,9.6948825e-05,-0.00018224023,-0.00029734228,-0.008648691,-0.0015360235,-0.03536985,4994,4208,0
218233234,218233023,1114146,2228258,-0.00021054584,-0.0002831305,-0.0004161057,-0.008026832,-0.005028782,-0.051706187,5118,5575,0
218731046,218730948,1114146,2228258,-0.00034968558,-0.0002869908,-0.00046613615,-0.0010949814,-0.00463924,-0.042986717,4958,3902,0
219230555,219230395,1114146,2228258,-0.001336646,-0.00027589977,-0.00038774204,-0.0027625503,-0.0082396595,-0.06301186,4953,5539,0
219733209,219732963,1114146,2228258,-0.0001623572,-0.0008232681,-0.00045398274,-0.0062619355,-0.0030051377,-0.03923651,5082,5124,0
220233083,220232885,1114146,2228258,0.00014169152,0.0001950019,-0.0004034756,-0.017326962,-0.0029253808,-0.05334691,5023,5020,0
220731701,220730432,1114146,2228258,0.0015128518,0.00016069657,-0.00071902724,-0.020925367,-0.0036935594,-0.04833689,4628,5071,0
221233200,221232945,1114146,2228258,0.002034621,-0.00025876722,-0.0010656012,-0.011465093,-0.0048864824,-0.056620046,5071,5732,0
221733185,221732948,1114146,2228258,-0.00061869284,-0.00032082846,-0.000504113,-0.0071676983,-0.0045438157,-0.031705655,5028,4199,0
222230546,222230387,1114146,2228258,-0.00077119056,-0.00012153848,0.00016699788,-0.013509986,-0.008359222,-0.06698007,5013,6722,0
222730471,222730372,1114146,2228258,-0.00015010813,-0.00012931625,0.00010799327,-0.0056736115,-0.002452062,-0.024736881,4983,3154,0
223233071,223232870,1114146,2228258,0.0020845428,-0.0001840382,-0.0004102875,-0.0084616095,-0.0022166404,-0.04195,4980,5041,0
223733128,223732873,1114146,2228258,-0.0001622442,-0.00022141742,-0.0005563671,-0.01042553,-0.008215068,-0.05031426,4998,5671,0
224235662,224235369,1114146,2228258,-0.0005457889,-0.00037633788,2.3353174e-05,-0.009879358,-0.009112715,-0.043550875,5008,5041,0
224734037,224733374,1114146,2228258,-0.00076620915,-4.692427e-05,0.00010221654,-0.012877663,-0.009812872,-0.058068752,4964,6347,0
225233091,225232891,1114146,2228258,0.00035893812,-0.00016635725,-0.00014674563,-0.0071703317,-0.0036184324,-0.04013467,5032,3993,0
225730910,225730801,1114146,2228258,-0.00016326335,-8.319341e-05,-0.00043980833,-0.01237301,-0.0066338116,-0.06838364,4989,6285,0
226233186,226232936,1114146,2228258,-0.00030392202,-0.00012778696,-0.00031886186,-0.010183737,-0.006803522,-0.04868337,5023,5531,0
226733080,226732900,1114146,2228258,0.0005654504,-0.00019424563,-0.00036702587,-0.0122318575,-0.0079507725,-0.06501704,6100,6972,0
227233227,227233019,1114146,2228258,-0.0007963603,-0.00016962246,-0.0002165547,-0.010615795,-0.0056328787,-0.05365477,5678,5252,0
227729336,227729226,1114146,2228258,-0.00060240185,-1.1068409e-05,-0.0006513058,-0.010450776,-0.007002059,-0.051108927,5006,4965,0
228233297,228232952,1114146,2228258,-0.0045714853,-9.263314e-05,0.0006590507,-0.011141741,-0.0036210597,-0.06306242,5048,5112,0
231234335,231234174,1114146,2228258,-0.0016938578,3.6324345e-05,-0.0005428526,-0.014304321,-0.0065235216,-0.050647166,5701,5874,0
231730520,231730413,1114146,2228258,-0.0014338135,0.0003351214,-0.00012898153,-0.013991421,-0.0025565422,-0.04343023,4978,5002,0
232235518,232235340,1114146,2228258,0.0011220494,0.0011692283,-0.0007872661,-0.01621727,-0.0031857842,-0.06671836,4943,5016,0
232730518,232730407,1114146,2228258,-0.0015834513,0.0011390927,-0.00092435273,-0.01817046,-0.0010610588,-0.07369643,5033,5668,0
233233155,233232931,1114146,2228258,0.000731738,0.0015586047,-0.0012792018,-0.01488487,-0.0035830548,-0.08305594,5013,5015,0
233733284,233732939,1114146,2228258,0.0014077454,0.0014208046,-0.0014162795,-0.016738847,-0.008354986,-0.07832614,5066,5068,0
234230562,234230427,1114146,2228258,0.00031431322,0.0007480549,-0.0012905614,-0.013610492,-0.0048644687,-0.088509336,5011,5017,0
234733159,234732972,1114146,2228258,-0.0015315514,6.4151835e-05,-0.00054004224,-0.007978251,-0.006041438,-0.03918688,5047,3200,0
235233271,235232919,1114146,2228258,-0.00060635805,-0.00017057761,-0.00014082901,-0.0077737626,0.0008220319,-0.024923643,5048,3174,0
235730512,235730401,1114146,2228258,0.0016227087,-1.228784e-05,-0.0012256851,-0.014156233,-0.0065610507,-0.05660103,4994,6298,0
236234109,236233472,1114146,2228258,0.0029528858,-0.00059974886,-0.0016028471,-0.012122253,-0.005425459,-0.0368014,5001,5070,0
236733162,236732933,1114146,2228258,-0.002068445,-0.0006668535,-0.0006833646,-0.014048867,-0.013652355,-0.052679658,5057,5675,0
237229539,237229433,1114146,2228258,0.0012051078,-5.8935944e-05,-5.8649806e-05,-0.010721658,-0.011769452,-0.03383808,5007,5270,0
237730496,237730361,1114146,2228258,0.0018489095,0.00023351236,-0.0002150974,-0.012956981,-0.012937727,-0.05016697,4995,5606,0
238233946,238232867,1114146,2228258,0.000857947,-4.080614e-05,-0.00015200945,-0.01032183,-0.011047216,-0.037321262,4579,4035,0
238730517,238730373,1114146,2228258,0.0007952925,-0.00017722305,0.00054506207,-0.007319206,-0.009137269,-0.017265625,4941,3150,0
239230827,239230723,1114146,2228258,0.0014329234,0.00077349384,0.00056959974,-0.008933783,-0.008969372,-0.06276223,5002,4043,0
239733137,239732952,1114146,2228258,0.00033345504,0.0006220375,0.0002025073,-0.013667801,-0.013235612,-0.07062475,5090,5785,0
240233283,240232959,1114146,2228258,-0.0018631194,0.00051047874,0.00017068753,-0.014449043,-0.016794885,-0.076497585,6251,6297,0
240735533,240735389,1114146,2228258,-0.0010112,-0.00058689393,0.00034659865,-0.008708818,-0.01202049,-0.06077451,4972,5038,0
241234044,241233432,1114146,2228258,-0.00073360186,-0.00032707708,0.00034165292,-0.00940376,-0.012169425,-0.03136058,5464,5035,0
241733291,241732976,1114146,2228258,0.0002823912,0.00088586385,-4.998193e-05,-0.0109096775,-0.010606561,-0.051108986,5007,5137,0
242730544,242730409,1114146,2228258,-0.0003996044,-0.000345962,0.00017633293,-0.008196373,-0.013191208,-0.046381578,4966,5032,0
243234475,243233303,1114146,2228258,0.0020941047,0.00066786894,-0.0006261879,-0.009864062,-0.013944264,-0.043451384,5425,6223,0
243731745,243731641,1114146,2228258,0.00044356775,-0.00061544497,-0.00035568472,-0.006569907,-0.014602386,-0.044808872,5709,5254,0
244230450,244230357,1114146,2228258,-0.00053413876,-0.0007875007,0.0011450676,-0.004648016,-0.011046918,-0.028936677,4989,4129,0
244733131,244732939,1114146,2228258,0.001154539,0.0017579772,0.00078716275,-0.00629429,-0.012476047,-0.058202688,5076,5676,0
245233039,245232872,1114146,2228258,-0.0069247913,0.00033897327,0.0013752957,-0.005796225,-0.006998682,-0.05339627,4950,4201,0
245731674,245730391,1114146,2228258,-0.0028231684,-0.00019990739,-6.0792268e-06,-0.003311137,0.0017114668,-0.040187247,4612,4552,0
246233184,246232919,1114146,2228258,9.30377e-05,0.0011567547,-0.0051218416,-0.012144649,-0.0052900477,-0.05691649,5017,5088,0
246733136,246732922,1114146,2228258,0.0036457046,-0.000313295,-0.023059072,-0.016454246,-0.07832524,-0.032562736,5029,5093,0
247230533,247230360,1114146,2228258,-0.0038871784,-0.0021513742,0.00042973875,0.022577463,-0.0039494117,-0.051739413,4991,5036,0
247730502,247730368,1114146,2228258,0.0014940647,-0.00021404703,0.00019487322,-0.002586246,-0.005776276,-0.05156605,4982,4984,0
248233148,248232972,1114146,2228258,0.00021010663,-5.321044e-05,-3.5084428e-05,-0.0032912584,-0.0027808694,-0.04070971,5020,4148,0
249230491,249230392,1114146,2228258,-8.077536e-07,-2.7642975e-05,-4.486604e-05,-0.0028305927,-0.0011526037,-0.041279778,4993,4193,0
249734447,249733015,1114146,2228258,3.0794774e-05,-3.8886068e-05,-3.7398782e-05,-0.0033905006,-0.0007888543,-0.0438362,4594,4454,0
250233225,250232944,1114146,2228258,-5.6070453e-06,2.4201265e-05,-2.3081271e-05,-0.00398232,-0.0016398116,-0.05621126,5071,5781,0
250730957,250730853,1114146,2228258,5.8990227e-06,1.5321932e-05,-3.331381e-05,-0.0031209714,-0.001770228,-0.04324015,5078,4504,0
251233112,251232872,1114146,2228258,4.316504e-05,-8.672719e-06,-2.4217645e-05,-0.004334125,-0.0036217477,-0.050172918,5004,5136,0
251734333,251732918,1114146,2228258,7.2790453e-06,-2.9160596e-05,-2.6189879e-05,-0.0037332082,-0.002557264,-0.050203037,4718,5062,0
