timestamp,states[0],states[1],states[2],states[3],states[4],states[5],states[6],states[7],states[8],states[9],states[10],states[11],states[12],states[13],states[14],states[15],states[16],states[17],states[18],states[19],states[20],states[21],states[22],states[23],vibe[0],vibe[1],vibe[2],covariances[0],covariances[1],covariances[2],covariances[3],covariances[4],covariances[5],covariances[6],covariances[7],covariances[8],covariances[9],covariances[10],covariances[11],covariances[12],covariances[13],covariances[14],covariances[15],covariances[16],covariances[17],covariances[18],covariances[19],covariances[20],covariances[21],covariances[22],covariances[23],output_tracking_error[0],output_tracking_error[1],output_tracking_error[2],control_mode_flags,pos_horiz_accuracy,pos_vert_accuracy,mag_test_ratio,vel_test_ratio,pos_test_ratio,hgt_test_ratio,tas_test_ratio,hagl_test_ratio,beta_test_ratio,time_slip,gps_check_fail_flags,filter_fault_flags,innovation_check_flags,solution_status_flags,n_states,pre_flt_fail_innov_heading,pre_flt_fail_innov_vel_horiz,pre_flt_fail_innov_vel_vert,pre_flt_fail_innov_height,pre_flt_fail_mag_field_disturbed,health_flags,timeout_flags
68222354,0.9553643,-0.007076812,0.0010011428,0.29534414,0.012637872,-0.030532723,0.038730253,-0.5721392,-0.062653966,0.020343387,2.5894915e-05,-1.9237914e-06,-1.9656742e-05,0.0,0.0,-0.000421644,0.25953838,0.0043878523,0.37517324,0.0,0.0,0.0,0.0,0.0,2.044232e-10,1.3429372e-05,0.0004842285,3.58605e-06,3.4099735e-06,3.4119269e-06,3.7072197e-05,0.00833919,0.008339234,0.010992507,0.032449458,0.032449458,0.15243895,1.9492026e-11,1.9495867e-11,3.8396678e-11,0.0,0.0,5.0000175e-08,0.0,0.0,0.0,0.0,0.0,0.0,0.0,0.0,0.00017894873,0.004235913,0.008337472,67240471,0.25475267,0.39043432,0.006666408,0.032167822,0.019148163,0.019148163,0.0,0.0,0.0,0.0,0,0,0,895,24,0,0,0,0,0,0,0
68432359,0.95538455,-0.007358018,0.00087665574,0.29527202,0.01626705,-0.030562514,0.038747363,-0.5642658,-0.07219945,0.023860939,2.5894355e-05,-1.912167e-06,-1.9573952e-05,0.0,0.0,-0.00042133578,0.25953838,0.0043878523,0.37517324,0.0,0.0,0.0,0.0,0.0,1.8485305e-10,1.2809375e-05,0.0004829927,3.582772e-06,3.418433e-06,3.4205545e-06,3.7023252e-05,0.008385343,0.008385394,0.011015814,0.032489825,0.03248982,0.15233965,1.9499066e-11,1.950283e-11,3.8287276e-11,0.0,0.0,5.0000175e-08,0.0,0.0,0.0,0.0,0.0,0.0,0.0,0.0,0.00024642528,0.0017818677,0.006442451,67240471,0.25491104,0.39030713,0.019733267,0.009839883,0.01873587,0.01873587,0.0,0.0,0.0,0.0,0,0,0,895,24,0,0,0,0,0,0,0
68632396,0.9553734,-0.0074332696,0.00094190333,0.29530597,0.009407116,-0.03086057,0.03878364,-0.5682092,-0.08344813,0.026581295,2.5844613e-05,-2.0149594e-06,-1.9570805e-05,0.0,0.0,-0.00042198153,0.25953838,0.0043878523,0.37517324,0.0,0.0,0.0,0.0,0.0,2.3383465e-10,1.2890893e-05,0.00049710827,3.5765377e-06,3.4173545e-06,3.4195175e-06,3.6945927e-05,0.008374187,0.008374246,0.010997919,0.032329146,0.03232914,0.15172866,1.9496028e-11,1.949972e-11,3.817024e-11,0.0,0.0,5e-08,0.0,0.0,0.0,0.0,0.0,0.0,0.0,0.0,0.00020881869,0.007438141,0.0091954125,67240471,0.25427994,0.38952363,0.011423644,0.05893342,0.017418558,0.017418558,0.0,0.0,0.0,0.0,0,0,0,895,24,0,0,0,0,0,0,0
68832358,0.9553499,-0.0070103593,0.0009856335,0.29539213,0.015021928,-0.023232695,0.03967671,-0.55670756,-0.08321796,0.030286124,2.579951e-05,-1.9089068e-06,-1.9637617e-05,0.0,0.0,-0.00042127422,0.25953838,0.0043878523,0.37517324,0.0,0.0,0.0,0.0,0.0,2.0694998e-10,1.2667474e-05,0.000499777,3.5691112e-06,3.4161646e-06,3.4180894e-06,3.6871028e-05,0.008360761,0.008360822,0.011035022,0.03216589,0.032165885,0.15302736,1.949289e-11,1.9496526e-11,3.8055527e-11,0.0,0.0,5.0000356e-08,0.0,0.0,0.0,0.0,0.0,0.0,0.0,0.0,0.00021197453,0.004349735,0.008800628,67240471,0.25363708,0.3911871,0.017720282,0.05048344,0.0178645,0.0178645,0.0,0.0,0.0,0.0,0,0,0,895,24,0,0,0,0,0,0,0
69032368,0.95526636,-0.0073377546,0.0008997248,0.29565474,0.013579991,-0.026829286,0.043937117,-0.5560085,-0.09364486,0.04471218,2.5795649e-05,-1.9632844e-06,-1.976917e-05,0.0,0.0,-0.00042392986,0.25953838,0.0043878523,0.37517324,0.0,0.0,0.0,0.0,0.0,2.0278983e-10,1.2239817e-05,0.0004847812,3.5638454e-06,3.4148409e-06,3.4169545e-06,3.6794667e-05,0.0083464915,0.008346554,0.011018275,0.031999957,0.031999957,0.15243779,1.9489719e-11,1.9493298e-11,3.7943086e-11,0.0,0.0,5.0000267e-08,0.0,0.0,0.0,0.0,0.0,0.0,0.0,0.0,0.0005470894,0.0039805267,0.0037722741,67240471,0.25298205,0.39043283,0.044682905,0.026891002,0.014339816,0.014339816,0.0,0.0,0.0,0.0,0,0,0,895,24,0,0,0,0,0,0,0
69222394,0.9552652,-0.007821421,0.0007056896,0.29564643,0.014222829,-0.025962777,0.03931336,-0.5497216,-0.10175764,0.034188073,2.5803234e-05,-1.9591055e-06,-1.9694698e-05,0.0,0.0,-0.00041744104,0.25953838,0.0043878523,0.37517324,0.0,0.0,0.0,0.0,0.0,2.2621297e-10,1.2174729e-05,0.0004722021,3.556526e-06,3.4040795e-06,3.4064915e-06,3.6689285e-05,0.008275883,0.00827595,0.010960713,0.0316325,0.0316325,0.15134302,1.9476597e-11,1.9480122e-11,3.7822887e-11,0.0,0.0,5e-08,0.0,0.0,0.0,0.0,0.0,0.0,0.0,0.0,0.00013071123,0.005880706,0.015736047,67240471,0.25152534,0.3890283,0.06580815,0.032312978,0.013827963,0.013827963,0.0,0.0,0.0,0.0,0,0,0,895,24,0,0,0,0,0,0,0
69432397,0.95524997,-0.0073132366,0.00087047723,0.29570818,0.016527325,-0.026251355,0.039905712,-0.542059,-0.11164468,0.037992436,2.5828838e-05,-1.9471834e-06,-1.9749914e-05,0.0,0.0,-0.000415985,0.25953838,0.0043878523,0.37517324,0.0,0.0,0.0,0.0,0.0,2.93143e-10,1.2734008e-05,0.00042687965,3.5520359e-06,3.412225e-06,3.41428e-06,3.6646572e-05,0.008318857,0.008318933,0.010984661,0.03167869,0.031678684,0.15128022,1.948347e-11,1.9486943e-11,3.7724872e-11,0.0,0.0,5e-08,0.0,0.0,0.0,0.0,0.0,0.0,0.0,0.0,0.000160924,0.0046752375,0.011917435,67240471,0.25170892,0.38894758,0.029342456,0.006778314,0.015383289,0.015383289,0.0,0.0,0.0,0.0,0,0,0,895,24,0,0,0,0,0,0,0
69632399,0.9552644,-0.007018803,0.0009480498,0.29566848,0.018579807,-0.02765015,0.040351767,-0.53651106,-0.1198146,0.046792552,2.5823398e-05,-1.9512447e-06,-1.9746796e-05,0.0,0.0,-0.00041705978,0.25953838,0.0043878523,0.37517324,0.0,0.0,0.0,0.0,0.0,2.900062e-10,1.2412272e-05,0.00043464766,3.5444448e-06,3.4109428e-06,3.4128072e-06,3.657582e-05,0.008305901,0.008305981,0.011022652,0.03152251,0.031522505,0.15260126,1.9480407e-11,1.9483823e-11,3.7619005e-11,0.0,0.0,5.0000352e-08,0.0,0.0,0.0,0.0,0.0,0.0,0.0,0.0,5.994091e-05,0.0024414677,0.0048567904,67240471,0.25108767,0.3906421,0.019827768,0.007890226,0.014585646,0.014585646,0.0,0.0,0.0,0.0,0,0,0,895,24,0,0,0,0,0,0,0
69832394,0.9552103,-0.007843388,0.00059131725,0.29582328,0.019242827,-0.021862764,0.038576692,-0.532184,-0.12078664,0.046806924,2.5750734e-05,-1.9260654e-06,-1.9758261e-05,0.0,0.0,-0.00041497548,0.25953838,0.0043878523,0.37517324,0.0,0.0,0.0,0.0,0.0,3.1444666e-10,1.3020441e-05,0.00043804236,3.541102e-06,3.4094942e-06,3.411923e-06,3.6501202e-05,0.008292237,0.008292318,0.0110059,0.031361636,0.031361632,0.1520302,1.9477303e-11,1.9480664e-11,3.751525e-11,0.0,0.0,5.0000178e-08,0.0,0.0,0.0,0.0,0.0,0.0,0.0,0.0,0.00013042617,0.004513981,0.008890954,67240471,0.25044614,0.3899105,0.040457033,0.039406646,0.011905296,0.011905296,0.0,0.0,0.0,0.0,0,0,0,895,24,0,0,0,0,0,0,0
70032353,0.95517856,-0.0074292542,0.00060494896,0.29593652,0.02199102,-0.02006934,0.033085663,-0.5256907,-0.12598418,0.04177233,2.5741547e-05,-1.9117501e-06,-1.9748022e-05,0.0,0.0,-0.00041021456,0.25953838,0.0043878523,0.37517324,0.0,0.0,0.0,0.0,0.0,6.652716e-10,1.4206453e-05,0.0004522442,3.5375222e-06,3.4080706e-06,3.4102288e-06,3.6428453e-05,0.008279019,0.0082791075,0.01098956,0.031196559,0.031196564,0.15147093,1.947417e-11,1.9477479e-11,3.7413548e-11,0.0,0.0,5.0000093e-08,0.0,0.0,0.0,0.0,0.0,0.0,0.0,0.0,0.00012750526,0.005088691,0.013164785,67240471,0.24978615,0.38919267,0.03337151,0.025088757,0.01200125,0.01200125,0.0,0.0,0.0,0.0,0,0,0,895,24,0,0,0,0,0,0,0
70232397,0.95546097,-0.006337017,0.0010781288,0.29504773,0.021976365,-0.019879403,0.028314868,-0.52042705,-0.13184384,0.03758004,2.5741709e-05,-1.9235808e-06,-1.9738507e-05,0.0,0.0,-0.00040808102,0.25953838,0.0043878523,0.37517324,0.0,0.0,0.0,0.0,0.0,1.6253832e-09,2.1416197e-05,0.0004767809,3.5103324e-06,3.4066977e-06,3.4081957e-06,3.638053e-05,0.008265914,0.008266005,0.011027344,0.031027652,0.031027656,0.15279914,1.9471069e-11,1.9474344e-11,3.731385e-11,0.0,0.0,5.0000352e-08,0.0,0.0,0.0,0.0,0.0,0.0,0.0,0.0,3.285094e-05,0.0039885505,0.012495483,131607,0.24910903,0.3908953,0.06984235,0.00866992,0.011146174,0.011146174,0.0,0.0,0.0,0.0,0,0,0,895,24,0,0,0,0,0,0,0
70432396,0.9553467,-0.0064630765,0.0012846936,0.29541373,0.03557983,-0.02535999,0.03691137,-0.5182996,-0.14473258,0.03390198,2.5776346e-05,-1.9955785e-06,-1.9827166e-05,0.0,0.0,-0.00040498818,0.25953838,0.0043878523,0.37517324,0.0,0.0,0.0,0.0,0.0,3.1309173e-09,2.8157385e-05,0.0005213984,3.5095181e-06,3.4053671e-06,3.4069037e-06,3.630663e-05,0.008247403,0.00824757,0.011011077,0.030865703,0.030865705,0.15224214,1.9468111e-11,1.9471362e-11,3.7216136e-11,0.0,0.0,5.0000267e-08,0.0,0.0,0.0,0.0,0.0,0.0,0.0,0.0,0.00035396655,0.0070347404,0.013215223,131607,0.24845806,0.3901822,0.0054788576,0.029045548,0.010773658,0.010773658,0.0,0.0,0.0,0.0,0,0,0,895,24,0,0,0,0,0,0,0
70632371,0.9554581,-0.006982522,0.0008377002,0.29504296,0.015934713,-0.026118964,0.029694319,-0.5135743,-0.15055476,0.032059755,2.5766783e-05,-1.9986333e-06,-1.9811734e-05,0.0,0.0,-0.0004020866,0.25953838,0.0043878523,0.37517324,0.0,0.0,0.0,0.0,0.0,2.6201892e-09,2.5884892e-05,0.00049164484,3.4950822e-06,3.4038585e-06,3.4057373e-06,3.6247155e-05,0.008235949,0.008236029,0.010993838,0.030699221,0.030699221,0.1516769,1.9465068e-11,1.9468293e-11,3.7120373e-11,0.0,0.0,5.0000093e-08,0.0,0.0,0.0,0.0,0.0,0.0,0.0,0.0,0.00020118855,0.004794115,0.009698857,131607,0.24778709,0.38945717,0.01021944,0.015507217,0.008883276,0.008883276,0.0,0.0,0.0,0.0,0,0,0,895,24,0,0,0,0,0,0,0
70832396,0.95537543,-0.0066725146,0.0009325221,0.2953174,0.022629058,-0.014249992,0.02593702,-0.50466263,-0.1532136,0.031104883,2.5755398e-05,-1.9543354e-06,-1.982878e-05,0.0,0.0,-0.00039964318,0.25953838,0.0043878523,0.37517324,0.0,0.0,0.0,0.0,0.0,2.0608e-09,2.2314292e-05,0.00049016287,3.4946752e-06,3.402604e-06,3.4043103e-06,3.6174853e-05,0.008224445,0.008224531,0.011030159,0.030539317,0.030539325,0.15299131,1.9462246e-11,1.9465431e-11,3.702652e-11,0.0,0.0,5.0000352e-08,0.0,0.0,0.0,0.0,0.0,0.0,0.0,0.0,7.150011e-05,0.002946572,0.0070748185,131607,0.24714093,0.39114103,0.012942517,0.018836228,0.0109257,0.0109257,0.0,0.0,0.0,0.0,0,0,0,895,24,0,0,0,0,0,0,0
71032396,0.9556094,-0.007188134,0.0019992893,0.2945421,0.019067375,-0.023180135,0.018595833,-0.50429493,-0.16742274,0.026581006,2.5802892e-05,-2.0536045e-06,-1.9794996e-05,0.0,0.0,-0.00039561282,0.25953838,0.0043878523,0.37517324,0.0,0.0,0.0,0.0,0.0,1.5121453e-09,1.9467127e-05,0.00048252134,3.471649e-06,3.4013842e-06,3.4032216e-06,3.612564e-05,0.008214193,0.00821428,0.011012447,0.030384505,0.030384516,0.1524162,1.94594e-11,1.9462543e-11,3.6934532e-11,0.0,0.0,5.0000267e-08,0.0,0.0,0.0,0.0,0.0,0.0,0.0,0.0,0.00017053177,0.00747863,0.011695443,131607,0.24651374,0.39040518,0.012262878,0.04088557,0.011447493,0.011447493,0.0,0.0,0.0,0.0,0,0,0,895,24,0,0,0,0,0,0,0
71232373,0.9554993,-0.007462018,0.0022745063,0.29489037,0.027483253,-0.023660617,0.021034935,-0.49637446,-0.17179188,0.024521057,2.579333e-05,-2.01579e-06,-1.9687217e-05,0.0,0.0,-0.00039348152,0.25953838,0.0043878523,0.37517324,0.0,0.0,0.0,0.0,0.0,1.1935262e-09,1.7823673e-05,0.0004763935,3.4774102e-06,3.400091e-06,3.4020413e-06,3.6048663e-05,0.008200715,0.00820082,0.010994874,0.030234385,0.030234404,0.15184619,1.945656e-11,1.9459647e-11,3.684439e-11,0.0,0.0,5.000009e-08,0.0,0.0,0.0,0.0,0.0,0.0,0.0,0.0,0.00041750647,0.0027636476,0.006033605,131607,0.24590403,0.38967445,0.008395736,0.018318895,0.011091921,0.011091921,0.0,0.0,0.0,0.0,0,0,0,895,24,0,0,0,0,0,0,0
71432369,0.9553208,-0.007994486,0.0017117464,0.295458,0.019915204,-0.020657463,0.011251336,-0.4917009,-0.1760021,0.011567373,2.5757412e-05,-2.007448e-06,-1.9652107e-05,0.0,0.0,-0.0003850178,0.25953838,0.0043878523,0.37517324,0.0,0.0,0.0,0.0,0.0,1.0421154e-09,1.6982473e-05,0.0004522165,3.485829e-06,3.3986698e-06,3.4010584e-06,3.5969897e-05,0.0081919525,0.008192041,0.010977437,0.030098319,0.030098338,0.15128104,1.9453744e-11,1.9456778e-11,3.6756057e-11,0.0,0.0,5e-08,0.0,0.0,0.0,0.0,0.0,0.0,0.0,0.0,0.00031496378,0.0062122094,0.013491956,131607,0.24535006,0.38894865,0.014684792,0.051222287,0.01209063,0.01209063,0.0,0.0,0.0,0.0,0,0,0,895,24,0,0,0,0,0,0,0
71632396,0.9554919,-0.008204416,0.002311456,0.29489425,0.0255284,-0.008753841,0.016273031,-0.4906349,-0.17425923,0.006736075,2.5671334e-05,-2.0038942e-06,-1.9615569e-05,0.0,0.0,-0.0003828584,0.25953838,0.0043878523,0.37517324,0.0,0.0,0.0,0.0,0.0,1.5538959e-09,2.0475143e-05,0.0006505805,3.467996e-06,3.3975318e-06,3.4000018e-06,3.5918252e-05,0.008178831,0.008178934,0.011014729,0.029964225,0.029964242,0.15260457,1.9451076e-11,1.9454063e-11,3.6669483e-11,0.0,0.0,5.0000356e-08,0.0,0.0,0.0,0.0,0.0,0.0,0.0,0.0,0.00027731847,0.006795063,0.0127759855,131607,0.24480292,0.39064634,0.038081937,0.038113013,0.008620387,0.008620387,0.0,0.0,0.0,0.0,0,0,0,895,24,0,0,0,0,0,0,0
71832396,0.9555533,-0.007502075,0.004439819,0.29468966,0.029193852,-0.013898445,0.013183468,-0.48604372,-0.18110521,0.010312285,2.5696514e-05,-2.019116e-06,-1.9579835e-05,0.0,0.0,-0.0003827751,0.25953838,0.0043878523,0.37517324,0.0,0.0,0.0,0.0,0.0,1.999405e-09,2.6599004e-05,0.0008124859,3.4585462e-06,3.396691e-06,3.3981191e-06,3.5859248e-05,0.00816996,0.008170087,0.010997657,0.029831225,0.029831246,0.15204088,1.9448214e-11,1.9451182e-11,3.6584635e-11,0.0,0.0,5.0000175e-08,0.0,0.0,0.0,0.0,0.0,0.0,0.0,0.0,0.00014476616,0.0016504005,0.0039612856,131607,0.24425901,0.3899242,0.030350843,0.009161151,0.01225131,0.01225131,0.0,0.0,0.0,0.0,0,0,0,895,24,0,0,0,0,0,0,0
72032367,0.955025,-0.008709929,0.004893467,0.2963572,0.02270149,-0.012770515,0.014497381,-0.48575464,-0.18376482,0.0061033657,2.5642781e-05,-2.0472796e-06,-1.9530553e-05,0.0,0.0,-0.00038148492,0.25953838,0.0043878523,0.37517324,0.0,0.0,0.0,0.0,0.0,2.0418478e-09,2.444594e-05,0.00077128975,3.4931916e-06,3.3954389e-06,3.3975564e-06,3.5756293e-05,0.0081595965,0.008159715,0.01098064,0.029709803,0.029709822,0.15148126,1.9445463e-11,1.9448412e-11,3.6501482e-11,0.0,0.0,5e-08,0.0,0.0,0.0,0.0,0.0,0.0,0.0,0.0,0.00021166657,0.0043047187,0.007870151,131607,0.2437614,0.38920593,0.034909267,0.024115914,0.012064321,0.012064321,0.0,0.0,0.0,0.0,0,0,0,895,24,0,0,0,0,0,0,0
72232392,0.9547209,-0.010781614,0.003932936,0.2972816,0.014427404,-0.012661557,0.011860559,-0.48612007,-0.19029522,0.0019620801,2.5628153e-05,-2.090668e-06,-1.9492914e-05,0.0,0.0,-0.0003793317,0.25953838,0.0043878523,0.37517324,0.0,0.0,0.0,0.0,0.0,2.7385016e-09,2.9442455e-05,0.0010252063,3.510275e-06,3.3936808e-06,3.3977676e-06,3.5671474e-05,0.008150593,0.008150703,0.01101671,0.02958844,0.029588455,0.15278956,1.9442788e-11,1.9445693e-11,3.6419995e-11,0.0,0.0,5.0000267e-08,0.0,0.0,0.0,0.0,0.0,0.0,0.0,0.0,0.00027952666,0.004666648,0.008469546,131607,0.24326302,0.39088306,0.019496901,0.01981029,0.013759009,0.013759009,0.0,0.0,0.0,0.0,0,0,0,895,24,0,0,0,0,0,0,0
72432350,0.95506096,-0.00899016,0.0039560013,0.2962468,0.0045180037,-0.008507677,0.0052165096,-0.48776537,-0.1958037,-0.0034190696,2.5623101e-05,-2.1197648e-06,-1.945614e-05,0.0,0.0,-0.0003758303,0.25953838,0.0043878523,0.37517324,0.0,0.0,0.0,0.0,0.0,2.5401574e-09,2.6885666e-05,0.0009228449,3.481552e-06,3.3925578e-06,3.3951949e-06,3.56356e-05,0.008143897,0.008144015,0.010996236,0.029476933,0.029476952,0.15217543,1.944021e-11,1.9443095e-11,3.6340125e-11,0.0,0.0,5.000009e-08,0.0,0.0,0.0,0.0,0.0,0.0,0.0,0.0,0.00025846803,0.0043303287,0.008413469,131607,0.24280421,0.3900967,0.06247228,0.020940198,0.014360686,0.014360686,0.0,0.0,0.0,0.0,0,0,0,895,24,0,0,0,0,0,0,0
72622402,0.9551492,-0.0071411636,0.0035746647,0.29601744,0.013351317,-0.010700817,0.0048710993,-0.48832372,-0.20118138,-0.010962202,2.5620582e-05,-2.131968e-06,-1.9447432e-05,0.0,0.0,-0.00037257568,0.25953838,0.0043878523,0.37517324,0.0,0.0,0.0,0.0,0.0,3.1747174e-09,3.255424e-05,0.0009537605,3.4680138e-06,3.3818371e-06,3.3833642e-06,3.5554684e-05,0.008076914,0.008077031,0.010990809,0.02916197,0.029161988,0.15295425,1.942761e-11,1.9430456e-11,3.6251873e-11,0.0,0.0,5.0000263e-08,0.0,0.0,0.0,0.0,0.0,0.0,0.0,0.0,0.00017561359,0.003513975,0.007664497,131607,0.24150354,0.39109367,0.07545614,0.01742021,0.01489017,0.01489017,0.0,0.0,0.0,0.0,0,0,0,895,24,0,0,0,0,0,0,0
72822447,0.955192,-0.010458208,0.0041964967,0.2957723,0.021772794,-0.01357036,0.005737905,-0.48204127,-0.20755734,-0.008327154,2.5660362e-05,-2.1080116e-06,-1.9398756e-05,0.0,0.0,-0.00037363003,0.25953838,0.0043878523,0.37517324,0.0,0.0,0.0,0.0,0.0,3.0802483e-09,3.107503e-05,0.0008964397,3.4585503e-06,3.3806737e-06,3.3843423e-06,3.5497964e-05,0.008068999,0.008069131,0.010971506,0.029057186,0.029057194,0.1523476,1.9425206e-11,1.9428001e-11,3.617518e-11,0.0,0.0,5.0000175e-08,0.0,0.0,0.0,0.0,0.0,0.0,0.0,0.0,0.0002520379,0.0030924883,0.0056208665,131607,0.24106924,0.3903173,0.032560408,0.022520028,0.015734259,0.015734259,0.0,0.0,0.0,0.0,0,0,0,895,24,0,0,0,0,0,0,0
73022347,0.95523494,-0.009401343,0.0031913936,0.29568166,-0.0014447519,-0.010421445,-0.0025507552,-0.4851861,-0.2110138,-0.005032332,2.5617242e-05,-2.1302058e-06,-1.938911e-05,0.0,0.0,-0.00037315793,0.25953838,0.0043878523,0.37517324,0.0,0.0,0.0,0.0,0.0,5.1181837e-09,3.6276975e-05,0.0010844123,3.4511108e-06,3.3790066e-06,3.3821307e-06,3.5443067e-05,0.008063697,0.008063843,0.010953049,0.028949635,0.02894965,0.15175398,1.9422481e-11,1.9425255e-11,3.6100033e-11,0.0,0.0,5.0000086e-08,0.0,0.0,0.0,0.0,0.0,0.0,0.0,0.0,0.00016750708,0.0021053152,0.009086473,131607,0.2406227,0.38955614,0.03086334,0.017491631,0.015786916,0.015786916,0.0,0.0,0.0,0.0,0,0,0,895,24,0,0,0,0,0,0,0
73232397,0.95545566,-0.005653027,0.0034539707,0.2950604,0.01139117,-0.012639383,0.003401532,-0.4835647,-0.21443406,-0.004783229,2.561815e-05,-2.1098033e-06,-1.9268433e-05,0.0,0.0,-0.00037237414,0.25953838,0.0043878523,0.37517324,0.0,0.0,0.0,0.0,0.0,4.354124e-09,3.6887097e-05,0.0012091046,3.4379318e-06,3.3875601e-06,3.3883146e-06,3.542607e-05,0.0081091,0.008109228,0.010975316,0.029050995,0.029051015,0.15167351,1.9430188e-11,1.943292e-11,3.603639e-11,0.0,0.0,5e-08,0.0,0.0,0.0,0.0,0.0,0.0,0.0,0.0,0.0003522216,0.0013355612,0.007036094,131607,0.24104358,0.38945284,0.048471976,0.011302388,0.0149858855,0.0149858855,0.0,0.0,0.0,0.0,0,0,0,895,24,0,0,0,0,0,0,0
73422349,0.95544875,-0.007055217,0.0032389523,0.29505518,0.013963638,-0.009544013,0.008342075,-0.48786208,-0.22425877,-0.0007112648,2.5632266e-05,-2.1882947e-06,-1.9230001e-05,0.0,0.0,-0.0003730361,0.25953838,0.0043878523,0.37517324,0.0,0.0,0.0,0.0,0.0,3.9118984e-09,3.3139266e-05,0.0010689002,3.431052e-06,3.3768608e-06,3.378411e-06,3.5340323e-05,0.008042917,0.008043038,0.010971685,0.028756568,0.028756589,0.1524655,1.9417853e-11,1.9420568e-11,3.5954236e-11,0.0,0.0,5.0000263e-08,0.0,0.0,0.0,0.0,0.0,0.0,0.0,0.0,0.00034035067,0.0051414696,0.012499472,131607,0.239819,0.39046833,0.019951886,0.0243341,0.016265469,0.016265469,0.0,0.0,0.0,0.0,0,0,0,895,24,0,0,0,0,0,0,0
73632396,0.9555158,-0.008659324,0.0038739825,0.2947874,0.012587661,-0.013529741,-0.00067873864,-0.48171735,-0.22994079,-0.008477295,2.5664724e-05,-2.1654016e-06,-1.9138344e-05,0.0,0.0,-0.00036877664,0.25953838,0.0043878523,0.37517324,0.0,0.0,0.0,0.0,0.0,3.417949e-09,2.9102463e-05,0.0008848031,3.425347e-06,3.3850383e-06,3.387428e-06,3.5314413e-05,0.008093366,0.008093485,0.010995082,0.028858203,0.028858231,0.15239738,1.9425418e-11,1.9428101e-11,3.5893517e-11,0.0,0.0,5.0000175e-08,0.0,0.0,0.0,0.0,0.0,0.0,0.0,0.0,0.00041257756,0.0032304258,0.0049268915,131607,0.24024245,0.39038107,0.06800241,0.024460008,0.015520997,0.015520997,0.0,0.0,0.0,0.0,0,0,0,895,24,0,0,0,0,0,0,0
73832399,0.95537835,-0.0063130152,0.0044754744,0.29528365,0.011384031,-0.0018566095,0.0010318398,-0.48384377,-0.23056649,-0.019258179,2.561051e-05,-2.1657638e-06,-1.9196237e-05,0.0,0.0,-0.000366076,0.25953838,0.0043878523,0.37517324,0.0,0.0,0.0,0.0,0.0,2.5597502e-09,2.5302279e-05,0.00080230815,3.4292357e-06,3.384105e-06,3.3849335e-06,3.5251385e-05,0.008083337,0.008083442,0.010976188,0.028765615,0.028765647,0.15179196,1.9423114e-11,1.9425789e-11,3.582423e-11,0.0,0.0,5e-08,0.0,0.0,0.0,0.0,0.0,0.0,0.0,0.0,3.2605192e-05,0.0020682218,0.005351991,131607,0.23985675,0.38960487,0.036305245,0.02758849,0.016000153,0.016000153,0.0,0.0,0.0,0.0,0,0,0,895,24,0,0,0,0,0,0,0
74032400,0.95533234,-0.0070970547,0.0040584616,0.2954209,0.008560126,-0.009042438,0.00368414,-0.48753196,-0.23838934,-0.014734085,2.561458e-05,-2.2186084e-06,-1.9148309e-05,0.0,0.0,-0.00036892467,0.25953838,0.0043878523,0.37517324,0.0,0.0,0.0,0.0,0.0,2.2549633e-09,2.3066354e-05,0.00072496256,3.4287189e-06,3.3828906e-06,3.3843062e-06,3.5192257e-05,0.008076738,0.008076843,0.011012698,0.028688198,0.028688224,0.1530893,1.942099e-11,1.9423659e-11,3.575637e-11,0.0,0.0,5.0000356e-08,0.0,0.0,0.0,0.0,0.0,0.0,0.0,0.0,0.00011223232,0.0038754938,0.008164932,131607,0.23953375,0.3912663,0.009806027,0.018804912,0.01852446,0.01852446,0.0,0.0,0.0,0.0,0,0,0,895,24,0,0,0,0,0,0,0
74232365,0.9551868,-0.008858156,0.0030082513,0.29585618,0.0066157896,-0.007864403,0.0026344461,-0.48628148,-0.24859798,-0.01760239,2.5668614e-05,-2.2386705e-06,-1.9156376e-05,0.0,0.0,-0.00036747448,0.25953838,0.0043878523,0.37517324,0.0,0.0,0.0,0.0,0.0,1.9480115e-09,2.1193087e-05,0.0006760598,3.4331667e-06,3.3815072e-06,3.3842907e-06,3.5128465e-05,0.008070531,0.0080706235,0.010994688,0.028613681,0.028613722,0.1524889,1.9418904e-11,1.942154e-11,3.5689857e-11,0.0,0.0,5.0000175e-08,0.0,0.0,0.0,0.0,0.0,0.0,0.0,0.0,0.00016761286,0.0043704673,0.008012826,131607,0.2392225,0.39049828,0.03776204,0.019581921,0.018216027,0.018216027,0.0,0.0,0.0,0.0,0,0,0,895,24,0,0,0,0,0,0,0
74432406,0.9553546,-0.007405333,0.0037096683,0.29534596,0.0038430823,-0.0038546594,0.0038819434,-0.4892149,-0.2552321,-0.017866114,2.5669184e-05,-2.2713302e-06,-1.9066409e-05,0.0,0.0,-0.00036694488,0.25953838,0.0043878523,0.37517324,0.0,0.0,0.0,0.0,0.0,1.7300656e-09,1.9626423e-05,0.0006054536,3.4193247e-06,3.3807185e-06,3.3823844e-06,3.5085075e-05,0.008063399,0.008063479,0.010977023,0.028541543,0.02854159,0.15189485,1.9416897e-11,1.9419515e-11,3.5624684e-11,0.0,0.0,5.000009e-08,0.0,0.0,0.0,0.0,0.0,0.0,0.0,0.0,0.00028735065,0.0036953406,0.0079105925,131607,0.23892076,0.3897369,0.013490365,0.008398386,0.019941976,0.019941976,0.0,0.0,0.0,0.0,0,0,0,895,24,0,0,0,0,0,0,0
74632352,0.9555972,-0.006259259,0.004401924,0.29457682,0.004034792,-0.010360404,-1.3649905e-05,-0.49161988,-0.26138094,-0.01793129,2.5673333e-05,-2.2948063e-06,-1.9014518e-05,0.0,0.0,-0.00036541227,0.25953838,0.0043878523,0.37517324,0.0,0.0,0.0,0.0,0.0,1.3499074e-09,1.8710221e-05,0.0005743215,3.398397e-06,3.3798767e-06,3.3807348e-06,3.5049277e-05,0.008058021,0.00805811,0.01101422,0.028471181,0.028471233,0.15319923,1.941485e-11,1.9417466e-11,3.5560832e-11,0.0,0.0,5.0000356e-08,0.0,0.0,0.0,0.0,0.0,0.0,0.0,0.0,0.000320421,0.002945313,0.00711174,131607,0.2386261,0.39140671,0.07673649,0.011747109,0.020396702,0.020396702,0.0,0.0,0.0,0.0,0,0,0,895,24,0,0,0,0,0,0,0
74832404,0.9555277,-0.007527073,0.004182699,0.29477566,0.0040187435,-0.009723773,0.003780515,-0.49014664,-0.26950955,-0.012566868,2.5714373e-05,-2.2957067e-06,-1.901059e-05,0.0,0.0,-0.00036857775,0.25953838,0.0043878523,0.37517324,0.0,0.0,0.0,0.0,0.0,1.0411998e-09,1.8485554e-05,0.0005152943,3.3979552e-06,3.3787283e-06,3.3803701e-06,3.4992816e-05,0.008050919,0.008050999,0.010997208,0.028402478,0.028402522,0.15260926,1.9412874e-11,1.9415487e-11,3.549828e-11,0.0,0.0,5.0000267e-08,0.0,0.0,0.0,0.0,0.0,0.0,0.0,0.0,0.00017392359,0.0045066383,0.011086133,131607,0.238338,0.39065236,0.07508244,0.020968184,0.017953467,0.017953467,0.0,0.0,0.0,0.0,0,0,0,895,24,0,0,0,0,0,0,0
75032410,0.95553225,-0.0074295793,0.0041342727,0.2947642,0.0017640265,-0.0069486643,0.007674455,-0.49143264,-0.2751259,-0.0057472195,2.5717023e-05,-2.3054995e-06,-1.8972389e-05,0.0,0.0,-0.00036973885,0.25953838,0.0043878523,0.37517324,0.0,0.0,0.0,0.0,0.0,9.515733e-10,1.7064875e-05,0.00049120444,3.393952e-06,3.3753945e-06,3.3770127e-06,3.494122e-05,0.008031938,0.008032013,0.010978031,0.02831162,0.02831166,0.15202595,1.9408383e-11,1.9410985e-11,3.5436994e-11,0.0,0.0,5.0000178e-08,0.0,0.0,0.0,0.0,0.0,0.0,0.0,0.0,0.0001259981,0.0035197567,0.012159474,67240471,0.23795646,0.38990507,0.03989189,0.0035579007,0.017635457,0.017635457,0.0,0.0,0.0,0.0,0,0,0,895,24,0,0,0,0,0,0,0
75232430,0.955571,-0.0064270166,0.0048716865,0.29465064,0.0031369312,-0.0047932975,0.012327075,-0.49391237,-0.28295636,0.00027468178,2.5737168e-05,-2.3413445e-06,-1.8995286e-05,0.0,0.0,-0.0003729197,0.25953838,0.0043878523,0.37517324,0.0,0.0,0.0,0.0,0.0,7.919867e-10,1.6709962e-05,0.0005519607,3.3855742e-06,3.375207e-06,3.3760532e-06,3.4894958e-05,0.008026748,0.008026815,0.011015258,0.028247414,0.028247451,0.15332969,1.9407167e-11,1.9409767e-11,3.537695e-11,0.0,0.0,5.0000356e-08,0.0,0.0,0.0,0.0,0.0,0.0,0.0,0.0,0.00012236739,0.004726112,0.01199855,67240471,0.23768649,0.39157334,0.043907866,0.021611575,0.018461386,0.018461386,0.0,0.0,0.0,0.0,0,0,0,895,24,0,0,0,0,0,0,0
75432396,0.95552534,-0.007087142,0.0046843383,0.294787,-0.0012091252,-0.008701708,0.008826453,-0.49926507,-0.28863975,0.00071060256,2.5722049e-05,-2.3786038e-06,-1.9038722e-05,0.0,0.0,-0.00037456994,0.25953838,0.0043878523,0.37517324,0.0,0.0,0.0,0.0,0.0,6.967597e-10,1.6835276e-05,0.0006701313,3.3822764e-06,3.374535e-06,3.3758574e-06,3.4843782e-05,0.008023775,0.008023851,0.010997857,0.028183904,0.028183937,0.15272973,1.9405812e-11,1.9408407e-11,3.5318137e-11,0.0,0.0,5.0000267e-08,0.0,0.0,0.0,0.0,0.0,0.0,0.0,0.0,0.000272935,0.0042037806,0.00899222,67240471,0.23741913,0.39080653,0.008651145,0.015534034,0.018174011,0.018174011,0.0,0.0,0.0,0.0,0,0,0,895,24,0,0,0,0,0,0,0
75632377,0.9555478,-0.0075940513,0.0046719527,0.29470158,-0.0078786155,-0.006503111,0.009926905,-0.5045118,-0.29570082,0.00683302,2.5726918e-05,-2.4238338e-06,-1.8878402e-05,0.0,0.0,-0.0003755527,0.25953838,0.0043878523,0.37517324,0.0,0.0,0.0,0.0,0.0,6.87307e-10,1.5896592e-05,0.0005850696,3.3809736e-06,3.3716447e-06,3.3733127e-06,3.4791326e-05,0.008008598,0.008008662,0.010977468,0.028107775,0.028107809,0.15212458,1.940191e-11,1.9404506e-11,3.5260513e-11,0.0,0.0,5.000009e-08,0.0,0.0,0.0,0.0,0.0,0.0,0.0,0.0,0.0004040058,0.004280906,0.010868252,67240471,0.23709826,0.39003152,0.0033808427,0.012062041,0.016133567,0.016133567,0.0,0.0,0.0,0.0,0,0,0,895,24,0,0,0,0,0,0,0
75832396,0.95556074,-0.0065165446,0.004861606,0.29468244,-0.014489332,-0.0014634435,0.010824727,-0.5126636,-0.29539227,0.015239334,2.5659729e-05,-2.4343215e-06,-1.8910012e-05,0.0,0.0,-0.00038014082,0.25953838,0.0043878523,0.37517324,0.0,0.0,0.0,0.0,0.0,5.636529e-10,1.50873775e-05,0.000539408,3.3746057e-06,3.3715755e-06,3.3726376e-06,3.4745357e-05,0.008007467,0.008007531,0.010960832,0.028056046,0.028056078,0.15153733,1.940106e-11,1.9403656e-11,3.5204072e-11,0.0,0.0,5e-08,0.0,0.0,0.0,0.0,0.0,0.0,0.0,0.0,0.00022866698,0.0060844156,0.012783505,67240471,0.23687997,0.38927796,0.008034703,0.030593943,0.016327376,0.016327376,0.0,0.0,0.0,0.0,0,0,0,895,24,0,0,0,0,0,0,0
76032399,0.95553595,-0.0066509326,0.0046803528,0.29476246,-0.012066167,-0.0023067098,0.013788299,-0.5163671,-0.29930755,0.01554731,2.567154e-05,-2.425961e-06,-1.8948645e-05,0.0,0.0,-0.00038109682,0.25953838,0.0043878523,0.37517324,0.0,0.0,0.0,0.0,0.0,5.301287e-10,1.512681e-05,0.0005209223,3.3703045e-06,3.3713045e-06,3.372527e-06,3.4697532e-05,0.008003176,0.008003243,0.010999126,0.028003339,0.028003372,0.1528459,1.940017e-11,1.9402762e-11,3.514879e-11,0.0,0.0,5.0000352e-08,0.0,0.0,0.0,0.0,0.0,0.0,0.0,0.0,0.00015091982,0.0028289424,0.0057948735,67240471,0.23665737,0.39095512,0.063686125,0.010757023,0.016728958,0.016728958,0.0,0.0,0.0,0.0,0,0,0,895,24,0,0,0,0,0,0,0
76232361,0.9554661,-0.007376286,0.004202843,0.29497886,-0.018755857,-0.003838688,0.008813609,-0.5242201,-0.30696633,0.005995923,2.5687552e-05,-2.4774445e-06,-1.898197e-05,0.0,0.0,-0.00037539413,0.25953838,0.0043878523,0.37517324,0.0,0.0,0.0,0.0,0.0,6.5403e-10,1.5708261e-05,0.0005116323,3.3693464e-06,3.3707947e-06,3.3726062e-06,3.464684e-05,0.007999874,0.007999946,0.010982528,0.027949536,0.027949562,0.15225585,1.939915e-11,1.9401737e-11,3.509464e-11,0.0,0.0,5.0000178e-08,0.0,0.0,0.0,0.0,0.0,0.0,0.0,0.0,0.00025069315,0.0035729764,0.008230366,67240471,0.2364299,0.39019975,0.04000189,0.033154525,0.017940154,0.017940154,0.0,0.0,0.0,0.0,0,0,0,895,24,0,0,0,0,0,0,0
76432400,0.9554395,-0.0065918695,0.0044206236,0.29508054,-0.019181954,0.0025555403,0.016118543,-0.5308996,-0.3162766,0.00646334,2.5726964e-05,-2.5180589e-06,-1.8885972e-05,0.0,0.0,-0.00037388282,0.25953838,0.0043878523,0.37517324,0.0,0.0,0.0,0.0,0.0,7.2678136e-10,1.6061553e-05,0.00046334206,3.3702352e-06,3.370537e-06,3.3718445e-06,3.4595545e-05,0.007992391,0.007992433,0.010966545,0.027894864,0.027894886,0.15167789,1.9398153e-11,1.9400731e-11,3.5041588e-11,0.0,0.0,5.0000093e-08,0.0,0.0,0.0,0.0,0.0,0.0,0.0,0.0,0.000247771,0.0044667153,0.007999602,67240471,0.23619854,0.38945845,0.0010036447,0.018365556,0.020383568,0.020383568,0.0,0.0,0.0,0.0,0,0,0,895,24,0,0,0,0,0,0,0
76632399,0.9554299,-0.006519761,0.0046612592,0.2951093,-0.02032175,-0.0008668294,0.012842925,-0.53319186,-0.32199147,0.0046172957,2.575925e-05,-2.4968394e-06,-1.88599e-05,0.0,0.0,-0.0003715702,0.25953838,0.0043878523,0.37517324,0.0,0.0,0.0,0.0,0.0,7.973277e-10,1.6115937e-05,0.0004898563,3.3671352e-06,3.3702268e-06,3.3714407e-06,3.454853e-05,0.007990149,0.00799021,0.011005061,0.02784923,0.027849255,0.15299238,1.9397102e-11,1.9399671e-11,3.4989636e-11,0.0,0.0,5.0000352e-08,0.0,0.0,0.0,0.0,0.0,0.0,0.0,0.0,0.00025128253,0.0041777533,0.0075322283,67240471,0.23600526,0.3911424,0.055752765,0.020627826,0.019630743,0.019630743,0.0,0.0,0.0,0.0,0,0,0,895,24,0,0,0,0,0,0,0
76832359,0.95532316,-0.0076080402,0.004561896,0.2954302,-0.022385793,0.00055389164,0.0025587096,-0.5386551,-0.32073957,-0.0018524633,2.5713554e-05,-2.4569915e-06,-1.8954976e-05,0.0,0.0,-0.0003664775,0.25953838,0.0043878523,0.37517324,0.0,0.0,0.0,0.0,0.0,6.51123e-10,1.5382524e-05,0.00047907847,3.3665472e-06,3.3696538e-06,3.3716003e-06,3.4499153e-05,0.007989278,0.007989353,0.010986346,0.027801298,0.027801316,0.15237305,1.9395943e-11,1.9398502e-11,3.4938767e-11,0.0,0.0,5.0000093e-08,0.0,0.0,0.0,0.0,0.0,0.0,0.0,0.0,0.00022583244,0.005530295,0.009985148,67240471,0.23580207,0.3903499,0.115873,0.03604536,0.017539581,0.017539581,0.0,0.0,0.0,0.0,0,0,0,895,24,0,0,0,0,0,0,0
77632383,0.9554845,-0.0075150025,0.0044855764,0.29491168,-0.018223396,-0.0021786988,0.004082559,-0.5457932,-0.34361872,0.008128547,2.5885163e-05,-2.387935e-06,-1.8744147e-05,0.0,0.0,-0.00037195935,0.25953838,0.0043878523,0.37517324,0.0,0.0,0.0,0.0,0.0,4.5749582e-10,1.311673e-05,0.00047380693,3.3443346e-06,3.3676176e-06,3.369543e-06,3.433019e-05,0.007977113,0.007977193,0.010967693,0.02764381,0.027643822,0.15180165,1.9391367e-11,1.939387e-11,3.474555e-11,0.0,0.0,5e-08,0.0,0.0,0.0,0.0,0.0,0.0,0.0,0.0,0.0003613117,0.0044930778,0.009563599,67240471,0.23513322,0.3896173,0.06727288,0.026057793,0.017635165,0.017635165,0.0,0.0,0.0,0.0,0,0,0,895,24,0,0,0,0,0,0,0
77832384,0.95550764,-0.006883888,0.0046999,0.2948488,-0.017041977,-0.0007687166,0.0056244885,-0.5486178,-0.3469353,0.008092206,2.5899975e-05,-2.3588398e-06,-1.8745599e-05,0.0,0.0,-0.0003733519,0.25953838,0.0043878523,0.37517324,0.0,0.0,0.0,0.0,0.0,5.509268e-09,6.13447e-05,0.0020247959,3.338532e-06,3.367148e-06,3.3686492e-06,3.429007e-05,0.007973601,0.007973684,0.011005613,0.02761086,0.027610874,0.15310213,1.9390201e-11,1.9392684e-11,3.4699722e-11,0.0,0.0,5.0000352e-08,0.0,0.0,0.0,0.0,0.0,0.0,0.0,0.0,0.00022500602,0.0034301684,0.0060204403,131607,0.23499306,0.39128268,0.03001779,0.020016486,0.01784101,0.01784101,0.0,0.0,0.0,0.0,0,0,0,895,24,0,0,0,0,0,0,0
78032400,0.9555787,-0.0074620326,0.004433442,0.29460815,-0.018669276,-0.0039373403,0.0062419465,-0.556187,-0.35334793,0.0071420465,2.5911517e-05,-2.3998352e-06,-1.8543135e-05,0.0,0.0,-0.00037334027,0.25953838,0.0043878523,0.37517324,0.0,0.0,0.0,0.0,0.0,8.467622e-09,0.00012548138,0.0036045746,3.335793e-06,3.3664483e-06,3.3683991e-06,3.4246983e-05,0.007969378,0.007969467,0.010988579,0.02757346,0.02757347,0.15249833,1.9389032e-11,1.939149e-11,3.4654852e-11,0.0,0.0,5.0000178e-08,0.0,0.0,0.0,0.0,0.0,0.0,0.0,0.0,0.00067826523,0.0021893734,0.003996192,131607,0.23483384,0.39051035,0.069637805,0.008755533,0.01670646,0.01670646,0.0,0.0,0.0,0.0,0,0,0,895,24,0,0,0,0,0,0,0
78232396,0.95558953,-0.007952941,0.0043365634,0.29456168,-0.01873961,4.8345864e-05,0.0029577347,-0.5574312,-0.3558635,0.005139117,2.5921441e-05,-2.3616606e-06,-1.8347548e-05,0.0,0.0,-0.00037206223,0.25953838,0.0043878523,0.37517324,0.0,0.0,0.0,0.0,0.0,8.11428e-09,0.00012098637,0.0033054776,3.3371089e-06,3.3659587e-06,3.3682659e-06,3.4200442e-05,0.007967366,0.007967458,0.010971749,0.027542474,0.027542485,0.15190125,1.9388026e-11,1.9390461e-11,3.461091e-11,0.0,0.0,5e-08,0.0,0.0,0.0,0.0,0.0,0.0,0.0,0.0,0.0010241151,0.0018580653,0.0019900578,131607,0.23470186,0.38974512,0.061703775,0.022287304,0.016930802,0.016930802,0.0,0.0,0.0,0.0,0,0,0,895,24,0,0,0,0,0,0,0
78432399,0.95578486,-0.0068821358,0.005430223,0.29393634,-0.0132398745,-0.0024027727,0.009774479,-0.5603605,-0.36408618,0.016279181,2.5982226e-05,-2.3832615e-06,-1.813476e-05,0.0,0.0,-0.00037625592,0.25953838,0.0043878523,0.37517324,0.0,0.0,0.0,0.0,0.0,6.2381447e-09,9.838592e-05,0.0028930276,3.3261153e-06,3.365845e-06,3.367135e-06,3.4167388e-05,0.007962399,0.0079625035,0.011008303,0.027506625,0.027506635,0.1531841,1.9387039e-11,1.938944e-11,3.4567883e-11,0.0,0.0,5.0000267e-08,0.0,0.0,0.0,0.0,0.0,0.0,0.0,0.0,0.0011988562,0.0043246937,0.009437584,131607,0.23454906,0.3913874,0.03676287,0.023170555,0.01635014,0.01635014,0.0,0.0,0.0,0.0,0,0,0,895,24,0,0,0,0,0,0,0
78632399,0.9558625,-0.006978869,0.0052237366,0.29368532,-0.012507414,-0.007966584,0.008793314,-0.5618662,-0.37149835,0.01837474,2.6032474e-05,-2.3809891e-06,-1.7895958e-05,0.0,0.0,-0.00037708355,0.25953838,0.0043878523,0.37517324,0.0,0.0,0.0,0.0,0.0,4.961669e-09,8.3914165e-05,0.0028268564,3.3243082e-06,3.3652132e-06,3.366621e-06,3.4125434e-05,0.007959635,0.007959747,0.010988285,0.027476583,0.0274766,0.15253645,1.9385932e-11,1.9388295e-11,3.4525768e-11,0.0,0.0,5.0000093e-08,0.0,0.0,0.0,0.0,0.0,0.0,0.0,0.0,0.0012528843,0.0042902688,0.007285982,131607,0.23442094,0.39055917,0.023293527,0.018715432,0.01565393,0.01565393,0.0,0.0,0.0,0.0,0,0,0,895,24,0,0,0,0,0,0,0
78832396,0.9559398,-0.00762873,0.0049764095,0.29342154,-0.016495727,-0.008415741,0.008846007,-0.5668313,-0.37777713,0.026600873,2.6049713e-05,-2.3978982e-06,-1.7691344e-05,0.0,0.0,-0.00037989617,0.25953838,0.0043878523,0.37517324,0.0,0.0,0.0,0.0,0.0,4.087406e-09,7.580342e-05,0.0027693135,3.3210813e-06,3.3646118e-06,3.3665028e-06,3.408523e-05,0.007957872,0.007957971,0.011024187,0.027451541,0.027451558,0.15381202,1.9384914e-11,1.9387237e-11,3.4484537e-11,0.0,0.0,5.0000352e-08,0.0,0.0,0.0,0.0,0.0,0.0,0.0,0.0,0.0011395734,0.003267997,0.008002762,131607,0.2343141,0.39218876,0.08205044,0.015129846,0.0154786715,0.0154786715,0.0,0.0,0.0,0.0,0,0,0,895,24,0,0,0,0,0,0,0
79032372,0.9560807,-0.007084212,0.005245481,0.2929713,-0.01493906,-0.006913145,0.006810904,-0.5673147,-0.386112,0.02686638,2.610818e-05,-2.3832395e-06,-1.748645e-05,0.0,0.0,-0.00038105846,0.25953838,0.0043878523,0.37517324,0.0,0.0,0.0,0.0,0.0,3.3061613e-09,6.820175e-05,0.002668696,3.313694e-06,3.3642114e-06,3.365663e-06,3.405024e-05,0.00795558,0.007955672,0.011005348,0.027420778,0.027420798,0.15317355,1.9383916e-11,1.9386198e-11,3.4444166e-11,0.0,0.0,5.0000267e-08,0.0,0.0,0.0,0.0,0.0,0.0,0.0,0.0,0.0011094906,0.0040823664,0.006171994,131607,0.23418279,0.39137393,0.0494364,0.026358621,0.018497523,0.018497523,0.0,0.0,0.0,0.0,0,0,0,895,24,0,0,0,0,0,0,0
79232371,0.95622784,-0.0072251745,0.005325385,0.29248556,-0.0118415905,-0.012339912,0.012408963,-0.567078,-0.39550114,0.02083627,2.6172575e-05,-2.371972e-06,-1.7215805e-05,0.0,0.0,-0.00037977035,0.25953838,0.0043878523,0.37517324,0.0,0.0,0.0,0.0,0.0,2.584319e-09,6.19275e-05,0.002586338,3.3077515e-06,3.363716e-06,3.3652004e-06,3.4014083e-05,0.007949376,0.007949468,0.010987488,0.027394876,0.027394904,0.15255041,1.9382903e-11,1.9385143e-11,3.440465e-11,0.0,0.0,5.0000178e-08,0.0,0.0,0.0,0.0,0.0,0.0,0.0,0.0,0.0013540855,0.00493865,0.008926281,131607,0.23407218,0.39057702,0.039007023,0.027107166,0.017981116,0.017981116,0.0,0.0,0.0,0.0,0,0,0,895,24,0,0,0,0,0,0,0
79432396,0.9563534,-0.0076638944,0.005035452,0.2920689,-0.01046873,-0.011889346,0.00785893,-0.56828624,-0.4020029,0.016919184,2.6193835e-05,-2.357298e-06,-1.6879472e-05,0.0,0.0,-0.00037902806,0.25953838,0.0043878523,0.37517324,0.0,0.0,0.0,0.0,0.0,2.8179201e-09,6.6965426e-05,0.0028922611,3.3055455e-06,3.3631086e-06,3.3649565e-06,3.3974695e-05,0.007947496,0.007947587,0.010969566,0.027363308,0.027363334,0.15192915,1.9381944e-11,1.938414e-11,3.4365965e-11,0.0,0.0,5e-08,0.0,0.0,0.0,0.0,0.0,0.0,0.0,0.0,0.0016493282,0.0033055386,0.008070128,131607,0.23393726,0.3897809,0.08884815,0.01735735,0.017023385,0.017023385,0.0,0.0,0.0,0.0,0,0,0,895,24,0,0,0,0,0,0,0
79632396,0.95650995,-0.00714124,0.0052094697,0.2915661,-0.017836306,-0.011706783,0.008129247,-0.5769565,-0.4081806,0.01931365,2.6172356e-05,-2.4022193e-06,-1.6618644e-05,0.0,0.0,-0.0003793624,0.25953838,0.0043878523,0.37517324,0.0,0.0,0.0,0.0,0.0,3.2365857e-09,7.409815e-05,0.0029111109,3.2988683e-06,3.3625984e-06,3.3641077e-06,3.3940705e-05,0.0079430705,0.007943155,0.011007333,0.027326608,0.027326634,0.15322141,1.938094e-11,1.9383103e-11,3.4328086e-11,0.0,0.0,5.0000352e-08,0.0,0.0,0.0,0.0,0.0,0.0,0.0,0.0,0.0015694165,0.0022353071,0.0040936973,131607,0.23378032,0.39143506,0.046118237,0.017139906,0.017399183,0.017399183,0.0,0.0,0.0,0.0,0,0,0,895,24,0,0,0,0,0,0,0
80032399,0.95658076,-0.0076687513,0.0046271062,0.29132998,-0.01524471,-0.009911343,0.010286811,-0.57961833,-0.4174127,0.026705137,2.6196763e-05,-2.3509137e-06,-1.6230559e-05,0.0,0.0,-0.00038114912,0.25953838,0.0043878523,0.37517324,0.0,0.0,0.0,0.0,0.0,3.4984557e-09,8.247502e-05,0.0031297419,3.2977887e-06,3.3614183e-06,3.3634294e-06,3.386154e-05,0.007934603,0.007934684,0.010972319,0.02725092,0.027250944,0.15198742,1.9379113e-11,1.938118e-11,3.4254738e-11,0.0,0.0,5e-08,0.0,0.0,0.0,0.0,0.0,0.0,0.0,0.0,0.00085212605,0.0026848407,0.0036933916,131607,0.23345634,0.38985562,0.095456526,0.0164377,0.0129808085,0.0129808085,0.0,0.0,0.0,0.0,0,0,0,895,24,0,0,0,0,0,0,0
80232399,0.95673984,-0.0081458045,0.0044291094,0.29079705,-0.010966925,-0.0051545464,0.013153564,-0.5767991,-0.41607377,0.029210849,2.6183094e-05,-2.265227e-06,-1.5932492e-05,0.0,0.0,-0.00038098794,0.25953838,0.0043878523,0.37517324,0.0,0.0,0.0,0.0,0.0,3.7549395e-09,8.850295e-05,0.0032382344,3.2916637e-06,3.360898e-06,3.3632834e-06,3.3828157e-05,0.007929207,0.007929291,0.011009392,0.027211612,0.02721165,0.1532705,1.937826e-11,1.9380296e-11,3.4219214e-11,0.0,0.0,5.0000352e-08,0.0,0.0,0.0,0.0,0.0,0.0,0.0,0.0,0.0011358282,0.0068768,0.009980782,131607,0.23328793,0.39149776,0.08233973,0.03404573,0.011926336,0.011926336,0.0,0.0,0.0,0.0,0,0,0,895,24,0,0,0,0,0,0,0
80432363,0.95688736,-0.007670234,0.0046617016,0.2903206,-0.010075372,-0.006546175,0.009977289,-0.58067983,-0.42281687,0.032100406,2.6203892e-05,-2.3006949e-06,-1.556375e-05,0.0,0.0,-0.00037949815,0.25953838,0.0043878523,0.37517324,0.0,0.0,0.0,0.0,0.0,4.8642588e-09,0.00010366845,0.0035388018,3.2891435e-06,3.360616e-06,3.3626216e-06,3.379219e-05,0.007927183,0.007927279,0.010991997,0.027178554,0.027178586,0.15265247,1.9377515e-11,1.937952e-11,3.4184443e-11,0.0,0.0,5.0000178e-08,0.0,0.0,0.0,0.0,0.0,0.0,0.0,0.0,0.0017680844,0.0020627426,0.0033781158,131607,0.23314618,0.39070764,0.11736364,0.014774474,0.012682121,0.012682121,0.0,0.0,0.0,0.0,0,0,0,895,24,0,0,0,0,0,0,0
80632397,0.9570758,-0.0072419164,0.004697908,0.2897094,-0.015228932,-0.0041719275,0.0053047566,-0.58510864,-0.426566,0.027908858,2.6192936e-05,-2.3160724e-06,-1.5047966e-05,0.0,0.0,-0.00037792945,0.25953838,0.0043878523,0.37517324,0.0,0.0,0.0,0.0,0.0,1.0268033e-08,0.00017016975,0.00493178,3.2885644e-06,3.3603544e-06,3.3621068e-06,3.3754797e-05,0.007926236,0.007926329,0.010974956,0.027150922,0.027150953,0.15204233,1.937685e-11,1.9378827e-11,3.4150408e-11,0.0,0.0,5.000009e-08,0.0,0.0,0.0,0.0,0.0,0.0,0.0,0.0,0.0025479787,0.002816331,0.0064494535,131607,0.23302762,0.38992605,0.15249301,0.007978006,0.012774349,0.012774349,0.0,0.0,0.0,0.0,0,0,0,895,24,0,0,0,0,0,0,0
80832396,0.95736265,-0.0065391413,0.0049193264,0.28877285,-0.013386252,-0.0045858338,0.008997592,-0.5883172,-0.42670318,0.033391643,2.6159294e-05,-2.3139098e-06,-1.4359633e-05,0.0,0.0,-0.0003808856,0.25953838,0.0043878523,0.37517324,0.0,0.0,0.0,0.0,0.0,1.3666238e-08,0.00023085803,0.0057091336,3.2865748e-06,3.3600677e-06,3.3613728e-06,3.371937e-05,0.0079225255,0.007922622,0.011013181,0.027117608,0.02711764,0.15334173,1.9376114e-11,1.9378043e-11,3.4117112e-11,0.0,0.0,5.0000345e-08,0.0,0.0,0.0,0.0,0.0,0.0,0.0,0.0,0.0034249632,0.003377897,0.0055082985,131607,0.23288463,0.39158872,0.1501115,0.017815474,0.008807704,0.008807704,0.0,0.0,0.0,0.0,0,0,0,895,24,0,0,0,0,0,0,0
81032371,0.9576835,-0.007191759,0.0047268984,0.28769466,-0.012642632,-0.0040606447,0.006862222,-0.5872206,-0.4308055,0.029694185,2.618729e-05,-2.3015748e-06,-1.3519296e-05,0.0,0.0,-0.00038039178,0.25953838,0.0043878523,0.37517324,0.0,0.0,0.0,0.0,0.0,1.7504975e-08,0.00027662524,0.0059823655,3.2864561e-06,3.359712e-06,3.3614344e-06,3.3682038e-05,0.007920449,0.007920543,0.010996761,0.0270898,0.027089832,0.15273753,1.9375472e-11,1.937736e-11,3.4084523e-11,0.0,0.0,5.0000263e-08,0.0,0.0,0.0,0.0,0.0,0.0,0.0,0.0,0.0043020835,0.0016108048,0.0048089153,131607,0.23276518,0.39081648,0.2026208,0.019062534,0.008827087,0.008827087,0.0,0.0,0.0,0.0,0,0,0,895,24,0,0,0,0,0,0,0
81232366,0.95813644,-0.008180806,0.0044573275,0.28616056,-0.009783009,-0.0058464045,0.00979518,-0.59056365,-0.4354804,0.030757373,2.6193933e-05,-2.3372281e-06,-1.2663874e-05,0.0,0.0,-0.00038252637,0.25953838,0.0043878523,0.37517324,0.0,0.0,0.0,0.0,0.0,1.7863766e-08,0.00027373337,0.006825855,3.276729e-06,3.3593683e-06,3.3617878e-06,3.3654604e-05,0.007917749,0.007917854,0.010981045,0.027066657,0.027066689,0.15214667,1.9374896e-11,1.9376745e-11,3.4052622e-11,0.0,0.0,5.000017e-08,0.0,0.0,0.0,0.0,0.0,0.0,0.0,0.0,0.0046891365,0.0009131769,0.0027363228,131607,0.23266575,0.39005983,0.1817302,0.015233864,0.0073016323,0.0073016323,0.0,0.0,0.0,0.0,0,0,0,895,24,0,0,0,0,0,0,0
81432362,0.9586485,-0.008003249,0.0044343267,0.2844458,-0.011393293,-0.0028363948,0.013173993,-0.58663756,-0.43344423,0.029094467,2.6189078e-05,-2.2774302e-06,-1.1797471e-05,0.0,0.0,-0.00038346113,0.25953838,0.0043878523,0.37517324,0.0,0.0,0.0,0.0,0.0,1.7977186e-08,0.0002997898,0.007836879,3.2632313e-06,3.3591168e-06,3.3614117e-06,3.363194e-05,0.007914601,0.007914692,0.01101878,0.027047254,0.02704728,0.15344153,1.9374261e-11,1.9376063e-11,3.4021386e-11,0.0,0.0,5.0000345e-08,0.0,0.0,0.0,0.0,0.0,0.0,0.0,0.0,0.0047309077,0.0039263587,0.007976856,131607,0.23258232,0.39171615,0.23559092,0.027237155,0.0053100227,0.0053100227,0.0,0.0,0.0,0.0,0,0,0,895,24,0,0,0,0,0,0,0
81632369,0.9589888,-0.008438589,0.0041245995,0.28328848,-0.0141340885,-0.0051605958,0.015312947,-0.59277004,-0.43564922,0.033747897,2.6158732e-05,-2.3429516e-06,-1.0976235e-05,0.0,0.0,-0.00038469132,0.25953838,0.0043878523,0.37517324,0.0,0.0,0.0,0.0,0.0,2.154729e-08,0.00029581386,0.010498538,3.2602227e-06,3.3586502e-06,3.3613192e-06,3.3598946e-05,0.007911308,0.0079114055,0.011001935,0.02702112,0.027021144,0.1528307,1.937356e-11,1.9375302e-11,3.3990793e-11,0.0,0.0,5.0000263e-08,0.0,0.0,0.0,0.0,0.0,0.0,0.0,0.0,0.004563977,0.0028547538,0.004138928,131607,0.23246992,0.3909357,0.21068189,0.029445453,0.0037737247,0.0037737247,0.0,0.0,0.0,0.0,0,0,0,895,24,0,0,0,0,0,0,0
81832381,0.95919585,-0.009803503,0.0031729555,0.28255475,-0.0033505424,0.0067206137,0.0134759955,-0.5896846,-0.43283522,0.0356721,2.613924e-05,-2.3018936e-06,-1.0127397e-05,0.0,0.0,-0.00038691735,0.25953838,0.0043878523,0.37517324,0.0,0.0,0.0,0.0,0.0,2.7845985e-08,0.00033342227,0.012395047,3.2671533e-06,3.358159e-06,3.3620151e-06,3.355591e-05,0.007910612,0.007910745,0.01098498,0.026999455,0.026999481,0.15222102,1.9372996e-11,1.9374675e-11,3.396084e-11,0.0,0.0,5.000009e-08,0.0,0.0,0.0,0.0,0.0,0.0,0.0,0.0,0.00453307,0.0038211884,0.007958474,131607,0.23237671,0.39015514,0.22631069,0.019845128,0.010111295,0.010111295,0.0,0.0,0.0,0.0,0,0,0,895,24,0,0,0,0,0,0,0
83232396,0.9631011,-0.005412749,0.003984951,0.269056,-0.0059701838,0.012447046,0.007227412,-0.5704697,-0.4214626,0.020376284,2.6145875e-05,-2.376853e-06,-2.1425183e-06,0.0,0.0,-0.00038833488,0.25953838,0.0043878523,0.37517324,0.0,0.0,0.0,0.0,0.0,4.9188206e-08,0.00042757552,0.014532247,3.196718e-06,3.3567837e-06,3.3576043e-06,3.3390148e-05,0.007893477,0.007893586,0.010985709,0.026819661,0.026819702,0.15184589,1.936926e-11,1.9370599e-11,3.3767548e-11,0.0,0.0,5e-08,0.0,0.0,0.0,0.0,0.0,0.0,0.0,0.0,0.0074303187,0.003012989,0.0076316665,131607,0.23160173,0.38967407,0.39217103,0.02029112,0.016522223,0.016522223,0.0,0.0,0.0,0.0,0,0,0,895,24,0,0,0,0,0,0,0
84232369,0.96625745,-0.0064486293,0.002096426,0.25748897,-0.0012525409,0.00839025,0.0104295695,-0.5703839,-0.4123462,0.044092555,2.6079664e-05,-2.6406706e-06,5.6874e-06,0.0,0.0,-0.000406233,0.25953838,0.0043878523,0.37517324,0.0,0.0,0.0,0.0,0.0,5.9030118e-08,0.00047192944,0.010824586,3.1671693e-06,3.3547667e-06,3.3563765e-06,3.3253345e-05,0.007878432,0.007878539,0.011028924,0.026674539,0.026674578,0.15270618,1.9366526e-11,1.936756e-11,3.3643945e-11,0.0,0.0,5.000028e-08,0.0,0.0,0.0,0.0,0.0,0.0,0.0,0.0,0.009176508,0.0035405208,0.0075945472,131607,0.23097427,0.39077637,0.42935452,0.022061655,0.0090220515,0.0090220515,0.0,0.0,0.0,0.0,0,0,0,895,24,0,0,0,0,0,0,0
84432400,0.9670607,-0.006275086,0.0025966705,0.25445524,-0.0070429654,-0.002120907,0.0045745904,-0.5741453,-0.4108376,0.03708796,2.604706e-05,-2.6987923e-06,7.349141e-06,0.0,0.0,-0.0004086063,0.25953838,0.0043878523,0.37517324,0.0,0.0,0.0,0.0,0.0,5.2975405e-08,0.00046043517,0.00999457,3.1480483e-06,3.3545748e-06,3.3560357e-06,3.323881e-05,0.007877847,0.007877914,0.01101587,0.026647257,0.02664729,0.15210268,1.9366082e-11,1.9367065e-11,3.3620377e-11,0.0,0.0,5e-08,0.0,0.0,0.0,0.0,0.0,0.0,0.0,0.0,0.009161125,0.004209255,0.0055690473,131607,0.23085612,0.39000344,0.4321632,0.02096732,0.005744215,0.005744215,0.0,0.0,0.0,0.0,0,0,0,895,24,0,0,0,0,0,0,0
84632396,0.9678315,-0.0074229157,0.0020247407,0.25148168,-0.0074597183,0.0018618132,0.0043838588,-0.5726802,-0.41201845,0.05055918,2.6062444e-05,-2.7183714e-06,8.99373e-06,0.0,0.0,-0.00041606222,0.25953838,0.0043878523,0.37517324,0.0,0.0,0.0,0.0,0.0,5.170996e-08,0.00043842386,0.009097054,3.1292802e-06,3.3542292e-06,3.3563576e-06,3.3223147e-05,0.007875842,0.007875919,0.011057049,0.02661444,0.026614476,0.15338479,1.93657e-11,1.9366644e-11,3.359711e-11,0.0,0.0,5.0000253e-08,0.0,0.0,0.0,0.0,0.0,0.0,0.0,0.0,0.0090433955,0.0018960371,0.009396115,131607,0.23071392,0.3916437,0.43777815,0.02628819,0.007256222,0.007256222,0.0,0.0,0.0,0.0,0,0,0,895,24,0,0,0,0,0,0,0
84832356,0.9686805,-0.007121377,0.0020858033,0.24819994,-0.0054615964,0.005852034,0.010691974,-0.57367814,-0.4123553,0.053707484,2.6055763e-05,-2.7572364e-06,1.0595868e-05,0.0,0.0,-0.00041857647,0.25953838,0.0043878523,0.37517324,0.0,0.0,0.0,0.0,0.0,5.1959713e-08,0.00044858,0.008795892,3.102353e-06,3.3540052e-06,3.3559313e-06,3.321579e-05,0.0078698695,0.007869963,0.011043687,0.02658662,0.026586652,0.15275683,1.9365287e-11,1.9366191e-11,3.35741e-11,0.0,0.0,5.000012e-08,0.0,0.0,0.0,0.0,0.0,0.0,0.0,0.0,0.008842944,0.0014796794,0.0049586594,131607,0.23059331,0.3908412,0.41391033,0.007937665,0.0066481256,0.0066481256,0.0,0.0,0.0,0.0,0,0,0,895,24,0,0,0,0,0,0,0
85032401,0.9694513,-0.0070223925,0.0013549703,0.2451798,-0.0070740227,-0.0034646122,0.0022969774,-0.57311183,-0.41230217,0.05334975,2.6046147e-05,-2.7802796e-06,1.2179839e-05,0.0,0.0,-0.0004229392,0.25953838,0.0043878523,0.37517324,0.0,0.0,0.0,0.0,0.0,6.4765445e-08,0.00045634765,0.008520475,3.0799906e-06,3.353789e-06,3.3556842e-06,3.320332e-05,0.007870367,0.007870433,0.0110315615,0.02655351,0.02655354,0.15213732,1.9365008e-11,1.936586e-11,3.3551335e-11,0.0,0.0,5e-08,0.0,0.0,0.0,0.0,0.0,0.0,0.0,0.0,0.008689772,0.0012681546,0.0008105308,131607,0.23044966,0.39004785,0.3940937,0.013966071,0.0068762694,0.0068762694,0.0,0.0,0.0,0.0,0,0,0,895,24,0,0,0,0,0,0,0
85232358,0.9702964,-0.0077309706,0.0012128176,0.24179259,-0.00021638471,0.011680134,0.008985215,-0.5682425,-0.4136386,0.047867853,2.6075251e-05,-2.7707085e-06,1.37266425e-05,0.0,0.0,-0.000425832,0.25953838,0.0043878523,0.37517324,0.0,0.0,0.0,0.0,0.0,6.6702256e-08,0.00041344378,0.007911438,3.0485623e-06,3.3511428e-06,3.3534207e-06,3.319883e-05,0.007852372,0.007852456,0.011072464,0.026501887,0.026501916,0.15342495,1.9362002e-11,1.9362798e-11,3.352873e-11,0.0,0.0,5.000019e-08,0.0,0.0,0.0,0.0,0.0,0.0,0.0,0.0,0.00850635,0.0039372034,0.006153821,131607,0.23022555,0.39169496,0.39567035,0.02119259,0.0067155263,0.0067155263,0.0,0.0,0.0,0.0,0,0,0,895,24,0,0,0,0,0,0,0
85422412,0.97104,-0.006747911,0.0013180911,0.23881818,-0.0077200443,0.0019382021,0.0053270897,-0.56532204,-0.41717607,0.049584758,2.6102534e-05,-2.796343e-06,1.5239465e-05,0.0,0.0,-0.00043155253,0.25953838,0.0043878523,0.37517324,0.0,0.0,0.0,0.0,0.0,5.3956473e-08,0.00037194093,0.007218492,3.0224114e-06,3.3420595e-06,3.343751e-06,3.316147e-05,0.007797166,0.007797245,0.011021276,0.026277542,0.026277568,0.1523017,1.9352195e-11,1.9352969e-11,3.349637e-11,0.0,0.0,5.000009e-08,0.0,0.0,0.0,0.0,0.0,0.0,0.0,0.0,0.008569895,0.0037560824,0.0059336447,131607,0.22924902,0.3902585,0.39685646,0.019900614,0.008769935,0.008769935,0.0,0.0,0.0,0.0,0,0,0,895,24,0,0,0,0,0,0,0
85632409,0.97183645,-0.004110835,0.0018290399,0.23561358,-0.0046299244,0.00089963124,0.0030803562,-0.5619794,-0.41666535,0.045894206,2.6100262e-05,-2.7897322e-06,1.6740047e-05,0.0,0.0,-0.00043531565,0.25953838,0.0043878523,0.37517324,0.0,0.0,0.0,0.0,0.0,4.7560928e-08,0.000352103,0.0066847634,2.994546e-06,3.3517338e-06,3.3522517e-06,3.3181044e-05,0.007852389,0.0078524565,0.0110535845,0.0264437,0.026443718,0.15221435,1.9362314e-11,1.9363062e-11,3.3484167e-11,0.0,0.0,5.0000093e-08,0.0,0.0,0.0,0.0,0.0,0.0,0.0,0.0,0.00821292,0.0034254326,0.0054888264,131607,0.22997265,0.39014658,0.39148253,0.011291946,0.007895498,0.007895498,0.0,0.0,0.0,0.0,0,0,0,895,24,0,0,0,0,0,0,0
85832468,0.972419,-0.0054711183,0.0015213444,0.23317161,-0.0016872844,-0.0033073155,-0.0063974606,-0.56241035,-0.42089668,0.026276117,2.610642e-05,-2.8426975e-06,1.8227622e-05,0.0,0.0,-0.0004333384,0.25953838,0.0043878523,0.37517324,0.0,0.0,0.0,0.0,0.0,5.1630266e-08,0.0003834503,0.0068912874,2.979852e-06,3.3517008e-06,3.3527654e-06,3.31576e-05,0.007851906,0.007851968,0.011045496,0.026411563,0.026411578,0.15162326,1.9362316e-11,1.9363039e-11,3.3462132e-11,0.0,0.0,5e-08,0.0,0.0,0.0,0.0,0.0,0.0,0.0,0.0,0.008154058,0.006451718,0.017185522,131607,0.22983286,0.38938832,0.37640396,0.023753444,0.006415723,0.006415723,0.0,0.0,0.0,0.0,0,0,0,895,24,0,0,0,0,0,0,0
86022347,0.9729957,-0.0069960435,0.0011612412,0.23071425,0.0022243508,0.0014161495,-0.0064547514,-0.56077665,-0.42141196,0.02163069,2.6088403e-05,-2.8566726e-06,1.9677036e-05,0.0,0.0,-0.0004379902,0.25953838,0.0043878523,0.37517324,0.0,0.0,0.0,0.0,0.0,5.5302277e-08,0.00042520982,0.0073742243,2.96152e-06,3.3422252e-06,3.3440508e-06,3.310913e-05,0.0077941357,0.0077942046,0.011050079,0.026192408,0.026192423,0.1524003,1.9352233e-11,1.9352941e-11,3.343024e-11,0.0,0.0,5.000004e-08,0.0,0.0,0.0,0.0,0.0,0.0,0.0,0.0,0.008243909,0.0038708248,0.009905352,131607,0.22887732,0.39038482,0.38183135,0.010915788,0.006529225,0.006529225,0.0,0.0,0.0,0.0,0,0,0,895,24,0,0,0,0,0,0,0
86232357,0.9735707,-0.006453389,0.0011549967,0.228292,-0.0046524922,-0.0022147738,-0.0045300988,-0.56347656,-0.42227378,0.00956486,2.6057132e-05,-2.9149203e-06,2.1100146e-05,0.0,0.0,-0.00043861638,0.25953838,0.0043878523,0.37517324,0.0,0.0,0.0,0.0,0.0,5.8134017e-08,0.00046735574,0.00793879,2.9461871e-06,3.3513916e-06,3.3529323e-06,3.3112916e-05,0.007843907,0.00784397,0.011082824,0.026352044,0.026352057,0.15230177,1.9361948e-11,1.936264e-11,3.3418456e-11,0.0,0.0,5.0000093e-08,0.0,0.0,0.0,0.0,0.0,0.0,0.0,0.0,0.007839845,0.0057020322,0.011563479,131607,0.22957374,0.3902586,0.3706004,0.023025174,0.005948638,0.005948638,0.0,0.0,0.0,0.0,0,0,0,895,24,0,0,0,0,0,0,0
86432430,0.97420883,-0.0059387507,0.0013154168,0.22556663,-0.0017620559,0.0030046694,-0.015312221,-0.5605035,-0.42282286,-0.015364352,2.6053833e-05,-2.9160665e-06,2.2504939e-05,0.0,0.0,-0.00043527965,0.25953838,0.0043878523,0.37517324,0.0,0.0,0.0,0.0,0.0,6.255908e-08,0.0004942593,0.008352222,2.922162e-06,3.351323e-06,3.352604e-06,3.309675e-05,0.007842117,0.007842188,0.011074999,0.026314579,0.02631459,0.15169981,1.9361833e-11,1.936251e-11,3.33968e-11,0.0,0.0,5e-08,0.0,0.0,0.0,0.0,0.0,0.0,0.0,0.0,0.0077230833,0.008548906,0.02153335,131607,0.22941048,0.3894866,0.36051857,0.037088115,0.0070306915,0.0070306915,0.0,0.0,0.0,0.0,0,0,0,895,24,0,0,0,0,0,0,0
86632399,0.9747509,-0.006947192,0.0011990557,0.22318402,0.0031789697,0.0046893377,-0.014761344,-0.556265,-0.42460817,-0.012653225,2.6068134e-05,-2.9210382e-06,2.3851784e-05,0.0,0.0,-0.00044372436,0.25953838,0.0043878523,0.37517324,0.0,0.0,0.0,0.0,0.0,7.552152e-08,0.00051294937,0.008932336,2.9028538e-06,3.351241e-06,3.3530189e-06,3.3074393e-05,0.007840451,0.007840525,0.011122694,0.026283339,0.02628335,0.15299912,1.9361774e-11,1.9362447e-11,3.3375303e-11,0.0,0.0,5.000009e-08,0.0,0.0,0.0,0.0,0.0,0.0,0.0,0.0,0.007492015,0.002310059,0.0034359493,131607,0.22927426,0.391151,0.34509328,0.026392594,0.009997395,0.009997395,0.0,0.0,0.0,0.0,0,0,0,895,24,0,0,0,0,0,0,0
86832396,0.9753064,-0.006267667,0.0011989077,0.22076415,0.0033310717,-0.0013362857,-0.01918974,-0.55195457,-0.42246485,-0.023710024,2.6040474e-05,-2.9012826e-06,2.51878e-05,0.0,0.0,-0.0004476082,0.25953838,0.0043878523,0.37517324,0.0,0.0,0.0,0.0,0.0,7.5983465e-08,0.0005222667,0.009076622,2.882186e-06,3.3513104e-06,3.3527504e-06,3.3053122e-05,0.007839999,0.007840067,0.011115984,0.026257504,0.026257511,0.15240374,1.9361792e-11,1.9362458e-11,3.3353893e-11,0.0,0.0,5.0000093e-08,0.0,0.0,0.0,0.0,0.0,0.0,0.0,0.0,0.007314928,0.0037884861,0.005825258,131607,0.22916155,0.3903892,0.34664983,0.016479384,0.008334625,0.008334625,0.0,0.0,0.0,0.0,0,0,0,895,24,0,0,0,0,0,0,0
87022351,0.97578734,-0.007220959,0.00047614926,0.21860185,0.14415658,0.055415202,-0.030715363,-0.5434169,-0.41613176,-0.01974897,2.5993819e-05,-2.8995717e-06,2.6471846e-05,0.0,0.0,-0.000456154,0.25953838,0.0043878523,0.37517324,0.0,0.0,0.0,0.0,0.0,1.3342596e-07,0.00053316494,0.009196544,2.8631753e-06,3.3417055e-06,3.343672e-06,3.3000724e-05,0.0077877743,0.0077898595,0.0111225415,0.026033852,0.026033856,0.1531991,1.9351687e-11,1.935224e-11,3.3322425e-11,0.0,0.0,5e-08,0.0,0.0,0.0,0.0,0.0,0.0,0.0,0.0,0.007314779,0.0036481384,0.009911738,131607,0.2281835,0.39140657,0.34109533,0.022234537,0.00976131,0.00976131,0.0,0.0,0.0,0.0,0,0,0,895,24,0,0,0,0,0,0,0
87232400,0.977789,-0.0042959396,-0.01730324,0.20883216,0.9236011,0.47917327,-0.054914348,-0.40192273,-0.36469325,-0.018193735,2.6180442e-05,-2.6297091e-06,2.782546e-05,0.0,0.0,-0.00047035736,0.25953838,0.0043878523,0.37517324,0.0,0.0,0.0,0.0,0.0,5.237901e-07,0.0006207037,0.010349954,2.6998284e-06,3.3577044e-06,3.3501826e-06,3.3109376e-05,0.007887269,0.007941817,0.011168958,0.026200293,0.026200378,0.15313068,1.9362253e-11,1.9361584e-11,3.3297493e-11,0.0,0.0,5.000009e-08,0.0,0.0,0.0,0.0,0.0,0.0,0.0,0.0,0.0072371284,0.024779033,0.03497387,131607,0.22891192,0.39131916,0.33427268,0.15876971,0.022070961,0.022070961,0.0,0.0,0.0,0.0,0,0,0,895,24,0,0,0,0,0,0,0
87432399,0.98213804,-0.006161058,-0.0068995557,0.18793437,2.2698016,0.9445079,-0.02447192,-0.042940497,-0.2136819,0.0047865002,2.6263875e-05,-2.2332717e-06,2.8910425e-05,0.0,0.0,-0.00048164188,0.25953838,0.0043878523,0.37517324,0.0,0.0,0.0,0.0,0.0,7.8580615e-07,0.00087921834,0.015860558,2.3172986e-06,3.3521778e-06,3.3534702e-06,3.3246244e-05,0.00797048,0.008349614,0.011210887,0.026166795,0.026167938,0.15254688,1.9368097e-11,1.936223e-11,3.319732e-11,0.0,0.0,5.0000093e-08,0.0,0.0,0.0,0.0,0.0,0.0,0.0,0.0,0.006610554,0.040273372,0.057270166,131607,0.22876786,0.39057252,0.3514739,0.18140487,0.035049424,0.035049424,0.0,0.0,0.0,0.0,0,0,0,895,24,0,0,0,0,0,0,0
87632414,0.983943,-0.009697052,-0.013808076,0.17768359,3.6437616,1.3812994,0.20832124,0.5752657,0.025174696,-0.0017964669,2.6316045e-05,-1.9468105e-06,2.9383573e-05,0.0,0.0,-0.00048167998,0.25953838,0.0043878523,0.37517324,0.0,0.0,0.0,0.0,0.0,1.3921288e-06,0.0013298765,0.030952621,2.1123346e-06,3.3532572e-06,3.356088e-06,3.290576e-05,0.007992232,0.008925882,0.011331676,0.026147285,0.026153944,0.15383323,1.9380133e-11,1.936149e-11,3.2989046e-11,0.0,0.0,5.000009e-08,0.0,0.0,0.0,0.0,0.0,0.0,0.0,0.0,0.0042924583,0.03695432,0.056377634,131607,0.22869462,0.3922158,0.30380365,0.12703551,0.03677803,0.03677803,0.0,0.0,0.0,0.0,0,0,0,895,24,0,0,0,0,0,0,0
87822391,0.9843227,-0.020708658,-0.010682791,0.17483121,4.7939553,1.700137,-0.1026266,1.3980868,0.3165795,-0.031660017,2.6419026e-05,-1.8037498e-06,2.974998e-05,0.0,0.0,-0.0004719407,0.25953838,0.0043878523,0.37517324,0.0,0.0,0.0,0.0,0.0,1.6993215e-06,0.0014593188,0.03279565,2.021169e-06,3.346769e-06,3.3562567e-06,3.2116906e-05,0.008139855,0.009581863,0.011360119,0.025918523,0.025937768,0.15267839,1.9385323e-11,1.934277e-11,3.2665606e-11,0.0,0.0,5e-08,0.0,0.0,0.0,0.0,0.0,0.0,0.0,0.0,0.00268201,0.029781042,0.048229594,131607,0.22771977,0.3907408,0.035122965,0.08480561,0.034078237,0.034078237,0.0,0.0,0.0,0.0,0,0,0,895,24,0,0,0,0,0,0,0
88032397,0.9839956,-0.012796991,0.0011777873,0.17772914,6.083401,2.1811242,-0.11330567,2.573995,0.73443025,-0.053350974,2.6455431e-05,-1.4866341e-06,2.9815266e-05,-2.6681952e-05,-7.4167315e-07,-0.0004692687,0.25953838,0.0043878523,0.37517324,0.0,0.0,0.0,0.0,0.0,1.6098803e-06,0.0012704948,0.02737552,1.9902095e-06,3.401225e-06,3.351934e-06,3.1041298e-05,0.008514115,0.0104995845,0.011491947,0.02607647,0.02612879,0.15257429,1.9425135e-11,1.9344856e-11,3.226813e-11,3.9985384e-06,3.9985857e-06,5.000009e-08,0.0,0.0,0.0,0.0,0.0,0.0,0.0,0.0,0.0011618973,0.028726362,0.047828235,131735,0.2284847,0.3906076,0.016132828,0.13174275,0.037779987,0.037779987,0.0,0.0,0.0,0.0,0,0,0,895,24,0,0,0,0,0,0,0
88232399,0.9823391,-0.007620798,-0.029243648,0.1846527,7.3652444,2.5767574,0.12724797,3.9568172,1.2239659,0.016906878,2.6506928e-05,-1.0713027e-06,2.9660789e-05,-0.00024555772,-1.273377e-05,-0.0004944811,0.25953838,0.0043878523,0.37517324,0.0,0.0,0.0,0.004290064,-0.012179891,2.4150302e-06,0.001455367,0.03406599,2.0132502e-06,3.3732724e-06,3.3454075e-06,2.9769986e-05,0.010691071,0.013090288,0.011577834,0.026043836,0.026141033,0.15196018,1.9479054e-11,1.934662e-11,3.1789796e-11,3.916497e-06,3.920627e-06,5e-08,0.0,0.0,0.0,0.0,0.0,0.0,0.9940969,0.95241815,0.0014585276,0.043362774,0.07027345,164759,0.22844008,0.3898207,0.00045393803,0.15870228,0.040688664,0.040688664,0.0,0.0,0.011167623,0.0,0,0,0,895,24,0,0,0,0,0,0,0
88432402,0.9800807,-0.01892024,0.0026199378,0.19767888,8.357484,2.9899447,-0.18601772,5.515454,1.7880934,-0.103583254,2.6411448e-05,-1.1550932e-06,2.9545601e-05,-0.00021594705,-0.00014220664,-0.00046034058,0.25953838,0.0043878523,0.37517324,0.0,0.0,0.0,0.009327922,-0.026170531,2.1561368e-06,0.0012316091,0.027673367,2.1260512e-06,3.5219468e-06,3.3789054e-06,2.8343664e-05,0.014510461,0.01666795,0.011698619,0.026040073,0.026187688,0.15326351,1.9549605e-11,1.9357087e-11,3.136544e-11,3.67665e-06,3.7017921e-06,5.0000093e-08,0.0,0.0,0.0,0.0,0.0,0.0,0.98952913,0.91716677,0.0010308122,0.023017528,0.042661548,164759,0.22853394,0.39148885,0.0038981568,0.20133527,0.031845804,0.031845804,0.0,0.0,0.015376525,0.0,0,0,0,895,24,0,0,0,0,0,0,0
