timestamp,yaw_composite,yaw_variance,yaw[0],yaw[1],yaw[2],yaw[3],yaw[4],innov_vn[0],innov_vn[1],innov_vn[2],innov_vn[3],innov_vn[4],innov_ve[0],innov_ve[1],innov_ve[2],innov_ve[3],innov_ve[4],weight[0],weight[1],weight[2],weight[3],weight[4]
88032397,-0.9952518,3.6203296,-2.5112553,-1.254619,0.0020167073,1.2586538,2.5152924,0.0,0.0,0.0,0.0,0.0,0.0,0.0,0.0,0.0,0.0,0.2,0.2,0.2,0.2,0.2
88042347,-3.0313807,3.8247344,-2.5101566,-1.2535203,0.0031183353,1.2597568,2.5163937,0.0,0.0,0.0,0.0,0.0,0.0,0.0,0.0,0.0,0.0,0.2,0.2,0.2,0.2,0.2
88232399,0.42987442,1.0668877,-2.4183683,-0.87097603,0.16408998,0.9930642,2.2069502,-2.3607583,-1.0046453,-0.06360626,-0.83813477,-2.2578573,-1.1228524,-1.6716831,-0.5515406,0.6895864,0.33648968,0.028870739,0.12886235,0.43592992,0.33866018,0.06767682
88432402,0.47544459,0.2791914,-2.306389,-0.5122263,0.29940575,0.824407,1.9164058,-2.5411263,-0.46486235,0.09959602,-0.5021348,-2.2281914,-1.5058521,-1.7946215,-0.40280437,0.64928055,0.6813524,0.00034661812,0.038805287,0.5808933,0.37328705,0.006667742
88632409,0.468546,0.10079912,-2.0992322,-0.073927574,0.39555967,0.6263193,1.4930791,-3.8776236,-0.51782703,-0.2758665,-0.77929115,-2.9879866,-2.2908854,-2.0941472,-0.3427925,0.67028856,1.2985373,8.747149e-05,0.007112765,0.66218495,0.33052734,8.747149e-05
88832397,0.5147908,0.059152715,-1.9647807,0.16140315,0.47312748,0.60367113,1.2905064,-3.1332002,0.42898464,-0.04889393,-0.27635002,-2.232079,-3.3822958,-1.5510807,-0.27576113,0.26006985,1.3195662,6.305709e-05,0.0019392415,0.6741135,0.32382116,6.305709e-05
89032396,0.53972137,0.03710453,-1.771607,0.38708174,0.5231961,0.5745704,1.0803815,-3.634655,0.08195114,-0.60031414,-0.74980164,-2.5524254,-4.4375057,-1.3053253,-0.28803873,0.08316517,1.358777,7.637895e-05,0.0011741333,0.67359364,0.32507947,7.637895e-05
89232386,0.57458156,0.02562722,-1.5895655,0.5363483,0.5681823,0.5872098,0.9627552,-3.0962467,0.12902069,-0.54631996,-0.56139565,-2.0384598,-5.4777784,-0.84441423,-0.26797915,-0.04694271,1.3616142,6.762919e-05,0.0010437887,0.6591966,0.3396243,6.762919e-05
89432359,0.5766479,0.018620212,-1.4408954,0.6079593,0.5756129,0.578463,0.85240203,-2.8120203,-0.11605549,-0.64582634,-0.5958271,-1.7836571,-6.425649,-0.6000948,-0.30551195,-0.15300608,1.2907043,7.0751004e-05,0.0011662453,0.6332115,0.36548075,7.0751004e-05
89632358,0.5396588,0.014627619,-1.3273748,0.60943115,0.54168886,0.536604,0.745623,-2.1383696,-0.51915836,-0.8740711,-0.7853985,-1.6661987,-6.8139358,-0.46830082,-0.35006142,-0.2389946,1.0730972,8.4443775e-05,0.0014354157,0.59260595,0.4057898,8.4443775e-05
89832361,0.4638113,0.012459061,-1.2573937,0.54874986,0.46579754,0.46117017,0.65279543,-0.79970264,-0.7843723,-0.9924078,-0.8801317,-1.5130367,-5.923875,-0.18658447,-0.10602856,-0.008545399,1.0729909,8.304798e-05,0.001671051,0.5534525,0.44471037,8.304798e-05
90032361,0.3768395,0.011241354,-1.1978365,0.46947443,0.37912002,0.37470305,0.55521894,-0.20596886,-1.2198734,-1.3294134,-1.2146282,-1.7414865,-5.378196,-0.65276194,-0.5488858,-0.44854403,0.45380163,0.00016085878,0.0015646578,0.47995606,0.51815754,0.00016085878
90432391,0.23763454,0.009294958,-1.064588,0.33102453,0.24012217,0.23650171,0.3934111,-0.63877773,-1.296195,-1.2914295,-1.1766357,-1.5757589,-5.1779566,-0.7728238,-0.7408738,-0.64458513,0.25994205,0.0001787446,0.00097290456,0.32735804,0.67131156,0.0001787446
90632355,0.18238167,0.008819686,-1.0124733,0.28060582,0.18680467,0.18096769,0.3247317,-1.1921406,-1.3763151,-1.3774786,-1.2688675,-1.5545712,-4.8131046,-0.79721117,-0.7972331,-0.70804644,0.17507362,0.00022528209,0.00076575973,0.25950935,0.7392743,0.00022528209
90832382,0.14005521,0.0087933,-0.97272944,0.25510263,0.1501221,0.13791975,0.26487827,-2.0894594,-1.510149,-1.5498543,-1.4493637,-1.6011381,-4.63221,-1.0061407,-1.04912,-0.9711528,-0.10725784,0.00045956264,0.0006840828,0.19738087,0.8010159,0.00045956264
91032352,0.0533646,0.008848768,-0.994645,0.19332649,0.07214954,0.050438564,0.1563524,-2.8889875,-1.5594978,-1.6525564,-1.5658674,-1.604145,-4.5132265,-1.0814772,-1.1868286,-1.1302361,-0.30194235,0.0007514257,0.0008223994,0.15394795,0.8433852,0.0010930472
91232402,0.049191486,0.009924206,-0.9510789,0.22092398,0.08030665,0.04562235,0.12795845,-4.225731,-1.7903156,-2.0112896,-1.9606838,-1.8709822,-4.125453,-1.017817,-1.2016902,-1.1771183,-0.41556978,0.0021089157,0.0021089157,0.1352478,0.85715115,0.003383233
91432386,0.07555423,0.0112783015,-0.89672226,0.26377234,0.1148971,0.068907194,0.12623115,-5.2456055,-1.8055906,-2.1635227,-2.1719952,-2.0320768,-4.1675177,-0.9302621,-1.236865,-1.263989,-0.58246374,0.0037834009,0.011157648,0.15111934,0.8228181,0.011121554
91632412,0.0997415,0.0103444345,-0.8630526,0.26775432,0.1280964,0.077532835,0.11424138,-5.761448,-1.5376911,-1.9867191,-2.0596218,-1.9377956,-4.255023,-0.6210799,-1.04106,-1.1283517,-0.54854155,0.0017098228,0.068233386,0.19307368,0.7128619,0.024121244
91832400,0.1310676,0.011445871,-0.8446225,0.24370743,0.12229718,0.07284826,0.09507244,-6.1293497,-1.2694912,-1.7501183,-1.872179,-1.7909012,-4.3378243,-0.37323523,-0.8405142,-0.97132945,-0.49370337,0.00059613487,0.2788292,0.21092792,0.48004228,0.029604442
92032352,0.16158405,0.009146142,-0.8443725,0.20517884,0.10325822,0.05781002,0.07125277,-6.8209887,-1.3373146,-1.8237705,-1.980751,-1.9373016,-4.283859,-0.26749492,-0.7154298,-0.8626659,-0.47477317,0.00037411693,0.6609819,0.14057866,0.18149948,0.016565824
92232354,0.13091835,0.0055638,-0.85343945,0.14659952,0.064143166,0.024713995,0.033424266,-7.088051,-0.85339737,-1.3302574,-1.5108147,-1.4974442,-4.0736938,-0.08529782,-0.4990406,-0.65124774,-0.33212638,9.501058e-05,0.84509194,0.08081545,0.06658685,0.007410815
92432354,0.0999739,0.0038326213,-0.8559021,0.105277866,0.038068436,0.0042884075,0.010896563,-7.5931253,-0.8162632,-1.2517948,-1.4336529,-1.438879,-4.107256,-0.27046978,-0.6258719,-0.7675885,-0.49893713,8.0062266e-05,0.93400246,0.041273046,0.021692242,0.002952332
92632400,0.085448794,0.0029797242,-0.83752596,0.08750637,0.032657195,0.004024755,0.009824378,-8.0778475,-0.84083366,-1.2247906,-1.3962479,-1.4107342,-3.9258776,-0.1841842,-0.49315143,-0.6241243,-0.3929978,7.5095915e-05,0.96816957,0.022526054,0.008001441,0.0012279104
92832374,0.09077098,0.0024514943,-0.7961877,0.09179081,0.046530716,0.022205347,0.027572125,-8.264872,-0.58008003,-0.9142666,-1.0710926,-1.0874481,-3.8650458,-0.19828,-0.46955156,-0.590303,-0.38811815,5.713359e-05,0.9807459,0.014648249,0.0038840943,0.0006645711
93032399,0.09868176,0.0020961906,-0.75384206,0.09930615,0.060513776,0.03936204,0.044745043,-8.286742,-0.36580276,-0.65003014,-0.78790474,-0.8034706,-3.8242512,-0.22155017,-0.4575624,-0.5666712,-0.38842636,4.9426188e-05,0.9862661,0.010901008,0.0023397505,0.00044374852
93232400,0.045568448,0.0018621616,-0.7791537,0.04597097,0.012382048,-0.0062243496,-0.0008236832,-8.423225,-0.58540154,-0.82200813,-0.9391289,-0.9536743,-3.5597873,-0.15558553,-0.3519423,-0.44485176,-0.28838825,5.536021e-05,0.9900796,0.008137433,0.0014376764,0.0002898728
93432399,-0.018990014,0.0017169905,-0.82682407,-0.018718889,-0.049024597,-0.06593958,-0.06019885,-8.398666,-0.7925339,-0.9881897,-1.0864296,-1.0987854,-3.5189667,-0.43615305,-0.5960258,-0.6724223,-0.53548896,7.554023e-05,0.9932936,0.0056482493,0.00080293143,0.00017977644
93632375,-0.04875906,0.0016717298,-0.8504245,-0.048510365,-0.07681541,-0.0926143,-0.08622217,-8.581978,-1.179327,-1.3477421,-1.4333076,-1.441782,-3.4071307,-0.7564471,-0.8860922,-0.9476538,-0.82849073,0.0001742787,0.9957379,0.0035273344,0.00038620172,0.0001742787
93832397,-0.021059092,0.0017035898,-0.82181025,-0.02072625,-0.0478703,-0.06295736,-0.055854302,-8.63382,-1.3402119,-1.4904041,-1.5674953,-1.570755,-3.2638168,-1.0310022,-1.13864,-1.1889762,-1.0858017,0.00034512993,0.9968176,0.0021470312,0.00034512993,0.00034512993
94032361,0.030737445,0.0019707012,-0.77271384,0.031448398,0.0049789,-0.009627773,-0.0017697053,-8.852446,-1.5604515,-1.7024899,-1.7760715,-1.7729702,-2.9723613,-1.267072,-1.3536551,-1.3929067,-1.30516,0.0008524033,0.9961766,0.0012662545,0.0008524033,0.0008524033
94232371,0.0818812,0.0030098862,-0.7251652,0.083955295,0.057785265,0.043465745,0.05202911,-9.05365,-1.6850224,-1.8267307,-1.90061,-1.8897076,-2.5527587,-1.6089907,-1.6702461,-1.6959004,-1.6246977,0.002520487,0.989918,0.002520487,0.002520487,0.002520487
94432402,0.08171186,0.00862917,-0.7225963,0.09096584,0.06487087,0.050704133,0.0598091,-9.276752,-1.7649803,-1.9122524,-1.989254,-1.9695377,-2.0988905,-2.061167,-2.0948384,-2.1057317,-2.0517576,0.011188165,0.9552473,0.011188165,0.011188165,0.011188165
94632357,0.06429984,0.011195011,-0.7384137,0.07689856,0.050991345,0.03702273,0.04649543,-9.535441,-1.72826,-1.8828735,-1.9638577,-1.9358044,-1.6532235,-2.179625,-2.198122,-2.2012448,-2.1597033,0.015215028,0.9391398,0.015215028,0.015215028,0.015215028
94832354,0.028154613,0.025976459,-0.7542172,0.0607007,0.034962803,0.02115444,0.030814968,-9.702112,-1.6969585,-1.8543758,-1.9367867,-1.9027443,-1.4978504,-2.4913588,-2.496745,-2.4933429,-2.462501,0.039080147,0.84367937,0.039080147,0.039080147,0.039080147
95032399,-0.004035442,0.016499525,-0.7960614,0.015974224,-0.009494582,-0.023108253,-0.013374879,-9.707138,-1.5356102,-1.6923771,-1.7744083,-1.7368412,-1.234787,-2.4303699,-2.4296193,-2.4234939,-2.3995442,0.023947468,0.89560956,0.028341306,0.023947468,0.028154243
95232365,-0.016737549,0.007204995,-0.8163251,-0.008169938,-0.033326324,-0.04673116,-0.036971398,-9.653962,-1.4024773,-1.553566,-1.6326065,-1.5940266,-1.1047025,-2.2644024,-2.2638202,-2.2583814,-2.238011,0.00944871,0.93355834,0.021138564,0.015048417,0.02080598
95432400,-0.039738867,0.006603875,-0.8369481,-0.03227415,-0.057192847,-0.07043915,-0.060671773,-9.514469,-1.4137974,-1.5545387,-1.6280441,-1.5907307,-1.0160475,-2.2443352,-2.2384982,-2.2308025,-2.215445,0.008641578,0.9498828,0.01602636,0.009819978,0.01562926
95632351,-0.07512921,0.00448057,-0.8720369,-0.07035318,-0.095084146,-0.10820165,-0.098422006,-9.359149,-1.4093094,-1.5394936,-1.6074257,-1.5719528,-0.9551325,-2.1109185,-2.1042151,-2.0965652,-2.0839963,0.005387704,0.9634922,0.012459828,0.0066644643,0.011995774
95832357,-0.20761923,0.012767868,-0.9935295,-0.19243234,-0.21717642,-0.23029158,-0.2204981,-8.991665,-1.6911182,-1.7996845,-1.85606,-1.8272076,-1.0382214,-2.3087788,-2.2904816,-2.2771592,-2.2711492,0.018671958,0.925312,0.018671958,0.018671958,0.018671958
96032396,-0.4010965,0.06347358,-1.1098398,-0.3073681,-0.33224064,-0.345438,-0.33565858,-8.741349,-2.1325588,-2.221115,-2.2668362,-2.2445297,-1.16398,-2.597999,-2.566403,-2.5464096,-2.5471702,0.112028584,0.5518856,0.112028584,0.112028584,0.112028584
96232356,-0.3451612,0.022728173,-1.1128948,-0.3095543,-0.33448628,-0.34770852,-0.33791032,-8.689174,-1.894867,-1.987957,-2.0362358,-2.0110378,-0.92352414,-2.307493,-2.2788084,-2.260534,-2.26141,0.035448994,0.6435447,0.110281534,0.10158771,0.10913712
96432372,-0.090468645,0.0069558164,-0.877722,-0.0754809,-0.09966218,-0.1126299,-0.1031438,-8.719878,-1.7042236,-1.801548,-1.8522129,-1.8241558,-0.8438482,-2.076108,-2.0544825,-2.0401702,-2.0395708,0.0092453975,0.7070795,0.100807995,0.08465947,0.09820749
96632359,-0.018814148,0.0050849468,-0.80904114,-0.007192604,-0.031384464,-0.04433899,-0.03481815,-8.548721,-1.6639595,-1.7545223,-1.8016834,-1.7751007,-0.95637035,-2.0030117,-1.9855027,-1.9736776,-1.9726281,0.006241717,0.74887854,0.08976026,0.06906336,0.08605616
96832397,0.03173893,0.009254111,-0.7557822,0.047249116,0.022956919,0.009963578,0.019532988,-8.28022,-1.8842468,-1.9587898,-1.9974861,-1.9762287,-1.1718442,-2.0738513,-2.0551074,-2.0429623,-2.043337,0.012916064,0.7747608,0.07986303,0.057032794,0.07542729
97032427,0.0633564,0.009106514,-0.72701436,0.07796677,0.053555764,0.040509924,0.05012759,-7.996031,-1.9902649,-2.053135,-2.0856838,-2.0682087,-1.1858735,-1.9766321,-1.9567866,-1.9443231,-1.9459295,0.01259407,0.7985794,0.0725597,0.048716333,0.06755049
97232375,0.07717935,0.01955838,-0.7042669,0.10368614,0.07914118,0.06602335,0.07566841,-7.6923103,-2.2432022,-2.2927532,-2.3182163,-2.3053474,-1.1453533,-2.0298295,-2.0013723,-1.9845695,-1.9902244,0.029404374,0.7982372,0.06707356,0.043446474,0.06183844
97432397,0.022837,0.06408143,-0.6957282,0.1157281,0.09105705,0.077853896,0.08748406,-7.4383316,-2.5692005,-2.6067848,-2.6258621,-2.617197,-1.1486061,-2.2343795,-2.1943252,-2.171543,-2.182255,0.11021872,0.55912507,0.11021872,0.11021872,0.11021872
97632356,-0.1663149,0.08437255,-0.85248375,-0.034799274,-0.060336005,-0.073859,-0.06390272,-7.096347,-2.6298676,-2.660511,-2.6758938,-2.66951,-1.0511302,-2.2778673,-2.2302828,-2.2035985,-2.2175808,0.15287808,0.38848776,0.15287808,0.15287808,0.15287808
97792385,-0.1802126,0.08437717,-0.86633354,-0.048703924,-0.07424026,-0.087763,-0.07780731,-7.096347,-2.6298676,-2.660511,-2.6758938,-2.66951,-1.0511302,-2.2778673,-2.2302828,-2.2035985,-2.2175808,0.15287808,0.38848776,0.15287808,0.15287808,0.15287808
98032360,0.20758528,3.5957313,-2.5122652,-1.2556272,0.0010088414,1.2576444,2.5142817,0.0,0.0,0.0,0.0,0.0,0.0,0.0,0.0,0.0,0.0,0.2,0.2,0.2,0.2,0.2
98232365,-1.2155821,3.3700695,-2.4607568,-1.2255409,0.009327571,1.2739339,2.557266,0.32760048,-0.19503975,-0.27264023,0.20205307,0.5730305,0.2817963,0.1935657,-0.33075994,-0.56659657,-0.18800539,0.20356363,0.21233192,0.20379683,0.19022278,0.19008477
98432408,-1.2579694,3.0325923,-2.3891191,-1.1929859,0.008475693,1.2913829,2.6202798,0.2553501,-0.37981987,-0.28928947,0.42206955,0.7675152,0.4961398,0.17844644,-0.52573806,-0.6648664,-0.017155588,0.21280877,0.237238,0.20780309,0.16973023,0.17242001
98632421,-0.9029606,2.4639761,-2.2914398,-1.1271529,-0.00018480269,1.2647358,2.662709,0.23975945,-0.53801346,-0.2818241,0.74622726,1.0868263,0.9013012,0.32311416,-0.61527836,-0.6786716,0.32648885,0.19844139,0.287372,0.24293269,0.14528306,0.12597086
98832420,-0.60464436,1.7877672,-2.196723,-1.041522,0.008193139,1.2227563,2.6784136,0.095609665,-0.7559452,-0.36960602,0.9045124,1.2747974,1.2420733,0.41680506,-0.6672013,-0.70793223,0.6286403,0.14701845,0.34270757,0.31674603,0.12369564,0.06983237
99032399,-0.4126509,0.98689914,-2.1240945,-0.97013396,-0.0010248906,1.144732,2.654007,-0.035520554,-0.88357735,-0.3699112,1.0474567,1.4490871,1.5158899,0.45571828,-0.67585325,-0.6974586,0.90459436,0.07211787,0.37565717,0.4346646,0.09452237,0.023038004
99232361,-0.36550897,0.5448596,-2.0985713,-0.9519698,-0.0399547,1.0575583,2.6072893,-0.14180756,-1.0204887,-0.4623661,1.0406685,1.6161594,1.6283126,0.38864082,-0.7763692,-0.8920038,0.92130816,0.028258989,0.36974412,0.5355995,0.06095756,0.0054396763
99432396,-0.43684584,0.319272,-2.0662084,-0.9607197,-0.1103595,0.96137,2.5804024,0.09676361,-1.0471649,-0.5784607,1.0773335,2.1262684,1.7575831,0.39869797,-0.95613414,-1.3742096,0.6502526,0.009595939,0.39248708,0.57588446,0.021469703,0.00056281104
99632399,-0.59590715,0.22190368,-2.0291643,-0.99553585,-0.2154681,0.8426164,2.5664058,0.36732674,-0.9986458,-0.6650562,1.1105518,2.6732903,1.8149484,0.3765115,-1.133597,-1.898036,0.32359818,0.002927058,0.48520577,0.5090297,0.002690956,0.00014655147
99832397,-0.7406079,0.15397497,-1.9349037,-0.9946073,-0.30895603,0.71379554,2.5845127,0.7543545,-0.92507553,-0.7943115,1.1735439,3.5485973,2.0934324,0.52624214,-1.2229311,-2.5259705,0.04406458,0.00038447906,0.6239828,0.37532514,0.00015377783,0.00015377783
100032402,-0.78773916,0.11375916,-1.8554115,-0.9729803,-0.3549444,0.6202072,2.5947528,0.46897125,-1.1543274,-1.0683479,1.0023403,3.961237,2.487681,0.68459105,-1.0925539,-2.734888,0.32289007,0.00019969507,0.69439626,0.3050048,0.00019969507,0.00019969507
100232397,-0.78947324,0.0898814,-1.7815964,-0.9373645,-0.36390787,0.57113713,2.6171014,0.021532059,-1.3356781,-1.1390743,0.9813156,4.070324,2.6279223,0.60149896,-1.0867069,-2.744693,0.7636992,0.00023014125,0.7364002,0.26290947,0.00023014125,0.00023014125
100432396,-0.708985,0.08957762,-1.7220623,-0.88709104,-0.33588547,0.5614022,2.6286213,-0.7396412,-1.5910606,-1.1589165,1.0087547,3.5648346,2.6752148,0.51866305,-0.96047306,-2.2826366,1.6618613,0.00028504446,0.6723043,0.3268406,0.00028504446,0.00028504446
100632383,-0.61357987,0.09007056,-1.6694056,-0.84025425,-0.30427766,0.5635446,2.6411567,-1.0777988,-1.6482792,-1.0925694,1.0097656,3.2426796,2.5283363,0.35621905,-0.97124505,-2.0673969,1.9634973,0.00026826718,0.574777,0.42441824,0.00026826718,0.00026826718
100832400,-0.5821372,0.08431361,-1.645292,-0.83017886,-0.31123042,0.53380924,2.6327507,-0.8810997,-1.4863663,-0.979929,0.9890499,3.4573956,2.4470477,0.31077218,-0.988207,-2.1556926,1.7160875,0.00020285072,0.521198,0.47819352,0.00020285072,0.00020285072
101032398,-0.62387705,0.07719158,-1.6451867,-0.85364914,-0.35419866,0.47168472,2.6058226,-0.4847107,-1.3626099,-1.0342884,0.7769146,3.984253,2.4599612,0.3587373,-1.0180457,-2.5140011,1.0830781,0.00019022526,0.53879386,0.46063545,0.00019022526,0.00019022526
101232412,-0.7497177,0.06736622,-1.6886507,-0.9274883,-0.4488002,0.35943595,2.540761,-0.31276894,-1.335556,-1.1110096,0.6265583,4.4067097,2.4301002,0.3109331,-1.1243602,-2.859321,0.67666435,0.00020069542,0.6259212,0.37347683,0.00020069542,0.00020069542
101432391,-0.7335671,0.06648764,-1.6867574,-0.93941164,-0.4750043,0.3108174,2.510129,-0.9559994,-1.611063,-1.2143173,0.66194725,4.006014,2.6279511,0.43636215,-0.9003233,-2.402463,1.667379,0.00026004363,0.55528456,0.44393542,0.00026004363,0.00026004363
101632399,-0.7391918,0.061725013,-1.6632175,-0.93440425,-0.48398614,0.28484604,2.5117762,-0.94517136,-1.5133886,-1.0911102,0.75260925,4.124748,2.3939853,0.19831598,-1.0977007,-2.5633383,1.5635366,0.00022633953,0.5650762,0.43424484,0.00022633953,0.00022633953
101832396,-0.6989756,0.057951864,-1.5969552,-0.88426054,-0.44549692,0.3087944,2.5594563,-0.94955254,-1.4853821,-1.1002789,0.63339996,4.0654564,2.3003402,0.18874681,-1.0523039,-2.519391,1.4814426,0.00021344061,0.57609504,0.42326468,0.00021344061,0.00021344061
102032353,-0.65750283,0.05575232,-1.5438288,-0.8417702,-0.4107227,0.33292732,2.5984354,-1.0503349,-1.4778862,-1.1072998,0.48989296,3.6860943,2.1110737,0.15329766,-0.9720166,-2.322134,1.4776351,0.00020124692,0.57104,0.42835632,0.00020124692,0.00020124692
102232396,-0.63562596,0.054535452,-1.5194954,-0.82392263,-0.39750192,0.3390231,2.6127977,-1.1809521,-1.4542351,-1.0641613,0.42941093,3.2002544,1.8518686,0.051695228,-0.9417317,-2.1016147,1.5401005,0.00018611368,0.55721474,0.44222695,0.00018611368,0.00018611368
102432361,-0.6201919,0.053811226,-1.5121927,-0.82087976,-0.3978114,0.33258134,2.6105564,-1.2830219,-1.4195309,-0.9986515,0.4355507,2.8126144,1.6808001,-0.00086963177,-0.89010763,-1.8761303,1.680447,0.00016804974,0.5249689,0.474527,0.00016804974,0.00016804974
102632399,-0.62214917,0.05267041,-1.513114,-0.8270932,-0.40768027,0.3170915,2.601563,-1.2145424,-1.3309059,-0.91493034,0.4779663,2.7995853,1.5759016,-0.056356907,-0.91557753,-1.8626124,1.6177051,0.00015049215,0.5109384,0.48861024,0.00015049215,0.00015049215
102832407,-0.59844303,0.051194083,-1.5120615,-0.82986814,-0.4140979,0.30313802,2.5895033,-1.4423838,-1.4162941,-0.9320698,0.50603104,2.5223846,1.6009638,-0.011475563,-0.81751037,-1.625752,2.0187685,0.00015316952,0.443966,0.55557454,0.00015316952,0.00015316952
103032396,-0.582383,0.048311397,-1.5184706,-0.83969945,-0.4270938,0.2834132,2.5708082,-1.5385704,-1.4134712,-0.895628,0.52677727,2.2921505,1.4474878,-0.10781646,-0.8530681,-1.544637,2.1057298,0.00014993899,0.37782496,0.62172526,0.00014993899,0.00014993899
103232403,-0.5294667,0.042060506,-1.4974773,-0.8220794,-0.4132105,0.2889016,2.57552,-1.6668377,-1.4185085,-0.8492451,0.5853958,2.0544777,1.4430159,-0.06935072,-0.75428724,-1.3129363,2.4162734,0.00013368587,0.2866622,0.7129368,0.00013368587,0.00013368587
103432357,-0.49110925,0.035479646,-1.4799232,-0.808642,-0.4037375,0.29033366,2.577771,-1.635562,-1.3425045,-0.7629452,0.6473217,2.0185242,1.3552997,-0.11802745,-0.7689171,-1.2721195,2.4327927,0.000119545715,0.21833749,0.7813039,0.000119545715,0.000119545715
103632421,-0.45070234,0.027866239,-1.4578822,-0.7913025,-0.39095417,0.29390585,2.581561,-1.7758455,-1.3889809,-0.75876236,0.69789314,1.9264107,1.3521212,-0.13061476,-0.7584548,-1.1869326,2.6885228,0.00011714233,0.15157448,0.84807414,0.00011714233,0.00011714233
103832396,-0.40328085,0.01944053,-1.4248872,-0.76403797,-0.36942768,0.30369598,2.590131,-2.0278692,-1.5016727,-0.78860664,0.7632961,1.8033962,1.4011296,-0.12239623,-0.72981286,-1.0621183,3.131688,0.00011649355,0.08745039,0.9122002,0.00011649355,0.00011649355
104032356,-0.35753313,0.0134890275,-1.3755863,-0.72489965,-0.33899716,0.31884232,2.609737,-1.9969645,-1.3969221,-0.61815834,1.0497303,2.1858444,1.602719,-0.02657628,-0.6677797,-1.0030954,3.5652518,9.448227e-05,0.049047016,0.9506695,9.448227e-05,9.448227e-05
104232353,-0.30261746,0.009116845,-1.2983242,-0.6661233,-0.29477805,0.33915517,2.641322,-2.2435637,-1.5400591,-0.6155586,1.3858604,3.0016556,2.1019762,0.13009977,-0.6615329,-1.1137505,4.4561386,9.374851e-05,0.021555167,0.9781636,9.374851e-05,9.374851e-05
104432396,-0.29896307,0.0064879083,-1.247493,-0.6453757,-0.29676133,0.3000993,2.6245072,-2.6453876,-1.705905,-0.5777712,1.8204536,3.8812141,2.6561162,0.32204914,-0.5963087,-1.1141429,5.850807,8.742639e-05,0.0064328723,0.9933049,8.742639e-05,8.742639e-05
104632376,-0.4296496,0.0052213455,-1.3018517,-0.7451542,-0.4291706,0.114591144,2.479852,-2.9677935,-1.7359438,-0.3994875,2.40483,5.2792177,3.2274137,0.51335955,-0.5368886,-1.1802583,7.6129837,7.725647e-05,0.0015363726,0.9982318,7.725647e-05,7.725647e-05
104832396,-0.49790165,0.004468483,-1.2770014,-0.775806,-0.49781865,-0.014555182,2.3990903,-3.3671923,-1.8034229,-0.33021164,2.709876,6.6200914,3.519009,0.6170616,-0.47841167,-1.2510858,9.486658,7.369499e-05,0.00030343706,0.99947554,7.369499e-05,7.369499e-05
105032400,-0.5723778,0.0038821818,-1.2582787,-0.81233174,-0.5723624,-0.15021941,2.3127825,-3.7518082,-1.8475809,-0.3115692,2.793357,7.914954,3.4734607,0.5811653,-0.47706985,-1.3644161,11.388558,7.403878e-05,7.403878e-05,0.9997039,7.403878e-05,7.403878e-05
105232402,-0.6564028,0.0033447486,-1.2514629,-0.8603222,-0.6563924,-0.2926333,2.2194793,-3.9990702,-1.7608299,-0.2088499,2.8597708,9.349845,3.2962027,0.51800346,-0.45758533,-1.4405861,13.4879875,7.188757e-05,7.188757e-05,0.9997125,7.188757e-05,7.188757e-05
105432357,-0.73308194,0.0028630258,-1.2409985,-0.90431106,-0.7330764,-0.42286396,2.1357203,-4.065606,-1.5826645,-0.0777235,2.8458748,10.94347,3.0760612,0.50483704,-0.36976624,-1.4526234,15.646324,6.769703e-05,6.769703e-05,0.9997292,6.769703e-05,6.769703e-05
105632377,-0.8016509,0.0024744573,-1.2296382,-0.94421345,-0.80164945,-0.53935623,2.0600543,-4.111225,-1.4878302,-0.06278896,2.676055,12.916492,2.8075933,0.46034336,-0.3384447,-1.5587091,17.850204,6.6746434e-05,6.6746434e-05,0.99973303,6.6746434e-05,6.6746434e-05
107432422,-1.584206,0.001161429,-1.689763,-1.6201258,-1.5842221,-1.5213002,1.2189183,-1.7261419,-0.28419083,0.17022061,0.8361022,34.765636,1.1215878,0.5055752,0.19294357,-0.9255848,28.595184,6.3251086e-05,6.3251086e-05,0.999747,6.3251086e-05,6.3251086e-05
107632462,-1.6433254,0.0011590841,-1.737212,-1.6754593,-1.6433438,-1.5891623,1.1491508,-1.3916719,-0.09971702,0.29297984,0.8336164,37.614174,1.2026596,0.64112663,0.34598732,-0.70137215,28.46691,6.7968875e-05,6.7968875e-05,0.99972814,6.7968875e-05,6.7968875e-05
107832365,-1.7036467,0.0011620672,-1.7878685,-1.7325947,-1.7036675,-1.6570319,1.0771013,-1.1384029,0.016005993,0.35357094,0.7849169,40.15879,1.2315922,0.7249737,0.4508915,-0.5134926,28.067867,7.254862e-05,7.254862e-05,0.99970984,7.254862e-05,7.254862e-05
108032396,-1.7621683,0.0012565851,-1.838269,-1.7883844,-1.7621952,-1.722146,1.0048227,-0.8703847,0.1566279,0.44440174,0.7815013,42.520554,1.4265804,0.9684353,0.7151108,-0.16398048,27.495934,8.843637e-05,8.843637e-05,0.9996463,8.843637e-05,8.843637e-05
108232352,-1.8162574,0.0013381729,-1.8856606,-1.8401728,-1.81629,-1.7818788,0.93683213,-0.49886608,0.4133482,0.6572194,0.9153938,44.593433,1.3805637,0.97169685,0.74201965,-0.046710968,26.465975,0.0001021818,0.0001021818,0.9995913,0.0001021818,0.0001021818
108432398,-1.8583403,0.0014440792,-1.9223925,-1.8803844,-1.8583804,-1.8286263,0.8802252,-0.2881956,0.52423,0.7317591,0.92888737,45.937115,1.4205227,1.0631161,0.8596325,0.16257477,25.601871,0.00011872362,0.00011872362,0.99951845,0.00012542125,0.00011872362
108632400,-1.8904847,0.0016230239,-1.9502856,-1.9110087,-1.8905365,-1.8646456,0.83238804,-0.09253645,0.6257472,0.79951143,0.9454737,47.089275,1.5110798,1.1939831,1.0121803,0.3956833,24.418348,0.00014496378,0.00014496378,0.9993928,0.00017242087,0.00014496378
108832391,-1.8684758,0.0019973677,-1.9252945,-1.8869704,-1.8685504,-1.8471943,0.83639544,0.12017822,0.7507901,0.89367485,0.99779177,47.907455,1.6563053,1.3749104,1.2132187,0.6704235,23.035275,0.0001982507,0.0001982507,0.99914175,0.00026351277,0.0001982507
109032400,-1.8584691,0.0022705833,-1.9127227,-1.875996,-1.8585647,-1.8398048,0.8281578,0.27830315,0.83184814,0.9488692,1.0220752,48.58638,1.715765,1.4620037,1.3169594,0.8384361,21.533993,0.0002386125,0.0002386125,0.99886924,0.00041496594,0.0002386125
109232446,-1.8316582,0.0022225783,-1.8839709,-1.8484118,-1.8317596,-1.8150736,0.8372641,0.31659222,0.8122082,0.9127493,0.9691305,48.70789,1.6818504,1.4586735,1.331831,0.914093,20.617512,0.00023444404,0.00023444404,0.9986607,0.00063597923,0.00023444404
109432354,-1.8188671,0.0025784934,-1.869692,-1.8350304,-1.8189975,-1.803979,0.83269197,0.4933672,0.9352846,1.020833,1.0638742,48.702854,1.7034264,1.5074539,1.3967419,1.0313702,19.73947,0.0002871259,0.0002871259,0.99818003,0.0009585916,0.0002871259
109632396,-1.7956251,0.0029561978,-1.8453594,-1.8113378,-1.7957891,-1.7820846,0.8394521,0.5922594,0.98803043,1.0617104,1.0957689,48.27394,1.7485504,1.58111,1.4866695,1.1684189,19.14703,0.0003436971,0.0003436971,0.99754184,0.0014270851,0.0003436971
109832396,-1.7945151,0.0036253922,-1.8434471,-1.8099084,-1.7947329,-1.7820531,0.82600397,0.8784094,1.2333727,1.2970753,1.3245602,47.491936,1.6666336,1.5323505,1.4557343,1.1808891,18.66915,0.00044308338,0.00044308338,0.996667,0.0020037745,0.00044308338
110032402,-1.8180424,0.0039609736,-1.8664609,-1.8332249,-1.818295,-1.8063381,0.790337,0.85476875,1.1758289,1.2323141,1.2559061,46.1188,1.7350426,1.6352863,1.57654,1.340538,18.689016,0.00051370094,0.0004942408,0.99571174,0.0027859984,0.0004942408
110232399,-1.8420559,0.003963094,-1.8900349,-1.8570555,-1.8423164,-1.8309075,0.7576714,0.8621273,1.1636729,1.2194324,1.2446394,44.95757,1.6990242,1.6288013,1.5853004,1.3820972,19.330648,0.00062890264,0.000495214,0.99467856,0.003702066,0.000495214
110432359,-1.8469919,0.0042214612,-1.8946255,-1.861852,-1.847277,-1.8363079,0.7468542,0.8513508,1.131834,1.1853719,1.2105184,43.816685,1.7255268,1.6798954,1.6489391,1.4732742,19.873466,0.0007908288,0.0005330079,0.99334997,0.004793153,0.0005330079
110632375,-1.8265041,0.0045938566,-1.8738832,-1.8412464,-1.8268183,-1.816208,0.76410806,0.89219,1.1472569,1.1956615,1.2181072,42.434685,1.7334538,1.7129917,1.6944332,1.5436401,20.109493,0.0010353933,0.0005868079,0.99175864,0.0060322173,0.0005868079
110832376,-1.8041848,0.0054111406,-1.8513721,-1.8188492,-1.8045532,-1.7942377,0.785658,1.0372205,1.267128,1.309895,1.3291135,41.083168,1.7172699,1.7199478,1.7126122,1.5837154,20.231525,0.0014463987,0.00070587464,0.98979175,0.0073501873,0.00070587464
111032372,-1.7600296,0.005618777,-1.806997,-1.7745628,-1.760396,-1.7503394,0.83121234,1.0288944,1.2373571,1.2757626,1.2926612,39.82898,1.7407055,1.7603188,1.7612839,1.6504116,20.426779,0.0020349298,0.0007432931,0.9877237,0.0087652635,0.00073286274
111232381,-1.7025824,0.005800169,-1.749349,-1.7169815,-1.702933,-1.6930988,0.8912569,1.0597444,1.2450423,1.2777295,1.2911806,38.755127,1.7411175,1.772316,1.7790413,1.6829205,20.322456,0.0028602174,0.0007848681,0.9853571,0.010242655,0.0007551498
111432383,-1.6386938,0.004989815,-1.685179,-1.6528811,-1.6389378,-1.6292877,0.95904326,1.0291033,1.1962519,1.225182,1.236639,37.735252,1.6700649,1.7104702,1.7218323,1.6384735,20.299696,0.003959348,0.00082959805,0.98290884,0.011672556,0.00062957086
111632366,-1.59417,0.0061216345,-1.6404285,-1.6082572,-1.5944232,-1.5849507,1.0093277,1.1928434,1.3485851,1.376555,1.3880453,36.858063,1.6676426,1.7185383,1.7350388,1.6637554,20.678541,0.0057175565,0.00088713696,0.9796044,0.01300058,0.0007903987
111832410,-1.5684391,0.0053616096,-1.6142956,-1.5822586,-1.5685254,-1.5592077,1.0419537,1.2106943,1.3521161,1.3773327,1.3874302,35.948727,1.5686684,1.6260719,1.645853,1.5844498,20.67299,0.0081471875,0.00094830146,0.976064,0.014169251,0.0006712239
112032355,-1.5498884,0.0053229462,-1.5953429,-1.5634512,-1.5498178,-1.5406488,1.0683243,1.2444377,1.3748145,1.3984776,1.408021,35.171005,1.5367031,1.5985126,1.6206074,1.5676003,20.812828,0.011533216,0.0010140366,0.9715985,0.015196329,0.0006579078
112232400,-1.5893786,0.0052566784,-1.6340165,-1.6037349,-1.5891386,-1.5784566,1.0366257,1.2973657,1.4145627,1.4353776,1.4434013,34.784515,1.4941711,1.552721,1.5737648,1.5261879,20.631104,0.015874295,0.0010766373,0.9662789,0.01612971,0.0006404847
112432410,-1.587689,0.005272479,-1.6319027,-1.6017361,-1.5872192,-1.5766658,1.0444673,1.3547697,1.4601059,1.4784465,1.4852214,34.69422,1.4600658,1.5108643,1.5289154,1.4848938,20.387125,0.02109974,0.0011323899,0.9601323,0.016999848,0.00063562224
112632399,-1.5857617,0.0058282684,-1.6295666,-1.599507,-1.5850636,-1.5746399,1.0518223,1.288302,1.3854089,1.4027452,1.4093223,34.568478,1.6032372,1.6463299,1.6614094,1.6204967,20.469948,0.027187338,0.0011833198,0.95299137,0.017929517,0.0007085136
112832381,-1.6002614,0.005158741,-1.6435933,-1.6136197,-1.5992372,-1.5889282,1.0412574,1.3023796,1.3913174,1.407455,1.4136691,34.728283,1.5198822,1.5522995,1.5631313,1.5240345,20.243618,0.033607453,0.0012240526,0.9457779,0.018784637,0.00060597766
113032396,-1.6255077,0.004769958,-1.6684625,-1.6385524,-1.6242188,-1.6140077,1.0163119,1.3924971,1.4701576,1.4834695,1.4881692,35.520115,1.4070911,1.4195862,1.4221992,1.3819656,19.590553,0.039170977,0.0012460388,0.9393861,0.019650986,0.0005458609
113232396,-1.6581726,0.00469654,-1.7008506,-1.6710035,-1.656718,-1.6465973,0.9803927,1.4188147,1.4862847,1.497078,1.5004859,36.361256,1.4052181,1.3978863,1.3923225,1.3506889,19.022945,0.043103904,0.0012504926,0.93447196,0.020640632,0.0005328636
113432396,-1.7068636,0.004390139,-1.7493013,-1.7195429,-1.7053226,-1.6952991,0.92498136,1.438539,1.4974985,1.506381,1.5089207,37.351513,1.3628368,1.3350868,1.3211002,1.2776299,18.426733,0.045006327,0.0012399217,0.93152964,0.021735964,0.00048822805
113632380,-1.7777137,0.0038514237,-1.819907,-1.7903365,-1.7762417,-1.7663532,0.8407671,1.4718695,1.5171938,1.5216875,1.5216494,39.331024,1.2694321,1.2053127,1.1761017,1.1261635,17.12431,0.04327393,0.0012055066,0.93202907,0.023078404,0.0004130548
113832382,-1.8482566,0.003897149,-1.890126,-1.8609678,-1.8471024,-1.8374009,0.7485926,1.5138931,1.5417719,1.5399103,1.5359249,41.783943,1.3381233,1.2319355,1.1850262,1.1268196,15.477256,0.037241634,0.0011399138,0.9362089,0.02498196,0.00042749316
114032396,-1.9175543,0.0037898836,-1.9587802,-1.9303023,-1.9167907,-1.9073435,0.6510815,1.5885162,1.5985727,1.589859,1.5815048,43.96926,1.3143387,1.17486,1.1139011,1.0494556,13.597565,0.029458273,0.0010544306,0.9417468,0.027317105,0.00042333145
114232381,-1.9937724,0.0028654744,-2.0338323,-2.0062995,-1.9932815,-1.9841952,0.54227424,1.5426111,1.5336132,1.5171356,1.5036602,45.830204,1.1144257,0.94825363,0.8759918,0.80670166,11.260077,0.022580003,0.00096868793,0.946483,0.029673869,0.00029451225
114432396,-2.0733173,0.0024643403,-2.1117842,-2.0854564,-2.0730698,-2.0644493,0.42655593,1.5549431,1.5258932,1.5008593,1.4815769,47.516834,0.9392853,0.7529831,0.6722183,0.5996361,8.614975,0.017015124,0.00088629837,0.94983673,0.032017868,0.00024404429
114632362,-2.1466444,0.0020172254,-2.1832366,-2.1582623,-2.1465783,-2.138465,0.3140302,1.3891945,1.3417416,1.308588,1.283678,48.672638,0.95175743,0.7539959,0.668478,0.59482,5.9943676,0.012367779,0.00080379215,0.9520472,0.03459705,0.0001841422
114832396,-2.215039,0.0017977514,-2.2494512,-2.2260032,-2.215107,-2.2075663,0.20438199,1.3781338,1.310791,1.2685089,1.2370758,49.701195,0.80813026,0.6034641,0.51517105,0.44146347,2.7749996,0.0090218475,0.0007297787,0.95295495,0.03713348,0.00016000461
115032389,-2.2741613,0.0016879899,-2.3064454,-2.2844741,-2.2743387,-2.2673295,0.10257509,1.3244877,1.2421093,1.1927109,1.1560345,49.827503,0.9035301,0.7062206,0.6213379,0.5514221,-0.00035095215,0.006340322,0.0006547821,0.95271707,0.040134467,0.00015343918
115232396,-2.3335924,0.0014312329,-2.3637946,-2.3432045,-2.3338113,-2.3273418,0.00097617414,1.1735954,1.0706234,1.0111065,0.966753,48.69719,0.7606354,0.58056164,0.5032244,0.43940926,-3.4732227,0.004635155,0.00059448543,0.9517452,0.042906273,0.00011887711
115432387,-2.3859487,0.0012660822,-2.414345,-2.3949275,-2.386189,-2.3802075,-0.09118834,0.95991325,0.8458767,0.7809105,0.7322216,46.718754,0.7206545,0.56616306,0.50001717,0.44461823,-6.040722,0.0035431432,0.0005474203,0.9504199,0.0453918,9.7742544e-05
115632386,-2.4437497,0.0012053504,-2.4706378,-2.4521747,-2.44401,-2.4384694,-0.18655184,0.8133068,0.69418526,0.626915,0.57624054,44.566338,0.809268,0.6797514,0.624526,0.5773163,-7.8943167,0.0027607721,0.00050719053,0.9487912,0.047846682,9.4223404e-05
115832401,-2.4912581,0.0011697599,-2.5168047,-2.499186,-2.4915333,-2.4863849,-0.26991373,0.7487793,0.62496567,0.5557518,0.5033798,42.413063,0.8486271,0.74011517,0.69402885,0.6537409,-9.70998,0.0021905098,0.00047248308,0.9469847,0.050257735,9.46407e-05
116032408,-2.527147,0.0011317377,-2.5515132,-2.5346336,-2.527428,-2.522625,-0.3390039,0.57411766,0.4496994,0.38069534,0.32826042,40.193935,0.91122913,0.82133675,0.7832918,0.74911976,-11.063214,0.001808301,0.00044607368,0.9453279,0.052324306,9.3513685e-05
116232364,-2.5572538,0.0011301296,-2.5805728,-2.5643501,-2.5575433,-2.5530472,-0.4005672,0.55168724,0.42798233,0.35995102,0.30811882,38.151676,0.9752016,0.9014082,0.8702488,0.8413782,-12.191378,0.0015128711,0.00042273768,0.9436048,0.05436022,9.9298806e-05
116432383,-2.5829086,0.0010736653,-2.60528,-2.5896409,-2.5831902,-2.5789766,-0.45468637,0.38891983,0.2689743,0.20347023,0.15342712,36.1284,0.9218359,0.8619337,0.83664036,0.8123188,-13.042459,0.001331416,0.00040732094,0.94234145,0.055827614,9.221963e-05
116632393,-2.6069412,0.0010561395,-2.6284616,-2.613347,-2.6072195,-2.6032639,-0.5053134,0.35478973,0.23807144,0.17482948,0.12650108,34.197433,0.9244156,0.87697077,0.856853,0.8365722,-13.767466,0.0011955285,0.00039481535,0.941205,0.057111833,9.280723e-05
116832357,-2.6325264,0.0010470713,-2.6532671,-2.6386278,-2.632799,-2.6290903,-0.55526704,0.19421196,0.08083534,0.019897461,-0.026664734,32.22479,0.9550433,0.91794014,0.9020572,0.8851328,-14.392553,0.0011157284,0.0003876394,0.9404761,0.057925843,9.470287e-05
117032407,-2.6625001,0.0010450626,-2.6825502,-2.6683254,-2.6627676,-2.6592875,-0.60788655,0.18206596,0.073991776,0.016298294,-0.027729034,30.553219,0.98195744,0.95385456,0.9416146,0.92760706,-14.7271385,0.0010536683,0.00038179278,0.9398214,0.05864547,9.7577846e-05
117232460,-2.6958382,0.0010242208,-2.7152765,-2.7014108,-2.696096,-2.6928244,-0.66210943,0.16190529,0.060317993,0.0064086914,-0.03469467,29.102879,0.9548631,0.933774,0.92435026,0.9126744,-14.91968,0.0010083073,0.00037741353,0.93928933,0.059229758,9.51662e-05
117432399,-2.7232914,0.0010119214,-2.7422082,-2.728651,-2.7235413,-2.7204432,-0.70882833,0.15688324,0.06310272,0.013553619,-0.024204254,28.023556,0.9436164,0.9268651,0.91921854,0.909184,-14.944165,0.0009712553,0.00037366443,0.9388019,0.05975931,9.384574e-05
117632396,-2.7426622,0.000996461,-2.761137,-2.747845,-2.7429035,-2.7399478,-0.74571896,0.0924263,0.0066223145,-0.038562775,-0.07296562,27.119053,0.9142084,0.90013504,0.8936248,0.8847952,-14.901483,0.0009480302,0.00037147375,0.9384716,0.060118083,9.0766196e-05
117832386,-2.7568173,0.00097378466,-2.774918,-2.7618508,-2.7570481,-2.7542086,-0.7758147,0.040628433,-0.037298203,-0.078229904,-0.10936928,26.409176,0.8441429,0.83158493,0.82577515,0.8178482,-14.837912,0.0009343573,0.0003703933,0.9382718,0.06033854,8.487806e-05
119232392,-2.8427632,0.000963135,-2.859175,-2.848174,-2.843032,-2.8392968,-0.9409423,-0.07367134,-0.11100197,-0.13047409,-0.1451912,23.427525,0.4876008,0.47783422,0.47380924,0.46932077,-13.627003,0.00092527946,0.00037233662,0.9381702,0.060469057,6.314415e-05
119432396,-2.84253,0.0009794805,-2.8588724,-2.8479164,-2.8427982,-2.8390822,-0.94880307,-0.07922745,-0.112443924,-0.1297741,-0.14286613,23.145527,0.5099883,0.5000911,0.496099,0.49185896,-13.356711,0.0009234389,0.00037237752,0.9381522,0.0604885,6.342121e-05
119632390,-2.8391461,0.0009941465,-2.855438,-2.8445117,-2.8394132,-2.8357146,-0.9527001,-0.10003853,-0.1290493,-0.14421844,-0.15567589,22.886858,0.5048518,0.49492502,0.49099302,0.48699522,-13.04579,0.00092181156,0.00037243144,0.93813926,0.060503453,6.2993255e-05
119832359,-2.8363328,0.0009968431,-2.8530107,-2.8407793,-2.8365157,-2.834146,-0.95555454,-0.06578064,-0.09078026,-0.10390282,-0.1138134,22.690176,0.40251732,0.39270115,0.38887358,0.38511848,-12.797434,0.00091946387,0.0003723303,0.93812114,0.060528044,5.9030506e-05
120032379,-2.8265378,0.0010108195,-2.843184,-2.8309796,-2.82672,-2.824349,-0.9514493,-0.105134964,-0.1264,-0.13761139,-0.14608383,22.439123,0.3677492,0.35804367,0.35431337,0.3507762,-12.478378,0.0009184797,0.00037239763,0.9381205,0.06053064,5.797494e-05
120232399,-2.8075686,0.0010321498,-2.82378,-2.8128798,-2.807829,-2.804184,-0.9383602,-0.1034565,-0.12139702,-0.13091087,-0.13810158,22.239086,0.41611862,0.40633535,0.40263128,0.39926243,-12.103153,0.0009159476,0.0003722573,0.93809676,0.06055622,5.8810925e-05
120432400,-2.7799916,0.0010422769,-2.7961953,-2.7852771,-2.7802482,-2.776636,-0.915461,-0.101091385,-0.11629295,-0.12439537,-0.13052368,22.06011,0.3431859,0.3329339,0.3291173,0.32582808,-11.910828,0.0009136311,0.00037212364,0.9380815,0.060576316,5.643635e-05
120632377,-2.7393527,0.0010551102,-2.7559226,-2.7438385,-2.7395377,-2.7370849,-0.87894595,0.08796883,0.074920654,0.067934036,0.06265259,22.103033,0.30054855,0.2892747,0.28515244,0.2818265,-11.78459,0.0009069001,0.00037133935,0.9380021,0.060664877,5.489542e-05
120832392,-2.7001472,0.0010691475,-2.7166874,-2.7046597,-2.7003338,-2.6978364,-0.84445184,0.027448654,0.016523361,0.010639191,0.006175995,21.949123,0.2556467,0.24330664,0.23886108,0.23547554,-11.656698,0.0009019518,0.00037080178,0.93795055,0.060723063,5.361159e-05
121032356,-2.6709404,0.0010824825,-2.6874547,-2.6754732,-2.671128,-2.6685956,-0.8192222,0.0050678253,-0.0027618408,-0.0070972443,-0.01039505,21.863953,0.143929,0.13128519,0.12677383,0.12345457,-11.409574,0.00089940114,0.00037054063,0.937928,0.06074992,5.2059473e-05
121232396,-2.6618407,0.0011003787,-2.678337,-2.6663775,-2.6620288,-2.659486,-0.8129144,0.12467766,0.120464325,0.11792946,0.11597824,21.924149,0.008292675,-0.0039548874,-0.008297443,-0.011434555,-11.048962,0.0008984939,0.00037041164,0.93791574,0.060763605,5.175914e-05
121432379,-2.6746986,0.0011188249,-2.6911855,-2.6792204,-2.6748853,-2.672362,-0.8277256,0.11026192,0.10916901,0.10817528,0.107385635,21.88196,-0.012403488,-0.024612427,-0.028910637,-0.031940937,-10.636364,0.0008986243,0.0003704157,0.93791634,0.06076297,5.1620354e-05
121632399,-2.7021234,0.0011376906,-2.7186031,-2.706617,-2.702308,-2.6998224,-0.8570349,0.11496353,0.11522102,0.114933014,0.114673615,21.790905,-0.024854183,-0.03765917,-0.04213524,-0.045184135,-10.446697,0.0008992708,0.00037048516,0.9379231,0.06075557,5.1659877e-05
121832399,-2.7272468,0.001160825,-2.743711,-2.7317147,-2.7274306,-2.72498,-0.8847274,0.21320915,0.21312523,0.21272469,0.2123928,21.748505,-0.09687328,-0.11111069,-0.11605263,-0.11928415,-10.579074,0.000901435,0.00037070946,0.9379413,0.06073351,5.306126e-05
122032409,-2.7526922,0.0011817949,-2.7691238,-2.7571297,-2.7528749,-2.7504613,-0.9152163,0.2360115,0.23192596,0.22964668,0.22793579,21.466078,-0.1616602,-0.17871428,-0.1845994,-0.18827581,-11.274918,0.00090420607,0.00037096336,0.9379582,0.060712498,5.412179e-05
122232400,-2.7688525,0.0011962927,-2.7852216,-2.7732582,-2.769033,-2.76665,-0.9395864,0.1663189,0.15582657,0.15050316,0.14654922,20.787165,-0.19947958,-0.21856976,-0.22514772,-0.22914028,-12.236984,0.000907485,0.00037126403,0.93797785,0.060689628,5.3806038e-05
122432396,-2.791611,0.001217331,-2.807891,-2.7959723,-2.7917907,-2.7894533,-0.9728759,0.114040375,0.097457886,0.0892334,0.083120346,19.904354,-0.33479595,-0.3539462,-0.36054707,-0.3645053,-13.180132,0.0009146687,0.00037200525,0.9380317,0.060625564,5.6092344e-05
122632396,-2.825744,0.0012307402,-2.8419037,-2.8300414,-2.8259206,-2.8236463,-1.0195018,0.10591507,0.08414078,0.07342911,0.06547928,18.934084,-0.36045933,-0.37817717,-0.3842883,-0.38794374,-13.852957,0.00092135766,0.00037269757,0.93808407,0.06056519,5.676935e-05
122832372,-2.8666224,0.0012376144,-2.8826475,-2.8708477,-2.8667943,-2.86459,-1.0740337,0.17914009,0.15418434,0.14194489,0.13286018,17.999344,-0.3031788,-0.31785583,-0.3229332,-0.3259964,-14.108242,0.0009215988,0.00037261017,0.9380681,0.060581915,5.584346e-05
123032371,-2.9164722,0.0012410465,-2.9323602,-2.9206219,-2.9166381,-2.9145074,-1.1375397,0.09041786,0.0640316,0.051101685,0.041511536,17.011305,-0.24587798,-0.2575183,-0.2615595,-0.26403785,-14.146513,0.000922969,0.0003727565,0.9380835,0.060566783,5.3958553e-05
123232396,-2.9652758,0.0012498881,-2.9810243,-2.9693558,-2.9654384,-2.9633727,-1.2004852,0.21918488,0.1917057,0.17825508,0.16828537,16.227436,-0.18598986,-0.19464469,-0.19767284,-0.199584,-14.117687,0.00091634685,0.00037187216,0.93799865,0.06065921,5.395137e-05
123432358,-3.0162766,0.0012566429,-3.031858,-3.0202823,-3.0164354,-3.014436,-1.2662388,0.1078186,0.07810402,0.063583374,0.05281639,15.1453495,-0.24129248,-0.24773693,-0.2500224,-0.25151658,-14.373258,0.00091453304,0.00037166287,0.9379842,0.0606757,5.3830146e-05
123632356,-3.0576015,0.0012654994,-3.0729668,-3.061525,-3.057758,-3.0558262,-1.3240014,0.036554337,0.0034599304,-0.012670517,-0.024641037,14.014326,-0.33042598,-0.3353994,-0.3371935,-0.3384056,-14.858234,0.0009164475,0.0003719867,0.93802524,0.060630854,5.5487453e-05
123832384,-3.0853662,0.001261892,-3.1005197,-3.0892127,-3.0855172,-3.083643,-1.3684075,0.035203934,0.0024375916,-0.013521194,-0.025356293,13.362775,-0.20045495,-0.20494866,-0.20656848,-0.20766068,-14.792651,0.00091729854,0.0003721933,0.93805903,0.06059841,5.3029402e-05
124032396,-3.1082745,0.0012651731,-3.1231678,-3.112032,-3.1084228,-3.1066153,-1.4101043,0.013504028,-0.022369385,-0.03981781,-0.052749634,12.348291,-0.25653988,-0.26062685,-0.2621085,-0.26310498,-15.296902,0.0009197524,0.00037263575,0.93811536,0.060538054,5.4143427e-05
124232385,-3.1205378,0.0012631768,-3.1351316,-3.1241937,-3.120682,-3.1189487,-1.4427348,-0.04534912,-0.08351135,-0.10204697,-0.1157856,11.320692,-0.26311314,-0.2667066,-0.26801926,-0.26890463,-15.675077,0.00092595903,0.0003736107,0.93822765,0.060418095,5.4583776e-05
124432399,-3.127236,0.001260814,-3.141469,-3.1307712,-3.127377,-3.125733,-1.4719578,-0.093738556,-0.13513565,-0.15521812,-0.17010307,10.092373,-0.337614,-0.34006488,-0.34100172,-0.34167573,-16.189598,0.00093594164,0.00037512725,0.93839586,0.06023642,5.6667814e-05
124632396,-3.1327395,0.0012509923,3.1365654,-3.1361554,-3.1328747,-3.1313167,-1.500134,-0.068229675,-0.108802795,-0.12847519,-0.14304733,9.3632345,-0.31854182,-0.3204115,-0.32114375,-0.32169074,-16.207918,0.0009436964,0.00037633936,0.938535,0.060089085,5.596142e-05
124832364,3.1167698,0.001244681,3.1032255,3.1134658,3.1166391,3.1181164,-1.5558484,-0.14767075,-0.18698502,-0.20603752,-0.22014809,8.614846,-0.2815386,-0.28310037,-0.283718,-0.28418636,-16.15422,0.0009563019,0.00037818358,0.9387332,0.05987607,5.61777e-05
125032380,3.0630476,0.0012617848,3.0498717,3.0598533,3.062912,3.0643058,-1.6324416,-0.19846153,-0.23853111,-0.25792885,-0.27228737,7.6612206,-0.57161677,-0.5727445,-0.5732125,-0.5735893,-16.6259,0.000973136,0.00038056922,0.9389745,0.05960539,6.644591e-05
125232354,3.0075252,0.0012571139,2.9946995,3.0044332,3.0073926,3.0087204,-1.7099147,-0.2495594,-0.2875824,-0.3059883,-0.31959724,7.0716124,-0.5720506,-0.5733402,-0.5738349,-0.57420015,-16.562393,0.0009928893,0.00038328287,0.9392491,0.059307177,6.75885e-05
125432461,2.9514766,0.0012383409,2.9389856,2.9484775,2.9513521,2.9526305,-1.788241,-0.1308937,-0.16749763,-0.18520927,-0.1982956,6.647279,-0.505785,-0.50753355,-0.50814486,-0.5085373,-16.506691,0.0010046783,0.00038491914,0.93942106,0.05912682,6.2496234e-05
125632357,2.8995085,0.0012377485,2.8873374,2.8965878,2.8993845,2.9006224,-1.8620106,-0.20376205,-0.23923302,-0.2563877,-0.2690544,6.0031357,-0.5330887,-0.53498745,-0.5356262,-0.53600836,-16.519817,0.0010211305,0.00038711497,0.93963534,0.058891807,6.467082e-05
125832405,2.8517478,0.0012252523,2.83992,2.848913,2.851628,2.8528244,-1.9327933,-0.1898613,-0.22618294,-0.24373627,-0.25668907,5.100338,-0.49714398,-0.49814916,-0.4985094,-0.4987533,-16.588226,0.0010365166,0.00038919147,0.93984306,0.058668528,6.279558e-05
126032431,2.80625,0.0012235712,2.7948554,2.8035226,2.8061273,2.8072636,-2.0043733,-0.27046585,-0.31087685,-0.33039856,-0.3447914,3.453292,-0.60777473,-0.60601234,-0.6055684,-0.6054702,-16.990398,0.0010574955,0.0003920818,0.9401282,0.058352564,6.967998e-05
126232391,2.7688243,0.0012021083,2.7579207,2.7662299,2.7687058,2.7697659,-2.0694547,-0.37594414,-0.4182968,-0.4387474,-0.4538269,1.9247437,-0.55600786,-0.55144787,-0.55021334,-0.5498023,-16.996227,0.0010862729,0.00039601303,0.9405193,0.05792806,7.040496e-05
126432434,2.7326062,0.0011905421,2.7222443,2.7301543,2.7324846,2.7334588,-2.1355968,-0.3525734,-0.39611435,-0.41713905,-0.43263626,0.47577095,-0.7176466,-0.7098837,-0.70778275,-0.7070637,-17.061943,0.0011096959,0.00039948107,0.9408786,0.057533465,7.8815676e-05
126632398,2.6985862,0.0011490928,2.6887434,2.6962783,2.6984763,2.6993756,-2.1996906,-0.24414825,-0.28546906,-0.30543327,-0.32013893,-0.35264206,-0.6645789,-0.65490484,-0.6523404,-0.65150976,-16.622028,0.0011216019,0.00040160876,0.94113636,0.057268947,7.147383e-05
126832399,2.6681995,0.0011293432,2.6588001,2.6660073,2.6680927,2.6689315,-2.258174,-0.25157547,-0.2891903,-0.30738068,-0.3207798,-0.86203957,-0.6776562,-0.6675987,-0.66500664,-0.6642351,-16.159788,0.0011313944,0.00040349347,0.94136566,0.05702739,7.211676e-05
127032397,2.6390133,0.0011075076,2.6299791,2.6369133,2.6389132,2.6397104,-2.3130722,-0.20016861,-0.23360062,-0.24977875,-0.2617054,-1.0145035,-0.62710094,-0.61769867,-0.61534023,-0.6146984,-15.631034,0.0011368557,0.00040477046,0.94153756,0.056853097,6.768188e-05
127232366,2.6107917,0.0011064919,2.602061,2.6087582,2.6106894,2.6114583,-2.3648148,-0.20867348,-0.2386074,-0.25309944,-0.26379395,-1.1932392,-0.7042465,-0.6955347,-0.6934042,-0.69287586,-15.258207,0.0011407323,0.0004058665,0.9416868,0.056694675,7.1905444e-05
127432397,2.583565,0.0011025161,2.5751147,2.581592,2.5834627,2.58421,-2.414802,-0.17865944,-0.20656395,-0.22009277,-0.23007584,-1.5755444,-0.7425022,-0.7335806,-0.7314501,-0.7309761,-14.88601,0.0011410613,0.0004065877,0.9418108,0.056568205,7.338278e-05
127632376,2.5621176,0.0010956486,2.5539296,2.5602064,2.562018,2.5627406,-2.457965,-0.26059532,-0.28689575,-0.29966354,-0.30909157,-2.1216278,-0.6998949,-0.6904173,-0.6882143,-0.68778324,-14.410182,0.0011452212,0.00040777653,0.9419767,0.05639799,7.2319875e-05
129032396,2.5277216,0.0011365584,2.5207965,2.5261621,2.5276122,2.5281084,-2.6273935,-0.2780609,-0.29547882,-0.30399513,-0.31034088,-3.8834286,-1.0047941,-0.9968376,-0.9952755,-0.99526405,-12.2327175,0.0011281886,0.00041099885,0.9427135,0.055647597,9.970126e-05
129232395,2.487626,0.0011404108,2.480875,2.4860725,2.4875135,2.488039,-2.686119,-0.27159882,-0.28881073,-0.29725266,-0.30353928,-4.291651,-1.0236588,-1.0149498,-1.0132799,-1.0133257,-11.867089,0.0011238613,0.00041146242,0.9428421,0.055520713,0.00010189056
129432396,2.4435894,0.0011669727,2.4370136,2.442023,2.4434552,2.444015,-2.7497196,-0.40868568,-0.42605114,-0.43458652,-0.44095516,-4.94493,-1.1317644,-1.1219082,-1.1200714,-1.120183,-11.56419,0.0011210288,0.0004123624,0.9430107,0.05533076,0.00012517648
129632407,2.40319,0.0011646372,2.3968086,2.4016337,2.4030547,2.403645,-2.8102422,-0.38912487,-0.40606594,-0.41442394,-0.42066765,-5.2967043,-1.1428728,-1.1322393,-1.1303139,-1.1305056,-11.144875,0.0011157506,0.00041308906,0.9431962,0.055149212,0.00012575486
129832396,2.3646493,0.0011590921,2.3584602,2.3631053,2.3645153,2.3651364,-2.8688812,-0.40747356,-0.423707,-0.43174744,-0.43776798,-5.5864573,-1.1232681,-1.1120329,-1.1100607,-1.1103354,-10.669619,0.0011099437,0.00041381616,0.9433895,0.054963265,0.00012351146
130032389,2.3311355,0.0011460196,2.3251405,2.3296127,2.3310087,2.3316545,-2.9229424,-0.38046455,-0.39615822,-0.403965,-0.409832,-5.8769855,-1.0789671,-1.0667477,-1.0646725,-1.0650492,-10.113103,0.0011021991,0.000414376,0.94358104,0.054787625,0.000114836716
130232399,2.3086066,0.0011614123,2.3027909,2.307094,2.3084624,2.3091154,-2.9674318,-0.43143272,-0.44690418,-0.4546461,-0.46048832,-6.3684597,-1.1869326,-1.1729155,-1.1706123,-1.1711407,-9.594564,0.0010909507,0.00041488788,0.94377774,0.05458015,0.00013621511
130432396,2.2952597,0.0011408379,2.2896562,2.2937958,2.295127,2.2957737,-3.0034604,-0.50447655,-0.51958084,-0.52719593,-0.5329752,-6.828718,-1.091588,-1.0759888,-1.0735216,-1.0742207,-8.870705,0.0010813832,0.00041568952,0.94403315,0.05434476,0.00012500783
130632401,2.2789013,0.0011287876,2.2735007,2.2774725,2.2787719,2.2794206,-3.0428116,-0.49636078,-0.51067543,-0.5179701,-0.5235405,-7.028988,-1.0794392,-1.0630589,-1.0605621,-1.061409,-8.275116,0.0010702772,0.00041637066,0.9442778,0.054113146,0.00012245747
130832396,2.2441392,0.0011170688,2.2389596,2.2427237,2.2440088,2.2446904,-3.1018214,-0.5276766,-0.54154015,-0.54868984,-0.5541935,-7.387289,-1.0691929,-1.0512238,-1.0485916,-1.0496426,-7.573085,0.0010579153,0.00041707716,0.9445379,0.053863965,0.00012330375
131032396,2.2006738,0.0011145393,2.1957197,2.1992517,2.200531,2.2012615,3.1128316,-0.65036297,-0.66348743,-0.6703577,-0.6757002,-7.7420416,-1.0907822,-1.071331,-1.068594,-1.0698624,-6.856699,0.0010455674,0.0004180503,0.9448295,0.053568777,0.00013811547
131232353,2.1413617,0.0010812839,2.1366816,2.1399436,2.1412296,2.1420338,3.026387,-0.6131592,-0.6258354,-0.6326084,-0.6379385,-8.055378,-1.0094261,-0.9879055,-0.9849987,-0.98653984,-5.9476337,0.0010318538,0.00041891215,0.94514525,0.05328211,0.00012186137
131432388,2.0798674,0.0010742642,2.0754657,2.078425,2.0797126,2.0805924,2.9345438,-0.76683474,-0.7791028,-0.78583384,-0.79121447,-8.621519,-1.0785007,-1.0541668,-1.051012,-1.0529213,-5.0187664,0.0010161316,0.000420065,0.94549364,0.052920517,0.00014975034
131632396,2.0137005,0.0010343776,2.0096164,2.0122607,2.0135531,2.014514,2.837161,-0.8344226,-0.8455243,-0.85183764,-0.8569789,-8.809845,-0.95144653,-0.9255295,-0.92232513,-0.9245453,-3.9628124,0.0010029948,0.0004214339,0.9458801,0.05255712,0.00013836521
131832361,1.9446661,0.0009927424,1.9409047,1.9432286,1.9445248,1.9455682,2.7354937,-0.82946444,-0.8392582,-0.84508276,-0.8499317,-8.833074,-0.8795891,-0.8522968,-0.84906006,-0.8515835,-2.9281368,0.000989384,0.0004226846,0.94625163,0.05220821,0.00012803255
132032399,1.8793377,0.0009644477,1.8758866,1.8778902,1.8791841,1.880302,2.6363406,-0.9756737,-0.9840841,-0.98935604,-0.9938512,-8.899515,-0.84874535,-0.82042694,-0.81720734,-0.81999207,-1.9365196,0.0009765507,0.00042413827,0.94662106,0.05183361,0.00014462815
132232383,1.8213766,0.00091525336,1.8182462,1.8199499,1.821236,1.8224169,2.5443196,-0.9479177,-0.9548924,-0.9595361,-0.96359825,-8.658388,-0.7189865,-0.6905117,-0.6873913,-0.69034576,-0.9521141,0.0009656614,0.00042544783,0.9469746,0.0515086,0.00012567392
132432401,1.7724918,0.0008720789,1.7696589,1.7710843,1.7723584,1.7735918,2.4610348,-0.914329,-0.91996425,-0.9239585,-0.9275387,-8.314939,-0.65242386,-0.62418747,-0.6211891,-0.62423515,-0.09324837,0.0009549858,0.00042650616,0.9472773,0.05122584,0.000115348266
132632357,1.733692,0.00083522976,1.7311296,1.7323024,1.7335616,1.7348372,2.3887532,-0.95964015,-0.96410453,-0.96745145,-0.9705118,-7.9441247,-0.5285492,-0.50128365,-0.49845886,-0.501482,0.65766335,0.00094748,0.00042753253,0.9475292,0.050983757,0.00011202489
132832366,1.7018713,0.00080614333,1.6995484,1.7004939,1.7017378,1.7030497,2.3238316,-0.9830787,-0.98655915,-0.989276,-0.9917924,-7.493864,-0.59744835,-0.5715523,-0.5689087,-0.5718365,1.0904102,0.0009374795,0.00042824607,0.94775385,0.05076108,0.00011937867
133032400,1.6685168,0.0007713287,1.6664178,1.6671653,1.6683965,1.6697403,2.2595656,-0.8933332,-0.8960928,-0.89825237,-0.9002515,-6.8926935,-0.40524673,-0.3812027,-0.37877274,-0.3815155,1.5879135,0.0009319104,0.00042884276,0.9479312,0.050610147,9.799665e-05
133232396,1.6303324,0.0007477106,1.6284186,1.6289955,1.6302164,1.6315885,2.1916847,-0.7958381,-0.7980406,-0.7996881,-0.801188,-6.260849,-0.4783039,-0.4561901,-0.45396042,-0.4564991,1.7101784,0.00092402345,0.00042908263,0.94806945,0.05048562,9.186482e-05
133432363,1.5885452,0.0007328105,1.5867891,1.5872172,1.5884262,1.5898197,2.1229181,-0.97191,-0.9737482,-0.9749718,-0.9760344,-5.9172525,-0.2170887,-0.19672966,-0.19467735,-0.19701004,2.0874004,0.00092261314,0.00042951293,0.9481435,0.050404653,9.9699064e-05
133632399,1.5474274,0.0007153952,1.5458162,1.5461204,1.5473167,1.5487244,2.0558348,-0.820446,-0.82199574,-0.82285166,-0.82352734,-5.28655,-0.25081444,-0.23205948,-0.2301712,-0.23231888,2.1371937,0.00091983005,0.0004296906,0.9482156,0.050348997,8.583924e-05
133832400,1.5064244,0.00070462597,1.5049337,1.5051345,1.5063162,1.5077308,1.9903946,-0.8144679,-0.81582785,-0.8163781,-0.8167186,-4.805602,-0.16373825,-0.14646912,-0.1447277,-0.14670181,2.2370262,0.00091858796,0.00042981177,0.9482496,0.05031851,8.3556704e-05
134032397,1.4634831,0.0006970316,1.4620981,1.4622108,1.4633751,1.4647894,1.9239242,-0.8637595,-0.8649788,-0.8652487,-0.86527586,-4.4086857,-0.10456848,-0.08842468,-0.08679962,-0.0886364,2.3255157,0.0009182741,0.000429868,0.948257,0.050308116,8.671104e-05
134232388,1.4128509,0.0006902636,1.4115611,1.4116033,1.4127446,1.4141474,1.8510551,-0.8760567,-0.8771744,-0.87712383,-0.8767781,-3.9730303,0.046476364,0.061649323,0.0631752,0.061454773,2.4948196,0.0009201851,0.00042988558,0.94823295,0.050329477,8.751759e-05
134432399,1.3614236,0.0006830343,1.3602226,1.3602074,1.3613211,1.3627034,1.7787267,-0.8467164,-0.84776926,-0.8473916,-0.8466544,-3.5266023,-0.021648407,-0.0071353912,-0.005672455,-0.0073184967,2.4825478,0.0009205965,0.00042971777,0.9482024,0.050362512,8.479777e-05
134632400,1.306283,0.0006782424,1.3051581,1.3051015,1.3061805,1.30753,1.7040652,-0.91726303,-0.9183111,-0.9175997,-0.91645145,-3.20994,0.14874077,0.16250229,0.16389275,0.16232872,2.6583843,0.00092329114,0.0004294765,0.9481226,0.0504321,9.2472204e-05
134832401,1.2506769,0.00067443075,1.2496201,1.2495329,1.2505717,1.2518787,1.6293632,-1.0615892,-1.0626678,-1.0616388,-1.060091,-3.012764,0.16497803,0.17814827,0.17947388,0.1779728,2.7000122,0.0009258465,0.00042900845,0.9480018,0.0505343,0.00010907713
135032412,1.2011716,0.00066596916,1.2001891,1.2000769,1.2010746,1.2023365,1.5614802,-0.96092606,-0.9620857,-0.960742,-0.9587908,-2.6082678,0.1875267,0.20022011,0.20148277,0.20002747,2.7581863,0.0009283999,0.00042845804,0.94789356,0.050651886,9.76807e-05
135232441,1.1619653,0.00066016725,1.1610485,1.1609099,1.1618705,1.1630931,1.5047879,-0.98916054,-0.9904089,-0.9888611,-0.9866419,-2.3813534,0.18605614,0.19806862,0.19924927,0.1978569,2.7099972,0.0009306453,0.00042776845,0.947755,0.050786026,0.0001006074
135432396,1.1310414,0.0006559703,1.130185,1.130019,1.1309474,1.1321363,1.4575586,-1.0432043,-1.0445681,-1.0428238,-1.0403299,-2.1998653,0.21389484,0.22514915,0.22624111,0.2249136,2.6522903,0.0009329523,0.00042693282,0.9475885,0.05094391,0.00010770953
135632363,1.101685,0.0006515684,1.1008865,1.1007012,1.1015977,1.1027516,1.4137086,-0.93468285,-0.93619347,-0.9342222,-0.9314165,-1.8655329,0.24919319,0.2596159,0.26060772,0.25935268,2.5637894,0.0009354356,0.0004260971,0.9474364,0.051106106,9.602382e-05
135832360,1.0753702,0.0006516584,1.0746152,1.0744137,1.0752795,1.0763996,1.3738743,-1.0974083,-1.0990934,-1.0968571,-1.0936852,-1.8147306,0.2695074,0.27918434,0.2800808,0.27888393,2.4690866,0.00093768723,0.00042492923,0.94720566,0.051315248,0.000116505136
136032358,1.0532783,0.0006520532,1.0525666,1.0523524,1.0531908,1.0542802,1.3400954,-1.0891438,-1.0909777,-1.0885744,-1.0851622,-1.6323357,0.24329567,0.25209713,0.25288486,0.2517643,2.2715693,0.00093939085,0.00042366923,0.94698656,0.05153621,0.00011418842
136232397,1.0280619,0.0006554167,1.027383,1.027169,1.0279777,1.0290301,1.3051045,-1.0698671,-1.0717964,-1.0693264,-1.0658131,-1.4798603,0.2628088,0.2706871,0.2713623,0.27032566,2.0895662,0.00094103423,0.00042238858,0.94676393,0.051760815,0.00011180417
136432425,1.0021372,0.00066167756,1.0014809,1.0012741,1.0020517,1.0030639,1.2703848,-1.163701,-1.1657372,-1.163166,-1.1595011,-1.4510632,0.2971115,0.30430603,0.3048973,0.30391312,1.9821072,0.0009426646,0.00042091304,0.9464929,0.052016497,0.00012706242
136632405,0.98128486,0.00066921,0.98064935,0.9804484,0.9811996,0.9821779,1.2418857,-1.2361593,-1.2382612,-1.2356567,-1.2319365,-1.4270658,0.1848402,0.19132996,0.19183445,0.19091225,1.7121744,0.0009432155,0.0004192762,0.94621366,0.0522885,0.000135447
136832399,0.9644965,0.00067712256,0.9638839,0.9636885,0.9644173,0.96536654,1.2187839,-1.1423426,-1.144475,-1.1418905,-1.1381845,-1.2584696,0.22040176,0.22618675,0.22661686,0.22576523,1.5826111,0.00094398664,0.00041777617,0.94597304,0.05254567,0.00011961391
137032396,0.94698083,0.0006877471,0.9463819,0.94619757,0.9469035,0.9478219,1.1959379,-1.1560221,-1.158164,-1.1556053,-1.1519346,-1.2076578,0.1702404,0.1754055,0.1757679,0.17498493,1.3858747,0.0009443076,0.00041624054,0.9457164,0.052803252,0.000119908036
137232402,0.93167526,0.0006998701,0.9310873,0.93091464,0.9316001,0.9324905,1.1762493,-1.1503849,-1.152504,-1.1500053,-1.1464157,-1.1514053,0.15034866,0.15491104,0.15521526,0.15450478,1.219758,0.0009444442,0.0004147309,0.9454663,0.053056475,0.00011807863
137432396,0.91409874,0.00071331207,0.91351694,0.9133616,0.91402453,0.9148834,1.1548314,-1.1740122,-1.1760721,-1.1736746,-1.1702232,-1.1435947,0.16938972,0.1735115,0.17376995,0.17311287,1.1362104,0.0009446284,0.00041323726,0.9452111,0.053308923,0.00012216899
137632359,0.90699214,0.0007272322,0.9064199,0.90626746,0.9069183,0.90776163,1.1442249,-1.1856327,-1.1876392,-1.1853161,-1.1819649,-1.1250134,0.20496082,0.20875168,0.2089777,0.20835781,1.0996256,0.0009449283,0.0004117682,0.9449573,0.053560972,0.00012504774
137832410,0.9077347,0.00074101146,0.9071773,0.9070169,0.90766376,0.9085044,1.1418929,-1.12467,-1.1265774,-1.1243973,-1.1212444,-1.0541725,0.18059635,0.1840868,0.18428421,0.1836977,1.0072222,0.0009451605,0.0004104553,0.9447414,0.053789195,0.00011382788
138032396,0.90981597,0.0007567173,0.9092691,0.9090996,0.90974486,0.91058594,1.1414214,-1.1324558,-1.1341438,-1.1322575,-1.1295185,-1.0868168,0.18946266,0.19258595,0.1927576,0.19221973,0.9242506,0.00094544864,0.00040930137,0.944539,0.05399109,0.00011509261
138232352,0.89638513,0.00077373115,0.8958387,0.8956846,0.8963144,0.8971323,1.1259377,-1.1558228,-1.1572704,-1.1557007,-1.1534176,-1.143652,0.20238495,0.20514488,0.20529175,0.20480824,0.842576,0.0009458134,0.00040831795,0.94436175,0.054164834,0.0001192144
138432396,0.8651056,0.0007908976,0.86447483,0.86461335,0.8650526,0.86556125,1.0919619,-1.1491394,-1.1504211,-1.1490631,-1.1470718,-1.1505489,0.14763355,0.15014553,0.15027428,0.149827,0.72839165,0.0009460361,0.00040746894,0.94421417,0.054315846,0.00011651798
138632400,0.8567427,0.00080816884,0.8561923,0.8560906,0.8566777,0.85743034,1.0828857,-1.1092701,-1.1104622,-1.1092072,-1.1073704,-1.1063251,0.14989662,0.1522522,0.15236759,0.15194225,0.69863033,0.00094627443,0.0004067121,0.94408524,0.054451607,0.00011010034
