timestamp,timestamp_sample,accel_device_id,gyro_device_id,delta_angle[0],delta_angle[1],delta_angle[2],delta_velocity[0],delta_velocity[1],delta_velocity[2],delta_angle_dt,delta_velocity_dt,delta_velocity_clipping
68733011,68732396,2359330,2359330,-1.412856e-07,-1.9815265e-07,-7.940369e-06,0.00030532453,0.0006128752,-0.04960268,5042,5042,0
69232975,69232424,2359330,2359330,5.261424e-05,-3.351707e-06,-1.5586573e-05,0.00021819556,0.00070131756,-0.049540654,5030,5030,0
69732945,69732360,2359330,2359330,3.616837e-05,-7.0673514e-07,-4.732551e-06,0.00035006893,0.0008552598,-0.04940619,5009,5009,0
70233044,70232397,2359330,2359330,-3.2903994e-05,9.449773e-05,-0.00010460375,0.0021362412,-0.0019218157,-0.04846724,5041,5041,0
70732999,70732373,2359330,2359330,5.317839e-06,0.00010889339,-8.779169e-06,0.00010328605,0.00054083014,-0.0487113,5026,5026,0
71233021,71232373,2359330,2359330,-3.1877207e-05,-2.371454e-05,-2.8030988e-06,0.0004649823,0.0011605892,-0.048987273,4982,4982,0
71733009,71732360,2359330,2359330,-4.054469e-05,2.7601234e-05,0.00010812421,0.00085499446,0.0012582672,-0.050061278,5007,5007,0
72232977,72232392,2359330,2359330,0.00019524276,-2.5961814e-05,-6.151368e-05,0.0006773467,0.0007956067,-0.05027823,5043,5043,0
72733005,72732401,2359330,2359330,-5.8607643e-06,-8.247866e-05,-2.638401e-05,0.00083811505,0.0017796406,-0.049746398,5017,5017,0
73233093,73232397,2359330,2359330,-0.00015592291,8.867728e-05,1.6468439e-05,0.0013309825,0.00032055058,-0.049687352,5050,5050,0
73733019,73732396,2359330,2359330,5.2905775e-06,2.8321732e-05,-1.0174783e-05,0.001066591,0.00039338297,-0.04980644,5043,5043,0
74232950,74232365,2359330,2359330,0.000115673545,9.166357e-06,6.5532927e-06,0.0005984536,0.0010769016,-0.049233343,4970,4970,0
74732998,74732369,2359330,2359330,1.0386572e-05,-4.0162373e-08,-1.7681166e-05,0.00042744615,0.0006689021,-0.04982575,4997,4997,0
75233190,75232430,2359330,2359330,-3.5063906e-05,-2.7392585e-05,-5.5536498e-06,0.00067866,0.00022773589,-0.049891517,5083,5083,0
75733054,75732354,2359330,2359330,1.5143068e-05,-1.2416331e-05,-2.0623978e-05,0.0007675816,0.00043732987,-0.04919545,5001,5001,0
76233052,76232361,2359330,2359330,6.0171944e-05,7.9967394e-05,-1.5219362e-05,0.00070574705,0.0012537582,-0.04871339,5013,5013,0
76732980,76732357,2359330,2359330,4.3219216e-06,-5.3806993e-06,1.2700422e-05,0.00078317185,0.0007007497,-0.04933743,5010,5010,0
77733037,77732367,2359330,2359330,7.767324e-06,-7.495331e-06,-6.530183e-06,0.0006532923,0.00038301558,-0.049632046,5017,5017,0
78233120,78232396,2359330,2359330,9.319575e-05,1.7317287e-05,8.175864e-06,0.0006980804,0.0009112722,-0.049269795,5040,5040,0
78732972,78732354,2359330,2359330,8.01947e-05,-6.149082e-05,-2.9406436e-05,0.001847576,0.00045938845,-0.04708571,5007,5007,0
79232994,79232371,2359330,2359330,3.085141e-05,-2.1420452e-05,-7.635999e-06,0.0020898518,0.00048439438,-0.050713807,5024,5024,0
80232984,80232399,2359330,2359330,1.6950311e-05,6.2319275e-05,-1.3345738e-05,0.00072983204,-0.00016203662,-0.04927407,5051,5051,0
80733036,80732372,2359330,2359330,-8.137682e-06,1.537886e-05,4.051597e-05,-0.0007389484,0.0053518577,-0.048244607,5025,5025,0
81232989,81232366,2359330,2359330,8.3059305e-05,7.295349e-05,-6.817728e-05,-0.004209218,-0.00016408994,-0.045748312,4964,4964,0
81733045,81732402,2359330,2359330,0.00021840773,-3.8298575e-05,-0.00013524528,-0.003504313,-0.0014222385,-0.04663799,5004,5004,0
83232981,83232396,2359330,2359330,7.533648e-05,-0.00010267535,0.00016715919,-0.0018291599,0.00032733325,-0.05001909,5049,5049,0
84232957,84232369,2359330,2359330,0.00017399639,-0.00021324331,-3.921052e-05,-0.0023158127,0.0015810212,-0.05168066,5002,5002,0
84733022,84732396,2359330,2359330,6.683259e-05,-8.9810244e-05,-7.4365664e-05,0.000766354,0.0013840649,-0.04725845,5049,5049,0
85232935,85232358,2359330,2359330,-1.1768122e-05,7.893946e-05,-8.7484645e-05,-0.00053524243,0.0016432278,-0.054353874,4998,4998,0
85733029,85732354,2359330,2359330,-8.795416e-05,-0.0003213291,1.2039762e-05,0.0006400031,0.001776605,-0.04386123,5004,5004,0
86233008,86232357,2359330,2359330,1.1213447e-05,-0.00039004107,1.2725828e-05,-0.0034482104,0.002119899,-0.043278053,5010,5010,0
86732992,86732363,2359330,2359330,-9.051097e-05,-5.435412e-05,-2.1405407e-05,-0.0008534149,0.0008120563,-0.041044228,5016,5016,0
87233015,87232400,2359330,2359330,-0.0015137367,-0.0016882131,-0.00033015272,0.036002077,0.008126259,-0.05948463,5037,5037,0
87733072,87732368,2359330,2359330,0.0015198904,0.00091048673,-7.205222e-05,0.019642798,0.037187647,-0.073543355,5021,5021,0
88233060,88232399,2359330,2359330,0.00075336837,0.00015157824,0.0006716432,0.030369284,0.019819405,-0.022915466,5052,5052,0
88733086,88732374,2359330,2359330,-0.0014863843,0.0008030517,0.0017143083,0.04300051,0.004903537,-0.017967675,5024,5024,0
89232972,89232386,2359330,2359330,0.0009793674,0.0017970083,0.0005203811,0.02815212,-0.004537431,-0.055519573,5033,5033,0
89733048,89732377,2359330,2359330,0.00042166334,0.00076435745,-0.0009650292,0.024234252,-0.004875775,-0.09128153,5022,5022,0
90733019,90732379,2359330,2359330,-0.001679951,-0.0009761131,-0.0015601163,0.020879844,-0.010150414,-0.034517486,5020,5020,0
91233054,91232402,2359330,2359330,0.0012765323,-0.0010656195,-0.0017356528,0.015747432,-0.013758453,-0.02944522,5055,5055,0
91733044,91732362,2359330,2359330,0.0012146408,0.0005151437,-0.001850166,0.01191299,-0.019978877,-0.05969473,5012,5012,0
92232997,92232354,2359330,2359330,0.00092916685,-0.00018450111,-0.0015338655,0.009012527,-0.022467578,-0.043360204,4963,4963,0
92732996,92732359,2359330,2359330,0.0004798629,-3.894475e-05,-8.1177745e-07,0.0061378903,-0.019825088,-0.034597248,4998,4998,0
93232991,93232400,2359330,2359330,0.0017747107,0.0014097593,-0.0016706585,0.0038074502,-0.023380414,-0.066457264,5053,5053,0
93732982,93732397,2359330,2359330,-0.0026084017,0.00079332927,0.0005266448,0.008258407,-0.02089195,-0.07270469,5041,5041,0
94232961,94232371,2359330,2359330,4.079394e-05,0.0008463394,-0.00051860453,0.0049627125,-0.021123217,-0.07345916,5024,5024,0
94732967,94732351,2359330,2359330,0.0016332752,0.0003246338,-0.0003649681,0.0071947337,-0.01858276,-0.056830116,4995,4995,0
95232992,95232365,2359330,2359330,0.0016478575,-0.00033058567,-0.0003273355,0.0064436686,-0.016809657,-0.046901267,5016,5016,0
95732966,95732377,2359330,2359330,0.0028635282,0.0008232872,-0.0018316847,0.011829812,-0.019182222,-0.062329017,5003,5003,0
96232950,96232356,2359330,2359330,0.0016161643,-0.0006507974,0.0011862142,0.013058232,-0.021918258,-0.012702559,5009,5009,0
96733021,96732405,2359330,2359330,0.00072600204,0.0009788423,0.00046752772,0.013155911,-0.0148395,-0.04463286,5025,5025,0
97233073,97232375,2359330,2359330,-0.0013434901,0.00034600165,0.00031985826,0.012662173,-0.017163822,-0.054802027,5028,5028,0
97733016,97732360,2359330,2359330,-0.0006024343,0.0007290472,-0.0003410398,0.0116658,-0.018425405,-0.054811526,4964,4964,0
98232950,98232365,2359330,2359330,-0.0013852856,-0.00039620989,0.00027088897,0.014772217,-0.020639293,-0.04988181,5015,5015,0
98733058,98732401,2359330,2359330,-0.0002816449,-0.00046917293,8.649063e-05,0.010167178,-0.020855887,-0.043350488,5005,5005,0
99233074,99232361,2359330,2359330,0.0002266701,0.0011632958,-0.00060191605,0.013879086,-0.01783834,-0.05643126,5014,5014,0
99733062,99732371,2359330,2359330,-0.00025773374,-0.00012739722,-0.0003943619,0.01315214,-0.022729153,-0.052016217,5024,5024,0
100233021,100232397,2359330,2359330,0.00013331823,-0.00074081426,0.0006680903,0.014991172,-0.017845107,-0.034270737,5050,5050,0
100733041,100732419,2359330,2359330,-0.00011464657,0.0006510133,-0.0006003434,0.014250178,-0.015686499,-0.06816524,5030,5030,0
101233080,101232412,2359330,2359330,0.00082121964,-0.00030518495,-0.00011447926,0.017866742,-0.024645079,-0.040021844,5065,5065,0
101733113,101732367,2359330,2359330,-0.0009235593,-0.00038381602,0.00084355735,0.016015733,-0.017092466,-0.039125327,5020,5020,0
102233054,102232396,2359330,2359330,0.0004816891,-0.00013630232,-0.00031094515,0.0131757995,-0.016774353,-0.044390876,5049,5049,0
102733011,102732367,2359330,2359330,0.00058780686,0.00013289074,-0.0002029348,0.017000075,-0.015520458,-0.048656244,4961,4961,0
103233022,103232403,2359330,2359330,-0.00065965694,-0.00032323258,-0.00025240527,0.01593342,-0.015921267,-0.04231806,5056,5056,0
103732946,103732358,2359330,2359330,-0.0023137478,0.0005034115,8.4040454e-05,0.017475327,-0.014367271,-0.06135165,5011,5011,0
104232955,104232353,2359330,2359330,-0.0014925044,0.00025843253,-0.0011452454,0.013727898,-0.016149169,-0.06667219,5006,5006,0
104732990,104732354,2359330,2359330,-0.001855214,0.0008849577,-0.0016336937,0.017265964,-0.0120752575,-0.05941211,5007,5007,0
105233015,105232402,2359330,2359330,-0.0017142296,0.000898828,-0.0016671849,0.02032715,-0.015308404,-0.059283588,5055,5055,0
105732993,105732405,2359330,2359330,-0.0003542406,0.0012185599,-0.001868796,0.019574974,-0.010163948,-0.06448785,5010,5010,0
107732997,107732355,2359330,2359330,0.0012115634,0.0008872896,-0.0011651522,0.009882306,-0.007901469,-0.058183685,5008,5008,0
108232971,108232352,2359330,2359330,0.0014288626,0.0006044782,-0.00068921846,0.01023427,-0.006207005,-0.05364783,5003,5003,0
108732984,108732382,2359330,2359330,-0.0003735347,0.00053631177,-0.00025359713,0.0065248227,-0.006945358,-0.07031378,5035,5035,0
109233065,109232446,2359330,2359330,0.0016401532,0.0004967668,0.0005909433,0.0096847145,0.0050301515,-0.05163124,5009,5009,0
109733111,109732365,2359330,2359330,0.0025108634,-0.00043180445,0.00016199546,0.008029726,0.008110129,-0.04880355,5018,5018,0
110233014,110232399,2359330,2359330,-0.00053630344,0.00034234728,3.958894e-05,0.00974353,0.0049025784,-0.05383878,5052,5052,0
110733009,110732419,2359330,2359330,-0.00097016327,-0.00025505063,0.00067226,0.006630309,0.006613804,-0.040813,5037,5037,0
111233019,111232381,2359330,2359330,-0.0015331701,-8.2159066e-05,0.0012251358,0.008942203,0.0095894765,-0.035980854,5032,5032,0
111732938,111732353,2359330,2359330,-0.00166403,-0.00036765507,0.00020264622,0.008266966,0.011091681,-0.032270126,5006,5006,0
112233048,112232400,2359330,2359330,-0.003335801,0.0005856885,0.0002349125,0.0110330405,0.011517602,-0.042607766,5053,5053,0
112733005,112732358,2359330,2359330,-0.0025611205,8.6376094e-05,-0.000526221,0.009422137,0.013594111,-0.032326534,5008,5008,0
113233121,113232396,2359330,2359330,-0.0023267774,0.00077918184,-0.0012790799,0.0066344566,0.0152322585,-0.035946824,5003,5003,0
113732974,113732360,2359330,2359330,0.0018467072,0.001091168,-0.0017136434,0.0071402565,0.011620099,-0.060178213,5010,5010,0
114232941,114232381,2359330,2359330,0.0015741242,0.0012845157,-0.001801399,0.001729426,0.009044094,-0.065705486,5001,5001,0
114732941,114732353,2359330,2359330,0.0013497683,0.0014561309,-0.0009993099,0.00071639224,0.006102933,-0.0747468,5004,5004,0
115233049,115232396,2359330,2359330,0.0013180963,0.0010428856,-0.0011498497,-0.016962102,0.008498666,-0.062281087,5049,5049,0
115732998,115732411,2359330,2359330,0.00020841126,0.0006282241,-0.000860629,-0.013424265,0.0043100063,-0.06385278,5017,5017,0
116233042,116232364,2359330,2359330,0.000855647,0.00038832767,-0.00057901134,-0.010611965,0.003076271,-0.059688237,5017,5017,0
116732982,116732364,2359330,2359330,0.0017305155,2.7282087e-05,-0.00065789715,-0.0089902915,0.0035581866,-0.052943025,5015,5015,0
117233042,117232460,2359330,2359330,0.00028882487,-0.00048557617,-0.000654462,0.0043348847,0.0027411846,-0.05247942,5112,5112,0
117733060,117732355,2359330,2359330,0.0012227627,-0.00067879295,-0.00035830584,0.0057566194,0.0040954575,-0.03700794,5002,5002,0
118733116,118732415,2359330,2359330,0.0009758653,-0.0001707503,-0.0001947348,0.0031800081,0.0014051336,-0.051318593,5068,5068,0
119233062,119232392,2359330,2359330,0.0007596835,-0.00014447015,2.4164034e-05,0.0038105592,-0.0001429493,-0.054450523,5014,5014,0
119732955,119732373,2359330,2359330,-0.00046856634,0.0005682881,0.0002673731,-0.002440596,-0.001554384,-0.058866505,5024,5024,0
120233043,120232399,2359330,2359330,-0.0011606907,-0.00015895323,0.00086201966,0.0070928303,0.002242217,-0.055454817,5039,5039,0
120733112,120732411,2359330,2359330,-0.00078961335,-0.00030648278,0.00078712567,-0.0029184492,0.0072685652,-0.04452387,5032,5032,0
121233015,121232396,2359330,2359330,-0.00048294142,-0.00033051535,-0.0005156376,0.0052378876,0.0066914726,-0.036942374,5049,5049,0
121732994,121732405,2359330,2359330,-0.00086654973,0.0012069342,-0.00039795725,-0.00849726,0.0027016297,-0.05377573,5058,5058,0
122232993,122232400,2359330,2359330,0.00085213484,0.00054816506,-0.00036847303,-0.0033708608,0.00483014,-0.06135961,5053,5053,0
122733033,122732353,2359330,2359330,0.0010562243,0.00067898724,-0.0011049336,0.0050244373,0.007118147,-0.06504236,5006,5006,0
123233006,123232396,2359330,2359330,-0.00092863705,0.00023331368,-0.0011923644,-0.006235929,0.0014823624,-0.056733087,5049,5049,0
123732996,123732357,2359330,2359330,-0.0012118523,-4.7760277e-05,-0.0006448123,0.0077388715,-0.0017811351,-0.058467776,4983,4983,0
124233022,124232385,2359330,2359330,-0.0008632252,-3.111015e-05,-7.909974e-05,-0.004779286,0.004077502,-0.04040343,5007,5007,0
124733018,124732367,2359330,2359330,0.001476182,-0.0002970573,-0.0014776567,0.0045435764,0.00321956,-0.0741284,5020,5020,0
125232942,125232354,2359330,2359330,-0.001932686,0.00051791215,-0.0013239279,-0.0038538703,0.0038310317,-0.02804551,5007,5007,0
125732980,125732376,2359330,2359330,-0.00073591725,0.0004219193,-0.0009193818,-0.00063168263,-0.00067928055,-0.06841483,4968,4968,0
126233023,126232391,2359330,2359330,0.00116595,0.00081661635,-0.0006442147,0.0029454827,0.0013699989,-0.08400955,5018,5018,0
126732994,126732363,2359330,2359330,0.0013792738,-0.00020397957,-0.00079239125,0.0057876348,0.0029005776,-0.04931226,5016,5016,0
127232947,127232366,2359330,2359330,0.0003000823,-3.300743e-05,-0.00061092945,0.0026558398,-0.0011559149,-0.05670106,5019,5019,0
129233055,129232395,2359330,2359330,0.0014187439,-0.00012717354,-0.0011219212,-0.0034422984,0.007160933,-0.05244183,5028,5028,0
129733039,129732375,2359330,2359330,-0.0005455784,0.00050997385,-0.00081374863,-0.0003027514,0.0017811595,-0.048665553,5028,5028,0
130233073,130232399,2359330,2359330,-0.0015627906,0.00018611398,-0.00017445609,-0.00029270918,0.0055254847,-0.048011445,5052,5052,0
130733012,130732374,2359330,2359330,-0.0009556547,0.00018827248,-0.00078342296,-0.009602937,0.010494021,-0.04402462,4968,4968,0
131232973,131232353,2359330,2359330,7.388059e-05,0.0011697044,-0.001243364,-0.008524267,0.0063209343,-0.06355871,5006,5006,0
131733031,131732359,2359330,2359330,4.8409245e-05,0.001678355,-0.0013570674,-0.005725586,0.004377041,-0.07666924,5012,5012,0
132232978,132232383,2359330,2359330,0.00013771003,0.00065768557,-0.0008087966,-0.0059201024,0.0053014653,-0.06281423,5036,5036,0
132732983,132732361,2359330,2359330,-0.00012378354,0.0003182121,-0.00078350044,-0.0030925274,0.0065309214,-0.05349804,5009,5009,0
133233040,133232396,2359330,2359330,-0.00035629116,0.00034228293,-0.0011607434,0.00044939187,0.0065029673,-0.048698246,5049,5049,0
133733013,133732399,2359330,2359330,-0.0007697449,0.0007608491,-0.0010748757,-0.004646592,0.0060976627,-0.050337855,5052,5052,0
134233037,134232388,2359330,2359330,0.00035985856,0.0011473538,-0.0011204653,-0.0067958045,0.00617027,-0.06415171,4981,4981,0
134733015,134732402,2359330,2359330,0.000748222,0.0005390252,-0.001148795,-0.006250729,0.0009494975,-0.06483108,5053,5053,0
135233055,135232441,2359330,2359330,0.00034762404,0.0009089005,-0.00045636704,-0.0071967756,0.0039894483,-0.068439454,4999,4999,0
135732953,135732389,2359330,2359330,0.00073221594,0.0006569805,-0.00036465665,-0.0073935282,0.006829543,-0.06532601,5006,5006,0
136233024,136232397,2359330,2359330,2.8453489e-05,0.00077716494,-0.0005085167,-0.0053348904,0.0052746553,-0.073561735,5048,5048,0
136733132,136732368,2359330,2359330,-0.00013515979,0.00038978792,-0.0003280924,-0.0040398734,0.0069740377,-0.05920072,5021,5021,0
137233140,137232402,2359330,2359330,-0.0005060967,0.00033911242,-0.0003322911,-0.0065011536,0.00069092115,-0.07002137,5055,5055,0
137732973,137732369,2359330,2359330,-0.0008776211,4.67925e-06,0.00012700768,0.0010753558,0.006020764,-0.045438066,5020,5020,0
138232981,138232352,2359330,2359330,0.00013758833,0.0005530757,-0.0004796253,-0.001933005,0.0021743672,-0.06487089,4996,4996,0
138733038,138732365,2359330,2359330,-0.0008875061,0.0001222308,-0.00016150704,-0.0024450496,0.003455153,-0.045785606,5015,5015,0
139733013,139732399,2359330,2359330,-0.00072866393,0.00024992152,-0.00034345733,-0.0061369846,0.00057843927,-0.04770237,5041,5041,0
140232954,140232362,2359330,2359330,0.0014842628,2.761599e-06,-0.0009852744,-0.0069909706,0.00043804143,-0.04244123,4999,4999,0
140732956,140732390,2359330,2359330,0.0017207176,-0.0002859542,-0.001721349,-0.008551402,-0.006454445,-0.0394316,4993,4993,0
141233020,141232396,2359330,2359330,0.004054,0.0008599697,-0.0019552573,-0.006664464,-0.016308716,-0.050214555,5046,5046,0
141732983,141732355,2359330,2359330,0.0026014473,0.00043301936,-0.0012782828,-0.005521273,-0.026333045,-0.044492718,4994,4994,0
142233044,142232402,2359330,2359330,-0.0061470494,-0.0002906098,0.0032976794,-0.0022628293,-0.012318793,-0.059020266,5055,5055,0
143233042,143232398,2359330,2359330,0.0070891026,5.7410452e-05,-0.003496256,-0.0035846436,-0.005502986,-0.050767735,5051,5051,0
143733070,143732447,2359330,2359330,-0.0051487153,-0.0016974246,0.00036502257,-0.0020573316,-0.025963765,-0.045780264,5034,5034,0
144233012,144232367,2359330,2359330,-0.005855295,9.705803e-05,0.0031723767,-0.006123347,-0.004605435,-0.07004735,5019,5019,0
144733008,144732359,2359330,2359330,0.006194935,-0.0004619921,-0.0014883153,-0.0068489974,0.0075028446,-0.061361894,4967,4967,0
146232956,146232368,2359330,2359330,7.370021e-05,0.004635495,-0.0019794628,-0.0011960274,-0.018121041,-0.12199989,5021,5021,0
146733043,146732363,2359330,2359330,0.0023123082,-0.0015184842,-0.0010721378,0.0053200843,-0.019431913,-0.037814673,5012,5012,0
147233133,147232399,2359330,2359330,0.0022712562,-0.0040479978,0.0011064142,0.022353554,0.0016942618,0.07498157,5049,5049,0
147733031,147732399,2359330,2359330,0.002925454,0.0032494457,-0.0007109192,0.0054419544,-0.0031039335,-0.077443264,5052,5052,0
148232952,148232372,2359330,2359330,-0.002555106,0.0047775307,-0.001814249,0.009651252,-0.01929475,-0.15860668,5025,5025,0
148732995,148732353,2359330,2359330,-0.002021045,0.0004435548,-0.00010841516,0.011143802,-0.016825963,-0.09305187,5006,5006,0
149233010,149232362,2359330,2359330,-0.00034932356,-0.0066179284,0.0016955262,0.026865525,-0.0004410637,0.06879638,4991,4991,0
149732983,149732357,2359330,2359330,0.0016681326,-0.0024589784,0.0009113984,0.020420698,0.0042722654,0.042008523,5010,5010,0
150233057,150232370,2359330,2359330,0.001487152,0.001878664,-0.0008317519,0.005365769,-0.0018663813,-0.06575227,5013,5013,0
150732935,150732380,2359330,2359330,-0.0012138898,0.00071517314,-0.0016853649,-8.994428e-05,-0.015394261,-0.09742458,5018,5018,0
151232995,151232397,2359330,2359330,-0.0030834554,-0.0011379237,0.00062185683,0.004248239,-0.016408192,-0.04289452,5038,5038,0
151733073,151732393,2359330,2359330,-0.0033216341,0.0006938788,0.00061772997,0.001211725,-0.009685266,-0.07197642,5027,5027,0
152232992,152232354,2359330,2359330,0.0006103187,0.0015624764,-0.0010072315,-0.0013616229,-0.008798352,-0.07054852,5007,5007,0
152733023,152732405,2359330,2359330,-0.0029321797,0.002070216,-0.0006655754,0.00393665,-0.006544448,-0.095062286,5049,5049,0
153233070,153232426,2359330,2359330,-0.0014437134,0.0018550581,-0.0007544424,0.0032574497,-0.00033655178,-0.07605283,5052,5052,0
153733014,153732360,2359330,2359330,-0.00042962164,0.0020729874,-0.0010680425,0.006191579,-0.00029555554,-0.06612808,5010,5010,0
154233125,154232365,2359330,2359330,-8.126255e-05,0.0016666737,-0.00115092,0.0058572395,0.0012601946,-0.062020965,5015,5015,0
154733054,154732396,2359330,2359330,0.002214791,0.0013019746,-0.0014762065,0.0069781044,0.0057768626,-0.056162447,5049,5049,0
155233140,155232396,2359330,2359330,0.0021168755,0.0006812528,-0.001925269,0.0063494653,0.005090296,-0.054671984,5001,5001,0
155732975,155732381,2359330,2359330,0.0024371438,-0.00052113505,-0.0016749448,0.0061328644,0.005275281,-0.044428162,4986,4986,0
156232973,156232357,2359330,2359330,-0.0004172631,-0.00031046415,-0.00087502634,0.008226843,0.0047827573,-0.030430619,5003,5003,0
156732950,156732357,2359330,2359330,-0.00045129316,0.0005180622,-0.00033704127,0.00922556,0.0062518413,-0.044196643,5008,5008,0
158233026,158232396,2359330,2359330,-0.0007547615,0.0005532082,-0.0010311353,-0.000138372,0.012197573,-0.044706054,5046,5046,0
158732972,158732377,2359330,2359330,0.0024021266,0.00077808945,-0.0015131733,0.0016421174,0.012563988,-0.05907624,5030,5030,0
159232913,159232358,2359330,2359330,0.001256698,0.0012173443,-0.0014004839,-0.0039090775,0.0047587208,-0.08151145,5011,5011,0
159732982,159732354,2359330,2359330,0.00069810665,0.0012348169,-0.00025063718,-0.0006459469,0.0057052327,-0.07389545,5004,5004,0
160732961,160732365,2359330,2359330,7.6257005e-05,0.0011048275,3.3602406e-05,0.0017725778,0.0045396695,-0.07364074,5013,5013,0
161233001,161232383,2359330,2359330,0.0008086115,-0.0014055581,-0.00049933157,0.0044875727,0.009161453,-0.032924604,5006,5006,0
161732977,161732354,2359330,2359330,-0.00015265783,-0.001555336,-0.00058146217,0.0060380367,0.0053936443,-0.010848983,5007,5007,0
162233192,162232402,2359330,2359330,-0.00045602914,0.00039905374,-0.00030555713,0.002636671,0.0013061177,-0.052869935,5048,5048,0
162733029,162732368,2359330,2359330,-0.0019588459,-0.0005459705,-0.0014883438,-0.0008617064,-0.011911734,-0.053213865,5005,5005,0
163233014,163232352,2359330,2359330,0.0009548399,0.00028044614,0.0020862892,-0.00039472253,0.0036918118,-0.051395826,4936,4936,0
163732969,163732384,2359330,2359330,-4.090926e-06,-0.00039050364,-0.003154016,-0.0034167436,-0.0016097763,-0.037478276,5037,5037,0
164233002,164232399,2359330,2359330,-0.0020525835,9.627067e-05,0.0008351381,-0.0013733928,-0.013394153,-0.056674767,5052,5052,0
164732948,164732363,2359330,2359330,0.003105078,-0.00054753,0.0011941767,-0.0074664173,0.011180565,-0.052276473,5014,5014,0
165233013,165232396,2359330,2359330,-0.00028941527,0.0003080878,-0.003446418,-0.007881425,-0.0012907961,-0.051475074,5046,5046,0
165732976,165732365,2359330,2359330,-0.0027461573,-0.00015228376,0.0005189484,-0.0034979582,-0.017346619,-0.058682524,4977,4977,0
166233012,166232399,2359330,2359330,0.002282292,-1.7515283e-06,0.0017470621,-0.008057516,0.010817022,-0.05148426,5047,5047,0
166732985,166732363,2359330,2359330,-0.00085256743,0.0008598835,-0.0034658557,-0.005357335,-0.0026787363,-0.061688133,5016,5016,0
167232987,167232399,2359330,2359330,-0.0018759815,-0.0006092482,0.0012206058,-0.007140388,-0.01556516,-0.04343119,5006,5006,0
167733041,167732406,2359330,2359330,0.002629094,-0.0002678286,0.00040018995,-0.0016872443,0.015361259,-0.0455168,5012,5012,0
168233013,168232396,2359330,2359330,-0.0018917016,0.0008217725,-0.0043915673,-0.005069576,-0.010629746,-0.068671845,5049,5049,0
169733156,169732392,2359330,2359330,-0.0009812666,-4.2433847e-05,-0.0032791963,-0.008988811,-0.015652325,-0.055497628,5036,5036,0
170233007,170232396,2359330,2359330,-0.0022533524,0.00023849348,-0.0002834945,-0.0051305303,-0.015858872,-0.05167723,5049,5049,0
170733062,170732358,2359330,2359330,0.0003907442,0.0005824381,-0.00037393972,-0.011654336,-0.008309353,-0.06474331,5000,5000,0
171233011,171232396,2359330,2359330,0.001290833,0.0005506441,-0.00092206255,-0.008756959,-0.003721283,-0.057706922,5049,5049,0
171732952,171732367,2359330,2359330,0.00048707266,0.00067217706,-0.0007434567,-0.009396298,-0.002869561,-0.05669465,5011,5011,0
172232954,172232390,2359330,2359330,0.0020369657,5.826264e-06,-0.0010470184,-0.012109853,-0.0036169025,-0.04131263,5013,5013,0
172733011,172732360,2359330,2359330,0.0008684861,0.00016550686,-0.0011601911,-0.007996158,-0.010603423,-0.057395186,5011,5011,0
173233027,173232396,2359330,2359330,-0.00019438962,-0.0006534486,-0.00037370546,-0.009169678,-0.009651683,-0.04135743,5049,5049,0
173733013,173732396,2359330,2359330,-0.00021197175,0.00036910534,0.00011523176,-0.0044962517,-0.004496852,-0.043441854,5043,5043,0
174233008,174232396,2359330,2359330,9.5348696e-05,-0.00040366148,-0.0004845108,-0.01193857,-0.006320173,-0.05326887,5049,5049,0
174732965,174732359,2359330,2359330,3.6464735e-05,0.00050079846,-0.00025054615,-0.008750269,-0.008351764,-0.05920642,5009,5009,0
175233044,175232397,2359330,2359330,-0.00036171376,0.00043053992,6.261763e-05,-0.007982278,-0.0057464656,-0.05529948,5045,5045,0
175732960,175732356,2359330,2359330,7.5271084e-05,0.0008700282,-0.00022089524,-0.008825512,-0.0023504714,-0.057648182,5005,5005,0
176233039,176232396,2359330,2359330,0.00063756603,-0.00039768763,-0.0006302686,-0.013207969,-0.005537107,-0.049875602,4984,4984,0
176733056,176732406,2359330,2359330,0.000114888164,-0.00023920045,-0.000720003,-0.014261705,-0.0032027646,-0.04946072,5028,5028,0
177732962,177732361,2359330,2359330,-0.0006960691,0.00016741619,7.757195e-05,-0.013431127,0.0008090303,-0.051685415,5014,5014,0
179233031,179232399,2359330,2359330,-0.00056330836,0.00018387185,-0.0010651646,-0.005223753,0.01238123,-0.04043892,5022,5022,0
179732965,179732372,2359330,2359330,-0.000980016,0.0005086589,-0.0011295496,-0.00349014,0.008926078,-0.044860326,5025,5025,0
180232990,180232396,2359330,2359330,-0.0012495902,0.00078711024,-0.0010604914,-0.0044401684,0.011435551,-0.0445997,5049,5049,0
180733070,180732358,2359330,2359330,-0.0007148505,0.0004405567,-0.001132119,-0.005957679,0.007564425,-0.025972255,4979,4979,0
181233039,181232387,2359330,2359330,-0.00043627425,0.0015367265,-0.00067645696,-0.005693903,0.012558153,-0.05475691,5037,5037,0
181733011,181732397,2359330,2359330,0.00029222123,0.001297997,-0.0018204737,-0.012792463,0.012059046,-0.06193526,5044,5044,0
182232965,182232402,2359330,2359330,0.0019892522,0.0011120904,-0.0016067442,-0.01815536,0.010433441,-0.08282603,5000,5000,0
182732939,182732348,2359330,2359330,0.0038295414,0.0014958852,-0.0017388617,-0.017089713,0.0020138754,-0.085503,4998,4998,0
183233130,183232472,2359330,2359330,0.0016650966,-5.2733144e-06,-0.0012921673,-0.013597488,-0.0005873173,-0.049074475,5124,5124,0
183732990,183732365,2359330,2359330,0.00023713394,-0.00045464473,-0.00042970254,-0.015594724,-0.005973595,-0.0401568,5018,5018,0
184233153,184232400,2359330,2359330,-0.0006876441,8.179401e-05,0.00041664604,-0.011917476,-0.003400103,-0.041968167,5027,5027,0
184733134,184732385,2359330,2359330,9.8397206e-05,0.00040587605,0.00028548666,-0.013245827,0.0018255324,-0.057874717,5036,5036,0
185232953,185232352,2359330,2359330,0.0018045614,0.00014789043,-0.0007586946,-0.01061753,-0.0017857644,-0.057776686,5005,5005,0
185733095,185732393,2359330,2359330,0.0008408384,-0.000197254,-0.00080925715,-0.01029258,-0.0034744118,-0.036962263,5016,5016,0
186233067,186232396,2359330,2359330,-0.0002913792,0.0004807688,0.00012878887,-0.017098794,-0.0046966807,-0.077142954,5034,5034,0
186733086,186732396,2359330,2359330,0.0007502871,0.0006790037,-0.0002710577,-0.011183072,-0.0030420579,-0.0640852,5011,5011,0
187232994,187232385,2359330,2359330,0.00052053854,0.00026291877,-0.00036668603,-0.012976858,-0.005500374,-0.03500307,4996,4996,0
187733020,187732396,2359330,2359330,-0.00013358958,0.00036237595,-1.5241395e-05,-0.007379055,-0.012358814,-0.041280657,5036,5036,0
188233079,188232399,2359330,2359330,0.00036356252,-0.0010099724,-6.3913554e-05,-0.009704344,-0.009670154,-0.012924702,5052,5052,0
188732977,188732358,2359330,2359330,0.0032498227,-4.277446e-05,-0.0006793742,-0.007011439,-0.009141548,-0.03691773,5003,5003,0
189233022,189232396,2359330,2359330,0.002839499,4.5900753e-05,-0.0018034927,-0.007920054,-0.023448562,-0.03170219,5044,5044,0
189733024,189732400,2359330,2359330,-0.0053205327,-0.0004580167,0.0026835334,-0.0077740992,-0.014126937,-0.05406094,5050,5050,0
190232929,190232344,2359330,2359330,-0.0016748495,0.00062059984,0.0018186672,-0.0062124827,-0.00165035,-0.06901084,4997,4997,0
190733055,190732391,2359330,2359330,0.0064367997,0.0006264811,-0.002540796,-0.011153877,-0.006266497,-0.04941289,5025,5025,0
191233019,191232396,2359330,2359330,-0.0025843845,-0.0008575216,-0.0004649405,-0.0017686674,-0.028567802,-0.035051823,5046,5046,0
191733046,191732401,2359330,2359330,-0.0054774424,0.00013787157,0.0024681496,-0.0031658371,-0.018068913,-0.06947849,5005,5005,0
192233123,192232393,2359330,2359330,0.00024517908,0.0010947922,-0.00057182123,-0.0018931184,-0.0037710343,-0.0628765,5017,5017,0
192732959,192732362,2359330,2359330,0.003887313,0.00070823805,-0.003367278,-0.003703172,-0.01813133,-0.045541834,5013,5013,0
193232994,193232355,2359330,2359330,0.0019969111,-0.001175211,5.9184506e-05,0.0013262898,-0.01768424,-0.01673973,4979,4979,0
193733005,193732379,2359330,2359330,-0.0024939354,0.00040976194,0.0014386697,0.0005600341,-0.016387012,-0.07174288,5026,5026,0
194233028,194232397,2359330,2359330,-0.005076035,0.0010123717,-0.00025307824,-0.004663169,-0.013565673,-0.08286591,5050,5050,0
194733018,194732400,2359330,2359330,-0.0047711735,0.0008664609,-0.0002406033,0.0021164108,-0.011601109,-0.09383631,5053,5053,0
195232974,195232383,2359330,2359330,-0.001585656,0.0006820957,-0.0013606581,0.0064403536,-0.0074237366,-0.03997564,5036,5036,0
195732935,195732382,2359330,2359330,0.0013733901,0.0012176773,-0.0026015423,0.0030233965,-0.009256434,-0.060553994,5012,5012,0
196233040,196232396,2359330,2359330,0.00020792548,0.0008237929,-0.0026949025,0.00089319656,-0.013839651,-0.05057708,5049,5049,0
196732984,196732360,2359330,2359330,-0.00071652554,0.00106604,-0.0018703034,0.0019639907,-0.01705748,-0.049423046,5013,5013,0
197233001,197232381,2359330,2359330,0.0006304038,0.0018466822,-0.0013479034,-0.0023235998,-0.012582005,-0.078081265,4970,4970,0
197732978,197732398,2359330,2359330,0.00063614326,0.0020298979,-0.0019131247,-0.003652279,-0.012584569,-0.09520973,5010,5010,0
198232990,198232396,2359330,2359330,-0.00014276462,0.0007630726,-0.0014243997,0.0012791493,-0.011871498,-0.06287758,5048,5048,0
198733168,198732401,2359330,2359330,-0.0002522864,0.00061622757,-0.00076870807,-0.002669385,-0.00737457,-0.05972638,5054,5054,0
199233192,199232396,2359330,2359330,0.0010130656,0.00086553115,-0.0006865879,-0.001690993,-0.0042476547,-0.057150166,5046,5046,0
200233074,200232396,2359330,2359330,-0.00019905067,-0.0007288903,-0.00011857535,0.0012236605,0.0009296055,-0.023795506,5049,5049,0
200733028,200732376,2359330,2359330,-0.0013791813,-0.00061721855,0.00042547297,0.00074184773,0.0065756594,-0.021401236,5006,5006,0
201233020,201232381,2359330,2359330,-0.00092708936,-5.999596e-05,-0.000121807636,-0.0004153503,0.010109304,-0.039092466,5029,5029,0
201733074,201732399,2359330,2359330,-0.0008729942,0.00092237495,-0.00025095535,-0.002171315,0.011607689,-0.051725738,5049,5049,0
202232991,202232365,2359330,2359330,-0.00027756637,0.0009153418,-0.0001673556,-0.0051360037,0.007489179,-0.08342929,4961,4961,0
202733033,202732381,2359330,2359330,0.00011765362,-2.8154943e-07,-0.0017000521,9.9320074e-05,0.014642452,-0.04050394,5030,5030,0
203232983,203232358,2359330,2359330,-0.0019064056,0.0011401455,-0.00072267797,-0.0032473928,0.011451996,-0.07283857,5011,5011,0
203732987,203732361,2359330,2359330,0.00031932525,0.0010342889,-0.00043043404,-0.002979152,0.014990322,-0.07047499,5014,5014,0
204233033,204232351,2359330,2359330,-0.001512175,-4.418536e-05,-0.0018291394,-0.0048504295,0.013372637,-0.04607658,4959,4959,0
204732979,204732366,2359330,2359330,0.0028429711,0.00015989548,-0.0011885713,0.0017167266,0.012280982,-0.011255488,5019,5019,0
205233086,205232467,2359330,2359330,0.0016775413,0.00034000876,-0.0010931138,-0.0068396814,0.0053029745,-0.0599998,5115,5115,0
205733029,205732411,2359330,2359330,0.0011495687,9.5213094e-05,-0.000464607,0.0006421024,0.005762113,-0.036070712,5060,5060,0
206232998,206232402,2359330,2359330,0.0015889851,-0.00021840552,-0.00019731694,-0.0033251941,0.008984108,-0.040745374,5016,5016,0
206733089,206732352,2359330,2359330,-0.00036502985,-0.000101786245,-0.0003156444,-0.006892133,0.008942446,-0.046358347,5001,5001,0
207733114,207732397,2359330,2359330,-0.00072927744,4.010604e-05,-0.00019911457,-0.007772785,0.010292358,-0.05780089,4988,4988,0
208233070,208232403,2359330,2359330,-0.0023590873,0.00010540645,-0.0004573567,-0.003957908,0.01350894,-0.018998232,5037,5037,0
208733002,208732400,2359330,2359330,-8.090138e-05,0.0013967734,-0.00019227358,-0.005861797,0.008388193,-0.07304562,4993,4993,0
209233069,209232396,2359330,2359330,0.00019627111,0.00041342084,-0.00062520866,-0.0061073275,0.009470618,-0.058074713,5046,5046,0
211732955,211732358,2359330,2359330,-0.0008056439,0.00072579173,0.0002995568,-0.017694017,-0.0006902471,-0.055476904,5011,5011,0
212233143,212232444,2359330,2359330,-0.00034580106,-4.222843e-05,-0.00013368535,-0.016976839,0.005504304,-0.046288434,5004,5004,0
212733026,212732405,2359330,2359330,-0.00044962607,-4.9496673e-05,-0.00069529196,-0.013859126,0.004171331,-0.046259727,5055,5055,0
213233025,213232402,2359330,2359330,0.00041018793,-0.0004550111,-0.0010066654,-0.013187726,0.00398418,-0.037768606,5053,5053,0
213733036,213732358,2359330,2359330,0.0018652038,-0.00044689793,-0.0013558024,-0.006358842,-0.0022039304,-0.04312696,5007,5007,0
214232989,214232397,2359330,2359330,-0.0010030968,0.00050668925,-0.00068522413,2.0446947e-05,-0.00530891,-0.054959506,5050,5050,0
214733053,214732378,2359330,2359330,-0.0017694633,0.0006615896,-8.647615e-05,-0.0036230949,-0.0045744497,-0.04924953,5031,5031,0
215233134,215232396,2359330,2359330,-0.00089845154,0.0007695198,-0.00022003907,-0.01342991,-0.0034092104,-0.05476393,5046,5046,0
215733030,215732379,2359330,2359330,0.00021695724,0.0007721506,-0.00031337675,-0.0071118386,-0.0008666708,-0.06345731,5013,5013,0
216232971,216232387,2359330,2359330,0.00010594475,0.0005521686,-0.0004401613,-0.0057675876,0.0003030208,-0.057293132,5040,5040,0
216733072,216732398,2359330,2359330,0.0008406054,0.00027922384,-0.000318885,-0.009842072,-0.0017895504,-0.05119183,5051,5051,0
217232920,217232365,2359330,2359330,-0.00047066127,-0.00045755654,-0.0003339395,-0.011133058,-0.00230228,-0.038153637,4974,4974,0
217733027,217732409,2359330,2359330,-4.440223e-05,0.00026203526,-0.00024198688,-0.0029580528,-0.003976564,-0.059839066,5062,5062,0
218233111,218232396,2359330,2359330,-0.00033593227,-0.00012493812,-0.00040336765,-0.008959616,-0.004101638,-0.042180758,5005,5005,0
218733020,218732402,2359330,2359330,-0.0003976428,-0.0006767548,-0.00047358556,-0.009889597,-0.004436659,-0.033161256,5052,5052,0
219232980,219232374,2359330,2359330,-0.0014821313,-0.00060984626,-0.000392929,-0.010862676,-0.005856206,-0.038519815,4993,4993,0
219733096,219732397,2359330,2359330,-0.0002226276,-0.00082429434,-0.00049663294,-0.0073318616,-0.0019357356,-0.034754634,5050,5050,0
220232989,220232355,2359330,2359330,0.00012708589,0.00024166341,-0.0004237791,-0.020227415,-0.0030255476,-0.054687195,5008,5008,0
220733044,220732364,2359330,2359330,0.0015160745,0.00038807234,-0.0008290879,-0.01951272,-0.0041152537,-0.05140602,5009,5009,0
221233088,221232399,2359330,2359330,0.0020458994,-0.00024028705,-0.0011679762,-0.009277316,-0.0047496944,-0.049448837,5049,5049,0
221733084,221732379,2359330,2359330,-0.0005986739,-0.0003043362,-0.0005190102,-0.0086298445,-0.0053654886,-0.038914423,5024,5024,0
222232926,222232371,2359330,2359330,-0.0007565043,-0.00015109785,0.00020479022,-0.008735563,-0.0057790806,-0.049376532,4970,4970,0
222732989,222732356,2359330,2359330,-0.00020007182,-9.98748e-05,0.000115508796,-0.008386518,-0.0048159757,-0.040480986,5009,5009,0
223232977,223232357,2359330,2359330,0.0021321229,-0.00016952156,-0.0004450749,-0.008699796,-0.002698318,-0.04193885,5010,5010,0
223732977,223732357,2359330,2359330,-0.00018884114,-0.00024993572,-0.00056845654,-0.008671093,-0.0074455286,-0.044295684,5010,5010,0
224232973,224232374,2359330,2359330,-0.00056207133,-0.00029781697,4.9911814e-05,-0.009645353,-0.008435144,-0.044081878,5027,5027,0
224732988,224732404,2359330,2359330,-0.00080231065,-3.9934555e-05,0.00016431187,-0.009535405,-0.008039607,-0.047674716,5054,5054,0
225232997,225232375,2359330,2359330,0.00038559406,-0.00011177582,-0.00015153087,-0.009949047,-0.0052876235,-0.05117814,5028,5028,0
225733005,225732366,2359330,2359330,-0.00012878461,-9.498301e-05,-0.00044988867,-0.009517349,-0.0058049643,-0.051347695,5019,5019,0
226233012,226232394,2359330,2359330,-0.00028258967,-0.00013828442,-0.00033343528,-0.0095998235,-0.006006297,-0.042148005,4994,4994,0
226732976,226732385,2359330,2359330,0.0004524906,-5.887457e-05,-0.00032721536,-0.009818179,-0.0068095056,-0.046774175,5038,5038,0
227233056,227232372,2359330,2359330,-0.0007287204,-0.00011684803,-0.0001356129,-0.009617235,-0.004727162,-0.04945139,4973,4973,0
227733059,227732369,2359330,2359330,-0.0006001817,-0.00011060814,-0.00067046407,-0.009901785,-0.005694859,-0.048431356,5022,5022,0
228233197,228232401,2359330,2359330,-0.004623459,-9.6696414e-05,0.00085526786,-0.011102251,-0.0038452828,-0.062052753,5051,5051,0
231233049,231232396,2359330,2359330,-0.0015090181,1.8403485e-05,-0.00044232572,-0.012253515,-0.00624274,-0.04255885,5049,5049,0
231733056,231732396,2359330,2359330,-0.0013924702,0.00035018762,-9.648044e-05,-0.013301156,-0.0034862529,-0.044346623,5049,5049,0
232233095,232232381,2359330,2359330,0.0011948274,0.0011920808,-0.0008514013,-0.01658997,-0.0027107806,-0.06614418,5029,5029,0
232732947,232732355,2359330,2359330,-0.0015317245,0.0012235934,-0.000902862,-0.016689563,-0.0025331394,-0.06660716,5005,5005,0
233233041,233232399,2359330,2359330,0.0007273347,0.001578517,-0.0013567162,-0.015223468,-0.00527477,-0.08338492,5007,5007,0
233733044,233732363,2359330,2359330,0.0014147667,0.0014507906,-0.0014998117,-0.017439034,-0.008182616,-0.076856166,5009,5009,0
234232999,234232367,2359330,2359330,0.00031813944,0.0008135034,-0.0013524925,-0.015375904,-0.004841844,-0.086736865,5010,5010,0
234733045,234732358,2359330,2359330,-0.0015480841,0.00010376576,-0.00052536256,-0.014281223,-0.010731548,-0.061564833,5011,5011,0
235232993,235232356,2359330,2359330,-0.0006029252,-0.00016951883,-0.00012493419,-0.012312125,2.9489278e-05,-0.038772333,5009,5009,0
235733085,235732399,2359330,2359330,0.0019734106,-7.6129465e-05,-0.0013640322,-0.013099235,-0.003210226,-0.049979985,5052,5052,0
236233058,236232397,2359330,2359330,0.0031144125,-0.0005694419,-0.0018178421,-0.012515003,-0.0046204072,-0.038147215,5050,5050,0
236733042,236732416,2359330,2359330,-0.0020185069,-0.00062717416,-0.00068915443,-0.012582364,-0.012138361,-0.046909083,5069,5069,0
237232959,237232404,2359330,2359330,0.0012905018,-8.3180465e-05,-0.00010440232,-0.009416284,-0.009969797,-0.028130686,5054,5054,0
237732987,237732399,2359330,2359330,0.0019043193,0.0002594131,-0.0002544173,-0.012239412,-0.010682631,-0.043079738,5052,5052,0
238232940,238232355,2359330,2359330,0.0009823415,6.319863e-05,-0.00021204205,-0.012189076,-0.012801279,-0.046910066,5008,5008,0
238733032,238732402,2359330,2359330,0.00058747345,-7.037692e-05,0.0006166257,-0.0092510125,-0.014201141,-0.032327767,5024,5024,0
239233053,239232399,2359330,2359330,0.0013309337,0.0007959001,0.0005856206,-0.010576752,-0.011933035,-0.07842534,5024,5024,0
239733028,239732409,2359330,2359330,0.0003135362,0.00070008927,0.00022463624,-0.012165567,-0.011602678,-0.0589109,5060,5060,0
240233035,240232444,2359330,2359330,-0.0014462813,0.0003789692,0.00019784723,-0.009089565,-0.012141342,-0.061570596,5018,5018,0
240732995,240732353,2359330,2359330,-0.0010921172,-0.0005926376,0.00036552968,-0.009458708,-0.012336779,-0.061858684,5006,5006,0
241233067,241232391,2359330,2359330,-0.0006723645,-0.00022778836,0.00037426167,-0.010053146,-0.0128880115,-0.031834226,5023,5023,0
241733082,241732396,2359330,2359330,0.00030222718,0.000930535,-1.1072207e-05,-0.011110948,-0.009820872,-0.050654177,5049,5049,0
242733012,242732362,2359330,2359330,-0.00046892345,-0.00029644047,0.00027721233,-0.00897959,-0.01287105,-0.049065653,5012,5012,0
243232941,243232357,2359330,2359330,0.0019405938,0.0006287741,-0.0006083044,-0.007103892,-0.012235615,-0.03549857,4997,4997,0
243733038,243732442,2359330,2359330,0.00042769278,-0.00050350913,-0.00034195292,-0.006156991,-0.013274116,-0.044411708,5066,5066,0
244232970,244232352,2359330,2359330,-0.00039467862,-0.0008824955,0.0012648545,-0.004202404,-0.011548726,-0.031332236,5003,5003,0
244733015,244732396,2359330,2359330,0.0011512145,0.0018149405,0.0007974499,-0.005087126,-0.011598378,-0.050827447,5049,5049,0
245232951,245232359,2359330,2359330,-0.0071843327,0.0003513036,0.0016917125,-0.0059563457,-0.009222756,-0.063234776,5010,5010,0
245732991,245732400,2359330,2359330,-0.0029768052,-0.00014410693,3.662104e-05,-0.0040293466,0.0014485137,-0.046572648,5053,5053,0
246233071,246232396,2359330,2359330,8.6585846e-05,0.0011328557,-0.0055938824,-0.01659556,-0.0049190708,-0.050128426,5049,5049,0
246733029,246732397,2359330,2359330,0.004644719,-0.00036650294,-0.025054898,-0.013717128,-0.06491104,-0.03154163,5050,5050,0
247232955,247232353,2359330,2359330,-0.003962205,-0.0021583084,0.00065104873,0.021724328,-0.0040069,-0.04865977,5006,5006,0
247732971,247732387,2359330,2359330,0.0015059088,-0.00016264613,0.00020967392,-0.002271172,-0.0060030753,-0.0518242,5040,5040,0
248233048,248232434,2359330,2359330,0.00022019527,1.2450727e-07,-3.0040166e-05,-0.003585554,-0.002589381,-0.049169373,5027,5027,0
249233020,249232396,2359330,2359330,8.598562e-06,-4.214008e-06,-7.528804e-06,-0.003261266,-0.0021030298,-0.049432654,5049,5049,0
249733090,249732396,2359330,2359330,6.3769144e-06,-5.568838e-06,-1.2158206e-05,-0.0033659094,-0.0021757537,-0.04905484,5005,5005,0
250233020,250232401,2359330,2359330,1.4085743e-05,2.965163e-06,-9.0478525e-06,-0.0033249238,-0.002227321,-0.049680546,5052,5052,0
250732989,250732395,2359330,2359330,1.9625175e-05,-3.0920096e-06,-2.3249522e-05,-0.0033536905,-0.0021984724,-0.049653087,5048,5048,0
251232945,251232359,2359330,2359330,1.2462628e-05,-2.3040016e-06,-8.167395e-06,-0.0033846777,-0.0021559673,-0.04920168,5009,5009,0
251733021,251732400,2359330,2359330,2.1733591e-05,-1.1713979e-06,-1.2925239e-05,-0.0033480444,-0.0023058264,-0.04945224,5053,5053,0
