timestamp,timestamp_sample,device_id,x,y,z,temperature,error_count
69215281,69214850,2359330,0.00047936902,0.0071106404,0.001784318,44.38635,0
70215294,70214857,2359330,0.008655273,0.021385185,-0.03818973,44.482193,0
71215299,71214869,2359330,-0.014274544,-0.00055926386,0.0041545313,44.57804,0
72215289,72214860,2359330,0.028442562,0.010785802,-0.004500742,44.434273,0
73215371,73214875,2359330,-0.025033714,0.022716766,0.0007190535,44.24258,0
74215279,74214850,2359330,0.018562235,0.011211909,0.012543489,44.57804,0
75215383,75214916,2359330,-0.011052119,0.0061519025,-0.0025832662,44.434273,0
76215322,76214893,2359330,0.011797803,0.018535601,0.008415589,44.24258,0
78217856,78217400,2359330,0.017770547,0.020530552,0.0065368502,44.38635,0
79215300,79214870,2359330,-0.003089267,0.006924219,0.0027963193,44.38635,0
80215287,80214850,2359330,-0.020213393,0.0108390665,0.0056991647,44.434273,0
81215283,81214850,2359330,0.0685764,-0.0053795855,-0.013741912,44.434273,0
83215318,83214877,2359330,-0.0882039,0.05270396,0.01771002,44.38635,0
84215287,84214858,2359330,0.1438107,-0.087271795,-0.007456851,44.434273,0
85215300,85214878,2359330,0.085088,0.033981934,0.0021038973,44.434273,0
86215285,86214852,2359330,0.082504734,-0.11512846,0.012756542,44.72181,0
87215301,87214873,2359330,-0.02082592,-0.14855112,-0.08807074,44.290504,0
88215324,88214879,2359330,-0.09904296,0.27949876,0.06599313,44.434273,0
89215281,89214850,2359330,0.046685215,0.406931,0.28056404,44.434273,0
91217738,91217349,2359330,0.02748974,-0.046634912,-0.22332086,44.482193,0
92215293,92214871,2359330,0.38940746,-0.1489506,-0.34112433,44.38635,0
93217769,93217350,2359330,0.27158916,0.37334856,-0.16841832,44.57804,0
94215287,94214858,2359330,0.29321405,-0.045140583,-0.0923318,44.482193,0
95215308,95214884,2359330,0.51500213,-0.217527,-0.050387006,44.482193,0
96215282,96214849,2359330,0.3165167,-0.24157536,0.22125542,44.38635,0
97215381,97214879,2359330,-0.4613128,0.25734127,0.08295747,44.24258,0
98215320,98214896,2359330,-0.3865046,0.1046356,-0.03121225,44.434273,0
99215286,99214861,2359330,-0.03371562,0.36264268,-0.020532971,44.24258,0
100217766,100217347,2359330,0.2396046,-0.3901531,0.13262543,44.57804,0
101215281,101214850,2359330,-0.10407634,0.24836642,0.020213393,44.434273,0
102215239,102214857,2359330,0.2158936,-0.20272575,-0.09584421,44.434273,0
103215335,103214872,2359330,-0.032829516,-0.21770133,-0.05028533,43.859196,0
104215235,104214850,2359330,-0.16014475,-0.11611383,-0.3311493,44.482193,0
105217769,105217347,2359330,-0.08471516,0.040213734,-0.47191215,44.57804,0
108215327,108214891,2359330,0.2855974,0.09166601,-0.026871296,44.482193,0
109215289,109214855,2359330,0.19616845,0.30128342,0.23792683,44.62596,0
110215300,110214868,2359330,-0.3179548,0.304133,0.0022903187,44.57804,0
111215289,111214854,2359330,-0.4375041,0.19201392,0.17430389,44.290504,0
112217766,112217347,2359330,-0.48807755,0.022983082,-0.1539041,44.482193,0
113215303,113214878,2359330,-0.34977958,0.0834901,-0.30945933,44.57804,0
114215277,114214851,2359330,0.2506301,0.3819772,-0.25545043,44.57804,0
115215242,115214860,2359330,0.6009867,-0.0037580165,-0.115610786,44.290504,0
116215233,116214850,2359330,0.11368739,0.055985566,-0.09948387,44.57804,0
117215358,117214936,2359330,-0.05020059,-0.0009853697,-0.14615428,44.57804,0
119215282,119214850,2359330,0.16879115,-0.13315806,0.0065513765,44.290504,0
120215342,120214853,2359330,-0.24932516,-0.14285196,0.10444918,44.62596,0
121215293,121214865,2359330,0.109322764,-0.25049695,-0.11435614,44.62596,0
122215275,122214850,2359330,-0.015100124,0.31060448,-0.028788771,44.434273,0
123215300,123214870,2359330,-0.14346449,0.41763696,-0.22008364,44.290504,0
124215292,124214854,2359330,-0.2782471,0.29989856,-0.024074977,44.434273,0
125215288,125214856,2359330,-0.29148299,0.36906087,-0.29387984,44.434273,0
126215340,126214912,2359330,0.41763696,-0.20754014,-0.08918927,44.434273,0
127215280,127214850,2359330,0.33228263,-0.2581402,-0.11888351,44.72181,0
129215309,129214868,2359330,0.41960767,-0.22245385,-0.15800534,44.434273,0
130215232,130214850,2359330,-0.13212238,-0.29214877,-0.10439592,44.482193,0
131215285,131214860,2359330,-0.048149955,0.4512194,-0.2000034,44.38635,0
132217768,132217349,2359330,-0.18218686,0.4619519,-0.1439705,44.482193,0
133215302,133214876,2359330,0.1449825,-0.3055711,-0.24495755,44.57804,0
134215291,134214848,2359330,0.27132285,0.19419771,-0.17425063,44.57804,0
135217845,135217419,2359330,0.24884579,0.053849116,-0.094196014,44.434273,0
136215283,136214853,2359330,-0.049321745,0.3806989,-0.08492821,44.72181,0
137215281,137214850,2359330,-0.21704763,0.18516959,-0.037470676,44.62596,0
138217868,138217395,2359330,0.1526524,0.06351639,-0.15733956,44.482193,0
139215340,139214904,2359330,0.00892159,-0.15542209,-0.13129385,44.62596,0
140215280,140214849,2359330,0.4886102,-0.1652758,-0.15579493,44.62596,0
141215281,141214850,2359330,0.7448063,0.36903426,-0.165116,44.482193,0
142217768,142217347,2359330,-1.5488147,0.1441569,0.3844806,44.62596,0
143217744,143217362,2359330,1.7898811,-0.28463277,-0.45477915,44.38635,0
144215295,144214866,2359330,-1.3621271,0.118563935,0.36330846,44.434273,0
146215284,146214850,2359330,0.39092544,0.78858864,-0.33827475,44.62596,0
147217783,147217352,2359330,0.3014166,-0.7727162,0.24021713,44.57804,0
148215293,148214861,2359330,-0.46003446,1.2047342,-0.31638354,44.434273,0
149215289,149214861,2359330,-0.25478464,-1.2616726,0.24351946,44.57804,0
150217774,150217347,2359330,0.11177288,0.69607043,-0.0047670584,44.482193,0
151215286,151214856,2359330,-0.44682518,-0.43819654,-0.06767093,44.38635,0
152215300,152214850,2359330,0.35691687,0.17776601,-0.22101575,44.434273,0
153215351,153214893,2359330,-0.42583945,0.5936985,-0.101892546,44.62596,0
154217774,154217350,2359330,-0.2160889,0.5939116,-0.119123206,44.769733,0
155215295,155214866,2359330,0.5877863,-0.105993815,-0.29289448,44.482193,0
156215282,156214849,2359330,-0.036938045,-0.09744506,-0.15680693,44.434273,0
158217778,158217356,2359330,-0.27020434,0.2908172,-0.12559468,44.57804,0
159215238,159214850,2359330,0.3153183,0.39358562,-0.20367265,44.62596,0
160217729,160217347,2359330,0.013345396,0.44806206,0.03266811,44.482193,0
161215361,161214884,2359330,0.16458336,-0.16783242,-0.044661213,44.57804,0
162215284,162214850,2359330,-0.14090787,0.22735406,-0.063676186,44.769733,0
163215323,163214898,2359330,-0.06956177,0.13179985,0.5423794,44.72181,0
164217774,164217349,2359330,-0.14343786,-0.37699708,-0.019947078,44.57804,0
165215287,165214856,2359330,0.1437308,-0.069721565,-0.6943927,44.57804,0
166215290,166214850,2359330,0.42717105,-0.15254587,0.42690474,44.434273,0
167215284,167214853,2359330,-0.298061,-0.31555796,0.047484163,44.72181,0
168215277,168214850,2359330,-0.30860713,0.4005927,-0.87388974,44.9135,0
170217772,170217350,2359330,-0.13885723,-0.22482407,-0.22959113,44.62596,0
171215287,171214859,2359330,0.27659592,0.12658006,-0.13265206,44.62596,0
172215285,172214853,2359330,0.44663876,0.03653857,-0.0690824,44.72181,0
173217775,173217347,2359330,-0.05842976,0.02711098,-0.08530106,44.38635,0
174215286,174214849,2359330,0.11803131,-0.34429348,-0.10655308,44.72181,0
175215280,175214854,2359330,-0.21262679,0.2998187,0.034567833,44.769733,0
176217776,176217349,2359330,-0.16112125,0.43135223,-0.075394094,44.57804,0
179215232,179214850,2359330,0.069419734,-0.14928497,-0.2139998,44.72181,0
180215251,180214859,2359330,-0.18056233,0.16121002,-0.2783299,44.482193,0
181215313,181214880,2359330,-0.25422537,0.4995025,-0.11685952,44.817654,0
182215279,182214849,2359330,0.5711149,0.04460795,-0.24823326,44.482193,0
183217844,183217353,2359330,0.5861618,-0.20620856,-0.21435785,44.72181,0
184215327,184214878,2359330,-0.19433087,0.103250764,0.09422264,44.62596,0
185215281,185214849,2359330,0.21220067,0.22879219,-0.03057309,44.769733,0
186215296,186214853,2359330,-0.10687266,0.19534287,0.059894495,44.57804,0
187217836,187217391,2359330,-0.117898144,0.12697953,0.020532971,44.769733,0
188215280,188214848,2359330,0.16192019,-0.37910098,-0.014460965,44.72181,0
189215293,189214856,2359330,0.6645386,-0.14980282,-0.28341362,44.62596,0
190217768,190217349,2359330,-0.49260494,0.0763262,0.2637062,44.9135,0
191217771,191217350,2359330,-0.32152346,-0.22596923,-0.17353159,44.62596,0
192215289,192214853,2359330,-0.1650361,0.46392268,-0.014887071,44.72181,0
193215310,193214891,2359330,0.5980395,-0.27079022,0.04660532,44.72181,0
194215286,194214857,2359330,-0.85894936,0.075793564,-0.3019226,44.62596,0
195215280,195214849,2359330,-0.44376254,0.32402682,-0.24871263,44.9135,0
196215292,196214850,2359330,0.106073715,0.20098877,-0.54602796,44.72181,0
197217817,197217398,2359330,0.43121907,0.17502296,-0.25313348,44.62596,0
198217778,198217359,2359330,-0.053316485,0.250204,-0.26264095,44.62596,0
199215239,199214856,2359330,0.32514238,0.069538094,-0.10415919,44.72181,0
200215237,200214850,2359330,0.03355583,-0.15526229,-0.08400794,44.961422,0
201215243,201214853,2359330,-0.060720075,-0.09406877,-0.07214207,44.62596,0
202215311,202214877,2359330,0.14207965,-0.012463594,-0.12397015,44.72181,0
203215299,203214869,2359330,-0.43412188,0.25329328,-0.20389162,44.9135,0
204215298,204214850,2359330,-0.03304983,-0.14231934,-0.46834353,44.62596,0
205215414,205214965,2359330,0.5496765,-0.02066613,-0.19779298,44.769733,0
206217835,206217374,2359330,0.03153183,0.2796852,0.12045478,45.009346,0
207215280,207214854,2359330,-0.29632995,-0.00908138,-0.012650016,44.9135,0
208215290,208214854,2359330,-0.22431806,-0.14623418,-0.23417176,45.009346,0
209215291,209214850,2359330,-0.15970978,0.25515747,-0.030652985,44.961422,0
212215330,212214908,2359330,-0.24234766,0.11190604,-0.025699506,44.769733,0
213215300,213214877,2359330,-0.15403725,0.30381343,-0.16112125,44.9135,0
214217771,214217347,2359330,0.03701794,-0.3865046,-0.19014971,44.769733,0
215215285,215214853,2359330,-0.11598067,0.14607438,-0.05238438,44.769733,0
216215295,216214857,2359330,0.31324103,-0.15965651,-0.058722705,44.961422,0
217215278,217214849,2359330,-0.29161614,0.23744746,-0.08287758,44.769733,0
218215287,218214856,2359330,-0.16801885,0.21856564,-0.06431534,44.961422,0
219215297,219214868,2359330,-0.52493566,0.3020291,-0.1363006,44.817654,0
220217775,220217354,2359330,-0.020612868,0.05595302,-0.07906925,44.769733,0
221215289,221214860,2359330,0.46093994,-0.07049388,-0.12753879,44.72181,0
222215278,222214850,2359330,-0.15140072,-0.028895298,0.0025566348,44.769733,0
223215320,223214877,2359330,0.3997405,-0.029294772,0.009800433,44.769733,0
224217776,224217357,2359330,-0.12673983,-0.0645284,-0.010013486,44.72181,0
225215298,225214850,2359330,0.06213155,-0.015579493,-0.007776431,44.769733,0
226217749,226217364,2359330,-0.06619435,-0.031632435,-0.07669904,44.482193,0
227215279,227214849,2359330,-0.13731259,-0.0039681103,-0.05422196,44.72181,0
228215249,228214866,2359330,-0.95941865,0.008107847,-0.04619105,44.961422,0
231215346,231214911,2359330,-0.16945694,0.020160131,-0.125861,44.961422,0
232215233,232214850,2359330,0.25888887,0.22145665,-0.08853532,44.769733,0
233215302,233214880,2359330,0.23214775,0.3222425,-0.20921795,44.9135,0
234215278,234214849,2359330,0.16866687,0.20559604,-0.22281782,44.9135,0
235217772,235217349,2359330,-0.12136026,-0.012170646,-0.047963534,44.961422,0
236215314,236214873,2359330,0.5532717,-0.05078648,-0.22993734,44.9135,0
237215341,237214853,2359330,0.2637595,-0.026019085,0.045327,45.10519,0
238215302,238214880,2359330,0.1521464,0.012436963,-0.014514228,45.009346,0
239215277,239214849,2359330,0.29449236,0.16796558,0.19923109,44.9135,0
240217848,240217426,2359330,-0.2501241,0.054621436,-0.011078751,44.961422,0
241215372,241214905,2359330,-0.09973539,-0.09922939,0.05550028,44.961422,0
243217816,243217394,2359330,0.43769053,0.10359697,-0.01387507,44.961422,0
244215305,244214869,2359330,-0.17161411,-0.1433047,0.21598236,44.9135,0
245215286,245214850,2359330,-1.4620488,0.10114686,0.04066647,44.9135,0
246217775,246217350,2359330,0.3304184,0.4069044,-1.0026802,44.961422,0
247215380,247214873,2359330,-0.79772335,-0.32144356,-0.109109715,44.9135,0
248215377,248214915,2359330,0.038216364,0.009827065,0.008788432,45.009346,0
249215306,249214851,2359330,-0.008229168,0.0076432726,0.0021837922,44.9135,0
250215275,250214856,2359330,-0.0033289515,0.010705908,0.0049002166,44.961422,0
251215311,251214884,2359330,-0.0069508506,0.009374327,0.0024501083,44.961422,0
