timestamp,gps_hvel[0],gps_hvel[1],gps_vvel,gps_hpos[0],gps_hpos[1],gps_vpos,ev_hvel[0],ev_hvel[1],ev_vvel,ev_hpos[0],ev_hpos[1],ev_vpos,fake_hvel[0],fake_hvel[1],fake_vvel,fake_hpos[0],fake_hpos[1],fake_vpos,rng_vpos,baro_vpos,aux_hvel[0],aux_hvel[1],aux_vvel,flow[0],flow[1],heading,mag_field[0],mag_field[1],mag_field[2],drag[0],drag[1],airspeed,beta,hagl
68222354,0.099445716,0.09944577,0.21409233,0.3916086,0.3916086,0.0,0.0,0.0,0.0,0.0,0.0,0.0,nan,nan,nan,nan,nan,nan,0.0,12.403312,0.0,0.0,nan,0.0,0.0,0.090162806,0.0,0.0,0.0,0.0,0.0,0.0,0.0,0.0
68432359,0.09935856,0.09935861,0.21402763,0.3876203,0.38762027,0.0,0.0,0.0,0.0,0.0,0.0,0.0,nan,nan,nan,nan,nan,nan,0.0,12.403209,0.0,0.0,nan,0.0,0.0,0.09016247,0.0,0.0,0.0,0.0,0.0,0.0,0.0,0.0
68632396,0.099346966,0.09934703,0.21400838,0.38507813,0.38507813,0.0,0.0,0.0,0.0,0.0,0.0,0.0,nan,nan,nan,nan,nan,nan,0.0,12.403631,0.0,0.0,nan,0.0,0.0,0.090162136,0.0,0.0,0.0,0.0,0.0,0.0,0.0,0.0
68832358,0.099334635,0.0993347,0.2140486,0.38137388,0.38137388,0.0,0.0,0.0,0.0,0.0,0.0,0.0,nan,nan,nan,nan,nan,nan,0.0,12.4028635,0.0,0.0,nan,0.0,0.0,0.09016181,0.0,0.0,0.0,0.0,0.0,0.0,0.0,0.0
69032368,0.099320516,0.09932058,0.2140301,0.3776847,0.3776847,0.0,0.0,0.0,0.0,0.0,0.0,0.0,nan,nan,nan,nan,nan,nan,0.0,12.402785,0.0,0.0,nan,0.0,0.0,0.09016147,0.0,0.0,0.0,0.0,0.0,0.0,0.0,0.0
69222394,0.0993062,0.09930628,0.21401209,0.37517756,0.37517756,0.0,0.0,0.0,0.0,0.0,0.0,0.0,nan,nan,nan,nan,nan,nan,0.0,12.403236,0.0,0.0,nan,0.0,0.0,0.09016115,0.0,0.0,0.0,0.0,0.0,0.0,0.0,0.0
69432397,0.09929163,0.09929171,0.21399353,0.37152272,0.3715227,0.0,0.0,0.0,0.0,0.0,0.0,0.0,nan,nan,nan,nan,nan,nan,0.0,12.403172,0.0,0.0,nan,0.0,0.0,0.09016083,0.0,0.0,0.0,0.0,0.0,0.0,0.0,0.0
69632399,0.0992772,0.09927729,0.21403474,0.3690388,0.3690388,0.0,0.0,0.0,0.0,0.0,0.0,0.0,nan,nan,nan,nan,nan,nan,0.0,12.402429,0.0,0.0,nan,0.0,0.0,0.09016053,0.0,0.0,0.0,0.0,0.0,0.0,0.0,0.0
69832394,0.0992637,0.099263795,0.21401677,0.36541617,0.36541617,0.0,0.0,0.0,0.0,0.0,0.0,0.0,nan,nan,nan,nan,nan,nan,0.0,12.40289,0.0,0.0,nan,0.0,0.0,0.09016021,0.0,0.0,0.0,0.0,0.0,0.0,0.0,0.0
70032353,0.09924993,0.09925003,0.21399875,0.3618067,0.3618067,0.0,0.0,0.0,0.0,0.0,0.0,0.0,nan,nan,nan,nan,nan,nan,0.0,12.4028425,0.0,0.0,nan,0.0,0.0,0.09015991,0.0,0.0,0.0,0.0,0.0,0.0,0.0,0.0
70232397,0.09923467,0.09923476,0.21398069,0.35821083,0.35821086,0.0,0.0,0.0,0.0,0.0,0.0,0.0,nan,nan,nan,nan,nan,nan,0.0,12.405527,0.0,0.0,nan,0.0,0.0,0.0901596,0.0,0.0,0.0,0.0,0.0,0.0,0.0,0.0
70432396,0.09921834,0.09921843,0.21402222,0.35576433,0.35576433,0.0,0.0,0.0,0.0,0.0,0.0,0.0,nan,nan,nan,nan,nan,nan,0.0,12.402582,0.0,0.0,nan,0.0,0.0,0.090159304,0.0,0.0,0.0,0.0,0.0,0.0,0.0,0.0
70632371,0.099206045,0.09920614,0.21400371,0.35220128,0.35220128,0.0,0.0,0.0,0.0,0.0,0.0,0.0,nan,nan,nan,nan,nan,nan,0.0,12.403052,0.0,0.0,nan,0.0,0.0,0.09015901,0.0,0.0,0.0,0.0,0.0,0.0,0.0,0.0
70832396,0.09918829,0.09918839,0.21404359,0.34977722,0.34977722,0.0,0.0,0.0,0.0,0.0,0.0,0.0,nan,nan,nan,nan,nan,nan,0.0,12.402819,0.0,0.0,nan,0.0,0.0,0.090158716,0.0,0.0,0.0,0.0,0.0,0.0,0.0,0.0
71032396,0.09917684,0.099176936,0.21402399,0.347367,0.347367,0.0,0.0,0.0,0.0,0.0,0.0,0.0,nan,nan,nan,nan,nan,nan,0.0,12.402758,0.0,0.0,nan,0.0,0.0,0.090158425,0.0,0.0,0.0,0.0,0.0,0.0,0.0,0.0
71232373,0.09916499,0.09916512,0.2140051,0.34497038,0.3449704,0.0,0.0,0.0,0.0,0.0,0.0,0.0,nan,nan,nan,nan,nan,nan,0.0,12.403225,0.0,0.0,nan,0.0,0.0,0.09015814,0.0,0.0,0.0,0.0,0.0,0.0,0.0,0.0
71432369,0.09915498,0.09915508,0.21398585,0.34370136,0.3437014,0.0,0.0,0.0,0.0,0.0,0.0,0.0,nan,nan,nan,nan,nan,nan,0.0,12.4031725,0.0,0.0,nan,0.0,0.0,0.09015786,0.0,0.0,0.0,0.0,0.0,0.0,0.0,0.0
71632396,0.09914053,0.099140644,0.21402623,0.341336,0.341336,0.0,0.0,0.0,0.0,0.0,0.0,0.0,nan,nan,nan,nan,nan,nan,0.0,12.402427,0.0,0.0,nan,0.0,0.0,0.09015758,0.0,0.0,0.0,0.0,0.0,0.0,0.0,0.0
71832396,0.099134445,0.09913456,0.21400785,0.33897966,0.3389797,0.0,0.0,0.0,0.0,0.0,0.0,0.0,nan,nan,nan,nan,nan,nan,0.0,12.402899,0.0,0.0,nan,0.0,0.0,0.09015731,0.0,0.0,0.0,0.0,0.0,0.0,0.0,0.0
72032367,0.09912333,0.09912347,0.21398959,0.33773828,0.33773828,0.0,0.0,0.0,0.0,0.0,0.0,0.0,nan,nan,nan,nan,nan,nan,0.0,12.403378,0.0,0.0,nan,0.0,0.0,0.09015703,0.0,0.0,0.0,0.0,0.0,0.0,0.0,0.0
72232392,0.09911173,0.09911187,0.21402913,0.33540794,0.33540797,0.0,0.0,0.0,0.0,0.0,0.0,0.0,nan,nan,nan,nan,nan,nan,0.0,12.403136,0.0,0.0,nan,0.0,0.0,0.090156764,0.0,0.0,0.0,0.0,0.0,0.0,0.0,0.0
72432350,0.09910152,0.099101655,0.21400693,0.33418432,0.33418435,0.0,0.0,0.0,0.0,0.0,0.0,0.0,nan,nan,nan,nan,nan,nan,0.0,12.403562,0.0,0.0,nan,0.0,0.0,0.0901565,0.0,0.0,0.0,0.0,0.0,0.0,0.0,0.0
72622402,0.099092446,0.09909258,0.21398546,0.33187592,0.33187595,0.0,0.0,0.0,0.0,0.0,0.0,0.0,nan,nan,nan,nan,nan,nan,0.0,12.406243,0.0,0.0,nan,0.0,0.0,0.09015625,0.0,0.0,0.0,0.0,0.0,0.0,0.0,0.0
72822447,0.09908026,0.09908041,0.21402422,0.3306661,0.3306661,0.0,0.0,0.0,0.0,0.0,0.0,0.0,nan,nan,nan,nan,nan,nan,0.0,12.403213,0.0,0.0,nan,0.0,0.0,0.09015598,0.0,0.0,0.0,0.0,0.0,0.0,0.0,0.0
73022347,0.09907871,0.09907887,0.21400374,0.32837588,0.3283759,0.0,0.0,0.0,0.0,0.0,0.0,0.0,nan,nan,nan,nan,nan,nan,0.0,12.4031315,0.0,0.0,nan,0.0,0.0,0.090155736,0.0,0.0,0.0,0.0,0.0,0.0,0.0,0.0
73232397,0.09906103,0.099061206,0.21398377,0.32717845,0.32717848,0.0,0.0,0.0,0.0,0.0,0.0,0.0,nan,nan,nan,nan,nan,nan,0.0,12.403575,0.0,0.0,nan,0.0,0.0,0.09015548,0.0,0.0,0.0,0.0,0.0,0.0,0.0,0.0
73422349,0.09905489,0.09905503,0.21402399,0.32599017,0.3259902,0.0,0.0,0.0,0.0,0.0,0.0,0.0,nan,nan,nan,nan,nan,nan,0.0,12.40281,0.0,0.0,nan,0.0,0.0,0.09015524,0.0,0.0,0.0,0.0,0.0,0.0,0.0,0.0
73632396,0.09904891,0.09904904,0.21400523,0.32372665,0.32372668,0.0,0.0,0.0,0.0,0.0,0.0,0.0,nan,nan,nan,nan,nan,nan,0.0,12.403262,0.0,0.0,nan,0.0,0.0,0.090155,0.0,0.0,0.0,0.0,0.0,0.0,0.0,0.0
73832399,0.09903866,0.099038795,0.21398483,0.32254592,0.32254595,0.0,0.0,0.0,0.0,0.0,0.0,0.0,nan,nan,nan,nan,nan,nan,0.0,12.403696,0.0,0.0,nan,0.0,0.0,0.09015475,0.0,0.0,0.0,0.0,0.0,0.0,0.0,0.0
74032400,0.09902981,0.09902994,0.2140243,0.32245207,0.3224521,0.0,0.0,0.0,0.0,0.0,0.0,0.0,nan,nan,nan,nan,nan,nan,0.0,12.402918,0.0,0.0,nan,0.0,0.0,0.09015451,0.0,0.0,0.0,0.0,0.0,0.0,0.0,0.0
74232365,0.09902337,0.09902349,0.21400487,0.32129487,0.32129493,0.0,0.0,0.0,0.0,0.0,0.0,0.0,nan,nan,nan,nan,nan,nan,0.0,12.403356,0.0,0.0,nan,0.0,0.0,0.09015428,0.0,0.0,0.0,0.0,0.0,0.0,0.0,0.0
74432406,0.09901553,0.09901564,0.21398531,0.32014266,0.32014272,0.0,0.0,0.0,0.0,0.0,0.0,0.0,nan,nan,nan,nan,nan,nan,0.0,12.403275,0.0,0.0,nan,0.0,0.0,0.090154044,0.0,0.0,0.0,0.0,0.0,0.0,0.0,0.0
74632352,0.0990103,0.0990104,0.21402605,0.31899443,0.3189945,0.0,0.0,0.0,0.0,0.0,0.0,0.0,nan,nan,nan,nan,nan,nan,0.0,12.403029,0.0,0.0,nan,0.0,0.0,0.09015382,0.0,0.0,0.0,0.0,0.0,0.0,0.0,0.0
74832404,0.09900278,0.099002875,0.21400723,0.3178504,0.31785047,0.0,0.0,0.0,0.0,0.0,0.0,0.0,nan,nan,nan,nan,nan,nan,0.0,12.402954,0.0,0.0,nan,0.0,0.0,0.09015359,0.0,0.0,0.0,0.0,0.0,0.0,0.0,0.0
75032410,0.09905754,0.09905764,0.21403126,0.31691915,0.31691918,0.0,0.0,0.0,0.0,0.0,0.0,0.0,nan,nan,nan,nan,nan,nan,0.0,12.4028845,0.0,0.0,nan,0.0,0.0,0.09015337,0.0,0.0,0.0,0.0,0.0,0.0,0.0,0.0
75232430,0.09897489,0.09897498,0.21402733,0.31554815,0.31554818,0.0,0.0,0.0,0.0,0.0,0.0,0.0,nan,nan,nan,nan,nan,nan,0.0,12.403161,0.0,0.0,nan,0.0,0.0,0.09015315,0.0,0.0,0.0,0.0,0.0,0.0,0.0,0.0
75432396,0.098972134,0.098972216,0.21400803,0.31441623,0.31441626,0.0,0.0,0.0,0.0,0.0,0.0,0.0,nan,nan,nan,nan,nan,nan,0.0,12.403076,0.0,0.0,nan,0.0,0.0,0.090152934,0.0,0.0,0.0,0.0,0.0,0.0,0.0,0.0
75632377,0.09902944,0.09902951,0.21403122,0.31456047,0.3145605,0.0,0.0,0.0,0.0,0.0,0.0,0.0,nan,nan,nan,nan,nan,nan,0.0,12.40351,0.0,0.0,nan,0.0,0.0,0.09015271,0.0,0.0,0.0,0.0,0.0,0.0,0.0,0.0
75832396,0.09895263,0.09895271,0.21396755,0.31320906,0.31320912,0.0,0.0,0.0,0.0,0.0,0.0,0.0,nan,nan,nan,nan,nan,nan,0.0,12.403436,0.0,0.0,nan,0.0,0.0,0.09015251,0.0,0.0,0.0,0.0,0.0,0.0,0.0,0.0
76032399,0.09894751,0.09894759,0.21400902,0.3120942,0.31209424,0.0,0.0,0.0,0.0,0.0,0.0,0.0,nan,nan,nan,nan,nan,nan,0.0,12.402673,0.0,0.0,nan,0.0,0.0,0.09015229,0.0,0.0,0.0,0.0,0.0,0.0,0.0,0.0
76232361,0.09894471,0.09894479,0.21399115,0.31098,0.31098002,0.0,0.0,0.0,0.0,0.0,0.0,0.0,nan,nan,nan,nan,nan,nan,0.0,12.403118,0.0,0.0,nan,0.0,0.0,0.090152085,0.0,0.0,0.0,0.0,0.0,0.0,0.0,0.0
76432400,0.09893837,0.09893845,0.21397349,0.30986696,0.309867,0.0,0.0,0.0,0.0,0.0,0.0,0.0,nan,nan,nan,nan,nan,nan,0.0,12.403053,0.0,0.0,nan,0.0,0.0,0.09015188,0.0,0.0,0.0,0.0,0.0,0.0,0.0,0.0
76632399,0.09893638,0.09893647,0.21401572,0.30981138,0.3098114,0.0,0.0,0.0,0.0,0.0,0.0,0.0,nan,nan,nan,nan,nan,nan,0.0,12.402821,0.0,0.0,nan,0.0,0.0,0.09015169,0.0,0.0,0.0,0.0,0.0,0.0,0.0,0.0
76832359,0.09893377,0.09893386,0.21399598,0.30870825,0.30870828,0.0,0.0,0.0,0.0,0.0,0.0,0.0,nan,nan,nan,nan,nan,nan,0.0,12.403764,0.0,0.0,nan,0.0,0.0,0.09015148,0.0,0.0,0.0,0.0,0.0,0.0,0.0,0.0
77632383,0.09892061,0.0989207,0.2139753,0.30643308,0.30643308,0.0,0.0,0.0,0.0,0.0,0.0,0.0,nan,nan,nan,nan,nan,nan,0.0,12.403707,0.0,0.0,nan,0.0,0.0,0.090150714,0.0,0.0,0.0,0.0,0.0,0.0,0.0,0.0
77832384,0.098917365,0.09891746,0.21401633,0.30639297,0.306393,0.0,0.0,0.0,0.0,0.0,0.0,0.0,nan,nan,nan,nan,nan,nan,0.0,12.402932,0.0,0.0,nan,0.0,0.0,0.090150535,0.0,0.0,0.0,0.0,0.0,0.0,0.0,0.0
78032400,0.09891316,0.09891326,0.21399797,0.30530885,0.30530885,0.0,0.0,0.0,0.0,0.0,0.0,0.0,nan,nan,nan,nan,nan,nan,0.0,12.403366,0.0,0.0,nan,0.0,0.0,0.09015034,0.0,0.0,0.0,0.0,0.0,0.0,0.0,0.0
78232396,0.09890719,0.09890729,0.21397986,0.30527115,0.30527115,0.0,0.0,0.0,0.0,0.0,0.0,0.0,nan,nan,nan,nan,nan,nan,0.0,12.403809,0.0,0.0,nan,0.0,0.0,0.09015016,0.0,0.0,0.0,0.0,0.0,0.0,0.0,0.0
78432399,0.09890242,0.09890253,0.21401988,0.30419093,0.30419093,0.0,0.0,0.0,0.0,0.0,0.0,0.0,nan,nan,nan,nan,nan,nan,0.0,12.403539,0.0,0.0,nan,0.0,0.0,0.09014999,0.0,0.0,0.0,0.0,0.0,0.0,0.0,0.0
78632399,0.09890349,0.09890361,0.21399817,0.3041543,0.30415434,0.0,0.0,0.0,0.0,0.0,0.0,0.0,nan,nan,nan,nan,nan,nan,0.0,12.403931,0.0,0.0,nan,0.0,0.0,0.09014981,0.0,0.0,0.0,0.0,0.0,0.0,0.0,0.0
78832396,0.0988999,0.09890002,0.21397717,0.30412385,0.30412385,0.0,0.0,0.0,0.0,0.0,0.0,0.0,nan,nan,nan,nan,nan,nan,0.0,12.406593,0.0,0.0,nan,0.0,0.0,0.09014963,0.0,0.0,0.0,0.0,0.0,0.0,0.0,0.0
79032372,0.098895416,0.09889553,0.21401656,0.30305168,0.3030517,0.0,0.0,0.0,0.0,0.0,0.0,0.0,nan,nan,nan,nan,nan,nan,0.0,12.403528,0.0,0.0,nan,0.0,0.0,0.09014947,0.0,0.0,0.0,0.0,0.0,0.0,0.0,0.0
79232371,0.09889436,0.09889447,0.21399674,0.30302024,0.30302024,0.0,0.0,0.0,0.0,0.0,0.0,0.0,nan,nan,nan,nan,nan,nan,0.0,12.4034195,0.0,0.0,nan,0.0,0.0,0.090149306,0.0,0.0,0.0,0.0,0.0,0.0,0.0,0.0
79432396,0.09888913,0.09888923,0.2139774,0.30194926,0.3019493,0.0,0.0,0.0,0.0,0.0,0.0,0.0,nan,nan,nan,nan,nan,nan,0.0,12.403837,0.0,0.0,nan,0.0,0.0,0.090149134,0.0,0.0,0.0,0.0,0.0,0.0,0.0,0.0
79632396,0.09888627,0.09888637,0.21401826,0.30087417,0.3008742,0.0,0.0,0.0,0.0,0.0,0.0,0.0,nan,nan,nan,nan,nan,nan,0.0,12.403054,0.0,0.0,nan,0.0,0.0,0.09014897,0.0,0.0,0.0,0.0,0.0,0.0,0.0,0.0
80032399,0.09887596,0.098876074,0.21398048,0.29975396,0.299754,0.0,0.0,0.0,0.0,0.0,0.0,0.0,nan,nan,nan,nan,nan,nan,0.0,12.403897,0.0,0.0,nan,0.0,0.0,0.09014865,0.0,0.0,0.0,0.0,0.0,0.0,0.0,0.0
80232399,0.09887241,0.098872505,0.21402057,0.2986798,0.29867983,0.0,0.0,0.0,0.0,0.0,0.0,0.0,nan,nan,nan,nan,nan,nan,0.0,12.403104,0.0,0.0,nan,0.0,0.0,0.09014849,0.0,0.0,0.0,0.0,0.0,0.0,0.0,0.0
80432363,0.098868,0.0988681,0.21400179,0.2986397,0.29863974,0.0,0.0,0.0,0.0,0.0,0.0,0.0,nan,nan,nan,nan,nan,nan,0.0,12.403523,0.0,0.0,nan,0.0,0.0,0.09014834,0.0,0.0,0.0,0.0,0.0,0.0,0.0,0.0
80632397,0.09886437,0.09886448,0.2139829,0.29860616,0.2986062,0.0,0.0,0.0,0.0,0.0,0.0,0.0,nan,nan,nan,nan,nan,nan,0.0,12.403426,0.0,0.0,nan,0.0,0.0,0.09014819,0.0,0.0,0.0,0.0,0.0,0.0,0.0,0.0
80832396,0.09886217,0.09886229,0.21396491,0.29754102,0.29754105,0.0,0.0,0.0,0.0,0.0,0.0,0.0,nan,nan,nan,nan,nan,nan,0.0,12.406097,0.0,0.0,nan,0.0,0.0,0.09014803,0.0,0.0,0.0,0.0,0.0,0.0,0.0,0.0
81032371,0.098858155,0.09885827,0.21400662,0.29750726,0.29750732,0.0,0.0,0.0,0.0,0.0,0.0,0.0,nan,nan,nan,nan,nan,nan,0.0,12.403086,0.0,0.0,nan,0.0,0.0,0.09014788,0.0,0.0,0.0,0.0,0.0,0.0,0.0,0.0
81232366,0.09885512,0.098855235,0.2139892,0.29747912,0.29747915,0.0,0.0,0.0,0.0,0.0,0.0,0.0,nan,nan,nan,nan,nan,nan,0.0,12.4030075,0.0,0.0,nan,0.0,0.0,0.09014772,0.0,0.0,0.0,0.0,0.0,0.0,0.0,0.0
81432362,0.098855406,0.09885553,0.21403104,0.29745546,0.2974555,0.0,0.0,0.0,0.0,0.0,0.0,0.0,nan,nan,nan,nan,nan,nan,0.0,12.403276,0.0,0.0,nan,0.0,0.0,0.09014757,0.0,0.0,0.0,0.0,0.0,0.0,0.0,0.0
81632369,0.098853484,0.09885362,0.21401232,0.296401,0.29640102,0.0,0.0,0.0,0.0,0.0,0.0,0.0,nan,nan,nan,nan,nan,nan,0.0,12.40318,0.0,0.0,nan,0.0,0.0,0.090147436,0.0,0.0,0.0,0.0,0.0,0.0,0.0,0.0
81832381,0.098848835,0.09884898,0.21399407,0.29637474,0.29637477,0.0,0.0,0.0,0.0,0.0,0.0,0.0,nan,nan,nan,nan,nan,nan,0.0,12.403608,0.0,0.0,nan,0.0,0.0,0.09014728,0.0,0.0,0.0,0.0,0.0,0.0,0.0,0.0
83232396,0.098827355,0.098827496,0.2139946,0.29310066,0.2931007,0.0,0.0,0.0,0.0,0.0,0.0,0.0,nan,nan,nan,nan,nan,nan,0.0,12.403751,0.0,0.0,nan,0.0,0.0,0.09014625,0.0,0.0,0.0,0.0,0.0,0.0,0.0,0.0
84232369,0.098817654,0.09881777,0.21404043,0.2898869,0.28988692,0.0,0.0,0.0,0.0,0.0,0.0,0.0,nan,nan,nan,nan,nan,nan,0.0,12.40253,0.0,0.0,nan,0.0,0.0,0.09014548,0.0,0.0,0.0,0.0,0.0,0.0,0.0,0.0
84432400,0.09881436,0.09881445,0.2140273,0.28985384,0.28985387,0.0,0.0,0.0,0.0,0.0,0.0,0.0,nan,nan,nan,nan,nan,nan,0.0,12.404015,0.0,0.0,nan,0.0,0.0,0.09014533,0.0,0.0,0.0,0.0,0.0,0.0,0.0,0.0
84632396,0.09880884,0.09880893,0.21407169,0.28880543,0.28880545,0.0,0.0,0.0,0.0,0.0,0.0,0.0,nan,nan,nan,nan,nan,nan,0.0,12.403216,0.0,0.0,nan,0.0,0.0,0.090145156,0.0,0.0,0.0,0.0,0.0,0.0,0.0,0.0
84832356,0.09880829,0.098808385,0.21405727,0.28877172,0.28877175,0.0,0.0,0.0,0.0,0.0,0.0,0.0,nan,nan,nan,nan,nan,nan,0.0,12.403628,0.0,0.0,nan,0.0,0.0,0.09014499,0.0,0.0,0.0,0.0,0.0,0.0,0.0,0.0
85032401,0.09880099,0.098801084,0.21404392,0.28772494,0.28772497,0.0,0.0,0.0,0.0,0.0,0.0,0.0,nan,nan,nan,nan,nan,nan,0.0,12.404051,0.0,0.0,nan,0.0,0.0,0.09014482,0.0,0.0,0.0,0.0,0.0,0.0,0.0,0.0
85232358,0.09886424,0.09886437,0.2140741,0.28789422,0.28789425,0.0,0.0,0.0,0.0,0.0,0.0,0.0,nan,nan,nan,nan,nan,nan,0.0,12.406749,0.0,0.0,nan,0.0,0.0,0.09014465,0.0,0.0,0.0,0.0,0.0,0.0,0.0,0.0
85422412,0.098786205,0.098786294,0.21407731,0.2866202,0.28662026,0.0,0.0,0.0,0.0,0.0,0.0,0.0,nan,nan,nan,nan,nan,nan,0.0,12.403166,0.0,0.0,nan,0.0,0.0,0.09014448,0.0,0.0,0.0,0.0,0.0,0.0,0.0,0.0
85632409,0.09878628,0.09878636,0.2140673,0.2865879,0.2865879,0.0,0.0,0.0,0.0,0.0,0.0,0.0,nan,nan,nan,nan,nan,nan,0.0,12.403601,0.0,0.0,nan,0.0,0.0,0.09014429,0.0,0.0,0.0,0.0,0.0,0.0,0.0,0.0
85832468,0.0987847,0.09878477,0.21405807,0.2855463,0.2855463,0.0,0.0,0.0,0.0,0.0,0.0,0.0,nan,nan,nan,nan,nan,nan,0.0,12.403523,0.0,0.0,nan,0.0,0.0,0.090144105,0.0,0.0,0.0,0.0,0.0,0.0,0.0,0.0
86022347,0.09878528,0.09878536,0.21410894,0.28551352,0.28551355,0.0,0.0,0.0,0.0,0.0,0.0,0.0,nan,nan,nan,nan,nan,nan,0.0,12.403266,0.0,0.0,nan,0.0,0.0,0.09014393,0.0,0.0,0.0,0.0,0.0,0.0,0.0,0.0
86232357,0.09878628,0.09878636,0.21409935,0.28447315,0.28447315,0.0,0.0,0.0,0.0,0.0,0.0,0.0,nan,nan,nan,nan,nan,nan,0.0,12.40369,0.0,0.0,nan,0.0,0.0,0.09014374,0.0,0.0,0.0,0.0,0.0,0.0,0.0,0.0
86432430,0.09877774,0.098777816,0.21409026,0.28342927,0.28342927,0.0,0.0,0.0,0.0,0.0,0.0,0.0,nan,nan,nan,nan,nan,nan,0.0,12.403602,0.0,0.0,nan,0.0,0.0,0.09014355,0.0,0.0,0.0,0.0,0.0,0.0,0.0,0.0
86632399,0.09877439,0.09877447,0.21414249,0.28339118,0.28339118,0.0,0.0,0.0,0.0,0.0,0.0,0.0,nan,nan,nan,nan,nan,nan,0.0,12.403347,0.0,0.0,nan,0.0,0.0,0.09014335,0.0,0.0,0.0,0.0,0.0,0.0,0.0,0.0
86832396,0.09877096,0.09877105,0.21413472,0.28335956,0.28335956,0.0,0.0,0.0,0.0,0.0,0.0,0.0,nan,nan,nan,nan,nan,nan,0.0,12.403267,0.0,0.0,nan,0.0,0.0,0.09014316,0.0,0.0,0.0,0.0,0.0,0.0,0.0,0.0
87022351,0.098772295,0.09877309,0.21412793,0.28232425,0.28232425,0.0,0.0,0.0,0.0,0.0,0.0,0.0,nan,nan,nan,nan,nan,nan,0.0,12.405961,0.0,0.0,nan,0.0,0.0,0.09014295,0.0,0.0,0.0,0.0,0.0,0.0,0.0,0.0
87232400,0.09880869,0.09884804,0.21418831,0.2822929,0.28229293,0.0,0.0,0.0,0.0,0.0,0.0,0.0,nan,nan,nan,nan,nan,nan,0.0,12.402955,0.0,0.0,nan,0.0,0.0,0.09014261,0.0,0.0,0.0,0.0,0.0,0.0,0.0,0.0
87432399,0.098838076,0.09918194,0.21422242,0.2812588,0.28125936,0.0,0.0,0.0,0.0,0.0,0.0,0.0,nan,nan,nan,nan,nan,nan,0.0,12.403412,0.0,0.0,nan,0.0,0.0,0.0901416,0.0,0.0,0.0,0.0,0.0,0.0,0.0,0.0
87632414,0.09895862,0.09990122,0.2143517,0.28123534,0.28123873,0.0,0.0,0.0,0.0,0.0,0.0,0.0,nan,nan,nan,nan,nan,nan,0.0,12.403665,0.0,0.0,nan,0.0,0.0,0.09013948,0.0,0.0,0.0,0.0,0.0,0.0,0.0,0.0
87822391,0.09925182,0.10085937,0.21443754,0.28019238,0.28020674,0.0,0.0,0.0,0.0,0.0,0.0,0.0,nan,nan,nan,nan,nan,nan,0.0,12.403546,0.0,0.0,nan,0.0,0.0,0.090136096,0.0,0.0,0.0,0.0,0.0,0.0,0.0,0.0
88032397,0.09936817,0.10165845,0.21452464,0.27915815,0.2791972,0.0,0.0,0.0,0.0,0.0,0.0,0.0,nan,nan,nan,nan,nan,nan,0.0,12.403967,0.0,0.0,nan,0.0,0.0,0.09013147,0.0,0.0,0.0,0.0,0.0,0.0,0.0,0.0
88232399,0.101357564,0.104312055,0.21461958,0.2781321,0.2782123,0.0,0.0,0.0,0.0,0.0,0.0,0.0,nan,nan,nan,nan,nan,nan,0.0,12.403869,0.0,0.0,nan,0.0,0.0,0.0901262,0.0,0.0,0.0,0.0,0.0,0.0,0.3171425,0.0
88432402,0.10600992,0.10894215,0.21475135,0.278096,0.27823034,0.0,0.0,0.0,0.0,0.0,0.0,0.0,nan,nan,nan,nan,nan,nan,0.0,12.403082,0.0,0.0,nan,0.0,0.0,0.09012119,0.0,0.0,0.0,0.0,0.0,0.0,0.31340003,0.0
88622351,0.11110469,0.11384992,0.21484712,0.27811646,0.2783016,0.0,0.0,0.0,0.0,0.0,0.0,0.0,nan,nan,nan,nan,nan,nan,0.0,12.403524,0.0,0.0,nan,0.0,0.0,0.09011727,0.0,0.0,0.0,0.0,0.0,0.0,0.31033143,0.0
88832397,0.11630395,0.11794393,0.21491241,0.27840033,0.27864093,0.0,0.0,0.0,0.0,0.0,0.0,0.0,nan,nan,nan,nan,nan,nan,0.0,12.403456,0.0,0.0,nan,0.0,0.0,0.09011465,0.0,0.0,0.0,0.0,0.0,0.0,0.30833843,0.0
89032396,0.11897795,0.11981435,0.21494012,0.2785251,0.27877423,0.0,0.0,0.0,0.0,0.0,0.0,0.0,nan,nan,nan,nan,nan,nan,0.0,12.406779,0.0,0.0,nan,0.0,0.0,0.09011315,0.0,0.0,0.0,0.0,0.0,2.3044891,0.31003025,0.0
89232386,0.11993973,0.12016264,0.21500903,0.2786975,0.2789328,0.0,0.0,0.0,0.0,0.0,0.0,0.0,nan,nan,nan,nan,nan,nan,0.0,12.404157,0.0,0.0,nan,0.0,0.0,0.09011324,0.0,0.0,0.0,0.0,0.0,2.1844625,0.3092332,0.0
89432359,0.11954249,0.119499564,0.21502578,0.27888483,0.27909428,0.0,0.0,0.0,0.0,0.0,0.0,0.0,nan,nan,nan,nan,nan,nan,0.0,12.407487,0.0,0.0,nan,0.0,0.0,0.090112306,0.0,0.0,0.0,0.0,0.0,2.1505694,0.307859,0.0
89632358,0.118357,0.118270785,0.2151005,0.2790568,0.2792398,0.0,0.0,0.0,0.0,0.0,0.0,0.0,nan,nan,nan,nan,nan,nan,0.0,12.403775,0.0,0.0,nan,0.0,0.0,0.090109885,0.0,0.0,0.0,0.0,0.0,2.1335316,0.30672464,0.0
89832361,0.11669431,0.116986856,0.21509151,0.27922612,0.27938342,0.0,0.0,0.0,0.0,0.0,0.0,0.0,nan,nan,nan,nan,nan,nan,0.0,12.404223,0.0,0.0,nan,0.0,0.0,0.09011246,0.0,0.0,0.0,0.0,0.0,2.1212854,0.30516946,0.0
90032361,0.11458877,0.11545567,0.21505602,0.2791333,0.279261,0.0,0.0,0.0,0.0,0.0,0.0,0.0,nan,nan,nan,nan,nan,nan,0.0,12.40415,0.0,0.0,nan,0.0,0.0,0.09011258,0.0028390319,0.0028552436,0.002836823,0.0,0.0,2.1134293,0.30480704,0.0
90232381,0.11317689,0.114234544,0.2152323,0.27962282,0.27971017,0.0,0.0,0.0,0.0,0.0,0.0,0.0,nan,nan,nan,nan,nan,nan,0.0,12.406967,0.0,0.0,nan,0.0,0.0,0.09011258,0.0026499436,0.0026659432,0.0026491305,0.0,0.0,2.1077037,0.30464485,0.0
90432391,0.11188034,0.112779975,0.21548475,0.28002685,0.2800845,0.0,0.0,0.0,0.0,0.0,0.0,0.0,nan,nan,nan,nan,nan,nan,0.0,12.4038105,0.0,0.0,nan,0.0,0.0,0.09011258,0.0026016003,0.0026178476,0.0026018627,0.0,0.0,2.1038182,0.3043535,0.0
90632355,0.11033358,0.110977866,0.21548876,0.27980068,0.2798413,0.0,0.0,0.0,0.0,0.0,0.0,0.0,nan,nan,nan,nan,nan,nan,0.0,12.404298,0.0,0.0,nan,0.0,0.0,0.09011258,0.002581453,0.0026074967,0.0025852392,0.0,0.0,2.1012084,0.30423003,0.0
90832382,0.10949771,0.10970415,0.2156269,0.2801416,0.2801696,0.0,0.0,0.0,0.0,0.0,0.0,0.0,nan,nan,nan,nan,nan,nan,0.0,12.404549,0.0,0.0,nan,0.0,0.0,0.09011258,0.0025739246,0.0026102534,0.0025822397,0.0,0.0,2.100832,0.30402052,0.0
91032352,0.1084077,0.1081589,0.21555647,0.27988312,0.2799043,0.0,0.0,0.0,0.0,0.0,0.0,0.0,nan,nan,nan,nan,nan,nan,0.0,12.404465,0.0,0.0,nan,0.0,0.0,0.09011258,0.002571494,0.002603474,0.0025782606,0.0,0.0,2.1024296,0.30378476,0.0
91232402,0.10789894,0.106919505,0.21552415,0.27991104,0.2799277,0.0,0.0,0.0,0.0,0.0,0.0,0.0,nan,nan,nan,nan,nan,nan,0.0,12.407352,0.0,0.0,nan,0.0,0.0,0.09011258,0.0025677,0.0026035411,0.0025777677,0.0,0.0,2.1107502,0.30296052,0.0
91422394,0.107457206,0.10585923,0.215569,0.2799229,0.27993757,0.0,0.0,0.0,0.0,0.0,0.0,0.0,nan,nan,nan,nan,nan,nan,0.0,12.404126,0.0,0.0,nan,0.0,0.0,0.09011258,0.0025651515,0.0025771698,0.0025645713,0.0,0.0,2.114422,0.30267486,0.0
91632412,0.10696635,0.10504834,0.21550862,0.27991623,0.27992588,0.0,0.0,0.0,0.0,0.0,0.0,0.0,nan,nan,nan,nan,nan,nan,0.0,12.404608,0.0,0.0,nan,0.0,0.0,0.09011258,0.002561879,0.002565186,0.002552008,0.0,0.0,2.1178036,0.30234677,0.0
91832400,0.10648766,0.10435905,0.21544068,0.27989,0.27989075,0.0,0.0,0.0,0.0,0.0,0.0,0.0,nan,nan,nan,nan,nan,nan,0.0,12.404551,0.0,0.0,nan,0.0,0.0,0.09011258,0.002556126,0.00256461,0.002541667,0.0,0.0,2.1201444,0.30206487,0.0
92032352,0.10594809,0.10353165,0.21543995,0.27960032,0.27959147,0.0,0.0,0.0,0.0,0.0,0.0,0.0,nan,nan,nan,nan,nan,nan,0.0,12.403758,0.0,0.0,nan,0.0,0.0,0.09011258,0.002552298,0.002568502,0.00253419,0.0,0.0,2.122365,0.3014937,0.0
92232354,0.10580365,0.10301428,0.21549994,0.27983707,0.27980906,0.0,0.0,0.0,0.0,0.0,0.0,0.0,nan,nan,nan,nan,nan,nan,0.0,12.405295,0.0,0.0,nan,0.0,0.0,0.09011258,0.0025541221,0.00257684,0.0025308796,0.0,0.0,2.1240895,0.30128735,0.0
92432354,0.10550504,0.10249063,0.21548901,0.2797824,0.27973357,0.0,0.0,0.0,0.0,0.0,0.0,0.0,nan,nan,nan,nan,nan,nan,0.0,12.408184,0.0,0.0,nan,0.0,0.0,0.09011258,0.002564366,0.0025978044,0.0025321033,0.0,0.0,2.124739,0.3010901,0.0
92632400,0.10507548,0.10198898,0.21549344,0.27948168,0.27941352,0.0,0.0,0.0,0.0,0.0,0.0,0.0,nan,nan,nan,nan,nan,nan,0.0,12.404888,0.0,0.0,nan,0.0,0.0,0.09011258,0.0025686068,0.0026077398,0.0025333688,0.0,0.0,2.1240132,0.30091166,0.0
92832374,0.10477057,0.10167916,0.2155095,0.279453,0.27935416,0.0,0.0,0.0,0.0,0.0,0.0,0.0,nan,nan,nan,nan,nan,nan,0.0,12.404792,0.0,0.0,nan,0.0,0.0,0.09011258,0.0025696116,0.002613188,0.002534956,0.0,0.0,2.120311,0.3006387,0.0
93032399,0.10438621,0.10151707,0.21554887,0.2796587,0.27951512,0.0,0.0,0.0,0.0,0.0,0.0,0.0,nan,nan,nan,nan,nan,nan,0.0,12.407638,0.0,0.0,nan,0.0,0.0,0.09011258,0.002565109,0.0026110457,0.0025363048,0.0,0.0,2.115791,0.30054963,0.0
93232400,0.10365742,0.10132567,0.21558148,0.27958652,0.27940756,0.0,0.0,0.0,0.0,0.0,0.0,0.0,nan,nan,nan,nan,nan,nan,0.0,12.404391,0.0,0.0,nan,0.0,0.0,0.09011258,0.0025712743,0.0026634142,0.0025556409,0.0,0.0,2.1110766,0.30048552,0.0
93432399,0.102881014,0.10125854,0.21550639,0.27951333,0.27930325,0.0,0.0,0.0,0.0,0.0,0.0,0.0,nan,nan,nan,nan,nan,nan,0.0,12.404296,0.0,0.0,nan,0.0,0.0,0.09011258,0.0025867624,0.00271002,0.0025690002,0.0,0.0,2.1063337,0.30042198,0.0
93632375,0.10230153,0.10136294,0.21540882,0.27943027,0.2792018,0.0,0.0,0.0,0.0,0.0,0.0,0.0,nan,nan,nan,nan,nan,nan,0.0,12.404744,0.0,0.0,nan,0.0,0.0,0.09011258,0.0026010815,0.002730179,0.0025710778,0.0,0.0,2.1021078,0.30036968,0.0
93832397,0.101918936,0.10155683,0.2153035,0.27933627,0.27910453,0.0,0.0,0.0,0.0,0.0,0.0,0.0,nan,nan,nan,nan,nan,nan,0.0,12.407592,0.0,0.0,nan,0.0,0.0,0.09011258,0.002601984,0.0027140877,0.0025585543,0.0,0.0,2.0993419,0.3003736,0.0
94032361,0.101824366,0.10192692,0.21526086,0.2792318,0.27901387,0.0,0.0,0.0,0.0,0.0,0.0,0.0,nan,nan,nan,nan,nan,nan,0.0,12.403842,0.0,0.0,nan,0.0,0.0,0.09011258,0.002598585,0.002686938,0.0025458704,0.0,0.0,2.0976412,0.300371,0.0
94232371,0.10210745,0.1027033,0.21511504,0.27912423,0.2789351,0.0,0.0,0.0,0.0,0.0,0.0,0.0,nan,nan,nan,nan,nan,nan,0.0,12.404284,0.0,0.0,nan,0.0,0.0,0.09011258,0.0025991972,0.0026599166,0.0025373758,0.0,0.0,2.0962205,0.3003648,0.0
94432402,0.102651685,0.103797466,0.21495336,0.27902693,0.27888116,0.0,0.0,0.0,0.0,0.0,0.0,0.0,nan,nan,nan,nan,nan,nan,0.0,12.40418,0.0,0.0,nan,0.0,0.0,0.09011258,0.0026091305,0.0026585725,0.002537968,0.0,0.0,2.095816,0.30035847,0.0
94632357,0.10258164,0.104021795,0.21490099,0.27895612,0.27886662,0.0,0.0,0.0,0.0,0.0,0.0,0.0,nan,nan,nan,nan,nan,nan,0.0,12.40697,0.0,0.0,nan,0.0,0.0,0.09011258,0.0026183578,0.0026656778,0.0025391078,0.0,0.0,2.0953062,0.30035263,0.0
94832354,0.10236098,0.1040029,0.21489736,0.278904,0.278868,0.0,0.0,0.0,0.0,0.0,0.0,0.0,nan,nan,nan,nan,nan,nan,0.0,12.403771,0.0,0.0,nan,0.0,0.0,0.09011258,0.002623988,0.0026778982,0.002542227,0.0,0.0,2.0951815,0.30034596,0.0
95032399,0.10185654,0.10350044,0.21487476,0.2788719,0.27889264,0.0,0.0,0.0,0.0,0.0,0.0,0.0,nan,nan,nan,nan,nan,nan,0.0,12.403664,0.0,0.0,nan,0.0,0.0,0.09011258,0.0026276282,0.0027129373,0.0025513151,0.0,0.0,2.094863,0.30031458,0.0
95232365,0.10114629,0.10260686,0.21489559,0.27884254,0.2789162,0.0,0.0,0.0,0.0,0.0,0.0,0.0,nan,nan,nan,nan,nan,nan,0.0,12.406435,0.0,0.0,nan,0.0,0.0,0.09011258,0.0026251154,0.0027384444,0.00256004,0.0,0.0,2.0946178,0.30031034,0.0
95432400,0.100762315,0.102081455,0.21491462,0.2788016,0.2789193,0.0,0.0,0.0,0.0,0.0,0.0,0.0,nan,nan,nan,nan,nan,nan,0.0,12.403303,0.0,0.0,nan,0.0,0.0,0.09011258,0.002624894,0.0027632131,0.00257031,0.0,0.0,2.0937753,0.3002973,0.0
95632351,0.100340255,0.101421416,0.21489982,0.27975997,0.27991998,0.0,0.0,0.0,0.0,0.0,0.0,0.0,nan,nan,nan,nan,nan,nan,0.0,12.403225,0.0,0.0,nan,0.0,0.0,0.09011258,0.0026262829,0.0027901544,0.0025822637,0.0,0.0,2.0930326,0.3002903,0.0
95832357,0.10045138,0.101144195,0.21471158,0.27971068,0.27990055,0.0,0.0,0.0,0.0,0.0,0.0,0.0,nan,nan,nan,nan,nan,nan,0.0,12.403682,0.0,0.0,nan,0.0,0.0,0.09011258,0.0026517306,0.0028676114,0.0026334154,0.0,0.0,2.091665,0.30025145,0.0
96032396,0.100955635,0.10101895,0.21450873,0.27966458,0.27988014,0.0,0.0,0.0,0.0,0.0,0.0,0.0,nan,nan,nan,nan,nan,nan,0.0,12.406443,0.0,0.0,nan,0.0,0.0,0.09011258,0.0026875667,0.0029175575,0.0026731535,0.0,0.0,2.0906801,0.30023372,0.0
96232356,0.10047027,0.10042062,0.21477154,0.2806338,0.28086576,0.0,0.0,0.0,0.0,0.0,0.0,0.0,nan,nan,nan,nan,nan,nan,0.0,12.40333,0.0,0.0,nan,0.0,0.0,0.09011258,0.0026911742,0.0029186378,0.0026671027,0.0,0.0,2.0914161,0.30023342,0.0
96432372,0.099938065,0.0998302,0.2150451,0.28060612,0.28083664,0.0,0.0,0.0,0.0,0.0,0.0,0.0,nan,nan,nan,nan,nan,nan,0.0,12.403256,0.0,0.0,nan,0.0,0.0,0.09011258,0.0026623982,0.0029079767,0.0026610156,0.0,0.0,2.0918388,0.30024305,0.0
96632359,0.09973466,0.099417366,0.21516833,0.281569,0.28178623,0.0,0.0,0.0,0.0,0.0,0.0,0.0,nan,nan,nan,nan,nan,nan,0.0,12.406605,0.0,0.0,nan,0.0,0.0,0.09011258,0.002634265,0.0028919415,0.002655747,0.0,0.0,2.0912745,0.300246,0.0
96822388,0.09987079,0.09918971,0.21514134,0.28153074,0.2817216,0.0,0.0,0.0,0.0,0.0,0.0,0.0,nan,nan,nan,nan,nan,nan,0.0,12.403465,0.0,0.0,nan,0.0,0.0,0.09011258,0.0026189592,0.0028773472,0.002647918,0.0,0.0,2.0905738,0.3002461,0.0
97022426,0.09990779,0.098961696,0.21510598,0.2814982,0.28165114,0.0,0.0,0.0,0.0,0.0,0.0,0.0,nan,nan,nan,nan,nan,nan,0.0,12.403397,0.0,0.0,nan,0.0,0.0,0.09011258,0.0026151414,0.0028869007,0.0026598389,0.0,0.0,2.0904021,0.3002418,0.0
97222347,0.10020729,0.09892442,0.2149665,0.2804541,0.28056058,0.0,0.0,0.0,0.0,0.0,0.0,0.0,nan,nan,nan,nan,nan,nan,0.0,12.406191,0.0,0.0,nan,0.0,0.0,0.09011258,0.0026125624,0.0028553773,0.0026289038,0.0,0.0,2.0900865,0.30025384,0.0
97432397,0.10069416,0.09905507,0.21481627,0.2804219,0.28047454,0.0,0.0,0.0,0.0,0.0,0.0,0.0,nan,nan,nan,nan,nan,nan,0.0,12.403083,0.0,0.0,nan,0.0,0.0,0.09011258,0.0026099773,0.002822057,0.0026027078,0.0,0.0,2.08958,0.3002785,0.0
97632356,0.10084649,0.09905208,0.21468401,0.28041348,0.28040832,0.0,0.0,0.0,0.0,0.0,0.0,0.0,nan,nan,nan,nan,nan,nan,0.0,12.403016,0.0,0.0,nan,0.0,0.0,0.09011258,0.002611721,0.0028127767,0.0025957262,0.0,0.0,2.0901325,0.30028814,0.0
97832384,0.10105111,0.09911198,0.21448527,0.28020158,0.28014553,0.0,0.0,0.0,0.0,0.0,0.0,0.0,nan,nan,nan,nan,nan,nan,0.0,12.403477,0.0,0.0,nan,0.0,0.0,0.09011258,0.0026232358,0.0028160347,0.0025957648,0.0,0.0,2.0896997,0.3002897,0.0
98032360,0.10131884,0.0993268,0.21440978,0.28146568,0.28133872,0.0,0.0,0.0,0.0,0.0,0.0,0.0,nan,nan,nan,nan,nan,nan,0.0,12.406236,0.0,0.0,nan,0.0,0.0,0.09011258,0.002632761,0.0028092556,0.0025895343,0.0,0.0,2.0898795,0.30030805,0.0
98232365,0.101134405,0.09938565,0.21440765,0.28150734,0.28132027,0.0,0.0,0.0,0.0,0.0,0.0,0.0,nan,nan,nan,nan,nan,nan,0.0,12.403145,0.0,0.0,nan,0.0,0.0,0.09011258,0.0026318238,0.0027822575,0.0025740548,0.0,0.0,2.0899172,0.3003318,0.0
98432408,0.10073249,0.09935242,0.2143621,0.2825554,0.28231603,0.0,0.0,0.0,0.0,0.0,0.0,0.0,nan,nan,nan,nan,nan,nan,0.0,12.40358,0.0,0.0,nan,0.0,0.0,0.09011258,0.002623501,0.002754181,0.002561426,0.0,0.0,2.0896935,0.30034664,0.0
98622367,0.10034449,0.09936152,0.21431056,0.28360358,0.2833251,0.0,0.0,0.0,0.0,0.0,0.0,0.0,nan,nan,nan,nan,nan,nan,0.0,12.40633,0.0,0.0,nan,0.0,0.0,0.09011258,0.0026148222,0.0027339777,0.0025543857,0.0,0.0,2.089677,0.3003545,0.0
98832420,0.10001704,0.09936853,0.21430753,0.28363845,0.28333855,0.0,0.0,0.0,0.0,0.0,0.0,0.0,nan,nan,nan,nan,nan,nan,0.0,12.403235,0.0,0.0,nan,0.0,0.0,0.09011258,0.002609553,0.0027129948,0.002548568,0.0,0.0,2.0895677,0.30035907,0.0
99032399,0.09964772,0.09925385,0.21419859,0.28445548,0.2841582,0.0,0.0,0.0,0.0,0.0,0.0,0.0,nan,nan,nan,nan,nan,nan,0.0,12.403172,0.0,0.0,nan,0.0,0.0,0.09011258,0.0026067256,0.0027112924,0.0025476888,0.0,0.0,2.089709,0.30036512,0.0
99232361,0.0994691,0.09924841,0.21418673,0.28550094,0.28521246,0.0,0.0,0.0,0.0,0.0,0.0,0.0,nan,nan,nan,nan,nan,nan,0.0,12.402931,0.0,0.0,nan,0.0,0.0,0.09011258,0.002614034,0.0027298732,0.002552538,0.0,0.0,2.0900397,0.30036154,0.0
99432396,0.09959445,0.09951153,0.21413971,0.28675133,0.28647867,0.0,0.0,0.0,0.0,0.0,0.0,0.0,nan,nan,nan,nan,nan,nan,0.0,12.402868,0.0,0.0,nan,0.0,0.0,0.09011258,0.00262979,0.0027441306,0.0025567168,0.0,0.0,2.0904315,0.30035982,0.0
99632399,0.09959339,0.09961887,0.21401721,0.2875634,0.28732055,0.0,0.0,0.0,0.0,0.0,0.0,0.0,nan,nan,nan,nan,nan,nan,0.0,12.402819,0.0,0.0,nan,0.0,0.0,0.09011258,0.0026489312,0.002762807,0.0025624651,0.0,0.0,2.0904667,0.3003633,0.0
99832397,0.09984681,0.10000752,0.21399713,0.28862375,0.28840962,0.0,0.0,0.0,0.0,0.0,0.0,0.0,nan,nan,nan,nan,nan,nan,0.0,12.403098,0.0,0.0,nan,0.0,0.0,0.09011258,0.0026669567,0.0027607388,0.0025621136,0.0,0.0,2.0908105,0.3003793,0.0
100032402,0.09985346,0.100133,0.21394916,0.28970188,0.28952137,0.0,0.0,0.0,0.0,0.0,0.0,0.0,nan,nan,nan,nan,nan,nan,0.0,12.403017,0.0,0.0,nan,0.0,0.0,0.09011258,0.0026708571,0.0027563272,0.002559901,0.0,0.0,2.0912805,0.300395,0.0
100232397,0.0996442,0.09996097,0.21391624,0.2907925,0.29065058,0.0,0.0,0.0,0.0,0.0,0.0,0.0,nan,nan,nan,nan,nan,nan,0.0,12.403458,0.0,0.0,nan,0.0,0.0,0.09011258,0.0026630652,0.0027465872,0.0025556332,0.0,0.0,2.0914338,0.30041113,0.0
100432396,0.099107236,0.09933646,0.21391633,0.29187137,0.29177204,0.0,0.0,0.0,0.0,0.0,0.0,0.0,nan,nan,nan,nan,nan,nan,0.0,12.403391,0.0,0.0,nan,0.0,0.0,0.09011258,0.002645951,0.0027407901,0.002552426,0.0,0.0,2.0918443,0.30040857,0.0
100632383,0.09878056,0.09892391,0.21393993,0.2929199,0.2928611,0.0,0.0,0.0,0.0,0.0,0.0,0.0,nan,nan,nan,nan,nan,nan,0.0,12.402631,0.0,0.0,nan,0.0,0.0,0.09011258,0.0026356985,0.0027337344,0.0025509554,0.0,0.0,2.0918262,0.30041063,0.0
100822355,0.09883516,0.098952554,0.21384174,0.29394853,0.29392228,0.0,0.0,0.0,0.0,0.0,0.0,0.0,nan,nan,nan,nan,nan,nan,0.0,12.403094,0.0,0.0,nan,0.0,0.0,0.09011258,0.002639663,0.0027362024,0.0025523494,0.0,0.0,2.092098,0.30040973,0.0
101032398,0.099197,0.09933796,0.21371505,0.29601848,0.29601765,0.0,0.0,0.0,0.0,0.0,0.0,0.0,nan,nan,nan,nan,nan,nan,0.0,12.403038,0.0,0.0,nan,0.0,0.0,0.09011258,0.0026550505,0.0027459003,0.0025553168,0.0,0.0,2.0926132,0.300411,0.0
101232412,0.099542096,0.09969722,0.21366172,0.29731843,0.29734322,0.0,0.0,0.0,0.0,0.0,0.0,0.0,nan,nan,nan,nan,nan,nan,0.0,12.406255,0.0,0.0,nan,0.0,0.0,0.09011258,0.002676085,0.0027829502,0.0025634374,0.0,0.0,2.0927606,0.30041534,0.0
101432391,0.099203154,0.099234805,0.21373452,0.29840577,0.29844946,0.0,0.0,0.0,0.0,0.0,0.0,0.0,nan,nan,nan,nan,nan,nan,0.0,12.403724,0.0,0.0,nan,0.0,0.0,0.09011258,0.002677568,0.0027934972,0.0025632232,0.0,0.0,2.0934086,0.30041963,0.0
101632399,0.099119626,0.09908872,0.2137177,0.298226,0.29828194,0.0,0.0,0.0,0.0,0.0,0.0,0.0,nan,nan,nan,nan,nan,nan,0.0,12.403446,0.0,0.0,nan,0.0,0.0,0.09011258,0.00266962,0.0028088454,0.0025687143,0.0,0.0,2.0938756,0.30040902,0.0
101832396,0.0991686,0.09910107,0.2136918,0.29847413,0.298543,0.0,0.0,0.0,0.0,0.0,0.0,0.0,nan,nan,nan,nan,nan,nan,0.0,12.403331,0.0,0.0,nan,0.0,0.0,0.09011258,0.0026534665,0.0027886685,0.0025617667,0.0,0.0,2.094001,0.30040747,0.0
102032353,0.09909381,0.09897221,0.2136157,0.29952902,0.2996021,0.0,0.0,0.0,0.0,0.0,0.0,0.0,nan,nan,nan,nan,nan,nan,0.0,12.403742,0.0,0.0,nan,0.0,0.0,0.09011258,0.0026389074,0.0027716428,0.002556456,0.0,0.0,2.094303,0.30041692,0.0
102232396,0.098978125,0.0988039,0.21354204,0.30059275,0.30066356,0.0,0.0,0.0,0.0,0.0,0.0,0.0,nan,nan,nan,nan,nan,nan,0.0,12.403629,0.0,0.0,nan,0.0,0.0,0.09011258,0.0026338194,0.0027639507,0.0025542784,0.0,0.0,2.0945177,0.3004164,0.0
102432361,0.098857686,0.09864426,0.21347968,0.3006102,0.30067214,0.0,0.0,0.0,0.0,0.0,0.0,0.0,nan,nan,nan,nan,nan,nan,0.0,12.406268,0.0,0.0,nan,0.0,0.0,0.09011258,0.0026337174,0.0027620888,0.0025534304,0.0,0.0,2.0950289,0.30041447,0.0
102632399,0.09893913,0.098694555,0.21346301,0.3016574,0.30170587,0.0,0.0,0.0,0.0,0.0,0.0,0.0,nan,nan,nan,nan,nan,nan,0.0,12.403252,0.0,0.0,nan,0.0,0.0,0.09011258,0.0026380306,0.0027603135,0.002552046,0.0,0.0,2.0956938,0.3004135,0.0
102822391,0.09890796,0.0986031,0.21341781,0.3027274,0.30276206,0.0,0.0,0.0,0.0,0.0,0.0,0.0,nan,nan,nan,nan,nan,nan,0.0,12.405864,0.0,0.0,nan,0.0,0.0,0.09011258,0.0026365286,0.002761278,0.0025507119,0.0,0.0,2.0959291,0.3004198,0.0
103032396,0.09883873,0.09850291,0.2133798,0.30359322,0.3036131,0.0,0.0,0.0,0.0,0.0,0.0,0.0,nan,nan,nan,nan,nan,nan,0.0,12.402872,0.0,0.0,nan,0.0,0.0,0.09011258,0.0026378436,0.0027711878,0.0025527468,0.0,0.0,2.0963745,0.30041334,0.0
103232403,0.098883785,0.09851153,0.21336554,0.30384672,0.30384672,0.0,0.0,0.0,0.0,0.0,0.0,0.0,nan,nan,nan,nan,nan,nan,0.0,12.403258,0.0,0.0,nan,0.0,0.0,0.09011258,0.0026355512,0.0027573395,0.0025479756,0.0,0.0,2.0966923,0.30040884,0.0
103432357,0.09899947,0.09858976,0.21324633,0.30470434,0.3046876,0.0,0.0,0.0,0.0,0.0,0.0,0.0,nan,nan,nan,nan,nan,nan,0.0,12.403654,0.0,0.0,nan,0.0,0.0,0.09011258,0.0026339008,0.002744218,0.002544058,0.0,0.0,2.0974047,0.30041465,0.0
103632421,0.09927882,0.09876919,0.21323341,0.30476013,0.30472407,0.0,0.0,0.0,0.0,0.0,0.0,0.0,nan,nan,nan,nan,nan,nan,0.0,12.402871,0.0,0.0,nan,0.0,0.0,0.09011258,0.0026319455,0.0027275064,0.0025399604,0.0,0.0,2.0977194,0.30041817,0.0
103832396,0.099621765,0.09895182,0.21316814,0.30586898,0.3058123,0.0,0.0,0.0,0.0,0.0,0.0,0.0,nan,nan,nan,nan,nan,nan,0.0,12.402751,0.0,0.0,nan,0.0,0.0,0.09011258,0.0026279145,0.0027092276,0.0025369881,0.0,0.0,2.0985646,0.30041578,0.0
104032356,0.100140795,0.0992424,0.21308312,0.30594242,0.30586284,0.0,0.0,0.0,0.0,0.0,0.0,0.0,nan,nan,nan,nan,nan,nan,0.0,12.403139,0.0,0.0,nan,0.0,0.0,0.09011258,0.0026282615,0.002680762,0.0025363648,0.0,0.0,2.0989215,0.30040854,0.0
104232353,0.10127908,0.09981128,0.21304426,0.30728424,0.30717713,0.0,0.0,0.0,0.0,0.0,0.0,0.0,nan,nan,nan,nan,nan,nan,0.0,12.403011,0.0,0.0,nan,0.0,0.0,0.09011258,0.002629409,0.002644346,0.002543914,0.0,0.0,2.1001809,0.30040646,0.0
104432396,0.10224741,0.100067,0.21299607,0.30738103,0.3072453,0.0,0.0,0.0,0.0,0.0,0.0,0.0,nan,nan,nan,nan,nan,nan,0.0,12.405529,0.0,0.0,nan,0.0,0.0,0.09011258,0.0026346117,0.002640811,0.0025522562,0.0,0.0,2.1023426,0.3003916,0.0
104632376,0.103438266,0.10036801,0.21304667,0.30748475,0.3073113,0.0,0.0,0.0,0.0,0.0,0.0,0.0,nan,nan,nan,nan,nan,nan,0.0,12.402627,0.0,0.0,nan,0.0,0.0,0.09011258,0.0026475554,0.0026478409,0.002563093,0.0,0.0,2.1049826,0.30037096,0.0
104832396,0.104348294,0.1005097,0.21305272,0.30866605,0.30843973,0.0,0.0,0.0,0.0,0.0,0.0,0.0,nan,nan,nan,nan,nan,nan,0.0,12.402497,0.0,0.0,nan,0.0,0.0,0.09011258,0.002662566,0.0026615527,0.0025751032,0.0,0.0,2.1072958,0.30032128,0.0
105032400,0.10490601,0.10046761,0.21305978,0.30881122,0.3085185,0.0,0.0,0.0,0.0,0.0,0.0,0.0,nan,nan,nan,nan,nan,nan,0.0,12.404955,0.0,0.0,nan,0.0,0.0,0.09011258,0.002677252,0.0026791359,0.0025894346,0.0,0.0,2.110154,0.30029872,0.0
105232402,0.105334766,0.10034127,0.2131464,0.31000757,0.3096384,0.0,0.0,0.0,0.0,0.0,0.0,0.0,nan,nan,nan,nan,nan,nan,0.0,12.402114,0.0,0.0,nan,0.0,0.0,0.09011258,0.002694493,0.0027000776,0.002601364,0.0,0.0,2.11255,0.30027336,0.0
105422392,0.105443746,0.100118294,0.21317488,0.31014562,0.30968872,0.0,0.0,0.0,0.0,0.0,0.0,0.0,nan,nan,nan,nan,nan,nan,0.0,12.401978,0.0,0.0,nan,0.0,0.0,0.09011258,0.00270876,0.002721227,0.0026151356,0.0,0.0,2.1147468,0.3002446,0.0
105632377,0.10569385,0.10017885,0.21324891,0.31238338,0.31183335,0.0,0.0,0.0,0.0,0.0,0.0,0.0,nan,nan,nan,nan,nan,nan,0.0,12.402333,0.0,0.0,nan,0.0,0.0,0.09011258,0.0027235958,0.0027398865,0.0026300435,0.0,0.0,2.1167033,0.30018708,0.0
105832397,0.105683126,0.10031137,0.21336572,0.3143914,0.3137759,0.0,0.0,0.0,0.0,0.0,0.0,0.0,nan,nan,nan,nan,nan,nan,0.0,12.401593,0.0,0.0,nan,0.0,0.0,0.09011258,0.00274569,0.0027569903,0.0026380266,0.0,0.0,2.1185915,0.3001651,0.0
107422413,0.10059985,0.10210784,0.21471937,0.32611448,0.32530403,0.0,0.0,0.0,0.0,0.0,0.0,0.0,nan,nan,nan,nan,nan,nan,0.0,12.401203,0.0,0.0,nan,0.0,0.0,0.09011258,0.0030813708,0.0028165241,0.002585237,0.0,0.0,2.1144676,0.30008036,0.0
107632462,0.100184076,0.10251405,0.21507242,0.32716817,0.32647464,0.0,0.0,0.0,0.0,0.0,0.0,0.0,nan,nan,nan,nan,nan,nan,0.0,12.401604,0.0,0.0,nan,0.0,0.0,0.09011258,0.0031257318,0.0028129634,0.0025756173,0.0,0.0,2.1132786,0.30008075,0.0
107832365,0.09996883,0.102792375,0.21539895,0.3271255,0.3265802,0.0,0.0,0.0,0.0,0.0,0.0,0.0,nan,nan,nan,nan,nan,nan,0.0,12.40409,0.0,0.0,nan,0.0,0.0,0.09011258,0.003174156,0.0028086584,0.0025639485,0.0,0.0,2.1132317,0.30008268,0.0
108032396,0.09999123,0.10299659,0.2157406,0.32706946,0.32669237,0.0,0.0,0.0,0.0,0.0,0.0,0.0,nan,nan,nan,nan,nan,nan,0.0,12.400831,0.0,0.0,nan,0.0,0.0,0.09011258,0.0032257107,0.00280373,0.0025537016,0.0,0.0,2.1143744,0.30008462,0.0
108232352,0.10020376,0.10306782,0.21592183,0.32592517,0.32572874,0.0,0.0,0.0,0.0,0.0,0.0,0.0,nan,nan,nan,nan,nan,nan,0.0,12.4012785,0.0,0.0,nan,0.0,0.0,0.09011258,0.003275652,0.0027990325,0.0025428105,0.0,0.0,2.1148643,0.30008605,0.0
108432398,0.10037111,0.10281977,0.21587195,0.32456315,0.3245312,0.0,0.0,0.0,0.0,0.0,0.0,0.0,nan,nan,nan,nan,nan,nan,0.0,12.401248,0.0,0.0,nan,0.0,0.0,0.09011258,0.0033153633,0.002794904,0.0025356922,0.0,0.0,2.1156216,0.3000903,0.0
108632400,0.101042666,0.10289822,0.21588928,0.32451358,0.32464728,0.0,0.0,0.0,0.0,0.0,0.0,0.0,nan,nan,nan,nan,nan,nan,0.0,12.400558,0.0,0.0,nan,0.0,0.0,0.09011258,0.003350096,0.0027921319,0.00253163,0.0,0.0,2.1160994,0.3000929,0.0
108832391,0.10196646,0.10315336,0.21578024,0.3234029,0.32367596,0.0,0.0,0.0,0.0,0.0,0.0,0.0,nan,nan,nan,nan,nan,nan,0.0,12.401029,0.0,0.0,nan,0.0,0.0,0.09011258,0.003377492,0.0027883404,0.0025308535,0.0,0.0,2.1167083,0.30009806,0.0
109032400,0.10268309,0.10334784,0.21568121,0.32360587,0.32400656,0.0,0.0,0.0,0.0,0.0,0.0,0.0,nan,nan,nan,nan,nan,nan,0.0,12.404705,0.0,0.0,nan,0.0,0.0,0.09011258,0.0033883604,0.0027850321,0.002531939,0.0,0.0,2.1175823,0.3001037,0.0
109232446,0.10254976,0.102910206,0.2153837,0.3233655,0.32382864,0.0,0.0,0.0,0.0,0.0,0.0,0.0,nan,nan,nan,nan,nan,nan,0.0,12.401722,0.0,0.0,nan,0.0,0.0,0.09011258,0.003382696,0.0027865479,0.0025327676,0.0,0.0,2.117428,0.3001172,0.0
109422347,0.10264244,0.10277918,0.21507308,0.32337537,0.32389468,0.0,0.0,0.0,0.0,0.0,0.0,0.0,nan,nan,nan,nan,nan,nan,0.0,12.401621,0.0,0.0,nan,0.0,0.0,0.09011258,0.0033741673,0.0027929607,0.00253213,0.0,0.0,2.1178043,0.30012357,0.0
109632396,0.10256937,0.102656335,0.2147731,0.32339597,0.323944,0.0,0.0,0.0,0.0,0.0,0.0,0.0,nan,nan,nan,nan,nan,nan,0.0,12.40137,0.0,0.0,nan,0.0,0.0,0.09011258,0.003355868,0.0028011764,0.0025327206,0.0,0.0,2.1183138,0.30013672,0.0
109832396,0.10248453,0.102723986,0.2143851,0.32234275,0.32289475,0.0,0.0,0.0,0.0,0.0,0.0,0.0,nan,nan,nan,nan,nan,nan,0.0,12.401255,0.0,0.0,nan,0.0,0.0,0.09011258,0.0033379053,0.0028139094,0.0025356463,0.0,0.0,2.1193476,0.30014402,0.0
110032402,0.1023,0.10292862,0.2139963,0.32237098,0.3229018,0.0,0.0,0.0,0.0,0.0,0.0,0.0,nan,nan,nan,nan,nan,nan,0.0,12.4016285,0.0,0.0,nan,0.0,0.0,0.09011258,0.003331453,0.0028267414,0.0025420343,0.0,0.0,2.1195114,0.300145,0.0
110232399,0.10156444,0.10266062,0.21365488,0.3237222,0.32421908,0.0,0.0,0.0,0.0,0.0,0.0,0.0,nan,nan,nan,nan,nan,nan,0.0,12.401484,0.0,0.0,nan,0.0,0.0,0.09011258,0.0033311837,0.0028365867,0.0025479775,0.0,0.0,2.1204915,0.30014578,0.0
110432359,0.10097789,0.10248923,0.2133954,0.32242236,0.32287082,0.0,0.0,0.0,0.0,0.0,0.0,0.0,nan,nan,nan,nan,nan,nan,0.0,12.401218,0.0,0.0,nan,0.0,0.0,0.09011258,0.0033336668,0.0028373005,0.002549176,0.0,0.0,2.1212816,0.30014065,0.0
110632375,0.10089333,0.10299421,0.21319722,0.32242367,0.32283163,0.0,0.0,0.0,0.0,0.0,0.0,0.0,nan,nan,nan,nan,nan,nan,0.0,12.401532,0.0,0.0,nan,0.0,0.0,0.09011258,0.003324852,0.0028373187,0.002548826,0.0,0.0,2.1222425,0.30014026,0.0
110832376,0.10082969,0.10351844,0.21306115,0.32352152,0.3238931,0.0,0.0,0.0,0.0,0.0,0.0,0.0,nan,nan,nan,nan,nan,nan,0.0,12.401338,0.0,0.0,nan,0.0,0.0,0.09011258,0.0033078357,0.0028422317,0.002549476,0.0,0.0,2.1232235,0.30014005,0.0
111032372,0.10056981,0.10361798,0.21302801,0.32355434,0.3239018,0.0,0.0,0.0,0.0,0.0,0.0,0.0,nan,nan,nan,nan,nan,nan,0.0,12.400563,0.0,0.0,nan,0.0,0.0,0.09011258,0.003282947,0.0028405746,0.0025435563,0.0,0.0,2.123588,0.30015,0.0
111232381,0.10040535,0.10365741,0.21299428,0.32357696,0.32391635,0.0,0.0,0.0,0.0,0.0,0.0,0.0,nan,nan,nan,nan,nan,nan,0.0,12.400858,0.0,0.0,nan,0.0,0.0,0.09011258,0.003252723,0.002838168,0.0025377986,0.0,0.0,2.1238537,0.30015388,0.0
111432383,0.10007699,0.10335875,0.21299258,0.32468158,0.32502833,0.0,0.0,0.0,0.0,0.0,0.0,0.0,nan,nan,nan,nan,nan,nan,0.0,12.400681,0.0,0.0,nan,0.0,0.0,0.09011258,0.003214534,0.0028377576,0.0025338791,0.0,0.0,2.1247096,0.30016053,0.0
111632366,0.09958347,0.10285113,0.21306112,0.32600018,0.32638085,0.0,0.0,0.0,0.0,0.0,0.0,0.0,nan,nan,nan,nan,nan,nan,0.0,12.403482,0.0,0.0,nan,0.0,0.0,0.09011258,0.0031827549,0.002837539,0.0025321743,0.0,0.0,2.1251228,0.30017263,0.0
111832410,0.09922461,0.10240093,0.21312106,0.32683966,0.32723692,0.0,0.0,0.0,0.0,0.0,0.0,0.0,nan,nan,nan,nan,nan,nan,0.0,12.400267,0.0,0.0,nan,0.0,0.0,0.09011258,0.003166089,0.0028342137,0.0025318118,0.0,0.0,2.1254911,0.30017182,0.0
112032355,0.09899082,0.102069974,0.21322598,0.32813597,0.32859078,0.0,0.0,0.0,0.0,0.0,0.0,0.0,nan,nan,nan,nan,nan,nan,0.0,12.401094,0.0,0.0,nan,0.0,0.0,0.09011258,0.003158438,0.0028264478,0.0025334244,0.0,0.0,2.125906,0.30016816,0.0
112232400,0.09883846,0.10165638,0.21327803,0.3291822,0.32968274,0.0,0.0,0.0,0.0,0.0,0.0,0.0,nan,nan,nan,nan,nan,nan,0.0,12.403423,0.0,0.0,nan,0.0,0.0,0.09011258,0.0031595705,0.0028177947,0.0025385537,0.0,0.0,2.125924,0.30015558,0.0
112432410,0.09868144,0.101141445,0.21337774,0.32914567,0.3296922,0.0,0.0,0.0,0.0,0.0,0.0,0.0,nan,nan,nan,nan,nan,nan,0.0,12.400236,0.0,0.0,nan,0.0,0.0,0.09011258,0.0031604334,0.002808972,0.0025531305,0.0,0.0,2.125734,0.30015567,0.0
112632399,0.098427355,0.10054404,0.21343815,0.3291038,0.3296909,0.0,0.0,0.0,0.0,0.0,0.0,0.0,nan,nan,nan,nan,nan,nan,0.0,12.40062,0.0,0.0,nan,0.0,0.0,0.09011258,0.003162219,0.0028049855,0.002576361,0.0,0.0,2.1260579,0.30014634,0.0
112832381,0.09820835,0.099983394,0.21349017,0.33013758,0.33076087,0.0,0.0,0.0,0.0,0.0,0.0,0.0,nan,nan,nan,nan,nan,nan,0.0,12.400533,0.0,0.0,nan,0.0,0.0,0.09011258,0.003172686,0.0028050393,0.0025996154,0.0,0.0,2.125948,0.30013654,0.0
113032396,0.098107904,0.09945434,0.21349329,0.3300754,0.3307277,0.0,0.0,0.0,0.0,0.0,0.0,0.0,nan,nan,nan,nan,nan,nan,0.0,12.402915,0.0,0.0,nan,0.0,0.0,0.09011258,0.0031910604,0.0028086377,0.0026274093,0.0,0.0,2.1260417,0.30011716,0.0
113232396,0.09803054,0.09902114,0.2135434,0.33220556,0.33286595,0.0,0.0,0.0,0.0,0.0,0.0,0.0,nan,nan,nan,nan,nan,nan,0.0,12.400285,0.0,0.0,nan,0.0,0.0,0.09011258,0.0032122,0.0028145942,0.002653124,0.0,0.0,2.1255236,0.30011094,0.0
113432396,0.09792375,0.09864383,0.2135456,0.3332579,0.33391413,0.0,0.0,0.0,0.0,0.0,0.0,0.0,nan,nan,nan,nan,nan,nan,0.0,12.40023,0.0,0.0,nan,0.0,0.0,0.09011258,0.0032399015,0.0028227558,0.0026774865,0.0,0.0,2.1254785,0.30010203,0.0
113632380,0.09792527,0.09837523,0.21354283,0.3343115,0.33495444,0.0,0.0,0.0,0.0,0.0,0.0,0.0,nan,nan,nan,nan,nan,nan,0.0,12.400544,0.0,0.0,nan,0.0,0.0,0.09011258,0.0032905906,0.0028312264,0.0026948457,0.0,0.0,2.1249852,0.30009103,0.0
113832382,0.09802039,0.098371185,0.21350104,0.3353769,0.33597785,0.0,0.0,0.0,0.0,0.0,0.0,0.0,nan,nan,nan,nan,nan,nan,0.0,12.400465,0.0,0.0,nan,0.0,0.0,0.09011258,0.0033417644,0.0028315561,0.0026867578,0.0,0.0,2.1250608,0.3000813,0.0
114032396,0.09815413,0.09856876,0.21348603,0.33625793,0.33678895,0.0,0.0,0.0,0.0,0.0,0.0,0.0,nan,nan,nan,nan,nan,nan,0.0,12.400873,0.0,0.0,nan,0.0,0.0,0.09011258,0.0033883613,0.0028196704,0.0026550547,0.0,0.0,2.1249676,0.3000842,0.0
114232381,0.09848141,0.09900952,0.21363139,0.3373725,0.33782676,0.0,0.0,0.0,0.0,0.0,0.0,0.0,nan,nan,nan,nan,nan,nan,0.0,12.400196,0.0,0.0,nan,0.0,0.0,0.09011258,0.0034373035,0.0028011438,0.002622829,0.0,0.0,2.125125,0.30008662,0.0
114432396,0.098986425,0.09958723,0.21378493,0.33962235,0.33999866,0.0,0.0,0.0,0.0,0.0,0.0,0.0,nan,nan,nan,nan,nan,nan,0.0,12.400122,0.0,0.0,nan,0.0,0.0,0.09011258,0.0034898287,0.0027846454,0.002601611,0.0,0.0,2.1253834,0.30008772,0.0
114632362,0.09965316,0.10020545,0.21402161,0.34100068,0.3413063,0.0,0.0,0.0,0.0,0.0,0.0,0.0,nan,nan,nan,nan,nan,nan,0.0,12.400549,0.0,0.0,nan,0.0,0.0,0.09011258,0.0035390477,0.0027635337,0.0025800401,0.0,0.0,2.1259506,0.30009085,0.0
114832396,0.10058958,0.10091065,0.21428767,0.3421814,0.3424319,0.0,0.0,0.0,0.0,0.0,0.0,0.0,nan,nan,nan,nan,nan,nan,0.0,12.40051,0.0,0.0,nan,0.0,0.0,0.09011258,0.0035861025,0.0027470577,0.0025660216,0.0,0.0,2.1260324,0.30009186,0.0
115032389,0.10143052,0.1012696,0.21458104,0.3422861,0.3424893,0.0,0.0,0.0,0.0,0.0,0.0,0.0,nan,nan,nan,nan,nan,nan,0.0,12.400841,0.0,0.0,nan,0.0,0.0,0.09011258,0.00362811,0.002731777,0.002555441,0.0,0.0,2.1264837,0.30009225,0.0
115232396,0.10258451,0.10142694,0.21486247,0.34464398,0.34480625,0.0,0.0,0.0,0.0,0.0,0.0,0.0,nan,nan,nan,nan,nan,nan,0.0,12.400824,0.0,0.0,nan,0.0,0.0,0.09011258,0.0036689145,0.0027179522,0.0025486732,0.0,0.0,2.1270168,0.30009905,0.0
115432387,0.10322657,0.1012221,0.21506661,0.34483075,0.3449393,0.0,0.0,0.0,0.0,0.0,0.0,0.0,nan,nan,nan,nan,nan,nan,0.0,12.403415,0.0,0.0,nan,0.0,0.0,0.09011258,0.0036973867,0.002700017,0.00254343,0.0,0.0,2.1268137,0.30010694,0.0
115632386,0.10331601,0.100883245,0.21526249,0.34390062,0.34394407,0.0,0.0,0.0,0.0,0.0,0.0,0.0,nan,nan,nan,nan,nan,nan,0.0,12.4007,0.0,0.0,nan,0.0,0.0,0.09011258,0.0037238998,0.0026867467,0.002542061,0.0,0.0,2.1264777,0.30011153,0.0
115832401,0.10343574,0.100809015,0.21542612,0.34295204,0.34292078,0.0,0.0,0.0,0.0,0.0,0.0,0.0,nan,nan,nan,nan,nan,nan,0.0,12.400745,0.0,0.0,nan,0.0,0.0,0.09011258,0.0037434932,0.0026778483,0.0025426676,0.0,0.0,2.1259527,0.3001157,0.0
116032408,0.10318605,0.10065821,0.21553434,0.34311068,0.3429951,0.0,0.0,0.0,0.0,0.0,0.0,0.0,nan,nan,nan,nan,nan,nan,0.0,12.401328,0.0,0.0,nan,0.0,0.0,0.09011258,0.003755082,0.002673429,0.002543699,0.0,0.0,2.126063,0.30012396,0.0
116232364,0.10284196,0.10057444,0.21561337,0.3410235,0.3408223,0.0,0.0,0.0,0.0,0.0,0.0,0.0,nan,nan,nan,nan,nan,nan,0.0,12.404117,0.0,0.0,nan,0.0,0.0,0.09011258,0.003763941,0.002669647,0.0025448708,0.0,0.0,2.125497,0.30013335,0.0
116432383,0.10225858,0.10037483,0.21564497,0.338672,0.33840412,0.0,0.0,0.0,0.0,0.0,0.0,0.0,nan,nan,nan,nan,nan,nan,0.0,12.400781,0.0,0.0,nan,0.0,0.0,0.09011258,0.003769749,0.0026632706,0.0025451009,0.0,0.0,2.1252527,0.30013818,0.0
116632393,0.10180781,0.10033837,0.21565904,0.33654484,0.33620214,0.0,0.0,0.0,0.0,0.0,0.0,0.0,nan,nan,nan,nan,nan,nan,0.0,12.401914,0.0,0.0,nan,0.0,0.0,0.09011258,0.0037745954,0.0026604612,0.002546053,0.0,0.0,2.1248934,0.30014238,0.0
116832357,0.101460315,0.10042677,0.21571364,0.33438092,0.33397707,0.0,0.0,0.0,0.0,0.0,0.0,0.0,nan,nan,nan,nan,nan,nan,0.0,12.401771,0.0,0.0,nan,0.0,0.0,0.09011258,0.0037787422,0.0026541562,0.0025464427,0.0,0.0,2.1245077,0.30015025,0.0
117022398,0.10107249,0.100503735,0.2156431,0.33329093,0.33284086,0.0,0.0,0.0,0.0,0.0,0.0,0.0,nan,nan,nan,nan,nan,nan,0.0,12.402336,0.0,0.0,nan,0.0,0.0,0.09011258,0.003779496,0.002645382,0.0025449584,0.0,0.0,2.1247735,0.30015984,0.0
117232460,0.10075965,0.10064152,0.21555768,0.33131492,0.33082518,0.0,0.0,0.0,0.0,0.0,0.0,0.0,nan,nan,nan,nan,nan,nan,0.0,12.405213,0.0,0.0,nan,0.0,0.0,0.09011258,0.0037780558,0.002640163,0.0025432021,0.0,0.0,2.1246448,0.30016005,0.0
117432399,0.10040179,0.10061841,0.21542566,0.3290495,0.3285583,0.0,0.0,0.0,0.0,0.0,0.0,0.0,nan,nan,nan,nan,nan,nan,0.0,12.402182,0.0,0.0,nan,0.0,0.0,0.09011258,0.003774462,0.002638054,0.0025412464,0.0,0.0,2.124346,0.3001577,0.0
117632396,0.10000659,0.10040507,0.21522117,0.32677138,0.32629958,0.0,0.0,0.0,0.0,0.0,0.0,0.0,nan,nan,nan,nan,nan,nan,0.0,12.402203,0.0,0.0,nan,0.0,0.0,0.09011258,0.0037692408,0.0026393014,0.0025396126,0.0,0.0,2.1242678,0.30016366,0.0
117832386,0.09957228,0.100025,0.21502136,0.3255559,0.32511938,0.0,0.0,0.0,0.0,0.0,0.0,0.0,nan,nan,nan,nan,nan,nan,0.0,12.402739,0.0,0.0,nan,0.0,0.0,0.09011258,0.003763463,0.0026392548,0.0025377038,0.0,0.0,2.1242187,0.30016282,0.0
119232392,0.09891927,0.09869865,0.21415186,0.31572857,0.31563276,0.0,0.0,0.0,0.0,0.0,0.0,0.0,nan,nan,nan,nan,nan,nan,0.0,12.40536,0.0,0.0,nan,0.0,0.0,0.09011258,0.0037283523,0.0026363672,0.0025301494,0.0,0.0,2.125425,0.30015156,0.0
119432396,0.09912091,0.0987207,0.21411814,0.31451625,0.31444898,0.0,0.0,0.0,0.0,0.0,0.0,0.0,nan,nan,nan,nan,nan,nan,0.0,12.402309,0.0,0.0,nan,0.0,0.0,0.09011258,0.003727666,0.0026364843,0.002529968,0.0,0.0,2.125845,0.30014983,0.0
119632390,0.09928292,0.09870109,0.21403138,0.3133263,0.31327736,0.0,0.0,0.0,0.0,0.0,0.0,0.0,nan,nan,nan,nan,nan,nan,0.0,12.402236,0.0,0.0,nan,0.0,0.0,0.09011258,0.0037271546,0.0026371507,0.0025297748,0.0,0.0,2.1259172,0.30014846,0.0
119832359,0.09937314,0.0986284,0.2139123,0.3119521,0.311911,0.0,0.0,0.0,0.0,0.0,0.0,0.0,nan,nan,nan,nan,nan,nan,0.0,12.405433,0.0,0.0,nan,0.0,0.0,0.09011258,0.0037259588,0.0026373807,0.002529644,0.0,0.0,2.1261349,0.3001462,0.0
120032379,0.099665955,0.09873764,0.21394472,0.3110222,0.3109778,0.0,0.0,0.0,0.0,0.0,0.0,0.0,nan,nan,nan,nan,nan,nan,0.0,12.402389,0.0,0.0,nan,0.0,0.0,0.09011258,0.0037276284,0.0026360818,0.0025297354,0.0,0.0,2.126489,0.30014497,0.0
120232399,0.09985442,0.098782435,0.21388659,0.30988362,0.3098269,0.0,0.0,0.0,0.0,0.0,0.0,0.0,nan,nan,nan,nan,nan,nan,0.0,12.402285,0.0,0.0,nan,0.0,0.0,0.09011258,0.0037293278,0.002633875,0.0025298551,0.0,0.0,2.1267626,0.30014384,0.0
120432400,0.09997691,0.09881018,0.21384093,0.30876234,0.30868515,0.0,0.0,0.0,0.0,0.0,0.0,0.0,nan,nan,nan,nan,nan,nan,0.0,12.402696,0.0,0.0,nan,0.0,0.0,0.09011258,0.0037319702,0.0026305309,0.00253019,0.0,0.0,2.1268785,0.30014837,0.0
120632377,0.10007401,0.098867305,0.21382174,0.307447,0.307348,0.0,0.0,0.0,0.0,0.0,0.0,0.0,nan,nan,nan,nan,nan,nan,0.0,12.401931,0.0,0.0,nan,0.0,0.0,0.09011258,0.0037340666,0.0026290102,0.0025306477,0.0,0.0,2.127358,0.3001497,0.0
120832392,0.10017578,0.09895827,0.21379472,0.3063792,0.30624896,0.0,0.0,0.0,0.0,0.0,0.0,0.0,nan,nan,nan,nan,nan,nan,0.0,12.402363,0.0,0.0,nan,0.0,0.0,0.09011258,0.0037318168,0.0026287094,0.002530746,0.0,0.0,2.1275103,0.30015105,0.0
121032356,0.100128524,0.09890453,0.21377201,0.30637586,0.30621272,0.0,0.0,0.0,0.0,0.0,0.0,0.0,nan,nan,nan,nan,nan,nan,0.0,12.40229,0.0,0.0,nan,0.0,0.0,0.09011258,0.0037250395,0.0026286906,0.0025307047,0.0,0.0,2.1277118,0.3001529,0.0
121232396,0.09997386,0.098730646,0.21381368,0.30532867,0.3051315,0.0,0.0,0.0,0.0,0.0,0.0,0.0,nan,nan,nan,nan,nan,nan,0.0,12.402064,0.0,0.0,nan,0.0,0.0,0.09011258,0.0037175624,0.002628859,0.0025309464,0.0,0.0,2.1275444,0.30015504,0.0
121432379,0.09980399,0.098571956,0.21384273,0.30553257,0.30529186,0.0,0.0,0.0,0.0,0.0,0.0,0.0,nan,nan,nan,nan,nan,nan,0.0,12.4024935,0.0,0.0,nan,0.0,0.0,0.09011258,0.0037100841,0.0026286358,0.0025314582,0.0,0.0,2.1272814,0.3001522,0.0
121632399,0.09947124,0.09834628,0.21378785,0.30528143,0.3050161,0.0,0.0,0.0,0.0,0.0,0.0,0.0,nan,nan,nan,nan,nan,nan,0.0,12.402428,0.0,0.0,nan,0.0,0.0,0.09011258,0.0037035968,0.0026310608,0.0025325306,0.0,0.0,2.1273212,0.30014294,0.0
121832399,0.099259526,0.0983048,0.21377325,0.30526236,0.30496404,0.0,0.0,0.0,0.0,0.0,0.0,0.0,nan,nan,nan,nan,nan,nan,0.0,12.405059,0.0,0.0,nan,0.0,0.0,0.09011258,0.0037052548,0.0026388958,0.0025334249,0.0,0.0,2.126722,0.30013826,0.0
122032409,0.09930314,0.0986381,0.21384911,0.30649033,0.3061554,0.0,0.0,0.0,0.0,0.0,0.0,0.0,nan,nan,nan,nan,nan,nan,0.0,12.402148,0.0,0.0,nan,0.0,0.0,0.09011258,0.0037216053,0.0026456562,0.0025338111,0.0,0.0,2.1267622,0.3001368,0.0
122232400,0.09949465,0.09913634,0.21382597,0.30645812,0.30611262,0.0,0.0,0.0,0.0,0.0,0.0,0.0,nan,nan,nan,nan,nan,nan,0.0,12.402098,0.0,0.0,nan,0.0,0.0,0.09011258,0.0037402576,0.0026529073,0.002536778,0.0,0.0,2.1273744,0.30013442,0.0
122432396,0.09968431,0.09950906,0.21376826,0.30728456,0.30695334,0.0,0.0,0.0,0.0,0.0,0.0,0.0,nan,nan,nan,nan,nan,nan,0.0,12.402568,0.0,0.0,nan,0.0,0.0,0.09011258,0.003754771,0.0026531287,0.0025406075,0.0,0.0,2.1271882,0.3001351,0.0
122632396,0.1000315,0.09991465,0.21381645,0.3073136,0.30700618,0.0,0.0,0.0,0.0,0.0,0.0,0.0,nan,nan,nan,nan,nan,nan,0.0,12.401851,0.0,0.0,nan,0.0,0.0,0.09011258,0.003761199,0.0026516798,0.002544089,0.0,0.0,2.1273875,0.30013648,0.0
122832372,0.10038309,0.10024215,0.21384627,0.3075651,0.30729172,0.0,0.0,0.0,0.0,0.0,0.0,0.0,nan,nan,nan,nan,nan,nan,0.0,12.402318,0.0,0.0,nan,0.0,0.0,0.09011258,0.0037583187,0.0026467831,0.0025442163,0.0,0.0,2.1276085,0.3001407,0.0
123032371,0.10052448,0.10035504,0.21382815,0.30758062,0.30734533,0.0,0.0,0.0,0.0,0.0,0.0,0.0,nan,nan,nan,nan,nan,nan,0.0,12.402766,0.0,0.0,nan,0.0,0.0,0.09011258,0.0037500588,0.0026486977,0.0025449414,0.0,0.0,2.1277647,0.3001425,0.0
123232396,0.10053103,0.10033651,0.2138111,0.3076145,0.30741572,0.0,0.0,0.0,0.0,0.0,0.0,0.0,nan,nan,nan,nan,nan,nan,0.0,12.405402,0.0,0.0,nan,0.0,0.0,0.09011258,0.0037381034,0.0026607956,0.0025482844,0.0,0.0,2.128132,0.3001422,0.0
123432358,0.10045815,0.100226894,0.21382014,0.30637205,0.30620378,0.0,0.0,0.0,0.0,0.0,0.0,0.0,nan,nan,nan,nan,nan,nan,0.0,12.402486,0.0,0.0,nan,0.0,0.0,0.09011258,0.0037218654,0.002671933,0.0025506553,0.0,0.0,2.127917,0.30014297,0.0
123632356,0.10058136,0.10026683,0.21382907,0.3064112,0.30626953,0.0,0.0,0.0,0.0,0.0,0.0,0.0,nan,nan,nan,nan,nan,nan,0.0,12.402429,0.0,0.0,nan,0.0,0.0,0.09011258,0.003705357,0.0026823173,0.0025522413,0.0,0.0,2.1281896,0.30014485,0.0
123832384,0.10004894,0.09973723,0.21380463,0.3054096,0.30529264,0.0,0.0,0.0,0.0,0.0,0.0,0.0,nan,nan,nan,nan,nan,nan,0.0,12.405054,0.0,0.0,nan,0.0,0.0,0.09011258,0.003688404,0.0026949144,0.0025526325,0.0,0.0,2.128048,0.30014563,0.0
124032396,0.10003054,0.099606395,0.2139093,0.30457842,0.30447903,0.0,0.0,0.0,0.0,0.0,0.0,0.0,nan,nan,nan,nan,nan,nan,0.0,12.402161,0.0,0.0,nan,0.0,0.0,0.09011258,0.0036782909,0.0027142598,0.0025602586,0.0,0.0,2.127925,0.30014127,0.0
124232385,0.09988668,0.09933417,0.21386608,0.30432624,0.304241,0.0,0.0,0.0,0.0,0.0,0.0,0.0,nan,nan,nan,nan,nan,nan,0.0,12.402115,0.0,0.0,nan,0.0,0.0,0.09011258,0.00367328,0.0027284266,0.0025672016,0.0,0.0,2.128125,0.30013922,0.0
124432399,0.10000778,0.09924332,0.21393825,0.3043121,0.30423573,0.0,0.0,0.0,0.0,0.0,0.0,0.0,nan,nan,nan,nan,nan,nan,0.0,12.402412,0.0,0.0,nan,0.0,0.0,0.09011258,0.0036720224,0.0027389154,0.002574037,0.0,0.0,2.1283934,0.30013907,0.0
124632396,0.09972115,0.0989214,0.21389721,0.30430314,0.30422884,0.0,0.0,0.0,0.0,0.0,0.0,0.0,nan,nan,nan,nan,nan,nan,0.0,12.402345,0.0,0.0,nan,0.0,0.0,0.09011258,0.0036683774,0.002743125,0.002574413,0.0,0.0,2.128237,0.3001388,0.0
124832364,0.099544905,0.098755196,0.21389362,0.30553702,0.30545628,0.0,0.0,0.0,0.0,0.0,0.0,0.0,nan,nan,nan,nan,nan,nan,0.0,12.402786,0.0,0.0,nan,0.0,0.0,0.09011258,0.0036501165,0.0027340997,0.0025634025,0.0,0.0,2.1283014,0.30014664,0.0
125032380,0.099807344,0.098885186,0.21391462,0.30549073,0.30540094,0.0,0.0,0.0,0.0,0.0,0.0,0.0,nan,nan,nan,nan,nan,nan,0.0,12.40272,0.0,0.0,nan,0.0,0.0,0.09011258,0.0036178937,0.002738609,0.0025572055,0.0,0.0,2.1284583,0.3001505,0.0
125232354,0.09950656,0.09862955,0.2139082,0.3063121,0.3062105,0.0,0.0,0.0,0.0,0.0,0.0,0.0,nan,nan,nan,nan,nan,nan,0.0,12.401987,0.0,0.0,nan,0.0,0.0,0.09011258,0.003582872,0.0027537956,0.0025567375,0.0,0.0,2.1281383,0.30015004,0.0
125432461,0.09923632,0.09838819,0.21392514,0.30652666,0.3064034,0.0,0.0,0.0,0.0,0.0,0.0,0.0,nan,nan,nan,nan,nan,nan,0.0,12.402437,0.0,0.0,nan,0.0,0.0,0.09011258,0.003548147,0.0027741874,0.0025611324,0.0,0.0,2.1282856,0.30014902,0.0
125632357,0.09890219,0.09805898,0.2138974,0.3064936,0.3063509,0.0,0.0,0.0,0.0,0.0,0.0,0.0,nan,nan,nan,nan,nan,nan,0.0,12.402383,0.0,0.0,nan,0.0,0.0,0.09011258,0.003515186,0.0027954853,0.0025682016,0.0,0.0,2.1276844,0.3001442,0.0
125832405,0.09894578,0.09799392,0.21391045,0.30538332,0.30522186,0.0,0.0,0.0,0.0,0.0,0.0,0.0,nan,nan,nan,nan,nan,nan,0.0,12.40556,0.0,0.0,nan,0.0,0.0,0.09011258,0.0034856736,0.0028069003,0.0025707975,0.0,0.0,2.1279502,0.300146,0.0
126022344,0.099637315,0.098348126,0.21407543,0.30530864,0.30512735,0.0,0.0,0.0,0.0,0.0,0.0,0.0,nan,nan,nan,nan,nan,nan,0.0,12.40311,0.0,0.0,nan,0.0,0.0,0.09011258,0.0034601495,0.0028192215,0.0025781223,0.0,0.0,2.1286879,0.300146,0.0
126232391,0.100201055,0.09870263,0.21417254,0.30528554,0.30507192,0.0,0.0,0.0,0.0,0.0,0.0,0.0,nan,nan,nan,nan,nan,nan,0.0,12.4063,0.0,0.0,nan,0.0,0.0,0.09011258,0.0034397475,0.0028202871,0.0025764138,0.0,0.0,2.1295736,0.30014622,0.0
126422435,0.10089611,0.09928145,0.21435659,0.30423856,0.30398744,0.0,0.0,0.0,0.0,0.0,0.0,0.0,nan,nan,nan,nan,nan,nan,0.0,12.402767,0.0,0.0,nan,0.0,0.0,0.09011258,0.0034192265,0.0028206115,0.002573614,0.0,0.0,2.1300387,0.30015242,0.0
126632398,0.100964375,0.099551365,0.21439151,0.30323192,0.30293825,0.0,0.0,0.0,0.0,0.0,0.0,0.0,nan,nan,nan,nan,nan,nan,0.0,12.40322,0.0,0.0,nan,0.0,0.0,0.09011258,0.0033965257,0.0028170566,0.0025639823,0.0,0.0,2.1304915,0.300156,0.0
126832399,0.100628056,0.099526964,0.21435697,0.30222765,0.30189753,0.0,0.0,0.0,0.0,0.0,0.0,0.0,nan,nan,nan,nan,nan,nan,0.0,12.403162,0.0,0.0,nan,0.0,0.0,0.09011258,0.0033733307,0.0028172247,0.0025562579,0.0,0.0,2.1306872,0.30015886,0.0
127032397,0.09997852,0.099166974,0.21427777,0.3022538,0.3018988,0.0,0.0,0.0,0.0,0.0,0.0,0.0,nan,nan,nan,nan,nan,nan,0.0,12.405876,0.0,0.0,nan,0.0,0.0,0.09011258,0.0033496406,0.0028151292,0.0025473968,0.0,0.0,2.1299539,0.30016312,0.0
127232366,0.09943057,0.098834895,0.21426587,0.30119768,0.30083138,0.0,0.0,0.0,0.0,0.0,0.0,0.0,nan,nan,nan,nan,nan,nan,0.0,12.402883,0.0,0.0,nan,0.0,0.0,0.09011258,0.0033281343,0.002818843,0.002544651,0.0,0.0,2.1294863,0.30016664,0.0
127432397,0.09936854,0.09892718,0.2142516,0.30010787,0.29974306,0.0,0.0,0.0,0.0,0.0,0.0,0.0,nan,nan,nan,nan,nan,nan,0.0,12.403358,0.0,0.0,nan,0.0,0.0,0.09011258,0.0033088224,0.0028243621,0.002544587,0.0,0.0,2.1295204,0.30016792,0.0
127632376,0.099403806,0.09909846,0.214243,0.299009,0.29865485,0.0,0.0,0.0,0.0,0.0,0.0,0.0,nan,nan,nan,nan,nan,nan,0.0,12.406079,0.0,0.0,nan,0.0,0.0,0.09011258,0.003294998,0.0028315983,0.002547518,0.0,0.0,2.1295526,0.30016968,0.0
129032396,0.09843018,0.09838046,0.21404538,0.29647917,0.29628992,0.0,0.0,0.0,0.0,0.0,0.0,0.0,nan,nan,nan,nan,nan,nan,0.0,12.405832,0.0,0.0,nan,0.0,0.0,0.09011258,0.0032748417,0.0028763455,0.0025881815,0.0,0.0,2.1295087,0.3001701,0.0
129232395,0.09846829,0.09843406,0.21409304,0.29743922,0.29727218,0.0,0.0,0.0,0.0,0.0,0.0,0.0,nan,nan,nan,nan,nan,nan,0.0,12.403343,0.0,0.0,nan,0.0,0.0,0.09011258,0.0032439632,0.002884588,0.002589333,0.0,0.0,2.1297462,0.30017364,0.0
