timestamp,ref_timestamp,ref_lat,ref_lon,x,y,z,delta_xy[0],delta_xy[1],delta_z,vx,vy,vz,z_deriv,delta_vxy[0],delta_vxy[1],delta_vz,ax,ay,az,heading,delta_heading,ref_alt,dist_bottom,eph,epv,evh,evv,vxy_max,vz_max,hagl_min,hagl_max,xy_valid,z_valid,v_xy_valid,v_z_valid,xy_reset_counter,z_reset_counter,vxy_reset_counter,vz_reset_counter,heading_reset_counter,xy_global,z_global,dist_bottom_valid
68332411,15337347,49.0896207,2.1103780999999997,-0.57204074,-0.07185874,0.029355379,-0.00034907294,-0.00077115797,0.0,0.014075267,-0.029187933,0.038478978,0.05771398,-0.025729155,-0.029590655,0.0633524,0.00023194571,0.004480527,0.019733643,0.5997185,-0.014364613,86.542885,0.1,0.26409912,0.39285728,0.13408063,0.10646418,inf,inf,inf,inf,1,1,1,1,2,0,2,1,3,1,1,1
68432359,15337347,49.0896207,2.1103780999999997,-0.56699604,-0.07618765,0.033559654,-0.00034907294,-0.00077115797,0.0,0.015410643,-0.028055912,0.039266326,0.056517195,-0.025729155,-0.029590655,0.0633524,-0.0054997858,0.019779865,-0.03235465,0.59968066,-0.014364613,86.542885,0.1,0.25491104,0.39030713,0.12950188,0.10495625,inf,inf,inf,inf,1,1,1,1,2,0,2,1,3,1,1,1
68532431,15337347,49.0896207,2.1103780999999997,-0.56205887,-0.080452554,0.036743518,-0.00034907294,-0.00077115797,0.0,0.016990265,-0.027456101,0.04066364,0.05505977,-0.025729155,-0.029590655,0.0633524,0.012940207,0.0077475035,-0.015195466,0.5996373,-0.014364613,86.542885,0.1,0.26345062,0.39205748,0.1339971,0.10637511,inf,inf,inf,inf,1,1,1,1,2,0,2,1,3,1,1,1
68632396,15337347,49.0896207,2.1103780999999997,-0.55932903,-0.08514383,0.039434798,-0.00034907294,-0.00077115797,0.0,0.016669087,-0.02705581,0.041215237,0.05255379,-0.025729155,-0.029590655,0.0633524,0.006540536,0.0047035757,0.020803258,0.59956765,-0.014364613,86.542885,0.1,0.25427994,0.38952363,0.12941574,0.10487097,inf,inf,inf,inf,1,1,1,1,2,0,2,1,3,1,1,1
68732396,15337347,49.0896207,2.1103780999999997,-0.5583145,-0.090110585,0.04176858,-0.00034907294,-0.00077115797,0.0,0.01644902,-0.028111469,0.042529967,0.05069785,-0.025729155,-0.029590655,0.0633524,0.0038656755,-0.0036629788,0.009667577,0.5995635,-0.014364613,86.542885,0.1,0.26283363,0.39127666,0.13390626,0.10628873,inf,inf,inf,inf,1,1,1,1,2,0,2,1,3,1,1,1
68832358,15337347,49.0896207,2.1103780999999997,-0.55566514,-0.093427576,0.043902695,-0.00034907294,-0.00077115797,0.0,0.016832072,-0.028397372,0.04311705,0.04817111,-0.025729155,-0.029590655,0.0633524,0.0069369897,-0.0006293069,-0.0019716101,0.59967494,-0.014364613,86.542885,0.1,0.25363708,0.3911871,0.12931196,0.10504772,inf,inf,inf,inf,1,1,1,1,2,0,2,1,3,1,1,1
68932396,15337347,49.0896207,2.1103780999999997,-0.55191636,-0.09540761,0.047260016,-0.00034907294,-0.00077115797,0.0,0.01779202,-0.026506934,0.043582752,0.04700452,-0.025729155,-0.029590655,0.0633524,0.014995945,0.009875295,0.0059119,0.5998662,-0.014364613,86.542885,0.1,0.26220202,0.39297572,0.1338034,0.10647454,inf,inf,inf,inf,1,1,1,1,2,0,2,1,3,1,1,1
69032368,15337347,49.0896207,2.1103780999999997,-0.549289,-0.09828465,0.051582534,-0.00034907294,-0.00077115797,0.0,0.017257709,-0.024984727,0.044628944,0.047569755,-0.025729155,-0.029590655,0.0633524,-0.0034059884,0.017357184,0.0038433904,0.600068,-0.014364613,86.542885,0.1,0.25298205,0.39043283,0.12920156,0.104967974,inf,inf,inf,inf,1,1,1,1,2,0,2,1,3,1,1,1
69132399,15337347,49.0896207,2.1103780999999997,-0.547548,-0.101704605,0.05539008,-0.00034907294,-0.00077115797,0.0,0.016370067,-0.023768036,0.04603707,0.047899812,-0.025729155,-0.029590655,0.0633524,0.0057462268,0.01471477,-0.003484237,0.6002532,-0.014364613,86.542885,0.1,0.26155588,0.39221507,0.13369717,0.10639125,inf,inf,inf,inf,1,1,1,1,2,0,2,1,3,1,1,1
69232424,15337347,49.0896207,2.1103780999999997,-0.5453903,-0.10528914,0.057006493,-0.00034907294,-0.00077115797,0.0,0.01612359,-0.023461258,0.046288032,0.044869583,-0.025729155,-0.029590655,0.0633524,-0.015625883,-0.003928493,-0.0018960282,0.60024023,-0.014364613,86.542885,0.1,0.25235403,0.38968647,0.12909913,0.10488789,inf,inf,inf,inf,1,1,1,1,2,0,2,1,3,1,1,1
69332352,15337347,49.0896207,2.1103780999999997,-0.54296154,-0.10896646,0.056650065,-0.00034907294,-0.00077115797,0.0,0.016713576,-0.023625214,0.04460648,0.03855661,-0.025729155,-0.029590655,0.0633524,0.013189127,-0.0029913383,0.015492858,0.60017526,-0.014364613,86.542885,0.1,0.260936,0.39146197,0.13358966,0.106307745,inf,inf,inf,inf,1,1,1,1,2,0,2,1,3,1,1,1
69432397,15337347,49.0896207,2.1103780999999997,-0.5399319,-0.113164574,0.056685172,-0.00034907294,-0.00077115797,0.0,0.018221885,-0.024752969,0.043905605,0.03424125,-0.025729155,-0.029590655,0.0633524,0.012801007,-0.00696351,0.0016783375,0.6002507,-0.014364613,86.542885,0.1,0.25170892,0.38894758,0.12898757,0.104807734,inf,inf,inf,inf,1,1,1,1,2,0,2,1,3,1,1,1
69532358,15337347,49.0896207,2.1103780999999997,-0.53646755,-0.11767061,0.056730095,-0.00034907294,-0.00077115797,0.0,0.020010814,-0.025506057,0.043100923,0.030405948,-0.025729155,-0.029590655,0.0633524,0.0014113911,0.006924423,0.011274417,0.60034454,-0.014364613,86.542885,0.1,0.26029724,0.393182,0.13348407,0.10649504,inf,inf,inf,inf,1,1,1,1,2,0,2,1,3,1,1,1
69632399,15337347,49.0896207,2.1103780999999997,-0.5329654,-0.12216263,0.05821681,-0.00034907294,-0.00077115797,0.0,0.021267153,-0.025273062,0.042039692,0.028158844,-0.025729155,-0.029590655,0.0633524,-0.007226655,0.013278122,-0.0014798329,0.60053074,-0.014364613,86.542885,0.1,0.25108767,0.3906421,0.12888709,0.10498881,inf,inf,inf,inf,1,1,1,1,2,0,2,1,3,1,1,1
69732360,15337347,49.0896207,2.1103780999999997,-0.5296056,-0.12647837,0.059654247,-0.00034907294,-0.00077115797,0.0,0.021100296,-0.024301026,0.041073125,0.026172375,-0.025729155,-0.029590655,0.0633524,-0.0030245476,0.027294079,-0.016957833,0.6006354,-0.014364613,86.542885,0.1,0.2596819,0.39243668,0.13338329,0.10641202,inf,inf,inf,inf,1,1,1,1,2,0,2,1,3,1,1,1
69832394,15337347,49.0896207,2.1103780999999997,-0.5266087,-0.12933877,0.06086952,-0.00034907294,-0.00077115797,0.0,0.021816654,-0.024109917,0.039696943,0.023740929,-0.025729155,-0.029590655,0.0633524,0.049483895,-0.021594921,0.006163472,0.6006878,-0.014364613,86.542885,0.1,0.25044614,0.3899105,0.12878104,0.10490901,inf,inf,inf,inf,1,1,1,1,2,0,2,1,3,1,1,1
69932370,15337347,49.0896207,2.1103780999999997,-0.52378696,-0.13102953,0.061431304,-0.00034907294,-0.00077115797,0.0,0.021497378,-0.017056042,0.041008953,0.023546789,-0.025729155,-0.029590655,0.0633524,-0.04429178,0.08380833,0.02610151,0.6007802,-0.014364613,86.542885,0.1,0.2590448,0.39170578,0.1332828,0.10633094,inf,inf,inf,inf,1,1,1,1,2,0,2,1,3,1,1,1
70032353,15337347,49.0896207,2.1103780999999997,-0.5212194,-0.13224503,0.060841527,-0.00034907294,-0.00077115797,0.0,0.018564155,-0.014966942,0.037685122,0.017544601,-0.025729155,-0.029590655,0.0633524,0.11249547,-0.097199425,-0.10501491,0.5990002,-0.014364613,86.542885,0.1,0.24978615,0.38919267,0.12867838,0.1048311,inf,inf,inf,inf,1,1,1,1,2,0,2,1,3,1,1,1
70132398,15337347,49.0896207,2.1103780999999997,-0.51789635,-0.13447076,0.05823621,-0.00034907294,-0.00077115797,0.0,0.025113665,-0.030089464,0.032612905,0.008906388,-0.025729155,-0.029590655,0.0633524,-0.21537991,0.029881448,0.07701065,0.6011645,-0.014364613,86.542885,0.1,0.25838768,0.39097166,0.1331631,0.10624726,inf,inf,inf,inf,1,1,1,1,2,0,2,1,3,1,1,1
70232397,15337347,49.0896207,2.1103780999999997,-0.51556873,-0.13648763,0.05525273,-0.00034907294,-0.00077115797,0.0,0.019029194,-0.011696075,0.04091341,0.013494338,-0.025729155,-0.029590655,0.0633524,0.58217293,-0.19364002,0.23526934,0.59881985,-0.014364613,86.542885,0.1,0.24910903,0.3908953,0.1285765,0.10501116,inf,inf,inf,inf,1,1,1,1,2,0,2,1,3,1,1,1
70332363,15337347,49.0896207,2.1103780999999997,-0.5114963,-0.13919887,0.05331591,-0.00034907294,-0.00077115797,0.0,0.018916499,-0.022367937,0.03215,0.0020928385,-0.025729155,-0.029590655,0.0633524,-0.48339796,0.23333214,-0.27306274,0.6032102,-0.014364613,86.542885,0.1,0.25771317,0.3927082,0.1330684,0.10643651,inf,inf,inf,inf,1,1,1,1,2,0,2,1,3,1,1,1
70432396,15337347,49.0896207,2.1103780999999997,-0.51012826,-0.14238885,0.049992204,-0.00034907294,-0.00077115797,0.0,0.014543889,-0.01465271,0.034359325,0.0016967994,-0.025729155,-0.029590655,0.0633524,0.115827926,-0.2867336,0.1293857,0.5987851,-0.014364613,86.542885,0.1,0.24845806,0.3901822,0.12843277,0.10493368,inf,inf,inf,inf,1,1,1,1,2,0,2,1,3,1,1,1
70532396,15337347,49.0896207,2.1103780999999997,-0.50840604,-0.14735375,0.047430146,-0.00034907294,-0.00077115797,0.0,0.025289305,-0.021677101,0.021599947,-0.012790137,-0.025729155,-0.029590655,0.0633524,-0.044265777,0.059599157,0.07761558,0.60048556,-0.014364613,86.542885,0.1,0.25706363,0.3919866,0.13299623,0.1063553,inf,inf,inf,inf,1,1,1,1,2,0,2,1,3,1,1,1
70632371,15337347,49.0896207,2.1103780999999997,-0.50655466,-0.15145768,0.045294568,-0.00034907294,-0.00077115797,0.0,0.019357184,-0.0147810895,0.03688452,0.0012080015,-0.025729155,-0.029590655,0.0633524,0.095907025,0.030728584,-0.038201954,0.5996519,-0.014364613,86.542885,0.1,0.24778709,0.38945717,0.12834321,0.10485151,inf,inf,inf,inf,1,1,1,1,2,0,2,1,3,1,1,1
70732373,15337347,49.0896207,2.1103780999999997,-0.50443506,-0.15488318,0.043809146,-0.00034907294,-0.00077115797,0.0,0.024398265,-0.016521245,0.029565705,-0.0064436826,-0.025729155,-0.029590655,0.0633524,-0.029318823,-0.032188166,0.15425935,0.5995584,-0.014364613,86.542885,0.1,0.256395,0.39123616,0.13286753,0.10626553,inf,inf,inf,inf,1,1,1,1,2,0,2,1,3,1,1,1
70832396,15337347,49.0896207,2.1103780999999997,-0.50155646,-0.15747587,0.042734586,-0.00034907294,-0.00077115797,0.0,0.02198902,-0.013590256,0.02877012,-0.007576416,-0.025729155,-0.029590655,0.0633524,0.039987165,-0.057434194,-0.2617433,0.5983616,-0.014364613,86.542885,0.1,0.24714093,0.39114103,0.12825356,0.10502456,inf,inf,inf,inf,1,1,1,1,2,0,2,1,3,1,1,1
70932371,15337347,49.0896207,2.1103780999999997,-0.4980053,-0.15970674,0.040594187,-0.00034907294,-0.00077115797,0.0,0.026147239,-0.018683515,0.026222467,-0.010558339,-0.025729155,-0.029590655,0.0633524,0.019490216,0.044126753,0.172033,0.59840906,-0.014364613,86.542885,0.1,0.25575012,0.3929532,0.13273486,0.10644791,inf,inf,inf,inf,1,1,1,1,2,0,2,1,3,1,1,1
71032396,15337347,49.0896207,2.1103780999999997,-0.49529347,-0.16371198,0.038557675,-0.00034907294,-0.00077115797,0.0,0.028446293,-0.017536413,0.027147476,-0.010311069,-0.025729155,-0.029590655,0.0633524,0.043255754,-0.03975228,0.015263824,0.5986726,-0.014364613,86.542885,0.1,0.24651374,0.39040518,0.1281736,0.104940206,inf,inf,inf,inf,1,1,1,1,2,0,2,1,3,1,1,1
71132401,15337347,49.0896207,2.1103780999999997,-0.49332306,-0.16925935,0.035981,-0.00034907294,-0.00077115797,0.0,0.025825057,-0.02120345,0.022564754,-0.01567722,-0.025729155,-0.029590655,0.0633524,-0.0004962367,0.05579333,-0.057980157,0.5999164,-0.014364613,86.542885,0.1,0.25512528,0.39220828,0.13265392,0.106360294,inf,inf,inf,inf,1,1,1,1,2,0,2,1,3,1,1,1
71232373,15337347,49.0896207,2.1103780999999997,-0.4909573,-0.17406607,0.033572566,-0.00034907294,-0.00077115797,0.0,0.022186227,-0.02381202,0.01998905,-0.018450882,-0.025729155,-0.029590655,0.0633524,-0.04306943,0.08690751,0.010557081,0.60025775,-0.014364613,86.542885,0.1,0.24590403,0.38967445,0.12806848,0.10485645,inf,inf,inf,inf,1,1,1,1,2,0,2,1,3,1,1,1
71332381,15337347,49.0896207,2.1103780999999997,-0.4884685,-0.17784798,0.03162229,-0.00034907294,-0.00077115797,0.0,0.021398291,-0.017570952,0.02425813,-0.013872419,-0.025729155,-0.029590655,0.0633524,0.044657174,0.05496337,0.092037916,0.5992615,-0.014364613,86.542885,0.1,0.2545177,0.3914684,0.13258164,0.10627333,inf,inf,inf,inf,1,1,1,1,2,0,2,1,3,1,1,1
71432369,15337347,49.0896207,2.1103780999999997,-0.48577678,-0.1806673,0.028142782,-0.00034907294,-0.00077115797,0.0,0.02594169,-0.017124593,0.024113875,-0.015808696,-0.025729155,-0.029590655,0.0633524,-0.036621206,-0.007140296,-0.041048624,0.5988042,-0.014364613,86.542885,0.1,0.24535006,0.38894865,0.12799998,0.10477326,inf,inf,inf,inf,1,1,1,1,2,0,2,1,3,1,1,1
71532397,15337347,49.0896207,2.1103780999999997,-0.48259366,-0.18253103,0.023962904,-0.00034907294,-0.00077115797,0.0,0.032749377,-0.010295277,0.029356765,-0.012762188,-0.025729155,-0.029590655,0.0633524,-0.14742886,-0.13900547,0.020375606,0.5987154,-0.014364613,86.542885,0.1,0.25396723,0.39319116,0.13247621,0.106456846,inf,inf,inf,inf,1,1,1,1,2,0,2,1,3,1,1,1
71632396,15337347,49.0896207,2.1103780999999997,-0.48106173,-0.18346408,0.019344637,-0.00034907294,-0.00077115797,0.0,0.020522319,-0.013992187,0.010820207,-0.033130668,-0.025729155,-0.029590655,0.0633524,0.19120884,-0.12855612,-0.34277594,0.59813404,-0.014364613,86.542885,0.1,0.24480292,0.39064634,0.12789747,0.104951076,inf,inf,inf,inf,1,1,1,1,2,0,2,1,3,1,1,1
71732360,15337347,49.0896207,2.1103780999999997,-0.47899315,-0.1837344,0.015620984,-0.00034907294,-0.00077115797,0.0,0.032570865,-0.01529615,0.025159013,-0.019559411,-0.025729155,-0.029590655,0.0633524,-0.044977862,0.13073632,-0.15707773,0.60039127,-0.014364613,86.542885,0.1,0.25342205,0.39245534,0.13238077,0.10637172,inf,inf,inf,inf,1,1,1,1,2,0,2,1,3,1,1,1
71832396,15337347,49.0896207,2.1103780999999997,-0.47698894,-0.18483068,0.012927542,-0.00034907294,-0.00077115797,0.0,0.027746484,-0.014380511,0.011019224,-0.03272742,-0.025729155,-0.029590655,0.0633524,-0.0010466708,-0.03553625,0.16768476,0.6014137,-0.014364613,86.542885,0.1,0.24425901,0.3899242,0.1278282,0.104869716,inf,inf,inf,inf,1,1,1,1,2,0,2,1,3,1,1,1
71932352,15337347,49.0896207,2.1103780999999997,-0.4749926,-0.18680309,0.011170086,-0.00034907294,-0.00077115797,0.0,0.026754584,-0.014898746,0.014628336,-0.027512023,-0.025729155,-0.029590655,0.0633524,0.016695922,-0.036248043,-0.10330516,0.6027463,-0.014364613,86.542885,0.1,0.25288087,0.39173213,0.13231787,0.106289364,inf,inf,inf,inf,1,1,1,1,2,0,2,1,3,1,1,1
72032367,15337347,49.0896207,2.1103780999999997,-0.47410503,-0.18859684,0.00900701,-0.00034907294,-0.00077115797,0.0,0.024111444,-0.013080641,0.012301432,-0.028352467,-0.025729155,-0.029590655,0.0633524,-0.038657255,0.05654416,0.07292703,0.6035633,-0.014364613,86.542885,0.1,0.2437614,0.38920593,0.12774706,0.10478855,inf,inf,inf,inf,1,1,1,1,2,0,2,1,3,1,1,1
72132394,15337347,49.0896207,2.1103780999999997,-0.47424117,-0.18979795,0.007047479,-0.00034907294,-0.00077115797,0.0,0.017068211,-0.007043728,0.00697298,-0.03238273,-0.025729155,-0.029590655,0.0633524,0.09723172,0.34329268,-0.19834286,0.6037223,-0.014364613,86.542885,0.1,0.25238806,0.3934502,0.1322723,0.10647129,inf,inf,inf,inf,1,1,1,1,2,0,2,1,3,1,1,1
72232392,15337347,49.0896207,2.1103780999999997,-0.47534764,-0.19095112,0.0043961033,-0.00034907294,-0.00077115797,0.0,0.011775606,-0.005222104,0.010849488,-0.027794233,-0.025729155,-0.029590655,0.0633524,0.00323123,0.002463875,-0.12774839,0.60195863,-0.014364613,86.542885,0.1,0.24326302,0.39088306,0.12767653,0.104960516,inf,inf,inf,inf,1,1,1,1,2,0,2,1,3,1,1,1
72332398,15337347,49.0896207,2.1103780999999997,-0.4769016,-0.19267738,0.0017641103,-0.00034907294,-0.00077115797,0.0,0.01096105,-0.008168276,0.0028364854,-0.03484728,-0.025729155,-0.029590655,0.0633524,0.009723992,0.0040019876,0.03801382,0.60108453,-0.014364613,86.542885,0.10005321,0.25189337,0.3926632,0.13219358,0.106372684,inf,inf,inf,inf,1,1,1,1,2,0,2,1,3,1,1,1
72432350,15337347,49.0896207,2.1103780999999997,-0.47828984,-0.19498667,-0.00056801934,-0.00034907294,-0.00077115797,0.0,0.016131632,-0.00886787,0.009316098,-0.027355066,-0.025729155,-0.029590655,0.0633524,0.017213773,-0.046856467,0.0015612928,0.6010344,-0.014364613,86.542885,0.1,0.24280421,0.3900967,0.12762411,0.104862936,inf,inf,inf,inf,1,1,1,1,2,0,2,1,3,1,1,1
72532390,15337347,49.0896207,2.1103780999999997,-0.4790485,-0.19727881,-0.0032877976,-0.00034907294,-0.00077115797,0.0,0.01792656,-0.0034171687,0.015609004,-0.020832125,-0.025729155,-0.029590655,0.0633524,-0.042941857,0.05992008,0.17467757,0.60081756,-0.014364613,86.542885,0.1,0.25143942,0.39186704,0.13213608,0.10627276,inf,inf,inf,inf,1,1,1,1,2,0,2,1,3,1,1,1
72632393,15337347,49.0896207,2.1103780999999997,-0.47928828,-0.19950496,-0.0056841476,-0.00034907294,-0.00077115797,0.0,0.020498969,-0.008065727,0.01058786,-0.02588478,-0.025729155,-0.029590655,0.0633524,0.07752596,-0.0846604,-0.10126278,0.6004553,-0.014364613,86.542885,0.1,0.24233769,0.3917574,0.12754753,0.10503149,inf,inf,inf,inf,1,1,1,1,2,0,2,1,3,1,1,1
72732401,15337347,49.0896207,2.1103780999999997,-0.47964126,-0.20242538,-0.009249032,-0.00034907294,-0.00077115797,0.0,0.009410989,-0.008757683,0.0010049316,-0.03546978,-0.025729155,-0.029590655,0.0633524,-0.073039636,0.16035827,-0.0779941,0.6014564,-0.014364613,86.542885,0.1,0.2509743,0.3935601,0.13200727,0.10645084,inf,inf,inf,inf,1,1,1,1,2,0,2,1,3,1,1,1
72832454,15337347,49.0896207,2.1103780999999997,-0.48003268,-0.20540754,-0.012033972,-0.00034907294,-0.00077115797,0.0,0.00183182,-0.008772112,-0.0033796742,-0.038573872,-0.025729155,-0.029590655,0.0633524,-0.09913735,-0.012529172,-0.013329818,0.6006396,-0.014364613,86.542885,0.10375465,0.24190377,0.39097968,0.12748946,0.1049394,inf,inf,inf,inf,1,1,1,1,2,0,2,1,3,1,1,1
72932438,15337347,49.0896207,2.1103780999999997,-0.4806344,-0.208603,-0.013362437,-0.00034907294,-0.00077115797,0.0,-0.0071960427,-0.0054448843,-0.00097655173,-0.033303563,-0.025729155,-0.029590655,0.0633524,0.14620192,0.12361773,0.24562632,0.59834087,-0.014364613,86.542885,0.10786708,0.2505453,0.39277256,0.13200636,0.10635576,inf,inf,inf,inf,1,1,1,1,2,0,2,1,3,1,1,1
73022347,15337347,49.0896207,2.1103780999999997,-0.48050985,-0.21051495,-0.012725063,-0.00034907294,-0.00077115797,0.0,0.022699334,-0.0073179146,0.011153992,-0.017985236,-0.025729155,-0.029590655,0.0633524,-0.21436326,-0.29131827,0.10378342,0.5980702,-0.014364613,86.542885,0.10769273,0.2406227,0.38955614,0.12699425,0.104656816,inf,inf,inf,inf,1,1,1,1,2,0,2,1,3,1,1,1
73132367,15337347,49.0896207,2.1103780999999997,-0.48096308,-0.21327041,-0.012208693,-0.00034907294,-0.00077115797,0.0,0.008993749,-0.0071894433,-0.0024303,-0.027929768,-0.025729155,-0.029590655,0.0633524,-0.094025284,0.0358829,-0.02938935,0.5993588,-0.014364613,86.542885,0.10846554,0.25010222,0.39200038,0.13192146,0.10626499,inf,inf,inf,inf,1,1,1,1,2,0,2,1,3,1,1,1
73232397,15337347,49.0896207,2.1103780999999997,-0.48087943,-0.21531741,-0.011351028,-0.00034907294,-0.00077115797,0.0,0.014365768,-0.006487804,0.006247036,-0.016301157,-0.025729155,-0.029590655,0.0633524,0.1615094,0.058869023,0.0022470898,0.5992032,-0.014364613,86.542885,0.1065678,0.24104358,0.38945284,0.1273512,0.10476314,inf,inf,inf,inf,1,1,1,1,2,0,2,1,3,1,1,1
73332362,15337347,49.0896207,2.1103780999999997,-0.47945395,-0.21702832,-0.010156999,-0.00034907294,-0.00077115797,0.0,0.019647855,-0.003543864,0.012948017,-0.0069734706,-0.025729155,-0.029590655,0.0633524,-0.18195517,0.08199475,0.07730457,0.6000511,-0.014364613,86.542885,0.1065017,0.24969102,0.39370215,0.13184969,0.10644767,inf,inf,inf,inf,1,1,1,1,2,0,2,1,3,1,1,1
73422349,15337347,49.0896207,2.1103780999999997,-0.47945997,-0.21892461,-0.008460421,-0.00034907294,-0.00077115797,0.0,0.01405942,0.0012309321,0.0019333853,-0.015297698,-0.025729155,-0.029590655,0.0633524,0.0102770645,-0.20738126,-0.120163985,0.5987238,-0.014364613,86.542885,0.107749164,0.239819,0.39046833,0.12683041,0.10474581,inf,inf,inf,inf,1,1,1,1,2,0,2,1,3,1,1,1
73532376,15337347,49.0896207,2.1103780999999997,-0.4804181,-0.22297382,-0.0074681267,-0.00034907294,-0.00077115797,0.0,0.013129788,-0.0029452564,0.00284239,-0.011729177,-0.025729155,-0.029590655,0.0633524,-0.11678937,0.1190797,-0.059133474,0.6001376,-0.014364613,86.542885,0.10732671,0.24930313,0.39293683,0.13175848,0.10636068,inf,inf,inf,inf,1,1,1,1,2,0,2,1,3,1,1,1
73632396,15337347,49.0896207,2.1103780999999997,-0.48063904,-0.22612126,-0.008135155,-0.00034907294,-0.00077115797,0.0,0.008606067,-0.0021441756,0.0033791878,-0.010841002,-0.025729155,-0.029590655,0.0633524,0.16867293,0.05323521,-0.061373003,0.5994749,-0.014364613,86.542885,0.1,0.24024245,0.39038107,0.12722756,0.10485744,inf,inf,inf,inf,1,1,1,1,2,0,2,1,3,1,1,1
73732396,15337347,49.0896207,2.1103780999999997,-0.47974643,-0.22934195,-0.010942765,-0.00034907294,-0.00077115797,0.0,0.010181971,-0.00672824,0.0051224804,-0.01096848,-0.025729155,-0.029590655,0.0633524,0.08043386,0.0413415,-0.03533932,0.5995117,-0.014364613,86.542885,0.1,0.24889433,0.3921606,0.13172205,0.106270425,inf,inf,inf,inf,1,1,1,1,2,0,2,1,3,1,1,1
73832399,15337347,49.0896207,2.1103780999999997,-0.4793783,-0.23189235,-0.014394151,-0.00034907294,-0.00077115797,0.0,0.011764959,-0.0081849685,0.0022537932,-0.015881171,-0.025729155,-0.029590655,0.0633524,-0.037340477,-0.031396188,0.024041174,0.5995991,-0.014364613,86.542885,0.1,0.23985675,0.38960487,0.12714866,0.1047673,inf,inf,inf,inf,1,1,1,1,2,0,2,1,3,1,1,1
73932359,15337347,49.0896207,2.1103780999999997,-0.47931427,-0.23366737,-0.017869826,-0.00034907294,-0.00077115797,0.0,0.012650619,-0.0061864145,0.002289153,-0.017629217,-0.025729155,-0.029590655,0.0633524,-0.14520183,-0.043462515,-0.009965164,0.60006785,-0.014364613,86.542885,0.1,0.24851032,0.39384475,0.13165447,0.10644945,inf,inf,inf,inf,1,1,1,1,2,0,2,1,3,1,1,1
74032400,15337347,49.0896207,2.1103780999999997,-0.48011738,-0.23619045,-0.019420661,-0.00034907294,-0.00077115797,0.0,0.01137313,-0.0029182644,1.4698002e-05,-0.019440858,-0.025729155,-0.029590655,0.0633524,-0.043150887,0.07554031,0.037450332,0.6006008,-0.014364613,86.542885,0.10468658,0.23953375,0.3912663,0.12709674,0.1049414,inf,inf,inf,inf,1,1,1,1,2,0,2,1,3,1,1,1
74132356,15337347,49.0896207,2.1103780999999997,-0.48175836,-0.2386498,-0.019207563,-0.00034907294,-0.00077115797,0.0,0.0059238863,0.0024242823,0.00429716,-0.013214687,-0.025729155,-0.029590655,0.0633524,0.14117041,0.10804757,0.07380344,0.5998853,-0.014364613,86.542885,0.10635117,0.24819128,0.3930601,0.13159974,0.10635925,inf,inf,inf,inf,1,1,1,1,2,0,2,1,3,1,1,1
74232365,15337347,49.0896207,2.1103780999999997,-0.48280153,-0.24186456,-0.01989914,-0.00034907294,-0.00077115797,0.0,0.0072656884,-0.00034812686,0.002345128,-0.014438714,-0.025729155,-0.029590655,0.0633524,-0.04454318,0.082207225,-0.065169506,0.5998982,-0.014364613,86.542885,0.10229675,0.2392225,0.39049828,0.12704784,0.10485556,inf,inf,inf,inf,1,1,1,1,2,0,2,1,3,1,1,1
74332367,15337347,49.0896207,2.1103780999999997,-0.48356435,-0.24526902,-0.020211978,-0.00034907294,-0.00077115797,0.0,0.006443842,0.0051165335,0.006966757,-0.00898338,-0.025729155,-0.029590655,0.0633524,0.0176348,-0.00030979942,-0.015718795,0.5989232,-0.014364613,86.542885,0.103805564,0.24788332,0.39228243,0.13154258,0.106270485,inf,inf,inf,inf,1,1,1,1,2,0,2,1,3,1,1,1
74432406,15337347,49.0896207,2.1103780999999997,-0.48483938,-0.24886797,-0.020120956,-0.00034907294,-0.00077115797,0.0,0.004646203,-0.003005564,-0.0013846772,-0.01610448,-0.025729155,-0.029590655,0.0633524,0.03982546,-0.1120247,-0.009448807,0.59823644,-0.014364613,86.542885,0.102254845,0.23892076,0.3897369,0.12699164,0.10477129,inf,inf,inf,inf,1,1,1,1,2,0,2,1,3,1,1,1
74532397,15337347,49.0896207,2.1103780999999997,-0.48595053,-0.25286263,-0.020154804,-0.00034907294,-0.00077115797,0.0,0.0078792125,-0.002341056,0.009045055,-0.004590614,-0.025729155,-0.029590655,0.0633524,-0.05763193,0.05884321,0.061091885,0.5986233,-0.014364613,86.542885,0.10524138,0.24758427,0.39151147,0.13148111,0.10618353,inf,inf,inf,inf,1,1,1,1,2,0,2,1,3,1,1,1
74632352,15337347,49.0896207,2.1103780999999997,-0.4873346,-0.25676605,-0.020094536,-0.00034907294,-0.00077115797,0.0,0.0024507456,-0.005139742,-0.00028863217,-0.01302839,-0.025729155,-0.029590655,0.0633524,0.00077948323,-0.011026832,-0.016059518,0.5985127,-0.014364613,86.542885,0.10216325,0.2386261,0.39140671,0.12694933,0.104948655,inf,inf,inf,inf,1,1,1,1,2,0,2,1,3,1,1,1
74732369,15337347,49.0896207,2.1103780999999997,-0.48872158,-0.2605758,-0.021716304,-0.00034907294,-0.00077115797,0.0,0.004437806,-0.0032367273,0.0055744355,-0.007899101,-0.025729155,-0.029590655,0.0633524,-0.036274545,-0.012308917,-0.1291678,0.5985602,-0.014364613,86.542885,0.1,0.24729237,0.39321384,0.13142627,0.10637041,inf,inf,inf,inf,1,1,1,1,2,0,2,1,3,1,1,1
74832404,15337347,49.0896207,2.1103780999999997,-0.48966303,-0.26455986,-0.021315495,-0.00034907294,-0.00077115797,0.0,0.0013581911,-0.0034818049,-0.00035219805,-0.01219832,-0.025729155,-0.029590655,0.0633524,-0.025545526,-0.0025202262,0.0375397,0.5984102,-0.014364613,86.542885,0.10874862,0.238338,0.39065236,0.12689333,0.10486757,inf,inf,inf,inf,1,1,1,1,2,0,2,1,3,1,1,1
74932403,15337347,49.0896207,2.1103780999999997,-0.49014756,-0.2684259,-0.019058602,-0.00034907294,-0.00077115797,0.0,0.0028098633,-0.0009405584,0.0058171465,-0.003138289,-0.025729155,-0.029590655,0.0633524,-0.03397221,-0.013110916,-0.007822416,0.5983547,-0.014364613,86.542885,0.10839556,0.24700657,0.39244983,0.13138795,0.10628641,inf,inf,inf,inf,1,1,1,1,2,0,2,1,3,1,1,1
75032410,15337347,49.0896207,2.1103780999999997,-0.49059135,-0.2718215,-0.016151648,-0.00034907294,-0.00077115797,0.0,0.0030138544,-0.0015075341,0.005691924,-4.7689915e-05,-0.025729155,-0.029590655,0.0633524,0.028172664,0.06564918,0.08558905,0.5981543,-0.014364613,86.542885,0.11040443,0.23795646,0.38990507,0.12674364,0.1047761,inf,inf,inf,inf,1,1,1,1,2,0,2,1,3,1,1,1
75132408,15337347,49.0896207,2.1103780999999997,-0.49103063,-0.27502838,-0.012593277,-0.00034907294,-0.00077115797,0.0,0.0038244657,-0.003221815,0.0060313754,0.003487546,-0.025729155,-0.029590655,0.0633524,-0.059783146,-0.0044087498,-0.09769565,0.598245,-0.014364613,86.542885,0.10925514,0.24661654,0.39168385,0.13124686,0.10618962,inf,inf,inf,inf,1,1,1,1,2,0,2,1,3,1,1,1
75232430,15337347,49.0896207,2.1103780999999997,-0.49202687,-0.2788194,-0.00939532,-0.00034907294,-0.00077115797,0.0,0.0017571022,-0.003654952,0.0024257645,0.0027756833,-0.025729155,-0.029590655,0.0633524,0.036027145,-0.043856632,0.027193328,0.5980257,-0.014364613,86.542885,0.10967,0.23768649,0.39157334,0.12670265,0.1049536,inf,inf,inf,inf,1,1,1,1,2,0,2,1,3,1,1,1
75332355,15337347,49.0896207,2.1103780999999997,-0.49304393,-0.28276533,-0.007083852,-0.00034907294,-0.00077115797,0.0,0.0009708883,-0.0030040236,0.006446189,0.008284836,-0.025729155,-0.029590655,0.0633524,-0.112994485,0.007137663,0.0009812315,0.5986072,-0.014364613,86.542885,0.10511039,0.2463499,0.39337632,0.13121843,0.106374614,inf,inf,inf,inf,1,1,1,1,2,0,2,1,3,1,1,1
75432396,15337347,49.0896207,2.1103780999999997,-0.49515137,-0.28642014,-0.005460509,-0.00034907294,-0.00077115797,0.0,-0.002611949,-0.0029005078,0.0025533095,0.005171793,-0.025729155,-0.029590655,0.0633524,-0.011770794,-0.008698958,0.11905574,0.5985216,-0.014364613,86.542885,0.10617111,0.23741913,0.39080653,0.12667923,0.10487067,inf,inf,inf,inf,1,1,1,1,2,0,2,1,3,1,1,1
75532400,15337347,49.0896207,2.1103780999999997,-0.49774188,-0.28958052,-0.0030019032,-0.00034907294,-0.00077115797,0.0,-0.0048516663,-0.00094077515,0.007718843,0.011504916,-0.025729155,-0.029590655,0.0633524,-0.04283962,-0.01777976,-0.095959716,0.59857905,-0.014364613,86.542885,0.105530694,0.24608569,0.3925915,0.1311792,0.10628657,inf,inf,inf,inf,1,1,1,1,2,0,2,1,3,1,1,1
75632377,15337347,49.0896207,2.1103780999999997,-0.5007627,-0.29284316,-0.00094088184,-0.00034907294,-0.00077115797,0.0,-0.007809535,-0.0035685594,0.002382409,0.007143514,-0.025729155,-0.029590655,0.0633524,0.012122145,0.044842813,0.0034938995,0.5983871,-0.014364613,86.542885,0.1077739,0.23709826,0.39003152,0.12655932,0.10477342,inf,inf,inf,inf,1,1,1,1,2,0,2,1,3,1,1,1
75732354,15337347,49.0896207,2.1103780999999997,-0.50416136,-0.29627553,0.0021461044,-0.00034907294,-0.00077115797,0.0,-0.0077989595,-0.0022539035,0.008097146,0.014423517,-0.025729155,-0.029590655,0.0633524,0.024526596,0.011301036,0.005486875,0.59821707,-0.014364613,86.542885,0.10506454,0.245758,0.39181462,0.13106894,0.10618868,inf,inf,inf,inf,1,1,1,1,2,0,2,1,3,1,1,1
75832396,15337347,49.0896207,2.1103780999999997,-0.5081183,-0.2985339,0.006221843,-0.00034907294,-0.00077115797,0.0,-0.009620366,-0.0035019082,0.008947949,0.017544614,-0.025729155,-0.029590655,0.0633524,0.043348633,-0.025128143,0.010021069,0.59807193,-0.014364613,86.542885,0.10901749,0.23687997,0.38927796,0.12655038,0.104693994,inf,inf,inf,inf,1,1,1,1,2,0,2,1,3,1,1,1
75932376,15337347,49.0896207,2.1103780999999997,-0.51231956,-0.299924,0.010044114,-0.00034907294,-0.00077115797,0.0,-0.01321923,-0.0026843667,0.011507209,0.021607254,-0.025729155,-0.029590655,0.0633524,-0.07182833,0.0009743782,-0.029774293,0.5984271,-0.014364613,86.542885,0.10423535,0.2455444,0.39351553,0.1310414,0.106377155,inf,inf,inf,inf,1,1,1,1,2,0,2,1,3,1,1,1
76032399,15337347,49.0896207,2.1103780999999997,-0.5162285,-0.30140084,0.012514177,-0.00034907294,-0.00077115797,0.0,-0.014947207,-0.002413212,0.010130245,0.0202643,-0.025729155,-0.029590655,0.0633524,-0.01271741,0.03288386,-0.015142581,0.59846985,-0.014364613,86.542885,0.10303314,0.23665737,0.39095512,0.12651648,0.10487672,inf,inf,inf,inf,1,1,1,1,2,0,2,1,3,1,1,1
76132366,15337347,49.0896207,2.1103780999999997,-0.51981026,-0.302851,0.0146386465,-0.00034907294,-0.00077115797,0.0,-0.018622614,-0.0012202191,0.011037635,0.020739514,-0.025729155,-0.029590655,0.0633524,0.0039169774,0.011210049,-0.0026116236,0.59865093,-0.014364613,86.542885,0.10044181,0.24532525,0.39275303,0.13101748,0.10629647,inf,inf,inf,inf,1,1,1,1,2,0,2,1,3,1,1,1
76232361,15337347,49.0896207,2.1103780999999997,-0.52363366,-0.3049544,0.014744697,-0.00034907294,-0.00077115797,0.0,-0.017142419,0.0038806673,0.017766634,0.024923364,-0.025729155,-0.029590655,0.0633524,-0.06303743,0.14005646,0.123655036,0.59940016,-0.014364613,86.542885,0.1,0.2364299,0.39019975,0.1264904,0.10479756,inf,inf,inf,inf,1,1,1,1,2,0,2,1,3,1,1,1
76332403,15337347,49.0896207,2.1103780999999997,-0.5277245,-0.30688515,0.014351003,-0.00034907294,-0.00077115797,0.0,-0.019307068,0.002115178,0.012586021,0.01656919,-0.025729155,-0.029590655,0.0633524,-0.010881432,-0.14904313,-0.20161894,0.59872603,-0.014364613,86.542885,0.1,0.24510092,0.3919881,0.13099653,0.10621444,inf,inf,inf,inf,1,1,1,1,2,0,2,1,3,1,1,1
76432400,15337347,49.0896207,2.1103780999999997,-0.5318227,-0.31048357,0.013195257,-0.00034907294,-0.00077115797,0.0,-0.021242173,0.0010078278,0.012543228,0.013857155,-0.025729155,-0.029590655,0.0633524,-0.049731147,0.1611537,0.11670142,0.5996644,-0.014364613,86.542885,0.1,0.23619854,0.38945845,0.12643111,0.10472127,inf,inf,inf,inf,1,1,1,1,2,0,2,1,3,1,1,1
76532369,15337347,49.0896207,2.1103780999999997,-0.5359327,-0.31411758,0.0131255,-0.00034907294,-0.00077115797,0.0,-0.018542813,-0.00087252434,0.0113416845,0.0108596515,-0.025729155,-0.029590655,0.0633524,0.055027716,-0.07990258,-0.116810225,0.5989891,-0.014364613,86.542885,0.1,0.24487108,0.39123747,0.13097325,0.106135406,inf,inf,inf,inf,1,1,1,1,2,0,2,1,3,1,1,1
76632399,15337347,49.0896207,2.1103780999999997,-0.5390431,-0.31810096,0.011987479,-0.00034907294,-0.00077115797,0.0,-0.024347851,-0.0018653522,0.009020971,0.0065219817,-0.025729155,-0.029590655,0.0633524,-0.038119137,0.048729066,0.036227267,0.59979063,-0.014364613,86.542885,0.1,0.23600526,0.3911424,0.12641345,0.10490501,inf,inf,inf,inf,1,1,1,1,2,0,2,1,3,1,1,1
76732357,15337347,49.0896207,2.1103780999999997,-0.5419003,-0.3217477,0.010399901,-0.00034907294,-0.00077115797,0.0,-0.024969758,-0.0026952475,0.0062808287,0.0017462113,-0.025729155,-0.029590655,0.0633524,0.010571729,0.032908175,-0.006218132,0.5993954,-0.014364613,86.542885,0.1,0.24468103,0.39292884,0.13093942,0.10632177,inf,inf,inf,inf,1,1,1,1,2,0,2,1,3,1,1,1
76832359,15337347,49.0896207,2.1103780999999997,-0.54480106,-0.32391244,0.008348852,-0.00034907294,-0.00077115797,0.0,-0.026194401,0.00054906774,0.008770154,0.0019377493,-0.025729155,-0.029590655,0.0633524,-0.060124066,0.047255427,0.012277948,0.59944093,-0.014364613,86.542885,0.1,0.23580207,0.3903499,0.12640661,0.10481577,inf,inf,inf,inf,1,1,1,1,2,0,2,1,3,1,1,1
76932361,15337347,49.0896207,2.1103780999999997,-0.54791164,-0.32494205,0.004969565,-0.00034907294,-0.00077115797,0.0,-0.026139045,-0.0022008435,9.3093724e-05,-0.00967721,-0.025729155,-0.029590655,0.0633524,0.0033261292,-0.02637441,-0.031494137,0.5994153,-0.014364613,86.542885,0.1,0.24448103,0.3921099,0.13091226,0.10622533,inf,inf,inf,inf,1,1,1,1,2,0,2,1,3,1,1,1
77632383,15337347,49.0896207,2.1103780999999997,-0.5514924,-0.3393636,0.00024489473,-0.00034907294,-0.00077115797,0.0,-0.02020853,0.0022269937,0.00014784679,-0.0073245014,-0.025729155,-0.029590655,0.0633524,-0.056698922,-2.0410762e-05,0.0053776745,0.5988071,-0.014364613,86.542885,0.107883655,0.23513322,0.3896173,0.12631036,0.104726754,inf,inf,inf,inf,1,1,1,1,2,0,2,1,3,1,1,1
77732367,15337347,49.0896207,2.1103780999999997,-0.553181,-0.34257552,0.002447356,-0.00034907294,-0.00077115797,0.0,-0.020640492,0.0003726583,0.0024437187,-0.0023270503,-0.025729155,-0.029590655,0.0633524,0.016690787,-0.020004407,-0.050168402,0.59863687,-0.014364613,86.542885,0.105560064,0.24382165,0.39386052,0.13080734,0.10641181,inf,inf,inf,inf,1,1,1,1,2,0,2,1,3,1,1,1
77832384,15337347,49.0896207,2.1103780999999997,-0.554669,-0.34549066,0.0034899144,-0.00034907294,-0.00077115797,0.0,-0.019031798,-0.0036414203,0.005267147,0.0017707678,-0.025729155,-0.029590655,0.0633524,-0.5647314,-0.9198615,0.65280795,0.5986294,-0.014364613,86.542885,0.10460229,0.23499306,0.39128268,0.12628256,0.10490764,inf,inf,inf,inf,1,1,1,1,2,0,2,1,3,1,1,1
77932399,15337347,49.0896207,2.1103780999999997,-0.5558353,-0.3480916,0.0046855863,-0.00034907294,-0.00077115797,0.0,-0.018554667,0.00066804426,0.0034704136,0.0010497433,-0.025729155,-0.029590655,0.0633524,0.13408126,0.45189673,-0.1736333,0.5987798,-0.014364613,86.542885,0.103046216,0.24368356,0.39307153,0.13078906,0.10632647,inf,inf,inf,inf,1,1,1,1,2,0,2,1,3,1,1,1
78032400,15337347,49.0896207,2.1103780999999997,-0.5579035,-0.3508704,0.0053753564,-0.00034907294,-0.00077115797,0.0,-0.016123993,-0.0036896295,0.0033314067,0.001238121,-0.025729155,-0.029590655,0.0633524,0.55615866,-0.68141013,-0.43207732,0.59882534,-0.014364613,86.542885,0.10176669,0.23483384,0.39051035,0.12624913,0.10482642,inf,inf,inf,inf,1,1,1,1,2,0,2,1,3,1,1,1
78132358,15337347,49.0896207,2.1103780999999997,-0.5606997,-0.35377437,0.0058152676,-0.00034907294,-0.00077115797,0.0,-0.021518406,0.0027048844,0.002702996,0.00077528285,-0.025729155,-0.029590655,0.0633524,0.10793698,-0.095774375,0.4473256,0.598608,-0.014364613,86.542885,0.10004705,0.2435256,0.3922984,0.13076055,0.10624458,inf,inf,inf,inf,1,1,1,1,2,0,2,1,3,1,1,1
78232396,15337347,49.0896207,2.1103780999999997,-0.5627821,-0.35570225,0.006130612,-0.00034907294,-0.00077115797,0.0,-0.016506718,0.00531491,0.012430076,0.010068462,-0.025729155,-0.029590655,0.0633524,-0.046517044,0.06656831,0.06553011,0.597717,-0.014364613,86.542885,0.1,0.23470186,0.38974512,0.12623322,0.10474612,inf,inf,inf,inf,1,1,1,1,2,0,2,1,3,1,1,1
78332359,15337347,49.0896207,2.1103780999999997,-0.5642769,-0.35757235,0.006524373,-0.00034907294,-0.00077115797,0.0,-0.022082476,-0.0008415069,-0.00225456,-0.0045,-0.025729155,-0.029590655,0.0633524,0.028381431,0.09474013,-0.5502556,0.5980645,-0.014364613,86.542885,0.10150242,0.24339543,0.3939798,0.1307143,0.106428616,inf,inf,inf,inf,1,1,1,1,2,0,2,1,3,1,1,1
78432399,15337347,49.0896207,2.1103780999999997,-0.56602645,-0.36037058,0.008709807,-0.00034907294,-0.00077115797,0.0,-0.019098384,-0.0015081912,0.0054665008,0.0052370885,-0.025729155,-0.029590655,0.0633524,0.24762516,-0.023381576,0.49115506,0.59720224,-0.014364613,86.542885,0.10756938,0.23454906,0.3913874,0.12619391,0.10492046,inf,inf,inf,inf,1,1,1,1,2,0,2,1,3,1,1,1
78532377,15337347,49.0896207,2.1103780999999997,-0.5673718,-0.36395082,0.0120641645,-0.00034907294,-0.00077115797,0.0,-0.02057226,8.1070684e-05,0.003941292,0.006529792,-0.025729155,-0.029590655,0.0633524,-0.031397663,0.21617985,-0.3943388,0.5972235,-0.014364613,86.542885,0.106573105,0.24324374,0.3931484,0.13072349,0.10633213,inf,inf,inf,inf,1,1,1,1,2,0,2,1,3,1,1,1
78632399,15337347,49.0896207,2.1103780999999997,-0.5685315,-0.36762494,0.014971718,-0.00034907294,-0.00077115797,0.0,-0.01887322,-0.0033727332,0.008762488,0.013105144,-0.025729155,-0.029590655,0.0633524,-0.22895254,-0.046009127,0.27249563,0.5965729,-0.014364613,86.542885,0.103403024,0.23442094,0.39055917,0.12617204,0.10482502,inf,inf,inf,inf,1,1,1,1,2,0,2,1,3,1,1,1
78732354,15337347,49.0896207,2.1103780999999997,-0.5694067,-0.3714783,0.017563505,-0.00034907294,-0.00077115797,0.0,-0.018428188,-0.00065292884,0.0071521187,0.012913414,-0.025729155,-0.029590655,0.0633524,0.20464852,0.1237109,0.43569875,0.5963016,-0.014364613,86.542885,0.10424237,0.2431165,0.39231095,0.13067809,0.10623423,inf,inf,inf,inf,1,1,1,1,2,0,2,1,3,1,1,1
78832396,15337347,49.0896207,2.1103780999999997,-0.5708381,-0.3752512,0.020800915,-0.00034907294,-0.00077115797,0.0,-0.01967327,-0.002544567,0.0028958085,0.010329049,-0.025729155,-0.029590655,0.0633524,-0.095895976,0.11165891,-0.6857908,0.5959246,-0.014364613,86.542885,0.10579996,0.2343141,0.39218876,0.12615801,0.10499613,inf,inf,inf,inf,1,1,1,1,2,0,2,1,3,1,1,1
78932361,15337347,49.0896207,2.1103780999999997,-0.57258475,-0.3787944,0.023940114,-0.00034907294,-0.00077115797,0.0,-0.018095843,-0.00412476,0.0121284025,0.020826044,-0.025729155,-0.029590655,0.0633524,-0.1156571,-0.014544067,-0.2763421,0.5953255,-0.014364613,86.542885,0.1024784,0.24301124,0.3939733,0.13064474,0.10641521,inf,inf,inf,inf,1,1,1,1,2,0,2,1,3,1,1,1
79032372,15337347,49.0896207,2.1103780999999997,-0.5737085,-0.3829121,0.025692219,-0.00034907294,-0.00077115797,0.0,-0.016794601,-0.0053860554,0.010328969,0.018904489,-0.025729155,-0.029590655,0.0633524,0.14678665,0.06263545,0.5509032,0.5950346,-0.014364613,86.542885,0.10117417,0.23418279,0.39137393,0.1261398,0.10490637,inf,inf,inf,inf,1,1,1,1,2,0,2,1,3,1,1,1
79132396,15337347,49.0896207,2.1103780999999997,-0.574399,-0.38721442,0.027649524,-0.00034907294,-0.00077115797,0.0,-0.016358498,-0.0067108395,0.006771472,0.015212989,-0.025729155,-0.029590655,0.0633524,0.08135383,0.014183775,0.08330876,0.59476244,-0.014364613,86.542885,0.1,0.24288012,0.39314938,0.13062727,0.106323004,inf,inf,inf,inf,1,1,1,1,2,0,2,1,3,1,1,1
79232371,15337347,49.0896207,2.1103780999999997,-0.57468104,-0.39199272,0.027545083,-0.00034907294,-0.00077115797,0.0,-0.016442275,-0.007956885,0.008626449,0.015075082,-0.025729155,-0.029590655,0.0633524,0.23604296,0.1374747,-0.25522014,0.5944685,-0.014364613,86.542885,0.1,0.23407218,0.39057702,0.12609062,0.10482122,inf,inf,inf,inf,1,1,1,1,2,0,2,1,3,1,1,1
79332364,15337347,49.0896207,2.1103780999999997,-0.57463133,-0.39687154,0.026338745,-0.00034907294,-0.00077115797,0.0,-0.017735701,-0.0098510375,0.0076615284,0.011166854,-0.025729155,-0.029590655,0.0633524,-0.46211198,-0.11729204,-0.51523864,0.59406614,-0.014364613,86.542885,0.1,0.2427706,0.39234358,0.130609,0.10623522,inf,inf,inf,inf,1,1,1,1,2,0,2,1,3,1,1,1
79432396,15337347,49.0896207,2.1103780999999997,-0.5747547,-0.40131372,0.024731094,-0.00034907294,-0.00077115797,0.0,-0.01446105,-0.0077427486,0.009154911,0.009775637,-0.025729155,-0.029590655,0.0633524,-0.19030187,-0.12959844,0.25639576,0.59332025,-0.014364613,86.542885,0.1,0.23393726,0.3897809,0.1260757,0.104735695,inf,inf,inf,inf,1,1,1,1,2,0,2,1,3,1,1,1
79532363,15337347,49.0896207,2.1103780999999997,-0.5748609,-0.40543485,0.023493607,-0.00034907294,-0.00077115797,0.0,-0.013920789,-0.009189893,0.008960627,0.0073874597,-0.025729155,-0.029590655,0.0633524,0.3405167,0.070929974,-0.0058662123,0.5929781,-0.014364613,86.542885,0.1,0.24263582,0.3940203,0.13058431,0.1064208,inf,inf,inf,inf,1,1,1,1,2,0,2,1,3,1,1,1
79632396,15337347,49.0896207,2.1103780999999997,-0.57639277,-0.40936708,0.02289894,-0.00034907294,-0.00077115797,0.0,-0.015703384,-0.011825743,0.009466889,0.0066665476,-0.025729155,-0.029590655,0.0633524,0.04026755,0.06962734,0.43097496,0.5926012,-0.014364613,86.542885,0.1,0.23378032,0.39143506,0.12604056,0.104915835,inf,inf,inf,inf,1,1,1,1,2,0,2,1,3,1,1,1
79932366,15337347,49.0896207,2.1103780999999997,-0.58258885,-0.41999176,0.027381783,-0.00034907294,-0.00077115797,0.0,-0.017318053,-0.012355748,0.0091562765,0.009057923,-0.025729155,-0.029590655,0.0633524,-0.44701752,-0.121093,-0.52306056,0.5914856,-0.014364613,86.542885,0.103233926,0.24230008,0.3924225,0.13051659,0.10624979,inf,inf,inf,inf,1,1,1,1,2,0,2,1,3,1,1,1
80032399,15337347,49.0896207,2.1103780999999997,-0.58395183,-0.42273495,0.028734654,-0.00034907294,-0.00077115797,0.0,-0.014392048,-0.010879322,0.014298859,0.01468086,-0.025729155,-0.029590655,0.0633524,-0.014425662,-0.11942596,0.607718,0.59122837,-0.014364613,86.542885,0.1,0.23345634,0.38985562,0.12597336,0.10474884,inf,inf,inf,inf,1,1,1,1,2,0,2,1,3,1,1,1
80132358,15337347,49.0896207,2.1103780999999997,-0.5849406,-0.42490557,0.02945113,-0.00034907294,-0.00077115797,0.0,-0.01421293,-0.010563029,0.008317874,0.008168771,-0.025729155,-0.029590655,0.0633524,0.3833032,0.11988892,0.13708119,0.5910063,-0.014364613,86.542885,0.1,0.24215169,0.3940864,0.13049798,0.10643163,inf,inf,inf,inf,1,1,1,1,2,0,2,1,3,1,1,1
80232399,15337347,49.0896207,2.1103780999999997,-0.5849062,-0.42600727,0.030442,-0.00034907294,-0.00077115797,0.0,-0.014909062,-0.009944829,0.010452624,0.010260322,-0.025729155,-0.029590655,0.0633524,0.09378562,-0.11562812,0.08913572,0.5910136,-0.014364613,86.542885,0.1,0.23328793,0.39149776,0.12593053,0.104925655,inf,inf,inf,inf,1,1,1,1,2,0,2,1,3,1,1,1
80332356,15337347,49.0896207,2.1103780999999997,-0.5841664,-0.4261354,0.032943062,-0.00034907294,-0.00077115797,0.0,-0.011621632,-0.009381589,0.011960448,0.013151452,-0.025729155,-0.029590655,0.0633524,0.38463962,0.27202833,-0.18291509,0.59052294,-0.014364613,86.542885,0.10434746,0.24198234,0.39327854,0.13043961,0.1063443,inf,inf,inf,inf,1,1,1,1,2,0,2,1,3,1,1,1
80432363,15337347,49.0896207,2.1103780999999997,-0.58403945,-0.42719117,0.034936298,-0.00034907294,-0.00077115797,0.0,-0.012302305,-0.011572372,0.0112238685,0.013136185,-0.025729155,-0.029590655,0.0633524,-0.40673035,-1.5060775,0.64840204,0.5905067,-0.014364613,86.542885,0.1,0.23314618,0.39070764,0.12591451,0.10484272,inf,inf,inf,inf,1,1,1,1,2,0,2,1,3,1,1,1
80532353,15337347,49.0896207,2.1103780999999997,-0.58456695,-0.4287497,0.035739243,-0.00034907294,-0.00077115797,0.0,-0.012629602,-0.0075695836,0.0151143065,0.01653064,-0.025729155,-0.029590655,0.0633524,-0.24287796,-1.0192491,0.64773333,0.5898377,-0.014364613,86.542885,0.1,0.24184047,0.39247954,0.13042037,0.10625868,inf,inf,inf,inf,1,1,1,1,2,0,2,1,3,1,1,1
80632397,15337347,49.0896207,2.1103780999999997,-0.5855973,-0.4303935,0.035270136,-0.00034907294,-0.00077115797,0.0,-0.011593468,-0.0031163997,0.0064556934,0.0062283804,-0.025729155,-0.029590655,0.0633524,-0.24405134,1.2929425,-0.19863501,0.58957154,-0.014364613,86.542885,0.1,0.23302762,0.38992605,0.12590697,0.10476142,inf,inf,inf,inf,1,1,1,1,2,0,2,1,3,1,1,1
80732372,15337347,49.0896207,2.1103780999999997,-0.58707327,-0.4320436,0.034290258,-0.00034907294,-0.00077115797,0.0,-0.0120357685,-0.0062012756,0.010871059,0.008804441,-0.025729155,-0.029590655,0.0633524,-0.76737344,0.65474546,0.23612627,0.5888582,-0.014364613,86.542885,0.1,0.24172239,0.3916892,0.13040288,0.10617475,inf,inf,inf,inf,1,1,1,1,2,0,2,1,3,1,1,1
80832396,15337347,49.0896207,2.1103780999999997,-0.5885608,-0.4331712,0.034483243,-0.00034907294,-0.00077115797,0.0,-0.011682925,-0.0073637976,0.0057274913,0.0032656214,-0.025729155,-0.029590655,0.0633524,0.5871163,0.021017028,-0.45331585,0.5881791,-0.014364613,86.542885,0.1,0.23288463,0.39158872,0.12587751,0.1049437,inf,inf,inf,inf,1,1,1,1,2,0,2,1,3,1,1,1
80932362,15337347,49.0896207,2.1103780999999997,-0.5902646,-0.43383074,0.0349067,-0.00034907294,-0.00077115797,0.0,-0.01308259,-0.007514812,0.009512737,0.0069351974,-0.025729155,-0.029590655,0.0633524,-0.16532099,0.2574706,0.054597907,0.5869536,-0.014364613,86.542885,0.1,0.2415793,0.39338505,0.13037585,0.10636674,inf,inf,inf,inf,1,1,1,1,2,0,2,1,3,1,1,1
81032371,15337347,49.0896207,2.1103780999999997,-0.5912195,-0.43474206,0.034561157,-0.00034907294,-0.00077115797,0.0,-0.009502606,-0.0039610015,0.007866715,0.004289626,-0.025729155,-0.029590655,0.0633524,-0.029692603,-0.115293734,-0.14008315,0.585407,-0.014364613,86.542885,0.1,0.23276518,0.39081648,0.125861,0.10486544,inf,inf,inf,inf,1,1,1,1,2,0,2,1,3,1,1,1
81132402,15337347,49.0896207,2.1103780999999997,-0.5915592,-0.4358493,0.03519828,-0.00034907294,-0.00077115797,0.0,-0.012625079,-0.0012921805,0.008967525,0.0052999384,-0.025729155,-0.029590655,0.0633524,0.36280784,0.74712443,-0.7377261,0.5840853,-0.014364613,86.542885,0.1,0.24146053,0.39260396,0.13035147,0.1062858,inf,inf,inf,inf,1,1,1,1,2,0,2,1,3,1,1,1
81232366,15337347,49.0896207,2.1103780999999997,-0.5925882,-0.43709654,0.034970295,-0.00034907294,-0.00077115797,0.0,-0.016060414,-0.00484972,0.011670682,0.0073021795,-0.025729155,-0.029590655,0.0633524,-0.7274131,-0.6574018,0.64229584,0.581985,-0.014364613,86.542885,0.1,0.23266575,0.39005983,0.12583959,0.10479048,inf,inf,inf,inf,1,1,1,1,2,0,2,1,3,1,1,1
81332397,15337347,49.0896207,2.1103780999999997,-0.59363085,-0.43888733,0.03448613,-0.00034907294,-0.00077115797,0.0,-0.007160921,-0.005768371,0.007201902,0.0018711116,-0.025729155,-0.029590655,0.0633524,0.88159704,0.565212,-0.6367014,0.5805093,-0.014364613,86.542885,0.1,0.24136181,0.3918301,0.13034385,0.1062058,inf,inf,inf,inf,1,1,1,1,2,0,2,1,3,1,1,1
81432362,15337347,49.0896207,2.1103780999999997,-0.59352237,-0.43965828,0.03342901,-0.00034907294,-0.00077115797,0.0,-0.015255486,-0.0060589327,0.013624777,0.006966411,-0.025729155,-0.029590655,0.0633524,-0.39505568,-0.34571886,0.5944221,0.57931995,-0.014364613,86.542885,0.1,0.23258232,0.39171615,0.12581451,0.10497038,inf,inf,inf,inf,1,1,1,1,2,0,2,1,3,1,1,1
81532399,15337347,49.0896207,2.1103780999999997,-0.5924426,-0.43998784,0.033324186,-0.00034907294,-0.00077115797,0.0,-0.010386797,-0.009271638,0.0065345424,-0.00037851595,-0.025729155,-0.029590655,0.0633524,-1.246836,-0.16116218,1.1970534,0.5787036,-0.014364613,86.542885,0.1,0.24128018,0.39351112,0.13035028,0.10639332,inf,inf,inf,inf,1,1,1,1,2,0,2,1,3,1,1,1
81632369,15337347,49.0896207,2.1103780999999997,-0.5927634,-0.44050834,0.03414377,-0.00034907294,-0.00077115797,0.0,-0.0023212004,0.0011824488,0.008886518,0.0026830058,-0.025729155,-0.029590655,0.0633524,1.723074,0.87095255,-1.9900829,0.57783896,-0.014364613,86.542885,0.1,0.23246992,0.3909357,0.12578836,0.10489011,inf,inf,inf,inf,1,1,1,1,2,0,2,1,3,1,1,1
81732402,15337347,49.0896207,2.1103780999999997,-0.5940205,-0.44033784,0.03533549,-0.00034907294,-0.00077115797,0.0,-0.0133884745,-0.0006223326,0.016616289,0.010578463,-0.025729155,-0.029590655,0.0633524,-0.44034877,-0.80702406,0.53977597,0.5755385,-0.014364613,86.542885,0.1,0.24116814,0.3927133,0.13031851,0.1063085,inf,inf,inf,inf,1,1,1,1,2,0,2,1,3,1,1,1
81832381,15337347,49.0896207,2.1103780999999997,-0.594383,-0.439705,0.036386974,-0.00034907294,-0.00077115797,0.0,-0.014783037,-0.0014243046,0.011057948,0.005673707,-0.025729155,-0.029590655,0.0633524,-1.4694272,-0.19018212,0.91487837,0.5744562,-0.014364613,86.542885,0.1,0.23237671,0.39015514,0.12578297,0.104809254,inf,inf,inf,inf,1,1,1,1,2,0,2,1,3,1,1,1
81932396,15337347,49.0896207,2.1103780999999997,-0.5944097,-0.43829307,0.037598927,-0.00034907294,-0.00077115797,0.0,-0.014385265,0.0028424594,0.010946638,0.0060658706,-0.025729155,-0.029590655,0.0633524,-1.1339769,-0.47312224,0.49175182,0.5720762,-0.014364613,86.542885,0.1,0.2410746,0.39192382,0.13027526,0.10622526,inf,inf,inf,inf,1,1,1,1,2,0,2,1,3,1,1,1
83232396,15337347,49.0896207,2.1103780999999997,-0.5775057,-0.42341128,0.021687081,-0.00034907294,-0.00077115797,0.0,0.010738992,-0.0021194315,0.008149525,-0.004604916,-0.025729155,-0.029590655,0.0633524,-0.37425026,-0.28093362,-0.057334136,0.5475082,-0.014364613,86.542885,0.1,0.23160173,0.38967407,0.12564658,0.104812734,inf,inf,inf,inf,1,1,1,1,2,0,2,1,3,1,1,1
84132368,15337347,49.0896207,2.1103780999999997,-0.5672656,-0.4088889,0.035100304,-0.00034907294,-0.00077115797,0.0,-0.0090390425,0.013675296,0.00664698,0.010535499,-0.025729155,-0.029590655,0.0633524,-0.1439445,0.15265538,-1.5830199,0.52761644,-0.014364613,86.542885,0.10379643,0.23980968,0.3933281,0.13006155,0.10651327,inf,inf,inf,inf,1,1,1,1,2,0,2,1,3,1,1,1
84232369,15337347,49.0896207,2.1103780999999997,-0.5678036,-0.40897086,0.03944604,-0.00034907294,-0.00077115797,0.0,-0.008829259,0.002724033,0.012077429,0.018698486,-0.025729155,-0.029590655,0.0633524,-0.5770112,-0.08849665,-0.4834516,0.52437145,-0.014364613,86.542885,0.10464652,0.23097427,0.39077637,0.12552679,0.10501868,inf,inf,inf,inf,1,1,1,1,2,0,2,1,3,1,1,1
84332368,15337347,49.0896207,2.1103780999999997,-0.56853175,-0.40965658,0.04066999,-0.00034907294,-0.00077115797,0.0,-0.004504949,0.007814706,0.009135437,0.01529145,-0.025729155,-0.029590655,0.0633524,-0.18648797,0.62981,0.41876763,0.52199006,-0.014364613,86.542885,0.1,0.239668,0.39257312,0.13002753,0.10645524,inf,inf,inf,inf,1,1,1,1,2,0,2,1,3,1,1,1
84432400,15337347,49.0896207,2.1103780999999997,-0.56993055,-0.40966612,0.040817734,-0.00034907294,-0.00077115797,0.0,-0.0068291505,0.005511159,0.0056960243,0.010372291,-0.025729155,-0.029590655,0.0633524,-0.4189555,-0.22354956,-0.11711833,0.5185606,-0.014364613,86.542885,0.1,0.23085612,0.39000344,0.12552196,0.104956515,inf,inf,inf,inf,1,1,1,1,2,0,2,1,3,1,1,1
84532354,15337347,49.0896207,2.1103780999999997,-0.5716328,-0.40970612,0.04046331,-0.00034907294,-0.00077115797,0.0,-0.0045675775,0.0036602682,0.0073310225,0.010453682,-0.025729155,-0.029590655,0.0633524,-0.075672366,0.2353824,-0.6007244,0.5153582,-0.014364613,86.542885,0.1,0.23955038,0.39424366,0.12999584,0.10665773,inf,inf,inf,inf,1,1,1,1,2,0,2,1,3,1,1,1
84632396,15337347,49.0896207,2.1103780999999997,-0.57266575,-0.4096906,0.043080196,-0.00034907294,-0.00077115797,0.0,-0.008494324,0.0052855853,0.013605762,0.01834546,-0.025729155,-0.029590655,0.0633524,-0.24566856,-0.24527332,1.15061,0.5115045,-0.014364613,86.542885,0.10747899,0.23071392,0.3916437,0.12550601,0.1051525,inf,inf,inf,inf,1,1,1,1,2,0,2,1,3,1,1,1
84732396,15337347,49.0896207,2.1103780999999997,-0.5730292,-0.40969592,0.046916615,-0.00034907294,-0.00077115797,0.0,-0.0029470292,0.010378793,0.0032162117,0.010621225,-0.025729155,-0.029590655,0.0633524,0.0016435002,0.1829587,0.48463917,0.50771904,-0.014364613,86.542885,0.10682975,0.23940681,0.39343128,0.13001299,0.10659173,inf,inf,inf,inf,1,1,1,1,2,0,2,1,3,1,1,1
84832356,15337347,49.0896207,2.1103780999999997,-0.5732094,-0.41013545,0.050359514,-0.00034907294,-0.00077115797,0.0,-0.005611858,0.0011934433,0.010067251,0.019409131,-0.025729155,-0.029590655,0.0633524,-0.43202904,0.25106925,0.13566452,0.50476843,-0.014364613,86.542885,0.10334797,0.23059331,0.3908412,0.1254585,0.10508895,inf,inf,inf,inf,1,1,1,1,2,0,2,1,3,1,1,1
84932379,15337347,49.0896207,2.1103780999999997,-0.5737333,-0.41080698,0.052715875,-0.00034907294,-0.00077115797,0.0,-0.009214273,0.0018903926,0.00025956423,0.010255403,-0.025729155,-0.029590655,0.0633524,-0.30696225,0.225131,-1.4947745,0.5014702,-0.014364613,86.542885,0.1040724,0.23928659,0.39262,0.12996235,0.106528305,inf,inf,inf,inf,1,1,1,1,2,0,2,1,3,1,1,1
85032401,15337347,49.0896207,2.1103780999999997,-0.5737713,-0.41105077,0.05491484,-0.00034907294,-0.00077115797,0.0,0.0026882985,0.007465772,0.004590706,0.015235388,-0.025729155,-0.029590655,0.0633524,-0.341939,0.5292273,-0.8573954,0.4977684,-0.014364613,86.542885,0.1,0.23044966,0.39004785,0.12546235,0.105031244,inf,inf,inf,inf,1,1,1,1,2,0,2,1,3,1,1,1
85132365,15337347,49.0896207,2.1103780999999997,-0.5734447,-0.41082272,0.05454402,-0.00034907294,-0.00077115797,0.0,-0.0039113103,0.0020719199,0.0052858447,0.013531324,-0.025729155,-0.029590655,0.0633524,-0.04144175,-0.21904482,0.39795908,0.49455386,-0.014364613,86.542885,0.1,0.23914185,0.39181826,0.129957,0.106470466,inf,inf,inf,inf,1,1,1,1,2,0,2,1,3,1,1,1
85232358,15337347,49.0896207,2.1103780999999997,-0.5730616,-0.41144684,0.0531117,-0.00034907294,-0.00077115797,0.0,-0.014577125,0.0058231163,0.0055961953,0.011132555,-0.025729155,-0.029590655,0.0633524,-0.24149585,0.09169854,-1.0283138,0.49167448,-0.014364613,86.542885,0.1,0.23022555,0.39169496,0.1253189,0.10522578,inf,inf,inf,inf,1,1,1,1,2,0,2,1,3,1,1,1
85332391,15337347,49.0896207,2.1103780999999997,-0.5720289,-0.41174844,0.052017495,-0.00034907294,-0.00077115797,0.0,-0.0038082537,0.006285102,0.0025327248,0.0058837766,-0.025729155,-0.029590655,0.0633524,-0.19431391,-0.17102917,-0.48339128,0.48813087,-0.014364613,86.542885,0.1,0.2389065,0.39349827,0.1298565,0.10667817,inf,inf,inf,inf,1,1,1,1,2,0,2,1,3,1,1,1
85432423,15337347,49.0896207,2.1103780999999997,-0.57069397,-0.4126619,0.051240087,-0.00034907294,-0.00077115797,0.0,-0.00791688,0.008370542,0.0032232348,0.0052156616,-0.025729155,-0.029590655,0.0633524,0.01038255,0.2145327,-0.3141547,0.48510012,-0.014364613,86.542885,0.1,0.23008768,0.3909208,0.12533018,0.1051803,inf,inf,inf,inf,1,1,1,1,2,0,2,1,3,1,1,1
85532420,15337347,49.0896207,2.1103780999999997,-0.5691813,-0.41422513,0.05005019,-0.00034907294,-0.00077115797,0.0,-0.004033471,-0.0041664788,0.006070919,0.0065089143,-0.025729155,-0.029590655,0.0633524,-0.19675286,0.106552705,0.4688839,0.4822784,-0.014364613,86.542885,0.1,0.23876935,0.39270753,0.12983166,0.106629774,inf,inf,inf,inf,1,1,1,1,2,0,2,1,3,1,1,1
85632409,15337347,49.0896207,2.1103780999999997,-0.5673421,-0.41552722,0.048651807,-0.00034907294,-0.00077115797,0.0,-0.00717406,-0.00027424376,0.01212902,0.010917085,-0.025729155,-0.029590655,0.0633524,-0.33705348,-0.045996655,0.5813073,0.47944096,-0.014364613,86.542885,0.1,0.22997265,0.39014658,0.12531897,0.10513603,inf,inf,inf,inf,1,1,1,1,2,0,2,1,3,1,1,1
85732354,15337347,49.0896207,2.1103780999999997,-0.56521183,-0.41664615,0.04666025,-0.00034907294,-0.00077115797,0.0,-0.00186066,0.0003969543,0.006782054,0.0037315548,-0.025729155,-0.029590655,0.0633524,-0.04428556,0.2642974,1.0808715,0.47723457,-0.014364613,86.542885,0.1,0.2386559,0.39193368,0.12981685,0.106587715,inf,inf,inf,inf,1,1,1,1,2,0,2,1,3,1,1,1
85832468,15337347,49.0896207,2.1103780999999997,-0.56350887,-0.4180313,0.04247038,-0.00034907294,-0.00077115797,0.0,-0.0024648434,0.001661171,0.00077617494,-0.00591375,-0.025729155,-0.029590655,0.0633524,-0.37763232,-0.035862558,1.243656,0.4745831,-0.014364613,86.542885,0.1,0.22983286,0.38938832,0.1253151,0.105097555,inf,inf,inf,inf,1,1,1,1,2,0,2,1,3,1,1,1
85932367,15337347,49.0896207,2.1103780999999997,-0.562377,-0.41983265,0.036281615,-0.00034907294,-0.00077115797,0.0,-0.0012855767,-0.003323292,0.0012054553,-0.010602591,-0.025729155,-0.029590655,0.0633524,-0.45857105,0.008322982,0.85433805,0.47180748,-0.014364613,86.542885,0.1,0.23851688,0.39363354,0.12980929,0.10681971,inf,inf,inf,inf,1,1,1,1,2,0,2,1,3,1,1,1
86032381,15337347,49.0896207,2.1103780999999997,-0.5612827,-0.4211104,0.030013388,-0.00034907294,-0.00077115797,0.0,-0.0032406738,-0.00018063038,-0.0028915112,-0.018693008,-0.025729155,-0.029590655,0.0633524,-0.7734495,-0.021384519,1.7490791,0.46925205,-0.014364613,86.542885,0.1,0.22971629,0.3910477,0.12529705,0.10531823,inf,inf,inf,inf,1,1,1,1,2,0,2,1,3,1,1,1
86132396,15337347,49.0896207,2.1103780999999997,-0.56029177,-0.42190316,0.025356136,-0.00034907294,-0.00077115797,0.0,0.0016296918,0.0004017757,0.0017299331,-0.016354304,-0.025729155,-0.029590655,0.0633524,-0.48484355,-0.22241366,1.1645992,0.46629068,-0.014364613,86.542885,0.1,0.23840083,0.39283577,0.12980787,0.10677583,inf,inf,inf,inf,1,1,1,1,2,0,2,1,3,1,1,1
86232357,15337347,49.0896207,2.1103780999999997,-0.5598687,-0.42274457,0.019210596,-0.00034907294,-0.00077115797,0.0,-0.0035323305,-0.00012902226,-0.0007764178,-0.021779936,-0.025729155,-0.029590655,0.0633524,-0.80302256,-0.029008107,1.2116848,0.46375632,-0.014364613,86.542885,0.1,0.22957374,0.3902586,0.12525126,0.10527499,inf,inf,inf,inf,1,1,1,1,2,0,2,1,3,1,1,1
86332384,15337347,49.0896207,2.1103780999999997,-0.5601162,-0.42320785,0.01226216,-0.00034907294,-0.00077115797,0.0,-0.00189573,-0.0059253844,-0.010540382,-0.03516314,-0.025729155,-0.029590655,0.0633524,-0.67857414,-0.10347734,1.4363595,0.46058157,-0.014364613,86.542885,0.1,0.2382577,0.39203873,0.12978362,0.10673292,inf,inf,inf,inf,1,1,1,1,2,0,2,1,3,1,1,1
86432430,15337347,49.0896207,2.1103780999999997,-0.5599971,-0.4236736,0.003488645,-0.00034907294,-0.00077115797,0.0,-0.0057942797,0.00024663977,-0.007111264,-0.036219288,-0.025729155,-0.029590655,0.0633524,-0.59524447,0.014745991,1.2365986,0.45818937,-0.014364613,86.542885,0.1,0.22941048,0.3894866,0.12523699,0.10523782,inf,inf,inf,inf,1,1,1,1,2,0,2,1,3,1,1,1
86532396,15337347,49.0896207,2.1103780999999997,-0.5595367,-0.42401677,-0.006697288,-0.00034907294,-0.00077115797,0.0,-0.00021946464,-0.0057694875,-0.0148461005,-0.04915936,-0.025729155,-0.029590655,0.0633524,-0.089707,-0.24540247,0.42776528,0.45568633,-0.014364613,86.542885,0.1,0.2380942,0.3937356,0.1297655,0.10696877,inf,inf,inf,inf,1,1,1,1,2,0,2,1,3,1,1,1
86632399,15337347,49.0896207,2.1103780999999997,-0.558322,-0.4247293,-0.012973814,-0.00034907294,-0.00077115797,0.0,-0.001091855,1.2208042e-05,-0.021350063,-0.055974577,-0.025729155,-0.029590655,0.0633524,-0.6187904,0.09966214,0.40151218,0.45301798,-0.014364613,86.542885,0.10032059,0.22927426,0.391151,0.12522371,0.10546418,inf,inf,inf,inf,1,1,1,1,2,0,2,1,3,1,1,1
86732363,15337347,49.0896207,2.1103780999999997,-0.5568429,-0.42565295,-0.017541993,-0.00034907294,-0.00077115797,0.0,0.006246028,-0.0014222222,-0.018704014,-0.05173718,-0.025729155,-0.029590655,0.0633524,-0.22226104,-0.03404039,1.6681534,0.45064867,-0.014364613,86.542885,0.10147649,0.23795846,0.39295807,0.12974939,0.10693424,inf,inf,inf,inf,1,1,1,1,2,0,2,1,3,1,1,1
86832396,15337347,49.0896207,2.1103780999999997,-0.5513253,-0.42435968,-0.023766356,-0.00034907294,-0.00077115797,0.0,0.09570357,0.035650223,-0.023763668,-0.05675725,-0.025729155,-0.029590655,0.0633524,1.3524694,0.4087416,0.56299126,0.44812396,-0.014364613,86.542885,0.100056335,0.22916155,0.3903892,0.12522008,0.10543237,inf,inf,inf,inf,1,1,1,1,2,0,2,1,3,1,1,1
86932396,15337347,49.0896207,2.1103780999999997,-0.52612025,-0.41412562,-0.030398877,-0.00034907294,-0.00077115797,0.0,0.40082118,0.1845974,-0.0640417,-0.095316425,-0.025729155,-0.029590655,0.0633524,3.3052378,2.2629023,-0.23382908,0.44836497,-0.014364613,86.542885,0.10537162,0.23784702,0.39218867,0.12971917,0.10690103,inf,inf,inf,inf,1,1,1,1,2,0,2,1,3,1,1,1
87032359,15337347,49.0896207,2.1103780999999997,-0.4651437,-0.38170952,-0.036587477,-0.00034907294,-0.00077115797,0.0,0.76568514,0.43622154,-0.047063347,-0.075081326,-0.025729155,-0.029590655,0.0633524,3.538753,1.774461,0.8073767,0.43695882,-0.014364613,86.542885,0.11519972,0.22902268,0.38963494,0.1252903,0.10540362,inf,inf,inf,inf,1,1,1,1,2,0,2,1,3,1,1,1
87132380,15337347,49.0896207,2.1103780999999997,-0.3616036,-0.32792678,-0.040590018,-0.00034907294,-0.00077115797,0.0,1.3326164,0.6218131,0.016611487,-0.007813864,-0.025729155,-0.029590655,0.0633524,6.5464664,1.9903176,0.31559107,0.40942147,-0.014364613,86.542885,0.11450501,0.2377143,0.39142674,0.13005924,0.10688934,inf,inf,inf,inf,1,1,1,1,2,0,2,1,3,1,1,1
87232400,15337347,49.0896207,2.1103780999999997,-0.18488237,-0.25091368,-0.026209,-0.00034907294,-0.00077115797,0.0,2.0203686,0.8942045,0.044926416,0.026442587,-0.025729155,-0.029590655,0.0633524,6.170722,4.0603676,-1.9188873,0.38971737,-0.014364613,86.542885,0.10801527,0.22891192,0.39131916,0.1258137,0.10568329,inf,inf,inf,inf,1,1,1,1,2,0,2,1,3,1,1,1
87332354,15337347,49.0896207,2.1103780999999997,0.060143795,-0.15274048,-0.033557326,-0.00034907294,-0.00077115797,0.0,2.659501,1.0855724,-0.18781668,-0.200106,-0.025729155,-0.029590655,0.0633524,8.042951,1.3831506,3.5299752,0.37406683,-0.014364613,86.542885,0.11313544,0.2376027,0.39314562,0.13061494,0.10725265,inf,inf,inf,inf,1,1,1,1,2,0,2,1,3,1,1,1
87432399,15337347,49.0896207,2.1103780999999997,0.37809512,-0.030432617,-0.03209378,-0.00034907294,-0.00077115797,0.0,3.3625903,1.3428825,0.15023394,0.14474303,-0.025729155,-0.029590655,0.0633524,6.453552,4.8853974,1.3999256,0.3626871,-0.014364613,86.542885,0.13688028,0.22876786,0.39057252,0.12775013,0.105881475,inf,inf,inf,inf,1,1,1,1,2,0,2,1,3,1,1,1
