timestamp,noutputs,output[0],output[1],output[2],output[3],output[4],output[5],output[6],output[7],output[8],output[9],output[10],output[11],output[12],output[13],output[14],output[15]
68287054,8,1529.0,1529.0,1532.0,1532.0,1000.0,1532.0,1525.0,1520.0,0.0,0.0,0.0,0.0,0.0,0.0,0.0,0.0
68307239,8,1529.0,1529.0,1532.0,1533.0,1000.0,1533.0,1525.0,1520.0,0.0,0.0,0.0,0.0,0.0,0.0,0.0,0.0
68330499,8,1529.0,1529.0,1532.0,1532.0,1000.0,1532.0,1525.0,1520.0,0.0,0.0,0.0,0.0,0.0,0.0,0.0,0.0
68356717,8,1529.0,1529.0,1532.0,1532.0,1000.0,1532.0,1525.0,1520.0,0.0,0.0,0.0,0.0,0.0,0.0,0.0,0.0
68376400,8,1529.0,1529.0,1532.0,1532.0,1000.0,1532.0,1525.0,1520.0,0.0,0.0,0.0,0.0,0.0,0.0,0.0,0.0
68398769,8,1529.0,1529.0,1532.0,1532.0,1000.0,1532.0,1525.0,1520.0,0.0,0.0,0.0,0.0,0.0,0.0,0.0,0.0
68420949,8,1529.0,1529.0,1532.0,1532.0,1000.0,1532.0,1525.0,1520.0,0.0,0.0,0.0,0.0,0.0,0.0,0.0,0.0
68440956,8,1529.0,1529.0,1532.0,1532.0,1000.0,1532.0,1525.0,1520.0,0.0,0.0,0.0,0.0,0.0,0.0,0.0,0.0
68467319,8,1529.0,1529.0,1532.0,1532.0,1000.0,1532.0,1525.0,1520.0,0.0,0.0,0.0,0.0,0.0,0.0,0.0,0.0
68490593,8,1529.0,1529.0,1532.0,1532.0,1000.0,1532.0,1525.0,1520.0,0.0,0.0,0.0,0.0,0.0,0.0,0.0,0.0
68510589,8,1529.0,1529.0,1532.0,1532.0,1000.0,1532.0,1525.0,1520.0,0.0,0.0,0.0,0.0,0.0,0.0,0.0,0.0
68531009,8,1529.0,1529.0,1532.0,1532.0,1000.0,1532.0,1525.0,1520.0,0.0,0.0,0.0,0.0,0.0,0.0,0.0,0.0
68556746,8,1529.0,1529.0,1532.0,1532.0,1000.0,1532.0,1525.0,1520.0,0.0,0.0,0.0,0.0,0.0,0.0,0.0,0.0
68576840,8,1529.0,1529.0,1532.0,1532.0,1000.0,1532.0,1525.0,1520.0,0.0,0.0,0.0,0.0,0.0,0.0,0.0,0.0
68598907,8,1529.0,1529.0,1532.0,1532.0,1000.0,1532.0,1525.0,1520.0,0.0,0.0,0.0,0.0,0.0,0.0,0.0,0.0
68620944,8,1529.0,1529.0,1532.0,1532.0,1000.0,1532.0,1525.0,1520.0,0.0,0.0,0.0,0.0,0.0,0.0,0.0,0.0
68647283,8,1529.0,1529.0,1532.0,1532.0,1000.0,1532.0,1525.0,1520.0,0.0,0.0,0.0,0.0,0.0,0.0,0.0,0.0
68667271,8,1529.0,1529.0,1532.0,1532.0,1000.0,1532.0,1525.0,1520.0,0.0,0.0,0.0,0.0,0.0,0.0,0.0,0.0
68687595,8,1529.0,1529.0,1532.0,1532.0,1000.0,1532.0,1525.0,1520.0,0.0,0.0,0.0,0.0,0.0,0.0,0.0,0.0
68710872,8,1529.0,1529.0,1532.0,1532.0,1000.0,1532.0,1525.0,1520.0,0.0,0.0,0.0,0.0,0.0,0.0,0.0,0.0
68730906,8,1529.0,1529.0,1532.0,1532.0,1000.0,1532.0,1525.0,1520.0,0.0,0.0,0.0,0.0,0.0,0.0,0.0,0.0
68756444,8,1529.0,1529.0,1532.0,1532.0,1000.0,1532.0,1525.0,1520.0,0.0,0.0,0.0,0.0,0.0,0.0,0.0,0.0
68777154,8,1529.0,1529.0,1532.0,1532.0,1000.0,1532.0,1525.0,1520.0,0.0,0.0,0.0,0.0,0.0,0.0,0.0,0.0
68798880,8,1529.0,1529.0,1532.0,1532.0,1000.0,1532.0,1525.0,1520.0,0.0,0.0,0.0,0.0,0.0,0.0,0.0,0.0
68820966,8,1529.0,1529.0,1532.0,1532.0,1000.0,1532.0,1525.0,1520.0,0.0,0.0,0.0,0.0,0.0,0.0,0.0,0.0
68840992,8,1529.0,1529.0,1533.0,1532.0,1000.0,1533.0,1525.0,1520.0,0.0,0.0,0.0,0.0,0.0,0.0,0.0,0.0
68866902,8,1530.0,1530.0,1532.0,1532.0,1000.0,1532.0,1525.0,1520.0,0.0,0.0,0.0,0.0,0.0,0.0,0.0,0.0
68890494,8,1530.0,1530.0,1532.0,1533.0,1000.0,1532.0,1525.0,1520.0,0.0,0.0,0.0,0.0,0.0,0.0,0.0,0.0
68911071,8,1530.0,1530.0,1532.0,1532.0,1000.0,1532.0,1525.0,1520.0,0.0,0.0,0.0,0.0,0.0,0.0,0.0,0.0
68931031,8,1529.0,1529.0,1532.0,1533.0,1000.0,1532.0,1525.0,1520.0,0.0,0.0,0.0,0.0,0.0,0.0,0.0,0.0
68957294,8,1529.0,1529.0,1532.0,1532.0,1000.0,1532.0,1525.0,1520.0,0.0,0.0,0.0,0.0,0.0,0.0,0.0,0.0
68989927,8,1529.0,1529.0,1532.0,1532.0,1000.0,1532.0,1525.0,1520.0,0.0,0.0,0.0,0.0,0.0,0.0,0.0,0.0
69007403,8,1529.0,1529.0,1532.0,1532.0,1000.0,1532.0,1525.0,1520.0,0.0,0.0,0.0,0.0,0.0,0.0,0.0,0.0
69030845,8,1529.0,1529.0,1532.0,1532.0,1000.0,1532.0,1525.0,1520.0,0.0,0.0,0.0,0.0,0.0,0.0,0.0,0.0
69050889,8,1529.0,1529.0,1532.0,1532.0,1000.0,1532.0,1525.0,1520.0,0.0,0.0,0.0,0.0,0.0,0.0,0.0,0.0
69076481,8,1529.0,1529.0,1532.0,1532.0,1000.0,1532.0,1525.0,1520.0,0.0,0.0,0.0,0.0,0.0,0.0,0.0,0.0
69100519,8,1529.0,1529.0,1532.0,1532.0,1000.0,1532.0,1525.0,1520.0,0.0,0.0,0.0,0.0,0.0,0.0,0.0,0.0
69120989,8,1529.0,1529.0,1532.0,1532.0,1000.0,1532.0,1525.0,1520.0,0.0,0.0,0.0,0.0,0.0,0.0,0.0,0.0
69141039,8,1529.0,1529.0,1532.0,1532.0,1000.0,1532.0,1525.0,1520.0,0.0,0.0,0.0,0.0,0.0,0.0,0.0,0.0
69167402,8,1529.0,1529.0,1532.0,1532.0,1000.0,1532.0,1525.0,1520.0,0.0,0.0,0.0,0.0,0.0,0.0,0.0,0.0
69190987,8,1529.0,1529.0,1532.0,1532.0,1000.0,1532.0,1525.0,1520.0,0.0,0.0,0.0,0.0,0.0,0.0,0.0,0.0
69211007,8,1529.0,1529.0,1532.0,1532.0,1000.0,1532.0,1525.0,1520.0,0.0,0.0,0.0,0.0,0.0,0.0,0.0,0.0
69230934,8,1529.0,1529.0,1532.0,1532.0,1000.0,1532.0,1525.0,1520.0,0.0,0.0,0.0,0.0,0.0,0.0,0.0,0.0
69276924,8,1529.0,1529.0,1532.0,1532.0,1000.0,1532.0,1525.0,1520.0,0.0,0.0,0.0,0.0,0.0,0.0,0.0,0.0
69301024,8,1529.0,1529.0,1532.0,1532.0,1000.0,1532.0,1525.0,1520.0,0.0,0.0,0.0,0.0,0.0,0.0,0.0,0.0
69321088,8,1529.0,1529.0,1532.0,1532.0,1000.0,1532.0,1525.0,1520.0,0.0,0.0,0.0,0.0,0.0,0.0,0.0,0.0
69341058,8,1529.0,1529.0,1532.0,1532.0,1000.0,1532.0,1525.0,1520.0,0.0,0.0,0.0,0.0,0.0,0.0,0.0,0.0
69366957,8,1529.0,1529.0,1532.0,1532.0,1000.0,1532.0,1525.0,1520.0,0.0,0.0,0.0,0.0,0.0,0.0,0.0,0.0
69387399,8,1529.0,1529.0,1532.0,1532.0,1000.0,1532.0,1525.0,1520.0,0.0,0.0,0.0,0.0,0.0,0.0,0.0,0.0
69410942,8,1529.0,1529.0,1532.0,1532.0,1000.0,1532.0,1525.0,1520.0,0.0,0.0,0.0,0.0,0.0,0.0,0.0,0.0
69436912,8,1529.0,1529.0,1532.0,1532.0,1000.0,1532.0,1525.0,1520.0,0.0,0.0,0.0,0.0,0.0,0.0,0.0,0.0
69460957,8,1529.0,1529.0,1532.0,1532.0,1000.0,1532.0,1525.0,1520.0,0.0,0.0,0.0,0.0,0.0,0.0,0.0,0.0
69487398,8,1529.0,1529.0,1532.0,1532.0,1000.0,1532.0,1525.0,1520.0,0.0,0.0,0.0,0.0,0.0,0.0,0.0,0.0
69510677,8,1530.0,1530.0,1532.0,1532.0,1000.0,1532.0,1525.0,1520.0,0.0,0.0,0.0,0.0,0.0,0.0,0.0,0.0
69531029,8,1530.0,1530.0,1532.0,1533.0,1000.0,1532.0,1525.0,1520.0,0.0,0.0,0.0,0.0,0.0,0.0,0.0,0.0
69556470,8,1530.0,1530.0,1532.0,1532.0,1000.0,1532.0,1525.0,1520.0,0.0,0.0,0.0,0.0,0.0,0.0,0.0,0.0
69580825,8,1530.0,1530.0,1532.0,1533.0,1000.0,1533.0,1525.0,1520.0,0.0,0.0,0.0,0.0,0.0,0.0,0.0,0.0
69606930,8,1530.0,1530.0,1532.0,1532.0,1000.0,1532.0,1525.0,1520.0,0.0,0.0,0.0,0.0,0.0,0.0,0.0,0.0
69627054,8,1530.0,1530.0,1532.0,1533.0,1000.0,1533.0,1525.0,1520.0,0.0,0.0,0.0,0.0,0.0,0.0,0.0,0.0
69650622,8,1530.0,1530.0,1532.0,1532.0,1000.0,1532.0,1525.0,1520.0,0.0,0.0,0.0,0.0,0.0,0.0,0.0,0.0
69671121,8,1529.0,1529.0,1532.0,1532.0,1000.0,1532.0,1525.0,1520.0,0.0,0.0,0.0,0.0,0.0,0.0,0.0,0.0
69696527,8,1529.0,1529.0,1532.0,1532.0,1000.0,1532.0,1525.0,1520.0,0.0,0.0,0.0,0.0,0.0,0.0,0.0,0.0
69720552,8,1529.0,1529.0,1532.0,1532.0,1000.0,1532.0,1525.0,1520.0,0.0,0.0,0.0,0.0,0.0,0.0,0.0,0.0
69741157,8,1529.0,1529.0,1532.0,1532.0,1000.0,1532.0,1525.0,1520.0,0.0,0.0,0.0,0.0,0.0,0.0,0.0,0.0
69766492,8,1529.0,1529.0,1532.0,1532.0,1000.0,1532.0,1525.0,1520.0,0.0,0.0,0.0,0.0,0.0,0.0,0.0,0.0
69786958,8,1529.0,1529.0,1532.0,1532.0,1000.0,1532.0,1525.0,1520.0,0.0,0.0,0.0,0.0,0.0,0.0,0.0,0.0
69810572,8,1529.0,1529.0,1532.0,1532.0,1000.0,1532.0,1525.0,1520.0,0.0,0.0,0.0,0.0,0.0,0.0,0.0,0.0
69830634,8,1528.0,1528.0,1532.0,1533.0,1000.0,1532.0,1525.0,1520.0,0.0,0.0,0.0,0.0,0.0,0.0,0.0,0.0
69850556,8,1529.0,1529.0,1532.0,1533.0,1000.0,1533.0,1525.0,1520.0,0.0,0.0,0.0,0.0,0.0,0.0,0.0,0.0
69870917,8,1529.0,1529.0,1533.0,1533.0,1000.0,1533.0,1525.0,1520.0,0.0,0.0,0.0,0.0,0.0,0.0,0.0,0.0
69890977,8,1528.0,1528.0,1532.0,1533.0,1000.0,1533.0,1525.0,1520.0,0.0,0.0,0.0,0.0,0.0,0.0,0.0,0.0
69910555,8,1528.0,1528.0,1532.0,1532.0,1000.0,1532.0,1525.0,1520.0,0.0,0.0,0.0,0.0,0.0,0.0,0.0,0.0
69936460,8,1528.0,1528.0,1532.0,1532.0,1000.0,1532.0,1525.0,1520.0,0.0,0.0,0.0,0.0,0.0,0.0,0.0,0.0
69956472,8,1528.0,1528.0,1532.0,1531.0,1000.0,1532.0,1525.0,1520.0,0.0,0.0,0.0,0.0,0.0,0.0,0.0,0.0
69976536,8,1528.0,1528.0,1532.0,1531.0,1000.0,1531.0,1525.0,1520.0,0.0,0.0,0.0,0.0,0.0,0.0,0.0,0.0
70006965,8,1529.0,1529.0,1532.0,1531.0,1000.0,1531.0,1525.0,1520.0,0.0,0.0,0.0,0.0,0.0,0.0,0.0,0.0
70020647,8,1528.0,1528.0,1532.0,1531.0,1000.0,1531.0,1525.0,1520.0,0.0,0.0,0.0,0.0,0.0,0.0,0.0,0.0
70040877,8,1528.0,1528.0,1531.0,1532.0,1000.0,1532.0,1525.0,1520.0,0.0,0.0,0.0,0.0,0.0,0.0,0.0,0.0
70061042,8,1529.0,1529.0,1532.0,1533.0,1000.0,1532.0,1525.0,1520.0,0.0,0.0,0.0,0.0,0.0,0.0,0.0,0.0
70087313,8,1529.0,1529.0,1533.0,1535.0,1000.0,1534.0,1525.0,1520.0,0.0,0.0,0.0,0.0,0.0,0.0,0.0,0.0
70110853,8,1529.0,1529.0,1534.0,1535.0,1000.0,1534.0,1525.0,1520.0,0.0,0.0,0.0,0.0,0.0,0.0,0.0,0.0
70131027,8,1530.0,1530.0,1533.0,1535.0,1000.0,1534.0,1525.0,1520.0,0.0,0.0,0.0,0.0,0.0,0.0,0.0,0.0
70150950,8,1530.0,1530.0,1533.0,1534.0,1000.0,1534.0,1525.0,1520.0,0.0,0.0,0.0,0.0,0.0,0.0,0.0,0.0
70176529,8,1529.0,1529.0,1532.0,1531.0,1000.0,1531.0,1525.0,1520.0,0.0,0.0,0.0,0.0,0.0,0.0,0.0,0.0
70198894,8,1529.0,1529.0,1530.0,1530.0,1000.0,1530.0,1525.0,1520.0,0.0,0.0,0.0,0.0,0.0,0.0,0.0,0.0
70221013,8,1529.0,1529.0,1531.0,1529.0,1000.0,1530.0,1525.0,1520.0,0.0,0.0,0.0,0.0,0.0,0.0,0.0,0.0
70240950,8,1530.0,1530.0,1533.0,1530.0,1000.0,1531.0,1525.0,1520.0,0.0,0.0,0.0,0.0,0.0,0.0,0.0,0.0
70267185,8,1530.0,1530.0,1536.0,1533.0,1000.0,1534.0,1525.0,1520.0,0.0,0.0,0.0,0.0,0.0,0.0,0.0,0.0
70287405,8,1529.0,1529.0,1536.0,1536.0,1000.0,1536.0,1525.0,1520.0,0.0,0.0,0.0,0.0,0.0,0.0,0.0,0.0
70310457,8,1530.0,1530.0,1536.0,1536.0,1000.0,1536.0,1525.0,1520.0,0.0,0.0,0.0,0.0,0.0,0.0,0.0,0.0
70336528,8,1530.0,1530.0,1533.0,1534.0,1000.0,1533.0,1525.0,1520.0,0.0,0.0,0.0,0.0,0.0,0.0,0.0,0.0
70356611,8,1529.0,1529.0,1531.0,1531.0,1000.0,1531.0,1525.0,1520.0,0.0,0.0,0.0,0.0,0.0,0.0,0.0,0.0
70380676,8,1529.0,1529.0,1529.0,1529.0,1000.0,1529.0,1525.0,1520.0,0.0,0.0,0.0,0.0,0.0,0.0,0.0,0.0
70400583,8,1529.0,1529.0,1529.0,1529.0,1000.0,1529.0,1525.0,1520.0,0.0,0.0,0.0,0.0,0.0,0.0,0.0,0.0
70420553,8,1530.0,1530.0,1530.0,1530.0,1000.0,1530.0,1525.0,1520.0,0.0,0.0,0.0,0.0,0.0,0.0,0.0,0.0
70440580,8,1529.0,1529.0,1530.0,1532.0,1000.0,1531.0,1525.0,1520.0,0.0,0.0,0.0,0.0,0.0,0.0,0.0,0.0
70460513,8,1529.0,1529.0,1532.0,1533.0,1000.0,1533.0,1525.0,1520.0,0.0,0.0,0.0,0.0,0.0,0.0,0.0,0.0
70480549,8,1529.0,1529.0,1533.0,1534.0,1000.0,1534.0,1525.0,1520.0,0.0,0.0,0.0,0.0,0.0,0.0,0.0,0.0
70500949,8,1529.0,1529.0,1534.0,1534.0,1000.0,1534.0,1525.0,1520.0,0.0,0.0,0.0,0.0,0.0,0.0,0.0,0.0
70527150,8,1529.0,1529.0,1533.0,1534.0,1000.0,1534.0,1525.0,1520.0,0.0,0.0,0.0,0.0,0.0,0.0,0.0,0.0
70550595,8,1529.0,1529.0,1532.0,1533.0,1000.0,1533.0,1525.0,1520.0,0.0,0.0,0.0,0.0,0.0,0.0,0.0,0.0
70576615,8,1529.0,1529.0,1532.0,1532.0,1000.0,1532.0,1525.0,1520.0,0.0,0.0,0.0,0.0,0.0,0.0,0.0,0.0
70598423,8,1529.0,1529.0,1532.0,1531.0,1000.0,1532.0,1525.0,1520.0,0.0,0.0,0.0,0.0,0.0,0.0,0.0,0.0
70620596,8,1529.0,1529.0,1532.0,1531.0,1000.0,1532.0,1525.0,1520.0,0.0,0.0,0.0,0.0,0.0,0.0,0.0,0.0
70641002,8,1529.0,1529.0,1532.0,1531.0,1000.0,1532.0,1525.0,1520.0,0.0,0.0,0.0,0.0,0.0,0.0,0.0,0.0
70667183,8,1529.0,1529.0,1532.0,1532.0,1000.0,1532.0,1525.0,1520.0,0.0,0.0,0.0,0.0,0.0,0.0,0.0,0.0
70687218,8,1529.0,1529.0,1532.0,1532.0,1000.0,1532.0,1525.0,1520.0,0.0,0.0,0.0,0.0,0.0,0.0,0.0,0.0
70710812,8,1529.0,1529.0,1533.0,1532.0,1000.0,1532.0,1525.0,1520.0,0.0,0.0,0.0,0.0,0.0,0.0,0.0,0.0
70730837,8,1529.0,1529.0,1534.0,1531.0,1000.0,1532.0,1525.0,1520.0,0.0,0.0,0.0,0.0,0.0,0.0,0.0,0.0
70756502,8,1529.0,1529.0,1533.0,1531.0,1000.0,1532.0,1525.0,1520.0,0.0,0.0,0.0,0.0,0.0,0.0,0.0,0.0
70776473,8,1529.0,1529.0,1533.0,1531.0,1000.0,1532.0,1525.0,1520.0,0.0,0.0,0.0,0.0,0.0,0.0,0.0,0.0
70798989,8,1529.0,1529.0,1532.0,1531.0,1000.0,1532.0,1525.0,1520.0,0.0,0.0,0.0,0.0,0.0,0.0,0.0,0.0
70821097,8,1529.0,1529.0,1532.0,1530.0,1000.0,1531.0,1525.0,1520.0,0.0,0.0,0.0,0.0,0.0,0.0,0.0,0.0
70847291,8,1529.0,1529.0,1532.0,1531.0,1000.0,1531.0,1525.0,1520.0,0.0,0.0,0.0,0.0,0.0,0.0,0.0,0.0
70870842,8,1529.0,1529.0,1533.0,1531.0,1000.0,1532.0,1525.0,1520.0,0.0,0.0,0.0,0.0,0.0,0.0,0.0,0.0
70890882,8,1529.0,1529.0,1533.0,1532.0,1000.0,1532.0,1525.0,1520.0,0.0,0.0,0.0,0.0,0.0,0.0,0.0,0.0
70916469,8,1529.0,1529.0,1533.0,1533.0,1000.0,1533.0,1525.0,1520.0,0.0,0.0,0.0,0.0,0.0,0.0,0.0,0.0
70936529,8,1529.0,1529.0,1533.0,1533.0,1000.0,1533.0,1525.0,1520.0,0.0,0.0,0.0,0.0,0.0,0.0,0.0,0.0
70961125,8,1529.0,1529.0,1533.0,1532.0,1000.0,1533.0,1525.0,1520.0,0.0,0.0,0.0,0.0,0.0,0.0,0.0,0.0
70986522,8,1529.0,1529.0,1533.0,1532.0,1000.0,1532.0,1525.0,1520.0,0.0,0.0,0.0,0.0,0.0,0.0,0.0,0.0
71015577,8,1529.0,1529.0,1533.0,1532.0,1000.0,1532.0,1525.0,1520.0,0.0,0.0,0.0,0.0,0.0,0.0,0.0,0.0
71030846,8,1529.0,1529.0,1533.0,1532.0,1000.0,1533.0,1525.0,1520.0,0.0,0.0,0.0,0.0,0.0,0.0,0.0,0.0
71050853,8,1529.0,1529.0,1534.0,1532.0,1000.0,1533.0,1525.0,1520.0,0.0,0.0,0.0,0.0,0.0,0.0,0.0,0.0
71071028,8,1529.0,1529.0,1534.0,1533.0,1000.0,1533.0,1525.0,1520.0,0.0,0.0,0.0,0.0,0.0,0.0,0.0,0.0
71096669,8,1529.0,1529.0,1533.0,1533.0,1000.0,1533.0,1525.0,1520.0,0.0,0.0,0.0,0.0,0.0,0.0,0.0,0.0
71116542,8,1529.0,1529.0,1533.0,1533.0,1000.0,1533.0,1525.0,1520.0,0.0,0.0,0.0,0.0,0.0,0.0,0.0,0.0
71141173,8,1529.0,1529.0,1532.0,1533.0,1000.0,1533.0,1525.0,1520.0,0.0,0.0,0.0,0.0,0.0,0.0,0.0,0.0
71167411,8,1530.0,1530.0,1532.0,1533.0,1000.0,1533.0,1525.0,1520.0,0.0,0.0,0.0,0.0,0.0,0.0,0.0,0.0
71190536,8,1530.0,1530.0,1532.0,1533.0,1000.0,1533.0,1525.0,1520.0,0.0,0.0,0.0,0.0,0.0,0.0,0.0,0.0
71216490,8,1528.0,1528.0,1532.0,1533.0,1000.0,1533.0,1525.0,1520.0,0.0,0.0,0.0,0.0,0.0,0.0,0.0,0.0
71236513,8,1528.0,1528.0,1532.0,1533.0,1000.0,1533.0,1525.0,1520.0,0.0,0.0,0.0,0.0,0.0,0.0,0.0,0.0
71260644,8,1526.0,1526.0,1532.0,1533.0,1000.0,1532.0,1525.0,1520.0,0.0,0.0,0.0,0.0,0.0,0.0,0.0,0.0
71280684,8,1513.0,1513.0,1531.0,1532.0,1000.0,1532.0,1525.0,1520.0,0.0,0.0,0.0,0.0,0.0,0.0,0.0,0.0
71300566,8,1502.0,1502.0,1532.0,1532.0,1000.0,1532.0,1525.0,1520.0,0.0,0.0,0.0,0.0,0.0,0.0,0.0,0.0
71320624,8,1483.0,1483.0,1532.0,1531.0,1000.0,1532.0,1525.0,1520.0,0.0,0.0,0.0,0.0,0.0,0.0,0.0,0.0
71340986,8,1456.0,1456.0,1532.0,1531.0,1000.0,1532.0,1525.0,1520.0,0.0,0.0,0.0,0.0,0.0,0.0,0.0,0.0
71367211,8,1375.0,1375.0,1533.0,1531.0,1000.0,1532.0,1525.0,1520.0,0.0,0.0,0.0,0.0,0.0,0.0,0.0,0.0
71387232,8,1316.0,1316.0,1533.0,1532.0,1000.0,1532.0,1525.0,1520.0,0.0,0.0,0.0,0.0,0.0,0.0,0.0,0.0
71410556,8,1299.0,1299.0,1533.0,1532.0,1000.0,1532.0,1525.0,1520.0,0.0,0.0,0.0,0.0,0.0,0.0,0.0,0.0
71430573,8,1264.0,1264.0,1533.0,1532.0,1000.0,1532.0,1525.0,1520.0,0.0,0.0,0.0,0.0,0.0,0.0,0.0,0.0
71450582,8,1256.0,1256.0,1533.0,1531.0,1000.0,1532.0,1525.0,1520.0,0.0,0.0,0.0,0.0,0.0,0.0,0.0,0.0
71476499,8,1252.0,1252.0,1534.0,1530.0,1000.0,1532.0,1525.0,1520.0,0.0,0.0,0.0,0.0,0.0,0.0,0.0,0.0
71497307,8,1250.0,1250.0,1535.0,1529.0,1000.0,1532.0,1525.0,1520.0,0.0,0.0,0.0,0.0,0.0,0.0,0.0,0.0
71520979,8,1317.0,1317.0,1534.0,1530.0,1000.0,1532.0,1525.0,1520.0,0.0,0.0,0.0,0.0,0.0,0.0,0.0,0.0
71540972,8,1346.0,1346.0,1534.0,1531.0,1000.0,1532.0,1525.0,1520.0,0.0,0.0,0.0,0.0,0.0,0.0,0.0,0.0
71567253,8,1422.0,1422.0,1532.0,1533.0,1000.0,1533.0,1525.0,1520.0,0.0,0.0,0.0,0.0,0.0,0.0,0.0,0.0
71590834,8,1485.0,1485.0,1533.0,1532.0,1000.0,1532.0,1525.0,1520.0,0.0,0.0,0.0,0.0,0.0,0.0,0.0,0.0
71616575,8,1548.0,1548.0,1533.0,1530.0,1000.0,1532.0,1525.0,1520.0,0.0,0.0,0.0,0.0,0.0,0.0,0.0,0.0
71640901,8,1575.0,1575.0,1534.0,1530.0,1000.0,1532.0,1525.0,1520.0,0.0,0.0,0.0,0.0,0.0,0.0,0.0,0.0
71667395,8,1656.0,1656.0,1534.0,1533.0,1000.0,1533.0,1525.0,1520.0,0.0,0.0,0.0,0.0,0.0,0.0,0.0,0.0
71687387,8,1751.0,1751.0,1535.0,1533.0,1000.0,1534.0,1525.0,1520.0,0.0,0.0,0.0,0.0,0.0,0.0,0.0,0.0
71707318,8,1787.0,1787.0,1535.0,1534.0,1000.0,1534.0,1525.0,1520.0,0.0,0.0,0.0,0.0,0.0,0.0,0.0,0.0
71730483,8,1871.0,1871.0,1534.0,1534.0,1000.0,1534.0,1525.0,1520.0,0.0,0.0,0.0,0.0,0.0,0.0,0.0,0.0
71751013,8,1904.0,1904.0,1535.0,1532.0,1000.0,1533.0,1525.0,1520.0,0.0,0.0,0.0,0.0,0.0,0.0,0.0,0.0
71776430,8,1909.0,1909.0,1533.0,1532.0,1000.0,1533.0,1525.0,1520.0,0.0,0.0,0.0,0.0,0.0,0.0,0.0,0.0
71798277,8,1864.0,1864.0,1533.0,1533.0,1000.0,1533.0,1525.0,1520.0,0.0,0.0,0.0,0.0,0.0,0.0,0.0,0.0
71820879,8,1826.0,1826.0,1533.0,1533.0,1000.0,1533.0,1525.0,1520.0,0.0,0.0,0.0,0.0,0.0,0.0,0.0,0.0
71847008,8,1696.0,1696.0,1534.0,1532.0,1000.0,1533.0,1525.0,1520.0,0.0,0.0,0.0,0.0,0.0,0.0,0.0,0.0
71867328,8,1565.0,1565.0,1534.0,1533.0,1000.0,1533.0,1525.0,1520.0,0.0,0.0,0.0,0.0,0.0,0.0,0.0,0.0
71890578,8,1522.0,1522.0,1533.0,1533.0,1000.0,1533.0,1525.0,1520.0,0.0,0.0,0.0,0.0,0.0,0.0,0.0,0.0
71916562,8,1466.0,1466.0,1533.0,1533.0,1000.0,1533.0,1525.0,1520.0,0.0,0.0,0.0,0.0,0.0,0.0,0.0,0.0
71940956,8,1413.0,1413.0,1532.0,1533.0,1000.0,1533.0,1525.0,1520.0,0.0,0.0,0.0,0.0,0.0,0.0,0.0,0.0
71967433,8,1369.0,1369.0,1533.0,1533.0,1000.0,1533.0,1525.0,1520.0,0.0,0.0,0.0,0.0,0.0,0.0,0.0,0.0
71990505,8,1339.0,1339.0,1533.0,1533.0,1000.0,1533.0,1525.0,1520.0,0.0,0.0,0.0,0.0,0.0,0.0,0.0,0.0
72024899,8,1327.0,1327.0,1533.0,1533.0,1000.0,1533.0,1525.0,1520.0,0.0,0.0,0.0,0.0,0.0,0.0,0.0,0.0
72036666,8,1397.0,1397.0,1532.0,1533.0,1000.0,1533.0,1525.0,1520.0,0.0,0.0,0.0,0.0,0.0,0.0,0.0,0.0
72060936,8,1432.0,1432.0,1532.0,1533.0,1000.0,1533.0,1525.0,1520.0,0.0,0.0,0.0,0.0,0.0,0.0,0.0,0.0
72080931,8,1528.0,1528.0,1533.0,1533.0,1000.0,1533.0,1525.0,1520.0,0.0,0.0,0.0,0.0,0.0,0.0,0.0,0.0
72100993,8,1569.0,1569.0,1532.0,1533.0,1000.0,1532.0,1525.0,1520.0,0.0,0.0,0.0,0.0,0.0,0.0,0.0,0.0
72121044,8,1683.0,1683.0,1532.0,1533.0,1000.0,1532.0,1525.0,1520.0,0.0,0.0,0.0,0.0,0.0,0.0,0.0,0.0
72147414,8,1719.0,1719.0,1531.0,1532.0,1000.0,1532.0,1525.0,1520.0,0.0,0.0,0.0,0.0,0.0,0.0,0.0,0.0
72170556,8,1802.0,1802.0,1531.0,1532.0,1000.0,1531.0,1525.0,1520.0,0.0,0.0,0.0,0.0,0.0,0.0,0.0,0.0
72198808,8,1830.0,1830.0,1531.0,1531.0,1000.0,1531.0,1525.0,1520.0,0.0,0.0,0.0,0.0,0.0,0.0,0.0,0.0
72220557,8,1821.0,1821.0,1531.0,1532.0,1000.0,1532.0,1525.0,1520.0,0.0,0.0,0.0,0.0,0.0,0.0,0.0,0.0
72240538,8,1783.0,1783.0,1531.0,1532.0,1000.0,1532.0,1525.0,1520.0,0.0,0.0,0.0,0.0,0.0,0.0,0.0,0.0
72260991,8,1623.0,1623.0,1531.0,1533.0,1000.0,1532.0,1525.0,1520.0,0.0,0.0,0.0,0.0,0.0,0.0,0.0,0.0
72287181,8,1562.0,1562.0,1531.0,1533.0,1000.0,1532.0,1525.0,1520.0,0.0,0.0,0.0,0.0,0.0,0.0,0.0,0.0
72310563,8,1449.0,1449.0,1531.0,1533.0,1000.0,1532.0,1525.0,1520.0,0.0,0.0,0.0,0.0,0.0,0.0,0.0,0.0
72330580,8,1338.0,1338.0,1531.0,1533.0,1000.0,1532.0,1525.0,1520.0,0.0,0.0,0.0,0.0,0.0,0.0,0.0,0.0
72356568,8,1301.0,1301.0,1531.0,1533.0,1000.0,1532.0,1525.0,1520.0,0.0,0.0,0.0,0.0,0.0,0.0,0.0,0.0
72376718,8,1217.0,1217.0,1532.0,1533.0,1000.0,1532.0,1525.0,1520.0,0.0,0.0,0.0,0.0,0.0,0.0,0.0,0.0
72398537,8,1189.0,1189.0,1532.0,1533.0,1000.0,1532.0,1525.0,1520.0,0.0,0.0,0.0,0.0,0.0,0.0,0.0,0.0
72421027,8,1178.0,1178.0,1532.0,1533.0,1000.0,1533.0,1525.0,1520.0,0.0,0.0,0.0,0.0,0.0,0.0,0.0,0.0
72446919,8,1186.0,1186.0,1532.0,1533.0,1000.0,1533.0,1525.0,1520.0,0.0,0.0,0.0,0.0,0.0,0.0,0.0,0.0
72466646,8,1254.0,1254.0,1533.0,1533.0,1000.0,1533.0,1525.0,1520.0,0.0,0.0,0.0,0.0,0.0,0.0,0.0,0.0
72486949,8,1322.0,1322.0,1533.0,1532.0,1000.0,1532.0,1525.0,1520.0,0.0,0.0,0.0,0.0,0.0,0.0,0.0,0.0
72511184,8,1501.0,1501.0,1532.0,1532.0,1000.0,1532.0,1525.0,1520.0,0.0,0.0,0.0,0.0,0.0,0.0,0.0,0.0
72531108,8,1557.0,1557.0,1534.0,1530.0,1000.0,1532.0,1525.0,1520.0,0.0,0.0,0.0,0.0,0.0,0.0,0.0,0.0
72550953,8,1686.0,1686.0,1534.0,1530.0,1000.0,1532.0,1525.0,1520.0,0.0,0.0,0.0,0.0,0.0,0.0,0.0,0.0
72576522,8,1723.0,1723.0,1534.0,1530.0,1000.0,1532.0,1525.0,1520.0,0.0,0.0,0.0,0.0,0.0,0.0,0.0,0.0
72598344,8,1794.0,1794.0,1533.0,1531.0,1000.0,1532.0,1525.0,1520.0,0.0,0.0,0.0,0.0,0.0,0.0,0.0,0.0
72620998,8,1811.0,1811.0,1533.0,1531.0,1000.0,1532.0,1525.0,1520.0,0.0,0.0,0.0,0.0,0.0,0.0,0.0,0.0
72646727,8,1830.0,1830.0,1534.0,1532.0,1000.0,1533.0,1525.0,1520.0,0.0,0.0,0.0,0.0,0.0,0.0,0.0,0.0
72671158,8,1806.0,1806.0,1534.0,1533.0,1000.0,1533.0,1525.0,1520.0,0.0,0.0,0.0,0.0,0.0,0.0,0.0,0.0
72690644,8,1732.0,1732.0,1533.0,1534.0,1000.0,1533.0,1525.0,1520.0,0.0,0.0,0.0,0.0,0.0,0.0,0.0,0.0
72716545,8,1679.0,1679.0,1532.0,1534.0,1000.0,1533.0,1525.0,1520.0,0.0,0.0,0.0,0.0,0.0,0.0,0.0,0.0
72740989,8,1518.0,1518.0,1531.0,1533.0,1000.0,1532.0,1525.0,1520.0,0.0,0.0,0.0,0.0,0.0,0.0,0.0,0.0
72766603,8,1409.0,1409.0,1531.0,1533.0,1000.0,1532.0,1525.0,1520.0,0.0,0.0,0.0,0.0,0.0,0.0,0.0,0.0
72790654,8,1325.0,1325.0,1531.0,1533.0,1000.0,1532.0,1525.0,1520.0,0.0,0.0,0.0,0.0,0.0,0.0,0.0,0.0
72811042,8,1272.0,1272.0,1531.0,1533.0,1000.0,1532.0,1525.0,1520.0,0.0,0.0,0.0,0.0,0.0,0.0,0.0,0.0
72836518,8,1250.0,1250.0,1530.0,1534.0,1000.0,1532.0,1525.0,1520.0,0.0,0.0,0.0,0.0,0.0,0.0,0.0,0.0
72856708,8,1291.0,1291.0,1530.0,1534.0,1000.0,1532.0,1525.0,1520.0,0.0,0.0,0.0,0.0,0.0,0.0,0.0,0.0
72880643,8,1344.0,1344.0,1529.0,1534.0,1000.0,1531.0,1525.0,1520.0,0.0,0.0,0.0,0.0,0.0,0.0,0.0,0.0
72900603,8,1501.0,1501.0,1529.0,1533.0,1000.0,1531.0,1525.0,1520.0,0.0,0.0,0.0,0.0,0.0,0.0,0.0,0.0
72921116,8,1545.0,1545.0,1530.0,1531.0,1000.0,1530.0,1525.0,1520.0,0.0,0.0,0.0,0.0,0.0,0.0,0.0,0.0
72941075,8,1656.0,1656.0,1530.0,1531.0,1000.0,1530.0,1525.0,1520.0,0.0,0.0,0.0,0.0,0.0,0.0,0.0,0.0
72967054,8,1676.0,1676.0,1532.0,1529.0,1000.0,1531.0,1525.0,1520.0,0.0,0.0,0.0,0.0,0.0,0.0,0.0,0.0
72991027,8,1698.0,1698.0,1533.0,1532.0,1000.0,1532.0,1525.0,1520.0,0.0,0.0,0.0,0.0,0.0,0.0,0.0,0.0
73011140,8,1677.0,1677.0,1533.0,1535.0,1000.0,1534.0,1525.0,1520.0,0.0,0.0,0.0,0.0,0.0,0.0,0.0,0.0
73039303,8,1626.0,1626.0,1534.0,1535.0,1000.0,1534.0,1525.0,1520.0,0.0,0.0,0.0,0.0,0.0,0.0,0.0,0.0
73056532,8,1535.0,1535.0,1534.0,1535.0,1000.0,1534.0,1525.0,1520.0,0.0,0.0,0.0,0.0,0.0,0.0,0.0,0.0
73076793,8,1519.0,1519.0,1533.0,1534.0,1000.0,1533.0,1525.0,1520.0,0.0,0.0,0.0,0.0,0.0,0.0,0.0,0.0
73101085,8,1513.0,1513.0,1533.0,1532.0,1000.0,1533.0,1525.0,1520.0,0.0,0.0,0.0,0.0,0.0,0.0,0.0,0.0
73120986,8,1512.0,1512.0,1532.0,1532.0,1000.0,1532.0,1525.0,1520.0,0.0,0.0,0.0,0.0,0.0,0.0,0.0,0.0
73146648,8,1512.0,1512.0,1531.0,1533.0,1000.0,1532.0,1525.0,1520.0,0.0,0.0,0.0,0.0,0.0,0.0,0.0,0.0
73170652,8,1509.0,1509.0,1531.0,1534.0,1000.0,1532.0,1525.0,1520.0,0.0,0.0,0.0,0.0,0.0,0.0,0.0,0.0
73190613,8,1529.0,1529.0,1532.0,1533.0,1000.0,1532.0,1525.0,1520.0,0.0,0.0,0.0,0.0,0.0,0.0,0.0,0.0
73210607,8,1529.0,1529.0,1533.0,1532.0,1000.0,1533.0,1525.0,1520.0,0.0,0.0,0.0,0.0,0.0,0.0,0.0,0.0
73230528,8,1529.0,1529.0,1534.0,1531.0,1000.0,1533.0,1525.0,1520.0,0.0,0.0,0.0,0.0,0.0,0.0,0.0,0.0
73256494,8,1530.0,1530.0,1521.0,1544.0,1000.0,1533.0,1525.0,1520.0,0.0,0.0,0.0,0.0,0.0,0.0,0.0,0.0
73276636,8,1529.0,1529.0,1497.0,1569.0,1000.0,1533.0,1525.0,1520.0,0.0,0.0,0.0,0.0,0.0,0.0,0.0,0.0
73296530,8,1529.0,1529.0,1422.0,1643.0,1000.0,1533.0,1525.0,1520.0,0.0,0.0,0.0,0.0,0.0,0.0,0.0,0.0
73316500,8,1529.0,1529.0,1369.0,1697.0,1000.0,1533.0,1525.0,1520.0,0.0,0.0,0.0,0.0,0.0,0.0,0.0,0.0
73340953,8,1528.0,1528.0,1133.0,1933.0,1000.0,1533.0,1525.0,1520.0,0.0,0.0,0.0,0.0,0.0,0.0,0.0,0.0
73367102,8,1529.0,1529.0,1132.0,1932.0,1000.0,1532.0,1525.0,1520.0,0.0,0.0,0.0,0.0,0.0,0.0,0.0,0.0
73390573,8,1527.0,1527.0,1131.0,1931.0,1000.0,1531.0,1525.0,1520.0,0.0,0.0,0.0,0.0,0.0,0.0,0.0,0.0
73410959,8,1527.0,1527.0,1131.0,1931.0,1000.0,1531.0,1525.0,1520.0,0.0,0.0,0.0,0.0,0.0,0.0,0.0,0.0
73436458,8,1527.0,1527.0,1132.0,1932.0,1000.0,1532.0,1525.0,1520.0,0.0,0.0,0.0,0.0,0.0,0.0,0.0,0.0
73460975,8,1527.0,1527.0,1133.0,1933.0,1000.0,1533.0,1525.0,1520.0,0.0,0.0,0.0,0.0,0.0,0.0,0.0,0.0
73480565,8,1527.0,1527.0,1134.0,1934.0,1000.0,1534.0,1525.0,1520.0,0.0,0.0,0.0,0.0,0.0,0.0,0.0,0.0
73500655,8,1526.0,1526.0,1222.0,1845.0,1000.0,1534.0,1525.0,1520.0,0.0,0.0,0.0,0.0,0.0,0.0,0.0,0.0
73527018,8,1526.0,1526.0,1362.0,1705.0,1000.0,1533.0,1525.0,1520.0,0.0,0.0,0.0,0.0,0.0,0.0,0.0,0.0
73550576,8,1526.0,1526.0,1489.0,1576.0,1000.0,1533.0,1525.0,1520.0,0.0,0.0,0.0,0.0,0.0,0.0,0.0,0.0
73576464,8,1526.0,1526.0,1538.0,1528.0,1000.0,1533.0,1525.0,1520.0,0.0,0.0,0.0,0.0,0.0,0.0,0.0,0.0
73598690,8,1526.0,1526.0,1564.0,1503.0,1000.0,1534.0,1525.0,1520.0,0.0,0.0,0.0,0.0,0.0,0.0,0.0,0.0
73621019,8,1526.0,1526.0,1673.0,1391.0,1000.0,1532.0,1525.0,1520.0,0.0,0.0,0.0,0.0,0.0,0.0,0.0,0.0
73640920,8,1526.0,1526.0,1770.0,1294.0,1000.0,1532.0,1525.0,1520.0,0.0,0.0,0.0,0.0,0.0,0.0,0.0,0.0
73660969,8,1526.0,1526.0,1888.0,1177.0,1000.0,1532.0,1525.0,1520.0,0.0,0.0,0.0,0.0,0.0,0.0,0.0,0.0
73686488,8,1527.0,1527.0,1933.0,1133.0,1000.0,1533.0,1525.0,1520.0,0.0,0.0,0.0,0.0,0.0,0.0,0.0,0.0
73711020,8,1527.0,1527.0,1933.0,1133.0,1000.0,1533.0,1525.0,1520.0,0.0,0.0,0.0,0.0,0.0,0.0,0.0,0.0
73736553,8,1527.0,1527.0,1932.0,1132.0,1000.0,1532.0,1525.0,1520.0,0.0,0.0,0.0,0.0,0.0,0.0,0.0,0.0
73756605,8,1528.0,1528.0,1932.0,1132.0,1000.0,1532.0,1525.0,1520.0,0.0,0.0,0.0,0.0,0.0,0.0,0.0,0.0
73776624,8,1528.0,1528.0,1932.0,1132.0,1000.0,1532.0,1525.0,1520.0,0.0,0.0,0.0,0.0,0.0,0.0,0.0,0.0
73798866,8,1528.0,1528.0,1932.0,1132.0,1000.0,1532.0,1525.0,1520.0,0.0,0.0,0.0,0.0,0.0,0.0,0.0,0.0
73820554,8,1529.0,1529.0,1933.0,1133.0,1000.0,1533.0,1525.0,1520.0,0.0,0.0,0.0,0.0,0.0,0.0,0.0,0.0
73841022,8,1529.0,1529.0,1804.0,1261.0,1000.0,1533.0,1525.0,1520.0,0.0,0.0,0.0,0.0,0.0,0.0,0.0,0.0
73860968,8,1529.0,1529.0,1738.0,1323.0,1000.0,1531.0,1525.0,1520.0,0.0,0.0,0.0,0.0,0.0,0.0,0.0,0.0
73886839,8,1529.0,1529.0,1576.0,1477.0,1000.0,1527.0,1525.0,1520.0,0.0,0.0,0.0,0.0,0.0,0.0,0.0,0.0
73910616,8,1529.0,1529.0,1536.0,1514.0,1000.0,1525.0,1525.0,1520.0,0.0,0.0,0.0,0.0,0.0,0.0,0.0,0.0
73931006,8,1529.0,1529.0,1409.0,1637.0,1000.0,1523.0,1525.0,1520.0,0.0,0.0,0.0,0.0,0.0,0.0,0.0,0.0
73956424,8,1529.0,1529.0,1272.0,1771.0,1000.0,1521.0,1525.0,1520.0,0.0,0.0,0.0,0.0,0.0,0.0,0.0,0.0
73980536,8,1529.0,1529.0,1117.0,1917.0,1000.0,1517.0,1525.0,1520.0,0.0,0.0,0.0,0.0,0.0,0.0,0.0,0.0
74001138,8,1529.0,1529.0,1110.0,1910.0,1000.0,1510.0,1525.0,1520.0,0.0,0.0,0.0,0.0,0.0,0.0,0.0,0.0
74026955,8,1528.0,1528.0,1104.0,1904.0,1000.0,1504.0,1525.0,1520.0,0.0,0.0,0.0,0.0,0.0,0.0,0.0,0.0
74059372,8,1528.0,1528.0,1111.0,1911.0,1000.0,1511.0,1525.0,1520.0,0.0,0.0,0.0,0.0,0.0,0.0,0.0,0.0
74070887,8,1528.0,1528.0,1195.0,1844.0,1000.0,1520.0,1525.0,1520.0,0.0,0.0,0.0,0.0,0.0,0.0,0.0,0.0
74090923,8,1527.0,1527.0,1385.0,1666.0,1000.0,1526.0,1525.0,1520.0,0.0,0.0,0.0,0.0,0.0,0.0,0.0,0.0
74116547,8,1527.0,1527.0,1453.0,1600.0,1000.0,1527.0,1525.0,1520.0,0.0,0.0,0.0,0.0,0.0,0.0,0.0,0.0
74140954,8,1527.0,1527.0,1530.0,1530.0,1000.0,1530.0,1525.0,1520.0,0.0,0.0,0.0,0.0,0.0,0.0,0.0,0.0
74166497,8,1527.0,1527.0,1532.0,1532.0,1000.0,1532.0,1525.0,1520.0,0.0,0.0,0.0,0.0,0.0,0.0,0.0,0.0
74186510,8,1526.0,1526.0,1532.0,1533.0,1000.0,1532.0,1525.0,1520.0,0.0,0.0,0.0,0.0,0.0,0.0,0.0,0.0
74210577,8,1526.0,1526.0,1533.0,1533.0,1000.0,1533.0,1525.0,1520.0,0.0,0.0,0.0,0.0,0.0,0.0,0.0,0.0
74230991,8,1526.0,1526.0,1533.0,1532.0,1000.0,1533.0,1525.0,1520.0,0.0,0.0,0.0,0.0,0.0,0.0,0.0,0.0
74251029,8,1526.0,1526.0,1533.0,1532.0,1000.0,1532.0,1525.0,1520.0,0.0,0.0,0.0,0.0,0.0,0.0,0.0,0.0
74270962,8,1526.0,1526.0,1539.0,1538.0,1000.0,1538.0,1525.0,1520.0,0.0,0.0,0.0,0.0,0.0,0.0,0.0,0.0
74296535,8,1526.0,1526.0,1550.0,1550.0,1000.0,1550.0,1525.0,1520.0,0.0,0.0,0.0,0.0,0.0,0.0,0.0,0.0
74316497,8,1526.0,1526.0,1599.0,1598.0,1000.0,1598.0,1525.0,1520.0,0.0,0.0,0.0,0.0,0.0,0.0,0.0,0.0
74341051,8,1526.0,1526.0,1619.0,1618.0,1000.0,1619.0,1525.0,1520.0,0.0,0.0,0.0,0.0,0.0,0.0,0.0,0.0
74366975,8,1527.0,1527.0,1681.0,1680.0,1000.0,1681.0,1525.0,1520.0,0.0,0.0,0.0,0.0,0.0,0.0,0.0,0.0
74390954,8,1527.0,1527.0,1721.0,1720.0,1000.0,1720.0,1525.0,1520.0,0.0,0.0,0.0,0.0,0.0,0.0,0.0,0.0
74411117,8,1527.0,1527.0,1720.0,1721.0,1000.0,1721.0,1525.0,1520.0,0.0,0.0,0.0,0.0,0.0,0.0,0.0,0.0
74436616,8,1528.0,1528.0,1720.0,1721.0,1000.0,1721.0,1525.0,1520.0,0.0,0.0,0.0,0.0,0.0,0.0,0.0,0.0
74460972,8,1528.0,1528.0,1704.0,1704.0,1000.0,1704.0,1525.0,1520.0,0.0,0.0,0.0,0.0,0.0,0.0,0.0,0.0
74480986,8,1528.0,1528.0,1639.0,1650.0,1000.0,1645.0,1525.0,1520.0,0.0,0.0,0.0,0.0,0.0,0.0,0.0,0.0
74501033,8,1528.0,1528.0,1614.0,1637.0,1000.0,1625.0,1525.0,1520.0,0.0,0.0,0.0,0.0,0.0,0.0,0.0,0.0
74527311,8,1528.0,1528.0,1579.0,1604.0,1000.0,1591.0,1525.0,1520.0,0.0,0.0,0.0,0.0,0.0,0.0,0.0,0.0
74547330,8,1528.0,1528.0,1553.0,1567.0,1000.0,1560.0,1525.0,1520.0,0.0,0.0,0.0,0.0,0.0,0.0,0.0,0.0
74570478,8,1528.0,1528.0,1512.0,1512.0,1000.0,1512.0,1525.0,1520.0,0.0,0.0,0.0,0.0,0.0,0.0,0.0,0.0
74591037,8,1528.0,1528.0,1499.0,1500.0,1000.0,1499.0,1525.0,1520.0,0.0,0.0,0.0,0.0,0.0,0.0,0.0,0.0
74616427,8,1528.0,1528.0,1457.0,1457.0,1000.0,1457.0,1525.0,1520.0,0.0,0.0,0.0,0.0,0.0,0.0,0.0,0.0
74640929,8,1528.0,1528.0,1333.0,1358.0,1000.0,1346.0,1525.0,1520.0,0.0,0.0,0.0,0.0,0.0,0.0,0.0,0.0
74660894,8,1528.0,1528.0,1301.0,1335.0,1000.0,1318.0,1525.0,1520.0,0.0,0.0,0.0,0.0,0.0,0.0,0.0,0.0
74687185,8,1528.0,1528.0,1300.0,1334.0,1000.0,1317.0,1525.0,1520.0,0.0,0.0,0.0,0.0,0.0,0.0,0.0,0.0
74711094,8,1528.0,1528.0,1304.0,1330.0,1000.0,1317.0,1525.0,1520.0,0.0,0.0,0.0,0.0,0.0,0.0,0.0,0.0
74730923,8,1528.0,1528.0,1304.0,1329.0,1000.0,1317.0,1525.0,1520.0,0.0,0.0,0.0,0.0,0.0,0.0,0.0,0.0
74756523,8,1527.0,1527.0,1297.0,1337.0,1000.0,1317.0,1525.0,1520.0,0.0,0.0,0.0,0.0,0.0,0.0,0.0,0.0
74780889,8,1527.0,1527.0,1397.0,1417.0,1000.0,1407.0,1525.0,1520.0,0.0,0.0,0.0,0.0,0.0,0.0,0.0,0.0
74800965,8,1527.0,1527.0,1432.0,1451.0,1000.0,1442.0,1525.0,1520.0,0.0,0.0,0.0,0.0,0.0,0.0,0.0,0.0
74826994,8,1527.0,1527.0,1514.0,1515.0,1000.0,1515.0,1525.0,1520.0,0.0,0.0,0.0,0.0,0.0,0.0,0.0,0.0
74850984,8,1527.0,1527.0,1554.0,1555.0,1000.0,1555.0,1525.0,1520.0,0.0,0.0,0.0,0.0,0.0,0.0,0.0,0.0
74870990,8,1527.0,1527.0,1585.0,1584.0,1000.0,1585.0,1525.0,1520.0,0.0,0.0,0.0,0.0,0.0,0.0,0.0,0.0
74891094,8,1527.0,1527.0,1612.0,1612.0,1000.0,1612.0,1525.0,1520.0,0.0,0.0,0.0,0.0,0.0,0.0,0.0,0.0
74916612,8,1527.0,1527.0,1634.0,1637.0,1000.0,1636.0,1525.0,1520.0,0.0,0.0,0.0,0.0,0.0,0.0,0.0,0.0
74941072,8,1527.0,1527.0,1652.0,1657.0,1000.0,1654.0,1525.0,1520.0,0.0,0.0,0.0,0.0,0.0,0.0,0.0,0.0
74961044,8,1527.0,1527.0,1670.0,1670.0,1000.0,1670.0,1525.0,1520.0,0.0,0.0,0.0,0.0,0.0,0.0,0.0,0.0
74981027,8,1527.0,1527.0,1658.0,1658.0,1000.0,1658.0,1525.0,1520.0,0.0,0.0,0.0,0.0,0.0,0.0,0.0,0.0
75008859,8,1527.0,1527.0,1646.0,1645.0,1000.0,1645.0,1525.0,1520.0,0.0,0.0,0.0,0.0,0.0,0.0,0.0,0.0
75031074,8,1527.0,1527.0,1586.0,1585.0,1000.0,1585.0,1525.0,1520.0,0.0,0.0,0.0,0.0,0.0,0.0,0.0,0.0
75051040,8,1527.0,1527.0,1571.0,1570.0,1000.0,1571.0,1525.0,1520.0,0.0,0.0,0.0,0.0,0.0,0.0,0.0,0.0
75085591,8,1527.0,1527.0,1548.0,1534.0,1000.0,1541.0,1525.0,1520.0,0.0,0.0,0.0,0.0,0.0,0.0,0.0,0.0
75101079,8,1527.0,1527.0,1533.0,1533.0,1000.0,1533.0,1525.0,1520.0,0.0,0.0,0.0,0.0,0.0,0.0,0.0,0.0
75121029,8,1528.0,1528.0,1533.0,1532.0,1000.0,1533.0,1525.0,1520.0,0.0,0.0,0.0,0.0,0.0,0.0,0.0,0.0
75147270,8,1528.0,1528.0,1533.0,1532.0,1000.0,1532.0,1525.0,1520.0,0.0,0.0,0.0,0.0,0.0,0.0,0.0,0.0
75171202,8,1528.0,1528.0,1532.0,1532.0,1000.0,1532.0,1525.0,1520.0,0.0,0.0,0.0,0.0,0.0,0.0,0.0,0.0
75199090,8,1528.0,1528.0,1532.0,1532.0,1000.0,1532.0,1525.0,1520.0,0.0,0.0,0.0,0.0,0.0,0.0,0.0,0.0
75221050,8,1528.0,1528.0,1532.0,1532.0,1000.0,1532.0,1525.0,1520.0,0.0,0.0,0.0,0.0,0.0,0.0,0.0,0.0
75247526,8,1528.0,1528.0,1532.0,1533.0,1000.0,1533.0,1525.0,1520.0,0.0,0.0,0.0,0.0,0.0,0.0,0.0,0.0
75271045,8,1528.0,1528.0,1532.0,1533.0,1000.0,1533.0,1525.0,1520.0,0.0,0.0,0.0,0.0,0.0,0.0,0.0,0.0
75291018,8,1528.0,1528.0,1533.0,1533.0,1000.0,1533.0,1525.0,1520.0,0.0,0.0,0.0,0.0,0.0,0.0,0.0,0.0
75316590,8,1528.0,1528.0,1533.0,1532.0,1000.0,1533.0,1525.0,1520.0,0.0,0.0,0.0,0.0,0.0,0.0,0.0,0.0
75341119,8,1528.0,1528.0,1533.0,1532.0,1000.0,1533.0,1525.0,1520.0,0.0,0.0,0.0,0.0,0.0,0.0,0.0,0.0
75367117,8,1528.0,1528.0,1532.0,1532.0,1000.0,1532.0,1525.0,1520.0,0.0,0.0,0.0,0.0,0.0,0.0,0.0,0.0
75387158,8,1528.0,1528.0,1532.0,1533.0,1000.0,1532.0,1525.0,1520.0,0.0,0.0,0.0,0.0,0.0,0.0,0.0,0.0
75407313,8,1527.0,1527.0,1532.0,1532.0,1000.0,1532.0,1525.0,1520.0,0.0,0.0,0.0,0.0,0.0,0.0,0.0,0.0
75431088,8,1528.0,1528.0,1533.0,1532.0,1000.0,1532.0,1525.0,1520.0,0.0,0.0,0.0,0.0,0.0,0.0,0.0,0.0
75456495,8,1527.0,1527.0,1533.0,1532.0,1000.0,1533.0,1525.0,1520.0,0.0,0.0,0.0,0.0,0.0,0.0,0.0,0.0
75480645,8,1527.0,1527.0,1533.0,1532.0,1000.0,1533.0,1525.0,1520.0,0.0,0.0,0.0,0.0,0.0,0.0,0.0,0.0
75500643,8,1527.0,1527.0,1532.0,1533.0,1000.0,1532.0,1525.0,1520.0,0.0,0.0,0.0,0.0,0.0,0.0,0.0,0.0
75527213,8,1527.0,1527.0,1532.0,1532.0,1000.0,1532.0,1525.0,1520.0,0.0,0.0,0.0,0.0,0.0,0.0,0.0,0.0
75547094,8,1527.0,1527.0,1532.0,1532.0,1000.0,1532.0,1525.0,1520.0,0.0,0.0,0.0,0.0,0.0,0.0,0.0,0.0
75567494,8,1527.0,1527.0,1532.0,1532.0,1000.0,1532.0,1525.0,1520.0,0.0,0.0,0.0,0.0,0.0,0.0,0.0,0.0
75591191,8,1527.0,1527.0,1532.0,1532.0,1000.0,1532.0,1525.0,1520.0,0.0,0.0,0.0,0.0,0.0,0.0,0.0,0.0
75611023,8,1527.0,1527.0,1532.0,1533.0,1000.0,1532.0,1525.0,1520.0,0.0,0.0,0.0,0.0,0.0,0.0,0.0,0.0
75636526,8,1527.0,1527.0,1532.0,1533.0,1000.0,1532.0,1525.0,1520.0,0.0,0.0,0.0,0.0,0.0,0.0,0.0,0.0
75656443,8,1527.0,1527.0,1532.0,1533.0,1000.0,1532.0,1525.0,1520.0,0.0,0.0,0.0,0.0,0.0,0.0,0.0,0.0
75676658,8,1527.0,1527.0,1532.0,1533.0,1000.0,1532.0,1525.0,1520.0,0.0,0.0,0.0,0.0,0.0,0.0,0.0,0.0
75701047,8,1527.0,1527.0,1532.0,1532.0,1000.0,1532.0,1525.0,1520.0,0.0,0.0,0.0,0.0,0.0,0.0,0.0,0.0
75721176,8,1527.0,1527.0,1532.0,1532.0,1000.0,1532.0,1525.0,1520.0,0.0,0.0,0.0,0.0,0.0,0.0,0.0,0.0
75741123,8,1527.0,1527.0,1532.0,1532.0,1000.0,1532.0,1525.0,1520.0,0.0,0.0,0.0,0.0,0.0,0.0,0.0,0.0
75767123,8,1527.0,1527.0,1532.0,1532.0,1000.0,1532.0,1525.0,1520.0,0.0,0.0,0.0,0.0,0.0,0.0,0.0,0.0
75787247,8,1528.0,1528.0,1532.0,1532.0,1000.0,1532.0,1525.0,1520.0,0.0,0.0,0.0,0.0,0.0,0.0,0.0,0.0
75811083,8,1528.0,1528.0,1532.0,1532.0,1000.0,1532.0,1525.0,1520.0,0.0,0.0,0.0,0.0,0.0,0.0,0.0,0.0
75836556,8,1528.0,1528.0,1532.0,1533.0,1000.0,1533.0,1525.0,1520.0,0.0,0.0,0.0,0.0,0.0,0.0,0.0,0.0
75861048,8,1528.0,1528.0,1533.0,1533.0,1000.0,1533.0,1525.0,1520.0,0.0,0.0,0.0,0.0,0.0,0.0,0.0,0.0
75881178,8,1528.0,1528.0,1532.0,1533.0,1000.0,1533.0,1525.0,1520.0,0.0,0.0,0.0,0.0,0.0,0.0,0.0,0.0
75901068,8,1528.0,1528.0,1533.0,1533.0,1000.0,1533.0,1525.0,1520.0,0.0,0.0,0.0,0.0,0.0,0.0,0.0,0.0
75927075,8,1528.0,1528.0,1532.0,1532.0,1000.0,1532.0,1525.0,1520.0,0.0,0.0,0.0,0.0,0.0,0.0,0.0,0.0
75947635,8,1528.0,1528.0,1532.0,1532.0,1000.0,1532.0,1525.0,1520.0,0.0,0.0,0.0,0.0,0.0,0.0,0.0,0.0
75971147,8,1528.0,1528.0,1532.0,1532.0,1000.0,1532.0,1525.0,1520.0,0.0,0.0,0.0,0.0,0.0,0.0,0.0,0.0
75999048,8,1528.0,1528.0,1532.0,1533.0,1000.0,1532.0,1525.0,1520.0,0.0,0.0,0.0,0.0,0.0,0.0,0.0,0.0
76021160,8,1528.0,1528.0,1532.0,1533.0,1000.0,1533.0,1525.0,1520.0,0.0,0.0,0.0,0.0,0.0,0.0,0.0,0.0
76041093,8,1528.0,1528.0,1532.0,1533.0,1000.0,1533.0,1525.0,1520.0,0.0,0.0,0.0,0.0,0.0,0.0,0.0,0.0
76067255,8,1527.0,1527.0,1532.0,1533.0,1000.0,1533.0,1525.0,1520.0,0.0,0.0,0.0,0.0,0.0,0.0,0.0,0.0
76099387,8,1527.0,1527.0,1532.0,1533.0,1000.0,1532.0,1525.0,1520.0,0.0,0.0,0.0,0.0,0.0,0.0,0.0,0.0
76110710,8,1527.0,1527.0,1532.0,1533.0,1000.0,1532.0,1525.0,1520.0,0.0,0.0,0.0,0.0,0.0,0.0,0.0,0.0
76130886,8,1527.0,1527.0,1532.0,1533.0,1000.0,1532.0,1525.0,1520.0,0.0,0.0,0.0,0.0,0.0,0.0,0.0,0.0
76151189,8,1527.0,1527.0,1532.0,1533.0,1000.0,1533.0,1525.0,1520.0,0.0,0.0,0.0,0.0,0.0,0.0,0.0,0.0
76176497,8,1527.0,1527.0,1533.0,1533.0,1000.0,1533.0,1525.0,1520.0,0.0,0.0,0.0,0.0,0.0,0.0,0.0,0.0
76198399,8,1527.0,1527.0,1533.0,1533.0,1000.0,1533.0,1525.0,1520.0,0.0,0.0,0.0,0.0,0.0,0.0,0.0,0.0
76220942,8,1527.0,1527.0,1533.0,1532.0,1000.0,1533.0,1525.0,1520.0,0.0,0.0,0.0,0.0,0.0,0.0,0.0,0.0
76241015,8,1527.0,1527.0,1533.0,1531.0,1000.0,1532.0,1525.0,1520.0,0.0,0.0,0.0,0.0,0.0,0.0,0.0,0.0
76260984,8,1527.0,1527.0,1533.0,1531.0,1000.0,1532.0,1525.0,1520.0,0.0,0.0,0.0,0.0,0.0,0.0,0.0,0.0
76287402,8,1527.0,1527.0,1532.0,1531.0,1000.0,1532.0,1525.0,1520.0,0.0,0.0,0.0,0.0,0.0,0.0,0.0,0.0
76310950,8,1527.0,1527.0,1532.0,1532.0,1000.0,1532.0,1525.0,1520.0,0.0,0.0,0.0,0.0,0.0,0.0,0.0,0.0
76331031,8,1527.0,1527.0,1532.0,1532.0,1000.0,1532.0,1525.0,1520.0,0.0,0.0,0.0,0.0,0.0,0.0,0.0,0.0
76356542,8,1527.0,1527.0,1533.0,1533.0,1000.0,1533.0,1525.0,1520.0,0.0,0.0,0.0,0.0,0.0,0.0,0.0,0.0
76376718,8,1527.0,1527.0,1533.0,1533.0,1000.0,1533.0,1525.0,1520.0,0.0,0.0,0.0,0.0,0.0,0.0,0.0,0.0
76399011,8,1528.0,1528.0,1533.0,1533.0,1000.0,1533.0,1525.0,1520.0,0.0,0.0,0.0,0.0,0.0,0.0,0.0,0.0
76420981,8,1528.0,1528.0,1533.0,1532.0,1000.0,1533.0,1525.0,1520.0,0.0,0.0,0.0,0.0,0.0,0.0,0.0,0.0
76447006,8,1528.0,1528.0,1532.0,1532.0,1000.0,1532.0,1525.0,1520.0,0.0,0.0,0.0,0.0,0.0,0.0,0.0,0.0
76467232,8,1528.0,1528.0,1532.0,1531.0,1000.0,1532.0,1525.0,1520.0,0.0,0.0,0.0,0.0,0.0,0.0,0.0,0.0
76487148,8,1528.0,1528.0,1532.0,1531.0,1000.0,1532.0,1525.0,1520.0,0.0,0.0,0.0,0.0,0.0,0.0,0.0,0.0
76511091,8,1528.0,1528.0,1533.0,1531.0,1000.0,1532.0,1525.0,1520.0,0.0,0.0,0.0,0.0,0.0,0.0,0.0,0.0
76531093,8,1528.0,1528.0,1533.0,1532.0,1000.0,1533.0,1525.0,1520.0,0.0,0.0,0.0,0.0,0.0,0.0,0.0,0.0
76550999,8,1528.0,1528.0,1534.0,1533.0,1000.0,1533.0,1525.0,1520.0,0.0,0.0,0.0,0.0,0.0,0.0,0.0,0.0
76576662,8,1528.0,1528.0,1533.0,1533.0,1000.0,1533.0,1525.0,1520.0,0.0,0.0,0.0,0.0,0.0,0.0,0.0,0.0
76599027,8,1528.0,1528.0,1533.0,1533.0,1000.0,1533.0,1525.0,1520.0,0.0,0.0,0.0,0.0,0.0,0.0,0.0,0.0
76621028,8,1528.0,1528.0,1532.0,1533.0,1000.0,1532.0,1525.0,1520.0,0.0,0.0,0.0,0.0,0.0,0.0,0.0,0.0
76647089,8,1528.0,1528.0,1532.0,1532.0,1000.0,1532.0,1525.0,1520.0,0.0,0.0,0.0,0.0,0.0,0.0,0.0,0.0
76667395,8,1528.0,1528.0,1532.0,1532.0,1000.0,1532.0,1525.0,1520.0,0.0,0.0,0.0,0.0,0.0,0.0,0.0,0.0
76691054,8,1528.0,1528.0,1532.0,1532.0,1000.0,1532.0,1525.0,1520.0,0.0,0.0,0.0,0.0,0.0,0.0,0.0,0.0
76717245,8,1528.0,1528.0,1532.0,1532.0,1000.0,1532.0,1525.0,1520.0,0.0,0.0,0.0,0.0,0.0,0.0,0.0,0.0
76741121,8,1527.0,1527.0,1533.0,1533.0,1000.0,1533.0,1525.0,1520.0,0.0,0.0,0.0,0.0,0.0,0.0,0.0,0.0
76767207,8,1527.0,1527.0,1533.0,1533.0,1000.0,1533.0,1525.0,1520.0,0.0,0.0,0.0,0.0,0.0,0.0,0.0,0.0
76791201,8,1527.0,1527.0,1532.0,1533.0,1000.0,1533.0,1525.0,1520.0,0.0,0.0,0.0,0.0,0.0,0.0,0.0,0.0
76811221,8,1527.0,1527.0,1532.0,1532.0,1000.0,1532.0,1525.0,1520.0,0.0,0.0,0.0,0.0,0.0,0.0,0.0,0.0
76836656,8,1527.0,1527.0,1533.0,1532.0,1000.0,1532.0,1525.0,1520.0,0.0,0.0,0.0,0.0,0.0,0.0,0.0,0.0
76856871,8,1527.0,1527.0,1532.0,1532.0,1000.0,1532.0,1525.0,1520.0,0.0,0.0,0.0,0.0,0.0,0.0,0.0,0.0
76881193,8,1529.0,1529.0,1532.0,1532.0,1000.0,1532.0,1525.0,1520.0,0.0,0.0,0.0,0.0,0.0,0.0,0.0,0.0
76901198,8,1529.0,1529.0,1532.0,1533.0,1000.0,1532.0,1525.0,1520.0,0.0,0.0,0.0,0.0,0.0,0.0,0.0,0.0
76927246,8,1529.0,1529.0,1532.0,1533.0,1000.0,1533.0,1525.0,1520.0,0.0,0.0,0.0,0.0,0.0,0.0,0.0,0.0
76947288,8,1529.0,1529.0,1532.0,1533.0,1016.0,1533.0,1525.0,1520.0,0.0,0.0,0.0,0.0,0.0,0.0,0.0,0.0
76970906,8,1529.0,1529.0,1533.0,1533.0,1028.0,1533.0,1525.0,1520.0,0.0,0.0,0.0,0.0,0.0,0.0,0.0,0.0
76991104,8,1529.0,1529.0,1532.0,1532.0,1030.0,1532.0,1525.0,1520.0,0.0,0.0,0.0,0.0,0.0,0.0,0.0,0.0
77581430,8,1540.0,1540.0,1532.0,1532.0,1231.0,1532.0,1525.0,1520.0,0.0,0.0,0.0,0.0,0.0,0.0,0.0,0.0
77607226,8,1535.0,1535.0,1532.0,1532.0,1244.0,1532.0,1525.0,1520.0,0.0,0.0,0.0,0.0,0.0,0.0,0.0,0.0
77627047,8,1535.0,1535.0,1532.0,1532.0,1261.0,1532.0,1525.0,1520.0,0.0,0.0,0.0,0.0,0.0,0.0,0.0,0.0
77650998,8,1539.0,1539.0,1532.0,1532.0,1268.0,1532.0,1525.0,1520.0,0.0,0.0,0.0,0.0,0.0,0.0,0.0,0.0
77676550,8,1542.0,1542.0,1532.0,1532.0,1269.0,1532.0,1525.0,1520.0,0.0,0.0,0.0,0.0,0.0,0.0,0.0,0.0
77700960,8,1559.0,1559.0,1532.0,1532.0,1281.0,1532.0,1525.0,1520.0,0.0,0.0,0.0,0.0,0.0,0.0,0.0,0.0
77721161,8,1567.0,1567.0,1532.0,1533.0,1294.0,1532.0,1525.0,1520.0,0.0,0.0,0.0,0.0,0.0,0.0,0.0,0.0
77741033,8,1572.0,1572.0,1532.0,1532.0,1304.0,1532.0,1525.0,1520.0,0.0,0.0,0.0,0.0,0.0,0.0,0.0,0.0
77761075,8,1580.0,1580.0,1532.0,1532.0,1322.0,1532.0,1525.0,1520.0,0.0,0.0,0.0,0.0,0.0,0.0,0.0,0.0
77787014,8,1585.0,1585.0,1532.0,1532.0,1343.0,1532.0,1525.0,1520.0,0.0,0.0,0.0,0.0,0.0,0.0,0.0,0.0
77807240,8,1587.0,1587.0,1532.0,1533.0,1360.0,1533.0,1525.0,1520.0,0.0,0.0,0.0,0.0,0.0,0.0,0.0,0.0
77827185,8,1575.0,1575.0,1532.0,1532.0,1375.0,1532.0,1525.0,1520.0,0.0,0.0,0.0,0.0,0.0,0.0,0.0,0.0
77847320,8,1572.0,1572.0,1532.0,1533.0,1375.0,1533.0,1525.0,1520.0,0.0,0.0,0.0,0.0,0.0,0.0,0.0,0.0
77867166,8,1565.0,1565.0,1532.0,1533.0,1377.0,1533.0,1525.0,1520.0,0.0,0.0,0.0,0.0,0.0,0.0,0.0,0.0
77890901,8,1561.0,1561.0,1532.0,1533.0,1380.0,1533.0,1525.0,1520.0,0.0,0.0,0.0,0.0,0.0,0.0,0.0,0.0
77911125,8,1554.0,1554.0,1532.0,1533.0,1388.0,1532.0,1525.0,1520.0,0.0,0.0,0.0,0.0,0.0,0.0,0.0,0.0
77931060,8,1552.0,1553.0,1532.0,1533.0,1388.0,1532.0,1525.0,1520.0,0.0,0.0,0.0,0.0,0.0,0.0,0.0,0.0
77957217,8,1550.0,1550.0,1533.0,1532.0,1388.0,1532.0,1525.0,1520.0,0.0,0.0,0.0,0.0,0.0,0.0,0.0,0.0
77981117,8,1541.0,1541.0,1532.0,1533.0,1388.0,1533.0,1525.0,1520.0,0.0,0.0,0.0,0.0,0.0,0.0,0.0,0.0
78007246,8,1531.0,1531.0,1533.0,1532.0,1388.0,1533.0,1525.0,1520.0,0.0,0.0,0.0,0.0,0.0,0.0,0.0,0.0
78027185,8,1531.0,1531.0,1533.0,1533.0,1388.0,1533.0,1525.0,1520.0,0.0,0.0,0.0,0.0,0.0,0.0,0.0,0.0
78051000,8,1530.0,1530.0,1533.0,1533.0,1388.0,1533.0,1525.0,1520.0,0.0,0.0,0.0,0.0,0.0,0.0,0.0,0.0
78076568,8,1530.0,1530.0,1532.0,1533.0,1388.0,1532.0,1525.0,1520.0,0.0,0.0,0.0,0.0,0.0,0.0,0.0,0.0
78101054,8,1530.0,1530.0,1532.0,1532.0,1388.0,1532.0,1525.0,1520.0,0.0,0.0,0.0,0.0,0.0,0.0,0.0,0.0
78127424,8,1530.0,1530.0,1532.0,1532.0,1388.0,1532.0,1525.0,1520.0,0.0,0.0,0.0,0.0,0.0,0.0,0.0,0.0
78156144,8,1531.0,1531.0,1532.0,1532.0,1388.0,1532.0,1525.0,1520.0,0.0,0.0,0.0,0.0,0.0,0.0,0.0,0.0
78171169,8,1530.0,1530.0,1533.0,1531.0,1388.0,1532.0,1525.0,1520.0,0.0,0.0,0.0,0.0,0.0,0.0,0.0,0.0
78198552,8,1528.0,1528.0,1533.0,1531.0,1388.0,1532.0,1525.0,1520.0,0.0,0.0,0.0,0.0,0.0,0.0,0.0,0.0
78221044,8,1528.0,1528.0,1533.0,1531.0,1388.0,1532.0,1525.0,1520.0,0.0,0.0,0.0,0.0,0.0,0.0,0.0,0.0
78241082,8,1528.0,1528.0,1533.0,1532.0,1388.0,1533.0,1525.0,1520.0,0.0,0.0,0.0,0.0,0.0,0.0,0.0,0.0
78267294,8,1528.0,1528.0,1533.0,1533.0,1388.0,1533.0,1525.0,1520.0,0.0,0.0,0.0,0.0,0.0,0.0,0.0,0.0
78290978,8,1528.0,1528.0,1533.0,1533.0,1388.0,1533.0,1525.0,1520.0,0.0,0.0,0.0,0.0,0.0,0.0,0.0,0.0
78316641,8,1529.0,1529.0,1533.0,1533.0,1388.0,1533.0,1525.0,1520.0,0.0,0.0,0.0,0.0,0.0,0.0,0.0,0.0
78341189,8,1529.0,1529.0,1532.0,1532.0,1388.0,1532.0,1525.0,1520.0,0.0,0.0,0.0,0.0,0.0,0.0,0.0,0.0
78367034,8,1529.0,1529.0,1532.0,1532.0,1388.0,1532.0,1525.0,1520.0,0.0,0.0,0.0,0.0,0.0,0.0,0.0,0.0
78387073,8,1529.0,1529.0,1531.0,1532.0,1388.0,1532.0,1525.0,1520.0,0.0,0.0,0.0,0.0,0.0,0.0,0.0,0.0
78407306,8,1529.0,1529.0,1531.0,1533.0,1388.0,1532.0,1525.0,1520.0,0.0,0.0,0.0,0.0,0.0,0.0,0.0,0.0
78431094,8,1529.0,1529.0,1532.0,1533.0,1388.0,1532.0,1525.0,1520.0,0.0,0.0,0.0,0.0,0.0,0.0,0.0,0.0
78456685,8,1530.0,1530.0,1533.0,1533.0,1388.0,1533.0,1525.0,1520.0,0.0,0.0,0.0,0.0,0.0,0.0,0.0,0.0
78481057,8,1530.0,1530.0,1533.0,1533.0,1388.0,1533.0,1525.0,1520.0,0.0,0.0,0.0,0.0,0.0,0.0,0.0,0.0
78507102,8,1530.0,1530.0,1533.0,1532.0,1388.0,1533.0,1525.0,1520.0,0.0,0.0,0.0,0.0,0.0,0.0,0.0,0.0
78527169,8,1529.0,1529.0,1532.0,1532.0,1388.0,1532.0,1525.0,1520.0,0.0,0.0,0.0,0.0,0.0,0.0,0.0,0.0
78551027,8,1529.0,1529.0,1532.0,1532.0,1388.0,1532.0,1525.0,1520.0,0.0,0.0,0.0,0.0,0.0,0.0,0.0,0.0
78577198,8,1529.0,1529.0,1532.0,1532.0,1388.0,1532.0,1525.0,1520.0,0.0,0.0,0.0,0.0,0.0,0.0,0.0,0.0
78599106,8,1529.0,1529.0,1532.0,1532.0,1388.0,1532.0,1525.0,1520.0,0.0,0.0,0.0,0.0,0.0,0.0,0.0,0.0
78621086,8,1529.0,1529.0,1532.0,1533.0,1388.0,1533.0,1525.0,1520.0,0.0,0.0,0.0,0.0,0.0,0.0,0.0,0.0
78641164,8,1529.0,1529.0,1533.0,1533.0,1388.0,1533.0,1525.0,1520.0,0.0,0.0,0.0,0.0,0.0,0.0,0.0,0.0
78667182,8,1529.0,1529.0,1533.0,1532.0,1388.0,1533.0,1525.0,1520.0,0.0,0.0,0.0,0.0,0.0,0.0,0.0,0.0
78687256,8,1529.0,1529.0,1532.0,1533.0,1388.0,1532.0,1525.0,1520.0,0.0,0.0,0.0,0.0,0.0,0.0,0.0,0.0
78711129,8,1528.0,1528.0,1532.0,1532.0,1388.0,1532.0,1525.0,1520.0,0.0,0.0,0.0,0.0,0.0,0.0,0.0,0.0
78736687,8,1528.0,1528.0,1532.0,1533.0,1388.0,1532.0,1525.0,1520.0,0.0,0.0,0.0,0.0,0.0,0.0,0.0,0.0
78761052,8,1528.0,1528.0,1532.0,1532.0,1388.0,1532.0,1525.0,1520.0,0.0,0.0,0.0,0.0,0.0,0.0,0.0,0.0
78781097,8,1529.0,1529.0,1533.0,1532.0,1388.0,1532.0,1525.0,1520.0,0.0,0.0,0.0,0.0,0.0,0.0,0.0,0.0
78807173,8,1529.0,1529.0,1533.0,1532.0,1388.0,1533.0,1525.0,1520.0,0.0,0.0,0.0,0.0,0.0,0.0,0.0,0.0
78827155,8,1529.0,1529.0,1533.0,1532.0,1388.0,1532.0,1525.0,1520.0,0.0,0.0,0.0,0.0,0.0,0.0,0.0,0.0
78847139,8,1528.0,1528.0,1532.0,1532.0,1388.0,1532.0,1525.0,1520.0,0.0,0.0,0.0,0.0,0.0,0.0,0.0,0.0
78870632,8,1529.0,1529.0,1532.0,1532.0,1388.0,1532.0,1525.0,1520.0,0.0,0.0,0.0,0.0,0.0,0.0,0.0,0.0
78896700,8,1529.0,1529.0,1532.0,1532.0,1388.0,1532.0,1525.0,1520.0,0.0,0.0,0.0,0.0,0.0,0.0,0.0,0.0
78920722,8,1529.0,1529.0,1532.0,1532.0,1388.0,1532.0,1525.0,1520.0,0.0,0.0,0.0,0.0,0.0,0.0,0.0,0.0
78941164,8,1529.0,1529.0,1533.0,1532.0,1388.0,1533.0,1525.0,1520.0,0.0,0.0,0.0,0.0,0.0,0.0,0.0,0.0
78966972,8,1529.0,1529.0,1533.0,1532.0,1388.0,1532.0,1525.0,1520.0,0.0,0.0,0.0,0.0,0.0,0.0,0.0,0.0
78987132,8,1529.0,1529.0,1532.0,1533.0,1388.0,1532.0,1525.0,1520.0,0.0,0.0,0.0,0.0,0.0,0.0,0.0,0.0
79007410,8,1529.0,1529.0,1532.0,1533.0,1388.0,1532.0,1525.0,1520.0,0.0,0.0,0.0,0.0,0.0,0.0,0.0,0.0
79030863,8,1529.0,1529.0,1532.0,1532.0,1388.0,1532.0,1525.0,1520.0,0.0,0.0,0.0,0.0,0.0,0.0,0.0,0.0
79051161,8,1529.0,1529.0,1533.0,1532.0,1388.0,1532.0,1525.0,1520.0,0.0,0.0,0.0,0.0,0.0,0.0,0.0,0.0
79071254,8,1530.0,1530.0,1533.0,1532.0,1388.0,1532.0,1525.0,1520.0,0.0,0.0,0.0,0.0,0.0,0.0,0.0,0.0
79096641,8,1529.0,1529.0,1532.0,1532.0,1388.0,1532.0,1525.0,1520.0,0.0,0.0,0.0,0.0,0.0,0.0,0.0,0.0
79117081,8,1529.0,1529.0,1532.0,1533.0,1388.0,1532.0,1525.0,1520.0,0.0,0.0,0.0,0.0,0.0,0.0,0.0,0.0
79141222,8,1529.0,1529.0,1532.0,1533.0,1388.0,1532.0,1525.0,1520.0,0.0,0.0,0.0,0.0,0.0,0.0,0.0,0.0
79176024,8,1529.0,1529.0,1532.0,1533.0,1388.0,1532.0,1525.0,1520.0,0.0,0.0,0.0,0.0,0.0,0.0,0.0,0.0
79190983,8,1529.0,1529.0,1532.0,1533.0,1388.0,1532.0,1525.0,1520.0,0.0,0.0,0.0,0.0,0.0,0.0,0.0,0.0
79217050,8,1529.0,1529.0,1532.0,1533.0,1388.0,1532.0,1525.0,1520.0,0.0,0.0,0.0,0.0,0.0,0.0,0.0,0.0
79241006,8,1529.0,1529.0,1532.0,1533.0,1386.0,1532.0,1525.0,1520.0,0.0,0.0,0.0,0.0,0.0,0.0,0.0,0.0
79260982,8,1529.0,1529.0,1532.0,1532.0,1386.0,1532.0,1525.0,1520.0,0.0,0.0,0.0,0.0,0.0,0.0,0.0,0.0
79287187,8,1529.0,1529.0,1533.0,1532.0,1386.0,1532.0,1525.0,1520.0,0.0,0.0,0.0,0.0,0.0,0.0,0.0,0.0
79310890,8,1529.0,1529.0,1533.0,1532.0,1386.0,1532.0,1525.0,1520.0,0.0,0.0,0.0,0.0,0.0,0.0,0.0,0.0
79330933,8,1529.0,1529.0,1532.0,1532.0,1386.0,1532.0,1525.0,1520.0,0.0,0.0,0.0,0.0,0.0,0.0,0.0,0.0
79356584,8,1529.0,1529.0,1532.0,1532.0,1386.0,1532.0,1525.0,1520.0,0.0,0.0,0.0,0.0,0.0,0.0,0.0,0.0
79376683,8,1529.0,1529.0,1532.0,1532.0,1386.0,1532.0,1525.0,1520.0,0.0,0.0,0.0,0.0,0.0,0.0,0.0,0.0
79398546,8,1528.0,1528.0,1533.0,1532.0,1386.0,1532.0,1525.0,1520.0,0.0,0.0,0.0,0.0,0.0,0.0,0.0,0.0
79421011,8,1528.0,1528.0,1532.0,1532.0,1386.0,1532.0,1525.0,1520.0,0.0,0.0,0.0,0.0,0.0,0.0,0.0,0.0
79447050,8,1528.0,1528.0,1532.0,1533.0,1386.0,1532.0,1525.0,1520.0,0.0,0.0,0.0,0.0,0.0,0.0,0.0,0.0
79470996,8,1528.0,1528.0,1533.0,1533.0,1386.0,1533.0,1525.0,1520.0,0.0,0.0,0.0,0.0,0.0,0.0,0.0,0.0
79490945,8,1529.0,1529.0,1533.0,1532.0,1386.0,1533.0,1525.0,1520.0,0.0,0.0,0.0,0.0,0.0,0.0,0.0,0.0
79516722,8,1529.0,1529.0,1532.0,1532.0,1386.0,1532.0,1525.0,1520.0,0.0,0.0,0.0,0.0,0.0,0.0,0.0,0.0
79536663,8,1528.0,1528.0,1532.0,1532.0,1386.0,1532.0,1525.0,1520.0,0.0,0.0,0.0,0.0,0.0,0.0,0.0,0.0
79556785,8,1528.0,1528.0,1532.0,1533.0,1386.0,1532.0,1525.0,1520.0,0.0,0.0,0.0,0.0,0.0,0.0,0.0,0.0
79580934,8,1528.0,1528.0,1531.0,1533.0,1386.0,1532.0,1525.0,1520.0,0.0,0.0,0.0,0.0,0.0,0.0,0.0,0.0
79607206,8,1529.0,1529.0,1532.0,1533.0,1386.0,1533.0,1525.0,1520.0,0.0,0.0,0.0,0.0,0.0,0.0,0.0,0.0
79627453,8,1529.0,1529.0,1533.0,1532.0,1386.0,1533.0,1525.0,1520.0,0.0,0.0,0.0,0.0,0.0,0.0,0.0,0.0
79647250,8,1529.0,1529.0,1533.0,1532.0,1386.0,1533.0,1525.0,1520.0,0.0,0.0,0.0,0.0,0.0,0.0,0.0,0.0
79670532,8,1530.0,1530.0,1532.0,1532.0,1386.0,1532.0,1525.0,1520.0,0.0,0.0,0.0,0.0,0.0,0.0,0.0,0.0
79691046,8,1529.0,1529.0,1532.0,1532.0,1386.0,1532.0,1525.0,1520.0,0.0,0.0,0.0,0.0,0.0,0.0,0.0,0.0
79716453,8,1529.0,1529.0,1532.0,1533.0,1386.0,1532.0,1525.0,1520.0,0.0,0.0,0.0,0.0,0.0,0.0,0.0,0.0
79910929,8,1530.0,1530.0,1532.0,1532.0,1386.0,1532.0,1525.0,1520.0,0.0,0.0,0.0,0.0,0.0,0.0,0.0,0.0
79936720,8,1530.0,1530.0,1532.0,1533.0,1386.0,1532.0,1525.0,1520.0,0.0,0.0,0.0,0.0,0.0,0.0,0.0,0.0
79960967,8,1530.0,1530.0,1533.0,1532.0,1386.0,1532.0,1525.0,1520.0,0.0,0.0,0.0,0.0,0.0,0.0,0.0,0.0
79987441,8,1529.0,1529.0,1532.0,1532.0,1386.0,1532.0,1525.0,1520.0,0.0,0.0,0.0,0.0,0.0,0.0,0.0,0.0
80010666,8,1529.0,1529.0,1532.0,1532.0,1386.0,1532.0,1525.0,1520.0,0.0,0.0,0.0,0.0,0.0,0.0,0.0,0.0
80036535,8,1529.0,1529.0,1532.0,1533.0,1386.0,1532.0,1525.0,1520.0,0.0,0.0,0.0,0.0,0.0,0.0,0.0,0.0
80061064,8,1529.0,1529.0,1532.0,1533.0,1388.0,1532.0,1525.0,1520.0,0.0,0.0,0.0,0.0,0.0,0.0,0.0,0.0
80081050,8,1529.0,1529.0,1532.0,1532.0,1414.0,1532.0,1525.0,1520.0,0.0,0.0,0.0,0.0,0.0,0.0,0.0,0.0
80100971,8,1529.0,1529.0,1533.0,1532.0,1414.0,1532.0,1525.0,1520.0,0.0,0.0,0.0,0.0,0.0,0.0,0.0,0.0
80127176,8,1529.0,1529.0,1533.0,1532.0,1414.0,1532.0,1525.0,1520.0,0.0,0.0,0.0,0.0,0.0,0.0,0.0,0.0
80147248,8,1529.0,1529.0,1532.0,1533.0,1415.0,1533.0,1525.0,1520.0,0.0,0.0,0.0,0.0,0.0,0.0,0.0,0.0
80170962,8,1529.0,1529.0,1532.0,1533.0,1418.0,1533.0,1525.0,1520.0,0.0,0.0,0.0,0.0,0.0,0.0,0.0,0.0
80207615,8,1529.0,1529.0,1533.0,1533.0,1420.0,1533.0,1525.0,1520.0,0.0,0.0,0.0,0.0,0.0,0.0,0.0,0.0
80221034,8,1529.0,1529.0,1533.0,1532.0,1432.0,1533.0,1525.0,1520.0,0.0,0.0,0.0,0.0,0.0,0.0,0.0,0.0
80247103,8,1529.0,1529.0,1533.0,1532.0,1434.0,1532.0,1525.0,1520.0,0.0,0.0,0.0,0.0,0.0,0.0,0.0,0.0
80271044,8,1529.0,1529.0,1532.0,1532.0,1447.0,1532.0,1525.0,1520.0,0.0,0.0,0.0,0.0,0.0,0.0,0.0,0.0
80291092,8,1529.0,1529.0,1532.0,1532.0,1455.0,1532.0,1525.0,1520.0,0.0,0.0,0.0,0.0,0.0,0.0,0.0,0.0
80316858,8,1530.0,1530.0,1532.0,1532.0,1456.0,1532.0,1525.0,1520.0,0.0,0.0,0.0,0.0,0.0,0.0,0.0,0.0
80341035,8,1529.0,1529.0,1533.0,1532.0,1461.0,1533.0,1525.0,1520.0,0.0,0.0,0.0,0.0,0.0,0.0,0.0,0.0
80367059,8,1529.0,1529.0,1533.0,1533.0,1465.0,1533.0,1525.0,1520.0,0.0,0.0,0.0,0.0,0.0,0.0,0.0,0.0
80390799,8,1528.0,1528.0,1532.0,1533.0,1468.0,1533.0,1525.0,1520.0,0.0,0.0,0.0,0.0,0.0,0.0,0.0,0.0
80416800,8,1528.0,1528.0,1532.0,1533.0,1472.0,1532.0,1525.0,1520.0,0.0,0.0,0.0,0.0,0.0,0.0,0.0,0.0
80440531,8,1529.0,1529.0,1532.0,1532.0,1474.0,1532.0,1525.0,1520.0,0.0,0.0,0.0,0.0,0.0,0.0,0.0,0.0
80467376,8,1530.0,1530.0,1533.0,1532.0,1486.0,1532.0,1525.0,1520.0,0.0,0.0,0.0,0.0,0.0,0.0,0.0,0.0
80490522,8,1529.0,1529.0,1533.0,1532.0,1490.0,1532.0,1525.0,1520.0,0.0,0.0,0.0,0.0,0.0,0.0,0.0,0.0
80510886,8,1529.0,1529.0,1533.0,1532.0,1490.0,1532.0,1525.0,1520.0,0.0,0.0,0.0,0.0,0.0,0.0,0.0,0.0
80536539,8,1528.0,1528.0,1532.0,1533.0,1490.0,1532.0,1525.0,1520.0,0.0,0.0,0.0,0.0,0.0,0.0,0.0,0.0
80560971,8,1528.0,1528.0,1533.0,1532.0,1490.0,1533.0,1525.0,1520.0,0.0,0.0,0.0,0.0,0.0,0.0,0.0,0.0
80581019,8,1528.0,1528.0,1533.0,1532.0,1491.0,1533.0,1525.0,1520.0,0.0,0.0,0.0,0.0,0.0,0.0,0.0,0.0
80607050,8,1528.0,1528.0,1532.0,1533.0,1503.0,1532.0,1525.0,1520.0,0.0,0.0,0.0,0.0,0.0,0.0,0.0,0.0
80627107,8,1528.0,1528.0,1532.0,1532.0,1510.0,1532.0,1525.0,1520.0,0.0,0.0,0.0,0.0,0.0,0.0,0.0,0.0
80650987,8,1529.0,1529.0,1532.0,1532.0,1515.0,1532.0,1525.0,1520.0,0.0,0.0,0.0,0.0,0.0,0.0,0.0,0.0
80676499,8,1529.0,1529.0,1531.0,1533.0,1516.0,1532.0,1525.0,1520.0,0.0,0.0,0.0,0.0,0.0,0.0,0.0,0.0
80696528,8,1530.0,1530.0,1532.0,1533.0,1518.0,1532.0,1525.0,1520.0,0.0,0.0,0.0,0.0,0.0,0.0,0.0,0.0
80716848,8,1530.0,1530.0,1533.0,1532.0,1520.0,1533.0,1525.0,1520.0,0.0,0.0,0.0,0.0,0.0,0.0,0.0,0.0
80737240,8,1530.0,1530.0,1533.0,1533.0,1526.0,1533.0,1525.0,1520.0,0.0,0.0,0.0,0.0,0.0,0.0,0.0,0.0
80761065,8,1530.0,1530.0,1532.0,1533.0,1531.0,1533.0,1525.0,1520.0,0.0,0.0,0.0,0.0,0.0,0.0,0.0,0.0
80787282,8,1529.0,1529.0,1533.0,1532.0,1531.0,1533.0,1525.0,1520.0,0.0,0.0,0.0,0.0,0.0,0.0,0.0,0.0
80810854,8,1530.0,1530.0,1532.0,1533.0,1531.0,1532.0,1525.0,1520.0,0.0,0.0,0.0,0.0,0.0,0.0,0.0,0.0
80830893,8,1530.0,1530.0,1532.0,1532.0,1531.0,1532.0,1525.0,1520.0,0.0,0.0,0.0,0.0,0.0,0.0,0.0,0.0
80850863,8,1530.0,1530.0,1533.0,1532.0,1531.0,1532.0,1525.0,1520.0,0.0,0.0,0.0,0.0,0.0,0.0,0.0,0.0
80871052,8,1529.0,1529.0,1531.0,1533.0,1531.0,1532.0,1525.0,1520.0,0.0,0.0,0.0,0.0,0.0,0.0,0.0,0.0
80897033,8,1530.0,1530.0,1532.0,1532.0,1531.0,1532.0,1525.0,1520.0,0.0,0.0,0.0,0.0,0.0,0.0,0.0,0.0
80921057,8,1531.0,1531.0,1532.0,1532.0,1531.0,1532.0,1525.0,1520.0,0.0,0.0,0.0,0.0,0.0,0.0,0.0,0.0
80941049,8,1530.0,1530.0,1532.0,1533.0,1531.0,1532.0,1525.0,1520.0,0.0,0.0,0.0,0.0,0.0,0.0,0.0,0.0
80961041,8,1529.0,1529.0,1532.0,1532.0,1531.0,1532.0,1525.0,1520.0,0.0,0.0,0.0,0.0,0.0,0.0,0.0,0.0
80987171,8,1530.0,1530.0,1532.0,1532.0,1531.0,1532.0,1525.0,1520.0,0.0,0.0,0.0,0.0,0.0,0.0,0.0,0.0
81007231,8,1530.0,1530.0,1532.0,1532.0,1531.0,1532.0,1525.0,1520.0,0.0,0.0,0.0,0.0,0.0,0.0,0.0,0.0
81031050,8,1529.0,1529.0,1533.0,1532.0,1531.0,1532.0,1525.0,1520.0,0.0,0.0,0.0,0.0,0.0,0.0,0.0,0.0
81057043,8,1529.0,1529.0,1532.0,1533.0,1531.0,1532.0,1525.0,1520.0,0.0,0.0,0.0,0.0,0.0,0.0,0.0,0.0
81080496,8,1530.0,1530.0,1533.0,1532.0,1531.0,1533.0,1525.0,1520.0,0.0,0.0,0.0,0.0,0.0,0.0,0.0,0.0
81100661,8,1528.0,1528.0,1532.0,1533.0,1531.0,1532.0,1525.0,1520.0,0.0,0.0,0.0,0.0,0.0,0.0,0.0,0.0
81127319,8,1529.0,1529.0,1532.0,1532.0,1531.0,1532.0,1525.0,1520.0,0.0,0.0,0.0,0.0,0.0,0.0,0.0,0.0
81151093,8,1530.0,1530.0,1532.0,1531.0,1531.0,1532.0,1525.0,1520.0,0.0,0.0,0.0,0.0,0.0,0.0,0.0,0.0
81170999,8,1530.0,1530.0,1532.0,1532.0,1531.0,1532.0,1525.0,1520.0,0.0,0.0,0.0,0.0,0.0,0.0,0.0,0.0
81198313,8,1528.0,1528.0,1532.0,1531.0,1531.0,1532.0,1525.0,1520.0,0.0,0.0,0.0,0.0,0.0,0.0,0.0,0.0
81229185,8,1528.0,1528.0,1532.0,1532.0,1531.0,1532.0,1525.0,1520.0,0.0,0.0,0.0,0.0,0.0,0.0,0.0,0.0
81247058,8,1530.0,1530.0,1532.0,1532.0,1531.0,1532.0,1525.0,1520.0,0.0,0.0,0.0,0.0,0.0,0.0,0.0,0.0
81267233,8,1529.0,1529.0,1532.0,1533.0,1531.0,1532.0,1525.0,1520.0,0.0,0.0,0.0,0.0,0.0,0.0,0.0,0.0
81291102,8,1530.0,1530.0,1532.0,1532.0,1531.0,1532.0,1525.0,1520.0,0.0,0.0,0.0,0.0,0.0,0.0,0.0,0.0
81310985,8,1529.0,1529.0,1531.0,1533.0,1531.0,1532.0,1525.0,1520.0,0.0,0.0,0.0,0.0,0.0,0.0,0.0,0.0
81331135,8,1529.0,1529.0,1532.0,1533.0,1531.0,1533.0,1525.0,1520.0,0.0,0.0,0.0,0.0,0.0,0.0,0.0,0.0
81356611,8,1529.0,1529.0,1532.0,1534.0,1531.0,1533.0,1525.0,1520.0,0.0,0.0,0.0,0.0,0.0,0.0,0.0,0.0
81376709,8,1530.0,1530.0,1532.0,1533.0,1531.0,1533.0,1525.0,1520.0,0.0,0.0,0.0,0.0,0.0,0.0,0.0,0.0
81398868,8,1530.0,1530.0,1533.0,1532.0,1531.0,1532.0,1525.0,1520.0,0.0,0.0,0.0,0.0,0.0,0.0,0.0,0.0
81420977,8,1529.0,1529.0,1532.0,1533.0,1532.0,1532.0,1525.0,1520.0,0.0,0.0,0.0,0.0,0.0,0.0,0.0,0.0
81447178,8,1530.0,1530.0,1532.0,1533.0,1532.0,1532.0,1525.0,1520.0,0.0,0.0,0.0,0.0,0.0,0.0,0.0,0.0
81471023,8,1530.0,1530.0,1534.0,1532.0,1532.0,1533.0,1525.0,1520.0,0.0,0.0,0.0,0.0,0.0,0.0,0.0,0.0
81497124,8,1530.0,1530.0,1532.0,1534.0,1532.0,1533.0,1525.0,1520.0,0.0,0.0,0.0,0.0,0.0,0.0,0.0,0.0
81521074,8,1530.0,1530.0,1532.0,1535.0,1532.0,1533.0,1525.0,1520.0,0.0,0.0,0.0,0.0,0.0,0.0,0.0,0.0
81540983,8,1530.0,1530.0,1531.0,1535.0,1532.0,1533.0,1525.0,1520.0,0.0,0.0,0.0,0.0,0.0,0.0,0.0,0.0
81567218,8,1529.0,1529.0,1531.0,1535.0,1532.0,1533.0,1525.0,1520.0,0.0,0.0,0.0,0.0,0.0,0.0,0.0,0.0
81590971,8,1531.0,1531.0,1533.0,1532.0,1532.0,1533.0,1525.0,1520.0,0.0,0.0,0.0,0.0,0.0,0.0,0.0,0.0
81610999,8,1530.0,1530.0,1532.0,1533.0,1532.0,1533.0,1525.0,1520.0,0.0,0.0,0.0,0.0,0.0,0.0,0.0,0.0
81636632,8,1529.0,1529.0,1532.0,1532.0,1532.0,1532.0,1525.0,1520.0,0.0,0.0,0.0,0.0,0.0,0.0,0.0,0.0
81660978,8,1530.0,1530.0,1533.0,1531.0,1533.0,1532.0,1525.0,1520.0,0.0,0.0,0.0,0.0,0.0,0.0,0.0,0.0
81681016,8,1528.0,1528.0,1533.0,1530.0,1539.0,1532.0,1525.0,1520.0,0.0,0.0,0.0,0.0,0.0,0.0,0.0,0.0
81700991,8,1529.0,1529.0,1531.0,1532.0,1543.0,1532.0,1525.0,1520.0,0.0,0.0,0.0,0.0,0.0,0.0,0.0,0.0
81720982,8,1529.0,1529.0,1532.0,1531.0,1555.0,1532.0,1525.0,1520.0,0.0,0.0,0.0,0.0,0.0,0.0,0.0,0.0
81741094,8,1528.0,1528.0,1532.0,1531.0,1561.0,1532.0,1525.0,1520.0,0.0,0.0,0.0,0.0,0.0,0.0,0.0,0.0
81767208,8,1529.0,1529.0,1531.0,1533.0,1568.0,1532.0,1525.0,1520.0,0.0,0.0,0.0,0.0,0.0,0.0,0.0,0.0
81791223,8,1529.0,1529.0,1532.0,1533.0,1568.0,1533.0,1525.0,1520.0,0.0,0.0,0.0,0.0,0.0,0.0,0.0,0.0
81810560,8,1528.0,1528.0,1532.0,1533.0,1568.0,1533.0,1525.0,1520.0,0.0,0.0,0.0,0.0,0.0,0.0,0.0,0.0
81836433,8,1529.0,1529.0,1532.0,1534.0,1569.0,1533.0,1525.0,1520.0,0.0,0.0,0.0,0.0,0.0,0.0,0.0,0.0
81861046,8,1530.0,1530.0,1533.0,1532.0,1571.0,1532.0,1525.0,1520.0,0.0,0.0,0.0,0.0,0.0,0.0,0.0,0.0
81886722,8,1528.0,1528.0,1531.0,1532.0,1571.0,1531.0,1525.0,1520.0,0.0,0.0,0.0,0.0,0.0,0.0,0.0,0.0
81907015,8,1529.0,1529.0,1531.0,1532.0,1571.0,1532.0,1525.0,1520.0,0.0,0.0,0.0,0.0,0.0,0.0,0.0,0.0
81926940,8,1528.0,1528.0,1530.0,1532.0,1573.0,1531.0,1525.0,1520.0,0.0,0.0,0.0,0.0,0.0,0.0,0.0,0.0
81947314,8,1530.0,1530.0,1533.0,1531.0,1579.0,1532.0,1525.0,1520.0,0.0,0.0,0.0,0.0,0.0,0.0,0.0,0.0
81970485,8,1528.0,1528.0,1533.0,1532.0,1584.0,1532.0,1525.0,1520.0,0.0,0.0,0.0,0.0,0.0,0.0,0.0,0.0
81990573,8,1528.0,1528.0,1533.0,1532.0,1589.0,1533.0,1525.0,1520.0,0.0,0.0,0.0,0.0,0.0,0.0,0.0,0.0
83236590,8,1531.0,1531.0,1535.0,1534.0,1755.0,1534.0,1525.0,1520.0,0.0,0.0,0.0,0.0,0.0,0.0,0.0,0.0
84136538,8,1555.0,1555.0,1533.0,1531.0,2000.0,1532.0,1525.0,1520.0,0.0,0.0,0.0,0.0,0.0,0.0,0.0,0.0
84156567,8,1543.0,1543.0,1532.0,1532.0,2000.0,1532.0,1525.0,1520.0,0.0,0.0,0.0,0.0,0.0,0.0,0.0,0.0
84176487,8,1541.0,1541.0,1532.0,1532.0,2000.0,1532.0,1525.0,1520.0,0.0,0.0,0.0,0.0,0.0,0.0,0.0,0.0
84198796,8,1541.0,1541.0,1532.0,1533.0,2000.0,1532.0,1525.0,1520.0,0.0,0.0,0.0,0.0,0.0,0.0,0.0,0.0
84220573,8,1540.0,1540.0,1532.0,1533.0,2000.0,1532.0,1525.0,1520.0,0.0,0.0,0.0,0.0,0.0,0.0,0.0,0.0
84241075,8,1541.0,1541.0,1533.0,1532.0,2000.0,1533.0,1525.0,1520.0,0.0,0.0,0.0,0.0,0.0,0.0,0.0,0.0
84260950,8,1538.0,1538.0,1533.0,1532.0,2000.0,1532.0,1525.0,1520.0,0.0,0.0,0.0,0.0,0.0,0.0,0.0,0.0
84294941,8,1531.0,1531.0,1532.0,1533.0,2000.0,1533.0,1525.0,1520.0,0.0,0.0,0.0,0.0,0.0,0.0,0.0,0.0
84310591,8,1532.0,1532.0,1533.0,1533.0,2000.0,1533.0,1525.0,1520.0,0.0,0.0,0.0,0.0,0.0,0.0,0.0,0.0
84331015,8,1533.0,1533.0,1533.0,1532.0,2000.0,1533.0,1525.0,1520.0,0.0,0.0,0.0,0.0,0.0,0.0,0.0,0.0
84350956,8,1532.0,1532.0,1532.0,1532.0,2000.0,1532.0,1525.0,1520.0,0.0,0.0,0.0,0.0,0.0,0.0,0.0,0.0
84376575,8,1531.0,1531.0,1532.0,1532.0,2000.0,1532.0,1525.0,1520.0,0.0,0.0,0.0,0.0,0.0,0.0,0.0,0.0
84398415,8,1530.0,1530.0,1532.0,1532.0,2000.0,1532.0,1525.0,1520.0,0.0,0.0,0.0,0.0,0.0,0.0,0.0,0.0
84421015,8,1531.0,1531.0,1532.0,1532.0,2000.0,1532.0,1525.0,1520.0,0.0,0.0,0.0,0.0,0.0,0.0,0.0,0.0
84447270,8,1530.0,1530.0,1531.0,1532.0,2000.0,1532.0,1525.0,1520.0,0.0,0.0,0.0,0.0,0.0,0.0,0.0,0.0
84467409,8,1526.0,1526.0,1532.0,1532.0,2000.0,1532.0,1525.0,1520.0,0.0,0.0,0.0,0.0,0.0,0.0,0.0,0.0
84487410,8,1529.0,1529.0,1532.0,1533.0,2000.0,1533.0,1525.0,1520.0,0.0,0.0,0.0,0.0,0.0,0.0,0.0,0.0
84510979,8,1525.0,1525.0,1532.0,1532.0,2000.0,1532.0,1525.0,1520.0,0.0,0.0,0.0,0.0,0.0,0.0,0.0,0.0
84531001,8,1521.0,1521.0,1532.0,1532.0,2000.0,1532.0,1525.0,1520.0,0.0,0.0,0.0,0.0,0.0,0.0,0.0,0.0
84556659,8,1508.0,1508.0,1533.0,1531.0,2000.0,1532.0,1525.0,1520.0,0.0,0.0,0.0,0.0,0.0,0.0,0.0,0.0
84576504,8,1501.0,1501.0,1532.0,1532.0,2000.0,1532.0,1525.0,1520.0,0.0,0.0,0.0,0.0,0.0,0.0,0.0,0.0
84598901,8,1499.0,1499.0,1531.0,1532.0,2000.0,1532.0,1525.0,1520.0,0.0,0.0,0.0,0.0,0.0,0.0,0.0,0.0
84621060,8,1498.0,1498.0,1531.0,1532.0,2000.0,1532.0,1525.0,1520.0,0.0,0.0,0.0,0.0,0.0,0.0,0.0,0.0
84640870,8,1498.0,1498.0,1533.0,1531.0,2000.0,1532.0,1525.0,1520.0,0.0,0.0,0.0,0.0,0.0,0.0,0.0,0.0
84666958,8,1528.0,1528.0,1531.0,1532.0,2000.0,1532.0,1525.0,1520.0,0.0,0.0,0.0,0.0,0.0,0.0,0.0,0.0
84687090,8,1527.0,1527.0,1531.0,1533.0,2000.0,1532.0,1525.0,1520.0,0.0,0.0,0.0,0.0,0.0,0.0,0.0,0.0
84707306,8,1527.0,1527.0,1531.0,1531.0,2000.0,1531.0,1525.0,1520.0,0.0,0.0,0.0,0.0,0.0,0.0,0.0,0.0
84730590,8,1530.0,1530.0,1528.0,1536.0,2000.0,1532.0,1525.0,1520.0,0.0,0.0,0.0,0.0,0.0,0.0,0.0,0.0
84750898,8,1528.0,1528.0,1533.0,1530.0,2000.0,1531.0,1525.0,1520.0,0.0,0.0,0.0,0.0,0.0,0.0,0.0,0.0
84770978,8,1528.0,1528.0,1530.0,1534.0,2000.0,1532.0,1525.0,1520.0,0.0,0.0,0.0,0.0,0.0,0.0,0.0,0.0
84790996,8,1530.0,1530.0,1532.0,1533.0,2000.0,1532.0,1525.0,1520.0,0.0,0.0,0.0,0.0,0.0,0.0,0.0,0.0
84816580,8,1529.0,1529.0,1533.0,1532.0,2000.0,1533.0,1525.0,1520.0,0.0,0.0,0.0,0.0,0.0,0.0,0.0,0.0
84841005,8,1529.0,1529.0,1532.0,1533.0,2000.0,1532.0,1525.0,1520.0,0.0,0.0,0.0,0.0,0.0,0.0,0.0,0.0
84867417,8,1531.0,1531.0,1532.0,1533.0,2000.0,1532.0,1525.0,1520.0,0.0,0.0,0.0,0.0,0.0,0.0,0.0,0.0
